Time,ClimberA1,ClimberA2,FRpos,FRCurrent,FRspeed,FRsetpoint,FRApos,FRACurrent,FREncpos,FREncSetpoint,FREncSpeed,FLpos,FLCurrent,FLspeed,FLsetpoint,FLApos,FLACurrent,FLEncpos,FLEncSetpoint,FLEncSpeed,BRpos,BRCurrent,BRspeed,BRsetpoint,BRApos,BRACurrent,BREncpos,BREncSetpoint,BREncSpeed,BLpos,BLCurrent,BLspeed,BLsetpoint,BLApos,BLACurrent,BLEncpos,BLEncSetpoint,BLEncSpeed,navx_Pitch,navx_Roll,navx_Yaw,navx_XAcc,navx_YAcc,navx_ZAcc,navx_Temp,navx_Bar,navx_Alt,navx_XDis,navx_YDis,GearPlacerState,ShootOutputV,ShootOutputCurrent,ShootEncPos,ShootEncVelocity,ShootSpeed,ShootSetpoint,CarouselSetpoint,CarouselCurrent,
0.12586599999992176,0.0,0.0,63670.0,0.0,0.0,0.0,0.0,0.125,3.7951656270000003,0.0,0.0,44241.0,0.0,0.0,0.0,0.0,0.0,1.8920896500000002,0.0,0.0,45992.0,0.0,0.0,0.0,0.0,0.0,4.9230951990000005,0.0,0.0,-63203.0,0.0,0.0,0.0,0.0,0.0,2.877196971,0.0,0.0,1.3799999952316284,0.9399999976158142,-1.7400000095367432,0.0184326171875,0.02435302734375,0.99993896484375,31.790000915527344,0.0,1.0,0.15447998046875,-0.7605438232421875,Closing,0.0,0.0,-26064.0,0.0,0.0,0.0,0.0,0.0,
0.19221799999999348,0.0,0.0,63670.0,0.0,0.0,0.0,0.0,0.125,3.7939449240000003,0.0,-0.0012207029999999897,44241.0,0.0,0.0,-0.0,0.0,0.0,1.8908689470000002,0.0,0.0,45992.0,0.0,0.0,0.0,0.0,0.0,4.9206537930000005,0.0,-0.0012207029999995456,-63203.0,0.0,0.0,-0.0,0.0,0.0,2.877196971,0.0,0.0,1.3899999856948853,0.9399999976158142,-1.75,0.01251220703125,0.0244140625,1.00152587890625,31.790000915527344,0.0,-3.0,0.15447998046875,-0.7605438232421875,Closing,0.0,0.0,-26064.0,0.0,0.0,0.0,0.0,0.0,
0.26379799999995157,0.0,0.0,63670.0,0.0,0.0,0.0,0.0,0.125,3.7963863300000003,0.0,0.0012207029999999897,44241.0,0.0,0.0,-0.0,0.0,0.0,1.8920896500000002,0.0,0.0,45992.0,0.0,0.0,0.0,0.0,0.0,4.9206537930000005,0.0,0.0,-63203.0,0.0,0.0,-0.0,0.0,0.0,2.878417674,0.0,0.0,1.3799999952316284,0.9399999976158142,-1.75,0.0191650390625,0.0184326171875,1.00048828125,31.790000915527344,0.0,2.0,0.15447998046875,-0.7605438232421875,Closing,0.0,0.0,-26064.0,0.0,0.0,0.0,0.0,0.0,
0.3348319999999367,0.0,0.0,63670.0,0.0,0.0,0.0,0.0,0.125,3.7951656270000003,0.0,-0.0012207029999999897,44241.0,0.0,0.0,-0.0,0.0,0.0,1.8933103530000002,0.0,0.0,45992.0,0.0,0.0,0.0,0.0,0.0,4.9230951990000005,0.0,-0.0012207029999995456,-63203.0,0.0,0.0,-0.0,0.0,0.0,2.877196971,0.0,0.0,1.3700000047683716,0.949999988079071,-1.75,0.017333984375,0.02587890625,1.0035400390625,31.790000915527344,0.0,0.0,0.15447998046875,-0.7605438232421875,Closing,0.0,0.0,-26064.0,0.0,0.0,0.0,0.0,0.0,
0.4063739999999525,0.0,0.0,63670.0,0.0,0.0,0.0,0.0,0.125,3.7951656270000003,0.0,0.0,44241.0,0.0,0.0,-0.0,0.0,0.0,1.8920896500000002,0.0,0.0,45992.0,0.0,0.0,0.0,0.0,0.0,4.9206537930000005,0.0,0.0012207029999995456,-63203.0,0.0,0.0,-0.0,0.0,0.0,2.875976268,0.0,0.0,1.3899999856948853,0.949999988079071,-1.7300000190734863,0.01617431640625,0.02423095703125,1.0009765625,31.790000915527344,0.0,0.0,0.15447998046875,-0.7605438232421875,Closing,0.0,0.0,-26064.0,0.0,0.0,0.0,0.0,0.0,
0.4722709999999497,0.0,0.0,63670.0,0.0,0.0,0.0,0.0,0.125,3.7951656270000003,0.0,0.0,44241.0,0.0,0.0,-0.0,0.0,0.0,1.8920896500000002,0.0,0.0,45992.0,0.0,0.0,0.0,0.0,0.0,4.924315902,0.0,0.0,-63203.0,0.0,0.0,-0.0,0.0,0.0,2.878417674,0.0,0.0,1.3899999856948853,0.9399999976158142,-1.7100000381469727,0.016357421875,0.022216796875,1.00634765625,31.790000915527344,0.0,0.0,0.15447998046875,-0.7605438232421875,Closing,0.0,0.0,-26064.0,0.0,0.0,0.0,0.0,0.0,
0.5463389999999199,0.0,0.0,63670.0,0.0,0.0,0.0,0.0,0.125,3.7951656270000003,0.0,0.0012207029999999897,44241.0,0.0,0.0,-0.0,0.0,0.0,1.8920896500000002,0.0,0.0,45992.0,0.0,0.0,0.0,0.0,0.0,4.921874496,0.0,0.0,-63203.0,0.0,0.0,-0.0,0.0,0.0,2.877196971,0.0,0.0,1.3700000047683716,0.9399999976158142,-1.7200000286102295,0.01348876953125,0.01806640625,1.00372314453125,31.790000915527344,0.0,-2.0,0.15447998046875,-0.7605438232421875,Closing,0.0,0.0,-26064.0,0.0,0.0,0.0,0.0,0.0,
0.6177089999999152,0.0,0.0,63670.0,0.0,0.0,0.0,0.0,0.125,3.7951656270000003,0.0,0.0,44241.0,0.0,0.0,-0.0,0.0,0.0,1.8933103530000002,0.0,0.0,45992.0,0.0,0.0,0.0,0.0,0.0,4.921874496,0.0,0.0,-63203.0,0.0,0.0,-0.0,0.0,0.0,2.877196971,0.0,0.0,1.3799999952316284,0.9399999976158142,-1.7200000286102295,0.0164794921875,0.02392578125,0.99969482421875,31.75,0.0,0.0,0.15447998046875,-0.7605438232421875,Closing,0.0,0.0,-26064.0,0.0,0.0,0.0,0.0,0.0,
0.6910249999999069,0.0,0.0,63670.0,0.0,0.0,0.0,0.0,0.125,3.7951656270000003,0.0,0.0,44241.0,0.0,0.0,-0.0,0.0,0.0,1.8920896500000002,0.0,0.0012207029999995456,45992.0,0.0,0.0,0.0,0.0,0.0,4.921874496,0.0,0.0,-63203.0,0.0,0.0,-0.0,0.0,0.0,2.878417674,0.0,0.0,1.3899999856948853,0.949999988079071,-1.7200000286102295,0.01947021484375,0.026123046875,0.9959716796875,31.75,0.0,2.0,0.15447998046875,-0.7605438232421875,Closing,0.0,0.0,-26064.0,0.0,0.0,0.0,0.0,0.0,
0.7648829999999143,0.0,0.0,63670.0,0.0,0.0,0.0,0.0,0.125,3.7951656270000003,0.0,0.0,44241.0,0.0,0.0,-0.0,0.0,0.0,1.8920896500000002,0.0,0.0,45992.0,0.0,0.0,0.0,0.0,0.0,4.921874496,0.0,0.0,-63203.0,0.0,0.0,-0.0,0.0,0.0,2.878417674,0.0,0.0,1.3899999856948853,0.9399999976158142,-1.7200000286102295,0.01397705078125,0.02294921875,1.0023193359375,31.75,0.0,-2.0,0.15447998046875,-0.7605438232421875,Closing,0.0,0.0,-26064.0,0.0,0.0,0.0,0.0,0.0,
0.8329729999999982,0.0,0.0,63670.0,0.0,0.0,0.0,0.0,0.125,3.7963863300000003,0.0,0.0,44241.0,0.0,0.0,-0.0,0.0,0.0,1.8920896500000002,0.0,0.0,45992.0,0.0,0.0,0.0,0.0,0.0,4.9230951990000005,0.0,0.0,-63203.0,0.0,0.0,-0.0,0.0,0.0,2.878417674,0.0,0.0,1.3799999952316284,0.9300000071525574,-1.7200000286102295,0.01531982421875,0.02191162109375,1.0029296875,31.75,0.0,0.0,0.15447998046875,-0.7605438232421875,Closing,0.0,0.0,-26064.0,0.0,0.0,0.0,0.0,0.0,
0.9052049999999581,0.0,0.0,63670.0,0.0,0.0,0.0,0.0,0.125,3.7951656270000003,0.0,0.0012207029999999897,44241.0,0.0,0.0,-0.0,0.0,0.0,1.8920896500000002,0.0,0.0,45992.0,0.0,0.0,0.0,0.0,0.0,4.921874496,0.0,0.0012207029999995456,-63203.0,0.0,0.0,-0.0,0.0,0.0,2.877196971,0.0,0.0,1.3899999856948853,0.9399999976158142,-1.7300000190734863,0.0196533203125,0.0235595703125,1.0045166015625,31.75,0.0,3.0,0.15447998046875,-0.7605438232421875,Closing,0.0,0.0,-26064.0,0.0,0.0,0.0,0.0,0.0,
0.9726529999999329,0.0,0.0,63670.0,0.0,0.0,0.0,0.0,0.125,3.7939449240000003,0.0,0.0,44241.0,0.0,0.0,-0.0,0.0,0.0,1.8920896500000002,0.0,0.0,45992.0,0.0,0.0,0.0,0.0,0.0,4.9230951990000005,0.0,0.0,-63203.0,0.0,0.0,-0.0,0.0,0.0,2.877196971,0.0,0.0,1.3899999856948853,0.949999988079071,-1.75,0.02252197265625,0.0250244140625,0.9949951171875,31.75,0.0,5.0,0.15447998046875,-0.7605438232421875,Closing,0.0,0.0,-26064.0,0.0,0.0,0.0,0.0,0.0,
1.0461599999999163,0.0,0.0,63670.0,0.0,0.0,0.0,0.0,0.125,3.7951656270000003,0.0,0.0012207029999999897,44241.0,0.0,0.0,-0.0,0.0,0.0,1.8920896500000002,0.0,0.0012207029999995456,45992.0,0.0,0.0,0.0,0.0,0.0,4.9230951990000005,0.0,0.0012207029999995456,-63203.0,0.0,0.0,-0.0,0.0,0.0,2.877196971,0.0,0.0,1.3899999856948853,0.949999988079071,-1.75,0.01507568359375,0.02606201171875,1.00494384765625,31.75,0.0,-1.0,0.15447998046875,-0.7605438232421875,Closing,0.0,0.0,-26064.0,0.0,0.0,0.0,0.0,0.0,
1.1119679999999934,0.0,0.0,63670.0,0.0,0.0,0.0,0.0,0.125,3.7951656270000003,0.0,-0.0012207029999999897,44241.0,0.0,0.0,-0.0,0.0,0.0,1.8920896500000002,0.0,-0.0012207029999995456,45992.0,0.0,0.0,0.0,0.0,0.0,4.921874496,0.0,-0.0012207029999995456,-63203.0,0.0,0.0,-0.0,0.0,0.0,2.878417674,0.0,0.0,1.3899999856948853,0.9399999976158142,-1.75,0.0128173828125,0.02215576171875,1.000732421875,31.780000686645508,0.0,-3.0,0.15447998046875,-0.7605438232421875,Closing,0.0,0.0,-26064.0,0.0,0.0,0.0,0.0,0.0,
1.1859459999999962,0.0,0.0,63670.0,0.0,0.0,0.0,0.0,0.125,3.7951656270000003,0.0,0.0012207029999999897,44241.0,0.0,0.0,-0.0,0.0,0.0,1.8920896500000002,0.0,0.0012207029999995456,45992.0,0.0,0.0,0.0,0.0,0.0,4.921874496,0.0,0.0012207029999995456,-63203.0,0.0,0.0,-0.0,0.0,0.0,2.878417674,0.0,0.0,1.3899999856948853,0.9399999976158142,-1.75,0.01251220703125,0.02130126953125,1.003173828125,31.780000686645508,0.0,-3.0,0.15447998046875,-0.7605438232421875,Closing,0.0,0.0,-26064.0,0.0,0.0,0.0,0.0,0.0,
1.2529269999999086,0.0,0.0,63670.0,0.0,0.0,0.0,0.0,0.125,3.7951656270000003,0.0,-0.0012207029999999897,44241.0,0.0,0.0,-0.0,0.0,0.0,1.8920896500000002,0.0,0.0,45992.0,0.0,0.0,0.0,0.0,0.0,4.921874496,0.0,0.0,-63203.0,0.0,0.0,-0.0,0.0,0.0,2.877196971,0.0,0.0,1.3899999856948853,0.9399999976158142,-1.75,0.01580810546875,0.0220947265625,0.9998779296875,31.780000686645508,0.0,0.0,0.15447998046875,-0.7605438232421875,Closing,0.0,0.0,-26064.0,0.0,0.0,0.0,0.0,0.0,
1.3247309999999124,0.0,0.0,63670.0,0.0,0.0,0.0,0.0,0.125,3.7951656270000003,0.0,0.0,44241.0,0.0,0.0,-0.0,0.0,0.0,1.8920896500000002,0.0,0.0,45992.0,0.0,0.0,0.0,0.0,0.0,4.91943309,0.0,0.0,-63203.0,0.0,0.0,-0.0,0.0,0.0,2.877196971,0.0,0.0,1.3899999856948853,0.949999988079071,-1.7599999904632568,0.0169677734375,0.0244140625,1.0020751953125,31.780000686645508,0.0,0.0,0.15447998046875,-0.7605438232421875,Closing,0.0,0.0,-26064.0,0.0,0.0,0.0,0.0,0.0,
1.3939070000000064,0.0,0.0,63670.0,0.0,0.0,0.0,0.0,0.125,3.7951656270000003,0.0,0.0,44241.0,0.0,0.0,-0.0,0.0,0.0,1.8920896500000002,0.0,0.0,45992.0,0.0,0.0,0.0,0.0,0.0,4.921874496,0.0,0.0,-63203.0,0.0,0.0,-0.0,0.0,0.0,2.877196971,0.0,0.0,1.399999976158142,0.9399999976158142,-1.7699999809265137,0.01617431640625,0.0245361328125,1.002197265625,31.780000686645508,0.0,0.0,0.15447998046875,-0.7605438232421875,Closing,0.0,0.0,-26064.0,0.0,0.0,0.0,0.0,0.0,
1.470985999999917,0.0,0.0,63670.0,0.0,0.0,0.0,0.0,0.125,3.7939449240000003,0.0,0.0,44241.0,0.0,0.0,-0.0,0.0,0.0,1.8920896500000002,0.0,0.0,45992.0,0.0,0.0,0.0,0.0,0.0,4.921874496,0.0,0.0,-63203.0,0.0,0.0,-0.0,0.0,0.0,2.877196971,0.0,0.0,1.409999966621399,0.9599999785423279,-1.7899999618530273,0.0234375,0.0245361328125,0.99896240234375,31.780000686645508,0.0,6.0,0.15447998046875,-0.7604522705078125,Closing,0.0,0.0,-26064.0,0.0,0.0,0.0,0.0,0.0,
1.664393999999971,0.0,0.0,63670.0,0.0,0.0,0.0,0.0,0.125,3.7951656270000003,0.0,0.0,44241.0,0.0,0.0,-0.0,0.0,0.0,1.8920896500000002,0.0,0.0,45992.0,0.0,0.0,0.0,0.0,0.0,4.921874496,0.0,0.0,-63203.0,0.0,0.0,-0.0,0.0,0.0,2.877196971,0.0,0.0,1.409999966621399,0.9300000071525574,-1.7799999713897705,0.0120849609375,0.02679443359375,1.0052490234375,31.780000686645508,0.0,-4.0,0.15447998046875,-0.7604522705078125,Closing,0.0,0.0,-26064.0,0.0,0.0,0.0,0.0,0.0,
1.8466699999999254,0.0,0.0,63670.0,0.0,0.0,0.0,0.0,0.125,3.7939449240000003,0.0,0.0,44241.0,0.0,0.0,-0.0,0.0,0.0,1.8920896500000002,0.0,0.0,45992.0,0.0,0.0,0.0,0.0,0.0,4.9230951990000005,0.0,0.0,-63203.0,0.0,0.0,-0.0,0.0,0.0,2.877196971,0.0,0.0,1.409999966621399,0.9300000071525574,-1.7899999618530273,0.03338623046875,0.02972412109375,1.0093994140625,31.780000686645508,0.0,16.0,0.15447998046875,-0.7604522705078125,Closing,0.0,0.0,-26064.0,0.0,0.0,0.0,0.0,0.0,
1.9644169999998995,0.0,0.0,63670.0,0.0,0.0,0.0,0.0,0.125,3.7951656270000003,0.0,0.0,44241.0,0.0,0.0,-0.0,0.0,0.0,1.8920896500000002,0.0,0.0,45992.0,0.0,0.0,0.0,0.0,0.0,4.9206537930000005,0.0,0.0012207029999995456,-63203.0,0.0,0.0,-0.0,0.0,0.0,2.877196971,0.0,0.0,1.3899999856948853,0.949999988079071,-1.7899999618530273,0.02099609375,0.0091552734375,1.0096435546875,31.780000686645508,0.0,4.0,0.15447998046875,-0.7604522705078125,Closing,0.0,0.0,-26064.0,0.0,0.0,0.0,0.0,0.0,
2.038219999999972,0.0,0.0,63670.0,0.0,0.0,0.0,0.0,0.125,3.7951656270000003,0.0,0.0,44241.0,0.0,0.0,-0.0,0.0,0.0,1.8920896500000002,0.0,0.0,45992.0,0.0,0.0,0.0,0.0,0.0,4.921874496,0.0,0.0,-63203.0,0.0,0.0,-0.0,0.0,0.0,2.878417674,0.0,0.0,1.399999976158142,0.949999988079071,-1.7799999713897705,0.00836181640625,0.03533935546875,1.00946044921875,31.780000686645508,0.0,-8.0,0.15447998046875,-0.7604522705078125,Closing,0.0,0.0,-26064.0,0.0,0.0,0.0,0.0,0.0,
2.107560999999987,0.0,0.0,63670.0,0.0,0.0,0.0,0.0,0.125,3.7939449240000003,0.0,-0.0012207029999999897,44241.0,0.0,0.0,-0.0,0.0,0.0,1.8920896500000002,0.0,0.0,45992.0,0.0,0.0,0.0,0.0,0.0,4.921874496,0.0,-0.0012207029999995456,-63203.0,0.0,0.0,-0.0,0.0,0.0,2.877196971,0.0,0.0,1.4199999570846558,0.9399999976158142,-1.7799999713897705,0.02862548828125,0.045654296875,1.00128173828125,31.770000457763672,0.0,11.0,0.15447998046875,-0.7603759765625,Closing,0.0,0.0,-26064.0,0.0,0.0,0.0,0.0,0.0,
2.174060999999987,0.0,0.0,63670.0,0.0,0.0,0.0,0.0,0.125,3.7951656270000003,0.0,0.0,44241.0,0.0,0.0,-0.0,0.0,0.0,1.8920896500000002,0.0,0.0,45992.0,0.0,0.0,0.0,0.0,0.0,4.9230951990000005,0.0,0.0,-63203.0,0.0,0.0,-0.0,0.0,0.0,2.877196971,0.0,0.0,1.399999976158142,0.9399999976158142,-1.7899999618530273,0.0230712890625,0.01690673828125,1.00457763671875,31.770000457763672,0.0,6.0,0.15447998046875,-0.7603607177734375,Closing,0.0,0.0,-26064.0,0.0,0.0,0.0,0.0,0.0,
2.248837999999989,0.0,0.0,63670.0,0.0,0.0,0.0,0.0,0.125,3.7951656270000003,0.0,0.0,44241.0,0.0,0.0,-0.0,0.0,0.0,1.8920896500000002,0.0,0.0,45992.0,0.0,0.0,0.0,0.0,0.0,4.921874496,0.0,0.0,-63203.0,0.0,0.0,-0.0,0.0,0.0,2.877196971,0.0,0.0,1.399999976158142,0.9300000071525574,-1.7799999713897705,0.02825927734375,0.027099609375,1.00811767578125,31.770000457763672,0.0,11.0,0.15447998046875,-0.760406494140625,Closing,0.0,0.0,-26064.0,0.0,0.0,0.0,0.0,0.0,
2.3208580000000074,0.0,0.0,63670.0,0.0,0.0,0.0,0.0,0.125,3.7951656270000003,0.0,0.0012207029999999897,44241.0,0.0,0.0,-0.0,0.0,0.0,1.8920896500000002,0.0,0.0,45992.0,0.0,0.0,0.0,0.0,0.0,4.9230951990000005,0.0,0.0,-63203.0,0.0,0.0,-0.0,0.0,0.0,2.877196971,0.0,0.0,1.4199999570846558,0.9300000071525574,-1.7799999713897705,0.01263427734375,0.024169921875,0.99468994140625,31.770000457763672,0.0,-3.0,0.15447998046875,-0.760406494140625,Closing,0.0,0.0,-26064.0,0.0,0.0,0.0,0.0,0.0,
2.3911699999999256,0.0,0.0,63670.0,0.0,0.0,0.0,0.0,0.125,3.7951656270000003,0.0,-0.0012207029999999897,44241.0,0.0,0.0,-0.0,0.0,0.0,1.8920896500000002,0.0,-0.0012207029999995456,45992.0,0.0,0.0,0.0,0.0,0.0,4.9206537930000005,0.0,-0.0012207029999995456,-63203.0,0.0,0.0,-0.0,0.0,0.0,2.878417674,0.0,0.0,1.4299999475479126,0.9200000166893005,-1.7799999713897705,0.00579833984375,0.0311279296875,0.9859619140625,31.770000457763672,0.0,-10.0,0.15447998046875,-0.760406494140625,Closing,0.0,0.0,-26064.0,0.0,0.0,0.0,0.0,0.0,
2.4646419999999924,0.0,0.0,63670.0,0.0,0.0,0.0,0.0,0.0,3.7939449240000003,0.0,0.0012207029999999897,44241.0,0.0,0.0,-0.0,0.0,0.0,1.8920896500000002,0.0,0.0012207029999995456,45992.0,0.0,0.0,0.0,0.0,0.0,4.9206537930000005,0.0,0.0012207029999995456,-63203.0,0.0,0.0,-0.0,0.0,0.0,2.877196971,0.0,0.0,1.409999966621399,0.9300000071525574,-1.7799999713897705,0.01568603515625,0.0194091796875,0.98651123046875,31.770000457763672,0.0,0.0,0.15447998046875,-0.760406494140625,Closing,0.0,0.0,-26064.0,0.0,0.0,0.0,0.0,0.0,
2.5328539999999338,0.0,0.0,63670.0,0.0,0.0,0.0,0.0,0.125,3.7951656270000003,0.0,0.0,44241.0,0.0,0.0,-0.0,0.0,0.0,1.8920896500000002,0.0,0.0,45992.0,0.0,0.0,0.0,0.0,0.0,4.921874496,0.0,-0.0012207029999995456,-63203.0,0.0,0.0,-0.0,0.0,0.0,2.877196971,0.0,0.0,1.399999976158142,0.9300000071525574,-1.809999942779541,0.0272216796875,0.03094482421875,1.00823974609375,31.770000457763672,0.0,10.0,0.15447998046875,-0.760406494140625,Closing,0.0,0.0,-26064.0,0.0,0.0,0.0,0.0,0.0,
2.6042820000000066,0.0,0.0,63670.0,0.0,0.0,0.0,0.0,0.125,3.7939449240000003,0.0,0.0012207029999999897,44241.0,0.0,0.0,-0.0,0.0,0.0,1.8920896500000002,0.0,0.0,45992.0,0.0,0.0,0.0,0.0,0.0,4.921874496,0.0,0.0012207029999995456,-63203.0,0.0,0.0,-0.0,0.0,0.0,2.877196971,0.0,0.0,1.4199999570846558,0.9200000166893005,-1.7999999523162842,0.0223388671875,0.02032470703125,1.0155029296875,31.799999237060547,0.0,6.0,0.15447998046875,-0.760406494140625,Closing,0.0,0.0,-26064.0,0.0,0.0,0.0,0.0,0.0,
2.6725760000000007,0.0,0.0,63670.0,0.0,0.0,0.0,0.0,0.125,3.7951656270000003,0.0,-0.0012207029999999897,44241.0,0.0,0.0,-0.0,0.0,0.0,1.8920896500000002,0.0,0.0,45992.0,0.0,0.0,0.0,0.0,0.0,4.9230951990000005,0.0,0.0,-63203.0,0.0,0.0,-0.0,0.0,0.0,2.878417674,0.0,0.0,1.399999976158142,0.9300000071525574,-1.7899999618530273,0.0152587890625,0.01904296875,1.008544921875,31.799999237060547,0.0,0.0,0.15447998046875,-0.760406494140625,Closing,0.0,0.0,-26064.0,0.0,0.0,0.0,0.0,0.0,
2.748228999999934,0.0,0.0,63670.0,0.0,0.0,0.0,0.0,0.125,3.7951656270000003,0.0,0.0,44241.0,0.0,0.0,-0.0,0.0,0.0,1.8920896500000002,0.0,0.0012207029999995456,45992.0,0.0,0.0,0.0,0.0,0.0,4.921874496,0.0,0.0,-63203.0,0.0,0.0,-0.0,0.0,0.0,2.878417674,0.0,0.0,1.3899999856948853,0.9300000071525574,-1.7999999523162842,0.017333984375,0.0255126953125,1.00225830078125,31.799999237060547,0.0,0.0,0.15447998046875,-0.760406494140625,Closing,0.0,0.0,-26064.0,0.0,0.0,0.0,0.0,0.0,
2.8173919999999923,0.0,0.0,63670.0,0.0,0.0,0.0,0.0,0.125,3.7951656270000003,0.0,0.0012207029999999897,44241.0,0.0,0.0,-0.0,0.0,0.0,1.8920896500000002,0.0,0.0,45992.0,0.0,0.0,0.0,0.0,0.0,4.9206537930000005,0.0,0.0,-63203.0,0.0,0.0,-0.0,0.0,0.0,2.877196971,0.0,0.0,1.399999976158142,0.9100000262260437,-1.7999999523162842,0.01605224609375,0.0159912109375,1.000732421875,31.799999237060547,0.0,0.0,0.15447998046875,-0.760406494140625,Closing,0.0,0.0,-26064.0,0.0,0.0,0.0,0.0,0.0,
2.890146999999997,0.0,0.0,63670.0,0.0,0.0,0.0,0.0,0.125,3.7951656270000003,0.0,-0.0012207029999999897,44241.0,0.0,0.0,-0.0,0.0,0.0,1.8920896500000002,0.0,0.0,45992.0,0.0,0.0,0.0,0.0,0.0,4.921874496,0.0,-0.0012207029999995456,-63203.0,0.0,0.0,-0.0,0.0,0.0,2.878417674,0.0,0.0,1.3899999856948853,0.9300000071525574,-1.7899999618530273,0.02264404296875,0.0306396484375,0.99371337890625,31.799999237060547,0.0,6.0,0.15447998046875,-0.760406494140625,Closing,0.0,0.0,-26064.0,0.0,0.0,0.0,0.0,0.0,
2.955689999999944,0.0,0.0,63670.0,0.0,0.0,0.0,0.0,0.125,3.7951656270000003,0.0,0.0,44241.0,0.0,0.0,-0.0,0.0,0.0,1.8920896500000002,0.0,0.0,45992.0,0.0,0.0,0.0,0.0,0.0,4.921874496,0.0,0.0,-63203.0,0.0,0.0,-0.0,0.0,0.0,2.878417674,0.0,0.0,1.399999976158142,0.9300000071525574,-1.809999942779541,0.00433349609375,0.01544189453125,0.986572265625,31.799999237060547,0.0,-11.0,0.15447998046875,-0.760406494140625,Closing,0.0,0.0,-26064.0,0.0,0.0,0.0,0.0,0.0,
3.0328619999999646,0.0,0.0,63670.0,0.0,0.0,0.0,0.0,0.125,3.7951656270000003,0.0,0.0,44241.0,0.0,0.0,-0.0,0.0,0.0,1.8920896500000002,0.0,-0.0012207029999995456,45992.0,0.0,0.0,0.0,0.0,0.0,4.921874496,0.0,0.0,-63203.0,0.0,0.0,-0.0,0.0,0.0,2.877196971,0.0,0.0,1.399999976158142,0.9300000071525574,-1.7999999523162842,0.01751708984375,0.03021240234375,0.9976806640625,31.799999237060547,0.0,1.0,0.15447998046875,-0.760406494140625,Closing,0.0,0.0,-26064.0,0.0,0.0,0.0,0.0,0.0,
3.1099899999999905,0.0,0.0,63670.0,0.0,0.0,0.0,0.0,0.125,3.7951656270000003,0.0,0.0,44241.0,0.0,0.0,-0.0,0.0,0.0,1.8920896500000002,0.0,0.0012207029999995456,45992.0,0.0,0.0,0.0,0.0,0.0,4.9230951990000005,0.0,0.0,-63203.0,0.0,0.0,-0.0,0.0,0.0,2.877196971,0.0,0.0,1.3899999856948853,0.9300000071525574,-1.7999999523162842,0.01092529296875,0.018798828125,0.995361328125,31.81999969482422,0.0,-5.0,0.15447998046875,-0.760406494140625,Closing,0.0,0.0,-26064.0,0.0,0.0,0.0,0.0,0.0,
3.1871209999999266,0.0,0.0,63670.0,0.0,0.0,0.0,0.0,0.125,3.7939449240000003,0.0,0.0,44241.0,0.0,0.0,-0.0,0.0,0.0,1.8920896500000002,0.0,0.0,45992.0,0.0,0.0,0.0,0.0,0.0,4.9206537930000005,0.0,0.0012207029999995456,-63203.0,0.0,0.0,-0.0,0.0,0.0,2.878417674,0.0,0.0,1.3899999856948853,0.9300000071525574,-1.8200000524520874,0.00543212890625,0.02545166015625,0.9853515625,31.81999969482422,0.0,-10.0,0.15447998046875,-0.760406494140625,Closing,0.0,0.0,-26064.0,0.0,0.0,0.0,0.0,0.0,
3.2556509999999546,0.0,0.0,63670.0,0.0,0.0,0.0,0.0,0.125,3.7939449240000003,0.0,-0.0012207029999999897,44241.0,0.0,0.0,-0.0,0.0,0.0,1.8920896500000002,0.0,0.0,45992.0,0.0,0.0,0.0,0.0,0.0,4.921874496,0.0,-0.0012207029999995456,-63203.0,0.0,0.0,-0.0,0.0,0.0,2.878417674,0.0,0.0,1.3899999856948853,0.9300000071525574,-1.8200000524520874,0.02484130859375,0.0382080078125,1.0032958984375,31.81999969482422,0.0,7.0,0.15447998046875,-0.760406494140625,Closing,0.0,0.0,-26064.0,0.0,0.0,0.0,0.0,0.0,
3.3319049999999115,0.0,0.0,63670.0,0.0,0.0,0.0,0.0,0.125,3.7951656270000003,0.0,0.0,44241.0,0.0,0.0,-0.0,0.0,0.0,1.8920896500000002,0.0,0.0,45992.0,0.0,0.0,0.0,0.0,0.0,4.9206537930000005,0.0,0.0,-63203.0,0.0,0.0,-0.0,0.0,0.0,2.878417674,0.0,0.0,1.3799999952316284,0.949999988079071,-1.809999942779541,0.032958984375,0.02642822265625,1.0191650390625,31.81999969482422,0.0,15.0,0.15447998046875,-0.760406494140625,Closing,0.0,0.0,-26064.0,0.0,0.0,0.0,0.0,0.0,
3.4092119999999415,0.0,0.0,63670.0,0.0,0.0,0.0,0.0,0.125,3.7951656270000003,0.0,0.0,44241.0,0.0,0.0,-0.0,0.0,0.0,1.8920896500000002,0.0,0.0,45992.0,0.0,0.0,0.0,0.0,0.0,4.9206537930000005,0.0,0.0,-63203.0,0.0,0.0,-0.0,0.0,0.0,2.877196971,0.0,0.0,1.3799999952316284,0.9200000166893005,-1.809999942779541,0.01727294921875,0.0416259765625,0.99249267578125,31.81999969482422,0.0,0.0,0.15447998046875,-0.760406494140625,Closing,0.0,0.0,-26064.0,0.0,0.0,0.0,0.0,0.0,
3.4882539999999573,0.0,0.0,63670.0,0.0,0.0,0.0,0.0,0.125,3.7939449240000003,0.0,0.0,44241.0,0.0,0.0,-0.0,0.0,0.0,1.8920896500000002,0.0,0.0,45992.0,0.0,0.0,0.0,0.0,0.0,4.9230951990000005,0.0,0.0012207029999995456,-63203.0,0.0,0.0,-0.0,0.0,0.0,2.878417674,0.0,0.0,1.3899999856948853,0.9300000071525574,-1.7999999523162842,0.00732421875,0.01617431640625,0.9818115234375,31.81999969482422,0.0,-8.0,0.15447998046875,-0.760406494140625,Closing,0.0,0.0,-26064.0,0.0,0.0,0.0,0.0,0.0,
3.5643319999999368,0.0,0.0,63670.0,0.0,0.0,0.0,0.0,0.125,3.7951656270000003,0.0,0.0,44241.0,0.0,0.0,-0.0,0.0,0.0,1.8920896500000002,0.0,0.0,45992.0,0.0,0.0,0.0,0.0,0.0,4.921874496,0.0,0.0,-63203.0,0.0,0.0,-0.0,0.0,0.0,2.877196971,0.0,0.0,1.3799999952316284,0.9399999976158142,-1.809999942779541,0.0230712890625,0.0274658203125,1.003173828125,31.81999969482422,0.0,6.0,0.15447998046875,-0.760406494140625,Closing,0.0,0.0,-26064.0,0.0,0.0,0.0,0.0,0.0,
3.6422449999999955,0.0,0.0,63670.0,0.0,0.0,0.0,0.0,0.125,3.7939449240000003,0.0,0.0,44241.0,0.0,0.0,-0.0,0.0,0.0,1.8920896500000002,0.0,0.0,45992.0,0.0,0.0,0.0,0.0,0.0,4.921874496,0.0,0.0,-63203.0,0.0,0.0,-0.0,0.0,0.0,2.878417674,0.0,0.0,1.3799999952316284,0.949999988079071,-1.8200000524520874,0.01422119140625,0.027099609375,0.97967529296875,31.75,0.0,-2.0,0.15447998046875,-0.760406494140625,Closing,0.0,0.0,-26064.0,0.0,0.0,0.0,0.0,0.0,
3.7121419999999925,0.0,0.0,63670.0,0.0,0.0,0.0,0.0,0.125,3.7963863300000003,0.0,-0.0012207029999999897,44241.0,0.0,0.0,-0.0,0.0,0.0,1.8920896500000002,0.0,0.0,45992.0,0.0,0.0,0.0,0.0,0.0,4.9206537930000005,0.0,-0.0012207029999995456,-63203.0,0.0,0.0,-0.0,0.0,0.0,2.878417674,0.0,0.0,1.3799999952316284,0.9300000071525574,-1.7999999523162842,0.008544921875,0.02862548828125,0.98822021484375,31.75,0.0,-7.0,0.15447998046875,-0.760406494140625,Closing,0.0,0.0,-26064.0,0.0,0.0,0.0,0.0,0.0,
3.7899349999999394,0.0,0.0,63670.0,0.0,0.0,0.0,0.0,0.0,3.7951656270000003,0.0,0.0,44241.0,0.0,0.0,-0.0,0.0,0.0,1.8933103530000002,0.0,0.0,45992.0,0.0,0.0,0.0,0.0,0.0,4.91943309,0.0,0.0,-63203.0,0.0,0.0,-0.0,0.0,0.0,2.878417674,0.0,0.0,1.3799999952316284,0.9399999976158142,-1.809999942779541,0.0140380859375,0.00787353515625,1.00567626953125,31.75,0.0,-1.0,0.15447998046875,-0.760406494140625,Closing,0.0,0.0,-26064.0,0.0,0.0,0.0,0.0,0.0,
3.8650509999999776,0.0,0.0,63670.0,0.0,0.0,0.0,0.0,0.125,3.7939449240000003,0.0,0.0,44241.0,0.0,0.0,-0.0,0.0,0.0,1.8920896500000002,0.0,0.0,45992.0,0.0,0.0,0.0,0.0,0.0,4.921874496,0.0,0.0,-63203.0,0.0,0.0,-0.0,0.0,0.0,2.878417674,0.0,0.0,1.3700000047683716,0.9399999976158142,-1.809999942779541,0.02294921875,0.0235595703125,1.0137939453125,31.75,0.0,6.0,0.15447998046875,-0.760406494140625,Closing,0.0,0.0,-26064.0,0.0,0.0,0.0,0.0,0.0,
3.9407699999999024,0.0,0.0,63670.0,0.0,0.0,0.0,0.0,0.125,3.7951656270000003,0.0,0.0,44241.0,0.0,0.0,-0.0,0.0,0.0,1.8920896500000002,0.0,0.0,45992.0,0.0,0.0,0.0,0.0,0.0,4.9206537930000005,0.0,0.0012207029999995456,-63203.0,0.0,0.0,-0.0,0.0,0.0,2.877196971,0.0,0.0,1.3700000047683716,0.9300000071525574,-1.809999942779541,0.01666259765625,0.0245361328125,1.030517578125,31.75,0.0,0.0,0.15447998046875,-0.760406494140625,Closing,0.0,0.0,-26064.0,0.0,0.0,0.0,0.0,0.0,
4.011260000000009,0.0,0.0,63670.0,0.0,0.0,0.0,0.0,0.125,3.7963863300000003,0.0,0.0,44241.0,0.0,0.0,-0.0,0.0,0.0,1.8920896500000002,0.0,0.0,45992.0,0.0,0.0,0.0,0.0,0.0,4.921874496,0.0,-0.0012207029999995456,-63203.0,0.0,0.0,-0.0,0.0,0.0,2.878417674,0.0,0.0,1.3799999952316284,0.9200000166893005,-1.8200000524520874,0.01123046875,0.01763916015625,0.98980712890625,31.75,0.0,-4.0,0.15447998046875,-0.760406494140625,Closing,0.0,0.0,-26064.0,0.0,0.0,0.0,0.0,0.0,
4.088693999999902,0.0,0.0,63670.0,0.0,0.0,0.0,0.0,0.125,3.7939449240000003,0.0,0.0,44241.0,0.0,0.0,-0.0,0.0,0.0,1.8920896500000002,0.0,0.0,45992.0,0.0,0.0,0.0,0.0,0.0,4.9206537930000005,0.0,0.0,-63203.0,0.0,0.0,-0.0,0.0,0.0,2.877196971,0.0,0.0,1.3700000047683716,0.9399999976158142,-1.8300000429153442,0.009765625,0.02630615234375,0.9822998046875,31.75,0.0,-6.0,0.15447998046875,-0.760406494140625,Closing,0.0,0.0,-26064.0,0.0,0.0,0.0,0.0,0.0,
4.158860999999917,0.0,0.0,63670.0,0.0,0.0,0.0,0.0,0.125,3.7951656270000003,0.0,0.0012207029999999897,44241.0,0.0,0.0,-0.0,0.0,0.0,1.8920896500000002,0.0,0.0,45992.0,0.0,0.0,0.0,0.0,0.0,4.921874496,0.0,0.0012207029999995456,-63203.0,0.0,0.0,-0.0,0.0,0.0,2.877196971,0.0,0.0,1.3700000047683716,0.9599999785423279,-1.840000033378601,0.00799560546875,0.02001953125,0.9898681640625,31.809999465942383,0.0,-8.0,0.15447998046875,-0.760406494140625,Closing,0.0,0.0,-26064.0,0.0,0.0,0.0,0.0,0.0,
4.230594999999972,0.0,0.0,63670.0,0.0,0.0,0.0,0.0,0.125,3.7951656270000003,0.0,0.0,44241.0,0.0,0.0,-0.0,0.0,0.0,1.8933103530000002,0.0,0.0,45992.0,0.0,0.0,0.0,0.0,0.0,4.9206537930000005,0.0,0.0,-63203.0,0.0,0.0,-0.0,0.0,0.0,2.877196971,0.0,0.0,1.3700000047683716,0.9300000071525574,-1.840000033378601,0.0203857421875,0.020751953125,1.021728515625,31.809999465942383,0.0,3.0,0.15447998046875,-0.760406494140625,Closing,0.0,0.0,-26064.0,0.0,0.0,0.0,0.0,0.0,
4.3084229999999515,0.0,0.0,63670.0,0.0,0.0,0.0,0.0,0.125,3.7951656270000003,0.0,0.0,44241.0,0.0,0.0,-0.0,0.0,0.0,1.8920896500000002,0.0,-0.0012207029999995456,45992.0,0.0,0.0,0.0,0.0,0.0,4.921874496,0.0,0.0,-63203.0,0.0,0.0,-0.0,0.0,0.0,2.878417674,0.0,0.0,1.3700000047683716,0.9300000071525574,-1.8300000429153442,0.0263671875,0.036376953125,1.013671875,31.809999465942383,0.0,9.0,0.15447998046875,-0.760406494140625,Closing,0.0,0.0,-26064.0,0.0,0.0,0.0,0.0,0.0,
4.388153999999981,0.0,0.0,63670.0,0.0,0.0,0.0,0.0,0.125,3.7951656270000003,0.0,0.0,44241.0,0.0,0.0,-0.0,0.0,0.0,1.8920896500000002,0.0,0.0012207029999995456,45992.0,0.0,0.0,0.0,0.0,0.0,4.9206537930000005,0.0,0.0,-63203.0,0.0,0.0,-0.0,0.0,0.0,2.878417674,0.0,0.0,1.3600000143051147,0.9399999976158142,-1.840000033378601,0.02569580078125,0.0274658203125,1.0091552734375,31.809999465942383,0.0,8.0,0.15447998046875,-0.760406494140625,Closing,0.0,0.0,-26064.0,0.0,0.0,0.0,0.0,0.0,
4.463252999999909,0.0,0.0,63670.0,0.0,0.0,0.0,0.0,0.125,3.7951656270000003,0.0,0.0012207029999999897,44241.0,0.0,0.0,-0.0,0.0,0.0,1.8920896500000002,0.0,0.0,45992.0,0.0,0.0,0.0,0.0,0.0,4.921874496,0.0,0.0012207029999995456,-63203.0,0.0,0.0,-0.0,0.0,0.0,2.877196971,0.0,0.0,1.350000023841858,0.9599999785423279,-1.8300000429153442,0.01580810546875,0.02191162109375,1.00103759765625,31.809999465942383,0.0,-1.0,0.15447998046875,-0.760406494140625,Closing,0.0,0.0,-26064.0,0.0,0.0,0.0,0.0,0.0,
4.540181999999914,0.0,0.0,63670.0,0.0,0.0,0.0,0.0,0.125,3.7951656270000003,0.0,0.0,44241.0,0.0,0.0,-0.0,0.0,0.0,1.8920896500000002,0.0,0.0,45992.0,0.0,0.0,0.0,0.0,0.0,4.9230951990000005,0.0,0.0,-63203.0,0.0,0.0,-0.0,0.0,0.0,2.877196971,0.0,0.0,1.3600000143051147,0.9399999976158142,-1.8200000524520874,0.0162353515625,0.0262451171875,1.00909423828125,31.809999465942383,0.0,0.0,0.15447998046875,-0.760406494140625,Closing,0.0,0.0,-26064.0,0.0,0.0,0.0,0.0,0.0,
4.6139689999999245,0.0,0.0,63670.0,0.0,0.0,0.0,0.0,0.0,3.7951656270000003,0.0,0.0,44241.0,0.0,0.0,-0.0,0.0,0.0,1.8920896500000002,0.0,0.0,45992.0,0.0,0.0,0.0,0.0,0.0,4.921874496,0.0,0.0,-63203.0,0.0,0.0,-0.0,0.0,0.0,2.878417674,0.0,0.0,1.3600000143051147,0.9399999976158142,-1.8200000524520874,0.019287109375,0.0196533203125,0.95989990234375,31.809999465942383,0.0,3.0,0.1543731689453125,-0.760406494140625,Closing,0.0,0.0,-26064.0,0.0,0.0,0.0,0.0,0.0,
4.689331999999936,0.0,0.0,63670.0,0.0,0.0,0.0,0.0,0.125,3.7951656270000003,0.0,0.0,44241.0,0.0,0.0,-0.0,0.0,0.0,1.8920896500000002,0.0,0.0,45992.0,0.0,0.0,0.0,0.0,0.0,4.9206537930000005,0.0,0.0,-63203.0,0.0,0.0,-0.0,0.0,0.0,2.878417674,0.0,0.0,1.3600000143051147,0.9700000286102295,-1.8200000524520874,0.01470947265625,0.03375244140625,0.99737548828125,31.81999969482422,0.0,-2.0,0.154327392578125,-0.760406494140625,Closing,0.0,0.0,-26064.0,0.0,0.0,0.0,0.0,0.0,
4.765295999999973,0.0,0.0,63670.0,0.0,0.0,0.0,0.0,0.125,3.7939449240000003,0.0,0.0,44241.0,0.0,0.0,-0.0,0.0,0.0,1.8920896500000002,0.0,0.0,45992.0,0.0,0.0,0.0,0.0,0.0,4.9230951990000005,0.0,0.0,-63203.0,0.0,0.0,-0.0,0.0,0.0,2.877196971,0.0,0.0,1.3700000047683716,0.9399999976158142,-1.8300000429153442,0.02569580078125,0.02008056640625,1.00823974609375,31.81999969482422,0.0,9.0,0.154327392578125,-0.760406494140625,Closing,0.0,0.0,-26064.0,0.0,0.0,0.0,0.0,0.0,
4.838448999999906,0.0,0.0,63670.0,0.0,0.0,0.0,0.0,0.125,3.7951656270000003,0.0,0.0,44241.0,0.0,0.0,-0.0,0.0,0.0,1.8920896500000002,0.0,0.0,45992.0,0.0,0.0,0.0,0.0,0.0,4.921874496,0.0,0.0,-63203.0,0.0,0.0,-0.0,0.0,0.0,2.878417674,0.0,0.0,1.3700000047683716,0.9399999976158142,-1.8200000524520874,0.0325927734375,0.02899169921875,1.00579833984375,31.81999969482422,0.0,15.0,0.154327392578125,-0.760406494140625,Closing,0.0,0.0,-26064.0,0.0,0.0,0.0,0.0,0.0,
4.909947999999975,0.0,0.0,63670.0,0.0,0.0,0.0,0.0,0.0,3.7939449240000003,0.0,-0.0012207029999999897,44241.0,0.0,0.0,-0.0,0.0,0.0,1.8920896500000002,0.0,-0.0012207029999995456,45992.0,0.0,0.0,0.0,0.0,0.0,4.921874496,0.0,0.0,-63203.0,0.0,0.0,-0.0,0.0,0.0,2.878417674,0.0,0.0,1.3600000143051147,0.9599999785423279,-1.8200000524520874,0.02508544921875,0.02618408203125,0.9835205078125,31.81999969482422,0.0,8.0,0.154327392578125,-0.760406494140625,Closing,0.0,0.0,-26064.0,0.0,0.0,0.0,0.0,0.0,
4.98375,0.0,0.0,63670.0,0.0,0.0,0.0,0.0,0.125,3.7951656270000003,0.0,0.0012207029999999897,44241.0,0.0,0.0,-0.0,0.0,0.0,1.8920896500000002,0.0,0.0,45992.0,0.0,0.0,0.0,0.0,0.0,4.9230951990000005,0.0,0.0,-63203.0,0.0,0.0,-0.0,0.0,0.0,2.878417674,0.0,0.0,1.3600000143051147,0.9700000286102295,-1.8200000524520874,0.01226806640625,0.02777099609375,0.99456787109375,31.81999969482422,0.0,-4.0,0.154327392578125,-0.760406494140625,Closing,0.0,0.0,-26064.0,0.0,0.0,0.0,0.0,0.0,
5.0531529999999325,0.0,0.0,63670.0,0.0,0.0,0.0,0.0,0.125,3.7939449240000003,0.0,-0.0012207029999999897,44241.0,0.0,0.0,-0.0,0.0,0.0,1.8920896500000002,0.0,0.0,45992.0,0.0,0.0,0.0,0.0,0.0,4.9230951990000005,0.0,0.0012207029999995456,-63203.0,0.0,0.0,-0.0,0.0,0.0,2.877196971,0.0,0.0,1.3700000047683716,0.9599999785423279,-1.8200000524520874,0.01605224609375,0.0186767578125,0.99139404296875,31.81999969482422,0.0,0.0,0.154327392578125,-0.760406494140625,Closing,0.0,0.0,-26064.0,0.0,0.0,0.0,0.0,0.0,
5.126218999999924,0.0,0.0,63670.0,0.0,0.0,0.0,0.0,0.125,3.7963863300000003,0.0,0.0,44241.0,0.0,0.0,-0.0,0.0,0.0,1.8920896500000002,0.0,0.0,45992.0,0.0,0.0,0.0,0.0,0.0,4.9230951990000005,0.0,0.0,-63203.0,0.0,0.0,-0.0,0.0,0.0,2.878417674,0.0,0.0,1.3600000143051147,0.9599999785423279,-1.8200000524520874,-0.0093994140625,0.04345703125,0.99072265625,31.81999969482422,0.0,-26.0,0.1542205810546875,-0.760406494140625,Closing,0.0,0.0,-26064.0,0.0,0.0,0.0,0.0,0.0,
5.1982979999999515,0.0,0.0,63670.0,0.0,0.0,0.0,0.0,0.125,3.7963863300000003,0.0,0.0,44241.0,0.0,0.0,-0.0,0.0,0.0,1.8920896500000002,0.0,0.0,45992.0,0.0,0.0,0.0,0.0,0.0,4.9206537930000005,0.0,0.0012207029999995456,-63203.0,0.0,0.0,-0.0,0.0,0.0,2.878417674,0.0,0.0,1.3700000047683716,0.9700000286102295,-1.8200000524520874,0.01202392578125,0.018310546875,0.9990234375,31.780000686645508,0.0,-4.0,0.1541290283203125,-0.760406494140625,Closing,0.0,0.0,-26064.0,0.0,0.0,0.0,0.0,0.0,
5.2678929999999236,0.0,0.0,63670.0,0.0,0.0,0.0,0.0,0.125,3.7939449240000003,0.0,0.0,44241.0,0.0,0.0,-0.0,0.0,0.0,1.8908689470000002,0.0,-0.0012207029999995456,45992.0,0.0,0.0,0.0,0.0,0.0,4.9230951990000005,0.0,-0.0012207029999995456,-63203.0,0.0,0.0,-0.0,0.0,0.0,2.877196971,0.0,0.0,1.3799999952316284,0.949999988079071,-1.8200000524520874,0.02191162109375,0.02117919921875,1.018798828125,31.780000686645508,0.0,5.0,0.1541290283203125,-0.760406494140625,Closing,0.0,0.0,-26064.0,0.0,0.0,0.0,0.0,0.0,
5.338226999999955,0.0,0.0,63670.0,0.0,0.0,0.0,0.0,0.125,3.7963863300000003,0.0,0.0,44241.0,0.0,0.0,-0.0,0.0,0.0,1.8920896500000002,0.0,0.0,45992.0,0.0,0.0,0.0,0.0,0.0,4.91943309,0.0,0.0,-63203.0,0.0,0.0,-0.0,0.0,0.0,2.877196971,0.0,0.0,1.3799999952316284,0.949999988079071,-1.8200000524520874,0.00445556640625,0.0263671875,0.98760986328125,31.780000686645508,0.0,-11.0,0.1541290283203125,-0.760406494140625,Closing,0.0,0.0,-26064.0,0.0,0.0,0.0,0.0,0.0,
5.408262999999919,0.0,0.0,63670.0,0.0,0.0,0.0,0.0,0.125,3.7951656270000003,0.0,0.0,44241.0,0.0,0.0,-0.0,0.0,0.0,1.8920896500000002,0.0,-0.0012207029999995456,45992.0,0.0,0.0,0.0,0.0,0.0,4.921874496,0.0,0.0,-63203.0,0.0,0.0,-0.0,0.0,0.0,2.877196971,0.0,0.0,1.3799999952316284,0.9599999785423279,-1.8200000524520874,0.0078125,0.0211181640625,0.98468017578125,31.780000686645508,0.0,-8.0,0.1541290283203125,-0.760406494140625,Closing,0.0,0.0,-26064.0,0.0,0.0,0.0,0.0,0.0,
5.473993999999948,0.0,0.0,63670.0,0.0,0.0,0.0,0.0,0.125,3.7951656270000003,0.0,0.0,44241.0,0.0,0.0,-0.0,0.0,0.0,1.8920896500000002,0.0,0.0012207029999995456,45992.0,0.0,0.0,0.0,0.0,0.0,4.9206537930000005,0.0,0.0,-63203.0,0.0,0.0,-0.0,0.0,0.0,2.877196971,0.0,0.0,1.3600000143051147,0.9700000286102295,-1.8200000524520874,0.02105712890625,0.02239990234375,0.98687744140625,31.780000686645508,0.0,4.0,0.1541290283203125,-0.760406494140625,Closing,0.0,0.0,-26064.0,0.0,0.0,0.0,0.0,0.0,
5.548655999999959,0.0,0.0,63670.0,0.0,0.0,0.0,0.0,0.125,3.7951656270000003,0.0,0.0,44241.0,0.0,0.0,-0.0,0.0,0.0,1.8920896500000002,0.0,-0.0012207029999995456,45992.0,0.0,0.0,0.0,0.0,0.0,4.921874496,0.0,0.0,-63203.0,0.0,0.0,-0.0,0.0,0.0,2.878417674,0.0,0.0,1.3700000047683716,0.9599999785423279,-1.8200000524520874,0.01446533203125,0.01739501953125,1.0048828125,31.780000686645508,0.0,-2.0,0.1541290283203125,-0.760406494140625,Closing,0.0,0.0,-26064.0,0.0,0.0,0.0,0.0,0.0,
5.622118999999948,0.0,0.0,63670.0,0.0,0.0,0.0,0.0,0.125,3.7963863300000003,0.0,0.0012207029999999897,44241.0,0.0,0.0,-0.0,0.0,0.0,1.8920896500000002,0.0,0.0012207029999995456,45992.0,0.0,0.0,0.0,0.0,0.0,4.921874496,0.0,0.0012207029999995456,-63203.0,0.0,0.0,-0.0,0.0,0.0,2.877196971,0.0,0.0,1.3700000047683716,0.9399999976158142,-1.7999999523162842,0.0179443359375,0.02593994140625,1.02960205078125,31.780000686645508,0.0,0.0,0.154205322265625,-0.760284423828125,Closing,0.0,0.0,-26064.0,0.0,0.0,0.0,0.0,0.0,
5.692016999999993,0.0,0.0,63670.0,0.0,0.0,0.0,0.0,0.125,3.7939449240000003,0.0,0.0,44241.0,0.0,0.0,-0.0,0.0,0.0,1.8920896500000002,0.0,0.0,45992.0,0.0,0.0,0.0,0.0,0.0,4.921874496,0.0,0.0,-63203.0,0.0,0.0,-0.0,0.0,0.0,2.877196971,0.0,0.0,1.3700000047683716,0.9399999976158142,-1.7999999523162842,0.02099609375,0.02783203125,1.026123046875,31.81999969482422,0.0,4.0,0.154022216796875,-0.760284423828125,Closing,0.0,0.0,-26064.0,0.0,0.0,0.0,0.0,0.0,
5.767726999999955,0.0,0.0,63670.0,0.0,0.0,0.0,0.0,0.125,3.7951656270000003,0.0,0.0,44241.0,0.0,0.0,-0.0,0.0,0.0,1.8920896500000002,0.0,0.0,45992.0,0.0,0.0,0.0,0.0,0.0,4.921874496,0.0,0.0,-63203.0,0.0,0.0,-0.0,0.0,0.0,2.878417674,0.0,0.0,1.3700000047683716,0.949999988079071,-1.809999942779541,0.0235595703125,0.01641845703125,1.00048828125,31.81999969482422,0.0,7.0,0.154022216796875,-0.760284423828125,Closing,0.0,0.0,-26064.0,0.0,0.0,0.0,0.0,0.0,
5.833326999999932,0.0,0.0,63670.0,0.0,0.0,0.0,0.0,0.125,3.7951656270000003,0.0,0.0012207029999999897,44241.0,0.0,0.0,-0.0,0.0,0.0,1.8920896500000002,0.0,0.0,45992.0,0.0,0.0,0.0,0.0,0.0,4.9230951990000005,0.0,0.0,-63203.0,0.0,0.0,-0.0,0.0,0.0,2.877196971,0.0,0.0,1.3700000047683716,0.949999988079071,-1.809999942779541,0.02215576171875,0.022705078125,0.9942626953125,31.81999969482422,0.0,5.0,0.154022216796875,-0.760284423828125,Closing,0.0,0.0,-26064.0,0.0,0.0,0.0,0.0,0.0,
5.909189999999944,0.0,0.0,63670.0,0.0,0.0,0.0,0.0,0.125,3.7939449240000003,0.0,-0.0012207029999999897,44241.0,0.0,0.0,-0.0,0.0,0.0,1.8920896500000002,0.0,-0.0012207029999995456,45992.0,0.0,0.0,0.0,0.0,0.0,4.9230951990000005,0.0,-0.0012207029999995456,-63203.0,0.0,0.0,-0.0,0.0,0.0,2.878417674,0.0,0.0,1.3700000047683716,0.9399999976158142,-1.809999942779541,0.01715087890625,0.03924560546875,0.977783203125,31.81999969482422,0.0,0.0,0.154022216796875,-0.760284423828125,Closing,0.0,0.0,-26064.0,0.0,0.0,0.0,0.0,0.0,
5.981956000000006,0.0,0.0,63670.0,0.0,0.0,0.0,0.0,0.125,3.7951656270000003,0.0,0.0012207029999999897,44241.0,0.0,0.0,-0.0,0.0,0.0,1.8933103530000002,0.0,0.0,45992.0,0.0,0.0,0.0,0.0,0.0,4.9206537930000005,0.0,0.0,-63203.0,0.0,0.0,-0.0,0.0,0.0,2.877196971,0.0,0.0,1.3700000047683716,0.9399999976158142,-1.809999942779541,0.01739501953125,0.01312255859375,0.99444580078125,31.81999969482422,0.0,1.0,0.154022216796875,-0.760284423828125,Closing,0.0,0.0,-26064.0,0.0,0.0,0.0,0.0,0.0,
6.056746999999974,0.0,0.0,63670.0,0.0,0.0,0.0,0.0,0.125,3.7951656270000003,0.0,0.0,44241.0,0.0,0.0,-0.0,0.0,0.0,1.8920896500000002,0.0,0.0,45992.0,0.0,0.0,0.0,0.0,0.0,4.921874496,0.0,0.0,-63203.0,0.0,0.0,-0.0,0.0,0.0,2.878417674,0.0,0.0,1.350000023841858,0.9599999785423279,-1.809999942779541,0.027587890625,0.02484130859375,0.996337890625,31.81999969482422,0.0,10.0,0.154022216796875,-0.760284423828125,Closing,0.0,0.0,-26064.0,0.0,0.0,0.0,0.0,0.0,
6.12623199999996,0.0,0.0,63670.0,0.0,0.0,0.0,0.0,0.125,3.7951656270000003,0.0,-0.0012207029999999897,44241.0,0.0,0.0,-0.0,0.0,0.0,1.8933103530000002,0.0,0.0,45992.0,0.0,0.0,0.0,0.0,0.0,4.9230951990000005,0.0,-0.0012207029999995456,-63203.0,0.0,0.0,-0.0,0.0,0.0,2.877196971,0.0,0.0,1.3600000143051147,0.9599999785423279,-1.809999942779541,0.019775390625,0.02008056640625,1.00384521484375,31.81999969482422,0.0,3.0,0.154022216796875,-0.760284423828125,Closing,0.0,0.0,-26064.0,0.0,0.0,0.0,0.0,0.0,
6.1954929999999,0.0,0.0,63670.0,0.0,0.0,0.0,0.0,0.125,3.7951656270000003,0.0,0.0,44241.0,0.0,0.0,-0.0,0.0,0.0,1.8920896500000002,0.0,0.0,45992.0,0.0,0.0,0.0,0.0,0.0,4.921874496,0.0,0.0012207029999995456,-63203.0,0.0,0.0,-0.0,0.0,0.0,2.877196971,0.0,0.0,1.3600000143051147,0.9399999976158142,-1.7999999523162842,0.0189208984375,0.0390625,0.98931884765625,31.799999237060547,0.0,2.0,0.153961181640625,-0.760284423828125,Closing,0.0,0.0,-26064.0,0.0,0.0,0.0,0.0,0.0,
6.266936999999918,0.0,0.0,63670.0,0.0,0.0,0.0,0.0,0.0,3.7939449240000003,0.0,-0.0012207029999999897,44241.0,0.0,0.0,-0.0,0.0,0.0,1.8920896500000002,0.0,0.0,45992.0,0.0,0.0,0.0,0.0,0.0,4.921874496,0.0,-0.0012207029999995456,-63203.0,0.0,0.0,-0.0,0.0,0.0,2.877196971,0.0,0.0,1.3799999952316284,0.9200000166893005,-1.7999999523162842,0.02764892578125,0.01812744140625,1.0269775390625,31.799999237060547,0.0,11.0,0.1536712646484375,-0.760284423828125,Closing,0.0,0.0,-26064.0,0.0,0.0,0.0,0.0,0.0,
6.33481799999997,0.0,0.0,63670.0,0.0,0.0,0.0,0.0,0.125,3.7951656270000003,0.0,0.0012207029999999897,44241.0,0.0,0.0,-0.0,0.0,0.0,1.8920896500000002,0.0,0.0,45992.0,0.0,0.0,0.0,0.0,0.0,4.921874496,0.0,0.0,-63203.0,0.0,0.0,-0.0,0.0,0.0,2.877196971,0.0,0.0,1.3799999952316284,0.9399999976158142,-1.809999942779541,0.03656005859375,0.016357421875,1.030029296875,31.799999237060547,0.0,19.0,0.1536407470703125,-0.760284423828125,Closing,0.0,0.0,-26064.0,0.0,0.0,0.0,0.0,0.0,
6.4088949999999025,0.0,0.0,63670.0,0.0,0.0,0.0,0.0,0.125,3.7951656270000003,0.0,-0.0012207029999999897,44241.0,0.0,0.0,-0.0,0.0,0.0,1.8920896500000002,0.0,0.0,45992.0,0.0,0.0,0.0,0.0,0.0,4.9206537930000005,0.0,0.0,-63203.0,0.0,0.0,-0.0,0.0,0.0,2.877196971,0.0,0.0,1.3700000047683716,0.9300000071525574,-1.8200000524520874,0.0167236328125,0.01678466796875,1.02587890625,31.799999237060547,0.0,0.0,0.153564453125,-0.760284423828125,Closing,0.0,0.0,-26064.0,0.0,0.0,0.0,0.0,0.0,
6.47988599999994,0.0,0.0,63670.0,0.0,0.0,0.0,0.0,0.125,3.7951656270000003,0.0,0.0012207029999999897,44241.0,0.0,0.0,-0.0,0.0,0.0,1.8920896500000002,0.0,0.0,45992.0,0.0,0.0,0.0,0.0,0.0,4.9230951990000005,0.0,0.0,-63203.0,0.0,0.0,-0.0,0.0,0.0,2.878417674,0.0,0.0,1.3700000047683716,0.9399999976158142,-1.809999942779541,0.006591796875,0.03424072265625,0.97686767578125,31.799999237060547,0.0,-9.0,0.153564453125,-0.760284423828125,Closing,0.0,0.0,-26064.0,0.0,0.0,0.0,0.0,0.0,
6.552625,0.0,0.0,63670.0,0.0,0.0,0.0,0.0,0.125,3.7951656270000003,0.0,-0.0012207029999999897,44241.0,0.0,0.0,-0.0,0.0,0.0,1.8920896500000002,0.0,0.0,45992.0,0.0,0.0,0.0,0.0,0.0,4.9230951990000005,0.0,0.0,-63203.0,0.0,0.0,-0.0,0.0,0.0,2.878417674,0.0,0.0,1.3799999952316284,0.9399999976158142,-1.8200000524520874,0.01544189453125,0.02838134765625,0.9769287109375,31.799999237060547,0.0,0.0,0.153564453125,-0.760284423828125,Closing,0.0,0.0,-26064.0,0.0,0.0,0.0,0.0,0.0,
6.626339999999967,0.0,0.0,63670.0,0.0,0.0,0.0,0.0,0.125,3.7951656270000003,0.0,0.0,44241.0,0.0,0.0,-0.0,0.0,0.0,1.8920896500000002,0.0,0.0,45992.0,0.0,0.0,0.0,0.0,0.0,4.921874496,0.0,-0.0012207029999995456,-63203.0,0.0,0.0,-0.0,0.0,0.0,2.878417674,0.0,0.0,1.3799999952316284,0.9200000166893005,-1.809999942779541,0.00634765625,0.02001953125,1.0062255859375,31.799999237060547,0.0,-9.0,0.1534423828125,-0.760284423828125,Closing,0.0,0.0,-26064.0,0.0,0.0,0.0,0.0,0.0,
6.696142999999924,0.0,0.0,63670.0,0.0,0.0,0.0,0.0,0.125,3.7951656270000003,0.0,0.0,44241.0,0.0,0.0,-0.0,0.0,0.0,1.8920896500000002,0.0,0.0,45992.0,0.0,0.0,0.0,0.0,0.0,4.921874496,0.0,0.0012207029999995456,-63203.0,0.0,0.0,-0.0,0.0,0.0,2.878417674,0.0,0.0,1.3700000047683716,0.9399999976158142,-1.809999942779541,0.03961181640625,0.026611328125,0.9990234375,31.850000381469727,0.0,23.0,0.1534576416015625,-0.760284423828125,Closing,0.0,0.0,-26064.0,0.0,0.0,0.0,0.0,0.0,
6.765554000000003,0.0,0.0,63670.0,0.0,0.0,0.0,0.0,0.125,3.7951656270000003,0.0,-0.0012207029999999897,44241.0,0.0,0.0,-0.0,0.0,0.0,1.8920896500000002,0.0,0.0,45992.0,0.0,0.0,0.0,0.0,0.0,4.921874496,0.0,-0.0012207029999995456,-63203.0,0.0,0.0,-0.0,0.0,0.0,2.878417674,0.0,0.0,1.3799999952316284,0.9599999785423279,-1.7999999523162842,0.012451171875,0.03509521484375,1.01177978515625,31.850000381469727,0.0,-4.0,0.153533935546875,-0.760284423828125,Closing,0.0,0.0,-26064.0,0.0,0.0,0.0,0.0,0.0,
6.8334959999999265,0.0,0.0,63670.0,0.0,0.0,0.0,0.0,0.125,3.7951656270000003,0.0,0.0012207029999999897,44241.0,0.0,0.0,-0.0,0.0,0.0,1.8920896500000002,0.0,0.0,45992.0,0.0,0.0,0.0,0.0,0.0,4.921874496,0.0,0.0,-63203.0,0.0,0.0,-0.0,0.0,0.0,2.878417674,0.0,0.0,1.399999976158142,0.9300000071525574,-1.7799999713897705,0.0137939453125,0.01580810546875,1.0277099609375,31.850000381469727,0.0,-2.0,0.1533660888671875,-0.7601470947265625,Closing,0.0,0.0,-26064.0,0.0,0.0,0.0,0.0,0.0,
6.907358999999938,0.0,0.0,63670.0,0.0,0.0,0.0,0.0,0.125,3.7951656270000003,0.0,-0.0012207029999999897,44241.0,0.0,0.0,-0.0,0.0,0.0,1.8920896500000002,0.0,0.0,45992.0,0.0,0.0,0.0,0.0,0.0,4.921874496,0.0,-0.0012207029999995456,-63203.0,0.0,0.0,-0.0,0.0,0.0,2.878417674,0.0,0.0,1.3799999952316284,0.9200000166893005,-1.7899999618530273,0.0166015625,0.01141357421875,1.01824951171875,31.850000381469727,0.0,0.0,0.15325927734375,-0.7601470947265625,Closing,0.0,0.0,-26064.0,0.0,0.0,0.0,0.0,0.0,
6.977150999999955,0.0,0.0,63670.0,0.0,0.0,0.0,0.0,0.125,3.7963863300000003,0.0,0.0012207029999999897,44241.0,0.0,0.0,-0.0,0.0,0.0,1.8920896500000002,0.0,0.0,45992.0,0.0,0.0,0.0,0.0,0.0,4.9230951990000005,0.0,0.0,-63203.0,0.0,0.0,-0.0,0.0,0.0,2.878417674,0.0,0.0,1.3799999952316284,0.9300000071525574,-1.809999942779541,0.0313720703125,0.02044677734375,1.0167236328125,31.850000381469727,0.0,14.0,0.15325927734375,-0.7602691650390625,Closing,0.0,0.0,-26064.0,0.0,0.0,0.0,0.0,0.0,
7.0580249999999065,0.0,0.0,63670.0,0.0,0.0,0.0,0.0,0.125,3.7951656270000003,0.0,0.0,44241.0,0.0,0.0,-0.0,0.0,0.0,1.8920896500000002,0.0,0.0,45992.0,0.0,0.0,0.0,0.0,0.0,4.9230951990000005,0.0,0.0,-63203.0,0.0,0.0,-0.0,0.0,0.0,2.877196971,0.0,0.0,1.399999976158142,0.9300000071525574,-1.7999999523162842,0.0177001953125,0.0333251953125,0.9984130859375,31.850000381469727,0.0,1.0,0.15325927734375,-0.7602691650390625,Closing,0.0,0.0,-26064.0,0.0,0.0,0.0,0.0,0.0,
7.127758999999962,0.0,0.0,63670.0,0.0,0.0,0.0,0.0,0.125,3.7963863300000003,0.0,-0.0012207029999999897,44241.0,0.0,0.0,-0.0,0.0,0.0,1.8920896500000002,0.0,0.0,45992.0,0.0,0.0,0.0,0.0,0.0,4.921874496,0.0,-0.0012207029999995456,-63203.0,0.0,0.0,-0.0,0.0,0.0,2.877196971,0.0,0.0,1.399999976158142,0.9200000166893005,-1.809999942779541,0.00250244140625,0.02569580078125,0.98236083984375,31.850000381469727,0.0,-13.0,0.15325927734375,-0.7602691650390625,Closing,0.0,0.0,-26064.0,0.0,0.0,0.0,0.0,0.0,
7.19985699999996,0.0,0.0,63670.0,0.0,0.0,0.0,0.0,0.125,3.7951656270000003,0.0,0.0,44241.0,0.0,0.0,-0.0,0.0,0.0,1.8933103530000002,0.0,0.0,45992.0,0.0,0.0,0.0,0.0,0.0,4.921874496,0.0,0.0012207029999995456,-63203.0,0.0,0.0,-0.0,0.0,0.0,2.878417674,0.0,0.0,1.3700000047683716,0.9200000166893005,-1.809999942779541,0.02825927734375,0.018310546875,1.007080078125,31.81999969482422,0.0,12.0,0.15325927734375,-0.7602691650390625,Closing,0.0,0.0,-26064.0,0.0,0.0,0.0,0.0,0.0,
7.269844999999972,0.0,0.0,63670.0,0.0,0.0,0.0,0.0,0.125,3.7951656270000003,0.0,0.0,44241.0,0.0,0.0,-0.0,0.0,0.0,1.8933103530000002,0.0,0.0,45992.0,0.0,0.0,0.0,0.0,0.0,4.921874496,0.0,0.0,-63203.0,0.0,0.0,-0.0,0.0,0.0,2.878417674,0.0,0.0,1.3600000143051147,0.9399999976158142,-1.809999942779541,0.03399658203125,0.02978515625,0.9866943359375,31.81999969482422,0.0,17.0,0.1531982421875,-0.7602691650390625,Closing,0.0,0.0,-26064.0,0.0,0.0,0.0,0.0,0.0,
7.336405999999959,0.0,0.0,63670.0,0.0,0.0,0.0,0.0,0.125,3.7951656270000003,0.0,0.0,44241.0,0.0,0.0,-0.0,0.0,0.0,1.8920896500000002,0.0,0.0,45992.0,0.0,0.0,0.0,0.0,0.0,4.9206537930000005,0.0,0.0,-63203.0,0.0,0.0,-0.0,0.0,0.0,2.877196971,0.0,0.0,1.399999976158142,0.9200000166893005,-1.7799999713897705,0.0196533203125,0.03558349609375,1.024658203125,31.81999969482422,0.0,2.0,0.153076171875,-0.7602691650390625,Closing,0.0,0.0,-26064.0,0.0,0.0,0.0,0.0,0.0,
7.408005000000005,0.0,0.0,63670.0,0.0,0.0,0.0,0.0,0.125,3.7963863300000003,0.0,-0.0012207029999999897,44241.0,0.0,0.0,-0.0,0.0,0.0,1.8933103530000002,0.0,0.0,45992.0,0.0,0.0,0.0,0.0,0.0,4.921874496,0.0,-0.0012207029999995456,-63203.0,0.0,0.0,-0.0,0.0,0.0,2.878417674,0.0,0.0,1.399999976158142,0.9300000071525574,-1.7999999523162842,0.0283203125,0.026611328125,1.000732421875,31.81999969482422,0.0,11.0,0.153076171875,-0.7602691650390625,Closing,0.0,0.0,-26064.0,0.0,0.0,0.0,0.0,0.0,
7.478628999999957,0.0,0.0,63670.0,0.0,0.0,0.0,0.0,0.125,3.7951656270000003,0.0,0.0012207029999999897,44241.0,0.0,0.0,-0.0,0.0,0.0,1.8933103530000002,0.0,0.0,45992.0,0.0,0.0,0.0,0.0,0.0,4.921874496,0.0,0.0,-63203.0,0.0,0.0,-0.0,0.0,0.0,2.877196971,0.0,0.0,1.3700000047683716,0.9399999976158142,-1.8200000524520874,0.01483154296875,0.0115966796875,0.982666015625,31.81999969482422,0.0,0.0,0.153076171875,-0.7602691650390625,Closing,0.0,0.0,-26064.0,0.0,0.0,0.0,0.0,0.0,
7.552404999999911,0.0,0.0,63670.0,0.0,0.0,0.0,0.0,0.125,3.7951656270000003,0.0,0.0,44241.0,0.0,0.0,-0.0,0.0,0.0,1.8920896500000002,0.0,0.0,45992.0,0.0,0.0,0.0,0.0,0.0,4.921874496,0.0,0.0,-63203.0,0.0,0.0,-0.0,0.0,0.0,2.877196971,0.0,0.0,1.350000023841858,0.9399999976158142,-1.8200000524520874,0.00341796875,0.02703857421875,0.99285888671875,31.81999969482422,0.0,-13.0,0.153076171875,-0.7602691650390625,Closing,0.0,0.0,-26064.0,0.0,0.0,0.0,0.0,0.0,
7.6244299999999345,0.0,0.0,63670.0,0.0,0.0,0.0,0.0,0.125,3.7951656270000003,0.0,-0.0012207029999999897,44241.0,0.0,0.0,-0.0,0.0,0.0,1.8920896500000002,0.0,0.0,45992.0,0.0,0.0,0.0,0.0,0.0,4.921874496,0.0,-0.0012207029999995456,-63203.0,0.0,0.0,-0.0,0.0,0.0,2.877196971,0.0,0.0,1.3700000047683716,0.949999988079071,-1.809999942779541,0.02093505859375,0.0263671875,0.99505615234375,31.81999969482422,0.0,4.0,0.153076171875,-0.7602691650390625,Closing,0.0,0.0,-26064.0,0.0,0.0,0.0,0.0,0.0,
7.692598999999929,0.0,0.0,63670.0,0.0,0.0,0.0,0.0,0.125,3.7951656270000003,0.0,0.0,44241.0,0.0,0.0,-0.0,0.0,0.0,1.8920896500000002,0.0,0.0,45992.0,0.0,0.0,0.0,0.0,0.0,4.9206537930000005,0.0,0.0,-63203.0,0.0,0.0,-0.0,0.0,0.0,2.877196971,0.0,0.0,1.3899999856948853,0.9200000166893005,-1.7999999523162842,0.015380859375,0.02093505859375,1.00726318359375,31.81999969482422,0.0,0.0,0.153076171875,-0.7602691650390625,Closing,0.0,0.0,-26064.0,0.0,0.0,0.0,0.0,0.0,
7.767418999999994,0.0,0.0,63670.0,0.0,0.0,0.0,0.0,0.125,3.7951656270000003,0.0,-0.0012207029999999897,44241.0,0.0,0.0,-0.0,0.0,0.0,1.8920896500000002,0.0,-0.0012207029999995456,45992.0,0.0,0.0,0.0,0.0,0.0,4.921874496,0.0,0.0,-63203.0,0.0,0.0,-0.0,0.0,0.0,2.877196971,0.0,0.0,1.399999976158142,0.8600000143051147,-1.809999942779541,-5.4931640625E-4,0.02801513671875,1.0472412109375,31.81999969482422,0.0,-16.0,0.1529998779296875,-0.7602691650390625,Closing,0.0,0.0,-26064.0,0.0,0.0,0.0,0.0,0.0,
7.837165999999969,0.0,0.0,63670.0,0.0,0.0,0.0,0.0,0.125,3.7951656270000003,0.0,0.0,44241.0,0.0,0.0,-0.0,0.0,0.0,1.8920896500000002,0.0,0.0,45992.0,0.0,0.0,0.0,0.0,0.0,4.921874496,0.0,0.0,-63203.0,0.0,0.0,-0.0,0.0,0.0,2.877196971,0.0,0.0,1.3799999952316284,0.9200000166893005,-1.8300000429153442,0.0450439453125,0.01776123046875,1.0164794921875,31.81999969482422,0.0,28.0,0.1529693603515625,-0.7603607177734375,Closing,0.0,0.0,-26064.0,0.0,0.0,0.0,0.0,0.0,
7.911412999999942,0.0,0.0,63670.0,0.0,0.0,0.0,0.0,0.125,3.7951656270000003,0.0,0.0,44241.0,0.0,0.0,-0.0,0.0,0.0,1.8920896500000002,0.0,0.0,45992.0,0.0,0.0,0.0,0.0,0.0,4.9230951990000005,0.0,0.0,-63203.0,0.0,0.0,-0.0,0.0,0.0,2.877196971,0.0,0.0,1.3799999952316284,0.9700000286102295,-1.8300000429153442,0.02947998046875,0.03131103515625,0.98822021484375,31.81999969482422,0.0,12.0,0.153106689453125,-0.7603607177734375,Closing,0.0,0.0,-26064.0,0.0,0.0,0.0,0.0,0.0,
7.982449999999954,0.0,0.0,63670.0,0.0,0.0,0.0,0.0,0.125,3.7951656270000003,0.0,-0.0012207029999999897,44241.0,0.0,0.0,-0.0,0.0,0.0,1.8933103530000002,0.0,0.0,45992.0,0.0,0.0,0.0,0.0,0.0,4.9230951990000005,0.0,0.0,-63203.0,0.0,0.0,-0.0,0.0,0.0,2.878417674,0.0,0.0,1.3899999856948853,0.949999988079071,-1.809999942779541,0.0020751953125,0.0335693359375,0.9935302734375,31.81999969482422,0.0,-14.0,0.153106689453125,-0.7603607177734375,Closing,0.0,0.0,-26064.0,0.0,0.0,0.0,0.0,0.0,
8.051052999999957,0.0,0.0,63670.0,0.0,0.0,0.0,0.0,0.125,3.7939449240000003,0.0,0.0,44241.0,0.0,0.0,-0.0,0.0,0.0,1.8920896500000002,0.0,0.0,45992.0,0.0,0.0,0.0,0.0,0.0,4.9230951990000005,0.0,0.0,-63203.0,0.0,0.0,-0.0,0.0,0.0,2.878417674,0.0,0.0,1.3899999856948853,0.9300000071525574,-1.7799999713897705,0.01214599609375,0.02197265625,0.9886474609375,31.81999969482422,0.0,-3.0,0.153106689453125,-0.7603607177734375,Closing,0.0,0.0,-26064.0,0.0,0.0,0.0,0.0,0.0,
8.119737999999895,0.0,0.0,63670.0,0.0,0.0,0.0,0.0,0.125,3.7963863300000003,0.0,0.0012207029999999897,44241.0,0.0,0.0,-0.0,0.0,0.0,1.8920896500000002,0.0,0.0,45992.0,0.0,0.0,0.0,0.0,0.0,4.921874496,0.0,0.0012207029999995456,-63203.0,0.0,0.0,-0.0,0.0,0.0,2.877196971,0.0,0.0,1.3799999952316284,0.9300000071525574,-1.7999999523162842,0.017333984375,0.01837158203125,1.005615234375,31.81999969482422,0.0,1.0,0.153106689453125,-0.7603607177734375,Closing,0.0,0.0,-26064.0,0.0,0.0,0.0,0.0,0.0,
8.187185999999986,0.0,0.0,63670.0,0.0,0.0,0.0,0.0,0.125,3.7951656270000003,0.0,-0.0012207029999999897,44241.0,0.0,0.0,-0.0,0.0,0.0,1.8920896500000002,0.0,0.0,45992.0,0.0,0.0,0.0,0.0,0.0,4.921874496,0.0,0.0,-63203.0,0.0,0.0,-0.0,0.0,0.0,2.877196971,0.0,0.0,1.3700000047683716,0.9300000071525574,-1.8200000524520874,0.0291748046875,0.04656982421875,0.98138427734375,31.81999969482422,0.0,12.0,0.1531524658203125,-0.7603607177734375,Closing,0.0,0.0,-26064.0,0.0,0.0,0.0,0.0,0.0,
8.263370999999927,0.0,0.0,63670.0,0.0,0.0,0.0,0.0,0.125,3.7951656270000003,0.0,0.0,44241.0,0.0,0.0,-0.0,0.0,0.0,1.8920896500000002,0.0,0.0,45992.0,0.0,0.0,0.0,0.0,0.0,4.9230951990000005,0.0,-0.0012207029999995456,-63203.0,0.0,0.0,-0.0,0.0,0.0,2.875976268,0.0,0.0,1.3799999952316284,0.9399999976158142,-1.7999999523162842,0.01513671875,0.04052734375,1.00408935546875,31.809999465942383,0.0,-2.0,0.1531982421875,-0.7603302001953125,Closing,0.0,0.0,-26064.0,0.0,0.0,0.0,0.0,0.0,
8.332466999999946,0.0,0.0,63670.0,0.0,0.0,0.0,0.0,0.125,3.7939449240000003,0.0,0.0012207029999999897,44241.0,0.0,0.0,-0.0,0.0,0.0,1.8920896500000002,0.0,0.0,45992.0,0.0,0.0,0.0,0.0,0.0,4.9206537930000005,0.0,0.0,-63203.0,0.0,0.0,-0.0,0.0,0.0,2.878417674,0.0,0.0,1.4199999570846558,0.9200000166893005,-1.7999999523162842,6.103515625E-4,0.013671875,0.97784423828125,31.809999465942383,0.0,-14.0,0.1530303955078125,-0.7603302001953125,Closing,0.0,0.0,-26064.0,0.0,0.0,0.0,0.0,0.0,
8.407867999999901,0.0,0.0,63670.0,0.0,0.0,0.0,0.0,0.125,3.7951656270000003,0.0,-0.0012207029999999897,44241.0,0.0,0.0,-0.0,0.0,0.0,1.8920896500000002,0.0,0.0,45992.0,0.0,0.0,0.0,0.0,0.0,4.9230951990000005,0.0,0.0,-63203.0,0.0,0.0,-0.0,0.0,0.0,2.877196971,0.0,0.0,1.399999976158142,0.9300000071525574,-1.7999999523162842,0.03369140625,0.01080322265625,1.01959228515625,31.809999465942383,0.0,17.0,0.1530303955078125,-0.7603302001953125,Closing,0.0,0.0,-26064.0,0.0,0.0,0.0,0.0,0.0,
8.475460999999894,0.0,0.0,63670.0,0.0,0.0,0.0,0.0,0.125,3.7963863300000003,0.0,0.0012207029999999897,44241.0,0.0,0.0,-0.0,0.0,0.0,1.8920896500000002,0.0,0.0,45992.0,0.0,0.0,0.0,0.0,0.0,4.91943309,0.0,0.0012207029999995456,-63203.0,0.0,0.0,-0.0,0.0,0.0,2.877196971,0.0,0.0,1.3899999856948853,0.9599999785423279,-1.7999999523162842,0.03143310546875,0.027587890625,1.00372314453125,31.809999465942383,0.0,14.0,0.1530303955078125,-0.7603302001953125,Closing,0.0,0.0,-26064.0,0.0,0.0,0.0,0.0,0.0,
8.547978000000002,0.0,0.0,63670.0,0.0,0.0,0.0,0.0,0.125,3.7963863300000003,0.0,0.0,44241.0,0.0,0.0,-0.0,0.0,0.0,1.8920896500000002,0.0,0.0,45992.0,0.0,0.0,0.0,0.0,0.0,4.9230951990000005,0.0,-0.0012207029999995456,-63203.0,0.0,0.0,-0.0,0.0,0.0,2.878417674,0.0,0.0,1.3899999856948853,0.949999988079071,-1.7999999523162842,0.00140380859375,0.03070068359375,0.98779296875,31.809999465942383,0.0,-15.0,0.1530303955078125,-0.7603302001953125,Closing,0.0,0.0,-26064.0,0.0,0.0,0.0,0.0,0.0,
8.622802999999957,0.0,0.0,63670.0,0.0,0.0,0.0,0.0,0.125,3.7951656270000003,0.0,0.0012207029999999897,44241.0,0.0,0.0,-0.0,0.0,0.0,1.8933103530000002,0.0,0.0,45992.0,0.0,0.0,0.0,0.0,0.0,4.9230951990000005,0.0,0.0012207029999995456,-63203.0,0.0,0.0,-0.0,0.0,0.0,2.877196971,0.0,0.0,1.399999976158142,0.9300000071525574,-1.7999999523162842,0.0028076171875,0.0323486328125,0.98175048828125,31.809999465942383,0.0,-13.0,0.1530303955078125,-0.7603302001953125,Closing,0.0,0.0,-26064.0,0.0,0.0,0.0,0.0,0.0,
8.688908999999985,0.0,0.0,63670.0,0.0,0.0,0.0,0.0,0.125,3.7951656270000003,0.0,0.0,44241.0,0.0,0.0,-0.0,0.0,0.0,1.8933103530000002,0.0,0.0,45992.0,0.0,0.0,0.0,0.0,0.0,4.921874496,0.0,0.0,-63203.0,0.0,0.0,-0.0,0.0,0.0,2.878417674,0.0,0.0,1.3899999856948853,0.949999988079071,-1.8200000524520874,0.0223388671875,0.00994873046875,1.00982666015625,31.809999465942383,0.0,6.0,0.1530303955078125,-0.7604217529296875,Closing,0.0,0.0,-26064.0,0.0,0.0,0.0,0.0,0.0,
8.76403899999999,0.0,0.0,63670.0,0.0,0.0,0.0,0.0,0.125,3.7951656270000003,0.0,-0.0012207029999999897,44241.0,0.0,0.0,-0.0,0.0,0.0,1.8920896500000002,0.0,0.0,45992.0,0.0,0.0,0.0,0.0,0.0,4.921874496,0.0,-0.0012207029999995456,-63203.0,0.0,0.0,-0.0,0.0,0.0,2.877196971,0.0,0.0,1.3799999952316284,0.949999988079071,-1.8200000524520874,0.0068359375,0.007568359375,1.01715087890625,31.809999465942383,0.0,-9.0,0.1530303955078125,-0.7604217529296875,Closing,0.0,0.0,-26064.0,0.0,0.0,0.0,0.0,0.0,
8.829996999999974,0.0,0.0,63670.0,0.0,0.0,0.0,0.0,0.125,3.7963863300000003,0.0,0.0,44241.0,0.0,0.0,-0.0,0.0,0.0,1.8920896500000002,0.0,0.0,45992.0,0.0,0.0,0.0,0.0,0.0,4.921874496,0.0,0.0,-63203.0,0.0,0.0,-0.0,0.0,0.0,2.877196971,0.0,0.0,1.3899999856948853,0.949999988079071,-1.7999999523162842,0.01995849609375,0.0321044921875,0.99176025390625,31.809999465942383,0.0,3.0,0.1530303955078125,-0.7604217529296875,Closing,0.0,0.0,-26064.0,0.0,0.0,0.0,0.0,0.0,
8.906052999999956,0.0,0.0,63670.0,0.0,0.0,0.0,0.0,0.125,3.7951656270000003,0.0,0.0,44241.0,0.0,0.0,-0.0,0.0,0.0,1.8920896500000002,0.0,0.0,45992.0,0.0,0.0,0.0,0.0,0.0,4.921874496,0.0,0.0,-63203.0,0.0,0.0,-0.0,0.0,0.0,2.877196971,0.0,0.0,1.3899999856948853,0.949999988079071,-1.7999999523162842,0.01580810546875,0.025634765625,0.9869384765625,31.809999465942383,0.0,0.0,0.1530303955078125,-0.7604217529296875,Closing,0.0,0.0,-26064.0,0.0,0.0,0.0,0.0,0.0,
8.972069999999949,0.0,0.0,63670.0,0.0,0.0,0.0,0.0,0.125,3.7951656270000003,0.0,0.0012207029999999897,44241.0,0.0,0.0,-0.0,0.0,0.0,1.8920896500000002,0.0,0.0,45992.0,0.0,0.0,0.0,0.0,0.0,4.9206537930000005,0.0,0.0012207029999995456,-63203.0,0.0,0.0,-0.0,0.0,0.0,2.877196971,0.0,0.0,1.3899999856948853,0.949999988079071,-1.8200000524520874,0.015380859375,0.0189208984375,0.99298095703125,31.809999465942383,0.0,-1.0,0.1530303955078125,-0.7604217529296875,Closing,0.0,0.0,-26064.0,0.0,0.0,0.0,0.0,0.0,
9.046064999999944,0.0,0.0,63670.0,0.0,0.0,0.0,0.0,0.125,3.7963863300000003,0.0,0.0,44241.0,0.0,0.0,-0.0,0.0,0.0,1.8920896500000002,0.0,0.0,45992.0,0.0,0.0,0.0,0.0,0.0,4.9206537930000005,0.0,-0.0012207029999995456,-63203.0,0.0,0.0,-0.0,0.0,0.0,2.877196971,0.0,0.0,1.3899999856948853,0.9700000286102295,-1.8200000524520874,0.0262451171875,0.02691650390625,1.00091552734375,31.809999465942383,0.0,9.0,0.1530303955078125,-0.7604217529296875,Closing,0.0,0.0,-26064.0,0.0,0.0,0.0,0.0,0.0,
9.117833999999915,0.0,0.0,63670.0,0.0,0.0,0.0,0.0,0.125,3.7951656270000003,0.0,0.0,44241.0,0.0,0.0,-0.0,0.0,0.0,1.8920896500000002,0.0,0.0,45992.0,0.0,0.0,0.0,0.0,0.0,4.9230951990000005,0.0,0.0012207029999995456,-63203.0,0.0,0.0,-0.0,0.0,0.0,2.877196971,0.0,0.0,1.399999976158142,0.9599999785423279,-1.7999999523162842,0.00897216796875,0.02471923828125,1.02069091796875,31.809999465942383,0.0,-8.0,0.1530303955078125,-0.7604217529296875,Closing,0.0,0.0,-26064.0,0.0,0.0,0.0,0.0,0.0,
9.18747199999995,0.0,0.0,63670.0,0.0,0.0,0.0,0.0,0.125,3.7951656270000003,0.0,0.0012207029999999897,44241.0,0.0,0.0,-0.0,0.0,0.0,1.8920896500000002,0.0,0.0,45992.0,0.0,0.0,0.0,0.0,0.0,4.9206537930000005,0.0,0.0,-63203.0,0.0,0.0,-0.0,0.0,0.0,2.877196971,0.0,0.0,1.3899999856948853,0.9399999976158142,-1.7799999713897705,-0.0035400390625,0.0177001953125,1.000732421875,31.809999465942383,0.0,-19.0,0.15283203125,-0.7606964111328125,Closing,0.0,0.0,-26064.0,0.0,0.0,0.0,0.0,0.0,
9.263685999999987,0.0,0.0,63670.0,0.0,0.0,0.0,0.0,0.125,3.7951656270000003,0.0,-0.0012207029999999897,44241.0,0.0,0.0,-0.0,0.0,0.0,1.8920896500000002,0.0,-0.0012207029999995456,45992.0,0.0,0.0,0.0,0.0,0.0,4.921874496,0.0,0.0,-63203.0,0.0,0.0,-0.0,0.0,0.0,2.877196971,0.0,0.0,1.3799999952316284,0.9200000166893005,-1.7899999618530273,-0.00323486328125,0.011474609375,1.04022216796875,31.84000015258789,0.0,-19.0,0.1524810791015625,-0.7606964111328125,Closing,0.0,0.0,-26064.0,0.0,0.0,0.0,0.0,0.0,
9.330454999999958,0.0,0.0,63670.0,0.0,0.0,0.0,0.0,0.0,3.7951656270000003,0.0,0.0012207029999999897,44241.0,0.0,0.0,-0.0,0.0,0.0,1.8933103530000002,0.0,0.0,45992.0,0.0,0.0,0.0,0.0,0.0,4.91943309,0.0,0.0012207029999995456,-63203.0,0.0,0.0,-0.0,0.0,0.0,2.878417674,0.0,0.0,1.3799999952316284,0.9300000071525574,-1.809999942779541,0.0316162109375,0.03753662109375,0.99853515625,31.84000015258789,0.0,14.0,0.1524810791015625,-0.7606964111328125,Closing,0.0,0.0,-26064.0,0.0,0.0,0.0,0.0,0.0,
