Time,ClimberA1,ClimberA2,FRpos,FRCurrent,FRspeed,FRsetpoint,FRApos,FRACurrent,FREncpos,FREncSetpoint,FREncSpeed,FLpos,FLCurrent,FLspeed,FLsetpoint,FLApos,FLACurrent,FLEncpos,FLEncSetpoint,FLEncSpeed,BRpos,BRCurrent,BRspeed,BRsetpoint,BRApos,BRACurrent,BREncpos,BREncSetpoint,BREncSpeed,BLpos,BLCurrent,BLspeed,BLsetpoint,BLApos,BLACurrent,BLEncpos,BLEncSetpoint,BLEncSpeed,navx_Pitch,navx_Roll,navx_Yaw,navx_XAcc,navx_YAcc,navx_ZAcc,navx_Temp,navx_Bar,navx_Alt,navx_XDis,navx_YDis,GearPlacerState,ShootOutputV,ShootOutputCurrent,ShootEncPos,ShootEncVelocity,ShootSpeed,ShootSetpoint,CarouselSetpoint,CarouselCurrent,
0.1352480000000214,0.0,0.0,16431.0,0.0,0.0,0.0,0.0,0.0,3.7902828150000003,0.0,0.0,-15536.0,0.0,0.0,-0.0,0.0,0.0,1.859130669,0.0,0.0,-5538.0,0.0,0.0,0.0,0.0,0.0,4.888915515,0.0,0.0,-13340.0,0.0,0.0,-0.0,0.0,0.0,2.8540036140000002,0.0,0.0,0.9200000166893005,0.5400000214576721,0.0,0.01019287109375,0.0159912109375,1.00335693359375,28.90999984741211,0.0,0.0,-0.006072998046875,-0.6262664794921875,Closing,0.0,0.0,-10291.0,0.0,0.0,0.0,0.0,0.0,
0.1696359999999986,0.0,0.0,16431.0,0.0,0.0,0.0,0.0,0.0,3.7902828150000003,0.0,0.0,-15536.0,0.0,0.0,-0.0,0.0,0.0,1.857909966,0.0,-0.04999999999999982,-5538.0,0.0,0.0,0.0,0.0,0.0,4.888915515,0.0,0.0,-13340.0,0.0,0.0,-0.0,0.0,0.0,2.8540036140000002,0.0,0.0,0.9200000166893005,0.5400000214576721,0.0,0.01104736328125,0.0150146484375,1.00958251953125,28.90999984741211,0.0,1.0,-0.006072998046875,-0.6262664794921875,Closing,0.0,0.0,-10291.0,0.0,0.0,0.0,0.0,0.0,
0.20857699999999021,0.0,0.0,16431.0,0.0,0.0,0.0,0.0,0.0,3.7915035180000003,0.0,0.0,-15536.0,0.0,0.0,-0.0,0.0,0.0,1.859130669,0.0,0.0,-5538.0,0.0,0.0,0.0,0.0,0.0,4.887694812,0.0,0.0,-13340.0,0.0,0.0,-0.0,0.0,0.0,2.8540036140000002,0.0,0.0,0.9100000262260437,0.5400000214576721,0.0,0.00665283203125,0.01153564453125,1.00494384765625,28.90999984741211,0.0,-2.0,-0.006072998046875,-0.6262664794921875,Closing,0.0,0.0,-10291.0,0.0,0.0,0.0,0.0,0.0,
0.2488730000000214,0.0,0.0,16431.0,0.0,0.0,0.0,0.0,0.0,3.7902828150000003,0.0,0.0,-15536.0,0.0,0.0,-0.0,0.0,0.0,1.859130669,0.0,0.0,-5538.0,0.0,0.0,0.0,0.0,0.0,4.887694812,0.0,0.0,-13340.0,0.0,0.0,-0.0,0.0,0.0,2.8527829110000003,0.0,0.0,0.9100000262260437,0.5400000214576721,0.0,0.01068115234375,0.01519775390625,1.002197265625,28.90999984741211,0.0,1.0,-0.006072998046875,-0.6262664794921875,Closing,0.0,0.0,-10291.0,0.0,0.0,0.0,0.0,0.0,
0.2880349999999744,0.0,0.0,16431.0,0.0,0.0,0.0,0.0,0.0,3.7902828150000003,0.0,0.0,-15536.0,0.0,0.0,-0.0,0.0,0.0,1.857909966,0.0,0.0,-5538.0,0.0,0.0,0.0,0.0,0.0,4.887694812,0.0,0.0,-13340.0,0.0,0.0,-0.0,0.0,0.0,2.8540036140000002,0.0,0.0,0.9100000262260437,0.5400000214576721,0.0,0.00946044921875,0.01654052734375,1.00201416015625,28.90999984741211,0.0,0.0,-0.006072998046875,-0.6262664794921875,Closing,0.0,0.0,-10291.0,0.0,0.0,0.0,0.0,0.0,
0.3229990000000107,0.0,0.0,16431.0,0.0,0.0,0.0,0.0,0.0,3.7915035180000003,0.0,0.0,-15536.0,0.0,0.0,-0.0,0.0,0.0,1.857909966,0.0,0.0,-5538.0,0.0,0.0,0.0,0.0,0.0,4.887694812,0.0,0.0,-13340.0,0.0,0.0,-0.0,0.0,0.0,2.8540036140000002,0.0,0.0,0.9100000262260437,0.5400000214576721,0.0,0.01019287109375,0.017333984375,1.00482177734375,28.90999984741211,0.0,0.0,-0.006072998046875,-0.6262664794921875,Closing,0.0,0.0,-10291.0,0.0,0.0,0.0,0.0,0.0,
0.36573499999998604,0.0,0.0,16431.0,0.0,0.0,0.0,0.0,0.0,3.7902828150000003,0.0,0.0,-15536.0,0.0,0.0,-0.0,0.0,0.0,1.859130669,0.0,0.0,-5538.0,0.0,0.0,0.0,0.0,0.0,4.888915515,0.0,0.0,-13340.0,0.0,0.0,-0.0,0.0,0.0,2.8540036140000002,0.0,0.0,0.9100000262260437,0.5400000214576721,0.0,0.01043701171875,0.01702880859375,1.0015869140625,28.90999984741211,0.0,0.0,-0.006072998046875,-0.6262664794921875,Closing,0.0,0.0,-10291.0,0.0,0.0,0.0,0.0,0.0,
0.4064340000000084,0.0,0.0,16431.0,0.0,0.0,0.0,0.0,0.0,3.7902828150000003,0.0,0.0,-15536.0,0.0,0.0,-0.0,0.0,0.0,1.8652341840000002,0.0,0.0,-5538.0,0.0,0.0,0.0,0.0,0.0,4.887694812,0.0,0.0,-13340.0,0.0,0.0,-0.0,0.0,0.0,2.8540036140000002,0.0,0.0,0.9100000262260437,0.5400000214576721,0.0,0.00732421875,0.01385498046875,1.00872802734375,28.90999984741211,0.0,-2.0,-0.006072998046875,-0.6262664794921875,Closing,0.0,0.0,-10291.0,0.0,0.0,0.0,0.0,0.0,
0.4475669999999809,0.0,0.0,16431.0,0.0,0.0,0.0,0.0,0.0,3.7902828150000003,0.0,0.0,-15536.0,0.0,0.0,-0.0,0.0,0.0,1.8676755900000002,0.0,0.0,-5538.0,0.0,0.0,0.0,0.0,0.0,4.888915515,0.0,0.0,-13340.0,0.0,0.0,-0.0,0.0,0.0,2.8527829110000003,0.0,0.0,0.8999999761581421,0.5400000214576721,0.0,0.0079345703125,0.016357421875,1.0048828125,28.90999984741211,0.0,-1.0,-0.006072998046875,-0.6262664794921875,Closing,0.0,0.0,-10291.0,0.0,0.0,0.0,0.0,0.0,
0.47922200000000886,0.0,0.0,16431.0,0.0,0.0,0.0,0.0,0.0,3.7902828150000003,0.0,0.0,-15536.0,0.0,0.0,-0.0,0.0,0.0,1.8737791050000001,0.0,0.009765623999999917,-5538.0,0.0,0.0,0.0,0.0,0.0,4.886474109,0.0,0.0,-13340.0,0.0,0.0,-0.0,0.0,0.0,2.8527829110000003,0.0,0.0,0.8999999761581421,0.5400000214576721,0.0,0.009765625,0.015869140625,1.007568359375,28.8799991607666,0.0,0.0,-0.006072998046875,-0.6262664794921875,Closing,0.0,0.0,-10291.0,0.0,0.0,0.0,0.0,0.0,
0.5189089999999851,0.0,0.0,16431.0,0.0,0.0,0.0,0.0,0.0,3.7902828150000003,0.0,0.0,-15536.0,0.0,0.0,-0.0,0.0,0.0,1.8725584020000001,0.0,0.004882811999999959,-5538.0,0.0,0.0,0.0,0.0,0.0,4.887694812,0.0,0.0,-13340.0,0.0,0.0,-0.0,0.0,0.0,2.8527829110000003,0.0,0.0,0.9100000262260437,0.5400000214576721,0.0,0.00927734375,0.0186767578125,1.00579833984375,28.8799991607666,0.0,0.0,-0.006072998046875,-0.6262664794921875,Closing,0.0,0.0,-10291.0,0.0,0.0,0.0,0.0,0.0,
0.5580609999999869,0.0,0.0,16431.0,0.0,0.0,0.0,0.0,0.0,3.7915035180000003,0.0,0.0,-15536.0,0.0,0.0,-0.0,0.0,0.0,1.8725584020000001,0.0,0.0,-5538.0,0.0,0.0,0.0,0.0,0.0,4.887694812,0.0,0.0,-13340.0,0.0,0.0,-0.0,0.0,0.0,2.8527829110000003,0.0,0.0,0.9100000262260437,0.5400000214576721,0.0,0.0084228515625,0.01580810546875,0.9991455078125,28.8799991607666,0.0,-1.0,-0.006072998046875,-0.6262664794921875,Closing,0.0,0.0,-10291.0,0.0,0.0,0.0,0.0,0.0,
0.6136940000000177,0.0,0.0,16431.0,0.0,0.0,0.0,0.0,0.0,3.7902828150000003,0.0,0.0,-15536.0,0.0,0.0,-0.0,0.0,0.0,1.8725584020000001,0.0,0.0,-5538.0,0.0,0.0,0.0,0.0,0.0,4.887694812,0.0,0.0,-13340.0,0.0,0.0,-0.0,0.0,0.0,2.8527829110000003,0.0,0.0,0.8999999761581421,0.5400000214576721,0.0,0.01446533203125,0.013671875,1.007568359375,28.8799991607666,0.0,4.0,-0.006072998046875,-0.6262664794921875,Closing,0.0,0.0,-10291.0,0.0,0.0,0.0,0.0,0.0,
0.6664510000000009,0.0,0.0,16431.0,0.0,0.0,0.0,0.0,0.0,3.7902828150000003,0.0,0.0,-15536.0,0.0,0.0,-0.0,0.0,0.0,1.8737791050000001,0.0,0.0,-5538.0,0.0,0.0,0.0,0.0,0.0,4.888915515,0.0,0.0,-13340.0,0.0,0.0,-0.0,0.0,0.0,2.8527829110000003,0.0,0.0,0.8999999761581421,0.5400000214576721,0.0,0.01580810546875,0.0087890625,1.00335693359375,28.8799991607666,0.0,6.0,-0.006072998046875,-0.6262664794921875,Closing,0.0,0.0,-10291.0,0.0,0.0,0.0,0.0,0.0,
0.7133769999999786,0.0,0.0,16431.0,0.0,0.0,0.0,0.0,0.0,3.7902828150000003,0.0,0.0,-15536.0,0.0,0.0,-0.0,0.0,0.0,1.8737791050000001,0.0,0.0,-5538.0,0.0,0.0,0.0,0.0,0.0,4.887694812,0.0,0.0,-13340.0,0.0,0.0,-0.0,0.0,0.0,2.8527829110000003,0.0,0.0,0.8899999856948853,0.550000011920929,0.009999999776482582,0.0115966796875,0.01153564453125,1.00750732421875,28.8799991607666,0.0,1.0,-0.006072998046875,-0.6262664794921875,Closing,0.0,0.0,-10291.0,0.0,0.0,0.0,0.0,0.0,
0.7572189999999828,0.0,0.0,16431.0,0.0,0.0,0.0,0.0,0.0,3.7902828150000003,0.0,0.0,-15536.0,0.0,0.0,-0.0,0.0,0.0,1.8737791050000001,0.0,0.0,-5538.0,0.0,0.0,0.0,0.0,0.0,4.888915515,0.0,0.0,-13340.0,0.0,0.0,-0.0,0.0,0.0,2.8540036140000002,0.0,0.0,0.8899999856948853,0.5400000214576721,0.019999999552965164,0.0101318359375,0.01287841796875,1.00628662109375,28.8799991607666,0.0,0.0,-0.006072998046875,-0.6262664794921875,Closing,0.0,0.0,-10291.0,0.0,0.0,0.0,0.0,0.0,
0.8101809999999823,0.0,0.0,16431.0,0.0,0.0,0.0,0.0,0.0,3.7902828150000003,0.0,0.0,-15536.0,0.0,0.0,-0.0,0.0,0.0,1.8737791050000001,0.0,0.0,-5538.0,0.0,0.0,0.0,0.0,0.0,4.886474109,0.0,0.0,-13340.0,0.0,0.0,-0.0,0.0,0.0,2.8540036140000002,0.0,0.0,0.8999999761581421,0.5299999713897705,0.029999999329447746,0.00579833984375,0.020263671875,0.9974365234375,28.8799991607666,0.0,-3.0,-0.006072998046875,-0.6262664794921875,Closing,0.0,0.0,-10291.0,0.0,0.0,0.0,0.0,0.0,
0.8842980000000098,0.0,0.0,16431.0,0.0,0.0,0.0,0.0,0.0,3.7915035180000003,0.0,0.0,-15536.0,0.0,0.0,-0.0,0.0,0.0,1.8737791050000001,0.0,0.0,-5538.0,0.0,0.0,0.0,0.0,0.0,4.888915515,0.0,0.0,-13340.0,0.0,0.0,-0.0,0.0,0.0,2.8540036140000002,0.0,0.0,0.9200000166893005,0.5199999809265137,0.019999999552965164,0.00775146484375,0.01446533203125,1.00531005859375,28.8799991607666,0.0,-1.0,-0.006072998046875,-0.6262664794921875,Closing,0.0,0.0,-10291.0,0.0,0.0,0.0,0.0,0.0,
1.0228119999999763,0.0,0.0,16431.0,0.0,0.0,0.0,0.0,0.0,3.7890621120000003,0.0,0.0,-15536.0,0.0,0.0,-0.0,0.0,0.0,1.8725584020000001,0.0,0.0,-5538.0,0.0,0.0,0.0,0.0,0.0,4.887694812,0.0,0.0,-13340.0,0.0,0.0,-0.0,0.0,0.0,2.8540036140000002,0.0,0.0,0.9200000166893005,0.5299999713897705,0.0,0.01092529296875,0.01568603515625,0.99957275390625,28.899999618530273,0.0,1.0,-0.006072998046875,-0.6262664794921875,Closing,0.0,0.0,-10291.0,0.0,0.0,0.0,0.0,0.0,
1.1565669999999808,0.0,0.0,16431.0,0.0,0.0,0.0,0.0,0.0,3.7902828150000003,0.0,0.0,-15536.0,0.0,0.0,-0.0,0.0,0.0,1.8725584020000001,0.0,0.0,-5538.0,0.0,0.0,0.0,0.0,0.0,4.888915515,0.0,0.0,-13340.0,0.0,0.0,-0.0,0.0,0.0,2.8540036140000002,0.0,0.0,0.9200000166893005,0.550000011920929,-0.009999999776482582,0.009033203125,0.00848388671875,1.00018310546875,28.899999618530273,0.0,0.0,-0.006072998046875,-0.6262664794921875,Closing,0.0,0.0,-10291.0,0.0,0.0,0.0,0.0,0.0,
1.269579000000027,0.0,0.0,16431.0,0.0,0.0,0.0,0.0,0.0,3.7902828150000003,0.0,0.0,-15536.0,0.0,0.0,-0.0,0.0,0.0,1.8737791050000001,0.0,0.0,-5538.0,0.0,0.0,0.0,0.0,0.0,4.887694812,0.0,0.0,-13340.0,0.0,0.0,-0.0,0.0,0.0,2.8540036140000002,0.0,0.0,0.8999999761581421,0.550000011920929,0.0,0.009033203125,0.023681640625,1.00579833984375,28.899999618530273,0.0,0.0,-0.006072998046875,-0.6262664794921875,Closing,0.0,0.0,-10291.0,0.0,0.0,0.0,0.0,0.0,
1.3764500000000117,0.0,0.0,16431.0,0.0,0.0,0.0,0.0,0.0,3.7915035180000003,0.0,0.0,-15536.0,0.0,0.0,-0.0,0.0,0.0,1.8725584020000001,0.0,0.0,-5538.0,0.0,0.0,0.0,0.0,0.0,4.887694812,0.0,0.0,-13340.0,0.0,0.0,-0.0,0.0,0.0,2.8527829110000003,0.0,0.0,0.9200000166893005,0.5400000214576721,0.0,0.00927734375,0.01947021484375,1.009033203125,28.899999618530273,0.0,0.0,-0.006072998046875,-0.6262664794921875,Closing,0.0,0.0,-10291.0,0.0,0.0,0.0,0.0,0.0,
1.4691290000000155,0.0,0.0,16431.0,0.0,0.0,0.0,0.0,0.0,3.7915035180000003,0.0,0.0,-15536.0,0.0,0.0,-0.0,0.0,0.0,1.8737791050000001,0.0,0.0,-5538.0,0.0,0.0,0.0,0.0,0.0,4.887694812,0.0,0.0,-13340.0,0.0,0.0,-0.0,0.0,0.0,2.8552243170000002,0.0,0.0,0.9200000166893005,0.5400000214576721,0.0,0.00860595703125,0.004638671875,1.0042724609375,28.899999618530273,0.0,0.0,-0.006072998046875,-0.6262664794921875,Closing,0.0,0.0,-10291.0,0.0,0.0,0.0,0.0,0.0,
1.5081570000000064,0.0,0.0,16431.0,0.0,0.0,0.0,0.0,0.0,3.7915035180000003,0.0,0.0,-15536.0,0.0,0.0,-0.0,0.0,0.0,1.8737791050000001,0.0,0.0,-5538.0,0.0,0.0,0.0,0.0,0.0,4.887694812,0.0,0.0,-13340.0,0.0,0.0,-0.0,0.0,0.0,2.8540036140000002,0.0,0.0,0.8999999761581421,0.5400000214576721,0.0,0.00640869140625,0.01153564453125,1.00091552734375,28.920000076293945,0.0,-3.0,-0.006072998046875,-0.6262664794921875,Closing,0.0,0.0,-10291.0,0.0,0.0,0.0,0.0,0.0,
1.5571170000000274,0.0,0.0,16431.0,0.0,0.0,0.0,0.0,0.0,3.7902828150000003,0.0,0.0,-15536.0,0.0,0.0,-0.0,0.0,0.0,1.8737791050000001,0.0,0.0,-5538.0,0.0,0.0,0.0,0.0,0.0,4.887694812,0.0,0.0,-13340.0,0.0,0.0,-0.0,0.0,0.0,2.8540036140000002,0.0,0.0,0.8999999761581421,0.5400000214576721,0.0,0.009033203125,0.0213623046875,1.01043701171875,28.920000076293945,0.0,0.0,-0.006072998046875,-0.6262664794921875,Closing,0.0,0.0,-10291.0,0.0,0.0,0.0,0.0,0.0,
1.6124720000000088,0.0,0.0,16431.0,0.0,0.0,0.0,0.0,0.0,3.7915035180000003,0.0,0.0,-15536.0,0.0,0.0,-0.0,0.0,0.0,1.8737791050000001,0.0,0.0,-5538.0,0.0,0.0,0.0,0.0,0.0,4.890136218,0.0,0.0,-13340.0,0.0,0.0,-0.0,0.0,0.0,2.8527829110000003,0.0,0.0,0.9200000166893005,0.5400000214576721,0.0,0.01116943359375,0.0216064453125,1.0018310546875,28.920000076293945,0.0,1.0,-0.006072998046875,-0.6262664794921875,Closing,0.0,0.0,-10291.0,0.0,0.0,0.0,0.0,0.0,
1.6720989999999873,0.0,0.0,16431.0,0.0,0.0,0.0,0.0,0.0,3.7902828150000003,0.0,0.0,-15536.0,0.0,0.0,-0.0,0.0,0.0,1.8737791050000001,0.0,0.0,-5538.0,0.0,0.0,0.0,0.0,0.0,4.887694812,0.0,0.0,-13340.0,0.0,0.0,-0.0,0.0,0.0,2.8540036140000002,0.0,0.0,0.9300000071525574,0.5299999713897705,0.0,0.00823974609375,0.017578125,1.0013427734375,28.920000076293945,0.0,-1.0,-0.006072998046875,-0.6262664794921875,Closing,0.0,0.0,-10291.0,0.0,0.0,0.0,0.0,0.0,
1.7264349999999977,0.0,0.0,16431.0,0.0,0.0,0.0,0.0,0.0,3.7915035180000003,0.0,0.0,-15536.0,0.0,0.0,-0.0,0.0,0.0,1.8737791050000001,0.0,0.0,-5538.0,0.0,0.0,0.0,0.0,0.0,4.887694812,0.0,0.0,-13340.0,0.0,0.0,-0.0,0.0,0.0,2.8540036140000002,0.0,0.0,0.9200000166893005,0.5299999713897705,0.0,0.01177978515625,0.009765625,1.00921630859375,28.920000076293945,0.0,2.0,-0.006072998046875,-0.6262664794921875,Closing,0.0,0.0,-10291.0,0.0,0.0,0.0,0.0,0.0,
1.773487000000023,0.0,0.0,16431.0,0.0,0.0,0.0,0.0,0.0,3.7902828150000003,0.0,0.0,-15536.0,0.0,0.0,-0.0,0.0,0.0,1.8737791050000001,0.0,0.0,-5538.0,0.0,0.0,0.0,0.0,0.0,4.888915515,0.0,0.0,-13340.0,0.0,0.0,-0.0,0.0,0.0,2.8527829110000003,0.0,0.0,0.9200000166893005,0.5400000214576721,0.0,0.0103759765625,0.01300048828125,1.00457763671875,28.920000076293945,0.0,0.0,-0.006072998046875,-0.6262664794921875,Closing,0.0,0.0,-10291.0,0.0,0.0,0.0,0.0,0.0,
1.8250420000000158,0.0,0.0,16431.0,0.0,0.0,0.0,0.0,0.0,3.7915035180000003,0.0,0.0,-15536.0,0.0,0.0,-0.0,0.0,0.0,1.8737791050000001,0.0,0.0,-5538.0,0.0,0.0,0.0,0.0,0.0,4.888915515,0.0,0.0,-13340.0,0.0,0.0,-0.0,0.0,0.0,2.8540036140000002,0.0,0.0,0.9100000262260437,0.5400000214576721,-0.009999999776482582,0.00933837890625,0.01495361328125,1.0087890625,28.920000076293945,0.0,0.0,-0.006072998046875,-0.6262664794921875,Closing,0.0,0.0,-10291.0,0.0,0.0,0.0,0.0,0.0,
1.8720889999999781,0.0,0.0,16431.0,0.0,0.0,0.0,0.0,0.0,3.7902828150000003,0.0,0.0,-15536.0,0.0,0.0,-0.0,0.0,0.0,1.8737791050000001,0.0,0.0,-5538.0,0.0,0.0,0.0,0.0,0.0,4.888915515,0.0,0.0,-13340.0,0.0,0.0,-0.0,0.0,0.0,2.8527829110000003,0.0,0.0,0.9200000166893005,0.5400000214576721,-0.009999999776482582,0.00946044921875,0.01513671875,1.00628662109375,28.920000076293945,0.0,0.0,-0.006072998046875,-0.6262664794921875,Closing,0.0,0.0,-10291.0,0.0,0.0,0.0,0.0,0.0,
1.9172229999999981,0.0,0.0,16431.0,0.0,0.0,0.0,0.0,0.0,3.7902828150000003,0.0,0.0,-15536.0,0.0,0.0,-0.0,0.0,0.0,1.8737791050000001,0.0,0.0,-5538.0,0.0,0.0,0.0,0.0,0.0,4.888915515,0.0,0.0,-13340.0,0.0,0.0,-0.0,0.0,0.0,2.8540036140000002,0.0,0.0,0.9200000166893005,0.5400000214576721,-0.009999999776482582,0.0081787109375,0.02154541015625,1.0006103515625,28.920000076293945,0.0,-1.0,-0.006072998046875,-0.6262664794921875,Closing,0.0,0.0,-10291.0,0.0,0.0,0.0,0.0,0.0,
1.9680979999999981,0.0,0.0,16431.0,0.0,0.0,0.0,0.0,0.0,3.7902828150000003,0.0,0.0,-15536.0,0.0,0.0,-0.0,0.0,0.0,1.8737791050000001,0.0,0.0,-5538.0,0.0,0.0,0.0,0.0,0.0,4.888915515,0.0,0.0,-13340.0,0.0,0.0,-0.0,0.0,0.0,2.8540036140000002,0.0,0.0,0.9200000166893005,0.5299999713897705,-0.009999999776482582,0.0096435546875,0.01593017578125,1.00701904296875,28.920000076293945,0.0,0.0,-0.006072998046875,-0.6262664794921875,Closing,0.0,0.0,-10291.0,0.0,0.0,0.0,0.0,0.0,
2.0348640000000016,0.0,0.0,16431.0,0.0,0.0,0.0,0.0,0.0,3.7915035180000003,0.0,0.0,-15536.0,0.0,0.0,-0.0,0.0,0.0,1.8737791050000001,0.0,0.0,-5538.0,0.0,0.0,0.0,0.0,0.0,4.888915515,0.0,0.0,-13340.0,0.0,0.0,-0.0,0.0,0.0,2.8540036140000002,0.0,0.0,0.9200000166893005,0.5400000214576721,-0.009999999776482582,0.0137939453125,0.0133056640625,1.004150390625,28.899999618530273,0.0,4.0,-0.006072998046875,-0.6262664794921875,Closing,0.0,0.0,-10291.0,0.0,0.0,0.0,0.0,0.0,
2.1101790000000036,0.0,0.0,16431.0,0.0,0.0,0.0,0.0,0.0,3.7915035180000003,0.0,0.0,-15536.0,0.0,0.0,-0.0,0.0,0.0,1.8737791050000001,0.0,0.0,-5538.0,0.0,0.0,0.0,0.0,0.0,4.890136218,0.0,0.0,-13340.0,0.0,0.0,-0.0,0.0,0.0,2.8540036140000002,0.0,0.0,0.9200000166893005,0.5400000214576721,-0.009999999776482582,0.003173828125,0.0164794921875,1.01544189453125,28.899999618530273,0.0,-6.0,-0.006072998046875,-0.6262664794921875,Closing,0.0,0.0,-10291.0,0.0,0.0,0.0,0.0,0.0,
2.2144079999999957,0.0,0.0,16431.0,0.0,0.0,0.0,0.0,0.0,3.7902828150000003,0.0,0.0,-15536.0,0.0,0.0,-0.0,0.0,0.0,1.8725584020000001,0.0,0.0,-5538.0,0.0,0.0,0.0,0.0,0.0,4.887694812,0.0,0.0,-13340.0,0.0,0.0,-0.0,0.0,0.0,2.8527829110000003,0.0,0.0,0.9100000262260437,0.5199999809265137,-0.009999999776482582,0.009765625,0.014892578125,0.99688720703125,28.899999618530273,0.0,0.0,-0.006072998046875,-0.6262664794921875,Closing,0.0,0.0,-10291.0,0.0,0.0,0.0,0.0,0.0,
2.3735289999999805,0.0,0.0,16431.0,0.0,0.0,0.0,0.0,0.0,3.7915035180000003,0.0,0.0,-15536.0,0.0,0.0,-0.0,0.0,0.0,1.8725584020000001,0.0,0.0,-5538.0,0.0,0.0,0.0,0.0,0.0,4.887694812,0.0,0.0,-13340.0,0.0,0.0,-0.0,0.0,0.0,2.8527829110000003,0.0,0.0,0.9200000166893005,0.5299999713897705,-0.019999999552965164,0.010498046875,0.01544189453125,1.00238037109375,28.899999618530273,0.0,1.0,-0.006072998046875,-0.6262664794921875,Closing,0.0,0.0,-10291.0,0.0,0.0,0.0,0.0,0.0,
2.434447999999975,0.0,0.0,16431.0,0.0,0.0,0.0,0.0,0.0,3.7915035180000003,0.0,0.0,-15536.0,0.0,0.0,-0.0,0.0,0.0,1.8737791050000001,0.0,0.0,-5538.0,0.0,0.0,0.0,0.0,0.0,4.888915515,0.0,0.0,-13340.0,0.0,0.0,-0.0,0.0,0.0,2.8527829110000003,0.0,0.0,0.9200000166893005,0.550000011920929,-0.019999999552965164,0.01068115234375,0.0142822265625,1.00091552734375,28.899999618530273,0.0,1.0,-0.006072998046875,-0.6262664794921875,Closing,0.0,0.0,-10291.0,0.0,0.0,0.0,0.0,0.0,
2.475604999999981,0.0,0.0,16431.0,0.0,0.0,0.0,0.0,0.0,3.7902828150000003,0.0,0.0,-15536.0,0.0,0.0,-0.0,0.0,0.0,1.8725584020000001,0.0,0.0,-5538.0,0.0,0.0,0.0,0.0,0.0,4.888915515,0.0,0.0,-13340.0,0.0,0.0,-0.0,0.0,0.0,2.8540036140000002,0.0,0.0,0.9200000166893005,0.5400000214576721,-0.009999999776482582,0.01165771484375,0.01800537109375,1.00067138671875,28.899999618530273,0.0,2.0,-0.006072998046875,-0.6262664794921875,Closing,0.0,0.0,-10291.0,0.0,0.0,0.0,0.0,0.0,
2.516890000000014,0.0,0.0,16431.0,0.0,0.0,0.0,0.0,0.0,3.7902828150000003,0.0,0.0,-15536.0,0.0,0.0,-0.0,0.0,0.0,1.8737791050000001,0.0,0.0,-5538.0,0.0,0.0,0.0,0.0,0.0,4.887694812,0.0,0.0,-13340.0,0.0,0.0,-0.0,0.0,0.0,2.8527829110000003,0.0,0.0,0.9200000166893005,0.5299999713897705,-0.009999999776482582,0.00146484375,0.01226806640625,0.99676513671875,28.860000610351562,0.0,-7.0,-0.006072998046875,-0.6262664794921875,Closing,0.0,0.0,-10291.0,0.0,0.0,0.0,0.0,0.0,
2.559447999999975,0.0,0.0,16431.0,0.0,0.0,0.0,0.0,0.0,3.7915035180000003,0.0,0.0,-15536.0,0.0,0.0,-0.0,0.0,0.0,1.8725584020000001,0.0,0.0,-5538.0,0.0,0.0,0.0,0.0,0.0,4.887694812,0.0,0.0,-13340.0,0.0,0.0,-0.0,0.0,0.0,2.8540036140000002,0.0,0.0,0.9100000262260437,0.5199999809265137,-0.009999999776482582,0.0123291015625,0.01507568359375,1.01214599609375,28.860000610351562,0.0,3.0,-0.006072998046875,-0.6262664794921875,Closing,0.0,0.0,-10291.0,0.0,0.0,0.0,0.0,0.0,
2.602294999999984,0.0,0.0,16431.0,0.0,0.0,0.0,0.0,0.0,3.7915035180000003,0.0,0.0,-15536.0,0.0,0.0,-0.0,0.0,0.0,1.8737791050000001,0.0,0.0,-5538.0,0.0,0.0,0.0,0.0,0.0,4.888915515,0.0,0.0,-13340.0,0.0,0.0,-0.0,0.0,0.0,2.8540036140000002,0.0,0.0,0.9100000262260437,0.5199999809265137,-0.009999999776482582,0.00830078125,0.01678466796875,1.00567626953125,28.860000610351562,0.0,0.0,-0.006072998046875,-0.6262664794921875,Closing,0.0,0.0,-10291.0,0.0,0.0,0.0,0.0,0.0,
2.642457999999984,0.0,0.0,16431.0,0.0,0.0,0.0,0.0,0.0,3.7902828150000003,0.0,0.0,-15536.0,0.0,0.0,-0.0,0.0,0.0,1.859130669,0.0,0.0,-5538.0,0.0,0.0,0.0,0.0,0.0,4.887694812,0.0,0.0,-13340.0,0.0,0.0,-0.0,0.0,0.0,2.8527829110000003,0.0,0.0,0.9200000166893005,0.5400000214576721,-0.009999999776482582,0.02191162109375,0.01141357421875,1.01123046875,28.860000610351562,0.0,12.0,-0.006072998046875,-0.6262664794921875,Closing,0.0,0.0,-10291.0,0.0,0.0,0.0,0.0,0.0,
2.6833830000000307,0.0,0.0,16431.0,0.0,0.0,0.0,0.0,0.0,3.7915035180000003,0.0,0.0,-15536.0,0.0,0.0,-0.0,0.0,0.0,1.8640134810000002,0.0,-0.014648435999999876,-5538.0,0.0,0.0,0.0,0.0,0.0,4.888915515,0.0,0.0,-13340.0,0.0,0.0,-0.0,0.0,0.0,2.8540036140000002,0.0,0.0,0.9200000166893005,0.5400000214576721,-0.019999999552965164,0.0159912109375,0.01763916015625,0.994140625,28.860000610351562,0.0,6.0,-0.006072998046875,-0.6262664794921875,Closing,0.0,0.0,-10291.0,0.0,0.0,0.0,0.0,0.0,
2.7291500000000233,0.0,0.0,16431.0,0.0,0.0,0.0,0.0,0.0,3.7915035180000003,0.0,0.0,-15536.0,0.0,0.0,-0.0,0.0,0.0,1.8737791050000001,0.0,0.007324217999999938,-5538.0,0.0,0.0,0.0,0.0,0.0,4.888915515,0.0,0.0012207029999995456,-13340.0,0.0,0.0,-0.0,0.0,0.0,2.8540036140000002,0.0,0.0,0.9200000166893005,0.5400000214576721,-0.009999999776482582,0.00469970703125,0.009033203125,0.99847412109375,28.860000610351562,0.0,-4.0,-0.006072998046875,-0.6262664794921875,Closing,0.0,0.0,-10291.0,0.0,0.0,0.0,0.0,0.0,
2.7709660000000147,0.0,0.0,16431.0,0.0,0.0,0.0,0.0,0.0,3.7902828150000003,0.0,0.0,-15536.0,0.0,0.0,-0.0,0.0,0.0,1.8737791050000001,0.0,0.007324217999999938,-5538.0,0.0,0.0,0.0,0.0,0.0,4.888915515,0.0,-0.0012207029999995456,-13340.0,0.0,0.0,-0.0,0.0,0.0,2.8527829110000003,0.0,0.0,0.9200000166893005,0.5299999713897705,0.0,0.0013427734375,0.03204345703125,1.01751708984375,28.860000610351562,0.0,-8.0,-0.006072998046875,-0.6262664794921875,Closing,0.0,0.0,-10291.0,0.0,0.0,0.0,0.0,0.0,
2.8124000000000233,0.0,0.0,16431.0,0.0,0.0,0.0,0.0,0.0,3.7915035180000003,0.0,0.0,-15536.0,0.0,0.0,-0.0,0.0,0.0,1.8688962930000002,0.0,0.007324217999999938,-5538.0,0.0,0.0,0.0,0.0,0.0,4.888915515,0.0,0.0,-13340.0,0.0,0.0,-0.0,0.0,0.0,2.8540036140000002,0.0,0.0,0.9200000166893005,0.5299999713897705,-0.009999999776482582,0.01763916015625,0.025390625,1.00396728515625,28.860000610351562,0.0,8.0,-0.006072998046875,-0.6262664794921875,Closing,0.0,0.0,-10291.0,0.0,0.0,0.0,0.0,0.0,
2.853255999999994,0.0,0.0,16431.0,0.0,0.0,0.0,0.0,0.0,3.7915035180000003,0.0,0.0,-15536.0,0.0,0.0,-0.0,0.0,0.0,1.8676755900000002,0.0,0.0,-5538.0,0.0,0.0,0.0,0.0,0.0,4.887694812,0.0,0.0,-13340.0,0.0,0.0,-0.0,0.0,0.0,2.8540036140000002,0.0,0.0,0.9200000166893005,0.5299999713897705,-0.009999999776482582,0.00311279296875,0.01739501953125,1.0059814453125,28.860000610351562,0.0,-6.0,-0.006072998046875,-0.6262664794921875,Closing,0.0,0.0,-10291.0,0.0,0.0,0.0,0.0,0.0,
2.891871999999974,0.0,0.0,16431.0,0.0,0.0,0.0,0.0,0.0,3.7915035180000003,0.0,0.0,-15536.0,0.0,0.0,-0.0,0.0,0.0,1.877441214,0.0,-0.004882811999999959,-5538.0,0.0,0.0,0.0,0.0,0.0,4.887694812,0.0,0.0,-13340.0,0.0,0.0,-0.0,0.0,0.0,2.8540036140000002,0.0,0.0,0.9200000166893005,0.5299999713897705,-0.009999999776482582,0.0067138671875,0.020751953125,1.02789306640625,28.860000610351562,0.0,-2.0,-0.006072998046875,-0.6262664794921875,Closing,0.0,0.0,-10291.0,0.0,0.0,0.0,0.0,0.0,
2.93072000000003,0.0,0.0,16431.0,0.0,0.0,0.0,0.0,0.0,3.7902828150000003,0.0,0.0,-15536.0,0.0,0.0,-0.0,0.0,0.0,1.883544729,0.0,0.014648435999999876,-5538.0,0.0,0.0,0.0,0.0,0.0,4.887694812,0.0,0.0,-13340.0,0.0,0.0,-0.0,0.0,0.0,2.8527829110000003,0.0,0.0,0.9200000166893005,0.550000011920929,-0.009999999776482582,0.02130126953125,0.016845703125,0.95635986328125,28.860000610351562,0.0,12.0,-0.006072998046875,-0.6262664794921875,Closing,0.0,0.0,-10291.0,0.0,0.0,0.0,0.0,0.0,
2.9727870000000114,0.0,0.0,16431.0,0.0,0.0,0.0,0.0,0.0,3.7915035180000003,0.0,0.0,-15536.0,0.0,0.0,-0.0,0.0,0.0,1.8688962930000002,0.0,0.0,-5538.0,0.0,0.0,0.0,0.0,0.0,4.887694812,0.0,0.0,-13340.0,0.0,0.0,-0.0,0.0,0.0,2.8527829110000003,0.0,0.0,0.9200000166893005,0.5299999713897705,-0.019999999552965164,0.00299072265625,0.0118408203125,1.04046630859375,28.860000610351562,0.0,-6.0,-0.006072998046875,-0.6262664794921875,Closing,0.0,0.0,-10291.0,0.0,0.0,0.0,0.0,0.0,
3.014460000000021,0.0,0.0,16431.0,0.0,0.0,0.0,0.0,0.0,3.7902828150000003,0.0,0.0,-15536.0,0.0,0.0,-0.0,0.0,0.0,1.883544729,0.0,-0.014648435999999876,-5538.0,0.0,0.0,0.0,0.0,0.0,4.887694812,0.0,0.0,-13340.0,0.0,0.0,-0.0,0.0,0.0,2.8527829110000003,0.0,0.0,0.9200000166893005,0.5400000214576721,-0.019999999552965164,-0.00537109375,0.00897216796875,0.99664306640625,28.850000381469727,0.0,-14.0,-0.006072998046875,-0.6262664794921875,Closing,0.0,0.0,-10291.0,0.0,0.0,0.0,0.0,0.0,
3.0567729999999864,0.0,0.0,16431.0,0.0,0.0,0.0,0.0,0.0,3.7902828150000003,0.0,0.0,-15536.0,0.0,0.0,-0.0,0.0,0.0,1.8884275410000002,0.0,-0.014648435999999876,-5538.0,0.0,0.0,0.0,0.0,0.0,4.886474109,0.0,0.0,-13340.0,0.0,0.0,-0.0,0.0,0.0,2.8540036140000002,0.0,0.0,0.9100000262260437,0.5299999713897705,-0.019999999552965164,0.00872802734375,0.00390625,0.9949951171875,28.850000381469727,0.0,0.0,-0.006072998046875,-0.6262664794921875,Closing,0.0,0.0,-10291.0,0.0,0.0,0.0,0.0,0.0,
3.1011660000000267,0.0,0.0,16431.0,0.0,0.0,0.0,0.0,0.0,3.7915035180000003,0.0,0.0,-15536.0,0.0,0.0,-0.0,0.0,0.0,1.8884275410000002,0.0,0.014648435999999876,-5538.0,0.0,0.0,0.0,0.0,0.0,4.887694812,0.0,0.0,-13340.0,0.0,0.0,-0.0,0.0,0.0,2.8540036140000002,0.0,0.0,0.8999999761581421,0.5299999713897705,-0.009999999776482582,0.0189208984375,0.00885009765625,0.965576171875,28.850000381469727,0.0,9.0,-0.006072998046875,-0.6262664794921875,Closing,0.0,0.0,-10291.0,0.0,0.0,0.0,0.0,0.0,
3.1402330000000074,0.0,0.0,16431.0,0.0,0.0,0.0,0.0,0.0,3.7902828150000003,0.0,0.0,-15536.0,0.0,0.0,-0.0,0.0,0.0,1.8920896500000002,0.0,0.006103515000000392,-5538.0,0.0,0.0,0.0,0.0,0.0,4.890136218,0.0,0.0,-13340.0,0.0,0.0,-0.0,0.0,0.0,2.8527829110000003,0.0,0.0,0.9100000262260437,0.5299999713897705,-0.019999999552965164,0.01312255859375,0.015380859375,0.9808349609375,28.850000381469727,0.0,3.0,-0.006072998046875,-0.6262664794921875,Closing,0.0,0.0,-10291.0,0.0,0.0,0.0,0.0,0.0,
3.1841259999999894,0.0,0.0,16431.0,0.0,0.0,0.0,0.0,0.0,3.7915035180000003,0.0,0.0,-15536.0,0.0,0.0,-0.0,0.0,0.0,1.8920896500000002,0.0,0.003662108999999525,-5538.0,0.0,0.0,0.0,0.0,0.0,4.890136218,0.0,0.0,-13340.0,0.0,0.0,-0.0,0.0,0.0,2.8527829110000003,0.0,0.0,0.9100000262260437,0.550000011920929,-0.019999999552965164,0.0084228515625,0.0152587890625,0.99481201171875,28.850000381469727,0.0,-1.0,-0.006072998046875,-0.6262664794921875,Closing,0.0,0.0,-10291.0,0.0,0.0,0.0,0.0,0.0,
3.2279160000000267,0.0,0.0,16431.0,0.0,0.0,0.0,0.0,0.0,3.7915035180000003,0.0,0.0,-15536.0,0.0,0.0,-0.0,0.0,0.0,1.8920896500000002,0.0,0.0,-5538.0,0.0,0.0,0.0,0.0,0.0,4.888915515,0.0,0.0,-13340.0,0.0,0.0,-0.0,0.0,0.0,2.8540036140000002,0.0,0.0,0.9100000262260437,0.5400000214576721,-0.009999999776482582,0.01702880859375,0.0140380859375,0.98516845703125,28.850000381469727,0.0,7.0,-0.006072998046875,-0.6262664794921875,Closing,0.0,0.0,-10291.0,0.0,0.0,0.0,0.0,0.0,
3.2699589999999734,0.0,0.0,16431.0,0.0,0.0,0.0,0.0,0.0,3.7915035180000003,0.0,0.0,-15536.0,0.0,0.0,-0.0,0.0,0.0,1.8933103530000002,0.0,0.0,-5538.0,0.0,0.0,0.0,0.0,0.0,4.888915515,0.0,0.0,-13340.0,0.0,0.0,-0.0,0.0,0.0,2.8527829110000003,0.0,0.0,0.9100000262260437,0.5400000214576721,-0.009999999776482582,0.0042724609375,0.014892578125,1.01715087890625,28.850000381469727,0.0,-5.0,-0.006072998046875,-0.6262664794921875,Closing,0.0,0.0,-10291.0,0.0,0.0,0.0,0.0,0.0,
3.312060999999987,0.0,0.0,16431.0,0.0,0.0,0.0,0.0,0.0,3.7902828150000003,0.0,0.0,-15536.0,0.0,0.0,-0.0,0.0,0.0,1.8920896500000002,0.0,0.0,-5538.0,0.0,0.0,0.0,0.0,0.0,4.888915515,0.0,0.0,-13340.0,0.0,0.0,-0.0,0.0,0.0,2.8540036140000002,0.0,0.0,0.9100000262260437,0.5199999809265137,-0.009999999776482582,0.0047607421875,0.0205078125,1.0111083984375,28.850000381469727,0.0,-4.0,-0.006072998046875,-0.6262664794921875,Closing,0.0,0.0,-10291.0,0.0,0.0,0.0,0.0,0.0,
3.354642999999982,0.0,0.0,16431.0,0.0,0.0,0.0,0.0,0.0,3.7915035180000003,0.0,0.0,-15536.0,0.0,0.0,-0.0,0.0,0.0,1.8981931650000001,0.0,0.0,-5538.0,0.0,0.0,0.0,0.0,0.0,4.887694812,0.0,0.0,-13340.0,0.0,0.0,-0.0,0.0,0.0,2.8527829110000003,0.0,0.0,0.9200000166893005,0.5299999713897705,-0.009999999776482582,0.00726318359375,0.01495361328125,1.0133056640625,28.850000381469727,0.0,-2.0,-0.006072998046875,-0.6262664794921875,Closing,0.0,0.0,-10291.0,0.0,0.0,0.0,0.0,0.0,
3.3980950000000303,0.0,0.0,16431.0,0.0,0.0,0.0,0.0,0.0,3.7902828150000003,0.0,0.0,-15536.0,0.0,0.0,-0.0,0.0,0.0,1.8969724620000001,0.0,0.003662109000000413,-5538.0,0.0,0.0,0.0,0.0,0.0,4.887694812,0.0,0.0,-13340.0,0.0,0.0,-0.0,0.0,0.0,2.8527829110000003,0.0,0.0,0.9200000166893005,0.5299999713897705,-0.019999999552965164,0.0093994140625,0.019775390625,1.01446533203125,28.850000381469727,0.0,0.0,-0.006072998046875,-0.6262664794921875,Closing,0.0,0.0,-10291.0,0.0,0.0,0.0,0.0,0.0,
3.4367509999999895,0.0,0.0,16431.0,0.0,0.0,0.0,0.0,0.0,3.7902828150000003,0.0,0.0,-15536.0,0.0,0.0,-0.0,0.0,0.0,1.901855274,0.0,0.0012207029999995456,-5538.0,0.0,0.0,0.0,0.0,0.0,4.890136218,0.0,0.0,-13340.0,0.0,0.0,-0.0,0.0,0.0,2.8540036140000002,0.0,0.0,0.9200000166893005,0.5400000214576721,-0.019999999552965164,0.00958251953125,0.0146484375,1.01666259765625,28.850000381469727,0.0,0.0,-0.006072998046875,-0.6262664794921875,Closing,0.0,0.0,-10291.0,0.0,0.0,0.0,0.0,0.0,
3.480244999999995,0.0,0.0,16431.0,0.0,0.0,0.0,0.0,0.0,3.7915035180000003,0.0,0.0,-15536.0,0.0,0.0,-0.0,0.0,0.0,1.901855274,0.0,0.004882811999999959,-5538.0,0.0,0.0,0.0,0.0,0.0,4.888915515,0.0,0.0,-13340.0,0.0,0.0,-0.0,0.0,0.0,2.8527829110000003,0.0,0.0,0.9200000166893005,0.550000011920929,-0.019999999552965164,0.0086669921875,0.01324462890625,1.00592041015625,28.850000381469727,0.0,-1.0,-0.006072998046875,-0.6262664794921875,Closing,0.0,0.0,-10291.0,0.0,0.0,0.0,0.0,0.0,
3.5272609999999984,0.0,0.0,16431.0,0.0,0.0,0.0,0.0,0.0,3.7902828150000003,0.0,0.0,-15536.0,0.0,0.0,-0.0,0.0,0.0,1.927490037,0.0,0.003662109000000413,-5538.0,0.0,0.0,0.0,0.0,0.0,4.886474109,0.0,0.0,-13340.0,0.0,0.0,-0.0,0.0,0.0,2.8527829110000003,0.0,0.0,0.9200000166893005,0.5299999713897705,-0.019999999552965164,0.004150390625,0.01580810546875,1.00628662109375,28.8799991607666,0.0,-5.0,-0.006072998046875,-0.6262664794921875,Closing,0.0,0.0,-10291.0,0.0,0.0,0.0,0.0,0.0,
3.5681730000000096,0.0,0.0,16431.0,0.0,0.0,0.0,0.0,0.0,3.7902828150000003,0.0,0.0,-15536.0,0.0,0.0,-0.0,0.0,0.0,1.9702146420000002,0.0,0.025634763000000227,-5538.0,0.0,0.0,0.0,0.0,0.0,4.887694812,0.0,0.0,-13340.0,0.0,0.0,-0.0,0.0,0.0,2.8540036140000002,0.0,0.0,0.9200000166893005,0.5299999713897705,-0.019999999552965164,0.007080078125,0.0147705078125,1.00531005859375,28.8799991607666,0.0,-2.0,-0.006072998046875,-0.6262664794921875,Closing,0.0,0.0,-10291.0,0.0,0.0,0.0,0.0,0.0,
3.6110910000000147,0.0,0.0,16431.0,0.0,0.0,0.0,0.0,0.0,3.7902828150000003,0.0,0.0,-15536.0,0.0,0.0,-0.0,0.0,0.0,2.047118931,0.0,0.04760741700000004,-5538.0,0.0,0.0,0.0,0.0,0.0,4.886474109,0.0,0.0,-13340.0,0.0,0.0,-0.0,0.0,0.0,2.8527829110000003,0.0,0.0,0.9100000262260437,0.5199999809265137,-0.029999999329447746,0.01422119140625,0.01702880859375,1.00775146484375,28.8799991607666,0.0,4.0,-0.006072998046875,-0.6262664794921875,Closing,0.0,0.0,-10291.0,0.0,0.0,0.0,0.0,0.0,
3.6569000000000234,0.0,0.0,16431.0,0.0,0.0,0.0,0.0,0.0,3.7902828150000003,0.0,0.0,-15536.0,0.0,0.0,-0.0,0.0,0.0,2.08740213,0.0,0.04760741700000004,-5538.0,0.0,0.0,0.0,0.0,0.0,4.887694812,0.0,0.0,-13340.0,0.0,0.0,-0.0,0.0,0.0,2.8527829110000003,0.0,0.0,0.9100000262260437,0.5400000214576721,-0.029999999329447746,0.022705078125,0.01580810546875,0.99237060546875,28.8799991607666,0.0,13.0,-0.006072998046875,-0.6262664794921875,Closing,0.0,0.0,-10291.0,0.0,0.0,0.0,0.0,0.0,
3.698689000000013,0.0,0.0,16431.0,0.0,0.0,0.0,0.0,0.0,3.7890621120000003,0.0,0.0,-15536.0,0.0,0.0,-0.0,0.0,0.0,2.106933378,0.0,0.07812499199999934,-5538.0,0.0,0.0,0.0,0.0,0.0,4.887694812,0.0,0.0,-13340.0,0.0,0.0,-0.0,0.0,0.0,2.8540036140000002,0.0,0.0,0.9100000262260437,0.5600000023841858,-0.019999999552965164,0.02386474609375,0.01763916015625,1.0155029296875,28.8799991607666,0.0,13.0,-0.006072998046875,-0.6262664794921875,Closing,0.0,0.0,-10291.0,0.0,0.0,0.0,0.0,0.0,
3.740467000000004,0.0,0.0,16431.0,0.0,0.0,0.0,0.0,0.0,3.7915035180000003,0.0,0.0,-15536.0,0.0,0.0,-0.0,0.0,0.0,2.042236119,0.0,0.023193357000000248,-5538.0,0.0,0.0,0.0,0.0,0.0,4.891356921,0.0,0.0,-13340.0,0.0,0.0,-0.0,0.0,0.0,2.8527829110000003,0.0,0.0,0.9100000262260437,0.5600000023841858,-0.019999999552965164,0.00628662109375,0.01397705078125,1.00439453125,28.8799991607666,0.0,-3.0,-0.006072998046875,-0.6262664794921875,Closing,0.0,0.0,-10291.0,0.0,0.0,0.0,0.0,0.0,
3.7850320000000064,0.0,0.0,16431.0,0.0,0.0,0.0,0.0,0.0,3.7951656270000003,0.0,0.0,-15536.0,0.0,0.0,-0.0,0.0,0.0,1.984863078,0.0,-0.03906249599999967,-5538.0,0.0,0.0,0.0,0.0,0.0,4.887694812,0.0,0.0,-13340.0,0.0,0.0,-0.0,0.0,0.0,2.8552243170000002,0.0,0.0,0.9100000262260437,0.5299999713897705,0.0,-0.0103759765625,0.0169677734375,1.010986328125,28.8799991607666,0.0,-19.0,-0.006072998046875,-0.6262664794921875,Closing,0.0,0.0,-10291.0,0.0,0.0,0.0,0.0,0.0,
3.828539999999979,0.0,0.0,16431.0,0.0,0.0,0.0,0.0,0.0,3.7915035180000003,0.0,0.0,-15536.0,0.0,0.0,-0.0,0.0,0.0,1.9165037100000002,0.0,-0.06713866499999988,-5538.0,0.0,0.0,0.0,0.0,0.0,4.887694812,0.0,0.0,-13340.0,0.0,0.0,-0.0,0.0,0.0,2.8527829110000003,0.0,0.0,0.9100000262260437,0.5,0.0,7.32421875E-4,0.01568603515625,1.01025390625,28.8799991607666,0.0,-8.0,-0.006072998046875,-0.6262664794921875,Closing,0.0,0.0,-10291.0,0.0,0.0,0.0,0.0,0.0,
3.87061599999998,0.0,0.0,16431.0,0.0,0.0,0.0,0.0,0.0,3.7915035180000003,0.0,0.0,-15536.0,0.0,0.0,-0.0,0.0,0.0,1.882324026,0.0,-0.06958007100000074,-5538.0,0.0,0.0,0.0,0.0,0.0,4.888915515,0.0,0.0,-13340.0,0.0,0.0,-0.0,0.0,0.0,2.8527829110000003,0.0,0.0,0.9200000166893005,0.5099999904632568,-0.009999999776482582,0.014404296875,0.01239013671875,1.04437255859375,28.8799991607666,0.0,4.0,-0.006072998046875,-0.6262664794921875,Closing,0.0,0.0,-10291.0,0.0,0.0,0.0,0.0,0.0,
3.912753000000026,0.0,0.0,16431.0,0.0,0.0,0.0,0.0,0.0,3.7915035180000003,0.0,0.0,-15536.0,0.0,0.0,-0.0,0.0,0.0,1.8676755900000002,0.0,-0.06958007100000074,-5538.0,0.0,0.0,0.0,0.0,0.0,4.887694812,0.0,0.0,-13340.0,0.0,0.0,-0.0,0.0,0.0,2.8540036140000002,0.0,0.0,0.9200000166893005,0.5400000214576721,-0.009999999776482582,0.01708984375,0.012451171875,1.03118896484375,28.8799991607666,0.0,7.0,-0.006072998046875,-0.6262664794921875,Closing,0.0,0.0,-10291.0,0.0,0.0,0.0,0.0,0.0,
3.95370199999999,0.0,0.0,16431.0,0.0,0.0,0.0,0.0,0.0,3.7915035180000003,0.0,0.0,-15536.0,0.0,0.0,-0.0,0.0,0.0,1.8676755900000002,0.0,-0.026855465999999772,-5538.0,0.0,0.0,0.0,0.0,0.0,4.888915515,0.0,0.0,-13340.0,0.0,0.0,-0.0,0.0,0.0,2.8527829110000003,0.0,0.0,0.9100000262260437,0.5600000023841858,-0.019999999552965164,0.02490234375,0.01885986328125,0.96124267578125,28.8799991607666,0.0,15.0,-0.006072998046875,-0.6262664794921875,Closing,0.0,0.0,-10291.0,0.0,0.0,0.0,0.0,0.0,
3.9913769999999786,0.0,0.0,16431.0,0.0,0.0,0.0,0.0,0.0,3.7915035180000003,0.0,0.0,-15536.0,0.0,0.0,-0.0,0.0,0.0,1.8688962930000002,0.0,-0.009765623999999917,-5538.0,0.0,0.0,0.0,0.0,0.0,4.887694812,0.0,0.0,-13340.0,0.0,0.0,-0.0,0.0,0.0,2.8527829110000003,0.0,0.0,0.9100000262260437,0.5600000023841858,-0.009999999776482582,0.0123291015625,0.01654052734375,0.96881103515625,28.8799991607666,0.0,2.0,-0.006072998046875,-0.6262664794921875,Closing,0.0,0.0,-10291.0,0.0,0.0,0.0,0.0,0.0,
4.030824000000022,0.0,0.0,16431.0,0.0,0.0,0.0,0.0,0.0,3.7902828150000003,0.0,0.0,-15536.0,0.0,0.0,-0.0,0.0,0.0,1.887206838,0.0,0.004882811999999959,-5538.0,0.0,0.0,0.0,0.0,0.0,4.888915515,0.0,0.0,-13340.0,0.0,0.0,-0.0,0.0,0.0,2.8540036140000002,0.0,0.0,0.9200000166893005,0.550000011920929,0.0,9.1552734375E-4,0.0184326171875,1.00323486328125,28.8700008392334,0.0,-8.0,-0.006072998046875,-0.6262664794921875,Closing,0.0,0.0,-10291.0,0.0,0.0,0.0,0.0,0.0,
4.071027999999991,0.0,0.0,16431.0,0.0,0.0,0.0,0.0,0.0,3.7915035180000003,0.0,0.0,-15536.0,0.0,0.0,-0.0,0.0,0.0,1.8933103530000002,0.0,0.014648435999999876,-5538.0,0.0,0.0,0.0,0.0,0.0,4.888915515,0.0,0.0,-13340.0,0.0,0.0,-0.0,0.0,0.0,2.8527829110000003,0.0,0.0,0.9200000166893005,0.5299999713897705,0.0,0.00543212890625,0.01580810546875,1.0057373046875,28.8700008392334,0.0,-4.0,-0.006072998046875,-0.6262664794921875,Closing,0.0,0.0,-10291.0,0.0,0.0,0.0,0.0,0.0,
4.112780000000028,0.0,0.0,16431.0,0.0,0.0,0.0,0.0,0.0,3.7915035180000003,0.0,0.0,-15536.0,0.0,0.0,-0.0,0.0,0.0,1.8920896500000002,0.0,0.014648435999999876,-5538.0,0.0,0.0,0.0,0.0,0.0,4.888915515,0.0,0.0,-13340.0,0.0,0.0,-0.0,0.0,0.0,2.8527829110000003,0.0,0.0,0.9200000166893005,0.5199999809265137,-0.009999999776482582,0.00335693359375,0.01568603515625,1.017578125,28.8700008392334,0.0,-5.0,-0.006072998046875,-0.6262664794921875,Closing,0.0,0.0,-10291.0,0.0,0.0,0.0,0.0,0.0,
4.15638400000002,0.0,0.0,16431.0,0.0,0.0,0.0,0.0,0.0,3.7902828150000003,0.0,0.0,-15536.0,0.0,0.0,-0.0,0.0,0.0,1.8969724620000001,0.0,0.004882811999999959,-5538.0,0.0,0.0,0.0,0.0,0.0,4.888915515,0.0,0.0,-13340.0,0.0,0.0,-0.0,0.0,0.0,2.8540036140000002,0.0,0.0,0.9200000166893005,0.5299999713897705,-0.009999999776482582,0.01629638671875,0.0166015625,1.010009765625,28.8700008392334,0.0,6.0,-0.006072998046875,-0.6262664794921875,Closing,0.0,0.0,-10291.0,0.0,0.0,0.0,0.0,0.0,
4.203657000000007,0.0,0.0,16431.0,0.0,0.0,0.0,0.0,0.0,3.7915035180000003,0.0,0.0,-15536.0,0.0,0.0,-0.0,0.0,0.0,1.8969724620000001,0.0,0.004882811999999959,-5538.0,0.0,0.0,0.0,0.0,0.0,4.888915515,0.0,0.0,-13340.0,0.0,0.0,-0.0,0.0,0.0,2.8527829110000003,0.0,0.0,0.9200000166893005,0.550000011920929,0.0,0.01617431640625,0.016357421875,1.0172119140625,28.8700008392334,0.0,6.0,-0.006072998046875,-0.6262664794921875,Closing,0.0,0.0,-10291.0,0.0,0.0,0.0,0.0,0.0,
4.247353000000003,0.0,0.0,16431.0,0.0,0.0,0.0,0.0,0.0,3.7915035180000003,0.0,0.0,-15536.0,0.0,0.0,-0.0,0.0,0.0,1.8969724620000001,0.0,0.0,-5538.0,0.0,0.0,0.0,0.0,0.0,4.887694812,0.0,0.0,-13340.0,0.0,0.0,-0.0,0.0,0.0,2.8527829110000003,0.0,0.0,0.9200000166893005,0.550000011920929,-0.009999999776482582,0.0096435546875,0.01947021484375,1.0048828125,28.8700008392334,0.0,0.0,-0.006072998046875,-0.6262664794921875,Closing,0.0,0.0,-10291.0,0.0,0.0,0.0,0.0,0.0,
4.287771000000008,0.0,0.0,16431.0,0.0,0.0,0.0,0.0,0.0,3.7902828150000003,0.0,0.0,-15536.0,0.0,0.0,-0.0,0.0,0.0,1.8969724620000001,0.0,0.0,-5538.0,0.0,0.0,0.0,0.0,0.0,4.887694812,0.0,0.0,-13340.0,0.0,0.0,-0.0,0.0,0.0,2.8540036140000002,0.0,0.0,0.9200000166893005,0.5299999713897705,-0.009999999776482582,0.00518798828125,0.0205078125,1.0023193359375,28.8700008392334,0.0,-4.0,-0.006072998046875,-0.6262664794921875,Closing,0.0,0.0,-10291.0,0.0,0.0,0.0,0.0,0.0,
4.32738300000003,0.0,0.0,16431.0,0.0,0.0,0.0,0.0,0.0,3.7902828150000003,0.0,0.0,-15536.0,0.0,0.0,-0.0,0.0,0.0,1.8969724620000001,0.0,0.0,-5538.0,0.0,0.0,0.0,0.0,0.0,4.888915515,0.0,0.0,-13340.0,0.0,0.0,-0.0,0.0,0.0,2.8540036140000002,0.0,0.0,0.9200000166893005,0.5299999713897705,0.0,0.00372314453125,0.01446533203125,1.009033203125,28.8700008392334,0.0,-5.0,-0.006072998046875,-0.6262664794921875,Closing,0.0,0.0,-10291.0,0.0,0.0,0.0,0.0,0.0,
4.36821100000001,0.0,0.0,16431.0,0.0,0.0,0.0,0.0,0.0,3.7902828150000003,0.0,0.0,-15536.0,0.0,0.0,-0.0,0.0,0.0,1.8969724620000001,0.0,0.0,-5538.0,0.0,0.0,0.0,0.0,0.0,4.888915515,0.0,0.0,-13340.0,0.0,0.0,-0.0,0.0,0.0,2.8527829110000003,0.0,0.0,0.9100000262260437,0.5199999809265137,0.0,0.00494384765625,0.015380859375,1.009033203125,28.8700008392334,0.0,-4.0,-0.006072998046875,-0.6262664794921875,Closing,0.0,0.0,-10291.0,0.0,0.0,0.0,0.0,0.0,
4.407765000000014,0.0,0.0,16431.0,0.0,0.0,0.0,0.0,0.0,3.7915035180000003,0.0,0.0,-15536.0,0.0,0.0,-0.0,0.0,0.0,1.8920896500000002,0.0,0.0,-5538.0,0.0,0.0,0.0,0.0,0.0,4.887694812,0.0,0.0,-13340.0,0.0,0.0,-0.0,0.0,0.0,2.8527829110000003,0.0,0.0,0.9100000262260437,0.5199999809265137,-0.009999999776482582,0.00994873046875,0.01495361328125,1.005615234375,28.8700008392334,0.0,0.0,-0.006072998046875,-0.6262664794921875,Closing,0.0,0.0,-10291.0,0.0,0.0,0.0,0.0,0.0,
4.448847000000009,0.0,0.0,16431.0,0.0,0.0,0.0,0.0,0.0,3.7902828150000003,0.0,0.0,-15536.0,0.0,0.0,-0.0,0.0,0.0,1.887206838,0.0,-0.004882811999999959,-5538.0,0.0,0.0,0.0,0.0,0.0,4.887694812,0.0,0.0012207029999995456,-13340.0,0.0,0.0,-0.0,0.0,0.0,2.8527829110000003,0.0,0.0,0.8999999761581421,0.5199999809265137,-0.009999999776482582,0.0177001953125,0.01812744140625,0.9830322265625,28.8700008392334,0.0,8.0,-0.006072998046875,-0.6262664794921875,Closing,0.0,0.0,-10291.0,0.0,0.0,0.0,0.0,0.0,
4.4861010000000245,0.0,0.0,16431.0,0.0,0.0,0.0,0.0,0.0,3.7915035180000003,0.0,0.0,-15536.0,0.0,0.0,-0.0,0.0,0.0,1.8920896500000002,0.0,-0.004882811999999959,-5538.0,0.0,0.0,0.0,0.0,0.0,4.888915515,0.0,0.0,-13340.0,0.0,0.0,-0.0,0.0,0.0,2.8527829110000003,0.0,0.0,0.9100000262260437,0.5299999713897705,-0.019999999552965164,0.01171875,0.01611328125,0.98748779296875,28.8700008392334,0.0,2.0,-0.006072998046875,-0.6262664794921875,Closing,0.0,0.0,-10291.0,0.0,0.0,0.0,0.0,0.0,
4.52707799999998,0.0,0.0,16431.0,0.0,0.0,0.0,0.0,0.0,3.7902828150000003,0.0,0.0,-15536.0,0.0,0.0,-0.0,0.0,0.0,1.887206838,0.0,0.004882811999999959,-5538.0,0.0,0.0,0.0,0.0,0.0,4.887694812,0.0,-0.0012207029999995456,-13340.0,0.0,0.0,-0.0,0.0,0.0,2.8540036140000002,0.0,0.0,0.9100000262260437,0.550000011920929,-0.009999999776482582,0.014892578125,0.01239013671875,0.99462890625,28.8700008392334,0.0,5.0,-0.006072998046875,-0.6262664794921875,Closing,0.0,0.0,-10291.0,0.0,0.0,0.0,0.0,0.0,
4.568178000000015,0.0,0.0,16431.0,0.0,0.0,0.0,0.0,0.0,3.7915035180000003,0.0,0.0,-15536.0,0.0,0.0,-0.0,0.0,0.0,1.8688962930000002,0.0,0.004882811999999959,-5538.0,0.0,0.0,0.0,0.0,0.0,4.888915515,0.0,-0.0012207029999995456,-13340.0,0.0,0.0,-0.0,0.0,0.0,2.8540036140000002,0.0,0.0,0.9100000262260437,0.550000011920929,0.0,0.0125732421875,0.01409912109375,0.996826171875,28.889999389648438,0.0,2.0,-0.006072998046875,-0.6262664794921875,Closing,0.0,0.0,-10291.0,0.0,0.0,0.0,0.0,0.0,
4.609311999999976,0.0,0.0,16431.0,0.0,0.0,0.0,0.0,0.0,3.7902828150000003,0.0,0.0,-15536.0,0.0,0.0,-0.0,0.0,0.0,1.8627927780000002,0.0,-0.004882811999999959,-5538.0,0.0,0.0,0.0,0.0,0.0,4.887694812,0.0,0.0,-13340.0,0.0,0.0,-0.0,0.0,0.0,2.8540036140000002,0.0,0.0,0.9100000262260437,0.5400000214576721,0.0,0.00555419921875,0.015625,1.00408935546875,28.889999389648438,0.0,-3.0,-0.006072998046875,-0.6262664794921875,Closing,0.0,0.0,-10291.0,0.0,0.0,0.0,0.0,0.0,
4.647427000000025,0.0,0.0,16431.0,0.0,0.0,0.0,0.0,0.0,3.7902828150000003,0.0,0.0,-15536.0,0.0,0.0,-0.0,0.0,0.0,1.8652341840000002,0.0,-0.024414059999999793,-5538.0,0.0,0.0,0.0,0.0,0.0,4.888915515,0.0,0.0,-13340.0,0.0,0.0,-0.0,0.0,0.0,2.8540036140000002,0.0,0.0,0.9100000262260437,0.5199999809265137,0.0,-8.544921875E-4,0.0177001953125,1.013427734375,28.889999389648438,0.0,-10.0,-0.006072998046875,-0.6262664794921875,Closing,0.0,0.0,-10291.0,0.0,0.0,0.0,0.0,0.0,
4.687968999999983,0.0,0.0,16431.0,0.0,0.0,0.0,0.0,0.0,3.7915035180000003,0.0,0.0,-15536.0,0.0,0.0,-0.0,0.0,0.0,1.857909966,0.0,0.0,-5538.0,0.0,0.0,0.0,0.0,0.0,4.888915515,0.0,0.0,-13340.0,0.0,0.0,-0.0,0.0,0.0,2.8527829110000003,0.0,0.0,0.9200000166893005,0.5099999904632568,0.0,0.0052490234375,0.0201416015625,1.011962890625,28.889999389648438,0.0,-3.0,-0.006072998046875,-0.6262664794921875,Closing,0.0,0.0,-10291.0,0.0,0.0,0.0,0.0,0.0,
4.727885999999999,0.0,0.0,16431.0,0.0,0.0,0.0,0.0,0.0,3.7902828150000003,0.0,0.0,-15536.0,0.0,0.0,-0.0,0.0,0.0,1.859130669,0.0,-0.004882811999999959,-5538.0,0.0,0.0,0.0,0.0,0.0,4.888915515,0.0,0.0,-13340.0,0.0,0.0,-0.0,0.0,0.0,2.8540036140000002,0.0,0.0,0.9200000166893005,0.5199999809265137,0.0,0.01556396484375,0.0189208984375,1.00164794921875,28.889999389648438,0.0,6.0,-0.006072998046875,-0.6262664794921875,Closing,0.0,0.0,-10291.0,0.0,0.0,0.0,0.0,0.0,
4.767370999999985,0.0,0.0,16431.0,0.0,0.0,0.0,0.0,0.0,3.7915035180000003,0.0,0.0,-15536.0,0.0,0.0,-0.0,0.0,0.0,1.8640134810000002,0.0,-0.004882811999999959,-5538.0,0.0,0.0,0.0,0.0,0.0,4.888915515,0.0,0.0,-13340.0,0.0,0.0,-0.0,0.0,0.0,2.8552243170000002,0.0,0.0,0.9200000166893005,0.5299999713897705,-0.009999999776482582,0.01025390625,0.018798828125,1.0078125,28.889999389648438,0.0,0.0,-0.006072998046875,-0.6262664794921875,Closing,0.0,0.0,-10291.0,0.0,0.0,0.0,0.0,0.0,
4.806886999999988,0.0,0.0,16431.0,0.0,0.0,0.0,0.0,0.0,3.7902828150000003,0.0,0.0,-15536.0,0.0,0.0,-0.0,0.0,0.0,1.882324026,0.0,0.0,-5538.0,0.0,0.0,0.0,0.0,0.0,4.887694812,0.0,0.0,-13340.0,0.0,0.0,-0.0,0.0,0.0,2.8540036140000002,0.0,0.0,0.9200000166893005,0.5299999713897705,-0.009999999776482582,0.00921630859375,0.0140380859375,1.01031494140625,28.889999389648438,0.0,0.0,-0.006072998046875,-0.6262664794921875,Closing,0.0,0.0,-10291.0,0.0,0.0,0.0,0.0,0.0,
4.843500999999989,0.0,0.0,16431.0,0.0,0.0,0.0,0.0,0.0,3.7902828150000003,0.0,0.0,-15536.0,0.0,0.0,-0.0,0.0,0.0,1.8933103530000002,0.0,0.024414059999999793,-5538.0,0.0,0.0,0.0,0.0,0.0,4.890136218,0.0,0.0,-13340.0,0.0,0.0,-0.0,0.0,0.0,2.8527829110000003,0.0,0.0,0.9100000262260437,0.5199999809265137,-0.009999999776482582,0.0133056640625,0.01080322265625,1.0068359375,28.889999389648438,0.0,4.0,-0.006072998046875,-0.6262664794921875,Closing,0.0,0.0,-10291.0,0.0,0.0,0.0,0.0,0.0,
4.882559999999998,0.0,0.0,16431.0,0.0,0.0,0.0,0.0,0.0,3.7902828150000003,0.0,0.0,-15536.0,0.0,0.0,-0.0,0.0,0.0,1.8969724620000001,0.0,0.01342773300000033,-5538.0,0.0,0.0,0.0,0.0,0.0,4.890136218,0.0,0.0,-13340.0,0.0,0.0,-0.0,0.0,0.0,2.8540036140000002,0.0,0.0,0.9100000262260437,0.5199999809265137,0.0,0.00750732421875,0.0203857421875,1.00579833984375,28.889999389648438,0.0,-1.0,-0.006072998046875,-0.6262664794921875,Closing,0.0,0.0,-10291.0,0.0,0.0,0.0,0.0,0.0,
4.925580000000016,0.0,0.0,16431.0,0.0,0.0,0.0,0.0,0.0,3.7902828150000003,0.0,0.0,-15536.0,0.0,0.0,-0.0,0.0,0.0,1.8969724620000001,0.0,-0.0012207030000004337,-5538.0,0.0,0.0,0.0,0.0,0.0,4.888915515,0.0,0.0,-13340.0,0.0,0.0,-0.0,0.0,0.0,2.8540036140000002,0.0,0.0,0.9100000262260437,0.5199999809265137,-0.009999999776482582,0.00567626953125,0.02252197265625,1.01031494140625,28.889999389648438,0.0,-3.0,-0.006072998046875,-0.6262664794921875,Closing,0.0,0.0,-10291.0,0.0,0.0,0.0,0.0,0.0,
4.965396999999998,0.0,0.0,16431.0,0.0,0.0,0.0,0.0,0.0,3.7902828150000003,0.0,0.0,-15536.0,0.0,0.0,-0.0,0.0,0.0,1.8920896500000002,0.0,-0.0012207030000004337,-5538.0,0.0,0.0,0.0,0.0,0.0,4.888915515,0.0,0.0,-13340.0,0.0,0.0,-0.0,0.0,0.0,2.8540036140000002,0.0,0.0,0.9100000262260437,0.5199999809265137,-0.009999999776482582,0.00775146484375,0.0150146484375,1.0054931640625,28.889999389648438,0.0,-1.0,-0.006072998046875,-0.6262664794921875,Closing,0.0,0.0,-10291.0,0.0,0.0,0.0,0.0,0.0,
5.008994000000006,0.0,0.0,16431.0,0.0,0.0,0.0,0.0,0.0,3.7915035180000003,0.0,0.0,-15536.0,0.0,0.0,-0.0,0.0,0.0,1.8920896500000002,0.0,0.0012207030000004337,-5538.0,0.0,0.0,0.0,0.0,0.0,4.888915515,0.0,0.0,-13340.0,0.0,0.0,-0.0,0.0,0.0,2.8552243170000002,0.0,0.0,0.9100000262260437,0.5199999809265137,-0.009999999776482582,0.01385498046875,0.01605224609375,1.00701904296875,28.889999389648438,0.0,4.0,-0.006072998046875,-0.6262664794921875,Closing,0.0,0.0,-10291.0,0.0,0.0,0.0,0.0,0.0,
5.047505000000005,0.0,0.0,16431.0,0.0,0.0,0.0,0.0,0.0,3.7915035180000003,0.0,0.0,-15536.0,0.0,0.0,-0.0,0.0,0.0,1.8688962930000002,0.0,-0.003662109000000413,-5538.0,0.0,0.0,0.0,0.0,0.0,4.888915515,0.0,0.0,-13340.0,0.0,0.0,-0.0,0.0,0.0,2.8527829110000003,0.0,0.0,0.8999999761581421,0.5299999713897705,0.0,0.01263427734375,0.01422119140625,1.00262451171875,28.8799991607666,0.0,3.0,-0.006072998046875,-0.6262664794921875,Closing,0.0,0.0,-10291.0,0.0,0.0,0.0,0.0,0.0,
5.087321999999985,0.0,0.0,16431.0,0.0,0.0,0.0,0.0,0.0,3.7915035180000003,0.0,0.0,-15536.0,0.0,0.0,-0.0,0.0,0.0,1.859130669,0.0,-0.028076168999999318,-5538.0,0.0,0.0,0.0,0.0,0.0,4.887694812,0.0,0.0,-13340.0,0.0,0.0,-0.0,0.0,0.0,2.8540036140000002,0.0,0.0,0.8999999761581421,0.5299999713897705,-0.009999999776482582,0.00848388671875,0.01788330078125,0.99896240234375,28.8799991607666,0.0,0.0,-0.006072998046875,-0.6262664794921875,Closing,0.0,0.0,-10291.0,0.0,0.0,0.0,0.0,0.0,
5.125940999999991,0.0,0.0,16431.0,0.0,0.0,0.0,0.0,0.0,3.7915035180000003,0.0,0.0,-15536.0,0.0,0.0,-0.0,0.0,0.0,1.859130669,0.0,-0.006103515000000392,-5538.0,0.0,0.0,0.0,0.0,0.0,4.888915515,0.0,0.0,-13340.0,0.0,0.0,-0.0,0.0,0.0,2.8540036140000002,0.0,0.0,0.8999999761581421,0.5199999809265137,0.0,0.0040283203125,0.01348876953125,1.00146484375,28.8799991607666,0.0,-5.0,-0.006072998046875,-0.6262664794921875,Closing,0.0,0.0,-10291.0,0.0,0.0,0.0,0.0,0.0,
5.163601000000024,0.0,0.0,16431.0,0.0,0.0,0.0,0.0,0.0,3.7902828150000003,0.0,0.0,-15536.0,0.0,0.0,-0.0,0.0,0.0,1.859130669,0.0,-0.006103515000000392,-5538.0,0.0,0.0,0.0,0.0,0.0,4.890136218,0.0,0.0,-13340.0,0.0,0.0,-0.0,0.0,0.0,2.8527829110000003,0.0,0.0,0.9100000262260437,0.5199999809265137,0.0,0.00396728515625,0.01171875,1.0076904296875,28.8799991607666,0.0,-5.0,-0.006072998046875,-0.6262664794921875,Closing,0.0,0.0,-10291.0,0.0,0.0,0.0,0.0,0.0,
5.199302000000025,0.0,0.0,16431.0,0.0,0.0,0.0,0.0,0.0,3.7902828150000003,0.0,0.0,-15536.0,0.0,0.0,-0.0,0.0,0.0,1.8688962930000002,0.0,0.0012207029999995456,-5538.0,0.0,0.0,0.0,0.0,0.0,4.886474109,0.0,0.0,-13340.0,0.0,0.0,-0.0,0.0,0.0,2.8527829110000003,0.0,0.0,0.9100000262260437,0.5199999809265137,-0.009999999776482582,0.0101318359375,0.0194091796875,1.00830078125,28.8799991607666,0.0,0.0,-0.006072998046875,-0.6262664794921875,Closing,0.0,0.0,-10291.0,0.0,0.0,0.0,0.0,0.0,
5.236613000000012,0.0,0.0,16431.0,0.0,0.0,0.0,0.0,0.0,3.7902828150000003,0.0,0.0,-15536.0,0.0,0.0,-0.0,0.0,0.0,1.8920896500000002,0.0,0.008544921000000372,-5538.0,0.0,0.0,0.0,0.0,0.0,4.890136218,0.0,0.0,-13340.0,0.0,0.0,-0.0,0.0,0.0,2.8540036140000002,0.0,0.0,0.9100000262260437,0.5199999809265137,-0.009999999776482582,0.0081787109375,0.0152587890625,1.002685546875,28.8799991607666,0.0,0.0,-0.006072998046875,-0.6262664794921875,Closing,0.0,0.0,-10291.0,0.0,0.0,0.0,0.0,0.0,
5.2763790000000155,0.0,0.0,16431.0,0.0,0.0,0.0,0.0,0.0,3.7915035180000003,0.0,0.0,-15536.0,0.0,0.0,-0.0,0.0,0.0,1.8920896500000002,0.0,0.024414059999999793,-5538.0,0.0,0.0,0.0,0.0,0.0,4.890136218,0.0,0.0,-13340.0,0.0,0.0,-0.0,0.0,0.0,2.8540036140000002,0.0,0.0,0.8999999761581421,0.5299999713897705,-0.009999999776482582,0.01678466796875,0.01153564453125,1.00244140625,28.8799991607666,0.0,7.0,-0.006072998046875,-0.6262664794921875,Closing,0.0,0.0,-10291.0,0.0,0.0,0.0,0.0,0.0,
5.316220000000031,0.0,0.0,16431.0,0.0,0.0,0.0,0.0,0.0,3.7902828150000003,0.0,0.0,-15536.0,0.0,0.0,-0.0,0.0,0.0,1.8920896500000002,0.0,0.024414059999999793,-5538.0,0.0,0.0,0.0,0.0,0.0,4.888915515,0.0,0.0,-13340.0,0.0,0.0,-0.0,0.0,0.0,2.8527829110000003,0.0,0.0,0.8999999761581421,0.5400000214576721,-0.009999999776482582,0.01519775390625,0.01025390625,0.99920654296875,28.8799991607666,0.0,5.0,-0.006072998046875,-0.6262664794921875,Closing,0.0,0.0,-10291.0,0.0,0.0,0.0,0.0,0.0,
5.356141000000004,0.0,0.0,16431.0,0.0,0.0,0.0,0.0,0.0,3.7902828150000003,0.0,0.0,-15536.0,0.0,0.0,-0.0,0.0,0.0,1.8920896500000002,0.0,0.0,-5538.0,0.0,0.0,0.0,0.0,0.0,4.888915515,0.0,0.0,-13340.0,0.0,0.0,-0.0,0.0,0.0,2.8540036140000002,0.0,0.0,0.8999999761581421,0.5299999713897705,-0.009999999776482582,0.0084228515625,0.011962890625,1.0050048828125,28.8799991607666,0.0,0.0,-0.006072998046875,-0.6262664794921875,Closing,0.0,0.0,-10291.0,0.0,0.0,0.0,0.0,0.0,
5.394090000000026,0.0,0.0,16431.0,0.0,0.0,0.0,0.0,0.0,3.7915035180000003,0.0,0.0,-15536.0,0.0,0.0,-0.0,0.0,0.0,1.883544729,0.0,0.0,-5538.0,0.0,0.0,0.0,0.0,0.0,4.886474109,0.0,0.0,-13340.0,0.0,0.0,-0.0,0.0,0.0,2.8540036140000002,0.0,0.0,0.8999999761581421,0.5199999809265137,-0.009999999776482582,0.00787353515625,0.02142333984375,1.00518798828125,28.8799991607666,0.0,-1.0,-0.006072998046875,-0.6262664794921875,Closing,0.0,0.0,-10291.0,0.0,0.0,0.0,0.0,0.0,
5.432967000000004,0.0,0.0,16431.0,0.0,0.0,0.0,0.0,0.0,3.7915035180000003,0.0,0.0,-15536.0,0.0,0.0,-0.0,0.0,0.0,1.8640134810000002,0.0,-0.014648435999999876,-5538.0,0.0,0.0,0.0,0.0,0.0,4.888915515,0.0,0.0,-13340.0,0.0,0.0,-0.0,0.0,0.0,2.8527829110000003,0.0,0.0,0.9100000262260437,0.5199999809265137,-0.009999999776482582,0.0028076171875,0.01708984375,1.00128173828125,28.8799991607666,0.0,-6.0,-0.006072998046875,-0.6262664794921875,Closing,0.0,0.0,-10291.0,0.0,0.0,0.0,0.0,0.0,
5.473744000000006,0.0,0.0,16431.0,0.0,0.0,0.0,0.0,0.0,3.7915035180000003,0.0,0.0,-15536.0,0.0,0.0,-0.0,0.0,0.0,1.8640134810000002,0.0,-0.014648435999999876,-5538.0,0.0,0.0,0.0,0.0,0.0,4.887694812,0.0,0.0,-13340.0,0.0,0.0,-0.0,0.0,0.0,2.8540036140000002,0.0,0.0,0.9100000262260437,0.5199999809265137,-0.009999999776482582,0.012451171875,0.01507568359375,1.0059814453125,28.8799991607666,0.0,3.0,-0.006072998046875,-0.6262664794921875,Closing,0.0,0.0,-10291.0,0.0,0.0,0.0,0.0,0.0,
5.513005999999994,0.0,0.0,16431.0,0.0,0.0,0.0,0.0,0.0,3.7915035180000003,0.0,0.0,-15536.0,0.0,0.0,-0.0,0.0,0.0,1.8627927780000002,0.0,-0.014648435999999876,-5538.0,0.0,0.0,0.0,0.0,0.0,4.888915515,0.0,0.0,-13340.0,0.0,0.0,-0.0,0.0,0.0,2.8540036140000002,0.0,0.0,0.8999999761581421,0.5199999809265137,-0.009999999776482582,0.0113525390625,0.012939453125,1.0032958984375,28.8799991607666,0.0,2.0,-0.006072998046875,-0.6262664794921875,Closing,0.0,0.0,-10291.0,0.0,0.0,0.0,0.0,0.0,
5.552433000000019,0.0,0.0,16431.0,0.0,0.0,0.0,0.0,0.0,3.7915035180000003,0.0,0.0,-15536.0,0.0,0.0,-0.0,0.0,0.0,1.8676755900000002,0.0,0.0,-5538.0,0.0,0.0,0.0,0.0,0.0,4.888915515,0.0,0.0,-13340.0,0.0,0.0,-0.0,0.0,0.0,2.8442379900000003,0.0,0.0,0.8999999761581421,0.5199999809265137,-0.019999999552965164,0.0089111328125,0.01409912109375,1.0006103515625,28.889999389648438,0.0,0.0,-0.006072998046875,-0.6262664794921875,Closing,0.0,0.0,-10291.0,0.0,0.0,0.0,0.0,0.0,
5.589557000000029,0.0,0.0,16431.0,0.0,0.0,0.0,0.0,0.0,3.7927242210000003,0.0,0.0,-15536.0,0.0,0.0,-0.0,0.0,0.0,1.8920896500000002,0.0,0.009765623999999917,-5538.0,0.0,0.0,0.0,0.0,0.0,4.887694812,0.0,0.0,-13340.0,0.0,0.0,-0.0,0.0,0.0,2.8540036140000002,0.0,0.0,0.8999999761581421,0.5199999809265137,-0.019999999552965164,0.01104736328125,0.01495361328125,1.00665283203125,28.889999389648438,0.0,1.0,-0.006072998046875,-0.6262664794921875,Closing,0.0,0.0,-10291.0,0.0,0.0,0.0,0.0,0.0,
5.628981000000029,0.0,0.0,16431.0,0.0,0.0,0.0,0.0,0.0,3.7915035180000003,0.0,0.0,-15536.0,0.0,0.0,-0.0,0.0,0.0,1.8920896500000002,0.0,0.019531247999999835,-5538.0,0.0,0.0,0.0,0.0,0.0,4.888915515,0.0,0.0,-13340.0,0.0,0.0,-0.0,0.0,0.0,2.8527829110000003,0.0,0.0,0.8999999761581421,0.5299999713897705,-0.019999999552965164,0.00653076171875,0.0191650390625,1.0035400390625,28.889999389648438,0.0,-2.0,-0.006072998046875,-0.6262664794921875,Closing,0.0,0.0,-10291.0,0.0,0.0,0.0,0.0,0.0,
5.668829000000027,0.0,0.0,16431.0,0.0,0.0,0.0,0.0,0.0,3.7915035180000003,0.0,0.0,-15536.0,0.0,0.0,-0.0,0.0,0.0,1.8933103530000002,0.0,0.019531247999999835,-5538.0,0.0,0.0,0.0,0.0,0.0,4.888915515,0.0,0.0,-13340.0,0.0,0.0,-0.0,0.0,0.0,2.8540036140000002,0.0,0.0,0.8999999761581421,0.5199999809265137,-0.019999999552965164,0.00579833984375,0.01727294921875,1.00335693359375,28.889999389648438,0.0,-3.0,-0.006072998046875,-0.6262664794921875,Closing,0.0,0.0,-10291.0,0.0,0.0,0.0,0.0,0.0,
5.708675999999977,0.0,0.0,16431.0,0.0,0.0,0.0,0.0,0.0,3.7915035180000003,0.0,0.0,-15536.0,0.0,0.0,-0.0,0.0,0.0,1.8920896500000002,0.0,0.0,-5538.0,0.0,0.0,0.0,0.0,0.0,4.890136218,0.0,0.0,-13340.0,0.0,0.0,-0.0,0.0,0.0,2.8540036140000002,0.0,0.0,0.8999999761581421,0.5199999809265137,-0.019999999552965164,0.0048828125,0.0166015625,1.0069580078125,28.889999389648438,0.0,-4.0,-0.006072998046875,-0.6262664794921875,Closing,0.0,0.0,-10291.0,0.0,0.0,0.0,0.0,0.0,
5.745597999999998,0.0,0.0,16431.0,0.0,0.0,0.0,0.0,0.0,3.7902828150000003,0.0,0.0,-15536.0,0.0,0.0,-0.0,0.0,0.0,1.8920896500000002,0.0,0.0,-5538.0,0.0,0.0,0.0,0.0,0.0,4.888915515,0.0,0.0012207029999995456,-13340.0,0.0,0.0,-0.0,0.0,0.0,2.8540036140000002,0.0,0.0,0.8999999761581421,0.5199999809265137,-0.019999999552965164,0.00616455078125,0.01812744140625,1.00213623046875,28.889999389648438,0.0,-2.0,-0.006072998046875,-0.6262664794921875,Closing,0.0,0.0,-10291.0,0.0,0.0,0.0,0.0,0.0,
5.787716000000015,0.0,0.0,16431.0,0.0,0.0,0.0,0.0,0.0,3.7902828150000003,0.0,0.0,-15536.0,0.0,0.0,-0.0,0.0,0.0,1.8933103530000002,0.0,0.0,-5538.0,0.0,0.0,0.0,0.0,0.0,4.888915515,0.0,-0.0012207029999995456,-13340.0,0.0,0.0,-0.0,0.0,0.0,2.8527829110000003,0.0,0.0,0.8999999761581421,0.5199999809265137,-0.009999999776482582,0.01190185546875,0.015625,1.00958251953125,28.889999389648438,0.0,2.0,-0.006072998046875,-0.6262664794921875,Closing,0.0,0.0,-10291.0,0.0,0.0,0.0,0.0,0.0,
5.828733999999996,0.0,0.0,16431.0,0.0,0.0,0.0,0.0,0.0,3.7915035180000003,0.0,0.0,-15536.0,0.0,0.0,-0.0,0.0,0.0,1.859130669,0.0,-0.0012207029999995456,-5538.0,0.0,0.0,0.0,0.0,0.0,4.887694812,0.0,0.0,-13340.0,0.0,0.0,-0.0,0.0,0.0,2.8540036140000002,0.0,0.0,0.8999999761581421,0.5299999713897705,-0.019999999552965164,0.01397705078125,0.01318359375,1.0068359375,28.889999389648438,0.0,4.0,-0.006072998046875,-0.6262664794921875,Closing,0.0,0.0,-10291.0,0.0,0.0,0.0,0.0,0.0,
5.868827999999979,0.0,0.0,16431.0,0.0,0.0,0.0,0.0,0.0,3.7915035180000003,0.0,0.0,-15536.0,0.0,0.0,-0.0,0.0,0.0,1.857909966,0.0,-0.0012207029999995456,-5538.0,0.0,0.0,0.0,0.0,0.0,4.890136218,0.0,0.0,-13340.0,0.0,0.0,-0.0,0.0,0.0,2.8540036140000002,0.0,0.0,0.8999999761581421,0.5199999809265137,-0.019999999552965164,0.0146484375,0.017578125,1.01116943359375,28.889999389648438,0.0,5.0,-0.006072998046875,-0.6262664794921875,Closing,0.0,0.0,-10291.0,0.0,0.0,0.0,0.0,0.0,
5.9083910000000035,0.0,0.0,16431.0,0.0,0.0,0.0,0.0,0.0,3.7915035180000003,0.0,0.0,-15536.0,0.0,0.0,-0.0,0.0,0.0,1.859130669,0.0,-0.032958981000000165,-5538.0,0.0,0.0,0.0,0.0,0.0,4.887694812,0.0,0.0,-13340.0,0.0,0.0,-0.0,0.0,0.0,2.8527829110000003,0.0,0.0,0.8999999761581421,0.5199999809265137,-0.009999999776482582,0.0050048828125,0.01251220703125,1.00421142578125,28.889999389648438,0.0,-4.0,-0.006072998046875,-0.6262664794921875,Closing,0.0,0.0,-10291.0,0.0,0.0,0.0,0.0,0.0,
5.946354999999981,0.0,0.0,16431.0,0.0,0.0,0.0,0.0,0.0,3.7927242210000003,0.0,0.0,-15536.0,0.0,0.0,-0.0,0.0,0.0,1.859130669,0.0,0.0,-5538.0,0.0,0.0,0.0,0.0,0.0,4.888915515,0.0,0.0,-13340.0,0.0,0.0,-0.0,0.0,0.0,2.8540036140000002,0.0,0.0,0.8999999761581421,0.5099999904632568,-0.009999999776482582,0.0064697265625,0.01947021484375,1.0040283203125,28.889999389648438,0.0,-2.0,-0.006072998046875,-0.6262664794921875,Closing,0.0,0.0,-10291.0,0.0,0.0,0.0,0.0,0.0,
5.987110999999976,0.0,0.0,16431.0,0.0,0.0,0.0,0.0,0.0,3.7927242210000003,0.0,0.0,-15536.0,0.0,0.0,-0.0,0.0,0.0,1.859130669,0.0,0.0,-5538.0,0.0,0.0,0.0,0.0,0.0,4.888915515,0.0,0.0,-13340.0,0.0,0.0,-0.0,0.0,0.0,2.8527829110000003,0.0,0.0,0.9100000262260437,0.5099999904632568,-0.009999999776482582,0.0093994140625,0.017578125,1.00384521484375,28.889999389648438,0.0,0.0,-0.006072998046875,-0.6262664794921875,Closing,0.0,0.0,-10291.0,0.0,0.0,0.0,0.0,0.0,
6.026603999999992,0.0,0.0,16431.0,0.0,0.0,0.0,0.0,0.0,3.7915035180000003,0.0,0.0,-15536.0,0.0,0.0,-0.0,0.0,0.0,1.8640134810000002,0.0,0.0,-5538.0,0.0,0.0,0.0,0.0,0.0,4.887694812,0.0,0.0,-13340.0,0.0,0.0,-0.0,0.0,0.0,2.8527829110000003,0.0,0.0,0.9100000262260437,0.5199999809265137,-0.009999999776482582,0.00787353515625,0.0106201171875,1.000732421875,28.889999389648438,0.0,-1.0,-0.006072998046875,-0.6262664794921875,Closing,0.0,0.0,-10291.0,0.0,0.0,0.0,0.0,0.0,
6.066381999999983,0.0,0.0,16431.0,0.0,0.0,0.0,0.0,0.0,3.7890621120000003,0.0,0.0,-15536.0,0.0,0.0,-0.0,0.0,0.0,1.8920896500000002,0.0,0.0,-5538.0,0.0,0.0,0.0,0.0,0.0,4.888915515,0.0,0.0,-13340.0,0.0,0.0,-0.0,0.0,0.0,2.8540036140000002,0.0,0.0,0.8999999761581421,0.5199999809265137,-0.009999999776482582,0.01080322265625,0.012451171875,1.00457763671875,28.920000076293945,0.0,1.0,-0.006072998046875,-0.6262664794921875,Closing,0.0,0.0,-10291.0,0.0,0.0,0.0,0.0,0.0,
