Time,ClimberA1,ClimberA2,FRpos,FRCurrent,FRspeed,FRsetpoint,FRApos,FRACurrent,FREncpos,FREncSetpoint,FREncSpeed,FLpos,FLCurrent,FLspeed,FLsetpoint,FLApos,FLACurrent,FLEncpos,FLEncSetpoint,FLEncSpeed,BRpos,BRCurrent,BRspeed,BRsetpoint,BRApos,BRACurrent,BREncpos,BREncSetpoint,BREncSpeed,BLpos,BLCurrent,BLspeed,BLsetpoint,BLApos,BLACurrent,BLEncpos,BLEncSetpoint,BLEncSpeed,navx_Pitch,navx_Roll,navx_Yaw,navx_XAcc,navx_YAcc,navx_ZAcc,navx_Temp,navx_Bar,navx_Alt,navx_XDis,navx_YDis,GearPlacerState,ShootOutputV,ShootOutputCurrent,ShootEncPos,ShootEncVelocity,ShootSpeed,ShootSetpoint,CarouselSetpoint,CarouselCurrent,
0.1039320000000007,0.0,0.0,-15020.0,0.0,0.0,0.0,0.0,0.125,3.7475582100000002,0.0,0.0,-6813.0,0.0,0.0,-0.0,0.0,0.0,1.983642375,0.0,0.0,6803.0,0.0,0.0,0.0,0.0,0.0,4.914550278,0.0,0.0,-7014.0,0.0,0.0,-0.0,0.0,0.0,3.0114743010000002,0.0,0.0,1.309999942779541,0.5,0.0,0.0142822265625,0.02593994140625,0.98779296875,35.65999984741211,0.0,5.0,-0.038482666015625,-0.1462554931640625,Waiting,0.0,0.0,-396138.0,0.0,0.0,0.0,0.0,0.0,
0.15373800000001211,0.0,0.0,-15020.0,0.0,0.0,0.0,0.0,0.125,3.7475582100000002,0.0,0.0,-6813.0,0.0,0.0,-0.0,0.0,0.0,1.984863078,0.0,0.0,6803.0,0.0,0.0,0.0,0.0,0.0,4.912108872,0.0,0.0,-7014.0,0.0,0.0,-0.0,0.0,0.0,3.0114743010000002,0.0,-0.0012207029999999897,1.3200000524520874,0.5600000023841858,0.0,0.00225830078125,0.01983642578125,1.02899169921875,35.65999984741211,0.0,-7.0,-0.038482666015625,-0.1462554931640625,Waiting,0.0,0.0,-396138.0,0.0,0.0,0.0,0.0,0.0,
0.20823099999999978,0.0,0.0,-15020.0,0.0,0.0,0.0,0.0,0.125,3.7475582100000002,0.0,0.0,-6813.0,0.0,0.0,-0.0,0.0,0.0,1.983642375,0.0,0.0,6803.0,0.0,0.0,0.0,0.0,0.0,4.913329575000001,0.0,0.0,-7014.0,0.0,0.0,-0.0,0.0,0.0,3.0114743010000002,0.0,0.0,1.309999942779541,0.5,0.0,-0.013916015625,0.03070068359375,0.96820068359375,35.65999984741211,0.0,-22.0,-0.03851318359375,-0.1462554931640625,Waiting,0.0,0.0,-396138.0,0.0,0.0,0.0,0.0,0.0,
0.2584839999999967,0.0,0.0,-15020.0,0.0,0.0,0.0,0.0,0.125,3.7463375070000002,0.0,0.0,-6813.0,0.0,0.0,-0.0,0.0,0.0,1.983642375,0.0,0.0,6803.0,0.0,0.0,0.0,0.0,0.0,4.912108872,0.0,0.0,-7014.0,0.0,0.0,-0.0,0.0,0.0,3.0126950040000002,0.0,0.0012207029999999897,1.2999999523162842,0.4699999988079071,0.0,0.0081787109375,0.013916015625,0.989013671875,35.65999984741211,0.0,0.0,-0.0386199951171875,-0.1462554931640625,Waiting,0.0,0.0,-396138.0,0.0,0.0,0.0,0.0,0.0,
0.3114850000000151,0.0,0.0,-15020.0,0.0,0.0,0.0,0.0,0.125,3.7475582100000002,0.0,0.0,-6813.0,0.0,0.0,-0.0,0.0,0.0,1.983642375,0.0,0.0,6803.0,0.0,0.0,0.0,0.0,0.0,4.913329575000001,0.0,0.0,-7014.0,0.0,0.0,-0.0,0.0,0.0,3.0114743010000002,0.0,-0.0012207029999999897,1.2999999523162842,0.5,-0.029999999329447746,0.02191162109375,0.0338134765625,1.0025634765625,35.65999984741211,0.0,13.0,-0.0386199951171875,-0.1462554931640625,Waiting,0.0,0.0,-396138.0,0.0,0.0,0.0,0.0,0.0,
0.3646140000000014,0.0,0.0,-15020.0,0.0,0.0,0.0,0.0,0.125,3.7475582100000002,0.0,0.0,-6813.0,0.0,0.0,-0.0,0.0,0.0,1.983642375,0.0,0.0,6803.0,0.0,0.0,0.0,0.0,0.0,4.912108872,0.0,0.0,-7014.0,0.0,0.0,-0.0,0.0,0.0,3.0126950040000002,0.0,0.0012207029999999897,1.309999942779541,0.5400000214576721,-0.029999999329447746,0.034912109375,0.02410888671875,0.9964599609375,35.65999984741211,0.0,25.0,-0.0385284423828125,-0.1462554931640625,Waiting,0.0,0.0,-396138.0,0.0,0.0,0.0,0.0,0.0,
0.411640000000014,0.0,0.0,-15020.0,0.0,0.0,0.0,0.0,0.125,3.7475582100000002,0.0,0.0,-6813.0,0.0,0.0,-0.0,0.0,0.0,1.983642375,0.0,0.0,6803.0,0.0,0.0,0.0,0.0,0.0,4.913329575000001,0.0,0.0,-7014.0,0.0,0.0,-0.0,0.0,0.0,3.0126950040000002,0.0,0.0,1.309999942779541,0.5600000023841858,-0.029999999329447746,0.01165771484375,0.0181884765625,0.99713134765625,35.65999984741211,0.0,1.0,-0.0381927490234375,-0.1462554931640625,Waiting,0.0,0.0,-396138.0,0.0,0.0,0.0,0.0,0.0,
0.46513800000000627,0.0,0.0,-15020.0,0.0,0.0,0.0,0.0,0.125,3.7463375070000002,0.0,0.0,-6813.0,0.0,0.0,-0.0,0.0,0.0,1.983642375,0.0,0.0,6803.0,0.0,0.0,0.0,0.0,0.0,4.912108872,0.0,0.0,-7014.0,0.0,0.0,-0.0,0.0,0.0,3.0126950040000002,0.0,0.0,1.309999942779541,0.5299999713897705,-0.019999999552965164,-0.009765625,0.031494140625,0.99609375,35.65999984741211,0.0,-19.0,-0.0381927490234375,-0.1462554931640625,Waiting,0.0,0.0,-396138.0,0.0,0.0,0.0,0.0,0.0,
0.5125270000000018,0.0,0.0,-15020.0,0.0,0.0,0.0,0.0,0.125,3.7463375070000002,0.0,0.0,-6813.0,0.0,0.0,-0.0,0.0,0.0,1.983642375,0.0,0.0,6803.0,0.0,0.0,0.0,0.0,0.0,4.912108872,0.0,0.0,-7014.0,0.0,0.0,-0.0,0.0,0.0,3.0126950040000002,0.0,0.0,1.309999942779541,0.5199999809265137,-0.019999999552965164,0.00506591796875,0.02166748046875,0.9921875,35.65999984741211,0.0,-4.0,-0.0381927490234375,-0.1462554931640625,Waiting,0.0,0.0,-396138.0,0.0,0.0,0.0,0.0,0.0,
0.5668690000000061,0.0,0.0,-15020.0,0.0,0.0,0.0,0.0,0.125,3.7463375070000002,0.0,0.0,-6813.0,0.0,0.0,-0.0,0.0,0.0,1.983642375,0.0,0.0,6803.0,0.0,0.0,0.0,0.0,0.0,4.913329575000001,0.0,0.0,-7014.0,0.0,0.0,-0.0,0.0,0.0,3.0114743010000002,0.0,0.0,1.2999999523162842,0.5199999809265137,-0.029999999329447746,0.01495361328125,0.029052734375,1.00360107421875,35.68000030517578,0.0,5.0,-0.0381927490234375,-0.1462554931640625,Waiting,0.0,0.0,-396138.0,0.0,0.0,0.0,0.0,0.0,
0.616887000000017,0.0,0.0,-15020.0,0.0,0.0,0.0,0.0,0.125,3.7475582100000002,0.0,0.0,-6813.0,0.0,0.0,-0.0,0.0,0.0,1.983642375,0.0,0.0,6803.0,0.0,0.0,0.0,0.0,0.0,4.913329575000001,0.0,0.0,-7014.0,0.0,0.0,-0.0,0.0,0.0,3.0114743010000002,0.0,0.0,1.309999942779541,0.5400000214576721,-0.029999999329447746,0.013916015625,0.0185546875,1.00225830078125,35.68000030517578,0.0,4.0,-0.0381927490234375,-0.1462554931640625,Waiting,0.0,0.0,-396138.0,0.0,0.0,0.0,0.0,0.0,
0.6682690000000002,0.0,0.0,-15020.0,0.0,0.0,0.0,0.0,0.125,3.7475582100000002,0.0,0.0,-6813.0,0.0,0.0,-0.0,0.0,0.0,1.983642375,0.0,0.0,6803.0,0.0,0.0,0.0,0.0,0.0,4.914550278,0.0,0.0,-7014.0,0.0,0.0,-0.0,0.0,0.0,3.0114743010000002,0.0,0.0,1.2999999523162842,0.5400000214576721,-0.03999999910593033,0.00897216796875,0.0167236328125,1.0277099609375,35.68000030517578,0.0,0.0,-0.0381927490234375,-0.1462554931640625,Waiting,0.0,0.0,-396138.0,0.0,0.0,0.0,0.0,0.0,
0.7238060000000114,0.0,0.0,-15020.0,0.0,0.0,0.0,0.0,0.125,3.7475582100000002,0.0,0.0,-6813.0,0.0,0.0,-0.0,0.0,0.0,1.983642375,0.0,0.0,6803.0,0.0,0.0,0.0,0.0,0.0,4.912108872,0.0,0.0,-7014.0,0.0,0.0,-0.0,0.0,0.0,3.0126950040000002,0.0,-0.0012207029999999897,1.309999942779541,0.5299999713897705,-0.03999999910593033,0.01318359375,0.02117919921875,0.9940185546875,35.68000030517578,0.0,3.0,-0.0381927490234375,-0.1462554931640625,Waiting,0.0,0.0,-396138.0,0.0,0.0,0.0,0.0,0.0,
0.7716009999999951,0.0,0.0,-15020.0,0.0,0.0,0.0,0.0,0.125,3.7475582100000002,0.0,0.0,-6813.0,0.0,0.0,-0.0,0.0,0.0,1.984863078,0.0,0.0,6803.0,0.0,0.0,0.0,0.0,0.0,4.913329575000001,0.0,0.0,-7014.0,0.0,0.0,-0.0,0.0,0.0,3.0114743010000002,0.0,0.0012207029999999897,1.2999999523162842,0.5099999904632568,-0.03999999910593033,0.00103759765625,0.0206298828125,1.00860595703125,35.68000030517578,0.0,-8.0,-0.0381927490234375,-0.1462554931640625,Waiting,0.0,0.0,-396138.0,0.0,0.0,0.0,0.0,0.0,
0.8286180000000167,0.0,0.0,-15020.0,0.0,0.0,0.0,0.0,0.125,3.7463375070000002,0.0,0.0,-6813.0,0.0,0.0,-0.0,0.0,0.0,1.983642375,0.0,0.0,6803.0,0.0,0.0,0.0,0.0,0.0,4.913329575000001,0.0,0.0,-7014.0,0.0,0.0,-0.0,0.0,0.0,3.0126950040000002,0.0,-0.0012207029999999897,1.2899999618530273,0.4699999988079071,-0.05000000074505806,-0.003662109375,0.0267333984375,0.9832763671875,35.68000030517578,0.0,-11.0,-0.0381927490234375,-0.1462554931640625,Waiting,0.0,0.0,-396138.0,0.0,0.0,0.0,0.0,0.0,
0.8828880000000063,0.0,0.0,-15020.0,0.0,0.0,0.0,0.0,0.125,3.7475582100000002,0.0,0.0,-6813.0,0.0,0.0,-0.0,0.0,0.0,1.983642375,0.0,0.0,6803.0,0.0,0.0,0.0,0.0,0.0,4.912108872,0.0,0.0,-7014.0,0.0,0.0,-0.0,0.0,0.0,3.0114743010000002,0.0,0.0012207029999999897,1.2899999618530273,0.46000000834465027,-0.05000000074505806,0.0106201171875,0.0198974609375,0.99615478515625,35.68000030517578,0.0,2.0,-0.0381927490234375,-0.1462554931640625,Waiting,0.0,0.0,-396138.0,0.0,0.0,0.0,0.0,0.0,
0.9329180000000051,0.0,0.0,-15020.0,0.0,0.0,0.0,0.0,0.125,3.7463375070000002,0.0,0.0,-6813.0,0.0,0.0,-0.0,0.0,0.0,1.983642375,0.0,0.0,6803.0,0.0,0.0,0.0,0.0,0.0,4.913329575000001,0.0,0.0,-7014.0,0.0,0.0,-0.0,0.0,0.0,3.0126950040000002,0.0,0.0,1.2599999904632568,0.41999998688697815,-0.03999999910593033,8.544921875E-4,0.02386474609375,0.99591064453125,35.68000030517578,0.0,-6.0,-0.0381927490234375,-0.1462554931640625,Waiting,0.0,0.0,-396138.0,0.0,0.0,0.0,0.0,0.0,
0.9870940000000119,0.0,0.0,-15020.0,0.0,0.0,0.0,0.0,0.125,3.7463375070000002,0.0,0.0,-6813.0,0.0,0.0,-0.0,0.0,0.0,1.983642375,0.0,0.0,6803.0,0.0,0.0,0.0,0.0,0.0,4.912108872,0.0,0.0,-7014.0,0.0,0.0,-0.0,0.0,0.0,3.0114743010000002,0.0,0.0,1.2699999809265137,0.41999998688697815,-0.05000000074505806,-1.8310546875E-4,0.0244140625,1.0030517578125,35.68000030517578,0.0,-7.0,-0.0381927490234375,-0.1462554931640625,Waiting,0.0,0.0,-396138.0,0.0,0.0,0.0,0.0,0.0,
1.0447179999999934,0.0,0.0,-15020.0,0.0,0.0,0.0,0.0,0.125,3.7463375070000002,0.0,0.0,-6813.0,0.0,0.0,-0.0,0.0,0.0,1.983642375,0.0,0.0,6803.0,0.0,0.0,0.0,0.0,0.0,4.913329575000001,0.0,0.0,-7014.0,0.0,0.0,-0.0,0.0,0.0,3.0114743010000002,0.0,-0.0012207029999999897,1.2699999809265137,0.41999998688697815,-0.05000000074505806,0.0035400390625,0.02490234375,1.0042724609375,35.68000030517578,0.0,-3.0,-0.0381927490234375,-0.1462554931640625,Waiting,0.0,0.0,-396138.0,0.0,0.0,0.0,0.0,0.0,
1.0947030000000086,0.0,0.0,-15020.0,0.0,0.0,0.0,0.0,0.125,3.7463375070000002,0.0,0.0,-6813.0,0.0,0.0,-0.0,0.0,0.0,1.984863078,0.0,0.0,6803.0,0.0,0.0,0.0,0.0,0.0,4.913329575000001,0.0,0.0,-7014.0,0.0,0.0,-0.0,0.0,0.0,3.0126950040000002,0.0,0.0012207029999999897,1.2799999713897705,0.4300000071525574,-0.05000000074505806,0.00225830078125,0.02044677734375,1.00872802734375,35.70000076293945,0.0,-5.0,-0.0381927490234375,-0.1462554931640625,Waiting,0.0,0.0,-396138.0,0.0,0.0,0.0,0.0,0.0,
1.1501560000000173,0.0,0.0,-15020.0,0.0,0.0,0.0,0.0,0.125,3.7451168040000002,0.0,0.0,-6813.0,0.0,0.0,-0.0,0.0,0.0,1.983642375,0.0,0.0,6803.0,0.0,0.0,0.0,0.0,0.0,4.913329575000001,0.0,0.0,-7014.0,0.0,0.0,-0.0,0.0,0.0,3.0126950040000002,0.0,0.0,1.2699999809265137,0.41999998688697815,-0.05999999865889549,0.00128173828125,0.02349853515625,1.00347900390625,35.70000076293945,0.0,-6.0,-0.0381927490234375,-0.1462554931640625,Waiting,0.0,0.0,-396138.0,0.0,0.0,0.0,0.0,0.0,
1.2079310000000114,0.0,0.0,-15020.0,0.0,0.0,0.0,0.0,0.125,3.7463375070000002,0.0,0.0,-6813.0,0.0,0.0,-0.0,0.0,0.0,1.983642375,0.0,0.0,6803.0,0.0,0.0,0.0,0.0,0.0,4.913329575000001,0.0,0.0,-7014.0,0.0,0.0,-0.0,0.0,0.0,3.0126950040000002,0.0,-0.0012207029999999897,1.2799999713897705,0.38999998569488525,-0.07000000029802322,0.0093994140625,0.03021240234375,1.00103759765625,35.70000076293945,0.0,2.0,-0.0381927490234375,-0.1462554931640625,Waiting,0.0,0.0,-396138.0,0.0,0.0,0.0,0.0,0.0,
1.2650849999999918,0.0,0.0,-15020.0,0.0,0.0,0.0,0.0,0.125,3.7475582100000002,0.0,0.0,-6813.0,0.0,0.0,-0.0,0.0,0.0,1.983642375,0.0,0.0,6803.0,0.0,0.0,0.0,0.0,0.0,4.912108872,0.0,0.0,-7014.0,0.0,0.0,-0.0,0.0,0.0,3.0114743010000002,0.0,0.0,1.25,0.36000001430511475,-0.07999999821186066,0.01934814453125,0.01837158203125,0.9833984375,35.70000076293945,0.0,13.0,-0.0381927490234375,-0.1462554931640625,Waiting,0.0,0.0,-396138.0,0.0,0.0,0.0,0.0,0.0,
1.3164100000000034,0.0,0.0,-15020.0,0.0,0.0,0.0,0.0,0.125,3.7463375070000002,0.0,0.0,-6813.0,0.0,0.0,-0.0,0.0,0.0,1.984863078,0.0,0.0,6803.0,0.0,0.0,0.0,0.0,0.0,4.914550278,0.0,0.0,-7014.0,0.0,0.0,-0.0,0.0,0.0,3.0126950040000002,0.0,0.0012207029999999897,1.25,0.3799999952316284,-0.07999999821186066,0.02069091796875,0.01605224609375,0.99298095703125,35.70000076293945,0.0,14.0,-0.0381927490234375,-0.1462554931640625,Waiting,0.0,0.0,-396138.0,0.0,0.0,0.0,0.0,0.0,
1.372015000000014,0.0,0.0,-15020.0,0.0,0.0,0.0,0.0,0.125,3.7463375070000002,0.0,0.0,-6813.0,0.0,0.0,-0.0,0.0,0.0,1.984863078,0.0,0.0,6803.0,0.0,0.0,0.0,0.0,0.0,4.912108872,0.0,0.0,-7014.0,0.0,0.0,-0.0,0.0,0.0,3.0114743010000002,0.0,0.0,1.2300000190734863,0.3400000035762787,-0.07000000029802322,-0.0189208984375,0.02545166015625,0.9954833984375,35.70000076293945,0.0,-24.0,-0.0382232666015625,-0.1462554931640625,Waiting,0.0,0.0,-396138.0,0.0,0.0,0.0,0.0,0.0,
1.4315540000000038,0.0,0.0,-15020.0,0.0,0.0,0.0,0.0,0.125,3.7475582100000002,0.0,0.0,-6813.0,0.0,0.0,-0.0,0.0,0.0,1.983642375,0.0,0.0,6803.0,0.0,0.0,0.0,0.0,0.0,4.912108872,0.0,0.0,-7014.0,0.0,0.0,-0.0,0.0,0.0,3.0126950040000002,0.0,0.0,1.2400000095367432,0.30000001192092896,-0.07000000029802322,0.00299072265625,0.0203857421875,0.99444580078125,35.70000076293945,0.0,-2.0,-0.0383758544921875,-0.1462554931640625,Waiting,0.0,0.0,-396138.0,0.0,0.0,0.0,0.0,0.0,
1.4880679999999993,0.0,0.0,-15020.0,0.0,0.0,0.0,0.0,0.125,3.7463375070000002,0.0,0.0,-6813.0,0.0,0.0,-0.0,0.0,0.0,1.984863078,0.0,0.0,6803.0,0.0,0.0,0.0,0.0,0.0,4.913329575000001,0.0,0.0,-7014.0,0.0,0.0,-0.0,0.0,0.0,3.0078121920000003,0.0,0.0,1.2300000190734863,0.3400000035762787,-0.07999999821186066,0.017822265625,0.0242919921875,1.00848388671875,35.70000076293945,0.0,11.0,-0.0383758544921875,-0.1462554931640625,Waiting,0.0,0.0,-396138.0,0.0,0.0,0.0,0.0,0.0,
1.5409919999999984,0.0,0.0,-15020.0,0.0,0.0,0.0,0.0,0.125,3.7463375070000002,0.0,0.0,-6813.0,0.0,0.0,-0.0,0.0,0.0,1.983642375,0.0,0.0,6803.0,0.0,0.0,0.0,0.0,0.0,4.912108872,0.0,0.0,-7014.0,0.0,0.0,-0.0,0.0,0.0,3.0126950040000002,0.0,0.0,1.2300000190734863,0.3700000047683716,-0.07999999821186066,0.00482177734375,0.01922607421875,0.990478515625,35.70000076293945,0.0,-1.0,-0.0383758544921875,-0.1462554931640625,Waiting,0.0,0.0,-396138.0,0.0,0.0,0.0,0.0,0.0,
1.5944100000000034,0.0,0.0,-15020.0,0.0,0.0,0.0,0.0,0.125,3.7463375070000002,0.0,0.0,-6813.0,0.0,0.0,-0.0,0.0,0.0,1.983642375,0.0,0.0,6803.0,0.0,0.0,0.0,0.0,0.0,4.914550278,0.0,0.0,-7014.0,0.0,0.0,-0.0,0.0,0.0,3.0114743010000002,0.0,0.0,1.2400000095367432,0.38999998569488525,-0.07999999821186066,0.00970458984375,0.01690673828125,0.95941162109375,35.709999084472656,0.0,3.0,-0.0383758544921875,-0.1462554931640625,Waiting,0.0,0.0,-396138.0,0.0,0.0,0.0,0.0,0.0,
1.6513910000000032,0.0,0.0,-15020.0,0.0,0.0,0.0,0.0,0.125,3.7475582100000002,0.0,0.0,-6813.0,0.0,0.0,-0.0,0.0,0.0,1.984863078,0.0,0.0,6803.0,0.0,0.0,0.0,0.0,0.0,4.913329575000001,0.0,0.0,-7014.0,0.0,0.0,-0.0,0.0,0.0,3.0114743010000002,0.0,-0.0012207029999999897,1.2599999904632568,0.4300000071525574,-0.07999999821186066,0.021484375,0.0220947265625,0.9444580078125,35.709999084472656,0.0,14.0,-0.0383758544921875,-0.1462554931640625,Waiting,0.0,0.0,-396138.0,0.0,0.0,0.0,0.0,0.0,
1.7094679999999935,0.0,0.0,-15020.0,0.0,0.0,0.0,0.0,0.125,3.7463375070000002,0.0,0.0,-6813.0,0.0,0.0,-0.0,0.0,0.0,1.983642375,0.0,0.0,6803.0,0.0,0.0,0.0,0.0,0.0,4.913329575000001,0.0,0.0,-7014.0,0.0,0.0,-0.0,0.0,0.0,3.0126950040000002,0.0,0.0,1.2699999809265137,0.46000000834465027,-0.05999999865889549,0.02264404296875,0.0135498046875,0.96453857421875,35.709999084472656,0.0,14.0,-0.0383758544921875,-0.1462554931640625,Waiting,0.0,0.0,-396138.0,0.0,0.0,0.0,0.0,0.0,
1.7634839999999967,0.0,0.0,-15020.0,0.0,0.0,0.0,0.0,0.125,3.7463375070000002,0.0,0.0,-6813.0,0.0,0.0,-0.0,0.0,0.0,1.983642375,0.0,0.0,6803.0,0.0,0.0,0.0,0.0,0.0,4.913329575000001,0.0,0.0,-7014.0,0.0,0.0,-0.0,0.0,0.0,3.0126950040000002,0.0,0.0,1.2699999809265137,0.5,-0.05999999865889549,0.016357421875,0.02947998046875,0.9996337890625,35.709999084472656,0.0,7.0,-0.0383758544921875,-0.1462554931640625,Waiting,0.0,0.0,-396138.0,0.0,0.0,0.0,0.0,0.0,
1.8144409999999915,0.0,0.0,-15020.0,0.0,0.0,0.0,0.0,0.125,3.7463375070000002,0.0,0.0,-6813.0,0.0,0.0,-0.0,0.0,0.0,1.984863078,0.0,0.0,6803.0,0.0,0.0,0.0,0.0,0.0,4.912108872,0.0,0.0,-7014.0,0.0,0.0,-0.0,0.0,0.0,3.0078121920000003,0.0,0.0,1.2799999713897705,0.49000000953674316,-0.05000000074505806,0.00433349609375,0.025634765625,1.01971435546875,35.709999084472656,0.0,-4.0,-0.0383758544921875,-0.1462554931640625,Waiting,0.0,0.0,-396138.0,0.0,0.0,0.0,0.0,0.0,
1.8697799999999989,0.0,0.0,-15020.0,0.0,0.0,0.0,0.0,0.125,3.7475582100000002,0.0,0.0,-6813.0,0.0,0.0,-0.0,0.0,0.0,1.984863078,0.0,0.0,6803.0,0.0,0.0,0.0,0.0,0.0,4.913329575000001,0.0,0.0,-7014.0,0.0,0.0,-0.0,0.0,0.0,3.0126950040000002,0.0,-0.0012207029999999897,1.2699999809265137,0.4300000071525574,-0.029999999329447746,-0.01690673828125,0.02337646484375,0.98065185546875,35.709999084472656,0.0,-24.0,-0.0384063720703125,-0.1462554931640625,Waiting,0.0,0.0,-396138.0,0.0,0.0,0.0,0.0,0.0,
1.9272550000000046,0.0,0.0,-15020.0,0.0,0.0,0.0,0.0,0.125,3.7475582100000002,0.0,0.0,-6813.0,0.0,0.0,-0.0,0.0,0.0,1.983642375,0.0,0.0,6803.0,0.0,0.0,0.0,0.0,0.0,4.913329575000001,0.0,0.0,-7014.0,0.0,0.0,-0.0,0.0,0.0,3.0126950040000002,0.0,0.0012207029999999897,1.2899999618530273,0.47999998927116394,-0.03999999910593033,0.0303955078125,0.0260009765625,1.005615234375,35.709999084472656,0.0,21.0,-0.0384674072265625,-0.1462554931640625,Waiting,0.0,0.0,-396138.0,0.0,0.0,0.0,0.0,0.0,
1.9851330000000016,0.0,0.0,-15020.0,0.0,0.0,0.0,0.0,0.125,3.7475582100000002,0.0,0.0,-6813.0,0.0,0.0,-0.0,0.0,0.0,1.984863078,0.0,0.0,6803.0,0.0,0.0,0.0,0.0,0.0,4.910888169000001,0.0,0.0,-7014.0,0.0,0.0,-0.0,0.0,0.0,3.0126950040000002,0.0,0.0,1.3200000524520874,0.5400000214576721,-0.03999999910593033,0.00823974609375,0.0234375,1.044921875,35.709999084472656,0.0,-1.0,-0.038360595703125,-0.1462554931640625,Waiting,0.0,0.0,-396138.0,0.0,0.0,0.0,0.0,0.0,
2.041539000000019,0.0,0.0,-15020.0,0.0,0.0,0.0,0.0,0.0,3.7463375070000002,0.0,0.0,-6813.0,0.0,0.0,-0.0,0.0,0.0,1.983642375,0.0,0.0,6803.0,0.0,0.0,0.0,0.0,0.0,4.914550278,0.0,0.0,-7014.0,0.0,0.0,-0.0,0.0,0.0,3.0114743010000002,0.0,0.0,1.3300000429153442,0.550000011920929,-0.019999999552965164,-0.00360107421875,0.0255126953125,1.06298828125,35.709999084472656,0.0,-13.0,-0.038360595703125,-0.1462554931640625,Waiting,0.0,0.0,-396138.0,0.0,0.0,0.0,0.0,0.0,
