Time,ClimberA1,ClimberA2,FRpos,FRCurrent,FRspeed,FRsetpoint,FRApos,FRACurrent,FREncpos,FREncSetpoint,FREncSpeed,FLpos,FLCurrent,FLspeed,FLsetpoint,FLApos,FLACurrent,FLEncpos,FLEncSetpoint,FLEncSpeed,BRpos,BRCurrent,BRspeed,BRsetpoint,BRApos,BRACurrent,BREncpos,BREncSetpoint,BREncSpeed,BLpos,BLCurrent,BLspeed,BLsetpoint,BLApos,BLACurrent,BLEncpos,BLEncSetpoint,BLEncSpeed,navx_Pitch,navx_Roll,navx_Yaw,navx_XAcc,navx_YAcc,navx_ZAcc,navx_Temp,navx_Bar,navx_Alt,navx_XDis,navx_YDis,GearPlacerState,ShootOutputV,ShootOutputCurrent,ShootEncPos,ShootEncVelocity,ShootSpeed,ShootSetpoint,CarouselSetpoint,CarouselCurrent,
0.14721699999994597,0.0,0.0,20.0,0.0,0.0,0.0,0.0,0.125,3.8378902320000003,0.0,0.0,343.0,0.0,0.0,-0.0,0.0,0.0,2.0080564350000003,0.0,0.0,37.0,0.0,0.0,0.0,0.0,0.0,4.691161629000001,0.0,0.0,-53.0,0.0,0.0,-0.0,0.0,0.0,2.921142279,0.0,0.0,-0.49000000953674316,89.4000015258789,-110.1500015258789,1.0028076171875,-0.0081787109375,-0.00701904296875,35.0,0.0,1.0,-0.0733795166015625,0.0605621337890625,Waiting,0.0,0.0,-396138.0,0.0,0.0,0.0,0.0,0.0,
0.32786699999985286,0.0,0.0,20.0,0.0,0.0,0.0,0.0,0.125,3.8391109350000003,0.0,0.0,343.0,0.0,0.0,-0.0,0.0,0.0,2.0080564350000003,0.0,0.0,37.0,0.0,0.0,0.0,0.0,0.0,4.692382332,0.0,0.0,-53.0,0.0,0.0,-0.0,0.0,0.0,2.921142279,0.0,0.0,-0.49000000953674316,89.4000015258789,-110.05999755859375,1.00445556640625,-0.0096435546875,-0.00164794921875,35.0,0.0,-4.0,-0.0733795166015625,0.0605621337890625,Waiting,0.0,0.0,-396138.0,0.0,0.0,0.0,0.0,0.0,
0.5128569999998436,0.0,0.0,20.0,0.0,0.0,0.0,0.0,0.125,3.8391109350000003,0.0,0.0,343.0,0.0,0.0,-0.0,0.0,0.0,2.0080564350000003,0.0,0.0,37.0,0.0,0.0,0.0,0.0,0.0,4.692382332,0.0,0.0,-53.0,0.0,0.0,-0.0,0.0,0.0,2.921142279,0.0,0.0,-0.49000000953674316,89.4000015258789,-109.73999786376953,1.0042724609375,-0.00848388671875,-0.00286865234375,35.0,0.0,-2.0,-0.0733795166015625,0.0605621337890625,Waiting,0.0,0.0,-396138.0,0.0,0.0,0.0,0.0,0.0,
0.7000669999998063,0.0,0.0,20.0,0.0,0.0,0.0,0.0,0.125,3.8391109350000003,0.0,0.0,343.0,0.0,0.0,-0.0,0.0,0.0,2.0080564350000003,0.0,0.0,37.0,0.0,0.0,0.0,0.0,0.0,4.691161629000001,0.0,0.0,-53.0,0.0,0.0,-0.0,0.0,0.0,2.921142279,0.0,0.0,-0.5,89.38999938964844,-109.79000091552734,1.00689697265625,-0.00848388671875,-0.0067138671875,34.9900016784668,0.0,0.0,-0.0733795166015625,0.0605621337890625,Waiting,0.0,0.0,-396138.0,0.0,0.0,0.0,0.0,0.0,
0.8984930000000168,0.0,0.0,20.0,0.0,0.0,0.0,0.0,0.125,3.8391109350000003,0.0,0.0,343.0,0.0,0.0,-0.0,0.0,0.0,2.0092771380000003,0.0,0.0,37.0,0.0,0.0,0.0,0.0,0.0,4.691161629000001,0.0,0.0,-53.0,0.0,0.0,-0.0,0.0,0.0,2.919921576,0.0,0.0,-0.49000000953674316,89.4000015258789,-109.33000183105469,1.00347900390625,-0.00909423828125,-0.00604248046875,34.9900016784668,0.0,0.0,-0.0733795166015625,0.0605621337890625,Waiting,0.0,0.0,-396138.0,0.0,0.0,0.0,0.0,0.0,
1.0904830000000074,0.0,0.0,20.0,0.0,0.0,0.0,0.0,0.125,3.8378902320000003,0.0,0.0,343.0,0.0,0.0,-0.0,0.0,0.0,2.0080564350000003,0.0,0.0,37.0,0.0,0.0,0.0,0.0,0.0,4.691161629000001,0.0,0.0,-53.0,0.0,0.0,-0.0,0.0,0.0,2.921142279,0.0,0.0,-0.5,89.4000015258789,-109.01000213623047,1.00537109375,-0.008056640625,-0.0069580078125,34.9900016784668,0.0,1.0,-0.0733795166015625,0.0605621337890625,Waiting,0.0,0.0,-396138.0,0.0,0.0,0.0,0.0,0.0,
1.2893289999999107,0.0,0.0,20.0,0.0,0.0,0.0,0.0,0.125,3.8378902320000003,0.0,0.0,343.0,0.0,0.0,-0.0,0.0,0.0,2.0080564350000003,0.0,0.0,37.0,0.0,0.0,0.0,0.0,0.0,4.691161629000001,0.0,0.0,-53.0,0.0,0.0,-0.0,0.0,0.0,2.919921576,0.0,0.0,-0.5,89.4000015258789,-108.5999984741211,1.00506591796875,-0.01220703125,-0.00677490234375,34.959999084472656,0.0,1.0,-0.0733795166015625,0.0605621337890625,Waiting,0.0,0.0,-396138.0,0.0,0.0,0.0,0.0,0.0,
1.4993299999998417,0.0,0.0,20.0,0.0,0.0,0.0,0.0,0.125,3.8378902320000003,0.0,0.0,343.0,0.0,0.0,-0.0,0.0,0.0,2.0092771380000003,0.0,0.0,37.0,0.0,0.0,0.0,0.0,0.0,4.692382332,0.0,0.0,-53.0,0.0,0.0,-0.0,0.0,0.0,2.921142279,0.0,0.0,-0.49000000953674316,89.41000366210938,-108.87999725341797,1.00506591796875,-0.011474609375,-0.00689697265625,34.959999084472656,0.0,1.0,-0.0733795166015625,0.0605621337890625,Waiting,0.0,0.0,-396138.0,0.0,0.0,0.0,0.0,0.0,
1.6935769999998156,0.0,0.0,20.0,0.0,0.0,0.0,0.0,0.125,3.8391109350000003,0.0,0.0,343.0,0.0,0.0,-0.0,0.0,0.0,2.0092771380000003,0.0,0.0,37.0,0.0,0.0,0.0,0.0,0.0,4.691161629000001,0.0,0.0,-53.0,0.0,0.0,-0.0,0.0,0.0,2.921142279,0.0,0.0,-0.49000000953674316,89.41000366210938,-108.80000305175781,1.0050048828125,-0.0068359375,-0.00408935546875,35.0,0.0,-1.0,-0.0733795166015625,0.0605621337890625,Waiting,0.0,0.0,-396138.0,0.0,0.0,0.0,0.0,0.0,
1.8910239999999758,0.0,0.0,20.0,0.0,0.0,0.0,0.0,0.125,3.8391109350000003,0.0,0.0,343.0,0.0,0.0,-0.0,0.0,0.0,2.0056150290000003,0.0,0.0,37.0,0.0,0.0,0.0,0.0,0.0,4.688720223000001,0.0,0.0,-53.0,0.0,0.0,-0.0,0.0,0.0,2.919921576,0.0,0.0,-0.5,89.41000366210938,-108.5199966430664,1.0035400390625,-0.0062255859375,-0.0067138671875,35.0,0.0,1.0,-0.0733795166015625,0.0605621337890625,Waiting,0.0,0.0,-396138.0,0.0,0.0,0.0,0.0,0.0,
2.088773999999976,0.0,0.0,20.0,0.0,0.0,0.0,0.0,0.125,3.8391109350000003,0.0,0.0,343.0,0.0,0.0,-0.0,0.0,0.0,2.0080564350000003,0.0,0.0,37.0,0.0,0.0,0.0,0.0,0.0,4.689940926,0.0,0.0,-53.0,0.0,0.0,-0.0,0.0,0.0,2.919921576,0.0,0.0,-0.5,89.41000366210938,-108.5199966430664,1.004638671875,-0.0089111328125,-0.00775146484375,35.0,0.0,2.0,-0.0733795166015625,0.0605621337890625,Waiting,0.0,0.0,-396138.0,0.0,0.0,0.0,0.0,0.0,
2.284684999999823,0.0,0.0,20.0,0.0,0.0,0.0,0.0,0.125,3.8391109350000003,0.0,0.0,343.0,0.0,0.0,-0.0,0.0,0.0,2.0080564350000003,0.0,0.0,37.0,0.0,0.0,0.0,0.0,0.0,4.692382332,0.0,0.0,-53.0,0.0,0.0,-0.0,0.0,0.0,2.919921576,0.0,0.0,-0.49000000953674316,89.4000015258789,-109.25,1.00518798828125,-0.0093994140625,-0.00604248046875,34.9900016784668,0.0,0.0,-0.0733795166015625,0.0605621337890625,Waiting,0.0,0.0,-396138.0,0.0,0.0,0.0,0.0,0.0,
2.4748469999998344,0.0,0.0,20.0,0.0,0.0,0.0,0.0,0.125,3.8391109350000003,0.0,0.0,343.0,0.0,0.0,-0.0,0.0,0.0,2.0080564350000003,0.0,0.0,37.0,0.0,0.0,0.0,0.0,0.0,4.691161629000001,0.0,0.0,-53.0,0.0,0.0,-0.0,0.0,0.0,2.921142279,0.0,0.0,-0.49000000953674316,89.4000015258789,-109.25,1.00299072265625,-0.00701904296875,-0.00732421875,34.9900016784668,0.0,1.0,-0.0733795166015625,0.0605621337890625,Waiting,0.0,0.0,-396138.0,0.0,0.0,0.0,0.0,0.0,
2.6581350000000095,0.0,0.0,20.0,0.0,0.0,0.0,0.0,0.125,3.8391109350000003,0.0,0.0,343.0,0.0,0.0,-0.0,0.0,0.0,2.0092771380000003,0.0,0.0,37.0,0.0,0.0,0.0,0.0,0.0,4.693603035000001,0.0,0.0,-53.0,0.0,0.0,-0.0,0.0,0.0,2.921142279,0.0,0.0,-0.49000000953674316,89.4000015258789,-109.25,1.00335693359375,-0.00634765625,-0.004150390625,34.9900016784668,0.0,-1.0,-0.0733795166015625,0.0605621337890625,Waiting,0.0,0.0,-396138.0,0.0,0.0,0.0,0.0,0.0,
2.8350129999998024,0.0,0.0,20.0,0.0,0.0,0.0,0.0,0.125,3.8378902320000003,0.0,0.0,343.0,0.0,0.0,-0.0,0.0,0.0,2.0092771380000003,0.0,0.0,37.0,0.0,0.0,0.0,0.0,0.0,4.691161629000001,0.0,0.0,-53.0,0.0,0.0,-0.0,0.0,0.0,2.919921576,0.0,0.0,-0.5,89.4000015258789,-109.30999755859375,1.00347900390625,-0.00836181640625,-0.0052490234375,34.9900016784668,0.0,0.0,-0.0733795166015625,0.0605621337890625,Waiting,0.0,0.0,-396138.0,0.0,0.0,0.0,0.0,0.0,
3.0259109999998475,0.0,0.0,20.0,0.0,0.0,0.0,0.0,0.125,3.8378902320000003,0.0,0.0,343.0,0.0,0.0,-0.0,0.0,0.0,2.0092771380000003,0.0,0.0,37.0,0.0,0.0,0.0,0.0,0.0,4.692382332,0.0,0.0,-53.0,0.0,0.0,-0.0,0.0,0.0,2.919921576,0.0,0.0,-0.5,89.4000015258789,-108.9000015258789,1.00543212890625,-0.0048828125,-0.00335693359375,34.9900016784668,0.0,-2.0,-0.0733795166015625,0.0605621337890625,Waiting,0.0,0.0,-396138.0,0.0,0.0,0.0,0.0,0.0,
3.2123809999998194,0.0,0.0,20.0,0.0,0.0,0.0,0.0,0.125,3.8391109350000003,0.0,0.0,343.0,0.0,0.0,-0.0,0.0,0.0,2.0092771380000003,0.0,0.0,37.0,0.0,0.0,0.0,0.0,0.0,4.691161629000001,0.0,0.0,-53.0,0.0,0.0,-0.0,0.0,0.0,2.919921576,0.0,0.0,-0.5,89.41000366210938,-108.5199966430664,1.00372314453125,-0.0078125,-0.00494384765625,34.9900016784668,0.0,0.0,-0.0733795166015625,0.0605621337890625,Waiting,0.0,0.0,-396138.0,0.0,0.0,0.0,0.0,0.0,
3.395275999999838,0.0,0.0,20.0,0.0,0.0,0.0,0.0,0.125,3.8391109350000003,0.0,0.0,343.0,0.0,0.0,-0.0,0.0,0.0,1.9982908110000002,0.0,0.0,37.0,0.0,0.0,0.0,0.0,0.0,4.691161629000001,0.0,0.0,-53.0,0.0,0.0,-0.0,0.0,0.0,2.921142279,0.0,0.0,-0.5,89.41000366210938,-108.5199966430664,1.0028076171875,-0.00970458984375,-0.0040283203125,34.9900016784668,0.0,-1.0,-0.0733795166015625,0.0605621337890625,Waiting,0.0,0.0,-396138.0,0.0,0.0,0.0,0.0,0.0,
3.5769479999998586,0.0,0.0,20.0,0.0,0.0,0.0,0.0,0.125,3.8378902320000003,0.0,0.0,343.0,0.0,0.0,-0.0,0.0,0.0,2.0080564350000003,0.0,0.0,37.0,0.0,0.0,0.0,0.0,0.0,4.691161629000001,0.0,0.0,-53.0,0.0,0.0,-0.0,0.0,0.0,2.921142279,0.0,0.0,-0.5,89.4000015258789,-108.16999816894531,1.00445556640625,-0.00830078125,-0.00286865234375,34.9900016784668,0.0,-2.0,-0.0733795166015625,0.0605621337890625,Waiting,0.0,0.0,-396138.0,0.0,0.0,0.0,0.0,0.0,
3.7669769999999554,0.0,0.0,20.0,0.0,0.0,0.0,0.0,0.125,3.8391109350000003,0.0,0.0,343.0,0.0,0.0,-0.0,0.0,0.0,2.0092771380000003,0.0,0.0,37.0,0.0,0.0,0.0,0.0,0.0,4.691161629000001,0.0,0.0,-53.0,0.0,0.0,-0.0,0.0,0.0,2.922362982,0.0,0.0,-0.5,89.41000366210938,-108.0999984741211,1.004150390625,-0.0087890625,-0.00457763671875,34.9900016784668,0.0,0.0,-0.0733795166015625,0.0605621337890625,Waiting,0.0,0.0,-396138.0,0.0,0.0,0.0,0.0,0.0,
3.9543829999999143,0.0,0.0,20.0,0.0,0.0,0.0,0.0,0.125,3.8391109350000003,0.0,0.0,343.0,0.0,0.0,-0.0,0.0,0.0,2.0092771380000003,0.0,0.0,37.0,0.0,0.0,0.0,0.0,0.0,4.691161629000001,0.0,0.0,-53.0,0.0,0.0,-0.0,0.0,0.0,2.919921576,0.0,0.0,-0.5,89.4000015258789,-108.16999816894531,1.0001220703125,-0.00836181640625,-0.00140380859375,34.9900016784668,0.0,-3.0,-0.0733795166015625,0.0605621337890625,Waiting,0.0,0.0,-396138.0,0.0,0.0,0.0,0.0,0.0,
4.133839999999851,0.0,0.0,20.0,0.0,0.0,0.0,0.0,0.125,3.8391109350000003,0.0,0.0,343.0,0.0,0.0,-0.0,0.0,0.0,2.0080564350000003,0.0,0.0,37.0,0.0,0.0,0.0,0.0,0.0,4.689940926,0.0,0.0,-53.0,0.0,0.0,-0.0,0.0,0.0,2.919921576,0.0,0.0,-0.5,89.4000015258789,-108.5,1.0042724609375,-0.0096435546875,-0.01043701171875,34.9900016784668,0.0,4.0,-0.0733795166015625,0.0605621337890625,Waiting,0.0,0.0,-396138.0,0.0,0.0,0.0,0.0,0.0,
4.320722999999998,0.0,0.0,20.0,0.0,0.0,0.0,0.0,0.125,3.8391109350000003,0.0,0.0,343.0,0.0,0.0,-0.0,0.0,0.0,2.0092771380000003,0.0,0.0,37.0,0.0,0.0,0.0,0.0,0.0,4.692382332,0.0,0.0,-53.0,0.0,0.0,-0.0,0.0,0.0,2.921142279,0.0,0.0,-0.5099999904632568,89.4000015258789,-108.2300033569336,1.00347900390625,-0.00970458984375,-0.00738525390625,34.97999954223633,0.0,2.0,-0.0733795166015625,0.0605621337890625,Waiting,0.0,0.0,-396138.0,0.0,0.0,0.0,0.0,0.0,
4.5117870000000115,0.0,0.0,20.0,0.0,0.0,0.0,0.0,0.125,3.8391109350000003,0.0,0.0,343.0,0.0,0.0,-0.0,0.0,0.0,2.0080564350000003,0.0,0.0,37.0,0.0,0.0,0.0,0.0,0.0,4.692382332,0.0,0.0,-53.0,0.0,0.0,-0.0,0.0,0.0,2.921142279,0.0,0.0,-0.5,89.4000015258789,-108.11000061035156,1.0042724609375,-0.01123046875,-0.00506591796875,34.97999954223633,0.0,0.0,-0.0733795166015625,0.0605621337890625,Waiting,0.0,0.0,-396138.0,0.0,0.0,0.0,0.0,0.0,
4.690158999999985,0.0,0.0,20.0,0.0,0.0,0.0,0.0,0.125,3.8378902320000003,0.0,0.0,343.0,0.0,0.0,-0.0,0.0,0.0,2.0080564350000003,0.0,0.0,37.0,0.0,0.0,0.0,0.0,0.0,4.691161629000001,0.0,0.0,-53.0,0.0,0.0,-0.0,0.0,0.0,2.919921576,0.0,0.0,-0.5099999904632568,89.4000015258789,-107.7699966430664,1.00238037109375,-0.01123046875,-0.0032958984375,35.0,0.0,-1.0,-0.0733795166015625,0.0605621337890625,Waiting,0.0,0.0,-396138.0,0.0,0.0,0.0,0.0,0.0,
4.8746739999998825,0.0,0.0,20.0,0.0,0.0,0.0,0.0,0.125,3.8391109350000003,0.0,0.0,343.0,0.0,0.0,-0.0,0.0,0.0,2.0080564350000003,0.0,0.0,37.0,0.0,0.0,0.0,0.0,0.0,4.691161629000001,0.0,0.0,-53.0,0.0,0.0,-0.0,0.0,0.0,2.921142279,0.0,0.0,-0.5099999904632568,89.4000015258789,-107.7699966430664,1.00390625,-0.00909423828125,-0.0057373046875,35.0,0.0,0.0,-0.0733795166015625,0.0605621337890625,Waiting,0.0,0.0,-396138.0,0.0,0.0,0.0,0.0,0.0,
5.055196999999928,0.0,0.0,20.0,0.0,0.0,0.0,0.0,0.125,3.8391109350000003,0.0,0.0,343.0,0.0,0.0,-0.0,0.0,0.0,2.0092771380000003,0.0,0.0,37.0,0.0,0.0,0.0,0.0,0.0,4.691161629000001,0.0,0.0,-53.0,0.0,0.0,-0.0,0.0,0.0,2.9296872,0.0,0.0,-0.5099999904632568,89.4000015258789,-107.7699966430664,1.00439453125,-0.0089111328125,-0.00189208984375,35.0,0.0,-3.0,-0.0733795166015625,0.0605621337890625,Waiting,0.0,0.0,-396138.0,0.0,0.0,0.0,0.0,0.0,
5.248618999999948,0.0,0.0,20.0,0.0,0.0,0.0,0.0,0.125,3.8391109350000003,0.0,0.0,343.0,0.0,0.0,-0.0,0.0,0.0,2.004394326,0.0,0.0,37.0,0.0,0.0,0.0,0.0,0.0,4.691161629000001,0.0,0.0,-53.0,0.0,0.0,-0.0,0.0,0.0,2.919921576,0.0,0.0,-0.5099999904632568,89.4000015258789,-107.7699966430664,1.0028076171875,-0.00897216796875,-0.00616455078125,35.0,0.0,0.0,-0.0733795166015625,0.0605621337890625,Waiting,0.0,0.0,-396138.0,0.0,0.0,0.0,0.0,0.0,
5.434721999999835,0.0,0.0,20.0,0.0,0.0,0.0,0.0,0.125,3.8415523410000003,0.0,0.0,343.0,0.0,0.0,-0.0,0.0,0.0,2.0080564350000003,0.0,0.0,37.0,0.0,0.0,0.0,0.0,0.0,4.691161629000001,0.0,0.0,-53.0,0.0,0.0,-0.0,0.0,0.0,2.919921576,0.0,0.0,-0.5099999904632568,89.4000015258789,-107.7699966430664,1.0028076171875,-0.0087890625,-0.00628662109375,35.0,0.0,1.0,-0.0733795166015625,0.0605621337890625,Waiting,0.0,0.0,-396138.0,0.0,0.0,0.0,0.0,0.0,
5.620169999999925,0.0,0.0,20.0,0.0,0.0,0.0,0.0,0.125,3.8378902320000003,0.0,0.0,343.0,0.0,0.0,-0.0,0.0,0.0,2.0080564350000003,0.0,0.0,37.0,0.0,0.0,0.0,0.0,0.0,4.689940926,0.0,0.0,-53.0,0.0,0.0,-0.0,0.0,0.0,2.921142279,0.0,0.0,-0.5,89.41000366210938,-107.30999755859375,1.00579833984375,-0.00909423828125,-0.0025634765625,35.0,0.0,-2.0,-0.0733795166015625,0.0605621337890625,Waiting,0.0,0.0,-396138.0,0.0,0.0,0.0,0.0,0.0,
5.808648999999976,0.0,0.0,20.0,0.0,0.0,0.0,0.0,0.125,3.8378902320000003,0.0,0.0,343.0,0.0,0.0,-0.0,0.0,0.0,2.0080564350000003,0.0,0.0,37.0,0.0,0.0,0.0,0.0,0.0,4.692382332,0.0,0.0,-53.0,0.0,0.0,-0.0,0.0,0.0,2.921142279,0.0,0.0,-0.49000000953674316,89.41000366210938,-107.98999786376953,1.00408935546875,-0.00732421875,-0.00347900390625,34.9900016784668,0.0,-1.0,-0.0733795166015625,0.0605621337890625,Waiting,0.0,0.0,-396138.0,0.0,0.0,0.0,0.0,0.0,
5.991287999999942,0.0,0.0,20.0,0.0,0.0,0.0,0.0,0.125,3.8391109350000003,0.0,0.0,343.0,0.0,0.0,-0.0,0.0,0.0,2.0092771380000003,0.0,0.0,37.0,0.0,0.0,0.0,0.0,0.0,4.691161629000001,0.0,0.0,-53.0,0.0,0.0,-0.0,0.0,0.0,2.919921576,0.0,0.0,-0.49000000953674316,89.41000366210938,-107.98999786376953,1.00384521484375,-0.007080078125,-0.0054931640625,34.9900016784668,0.0,0.0,-0.0733795166015625,0.0605621337890625,Waiting,0.0,0.0,-396138.0,0.0,0.0,0.0,0.0,0.0,
6.176342999999877,0.0,0.0,20.0,0.0,0.0,0.0,0.0,0.125,3.8391109350000003,0.0,0.0,343.0,0.0,0.0,-0.0,0.0,0.0,2.0080564350000003,0.0,0.0,37.0,0.0,0.0,0.0,0.0,0.0,4.691161629000001,0.0,0.0,-53.0,0.0,0.0,-0.0,0.0,0.0,2.921142279,0.0,0.0,-0.5,89.41000366210938,-107.6500015258789,1.0069580078125,-0.00787353515625,-0.0048828125,34.9900016784668,0.0,0.0,-0.0733795166015625,0.0605621337890625,Waiting,0.0,0.0,-396138.0,0.0,0.0,0.0,0.0,0.0,
6.3609660000000146,0.0,0.0,20.0,0.0,0.0,0.0,0.0,0.125,3.8391109350000003,0.0,0.0,343.0,0.0,0.0,-0.0,0.0,0.0,2.0092771380000003,0.0,0.0,37.0,0.0,0.0,0.0,0.0,0.0,4.691161629000001,0.0,0.0,-53.0,0.0,0.0,-0.0,0.0,0.0,2.921142279,0.0,0.0,-0.5,89.41000366210938,-107.9800033569336,1.00164794921875,-0.01104736328125,-0.0062255859375,35.0,0.0,0.0,-0.0733795166015625,0.0605621337890625,Waiting,0.0,0.0,-396138.0,0.0,0.0,0.0,0.0,0.0,
6.55080700000003,0.0,0.0,20.0,0.0,0.0,0.0,0.0,0.125,3.8391109350000003,0.0,0.0,343.0,0.0,0.0,-0.0,0.0,0.0,2.0092771380000003,0.0,0.0,37.0,0.0,0.0,0.0,0.0,0.0,4.691161629000001,0.0,0.0,-53.0,0.0,0.0,-0.0,0.0,0.0,2.919921576,0.0,0.0,-0.5099999904632568,89.4000015258789,-107.76000213623047,1.0059814453125,-0.010498046875,-0.00299072265625,35.0,0.0,-2.0,-0.0733795166015625,0.0605621337890625,Waiting,0.0,0.0,-396138.0,0.0,0.0,0.0,0.0,0.0,
6.735139999999897,0.0,0.0,20.0,0.0,0.0,0.0,0.0,0.125,3.8378902320000003,0.0,0.0,343.0,0.0,0.0,-0.0,0.0,0.0,2.0080564350000003,0.0,0.0,37.0,0.0,0.0,0.0,0.0,0.0,4.692382332,0.0,0.0,-53.0,0.0,0.0,-0.0,0.0,0.0,2.919921576,0.0,0.0,-0.5,89.41000366210938,-107.6500015258789,1.0047607421875,-0.01068115234375,-0.00732421875,34.9900016784668,0.0,2.0,-0.0733795166015625,0.0605621337890625,Waiting,0.0,0.0,-396138.0,0.0,0.0,0.0,0.0,0.0,
6.916683999999892,0.0,0.0,20.0,0.0,0.0,0.0,0.0,0.125,3.8391109350000003,0.0,0.0,343.0,0.0,0.0,-0.0,0.0,0.0,2.0080564350000003,0.0,0.0,37.0,0.0,0.0,0.0,0.0,0.0,4.691161629000001,0.0,0.0,-53.0,0.0,0.0,-0.0,0.0,0.0,2.912597358,0.0,0.0,-0.5,89.41000366210938,-107.30999755859375,1.0032958984375,-0.0086669921875,0.0,34.9900016784668,0.0,-5.0,-0.0733795166015625,0.0605621337890625,Waiting,0.0,0.0,-396138.0,0.0,0.0,0.0,0.0,0.0,
7.101456000000006,0.0,0.0,20.0,0.0,0.0,0.0,0.0,0.125,3.8403316380000003,0.0,0.0,343.0,0.0,0.0,-0.0,0.0,0.0,2.0092771380000003,0.0,0.0,37.0,0.0,0.0,0.0,0.0,0.0,4.689940926,0.0,0.0,-53.0,0.0,0.0,-0.0,0.0,0.0,2.919921576,0.0,0.0,-0.5,89.41000366210938,-107.30999755859375,1.0025634765625,-0.00982666015625,-0.00640869140625,34.9900016784668,0.0,1.0,-0.0733795166015625,0.0605621337890625,Waiting,0.0,0.0,-396138.0,0.0,0.0,0.0,0.0,0.0,
7.290856999999844,0.0,0.0,20.0,0.0,0.0,0.0,0.0,0.125,3.8391109350000003,0.0,0.0,343.0,0.0,0.0,-0.0,0.0,0.0,2.0080564350000003,0.0,0.0,37.0,0.0,0.0,0.0,0.0,0.0,4.692382332,0.0,0.0,-53.0,0.0,0.0,-0.0,0.0,0.0,2.919921576,0.0,0.0,-0.5,89.4000015258789,-108.0999984741211,0.999267578125,-0.01177978515625,-0.00592041015625,35.02000045776367,0.0,0.0,-0.0733795166015625,0.0605621337890625,Waiting,0.0,0.0,-396138.0,0.0,0.0,0.0,0.0,0.0,
7.476240999999922,0.0,0.0,20.0,0.0,0.0,0.0,0.0,0.125,3.8391109350000003,0.0,0.0,343.0,0.0,0.0,-0.0,0.0,0.0,2.0080564350000003,0.0,0.0,37.0,0.0,0.0,0.0,0.0,0.0,4.691161629000001,0.0,0.0,-53.0,0.0,0.0,-0.0,0.0,0.0,2.919921576,0.0,0.0,-0.5,89.4000015258789,-108.0999984741211,1.00457763671875,-0.0106201171875,-0.0042724609375,35.02000045776367,0.0,-1.0,-0.0733795166015625,0.0605621337890625,Waiting,0.0,0.0,-396138.0,0.0,0.0,0.0,0.0,0.0,
7.653957999999868,0.0,0.0,20.0,0.0,0.0,0.0,0.0,0.125,3.8391109350000003,0.0,0.0,343.0,0.0,0.0,-0.0,0.0,0.0,2.0080564350000003,0.0,0.0,37.0,0.0,0.0,0.0,0.0,0.0,4.689940926,0.0,0.0,-53.0,0.0,0.0,-0.0,0.0,0.0,2.919921576,0.0,0.0,-0.5099999904632568,89.4000015258789,-108.13999938964844,1.00274658203125,-0.00799560546875,-0.00665283203125,35.02000045776367,0.0,1.0,-0.0733795166015625,0.0605621337890625,Waiting,0.0,0.0,-396138.0,0.0,0.0,0.0,0.0,0.0,
7.847979999999981,0.0,0.0,20.0,0.0,0.0,0.0,0.0,0.125,3.8391109350000003,0.0,0.0,343.0,0.0,0.0,-0.0,0.0,0.0,2.0080564350000003,0.0,0.0,37.0,0.0,0.0,0.0,0.0,0.0,4.691161629000001,0.0,0.0,-53.0,0.0,0.0,-0.0,0.0,0.0,2.921142279,0.0,0.0,-0.5099999904632568,89.4000015258789,-107.41999816894531,1.00213623046875,-0.00970458984375,-0.00177001953125,35.0099983215332,0.0,-1.0,-0.0733795166015625,0.0605621337890625,Waiting,0.0,0.0,-396138.0,0.0,0.0,0.0,0.0,0.0,
8.036260999999941,0.0,0.0,20.0,0.0,0.0,0.0,0.0,0.125,3.8391109350000003,0.0,0.0,343.0,0.0,0.0,-0.0,0.0,0.0,2.0080564350000003,0.0,0.0,37.0,0.0,0.0,0.0,0.0,0.0,4.692382332,0.0,0.0,-53.0,0.0,0.0,-0.0,0.0,0.0,2.919921576,0.0,0.0,-0.5099999904632568,89.4000015258789,-107.7699966430664,1.00323486328125,-0.00799560546875,-0.0028076171875,35.0099983215332,0.0,-2.0,-0.0733795166015625,0.0605621337890625,Waiting,0.0,0.0,-396138.0,0.0,0.0,0.0,0.0,0.0,
8.236534999999916,0.0,0.0,20.0,0.0,0.0,0.0,0.0,0.125,3.8391109350000003,0.0,0.0,343.0,0.0,0.0,-0.0,0.0,0.0,2.0092771380000003,0.0,0.0,37.0,0.0,0.0,0.0,0.0,0.0,4.691161629000001,0.0,0.0,-53.0,0.0,0.0,-0.0,0.0,0.0,2.921142279,0.0,0.0,-0.5099999904632568,89.4000015258789,-107.7699966430664,1.00421142578125,-0.01031494140625,-0.0052490234375,35.0099983215332,0.0,0.0,-0.0733795166015625,0.0605621337890625,Waiting,0.0,0.0,-396138.0,0.0,0.0,0.0,0.0,0.0,
8.435483000000007,0.0,0.0,20.0,0.0,0.0,0.0,0.0,0.125,3.8391109350000003,0.0,0.0,343.0,0.0,0.0,-0.0,0.0,0.0,2.0080564350000003,0.0,0.0,37.0,0.0,0.0,0.0,0.0,0.0,4.691161629000001,0.0,0.0,-53.0,0.0,0.0,-0.0,0.0,0.0,2.919921576,0.0,0.0,-0.5099999904632568,89.4000015258789,-108.16999816894531,1.0059814453125,-0.0086669921875,-0.00848388671875,35.0099983215332,0.0,3.0,-0.0733795166015625,0.0605621337890625,Waiting,0.0,0.0,-396138.0,0.0,0.0,0.0,0.0,0.0,
8.63514500000002,0.0,0.0,20.0,0.0,0.0,0.0,0.0,0.125,3.8391109350000003,0.0,0.0,343.0,0.0,0.0,-0.0,0.0,0.0,2.0092771380000003,0.0,0.0,37.0,0.0,0.0,0.0,0.0,0.0,4.689940926,0.0,0.0,-53.0,0.0,0.0,-0.0,0.0,0.0,2.919921576,0.0,0.0,-0.5099999904632568,89.38999938964844,-108.22000122070312,1.0020751953125,-0.01019287109375,-0.00506591796875,35.0099983215332,0.0,0.0,-0.0733795166015625,0.0605621337890625,Waiting,0.0,0.0,-396138.0,0.0,0.0,0.0,0.0,0.0,
8.835385999999941,0.0,0.0,20.0,0.0,0.0,0.0,0.0,0.125,3.8378902320000003,0.0,0.0,343.0,0.0,0.0,-0.0,0.0,0.0,2.000732217,0.0,0.0,37.0,0.0,0.0,0.0,0.0,0.0,4.691161629000001,0.0,0.0,-53.0,0.0,0.0,-0.0,0.0,0.0,2.921142279,0.0,0.0,-0.5099999904632568,89.38999938964844,-108.22000122070312,1.0006103515625,-0.00775146484375,-0.00341796875,35.0,0.0,-2.0,-0.0733795166015625,0.0605621337890625,Waiting,0.0,0.0,-396138.0,0.0,0.0,0.0,0.0,0.0,
9.037718999999807,0.0,0.0,20.0,0.0,0.0,0.0,0.0,0.125,3.8378902320000003,0.0,0.0,343.0,0.0,0.0,-0.0,0.0,0.0,2.0080564350000003,0.0,0.0,37.0,0.0,0.0,0.0,0.0,0.0,4.689940926,0.0,0.0,-53.0,0.0,0.0,-0.0,0.0,0.0,2.921142279,0.0,0.0,-0.5,89.4000015258789,-108.11000061035156,1.00164794921875,-0.01025390625,-0.0064697265625,35.0,0.0,1.0,-0.0733795166015625,0.0605621337890625,Waiting,0.0,0.0,-396138.0,0.0,0.0,0.0,0.0,0.0,
9.242280000000028,0.0,0.0,20.0,0.0,0.0,0.0,0.0,0.125,3.8391109350000003,0.0,0.0,343.0,0.0,0.0,-0.0,0.0,0.0,2.0080564350000003,0.0,0.0,37.0,0.0,0.0,0.0,0.0,0.0,4.691161629000001,0.0,0.0,-53.0,0.0,0.0,-0.0,0.0,0.0,2.919921576,0.0,0.0,-0.5099999904632568,89.4000015258789,-107.7699966430664,1.00604248046875,-0.0081787109375,-0.00164794921875,35.0,0.0,-3.0,-0.0733795166015625,0.0605621337890625,Waiting,0.0,0.0,-396138.0,0.0,0.0,0.0,0.0,0.0,
9.444703999999911,0.0,0.0,20.0,0.0,0.0,0.0,0.0,0.125,3.8391109350000003,0.0,0.0,343.0,0.0,0.0,-0.0,0.0,0.0,2.0080564350000003,0.0,0.0,37.0,0.0,0.0,0.0,0.0,0.0,4.689940926,0.0,0.0,-53.0,0.0,0.0,-0.0,0.0,0.0,2.919921576,0.0,0.0,-0.5099999904632568,89.4000015258789,-107.83999633789062,1.0054931640625,-0.0087890625,-0.00421142578125,34.970001220703125,0.0,-1.0,-0.0733795166015625,0.0605621337890625,Waiting,0.0,0.0,-396138.0,0.0,0.0,0.0,0.0,0.0,
9.646547000000021,0.0,0.0,20.0,0.0,0.0,0.0,0.0,0.0,3.8391109350000003,0.0,0.0,343.0,0.0,0.0,-0.0,0.0,0.0,2.0080564350000003,0.0,0.0,37.0,0.0,0.0,0.0,0.0,0.0,4.692382332,0.0,0.0,-53.0,0.0,0.0,-0.0,0.0,0.0,2.921142279,0.0,0.0,-0.5,89.4000015258789,-108.11000061035156,1.00347900390625,-0.00836181640625,-0.00262451171875,34.970001220703125,0.0,-2.0,-0.0733795166015625,0.0605621337890625,Waiting,0.0,0.0,-396138.0,0.0,0.0,0.0,0.0,0.0,
