Time,ClimberA1,ClimberA2,FRpos,FRCurrent,FRspeed,FRsetpoint,FRApos,FRACurrent,FREncpos,FREncSetpoint,FREncSpeed,FLpos,FLCurrent,FLspeed,FLsetpoint,FLApos,FLACurrent,FLEncpos,FLEncSetpoint,FLEncSpeed,BRpos,BRCurrent,BRspeed,BRsetpoint,BRApos,BRACurrent,BREncpos,BREncSetpoint,BREncSpeed,BLpos,BLCurrent,BLspeed,BLsetpoint,BLApos,BLACurrent,BLEncpos,BLEncSetpoint,BLEncSpeed,navx_Pitch,navx_Roll,navx_Yaw,navx_XAcc,navx_YAcc,navx_ZAcc,navx_Temp,navx_Bar,navx_Alt,navx_XDis,navx_YDis,GearPlacerState,ShootOutputV,ShootOutputCurrent,ShootEncPos,ShootEncVelocity,ShootSpeed,ShootSetpoint,CarouselSetpoint,CarouselCurrent,
0.12746299999998884,0.0,0.0,20.0,0.0,0.0,0.0,0.0,0.125,3.868407807,0.0,0.0,343.0,0.0,0.0,-0.0,0.0,0.0,2.0080564350000003,0.0,0.0,37.0,0.0,0.0,0.0,0.0,0.0,4.691161629000001,0.0,0.0,-53.0,0.0,0.0,-0.0,0.0,0.0,2.919921576,0.0,0.0,-0.5799999833106995,89.37999725341797,89.41999816894531,1.00286865234375,-0.00872802734375,-0.006103515625,35.0,0.0,1.0,-0.073486328125,0.0605621337890625,Waiting,0.0,0.0,-396138.0,0.0,0.0,0.0,0.0,0.0,
0.29444100000010803,0.0,0.0,20.0,0.0,0.0,0.0,0.0,0.125,3.8488765590000003,0.0,0.0,343.0,0.0,0.0,-0.0,0.0,0.0,2.0092771380000003,0.0,0.0,37.0,0.0,0.0,0.0,0.0,0.0,4.692382332,0.0,0.0,-53.0,0.0,0.0,-0.0,0.0,0.0,2.921142279,0.0,0.0,-0.5699999928474426,89.37000274658203,89.43000030517578,1.00421142578125,-0.01177978515625,0.001708984375,35.0,0.0,-1.0,-0.073486328125,0.0605621337890625,Waiting,0.0,0.0,-396138.0,0.0,0.0,0.0,0.0,0.0,
0.46875399999995715,0.0,0.0,20.0,0.0,0.0,0.0,0.0,0.125,3.8378902320000003,0.0,0.0,343.0,0.0,0.0,-0.0,0.0,0.0,2.0092771380000003,0.0,0.0,37.0,0.0,0.0,0.0,0.0,0.0,4.692382332,0.0,0.0,-53.0,0.0,0.0,-0.0,0.0,0.0,2.921142279,0.0,0.0,-0.5600000023841858,89.37999725341797,89.44000244140625,1.001220703125,-0.01007080078125,-0.00433349609375,35.0,0.0,0.0,-0.073486328125,0.0605621337890625,Waiting,0.0,0.0,-396138.0,0.0,0.0,0.0,0.0,0.0,
0.6459640000001527,0.0,0.0,20.0,0.0,0.0,0.0,0.0,0.125,3.8403316380000003,0.0,0.0,343.0,0.0,0.0,-0.0,0.0,0.0,2.0080564350000003,0.0,0.0,37.0,0.0,0.0,0.0,0.0,0.0,4.692382332,0.0,0.0,-53.0,0.0,0.0,-0.0,0.0,0.0,2.919921576,0.0,0.0,-0.550000011920929,89.38999938964844,89.44999694824219,1.00482177734375,-0.01019287109375,0.00177001953125,35.0099983215332,0.0,0.0,-0.073486328125,0.0605621337890625,Waiting,0.0,0.0,-396138.0,0.0,0.0,0.0,0.0,0.0,
0.8139720000000671,0.0,0.0,20.0,0.0,0.0,0.0,0.0,0.125,3.8391109350000003,0.0,0.0,343.0,0.0,0.0,-0.0,0.0,0.0,2.0092771380000003,0.0,0.0,37.0,0.0,0.0,0.0,0.0,0.0,4.689940926,0.0,0.0,-53.0,0.0,0.0,-0.0,0.0,0.0,2.919921576,0.0,0.0,-0.5,89.41999816894531,89.48999786376953,0.99871826171875,-0.0078125,-0.017333984375,35.0099983215332,0.0,1.0,-0.073486328125,0.0605621337890625,Waiting,0.0,0.0,-396138.0,0.0,0.0,0.0,0.0,0.0,
0.9922790000000968,0.0,0.0,20.0,0.0,0.0,0.0,0.0,0.125,3.8378902320000003,0.0,0.0,343.0,0.0,0.0,-0.0,0.0,0.0,2.0092771380000003,0.0,0.0,37.0,0.0,0.0,0.0,0.0,0.0,4.691161629000001,0.0,0.0,-53.0,0.0,0.0,-0.0,0.0,0.0,2.919921576,0.0,0.0,-0.5099999904632568,89.41000366210938,89.48999786376953,1.00567626953125,-0.00396728515625,0.0048828125,35.0099983215332,0.0,4.0,-0.073486328125,0.0605621337890625,Waiting,0.0,0.0,-396138.0,0.0,0.0,0.0,0.0,0.0,
1.1676640000001062,0.0,0.0,20.0,0.0,0.0,0.0,0.0,0.125,3.8391109350000003,0.0,0.0,343.0,0.0,0.0,-0.0,0.0,0.0,2.0080564350000003,0.0,0.0,37.0,0.0,0.0,0.0,0.0,0.0,4.691161629000001,0.0,0.0,-53.0,0.0,0.0,-0.0,0.0,0.0,2.921142279,0.0,0.0,-0.5400000214576721,89.38999938964844,89.45999908447266,1.00286865234375,-0.00323486328125,-0.01025390625,35.040000915527344,0.0,6.0,-0.073486328125,0.0605621337890625,Waiting,0.0,0.0,-396138.0,0.0,0.0,0.0,0.0,0.0,
1.3467909999999683,0.0,0.0,20.0,0.0,0.0,0.0,0.0,0.125,3.8391109350000003,0.0,0.0,343.0,0.0,0.0,-0.0,0.0,0.0,2.0092771380000003,0.0,0.0,37.0,0.0,0.0,0.0,0.0,0.0,4.691161629000001,0.0,0.0,-53.0,0.0,0.0,-0.0,0.0,0.0,2.919921576,0.0,0.0,-0.550000011920929,89.38999938964844,89.44999694824219,1.0029296875,-0.0089111328125,-0.00518798828125,35.040000915527344,0.0,0.0,-0.073486328125,0.0605621337890625,Waiting,0.0,0.0,-396138.0,0.0,0.0,0.0,0.0,0.0,
1.5190830000001005,0.0,0.0,20.0,0.0,0.0,0.0,0.0,0.125,3.8403316380000003,0.0,0.0,343.0,0.0,0.0,-0.0,0.0,0.0,2.0092771380000003,0.0,0.0,37.0,0.0,0.0,0.0,0.0,0.0,4.691161629000001,0.0,0.0,-53.0,0.0,0.0,-0.0,0.0,0.0,2.919921576,0.0,0.0,-0.550000011920929,89.37999725341797,89.44000244140625,1.0029296875,-0.00848388671875,-0.002197265625,35.040000915527344,0.0,1.0,-0.073486328125,0.0605621337890625,Waiting,0.0,0.0,-396138.0,0.0,0.0,0.0,0.0,0.0,
1.694624000000069,0.0,0.0,20.0,0.0,0.0,0.0,0.0,0.125,3.8342281230000004,0.0,0.0,343.0,0.0,0.0,-0.0,0.0,0.0,2.0080564350000003,0.0,0.0,37.0,0.0,0.0,0.0,0.0,0.0,4.691161629000001,0.0,0.0,-53.0,0.0,0.0,-0.0,0.0,0.0,2.921142279,0.0,0.0,-0.5600000023841858,89.37999725341797,89.44000244140625,1.00347900390625,-0.01104736328125,-0.00433349609375,35.02000045776367,0.0,-1.0,-0.073486328125,0.0605621337890625,Waiting,0.0,0.0,-396138.0,0.0,0.0,0.0,0.0,0.0,
1.871378999999957,0.0,0.0,20.0,0.0,0.0,0.0,0.0,0.125,3.8391109350000003,0.0,0.0,343.0,0.0,0.0,-0.0,0.0,0.0,2.0080564350000003,0.0,0.0,37.0,0.0,0.0,0.0,0.0,0.0,4.691161629000001,0.0,0.0,-53.0,0.0,0.0,-0.0,0.0,0.0,2.919921576,0.0,0.0,-0.5699999928474426,89.37000274658203,89.43000030517578,1.00482177734375,-0.0103759765625,-0.0059814453125,35.02000045776367,0.0,0.0,-0.073486328125,0.0605621337890625,Waiting,0.0,0.0,-396138.0,0.0,0.0,0.0,0.0,0.0,
2.0458710000000426,0.0,0.0,20.0,0.0,0.0,0.0,0.0,0.125,3.8391109350000003,0.0,0.0,343.0,0.0,0.0,-0.0,0.0,0.0,2.0080564350000003,0.0,0.0,37.0,0.0,0.0,0.0,0.0,0.0,4.689940926,0.0,0.0,-53.0,0.0,0.0,-0.0,0.0,0.0,2.921142279,0.0,0.0,-0.5799999833106995,89.37000274658203,89.41999816894531,1.00262451171875,-0.01031494140625,-0.0037841796875,35.02000045776367,0.0,0.0,-0.073486328125,0.0605621337890625,Waiting,0.0,0.0,-396138.0,0.0,0.0,0.0,0.0,0.0,
2.2150549999999347,0.0,0.0,20.0,0.0,0.0,0.0,0.0,0.125,3.8391109350000003,0.0,0.0,343.0,0.0,0.0,-0.0,0.0,0.0,2.0080564350000003,0.0,0.0,37.0,0.0,0.0,0.0,0.0,0.0,4.691161629000001,0.0,0.0,-53.0,0.0,0.0,-0.0,0.0,0.0,2.919921576,0.0,0.0,-0.5799999833106995,89.37000274658203,89.41999816894531,1.00286865234375,-0.0086669921875,-9.765625E-4,35.02000045776367,0.0,1.0,-0.073486328125,0.0605621337890625,Waiting,0.0,0.0,-396138.0,0.0,0.0,0.0,0.0,0.0,
2.39047900000005,0.0,0.0,20.0,0.0,0.0,0.0,0.0,0.125,3.8391109350000003,0.0,0.0,343.0,0.0,0.0,-0.0,0.0,0.0,2.0080564350000003,0.0,0.0,37.0,0.0,0.0,0.0,0.0,0.0,4.692382332,0.0,0.0,-53.0,0.0,0.0,-0.0,0.0,0.0,2.921142279,0.0,0.0,-0.5600000023841858,89.37999725341797,89.44000244140625,1.00128173828125,-0.00738525390625,-0.005615234375,35.02000045776367,0.0,2.0,-0.073486328125,0.0605621337890625,Waiting,0.0,0.0,-396138.0,0.0,0.0,0.0,0.0,0.0,
2.5667960000000893,0.0,0.0,20.0,0.0,0.0,0.0,0.0,0.125,3.8391109350000003,0.0,0.0,343.0,0.0,0.0,-0.0,0.0,0.0,2.0080564350000003,0.0,0.0,37.0,0.0,0.0,0.0,0.0,0.0,4.691161629000001,0.0,0.0,-53.0,0.0,0.0,-0.0,0.0,0.0,2.921142279,0.0,0.0,-0.5400000214576721,89.38999938964844,89.45999908447266,1.004638671875,-0.00775146484375,0.00286865234375,35.0099983215332,0.0,1.0,-0.073486328125,0.0605621337890625,Waiting,0.0,0.0,-396138.0,0.0,0.0,0.0,0.0,0.0,
2.749157000000123,0.0,0.0,20.0,0.0,0.0,0.0,0.0,0.125,3.8391109350000003,0.0,0.0,343.0,0.0,0.0,-0.0,0.0,0.0,2.0080564350000003,0.0,0.0,37.0,0.0,0.0,0.0,0.0,0.0,4.691161629000001,0.0,0.0,-53.0,0.0,0.0,-0.0,0.0,0.0,2.921142279,0.0,0.0,-0.5299999713897705,89.38999938964844,89.47000122070312,1.00152587890625,-0.0096435546875,-0.0015869140625,35.0099983215332,0.0,0.0,-0.073486328125,0.0605621337890625,Waiting,0.0,0.0,-396138.0,0.0,0.0,0.0,0.0,0.0,
2.9194450000000653,0.0,0.0,20.0,0.0,0.0,0.0,0.0,0.125,3.8391109350000003,0.0,0.0,343.0,0.0,0.0,-0.0,0.0,0.0,2.0080564350000003,0.0,0.0,37.0,0.0,0.0,0.0,0.0,0.0,4.691161629000001,0.0,0.0,-53.0,0.0,0.0,-0.0,0.0,0.0,2.921142279,0.0,0.0,-0.5099999904632568,89.4000015258789,89.48999786376953,1.00390625,-0.01031494140625,-0.01123046875,35.0099983215332,0.0,-1.0,-0.073486328125,0.0605621337890625,Waiting,0.0,0.0,-396138.0,0.0,0.0,0.0,0.0,0.0,
3.0956950000000654,0.0,0.0,20.0,0.0,0.0,0.0,0.0,0.125,3.8391109350000003,0.0,0.0,343.0,0.0,0.0,-0.0,0.0,0.0,2.0080564350000003,0.0,0.0,37.0,0.0,0.0,0.0,0.0,0.0,4.691161629000001,0.0,0.0,-53.0,0.0,0.0,-0.0,0.0,0.0,2.921142279,0.0,0.0,-0.5199999809265137,89.38999938964844,89.4800033569336,1.00311279296875,-0.0084228515625,-0.00982666015625,34.9900016784668,0.0,0.0,-0.073486328125,0.0605621337890625,Waiting,0.0,0.0,-396138.0,0.0,0.0,0.0,0.0,0.0,
3.270412000000011,0.0,0.0,20.0,0.0,0.0,0.0,0.0,0.125,3.8391109350000003,0.0,0.0,343.0,0.0,0.0,-0.0,0.0,0.0,2.0080564350000003,0.0,0.0,37.0,0.0,0.0,0.0,0.0,0.0,4.692382332,0.0,0.0,-53.0,0.0,0.0,-0.0,0.0,0.0,2.921142279,0.0,0.0,-0.5199999809265137,89.38999938964844,89.4800033569336,1.0003662109375,-0.0064697265625,-6.103515625E-4,34.9900016784668,0.0,2.0,-0.073486328125,0.0605621337890625,Waiting,0.0,0.0,-396138.0,0.0,0.0,0.0,0.0,0.0,
3.4495390000001063,0.0,0.0,20.0,0.0,0.0,0.0,0.0,0.125,3.8391109350000003,0.0,0.0,343.0,0.0,0.0,-0.0,0.0,0.0,2.0080564350000003,0.0,0.0,37.0,0.0,0.0,0.0,0.0,0.0,4.691161629000001,0.0,0.0,-53.0,0.0,0.0,-0.0,0.0,0.0,2.921142279,0.0,0.0,-0.5199999809265137,89.38999938964844,89.4800033569336,1.00592041015625,-0.006103515625,-0.003173828125,34.9900016784668,0.0,3.0,-0.073486328125,0.0605621337890625,Waiting,0.0,0.0,-396138.0,0.0,0.0,0.0,0.0,0.0,
3.6217290000000504,0.0,0.0,20.0,0.0,0.0,0.0,0.0,0.125,3.8366695290000004,0.0,0.0,343.0,0.0,0.0,-0.0,0.0,0.0,2.0092771380000003,0.0,0.0,37.0,0.0,0.0,0.0,0.0,0.0,4.691161629000001,0.0,0.0,-53.0,0.0,0.0,-0.0,0.0,0.0,2.919921576,0.0,0.0,-0.5199999809265137,89.38999938964844,89.4800033569336,1.006591796875,-0.00750732421875,-0.0068359375,35.029998779296875,0.0,1.0,-0.073486328125,0.0605621337890625,Waiting,0.0,0.0,-396138.0,0.0,0.0,0.0,0.0,0.0,
3.79346800000011,0.0,0.0,20.0,0.0,0.0,0.0,0.0,0.125,3.8378902320000003,0.0,0.0,343.0,0.0,0.0,-0.0,0.0,0.0,2.0080564350000003,0.0,0.0,37.0,0.0,0.0,0.0,0.0,0.0,4.692382332,0.0,0.0,-53.0,0.0,0.0,-0.0,0.0,0.0,2.921142279,0.0,0.0,-0.5199999809265137,89.38999938964844,89.4800033569336,1.0040283203125,-0.0057373046875,-0.00421142578125,35.029998779296875,0.0,3.0,-0.073486328125,0.0605621337890625,Waiting,0.0,0.0,-396138.0,0.0,0.0,0.0,0.0,0.0,
3.9756450000000187,0.0,0.0,20.0,0.0,0.0,0.0,0.0,0.125,3.8378902320000003,0.0,0.0,343.0,0.0,0.0,-0.0,0.0,0.0,2.0080564350000003,0.0,0.0,37.0,0.0,0.0,0.0,0.0,0.0,4.691161629000001,0.0,0.0,-53.0,0.0,0.0,-0.0,0.0,0.0,2.921142279,0.0,0.0,-0.5199999809265137,89.38999938964844,89.4800033569336,1.006103515625,-0.0106201171875,-0.0025634765625,35.029998779296875,0.0,-1.0,-0.073486328125,0.0605621337890625,Waiting,0.0,0.0,-396138.0,0.0,0.0,0.0,0.0,0.0,
4.163341999999946,0.0,0.0,20.0,0.0,0.0,0.0,0.0,0.125,3.8391109350000003,0.0,0.0,343.0,0.0,0.0,-0.0,0.0,0.0,2.0092771380000003,0.0,0.0,37.0,0.0,0.0,0.0,0.0,0.0,4.691161629000001,0.0,0.0,-53.0,0.0,0.0,-0.0,0.0,0.0,2.921142279,0.0,0.0,-0.5199999809265137,89.38999938964844,89.47000122070312,1.00244140625,-0.007568359375,-0.00677490234375,35.02000045776367,0.0,1.0,-0.073486328125,0.0605621337890625,Waiting,0.0,0.0,-396138.0,0.0,0.0,0.0,0.0,0.0,
4.348570000000065,0.0,0.0,20.0,0.0,0.0,0.0,0.0,0.125,3.8391109350000003,0.0,0.0,343.0,0.0,0.0,-0.0,0.0,0.0,2.0080564350000003,0.0,0.0,37.0,0.0,0.0,0.0,0.0,0.0,4.691161629000001,0.0,0.0,-53.0,0.0,0.0,-0.0,0.0,0.0,2.919921576,0.0,0.0,-0.5299999713897705,89.38999938964844,89.47000122070312,1.0028076171875,-0.009521484375,-0.0062255859375,35.02000045776367,0.0,0.0,-0.073486328125,0.0605621337890625,Waiting,0.0,0.0,-396138.0,0.0,0.0,0.0,0.0,0.0,
4.53022900000005,0.0,0.0,20.0,0.0,0.0,0.0,0.0,0.125,3.8378902320000003,0.0,0.0,343.0,0.0,0.0,-0.0,0.0,0.0,2.0092771380000003,0.0,0.0,37.0,0.0,0.0,0.0,0.0,0.0,4.68749952,0.0,0.0,-53.0,0.0,0.0,-0.0,0.0,0.0,2.921142279,0.0,0.0,-0.5299999713897705,89.38999938964844,89.47000122070312,1.00213623046875,-0.01055908203125,-0.00732421875,35.02000045776367,0.0,-1.0,-0.073486328125,0.0605621337890625,Waiting,0.0,0.0,-396138.0,0.0,0.0,0.0,0.0,0.0,
4.71353600000008,0.0,0.0,20.0,0.0,0.0,0.0,0.0,0.125,3.8403316380000003,0.0,0.0,343.0,0.0,0.0,-0.0,0.0,0.0,2.0080564350000003,0.0,0.0,37.0,0.0,0.0,0.0,0.0,0.0,4.692382332,0.0,0.0,-53.0,0.0,0.0,-0.0,0.0,0.0,2.921142279,0.0,0.0,-0.5299999713897705,89.38999938964844,89.47000122070312,1.00103759765625,-0.00787353515625,-0.00164794921875,35.0,0.0,1.0,-0.073486328125,0.0605621337890625,Waiting,0.0,0.0,-396138.0,0.0,0.0,0.0,0.0,0.0,
4.902303000000073,0.0,0.0,20.0,0.0,0.0,0.0,0.0,0.125,3.8391109350000003,0.0,0.0,343.0,0.0,0.0,-0.0,0.0,0.0,2.0092771380000003,0.0,0.0,37.0,0.0,0.0,0.0,0.0,0.0,4.689940926,0.0,0.0,-53.0,0.0,0.0,-0.0,0.0,0.0,2.921142279,0.0,0.0,-0.5199999809265137,89.38999938964844,89.47000122070312,1.00384521484375,-0.009033203125,-0.00469970703125,35.0,0.0,0.0,-0.073486328125,0.0605621337890625,Waiting,0.0,0.0,-396138.0,0.0,0.0,0.0,0.0,0.0,
5.090775000000139,0.0,0.0,20.0,0.0,0.0,0.0,0.0,0.125,3.8391109350000003,0.0,0.0,343.0,0.0,0.0,-0.0,0.0,0.0,2.0080564350000003,0.0,0.0,37.0,0.0,0.0,0.0,0.0,0.0,4.691161629000001,0.0,0.0,-53.0,0.0,0.0,-0.0,0.0,0.0,2.921142279,0.0,0.0,-0.5199999809265137,89.4000015258789,89.4800033569336,1.00115966796875,-0.0098876953125,-0.00640869140625,35.040000915527344,0.0,0.0,-0.073486328125,0.0605621337890625,Waiting,0.0,0.0,-396138.0,0.0,0.0,0.0,0.0,0.0,
5.276768000000157,0.0,0.0,20.0,0.0,0.0,0.0,0.0,0.125,3.8391109350000003,0.0,0.0,343.0,0.0,0.0,-0.0,0.0,0.0,2.0080564350000003,0.0,0.0,37.0,0.0,0.0,0.0,0.0,0.0,4.689940926,0.0,0.0,-53.0,0.0,0.0,-0.0,0.0,0.0,2.921142279,0.0,0.0,-0.5199999809265137,89.4000015258789,89.4800033569336,1.00335693359375,-0.00946044921875,-0.01177978515625,35.040000915527344,0.0,0.0,-0.073486328125,0.0605621337890625,Waiting,0.0,0.0,-396138.0,0.0,0.0,0.0,0.0,0.0,
5.468070999999997,0.0,0.0,20.0,0.0,0.0,0.0,0.0,0.125,3.8378902320000003,0.0,0.0,343.0,0.0,0.0,-0.0,0.0,0.0,2.0080564350000003,0.0,0.0,37.0,0.0,0.0,0.0,0.0,0.0,4.689940926,0.0,0.0,-53.0,0.0,0.0,-0.0,0.0,0.0,2.921142279,0.0,0.0,-0.5099999904632568,89.41000366210938,89.48999786376953,1.00390625,-0.008056640625,-0.00567626953125,35.040000915527344,0.0,0.0,-0.073486328125,0.0605621337890625,Waiting,0.0,0.0,-396138.0,0.0,0.0,0.0,0.0,0.0,
5.653533999999985,0.0,0.0,20.0,0.0,0.0,0.0,0.0,0.125,3.8391109350000003,0.0,0.0,343.0,0.0,0.0,-0.0,0.0,0.0,2.0092771380000003,0.0,0.0,37.0,0.0,0.0,0.0,0.0,0.0,4.691161629000001,0.0,0.0,-53.0,0.0,0.0,-0.0,0.0,0.0,2.919921576,0.0,0.0,-0.5099999904632568,89.4000015258789,89.48999786376953,1.00457763671875,-0.01055908203125,-0.0037841796875,35.0099983215332,0.0,-1.0,-0.073486328125,0.0605621337890625,Waiting,0.0,0.0,-396138.0,0.0,0.0,0.0,0.0,0.0,
5.828121000000043,0.0,0.0,20.0,0.0,0.0,0.0,0.0,0.125,3.8391109350000003,0.0,0.0,343.0,0.0,0.0,-0.0,0.0,0.0,2.0080564350000003,0.0,0.0,37.0,0.0,0.0,0.0,0.0,0.0,4.691161629000001,0.0,0.0,-53.0,0.0,0.0,-0.0,0.0,0.0,2.921142279,0.0,0.0,-0.5199999809265137,89.38999938964844,89.4800033569336,1.00103759765625,-0.0068359375,-0.005126953125,35.0099983215332,0.0,2.0,-0.073486328125,0.0605621337890625,Waiting,0.0,0.0,-396138.0,0.0,0.0,0.0,0.0,0.0,
6.004583000000101,0.0,0.0,20.0,0.0,0.0,0.0,0.0,0.125,3.8378902320000003,0.0,0.0,343.0,0.0,0.0,-0.0,0.0,0.0,2.0080564350000003,0.0,0.0,37.0,0.0,0.0,0.0,0.0,0.0,4.689940926,0.0,0.0,-53.0,0.0,0.0,-0.0,0.0,0.0,2.921142279,0.0,0.0,-0.5199999809265137,89.37999725341797,89.4800033569336,1.0003662109375,-0.007568359375,-0.00384521484375,35.0099983215332,0.0,1.0,-0.073486328125,0.0605621337890625,Waiting,0.0,0.0,-396138.0,0.0,0.0,0.0,0.0,0.0,
6.172003999999957,0.0,0.0,20.0,0.0,0.0,0.0,0.0,0.125,3.8391109350000003,0.0,0.0,343.0,0.0,0.0,-0.0,0.0,0.0,2.0080564350000003,0.0,0.0,37.0,0.0,0.0,0.0,0.0,0.0,4.692382332,0.0,0.0,-53.0,0.0,0.0,-0.0,0.0,0.0,2.921142279,0.0,0.0,-0.5099999904632568,89.38999938964844,89.48999786376953,1.0028076171875,-0.00616455078125,-0.003662109375,35.029998779296875,0.0,2.0,-0.073486328125,0.0605621337890625,Waiting,0.0,0.0,-396138.0,0.0,0.0,0.0,0.0,0.0,
6.349685000000056,0.0,0.0,20.0,0.0,0.0,0.0,0.0,0.125,3.8391109350000003,0.0,0.0,343.0,0.0,0.0,-0.0,0.0,0.0,2.0080564350000003,0.0,0.0,37.0,0.0,0.0,0.0,0.0,0.0,4.691161629000001,0.0,0.0,-53.0,0.0,0.0,-0.0,0.0,0.0,2.921142279,0.0,0.0,-0.5099999904632568,89.38999938964844,89.48999786376953,1.0010986328125,-0.0101318359375,-0.00262451171875,35.029998779296875,0.0,-1.0,-0.073486328125,0.0605621337890625,Waiting,0.0,0.0,-396138.0,0.0,0.0,0.0,0.0,0.0,
6.532672999999952,0.0,0.0,20.0,0.0,0.0,0.0,0.0,0.125,3.8391109350000003,0.0,0.0,343.0,0.0,0.0,-0.0,0.0,0.0,2.0092771380000003,0.0,0.0,37.0,0.0,0.0,0.0,0.0,0.0,4.689940926,0.0,0.0,-53.0,0.0,0.0,-0.0,0.0,0.0,2.919921576,0.0,0.0,-0.5099999904632568,89.38999938964844,89.48999786376953,1.0029296875,-0.01104736328125,-0.00732421875,35.029998779296875,0.0,-1.0,-0.073486328125,0.0605621337890625,Waiting,0.0,0.0,-396138.0,0.0,0.0,0.0,0.0,0.0,
6.71029700000002,0.0,0.0,20.0,0.0,0.0,0.0,0.0,0.125,3.8391109350000003,0.0,0.0,343.0,0.0,0.0,-0.0,0.0,0.0,2.0092771380000003,0.0,0.0,37.0,0.0,0.0,0.0,0.0,0.0,4.691161629000001,0.0,0.0,-53.0,0.0,0.0,-0.0,0.0,0.0,2.921142279,0.0,0.0,-0.5099999904632568,89.4000015258789,89.48999786376953,1.00439453125,-0.00860595703125,-0.0040283203125,35.0,0.0,0.0,-0.073486328125,0.0605621337890625,Waiting,0.0,0.0,-396138.0,0.0,0.0,0.0,0.0,0.0,
6.877689000000013,0.0,0.0,20.0,0.0,0.0,0.0,0.0,0.125,3.8391109350000003,0.0,0.0,343.0,0.0,0.0,-0.0,0.0,0.0,2.0080564350000003,0.0,0.0,37.0,0.0,0.0,0.0,0.0,0.0,4.689940926,0.0,0.0,-53.0,0.0,0.0,-0.0,0.0,0.0,2.919921576,0.0,0.0,-0.5099999904632568,89.38999938964844,89.48999786376953,1.00115966796875,-0.00732421875,-0.00921630859375,35.0,0.0,1.0,-0.073486328125,0.0605621337890625,Waiting,0.0,0.0,-396138.0,0.0,0.0,0.0,0.0,0.0,
7.0556389999999665,0.0,0.0,20.0,0.0,0.0,0.0,0.0,0.125,3.8415523410000003,0.0,0.0,343.0,0.0,0.0,-0.0,0.0,0.0,2.0080564350000003,0.0,0.0,37.0,0.0,0.0,0.0,0.0,0.0,4.691161629000001,0.0,0.0,-53.0,0.0,0.0,-0.0,0.0,0.0,2.921142279,0.0,0.0,-0.5,89.4000015258789,89.5,1.0035400390625,-0.009765625,-0.0023193359375,35.0,0.0,0.0,-0.073486328125,0.0605621337890625,Waiting,0.0,0.0,-396138.0,0.0,0.0,0.0,0.0,0.0,
7.229854999999981,0.0,0.0,20.0,0.0,0.0,0.0,0.0,0.125,3.8391109350000003,0.0,0.0,343.0,0.0,0.0,-0.0,0.0,0.0,2.0092771380000003,0.0,0.0,37.0,0.0,0.0,0.0,0.0,0.0,4.692382332,0.0,0.0,-53.0,0.0,0.0,-0.0,0.0,0.0,2.921142279,0.0,0.0,-0.5,89.4000015258789,89.5,1.00396728515625,-0.0072021484375,-0.00738525390625,35.02000045776367,0.0,1.0,-0.073486328125,0.0605621337890625,Waiting,0.0,0.0,-396138.0,0.0,0.0,0.0,0.0,0.0,
7.408627000000095,0.0,0.0,20.0,0.0,0.0,0.0,0.0,0.125,3.8403316380000003,0.0,0.0,343.0,0.0,0.0,-0.0,0.0,0.0,2.0080564350000003,0.0,0.0,37.0,0.0,0.0,0.0,0.0,0.0,4.691161629000001,0.0,0.0,-53.0,0.0,0.0,-0.0,0.0,0.0,2.919921576,0.0,0.0,-0.5099999904632568,89.38999938964844,89.48999786376953,1.00244140625,-0.0084228515625,-0.00244140625,35.02000045776367,0.0,0.0,-0.073486328125,0.0605621337890625,Waiting,0.0,0.0,-396138.0,0.0,0.0,0.0,0.0,0.0,
7.581486000000034,0.0,0.0,20.0,0.0,0.0,0.0,0.0,0.125,3.8378902320000003,0.0,0.0,343.0,0.0,0.0,-0.0,0.0,0.0,1.9970701080000002,0.0,0.0,37.0,0.0,0.0,0.0,0.0,0.0,4.692382332,0.0,0.0,-53.0,0.0,0.0,-0.0,0.0,0.0,2.921142279,0.0,0.0,-0.5,89.4000015258789,89.5,1.0059814453125,-0.0059814453125,-0.00689697265625,35.02000045776367,0.0,2.0,-0.073486328125,0.0605621337890625,Waiting,0.0,0.0,-396138.0,0.0,0.0,0.0,0.0,0.0,
7.76252500000014,0.0,0.0,20.0,0.0,0.0,0.0,0.0,0.125,3.8391109350000003,0.0,0.0,343.0,0.0,0.0,-0.0,0.0,0.0,2.0080564350000003,0.0,0.0,37.0,0.0,0.0,0.0,0.0,0.0,4.691161629000001,0.0,0.0,-53.0,0.0,0.0,-0.0,0.0,0.0,2.919921576,0.0,0.0,-0.5,89.4000015258789,89.5,1.00341796875,-0.0087890625,-0.00897216796875,35.0,0.0,0.0,-0.073486328125,0.0605621337890625,Waiting,0.0,0.0,-396138.0,0.0,0.0,0.0,0.0,0.0,
7.9359550000000745,0.0,0.0,20.0,0.0,0.0,0.0,0.0,0.125,3.8391109350000003,0.0,0.0,343.0,0.0,0.0,-0.0,0.0,0.0,2.0080564350000003,0.0,0.0,37.0,0.0,0.0,0.0,0.0,0.0,4.691161629000001,0.0,0.0,-53.0,0.0,0.0,-0.0,0.0,0.0,2.921142279,0.0,0.0,-0.5099999904632568,89.38999938964844,89.48999786376953,1.00238037109375,-0.0087890625,-0.0064697265625,35.0,0.0,0.0,-0.073486328125,0.0605621337890625,Waiting,0.0,0.0,-396138.0,0.0,0.0,0.0,0.0,0.0,
8.113143000000157,0.0,0.0,20.0,0.0,0.0,0.0,0.0,0.125,3.8391109350000003,0.0,0.0,343.0,0.0,0.0,-0.0,0.0,0.0,2.0080564350000003,0.0,0.0,37.0,0.0,0.0,0.0,0.0,0.0,4.691161629000001,0.0,0.0,-53.0,0.0,0.0,-0.0,0.0,0.0,2.919921576,0.0,0.0,-0.5199999809265137,89.38999938964844,89.4800033569336,1.0009765625,-0.007080078125,-0.009521484375,35.0,0.0,2.0,-0.073486328125,0.0605621337890625,Waiting,0.0,0.0,-396138.0,0.0,0.0,0.0,0.0,0.0,
8.28793700000015,0.0,0.0,20.0,0.0,0.0,0.0,0.0,0.125,3.8403316380000003,0.0,0.0,343.0,0.0,0.0,-0.0,0.0,0.0,2.0092771380000003,0.0,0.0,37.0,0.0,0.0,0.0,0.0,0.0,4.689940926,0.0,0.0,-53.0,0.0,0.0,-0.0,0.0,0.0,2.919921576,0.0,0.0,-0.5199999809265137,89.38999938964844,89.4800033569336,1.003173828125,-0.0054931640625,-0.0086669921875,35.02000045776367,0.0,3.0,-0.073486328125,0.0605621337890625,Waiting,0.0,0.0,-396138.0,0.0,0.0,0.0,0.0,0.0,
8.46714599999995,0.0,0.0,20.0,0.0,0.0,0.0,0.0,0.125,3.8391109350000003,0.0,0.0,343.0,0.0,0.0,-0.0,0.0,0.0,2.0092771380000003,0.0,0.0,37.0,0.0,0.0,0.0,0.0,0.0,4.692382332,0.0,0.0,-53.0,0.0,0.0,-0.0,0.0,0.0,2.921142279,0.0,0.0,-0.5199999809265137,89.38999938964844,89.4800033569336,1.0040283203125,-0.00836181640625,-0.00830078125,35.02000045776367,0.0,0.0,-0.073486328125,0.0605621337890625,Waiting,0.0,0.0,-396138.0,0.0,0.0,0.0,0.0,0.0,
8.634658000000053,0.0,0.0,20.0,0.0,0.0,0.0,0.0,0.125,3.8378902320000003,0.0,0.0,343.0,0.0,0.0,-0.0,0.0,0.0,2.0092771380000003,0.0,0.0,37.0,0.0,0.0,0.0,0.0,0.0,4.691161629000001,0.0,0.0,-53.0,0.0,0.0,-0.0,0.0,0.0,2.921142279,0.0,0.0,-0.5199999809265137,89.38999938964844,89.4800033569336,1.00335693359375,-0.0103759765625,-0.00604248046875,35.02000045776367,0.0,-1.0,-0.073486328125,0.0605621337890625,Waiting,0.0,0.0,-396138.0,0.0,0.0,0.0,0.0,0.0,
8.811246999999973,0.0,0.0,20.0,0.0,0.0,0.0,0.0,0.125,3.8391109350000003,0.0,0.0,343.0,0.0,0.0,-0.0,0.0,0.0,2.0080564350000003,0.0,0.0,37.0,0.0,0.0,0.0,0.0,0.0,4.691161629000001,0.0,0.0,-53.0,0.0,0.0,-0.0,0.0,0.0,2.921142279,0.0,0.0,-0.5099999904632568,89.4000015258789,89.48999786376953,1.00433349609375,-0.00848388671875,-0.0030517578125,35.02000045776367,0.0,0.0,-0.073486328125,0.0605621337890625,Waiting,0.0,0.0,-396138.0,0.0,0.0,0.0,0.0,0.0,
8.988303000000073,0.0,0.0,20.0,0.0,0.0,0.0,0.0,0.125,3.8391109350000003,0.0,0.0,343.0,0.0,0.0,-0.0,0.0,0.0,2.0080564350000003,0.0,0.0,37.0,0.0,0.0,0.0,0.0,0.0,4.692382332,0.0,0.0,-53.0,0.0,0.0,-0.0,0.0,0.0,2.919921576,0.0,0.0,-0.5,89.4000015258789,89.5,0.998779296875,-0.01007080078125,-0.0042724609375,35.02000045776367,0.0,-1.0,-0.073486328125,0.0605621337890625,Waiting,0.0,0.0,-396138.0,0.0,0.0,0.0,0.0,0.0,
9.162299000000116,0.0,0.0,20.0,0.0,0.0,0.0,0.0,0.125,3.8391109350000003,0.0,0.0,343.0,0.0,0.0,-0.0,0.0,0.0,2.0092771380000003,0.0,0.0,37.0,0.0,0.0,0.0,0.0,0.0,4.689940926,0.0,0.0,-53.0,0.0,0.0,-0.0,0.0,0.0,2.921142279,0.0,0.0,-0.5,89.4000015258789,89.5,1.00006103515625,-0.00885009765625,-0.0018310546875,35.02000045776367,0.0,0.0,-0.073486328125,0.0605621337890625,Waiting,0.0,0.0,-396138.0,0.0,0.0,0.0,0.0,0.0,
9.33544299999997,0.0,0.0,20.0,0.0,0.0,0.0,0.0,0.125,3.8391109350000003,0.0,0.0,343.0,0.0,0.0,-0.0,0.0,0.0,2.0080564350000003,0.0,0.0,37.0,0.0,0.0,0.0,0.0,0.0,4.691161629000001,0.0,0.0,-53.0,0.0,0.0,-0.0,0.0,0.0,2.921142279,0.0,0.0,-0.5099999904632568,89.4000015258789,89.48999786376953,1.00213623046875,-0.00994873046875,-0.00262451171875,35.0,0.0,0.0,-0.073486328125,0.0605621337890625,Waiting,0.0,0.0,-396138.0,0.0,0.0,0.0,0.0,0.0,
9.512035000000148,0.0,0.0,20.0,0.0,0.0,0.0,0.0,0.125,3.8391109350000003,0.0,0.0,343.0,0.0,0.0,-0.0,0.0,0.0,2.0080564350000003,0.0,0.0,37.0,0.0,0.0,0.0,0.0,0.0,4.691161629000001,0.0,0.0,-53.0,0.0,0.0,-0.0,0.0,0.0,2.919921576,0.0,0.0,-0.5099999904632568,89.4000015258789,89.48999786376953,1.00665283203125,-0.0096435546875,-0.0078125,35.0,0.0,0.0,-0.073486328125,0.0605621337890625,Waiting,0.0,0.0,-396138.0,0.0,0.0,0.0,0.0,0.0,
9.687881999999984,0.0,0.0,20.0,0.0,0.0,0.0,0.0,0.125,3.8391109350000003,0.0,0.0,343.0,0.0,0.0,-0.0,0.0,0.0,2.0080564350000003,0.0,0.0,37.0,0.0,0.0,0.0,0.0,0.0,4.691161629000001,0.0,0.0,-53.0,0.0,0.0,-0.0,0.0,0.0,2.919921576,0.0,0.0,-0.5099999904632568,89.4000015258789,89.48999786376953,1.00225830078125,-0.011474609375,-0.00390625,35.0,0.0,-2.0,-0.073486328125,0.0605621337890625,Waiting,0.0,0.0,-396138.0,0.0,0.0,0.0,0.0,0.0,
9.860952000000049,0.0,0.0,20.0,0.0,0.0,0.0,0.0,0.125,3.8391109350000003,0.0,0.0,343.0,0.0,0.0,-0.0,0.0,0.0,2.0092771380000003,0.0,0.0,37.0,0.0,0.0,0.0,0.0,0.0,4.692382332,0.0,0.0,-53.0,0.0,0.0,-0.0,0.0,0.0,2.919921576,0.0,0.0,-0.5099999904632568,89.4000015258789,89.48999786376953,1.003662109375,-0.00689697265625,-0.004150390625,35.0,0.0,2.0,-0.073486328125,0.0605621337890625,Waiting,0.0,0.0,-396138.0,0.0,0.0,0.0,0.0,0.0,
10.032550000000047,0.0,0.0,20.0,0.0,0.0,0.0,0.0,0.125,3.8391109350000003,0.0,0.0,343.0,0.0,0.0,-0.0,0.0,0.0,2.0092771380000003,0.0,0.0,37.0,0.0,0.0,0.0,0.0,0.0,4.689940926,0.0,0.0,-53.0,0.0,0.0,-0.0,0.0,0.0,2.919921576,0.0,0.0,-0.5099999904632568,89.4000015258789,89.48999786376953,1.00225830078125,-0.00830078125,-0.00146484375,35.0,0.0,0.0,-0.073486328125,0.0605621337890625,Waiting,0.0,0.0,-396138.0,0.0,0.0,0.0,0.0,0.0,
10.211361999999964,0.0,0.0,20.0,0.0,0.0,0.0,0.0,0.125,3.8391109350000003,0.0,0.0,343.0,0.0,0.0,-0.0,0.0,0.0,2.0080564350000003,0.0,0.0,37.0,0.0,0.0,0.0,0.0,0.0,4.692382332,0.0,0.0,-53.0,0.0,0.0,-0.0,0.0,0.0,2.921142279,0.0,0.0,-0.5099999904632568,89.4000015258789,89.48999786376953,1.00384521484375,-0.0062255859375,-0.00335693359375,35.0,0.0,2.0,-0.073486328125,0.0605621337890625,Waiting,0.0,0.0,-396138.0,0.0,0.0,0.0,0.0,0.0,
10.390299000000116,0.0,0.0,20.0,0.0,0.0,0.0,0.0,0.125,3.8391109350000003,0.0,0.0,343.0,0.0,0.0,-0.0,0.0,0.0,2.0080564350000003,0.0,0.0,37.0,0.0,0.0,0.0,0.0,0.0,4.691161629000001,0.0,0.0,-53.0,0.0,0.0,-0.0,0.0,0.0,2.921142279,0.0,0.0,-0.5099999904632568,89.4000015258789,89.48999786376953,1.00250244140625,-0.00726318359375,-0.00494384765625,35.0,0.0,1.0,-0.073486328125,0.0605621337890625,Waiting,0.0,0.0,-396138.0,0.0,0.0,0.0,0.0,0.0,
10.566439999999945,0.0,0.0,20.0,0.0,0.0,0.0,0.0,0.125,3.8391109350000003,0.0,0.0,343.0,0.0,0.0,-0.0,0.0,0.0,2.0080564350000003,0.0,0.0,37.0,0.0,0.0,0.0,0.0,0.0,4.689940926,0.0,0.0,-53.0,0.0,0.0,-0.0,0.0,0.0,2.921142279,0.0,0.0,-0.5099999904632568,89.4000015258789,89.48999786376953,1.00274658203125,-0.0048828125,-0.00762939453125,35.0,0.0,4.0,-0.073486328125,0.0605621337890625,Waiting,0.0,0.0,-396138.0,0.0,0.0,0.0,0.0,0.0,
10.736272000000113,0.0,0.0,20.0,0.0,0.0,0.0,0.0,0.125,3.8391109350000003,0.0,0.0,343.0,0.0,0.0,-0.0,0.0,0.0,2.0080564350000003,0.0,0.0,37.0,0.0,0.0,0.0,0.0,0.0,4.691161629000001,0.0,0.0,-53.0,0.0,0.0,-0.0,0.0,0.0,2.919921576,0.0,0.0,-0.5099999904632568,89.4000015258789,89.48999786376953,1.00146484375,-0.009033203125,-0.00616455078125,35.0,0.0,0.0,-0.073486328125,0.0605621337890625,Waiting,0.0,0.0,-396138.0,0.0,0.0,0.0,0.0,0.0,
10.912435000000055,0.0,0.0,20.0,0.0,0.0,0.0,0.0,0.125,3.8391109350000003,0.0,0.0,343.0,0.0,0.0,-0.0,0.0,0.0,2.0080564350000003,0.0,0.0,37.0,0.0,0.0,0.0,0.0,0.0,4.689940926,0.0,0.0,-53.0,0.0,0.0,-0.0,0.0,0.0,2.919921576,0.0,0.0,-0.5099999904632568,89.4000015258789,89.48999786376953,1.00213623046875,-0.00885009765625,-0.00439453125,35.0,0.0,0.0,-0.073486328125,0.0605621337890625,Waiting,0.0,0.0,-396138.0,0.0,0.0,0.0,0.0,0.0,
11.09004700000002,0.0,0.0,20.0,0.0,0.0,0.0,0.0,0.125,3.8391109350000003,0.0,0.0,343.0,0.0,0.0,-0.0,0.0,0.0,2.0092771380000003,0.0,0.0,37.0,0.0,0.0,0.0,0.0,0.0,4.691161629000001,0.0,0.0,-53.0,0.0,0.0,-0.0,0.0,0.0,2.919921576,0.0,0.0,-0.5099999904632568,89.4000015258789,89.48999786376953,1.0028076171875,-0.00750732421875,-0.00787353515625,35.0,0.0,1.0,-0.073486328125,0.0605621337890625,Waiting,0.0,0.0,-396138.0,0.0,0.0,0.0,0.0,0.0,
11.263199999999953,0.0,0.0,20.0,0.0,0.0,0.0,0.0,0.125,3.8378902320000003,0.0,0.0,343.0,0.0,0.0,-0.0,0.0,0.0,2.0080564350000003,0.0,0.0,37.0,0.0,0.0,0.0,0.0,0.0,4.685058114,0.0,0.0,-53.0,0.0,0.0,-0.0,0.0,0.0,2.919921576,0.0,0.0,-0.5,89.41000366210938,89.48999786376953,1.00457763671875,-0.0108642578125,-6.103515625E-4,35.029998779296875,0.0,-2.0,-0.073486328125,0.0605621337890625,Waiting,0.0,0.0,-396138.0,0.0,0.0,0.0,0.0,0.0,
11.449008000000147,0.0,0.0,20.0,0.0,0.0,0.0,0.0,0.125,3.8391109350000003,0.0,0.0,343.0,0.0,0.0,-0.0,0.0,0.0,2.0080564350000003,0.0,0.0,37.0,0.0,0.0,0.0,0.0,0.0,4.691161629000001,0.0,0.0,-53.0,0.0,0.0,-0.0,0.0,0.0,2.919921576,0.0,0.0,-0.5,89.41000366210938,89.5,1.0050048828125,-0.00921630859375,-0.00823974609375,35.029998779296875,0.0,0.0,-0.073486328125,0.0605621337890625,Waiting,0.0,0.0,-396138.0,0.0,0.0,0.0,0.0,0.0,
11.630935999999988,0.0,0.0,20.0,0.0,0.0,0.0,0.0,0.125,3.8378902320000003,0.0,0.0,343.0,0.0,0.0,-0.0,0.0,0.0,2.0092771380000003,0.0,0.0,37.0,0.0,0.0,0.0,0.0,0.0,4.691161629000001,0.0,0.0,-53.0,0.0,0.0,-0.0,0.0,0.0,2.919921576,0.0,0.0,-0.5,89.41000366210938,89.5,1.00579833984375,-0.00732421875,-0.0081787109375,35.029998779296875,0.0,1.0,-0.073486328125,0.0605621337890625,Waiting,0.0,0.0,-396138.0,0.0,0.0,0.0,0.0,0.0,
11.816826000000118,0.0,0.0,20.0,0.0,0.0,0.0,0.0,0.125,3.8391109350000003,0.0,0.0,343.0,0.0,0.0,-0.0,0.0,0.0,2.0092771380000003,0.0,0.0,37.0,0.0,0.0,0.0,0.0,0.0,4.694823738,0.0,0.0,-53.0,0.0,0.0,-0.0,0.0,0.0,2.921142279,0.0,0.0,-0.5,89.41000366210938,89.5,1.00457763671875,-0.008544921875,-0.00421142578125,35.0099983215332,0.0,0.0,-0.073486328125,0.0605621337890625,Waiting,0.0,0.0,-396138.0,0.0,0.0,0.0,0.0,0.0,
12.003993999999947,0.0,0.0,20.0,0.0,0.0,0.0,0.0,0.125,3.8391109350000003,0.0,0.0,343.0,0.0,0.0,-0.0,0.0,0.0,2.00195292,0.0,0.0,37.0,0.0,0.0,0.0,0.0,0.0,4.691161629000001,0.0,0.0,-53.0,0.0,0.0,-0.0,0.0,0.0,2.919921576,0.0,0.0,-0.5,89.41000366210938,89.5,1.00152587890625,-0.0074462890625,-0.00518798828125,35.0099983215332,0.0,1.0,-0.073486328125,0.0605621337890625,Waiting,0.0,0.0,-396138.0,0.0,0.0,0.0,0.0,0.0,
12.188169999999925,0.0,0.0,20.0,0.0,0.0,0.0,0.0,0.125,3.8378902320000003,0.0,0.0,343.0,0.0,0.0,-0.0,0.0,0.0,2.0080564350000003,0.0,0.0,37.0,0.0,0.0,0.0,0.0,0.0,4.691161629000001,0.0,0.0,-53.0,0.0,0.0,-0.0,0.0,0.0,2.919921576,0.0,0.0,-0.5,89.41000366210938,89.48999786376953,1.00408935546875,-0.010498046875,-0.003662109375,35.0099983215332,0.0,-1.0,-0.073486328125,0.0605621337890625,Waiting,0.0,0.0,-396138.0,0.0,0.0,0.0,0.0,0.0,
12.374377000000095,0.0,0.0,20.0,0.0,0.0,0.0,0.0,0.125,3.8391109350000003,0.0,0.0,343.0,0.0,0.0,-0.0,0.0,0.0,2.0080564350000003,0.0,0.0,37.0,0.0,0.0,0.0,0.0,0.0,4.691161629000001,0.0,0.0,-53.0,0.0,0.0,-0.0,0.0,0.0,2.921142279,0.0,0.0,-0.5099999904632568,89.4000015258789,89.48999786376953,1.0074462890625,-0.01019287109375,-0.00616455078125,34.970001220703125,0.0,-1.0,-0.073486328125,0.0605621337890625,Waiting,0.0,0.0,-396138.0,0.0,0.0,0.0,0.0,0.0,
12.564212999999988,0.0,0.0,20.0,0.0,0.0,0.0,0.0,0.125,3.8391109350000003,0.0,0.0,343.0,0.0,0.0,-0.0,0.0,0.0,2.0068357320000003,0.0,0.0,37.0,0.0,0.0,0.0,0.0,0.0,4.691161629000001,0.0,0.0,-53.0,0.0,0.0,-0.0,0.0,0.0,2.927245794,0.0,0.0,-0.5099999904632568,89.4000015258789,89.48999786376953,1.0008544921875,-0.0096435546875,-0.00482177734375,34.970001220703125,0.0,0.0,-0.073486328125,0.0605621337890625,Waiting,0.0,0.0,-396138.0,0.0,0.0,0.0,0.0,0.0,
12.75362400000007,0.0,0.0,20.0,0.0,0.0,0.0,0.0,0.125,3.8378902320000003,0.0,0.0,343.0,0.0,0.0,-0.0,0.0,0.0,2.0092771380000003,0.0,0.0,37.0,0.0,0.0,0.0,0.0,0.0,4.691161629000001,0.0,0.0,-53.0,0.0,0.0,-0.0,0.0,0.0,2.921142279,0.0,0.0,-0.5199999809265137,89.4000015258789,89.48999786376953,1.0030517578125,-0.009033203125,-9.1552734375E-4,35.02000045776367,0.0,0.0,-0.073486328125,0.0605621337890625,Waiting,0.0,0.0,-396138.0,0.0,0.0,0.0,0.0,0.0,
12.94730700000003,0.0,0.0,20.0,0.0,0.0,0.0,0.0,0.125,3.8378902320000003,0.0,0.0,343.0,0.0,0.0,-0.0,0.0,0.0,2.0080564350000003,0.0,0.0,37.0,0.0,0.0,0.0,0.0,0.0,4.691161629000001,0.0,0.0,-53.0,0.0,0.0,-0.0,0.0,0.0,2.921142279,0.0,0.0,-0.5099999904632568,89.4000015258789,89.48999786376953,1.0052490234375,-0.009521484375,-0.0059814453125,35.02000045776367,0.0,0.0,-0.073486328125,0.0605621337890625,Waiting,0.0,0.0,-396138.0,0.0,0.0,0.0,0.0,0.0,
13.130621999999974,0.0,0.0,20.0,0.0,0.0,0.0,0.0,0.125,3.8378902320000003,0.0,0.0,343.0,0.0,0.0,-0.0,0.0,0.0,2.0092771380000003,0.0,0.0,37.0,0.0,0.0,0.0,0.0,0.0,4.691161629000001,0.0,0.0,-53.0,0.0,0.0,-0.0,0.0,0.0,2.921142279,0.0,0.0,-0.5099999904632568,89.4000015258789,89.48999786376953,1.00274658203125,-0.0086669921875,-0.00830078125,35.02000045776367,0.0,0.0,-0.073486328125,0.0605621337890625,Waiting,0.0,0.0,-396138.0,0.0,0.0,0.0,0.0,0.0,
13.303148000000045,0.0,0.0,20.0,0.0,0.0,0.0,0.0,0.125,3.8378902320000003,0.0,0.0,343.0,0.0,0.0,-0.0,0.0,0.0,2.0092771380000003,0.0,0.0,37.0,0.0,0.0,0.0,0.0,0.0,4.692382332,0.0,0.0,-53.0,0.0,0.0,-0.0,0.0,0.0,2.921142279,0.0,0.0,-0.5199999809265137,89.38999938964844,89.4800033569336,1.0010986328125,-0.01190185546875,-0.00677490234375,34.9900016784668,0.0,-2.0,-0.073486328125,0.0605621337890625,Waiting,0.0,0.0,-396138.0,0.0,0.0,0.0,0.0,0.0,
13.475216000000016,0.0,0.0,20.0,0.0,0.0,0.0,0.0,0.125,3.8378902320000003,0.0,0.0,343.0,0.0,0.0,-0.0,0.0,0.0,2.0092771380000003,0.0,0.0,37.0,0.0,0.0,0.0,0.0,0.0,4.689940926,0.0,0.0,-53.0,0.0,0.0,-0.0,0.0,0.0,2.912597358,0.0,0.0,-0.5199999809265137,89.38999938964844,89.4800033569336,1.0064697265625,-0.00836181640625,-0.00677490234375,34.9900016784668,0.0,0.0,-0.073486328125,0.0605621337890625,Waiting,0.0,0.0,-396138.0,0.0,0.0,0.0,0.0,0.0,
13.651675000000047,0.0,0.0,20.0,0.0,0.0,0.0,0.0,0.125,3.8391109350000003,0.0,0.0,343.0,0.0,0.0,-0.0,0.0,0.0,2.0092771380000003,0.0,0.0,37.0,0.0,0.0,0.0,0.0,0.0,4.692382332,0.0,0.0,-53.0,0.0,0.0,-0.0,0.0,0.0,2.919921576,0.0,0.0,-0.5199999809265137,89.38999938964844,89.4800033569336,1.005126953125,-0.006591796875,-0.0035400390625,34.9900016784668,0.0,2.0,-0.073486328125,0.0605621337890625,Waiting,0.0,0.0,-396138.0,0.0,0.0,0.0,0.0,0.0,
13.82103600000008,0.0,0.0,20.0,0.0,0.0,0.0,0.0,0.125,3.8378902320000003,0.0,0.0,343.0,0.0,0.0,-0.0,0.0,0.0,2.0080564350000003,0.0,0.0,37.0,0.0,0.0,0.0,0.0,0.0,4.692382332,0.0,0.0,-53.0,0.0,0.0,-0.0,0.0,0.0,2.919921576,0.0,0.0,-0.5099999904632568,89.38999938964844,89.48999786376953,1.00347900390625,-0.00518798828125,-0.00689697265625,34.97999954223633,0.0,3.0,-0.073486328125,0.0605621337890625,Waiting,0.0,0.0,-396138.0,0.0,0.0,0.0,0.0,0.0,
13.997016999999992,0.0,0.0,20.0,0.0,0.0,0.0,0.0,0.125,3.8391109350000003,0.0,0.0,343.0,0.0,0.0,-0.0,0.0,0.0,2.0080564350000003,0.0,0.0,37.0,0.0,0.0,0.0,0.0,0.0,4.691161629000001,0.0,0.0,-53.0,0.0,0.0,-0.0,0.0,0.0,2.919921576,0.0,0.0,-0.5099999904632568,89.38999938964844,89.4800033569336,1.0042724609375,-0.0089111328125,-0.0064697265625,34.97999954223633,0.0,0.0,-0.073486328125,0.0605621337890625,Waiting,0.0,0.0,-396138.0,0.0,0.0,0.0,0.0,0.0,
14.172039000000106,0.0,0.0,20.0,0.0,0.0,0.0,0.0,0.125,3.8378902320000003,0.0,0.0,343.0,0.0,0.0,-0.0,0.0,0.0,2.0080564350000003,0.0,0.0,37.0,0.0,0.0,0.0,0.0,0.0,4.691161629000001,0.0,0.0,-53.0,0.0,0.0,-0.0,0.0,0.0,2.918700873,0.0,0.0,-0.5199999809265137,89.37999725341797,89.4800033569336,1.002685546875,-0.0113525390625,-0.00714111328125,34.97999954223633,0.0,-2.0,-0.073486328125,0.0605621337890625,Waiting,0.0,0.0,-396138.0,0.0,0.0,0.0,0.0,0.0,
14.347643000000156,0.0,0.0,20.0,0.0,0.0,0.0,0.0,0.125,3.8378902320000003,0.0,0.0,343.0,0.0,0.0,-0.0,0.0,0.0,2.0092771380000003,0.0,0.0,37.0,0.0,0.0,0.0,0.0,0.0,4.689940926,0.0,0.0,-53.0,0.0,0.0,-0.0,0.0,0.0,2.921142279,0.0,0.0,-0.5199999809265137,89.38999938964844,89.48999786376953,1.002197265625,-0.00799560546875,-0.006103515625,35.0,0.0,1.0,-0.073486328125,0.0605621337890625,Waiting,0.0,0.0,-396138.0,0.0,0.0,0.0,0.0,0.0,
14.523518000000156,0.0,0.0,20.0,0.0,0.0,0.0,0.0,0.125,3.8378902320000003,0.0,0.0,343.0,0.0,0.0,-0.0,0.0,0.0,2.0080564350000003,0.0,0.0,37.0,0.0,0.0,0.0,0.0,0.0,4.692382332,0.0,0.0,-53.0,0.0,0.0,-0.0,0.0,0.0,2.919921576,0.0,0.0,-0.5199999809265137,89.37999725341797,89.4800033569336,1.0047607421875,-0.0081787109375,-0.0042724609375,35.0,0.0,0.0,-0.073486328125,0.0605621337890625,Waiting,0.0,0.0,-396138.0,0.0,0.0,0.0,0.0,0.0,
14.691902000000002,0.0,0.0,20.0,0.0,0.0,0.0,0.0,0.125,3.8391109350000003,0.0,0.0,343.0,0.0,0.0,-0.0,0.0,0.0,2.0092771380000003,0.0,0.0,37.0,0.0,0.0,0.0,0.0,0.0,4.691161629000001,0.0,0.0,-53.0,0.0,0.0,-0.0,0.0,0.0,2.921142279,0.0,0.0,-0.5199999809265137,89.37999725341797,89.48999786376953,1.0030517578125,-0.010498046875,-0.00567626953125,35.0,0.0,-1.0,-0.073486328125,0.0605621337890625,Waiting,0.0,0.0,-396138.0,0.0,0.0,0.0,0.0,0.0,
14.867208000000101,0.0,0.0,20.0,0.0,0.0,0.0,0.0,0.125,3.8391109350000003,0.0,0.0,343.0,0.0,0.0,-0.0,0.0,0.0,2.0080564350000003,0.0,0.0,37.0,0.0,0.0,0.0,0.0,0.0,4.692382332,0.0,0.0,-53.0,0.0,0.0,-0.0,0.0,0.0,2.921142279,0.0,0.0,-0.5199999809265137,89.37999725341797,89.4800033569336,1.003173828125,-0.0093994140625,-0.0072021484375,35.0,0.0,0.0,-0.073486328125,0.0605621337890625,Waiting,0.0,0.0,-396138.0,0.0,0.0,0.0,0.0,0.0,
15.039773999999976,0.0,0.0,20.0,0.0,0.0,0.0,0.0,0.125,3.8391109350000003,0.0,0.0,343.0,0.0,0.0,-0.0,0.0,0.0,2.0080564350000003,0.0,0.0,37.0,0.0,0.0,0.0,0.0,0.0,4.691161629000001,0.0,0.0,-53.0,0.0,0.0,-0.0,0.0,0.0,2.921142279,0.0,0.0,-0.5199999809265137,89.37999725341797,89.4800033569336,1.00408935546875,-0.0087890625,-0.00360107421875,35.0,0.0,0.0,-0.073486328125,0.0605621337890625,Waiting,0.0,0.0,-396138.0,0.0,0.0,0.0,0.0,0.0,
15.220256999999982,0.0,0.0,20.0,0.0,0.0,0.0,0.0,0.125,3.8403316380000003,0.0,0.0,343.0,0.0,0.0,-0.0,0.0,0.0,2.0092771380000003,0.0,0.0,37.0,0.0,0.0,0.0,0.0,0.0,4.692382332,0.0,0.0,-53.0,0.0,0.0,-0.0,0.0,0.0,2.919921576,0.0,0.0,-0.5199999809265137,89.37999725341797,89.4800033569336,1.00164794921875,-0.0072021484375,-0.00152587890625,35.0,0.0,1.0,-0.073486328125,0.0605621337890625,Waiting,0.0,0.0,-396138.0,0.0,0.0,0.0,0.0,0.0,
15.399344999999972,0.0,0.0,20.0,0.0,0.0,0.0,0.0,0.125,3.8452144500000003,0.0,0.0,343.0,0.0,0.0,-0.0,0.0,0.0,2.0092771380000003,0.0,0.0,37.0,0.0,0.0,0.0,0.0,0.0,4.691161629000001,0.0,0.0,-53.0,0.0,0.0,-0.0,0.0,0.0,2.919921576,0.0,0.0,-0.5099999904632568,89.38999938964844,89.48999786376953,1.00469970703125,-0.00799560546875,-0.00372314453125,35.0099983215332,0.0,0.0,-0.073486328125,0.0605621337890625,Waiting,0.0,0.0,-396138.0,0.0,0.0,0.0,0.0,0.0,
15.578019000000088,0.0,0.0,20.0,0.0,0.0,0.0,0.0,0.125,3.8391109350000003,0.0,0.0,343.0,0.0,0.0,-0.0,0.0,0.0,2.0092771380000003,0.0,0.0,37.0,0.0,0.0,0.0,0.0,0.0,4.692382332,0.0,0.0,-53.0,0.0,0.0,-0.0,0.0,0.0,2.919921576,0.0,0.0,-0.5099999904632568,89.38999938964844,89.48999786376953,1.0028076171875,-0.00872802734375,-0.0048828125,35.0099983215332,0.0,0.0,-0.073486328125,0.0605621337890625,Waiting,0.0,0.0,-396138.0,0.0,0.0,0.0,0.0,0.0,
15.7515,0.0,0.0,20.0,0.0,0.0,0.0,0.0,0.125,3.8391109350000003,0.0,0.0,343.0,0.0,0.0,-0.0,0.0,0.0,2.0166013560000002,0.0,0.0,37.0,0.0,0.0,0.0,0.0,0.0,4.691161629000001,0.0,0.0,-53.0,0.0,0.0,-0.0,0.0,0.0,2.921142279,0.0,0.0,-0.5099999904632568,89.4000015258789,89.48999786376953,1.00213623046875,-0.00958251953125,-0.00604248046875,35.0099983215332,0.0,0.0,-0.073486328125,0.0605621337890625,Waiting,0.0,0.0,-396138.0,0.0,0.0,0.0,0.0,0.0,
15.9280560000001,0.0,0.0,20.0,0.0,0.0,0.0,0.0,0.125,3.8391109350000003,0.0,0.0,343.0,0.0,0.0,-0.0,0.0,0.0,2.0080564350000003,0.0,0.0,37.0,0.0,0.0,0.0,0.0,0.0,4.692382332,0.0,0.0,-53.0,0.0,0.0,-0.0,0.0,0.0,2.919921576,0.0,0.0,-0.5099999904632568,89.4000015258789,89.48999786376953,1.00341796875,-0.0087890625,-0.006591796875,35.0099983215332,0.0,0.0,-0.073486328125,0.0605621337890625,Waiting,0.0,0.0,-396138.0,0.0,0.0,0.0,0.0,0.0,
16.093773000000045,0.0,0.0,20.0,0.0,0.0,0.0,0.0,0.125,3.8391109350000003,0.0,0.0,343.0,0.0,0.0,-0.0,0.0,0.0,2.0080564350000003,0.0,0.0,37.0,0.0,0.0,0.0,0.0,0.0,4.689940926,0.0,0.0,-53.0,0.0,0.0,-0.0,0.0,0.0,2.919921576,0.0,0.0,-0.5099999904632568,89.38999938964844,89.48999786376953,0.999267578125,-0.00921630859375,-0.007080078125,35.0099983215332,0.0,0.0,-0.073486328125,0.0605621337890625,Waiting,0.0,0.0,-396138.0,0.0,0.0,0.0,0.0,0.0,
16.270547000000022,0.0,0.0,20.0,0.0,0.0,0.0,0.0,0.125,3.8391109350000003,0.0,0.0,343.0,0.0,0.0,-0.0,0.0,0.0,2.0092771380000003,0.0,0.0,37.0,0.0,0.0,0.0,0.0,0.0,4.691161629000001,0.0,0.0,-53.0,0.0,0.0,-0.0,0.0,0.0,2.919921576,0.0,0.0,-0.5199999809265137,89.38999938964844,89.4800033569336,1.00408935546875,-0.00994873046875,-0.01177978515625,35.0099983215332,0.0,0.0,-0.073486328125,0.0605621337890625,Waiting,0.0,0.0,-396138.0,0.0,0.0,0.0,0.0,0.0,
16.44355700000003,0.0,0.0,20.0,0.0,0.0,0.0,0.0,0.125,3.8391109350000003,0.0,0.0,343.0,0.0,0.0,-0.0,0.0,0.0,2.0080564350000003,0.0,0.0,37.0,0.0,0.0,0.0,0.0,0.0,4.691161629000001,0.0,0.0,-53.0,0.0,0.0,-0.0,0.0,0.0,2.919921576,0.0,0.0,-0.5099999904632568,89.4000015258789,89.48999786376953,1.00616455078125,-0.00732421875,-0.0069580078125,35.040000915527344,0.0,1.0,-0.073486328125,0.0605621337890625,Waiting,0.0,0.0,-396138.0,0.0,0.0,0.0,0.0,0.0,
16.62309899999993,0.0,0.0,20.0,0.0,0.0,0.0,0.0,0.125,3.8378902320000003,0.0,0.0,343.0,0.0,0.0,-0.0,0.0,0.0,2.0080564350000003,0.0,0.0,37.0,0.0,0.0,0.0,0.0,0.0,4.691161629000001,0.0,0.0,-53.0,0.0,0.0,-0.0,0.0,0.0,2.921142279,0.0,0.0,-0.5099999904632568,89.4000015258789,89.5,1.0054931640625,-0.00933837890625,-0.00860595703125,35.040000915527344,0.0,0.0,-0.073486328125,0.0605621337890625,Waiting,0.0,0.0,-396138.0,0.0,0.0,0.0,0.0,0.0,
16.785550999999977,0.0,0.0,20.0,0.0,0.0,0.0,0.0,0.125,3.8403316380000003,0.0,0.0,343.0,0.0,0.0,-0.0,0.0,0.0,2.0080564350000003,0.0,0.0,37.0,0.0,0.0,0.0,0.0,0.0,4.689940926,0.0,0.0,-53.0,0.0,0.0,-0.0,0.0,0.0,2.9296872,0.0,0.0,-0.5099999904632568,89.4000015258789,89.48999786376953,1.00341796875,-0.0113525390625,-0.00579833984375,35.040000915527344,0.0,-2.0,-0.073486328125,0.0605621337890625,Waiting,0.0,0.0,-396138.0,0.0,0.0,0.0,0.0,0.0,
16.961006999999984,0.0,0.0,20.0,0.0,0.0,0.0,0.0,0.125,3.8391109350000003,0.0,0.0,343.0,0.0,0.0,-0.0,0.0,0.0,2.0080564350000003,0.0,0.0,37.0,0.0,0.0,0.0,0.0,0.0,4.691161629000001,0.0,0.0,-53.0,0.0,0.0,-0.0,0.0,0.0,2.921142279,0.0,0.0,-0.5099999904632568,89.4000015258789,89.48999786376953,1.001708984375,-0.00897216796875,-0.0037841796875,34.9900016784668,0.0,0.0,-0.073486328125,0.0605621337890625,Waiting,0.0,0.0,-396138.0,0.0,0.0,0.0,0.0,0.0,
17.135553000000073,0.0,0.0,20.0,0.0,0.0,0.0,0.0,0.125,3.8391109350000003,0.0,0.0,343.0,0.0,0.0,-0.0,0.0,0.0,2.0080564350000003,0.0,0.0,37.0,0.0,0.0,0.0,0.0,0.0,4.689940926,0.0,0.0,-53.0,0.0,0.0,-0.0,0.0,0.0,2.921142279,0.0,0.0,-0.5099999904632568,89.41000366210938,89.48999786376953,1.00238037109375,-0.008056640625,-0.0091552734375,34.9900016784668,0.0,1.0,-0.073486328125,0.0605621337890625,Waiting,0.0,0.0,-396138.0,0.0,0.0,0.0,0.0,0.0,
17.307846000000136,0.0,0.0,20.0,0.0,0.0,0.0,0.0,0.125,3.8391109350000003,0.0,0.0,343.0,0.0,0.0,-0.0,0.0,0.0,2.0117185440000003,0.0,0.0,37.0,0.0,0.0,0.0,0.0,0.0,4.692382332,0.0,0.0,-53.0,0.0,0.0,-0.0,0.0,0.0,2.921142279,0.0,0.0,-0.5,89.41000366210938,89.5,1.00274658203125,-0.0072021484375,-0.00482177734375,34.9900016784668,0.0,1.0,-0.073486328125,0.0605621337890625,Waiting,0.0,0.0,-396138.0,0.0,0.0,0.0,0.0,0.0,
17.478049000000116,0.0,0.0,20.0,0.0,0.0,0.0,0.0,0.125,3.8378902320000003,0.0,0.0,343.0,0.0,0.0,-0.0,0.0,0.0,2.0092771380000003,0.0,0.0,37.0,0.0,0.0,0.0,0.0,0.0,4.691161629000001,0.0,0.0,-53.0,0.0,0.0,-0.0,0.0,0.0,2.919921576,0.0,0.0,-0.5,89.41000366210938,89.5,1.00164794921875,-0.0067138671875,-0.00665283203125,35.0099983215332,0.0,2.0,-0.073486328125,0.0605621337890625,Waiting,0.0,0.0,-396138.0,0.0,0.0,0.0,0.0,0.0,
17.651594999999972,0.0,0.0,20.0,0.0,0.0,0.0,0.0,0.125,3.8391109350000003,0.0,0.0,343.0,0.0,0.0,-0.0,0.0,0.0,2.0092771380000003,0.0,0.0,37.0,0.0,0.0,0.0,0.0,0.0,4.692382332,0.0,0.0,-53.0,0.0,0.0,-0.0,0.0,0.0,2.919921576,0.0,0.0,-0.5,89.41000366210938,89.5,1.00506591796875,-0.00872802734375,-0.0035400390625,35.0099983215332,0.0,0.0,-0.073486328125,0.0605621337890625,Waiting,0.0,0.0,-396138.0,0.0,0.0,0.0,0.0,0.0,
17.833471000000134,0.0,0.0,20.0,0.0,0.0,0.0,0.0,0.125,3.8391109350000003,0.0,0.0,343.0,0.0,0.0,-0.0,0.0,0.0,2.0092771380000003,0.0,0.0,37.0,0.0,0.0,0.0,0.0,0.0,4.692382332,0.0,0.0,-53.0,0.0,0.0,-0.0,0.0,0.0,2.919921576,0.0,0.0,-0.5,89.41000366210938,89.48999786376953,1.00433349609375,-0.00848388671875,-0.00244140625,35.0099983215332,0.0,0.0,-0.073486328125,0.0605621337890625,Waiting,0.0,0.0,-396138.0,0.0,0.0,0.0,0.0,0.0,
18.008945999999995,0.0,0.0,20.0,0.0,0.0,0.0,0.0,0.125,3.8391109350000003,0.0,0.0,343.0,0.0,0.0,-0.0,0.0,0.0,2.0092771380000003,0.0,0.0,37.0,0.0,0.0,0.0,0.0,0.0,4.689940926,0.0,0.0,-53.0,0.0,0.0,-0.0,0.0,0.0,2.921142279,0.0,0.0,-0.5,89.41000366210938,89.5,1.004150390625,-0.01141357421875,-0.006103515625,35.029998779296875,0.0,-2.0,-0.073486328125,0.0605621337890625,Waiting,0.0,0.0,-396138.0,0.0,0.0,0.0,0.0,0.0,
18.182383000000147,0.0,0.0,20.0,0.0,0.0,0.0,0.0,0.125,3.8391109350000003,0.0,0.0,343.0,0.0,0.0,-0.0,0.0,0.0,2.0080564350000003,0.0,0.0,37.0,0.0,0.0,0.0,0.0,0.0,4.691161629000001,0.0,0.0,-53.0,0.0,0.0,-0.0,0.0,0.0,2.921142279,0.0,0.0,-0.5,89.41000366210938,89.5,1.0037841796875,-0.0107421875,-0.0074462890625,35.029998779296875,0.0,-1.0,-0.073486328125,0.0605621337890625,Waiting,0.0,0.0,-396138.0,0.0,0.0,0.0,0.0,0.0,
18.353821999999926,0.0,0.0,20.0,0.0,0.0,0.0,0.0,0.125,3.8391109350000003,0.0,0.0,343.0,0.0,0.0,-0.0,0.0,0.0,2.0092771380000003,0.0,0.0,37.0,0.0,0.0,0.0,0.0,0.0,4.692382332,0.0,0.0,-53.0,0.0,0.0,-0.0,0.0,0.0,2.921142279,0.0,0.0,-0.5,89.4000015258789,89.5,1.0025634765625,-0.00982666015625,-7.9345703125E-4,34.97999954223633,0.0,-1.0,-0.073486328125,0.0605621337890625,Waiting,0.0,0.0,-396138.0,0.0,0.0,0.0,0.0,0.0,
18.531459999999964,0.0,0.0,20.0,0.0,0.0,0.0,0.0,0.125,3.8391109350000003,0.0,0.0,343.0,0.0,0.0,-0.0,0.0,0.0,2.0080564350000003,0.0,0.0,37.0,0.0,0.0,0.0,0.0,0.0,4.691161629000001,0.0,0.0,-53.0,0.0,0.0,-0.0,0.0,0.0,2.921142279,0.0,0.0,-0.5,89.4000015258789,89.5,1.00201416015625,-0.0089111328125,-0.0091552734375,34.97999954223633,0.0,0.0,-0.073486328125,0.0605621337890625,Waiting,0.0,0.0,-396138.0,0.0,0.0,0.0,0.0,0.0,
18.698037999999944,0.0,0.0,20.0,0.0,0.0,0.0,0.0,0.125,3.8378902320000003,0.0,0.0,343.0,0.0,0.0,-0.0,0.0,0.0,2.0092771380000003,0.0,0.0,37.0,0.0,0.0,0.0,0.0,0.0,4.691161629000001,0.0,0.0,-53.0,0.0,0.0,-0.0,0.0,0.0,2.919921576,0.0,0.0,-0.49000000953674316,89.41000366210938,89.5,1.001953125,-0.00848388671875,-0.00360107421875,34.97999954223633,0.0,0.0,-0.073486328125,0.0605621337890625,Waiting,0.0,0.0,-396138.0,0.0,0.0,0.0,0.0,0.0,
18.88779799999995,0.0,0.0,20.0,0.0,0.0,0.0,0.0,0.125,3.8391109350000003,0.0,0.0,343.0,0.0,0.0,-0.0,0.0,0.0,2.0092771380000003,0.0,0.0,37.0,0.0,0.0,0.0,0.0,0.0,4.691161629000001,0.0,0.0,-53.0,0.0,0.0,-0.0,0.0,0.0,2.921142279,0.0,0.0,-0.49000000953674316,89.41000366210938,89.51000213623047,1.0023193359375,-0.01007080078125,-0.00653076171875,34.9900016784668,0.0,-1.0,-0.073486328125,0.0605621337890625,Waiting,0.0,0.0,-396138.0,0.0,0.0,0.0,0.0,0.0,
19.076096000000135,0.0,0.0,20.0,0.0,0.0,0.0,0.0,0.125,3.8378902320000003,0.0,0.0,343.0,0.0,0.0,-0.0,0.0,0.0,2.0080564350000003,0.0,0.0,37.0,0.0,0.0,0.0,0.0,0.0,4.691161629000001,0.0,0.0,-53.0,0.0,0.0,-0.0,0.0,0.0,2.918700873,0.0,0.0,-0.49000000953674316,89.41999816894531,89.51000213623047,1.0045166015625,-0.005615234375,-0.00555419921875,34.9900016784668,0.0,2.0,-0.073486328125,0.0605621337890625,Waiting,0.0,0.0,-396138.0,0.0,0.0,0.0,0.0,0.0,
19.25609400000004,0.0,0.0,20.0,0.0,0.0,0.0,0.0,0.125,3.8391109350000003,0.0,0.0,343.0,0.0,0.0,-0.0,0.0,0.0,2.0080564350000003,0.0,0.0,37.0,0.0,0.0,0.0,0.0,0.0,4.691161629000001,0.0,0.0,-53.0,0.0,0.0,-0.0,0.0,0.0,2.921142279,0.0,0.0,-0.49000000953674316,89.41999816894531,89.5199966430664,1.0054931640625,-0.00927734375,-0.00439453125,34.9900016784668,0.0,0.0,-0.073486328125,0.0605621337890625,Waiting,0.0,0.0,-396138.0,0.0,0.0,0.0,0.0,0.0,
19.445090000000082,0.0,0.0,20.0,0.0,0.0,0.0,0.0,0.125,3.8378902320000003,0.0,0.0,343.0,0.0,0.0,-0.0,0.0,0.0,2.0092771380000003,0.0,0.0,37.0,0.0,0.0,0.0,0.0,0.0,4.691161629000001,0.0,0.0,-53.0,0.0,0.0,-0.0,0.0,0.0,2.921142279,0.0,0.0,-0.49000000953674316,89.41999816894531,89.5199966430664,1.002197265625,-0.00762939453125,-0.00628662109375,35.0,0.0,1.0,-0.073486328125,0.0605621337890625,Waiting,0.0,0.0,-396138.0,0.0,0.0,0.0,0.0,0.0,
19.630992000000084,0.0,0.0,20.0,0.0,0.0,0.0,0.0,0.125,3.8403316380000003,0.0,0.0,343.0,0.0,0.0,-0.0,0.0,0.0,2.0092771380000003,0.0,0.0,37.0,0.0,0.0,0.0,0.0,0.0,4.692382332,0.0,0.0,-53.0,0.0,0.0,-0.0,0.0,0.0,2.919921576,0.0,0.0,-0.49000000953674316,89.41999816894531,89.51000213623047,1.0057373046875,-0.0079345703125,-0.0035400390625,35.0,0.0,0.0,-0.073486328125,0.0605621337890625,Waiting,0.0,0.0,-396138.0,0.0,0.0,0.0,0.0,0.0,
19.81327600000007,0.0,0.0,20.0,0.0,0.0,0.0,0.0,0.125,3.8378902320000003,0.0,0.0,343.0,0.0,0.0,-0.0,0.0,0.0,2.0080564350000003,0.0,0.0,37.0,0.0,0.0,0.0,0.0,0.0,4.691161629000001,0.0,0.0,-53.0,0.0,0.0,-0.0,0.0,0.0,2.919921576,0.0,0.0,-0.49000000953674316,89.41999816894531,89.51000213623047,1.0025634765625,-0.011474609375,7.9345703125E-4,35.0,0.0,-3.0,-0.073486328125,0.0605621337890625,Waiting,0.0,0.0,-396138.0,0.0,0.0,0.0,0.0,0.0,
20.00161800000002,0.0,0.0,20.0,0.0,0.0,0.0,0.0,0.125,3.8391109350000003,0.0,0.0,343.0,0.0,0.0,-0.0,0.0,0.0,2.0080564350000003,0.0,0.0,37.0,0.0,0.0,0.0,0.0,0.0,4.691161629000001,0.0,0.0,-53.0,0.0,0.0,-0.0,0.0,0.0,2.921142279,0.0,0.0,-0.49000000953674316,89.41000366210938,89.51000213623047,1.0054931640625,-0.0091552734375,-0.00689697265625,35.0099983215332,0.0,0.0,-0.073486328125,0.0605621337890625,Waiting,0.0,0.0,-396138.0,0.0,0.0,0.0,0.0,0.0,
20.188985000000102,0.0,0.0,20.0,0.0,0.0,0.0,0.0,0.125,3.8391109350000003,0.0,0.0,343.0,0.0,0.0,-0.0,0.0,0.0,2.0092771380000003,0.0,0.0,37.0,0.0,0.0,0.0,0.0,0.0,4.691161629000001,0.0,0.0,-53.0,0.0,0.0,-0.0,0.0,0.0,2.919921576,0.0,0.0,-0.49000000953674316,89.41000366210938,89.51000213623047,1.00335693359375,-0.0089111328125,-0.00689697265625,35.0099983215332,0.0,0.0,-0.073486328125,0.0605621337890625,Waiting,0.0,0.0,-396138.0,0.0,0.0,0.0,0.0,0.0,
20.380138999999968,0.0,0.0,20.0,0.0,0.0,0.0,0.0,0.125,3.8391109350000003,0.0,0.0,343.0,0.0,0.0,-0.0,0.0,0.0,2.0080564350000003,0.0,0.0,37.0,0.0,0.0,0.0,0.0,0.0,4.692382332,0.0,0.0,-53.0,0.0,0.0,-0.0,0.0,0.0,2.919921576,0.0,0.0,-0.49000000953674316,89.41999816894531,89.51000213623047,1.00701904296875,-0.007568359375,-0.00408935546875,35.0099983215332,0.0,1.0,-0.073486328125,0.0605621337890625,Waiting,0.0,0.0,-396138.0,0.0,0.0,0.0,0.0,0.0,
20.552518000000155,0.0,0.0,20.0,0.0,0.0,0.0,0.0,0.125,3.8378902320000003,0.0,0.0,343.0,0.0,0.0,-0.0,0.0,0.0,2.0080564350000003,0.0,0.0,37.0,0.0,0.0,0.0,0.0,0.0,4.691161629000001,0.0,0.0,-53.0,0.0,0.0,-0.0,0.0,0.0,2.921142279,0.0,0.0,-0.47999998927116394,89.41999816894531,89.51000213623047,1.00238037109375,-0.011474609375,-0.00848388671875,35.0,0.0,-2.0,-0.0733795166015625,0.0605621337890625,Waiting,0.0,0.0,-396138.0,0.0,0.0,0.0,0.0,0.0,
20.72786899999995,0.0,0.0,20.0,0.0,0.0,0.0,0.0,0.125,3.8427730440000003,0.0,0.0,343.0,0.0,0.0,-0.0,0.0,0.0,2.0080564350000003,0.0,0.0,37.0,0.0,0.0,0.0,0.0,0.0,4.691161629000001,0.0,0.0,-53.0,0.0,0.0,-0.0,0.0,0.0,2.919921576,0.0,0.0,-0.49000000953674316,89.41999816894531,89.51000213623047,1.00494384765625,-0.0084228515625,-0.00433349609375,35.0,0.0,0.0,-0.0733795166015625,0.0605621337890625,Waiting,0.0,0.0,-396138.0,0.0,0.0,0.0,0.0,0.0,
20.906266000000063,0.0,0.0,20.0,0.0,0.0,0.0,0.0,0.125,3.8391109350000003,0.0,0.0,343.0,0.0,0.0,-0.0,0.0,0.0,2.0080564350000003,0.0,0.0,37.0,0.0,0.0,0.0,0.0,0.0,4.692382332,0.0,0.0,-53.0,0.0,0.0,-0.0,0.0,0.0,2.919921576,0.0,0.0,-0.49000000953674316,89.41999816894531,89.51000213623047,1.003662109375,-0.010009765625,-0.009521484375,34.97999954223633,0.0,-1.0,-0.0733795166015625,0.0605621337890625,Waiting,0.0,0.0,-396138.0,0.0,0.0,0.0,0.0,0.0,
21.073040999999968,0.0,0.0,20.0,0.0,0.0,0.0,0.0,0.125,3.8391109350000003,0.0,0.0,343.0,0.0,0.0,-0.0,0.0,0.0,2.0056150290000003,0.0,0.0,37.0,0.0,0.0,0.0,0.0,0.0,4.691161629000001,0.0,0.0,-53.0,0.0,0.0,-0.0,0.0,0.0,2.921142279,0.0,0.0,-0.49000000953674316,89.41999816894531,89.51000213623047,1.0062255859375,-0.008056640625,-0.0067138671875,34.97999954223633,0.0,0.0,-0.0733795166015625,0.0605621337890625,Waiting,0.0,0.0,-396138.0,0.0,0.0,0.0,0.0,0.0,
21.247527,0.0,0.0,20.0,0.0,0.0,0.0,0.0,0.125,3.8391109350000003,0.0,0.0,343.0,0.0,0.0,-0.0,0.0,0.0,2.0153806530000002,0.0,0.0,37.0,0.0,0.0,0.0,0.0,0.0,4.691161629000001,0.0,0.0,-53.0,0.0,0.0,-0.0,0.0,0.0,2.919921576,0.0,0.0,-0.49000000953674316,89.41000366210938,89.51000213623047,1.00390625,-0.009521484375,-0.00701904296875,34.97999954223633,0.0,0.0,-0.0733795166015625,0.0605621337890625,Waiting,0.0,0.0,-396138.0,0.0,0.0,0.0,0.0,0.0,
21.41928799999994,0.0,0.0,20.0,0.0,0.0,0.0,0.0,0.125,3.8391109350000003,0.0,0.0,343.0,0.0,0.0,-0.0,0.0,0.0,2.0080564350000003,0.0,0.0,37.0,0.0,0.0,0.0,0.0,0.0,4.691161629000001,0.0,0.0,-53.0,0.0,0.0,-0.0,0.0,0.0,2.921142279,0.0,0.0,-0.49000000953674316,89.41999816894531,89.51000213623047,1.0023193359375,-0.00714111328125,-0.011474609375,35.0,0.0,1.0,-0.0733795166015625,0.0605621337890625,Waiting,0.0,0.0,-396138.0,0.0,0.0,0.0,0.0,0.0,
21.597743000000015,0.0,0.0,20.0,0.0,0.0,0.0,0.0,0.125,3.8342281230000004,0.0,0.0,343.0,0.0,0.0,-0.0,0.0,0.0,2.0080564350000003,0.0,0.0,37.0,0.0,0.0,0.0,0.0,0.0,4.691161629000001,0.0,0.0,-53.0,0.0,0.0,-0.0,0.0,0.0,2.921142279,0.0,0.0,-0.49000000953674316,89.41999816894531,89.51000213623047,1.0042724609375,-0.0089111328125,-0.00665283203125,35.0,0.0,0.0,-0.0733795166015625,0.0605621337890625,Waiting,0.0,0.0,-396138.0,0.0,0.0,0.0,0.0,0.0,
21.77139599999995,0.0,0.0,20.0,0.0,0.0,0.0,0.0,0.125,3.8391109350000003,0.0,0.0,343.0,0.0,0.0,-0.0,0.0,0.0,2.0080564350000003,0.0,0.0,37.0,0.0,0.0,0.0,0.0,0.0,4.691161629000001,0.0,0.0,-53.0,0.0,0.0,-0.0,0.0,0.0,2.921142279,0.0,0.0,-0.49000000953674316,89.41999816894531,89.5,1.00433349609375,-0.0087890625,-0.0035400390625,35.0,0.0,0.0,-0.0733795166015625,0.0605621337890625,Waiting,0.0,0.0,-396138.0,0.0,0.0,0.0,0.0,0.0,
21.94729799999995,0.0,0.0,20.0,0.0,0.0,0.0,0.0,0.125,3.8391109350000003,0.0,0.0,343.0,0.0,0.0,-0.0,0.0,0.0,2.0092771380000003,0.0,0.0,37.0,0.0,0.0,0.0,0.0,0.0,4.692382332,0.0,0.0,-53.0,0.0,0.0,-0.0,0.0,0.0,2.921142279,0.0,0.0,-0.49000000953674316,89.41999816894531,89.5,1.00238037109375,-0.010986328125,-0.0054931640625,34.9900016784668,0.0,-2.0,-0.0733795166015625,0.0605621337890625,Waiting,0.0,0.0,-396138.0,0.0,0.0,0.0,0.0,0.0,
22.11409899999993,0.0,0.0,20.0,0.0,0.0,0.0,0.0,0.125,3.8391109350000003,0.0,0.0,343.0,0.0,0.0,-0.0,0.0,0.0,2.0080564350000003,0.0,0.0,37.0,0.0,0.0,0.0,0.0,0.0,4.692382332,0.0,0.0,-53.0,0.0,0.0,-0.0,0.0,0.0,2.921142279,0.0,0.0,-0.49000000953674316,89.41999816894531,89.51000213623047,1.00213623046875,-0.009033203125,-0.00860595703125,34.9900016784668,0.0,0.0,-0.0733795166015625,0.0605621337890625,Waiting,0.0,0.0,-396138.0,0.0,0.0,0.0,0.0,0.0,
22.291476000000024,0.0,0.0,20.0,0.0,0.0,0.0,0.0,0.125,3.8391109350000003,0.0,0.0,343.0,0.0,0.0,-0.0,0.0,0.0,2.0080564350000003,0.0,0.0,37.0,0.0,0.0,0.0,0.0,0.0,4.691161629000001,0.0,0.0,-53.0,0.0,0.0,-0.0,0.0,0.0,2.921142279,0.0,0.0,-0.49000000953674316,89.41999816894531,89.51000213623047,1.00341796875,-0.00787353515625,-0.00164794921875,34.9900016784668,0.0,0.0,-0.0733795166015625,0.0605621337890625,Waiting,0.0,0.0,-396138.0,0.0,0.0,0.0,0.0,0.0,
22.463425000000047,0.0,0.0,20.0,0.0,0.0,0.0,0.0,0.125,3.8378902320000003,0.0,0.0,343.0,0.0,0.0,-0.0,0.0,0.0,2.0080564350000003,0.0,0.0,37.0,0.0,0.0,0.0,0.0,0.0,4.689940926,0.0,0.0,-53.0,0.0,0.0,-0.0,0.0,0.0,2.919921576,0.0,0.0,-0.49000000953674316,89.41000366210938,89.51000213623047,1.0037841796875,-0.0086669921875,-0.0108642578125,35.02000045776367,0.0,0.0,-0.0733795166015625,0.0605621337890625,Waiting,0.0,0.0,-396138.0,0.0,0.0,0.0,0.0,0.0,
22.64076099999994,0.0,0.0,20.0,0.0,0.0,0.0,0.0,0.125,3.8378902320000003,0.0,0.0,343.0,0.0,0.0,-0.0,0.0,0.0,2.0092771380000003,0.0,0.0,37.0,0.0,0.0,0.0,0.0,0.0,4.691161629000001,0.0,0.0,-53.0,0.0,0.0,-0.0,0.0,0.0,2.919921576,0.0,0.0,-0.49000000953674316,89.41000366210938,89.51000213623047,1.00482177734375,-0.01043701171875,-0.009033203125,35.02000045776367,0.0,-1.0,-0.0733795166015625,0.0605621337890625,Waiting,0.0,0.0,-396138.0,0.0,0.0,0.0,0.0,0.0,
22.816445999999996,0.0,0.0,20.0,0.0,0.0,0.0,0.0,0.125,3.8378902320000003,0.0,0.0,343.0,0.0,0.0,-0.0,0.0,0.0,2.0092771380000003,0.0,0.0,37.0,0.0,0.0,0.0,0.0,0.0,4.691161629000001,0.0,0.0,-53.0,0.0,0.0,-0.0,0.0,0.0,2.919921576,0.0,0.0,-0.49000000953674316,89.41000366210938,89.51000213623047,1.00164794921875,-0.00848388671875,-0.0079345703125,35.02000045776367,0.0,0.0,-0.0733795166015625,0.0605621337890625,Waiting,0.0,0.0,-396138.0,0.0,0.0,0.0,0.0,0.0,
22.99517200000002,0.0,0.0,20.0,0.0,0.0,0.0,0.0,0.125,3.8378902320000003,0.0,0.0,343.0,0.0,0.0,-0.0,0.0,0.0,2.0080564350000003,0.0,0.0,37.0,0.0,0.0,0.0,0.0,0.0,4.692382332,0.0,0.0,-53.0,0.0,0.0,-0.0,0.0,0.0,2.921142279,0.0,0.0,-0.49000000953674316,89.41000366210938,89.51000213623047,1.005126953125,-0.00762939453125,-0.00372314453125,34.970001220703125,0.0,1.0,-0.0733795166015625,0.0605621337890625,Waiting,0.0,0.0,-396138.0,0.0,0.0,0.0,0.0,0.0,
23.169310999999986,0.0,0.0,20.0,0.0,0.0,0.0,0.0,0.125,3.8403316380000003,0.0,0.0,343.0,0.0,0.0,-0.0,0.0,0.0,2.0068357320000003,0.0,0.0,37.0,0.0,0.0,0.0,0.0,0.0,4.692382332,0.0,0.0,-53.0,0.0,0.0,-0.0,0.0,0.0,2.921142279,0.0,0.0,-0.49000000953674316,89.41000366210938,89.51000213623047,1.00146484375,-0.0074462890625,-0.00628662109375,34.970001220703125,0.0,1.0,-0.0733795166015625,0.0605621337890625,Waiting,0.0,0.0,-396138.0,0.0,0.0,0.0,0.0,0.0,
23.34879200000013,0.0,0.0,20.0,0.0,0.0,0.0,0.0,0.125,3.8391109350000003,0.0,0.0,343.0,0.0,0.0,-0.0,0.0,0.0,2.0080564350000003,0.0,0.0,37.0,0.0,0.0,0.0,0.0,0.0,4.692382332,0.0,0.0,-53.0,0.0,0.0,-0.0,0.0,0.0,2.919921576,0.0,0.0,-0.49000000953674316,89.41000366210938,89.51000213623047,1.00128173828125,-0.00714111328125,-0.01116943359375,34.970001220703125,0.0,1.0,-0.0733795166015625,0.0605621337890625,Waiting,0.0,0.0,-396138.0,0.0,0.0,0.0,0.0,0.0,
23.516976999999955,0.0,0.0,20.0,0.0,0.0,0.0,0.0,0.125,3.8391109350000003,0.0,0.0,343.0,0.0,0.0,-0.0,0.0,0.0,2.0092771380000003,0.0,0.0,37.0,0.0,0.0,0.0,0.0,0.0,4.691161629000001,0.0,0.0,-53.0,0.0,0.0,-0.0,0.0,0.0,2.921142279,0.0,0.0,-0.49000000953674316,89.41000366210938,89.51000213623047,1.00439453125,-0.0081787109375,-0.0029296875,34.9900016784668,0.0,0.0,-0.0733795166015625,0.0605621337890625,Waiting,0.0,0.0,-396138.0,0.0,0.0,0.0,0.0,0.0,
23.695204000000142,0.0,0.0,20.0,0.0,0.0,0.0,0.0,0.125,3.8403316380000003,0.0,0.0,343.0,0.0,0.0,-0.0,0.0,0.0,2.0080564350000003,0.0,0.0,37.0,0.0,0.0,0.0,0.0,0.0,4.691161629000001,0.0,0.0,-53.0,0.0,0.0,-0.0,0.0,0.0,2.919921576,0.0,0.0,-0.5,89.41000366210938,89.51000213623047,1.00164794921875,-0.0120849609375,-0.004150390625,34.9900016784668,0.0,-3.0,-0.0733795166015625,0.0605621337890625,Waiting,0.0,0.0,-396138.0,0.0,0.0,0.0,0.0,0.0,
23.870282000000124,0.0,0.0,20.0,0.0,0.0,0.0,0.0,0.125,3.8403316380000003,0.0,0.0,343.0,0.0,0.0,-0.0,0.0,0.0,2.0092771380000003,0.0,0.0,37.0,0.0,0.0,0.0,0.0,0.0,4.689940926,0.0,0.0,-53.0,0.0,0.0,-0.0,0.0,0.0,2.921142279,0.0,0.0,-0.5099999904632568,89.4000015258789,89.5,1.003662109375,-0.01190185546875,-0.00360107421875,34.9900016784668,0.0,-2.0,-0.0733795166015625,0.0605621337890625,Waiting,0.0,0.0,-396138.0,0.0,0.0,0.0,0.0,0.0,
24.049966000000015,0.0,0.0,20.0,0.0,0.0,0.0,0.0,0.125,3.8378902320000003,0.0,0.0,343.0,0.0,0.0,-0.0,0.0,0.0,2.0080564350000003,0.0,0.0,37.0,0.0,0.0,0.0,0.0,0.0,4.691161629000001,0.0,0.0,-53.0,0.0,0.0,-0.0,0.0,0.0,2.919921576,0.0,0.0,-0.5,89.4000015258789,89.48999786376953,1.00164794921875,-0.01055908203125,-0.0035400390625,35.0099983215332,0.0,-1.0,-0.0733795166015625,0.0605621337890625,Waiting,0.0,0.0,-396138.0,0.0,0.0,0.0,0.0,0.0,
