Time,ClimberA1,ClimberA2,FRpos,FRCurrent,FRspeed,FRsetpoint,FRApos,FRACurrent,FREncpos,FREncSetpoint,FREncSpeed,FLpos,FLCurrent,FLspeed,FLsetpoint,FLApos,FLACurrent,FLEncpos,FLEncSetpoint,FLEncSpeed,BRpos,BRCurrent,BRspeed,BRsetpoint,BRApos,BRACurrent,BREncpos,BREncSetpoint,BREncSpeed,BLpos,BLCurrent,BLspeed,BLsetpoint,BLApos,BLACurrent,BLEncpos,BLEncSetpoint,BLEncSpeed,navx_Pitch,navx_Roll,navx_Yaw,navx_XAcc,navx_YAcc,navx_ZAcc,navx_Temp,navx_Bar,navx_Alt,navx_XDis,navx_YDis,GearPlacerState,ShootOutputV,ShootOutputCurrent,ShootEncPos,ShootEncVelocity,ShootSpeed,ShootSetpoint,CarouselSetpoint,CarouselCurrent,
0.23560000000000583,0.0,0.0,-87563.0,0.0,0.0,0.0,0.0,0.0,3.858642183,0.01,0.0,6010.0,0.0,0.0,0.0,0.0,0.0,1.979980266,0.01,0.0,49726.0,0.0,0.0,0.0,0.0,0.0,4.909667466,0.01,0.0,40133.0,0.0,0.0,0.0,0.0,0.0,2.916259467,0.01,0.0,0.8899999856948853,0.3700000047683716,0.0,0.00347900390625,0.01641845703125,0.999267578125,35.189998626708984,0.0,-3.0,-6.7770843505859375,-7.1715087890625,Waiting,0.0,0.0,-136640.0,0.0,0.0,0.0,0.0,0.0,
0.31642600000000676,0.0,0.0,-87563.0,0.0,0.0,0.0,0.0,0.0,3.858642183,0.0,0.0,6010.0,0.0,0.0,-0.0,0.0,0.0,1.978759563,0.0,0.007759563000000469,49726.0,0.0,0.0,0.0,0.0,0.0,4.908446763000001,0.0,0.017226060000000487,40133.0,0.0,0.0,-0.0,0.0,0.0,2.916259467,0.0,0.045038764000000064,0.8899999856948853,0.3700000047683716,0.0,0.00634765625,0.01416015625,1.00146484375,35.189998626708984,0.0,0.0,-6.7770843505859375,-7.1715087890625,Waiting,0.0,0.0,-136640.0,0.0,0.0,0.0,0.0,0.0,
0.3457860000000073,0.0,0.0,-87563.0,0.0,0.0,0.0,0.0,0.0,3.858642183,0.0,0.07742148000000038,6010.0,0.0,0.0,-0.0,0.0,0.0,1.978759563,0.0,0.007759563000000469,49726.0,0.0,0.0,0.0,0.0,0.0,4.906005357000001,0.0,0.017226060000000487,40133.0,0.0,0.0,-0.0,0.0,0.0,2.916259467,0.0,0.045038764000000064,0.8899999856948853,0.3700000047683716,0.0,0.00836181640625,0.01470947265625,1.0013427734375,35.220001220703125,0.0,1.0,-6.7770843505859375,-7.1715087890625,Waiting,0.0,0.0,-136640.0,0.0,0.0,0.0,0.0,0.0,
0.3691170000000129,0.0,0.0,-87563.0,0.0,0.0,0.0,0.0,0.125,3.858642183,0.0,0.07742148000000038,6010.0,0.0,0.0,-0.0,0.0,0.0,1.979980266,0.0,0.0,49726.0,0.0,0.0,0.0,0.0,0.0,4.908446763000001,0.0,0.0012207030000004337,40133.0,0.0,0.0,-0.0,0.0,0.0,2.915038764,0.0,0.0,0.8899999856948853,0.3700000047683716,0.0,0.00701904296875,0.0159912109375,0.99957275390625,35.220001220703125,0.0,0.0,-6.7770843505859375,-7.1715087890625,Waiting,0.0,0.0,-136640.0,0.0,0.0,0.0,0.0,0.0,
0.4031270000000077,0.0,0.0,-87563.0,0.0,0.0,0.0,0.0,0.125,3.85742148,0.0,0.0,6010.0,0.0,0.0,-0.0,0.0,0.0,1.978759563,0.0,0.0,49726.0,0.0,0.0,0.0,0.0,0.0,4.908446763000001,0.0,0.0012207030000004337,40133.0,0.0,0.0,-0.0,0.0,0.0,2.916259467,0.0,0.0,0.8899999856948853,0.3700000047683716,0.0,0.005126953125,0.01470947265625,0.99346923828125,35.220001220703125,0.0,-1.0,-6.7770843505859375,-7.1715087890625,Waiting,0.0,0.0,-136640.0,0.0,0.0,0.0,0.0,0.0,
0.4284120000000112,0.0,0.0,-87563.0,0.0,0.0,0.0,0.0,0.125,3.85742148,0.0,0.0012207029999999897,6010.0,0.0,0.0,-0.0,0.0,0.0,1.978759563,0.0,0.0,49726.0,0.0,0.0,0.0,0.0,0.0,4.908446763000001,0.0,0.0,40133.0,0.0,0.0,-0.0,0.0,0.0,2.916259467,0.0,0.0,0.8899999856948853,0.3700000047683716,0.0,0.0076904296875,0.0152587890625,1.00177001953125,35.220001220703125,0.0,1.0,-6.7770843505859375,-7.1715087890625,Waiting,0.0,0.0,-136640.0,0.0,0.0,0.0,0.0,0.0,
0.44911900000000604,0.0,0.0,-87563.0,0.0,0.0,0.0,0.0,0.125,3.858642183,0.0,0.0012207029999999897,6010.0,0.0,0.0,-0.0,0.0,0.0,1.979980266,0.0,0.0,49726.0,0.0,0.0,0.0,0.0,0.0,4.908446763000001,0.0,0.0,40133.0,0.0,0.0,-0.0,0.0,0.0,2.916259467,0.0,0.0,0.8899999856948853,0.3700000047683716,0.0,0.007080078125,0.01806640625,0.998046875,35.220001220703125,0.0,0.0,-6.7770843505859375,-7.1715087890625,Waiting,0.0,0.0,-136640.0,0.0,0.0,0.0,0.0,0.0,
0.48142300000000976,0.0,0.0,-87563.0,0.0,0.0,0.0,0.0,0.125,3.858642183,0.0,-0.0012207029999999897,6010.0,0.0,0.0,-0.0,0.0,0.0,1.978759563,0.0,0.0,49726.0,0.0,0.0,0.0,0.0,0.0,4.908446763000001,0.0,-0.0012207030000004337,40133.0,0.0,0.0,-0.0,0.0,0.0,2.916259467,0.0,0.0,0.8899999856948853,0.3700000047683716,0.0,0.005615234375,0.01416015625,1.0029296875,35.220001220703125,0.0,-1.0,-6.7770843505859375,-7.1715087890625,Waiting,0.0,0.0,-136640.0,0.0,0.0,0.0,0.0,0.0,
0.5085840000000026,0.0,0.0,-87563.0,0.0,0.0,0.0,0.0,0.125,3.858642183,0.0,-0.0012207029999999897,6010.0,0.0,0.0,-0.0,0.0,0.0,1.979980266,0.0,0.0,49726.0,0.0,0.0,0.0,0.0,0.0,4.908446763000001,0.0,-0.0012207030000004337,40133.0,0.0,0.0,-0.0,0.0,0.0,2.916259467,0.0,0.0,0.8899999856948853,0.3700000047683716,0.0,0.00604248046875,0.01519775390625,0.99664306640625,35.220001220703125,0.0,0.0,-6.7770843505859375,-7.1715087890625,Waiting,0.0,0.0,-136640.0,0.0,0.0,0.0,0.0,0.0,
0.5321170000000129,0.0,0.0,-87563.0,0.0,0.0,0.0,0.0,0.125,3.858642183,0.0,0.0,6010.0,0.0,0.0,-0.0,0.0,0.0,1.978759563,0.0,0.0,49726.0,0.0,0.0,0.0,0.0,0.0,4.90722606,0.0,0.0,40133.0,0.0,0.0,-0.0,0.0,0.0,2.916259467,0.0,0.0,0.8899999856948853,0.3700000047683716,0.0,0.0079345703125,0.0152587890625,1.00115966796875,35.220001220703125,0.0,1.0,-6.7770843505859375,-7.1715087890625,Waiting,0.0,0.0,-136640.0,0.0,0.0,0.0,0.0,0.0,
0.5507670000000071,0.0,0.0,-87563.0,0.0,0.0,0.0,0.0,0.125,3.85742148,0.0,0.0,6010.0,0.0,0.0,-0.0,0.0,0.0,1.979980266,0.0,0.0,49726.0,0.0,0.0,0.0,0.0,0.0,4.908446763000001,0.0,0.0,40133.0,0.0,0.0,-0.0,0.0,0.0,2.916259467,0.0,0.0,0.8899999856948853,0.3700000047683716,0.0,0.00537109375,0.01666259765625,1.00201416015625,35.220001220703125,0.0,-1.0,-6.7770843505859375,-7.1715087890625,Waiting,0.0,0.0,-136640.0,0.0,0.0,0.0,0.0,0.0,
0.5692890000000043,0.0,0.0,-87563.0,0.0,0.0,0.0,0.0,0.125,3.85742148,0.0,0.0,6010.0,0.0,0.0,-0.0,0.0,0.0,1.978759563,0.0,0.0,49726.0,0.0,0.0,0.0,0.0,0.0,4.909667466,0.0,0.0,40133.0,0.0,0.0,-0.0,0.0,0.0,2.915038764,0.0,0.0,0.8899999856948853,0.3700000047683716,0.0,0.00653076171875,0.012939453125,0.99871826171875,35.220001220703125,0.0,0.0,-6.7770843505859375,-7.1715087890625,Waiting,0.0,0.0,-136640.0,0.0,0.0,0.0,0.0,0.0,
0.5919220000000059,0.0,0.0,-87563.0,0.0,0.0,0.0,0.0,0.125,3.858642183,0.0,0.0,6010.0,0.0,0.0,-0.0,0.0,0.0,1.979980266,0.0,0.0,49726.0,0.0,0.0,0.0,0.0,0.0,4.90722606,0.0,0.0,40133.0,0.0,0.0,-0.0,0.0,0.0,2.915038764,0.0,0.0,0.8899999856948853,0.3700000047683716,0.0,0.0067138671875,0.01776123046875,0.993408203125,35.220001220703125,0.0,0.0,-6.7770843505859375,-7.1715087890625,Waiting,0.0,0.0,-136640.0,0.0,0.0,0.0,0.0,0.0,
0.6110750000000117,0.0,0.0,-87563.0,0.0,0.0,0.0,0.0,0.125,3.858642183,0.0,0.0,6010.0,0.0,0.0,-0.0,0.0,0.0,1.979980266,0.0,0.0,49726.0,0.0,0.0,0.0,0.0,0.0,4.908446763000001,0.0,0.0,40133.0,0.0,0.0,-0.0,0.0,0.0,2.916259467,0.0,0.0,0.8899999856948853,0.3700000047683716,0.0,0.00732421875,0.01593017578125,0.9998779296875,35.220001220703125,0.0,0.0,-6.7770843505859375,-7.1715087890625,Waiting,0.0,0.0,-136640.0,0.0,0.0,0.0,0.0,0.0,
0.6348179999999993,0.0,0.0,-87563.0,0.0,0.0,0.0,0.0,0.125,3.858642183,0.0,0.0,6010.0,0.0,0.0,-0.0,0.0,0.0,1.981200969,0.0,0.0,49726.0,0.0,0.0,0.0,0.0,0.0,4.90722606,0.0,0.0,40133.0,0.0,0.0,-0.0,0.0,0.0,2.915038764,0.0,0.0,0.8899999856948853,0.3700000047683716,0.0,0.0052490234375,0.0147705078125,0.997314453125,35.220001220703125,0.0,-1.0,-6.7770843505859375,-7.1715087890625,Waiting,0.0,0.0,-136640.0,0.0,0.0,0.0,0.0,0.0,
0.6557300000000105,0.0,0.0,-87563.0,0.0,0.0,0.0,0.0,0.125,3.85742148,0.0,0.0,6010.0,0.0,0.0,-0.0,0.0,0.0,1.979980266,0.0,0.0,49726.0,0.0,0.0,0.0,0.0,0.0,4.908446763000001,0.0,0.0,40133.0,0.0,0.0,-0.0,0.0,0.0,2.916259467,0.0,0.0,0.8899999856948853,0.3700000047683716,0.0,0.0052490234375,0.01446533203125,1.00384521484375,35.220001220703125,0.0,-1.0,-6.7770843505859375,-7.1715087890625,Waiting,0.0,0.0,-136640.0,0.0,0.0,0.0,0.0,0.0,
0.6756850000000122,0.0,0.0,-87563.0,0.0,0.0,0.0,0.0,0.125,3.858642183,0.0,0.0,6010.0,0.0,0.0,-0.0,0.0,0.0,1.978759563,0.0,0.0,49726.0,0.0,0.0,0.0,0.0,0.0,4.90722606,0.0,0.0,40133.0,0.0,0.0,-0.0,0.0,0.0,2.912597358,0.0,0.0,0.8899999856948853,0.3700000047683716,0.0,0.00604248046875,0.0159912109375,1.00006103515625,35.220001220703125,0.0,0.0,-6.7770843505859375,-7.1715087890625,Waiting,0.0,0.0,-136640.0,0.0,0.0,0.0,0.0,0.0,
0.7028100000000123,0.0,0.0,-87563.0,0.0,0.0,0.0,0.0,0.125,3.858642183,0.0,0.0,6010.0,0.0,0.0,-0.0,0.0,0.0,1.978759563,0.0,0.0,49726.0,0.0,0.0,0.0,0.0,0.0,4.908446763000001,0.0,0.0,40133.0,0.0,0.0,-0.0,0.0,0.0,2.915038764,0.0,0.0,0.8899999856948853,0.3700000047683716,0.0,0.00457763671875,0.0177001953125,0.9984130859375,35.220001220703125,0.0,-2.0,-6.7770843505859375,-7.1715087890625,Waiting,0.0,0.0,-136640.0,0.0,0.0,0.0,0.0,0.0,
0.7247420000000129,0.0,0.0,-87563.0,0.0,0.0,0.0,0.0,0.125,3.85742148,0.0,0.0,6010.0,0.0,0.0,-0.0,0.0,0.0,1.978759563,0.0,0.0,49726.0,0.0,0.0,0.0,0.0,0.0,4.908446763000001,0.0,0.0,40133.0,0.0,0.0,-0.0,0.0,0.0,2.915038764,0.0,0.0,0.8899999856948853,0.3700000047683716,0.0,0.0068359375,0.01690673828125,1.00555419921875,35.220001220703125,0.0,0.0,-6.7770843505859375,-7.1715087890625,Waiting,0.0,0.0,-136640.0,0.0,0.0,0.0,0.0,0.0,
0.7481340000000055,0.0,0.0,-87563.0,0.0,0.0,0.0,0.0,0.125,3.852538668,0.0,0.0,6010.0,0.0,0.0,-0.0,0.0,0.0,1.979980266,0.0,0.0,49726.0,0.0,0.0,0.0,0.0,0.0,4.909667466,0.0,0.0,40133.0,0.0,0.0,-0.0,0.0,0.0,2.916259467,0.0,0.0,0.8899999856948853,0.3700000047683716,0.0,0.00726318359375,0.01715087890625,0.99871826171875,35.220001220703125,0.0,0.0,-6.7770843505859375,-7.1715087890625,Waiting,0.0,0.0,-136640.0,0.0,0.0,0.0,0.0,0.0,
0.7668570000000036,0.0,0.0,-87563.0,0.0,0.0,0.0,0.0,0.125,3.858642183,0.0,0.0,6010.0,0.0,0.0,-0.0,0.0,0.0,1.979980266,0.0,0.0,49726.0,0.0,0.0,0.0,0.0,0.0,4.906005357000001,0.0,0.0,40133.0,0.0,0.0,-0.0,0.0,0.0,2.916259467,0.0,0.0,0.8899999856948853,0.3700000047683716,0.0,0.007568359375,0.0150146484375,0.9998779296875,35.220001220703125,0.0,0.0,-6.7770843505859375,-7.1715087890625,Waiting,0.0,0.0,-136640.0,0.0,0.0,0.0,0.0,0.0,
0.7900350000000035,0.0,0.0,-87563.0,0.0,0.0,0.0,0.0,0.125,3.8305660140000004,0.0,0.0,6010.0,0.0,0.0,-0.0,0.0,0.0,1.979980266,0.0,0.0,49726.0,0.0,0.0,0.0,0.0,0.0,4.909667466,0.0,0.0012207030000004337,40133.0,0.0,0.0,-0.0,0.0,0.0,2.915038764,0.0,0.0,0.8899999856948853,0.3700000047683716,0.0,0.0057373046875,0.0152587890625,0.99969482421875,35.220001220703125,0.0,0.0,-6.7770843505859375,-7.1715087890625,Waiting,0.0,0.0,-136640.0,0.0,0.0,0.0,0.0,0.0,
0.8101100000000006,0.0,0.0,-87563.0,0.0,0.0,0.0,0.0,0.125,3.85742148,0.0,0.0,6010.0,0.0,0.0,-0.0,0.0,0.0,1.981200969,0.0,0.0,49726.0,0.0,0.0,0.0,0.0,0.0,4.90722606,0.0,0.0012207030000004337,40133.0,0.0,0.0,-0.0,0.0,0.0,2.916259467,0.0,0.0,0.8899999856948853,0.3700000047683716,0.0,0.006103515625,0.0150146484375,0.9971923828125,35.220001220703125,0.0,0.0,-6.7770843505859375,-7.1715087890625,Waiting,0.0,0.0,-136640.0,0.0,0.0,0.0,0.0,0.0,
0.832221000000005,0.0,0.0,-87563.0,0.0,0.0,0.0,0.0,0.125,3.85742148,0.0,0.0012207029999999897,6010.0,0.0,0.0,-0.0,0.0,0.0,1.978759563,0.0,0.0,49726.0,0.0,0.0,0.0,0.0,0.0,4.90722606,0.0,0.0,40133.0,0.0,0.0,-0.0,0.0,0.0,2.916259467,0.0,0.0,0.8899999856948853,0.3700000047683716,-0.009999999776482582,0.00482177734375,0.01544189453125,0.998046875,35.18000030517578,0.0,-1.0,-6.7770843505859375,-7.1715087890625,Waiting,0.0,0.0,-136640.0,0.0,0.0,0.0,0.0,0.0,
0.8566830000000045,0.0,0.0,-87563.0,0.0,0.0,0.0,0.0,0.125,3.859862886,0.0,0.0012207029999999897,6010.0,0.0,0.0,-0.0,0.0,0.0,1.978759563,0.0,0.0,49726.0,0.0,0.0,0.0,0.0,0.0,4.908446763000001,0.0,0.0,40133.0,0.0,0.0,-0.0,0.0,0.0,2.916259467,0.0,0.0,0.8899999856948853,0.3700000047683716,-0.009999999776482582,0.00836181640625,0.01422119140625,0.9970703125,35.18000030517578,0.0,1.0,-6.7770843505859375,-7.1715087890625,Waiting,0.0,0.0,-136640.0,0.0,0.0,0.0,0.0,0.0,
0.889419000000009,0.0,0.0,-87563.0,0.0,0.0,0.0,0.0,0.125,3.8488765590000003,0.0,-0.0012207029999999897,6010.0,0.0,0.0,-0.0,0.0,0.0,1.978759563,0.0,0.0,49726.0,0.0,0.0,0.0,0.0,0.0,4.909667466,0.0,-0.0012207030000004337,40133.0,0.0,0.0,-0.0,0.0,0.0,2.916259467,0.0,0.0,0.8899999856948853,0.3700000047683716,-0.009999999776482582,0.004638671875,0.01324462890625,1.001708984375,35.18000030517578,0.0,-1.0,-6.7770843505859375,-7.1715087890625,Waiting,0.0,0.0,-136640.0,0.0,0.0,0.0,0.0,0.0,
0.912814000000013,0.0,0.0,-87563.0,0.0,0.0,0.0,0.0,0.125,3.858642183,0.0,-0.0012207029999999897,6010.0,0.0,0.0,-0.0,0.0,0.0,1.978759563,0.0,0.0,49726.0,0.0,0.0,0.0,0.0,0.0,4.908446763000001,0.0,-0.0012207030000004337,40133.0,0.0,0.0,-0.0,0.0,0.0,2.915038764,0.0,0.0,0.8899999856948853,0.3700000047683716,-0.009999999776482582,0.0069580078125,0.01568603515625,1.0025634765625,35.18000030517578,0.0,0.0,-6.7770843505859375,-7.1715087890625,Waiting,0.0,0.0,-136640.0,0.0,0.0,0.0,0.0,0.0,
0.9411710000000021,0.0,0.0,-87563.0,0.0,0.0,0.0,0.0,0.125,3.858642183,0.0,0.0,6010.0,0.0,0.0,-0.0,0.0,0.0,1.978759563,0.0,0.0,49726.0,0.0,0.0,0.0,0.0,0.0,4.909667466,0.0,0.0,40133.0,0.0,0.0,-0.0,0.0,0.0,2.915038764,0.0,0.0,0.8899999856948853,0.3700000047683716,-0.009999999776482582,0.005859375,0.0174560546875,0.99798583984375,35.18000030517578,0.0,0.0,-6.7770843505859375,-7.1715087890625,Waiting,0.0,0.0,-136640.0,0.0,0.0,0.0,0.0,0.0,
0.9571059999999998,0.0,0.0,-87563.0,0.0,0.0,0.0,0.0,0.125,3.858642183,0.0,0.0,6010.0,0.0,0.0,-0.0,0.0,0.0,1.979980266,0.0,0.0,49726.0,0.0,0.0,0.0,0.0,0.0,4.908446763000001,0.0,0.0,40133.0,0.0,0.0,-0.0,0.0,0.0,2.916259467,0.0,0.0,0.8899999856948853,0.3700000047683716,-0.009999999776482582,0.00799560546875,0.0150146484375,1.00274658203125,35.18000030517578,0.0,1.0,-6.7770843505859375,-7.1715087890625,Waiting,0.0,0.0,-136640.0,0.0,0.0,0.0,0.0,0.0,
0.974974000000002,0.0,0.0,-87563.0,0.0,0.0,0.0,0.0,0.125,3.858642183,0.0,0.0,6010.0,0.0,0.0,-0.0,0.0,0.0,1.9775388600000001,0.0,0.0,49726.0,0.0,0.0,0.0,0.0,0.0,4.909667466,0.0,0.0,40133.0,0.0,0.0,-0.0,0.0,0.0,2.915038764,0.0,0.0,0.8899999856948853,0.3700000047683716,-0.009999999776482582,0.008056640625,0.01800537109375,0.993408203125,35.18000030517578,0.0,1.0,-6.7770843505859375,-7.1715087890625,Waiting,0.0,0.0,-136640.0,0.0,0.0,0.0,0.0,0.0,
0.9976970000000002,0.0,0.0,-87563.0,0.0,0.0,0.0,0.0,0.125,3.858642183,0.0,0.0,6010.0,0.0,0.0,-0.0,0.0,0.0,1.979980266,0.0,0.0,49726.0,0.0,0.0,0.0,0.0,0.0,4.908446763000001,0.0,0.0,40133.0,0.0,0.0,-0.0,0.0,0.0,2.916259467,0.0,0.0,0.8899999856948853,0.3700000047683716,-0.009999999776482582,0.0087890625,0.017333984375,0.99615478515625,35.18000030517578,0.0,2.0,-6.7770843505859375,-7.1715087890625,Waiting,0.0,0.0,-136640.0,0.0,0.0,0.0,0.0,0.0,
1.0152459999999992,0.0,0.0,-87563.0,0.0,0.0,0.0,0.0,0.125,3.858642183,0.0,0.0,6010.0,0.0,0.0,-0.0,0.0,0.0,1.978759563,0.0,0.0,49726.0,0.0,0.0,0.0,0.0,0.0,4.90722606,0.0,0.0,40133.0,0.0,0.0,-0.0,0.0,0.0,2.915038764,0.0,0.0,0.8899999856948853,0.3700000047683716,-0.009999999776482582,0.0045166015625,0.01519775390625,0.997314453125,35.18000030517578,0.0,-2.0,-6.7770843505859375,-7.1715087890625,Waiting,0.0,0.0,-136640.0,0.0,0.0,0.0,0.0,0.0,
1.0364290000000038,0.0,0.0,-87563.0,0.0,0.0,0.0,0.0,0.125,3.858642183,0.0,0.0,6010.0,0.0,0.0,-0.0,0.0,0.0,1.979980266,0.0,0.0,49726.0,0.0,0.0,0.0,0.0,0.0,4.908446763000001,0.0,0.0,40133.0,0.0,0.0,-0.0,0.0,0.0,2.916259467,0.0,0.0,0.8899999856948853,0.3700000047683716,-0.009999999776482582,0.0045166015625,0.01519775390625,0.997314453125,35.18000030517578,0.0,-2.0,-6.7770843505859375,-7.1715087890625,Waiting,0.0,0.0,-136640.0,0.0,0.0,0.0,0.0,0.0,
1.0551520000000019,0.0,0.0,-87563.0,0.0,0.0,0.0,0.0,0.125,3.858642183,0.0,0.0,6010.0,0.0,0.0,-0.0,0.0,0.0,1.9775388600000001,0.0,0.0,49726.0,0.0,0.0,0.0,0.0,0.0,4.906005357000001,0.0,0.0,40133.0,0.0,0.0,-0.0,0.0,0.0,2.916259467,0.0,0.0,0.8899999856948853,0.3700000047683716,-0.009999999776482582,0.00372314453125,0.01446533203125,1.000244140625,35.18000030517578,0.0,-2.0,-6.7770843505859375,-7.1715087890625,Waiting,0.0,0.0,-136640.0,0.0,0.0,0.0,0.0,0.0,
1.073550000000003,0.0,0.0,-87563.0,0.0,0.0,0.0,0.0,0.125,3.858642183,0.0,0.0,6010.0,0.0,0.0,-0.0,0.0,0.0,1.978759563,0.0,0.0,49726.0,0.0,0.0,0.0,0.0,0.0,4.908446763000001,0.0,0.0,40133.0,0.0,0.0,-0.0,0.0,0.0,2.911376655,0.0,0.0,0.8899999856948853,0.3700000047683716,-0.009999999776482582,0.0047607421875,0.01629638671875,0.99835205078125,35.18000030517578,0.0,-1.0,-6.7770843505859375,-7.1715087890625,Waiting,0.0,0.0,-136640.0,0.0,0.0,0.0,0.0,0.0,
1.095718000000008,0.0,0.0,-87563.0,0.0,0.0,0.0,0.0,0.125,3.858642183,0.0,0.0,6010.0,0.0,0.0,-0.0,0.0,0.0,1.979980266,0.0,0.0,49726.0,0.0,0.0,0.0,0.0,0.0,4.90722606,0.0,0.0,40133.0,0.0,0.0,-0.0,0.0,0.0,2.915038764,0.0,0.0,0.8899999856948853,0.3700000047683716,-0.009999999776482582,0.00714111328125,0.0189208984375,1.0023193359375,35.18000030517578,0.0,0.0,-6.7770843505859375,-7.1715087890625,Waiting,0.0,0.0,-136640.0,0.0,0.0,0.0,0.0,0.0,
1.1136880000000091,0.0,0.0,-87563.0,0.0,0.0,0.0,0.0,0.125,3.85742148,0.0,0.0,6010.0,0.0,0.0,-0.0,0.0,0.0,1.978759563,0.0,0.0,49726.0,0.0,0.0,0.0,0.0,0.0,4.908446763000001,0.0,0.0,40133.0,0.0,0.0,-0.0,0.0,0.0,2.915038764,0.0,0.0,0.8899999856948853,0.3700000047683716,-0.019999999552965164,0.0062255859375,0.017333984375,1.0001220703125,35.18000030517578,0.0,0.0,-6.7770843505859375,-7.1715087890625,Waiting,0.0,0.0,-136640.0,0.0,0.0,0.0,0.0,0.0,
1.1347590000000054,0.0,0.0,-87563.0,0.0,0.0,0.0,0.0,0.125,3.85742148,0.0,-0.0012207029999999897,6010.0,0.0,0.0,-0.0,0.0,0.0,1.979980266,0.0,0.0,49726.0,0.0,0.0,0.0,0.0,0.0,4.908446763000001,0.0,0.0,40133.0,0.0,0.0,-0.0,0.0,0.0,2.916259467,0.0,0.0,0.8899999856948853,0.3700000047683716,-0.019999999552965164,0.0074462890625,0.01531982421875,1.00054931640625,35.18000030517578,0.0,0.0,-6.7770843505859375,-7.1715087890625,Waiting,0.0,0.0,-136640.0,0.0,0.0,0.0,0.0,0.0,
1.1540180000000109,0.0,0.0,-87563.0,0.0,0.0,0.0,0.0,0.125,3.858642183,0.0,-0.0012207029999999897,6010.0,0.0,0.0,-0.0,0.0,0.0,1.979980266,0.0,0.0,49726.0,0.0,0.0,0.0,0.0,0.0,4.908446763000001,0.0,0.0,40133.0,0.0,0.0,-0.0,0.0,0.0,2.916259467,0.0,0.0,0.8899999856948853,0.3700000047683716,-0.019999999552965164,0.00433349609375,0.01348876953125,0.99639892578125,35.18000030517578,0.0,-2.0,-6.7770843505859375,-7.1715087890625,Waiting,0.0,0.0,-136640.0,0.0,0.0,0.0,0.0,0.0,
1.172898000000001,0.0,0.0,-87563.0,0.0,0.0,0.0,0.0,0.125,3.858642183,0.0,-0.0012207029999999897,6010.0,0.0,0.0,-0.0,0.0,0.0,1.979980266,0.0,0.0,49726.0,0.0,0.0,0.0,0.0,0.0,4.908446763000001,0.0,0.0,40133.0,0.0,0.0,-0.0,0.0,0.0,2.91748017,0.0,0.0,0.8899999856948853,0.3700000047683716,-0.019999999552965164,0.005126953125,0.01641845703125,0.99639892578125,35.18000030517578,0.0,-1.0,-6.7770843505859375,-7.1715087890625,Waiting,0.0,0.0,-136640.0,0.0,0.0,0.0,0.0,0.0,
1.1942050000000017,0.0,0.0,-87563.0,0.0,0.0,0.0,0.0,0.125,3.858642183,0.0,0.0012207029999999897,6010.0,0.0,0.0,-0.0,0.0,0.0,1.979980266,0.0,0.0,49726.0,0.0,0.0,0.0,0.0,0.0,4.908446763000001,0.0,0.0,40133.0,0.0,0.0,-0.0,0.0,0.0,2.915038764,0.0,0.0,0.8899999856948853,0.3700000047683716,-0.019999999552965164,0.00592041015625,0.01641845703125,0.99969482421875,35.18000030517578,0.0,0.0,-6.7770843505859375,-7.1715087890625,Waiting,0.0,0.0,-136640.0,0.0,0.0,0.0,0.0,0.0,
1.2128600000000005,0.0,0.0,-87563.0,0.0,0.0,0.0,0.0,0.125,3.856200777,0.0,0.0012207029999999897,6010.0,0.0,0.0,-0.0,0.0,0.0,1.979980266,0.0,0.0,49726.0,0.0,0.0,0.0,0.0,0.0,4.908446763000001,0.0,0.0,40133.0,0.0,0.0,-0.0,0.0,0.0,2.916259467,0.0,0.0,0.8899999856948853,0.3700000047683716,-0.019999999552965164,0.0072021484375,0.0159912109375,0.997802734375,35.18000030517578,0.0,0.0,-6.7770843505859375,-7.1715087890625,Waiting,0.0,0.0,-136640.0,0.0,0.0,0.0,0.0,0.0,
1.233945000000007,0.0,0.0,-87563.0,0.0,0.0,0.0,0.0,0.125,3.858642183,0.0,0.0012207029999999897,6010.0,0.0,0.0,-0.0,0.0,0.0,1.979980266,0.0,0.0,49726.0,0.0,0.0,0.0,0.0,0.0,4.908446763000001,0.0,0.0,40133.0,0.0,0.0,-0.0,0.0,0.0,2.915038764,0.0,0.0,0.8899999856948853,0.3700000047683716,-0.009999999776482582,0.00775146484375,0.0167236328125,1.00006103515625,35.18000030517578,0.0,1.0,-6.7770843505859375,-7.1715087890625,Waiting,0.0,0.0,-136640.0,0.0,0.0,0.0,0.0,0.0,
1.2522900000000081,0.0,0.0,-87563.0,0.0,0.0,0.0,0.0,0.125,3.854980074,0.0,0.0012207029999999897,6010.0,0.0,0.0,-0.0,0.0,0.0,1.978759563,0.0,0.0,49726.0,0.0,0.0,0.0,0.0,0.0,4.906005357000001,0.0,0.0,40133.0,0.0,0.0,-0.0,0.0,0.0,2.916259467,0.0,0.0,0.8999999761581421,0.3700000047683716,-0.009999999776482582,0.00543212890625,0.01629638671875,1.00262451171875,35.18000030517578,0.0,-1.0,-6.7770843505859375,-7.1715087890625,Waiting,0.0,0.0,-136640.0,0.0,0.0,0.0,0.0,0.0,
1.2701530000000056,0.0,0.0,-87563.0,0.0,0.0,0.0,0.0,0.125,3.858642183,0.0,0.0012207029999999897,6010.0,0.0,0.0,-0.0,0.0,0.0,1.979980266,0.0,0.0,49726.0,0.0,0.0,0.0,0.0,0.0,4.908446763000001,0.0,0.0,40133.0,0.0,0.0,-0.0,0.0,0.0,2.915038764,0.0,0.0,0.8999999761581421,0.3700000047683716,-0.019999999552965164,0.00811767578125,0.0167236328125,0.99853515625,35.18000030517578,0.0,1.0,-6.7770843505859375,-7.1715087890625,Waiting,0.0,0.0,-136640.0,0.0,0.0,0.0,0.0,0.0,
1.3028070000000007,0.0,0.0,-87563.0,0.0,0.0,0.0,0.0,0.125,3.858642183,0.0,0.0,6010.0,0.0,0.0,-0.0,0.0,0.0,1.978759563,0.0,0.0,49726.0,0.0,0.0,0.0,0.0,0.0,4.90722606,0.0,0.0012207030000004337,40133.0,0.0,0.0,-0.0,0.0,0.0,2.915038764,0.0,0.0,0.8899999856948853,0.3700000047683716,-0.019999999552965164,0.00469970703125,0.01605224609375,1.00439453125,35.18000030517578,0.0,-1.0,-6.7770843505859375,-7.1715087890625,Waiting,0.0,0.0,-136640.0,0.0,0.0,0.0,0.0,0.0,
1.3190790000000125,0.0,0.0,-87563.0,0.0,0.0,0.0,0.0,0.125,3.85742148,0.0,0.0,6010.0,0.0,0.0,-0.0,0.0,0.0,1.979980266,0.0,0.0,49726.0,0.0,0.0,0.0,0.0,0.0,4.906005357000001,0.0,-0.0012207030000004337,40133.0,0.0,0.0,-0.0,0.0,0.0,2.916259467,0.0,0.0,0.8899999856948853,0.3700000047683716,-0.019999999552965164,0.0079345703125,0.0133056640625,1.00067138671875,35.18000030517578,0.0,1.0,-6.7770843505859375,-7.1715087890625,Waiting,0.0,0.0,-136640.0,0.0,0.0,0.0,0.0,0.0,
1.343090000000011,0.0,0.0,-87563.0,0.0,0.0,0.0,0.0,0.125,3.858642183,0.0,-0.0012207029999999897,6010.0,0.0,0.0,-0.0,0.0,0.0,1.979980266,0.0,0.0,49726.0,0.0,0.0,0.0,0.0,0.0,4.908446763000001,0.0,-0.0012207030000004337,40133.0,0.0,0.0,-0.0,0.0,0.0,2.915038764,0.0,0.0,0.8899999856948853,0.3700000047683716,-0.019999999552965164,0.00616455078125,0.01544189453125,0.99951171875,35.18000030517578,0.0,0.0,-6.7770843505859375,-7.1715087890625,Waiting,0.0,0.0,-136640.0,0.0,0.0,0.0,0.0,0.0,
1.3601470000000118,0.0,0.0,-87563.0,0.0,0.0,0.0,0.0,0.125,3.859862886,0.0,-0.0012207029999999897,6010.0,0.0,0.0,-0.0,0.0,0.0,1.979980266,0.0,0.0,49726.0,0.0,0.0,0.0,0.0,0.0,4.90722606,0.0,-0.0012207030000004337,40133.0,0.0,0.0,-0.0,0.0,0.0,2.915038764,0.0,0.0,0.8899999856948853,0.3700000047683716,-0.019999999552965164,0.006591796875,0.0150146484375,1.002685546875,35.15999984741211,0.0,0.0,-6.7770843505859375,-7.1715087890625,Waiting,0.0,0.0,-136640.0,0.0,0.0,0.0,0.0,0.0,
1.37975,0.0,0.0,-87563.0,0.0,0.0,0.0,0.0,0.125,3.85742148,0.0,0.0,6010.0,0.0,0.0,-0.0,0.0,0.0,1.978759563,0.0,0.0,49726.0,0.0,0.0,0.0,0.0,0.0,4.908446763000001,0.0,0.0,40133.0,0.0,0.0,-0.0,0.0,0.0,2.910155952,0.0,0.0,0.8899999856948853,0.3700000047683716,-0.019999999552965164,0.00787353515625,0.0146484375,1.00103759765625,35.15999984741211,0.0,1.0,-6.7770843505859375,-7.1715087890625,Waiting,0.0,0.0,-136640.0,0.0,0.0,0.0,0.0,0.0,
1.4000710000000107,0.0,0.0,-87563.0,0.0,0.0,0.0,0.0,0.125,3.858642183,0.0,0.0,6010.0,0.0,0.0,-0.0,0.0,0.0,1.979980266,0.0,0.0,49726.0,0.0,0.0,0.0,0.0,0.0,4.906005357000001,0.0,0.0,40133.0,0.0,0.0,-0.0,0.0,0.0,2.915038764,0.0,0.0,0.8899999856948853,0.3700000047683716,-0.019999999552965164,0.00689697265625,0.016357421875,0.999755859375,35.15999984741211,0.0,0.0,-6.7770843505859375,-7.1715087890625,Waiting,0.0,0.0,-136640.0,0.0,0.0,0.0,0.0,0.0,
1.4180770000000047,0.0,0.0,-87563.0,0.0,0.0,0.0,0.0,0.125,3.858642183,0.0,0.0,6010.0,0.0,0.0,-0.0,0.0,0.0,1.979980266,0.0,0.0,49726.0,0.0,0.0,0.0,0.0,0.0,4.906005357000001,0.0,0.0,40133.0,0.0,0.0,-0.0,0.0,0.0,2.915038764,0.0,0.0,0.8999999761581421,0.3700000047683716,-0.019999999552965164,0.00653076171875,0.0147705078125,1.00152587890625,35.15999984741211,0.0,0.0,-6.7770843505859375,-7.1715087890625,Waiting,0.0,0.0,-136640.0,0.0,0.0,0.0,0.0,0.0,
1.4430720000000001,0.0,0.0,-87563.0,0.0,0.0,0.0,0.0,0.125,3.858642183,0.0,0.0,6010.0,0.0,0.0,-0.0,0.0,0.0,1.978759563,0.0,0.0,49726.0,0.0,0.0,0.0,0.0,0.0,4.90722606,0.0,0.0,40133.0,0.0,0.0,-0.0,0.0,0.0,2.91748017,0.0,0.0,0.8899999856948853,0.3700000047683716,-0.019999999552965164,0.00640869140625,0.01715087890625,0.9991455078125,35.15999984741211,0.0,0.0,-6.7770843505859375,-7.1715087890625,Waiting,0.0,0.0,-136640.0,0.0,0.0,0.0,0.0,0.0,
1.459340000000011,0.0,0.0,-87563.0,0.0,0.0,0.0,0.0,0.125,3.858642183,0.0,0.0,6010.0,0.0,0.0,-0.0,0.0,0.0,1.978759563,0.0,0.0,49726.0,0.0,0.0,0.0,0.0,0.0,4.90722606,0.0,0.0,40133.0,0.0,0.0,-0.0,0.0,0.0,2.915038764,0.0,0.0,0.8899999856948853,0.3700000047683716,-0.019999999552965164,0.00518798828125,0.0185546875,1.00250244140625,35.15999984741211,0.0,-1.0,-6.7770843505859375,-7.1715087890625,Waiting,0.0,0.0,-136640.0,0.0,0.0,0.0,0.0,0.0,
1.4758780000000116,0.0,0.0,-87563.0,0.0,0.0,0.0,0.0,0.125,3.858642183,0.0,0.0,6010.0,0.0,0.0,-0.0,0.0,0.0,1.978759563,0.0,0.0,49726.0,0.0,0.0,0.0,0.0,0.0,4.90722606,0.0,0.0,40133.0,0.0,0.0,-0.0,0.0,0.0,2.916259467,0.0,0.0,0.8999999761581421,0.3700000047683716,-0.019999999552965164,0.00689697265625,0.01629638671875,0.99554443359375,35.15999984741211,0.0,0.0,-6.7770843505859375,-7.1715087890625,Waiting,0.0,0.0,-136640.0,0.0,0.0,0.0,0.0,0.0,
1.5020710000000108,0.0,0.0,-87563.0,0.0,0.0,0.0,0.0,0.125,3.858642183,0.0,0.0,6010.0,0.0,0.0,-0.0,0.0,0.0,1.979980266,0.0,0.0,49726.0,0.0,0.0,0.0,0.0,0.0,4.908446763000001,0.0,0.0,40133.0,0.0,0.0,-0.0,0.0,0.0,2.915038764,0.0,0.0,0.8999999761581421,0.3700000047683716,-0.019999999552965164,0.00567626953125,0.014404296875,1.00146484375,35.15999984741211,0.0,0.0,-6.7770843505859375,-7.1715087890625,Waiting,0.0,0.0,-136640.0,0.0,0.0,0.0,0.0,0.0,
1.5198910000000032,0.0,0.0,-87563.0,0.0,0.0,0.0,0.0,0.125,3.822021093,0.0,0.0,6010.0,0.0,0.0,-0.0,0.0,0.0,1.978759563,0.0,0.0,49726.0,0.0,0.0,0.0,0.0,0.0,4.908446763000001,0.0,0.0,40133.0,0.0,0.0,-0.0,0.0,0.0,2.916259467,0.0,0.0,0.8899999856948853,0.3700000047683716,-0.019999999552965164,0.0059814453125,0.017333984375,0.99456787109375,35.15999984741211,0.0,0.0,-6.7770843505859375,-7.1715087890625,Waiting,0.0,0.0,-136640.0,0.0,0.0,0.0,0.0,0.0,
1.5448120000000054,0.0,0.0,-87563.0,0.0,0.0,0.0,0.0,0.125,3.85742148,0.0,0.0,6010.0,0.0,0.0,-0.0,0.0,0.0,1.978759563,0.0,0.0,49726.0,0.0,0.0,0.0,0.0,0.0,4.909667466,0.0,0.0,40133.0,0.0,0.0,-0.0,0.0,0.0,2.915038764,0.0,0.0,0.8999999761581421,0.3700000047683716,-0.019999999552965164,0.0076904296875,0.0172119140625,0.997314453125,35.15999984741211,0.0,1.0,-6.7770843505859375,-7.1715087890625,Waiting,0.0,0.0,-136640.0,0.0,0.0,0.0,0.0,0.0,
1.5654429999999993,0.0,0.0,-87563.0,0.0,0.0,0.0,0.0,0.125,3.858642183,0.0,0.0,6010.0,0.0,0.0,-0.0,0.0,0.0,1.978759563,0.0,0.0,49726.0,0.0,0.0,0.0,0.0,0.0,4.90722606,0.0,0.0,40133.0,0.0,0.0,-0.0,0.0,0.0,2.916259467,0.0,0.0,0.8999999761581421,0.3700000047683716,-0.019999999552965164,0.00592041015625,0.01495361328125,1.00250244140625,35.15999984741211,0.0,0.0,-6.7770843505859375,-7.1715087890625,Waiting,0.0,0.0,-136640.0,0.0,0.0,0.0,0.0,0.0,
1.5873150000000023,0.0,0.0,-87563.0,0.0,0.0,0.0,0.0,0.125,3.85742148,0.0,0.0012207029999999897,6010.0,0.0,0.0,-0.0,0.0,0.0,1.9763181570000001,0.0,0.0,49726.0,0.0,0.0,0.0,0.0,0.0,4.908446763000001,0.0,0.0,40133.0,0.0,0.0,-0.0,0.0,0.0,2.916259467,0.0,0.0,0.8999999761581421,0.3700000047683716,-0.019999999552965164,0.007568359375,0.0140380859375,0.99652099609375,35.15999984741211,0.0,1.0,-6.7770843505859375,-7.1715087890625,Waiting,0.0,0.0,-136640.0,0.0,0.0,0.0,0.0,0.0,
1.6071420000000072,0.0,0.0,-87563.0,0.0,0.0,0.0,0.0,0.125,3.85742148,0.0,0.0012207029999999897,6010.0,0.0,0.0,-0.0,0.0,0.0,1.978759563,0.0,0.0,49726.0,0.0,0.0,0.0,0.0,0.0,4.906005357000001,0.0,0.0,40133.0,0.0,0.0,-0.0,0.0,0.0,2.915038764,0.0,0.0,0.8999999761581421,0.3700000047683716,-0.019999999552965164,0.00927734375,0.01373291015625,0.9996337890625,35.15999984741211,0.0,2.0,-6.7770843505859375,-7.1715087890625,Waiting,0.0,0.0,-136640.0,0.0,0.0,0.0,0.0,0.0,
1.6258060000000114,0.0,0.0,-87563.0,0.0,0.0,0.0,0.0,0.125,3.85742148,0.0,0.0012207029999999897,6010.0,0.0,0.0,-0.0,0.0,0.0,1.979980266,0.0,0.0,49726.0,0.0,0.0,0.0,0.0,0.0,4.909667466,0.0,0.0,40133.0,0.0,0.0,-0.0,0.0,0.0,2.916259467,0.0,0.0,0.8999999761581421,0.3700000047683716,-0.019999999552965164,0.006103515625,0.01898193359375,1.000244140625,35.15999984741211,0.0,0.0,-6.7770843505859375,-7.1715087890625,Waiting,0.0,0.0,-136640.0,0.0,0.0,0.0,0.0,0.0,
1.6471290000000007,0.0,0.0,-87563.0,0.0,0.0,0.0,0.0,0.125,3.822021093,0.0,-0.0012207029999999897,6010.0,0.0,0.0,-0.0,0.0,0.0,1.978759563,0.0,0.0,49726.0,0.0,0.0,0.0,0.0,0.0,4.909667466,0.0,0.0,40133.0,0.0,0.0,-0.0,0.0,0.0,2.915038764,0.0,0.0,0.8999999761581421,0.3700000047683716,-0.019999999552965164,0.0084228515625,0.01348876953125,0.99755859375,35.15999984741211,0.0,1.0,-6.7770843505859375,-7.1715087890625,Waiting,0.0,0.0,-136640.0,0.0,0.0,0.0,0.0,0.0,
1.6651160000000091,0.0,0.0,-87563.0,0.0,0.0,0.0,0.0,0.125,3.85742148,0.0,-0.0012207029999999897,6010.0,0.0,0.0,-0.0,0.0,0.0,1.978759563,0.0,0.0,49726.0,0.0,0.0,0.0,0.0,0.0,4.906005357000001,0.0,0.0,40133.0,0.0,0.0,-0.0,0.0,0.0,2.915038764,0.0,0.0,0.8999999761581421,0.3700000047683716,-0.019999999552965164,0.00775146484375,0.0150146484375,1.00164794921875,35.15999984741211,0.0,1.0,-6.7770843505859375,-7.1715087890625,Waiting,0.0,0.0,-136640.0,0.0,0.0,0.0,0.0,0.0,
1.6868080000000045,0.0,0.0,-87563.0,0.0,0.0,0.0,0.0,0.125,3.872069916,0.0,0.0,6010.0,0.0,0.0,-0.0,0.0,0.0,1.978759563,0.0,0.0,49726.0,0.0,0.0,0.0,0.0,0.0,4.909667466,0.0,0.0,40133.0,0.0,0.0,-0.0,0.0,0.0,2.915038764,0.0,0.0,0.8999999761581421,0.3700000047683716,-0.019999999552965164,0.007080078125,0.01617431640625,0.99884033203125,35.15999984741211,0.0,0.0,-6.7770843505859375,-7.1715087890625,Waiting,0.0,0.0,-136640.0,0.0,0.0,0.0,0.0,0.0,
1.704698000000004,0.0,0.0,-87563.0,0.0,0.0,0.0,0.0,0.125,3.85742148,0.0,0.0,6010.0,0.0,0.0,-0.0,0.0,0.0,1.978759563,0.0,0.0,49726.0,0.0,0.0,0.0,0.0,0.0,4.908446763000001,0.0,0.0,40133.0,0.0,0.0,-0.0,0.0,0.0,2.916259467,0.0,0.0,0.8999999761581421,0.3700000047683716,-0.019999999552965164,0.00823974609375,0.01513671875,0.9964599609375,35.15999984741211,0.0,1.0,-6.7770843505859375,-7.1715087890625,Waiting,0.0,0.0,-136640.0,0.0,0.0,0.0,0.0,0.0,
1.7214890000000014,0.0,0.0,-87563.0,0.0,0.0,0.0,0.0,0.125,3.858642183,0.0,0.0,6010.0,0.0,0.0,-0.0,0.0,0.0,1.979980266,0.0,0.0,49726.0,0.0,0.0,0.0,0.0,0.0,4.908446763000001,0.0,0.0,40133.0,0.0,0.0,-0.0,0.0,0.0,2.916259467,0.0,0.0,0.8999999761581421,0.3799999952316284,-0.019999999552965164,0.0057373046875,0.0152587890625,1.0009765625,35.15999984741211,0.0,0.0,-6.7770843505859375,-7.1715087890625,Waiting,0.0,0.0,-136640.0,0.0,0.0,0.0,0.0,0.0,
1.7403380000000033,0.0,0.0,-87563.0,0.0,0.0,0.0,0.0,0.125,3.859862886,0.0,0.0,6010.0,0.0,0.0,-0.0,0.0,0.0,1.978759563,0.0,0.0,49726.0,0.0,0.0,0.0,0.0,0.0,4.908446763000001,0.0,0.0,40133.0,0.0,0.0,-0.0,0.0,0.0,2.915038764,0.0,0.0,0.8999999761581421,0.3799999952316284,-0.019999999552965164,0.007080078125,0.01641845703125,0.99884033203125,35.15999984741211,0.0,0.0,-6.7770843505859375,-7.1715087890625,Waiting,0.0,0.0,-136640.0,0.0,0.0,0.0,0.0,0.0,
1.7612839999999996,0.0,0.0,-87563.0,0.0,0.0,0.0,0.0,0.125,3.858642183,0.0,0.0,6010.0,0.0,0.0,-0.0,0.0,0.0,1.979980266,0.0,0.0,49726.0,0.0,0.0,0.0,0.0,0.0,4.908446763000001,0.0,0.0,40133.0,0.0,0.0,-0.0,0.0,0.0,2.915038764,0.0,0.0,0.8999999761581421,0.3799999952316284,-0.019999999552965164,0.00543212890625,0.013916015625,0.99737548828125,35.15999984741211,0.0,-1.0,-6.7770843505859375,-7.1715087890625,Waiting,0.0,0.0,-136640.0,0.0,0.0,0.0,0.0,0.0,
1.7832870000000112,0.0,0.0,-87563.0,0.0,0.0,0.0,0.0,0.125,3.858642183,0.0,0.0,6010.0,0.0,0.0,-0.0,0.0,0.0,1.978759563,0.0,0.0,49726.0,0.0,0.0,0.0,0.0,0.0,4.90722606,0.0,0.0,40133.0,0.0,0.0,-0.0,0.0,0.0,2.915038764,0.0,0.0,0.8999999761581421,0.3799999952316284,-0.019999999552965164,0.007080078125,0.016357421875,1.0032958984375,35.15999984741211,0.0,0.0,-6.7770843505859375,-7.1715087890625,Waiting,0.0,0.0,-136640.0,0.0,0.0,0.0,0.0,0.0,
1.800791000000012,0.0,0.0,-87563.0,0.0,0.0,0.0,0.0,0.125,3.85742148,0.0,0.0,6010.0,0.0,0.0,-0.0,0.0,0.0,1.979980266,0.0,0.0,49726.0,0.0,0.0,0.0,0.0,0.0,4.90722606,0.0,0.0,40133.0,0.0,0.0,-0.0,0.0,0.0,2.916259467,0.0,0.0,0.8999999761581421,0.3700000047683716,-0.019999999552965164,0.0069580078125,0.0164794921875,1.0054931640625,35.15999984741211,0.0,0.0,-6.7770843505859375,-7.1715087890625,Waiting,0.0,0.0,-136640.0,0.0,0.0,0.0,0.0,0.0,
1.8207350000000007,0.0,0.0,-87563.0,0.0,0.0,0.0,0.0,0.125,3.858642183,0.0,0.0,6010.0,0.0,0.0,-0.0,0.0,0.0,1.979980266,0.0,0.0,49726.0,0.0,0.0,0.0,0.0,0.0,4.908446763000001,0.0,0.0,40133.0,0.0,0.0,-0.0,0.0,0.0,2.915038764,0.0,0.0,0.8999999761581421,0.3799999952316284,-0.019999999552965164,0.00732421875,0.0152587890625,0.9957275390625,35.15999984741211,0.0,0.0,-6.7770843505859375,-7.1715087890625,Waiting,0.0,0.0,-136640.0,0.0,0.0,0.0,0.0,0.0,
1.854968000000008,0.0,0.0,-87563.0,0.0,0.0,0.0,0.0,0.125,3.85742148,0.0,0.0,6010.0,0.0,0.0,-0.0,0.0,0.0,1.978759563,0.0,0.0,49726.0,0.0,0.0,0.0,0.0,0.0,4.909667466,0.0,0.0,40133.0,0.0,0.0,-0.0,0.0,0.0,2.916259467,0.0,0.0,0.8999999761581421,0.3799999952316284,-0.019999999552965164,0.00604248046875,0.01336669921875,0.9991455078125,35.15999984741211,0.0,0.0,-6.7770843505859375,-7.1715087890625,Waiting,0.0,0.0,-136640.0,0.0,0.0,0.0,0.0,0.0,
1.872044000000009,0.0,0.0,-87563.0,0.0,0.0,0.0,0.0,0.125,3.85742148,0.0,0.0,6010.0,0.0,0.0,-0.0,0.0,0.0,1.978759563,0.0,0.0,49726.0,0.0,0.0,0.0,0.0,0.0,4.904784654,0.0,0.0,40133.0,0.0,0.0,-0.0,0.0,0.0,2.915038764,0.0,0.0,0.8999999761581421,0.3799999952316284,-0.019999999552965164,0.00592041015625,0.0135498046875,1.00018310546875,35.15999984741211,0.0,0.0,-6.7770843505859375,-7.1715087890625,Waiting,0.0,0.0,-136640.0,0.0,0.0,0.0,0.0,0.0,
1.8921540000000094,0.0,0.0,-87563.0,0.0,0.0,0.0,0.0,0.125,3.8317867170000004,0.0,0.0,6010.0,0.0,0.0,-0.0,0.0,0.0,1.979980266,0.0,0.0,49726.0,0.0,0.0,0.0,0.0,0.0,4.908446763000001,0.0,0.0,40133.0,0.0,0.0,-0.0,0.0,0.0,2.915038764,0.0,0.0,0.8999999761581421,0.3700000047683716,-0.019999999552965164,0.006591796875,0.0174560546875,0.99761962890625,35.15999984741211,0.0,0.0,-6.7770843505859375,-7.1715087890625,Waiting,0.0,0.0,-136640.0,0.0,0.0,0.0,0.0,0.0,
1.9101050000000104,0.0,0.0,-87563.0,0.0,0.0,0.0,0.0,0.125,3.858642183,0.0,0.0,6010.0,0.0,0.0,-0.0,0.0,0.0,1.979980266,0.0,0.0,49726.0,0.0,0.0,0.0,0.0,0.0,4.909667466,0.0,0.0,40133.0,0.0,0.0,-0.0,0.0,0.0,2.916259467,0.0,0.0,0.8999999761581421,0.3700000047683716,-0.019999999552965164,0.00543212890625,0.01458740234375,0.9962158203125,35.15999984741211,0.0,-1.0,-6.7770843505859375,-7.1715087890625,Waiting,0.0,0.0,-136640.0,0.0,0.0,0.0,0.0,0.0,
1.9278320000000095,0.0,0.0,-87563.0,0.0,0.0,0.0,0.0,0.125,3.858642183,0.0,0.0012207029999999897,6010.0,0.0,0.0,-0.0,0.0,0.0,1.978759563,0.0,0.0,49726.0,0.0,0.0,0.0,0.0,0.0,4.908446763000001,0.0,0.0,40133.0,0.0,0.0,-0.0,0.0,0.0,2.916259467,0.0,0.0,0.8999999761581421,0.3700000047683716,-0.019999999552965164,0.0064697265625,0.01947021484375,0.9949951171875,35.15999984741211,0.0,0.0,-6.7770843505859375,-7.1715087890625,Waiting,0.0,0.0,-136640.0,0.0,0.0,0.0,0.0,0.0,
1.9486560000000026,0.0,0.0,-87563.0,0.0,0.0,0.0,0.0,0.125,3.858642183,0.0,0.0012207029999999897,6010.0,0.0,0.0,-0.0,0.0,0.0,1.979980266,0.0,0.0,49726.0,0.0,0.0,0.0,0.0,0.0,4.908446763000001,0.0,0.0,40133.0,0.0,0.0,-0.0,0.0,0.0,2.915038764,0.0,0.0,0.8999999761581421,0.3700000047683716,-0.019999999552965164,0.00457763671875,0.0189208984375,0.9935302734375,35.15999984741211,0.0,-1.0,-6.7770843505859375,-7.1715087890625,Waiting,0.0,0.0,-136640.0,0.0,0.0,0.0,0.0,0.0,
1.9664220000000059,0.0,0.0,-87563.0,0.0,0.0,0.0,0.0,0.125,3.85742148,0.0,0.0012207029999999897,6010.0,0.0,0.0,-0.0,0.0,0.0,1.978759563,0.0,0.0,49726.0,0.0,0.0,0.0,0.0,0.0,4.90722606,0.0,0.0,40133.0,0.0,0.0,-0.0,0.0,0.0,2.915038764,0.0,0.0,0.8999999761581421,0.3700000047683716,-0.019999999552965164,0.0078125,0.0164794921875,0.99560546875,35.15999984741211,0.0,1.0,-6.7770843505859375,-7.1715087890625,Waiting,0.0,0.0,-136640.0,0.0,0.0,0.0,0.0,0.0,
1.986971000000005,0.0,0.0,-87563.0,0.0,0.0,0.0,0.0,0.125,3.859862886,0.0,-0.0012207029999999897,6010.0,0.0,0.0,-0.0,0.0,0.0,1.978759563,0.0,0.0,49726.0,0.0,0.0,0.0,0.0,0.0,4.908446763000001,0.0,0.0,40133.0,0.0,0.0,-0.0,0.0,0.0,2.916259467,0.0,0.0,0.8999999761581421,0.3700000047683716,-0.019999999552965164,0.0096435546875,0.01556396484375,1.00067138671875,35.15999984741211,0.0,3.0,-6.7770843505859375,-7.1715087890625,Waiting,0.0,0.0,-136640.0,0.0,0.0,0.0,0.0,0.0,
2.0063510000000098,0.0,0.0,-87563.0,0.0,0.0,0.0,0.0,0.125,3.85742148,0.0,-0.0012207029999999897,6010.0,0.0,0.0,-0.0,0.0,0.0,1.979980266,0.0,0.0,49726.0,0.0,0.0,0.0,0.0,0.0,4.908446763000001,0.0,0.0,40133.0,0.0,0.0,-0.0,0.0,0.0,2.916259467,0.0,0.0,0.8999999761581421,0.3700000047683716,-0.019999999552965164,0.00433349609375,0.01617431640625,0.99664306640625,35.15999984741211,0.0,-2.0,-6.7770843505859375,-7.1715087890625,Waiting,0.0,0.0,-136640.0,0.0,0.0,0.0,0.0,0.0,
2.024420000000013,0.0,0.0,-87563.0,0.0,0.0,0.0,0.0,0.125,3.858642183,0.0,-0.0012207029999999897,6010.0,0.0,0.0,-0.0,0.0,0.0,1.979980266,0.0,0.0,49726.0,0.0,0.0,0.0,0.0,0.0,4.90722606,0.0,0.0,40133.0,0.0,0.0,-0.0,0.0,0.0,2.916259467,0.0,0.0,0.8999999761581421,0.3700000047683716,-0.019999999552965164,0.00750732421875,0.01763916015625,1.00592041015625,35.15999984741211,0.0,0.0,-6.7770843505859375,-7.1715087890625,Waiting,0.0,0.0,-136640.0,0.0,0.0,0.0,0.0,0.0,
2.0438810000000087,0.0,0.0,-87563.0,0.0,0.0,0.0,0.0,0.125,3.853759371,0.0,0.0,6010.0,0.0,0.0,-0.0,0.0,0.0,1.978759563,0.0,0.0,49726.0,0.0,0.0,0.0,0.0,0.0,4.906005357000001,0.0,0.0,40133.0,0.0,0.0,-0.0,0.0,0.0,2.915038764,0.0,0.0,0.8899999856948853,0.3700000047683716,-0.019999999552965164,0.00799560546875,0.017578125,1.0001220703125,35.15999984741211,0.0,1.0,-6.7770843505859375,-7.1715087890625,Waiting,0.0,0.0,-136640.0,0.0,0.0,0.0,0.0,0.0,
2.0611580000000105,0.0,0.0,-87563.0,0.0,0.0,0.0,0.0,0.125,3.858642183,0.0,0.0,6010.0,0.0,0.0,-0.0,0.0,0.0,1.979980266,0.0,0.0,49726.0,0.0,0.0,0.0,0.0,0.0,4.906005357000001,0.0,0.0,40133.0,0.0,0.0,-0.0,0.0,0.0,2.91748017,0.0,0.0,0.8899999856948853,0.3700000047683716,-0.019999999552965164,0.00579833984375,0.01336669921875,0.99932861328125,35.15999984741211,0.0,0.0,-6.7770843505859375,-7.1715087890625,Waiting,0.0,0.0,-136640.0,0.0,0.0,0.0,0.0,0.0,
2.0811510000000126,0.0,0.0,-87563.0,0.0,0.0,0.0,0.0,0.125,3.858642183,0.0,0.0,6010.0,0.0,0.0,-0.0,0.0,0.0,1.979980266,0.0,0.0,49726.0,0.0,0.0,0.0,0.0,0.0,4.908446763000001,0.0,0.0,40133.0,0.0,0.0,-0.0,0.0,0.0,2.916259467,0.0,0.0,0.8899999856948853,0.3799999952316284,-0.019999999552965164,0.00469970703125,0.01629638671875,0.99371337890625,35.15999984741211,0.0,-1.0,-6.7770843505859375,-7.1715087890625,Waiting,0.0,0.0,-136640.0,0.0,0.0,0.0,0.0,0.0,
2.101830000000002,0.0,0.0,-87563.0,0.0,0.0,0.0,0.0,0.125,3.859862886,0.0,0.0,6010.0,0.0,0.0,-0.0,0.0,0.0,1.978759563,0.0,0.0,49726.0,0.0,0.0,0.0,0.0,0.0,4.90722606,0.0,0.0,40133.0,0.0,0.0,-0.0,0.0,0.0,2.91748017,0.0,0.0,0.8899999856948853,0.3700000047683716,-0.019999999552965164,0.0064697265625,0.01617431640625,0.9970703125,35.15999984741211,0.0,0.0,-6.7770843505859375,-7.1715087890625,Waiting,0.0,0.0,-136640.0,0.0,0.0,0.0,0.0,0.0,
2.120343000000008,0.0,0.0,-87563.0,0.0,0.0,0.0,0.0,0.125,3.858642183,0.0,0.0,6010.0,0.0,0.0,-0.0,0.0,0.0,1.979980266,0.0,0.0,49726.0,0.0,0.0,0.0,0.0,0.0,4.908446763000001,0.0,0.0,40133.0,0.0,0.0,-0.0,0.0,0.0,2.915038764,0.0,0.0,0.8999999761581421,0.3799999952316284,-0.019999999552965164,0.0074462890625,0.01495361328125,0.9981689453125,35.15999984741211,0.0,0.0,-6.7770843505859375,-7.1715087890625,Waiting,0.0,0.0,-136640.0,0.0,0.0,0.0,0.0,0.0,
2.1415570000000006,0.0,0.0,-87563.0,0.0,0.0,0.0,0.0,0.125,3.85742148,0.0,0.0,6010.0,0.0,0.0,-0.0,0.0,0.0,1.979980266,0.0,0.0,49726.0,0.0,0.0,0.0,0.0,0.0,4.906005357000001,0.0,0.0,40133.0,0.0,0.0,-0.0,0.0,0.0,2.916259467,0.0,0.0,0.8899999856948853,0.3700000047683716,-0.019999999552965164,0.0068359375,0.0140380859375,0.9969482421875,35.15999984741211,0.0,0.0,-6.7770843505859375,-7.1715087890625,Waiting,0.0,0.0,-136640.0,0.0,0.0,0.0,0.0,0.0,
2.1618590000000113,0.0,0.0,-87563.0,0.0,0.0,0.0,0.0,0.125,3.858642183,0.0,0.0,6010.0,0.0,0.0,-0.0,0.0,0.0,1.978759563,0.0,0.0,49726.0,0.0,0.0,0.0,0.0,0.0,4.909667466,0.0,0.0,40133.0,0.0,0.0,-0.0,0.0,0.0,2.915038764,0.0,0.0,0.8899999856948853,0.3700000047683716,-0.019999999552965164,0.00653076171875,0.01531982421875,1.0009765625,35.15999984741211,0.0,0.0,-6.7770843505859375,-7.1715087890625,Waiting,0.0,0.0,-136640.0,0.0,0.0,0.0,0.0,0.0,
2.181395000000004,0.0,0.0,-87563.0,0.0,0.0,0.0,0.0,0.125,3.853759371,0.0,0.0,6010.0,0.0,0.0,-0.0,0.0,0.0,1.978759563,0.0,0.0,49726.0,0.0,0.0,0.0,0.0,0.0,4.90722606,0.0,0.0,40133.0,0.0,0.0,-0.0,0.0,0.0,2.915038764,0.0,0.0,0.8899999856948853,0.3700000047683716,-0.019999999552965164,0.005859375,0.0142822265625,0.996337890625,35.15999984741211,0.0,0.0,-6.7770843505859375,-7.1715087890625,Closing,0.0,0.0,-136640.0,0.0,0.0,0.0,0.0,0.0,
2.2015610000000017,0.0,0.0,-87563.0,0.0,0.0,0.0,0.0,0.125,3.858642183,0.0,0.0,6010.0,0.0,0.0,-0.0,0.0,0.0,1.978759563,0.0,0.0,49726.0,0.0,0.0,0.0,0.0,0.0,4.90722606,0.0,0.0,40133.0,0.0,0.0,-0.0,0.0,0.0,2.915038764,0.0,0.0,0.8999999761581421,0.3700000047683716,-0.019999999552965164,0.00634765625,0.0164794921875,1.0032958984375,35.15999984741211,0.0,0.0,-6.7770843505859375,-7.1715087890625,Closing,0.0,0.0,-136640.0,0.0,0.0,0.0,0.0,0.0,
2.2223070000000007,0.0,0.0,-87563.0,0.0,0.0,0.0,0.0,0.125,3.858642183,0.0,0.0,6010.0,0.0,0.0,-0.0,0.0,0.0,1.979980266,0.0,0.0,49726.0,0.0,0.0,0.0,0.0,0.0,4.90722606,0.0,0.0,40133.0,0.0,0.0,-0.0,0.0,0.0,2.915038764,0.0,0.0,0.8999999761581421,0.3700000047683716,-0.019999999552965164,0.0130615234375,0.01025390625,1.004150390625,35.15999984741211,0.0,6.0,-6.7770843505859375,-7.1715087890625,Closing,0.0,0.0,-136640.0,0.0,0.0,0.0,0.0,0.0,
2.2412000000000116,0.0,0.0,-87563.0,0.0,0.0,0.0,0.0,0.125,3.85742148,0.0,0.0,6010.0,0.0,0.0,-0.0,0.0,0.0,1.979980266,0.0,0.0,49726.0,0.0,0.0,0.0,0.0,0.0,4.908446763000001,0.0,0.0,40133.0,0.0,0.0,-0.0,0.0,0.0,2.916259467,0.0,0.0,0.8899999856948853,0.3799999952316284,-0.019999999552965164,0.005859375,0.017333984375,1.012939453125,35.15999984741211,0.0,0.0,-6.7770843505859375,-7.1715087890625,Closing,0.0,0.0,-136640.0,0.0,0.0,0.0,0.0,0.0,
2.2603840000000055,0.0,0.0,-87563.0,0.0,0.0,0.0,0.0,0.125,3.858642183,0.0,0.0,6010.0,0.0,0.0,-0.0,0.0,0.0,1.978759563,0.0,0.0,49726.0,0.0,0.0,0.0,0.0,0.0,4.90722606,0.0,0.0,40133.0,0.0,0.0,-0.0,0.0,0.0,2.915038764,0.0,0.0,0.8899999856948853,0.3799999952316284,-0.019999999552965164,0.0068359375,0.00390625,0.990966796875,35.15999984741211,0.0,0.0,-6.7770843505859375,-7.1715087890625,Closing,0.0,0.0,-136640.0,0.0,0.0,0.0,0.0,0.0,
2.2818940000000003,0.0,0.0,-87563.0,0.0,0.0,0.0,0.0,0.125,3.864745698,0.0,0.0,6010.0,0.0,0.0,-0.0,0.0,0.0,1.978759563,0.0,0.0,49726.0,0.0,0.0,0.0,0.0,0.0,4.906005357000001,0.0,0.0,40133.0,0.0,0.0,-0.0,0.0,0.0,2.913818061,0.0,0.0,0.8999999761581421,0.3700000047683716,-0.019999999552965164,0.003173828125,0.011962890625,1.00982666015625,35.15999984741211,0.0,-3.0,-6.7770843505859375,-7.1715087890625,Closing,0.0,0.0,-136640.0,0.0,0.0,0.0,0.0,0.0,
2.3014520000000047,0.0,0.0,-87563.0,0.0,0.0,0.0,0.0,0.125,3.858642183,0.0,0.0,6010.0,0.0,0.0,-0.0,0.0,0.0,1.978759563,0.0,0.0,49726.0,0.0,0.0,0.0,0.0,0.0,4.908446763000001,0.0,0.0,40133.0,0.0,0.0,-0.0,0.0,0.0,2.916259467,0.0,0.0,0.8999999761581421,0.3700000047683716,-0.019999999552965164,0.003662109375,0.02642822265625,0.99981689453125,35.15999984741211,0.0,-2.0,-6.7770843505859375,-7.1715087890625,Closing,0.0,0.0,-136640.0,0.0,0.0,0.0,0.0,0.0,
2.3206870000000053,0.0,0.0,-87563.0,0.0,0.0,0.0,0.0,0.125,3.858642183,0.0,0.0,6010.0,0.0,0.0,-0.0,0.0,0.0,1.978759563,0.0,0.0,49726.0,0.0,0.0,0.0,0.0,0.0,4.908446763000001,0.0,0.0,40133.0,0.0,0.0,-0.0,0.0,0.0,2.916259467,0.0,0.0,0.9100000262260437,0.3700000047683716,-0.019999999552965164,0.00628662109375,-0.00164794921875,0.99365234375,35.15999984741211,0.0,0.0,-6.7770843505859375,-7.1715087890625,Closing,0.0,0.0,-136640.0,0.0,0.0,0.0,0.0,0.0,
2.340596000000005,0.0,0.0,-87563.0,0.0,0.0,0.0,0.0,0.125,3.858642183,0.0,0.0,6010.0,0.0,0.0,-0.0,0.0,0.0,1.979980266,0.0,0.0,49726.0,0.0,0.0,0.0,0.0,0.0,4.908446763000001,0.0,0.0,40133.0,0.0,0.0,-0.0,0.0,0.0,2.915038764,0.0,0.0,0.9100000262260437,0.3799999952316284,-0.019999999552965164,0.00604248046875,0.00982666015625,0.9891357421875,35.15999984741211,0.0,0.0,-6.7770843505859375,-7.1715087890625,Closing,0.0,0.0,-136640.0,0.0,0.0,0.0,0.0,0.0,
2.361524000000005,0.0,0.0,-87563.0,0.0,0.0,0.0,0.0,0.125,3.85742148,0.0,0.0,6010.0,0.0,0.0,-0.0,0.0,0.0,1.978759563,0.0,0.0,49726.0,0.0,0.0,0.0,0.0,0.0,4.90722606,0.0,0.0,40133.0,0.0,0.0,-0.0,0.0,0.0,2.916259467,0.0,0.0,0.8999999761581421,0.3700000047683716,-0.019999999552965164,0.00982666015625,0.0245361328125,0.9915771484375,35.15999984741211,0.0,3.0,-6.7770843505859375,-7.1715087890625,Closing,0.0,0.0,-136640.0,0.0,0.0,0.0,0.0,0.0,
2.381827000000005,0.0,0.0,-87563.0,0.0,0.0,0.0,0.0,0.125,3.858642183,0.0,0.0,6010.0,0.0,0.0,-0.0,0.0,0.0,1.978759563,0.0,0.0,49726.0,0.0,0.0,0.0,0.0,0.0,4.908446763000001,0.0,0.0,40133.0,0.0,0.0,-0.0,0.0,0.0,2.915038764,0.0,0.0,0.9100000262260437,0.3700000047683716,-0.019999999552965164,0.00592041015625,0.01031494140625,0.9989013671875,35.16999816894531,0.0,0.0,-6.7770843505859375,-7.1715087890625,Closing,0.0,0.0,-136640.0,0.0,0.0,0.0,0.0,0.0,
2.4014940000000062,0.0,0.0,-87563.0,0.0,0.0,0.0,0.0,0.125,3.858642183,0.0,0.0,6010.0,0.0,0.0,-0.0,0.0,0.0,1.978759563,0.0,0.0,49726.0,0.0,0.0,0.0,0.0,0.0,4.90722606,0.0,0.0,40133.0,0.0,0.0,-0.0,0.0,0.0,2.912597358,0.0,0.0,0.8999999761581421,0.36000001430511475,-0.019999999552965164,0.00634765625,0.01202392578125,0.995849609375,35.16999816894531,0.0,0.0,-6.7770843505859375,-7.1715087890625,Closing,0.0,0.0,-136640.0,0.0,0.0,0.0,0.0,0.0,
2.420816000000006,0.0,0.0,-87563.0,0.0,0.0,0.0,0.0,0.125,3.858642183,0.0,0.0,6010.0,0.0,0.0,-0.0,0.0,0.0,1.979980266,0.0,0.0,49726.0,0.0,0.0,0.0,0.0,0.0,4.90722606,0.0,0.0,40133.0,0.0,0.0,-0.0,0.0,0.0,2.916259467,0.0,0.0,0.8999999761581421,0.36000001430511475,-0.019999999552965164,0.014892578125,0.0096435546875,0.992431640625,35.16999816894531,0.0,8.0,-6.7770843505859375,-7.1715087890625,Closing,0.0,0.0,-136640.0,0.0,0.0,0.0,0.0,0.0,
2.441495999999999,0.0,0.0,-87563.0,0.0,0.0,0.0,0.0,0.125,3.858642183,0.0,0.0,6010.0,0.0,0.0,-0.0,0.0,0.0,1.979980266,0.0,0.0,49726.0,0.0,0.0,0.0,0.0,0.0,4.906005357000001,0.0,0.0,40133.0,0.0,0.0,-0.0,0.0,0.0,2.915038764,0.0,0.0,0.8999999761581421,0.3700000047683716,-0.019999999552965164,0.00811767578125,0.016845703125,1.005859375,35.16999816894531,0.0,1.0,-6.7770843505859375,-7.1715087890625,Closing,0.0,0.0,-136640.0,0.0,0.0,0.0,0.0,0.0,
2.461050000000003,0.0,0.0,-87563.0,0.0,0.0,0.0,0.0,0.125,3.858642183,0.0,0.0,6010.0,0.0,0.0,-0.0,0.0,0.0,1.978759563,0.0,0.0,49726.0,0.0,0.0,0.0,0.0,0.0,4.908446763000001,0.0,0.0,40133.0,0.0,0.0,-0.0,0.0,0.0,2.916259467,0.0,0.0,0.8999999761581421,0.3700000047683716,-0.019999999552965164,0.00372314453125,0.00146484375,1.015869140625,35.16999816894531,0.0,-2.0,-6.7770843505859375,-7.1715087890625,Closing,0.0,0.0,-136640.0,0.0,0.0,0.0,0.0,0.0,
2.4817160000000005,0.0,0.0,-87563.0,0.0,0.0,0.0,0.0,0.125,3.8952632730000003,0.0,0.0012207029999999897,6010.0,0.0,0.0,-0.0,0.0,0.0,1.979980266,0.0,0.0,49726.0,0.0,0.0,0.0,0.0,0.0,4.908446763000001,0.0,0.0,40133.0,0.0,0.0,-0.0,0.0,0.0,2.916259467,0.0,0.0,0.8999999761581421,0.36000001430511475,-0.019999999552965164,0.00250244140625,0.013427734375,0.98297119140625,35.16999816894531,0.0,-3.0,-6.7770843505859375,-7.1715087890625,Closing,0.0,0.0,-136640.0,0.0,0.0,0.0,0.0,0.0,
2.5014270000000107,0.0,0.0,-87563.0,0.0,0.0,0.0,0.0,0.125,3.858642183,0.0,0.0012207029999999897,6010.0,0.0,0.0,-0.0,0.0,0.0,1.978759563,0.0,0.0,49726.0,0.0,0.0,0.0,0.0,0.0,4.908446763000001,0.0,0.0,40133.0,0.0,0.0,-0.0,0.0,0.0,2.915038764,0.0,0.0,0.8999999761581421,0.36000001430511475,-0.019999999552965164,0.006591796875,0.0096435546875,0.9832763671875,35.16999816894531,0.0,0.0,-6.7770843505859375,-7.1715087890625,Closing,0.0,0.0,-136640.0,0.0,0.0,0.0,0.0,0.0,
2.521024000000005,0.0,0.0,-87563.0,0.0,0.0,0.0,0.0,0.125,3.85742148,0.0,0.0012207029999999897,6010.0,0.0,0.0,-0.0,0.0,0.0,1.978759563,0.0,0.0,49726.0,0.0,0.0,0.0,0.0,0.0,4.908446763000001,0.0,0.0,40133.0,0.0,0.0,-0.0,0.0,0.0,2.915038764,0.0,0.0,0.8999999761581421,0.3700000047683716,-0.019999999552965164,0.018798828125,0.01171875,1.0198974609375,35.16999816894531,0.0,-1.0,-6.7770843505859375,-7.1715087890625,Closing,0.0,0.0,-136640.0,0.0,0.0,0.0,0.0,0.0,
2.541237000000008,0.0,0.0,-87563.0,0.0,0.0,0.0,0.0,0.125,3.858642183,0.0,-0.0012207029999999897,6010.0,0.0,0.0,-0.0,0.0,0.0,1.979980266,0.0,0.0,49726.0,0.0,0.0,0.0,0.0,0.0,4.909667466,0.0,0.0,40133.0,0.0,0.0,-0.0,0.0,0.0,2.915038764,0.0,0.0,0.8899999856948853,0.3700000047683716,-0.019999999552965164,0.01507568359375,0.01507568359375,0.9903564453125,35.16999816894531,0.0,8.0,-6.7770843505859375,-7.1715087890625,Closing,0.0,0.0,-136640.0,0.0,0.0,0.0,0.0,0.0,
2.5611880000000093,0.0,0.0,-87563.0,0.0,0.0,0.0,0.0,0.125,3.85742148,0.0,-0.0012207029999999897,6010.0,0.0,0.0,-0.0,0.0,0.0,1.979980266,0.0,0.0,49726.0,0.0,0.0,0.0,0.0,0.0,4.908446763000001,0.0,0.0,40133.0,0.0,0.0,-0.0,0.0,0.0,2.916259467,0.0,0.0,0.8899999856948853,0.3700000047683716,-0.019999999552965164,-0.00311279296875,0.0068359375,1.00518798828125,35.16999816894531,0.0,-9.0,-6.7770843505859375,-7.1715087890625,Closing,0.0,0.0,-136640.0,0.0,0.0,0.0,0.0,0.0,
2.581846000000005,0.0,0.0,-87563.0,0.0,0.0,0.0,0.0,0.125,3.823241796,0.0,0.0012207029999999897,6010.0,0.0,0.0,-0.0,0.0,0.0,1.978759563,0.0,0.0,49726.0,0.0,0.0,0.0,0.0,0.0,4.90722606,0.0,0.0,40133.0,0.0,0.0,-0.0,0.0,0.0,2.916259467,0.0,0.0,0.8999999761581421,0.3700000047683716,-0.019999999552965164,0.00726318359375,0.03289794921875,1.0084228515625,35.16999816894531,0.0,0.0,-6.7770843505859375,-7.1715087890625,Closing,0.0,0.0,-136640.0,0.0,0.0,0.0,0.0,0.0,
2.6018899999999996,0.0,0.0,-87563.0,0.0,0.0,0.0,0.0,0.125,3.858642183,0.0,0.0012207029999999897,6010.0,0.0,0.0,-0.0,0.0,0.0,1.978759563,0.0,0.0,49726.0,0.0,0.0,0.0,0.0,0.0,4.908446763000001,0.0,0.0,40133.0,0.0,0.0,-0.0,0.0,0.0,2.913818061,0.0,0.0,0.8899999856948853,0.3700000047683716,-0.019999999552965164,0.008056640625,0.024169921875,0.9951171875,35.16999816894531,0.0,1.0,-6.7770843505859375,-7.1715087890625,Closing,0.0,0.0,-136640.0,0.0,0.0,0.0,0.0,0.0,
2.621661000000007,0.0,0.0,-87563.0,0.0,0.0,0.0,0.0,0.125,3.8439937470000003,0.0,0.0012207029999999897,6010.0,0.0,0.0,-0.0,0.0,0.0,1.978759563,0.0,0.0,49726.0,0.0,0.0,0.0,0.0,0.0,4.90722606,0.0,0.0,40133.0,0.0,0.0,-0.0,0.0,0.0,2.916259467,0.0,0.0,0.8999999761581421,0.3700000047683716,-0.019999999552965164,0.01055908203125,0.01239013671875,0.98858642578125,35.16999816894531,0.0,4.0,-6.7770843505859375,-7.1715087890625,Closing,0.0,0.0,-136640.0,0.0,0.0,0.0,0.0,0.0,
2.6409049999999987,0.0,0.0,-87563.0,0.0,0.0,0.0,0.0,0.125,3.854980074,0.0,0.0,6010.0,0.0,0.0,-0.0,0.0,0.0,1.978759563,0.0,0.0,49726.0,0.0,0.0,0.0,0.0,0.0,4.908446763000001,0.0,0.0012207030000004337,40133.0,0.0,0.0,-0.0,0.0,0.0,2.915038764,0.0,0.0,0.8999999761581421,0.3700000047683716,-0.019999999552965164,0.00592041015625,0.03387451171875,0.97296142578125,35.16999816894531,0.0,0.0,-6.7770843505859375,-7.1715087890625,Closing,0.0,0.0,-136640.0,0.0,0.0,0.0,0.0,0.0,
2.667671000000002,0.0,0.0,-87563.0,0.0,0.0,0.0,0.0,0.125,3.85742148,0.0,0.0,6010.0,0.0,0.0,-0.0,0.0,0.0,1.978759563,0.0,0.0,49726.0,0.0,0.0,0.0,0.0,0.0,4.908446763000001,0.0,0.0012207030000004337,40133.0,0.0,0.0,-0.0,0.0,0.0,2.916259467,0.0,0.0,0.8999999761581421,0.36000001430511475,-0.019999999552965164,0.00347900390625,0.02374267578125,0.98944091796875,35.16999816894531,0.0,-2.0,-6.7770843505859375,-7.1715087890625,Closing,0.0,0.0,-136640.0,0.0,0.0,0.0,0.0,0.0,
2.6884730000000125,0.0,0.0,-87563.0,0.0,0.0,0.0,0.0,0.125,3.858642183,0.0,-0.0012207029999999897,6010.0,0.0,0.0,-0.0,0.0,0.0,1.979980266,0.0,0.0,49726.0,0.0,0.0,0.0,0.0,0.0,4.909667466,0.0,0.0,40133.0,0.0,0.0,-0.0,0.0,0.0,2.915038764,0.0,0.0,0.8999999761581421,0.36000001430511475,-0.019999999552965164,4.2724609375E-4,0.01263427734375,1.00897216796875,35.16999816894531,0.0,-6.0,-6.7770843505859375,-7.1715087890625,Closing,0.0,0.0,-136640.0,0.0,0.0,0.0,0.0,0.0,
2.7080610000000016,0.0,0.0,-87563.0,0.0,0.0,0.0,0.0,0.125,3.858642183,0.0,-0.0012207029999999897,6010.0,0.0,0.0,-0.0,0.0,0.0,1.978759563,0.0,0.0,49726.0,0.0,0.0,0.0,0.0,0.0,4.908446763000001,0.0,0.0,40133.0,0.0,0.0,-0.0,0.0,0.0,2.916259467,0.0,0.0,0.8999999761581421,0.36000001430511475,-0.019999999552965164,0.00958251953125,0.0279541015625,0.9962158203125,35.16999816894531,0.0,3.0,-6.7770843505859375,-7.1715087890625,Closing,0.0,0.0,-136640.0,0.0,0.0,0.0,0.0,0.0,
2.7270590000000086,0.0,0.0,-87563.0,0.0,0.0,0.0,0.0,0.125,3.85742148,0.0,-0.0012207029999999897,6010.0,0.0,0.0,-0.0,0.0,0.0,1.978759563,0.0,0.0,49726.0,0.0,0.0,0.0,0.0,0.0,4.90722606,0.0,0.0,40133.0,0.0,0.0,-0.0,0.0,0.0,2.9077145460000002,0.0,0.0,0.8999999761581421,0.36000001430511475,-0.019999999552965164,0.0029296875,0.01171875,1.00299072265625,35.16999816894531,0.0,-3.0,-6.7770843505859375,-7.1715087890625,Closing,0.0,0.0,-136640.0,0.0,0.0,0.0,0.0,0.0,
2.7474030000000056,0.0,0.0,-87563.0,0.0,0.0,0.0,0.0,0.125,3.858642183,0.0,0.0,6010.0,0.0,0.0,-0.0,0.0,0.0,1.978759563,0.0,0.0,49726.0,0.0,0.0,0.0,0.0,0.0,4.90722606,0.0,-0.0012207030000004337,40133.0,0.0,0.0,-0.0,0.0,0.0,2.916259467,0.0,0.0,0.8999999761581421,0.36000001430511475,-0.019999999552965164,0.00341796875,0.01165771484375,0.994140625,35.16999816894531,0.0,-2.0,-6.7770843505859375,-7.1715087890625,Closing,0.0,0.0,-136640.0,0.0,0.0,0.0,0.0,0.0,
2.767471000000005,0.0,0.0,-87563.0,0.0,0.0,0.0,0.0,0.125,3.858642183,0.0,0.0,6010.0,0.0,0.0,-0.0,0.0,0.0,1.978759563,0.0,0.0,49726.0,0.0,0.0,0.0,0.0,0.0,4.908446763000001,0.0,-0.0012207030000004337,40133.0,0.0,0.0,-0.0,0.0,0.0,2.916259467,0.0,0.0,0.8999999761581421,0.36000001430511475,-0.019999999552965164,0.01220703125,0.01959228515625,1.0072021484375,35.16999816894531,0.0,5.0,-6.7770843505859375,-7.1715087890625,Closing,0.0,0.0,-136640.0,0.0,0.0,0.0,0.0,0.0,
2.7882220000000086,0.0,0.0,-87563.0,0.0,0.0,0.0,0.0,0.125,3.858642183,0.0,0.0,6010.0,0.0,0.0,-0.0,0.0,0.0,1.978759563,0.0,0.0,49726.0,0.0,0.0,0.0,0.0,0.0,4.908446763000001,0.0,0.0,40133.0,0.0,0.0,-0.0,0.0,0.0,2.915038764,0.0,0.0,0.8999999761581421,0.36000001430511475,-0.019999999552965164,0.00238037109375,0.00982666015625,1.0069580078125,35.16999816894531,0.0,-4.0,-6.7770843505859375,-7.1715087890625,Closing,0.0,0.0,-136640.0,0.0,0.0,0.0,0.0,0.0,
2.808143000000011,0.0,0.0,-87563.0,0.0,0.0,0.0,0.0,0.125,3.85742148,0.0,0.0,6010.0,0.0,0.0,-0.0,0.0,0.0,1.979980266,0.0,0.0,49726.0,0.0,0.0,0.0,0.0,0.0,4.909667466,0.0,0.0,40133.0,0.0,0.0,-0.0,0.0,0.0,2.916259467,0.0,0.0,0.8999999761581421,0.36000001430511475,-0.019999999552965164,0.00146484375,0.0145263671875,0.99139404296875,35.16999816894531,0.0,-4.0,-6.7770843505859375,-7.1715087890625,Closing,0.0,0.0,-136640.0,0.0,0.0,0.0,0.0,0.0,
2.8273610000000042,0.0,0.0,-87563.0,0.0,0.0,0.0,0.0,0.125,3.85742148,0.0,0.0,6010.0,0.0,0.0,-0.0,0.0,0.0,1.979980266,0.0,0.0,49726.0,0.0,0.0,0.0,0.0,0.0,4.90722606,0.0,0.0,40133.0,0.0,0.0,-0.0,0.0,0.0,2.915038764,0.0,0.0,0.8999999761581421,0.36000001430511475,-0.019999999552965164,0.0059814453125,0.0147705078125,1.00146484375,35.16999816894531,0.0,0.0,-6.7770843505859375,-7.1715087890625,Closing,0.0,0.0,-136640.0,0.0,0.0,0.0,0.0,0.0,
2.848894,0.0,0.0,-87563.0,0.0,0.0,0.0,0.0,0.125,3.85742148,0.0,0.0,6010.0,0.0,0.0,-0.0,0.0,0.0,1.978759563,0.0,0.0,49726.0,0.0,0.0,0.0,0.0,0.0,4.908446763000001,0.0,0.0012207030000004337,40133.0,0.0,0.0,-0.0,0.0,0.0,2.915038764,0.0,0.0,0.8999999761581421,0.36000001430511475,-0.019999999552965164,0.0093994140625,0.012939453125,0.99578857421875,35.16999816894531,0.0,3.0,-6.7770843505859375,-7.1715087890625,Closing,0.0,0.0,-136640.0,0.0,0.0,0.0,0.0,0.0,
2.867967000000004,0.0,0.0,-87563.0,0.0,0.0,0.0,0.0,0.125,3.85742148,0.0,0.0,6010.0,0.0,0.0,-0.0,0.0,0.0,1.978759563,0.0,0.0,49726.0,0.0,0.0,0.0,0.0,0.0,4.909667466,0.0,0.0012207030000004337,40133.0,0.0,0.0,-0.0,0.0,0.0,2.916259467,0.0,0.0,0.8999999761581421,0.36000001430511475,-0.019999999552965164,0.0076904296875,0.014404296875,0.99908447265625,35.16999816894531,0.0,1.0,-6.7770843505859375,-7.1715087890625,Closing,0.0,0.0,-136640.0,0.0,0.0,0.0,0.0,0.0,
2.8895650000000024,0.0,0.0,-87563.0,0.0,0.0,0.0,0.0,0.125,3.9025874910000002,0.0,0.0,6010.0,0.0,0.0,-0.0,0.0,0.0,1.979980266,0.0,0.0,49726.0,0.0,0.0,0.0,0.0,0.0,4.90722606,0.0,-0.0012207030000004337,40133.0,0.0,0.0,-0.0,0.0,0.0,2.916259467,0.0,0.0,0.8999999761581421,0.36000001430511475,-0.019999999552965164,0.00909423828125,0.013427734375,0.991455078125,35.13999938964844,0.0,2.0,-6.7770843505859375,-7.1715087890625,Closing,0.0,0.0,-136640.0,0.0,0.0,0.0,0.0,0.0,
2.9084530000000086,0.0,0.0,-87563.0,0.0,0.0,0.0,0.0,0.125,3.858642183,0.0,0.0,6010.0,0.0,0.0,-0.0,0.0,0.0,1.979980266,0.0,0.0,49726.0,0.0,0.0,0.0,0.0,0.0,4.90722606,0.0,-0.0012207030000004337,40133.0,0.0,0.0,-0.0,0.0,0.0,2.916259467,0.0,0.0,0.8999999761581421,0.36000001430511475,-0.019999999552965164,0.00994873046875,0.01837158203125,0.99365234375,35.13999938964844,0.0,3.0,-6.7770843505859375,-7.1715087890625,Closing,0.0,0.0,-136640.0,0.0,0.0,0.0,0.0,0.0,
2.928596000000005,0.0,0.0,-87563.0,0.0,0.0,0.0,0.0,0.125,3.85742148,0.0,0.0,6010.0,0.0,0.0,-0.0,0.0,0.0,1.979980266,0.0,0.0,49726.0,0.0,0.0,0.0,0.0,0.0,4.908446763000001,0.0,-0.0012207030000004337,40133.0,0.0,0.0,-0.0,0.0,0.0,2.916259467,0.0,0.0,0.8999999761581421,0.36000001430511475,-0.019999999552965164,0.00750732421875,0.01519775390625,1.00030517578125,35.13999938964844,0.0,1.0,-6.7770843505859375,-7.1715087890625,Closing,0.0,0.0,-136640.0,0.0,0.0,0.0,0.0,0.0,
2.9498570000000037,0.0,0.0,-87563.0,0.0,0.0,0.0,0.0,0.125,3.85742148,0.0,0.0,6010.0,0.0,0.0,-0.0,0.0,0.0,1.979980266,0.0,0.0,49726.0,0.0,0.0,0.0,0.0,0.0,4.908446763000001,0.0,0.0012207030000004337,40133.0,0.0,0.0,-0.0,0.0,0.0,2.915038764,0.0,0.0,0.8999999761581421,0.36000001430511475,-0.019999999552965164,0.00604248046875,0.01068115234375,0.99713134765625,35.13999938964844,0.0,2.0,-6.7770843505859375,-7.1715087890625,Closing,0.0,0.0,-136640.0,0.0,0.0,0.0,0.0,0.0,
2.9684110000000072,0.0,0.0,-87563.0,0.0,0.0,0.0,0.0,0.125,3.858642183,0.0,0.0,6010.0,0.0,0.0,-0.0,0.0,0.0,1.978759563,0.0,0.0,49726.0,0.0,0.0,0.0,0.0,0.0,4.90722606,0.0,0.0012207030000004337,40133.0,0.0,0.0,-0.0,0.0,0.0,2.916259467,0.0,0.0,0.8999999761581421,0.36000001430511475,-0.019999999552965164,0.0064697265625,0.01641845703125,1.0015869140625,35.13999938964844,0.0,0.0,-6.7770843505859375,-7.1715087890625,Closing,0.0,0.0,-136640.0,0.0,0.0,0.0,0.0,0.0,
2.990540000000008,0.0,0.0,-87563.0,0.0,0.0,0.0,0.0,0.125,3.85742148,0.0,0.0,6010.0,0.0,0.0,-0.0,0.0,0.0,1.979980266,0.0,0.0,49726.0,0.0,0.0,0.0,0.0,0.0,4.909667466,0.0,-0.0012207030000004337,40133.0,0.0,0.0,-0.0,0.0,0.0,2.915038764,0.0,0.0,0.8999999761581421,0.36000001430511475,-0.019999999552965164,0.00311279296875,0.00927734375,0.99224853515625,35.13999938964844,0.0,-3.0,-6.7770843505859375,-7.1715087890625,Closing,0.0,0.0,-136640.0,0.0,0.0,0.0,0.0,0.0,
3.0095650000000025,0.0,0.0,-87563.0,0.0,0.0,0.0,0.0,0.125,3.867187104,0.0,0.0,6010.0,0.0,0.0,-0.0,0.0,0.0,1.978759563,0.0,0.0,49726.0,0.0,0.0,0.0,0.0,0.0,4.909667466,0.0,-0.0012207030000004337,40133.0,0.0,0.0,-0.0,0.0,0.0,2.916259467,0.0,0.0,0.8999999761581421,0.36000001430511475,-0.019999999552965164,0.0059814453125,0.0174560546875,1.00152587890625,35.13999938964844,0.0,0.0,-6.7770843505859375,-7.1715087890625,Closing,0.0,0.0,-136640.0,0.0,0.0,0.0,0.0,0.0,
