Time,ClimberA1,ClimberA2,FRpos,FRCurrent,FRspeed,FRsetpoint,FRApos,FRACurrent,FREncpos,FREncSetpoint,FREncSpeed,FLpos,FLCurrent,FLspeed,FLsetpoint,FLApos,FLACurrent,FLEncpos,FLEncSetpoint,FLEncSpeed,BRpos,BRCurrent,BRspeed,BRsetpoint,BRApos,BRACurrent,BREncpos,BREncSetpoint,BREncSpeed,BLpos,BLCurrent,BLspeed,BLsetpoint,BLApos,BLACurrent,BLEncpos,BLEncSetpoint,BLEncSpeed,navx_Pitch,navx_Roll,navx_Yaw,navx_XAcc,navx_YAcc,navx_ZAcc,navx_Temp,navx_Bar,navx_Alt,navx_XDis,navx_YDis,GearPlacerState,ShootOutputV,ShootOutputCurrent,ShootEncPos,ShootEncVelocity,ShootSpeed,ShootSetpoint,CarouselSetpoint,CarouselCurrent,
0.14940499999996973,0.0,0.0,21.0,0.0,0.0,0.0,0.0,0.125,4.152831606,0.0,0.0,346.0,0.0,0.0,-0.0,0.0,0.0,2.042236119,0.0,0.0,37.0,0.0,0.0,0.0,0.0,0.0,4.686278817,0.0,0.0,-93.0,0.0,0.0,-0.0,0.0,0.0,3.0126950040000002,0.0,0.0,1.0199999809265137,0.10000000149011612,0.0,0.001953125,0.01873779296875,1.001953125,33.869998931884766,0.0,0.0,-0.0212554931640625,-0.415130615234375,Waiting,0.0,0.0,-223080.0,0.0,0.0,0.0,0.0,0.0,
0.23182600000000092,0.0,0.0,21.0,0.0,0.0,0.0,0.0,0.125,4.154052309,0.0,0.0,346.0,0.0,0.0,-0.0,0.0,0.0,2.042236119,0.0,0.0,37.0,0.0,0.0,0.0,0.0,0.0,4.698485847000001,0.0,0.0,-93.0,0.0,0.0,-0.0,0.0,0.0,3.0126950040000002,0.0,0.0,1.0199999809265137,0.10999999940395355,0.0,0.00286865234375,0.02325439453125,0.99658203125,33.869998931884766,0.0,0.0,-0.0212554931640625,-0.415130615234375,Waiting,0.0,0.0,-223080.0,0.0,0.0,0.0,0.0,0.0,
0.32441399999998977,0.0,0.0,21.0,0.0,0.0,0.0,0.0,0.0,4.154052309,0.0,0.0,346.0,0.0,0.0,-0.0,0.0,0.0,2.042236119,0.0,0.0,37.0,0.0,0.0,0.0,0.0,0.0,4.686278817,0.0,0.0,-93.0,0.0,0.0,-0.0,0.0,0.0,3.0126950040000002,0.0,0.0,1.0199999809265137,0.10999999940395355,0.0,-1.220703125E-4,0.01617431640625,1.0025634765625,33.869998931884766,0.0,-2.0,-0.0212554931640625,-0.415130615234375,Waiting,0.0,0.0,-223080.0,0.0,0.0,0.0,0.0,0.0,
0.4100779999999795,0.0,0.0,21.0,0.0,0.0,0.0,0.0,0.0,4.152831606,0.0,0.0,346.0,0.0,0.0,-0.0,0.0,0.0,2.043456822,0.0,0.0,37.0,0.0,0.0,0.0,0.0,0.0,4.68749952,0.0,-0.0012207029999995456,-93.0,0.0,0.0,-0.0,0.0,0.0,3.0126950040000002,0.0,0.0,1.0199999809265137,0.10999999940395355,0.0,0.0025634765625,0.01708984375,0.99859619140625,33.869998931884766,0.0,0.0,-0.0212554931640625,-0.415130615234375,Waiting,0.0,0.0,-223080.0,0.0,0.0,0.0,0.0,0.0,
0.49691199999995295,0.0,0.0,21.0,0.0,0.0,0.0,0.0,0.125,4.147948794,0.0,0.0,346.0,0.0,0.0,-0.0,0.0,0.0,2.041015416,0.0,0.0,37.0,0.0,0.0,0.0,0.0,0.0,4.686278817,0.0,0.0,-93.0,0.0,0.0,-0.0,0.0,0.0,3.0126950040000002,0.0,0.0,1.0199999809265137,0.10999999940395355,0.0,-6.7138671875E-4,0.02197265625,1.00177001953125,33.869998931884766,0.0,-2.0,-0.0212554931640625,-0.415130615234375,Waiting,0.0,0.0,-223080.0,0.0,0.0,0.0,0.0,0.0,
0.5861689999999944,0.0,0.0,21.0,0.0,0.0,0.0,0.0,0.125,4.152831606,0.0,0.0,346.0,0.0,0.0,-0.0,0.0,0.0,2.041015416,0.0,0.0,37.0,0.0,0.0,0.0,0.0,0.0,4.686278817,0.0,0.0,-93.0,0.0,0.0,-0.0,0.0,0.0,3.0126950040000002,0.0,0.0,1.0199999809265137,0.10000000149011612,0.0,0.00244140625,0.01776123046875,1.00311279296875,33.869998931884766,0.0,0.0,-0.0212554931640625,-0.415130615234375,Waiting,0.0,0.0,-223080.0,0.0,0.0,0.0,0.0,0.0,
0.670744000000006,0.0,0.0,21.0,0.0,0.0,0.0,0.0,0.0,4.152831606,0.0,0.0012207030000004337,346.0,0.0,0.0,-0.0,0.0,0.0,2.042236119,0.0,0.0,37.0,0.0,0.0,0.0,0.0,0.0,4.680175302,0.0,0.0,-93.0,0.0,0.0,-0.0,0.0,0.0,3.0114743010000002,0.0,0.0,1.0199999809265137,0.10000000149011612,0.0,9.765625E-4,0.02056884765625,1.0006103515625,33.869998931884766,0.0,0.0,-0.0212554931640625,-0.415130615234375,Waiting,0.0,0.0,-223080.0,0.0,0.0,0.0,0.0,0.0,
0.756435999999987,0.0,0.0,21.0,0.0,0.0,0.0,0.0,0.125,4.154052309,0.0,-0.0012207030000004337,346.0,0.0,0.0,-0.0,0.0,0.0,2.042236119,0.0,0.0,37.0,0.0,0.0,0.0,0.0,0.0,4.686278817,0.0,0.0,-93.0,0.0,0.0,-0.0,0.0,0.0,3.0114743010000002,0.0,0.0,1.0199999809265137,0.10000000149011612,0.0,0.00225830078125,0.02069091796875,1.0028076171875,33.869998931884766,0.0,0.0,-0.0212554931640625,-0.415130615234375,Waiting,0.0,0.0,-223080.0,0.0,0.0,0.0,0.0,0.0,
0.840329999999958,0.0,0.0,21.0,0.0,0.0,0.0,0.0,0.125,4.152831606,0.0,0.0,346.0,0.0,0.0,-0.0,0.0,0.0,2.042236119,0.0,0.0,37.0,0.0,0.0,0.0,0.0,0.0,4.686278817,0.0,0.0,-93.0,0.0,0.0,-0.0,0.0,0.0,3.0114743010000002,0.0,0.0,1.0199999809265137,0.10000000149011612,0.0,6.7138671875E-4,0.0157470703125,1.0010986328125,33.86000061035156,0.0,-1.0,-0.0212554931640625,-0.415130615234375,Waiting,0.0,0.0,-223080.0,0.0,0.0,0.0,0.0,0.0,
0.9290270000000018,0.0,0.0,21.0,0.0,0.0,0.0,0.0,0.125,4.152831606,0.0,0.0,346.0,0.0,0.0,-0.0,0.0,0.0,2.041015416,0.0,0.0,37.0,0.0,0.0,0.0,0.0,0.0,4.68749952,0.0,0.0,-93.0,0.0,0.0,-0.0,0.0,0.0,3.0126950040000002,0.0,0.0,1.0199999809265137,0.10000000149011612,0.0,0.00274658203125,0.01690673828125,1.0052490234375,33.86000061035156,0.0,0.0,-0.0212554931640625,-0.415130615234375,Waiting,0.0,0.0,-223080.0,0.0,0.0,0.0,0.0,0.0,
1.0128929999999818,0.0,0.0,21.0,0.0,0.0,0.0,0.0,0.125,4.152831606,0.0,0.0,346.0,0.0,0.0,-0.0,0.0,0.0,2.042236119,0.0,0.0,37.0,0.0,0.0,0.0,0.0,0.0,4.691161629000001,0.0,0.0012207029999995456,-93.0,0.0,0.0,-0.0,0.0,0.0,3.0126950040000002,0.0,0.0,1.0199999809265137,0.10000000149011612,0.0,8.544921875E-4,0.01715087890625,1.001708984375,33.86000061035156,0.0,0.0,-0.0212554931640625,-0.415130615234375,Waiting,0.0,0.0,-223080.0,0.0,0.0,0.0,0.0,0.0,
1.0949049999999698,0.0,0.0,21.0,0.0,0.0,0.0,0.0,0.125,4.152831606,0.0,0.0,346.0,0.0,0.0,-0.0,0.0,0.0,2.042236119,0.0,0.0,37.0,0.0,0.0,0.0,0.0,0.0,4.686278817,0.0,0.0,-93.0,0.0,0.0,-0.0,0.0,0.0,3.0126950040000002,0.0,0.0,1.0199999809265137,0.09000000357627869,0.0,-7.9345703125E-4,0.01953125,0.997802734375,33.86000061035156,0.0,-2.0,-0.0212554931640625,-0.415130615234375,Waiting,0.0,0.0,-223080.0,0.0,0.0,0.0,0.0,0.0,
1.1804529999999795,0.0,0.0,21.0,0.0,0.0,0.0,0.0,0.0,4.152831606,0.0,0.0,346.0,0.0,0.0,-0.0,0.0,0.0,2.042236119,0.0,0.0,37.0,0.0,0.0,0.0,0.0,0.0,4.683837411,0.0,0.0,-93.0,0.0,0.0,-0.0,0.0,0.0,3.0126950040000002,0.0,0.0,1.0199999809265137,0.09000000357627869,0.0,-4.8828125E-4,0.01922607421875,1.00048828125,33.86000061035156,0.0,-2.0,-0.0212554931640625,-0.415130615234375,Waiting,0.0,0.0,-223080.0,0.0,0.0,0.0,0.0,0.0,
1.267310999999987,0.0,0.0,21.0,0.0,0.0,0.0,0.0,0.0,4.152831606,0.0,-0.0012207030000004337,346.0,0.0,0.0,-0.0,0.0,0.0,2.042236119,0.0,0.0,37.0,0.0,0.0,0.0,0.0,0.0,4.68749952,0.0,-0.0012207029999995456,-93.0,0.0,0.0,-0.0,0.0,0.0,3.0114743010000002,0.0,0.0,1.0199999809265137,0.10000000149011612,0.0,0.00323486328125,0.01409912109375,1.00341796875,33.86000061035156,0.0,1.0,-0.0212554931640625,-0.415130615234375,Waiting,0.0,0.0,-223080.0,0.0,0.0,0.0,0.0,0.0,
1.3516559999999591,0.0,0.0,21.0,0.0,0.0,0.0,0.0,0.125,4.152831606,0.0,0.0,346.0,0.0,0.0,-0.0,0.0,0.0,2.041015416,0.0,0.0,37.0,0.0,0.0,0.0,0.0,0.0,4.686278817,0.0,0.0,-93.0,0.0,0.0,-0.0,0.0,0.0,3.0126950040000002,0.0,0.0,1.0199999809265137,0.10000000149011612,0.0,-6.103515625E-5,0.020263671875,0.99945068359375,33.84000015258789,0.0,-1.0,-0.0212554931640625,-0.415130615234375,Waiting,0.0,0.0,-223080.0,0.0,0.0,0.0,0.0,0.0,
1.433862999999954,0.0,0.0,21.0,0.0,0.0,0.0,0.0,0.125,4.151610903,0.0,0.0,346.0,0.0,0.0,-0.0,0.0,0.0,2.039794713,0.0,0.0,37.0,0.0,0.0,0.0,0.0,0.0,4.686278817,0.0,0.0,-93.0,0.0,0.0,-0.0,0.0,0.0,3.0126950040000002,0.0,0.0,1.0199999809265137,0.10000000149011612,0.0,-0.00762939453125,0.00848388671875,0.97406005859375,33.84000015258789,0.0,-9.0,-0.0212554931640625,-0.415130615234375,Waiting,-10.850000000000001,90.5,-223082.0,0.0,-45.0,-1640.0,0.0,0.0,
1.531371999999974,67.875,0.0,21.0,0.0,0.0,0.0,0.0,0.125,4.152831606,0.0,0.0,346.0,0.0,0.0,-0.0,0.0,0.0,2.039794713,0.0,0.0,37.0,0.0,0.0,0.0,0.0,0.0,4.686278817,0.0,0.0,-93.0,0.0,0.0,-0.0,0.0,0.0,3.0126950040000002,0.0,0.0,1.0199999809265137,0.09000000357627869,0.0,-0.0089111328125,0.02862548828125,1.00579833984375,33.84000015258789,0.0,-10.0,-0.0212860107421875,-0.415130615234375,Waiting,-9.75,81.125,-223147.0,-39.0,-352.5,-1640.0,0.0,0.0,
1.6203519999999554,69.75,0.0,21.0,0.0,0.0,0.0,0.0,0.125,4.152831606,0.0,0.0012207030000004337,346.0,0.0,0.0,-0.0,0.0,0.0,2.043456822,0.0,0.0,37.0,0.0,0.0,0.0,0.0,0.0,4.686278817,0.0,0.0,-93.0,0.0,0.0,-0.0,0.0,0.0,3.0126950040000002,0.0,0.0,1.0,0.10000000149011612,0.0,-0.009765625,0.0313720703125,0.93695068359375,33.84000015258789,0.0,-11.0,-0.0212860107421875,-0.415130615234375,Waiting,-9.75,72.875,-223147.0,-39.0,-750.0,-1640.0,0.0,0.0,
1.708362999999954,69.75,0.0,21.0,0.0,0.0,0.0,0.0,0.125,4.152831606,0.0,-0.0012207030000004337,346.0,0.0,0.0,-0.0,0.0,0.0,2.041015416,0.0,0.0,37.0,0.0,0.0,0.0,0.0,0.0,4.688720223000001,0.0,0.0,-93.0,0.0,0.0,-0.0,0.0,0.0,3.0126950040000002,0.0,0.0,1.0299999713897705,0.07000000029802322,0.0,0.00872802734375,-0.00848388671875,1.05279541015625,33.84000015258789,0.0,7.0,-0.021240234375,-0.4150238037109375,Waiting,-9.95,63.875,-223299.0,-114.0,-1185.0,-1640.0,0.0,0.0,
1.7898449999999722,69.625,0.0,21.0,0.0,0.0,0.0,0.0,0.125,4.154052309,0.0,0.0,346.0,0.0,0.0,-0.0,0.0,0.0,2.042236119,0.0,0.0,37.0,0.0,0.0,0.0,0.0,0.0,4.686278817,0.0,0.0,-93.0,0.0,0.0,-0.0,0.0,0.0,3.0126950040000002,0.0,0.0,1.059999942779541,0.07000000029802322,0.0,0.0262451171875,-0.05120849609375,1.00518798828125,33.86000061035156,0.0,24.0,-0.0213165283203125,-0.4143218994140625,Waiting,-7.517155425219943,37.625,-223524.0,-177.0,-1477.5,-1640.0,0.0,0.0,
1.8738269999999901,64.625,0.0,21.0,0.0,0.0,0.0,0.0,0.125,4.152831606,0.0,0.0,346.0,0.0,0.0,-0.0,0.0,0.0,2.034911901,0.0,0.0,37.0,0.0,0.0,0.0,0.0,0.0,4.68749952,0.0,0.0,-93.0,0.0,0.0,-0.0,0.0,0.0,3.0126950040000002,0.0,0.0,1.0099999904632568,0.10999999940395355,0.0,0.0206298828125,-0.0863037109375,1.036865234375,33.86000061035156,0.0,18.0,-0.021240234375,-0.414825439453125,Waiting,-4.448093841642229,5.25,-223794.0,-221.0,-1672.5,-1640.0,0.0,0.0,
1.9608459999999615,27.25,0.0,21.0,0.0,0.0,0.0,0.0,0.0,4.1308589520000005,0.0,0.0,346.0,0.0,0.0,-0.0,0.0,0.0,2.042236119,0.0,0.0,37.0,0.0,0.0,0.0,0.0,0.0,4.68749952,0.0,0.0,-93.0,0.0,0.0,-0.0,0.0,0.0,3.0114743010000002,0.0,0.0,0.9800000190734863,0.11999999731779099,0.0,-0.025390625,-0.10589599609375,1.01080322265625,33.86000061035156,0.0,-27.0,-0.021087646484375,-0.419830322265625,Waiting,-4.0890029325513195,0.5,-223794.0,-221.0,-1680.0,-1640.0,0.0,0.0,
2.048134999999951,1.375,0.0,21.0,0.0,0.0,0.0,0.0,0.125,4.154052309,0.0,0.0,346.0,0.0,0.0,-0.0,0.0,0.0,2.041015416,0.0,0.0,37.0,0.0,0.0,0.0,0.0,0.0,4.686278817,0.0,0.0,-93.0,0.0,0.0,-0.0,0.0,0.0,3.0102535980000003,0.0,0.0,0.9900000095367432,0.09000000357627869,0.0,0.01361083984375,0.01025390625,1.00213623046875,33.86000061035156,0.0,11.0,-0.021209716796875,-0.4296112060546875,Waiting,-5.18475073313783,4.25,-224058.0,-222.0,-1627.5,-1640.0,0.0,0.0,
2.131820000000007,2.625,0.0,21.0,0.0,0.0,0.0,0.0,0.0,4.152831606,0.0,0.0,346.0,0.0,0.0,-0.0,0.0,0.0,2.042236119,0.0,0.0,37.0,0.0,0.0,0.0,0.0,0.0,4.68749952,0.0,0.0,-93.0,0.0,0.0,-0.0,0.0,0.0,3.0126950040000002,0.0,0.0,0.9900000095367432,0.09000000357627869,0.0,0.00408935546875,0.08673095703125,0.992431640625,33.86000061035156,0.0,2.0,-0.0215606689453125,-0.43865966796875,Waiting,-5.721212121212122,7.375,-224320.0,-214.0,-1605.0,-1640.0,0.0,0.0,
2.215960999999952,5.25,0.0,21.0,0.0,0.0,0.0,0.0,0.0,4.154052309,0.0,0.0,346.0,0.0,0.0,-0.0,0.0,0.0,2.041015416,0.0,0.0,37.0,0.0,0.0,0.0,0.0,0.0,4.686278817,0.0,0.0,-93.0,0.0,0.0,-0.0,0.0,0.0,3.0126950040000002,0.0,0.0,1.0099999904632568,0.09000000357627869,0.0,-0.03668212890625,-0.0621337890625,1.0062255859375,33.86000061035156,0.0,-38.0,-0.0215301513671875,-0.445098876953125,Waiting,-5.905767350928642,8.375,-224320.0,-214.0,-1597.5,-1640.0,0.0,0.0,
2.2992099999999627,9.125,0.0,21.0,0.0,0.0,0.0,0.0,0.125,4.154052309,0.0,0.0,346.0,0.0,0.0,-0.0,0.0,0.0,2.041015416,0.0,0.0,37.0,0.0,0.0,0.0,0.0,0.0,4.685058114,0.0,0.0,-93.0,0.0,0.0,-0.0,0.0,0.0,3.0126950040000002,0.0,0.0,1.0099999904632568,0.07999999821186066,0.0,-0.0126953125,0.071044921875,0.96282958984375,33.81999969482422,0.0,-14.0,-0.0214080810546875,-0.455474853515625,Waiting,-5.616568914956011,7.25,-224573.0,-214.0,-1612.5,-1640.0,0.0,0.0,
2.3873249999999535,8.0,0.0,21.0,0.0,0.0,0.0,0.0,0.0,4.152831606,0.0,0.0,346.0,0.0,0.0,-0.0,0.0,0.0,2.042236119,0.0,0.0,37.0,0.0,0.0,0.0,0.0,0.0,4.685058114,0.0,0.0,-93.0,0.0,0.0,-0.0,0.0,0.0,3.0126950040000002,0.0,0.0,0.9800000190734863,0.09000000357627869,0.0,-0.00201416015625,0.10369873046875,0.96563720703125,33.81999969482422,0.0,-3.0,-0.0216064453125,-0.4639739990234375,Waiting,-5.536950146627567,6.375,-224832.0,-216.0,-1620.0,-1640.0,0.0,0.0,
2.473061999999976,7.0,0.0,21.0,0.0,0.0,0.0,0.0,0.125,4.152831606,0.0,0.0,346.0,0.0,0.0,-0.0,0.0,0.0,2.042236119,0.0,0.0,37.0,0.0,0.0,0.0,0.0,0.0,4.686278817,0.0,0.0,-93.0,0.0,0.0,-0.0,0.0,0.0,3.0126950040000002,0.0,0.0,1.0099999904632568,0.09000000357627869,0.0,-0.0079345703125,-0.0911865234375,0.9793701171875,33.81999969482422,0.0,-9.0,-0.0213623046875,-0.47113037109375,Waiting,-5.548533724340176,6.625,-225092.0,-216.0,-1620.0,-1640.0,0.0,0.0,
2.565657999999996,6.875,0.0,21.0,0.0,0.0,0.0,0.0,0.125,4.152831606,0.0,-0.0012207030000004337,346.0,0.0,0.0,-0.0,0.0,0.0,2.037353307,0.0,0.0,37.0,0.0,0.0,0.0,0.0,0.0,4.686278817,0.0,0.0,-93.0,0.0,0.0,-0.0,0.0,0.0,3.0126950040000002,0.0,0.0,1.0,0.10000000149011612,0.0,-0.02020263671875,0.049072265625,1.0333251953125,33.81999969482422,0.0,-22.0,-0.021209716796875,-0.481658935546875,Waiting,-5.560117302052787,6.625,-225092.0,-216.0,-1620.0,-1640.0,0.0,0.0,
2.6473789999999573,6.875,0.0,21.0,0.0,0.0,0.0,0.0,0.125,4.152831606,0.0,0.0,346.0,0.0,0.0,-0.0,0.0,0.0,2.042236119,0.0,0.0,37.0,0.0,0.0,0.0,0.0,0.0,4.686278817,0.0,0.0,-93.0,0.0,0.0,-0.0,0.0,0.0,3.0114743010000002,0.0,0.0,0.9800000190734863,0.09000000357627869,0.0,-3.0517578125E-4,0.10003662109375,0.94696044921875,33.81999969482422,0.0,-1.0,-0.02142333984375,-0.490997314453125,Waiting,-5.559726295210167,6.625,-225352.0,-216.0,-1620.0,-1640.0,0.7,2.875,
2.7315529999999564,6.375,0.0,21.0,0.0,0.0,0.0,0.0,0.125,4.155273012,0.0,0.0,346.0,0.0,0.0,-0.0,0.0,0.0,2.042236119,0.0,0.0,37.0,0.0,0.0,0.0,0.0,0.0,4.68749952,0.0,0.0,-93.0,0.0,0.0,-0.0,0.0,0.0,3.0126950040000002,0.0,0.0,1.0099999904632568,0.09000000357627869,0.0,0.02960205078125,-0.10107421875,0.97216796875,33.81999969482422,0.0,27.0,-0.02105712890625,-0.49871826171875,Waiting,-5.618475073313783,6.875,-225611.0,-215.0,-1612.5,-1640.0,0.7,0.25,
2.816222999999998,7.25,0.0,21.0,0.0,0.0,0.0,0.0,0.0,4.157714418,0.0,-0.0012207030000004337,346.0,0.0,0.0,-0.0,0.0,0.0,2.042236119,0.0,0.0,37.0,0.0,0.0,0.0,0.0,0.0,4.686278817,0.0,0.0012207029999995456,-93.0,0.0,0.0,-0.0,0.0,0.0,3.0126950040000002,0.0,0.0,1.0099999904632568,0.09000000357627869,0.0,-0.00811767578125,-0.0052490234375,1.03997802734375,33.83000183105469,0.0,-9.0,-0.020538330078125,-0.5077362060546875,Waiting,-5.630107526881721,6.75,-225611.0,-215.0,-1620.0,-1640.0,0.7,1.125,
2.908706000000006,7.125,0.0,21.0,0.0,0.0,0.0,0.0,0.0,4.152831606,0.0,0.0012207030000004337,346.0,0.0,0.0,-0.0,0.0,0.0,2.041015416,0.0,0.0,37.0,0.0,0.0,0.0,0.0,0.0,4.686278817,0.0,0.0,-93.0,0.0,0.0,-0.0,0.0,0.0,3.0114743010000002,0.0,0.0,1.0,0.09000000357627869,0.0,-7.9345703125E-4,0.061279296875,1.001220703125,33.83000183105469,0.0,-2.0,-0.0211029052734375,-0.5181732177734375,Waiting,-5.605865102639297,6.75,-225871.0,-216.0,-1620.0,-1640.0,0.7,2.75,
2.9917660000000033,6.5,0.0,21.0,0.0,0.0,0.0,0.0,0.125,4.152831606,0.0,0.0,346.0,0.0,0.0,-0.0,0.0,0.0,2.041015416,0.0,0.0,37.0,0.0,0.0,0.0,0.0,0.0,4.686278817,0.0,0.0,-93.0,0.0,0.0,-0.0,0.0,0.0,3.0126950040000002,0.0,0.0,1.0199999809265137,0.09000000357627869,-0.009999999776482582,0.03460693359375,-0.0477294921875,1.056640625,33.83000183105469,0.0,32.0,-0.021331787109375,-0.525909423828125,Waiting,-5.569794721407624,6.75,-226133.0,-216.0,-1620.0,-1640.0,0.7,5.75,
3.0837789999999803,7.125,0.0,21.0,0.0,0.0,0.0,0.0,0.125,4.151610903,0.0,0.0,346.0,0.0,0.0,-0.0,0.0,0.0,2.041015416,0.0,0.0,37.0,0.0,0.0,0.0,0.0,0.0,4.685058114,0.0,0.0,-93.0,0.0,0.0,-0.0,0.0,0.0,3.016357113,0.0,0.0,1.0299999713897705,0.09000000357627869,-0.009999999776482582,0.0030517578125,0.00567626953125,0.96002197265625,33.83000183105469,0.0,1.0,-0.0212249755859375,-0.5371551513671875,Waiting,-5.592668621700879,6.75,-226391.0,-216.0,-1620.0,-1640.0,0.7,5.75,
3.1699719999999507,6.875,0.0,21.0,0.0,0.0,0.0,0.0,0.125,4.154052309,0.0,-0.0012207030000004337,346.0,0.0,0.0,-0.0,0.0,0.0,2.042236119,0.0,0.0,37.0,0.0,0.0,0.0,0.0,0.0,4.68749952,0.0,0.0012207029999995456,-93.0,0.0,0.0,-0.0,0.0,0.0,3.0126950040000002,0.0,0.0,1.0099999904632568,0.10000000149011612,-0.009999999776482582,-0.00933837890625,0.04833984375,1.02001953125,33.83000183105469,0.0,-11.0,-0.0212249755859375,-0.53662109375,Waiting,-5.604105571847508,6.75,-226391.0,-216.0,-1620.0,-1640.0,0.7,8.0,
3.2538580000000072,6.875,0.0,21.0,0.0,0.0,0.0,0.0,0.125,4.154052309,0.0,0.0,346.0,0.0,0.0,-0.0,0.0,0.0,2.041015416,0.0,0.0,37.0,0.0,0.0,0.0,0.0,0.0,4.686278817,0.0,0.0,-93.0,0.0,0.0,-0.0,0.0,0.0,3.0126950040000002,0.0,0.0,1.0299999713897705,0.07999999821186066,-0.019999999552965164,0.02911376953125,-0.0111083984375,1.06475830078125,33.83000183105469,0.0,27.0,-0.021881103515625,-0.5343475341796875,Waiting,-5.5435483870967746,6.875,-226650.0,-216.0,-1620.0,-1640.0,0.7,7.0,
3.3345599999999975,7.25,0.0,21.0,0.0,0.0,0.0,0.0,0.0,4.152831606,0.0,0.0,346.0,0.0,0.0,-0.0,0.0,0.0,2.042236119,0.0,0.0,37.0,0.0,0.0,0.0,0.0,0.0,4.686278817,0.0,0.0,-93.0,0.0,0.0,-0.0,0.0,0.0,3.0126950040000002,0.0,0.0,1.0299999713897705,0.07999999821186066,-0.019999999552965164,0.00799560546875,-0.01422119140625,1.04425048828125,33.86000061035156,0.0,6.0,-0.02215576171875,-0.5336456298828125,Waiting,-4.552346041055719,7.375,-226910.0,-215.0,-1620.0,-1640.0,0.0,0.375,
3.4253519999999553,7.5,0.0,21.0,0.0,0.0,0.0,0.0,0.125,4.154052309,0.0,0.0,346.0,0.0,0.0,-0.0,0.0,0.0,2.041015416,0.0,0.0,37.0,0.0,0.0,0.0,0.0,0.0,4.686278817,0.0,-0.0012207029999995456,-93.0,0.0,0.0,-0.0,0.0,0.0,3.0114743010000002,0.0,0.0,1.0,0.07999999821186066,-0.009999999776482582,-0.027587890625,0.103759765625,0.95330810546875,33.86000061035156,0.0,-29.0,-0.0223846435546875,-0.5339813232421875,Waiting,-5.722287390029326,7.25,-226910.0,-215.0,-1620.0,-1640.0,0.0,0.0,
3.5067419999999694,7.375,0.0,21.0,0.0,0.0,0.0,0.0,0.125,4.149169497,0.0,0.0,346.0,0.0,0.0,-0.0,0.0,0.0,2.042236119,0.0,0.0,37.0,0.0,0.0,0.0,0.0,0.0,4.686278817,0.0,0.0,-93.0,0.0,0.0,-0.0,0.0,0.0,3.0126950040000002,0.0,0.0,0.9900000095367432,0.10999999940395355,-0.019999999552965164,-0.03363037109375,0.028076171875,0.92950439453125,33.86000061035156,0.0,-35.0,-0.0225677490234375,-0.5316925048828125,Waiting,-5.559726295210167,6.625,-227172.0,-216.0,-1627.5,-1640.0,0.0,0.0,
3.5897729999999863,7.5,0.0,21.0,0.0,0.0,0.0,0.0,0.125,4.151610903,0.0,0.0,346.0,0.0,0.0,-0.0,0.0,0.0,2.041015416,0.0,0.0,37.0,0.0,0.0,0.0,0.0,0.0,4.694823738,0.0,0.0,-93.0,0.0,0.0,-0.0,0.0,0.0,3.0114743010000002,0.0,0.0,1.0,0.11999999731779099,-0.009999999776482582,0.0072021484375,-0.093994140625,0.9681396484375,33.86000061035156,0.0,5.0,-0.0226287841796875,-0.5328521728515625,Waiting,-5.524046920821114,6.375,-227431.0,-217.0,-1627.5,-1640.0,0.7,7.125,
3.6768619999999648,6.875,0.0,21.0,0.0,0.0,0.0,0.0,0.0,4.1381831700000005,0.0,0.0012207030000004337,346.0,0.0,0.0,-0.0,0.0,0.0,2.041015416,0.0,0.0,37.0,0.0,0.0,0.0,0.0,0.0,4.686278817,0.0,0.0,-93.0,0.0,0.0,-0.0,0.0,0.0,3.0126950040000002,0.0,0.0,1.0,0.10999999940395355,-0.029999999329447746,0.0052490234375,0.057861328125,1.07427978515625,33.86000061035156,0.0,3.0,-0.0226898193359375,-0.5361785888671875,Waiting,-5.500439882697947,6.375,-227692.0,-217.0,-1627.5,-1640.0,0.7,6.75,
3.7655380000000003,6.0,0.0,21.0,0.0,0.0,0.0,0.0,0.125,4.152831606,0.0,-0.0012207030000004337,346.0,0.0,0.0,-0.0,0.0,0.0,2.042236119,0.0,0.0,37.0,0.0,0.0,0.0,0.0,0.0,4.686278817,0.0,-0.0012207029999995456,-93.0,0.0,0.0,-0.0,0.0,0.0,3.0114743010000002,0.0,0.0,1.0099999904632568,0.10000000149011612,-0.019999999552965164,0.01641845703125,0.07952880859375,0.9459228515625,33.86000061035156,0.0,14.0,-0.022796630859375,-0.5384979248046875,Waiting,-5.819305962854351,7.375,-227692.0,-217.0,-1620.0,-1640.0,0.7,5.25,
3.84681799999997,7.75,0.0,21.0,0.0,0.0,0.0,0.0,0.0,4.152831606,0.0,0.0,346.0,0.0,0.0,-0.0,0.0,0.0,2.039794713,0.0,0.0,37.0,0.0,0.0,0.0,0.0,0.0,4.686278817,0.0,0.0,-93.0,0.0,0.0,-0.0,0.0,0.0,3.017577816,0.0,0.0,1.0199999809265137,0.07999999821186066,-0.009999999776482582,-0.017578125,0.11407470703125,0.99981689453125,33.849998474121094,0.0,-19.0,-0.0231475830078125,-0.5404205322265625,Waiting,-8.719012707722385,23.625,-227939.0,-209.0,-1455.0,-1640.0,0.7,7.125,
3.9311080000000076,12.5,0.0,21.0,0.0,0.0,0.0,0.0,0.125,4.1503902,0.0,0.0,346.0,0.0,0.0,-0.0,0.0,0.0,2.041015416,0.0,0.0,37.0,0.0,0.0,0.0,0.0,0.0,4.691161629000001,0.0,0.0,-93.0,0.0,0.0,-0.0,0.0,0.0,3.0102535980000003,0.0,0.0,1.0399999618530273,0.07000000029802322,-0.03999999910593033,0.00714111328125,9.1552734375E-4,1.065673828125,33.849998474121094,0.0,5.0,-0.0232391357421875,-0.5419769287109375,Waiting,-7.645845552297165,31.75,-228177.0,-195.0,-1470.0,-1640.0,0.7,7.625,
4.014219999999972,27.375,0.0,21.0,0.0,0.0,0.0,0.0,0.0,4.152831606,0.0,0.0012207030000004337,346.0,0.0,0.0,-0.0,0.0,0.0,2.042236119,0.0,0.0,37.0,0.0,0.0,0.0,0.0,0.0,4.68749952,0.0,0.0,-93.0,0.0,0.0,-0.0,0.0,0.0,3.0126950040000002,0.0,0.0,1.0399999618530273,0.07999999821186066,-0.009999999776482582,-0.0162353515625,0.0472412109375,0.95294189453125,33.849998474121094,0.0,-17.0,-0.023040771484375,-0.5430145263671875,Waiting,-5.386608015640274,13.625,-228177.0,-195.0,-1612.5,-1640.0,0.0,1.25,
4.095785999999964,17.25,0.0,21.0,0.0,0.0,0.0,0.0,0.0,4.151610903,0.0,0.0,346.0,0.0,0.0,-0.0,0.0,0.0,2.041015416,0.0,0.0,37.0,0.0,0.0,0.0,0.0,0.0,4.686278817,0.0,0.0,-93.0,0.0,0.0,-0.0,0.0,0.0,3.0114743010000002,0.0,0.0,1.0700000524520874,0.07000000029802322,-0.019999999552965164,-0.003662109375,0.0380859375,1.0096435546875,33.849998474121094,0.0,-5.0,-0.0230255126953125,-0.5429534912109375,Waiting,-4.654838709677419,3.375,-228445.0,-220.0,-1687.5,-1640.0,0.0,0.0,
4.189739999999991,6.25,0.0,21.0,0.0,0.0,0.0,0.0,0.125,4.154052309,0.0,0.0,346.0,0.0,0.0,-0.0,0.0,0.0,2.042236119,0.0,0.0,37.0,0.0,0.0,0.0,0.0,0.0,4.686278817,0.0,0.0,-93.0,0.0,0.0,-0.0,0.0,0.0,3.0029293800000003,0.0,0.0,1.0399999618530273,0.09000000357627869,-0.019999999552965164,-0.02978515625,0.06024169921875,0.99517822265625,33.849998474121094,0.0,-31.0,-0.0230560302734375,-0.5427398681640625,Waiting,-5.174828934506353,4.25,-228712.0,-223.0,-1657.5,-1640.0,0.0,0.0,
4.275215999999957,4.5,0.0,21.0,0.0,0.0,0.0,0.0,0.0,4.151610903,0.0,0.0,346.0,0.0,0.0,-0.0,0.0,0.0,2.042236119,0.0,0.0,37.0,0.0,0.0,0.0,0.0,0.0,4.68749952,0.0,0.0,-93.0,0.0,0.0,-0.0,0.0,0.0,3.0126950040000002,0.0,0.0,1.0499999523162842,0.009999999776482582,-0.019999999552965164,0.04998779296875,-0.0528564453125,1.03106689453125,33.849998474121094,0.0,49.0,-0.0240325927734375,-0.5422515869140625,Waiting,-5.722287390029326,6.625,-228974.0,-219.0,-1635.0,-1640.0,0.0,0.0,
4.364668999999995,6.75,0.0,21.0,0.0,0.0,0.0,0.0,0.0,4.154052309,0.0,0.0,346.0,0.0,0.0,-0.0,0.0,0.0,2.042236119,0.0,0.0,37.0,0.0,0.0,0.0,0.0,0.0,4.68749952,0.0,0.0,-93.0,0.0,0.0,-0.0,0.0,0.0,3.0114743010000002,0.0,0.0,1.0800000429153442,0.0,-0.019999999552965164,-0.027099609375,0.029296875,1.02337646484375,33.88999938964844,0.0,-27.0,-0.024169921875,-0.5433197021484375,Waiting,-5.872873900293256,7.75,-228974.0,-219.0,-1627.5,-1640.0,0.0,0.0,
4.446850999999966,7.625,0.0,21.0,0.0,0.0,0.0,0.0,0.0,4.151610903,0.0,0.0,346.0,0.0,0.0,-0.0,0.0,0.0,2.042236119,0.0,0.0,37.0,0.0,0.0,0.0,0.0,0.0,4.686278817,0.0,0.0,-93.0,0.0,0.0,-0.0,0.0,0.0,3.0114743010000002,0.0,0.0,1.0299999713897705,-0.009999999776482582,-0.019999999552965164,0.04248046875,0.082275390625,1.0106201171875,33.88999938964844,0.0,42.0,-0.02392578125,-0.54168701171875,Waiting,-5.722287390029326,7.375,-229236.0,-217.0,-1635.0,-1640.0,0.0,0.0,
4.534332999999984,7.25,0.0,21.0,0.0,0.0,0.0,0.0,0.125,4.152831606,0.0,0.0,346.0,0.0,0.0,-0.0,0.0,0.0,2.044677525,0.0,0.0,37.0,0.0,0.0,0.0,0.0,0.0,4.686278817,0.0,0.0,-93.0,0.0,0.0,-0.0,0.0,0.0,3.022460628,0.0,0.0,1.0,0.019999999552965164,-0.019999999552965164,-0.02056884765625,0.048828125,0.98382568359375,33.88999938964844,0.0,-21.0,-0.0236053466796875,-0.5386962890625,Waiting,-5.571700879765396,6.5,-229500.0,-219.0,-1642.5,-1640.0,0.0,0.0,
4.622268999999971,7.125,0.0,21.0,0.0,0.0,0.0,0.0,0.125,4.154052309,0.0,0.0012207030000004337,346.0,0.0,0.0,-0.0,0.0,0.0,2.045898228,0.0,0.0,37.0,0.0,0.0,0.0,0.0,0.0,4.686278817,0.0,0.0,-93.0,0.0,0.0,-0.0,0.0,0.0,3.0126950040000002,0.0,0.0,1.0499999523162842,0.0,-0.019999999552965164,0.05328369140625,-0.0697021484375,0.94122314453125,33.88999938964844,0.0,53.0,-0.02294921875,-0.5364837646484375,Waiting,-5.560117302052787,6.375,-229500.0,-219.0,-1642.5,-1640.0,0.0,0.0,
4.710408999999985,6.875,0.0,21.0,0.0,0.0,0.0,0.0,0.125,4.152831606,0.0,0.0,346.0,0.0,0.0,-0.0,0.0,0.0,2.042236119,0.0,0.0,37.0,0.0,0.0,0.0,0.0,0.0,4.686278817,0.0,0.0,-93.0,0.0,0.0,-0.0,0.0,0.0,3.0114743010000002,0.0,0.0,1.059999942779541,0.0,-0.019999999552965164,0.00927734375,0.0269775390625,0.9876708984375,33.88999938964844,0.0,9.0,-0.022430419921875,-0.5388031005859375,Waiting,-5.710703812316717,7.25,-229765.0,-219.0,-1635.0,-1640.0,0.0,0.0,
4.791676999999967,6.0,0.0,21.0,0.0,0.0,0.0,0.0,0.125,4.152831606,0.0,0.0,346.0,0.0,0.0,-0.0,0.0,0.0,2.042236119,0.0,0.0,37.0,0.0,0.0,0.0,0.0,0.0,4.686278817,0.0,0.0,-93.0,0.0,0.0,-0.0,0.0,0.0,3.0126950040000002,0.0,0.0,1.0299999713897705,0.0,-0.029999999329447746,-0.0263671875,0.08636474609375,0.9549560546875,33.88999938964844,0.0,-26.0,-0.022369384765625,-0.5379638671875,Waiting,-5.536656891495602,7.0,-230028.0,-218.0,-1642.5,-1640.0,0.0,0.0,
4.875446999999985,7.5,0.0,21.0,0.0,0.0,0.0,0.0,0.0,4.157714418,0.0,-0.0012207030000004337,346.0,0.0,0.0,-0.0,0.0,0.0,2.041015416,0.0,0.0,37.0,0.0,0.0,0.0,0.0,0.0,4.68749952,0.0,0.0,-93.0,0.0,0.0,-0.0,0.0,0.0,3.0126950040000002,0.0,0.0,1.0199999809265137,0.029999999329447746,-0.019999999552965164,-0.013427734375,0.0653076171875,0.9805908203125,33.84000015258789,0.0,-14.0,-0.0225067138671875,-0.535736083984375,Waiting,-5.548533724340176,6.375,-230288.0,-219.0,-1642.5,-1640.0,0.0,0.0,
4.965190999999992,7.25,0.0,21.0,0.0,0.0,0.0,0.0,0.125,4.152831606,0.0,0.0,346.0,0.0,0.0,-0.0,0.0,0.0,2.042236119,0.0,0.0,37.0,0.0,0.0,0.0,0.0,0.0,4.686278817,0.0,0.0,-93.0,0.0,0.0,-0.0,0.0,0.0,3.0126950040000002,0.0,0.0,1.0499999523162842,0.009999999776482582,-0.019999999552965164,0.05035400390625,-0.059326171875,1.04571533203125,33.84000015258789,0.0,50.0,-0.022552490234375,-0.5320587158203125,Waiting,-5.548533724340176,6.375,-230288.0,-219.0,-1635.0,-1640.0,0.0,0.0,
5.0474009999999545,6.625,0.0,21.0,0.0,0.0,0.0,0.0,0.125,4.123534734000001,0.0,0.0,346.0,0.0,0.0,-0.0,0.0,0.0,2.042236119,0.0,0.0,37.0,0.0,0.0,0.0,0.0,0.0,4.689940926,0.0,0.0,-93.0,0.0,0.0,-0.0,0.0,0.0,3.0114743010000002,0.0,0.0,1.0499999523162842,0.0,-0.019999999552965164,0.03558349609375,0.02984619140625,0.99554443359375,33.84000015258789,0.0,35.0,-0.0215911865234375,-0.531036376953125,Waiting,-5.675073313782992,6.625,-230550.0,-218.0,-1635.0,-1640.0,0.7,7.375,
5.133462999999989,7.5,0.0,21.0,0.0,0.0,0.0,0.0,0.0,4.152831606,0.0,0.0012207030000004337,346.0,0.0,0.0,-0.0,0.0,0.0,2.041015416,0.0,0.0,37.0,0.0,0.0,0.0,0.0,0.0,4.689940926,0.0,0.0,-93.0,0.0,0.0,-0.0,0.0,0.0,3.0126950040000002,0.0,0.0,1.0199999809265137,-0.029999999329447746,-0.029999999329447746,0.02203369140625,-0.1246337890625,1.130126953125,33.84000015258789,0.0,22.0,-0.020477294921875,-0.5319061279296875,Waiting,-5.626979472140762,6.875,-230813.0,-218.0,-1635.0,-1640.0,0.7,2.75,
5.219658999999985,6.625,0.0,21.0,0.0,0.0,0.0,0.0,0.0,4.152831606,0.0,0.0,346.0,0.0,0.0,-0.0,0.0,0.0,2.041015416,0.0,0.0,37.0,0.0,0.0,0.0,0.0,0.0,4.689940926,0.0,0.0,-93.0,0.0,0.0,-0.0,0.0,0.0,3.0029293800000003,0.0,0.0,1.0199999809265137,0.03999999910593033,-0.019999999552965164,0.0216064453125,0.05816650390625,0.9000244140625,33.84000015258789,0.0,20.0,-0.019439697265625,-0.5326690673828125,Waiting,-5.626979472140762,6.875,-230813.0,-218.0,-1635.0,-1640.0,0.7,5.5,
5.303907999999995,7.0,0.0,21.0,0.0,0.0,0.0,0.0,0.0,4.152831606,0.0,0.0,346.0,0.0,0.0,-0.0,0.0,0.0,2.044677525,0.0,0.0,37.0,0.0,0.0,0.0,0.0,0.0,4.685058114,0.0,0.0,-93.0,0.0,0.0,-0.0,0.0,0.0,3.01513641,0.0,0.0,1.0499999523162842,0.019999999552965164,-0.03999999910593033,0.0194091796875,-0.03460693359375,1.04302978515625,33.84000015258789,0.0,18.0,-0.0189666748046875,-0.532257080078125,Waiting,-5.578885630498535,6.625,-231075.0,-218.0,-1635.0,-1640.0,0.7,8.125,
5.388980999999971,7.25,0.0,21.0,0.0,0.0,0.0,0.0,0.125,4.157714418,0.0,0.0,346.0,0.0,0.0,-0.0,0.0,0.0,2.042236119,0.0,0.0,37.0,0.0,0.0,0.0,0.0,0.0,4.68749952,0.0,0.0,-93.0,0.0,0.0,-0.0,0.0,0.0,3.0126950040000002,0.0,0.0,1.0499999523162842,0.029999999329447746,-0.029999999329447746,0.027099609375,-0.0093994140625,1.0107421875,33.849998474121094,0.0,26.0,-0.018707275390625,-0.5337982177734375,Waiting,-6.860215053763442,6.625,-231336.0,-218.0,-1635.0,-1640.0,0.7,9.0,
5.472100999999966,7.0,0.0,21.0,0.0,0.0,0.0,0.0,0.125,4.152831606,0.0,0.0,346.0,0.0,0.0,-0.0,0.0,0.0,2.042236119,0.0,0.0,37.0,0.0,0.0,0.0,0.0,0.0,4.683837411,0.0,0.0,-93.0,0.0,0.0,-0.0,0.0,0.0,3.0114743010000002,0.0,0.0012207029999999897,1.0399999618530273,0.029999999329447746,-0.03999999910593033,-0.03125,0.06744384765625,1.028564453125,33.849998474121094,0.0,-31.0,-0.018829345703125,-0.535736083984375,Waiting,-5.676930596285435,7.25,-231600.0,-217.0,-1627.5,-1640.0,0.7,8.5,
5.565930999999982,7.125,0.0,21.0,0.0,0.0,0.0,0.0,0.125,4.152831606,0.0,0.0,346.0,0.0,0.0,-0.0,0.0,0.0,2.042236119,0.0,0.0,37.0,0.0,0.0,0.0,0.0,0.0,4.686278817,0.0,0.0,-93.0,0.0,0.0,-0.0,0.0,0.0,3.0126950040000002,0.0,0.0,1.0199999809265137,0.03999999910593033,-0.03999999910593033,-0.03399658203125,0.052490234375,0.948486328125,33.849998474121094,0.0,-34.0,-0.019287109375,-0.5358428955078125,Waiting,-5.542033235581623,6.875,-231600.0,-217.0,-1635.0,-1640.0,0.7,10.5,
5.6498559999999705,7.75,0.0,21.0,0.0,0.0,0.0,0.0,0.0,4.152831606,0.0,0.0,346.0,0.0,0.0,-0.0,0.0,0.0,2.042236119,0.0,0.0,37.0,0.0,0.0,0.0,0.0,0.0,4.686278817,0.0,0.0,-93.0,0.0,0.0,-0.0,0.0,0.0,3.0065914890000003,0.0,0.0,1.0099999904632568,0.0,-0.019999999552965164,0.22222900390625,0.04595947265625,0.95654296875,33.849998474121094,0.0,222.0,-0.018646240234375,-0.5354461669921875,Waiting,-5.5179374389051805,6.625,-231860.0,-218.0,-1635.0,-1640.0,0.7,6.875,
5.733557999999961,6.875,0.0,21.0,0.0,0.0,0.0,0.0,0.125,4.152831606,0.0,0.0,346.0,0.0,0.0,-0.0,0.0,0.0,2.042236119,0.0,0.0,37.0,0.0,0.0,0.0,0.0,0.0,4.68749952,0.0,0.0,-93.0,0.0,0.0,-0.0,0.0,0.0,3.0114743010000002,0.0,0.0,1.0299999713897705,0.11999999731779099,-0.019999999552965164,-0.01177978515625,0.09490966796875,0.8990478515625,33.849998474121094,0.0,-13.0,-0.01556396484375,-0.5340576171875,Waiting,-5.737634408602151,7.5,-232121.0,-217.0,-1627.5,-1640.0,0.7,6.125,
5.825213999999978,7.375,0.0,21.0,0.0,0.0,0.0,0.0,0.125,4.152831606,0.0,0.0,346.0,0.0,0.0,-0.0,0.0,0.0,2.042236119,0.0,0.0,37.0,0.0,0.0,0.0,0.0,0.0,4.686278817,0.0,-0.0012207029999995456,-93.0,0.0,0.0,-0.0,0.0,0.0,3.0114743010000002,0.0,0.0012207029999999897,1.0199999809265137,0.07999999821186066,-0.029999999329447746,0.037353515625,0.00799560546875,1.0302734375,33.849998474121094,0.0,35.0,-0.0133056640625,-0.5305938720703125,Waiting,-5.60156402737048,7.125,-232121.0,-217.0,-1635.0,-1640.0,0.7,8.625,
5.908747999999963,7.5,0.0,21.0,0.0,0.0,0.0,0.0,0.0,4.154052309,0.0,0.0,346.0,0.0,0.0,-0.0,0.0,0.0,2.042236119,0.0,0.0,37.0,0.0,0.0,0.0,0.0,0.0,4.685058114,0.0,0.0,-93.0,0.0,0.0,-0.0,0.0,0.0,3.0126950040000002,0.0,0.0,1.0800000429153442,0.05000000074505806,-0.029999999329447746,0.009765625,0.0528564453125,1.0504150390625,33.869998931884766,0.0,8.0,-0.0116424560546875,-0.5251007080078125,Waiting,-5.553274682306941,7.0,-232383.0,-218.0,-1635.0,-1640.0,0.0,0.0,
5.988489999999991,7.125,0.0,21.0,0.0,0.0,0.0,0.0,0.0,4.152831606,0.0,0.0,346.0,0.0,0.0,-0.0,0.0,0.0,2.041015416,0.0,0.0,37.0,0.0,0.0,0.0,0.0,0.0,4.686278817,0.0,0.0,-93.0,0.0,0.0,-0.0,0.0,0.0,3.0078121920000003,0.0,0.0,1.0299999713897705,0.07999999821186066,-0.019999999552965164,0.01513671875,-0.03643798828125,0.90753173828125,33.869998931884766,0.0,13.0,-0.009857177734375,-0.5211334228515625,Waiting,-5.698142717497557,7.0,-232645.0,-218.0,-1635.0,-1640.0,0.0,0.0,
6.075006999999983,7.125,0.0,21.0,0.0,0.0,0.0,0.0,0.125,4.154052309,0.0,-0.0012207030000004337,346.0,0.0,0.0,-0.0,0.0,0.0,2.041015416,0.0,0.0,37.0,0.0,0.0,0.0,0.0,0.0,4.686278817,0.0,0.0012207029999995456,-93.0,0.0,0.0,-0.0,0.0,0.0,3.0090328950000003,0.0,-0.0012207029999999897,1.0099999904632568,0.09000000357627869,-0.009999999776482582,0.0045166015625,0.0601806640625,0.9888916015625,33.869998931884766,0.0,2.0,-0.009063720703125,-0.519439697265625,Waiting,0.0,0.0,-232904.0,-216.0,-1620.0,0.0,0.0,0.0,
6.166820000000007,4.25,0.0,21.0,0.0,0.0,0.0,0.0,0.0,4.151610903,0.0,0.0,346.0,0.0,0.0,-0.0,0.0,0.0,2.042236119,0.0,0.0,37.0,0.0,0.0,0.0,0.0,0.0,4.686278817,0.0,0.0,-93.0,0.0,0.0,-0.0,0.0,0.0,3.0114743010000002,0.0,0.0,1.0199999809265137,0.10000000149011612,-0.019999999552965164,0.03253173828125,0.02008056640625,1.0281982421875,33.869998931884766,0.0,30.0,-0.0096435546875,-0.5153656005859375,Waiting,0.0,0.0,-232904.0,-216.0,-1567.5,0.0,0.0,0.0,
6.253845999999961,0.0,0.0,21.0,0.0,0.0,0.0,0.0,0.125,4.152831606,0.0,0.0,346.0,0.0,0.0,-0.0,0.0,0.0,2.041015416,0.0,0.0,37.0,0.0,0.0,0.0,0.0,0.0,4.686278817,0.0,0.0,-93.0,0.0,0.0,-0.0,0.0,0.0,3.0114743010000002,0.0,0.0,1.0199999809265137,0.10000000149011612,-0.019999999552965164,-0.02105712890625,0.08984375,1.06048583984375,33.869998931884766,0.0,-22.0,-0.0098114013671875,-0.5111083984375,Waiting,0.0,0.0,-233147.0,-205.0,-1462.5,0.0,0.0,0.0,
6.3505069999999835,0.0,0.0,21.0,0.0,0.0,0.0,0.0,0.0,4.152831606,0.0,0.0,346.0,0.0,0.0,-0.0,0.0,0.0,2.042236119,0.0,0.0,37.0,0.0,0.0,0.0,0.0,0.0,4.686278817,0.0,0.0,-93.0,0.0,0.0,-0.0,0.0,0.0,3.0126950040000002,0.0,0.0,1.0199999809265137,0.10000000149011612,-0.019999999552965164,0.015380859375,-0.02362060546875,0.98968505859375,33.869998931884766,0.0,13.0,-0.0100555419921875,-0.50714111328125,Waiting,0.0,0.0,-233373.0,-190.0,-1387.5,0.0,0.0,0.0,
6.44449099999998,0.0,0.0,21.0,0.0,0.0,0.0,0.0,0.125,4.152831606,0.0,0.0,346.0,0.0,0.0,-0.0,0.0,0.0,2.042236119,0.0,0.0,37.0,0.0,0.0,0.0,0.0,0.0,4.686278817,0.0,0.0,-93.0,0.0,0.0,-0.0,0.0,0.0,3.0114743010000002,0.0,0.0,1.0299999713897705,0.10000000149011612,-0.019999999552965164,0.01202392578125,0.00762939453125,0.9959716796875,33.84000015258789,0.0,10.0,-0.0100555419921875,-0.5034942626953125,Waiting,0.0,0.0,-233580.0,-175.0,-1305.0,0.0,0.0,0.0,
6.5323489999999875,0.0,0.0,21.0,0.0,0.0,0.0,0.0,0.125,4.154052309,0.0,0.0012207030000004337,346.0,0.0,0.0,-0.0,0.0,0.0,2.042236119,0.0,0.0,37.0,0.0,0.0,0.0,0.0,0.0,4.68749952,0.0,0.0,-93.0,0.0,0.0,-0.0,0.0,0.0,3.0078121920000003,0.0,0.0,1.0199999809265137,0.10999999940395355,-0.019999999552965164,-0.0228271484375,0.03839111328125,0.98419189453125,33.84000015258789,0.0,-24.0,-0.0098419189453125,-0.499908447265625,Waiting,0.0,0.0,-233580.0,-175.0,-1207.5,0.0,0.0,0.0,
6.625998999999952,0.0,0.0,21.0,0.0,0.0,0.0,0.0,0.0,4.152831606,0.0,-0.0012207030000004337,346.0,0.0,0.0,-0.0,0.0,0.0,2.042236119,0.0,0.0,37.0,0.0,0.0,0.0,0.0,0.0,4.686278817,0.0,0.0,-93.0,0.0,0.0,-0.0,0.0,0.0,3.0078121920000003,0.0,0.0,1.0299999713897705,0.10999999940395355,-0.019999999552965164,0.0035400390625,-0.0089111328125,1.0361328125,33.84000015258789,0.0,1.0,-0.009796142578125,-0.49932861328125,Waiting,0.0,0.0,-233770.0,-160.0,-1132.5,0.0,0.0,0.0,
6.711007999999972,0.0,0.0,21.0,0.0,0.0,0.0,0.0,0.125,4.152831606,0.0,0.0,346.0,0.0,0.0,-0.0,0.0,0.0,2.042236119,0.0,0.0,37.0,0.0,0.0,0.0,0.0,0.0,4.686278817,0.0,0.0012207029999995456,-93.0,0.0,0.0,-0.0,0.0,0.0,3.0114743010000002,0.0,0.0,1.0299999713897705,0.10999999940395355,-0.029999999329447746,-0.00213623046875,0.00860595703125,1.00531005859375,33.84000015258789,0.0,-4.0,-0.009613037109375,-0.499664306640625,Waiting,0.0,0.0,-233941.0,-145.0,-1050.0,0.0,0.0,0.0,
6.801538000000001,0.0,0.0,21.0,0.0,0.0,0.0,0.0,0.0,4.151610903,0.0,0.0,346.0,0.0,0.0,-0.0,0.0,0.0,2.042236119,0.0,0.0,37.0,0.0,0.0,0.0,0.0,0.0,4.686278817,0.0,0.0,-93.0,0.0,0.0,-0.0,0.0,0.0,3.0078121920000003,0.0,0.0,1.0099999904632568,0.12999999523162842,-0.029999999329447746,0.00653076171875,0.03363037109375,1.05047607421875,33.84000015258789,0.0,4.0,-0.0095062255859375,-0.49981689453125,Waiting,0.0,0.0,-234095.0,-130.0,-952.5,0.0,0.0,0.0,
