Time,ClimberA1,ClimberA2,FRpos,FRCurrent,FRspeed,FRsetpoint,FRApos,FRACurrent,FREncpos,FREncSetpoint,FREncSpeed,FLpos,FLCurrent,FLspeed,FLsetpoint,FLApos,FLACurrent,FLEncpos,FLEncSetpoint,FLEncSpeed,BRpos,BRCurrent,BRspeed,BRsetpoint,BRApos,BRACurrent,BREncpos,BREncSetpoint,BREncSpeed,BLpos,BLCurrent,BLspeed,BLsetpoint,BLApos,BLACurrent,BLEncpos,BLEncSetpoint,BLEncSpeed,navx_Pitch,navx_Roll,navx_Yaw,navx_XAcc,navx_YAcc,navx_ZAcc,navx_Temp,navx_Bar,navx_Alt,navx_XDis,navx_YDis,GearPlacerState,ShootOutputV,ShootOutputCurrent,ShootEncPos,ShootEncVelocity,ShootSpeed,ShootSetpoint,CarouselSetpoint,CarouselCurrent,
0.1698259999998845,0.0,0.0,-32976.0,0.0,0.0,0.0,0.0,23.25,3.276366852,3.722999999999999,0.0,29727.0,0.0,0.0,0.0,0.0,0.0,0.689697195,3.711749999999998,0.0,-2833.0,0.0,0.0,0.0,0.0,0.0,3.652343376,3.7154999999999982,0.0,63579.0,0.0,0.0,0.0,0.0,0.0,1.678466625,3.7106249999999985,0.0,1.0299999713897705,-0.15000000596046448,0.0,-0.00909423828125,0.016845703125,1.03228759765625,35.220001220703125,0.0,-6.0,-3.154571533203125,-2.3484954833984375,Closing,0.0,0.0,-110162.0,0.0,0.0,0.0,0.0,0.0,
0.2994569999999367,0.0,0.0,-32976.0,0.0,0.0,0.0,0.0,15.5,3.277587555,3.722999999999999,0.0,29727.0,0.0,0.0,0.0,0.0,0.0,0.689697195,3.711749999999998,0.0,-2833.0,0.0,0.0,0.0,0.0,0.0,3.653564079,3.7154999999999982,0.0,63579.0,0.0,0.0,0.0,0.0,0.0,1.678466625,3.7106249999999985,0.0,1.0299999713897705,-0.12999999523162842,0.0,-0.01239013671875,0.02142333984375,1.01495361328125,35.220001220703125,0.0,-9.0,-3.154571533203125,-2.3484954833984375,Closing,0.0,0.0,-110162.0,0.0,0.0,0.0,0.0,0.0,
0.4321589999999851,0.0,0.0,-32976.0,0.0,0.0,0.0,0.0,15.25,3.276366852,3.722999999999999,0.0,29727.0,0.0,0.0,0.0,0.0,0.0,0.689697195,3.711749999999998,0.0,-2833.0,0.0,0.0,0.0,0.0,0.0,3.651122673,3.7154999999999982,0.0,63579.0,0.0,0.0,0.0,0.0,0.0,1.679687328,3.7106249999999985,0.0,1.0199999809265137,-0.14000000059604645,0.0,-0.00360107421875,0.02301025390625,1.0009765625,35.220001220703125,0.0,-1.0,-3.154571533203125,-2.3484954833984375,Closing,0.0,0.0,-110162.0,0.0,0.0,0.0,0.0,0.0,
0.5567709999999497,0.0,0.0,-32976.0,0.0,0.0,0.0,0.0,15.625,3.277587555,3.722999999999999,0.0,29727.0,0.0,0.0,0.0,0.0,0.0,0.6970214130000001,3.711749999999998,0.0,-2833.0,0.0,0.0,0.0,0.0,0.0,3.651122673,3.7154999999999982,0.0,63579.0,0.0,0.0,0.0,0.0,0.0,1.678466625,3.7106249999999985,0.0,1.0199999809265137,-0.14000000059604645,0.0,-0.00335693359375,0.017578125,1.00250244140625,35.220001220703125,0.0,0.0,-3.154571533203125,-2.3484954833984375,Closing,0.0,0.0,-110162.0,0.0,0.0,0.0,0.0,0.0,
0.6911629999999422,0.0,0.0,-32976.0,0.0,0.0,0.0,0.0,15.625,3.276366852,3.722999999999999,0.0,29727.0,0.0,0.0,0.0,0.0,0.0,0.688476492,3.711749999999998,0.0,-2833.0,0.0,0.0,0.0,0.0,0.0,3.651122673,3.7154999999999982,0.0,63579.0,0.0,0.0,0.0,0.0,0.0,1.678466625,3.7106249999999985,0.0,1.0199999809265137,-0.14000000059604645,0.0,-0.00408935546875,0.0157470703125,0.99639892578125,35.220001220703125,0.0,-1.0,-3.154571533203125,-2.3484954833984375,Closing,0.0,0.0,-110162.0,0.0,0.0,0.0,0.0,0.0,
0.8179719999998343,0.0,0.0,-32976.0,0.0,0.0,0.0,0.0,15.5,3.276366852,3.722999999999999,0.0,29727.0,0.0,0.0,0.0,0.0,0.0,0.689697195,3.711749999999998,0.0,-2833.0,0.0,0.0,0.0,0.0,0.0,3.652343376,3.7154999999999982,0.0,63579.0,0.0,0.0,0.0,0.0,0.0,1.678466625,3.7106249999999985,0.0,1.0199999809265137,-0.12999999523162842,0.0,1.220703125E-4,0.0174560546875,1.00286865234375,35.220001220703125,0.0,2.0,-3.154571533203125,-2.3484954833984375,Closing,0.0,0.0,-110162.0,0.0,0.0,0.0,0.0,0.0,
0.9478809999998193,0.0,0.0,-32976.0,0.0,0.0,0.0,0.0,15.875,3.277587555,3.722999999999999,0.0,29727.0,0.0,0.0,0.0,0.0,0.0,0.689697195,3.711749999999998,0.0,-2833.0,0.0,0.0,0.0,0.0,0.0,3.653564079,3.7154999999999982,0.0,63579.0,0.0,0.0,0.0,0.0,0.0,1.678466625,3.7106249999999985,0.0,1.0099999904632568,-0.12999999523162842,0.0,-7.9345703125E-4,0.0184326171875,0.9990234375,35.220001220703125,0.0,1.0,-3.154571533203125,-2.3484954833984375,Closing,0.0,0.0,-110162.0,0.0,0.0,0.0,0.0,0.0,
1.0763999999999068,0.0,0.0,-32976.0,0.0,0.0,0.0,0.0,15.75,3.2739254460000002,3.722999999999999,0.0,29727.0,0.0,0.0,0.0,0.0,0.0,0.689697195,3.711749999999998,0.0,-2833.0,0.0,0.0,0.0,0.0,0.0,3.653564079,3.7154999999999982,0.0,63579.0,0.0,0.0,0.0,0.0,0.0,1.678466625,3.7106249999999985,0.0,1.0199999809265137,-0.11999999731779099,-0.009999999776482582,-0.00360107421875,0.01861572265625,0.996337890625,35.2400016784668,0.0,-1.0,-3.154571533203125,-2.3484954833984375,Closing,0.0,0.0,-110162.0,0.0,0.0,0.0,0.0,0.0,
1.2077689999998547,0.0,0.0,-32976.0,0.0,0.0,0.0,0.0,15.625,3.277587555,3.722999999999999,0.0,29727.0,0.0,0.0,0.0,0.0,0.0,0.689697195,3.711749999999998,0.0,-2833.0,0.0,0.0,0.0,0.0,0.0,3.652343376,3.7154999999999982,0.0,63579.0,0.0,0.0,0.0,0.0,0.0,1.678466625,3.7106249999999985,0.0,1.0099999904632568,-0.11999999731779099,-0.009999999776482582,-0.0018310546875,0.02081298828125,0.99151611328125,35.2400016784668,0.0,0.0,-3.154571533203125,-2.3484954833984375,Closing,0.0,0.0,-110162.0,0.0,0.0,0.0,0.0,0.0,
1.3363009999999778,0.0,0.0,-32975.0,1.0,52.5,413.3858174085617,0.0,15.5,3.280028961,3.722999999999999,0.0,29721.0,1.0,-82.5,-413.3858174085617,0.0,0.0,0.689697195,3.711749999999998,0.0,-2833.0,1.625,0.0,413.3858174085617,0.0,0.0,3.656005485,3.7154999999999982,0.0,63579.0,0.625,0.0,-413.3858174085617,0.0,0.0,1.678466625,3.7106249999999985,0.0,0.9700000286102295,-0.12999999523162842,0.0,0.005615234375,0.008056640625,1.064697265625,35.2400016784668,0.0,8.0,-3.154693603515625,-2.349090576171875,Closing,0.0,0.0,-110162.0,0.0,0.0,0.0,0.0,0.0,
1.4726720000000204,0.0,0.0,-32954.0,13.875,82.5,1074.8031377792358,0.0,14.375,3.276366852,3.722999999999999,0.0,29711.0,14.0,-82.5,-1074.8031377792358,0.0,0.0,0.6872557890000001,3.711749999999998,0.0,-2829.0,12.5,82.5,1074.8031377792358,0.0,0.0,3.652343376,3.7154999999999982,0.0,63570.0,11.875,-112.5,-1074.8031377792358,0.0,0.0,1.678466625,3.7106249999999985,0.0,0.5400000214576721,-0.07999999821186066,-0.2800000011920929,0.006103515625,0.04913330078125,0.94842529296875,35.2400016784668,0.0,7.0,-3.154541015625,-2.35491943359375,Closing,0.0,0.0,-110162.0,0.0,0.0,0.0,0.0,0.0,
1.61049599999981,0.0,0.0,-32933.0,20.5,240.0,1074.8031377792358,0.0,13.75,3.2702633370000003,3.722999999999999,0.0,29690.0,23.875,-195.0,-1074.8031377792358,0.0,0.0,0.731201097,3.711749999999998,0.0,-2805.0,17.625,292.5,1074.8031377792358,0.0,0.0,3.654784782,3.7154999999999982,0.0,63546.0,17.0,-285.0,-1074.8031377792358,0.0,0.0,1.679687328,3.7106249999999985,0.0,-0.07000000029802322,0.11999999731779099,-1.3600000143051147,0.0360107421875,-0.2528076171875,0.98907470703125,35.22999954223633,0.0,39.0,-3.1523284912109375,-2.3717041015625,Closing,0.0,0.0,-110162.0,0.0,0.0,0.0,0.0,0.0,
1.7452239999999293,0.0,0.0,-32881.0,22.25,487.5,1074.8031377792358,0.0,13.375,3.2617184160000003,3.722999999999999,0.0,29573.0,28.875,-420.0,-1074.8031377792358,0.0,0.0,0.7324218,3.711749999999998,0.0,-2635.0,16.625,637.5,1074.8031377792358,0.0,0.0,3.652343376,3.7154999999999982,0.0,63381.0,17.0,-615.0,-1074.8031377792358,0.0,0.0,1.678466625,3.7106249999999985,0.0,-0.8399999737739563,0.2800000011920929,-3.549999952316284,0.02777099609375,-0.1014404296875,1.20819091796875,35.22999954223633,0.0,26.0,-3.147064208984375,-2.404632568359375,Closing,0.0,0.0,-110162.0,0.0,0.0,0.0,0.0,0.0,
1.8745219999998808,0.0,0.0,-32675.0,19.5,720.0,942.519673705101,0.0,13.625,3.276366852,3.722999999999999,0.0,29465.0,26.625,-652.5,-942.519673705101,0.0,0.0,0.7324218,3.711749999999998,0.0,-2498.0,12.375,832.5,942.519673705101,0.0,0.0,3.652343376,3.7154999999999982,0.0,63244.0,12.125,-840.0,-942.519673705101,0.0,0.0,1.678466625,3.7106249999999985,0.0,-1.1799999475479126,0.4099999964237213,-6.800000190734863,-0.09881591796875,-0.0838623046875,0.89178466796875,35.22999954223633,0.0,-96.0,-3.13690185546875,-2.457855224609375,Closing,0.0,0.0,-110162.0,0.0,0.0,0.0,0.0,0.0,
2.0117519999998623,0.0,0.0,-32599.0,0.0,420.0,0.0,0.0,15.125,3.277587555,3.722999999999999,0.0,29411.0,0.0,-337.5,0.0,0.0,0.0,0.7324218,3.711749999999998,0.0,-2404.0,0.0,480.0,0.0,0.0,0.0,3.652343376,3.7154999999999982,0.0,63143.0,0.0,-540.0,0.0,0.0,0.0,1.674804516,3.7106249999999985,0.0,0.800000011920929,0.11999999731779099,-9.739999771118164,-0.218017578125,0.47528076171875,1.44091796875,35.189998626708984,0.0,-294.0,-3.128692626953125,-2.49359130859375,Closing,0.0,0.0,-110162.0,0.0,0.0,0.0,0.0,0.0,
2.1476139999998267,0.0,0.0,-32578.0,0.0,127.5,0.0,0.0,15.125,3.277587555,3.722999999999999,0.0,29374.0,0.0,-210.0,0.0,0.0,0.0,0.7324218,3.711749999999998,0.0,-2381.0,0.0,75.0,0.0,0.0,0.0,3.653564079,3.7154999999999982,0.0,63104.0,0.0,-142.5,0.0,0.0,0.0,1.674804516,3.7106249999999985,0.0,2.190000057220459,-0.3199999928474426,-9.949999809265137,-0.00103759765625,0.0614013671875,1.2598876953125,35.189998626708984,0.0,3.0,-3.13336181640625,-2.491790771484375,Closing,0.0,0.0,-110162.0,0.0,0.0,0.0,0.0,0.0,
2.274527999999933,0.0,0.0,-32592.0,1.25,-120.0,-442.96875,0.0,15.0,3.284911773,3.723000000000002,0.0,29407.0,0.625,262.5,442.96875,0.0,0.0,0.734863206,3.711750000000001,0.0,-2390.0,0.875,-112.5,-442.96875,0.0,0.0,3.659667594,3.7155000000000014,0.0,63118.0,0.5,150.0,442.96875,0.0,0.0,1.673583813,3.7106250000000016,0.0,1.940000057220459,-0.20000000298023224,-9.609999656677246,-0.08673095703125,0.04510498046875,1.0089111328125,35.189998626708984,0.0,-83.0,-3.1316986083984375,-2.48486328125,Closing,0.0,0.0,-110162.0,0.0,0.0,0.0,0.0,0.0,
2.409311999999918,0.0,0.0,-32601.0,4.0,-52.5,-525.0,0.0,14.75,3.276366852,3.723000000000002,0.0,29421.0,3.625,60.0,525.0,0.0,0.0,0.7324218,3.711750000000001,0.0,-2412.0,3.25,-75.0,-525.0,0.0,0.0,3.6804195450000003,3.7155000000000014,0.0,63142.0,2.375,75.0,525.0,0.0,0.0,1.673583813,3.7106250000000016,0.0,1.7300000190734863,-0.23000000417232513,-9.350000381469727,0.01171875,0.01812744140625,1.0421142578125,35.189998626708984,0.0,17.0,-3.130523681640625,-2.4819183349609375,Closing,0.0,0.0,-110162.0,0.0,0.0,0.0,0.0,0.0,
2.5533410000000147,0.0,0.0,-32609.0,8.125,-60.0,-541.40625,0.0,14.5,3.276366852,3.723000000000002,0.0,29430.0,7.125,75.0,541.40625,0.0,0.0,0.7324218,3.711750000000001,0.0,-2426.0,6.75,-97.5,-541.40625,0.0,0.0,3.64990197,3.7155000000000014,0.0,63157.0,5.125,97.5,541.40625,0.0,0.0,1.6882322490000001,3.7106250000000016,0.0,1.8300000429153442,-0.28999999165534973,-9.100000381469727,-0.0107421875,0.00299072265625,0.949951171875,35.18000030517578,0.0,-1.0,-3.13079833984375,-2.481719970703125,Closing,0.0,0.0,-110162.0,0.0,0.0,0.0,0.0,0.0,
2.693530000000028,0.0,0.0,-32621.0,30.25,-270.0,-1427.34375,0.0,12.5,3.276366852,3.723000000000002,0.0,29447.0,34.25,225.0,1427.34375,0.0,0.0,0.734863206,3.711750000000001,0.0,-2445.0,25.125,-352.5,-1427.34375,0.0,0.0,3.653564079,3.7155000000000014,0.0,63243.0,24.0,307.5,1427.34375,0.0,0.0,1.6345213170000001,3.7106250000000016,0.0,2.869999885559082,-0.6100000143051147,-7.909999847412109,-0.07025146484375,0.39691162109375,0.96063232421875,35.18000030517578,0.0,-107.0,-3.13330078125,-2.47259521484375,Closing,0.0,0.0,-110162.0,0.0,0.0,0.0,0.0,0.0,
2.833082999999868,0.0,0.0,-32799.0,41.25,-720.0,-1722.65625,0.0,11.625,3.236083653,3.723000000000002,0.0,29604.0,49.5,660.0,1722.65625,0.0,0.0,0.7324218,3.711750000000001,0.0,-2680.0,26.375,-960.0,-1722.65625,0.0,0.0,3.656005485,3.7155000000000014,0.0,63384.0,27.625,862.5,1722.65625,0.0,0.0,1.624755693,3.7106250000000016,0.0,4.230000019073486,-0.800000011920929,-4.550000190734863,0.00518798828125,0.22760009765625,1.202392578125,35.18000030517578,0.0,11.0,-3.13983154296875,-2.4353485107421875,Closing,0.0,0.0,-110162.0,0.0,0.0,0.0,0.0,0.0,
2.975726999999955,0.0,0.0,-32974.0,43.5,-1192.5,-1952.34375,0.0,10.375,3.277587555,3.723000000000002,0.0,29767.0,53.625,1132.5,1952.34375,0.0,0.0,0.7324218,3.711750000000001,0.0,-2905.0,23.5,-1530.0,-1952.34375,0.0,0.0,3.657226188,3.7155000000000014,0.0,63589.0,26.5,1402.5,1952.34375,0.0,0.0,1.624755693,3.7106250000000016,0.0,5.099999904632568,-0.9100000262260437,0.9399999976158142,-0.0147705078125,0.29132080078125,0.97344970703125,35.18000030517578,0.0,4.0,-3.1459808349609375,-2.3686370849609375,Closing,0.0,0.0,-110162.0,0.0,0.0,0.0,0.0,0.0,
3.1470389999998734,0.0,0.0,-33192.0,40.625,-1470.0,-2034.375,0.0,10.625,3.276366852,3.723000000000002,0.0,29975.0,50.5,1410.0,2034.375,0.0,0.0,0.7324218,3.711750000000001,0.0,-3174.0,20.375,-1830.0,-2034.375,0.0,0.0,3.657226188,3.7155000000000014,0.0,63844.0,25.75,1725.0,2034.375,0.0,0.0,1.624755693,3.7106250000000016,0.0,5.659999847412109,-0.7900000214576721,6.75,0.08221435546875,0.06024169921875,0.4813232421875,35.13999938964844,0.0,89.0,-3.140411376953125,-2.29412841796875,Closing,0.0,0.0,-110162.0,0.0,0.0,0.0,0.0,0.0,
3.289091000000015,0.0,0.0,-33449.0,38.625,-1710.0,-2100.0,0.0,10.875,3.276366852,3.723000000000002,0.0,30216.0,44.875,1627.5,2100.0,0.0,0.0,0.728759691,3.711750000000001,0.0,-3480.0,18.25,-2025.0,-2100.0,0.0,0.0,3.657226188,3.7155000000000014,0.0,64133.0,25.125,1920.0,2100.0,0.0,0.0,1.625976396,3.7106250000000016,0.0,6.039999961853027,-0.9900000095367432,12.279999732971191,0.19586181640625,0.3997802734375,0.5338134765625,35.13999938964844,0.0,273.0,-3.1233978271484375,-2.22021484375,Closing,0.0,0.0,-110162.0,0.0,0.0,0.0,0.0,0.0,
3.427628000000026,0.0,0.0,-34036.0,37.125,-1882.5,-2100.0,0.0,11.25,3.277587555,3.723000000000002,0.0,30774.0,43.875,1785.0,2100.0,0.0,0.0,0.727538988,3.711750000000001,0.0,-4164.0,14.625,-2175.0,-2100.0,0.0,0.0,3.654784782,3.7155000000000014,0.0,64795.0,20.25,2137.5,2100.0,0.0,0.0,1.625976396,3.7106250000000016,0.0,6.070000171661377,-0.9399999976158142,18.170000076293945,0.19378662109375,0.196533203125,1.2506103515625,35.13999938964844,0.0,223.0,-3.09307861328125,-2.15362548828125,Closing,0.0,0.0,-110162.0,0.0,0.0,0.0,0.0,0.0,
3.5676299999998884,0.0,0.0,-34319.0,22.25,-1740.0,-836.71875,0.0,13.75,3.276366852,3.723000000000002,0.0,31077.0,26.75,1837.5,836.71875,0.0,0.0,0.7226561760000001,3.711750000000001,0.0,-4475.0,0.0,-1860.0,-836.71875,0.0,0.0,3.657226188,3.7155000000000014,0.0,65108.0,1.0,1882.5,836.71875,0.0,0.0,1.625976396,3.7106250000000016,0.0,5.269999980926514,-1.25,24.979999542236328,0.06549072265625,-0.0731201171875,1.51318359375,35.150001525878906,0.0,0.0,-3.0494384765625,-2.163330078125,Closing,0.0,0.0,-110162.0,0.0,0.0,0.0,0.0,0.0,
3.711944999999832,0.0,0.0,-34475.0,0.0,-600.0,0.0,0.0,14.75,3.2727047430000002,3.723000000000002,0.0,31272.0,0.0,907.5,0.0,0.0,0.0,0.7128905520000001,3.711750000000001,0.0,-4753.0,0.0,-1627.5,0.0,0.0,0.0,3.657226188,3.7155000000000014,0.0,65400.0,0.0,1710.0,0.0,0.0,0.0,1.624755693,3.7106250000000016,0.0,3.2799999713897705,-0.5,31.459999084472656,0.0352783203125,-0.4442138671875,0.44488525390625,35.150001525878906,0.0,-211.0,-3.0071868896484375,-2.2092437744140625,Closing,0.0,0.0,-110162.0,0.0,0.0,0.0,0.0,0.0,
3.853716000000015,0.0,0.0,-34574.0,0.0,-607.5,0.0,0.0,14.625,3.2714840400000003,3.723000000000002,0.0,31389.0,0.0,652.5,0.0,0.0,0.0,0.7128905520000001,3.711750000000001,0.0,-4958.0,0.0,-1080.0,0.0,0.0,0.0,3.657226188,3.7155000000000014,0.0,65615.0,0.0,1042.5,0.0,0.0,0.0,1.625976396,3.7106250000000016,0.0,1.1799999475479126,0.009999999776482582,36.2599983215332,0.15155029296875,-0.15411376953125,1.51129150390625,35.150001525878906,0.0,12.0,-2.966705322265625,-2.3096771240234375,Closing,0.0,0.0,-110162.0,0.0,0.0,0.0,0.0,0.0,
3.9931039999998172,0.0,0.0,-34643.0,0.0,-225.0,0.0,0.0,14.75,3.2727047430000002,3.723000000000002,0.0,31458.0,0.0,240.0,0.0,0.0,0.0,0.7128905520000001,3.711750000000001,0.0,-5076.0,0.0,-420.0,0.0,0.0,0.0,3.657226188,3.7155000000000014,0.0,65742.0,0.0,465.0,0.0,0.0,0.0,1.625976396,3.7106250000000016,0.0,-0.6200000047683716,0.44999998807907104,37.959999084472656,0.05908203125,-0.24261474609375,0.986083984375,35.150001525878906,0.0,-102.0,-2.943817138671875,-2.431396484375,Closing,0.0,0.0,-110162.0,0.0,0.0,0.0,0.0,0.0,
4.130936999999918,0.0,0.0,-34660.0,0.0,0.0,0.0,0.0,14.75,3.2714840400000003,3.723000000000002,0.0,31478.0,0.0,7.5,0.0,0.0,0.0,0.7128905520000001,3.711750000000001,0.0,-5110.0,0.0,-7.5,0.0,0.0,0.0,3.657226188,3.7155000000000014,0.0,65779.0,0.0,15.0,0.0,0.0,0.0,1.625976396,3.7106250000000016,0.0,-1.0399999618530273,0.3799999952316284,37.619998931884766,0.0145263671875,0.087646484375,0.9595947265625,35.099998474121094,0.0,70.0,-2.9316864013671875,-2.5720367431640625,Closing,0.0,0.0,-110162.0,0.0,0.0,0.0,0.0,0.0,
4.260868999999948,0.0,0.0,-34660.0,24.0,247.5,1818.8976466655731,0.0,12.75,3.2714840400000003,3.722999999999999,0.0,31478.0,25.625,-247.5,-1818.8976466655731,0.0,0.0,0.7324218,3.711749999999998,0.0,-5038.0,19.75,420.0,1818.8976466655731,0.0,0.0,3.651122673,3.7154999999999982,0.0,65706.0,19.0,-420.0,-1818.8976466655731,0.0,0.0,1.639404129,3.7106249999999985,0.0,-1.6299999952316284,0.49000000953674316,36.70000076293945,0.17779541015625,-0.0247802734375,1.64935302734375,35.099998474121094,0.0,144.0,-2.916473388671875,-2.7160186767578125,Closing,0.0,0.0,-110162.0,0.0,0.0,0.0,0.0,0.0,
4.395334000000032,0.0,0.0,-34584.0,0.0,120.0,0.0,0.0,14.5,3.2714840400000003,3.722999999999999,0.0,31416.0,0.0,-75.0,0.0,0.0,0.0,0.7324218,3.711749999999998,0.0,-5003.0,0.0,217.5,0.0,0.0,0.0,3.653564079,3.7154999999999982,0.0,65666.0,0.0,-232.5,0.0,0.0,0.0,1.6357420200000001,3.7106249999999985,0.0,-0.5699999928474426,0.33000001311302185,35.18000030517578,0.141845703125,0.505615234375,0.81781005859375,35.099998474121094,0.0,408.0,-2.902191162109375,-2.848541259765625,Closing,0.0,0.0,-110162.0,0.0,0.0,0.0,0.0,0.0,
4.52935999999987,0.0,0.0,-34584.0,0.0,7.5,0.0,0.0,14.625,3.2714840400000003,3.722999999999999,0.0,31414.0,0.0,-7.5,0.0,0.0,0.0,0.7324218,3.711749999999998,0.0,-5002.0,0.0,7.5,0.0,0.0,0.0,3.653564079,3.7154999999999982,0.0,65660.0,0.0,-7.5,0.0,0.0,0.0,1.6345213170000001,3.7106249999999985,0.0,0.5099999904632568,0.12999999523162842,35.33000183105469,-0.016845703125,0.001953125,1.04144287109375,35.099998474121094,0.0,-19.0,-2.8760528564453125,-2.970672607421875,Closing,0.0,0.0,-110162.0,0.0,0.0,0.0,0.0,0.0,
4.666849999999861,0.0,0.0,-34584.0,0.0,0.0,0.0,0.0,14.5,3.2727047430000002,3.722999999999999,0.0,31414.0,0.0,0.0,0.0,0.0,0.0,0.734863206,3.711749999999998,0.0,-5002.0,0.0,0.0,0.0,0.0,0.0,3.653564079,3.7154999999999982,0.0,65671.0,0.0,67.5,0.0,0.0,0.0,1.6357420200000001,3.7106249999999985,0.0,0.03999999910593033,0.11999999731779099,35.58000183105469,0.00738525390625,-0.045166015625,1.0302734375,35.04999923706055,0.0,-22.0,-2.87823486328125,-2.974395751953125,Closing,0.0,0.0,-110162.0,0.0,0.0,0.0,0.0,0.0,
4.796388999999967,0.0,0.0,-34584.0,0.0,0.0,0.0,0.0,14.5,3.2714840400000003,3.722999999999999,0.0,31414.0,0.0,0.0,0.0,0.0,0.0,0.7324218,3.711749999999998,0.0,-5002.0,0.0,0.0,0.0,0.0,0.0,3.652343376,3.7154999999999982,0.0,65671.0,0.0,0.0,0.0,0.0,0.0,1.6357420200000001,3.7106249999999985,0.0,0.25999999046325684,0.09000000357627869,35.45000076293945,-0.02783203125,0.06072998046875,0.9892578125,35.04999923706055,0.0,8.0,-2.881866455078125,-2.9737396240234375,Closing,0.0,0.0,-110162.0,0.0,0.0,0.0,0.0,0.0,
4.930203999999911,0.0,0.0,-34584.0,0.0,0.0,0.0,0.0,14.5,3.2714840400000003,3.722999999999999,0.0,31414.0,0.0,0.0,0.0,0.0,0.0,0.733642503,3.711749999999998,0.0,-5002.0,0.0,0.0,0.0,0.0,0.0,3.652343376,3.7154999999999982,0.0,65671.0,0.0,0.0,0.0,0.0,0.0,1.6357420200000001,3.7106249999999985,0.0,0.44999998807907104,0.07000000029802322,35.4900016784668,-0.00848388671875,0.00341796875,0.99755859375,35.04999923706055,0.0,-10.0,-2.88287353515625,-2.9698638916015625,Closing,0.0,0.0,-110162.0,0.0,0.0,0.0,0.0,0.0,
5.06554299999983,0.0,0.0,-34584.0,0.0,0.0,0.0,0.0,14.375,3.243407871,3.722999999999999,0.0,31414.0,0.0,0.0,0.0,0.0,0.0,0.7324218,3.711749999999998,0.0,-5002.0,0.0,0.0,0.0,0.0,0.0,3.652343376,3.7154999999999982,0.0,65671.0,0.0,0.0,0.0,0.0,0.0,1.6345213170000001,3.7106249999999985,0.0,0.49000000953674316,0.07999999821186066,35.5,-0.00238037109375,0.032470703125,0.9940185546875,35.040000915527344,0.0,10.0,-2.88287353515625,-2.9698333740234375,Closing,0.0,0.0,-110162.0,0.0,0.0,0.0,0.0,0.0,
5.195559999999823,0.0,0.0,-34584.0,0.0,0.0,0.0,0.0,14.375,3.2727047430000002,3.722999999999999,0.0,31414.0,0.0,0.0,0.0,0.0,0.0,0.7324218,3.711749999999998,0.0,-5002.0,0.0,0.0,0.0,0.0,0.0,3.652343376,3.7154999999999982,0.0,65671.0,0.0,0.0,0.0,0.0,0.0,1.6357420200000001,3.7106249999999985,0.0,0.6200000047683716,0.05000000074505806,35.52000045776367,-3.662109375E-4,0.019287109375,1.00006103515625,35.040000915527344,0.0,3.0,-2.88287353515625,-2.968994140625,Closing,0.0,0.0,-110162.0,0.0,0.0,0.0,0.0,0.0,
5.328074000000022,0.0,0.0,-34584.0,0.0,0.0,0.0,0.0,14.375,3.2714840400000003,3.722999999999999,0.0,31414.0,0.0,0.0,0.0,0.0,0.0,0.7324218,3.711749999999998,0.0,-5002.0,0.0,0.0,0.0,0.0,0.0,3.656005485,3.7154999999999982,0.0,65671.0,0.0,0.0,0.0,0.0,0.0,1.6357420200000001,3.7106249999999985,0.0,0.6800000071525574,0.029999999329447746,35.5099983215332,-0.0015869140625,0.03094482421875,1.0,35.040000915527344,0.0,9.0,-2.88287353515625,-2.968994140625,Closing,0.0,0.0,-110162.0,0.0,0.0,0.0,0.0,0.0,
5.454487999999896,0.0,0.0,-34584.0,18.75,180.0,1525.78125,0.0,1.375,3.343505517,-0.0,0.0,31414.0,18.375,247.5,1525.78125,0.0,7.25,0.35400387,2.4745,0.0,-5002.0,16.125,120.0,1525.78125,0.0,3.875,4.125976140000001,0.0,0.0,65631.0,15.5,-165.0,-1525.78125,0.0,2.25,2.108154081,0.0,0.0,0.2800000011920929,0.1599999964237213,34.79999923706055,0.15350341796875,0.0130615234375,1.05499267578125,35.040000915527344,0.0,128.0,-2.8831787109375,-2.9713897705078125,Closing,0.0,0.0,-110162.0,0.0,0.0,0.0,0.0,0.0,
5.590435999999987,0.0,0.0,-34547.0,0.0,-22.5,0.0,0.0,0.625,3.712157823,-0.0,0.0,31443.0,0.0,-67.5,0.0,0.0,1.75,4.436034702000001,2.4745,0.0,-4962.0,0.0,60.0,0.0,0.0,0.375,0.11962889400000001,0.0,0.0,65611.0,0.0,-135.0,0.0,0.0,0.875,2.9602047750000002,0.0,0.0,0.8500000238418579,0.17000000178813934,33.59000015258789,-0.04559326171875,0.312255859375,0.8699951171875,35.04999923706055,0.0,125.0,-2.8815155029296875,-2.97955322265625,Closing,0.0,0.0,-110162.0,0.0,0.0,0.0,0.0,0.0,
5.71916799999983,0.0,0.0,-34544.0,0.0,15.0,0.0,0.0,0.125,3.862304292,-0.0,0.0,31452.0,0.0,52.5,0.0,0.0,0.0,3.9477535020000003,2.4745,0.0,-4960.0,0.0,7.5,0.0,0.0,0.0,0.205078104,0.0,0.0,65606.0,0.0,-30.0,0.0,0.0,0.0,3.0566403120000003,0.0,0.0,0.75,-0.07999999821186066,33.72999954223633,-0.0478515625,0.0733642578125,1.01275634765625,35.04999923706055,0.0,-5.0,-2.877685546875,-2.971771240234375,Closing,0.0,0.0,-110162.0,0.0,0.0,0.0,0.0,0.0,
5.854270000000018,0.0,0.0,-34517.0,1.25,180.0,475.78125,0.0,0.125,3.8439937470000003,-0.0,0.0,31470.0,1.375,97.5,475.78125,0.0,1.75,4.1406245760000004,2.4745,0.0,-4941.0,1.0,112.5,475.78125,0.0,0.125,4.912108872,0.0,0.0,65583.0,1.0,-165.0,-475.78125,0.0,0.0,2.9541012600000003,0.0,0.0,0.9100000262260437,0.20999999344348907,33.75,0.0601806640625,-0.03302001953125,1.016845703125,35.04999923706055,0.0,19.0,-2.8755035400390625,-2.962677001953125,Closing,0.0,0.0,-110162.0,0.0,0.0,0.0,0.0,0.0,
5.9948019999999085,0.0,0.0,-34513.0,0.0,7.5,0.0,0.0,0.125,3.819579687,-0.0,0.0,31472.0,0.0,-7.5,0.0,0.0,0.25,4.56542922,2.4745,0.0,-4925.0,0.0,37.5,0.0,0.0,0.0,4.7631831060000005,0.0,0.0,65579.0,0.0,-15.0,0.0,0.0,0.0,2.877196971,0.0,0.0,0.9900000095367432,0.07999999821186066,34.06999969482422,-0.04791259765625,0.07757568359375,1.0384521484375,35.04999923706055,0.0,-7.0,-2.8715057373046875,-2.9559326171875,Closing,0.0,0.0,-110162.0,0.0,0.0,0.0,0.0,0.0,
6.130956000000006,0.0,0.0,-34513.0,0.0,0.0,0.0,0.0,0.125,3.814696875,-0.0,0.0,31472.0,0.0,0.0,0.0,0.0,0.0,4.527587427,2.4745,0.0,-4925.0,0.0,0.0,0.0,0.0,0.0,4.843749504,0.0,0.0,65579.0,0.0,0.0,0.0,0.0,0.0,2.862548535,0.0,0.0,1.0199999809265137,-0.1599999964237213,33.93000030517578,-0.01788330078125,0.0384521484375,0.9964599609375,35.04999923706055,0.0,-1.0,-2.8740386962890625,-2.948638916015625,Closing,0.0,0.0,-110162.0,0.0,0.0,0.0,0.0,0.0,
6.256233999999939,0.0,0.0,-34513.0,0.0,0.0,0.0,0.0,0.125,3.814696875,-0.0,0.0,31472.0,0.0,0.0,0.0,0.0,0.0,4.47998001,2.4745,0.0,-4925.0,0.0,0.0,0.0,0.0,0.125,4.899901842,0.0,0.0,65579.0,0.0,0.0,0.0,0.0,0.0,2.86865205,0.0,0.0,1.0700000524520874,-0.17000000178813934,34.0099983215332,0.01055908203125,0.02142333984375,0.99853515625,35.04999923706055,0.0,18.0,-2.8740386962890625,-2.9482879638671875,Closing,0.0,0.0,-110162.0,0.0,0.0,0.0,0.0,0.0,
6.390297999999952,0.0,0.0,-34496.0,12.75,307.5,1361.71875,0.0,0.125,3.80859336,-0.0,0.0,31492.0,14.75,270.0,1361.71875,0.0,0.0,4.470214386,2.4745,0.0,-4914.0,12.375,217.5,1361.71875,0.0,0.0,4.902343248,0.0,0.0,65573.0,11.875,-225.0,-1361.71875,0.0,0.0,2.862548535,0.0,0.0,1.0700000524520874,1.0800000429153442,33.7599983215332,0.4581298828125,0.05804443359375,1.06549072265625,35.04999923706055,0.0,385.0,-2.8676300048828125,-2.9544219970703125,Closing,0.0,0.0,-110162.0,0.0,0.0,0.0,0.0,0.0,
6.5192269999999555,0.0,0.0,-34427.0,13.75,750.0,1492.96875,0.0,0.125,3.7939449240000003,-0.0,0.0,31550.0,17.25,697.5,1492.96875,0.0,0.0,4.468993683,2.4745,0.0,-4855.0,14.375,660.0,1492.96875,0.0,0.0,4.897460436,0.0,0.0,65515.0,16.5,-585.0,-1492.96875,0.0,0.0,2.862548535,0.0,0.0,1.0,2.930000066757202,33.09000015258789,0.455322265625,-0.0531005859375,0.9188232421875,35.04999923706055,0.0,303.0,-2.8350067138671875,-2.980682373046875,Closing,0.0,0.0,-110162.0,0.0,0.0,0.0,0.0,0.0,
6.652277999999933,0.0,0.0,-34273.0,2.625,1095.0,935.15625,0.0,0.125,3.812255469,-0.0,0.0,31693.0,4.75,1035.0,935.15625,0.0,0.0,4.465331574,2.4745,0.0,-4717.0,3.125,1072.5,935.15625,0.0,0.0,4.897460436,0.0,0.0,65390.0,4.75,-1027.5,-935.15625,0.0,0.0,2.862548535,0.0,0.0,0.8999999761581421,3.4700000286102295,32.36000061035156,-0.09979248046875,0.01708984375,1.013671875,35.06999969482422,0.0,-135.0,-2.7830810546875,-3.021087646484375,Closing,0.0,0.0,-110162.0,0.0,0.0,0.0,0.0,0.0,
6.789351999999956,0.0,0.0,-33943.0,0.0,952.5,0.0,0.0,0.125,3.80859336,-0.0,0.0,32002.0,0.0,817.5,0.0,0.0,0.0,4.460448762,2.4745,0.0,-4388.0,0.0,937.5,0.0,0.0,0.0,4.899901842,0.0,0.0,65079.0,0.0,-862.5,0.0,0.0,0.0,2.857665723,0.0,0.0,0.9100000262260437,2.5299999713897705,31.399999618530273,-0.2301025390625,0.152099609375,0.71112060546875,35.06999969482422,0.0,-149.0,-2.734893798828125,-3.0550384521484375,Closing,0.0,0.0,-110162.0,0.0,0.0,0.0,0.0,0.0,
6.915736000000034,0.0,0.0,-33798.0,0.0,930.0,0.0,0.0,0.125,3.80859336,-0.0,0.0,32126.0,0.0,787.5,0.0,0.0,0.0,4.459228059,2.4745,0.0,-4252.0,0.0,862.5,0.0,0.0,0.0,4.897460436,0.0,0.0,64953.0,0.0,-795.0,0.0,0.0,0.0,2.857665723,0.0,0.0,1.0299999713897705,1.5199999809265137,30.59000015258789,-0.12701416015625,0.1536865234375,1.275634765625,35.06999969482422,0.0,-71.0,-2.705108642578125,-3.0729827880859375,Closing,0.0,0.0,-110162.0,0.0,0.0,0.0,0.0,0.0,
7.051442000000039,0.0,0.0,-33750.0,22.875,300.0,-925.9842485189438,0.0,0.125,3.815917578,4.963999999999999,0.0,32175.0,23.0,322.5,-925.9842485189438,0.0,0.0,4.459228059,2.4744999999999977,0.0,-4269.0,10.25,-15.0,-925.9842485189438,0.0,0.0,4.9182123870000005,2.346685808637024E-15,0.0,64923.0,15.125,-37.5,925.9842485189438,0.0,0.0,2.857665723,2.343606790115397E-15,0.0,1.1200000047683716,-2.1700000762939453,30.290000915527344,-0.5308837890625,0.09796142578125,1.503173828125,35.06999969482422,0.0,-374.0,-2.70526123046875,-3.0666351318359375,Closing,0.0,0.0,-110162.0,0.0,0.0,0.0,0.0,0.0,
7.18959999999986,0.0,0.0,-33814.0,21.375,-555.0,-1306.299215555191,0.0,0.125,3.819579687,4.963999999999999,0.0,32111.0,22.625,-540.0,-1306.299215555191,0.0,0.0,4.468993683,2.4744999999999977,0.0,-4360.0,10.25,-570.0,-1306.299215555191,0.0,0.0,4.921874496,2.346685808637024E-15,0.0,64994.0,15.625,532.5,1306.299215555191,0.0,0.0,2.877196971,2.343606790115397E-15,0.0,1.090000033378601,-3.559999942779541,30.700000762939453,-0.3160400390625,0.0628662109375,0.86328125,35.060001373291016,0.0,-201.0,-2.7490997314453125,-3.03289794921875,Closing,0.0,0.0,-110162.0,0.0,0.0,0.0,0.0,0.0,
7.326638999999966,0.0,0.0,-33969.0,13.0,-1132.5,-1339.3700659275055,0.0,0.125,3.825683202,4.963999999999999,0.0,31968.0,15.875,-1042.5,-1339.3700659275055,0.0,0.0,4.470214386,2.4744999999999977,0.0,-4516.0,7.25,-1132.5,-1339.3700659275055,0.0,0.0,4.9230951990000005,2.346685808637024E-15,0.0,65139.0,11.375,1035.0,1339.3700659275055,0.0,0.0,2.857665723,2.343606790115397E-15,0.0,1.159999966621399,-4.489999771118164,31.610000610351562,-0.16046142578125,-0.0081787109375,0.53656005859375,35.060001373291016,0.0,-110.0,-2.81243896484375,-2.98663330078125,Closing,0.0,0.0,-110162.0,0.0,0.0,0.0,0.0,0.0,
7.469385999999941,0.0,0.0,-34167.0,0.0,-1072.5,0.0,0.0,0.125,3.824462499,4.963999999999999,0.0,31786.0,0.0,-982.5,0.0,0.0,0.0,4.470214386,2.4744999999999977,0.0,-4717.0,0.0,-1125.0,0.0,0.0,0.0,4.916991684,2.346685808637024E-15,0.0,65325.0,0.0,997.5,0.0,0.0,0.0,2.857665723,2.343606790115397E-15,0.0,1.159999966621399,-3.8399999141693115,32.970001220703125,0.06341552734375,0.13128662109375,0.611328125,35.060001373291016,0.0,152.0,-2.8801116943359375,-2.9357757568359375,Closing,0.0,0.0,-110162.0,0.0,0.0,0.0,0.0,0.0,
7.605233999999938,0.0,0.0,-34346.0,0.0,-1162.5,0.0,0.0,0.125,3.825683202,4.963999999999999,0.0,31630.0,0.0,-990.0,0.0,0.0,0.0,4.470214386,2.4744999999999977,0.0,-4889.0,0.0,-1102.5,0.0,0.0,0.0,4.916991684,2.346685808637024E-15,0.0,65476.0,0.0,900.0,0.0,0.0,0.0,2.860107129,2.343606790115397E-15,0.0,1.309999942779541,-3.0199999809265137,34.400001525878906,0.08135986328125,0.0311279296875,0.76470947265625,35.060001373291016,0.0,108.0,-2.9333648681640625,-2.8914947509765625,Closing,0.0,0.0,-110162.0,0.0,0.0,0.0,0.0,0.0,
7.734710999999894,0.0,0.0,-34514.0,0.0,-915.0,0.0,0.0,0.125,3.824462499,4.963999999999999,0.0,31487.0,0.0,-810.0,0.0,0.0,0.0,4.468993683,2.4744999999999977,0.0,-5201.0,0.0,-915.0,0.0,0.0,0.0,4.90722606,2.346685808637024E-15,0.0,65743.0,0.0,802.5,0.0,0.0,0.0,2.857665723,2.343606790115397E-15,0.0,1.409999966621399,-2.25,35.5099983215332,0.0889892578125,0.07928466796875,0.94830322265625,35.0,0.0,135.0,-2.9724578857421875,-2.85406494140625,Closing,0.0,0.0,-110162.0,0.0,0.0,0.0,0.0,0.0,
7.871996999999974,0.0,0.0,-34742.0,0.5,-600.0,-595.2756196260452,0.0,3.625,4.333495650000001,1.2409999999999985,0.0,31286.0,0.0,-525.0,-595.2756196260452,0.0,2.5,0.13549803300000002,3.711749999999998,0.0,-5287.0,0.5,-630.0,-595.2756196260452,0.0,1.375,0.6604003230000001,1.2384999999999984,0.0,65801.0,14.875,367.5,-595.2756196260452,0.0,7.5,2.366943117,3.7106249999999985,0.0,1.25,-0.05999999865889549,36.470001220703125,0.554931640625,-0.00323486328125,0.7449951171875,35.0,0.0,435.0,-2.9921112060546875,-2.85986328125,Closing,0.0,0.0,-110162.0,0.0,0.0,0.0,0.0,0.0,
8.006972999999999,0.0,0.0,-34773.0,0.75,-172.5,-727.55908370018,0.0,1.25,0.18432615300000002,1.2409999999999985,0.0,31262.0,1.875,-135.0,-727.55908370018,0.0,0.875,0.9106444380000001,3.711749999999998,0.0,-5314.0,1.0,-165.0,-727.55908370018,0.0,0.375,1.409911965,1.2384999999999984,0.0,65797.0,20.5,-22.5,-727.55908370018,0.0,3.0,1.702880685,3.7106249999999985,0.0,1.159999966621399,0.33000001311302185,37.22999954223633,-0.00848388671875,-0.02947998046875,0.97503662109375,35.0,0.0,-41.0,-2.9841156005859375,-2.897216796875,Closing,0.0,0.0,-110162.0,0.0,0.0,0.0,0.0,0.0,
8.142397999999812,0.0,0.0,-34826.0,2.5,-360.0,-744.0945088863373,0.0,0.125,0.31616207700000004,1.2409999999999985,0.0,31209.0,3.875,-360.0,-744.0945088863373,0.0,0.0,0.968017479,3.711749999999998,0.0,-5361.0,2.875,-255.0,-744.0945088863373,0.0,0.125,1.5551756220000001,1.2384999999999984,0.0,65774.0,24.75,-217.5,-744.0945088863373,0.0,0.0,1.3964842320000002,3.7106249999999985,0.0,0.41999998688697815,0.47999998927116394,37.20000076293945,-0.028076171875,-0.1959228515625,1.049072265625,35.0099983215332,0.0,-152.0,-2.9816436767578125,-2.939178466796875,Closing,0.0,0.0,-110162.0,0.0,0.0,0.0,0.0,0.0,
8.275084000000032,0.0,0.0,-34869.0,4.75,-270.0,-744.0945088863373,0.0,0.25,0.198974589,1.2409999999999985,0.0,31168.0,7.125,-285.0,-744.0945088863373,0.0,0.75,0.9350584980000001,3.711749999999998,0.0,-5429.0,3.0,-480.0,-744.0945088863373,0.0,0.125,1.202392455,1.2384999999999984,0.0,65701.0,19.375,-532.5,-744.0945088863373,0.0,0.25,1.4501951640000001,3.7106249999999985,0.0,0.07999999821186066,0.23999999463558197,35.47999954223633,-0.02703857421875,-0.11444091796875,0.8790283203125,35.0099983215332,0.0,-92.0,-2.9864044189453125,-2.98321533203125,Closing,0.0,0.0,-110162.0,0.0,0.0,0.0,0.0,0.0,
8.41209999999986,0.0,0.0,-34944.0,4.625,-525.0,-744.0945088863373,0.0,0.125,0.07934569500000001,1.2409999999999985,0.0,31095.0,6.5,-525.0,-744.0945088863373,0.0,0.625,0.904540923,3.711749999999998,0.0,-5519.0,3.0,-577.5,-744.0945088863373,0.0,0.0,0.9594725580000001,1.2384999999999984,0.0,65599.0,17.125,-682.5,-744.0945088863373,0.0,0.25,1.563720543,3.7106249999999985,0.0,-0.05999999865889549,-0.10000000149011612,34.59000015258789,-0.04754638671875,-0.04815673828125,1.99993896484375,35.0099983215332,0.0,-62.0,-3.0008697509765625,-3.03717041015625,Closing,0.0,0.0,-110162.0,0.0,0.0,0.0,0.0,0.0,
8.550057000000029,0.0,0.0,-35049.0,2.75,-735.0,-744.0945088863373,0.0,0.125,0.063476556,1.2409999999999985,0.0,30990.0,4.0,-742.5,-744.0945088863373,0.0,0.25,0.861816318,3.711749999999998,0.0,-5610.0,3.875,-570.0,-744.0945088863373,0.0,0.125,1.0607909070000001,1.2384999999999984,0.0,65483.0,15.5,-742.5,-744.0945088863373,0.0,0.0,1.6052244450000002,3.7106249999999985,0.0,-0.6600000262260437,0.18000000715255737,35.33000183105469,0.1026611328125,-0.034912109375,1.29461669921875,35.0099983215332,0.0,68.0,-3.0215301513671875,-3.0938873291015625,Closing,0.0,0.0,-110162.0,0.0,0.0,0.0,0.0,0.0,
8.681380999999819,0.0,0.0,-35176.0,1.5,-817.5,-744.0945088863373,0.0,0.0,0.057373041,1.2409999999999985,0.0,30860.0,2.375,-840.0,-744.0945088863373,0.0,0.0,0.837402258,3.711749999999998,0.0,-5712.0,2.125,-802.5,-744.0945088863373,0.0,0.0,1.225585812,1.2384999999999984,0.0,65358.0,12.375,-840.0,-744.0945088863373,0.0,0.0,1.6101072570000001,3.7106249999999985,0.0,-1.100000023841858,0.25,36.0099983215332,0.05035400390625,-0.12567138671875,0.574951171875,35.0,0.0,-28.0,-3.044586181640625,-3.153778076171875,Closing,0.0,0.0,-110162.0,0.0,0.0,0.0,0.0,0.0,
8.814953999999911,0.0,0.0,-35310.0,1.0,-810.0,-744.0945088863373,0.0,0.0,0.057373041,1.2409999999999985,0.0,30584.0,1.625,-862.5,-744.0945088863373,0.0,0.0,0.821533119,3.711749999999998,0.0,-5993.0,0.375,-877.5,-744.0945088863373,0.0,0.0,1.24511706,1.2384999999999984,0.0,65065.0,8.875,-945.0,-744.0945088863373,0.0,0.0,1.6101072570000001,3.7106249999999985,0.0,-1.2000000476837158,0.5199999809265137,35.689998626708984,0.022705078125,-0.030517578125,0.2364501953125,35.0,0.0,1.0,-3.066009521484375,-3.22100830078125,Closing,0.0,0.0,-110162.0,0.0,0.0,0.0,0.0,0.0,
8.955662999999943,0.0,0.0,-35573.0,0.75,-825.0,-744.0945088863373,0.0,0.0,0.057373041,1.2409999999999985,0.0,30443.0,0.625,-885.0,-744.0945088863373,0.0,0.0,0.8142089010000001,3.711749999999998,0.0,-6129.0,0.125,-832.5,-744.0945088863373,0.0,0.0,1.204833861,1.2384999999999984,0.0,64914.0,6.75,-945.0,-744.0945088863373,0.0,0.0,1.6113279600000001,3.7106249999999985,0.0,-0.7799999713897705,0.49000000953674316,35.47999954223633,0.0172119140625,0.03680419921875,0.9727783203125,35.0,0.0,36.0,-3.0659027099609375,-3.2774810791015625,Closing,0.0,0.0,-110162.0,0.0,0.0,0.0,0.0,0.0,
9.092959000000032,0.0,0.0,-35710.0,0.375,-855.0,-744.0945088863373,0.0,0.0,0.06958007100000001,1.2409999999999985,0.0,30307.0,0.5,-840.0,-744.0945088863373,0.0,0.0,0.812988198,3.711749999999998,0.0,-6265.0,0.125,-840.0,-744.0945088863373,0.0,0.0,1.176757692,1.2384999999999984,0.0,64766.0,5.625,-915.0,-744.0945088863373,0.0,0.0,1.6101072570000001,3.7106249999999985,0.0,-0.4000000059604645,0.44999998807907104,35.52000045776367,-0.0836181640625,0.0552978515625,1.18475341796875,35.0,0.0,-38.0,-3.06414794921875,-3.327911376953125,Closing,0.0,0.0,-110162.0,0.0,0.0,0.0,0.0,0.0,
9.229738999999826,0.0,0.0,-35844.0,0.25,-825.0,-744.0945088863373,0.0,0.0,0.052490229,1.2409999999999985,0.0,30174.0,0.25,-817.5,-744.0945088863373,0.0,0.0,0.812988198,3.711749999999998,0.0,-6396.0,0.125,-810.0,-744.0945088863373,0.0,0.0,1.176757692,1.2384999999999984,0.0,64626.0,5.25,-870.0,-744.0945088863373,0.0,0.0,1.6113279600000001,3.7106249999999985,0.0,-0.1599999964237213,0.4000000059604645,35.72999954223633,0.05731201171875,0.0015869140625,0.93194580078125,34.959999084472656,0.0,43.0,-3.0625152587890625,-3.37249755859375,Closing,0.0,0.0,-110162.0,0.0,0.0,0.0,0.0,0.0,
9.366528999999865,0.0,0.0,-35971.0,0.25,-787.5,-744.0945088863373,0.0,0.0,0.057373041,1.2409999999999985,0.0,30049.0,0.5,-772.5,-744.0945088863373,0.0,0.0,0.812988198,3.711749999999998,0.0,-6519.0,0.125,-757.5,-744.0945088863373,0.0,0.0,1.176757692,1.2384999999999984,0.0,64493.0,5.25,-810.0,-744.0945088863373,0.0,0.0,1.6113279600000001,3.7106249999999985,0.0,0.05999999865889549,0.4099999964237213,35.939998626708984,-0.0174560546875,0.0615234375,0.84912109375,34.959999084472656,0.0,16.0,-3.0588836669921875,-3.412384033203125,Closing,0.0,0.0,-110162.0,0.0,0.0,0.0,0.0,0.0,
9.499420999999856,0.0,0.0,-36097.0,0.25,-780.0,-744.0945088863373,0.0,0.0,0.057373041,1.2409999999999985,0.0,29930.0,0.75,-735.0,-744.0945088863373,0.0,0.0,0.8142089010000001,3.711749999999998,0.0,-6639.0,0.375,-720.0,-744.0945088863373,0.0,0.0,1.175536989,1.2384999999999984,0.0,64367.0,5.625,-757.5,-744.0945088863373,0.0,0.0,1.616210772,3.7106249999999985,0.0,0.23999999463558197,0.3199999928474426,36.09000015258789,-0.04766845703125,0.01409912109375,0.93035888671875,34.959999084472656,0.0,-36.0,-3.0534210205078125,-3.444122314453125,Closing,0.0,0.0,-110162.0,0.0,0.0,0.0,0.0,0.0,
9.629439000000014,0.0,0.0,-36220.0,0.25,-750.0,-744.0945088863373,0.0,0.0,0.056152338,1.2409999999999985,0.0,29814.0,1.125,-705.0,-744.0945088863373,0.0,0.0,0.812988198,3.711749999999998,0.0,-6751.0,0.875,-690.0,-744.0945088863373,0.0,0.0,1.143798711,1.2384999999999984,0.0,64246.0,5.875,-742.5,-744.0945088863373,0.0,0.0,1.614990069,3.7106249999999985,0.0,0.33000001311302185,0.23999999463558197,36.33000183105469,0.066650390625,0.02410888671875,1.1505126953125,34.959999084472656,0.0,60.0,-3.04498291015625,-3.480133056640625,Closing,0.0,0.0,-110162.0,0.0,0.0,0.0,0.0,0.0,
9.769456999999937,0.0,0.0,-36445.0,0.25,-682.5,-658.6724062104572,0.0,0.25,0.09765624,1.3770835023211994,0.0,29590.0,0.625,-690.0,-658.6724062104572,0.0,0.125,0.7226561760000001,3.576077708906601,0.0,-6984.0,1.5,-742.5,-846.8226933276235,0.0,0.0,1.253661981,1.3439270244446477,0.0,64010.0,8.0,-742.5,-846.8226933276235,0.0,0.0,1.617431475,3.605336303302401,0.0,0.36000001430511475,0.17000000178813934,36.58000183105469,-0.0150146484375,-0.01361083984375,1.002197265625,34.959999084472656,0.0,-26.0,-3.03656005859375,-3.48388671875,Closing,0.0,0.0,-110162.0,0.0,0.0,0.0,0.0,0.0,
9.915138999999966,0.0,0.0,-36551.0,0.25,-660.0,-608.9308765314813,0.0,0.25,0.25634763,1.5063574979797387,0.0,29481.0,0.25,-675.0,-608.9308765314813,0.0,0.0,0.506591745,3.44719434780384,0.0,-7115.0,2.125,-810.0,-935.0769828822655,0.0,0.0,1.3488768150000001,1.4090579607068343,0.0,63877.0,9.0,-817.5,-935.0769828822655,0.0,0.0,1.56249984,3.540290823456383,0.0,0.11999999731779099,0.1599999964237213,35.86000061035156,0.02154541015625,-0.011474609375,0.954833984375,34.959999084472656,0.0,7.0,-3.0300445556640625,-3.48455810546875,Closing,0.0,0.0,-110162.0,0.0,0.0,0.0,0.0,0.0,
10.062395000000018,0.0,0.0,-36659.0,0.125,-667.5,-598.019042823448,0.0,0.25,0.41381831700000005,1.546875522246973,0.0,29381.0,0.25,-607.5,-598.019042823448,0.0,0.0,0.371093712,3.406798759145793,0.0,-7261.0,1.5,-922.5,-961.324838981406,0.0,0.0,1.3696287660000002,1.4254328657641984,0.0,63722.0,6.75,-997.5,-961.324838981406,0.0,0.0,1.481933442,3.5239374034379525,0.0,0.15000000596046448,0.27000001072883606,32.369998931884766,0.00152587890625,0.0272216796875,1.20928955078125,34.959999084472656,0.0,9.0,-3.022613525390625,-3.486785888671875,Closing,0.0,0.0,-110162.0,0.0,0.0,0.0,0.0,0.0,
10.203081000000006,0.0,0.0,-36757.0,0.25,-600.0,-588.7359841881993,0.0,0.125,0.43334956500000005,1.588784684055997,0.0,29275.0,0.125,-645.0,-588.7359841881993,0.0,0.0,0.37475582100000004,3.365016236625072,0.0,-7415.0,1.75,-930.0,-987.9652061087734,0.0,0.0,1.3757322810000001,1.440931065507284,0.0,63551.0,5.0,-1072.5,-987.9652061087734,0.0,0.0,1.4453123520000002,3.508459538434134,0.0,0.1899999976158142,0.46000000834465027,27.729999542236328,0.05096435546875,-0.08770751953125,0.92694091796875,34.88999938964844,0.0,-3.0,-3.01275634765625,-3.4904327392578125,Closing,0.0,0.0,-110162.0,0.0,0.0,0.0,0.0,0.0,
10.351446999999927,0.0,0.0,-36853.0,0.25,-600.0,-581.159756770135,0.0,0.125,0.43457026800000004,1.6319108111221652,0.0,29175.0,0.125,-630.0,-581.159756770135,0.0,0.0,0.377197227,3.322020426220062,0.0,-7570.0,1.5,-1020.0,-1014.9671774165785,0.0,0.0,1.3745115780000001,1.455610067899551,0.0,63377.0,4.625,-1072.5,-1014.9671774165785,0.0,0.0,1.442870946,3.4937997959360025,0.0,0.3100000023841858,0.7099999785423279,22.639999389648438,0.07354736328125,-0.1339111328125,1.1424560546875,34.88999938964844,0.0,0.0,-2.997314453125,-3.4940338134765625,Closing,0.0,0.0,-110162.0,0.0,0.0,0.0,0.0,0.0,
10.491746999999974,0.0,0.0,-36950.0,0.25,-600.0,-578.0332688624828,0.0,0.125,0.435790971,1.653865050871804,0.0,29075.0,0.125,-600.0,-578.0332688624828,0.0,0.0,0.371093712,3.3001325268403363,0.0,-7884.0,2.625,-967.5,-1028.594880273996,0.0,0.0,1.3757322810000001,1.4626593442176214,0.0,63039.0,5.0,-1050.0,-1028.594880273996,0.0,0.0,1.442870946,3.4867597687693386,0.0,0.5,0.8700000047683716,17.6200008392334,0.0526123046875,-0.005859375,1.0821533203125,34.88999938964844,0.0,29.0,-2.9954071044921875,-3.4978485107421875,Closing,0.0,0.0,-110162.0,0.0,0.0,0.0,0.0,0.0,
10.630138000000036,0.0,0.0,-37139.0,0.125,-585.0,-574.2699820799199,0.0,0.375,0.559081974,1.9023018037936061,0.0,28885.0,0.125,-592.5,-574.2699820799199,0.0,0.125,0.172119123,3.052446489328249,0.0,-8062.0,2.875,-1095.0,-1183.1639084691637,0.0,0.0,1.437988134,1.5292564026117015,0.0,62872.0,7.375,-1042.5,-1183.1639084691637,0.0,0.0,1.4245604010000001,3.4202500904478383,0.0,0.5,0.9100000262260437,12.890000343322754,0.1090087890625,-0.06427001953125,1.24591064453125,34.88999938964844,0.0,70.0,-2.993255615234375,-3.502410888671875,Closing,0.0,0.0,-110162.0,0.0,0.0,0.0,0.0,0.0,
10.771263000000035,0.0,0.0,-37227.0,0.125,-540.0,-485.8925144829961,0.0,1.125,0.979003806,2.3277952747909803,0.0,28800.0,0.125,-502.5,-485.8925144829961,0.0,0.375,4.639892103,2.628238756055484,0.0,-8228.0,1.0,-1042.5,-1016.5697757040814,0.0,0.0,1.5502928100000002,1.6232979543947332,0.0,62694.0,4.5,-1117.5,-1016.5697757040814,0.0,0.0,1.300048695,3.3263319278627463,0.0,0.7699999809265137,1.090000033378601,5.320000171661377,0.04205322265625,0.12030029296875,0.9677734375,34.93000030517578,0.0,33.0,-2.988433837890625,-3.5062713623046875,Closing,0.0,0.0,-110162.0,0.0,0.0,0.0,0.0,0.0,
10.912731999999844,0.0,0.0,-37304.0,0.25,-480.0,-539.9568072253986,0.0,0.375,1.258544793,2.445656023824977,0.0,28718.0,0.125,-540.0,-539.9568072253986,0.0,0.0,4.310302293,2.5107341535234036,0.0,-8407.0,1.25,-1087.5,-1078.7549778048485,0.0,0.0,1.6040037420000002,1.6513401568130202,0.0,62506.0,3.5,-1162.5,-1078.7549778048485,0.0,0.0,1.2182615940000001,3.298326518806534,0.0,1.25,1.350000023841858,-3.109999895095825,0.030517578125,-7.9345703125E-4,1.07232666015625,34.93000030517578,0.0,6.0,-2.9815673828125,-3.4994659423828125,Closing,0.0,0.0,-110162.0,0.0,0.0,0.0,0.0,0.0,
11.054983999999939,0.0,0.0,-37389.0,0.25,-517.5,-539.9542886893287,0.0,0.125,1.339111191,2.518263838862539,0.0,28620.0,0.125,-607.5,-539.9542886893287,0.0,0.0,4.282226124,2.4383457416336234,0.0,-8577.0,2.125,-1012.5,-1036.0918318665767,0.0,0.0,1.613769366,1.6702171365911396,0.0,62324.0,3.25,-1102.5,-1036.0918318665767,0.0,0.0,1.199951049,3.279474306967163,0.0,1.0199999809265137,1.7000000476837158,-14.270000457763672,0.0679931640625,-0.04443359375,0.9215087890625,34.93000030517578,0.0,54.0,-2.970489501953125,-3.4835968017578125,Closing,0.0,0.0,-110162.0,0.0,0.0,0.0,0.0,0.0,
11.195632999999914,0.0,0.0,-37467.0,0.375,-465.0,-540.9652585937953,0.0,0.125,1.3171385370000002,2.542391129656089,0.0,28524.0,0.125,-577.5,-540.9652585937953,0.0,0.125,4.2956538570000005,2.4142913576414244,0.0,-8737.0,2.75,-975.0,-1022.010064293284,0.0,0.0,1.612548663,1.67685828770312,0.0,62152.0,3.5,-1057.5,-1022.010064293284,0.0,0.0,1.209716673,3.2728418695173196,0.0,0.6600000262260437,1.9500000476837158,-23.969999313354492,-0.0076904296875,0.0631103515625,0.9393310546875,34.900001525878906,0.0,-64.0,-2.9608917236328125,-3.46600341796875,Closing,0.0,0.0,-110162.0,0.0,0.0,0.0,0.0,0.0,
11.338567000000038,0.0,0.0,-37611.0,0.875,-442.5,-540.9652585937953,0.0,0.125,1.329345567,2.542391129656089,0.0,28338.0,0.125,-577.5,-540.9652585937953,0.0,0.0,4.301757372,2.4142913576414244,0.0,-9044.0,3.25,-960.0,-1022.010064293284,0.0,0.0,1.612548663,1.67685828770312,0.0,61820.0,3.625,-1027.5,-1022.010064293284,0.0,0.0,1.203613158,3.2728418695173196,0.0,0.20000000298023224,2.109999895095825,-34.40999984741211,0.06964111328125,0.11688232421875,0.8890380859375,34.900001525878906,0.0,-33.0,-2.96258544921875,-3.4497528076171875,Closing,0.0,0.0,-110162.0,0.0,0.0,0.0,0.0,0.0,
11.475902999999933,0.0,0.0,-37682.0,1.375,-442.5,-542.4785960372005,0.0,0.125,1.329345567,2.5664060691632846,0.0,28246.0,0.125,-577.5,-542.4785960372005,0.0,0.0,4.305419481,2.390348985437332,0.0,-9196.0,3.5,-945.0,-1008.0028546134108,0.0,0.0,1.614990069,1.6836844925751473,0.0,61656.0,3.5,-1020.0,-1008.0028546134108,0.0,0.0,1.204833861,3.2660246211111117,0.0,-0.25,2.2300000190734863,-43.83000183105469,0.05279541015625,0.029296875,1.056884765625,34.900001525878906,0.0,-15.0,-2.9653778076171875,-3.4310150146484375,Closing,0.0,0.0,-110162.0,0.0,0.0,0.0,0.0,0.0,
11.611147999999812,0.0,0.0,-37758.0,1.5,-472.5,-542.4785960372005,0.0,0.125,1.328124864,2.5664060691632846,0.0,28153.0,0.125,-577.5,-542.4785960372005,0.0,0.0,4.306640184,2.390348985437332,0.0,-9353.0,3.625,-975.0,-1008.0028546134108,0.0,0.0,1.613769366,1.6836844925751473,0.0,61490.0,3.375,-1035.0,-1008.0028546134108,0.0,0.0,1.204833861,3.2660246211111117,0.0,-0.5699999928474426,2.2100000381469727,-53.31999969482422,0.0777587890625,0.02874755859375,1.0924072265625,34.900001525878906,0.0,-10.0,-2.9668121337890625,-3.4113006591796875,Closing,0.0,0.0,-110162.0,0.0,0.0,0.0,0.0,0.0,
11.740237999999895,0.0,0.0,-37834.0,1.75,-472.5,-542.4785960372005,0.0,0.125,1.329345567,2.5664060691632846,0.0,28058.0,0.0,-585.0,-542.4785960372005,0.0,0.0,4.306640184,2.390348985437332,0.0,-9509.0,3.75,-982.5,-1008.0028546134108,0.0,0.0,1.617431475,1.6836844925751473,0.0,61325.0,3.125,-1027.5,-1008.0028546134108,0.0,0.0,1.199951049,3.2660246211111117,0.0,-0.8899999856948853,2.200000047683716,-62.84000015258789,0.1219482421875,-0.07354736328125,1.0523681640625,34.90999984741211,0.0,87.0,-2.970367431640625,-3.399871826171875,Closing,0.0,0.0,-110162.0,0.0,0.0,0.0,0.0,0.0,
11.876743999999947,0.0,0.0,-37910.0,2.0,-472.5,-542.4785960372005,0.0,0.125,1.329345567,2.5664060691632846,0.0,27965.0,0.125,-577.5,-542.4785960372005,0.0,0.0,4.306640184,2.390348985437332,0.0,-9667.0,3.75,-982.5,-1008.0028546134108,0.0,0.0,1.617431475,1.6836844925751473,0.0,61160.0,3.0,-1027.5,-1008.0028546134108,0.0,0.0,1.203613158,3.2660246211111117,0.0,-1.149999976158142,2.049999952316284,-72.45999908447266,-0.00897216796875,-0.01141357421875,0.94049072265625,34.90999984741211,0.0,-20.0,-2.9761810302734375,-3.3996734619140625,Closing,0.0,0.0,-110162.0,0.0,0.0,0.0,0.0,0.0,
12.01149499999988,0.0,0.0,-37971.0,0.5,-277.5,396.8503922224045,0.0,2.0,2.047118931,3.722999999999999,0.0,27883.0,5.375,-442.5,396.8503922224045,0.0,4.0,3.9025874910000002,1.2372499999999984,0.0,-9810.0,0.375,-682.5,-396.8503922224045,0.0,1.125,1.3745115780000001,1.2384999999999984,0.0,61005.0,0.0,-772.5,-396.8503922224045,0.0,1.125,1.336669785,3.7106249999999985,0.0,-0.8500000238418579,1.940000057220459,-80.12000274658203,0.13201904296875,0.16998291015625,1.085205078125,34.90999984741211,0.0,-167.0,-2.9857330322265625,-3.3961334228515625,Closing,0.0,0.0,-110162.0,0.0,0.0,0.0,0.0,0.0,
12.143639999999898,0.0,0.0,-37994.0,0.875,-37.5,396.8503922224045,0.0,5.375,2.360839602,3.722999999999999,0.0,27861.0,2.75,127.5,396.8503922224045,0.0,1.625,3.129882492,1.2372499999999984,0.0,-9891.0,2.5,-427.5,-396.8503922224045,0.0,0.125,1.140136602,1.2384999999999984,0.0,60901.0,1.625,-405.0,-396.8503922224045,0.0,0.25,1.6552732680000002,3.7106249999999985,0.0,-0.28999999165534973,2.1600000858306885,-81.66999816894531,0.14227294921875,0.16162109375,1.11614990234375,34.90999984741211,0.0,-151.0,-3.0103759765625,-3.3896942138671875,Closing,0.0,0.0,-110162.0,0.0,0.0,0.0,0.0,0.0,
12.278498999999837,0.0,0.0,-37989.0,1.25,75.0,380.31496703624725,0.0,0.625,2.353515384,3.722999999999999,0.0,27909.0,2.125,210.0,380.31496703624725,0.0,0.0,2.9028317340000003,1.2372499999999984,0.0,-9935.0,5.625,-172.5,-380.31496703624725,0.0,0.0,1.114501839,1.2384999999999984,0.0,60862.0,4.0,-255.0,-380.31496703624725,0.0,0.0,1.755370914,3.7106249999999985,0.0,-0.05999999865889549,1.809999942779541,-81.73999786376953,0.04742431640625,0.02313232421875,1.04669189453125,34.90999984741211,0.0,-22.0,-3.0381927490234375,-3.38299560546875,Closing,0.0,0.0,-110162.0,0.0,0.0,0.0,0.0,0.0,
12.411410999999847,0.0,0.0,-37972.0,1.5,150.0,380.31496703624725,0.0,0.625,2.362060305,3.722999999999999,0.0,27933.0,4.0,142.5,380.31496703624725,0.0,0.5,3.03955047,1.2372499999999984,0.0,-9967.0,8.0,-142.5,-380.31496703624725,0.0,0.0,1.158447147,1.2384999999999984,0.0,60834.0,7.5,-127.5,-380.31496703624725,0.0,0.0,1.754150211,3.7106249999999985,0.0,0.07999999821186066,1.649999976158142,-81.5199966430664,0.01947021484375,0.022705078125,1.0146484375,34.90999984741211,0.0,-22.0,-3.0697174072265625,-3.3791351318359375,Closing,0.0,0.0,-110162.0,0.0,0.0,0.0,0.0,0.0,
12.540390999999829,0.0,0.0,-37948.0,2.125,150.0,380.31496703624725,0.0,0.625,2.363281008,3.722999999999999,0.0,27953.0,5.125,187.5,380.31496703624725,0.0,0.125,3.192138345,1.2372499999999984,0.0,-10024.0,9.75,-187.5,-380.31496703624725,0.0,0.0,1.1621092560000001,1.2384999999999984,0.0,60787.0,8.5,-150.0,-380.31496703624725,0.0,0.0,1.7150877150000001,3.7106249999999985,0.0,-0.03999999910593033,1.5,-81.29000091552734,-0.04046630859375,-0.03704833984375,0.97967529296875,34.90999984741211,0.0,25.0,-3.101348876953125,-3.378753662109375,Closing,0.0,0.0,-110162.0,0.0,0.0,0.0,0.0,0.0,
12.67426000000001,0.0,0.0,-37879.0,2.25,240.0,380.31496703624725,0.0,0.625,2.362060305,3.722999999999999,0.0,28033.0,4.875,277.5,380.31496703624725,0.0,0.0,3.240966465,1.2372499999999984,0.0,-10074.0,9.375,-292.5,-380.31496703624725,0.0,0.0,1.170654177,1.2384999999999984,0.0,60742.0,8.625,-255.0,-380.31496703624725,0.0,0.0,1.691894358,3.7106249999999985,0.0,-0.3199999928474426,1.309999942779541,-80.9800033569336,0.01055908203125,-0.07958984375,0.87689208984375,34.90999984741211,0.0,72.0,-3.12823486328125,-3.3827362060546875,Closing,0.0,0.0,-110162.0,0.0,0.0,0.0,0.0,0.0,
12.808934999999822,0.0,0.0,-37822.0,1.75,345.0,380.31496703624725,0.0,0.625,2.363281008,3.722999999999999,0.0,28097.0,3.875,390.0,380.31496703624725,0.0,0.0,3.240966465,1.2372499999999984,0.0,-10139.0,7.25,-405.0,-380.31496703624725,0.0,0.0,1.170654177,1.2384999999999984,0.0,60683.0,7.25,-375.0,-380.31496703624725,0.0,0.0,1.6833494370000002,3.7106249999999985,0.0,-0.46000000834465027,1.1100000143051147,-80.55000305175781,0.00457763671875,-0.00787353515625,0.95489501953125,34.970001220703125,0.0,-2.0,-3.149261474609375,-3.390777587890625,Closing,0.0,0.0,-110162.0,0.0,0.0,0.0,0.0,0.0,
12.939932000000029,0.0,0.0,-37765.0,0.625,360.0,198.42519611120224,0.0,0.625,2.364501711,3.722999999999999,0.0,28164.0,1.5,405.0,198.42519611120224,0.0,0.0,3.240966465,1.2372499999999984,0.0,-10206.0,4.125,-405.0,-198.42519611120224,0.0,0.0,1.170654177,1.2384999999999984,0.0,60620.0,4.0,-382.5,-198.42519611120224,0.0,0.0,1.6833494370000002,3.7106249999999985,0.0,-0.07000000029802322,1.0,-80.29000091552734,0.00738525390625,0.0311279296875,1.05023193359375,34.970001220703125,0.0,-33.0,-3.1534576416015625,-3.39111328125,Closing,0.0,0.0,-110162.0,0.0,0.0,0.0,0.0,0.0,
13.074451999999816,0.0,0.0,-37723.0,0.0,217.5,0.0,0.0,0.625,2.360839602,3.722999999999999,0.0,28201.0,0.0,150.0,0.0,0.0,0.0,3.240966465,1.2372499999999984,0.0,-10235.0,0.0,-97.5,0.0,0.0,0.0,1.1621092560000001,1.2384999999999984,0.0,60589.0,0.0,-112.5,0.0,0.0,0.0,1.673583813,3.7106249999999985,0.0,0.9800000190734863,0.9700000286102295,-80.01000213623047,0.0347900390625,0.2088623046875,1.1192626953125,34.970001220703125,0.0,-183.0,-3.1673736572265625,-3.3899993896484375,Closing,0.0,0.0,-110162.0,0.0,0.0,0.0,0.0,0.0,
13.209636999999871,0.0,0.0,-37714.0,0.0,15.0,0.0,0.0,0.625,2.362060305,3.722999999999999,0.0,28201.0,0.0,0.0,0.0,0.0,0.0,3.245849277,1.2372499999999984,0.0,-10235.0,0.0,0.0,0.0,0.0,0.0,1.1657713650000001,1.2384999999999984,0.0,60589.0,0.0,0.0,0.0,0.0,0.0,1.673583813,3.7106249999999985,0.0,1.5700000524520874,0.8899999856948853,-79.94000244140625,0.02166748046875,0.0538330078125,1.001708984375,34.970001220703125,0.0,-24.0,-3.199859619140625,-3.3864288330078125,Closing,0.0,0.0,-110162.0,0.0,0.0,0.0,0.0,0.0,
13.344173999999883,0.0,0.0,-37714.0,0.0,0.0,0.0,0.0,0.625,2.365722414,3.722999999999999,0.0,28201.0,0.0,-7.5,0.0,0.0,0.0,3.244628574,1.2372499999999984,0.0,-10235.0,0.0,0.0,0.0,0.0,0.0,1.173095583,1.2384999999999984,0.0,60589.0,0.0,0.0,0.0,0.0,0.0,1.673583813,3.7106249999999985,0.0,1.309999942779541,0.7400000095367432,-80.08000183105469,0.00238037109375,-0.04998779296875,1.03289794921875,34.95000076293945,0.0,70.0,-3.23309326171875,-3.387969970703125,Closing,0.0,0.0,-110162.0,0.0,0.0,0.0,0.0,0.0,
13.47446399999992,0.0,0.0,-37714.0,0.0,0.0,0.0,0.0,0.625,2.365722414,3.722999999999999,0.0,28196.0,0.0,-7.5,0.0,0.0,0.0,3.245849277,1.2372499999999984,0.0,-10235.0,0.0,0.0,0.0,0.0,0.0,1.17187488,1.2384999999999984,0.0,60591.0,0.0,7.5,0.0,0.0,0.0,1.674804516,3.7106249999999985,0.0,1.1399999856948853,0.6399999856948853,-80.02999877929688,-0.00103759765625,0.03680419921875,0.99658203125,34.95000076293945,0.0,-18.0,-3.24908447265625,-3.38958740234375,Closing,0.0,0.0,-110162.0,0.0,0.0,0.0,0.0,0.0,
13.609071999999927,0.0,0.0,-37714.0,0.0,0.0,0.0,0.0,0.625,2.363281008,3.722999999999999,0.0,28196.0,0.0,0.0,0.0,0.0,0.0,3.245849277,1.2372499999999984,0.0,-10235.0,0.0,0.0,0.0,0.0,0.0,1.174316286,1.2384999999999984,0.0,60591.0,0.0,0.0,0.0,0.0,0.0,1.673583813,3.7106249999999985,0.0,1.2400000095367432,0.5699999928474426,-80.0199966430664,-6.7138671875E-4,0.0260009765625,0.9989013671875,34.95000076293945,0.0,-6.0,-3.24969482421875,-3.3898162841796875,Closing,0.0,0.0,-110162.0,0.0,0.0,0.0,0.0,0.0,
13.736412000000012,0.0,0.0,-37714.0,0.0,0.0,0.0,0.0,0.625,2.366943117,3.722999999999999,0.0,28196.0,0.0,0.0,0.0,0.0,0.0,3.245849277,1.2372499999999984,0.0,-10235.0,0.0,0.0,0.0,0.0,0.0,1.17187488,1.2384999999999984,0.0,60591.0,0.0,0.0,0.0,0.0,0.0,1.673583813,3.7106249999999985,0.0,1.190000057220459,0.5,-80.02999877929688,-0.00537109375,0.0123291015625,1.00091552734375,34.970001220703125,0.0,5.0,-3.24969482421875,-3.3899688720703125,Closing,0.0,0.0,-110162.0,0.0,0.0,0.0,0.0,0.0,
13.871317000000039,0.0,0.0,-37714.0,0.0,0.0,0.0,0.0,0.625,2.366943117,3.722999999999999,0.0,28196.0,0.0,0.0,0.0,0.0,0.0,3.245849277,1.2372499999999984,0.0,-10235.0,0.0,0.0,0.0,0.0,0.0,1.173095583,1.2384999999999984,0.0,60591.0,0.0,0.0,0.0,0.0,0.0,1.673583813,3.7106249999999985,0.0,1.2000000476837158,0.4300000071525574,-80.0199966430664,-0.0059814453125,0.02154541015625,1.0003662109375,34.970001220703125,0.0,-2.0,-3.24969482421875,-3.3899688720703125,Closing,0.0,0.0,-110162.0,0.0,0.0,0.0,0.0,0.0,
13.997469999999971,0.0,0.0,-37714.0,0.0,0.0,0.0,0.0,0.625,2.365722414,3.722999999999999,0.0,28196.0,0.0,0.0,0.0,0.0,0.0,3.245849277,1.2372499999999984,0.0,-10235.0,0.0,0.0,0.0,0.0,0.0,1.17187488,1.2384999999999984,0.0,60591.0,0.0,0.0,0.0,0.0,0.0,1.67236311,3.7106249999999985,0.0,1.1799999475479126,0.3799999952316284,-80.0199966430664,-0.00146484375,0.01739501953125,0.9981689453125,34.970001220703125,0.0,1.0,-3.24969482421875,-3.3899688720703125,Closing,0.0,0.0,-110162.0,0.0,0.0,0.0,0.0,0.0,
14.126594999999972,0.0,0.0,-37714.0,0.0,0.0,0.0,0.0,0.625,2.366943117,3.722999999999999,0.0,28196.0,0.0,0.0,0.0,0.0,0.0,3.244628574,1.2372499999999984,0.0,-10235.0,0.0,0.0,0.0,0.0,0.0,1.17187488,1.2384999999999984,0.0,60591.0,0.0,0.0,0.0,0.0,0.0,1.673583813,3.7106249999999985,0.0,1.190000057220459,0.33000001311302185,-80.0199966430664,-6.103515625E-4,0.022705078125,1.00213623046875,34.970001220703125,0.0,-2.0,-3.24969482421875,-3.3899688720703125,Closing,0.0,0.0,-110162.0,0.0,0.0,0.0,0.0,0.0,
14.25275,0.0,0.0,-37714.0,0.0,0.0,0.0,0.0,0.625,2.365722414,3.722999999999999,0.0,28196.0,0.0,0.0,0.0,0.0,0.0,3.245849277,1.2372499999999984,0.0,-10235.0,0.0,0.0,0.0,0.0,0.0,1.17187488,1.2384999999999984,0.0,60591.0,0.0,0.0,0.0,0.0,0.0,1.667480298,3.7106249999999985,0.0,1.190000057220459,0.2800000011920929,-80.02999877929688,-0.00494384765625,0.02081298828125,0.996337890625,34.97999954223633,0.0,-1.0,-3.24969482421875,-3.3899688720703125,Closing,0.0,0.0,-110162.0,0.0,0.0,0.0,0.0,0.0,
14.386054999999935,0.0,0.0,-37714.0,0.0,0.0,0.0,0.0,0.625,2.366943117,3.722999999999999,0.0,28196.0,0.0,0.0,0.0,0.0,0.0,3.244628574,1.2372499999999984,0.0,-10235.0,0.0,0.0,0.0,0.0,0.0,1.1633299590000001,1.2384999999999984,0.0,60591.0,0.0,0.0,0.0,0.0,0.0,1.673583813,3.7106249999999985,0.0,1.190000057220459,0.23000000417232513,-80.02999877929688,-0.0054931640625,0.018798828125,0.9993896484375,34.97999954223633,0.0,0.0,-3.24969482421875,-3.3899688720703125,Closing,0.0,0.0,-110162.0,0.0,0.0,0.0,0.0,0.0,
14.518264999999898,0.0,0.0,-37714.0,0.0,0.0,0.0,0.0,0.625,2.363281008,3.722999999999999,0.0,28196.0,0.0,0.0,0.0,0.0,0.0,3.245849277,1.2372499999999984,0.0,-10235.0,0.0,0.0,0.0,0.0,0.0,1.17187488,1.2384999999999984,0.0,60591.0,0.0,0.0,0.0,0.0,0.0,1.673583813,3.7106249999999985,0.0,1.190000057220459,0.1899999976158142,-80.0199966430664,-0.0045166015625,0.02044677734375,0.99774169921875,34.97999954223633,0.0,-1.0,-3.24969482421875,-3.3899688720703125,Closing,0.0,0.0,-110162.0,0.0,0.0,0.0,0.0,0.0,
14.647534999999916,0.0,0.0,-37714.0,0.0,0.0,0.0,0.0,0.625,2.365722414,3.722999999999999,0.0,28196.0,0.0,0.0,0.0,0.0,0.0,3.245849277,1.2372499999999984,0.0,-10235.0,0.0,0.0,0.0,0.0,0.0,1.170654177,1.2384999999999984,0.0,60591.0,0.0,0.0,0.0,0.0,0.0,1.673583813,3.7106249999999985,0.0,1.1799999475479126,0.1599999964237213,-80.0199966430664,-0.0030517578125,0.0198974609375,1.002685546875,34.97999954223633,0.0,0.0,-3.24969482421875,-3.3899688720703125,Closing,0.0,0.0,-110162.0,0.0,0.0,0.0,0.0,0.0,
14.784645000000019,0.0,0.0,-37714.0,0.0,0.0,0.0,0.0,0.625,2.366943117,3.722999999999999,0.0,28196.0,0.0,0.0,0.0,0.0,0.0,3.245849277,1.2372499999999984,0.0,-10235.0,0.0,0.0,0.0,0.0,0.0,1.17187488,1.2384999999999984,0.0,60591.0,0.0,0.0,0.0,0.0,0.0,1.673583813,3.7106249999999985,0.0,1.1799999475479126,0.12999999523162842,-80.01000213623047,-0.00250244140625,0.01849365234375,1.00372314453125,35.0,0.0,1.0,-3.24969482421875,-3.3899688720703125,Closing,0.0,0.0,-110162.0,0.0,0.0,0.0,0.0,0.0,
14.912103999999818,0.0,0.0,-37714.0,0.0,0.0,0.0,0.0,0.625,2.365722414,3.722999999999999,0.0,28196.0,0.0,0.0,0.0,0.0,0.0,3.244628574,1.2372499999999984,0.0,-10235.0,0.0,0.0,0.0,0.0,0.0,1.17187488,1.2384999999999984,0.0,60591.0,0.0,0.0,0.0,0.0,0.0,1.676025219,3.7106249999999985,0.0,1.1799999475479126,0.09000000357627869,-80.01000213623047,-0.00323486328125,0.021240234375,1.00189208984375,35.0,0.0,-1.0,-3.24969482421875,-3.3899688720703125,Closing,0.0,0.0,-110162.0,0.0,0.0,0.0,0.0,0.0,
15.042241999999852,0.0,0.0,-37714.0,0.0,0.0,0.0,0.0,0.625,2.366943117,3.722999999999999,0.0,28196.0,0.0,0.0,0.0,0.0,0.0,3.245849277,1.2372499999999984,0.0,-10235.0,0.0,0.0,0.0,0.0,0.0,1.17187488,1.2384999999999984,0.0,60591.0,0.0,0.0,0.0,0.0,0.0,1.673583813,3.7106249999999985,0.0,1.149999976158142,0.05999999865889549,-80.01000213623047,-0.001708984375,-0.002685546875,0.984619140625,35.0,0.0,21.0,-3.2494659423828125,-3.3900146484375,Closing,0.0,0.0,-110162.0,0.0,0.0,0.0,0.0,0.0,
