Time,ClimberA1,ClimberA2,FRpos,FRCurrent,FRspeed,FRsetpoint,FRApos,FRACurrent,FREncpos,FREncSetpoint,FREncSpeed,FLpos,FLCurrent,FLspeed,FLsetpoint,FLApos,FLACurrent,FLEncpos,FLEncSetpoint,FLEncSpeed,BRpos,BRCurrent,BRspeed,BRsetpoint,BRApos,BRACurrent,BREncpos,BREncSetpoint,BREncSpeed,BLpos,BLCurrent,BLspeed,BLsetpoint,BLApos,BLACurrent,BLEncpos,BLEncSetpoint,BLEncSpeed,navx_Pitch,navx_Roll,navx_Yaw,navx_XAcc,navx_YAcc,navx_ZAcc,navx_Temp,navx_Bar,navx_Alt,navx_XDis,navx_YDis,GearPlacerState,ShootOutputV,ShootOutputCurrent,ShootEncPos,ShootEncVelocity,ShootSpeed,ShootSetpoint,CarouselSetpoint,CarouselCurrent,
0.4054050000000007,0.0,0.0,3985.0,0.0,0.0,0.0,0.0,0.0,1.125488166,0.01,0.0,-39033.0,0.0,0.0,0.0,0.0,0.0,1.772460756,0.01,0.0,-12655.0,0.0,0.0,0.0,0.0,0.0,2.23388649,0.01,0.0,-34166.0,0.0,0.0,0.0,0.0,0.0,2.675780976,0.01,0.0,1.590000033378601,-0.4099999964237213,0.0,-0.008056640625,0.0281982421875,0.9998779296875,34.52000045776367,0.0,0.0,5.8265228271484375,-1.3158416748046875,Waiting,0.0,0.0,-10842.0,0.0,0.0,0.0,0.0,0.0,
0.48492200000000046,0.0,0.0,3985.0,0.0,0.0,0.0,0.0,0.0,1.120605354,0.0,0.0,-39033.0,0.0,0.0,-0.0,0.0,0.0,1.771240053,0.0,-0.19975994700000044,-12655.0,0.0,0.0,0.0,0.0,0.0,2.23388649,0.0,2.2978864900000002,-34166.0,0.0,0.0,-0.0,0.0,0.0,2.674560273,0.0,4.752060273,1.590000033378601,-0.4099999964237213,0.0,-0.008544921875,0.02508544921875,1.0015869140625,34.52000045776367,0.0,-1.0,5.8265228271484375,-1.3158416748046875,Waiting,0.0,0.0,-10842.0,0.0,0.0,0.0,0.0,0.0,
0.5213430000000008,0.0,0.0,3985.0,0.0,0.0,0.0,0.0,5.25,1.0864256700000001,0.0,2.3046053540000004,-39033.0,0.0,0.0,-0.0,0.0,0.0,1.7858884890000002,0.0,-0.19975994700000044,-12655.0,0.0,0.0,0.0,0.0,7.75,2.02636698,0.0,2.2978864900000002,-34166.0,0.0,0.0,-0.0,0.0,0.0,2.713622769,0.0,0.0,1.5800000429153442,-0.4000000059604645,-0.009999999776482582,-0.01531982421875,0.05804443359375,1.00262451171875,34.52000045776367,0.0,-8.0,5.826629638671875,-1.3156585693359375,Waiting,0.0,0.0,-10842.0,0.0,0.0,0.0,0.0,0.0,
0.5790540000000001,0.0,0.0,3985.0,0.0,0.0,0.0,0.0,2.625,0.6335448570000001,0.0,-0.31738278,-39033.0,0.0,0.0,-0.0,0.0,0.125,1.878661917,0.0,0.05737304099999996,-12655.0,0.0,0.0,0.0,0.0,1.25,1.486816254,0.0,-0.37597652400000037,-34166.0,0.0,0.0,-0.0,0.0,0.0,2.7868649490000004,0.0,0.053710931999999545,1.559999942779541,-0.3400000035762787,-0.009999999776482582,-0.0078125,0.0565185546875,0.98797607421875,34.5099983215332,0.0,-1.0,5.827178955078125,-1.3153533935546875,Waiting,0.0,0.0,-10842.0,0.0,0.0,0.0,0.0,0.0,
0.6575930000000008,0.0,0.0,3986.0,0.0,0.0,0.0,0.0,1.75,0.07934569500000001,0.0,0.0,-39033.0,0.0,0.0,-0.0,0.0,0.125,1.911620898,0.0,0.0,-12655.0,0.0,0.0,0.0,0.0,1.25,1.075439343,0.0,0.0,-34167.0,0.0,-7.5,-0.0,0.0,0.0,2.810058306,0.0,0.0,1.5399999618530273,-0.3499999940395355,-0.03999999910593033,0.037109375,0.00982666015625,0.98101806640625,34.5099983215332,0.0,43.0,5.8276824951171875,-1.3152008056640625,Waiting,0.0,0.0,-10842.0,0.0,0.0,0.0,0.0,0.0,
0.6832510000000002,0.0,0.0,3986.0,0.0,7.5,0.0,0.0,1.75,4.836425286,0.0,0.0,-39033.0,0.0,0.0,-0.0,0.0,0.125,1.9213865220000002,0.0,0.0,-12655.0,0.0,0.0,0.0,0.0,1.25,0.8825682690000001,0.0,-0.8117674949999998,-34167.0,0.0,-7.5,-0.0,0.0,0.0,2.81982393,0.0,0.08178710100000064,1.5099999904632568,-0.36000001430511475,-0.05999999865889549,0.033935546875,0.00311279296875,0.94580078125,34.5099983215332,0.0,40.0,5.8279266357421875,-1.315216064453125,Waiting,0.0,0.0,-10842.0,0.0,0.0,0.0,0.0,0.0,
0.7341750000000011,0.0,0.0,3986.0,0.0,0.0,0.0,0.0,1.75,4.477538604,0.0,-0.8258168300000004,-39033.0,0.0,0.0,-0.0,0.0,0.0,1.929931443,0.0,0.08789061600000103,-12655.0,0.0,0.0,0.0,0.0,1.125,0.46752924900000004,0.0,-0.4138183169999996,-34169.0,0.0,-7.5,-0.0,0.0,0.0,2.824706742,0.0,0.014648435999999876,1.5099999904632568,-0.4000000059604645,-0.05999999865889549,-0.0228271484375,0.0792236328125,0.9884033203125,34.5099983215332,0.0,-15.0,5.8288116455078125,-1.315399169921875,Waiting,0.0,0.0,-10842.0,0.0,0.0,0.0,0.0,0.0,
0.7632780000000002,0.0,0.0,3986.0,0.0,0.0,0.0,0.0,1.25,4.256591361,0.0,-0.3918456629999998,-39033.0,0.0,0.0,-0.0,0.0,0.0,1.931152146,0.0,0.014648435999999876,-12655.0,0.0,0.0,0.0,0.0,0.625,0.30517575,0.0,-0.4138183169999996,-34169.0,0.0,-15.0,-0.0,0.0,0.0,2.825927445,0.0,0.014648435999999876,1.5099999904632568,-0.4000000059604645,-0.05000000074505806,-0.0584716796875,0.0576171875,1.03607177734375,34.5099983215332,0.0,-51.0,5.828948974609375,-1.315399169921875,Waiting,0.0,0.0,-10842.0,0.0,0.0,0.0,0.0,0.0,
0.7882219999999998,0.0,0.0,3986.0,0.0,0.0,0.0,0.0,0.875,4.112548407,0.0,-0.3918456629999998,-39033.0,0.0,0.0,-0.0,0.0,0.0,1.931152146,0.0,-0.0012207030000004337,-12655.0,0.0,0.0,0.0,0.0,0.375,0.126953112,0.0,-0.34423824600000064,-34169.0,0.0,-15.0,-0.0,0.0,0.0,2.825927445,0.0,-0.0012207030000004337,1.5099999904632568,-0.44999998807907104,-0.019999999552965164,-0.04833984375,0.04766845703125,0.975341796875,34.5099983215332,0.0,-40.0,5.829071044921875,-1.3153076171875,Waiting,0.0,0.0,-10842.0,0.0,0.0,0.0,0.0,0.0,
0.8133230000000004,0.0,0.0,3986.0,0.0,0.0,0.0,0.0,0.625,3.9855952950000004,0.0,-0.34423824600000064,-39033.0,0.0,0.0,-0.0,0.0,0.0,1.931152146,0.0,-0.0012207030000004337,-12655.0,0.0,0.0,0.0,0.0,0.125,0.04882812,0.0,-0.34423824600000064,-34169.0,0.0,-7.5,-0.0,0.0,0.0,2.824706742,0.0,-0.0012207030000004337,1.5399999618530273,-0.46000000834465027,0.009999999776482582,-0.02581787109375,0.0113525390625,1.05499267578125,34.5099983215332,0.0,-17.0,5.8290557861328125,-1.31524658203125,Waiting,0.0,0.0,-10842.0,0.0,0.0,0.0,0.0,0.0,
0.8347680000000001,0.0,0.0,3986.0,0.0,0.0,0.0,0.0,0.375,3.9062496,0.0,-0.34423824600000064,-39033.0,0.0,0.0,-0.0,0.0,0.0,1.931152146,0.0,-0.0012207030000004337,-12655.0,0.0,0.0,0.0,0.0,0.0,4.921874496,0.0,-0.24536130300000014,-34169.0,0.0,-7.5,-0.0,0.0,0.0,2.829589554,0.0,0.0024414060000008675,1.5499999523162842,-0.5,0.029999999329447746,-0.02947998046875,0.03857421875,1.01434326171875,34.5099983215332,0.0,-20.0,5.8290252685546875,-1.31524658203125,Waiting,0.0,0.0,-10842.0,0.0,0.0,0.0,0.0,0.0,
0.8655760000000009,0.0,0.0,3986.0,0.0,0.0,0.0,0.0,0.25,3.8342281230000004,0.0,-0.2661132539999995,-39033.0,0.0,0.0,-0.0,0.0,0.0,1.931152146,0.0,0.0012207030000004337,-12655.0,0.0,0.0,0.0,0.0,0.0,4.890136218,0.0,-0.24536130300000014,-34170.0,0.0,0.0,-0.0,0.0,0.0,2.829589554,0.0,0.0024414060000008675,1.5499999523162842,-0.5,0.07000000029802322,-0.00665283203125,0.046142578125,1.0321044921875,34.5099983215332,0.0,2.0,5.82891845703125,-1.31524658203125,Waiting,0.0,0.0,-10842.0,0.0,0.0,0.0,0.0,0.0,
0.8883280000000013,0.0,0.0,3986.0,0.0,0.0,0.0,0.0,0.125,3.822021093,0.0,-0.11230467600000038,-39033.0,0.0,0.0,-0.0,0.0,0.0,1.931152146,0.0,-0.0012207030000004337,-12655.0,0.0,0.0,0.0,0.0,0.0,4.877929188,0.0,4.846190910000001,-34170.0,0.0,0.0,-0.0,0.0,0.0,2.829589554,0.0,0.002441405999999091,1.5499999523162842,-0.5,0.10000000149011612,0.00445556640625,0.0316162109375,1.02362060546875,34.5099983215332,0.0,13.0,5.82891845703125,-1.31524658203125,Waiting,0.0,0.0,-10842.0,0.0,0.0,0.0,0.0,0.0,
0.9154179999999996,0.0,0.0,3986.0,0.0,0.0,0.0,0.0,0.125,3.812255469,0.0,-0.11230467600000038,-39033.0,0.0,0.0,-0.0,0.0,0.0,1.932372849,0.0,-0.0012207030000004337,-12655.0,0.0,0.0,0.0,0.0,0.0,4.887694812,0.0,4.846190910000001,-34170.0,0.0,0.0,-0.0,0.0,0.0,2.828368851,0.0,0.002441405999999091,1.5499999523162842,-0.4699999988079071,0.11999999731779099,0.00909423828125,0.02716064453125,1.02777099609375,34.5099983215332,0.0,17.0,5.8289947509765625,-1.31524658203125,Waiting,0.0,0.0,-10842.0,0.0,0.0,0.0,0.0,0.0,
0.9487150000000002,0.0,0.0,3986.0,0.0,0.0,0.0,0.0,0.125,3.813476172,0.0,-0.012207029999999897,-39033.0,0.0,0.0,-0.0,0.0,0.0,1.929931443,0.0,0.0,-12655.0,0.0,0.0,0.0,0.0,0.0,4.898681139000001,0.0,0.004882811999999959,-34170.0,0.0,0.0,-0.0,0.0,0.0,2.829589554,0.0,0.0,1.5499999523162842,-0.4399999976158142,0.11999999731779099,0.01275634765625,0.026611328125,1.00030517578125,34.5099983215332,0.0,20.0,5.82916259765625,-1.31524658203125,Waiting,0.0,0.0,-10842.0,0.0,0.0,0.0,0.0,0.0,
0.9707669999999998,0.0,0.0,3986.0,0.0,0.0,0.0,0.0,0.125,3.814696875,0.0,-0.012207029999999897,-39033.0,0.0,0.0,-0.0,0.0,0.0,1.931152146,0.0,0.0,-12655.0,0.0,0.0,0.0,0.0,0.0,4.90722606,0.0,0.004882811999999959,-34170.0,0.0,0.0,-0.0,0.0,0.0,2.828368851,0.0,0.0,1.5499999523162842,-0.41999998688697815,0.11999999731779099,0.0191650390625,0.02618408203125,1.00146484375,34.5099983215332,0.0,26.0,5.8292999267578125,-1.31524658203125,Waiting,0.0,0.0,-10842.0,0.0,0.0,0.0,0.0,0.0,
0.9965730000000004,0.0,0.0,3986.0,0.0,0.0,0.0,0.0,0.125,3.825683202,0.0,0.006103514999999948,-39033.0,0.0,0.0,-0.0,0.0,0.0,1.931152146,0.0,0.0,-12655.0,0.0,0.0,0.0,0.0,0.0,4.916991684,0.0,-4.932027346,-34170.0,0.0,0.0,-0.0,0.0,0.0,2.829589554,0.0,0.0,1.5499999523162842,-0.38999998569488525,0.10999999940395355,0.0076904296875,0.034423828125,0.98248291015625,34.5099983215332,0.0,14.0,5.82965087890625,-1.31524658203125,Waiting,0.0,0.0,-10842.0,0.0,0.0,0.0,0.0,0.0,
1.0162240000000002,0.0,0.0,3986.0,0.0,0.0,0.0,0.0,0.125,3.7988277360000002,0.0,0.006103514999999948,-39033.0,0.0,0.0,-0.0,0.0,0.0,1.931152146,0.0,0.0,-12655.0,0.0,0.0,0.0,0.0,0.0,4.927978011,0.0,-4.932027346,-34170.0,0.0,0.0,-0.0,0.0,0.0,2.829589554,0.0,0.0,1.5499999523162842,-0.38999998569488525,0.10999999940395355,-0.00927734375,0.02435302734375,1.01666259765625,34.5099983215332,0.0,-2.0,5.8298492431640625,-1.31524658203125,Waiting,0.0,0.0,-10842.0,0.0,0.0,0.0,0.0,0.0,
1.036755000000001,0.0,0.0,3986.0,0.0,0.0,0.0,0.0,0.125,3.819579687,0.0,0.0,-39033.0,0.0,0.0,-0.0,0.0,0.0,1.931152146,0.0,0.0012207030000004337,-12655.0,0.0,0.0,0.0,0.0,0.0,4.937743635,0.0,0.017089841999999855,-34170.0,0.0,0.0,-0.0,0.0,0.0,2.829589554,0.0,0.0,1.5499999523162842,-0.4000000059604645,0.10999999940395355,-0.020751953125,0.02581787109375,1.00897216796875,34.5099983215332,0.0,-13.0,5.8298492431640625,-1.31524658203125,Waiting,0.0,0.0,-10842.0,0.0,0.0,0.0,0.0,0.0,
1.067406000000001,0.0,0.0,3986.0,0.0,0.0,0.0,0.0,0.125,3.819579687,0.0,0.0,-39033.0,0.0,0.0,-0.0,0.0,0.0,1.932372849,0.0,0.0012207030000004337,-12655.0,0.0,0.0,0.0,0.0,0.0,4.937743635,0.0,0.017089841999999855,-34170.0,0.0,0.0,-0.0,0.0,0.0,2.829589554,0.0,0.0,1.5499999523162842,-0.4000000059604645,0.10999999940395355,-0.01885986328125,0.03143310546875,0.99053955078125,34.5099983215332,0.0,-11.0,5.8298492431640625,-1.31524658203125,Waiting,0.0,0.0,-10842.0,0.0,0.0,0.0,0.0,0.0,
1.088322,0.0,0.0,3986.0,0.0,0.0,0.0,0.0,0.125,3.80859336,0.0,0.0,-39033.0,0.0,0.0,-0.0,0.0,0.0,1.931152146,0.0,0.0,-12655.0,0.0,0.0,0.0,0.0,0.0,4.936522932,0.0,0.009765623999999917,-34170.0,0.0,0.0,-0.0,0.0,0.0,2.829589554,0.0,0.0,1.5499999523162842,-0.4300000071525574,0.10000000149011612,-0.01885986328125,0.031982421875,0.99554443359375,34.5099983215332,0.0,-11.0,5.8298492431640625,-1.31524658203125,Waiting,0.0,0.0,-10842.0,0.0,0.0,0.0,0.0,0.0,
1.114005000000001,0.0,0.0,3986.0,0.0,0.0,0.0,0.0,0.125,3.819579687,0.0,-0.0012207029999999897,-39033.0,0.0,0.0,-0.0,0.0,0.0,1.931152146,0.0,0.0,-12655.0,0.0,0.0,0.0,0.0,0.0,4.937743635,0.0,0.009765623999999917,-34170.0,0.0,0.0,-0.0,0.0,0.0,2.829589554,0.0,0.0,1.5499999523162842,-0.4399999976158142,0.10000000149011612,-0.01043701171875,0.02783203125,1.00335693359375,34.52000045776367,0.0,-2.0,5.8298492431640625,-1.31524658203125,Waiting,0.0,0.0,-10842.0,0.0,0.0,0.0,0.0,0.0,
1.1377540000000008,0.0,0.0,3986.0,0.0,0.0,0.0,0.0,0.125,3.82080039,0.0,0.0012207029999999897,-39033.0,0.0,0.0,-0.0,0.0,0.0,1.931152146,0.0,0.0,-12655.0,0.0,0.0,0.0,0.0,0.0,4.936522932,0.0,0.0,-34170.0,0.0,0.0,-0.0,0.0,0.0,2.829589554,0.0,0.0,1.5499999523162842,-0.4399999976158142,0.10999999940395355,-0.0091552734375,0.02874755859375,1.00146484375,34.52000045776367,0.0,-1.0,5.8298492431640625,-1.31524658203125,Waiting,0.0,0.0,-10842.0,0.0,0.0,0.0,0.0,0.0,
1.1672710000000006,0.0,0.0,3986.0,0.0,0.0,0.0,0.0,0.125,3.813476172,0.0,0.0012207029999999897,-39033.0,0.0,0.0,-0.0,0.0,0.0,1.931152146,0.0,0.0,-12655.0,0.0,0.0,0.0,0.0,0.0,4.935302229,0.0,0.0,-34170.0,0.0,0.0,-0.0,0.0,0.0,2.829589554,0.0,0.0,1.559999942779541,-0.4399999976158142,0.10999999940395355,0.00146484375,0.0250244140625,1.00006103515625,34.52000045776367,0.0,9.0,5.8298492431640625,-1.31524658203125,Waiting,0.0,0.0,-10842.0,0.0,0.0,0.0,0.0,0.0,
1.2040810000000002,0.0,0.0,3986.0,0.0,0.0,0.0,0.0,0.125,3.819579687,0.0,0.0012207029999999897,-39033.0,0.0,0.0,-0.0,0.0,0.0,1.933593552,0.0,0.0,-12655.0,0.0,0.0,0.0,0.0,0.0,4.935302229,0.0,0.0,-34170.0,0.0,0.0,-0.0,0.0,0.0,2.829589554,0.0,0.0,1.5499999523162842,-0.4300000071525574,0.10999999940395355,1.220703125E-4,0.0238037109375,0.9986572265625,34.52000045776367,0.0,7.0,5.8298492431640625,-1.31524658203125,Waiting,0.0,0.0,-10842.0,0.0,0.0,0.0,0.0,0.0,
1.2287430000000004,0.0,0.0,3986.0,0.0,0.0,0.0,0.0,0.125,3.82080039,0.0,0.0012207029999999897,-39033.0,0.0,0.0,-0.0,0.0,0.0,1.931152146,0.0,0.0,-12655.0,0.0,0.0,0.0,0.0,0.0,4.936522932,0.0,0.0,-34170.0,0.0,0.0,-0.0,0.0,0.0,2.828368851,0.0,0.0,1.5499999523162842,-0.41999998688697815,0.10999999940395355,-0.00244140625,0.02691650390625,0.99871826171875,34.52000045776367,0.0,4.0,5.8298492431640625,-1.31524658203125,Waiting,0.0,0.0,-10842.0,0.0,0.0,0.0,0.0,0.0,
1.2672929999999996,0.0,0.0,3986.0,0.0,0.0,0.0,0.0,0.125,3.82080039,0.0,-0.0024414059999999793,-39033.0,0.0,0.0,-0.0,0.0,0.0,1.931152146,0.0,0.0,-12655.0,0.0,0.0,0.0,0.0,0.0,4.936522932,0.0,0.0,-34170.0,0.0,0.0,-0.0,0.0,0.0,2.829589554,0.0,0.0,1.559999942779541,-0.41999998688697815,0.10999999940395355,-0.01318359375,0.02691650390625,1.0037841796875,34.52000045776367,0.0,-5.0,5.8298492431640625,-1.31524658203125,Waiting,0.0,0.0,-10842.0,0.0,0.0,0.0,0.0,0.0,
1.2863580000000001,0.0,0.0,3986.0,0.0,0.0,0.0,0.0,0.125,3.818358984,0.0,-0.0024414059999999793,-39033.0,0.0,0.0,-0.0,0.0,0.0,1.931152146,0.0,0.0,-12655.0,0.0,0.0,0.0,0.0,0.0,4.935302229,0.0,0.0,-34170.0,0.0,0.0,-0.0,0.0,0.0,2.827148148,0.0,0.0,1.559999942779541,-0.4300000071525574,0.10999999940395355,-0.02008056640625,0.0277099609375,1.00018310546875,34.52000045776367,0.0,-12.0,5.8298492431640625,-1.31524658203125,Waiting,0.0,0.0,-10842.0,0.0,0.0,0.0,0.0,0.0,
1.3088190000000013,0.0,0.0,3986.0,0.0,0.0,0.0,0.0,0.125,3.818358984,0.0,0.0,-39033.0,0.0,0.0,-0.0,0.0,0.0,1.934814255,0.0,0.0,-12655.0,0.0,0.0,0.0,0.0,0.0,4.938964338,0.0,0.0,-34170.0,0.0,0.0,-0.0,0.0,0.0,2.828368851,0.0,0.0,1.559999942779541,-0.4399999976158142,0.10999999940395355,-0.014892578125,0.02777099609375,0.995361328125,34.52000045776367,0.0,-7.0,5.8298492431640625,-1.31524658203125,Waiting,0.0,0.0,-10842.0,0.0,0.0,0.0,0.0,0.0,
1.3288160000000007,0.0,0.0,3986.0,0.0,0.0,0.0,0.0,0.125,3.819579687,0.0,0.0,-39033.0,0.0,0.0,-0.0,0.0,0.0,1.932372849,0.0,0.0,-12655.0,0.0,0.0,0.0,0.0,0.0,4.936522932,0.0,0.0,-34170.0,0.0,0.0,-0.0,0.0,0.0,2.829589554,0.0,0.0,1.5499999523162842,-0.4399999976158142,0.10999999940395355,-0.0123291015625,0.0272216796875,1.00189208984375,34.52000045776367,0.0,-4.0,5.8298492431640625,-1.31524658203125,Waiting,0.0,0.0,-10842.0,0.0,0.0,0.0,0.0,0.0,
1.3516540000000004,0.0,0.0,3986.0,0.0,0.0,-181.889770925045,0.0,0.125,3.818358984,0.0015167777695566083,0.0,-39033.0,0.0,0.0,181.889770925045,0.0,0.0,1.931152146,0.001512194436248117,0.0,-12655.0,0.0,0.0,-181.889770925045,0.0,0.0,4.936522932,0.001513722214017614,0.0,-34170.0,0.0,0.0,181.889770925045,0.0,0.0,2.829589554,0.001511736102917268,0.0,1.559999942779541,-0.4399999976158142,0.10999999940395355,-0.003662109375,0.02972412109375,1.00140380859375,34.52000045776367,0.0,4.0,5.8298492431640625,-1.31524658203125,Waiting,0.0,0.0,-10842.0,0.0,0.0,0.0,0.0,0.0,
1.3733199999999997,0.0,0.0,3986.0,0.125,0.0,-264.56692814826965,0.0,0.125,3.822021093,0.0015167777695566083,0.0012207029999999897,-39033.0,0.0,0.0,264.56692814826965,0.0,0.0,1.931152146,0.001512194436248117,-0.0012207030000004337,-12655.0,0.0,0.0,-264.56692814826965,0.0,0.0,4.938964338,0.001513722214017614,0.0012207029999995456,-34170.0,0.0,0.0,264.56692814826965,0.0,0.0,2.829589554,0.001511736102917268,0.0,1.559999942779541,-0.4300000071525574,0.10999999940395355,-0.00299072265625,0.030029296875,1.00042724609375,34.52000045776367,0.0,4.0,5.8298492431640625,-1.31524658203125,Waiting,0.0,0.0,-10842.0,0.0,0.0,0.0,0.0,0.0,
1.3960159999999997,0.0,0.0,3986.0,0.125,0.0,-264.56692814826965,0.0,0.125,3.819579687,0.0015167777695566083,0.0,-39033.0,0.125,0.0,264.56692814826965,0.0,0.0,1.931152146,0.001512194436248117,0.0,-12655.0,0.0,0.0,-264.56692814826965,0.0,0.0,4.937743635,0.001513722214017614,0.0,-34170.0,0.0,0.0,264.56692814826965,0.0,0.0,2.828368851,0.001511736102917268,0.0,1.559999942779541,-0.4300000071525574,0.10999999940395355,-0.00634765625,0.02960205078125,0.9998779296875,34.52000045776367,0.0,1.0,5.8298492431640625,-1.31524658203125,Waiting,0.0,0.0,-10842.0,0.0,0.0,0.0,0.0,0.0,
1.4173320000000003,0.0,0.0,3986.0,0.125,0.0,-264.56692814826965,0.0,0.125,3.819579687,0.0015167777695566083,0.0,-39033.0,0.125,0.0,264.56692814826965,0.0,0.0,1.931152146,0.001512194436248117,0.0,-12655.0,0.0,0.0,-264.56692814826965,0.0,0.0,4.937743635,0.001513722214017614,0.0,-34170.0,0.125,0.0,264.56692814826965,0.0,0.0,2.829589554,0.001511736102917268,0.0012207030000004337,1.559999942779541,-0.4300000071525574,0.10999999940395355,-0.00872802734375,0.02471923828125,1.0006103515625,34.52000045776367,0.0,-1.0,5.8298492431640625,-1.31524658203125,Waiting,0.0,0.0,-10842.0,0.0,0.0,0.0,0.0,0.0,
1.441309000000001,0.0,0.0,3986.0,0.25,0.0,-264.56692814826965,0.0,0.125,3.82080039,0.0015167777695566083,0.0,-39033.0,0.25,0.0,264.56692814826965,0.0,0.0,1.931152146,0.001512194436248117,0.0,-12655.0,0.0,0.0,-264.56692814826965,0.0,0.0,4.936522932,0.001513722214017614,0.0,-34170.0,0.25,0.0,264.56692814826965,0.0,0.0,2.829589554,0.001511736102917268,0.0,1.559999942779541,-0.4399999976158142,0.10000000149011612,-0.00830078125,0.0274658203125,0.99908447265625,34.52000045776367,0.0,0.0,5.8298492431640625,-1.31524658203125,Waiting,0.0,0.0,-10842.0,0.0,0.0,0.0,0.0,0.0,
1.4684800000000013,0.0,0.0,3986.0,0.375,0.0,-264.56692814826965,0.0,0.125,3.815917578,0.0013788889094327995,0.0,-39033.0,0.25,0.0,264.56692814826965,0.0,0.0,1.931152146,0.0013747222427040538,-0.0012207030000004337,-12655.0,0.0,0.0,-264.56692814826965,0.0,0.0,4.935302229,0.0013761111316136357,-0.0012207029999995456,-34170.0,0.375,0.0,264.56692814826965,0.0,0.0,2.821044633,0.0013743055760311793,0.0,1.559999942779541,-0.4399999976158142,0.10000000149011612,-0.01055908203125,0.02838134765625,1.00732421875,34.52000045776367,0.0,-2.0,5.8298492431640625,-1.31524658203125,Waiting,0.0,0.0,-10842.0,0.0,0.0,0.0,0.0,0.0,
1.4891419999999997,0.0,0.0,3986.0,0.375,0.0,-264.56692814826965,0.0,0.125,3.817138281,0.0013788889094327995,0.0012207029999999897,-39033.0,0.375,0.0,264.56692814826965,0.0,0.0,1.931152146,0.0013747222427040538,0.0,-12655.0,0.125,0.0,-264.56692814826965,0.0,0.0,4.935302229,0.0013761111316136357,0.0,-34170.0,0.375,0.0,264.56692814826965,0.0,0.0,2.828368851,0.0013743055760311793,0.0,1.559999942779541,-0.4399999976158142,0.10000000149011612,-0.00421142578125,0.03021240234375,0.99505615234375,34.52000045776367,0.0,3.0,5.8298492431640625,-1.31524658203125,Waiting,0.0,0.0,-10842.0,0.0,0.0,0.0,0.0,0.0,
1.5195820000000004,0.0,0.0,3986.0,0.5,0.0,-264.56692814826965,0.0,0.125,3.818358984,0.0013788889094327995,0.0,-39033.0,0.625,0.0,264.56692814826965,0.0,0.0,1.931152146,0.0013747222427040538,0.0012207030000004337,-12655.0,0.375,0.0,-264.56692814826965,0.0,0.0,4.936522932,0.0013761111316136357,0.0,-34170.0,0.5,0.0,264.56692814826965,0.0,0.0,2.829589554,0.0013743055760311793,0.0,1.559999942779541,-0.4399999976158142,0.10999999940395355,-0.005126953125,0.0299072265625,1.0028076171875,34.52000045776367,0.0,2.0,5.8298492431640625,-1.31524658203125,Waiting,0.0,0.0,-10842.0,0.0,0.0,0.0,0.0,0.0,
1.5401370000000005,0.0,0.0,3986.0,0.5,0.0,-264.56692814826965,0.0,0.125,3.819579687,0.0015167777695566083,0.0,-39033.0,0.75,0.0,264.56692814826965,0.0,0.0,1.931152146,0.001512194436248117,0.0,-12655.0,0.625,0.0,-264.56692814826965,0.0,0.0,4.937743635,0.001513722214017614,0.0,-34170.0,0.625,0.0,264.56692814826965,0.0,0.0,2.829589554,0.001511736102917268,0.0,1.559999942779541,-0.4399999976158142,0.10000000149011612,-0.00732421875,0.0264892578125,1.0025634765625,34.52000045776367,0.0,0.0,5.8298492431640625,-1.31524658203125,Waiting,0.0,0.0,-10842.0,0.0,0.0,0.0,0.0,0.0,
1.5692600000000003,0.0,0.0,3986.0,1.0,0.0,-264.56692814826965,0.0,0.125,3.819579687,0.0013788889094327995,-0.0012207029999999897,-39033.0,0.875,0.0,264.56692814826965,0.0,0.0,1.931152146,0.0013747222427040538,0.0,-12655.0,0.625,0.0,-264.56692814826965,0.0,0.0,4.935302229,0.0013761111316136357,-0.0012207029999995456,-34170.0,0.625,0.0,264.56692814826965,0.0,0.0,2.828368851,0.0013743055760311793,0.0,1.559999942779541,-0.4300000071525574,0.10000000149011612,-0.00616455078125,0.02557373046875,0.9989013671875,34.52000045776367,0.0,1.0,5.8298492431640625,-1.31524658203125,Waiting,0.0,0.0,-10842.0,0.0,0.0,0.0,0.0,0.0,
1.5903760000000002,0.0,0.0,3978.0,1.0,-7.5,-264.56692814826965,0.0,0.125,3.819579687,0.0013788889094327995,0.0012207029999999897,-39032.0,0.875,0.0,264.56692814826965,0.0,0.0,1.931152146,0.0013747222427040538,0.0,-12655.0,0.625,0.0,-264.56692814826965,0.0,0.0,4.936522932,0.0013761111316136357,0.0,-34169.0,0.875,7.5,264.56692814826965,0.0,0.0,2.829589554,0.0013743055760311793,0.0,1.559999942779541,-0.4399999976158142,0.10000000149011612,-0.02178955078125,0.04937744140625,1.0233154296875,34.52000045776367,0.0,-13.0,5.8298492431640625,-1.31524658203125,Waiting,0.0,0.0,-10842.0,0.0,0.0,0.0,0.0,0.0,
1.613898000000001,0.0,0.0,3978.0,1.125,-30.0,-264.56692814826965,0.0,0.125,3.8415523410000003,0.0013788889094327995,0.0,-39032.0,1.0,7.5,264.56692814826965,0.0,0.0,1.932372849,0.0013747222427040538,0.0012207030000004337,-12655.0,0.875,0.0,-264.56692814826965,0.0,0.0,4.937743635,0.0013761111316136357,0.0,-34169.0,1.0,7.5,264.56692814826965,0.0,0.0,2.828368851,0.0013743055760311793,0.0012207030000004337,1.559999942779541,-0.46000000834465027,0.10999999940395355,-0.03814697265625,0.047119140625,0.97760009765625,34.52000045776367,0.0,-30.0,5.8298187255859375,-1.3152008056640625,Waiting,0.0,0.0,-10842.0,0.0,0.0,0.0,0.0,0.0,
1.6343900000000013,0.0,0.0,3978.0,1.25,-52.5,-264.56692814826965,0.0,0.125,3.863524995,0.0015167777695566083,0.0,-39032.0,1.125,7.5,264.56692814826965,0.0,0.0,1.931152146,0.001512194436248117,0.0,-12655.0,1.0,0.0,-264.56692814826965,0.0,0.0,4.937743635,0.001513722214017614,0.0,-34169.0,1.0,0.0,264.56692814826965,0.0,0.0,2.829589554,0.001511736102917268,0.0,1.5499999523162842,-0.5099999904632568,0.14000000059604645,-0.08056640625,0.01641845703125,1.03936767578125,34.4900016784668,0.0,-71.0,5.8296051025390625,-1.31500244140625,Waiting,0.0,0.0,-10842.0,0.0,0.0,0.0,0.0,0.0,
1.6641730000000008,0.0,0.0,3978.0,1.25,-67.5,-264.56692814826965,0.0,0.125,3.8366695290000004,0.0019304444526601276,0.0012207029999999897,-39032.0,1.25,0.0,264.56692814826965,0.0,0.0,1.932372849,0.0019246111193019682,-0.0012207030000004337,-12655.0,1.75,-30.0,-264.56692814826965,0.0,0.0,4.935302229,0.001926555563754688,0.0,-34169.0,1.125,0.0,264.56692814826965,0.0,0.0,2.828368851,0.0019240277859661524,0.0,1.559999942779541,-0.550000011920929,0.17000000178813934,-0.03582763671875,0.0018310546875,0.9390869140625,34.4900016784668,0.0,-26.0,5.82940673828125,-1.3149261474609375,Waiting,0.0,0.0,-10842.0,0.0,0.0,0.0,0.0,0.0,
1.6878850000000003,0.0,0.0,3978.0,1.375,-75.0,-264.56692814826965,0.0,0.125,3.82080039,0.002619888856011265,-0.0024414059999999793,-39032.0,1.375,0.0,264.56692814826965,0.0,0.0,1.932372849,0.002611972189443946,0.0012207030000004337,-12655.0,2.0,-45.0,-264.56692814826965,0.0,0.0,4.936522932,0.002614611078299719,0.0,-34169.0,1.125,7.5,264.56692814826965,0.0,0.0,2.829589554,0.002611180522787214,0.0,1.5399999618530273,-0.5799999833106995,0.20000000298023224,-0.02069091796875,0.03863525390625,1.0023193359375,34.4900016784668,0.0,-10.0,5.8288726806640625,-1.3148345947265625,Waiting,0.0,0.0,-10842.0,0.0,0.0,0.0,0.0,0.0,
1.7111190000000005,0.0,0.0,3971.0,1.375,-67.5,-264.56692814826965,0.0,0.125,3.819579687,0.002757777818868734,0.0012207029999999897,-39027.0,1.625,15.0,264.56692814826965,0.0,0.0,1.933593552,0.0027494444854112335,-0.0012207030000004337,-12665.0,2.125,-52.5,-264.56692814826965,0.0,0.0,4.938964338,0.0027522222632304005,0.0,-34165.0,1.25,15.0,264.56692814826965,0.0,0.0,2.829589554,0.0027486111520654837,0.0012207030000004337,1.5399999618530273,-0.6100000143051147,0.2199999988079071,-0.0477294921875,0.0341796875,0.9888916015625,34.4900016784668,0.0,-37.0,5.828216552734375,-1.3148345947265625,Waiting,0.0,0.0,-10842.0,0.0,0.0,0.0,0.0,0.0,
1.734705,0.0,0.0,3971.0,1.5,-45.0,-264.56692814826965,0.0,0.125,3.819579687,0.0030335555391147843,-0.0012207029999999897,-39027.0,1.75,30.0,264.56692814826965,0.0,0.0,1.931152146,0.003024388872497797,0.0,-12665.0,2.125,-60.0,-264.56692814826965,0.0,0.0,4.937743635,0.003027444428036793,0.0,-34165.0,1.625,45.0,264.56692814826965,0.0,0.0,2.833251663,0.0030234722058360983,0.0,1.5499999523162842,-0.6499999761581421,0.20999999344348907,-0.0548095703125,0.029541015625,0.99957275390625,34.4900016784668,0.0,-43.0,5.82781982421875,-1.3148345947265625,Waiting,0.0,0.0,-10842.0,0.0,0.0,0.0,0.0,0.0,
1.7600960000000014,0.0,0.0,3971.0,1.75,-52.5,-264.56692814826965,0.0,0.125,3.819579687,0.0028956665762573147,0.0012207029999999897,-39027.0,1.875,45.0,264.56692814826965,0.0,0.0,1.931152146,0.0028869165765305093,0.0012207030000004337,-12665.0,2.25,-52.5,-264.56692814826965,0.0,0.0,4.942626447,0.0028898332431061113,0.0,-34165.0,1.625,45.0,264.56692814826965,0.0,0.0,2.829589554,0.002886041576557829,0.0,1.5700000524520874,-0.6800000071525574,0.2199999988079071,-0.0155029296875,0.074951171875,0.947265625,34.4900016784668,0.0,-3.0,5.826873779296875,-1.314788818359375,Waiting,0.0,0.0,-10842.0,0.0,0.0,0.0,0.0,0.0,
1.7803150000000005,0.0,0.0,3971.0,1.875,-60.0,-264.56692814826965,0.0,0.125,3.8330074200000004,0.0030335555391147843,0.0,-39027.0,2.0,52.5,264.56692814826965,0.0,0.0,1.929931443,0.003024388872497797,-0.0012207030000004337,-12665.0,2.125,-52.5,-264.56692814826965,0.0,0.0,4.937743635,0.003027444428036793,0.0,-34165.0,2.0,67.5,264.56692814826965,0.0,0.0,2.829589554,0.0030234722058360983,0.0,1.5800000429153442,-0.6899999976158142,0.2199999988079071,-0.0587158203125,0.0308837890625,1.01129150390625,34.4900016784668,0.0,-46.0,5.82635498046875,-1.3147125244140625,Waiting,0.0,0.0,-10842.0,0.0,0.0,0.0,0.0,0.0,
1.8083330000000006,0.0,0.0,3971.0,2.0,-75.0,-264.56692814826965,0.0,0.125,3.82080039,0.003309333259361618,-0.0012207029999999897,-39027.0,2.0,67.5,264.56692814826965,0.0,0.0,1.929931443,0.0032993332595851422,0.0012207030000004337,-12665.0,2.125,-60.0,-264.56692814826965,0.0,0.0,4.936522932,0.0033026665928439676,0.0,-34165.0,1.875,75.0,264.56692814826965,0.0,0.0,2.83203096,0.0032983332596074944,0.0,1.5800000429153442,-0.7400000095367432,0.25,-0.06005859375,0.03082275390625,0.95208740234375,34.4900016784668,0.0,-47.0,5.82513427734375,-1.3146209716796875,Waiting,0.0,0.0,-10842.0,0.0,0.0,0.0,0.0,0.0,
1.82833,0.0,0.0,3971.0,2.0,-82.5,-264.56692814826965,0.0,0.125,3.819579687,0.0034472222222190875,0.0012207029999999897,-39013.0,2.0,75.0,264.56692814826965,0.0,0.0,1.931152146,0.0034368055555524294,-0.0012207030000004337,-12678.0,2.25,-67.5,-264.56692814826965,0.0,0.0,4.935302229,0.0034402777777746488,-0.0012207029999995456,-34150.0,1.875,82.5,264.56692814826965,0.0,0.0,2.829589554,0.003435763888885764,0.0,1.5800000429153442,-0.7699999809265137,0.25,-0.02801513671875,0.01123046875,1.02557373046875,34.4900016784668,0.0,-14.0,5.8244476318359375,-1.3146209716796875,Waiting,0.0,0.0,-10842.0,0.0,0.0,0.0,0.0,0.0,
1.8508019999999996,0.0,0.0,3954.0,2.0,-90.0,-264.56692814826965,0.0,0.125,3.818358984,0.0034472222222190875,0.0,-39013.0,2.125,82.5,264.56692814826965,0.0,0.0,1.929931443,0.0034368055555524294,0.0,-12678.0,2.375,-75.0,-264.56692814826965,0.0,0.0,4.938964338,0.0034402777777746488,0.0,-34150.0,1.875,82.5,264.56692814826965,0.0,0.0,2.829589554,0.003435763888885764,0.0,1.5700000524520874,-0.7599999904632568,0.25999999046325684,-0.0435791015625,-0.0091552734375,0.94500732421875,34.4900016784668,0.0,-31.0,5.82373046875,-1.314666748046875,Waiting,0.0,0.0,-10842.0,0.0,0.0,0.0,0.0,0.0,
1.8700670000000008,0.0,0.0,3954.0,2.125,-97.5,-264.56692814826965,0.0,0.125,3.82080039,0.0037230001479355936,0.0012207029999999897,-39013.0,2.25,82.5,264.56692814826965,0.0,0.0,1.931152146,0.0037117501474885676,-0.0012207030000004337,-12678.0,2.375,-82.5,-264.56692814826965,0.0,0.0,4.934081526,0.0037155001476375763,0.0,-34150.0,1.875,90.0,264.56692814826965,0.0,0.0,2.829589554,0.0037106251474438652,0.0,1.5800000429153442,-0.8100000023841858,0.2800000011920929,-0.02679443359375,0.02978515625,0.92919921875,34.4900016784668,0.0,-13.0,5.8221435546875,-1.31475830078125,Waiting,0.0,0.0,-10842.0,0.0,0.0,0.0,0.0,0.0,
1.890223,0.0,0.0,3954.0,2.125,-105.0,-264.56692814826965,0.0,0.125,3.819579687,0.0038608889053233907,0.0,-39013.0,2.25,97.5,264.56692814826965,0.0,0.0,1.931152146,0.0038492222386070623,0.0012207030000004337,-12678.0,2.25,-105.0,-264.56692814826965,0.0,0.0,4.936522932,0.003853111127512505,0.0,-34150.0,2.125,97.5,264.56692814826965,0.0,0.0,2.829589554,0.0038480555719354295,0.0,1.5800000429153442,-0.8500000238418579,0.3199999928474426,-0.05548095703125,0.06658935546875,0.99249267578125,34.4900016784668,0.0,-40.0,5.82037353515625,-1.314727783203125,Waiting,0.0,0.0,-10842.0,0.0,0.0,0.0,0.0,0.0,
1.9130339999999997,0.0,0.0,3954.0,2.25,-120.0,-264.56692814826965,0.0,0.125,3.8293453110000004,0.004412444345816275,-0.0024414059999999793,-39013.0,2.25,105.0,264.56692814826965,0.0,0.0,1.931152146,0.0043991110127809705,0.0,-12678.0,2.25,-105.0,-264.56692814826965,0.0,0.0,4.935302229,0.004403555457126072,0.0,-34150.0,2.125,112.5,264.56692814826965,0.0,0.0,2.830810257,0.004397777679477441,0.0,1.600000023841858,-0.8899999856948853,0.3499999940395355,-0.10760498046875,0.04718017578125,0.9854736328125,34.4900016784668,0.0,-92.0,5.819366455078125,-1.314666748046875,Waiting,0.0,0.0,-10842.0,0.0,0.0,0.0,0.0,0.0,
1.9356180000000003,0.0,0.0,3954.0,2.25,-135.0,-264.56692814826965,0.0,0.125,3.8281246080000004,0.004826111028919794,-0.003662108999999969,-39013.0,2.25,112.5,264.56692814826965,0.0,0.0,1.931152146,0.004811527695834822,0.0,-12678.0,2.25,-135.0,-264.56692814826965,0.0,0.0,4.938964338,0.004816388806863146,0.0,-34128.0,2.0,120.0,264.56692814826965,0.0,0.0,2.829589554,0.004810069362526325,0.0,1.6100000143051147,-0.9300000071525574,0.3700000047683716,-0.0408935546875,0.01141357421875,1.0087890625,34.4900016784668,0.0,-24.0,5.8182830810546875,-1.3145904541015625,Waiting,0.0,0.0,-10842.0,0.0,0.0,0.0,0.0,0.0,
1.9650370000000004,0.0,0.0,3928.0,2.125,-157.5,-264.56692814826965,0.0,0.125,3.814696875,0.0055155556377406035,0.0,-38991.0,2.25,135.0,264.56692814826965,0.0,0.0,1.926269334,0.005498888970825592,0.0,-12703.0,2.25,-150.0,-264.56692814826965,0.0,0.0,4.938964338,0.00550444452646393,0.0,-34128.0,1.875,127.5,264.56692814826965,0.0,0.0,2.829589554,0.005497222304134092,-0.0012207030000004337,1.600000023841858,-0.949999988079071,0.41999998688697815,-0.02154541015625,0.033203125,0.98944091796875,34.4900016784668,0.0,-4.0,5.81597900390625,-1.314422607421875,Waiting,0.0,0.0,-10842.0,0.0,0.0,0.0,0.0,0.0,
1.9853770000000004,0.0,0.0,3928.0,2.0,-165.0,-264.56692814826965,0.0,0.125,3.807372657,0.005791333152516981,0.0,-38991.0,2.25,142.5,264.56692814826965,0.0,0.0,1.912841601,0.005773833153063363,-0.0012207030000004337,-12703.0,2.375,-165.0,-264.56692814826965,0.0,0.0,4.938964338,0.00577966648621457,-0.0012207029999995456,-34128.0,1.875,142.5,264.56692814826965,0.0,0.0,2.828368851,0.005772083153118002,0.0,1.6200000047683716,-0.9800000190734863,0.4399999976158142,-0.04193115234375,0.01910400390625,1.0067138671875,34.4900016784668,0.0,-24.0,5.814788818359375,-1.3143310546875,Waiting,0.0,0.0,-10842.0,0.0,0.0,0.0,0.0,0.0,
2.009113000000001,0.0,0.0,3928.0,1.875,-180.0,-264.56692814826965,0.0,0.125,3.814696875,0.006342889003949994,0.0012207029999999897,-38991.0,2.25,157.5,264.56692814826965,0.0,0.0,1.929931443,0.0063237223369356395,0.0,-12703.0,2.375,-180.0,-264.56692814826965,0.0,0.0,4.935302229,0.006330111225940424,0.0,-34128.0,1.875,157.5,264.56692814826965,0.0,0.0,2.828368851,0.006321805670234204,0.0,1.6299999952316284,-1.0099999904632568,0.4699999988079071,-0.03253173828125,-0.0150146484375,1.04632568359375,34.4900016784668,0.0,-14.0,5.81231689453125,-1.3142242431640625,Waiting,0.0,0.0,-10842.0,0.0,0.0,0.0,0.0,0.0,
2.0315740000000004,0.0,0.0,3928.0,1.75,-187.5,-264.56692814826965,0.0,0.125,3.814696875,0.006480777761337791,-0.0012207029999999897,-38991.0,2.25,165.0,264.56692814826965,0.0,0.0,1.9201658190000002,0.006461194428054134,0.0,-12703.0,2.25,-180.0,-264.56692814826965,0.0,0.0,4.936522932,0.006467722205815353,0.0,-34128.0,2.0,165.0,264.56692814826965,0.0,0.0,2.829589554,0.006459236094725768,0.0012207030000004337,1.6200000047683716,-1.0099999904632568,0.4699999988079071,-0.03656005859375,0.0361328125,1.00299072265625,34.4900016784668,0.0,-18.0,5.81231689453125,-1.3142242431640625,Waiting,0.0,0.0,-10842.0,0.0,0.0,0.0,0.0,0.0,
2.052738000000001,0.0,0.0,3928.0,1.875,-195.0,-264.56692814826965,0.0,0.125,3.817138281,0.006480777761337791,0.0012207029999999897,-38991.0,2.25,180.0,264.56692814826965,0.0,0.0,1.931152146,0.006461194428054134,0.0012207030000004337,-12703.0,2.375,-180.0,-264.56692814826965,0.0,0.0,4.937743635,0.006467722205815353,0.0012207029999995456,-34128.0,2.0,180.0,264.56692814826965,0.0,0.0,2.833251663,0.006459236094725768,-0.0012207030000004337,1.6299999952316284,-1.0299999713897705,0.47999998927116394,-0.0289306640625,0.0352783203125,0.9896240234375,34.4900016784668,0.0,-10.0,5.81231689453125,-1.3142242431640625,Waiting,0.0,0.0,-10842.0,0.0,0.0,0.0,0.0,0.0,
2.072928,0.0,0.0,3893.0,1.875,-202.5,-264.56692814826965,0.0,0.125,3.811034766,0.006618666518724804,0.0,-38958.0,2.25,187.5,264.56692814826965,0.0,0.0,1.931152146,0.006598666519171847,-0.0012207030000004337,-12736.0,2.25,-187.5,-264.56692814826965,0.0,0.0,4.936522932,0.006605333185689499,0.0,-34096.0,1.875,187.5,264.56692814826965,0.0,0.0,2.829589554,0.006596666519216552,0.0012207030000004337,1.6299999952316284,-1.0299999713897705,0.49000000953674316,-0.0440673828125,0.0048828125,1.0379638671875,34.4900016784668,0.0,-25.0,5.8123016357421875,-1.314239501953125,Waiting,0.0,0.0,-10842.0,0.0,0.0,0.0,0.0,0.0,
2.0932839999999997,0.0,0.0,3893.0,1.875,-210.0,-288.778922647075,0.0,0.125,3.813476172,0.3328551972434422,0.0,-38958.0,2.25,195.0,288.778922647075,0.0,0.0,1.92871074,0.3318493898383955,0.0,-12736.0,2.25,-187.5,-288.778922647075,0.0,0.0,4.936522932,0.33218465897341104,0.0,-34096.0,1.75,202.5,288.778922647075,0.0,0.0,2.833251663,0.33174880909789084,0.0,1.6299999952316284,-1.0499999523162842,0.5400000214576721,-0.02032470703125,0.04290771484375,0.95196533203125,34.4900016784668,0.0,-2.0,5.8121795654296875,-1.314208984375,Waiting,0.0,0.0,-10842.0,0.0,0.0,0.0,0.0,0.0,
2.1145339999999995,0.0,0.0,3893.0,1.875,-217.5,-303.5502033064464,0.0,0.125,3.814696875,0.41225681967102706,0.0,-38958.0,2.125,202.5,303.5502033064464,0.0,0.125,1.9506833940000001,0.4110110798855585,0.0012207029999995456,-12736.0,2.25,-202.5,-303.5502033064464,0.0,0.0,4.937743635,0.4114263264807147,0.0,-34096.0,1.75,202.5,303.5502033064464,0.0,0.5,2.862548535,0.4108865059070117,0.0,1.6299999952316284,-1.059999942779541,0.5699999928474426,-0.05303955078125,0.00390625,1.03338623046875,34.4900016784668,0.0,-34.0,5.812103271484375,-1.314178466796875,Waiting,0.0,0.0,-10842.0,0.0,0.0,0.0,0.0,0.0,
2.1334920000000004,0.0,0.0,3893.0,1.875,-225.0,-321.0600383681797,0.0,0.375,3.82080039,0.4836938716279968,0.004882811999999959,-38958.0,2.125,210.0,321.0600383681797,0.0,0.75,1.988525187,0.48223226645587347,0.035400387000000144,-12736.0,2.25,-217.5,-321.0600383681797,0.0,0.125,0.020751951,0.48271946817991457,0.003662109000000413,-34096.0,1.875,202.5,321.0600383681797,0.0,0.875,2.9052731400000003,0.48208610593866114,0.03173827800000062,1.6200000047683716,-1.100000023841858,0.6100000143051147,-0.0718994140625,0.05438232421875,0.98626708984375,34.4900016784668,0.0,-52.0,5.81195068359375,-1.31414794921875,Waiting,0.0,0.0,-10842.0,0.0,0.0,0.0,0.0,0.0,
2.155722,0.0,0.0,3893.0,1.875,-240.0,-351.5481279304247,0.0,0.5,3.825683202,0.576733034587698,0.0,-38958.0,2.25,217.5,351.5481279304247,0.0,1.0,2.055663852,0.5749902877063894,0.051269525999999566,-12736.0,2.375,-240.0,-351.5481279304247,0.0,0.375,0.07324218,0.5755712033334922,0.05165675199999953,-34096.0,1.875,210.0,351.5481279304247,0.0,0.875,2.968749696,0.5748160130182586,-4.892568365,1.6299999952316284,-1.1299999952316284,0.6700000166893005,-0.0833740234375,-0.0255126953125,1.05230712890625,34.5,0.0,-63.0,5.8115081787109375,-1.3140411376953125,Waiting,0.0,0.0,-10842.0,0.0,0.0,0.0,0.0,0.0,
2.1737520000000004,0.0,0.0,3893.0,2.0,-247.5,-386.0235647210732,0.0,0.875,3.8854976490000004,0.6536719825329983,0.023193357000000248,-38958.0,2.5,225.0,386.0235647210732,0.0,1.375,2.1130368930000003,0.6516967448742563,0.059814447000000825,-12736.0,2.375,-247.5,-386.0235647210732,0.0,0.625,0.136718736,0.6523551574271703,0.04638671399999961,-34096.0,2.25,210.0,386.0235647210732,0.0,0.875,3.02734344,0.6514992211083821,0.05126952600000001,1.6100000143051147,-1.159999966621399,0.6800000071525574,-0.0477294921875,-0.00115966796875,0.9498291015625,34.5,0.0,-28.0,5.811187744140625,-1.314056396484375,Waiting,0.0,0.0,-10842.0,0.0,0.0,0.0,0.0,0.0,
2.2078360000000012,0.0,0.0,3849.0,2.125,-262.5,-436.54795188535394,0.0,0.625,3.9941402160000004,0.7359964380407873,0.09521483400000008,-38919.0,2.625,232.5,436.54795188535394,0.0,1.0,2.235107193,0.7337724359113327,0.0,-12780.0,2.375,-277.5,-436.54795188535394,0.0,0.375,0.252685521,0.7345137699544843,0.09399413100000054,-34059.0,2.375,225.0,436.54795188535394,0.0,0.875,3.128661789,0.7335500356983873,0.09155272500000011,1.5099999904632568,-1.2899999618530273,0.7099999785423279,-0.0831298828125,-0.07171630859375,1.0477294921875,34.5,0.0,-60.0,5.8095550537109375,-1.314544677734375,Waiting,0.0,0.0,-10842.0,0.0,0.0,0.0,0.0,0.0,
2.2276630000000006,0.0,0.0,3849.0,2.25,-277.5,-449.8124215030895,0.0,0.875,4.067382396,0.7540126784129731,0.0805663980000002,-38919.0,2.875,247.5,449.8124215030895,0.0,1.0,2.297363046,0.7517342355894043,0.09033202199999923,-12780.0,2.625,-277.5,-449.8124215030895,0.0,0.375,0.328369107,0.7524937165305939,0.09033202200000012,-34059.0,2.5,240.0,449.8124215030895,0.0,0.875,3.2116695930000003,0.7515063913070475,0.08422850699999973,1.4299999475479126,-1.309999942779541,0.7200000286102295,-0.0067138671875,-0.049560546875,0.95660400390625,34.5,0.0,14.0,5.8088531494140625,-1.3149261474609375,Waiting,0.0,0.0,-10842.0,0.0,0.0,0.0,0.0,0.0,
2.246870000000001,0.0,0.0,3849.0,2.375,-292.5,-463.28731217419875,0.0,0.875,4.171142151000001,0.7707369964153488,0.0,-38919.0,3.125,255.0,463.28731217419875,0.0,0.625,2.369384523,0.7684080167726753,0.0,-12780.0,2.75,-292.5,-463.28731217419875,0.0,0.375,0.42846675300000003,0.7691843433202332,0.0,-34059.0,2.75,247.5,463.28731217419875,0.0,0.875,3.300780912,0.768175118808408,0.0,1.3600000143051147,-1.2699999809265137,0.7400000095367432,-0.00921630859375,-0.09808349609375,1.04345703125,34.5,0.0,12.0,5.8088531494140625,-1.315460205078125,Waiting,0.0,0.0,-10842.0,0.0,0.0,0.0,0.0,0.0,
2.2680339999999997,0.0,0.0,3849.0,2.5,-315.0,-463.2873121741988,0.0,1.0,4.263915579,0.7711506626875122,0.10864256700000041,-38919.0,3.375,270.0,463.2873121741988,0.0,0.625,2.4304196730000003,0.7688204330460309,0.07690428900000068,-12780.0,3.0,-307.5,-463.2873121741988,0.0,0.375,0.496826121,0.769597176259858,0.09765624000000006,-34059.0,2.75,247.5,463.2873121741988,0.0,0.875,3.3642574680000004,0.7685874100818828,0.10253905200000002,1.1699999570846558,-1.2699999809265137,0.7599999904632568,1.220703125E-4,-0.14031982421875,1.04046630859375,34.5,0.0,21.0,5.808990478515625,-1.3170928955078125,Waiting,0.0,0.0,-10842.0,0.0,0.0,0.0,0.0,0.0,
2.288223,0.0,0.0,3849.0,2.625,-330.0,-476.9548126152916,0.0,0.625,4.337157759,0.7869309576491541,0.07812499200000023,-38919.0,3.375,277.5,476.9548126152916,0.0,0.625,2.491454823,0.7845530437964672,0.058593743999999504,-12780.0,3.125,-330.0,-476.9548126152916,0.0,0.125,0.562744083,0.7853456817473629,0.06958007099999985,-34059.0,3.125,255.0,476.9548126152916,0.0,0.5,3.44238246,0.7843152524111986,0.0646972589999999,1.059999942779541,-1.2400000095367432,0.7599999904632568,0.00433349609375,-0.14837646484375,0.88458251953125,34.5,0.0,21.0,5.809112548828125,-1.3182373046875,Waiting,0.0,0.0,-10842.0,0.0,0.0,0.0,0.0,0.0,
2.309732,0.0,0.0,3790.0,2.75,-352.5,-490.7988320120132,0.0,0.375,4.420165563,0.8016964302874345,0.09033202200000012,-38869.0,3.5,292.5,490.7988320120132,0.0,0.5,2.564697003,0.799273898769644,0.07324217999999938,-12839.0,3.0,-345.0,-490.7988320120132,0.0,0.125,0.631103451,0.8000814092755741,0.07568358600000025,-34013.0,3.25,270.0,490.7988320120132,0.0,0.25,3.494872689,0.799031645617865,0.0756835859999998,0.8199999928474426,-1.1699999570846558,0.7699999809265137,0.0528564453125,-0.1593017578125,0.96734619140625,34.5,0.0,70.0,5.809539794921875,-1.321319580078125,Waiting,0.0,0.0,-10842.0,0.0,0.0,0.0,0.0,0.0,
2.327683000000001,0.0,0.0,3790.0,2.75,-360.0,-533.2516916017332,0.0,0.25,4.472655792,0.8414685809647148,0.0708007739999994,-38869.0,3.625,307.5,533.2516916017332,0.0,0.375,2.607421608,0.8389258676862154,0.057373041000000846,-12839.0,3.0,-360.0,-533.2516916017332,0.0,0.125,0.675048759,0.8397734387790485,0.06103514999999948,-34013.0,3.25,285.0,533.2516916017332,0.0,0.25,3.538817997,0.8386715963583654,0.05737304099999996,0.699999988079071,-1.1399999856948853,0.7699999809265137,0.01788330078125,-0.15960693359375,1.0360107421875,34.5,0.0,36.0,5.8098602294921875,-1.3232421875,Waiting,0.0,0.0,-10842.0,0.0,0.0,0.0,0.0,0.0,
2.350352000000001,0.0,0.0,3790.0,2.875,-375.0,-533.2516916017332,0.0,0.25,4.523925318,0.8414685809647148,0.0,-38869.0,3.875,322.5,533.2516916017332,0.0,0.375,2.652587619,0.8389258676862154,0.0,-12839.0,3.125,-375.0,-533.2516916017332,0.0,0.125,0.7141112550000001,0.8397734387790485,0.0,-34013.0,3.25,300.0,533.2516916017332,0.0,0.25,3.5778804930000003,0.8386715963583654,0.0,0.5899999737739563,-1.149999976158142,0.7799999713897705,0.0491943359375,-0.0689697265625,1.01556396484375,34.5,0.0,68.0,5.8102569580078125,-1.3253173828125,Waiting,0.0,0.0,-10842.0,0.0,0.0,0.0,0.0,0.0,
2.368927,0.0,0.0,3790.0,2.875,-390.0,-533.2516916017332,0.0,0.25,4.56542922,0.8417443593013723,0.058593743999999504,-38869.0,4.125,345.0,533.2516916017332,0.0,0.25,2.6855466000000003,0.8392008126878506,0.051269525999999566,-12839.0,3.125,-397.5,-533.2516916017332,0.0,0.125,0.7385253150000001,0.8400486615590245,0.04516601100000006,-34013.0,3.375,315.0,533.2516916017332,0.0,0.0,3.596191038,0.8389464580264985,0.04272460500000008,0.5,-1.090000033378601,0.7900000214576721,-0.00152587890625,-0.08984375,0.92095947265625,34.5,0.0,13.0,5.8112030029296875,-1.33001708984375,Waiting,0.0,0.0,-10842.0,0.0,0.0,0.0,0.0,0.0,
2.3874560000000002,0.0,0.0,3790.0,2.875,-405.0,-497.43902696188127,0.0,0.25,4.587401874,1.0392387503633604,0.026855465999999772,-38869.0,4.25,360.0,497.43902696188127,0.0,0.125,2.70996066,1.0360984237607311,0.028076169000000206,-12839.0,3.375,-412.5,-497.43902696188127,0.0,0.125,0.75683586,1.037145199294941,0.024414059999999793,-34013.0,3.625,337.5,497.43902696188127,0.0,0.0,3.619384395,1.0357843911004683,0.024414059999999793,0.4300000071525574,-1.0299999713897705,0.7900000214576721,-0.00152587890625,-0.08984375,0.92095947265625,34.5,0.0,13.0,5.8112030029296875,-1.33001708984375,Waiting,0.0,0.0,-10842.0,0.0,0.0,0.0,0.0,0.0,
2.409747000000001,0.0,0.0,3790.0,2.75,-427.5,-497.43902696188127,0.0,0.25,4.6057124190000005,1.0392387503633604,0.025634763000000227,-38869.0,4.125,375.0,497.43902696188127,0.0,0.125,2.7380368290000003,1.0360984237607311,0.025634763000000227,-12839.0,3.25,-427.5,-497.43902696188127,0.0,0.0,0.7763671080000001,1.037145199294941,0.01586913900000031,-34013.0,3.625,360.0,497.43902696188127,0.0,0.0,3.64990197,1.0357843911004683,0.01953124800000028,0.33000001311302185,-1.0299999713897705,0.7799999713897705,-0.01226806640625,-0.0753173828125,1.1175537109375,34.5,0.0,6.0,5.8121490478515625,-1.33514404296875,Waiting,0.0,0.0,-10842.0,0.0,0.0,0.0,0.0,0.0,
2.428378000000001,0.0,0.0,3790.0,2.625,-442.5,-493.2993790516301,0.0,0.25,4.636229994000001,1.0646341180880392,0.023193357000000248,-38801.0,3.875,390.0,493.2993790516301,0.0,0.25,2.772216513,1.0614170528641629,0.03173827799999973,-12913.0,3.125,-435.0,-493.2993790516301,0.0,0.125,0.8020018710000001,1.0624894079387883,0.0183105449999994,-33945.0,3.375,390.0,493.2993790516301,0.0,0.25,3.6816402480000003,1.0610953463417754,0.028076168999999762,0.33000001311302185,-1.0299999713897705,0.7799999713897705,-0.01226806640625,-0.0753173828125,1.1175537109375,34.5,0.0,6.0,5.8126678466796875,-1.3378753662109375,Waiting,0.0,0.0,-10842.0,0.0,0.0,0.0,0.0,0.0,
2.447385,0.0,0.0,3716.0,2.375,-457.5,-493.2993790516301,0.0,0.25,4.677733896,1.0646341180880392,0.0,-38801.0,3.5,412.5,493.2993790516301,0.0,0.375,2.81982393,1.0614170528641629,0.0,-12913.0,2.625,-457.5,-493.2993790516301,0.0,0.125,0.8422850700000001,1.0624894079387883,0.0,-33945.0,3.125,412.5,493.2993790516301,0.0,0.25,3.7292476650000004,1.0610953463417754,0.0,0.2199999988079071,-1.0,0.7900000214576721,0.04058837890625,-0.02001953125,0.9580078125,34.5,0.0,57.0,5.813262939453125,-1.3406829833984375,Waiting,0.0,0.0,-10842.0,0.0,0.0,0.0,0.0,0.0,
2.468828000000001,0.0,0.0,3716.0,2.25,-472.5,-493.2993790516302,0.0,0.25,4.7058100650000005,1.0647720076673088,0.04394530799999963,-38801.0,3.375,435.0,493.2993790516302,0.0,0.5,2.858886426,1.0615545257746797,0.05493163499999909,-12913.0,2.625,-472.5,-493.2993790516302,0.0,0.125,0.872802645,1.0626270197388894,0.04516601100000006,-33945.0,2.875,435.0,493.2993790516302,0.0,0.25,3.758544537,1.061232777585417,0.052490229,0.1899999976158142,-0.9599999785423279,0.7900000214576721,0.05657958984375,-0.0709228515625,0.86346435546875,34.5,0.0,70.0,5.8139495849609375,-1.34356689453125,Waiting,0.0,0.0,-10842.0,0.0,0.0,0.0,0.0,0.0,
2.4870429999999994,0.0,0.0,3716.0,2.25,-472.5,-493.2993790516302,0.0,0.25,4.733886234,1.0647720076673088,0.029296871999999752,-38801.0,3.25,457.5,493.2993790516302,0.0,0.25,2.8918454070000004,1.0615545257746797,0.0341796840000006,-12913.0,2.25,-487.5,-493.2993790516302,0.0,0.0,0.90332022,1.0626270197388894,0.029296871999999752,-33945.0,2.625,450.0,493.2993790516302,0.0,0.25,3.7915035180000003,1.061232777585417,0.025634762999999783,0.1599999964237213,-0.9300000071525574,0.7900000214576721,5.4931640625E-4,-0.00335693359375,1.0841064453125,34.5,0.0,18.0,5.814697265625,-1.3465118408203125,Waiting,0.0,0.0,-10842.0,0.0,0.0,0.0,0.0,0.0,
2.509421,0.0,0.0,3716.0,1.875,-495.0,-496.06300592422485,0.0,0.125,4.7680659180000005,1.2518932225180983,0.028076169000000206,-38801.0,3.0,480.0,496.06300592422485,0.0,0.125,2.927245794,1.2481103058505374,0.035400387000000144,-12913.0,2.25,-502.5,-496.06300592422485,0.0,0.0,0.928954983,1.2493712780730577,0.03173827799999973,-33945.0,2.625,472.5,496.06300592422485,0.0,0.0,3.825683202,1.2477320141837813,0.035400387000000144,0.09000000357627869,-0.8700000047683716,0.7900000214576721,0.0299072265625,-0.07330322265625,1.0235595703125,34.5,0.0,44.0,5.8164520263671875,-1.3525848388671875,Waiting,0.0,0.0,-10842.0,0.0,0.0,0.0,0.0,0.0,
2.5282129999999996,0.0,0.0,3716.0,1.875,-495.0,-496.06300592422485,0.0,0.125,4.787597166,1.2518932225180983,0.021972653999999814,-38801.0,3.0,480.0,496.06300592422485,0.0,0.0,2.9467770420000003,1.2481103058505374,0.026855465999999772,-12913.0,2.125,-517.5,-496.06300592422485,0.0,0.125,0.953369043,1.2493712780730577,0.023193357000000248,-33945.0,2.5,487.5,496.06300592422485,0.0,0.0,3.8439937470000003,1.2477320141837813,0.03173827799999973,0.03999999910593033,-0.8299999833106995,0.7900000214576721,0.03515625,-0.037353515625,0.8443603515625,34.5,0.0,46.0,5.8174285888671875,-1.3557586669921875,Waiting,0.0,0.0,-10842.0,0.0,0.0,0.0,0.0,0.0,
2.564178,0.0,0.0,3629.0,1.75,-525.0,-496.0630059242249,0.0,0.125,4.807128414,1.2517553329388287,0.0,-38718.0,2.75,502.5,496.0630059242249,0.0,0.125,2.984618835,1.2479728329400206,0.0,-13000.0,2.0,-540.0,-496.0630059242249,0.0,0.125,0.979003806,1.2492336662729566,0.0,-33863.0,2.125,510.0,496.0630059242249,0.0,0.0,3.8903804610000003,1.2475945829401398,0.0,-0.03999999910593033,-0.6700000166893005,0.800000011920929,0.1187744140625,-0.0120849609375,0.9107666015625,34.5,0.0,129.0,5.820953369140625,-1.365570068359375,Waiting,0.0,0.0,-10842.0,0.0,0.0,0.0,0.0,0.0,
2.5829140000000006,0.0,0.0,3629.0,1.625,-540.0,-496.06300592422485,0.0,0.25,4.847411613,1.252031111275486,0.03417968399999971,-38718.0,2.5,517.5,496.06300592422485,0.0,0.125,3.013915707,1.2482477779416559,0.03417968399999971,-13000.0,2.0,-540.0,-496.06300592422485,0.0,0.125,1.036376847,1.2495088890529324,0.03662108999999969,-33863.0,2.0,525.0,496.06300592422485,0.0,0.0,3.916015224,1.2478694446082728,0.035400387000000144,-0.03999999910593033,-0.6299999952316284,0.8100000023841858,0.0706787109375,-0.03680419921875,1.03338623046875,34.5,0.0,81.0,5.822357177734375,-1.368927001953125,Waiting,0.0,0.0,-10842.0,0.0,0.0,0.0,0.0,0.0,
2.6038819999999996,0.0,0.0,3629.0,1.625,-547.5,-496.0630059242249,0.0,0.25,4.882812,1.2521690000328738,0.0,-38718.0,2.375,532.5,496.0630059242249,0.0,0.25,3.0480953910000004,1.2483852500327743,0.0,-13000.0,1.75,-547.5,-496.0630059242249,0.0,0.125,1.063232313,1.2496465000328074,0.0,-33863.0,2.0,532.5,496.0630059242249,0.0,0.25,3.9562984230000002,1.2480068750327644,0.0,-0.05000000074505806,-0.5600000023841858,0.8199999928474426,-0.00701904296875,-0.038818359375,0.92791748046875,34.5,0.0,115.0,5.825347900390625,-1.375762939453125,Waiting,0.0,0.0,-10842.0,0.0,0.0,0.0,0.0,0.0,
2.6245030000000007,0.0,0.0,3629.0,1.5,-555.0,-496.06300592422485,0.0,0.25,4.9182123870000005,1.2524447775476495,0.04150390199999965,-38718.0,2.25,547.5,496.06300592422485,0.0,0.25,3.077392263,1.2486601942150113,0.037841793000000123,-13000.0,1.75,-555.0,-496.06300592422485,0.0,0.125,1.096191294,1.2499217219925574,0.0402831990000001,-33863.0,1.875,540.0,496.06300592422485,0.0,0.25,3.981933186,1.2482817358817475,0.035400387000000144,-0.07999999821186066,-0.5299999713897705,0.8299999833106995,0.0577392578125,-0.00146484375,1.02099609375,34.5,0.0,67.0,5.8270111083984375,-1.375762939453125,Waiting,0.0,0.0,-10842.0,0.0,0.0,0.0,0.0,0.0,
2.643072,0.0,0.0,3629.0,1.125,-562.5,-496.06300592422485,0.0,0.25,4.940185041,1.2524447775476495,0.0,-38718.0,2.125,562.5,496.06300592422485,0.0,0.25,3.129882492,1.2486601942150113,0.0,-13000.0,1.5,-555.0,-496.06300592422485,0.0,0.125,1.124267463,1.2499217219925574,0.0,-33863.0,1.875,540.0,496.06300592422485,0.0,0.25,4.008788652,1.2482817358817475,0.0,-0.09000000357627869,-0.44999998807907104,0.8299999833106995,0.09576416015625,-0.07061767578125,0.96685791015625,34.5,0.0,102.0,5.8287811279296875,-1.3758087158203125,Waiting,0.0,0.0,-10842.0,0.0,0.0,0.0,0.0,0.0,
2.6670429999999996,0.0,0.0,3629.0,1.125,-570.0,-496.0630059242249,0.0,0.125,0.019531248,1.2525826663050372,0.019531247999999835,-38625.0,2.0,570.0,496.0630059242249,0.0,0.125,3.126220383,1.2487976663061298,0.032958981000000165,-13091.0,1.5,-562.5,-496.0630059242249,0.0,0.0,1.116943245,1.2500593329724323,0.0354003869999997,-33774.0,1.75,547.5,496.0630059242249,0.0,0.0,4.0283199000000005,1.2484191663062392,0.030517575000000186,-0.11999999731779099,-0.4000000059604645,0.8500000238418579,0.07940673828125,-0.05413818359375,1.02667236328125,34.5099983215332,0.0,85.0,5.8326568603515625,-1.37615966796875,Waiting,0.0,0.0,-10842.0,0.0,0.0,0.0,0.0,0.0,
2.687249,0.0,0.0,3536.0,1.0,-577.5,-496.0630059242249,0.0,0.125,0.029296872,1.2527205558843069,0.04700831599999988,-38625.0,1.875,577.5,496.0630059242249,0.0,0.0,3.143310225,1.2489351392166466,0.015869138999999866,-13091.0,1.25,-562.5,-496.0630059242249,0.0,0.125,1.1608885530000002,1.2501969447725334,0.01831054500000029,-33774.0,1.75,547.5,496.0630059242249,0.0,0.0,4.041747633,1.2485565975498807,0.019531247999999835,-0.11999999731779099,-0.3199999928474426,0.8500000238418579,0.08099365234375,-0.01446533203125,0.98907470703125,34.5099983215332,0.0,86.0,5.83477783203125,-1.3764190673828125,Waiting,0.0,0.0,-10842.0,0.0,0.0,0.0,0.0,0.0,
2.708204,0.0,0.0,3536.0,0.875,-585.0,-496.0630059242249,0.0,0.125,0.04882812,1.2527205558843069,0.0,-38625.0,1.875,577.5,496.0630059242249,0.0,0.0,3.1579586610000003,1.2489351392166466,0.0,-13091.0,1.25,-570.0,-496.0630059242249,0.0,0.0,1.1865233160000002,1.2501969447725334,0.0,-33774.0,1.75,547.5,496.0630059242249,0.0,0.0,4.057616772,1.2485565975498807,0.0,-0.11999999731779099,-0.23999999463558197,0.8500000238418579,0.05487060546875,-0.00799560546875,1.04852294921875,34.5099983215332,0.0,59.0,5.83697509765625,-1.3766937255859375,Waiting,0.0,0.0,-10842.0,0.0,0.0,0.0,0.0,0.0,
2.726254000000001,0.0,0.0,3536.0,0.875,-585.0,-496.0630059242249,0.0,0.125,0.057373041,1.2525826663050372,0.013427732999999886,-38625.0,1.75,570.0,496.0630059242249,0.0,0.0,3.1628414730000003,1.2487976663061298,0.01464843600000032,-13091.0,1.0,-570.0,-496.0630059242249,0.0,0.0,1.1914061280000001,1.2500593329724323,0.014648435999999876,-33774.0,1.625,555.0,496.0630059242249,0.0,0.0,4.067382396,1.2484191663062392,0.010986326999999463,-0.10999999940395355,-0.1599999964237213,0.8199999928474426,0.0218505859375,0.0234375,1.05462646484375,34.5099983215332,0.0,25.0,5.84161376953125,-1.3771209716796875,Waiting,0.0,0.0,-10842.0,0.0,0.0,0.0,0.0,0.0,
2.7444979999999997,0.0,0.0,3536.0,0.75,-585.0,-496.06300592422485,0.0,0.125,0.06103515,1.2523068887902618,0.004882811999999959,-38625.0,1.75,570.0,496.06300592422485,0.0,0.0,3.1677242850000003,1.2485227221238928,0.0,-13091.0,1.0,-570.0,-496.06300592422485,0.0,0.0,1.1914061280000001,1.2497841110126824,0.0,-33774.0,1.625,555.0,496.06300592422485,0.0,0.0,4.071044505000001,1.248144305457256,0.0,-0.10999999940395355,-0.12999999523162842,0.8100000023841858,0.053955078125,0.006591796875,0.93316650390625,34.5099983215332,0.0,56.0,5.844024658203125,-1.377288818359375,Waiting,0.0,0.0,-10842.0,0.0,0.0,0.0,0.0,0.0,
2.767706,0.0,0.0,3536.0,0.75,-577.5,-496.0630059242249,0.0,0.125,0.065917962,1.2521690000328738,0.006103514999999948,-38625.0,1.625,577.5,496.0630059242249,0.0,0.0,3.1677242850000003,1.2483852500327743,0.003662108999999969,-13091.0,0.875,-570.0,-496.0630059242249,0.0,0.0,1.202392455,1.2496465000328074,0.009765623999999917,-33774.0,1.625,562.5,496.0630059242249,0.0,0.0,4.0783687230000005,1.2480068750327644,0.004882811999999959,-0.10000000149011612,-0.12999999523162842,0.8100000023841858,0.067138671875,-0.01129150390625,1.04925537109375,34.5099983215332,0.0,69.0,5.8465118408203125,-1.377288818359375,Waiting,0.0,0.0,-10842.0,0.0,0.0,0.0,0.0,0.0,
2.786165000000001,0.0,0.0,3536.0,0.75,-577.5,-496.0630059242249,0.0,0.125,0.06469725900000001,1.2521690000328738,-0.0012207029999999897,-38625.0,1.5,577.5,496.0630059242249,0.0,0.0,3.1677242850000003,1.2483852500327743,0.0012207029999999897,-13184.0,0.875,-577.5,-496.0630059242249,0.0,0.0,1.206054564,1.2496465000328074,0.004882811999999959,-33682.0,1.5,570.0,496.0630059242249,0.0,0.0,4.072265208,1.2480068750327644,0.0,-0.07999999821186066,-0.10000000149011612,0.800000011920929,-0.0263671875,0.0091552734375,1.02056884765625,34.5099983215332,0.0,-24.0,5.8515777587890625,-1.3772430419921875,Waiting,0.0,0.0,-10842.0,0.0,0.0,0.0,0.0,0.0,
2.8071589999999995,0.0,0.0,3443.0,0.5,-577.5,-496.06300592422485,0.0,0.125,0.06103515,1.252031111275486,0.0,-38531.0,1.5,585.0,496.06300592422485,0.0,0.0,3.1677242850000003,1.2482477779416559,0.0,-13184.0,0.625,-577.5,-496.06300592422485,0.0,0.0,1.207275267,1.2495088890529324,0.0,-33682.0,1.375,570.0,496.06300592422485,0.0,0.0,4.071044505000001,1.2478694446082728,0.0,-0.07000000029802322,-0.12999999523162842,0.800000011920929,-0.0263671875,0.02532958984375,0.956787109375,34.5099983215332,0.0,-23.0,5.8540802001953125,-1.377166748046875,Waiting,0.0,0.0,-10842.0,0.0,0.0,0.0,0.0,0.0,
2.824647000000001,0.0,0.0,3443.0,0.5,-577.5,-496.06300592422485,0.0,0.0,0.062255853,1.252031111275486,0.0012207029999999897,-38531.0,1.375,585.0,496.06300592422485,0.0,0.0,3.1677242850000003,1.2482477779416559,0.0,-13184.0,0.625,-577.5,-496.06300592422485,0.0,0.0,1.2121580790000002,1.2495088890529324,0.0012207029999999897,-33682.0,1.375,577.5,496.06300592422485,0.0,0.0,4.069823802,1.2478694446082728,0.0,-0.07000000029802322,-0.15000000596046448,0.8100000023841858,0.02685546875,0.060791015625,1.01763916015625,34.5099983215332,0.0,30.0,5.8565826416015625,-1.377044677734375,Waiting,0.0,0.0,-10842.0,0.0,0.0,0.0,0.0,0.0,
2.8414430000000013,0.0,0.0,3443.0,0.5,-577.5,-496.0630059242249,0.0,0.0,0.05981444700000001,1.2521690000328738,-0.0012207029999999897,-38531.0,1.375,585.0,496.0630059242249,0.0,0.0,3.1677242850000003,1.2483852500327743,0.0012207029999999897,-13184.0,0.625,-585.0,-496.0630059242249,0.0,0.0,1.207275267,1.2496465000328074,0.0024414059999999793,-33682.0,1.25,577.5,496.0630059242249,0.0,0.0,4.072265208,1.2480068750327644,0.0,-0.05999999865889549,-0.12999999523162842,0.8199999928474426,0.05181884765625,0.055908203125,1.121826171875,34.5099983215332,0.0,55.0,5.8591461181640625,-1.3768310546875,Waiting,0.0,0.0,-10842.0,0.0,0.0,0.0,0.0,0.0,
2.860937,0.0,0.0,3443.0,0.5,-585.0,-496.06300592422485,0.0,0.0,0.06103515,1.2523068887902618,-0.0012207029999999897,-38531.0,1.375,592.5,496.06300592422485,0.0,0.0,3.172607097,1.2485227221238928,0.0,-13184.0,0.375,-585.0,-496.06300592422485,0.0,0.0,1.2121580790000002,1.2497841110126824,0.0012207029999999897,-33682.0,1.25,577.5,496.06300592422485,0.0,0.0,4.072265208,1.248144305457256,0.0,-0.009999999776482582,-0.10000000149011612,0.8299999833106995,-0.0452880859375,0.02728271484375,0.81500244140625,34.5099983215332,0.0,-43.0,5.8642425537109375,-1.376190185546875,Waiting,0.0,0.0,-10842.0,0.0,0.0,0.0,0.0,0.0,
2.8817980000000007,0.0,0.0,3443.0,0.5,-585.0,-496.06300592422485,0.0,0.0,0.062255853,1.2524447775476495,0.0012207029999999897,-38531.0,1.25,592.5,496.06300592422485,0.0,0.0,3.172607097,1.2486601942150113,0.003662108999999969,-13184.0,0.375,-585.0,-496.06300592422485,0.0,0.0,1.210937376,1.2499217219925574,0.0,-33682.0,1.125,577.5,496.06300592422485,0.0,0.0,4.069823802,1.2482817358817475,0.0,0.0,-0.15000000596046448,0.8299999833106995,0.00128173828125,-0.0142822265625,0.8934326171875,34.5099983215332,0.0,3.0,5.8667449951171875,-1.375823974609375,Waiting,0.0,0.0,-10842.0,0.0,0.0,0.0,0.0,0.0,
2.903818000000001,0.0,0.0,3443.0,0.375,-585.0,-496.06300592422485,0.0,0.0,0.06469725900000001,1.2524447775476495,0.0,-38531.0,1.25,592.5,496.06300592422485,0.0,0.0,3.172607097,1.2486601942150113,0.0,-13278.0,0.375,-585.0,-496.06300592422485,0.0,0.0,1.210937376,1.2499217219925574,0.0,-33590.0,1.125,577.5,496.06300592422485,0.0,0.0,4.071044505000001,1.2482817358817475,0.0,0.0,-0.1599999964237213,0.8299999833106995,0.032958984375,0.01397705078125,1.10986328125,34.5099983215332,0.0,-12.0,5.8718109130859375,-1.375030517578125,Waiting,0.0,0.0,-10842.0,0.0,0.0,0.0,0.0,0.0,
2.9209179999999995,0.0,0.0,3348.0,0.375,-585.0,-496.06300592422485,0.0,0.0,0.054931635000000006,1.2524447775476495,-0.0012207029999999897,-38436.0,1.25,592.5,496.06300592422485,0.0,0.0,3.172607097,1.2486601942150113,-0.0012207029999999897,-13278.0,0.375,-585.0,-496.06300592422485,0.0,0.0,1.210937376,1.2499217219925574,-0.0012207029999999897,-33590.0,1.125,577.5,496.06300592422485,0.0,0.0,4.071044505000001,1.2482817358817475,0.0012207030000004337,0.05000000074505806,-0.17000000178813934,0.8299999833106995,0.00799560546875,0.080078125,0.98699951171875,34.5099983215332,0.0,12.0,5.8743438720703125,-1.37451171875,Waiting,0.0,0.0,-10842.0,0.0,0.0,0.0,0.0,0.0,
