Time,ClimberA1,ClimberA2,FRpos,FRCurrent,FRspeed,FRsetpoint,FRApos,FRACurrent,FREncpos,FREncSetpoint,FREncSpeed,FLpos,FLCurrent,FLspeed,FLsetpoint,FLApos,FLACurrent,FLEncpos,FLEncSetpoint,FLEncSpeed,BRpos,BRCurrent,BRspeed,BRsetpoint,BRApos,BRACurrent,BREncpos,BREncSetpoint,BREncSpeed,BLpos,BLCurrent,BLspeed,BLsetpoint,BLApos,BLACurrent,BLEncpos,BLEncSetpoint,BLEncSpeed,navx_Pitch,navx_Roll,navx_Yaw,navx_XAcc,navx_YAcc,navx_ZAcc,navx_Temp,navx_Bar,navx_Alt,navx_XDis,navx_YDis,GearPlacerState,ShootOutputV,ShootOutputCurrent,ShootEncPos,ShootEncVelocity,ShootSpeed,ShootSetpoint,CarouselSetpoint,CarouselCurrent,
0.19070400000002702,0.0,0.0,-15020.0,0.0,0.0,0.0,0.0,0.125,3.7475582100000002,0.0,0.0,-6811.0,0.0,0.0,-0.0,0.0,0.0,1.983642375,0.0,0.0,6803.0,0.0,0.0,0.0,0.0,0.0,4.913329575000001,0.0,0.0,-7014.0,0.0,0.0,-0.0,0.0,0.0,2.9016110310000003,0.0,0.0,1.2200000286102295,0.27000001072883606,0.0,0.00445556640625,0.0208740234375,0.99493408203125,35.5099983215332,0.0,0.0,-0.027191162109375,-0.1592254638671875,Waiting,0.0,0.0,-396185.0,0.0,0.0,0.0,0.0,0.0,
0.27676800000004004,0.0,0.0,-15020.0,0.0,0.0,0.0,0.0,0.125,3.7463375070000002,0.0,0.0,-6811.0,0.0,0.0,-0.0,0.0,0.0,1.983642375,0.0,0.0,6803.0,0.0,0.0,0.0,0.0,0.0,4.913329575000001,0.0,0.0,-7014.0,0.0,0.0,-0.0,0.0,0.0,2.9016110310000003,0.0,0.0,1.2200000286102295,0.27000001072883606,0.0,0.00433349609375,0.02294921875,0.99859619140625,35.5099983215332,0.0,0.0,-0.027191162109375,-0.1592254638671875,Waiting,0.0,0.0,-396185.0,0.0,0.0,0.0,0.0,0.0,
0.36461100000003355,0.0,0.0,-15020.0,0.0,0.0,0.0,0.0,0.125,3.7475582100000002,0.0,0.0,-6811.0,0.0,0.0,-0.0,0.0,0.0,1.983642375,0.0,0.0,6803.0,0.0,0.0,0.0,0.0,0.0,4.914550278,0.0,0.0,-7014.0,0.0,0.0,-0.0,0.0,0.0,2.9003903280000003,0.0,0.0,1.2200000286102295,0.27000001072883606,0.0,0.00531005859375,0.01904296875,0.99798583984375,35.5,0.0,0.0,-0.027191162109375,-0.1592254638671875,Waiting,0.0,0.0,-396185.0,0.0,0.0,0.0,0.0,0.0,
0.4497970000000205,0.0,0.0,-15020.0,0.0,0.0,0.0,0.0,0.125,3.7463375070000002,0.0,0.0,-6811.0,0.0,0.0,-0.0,0.0,0.0,1.984863078,0.0,0.0,6803.0,0.0,0.0,0.0,0.0,0.0,4.914550278,0.0,0.0,-7014.0,0.0,0.0,-0.0,0.0,0.0,2.9016110310000003,0.0,0.0,1.2200000286102295,0.2800000011920929,0.0,0.0035400390625,0.02093505859375,1.0,35.5,0.0,-1.0,-0.027191162109375,-0.1592254638671875,Waiting,0.0,0.0,-396185.0,0.0,0.0,0.0,0.0,0.0,
0.5313800000000046,0.0,0.0,-15020.0,0.0,0.0,0.0,0.0,0.125,3.7475582100000002,0.0,0.0,-6811.0,0.0,0.0,-0.0,0.0,0.0,1.983642375,0.0,0.0,6803.0,0.0,0.0,0.0,0.0,0.0,4.913329575000001,0.0,0.0,-7014.0,0.0,0.0,-0.0,0.0,0.0,2.9016110310000003,0.0,0.0,1.2300000190734863,0.2800000011920929,-0.009999999776482582,0.00213623046875,0.020263671875,0.99896240234375,35.5,0.0,-2.0,-0.027191162109375,-0.1592254638671875,Waiting,0.0,0.0,-396185.0,0.0,0.0,0.0,0.0,0.0,
0.6151829999999608,0.0,0.0,-15020.0,0.0,0.0,0.0,0.0,0.125,3.7463375070000002,0.0,0.0,-6811.0,0.0,0.0,-0.0,0.0,0.0,1.983642375,0.0,0.0,6803.0,0.0,0.0,0.0,0.0,0.0,4.914550278,0.0,0.0,-7014.0,0.0,0.0,-0.0,0.0,0.0,2.9016110310000003,0.0,0.0,1.2200000286102295,0.27000001072883606,0.0,0.00469970703125,0.02105712890625,0.9954833984375,35.5,0.0,0.0,-0.027191162109375,-0.1592254638671875,Waiting,0.0,0.0,-396185.0,0.0,0.0,0.0,0.0,0.0,
0.7063680000000168,0.0,0.0,-15020.0,0.0,0.0,0.0,0.0,0.125,3.7463375070000002,0.0,0.0,-6811.0,0.0,0.0,-0.0,0.0,0.0,1.983642375,0.0,0.0,6803.0,0.0,0.0,0.0,0.0,0.0,4.914550278,0.0,0.0,-7014.0,0.0,0.0,-0.0,0.0,0.0,2.9016110310000003,0.0,0.0,1.2200000286102295,0.27000001072883606,0.0,0.0064697265625,0.0230712890625,0.99383544921875,35.5,0.0,1.0,-0.027191162109375,-0.1592254638671875,Waiting,0.0,0.0,-396185.0,0.0,0.0,0.0,0.0,0.0,
0.7907079999999842,0.0,0.0,-15020.0,0.0,0.0,0.0,0.0,0.125,3.7463375070000002,0.0,0.0,-6811.0,0.0,0.0,-0.0,0.0,0.0,1.983642375,0.0,0.0,6803.0,0.0,0.0,0.0,0.0,0.0,4.912108872,0.0,0.0,-7014.0,0.0,0.0,-0.0,0.0,0.0,2.9016110310000003,0.0,0.0,1.2300000190734863,0.27000001072883606,-0.009999999776482582,0.00396728515625,0.02197265625,0.993896484375,35.5,0.0,0.0,-0.027191162109375,-0.1592254638671875,Waiting,0.0,0.0,-396185.0,0.0,0.0,0.0,0.0,0.0,
0.8715150000000139,0.0,0.0,-15020.0,0.0,0.0,0.0,0.0,0.125,3.7475582100000002,0.0,0.0,-6811.0,0.0,0.0,-0.0,0.0,0.0,1.983642375,0.0,0.0,6803.0,0.0,0.0,0.0,0.0,0.0,4.913329575000001,0.0,0.0,-7014.0,0.0,0.0,-0.0,0.0,0.0,2.9003903280000003,0.0,0.0,1.2300000190734863,0.2800000011920929,-0.009999999776482582,0.00634765625,0.021240234375,0.9986572265625,35.5,0.0,1.0,-0.027191162109375,-0.1592254638671875,Waiting,0.0,0.0,-396185.0,0.0,0.0,0.0,0.0,0.0,
0.9542090000000316,0.0,0.0,-15020.0,0.0,0.0,0.0,0.0,0.125,3.748778913,0.0,0.0,-6811.0,0.0,0.0,-0.0,0.0,0.0,1.983642375,0.0,0.0,6803.0,0.0,0.0,0.0,0.0,0.0,4.912108872,0.0,0.0,-7014.0,0.0,0.0,-0.0,0.0,0.0,2.9016110310000003,0.0,0.0,1.2200000286102295,0.2800000011920929,0.0,0.00128173828125,0.02001953125,1.00323486328125,35.5,0.0,-3.0,-0.027191162109375,-0.1592254638671875,Waiting,0.0,0.0,-396185.0,0.0,0.0,0.0,0.0,0.0,
1.0408880000000353,0.0,0.0,-15020.0,0.0,0.0,0.0,0.0,0.125,3.7463375070000002,0.0,0.0,-6811.0,0.0,0.0,-0.0,0.0,0.0,1.983642375,0.0,0.0,6803.0,0.0,0.0,0.0,0.0,0.0,4.912108872,0.0,0.0,-7014.0,0.0,0.0,-0.0,0.0,0.0,2.9016110310000003,0.0,0.0,1.2200000286102295,0.2800000011920929,0.0,0.00567626953125,0.0220947265625,0.998291015625,35.5,0.0,0.0,-0.027191162109375,-0.1592254638671875,Waiting,0.0,0.0,-396185.0,0.0,0.0,0.0,0.0,0.0,
1.1242229999999982,0.0,0.0,-15020.0,0.0,0.0,0.0,0.0,0.125,3.7475582100000002,0.0,0.0,-6811.0,0.0,0.0,-0.0,0.0,0.0,1.984863078,0.0,0.0,6803.0,0.0,0.0,0.0,0.0,0.0,4.913329575000001,0.0,0.0,-7014.0,0.0,0.0,-0.0,0.0,0.0,2.9028317340000003,0.0,0.0,1.2200000286102295,0.27000001072883606,0.0,0.0057373046875,0.02056884765625,0.99609375,35.5,0.0,0.0,-0.027191162109375,-0.1592254638671875,Waiting,0.0,0.0,-396185.0,0.0,0.0,0.0,0.0,0.0,
1.2083830000000306,0.0,0.0,-15020.0,0.0,0.0,0.0,0.0,0.125,3.7475582100000002,0.0,0.0,-6811.0,0.0,0.0,-0.0,0.0,0.0,1.984863078,0.0,0.0,6803.0,0.0,0.0,0.0,0.0,0.0,4.912108872,0.0,0.0,-7014.0,0.0,0.0,-0.0,0.0,0.0,2.9016110310000003,0.0,0.0,1.2200000286102295,0.2800000011920929,0.0,0.00482177734375,0.0196533203125,0.99859619140625,35.5,0.0,0.0,-0.027191162109375,-0.1592254638671875,Waiting,0.0,0.0,-396185.0,0.0,0.0,0.0,0.0,0.0,
1.2934770000000717,0.0,0.0,-15020.0,0.0,0.0,0.0,0.0,0.125,3.7475582100000002,0.0,0.0,-6811.0,0.0,0.0,-0.0,0.0,0.0,1.984863078,0.0,0.0,6803.0,0.0,0.0,0.0,0.0,0.0,4.913329575000001,0.0,0.0,-7014.0,0.0,0.0,-0.0,0.0,0.0,2.9016110310000003,0.0,0.0,1.2200000286102295,0.2800000011920929,0.0,0.0054931640625,0.02264404296875,0.9970703125,35.5,0.0,0.0,-0.027191162109375,-0.1592254638671875,Waiting,0.0,0.0,-396185.0,0.0,0.0,0.0,0.0,0.0,
1.3756879999999656,0.0,0.0,-15020.0,0.0,0.0,0.0,0.0,0.125,3.7463375070000002,0.0,0.0,-6811.0,0.0,0.0,-0.0,0.0,0.0,1.983642375,0.0,0.0,6803.0,0.0,0.0,0.0,0.0,0.0,4.912108872,0.0,0.0,-7014.0,0.0,0.0,-0.0,0.0,0.0,2.9016110310000003,0.0,0.0,1.2200000286102295,0.27000001072883606,0.0,0.00250244140625,0.0223388671875,0.99609375,35.5,0.0,-2.0,-0.027191162109375,-0.1592254638671875,Waiting,0.0,0.0,-396185.0,0.0,0.0,0.0,0.0,0.0,
1.4649550000000746,0.0,0.0,-15020.0,0.0,0.0,0.0,0.0,0.125,3.7463375070000002,0.0,0.0,-6811.0,0.0,0.0,-0.0,0.0,0.0,1.984863078,0.0,0.0,6803.0,0.0,0.0,0.0,0.0,0.0,4.913329575000001,0.0,0.0,-7014.0,0.0,0.0,-0.0,0.0,0.0,2.9016110310000003,0.0,0.0,1.2200000286102295,0.27000001072883606,0.0,0.00140380859375,0.022216796875,0.996826171875,35.5,0.0,-3.0,-0.027191162109375,-0.1592254638671875,Waiting,0.0,0.0,-396185.0,0.0,0.0,0.0,0.0,0.0,
1.5494109999999637,0.0,0.0,-15020.0,0.0,0.0,0.0,0.0,0.125,3.7463375070000002,0.0,0.0,-6811.0,0.0,0.0,-0.0,0.0,0.0,1.984863078,0.0,0.0,6803.0,0.0,0.0,0.0,0.0,0.0,4.913329575000001,0.0,0.0,-7014.0,0.0,0.0,-0.0,0.0,0.0,2.9016110310000003,0.0,0.0,1.2300000190734863,0.25999999046325684,0.0,0.00482177734375,0.0216064453125,0.99676513671875,35.5,0.0,0.0,-0.027191162109375,-0.1592254638671875,Waiting,0.0,0.0,-396185.0,0.0,0.0,0.0,0.0,0.0,
1.6307140000000364,0.0,0.0,-15020.0,0.0,0.0,0.0,0.0,0.125,3.7475582100000002,0.0,0.0,-6811.0,0.0,0.0,-0.0,0.0,0.0,1.983642375,0.0,0.0,6803.0,0.0,0.0,0.0,0.0,0.0,4.913329575000001,0.0,0.0,-7014.0,0.0,0.0,-0.0,0.0,0.0,2.9016110310000003,0.0,0.0,1.2200000286102295,0.27000001072883606,0.0,0.005126953125,0.022216796875,1.00030517578125,35.5,0.0,0.0,-0.027191162109375,-0.1592254638671875,Waiting,0.0,0.0,-396185.0,0.0,0.0,0.0,0.0,0.0,
1.7120890000000364,0.0,0.0,-15020.0,0.0,0.0,0.0,0.0,0.125,3.7475582100000002,0.0,0.0,-6811.0,0.0,0.0,-0.0,0.0,0.0,1.984863078,0.0,0.0,6803.0,0.0,0.0,0.0,0.0,0.0,4.912108872,0.0,0.0,-7014.0,0.0,0.0,-0.0,0.0,0.0,2.9016110310000003,0.0,0.0,1.2300000190734863,0.27000001072883606,-0.009999999776482582,0.00616455078125,0.0218505859375,1.0001220703125,35.5,0.0,1.0,-0.027191162109375,-0.1592254638671875,Waiting,0.0,0.0,-396185.0,0.0,0.0,0.0,0.0,0.0,
1.7964919999999693,0.0,0.0,-15020.0,0.0,0.0,0.0,0.0,0.125,3.7475582100000002,0.0,0.0,-6811.0,0.0,0.0,-0.0,0.0,0.0,1.983642375,0.0,0.0,6803.0,0.0,0.0,0.0,0.0,0.0,4.913329575000001,0.0,0.0,-7014.0,0.0,0.0,-0.0,0.0,0.0,2.9016110310000003,0.0,0.0,1.2300000190734863,0.27000001072883606,-0.009999999776482582,0.00323486328125,0.0242919921875,1.00018310546875,35.5,0.0,-1.0,-0.027191162109375,-0.1592254638671875,Waiting,0.0,0.0,-396185.0,0.0,0.0,0.0,0.0,0.0,
1.8807810000000755,0.0,0.0,-15020.0,0.0,0.0,0.0,0.0,0.125,3.7475582100000002,0.0,0.0,-6811.0,0.0,0.0,-0.0,0.0,0.0,1.984863078,0.0,0.0,6803.0,0.0,0.0,0.0,0.0,0.0,4.913329575000001,0.0,0.0,-7014.0,0.0,0.0,-0.0,0.0,0.0,2.9016110310000003,0.0,0.0,1.2300000190734863,0.27000001072883606,-0.009999999776482582,0.0052490234375,0.019775390625,0.99371337890625,35.5,0.0,0.0,-0.027191162109375,-0.1592254638671875,Waiting,0.0,0.0,-396185.0,0.0,0.0,0.0,0.0,0.0,
1.9686389999999665,0.0,0.0,-15020.0,0.0,0.0,0.0,0.0,0.125,3.7463375070000002,0.0,0.0,-6811.0,0.0,0.0,-0.0,0.0,0.0,1.984863078,0.0,0.0,6803.0,0.0,0.0,0.0,0.0,0.0,4.913329575000001,0.0,0.0,-7014.0,0.0,0.0,-0.0,0.0,0.0,2.9016110310000003,0.0,0.0,1.2300000190734863,0.27000001072883606,-0.009999999776482582,0.0028076171875,0.02130126953125,0.99761962890625,35.5,0.0,-1.0,-0.027191162109375,-0.1592254638671875,Waiting,0.0,0.0,-396185.0,0.0,0.0,0.0,0.0,0.0,
2.0536419999999924,0.0,0.0,-15020.0,0.0,0.0,0.0,0.0,0.125,3.7463375070000002,0.0,0.0,-6811.0,0.0,0.0,-0.0,0.0,0.0,1.984863078,0.0,0.0,6803.0,0.0,0.0,0.0,0.0,0.0,4.913329575000001,0.0,0.0,-7014.0,0.0,0.0,-0.0,0.0,0.0,2.9016110310000003,0.0,0.0,1.2300000190734863,0.27000001072883606,-0.009999999776482582,0.0025634765625,0.0208740234375,0.9970703125,35.5,0.0,-2.0,-0.027191162109375,-0.1592254638671875,Waiting,0.0,0.0,-396185.0,0.0,0.0,0.0,0.0,0.0,
2.1404860000000334,0.0,0.0,-15020.0,0.0,0.0,0.0,0.0,0.125,3.7475582100000002,0.0,0.0,-6811.0,0.0,0.0,-0.0,0.0,0.0,1.983642375,0.0,0.0,6803.0,0.0,0.0,0.0,0.0,0.0,4.912108872,0.0,0.0,-7014.0,0.0,0.0,-0.0,0.0,0.0,2.9016110310000003,0.0,0.0,1.2300000190734863,0.27000001072883606,-0.009999999776482582,0.0059814453125,0.02471923828125,0.99822998046875,35.5,0.0,1.0,-0.027191162109375,-0.1592254638671875,Waiting,0.0,0.0,-396185.0,0.0,0.0,0.0,0.0,0.0,
2.230972000000067,0.0,0.0,-15020.0,0.0,0.0,0.0,0.0,0.125,3.7463375070000002,0.0,0.0,-6811.0,0.0,0.0,-0.0,0.0,0.0,1.983642375,0.0,0.0,6803.0,0.0,0.0,0.0,0.0,0.0,4.913329575000001,0.0,0.0,-7014.0,0.0,0.0,-0.0,0.0,0.0,2.9016110310000003,0.0,0.0,1.2300000190734863,0.27000001072883606,-0.009999999776482582,0.0068359375,0.0233154296875,0.995849609375,35.5,0.0,2.0,-0.027191162109375,-0.1592254638671875,Waiting,0.0,0.0,-396185.0,0.0,0.0,0.0,0.0,0.0,
2.3311909999999916,0.0,0.0,-15020.0,0.0,0.0,0.0,0.0,0.125,3.7463375070000002,0.0,0.0,-6811.0,0.0,0.0,-0.0,0.0,0.0,1.984863078,0.0,0.0,6803.0,0.0,0.0,0.0,0.0,0.0,4.912108872,0.0,0.0,-7014.0,0.0,0.0,-0.0,0.0,0.0,2.9016110310000003,0.0,0.0,1.2300000190734863,0.27000001072883606,-0.009999999776482582,0.00274658203125,0.02142333984375,0.996826171875,35.5,0.0,-2.0,-0.027191162109375,-0.1592254638671875,Waiting,0.0,0.0,-396185.0,0.0,0.0,0.0,0.0,0.0,
2.418996000000043,0.0,0.0,-15020.0,0.0,0.0,0.0,0.0,0.125,3.7475582100000002,0.0,0.0,-6811.0,0.0,0.0,-0.0,0.0,0.0,1.983642375,0.0,0.0,6803.0,0.0,0.0,0.0,0.0,0.0,4.912108872,0.0,0.0,-7014.0,0.0,0.0,-0.0,0.0,0.0,2.9016110310000003,0.0,0.0,1.2200000286102295,0.27000001072883606,-0.009999999776482582,0.0067138671875,0.02227783203125,0.99542236328125,35.5,0.0,1.0,-0.027191162109375,-0.1592254638671875,Waiting,0.0,0.0,-396185.0,0.0,0.0,0.0,0.0,0.0,
2.5077149999999673,0.0,0.0,-15020.0,0.0,0.0,0.0,0.0,0.125,3.7475582100000002,0.0,0.0,-6811.0,0.0,0.0,-0.0,0.0,0.0,1.984863078,0.0,0.0,6803.0,0.0,0.0,0.0,0.0,0.0,4.912108872,0.0,0.0,-7014.0,0.0,0.0,-0.0,0.0,0.0,2.9016110310000003,0.0,0.0,1.2200000286102295,0.27000001072883606,-0.009999999776482582,0.00592041015625,0.021728515625,1.00079345703125,35.5,0.0,1.0,-0.027191162109375,-0.1592254638671875,Waiting,0.0,0.0,-396185.0,0.0,0.0,0.0,0.0,0.0,
2.5924610000000103,0.0,0.0,-15020.0,0.0,0.0,0.0,0.0,0.125,3.7463375070000002,0.0,0.0,-6811.0,0.0,0.0,-0.0,0.0,0.0,1.984863078,0.0,0.0,6803.0,0.0,0.0,0.0,0.0,0.0,4.912108872,0.0,0.0,-7014.0,0.0,0.0,-0.0,0.0,0.0,2.9003903280000003,0.0,0.0,1.2200000286102295,0.27000001072883606,-0.009999999776482582,0.003662109375,0.01995849609375,1.00079345703125,35.5,0.0,-1.0,-0.027191162109375,-0.1592254638671875,Waiting,0.0,0.0,-396185.0,0.0,0.0,0.0,0.0,0.0,
2.6753120000000346,0.0,0.0,-15020.0,0.0,0.0,0.0,0.0,0.125,3.7475582100000002,0.0,0.0,-6811.0,0.0,0.0,-0.0,0.0,0.0,1.984863078,0.0,0.0,6803.0,0.0,0.0,0.0,0.0,0.0,4.914550278,0.0,0.0,-7014.0,0.0,0.0,-0.0,0.0,0.0,2.9016110310000003,0.0,0.0,1.2300000190734863,0.25999999046325684,-0.009999999776482582,0.00762939453125,0.02301025390625,0.99969482421875,35.5,0.0,2.0,-0.027191162109375,-0.1592254638671875,Waiting,0.0,0.0,-396185.0,0.0,0.0,0.0,0.0,0.0,
2.768079000000027,0.0,0.0,-15020.0,0.0,0.0,0.0,0.0,0.125,3.7475582100000002,0.0,0.0,-6811.0,0.0,0.0,-0.0,0.0,0.0,1.983642375,0.0,0.0,6803.0,0.0,0.0,0.0,0.0,0.0,4.913329575000001,0.0,0.0,-7014.0,0.0,0.0,-0.0,0.0,0.0,2.9003903280000003,0.0,0.0,1.2200000286102295,0.27000001072883606,-0.009999999776482582,0.00799560546875,0.02264404296875,0.991943359375,35.5,0.0,3.0,-0.027191162109375,-0.1592254638671875,Waiting,0.0,0.0,-396185.0,0.0,0.0,0.0,0.0,0.0,
2.855508999999962,0.0,0.0,-15020.0,0.0,0.0,0.0,0.0,0.125,3.7475582100000002,0.0,0.0,-6811.0,0.0,0.0,-0.0,0.0,0.0,1.983642375,0.0,0.0,6803.0,0.0,0.0,0.0,0.0,0.0,4.913329575000001,0.0,0.0,-7014.0,0.0,0.0,-0.0,0.0,0.0,2.9016110310000003,0.0,0.0,1.2200000286102295,0.27000001072883606,-0.009999999776482582,0.00396728515625,0.02252197265625,0.99945068359375,35.5,0.0,0.0,-0.027191162109375,-0.1592254638671875,Waiting,0.0,0.0,-396185.0,0.0,0.0,0.0,0.0,0.0,
2.9511060000000287,0.0,0.0,-15020.0,0.0,0.0,0.0,0.0,0.125,3.7475582100000002,0.0,0.0,-6811.0,0.0,0.0,-0.0,0.0,0.0,1.983642375,0.0,0.0,6803.0,0.0,0.0,0.0,0.0,0.0,4.913329575000001,0.0,0.0,-7014.0,0.0,0.0,-0.0,0.0,0.0,2.9003903280000003,0.0,0.0,1.2200000286102295,0.27000001072883606,-0.019999999552965164,0.00439453125,0.0201416015625,1.003173828125,35.47999954223633,0.0,0.0,-0.027191162109375,-0.1592254638671875,Waiting,0.0,0.0,-396185.0,0.0,0.0,0.0,0.0,0.0,
3.0393229999999747,0.0,0.0,-15020.0,0.0,0.0,0.0,0.0,0.125,3.7475582100000002,0.0,0.0,-6811.0,0.0,0.0,-0.0,0.0,0.0,1.984863078,0.0,0.0,6803.0,0.0,0.0,0.0,0.0,0.0,4.913329575000001,0.0,0.0,-7014.0,0.0,0.0,-0.0,0.0,0.0,2.9016110310000003,0.0,0.0,1.2200000286102295,0.2800000011920929,-0.009999999776482582,0.005615234375,0.01995849609375,0.9979248046875,35.47999954223633,0.0,0.0,-0.027191162109375,-0.1592254638671875,Waiting,0.0,0.0,-396185.0,0.0,0.0,0.0,0.0,0.0,
3.128128000000026,0.0,0.0,-15020.0,0.0,0.0,0.0,0.0,0.125,3.7475582100000002,0.0,0.0,-6811.0,0.0,0.0,-0.0,0.0,0.0,1.983642375,0.0,0.0,6803.0,0.0,0.0,0.0,0.0,0.0,4.910888169000001,0.0,0.0,-7014.0,0.0,0.0,-0.0,0.0,0.0,2.9016110310000003,0.0,0.0,1.2100000381469727,0.27000001072883606,-0.019999999552965164,0.00469970703125,0.01837158203125,0.9989013671875,35.47999954223633,0.0,0.0,-0.027191162109375,-0.1592254638671875,Waiting,0.0,0.0,-396185.0,0.0,0.0,0.0,0.0,0.0,
3.215548000000068,0.0,0.0,-15020.0,0.0,0.0,0.0,0.0,0.125,3.7463375070000002,0.0,0.0,-6811.0,0.0,0.0,-0.0,0.0,0.0,1.984863078,0.0,0.0,6803.0,0.0,0.0,0.0,0.0,0.0,4.913329575000001,0.0,0.0,-7014.0,0.0,0.0,-0.0,0.0,0.0,2.9016110310000003,0.0,0.0,1.2100000381469727,0.27000001072883606,-0.019999999552965164,0.0035400390625,0.0189208984375,0.99859619140625,35.47999954223633,0.0,-1.0,-0.027191162109375,-0.1592254638671875,Waiting,0.0,0.0,-396185.0,0.0,0.0,0.0,0.0,0.0,
3.3069060000000756,0.0,0.0,-15020.0,0.0,0.0,0.0,0.0,0.125,3.7475582100000002,0.0,0.0,-6811.0,0.0,0.0,-0.0,0.0,0.0,1.983642375,0.0,0.0,6803.0,0.0,0.0,0.0,0.0,0.0,4.913329575000001,0.0,0.0,-7014.0,0.0,0.0,-0.0,0.0,0.0,2.9003903280000003,0.0,0.0,1.2100000381469727,0.27000001072883606,-0.019999999552965164,0.00335693359375,0.01995849609375,1.0018310546875,35.47999954223633,0.0,-1.0,-0.027191162109375,-0.1592254638671875,Waiting,0.0,0.0,-396185.0,0.0,0.0,0.0,0.0,0.0,
3.395640000000014,0.0,0.0,-15020.0,0.0,0.0,0.0,0.0,0.125,3.7475582100000002,0.0,0.0,-6811.0,0.0,0.0,-0.0,0.0,0.0,1.983642375,0.0,0.0,6803.0,0.0,0.0,0.0,0.0,0.0,4.913329575000001,0.0,0.0,-7014.0,0.0,0.0,-0.0,0.0,0.0,2.9016110310000003,0.0,0.0,1.2100000381469727,0.27000001072883606,-0.019999999552965164,0.00579833984375,0.01953125,0.9998779296875,35.4900016784668,0.0,0.0,-0.027191162109375,-0.1592254638671875,Waiting,0.0,0.0,-396185.0,0.0,0.0,0.0,0.0,0.0,
3.4907240000000455,0.0,0.0,-15020.0,0.0,0.0,0.0,0.0,0.125,3.7463375070000002,0.0,0.0,-6811.0,0.0,0.0,-0.0,0.0,0.0,1.983642375,0.0,0.0,6803.0,0.0,0.0,0.0,0.0,0.0,4.912108872,0.0,0.0,-7014.0,0.0,0.0,-0.0,0.0,0.0,2.9016110310000003,0.0,0.0,1.2100000381469727,0.27000001072883606,-0.019999999552965164,0.0035400390625,0.02178955078125,1.00140380859375,35.4900016784668,0.0,-1.0,-0.027191162109375,-0.1592254638671875,Waiting,0.0,0.0,-396185.0,0.0,0.0,0.0,0.0,0.0,
3.5780409999999683,0.0,0.0,-15020.0,0.0,0.0,0.0,0.0,0.125,3.7463375070000002,0.0,0.0,-6811.0,0.0,0.0,-0.0,0.0,0.0,1.983642375,0.0,0.0,6803.0,0.0,0.0,0.0,0.0,0.0,4.913329575000001,0.0,0.0,-7014.0,0.0,0.0,-0.0,0.0,0.0,2.9016110310000003,0.0,0.0,1.2100000381469727,0.27000001072883606,-0.019999999552965164,9.1552734375E-4,0.02154541015625,0.99932861328125,35.4900016784668,0.0,-3.0,-0.027191162109375,-0.1592254638671875,Waiting,0.0,0.0,-396185.0,0.0,0.0,0.0,0.0,0.0,
3.6715169999999926,0.0,0.0,-15020.0,0.0,0.0,0.0,0.0,0.125,3.7475582100000002,0.0,0.0,-6811.0,0.0,0.0,-0.0,0.0,0.0,1.983642375,0.0,0.0,6803.0,0.0,0.0,0.0,0.0,0.0,4.912108872,0.0,0.0,-7014.0,0.0,0.0,-0.0,0.0,0.0,2.9016110310000003,0.0,0.0,1.2100000381469727,0.27000001072883606,-0.029999999329447746,0.005126953125,0.02093505859375,1.00152587890625,35.4900016784668,0.0,0.0,-0.027191162109375,-0.1592254638671875,Waiting,0.0,0.0,-396185.0,0.0,0.0,0.0,0.0,0.0,
3.7667850000000325,0.0,0.0,-15020.0,0.0,0.0,0.0,0.0,0.125,3.7463375070000002,0.0,0.0,-6811.0,0.0,0.0,-0.0,0.0,0.0,1.984863078,0.0,0.0,6803.0,0.0,0.0,0.0,0.0,0.0,4.913329575000001,0.0,0.0,-7014.0,0.0,0.0,-0.0,0.0,0.0,2.9003903280000003,0.0,0.0,1.2100000381469727,0.27000001072883606,-0.029999999329447746,0.004150390625,0.02191162109375,0.99371337890625,35.4900016784668,0.0,0.0,-0.027191162109375,-0.1592254638671875,Waiting,0.0,0.0,-396185.0,0.0,0.0,0.0,0.0,0.0,
3.85545000000007,0.0,0.0,-15020.0,0.0,0.0,0.0,0.0,0.125,3.7463375070000002,0.0,0.0,-6811.0,0.0,0.0,-0.0,0.0,0.0,1.983642375,0.0,0.0,6803.0,0.0,0.0,0.0,0.0,0.0,4.912108872,0.0,0.0,-7014.0,0.0,0.0,-0.0,0.0,0.0,2.9016110310000003,0.0,0.0,1.2100000381469727,0.27000001072883606,-0.029999999329447746,0.00445556640625,0.01971435546875,0.9971923828125,35.4900016784668,0.0,0.0,-0.027191162109375,-0.1592254638671875,Waiting,0.0,0.0,-396185.0,0.0,0.0,0.0,0.0,0.0,
3.9494159999999683,0.0,0.0,-15020.0,0.0,0.0,0.0,0.0,0.125,3.7475582100000002,0.0,0.0,-6811.0,0.0,0.0,-0.0,0.0,0.0,1.984863078,0.0,0.0,6803.0,0.0,0.0,0.0,0.0,0.0,4.912108872,0.0,0.0012207030000004337,-7014.0,0.0,0.0,-0.0,0.0,0.0,2.9003903280000003,0.0,0.0,1.2100000381469727,0.25999999046325684,-0.029999999329447746,0.006591796875,0.0196533203125,1.00140380859375,35.52000045776367,0.0,1.0,-0.027191162109375,-0.1592254638671875,Waiting,0.0,0.0,-396185.0,0.0,0.0,0.0,0.0,0.0,
4.035310999999987,0.0,0.0,-15020.0,0.0,0.0,0.0,0.0,0.125,3.7463375070000002,0.0,0.0,-6811.0,0.0,0.0,-0.0,0.0,0.0,1.983642375,0.0,0.0,6803.0,0.0,0.0,0.0,0.0,0.0,4.913329575000001,0.0,0.0,-7014.0,0.0,0.0,-0.0,0.0,0.0,2.9003903280000003,0.0,0.0,1.2100000381469727,0.27000001072883606,-0.029999999329447746,0.00732421875,0.023193359375,0.996337890625,35.52000045776367,0.0,2.0,-0.027191162109375,-0.1592254638671875,Waiting,0.0,0.0,-396185.0,0.0,0.0,0.0,0.0,0.0,
4.131479999999981,0.0,0.0,-15020.0,0.0,0.0,0.0,0.0,0.125,3.7463375070000002,0.0,0.0,-6811.0,0.0,0.0,-0.0,0.0,0.0,1.983642375,0.0,0.0,6803.0,0.0,0.0,0.0,0.0,0.0,4.914550278,0.0,0.0,-7014.0,0.0,0.0,-0.0,0.0,0.0,2.9016110310000003,0.0,0.0,1.2100000381469727,0.27000001072883606,-0.019999999552965164,0.00469970703125,0.01885986328125,0.99786376953125,35.52000045776367,0.0,0.0,-0.027191162109375,-0.1592254638671875,Waiting,0.0,0.0,-396185.0,0.0,0.0,0.0,0.0,0.0,
4.2255280000000495,0.0,0.0,-15020.0,0.0,0.0,0.0,0.0,0.125,3.7463375070000002,0.0,0.0,-6811.0,0.0,0.0,-0.0,0.0,0.0,1.983642375,0.0,0.0,6803.0,0.0,0.0,0.0,0.0,0.0,4.913329575000001,0.0,0.0,-7014.0,0.0,0.0,-0.0,0.0,0.0,2.9003903280000003,0.0,0.0,1.2100000381469727,0.27000001072883606,-0.019999999552965164,0.00408935546875,0.0216064453125,1.00152587890625,35.52000045776367,0.0,0.0,-0.027191162109375,-0.1592254638671875,Waiting,0.0,0.0,-396185.0,0.0,0.0,0.0,0.0,0.0,
4.3148390000000365,0.0,0.0,-15020.0,0.0,0.0,0.0,0.0,0.125,3.7475582100000002,0.0,0.0,-6811.0,0.0,0.0,-0.0,0.0,0.0,1.983642375,0.0,0.0,6803.0,0.0,0.0,0.0,0.0,0.0,4.913329575000001,0.0,0.0,-7014.0,0.0,0.0,-0.0,0.0,0.0,2.9016110310000003,0.0,0.0,1.2100000381469727,0.27000001072883606,-0.019999999552965164,0.00762939453125,0.02001953125,1.001220703125,35.52000045776367,0.0,2.0,-0.027191162109375,-0.1592254638671875,Waiting,0.0,0.0,-396185.0,0.0,0.0,0.0,0.0,0.0,
4.406832000000053,0.0,0.0,-15020.0,0.0,0.0,0.0,0.0,0.125,3.7475582100000002,0.0,0.0,-6811.0,0.0,0.0,-0.0,0.0,0.0,1.984863078,0.0,0.0,6803.0,0.0,0.0,0.0,0.0,0.0,4.912108872,0.0,0.0,-7014.0,0.0,0.0,-0.0,0.0,0.0,2.9003903280000003,0.0,0.0,1.2100000381469727,0.2800000011920929,-0.019999999552965164,0.00640869140625,0.021240234375,0.99749755859375,35.4900016784668,0.0,1.0,-0.027191162109375,-0.1592254638671875,Waiting,0.0,0.0,-396185.0,0.0,0.0,0.0,0.0,0.0,
4.492795000000042,0.0,0.0,-15020.0,0.0,0.0,0.0,0.0,0.125,3.7475582100000002,0.0,0.0,-6811.0,0.0,0.0,-0.0,0.0,0.0,1.984863078,0.0,0.0,6803.0,0.0,0.0,0.0,0.0,0.0,4.912108872,0.0,0.0,-7014.0,0.0,0.0,-0.0,0.0,0.0,2.9003903280000003,0.0,0.0,1.2100000381469727,0.27000001072883606,-0.019999999552965164,0.004150390625,0.01739501953125,0.9971923828125,35.4900016784668,0.0,0.0,-0.027191162109375,-0.1592254638671875,Waiting,0.0,0.0,-396185.0,0.0,0.0,0.0,0.0,0.0,
4.573940999999992,0.0,0.0,-15020.0,0.0,0.0,0.0,0.0,0.125,3.7463375070000002,0.0,0.0,-6811.0,0.0,0.0,-0.0,0.0,0.0,1.983642375,0.0,0.0,6803.0,0.0,0.0,0.0,0.0,0.0,4.913329575000001,0.0,0.0,-7014.0,0.0,0.0,-0.0,0.0,0.0,2.9016110310000003,0.0,0.0,1.2100000381469727,0.2800000011920929,-0.019999999552965164,0.00506591796875,0.0235595703125,0.99810791015625,35.4900016784668,0.0,0.0,-0.027191162109375,-0.1592254638671875,Waiting,0.0,0.0,-396185.0,0.0,0.0,0.0,0.0,0.0,
4.662527000000002,0.0,0.0,-15020.0,0.0,0.0,0.0,0.0,0.125,3.7475582100000002,0.0,0.0,-6811.0,0.0,0.0,-0.0,0.0,0.0,1.983642375,0.0,0.0,6803.0,0.0,0.0,0.0,0.0,0.0,4.914550278,0.0,0.0,-7014.0,0.0,0.0,-0.0,0.0,0.0,2.9003903280000003,0.0,0.0,1.2100000381469727,0.2800000011920929,-0.019999999552965164,0.001220703125,0.02099609375,0.99969482421875,35.4900016784668,0.0,-3.0,-0.027191162109375,-0.1592254638671875,Waiting,0.0,0.0,-396185.0,0.0,0.0,0.0,0.0,0.0,
4.749675000000047,0.0,0.0,-15020.0,0.0,0.0,0.0,0.0,0.125,3.7475582100000002,0.0,0.0,-6811.0,0.0,0.0,-0.0,0.0,0.0,1.984863078,0.0,0.0,6803.0,0.0,0.0,0.0,0.0,0.0,4.912108872,0.0,0.0,-7014.0,0.0,0.0,-0.0,0.0,0.0,2.9003903280000003,0.0,0.0,1.2100000381469727,0.27000001072883606,-0.019999999552965164,0.00543212890625,0.019775390625,0.99468994140625,35.4900016784668,0.0,0.0,-0.027191162109375,-0.1592254638671875,Waiting,0.0,0.0,-396185.0,0.0,0.0,0.0,0.0,0.0,
4.830795000000042,0.0,0.0,-15020.0,0.0,0.0,0.0,0.0,0.125,3.7463375070000002,0.0,0.0,-6811.0,0.0,0.0,-0.0,0.0,0.0,1.983642375,0.0,0.0,6803.0,0.0,0.0,0.0,0.0,0.0,4.912108872,0.0,0.0,-7014.0,0.0,0.0,-0.0,0.0,0.0,2.9016110310000003,0.0,0.0,1.2100000381469727,0.27000001072883606,-0.019999999552965164,0.0048828125,0.01983642578125,0.99468994140625,35.4900016784668,0.0,0.0,-0.027191162109375,-0.1592254638671875,Waiting,0.0,0.0,-396185.0,0.0,0.0,0.0,0.0,0.0,
4.915222999999998,0.0,0.0,-15020.0,0.0,0.0,0.0,0.0,0.125,3.7475582100000002,0.0,0.0,-6811.0,0.0,0.0,-0.0,0.0,0.0,1.984863078,0.0,0.0,6803.0,0.0,0.0,0.0,0.0,0.0,4.913329575000001,0.0,0.0,-7014.0,0.0,0.0,-0.0,0.0,0.0,2.9016110310000003,0.0,0.0,1.2000000476837158,0.28999999165534973,-0.019999999552965164,-0.04681396484375,0.037353515625,0.9774169921875,35.529998779296875,0.0,-51.0,-0.0272369384765625,-0.159088134765625,Waiting,0.0,0.0,-396185.0,0.0,0.0,0.0,0.0,0.0,
5.001712000000058,0.0,0.0,-15020.0,0.0,0.0,0.0,0.0,0.125,3.7475582100000002,0.0,0.0,-6811.0,0.0,0.0,-0.0,0.0,0.0,1.984863078,0.0,0.0,6803.0,0.0,0.0,0.0,0.0,0.0,4.912108872,0.0,0.0,-7014.0,0.0,0.0,-0.0,0.0,0.0,2.9016110310000003,0.0,0.0,1.2100000381469727,0.28999999165534973,-0.019999999552965164,0.00445556640625,-0.010498046875,0.9862060546875,35.529998779296875,0.0,0.0,-0.0277557373046875,-0.1589508056640625,Waiting,0.0,0.0,-396185.0,0.0,0.0,0.0,0.0,0.0,
5.086349999999976,0.0,0.0,-15020.0,0.0,0.0,0.0,0.0,0.125,3.7463375070000002,0.0,0.0,-6811.0,0.0,0.0,-0.0,0.0,0.0,1.984863078,0.0,0.0,6803.0,0.0,0.0,0.0,0.0,0.0,4.913329575000001,0.0,0.0,-7014.0,0.0,0.0,-0.0,0.0,0.0,2.9016110310000003,0.0,0.0,1.2100000381469727,0.28999999165534973,-0.019999999552965164,0.01873779296875,0.0213623046875,0.98876953125,35.529998779296875,0.0,13.0,-0.0278472900390625,-0.1591949462890625,Waiting,0.0,0.0,-396185.0,0.0,0.0,0.0,0.0,0.0,
5.169755000000005,0.0,0.0,-15020.0,0.0,0.0,0.0,0.0,0.125,3.7475582100000002,0.0,0.0,-6811.0,0.0,0.0,-0.0,0.0,0.0,1.984863078,0.0,0.0,6803.0,0.0,0.0,0.0,0.0,0.0,4.913329575000001,0.0,0.0,-7014.0,0.0,0.0,-0.0,0.0,0.0,2.9016110310000003,0.0,0.0,1.2100000381469727,0.2800000011920929,-0.019999999552965164,3.0517578125E-4,0.02471923828125,1.01861572265625,35.529998779296875,0.0,-4.0,-0.0278472900390625,-0.1591949462890625,Waiting,0.0,0.0,-396185.0,0.0,0.0,0.0,0.0,0.0,
5.2544309999999825,0.0,0.0,-15020.0,0.0,0.0,0.0,0.0,0.125,3.7475582100000002,0.0,0.0,-6811.0,0.0,0.0,-0.0,0.0,0.0,1.983642375,0.0,0.0,6803.0,0.0,0.0,0.0,0.0,0.0,4.913329575000001,0.0,0.0,-7014.0,0.0,0.0,-0.0,0.0,0.0,2.9016110310000003,0.0,0.0,1.2100000381469727,0.28999999165534973,-0.019999999552965164,-3.662109375E-4,0.0184326171875,1.017333984375,35.529998779296875,0.0,-5.0,-0.0278472900390625,-0.1591949462890625,Waiting,0.0,0.0,-396185.0,0.0,0.0,0.0,0.0,0.0,
5.340689000000013,0.0,0.0,-15020.0,0.0,0.0,0.0,0.0,0.125,3.7475582100000002,0.0,0.0,-6811.0,0.0,0.0,-0.0,0.0,0.0,1.983642375,0.0,0.0,6803.0,0.0,0.0,0.0,0.0,0.0,4.913329575000001,0.0,0.0,-7014.0,0.0,0.0,-0.0,0.0,0.0,2.9028317340000003,0.0,0.0,1.2100000381469727,0.28999999165534973,-0.019999999552965164,0.00677490234375,0.01995849609375,0.9942626953125,35.529998779296875,0.0,1.0,-0.0278472900390625,-0.1591949462890625,Waiting,0.0,0.0,-396185.0,0.0,0.0,0.0,0.0,0.0,
5.426425999999978,0.0,0.0,-15020.0,0.0,0.0,0.0,0.0,0.125,3.7463375070000002,0.0,0.0,-6811.0,0.0,0.0,-0.0,0.0,0.0,1.984863078,0.0,0.0,6803.0,0.0,0.0,0.0,0.0,0.0,4.912108872,0.0,0.0,-7014.0,0.0,0.0,-0.0,0.0,0.0,2.9016110310000003,0.0,0.0,1.2100000381469727,0.28999999165534973,-0.019999999552965164,0.0035400390625,0.022705078125,1.0269775390625,35.52000045776367,0.0,-1.0,-0.0278472900390625,-0.1591949462890625,Waiting,0.0,0.0,-396185.0,0.0,0.0,0.0,0.0,0.0,
5.510849000000046,0.0,0.0,-15020.0,0.0,0.0,0.0,0.0,0.125,3.7475582100000002,0.0,0.0,-6811.0,0.0,0.0,-0.0,0.0,0.0,1.983642375,0.0,0.0,6803.0,0.0,0.0,0.0,0.0,0.0,4.913329575000001,0.0,0.0,-7014.0,0.0,0.0,-0.0,0.0,0.0,2.9016110310000003,0.0,0.0,1.2300000190734863,0.28999999165534973,-0.019999999552965164,-0.02166748046875,0.0020751953125,0.958251953125,35.52000045776367,0.0,-26.0,-0.0278167724609375,-0.1591949462890625,Waiting,0.0,0.0,-396185.0,0.0,0.0,0.0,0.0,0.0,
5.5946450000000185,0.0,0.0,-15020.0,0.0,0.0,0.0,0.0,0.125,3.7463375070000002,0.0,0.0,-6811.0,0.0,0.0,-0.0,0.0,0.0,1.983642375,0.0,0.0,6803.0,0.0,0.0,0.0,0.0,0.0,4.912108872,0.0,0.0,-7014.0,0.0,0.0,-0.0,0.0,0.0,2.9016110310000003,0.0,0.0,1.2300000190734863,0.28999999165534973,-0.009999999776482582,-0.00189208984375,0.01104736328125,1.01123046875,35.52000045776367,0.0,-7.0,-0.0278167724609375,-0.1590728759765625,Waiting,0.0,0.0,-396185.0,0.0,0.0,0.0,0.0,0.0,
5.675829000000027,0.0,0.0,-15020.0,0.0,0.0,0.0,0.0,0.125,3.7475582100000002,0.0,0.0,-6811.0,0.0,0.0,-0.0,0.0,0.0,1.984863078,0.0,0.0,6803.0,0.0,0.0,0.0,0.0,0.0,4.912108872,0.0,0.0,-7014.0,0.0,0.0,-0.0,0.0,0.0,2.9016110310000003,0.0,0.0,1.2200000286102295,0.28999999165534973,-0.009999999776482582,-0.00323486328125,0.014892578125,0.96612548828125,35.52000045776367,0.0,-8.0,-0.0278167724609375,-0.1590728759765625,Waiting,0.0,0.0,-396185.0,0.0,0.0,0.0,0.0,0.0,
5.766045999999973,0.0,0.0,-15020.0,0.0,0.0,0.0,0.0,0.125,3.7475582100000002,0.0,0.0,-6811.0,0.0,0.0,-0.0,0.0,0.0,1.984863078,0.0,0.0,6803.0,0.0,0.0,0.0,0.0,0.0,4.913329575000001,0.0,0.0,-7014.0,0.0,0.0,-0.0,0.0,0.0,2.9016110310000003,0.0,0.0,1.2300000190734863,0.28999999165534973,-0.009999999776482582,0.00872802734375,0.02587890625,0.986328125,35.52000045776367,0.0,3.0,-0.0278167724609375,-0.1590728759765625,Waiting,0.0,0.0,-396185.0,0.0,0.0,0.0,0.0,0.0,
5.850131000000053,0.0,0.0,-15020.0,0.0,0.0,0.0,0.0,0.125,3.7475582100000002,0.0,0.0,-6811.0,0.0,0.0,-0.0,0.0,0.0,1.983642375,0.0,0.0,6803.0,0.0,0.0,0.0,0.0,0.0,4.913329575000001,0.0,0.0,-7014.0,0.0,0.0,-0.0,0.0,0.0,2.9028317340000003,0.0,0.0,1.2300000190734863,0.28999999165534973,-0.009999999776482582,0.0086669921875,0.02423095703125,0.98822021484375,35.52000045776367,0.0,3.0,-0.0278167724609375,-0.1590728759765625,Waiting,0.0,0.0,-396185.0,0.0,0.0,0.0,0.0,0.0,
5.932282000000007,0.0,0.0,-15020.0,0.0,0.0,0.0,0.0,0.125,3.7475582100000002,0.0,0.0,-6811.0,0.0,0.0,-0.0,0.0,0.0,1.984863078,0.0,0.0,6803.0,0.0,0.0,0.0,0.0,0.0,4.913329575000001,0.0,0.0,-7014.0,0.0,0.0,-0.0,0.0,0.0,2.9016110310000003,0.0,0.0,1.2300000190734863,0.28999999165534973,-0.009999999776482582,9.765625E-4,0.017822265625,1.01239013671875,35.540000915527344,0.0,-4.0,-0.0278167724609375,-0.1590728759765625,Waiting,0.0,0.0,-396185.0,0.0,0.0,0.0,0.0,0.0,
6.019172000000021,0.0,0.0,-15020.0,0.0,0.0,0.0,0.0,0.125,3.7475582100000002,0.0,0.0,-6811.0,0.0,0.0,-0.0,0.0,0.0,1.983642375,0.0,0.0,6803.0,0.0,0.0,0.0,0.0,0.0,4.9157709810000005,0.0,0.0,-7014.0,0.0,0.0,-0.0,0.0,0.0,2.9016110310000003,0.0,0.0,1.2200000286102295,0.28999999165534973,-0.009999999776482582,0.0125732421875,0.0269775390625,1.001708984375,35.540000915527344,0.0,7.0,-0.0278167724609375,-0.1590728759765625,Waiting,0.0,0.0,-396185.0,0.0,0.0,0.0,0.0,0.0,
6.107331000000006,0.0,0.0,-15020.0,0.0,0.0,0.0,0.0,0.125,3.7475582100000002,0.0,0.0,-6811.0,0.0,0.0,-0.0,0.0,0.0,1.983642375,0.0,0.0,6803.0,0.0,0.0,0.0,0.0,0.0,4.912108872,0.0,0.0012207030000004337,-7014.0,0.0,0.0,-0.0,0.0,0.0,2.9016110310000003,0.0,0.0,1.2300000190734863,0.28999999165534973,-0.009999999776482582,0.0765380859375,-0.06744384765625,1.0191650390625,35.540000915527344,0.0,71.0,-0.02777099609375,-0.1591339111328125,Waiting,0.0,0.0,-396185.0,0.0,0.0,0.0,0.0,0.0,
6.188281000000075,0.0,0.0,-15020.0,0.0,0.0,0.0,0.0,0.125,3.7463375070000002,0.0,0.0,-6811.0,0.0,0.0,-0.0,0.0,0.0,1.983642375,0.0,0.0,6803.0,0.0,0.0,0.0,0.0,0.0,4.913329575000001,0.0,0.0,-7014.0,0.0,0.0,-0.0,0.0,0.0,2.9003903280000003,0.0,0.0,1.2400000095367432,0.28999999165534973,-0.009999999776482582,0.0181884765625,0.027587890625,0.99188232421875,35.540000915527344,0.0,13.0,-0.0277252197265625,-0.1593780517578125,Waiting,0.0,0.0,-396185.0,0.0,0.0,0.0,0.0,0.0,
6.273300999999978,0.0,0.0,-15020.0,0.0,0.0,0.0,0.0,0.125,3.7463375070000002,0.0,0.0,-6811.0,0.0,0.0,-0.0,0.0,0.0,1.984863078,0.0,0.0,6803.0,0.0,0.0,0.0,0.0,0.0,4.914550278,0.0,0.0,-7014.0,0.0,0.0,-0.0,0.0,0.0,2.9016110310000003,0.0,0.0,1.2200000286102295,0.28999999165534973,-0.019999999552965164,0.04742431640625,0.02557373046875,1.0125732421875,35.540000915527344,0.0,42.0,-0.0279998779296875,-0.16046142578125,Waiting,0.0,0.0,-396185.0,0.0,0.0,0.0,0.0,0.0,
6.362619999999995,0.0,0.0,-15020.0,0.0,0.0,0.0,0.0,0.125,3.7475582100000002,0.0,0.0,-6811.0,0.0,0.0,-0.0,0.0,0.0,1.984863078,0.0,0.0,6803.0,0.0,0.0,0.0,0.0,0.0,4.912108872,0.0,0.0,-7014.0,0.0,0.0,-0.0,0.0,0.0,2.9003903280000003,0.0,0.0,1.2200000286102295,0.3100000023841858,-0.019999999552965164,-0.026123046875,0.02056884765625,1.0052490234375,35.540000915527344,0.0,-31.0,-0.0281524658203125,-0.1601409912109375,Waiting,0.0,0.0,-396185.0,0.0,0.0,0.0,0.0,0.0,
6.450444000000018,0.0,0.0,-15020.0,0.0,0.0,0.0,0.0,0.125,3.748778913,0.0,0.0,-6811.0,0.0,0.0,-0.0,0.0,0.0,1.983642375,0.0,0.0,6803.0,0.0,0.0,0.0,0.0,0.0,4.914550278,0.0,0.0,-7014.0,0.0,0.0,-0.0,0.0,0.0,2.9016110310000003,0.0,0.0,1.2100000381469727,0.33000001311302185,-0.019999999552965164,0.00921630859375,0.03350830078125,0.95941162109375,35.560001373291016,0.0,3.0,-0.027801513671875,-0.1599578857421875,Waiting,0.0,0.0,-396185.0,0.0,0.0,0.0,0.0,0.0,
6.531381999999983,0.0,0.0,-15020.0,0.0,0.0,0.0,0.0,0.125,3.7475582100000002,0.0,0.0,-6811.0,0.0,0.0,-0.0,0.0,0.0,1.983642375,0.0,0.0,6803.0,0.0,0.0,0.0,0.0,0.0,4.913329575000001,0.0,0.0,-7014.0,0.0,0.0,-0.0,0.0,0.0,2.9016110310000003,0.0,0.0,1.2200000286102295,0.3100000023841858,-0.019999999552965164,-0.00146484375,0.02618408203125,0.9786376953125,35.560001373291016,0.0,-6.0,-0.027862548828125,-0.1599578857421875,Waiting,0.0,0.0,-396185.0,0.0,0.0,0.0,0.0,0.0,
6.624701000000001,0.0,0.0,-15020.0,0.0,0.0,0.0,0.0,0.125,3.7475582100000002,0.0,0.0,-6811.0,0.0,0.0,-0.0,0.0,0.0,1.984863078,0.0,0.0,6803.0,0.0,0.0,0.0,0.0,0.0,4.913329575000001,0.0,0.0,-7014.0,0.0,0.0,-0.0,0.0,0.0,2.9016110310000003,0.0,0.0,1.2200000286102295,0.3100000023841858,-0.019999999552965164,0.0159912109375,0.011962890625,0.9930419921875,35.560001373291016,0.0,10.0,-0.027862548828125,-0.1599578857421875,Waiting,0.0,0.0,-396185.0,0.0,0.0,0.0,0.0,0.0,
6.710513000000035,0.0,0.0,-15020.0,0.0,0.0,0.0,0.0,0.125,3.7475582100000002,0.0,0.0,-6811.0,0.0,0.0,-0.0,0.0,0.0,1.983642375,0.0,0.0,6803.0,0.0,0.0,0.0,0.0,0.0,4.913329575000001,0.0,-0.0012207030000004337,-7014.0,0.0,0.0,-0.0,0.0,0.0,2.9003903280000003,0.0,-0.0012207029999999897,1.2300000190734863,0.3100000023841858,-0.019999999552965164,-0.00262451171875,0.017333984375,1.00787353515625,35.560001373291016,0.0,-8.0,-0.027862548828125,-0.1599578857421875,Waiting,0.0,0.0,-396185.0,0.0,0.0,0.0,0.0,0.0,
6.793310999999987,0.0,0.0,-15020.0,0.0,0.0,0.0,0.0,0.125,3.7463375070000002,0.0,0.0,-6811.0,0.0,0.0,-0.0,0.0,0.0,1.983642375,0.0,0.0,6803.0,0.0,0.0,0.0,0.0,0.0,4.912108872,0.0,0.0,-7014.0,0.0,0.0,-0.0,0.0,0.0,2.9016110310000003,0.0,0.0,1.2300000190734863,0.3199999928474426,-0.019999999552965164,7.32421875E-4,0.01898193359375,0.98382568359375,35.560001373291016,0.0,-4.0,-0.027862548828125,-0.1599578857421875,Waiting,0.0,0.0,-396185.0,0.0,0.0,0.0,0.0,0.0,
6.874945000000065,0.0,0.0,-15020.0,0.0,0.0,0.0,0.0,0.125,3.7463375070000002,0.0,0.0,-6811.0,0.0,0.0,-0.0,0.0,0.0,1.984863078,0.0,0.0,6803.0,0.0,0.0,0.0,0.0,0.0,4.913329575000001,0.0,0.0,-7014.0,0.0,0.0,-0.0,0.0,0.0,2.9016110310000003,0.0,0.0,1.2200000286102295,0.3100000023841858,-0.019999999552965164,-0.00531005859375,0.01824951171875,0.9991455078125,35.560001373291016,0.0,-10.0,-0.027862548828125,-0.1599578857421875,Waiting,0.0,0.0,-396185.0,0.0,0.0,0.0,0.0,0.0,
6.960532000000007,0.0,0.0,-15020.0,0.0,0.0,0.0,0.0,0.125,3.7475582100000002,0.0,0.0,-6811.0,0.0,0.0,-0.0,0.0,0.0,1.983642375,0.0,0.0,6803.0,0.0,0.0,0.0,0.0,0.0,4.912108872,0.0,0.0,-7014.0,0.0,0.0,-0.0,0.0,0.0,2.9016110310000003,0.0,0.0,1.2200000286102295,0.3199999928474426,-0.019999999552965164,0.0029296875,0.013916015625,0.97894287109375,35.560001373291016,0.0,-2.0,-0.027862548828125,-0.1599578857421875,Waiting,0.0,0.0,-396185.0,0.0,0.0,0.0,0.0,0.0,
7.040673999999999,0.0,0.0,-15020.0,0.0,0.0,0.0,0.0,0.125,3.7463375070000002,0.0,0.0,-6811.0,0.0,0.0,-0.0,0.0,0.0,1.983642375,0.0,0.0,6803.0,0.0,0.0,0.0,0.0,0.0,4.910888169000001,0.0,0.0,-7014.0,0.0,0.0,-0.0,0.0,0.0,2.9016110310000003,0.0,0.0,1.2200000286102295,0.3100000023841858,-0.019999999552965164,8.544921875E-4,0.02117919921875,1.0009765625,35.560001373291016,0.0,-4.0,-0.027862548828125,-0.1599578857421875,Waiting,0.0,0.0,-396185.0,0.0,0.0,0.0,0.0,0.0,
7.127288000000059,0.0,0.0,-15020.0,0.0,0.0,0.0,0.0,0.125,3.7475582100000002,0.0,0.0,-6811.0,0.0,0.0,-0.0,0.0,0.0,1.983642375,0.0,0.0,6803.0,0.0,0.0,0.0,0.0,0.0,4.913329575000001,0.0,0.0,-7014.0,0.0,0.0,-0.0,0.0,0.0,2.9016110310000003,0.0,0.0,1.2300000190734863,0.3199999928474426,-0.019999999552965164,-0.0042724609375,0.02777099609375,0.9486083984375,35.560001373291016,0.0,-9.0,-0.02777099609375,-0.159637451171875,Waiting,0.0,0.0,-396185.0,0.0,0.0,0.0,0.0,0.0,
7.211580000000074,0.0,0.0,-15020.0,0.0,0.0,0.0,0.0,0.125,3.7475582100000002,0.0,0.0,-6811.0,0.0,0.0,-0.0,0.0,0.0,1.983642375,0.0,0.0,6803.0,0.0,0.0,0.0,0.0,0.0,4.912108872,0.0,0.0,-7014.0,0.0,0.0,-0.0,0.0,0.0,2.9016110310000003,0.0,0.0,1.2100000381469727,0.30000001192092896,-0.019999999552965164,-0.00653076171875,0.025390625,0.93438720703125,35.560001373291016,0.0,-11.0,-0.028076171875,-0.1587066650390625,Waiting,0.0,0.0,-396185.0,0.0,0.0,0.0,0.0,0.0,
7.298214000000036,0.0,0.0,-15020.0,0.0,0.0,0.0,0.0,0.125,3.7463375070000002,0.0,0.0,-6811.0,0.0,0.0,-0.0,0.0,0.0,1.983642375,0.0,0.0,6803.0,0.0,0.0,0.0,0.0,0.0,4.913329575000001,0.0,0.0,-7014.0,0.0,0.0,-0.0,0.0,0.0,2.9016110310000003,0.0,0.0,1.2100000381469727,0.3100000023841858,-0.019999999552965164,0.01385498046875,5.4931640625E-4,0.9783935546875,35.560001373291016,0.0,8.0,-0.0277862548828125,-0.15887451171875,Waiting,0.0,0.0,-396185.0,0.0,0.0,0.0,0.0,0.0,
7.38510699999996,0.0,0.0,-15020.0,0.0,0.0,0.0,0.0,0.125,3.7463375070000002,0.0,0.0,-6811.0,0.0,0.0,-0.0,0.0,0.0,1.983642375,0.0,0.0,6803.0,0.0,0.0,0.0,0.0,0.0,4.913329575000001,0.0,0.0,-7014.0,0.0,0.0,-0.0,0.0,0.0,2.9016110310000003,0.0,0.0,1.190000057220459,0.25999999046325684,-0.019999999552965164,0.21240234375,0.08404541015625,1.05914306640625,35.560001373291016,0.0,207.0,-0.027496337890625,-0.1591949462890625,Waiting,0.0,0.0,-396185.0,0.0,0.0,0.0,0.0,0.0,
7.47156799999997,0.0,0.0,-15020.0,0.0,0.0,0.0,0.0,0.125,3.7475582100000002,0.0,0.0,-6811.0,0.0,0.0,-0.0,0.0,0.0,1.984863078,0.0,0.0,6803.0,0.0,0.0,0.0,0.0,0.0,4.913329575000001,0.0,0.0,-7014.0,0.0,0.0,-0.0,0.0,0.0,2.9016110310000003,0.0,0.0,1.1799999475479126,0.30000001192092896,-0.019999999552965164,0.007080078125,0.08477783203125,1.02783203125,35.560001373291016,0.0,1.0,-0.026031494140625,-0.1586761474609375,Waiting,0.0,0.0,-396185.0,0.0,0.0,0.0,0.0,0.0,
7.55490399999998,0.0,0.0,-15020.0,0.0,0.0,0.0,0.0,0.125,3.7463375070000002,0.0,0.0,-6811.0,0.0,0.0,-0.0,0.0,0.0,1.983642375,0.0,0.0,6803.0,0.0,0.0,0.0,0.0,0.0,4.913329575000001,0.0,0.0,-7014.0,0.0,0.0,-0.0,0.0,0.0,2.9016110310000003,0.0,0.0,1.1799999475479126,0.30000001192092896,-0.019999999552965164,-0.0184326171875,0.04425048828125,1.0272216796875,35.560001373291016,0.0,-23.0,-0.026397705078125,-0.1574859619140625,Waiting,0.0,0.0,-396185.0,0.0,0.0,0.0,0.0,0.0,
7.635543999999994,0.0,0.0,-15020.0,0.0,0.0,0.0,0.0,0.125,3.7475582100000002,0.0,0.0,-6811.0,0.0,0.0,-0.0,0.0,0.0,1.983642375,0.0,0.0,6803.0,0.0,0.0,0.0,0.0,0.0,4.913329575000001,0.0,0.0,-7014.0,0.0,0.0,-0.0,0.0,0.0,2.9016110310000003,0.0,0.0,1.190000057220459,0.3100000023841858,-0.019999999552965164,-0.00518798828125,0.02935791015625,1.02130126953125,35.560001373291016,0.0,-10.0,-0.0267791748046875,-0.1572113037109375,Waiting,0.0,0.0,-396185.0,0.0,0.0,0.0,0.0,0.0,
7.723603000000002,0.0,0.0,-15020.0,0.0,0.0,0.0,0.0,0.125,3.7463375070000002,0.0,0.0,-6811.0,0.0,0.0,-0.0,0.0,0.0,1.983642375,0.0,0.0,6803.0,0.0,0.0,0.0,0.0,0.0,4.913329575000001,0.0,0.0,-7014.0,0.0,0.0,-0.0,0.0,0.0,2.9016110310000003,0.0,0.0,1.190000057220459,0.3100000023841858,-0.019999999552965164,-0.00384521484375,0.02362060546875,0.985595703125,35.560001373291016,0.0,-9.0,-0.0268707275390625,-0.1572113037109375,Waiting,0.0,0.0,-396185.0,0.0,0.0,0.0,0.0,0.0,
7.811643999999971,0.0,0.0,-15020.0,0.0,0.0,0.0,0.0,0.125,3.7463375070000002,0.0,0.0,-6811.0,0.0,0.0,-0.0,0.0,0.0,1.983642375,0.0,0.0,6803.0,0.0,0.0,0.0,0.0,0.0,4.913329575000001,0.0,-0.0012207030000004337,-7014.0,0.0,0.0,-0.0,0.0,0.0,2.9016110310000003,0.0,-0.0012207029999999897,1.1799999475479126,0.30000001192092896,-0.019999999552965164,0.003173828125,0.02020263671875,0.9906005859375,35.560001373291016,0.0,-2.0,-0.0268707275390625,-0.1572113037109375,Waiting,0.0,0.0,-396185.0,0.0,0.0,0.0,0.0,0.0,
7.895040000000037,0.0,0.0,-15020.0,0.0,0.0,0.0,0.0,0.125,3.7475582100000002,0.0,0.0,-6811.0,0.0,0.0,-0.0,0.0,0.0,1.984863078,0.0,0.0,6803.0,0.0,0.0,0.0,0.0,0.0,4.913329575000001,0.0,0.0,-7014.0,0.0,0.0,-0.0,0.0,0.0,2.9016110310000003,0.0,0.0,1.190000057220459,0.30000001192092896,-0.019999999552965164,0.0067138671875,0.02191162109375,0.995361328125,35.560001373291016,0.0,1.0,-0.0268707275390625,-0.1572113037109375,Waiting,0.0,0.0,-396185.0,0.0,0.0,0.0,0.0,0.0,
7.976528999999981,0.0,0.0,-15020.0,0.0,0.0,0.0,0.0,0.125,3.7475582100000002,0.0,0.0,-6811.0,0.0,0.0,-0.0,0.0,0.0,1.984863078,0.0,0.0,6803.0,0.0,0.0,0.0,0.0,0.0,4.913329575000001,0.0,0.0,-7014.0,0.0,0.0,-0.0,0.0,0.0,2.9016110310000003,0.0,0.0,1.190000057220459,0.30000001192092896,-0.019999999552965164,0.0029296875,0.01934814453125,1.00665283203125,35.560001373291016,0.0,-2.0,-0.0268707275390625,-0.1572113037109375,Waiting,0.0,0.0,-396185.0,0.0,0.0,0.0,0.0,0.0,
8.066407000000007,0.0,0.0,-15020.0,0.0,0.0,0.0,0.0,0.125,3.7451168040000002,0.0,0.0,-6811.0,0.0,0.0,-0.0,0.0,0.0,1.984863078,0.0,0.0,6803.0,0.0,0.0,0.0,0.0,0.0,4.910888169000001,0.0,0.0012207030000004337,-7014.0,0.0,0.0,-0.0,0.0,0.0,2.9016110310000003,0.0,0.0012207029999999897,1.190000057220459,0.28999999165534973,-0.019999999552965164,0.00335693359375,0.005859375,0.97882080078125,35.560001373291016,0.0,-1.0,-0.02691650390625,-0.1572113037109375,Waiting,-9.3,90.5,-396191.0,-1.0,-45.0,-1640.0,0.0,0.0,
8.151810999999986,66.375,0.0,-15020.0,0.0,0.0,0.0,0.0,0.125,3.7463375070000002,0.0,0.0,-6811.0,0.0,0.0,-0.0,0.0,0.0,1.983642375,0.0,0.0,6803.0,0.0,0.0,0.0,0.0,0.0,4.912108872,0.0,-0.0012207030000004337,-7014.0,0.0,0.0,-0.0,0.0,0.0,2.9028317340000003,0.0,0.0,1.2000000476837158,0.28999999165534973,-0.019999999552965164,0.0120849609375,0.0372314453125,0.988525390625,35.560001373291016,0.0,7.0,-0.0269317626953125,-0.1572723388671875,Waiting,0.0,3.375,-396252.0,-44.0,-315.0,0.0,0.0,0.0,
8.234866000000038,30.0,0.0,-15020.0,0.0,0.0,0.0,0.0,0.125,3.7475582100000002,0.0,0.0,-6811.0,0.0,0.0,-0.0,0.0,0.0,1.984863078,0.0,0.0,6803.0,0.0,0.0,0.0,0.0,0.0,4.914550278,0.0,0.0,-7014.0,0.0,0.0,-0.0,0.0,0.0,2.9003903280000003,0.0,0.0,1.2100000381469727,0.2800000011920929,-0.019999999552965164,0.01190185546875,0.025390625,0.98779296875,35.560001373291016,0.0,7.0,-0.0270843505859375,-0.1570892333984375,Waiting,0.0,0.0,-396252.0,-44.0,-405.0,0.0,0.0,0.0,
8.322726000000024,0.0,0.0,-15020.0,0.0,0.0,0.0,0.0,0.125,3.7463375070000002,0.0,0.0,-6811.0,0.0,0.0,-0.0,0.0,0.0,1.984863078,0.0,0.0,6803.0,0.0,0.0,0.0,0.0,0.0,4.913329575000001,0.0,0.0,-7014.0,0.0,0.0,-0.0,0.0,0.0,2.9016110310000003,0.0,0.0,1.2200000286102295,0.2800000011920929,-0.019999999552965164,0.0264892578125,0.03546142578125,1.00042724609375,35.560001373291016,0.0,21.0,-0.0270538330078125,-0.1572265625,Waiting,-10.75,74.5,-396312.0,-50.0,-375.0,-1640.0,0.0,0.0,
8.409993000000016,0.0,0.0,-15020.0,0.0,0.0,0.0,0.0,0.125,3.7463375070000002,0.0,0.0,-6811.0,0.0,0.0,-0.0,0.0,0.0,1.983642375,0.0,0.0,6803.0,0.0,0.0,0.0,0.0,0.0,4.914550278,0.0,0.0,-7014.0,0.0,0.0,-0.0,0.0,0.0,2.9016110310000003,0.0,0.0,1.2100000381469727,0.2800000011920929,-0.019999999552965164,-0.019775390625,0.05267333984375,0.9654541015625,35.560001373291016,0.0,-24.0,-0.0269927978515625,-0.157318115234375,Waiting,0.0,11.25,-396411.0,-75.0,-577.5,0.0,0.0,0.0,
8.494219999999972,33.25,0.0,-15020.0,0.0,0.0,0.0,0.0,0.125,3.7475582100000002,0.0,0.0,-6811.0,0.0,0.0,-0.0,0.0,0.0,1.984863078,0.0,0.0,6803.0,0.0,0.0,0.0,0.0,0.0,4.913329575000001,0.0,0.0,-7014.0,0.0,0.0,-0.0,0.0,0.0,2.9016110310000003,0.0,0.0,1.2100000381469727,0.28999999165534973,-0.019999999552965164,-0.00372314453125,0.0201416015625,0.998779296875,35.560001373291016,0.0,-8.0,-0.0272369384765625,-0.1564788818359375,Waiting,-11.95,65.125,-396411.0,-75.0,-712.5,-1640.0,0.0,0.0,
8.583342000000062,18.875,0.0,-15020.0,0.0,0.0,0.0,0.0,0.125,3.7463375070000002,0.0,0.0,-6811.0,0.0,0.0,-0.0,0.0,0.0,1.983642375,0.0,0.0,6803.0,0.0,0.0,0.0,0.0,0.0,4.912108872,0.0,0.0,-7014.0,0.0,0.0,-0.0,0.0,0.0,2.9016110310000003,0.0,0.0,1.1799999475479126,0.30000001192092896,-0.019999999552965164,-0.0032958984375,-0.01239013671875,1.00823974609375,35.560001373291016,0.0,-8.0,-0.028045654296875,-0.156280517578125,Waiting,0.0,0.0,-396541.0,-101.0,-937.5,0.0,0.0,0.0,
8.676185999999987,9.625,0.0,-15020.0,0.0,0.0,0.0,0.0,0.125,3.7475582100000002,0.0,0.0,-6811.0,0.0,0.0,-0.0,0.0,0.0,1.984863078,0.0,0.0,6803.0,0.0,0.0,0.0,0.0,0.0,4.913329575000001,0.0,0.0,-7014.0,0.0,0.0,-0.0,0.0,0.0,2.9016110310000003,0.0,0.0,1.2000000476837158,0.2800000011920929,-0.019999999552965164,0.00335693359375,0.04083251953125,1.04119873046875,35.560001373291016,0.0,-1.0,-0.0290069580078125,-0.1564178466796875,Waiting,-9.177908113391984,66.75,-396701.0,-132.0,-1012.5,-1640.0,0.0,0.0,
8.76723999999999,28.0,0.0,-15020.0,0.0,0.0,0.0,0.0,0.125,3.7463375070000002,0.0,0.0,-6811.0,0.0,0.0,-0.0,0.0,0.0,1.983642375,0.0,0.0,6803.0,0.0,0.0,0.0,0.0,0.0,4.913329575000001,0.0,-0.0012207030000004337,-7014.0,0.0,0.0,-0.0,0.0,0.0,2.9016110310000003,0.0,0.0,1.2100000381469727,0.2800000011920929,-0.019999999552965164,0.012451171875,0.0675048828125,1.02764892578125,35.560001373291016,0.0,7.0,-0.0290069580078125,-0.156158447265625,Waiting,0.0,2.75,-396894.0,-156.0,-1170.0,0.0,0.0,0.0,
8.850902000000001,0.0,0.0,-15020.0,0.0,0.0,0.0,0.0,0.125,3.7463375070000002,0.0,0.0,-6811.0,0.0,0.0,-0.0,0.0,0.0,1.983642375,0.0,0.0,6803.0,0.0,0.0,0.0,0.0,0.0,4.912108872,0.0,0.0,-7014.0,0.0,0.0,-0.0,0.0,0.0,2.9016110310000003,0.0,0.0,1.2200000286102295,0.27000001072883606,-0.019999999552965164,0.06524658203125,0.01806640625,0.96624755859375,35.560001373291016,0.0,60.0,-0.028961181640625,-0.1552581787109375,Waiting,-8.305571847507332,21.625,-396894.0,-156.0,-1237.5,-1640.0,0.0,0.0,
8.931991000000037,16.75,0.0,-15020.0,0.0,0.0,0.0,0.0,0.125,3.7463375070000002,0.0,0.0,-6811.0,0.0,0.0,-0.0,0.0,0.0,1.984863078,0.0,0.0,6803.0,0.0,0.0,0.0,0.0,0.0,4.913329575000001,0.0,0.0,-7014.0,0.0,0.0,-0.0,0.0,0.0,2.9028317340000003,0.0,0.0,1.2000000476837158,0.2800000011920929,-0.019999999552965164,-0.021240234375,0.01922607421875,0.96771240234375,35.560001373291016,0.0,-26.0,-0.0286407470703125,-0.1551055908203125,Waiting,0.0,1.375,-397095.0,-166.0,-1282.5,0.0,0.0,0.0,
9.025373000000021,16.375,0.0,-15020.0,0.0,0.0,0.0,0.0,0.125,3.748778913,0.0,0.0,-6811.0,0.0,0.0,-0.0,0.0,0.0,1.983642375,0.0,0.0,6803.0,0.0,0.0,0.0,0.0,0.0,4.913329575000001,0.0,0.0012207030000004337,-7014.0,0.0,0.0,-0.0,0.0,0.0,2.9003903280000003,0.0,0.0012207029999999897,1.2300000190734863,0.25,-0.019999999552965164,0.02447509765625,0.0303955078125,0.97247314453125,35.529998779296875,0.0,20.0,-0.028656005859375,-0.15478515625,Waiting,-7.0112903225806456,13.75,-397303.0,-173.0,-1290.0,-1640.0,0.0,0.0,
9.109822000000044,0.0,0.0,-15020.0,0.0,0.0,0.0,0.0,0.125,3.7463375070000002,0.0,0.0,-6811.0,0.0,0.0,-0.0,0.0,0.0,1.983642375,0.0,0.0,6803.0,0.0,0.0,0.0,0.0,0.0,4.914550278,0.0,-0.0012207030000004337,-7014.0,0.0,0.0,-0.0,0.0,0.0,2.9016110310000003,0.0,-0.0012207029999999897,1.2300000190734863,0.25,-0.019999999552965164,-0.00299072265625,0.00244140625,0.966552734375,35.529998779296875,0.0,-7.0,-0.0288848876953125,-0.15447998046875,Waiting,-6.480645161290323,13.875,-397523.0,-179.0,-1342.5,-1640.0,0.0,0.0,
9.194420000000042,17.5,0.0,-15020.0,0.0,0.0,0.0,0.0,0.125,3.7463375070000002,0.0,0.0,-6811.0,0.0,0.0,-0.0,0.0,0.0,1.983642375,0.0,0.0,6803.0,0.0,0.0,0.0,0.0,0.0,4.914550278,0.0,0.0,-7014.0,0.0,0.0,-0.0,0.0,0.0,2.9016110310000003,0.0,0.0,1.2400000095367432,0.23999999463558197,-0.019999999552965164,0.04864501953125,-0.03509521484375,0.94952392578125,35.529998779296875,0.0,44.0,-0.0289306640625,-0.1549072265625,Waiting,-5.114858260019551,7.0,-397523.0,-179.0,-1417.5,-1640.0,0.0,0.0,
9.28687699999998,11.75,0.0,-15020.0,0.0,0.0,0.0,0.0,0.125,3.7475582100000002,0.0,0.0,-6811.0,0.0,0.0,-0.0,0.0,0.0,1.983642375,0.0,0.0,6803.0,0.0,0.0,0.0,0.0,0.0,4.912108872,0.0,0.0,-7014.0,0.0,0.0,-0.0,0.0,0.0,2.9016110310000003,0.0,0.0,1.2300000190734863,0.25999999046325684,-0.019999999552965164,0.02166748046875,-0.03118896484375,0.9873046875,35.529998779296875,0.0,17.0,-0.028778076171875,-0.155731201171875,Waiting,-5.0175953079178885,5.125,-397753.0,-191.0,-1440.0,-1640.0,0.0,0.0,
9.371582999999983,5.125,0.0,-15020.0,0.0,0.0,0.0,0.0,0.125,3.7463375070000002,0.0,0.0,-6811.0,0.0,0.0,-0.0,0.0,0.0,1.983642375,0.0,0.0,6803.0,0.0,0.0,0.0,0.0,0.0,4.912108872,0.0,0.0,-7014.0,0.0,0.0,-0.0,0.0,0.0,2.9016110310000003,0.0,0.0,1.2400000095367432,0.25999999046325684,-0.019999999552965164,0.01116943359375,-0.0166015625,0.979736328125,35.529998779296875,0.0,6.0,-0.0288848876953125,-0.156646728515625,Waiting,-5.341055718475073,6.5,-397982.0,-191.0,-1432.5,-1640.0,0.0,0.0,
9.458408999999985,5.875,0.0,-15020.0,0.0,0.0,0.0,0.0,0.125,3.748778913,0.0,0.0,-6811.0,0.0,0.0,-0.0,0.0,0.0,1.983642375,0.0,0.0,6803.0,0.0,0.0,0.0,0.0,0.0,4.914550278,0.0,0.0,-7014.0,0.0,0.0,-0.0,0.0,0.0,2.9016110310000003,0.0,0.0,1.25,0.25,-0.019999999552965164,0.0361328125,-0.0281982421875,0.99810791015625,35.529998779296875,0.0,31.0,-0.0290985107421875,-0.1572723388671875,Waiting,-5.409677419354838,7.375,-397982.0,-191.0,-1432.5,-1640.0,0.0,0.0,
9.545839000000036,7.25,0.0,-15020.0,0.0,0.0,0.0,0.0,0.125,3.7451168040000002,0.0,0.0,-6811.0,0.0,0.0,-0.0,0.0,0.0,1.983642375,0.0,0.0,6803.0,0.0,0.0,0.0,0.0,0.0,4.913329575000001,0.0,0.0,-7014.0,0.0,0.0,-0.0,0.0,0.0,2.9003903280000003,0.0,0.0,1.2599999904632568,0.25,-0.019999999552965164,0.03729248046875,-0.095703125,0.9891357421875,35.529998779296875,0.0,32.0,-0.02899169921875,-0.157440185546875,Waiting,-5.490224828934506,7.0,-398214.0,-192.0,-1447.5,-1640.0,0.0,0.0,
9.631854999999982,7.25,0.0,-15020.0,0.0,0.0,0.0,0.0,0.125,3.7463375070000002,0.0,0.0,-6811.0,0.0,0.0,-0.0,0.0,0.0,1.983642375,0.0,0.0,6803.0,0.0,0.0,0.0,0.0,0.0,4.913329575000001,0.0,0.0,-7014.0,0.0,0.0,-0.0,0.0,0.0,2.9016110310000003,0.0,0.0,1.2300000190734863,0.23999999463558197,-0.019999999552965164,0.03460693359375,0.0570068359375,1.06243896484375,35.529998779296875,0.0,30.0,-0.0289306640625,-0.1579132080078125,Waiting,-5.363929618768328,7.0,-398447.0,-194.0,-1455.0,-1640.0,0.0,0.0,
9.716329000000027,7.125,0.0,-15020.0,0.0,0.0,0.0,0.0,0.125,3.7475582100000002,0.0,0.0,-6811.0,0.0,0.0,-0.0,0.0,0.0,1.983642375,0.0,0.0,6803.0,0.0,0.0,0.0,0.0,0.0,4.913329575000001,0.0,0.0,-7014.0,0.0,0.0,-0.0,0.0,0.0,2.9028317340000003,0.0,0.0,1.2300000190734863,0.25,-0.019999999552965164,-0.00347900390625,0.07122802734375,0.9627685546875,35.529998779296875,0.0,-7.0,-0.0286102294921875,-0.1586761474609375,Waiting,-5.421309872922776,7.0,-398685.0,-196.0,-1462.5,-1640.0,0.0,0.0,
9.803761000000057,7.25,0.0,-15020.0,0.0,0.0,0.0,0.0,0.125,3.7475582100000002,0.0,0.0,-6811.0,0.0,0.0,-0.0,0.0,0.0,1.984863078,0.0,0.0,6803.0,0.0,0.0,0.0,0.0,0.0,4.913329575000001,0.0,0.0,-7014.0,0.0,0.0,-0.0,0.0,0.0,2.9016110310000003,0.0,0.0,1.25,0.23999999463558197,-0.019999999552965164,-0.03143310546875,-0.006591796875,0.97515869140625,35.529998779296875,0.0,-35.0,-0.0283203125,-0.1591949462890625,Waiting,-5.594330400782014,6.125,-398685.0,-196.0,-1477.5,-1640.0,0.0,0.0,
9.888178000000073,7.0,0.0,-15020.0,0.0,0.0,0.0,0.0,0.125,3.7463375070000002,0.0,0.0,-6811.0,0.0,0.0,-0.0,0.0,0.0,1.983642375,0.0,0.0,6803.0,0.0,0.0,0.0,0.0,0.0,4.913329575000001,0.0,0.0,-7014.0,0.0,0.0,-0.0,0.0,0.0,2.9016110310000003,0.0,0.0,1.2400000095367432,0.23999999463558197,-0.019999999552965164,0.0343017578125,-0.009765625,1.02960205078125,35.529998779296875,0.0,29.0,-0.0279388427734375,-0.15985107421875,Waiting,-3.1471163245356792,7.25,-398920.0,-197.0,-1485.0,-1640.0,0.0,0.0,
9.972847000000067,7.125,0.0,-15020.0,0.0,0.0,0.0,0.0,0.125,3.748778913,0.0,0.0,-6811.0,0.0,0.0,-0.0,0.0,0.0,1.984863078,0.0,0.0,6803.0,0.0,0.0,0.0,0.0,0.0,4.913329575000001,0.0,0.0,-7014.0,0.0,0.0,-0.0,0.0,0.0,2.9003903280000003,0.0,0.0,1.2300000190734863,0.23999999463558197,-0.019999999552965164,0.058837890625,-0.066650390625,1.02703857421875,35.529998779296875,0.0,54.0,-0.0274658203125,-0.1612548828125,Waiting,-5.4557673509286415,7.125,-399159.0,-198.0,-1492.5,-1640.0,0.0,0.0,
10.062913000000059,7.625,0.0,-15020.0,0.0,0.0,0.0,0.0,0.125,3.7475582100000002,0.0,0.0,-6811.0,0.0,0.0,-0.0,0.0,0.0,1.983642375,0.0,0.0,6803.0,0.0,0.0,0.0,0.0,0.0,4.914550278,0.0,0.0,-7014.0,0.0,0.0,-0.0,0.0,0.0,2.9016110310000003,0.0,0.0,1.2100000381469727,0.25,-0.009999999776482582,-0.0743408203125,0.08392333984375,1.0335693359375,35.5099983215332,0.0,-78.0,-0.0270233154296875,-0.1634521484375,Waiting,-5.4557673509286415,6.125,-399159.0,-198.0,-1500.0,-1640.0,0.0,0.0,
10.151766999999992,7.375,0.0,-15020.0,0.0,0.0,0.0,0.0,0.125,3.7475582100000002,0.0,0.0,-6811.0,0.0,0.0,-0.0,0.0,0.0,1.983642375,0.0,0.0,6803.0,0.0,0.0,0.0,0.0,0.0,4.913329575000001,0.0,0.0,-7014.0,0.0,0.0,-0.0,0.0,0.0,2.9016110310000003,0.0,0.0,1.2200000286102295,0.25,-0.009999999776482582,0.04656982421875,0.0174560546875,1.01385498046875,35.5099983215332,0.0,42.0,-0.026641845703125,-0.1657562255859375,Waiting,-5.4557673509286415,7.25,-399400.0,-200.0,-1500.0,-1640.0,0.0,0.0,
10.23724199999997,6.625,0.0,-15020.0,0.0,0.0,0.0,0.0,0.125,3.7475582100000002,0.0,0.0,-6811.0,0.0,0.0,-0.0,0.0,0.0,1.984863078,0.0,0.0,6803.0,0.0,0.0,0.0,0.0,0.0,4.914550278,0.0,0.0,-7014.0,0.0,0.0,-0.0,0.0,0.0,2.9003903280000003,0.0,0.0,1.2200000286102295,0.25,-0.009999999776482582,0.06060791015625,-0.02325439453125,0.98736572265625,35.5099983215332,0.0,56.0,-0.0259857177734375,-0.167999267578125,Waiting,-5.617399804496579,7.25,-399642.0,-201.0,-1507.5,-1640.0,0.0,0.0,
10.329915000000037,7.75,0.0,-15020.0,0.0,0.0,0.0,0.0,0.125,3.757323834,0.0,0.0,-6811.0,0.0,0.0,-0.0,0.0,0.0,1.983642375,0.0,0.0,6803.0,0.0,0.0,0.0,0.0,0.0,4.914550278,0.0,0.0,-7014.0,0.0,0.0,-0.0,0.0,0.0,2.9016110310000003,0.0,0.0,1.2100000381469727,0.25999999046325684,-0.009999999776482582,-0.02655029296875,0.022216796875,0.99755859375,35.5099983215332,0.0,-31.0,-0.0257568359375,-0.170867919921875,Waiting,-5.570625610948191,7.0,-399885.0,-202.0,-1515.0,-1640.0,0.0,0.0,
10.421212000000057,7.25,0.0,-15020.0,0.0,0.0,0.0,0.0,0.125,3.7463375070000002,0.0,0.0,-6811.0,0.0,0.0,-0.0,0.0,0.0,1.983642375,0.0,0.0,6803.0,0.0,0.0,0.0,0.0,0.0,4.912108872,0.0,0.0,-7014.0,0.0,0.0,-0.0,0.0,0.0,2.9016110310000003,0.0,0.0,1.2200000286102295,0.25,-0.009999999776482582,0.0,0.01422119140625,0.976318359375,35.5099983215332,0.0,-4.0,-0.025726318359375,-0.174072265625,Waiting,-5.570625610948191,6.75,-399885.0,-202.0,-1522.5,-1640.0,0.0,0.0,
10.512839999999967,7.375,0.0,-15020.0,0.0,0.0,0.0,0.0,0.125,3.7475582100000002,0.0,0.0,-6811.0,0.0,0.0,-0.0,0.0,0.0,1.983642375,0.0,0.0,6803.0,0.0,0.0,0.0,0.0,0.0,4.913329575000001,0.0,0.0,-7014.0,0.0,0.0,-0.0,0.0,0.0,2.9003903280000003,0.0,0.0,1.2100000381469727,0.25,-0.019999999552965164,0.01239013671875,-0.07830810546875,0.960205078125,35.529998779296875,0.0,8.0,-0.02581787109375,-0.176605224609375,Waiting,-5.559726295210167,6.625,-400130.0,-203.0,-1530.0,-1640.0,0.7,2.875,
10.607562999999965,7.25,0.0,-15020.0,0.0,0.0,0.0,0.0,0.125,3.7463375070000002,0.0,0.0,-6811.0,0.0,0.0,-0.0,0.0,0.0,1.983642375,0.0,0.0,6803.0,0.0,0.0,0.0,0.0,0.0,4.914550278,0.0,0.0,-7014.0,0.0,0.0,-0.0,0.0,0.0,2.9016110310000003,0.0,0.0,1.2100000381469727,0.25999999046325684,-0.019999999552965164,0.01617431640625,-0.02667236328125,1.01995849609375,35.529998779296875,0.0,11.0,-0.0257568359375,-0.1802825927734375,Waiting,-5.626979472140762,7.25,-400375.0,-204.0,-1530.0,-1640.0,0.7,0.5,
10.69415399999998,6.875,0.0,-15020.0,0.0,0.0,0.0,0.0,0.125,3.7463375070000002,0.0,0.0,-6811.0,0.0,0.0,-0.0,0.0,0.0,1.983642375,0.0,0.0,6803.0,0.0,0.0,0.0,0.0,0.0,4.912108872,0.0,0.0,-7014.0,0.0,0.0,-0.0,0.0,0.0,2.9003903280000003,0.0,0.0,1.2200000286102295,0.25,-0.009999999776482582,-0.02777099609375,0.08233642578125,0.950439453125,35.529998779296875,0.0,-32.0,-0.0252685546875,-0.1832275390625,Waiting,-5.581231671554252,7.25,-400622.0,-205.0,-1537.5,-1640.0,0.7,0.375,
10.787717000000063,7.5,0.0,-15020.0,0.0,0.0,0.0,0.0,0.125,3.7463375070000002,0.0,0.0,-6811.0,0.0,0.0,-0.0,0.0,0.0,1.984863078,0.0,0.0,6803.0,0.0,0.0,0.0,0.0,0.0,4.912108872,0.0,0.0,-7014.0,0.0,0.0,-0.0,0.0,0.0,2.9003903280000003,0.0,0.0,1.2200000286102295,0.27000001072883606,-0.009999999776482582,0.03765869140625,-0.12744140625,1.033203125,35.529998779296875,0.0,32.0,-0.025115966796875,-0.18536376953125,Waiting,-5.570625610948191,6.75,-400870.0,-206.0,-1545.0,-1640.0,0.7,0.25,
10.885265000000015,7.375,0.0,-15020.0,0.0,0.0,0.0,0.0,0.125,3.7475582100000002,0.0,0.0,-6811.0,0.0,0.0,-0.0,0.0,0.0,1.983642375,0.0,0.0,6803.0,0.0,0.0,0.0,0.0,0.0,4.914550278,0.0,0.0,-7014.0,0.0,0.0,-0.0,0.0,0.0,2.9016110310000003,0.0,0.0,1.2000000476837158,0.27000001072883606,-0.009999999776482582,-0.0413818359375,0.1497802734375,1.00933837890625,35.529998779296875,0.0,-46.0,-0.02459716796875,-0.1895751953125,Waiting,-5.673998044965787,7.25,-400870.0,-206.0,-1545.0,-1640.0,0.7,0.375,
10.975079000000028,7.125,0.0,-15020.0,0.0,0.0,0.0,0.0,0.125,3.7475582100000002,0.0,0.0,-6811.0,0.0,0.0,-0.0,0.0,0.0,1.983642375,0.0,0.0,6803.0,0.0,0.0,0.0,0.0,0.0,4.913329575000001,0.0,0.0,-7014.0,0.0,0.0,-0.0,0.0,0.0,2.9016110310000003,0.0,0.0,1.25,0.25,-0.019999999552965164,-0.0078125,-0.00482177734375,1.0609130859375,35.529998779296875,0.0,-12.0,-0.024658203125,-0.19207763671875,Waiting,-5.616568914956011,6.875,-401118.0,-206.0,-1552.5,-1640.0,0.7,0.25,
11.069675999999978,7.25,0.0,-15020.0,0.0,0.0,0.0,0.0,0.125,3.7463375070000002,0.0,0.0,-6811.0,0.0,0.0,-0.0,0.0,0.0,1.983642375,0.0,0.0,6803.0,0.0,0.0,0.0,0.0,0.0,4.912108872,0.0,0.0,-7014.0,0.0,0.0,-0.0,0.0,0.0,2.9003903280000003,0.0,0.0,1.2200000286102295,0.27000001072883606,-0.019999999552965164,-0.01593017578125,0.1177978515625,0.93206787109375,35.54999923706055,0.0,-20.0,-0.025115966796875,-0.194610595703125,Waiting,-5.547653958944282,6.5,-401370.0,-208.0,-1560.0,-1640.0,0.7,0.25,
11.154427000000025,7.625,0.0,-15020.0,0.0,0.0,0.0,0.0,0.125,3.7463375070000002,0.0,0.0,-6811.0,0.0,0.0,-0.0,0.0,0.0,1.984863078,0.0,0.0,6803.0,0.0,0.0,0.0,0.0,0.0,4.912108872,0.0,0.0,-7014.0,0.0,0.0,-0.0,0.0,0.0,2.9016110310000003,0.0,0.0,1.2599999904632568,0.25,-0.019999999552965164,0.03533935546875,-0.0340576171875,1.11376953125,35.54999923706055,0.0,30.0,-0.02581787109375,-0.1958160400390625,Waiting,-5.639540566959922,7.0,-401619.0,-208.0,-1560.0,-1640.0,0.7,0.375,
11.247969999999972,6.75,0.0,-15020.0,0.0,0.0,0.0,0.0,0.125,3.7475582100000002,0.0,0.0,-6811.0,0.0,0.0,-0.0,0.0,0.0,1.984863078,0.0,0.0,6803.0,0.0,0.0,0.0,0.0,0.0,4.913329575000001,0.0,0.0,-7014.0,0.0,0.0,-0.0,0.0,0.0,2.9016110310000003,0.0,0.0,1.25,0.25,-0.009999999776482582,-0.0555419921875,0.05450439453125,1.017578125,35.54999923706055,0.0,-60.0,-0.02618408203125,-0.1975860595703125,Waiting,-5.570625610948191,7.0,-401619.0,-208.0,-1567.5,-1640.0,0.7,0.5,
