Time,ClimberA1,ClimberA2,FRpos,FRCurrent,FRspeed,FRsetpoint,FRApos,FRACurrent,FREncpos,FREncSetpoint,FREncSpeed,FLpos,FLCurrent,FLspeed,FLsetpoint,FLApos,FLACurrent,FLEncpos,FLEncSetpoint,FLEncSpeed,BRpos,BRCurrent,BRspeed,BRsetpoint,BRApos,BRACurrent,BREncpos,BREncSetpoint,BREncSpeed,BLpos,BLCurrent,BLspeed,BLsetpoint,BLApos,BLACurrent,BLEncpos,BLEncSetpoint,BLEncSpeed,navx_Pitch,navx_Roll,navx_Yaw,navx_XAcc,navx_YAcc,navx_ZAcc,navx_Temp,navx_Bar,navx_Alt,navx_XDis,navx_YDis,GearPlacerState,ShootOutputV,ShootOutputCurrent,ShootEncPos,ShootEncVelocity,ShootSpeed,ShootSetpoint,CarouselSetpoint,CarouselCurrent,
0.18947899999999207,0.0,0.0,21.0,0.0,0.0,0.0,0.0,0.0,4.145507388,0.0,0.0,345.0,0.0,0.0,-0.0,0.0,0.0,2.042236119,0.0,0.0,37.0,0.0,0.0,0.0,0.0,0.0,4.68749952,0.0,0.0,-92.0,0.0,0.0,-0.0,0.0,0.0,3.0078121920000003,0.0,0.0,1.0399999618530273,0.09000000357627869,0.0,0.001220703125,0.01812744140625,1.0,33.9900016784668,0.0,0.0,-0.013824462890625,-0.5215911865234375,Waiting,0.0,0.0,-234712.0,0.0,0.0,0.0,0.0,0.0,
0.313195000000007,0.0,0.0,21.0,0.0,0.0,0.0,0.0,0.125,4.151610903,0.0,0.0,345.0,0.0,0.0,-0.0,0.0,0.0,2.041015416,0.0,0.0,37.0,0.0,0.0,0.0,0.0,0.0,4.686278817,0.0,0.0,-92.0,0.0,0.0,-0.0,0.0,0.0,3.0078121920000003,0.0,0.0,1.0399999618530273,0.09000000357627869,0.0,6.103515625E-5,0.01922607421875,0.99761962890625,33.9900016784668,0.0,-1.0,-0.013824462890625,-0.5215911865234375,Waiting,0.0,0.0,-234712.0,0.0,0.0,0.0,0.0,0.0,
0.4089110000000219,0.0,0.0,21.0,0.0,0.0,0.0,0.0,0.125,4.152831606,0.0,0.0,345.0,0.0,0.0,-0.0,0.0,0.0,2.042236119,0.0,0.0,37.0,0.0,0.0,0.0,0.0,0.0,4.686278817,0.0,0.0,-92.0,0.0,0.0,-0.0,0.0,0.0,3.0078121920000003,0.0,0.0,1.0399999618530273,0.09000000357627869,0.0,-4.2724609375E-4,0.01824951171875,1.0040283203125,33.9900016784668,0.0,-2.0,-0.013824462890625,-0.5215911865234375,Waiting,0.0,0.0,-234712.0,0.0,0.0,0.0,0.0,0.0,
0.5017280000000028,0.0,0.0,21.0,0.0,0.0,0.0,0.0,0.0,4.1503902,0.0,0.0,345.0,0.0,0.0,-0.0,0.0,0.0,2.042236119,0.0,0.0,37.0,0.0,0.0,0.0,0.0,0.0,4.68749952,0.0,0.0,-92.0,0.0,0.0,-0.0,0.0,0.0,3.0090328950000003,0.0,0.0,1.0399999618530273,0.07999999821186066,0.0,0.00140380859375,0.0196533203125,0.9998779296875,33.9900016784668,0.0,0.0,-0.013824462890625,-0.5215911865234375,Waiting,0.0,0.0,-234712.0,0.0,0.0,0.0,0.0,0.0,
0.5956440000000294,0.0,0.0,21.0,0.0,0.0,0.0,0.0,0.0,4.152831606,0.0,0.0,345.0,0.0,0.0,-0.0,0.0,0.0,2.042236119,0.0,0.0,37.0,0.0,0.0,0.0,0.0,0.0,4.686278817,0.0,0.0,-92.0,0.0,0.0,-0.0,0.0,0.0,3.0065914890000003,0.0,0.0,1.0399999618530273,0.07999999821186066,0.0,-5.4931640625E-4,0.018798828125,0.99761962890625,33.9900016784668,0.0,-2.0,-0.013824462890625,-0.5215911865234375,Waiting,0.0,0.0,-234712.0,0.0,0.0,0.0,0.0,0.0,
0.6942229999999981,0.0,0.0,21.0,0.0,0.0,0.0,0.0,0.0,4.152831606,0.0,0.0,345.0,0.0,0.0,-0.0,0.0,0.0,2.042236119,0.0,0.0,37.0,0.0,0.0,0.0,0.0,0.0,4.686278817,0.0,0.0,-92.0,0.0,0.0,-0.0,0.0,0.0,3.0065914890000003,0.0,0.0,1.0399999618530273,0.07999999821186066,0.0,-0.00146484375,0.0172119140625,0.9976806640625,34.02000045776367,0.0,-3.0,-0.013824462890625,-0.5215911865234375,Waiting,0.0,0.0,-234712.0,0.0,0.0,0.0,0.0,0.0,
0.7909670000000042,0.0,0.0,21.0,0.0,0.0,0.0,0.0,0.0,4.154052309,0.0,0.0,345.0,0.0,0.0,-0.0,0.0,0.0,2.042236119,0.0,0.0,37.0,0.0,0.0,0.0,0.0,0.0,4.686278817,0.0,0.0,-92.0,0.0,0.0,-0.0,0.0,0.0,3.0078121920000003,0.0,0.0,1.0399999618530273,0.09000000357627869,0.0,0.00140380859375,0.01580810546875,0.9964599609375,34.02000045776367,0.0,0.0,-0.013824462890625,-0.5215911865234375,Waiting,0.0,0.0,-234712.0,0.0,0.0,0.0,0.0,0.0,
0.8783850000000093,0.0,0.0,21.0,0.0,0.0,0.0,0.0,0.0,4.152831606,0.0,0.0,345.0,0.0,0.0,-0.0,0.0,0.0,2.042236119,0.0,0.0,37.0,0.0,0.0,0.0,0.0,0.0,4.68749952,0.0,0.0,-92.0,0.0,0.0,-0.0,0.0,0.0,3.0078121920000003,0.0,0.0,1.0399999618530273,0.07999999821186066,0.0,6.7138671875E-4,0.01910400390625,1.0,34.02000045776367,0.0,0.0,-0.013824462890625,-0.5215911865234375,Waiting,0.0,0.0,-234712.0,0.0,0.0,0.0,0.0,0.0,
0.9745190000000293,0.0,0.0,21.0,0.0,0.0,0.0,0.0,0.125,4.155273012,0.0,0.0,345.0,0.0,0.0,-0.0,0.0,0.0,2.042236119,0.0,0.0,37.0,0.0,0.0,0.0,0.0,0.0,4.686278817,0.0,0.0,-92.0,0.0,0.0,-0.0,0.0,0.0,3.0078121920000003,0.0,0.0,1.0399999618530273,0.07999999821186066,0.0,0.0018310546875,0.01806640625,1.00030517578125,34.02000045776367,0.0,0.0,-0.013824462890625,-0.5215911865234375,Waiting,0.0,0.0,-234712.0,0.0,0.0,0.0,0.0,0.0,
1.0705329999999957,0.0,0.0,21.0,0.0,0.0,0.0,0.0,0.0,4.152831606,0.0,0.0,345.0,0.0,0.0,-0.0,0.0,0.0,2.042236119,0.0,0.0,37.0,0.0,0.0,0.0,0.0,0.0,4.68749952,0.0,0.0,-92.0,0.0,0.0,-0.0,0.0,0.0,3.0065914890000003,0.0,0.0,1.0399999618530273,0.07999999821186066,0.0,0.00323486328125,0.01904296875,1.001953125,34.02000045776367,0.0,1.0,-0.013824462890625,-0.5215911865234375,Waiting,0.0,0.0,-234712.0,0.0,0.0,0.0,0.0,0.0,
1.1590480000000098,0.0,0.0,21.0,0.0,0.0,0.0,0.0,0.0,4.189452696,0.0,0.0,345.0,0.0,0.0,-0.0,0.0,0.0,2.042236119,0.0,0.0,37.0,0.0,0.0,0.0,0.0,0.0,4.68749952,0.0,0.0,-92.0,0.0,0.0,-0.0,0.0,0.0,3.0065914890000003,0.0,0.0,1.0399999618530273,0.09000000357627869,0.0,0.00164794921875,0.01904296875,1.00177001953125,34.02000045776367,0.0,0.0,-0.013824462890625,-0.5215911865234375,Waiting,0.0,0.0,-234712.0,0.0,0.0,0.0,0.0,0.0,
1.2570129999999773,0.0,0.0,21.0,0.0,0.0,0.0,0.0,0.125,4.152831606,0.0,0.0,345.0,0.0,0.0,-0.0,0.0,0.0,2.042236119,0.0,0.0,37.0,0.0,0.0,0.0,0.0,0.0,4.686278817,0.0,0.0,-92.0,0.0,0.0,-0.0,0.0,0.0,3.0065914890000003,0.0,0.0,1.0399999618530273,0.09000000357627869,0.0,0.00347900390625,0.02001953125,0.99517822265625,34.02000045776367,0.0,1.0,-0.013824462890625,-0.5215911865234375,Waiting,0.0,0.0,-234712.0,0.0,0.0,0.0,0.0,0.0,
1.3533940000000293,0.0,0.0,21.0,0.0,0.0,0.0,0.0,0.0,4.154052309,0.0,0.0,345.0,0.0,0.0,-0.0,0.0,0.0,2.042236119,0.0,0.0,37.0,0.0,0.0,0.0,0.0,0.0,4.68749952,0.0,0.0,-92.0,0.0,0.0,-0.0,0.0,0.0,3.0078121920000003,0.0,0.0,1.0399999618530273,0.09000000357627869,0.0,0.00262451171875,0.01776123046875,1.00244140625,34.02000045776367,0.0,0.0,-0.013824462890625,-0.5215911865234375,Waiting,0.0,0.0,-234712.0,0.0,0.0,0.0,0.0,0.0,
1.4505570000000299,0.0,0.0,21.0,0.0,0.0,0.0,0.0,0.0,4.152831606,0.0,0.0,345.0,0.0,0.0,-0.0,0.0,0.0,2.042236119,0.0,0.0,37.0,0.0,0.0,0.0,0.0,0.0,4.686278817,0.0,0.0,-92.0,0.0,0.0,-0.0,0.0,0.0,3.0065914890000003,0.0,0.0,1.0299999713897705,0.10000000149011612,0.0,1.220703125E-4,0.0179443359375,0.9990234375,34.02000045776367,0.0,-1.0,-0.013824462890625,-0.5215911865234375,Waiting,0.0,0.0,-234712.0,0.0,0.0,0.0,0.0,0.0,
1.5545680000000284,0.0,0.0,21.0,0.0,0.0,0.0,0.0,0.125,4.151610903,0.0,0.0,345.0,0.0,0.0,-0.0,0.0,0.0,2.042236119,0.0,0.0,37.0,0.0,0.0,0.0,0.0,0.0,4.685058114,0.0,0.0,-92.0,0.0,0.0,-0.0,0.0,0.0,3.0078121920000003,0.0,0.0,1.0299999713897705,0.10000000149011612,0.0,0.00189208984375,0.01849365234375,1.003173828125,34.02000045776367,0.0,0.0,-0.013824462890625,-0.5215911865234375,Waiting,0.0,0.0,-234712.0,0.0,0.0,0.0,0.0,0.0,
1.6515839999999735,0.0,0.0,21.0,0.0,0.0,0.0,0.0,0.125,4.151610903,0.0,-0.0012207030000004337,345.0,0.0,0.0,-0.0,0.0,0.0,2.042236119,0.0,0.0,37.0,0.0,0.0,0.0,0.0,0.0,4.686278817,0.0,0.0012207029999995456,-92.0,0.0,0.0,-0.0,0.0,0.0,3.0078121920000003,0.0,0.0,1.0399999618530273,0.07999999821186066,0.0,0.0128173828125,0.03289794921875,0.980224609375,34.0099983215332,0.0,11.0,-0.013824462890625,-0.5214691162109375,Waiting,-12.25,90.375,-234712.0,0.0,-60.0,-1640.0,0.0,0.0,
1.748701000000001,34.625,0.0,21.0,0.0,0.0,0.0,0.0,0.0,4.152831606,0.0,0.0012207030000004337,345.0,0.0,0.0,-0.0,0.0,0.0,2.042236119,0.0,0.0,37.0,0.0,0.0,0.0,0.0,0.0,4.686278817,0.0,-0.0012207029999995456,-92.0,0.0,0.0,-0.0,0.0,0.0,3.0078121920000003,0.0,0.0,1.0399999618530273,0.07999999821186066,0.0,0.0150146484375,-0.02252197265625,1.0054931640625,34.0099983215332,0.0,13.0,-0.013885498046875,-0.5213775634765625,Waiting,-9.65,80.5,-234751.0,-20.0,-375.0,-1640.0,0.0,0.0,
1.8475920000000041,69.75,0.0,21.0,0.0,0.0,0.0,0.0,0.125,4.152831606,0.0,-0.0012207030000004337,345.0,0.0,0.0,-0.0,0.0,0.0,2.041015416,0.0,0.0,37.0,0.0,0.0,0.0,0.0,0.0,4.686278817,0.0,0.0012207029999995456,-92.0,0.0,0.0,-0.0,0.0,0.0,3.0065914890000003,0.0,0.0,1.0399999618530273,0.07000000029802322,0.0,0.01220703125,-1.8310546875E-4,1.0018310546875,34.0099983215332,0.0,10.0,-0.013885498046875,-0.521392822265625,Waiting,-9.9,70.75,-234879.0,-93.0,-855.0,-1640.0,0.0,0.0,
1.942859999999986,69.75,0.0,21.0,0.0,0.0,0.0,0.0,0.125,4.154052309,0.0,0.0,345.0,0.0,0.0,-0.0,0.0,0.0,2.041015416,0.0,0.0,37.0,0.0,0.0,0.0,0.0,0.0,4.68749952,0.0,0.0,-92.0,0.0,0.0,-0.0,0.0,0.0,3.0090328950000003,0.0,0.0,1.059999942779541,0.05999999865889549,0.0,0.0159912109375,0.0589599609375,1.02947998046875,34.0099983215332,0.0,14.0,-0.013885498046875,-0.5218048095703125,Waiting,-10.100000000000001,61.5,-235083.0,-159.0,-1267.5,-1640.0,0.0,0.0,
2.0355630000000238,69.75,0.0,21.0,0.0,0.0,0.0,0.0,0.0,4.154052309,0.0,0.0,345.0,0.0,0.0,-0.0,0.0,0.0,2.042236119,0.0,0.0,37.0,0.0,0.0,0.0,0.0,0.0,4.683837411,0.0,0.0,-92.0,0.0,0.0,-0.0,0.0,0.0,3.0078121920000003,0.0,0.0,1.090000033378601,0.03999999910593033,0.0,0.00201416015625,-0.06610107421875,0.96063232421875,34.0099983215332,0.0,1.0,-0.013885498046875,-0.5228118896484375,Waiting,-4.492179863147606,24.125,-235344.0,-211.0,-1545.0,-1640.0,0.0,0.0,
2.1335659999999916,50.25,0.0,21.0,0.0,0.0,0.0,0.0,0.125,4.152831606,0.0,0.0,345.0,0.0,0.0,-0.0,0.0,0.0,2.042236119,0.0,0.0,37.0,0.0,0.0,0.0,0.0,0.0,4.686278817,0.0,0.0,-92.0,0.0,0.0,-0.0,0.0,0.0,3.0078121920000003,0.0,0.0,1.090000033378601,0.03999999910593033,0.0,0.01947021484375,-0.01214599609375,0.9229736328125,34.0099983215332,0.0,18.0,-0.013885498046875,-0.527130126953125,Waiting,-3.861436950146627,1.125,-235344.0,-211.0,-1695.0,-1640.0,0.0,0.0,
2.23078899999999,2.5,0.0,21.0,0.0,0.0,0.0,0.0,0.125,4.152831606,0.0,0.0,345.0,0.0,0.0,-0.0,0.0,0.0,2.042236119,0.0,0.0,37.0,0.0,0.0,0.0,0.0,0.0,4.686278817,0.0,0.0,-92.0,0.0,0.0,-0.0,0.0,0.0,3.0078121920000003,0.0,0.0,1.0700000524520874,0.07999999821186066,0.0,-0.0010986328125,0.057861328125,1.05108642578125,34.02000045776367,0.0,-2.0,-0.01373291015625,-0.5335845947265625,Waiting,-4.914956011730205,2.25,-235613.0,-225.0,-1650.0,-1640.0,0.0,0.0,
2.3270750000000118,1.75,0.0,21.0,0.0,0.0,0.0,0.0,0.125,4.152831606,0.0,0.0,345.0,0.0,0.0,-0.0,0.0,0.0,2.042236119,0.0,0.0,37.0,0.0,0.0,0.0,0.0,0.0,4.686278817,0.0,0.0,-92.0,0.0,0.0,-0.0,0.0,0.0,3.0065914890000003,0.0,0.0,1.059999942779541,0.07000000029802322,0.0,0.001220703125,0.0732421875,1.02655029296875,34.02000045776367,0.0,0.0,-0.013916015625,-0.5384521484375,Waiting,-5.780205278592376,6.875,-235871.0,-216.0,-1605.0,-1640.0,0.0,0.0,
2.419521999999997,6.625,0.0,21.0,0.0,0.0,0.0,0.0,0.125,4.154052309,0.0,0.0,345.0,0.0,0.0,-0.0,0.0,0.0,2.041015416,0.0,0.0,37.0,0.0,0.0,0.0,0.0,0.0,4.686278817,0.0,0.0,-92.0,0.0,0.0,-0.0,0.0,0.0,3.0053707860000003,0.0,0.0,1.090000033378601,0.05000000074505806,0.0,0.02374267578125,-0.02978515625,0.99273681640625,34.02000045776367,0.0,22.0,-0.013214111328125,-0.543609619140625,Waiting,-5.765884652981427,8.375,-236128.0,-213.0,-1597.5,-1640.0,0.0,0.0,
2.5143520000000135,8.25,0.0,21.0,0.0,0.0,0.0,0.0,0.125,4.152831606,0.0,0.0,345.0,0.0,0.0,-0.0,0.0,0.0,2.041015416,0.0,0.0,37.0,0.0,0.0,0.0,0.0,0.0,4.678954599,0.0,0.0,-92.0,0.0,0.0,-0.0,0.0,0.0,3.0078121920000003,0.0,0.0,1.0800000429153442,0.05000000074505806,0.0,-0.02032470703125,0.066162109375,1.04595947265625,34.02000045776367,0.0,-21.0,-0.0127410888671875,-0.5490570068359375,Waiting,-5.651026392961877,7.375,-236128.0,-213.0,-1612.5,-1640.0,0.0,0.0,
2.61282699999999,8.875,0.0,21.0,0.0,0.0,0.0,0.0,0.125,4.161376527,0.0,0.0,345.0,0.0,0.0,-0.0,0.0,0.0,2.041015416,0.0,0.0,37.0,0.0,0.0,0.0,0.0,0.0,4.686278817,0.0,0.0,-92.0,0.0,0.0,-0.0,0.0,0.0,3.0078121920000003,0.0,0.0,1.090000033378601,0.05999999865889549,0.0,0.031005859375,-0.054443359375,1.0595703125,34.02000045776367,0.0,29.0,-0.0126800537109375,-0.550933837890625,Waiting,-5.560117302052787,6.25,-236390.0,-216.0,-1620.0,-1640.0,0.7,1.75,
2.709697999999975,6.5,0.0,21.0,0.0,0.0,0.0,0.0,0.125,4.152831606,0.0,0.0,345.0,0.0,0.0,-0.0,0.0,0.0,2.041015416,0.0,0.0,37.0,0.0,0.0,0.0,0.0,0.0,4.686278817,0.0,0.0,-92.0,0.0,0.0,-0.0,0.0,0.0,3.0065914890000003,0.0,0.0,1.090000033378601,0.05999999865889549,0.0,-0.02642822265625,0.04718017578125,0.9727783203125,34.0,0.0,-27.0,-0.0117645263671875,-0.5535888671875,Waiting,-5.5361681329423265,6.5,-236648.0,-216.0,-1620.0,-1640.0,0.7,2.25,
2.807331000000006,6.875,0.0,21.0,0.0,0.0,0.0,0.0,0.0,4.154052309,0.0,0.0,345.0,0.0,0.0,-0.0,0.0,0.0,2.041015416,0.0,0.0,37.0,0.0,0.0,0.0,0.0,0.0,4.686278817,0.0,0.0,-92.0,0.0,0.0,-0.0,0.0,0.0,3.0065914890000003,0.0,0.0,1.1299999952316284,0.029999999329447746,0.0,0.0966796875,-0.01409912109375,0.91632080078125,34.0,0.0,96.0,-0.011932373046875,-0.5562591552734375,Waiting,-6.736363636363635,10.125,-236905.0,-215.0,-1567.5,-1640.0,0.7,2.75,
2.908063000000024,7.375,0.0,21.0,0.0,0.0,0.0,0.0,0.0,4.154052309,0.0,0.0012207030000004337,345.0,0.0,0.0,-0.0,0.0,0.0,2.042236119,0.0,0.0,37.0,0.0,0.0,0.0,0.0,0.0,4.686278817,0.0,0.0,-92.0,0.0,0.0,-0.0,0.0,0.0,3.0090328950000003,0.0,0.0,1.1399999856948853,0.05000000074505806,0.0,-0.04095458984375,0.0474853515625,1.17950439453125,34.0,0.0,-42.0,-0.0120849609375,-0.556671142578125,Waiting,-7.551515151515153,29.375,-237135.0,-191.0,-1432.5,-1640.0,0.7,1.875,
3.0061780000000144,30.375,0.0,21.0,0.0,0.0,0.0,0.0,0.125,4.152831606,0.0,-0.0012207030000004337,345.0,0.0,0.0,-0.0,0.0,0.0,2.042236119,0.0,0.0,37.0,0.0,0.0,0.0,0.0,0.0,4.688720223000001,0.0,0.0,-92.0,0.0,0.0,-0.0,0.0,0.0,3.0078121920000003,0.0,0.0,1.0800000429153442,0.09000000357627869,0.0,0.00567626953125,0.05584716796875,0.93316650390625,34.0,0.0,4.0,-0.0120086669921875,-0.5583953857421875,Waiting,-6.441055718475073,16.375,-237396.0,-213.0,-1582.5,-1640.0,0.7,4.75,
3.1019930000000167,27.625,0.0,21.0,0.0,0.0,0.0,0.0,0.0,4.152831606,0.0,0.0,345.0,0.0,0.0,-0.0,0.0,0.0,2.041015416,0.0,0.0,37.0,0.0,0.0,0.0,0.0,0.0,4.686278817,0.0,0.0012207029999995456,-92.0,0.0,0.0,-0.0,0.0,0.0,3.0065914890000003,0.0,0.0,1.100000023841858,0.0,0.0,-0.030517578125,0.124267578125,0.99169921875,34.0,0.0,-30.0,-0.011566162109375,-0.558502197265625,Waiting,-4.691495601173021,3.75,-237396.0,-213.0,-1672.5,-1640.0,0.7,4.875,
3.1964959999999847,4.25,0.0,21.0,0.0,0.0,0.0,0.0,0.0,4.151610903,0.0,0.0,345.0,0.0,0.0,-0.0,0.0,0.0,2.041015416,0.0,0.0,37.0,0.0,0.0,0.0,0.0,0.0,4.686278817,0.0,-0.0012207029999995456,-92.0,0.0,0.0,-0.0,0.0,0.0,3.0065914890000003,0.0,0.0,1.1100000143051147,-0.009999999776482582,0.0,-0.01995849609375,0.02850341796875,1.1466064453125,34.0,0.0,-19.0,-0.012481689453125,-0.55462646484375,Waiting,-5.31603128054741,4.125,-237663.0,-223.0,-1657.5,-1640.0,0.0,0.0,
3.2941080000000076,3.625,0.0,21.0,0.0,0.0,0.0,0.0,0.125,4.152831606,0.0,0.0,345.0,0.0,0.0,-0.0,0.0,0.0,2.042236119,0.0,0.0,37.0,0.0,0.0,0.0,0.0,0.0,4.686278817,0.0,0.0012207029999995456,-92.0,0.0,0.0,-0.0,0.0,0.0,3.0065914890000003,0.0,0.0,1.1299999952316284,0.0,0.0,0.0272216796875,-0.13592529296875,0.95428466796875,34.0,0.0,27.0,-0.0128173828125,-0.5546417236328125,Waiting,-5.745454545454546,7.125,-237925.0,-218.0,-1627.5,-1640.0,0.0,0.0,
3.390144000000029,7.25,0.0,21.0,0.0,0.0,0.0,0.0,0.125,4.154052309,0.0,0.0,345.0,0.0,0.0,-0.0,0.0,0.0,2.042236119,0.0,0.0,37.0,0.0,0.0,0.0,0.0,0.0,4.682616708,0.0,0.0,-92.0,0.0,0.0,-0.0,0.0,0.0,3.0065914890000003,0.0,0.0,1.090000033378601,0.009999999776482582,0.0,-0.0279541015625,0.09637451171875,0.99951171875,34.0,0.0,-28.0,-0.012481689453125,-0.5585784912109375,Waiting,-5.732746823069404,7.625,-238186.0,-217.0,-1627.5,-1640.0,0.0,0.0,
3.4853769999999784,7.75,0.0,21.0,0.0,0.0,0.0,0.0,0.125,4.152831606,0.0,0.0,345.0,0.0,0.0,-0.0,0.0,0.0,2.041015416,0.0,0.0,37.0,0.0,0.0,0.0,0.0,0.0,4.686278817,0.0,0.0,-92.0,0.0,0.0,-0.0,0.0,0.0,3.0078121920000003,0.0,0.0,1.0800000429153442,0.019999999552965164,0.0,0.02459716796875,0.0360107421875,1.03533935546875,34.0,0.0,24.0,-0.0122528076171875,-0.5608062744140625,Waiting,-5.606451612903227,6.875,-238447.0,-218.0,-1635.0,-1640.0,0.0,0.0,
3.5827469999999737,7.5,0.0,21.0,0.0,0.0,0.0,0.0,0.0,4.154052309,0.0,0.0,345.0,0.0,0.0,-0.0,0.0,0.0,2.041015416,0.0,0.0,37.0,0.0,0.0,0.0,0.0,0.0,4.686278817,0.0,0.0,-92.0,0.0,0.0,-0.0,0.0,0.0,3.0065914890000003,0.0,0.0,1.100000023841858,0.009999999776482582,0.0,-0.0015869140625,-0.03302001953125,0.97601318359375,34.0,0.0,-1.0,-0.011810302734375,-0.5602264404296875,Waiting,-5.606451612903227,6.625,-238447.0,-218.0,-1635.0,-1640.0,0.0,0.0,
3.6777370000000227,7.0,0.0,21.0,0.0,0.0,0.0,0.0,0.0,4.151610903,0.0,0.0,345.0,0.0,0.0,-0.0,0.0,0.0,2.03857401,0.0,0.0,37.0,0.0,0.0,0.0,0.0,0.0,4.685058114,0.0,0.0,-92.0,0.0,0.0,-0.0,0.0,0.0,3.0078121920000003,0.0,0.0,1.100000023841858,0.029999999329447746,0.0,0.01275634765625,0.02423095703125,0.951904296875,33.97999954223633,0.0,12.0,-0.011627197265625,-0.563140869140625,Waiting,-5.582795698924732,6.625,-238712.0,-218.0,-1635.0,-1640.0,0.0,0.0,
3.7751049999999813,6.25,0.0,21.0,0.0,0.0,0.0,0.0,0.125,4.154052309,0.0,0.0,345.0,0.0,0.0,-0.0,0.0,0.0,2.042236119,0.0,0.0,37.0,0.0,0.0,0.0,0.0,0.0,4.686278817,0.0,0.0,-92.0,0.0,0.0,-0.0,0.0,0.0,3.0065914890000003,0.0,0.0,1.0700000524520874,0.009999999776482582,0.0,-0.02044677734375,0.0712890625,0.9710693359375,33.97999954223633,0.0,-20.0,-0.0117034912109375,-0.5665130615234375,Waiting,-5.744281524926687,6.875,-238971.0,-218.0,-1627.5,-1640.0,0.0,0.0,
3.8721820000000298,7.25,0.0,21.0,0.0,0.0,0.0,0.0,0.0,4.154052309,0.0,0.0,345.0,0.0,0.0,-0.0,0.0,0.0,2.042236119,0.0,0.0,37.0,0.0,0.0,0.0,0.0,0.0,4.681396005,0.0,0.0,-92.0,0.0,0.0,-0.0,0.0,0.0,3.0065914890000003,0.0,0.0,1.059999942779541,0.009999999776482582,0.0,-0.0098876953125,0.022216796875,0.9974365234375,33.97999954223633,0.0,-10.0,-0.0120697021484375,-0.5669097900390625,Waiting,-5.641739980449658,7.0,-239235.0,-217.0,-1635.0,-1640.0,0.0,0.0,
3.968558000000019,7.5,0.0,21.0,0.0,0.0,0.0,0.0,0.125,4.154052309,0.0,0.0,345.0,0.0,0.0,-0.0,0.0,0.0,2.041015416,0.0,0.0,37.0,0.0,0.0,0.0,0.0,0.0,4.688720223000001,0.0,0.0,-92.0,0.0,0.0,-0.0,0.0,0.0,3.0078121920000003,0.0,0.0,1.0700000524520874,0.029999999329447746,0.0,0.00250244140625,-0.0936279296875,1.00048828125,33.97999954223633,0.0,1.0,-0.0120697021484375,-0.568359375,Waiting,-5.570625610948191,6.5,-239495.0,-218.0,-1635.0,-1640.0,0.7,1.75,
4.066038000000001,7.0,0.0,21.0,0.0,0.0,0.0,0.0,0.0,4.152831606,0.0,0.0,345.0,0.0,0.0,-0.0,0.0,0.0,2.041015416,0.0,0.0,37.0,0.0,0.0,0.0,0.0,0.0,4.686278817,0.0,0.0,-92.0,0.0,0.0,-0.0,0.0,0.0,3.0078121920000003,0.0,0.0,1.0399999618530273,0.05000000074505806,0.0,0.0367431640625,0.107421875,0.9884033203125,33.97999954223633,0.0,35.0,-0.0118865966796875,-0.572967529296875,Waiting,-5.719941348973607,7.75,-239495.0,-218.0,-1620.0,-1640.0,0.7,1.5,
4.164907999999996,7.125,0.0,21.0,0.0,0.0,0.0,0.0,0.125,4.152831606,0.0,0.0,345.0,0.0,0.0,-0.0,0.0,0.0,2.03857401,0.0,0.0,37.0,0.0,0.0,0.0,0.0,0.0,4.686278817,0.0,0.0,-92.0,0.0,0.0,-0.0,0.0,0.0,3.0065914890000003,0.0,0.0,1.0399999618530273,0.05000000074505806,0.0,0.03515625,0.013671875,0.97564697265625,33.97999954223633,0.0,34.0,-0.0116119384765625,-0.5753173828125,Waiting,-8.798142717497557,18.875,-239747.0,-214.0,-1470.0,-1640.0,0.7,2.25,
4.265427000000025,23.75,0.0,21.0,0.0,0.0,0.0,0.0,0.0,4.152831606,0.0,0.0,345.0,0.0,0.0,-0.0,0.0,0.0,2.042236119,0.0,0.0,37.0,0.0,0.0,0.0,0.0,0.0,4.68749952,0.0,0.0,-92.0,0.0,0.0,-0.0,0.0,0.0,3.0065914890000003,0.0,0.0,1.0399999618530273,0.05000000074505806,-0.009999999776482582,-0.0057373046875,-0.04193115234375,1.03265380859375,33.97999954223633,0.0,-6.0,-0.0113677978515625,-0.5748291015625,Waiting,-7.053030303030304,24.375,-239986.0,-196.0,-1537.5,-1640.0,0.7,2.625,
4.357507999999973,28.375,0.0,21.0,0.0,0.0,0.0,0.0,0.125,4.152831606,0.0,0.0012207030000004337,345.0,0.0,0.0,-0.0,0.0,0.0,2.042236119,0.0,0.0,37.0,0.0,0.0,0.0,0.0,0.0,4.68749952,0.0,0.0,-92.0,0.0,0.0,-0.0,0.0,0.0,3.0078121920000003,0.0,0.0,1.0499999523162842,0.0,0.0,-0.01519775390625,0.02008056640625,0.90631103515625,33.97999954223633,0.0,-15.0,-0.0112457275390625,-0.577056884765625,Waiting,-5.067693059628543,6.125,-240253.0,-219.0,-1672.5,-1640.0,0.7,1.75,
4.456560999999987,16.25,0.0,21.0,0.0,0.0,0.0,0.0,0.0,4.152831606,0.0,0.0,345.0,0.0,0.0,-0.0,0.0,0.0,2.041015416,0.0,0.0,37.0,0.0,0.0,0.0,0.0,0.0,4.68749952,0.0,0.0,-92.0,0.0,0.0,-0.0,0.0,0.0,3.0078121920000003,0.0,0.0,1.059999942779541,0.0,0.0,-0.01397705078125,-0.0367431640625,0.98907470703125,33.97999954223633,0.0,-14.0,-0.0102996826171875,-0.5784454345703125,Waiting,-4.99960899315738,3.625,-240521.0,-224.0,-1680.0,-1640.0,0.0,0.0,
4.551521999999998,3.25,0.0,21.0,0.0,0.0,0.0,0.0,0.125,4.152831606,0.0,-0.0012207030000004337,345.0,0.0,0.0,-0.0,0.0,0.0,2.041015416,0.0,0.0,37.0,0.0,0.0,0.0,0.0,0.0,4.686278817,0.0,0.0,-92.0,0.0,0.0,-0.0,0.0,0.0,3.0065914890000003,0.0,0.0,1.0299999713897705,0.019999999552965164,0.0,-0.02557373046875,0.1195068359375,0.95928955078125,33.97999954223633,0.0,-26.0,-0.0102081298828125,-0.5777130126953125,Waiting,-5.57199413489736,5.875,-240521.0,-224.0,-1650.0,-1640.0,0.0,0.0,
4.65018200000003,4.5,0.0,21.0,0.0,0.0,0.0,0.0,0.125,4.154052309,0.0,0.0,345.0,0.0,0.0,-0.0,0.0,0.0,2.042236119,0.0,0.0,37.0,0.0,0.0,0.0,0.0,0.0,4.686278817,0.0,0.0,-92.0,0.0,0.0,-0.0,0.0,0.0,3.0065914890000003,0.0,0.0,1.0299999713897705,0.009999999776482582,0.0,0.02923583984375,0.05517578125,1.02813720703125,33.97999954223633,0.0,28.0,-0.0103912353515625,-0.5720977783203125,Waiting,-5.814956011730206,7.5,-240784.0,-219.0,-1635.0,-1640.0,0.0,0.0,
4.749594999999972,7.5,0.0,21.0,0.0,0.0,0.0,0.0,0.0,4.152831606,0.0,0.0,345.0,0.0,0.0,-0.0,0.0,0.0,2.042236119,0.0,0.0,37.0,0.0,0.0,0.0,0.0,0.0,4.686278817,0.0,-0.0012207029999995456,-92.0,0.0,0.0,-0.0,0.0,0.0,3.0078121920000003,0.0,0.0,1.0299999713897705,0.05000000074505806,0.0,-0.04736328125,-0.0828857421875,0.98590087890625,33.95000076293945,0.0,-48.0,-0.0102996826171875,-0.56622314453125,Waiting,-5.616568914956011,7.375,-241047.0,-218.0,-1642.5,-1640.0,0.0,0.0,
4.845055999999983,7.5,0.0,21.0,0.0,0.0,0.0,0.0,0.125,4.1503902,0.0,0.0,345.0,0.0,0.0,-0.0,0.0,0.0,2.042236119,0.0,0.0,37.0,0.0,0.0,0.0,0.0,0.0,4.68749952,0.0,0.0,-92.0,0.0,0.0,-0.0,0.0,0.0,3.0078121920000003,0.0,0.0,1.0399999618530273,0.019999999552965164,0.0,0.02203369140625,0.025634765625,1.0567626953125,33.95000076293945,0.0,21.0,-0.01025390625,-0.56500244140625,Waiting,-5.616568914956011,6.75,-241310.0,-219.0,-1642.5,-1640.0,0.0,0.0,
4.935647999999986,7.25,0.0,21.0,0.0,0.0,0.0,0.0,0.125,4.154052309,0.0,0.0,345.0,0.0,0.0,-0.0,0.0,0.0,2.042236119,0.0,0.0,37.0,0.0,0.0,0.0,0.0,0.0,4.686278817,0.0,0.0,-92.0,0.0,0.0,-0.0,0.0,0.0,3.0126950040000002,0.0,0.0,1.0199999809265137,0.03999999910593033,0.0,0.01336669921875,0.09808349609375,1.0765380859375,33.95000076293945,0.0,12.0,-0.010711669921875,-0.56097412109375,Waiting,-5.67663734115347,6.75,-241574.0,-219.0,-1642.5,-1640.0,0.0,0.0,
5.032405000000028,6.875,0.0,21.0,0.0,0.0,0.0,0.0,0.0,4.1503902,0.0,0.0,345.0,0.0,0.0,-0.0,0.0,0.0,2.042236119,0.0,0.0,37.0,0.0,0.0,0.0,0.0,0.0,4.685058114,0.0,0.0,-92.0,0.0,0.0,-0.0,0.0,0.0,3.0090328950000003,0.0,0.0,1.0399999618530273,0.05999999865889549,0.0,-0.03582763671875,0.015869140625,0.8856201171875,33.95000076293945,0.0,-36.0,-0.010894775390625,-0.55474853515625,Waiting,-5.665004887585533,6.75,-241574.0,-219.0,-1642.5,-1640.0,0.0,0.0,
5.129527999999991,7.0,0.0,21.0,0.0,0.0,0.0,0.0,0.0,4.152831606,0.0,0.0,345.0,0.0,0.0,-0.0,0.0,0.0,2.044677525,0.0,0.0,37.0,0.0,0.0,0.0,0.0,0.0,4.674071787,0.0,0.0,-92.0,0.0,0.0,-0.0,0.0,0.0,3.0065914890000003,0.0,0.0,1.0499999523162842,0.07000000029802322,0.0,-0.0147705078125,-0.05169677734375,0.989501953125,33.95000076293945,0.0,-16.0,-0.010498046875,-0.5495147705078125,Waiting,-5.605865102639297,6.5,-241838.0,-219.0,-1642.5,-1640.0,0.7,1.75,
5.22796100000001,7.0,0.0,21.0,0.0,0.0,0.0,0.0,0.0,4.154052309,0.0,0.0,345.0,0.0,0.0,-0.0,0.0,0.0,2.042236119,0.0,0.0,37.0,0.0,0.0,0.0,0.0,0.0,4.686278817,0.0,0.0,-92.0,0.0,0.0,-0.0,0.0,0.0,3.0078121920000003,0.0,0.0,1.0499999523162842,0.09000000357627869,0.0,0.0308837890625,0.07366943359375,1.03497314453125,33.970001220703125,0.0,29.0,-0.01019287109375,-0.548919677734375,Waiting,-5.731427174975562,6.875,-242103.0,-219.0,-1635.0,-1640.0,0.7,3.5,
5.322815000000002,6.125,0.0,21.0,0.0,0.0,0.0,0.0,0.125,4.152831606,0.0,0.0,345.0,0.0,0.0,-0.0,0.0,0.0,2.041015416,0.0,0.0,37.0,0.0,0.0,0.0,0.0,0.0,4.683837411,0.0,0.0,-92.0,0.0,0.0,-0.0,0.0,0.0,3.0078121920000003,0.0,0.0,1.059999942779541,0.05000000074505806,0.0,0.031005859375,0.0223388671875,0.8902587890625,33.970001220703125,0.0,30.0,-0.0107574462890625,-0.545928955078125,Waiting,-9.681573802541545,17.25,-242347.0,-207.0,-1507.5,-1640.0,0.7,2.375,
5.414412000000011,23.75,0.0,21.0,0.0,0.0,0.0,0.0,0.125,4.194335508,0.0,0.0,345.0,0.0,0.0,-0.0,0.0,0.0,2.041015416,0.0,0.0,37.0,0.0,0.0,0.0,0.0,0.0,4.68749952,0.0,0.0,-92.0,0.0,0.0,-0.0,0.0,0.0,3.0065914890000003,0.0,0.0,1.059999942779541,0.029999999329447746,0.0,0.0318603515625,0.00347900390625,1.00177001953125,33.970001220703125,0.0,31.0,-0.012115478515625,-0.541595458984375,Waiting,-6.483870967741935,28.75,-242591.0,-201.0,-1515.0,-1640.0,0.7,3.0,
5.512742000000028,33.75,0.0,21.0,0.0,0.0,0.0,0.0,0.0,4.152831606,0.0,0.0,345.0,0.0,0.0,-0.0,0.0,0.0,2.039794713,0.0,0.0,37.0,0.0,0.0,0.0,0.0,0.0,4.68749952,0.0,0.0,-92.0,0.0,0.0,-0.0,0.0,0.0,3.0065914890000003,0.0,0.0,1.0399999618530273,0.029999999329447746,0.0,0.01397705078125,-0.03826904296875,1.0142822265625,33.970001220703125,0.0,13.0,-0.01397705078125,-0.53875732421875,Waiting,-4.935483870967742,7.25,-242862.0,-224.0,-1672.5,-1640.0,0.7,2.875,
5.614199000000022,20.375,0.0,21.0,0.0,0.0,0.0,0.0,0.0,4.154052309,0.0,0.0,345.0,0.0,0.0,-0.0,0.0,0.0,2.044677525,0.0,0.0,37.0,0.0,0.0,0.0,0.0,0.0,4.686278817,0.0,0.0,-92.0,0.0,0.0,-0.0,0.0,0.0,3.0078121920000003,0.0,0.0,1.0700000524520874,0.0,0.0,-0.02899169921875,-0.06689453125,1.00775146484375,33.970001220703125,0.0,-28.0,-0.014129638671875,-0.5415191650390625,Waiting,-4.9044477028347995,3.25,-242862.0,-224.0,-1687.5,-1640.0,0.7,5.375,
5.71611599999998,3.625,0.0,21.0,0.0,0.0,0.0,0.0,0.125,4.149169497,0.0,0.0,345.0,0.0,0.0,-0.0,0.0,0.0,2.042236119,0.0,0.0,37.0,0.0,0.0,0.0,0.0,0.0,4.686278817,0.0,0.0,-92.0,0.0,0.0,-0.0,0.0,0.0,3.0065914890000003,0.0,0.0,1.0499999523162842,0.029999999329447746,0.0,-0.02398681640625,0.1024169921875,0.94940185546875,33.970001220703125,0.0,-24.0,-0.0135650634765625,-0.5465240478515625,Waiting,-5.605083088954057,5.75,-243130.0,-223.0,-1650.0,-1640.0,0.7,4.75,
5.821168999999994,5.125,0.0,21.0,0.0,0.0,0.0,0.0,0.0,4.152831606,0.0,0.0,345.0,0.0,0.0,-0.0,0.0,0.0,2.042236119,0.0,0.0,37.0,0.0,0.0,0.0,0.0,0.0,4.68749952,0.0,0.0,-92.0,0.0,0.0,-0.0,0.0,0.0,3.0065914890000003,0.0,0.0,1.0499999523162842,0.10000000149011612,0.0,-0.12841796875,-0.17852783203125,1.14068603515625,33.970001220703125,0.0,-130.0,-0.013427734375,-0.5473785400390625,Waiting,-7.436412512218964,10.125,-243393.0,-219.0,-1605.0,-1640.0,0.7,4.5,
5.925640000000014,7.0,0.0,21.0,0.0,0.0,0.0,0.0,0.125,4.152831606,0.0,0.0,345.0,0.0,0.0,-0.0,0.0,0.0,2.041015416,0.0,0.0,37.0,0.0,0.0,0.0,0.0,0.0,4.686278817,0.0,0.0,-92.0,0.0,0.0,-0.0,0.0,0.0,3.0065914890000003,0.0,0.0,1.0299999713897705,0.12999999523162842,0.0,-0.01177978515625,0.04730224609375,0.95648193359375,33.970001220703125,0.0,-13.0,-0.0144195556640625,-0.5486297607421875,Waiting,-9.021505376344086,31.625,-243629.0,-200.0,-1455.0,-1640.0,0.7,6.125,
6.031027000000002,25.125,0.0,21.0,0.0,0.0,0.0,0.0,0.125,4.152831606,0.0,0.0,345.0,0.0,0.0,-0.0,0.0,0.0,2.042236119,0.0,0.0,37.0,0.0,0.0,0.0,0.0,0.0,4.697265144,0.0,0.0,-92.0,0.0,0.0,-0.0,0.0,0.0,3.0078121920000003,0.0,0.0,1.0099999904632568,0.07999999821186066,0.0,0.05169677734375,0.043212890625,1.0025634765625,33.970001220703125,0.0,50.0,-0.016510009765625,-0.55108642578125,Waiting,-6.505376344086022,21.375,-243884.0,-207.0,-1612.5,-1640.0,0.7,10.0,
6.134195000000007,20.0,0.0,21.0,0.0,0.0,0.0,0.0,0.0,4.152831606,0.0,0.0,345.0,0.0,0.0,-0.0,0.0,0.0,2.042236119,0.0,0.0,37.0,0.0,0.0,0.0,0.0,0.0,4.68749952,0.0,0.0,-92.0,0.0,0.0,-0.0,0.0,0.0,3.0065914890000003,0.0,0.0,0.9399999976158142,0.14000000059604645,0.0,0.00640869140625,0.0970458984375,0.9271240234375,33.970001220703125,0.0,4.0,-0.0178680419921875,-0.5515899658203125,Waiting,-4.730645161290323,3.5,-244159.0,-226.0,-1702.5,-1640.0,0.7,11.875,
6.239015000000014,8.375,0.0,21.0,0.0,0.0,0.0,0.0,0.125,4.154052309,0.0,0.0,345.0,0.0,0.0,-0.0,0.0,0.0,2.041015416,0.0,0.0,37.0,0.0,0.0,0.0,0.0,0.0,4.686278817,0.0,0.0,-92.0,0.0,0.0,-0.0,0.0,0.0,3.0078121920000003,0.0,0.0,0.9399999976158142,0.10999999940395355,0.0,-0.0208740234375,0.1173095703125,1.00567626953125,33.959999084472656,0.0,-22.0,-0.0182342529296875,-0.546661376953125,Waiting,-5.2272727272727275,4.25,-244423.0,-222.0,-1672.5,-1640.0,0.7,11.75,
6.3432679999999815,3.75,0.0,21.0,0.0,0.0,0.0,0.0,0.125,4.146728091,0.0,0.0,345.0,0.0,0.0,-0.0,0.0,0.0,2.042236119,0.0,0.0,37.0,0.0,0.0,0.0,0.0,0.0,4.686278817,0.0,0.0,-92.0,0.0,0.0,-0.0,0.0,0.0,3.0078121920000003,0.0,0.0,0.949999988079071,0.11999999731779099,0.0,0.02264404296875,0.02081298828125,0.92962646484375,33.959999084472656,0.0,20.0,-0.018402099609375,-0.537353515625,Waiting,-5.789345063538612,6.75,-244423.0,-222.0,-1650.0,-1640.0,0.7,11.75,
6.447581000000006,7.5,0.0,21.0,0.0,0.0,0.0,0.0,0.0,4.152831606,0.0,0.0,345.0,0.0,0.0,-0.0,0.0,0.0,2.042236119,0.0,0.0,37.0,0.0,0.0,0.0,0.0,0.0,4.686278817,0.0,0.0,-92.0,0.0,0.0,-0.0,0.0,0.0,3.0041500830000003,0.0,0.0,0.9800000190734863,0.11999999731779099,0.0,-0.0172119140625,-0.07525634765625,0.96478271484375,33.959999084472656,0.0,-19.0,-0.017608642578125,-0.5391998291015625,Waiting,-5.7278592375366575,7.875,-244686.0,-219.0,-1642.5,-1640.0,0.7,11.625,
6.550140000000014,8.25,0.0,21.0,0.0,0.0,0.0,0.0,0.125,4.157714418,0.0,0.0,345.0,0.0,0.0,-0.0,0.0,0.0,2.042236119,0.0,0.0,37.0,0.0,0.0,0.0,0.0,0.0,4.686278817,0.0,0.0,-92.0,0.0,0.0,-0.0,0.0,0.0,3.0065914890000003,0.0,0.0,0.9700000286102295,0.11999999731779099,0.0,0.0201416015625,0.03521728515625,0.98114013671875,33.959999084472656,0.0,18.0,-0.01690673828125,-0.5438995361328125,Waiting,-5.5474095796676455,7.0,-244952.0,-219.0,-1650.0,-1640.0,0.7,11.625,
6.6530360000000215,7.25,0.0,21.0,0.0,0.0,0.0,0.0,0.125,4.151610903,0.0,0.0,345.0,0.0,0.0,-0.0,0.0,0.0,2.041015416,0.0,0.0,37.0,0.0,0.0,0.0,0.0,0.0,4.682616708,0.0,0.0,-92.0,0.0,0.0,-0.0,0.0,0.0,3.0065914890000003,0.0,0.0,0.9800000190734863,0.10000000149011612,0.0,-0.01202392578125,0.05950927734375,1.1029052734375,33.959999084472656,0.0,-13.0,-0.0162353515625,-0.5468902587890625,Waiting,-5.560703812316716,6.625,-245214.0,-220.0,-1650.0,-1640.0,0.7,11.5,
6.755144000000029,7.125,0.0,21.0,0.0,0.0,0.0,0.0,0.0,4.154052309,0.0,0.0,345.0,0.0,0.0,-0.0,0.0,0.0,2.042236119,0.0,0.0,37.0,0.0,0.0,0.0,0.0,0.0,4.68749952,0.0,0.0,-92.0,0.0,0.0,-0.0,0.0,0.0,3.0065914890000003,0.0,0.0,0.9900000095367432,0.09000000357627869,0.0,0.0313720703125,-0.00274658203125,1.01849365234375,33.95000076293945,0.0,29.0,-0.0161590576171875,-0.5467376708984375,Waiting,-5.744379276637341,7.125,-245477.0,-219.0,-1642.5,-1640.0,0.7,11.5,
6.861976000000024,6.75,0.0,21.0,0.0,0.0,0.0,0.0,0.125,4.151610903,0.0,0.0,345.0,0.0,0.0,-0.0,0.0,0.0,2.042236119,0.0,0.0,37.0,0.0,0.0,0.0,0.0,0.0,4.686278817,0.0,0.0,-92.0,0.0,0.0,-0.0,0.0,0.0,3.0078121920000003,0.0,0.0,1.0,0.07999999821186066,0.0,-0.00653076171875,-0.040283203125,0.94036865234375,33.95000076293945,0.0,-7.0,-0.0150604248046875,-0.5498046875,Waiting,-5.7082111436950145,7.125,-245740.0,-219.0,-1642.5,-1640.0,0.7,11.5,
6.970360999999976,7.75,0.0,21.0,0.0,0.0,0.0,0.0,0.0,4.1503902,0.0,0.0,345.0,0.0,0.0,-0.0,0.0,0.0,2.041015416,0.0,0.0,37.0,0.0,0.0,0.0,0.0,0.0,4.689940926,0.0,0.0,-92.0,0.0,0.0,-0.0,0.0,0.0,3.0065914890000003,0.0,0.0,0.9700000286102295,0.10000000149011612,0.0,-0.04052734375,0.09649658203125,0.97216796875,33.95000076293945,0.0,-42.0,-0.0147705078125,-0.55560302734375,Waiting,-5.721896383186706,7.125,-246004.0,-219.0,-1642.5,-1640.0,0.7,11.5,
7.072275000000023,7.625,0.0,21.0,0.0,0.0,0.0,0.0,0.0,4.151610903,0.0,0.0,345.0,0.0,0.0,-0.0,0.0,0.0,2.042236119,0.0,0.0,37.0,0.0,0.0,0.0,0.0,0.0,4.686278817,0.0,0.0,-92.0,0.0,0.0,-0.0,0.0,0.0,3.0078121920000003,0.0,0.0,0.949999988079071,0.11999999731779099,0.0,-0.00518798828125,0.05322265625,1.02716064453125,33.95000076293945,0.0,-7.0,-0.015380859375,-0.557586669921875,Waiting,-5.710654936461388,7.125,-246268.0,-219.0,-1642.5,-1640.0,0.7,11.375,
7.176188000000024,7.25,0.0,21.0,0.0,0.0,0.0,0.0,0.125,4.152831606,0.0,0.0,345.0,0.0,0.0,-0.0,0.0,0.0,2.041015416,0.0,0.0,37.0,0.0,0.0,0.0,0.0,0.0,4.681396005,0.0,0.0,-92.0,0.0,0.0,-0.0,0.0,0.0,3.0065914890000003,0.0,0.0,0.9800000190734863,0.10999999940395355,0.0,0.03192138671875,-0.0821533203125,0.98236083984375,33.95000076293945,0.0,29.0,-0.0147857666015625,-0.5579376220703125,Waiting,-5.6609970674486805,7.125,-246268.0,-219.0,-1642.5,-1640.0,0.7,11.375,
7.276950000000012,7.375,0.0,21.0,0.0,0.0,0.0,0.0,0.0,4.151610903,0.0,0.0,345.0,0.0,0.0,-0.0,0.0,0.0,2.041015416,0.0,0.0,37.0,0.0,0.0,0.0,0.0,0.0,4.686278817,0.0,0.0,-92.0,0.0,0.0,-0.0,0.0,0.0,3.0065914890000003,0.0,0.0,1.0099999904632568,0.10000000149011612,0.0,0.00970458984375,-0.0198974609375,0.99554443359375,33.97999954223633,0.0,7.0,-0.01324462890625,-0.562591552734375,Waiting,-5.674633431085043,7.125,-246531.0,-219.0,-1642.5,-1640.0,0.7,11.25,
7.374737000000023,7.0,0.0,21.0,0.0,0.0,0.0,0.0,0.125,4.152831606,0.0,0.0,345.0,0.0,0.0,-0.0,0.0,0.0,2.041015416,0.0,0.0,37.0,0.0,0.0,0.0,0.0,0.0,4.68749952,0.0,0.0,-92.0,0.0,0.0,-0.0,0.0,0.0,3.0065914890000003,0.0,0.0,0.9800000190734863,0.10000000149011612,0.0,-0.03448486328125,0.1256103515625,1.01617431640625,33.97999954223633,0.0,-36.0,-0.0125579833984375,-0.5667572021484375,Waiting,-5.638709677419356,7.125,-246795.0,-219.0,-1642.5,-1640.0,0.7,11.25,
7.471462999999988,7.5,0.0,21.0,0.0,0.0,0.0,0.0,0.125,4.116210516000001,0.0,0.0,345.0,0.0,0.0,-0.0,0.0,0.0,2.041015416,0.0,0.0,37.0,0.0,0.0,0.0,0.0,0.0,4.68749952,0.0,0.0,-92.0,0.0,0.0,-0.0,0.0,0.0,3.0065914890000003,0.0,0.0,0.9800000190734863,0.10000000149011612,0.0,0.01226806640625,0.02764892578125,0.98529052734375,33.97999954223633,0.0,10.0,-0.0135345458984375,-0.5676116943359375,Waiting,-5.772434017595308,7.125,-247058.0,-218.0,-1642.5,-1640.0,0.7,11.25,
7.57090399999998,7.375,0.0,21.0,0.0,0.0,0.0,0.0,0.125,4.118651922000001,0.0,0.0012207030000004337,345.0,0.0,0.0,-0.0,0.0,0.0,2.042236119,0.0,0.0,37.0,0.0,0.0,0.0,0.0,0.0,4.685058114,0.0,0.0,-92.0,0.0,0.0,-0.0,0.0,0.0,3.0065914890000003,0.0,0.0,1.0,0.10999999940395355,0.0,-0.03076171875,-0.087158203125,0.96295166015625,33.97999954223633,0.0,-32.0,-0.0128326416015625,-0.56915283203125,Waiting,-5.627565982404692,7.5,-247320.0,-218.0,-1642.5,-1640.0,0.7,11.25,
7.668462,7.375,0.0,21.0,0.0,0.0,0.0,0.0,0.125,4.152831606,0.0,-0.0012207030000004337,345.0,0.0,0.0,-0.0,0.0,0.0,2.042236119,0.0,0.0,37.0,0.0,0.0,0.0,0.0,0.0,4.681396005,0.0,0.0,-92.0,0.0,0.0,-0.0,0.0,0.0,3.0065914890000003,0.0,0.0,1.0,0.10000000149011612,0.0,-0.02032470703125,0.0712890625,0.97991943359375,33.97999954223633,0.0,-22.0,-0.01251220703125,-0.5751953125,Waiting,0.0,0.0,-247320.0,-218.0,-1627.5,0.0,0.0,0.0,
7.7664930000000165,3.875,0.0,21.0,0.0,0.0,0.0,0.0,0.125,4.152831606,0.0,0.0,345.0,0.0,0.0,-0.0,0.0,0.0,2.042236119,0.0,0.0,37.0,0.0,0.0,0.0,0.0,0.0,4.686278817,0.0,-0.0012207029999995456,-92.0,0.0,0.0,-0.0,0.0,0.0,3.0065914890000003,0.0,0.0,1.0099999904632568,0.09000000357627869,0.0,0.06219482421875,-0.06256103515625,1.0289306640625,33.97999954223633,0.0,60.0,-0.012939453125,-0.578369140625,Waiting,0.0,0.0,-247576.0,-215.0,-1552.5,0.0,0.0,0.0,
7.862287000000011,0.0,0.0,21.0,0.0,0.0,0.0,0.0,0.125,4.152831606,0.0,0.0,345.0,0.0,0.0,-0.0,0.0,0.0,2.041015416,0.0,0.0,37.0,0.0,0.0,0.0,0.0,0.0,4.692382332,0.0,0.0,-92.0,0.0,0.0,-0.0,0.0,0.0,3.0078121920000003,0.0,0.0,1.0199999809265137,0.09000000357627869,0.0,0.04302978515625,-0.0341796875,0.9815673828125,33.97999954223633,0.0,41.0,-0.0132293701171875,-0.579742431640625,Waiting,0.0,0.0,-247815.0,-201.0,-1462.5,0.0,0.0,0.0,
7.95650900000002,0.0,0.0,21.0,0.0,0.0,0.0,0.0,0.125,4.157714418,0.0,0.0,345.0,0.0,0.0,-0.0,0.0,0.0,2.042236119,0.0,0.0,37.0,0.0,0.0,0.0,0.0,0.0,4.686278817,0.0,0.0,-92.0,0.0,0.0,-0.0,0.0,0.0,3.0065914890000003,0.0,0.0,1.0199999809265137,0.10000000149011612,0.0,0.004150390625,0.01141357421875,0.971923828125,33.97999954223633,0.0,2.0,-0.0132904052734375,-0.5795745849609375,Waiting,0.0,0.0,-248034.0,-185.0,-1357.5,0.0,0.0,0.0,
8.050770000000018,0.0,0.0,21.0,0.0,0.0,0.0,0.0,0.0,4.152831606,0.0,0.0,345.0,0.0,0.0,-0.0,0.0,0.0,2.042236119,0.0,0.0,37.0,0.0,0.0,0.0,0.0,0.0,4.68749952,0.0,0.0,-92.0,0.0,0.0,-0.0,0.0,0.0,3.0078121920000003,0.0,0.0,1.0199999809265137,0.10999999940395355,0.0,-0.00506591796875,0.0372314453125,1.07470703125,33.97999954223633,0.0,-7.0,-0.01318359375,-0.579437255859375,Waiting,0.0,0.0,-248235.0,-169.0,-1260.0,0.0,0.0,0.0,
8.148080000000016,0.0,0.0,21.0,0.0,0.0,0.0,0.0,0.125,4.1503902,0.0,0.0,345.0,0.0,0.0,-0.0,0.0,0.0,2.041015416,0.0,0.0,37.0,0.0,0.0,0.0,0.0,0.0,4.686278817,0.0,0.0,-92.0,0.0,0.0,-0.0,0.0,0.0,3.0078121920000003,0.0,0.0,1.0199999809265137,0.10999999940395355,0.0,0.01470947265625,-0.0018310546875,0.99774169921875,33.97999954223633,0.0,12.0,-0.0131378173828125,-0.579345703125,Waiting,0.0,0.0,-248235.0,-169.0,-1177.5,0.0,0.0,0.0,
8.24564500000002,0.0,0.0,21.0,0.0,0.0,0.0,0.0,0.0,4.151610903,0.0,0.0,345.0,0.0,0.0,-0.0,0.0,0.0,2.041015416,0.0,0.0,37.0,0.0,0.0,0.0,0.0,0.0,4.686278817,0.0,0.0,-92.0,0.0,0.0,-0.0,0.0,0.0,3.0078121920000003,0.0,0.0,1.0199999809265137,0.10999999940395355,0.0,-0.02972412109375,0.05059814453125,0.99871826171875,33.97999954223633,0.0,-31.0,-0.013153076171875,-0.5794525146484375,Waiting,0.0,0.0,-248417.0,-154.0,-1080.0,0.0,0.0,0.0,
8.347092000000004,0.0,0.0,21.0,0.0,0.0,0.0,0.0,0.125,4.152831606,0.0,0.0,345.0,0.0,0.0,-0.0,0.0,0.0,2.041015416,0.0,0.0,37.0,0.0,0.0,0.0,0.0,0.0,4.685058114,0.0,0.0,-92.0,0.0,0.0,-0.0,0.0,0.0,3.0078121920000003,0.0,0.0,1.0299999713897705,0.10000000149011612,0.0,-0.010498046875,0.01934814453125,0.96575927734375,34.0,0.0,-12.0,-0.0132904052734375,-0.5792236328125,Waiting,0.0,0.0,-248580.0,-138.0,-975.0,0.0,0.0,0.0,
8.442281000000017,0.0,0.0,21.0,0.0,0.0,0.0,0.0,0.125,4.152831606,0.0,0.0,345.0,0.0,0.0,-0.0,0.0,0.0,2.045898228,0.0,0.0,37.0,0.0,0.0,0.0,0.0,0.0,4.686278817,0.0,0.0,-92.0,0.0,0.0,-0.0,0.0,0.0,3.0078121920000003,0.0,0.0,1.0299999713897705,0.14000000059604645,0.0,0.02880859375,0.06585693359375,1.04766845703125,34.0,0.0,26.0,-0.013275146484375,-0.579315185546875,Waiting,0.0,0.0,-248725.0,-123.0,-892.5,0.0,0.0,0.0,
8.537142999999983,0.0,0.0,21.0,0.0,0.0,0.0,0.0,0.125,4.152831606,0.0,0.0,345.0,0.0,0.0,-0.0,0.0,0.0,2.041015416,0.0,0.0,37.0,0.0,0.0,0.0,0.0,0.0,4.683837411,0.0,0.0,-92.0,0.0,0.0,-0.0,0.0,0.0,3.0078121920000003,0.0,0.0,1.0499999523162842,0.18000000715255737,0.0,-0.03753662109375,0.0321044921875,0.9119873046875,34.0,0.0,-40.0,-0.012786865234375,-0.5789031982421875,Waiting,0.0,0.0,-248851.0,-108.0,-795.0,0.0,0.0,0.0,
8.636715000000025,0.0,0.0,21.0,0.0,0.0,0.0,0.0,0.125,4.161376527,0.0,0.0,345.0,0.0,0.0,-0.0,0.0,0.0,2.042236119,0.0,0.0,37.0,0.0,0.0,0.0,0.0,0.0,4.686278817,0.0,0.0,-92.0,0.0,0.0,-0.0,0.0,0.0,3.0029293800000003,0.0,0.0,1.059999942779541,0.17000000178813934,0.0,-0.03564453125,0.0489501953125,0.99755859375,34.0,0.0,-38.0,-0.0126953125,-0.5793609619140625,Waiting,0.0,0.0,-248960.0,-92.0,-690.0,0.0,0.0,0.0,
8.735771000000009,0.0,0.0,21.0,0.0,0.0,0.0,0.0,0.125,4.152831606,0.0,0.0,345.0,0.0,0.0,-0.0,0.0,0.0,2.042236119,0.0,0.0,37.0,0.0,0.0,0.0,0.0,0.0,4.685058114,0.0,0.0,-92.0,0.0,0.0,-0.0,0.0,0.0,3.0078121920000003,0.0,0.0,1.059999942779541,0.17000000178813934,0.0,0.0068359375,-0.01312255859375,1.0067138671875,34.0,0.0,3.0,-0.0125274658203125,-0.579986572265625,Waiting,0.0,0.0,-248960.0,-92.0,-615.0,0.0,0.0,0.0,
8.832440999999992,0.0,0.0,21.0,0.0,0.0,0.0,0.0,0.0,4.152831606,0.0,0.0,345.0,0.0,0.0,-0.0,0.0,0.0,2.041015416,0.0,0.0,37.0,0.0,0.0,0.0,0.0,0.0,4.68749952,0.0,0.0,-92.0,0.0,0.0,-0.0,0.0,0.0,3.0078121920000003,0.0,0.0,1.0299999713897705,0.1599999964237213,0.0,0.0081787109375,0.04541015625,1.03466796875,33.959999084472656,0.0,5.0,-0.012298583984375,-0.5819244384765625,Waiting,0.0,0.0,-249049.0,-77.0,-510.0,0.0,0.0,0.0,
8.928190999999991,0.0,0.0,21.0,0.0,0.0,0.0,0.0,0.125,4.151610903,0.0,0.0,345.0,0.0,0.0,-0.0,0.0,0.0,2.041015416,0.0,0.0,37.0,0.0,0.0,0.0,0.0,0.0,4.686278817,0.0,0.0,-92.0,0.0,0.0,-0.0,0.0,0.0,3.0078121920000003,0.0,0.0,1.0199999809265137,0.15000000596046448,0.0,0.0045166015625,0.0244140625,0.93670654296875,33.959999084472656,0.0,1.0,-0.0120849609375,-0.583221435546875,Waiting,0.0,0.0,-249120.0,-61.0,-427.5,0.0,0.0,0.0,
9.020506999999983,0.0,0.0,21.0,0.0,0.0,0.0,0.0,0.0,4.151610903,0.0,0.0,345.0,0.0,0.0,-0.0,0.0,0.0,2.041015416,0.0,0.0,37.0,0.0,0.0,0.0,0.0,0.0,4.686278817,0.0,0.0,-92.0,0.0,0.0,-0.0,0.0,0.0,3.0065914890000003,0.0,0.0,1.0199999809265137,0.15000000596046448,0.0,-0.01397705078125,0.0086669921875,0.973876953125,33.959999084472656,0.0,-16.0,-0.0119781494140625,-0.583221435546875,Waiting,0.0,0.0,-249171.0,-45.0,-322.5,0.0,0.0,0.0,
9.122386999999987,0.0,0.0,21.0,0.0,0.0,0.0,0.0,0.125,4.132079655,0.0,-0.0012207030000004337,345.0,0.0,0.0,-0.0,0.0,0.0,2.042236119,0.0,0.0,37.0,0.0,0.0,0.0,0.0,0.0,4.686278817,0.0,0.0,-92.0,0.0,0.0,-0.0,0.0,0.0,3.0126950040000002,0.0,0.0,1.0199999809265137,0.15000000596046448,0.0,0.024169921875,0.0548095703125,1.035888671875,33.959999084472656,0.0,21.0,-0.012054443359375,-0.5831756591796875,Waiting,-12.15,83.625,-249233.0,-43.0,-292.5,-1640.0,0.0,0.0,
9.218791000000026,30.625,0.0,21.0,0.0,0.0,0.0,0.0,0.125,4.154052309,0.0,0.0,345.0,0.0,0.0,-0.0,0.0,0.0,2.042236119,0.0,0.0,37.0,0.0,0.0,0.0,0.0,0.0,4.686278817,0.0,0.0,-92.0,0.0,0.0,-0.0,0.0,0.0,3.0065914890000003,0.0,0.0,1.0,0.12999999523162842,0.0,-3.0517578125E-4,0.02081298828125,0.96685791015625,33.959999084472656,0.0,-2.0,-0.012176513671875,-0.5827484130859375,Waiting,-9.65,73.25,-249233.0,-43.0,-645.0,-1640.0,0.0,0.0,
9.315446999999985,69.75,0.0,21.0,0.0,0.0,0.0,0.0,0.125,4.152831606,0.0,0.0,345.0,0.0,0.0,-0.0,0.0,0.0,2.041015416,0.0,0.0,37.0,0.0,0.0,0.0,0.0,0.0,4.686278817,0.0,-0.0012207029999995456,-92.0,0.0,0.0,-0.0,0.0,0.0,3.0065914890000003,0.0,0.0,0.9800000190734863,0.11999999731779099,0.0,-0.0106201171875,0.0223388671875,1.0340576171875,34.0099983215332,0.0,28.0,-0.0121612548828125,-0.5825958251953125,Waiting,-9.850000000000001,65.0,-249375.0,-105.0,-1080.0,-1640.0,0.0,0.0,
9.413212,69.75,0.0,21.0,0.0,0.0,0.0,0.0,0.125,4.151610903,0.0,0.0012207030000004337,345.0,0.0,0.0,-0.0,0.0,0.0,2.041015416,0.0,0.0,37.0,0.0,0.0,0.0,0.0,0.0,4.686278817,0.0,0.0,-92.0,0.0,0.0,-0.0,0.0,0.0,3.0065914890000003,0.0,0.0,1.0,0.10999999940395355,0.0,0.0115966796875,-0.0360107421875,0.993896484375,34.0099983215332,0.0,9.0,-0.0119781494140625,-0.582611083984375,Waiting,-6.441055718475073,46.375,-249588.0,-168.0,-1380.0,-1640.0,0.0,0.0,
9.509962,59.375,0.0,21.0,0.0,0.0,0.0,0.0,0.125,4.152831606,0.0,0.0,345.0,0.0,0.0,-0.0,0.0,0.0,2.042236119,0.0,0.0,37.0,0.0,0.0,0.0,0.0,0.0,4.686278817,0.0,0.0,-92.0,0.0,0.0,-0.0,0.0,0.0,3.0078121920000003,0.0,0.0,1.0,0.10000000149011612,0.0,-0.0599365234375,0.11480712890625,0.9605712890625,34.0099983215332,0.0,-61.0,-0.011199951171875,-0.5831146240234375,Waiting,-4.353128054740958,5.0,-249851.0,-213.0,-1627.5,-1640.0,0.0,0.0,
9.607555999999983,23.125,0.0,21.0,0.0,0.0,0.0,0.0,0.125,4.147948794,0.0,0.0,345.0,0.0,0.0,-0.0,0.0,0.0,2.041015416,0.0,0.0,37.0,0.0,0.0,0.0,0.0,0.0,4.686278817,0.0,0.0,-92.0,0.0,0.0,-0.0,0.0,0.0,3.0065914890000003,0.0,0.0,1.0099999904632568,0.10000000149011612,0.0,0.02557373046875,0.02569580078125,0.9722900390625,34.0099983215332,0.0,23.0,-0.011322021484375,-0.57928466796875,Waiting,-5.899071358748778,1.875,-250106.0,-216.0,-1612.5,-1640.0,0.0,0.0,
9.709233999999997,1.625,0.0,21.0,0.0,0.0,0.0,0.0,0.0,4.151610903,0.0,0.0,345.0,0.0,0.0,-0.0,0.0,0.0,2.042236119,0.0,0.0,37.0,0.0,0.0,0.0,0.0,0.0,4.686278817,0.0,0.0,-92.0,0.0,0.0,-0.0,0.0,0.0,3.0078121920000003,0.0,0.0,1.0299999713897705,0.10000000149011612,0.0,0.01385498046875,0.01666259765625,0.93646240234375,34.0099983215332,0.0,12.0,-0.011077880859375,-0.5758056640625,Waiting,-5.700488758553274,6.0,-250106.0,-216.0,-1575.0,-1640.0,0.0,0.0,
9.807478000000003,7.375,0.0,21.0,0.0,0.0,0.0,0.0,0.125,4.152831606,0.0,0.0,345.0,0.0,0.0,-0.0,0.0,0.0,2.042236119,0.0,0.0,37.0,0.0,0.0,0.0,0.0,0.0,4.686278817,0.0,0.0,-92.0,0.0,0.0,-0.0,0.0,0.0,3.0078121920000003,0.0,0.0,1.0399999618530273,0.09000000357627869,0.0,0.04803466796875,-0.0748291015625,1.02569580078125,33.97999954223633,0.0,46.0,-0.0115509033203125,-0.572296142578125,Waiting,-5.995601173020527,8.875,-250356.0,-208.0,-1552.5,-1640.0,0.0,0.0,
9.903820999999997,9.125,0.0,21.0,0.0,0.0,0.0,0.0,0.125,4.151610903,0.0,0.0,345.0,0.0,0.0,-0.0,0.0,0.0,2.042236119,0.0,0.0,37.0,0.0,0.0,0.0,0.0,0.0,4.683837411,0.0,0.0,-92.0,0.0,0.0,-0.0,0.0,0.0,3.0065914890000003,0.0,0.0,1.0299999713897705,0.09000000357627869,0.0,0.04266357421875,0.10540771484375,0.97857666015625,33.97999954223633,0.0,41.0,-0.0115966796875,-0.569244384765625,Waiting,-5.690322580645162,7.75,-250607.0,-208.0,-1567.5,-1640.0,0.7,11.125,
10.00749099999998,7.875,0.0,21.0,0.0,0.0,0.0,0.0,0.0,4.154052309,0.0,0.0,345.0,0.0,0.0,-0.0,0.0,0.0,2.042236119,0.0,0.0,37.0,0.0,0.0,0.0,0.0,0.0,4.702147956,0.0,0.0,-92.0,0.0,0.0,-0.0,0.0,0.0,3.0078121920000003,0.0,0.0,1.0399999618530273,0.07999999821186066,0.0,0.02557373046875,-0.07769775390625,0.9722900390625,33.97999954223633,0.0,24.0,-0.0111846923828125,-0.56494140625,Waiting,-5.440860215053763,6.75,-250860.0,-211.0,-1582.5,-1640.0,0.7,6.625,
10.105163000000001,7.5,0.0,21.0,0.0,0.0,0.0,0.0,0.0,4.1503902,0.0,0.0,345.0,0.0,0.0,-0.0,0.0,0.0,2.044677525,0.0,0.0,37.0,0.0,0.0,0.0,0.0,0.0,4.686278817,0.0,0.0,-92.0,0.0,0.0,-0.0,0.0,0.0,3.0065914890000003,0.0,0.0,1.0299999713897705,0.11999999731779099,0.0,-0.02154541015625,0.03778076171875,1.011962890625,33.97999954223633,0.0,-23.0,-0.0112457275390625,-0.562774658203125,Waiting,-5.449266862170088,6.625,-251114.0,-211.0,-1582.5,-1640.0,0.7,13.0,
10.199739999999991,6.5,0.0,21.0,0.0,0.0,0.0,0.0,0.125,4.151610903,0.0,0.0,345.0,0.0,0.0,-0.0,0.0,0.0,2.041015416,0.0,0.0,37.0,0.0,0.0,0.0,0.0,0.0,4.686278817,0.0,0.0,-92.0,0.0,0.0,-0.0,0.0,0.0,3.0065914890000003,0.0,0.0,1.0399999618530273,0.09000000357627869,0.0,-0.0064697265625,0.05755615234375,1.0653076171875,33.97999954223633,0.0,-8.0,-0.01251220703125,-0.5578155517578125,Waiting,-5.6609970674486805,7.625,-251366.0,-210.0,-1575.0,-1640.0,0.7,12.75,
10.295108000000008,7.5,0.0,21.0,0.0,0.0,0.0,0.0,0.125,4.152831606,0.0,0.0,345.0,0.0,0.0,-0.0,0.0,0.0,2.042236119,0.0,0.0,37.0,0.0,0.0,0.0,0.0,0.0,4.686278817,0.0,0.0,-92.0,0.0,0.0,-0.0,0.0,0.0,3.0078121920000003,0.0,0.0,0.9900000095367432,0.10999999940395355,0.0,-0.010498046875,0.119384765625,0.90985107421875,33.970001220703125,0.0,-12.0,-0.0131072998046875,-0.55596923828125,Waiting,-5.582991202346042,7.625,-251366.0,-210.0,-1582.5,-1640.0,0.7,12.625,
10.392168000000005,7.75,0.0,21.0,0.0,0.0,0.0,0.0,0.125,4.151610903,0.0,0.0,345.0,0.0,0.0,-0.0,0.0,0.0,2.042236119,0.0,0.0,37.0,0.0,0.0,0.0,0.0,0.0,4.686278817,0.0,0.0,-92.0,0.0,0.0,-0.0,0.0,0.0,3.0065914890000003,0.0,0.0,1.0,0.11999999731779099,0.0,0.01934814453125,-0.07073974609375,1.00067138671875,33.970001220703125,0.0,17.0,-0.0134124755859375,-0.55377197265625,Waiting,-5.493841642228738,6.875,-251623.0,-211.0,-1590.0,-1640.0,0.7,12.625,
10.488581999999996,6.875,0.0,21.0,0.0,0.0,0.0,0.0,0.0,4.151610903,0.0,0.0,345.0,0.0,0.0,-0.0,0.0,0.0,2.041015416,0.0,0.0,37.0,0.0,0.0,0.0,0.0,0.0,4.681396005,0.0,0.0,-92.0,0.0,0.0,-0.0,0.0,0.0,3.0078121920000003,0.0,0.0,0.9900000095367432,0.11999999731779099,0.0,-0.02264404296875,0.0816650390625,0.96392822265625,33.970001220703125,0.0,-24.0,-0.0134124755859375,-0.553802490234375,Waiting,-5.573900293255131,7.0,-251878.0,-212.0,-1590.0,-1640.0,0.7,12.5,
10.587482000000017,7.5,0.0,21.0,0.0,0.0,0.0,0.0,0.125,4.151610903,0.0,0.0,345.0,0.0,0.0,-0.0,0.0,0.0,2.042236119,0.0,0.0,37.0,0.0,0.0,0.0,0.0,0.0,4.686278817,0.0,0.0,-92.0,0.0,0.0,-0.0,0.0,0.0,3.0065914890000003,0.0,0.0,1.0,0.11999999731779099,0.0,0.0028076171875,-0.02630615234375,1.03131103515625,33.970001220703125,0.0,0.0,-0.0140380859375,-0.5523529052734375,Waiting,-5.616568914956011,7.25,-252132.0,-213.0,-1597.5,-1640.0,0.0,0.0,
10.683161000000021,7.625,0.0,21.0,0.0,0.0,0.0,0.0,0.125,4.152831606,0.0,0.0,345.0,0.0,0.0,-0.0,0.0,0.0,2.041015416,0.0,0.0,37.0,0.0,0.0,0.0,0.0,0.0,4.685058114,0.0,0.0,-92.0,0.0,0.0,-0.0,0.0,0.0,3.0114743010000002,0.0,0.0,0.9900000095367432,0.14000000059604645,0.0,-0.0506591796875,0.071044921875,0.96356201171875,33.970001220703125,0.0,-53.0,-0.0137176513671875,-0.5558929443359375,Waiting,-5.638416422287389,7.375,-252389.0,-213.0,-1597.5,-1640.0,0.0,0.0,
10.7815,7.125,0.0,21.0,0.0,0.0,0.0,0.0,0.125,4.152831606,0.0,0.0,345.0,0.0,0.0,-0.0,0.0,0.0,2.041015416,0.0,0.0,37.0,0.0,0.0,0.0,0.0,0.0,4.686278817,0.0,0.0,-92.0,0.0,0.0,-0.0,0.0,0.0,3.0078121920000003,0.0,0.0,0.9700000286102295,0.14000000059604645,0.0,0.0135498046875,0.037109375,1.04998779296875,33.970001220703125,0.0,10.0,-0.0137786865234375,-0.55780029296875,Waiting,-5.524046920821114,6.125,-252389.0,-213.0,-1605.0,-1640.0,0.7,12.5,
10.876326999999991,7.125,0.0,21.0,0.0,0.0,0.0,0.0,0.0,4.152831606,0.0,0.0012207030000004337,345.0,0.0,0.0,-0.0,0.0,0.0,2.042236119,0.0,0.0,37.0,0.0,0.0,0.0,0.0,0.0,4.686278817,0.0,0.0,-92.0,0.0,0.0,-0.0,0.0,0.0,3.0053707860000003,0.0,0.0,1.0099999904632568,0.11999999731779099,0.0,0.00469970703125,0.0423583984375,0.9310302734375,34.0,0.0,2.0,-0.0133514404296875,-0.5608367919921875,Waiting,-5.560703812316716,6.25,-252646.0,-214.0,-1605.0,-1640.0,0.7,12.5,
10.974757999999973,5.875,0.0,21.0,0.0,0.0,0.0,0.0,0.125,4.149169497,0.0,-0.0012207030000004337,345.0,0.0,0.0,-0.0,0.0,0.0,2.042236119,0.0,0.0,37.0,0.0,0.0,0.0,0.0,0.0,4.681396005,0.0,0.0,-92.0,0.0,0.0,-0.0,0.0,0.0,3.0065914890000003,0.0,0.0,0.9800000190734863,0.12999999523162842,0.0,-0.01055908203125,0.1031494140625,0.957763671875,34.0,0.0,-12.0,-0.0128173828125,-0.564971923828125,Waiting,-5.605278592375367,7.25,-252903.0,-213.0,-1597.5,-1640.0,0.7,12.375,
11.07658600000001,6.875,0.0,21.0,0.0,0.0,0.0,0.0,0.125,4.152831606,0.0,0.0012207030000004337,345.0,0.0,0.0,-0.0,0.0,0.0,2.042236119,0.0,0.0,37.0,0.0,0.0,0.0,0.0,0.0,4.68749952,0.0,0.0,-92.0,0.0,0.0,-0.0,0.0,0.0,3.0078121920000003,0.0,0.0,1.0099999904632568,0.11999999731779099,0.0,-0.0096435546875,-0.12420654296875,0.96173095703125,34.0,0.0,-11.0,-0.0124664306640625,-0.566162109375,Waiting,-5.5049853372434026,7.25,-253159.0,-213.0,-1605.0,-1640.0,0.7,12.25,
11.173798999999999,7.75,0.0,21.0,0.0,0.0,0.0,0.0,0.125,4.152831606,0.0,-0.0012207030000004337,345.0,0.0,0.0,-0.0,0.0,0.0,2.042236119,0.0,0.0,37.0,0.0,0.0,0.0,0.0,0.0,4.689940926,0.0,-0.0012207029999995456,-92.0,0.0,0.0,-0.0,0.0,0.0,3.0065914890000003,0.0,0.0,0.9900000095367432,0.10999999940395355,0.0,-0.04443359375,0.114990234375,0.93212890625,34.0,0.0,-46.0,-0.0125732421875,-0.57012939453125,Waiting,-5.708455522971652,7.375,-253417.0,-214.0,-1605.0,-1640.0,0.0,0.0,
11.272238000000012,7.5,0.0,21.0,0.0,0.0,0.0,0.0,0.125,4.152831606,0.0,0.0012207030000004337,345.0,0.0,0.0,-0.0,0.0,0.0,2.041015416,0.0,0.0,37.0,0.0,0.0,0.0,0.0,0.0,4.68749952,0.0,0.0012207029999995456,-92.0,0.0,0.0,-0.0,0.0,0.0,3.0065914890000003,0.0,0.0,1.0099999904632568,0.10000000149011612,0.0,-0.01263427734375,0.04376220703125,0.94696044921875,34.0,0.0,-14.0,-0.0132904052734375,-0.571044921875,Waiting,0.0,0.0,-253417.0,-214.0,-1597.5,0.0,0.0,0.0,
11.368038999999989,3.375,0.0,21.0,0.0,0.0,0.0,0.0,0.125,4.151610903,0.0,0.0,345.0,0.0,0.0,-0.0,0.0,0.0,2.041015416,0.0,0.0,37.0,0.0,0.0,0.0,0.0,0.0,4.686278817,0.0,0.0,-92.0,0.0,0.0,-0.0,0.0,0.0,3.0065914890000003,0.0,0.0,1.0,0.10999999940395355,0.0,-0.03753662109375,0.06036376953125,1.01947021484375,33.959999084472656,0.0,-39.0,-0.013580322265625,-0.5734100341796875,Waiting,0.0,0.0,-253670.0,-212.0,-1537.5,0.0,0.0,0.0,
11.461706999999995,0.0,0.0,21.0,0.0,0.0,0.0,0.0,0.125,4.152831606,0.0,0.0,345.0,0.0,0.0,-0.0,0.0,0.0,2.042236119,0.0,0.0,37.0,0.0,0.0,0.0,0.0,0.0,4.686278817,0.0,0.0,-92.0,0.0,0.0,-0.0,0.0,0.0,3.0065914890000003,0.0,0.0,1.0,0.10999999940395355,0.0,0.01580810546875,0.01190185546875,1.00799560546875,33.959999084472656,0.0,13.0,-0.0135955810546875,-0.5750732421875,Waiting,0.0,0.0,-253906.0,-199.0,-1440.0,0.0,0.0,0.0,
11.556362000000023,0.0,0.0,21.0,0.0,0.0,0.0,0.0,0.125,4.1381831700000005,0.0,0.0,345.0,0.0,0.0,-0.0,0.0,0.0,2.042236119,0.0,0.0,37.0,0.0,0.0,0.0,0.0,0.0,4.686278817,0.0,0.0,-92.0,0.0,0.0,-0.0,0.0,0.0,3.0078121920000003,0.0,0.0,0.9900000095367432,0.11999999731779099,0.0,-0.00823974609375,-0.03582763671875,0.91656494140625,33.959999084472656,0.0,-10.0,-0.0134124755859375,-0.5748138427734375,Waiting,0.0,0.0,-254124.0,-184.0,-1342.5,0.0,0.0,0.0,
11.652369000000006,0.0,0.0,21.0,0.0,0.0,0.0,0.0,0.0,4.152831606,0.0,0.0,345.0,0.0,0.0,-0.0,0.0,0.0,2.042236119,0.0,0.0,37.0,0.0,0.0,0.0,0.0,0.0,4.68749952,0.0,0.0,-92.0,0.0,0.0,-0.0,0.0,0.0,3.0078121920000003,0.0,0.0,0.9800000190734863,0.11999999731779099,0.0,0.0352783203125,-0.072509765625,0.96307373046875,33.959999084472656,0.0,33.0,-0.013458251953125,-0.574981689453125,Waiting,0.0,0.0,-254323.0,-169.0,-1260.0,0.0,0.0,0.0,
11.750639000000024,0.0,0.0,21.0,0.0,0.0,0.0,0.0,0.125,4.154052309,0.0,0.0,345.0,0.0,0.0,-0.0,0.0,0.0,2.042236119,0.0,0.0,37.0,0.0,0.0,0.0,0.0,0.0,4.686278817,0.0,0.0,-92.0,0.0,0.0,-0.0,0.0,0.0,3.0078121920000003,0.0,0.0,0.9700000286102295,0.11999999731779099,0.0,-0.00738525390625,-0.02642822265625,0.9644775390625,33.959999084472656,0.0,-9.0,-0.0138092041015625,-0.57568359375,Waiting,0.0,0.0,-254323.0,-169.0,-1162.5,0.0,0.0,0.0,
11.846418999999994,0.0,0.0,21.0,0.0,0.0,0.0,0.0,0.125,4.152831606,0.0,0.0,345.0,0.0,0.0,-0.0,0.0,0.0,2.041015416,0.0,0.0,37.0,0.0,0.0,0.0,0.0,0.0,4.685058114,0.0,0.0,-92.0,0.0,0.0,-0.0,0.0,0.0,3.0078121920000003,0.0,0.0,0.9900000095367432,0.10000000149011612,0.0,0.00335693359375,0.02655029296875,0.95404052734375,33.97999954223633,0.0,1.0,-0.013946533203125,-0.575958251953125,Waiting,0.0,0.0,-254506.0,-154.0,-1087.5,0.0,0.0,0.0,
11.945206999999995,0.0,0.0,21.0,0.0,0.0,0.0,0.0,0.125,4.154052309,0.0,0.0,345.0,0.0,0.0,-0.0,0.0,0.0,2.041015416,0.0,0.0,37.0,0.0,0.0,0.0,0.0,0.0,4.68749952,0.0,0.0,-92.0,0.0,0.0,-0.0,0.0,0.0,3.0065914890000003,0.0,0.0,1.0199999809265137,0.07999999821186066,0.0,0.01434326171875,-0.01727294921875,0.97900390625,33.97999954223633,0.0,12.0,-0.0139007568359375,-0.5753326416015625,Waiting,0.0,0.0,-254670.0,-139.0,-990.0,0.0,0.0,0.0,
12.04191399999999,0.0,0.0,21.0,0.0,0.0,0.0,0.0,0.0,4.151610903,0.0,0.0,345.0,0.0,0.0,-0.0,0.0,0.0,2.042236119,0.0,0.0,37.0,0.0,0.0,0.0,0.0,0.0,4.694823738,0.0,0.0,-92.0,0.0,0.0,-0.0,0.0,0.0,3.0078121920000003,0.0,0.0,1.0499999523162842,0.05000000074505806,0.0,-0.00421142578125,0.0225830078125,0.98785400390625,33.97999954223633,0.0,-5.0,-0.0139007568359375,-0.57476806640625,Waiting,0.0,0.0,-254817.0,-124.0,-892.5,0.0,0.0,0.0,
12.141898999999976,0.0,0.0,21.0,0.0,0.0,0.0,0.0,0.0,4.151610903,0.0,0.0,345.0,0.0,0.0,-0.0,0.0,0.0,2.042236119,0.0,0.0,37.0,0.0,0.0,0.0,0.0,0.0,4.685058114,0.0,0.0,-92.0,0.0,0.0,-0.0,0.0,0.0,3.0078121920000003,0.0,0.0,1.059999942779541,0.05999999865889549,0.0,0.00726318359375,0.0130615234375,1.04144287109375,33.97999954223633,0.0,6.0,-0.0139007568359375,-0.574188232421875,Waiting,0.0,0.0,-254946.0,-110.0,-817.5,0.0,0.0,0.0,
12.239668000000005,0.0,0.0,21.0,0.0,0.0,0.0,0.0,0.0,4.154052309,0.0,0.0,345.0,0.0,0.0,-0.0,0.0,0.0,2.042236119,0.0,0.0,37.0,0.0,0.0,0.0,0.0,0.0,4.686278817,0.0,0.0,-92.0,0.0,0.0,-0.0,0.0,0.0,3.0078121920000003,0.0,0.0,1.059999942779541,0.05999999865889549,0.0,0.0345458984375,-0.0211181640625,0.97412109375,33.97999954223633,0.0,33.0,-0.01397705078125,-0.5742034912109375,Waiting,0.0,0.0,-255058.0,-96.0,-727.5,0.0,0.0,0.0,
12.337507999999973,0.0,0.0,21.0,0.0,0.0,0.0,0.0,0.125,4.155273012,0.0,0.0,345.0,0.0,0.0,-0.0,0.0,0.0,2.042236119,0.0,0.0,37.0,0.0,0.0,0.0,0.0,0.0,4.68749952,0.0,0.0,-92.0,0.0,0.0,-0.0,0.0,0.0,3.0078121920000003,0.0,0.0,1.059999942779541,0.05999999865889549,0.0,-0.02447509765625,0.03265380859375,0.98193359375,33.97999954223633,0.0,-25.0,-0.0139007568359375,-0.574310302734375,Waiting,0.0,0.0,-255058.0,-96.0,-630.0,0.0,0.0,0.0,
12.434075000000012,0.0,0.0,21.0,0.0,0.0,0.0,0.0,0.125,4.151610903,0.0,0.0,345.0,0.0,0.0,-0.0,0.0,0.0,2.042236119,0.0,0.0,37.0,0.0,0.0,0.0,0.0,0.0,4.686278817,0.0,0.0,-92.0,0.0,0.0,-0.0,0.0,0.0,3.0078121920000003,0.0,0.0,1.059999942779541,0.05999999865889549,0.0,0.00140380859375,-0.02764892578125,0.98638916015625,34.0,0.0,0.0,-0.0141754150390625,-0.574188232421875,Waiting,0.0,0.0,-255154.0,-81.0,-555.0,0.0,0.0,0.0,
12.533380999999993,0.0,0.0,21.0,0.0,0.0,0.0,0.0,0.0,4.152831606,0.0,0.0,345.0,0.0,0.0,-0.0,0.0,0.0,2.042236119,0.0,0.0,37.0,0.0,0.0,0.0,0.0,0.0,4.68749952,0.0,0.0,-92.0,0.0,0.0,-0.0,0.0,0.0,3.0065914890000003,0.0,0.0,1.0199999809265137,0.07000000029802322,0.0,-0.0128173828125,0.00732421875,1.033203125,34.0,0.0,-14.0,-0.014129638671875,-0.5745697021484375,Waiting,0.0,0.0,-255232.0,-67.0,-465.0,0.0,0.0,0.0,
12.631777999999992,0.0,0.0,21.0,0.0,0.0,0.0,0.0,0.125,4.154052309,0.0,-0.0012207030000004337,345.0,0.0,0.0,-0.0,0.0,0.0,2.043456822,0.0,0.0,37.0,0.0,0.0,0.0,0.0,0.0,4.688720223000001,0.0,0.0,-92.0,0.0,0.0,-0.0,0.0,0.0,3.0078121920000003,0.0,0.0,1.0199999809265137,0.07999999821186066,0.0,0.00311279296875,0.01092529296875,1.00982666015625,34.0,0.0,1.0,-0.014068603515625,-0.5745697021484375,Waiting,0.0,0.0,-255293.0,-53.0,-375.0,0.0,0.0,0.0,
12.730496999999973,0.0,0.0,21.0,0.0,0.0,0.0,0.0,0.125,4.117431219,0.0,0.0,345.0,0.0,0.0,-0.0,0.0,0.0,2.041015416,0.0,0.0,37.0,0.0,0.0,0.0,0.0,0.0,4.686278817,0.0,0.0,-92.0,0.0,0.0,-0.0,0.0,0.0,3.0078121920000003,0.0,0.0,1.0199999809265137,0.07999999821186066,0.0,-0.0162353515625,0.0286865234375,1.00396728515625,34.0,0.0,-17.0,-0.014068603515625,-0.57452392578125,Waiting,0.0,0.0,-255338.0,-39.0,-285.0,0.0,0.0,0.0,
12.830479999999982,0.0,0.0,21.0,0.0,0.0,0.0,0.0,0.125,4.152831606,0.0,0.0,345.0,0.0,0.0,-0.0,0.0,0.0,2.042236119,0.0,0.0,37.0,0.0,0.0,0.0,0.0,0.0,4.686278817,0.0,0.0,-92.0,0.0,0.0,-0.0,0.0,0.0,3.0078121920000003,0.0,0.0,1.0299999713897705,0.09000000357627869,0.0,0.00311279296875,0.01409912109375,0.99847412109375,34.0,0.0,1.0,-0.014068603515625,-0.5743255615234375,Waiting,0.0,0.0,-255338.0,-39.0,-210.0,0.0,0.0,0.0,
12.928652000000001,0.0,0.0,21.0,0.0,0.0,0.0,0.0,0.125,4.154052309,0.0,0.0,345.0,0.0,0.0,-0.0,0.0,0.0,2.042236119,0.0,0.0,37.0,0.0,0.0,0.0,0.0,0.0,4.686278817,0.0,0.0,-92.0,0.0,0.0,-0.0,0.0,0.0,3.0090328950000003,0.0,0.0,1.0299999713897705,0.09000000357627869,0.0,-7.32421875E-4,0.01788330078125,0.998291015625,34.0,0.0,-2.0,-0.014068603515625,-0.5743255615234375,Waiting,0.0,0.0,-255366.0,-26.0,-120.0,0.0,0.0,0.0,
13.030309999999998,0.0,0.0,21.0,0.0,0.0,0.0,0.0,0.125,4.154052309,0.0,0.0012207030000004337,345.0,0.0,0.0,-0.0,0.0,0.0,2.041015416,0.0,0.0,37.0,0.0,0.0,0.0,0.0,0.0,4.68749952,0.0,0.0,-92.0,0.0,0.0,-0.0,0.0,0.0,3.0065914890000003,0.0,0.0,1.0299999713897705,0.09000000357627869,-0.009999999776482582,0.00262451171875,0.01611328125,1.00201416015625,34.0,0.0,1.0,-0.014068603515625,-0.5743255615234375,Waiting,0.0,0.0,-255379.0,-12.0,-37.5,0.0,0.0,0.0,
13.132068000000029,0.0,0.0,21.0,0.0,0.0,0.0,0.0,0.125,4.152831606,0.0,0.0,345.0,0.0,0.0,-0.0,0.0,0.0,2.041015416,0.0,0.0,37.0,0.0,0.0,0.0,0.0,0.0,4.688720223000001,0.0,0.0,-92.0,0.0,0.0,-0.0,0.0,0.0,3.0090328950000003,0.0,0.0,1.0299999713897705,0.10000000149011612,-0.009999999776482582,0.0015869140625,0.017333984375,0.99835205078125,34.0,0.0,0.0,-0.014068603515625,-0.5743255615234375,Waiting,0.0,0.0,-255380.0,-1.0,0.0,0.0,0.0,0.0,
13.232642999999982,0.0,0.0,21.0,0.0,0.0,0.0,0.0,0.0,4.152831606,0.0,0.0,345.0,0.0,0.0,-0.0,0.0,0.0,2.042236119,0.0,0.0,37.0,0.0,0.0,0.0,0.0,0.0,4.686278817,0.0,0.0,-92.0,0.0,0.0,-0.0,0.0,0.0,3.0065914890000003,0.0,0.0,1.0299999713897705,0.09000000357627869,-0.009999999776482582,0.001708984375,0.01922607421875,0.99700927734375,34.0,0.0,0.0,-0.014068603515625,-0.5743255615234375,Waiting,0.0,0.0,-255380.0,0.0,0.0,0.0,0.0,0.0,
