Time,ClimberA1,ClimberA2,FRpos,FRCurrent,FRspeed,FRsetpoint,FRApos,FRACurrent,FREncpos,FREncSetpoint,FREncSpeed,FLpos,FLCurrent,FLspeed,FLsetpoint,FLApos,FLACurrent,FLEncpos,FLEncSetpoint,FLEncSpeed,BRpos,BRCurrent,BRspeed,BRsetpoint,BRApos,BRACurrent,BREncpos,BREncSetpoint,BREncSpeed,BLpos,BLCurrent,BLspeed,BLsetpoint,BLApos,BLACurrent,BLEncpos,BLEncSetpoint,BLEncSpeed,navx_Pitch,navx_Roll,navx_Yaw,navx_XAcc,navx_YAcc,navx_ZAcc,navx_Temp,navx_Bar,navx_Alt,navx_XDis,navx_YDis,GearPlacerState,ShootOutputV,ShootOutputCurrent,ShootEncPos,ShootEncVelocity,ShootSpeed,ShootSetpoint,CarouselSetpoint,CarouselCurrent,
0.20912799999999698,0.0,0.0,0.0,0.0,0.0,0.0,0.0,0.0,3.757323834,0.01,0.0,0.0,0.0,0.0,0.0,0.0,0.0,2.003173623,0.01,0.0,0.0,0.0,0.0,0.0,0.0,0.0,4.891356921,0.01,0.0,0.0,0.0,0.0,0.0,0.0,0.0,2.9064938430000002,0.01,0.0,1.090000033378601,0.25999999046325684,0.0,0.00555419921875,0.01763916015625,0.9989013671875,33.290000915527344,0.0,0.0,0.0,0.0,Waiting,0.0,0.0,0.0,0.0,0.0,0.0,0.0,0.0,
0.26353199999999927,0.0,0.0,0.0,0.0,0.0,0.0,0.0,0.0,3.757323834,0.0,0.0,0.0,0.0,0.0,-0.0,0.0,0.0,2.003173623,0.0,0.0,0.0,0.0,0.0,0.0,0.0,0.0,4.891356921,0.0,0.0,0.0,0.0,0.0,-0.0,0.0,0.0,2.9064938430000002,0.0,0.0,1.0800000429153442,0.25999999046325684,0.0,0.00238037109375,0.01702880859375,1.00238037109375,33.290000915527344,0.0,-2.0,0.0,0.0,Waiting,0.0,0.0,0.0,0.0,0.0,0.0,0.0,0.0,
0.2861089999999967,0.0,0.0,0.0,0.0,0.0,0.0,0.0,0.0,3.756103131,0.0,0.0,0.0,0.0,0.0,-0.0,0.0,0.0,2.003173623,0.0,0.0,0.0,0.0,0.0,0.0,0.0,0.0,4.892577624,0.0,0.0,0.0,0.0,0.0,-0.0,0.0,0.0,2.9064938430000002,0.0,0.0,1.0800000429153442,0.27000001072883606,0.0,0.005615234375,0.015625,1.0003662109375,33.290000915527344,0.0,0.0,0.0,0.0,Waiting,0.0,0.0,0.0,0.0,0.0,0.0,0.0,0.0,
0.31436299999999756,0.0,0.0,0.0,0.0,0.0,0.0,0.0,0.0,3.756103131,0.0,4.940103131000001,0.0,0.0,0.0,-0.0,0.0,0.0,2.004394326,0.0,0.03217362300000026,0.0,0.0,0.0,0.0,0.0,0.0,4.893798327,0.0,0.002577624000000611,0.0,0.0,0.0,-0.0,0.0,0.0,2.9052731400000003,0.0,0.03527314000000015,1.0800000429153442,0.27000001072883606,0.0,0.00482177734375,0.0191650390625,1.00897216796875,33.29999923706055,0.0,0.0,0.0,0.0,Waiting,0.0,0.0,0.0,0.0,0.0,0.0,0.0,0.0,
0.33807799999999405,0.0,0.0,0.0,0.0,0.0,0.0,0.0,0.125,3.756103131,0.0,4.940103131000001,0.0,0.0,0.0,-0.0,0.0,0.0,2.003173623,0.0,0.03217362300000026,0.0,0.0,0.0,0.0,0.0,0.0,4.89501903,0.0,0.0,0.0,0.0,0.0,-0.0,0.0,0.0,2.9064938430000002,0.0,0.0,1.0800000429153442,0.27000001072883606,0.0,0.0062255859375,0.016357421875,1.0035400390625,33.29999923706055,0.0,1.0,0.0,0.0,Waiting,0.0,0.0,0.0,0.0,0.0,0.0,0.0,0.0,
0.3662439999999988,0.0,0.0,0.0,0.0,0.0,0.0,0.0,0.125,3.757323834,0.0,0.0,0.0,0.0,0.0,-0.0,0.0,0.0,2.003173623,0.0,0.0,0.0,0.0,0.0,0.0,0.0,0.0,4.893798327,0.0,0.0,0.0,0.0,0.0,-0.0,0.0,0.0,2.9064938430000002,0.0,0.0,1.0800000429153442,0.27000001072883606,0.0,0.0047607421875,0.02044677734375,1.00164794921875,33.29999923706055,0.0,0.0,0.0,0.0,Waiting,0.0,0.0,0.0,0.0,0.0,0.0,0.0,0.0,
0.38699499999999537,0.0,0.0,0.0,0.0,0.0,0.0,0.0,0.125,3.756103131,0.0,0.0,0.0,0.0,0.0,-0.0,0.0,0.0,2.003173623,0.0,0.0,0.0,0.0,0.0,0.0,0.0,0.0,4.892577624,0.0,0.0,0.0,0.0,0.0,-0.0,0.0,0.0,2.9064938430000002,0.0,0.0,1.0800000429153442,0.27000001072883606,0.0,0.0040283203125,0.0189208984375,1.0035400390625,33.29999923706055,0.0,0.0,0.0,0.0,Waiting,0.0,0.0,0.0,0.0,0.0,0.0,0.0,0.0,
0.41198999999999797,0.0,0.0,0.0,0.0,0.0,0.0,0.0,0.125,3.756103131,0.0,0.0,0.0,0.0,0.0,-0.0,0.0,0.0,2.003173623,0.0,0.0,0.0,0.0,0.0,0.0,0.0,0.0,4.89501903,0.0,0.0012207029999995456,0.0,0.0,0.0,-0.0,0.0,0.0,2.9064938430000002,0.0,0.0,1.0800000429153442,0.27000001072883606,0.0,0.00189208984375,0.01971435546875,1.0,33.29999923706055,0.0,-2.0,0.0,0.0,Waiting,0.0,0.0,0.0,0.0,0.0,0.0,0.0,0.0,
0.46223599999999715,0.0,0.0,0.0,0.0,0.0,0.0,0.0,0.125,3.757323834,0.0,0.0,0.0,0.0,0.0,-0.0,0.0,0.0,2.003173623,0.0,0.0,0.0,0.0,0.0,0.0,0.0,0.0,4.89501903,0.0,0.0,0.0,0.0,0.0,-0.0,0.0,0.0,2.9064938430000002,0.0,0.0,1.0800000429153442,0.27000001072883606,0.0,0.00604248046875,0.02044677734375,1.00213623046875,33.29999923706055,0.0,1.0,0.0,0.0,Waiting,0.0,0.0,0.0,0.0,0.0,0.0,0.0,0.0,
0.48420099999999366,0.0,0.0,0.0,0.0,0.0,0.0,0.0,0.125,3.757323834,0.0,0.0,0.0,0.0,0.0,-0.0,0.0,0.0,2.004394326,0.0,0.0,0.0,0.0,0.0,0.0,0.0,0.0,4.892577624,0.0,0.0,0.0,0.0,0.0,-0.0,0.0,0.0,2.9064938430000002,0.0,0.0,1.0800000429153442,0.27000001072883606,0.0,0.0057373046875,0.01873779296875,1.00048828125,33.29999923706055,0.0,0.0,0.0,0.0,Waiting,0.0,0.0,0.0,0.0,0.0,0.0,0.0,0.0,
0.5065309999999954,0.0,0.0,0.0,0.0,0.0,0.0,0.0,0.125,3.757323834,0.0,0.0,0.0,0.0,0.0,-0.0,0.0,0.0,2.003173623,0.0,0.0,0.0,0.0,0.0,0.0,0.0,0.0,4.892577624,0.0,-0.0012207029999995456,0.0,0.0,0.0,-0.0,0.0,0.0,2.9064938430000002,0.0,0.0,1.0800000429153442,0.27000001072883606,0.0,0.00726318359375,0.01727294921875,1.00262451171875,33.29999923706055,0.0,2.0,0.0,0.0,Waiting,0.0,0.0,0.0,0.0,0.0,0.0,0.0,0.0,
0.529,0.0,0.0,0.0,0.0,0.0,0.0,0.0,0.125,3.757323834,0.0,0.0,0.0,0.0,0.0,-0.0,0.0,0.0,2.004394326,0.0,0.0,0.0,0.0,0.0,0.0,0.0,0.0,4.892577624,0.0,-0.0012207029999995456,0.0,0.0,0.0,-0.0,0.0,0.0,2.9052731400000003,0.0,0.0,1.0800000429153442,0.27000001072883606,0.0,0.0040283203125,0.01873779296875,0.99896240234375,33.29999923706055,0.0,0.0,0.0,0.0,Waiting,0.0,0.0,0.0,0.0,0.0,0.0,0.0,0.0,
0.5504429999999993,0.0,0.0,0.0,0.0,0.0,0.0,0.0,0.125,3.756103131,0.0,0.0,0.0,0.0,0.0,-0.0,0.0,0.0,2.004394326,0.0,0.0,0.0,0.0,0.0,0.0,0.0,0.0,4.893798327,0.0,0.0012207029999995456,0.0,0.0,0.0,-0.0,0.0,0.0,2.9064938430000002,0.0,0.0,1.0800000429153442,0.25999999046325684,0.0,0.0030517578125,0.020751953125,1.00347900390625,33.29999923706055,0.0,0.0,0.0,0.0,Waiting,0.0,0.0,0.0,0.0,0.0,0.0,0.0,0.0,
0.5708429999999934,0.0,0.0,0.0,0.0,0.0,0.0,0.0,0.125,3.757323834,0.0,0.0,0.0,0.0,0.0,-0.0,0.0,0.0,2.003173623,0.0,0.0,0.0,0.0,0.0,0.0,0.0,0.0,4.89501903,0.0,0.0012207029999995456,0.0,0.0,0.0,-0.0,0.0,0.0,2.9064938430000002,0.0,0.0,1.0800000429153442,0.25999999046325684,0.0,0.0042724609375,0.02105712890625,1.00506591796875,33.29999923706055,0.0,0.0,0.0,0.0,Waiting,0.0,0.0,0.0,0.0,0.0,0.0,0.0,0.0,
0.5906129999999975,0.0,0.0,0.0,0.0,0.0,0.0,0.0,0.125,3.757323834,0.0,0.0,0.0,0.0,0.0,-0.0,0.0,0.0,2.004394326,0.0,0.0,0.0,0.0,0.0,0.0,0.0,0.0,4.892577624,0.0,-0.0012207029999995456,0.0,0.0,0.0,-0.0,0.0,0.0,2.9064938430000002,0.0,0.0,1.0800000429153442,0.25999999046325684,0.0,0.0048828125,0.01910400390625,0.9998779296875,33.29999923706055,0.0,0.0,0.0,0.0,Waiting,0.0,0.0,0.0,0.0,0.0,0.0,0.0,0.0,
0.6145119999999952,0.0,0.0,0.0,0.0,0.0,0.0,0.0,0.125,3.756103131,0.0,0.0,0.0,0.0,0.0,-0.0,0.0,0.0,2.004394326,0.0,0.0,0.0,0.0,0.0,0.0,0.0,0.0,4.893798327,0.0,-0.0012207029999995456,0.0,0.0,0.0,-0.0,0.0,0.0,2.9064938430000002,0.0,0.0,1.0800000429153442,0.25999999046325684,0.0,0.00311279296875,0.01702880859375,1.00225830078125,33.29999923706055,0.0,-1.0,0.0,0.0,Waiting,0.0,0.0,0.0,0.0,0.0,0.0,0.0,0.0,
0.6344639999999999,0.0,0.0,0.0,0.0,0.0,0.0,0.0,0.125,3.756103131,0.0,0.0,0.0,0.0,0.0,-0.0,0.0,0.0,2.003173623,0.0,0.0,0.0,0.0,0.0,0.0,0.0,0.0,4.893798327,0.0,-0.0012207029999995456,0.0,0.0,0.0,-0.0,0.0,0.0,2.9064938430000002,0.0,0.0,1.0800000429153442,0.25999999046325684,0.0,0.004638671875,0.01617431640625,0.99774169921875,33.29999923706055,0.0,0.0,0.0,0.0,Waiting,0.0,0.0,0.0,0.0,0.0,0.0,0.0,0.0,
0.6582489999999962,0.0,0.0,0.0,0.0,0.0,0.0,0.0,0.125,3.757323834,0.0,0.0,0.0,0.0,0.0,-0.0,0.0,0.0,2.003173623,0.0,0.0,0.0,0.0,0.0,0.0,0.0,0.0,4.89501903,0.0,0.0012207029999995456,0.0,0.0,0.0,-0.0,0.0,0.0,2.9064938430000002,0.0,0.0,1.0800000429153442,0.25999999046325684,0.0,0.001953125,0.01708984375,0.99615478515625,33.29999923706055,0.0,-2.0,0.0,0.0,Waiting,0.0,0.0,0.0,0.0,0.0,0.0,0.0,0.0,
0.679791999999994,0.0,0.0,0.0,0.0,0.0,0.0,0.0,0.125,3.756103131,0.0,0.0,0.0,0.0,0.0,-0.0,0.0,0.0,2.004394326,0.0,0.0,0.0,0.0,0.0,0.0,0.0,0.0,4.892577624,0.0,0.0012207029999995456,0.0,0.0,0.0,-0.0,0.0,0.0,2.9052731400000003,0.0,0.0,1.0700000524520874,0.25999999046325684,0.0,0.00225830078125,0.01837158203125,0.99859619140625,33.29999923706055,0.0,-2.0,0.0,0.0,Waiting,0.0,0.0,0.0,0.0,0.0,0.0,0.0,0.0,
0.7066229999999996,0.0,0.0,0.0,0.0,0.0,0.0,0.0,0.125,3.756103131,0.0,0.0,0.0,0.0,0.0,-0.0,0.0,0.0,2.003173623,0.0,0.0,0.0,0.0,0.0,0.0,0.0,0.0,4.893798327,0.0,-0.0012207029999995456,0.0,0.0,0.0,-0.0,0.0,0.0,2.9064938430000002,0.0,0.0,1.0700000524520874,0.25999999046325684,0.0,0.0078125,0.0203857421875,1.004150390625,33.29999923706055,0.0,3.0,0.0,0.0,Waiting,0.0,0.0,0.0,0.0,0.0,0.0,0.0,0.0,
0.7286649999999936,0.0,0.0,0.0,0.0,0.0,0.0,0.0,0.125,3.757323834,0.0,0.0,0.0,0.0,0.0,-0.0,0.0,0.0,2.003173623,0.0,0.0,0.0,0.0,0.0,0.0,0.0,0.0,4.892577624,0.0,-0.0012207029999995456,0.0,0.0,0.0,-0.0,0.0,0.0,2.9064938430000002,0.0,0.0,1.0700000524520874,0.25999999046325684,0.0,0.00201416015625,0.0196533203125,1.0029296875,33.29999923706055,0.0,-2.0,0.0,0.0,Waiting,0.0,0.0,0.0,0.0,0.0,0.0,0.0,0.0,
0.7495459999999948,0.0,0.0,0.0,0.0,0.0,0.0,0.0,0.125,3.757323834,0.0,0.0,0.0,0.0,0.0,-0.0,0.0,0.0,2.004394326,0.0,0.0,0.0,0.0,0.0,0.0,0.0,0.0,4.892577624,0.0,0.0,0.0,0.0,0.0,-0.0,0.0,0.0,2.9064938430000002,0.0,0.0,1.0700000524520874,0.25999999046325684,0.0,0.00408935546875,0.0208740234375,1.003173828125,33.29999923706055,0.0,0.0,0.0,0.0,Waiting,0.0,0.0,0.0,0.0,0.0,0.0,0.0,0.0,
0.7725,0.0,0.0,0.0,0.0,0.0,0.0,0.0,0.125,3.757323834,0.0,0.0,0.0,0.0,0.0,-0.0,0.0,0.0,2.003173623,0.0,0.0,0.0,0.0,0.0,0.0,0.0,0.0,4.893798327,0.0,0.0,0.0,0.0,0.0,-0.0,0.0,0.0,2.9064938430000002,0.0,0.0,1.0700000524520874,0.25999999046325684,0.0,0.00494384765625,0.01983642578125,1.00054931640625,33.29999923706055,0.0,0.0,0.0,0.0,Waiting,0.0,0.0,0.0,0.0,0.0,0.0,0.0,0.0,
0.7917860000000001,0.0,0.0,0.0,0.0,0.0,0.0,0.0,0.125,3.756103131,0.0,0.0,0.0,0.0,0.0,-0.0,0.0,0.0,2.004394326,0.0,0.0,0.0,0.0,0.0,0.0,0.0,0.0,4.89501903,0.0,0.0012207029999995456,0.0,0.0,0.0,-0.0,0.0,0.0,2.9064938430000002,0.0,0.0,1.0700000524520874,0.25999999046325684,0.0,0.00457763671875,0.01690673828125,0.99908447265625,33.29999923706055,0.0,0.0,0.0,0.0,Waiting,0.0,0.0,0.0,0.0,0.0,0.0,0.0,0.0,
0.8268410000000004,0.0,0.0,0.0,0.0,0.0,0.0,0.0,0.125,3.757323834,0.0,0.0,0.0,0.0,0.0,-0.0,0.0,0.0,2.004394326,0.0,0.0,0.0,0.0,0.0,0.0,0.0,0.0,4.892577624,0.0,0.0012207029999995456,0.0,0.0,0.0,-0.0,0.0,0.0,2.9064938430000002,0.0,0.0,1.0700000524520874,0.25999999046325684,0.0,0.00396728515625,0.01690673828125,0.998779296875,33.29999923706055,0.0,0.0,0.0,0.0,Waiting,0.0,0.0,0.0,0.0,0.0,0.0,0.0,0.0,
0.8495199999999968,0.0,0.0,0.0,0.0,0.0,0.0,0.0,0.125,3.757323834,0.0,0.0,0.0,0.0,0.0,-0.0,0.0,0.0,2.004394326,0.0,0.0,0.0,0.0,0.0,0.0,0.0,0.0,4.893798327,0.0,-0.0012207029999995456,0.0,0.0,0.0,-0.0,0.0,0.0,2.9064938430000002,0.0,0.0,1.0700000524520874,0.25999999046325684,0.0,0.00445556640625,0.02044677734375,0.99884033203125,33.29999923706055,0.0,0.0,0.0,0.0,Waiting,0.0,0.0,0.0,0.0,0.0,0.0,0.0,0.0,
0.8852179999999935,0.0,0.0,0.0,0.0,0.0,0.0,0.0,0.125,3.758544537,0.0,0.0,0.0,0.0,0.0,-0.0,0.0,0.0,2.004394326,0.0,0.0,0.0,0.0,0.0,0.0,0.0,0.0,4.893798327,0.0,-0.0012207029999995456,0.0,0.0,0.0,-0.0,0.0,0.0,2.9064938430000002,0.0,0.0,1.0700000524520874,0.25999999046325684,0.0,0.00439453125,0.0213623046875,1.0048828125,33.29999923706055,0.0,0.0,0.0,0.0,Waiting,0.0,0.0,0.0,0.0,0.0,0.0,0.0,0.0,
0.9079549999999945,0.0,0.0,0.0,0.0,0.0,114.84375,0.0,0.125,3.757323834,0.5533560492066917,0.0,0.0,0.0,0.0,114.84375,0.0,0.0,2.003173623,4.397316058113637,0.0,0.0,0.0,0.0,114.84375,0.0,0.0,4.892577624,4.40175868900686,0.0,0.0,0.0,0.0,114.84375,0.0,0.0,2.9064938430000002,0.5515167311543303,0.0,1.0700000524520874,0.25999999046325684,0.0,0.0047607421875,0.01641845703125,1.00018310546875,33.29999923706055,0.0,0.0,0.0,0.0,Waiting,0.0,0.0,0.0,0.0,0.0,0.0,0.0,0.0,
0.9262539999999936,0.0,0.0,0.0,0.125,0.0,344.53125,0.0,0.125,3.756103131,0.5533560492066917,0.0,0.0,0.0,0.0,344.53125,0.0,0.0,2.003173623,4.397316058113637,0.0,0.0,0.0,0.0,344.53125,0.0,0.0,4.897460436,4.40175868900686,0.0,0.0,0.0,0.0,344.53125,0.0,0.0,2.8991696250000003,0.5515167311543303,0.0,1.0700000524520874,0.27000001072883606,0.0,0.00390625,0.018798828125,1.00445556640625,33.29999923706055,0.0,0.0,0.0,0.0,Waiting,0.0,0.0,0.0,0.0,0.0,0.0,0.0,0.0,
0.9444309999999969,0.0,0.0,0.0,0.125,0.0,607.03125,0.0,0.125,3.757323834,0.5533560492066917,0.0,0.0,0.125,0.0,607.03125,0.0,0.0,2.004394326,4.397316058113637,0.0,0.0,0.0,0.0,607.03125,0.0,0.0,4.893798327,4.40175868900686,0.0,0.0,0.0,0.0,607.03125,0.0,0.0,2.9064938430000002,0.5515167311543303,0.0,1.0700000524520874,0.25999999046325684,0.0,0.00543212890625,0.01934814453125,0.99920654296875,33.29999923706055,0.0,0.0,0.0,0.0,Waiting,0.0,0.0,0.0,0.0,0.0,0.0,0.0,0.0,
0.9657489999999962,0.0,0.0,0.0,0.5,0.0,836.7187499999999,0.0,0.125,3.7841793000000004,0.5533560492066917,0.0,0.0,0.375,0.0,836.7187499999999,0.0,0.0,2.003173623,4.397316058113637,0.0,0.0,0.5,0.0,836.7187499999999,0.0,0.125,4.879149891,4.40175868900686,0.0,0.0,0.25,0.0,836.7187499999999,0.0,0.0,2.9064938430000002,0.5515167311543303,0.0012207029999999897,1.0700000524520874,0.25999999046325684,0.0,0.00640869140625,0.01824951171875,1.0008544921875,33.29999923706055,0.0,1.0,0.0,0.0,Waiting,0.0,0.0,0.0,0.0,0.0,0.0,0.0,0.0,
0.9855489999999991,0.0,0.0,0.0,1.75,7.5,902.34375,0.0,1.875,3.7976070330000002,0.5533560492066917,0.007324217999999938,0.0,1.0,7.5,902.34375,0.0,1.5,1.9506833940000001,4.397316058113637,-0.004882811999999959,0.0,1.375,7.5,902.34375,0.0,1.75,4.803466305000001,4.40175868900686,4.9332480489999995,0.0,0.75,15.0,902.34375,0.0,1.375,2.915038764,0.5515167311543303,-0.0012207029999999897,1.0700000524520874,0.25999999046325684,0.0,-0.00164794921875,0.10052490234375,1.0174560546875,33.29999923706055,0.0,45.0,1.52587890625E-5,4.57763671875E-5,Waiting,0.0,0.0,0.0,0.0,0.0,0.0,0.0,0.0,
1.0065269999999946,0.0,0.0,0.0,3.0,45.0,935.15625,0.0,2.25,3.868407807,0.5533560492066916,0.0,0.0,2.25,45.0,935.15625,0.0,2.125,1.8957517590000001,4.397316058113637,0.0,0.0,2.375,37.5,935.15625,0.0,2.0,4.7155756890000005,4.40175868900686,0.0,0.0,1.75,52.5,935.15625,0.0,1.75,2.987060241,0.5515167311543303,0.0,1.100000023841858,0.33000001311302185,-0.03999999910593033,0.00341796875,0.02996826171875,1.05712890625,33.29999923706055,0.0,-2.0,7.62939453125E-5,1.678466796875E-4,Waiting,0.0,0.0,0.0,0.0,0.0,0.0,0.0,0.0,
1.025390999999996,0.0,0.0,0.0,4.75,82.5,935.15625,0.0,2.625,3.975829671,0.5533560492066916,0.07324218000000027,0.0,3.375,97.5,935.15625,0.0,2.375,1.829833797,4.397316058113637,-0.04760741700000004,0.0,3.625,67.5,935.15625,0.0,1.75,4.647216321,4.40175868900686,-0.0830078039999993,0.0,3.5,90.0,935.15625,0.0,2.0,3.0505367970000004,0.5515167311543303,0.0756835859999998,1.0800000429153442,0.3199999928474426,-0.15000000596046448,-0.12225341796875,0.04345703125,1.13226318359375,33.29999923706055,0.0,-128.0,4.57763671875E-5,3.0517578125E-4,Waiting,0.0,0.0,0.0,0.0,0.0,0.0,0.0,0.0,
1.0441769999999961,0.0,0.0,0.0,6.0,112.5,935.15625,0.0,1.125,4.005126543,0.5533560492066916,0.06591796199999989,26.0,5.125,142.5,935.15625,0.0,1.125,1.7675779440000001,4.397316058113637,-0.07690428899999979,21.0,4.625,105.0,935.15625,0.0,0.125,4.58984328,4.40175868900686,-0.07324218000000027,19.0,5.0,120.0,935.15625,0.0,0.875,3.120116868,0.5515167311543303,0.0,0.9599999785423279,0.3400000035762787,-0.4699999988079071,0.04937744140625,0.05108642578125,0.88531494140625,33.29999923706055,0.0,43.0,-2.899169921875E-4,6.103515625E-4,Waiting,0.0,0.0,0.0,0.0,0.0,0.0,0.0,0.0,
1.066339,0.0,0.0,21.0,7.0,135.0,935.15625,0.0,0.875,4.0832515350000005,0.5533560492066916,0.0805663980000002,26.0,6.625,172.5,935.15625,0.0,0.875,1.700439279,4.397316058113637,-0.07446288299999981,21.0,5.5,135.0,935.15625,0.0,0.125,4.517821803,4.40175868900686,-0.06347655600000035,19.0,6.125,127.5,935.15625,0.0,0.875,3.172607097,0.5515167311543303,0.0634765559999999,1.0499999523162842,0.36000001430511475,-0.6600000262260437,0.07049560546875,0.0179443359375,1.1907958984375,33.29999923706055,0.0,62.0,-4.119873046875E-4,7.781982421875E-4,Waiting,0.0,0.0,0.0,0.0,0.0,0.0,0.0,0.0,
1.0854830000000002,0.0,0.0,21.0,7.5,142.5,935.15625,0.0,0.625,4.123534734000001,0.5533560492066916,0.056152337999999524,26.0,7.875,180.0,935.15625,0.0,0.75,1.6601560800000001,4.397316058113637,-0.05004882300000002,21.0,6.25,157.5,935.15625,0.0,0.125,4.494628446,4.40175868900686,-0.05004882300000002,19.0,6.5,120.0,935.15625,0.0,0.875,3.200683266,0.5515167311543303,0.05371093199999999,1.059999942779541,0.4000000059604645,-0.8299999833106995,0.0267333984375,-0.00341796875,1.15753173828125,33.29999923706055,0.0,18.0,-4.57763671875E-4,9.307861328125E-4,Waiting,0.0,0.0,0.0,0.0,0.0,0.0,0.0,0.0,
1.1069179999999978,0.0,0.0,21.0,8.375,142.5,935.15625,0.0,0.625,4.172362854,0.5533560492066916,0.0,26.0,9.0,157.5,935.15625,0.0,1.0,1.624755693,4.397316058113637,0.0,21.0,7.0,172.5,935.15625,0.0,0.0,4.456786653,4.40175868900686,0.0,19.0,7.375,97.5,935.15625,0.0,0.875,3.2202145140000002,0.5515167311543303,0.0,1.0299999713897705,0.46000000834465027,-1.2000000476837158,-0.0096435546875,-0.0479736328125,1.009521484375,33.29999923706055,0.0,-16.0,-4.425048828125E-4,0.0012664794921875,Waiting,0.0,0.0,0.0,0.0,0.0,0.0,0.0,0.0,
1.1256849999999976,0.0,0.0,21.0,9.25,150.0,935.15625,0.0,0.375,4.197997617,0.5533560492066916,0.03906249599999967,26.0,10.75,120.0,935.15625,0.0,0.875,1.614990069,4.397316058113637,-0.02929687200000064,21.0,7.625,180.0,935.15625,0.0,0.0,4.426269078,4.40175868900686,-0.032958981000000165,19.0,8.875,75.0,935.15625,0.0,0.875,3.2202145140000002,0.5515167311543303,0.01220703000000034,1.0499999523162842,0.44999998807907104,-1.399999976158142,0.04119873046875,0.0306396484375,1.06298828125,33.29999923706055,0.0,32.0,-3.96728515625E-4,0.001373291015625,Waiting,0.0,0.0,0.0,0.0,0.0,0.0,0.0,0.0,
1.1453379999999962,0.0,0.0,21.0,9.25,150.0,935.15625,0.0,0.375,4.222411677,0.5533560492066916,0.021972653999999814,26.0,12.75,90.0,935.15625,0.0,1.0,1.6088865540000001,4.397316058113637,-0.012207029999999008,21.0,8.375,195.0,935.15625,0.0,0.0,4.416503454,4.40175868900686,-0.0183105449999994,19.0,11.0,75.0,935.15625,0.0,1.125,3.2202145140000002,0.5515167311543303,0.0,1.0099999904632568,0.4699999988079071,-1.6399999856948853,0.01104736328125,-0.03497314453125,0.93927001953125,33.29999923706055,0.0,4.0,-3.35693359375E-4,0.0015106201171875,Waiting,0.0,0.0,0.0,0.0,0.0,0.0,0.0,0.0,
1.1672879999999932,0.0,0.0,57.0,10.0,165.0,935.15625,0.0,0.375,4.229735895,0.5533560492066916,0.01586913900000031,41.0,14.75,82.5,935.15625,0.0,0.875,1.6101072570000001,4.397316058113637,-0.0024414060000008675,58.0,9.0,210.0,935.15625,0.0,0.0,4.407958533,4.40175868900686,-0.019531248000000723,38.0,13.0,97.5,935.15625,0.0,1.125,3.2202145140000002,0.5515167311543303,0.0,0.9900000095367432,0.4000000059604645,-2.180000066757202,-0.03802490234375,0.0125732421875,1.004150390625,33.29999923706055,0.0,-44.0,-4.119873046875E-4,0.00152587890625,Waiting,0.0,0.0,0.0,0.0,0.0,0.0,0.0,0.0,
1.1864989999999962,0.0,0.0,57.0,10.625,202.5,935.15625,0.0,0.25,4.224853083,0.5533560492066916,0.006103515000000392,41.0,14.75,90.0,935.15625,0.0,0.75,1.6088865540000001,4.397316058113637,0.0,58.0,9.75,225.0,935.15625,0.0,0.0,4.396972206,4.40175868900686,-0.014648435999999876,38.0,14.125,120.0,935.15625,0.0,0.875,3.2189938110000003,0.5515167311543303,0.0012207029999999897,0.9700000286102295,0.36000001430511475,-2.490000009536743,-0.0772705078125,-0.004638671875,1.03790283203125,33.29999923706055,0.0,-82.0,-5.950927734375E-4,0.0015106201171875,Waiting,0.0,0.0,0.0,0.0,0.0,0.0,0.0,0.0,
1.2089479999999966,0.0,0.0,57.0,12.25,255.0,951.5625,0.0,0.25,4.224853083,0.5533560492066917,0.0,41.0,17.125,105.0,951.5625,0.0,0.625,1.6101072570000001,4.397316058113637,0.0,58.0,10.5,240.0,951.5625,0.0,0.0,4.387206582,4.40175868900686,0.0,38.0,14.375,150.0,951.5625,0.0,0.875,3.2189938110000003,0.5515167311543303,0.0,0.8799999952316284,0.3400000035762787,-3.200000047683716,-0.095947265625,-0.08203125,0.9925537109375,33.29999923706055,0.0,-96.0,-9.765625E-4,9.1552734375E-4,Waiting,0.0,0.0,0.0,0.0,0.0,0.0,0.0,0.0,
1.228515999999996,0.0,0.0,57.0,12.25,255.0,951.5625,0.0,0.25,4.226073786000001,0.5533560492066917,0.0,41.0,17.125,105.0,951.5625,0.0,0.5,1.6101072570000001,4.397316058113637,0.0,58.0,11.375,262.5,951.5625,0.0,0.0,4.378661661000001,4.40175868900686,-0.010986327000000351,38.0,15.0,187.5,951.5625,0.0,0.875,3.2202145140000002,0.5515167311543303,0.0012207029999999897,0.8700000047683716,0.3400000035762787,-3.640000104904175,-0.080810546875,0.0303955078125,0.89501953125,33.29999923706055,0.0,-87.0,-0.001312255859375,4.425048828125E-4,Waiting,0.0,0.0,0.0,0.0,0.0,0.0,0.0,0.0,
1.2477649999999993,0.0,0.0,57.0,13.0,277.5,951.5625,0.0,0.25,4.226073786000001,0.5533560492066917,0.0,41.0,18.0,127.5,951.5625,0.0,0.5,1.6064451480000002,4.397316058113637,0.0,58.0,12.5,292.5,951.5625,0.0,0.0,4.360351116,4.40175868900686,0.0,38.0,15.25,240.0,951.5625,0.0,0.875,3.2128902960000003,0.5515167311543303,0.0,0.9100000262260437,0.25999999046325684,-4.119999885559082,-0.050048828125,-0.02142333984375,1.09637451171875,33.29999923706055,0.0,-52.0,-0.001739501953125,-4.57763671875E-5,Waiting,0.0,0.0,0.0,0.0,0.0,0.0,0.0,0.0,
1.268962999999996,0.0,0.0,57.0,13.375,300.0,951.5625,0.0,0.25,4.239501519,0.5533560492066917,-0.0012207029999995456,41.0,18.125,165.0,951.5625,0.0,0.375,1.600341633,4.397316058113637,-0.004882811999999959,58.0,13.5,330.0,951.5625,0.0,0.0,4.373778849,4.40175868900686,-0.003662109000000413,38.0,15.375,300.0,951.5625,0.0,0.875,3.2226559200000002,0.5515167311543303,0.0012207029999999897,0.8199999928474426,0.28999999165534973,-5.28000020980835,0.010986328125,0.0111083984375,0.67266845703125,33.29999923706055,0.0,7.0,-0.002593994140625,-0.001007080078125,Waiting,0.0,0.0,0.0,0.0,0.0,0.0,0.0,0.0,
1.2889459999999964,0.0,0.0,120.0,13.625,322.5,984.3749999999999,0.0,0.25,4.223632380000001,0.5533560492066917,0.0012207029999995456,87.0,18.5,217.5,984.3749999999999,0.0,0.375,1.5844724940000001,4.397316058113637,-0.006103514999999504,123.0,13.5,330.0,984.3749999999999,0.0,0.0,4.372558146,4.40175868900686,-0.0024414059999999793,103.0,14.875,360.0,984.3749999999999,0.0,0.875,3.2202145140000002,0.5515167311543303,0.0,0.8500000238418579,0.28999999165534973,-5.960000038146973,0.00244140625,-0.0413818359375,1.06817626953125,33.29999923706055,0.0,2.0,-0.002593994140625,-0.001495361328125,Waiting,0.0,0.0,0.0,0.0,0.0,0.0,0.0,0.0,
1.3140699999999996,0.0,0.0,120.0,14.125,405.0,1033.59375,0.0,0.25,4.2333980040000005,0.5533560492066917,0.0,87.0,19.0,315.0,1033.59375,0.0,0.125,1.566161949,4.397316058113637,-0.021972653999999814,123.0,13.875,420.0,1033.59375,0.0,0.0,4.344481977,4.40175868900686,-0.004882811999999959,103.0,14.5,427.5,1033.59375,0.0,0.875,3.2202145140000002,0.5515167311543303,0.0,0.8999999761581421,0.33000001311302185,-7.510000228881836,0.035400390625,0.0902099609375,0.9017333984375,33.310001373291016,0.0,19.0,-0.0026702880859375,-0.0025634765625,Waiting,0.0,0.0,0.0,0.0,0.0,0.0,0.0,0.0,
1.3330459999999948,0.0,0.0,120.0,14.125,405.0,1181.25,0.0,0.25,4.224853083,0.5533560492066917,0.0,87.0,19.0,367.5,1181.25,0.0,0.0,1.5576170280000001,4.397316058113637,-0.014648436000000764,123.0,13.375,472.5,1181.25,0.0,0.0,4.339599165,4.40175868900686,-0.02563476299999934,103.0,14.375,480.0,1181.25,0.0,0.5,3.2214352170000002,0.5515167311543303,0.0,0.9100000262260437,0.3100000023841858,-8.350000381469727,-0.03759765625,0.05841064453125,1.02362060546875,33.310001373291016,0.0,-48.0,-0.00274658203125,-0.00299072265625,Waiting,0.0,0.0,0.0,0.0,0.0,0.0,0.0,0.0,
1.3544449999999997,0.0,0.0,120.0,14.625,465.0,1263.28125,0.0,0.25,4.221190974000001,0.5533560492066917,0.0,87.0,20.0,427.5,1263.28125,0.0,0.0,1.542968592,4.397316058113637,0.0,123.0,13.5,525.0,1263.28125,0.0,0.0,4.3383784620000005,4.40175868900686,0.0,103.0,14.75,540.0,1263.28125,0.0,0.5,3.2202145140000002,0.5515167311543303,0.0,0.8600000143051147,0.3100000023841858,-10.25,-0.06964111328125,-0.04168701171875,0.9412841796875,33.310001373291016,0.0,-63.0,-0.0031280517578125,-0.0040740966796875,Waiting,0.0,0.0,0.0,0.0,0.0,0.0,0.0,0.0,
1.3731959999999963,0.0,0.0,120.0,15.625,532.5,1328.90625,0.0,0.25,4.224853083,0.5533560492066917,0.0024414059999999793,87.0,20.0,427.5,1328.90625,0.0,0.0,1.534423671,4.397316058113637,-0.014648435999999876,123.0,13.5,585.0,1328.90625,0.0,0.0,4.3408198680000005,4.40175868900686,0.0,103.0,15.75,600.0,1328.90625,0.0,0.5,3.2202145140000002,0.5515167311543303,0.0012207029999999897,0.8100000023841858,0.25,-11.300000190734863,-0.08770751953125,0.052490234375,1.00579833984375,33.310001373291016,0.0,-97.0,-0.0034637451171875,-0.004730224609375,Waiting,0.0,0.0,0.0,0.0,0.0,0.0,0.0,0.0,
1.3918940000000002,0.0,0.0,120.0,16.625,592.5,1345.3125,0.0,0.25,4.226073786000001,0.5533560492066917,-0.0012207030000004337,87.0,21.0,502.5,1345.3125,0.0,0.0,1.519775235,4.397316058113637,-0.010986327000000351,123.0,14.375,585.0,1345.3125,0.0,0.0,4.359130413,4.40175868900686,0.0,103.0,15.75,660.0,1345.3125,0.0,0.5,3.2202145140000002,0.5515167311543303,0.0,0.8299999833106995,0.2199999988079071,-12.449999809265137,0.0107421875,-0.07879638671875,1.12982177734375,33.310001373291016,0.0,26.0,-0.00384521484375,-0.0054168701171875,Waiting,0.0,0.0,0.0,0.0,0.0,0.0,0.0,0.0,
1.4137669999999998,0.0,0.0,239.0,17.75,660.0,1394.53125,0.0,0.25,4.224853083,0.5533560492066917,0.0,199.0,23.375,585.0,1394.53125,0.0,0.0,1.5014646900000002,4.397316058113637,-0.01342773300000033,238.0,15.375,705.0,1394.53125,0.0,0.0,4.339599165,4.40175868900686,-0.0012207029999995456,222.0,17.25,727.5,1394.53125,0.0,0.5,3.2202145140000002,0.5515167311543303,0.0012207029999999897,0.7799999713897705,0.23000000417232513,-14.9399995803833,-0.04656982421875,0.028076171875,0.97314453125,33.310001373291016,0.0,-52.0,-0.0045928955078125,-0.0068817138671875,Waiting,0.0,0.0,0.0,0.0,0.0,0.0,0.0,0.0,
1.434351999999999,0.0,0.0,239.0,18.25,720.0,1410.9375,0.0,0.25,4.224853083,0.5533560492066917,0.0,199.0,23.375,675.0,1410.9375,0.0,0.0,1.495361175,4.397316058113637,-0.014648435999999876,238.0,16.25,765.0,1410.9375,0.0,0.0,4.339599165,4.40175868900686,0.0012207029999995456,222.0,16.875,802.5,1410.9375,0.0,0.5,3.2202145140000002,0.5515167311543303,-0.0012207029999999897,0.75,0.18000000715255737,-16.299999237060547,-0.08148193359375,0.03570556640625,1.00921630859375,33.310001373291016,0.0,-87.0,-0.0050811767578125,-0.0068817138671875,Waiting,0.0,0.0,0.0,0.0,0.0,0.0,0.0,0.0,
1.4561759999999995,0.0,0.0,239.0,18.5,780.0,1427.34375,0.0,0.25,4.224853083,0.5533560492066917,0.0,199.0,23.75,757.5,1427.34375,0.0,0.0,1.4978025810000002,4.397316058113637,0.0,238.0,16.25,832.5,1427.34375,0.0,0.0,4.339599165,4.40175868900686,0.0,222.0,16.625,877.5,1427.34375,0.0,0.5,3.2189938110000003,0.5515167311543303,0.0,0.8399999737739563,0.3400000035762787,-19.280000686645508,-0.09906005859375,0.074951171875,1.09954833984375,33.310001373291016,0.0,-119.0,-0.0061187744140625,-0.0070037841796875,Waiting,0.0,0.0,0.0,0.0,0.0,0.0,0.0,0.0,
1.4739879999999976,0.0,0.0,239.0,18.125,855.0,1427.34375,0.0,0.25,4.223632380000001,0.5533560492066917,0.0,199.0,23.625,832.5,1427.34375,0.0,0.0,1.470947115,4.397316058113637,-0.008544920999999484,238.0,16.25,832.5,1427.34375,0.0,0.0,4.3408198680000005,4.40175868900686,-0.0012207029999995456,222.0,16.0,960.0,1427.34375,0.0,0.5,3.225097326,0.5515167311543303,0.0,0.8399999737739563,0.3400000035762787,-19.280000686645508,-0.09906005859375,0.074951171875,1.09954833984375,33.310001373291016,0.0,-119.0,-0.0061187744140625,-0.0070037841796875,Waiting,0.0,0.0,0.0,0.0,0.0,0.0,0.0,0.0,
1.4935039999999935,0.0,0.0,239.0,17.5,922.5,1427.34375,0.0,0.25,4.222411677,0.5533560492066917,0.0,199.0,23.625,900.0,1427.34375,0.0,0.0,1.463622897,4.397316058113637,-0.009765624000000805,238.0,16.125,900.0,1427.34375,0.0,0.0,4.344481977,4.40175868900686,0.0,222.0,15.125,1035.0,1427.34375,0.0,0.5,3.223876623,0.5515167311543303,0.0,0.800000011920929,0.2800000011920929,-22.540000915527344,-0.0667724609375,-0.00341796875,0.933349609375,33.310001373291016,0.0,-59.0,-0.0075836181640625,-0.0067901611328125,Waiting,0.0,0.0,0.0,0.0,0.0,0.0,0.0,0.0,
1.5153979999999938,0.0,0.0,239.0,16.75,1005.0,1427.34375,0.0,0.25,4.226073786000001,0.5533560492066917,-0.0012207029999995456,199.0,22.75,967.5,1427.34375,0.0,0.0,1.442870946,4.397316058113637,-0.024414059999999793,238.0,15.625,1020.0,1427.34375,0.0,0.0,4.339599165,4.40175868900686,0.0012207029999995456,412.0,14.0,1110.0,1427.34375,0.0,0.5,3.223876623,0.5515167311543303,-0.0012207029999999897,0.7099999785423279,0.25999999046325684,-24.270000457763672,0.07659912109375,-0.13525390625,0.696533203125,33.310001373291016,0.0,126.0,-0.0083160400390625,-0.0067291259765625,Waiting,0.0,0.0,0.0,0.0,0.0,0.0,0.0,0.0,
1.534341999999997,0.0,0.0,423.0,16.125,1072.5,1427.34375,0.0,0.25,4.223632380000001,0.5533560492066917,0.0024414059999999793,379.0,21.125,1035.0,1427.34375,0.0,0.0,1.441650243,4.397316058113637,-0.004882811999999959,412.0,15.25,1020.0,1427.34375,0.0,0.0,4.339599165,4.40175868900686,0.0,412.0,14.0,1110.0,1427.34375,0.0,0.5,3.2214352170000002,0.5515167311543303,0.0,0.8299999833106995,0.30000001192092896,-26.09000015258789,-0.0726318359375,-0.00592041015625,1.31988525390625,33.310001373291016,0.0,-60.0,-0.009002685546875,-0.00677490234375,Waiting,0.0,0.0,0.0,0.0,0.0,0.0,0.0,0.0,
1.5552539999999935,0.0,0.0,423.0,15.25,1140.0,1427.34375,0.0,0.25,4.226073786000001,0.5533560492066917,0.0,379.0,19.5,1110.0,1427.34375,0.0,0.0,1.407470559,4.397316058113637,0.0,412.0,14.625,1080.0,1427.34375,0.0,0.0,4.339599165,4.40175868900686,0.0,412.0,12.875,1177.5,1427.34375,0.0,0.5,3.225097326,0.5515167311543303,0.0,0.9599999785423279,0.23999999463558197,-27.959999084472656,-0.0948486328125,0.122314453125,1.4937744140625,33.310001373291016,0.0,-134.0,-0.00982666015625,-0.0068511962890625,Waiting,0.0,0.0,0.0,0.0,0.0,0.0,0.0,0.0,
1.5736229999999995,0.0,0.0,423.0,14.375,1192.5,1427.34375,0.0,0.25,4.223632380000001,0.5533560492066917,-0.0012207029999995456,379.0,18.375,1177.5,1427.34375,0.0,0.0,1.402587747,4.397316058113637,-0.035400387000000144,412.0,14.0,1132.5,1427.34375,0.0,0.0,4.337157759,4.40175868900686,-0.0012207029999995456,412.0,12.125,1230.0,1427.34375,0.0,0.5,3.225097326,0.5515167311543303,0.0012207029999999897,0.8600000143051147,0.3199999928474426,-29.8799991607666,0.00732421875,-0.0572509765625,0.66009521484375,33.310001373291016,0.0,36.0,-0.010711669921875,-0.006927490234375,Waiting,0.0,0.0,0.0,0.0,0.0,0.0,0.0,0.0,
1.5919819999999962,0.0,0.0,423.0,13.375,1245.0,1427.34375,0.0,0.25,4.226073786000001,0.5533560492066917,0.0012207029999995456,379.0,16.5,1260.0,1427.34375,0.0,0.0,1.402587747,4.397316058113637,0.0,412.0,13.375,1177.5,1427.34375,0.0,0.0,4.3408198680000005,4.40175868900686,0.0012207029999995456,412.0,11.25,1282.5,1427.34375,0.0,0.5,3.225097326,0.5515167311543303,0.0,0.8799999952316284,0.3400000035762787,-33.88999938964844,0.0430908203125,0.19866943359375,1.107177734375,33.310001373291016,0.0,-70.0,-0.0125274658203125,-0.007080078125,Waiting,0.0,0.0,0.0,0.0,0.0,0.0,0.0,0.0,
1.613953999999998,0.0,0.0,423.0,12.625,1290.0,1427.34375,0.0,0.25,4.224853083,0.5533560492066917,0.0,379.0,15.625,1327.5,1427.34375,0.0,0.0,1.402587747,4.397316058113637,0.0,412.0,12.625,1222.5,1427.34375,0.0,0.0,4.3383784620000005,4.40175868900686,0.0,412.0,10.5,1327.5,1427.34375,0.0,0.5,3.236083653,0.5515167311543303,0.0,0.949999988079071,0.33000001311302185,-35.97999954223633,-0.1112060546875,0.0850830078125,1.55023193359375,33.310001373291016,0.0,-132.0,-0.01361083984375,-0.00701904296875,Waiting,0.0,0.0,0.0,0.0,0.0,0.0,0.0,0.0,
1.634536,0.0,0.0,423.0,11.625,1335.0,1427.34375,0.0,0.25,4.224853083,0.5533560492066917,0.0,379.0,14.0,1387.5,1427.34375,0.0,0.0,1.4013670440000001,4.397316058113637,0.0,412.0,12.25,1267.5,1427.34375,0.0,0.0,4.328612838000001,4.40175868900686,0.0,412.0,9.875,1357.5,1427.34375,0.0,0.5,3.229980138,0.5515167311543303,0.0,0.8999999761581421,0.4399999976158142,-40.2400016784668,-0.13226318359375,0.171630859375,0.64154052734375,33.310001373291016,0.0,-209.0,-0.01611328125,-0.0069122314453125,Waiting,0.0,0.0,0.0,0.0,0.0,0.0,0.0,0.0,
1.6561129999999975,0.0,0.0,648.0,10.875,1380.0,1427.34375,0.0,0.25,4.224853083,0.5533560492066917,0.0,613.0,13.125,1432.5,1427.34375,0.0,0.0,1.40380845,4.397316058113637,0.0,623.0,12.0,1305.0,1427.34375,0.0,0.0,4.3408198680000005,4.40175868900686,0.0,639.0,9.375,1387.5,1427.34375,0.0,0.5,3.2202145140000002,0.5515167311543303,0.0,0.8899999856948853,0.4099999964237213,-42.41999816894531,0.01190185546875,-0.06964111328125,0.93121337890625,33.310001373291016,0.0,60.0,-0.0175323486328125,-0.006866455078125,Waiting,0.0,0.0,0.0,0.0,0.0,0.0,0.0,0.0,
1.6746069999999964,0.0,0.0,648.0,10.125,1417.5,1427.34375,0.0,0.25,4.227294489,0.5533560492066917,0.0012207030000004337,613.0,11.625,1477.5,1427.34375,0.0,0.0,1.402587747,4.397316058113637,0.0012207029999995456,623.0,11.875,1327.5,1427.34375,0.0,0.0,4.3408198680000005,4.40175868900686,0.0,639.0,8.625,1417.5,1427.34375,0.0,0.5,3.233642247,0.5515167311543303,0.0,0.8500000238418579,0.5099999904632568,-44.619998931884766,0.13775634765625,-0.102294921875,1.1856689453125,33.310001373291016,0.0,174.0,-0.0187835693359375,-0.006866455078125,Waiting,0.0,0.0,0.0,0.0,0.0,0.0,0.0,0.0,
1.6923410000000003,0.0,0.0,648.0,9.5,1455.0,1443.75,0.0,0.25,4.224853083,0.5533560492066917,0.0,613.0,10.75,1515.0,1443.75,0.0,0.0,1.407470559,4.397316058113637,0.0,623.0,11.5,1342.5,1443.75,0.0,0.0,4.339599165,4.40175868900686,0.0,639.0,8.25,1447.5,1443.75,0.0,0.5,3.240966465,0.5515167311543303,0.0,0.8799999952316284,0.4699999988079071,-49.099998474121094,-0.13494873046875,-0.03875732421875,0.9561767578125,33.310001373291016,0.0,-53.0,-0.0215301513671875,-0.00701904296875,Waiting,0.0,0.0,0.0,0.0,0.0,0.0,0.0,0.0,
1.713969999999994,0.0,0.0,648.0,9.125,1485.0,1443.75,0.0,0.25,4.224853083,0.5533560492066917,-0.0012207030000004337,613.0,9.625,1552.5,1443.75,0.0,0.0,1.40380845,4.397316058113637,0.0,623.0,11.25,1357.5,1443.75,0.0,0.0,4.339599165,4.40175868900686,0.0,639.0,7.875,1470.0,1443.75,0.0,0.5,3.249511386,0.5515167311543303,0.003662108999999969,0.7799999713897705,0.5600000023841858,-51.36000061035156,0.0721435546875,-0.23602294921875,0.65582275390625,33.310001373291016,0.0,232.0,-0.0228729248046875,-0.00732421875,Waiting,0.0,0.0,0.0,0.0,0.0,0.0,0.0,0.0,
1.7327709999999934,0.0,0.0,648.0,9.125,1485.0,1443.75,0.0,0.25,4.1857905870000005,0.5533560492066917,0.0012207030000004337,613.0,9.125,1582.5,1443.75,0.0,0.0,1.40380845,4.397316058113637,0.0,623.0,11.0,1365.0,1443.75,0.0,0.0,4.339599165,4.40175868900686,0.0,639.0,7.625,1492.5,1443.75,0.0,0.5,3.253173495,0.5515167311543303,0.009765623999999917,0.6899999976158142,0.550000011920929,-53.63999938964844,0.1064453125,0.072998046875,0.94024658203125,33.310001373291016,0.0,8.0,-0.0240478515625,-0.0076141357421875,Waiting,0.0,0.0,0.0,0.0,0.0,0.0,0.0,0.0,
1.7510249999999943,0.0,0.0,648.0,8.625,1500.0,1443.75,0.0,0.25,4.208983944,0.5533560492066917,0.0,613.0,8.375,1612.5,1443.75,0.0,0.0,1.40380845,4.397316058113637,0.0,623.0,11.0,1387.5,1443.75,0.0,0.0,4.3408198680000005,4.40175868900686,0.0,639.0,7.125,1507.5,1443.75,0.0,0.25,3.254394198,0.5515167311543303,0.0,0.7799999713897705,0.46000000834465027,-55.939998626708984,-0.031494140625,0.1383056640625,1.49273681640625,33.310001373291016,0.0,-122.0,-0.0253143310546875,-0.0077972412109375,Waiting,0.0,0.0,0.0,0.0,0.0,0.0,0.0,0.0,
1.7727249999999986,0.0,0.0,892.0,8.5,1515.0,1443.75,0.0,0.25,4.261474173,0.5533560492066917,0.0012207030000004337,876.0,8.375,1612.5,1443.75,0.0,0.0,1.402587747,4.397316058113637,0.0,850.0,10.875,1410.0,1443.75,0.0,0.0,4.339599165,4.40175868900686,0.0,883.0,6.875,1522.5,1443.75,0.0,0.25,3.2592770100000004,0.5515167311543303,0.0012207029999999897,0.5799999833106995,0.6499999761581421,-60.59000015258789,0.02667236328125,0.021728515625,0.51513671875,33.310001373291016,0.0,-4.0,-0.0280303955078125,-0.0084686279296875,Waiting,0.0,0.0,0.0,0.0,0.0,0.0,0.0,0.0,
1.8076879999999946,0.0,0.0,892.0,7.875,1530.0,1443.75,0.0,0.25,4.226073786000001,0.5533560492066917,0.0,876.0,7.125,1650.0,1443.75,0.0,0.0,1.402587747,4.397316058113637,0.0,850.0,10.75,1425.0,1443.75,0.0,0.0,4.326171432000001,4.40175868900686,0.0,883.0,6.625,1537.5,1443.75,0.0,0.25,3.2690426340000003,0.5515167311543303,0.0,0.6100000143051147,0.4699999988079071,-62.93000030517578,-0.0736083984375,0.05426025390625,1.603515625,33.310001373291016,0.0,-72.0,-0.0294342041015625,-0.0088653564453125,Waiting,0.0,0.0,0.0,0.0,0.0,0.0,0.0,0.0,
1.8279099999999961,0.0,0.0,892.0,7.5,1537.5,1460.15625,0.0,0.25,4.226073786000001,0.5533560492066917,0.0,876.0,6.25,1657.5,1460.15625,0.0,0.0,1.3940428260000002,4.397316058113637,0.0,850.0,10.625,1440.0,1460.15625,0.0,0.0,4.339599165,4.40175868900686,0.0,883.0,6.375,1545.0,1460.15625,0.0,0.25,3.2739254460000002,0.5515167311543303,0.009765623999999917,0.5400000214576721,0.5199999809265137,-70.04000091552734,-0.17010498046875,0.00714111328125,1.44927978515625,33.310001373291016,0.0,-56.0,-0.033294677734375,-0.01007080078125,Waiting,0.0,0.0,0.0,0.0,0.0,0.0,0.0,0.0,
1.8463459999999978,0.0,0.0,892.0,7.375,1545.0,1492.96875,0.0,0.25,4.250487846,0.5533560492066917,0.0,876.0,5.625,1672.5,1492.96875,0.0,0.0,1.402587747,4.397316058113637,-0.0012207029999995456,850.0,10.375,1447.5,1492.96875,0.0,0.0,4.3383784620000005,4.40175868900686,0.0,883.0,6.125,1560.0,1492.96875,0.0,0.25,3.2727047430000002,0.5515167311543303,0.0,0.4300000071525574,0.6499999761581421,-72.43000030517578,0.1380615234375,0.0548095703125,0.5545654296875,33.310001373291016,0.0,-8.0,-0.0345458984375,-0.0105438232421875,Waiting,0.0,0.0,0.0,0.0,0.0,0.0,0.0,0.0,
1.8671139999999942,0.0,0.0,892.0,7.375,1552.5,1509.375,0.0,0.25,4.224853083,0.5533560492066917,0.0012207030000004337,876.0,5.375,1687.5,1509.375,0.0,0.0,1.4013670440000001,4.397316058113637,0.0012207029999995456,850.0,10.25,1455.0,1509.375,0.0,0.0,4.3408198680000005,4.40175868900686,0.0,883.0,5.75,1567.5,1509.375,0.0,0.25,3.2739254460000002,0.5515167311543303,0.003662108999999969,0.3799999952316284,0.6800000071525574,-74.8499984741211,-0.062744140625,0.06927490234375,0.815185546875,33.310001373291016,0.0,-80.0,-0.0358428955078125,-0.0109710693359375,Waiting,0.0,0.0,0.0,0.0,0.0,0.0,0.0,0.0,
1.8850839999999953,0.0,0.0,892.0,7.375,1560.0,1542.1875,0.0,0.25,4.226073786000001,0.5533560492066917,-0.0024414059999999793,1151.0,5.25,1702.5,1542.1875,0.0,0.0,1.40380845,4.397316058113637,0.0,1090.0,10.125,1470.0,1542.1875,0.0,0.0,4.339599165,4.40175868900686,-0.0012207029999995456,1137.0,5.875,1575.0,1542.1875,0.0,0.25,3.287353179,0.5515167311543303,0.004882811999999959,0.47999998927116394,0.6499999761581421,-77.27999877929688,-0.05059814453125,-0.077880859375,1.3814697265625,33.310001373291016,0.0,72.0,-0.03826904296875,-0.0121002197265625,Waiting,0.0,0.0,0.0,0.0,0.0,0.0,0.0,0.0,
1.9071939999999958,0.0,0.0,1145.0,7.25,1575.0,1558.59375,0.0,0.25,4.226073786000001,0.5533560492066917,0.0,1151.0,5.125,1710.0,1558.59375,0.0,0.0,1.40380845,4.397316058113637,0.0,1090.0,10.25,1485.0,1558.59375,0.0,0.0,4.339599165,4.40175868900686,0.0,1137.0,5.875,1575.0,1558.59375,0.0,0.25,3.293456694,0.5515167311543303,0.0,0.2800000011920929,0.6700000166893005,-82.12999725341797,0.0390625,-0.10296630859375,0.45556640625,33.310001373291016,0.0,108.0,-0.0391998291015625,-0.0127410888671875,Waiting,0.0,0.0,0.0,0.0,0.0,0.0,0.0,0.0,
1.9254969999999958,0.0,0.0,1145.0,7.25,1582.5,1558.59375,0.0,0.25,4.224853083,0.5533560492066917,0.0,1151.0,5.0,1710.0,1558.59375,0.0,0.0,1.40380845,4.397316058113637,0.0,1090.0,10.375,1507.5,1558.59375,0.0,0.0,4.339599165,4.40175868900686,0.0,1137.0,5.875,1590.0,1558.59375,0.0,0.0,3.292235991,0.5515167311543303,0.0012207029999999897,0.1599999964237213,0.8500000238418579,-84.58999633789062,0.1844482421875,-0.025634765625,0.33599853515625,33.310001373291016,0.0,43.0,-0.0400238037109375,-0.01324462890625,Waiting,0.0,0.0,0.0,0.0,0.0,0.0,0.0,0.0,
1.9429769999999988,0.0,0.0,1145.0,7.25,1582.5,1410.9375,0.0,0.25,4.226073786000001,0.5533560492066917,0.0,1151.0,4.625,1717.5,1410.9375,0.0,0.0,1.40380845,4.397316058113637,-0.0012207029999995456,1090.0,10.125,1530.0,1410.9375,0.0,0.0,4.3408198680000005,4.40175868900686,0.0,1137.0,5.75,1605.0,1410.9375,0.0,0.0,3.297118803,0.5515167311543303,0.003662108999999969,0.27000001072883606,0.699999988079071,-87.06999969482422,-0.01300048828125,0.1466064453125,1.64385986328125,33.310001373291016,0.0,-140.0,-0.040924072265625,-0.013641357421875,Waiting,0.0,0.0,0.0,0.0,0.0,0.0,0.0,0.0,
1.963029999999999,0.0,0.0,1145.0,7.125,1590.0,1033.59375,0.0,0.25,4.227294489,0.5533560492066917,0.0012207030000004337,1151.0,3.625,1725.0,1033.59375,0.0,0.0,1.4257811040000001,4.397316058113637,0.0012207029999995456,1090.0,9.0,1545.0,1033.59375,0.0,0.0,4.334716353,4.40175868900686,0.0012207029999995456,1137.0,5.375,1612.5,1033.59375,0.0,0.0,3.297118803,0.5515167311543303,0.003662108999999969,0.05000000074505806,0.8100000023841858,-92.05999755859375,-0.02081298828125,-0.0509033203125,0.37890625,33.310001373291016,0.0,52.0,-0.042724609375,-0.0146331787109375,Waiting,0.0,0.0,0.0,0.0,0.0,0.0,0.0,0.0,
1.9815339999999997,0.0,0.0,1145.0,6.25,1605.0,459.375,0.0,0.25,4.224853083,0.5533560492066917,-0.0024414059999999793,1151.0,3.625,1725.0,459.375,0.0,0.0,1.402587747,4.397316058113637,0.0,1090.0,9.0,1545.0,459.375,0.0,0.0,4.335937056000001,4.40175868900686,0.0,1137.0,3.875,1620.0,459.375,0.0,0.25,3.298339506,0.5515167311543303,0.0,-0.05000000074505806,0.8999999761581421,-94.56999969482422,-0.04119873046875,-0.020751953125,0.4486083984375,33.310001373291016,0.0,24.0,-0.0435333251953125,-0.0152130126953125,Waiting,0.0,0.0,0.0,0.0,0.0,0.0,0.0,0.0,
2.0162119999999994,0.0,0.0,1395.0,1.75,1605.0,0.0,0.0,0.25,4.226073786000001,0.5533560492066917,0.0012207029999995456,1411.0,0.0,1627.5,0.0,0.0,0.0,1.402587747,4.397316058113637,0.0,1334.0,0.625,1515.0,0.0,0.0,0.0,4.3383784620000005,4.40175868900686,0.0,1382.0,0.5,1440.0,0.0,0.0,0.25,3.304443021,0.5515167311543303,0.0,-0.09000000357627869,0.9300000071525574,-106.55999755859375,-0.07366943359375,-0.24139404296875,0.44708251953125,33.310001373291016,0.0,253.0,-0.047210693359375,-0.017486572265625,Waiting,0.0,0.0,0.0,0.0,0.0,0.0,0.0,0.0,
2.0768639999999943,0.0,0.0,1395.0,0.0,1335.0,0.0,0.0,0.25,4.230956598000001,0.5533560492066917,0.0,1411.0,0.0,1462.5,0.0,0.0,0.0,1.40380845,4.397316058113637,0.0,1334.0,0.0,1237.5,0.0,0.0,0.0,4.339599165,4.40175868900686,0.0,1382.0,0.0,1327.5,0.0,0.0,0.0,3.3215328630000003,0.5515167311543303,0.009765623999999917,-0.3400000035762787,0.6700000166893005,-112.70999908447266,0.07330322265625,0.0128173828125,1.2181396484375,33.310001373291016,0.0,-41.0,-0.047576904296875,-0.0183563232421875,Waiting,0.0,0.0,0.0,0.0,0.0,0.0,0.0,0.0,
2.1288209999999963,0.0,0.0,1563.0,0.0,1110.0,0.0,0.0,0.125,4.230956598000001,0.5533560492066917,0.004882811999999959,1631.0,0.0,1387.5,0.0,0.0,0.0,1.402587747,4.397316058113637,0.0,1508.0,0.0,1102.5,0.0,0.0,0.0,4.3383784620000005,4.40175868900686,0.0,1585.0,0.0,1297.5,0.0,0.0,0.0,3.331298487,0.5515167311543303,0.009765623999999917,-0.4000000059604645,0.7099999785423279,-118.16000366210938,0.07855224609375,-0.02703857421875,0.6343994140625,33.310001373291016,0.0,-13.0,-0.047760009765625,-0.01904296875,Waiting,0.0,0.0,0.0,0.0,0.0,0.0,0.0,0.0,
2.1725309999999953,0.0,0.0,1563.0,0.0,1050.0,0.0,0.0,0.25,4.229735895,0.5533560492066917,0.0,1631.0,0.0,1350.0,0.0,0.0,0.0,1.402587747,4.397316058113637,0.0,1508.0,0.0,1057.5,0.0,0.0,0.0,4.339599165,4.40175868900686,0.0,1585.0,0.0,1245.0,0.0,0.0,0.0,3.341064111,0.5515167311543303,0.01342773300000033,-0.23000000417232513,0.5699999928474426,-121.45999908447266,0.05108642578125,-0.122314453125,1.3343505859375,33.310001373291016,0.0,80.0,-0.04791259765625,-0.0194854736328125,Waiting,0.0,0.0,0.0,0.0,0.0,0.0,0.0,0.0,
2.196101999999999,0.0,0.0,1563.0,0.0,1035.0,0.0,0.0,0.25,4.237060113,0.5533560492066917,0.0,1631.0,0.0,1282.5,0.0,0.0,0.0,1.402587747,4.397316058113637,0.0,1508.0,0.0,1027.5,0.0,0.0,0.0,4.339599165,4.40175868900686,0.0,1585.0,0.0,1177.5,0.0,0.0,0.0,3.34472622,0.5515167311543303,0.019531247999999835,-0.47999998927116394,0.7200000286102295,-124.5199966430664,0.1011962890625,0.00775146484375,0.864501953125,33.310001373291016,0.0,-63.0,-0.047698974609375,-0.0193328857421875,Waiting,0.0,0.0,0.0,0.0,0.0,0.0,0.0,0.0,
2.2290959999999975,0.0,0.0,1563.0,0.0,990.0,0.0,0.0,0.25,4.232177301,0.5533560492066917,0.0,1631.0,0.0,1207.5,0.0,0.0,0.0,1.402587747,4.397316058113637,0.0,1508.0,0.0,982.5,0.0,0.0,0.0,4.3383784620000005,4.40175868900686,0.0,1585.0,0.0,1125.0,0.0,0.0,0.0,3.354491844,0.5515167311543303,0.019531247999999835,-0.36000001430511475,0.75,-127.36000061035156,0.0177001953125,-0.07867431640625,1.1285400390625,33.310001373291016,0.0,55.0,-0.0475921630859375,-0.01904296875,Waiting,0.0,0.0,0.0,0.0,0.0,0.0,0.0,0.0,
2.2702849999999963,0.0,0.0,1702.0,0.0,885.0,0.0,0.0,0.25,4.2358394100000005,0.5533560492066917,0.003662109000000413,1801.0,0.0,1080.0,0.0,0.0,0.0,1.40380845,4.397316058113637,0.0,1646.0,0.0,877.5,0.0,0.0,0.0,4.3408198680000005,4.40175868900686,-0.0012207029999995456,1746.0,0.0,967.5,0.0,0.0,0.0,3.3642574680000004,0.5515167311543303,0.015869138999999866,-0.5,0.8299999833106995,-131.17999267578125,0.1119384765625,-0.1607666015625,0.791259765625,33.310001373291016,0.0,49.0,-0.0474090576171875,-0.01873779296875,Waiting,0.0,0.0,0.0,0.0,0.0,0.0,0.0,0.0,
2.2957779999999985,0.0,0.0,1702.0,0.0,787.5,0.0,0.0,0.25,4.2358394100000005,0.5533560492066917,0.0012207029999995456,1801.0,0.0,967.5,0.0,0.0,0.0,1.402587747,4.397316058113637,0.0,1646.0,0.0,795.0,0.0,0.0,0.0,4.339599165,4.40175868900686,0.0012207029999995456,1746.0,0.0,915.0,0.0,0.0,0.0,3.3654781710000004,0.5515167311543303,0.008544921000000372,-0.5199999809265137,0.7900000214576721,-133.4600067138672,0.03082275390625,0.10711669921875,1.24298095703125,33.310001373291016,0.0,-95.0,-0.0472869873046875,-0.018218994140625,Waiting,0.0,0.0,0.0,0.0,0.0,0.0,0.0,0.0,
2.337233999999997,0.0,0.0,1702.0,0.375,697.5,131.25,0.0,0.25,4.234618707,0.5533560492066917,-0.0012207029999995456,1801.0,0.125,840.0,131.25,0.0,0.0,1.4013670440000001,4.397316058113637,0.0,1646.0,0.0,712.5,131.25,0.0,0.0,4.3383784620000005,4.40175868900686,0.0,1852.0,1.0,742.5,131.25,0.0,0.0,3.3642574680000004,0.5515167311543303,0.0,-0.550000011920929,0.8700000047683716,-136.4600067138672,0.02313232421875,0.10443115234375,1.09954833984375,33.279998779296875,0.0,-83.0,-0.0477142333984375,-0.017547607421875,Waiting,0.0,0.0,0.0,0.0,0.0,0.0,0.0,0.0,
2.3765499999999955,0.0,0.0,1787.0,1.125,630.0,1263.28125,0.0,0.25,4.237060113,0.5533560492066917,0.0,1907.0,1.875,675.0,1263.28125,0.0,0.0,1.40380845,4.397316058113637,0.0,1740.0,1.25,592.5,1263.28125,0.0,0.0,4.3408198680000005,4.40175868900686,0.0,1852.0,1.375,667.5,1263.28125,0.0,0.0,3.3654781710000004,0.5515167311543303,0.0,-0.5199999809265137,1.0099999904632568,-138.02999877929688,-0.11871337890625,0.11138916015625,1.14111328125,33.279998779296875,0.0,21.0,-0.0484161376953125,-0.0173187255859375,Waiting,0.0,0.0,0.0,0.0,0.0,0.0,0.0,0.0,
2.4117330000000003,0.0,0.0,1787.0,1.375,487.5,1575.0,0.0,0.25,4.206542538,0.5533560492066917,0.0,1907.0,2.0,585.0,1575.0,0.0,0.0,1.402587747,4.397316058113637,0.0,1740.0,1.5,525.0,1575.0,0.0,0.0,4.339599165,4.40175868900686,0.0,1852.0,1.5,600.0,1575.0,0.0,0.0,3.3642574680000004,0.5515167311543303,0.0,-0.46000000834465027,0.9700000286102295,-138.8699951171875,0.00177001953125,-0.0028076171875,0.906494140625,33.279998779296875,0.0,7.0,-0.049346923828125,-0.0176239013671875,Waiting,0.0,0.0,0.0,0.0,0.0,0.0,0.0,0.0,
2.431898999999998,0.0,0.0,1787.0,1.75,450.0,1017.1875,0.0,0.25,4.234618707,0.5533560492066917,0.0,1907.0,1.625,517.5,1017.1875,0.0,0.0,1.402587747,4.397316058113637,0.0,1740.0,2.0,465.0,1017.1875,0.0,0.0,4.339599165,4.40175868900686,-0.0012207029999995456,1852.0,1.125,532.5,1017.1875,0.0,0.0,3.3654781710000004,0.5515167311543303,0.0,-0.4699999988079071,1.0199999809265137,-139.1999969482422,0.1427001953125,0.1004638671875,0.860595703125,33.279998779296875,0.0,-166.0,-0.0499420166015625,-0.0176239013671875,Waiting,0.0,0.0,0.0,0.0,0.0,0.0,0.0,0.0,
2.4575899999999966,0.0,0.0,1787.0,1.75,457.5,590.625,0.0,0.25,4.263915579,0.5533560492066917,0.0,1907.0,1.25,502.5,590.625,0.0,0.0,1.402587747,4.397316058113637,0.0,1740.0,1.5,442.5,590.625,0.0,0.0,4.353026898,4.40175868900686,0.0,1852.0,1.375,480.0,590.625,0.0,0.0,3.3654781710000004,0.5515167311543303,0.0,-0.28999999165534973,1.0700000524520874,-139.8300018310547,0.1373291015625,-0.06890869140625,1.137451171875,33.279998779296875,0.0,-48.0,-0.051727294921875,-0.0177764892578125,Waiting,0.0,0.0,0.0,0.0,0.0,0.0,0.0,0.0,
2.484034999999996,0.0,0.0,1854.0,1.5,480.0,0.0,0.0,0.25,4.2407222220000005,0.5533560492066917,0.0,1972.0,1.0,487.5,0.0,0.0,0.0,1.402587747,4.397316058113637,0.0,1797.0,1.125,435.0,0.0,0.0,0.0,4.3383784620000005,4.40175868900686,0.0,1914.0,0.75,412.5,0.0,0.0,0.0,3.3691402800000003,0.5515167311543303,0.0,-0.3799999952316284,1.1299999952316284,-140.60000610351562,0.03363037109375,0.0560302734375,0.84765625,33.279998779296875,0.0,-52.0,-0.05377197265625,-0.0178375244140625,Waiting,0.0,0.0,0.0,0.0,0.0,0.0,0.0,0.0,
2.512811999999998,0.0,0.0,1854.0,0.25,412.5,0.0,0.0,0.25,4.2382808160000005,0.5533560492066917,0.006103514999999504,1972.0,0.25,405.0,0.0,0.0,0.0,1.40380845,4.397316058113637,0.0,1797.0,0.125,367.5,0.0,0.0,0.0,4.3457026800000005,4.40175868900686,0.0,1914.0,0.125,367.5,0.0,0.0,0.0,3.3654781710000004,0.5515167311543303,0.0,-0.25999999046325684,1.059999942779541,-141.2899932861328,-0.01055908203125,-0.02691650390625,1.18194580078125,33.279998779296875,0.0,38.0,-0.055694580078125,-0.01788330078125,Waiting,0.0,0.0,0.0,0.0,0.0,0.0,0.0,0.0,
2.5382579999999946,0.0,0.0,1854.0,0.0,307.5,0.0,0.0,0.25,4.239501519,0.5533560492066917,0.006103514999999504,1972.0,0.0,300.0,0.0,0.0,0.0,1.402587747,4.397316058113637,0.0,1797.0,0.0,277.5,0.0,0.0,0.0,4.339599165,4.40175868900686,0.0,1914.0,0.0,292.5,0.0,0.0,0.0,3.3654781710000004,0.5515167311543303,0.0,-0.3799999952316284,1.0299999713897705,-141.58999633789062,-0.0635986328125,-0.00689697265625,0.85479736328125,33.279998779296875,0.0,62.0,-0.056549072265625,-0.0179290771484375,Waiting,0.0,0.0,0.0,0.0,0.0,0.0,0.0,0.0,
2.5630239999999977,0.0,0.0,1854.0,0.0,172.5,0.0,0.0,0.25,4.239501519,0.5533560492066917,-0.0012207029999995456,1972.0,0.0,172.5,0.0,0.0,0.0,1.40380845,4.397316058113637,0.0,1797.0,0.0,165.0,0.0,0.0,0.0,4.339599165,4.40175868900686,-0.0012207029999995456,1914.0,0.0,210.0,0.0,0.0,0.0,3.3642574680000004,0.5515167311543303,0.0,-0.3100000023841858,0.9399999976158142,-142.05999755859375,-0.0472412109375,0.008056640625,1.10467529296875,33.279998779296875,0.0,42.0,-0.0580902099609375,-0.0181121826171875,Waiting,0.0,0.0,0.0,0.0,0.0,0.0,0.0,0.0,
2.582767,0.0,0.0,1854.0,0.0,67.5,0.0,0.0,0.25,4.239501519,0.5533560492066917,-0.0012207029999995456,1972.0,0.0,75.0,0.0,0.0,0.0,1.402587747,4.397316058113637,0.0,1797.0,0.0,67.5,0.0,0.0,0.0,4.339599165,4.40175868900686,-0.0012207029999995456,1914.0,0.0,127.5,0.0,0.0,0.0,3.3642574680000004,0.5515167311543303,0.0,-0.2199999988079071,0.8100000023841858,-142.22000122070312,0.027587890625,0.05755615234375,1.57666015625,33.279998779296875,0.0,-43.0,-0.058837890625,-0.0182952880859375,Waiting,0.0,0.0,0.0,0.0,0.0,0.0,0.0,0.0,
2.6085729999999967,0.0,0.0,1854.0,0.0,7.5,0.0,0.0,0.25,4.239501519,0.5533560492066917,0.0,1976.0,0.0,22.5,0.0,0.0,0.0,1.4013670440000001,4.397316058113637,0.0,1802.0,0.0,22.5,0.0,0.0,0.0,4.3383784620000005,4.40175868900686,0.0,1917.0,0.0,15.0,0.0,0.0,0.0,3.3642574680000004,0.5515167311543303,0.0,-0.3199999928474426,1.0,-142.3300018310547,0.0521240234375,0.0174560546875,0.56475830078125,33.279998779296875,0.0,-46.0,-0.0605316162109375,-0.0185089111328125,Waiting,0.0,0.0,0.0,0.0,0.0,0.0,0.0,0.0,
2.6339349999999975,0.0,0.0,1854.0,0.0,0.0,0.0,0.0,0.25,4.239501519,0.5533560492066917,0.0,1976.0,0.0,22.5,0.0,0.0,0.0,1.402587747,4.397316058113637,0.0,1802.0,0.0,30.0,0.0,0.0,0.0,4.339599165,4.40175868900686,0.0,1917.0,0.0,7.5,0.0,0.0,0.0,3.3642574680000004,0.5515167311543303,0.0,-0.18000000715255737,1.0499999523162842,-142.07000732421875,0.0216064453125,-0.0198974609375,0.8128662109375,33.279998779296875,0.0,5.0,-0.064727783203125,-0.0186614990234375,Waiting,0.0,0.0,0.0,0.0,0.0,0.0,0.0,0.0,
2.6854259999999996,0.0,0.0,1854.0,0.0,0.0,623.4375,0.0,0.25,4.239501519,0.5533560492066917,0.0,1976.0,0.0,22.5,623.4375,0.0,0.0,1.402587747,4.397316058113637,0.0,1802.0,0.0,30.0,623.4375,0.0,0.0,4.351806195,4.40175868900686,-0.0012207029999995456,1917.0,0.25,7.5,623.4375,0.0,0.0,3.3642574680000004,0.5515167311543303,0.0,-0.09000000357627869,1.0199999809265137,-141.88999938964844,-0.0367431640625,0.02239990234375,1.2791748046875,33.279998779296875,0.0,31.0,-0.0670928955078125,-0.0188140869140625,Waiting,0.0,0.0,0.0,0.0,0.0,0.0,0.0,0.0,
2.727880999999994,0.0,0.0,1869.0,1.0,15.0,1771.875,0.0,0.25,4.244384331,0.5533560492066917,0.0024414059999999793,1992.0,0.875,37.5,1771.875,0.0,0.0,1.3989256380000001,4.397316058113637,0.0,1811.0,1.0,15.0,1771.875,0.0,0.0,4.3408198680000005,4.40175868900686,0.0,1926.0,0.75,15.0,1771.875,0.0,0.0,3.3605953590000004,0.5515167311543303,0.0,-0.12999999523162842,1.059999942779541,-141.7100067138672,0.01910400390625,-0.0093994140625,0.7523193359375,33.279998779296875,0.0,0.0,-0.0682525634765625,-0.0189666748046875,Waiting,0.0,0.0,0.0,0.0,0.0,0.0,0.0,0.0,
2.747985999999997,0.0,0.0,1869.0,5.25,67.5,1968.7499999999998,0.0,0.25,4.244384331,0.5533560492066917,0.0024414059999999793,1992.0,5.125,67.5,1968.7499999999998,0.0,0.0,1.405029153,4.397316058113637,0.0,1811.0,5.375,45.0,1968.7499999999998,0.0,0.0,4.3408198680000005,4.40175868900686,0.0,1926.0,3.625,45.0,1968.7499999999998,0.0,0.0,3.3703609830000003,0.5515167311543303,0.0,-0.05999999865889549,0.9900000095367432,-141.63999938964844,-0.13555908203125,0.048095703125,0.96240234375,33.279998779296875,0.0,88.0,-0.0681915283203125,-0.0190582275390625,Waiting,0.0,0.0,0.0,0.0,0.0,0.0,0.0,0.0,
2.770606,0.0,0.0,1869.0,11.375,157.5,1837.5,0.0,0.125,4.2431636280000005,0.5533560492066917,0.0,1992.0,11.875,105.0,1837.5,0.0,0.0,1.402587747,4.397316058113637,0.0,1811.0,11.375,172.5,1837.5,0.0,0.0,4.342040571,4.40175868900686,0.0,1926.0,17.25,165.0,1837.5,0.0,0.0,3.3703609830000003,0.5515167311543303,0.003662108999999969,-0.05999999865889549,0.9900000095367432,-141.63999938964844,-0.13555908203125,0.048095703125,0.96240234375,33.279998779296875,0.0,88.0,-0.0681915283203125,-0.0190582275390625,Waiting,0.0,0.0,0.0,0.0,0.0,0.0,0.0,0.0,
2.799404999999999,0.0,0.0,1869.0,17.75,255.0,1099.21875,0.0,0.125,4.246825737,0.5533560492066917,-0.0012207029999995456,1992.0,21.625,180.0,1099.21875,0.0,0.0,1.40380845,4.397316058113637,0.0,1811.0,19.875,240.0,1099.21875,0.0,0.0,4.3408198680000005,4.40175868900686,0.0,1926.0,21.625,232.5,1099.21875,0.0,0.0,3.3703609830000003,0.5515167311543303,0.0,-0.05999999865889549,0.9900000095367432,-141.63999938964844,-0.13555908203125,0.048095703125,0.96240234375,33.279998779296875,0.0,88.0,-0.0681915283203125,-0.0190582275390625,Waiting,0.0,0.0,0.0,0.0,0.0,0.0,0.0,0.0,
2.8263489999999947,0.0,0.0,1869.0,16.625,412.5,853.125,0.0,0.125,4.245605034,0.5533560492066917,0.0012207029999995456,1992.0,18.375,232.5,853.125,0.0,0.0,1.40380845,4.397316058113637,-0.0012207029999995456,1811.0,16.0,315.0,853.125,0.0,0.0,4.3408198680000005,4.40175868900686,0.0012207029999995456,1926.0,19.125,307.5,853.125,0.0,0.0,3.3703609830000003,0.5515167311543303,-0.0012207029999999897,-0.15000000596046448,0.8500000238418579,-144.5800018310547,-0.04058837890625,0.00701904296875,0.8424072265625,33.279998779296875,0.0,37.0,-0.0671844482421875,-0.019439697265625,Waiting,0.0,0.0,0.0,0.0,0.0,0.0,0.0,0.0,
2.849394999999997,0.0,0.0,1949.0,11.0,457.5,459.375,0.0,0.125,4.255370658,0.5533560492066917,0.0,2049.0,13.125,292.5,459.375,0.0,0.0,1.3977049350000001,4.397316058113637,0.0012207029999995456,1884.0,10.75,382.5,459.375,0.0,0.0,4.339599165,4.40175868900686,0.0,1996.0,7.75,435.0,459.375,0.0,0.0,3.3703609830000003,0.5515167311543303,0.0,-0.05999999865889549,0.6700000166893005,-146.47999572753906,-0.06597900390625,-0.0538330078125,1.1402587890625,33.27000045776367,0.0,95.0,-0.066314697265625,-0.02008056640625,Waiting,0.0,0.0,0.0,0.0,0.0,0.0,0.0,0.0,
2.8915339999999996,0.0,0.0,1949.0,3.0,510.0,0.0,0.0,0.125,4.2431636280000005,0.5533560492066917,0.0,2049.0,4.0,472.5,0.0,0.0,0.0,1.402587747,4.397316058113637,0.0,1884.0,3.375,502.5,0.0,0.0,0.0,4.3383784620000005,4.40175868900686,0.0,1996.0,4.125,495.0,0.0,0.0,0.0,3.3703609830000003,0.5515167311543303,0.0,-0.10000000149011612,0.6100000143051147,-147.49000549316406,-0.05096435546875,0.044677734375,1.17547607421875,33.27000045776367,0.0,28.0,-0.0657501220703125,-0.020965576171875,Waiting,0.0,0.0,0.0,0.0,0.0,0.0,0.0,0.0,
2.914786,0.0,0.0,1949.0,1.0,540.0,0.0,0.0,0.125,4.245605034,0.5533560492066917,0.0,2049.0,1.625,555.0,0.0,0.0,0.0,1.40380845,4.397316058113637,-0.0012207029999995456,1884.0,1.125,562.5,0.0,0.0,0.0,4.3408198680000005,4.40175868900686,0.0,1996.0,2.125,547.5,0.0,0.0,0.0,3.3691402800000003,0.5515167311543303,0.0,-0.07999999821186066,0.6200000047683716,-149.47999572753906,0.09649658203125,-0.03643798828125,0.9161376953125,33.27000045776367,0.0,-56.0,-0.064697265625,-0.021392822265625,Waiting,0.0,0.0,0.0,0.0,0.0,0.0,0.0,0.0,
2.934734999999993,0.0,0.0,1949.0,0.5,555.0,0.0,0.0,0.125,4.244384331,0.5533560492066917,0.0,2049.0,0.5,592.5,0.0,0.0,0.0,1.402587747,4.397316058113637,-0.0012207029999995456,1884.0,0.375,577.5,0.0,0.0,0.0,4.339599165,4.40175868900686,0.0,1996.0,0.75,570.0,0.0,0.0,0.0,3.3703609830000003,0.5515167311543303,0.0,-0.019999999552965164,0.6299999952316284,-151.4199981689453,-0.01251220703125,0.0728759765625,1.06549072265625,33.27000045776367,0.0,-13.0,-0.063873291015625,-0.0222320556640625,Waiting,0.0,0.0,0.0,0.0,0.0,0.0,0.0,0.0,
2.9554129999999934,0.0,0.0,1949.0,0.125,532.5,0.0,0.0,0.125,4.245605034,0.5533560492066917,0.0,2126.0,0.0,577.5,0.0,0.0,0.0,1.402587747,4.397316058113637,0.0012207029999995456,1948.0,0.0,547.5,0.0,0.0,0.0,4.3383784620000005,4.40175868900686,0.0012207029999995456,2067.0,0.0,465.0,0.0,0.0,0.0,3.3691402800000003,0.5515167311543303,0.0,-0.019999999552965164,0.6000000238418579,-152.3300018310547,0.0411376953125,0.052490234375,0.99456787109375,33.27000045776367,0.0,-51.0,-0.0635223388671875,-0.02276611328125,Waiting,0.0,0.0,0.0,0.0,0.0,0.0,0.0,0.0,
2.9871709999999947,0.0,0.0,2012.0,0.0,457.5,0.0,0.0,0.125,4.244384331,0.5533560492066917,0.0,2126.0,0.0,532.5,0.0,0.0,0.0,1.4013670440000001,4.397316058113637,0.0012207029999995456,1948.0,0.0,465.0,0.0,0.0,0.0,4.3408198680000005,4.40175868900686,0.0012207029999995456,2067.0,0.0,465.0,0.0,0.0,0.0,3.3691402800000003,0.5515167311543303,0.0,0.029999999329447746,0.6100000143051147,-153.9499969482422,-0.13067626953125,-0.12860107421875,0.78399658203125,33.27000045776367,0.0,181.0,-0.0627899169921875,-0.0240325927734375,Waiting,0.0,0.0,0.0,0.0,0.0,0.0,0.0,0.0,
3.0145559999999967,0.0,0.0,2012.0,0.0,375.0,0.0,0.0,0.125,4.244384331,0.5533560492066917,0.0,2126.0,0.0,405.0,0.0,0.0,0.0,1.402587747,4.397316058113637,0.0,1948.0,0.0,322.5,0.0,0.0,0.0,4.3408198680000005,4.40175868900686,0.0,2067.0,0.0,405.0,0.0,0.0,0.0,3.3691402800000003,0.5515167311543303,0.0,-0.09000000357627869,0.6100000143051147,-155.11000061035156,-0.05645751953125,-0.0732421875,0.782470703125,33.27000045776367,0.0,89.0,-0.061737060546875,-0.0253448486328125,Waiting,0.0,0.0,0.0,0.0,0.0,0.0,0.0,0.0,
3.0340499999999957,0.0,0.0,2012.0,0.0,307.5,0.0,0.0,0.125,4.244384331,0.5533560492066917,0.0,2126.0,0.0,375.0,0.0,0.0,0.0,1.402587747,4.397316058113637,0.0,1948.0,0.0,300.0,0.0,0.0,0.0,4.346923383,4.40175868900686,0.0,2067.0,0.0,405.0,0.0,0.0,0.0,3.3691402800000003,0.5515167311543303,0.0,-0.07999999821186066,0.7200000286102295,-155.6199951171875,0.09649658203125,-0.0201416015625,0.73455810546875,33.27000045776367,0.0,-71.0,-0.061187744140625,-0.02593994140625,Waiting,0.0,0.0,0.0,0.0,0.0,0.0,0.0,0.0,
