Time,ClimberA1,ClimberA2,FRpos,FRCurrent,FRspeed,FRsetpoint,FRApos,FRACurrent,FREncpos,FREncSetpoint,FREncSpeed,FLpos,FLCurrent,FLspeed,FLsetpoint,FLApos,FLACurrent,FLEncpos,FLEncSetpoint,FLEncSpeed,BRpos,BRCurrent,BRspeed,BRsetpoint,BRApos,BRACurrent,BREncpos,BREncSetpoint,BREncSpeed,BLpos,BLCurrent,BLspeed,BLsetpoint,BLApos,BLACurrent,BLEncpos,BLEncSetpoint,BLEncSpeed,navx_Pitch,navx_Roll,navx_Yaw,navx_XAcc,navx_YAcc,navx_ZAcc,navx_Temp,navx_Bar,navx_Alt,navx_XDis,navx_YDis,GearPlacerState,ShootOutputV,ShootOutputCurrent,ShootEncPos,ShootEncVelocity,ShootSpeed,ShootSetpoint,CarouselSetpoint,CarouselCurrent,
0.11295900000003166,0.0,0.0,-28462.0,0.0,0.0,0.0,0.0,0.125,4.366454631,0.5533560492066895,0.0,21741.0,0.0,0.0,0.0,0.0,0.0,1.407470559,4.397316058113635,0.0,-16279.0,0.0,0.0,0.0,0.0,0.0,1.877441214,1.9247586890068615,0.0,32793.0,0.0,0.0,0.0,0.0,0.0,3.409423479,0.5515167311543325,0.0,1.6799999475479126,-0.44999998807907104,0.0,-0.0086669921875,0.03143310546875,0.99847412109375,34.25,0.0,0.0,-1.3259735107421875,-0.8572235107421875,Waiting,0.0,0.0,0.0,0.0,0.0,0.0,0.0,0.0,
0.17143600000004516,0.0,0.0,-28462.0,0.0,0.0,0.0,0.0,0.125,4.367675334,0.5533560492066895,0.0,21741.0,0.0,0.0,0.0,0.0,0.0,1.408691262,4.397316058113635,0.0,-16279.0,0.0,0.0,0.0,0.0,0.0,1.877441214,1.9247586890068615,0.0,32793.0,0.0,0.0,0.0,0.0,0.0,3.408202776,0.5515167311543325,0.0,1.6799999475479126,-0.44999998807907104,0.0,-0.00799560546875,0.03033447265625,1.001220703125,34.25,0.0,0.0,-1.3259735107421875,-0.8572235107421875,Waiting,0.0,0.0,0.0,0.0,0.0,0.0,0.0,0.0,
0.23037300000002142,0.0,0.0,-28462.0,0.0,0.0,0.0,0.0,0.125,4.367675334,0.5533560492066895,0.0,21741.0,0.0,0.0,0.0,0.0,0.0,1.407470559,4.397316058113635,0.0,-16279.0,0.0,0.0,0.0,0.0,0.0,1.876220511,1.9247586890068615,0.0,32793.0,0.0,0.0,0.0,0.0,0.0,3.408202776,0.5515167311543325,0.0,1.6799999475479126,-0.44999998807907104,0.0,-0.0079345703125,0.0289306640625,0.99951171875,34.25,0.0,0.0,-1.3259735107421875,-0.8572235107421875,Waiting,0.0,0.0,0.0,0.0,0.0,0.0,0.0,0.0,
0.29058699999999954,0.0,0.0,-28462.0,0.0,0.0,0.0,0.0,0.125,4.367675334,0.5533560492066895,0.0,21741.0,0.0,0.0,0.0,0.0,0.0,1.407470559,4.397316058113635,0.0,-16279.0,0.0,0.0,0.0,0.0,0.0,1.877441214,1.9247586890068615,0.0,32793.0,0.0,0.0,0.0,0.0,0.0,3.409423479,0.5515167311543325,0.0,1.6799999475479126,-0.4399999976158142,0.0,-0.0062255859375,0.0303955078125,0.99835205078125,34.25,0.0,1.0,-1.3259735107421875,-0.8572235107421875,Waiting,0.0,0.0,0.0,0.0,0.0,0.0,0.0,0.0,
0.3508510000000242,0.0,0.0,-28462.0,0.0,0.0,0.0,0.0,0.125,4.367675334,0.5533560492066895,0.0,21741.0,0.0,0.0,0.0,0.0,0.0,1.407470559,4.397316058113635,0.0,-16279.0,0.0,0.0,0.0,0.0,0.0,1.877441214,1.9247586890068615,0.0,32793.0,0.0,0.0,0.0,0.0,0.0,3.409423479,0.5515167311543325,0.0,1.6799999475479126,-0.4399999976158142,0.0,-0.00823974609375,0.0311279296875,0.99951171875,34.25,0.0,0.0,-1.3259735107421875,-0.8572235107421875,Waiting,0.0,0.0,0.0,0.0,0.0,0.0,0.0,0.0,
0.41277100000000794,0.0,0.0,-28462.0,0.0,0.0,0.0,0.0,0.125,4.366454631,0.5533560492066895,0.0,21741.0,0.0,0.0,0.0,0.0,0.0,1.407470559,4.397316058113635,0.0,-16279.0,0.0,0.0,0.0,0.0,0.0,1.878661917,1.9247586890068615,0.0,32793.0,0.0,0.0,0.0,0.0,0.0,3.409423479,0.5515167311543325,0.0,1.690000057220459,-0.4399999976158142,0.0,-0.00830078125,0.02923583984375,1.00042724609375,34.25,0.0,0.0,-1.3259735107421875,-0.8572235107421875,Waiting,0.0,0.0,0.0,0.0,0.0,0.0,0.0,0.0,
0.47726699999999256,0.0,0.0,-28462.0,0.0,0.0,0.0,0.0,0.125,4.367675334,0.5533560492066895,0.0,21741.0,0.0,0.0,0.0,0.0,0.0,1.407470559,4.397316058113635,0.0,-16279.0,0.0,0.0,0.0,0.0,0.0,1.876220511,1.9247586890068615,0.0,32793.0,0.0,0.0,0.0,0.0,0.0,3.408202776,0.5515167311543325,0.0,1.690000057220459,-0.4399999976158142,0.0,-0.00750732421875,0.0303955078125,0.99957275390625,34.25,0.0,0.0,-1.3259735107421875,-0.8572235107421875,Waiting,0.0,0.0,0.0,0.0,0.0,0.0,0.0,0.0,
0.5421460000000079,0.0,0.0,-28462.0,0.0,0.0,0.0,0.0,0.125,4.366454631,0.5533560492066895,0.0,21741.0,0.0,0.0,0.0,0.0,0.0,1.407470559,4.397316058113635,0.0,-16279.0,0.0,0.0,0.0,0.0,0.0,1.877441214,1.9247586890068615,0.0,32793.0,0.0,0.0,0.0,0.0,0.0,3.408202776,0.5515167311543325,0.0,1.7000000476837158,-0.4300000071525574,0.0,-0.0068359375,0.02923583984375,0.99835205078125,34.25,0.0,0.0,-1.3259735107421875,-0.8572235107421875,Waiting,0.0,0.0,0.0,0.0,0.0,0.0,0.0,0.0,
0.6065730000000331,0.0,0.0,-28462.0,0.0,0.0,0.0,0.0,0.125,4.367675334,0.5533560492066895,0.0,21741.0,0.0,0.0,0.0,0.0,0.0,1.407470559,4.397316058113635,0.0,-16279.0,0.0,0.0,0.0,0.0,0.0,1.877441214,1.9247586890068615,0.0,32793.0,0.0,0.0,0.0,0.0,0.0,3.408202776,0.5515167311543325,0.0,1.7000000476837158,-0.4300000071525574,0.0,-0.00665283203125,0.0294189453125,0.99920654296875,34.25,0.0,0.0,-1.3259735107421875,-0.8572235107421875,Waiting,0.0,0.0,0.0,0.0,0.0,0.0,0.0,0.0,
0.6696370000000461,0.0,0.0,-28462.0,0.0,0.0,0.0,0.0,0.125,4.367675334,0.5533560492066895,0.0,21741.0,0.0,0.0,0.0,0.0,0.0,1.407470559,4.397316058113635,0.0,-16279.0,0.0,0.0,0.0,0.0,0.0,1.877441214,1.9247586890068615,0.0,32793.0,0.0,0.0,0.0,0.0,0.0,3.408202776,0.5515167311543325,0.0,1.7100000381469727,-0.4300000071525574,0.0,-0.00579833984375,0.02899169921875,1.000732421875,34.25,0.0,1.0,-1.3259735107421875,-0.8572235107421875,Waiting,0.0,0.0,0.0,0.0,0.0,0.0,0.0,0.0,
0.7330329999999958,0.0,0.0,-28462.0,0.0,0.0,0.0,0.0,0.125,4.367675334,0.5533560492066895,0.0,21741.0,0.0,0.0,0.0,0.0,0.0,1.407470559,4.397316058113635,0.0,-16279.0,0.0,0.0,0.0,0.0,0.0,1.877441214,1.9247586890068615,0.0,32793.0,0.0,0.0,0.0,0.0,0.0,3.409423479,0.5515167311543325,0.0,1.7100000381469727,-0.41999998688697815,0.0,-0.005615234375,0.031494140625,1.0040283203125,34.25,0.0,1.0,-1.3259735107421875,-0.8572235107421875,Waiting,0.0,0.0,0.0,0.0,0.0,0.0,0.0,0.0,
0.8026750000000465,0.0,0.0,-28462.0,0.0,0.0,0.0,0.0,0.125,4.367675334,0.5533560492066895,0.0,21741.0,0.0,0.0,0.0,0.0,0.0,1.407470559,4.397316058113635,0.0,-16279.0,0.0,0.0,0.0,0.0,0.0,1.877441214,1.9247586890068615,0.0,32793.0,0.0,0.0,0.0,0.0,0.0,3.4143062910000004,0.5515167311543325,0.0,1.7100000381469727,-0.41999998688697815,0.0,-0.00946044921875,0.03326416015625,0.998779296875,34.27000045776367,0.0,-2.0,-1.3259735107421875,-0.8572235107421875,Waiting,0.0,0.0,0.0,0.0,0.0,0.0,0.0,0.0,
0.871689000000013,0.0,0.0,-28462.0,0.0,0.0,0.0,0.0,0.125,4.366454631,0.5533560492066895,0.0,21741.0,0.0,0.0,0.0,0.0,0.0,1.407470559,4.397316058113635,0.0,-16279.0,0.0,0.0,0.0,0.0,0.0,1.877441214,1.9247586890068615,0.0,32793.0,0.0,0.0,0.0,0.0,0.0,3.409423479,0.5515167311543325,0.0,1.7100000381469727,-0.41999998688697815,0.0,-0.00775146484375,0.03125,1.00152587890625,34.27000045776367,0.0,0.0,-1.3259735107421875,-0.8572235107421875,Waiting,0.0,0.0,0.0,0.0,0.0,0.0,0.0,0.0,
0.9359740000000456,0.0,0.0,-28462.0,0.0,0.0,0.0,0.0,0.125,4.366454631,0.5533560492066895,0.0,21741.0,0.0,0.0,0.0,0.0,0.0,1.407470559,4.397316058113635,0.0,-16279.0,0.0,0.0,0.0,0.0,0.0,1.877441214,1.9247586890068615,0.0,32793.0,0.0,0.0,0.0,0.0,0.0,3.408202776,0.5515167311543325,0.0,1.7200000286102295,-0.4099999964237213,0.0,-0.00634765625,0.02972412109375,0.997802734375,34.27000045776367,0.0,0.0,-1.3259735107421875,-0.8572235107421875,Waiting,0.0,0.0,0.0,0.0,0.0,0.0,0.0,0.0,
1.006164000000048,0.0,0.0,-28462.0,0.0,0.0,0.0,0.0,0.125,4.366454631,0.5533560492066895,0.0,21741.0,0.0,0.0,0.0,0.0,0.0,1.407470559,4.397316058113635,0.0,-16279.0,0.0,0.0,0.0,0.0,0.0,1.877441214,1.9247586890068615,0.0,32793.0,0.0,0.0,0.0,0.0,0.0,3.409423479,0.5515167311543325,0.0,1.7200000286102295,-0.4099999964237213,0.0,-0.0096435546875,0.03057861328125,0.99884033203125,34.27000045776367,0.0,-2.0,-1.3259735107421875,-0.8572235107421875,Waiting,0.0,0.0,0.0,0.0,0.0,0.0,0.0,0.0,
1.074594000000041,0.0,0.0,-28462.0,0.0,0.0,0.0,0.0,0.125,4.367675334,0.5533560492066895,0.0,21741.0,0.0,0.0,0.0,0.0,0.0,1.407470559,4.397316058113635,0.0,-16279.0,0.0,0.0,0.0,0.0,0.0,1.877441214,1.9247586890068615,0.0,32793.0,0.0,0.0,0.0,0.0,0.0,3.409423479,0.5515167311543325,0.0,1.7200000286102295,-0.4099999964237213,0.0,-0.00775146484375,0.0311279296875,0.99652099609375,34.27000045776367,0.0,0.0,-1.3259735107421875,-0.8572235107421875,Waiting,0.0,0.0,0.0,0.0,0.0,0.0,0.0,0.0,
1.1449729999999982,0.0,0.0,-28462.0,0.125,0.0,-132.28346407413483,0.0,0.625,4.302978075,4.963999999999999,0.0,21741.0,0.125,0.0,132.28346407413483,0.0,1.625,1.4514158670000001,4.948999999999997,0.0,-16279.0,0.0,0.0,132.28346407413483,0.0,1.875,1.960449018,2.4770000000000025,0.0,32793.0,0.0,0.0,132.28346407413483,0.0,2.25,3.330077784,2.343606790115397E-15,0.0,1.7200000286102295,-0.41999998688697815,0.0,-0.00555419921875,0.03143310546875,1.004638671875,34.27000045776367,0.0,1.0,-1.3259735107421875,-0.8572235107421875,Waiting,0.0,0.0,0.0,0.0,0.0,0.0,0.0,0.0,
1.2120190000000293,0.0,0.0,-28467.0,5.25,-60.0,-1265.9058860970065,0.0,0.375,4.1284175460000005,0.3293683096900313,0.0,21741.0,8.5,7.5,1265.9058860970065,0.0,3.125,1.7858884890000002,0.32837303881062946,0.0,-16276.0,5.375,60.0,1265.9058860970065,0.0,1.375,2.346191166,2.8057047957704295,0.0,32793.0,3.25,37.5,1265.9058860970065,0.0,0.375,3.195800454,0.32827351172268926,0.0,1.7400000095367432,-0.4699999988079071,-0.05000000074505806,-0.30340576171875,-0.20098876953125,0.99029541015625,34.27000045776367,0.0,-294.0,-1.326812744140625,-0.85675048828125,Waiting,0.0,0.0,0.0,0.0,0.0,0.0,0.0,0.0,
1.285380999999994,0.0,0.0,-28467.0,16.375,-232.5,-1676.6961764325015,0.0,0.25,4.134521061,0.5092637609920235,0.0,21741.0,23.5,67.5,1676.6961764325015,0.0,3.125,2.1118161900000003,0.5077248898367293,0.0,-16276.0,16.5,240.0,1676.6961764325015,0.0,0.625,2.716064175,2.9852378468884946,0.0,32793.0,16.625,285.0,1676.6961764325015,0.0,0.0,3.18603483,0.5075710027211998,0.0,1.5700000524520874,-1.6100000143051147,0.019999999552965164,-0.2896728515625,-0.19952392578125,1.44146728515625,34.279998779296875,0.0,-248.0,-1.3351898193359375,-0.85687255859375,Waiting,0.0,0.0,0.0,0.0,0.0,0.0,0.0,0.0,
1.3505350000000327,0.0,0.0,-28522.0,27.125,-330.0,-2128.1301978609554,0.0,0.25,4.1406245760000004,0.6120943168482751,0.0,21776.0,43.375,352.5,2128.1301978609554,0.0,1.375,2.360839602,0.6102447167772185,0.0,-16213.0,28.125,457.5,2128.1301978609554,0.0,0.0,2.9431149330000004,3.0878612501342375,0.0,32851.0,26.625,397.5,2128.1301978609554,0.0,0.25,3.19824186,0.6100597567701129,0.0,0.949999988079071,-2.3399999141693115,-0.09000000357627869,-0.403076171875,-0.31060791015625,1.06396484375,34.279998779296875,0.0,-358.0,-1.34869384765625,-0.8623046875,Waiting,0.0,0.0,0.0,0.0,0.0,0.0,0.0,0.0,
1.4277960000000312,0.0,0.0,-28663.0,36.625,-727.5,-2292.171260064556,0.0,0.25,4.24804644,0.6023105417657009,0.0,21882.0,50.25,622.5,2292.171260064556,0.0,0.75,2.510986071,0.6004905058820413,0.0,-16061.0,31.125,817.5,2292.171260064556,0.0,0.125,3.0554196090000003,3.078097184509928,0.0,32994.0,34.0,765.0,2292.171260064556,0.0,0.5,3.2641598220000003,0.6003085022936754,0.0,0.09000000357627869,-3.2100000381469727,-0.20000000298023224,-0.337646484375,-0.28009033203125,1.21002197265625,34.279998779296875,0.0,-268.0,-1.3746795654296875,-0.8770751953125,Waiting,0.0,0.0,0.0,0.0,0.0,0.0,0.0,0.0,
1.491399000000034,0.0,0.0,-28663.0,33.5,-1147.5,-2292.171260064556,0.0,0.25,4.37011674,0.6023105417657009,0.0,21882.0,54.125,840.0,2292.171260064556,0.0,0.5,2.520751695,0.6004905058820413,0.0,-16061.0,29.875,1185.0,2292.171260064556,0.0,0.0,3.0590817180000003,3.078097184509928,0.0,32994.0,35.125,1185.0,2292.171260064556,0.0,0.5,3.288573882,0.6003085022936754,0.0,-0.8299999833106995,-3.819999933242798,0.3100000023841858,-0.38873291015625,-0.1182861328125,1.206787109375,34.279998779296875,0.0,-307.0,-1.40753173828125,-0.9003448486328125,Waiting,0.0,0.0,0.0,0.0,0.0,0.0,0.0,0.0,
1.5602850000000326,0.0,0.0,-28920.0,28.5,-1642.5,-2338.4633178875033,0.0,0.125,4.381103067000001,0.6247745555884293,0.0,22076.0,47.0,1275.0,2338.4633178875033,0.0,0.0,2.518310289,0.6228866389216632,0.0,-15818.0,27.75,1530.0,2338.4633178875033,0.0,0.0,3.0517575000000003,3.1005159444772517,0.0,33219.0,34.25,1425.0,2338.4633178875033,0.0,0.5,3.286132476,0.6226978472549867,0.0,-1.309999942779541,-4.429999828338623,0.9900000095367432,-0.21002197265625,-0.21112060546875,1.05963134765625,34.279998779296875,0.0,-130.0,-1.4466552734375,-0.9304962158203125,Waiting,0.0,0.0,0.0,0.0,0.0,0.0,0.0,0.0,
1.63219100000005,0.0,0.0,-28920.0,22.625,-1890.0,-2283.626493040986,0.0,0.125,4.3957515030000005,0.6786704461724798,0.0,22076.0,43.625,1387.5,2283.626493040986,0.0,0.0,2.524413804,0.6766196692400488,0.0,-15818.0,24.625,1792.5,2283.626493040986,0.0,0.0,3.0529782030000003,3.1543032615508593,0.0,33219.0,29.875,1710.0,2283.626493040986,0.0,0.5,3.302001615,0.6764145915468057,0.0,-1.7000000476837158,-4.809999942779541,1.4199999570846558,-0.280517578125,-0.197509765625,1.4228515625,34.279998779296875,0.0,-163.0,-1.4822998046875,-0.957916259765625,Waiting,0.0,0.0,0.0,0.0,0.0,0.0,0.0,0.0,
1.6975630000000237,0.0,0.0,-29249.0,19.125,-2085.0,-2283.626493040986,0.0,0.125,4.401855018,0.6857027793743121,0.0,22293.0,42.0,1252.5,2283.626493040986,0.0,0.125,2.5390622400000002,0.6836307524422784,0.0,-15500.0,20.375,2017.5,2283.626493040986,0.0,0.0,3.0529782030000003,3.1613214280862896,0.0,33530.0,24.25,1980.0,2283.626493040986,0.0,0.5,3.350829735,0.683423549749075,0.0,-2.3299999237060547,-4.929999828338623,1.7899999618530273,-0.0611572265625,-0.09130859375,0.76300048828125,34.279998779296875,0.0,2.0,-1.532440185546875,-0.9946746826171875,Waiting,0.0,0.0,0.0,0.0,0.0,0.0,0.0,0.0,
1.7724530000000378,0.0,0.0,-29249.0,14.875,-2302.5,-2283.626493040986,0.0,0.125,4.417724157,0.6897015566260856,0.0,22509.0,40.0,1132.5,2283.626493040986,0.0,0.125,2.558593488,0.6876174463623079,0.0,-15136.0,16.375,2220.0,2283.626493040986,0.0,0.0,3.068847342,3.165312149783567,0.0,33898.0,18.375,2235.0,2283.626493040986,0.0,0.5,3.4130855880000004,0.6874090353359302,0.0,-2.9000000953674316,-5.0,2.119999885559082,-0.01776123046875,-0.16448974609375,0.074462890625,34.279998779296875,0.0,-17.0,-1.5845947265625,-1.032470703125,Waiting,0.0,0.0,0.0,0.0,0.0,0.0,0.0,0.0,
1.8414780000000028,0.0,0.0,-29627.0,11.375,-2445.0,-2283.626493040986,0.0,0.125,4.440917514000001,0.6942518889074101,0.0,22509.0,38.875,1642.5,2283.626493040986,0.0,0.0,2.5793454390000004,0.6921540286468114,0.0,-15136.0,13.25,2362.5,2283.626493040986,0.0,0.0,3.0541989060000003,3.1698533154003443,0.0,33898.0,15.0,2362.5,2283.626493040986,0.0,0.25,3.463134411,0.6919442426207516,0.0,-3.069999933242798,-5.130000114440918,2.430000066757202,-0.08203125,-0.08575439453125,0.5679931640625,34.189998626708984,0.0,-33.0,-1.58465576171875,-1.0621490478515625,Waiting,0.0,0.0,0.0,0.0,0.0,0.0,0.0,0.0,
1.908628000000026,0.0,0.0,-30042.0,8.125,-2565.0,-2283.626493040986,0.0,0.125,4.449462435,0.699491668263201,0.0,22866.0,37.75,2085.0,2283.626493040986,0.0,0.0,2.5891110630000003,0.6973779746645007,0.0,-14734.0,10.25,2482.5,2283.626493040986,0.0,0.0,3.0627438270000003,3.1750825391974007,0.0,34295.0,11.25,2490.0,2283.626493040986,0.0,0.0,3.492431283,0.6971666053046306,0.0,-3.3299999237060547,-4.909999847412109,2.880000114440918,-0.05780029296875,0.0789794921875,0.64727783203125,34.189998626708984,0.0,3.0,-1.5838623046875,-1.10113525390625,Waiting,0.0,0.0,0.0,0.0,0.0,0.0,0.0,0.0,
1.9816620000000111,0.0,0.0,-30042.0,5.375,-2647.5,-2283.626493040986,0.0,0.125,4.454345247,0.7047314476189911,0.0,22866.0,37.25,2520.0,2283.626493040986,0.0,0.0,2.5927731720000002,0.7026019206821891,0.0,-14734.0,6.5,2587.5,2283.626493040986,0.0,0.0,3.081054372,3.1803117629944566,0.0,34295.0,8.5,2565.0,2283.626493040986,0.0,0.0,3.509521125,0.7023889679885089,0.0,-3.4800000190734863,-4.829999923706055,3.450000047683716,-0.15814208984375,0.02679443359375,0.645263671875,34.189998626708984,0.0,-98.0,-1.5841064453125,-1.1407012939453125,Waiting,0.0,0.0,0.0,0.0,0.0,0.0,0.0,0.0,
2.0478030000000143,0.0,0.0,-30478.0,2.375,-2722.5,-2283.626493040986,0.0,0.125,4.454345247,0.7125911133651517,0.0,23267.0,36.625,2467.5,2283.626493040986,0.0,0.0,2.597655984,0.7104378364311311,0.0,-14312.0,4.625,2632.5,2283.626493040986,0.0,0.0,3.092040699,3.1881555954091376,0.0,34712.0,6.5,2602.5,2283.626493040986,0.0,0.0,3.5253902640000003,0.7102225087377292,0.0,-3.490000009536743,-4.710000038146973,3.9700000286102295,-0.102294921875,0.1627197265625,0.532470703125,34.189998626708984,0.0,-44.0,-1.5836029052734375,-1.1719970703125,Waiting,0.0,0.0,0.0,0.0,0.0,0.0,0.0,0.0,
2.1140500000000464,0.0,0.0,-30478.0,0.75,-2722.5,-2283.626493040986,0.0,0.125,4.459228059,0.7215538891704123,0.0,23267.0,37.25,2272.5,2283.626493040986,0.0,0.0,2.598876687,0.719373528909019,0.0,-14312.0,3.375,2617.5,2283.626493040986,0.0,0.0,3.092040699,3.1971003156628166,0.0,34712.0,4.75,2632.5,2283.626493040986,0.0,0.0,3.548583621,0.7191554928828796,0.0,-3.4200000762939453,-4.630000114440918,4.619999885559082,0.11614990234375,-0.0181884765625,0.7227783203125,34.189998626708984,0.0,175.0,-1.5817718505859375,-1.2091064453125,Waiting,0.0,0.0,0.0,0.0,0.0,0.0,0.0,0.0,
2.1859920000000277,0.0,0.0,-30906.0,0.375,-2662.5,-2283.626493040986,0.0,0.125,4.464110871,0.7287241111296323,0.0,23592.0,37.0,1875.0,2283.626493040986,0.0,0.0,2.613525123,0.726522084202367,0.0,-13897.0,1.375,2595.0,2283.626493040986,0.0,0.0,3.1115719470000003,3.204256093178122,0.0,35135.0,2.875,2640.0,2283.626493040986,0.0,0.0,3.566894166,0.7263018815096405,0.0,-3.2100000381469727,-4.489999771118164,5.070000171661377,-0.0037841796875,0.0157470703125,0.92315673828125,34.189998626708984,0.0,74.0,-1.5788116455078125,-1.23895263671875,Waiting,0.0,0.0,0.0,0.0,0.0,0.0,0.0,0.0,
2.250857000000018,0.0,0.0,-30906.0,0.0,-2692.5,-2373.799426624516,0.0,0.125,4.465331574,0.7020843578504428,0.0,23592.0,37.25,1267.5,2373.799426624516,0.0,0.0,2.623290747,0.6999628297747463,0.0,-13897.0,0.5,2677.5,2373.799426624516,0.0,0.0,3.1054684320000003,3.1776700057999787,0.0,35557.0,2.625,2640.0,2373.799426624516,0.0,0.0,3.5742183840000004,0.6997506769671767,0.0,-2.890000104904175,-4.340000152587891,5.53000020980835,-0.00714111328125,-0.0235595703125,0.9622802734375,34.189998626708984,0.0,68.0,-1.5741729736328125,-1.267578125,Waiting,0.0,0.0,0.0,0.0,0.0,0.0,0.0,0.0,
2.3221540000000385,0.0,0.0,-31350.0,0.0,-2797.5,-2396.953391932282,0.0,0.125,4.464110871,0.7006064048927721,0.0,23760.0,35.5,1185.0,2396.953391932282,0.0,0.0,2.620849341,0.6984893428312507,0.0,-13467.0,0.125,2692.5,2396.953391932282,0.0,0.0,3.1115719470000003,3.176195030185091,0.0,35557.0,2.25,2632.5,2396.953391932282,0.0,0.0,3.5729976810000004,0.6982776366250987,0.0,-2.5899999141693115,-4.079999923706055,6.199999809265137,-0.1097412109375,-0.08819580078125,1.16314697265625,34.04999923706055,0.0,-30.0,-1.566162109375,-1.3015899658203125,Waiting,0.0,0.0,0.0,0.0,0.0,0.0,0.0,0.0,
2.3858369999999995,0.0,0.0,-31785.0,0.0,-2767.5,-2420.337827895574,0.0,0.125,4.464110871,0.7021744679188153,0.0,24086.0,36.125,1837.5,2420.337827895574,0.0,0.0,2.622070044,0.7000526675524207,0.0,-13036.0,0.125,2685.0,2420.337827895574,0.0,0.0,3.120116868,3.1777599343412186,0.0,35977.0,2.0,2625.0,2420.337827895574,0.0,0.0,3.5729976810000004,0.6998404875157813,0.0,-2.299999952316284,-3.940000057220459,6.599999904632568,-0.11248779296875,0.22943115234375,1.44549560546875,34.04999923706055,0.0,20.0,-1.5581512451171875,-1.3268585205078125,Waiting,0.0,0.0,0.0,0.0,0.0,0.0,0.0,0.0,
2.447948000000033,0.0,0.0,-31785.0,0.0,-2685.0,-2350.1266352400585,0.0,0.125,4.464110871,0.6327639399709138,0.0,24086.0,37.0,2445.0,2350.1266352400585,0.0,0.0,2.629394262,0.6308518813287777,0.0,-13036.0,0.0,2662.5,2350.1266352400585,0.0,0.0,3.1164547590000002,3.10848923420949,0.0,35977.0,1.375,2595.0,2350.1266352400585,0.0,0.0,3.5742183840000004,0.6306606754645641,0.0,-1.9900000095367432,-3.799999952316284,6.829999923706055,-0.139892578125,0.06011962890625,1.02886962890625,34.04999923706055,0.0,-59.0,-1.5489501953125,-1.3489227294921875,Waiting,0.0,0.0,0.0,0.0,0.0,0.0,0.0,0.0,
2.5106160000000384,0.0,0.0,-32205.0,0.0,-2640.0,-2384.4300287149026,0.0,0.125,4.462890168,0.6058602923533857,0.0,24365.0,37.75,1800.0,2384.4300287149026,0.0,0.0,2.617187232,0.6040295299872895,0.0,-12616.0,0.0,2632.5,2384.4300287149026,0.0,0.0,3.085937184,3.081639784109321,0.0,36397.0,0.625,2610.0,2384.4300287149026,0.0,0.0,3.563232057,0.6038464537506799,0.0,-1.6100000143051147,-3.4200000762939453,6.949999809265137,0.062744140625,0.07684326171875,0.55523681640625,34.04999923706055,0.0,106.0,-1.536163330078125,-1.3730010986328125,Waiting,0.0,0.0,0.0,0.0,0.0,0.0,0.0,0.0,
2.577597000000009,0.0,0.0,-32205.0,0.0,-2602.5,-2371.0334468755996,0.0,0.125,4.4531245440000005,0.5634376353138195,0.0,24365.0,39.0,1162.5,2371.0334468755996,0.0,0.0,2.602538796,0.5617350638936528,0.0,-12616.0,0.0,2580.0,2371.0334468755996,0.0,0.0,3.0554196090000003,3.039302587700375,0.0,36397.0,0.375,2625.0,2371.0334468755996,0.0,0.0,3.548583621,0.5615648067516361,0.0,-1.2200000286102295,-3.180000066757202,7.159999847412109,0.19073486328125,0.11859130859375,0.58197021484375,34.04999923706055,0.0,237.0,-1.524749755859375,-1.389617919921875,Waiting,0.0,0.0,0.0,0.0,0.0,0.0,0.0,0.0,
2.644137000000046,0.0,0.0,-32619.0,0.0,-2580.0,-2348.7301332811394,0.0,0.125,4.422606969,0.5447637442225198,0.0,24532.0,39.5,1050.0,2348.7301332811394,0.0,0.0,2.574462627,0.5431176007568997,0.0,-12212.0,0.0,2527.5,2348.7301332811394,0.0,0.0,3.020019222,3.0206663152454394,0.0,36808.0,0.25,2565.0,2348.7301332811394,0.0,0.0,3.5192867490000004,0.5429529864103377,0.0,-0.8100000023841858,-3.0199999809265137,7.460000038146973,-0.10107421875,0.13079833984375,0.9371337890625,34.04999923706055,0.0,-32.0,-1.5111236572265625,-1.40460205078125,Waiting,0.0,0.0,0.0,0.0,0.0,0.0,0.0,0.0,
2.706445999999996,0.0,0.0,-32619.0,0.0,-2550.0,-2353.9628453204355,0.0,0.125,4.381103067000001,0.542345565146056,0.0,24532.0,40.625,1140.0,2353.9628453204355,0.0,0.0,2.5354001310000003,0.540706728829136,0.0,-12212.0,0.0,2475.0,2353.9628453204355,0.0,0.0,2.99072235,3.018253007601443,0.0,36808.0,0.25,2535.0,2353.9628453204355,0.0,0.0,3.4753414410000003,0.540542845197444,0.0,-0.3499999940395355,-2.950000047683716,7.849999904632568,-0.07611083984375,0.245361328125,0.61907958984375,34.04999923706055,0.0,-9.0,-1.4934234619140625,-1.4185333251953125,Waiting,0.0,0.0,0.0,0.0,0.0,0.0,0.0,0.0,
2.774872000000032,0.0,0.0,-33020.0,0.0,-2497.5,-2359.415732010717,0.0,0.125,4.342040571,0.5389968448196562,0.0,24846.0,41.25,2122.5,2359.415732010717,0.0,0.0,2.509765368,0.5373681275206441,0.0,-11829.0,0.375,2385.0,2359.415732010717,0.0,0.0,2.982177429,3.0149110332869817,0.0,37208.0,0.25,2490.0,2359.415732010717,0.0,0.0,3.455810193,0.537205255790743,0.0,0.1599999964237213,-2.9600000381469727,8.199999809265137,-0.1226806640625,0.04931640625,1.1912841796875,34.04999923706055,0.0,-53.0,-1.4783935546875,-1.4251556396484375,Waiting,0.0,0.0,0.0,0.0,0.0,0.0,0.0,0.0,
2.837488000000012,0.0,0.0,-33020.0,0.0,-2430.0,-2373.5691689240375,0.0,0.125,4.3457026800000005,0.5409685918893392,0.0,24846.0,41.5,2587.5,2373.5691689240375,0.0,0.0,2.496337635,0.5393339164505115,0.0,-11829.0,0.375,2317.5,2373.5691689240375,0.0,0.0,2.977294617,3.0168788082634546,0.0,37208.0,0.375,2437.5,2373.5691689240375,0.0,0.0,3.448485975,0.5391704489066288,0.0,0.550000011920929,-2.869999885559082,8.510000228881836,-0.222412109375,0.1689453125,0.80340576171875,33.97999954223633,0.0,-156.0,-1.4634246826171875,-1.4292449951171875,Waiting,0.0,0.0,0.0,0.0,0.0,0.0,0.0,0.0,
2.902144000000029,0.0,0.0,-33401.0,0.0,-2377.5,-2365.087270464793,0.0,0.125,4.337157759,0.5405100988082977,0.0,25258.0,42.125,2572.5,2365.087270464793,0.0,0.0,2.471923575,0.5388768088239856,0.0,-11459.0,0.5,2310.0,2365.087270464793,0.0,0.0,2.972411805,3.016421238818756,0.0,37589.0,0.75,2377.5,2365.087270464793,0.0,0.0,3.437499648,0.5387134798255545,0.0,0.7300000190734863,-2.930000066757202,8.819999694824219,0.0428466796875,0.09075927734375,0.98260498046875,33.97999954223633,0.0,103.0,-1.4453582763671875,-1.430938720703125,Waiting,0.0,0.0,0.0,0.0,0.0,0.0,0.0,0.0,
2.967487000000023,0.0,0.0,-33401.0,0.0,-2392.5,-2377.0799202708768,0.0,0.125,4.3408198680000005,0.5297218607978028,0.0,25258.0,42.75,2497.5,2377.0799202708768,0.0,0.0,2.4804684960000003,0.5281211702434178,0.0,-11459.0,0.5,2332.5,2377.0799202708768,0.0,0.0,2.972411805,3.005654733761546,0.0,37589.0,0.875,2347.5,2377.0799202708768,0.0,0.0,3.439941054,0.5279611011879792,0.0,0.8299999833106995,-2.930000066757202,9.029999732971191,-0.00579833984375,0.14349365234375,1.42718505859375,33.97999954223633,0.0,85.0,-1.4290924072265625,-1.4311065673828125,Waiting,0.0,0.0,0.0,0.0,0.0,0.0,0.0,0.0,
3.0334980000000216,0.0,0.0,-33786.0,0.0,-2400.0,-2368.95687391283,0.0,0.125,4.3457026800000005,0.5283740170167268,0.0,25648.0,42.375,2392.5,2368.95687391283,0.0,0.0,2.4780270900000003,0.5267773993182475,0.0,-11082.0,0.375,2377.5,2368.95687391283,0.0,0.0,2.971191102,3.004309605217741,0.0,37968.0,1.125,2370.0,2368.95687391283,0.0,0.0,3.433837539,0.5266177375483996,0.0,0.800000011920929,-2.7899999618530273,9.170000076293945,-0.07794189453125,-0.040771484375,0.93426513671875,33.97999954223633,0.0,-40.0,-1.4074554443359375,-1.429595947265625,Waiting,0.0,0.0,0.0,0.0,0.0,0.0,0.0,0.0,
3.097648000000045,0.0,0.0,-34164.0,0.0,-2377.5,-2368.95687391283,0.0,0.125,4.334716353,0.5297529111656594,0.0,26056.0,42.75,2452.5,2368.95687391283,0.0,0.0,2.4804684960000003,0.5281521267846189,0.0,-10699.0,0.375,2400.0,2368.95687391283,0.0,0.0,2.977294617,3.0056857215782995,0.0,38345.0,0.875,2347.5,2368.95687391283,0.0,0.0,3.4326168360000002,0.5279920483465148,0.0,0.8299999833106995,-2.759999990463257,9.270000457763672,-0.0452880859375,0.0560302734375,1.25567626953125,33.97999954223633,0.0,21.0,-1.389556884765625,-1.427764892578125,Waiting,0.0,0.0,0.0,0.0,0.0,0.0,0.0,0.0,
3.1667280000000027,0.0,0.0,-34164.0,0.0,-2310.0,-2368.9568739128304,0.0,0.125,4.329833541,0.5311318053145927,0.0,26056.0,43.125,2572.5,2368.9568739128304,0.0,0.0,2.470702872,0.5295268542509909,0.0,-10699.0,0.375,2362.5,2368.9568739128304,0.0,0.0,2.972411805,3.007061837938858,0.0,38345.0,0.75,2385.0,2368.9568739128304,0.0,0.0,3.4326168360000002,0.5293663591446308,0.0,0.8299999833106995,-2.7100000381469727,9.350000381469727,-0.07080078125,-0.05645751953125,1.2569580078125,33.97999954223633,0.0,-23.0,-1.366668701171875,-1.4251251220703125,Waiting,0.0,0.0,0.0,0.0,0.0,0.0,0.0,0.0,
3.230472999999998,0.0,0.0,-34532.0,0.0,-2287.5,-2368.95687391283,0.0,0.125,4.322509323,0.5322349153736944,0.0,26469.0,42.375,2595.0,2368.95687391283,0.0,0.0,2.464599357,0.5306266309799381,0.0,-10329.0,0.5,2310.0,2368.95687391283,0.0,0.0,2.972411805,3.0081627257778574,0.0,38727.0,0.75,2392.5,2368.95687391283,0.0,0.0,3.4289547270000003,0.5304658025405625,0.0,0.8299999833106995,-2.819999933242798,9.359999656677246,-0.11712646484375,0.15350341796875,1.85791015625,33.97999954223633,0.0,-4.0,-1.347381591796875,-1.42333984375,Waiting,0.0,0.0,0.0,0.0,0.0,0.0,0.0,0.0,
3.293048999999999,0.0,0.0,-34532.0,0.25,-2332.5,-2633.4398659657145,0.0,0.125,4.328612838000001,0.5344806188303621,0.0,26469.0,42.5,2550.0,2331.776167891459,0.0,0.0,2.449950921,0.6185944434010137,0.0,-10329.0,0.75,2325.0,2434.4865090426656,0.0,0.0,2.962646181,2.924105004168039,0.0,38727.0,0.375,2355.0,2104.494982697702,0.0,0.0,3.4289547270000003,0.5279743822920034,0.0,0.8299999833106995,-2.680000066757202,9.350000381469727,-0.00994873046875,0.0687255859375,1.2320556640625,33.97999954223633,0.0,55.0,-1.347320556640625,-1.4209136962890625,Waiting,0.0,0.0,0.0,0.0,0.0,0.0,0.0,0.0,
3.3559650000000256,0.0,0.0,-34920.0,1.0,-2407.5,-2864.873307419709,0.0,0.0,4.322509323,0.5358916922745364,0.0,26842.0,42.125,2332.5,2323.5070374158067,0.0,0.25,2.495116932,0.6967760457738389,0.0,-9950.0,1.375,2355.0,2513.4409481207376,0.0,0.0,2.9052731400000003,2.854581911664812,0.0,39098.0,0.0,2317.5,1873.1180648973814,0.0,0.0,3.437499648,0.5248914447497718,0.0,0.6499999761581421,-2.4200000762939453,9.520000457763672,-0.054931640625,0.14227294921875,1.00299072265625,33.95000076293945,0.0,10.0,-1.34466552734375,-1.41558837890625,Waiting,0.0,0.0,0.0,0.0,0.0,0.0,0.0,0.0,
3.424320000000007,0.0,0.0,-34920.0,1.625,-2535.0,-2947.5656446736984,0.0,0.0,4.322509323,0.5382654704149,0.0,26842.0,42.625,2197.5,2327.8680049847453,0.0,0.125,2.548827864,0.7270816342221659,0.0,-9950.0,2.75,2362.5,2544.567580695225,0.0,0.0,2.828368851,2.8330355095153017,0.0,39098.0,0.0,2295.0,1790.433017930616,0.0,0.0,3.4277340240000003,0.5267533172264168,0.0,0.800000011920929,-2.369999885559082,9.9399995803833,-0.002685546875,0.070556640625,0.88433837890625,33.95000076293945,0.0,43.0,-1.3416748046875,-1.4123077392578125,Waiting,0.0,0.0,0.0,0.0,0.0,0.0,0.0,0.0,
3.4885979999999983,0.0,0.0,-35345.0,2.0,-2647.5,-3013.770297661517,0.0,0.0,4.324950729,0.5431488894296944,0.0,27192.0,42.375,2160.0,2336.998313859005,0.0,0.125,2.61230442,0.7550299620485736,0.0,-9580.0,5.0,2310.0,2567.897493945468,0.0,0.0,2.769775107,2.819674823128042,0.0,39451.0,0.0,2212.5,1724.1946674678184,0.0,0.0,3.4228512120000003,0.5337336246200027,0.0,1.1100000143051147,-2.25,11.729999542236328,-0.11749267578125,0.2740478515625,1.0965576171875,33.95000076293945,0.0,-21.0,-1.3349761962890625,-1.406707763671875,Waiting,0.0,0.0,0.0,0.0,0.0,0.0,0.0,0.0,
3.5502330000000075,0.0,0.0,-35345.0,2.75,-2685.0,-3028.2466538944864,0.0,0.125,4.322509323,0.5604538941885128,0.0,27192.0,41.625,2070.0,2368.772015480183,0.0,0.0,2.656249728,0.7750565856628386,0.0,-9580.0,5.875,2295.0,2565.508691647018,0.0,0.0,2.755126671,2.84046972431354,0.0,39451.0,0.0,1987.5,1738.5735277563876,0.0,0.0,3.4277340240000003,0.5638389979313313,0.0,1.4500000476837158,-2.3399999141693115,14.210000038146973,-0.08416748046875,0.20281982421875,1.355224609375,33.95000076293945,0.0,13.0,-1.3296051025390625,-1.397674560546875,Waiting,0.0,0.0,0.0,0.0,0.0,0.0,0.0,0.0,
3.6139100000000326,0.0,0.0,-35783.0,2.25,-2730.0,-3050.8138912894715,0.0,0.125,4.328612838000001,0.5813828379319894,0.0,27545.0,41.625,2317.5,2399.179449198231,0.0,0.0,2.674560273,0.8055989102493957,0.0,-9201.0,6.0,2370.0,2557.8103844941306,0.0,0.0,2.760009483,2.8603614937883752,0.0,39754.0,0.0,1837.5,1729.4480602771314,0.0,0.0,3.4265133210000003,0.600814607990825,0.0,1.6200000047683716,-2.3399999141693115,17.5,-0.2421875,0.010498046875,0.80126953125,33.95000076293945,0.0,-203.0,-1.324493408203125,-1.386474609375,Waiting,0.0,0.0,0.0,0.0,0.0,0.0,0.0,0.0,
3.6850380000000005,0.0,0.0,-35783.0,1.5,-2902.5,-3041.080440120336,0.0,0.125,4.328612838000001,0.6131079804376856,0.0,27545.0,43.625,2242.5,2425.037066851878,0.0,0.125,2.6940915210000003,0.8447678059789652,0.0,-9201.0,5.125,2422.5,2518.4785139786245,0.0,0.0,2.764892295,2.8964674121882097,0.0,39754.0,0.0,1717.5,1724.925667295564,0.0,0.0,3.4301754300000002,0.6567231621916402,0.0,2.0899999141693115,-2.880000114440918,22.309999465942383,-0.085693359375,0.29449462890625,1.19049072265625,33.95000076293945,0.0,71.0,-1.3179168701171875,-1.3687744140625,Waiting,0.0,0.0,0.0,0.0,0.0,0.0,0.0,0.0,
3.7459349999999976,0.0,0.0,-36252.0,1.5,-2925.0,-3035.0678477297397,0.0,0.125,4.328612838000001,0.6650820150963638,0.0,27874.0,43.375,1995.0,2478.937746205126,0.0,0.125,2.718505581,0.9066292535451967,0.0,-8808.0,4.0,2460.0,2465.4424453669553,0.0,0.0,2.7880856520000004,2.9574733109777775,0.0,40023.0,0.25,1657.5,1735.4832066760853,0.0,0.0,3.4313961330000002,0.747629923025319,0.0,2.2899999618530273,-3.049999952316284,26.440000534057617,-0.0374755859375,0.243896484375,0.71429443359375,33.95000076293945,0.0,96.0,-1.3120574951171875,-1.3506927490234375,Waiting,0.0,0.0,0.0,0.0,0.0,0.0,0.0,0.0,
3.8081260000000476,0.0,0.0,-36713.0,2.25,-2872.5,-3020.056876537145,0.0,0.25,4.376220255000001,0.705865015459529,0.0,28128.0,43.0,1702.5,2512.964796207359,0.0,0.25,2.817382524,0.9550014735845841,0.0,-8417.0,2.5,2445.0,2415.5171751906037,0.0,0.0,2.885741892,3.0055686537568906,0.0,40281.0,0.625,1605.0,1740.3941372858596,0.0,0.25,3.563232057,0.8187467299221957,0.0,2.299999952316284,-3.369999885559082,33.9900016784668,0.00750732421875,0.1920166015625,1.1917724609375,33.88999938964844,0.0,145.0,-1.3030548095703125,-1.3134765625,Waiting,0.0,0.0,0.0,0.0,0.0,0.0,0.0,0.0,
3.912040000000037,0.0,0.0,-36713.0,1.375,-2992.5,-2998.9393546548927,0.0,0.125,4.454345247,0.7877890055379496,0.0,28128.0,41.125,382.5,2593.1409950266493,0.0,0.125,2.877196971,1.0482973228702852,0.0,-8417.0,1.75,2460.0,2329.234868047979,0.0,0.0,2.9528805570000003,3.1055230424133335,0.0,40281.0,0.75,1635.0,1776.5354028896768,0.0,0.0,3.6853023570000003,0.9579947009165194,0.0,1.940000057220459,-3.5899999141693115,38.380001068115234,0.1102294921875,-0.120849609375,1.33221435546875,33.88999938964844,0.0,48.0,-1.2975616455078125,-1.2909088134765625,Waiting,0.0,0.0,0.0,0.0,0.0,0.0,0.0,0.0,
3.9847540000000152,0.0,0.0,-37204.0,0.375,-3082.5,-2978.0902086884403,0.0,0.125,4.532470239,0.8477804739210223,0.0,28156.0,40.625,187.5,2648.7577756428554,0.0,0.25,2.94189423,1.1147178619031315,0.0,-8026.0,1.125,2415.0,2265.7885021753023,0.0,0.0,3.024902034,3.1806520000942724,0.0,40547.0,1.0,1665.0,1811.2686160623255,0.0,0.0,3.811034766,1.0568998320298761,0.0,1.3300000429153442,-3.5299999713897705,43.959999084472656,-0.0975341796875,-0.0408935546875,1.17364501953125,33.88999938964844,0.0,-65.0,-1.2902069091796875,-1.2659759521484375,Waiting,0.0,0.0,0.0,0.0,0.0,0.0,0.0,0.0,
4.0465260000000125,0.0,0.0,-37204.0,0.25,-3052.5,-2957.8252935804244,0.0,0.125,4.6057124190000005,0.8967881071558759,0.0,28156.0,38.875,165.0,2691.950290996254,0.0,0.25,3.0041500830000003,1.1678469779698968,0.0,-8026.0,1.125,2362.5,2214.298742587249,0.0,0.0,3.095702808,3.2432852061169952,0.0,40547.0,1.375,1680.0,1844.1759198281943,0.0,0.0,3.927001551,1.135448623196487,0.0,0.7900000214576721,-3.380000114440918,48.5099983215332,0.02392578125,-0.08221435546875,1.26422119140625,33.88999938964844,0.0,-9.0,-1.2835693359375,-1.2484588623046875,Waiting,0.0,0.0,0.0,0.0,0.0,0.0,0.0,0.0,
4.111764000000025,0.0,0.0,-37687.0,0.125,-3022.5,-2942.1800296891765,0.0,0.125,4.647216321,0.9574931808843896,0.0,28181.0,36.25,120.0,2754.7703065495884,0.0,0.25,3.066405936,1.2382253066000162,0.0,-7652.0,1.125,2310.0,2145.984612203551,0.0,0.0,3.1640621760000003,3.319411467906657,0.0,40818.0,1.5,1710.0,1880.8471683153666,0.0,0.0,4.00390584,1.2383030437894669,0.0,0.3400000035762787,-3.1500000953674316,54.2599983215332,-0.223388671875,-0.20086669921875,0.88623046875,33.88999938964844,0.0,-269.0,-1.2744903564453125,-1.22955322265625,Waiting,0.0,0.0,0.0,0.0,0.0,0.0,0.0,0.0,
4.1755630000000235,0.0,0.0,-37687.0,0.0,-3105.0,-2914.028709455229,0.0,0.125,4.683837411,1.0083573202852711,0.0,28188.0,34.5,90.0,2795.129979897752,0.0,0.125,3.139648116,1.2911024576932495,0.0,-7297.0,1.125,2250.0,2093.145430479815,0.0,0.0,3.225097326,3.387548821874132,0.0,41107.0,1.625,1770.0,1924.1741288491617,0.0,0.0,4.051513257,1.3151473842736667,0.0,-0.11999999731779099,-2.8299999237060547,58.88999938964844,0.09375,-0.170166015625,-0.23602294921875,33.88999938964844,0.0,-103.0,-1.267913818359375,-1.2159576416015625,Waiting,0.0,0.0,0.0,0.0,0.0,0.0,0.0,0.0,
4.241698000000033,0.0,0.0,-38187.0,0.0,-3075.0,-2882.7162491963663,0.0,0.25,4.720458501,1.0599508391511498,0.0,28188.0,33.75,7.5,2833.203140184213,0.0,0.125,3.197021157,1.3437319614318535,0.0,-7297.0,1.125,2190.0,2041.315596401509,0.0,0.0,3.298339506,3.4580151764045786,0.0,41107.0,1.5,1830.0,1970.7755895283888,0.0,0.25,4.105224189,1.3904133302990294,0.0,-0.25999999046325684,-2.950000047683716,63.560001373291016,0.05389404296875,0.11663818359375,-0.0067138671875,33.88999938964844,0.0,128.0,-1.260223388671875,-1.202301025390625,Waiting,0.0,0.0,0.0,0.0,0.0,0.0,0.0,0.0,
4.304903000000049,0.0,0.0,-38654.0,0.0,-2955.0,-2848.21820637192,0.0,0.25,4.791259275,1.1124486114970962,0.0,28188.0,34.25,0.0,2868.8701282685697,0.0,0.125,3.250732089,1.3962766058675236,0.0,-6954.0,0.75,2145.0,1990.877591613812,0.0,0.0,3.3666988740000003,3.53109260174719,0.0,41411.0,1.625,1882.5,2020.3124626040533,0.0,0.25,4.168700745000001,1.4642421970586668,0.0,-0.11999999731779099,-3.240000009536743,68.19999694824219,-0.2303466796875,-0.1246337890625,1.3939208984375,33.88999938964844,0.0,-169.0,-1.251190185546875,-1.2021331787109375,Waiting,0.0,0.0,0.0,0.0,0.0,0.0,0.0,0.0,
4.368862000000023,0.0,0.0,-38654.0,0.0,-2902.5,-2801.5709011407657,0.0,0.25,4.841308098,1.1782637436264045,0.0,28188.0,33.0,0.0,2909.0817734569014,0.0,0.125,3.293456694,1.4607593373479373,0.0,-6954.0,0.75,2107.5,1931.6450587524052,0.0,0.125,3.4301754300000002,3.624587549035994,0.0,41411.0,1.75,1927.5,2084.5167026299046,0.0,0.25,4.254149955,1.5529548889806535,0.0,-0.3799999952316284,-3.049999952316284,73.86000061035156,0.042236328125,-0.13861083984375,0.71783447265625,33.84000015258789,0.0,-106.0,-1.24005126953125,-1.2021942138671875,Waiting,0.0,0.0,0.0,0.0,0.0,0.0,0.0,0.0,
4.4310350000000325,0.0,0.0,-39119.0,0.0,-2917.5,-2762.424073722979,0.0,0.25,4.9157709810000005,1.2301577550621587,0.0,28208.0,32.625,97.5,2937.1963936987104,0.0,0.125,3.353271141,1.510541437983371,0.0,-6631.0,0.75,2032.5,1888.6203277803147,0.0,0.125,3.502196907,3.6996727789158923,0.0,41724.0,2.5,1950.0,2136.123272327109,0.0,0.25,4.339599165,1.6199851136720795,0.0,-0.5099999904632568,-2.9200000762939453,78.30000305175781,-0.0875244140625,-0.053955078125,0.81951904296875,33.84000015258789,0.0,-54.0,-1.2323455810546875,-1.20416259765625,Waiting,0.0,0.0,0.0,0.0,0.0,0.0,0.0,0.0,
4.4943790000000154,0.0,0.0,-39119.0,0.0,-2865.0,-2721.6296734176394,0.0,0.125,0.028076169,1.2818480216672858,0.0,28208.0,32.25,157.5,2962.0325285405947,0.0,0.125,3.4204098060000003,1.5592203566910245,0.0,-6631.0,1.0,1972.5,1849.424964016964,0.0,0.0,3.599853147,3.775522436112491,0.0,41724.0,2.75,1965.0,2187.8622713585814,0.0,0.25,4.432372593,1.68429787198034,0.0,-0.6600000262260437,-2.2799999713897705,83.88999938964844,-0.26788330078125,-0.28460693359375,0.44793701171875,33.84000015258789,0.0,-304.0,-1.22271728515625,-1.208770751953125,Waiting,0.0,0.0,0.0,0.0,0.0,0.0,0.0,0.0,
4.564398000000045,0.0,0.0,-39570.0,0.0,-2827.5,-2667.3190222785915,0.0,0.125,0.076904289,1.3478709614359905,0.0,28248.0,29.25,180.0,2989.172908478536,0.0,0.125,3.463134411,1.6201076866491504,0.0,-6323.0,1.0,1927.5,1805.229824947423,0.0,0.125,3.6926265750000002,3.8736677241899904,0.0,42057.0,2.875,2062.5,2253.7565598468063,0.0,0.0,4.514159694,1.7630461549932914,0.0,-1.059999942779541,-1.8899999856948853,88.33999633789062,0.2623291015625,0.0518798828125,0.169921875,33.84000015258789,0.0,62.0,-1.215545654296875,-1.2159576416015625,Waiting,0.0,0.0,0.0,0.0,0.0,0.0,0.0,0.0,
4.629845000000031,0.0,0.0,-39570.0,0.0,-2775.0,-2621.9349985769504,0.0,0.25,0.124511706,1.4012632029648056,0.0,28248.0,30.5,300.0,3007.4077851177185,0.0,0.25,3.492431283,1.6683097495023427,0.0,-6323.0,0.75,1882.5,1774.6852711607985,0.0,0.125,3.802489845,3.9537910451473994,0.0,42057.0,2.875,2160.0,2306.3968134080974,0.0,0.0,4.562987814,1.8240832795473527,0.0,-1.0299999713897705,-1.899999976158142,92.83000183105469,0.10150146484375,-0.04815673828125,0.930419921875,33.84000015258789,0.0,-37.0,-1.2078704833984375,-1.224884033203125,Waiting,0.0,0.0,0.0,0.0,0.0,0.0,0.0,0.0,
4.691464000000036,0.0,0.0,-40010.0,0.0,-2760.0,-2574.4107041942384,0.0,0.125,0.179443341,1.4559626993189068,0.0,28257.0,30.0,30.0,3022.7170844132465,0.0,0.25,3.5363765910000002,1.7167478638736373,0.0,-6026.0,0.75,1852.5,1748.4824349297921,0.0,0.0,3.8842769460000004,4.036258525050485,0.0,42409.0,2.75,2205.0,2359.325946916166,0.0,0.25,4.613036637,1.8842933645979505,0.0,-0.9599999785423279,-1.7400000095367432,97.18000030517578,6.103515625E-4,-0.11456298828125,1.10736083984375,33.84000015258789,0.0,-99.0,-1.2004852294921875,-1.2355499267578125,Waiting,0.0,0.0,0.0,0.0,0.0,0.0,0.0,0.0,
4.754188000000024,0.0,0.0,-40010.0,0.0,-2602.5,-2532.7732938264626,0.0,0.125,0.23193357,1.5049951141542313,0.0,28257.0,29.625,30.0,3050.7458408030293,0.0,0.125,3.603515256,1.764380976603904,0.0,-6026.0,0.5,1822.5,1712.4097058451123,0.0,0.0,3.9562984230000002,4.114822951538947,0.0,42409.0,2.75,2295.0,2413.3911054632194,0.0,0.25,4.674071787,1.9466947657221427,0.0,-1.0099999904632568,-1.690000057220459,101.31999969482422,0.03790283203125,0.0338134765625,0.9105224609375,33.84000015258789,0.0,36.0,-1.1933746337890625,-1.246734619140625,Waiting,0.0,0.0,0.0,0.0,0.0,0.0,0.0,0.0,
4.821732000000019,0.0,0.0,-40422.0,0.0,-2572.5,-2482.0958695880977,0.0,0.125,0.28320309600000004,1.5517553239593342,0.0,28261.0,28.75,0.0,3051.0940765864007,0.0,0.125,3.662109,1.804864751696452,0.0,-5737.0,0.5,1792.5,1690.4118706557883,0.0,0.0,4.034423415,4.186790619282528,0.0,42782.0,2.875,2325.0,2450.687138499798,0.0,0.25,4.752196779,1.9960120266607881,0.0,-1.1200000047683716,-1.3700000047683716,106.41999816894531,-0.22418212890625,0.229248046875,0.984375,33.84000015258789,0.0,295.0,-1.18499755859375,-1.26226806640625,Waiting,0.0,0.0,0.0,0.0,0.0,0.0,0.0,0.0,
4.889981000000029,0.0,0.0,-40422.0,0.0,-2535.0,-2213.929353462495,0.0,0.0,0.32958981000000004,1.470631131300818,0.0,28261.0,28.5,0.0,2716.0397431822494,0.0,0.125,3.713378526,1.7686230737228519,0.0,-5737.0,0.125,1777.5,1380.2928828606014,0.0,0.0,4.107665595,4.092077425216629,0.0,42782.0,1.625,2355.0,2092.9876126958484,0.0,0.25,4.8156733350000005,1.9810432406947849,0.0,-1.1399999856948853,-1.25,110.66000366210938,-0.13323974609375,0.1396484375,0.980224609375,33.70000076293945,0.0,188.0,-1.175628662109375,-1.2758941650390625,Waiting,0.0,0.0,0.0,0.0,0.0,0.0,0.0,0.0,
4.952492000000028,0.0,0.0,-40820.0,0.375,-2445.0,-868.8555467126447,0.0,2.875,0.324706998,0.7834048547469162,0.0,28288.0,29.0,202.5,983.5306179318954,0.0,0.0,3.720702744,1.8191197791660634,0.0,-5460.0,5.375,1605.0,-529.1617133161902,0.0,0.75,4.157714418,4.596094195026691,0.0,43154.0,0.125,2257.5,701.7368696284196,0.0,5.25,4.914550278,2.739116542910477,0.0,-0.7300000190734863,-1.6799999475479126,116.43000030517578,-0.13116455078125,0.14263916015625,1.6500244140625,33.70000076293945,0.0,183.0,-1.1592864990234375,-1.29400634765625,Waiting,0.0,0.0,0.0,0.0,0.0,0.0,0.0,0.0,
5.016079000000027,0.0,0.0,-40820.0,2.375,-2160.0,-959.0550988912584,0.0,3.0,4.926757308,0.5533560492066895,0.0,28288.0,27.875,270.0,959.0550988912584,0.0,0.0,3.7390132890000003,1.9228160581136347,0.0,-5335.0,14.25,1080.0,-959.0550988912584,0.0,0.375,4.29687456,4.401758689006861,0.0,43469.0,0.0,2047.5,959.0550988912584,0.0,2.875,0.404052693,3.0252667311543324,0.0,0.1899999976158142,-2.190000057220459,122.05000305175781,-0.4652099609375,0.482421875,1.00396728515625,33.70000076293945,0.0,632.0,-1.13623046875,-1.3070526123046875,Waiting,0.0,0.0,0.0,0.0,0.0,0.0,0.0,0.0,
5.086228000000003,0.0,0.0,-41130.0,0.875,-1657.5,-1124.4094133377075,0.0,3.625,4.533690942000001,0.5533560492066895,0.0,28313.0,30.875,292.5,1124.4094133377075,0.0,0.25,3.7768550820000004,1.9228160581136347,0.0,-5335.0,17.0,465.0,-1124.4094133377075,0.0,0.125,4.3457026800000005,4.401758689006861,0.0,43469.0,0.0,1912.5,1124.4094133377075,0.0,1.125,0.8703612390000001,3.0252667311543324,0.0,1.2400000095367432,-3.390000104904175,129.2100067138672,-0.44866943359375,0.4617919921875,1.21588134765625,33.70000076293945,0.0,574.0,-1.0998687744140625,-1.3175811767578125,Waiting,0.0,0.0,0.0,0.0,0.0,0.0,0.0,0.0,
5.148251000000047,0.0,0.0,-41312.0,0.125,-1312.5,-1124.4094133377075,0.0,1.375,4.339599165,0.5533560492066895,0.0,28472.0,35.5,802.5,1124.4094133377075,0.0,0.125,3.7939449240000003,1.9228160581136347,0.0,-5364.0,15.0,-22.5,-1124.4094133377075,0.0,0.125,4.389647988,4.401758689006861,0.0,43716.0,0.0,1530.0,1124.4094133377075,0.0,0.5,1.072997937,3.0252667311543324,0.0,1.6399999856948853,-4.5,140.0399932861328,-0.5352783203125,0.26727294921875,0.17279052734375,33.70000076293945,0.0,566.0,-1.0398406982421875,-1.328155517578125,Waiting,0.0,0.0,0.0,0.0,0.0,0.0,0.0,0.0,
5.211824000000022,0.0,0.0,-41312.0,0.125,-922.5,-1140.9448385238647,0.0,0.0,4.332274947,0.5533560492066895,0.0,28472.0,42.375,1072.5,1140.9448385238647,0.0,0.0,3.7988277360000002,1.9228160581136347,0.0,-5364.0,10.5,-367.5,-1140.9448385238647,0.0,0.0,4.3981929090000005,4.401758689006861,0.0,43716.0,0.0,1365.0,1140.9448385238647,0.0,0.0,1.068115125,3.0252667311543324,0.0,1.399999976158142,-5.71999979019165,148.4199981689453,0.109375,0.2025146484375,1.4202880859375,33.70000076293945,0.0,-126.0,-0.9799957275390625,-1.334228515625,Waiting,0.0,0.0,0.0,0.0,0.0,0.0,0.0,0.0,
5.274997000000032,0.0,0.0,-41448.0,0.375,-825.0,-1207.0866644382477,0.0,0.0,4.337157759,0.5533560492066895,0.0,28641.0,54.375,1072.5,1207.0866644382477,0.0,0.0,3.7976070330000002,1.9228160581136347,0.0,-5479.0,8.125,-652.5,-1207.0866644382477,0.0,0.0,4.3981929090000005,4.401758689006861,0.0,43925.0,0.0,1305.0,1207.0866644382477,0.0,0.0,1.069335828,3.0252667311543324,0.0,0.7599999904632568,-6.460000038146973,156.25999450683594,-0.37969970703125,-0.2718505859375,1.32977294921875,33.70000076293945,0.0,92.0,-0.9164581298828125,-1.339019775390625,Waiting,0.0,0.0,0.0,0.0,0.0,0.0,0.0,0.0,
5.34618200000003,0.0,0.0,-41448.0,0.5,-915.0,-1240.1575148105621,0.0,0.0,4.337157759,0.5533560492066895,0.0,28641.0,60.25,937.5,1240.1575148105621,0.0,0.0,3.7878414090000003,1.9228160581136347,0.0,-5479.0,6.25,-900.0,-1240.1575148105621,0.0,0.0,4.4006343150000005,4.401758689006861,0.0,43925.0,0.0,1245.0,1240.1575148105621,0.0,0.0,1.065673719,3.0252667311543324,0.0,-0.41999998688697815,-6.929999828338623,165.61000061035156,-0.0469970703125,-0.01446533203125,1.13104248046875,33.70000076293945,0.0,-88.0,-0.832916259765625,-1.3421478271484375,Waiting,0.0,0.0,0.0,0.0,0.0,0.0,0.0,0.0,
5.407578000000037,0.0,0.0,-41616.0,0.375,-1027.5,-1240.1575148105621,0.0,0.0,4.3383784620000005,0.5533560492066895,0.0,28733.0,61.75,630.0,1240.1575148105621,0.0,0.0,3.7890621120000003,1.9228160581136347,0.0,-5644.0,5.375,-1005.0,-1240.1575148105621,0.0,0.0,4.3981929090000005,4.401758689006861,0.0,44114.0,0.0,1170.0,1240.1575148105621,0.0,0.0,1.069335828,3.0252667311543324,0.0,-1.3300000429153442,-6.849999904632568,173.05999755859375,-0.01812744140625,0.04827880859375,0.95806884765625,33.75,0.0,-87.0,-0.7662200927734375,-1.344970703125,Waiting,0.0,0.0,0.0,0.0,0.0,0.0,0.0,0.0,
5.467975000000035,0.0,0.0,-41616.0,0.25,-1125.0,-1289.7637903690338,0.0,0.0,4.3383784620000005,0.5533560492066895,0.0,28733.0,61.125,682.5,1289.7637903690338,0.0,0.0,3.802489845,1.9228160581136347,0.0,-5644.0,3.625,-1177.5,-1289.7637903690338,0.0,0.0,4.392089394,4.401758689006861,0.0,44114.0,0.0,1140.0,1289.7637903690338,0.0,0.0,1.063232313,3.0252667311543324,0.0,-2.1500000953674316,-6.369999885559082,-179.24000549316406,-0.0595703125,-0.0555419921875,0.42572021484375,33.75,0.0,12.0,-0.7011566162109375,-1.34820556640625,Waiting,0.0,0.0,0.0,0.0,0.0,0.0,0.0,0.0,
5.532733999999997,0.0,0.0,-41818.0,0.125,-1245.0,-1388.9763414859772,0.0,0.0,4.337157759,0.5533560492066895,0.0,28899.0,59.875,1072.5,1388.9763414859772,0.0,0.0,3.803710548,1.9228160581136347,0.0,-5850.0,3.25,-1312.5,-1388.9763414859772,0.0,0.0,4.384765176,4.401758689006861,0.0,44298.0,0.125,1155.0,1388.9763414859772,0.0,0.0,1.0595702040000001,3.0252667311543324,0.0,-3.009999990463257,-5.760000228881836,-169.05999755859375,-0.1240234375,-0.046630859375,1.04425048828125,33.75,0.0,16.0,-0.6223907470703125,-1.3523712158203125,Waiting,0.0,0.0,0.0,0.0,0.0,0.0,0.0,0.0,
5.596232000000018,0.0,0.0,-41818.0,0.125,-1387.5,-1570.8661437034607,0.0,0.0,4.3383784620000005,0.5533560492066895,0.0,28899.0,57.625,1170.0,1570.8661437034607,0.0,0.0,3.803710548,1.9228160581136347,0.0,-5850.0,3.75,-1380.0,-1570.8661437034607,0.0,0.0,4.371337443,4.401758689006861,0.0,44298.0,0.375,1200.0,1570.8661437034607,0.0,0.0,1.054687392,3.0252667311543324,0.0,-3.6600000858306885,-4.940000057220459,-160.38999938964844,-0.096435546875,-0.16253662109375,0.8499755859375,33.75,0.0,57.0,-0.5615997314453125,-1.3569183349609375,Waiting,0.0,0.0,0.0,0.0,0.0,0.0,0.0,0.0,
5.663920000000042,0.0,0.0,-42050.0,0.125,-1477.5,-1620.4724192619324,0.0,0.0,4.342040571,0.5533560492066895,0.0,29086.0,58.625,1072.5,1620.4724192619324,0.0,0.0,3.803710548,1.9228160581136347,0.0,-6082.0,3.875,-1462.5,-1620.4724192619324,0.0,0.0,4.383544473000001,4.401758689006861,0.0,44500.0,0.375,1297.5,1620.4724192619324,0.0,0.0,1.0583495010000001,3.0252667311543324,0.0,-4.050000190734863,-4.179999828338623,-151.16000366210938,0.0311279296875,0.033447265625,1.1160888671875,33.75,0.0,-152.0,-0.502777099609375,-1.3613739013671875,Waiting,0.0,0.0,0.0,0.0,0.0,0.0,0.0,0.0,
5.728857000000018,0.0,0.0,-42050.0,0.125,-1522.5,-1637.0078444480896,0.0,0.0,4.3432612740000005,0.5533560492066895,0.0,29086.0,55.375,907.5,1637.0078444480896,0.0,0.0,3.802489845,1.9228160581136347,0.0,-6082.0,3.25,-1537.5,-1637.0078444480896,0.0,0.0,4.383544473000001,4.401758689006861,0.0,44500.0,0.375,1402.5,1637.0078444480896,0.0,0.0,1.0583495010000001,3.0252667311543324,0.0,-4.550000190734863,-3.0399999618530273,-138.9199981689453,0.0302734375,0.05224609375,0.8177490234375,33.75,0.0,-132.0,-0.4327850341796875,-1.3675079345703125,Waiting,0.0,0.0,0.0,0.0,0.0,0.0,0.0,0.0,
5.79105700000003,0.0,0.0,-42302.0,0.125,-1590.0,-1653.5432696342468,0.0,0.0,4.339599165,0.5533560492066895,0.0,29225.0,53.375,1065.0,1653.5432696342468,0.0,0.0,3.802489845,1.9228160581136347,0.0,-6334.0,2.375,-1605.0,-1653.5432696342468,0.0,0.0,4.383544473000001,4.401758689006861,0.0,44735.0,0.375,1485.0,1653.5432696342468,0.0,0.0,1.0595702040000001,3.0252667311543324,0.0,-4.78000020980835,-2.069999933242798,-128.67999267578125,0.03192138671875,-0.13238525390625,0.47509765625,33.75,0.0,41.0,-0.3796844482421875,-1.37322998046875,Waiting,0.0,0.0,0.0,0.0,0.0,0.0,0.0,0.0,
5.8521780000000145,0.0,0.0,-42302.0,0.0,-1650.0,-1707.2004672564979,0.0,0.625,4.359130413,0.9581316487180103,0.0,29225.0,52.5,1147.5,2506.4879123408496,0.0,0.0,3.803710548,1.9296028349980028,0.0,-6572.0,0.625,-1605.0,-800.9828747511642,0.0,0.0,4.374999552,4.380497293551951,0.0,44992.0,0.875,1560.0,2002.3790312911856,0.0,1.125,1.016845599,2.6857354963357665,0.0,-4.710000038146973,-1.5,-120.7699966430664,0.00872802734375,0.05596923828125,0.70062255859375,33.75,0.0,-111.0,-0.340972900390625,-1.3772125244140625,Waiting,0.0,0.0,0.0,0.0,0.0,0.0,0.0,0.0,
5.915972999999998,0.0,0.0,-42572.0,0.0,-1717.5,-1793.9351871332713,0.0,0.5,4.527587427,1.059089533400598,0.0,29401.0,52.0,922.5,2746.121792351783,0.0,0.125,3.803710548,1.9315432614364185,0.0,-6572.0,0.0,-1410.0,-561.957602775056,0.0,0.0,4.355468304,4.359048310793143,0.0,44992.0,2.125,1650.0,2153.782205821,0.0,1.125,0.819091713,2.6152404604190194,0.0,-4.820000171661377,0.07000000029802322,-107.5999984741211,0.25421142578125,-0.13763427734375,0.88604736328125,33.7400016784668,0.0,-16.0,-0.2779388427734375,-1.3811798095703125,Waiting,0.0,0.0,0.0,0.0,0.0,0.0,0.0,0.0,
5.987005000000004,0.0,0.0,-42841.0,0.0,-1687.5,-1574.9590795604697,0.0,0.375,4.79736279,1.0989047582894529,0.0,29457.0,48.0,307.5,2729.31186672444,0.0,0.125,3.80859336,1.9989403638248249,0.0,-6777.0,0.0,-1275.0,-646.5804291714884,0.0,0.125,4.298095263,4.070984965521778,0.0,45263.0,5.75,1702.5,2320.9294291168076,0.0,0.375,0.576171816,2.6733236157782745,0.0,-4.940000057220459,1.8700000047683716,-95.0199966430664,0.20330810546875,-0.18365478515625,1.06170654296875,33.7400016784668,0.0,76.0,-0.2144317626953125,-1.3773956298828125,Waiting,0.0,0.0,0.0,0.0,0.0,0.0,0.0,0.0,
6.059520000000019,0.0,0.0,-42841.0,0.0,-1522.5,-1293.5769916412262,0.0,0.25,4.909667466,1.1244411185968142,0.0,29457.0,44.5,97.5,2665.5486867545633,0.0,0.375,3.8464351530000003,2.0801348999936846,0.0,-6777.0,0.0,-1020.0,-872.9603174093628,0.0,0.125,4.117431219,3.888635683785184,0.0,45263.0,10.5,1657.5,2488.748296619581,0.0,0.0,0.53710932,2.7488791170112075,0.0,-5.099999904632568,3.509999990463257,-83.75,0.28509521484375,-0.109130859375,1.322265625,33.7400016784668,0.0,12.0,-0.1456298828125,-1.366119384765625,Waiting,0.0,0.0,0.0,0.0,0.0,0.0,0.0,0.0,
6.127297000000021,0.0,0.0,-43062.0,0.0,-1372.5,-1119.7806646081547,0.0,0.0,4.9255366050000005,1.1322045422976967,0.0,29461.0,42.125,67.5,2621.0675691684737,0.0,0.375,3.9001460850000003,2.1303323045107314,0.0,-6891.0,1.75,-705.0,-1033.8337465348702,0.0,0.0,3.9453120960000003,3.833167647891275,0.0,45544.0,14.125,1755.0,2585.517101237348,0.0,0.0,0.5407714290000001,2.7938480009671127,0.0,-4.75,4.489999771118164,-75.61000061035156,0.2086181640625,-0.19415283203125,1.19097900390625,33.7400016784668,0.0,119.0,-0.0873260498046875,-1.3531646728515625,Waiting,0.0,0.0,0.0,0.0,0.0,0.0,0.0,0.0,
6.189027000000002,0.0,0.0,-43062.0,0.0,-1290.0,-942.0156653274825,0.0,0.125,4.927978011,1.107168882487908,0.0,29461.0,39.25,660.0,2545.133809815214,0.0,0.375,3.962401938,2.1803519854626874,0.0,-6891.0,5.875,-637.5,-1213.4274759527968,0.0,0.125,3.818358984,3.8189890347274376,0.0,45544.0,18.625,1935.0,2657.5776254964408,0.0,0.0,0.570068301,2.843640745942603,0.0,-3.990000009536743,5.119999885559082,-67.45999908447266,-0.021484375,0.0054931640625,1.16204833984375,33.7400016784668,0.0,-127.0,-0.02813720703125,-1.33837890625,Waiting,0.0,0.0,0.0,0.0,0.0,0.0,0.0,0.0,
6.249879000000015,0.0,0.0,-43257.0,0.0,-1237.5,-794.3715874732708,0.0,0.125,4.930419417,1.050242861707418,0.0,29589.0,36.625,750.0,2462.5001181418525,0.0,0.25,4.034423415,2.2235584315651895,0.0,-6996.0,9.625,-637.5,-1373.3919751524124,0.0,0.0,3.75976524,3.8248957672394637,0.0,45868.0,19.625,2017.5,2705.380958437624,0.0,0.25,0.654296808,2.8885657208169735,0.0,-2.680000066757202,5.710000038146973,-56.4900016784668,-0.05157470703125,0.02294921875,0.9200439453125,33.7400016784668,0.0,-134.0,0.0446624755859375,-1.3198699951171875,Waiting,0.0,0.0,0.0,0.0,0.0,0.0,0.0,0.0,
6.3106110000000335,0.0,0.0,-43257.0,0.125,-1125.0,-667.3402362746607,0.0,0.125,4.9255366050000005,0.9515595863391051,0.0,29589.0,34.375,660.0,2372.734880378294,0.0,0.25,4.091796456,2.2652158949488874,0.0,-6996.0,12.875,-787.5,-1527.292744857632,0.0,0.0,3.758544537,3.8394192890627603,0.0,45868.0,19.75,2197.5,2741.7423201510815,0.0,0.0,0.7360839090000001,2.9324900904756017,0.0,-1.7100000381469727,5.849999904632568,-49.5099983215332,0.04522705078125,0.15045166015625,0.6864013671875,33.7400016784668,0.0,-145.0,0.0869293212890625,-1.3084869384765625,Waiting,0.0,0.0,0.0,0.0,0.0,0.0,0.0,0.0,
6.372493000000016,0.0,0.0,-43414.0,0.125,-990.0,-584.8270193484474,0.0,0.25,4.831542474,0.8147371385028118,0.0,29696.0,34.375,705.0,2283.8698525703976,0.0,0.25,4.1357417640000005,2.300034495460122,0.0,-7156.0,13.0,-1057.5,-1657.2363855463184,0.0,0.0,3.763427349,3.8592386988970384,0.0,46246.0,17.0,2407.5,2760.520113764536,0.0,0.0,0.8044432770000001,2.9710346564281074,0.0,-0.49000000953674316,6.050000190734863,-39.779998779296875,0.00823974609375,0.07354736328125,0.9288330078125,33.7400016784668,0.0,-121.0,0.1414337158203125,-1.291748046875,Waiting,0.0,0.0,0.0,0.0,0.0,0.0,0.0,0.0,
6.440146999999997,0.0,0.0,-43414.0,0.0,-892.5,-536.8352923217275,0.0,0.25,4.681396005,0.5552159039108266,0.0,29696.0,35.25,765.0,2147.108459663096,0.0,0.25,4.169921448,2.3466539030565863,0.0,-7156.0,11.375,-1350.0,-1830.9612785369675,0.0,0.0,3.773192973,3.8934045623886178,0.0,46246.0,12.875,2610.0,2770.253022735722,0.0,0.0,0.8666991300000001,3.024907516303381,0.0,0.5699999928474426,6.019999980926514,-29.40999984741211,0.08251953125,-0.0479736328125,0.403564453125,33.75,0.0,60.0,0.167999267578125,-1.2742767333984375,Waiting,0.0,0.0,0.0,0.0,0.0,0.0,0.0,0.0,
6.505293000000005,0.0,0.0,-43540.0,0.125,-690.0,-633.8337073834105,0.0,0.875,4.462890168,0.2315277767482229,0.0,29812.0,35.5,472.5,1955.5896706493966,0.0,0.25,4.201659726,2.4006434988099534,0.0,-7405.0,10.5,-1627.5,-2061.0866031752666,0.0,0.0,3.801269142,3.951122358755481,0.0,46691.0,8.5,2812.5,2769.5963202466482,0.0,0.0,0.924072171,3.096758462028828,0.0,1.840000033378601,5.690000057220459,-15.569999694824219,0.3961181640625,0.026123046875,0.4534912109375,33.75,0.0,333.0,0.1690826416015625,-1.254180908203125,Waiting,0.0,0.0,0.0,0.0,0.0,0.0,0.0,0.0,
6.568099000000045,0.0,0.0,-43540.0,0.125,-540.0,-748.1657784789154,0.0,0.625,4.143065982,0.10448096568912824,0.0,29812.0,36.25,735.0,1840.108221458303,0.0,0.375,4.246825737,2.43225075457809,0.0,-7727.0,8.875,-1890.0,-2204.021854164722,0.0,0.0,3.854980074,3.986087659499111,0.0,47165.0,5.375,2940.0,2771.995412735594,0.0,0.0,0.9875487270000001,3.1400294944316225,0.0,3.009999990463257,5.170000076293945,-1.100000023841858,0.2274169921875,-0.18829345703125,1.12005615234375,33.75,0.0,130.0,0.1711883544921875,-1.250762939453125,Waiting,0.0,0.0,0.0,0.0,0.0,0.0,0.0,0.0,
6.638237000000023,0.0,0.0,-43626.0,0.125,-562.5,-855.1719106833639,0.0,0.375,3.8830562430000004,0.14385133567737107,0.0,29992.0,38.375,1290.0,1770.1307620910093,0.0,0.375,4.2724605,2.405507674737346,0.0,-7727.0,6.125,-2107.5,-2207.138156401872,0.0,0.0,3.8977046790000003,4.023733537533915,0.0,47165.0,2.875,3000.0,2696.94322512064,0.0,0.0,1.038818253,3.1494815297879954,0.0,3.819999933242798,4.610000133514404,10.920000076293945,0.0498046875,-0.09429931640625,0.94476318359375,33.75,0.0,-55.0,0.1732635498046875,-1.2540435791015625,Waiting,0.0,0.0,0.0,0.0,0.0,0.0,0.0,0.0,
6.705426000000036,0.0,0.0,-43741.0,0.25,-645.0,-957.6749397299587,0.0,0.125,3.767089458,0.15931360949175072,0.0,30196.0,40.375,1395.0,1727.3632911287962,0.0,0.125,4.287108936,2.3868559864659566,0.0,-8103.0,2.125,-2332.5,-2251.143166752721,0.0,0.0,3.9526363140000003,4.054471038127762,0.0,47670.0,0.0,3135.0,2671.0088368573392,0.0,0.0,1.066894422,3.1609838376510173,0.0,4.610000133514404,3.7699999809265137,26.510000228881836,0.086181640625,-0.15191650390625,0.67462158203125,33.75,0.0,-54.0,0.175628662109375,-1.26312255859375,Waiting,0.0,0.0,0.0,0.0,0.0,0.0,0.0,0.0,
6.770456999999995,0.0,0.0,-43741.0,0.125,-802.5,-848.6769250223947,0.0,0.625,3.7951656270000003,0.37081778746699123,0.0,30196.0,44.125,1410.0,2085.3989478993794,0.0,0.0,4.283446827000001,2.3286795516113803,0.0,-8103.0,0.125,-2422.5,-2121.7176784942294,0.0,0.0,3.966064047,4.0031075704462165,0.0,47670.0,0.0,3225.0,2851.371977850192,0.0,0.0,1.072997937,3.0789776263499684,0.0,4.730000019073486,3.109999895095825,39.130001068115234,0.13214111328125,-0.13372802734375,0.42462158203125,33.75,0.0,-22.0,0.177703857421875,-1.27545166015625,Waiting,0.0,0.0,0.0,0.0,0.0,0.0,0.0,0.0,
6.835114000000002,0.0,0.0,-43905.0,0.0,-1012.5,-948.6879126726739,0.0,0.25,4.000243731,0.2457637722245545,0.0,30457.0,47.0,1665.0,1975.5340920285958,0.0,0.0,4.282226124,2.3583038571968595,0.0,-8510.0,0.0,-2550.0,-2302.7470027217832,0.0,0.0,3.972167562,4.033270897077749,0.0,48169.0,0.25,3127.5,2881.903876200622,0.0,0.0,1.07421864,3.123913329267108,0.0,4.510000228881836,2.559999942779541,51.58000183105469,0.24798583984375,-0.11724853515625,-0.10675048828125,33.75,0.0,71.0,0.1800384521484375,-1.292755126953125,Waiting,0.0,0.0,0.0,0.0,0.0,0.0,0.0,0.0,
6.903210000000021,0.0,0.0,-43905.0,0.0,-1117.5,-1144.477647781929,0.0,0.125,4.056396069,0.14526004610489526,0.0,30457.0,48.75,1800.0,1769.7437057706652,0.0,0.0,4.282226124,2.3811538994405868,0.0,-8510.0,0.0,-2580.0,-2489.4816309891903,0.0,0.0,3.9880367010000004,4.085268836878999,0.0,48169.0,0.375,2977.5,2831.904392608449,0.0,0.0,1.075439343,3.183494916040909,0.0,4.179999828338623,2.119999885559082,63.95000076293945,0.26715087890625,-0.027099609375,0.49468994140625,33.7599983215332,0.0,52.0,0.1801910400390625,-1.3164520263671875,Waiting,0.0,0.0,0.0,0.0,0.0,0.0,0.0,0.0,
6.964646000000008,0.0,0.0,-44093.0,0.0,-1162.5,-1427.2938461131275,0.0,0.125,4.073485911000001,0.10498285610692909,0.0,30794.0,48.375,2077.5,1530.107513522259,0.0,0.0,4.287108936,2.3769047949576816,0.0,-8922.0,0.125,-2565.0,-2686.187725718327,0.0,0.0,3.9990230280000003,4.152830131812236,0.0,48632.0,0.625,2895.0,2742.2009002960863,0.0,0.0,1.07421864,3.248559685363197,0.0,4.0,1.690000057220459,79.38999938964844,0.27685546875,-0.213134765625,1.2801513671875,33.7599983215332,0.0,-253.0,0.175201416015625,-1.357086181640625,Waiting,0.0,0.0,0.0,0.0,0.0,0.0,0.0,0.0,
