Time,ClimberA1,ClimberA2,FRpos,FRCurrent,FRspeed,FRsetpoint,FRApos,FRACurrent,FREncpos,FREncSetpoint,FREncSpeed,FLpos,FLCurrent,FLspeed,FLsetpoint,FLApos,FLACurrent,FLEncpos,FLEncSetpoint,FLEncSpeed,BRpos,BRCurrent,BRspeed,BRsetpoint,BRApos,BRACurrent,BREncpos,BREncSetpoint,BREncSpeed,BLpos,BLCurrent,BLspeed,BLsetpoint,BLApos,BLACurrent,BLEncpos,BLEncSetpoint,BLEncSpeed,navx_Pitch,navx_Roll,navx_Yaw,navx_XAcc,navx_YAcc,navx_ZAcc,navx_Temp,navx_Bar,navx_Alt,navx_XDis,navx_YDis,GearPlacerState,ShootOutputV,ShootOutputCurrent,ShootEncPos,ShootEncVelocity,ShootSpeed,ShootSetpoint,CarouselSetpoint,CarouselCurrent,
0.15979099999996835,0.0,0.0,21.0,0.0,0.0,0.0,0.0,0.125,4.155273012,0.0,0.0,345.0,0.0,0.0,-0.0,0.0,0.0,2.042236119,0.0,0.0,37.0,0.0,0.0,0.0,0.0,0.0,4.686278817,0.0,0.0,-92.0,0.0,0.0,-0.0,0.0,0.0,3.0065914890000003,0.0,0.0,1.059999942779541,0.10000000149011612,0.0,0.0015869140625,0.01739501953125,0.99835205078125,34.7400016784668,0.0,0.0,-0.071502685546875,0.271026611328125,Waiting,0.0,0.0,-385214.0,0.0,0.0,0.0,0.0,0.0,
0.2828379999999888,0.0,0.0,21.0,0.0,0.0,0.0,0.0,0.125,4.152831606,0.0,0.0,345.0,0.0,0.0,-0.0,0.0,0.0,2.042236119,0.0,0.0,37.0,0.0,0.0,0.0,0.0,0.0,4.686278817,0.0,0.0,-92.0,0.0,0.0,-0.0,0.0,0.0,3.0078121920000003,0.0,0.0,1.0499999523162842,0.09000000357627869,0.0,0.004638671875,0.0184326171875,0.9970703125,34.7400016784668,0.0,3.0,-0.071502685546875,0.271026611328125,Waiting,0.0,0.0,-385214.0,0.0,0.0,0.0,0.0,0.0,
0.3938630000000121,0.0,0.0,21.0,0.0,0.0,0.0,0.0,0.0,4.154052309,0.0,0.0,345.0,0.0,0.0,-0.0,0.0,0.0,2.042236119,0.0,0.0,37.0,0.0,0.0,0.0,0.0,0.0,4.685058114,0.0,0.0,-92.0,0.0,0.0,-0.0,0.0,0.0,3.0017086770000003,0.0,0.0,1.059999942779541,0.10000000149011612,0.0,0.00555419921875,0.01971435546875,1.0001220703125,34.72999954223633,0.0,3.0,-0.071502685546875,0.271026611328125,Waiting,0.0,0.0,-385214.0,0.0,0.0,0.0,0.0,0.0,
0.5118959999999497,0.0,0.0,21.0,0.0,0.0,0.0,0.0,0.125,4.151610903,0.0,0.0,345.0,0.0,0.0,-0.0,0.0,0.0,2.041015416,0.0,0.0,37.0,0.0,0.0,0.0,0.0,0.0,4.686278817,0.0,0.0,-92.0,0.0,0.0,-0.0,0.0,0.0,3.0078121920000003,0.0,0.0,1.059999942779541,0.10000000149011612,-0.009999999776482582,-0.00872802734375,0.01690673828125,1.00067138671875,34.72999954223633,0.0,-10.0,-0.071502685546875,0.271026611328125,Waiting,0.0,0.0,-385214.0,0.0,0.0,0.0,0.0,0.0,
0.6270509999999776,0.0,0.0,21.0,0.0,0.0,0.0,0.0,0.125,4.154052309,0.0,0.0,345.0,0.0,0.0,-0.0,0.0,0.0,2.042236119,0.0,0.0,37.0,0.0,0.0,0.0,0.0,0.0,4.683837411,0.0,0.0,-92.0,0.0,0.0,-0.0,0.0,0.0,3.0065914890000003,0.0,0.0,1.059999942779541,0.10000000149011612,-0.009999999776482582,0.0030517578125,0.0224609375,1.00054931640625,34.72999954223633,0.0,1.0,-0.071502685546875,0.271026611328125,Waiting,0.0,0.0,-385214.0,0.0,0.0,0.0,0.0,0.0,
0.7440169999999926,0.0,0.0,21.0,0.0,0.0,0.0,0.0,0.125,4.152831606,0.0,0.0,345.0,0.0,0.0,-0.0,0.0,0.0,2.041015416,0.0,0.0,37.0,0.0,0.0,0.0,0.0,0.0,4.686278817,0.0,0.0,-92.0,0.0,0.0,-0.0,0.0,0.0,3.0065914890000003,0.0,0.0,1.059999942779541,0.10000000149011612,-0.009999999776482582,-0.00323486328125,0.0201416015625,1.00592041015625,34.72999954223633,0.0,-5.0,-0.071502685546875,0.271026611328125,Waiting,0.0,0.0,-385214.0,0.0,0.0,0.0,0.0,0.0,
0.8522469999999739,0.0,0.0,21.0,0.0,0.0,0.0,0.0,0.125,4.152831606,0.0,0.0,345.0,0.0,0.0,-0.0,0.0,0.0,2.042236119,0.0,0.0,37.0,0.0,0.0,0.0,0.0,0.0,4.686278817,0.0,0.0,-92.0,0.0,0.0,-0.0,0.0,0.0,3.0065914890000003,0.0,0.0,1.059999942779541,0.10999999940395355,-0.009999999776482582,0.00244140625,0.01904296875,0.99041748046875,34.72999954223633,0.0,0.0,-0.071502685546875,0.271026611328125,Waiting,0.0,0.0,-385214.0,0.0,0.0,0.0,0.0,0.0,
0.9693710000000428,0.0,0.0,21.0,0.0,0.0,0.0,0.0,0.125,4.154052309,0.0,0.0,345.0,0.0,0.0,-0.0,0.0,0.0,2.042236119,0.0,0.0,37.0,0.0,0.0,0.0,0.0,0.0,4.68749952,0.0,0.0,-92.0,0.0,0.0,-0.0,0.0,0.0,3.0065914890000003,0.0,0.0,1.059999942779541,0.10000000149011612,-0.009999999776482582,0.0023193359375,0.014892578125,1.00164794921875,34.70000076293945,0.0,0.0,-0.071502685546875,0.271026611328125,Waiting,0.0,0.0,-385214.0,0.0,0.0,0.0,0.0,0.0,
1.0745379999999423,0.0,0.0,21.0,0.0,0.0,0.0,0.0,0.125,4.152831606,0.0,0.0,345.0,0.0,0.0,-0.0,0.0,0.0,2.041015416,0.0,0.0,37.0,0.0,0.0,0.0,0.0,0.0,4.686278817,0.0,0.0,-92.0,0.0,0.0,-0.0,0.0,0.0,3.0078121920000003,0.0,0.0,1.059999942779541,0.10999999940395355,-0.009999999776482582,0.00286865234375,0.01904296875,0.99853515625,34.70000076293945,0.0,0.0,-0.071502685546875,0.271026611328125,Waiting,0.0,0.0,-385214.0,0.0,0.0,0.0,0.0,0.0,
1.1925749999999535,0.0,0.0,21.0,0.0,0.0,0.0,0.0,0.125,4.152831606,0.0,0.0,345.0,0.0,0.0,-0.0,0.0,0.0,2.042236119,0.0,0.0,37.0,0.0,0.0,0.0,0.0,0.0,4.691161629000001,0.0,0.0,-92.0,0.0,0.0,-0.0,0.0,0.0,3.0090328950000003,0.0,0.0,1.059999942779541,0.10999999940395355,-0.009999999776482582,-0.00201416015625,0.02081298828125,0.99993896484375,34.70000076293945,0.0,-3.0,-0.071502685546875,0.271026611328125,Waiting,0.0,0.0,-385214.0,0.0,0.0,0.0,0.0,0.0,
1.3007099999999627,0.0,0.0,21.0,0.0,0.0,0.0,0.0,0.125,4.152831606,0.0,0.0,345.0,0.0,0.0,-0.0,0.0,0.0,2.042236119,0.0,0.0,37.0,0.0,0.0,0.0,0.0,0.0,4.686278817,0.0,0.0,-92.0,0.0,0.0,-0.0,0.0,0.0,3.0065914890000003,0.0,0.0,1.0499999523162842,0.10000000149011612,-0.009999999776482582,0.0,0.01837158203125,0.9993896484375,34.70000076293945,0.0,-1.0,-0.071502685546875,0.271026611328125,Waiting,0.0,0.0,-385214.0,0.0,0.0,0.0,0.0,0.0,
1.4116779999999562,0.0,0.0,21.0,0.0,0.0,0.0,0.0,0.125,4.152831606,0.0,0.0,345.0,0.0,0.0,-0.0,0.0,0.0,2.042236119,0.0,0.0,37.0,0.0,0.0,0.0,0.0,0.0,4.68749952,0.0,0.0,-92.0,0.0,0.0,-0.0,0.0,0.0,3.0078121920000003,0.0,0.0,1.0499999523162842,0.10000000149011612,-0.009999999776482582,0.00286865234375,0.01910400390625,0.99761962890625,34.720001220703125,0.0,0.0,-0.071502685546875,0.271026611328125,Waiting,0.0,0.0,-385214.0,0.0,0.0,0.0,0.0,0.0,
1.5155089999999618,0.0,0.0,21.0,0.0,0.0,0.0,0.0,0.125,4.163817933,0.0,0.0,345.0,0.0,0.0,-0.0,0.0,0.0,2.042236119,0.0,0.0,37.0,0.0,0.0,0.0,0.0,0.0,4.686278817,0.0,0.0,-92.0,0.0,0.0,-0.0,0.0,0.0,3.0090328950000003,0.0,0.0,1.0499999523162842,0.10000000149011612,-0.009999999776482582,-3.662109375E-4,0.0228271484375,1.01031494140625,34.720001220703125,0.0,-2.0,-0.071502685546875,0.271026611328125,Waiting,0.0,0.0,-385214.0,0.0,0.0,0.0,0.0,0.0,
1.637734999999986,0.0,0.0,21.0,0.0,0.0,0.0,0.0,0.125,4.152831606,0.0,0.0,345.0,0.0,0.0,-0.0,0.0,0.0,2.041015416,0.0,0.0,37.0,0.0,0.0,0.0,0.0,0.0,4.686278817,0.0,0.0,-92.0,0.0,0.0,-0.0,0.0,0.0,3.0065914890000003,0.0,0.0,1.059999942779541,0.10000000149011612,-0.009999999776482582,0.00146484375,0.0162353515625,0.99871826171875,34.720001220703125,0.0,0.0,-0.071502685546875,0.271026611328125,Waiting,0.0,0.0,-385214.0,0.0,0.0,0.0,0.0,0.0,
1.745481000000029,0.0,0.0,21.0,0.0,0.0,0.0,0.0,0.125,4.152831606,0.0,0.0,345.0,0.0,0.0,-0.0,0.0,0.0,2.042236119,0.0,0.0,37.0,0.0,0.0,0.0,0.0,0.0,4.686278817,0.0,0.0,-92.0,0.0,0.0,-0.0,0.0,0.0,3.01513641,0.0,0.0,1.0499999523162842,0.09000000357627869,-0.009999999776482582,0.0045166015625,0.01837158203125,0.99310302734375,34.720001220703125,0.0,2.0,-0.071502685546875,0.271026611328125,Waiting,0.0,0.0,-385214.0,0.0,0.0,0.0,0.0,0.0,
1.8503589999999386,0.0,0.0,21.0,0.0,0.0,0.0,0.0,0.125,4.151610903,0.0,0.0,345.0,0.0,0.0,-0.0,0.0,0.0,2.041015416,0.0,0.0,37.0,0.0,0.0,0.0,0.0,0.0,4.686278817,0.0,0.0,-92.0,0.0,0.0,-0.0,0.0,0.0,3.0065914890000003,0.0,0.0,1.059999942779541,0.10000000149011612,-0.009999999776482582,0.0013427734375,0.0150146484375,0.9959716796875,34.720001220703125,0.0,0.0,-0.071502685546875,0.271026611328125,Waiting,0.0,0.0,-385214.0,0.0,0.0,0.0,0.0,0.0,
1.9550659999999915,0.0,0.0,21.0,0.0,0.0,0.0,0.0,0.125,4.154052309,0.0,0.0,345.0,0.0,0.0,-0.0,0.0,0.0,2.041015416,0.0,0.0,37.0,0.0,0.0,0.0,0.0,0.0,4.686278817,0.0,0.0,-92.0,0.0,0.0,-0.0,0.0,0.0,3.0065914890000003,0.0,0.0,1.0499999523162842,0.09000000357627869,-0.009999999776482582,0.002197265625,0.01947021484375,0.99493408203125,34.68000030517578,0.0,0.0,-0.071502685546875,0.271026611328125,Waiting,0.0,0.0,-385214.0,0.0,0.0,0.0,0.0,0.0,
2.0699810000000287,0.0,0.0,21.0,0.0,0.0,0.0,0.0,0.125,4.152831606,0.0,0.0,345.0,0.0,0.0,-0.0,0.0,0.0,2.042236119,0.0,0.0,37.0,0.0,0.0,0.0,0.0,0.0,4.68749952,0.0,0.0,-92.0,0.0,0.0,-0.0,0.0,0.0,3.0065914890000003,0.0,0.0,1.0499999523162842,0.09000000357627869,-0.009999999776482582,0.0048828125,0.0198974609375,0.9974365234375,34.68000030517578,0.0,3.0,-0.071502685546875,0.271026611328125,Waiting,0.0,0.0,-385214.0,0.0,0.0,0.0,0.0,0.0,
2.1739189999999944,0.0,0.0,21.0,0.0,0.0,0.0,0.0,0.0,4.152831606,0.0,0.0,345.0,0.0,0.0,-0.0,0.0,0.0,2.042236119,0.0,0.0,37.0,0.0,0.0,0.0,0.0,0.0,4.686278817,0.0,0.0,-92.0,0.0,0.0,-0.0,0.0,0.0,3.0078121920000003,0.0,0.0,1.0499999523162842,0.09000000357627869,-0.009999999776482582,0.0028076171875,0.018798828125,0.99945068359375,34.68000030517578,0.0,1.0,-0.071502685546875,0.271026611328125,Waiting,0.0,0.0,-385214.0,0.0,0.0,0.0,0.0,0.0,
2.2765139999999664,0.0,0.0,21.0,0.0,0.0,0.0,0.0,0.125,4.152831606,0.0,0.0,345.0,0.0,0.0,-0.0,0.0,0.0,2.041015416,0.0,0.0,37.0,0.0,0.0,0.0,0.0,0.0,4.68749952,0.0,0.0,-92.0,0.0,0.0,-0.0,0.0,0.0,3.0078121920000003,0.0,0.0,1.0499999523162842,0.09000000357627869,-0.009999999776482582,0.0028076171875,0.017822265625,1.00201416015625,34.68000030517578,0.0,1.0,-0.071502685546875,0.271026611328125,Waiting,0.0,0.0,-385214.0,0.0,0.0,0.0,0.0,0.0,
2.3848000000000464,0.0,0.0,21.0,0.0,0.0,0.0,0.0,0.0,4.119872625,0.0,0.0,345.0,0.0,0.0,-0.0,0.0,0.0,2.042236119,0.0,0.0,37.0,0.0,0.0,0.0,0.0,0.0,4.686278817,0.0,0.0,-92.0,0.0,0.0,-0.0,0.0,0.0,3.0065914890000003,0.0,0.0,1.0499999523162842,0.10000000149011612,-0.019999999552965164,6.7138671875E-4,0.016845703125,0.99896240234375,34.68000030517578,0.0,-1.0,-0.071502685546875,0.271026611328125,Waiting,0.0,0.0,-385214.0,0.0,0.0,0.0,0.0,0.0,
2.491222999999998,0.0,0.0,21.0,0.0,0.0,0.0,0.0,0.125,4.152831606,0.0,0.0,345.0,0.0,0.0,-0.0,0.0,0.0,2.042236119,0.0,0.0,37.0,0.0,0.0,0.0,0.0,0.0,4.686278817,0.0,0.0,-92.0,0.0,0.0,-0.0,0.0,0.0,3.0078121920000003,0.0,0.0,1.0499999523162842,0.10000000149011612,-0.019999999552965164,-7.32421875E-4,0.01611328125,0.99359130859375,34.7400016784668,0.0,-2.0,-0.071502685546875,0.271026611328125,Waiting,0.0,0.0,-385214.0,0.0,0.0,0.0,0.0,0.0,
2.59523199999996,0.0,0.0,21.0,0.0,0.0,0.0,0.0,0.125,4.152831606,0.0,0.0,345.0,0.0,0.0,-0.0,0.0,0.0,2.042236119,0.0,0.0,37.0,0.0,0.0,0.0,0.0,0.0,4.686278817,0.0,0.0,-92.0,0.0,0.0,-0.0,0.0,0.0,3.0078121920000003,0.0,0.0,1.0499999523162842,0.10000000149011612,-0.019999999552965164,0.002685546875,0.01715087890625,1.00054931640625,34.7400016784668,0.0,0.0,-0.071502685546875,0.271026611328125,Waiting,0.0,0.0,-385214.0,0.0,0.0,0.0,0.0,0.0,
2.704594000000041,0.0,0.0,21.0,0.0,0.0,0.0,0.0,0.125,4.152831606,0.0,0.0,345.0,0.0,0.0,-0.0,0.0,0.0,2.042236119,0.0,0.0,37.0,0.0,0.0,0.0,0.0,0.0,4.68749952,0.0,0.0,-92.0,0.0,0.0,-0.0,0.0,0.0,3.0078121920000003,0.0,0.0,1.0399999618530273,0.10999999940395355,-0.019999999552965164,0.00299072265625,0.0196533203125,0.99407958984375,34.7400016784668,0.0,1.0,-0.071502685546875,0.271026611328125,Waiting,0.0,0.0,-385214.0,0.0,0.0,0.0,0.0,0.0,
2.8079889999999432,0.0,0.0,21.0,0.0,0.0,0.0,0.0,0.125,4.154052309,0.0,0.0,345.0,0.0,0.0,-0.0,0.0,0.0,2.042236119,0.0,0.0,37.0,0.0,0.0,0.0,0.0,0.0,4.686278817,0.0,0.0,-92.0,0.0,0.0,-0.0,0.0,0.0,3.0078121920000003,0.0,0.0,1.0499999523162842,0.10000000149011612,-0.019999999552965164,0.0010986328125,0.02020263671875,0.9984130859375,34.7400016784668,0.0,0.0,-0.071502685546875,0.271026611328125,Waiting,0.0,0.0,-385214.0,0.0,0.0,0.0,0.0,0.0,
2.924317000000039,0.0,0.0,21.0,0.0,0.0,0.0,0.0,0.125,4.152831606,0.0,0.0,345.0,0.0,0.0,-0.0,0.0,0.0,2.042236119,0.0,0.0,37.0,0.0,0.0,0.0,0.0,0.0,4.686278817,0.0,0.0,-92.0,0.0,0.0,-0.0,0.0,0.0,3.0078121920000003,0.0,0.0,1.0499999523162842,0.10000000149011612,-0.019999999552965164,0.0035400390625,0.02069091796875,0.9974365234375,34.7400016784668,0.0,1.0,-0.071502685546875,0.271026611328125,Waiting,0.0,0.0,-385214.0,0.0,0.0,0.0,0.0,0.0,
3.0292310000000287,0.0,0.0,21.0,0.0,0.0,0.0,0.0,0.125,4.151610903,0.0,0.0,345.0,0.0,0.0,-0.0,0.0,0.0,2.042236119,0.0,0.0,37.0,0.0,0.0,0.0,0.0,0.0,4.68749952,0.0,0.0,-92.0,0.0,0.0,-0.0,0.0,0.0,3.0065914890000003,0.0,0.0,1.0499999523162842,0.10999999940395355,-0.029999999329447746,0.00225830078125,0.0184326171875,0.9970703125,34.7400016784668,0.0,0.0,-0.071502685546875,0.271026611328125,Waiting,0.0,0.0,-385214.0,0.0,0.0,0.0,0.0,0.0,
3.1325439999999944,0.0,0.0,21.0,0.0,0.0,0.0,0.0,0.125,4.152831606,0.0,0.0,345.0,0.0,0.0,-0.0,0.0,0.0,2.042236119,0.0,0.0,37.0,0.0,0.0,0.0,0.0,0.0,4.686278817,0.0,0.0,-92.0,0.0,0.0,-0.0,0.0,0.0,3.0065914890000003,0.0,0.0,1.0499999523162842,0.10999999940395355,-0.029999999329447746,0.0045166015625,0.017578125,0.9993896484375,34.7400016784668,0.0,2.0,-0.071502685546875,0.271026611328125,Waiting,0.0,0.0,-385214.0,0.0,0.0,0.0,0.0,0.0,
3.2389420000000393,0.0,0.0,21.0,0.0,0.0,0.0,0.0,0.125,4.152831606,0.0,0.0,345.0,0.0,0.0,-0.0,0.0,0.0,2.042236119,0.0,0.0,37.0,0.0,0.0,0.0,0.0,0.0,4.686278817,0.0,0.0,-92.0,0.0,0.0,-0.0,0.0,0.0,3.0078121920000003,0.0,0.0,1.0499999523162842,0.11999999731779099,-0.029999999329447746,0.0030517578125,0.0189208984375,0.99591064453125,34.7400016784668,0.0,0.0,-0.071502685546875,0.271026611328125,Waiting,0.0,0.0,-385214.0,0.0,0.0,0.0,0.0,0.0,
3.345996999999974,0.0,0.0,21.0,0.0,0.0,0.0,0.0,0.125,4.152831606,0.0,0.0,345.0,0.0,0.0,-0.0,0.0,0.0,2.042236119,0.0,0.0,37.0,0.0,0.0,0.0,0.0,0.0,4.68749952,0.0,0.0,-92.0,0.0,0.0,-0.0,0.0,0.0,3.0078121920000003,0.0,0.0,1.0499999523162842,0.10000000149011612,-0.029999999329447746,0.00714111328125,0.013916015625,0.9993896484375,34.7400016784668,0.0,5.0,-0.071502685546875,0.271026611328125,Waiting,0.0,0.0,-385214.0,0.0,0.0,0.0,0.0,0.0,
3.4506720000000204,0.0,0.0,21.0,0.0,0.0,0.0,0.0,0.125,4.152831606,0.0,0.0,345.0,0.0,0.0,-0.0,0.0,0.0,2.042236119,0.0,0.0,37.0,0.0,0.0,0.0,0.0,0.0,4.685058114,0.0,0.0,-92.0,0.0,0.0,-0.0,0.0,0.0,3.0078121920000003,0.0,0.0,1.0499999523162842,0.10999999940395355,-0.029999999329447746,-6.7138671875E-4,0.01849365234375,1.0045166015625,34.709999084472656,0.0,-2.0,-0.071502685546875,0.271026611328125,Waiting,0.0,0.0,-385214.0,0.0,0.0,0.0,0.0,0.0,
3.555863000000012,0.0,0.0,21.0,0.0,0.0,0.0,0.0,0.125,4.152831606,0.0,0.0,345.0,0.0,0.0,-0.0,0.0,0.0,2.042236119,0.0,0.0,37.0,0.0,0.0,0.0,0.0,0.0,4.68749952,0.0,0.0,-92.0,0.0,0.0,-0.0,0.0,0.0,3.0065914890000003,0.0,0.0,1.0499999523162842,0.10999999940395355,-0.019999999552965164,0.00347900390625,0.01715087890625,0.99609375,34.709999084472656,0.0,1.0,-0.071502685546875,0.271026611328125,Waiting,0.0,0.0,-385214.0,0.0,0.0,0.0,0.0,0.0,
3.658140999999945,0.0,0.0,21.0,0.0,0.0,0.0,0.0,0.125,4.152831606,0.0,0.0,345.0,0.0,0.0,-0.0,0.0,0.0,2.041015416,0.0,0.0,37.0,0.0,0.0,0.0,0.0,0.0,4.686278817,0.0,0.0,-92.0,0.0,0.0,-0.0,0.0,0.0,3.0065914890000003,0.0,0.0,1.0499999523162842,0.10000000149011612,-0.029999999329447746,0.00225830078125,0.0189208984375,1.02099609375,34.709999084472656,0.0,0.0,-0.07177734375,0.271026611328125,Waiting,0.0,0.0,-385214.0,0.0,0.0,0.0,0.7,0.875,
3.7695810000000054,0.0,0.0,21.0,0.0,0.0,0.0,0.0,0.125,4.152831606,0.0,0.0,345.0,0.0,0.0,-0.0,0.0,0.0,2.041015416,0.0,0.0,37.0,0.0,0.0,0.0,0.0,0.0,4.686278817,0.0,0.0,-92.0,0.0,0.0,-0.0,0.0,0.0,3.0065914890000003,0.0,0.0,1.0399999618530273,0.09000000357627869,-0.029999999329447746,-0.00372314453125,0.02459716796875,1.00006103515625,34.709999084472656,0.0,-5.0,-0.0716400146484375,0.27093505859375,Waiting,0.0,0.0,-385214.0,0.0,0.0,0.0,0.7,1.125,
3.877091999999946,0.0,0.0,21.0,0.0,0.0,0.0,0.0,0.125,4.1503902,0.0,0.0,345.0,0.0,0.0,-0.0,0.0,0.0,2.041015416,0.0,0.0,37.0,0.0,0.0,0.0,0.0,0.0,4.686278817,0.0,0.0,-92.0,0.0,0.0,-0.0,0.0,0.0,3.0078121920000003,0.0,0.0,1.0299999713897705,0.10000000149011612,-0.029999999329447746,-0.01458740234375,0.0404052734375,1.026123046875,34.709999084472656,0.0,-16.0,-0.071685791015625,0.2709503173828125,Waiting,0.0,0.0,-385214.0,0.0,0.0,0.0,0.7,0.625,
3.9873419999999458,0.0,0.0,21.0,0.0,0.0,0.0,0.0,0.125,4.154052309,0.0,0.0,345.0,0.0,0.0,-0.0,0.0,0.0,2.042236119,0.0,0.0,37.0,0.0,0.0,0.0,0.0,0.0,4.68749952,0.0,0.0,-92.0,0.0,0.0,-0.0,0.0,0.0,3.0078121920000003,0.0,0.0,1.0299999713897705,0.10000000149011612,-0.029999999329447746,0.00433349609375,0.01141357421875,0.9876708984375,34.72999954223633,0.0,2.0,-0.071685791015625,0.2709808349609375,Waiting,0.0,0.0,-385214.0,0.0,0.0,0.0,0.7,0.375,
4.092471000000019,0.0,0.0,21.0,0.0,0.0,0.0,0.0,0.125,4.152831606,0.0,0.0,345.0,0.0,0.0,-0.0,0.0,0.0,2.042236119,0.0,0.0,37.0,0.0,0.0,0.0,0.0,0.0,4.685058114,0.0,0.0,-92.0,0.0,0.0,-0.0,0.0,0.0,3.0065914890000003,0.0,0.0,1.0299999713897705,0.10000000149011612,-0.029999999329447746,0.00653076171875,0.008056640625,0.9805908203125,34.72999954223633,0.0,4.0,-0.071685791015625,0.2709808349609375,Waiting,0.0,0.0,-385214.0,0.0,0.0,0.0,0.7,8.625,
4.2054409999999915,0.0,0.0,21.0,0.0,0.0,0.0,0.0,0.125,4.151610903,0.0,0.0,345.0,0.0,0.0,-0.0,0.0,0.0,2.041015416,0.0,0.0,37.0,0.0,0.0,0.0,0.0,0.0,4.686278817,0.0,0.0,-92.0,0.0,0.0,-0.0,0.0,0.0,3.0078121920000003,0.0,0.0,1.0299999713897705,0.10000000149011612,-0.029999999329447746,0.00506591796875,0.015380859375,0.99151611328125,34.72999954223633,0.0,3.0,-0.071685791015625,0.2709808349609375,Waiting,0.0,0.0,-385214.0,0.0,0.0,0.0,0.7,13.0,
4.308292000000016,0.0,0.0,21.0,0.0,0.0,0.0,0.0,0.125,4.152831606,0.0,0.0,345.0,0.0,0.0,-0.0,0.0,0.0,2.041015416,0.0,0.0,37.0,0.0,0.0,0.0,0.0,0.0,4.68749952,0.0,0.0,-92.0,0.0,0.0,-0.0,0.0,0.0,3.0017086770000003,0.0,0.0,1.0399999618530273,0.10000000149011612,-0.029999999329447746,0.00323486328125,0.01837158203125,0.97760009765625,34.72999954223633,0.0,1.0,-0.071685791015625,0.2709808349609375,Waiting,0.0,0.0,-385214.0,0.0,0.0,0.0,0.7,12.875,
4.414020999999949,0.0,0.0,21.0,0.0,0.0,0.0,0.0,0.125,4.152831606,0.0,0.0,345.0,0.0,0.0,-0.0,0.0,0.0,2.042236119,0.0,0.0,37.0,0.0,0.0,0.0,0.0,0.0,4.686278817,0.0,0.0,-92.0,0.0,0.0,-0.0,0.0,0.0,3.0090328950000003,0.0,0.0,1.0399999618530273,0.09000000357627869,-0.029999999329447746,0.0067138671875,0.01953125,0.99468994140625,34.72999954223633,0.0,5.0,-0.071685791015625,0.2709808349609375,Waiting,0.0,0.0,-385214.0,0.0,0.0,0.0,0.7,12.75,
4.52759699999995,0.0,0.0,21.0,0.0,0.0,0.0,0.0,0.125,4.152831606,0.0,0.0,345.0,0.0,0.0,-0.0,0.0,0.0,2.041015416,0.0,0.0,37.0,0.0,0.0,0.0,0.0,0.0,4.68749952,0.0,0.0,-92.0,0.0,0.0,-0.0,0.0,0.0,3.0078121920000003,0.0,0.0,1.0399999618530273,0.10000000149011612,-0.029999999329447746,0.0037841796875,0.018310546875,1.0010986328125,34.72999954223633,0.0,2.0,-0.071685791015625,0.2709808349609375,Waiting,0.0,0.0,-385214.0,0.0,0.0,0.0,0.7,12.75,
4.630336999999941,0.0,0.0,21.0,0.0,0.0,0.0,0.0,0.125,4.151610903,0.0,0.0,345.0,0.0,0.0,-0.0,0.0,0.0,2.041015416,0.0,0.0,37.0,0.0,0.0,0.0,0.0,0.0,4.686278817,0.0,0.0,-92.0,0.0,0.0,-0.0,0.0,0.0,3.0065914890000003,0.0,0.0,1.0499999523162842,0.09000000357627869,-0.03999999910593033,4.8828125E-4,0.02069091796875,0.99713134765625,34.72999954223633,0.0,-1.0,-0.071685791015625,0.2709808349609375,Waiting,0.0,0.0,-385214.0,0.0,0.0,0.0,0.7,12.75,
4.734528000000049,0.0,0.0,21.0,0.0,0.0,0.0,0.0,0.125,4.152831606,0.0,0.0,345.0,0.0,0.0,-0.0,0.0,0.0,2.041015416,0.0,0.0,37.0,0.0,0.0,0.0,0.0,0.0,4.68749952,0.0,0.0,-92.0,0.0,0.0,-0.0,0.0,0.0,3.0078121920000003,0.0,0.0,1.0499999523162842,0.10000000149011612,-0.03999999910593033,0.00152587890625,0.01947021484375,1.0037841796875,34.72999954223633,0.0,0.0,-0.071685791015625,0.2709808349609375,Waiting,0.0,0.0,-385214.0,0.0,0.0,0.0,0.7,12.625,
4.846937000000034,0.0,0.0,21.0,0.0,0.0,0.0,0.0,0.125,4.155273012,0.0,0.0,345.0,0.0,0.0,-0.0,0.0,0.0,2.042236119,0.0,0.0,37.0,0.0,0.0,0.0,0.0,0.0,4.685058114,0.0,0.0,-92.0,0.0,0.0,-0.0,0.0,0.0,3.0078121920000003,0.0,0.0,1.0499999523162842,0.10000000149011612,-0.03999999910593033,8.544921875E-4,0.01910400390625,1.0006103515625,34.72999954223633,0.0,0.0,-0.071685791015625,0.2709808349609375,Waiting,0.0,0.0,-385214.0,0.0,0.0,0.0,0.7,12.625,
4.951373000000022,0.0,0.0,21.0,0.0,0.0,0.0,0.0,0.125,4.152831606,0.0,0.0,345.0,0.0,0.0,-0.0,0.0,0.0,2.042236119,0.0,0.0,37.0,0.0,0.0,0.0,0.0,0.0,4.68749952,0.0,0.0,-92.0,0.0,0.0,-0.0,0.0,0.0,3.0078121920000003,0.0,0.0,1.059999942779541,0.10000000149011612,-0.03999999910593033,-0.001220703125,0.01910400390625,1.005126953125,34.72999954223633,0.0,-3.0,-0.071685791015625,0.2709808349609375,Waiting,0.0,0.0,-385214.0,0.0,0.0,0.0,0.7,12.5,
5.053790999999968,0.0,0.0,21.0,0.0,0.0,0.0,0.0,0.125,4.151610903,0.0,0.0,345.0,0.0,0.0,-0.0,0.0,0.0,2.041015416,0.0,0.0,37.0,0.0,0.0,0.0,0.0,0.0,4.686278817,0.0,0.0,-92.0,0.0,0.0,-0.0,0.0,0.0,3.0065914890000003,0.0,0.0,1.059999942779541,0.10000000149011612,-0.03999999910593033,0.0028076171875,0.02093505859375,0.99749755859375,34.709999084472656,0.0,1.0,-0.071685791015625,0.2709808349609375,Waiting,0.0,0.0,-385214.0,0.0,0.0,0.0,0.7,12.5,
5.160692000000039,0.0,0.0,21.0,0.0,0.0,0.0,0.0,0.125,4.152831606,0.0,0.0,345.0,0.0,0.0,-0.0,0.0,0.0,2.041015416,0.0,0.0,37.0,0.0,0.0,0.0,0.0,0.0,4.685058114,0.0,0.0,-92.0,0.0,0.0,-0.0,0.0,0.0,3.0078121920000003,0.0,0.0,1.059999942779541,0.10000000149011612,-0.03999999910593033,0.00457763671875,0.01812744140625,1.0,34.709999084472656,0.0,2.0,-0.071685791015625,0.2709808349609375,Waiting,0.0,0.0,-385214.0,0.0,0.0,0.0,0.7,12.5,
5.2709320000000295,0.0,0.0,21.0,0.0,0.0,0.0,0.0,0.125,4.152831606,0.0,0.0,345.0,0.0,0.0,-0.0,0.0,0.0,2.042236119,0.0,0.0,37.0,0.0,0.0,0.0,0.0,0.0,4.686278817,0.0,0.0,-92.0,0.0,0.0,-0.0,0.0,0.0,3.0065914890000003,0.0,0.0,1.059999942779541,0.10000000149011612,-0.03999999910593033,0.0028076171875,0.02117919921875,0.998291015625,34.709999084472656,0.0,1.0,-0.071685791015625,0.2709808349609375,Waiting,0.0,0.0,-385214.0,0.0,0.0,0.0,0.7,12.375,
5.379996000000043,0.0,0.0,21.0,0.0,0.0,0.0,0.0,0.125,4.152831606,0.0,0.0,345.0,0.0,0.0,-0.0,0.0,0.0,2.042236119,0.0,0.0,37.0,0.0,0.0,0.0,0.0,0.0,4.686278817,0.0,0.0,-92.0,0.0,0.0,-0.0,0.0,0.0,3.0078121920000003,0.0,0.0,1.059999942779541,0.10000000149011612,-0.03999999910593033,1.8310546875E-4,0.0196533203125,0.99365234375,34.709999084472656,0.0,-1.0,-0.071685791015625,0.2709808349609375,Waiting,0.0,0.0,-385214.0,0.0,0.0,0.0,0.7,12.375,
5.488108999999938,0.0,0.0,21.0,0.0,0.0,0.0,0.0,0.125,4.139403873,0.0,0.0,345.0,0.0,0.0,-0.0,0.0,0.0,2.042236119,0.0,0.0,37.0,0.0,0.0,0.0,0.0,0.0,4.686278817,0.0,0.0,-92.0,0.0,0.0,-0.0,0.0,0.0,3.0065914890000003,0.0,0.0,1.0700000524520874,0.10000000149011612,-0.03999999910593033,0.0028076171875,0.01861572265625,0.99884033203125,34.720001220703125,0.0,1.0,-0.071685791015625,0.2709808349609375,Waiting,0.0,0.0,-385214.0,0.0,0.0,0.0,0.7,12.25,
5.595510999999941,0.0,0.0,21.0,0.0,0.0,0.0,0.0,0.125,4.152831606,0.0,0.0,345.0,0.0,0.0,-0.0,0.0,0.0,2.042236119,0.0,0.0,37.0,0.0,0.0,0.0,0.0,0.0,4.685058114,0.0,0.0,-92.0,0.0,0.0,-0.0,0.0,0.0,3.0065914890000003,0.0,0.0,1.059999942779541,0.09000000357627869,-0.03999999910593033,0.00146484375,0.01715087890625,1.000244140625,34.720001220703125,0.0,0.0,-0.071685791015625,0.2709808349609375,Waiting,0.0,0.0,-385214.0,0.0,0.0,0.0,0.7,12.25,
5.706758000000031,0.0,0.0,21.0,0.0,0.0,0.0,0.0,0.125,4.152831606,0.0,0.0,345.0,0.0,0.0,-0.0,0.0,0.0,2.041015416,0.0,0.0,37.0,0.0,0.0,0.0,0.0,0.0,4.686278817,0.0,0.0,-92.0,0.0,0.0,-0.0,0.0,0.0,3.0065914890000003,0.0,0.0,1.0700000524520874,0.10000000149011612,-0.03999999910593033,0.00274658203125,0.01873779296875,1.00177001953125,34.720001220703125,0.0,0.0,-0.071685791015625,0.2709808349609375,Waiting,0.0,0.0,-385214.0,0.0,0.0,0.0,0.7,12.25,
5.81324199999997,0.0,0.0,21.0,0.0,0.0,0.0,0.0,0.125,4.152831606,0.0,0.0,345.0,0.0,0.0,-0.0,0.0,0.0,2.042236119,0.0,0.0,37.0,0.0,0.0,0.0,0.0,0.0,4.686278817,0.0,0.0,-92.0,0.0,0.0,-0.0,0.0,0.0,3.0065914890000003,0.0,0.0,1.0700000524520874,0.10000000149011612,-0.03999999910593033,0.00146484375,0.01910400390625,1.00054931640625,34.720001220703125,0.0,0.0,-0.071685791015625,0.2709808349609375,Waiting,0.0,0.0,-385214.0,0.0,0.0,0.0,0.7,12.125,
5.92122100000002,0.0,0.0,21.0,0.0,0.0,0.0,0.0,0.125,4.152831606,0.0,0.0,345.0,0.0,0.0,-0.0,0.0,0.0,2.042236119,0.0,0.0,37.0,0.0,0.0,0.0,0.0,0.0,4.68749952,0.0,0.0,-92.0,0.0,0.0,-0.0,0.0,0.0,3.0065914890000003,0.0,0.0,1.0700000524520874,0.10000000149011612,-0.03999999910593033,0.00445556640625,0.01617431640625,0.996826171875,34.720001220703125,0.0,-1.0,-0.071685791015625,0.2709808349609375,Waiting,0.0,0.0,-385214.0,0.0,0.0,0.0,0.7,12.125,
6.0344960000000425,0.0,0.0,21.0,0.0,0.0,0.0,0.0,0.125,4.152831606,0.0,0.0,345.0,0.0,0.0,-0.0,0.0,0.0,2.041015416,0.0,0.0,37.0,0.0,0.0,0.0,0.0,0.0,4.686278817,0.0,0.0,-92.0,0.0,0.0,-0.0,0.0,0.0,3.0065914890000003,0.0,0.0,1.0700000524520874,0.10000000149011612,-0.03999999910593033,0.0028076171875,0.01904296875,0.9964599609375,34.709999084472656,0.0,0.0,-0.071685791015625,0.2709808349609375,Waiting,0.0,0.0,-385214.0,0.0,0.0,0.0,0.0,0.0,
6.143101000000025,0.0,0.0,21.0,0.0,0.0,0.0,0.0,0.125,4.152831606,0.0,0.0,345.0,0.0,0.0,-0.0,0.0,0.0,2.042236119,0.0,0.0,37.0,0.0,0.0,0.0,0.0,0.0,4.686278817,0.0,0.0,-92.0,0.0,0.0,-0.0,0.0,0.0,3.0078121920000003,0.0,0.0,1.0700000524520874,0.10000000149011612,-0.029999999329447746,0.001220703125,0.019287109375,1.00146484375,34.709999084472656,0.0,0.0,-0.071685791015625,0.2709808349609375,Waiting,0.0,0.0,-385214.0,0.0,0.0,0.0,0.0,0.0,
6.248547999999952,0.0,0.0,21.0,0.0,0.0,0.0,0.0,0.125,4.154052309,0.0,0.0,345.0,0.0,0.0,-0.0,0.0,0.0,2.042236119,0.0,0.0,37.0,0.0,0.0,0.0,0.0,0.0,4.686278817,0.0,0.0,-92.0,0.0,0.0,-0.0,0.0,0.0,3.0065914890000003,0.0,0.0,1.0700000524520874,0.10000000149011612,-0.029999999329447746,-0.0010986328125,0.0225830078125,0.99566650390625,34.709999084472656,0.0,-2.0,-0.071685791015625,0.2709808349609375,Waiting,0.0,0.0,-385214.0,0.0,0.0,0.0,0.0,0.0,
6.35286699999997,0.0,0.0,21.0,0.0,0.0,0.0,0.0,0.125,4.152831606,0.0,0.0,345.0,0.0,0.0,-0.0,0.0,0.0,2.042236119,0.0,0.0,37.0,0.0,0.0,0.0,0.0,0.0,4.685058114,0.0,0.0,-92.0,0.0,0.0,-0.0,0.0,0.0,3.0078121920000003,0.0,0.0,1.0800000429153442,0.09000000357627869,-0.029999999329447746,-0.00140380859375,0.02001953125,0.99871826171875,34.709999084472656,0.0,-3.0,-0.071685791015625,0.2709808349609375,Waiting,0.0,0.0,-385214.0,0.0,0.0,0.0,0.0,0.0,
6.457307000000029,0.0,0.0,21.0,0.0,0.0,0.0,0.0,0.125,4.156493715,0.0,0.0,345.0,0.0,0.0,-0.0,0.0,0.0,2.042236119,0.0,0.0,37.0,0.0,0.0,0.0,0.0,0.0,4.686278817,0.0,0.0,-92.0,0.0,0.0,-0.0,0.0,0.0,3.0078121920000003,0.0,0.0,1.0700000524520874,0.10000000149011612,-0.029999999329447746,-0.0013427734375,0.0166015625,0.996826171875,34.709999084472656,0.0,-3.0,-0.071685791015625,0.2709808349609375,Waiting,0.0,0.0,-385214.0,0.0,0.0,0.0,0.0,0.0,
6.56852899999998,0.0,0.0,21.0,0.0,0.0,0.0,0.0,0.125,4.152831606,0.0,0.0,345.0,0.0,0.0,-0.0,0.0,0.0,2.042236119,0.0,0.0,37.0,0.0,0.0,0.0,0.0,0.0,4.686278817,0.0,0.0,-92.0,0.0,0.0,-0.0,0.0,0.0,3.0065914890000003,0.0,0.0,1.0800000429153442,0.10000000149011612,-0.029999999329447746,4.2724609375E-4,0.01824951171875,1.00140380859375,34.689998626708984,0.0,-1.0,-0.071685791015625,0.2709808349609375,Waiting,0.0,0.0,-385214.0,0.0,0.0,0.0,0.0,0.0,
6.683229999999981,0.0,0.0,21.0,0.0,0.0,0.0,0.0,0.125,4.154052309,0.0,0.0,345.0,0.0,0.0,-0.0,0.0,0.0,2.041015416,0.0,0.0,37.0,0.0,0.0,0.0,0.0,0.0,4.686278817,0.0,0.0,-92.0,0.0,0.0,-0.0,0.0,0.0,3.0078121920000003,0.0,0.0,1.0800000429153442,0.10000000149011612,-0.029999999329447746,0.0047607421875,0.0181884765625,0.99737548828125,34.689998626708984,0.0,2.0,-0.071685791015625,0.2709808349609375,Waiting,0.0,0.0,-385214.0,0.0,0.0,0.0,0.0,0.0,
6.794488999999944,0.0,0.0,21.0,0.0,0.0,0.0,0.0,0.0,4.151610903,0.0,0.0,345.0,0.0,0.0,-0.0,0.0,0.0,2.041015416,0.0,0.0,37.0,0.0,0.0,0.0,0.0,0.0,4.68749952,0.0,0.0,-92.0,0.0,0.0,-0.0,0.0,0.0,3.0065914890000003,0.0,0.0,1.0800000429153442,0.10999999940395355,-0.029999999329447746,0.00189208984375,0.01910400390625,0.99560546875,34.689998626708984,0.0,0.0,-0.071685791015625,0.2709808349609375,Waiting,0.0,0.0,-385214.0,0.0,0.0,0.0,0.0,0.0,
6.912395000000019,0.0,0.0,21.0,0.0,0.0,0.0,0.0,0.125,4.152831606,0.0,0.0,345.0,0.0,0.0,-0.0,0.0,0.0,2.041015416,0.0,0.0,37.0,0.0,0.0,0.0,0.0,0.0,4.68749952,0.0,0.0,-92.0,0.0,0.0,-0.0,0.0,0.0,3.0065914890000003,0.0,0.0,1.0800000429153442,0.10999999940395355,-0.029999999329447746,0.0025634765625,0.01837158203125,0.99896240234375,34.689998626708984,0.0,0.0,-0.071685791015625,0.2709808349609375,Waiting,0.0,0.0,-385214.0,0.0,0.0,0.0,0.0,0.0,
7.028694999999948,0.0,0.0,21.0,0.0,0.0,0.0,0.0,0.125,4.152831606,0.0,0.0,345.0,0.0,0.0,-0.0,0.0,0.0,2.042236119,0.0,0.0,37.0,0.0,0.0,0.0,0.0,0.0,4.68749952,0.0,0.0,-92.0,0.0,0.0,-0.0,0.0,0.0,3.0065914890000003,0.0,0.0,1.0800000429153442,0.10999999940395355,-0.029999999329447746,0.00152587890625,0.017822265625,0.9989013671875,34.7599983215332,0.0,0.0,-0.071685791015625,0.2709808349609375,Waiting,0.0,0.0,-385214.0,0.0,0.0,0.0,0.0,0.0,
7.1442539999999575,0.0,0.0,21.0,0.0,0.0,0.0,0.0,0.125,4.152831606,0.0,0.0,345.0,0.0,0.0,-0.0,0.0,0.0,2.039794713,0.0,0.0,37.0,0.0,0.0,0.0,0.0,0.0,4.686278817,0.0,0.0,-92.0,0.0,0.0,-0.0,0.0,0.0,3.0078121920000003,0.0,0.0,1.0800000429153442,0.10999999940395355,-0.029999999329447746,0.00433349609375,0.019287109375,1.0029296875,34.7599983215332,0.0,2.0,-0.071685791015625,0.2709808349609375,Waiting,0.0,0.0,-385214.0,0.0,0.0,0.0,0.0,0.0,
7.25783600000001,0.0,0.0,21.0,0.0,0.0,0.0,0.0,0.125,4.152831606,0.0,0.0,345.0,0.0,0.0,-0.0,0.0,0.0,2.041015416,0.0,0.0,37.0,0.0,0.0,0.0,0.0,0.0,4.686278817,0.0,0.0,-92.0,0.0,0.0,-0.0,0.0,0.0,3.0078121920000003,0.0,0.0,1.0800000429153442,0.10999999940395355,-0.029999999329447746,0.0018310546875,0.01904296875,0.99981689453125,34.7599983215332,0.0,0.0,-0.071685791015625,0.2709808349609375,Waiting,0.0,0.0,-385214.0,0.0,0.0,0.0,0.0,0.0,
7.373586999999941,0.0,0.0,21.0,0.0,0.0,0.0,0.0,0.125,4.152831606,0.0,0.0,345.0,0.0,0.0,-0.0,0.0,0.0,2.042236119,0.0,0.0,37.0,0.0,0.0,0.0,0.0,0.0,4.68749952,0.0,0.0,-92.0,0.0,0.0,-0.0,0.0,0.0,3.0078121920000003,0.0,0.0,1.0800000429153442,0.10999999940395355,-0.029999999329447746,0.003173828125,0.02203369140625,0.99896240234375,34.7599983215332,0.0,1.0,-0.071685791015625,0.2709808349609375,Waiting,0.0,0.0,-385214.0,0.0,0.0,0.0,0.0,0.0,
7.492608999999939,0.0,0.0,21.0,0.0,0.0,0.0,0.0,0.125,4.152831606,0.0,0.0,345.0,0.0,0.0,-0.0,0.0,0.0,2.042236119,0.0,0.0,37.0,0.0,0.0,0.0,0.0,0.0,4.68749952,0.0,0.0,-92.0,0.0,0.0,-0.0,0.0,0.0,3.0078121920000003,0.0,0.0,1.0800000429153442,0.10999999940395355,-0.029999999329447746,0.00311279296875,0.01959228515625,0.99945068359375,34.7599983215332,0.0,1.0,-0.071685791015625,0.2709808349609375,Waiting,0.0,0.0,-385214.0,0.0,0.0,0.0,0.0,0.0,
7.606679000000003,0.0,0.0,21.0,0.0,0.0,0.0,0.0,0.125,4.151610903,0.0,0.0,345.0,0.0,0.0,-0.0,0.0,0.0,2.041015416,0.0,0.0,37.0,0.0,0.0,0.0,0.0,0.0,4.686278817,0.0,0.0,-92.0,0.0,0.0,-0.0,0.0,0.0,3.0078121920000003,0.0,0.0,1.0800000429153442,0.10999999940395355,-0.029999999329447746,0.0020751953125,0.0157470703125,0.99603271484375,34.7599983215332,0.0,0.0,-0.071685791015625,0.2709808349609375,Waiting,0.0,0.0,-385214.0,0.0,0.0,0.0,0.0,0.0,
7.719280999999959,0.0,0.0,21.0,0.0,0.0,0.0,0.0,0.125,4.152831606,0.0,0.0,345.0,0.0,0.0,-0.0,0.0,0.0,2.042236119,0.0,0.0,37.0,0.0,0.0,0.0,0.0,0.0,4.686278817,0.0,0.0,-92.0,0.0,0.0,-0.0,0.0,0.0,2.9992672710000003,0.0,0.0,1.0800000429153442,0.10999999940395355,-0.029999999329447746,5.4931640625E-4,0.02044677734375,0.98858642578125,34.7599983215332,0.0,-1.0,-0.071685791015625,0.2709808349609375,Waiting,0.0,0.0,-385214.0,0.0,0.0,0.0,0.0,0.0,
7.841584999999963,0.0,0.0,21.0,0.0,0.0,0.0,0.0,0.125,4.152831606,0.0,0.0,345.0,0.0,0.0,-0.0,0.0,0.0,2.042236119,0.0,0.0,37.0,0.0,0.0,0.0,0.0,0.0,4.68749952,0.0,0.0,-92.0,0.0,0.0,-0.0,0.0,0.0,3.0078121920000003,0.0,0.0,1.0700000524520874,0.11999999731779099,-0.029999999329447746,0.00775146484375,0.0203857421875,1.007568359375,34.7599983215332,0.0,5.0,-0.071685791015625,0.2709808349609375,Waiting,0.0,0.0,-385214.0,0.0,0.0,0.0,0.0,0.0,
7.953285000000033,0.0,0.0,21.0,0.0,0.0,0.0,0.0,0.125,4.152831606,0.0,0.0,345.0,0.0,0.0,-0.0,0.0,0.0,2.042236119,0.0,0.0,37.0,0.0,0.0,0.0,0.0,0.0,4.686278817,0.0,0.0,-92.0,0.0,0.0,-0.0,0.0,0.0,3.0065914890000003,0.0,0.0,1.0700000524520874,0.10000000149011612,-0.03999999910593033,-7.32421875E-4,0.01776123046875,0.99847412109375,34.7599983215332,0.0,-2.0,-0.071685791015625,0.2709808349609375,Waiting,0.0,0.0,-385214.0,0.0,0.0,0.0,0.0,0.0,
8.067822999999974,0.0,0.0,21.0,0.0,0.0,0.0,0.0,0.125,4.152831606,0.0,0.0,345.0,0.0,0.0,-0.0,0.0,0.0,2.042236119,0.0,0.0,37.0,0.0,0.0,0.0,0.0,0.0,4.686278817,0.0,0.0,-92.0,0.0,0.0,-0.0,0.0,0.0,3.0053707860000003,0.0,0.0,1.0700000524520874,0.10999999940395355,-0.03999999910593033,-0.0045166015625,0.012451171875,1.0023193359375,34.7599983215332,0.0,-6.0,-0.071685791015625,0.2709808349609375,Waiting,0.0,0.0,-385214.0,0.0,0.0,0.0,0.0,0.0,
8.176069000000018,0.0,0.0,21.0,0.0,0.0,0.0,0.0,0.0,4.152831606,0.0,0.0,345.0,0.0,0.0,-0.0,0.0,0.0,2.041015416,0.0,0.0,37.0,0.0,0.0,0.0,0.0,0.0,4.68749952,0.0,0.0,-92.0,0.0,0.0,-0.0,0.0,0.0,3.0078121920000003,0.0,0.0,1.0700000524520874,0.10000000149011612,-0.03999999910593033,0.00164794921875,0.01812744140625,0.997802734375,34.7599983215332,0.0,0.0,-0.071685791015625,0.2709808349609375,Waiting,0.0,0.0,-385214.0,0.0,0.0,0.0,0.0,0.0,
8.303923999999999,0.0,0.0,21.0,0.0,0.0,0.0,0.0,0.125,4.152831606,0.0,0.0,345.0,0.0,0.0,-0.0,0.0,0.0,2.041015416,0.0,0.0,37.0,0.0,0.0,0.0,0.0,0.0,4.686278817,0.0,0.0,-92.0,0.0,0.0,-0.0,0.0,0.0,3.0078121920000003,0.0,0.0,1.0800000429153442,0.09000000357627869,-0.03999999910593033,0.00872802734375,0.0194091796875,1.00341796875,34.7599983215332,0.0,6.0,-0.071685791015625,0.2709808349609375,Waiting,0.0,0.0,-385214.0,0.0,0.0,0.0,0.0,0.0,
8.410579000000027,0.0,0.0,21.0,0.0,0.0,0.0,0.0,0.125,4.152831606,0.0,0.0,345.0,0.0,0.0,-0.0,0.0,0.0,2.041015416,0.0,0.0,37.0,0.0,0.0,0.0,0.0,0.0,4.686278817,0.0,0.0,-92.0,0.0,0.0,-0.0,0.0,0.0,3.0078121920000003,0.0,0.0,1.0700000524520874,0.10000000149011612,-0.03999999910593033,0.001220703125,0.0205078125,0.982421875,34.7599983215332,0.0,0.0,-0.071685791015625,0.2709808349609375,Waiting,0.0,0.0,-385214.0,0.0,0.0,0.0,0.0,0.0,
8.515535999999964,0.0,0.0,21.0,0.0,0.0,0.0,0.0,0.125,4.1503902,0.0,0.0,345.0,0.0,0.0,-0.0,0.0,0.0,2.042236119,0.0,0.0,37.0,0.0,0.0,0.0,0.0,0.0,4.685058114,0.0,0.0,-92.0,0.0,0.0,-0.0,0.0,0.0,3.0078121920000003,0.0,0.0,1.0700000524520874,0.10999999940395355,-0.03999999910593033,0.0079345703125,0.02593994140625,1.00079345703125,34.7599983215332,0.0,5.0,-0.071685791015625,0.2709808349609375,Waiting,0.0,0.0,-385214.0,0.0,0.0,0.0,0.0,0.0,
8.628790999999968,0.0,0.0,21.0,0.0,0.0,0.0,0.0,0.125,4.154052309,0.0,0.0,345.0,0.0,0.0,-0.0,0.0,0.0,2.042236119,0.0,0.0,37.0,0.0,0.0,0.0,0.0,0.0,4.68749952,0.0,0.0,-92.0,0.0,0.0,-0.0,0.0,0.0,3.0065914890000003,0.0,0.0,1.0800000429153442,0.10000000149011612,-0.03999999910593033,0.0081787109375,0.02203369140625,0.9952392578125,34.72999954223633,0.0,6.0,-0.071685791015625,0.2709808349609375,Waiting,0.0,0.0,-385214.0,0.0,0.0,0.0,0.0,0.0,
8.734989999999991,0.0,0.0,21.0,0.0,0.0,0.0,0.0,0.125,4.154052309,0.0,0.0,345.0,0.0,0.0,-0.0,0.0,0.0,2.041015416,0.0,0.0,37.0,0.0,0.0,0.0,0.0,0.0,4.691161629000001,0.0,-0.0012207029999995456,-92.0,0.0,0.0,-0.0,0.0,0.0,3.0065914890000003,0.0,0.0,1.0800000429153442,0.10000000149011612,-0.03999999910593033,-0.004150390625,0.0125732421875,1.00274658203125,34.72999954223633,0.0,-6.0,-0.071685791015625,0.2709808349609375,Waiting,0.0,0.0,-385214.0,0.0,0.0,0.0,0.0,0.0,
8.842309000000009,0.0,0.0,21.0,0.0,0.0,0.0,0.0,0.125,4.152831606,0.0,0.0,345.0,0.0,0.0,-0.0,0.0,0.0,2.041015416,0.0,0.0,37.0,0.0,0.0,0.0,0.0,0.0,4.686278817,0.0,0.0,-92.0,0.0,0.0,-0.0,0.0,0.0,3.0065914890000003,0.0,0.0,1.0700000524520874,0.10999999940395355,-0.03999999910593033,0.00762939453125,0.0242919921875,1.002197265625,34.72999954223633,0.0,5.0,-0.071685791015625,0.2709808349609375,Waiting,0.0,0.0,-385214.0,0.0,0.0,0.0,0.0,0.0,
8.94784600000002,0.0,0.0,21.0,0.0,0.0,0.0,0.0,0.0,4.151610903,0.0,0.0,345.0,0.0,0.0,-0.0,0.0,0.0,2.042236119,0.0,0.0,37.0,0.0,0.0,0.0,0.0,0.0,4.686278817,0.0,0.0,-92.0,0.0,0.0,-0.0,0.0,0.0,3.0078121920000003,0.0,0.0,1.059999942779541,0.10999999940395355,-0.03999999910593033,-7.32421875E-4,0.026611328125,0.9967041015625,34.72999954223633,0.0,-2.0,-0.071685791015625,0.2709808349609375,Waiting,0.0,0.0,-385214.0,0.0,0.0,0.0,0.0,0.0,
9.055162999999942,0.0,0.0,21.0,0.0,0.0,0.0,0.0,0.125,4.151610903,0.0,0.0,345.0,0.0,0.0,-0.0,0.0,0.0,2.041015416,0.0,0.0,37.0,0.0,0.0,0.0,0.0,0.0,4.68749952,0.0,0.0,-92.0,0.0,0.0,-0.0,0.0,0.0,3.0065914890000003,0.0,0.0,1.059999942779541,0.10999999940395355,-0.03999999910593033,0.002685546875,0.019287109375,0.99700927734375,34.7599983215332,0.0,0.0,-0.071685791015625,0.2709808349609375,Waiting,0.0,0.0,-385214.0,0.0,0.0,0.0,0.0,0.0,
9.166283999999985,0.0,0.0,21.0,0.0,0.0,0.0,0.0,0.125,4.152831606,0.0,0.0,345.0,0.0,0.0,-0.0,0.0,0.0,2.042236119,0.0,0.0,37.0,0.0,0.0,0.0,0.0,0.0,4.683837411,0.0,0.0,-92.0,0.0,0.0,-0.0,0.0,0.0,3.0078121920000003,0.0,0.0,1.0700000524520874,0.10999999940395355,-0.03999999910593033,0.00933837890625,0.02166748046875,0.99951171875,34.7599983215332,0.0,7.0,-0.071685791015625,0.2709808349609375,Waiting,0.0,0.0,-385214.0,0.0,0.0,0.0,0.0,0.0,
9.270984999999985,0.0,0.0,21.0,0.0,0.0,0.0,0.0,0.125,4.152831606,0.0,0.0,345.0,0.0,0.0,-0.0,0.0,0.0,2.042236119,0.0,0.0,37.0,0.0,0.0,0.0,0.0,0.0,4.685058114,0.0,0.0,-92.0,0.0,0.0,-0.0,0.0,0.0,3.0078121920000003,0.0,0.0,1.0700000524520874,0.10999999940395355,-0.03999999910593033,0.00433349609375,0.01849365234375,1.00146484375,34.7599983215332,0.0,2.0,-0.071685791015625,0.2709808349609375,Waiting,0.0,0.0,-385214.0,0.0,0.0,0.0,0.0,0.0,
9.375148999999976,0.0,0.0,21.0,0.0,0.0,0.0,0.0,0.125,4.152831606,0.0,0.0,345.0,0.0,0.0,-0.0,0.0,0.0,2.041015416,0.0,0.0,37.0,0.0,0.0,0.0,0.0,0.0,4.686278817,0.0,0.0,-92.0,0.0,0.0,-0.0,0.0,0.0,3.0065914890000003,0.0,0.0,1.0700000524520874,0.10999999940395355,-0.03999999910593033,0.0045166015625,0.017333984375,0.9998779296875,34.7599983215332,0.0,2.0,-0.071685791015625,0.2709808349609375,Waiting,0.0,0.0,-385214.0,0.0,0.0,0.0,0.0,0.0,
9.488273999999976,0.0,0.0,21.0,0.0,0.0,0.0,0.0,0.125,4.154052309,0.0,0.0,345.0,0.0,0.0,-0.0,0.0,0.0,2.041015416,0.0,0.0,37.0,0.0,0.0,0.0,0.0,0.0,4.686278817,0.0,0.0,-92.0,0.0,0.0,-0.0,0.0,0.0,3.0065914890000003,0.0,0.0,1.0700000524520874,0.10999999940395355,-0.03999999910593033,-7.32421875E-4,0.01910400390625,1.00048828125,34.7599983215332,0.0,-2.0,-0.071685791015625,0.2709808349609375,Waiting,0.0,0.0,-385214.0,0.0,0.0,0.0,0.0,0.0,
9.591875,0.0,0.0,21.0,0.0,0.0,0.0,0.0,0.125,4.152831606,0.0,0.0,345.0,0.0,0.0,-0.0,0.0,0.0,2.042236119,0.0,0.0,37.0,0.0,0.0,0.0,0.0,0.0,4.686278817,0.0,0.0,-92.0,0.0,0.0,-0.0,0.0,0.0,3.0078121920000003,0.0,0.0,1.0800000429153442,0.10000000149011612,-0.03999999910593033,0.0048828125,0.0179443359375,0.9993896484375,34.7599983215332,0.0,2.0,-0.071685791015625,0.2709808349609375,Waiting,0.0,0.0,-385214.0,0.0,0.0,0.0,0.0,0.0,
9.703991000000038,0.0,0.0,21.0,0.0,0.0,0.0,0.0,0.125,4.152831606,0.0,0.0,345.0,0.0,0.0,-0.0,0.0,0.0,2.042236119,0.0,0.0,37.0,0.0,0.0,0.0,0.0,0.0,4.681396005,0.0,0.0,-92.0,0.0,0.0,-0.0,0.0,0.0,3.0065914890000003,0.0,0.0,1.0800000429153442,0.10000000149011612,-0.03999999910593033,0.0029296875,0.0191650390625,1.000244140625,34.7599983215332,0.0,1.0,-0.071685791015625,0.2709808349609375,Waiting,0.0,0.0,-385214.0,0.0,0.0,0.0,0.0,0.0,
9.811939999999945,0.0,0.0,21.0,0.0,0.0,0.0,0.0,0.125,4.151610903,0.0,0.0,345.0,0.0,0.0,-0.0,0.0,0.0,2.042236119,0.0,0.0,37.0,0.0,0.0,0.0,0.0,0.0,4.686278817,0.0,0.0,-92.0,0.0,0.0,-0.0,0.0,0.0,3.0078121920000003,0.0,0.0,1.0800000429153442,0.10999999940395355,-0.03999999910593033,-4.8828125E-4,0.02032470703125,0.99737548828125,34.7599983215332,0.0,-2.0,-0.071685791015625,0.2709808349609375,Waiting,0.0,0.0,-385214.0,0.0,0.0,0.0,0.0,0.0,
9.917091000000015,0.0,0.0,21.0,0.0,0.0,0.0,0.0,0.125,4.152831606,0.0,0.0,345.0,0.0,0.0,-0.0,0.0,0.0,2.041015416,0.0,0.0,37.0,0.0,0.0,0.0,0.0,0.0,4.692382332,0.0,0.0,-92.0,0.0,0.0,-0.0,0.0,0.0,3.0078121920000003,0.0,0.0,1.0800000429153442,0.10999999940395355,-0.03999999910593033,-0.0010986328125,0.01611328125,0.99725341796875,34.7599983215332,0.0,-3.0,-0.071685791015625,0.2709808349609375,Waiting,0.0,0.0,-385214.0,0.0,0.0,0.0,0.0,0.0,
10.027976999999956,0.0,0.0,21.0,0.0,0.0,0.0,0.0,0.125,4.154052309,0.0,-0.0012207030000004337,345.0,0.0,0.0,-0.0,0.0,0.0,2.042236119,0.0,0.0,37.0,0.0,0.0,0.0,0.0,0.0,4.688720223000001,0.0,0.0,-92.0,0.0,0.0,-0.0,0.0,0.0,3.0053707860000003,0.0,0.0,1.0800000429153442,0.10999999940395355,-0.03999999910593033,0.00238037109375,0.01806640625,1.00201416015625,34.7599983215332,0.0,0.0,-0.071685791015625,0.2709808349609375,Waiting,0.0,0.0,-385214.0,0.0,0.0,0.0,0.0,0.0,
10.133613999999943,0.0,0.0,21.0,0.0,0.0,0.0,0.0,0.125,4.151610903,0.0,0.0,345.0,0.0,0.0,-0.0,0.0,0.0,2.042236119,0.0,0.0,37.0,0.0,0.0,0.0,0.0,0.0,4.685058114,0.0,0.0,-92.0,0.0,0.0,-0.0,0.0,0.0,3.0078121920000003,0.0,0.0,1.0800000429153442,0.10999999940395355,-0.05000000074505806,-7.32421875E-4,0.0167236328125,0.995849609375,34.779998779296875,0.0,-2.0,-0.071685791015625,0.2709808349609375,Waiting,0.0,0.0,-385214.0,0.0,0.0,0.0,0.0,0.0,
10.24032799999998,0.0,0.0,21.0,0.0,0.0,0.0,0.0,0.125,4.1333003580000005,0.0,0.0,345.0,0.0,0.0,-0.0,0.0,0.0,2.042236119,0.0,0.0,37.0,0.0,0.0,0.0,0.0,0.0,4.68749952,0.0,0.0,-92.0,0.0,0.0,-0.0,0.0,0.0,3.0078121920000003,0.0,0.0,1.0800000429153442,0.10999999940395355,-0.05000000074505806,0.0040283203125,0.0185546875,0.99688720703125,34.779998779296875,0.0,1.0,-0.071685791015625,0.2709808349609375,Waiting,0.0,0.0,-385214.0,0.0,0.0,0.0,0.0,0.0,
10.347299,0.0,0.0,21.0,0.0,0.0,0.0,0.0,0.125,4.157714418,0.0,0.0,345.0,0.0,0.0,-0.0,0.0,0.0,2.042236119,0.0,0.0,37.0,0.0,0.0,0.0,0.0,0.0,4.68749952,0.0,0.0,-92.0,0.0,0.0,-0.0,0.0,0.0,3.0078121920000003,0.0,0.0,1.0800000429153442,0.10999999940395355,-0.05000000074505806,0.00238037109375,0.02294921875,0.99945068359375,34.779998779296875,0.0,0.0,-0.071685791015625,0.2709808349609375,Waiting,0.0,0.0,-385214.0,0.0,0.0,0.0,0.0,0.0,
10.450701,0.0,0.0,21.0,0.0,0.0,0.0,0.0,0.125,4.151610903,0.0,0.0,345.0,0.0,0.0,-0.0,0.0,0.0,2.042236119,0.0,0.0,37.0,0.0,0.0,0.0,0.0,0.0,4.685058114,0.0,0.0,-92.0,0.0,0.0,-0.0,0.0,0.0,3.0065914890000003,0.0,0.0,1.0700000524520874,0.10999999940395355,-0.05000000074505806,0.00445556640625,0.0196533203125,0.9990234375,34.779998779296875,0.0,2.0,-0.071685791015625,0.2709808349609375,Waiting,0.0,0.0,-385214.0,0.0,0.0,0.0,0.0,0.0,
10.557298999999999,0.0,0.0,21.0,0.0,0.0,0.0,0.0,0.125,4.152831606,0.0,0.0,345.0,0.0,0.0,-0.0,0.0,0.0,2.042236119,0.0,0.0,37.0,0.0,0.0,0.0,0.0,0.0,4.68749952,0.0,0.0,-92.0,0.0,0.0,-0.0,0.0,0.0,3.0065914890000003,0.0,0.0,1.0700000524520874,0.10999999940395355,-0.05000000074505806,-6.7138671875E-4,0.01898193359375,1.0009765625,34.779998779296875,0.0,-2.0,-0.071685791015625,0.2709808349609375,Waiting,0.0,0.0,-385214.0,0.0,0.0,0.0,0.0,0.0,
10.667483000000008,0.0,0.0,21.0,0.0,0.0,0.0,0.0,0.125,4.154052309,0.0,0.0,345.0,0.0,0.0,-0.0,0.0,0.0,2.042236119,0.0,0.0,37.0,0.0,0.0,0.0,0.0,0.0,4.686278817,0.0,0.0,-92.0,0.0,0.0,-0.0,0.0,0.0,3.0065914890000003,0.0,0.0,1.0700000524520874,0.10999999940395355,-0.05000000074505806,0.00274658203125,0.01885986328125,0.99725341796875,34.77000045776367,0.0,0.0,-0.071685791015625,0.2709808349609375,Waiting,0.0,0.0,-385214.0,0.0,0.0,0.0,0.0,0.0,
10.773162000000012,0.0,0.0,21.0,0.0,0.0,0.0,0.0,0.125,4.152831606,0.0,0.0,345.0,0.0,0.0,-0.0,0.0,0.0,2.042236119,0.0,0.0,37.0,0.0,0.0,0.0,0.0,0.0,4.685058114,0.0,0.0,-92.0,0.0,0.0,-0.0,0.0,0.0,2.9968258650000004,0.0,0.0,1.0700000524520874,0.10999999940395355,-0.05000000074505806,9.1552734375E-4,0.01690673828125,0.99798583984375,34.77000045776367,0.0,-1.0,-0.071685791015625,0.2709808349609375,Waiting,0.0,0.0,-385214.0,0.0,0.0,0.0,0.0,0.0,
10.880792000000016,0.0,0.0,21.0,0.0,0.0,0.0,0.0,0.125,4.151610903,0.0,0.0,345.0,0.0,0.0,-0.0,0.0,0.0,2.042236119,0.0,0.0,37.0,0.0,0.0,0.0,0.0,0.0,4.68749952,0.0,0.0,-92.0,0.0,0.0,-0.0,0.0,0.0,3.0078121920000003,0.0,0.0,1.0700000524520874,0.10999999940395355,-0.05000000074505806,0.00494384765625,0.01885986328125,0.99755859375,34.77000045776367,0.0,2.0,-0.071685791015625,0.2709808349609375,Waiting,0.0,0.0,-385214.0,0.0,0.0,0.0,0.0,0.0,
10.993456000000005,0.0,0.0,21.0,0.0,0.0,0.0,0.0,0.125,4.151610903,0.0,0.0,345.0,0.0,0.0,-0.0,0.0,0.0,2.041015416,0.0,0.0,37.0,0.0,0.0,0.0,0.0,0.0,4.68749952,0.0,0.0,-92.0,0.0,0.0,-0.0,0.0,0.0,3.0078121920000003,0.0,0.0,1.0700000524520874,0.10999999940395355,-0.05000000074505806,0.00335693359375,0.02044677734375,0.99835205078125,34.77000045776367,0.0,1.0,-0.071685791015625,0.2709808349609375,Waiting,0.0,0.0,-385214.0,0.0,0.0,0.0,0.0,0.0,
11.101908999999985,0.0,0.0,21.0,0.0,0.0,0.0,0.0,0.125,4.152831606,0.0,0.0,345.0,0.0,0.0,-0.0,0.0,0.0,2.042236119,0.0,0.0,37.0,0.0,0.0,0.0,0.0,0.0,4.686278817,0.0,0.0,-92.0,0.0,0.0,-0.0,0.0,0.0,3.0065914890000003,0.0,0.0,1.0700000524520874,0.10999999940395355,-0.05000000074505806,1.220703125E-4,0.0205078125,1.00457763671875,34.79999923706055,0.0,-1.0,-0.071685791015625,0.2709808349609375,Waiting,0.0,0.0,-385214.0,0.0,0.0,0.0,0.0,0.0,
11.210347999999998,0.0,0.0,21.0,0.0,0.0,0.0,0.0,0.125,4.152831606,0.0,0.0,345.0,0.0,0.0,-0.0,0.0,0.0,2.041015416,0.0,0.0,37.0,0.0,0.0,0.0,0.0,0.0,4.686278817,0.0,0.0,-92.0,0.0,0.0,-0.0,0.0,0.0,3.0065914890000003,0.0,0.0,1.0800000429153442,0.10999999940395355,-0.05000000074505806,8.544921875E-4,0.01678466796875,0.99835205078125,34.79999923706055,0.0,-1.0,-0.071685791015625,0.2709808349609375,Waiting,0.0,0.0,-385214.0,0.0,0.0,0.0,0.0,0.0,
11.314706000000006,0.0,0.0,21.0,0.0,0.0,0.0,0.0,0.125,4.152831606,0.0,0.0,345.0,0.0,0.0,-0.0,0.0,0.0,2.042236119,0.0,0.0,37.0,0.0,0.0,0.0,0.0,0.0,4.686278817,0.0,0.0,-92.0,0.0,0.0,-0.0,0.0,0.0,3.0078121920000003,0.0,0.0,1.0800000429153442,0.10000000149011612,-0.05000000074505806,7.9345703125E-4,0.01690673828125,0.99713134765625,34.79999923706055,0.0,-1.0,-0.071685791015625,0.2709808349609375,Waiting,0.0,0.0,-385214.0,0.0,0.0,0.0,0.0,0.0,
11.424158999999985,0.0,0.0,21.0,0.0,0.0,0.0,0.0,0.125,4.154052309,0.0,0.0,345.0,0.0,0.0,-0.0,0.0,0.0,2.042236119,0.0,0.0,37.0,0.0,0.0,0.0,0.0,0.0,4.686278817,0.0,0.0,-92.0,0.0,0.0,-0.0,0.0,0.0,3.0078121920000003,0.0,0.0,1.0800000429153442,0.10000000149011612,-0.05000000074505806,0.0025634765625,0.01776123046875,0.99969482421875,34.79999923706055,0.0,0.0,-0.071685791015625,0.2709808349609375,Waiting,0.0,0.0,-385214.0,0.0,0.0,0.0,0.0,0.0,
11.53023199999996,0.0,0.0,21.0,0.0,0.0,0.0,0.0,0.125,4.154052309,0.0,0.0,345.0,0.0,0.0,-0.0,0.0,0.0,2.041015416,0.0,0.0,37.0,0.0,0.0,0.0,0.0,0.0,4.686278817,0.0,0.0,-92.0,0.0,0.0,-0.0,0.0,0.0,3.0065914890000003,0.0,0.0,1.0800000429153442,0.10000000149011612,-0.05999999865889549,0.0030517578125,0.019775390625,0.99835205078125,34.79999923706055,0.0,1.0,-0.071685791015625,0.2709808349609375,Waiting,0.0,0.0,-385214.0,0.0,0.0,0.0,0.0,0.0,
11.634013999999967,0.0,0.0,21.0,0.0,0.0,0.0,0.0,0.125,4.152831606,0.0,0.0,345.0,0.0,0.0,-0.0,0.0,0.0,2.041015416,0.0,0.0,37.0,0.0,0.0,0.0,0.0,0.0,4.686278817,0.0,0.0,-92.0,0.0,0.0,-0.0,0.0,0.0,3.0078121920000003,0.0,0.0,1.0800000429153442,0.10000000149011612,-0.05999999865889549,0.0013427734375,0.01507568359375,0.998046875,34.77000045776367,0.0,0.0,-0.071685791015625,0.2709808349609375,Waiting,0.0,0.0,-385214.0,0.0,0.0,0.0,0.0,0.0,
11.749016999999993,0.0,0.0,21.0,0.0,0.0,0.0,0.0,0.125,4.172362854,0.0,0.0,345.0,0.0,0.0,-0.0,0.0,0.0,2.042236119,0.0,0.0,37.0,0.0,0.0,0.0,0.0,0.0,4.681396005,0.0,0.0,-92.0,0.0,0.0,-0.0,0.0,0.0,3.0078121920000003,0.0,0.0,1.0800000429153442,0.09000000357627869,-0.05999999865889549,0.0030517578125,0.01898193359375,0.9986572265625,34.77000045776367,0.0,1.0,-0.071685791015625,0.2709808349609375,Waiting,0.0,0.0,-385214.0,0.0,0.0,0.0,0.0,0.0,
11.85494299999997,0.0,0.0,21.0,0.0,0.0,0.0,0.0,0.125,4.151610903,0.0,0.0,345.0,0.0,0.0,-0.0,0.0,0.0,2.042236119,0.0,0.0,37.0,0.0,0.0,0.0,0.0,0.0,4.686278817,0.0,0.0,-92.0,0.0,0.0,-0.0,0.0,0.0,3.0078121920000003,0.0,0.0,1.0800000429153442,0.10000000149011612,-0.05999999865889549,0.00433349609375,0.0184326171875,0.99761962890625,34.77000045776367,0.0,2.0,-0.071685791015625,0.2709808349609375,Waiting,0.0,0.0,-385214.0,0.0,0.0,0.0,0.0,0.0,
11.967724999999977,0.0,0.0,21.0,0.0,0.0,0.0,0.0,0.125,4.151610903,0.0,0.0,345.0,0.0,0.0,-0.0,0.0,0.0,2.042236119,0.0,0.0,37.0,0.0,0.0,0.0,0.0,0.0,4.686278817,0.0,0.0,-92.0,0.0,0.0,-0.0,0.0,0.0,3.0065914890000003,0.0,0.0,1.0800000429153442,0.10000000149011612,-0.05999999865889549,5.4931640625E-4,0.01702880859375,0.9981689453125,34.77000045776367,0.0,-1.0,-0.071685791015625,0.2709808349609375,Waiting,0.0,0.0,-385214.0,0.0,0.0,0.0,0.0,0.0,
12.076216999999946,0.0,0.0,21.0,0.0,0.0,0.0,0.0,0.125,4.156493715,0.0,0.0012207030000004337,345.0,0.0,0.0,-0.0,0.0,0.0,2.042236119,0.0,0.0,37.0,0.0,0.0,0.0,0.0,0.0,4.68749952,0.0,0.0,-92.0,0.0,0.0,-0.0,0.0,0.0,3.0078121920000003,0.0,0.0,1.0800000429153442,0.10000000149011612,-0.05999999865889549,-9.765625E-4,0.019287109375,1.00384521484375,34.77000045776367,0.0,-2.0,-0.071685791015625,0.2709808349609375,Waiting,0.0,0.0,-385214.0,0.0,0.0,0.0,0.0,0.0,
12.18322900000005,0.0,0.0,21.0,0.0,0.0,0.0,0.0,0.125,4.152831606,0.0,0.0,345.0,0.0,0.0,-0.0,0.0,0.0,2.041015416,0.0,0.0,37.0,0.0,0.0,0.0,0.0,0.0,4.686278817,0.0,0.0,-92.0,0.0,0.0,-0.0,0.0,0.0,3.0078121920000003,0.0,0.0,1.0800000429153442,0.09000000357627869,-0.05999999865889549,0.00213623046875,0.01531982421875,0.99664306640625,34.790000915527344,0.0,0.0,-0.071685791015625,0.2709808349609375,Waiting,0.0,0.0,-385214.0,0.0,0.0,0.0,0.0,0.0,
12.295498999999953,0.0,0.0,21.0,0.0,0.0,0.0,0.0,0.125,4.152831606,0.0,0.0,345.0,0.0,0.0,-0.0,0.0,0.0,2.042236119,0.0,0.0,37.0,0.0,0.0,0.0,0.0,0.0,4.691161629000001,0.0,0.0,-92.0,0.0,0.0,-0.0,0.0,0.0,3.0078121920000003,0.0,0.0,1.0800000429153442,0.09000000357627869,-0.07000000029802322,0.004150390625,0.01904296875,0.99896240234375,34.790000915527344,0.0,2.0,-0.071685791015625,0.2709808349609375,Waiting,0.0,0.0,-385214.0,0.0,0.0,0.0,0.0,0.0,
12.403849000000045,0.0,0.0,21.0,0.0,0.0,0.0,0.0,0.125,4.154052309,0.0,0.0,345.0,0.0,0.0,-0.0,0.0,0.0,2.041015416,0.0,0.0,37.0,0.0,0.0,0.0,0.0,0.0,4.685058114,0.0,0.0,-92.0,0.0,0.0,-0.0,0.0,0.0,3.0065914890000003,0.0,0.0,1.0800000429153442,0.10000000149011612,-0.07000000029802322,0.00177001953125,0.01739501953125,1.0001220703125,34.790000915527344,0.0,0.0,-0.071685791015625,0.2709808349609375,Waiting,0.0,0.0,-385214.0,0.0,0.0,0.0,0.0,0.0,
12.509380000000005,0.0,0.0,21.0,0.0,0.0,0.0,0.0,0.125,4.154052309,0.0,0.0,345.0,0.0,0.0,-0.0,0.0,0.0,2.042236119,0.0,0.0,37.0,0.0,0.0,0.0,0.0,0.0,4.686278817,0.0,0.0,-92.0,0.0,0.0,-0.0,0.0,0.0,3.0078121920000003,0.0,0.0,1.0800000429153442,0.09000000357627869,-0.07000000029802322,-1.8310546875E-4,0.0172119140625,0.9967041015625,34.790000915527344,0.0,-1.0,-0.071685791015625,0.2709808349609375,Waiting,0.0,0.0,-385214.0,0.0,0.0,0.0,0.0,0.0,
12.613130000000005,0.0,0.0,21.0,0.0,0.0,0.0,0.0,0.125,4.152831606,0.0,0.0,345.0,0.0,0.0,-0.0,0.0,0.0,2.042236119,0.0,0.0,37.0,0.0,0.0,0.0,0.0,0.0,4.68749952,0.0,0.0,-92.0,0.0,0.0,-0.0,0.0,0.0,3.0078121920000003,0.0,0.0,1.0800000429153442,0.09000000357627869,-0.07000000029802322,-1.220703125E-4,0.01568603515625,0.99798583984375,34.7599983215332,0.0,-1.0,-0.071685791015625,0.2709808349609375,Waiting,0.0,0.0,-385214.0,0.0,0.0,0.0,0.0,0.0,
12.723763000000035,0.0,0.0,21.0,0.0,0.0,0.0,0.0,0.125,4.152831606,0.0,0.0,345.0,0.0,0.0,-0.0,0.0,0.0,2.042236119,0.0,0.0,37.0,0.0,0.0,0.0,0.0,0.0,4.686278817,0.0,0.0,-92.0,0.0,0.0,-0.0,0.0,0.0,3.0090328950000003,0.0,0.0,1.0800000429153442,0.09000000357627869,-0.07000000029802322,-9.765625E-4,0.01861572265625,0.99761962890625,34.7599983215332,0.0,-2.0,-0.071685791015625,0.2709808349609375,Waiting,0.0,0.0,-385214.0,0.0,0.0,0.0,0.0,0.0,
12.830334000000033,0.0,0.0,21.0,0.0,0.0,0.0,0.0,0.125,4.116210516000001,0.0,-0.0012207030000004337,345.0,0.0,0.0,-0.0,0.0,0.0,2.041015416,0.0,0.0,37.0,0.0,0.0,0.0,0.0,0.0,4.686278817,0.0,0.0,-92.0,0.0,0.0,-0.0,0.0,0.0,3.0078121920000003,0.0,0.0,1.0800000429153442,0.09000000357627869,-0.07000000029802322,0.00286865234375,0.0177001953125,1.0003662109375,34.7599983215332,0.0,1.0,-0.071685791015625,0.2709808349609375,Waiting,0.0,0.0,-385214.0,0.0,0.0,0.0,0.0,0.0,
12.933655000000028,0.0,0.0,21.0,0.0,0.0,0.0,0.0,0.0,4.152831606,0.0,0.0,345.0,0.0,0.0,-0.0,0.0,0.0,2.041015416,0.0,0.0,37.0,0.0,0.0,0.0,0.0,0.0,4.68749952,0.0,0.0,-92.0,0.0,0.0,-0.0,0.0,0.0,3.0065914890000003,0.0,0.0,1.0800000429153442,0.09000000357627869,-0.07000000029802322,0.0023193359375,0.01739501953125,0.99957275390625,34.7599983215332,0.0,0.0,-0.071685791015625,0.2709808349609375,Waiting,0.0,0.0,-385214.0,0.0,0.0,0.0,0.0,0.0,
13.037726000000024,0.0,0.0,21.0,0.0,0.0,0.0,0.0,0.125,4.152831606,0.0,0.0,345.0,0.0,0.0,-0.0,0.0,0.0,2.041015416,0.0,0.0,37.0,0.0,0.0,0.0,0.0,0.0,4.686278817,0.0,0.0,-92.0,0.0,0.0,-0.0,0.0,0.0,3.0065914890000003,0.0,0.0,1.0800000429153442,0.09000000357627869,-0.07000000029802322,0.0020751953125,0.01776123046875,0.99493408203125,34.7599983215332,0.0,0.0,-0.071685791015625,0.2709808349609375,Waiting,0.0,0.0,-385214.0,0.0,0.0,0.0,0.0,0.0,
13.150608999999939,0.0,0.0,21.0,0.0,0.0,0.0,0.0,0.125,4.152831606,0.0,0.0,345.0,0.0,0.0,-0.0,0.0,0.0,2.042236119,0.0,0.0,37.0,0.0,0.0,0.0,0.0,0.0,4.686278817,0.0,0.0,-92.0,0.0,0.0,-0.0,0.0,0.0,3.0065914890000003,0.0,0.0,1.0800000429153442,0.09000000357627869,-0.07000000029802322,0.0013427734375,0.02001953125,0.9996337890625,34.77000045776367,0.0,0.0,-0.071685791015625,0.2709808349609375,Waiting,0.0,0.0,-385214.0,0.0,0.0,0.0,0.0,0.0,
13.256211000000011,0.0,0.0,21.0,0.0,0.0,0.0,0.0,0.125,4.151610903,0.0,0.0,345.0,0.0,0.0,-0.0,0.0,0.0,2.042236119,0.0,0.0,37.0,0.0,0.0,0.0,0.0,0.0,4.68749952,0.0,0.0,-92.0,0.0,0.0,-0.0,0.0,0.0,3.0053707860000003,0.0,0.0,1.0800000429153442,0.07999999821186066,-0.07000000029802322,0.0042724609375,0.0164794921875,1.00091552734375,34.77000045776367,0.0,2.0,-0.071685791015625,0.2709808349609375,Waiting,0.0,0.0,-385214.0,0.0,0.0,0.0,0.0,0.0,
13.364319000000018,0.0,0.0,21.0,0.0,0.0,0.0,0.0,0.125,4.154052309,0.0,0.0,345.0,0.0,0.0,-0.0,0.0,0.0,2.042236119,0.0,0.0,37.0,0.0,0.0,0.0,0.0,0.0,4.691161629000001,0.0,0.0,-92.0,0.0,0.0,-0.0,0.0,0.0,3.0078121920000003,0.0,0.0,1.0800000429153442,0.07999999821186066,-0.07000000029802322,0.00390625,0.02197265625,1.00164794921875,34.77000045776367,0.0,2.0,-0.071685791015625,0.2709808349609375,Waiting,0.0,0.0,-385214.0,0.0,0.0,0.0,0.0,0.0,
13.47022199999995,0.0,0.0,21.0,0.0,0.0,0.0,0.0,0.125,4.152831606,0.0,0.0,345.0,0.0,0.0,-0.0,0.0,0.0,2.042236119,0.0,0.0,37.0,0.0,0.0,0.0,0.0,0.0,4.686278817,0.0,0.0,-92.0,0.0,0.0,-0.0,0.0,0.0,3.0065914890000003,0.0,0.0,1.0800000429153442,0.09000000357627869,-0.07000000029802322,0.002197265625,0.01556396484375,0.99505615234375,34.77000045776367,0.0,0.0,-0.071685791015625,0.2709808349609375,Waiting,0.0,0.0,-385214.0,0.0,0.0,0.0,0.0,0.0,
13.574743999999948,0.0,0.0,21.0,0.0,0.0,0.0,0.0,0.125,4.152831606,0.0,0.0,345.0,0.0,0.0,-0.0,0.0,0.0,2.042236119,0.0,0.0,37.0,0.0,0.0,0.0,0.0,0.0,4.68749952,0.0,0.0,-92.0,0.0,0.0,-0.0,0.0,0.0,3.0065914890000003,0.0,0.0,1.0800000429153442,0.09000000357627869,-0.07000000029802322,0.0029296875,0.018310546875,1.00042724609375,34.77000045776367,0.0,1.0,-0.071685791015625,0.2709808349609375,Waiting,0.0,0.0,-385214.0,0.0,0.0,0.0,0.0,0.0,
13.690469999999973,0.0,0.0,21.0,0.0,0.0,0.0,0.0,0.125,4.141845279,0.0,0.0,345.0,0.0,0.0,-0.0,0.0,0.0,2.041015416,0.0,0.0,37.0,0.0,0.0,0.0,0.0,0.0,4.686278817,0.0,0.0,-92.0,0.0,0.0,-0.0,0.0,0.0,3.0078121920000003,0.0,0.0,1.0700000524520874,0.09000000357627869,-0.07000000029802322,0.00518798828125,0.01788330078125,1.00189208984375,34.7599983215332,0.0,3.0,-0.071685791015625,0.2709808349609375,Waiting,0.0,0.0,-385214.0,0.0,0.0,0.0,0.0,0.0,
13.795108999999938,0.0,0.0,21.0,0.0,0.0,0.0,0.0,0.125,4.141845279,0.0,0.0,345.0,0.0,0.0,-0.0,0.0,0.0,2.041015416,0.0,0.0,37.0,0.0,0.0,0.0,0.0,0.0,4.68749952,0.0,0.0,-92.0,0.0,0.0,-0.0,0.0,0.0,3.0078121920000003,0.0,0.0,1.0700000524520874,0.09000000357627869,-0.07000000029802322,0.00189208984375,0.0185546875,0.99871826171875,34.7599983215332,0.0,0.0,-0.071685791015625,0.2709808349609375,Waiting,0.0,0.0,-385214.0,0.0,0.0,0.0,0.0,0.0,
13.90461699999997,0.0,0.0,21.0,0.0,0.0,0.0,0.0,0.125,4.154052309,0.0,0.0,345.0,0.0,0.0,-0.0,0.0,0.0,2.041015416,0.0,0.0,37.0,0.0,0.0,0.0,0.0,0.0,4.686278817,0.0,0.0,-92.0,0.0,0.0,-0.0,0.0,0.0,3.0065914890000003,0.0,0.0,1.0800000429153442,0.09000000357627869,-0.07000000029802322,0.00128173828125,0.020751953125,0.99755859375,34.7599983215332,0.0,0.0,-0.071685791015625,0.2709808349609375,Waiting,0.0,0.0,-385214.0,0.0,0.0,0.0,0.0,0.0,
14.011954000000028,0.0,0.0,21.0,0.0,0.0,0.0,0.0,0.125,4.152831606,0.0,0.0,345.0,0.0,0.0,-0.0,0.0,0.0,2.042236119,0.0,0.0,37.0,0.0,0.0,0.0,0.0,0.0,4.686278817,0.0,0.0,-92.0,0.0,0.0,-0.0,0.0,0.0,3.0078121920000003,0.0,0.0,1.0800000429153442,0.09000000357627869,-0.07999999821186066,0.00103759765625,0.01898193359375,0.99761962890625,34.7599983215332,0.0,0.0,-0.071685791015625,0.2709808349609375,Waiting,0.0,0.0,-385214.0,0.0,0.0,0.0,0.0,0.0,
14.126847999999999,0.0,0.0,21.0,0.0,0.0,0.0,0.0,0.125,4.151610903,0.0,0.0,345.0,0.0,0.0,-0.0,0.0,0.0,2.042236119,0.0,0.0,37.0,0.0,0.0,0.0,0.0,0.0,4.68749952,0.0,0.0,-92.0,0.0,0.0,-0.0,0.0,0.0,3.0078121920000003,0.0,0.0,1.0800000429153442,0.09000000357627869,-0.07999999821186066,9.765625E-4,0.017578125,0.99822998046875,34.75,0.0,0.0,-0.071685791015625,0.2709808349609375,Waiting,0.0,0.0,-385214.0,0.0,0.0,0.0,0.0,0.0,
14.236425000000047,0.0,0.0,21.0,0.0,0.0,0.0,0.0,0.125,4.152831606,0.0,0.0,345.0,0.0,0.0,-0.0,0.0,0.0,2.042236119,0.0,0.0,37.0,0.0,0.0,0.0,0.0,0.0,4.686278817,0.0,0.0,-92.0,0.0,0.0,-0.0,0.0,0.0,3.0078121920000003,0.0,0.0,1.0800000429153442,0.09000000357627869,-0.07999999821186066,0.00189208984375,0.01947021484375,0.99810791015625,34.75,0.0,0.0,-0.071685791015625,0.2709808349609375,Waiting,0.0,0.0,-385214.0,0.0,0.0,0.0,0.0,0.0,
14.350682999999961,0.0,0.0,21.0,0.0,0.0,0.0,0.0,0.125,4.152831606,0.0,0.0,345.0,0.0,0.0,-0.0,0.0,0.0,2.041015416,0.0,0.0,37.0,0.0,0.0,0.0,0.0,0.0,4.686278817,0.0,0.0,-92.0,0.0,0.0,-0.0,0.0,0.0,3.0017086770000003,0.0,0.0,1.0800000429153442,0.09000000357627869,-0.07999999821186066,0.00311279296875,0.01513671875,1.00042724609375,34.75,0.0,1.0,-0.071685791015625,0.2709808349609375,Waiting,0.0,0.0,-385214.0,0.0,0.0,0.0,0.0,0.0,
14.46202899999998,0.0,0.0,21.0,0.0,0.0,0.0,0.0,0.125,4.155273012,0.0,0.0,345.0,0.0,0.0,-0.0,0.0,0.0,2.041015416,0.0,0.0,37.0,0.0,0.0,0.0,0.0,0.0,4.686278817,0.0,0.0,-92.0,0.0,0.0,-0.0,0.0,0.0,3.0065914890000003,0.0,0.0,1.0700000524520874,0.10000000149011612,-0.07999999821186066,0.00115966796875,0.02215576171875,0.995849609375,34.75,0.0,0.0,-0.071685791015625,0.2709808349609375,Waiting,0.0,0.0,-385214.0,0.0,0.0,0.0,0.0,0.0,
14.574282999999937,0.0,0.0,21.0,0.0,0.0,0.0,0.0,0.125,4.152831606,0.0,0.0,345.0,0.0,0.0,-0.0,0.0,0.0,2.042236119,0.0,0.0,37.0,0.0,0.0,0.0,0.0,0.0,4.68749952,0.0,0.0,-92.0,0.0,0.0,-0.0,0.0,0.0,3.0078121920000003,0.0,0.0,1.0700000524520874,0.10999999940395355,-0.07000000029802322,8.544921875E-4,0.01092529296875,0.98150634765625,34.75,0.0,-1.0,-0.07147216796875,0.271087646484375,Waiting,0.0,0.0,-385214.0,0.0,0.0,0.0,0.0,0.0,
14.688334999999963,0.0,0.0,21.0,0.0,0.0,0.0,0.0,0.125,4.152831606,0.0,0.0,345.0,0.0,0.0,-0.0,0.0,0.0,2.042236119,0.0,0.0,37.0,0.0,0.0,0.0,0.0,0.0,4.68749952,0.0,0.0,-92.0,0.0,0.0,-0.0,0.0,0.0,3.0065914890000003,0.0,0.0,1.0800000429153442,0.10000000149011612,-0.07000000029802322,-0.010009765625,0.020263671875,1.03204345703125,34.779998779296875,0.0,-11.0,-0.0714569091796875,0.271087646484375,Waiting,0.0,0.0,-385214.0,0.0,0.0,0.0,0.0,0.0,
14.802841000000015,0.0,0.0,21.0,0.0,0.0,0.0,0.0,0.125,4.152831606,0.0,0.0,345.0,0.0,0.0,-0.0,0.0,0.0,2.042236119,0.0,0.0,37.0,0.0,0.0,0.0,0.0,0.0,4.686278817,0.0,0.0,-92.0,0.0,0.0,-0.0,0.0,0.0,3.0078121920000003,0.0,0.0,1.0800000429153442,0.09000000357627869,-0.07999999821186066,-7.32421875E-4,0.0167236328125,1.02264404296875,34.779998779296875,0.0,-2.0,-0.071441650390625,0.271087646484375,Waiting,0.0,0.0,-385214.0,0.0,0.0,0.0,0.0,0.0,
