Time,ClimberA1,ClimberA2,FRpos,FRCurrent,FRspeed,FRsetpoint,FRApos,FRACurrent,FREncpos,FREncSetpoint,FREncSpeed,FLpos,FLCurrent,FLspeed,FLsetpoint,FLApos,FLACurrent,FLEncpos,FLEncSetpoint,FLEncSpeed,BRpos,BRCurrent,BRspeed,BRsetpoint,BRApos,BRACurrent,BREncpos,BREncSetpoint,BREncSpeed,BLpos,BLCurrent,BLspeed,BLsetpoint,BLApos,BLACurrent,BLEncpos,BLEncSetpoint,BLEncSpeed,navx_Pitch,navx_Roll,navx_Yaw,navx_XAcc,navx_YAcc,navx_ZAcc,navx_Temp,navx_Bar,navx_Alt,navx_XDis,navx_YDis,GearPlacerState,ShootOutputV,ShootOutputCurrent,ShootEncPos,ShootEncVelocity,ShootSpeed,ShootSetpoint,CarouselSetpoint,CarouselCurrent,
0.11840499999991153,0.0,0.0,-34216.0,0.0,0.0,0.0,0.0,10.0,3.1555172550000004,3.7141751113083648,0.0,33354.0,0.0,0.0,0.0,0.0,0.0,0.75683586,3.7029517779744348,0.0,-3482.0,0.0,0.0,0.0,0.0,0.0,3.6328121280000003,3.706692889085745,0.0,56144.0,0.0,0.0,0.0,0.0,0.0,1.644286941,3.701829444641042,0.0,1.0700000524520874,-0.25999999046325684,0.0,0.00341796875,0.03900146484375,1.05072021484375,34.97999954223633,0.0,8.0,-3.3679351806640625,-0.891448974609375,Closing,0.0,0.0,-110162.0,0.0,0.0,0.0,0.0,0.0,
0.23638799999991897,0.0,0.0,-34216.0,0.0,0.0,0.0,0.0,10.0,3.1542965520000004,3.7141751113083648,0.0,33354.0,0.0,0.0,0.0,0.0,0.0,0.75683586,3.7029517779744348,0.0,-3482.0,0.0,0.0,0.0,0.0,0.0,3.6328121280000003,3.706692889085745,0.0,56144.0,0.0,0.0,0.0,0.0,0.0,1.644286941,3.701829444641042,0.0,1.0800000429153442,-0.27000001072883606,0.0,-0.0076904296875,0.0201416015625,1.0064697265625,34.97999954223633,0.0,-2.0,-3.3679351806640625,-0.891448974609375,Closing,0.0,0.0,-110162.0,0.0,0.0,0.0,0.0,0.0,
0.34636300000001213,0.0,0.0,-34216.0,0.0,0.0,0.0,0.0,10.0,3.1542965520000004,3.7141751113083648,0.0,33354.0,0.0,0.0,0.0,0.0,0.0,0.75683586,3.7029517779744348,0.0,-3482.0,0.0,0.0,0.0,0.0,0.0,3.6328121280000003,3.706692889085745,0.0,56144.0,0.0,0.0,0.0,0.0,0.0,1.644286941,3.701829444641042,0.0,1.0700000524520874,-0.25999999046325684,0.0,-0.00457763671875,0.02313232421875,0.99029541015625,34.95000076293945,0.0,0.0,-3.3679351806640625,-0.891448974609375,Closing,0.0,0.0,-110162.0,0.0,0.0,0.0,0.0,0.0,
0.45003099999995905,0.0,0.0,-34216.0,0.0,0.0,0.0,0.0,10.0,3.1555172550000004,3.7141751113083648,0.0,33354.0,0.0,0.0,0.0,0.0,0.0,0.75683586,3.7029517779744348,0.0,-3482.0,0.0,0.0,0.0,0.0,0.0,3.6328121280000003,3.706692889085745,0.0,56144.0,0.0,0.0,0.0,0.0,0.0,1.645507644,3.701829444641042,0.0,1.0700000524520874,-0.25999999046325684,0.0,-0.0028076171875,0.017333984375,1.00140380859375,34.95000076293945,0.0,1.0,-3.3679351806640625,-0.891448974609375,Closing,0.0,0.0,-110162.0,0.0,0.0,0.0,0.0,0.0,
0.5551779999999562,0.0,0.0,-34216.0,0.0,0.0,0.0,0.0,10.0,3.1542965520000004,3.7141751113083648,0.0,33354.0,0.0,0.0,0.0,0.0,0.0,0.75683586,3.7029517779744348,0.0,-3482.0,0.0,0.0,0.0,0.0,0.0,3.6315914250000003,3.706692889085745,0.0,56144.0,0.0,0.0,0.0,0.0,0.0,1.645507644,3.701829444641042,0.0,1.0700000524520874,-0.25999999046325684,0.0,-0.00616455078125,0.0181884765625,0.99456787109375,34.95000076293945,0.0,-1.0,-3.3679351806640625,-0.891448974609375,Closing,0.0,0.0,-110162.0,0.0,0.0,0.0,0.0,0.0,
0.6681189999999478,0.0,0.0,-34216.0,0.0,0.0,0.0,0.0,10.0,3.1542965520000004,3.7141751113083648,0.0,33354.0,0.0,0.0,0.0,0.0,0.0,0.75683586,3.7029517779744348,0.0,-3482.0,0.0,0.0,0.0,0.0,0.0,3.6315914250000003,3.706692889085745,0.0,56144.0,0.0,0.0,0.0,0.0,0.0,1.645507644,3.701829444641042,0.0,1.0800000429153442,-0.27000001072883606,0.0,-0.0078125,0.0203857421875,1.0018310546875,34.95000076293945,0.0,-3.0,-3.3679351806640625,-0.891448974609375,Closing,0.0,0.0,-110162.0,0.0,0.0,0.0,0.0,0.0,
0.7744290000000037,0.0,0.0,-34216.0,0.75,0.0,297.6378098130226,0.0,9.75,3.1555172550000004,3.722999999999999,0.0,33354.0,0.125,-45.0,-297.6378098130226,0.0,0.0,0.75683586,3.711749999999998,0.0,-3482.0,0.75,0.0,297.6378098130226,0.0,0.0,3.6315914250000003,3.7154999999999982,0.0,56144.0,0.125,-67.5,-297.6378098130226,0.0,0.0,1.645507644,3.7106249999999985,0.0,1.059999942779541,-0.25999999046325684,0.0,-0.00537109375,0.0189208984375,0.974609375,34.95000076293945,0.0,0.0,-3.3679351806640625,-0.891448974609375,Closing,0.0,0.0,-110162.0,0.0,0.0,0.0,0.0,0.0,
0.8851479999999283,0.0,0.0,-34215.0,10.75,187.5,1223.622089624405,0.0,9.0,3.14941374,3.722999999999999,0.0,33331.0,10.25,-165.0,-1223.622089624405,0.0,0.0,0.7519530480000001,3.711749999999998,0.0,-3482.0,10.875,247.5,1223.622089624405,0.0,0.0,3.61328088,3.7154999999999982,0.0,56125.0,9.875,-157.5,-1223.622089624405,0.0,0.0,1.645507644,3.7106249999999985,0.0,0.36000001430511475,-0.17000000178813934,-0.20000000298023224,0.11651611328125,-0.20965576171875,0.90673828125,34.959999084472656,0.0,120.0,-3.3665771484375,-0.89453125,Closing,0.0,0.0,-110162.0,0.0,0.0,0.0,0.0,0.0,
0.9935789999999106,0.0,0.0,-34173.0,0.0,45.0,0.0,0.0,9.375,3.150634443,3.722999999999999,0.0,33304.0,0.0,-75.0,0.0,0.0,0.0,0.7519530480000001,3.711749999999998,0.0,-3435.0,0.0,90.0,0.0,0.0,0.0,3.614501583,3.7154999999999982,0.0,56092.0,0.0,-105.0,0.0,0.0,0.0,1.640624832,3.7106249999999985,0.0,0.6200000047683716,-0.23999999463558197,-0.6200000047683716,1.8310546875E-4,0.2847900390625,0.78021240234375,34.959999084472656,0.0,0.0,-3.363250732421875,-0.902130126953125,Closing,0.0,0.0,-110162.0,0.0,0.0,0.0,0.0,0.0,
1.107,0.0,0.0,-34175.0,0.0,0.0,0.0,0.0,9.5,3.14941374,3.722999999999999,0.0,33310.0,0.0,0.0,0.0,0.0,0.0,0.7519530480000001,3.711749999999998,0.0,-3435.0,0.0,0.0,0.0,0.0,0.0,3.614501583,3.7154999999999982,0.0,56091.0,0.0,-37.5,0.0,0.0,0.0,1.645507644,3.7106249999999985,0.0,1.6100000143051147,-0.30000001192092896,-0.5799999833106995,-0.02667236328125,0.02691650390625,0.91827392578125,34.959999084472656,0.0,-21.0,-3.3633575439453125,-0.8928070068359375,Closing,0.0,0.0,-110162.0,0.0,0.0,0.0,0.0,0.0,
1.2150389999999898,0.0,0.0,-34175.0,0.0,0.0,0.0,0.0,9.375,3.150634443,3.722999999999999,0.0,33310.0,0.0,0.0,0.0,0.0,0.0,0.7519530480000001,3.711749999999998,0.0,-3435.0,0.0,0.0,0.0,0.0,0.0,3.614501583,3.7154999999999982,0.0,56094.0,0.0,37.5,0.0,0.0,0.0,1.640624832,3.7106249999999985,0.0,1.25,-0.25999999046325684,-0.3499999940395355,0.01611328125,-0.063232421875,0.99530029296875,34.959999084472656,0.0,21.0,-3.36370849609375,-0.8822174072265625,Closing,0.0,0.0,-110162.0,0.0,0.0,0.0,0.0,0.0,
1.3229510000000009,0.0,0.0,-34175.0,0.0,0.0,0.0,0.0,9.25,3.150634443,3.722999999999999,0.0,33316.0,0.0,37.5,0.0,0.0,0.0,0.7519530480000001,3.711749999999998,0.0,-3439.0,0.0,-22.5,0.0,0.0,0.0,3.614501583,3.7154999999999982,0.0,56102.0,0.0,7.5,0.0,0.0,0.0,1.640624832,3.7106249999999985,0.0,0.949999988079071,-0.27000001072883606,-0.3700000047683716,0.0074462890625,0.0181884765625,0.99749755859375,34.959999084472656,0.0,12.0,-3.36376953125,-0.8776702880859375,Closing,0.0,0.0,-110162.0,0.0,0.0,0.0,0.0,0.0,
1.4320139999999664,0.0,0.0,-34171.0,2.375,22.5,578.740131855011,0.0,9.25,3.150634443,3.7177602222879718,0.0,33306.0,2.375,-75.0,-578.740131855011,0.0,0.0,0.7531737510000001,3.7065260556211057,0.0,-3432.0,2.25,52.5,578.740131855011,0.0,0.0,3.619384395,3.710270777843394,0.0,56092.0,1.75,-67.5,-578.740131855011,0.0,0.0,1.6357420200000001,3.705402638954419,0.0,0.8299999833106995,-0.25999999046325684,-0.47999998927116394,0.02069091796875,-0.04791259765625,1.08966064453125,34.95000076293945,0.0,26.0,-3.363922119140625,-0.8777618408203125,Closing,0.0,0.0,-110162.0,0.0,0.0,0.0,0.0,0.0,
1.5487639999999665,0.0,0.0,-34162.0,4.0,52.5,512.598431110382,0.0,9.25,3.150634443,3.7163813334812708,0.0,33296.0,3.625,-60.0,-512.598431110382,0.0,0.0,0.7519530480000001,3.7051513334808233,0.0,-3426.0,4.0,37.5,512.598431110382,0.0,0.0,3.615722286,3.708894666814306,0.0,56079.0,2.75,-82.5,-512.598431110382,0.0,0.0,1.641845535,3.7040283334807786,0.0,0.8799999952316284,-0.20000000298023224,-0.6600000262260437,-0.00579833984375,0.0150146484375,1.0382080078125,34.95000076293945,0.0,-2.0,-3.364166259765625,-0.87835693359375,Closing,0.0,0.0,-110162.0,0.0,0.0,0.0,0.0,0.0,
1.654640999999945,0.0,0.0,-34161.0,0.0,7.5,0.0,0.0,9.5,3.1152340560000003,3.7163813334812708,0.0,33299.0,0.0,7.5,0.0,0.0,0.0,0.7519530480000001,3.7051513334808233,0.0,-3426.0,0.0,0.0,0.0,0.0,0.0,3.619384395,3.708894666814306,0.0,56077.0,0.0,-15.0,0.0,0.0,0.0,1.640624832,3.7040283334807786,0.0,1.2400000095367432,-0.27000001072883606,-0.7599999904632568,-0.0181884765625,0.122802734375,0.86688232421875,34.95000076293945,0.0,-15.0,-3.364410400390625,-0.8758697509765625,Closing,0.0,0.0,-110162.0,0.0,0.0,0.0,0.0,0.0,
1.769262999999919,0.0,0.0,-34166.0,0.0,-15.0,0.0,0.0,9.375,3.150634443,3.7163813334812708,0.0,33303.0,0.0,15.0,0.0,0.0,0.0,0.7519530480000001,3.7051513334808233,0.0,-3426.0,0.0,0.0,0.0,0.0,0.0,3.619384395,3.708894666814306,0.0,56086.0,0.0,45.0,0.0,0.0,0.0,1.640624832,3.7040283334807786,0.0,1.309999942779541,-0.25,-0.550000011920929,-0.0264892578125,-0.01751708984375,0.9805908203125,34.95000076293945,0.0,-21.0,-3.364227294921875,-0.8664703369140625,Closing,0.0,0.0,-110162.0,0.0,0.0,0.0,0.0,0.0,
1.8744189999999945,0.0,0.0,-34166.0,0.0,-15.0,0.0,0.0,9.375,3.14941374,3.7163813334812708,0.0,33303.0,0.0,37.5,0.0,0.0,0.0,0.7519530480000001,3.7051513334808233,0.0,-3426.0,0.0,0.0,0.0,0.0,0.0,3.6206050980000004,3.708894666814306,0.0,56089.0,0.0,30.0,0.0,0.0,0.0,1.639404129,3.7040283334807786,0.0,1.0,-0.23999999463558197,-0.550000011920929,0.01171875,-0.01287841796875,0.9703369140625,34.9900016784668,0.0,16.0,-3.3642425537109375,-0.8611907958984375,Closing,0.0,0.0,-110162.0,0.0,0.0,0.0,0.0,0.0,
1.9861239999999525,0.0,0.0,-34166.0,0.0,0.0,0.0,0.0,9.375,3.150634443,3.7163813334812708,0.0,33306.0,0.0,0.0,0.0,0.0,0.0,0.7519530480000001,3.7051513334808233,0.0,-3426.0,0.0,0.0,0.0,0.0,0.0,3.618163692,3.708894666814306,0.0,56089.0,0.0,0.0,0.0,0.0,0.0,1.640624832,3.7040283334807786,0.0,1.1100000143051147,-0.25999999046325684,-0.5699999928474426,-0.00286865234375,0.04437255859375,0.99298095703125,34.9900016784668,0.0,1.0,-3.3641815185546875,-0.85711669921875,Closing,0.0,0.0,-110162.0,0.0,0.0,0.0,0.0,0.0,
2.0938469999999505,0.0,0.0,-34166.0,0.375,-30.0,-328.125,0.0,9.375,3.1518551460000004,3.715140333431961,0.0,33306.0,0.375,45.0,328.125,0.0,0.0,0.7519530480000001,3.7039140834316626,0.0,-3426.0,0.625,0.0,-328.125,0.0,0.0,3.6218258010000004,3.7076561667650956,0.0,56089.0,0.25,52.5,328.125,0.0,0.0,1.640624832,3.7027914584316326,0.0,1.0800000429153442,-0.25999999046325684,-0.5400000214576721,0.00201416015625,0.00537109375,1.01580810546875,34.9900016784668,0.0,6.0,-3.3641815185546875,-0.8566436767578125,Closing,0.0,0.0,-110162.0,0.0,0.0,0.0,0.0,0.0,
2.2034299999999347,0.0,0.0,-34180.0,2.125,-135.0,-557.8125,0.0,9.25,3.150634443,3.7155539997041247,0.0,33329.0,2.0,127.5,557.8125,0.0,0.0,0.7519530480000001,3.704326499705018,0.0,-3426.0,2.25,-150.0,-557.8125,0.0,0.0,3.619384395,3.7080689997047203,0.0,56109.0,1.875,60.0,557.8125,0.0,0.0,1.639404129,3.7032037497051076,0.0,1.3300000429153442,-0.30000001192092896,-0.5600000023841858,-0.0223388671875,0.1690673828125,1.10272216796875,34.9900016784668,0.0,-17.0,-3.3644561767578125,-0.856109619140625,Closing,0.0,0.0,-110162.0,0.0,0.0,0.0,0.0,0.0,
2.315191999999923,0.0,0.0,-34199.0,5.875,-97.5,-656.25,0.0,9.0,3.148193037,3.715278222189349,0.0,33339.0,6.5,112.5,656.25,0.0,0.0,0.7519530480000001,3.704051555522781,0.0,-3460.0,4.625,-165.0,-656.25,0.0,0.0,3.618163692,3.7077937777449703,0.0,56121.0,4.375,150.0,656.25,0.0,0.0,1.639404129,3.7029288888561243,0.0,1.7100000381469727,-0.3400000035762787,-0.2199999988079071,-0.03466796875,0.05987548828125,0.973876953125,34.9900016784668,0.0,-28.0,-3.3650970458984375,-0.8493499755859375,Closing,0.0,0.0,-110162.0,0.0,0.0,0.0,0.0,0.0,
2.4287870000000114,0.0,0.0,-34225.0,10.25,-202.5,-803.90625,0.0,8.625,3.14941374,3.719966444460884,0.0,33369.0,11.125,217.5,803.90625,0.0,0.0,0.747070236,3.7087256111275004,0.0,-3493.0,9.625,-247.5,-803.90625,0.0,0.0,3.618163692,3.7124725555719618,0.0,56154.0,7.125,240.0,803.90625,0.0,0.0,1.6357420200000001,3.707601527794162,0.0,1.9900000095367432,-0.3799999952316284,0.2199999988079071,-0.0306396484375,0.1240234375,1.0689697265625,34.970001220703125,0.0,-23.0,-3.3663787841796875,-0.8398895263671875,Closing,0.0,0.0,-110162.0,0.0,0.0,0.0,0.0,0.0,
2.5355869999999414,0.0,0.0,-34272.0,13.125,-315.0,-836.7187499999999,0.0,8.125,3.150634443,3.727550333514149,0.0,33412.0,15.125,300.0,836.7187499999999,0.0,0.0,0.7519530480000001,3.7162865835136025,0.0,-3551.0,10.625,-397.5,-836.7187499999999,0.0,0.0,3.6206050980000004,3.720041166847118,0.0,56211.0,8.875,420.0,836.7187499999999,0.0,0.0,1.627197099,3.715160208513548,0.0,2.440000057220459,-0.41999998688697815,1.159999966621399,0.04290771484375,0.0135498046875,1.02191162109375,34.970001220703125,0.0,49.0,-3.368194580078125,-0.824371337890625,Closing,0.0,0.0,-110162.0,0.0,0.0,0.0,0.0,0.0,
2.6481180000000166,0.0,0.0,-34339.0,14.875,-435.0,-869.5312499999999,0.0,7.75,3.14941374,3.738995110650859,0.0,33482.0,17.0,465.0,869.5312499999999,0.0,0.0,0.7519530480000001,3.7276967773189162,0.0,-3637.0,10.75,-585.0,-869.5312499999999,0.0,0.0,3.6279293160000003,3.7314628884295638,0.0,56295.0,9.25,562.5,869.5312499999999,0.0,0.0,1.625976396,3.726566943985722,0.0,2.740000009536743,-0.5199999809265137,2.059999942779541,0.03961181640625,0.0992431640625,0.99798583984375,34.970001220703125,0.0,50.0,-3.369598388671875,-0.809051513671875,Closing,0.0,0.0,-110162.0,0.0,0.0,0.0,0.0,0.0,
2.757024999999907,0.0,0.0,-34433.0,16.625,-592.5,-918.75,0.0,7.375,3.148193037,3.7514051103221067,0.0,33574.0,19.0,592.5,918.75,0.0,0.0,0.7519530480000001,3.7400692769911568,0.0,-3750.0,10.375,-720.0,-918.75,0.0,0.0,3.609618771,3.7438478881014734,0.0,56402.0,9.25,697.5,918.75,0.0,0.0,1.621093584,3.7389356936580618,0.0,3.0899999141693115,-0.6499999761581421,3.4800000190734863,0.09423828125,0.03076171875,0.9451904296875,34.970001220703125,0.0,103.0,-3.3719940185546875,-0.7801513671875,Closing,0.0,0.0,-110162.0,0.0,0.0,0.0,0.0,0.0,
2.8730709999999964,0.0,0.0,-34544.0,18.375,-697.5,-984.3749999999999,0.0,7.0,3.146972334,3.7709853335963377,0.0,33688.0,20.875,712.5,984.3749999999999,0.0,0.0,0.7519530480000001,3.759590333595542,0.0,-3887.0,9.625,-870.0,-984.3749999999999,0.0,0.0,3.6328121280000003,3.7633886669291408,0.0,56538.0,8.25,862.5,984.3749999999999,0.0,0.0,1.621093584,3.7584508335954627,0.0,3.359999895095825,-0.75,5.349999904632568,-0.0657958984375,0.04803466796875,1.01287841796875,35.0,0.0,-53.0,-3.3747711181640625,-0.744659423828125,Closing,0.0,0.0,-110162.0,0.0,0.0,0.0,0.0,0.0,
2.9874319999999135,0.0,0.0,-34677.0,23.625,-832.5,-1230.46875,0.0,5.875,3.150634443,3.7967705542405468,0.0,33821.0,28.0,840.0,1230.46875,0.0,0.0,0.7519530480000001,3.785297637577853,0.0,-4048.0,11.0,-1012.5,-1230.46875,0.0,0.125,3.6376949400000003,3.789121943132084,0.0,56692.0,10.5,975.0,1230.46875,0.0,0.0,1.625976396,3.7841503459115837,0.0,3.5299999713897705,-0.8700000047683716,7.420000076293945,0.0145263671875,0.2762451171875,1.14581298828125,35.0,0.0,58.0,-3.3744964599609375,-0.7106170654296875,Closing,0.0,0.0,-110162.0,0.0,0.0,0.0,0.0,0.0,
3.0941389999999664,0.0,0.0,-34833.0,24.625,-960.0,-1263.28125,0.0,5.25,3.14941374,3.8253135566075662,0.0,33976.0,28.75,952.5,1263.28125,0.0,0.0,0.7519530480000001,3.81375438993772,0.0,-4238.0,9.625,-1170.0,-1263.28125,0.0,0.125,3.654784782,3.8176074454943354,0.0,56874.0,9.375,1125.0,1263.28125,0.0,0.0,1.6540525650000002,3.8125984732707354,0.0,3.809999942779541,-0.9700000286102295,9.880000114440918,-0.0489501953125,-0.01373291015625,0.9144287109375,35.0,0.0,-45.0,-3.373291015625,-0.6715545654296875,Closing,0.0,0.0,-110162.0,0.0,0.0,0.0,0.0,0.0,
3.2074340000000086,0.0,0.0,-35017.0,23.5,-1102.5,-1263.28125,0.0,2.5,2.987060241,3.864336111111113,0.0,34158.0,27.75,1080.0,1263.28125,0.0,0.125,0.7507323450000001,3.8526590277777792,0.0,-4447.0,7.875,-1267.5,-1263.28125,0.0,0.125,3.6914058720000003,3.8565513888888905,0.0,57080.0,7.625,1252.5,1263.28125,0.0,0.0,1.697997873,3.851491319444446,0.0,4.010000228881836,-1.1200000047683716,12.850000381469727,-0.06878662109375,0.1851806640625,1.12841796875,35.0,0.0,-21.0,-3.3704833984375,-0.6487274169921875,Closing,0.0,0.0,-110162.0,0.0,0.0,0.0,0.0,0.0,
3.315689000000013,0.0,0.0,-35017.0,18.75,-1260.0,-1208.382454430603,0.0,0.125,2.857665723,3.9771766986881447,0.0,34158.0,20.875,1252.5,1160.3985207756225,0.0,0.125,0.7519530480000001,3.8342969977944152,0.0,-4676.0,7.375,-1380.0,-1371.2155687271704,0.0,0.125,3.7817378940000004,3.938152785162572,0.0,57303.0,6.375,1380.0,1329.1232850124559,0.0,0.0,1.7163084180000001,3.8174795799315553,0.0,4.389999866485596,-0.949999988079071,14.859999656677246,-0.1121826171875,0.14532470703125,1.10845947265625,35.0,0.0,-75.0,-3.3612213134765625,-0.6433563232421875,Closing,0.0,0.0,-110162.0,0.0,0.0,0.0,0.0,0.0,
3.429662000000011,0.0,0.0,-35228.0,12.375,-1432.5,-1155.7907345715632,0.0,0.25,2.834472366,4.155921649243101,0.0,34365.0,11.625,1372.5,987.6282350251613,0.0,0.0,0.7519530480000001,3.7483224600419796,0.0,-4676.0,5.75,-1627.5,-1575.125586333208,0.0,0.0,3.9514156110000003,4.024768456002813,0.0,57556.0,5.5,1530.0,1456.2204232941433,0.0,0.0,1.717529121,3.735416602188479,0.0,4.590000152587891,-1.2300000190734863,16.540000915527344,0.00421142578125,0.0423583984375,1.0224609375,34.970001220703125,0.0,13.0,-3.3518218994140625,-0.63201904296875,Closing,0.0,0.0,-110162.0,0.0,0.0,0.0,0.0,0.0,
3.5356940000000177,0.0,0.0,-35468.0,7.25,-1567.5,-1159.2148784348658,0.0,0.25,2.935790715,4.236055588045007,0.0,34589.0,5.375,1440.0,923.4337674160386,0.0,0.0,0.760497969,3.727348391642461,0.0,-4944.0,6.0,-1665.0,-1654.5924811547488,0.0,0.125,4.058837475,4.060435836343235,0.0,57556.0,3.625,1672.5,1498.8752673632468,0.0,0.0,1.722411933,3.7202316244641143,0.0,4.239999771118164,-1.4199999570846558,19.110000610351562,-0.11322021484375,-0.05291748046875,1.05706787109375,34.970001220703125,0.0,-125.0,-3.3427276611328125,-0.624298095703125,Closing,0.0,0.0,-110162.0,0.0,0.0,0.0,0.0,0.0,
3.647789999999921,0.0,0.0,-35717.0,5.625,-1500.0,-1182.7373947135884,0.0,0.25,3.093261402,4.27808549586843,0.0,34816.0,3.25,1357.5,906.3034244501017,0.0,0.0,0.761718672,3.7827532724013495,0.0,-5203.0,5.5,-1687.5,-1664.0373506409112,0.0,0.0,4.073485911000001,4.0917540485913175,0.0,57824.0,3.0,1627.5,1480.3845637685224,0.0,0.0,1.7138670120000001,3.754043772555218,0.0,3.5899999141693115,-1.5,23.31999969482422,0.00970458984375,-0.113037109375,0.28466796875,34.970001220703125,0.0,-36.0,-3.3323974609375,-0.62969970703125,Closing,0.0,0.0,-110162.0,0.0,0.0,0.0,0.0,0.0,
3.7530579999999607,0.0,0.0,-35950.0,0.375,-1305.0,-538.3868010990489,0.0,6.75,3.4753414410000003,0.3434803633501914,0.0,35016.0,0.625,975.0,-435.1528668005731,0.0,4.75,1.1633299590000001,4.5172396968225135,0.0,-5493.0,0.0,-1717.5,-697.4202343240347,0.0,0.125,4.145507388,4.327034402243579,0.0,58084.0,0.0,1590.0,621.2025862242381,0.0,4.125,1.4770506300000001,3.2060165604017317,0.0,2.2300000190734863,-1.090000033378601,28.239999771118164,0.12939453125,-0.47320556640625,0.93170166015625,34.970001220703125,0.0,-111.0,-3.3242645263671875,-0.6465606689453125,Closing,0.0,0.0,-110162.0,0.0,0.0,0.0,0.0,0.0,
3.8661300000000045,0.0,0.0,-36119.0,1.375,-1042.5,-661.4173203706741,0.0,0.5,4.374999552,0.5533560492066895,0.0,35077.0,1.125,240.0,-661.4173203706741,0.0,0.5,1.483154145,4.397316058113635,0.0,-5713.0,0.0,-1192.5,-661.4173203706741,0.0,0.0,4.331054244000001,4.401758689006861,0.0,58290.0,0.125,990.0,661.4173203706741,0.0,1.875,1.0815428580000002,3.0252667311543324,0.0,-0.9100000262260437,-0.25999999046325684,35.72999954223633,0.144775390625,-0.42254638671875,1.10015869140625,34.970001220703125,0.0,-114.0,-3.322021484375,-0.7107086181640625,Closing,0.0,0.0,-110162.0,0.0,0.0,0.0,0.0,0.0,
3.9799739999999293,0.0,0.0,-36266.0,3.125,-780.0,-694.4881707429886,0.0,0.75,4.93164012,0.5533560492066895,0.0,35064.0,0.125,-232.5,-694.4881707429886,0.0,0.0,1.5771482760000002,4.397316058113635,0.0,-5868.0,0.125,-802.5,-694.4881707429886,0.0,0.0,4.478759307,4.401758689006861,0.0,58394.0,2.5,525.0,694.4881707429886,0.0,0.375,0.8032225740000001,3.0252667311543324,0.0,-1.350000023841858,0.8500000238418579,40.65999984741211,0.22149658203125,0.099365234375,1.13623046875,34.97999954223633,0.0,237.0,-3.323883056640625,-0.7838287353515625,Closing,0.0,0.0,-110162.0,0.0,0.0,0.0,0.0,0.0,
4.091767999999924,0.0,0.0,-36329.0,11.5,-330.0,-793.700784444809,0.0,2.0,4.79736279,0.5533560492066895,0.0,34991.0,0.125,-427.5,-793.700784444809,0.0,0.0,1.5588377310000001,4.397316058113635,0.0,-5930.0,7.75,-210.0,-793.700784444809,0.0,0.125,4.50439407,4.401758689006861,0.0,58482.0,5.875,540.0,793.700784444809,0.0,0.0,0.7397460180000001,3.0252667311543324,0.0,-1.2599999904632568,1.1799999475479126,43.810001373291016,-0.1607666015625,-0.06146240234375,1.0328369140625,34.97999954223633,0.0,-158.0,-3.3157806396484375,-0.89080810546875,Closing,0.0,0.0,-110162.0,0.0,0.0,0.0,0.0,0.0,
4.2050929999999935,0.0,0.0,-36384.0,16.5,-352.5,-793.700784444809,0.0,0.75,4.429931187,0.5533560492066895,0.0,34913.0,0.125,-540.0,-793.700784444809,0.0,0.0,1.5502928100000002,4.397316058113635,0.0,-5959.0,15.25,-255.0,-793.700784444809,0.0,0.125,4.422606969,4.401758689006861,0.0,58548.0,8.125,435.0,793.700784444809,0.0,0.25,0.848388585,3.0252667311543324,0.0,-1.0099999904632568,0.7900000214576721,48.689998626708984,-0.0140380859375,0.0865478515625,1.1156005859375,34.97999954223633,0.0,60.0,-3.3121795654296875,-0.994293212890625,Closing,0.0,0.0,-110162.0,0.0,0.0,0.0,0.0,0.0,
4.314125,0.0,0.0,-36491.0,21.0,-697.5,-1140.9448385238647,0.0,0.125,4.337157759,0.5533560492066895,0.0,34798.0,1.0,-742.5,-1140.9448385238647,0.0,0.125,1.5563963250000001,4.397316058113635,0.0,-6052.0,17.625,-630.0,-1140.9448385238647,0.0,0.0,4.388427285000001,4.401758689006861,0.0,58644.0,13.125,690.0,1140.9448385238647,0.0,0.0,0.91552725,3.0252667311543324,0.0,-0.41999998688697815,0.6700000166893005,57.13999938964844,0.06024169921875,0.01580810546875,1.09283447265625,34.97999954223633,0.0,45.0,-3.30633544921875,-1.08905029296875,Closing,0.0,0.0,-110162.0,0.0,0.0,0.0,0.0,0.0,
4.4323809999999355,0.0,0.0,-36653.0,21.5,-1005.0,-1388.9763414859772,0.0,0.0,4.326171432000001,0.5533560492066895,0.0,34649.0,2.875,-952.5,-1388.9763414859772,0.0,0.125,1.5576170280000001,4.397316058113635,0.0,-6220.0,14.5,-1095.0,-1388.9763414859772,0.0,0.0,4.379882364,4.401758689006861,0.0,58794.0,15.125,975.0,1388.9763414859772,0.0,0.0,0.9338377950000001,3.0252667311543324,0.0,-0.10999999940395355,0.6899999976158142,67.80000305175781,0.0621337890625,0.0343017578125,1.07635498046875,34.91999816894531,0.0,52.0,-3.2969207763671875,-1.16766357421875,Closing,0.0,0.0,-110162.0,0.0,0.0,0.0,0.0,0.0,
4.543360999999917,0.0,0.0,-36855.0,18.5,-1215.0,-1388.9763414859772,0.0,0.0,4.327392135,0.5533560492066895,0.0,34461.0,1.625,-1170.0,-1388.9763414859772,0.0,0.0,1.5563963250000001,4.397316058113635,0.0,-6431.0,10.875,-1320.0,-1388.9763414859772,0.0,0.0,4.378661661000001,4.401758689006861,0.0,58986.0,13.0,1192.5,1388.9763414859772,0.0,0.0,0.938720607,3.0252667311543324,0.0,0.1899999976158142,0.75,80.81999969482422,-0.01409912109375,0.00714111328125,0.5435791015625,34.91999816894531,0.0,1.0,-3.2840728759765625,-1.2456207275390625,Closing,0.0,0.0,-110162.0,0.0,0.0,0.0,0.0,0.0,
4.651069000000017,0.0,0.0,-37072.0,10.875,-1357.5,-1140.9448385238647,0.0,0.0,4.328612838000001,0.5533560492066895,0.0,34263.0,0.125,-1252.5,-1140.9448385238647,0.0,0.125,1.5527342160000002,4.397316058113635,0.0,-6654.0,5.75,-1387.5,-1140.9448385238647,0.0,0.0,4.373778849,4.401758689006861,0.0,59196.0,7.25,1305.0,1140.9448385238647,0.0,0.0,0.937499904,3.0252667311543324,0.0,0.5400000214576721,0.8299999833106995,97.23999786376953,0.070556640625,-0.0201416015625,0.9561767578125,34.91999816894531,0.0,-36.0,-3.2657012939453125,-1.334320068359375,Closing,0.0,0.0,-110162.0,0.0,0.0,0.0,0.0,0.0,
4.769246999999974,0.0,0.0,-37272.0,5.5,-1260.0,-843.3070600032806,0.0,0.0,4.327392135,0.5533560492066895,0.0,34072.0,0.0,-1200.0,-843.3070600032806,0.0,0.0,1.547851404,4.397316058113635,0.0,-6838.0,3.5,-1170.0,-843.3070600032806,0.0,0.0,4.378661661000001,4.401758689006861,0.0,59386.0,3.375,1207.5,843.3070600032806,0.0,0.0,0.937499904,3.0252667311543324,0.0,0.6600000262260437,0.8100000023841858,112.8499984741211,0.04254150390625,-0.0084228515625,0.64532470703125,34.91999816894531,0.0,-27.0,-3.2466278076171875,-1.424774169921875,Closing,0.0,0.0,-110162.0,0.0,0.0,0.0,0.0,0.0,
4.889220999999903,0.0,0.0,-37397.0,0.0,-900.0,0.0,0.0,0.0,4.328612838000001,0.5533560492066895,0.0,33898.0,0.0,-1117.5,0.0,0.0,0.0,1.51367172,4.397316058113635,0.0,-6989.0,0.0,-930.0,0.0,0.0,0.0,4.373778849,4.401758689006861,0.0,59562.0,0.0,1087.5,0.0,0.0,0.0,0.937499904,3.0252667311543324,0.0,0.5799999833106995,0.8899999856948853,125.36000061035156,0.07464599609375,-0.054931640625,1.00555419921875,34.91999816894531,0.0,-87.0,-3.231597900390625,-1.4922943115234375,Closing,0.0,0.0,-110162.0,0.0,0.0,0.0,0.0,0.0,
5.003201000000001,0.0,0.0,-37480.0,0.0,-547.5,0.0,0.0,0.0,4.316405808,0.5533560492066895,0.0,33783.0,0.0,-757.5,0.0,0.0,0.0,1.470947115,4.397316058113635,0.0,-7067.0,0.0,-532.5,0.0,0.0,0.0,4.373778849,4.401758689006861,0.0,59684.0,0.0,810.0,0.0,0.0,0.0,0.942382716,3.0252667311543324,0.0,0.6399999856948853,0.6700000166893005,132.36000061035156,-0.08428955078125,-0.02130126953125,0.92529296875,34.88999938964844,0.0,40.0,-3.2208404541015625,-1.4913787841796875,Closing,0.0,0.0,-110162.0,0.0,0.0,0.0,0.0,0.0,
5.115525999999955,0.0,0.0,-37503.0,0.0,-225.0,0.0,0.0,0.0,4.331054244000001,0.5533560492066895,0.0,33741.0,0.0,-397.5,0.0,0.0,0.0,1.457519382,4.397316058113635,0.0,-7089.0,0.0,-157.5,0.0,0.0,0.0,4.373778849,4.401758689006861,0.0,59733.0,0.0,337.5,0.0,0.0,0.0,0.942382716,3.0252667311543324,0.0,0.5899999737739563,0.15000000596046448,135.3300018310547,-0.08428955078125,-0.0010986328125,0.93133544921875,34.88999938964844,0.0,54.0,-3.2049102783203125,-1.4854278564453125,Closing,0.0,0.0,-110162.0,0.0,0.0,0.0,0.0,0.0,
5.235630999999936,0.0,0.0,-37466.0,10.375,135.0,1164.84375,0.0,0.0,4.26025347,0.5533560492066917,0.0,33795.0,9.125,240.0,1164.84375,0.0,0.0,1.4501951640000001,4.397316058113637,0.0,-7067.0,9.0,52.5,1164.84375,0.0,0.0,4.342040571,4.40175868900686,0.0,59686.0,7.875,-187.5,-1164.84375,0.0,0.0,0.9472655280000001,3.02526673115433,0.0,0.6499999761581421,-0.05000000074505806,133.1199951171875,0.11358642578125,-0.06103515625,0.92401123046875,34.88999938964844,0.0,-130.0,-3.1837005615234375,-1.4739990234375,Closing,0.0,0.0,-110162.0,0.0,0.0,0.0,0.0,0.0,
5.353044999999925,0.0,0.0,-37466.0,0.0,300.0,0.0,0.0,0.125,4.262694876,0.5533560492066917,0.0,33851.0,0.0,412.5,0.0,0.0,0.0,1.4477537580000002,4.397316058113637,0.0,-7014.0,0.0,277.5,0.0,0.0,0.0,4.349364789,4.40175868900686,0.0,59632.0,0.0,-330.0,0.0,0.0,0.0,0.941162013,3.02526673115433,0.0,0.7200000286102295,0.07999999821186066,127.5199966430664,0.1309814453125,-0.0924072265625,1.08221435546875,34.88999938964844,0.0,-162.0,-3.1670684814453125,-1.4646759033203125,Closing,0.0,0.0,-110162.0,0.0,0.0,0.0,0.0,0.0,
5.467882999999914,0.0,0.0,-37425.0,0.0,247.5,0.0,0.0,0.25,4.266356985,0.5533560492066917,0.0,33851.0,0.0,322.5,0.0,0.0,0.0,1.4477537580000002,4.397316058113637,0.0,-7014.0,0.0,225.0,0.0,0.0,0.0,4.322509323,4.40175868900686,0.0,59612.0,0.0,-225.0,0.0,0.0,0.0,0.942382716,3.02526673115433,0.0,0.7699999809265137,0.4000000059604645,124.9000015258789,0.0250244140625,-0.00616455078125,1.0057373046875,34.880001068115234,0.0,-26.0,-3.1482696533203125,-1.4599761962890625,Closing,0.0,0.0,-110162.0,0.0,0.0,0.0,0.0,0.0,
5.586738000000012,0.0,0.0,-37400.0,0.0,7.5,0.0,0.0,0.25,4.261474173,0.5533560492066917,0.0,33887.0,0.0,0.0,0.0,0.0,0.0,1.4465330550000002,4.397316058113637,0.0,-6997.0,0.0,0.0,0.0,0.0,0.0,4.349364789,4.40175868900686,0.0,59612.0,0.0,0.0,0.0,0.0,0.0,0.942382716,3.02526673115433,0.0,0.7200000286102295,0.25,125.62999725341797,0.00677490234375,0.09088134765625,0.96380615234375,34.880001068115234,0.0,62.0,-3.1307373046875,-1.456573486328125,Closing,0.0,0.0,-110162.0,0.0,0.0,0.0,0.0,0.0,
5.698095999999903,0.0,0.0,-37400.0,13.25,262.5,1509.375,0.0,0.125,4.2858882330000005,0.5533560492066917,0.0,33885.0,19.5,120.0,1509.375,0.0,0.0,1.4465330550000002,4.397316058113637,0.0,-6997.0,12.625,195.0,1509.375,0.0,0.0,4.3457026800000005,4.40175868900686,0.0,59612.0,12.625,-240.0,-1509.375,0.0,0.0,0.942382716,3.0252667311543298,0.0,0.8299999833106995,0.1899999976158142,124.04000091552734,-8.544921875E-4,-0.100830078125,1.3988037109375,34.880001068115234,0.0,-97.0,-3.1109619140625,-1.452392578125,Closing,0.0,0.0,-110162.0,0.0,0.0,0.0,0.0,0.0,
5.815665999999968,0.0,0.0,-37326.0,0.0,345.0,0.0,0.0,0.125,4.2932124510000005,0.5533560492066917,0.0,33937.0,0.0,375.0,0.0,0.0,0.0,1.433105322,4.397316058113637,0.0,-6938.0,0.0,390.0,0.0,0.0,0.0,4.349364789,4.40175868900686,0.0,59490.0,0.0,-367.5,0.0,0.0,0.0,0.942382716,3.0252667311543298,0.0,0.7300000190734863,0.15000000596046448,117.04000091552734,0.05029296875,0.13531494140625,0.72216796875,34.880001068115234,0.0,90.0,-3.09033203125,-1.443511962890625,Closing,0.0,0.0,-110162.0,0.0,0.0,0.0,0.0,0.0,
5.936689000000013,0.0,0.0,-37278.0,0.0,277.5,0.0,0.0,0.125,4.294433154,0.5533560492066917,0.0,34007.0,0.0,495.0,0.0,0.0,0.0,1.433105322,4.397316058113637,0.0,-6875.0,0.0,232.5,0.0,0.0,0.0,4.349364789,4.40175868900686,0.0,59490.0,0.0,-277.5,0.0,0.0,0.0,0.955810449,3.0252667311543298,0.0,0.8500000238418579,0.3700000047683716,113.8499984741211,0.1036376953125,-0.010986328125,0.79180908203125,34.880001068115234,0.0,-60.0,-3.0661468505859375,-1.434112548828125,Closing,0.0,0.0,-110162.0,0.0,0.0,0.0,0.0,0.0,
6.053304000000003,0.0,0.0,-37254.0,0.0,30.0,0.0,0.0,0.125,4.2932124510000005,0.5533560492066917,0.0,34043.0,0.0,0.0,0.0,0.0,0.0,1.431884619,4.397316058113637,0.0,-6854.0,0.0,22.5,0.0,0.0,0.0,4.350585492,4.40175868900686,0.0,59459.0,0.0,-37.5,0.0,0.0,0.0,0.9570311520000001,3.0252667311543298,0.0,0.9200000166893005,0.3799999952316284,114.18000030517578,0.02655029296875,0.0181884765625,0.98065185546875,34.880001068115234,0.0,-5.0,-3.0516815185546875,-1.4267120361328125,Closing,0.0,0.0,-110162.0,0.0,0.0,0.0,0.0,0.0,
6.170037999999942,0.0,0.0,-37254.0,0.0,0.0,0.0,0.0,0.125,4.2932124510000005,0.5533560492066917,0.0,34042.0,0.0,-15.0,0.0,0.0,0.0,1.430663916,4.397316058113637,0.0,-6854.0,0.0,0.0,0.0,0.0,0.0,4.350585492,4.40175868900686,0.0,59458.0,0.0,0.0,0.0,0.0,0.0,0.9570311520000001,3.0252667311543298,0.0,0.9599999785423279,0.3100000023841858,114.5,-0.00592041015625,-0.00225830078125,1.0047607421875,34.880001068115234,0.0,-12.0,-3.0511932373046875,-1.4219207763671875,Closing,0.0,0.0,-110162.0,0.0,0.0,0.0,0.0,0.0,
6.286824999999953,0.0,0.0,-37254.0,0.0,0.0,0.0,0.0,0.125,4.2932124510000005,0.5533560492066917,0.0,34040.0,0.0,0.0,0.0,0.0,0.0,1.433105322,4.397316058113637,0.0,-6854.0,0.0,0.0,0.0,0.0,0.0,4.350585492,4.40175868900686,0.0,59458.0,0.0,0.0,0.0,0.0,0.0,0.955810449,3.0252667311543298,0.0,0.9700000286102295,0.33000001311302185,114.4000015258789,-0.01092529296875,0.03289794921875,0.9940185546875,34.880001068115234,0.0,21.0,-3.0513916015625,-1.422027587890625,Closing,0.0,0.0,-110162.0,0.0,0.0,0.0,0.0,0.0,
6.392279999999912,0.0,0.0,-37254.0,0.0,0.0,0.0,0.0,0.125,4.294433154,0.5533560492066917,0.0,34040.0,0.0,0.0,0.0,0.0,0.0,1.431884619,4.397316058113637,0.0,-6854.0,0.0,0.0,0.0,0.0,0.0,4.349364789,4.40175868900686,0.0,59458.0,0.0,0.0,0.0,0.0,0.0,0.955810449,3.0252667311543298,0.0,0.9700000286102295,0.28999999165534973,114.43000030517578,0.01239013671875,0.0206298828125,1.00360107421875,34.880001068115234,0.0,0.0,-3.0512847900390625,-1.4218902587890625,Closing,0.0,0.0,-110162.0,0.0,0.0,0.0,0.0,0.0,
6.4966959999999965,0.0,0.0,-37254.0,0.0,0.0,0.0,0.0,0.125,4.2932124510000005,0.5533560492066917,0.0,34040.0,0.0,0.0,0.0,0.0,0.0,1.431884619,4.397316058113637,0.0,-6854.0,0.0,0.0,0.0,0.0,0.0,4.349364789,4.40175868900686,0.0,59458.0,0.0,0.0,0.0,0.0,0.0,0.9570311520000001,3.0252667311543298,0.0,0.9900000095367432,0.3100000023841858,114.41999816894531,-0.00604248046875,0.0120849609375,0.9921875,34.88999938964844,0.0,0.0,-3.0512847900390625,-1.4218902587890625,Closing,0.0,0.0,-110162.0,0.0,0.0,0.0,0.0,0.0,
6.607453999999911,0.0,0.0,-37254.0,0.0,0.0,0.0,0.0,0.125,4.2932124510000005,0.5533560492066917,0.0,34040.0,0.0,0.0,0.0,0.0,0.0,1.431884619,4.397316058113637,0.0,-6854.0,0.0,0.0,0.0,0.0,0.0,4.350585492,4.40175868900686,0.0,59458.0,0.0,0.0,0.0,0.0,0.0,0.955810449,3.0252667311543298,0.0,1.0,0.28999999165534973,114.41999816894531,0.00537109375,0.01824951171875,0.995361328125,34.88999938964844,0.0,0.0,-3.0512847900390625,-1.4218902587890625,Closing,0.0,0.0,-110162.0,0.0,0.0,0.0,0.0,0.0,
6.714550999999978,0.0,0.0,-37254.0,0.0,0.0,0.0,0.0,0.125,4.291991748,0.5533560492066917,0.0,34040.0,0.0,0.0,0.0,0.0,0.0,1.431884619,4.397316058113637,0.0,-6854.0,0.0,0.0,0.0,0.0,0.0,4.349364789,4.40175868900686,0.0,59458.0,0.0,0.0,0.0,0.0,0.0,0.9570311520000001,3.0252667311543298,0.0,1.0099999904632568,0.2800000011920929,114.41999816894531,0.01177978515625,0.02484130859375,0.99139404296875,34.88999938964844,0.0,3.0,-3.0512847900390625,-1.4218902587890625,Closing,0.0,0.0,-110162.0,0.0,0.0,0.0,0.0,0.0,
6.823149999999907,0.0,0.0,-37254.0,0.0,0.0,0.0,0.0,0.125,4.294433154,0.5533560492066917,0.0,34040.0,0.0,0.0,0.0,0.0,0.0,1.431884619,4.397316058113637,0.0,-6854.0,0.0,0.0,0.0,0.0,0.0,4.350585492,4.40175868900686,0.0,59458.0,0.0,0.0,0.0,0.0,0.0,0.9570311520000001,3.0252667311543298,0.0,1.0099999904632568,0.27000001072883606,114.41999816894531,0.0018310546875,0.025146484375,0.9915771484375,34.88999938964844,0.0,8.0,-3.0512847900390625,-1.4218902587890625,Closing,0.0,0.0,-110162.0,0.0,0.0,0.0,0.0,0.0,
6.932600999999908,0.0,0.0,-37254.0,0.0,0.0,0.0,0.0,0.125,4.2932124510000005,0.5533560492066917,0.0,34040.0,0.0,0.0,0.0,0.0,0.0,1.431884619,4.397316058113637,0.0,-6854.0,0.0,0.0,0.0,0.0,0.0,4.349364789,4.40175868900686,0.0,59458.0,0.0,0.0,0.0,0.0,0.0,0.955810449,3.0252667311543298,0.0,1.0299999713897705,0.27000001072883606,114.43000030517578,-2.44140625E-4,0.01861572265625,0.991455078125,34.88999938964844,0.0,2.0,-3.0512847900390625,-1.4218902587890625,Closing,0.0,0.0,-110162.0,0.0,0.0,0.0,0.0,0.0,
7.043027999999933,0.0,0.0,-37254.0,0.0,0.0,0.0,0.0,0.0,4.2932124510000005,0.5533560492066917,0.0,34040.0,0.0,0.0,0.0,0.0,0.0,1.431884619,4.397316058113637,0.0,-6854.0,0.0,0.0,0.0,0.0,0.0,4.350585492,4.40175868900686,0.0,59458.0,0.0,0.0,0.0,0.0,0.0,0.9570311520000001,3.0252667311543298,0.0,1.0299999713897705,0.25999999046325684,114.43000030517578,0.0101318359375,0.025146484375,1.0001220703125,34.880001068115234,0.0,4.0,-3.0512847900390625,-1.4218902587890625,Closing,0.0,0.0,-110162.0,0.0,0.0,0.0,0.0,0.0,
