Time,ClimberA1,ClimberA2,FRpos,FRCurrent,FRspeed,FRsetpoint,FRApos,FRACurrent,FREncpos,FREncSetpoint,FREncSpeed,FLpos,FLCurrent,FLspeed,FLsetpoint,FLApos,FLACurrent,FLEncpos,FLEncSetpoint,FLEncSpeed,BRpos,BRCurrent,BRspeed,BRsetpoint,BRApos,BRACurrent,BREncpos,BREncSetpoint,BREncSpeed,BLpos,BLCurrent,BLspeed,BLsetpoint,BLApos,BLACurrent,BLEncpos,BLEncSetpoint,BLEncSpeed,navx_Pitch,navx_Roll,navx_Yaw,navx_XAcc,navx_YAcc,navx_ZAcc,navx_Temp,navx_Bar,navx_Alt,navx_XDis,navx_YDis,GearPlacerState,ShootOutputV,ShootOutputCurrent,ShootEncPos,ShootEncVelocity,ShootSpeed,ShootSetpoint,CarouselSetpoint,CarouselCurrent,
0.1364189999999944,0.0,0.0,20.0,0.0,0.0,0.0,0.0,0.125,3.920898036,0.0,0.0,343.0,0.0,0.0,-0.0,0.0,0.0,2.0092771380000003,0.0,0.0,37.0,0.0,0.0,0.0,0.0,0.0,4.689940926,0.0,0.0,-53.0,0.0,0.0,-0.0,0.0,0.0,2.921142279,0.0,0.0,-0.47999998927116394,89.41000366210938,-94.68000030517578,1.00238037109375,-0.00885009765625,6.7138671875E-4,35.0099983215332,0.0,-6.0,-0.072357177734375,0.060577392578125,Waiting,0.0,0.0,-396138.0,0.0,0.0,0.0,0.0,0.0,
0.30109799999999814,0.0,0.0,20.0,0.0,0.0,0.0,0.0,0.125,3.919677333,0.0,0.0,343.0,0.0,0.0,-0.0,0.0,0.0,2.0080564350000003,0.0,0.0,37.0,0.0,0.0,0.0,0.0,0.0,4.691161629000001,0.0,0.0,-53.0,0.0,0.0,-0.0,0.0,0.0,2.919921576,0.0,0.0,-0.4699999988079071,89.41999816894531,-94.56999969482422,1.00347900390625,-0.0074462890625,-0.005859375,35.029998779296875,0.0,0.0,-0.072357177734375,0.060577392578125,Waiting,0.0,0.0,-396138.0,0.0,0.0,0.0,0.0,0.0,
0.4674420000000391,0.0,0.0,20.0,0.0,0.0,0.0,0.0,0.125,3.9392085810000004,0.0,0.0,343.0,0.0,0.0,-0.0,0.0,0.0,2.0080564350000003,0.0,0.0,37.0,0.0,0.0,0.0,0.0,0.0,4.68749952,0.0,0.0,-53.0,0.0,0.0,-0.0,0.0,0.0,2.919921576,0.0,0.0,-0.4699999988079071,89.41000366210938,-94.66999816894531,1.0076904296875,-0.00958251953125,-0.00823974609375,35.029998779296875,0.0,2.0,-0.072357177734375,0.060577392578125,Waiting,0.0,0.0,-396138.0,0.0,0.0,0.0,0.0,0.0,
0.6293359999998939,0.0,0.0,20.0,0.0,0.0,0.0,0.0,0.125,3.875732025,0.0,0.0,343.0,0.0,0.0,-0.0,0.0,0.0,2.0080564350000003,0.0,0.0,37.0,0.0,0.0,0.0,0.0,0.0,4.689940926,0.0,0.0,-53.0,0.0,0.0,-0.0,0.0,0.0,2.921142279,0.0,0.0,-0.47999998927116394,89.41000366210938,-94.68000030517578,1.00323486328125,-0.0103759765625,-0.006591796875,35.029998779296875,0.0,0.0,-0.072357177734375,0.060577392578125,Waiting,0.0,0.0,-396138.0,0.0,0.0,0.0,0.0,0.0,
0.7906890000000131,0.0,0.0,20.0,0.0,0.0,0.0,0.0,0.125,3.868407807,0.0,0.0,343.0,0.0,0.0,-0.0,0.0,0.0,2.0092771380000003,0.0,0.0,37.0,0.0,0.0,0.0,0.0,0.0,4.692382332,0.0,0.0,-53.0,0.0,0.0,-0.0,0.0,0.0,2.921142279,0.0,0.0,-0.47999998927116394,89.41000366210938,-94.68000030517578,1.00177001953125,-0.0067138671875,-0.00518798828125,35.02000045776367,0.0,0.0,-0.072357177734375,0.060577392578125,Waiting,0.0,0.0,-396138.0,0.0,0.0,0.0,0.0,0.0,
0.9529439999999013,0.0,0.0,20.0,0.0,0.0,0.0,0.0,0.125,3.867187104,0.0,0.0,343.0,0.0,0.0,-0.0,0.0,0.0,2.0080564350000003,0.0,0.0,37.0,0.0,0.0,0.0,0.0,0.0,4.691161629000001,0.0,0.0,-53.0,0.0,0.0,-0.0,0.0,0.0,2.921142279,0.0,0.0,-0.47999998927116394,89.41000366210938,-94.68000030517578,1.00286865234375,-0.00701904296875,-0.0079345703125,35.02000045776367,0.0,1.0,-0.072357177734375,0.060577392578125,Waiting,0.0,0.0,-396138.0,0.0,0.0,0.0,0.0,0.0,
1.1151389999999666,0.0,0.0,20.0,0.0,0.0,0.0,0.0,0.125,3.867187104,0.0,0.0,343.0,0.0,0.0,-0.0,0.0,0.0,2.0092771380000003,0.0,0.0,37.0,0.0,0.0,0.0,0.0,0.0,4.692382332,0.0,0.0,-53.0,0.0,0.0,-0.0,0.0,0.0,2.921142279,0.0,0.0,-0.47999998927116394,89.41000366210938,-94.68000030517578,1.00518798828125,-0.00799560546875,-0.00140380859375,35.02000045776367,0.0,-4.0,-0.072357177734375,0.060577392578125,Waiting,0.0,0.0,-396138.0,0.0,0.0,0.0,0.0,0.0,
1.278779000000097,0.0,0.0,20.0,0.0,0.0,0.0,0.0,0.125,3.867187104,0.0,0.0,343.0,0.0,0.0,-0.0,0.0,0.0,2.0080564350000003,0.0,0.0,37.0,0.0,0.0,0.0,0.0,0.0,4.702147956,0.0,0.0,-53.0,0.0,0.0,-0.0,0.0,0.0,2.919921576,0.0,0.0,-0.47999998927116394,89.41000366210938,-94.61000061035156,1.00189208984375,-0.00762939453125,-0.00262451171875,35.02000045776367,0.0,-3.0,-0.072357177734375,0.060577392578125,Waiting,0.0,0.0,-396138.0,0.0,0.0,0.0,0.0,0.0,
1.4555169999999926,0.0,0.0,20.0,0.0,0.0,0.0,0.0,0.125,3.867187104,0.0,0.0,343.0,0.0,0.0,-0.0,0.0,0.0,2.0092771380000003,0.0,0.0,37.0,0.0,0.0,0.0,0.0,0.0,4.691161629000001,0.0,0.0,-53.0,0.0,0.0,-0.0,0.0,0.0,2.919921576,0.0,0.0,-0.47999998927116394,89.41000366210938,-94.61000061035156,1.00238037109375,-0.00830078125,-0.00604248046875,35.02000045776367,0.0,0.0,-0.072357177734375,0.060577392578125,Waiting,0.0,0.0,-396138.0,0.0,0.0,0.0,0.0,0.0,
1.6164140000001062,0.0,0.0,20.0,0.0,0.0,0.0,0.0,0.125,3.868407807,0.0,0.0,343.0,0.0,0.0,-0.0,0.0,0.0,2.0080564350000003,0.0,0.0,37.0,0.0,0.0,0.0,0.0,0.0,4.691161629000001,0.0,0.0,-53.0,0.0,0.0,-0.0,0.0,0.0,2.919921576,0.0,0.0,-0.47999998927116394,89.41000366210938,-94.61000061035156,1.00201416015625,-0.005615234375,-0.00634765625,35.02000045776367,0.0,0.0,-0.072357177734375,0.060577392578125,Waiting,0.0,0.0,-396138.0,0.0,0.0,0.0,0.0,0.0,
1.7873999999999068,0.0,0.0,20.0,0.0,0.0,0.0,0.0,0.125,3.868407807,0.0,0.0,343.0,0.0,0.0,-0.0,0.0,0.0,2.0080564350000003,0.0,0.0,37.0,0.0,0.0,0.0,0.0,0.0,4.691161629000001,0.0,0.0,-53.0,0.0,0.0,-0.0,0.0,0.0,2.921142279,0.0,0.0,-0.47999998927116394,89.41000366210938,-94.68000030517578,0.9991455078125,-0.0068359375,-0.00732421875,35.02000045776367,0.0,1.0,-0.072357177734375,0.060577392578125,Waiting,0.0,0.0,-396138.0,0.0,0.0,0.0,0.0,0.0,
1.9556189999999478,0.0,0.0,20.0,0.0,0.0,0.0,0.0,0.125,3.867187104,0.0,0.0,343.0,0.0,0.0,-0.0,0.0,0.0,2.0080564350000003,0.0,0.0,37.0,0.0,0.0,0.0,0.0,0.0,4.691161629000001,0.0,0.0,-53.0,0.0,0.0,-0.0,0.0,0.0,2.921142279,0.0,0.0,-0.47999998927116394,89.4000015258789,-94.62000274658203,1.0,-0.00701904296875,-0.0050048828125,35.02000045776367,0.0,0.0,-0.072357177734375,0.060577392578125,Waiting,0.0,0.0,-396138.0,0.0,0.0,0.0,0.0,0.0,
2.12875,0.0,0.0,20.0,0.0,0.0,0.0,0.0,0.125,3.867187104,0.0,0.0,343.0,0.0,0.0,-0.0,0.0,0.0,2.0080564350000003,0.0,0.0,37.0,0.0,0.0,0.0,0.0,0.0,4.691161629000001,0.0,0.0,-53.0,0.0,0.0,-0.0,0.0,0.0,2.919921576,0.0,0.0,-0.47999998927116394,89.41000366210938,-94.55000305175781,1.004150390625,-0.0074462890625,-0.0032958984375,35.02000045776367,0.0,-2.0,-0.072357177734375,0.060577392578125,Waiting,0.0,0.0,-396138.0,0.0,0.0,0.0,0.0,0.0,
2.304975000000093,0.0,0.0,20.0,0.0,0.0,0.0,0.0,0.125,3.868407807,0.0,0.0,343.0,0.0,0.0,-0.0,0.0,0.0,2.0080564350000003,0.0,0.0,37.0,0.0,0.0,0.0,0.0,0.0,4.691161629000001,0.0,0.0,-53.0,0.0,0.0,-0.0,0.0,0.0,2.921142279,0.0,0.0,-0.47999998927116394,89.41000366210938,-94.55000305175781,1.00732421875,-0.00823974609375,-0.003173828125,35.0,0.0,-2.0,-0.072357177734375,0.060577392578125,Waiting,0.0,0.0,-396138.0,0.0,0.0,0.0,0.0,0.0,
2.4731710000000895,0.0,0.0,20.0,0.0,0.0,0.0,0.0,0.125,3.867187104,0.0,0.0,343.0,0.0,0.0,-0.0,0.0,0.0,2.0092771380000003,0.0,0.0,37.0,0.0,0.0,0.0,0.0,0.0,4.689940926,0.0,0.0,-53.0,0.0,0.0,-0.0,0.0,0.0,2.919921576,0.0,0.0,-0.47999998927116394,89.41999816894531,-94.5,1.00311279296875,-0.00946044921875,-0.00103759765625,35.0,0.0,-4.0,-0.072357177734375,0.060577392578125,Waiting,0.0,0.0,-396138.0,0.0,0.0,0.0,0.0,0.0,
2.6481340000000784,0.0,0.0,20.0,0.0,0.0,0.0,0.0,0.125,3.867187104,0.0,0.0,343.0,0.0,0.0,-0.0,0.0,0.0,2.0080564350000003,0.0,0.0,37.0,0.0,0.0,0.0,0.0,0.0,4.691161629000001,0.0,0.0,-53.0,0.0,0.0,-0.0,0.0,0.0,2.919921576,0.0,0.0,-0.47999998927116394,89.43000030517578,-94.23999786376953,1.00518798828125,-0.00360107421875,-0.00469970703125,35.0,0.0,-1.0,-0.072357177734375,0.060577392578125,Waiting,0.0,0.0,-396138.0,0.0,0.0,0.0,0.0,0.0,
2.8287069999999366,0.0,0.0,20.0,0.0,0.0,0.0,0.0,0.125,3.868407807,0.0,0.0,343.0,0.0,0.0,-0.0,0.0,0.0,2.0080564350000003,0.0,0.0,37.0,0.0,0.0,0.0,0.0,0.0,4.691161629000001,0.0,0.0,-53.0,0.0,0.0,-0.0,0.0,0.0,2.921142279,0.0,0.0,-0.4699999988079071,89.43000030517578,-94.22000122070312,1.0050048828125,-0.0048828125,-0.00335693359375,35.029998779296875,0.0,-2.0,-0.072357177734375,0.060577392578125,Waiting,0.0,0.0,-396138.0,0.0,0.0,0.0,0.0,0.0,
2.9980139999999667,0.0,0.0,20.0,0.0,0.0,0.0,0.0,0.125,3.867187104,0.0,0.0,343.0,0.0,0.0,-0.0,0.0,0.0,2.0080564350000003,0.0,0.0,37.0,0.0,0.0,0.0,0.0,0.0,4.691161629000001,0.0,0.0,-53.0,0.0,0.0,-0.0,0.0,0.0,2.919921576,0.0,0.0,-0.4699999988079071,89.43000030517578,-94.16000366210938,1.00201416015625,-0.01287841796875,-0.00689697265625,35.029998779296875,0.0,2.0,-0.072357177734375,0.060577392578125,Waiting,0.0,0.0,-396138.0,0.0,0.0,0.0,0.0,0.0,
3.1716629999999424,0.0,0.0,20.0,0.0,0.0,0.0,0.0,0.125,3.868407807,0.0,0.0,343.0,0.0,0.0,-0.0,0.0,0.0,2.0092771380000003,0.0,0.0,37.0,0.0,0.0,0.0,0.0,0.0,4.691161629000001,0.0,0.0,-53.0,0.0,0.0,-0.0,0.0,0.0,2.921142279,0.0,0.0,-0.49000000953674316,89.43000030517578,-93.88999938964844,1.0003662109375,-0.00775146484375,-0.00152587890625,35.029998779296875,0.0,-3.0,-0.072357177734375,0.060577392578125,Waiting,0.0,0.0,-396138.0,0.0,0.0,0.0,0.0,0.0,
3.3413260000001173,0.0,0.0,20.0,0.0,0.0,0.0,0.0,0.125,3.868407807,0.0,0.0,343.0,0.0,0.0,-0.0,0.0,0.0,2.0080564350000003,0.0,0.0,37.0,0.0,0.0,0.0,0.0,0.0,4.692382332,0.0,0.0,-53.0,0.0,0.0,-0.0,0.0,0.0,2.921142279,0.0,0.0,-0.5299999713897705,89.38999938964844,-94.02999877929688,0.9996337890625,-0.01263427734375,-0.010986328125,35.0,0.0,6.0,-0.072357177734375,0.060577392578125,Waiting,0.0,0.0,-396138.0,0.0,0.0,0.0,0.0,0.0,
3.514027000000002,0.0,0.0,20.0,0.0,0.0,0.0,0.0,0.125,3.867187104,0.0,0.0,343.0,0.0,0.0,-0.0,0.0,0.0,2.0092771380000003,0.0,0.0,37.0,0.0,0.0,0.0,0.0,0.0,4.692382332,0.0,0.0,-53.0,0.0,0.0,-0.0,0.0,0.0,2.921142279,0.0,0.0,-0.5299999713897705,89.37999725341797,-94.1500015258789,1.00006103515625,-0.00689697265625,-0.0098876953125,35.0,0.0,4.0,-0.072357177734375,0.060577392578125,Waiting,0.0,0.0,-396138.0,0.0,0.0,0.0,0.0,0.0,
3.6754869999999644,0.0,0.0,20.0,0.0,0.0,0.0,0.0,0.125,3.868407807,0.0,0.0,343.0,0.0,0.0,-0.0,0.0,0.0,2.0092771380000003,0.0,0.0,37.0,0.0,0.0,0.0,0.0,0.0,4.691161629000001,0.0,0.0,-53.0,0.0,0.0,-0.0,0.0,0.0,2.919921576,0.0,0.0,-0.550000011920929,89.37999725341797,-93.76000213623047,1.0084228515625,-0.0069580078125,6.7138671875E-4,35.0,0.0,-5.0,-0.072357177734375,0.060577392578125,Waiting,0.0,0.0,-396138.0,0.0,0.0,0.0,0.0,0.0,
3.8361659999999684,0.0,0.0,20.0,0.0,0.0,0.0,0.0,0.125,3.867187104,0.0,0.0,343.0,0.0,0.0,-0.0,0.0,0.0,2.0092771380000003,0.0,0.0,37.0,0.0,0.0,0.0,0.0,0.0,4.689940926,0.0,0.0,-53.0,0.0,0.0,-0.0,0.0,0.0,2.919921576,0.0,0.0,-0.5600000023841858,89.37999725341797,-93.56999969482422,1.0087890625,-0.00555419921875,-7.9345703125E-4,35.04999923706055,0.0,-3.0,-0.072357177734375,0.060577392578125,Waiting,0.0,0.0,-396138.0,0.0,0.0,0.0,0.0,0.0,
4.007695999999997,0.0,0.0,20.0,0.0,0.0,0.0,0.0,0.125,3.868407807,0.0,0.0,343.0,0.0,0.0,-0.0,0.0,0.0,2.0080564350000003,0.0,0.0,37.0,0.0,0.0,0.0,0.0,0.0,4.689940926,0.0,0.0,-53.0,0.0,0.0,-0.0,0.0,0.0,2.919921576,0.0,0.0,-0.5600000023841858,89.38999938964844,-93.33999633789062,1.00616455078125,-0.0069580078125,-0.00286865234375,35.04999923706055,0.0,-1.0,-0.072357177734375,0.060577392578125,Waiting,0.0,0.0,-396138.0,0.0,0.0,0.0,0.0,0.0,
4.168980999999913,0.0,0.0,20.0,0.0,0.0,0.0,0.0,0.125,3.868407807,0.0,0.0,343.0,0.0,0.0,-0.0,0.0,0.0,2.0092771380000003,0.0,0.0,37.0,0.0,0.0,0.0,0.0,0.0,4.692382332,0.0,0.0,-53.0,0.0,0.0,-0.0,0.0,0.0,2.921142279,0.0,0.0,-0.5699999928474426,89.38999938964844,-93.05000305175781,1.00140380859375,-0.008544921875,-0.00347900390625,35.04999923706055,0.0,0.0,-0.072357177734375,0.060577392578125,Waiting,0.0,0.0,-396138.0,0.0,0.0,0.0,0.0,0.0,
4.328891000000062,0.0,0.0,20.0,0.0,0.0,0.0,0.0,0.125,3.868407807,0.0,0.0,343.0,0.0,0.0,-0.0,0.0,0.0,2.0092771380000003,0.0,0.0,37.0,0.0,0.0,0.0,0.0,0.0,4.691161629000001,0.0,0.0,-53.0,0.0,0.0,-0.0,0.0,0.0,2.919921576,0.0,0.0,-0.5699999928474426,89.37000274658203,-93.43000030517578,1.00225830078125,-0.010986328125,-0.004150390625,35.040000915527344,0.0,0.0,-0.072357177734375,0.060577392578125,Waiting,0.0,0.0,-396138.0,0.0,0.0,0.0,0.0,0.0,
4.489226000000024,0.0,0.0,20.0,0.0,0.0,0.0,0.0,0.125,3.867187104,0.0,0.0,343.0,0.0,0.0,-0.0,0.0,0.0,2.0092771380000003,0.0,0.0,37.0,0.0,0.0,0.0,0.0,0.0,4.691161629000001,0.0,0.0,-53.0,0.0,0.0,-0.0,0.0,0.0,2.919921576,0.0,0.0,-0.5799999833106995,89.36000061035156,-93.47000122070312,1.00103759765625,-0.01031494140625,-0.0069580078125,35.040000915527344,0.0,2.0,-0.072357177734375,0.060577392578125,Waiting,0.0,0.0,-396138.0,0.0,0.0,0.0,0.0,0.0,
4.651429999999935,0.0,0.0,20.0,0.0,0.0,0.0,0.0,0.125,3.867187104,0.0,0.0,343.0,0.0,0.0,-0.0,0.0,0.0,2.0080564350000003,0.0,0.0,37.0,0.0,0.0,0.0,0.0,0.0,4.691161629000001,0.0,0.0,-53.0,0.0,0.0,-0.0,0.0,0.0,2.921142279,0.0,0.0,-0.5799999833106995,89.36000061035156,-93.54000091552734,1.0042724609375,-0.00714111328125,-8.544921875E-4,35.040000915527344,0.0,-3.0,-0.072357177734375,0.060577392578125,Waiting,0.0,0.0,-396138.0,0.0,0.0,0.0,0.0,0.0,
4.813378000000026,0.0,0.0,20.0,0.0,0.0,0.0,0.0,0.125,3.868407807,0.0,0.0,343.0,0.0,0.0,-0.0,0.0,0.0,2.0080564350000003,0.0,0.0,37.0,0.0,0.0,0.0,0.0,0.0,4.692382332,0.0,0.0,-53.0,0.0,0.0,-0.0,0.0,0.0,2.921142279,0.0,0.0,-0.5699999928474426,89.37000274658203,-93.76000213623047,1.00262451171875,-0.00714111328125,-0.00225830078125,35.08000183105469,0.0,-2.0,-0.072357177734375,0.060577392578125,Waiting,0.0,0.0,-396138.0,0.0,0.0,0.0,0.0,0.0,
4.976550000000047,0.0,0.0,20.0,0.0,0.0,0.0,0.0,0.125,3.868407807,0.0,0.0,343.0,0.0,0.0,-0.0,0.0,0.0,2.0080564350000003,0.0,0.0,37.0,0.0,0.0,0.0,0.0,0.0,4.692382332,0.0,0.0,-53.0,0.0,0.0,-0.0,0.0,0.0,2.921142279,0.0,0.0,-0.5600000023841858,89.37000274658203,-93.6500015258789,1.00482177734375,-0.010986328125,-0.00201416015625,35.08000183105469,0.0,-2.0,-0.072357177734375,0.060577392578125,Waiting,0.0,0.0,-396138.0,0.0,0.0,0.0,0.0,0.0,
5.137736000000033,0.0,0.0,20.0,0.0,0.0,0.0,0.0,0.125,3.867187104,0.0,0.0,343.0,0.0,0.0,-0.0,0.0,0.0,2.0080564350000003,0.0,0.0,37.0,0.0,0.0,0.0,0.0,0.0,4.689940926,0.0,0.0,-53.0,0.0,0.0,-0.0,0.0,0.0,2.921142279,0.0,0.0,-0.5600000023841858,89.37000274658203,-93.73999786376953,1.0006103515625,-0.0123291015625,-0.021240234375,35.08000183105469,0.0,16.0,-0.072357177734375,0.060577392578125,Waiting,0.0,0.0,-396138.0,0.0,0.0,0.0,0.0,0.0,
5.310537000000012,0.0,0.0,20.0,0.0,0.0,0.0,0.0,0.125,3.867187104,0.0,0.0,343.0,0.0,0.0,-0.0,0.0,0.0,2.0080564350000003,0.0,0.0,37.0,0.0,0.0,0.0,0.0,0.0,4.691161629000001,0.0,0.0,-53.0,0.0,0.0,-0.0,0.0,0.0,2.921142279,0.0,0.0,-0.5600000023841858,89.37999725341797,-93.66999816894531,1.0052490234375,-0.00537109375,-0.0042724609375,35.029998779296875,0.0,0.0,-0.072357177734375,0.060577392578125,Waiting,0.0,0.0,-396138.0,0.0,0.0,0.0,0.0,0.0,
5.473208000000101,0.0,0.0,20.0,0.0,0.0,0.0,0.0,0.125,3.868407807,0.0,0.0,343.0,0.0,0.0,-0.0,0.0,0.0,2.0080564350000003,0.0,0.0,37.0,0.0,0.0,0.0,0.0,0.0,4.691161629000001,0.0,0.0,-53.0,0.0,0.0,-0.0,0.0,0.0,2.919921576,0.0,0.0,-0.5699999928474426,89.37000274658203,-93.8499984741211,1.0059814453125,-0.00823974609375,0.01605224609375,35.029998779296875,0.0,-20.0,-0.0723724365234375,0.060577392578125,Waiting,0.0,0.0,-396138.0,0.0,0.0,0.0,0.0,0.0,
5.635483999999939,0.0,0.0,20.0,0.0,0.0,0.0,0.0,0.125,3.867187104,0.0,0.0,343.0,0.0,0.0,-0.0,0.0,0.0,2.0080564350000003,0.0,0.0,37.0,0.0,0.0,0.0,0.0,0.0,4.691161629000001,0.0,0.0,-53.0,0.0,0.0,-0.0,0.0,0.0,2.919921576,0.0,0.0,-0.5600000023841858,89.37000274658203,-93.91000366210938,1.001953125,-0.00421142578125,-0.00146484375,35.029998779296875,0.0,-3.0,-0.072479248046875,0.060577392578125,Waiting,0.0,0.0,-396138.0,0.0,0.0,0.0,0.0,0.0,
5.802280000000028,0.0,0.0,20.0,0.0,0.0,0.0,0.0,0.125,3.865966401,0.0,0.0,343.0,0.0,0.0,-0.0,0.0,0.0,2.0080564350000003,0.0,0.0,37.0,0.0,0.0,0.0,0.0,0.0,4.689940926,0.0,0.0,-53.0,0.0,0.0,-0.0,0.0,0.0,2.919921576,0.0,0.0,-0.5600000023841858,89.37000274658203,-93.83999633789062,0.99847412109375,-0.0128173828125,-0.01861572265625,35.029998779296875,0.0,14.0,-0.072479248046875,0.060577392578125,Waiting,0.0,0.0,-396138.0,0.0,0.0,0.0,0.0,0.0,
5.967547999999952,0.0,0.0,20.0,0.0,0.0,0.0,0.0,0.125,3.865966401,0.0,0.0,343.0,0.0,0.0,-0.0,0.0,0.0,2.0080564350000003,0.0,0.0,37.0,0.0,0.0,0.0,0.0,0.0,4.692382332,0.0,0.0,-53.0,0.0,0.0,-0.0,0.0,0.0,2.919921576,0.0,0.0,-0.5799999833106995,89.36000061035156,-93.56999969482422,1.00164794921875,-0.01446533203125,0.00213623046875,35.06999969482422,0.0,-6.0,-0.072479248046875,0.060577392578125,Waiting,0.0,0.0,-396138.0,0.0,0.0,0.0,0.0,0.0,
6.131915999999968,0.0,0.0,20.0,0.0,0.0,0.0,0.0,0.125,3.867187104,0.0,0.0,343.0,0.0,0.0,-0.0,0.0,0.0,2.0080564350000003,0.0,0.0,37.0,0.0,0.0,0.0,0.0,0.0,4.691161629000001,0.0,0.0,-53.0,0.0,0.0,-0.0,0.0,0.0,2.921142279,0.0,0.0,-0.5600000023841858,89.36000061035156,-94.11000061035156,0.99951171875,-0.00482177734375,-0.01324462890625,35.06999969482422,0.0,7.0,-0.072479248046875,0.060577392578125,Waiting,0.0,0.0,-396138.0,0.0,0.0,0.0,0.0,0.0,
6.306776000000071,0.0,0.0,20.0,0.0,0.0,0.0,0.0,0.125,3.867187104,0.0,0.0,343.0,0.0,0.0,-0.0,0.0,0.0,2.0080564350000003,0.0,0.0,37.0,0.0,0.0,0.0,0.0,0.0,4.691161629000001,0.0,0.0,-53.0,0.0,0.0,-0.0,0.0,0.0,2.919921576,0.0,0.0,-0.5799999833106995,89.37000274658203,-93.0999984741211,1.00360107421875,-0.01861572265625,0.02020263671875,35.06999969482422,0.0,-22.0,-0.072662353515625,0.060577392578125,Waiting,0.0,0.0,-396138.0,0.0,0.0,0.0,0.0,0.0,
6.473462000000057,0.0,0.0,20.0,0.0,0.0,0.0,0.0,0.125,3.867187104,0.0,0.0,343.0,0.0,0.0,-0.0,0.0,0.0,2.0080564350000003,0.0,0.0,37.0,0.0,0.0,0.0,0.0,0.0,4.691161629000001,0.0,0.0,-53.0,0.0,0.0,-0.0,0.0,0.0,2.916259467,0.0,0.0,-0.5699999928474426,89.3499984741211,-94.37999725341797,1.00390625,-0.01348876953125,-0.00897216796875,35.04999923706055,0.0,3.0,-0.0727386474609375,0.060577392578125,Waiting,0.0,0.0,-396138.0,0.0,0.0,0.0,0.0,0.0,
6.63443200000003,0.0,0.0,20.0,0.0,0.0,0.0,0.0,0.125,3.867187104,0.0,0.0,343.0,0.0,0.0,-0.0,0.0,0.0,2.0080564350000003,0.0,0.0,37.0,0.0,0.0,0.0,0.0,0.0,4.692382332,0.0,0.0,-53.0,0.0,0.0,-0.0,0.0,0.0,2.919921576,0.0,0.0,-0.5699999928474426,89.36000061035156,-93.9000015258789,0.99835205078125,-0.01519775390625,-0.02764892578125,35.04999923706055,0.0,23.0,-0.073150634765625,0.060577392578125,Waiting,0.0,0.0,-396138.0,0.0,0.0,0.0,0.0,0.0,
6.800158999999985,0.0,0.0,20.0,0.0,0.0,0.0,0.0,0.125,3.867187104,0.0,0.0,343.0,0.0,0.0,-0.0,0.0,0.0,2.0080564350000003,0.0,0.0,37.0,0.0,0.0,0.0,0.0,0.0,4.692382332,0.0,0.0,-53.0,0.0,0.0,-0.0,0.0,0.0,2.922362982,0.0,0.0,-0.5799999833106995,89.37000274658203,-93.36000061035156,1.0045166015625,-0.0169677734375,0.0025634765625,35.04999923706055,0.0,-5.0,-0.0730133056640625,0.060577392578125,Waiting,0.0,0.0,-396138.0,0.0,0.0,0.0,0.0,0.0,
6.969051999999909,0.0,0.0,20.0,0.0,0.0,0.0,0.0,0.125,3.867187104,0.0,0.0,343.0,0.0,0.0,-0.0,0.0,0.0,2.0080564350000003,0.0,0.0,37.0,0.0,0.0,0.0,0.0,0.0,4.691161629000001,0.0,0.0,-53.0,0.0,0.0,-0.0,0.0,0.0,2.921142279,0.0,0.0,-0.5699999928474426,89.3499984741211,-94.08999633789062,1.0013427734375,-0.01361083984375,-0.0020751953125,35.02000045776367,0.0,-2.0,-0.0730133056640625,0.060577392578125,Waiting,0.0,0.0,-396138.0,0.0,0.0,0.0,0.0,0.0,
7.12989599999995,0.0,0.0,20.0,0.0,0.0,0.0,0.0,0.125,3.867187104,0.0,0.0,343.0,0.0,0.0,-0.0,0.0,0.0,2.0080564350000003,0.0,0.0,37.0,0.0,0.0,0.0,0.0,0.0,4.691161629000001,0.0,0.0,-53.0,0.0,0.0,-0.0,0.0,0.0,2.919921576,0.0,0.0,-0.5699999928474426,89.37000274658203,-93.6500015258789,1.00250244140625,-0.00750732421875,-0.0025634765625,35.02000045776367,0.0,-2.0,-0.0730133056640625,0.060577392578125,Waiting,0.0,0.0,-396138.0,0.0,0.0,0.0,0.0,0.0,
7.289152000000002,0.0,0.0,20.0,0.0,0.0,0.0,0.0,0.125,3.868407807,0.0,0.0,343.0,0.0,0.0,-0.0,0.0,0.0,2.0080564350000003,0.0,0.0,37.0,0.0,0.0,0.0,0.0,0.0,4.691161629000001,0.0,0.0,-53.0,0.0,0.0,-0.0,0.0,0.0,2.921142279,0.0,0.0,-0.5699999928474426,89.37000274658203,-93.58999633789062,1.00616455078125,-0.01092529296875,0.0018310546875,35.02000045776367,0.0,-6.0,-0.0730133056640625,0.060577392578125,Waiting,0.0,0.0,-396138.0,0.0,0.0,0.0,0.0,0.0,
7.4529760000000245,0.0,0.0,20.0,0.0,0.0,0.0,0.0,0.125,3.868407807,0.0,0.0,343.0,0.0,0.0,-0.0,0.0,0.0,2.0080564350000003,0.0,0.0,37.0,0.0,0.0,0.0,0.0,0.0,4.691161629000001,0.0,0.0,-53.0,0.0,0.0,-0.0,0.0,0.0,2.919921576,0.0,0.0,-0.5600000023841858,89.37000274658203,-93.61000061035156,1.001953125,-0.0206298828125,-0.00506591796875,35.040000915527344,0.0,1.0,-0.0730133056640625,0.06072998046875,Waiting,0.0,0.0,-396138.0,0.0,0.0,0.0,0.0,0.0,
7.615472999999998,0.0,0.0,20.0,0.0,0.0,0.0,0.0,0.125,3.867187104,0.0,0.0,343.0,0.0,0.0,-0.0,0.0,0.0,2.0080564350000003,0.0,0.0,37.0,0.0,0.0,0.0,0.0,0.0,4.692382332,0.0,0.0,-53.0,0.0,0.0,-0.0,0.0,0.0,2.919921576,0.0,0.0,-0.550000011920929,89.38999938964844,-93.62000274658203,1.0057373046875,-0.00933837890625,-0.0137939453125,35.040000915527344,0.0,9.0,-0.0730133056640625,0.0605926513671875,Waiting,0.0,0.0,-396138.0,0.0,0.0,0.0,0.0,0.0,
7.786524999999907,0.0,0.0,20.0,0.0,0.0,0.0,0.0,0.125,3.867187104,0.0,0.0,343.0,0.0,0.0,-0.0,0.0,0.0,2.0080564350000003,0.0,0.0,37.0,0.0,0.0,0.0,0.0,0.0,4.689940926,0.0,0.0,-53.0,0.0,0.0,-0.0,0.0,0.0,2.921142279,0.0,0.0,-0.550000011920929,89.38999938964844,-93.48999786376953,1.00335693359375,-0.01025390625,3.662109375E-4,35.040000915527344,0.0,-4.0,-0.0730133056640625,0.0605926513671875,Waiting,0.0,0.0,-396138.0,0.0,0.0,0.0,0.0,0.0,
7.9498829999999145,0.0,0.0,20.0,0.0,0.0,0.0,0.0,0.125,3.865966401,0.0,0.0,343.0,0.0,0.0,-0.0,0.0,0.0,2.0080564350000003,0.0,0.0,37.0,0.0,0.0,0.0,0.0,0.0,4.692382332,0.0,0.0,-53.0,0.0,0.0,-0.0,0.0,0.0,2.919921576,0.0,0.0,-0.550000011920929,89.37000274658203,-94.08999633789062,1.00396728515625,-0.01104736328125,0.0064697265625,35.0099983215332,0.0,-11.0,-0.0730133056640625,0.0605926513671875,Waiting,0.0,0.0,-396138.0,0.0,0.0,0.0,0.0,0.0,
8.110997999999904,0.0,0.0,20.0,0.0,0.0,0.0,0.0,0.125,3.868407807,0.0,0.0,343.0,0.0,0.0,-0.0,0.0,0.0,2.0092771380000003,0.0,0.0,37.0,0.0,0.0,0.0,0.0,0.0,4.691161629000001,0.0,0.0,-53.0,0.0,0.0,-0.0,0.0,0.0,2.919921576,0.0,0.0,-0.5400000214576721,89.37000274658203,-94.1500015258789,1.001953125,-0.00665283203125,-0.00653076171875,35.0099983215332,0.0,1.0,-0.0730133056640625,0.0605926513671875,Waiting,0.0,0.0,-396138.0,0.0,0.0,0.0,0.0,0.0,
8.273559000000125,0.0,0.0,20.0,0.0,0.0,0.0,0.0,0.125,3.868407807,0.0,0.0,343.0,0.0,0.0,-0.0,0.0,0.0,2.0092771380000003,0.0,0.0,37.0,0.0,0.0,0.0,0.0,0.0,4.691161629000001,0.0,0.0,-53.0,0.0,0.0,-0.0,0.0,0.0,2.919921576,0.0,0.0,-0.550000011920929,89.37000274658203,-94.0199966430664,1.001220703125,-0.0120849609375,-0.0113525390625,35.0099983215332,0.0,6.0,-0.0730133056640625,0.0605926513671875,Waiting,0.0,0.0,-396138.0,0.0,0.0,0.0,0.0,0.0,
8.435466000000014,0.0,0.0,20.0,0.0,0.0,0.0,0.0,0.125,3.868407807,0.0,0.0,343.0,0.0,0.0,-0.0,0.0,0.0,2.0080564350000003,0.0,0.0,37.0,0.0,0.0,0.0,0.0,0.0,4.692382332,0.0,0.0,-53.0,0.0,0.0,-0.0,0.0,0.0,2.91748017,0.0,0.0,-0.5400000214576721,89.37999725341797,-93.91000366210938,1.00146484375,-0.0062255859375,-0.00494384765625,35.0099983215332,0.0,0.0,-0.0730133056640625,0.0605926513671875,Waiting,0.0,0.0,-396138.0,0.0,0.0,0.0,0.0,0.0,
8.59640599999996,0.0,0.0,20.0,0.0,0.0,0.0,0.0,0.125,3.867187104,0.0,0.0,343.0,0.0,0.0,-0.0,0.0,0.0,2.0080564350000003,0.0,0.0,37.0,0.0,0.0,0.0,0.0,0.0,4.691161629000001,0.0,0.0,-53.0,0.0,0.0,-0.0,0.0,0.0,2.919921576,0.0,0.0,-0.5699999928474426,89.37000274658203,-93.80999755859375,1.0010986328125,-0.00616455078125,0.001953125,35.0099983215332,0.0,-6.0,-0.0730133056640625,0.0605926513671875,Waiting,0.0,0.0,-396138.0,0.0,0.0,0.0,0.0,0.0,
8.767861000000034,0.0,0.0,20.0,0.0,0.0,0.0,0.0,0.125,3.867187104,0.0,0.0,343.0,0.0,0.0,-0.0,0.0,0.0,2.0080564350000003,0.0,0.0,37.0,0.0,0.0,0.0,0.0,0.0,4.692382332,0.0,0.0,-53.0,0.0,0.0,-0.0,0.0,0.0,2.921142279,0.0,0.0,-0.5899999737739563,89.36000061035156,-93.44000244140625,1.01422119140625,-0.00927734375,0.00506591796875,35.0099983215332,0.0,-9.0,-0.0730133056640625,0.0605926513671875,Waiting,0.0,0.0,-396138.0,0.0,0.0,0.0,0.0,0.0,
8.931831999999936,0.0,0.0,20.0,0.0,0.0,0.0,0.0,0.125,3.867187104,0.0,0.0,343.0,0.0,0.0,-0.0,0.0,0.0,2.0080564350000003,0.0,0.0,37.0,0.0,0.0,0.0,0.0,0.0,4.691161629000001,0.0,0.0,-53.0,0.0,0.0,-0.0,0.0,0.0,2.913818061,0.0,0.0,-0.5600000023841858,89.38999938964844,-93.33999633789062,1.00213623046875,-0.00762939453125,-0.01007080078125,35.029998779296875,0.0,5.0,-0.0730133056640625,0.0605926513671875,Waiting,0.0,0.0,-396138.0,0.0,0.0,0.0,0.0,0.0,
9.097233000000008,0.0,0.0,20.0,0.0,0.0,0.0,0.0,0.125,3.867187104,0.0,0.0,343.0,0.0,0.0,-0.0,0.0,0.0,2.0104978410000003,0.0,0.0,37.0,0.0,0.0,0.0,0.0,0.0,4.691161629000001,0.0,0.0,-53.0,0.0,0.0,-0.0,0.0,0.0,2.919921576,0.0,0.0,-0.5600000023841858,89.38999938964844,-93.43000030517578,1.005859375,-0.00506591796875,-0.0059814453125,35.029998779296875,0.0,1.0,-0.0730133056640625,0.0605926513671875,Waiting,0.0,0.0,-396138.0,0.0,0.0,0.0,0.0,0.0,
9.2718330000001,0.0,0.0,20.0,0.0,0.0,0.0,0.0,0.125,3.867187104,0.0,0.0,343.0,0.0,0.0,-0.0,0.0,0.0,2.0092771380000003,0.0,0.0,37.0,0.0,0.0,0.0,0.0,0.0,4.691161629000001,0.0,0.0,-53.0,0.0,0.0,-0.0,0.0,0.0,2.919921576,0.0,0.0,-0.5600000023841858,89.38999938964844,-93.43000030517578,1.00213623046875,-0.002197265625,-0.00384521484375,35.029998779296875,0.0,0.0,-0.0730133056640625,0.0605926513671875,Waiting,0.0,0.0,-396138.0,0.0,0.0,0.0,0.0,0.0,
9.450091000000015,0.0,0.0,20.0,0.0,0.0,0.0,0.0,0.125,3.868407807,0.0,0.0,343.0,0.0,0.0,-0.0,0.0,0.0,2.0080564350000003,0.0,0.0,37.0,0.0,0.0,0.0,0.0,0.0,4.691161629000001,0.0,0.0,-53.0,0.0,0.0,-0.0,0.0,0.0,2.919921576,0.0,0.0,-0.5600000023841858,89.37999725341797,-93.2699966430664,1.0079345703125,-0.0042724609375,0.002197265625,35.02000045776367,0.0,-6.0,-0.0730133056640625,0.0605926513671875,Waiting,0.0,0.0,-396138.0,0.0,0.0,0.0,0.0,0.0,
9.623361999999965,0.0,0.0,20.0,0.0,0.0,0.0,0.0,0.125,3.867187104,0.0,0.0,343.0,0.0,0.0,-0.0,0.0,0.0,2.0092771380000003,0.0,0.0,37.0,0.0,0.0,0.0,0.0,0.0,4.692382332,0.0,0.0,-53.0,0.0,0.0,-0.0,0.0,0.0,2.919921576,0.0,0.0,-0.5699999928474426,89.37999725341797,-93.3499984741211,1.017578125,-0.00555419921875,0.00518798828125,35.02000045776367,0.0,-9.0,-0.0730133056640625,0.0605926513671875,Waiting,0.0,0.0,-396138.0,0.0,0.0,0.0,0.0,0.0,
9.798134000000077,0.0,0.0,20.0,0.0,0.0,0.0,0.0,0.125,3.867187104,0.0,0.0,343.0,0.0,0.0,-0.0,0.0,0.0,2.0080564350000003,0.0,0.0,37.0,0.0,0.0,0.0,0.0,0.0,4.689940926,0.0,0.0,-53.0,0.0,0.0,-0.0,0.0,0.0,2.919921576,0.0,0.0,-0.550000011920929,89.38999938964844,-93.72000122070312,0.99517822265625,-0.01129150390625,-0.0115966796875,35.02000045776367,0.0,7.0,-0.0730133056640625,0.0605621337890625,Waiting,0.0,0.0,-396138.0,0.0,0.0,0.0,0.0,0.0,
9.977976999999955,0.0,0.0,20.0,0.0,0.0,0.0,0.0,0.125,3.867187104,0.0,0.0,343.0,0.0,0.0,-0.0,0.0,0.0,2.0092771380000003,0.0,0.0,37.0,0.0,0.0,0.0,0.0,0.0,4.691161629000001,0.0,0.0,-53.0,0.0,0.0,-0.0,0.0,0.0,2.919921576,0.0,0.0,-0.5699999928474426,89.37999725341797,-93.37999725341797,1.0037841796875,-0.00750732421875,-0.00689697265625,35.040000915527344,0.0,2.0,-0.0730133056640625,0.0605621337890625,Waiting,0.0,0.0,-396138.0,0.0,0.0,0.0,0.0,0.0,
10.151639999999897,0.0,0.0,20.0,0.0,0.0,0.0,0.0,0.125,3.867187104,0.0,0.0,343.0,0.0,0.0,-0.0,0.0,0.0,2.0092771380000003,0.0,0.0,37.0,0.0,0.0,0.0,0.0,0.0,4.691161629000001,0.0,0.0,-53.0,0.0,0.0,-0.0,0.0,0.0,2.919921576,0.0,0.0,-0.5899999737739563,89.36000061035156,-93.08000183105469,1.01019287109375,-0.01116943359375,0.02447509765625,35.040000915527344,0.0,-27.0,-0.0730438232421875,0.0605621337890625,Waiting,0.0,0.0,-396138.0,0.0,0.0,0.0,0.0,0.0,
10.334804000000004,0.0,0.0,20.0,0.0,0.0,0.0,0.0,0.0,3.867187104,0.0,0.0,343.0,0.0,0.0,-0.0,0.0,0.0,2.0080564350000003,0.0,0.0,37.0,0.0,0.0,0.0,0.0,0.0,4.691161629000001,0.0,0.0,-53.0,0.0,0.0,-0.0,0.0,0.0,2.921142279,0.0,0.0,-0.5699999928474426,89.3499984741211,-94.12000274658203,0.9991455078125,-0.0235595703125,-0.00823974609375,35.040000915527344,0.0,4.0,-0.07318115234375,0.0605621337890625,Waiting,0.0,0.0,-396138.0,0.0,0.0,0.0,0.0,0.0,
