Time,ClimberA1,ClimberA2,FRpos,FRCurrent,FRspeed,FRsetpoint,FRApos,FRACurrent,FREncpos,FREncSetpoint,FREncSpeed,FLpos,FLCurrent,FLspeed,FLsetpoint,FLApos,FLACurrent,FLEncpos,FLEncSetpoint,FLEncSpeed,BRpos,BRCurrent,BRspeed,BRsetpoint,BRApos,BRACurrent,BREncpos,BREncSetpoint,BREncSpeed,BLpos,BLCurrent,BLspeed,BLsetpoint,BLApos,BLACurrent,BLEncpos,BLEncSetpoint,BLEncSpeed,navx_Pitch,navx_Roll,navx_Yaw,navx_XAcc,navx_YAcc,navx_ZAcc,navx_Temp,navx_Bar,navx_Alt,navx_XDis,navx_YDis,GearPlacerState,ShootOutputV,ShootOutputCurrent,ShootEncPos,ShootEncVelocity,ShootSpeed,ShootSetpoint,CarouselSetpoint,CarouselCurrent,
0.1942520000000004,0.0,0.0,-9658.0,0.0,0.0,0.0,0.0,0.0,1.494140472,0.01,0.0,-22259.0,0.0,0.0,0.0,0.0,0.0,4.624022964,0.01,0.0,-13913.0,0.0,0.0,0.0,0.0,0.0,2.5915524690000002,0.01,0.0,-10065.0,0.0,0.0,0.0,0.0,0.0,3.0603024210000003,0.01,0.0,1.350000023841858,-0.25999999046325684,0.009999999776482582,-0.007080078125,0.0216064453125,1.00030517578125,34.40999984741211,0.0,-2.0,4.8349609375,0.911102294921875,Waiting,0.0,0.0,0.0,0.0,0.0,0.0,0.0,0.0,
0.22791300000000048,0.0,0.0,-9658.0,0.0,0.0,0.0,0.0,0.0,1.494140472,0.0,2.6769197690000004,-22259.0,0.0,0.0,-0.0,0.0,0.0,4.620360855,0.0,2.6518022610000003,-13913.0,0.0,0.0,0.0,0.0,0.0,2.5915524690000002,0.0,2.6555524690000003,-10065.0,0.0,0.0,-0.0,0.0,0.0,3.0615231240000003,0.0,0.19030242100000017,1.350000023841858,-0.25999999046325684,0.009999999776482582,-0.00244140625,0.0220947265625,0.99505615234375,34.45000076293945,0.0,2.0,4.8349609375,0.911102294921875,Waiting,0.0,0.0,0.0,0.0,0.0,0.0,0.0,0.0,
0.25220899999999985,0.0,0.0,-9658.0,0.0,0.0,0.0,0.0,5.125,1.48925766,0.0,2.6769197690000004,-22259.0,0.0,0.0,-0.0,0.0,3.125,4.637450697,0.0,2.6518022610000003,-13913.0,0.0,0.0,0.0,0.0,4.125,2.668456758,0.0,2.6555524690000003,-10065.0,0.0,0.0,-0.0,0.0,0.0,3.0517575000000003,0.0,0.19030242100000017,1.350000023841858,-0.25999999046325684,0.009999999776482582,-0.00457763671875,0.02423095703125,1.0040283203125,34.45000076293945,0.0,0.0,4.8349609375,0.911102294921875,Waiting,0.0,0.0,0.0,0.0,0.0,0.0,0.0,0.0,
0.275683,0.0,0.0,-9658.0,0.0,0.0,0.0,0.0,6.625,1.676025219,0.0,0.07690428900000024,-22259.0,0.0,0.0,-0.0,0.0,5.5,4.846190910000001,0.0,0.05981444699999994,-13913.0,0.0,0.0,0.0,0.0,7.0,2.88085908,0.0,0.11108397299999995,-10065.0,0.0,0.0,-0.0,0.0,0.0,3.016357113,0.0,-0.012207029999999897,1.340000033378601,-0.25999999046325684,0.009999999776482582,-0.0333251953125,0.0738525390625,1.00604248046875,34.45000076293945,0.0,-28.0,4.834991455078125,0.9110870361328125,Waiting,0.0,0.0,0.0,0.0,0.0,0.0,0.0,0.0,
0.308201,0.0,0.0,-9658.0,0.0,0.0,0.0,0.0,7.375,1.878661917,0.0,0.07690428900000024,-22259.0,0.0,0.0,-0.0,0.0,4.25,0.07080077400000001,0.0,0.05981444699999994,-13913.0,0.0,0.0,0.0,0.0,4.375,3.0578610150000003,0.0,0.11108397299999995,-10065.0,0.0,0.0,-0.0,0.0,0.0,2.9980465680000004,0.0,-0.012207029999999897,1.340000033378601,-0.25999999046325684,0.029999999329447746,-0.0357666015625,0.037353515625,1.012939453125,34.45000076293945,0.0,-31.0,4.8349761962890625,0.9111328125,Waiting,0.0,0.0,0.0,0.0,0.0,0.0,0.0,0.0,
0.33259299999999986,0.0,0.0,-9658.0,0.0,0.0,0.0,0.0,2.875,2.0617673670000003,0.0,0.40161128700000015,-22259.0,0.0,0.0,-0.0,0.0,2.25,0.294189423,0.0,-4.530028833,-13913.0,0.0,0.0,0.0,0.0,1.375,3.2690426340000003,0.0,0.417480426,-10065.0,0.0,0.0,-0.0,0.0,0.0,2.97851532,0.0,-0.05615233800000041,1.340000033378601,-0.25,0.05999999865889549,0.01605224609375,0.0128173828125,1.0277099609375,34.45000076293945,0.0,20.0,4.8348388671875,0.9111328125,Waiting,0.0,0.0,0.0,0.0,0.0,0.0,0.0,0.0,
0.35956400000000033,0.0,0.0,-9658.0,0.0,0.0,0.0,0.0,1.875,2.2753903920000003,0.0,0.40161128700000015,-22259.0,0.0,0.0,-0.0,0.0,1.875,0.469970655,0.0,-4.530028833,-13913.0,0.0,0.0,0.0,0.0,1.0,3.455810193,0.0,0.417480426,-10065.0,0.0,0.0,-0.0,0.0,0.0,2.965087587,0.0,-0.05615233800000041,1.3600000143051147,-0.3100000023841858,0.09000000357627869,-0.07489013671875,0.0379638671875,0.99310302734375,34.45000076293945,0.0,-69.0,4.834503173828125,0.9112548828125,Waiting,0.0,0.0,0.0,0.0,0.0,0.0,0.0,0.0,
0.39023000000000047,0.0,0.0,-9658.0,0.0,0.0,0.0,0.0,1.875,2.523193101,0.0,0.38330074199999986,-22265.0,0.0,-15.0,-0.0,0.0,1.875,0.7226561760000001,0.0,0.36621090000000045,-13913.0,0.0,0.0,0.0,0.0,1.0,3.7353511800000003,0.0,0.369873009,-10065.0,0.0,0.0,-0.0,0.0,0.0,2.9565426660000003,0.0,-0.028076168999999762,1.350000023841858,-0.3400000035762787,0.10000000149011612,2.44140625E-4,-0.01727294921875,0.921875,34.45000076293945,0.0,5.0,4.8339691162109375,0.9112091064453125,Waiting,0.0,0.0,0.0,0.0,0.0,0.0,0.0,0.0,
0.41515599999999997,0.0,0.0,-9658.0,0.0,0.0,0.0,0.0,2.0,2.701415739,0.0,0.38330074199999986,-22265.0,0.0,-52.5,-0.0,0.0,2.0,0.900878814,0.0,0.36621090000000045,-13913.0,0.0,0.0,0.0,0.0,1.0,3.8977046790000003,0.0,0.369873009,-10065.0,0.0,0.0,-0.0,0.0,0.0,2.9589840720000002,0.0,-0.028076168999999762,1.3200000524520874,-0.3199999928474426,0.10000000149011612,0.0428466796875,0.010498046875,0.9744873046875,34.45000076293945,0.0,48.0,4.833984375,0.91094970703125,Waiting,0.0,0.0,0.0,0.0,0.0,0.0,0.0,0.0,
0.4392370000000001,0.0,0.0,-9658.0,0.0,0.0,0.0,0.0,1.875,2.8930661100000004,0.0,0.2722167689999999,-22265.0,0.0,-67.5,-0.0,0.0,1.875,1.0827635610000002,0.0,0.26733395699999996,-13913.0,0.0,0.0,0.0,0.0,1.0,4.082030832,0.0,0.2770995809999999,-10065.0,0.0,0.0,-0.0,0.0,0.0,2.9589840720000002,0.0,-0.004882811999999959,1.2899999618530273,-0.30000001192092896,0.07999999821186066,0.04144287109375,0.02752685546875,1.01995849609375,34.45000076293945,0.0,46.0,4.834075927734375,0.91094970703125,Waiting,0.0,0.0,0.0,0.0,0.0,0.0,0.0,0.0,
0.461951,0.0,0.0,-9658.0,0.0,0.0,0.0,0.0,1.875,3.0541989060000003,0.0,0.2722167689999999,-22265.0,0.0,-75.0,-0.0,0.0,1.875,1.2414549510000001,0.0,0.26733395699999996,-13913.0,0.0,0.0,0.0,0.0,1.0,4.246825737,0.0,0.2770995809999999,-10065.0,0.0,0.0,-0.0,0.0,0.0,2.9589840720000002,0.0,-0.004882811999999959,1.2999999523162842,-0.25999999046325684,0.05999999865889549,0.03131103515625,0.06134033203125,1.0533447265625,34.45000076293945,0.0,8.0,4.83441162109375,0.911041259765625,Waiting,0.0,0.0,0.0,0.0,0.0,0.0,0.0,0.0,
0.48838400000000004,0.0,0.0,-9658.0,0.0,0.0,0.0,0.0,1.75,3.236083653,0.0,0.4809569819999999,-22265.0,0.0,-82.5,-0.0,0.0,1.875,1.4270018070000001,0.0,0.49926752699999977,-13913.0,0.0,0.0,0.0,0.0,1.0,4.440917514000001,0.0,0.5139159630000005,-10065.0,0.0,0.0,-0.0,0.0,0.0,2.9553219630000003,0.0,0.0,1.2899999618530273,-0.20000000298023224,0.009999999776482582,0.03692626953125,0.0455322265625,0.98468017578125,34.45000076293945,0.0,40.0,4.834625244140625,0.911102294921875,Waiting,0.0,0.0,0.0,0.0,0.0,0.0,0.0,0.0,
0.5097910000000002,0.0,0.0,-9659.0,0.0,-7.5,0.0,0.0,1.25,3.3691402800000003,0.0,0.4809569819999999,-22279.0,0.0,-82.5,-0.0,0.0,1.5,1.5576170280000001,0.0,0.49926752699999977,-13913.0,0.0,0.0,0.0,0.0,0.75,4.570312032,0.0,0.5139159630000005,-10065.0,0.0,0.0,-0.0,0.0,0.0,2.9492184480000003,0.0,0.0,1.309999942779541,-0.20000000298023224,-0.019999999552965164,0.04693603515625,0.03924560546875,0.96722412109375,34.45000076293945,0.0,50.0,4.83514404296875,0.911224365234375,Waiting,0.0,0.0,0.0,0.0,0.0,0.0,0.0,0.0,
0.5328519999999999,0.0,0.0,-9659.0,0.0,0.0,0.0,0.0,1.0,3.496093392,0.0,0.31738278000000086,-22279.0,0.0,-90.0,-0.0,0.0,0.625,1.7346189630000002,0.0,0.3271484039999999,-13913.0,0.0,0.0,0.0,0.0,0.375,4.744872561,0.0,0.3308105129999994,-10065.0,0.0,0.0,-0.0,0.0,0.0,2.939452824,0.0,-0.009765623999999917,1.2999999523162842,-0.20000000298023224,0.0,0.0299072265625,0.01953125,1.00079345703125,34.45000076293945,0.0,33.0,4.8358001708984375,0.911224365234375,Waiting,0.0,0.0,0.0,0.0,0.0,0.0,0.0,0.0,
0.5624669999999996,0.0,0.0,-9659.0,0.0,0.0,0.0,0.0,0.375,3.610839474,0.0,0.31738278000000086,-22279.0,0.0,-90.0,-0.0,0.0,0.375,1.8200681730000001,0.0,0.3271484039999999,-13913.0,0.0,0.0,0.0,0.0,0.125,4.8107905230000005,0.0,0.3308105129999994,-10065.0,0.0,0.0,-0.0,0.0,0.0,2.9504391510000003,0.0,-0.009765623999999917,1.2999999523162842,-0.1899999976158142,0.009999999776482582,0.04058837890625,0.038330078125,0.99334716796875,34.45000076293945,0.0,44.0,4.8361968994140625,0.911224365234375,Waiting,0.0,0.0,0.0,0.0,0.0,0.0,0.0,0.0,
0.5903010000000004,0.0,0.0,-9659.0,0.0,0.0,0.0,0.0,0.375,3.6730953270000004,0.0,0.1416015479999988,-22279.0,0.0,-82.5,-0.0,0.0,0.375,1.878661917,0.0,0.15380857799999959,-13913.0,0.0,0.0,0.0,0.0,0.125,4.858397940000001,0.0,0.1391601420000006,-10065.0,0.0,0.0,-0.0,0.0,0.0,2.9492184480000003,0.0,-0.0012207029999999897,1.3300000429153442,-0.1899999976158142,0.029999999329447746,-0.02178955078125,0.00262451171875,1.01629638671875,34.45000076293945,0.0,-18.0,4.83660888671875,0.9113006591796875,Waiting,0.0,0.0,0.0,0.0,0.0,0.0,0.0,0.0,
0.6119589999999998,0.0,0.0,-9659.0,0.0,0.0,0.0,0.0,0.25,3.702392199,0.0,0.1416015479999988,-22289.0,0.0,-67.5,-0.0,0.0,0.125,1.911620898,0.0,0.15380857799999959,-13913.0,0.0,0.0,0.0,0.0,0.125,4.879149891,0.0,0.1391601420000006,-10065.0,0.0,0.0,-0.0,0.0,0.0,2.9492184480000003,0.0,-0.0012207029999999897,1.3300000429153442,-0.1899999976158142,0.029999999329447746,-0.009033203125,0.05596923828125,0.98321533203125,34.45000076293945,0.0,-5.0,4.83660888671875,0.91143798828125,Waiting,0.0,0.0,0.0,0.0,0.0,0.0,0.0,0.0,
0.6353599999999997,0.0,0.0,-9659.0,0.0,0.0,0.0,0.0,0.375,3.7280269620000004,0.0,0.12451170600000072,-22289.0,0.125,-60.0,-0.0,0.0,0.125,1.937255661,0.0,0.13061522100000023,-13913.0,0.0,0.0,0.0,0.0,0.125,4.874267079,0.0,0.12207029999999985,-10065.0,0.0,0.0,-0.0,0.0,0.0,2.9492184480000003,0.0,0.0012207029999999897,1.340000033378601,-0.20000000298023224,0.019999999552965164,-0.01422119140625,0.009765625,1.03582763671875,34.45000076293945,0.0,-10.0,4.83660888671875,0.9115447998046875,Waiting,0.0,0.0,0.0,0.0,0.0,0.0,0.0,0.0,
0.6562659999999996,0.0,0.0,-9659.0,0.0,0.0,0.0,0.0,0.25,3.7292476650000004,0.0,0.12451170600000072,-22289.0,0.0,-45.0,-0.0,0.0,0.125,1.9458005820000002,0.0,0.13061522100000023,-13913.0,0.0,0.0,0.0,0.0,0.125,4.8730463760000005,0.0,0.12207029999999985,-10065.0,0.0,0.0,-0.0,0.0,0.0,2.9504391510000003,0.0,0.0012207029999999897,1.3300000429153442,-0.2199999988079071,0.009999999776482582,-0.00848388671875,0.02801513671875,0.981201171875,34.45000076293945,0.0,-4.0,4.83660888671875,0.9115447998046875,Waiting,0.0,0.0,0.0,0.0,0.0,0.0,0.0,0.0,
0.676866,0.0,0.0,-9659.0,0.0,0.0,0.0,0.0,0.25,3.7304683680000004,0.0,0.03662108999999969,-22289.0,0.0,-30.0,-0.0,0.0,0.125,1.9458005820000002,0.0,0.04760741700000004,-13913.0,0.0,0.0,0.0,0.0,0.0,4.874267079,0.0,0.0,-10065.0,0.0,0.0,-0.0,0.0,0.0,2.9492184480000003,0.0,0.0,1.3200000524520874,-0.23000000417232513,0.009999999776482582,-0.01666259765625,0.02166748046875,1.02545166015625,34.45000076293945,0.0,-12.0,4.83660888671875,0.9115447998046875,Waiting,0.0,0.0,0.0,0.0,0.0,0.0,0.0,0.0,
0.7055259999999999,0.0,0.0,-9659.0,0.0,0.0,0.0,0.0,0.125,3.7316890710000004,0.0,0.03662108999999969,-22289.0,0.0,-22.5,-0.0,0.0,0.0,1.9409177700000002,0.0,0.04760741700000004,-13913.0,0.0,0.0,0.0,0.0,0.0,4.8632807520000005,0.0,0.0,-10065.0,0.0,0.0,-0.0,0.0,0.0,2.9492184480000003,0.0,0.0,1.3200000524520874,-0.23999999463558197,0.019999999552965164,-0.010986328125,0.01983642578125,0.99578857421875,34.41999816894531,0.0,-6.0,4.83660888671875,0.9115447998046875,Waiting,0.0,0.0,0.0,0.0,0.0,0.0,0.0,0.0,
0.7264970000000003,0.0,0.0,-9659.0,0.0,0.0,0.0,0.0,0.125,3.7304683680000004,0.0,0.0024414060000008675,-22289.0,0.0,-15.0,-0.0,0.0,0.0,1.9421384730000002,0.0,0.0,-13913.0,0.0,0.0,0.0,0.0,0.0,4.848632316000001,0.0,-0.01342773300000033,-10065.0,0.0,0.0,-0.0,0.0,0.0,2.9492184480000003,0.0,0.0,1.3300000429153442,-0.23999999463558197,0.029999999329447746,-0.0064697265625,0.0374755859375,1.00732421875,34.41999816894531,0.0,-2.0,4.83660888671875,0.9115447998046875,Waiting,0.0,0.0,0.0,0.0,0.0,0.0,0.0,0.0,
0.7501390000000001,0.0,0.0,-9659.0,0.0,0.0,0.0,0.0,0.125,3.7304683680000004,0.0,0.0024414060000008675,-22289.0,0.0,-7.5,-0.0,0.0,0.0,1.9458005820000002,0.0,0.0,-13913.0,0.0,0.0,0.0,0.0,0.0,4.837645989,0.0,-0.01342773300000033,-10065.0,0.0,0.0,-0.0,0.0,0.0,2.9492184480000003,0.0,0.0,1.340000033378601,-0.23999999463558197,0.019999999552965164,-0.0062255859375,0.01885986328125,1.00244140625,34.41999816894531,0.0,-1.0,4.83660888671875,0.9115447998046875,Waiting,0.0,0.0,0.0,0.0,0.0,0.0,0.0,0.0,
0.7698410000000003,0.0,0.0,-9659.0,0.0,0.0,0.0,0.0,0.125,3.7316890710000004,0.0,0.0024414060000008675,-22289.0,0.0,0.0,-0.0,0.0,0.0,1.9458005820000002,0.0,0.0,-13913.0,0.0,0.0,0.0,0.0,0.0,4.829101068,0.0,-0.01342773300000033,-10065.0,0.0,0.0,-0.0,0.0,0.0,2.9492184480000003,0.0,0.0,1.3300000429153442,-0.23999999463558197,0.019999999552965164,-4.2724609375E-4,0.019287109375,1.00787353515625,34.41999816894531,0.0,3.0,4.83660888671875,0.9115447998046875,Waiting,0.0,0.0,0.0,0.0,0.0,0.0,0.0,0.0,
0.8064560000000002,0.0,0.0,-9659.0,0.0,0.0,0.0,0.0,0.125,3.7292476650000004,0.0,-0.0012207030000004337,-22289.0,0.0,0.0,-0.0,0.0,0.0,1.9458005820000002,0.0,0.0,-13913.0,0.0,0.0,0.0,0.0,0.0,4.8205561470000005,0.0,-0.025634763000000227,-10065.0,0.0,0.0,-0.0,0.0,0.0,2.9431149330000004,0.0,0.0,1.3300000429153442,-0.23000000417232513,0.019999999552965164,0.00177001953125,0.0213623046875,0.99029541015625,34.41999816894531,0.0,5.0,4.83660888671875,0.9115447998046875,Waiting,0.0,0.0,0.0,0.0,0.0,0.0,0.0,0.0,
0.8257749999999996,0.0,0.0,-9659.0,0.0,0.0,0.0,0.0,0.125,3.7304683680000004,0.0,-0.0012207030000004337,-22289.0,0.0,0.0,-0.0,0.0,0.0,1.9445798790000002,0.0,0.0,-13913.0,0.0,0.0,0.0,0.0,0.0,4.816894038,0.0,-0.014648435999999876,-10065.0,0.0,0.0,-0.0,0.0,0.0,2.9492184480000003,0.0,0.0,1.3200000524520874,-0.23000000417232513,0.019999999552965164,0.00543212890625,0.02667236328125,1.001953125,34.41999816894531,0.0,9.0,4.83660888671875,0.9115447998046875,Waiting,0.0,0.0,0.0,0.0,0.0,0.0,0.0,0.0,
0.8652040000000006,0.0,0.0,-9659.0,0.0,0.0,0.0,0.0,0.125,3.7475582100000002,0.0,0.0,-22289.0,0.0,0.0,-0.0,0.0,0.0,1.9445798790000002,0.0,0.0,-13913.0,0.0,0.0,0.0,0.0,0.0,4.8181147410000005,0.0,-0.014648435999999876,-10065.0,0.0,0.0,-0.0,0.0,0.0,2.9492184480000003,0.0,0.0,1.340000033378601,-0.23000000417232513,0.019999999552965164,-9.1552734375E-4,0.02960205078125,0.99407958984375,34.41999816894531,0.0,3.0,4.83660888671875,0.9115447998046875,Waiting,0.0,0.0,0.0,0.0,0.0,0.0,0.0,0.0,
0.886603,0.0,0.0,-9659.0,0.0,0.0,0.0,0.0,0.125,3.7304683680000004,0.0,0.0012207030000004337,-22289.0,0.0,0.0,-0.0,0.0,0.0,1.9458005820000002,0.0,0.0,-13913.0,0.0,0.0,0.0,0.0,0.0,4.826659662,0.0,0.0,-10065.0,0.0,0.0,-0.0,0.0,0.0,2.9492184480000003,0.0,0.0,1.340000033378601,-0.23000000417232513,0.019999999552965164,-0.005615234375,0.02008056640625,1.00799560546875,34.41999816894531,0.0,-1.0,4.83660888671875,0.9115447998046875,Waiting,0.0,0.0,0.0,0.0,0.0,0.0,0.0,0.0,
0.9082249999999995,0.0,0.0,-9659.0,0.0,0.0,0.0,0.0,0.125,3.7304683680000004,0.0,0.0012207030000004337,-22289.0,0.0,0.0,-0.0,0.0,0.0,1.9458005820000002,0.0,0.0,-13913.0,0.0,0.0,0.0,0.0,0.0,4.819335444,0.0,0.0,-10065.0,0.0,0.0,-0.0,0.0,0.0,2.9492184480000003,0.0,0.0,1.3300000429153442,-0.23000000417232513,0.019999999552965164,-0.0081787109375,0.0157470703125,1.00054931640625,34.41999816894531,0.0,-4.0,4.83660888671875,0.9115447998046875,Waiting,0.0,0.0,0.0,0.0,0.0,0.0,0.0,0.0,
0.9280080000000007,0.0,0.0,-9659.0,0.0,0.0,0.0,0.0,0.125,3.7329097740000003,0.0,0.0012207030000004337,-22289.0,0.0,0.0,-0.0,0.0,0.0,1.9458005820000002,0.0,0.0,-13913.0,0.0,0.0,0.0,0.0,0.0,4.824218256,0.0,0.004882811999999959,-10065.0,0.0,0.0,-0.0,0.0,0.0,2.9492184480000003,0.0,0.0,1.3300000429153442,-0.23000000417232513,0.019999999552965164,-0.01312255859375,0.018310546875,1.0062255859375,34.41999816894531,0.0,-8.0,4.83660888671875,0.9115447998046875,Waiting,0.0,0.0,0.0,0.0,0.0,0.0,0.0,0.0,
0.9501500000000005,0.0,0.0,-9659.0,0.0,0.0,0.0,0.0,0.125,3.7780757850000004,0.0,0.0,-22289.0,0.0,0.0,-0.0,0.0,0.0,1.9458005820000002,0.0,0.0012207030000004337,-13913.0,0.0,0.0,0.0,0.0,0.0,4.824218256,0.0,0.004882811999999959,-10065.0,0.0,0.0,-0.0,0.0,0.0,2.9504391510000003,0.0,0.0,1.3300000429153442,-0.23000000417232513,0.019999999552965164,-0.00421142578125,0.02764892578125,1.0025634765625,34.41999816894531,0.0,0.0,4.83660888671875,0.9115447998046875,Waiting,0.0,0.0,0.0,0.0,0.0,0.0,0.0,0.0,
0.9680050000000001,0.0,0.0,-9659.0,0.0,0.0,0.0,0.0,0.125,3.7304683680000004,0.0,0.0,-22289.0,0.0,0.0,-0.0,0.0,0.0,1.9458005820000002,0.0,0.0012207030000004337,-13913.0,0.0,0.0,0.0,0.0,0.0,4.824218256,0.0,0.004882811999999959,-10065.0,0.0,0.0,-0.0,0.0,0.0,2.9492184480000003,0.0,0.0,1.3300000429153442,-0.23999999463558197,0.019999999552965164,-0.001708984375,0.02728271484375,1.001220703125,34.41999816894531,0.0,2.0,4.83660888671875,0.9115447998046875,Waiting,0.0,0.0,0.0,0.0,0.0,0.0,0.0,0.0,
0.990799,0.0,0.0,-9659.0,0.0,0.0,0.0,0.0,0.125,3.71093712,0.0,0.0,-22289.0,0.0,0.0,-0.0,0.0,0.0,1.9458005820000002,0.0,-0.0012207030000004337,-13913.0,0.0,0.0,0.0,0.0,0.125,4.824218256,0.0,0.0,-10065.0,0.0,0.0,-0.0,0.0,0.0,2.9492184480000003,0.0,0.0,1.3300000429153442,-0.23999999463558197,0.019999999552965164,-0.00653076171875,0.0281982421875,1.0015869140625,34.41999816894531,0.0,-2.0,4.83660888671875,0.9115447998046875,Waiting,0.0,0.0,0.0,0.0,0.0,0.0,0.0,0.0,
1.009218,0.0,0.0,-9659.0,0.0,0.0,0.0,0.0,0.125,3.7304683680000004,0.0,0.0,-22289.0,0.0,0.0,-0.0,0.0,0.0,1.9445798790000002,0.0,-0.0012207030000004337,-13913.0,0.0,0.0,0.0,0.0,0.125,4.824218256,0.0,0.0,-10065.0,0.0,0.0,-0.0,0.0,0.0,2.9492184480000003,0.0,0.0,1.3300000429153442,-0.23999999463558197,0.019999999552965164,-0.0013427734375,0.02203369140625,1.00164794921875,34.41999816894531,0.0,2.0,4.83660888671875,0.9115447998046875,Waiting,0.0,0.0,0.0,0.0,0.0,0.0,0.0,0.0,
1.0277020000000001,0.0,0.0,-9659.0,0.0,0.0,0.0,0.0,0.125,3.7316890710000004,0.0,0.0,-22289.0,0.0,0.0,-0.0,0.0,0.0,1.9458005820000002,0.0,-0.0012207030000004337,-13913.0,0.0,0.0,0.0,0.0,0.125,4.826659662,0.0,0.0,-10065.0,0.0,0.0,-0.0,0.0,0.0,2.9504391510000003,0.0,0.0,1.3300000429153442,-0.23000000417232513,0.019999999552965164,-0.00775146484375,0.01556396484375,1.0057373046875,34.41999816894531,0.0,-3.0,4.83660888671875,0.9115447998046875,Waiting,0.0,0.0,0.0,0.0,0.0,0.0,0.0,0.0,
1.0503200000000006,0.0,0.0,-9659.0,0.0,0.0,0.0,0.0,0.125,3.7316890710000004,0.0,0.0,-22289.0,0.0,0.0,-0.0,0.0,0.0,1.9445798790000002,0.0,0.0,-13913.0,0.0,0.0,0.0,0.0,0.125,4.83398388,0.0,0.0,-10065.0,0.0,0.0,-0.0,0.0,0.0,2.9492184480000003,0.0,0.0,1.3300000429153442,-0.23000000417232513,0.019999999552965164,-0.00579833984375,0.02410888671875,0.9925537109375,34.41999816894531,0.0,-1.0,4.83660888671875,0.9115447998046875,Waiting,0.0,0.0,0.0,0.0,0.0,0.0,0.0,0.0,
1.0679679999999998,0.0,0.0,-9659.0,0.0,0.0,0.0,0.0,0.125,3.7304683680000004,0.0,0.0,-22289.0,0.0,0.0,-0.0,0.0,0.0,1.9458005820000002,0.0,0.0,-13913.0,0.0,0.0,0.0,0.0,0.125,4.825438959,0.0,0.0,-10065.0,0.0,0.0,-0.0,0.0,0.0,2.9516598540000003,0.0,0.0,1.3300000429153442,-0.23000000417232513,0.019999999552965164,-0.00384521484375,0.02581787109375,0.99603271484375,34.41999816894531,0.0,0.0,4.83660888671875,0.9115447998046875,Waiting,0.0,0.0,0.0,0.0,0.0,0.0,0.0,0.0,
1.0900880000000006,0.0,0.0,-9659.0,0.0,0.0,0.0,0.0,0.125,3.7304683680000004,0.0,0.0,-22289.0,0.0,0.0,-0.0,0.0,0.0,1.9445798790000002,0.0,0.0,-13913.0,0.0,0.0,0.0,0.0,0.125,4.825438959,0.0,0.0,-10065.0,0.0,0.0,-0.0,0.0,0.0,2.9492184480000003,0.0,0.0,1.3300000429153442,-0.23999999463558197,0.019999999552965164,-0.0057373046875,0.02587890625,1.001220703125,34.41999816894531,0.0,-1.0,4.83660888671875,0.9115447998046875,Waiting,0.0,0.0,0.0,0.0,0.0,0.0,0.0,0.0,
1.1086799999999994,0.0,0.0,-9659.0,0.0,0.0,0.0,0.0,0.125,3.7316890710000004,0.0,0.0,-22289.0,0.0,0.0,-0.0,0.0,0.0,1.9458005820000002,0.0,0.0,-13913.0,0.0,0.0,0.0,0.0,0.125,4.825438959,0.0,0.0,-10065.0,0.0,0.0,-0.0,0.0,0.0,2.9492184480000003,0.0,0.0,1.3300000429153442,-0.23999999463558197,0.019999999552965164,-0.0028076171875,0.0240478515625,0.99627685546875,34.41999816894531,0.0,1.0,4.83660888671875,0.9115447998046875,Waiting,0.0,0.0,0.0,0.0,0.0,0.0,0.0,0.0,
1.1272020000000003,0.0,0.0,-9659.0,0.0,0.0,0.0,0.0,0.125,3.7304683680000004,0.0,0.0,-22289.0,0.0,0.0,-0.0,0.0,0.0,1.9458005820000002,0.0,0.0,-13913.0,0.0,0.0,0.0,0.0,0.125,4.822997553,0.0,0.0,-10065.0,0.0,0.0,-0.0,0.0,0.0,2.9492184480000003,0.0,0.0,1.3300000429153442,-0.23999999463558197,0.019999999552965164,-0.005859375,0.02252197265625,1.00567626953125,34.41999816894531,0.0,-1.0,4.83660888671875,0.9115447998046875,Waiting,0.0,0.0,0.0,0.0,0.0,0.0,0.0,0.0,
1.1493939999999994,0.0,0.0,-9659.0,0.0,0.0,0.0,0.0,0.125,3.6853023570000003,0.0,0.0,-22289.0,0.0,0.0,-0.0,0.0,0.0,1.9458005820000002,0.0,0.0012207030000004337,-13913.0,0.0,0.0,0.0,0.0,0.125,4.824218256,0.0,0.0,-10065.0,0.0,0.0,-0.0,0.0,0.0,2.9504391510000003,0.0,0.0,1.3300000429153442,-0.23999999463558197,0.019999999552965164,-0.00262451171875,0.02020263671875,0.99835205078125,34.41999816894531,0.0,-1.0,4.83660888671875,0.9115447998046875,Waiting,0.0,0.0,0.0,0.0,0.0,0.0,0.0,0.0,
1.1680960000000005,0.0,0.0,-9659.0,0.0,0.0,0.0,0.0,0.125,3.7304683680000004,0.0,0.0,-22289.0,0.0,0.0,-0.0,0.0,0.0,1.9445798790000002,0.0,0.0012207030000004337,-13913.0,0.0,0.0,0.0,0.0,0.125,4.825438959,0.0,0.0,-10065.0,0.0,0.0,-0.0,0.0,0.0,2.9492184480000003,0.0,0.0,1.3300000429153442,-0.23999999463558197,0.019999999552965164,-0.00390625,0.02203369140625,0.99896240234375,34.41999816894531,0.0,0.0,4.83660888671875,0.9115447998046875,Waiting,0.0,0.0,0.0,0.0,0.0,0.0,0.0,0.0,
1.1908390000000009,0.0,0.0,-9659.0,0.0,0.0,0.0,0.0,0.125,3.7304683680000004,0.0,0.0,-22289.0,0.0,0.0,-0.0,0.0,0.0,1.9458005820000002,0.0,-0.0012207030000004337,-13913.0,0.0,0.0,0.0,0.0,0.125,4.8181147410000005,0.0,0.0,-10065.0,0.0,0.0,-0.0,0.0,0.0,2.9492184480000003,0.0,0.0,1.3300000429153442,-0.23999999463558197,0.019999999552965164,-0.0035400390625,0.0245361328125,1.0010986328125,34.41999816894531,0.0,0.0,4.83660888671875,0.9115447998046875,Waiting,0.0,0.0,0.0,0.0,0.0,0.0,0.0,0.0,
1.2096349999999993,0.0,0.0,-9659.0,0.0,0.0,0.0,0.0,0.125,3.7304683680000004,0.0,0.0,-22289.0,0.0,0.0,-0.0,0.0,0.0,1.9458005820000002,0.0,-0.0012207030000004337,-13913.0,0.0,0.0,0.0,0.0,0.125,4.824218256,0.0,0.0,-10065.0,0.0,0.0,-0.0,0.0,0.0,2.9492184480000003,0.0,0.0,1.340000033378601,-0.23999999463558197,0.019999999552965164,0.0111083984375,-0.09716796875,0.8763427734375,34.41999816894531,0.0,14.0,4.83660888671875,0.911468505859375,Waiting,0.0,0.0,0.0,0.0,0.0,0.0,0.0,0.0,
1.2278229999999994,0.0,0.0,-9659.0,0.0,0.0,0.0,0.0,0.125,3.7316890710000004,0.0,0.0,-22289.0,0.0,0.0,-0.0,0.0,0.0,1.9458005820000002,0.0,-0.0012207030000004337,-13913.0,0.0,0.0,0.0,0.0,0.125,4.822997553,0.0,0.0,-10065.0,0.0,0.0,-0.0,0.0,0.0,2.9492184480000003,0.0,0.0,1.2999999523162842,-0.20999999344348907,0.019999999552965164,-0.0140380859375,0.09478759765625,0.81536865234375,34.439998626708984,0.0,-10.0,4.836578369140625,0.91119384765625,Waiting,0.0,0.0,0.0,0.0,0.0,0.0,0.0,0.0,
1.2500449999999992,0.0,0.0,-9659.0,0.0,0.0,0.0,0.0,0.125,3.7304683680000004,0.0,-0.0012207030000004337,-22289.0,0.0,0.0,-0.0,0.0,0.0,1.9482419880000001,0.0,0.0,-13913.0,0.0,0.0,0.0,0.0,0.125,4.824218256,0.0,0.0,-10065.0,0.0,0.0,-0.0,0.0,0.0,2.9516598540000003,0.0,0.0,1.340000033378601,-0.2800000011920929,0.019999999552965164,0.03173828125,-0.1156005859375,1.1527099609375,34.439998626708984,0.0,37.0,4.8365631103515625,0.911041259765625,Waiting,0.0,0.0,0.0,0.0,0.0,0.0,0.0,0.0,
1.2686259999999994,0.0,0.0,-9659.0,0.0,0.0,0.0,0.0,0.125,3.7304683680000004,0.0,-0.0012207030000004337,-22289.0,0.0,0.0,-0.0,0.0,0.0,1.9482419880000001,0.0,0.0,-13913.0,0.0,0.0,0.0,0.0,0.0,4.824218256,0.0,0.0,-10065.0,0.0,0.0,-0.0,0.0,0.0,2.9516598540000003,0.0,0.0,1.2799999713897705,-0.25999999046325684,0.019999999552965164,0.076171875,0.1334228515625,0.8800048828125,34.439998626708984,0.0,80.0,4.8366241455078125,0.9108734130859375,Waiting,0.0,0.0,0.0,0.0,0.0,0.0,0.0,0.0,
1.2929900000000007,0.0,0.0,-9659.0,0.0,0.0,0.0,0.0,0.125,3.7280269620000004,0.0,0.0012207030000004337,-22289.0,0.0,0.0,-0.0,0.0,0.0,1.9470212850000002,0.0,0.0,-13913.0,0.0,0.0,0.0,0.0,0.0,4.824218256,0.0,0.0,-10065.0,0.0,0.0,-0.0,0.0,0.0,2.9492184480000003,0.0,0.0,1.2599999904632568,-0.25999999046325684,0.019999999552965164,-0.015869140625,0.19122314453125,1.019287109375,34.439998626708984,0.0,-10.0,4.836700439453125,0.910614013671875,Waiting,0.0,0.0,0.0,0.0,0.0,0.0,0.0,0.0,
1.3121130000000003,0.0,0.0,-9659.0,0.0,0.0,0.0,0.0,0.125,3.748778913,0.0,0.0012207030000004337,-22289.0,0.0,0.0,-0.0,0.0,0.0,1.9458005820000002,0.0,0.0,-13913.0,0.0,0.0,0.0,0.0,0.0,4.824218256,0.0,0.0,-10065.0,0.0,0.0,-0.0,0.0,0.0,2.9492184480000003,0.0,0.0,1.2899999618530273,-0.23000000417232513,0.019999999552965164,0.031982421875,0.03900146484375,1.1383056640625,34.439998626708984,0.0,46.0,4.8367919921875,0.91064453125,Waiting,0.0,0.0,0.0,0.0,0.0,0.0,0.0,0.0,
1.3316179999999995,0.0,0.0,-9659.0,0.0,0.0,0.0,0.0,0.125,3.7304683680000004,0.0,0.0012207030000004337,-22289.0,0.0,0.0,-0.0,0.0,0.0,1.9458005820000002,0.0,0.0,-13913.0,0.0,0.0,0.0,0.0,0.125,4.824218256,0.0,0.0,-10065.0,0.0,0.0,-0.0,0.0,0.0,2.9492184480000003,0.0,0.0,1.25,-0.23999999463558197,0.019999999552965164,0.06634521484375,0.07611083984375,0.965087890625,34.439998626708984,0.0,70.0,4.8369598388671875,0.91070556640625,Waiting,0.0,0.0,0.0,0.0,0.0,0.0,0.0,0.0,
1.354737,0.0,0.0,-9659.0,0.0,0.0,0.0,0.0,0.125,3.7304683680000004,0.0,0.0,-22289.0,0.0,0.0,-0.0,0.0,0.0,1.9470212850000002,0.0,0.0,-13913.0,0.0,0.0,0.0,0.0,0.125,4.825438959,0.0,0.0,-10065.0,0.0,0.0,-0.0,0.0,0.0,2.9504391510000003,0.0,0.0,1.2599999904632568,-0.25,0.019999999552965164,-0.03704833984375,0.09625244140625,1.00054931640625,34.439998626708984,0.0,-32.0,4.8371429443359375,0.9108734130859375,Waiting,0.0,0.0,0.0,0.0,0.0,0.0,0.0,0.0,
1.3731500000000005,0.0,0.0,-9659.0,0.0,0.0,0.0,0.0,0.125,3.7304683680000004,0.0,0.0,-22289.0,0.0,0.0,-0.0,0.0,0.0,1.9458005820000002,0.0,0.0,-13913.0,0.0,0.0,0.0,0.0,0.125,4.824218256,0.0,0.0,-10065.0,0.0,0.0,-0.0,0.0,0.0,2.9589840720000002,0.0,0.0,1.2799999713897705,-0.23999999463558197,0.019999999552965164,-0.07904052734375,0.02398681640625,0.7587890625,34.439998626708984,0.0,-75.0,4.837188720703125,0.91107177734375,Waiting,0.0,0.0,0.0,0.0,0.0,0.0,0.0,0.0,
1.3933959999999996,0.0,0.0,-9659.0,0.0,0.0,0.0,0.0,0.125,3.699950793,0.0,0.0,-22289.0,0.0,0.0,-0.0,0.0,0.0,1.9458005820000002,0.0,0.0,-13913.0,0.0,0.0,0.0,0.0,0.125,4.825438959,0.0,0.0,-10065.0,0.0,0.0,-0.0,0.0,0.0,2.9492184480000003,0.0,0.0,1.2400000095367432,-0.3100000023841858,0.019999999552965164,0.086181640625,0.03289794921875,1.00146484375,34.439998626708984,0.0,91.0,4.837158203125,0.9111480712890625,Waiting,0.0,0.0,0.0,0.0,0.0,0.0,0.0,0.0,
1.4125919999999996,0.0,0.0,-9659.0,0.0,0.0,0.0,0.0,0.125,3.7316890710000004,0.0,0.0,-22289.0,0.0,0.0,-0.0,0.0,0.0,1.9458005820000002,0.0,0.0,-13913.0,0.0,0.0,0.0,0.0,0.125,4.824218256,0.0,0.0,-10065.0,0.0,0.0,-0.0,0.0,0.0,2.9504391510000003,0.0,0.0,1.25,-0.25999999046325684,0.019999999552965164,-0.1173095703125,-0.06243896484375,1.26995849609375,34.439998626708984,0.0,-111.0,4.8371124267578125,0.9111785888671875,Waiting,0.0,0.0,0.0,0.0,0.0,0.0,0.0,0.0,
1.4320440000000008,0.0,0.0,-9659.0,0.0,0.0,0.0,0.0,0.125,3.7304683680000004,0.0,0.0,-22289.0,0.0,0.0,-0.0,0.0,0.0,1.9458005820000002,0.0,0.0,-13913.0,0.0,0.0,0.0,0.0,0.125,4.825438959,0.0,0.0,-10065.0,0.0,0.0,-0.0,0.0,0.0,2.9504391510000003,0.0,0.0,1.2200000286102295,-0.23999999463558197,0.019999999552965164,-0.00494384765625,0.03424072265625,0.94659423828125,34.439998626708984,0.0,0.0,4.836822509765625,0.9107208251953125,Waiting,0.0,0.0,0.0,0.0,0.0,0.0,0.0,0.0,
1.4548049999999995,0.0,0.0,-9659.0,0.0,0.0,0.0,0.0,0.125,3.7304683680000004,0.0,0.0,-22289.0,0.0,0.0,-0.0,0.0,0.0,1.9445798790000002,0.0,0.0,-13913.0,0.0,0.0,0.0,0.0,0.125,4.825438959,0.0,0.0,-10065.0,0.0,0.0,-0.0,0.0,0.0,2.9516598540000003,0.0,0.0,1.2000000476837158,-0.23999999463558197,0.019999999552965164,0.0965576171875,0.0548095703125,0.9522705078125,34.439998626708984,0.0,100.0,4.8367462158203125,0.91046142578125,Waiting,0.0,0.0,0.0,0.0,0.0,0.0,0.0,0.0,
1.4741639999999998,0.0,0.0,-9659.0,0.0,0.0,0.0,0.0,0.125,3.7316890710000004,0.0,0.0,-22289.0,0.0,0.0,-0.0,0.0,0.0,1.9458005820000002,0.0,0.0,-13913.0,0.0,0.0,0.0,0.0,0.125,4.825438959,0.0,0.0,-10065.0,0.0,0.0,-0.0,0.0,0.0,2.9479977450000003,0.0,0.0,1.2100000381469727,-0.2199999988079071,0.009999999776482582,-0.071533203125,0.1221923828125,0.80853271484375,34.439998626708984,0.0,-68.0,4.836669921875,0.910308837890625,Waiting,0.0,0.0,0.0,0.0,0.0,0.0,0.0,0.0,
1.4947949999999992,0.0,0.0,-9659.0,0.0,0.0,0.0,0.0,0.125,3.7316890710000004,0.0,0.0,-22289.0,0.0,0.0,-0.0,0.0,0.0,1.9494626910000001,0.0,0.0012207030000004337,-13913.0,0.0,0.0,0.0,0.0,0.125,4.824218256,0.0,0.0,-10065.0,0.0,0.0,-0.0,0.0,0.0,2.9504391510000003,0.0,0.0,1.25,-0.23999999463558197,0.019999999552965164,-0.03961181640625,0.0826416015625,0.97906494140625,34.439998626708984,0.0,-35.0,4.8362274169921875,0.910308837890625,Waiting,0.0,0.0,0.0,0.0,0.0,0.0,0.0,0.0,
1.513228,0.0,0.0,-9659.0,0.0,0.0,0.0,0.0,0.125,3.7304683680000004,0.0,0.0,-22289.0,0.0,0.0,-0.0,0.0,0.0,1.9458005820000002,0.0,0.0012207030000004337,-13913.0,0.0,0.0,0.0,0.0,0.125,4.825438959,0.0,0.0,-10065.0,0.0,0.0,-0.0,0.0,0.0,2.9504391510000003,0.0,0.0,1.2999999523162842,-0.25,0.019999999552965164,0.01470947265625,-0.162841796875,1.0506591796875,34.439998626708984,0.0,19.0,4.8359527587890625,0.9102630615234375,Waiting,0.0,0.0,0.0,0.0,0.0,0.0,0.0,0.0,
1.532089000000001,0.0,0.0,-9659.0,0.0,0.0,0.0,0.0,0.125,3.7292476650000004,0.0,0.0,-22289.0,0.0,0.0,-0.0,0.0,0.0,1.9458005820000002,0.0,0.0,-13913.0,0.0,0.0,0.0,0.0,0.125,4.824218256,0.0,0.0,-10065.0,0.0,0.0,-0.0,0.0,0.0,2.9504391510000003,0.0,0.0,1.2799999713897705,-0.25999999046325684,0.019999999552965164,0.08856201171875,0.04425048828125,0.99224853515625,34.439998626708984,0.0,93.0,4.8357391357421875,0.9101104736328125,Waiting,0.0,0.0,0.0,0.0,0.0,0.0,0.0,0.0,
1.5564839999999995,0.0,0.0,-9659.0,0.0,0.0,0.0,0.0,0.125,3.7353511800000003,0.0,-0.0012207030000004337,-22289.0,0.0,0.0,-0.0,0.0,0.0,1.9458005820000002,0.0,0.0,-13913.0,0.0,0.0,0.0,0.0,0.125,4.825438959,0.0,0.0,-10065.0,0.0,0.0,-0.0,0.0,0.0,2.9492184480000003,0.0,0.0,1.2200000286102295,-0.23999999463558197,0.019999999552965164,-0.12115478515625,-0.0084228515625,1.00555419921875,34.439998626708984,0.0,-116.0,4.83551025390625,0.90972900390625,Waiting,0.0,0.0,0.0,0.0,0.0,0.0,0.0,0.0,
1.5804980000000004,0.0,0.0,-9659.0,0.0,0.0,0.0,0.0,0.125,3.7304683680000004,0.0,-0.0012207030000004337,-22289.0,0.0,0.0,-0.0,0.0,0.0,1.9445798790000002,0.0,-0.0012207030000004337,-13913.0,0.0,0.0,0.0,0.0,0.125,4.824218256,0.0,0.0,-10065.0,0.0,0.0,-0.0,0.0,0.0,2.9492184480000003,0.0,0.0,1.2400000095367432,-0.25999999046325684,0.009999999776482582,-0.0162353515625,-0.11578369140625,0.8468017578125,34.439998626708984,0.0,-12.0,4.834503173828125,0.908843994140625,Waiting,0.0,0.0,0.0,0.0,0.0,0.0,0.0,0.0,
1.6250340000000005,0.0,0.0,-9659.0,0.0,0.0,0.0,0.0,0.125,3.7304683680000004,0.0,0.0012207030000004337,-22289.0,0.0,0.0,-0.0,0.0,0.0,1.9458005820000002,0.0,-0.0012207030000004337,-13913.0,0.0,0.0,0.0,0.0,0.125,4.824218256,0.0,0.0,-10065.0,0.0,0.0,-0.0,0.0,0.0,2.9504391510000003,0.0,0.0,1.2799999713897705,-0.30000001192092896,0.019999999552965164,-0.06427001953125,0.1033935546875,0.64337158203125,34.439998626708984,0.0,-60.0,4.8340301513671875,0.908538818359375,Waiting,0.0,0.0,0.0,0.0,0.0,0.0,0.0,0.0,
1.6484520000000003,0.0,0.0,-9659.0,0.0,0.0,0.0,0.0,0.125,3.7255855560000004,0.0,-0.0012207030000004337,-22289.0,0.0,0.0,-0.0,0.0,0.0,1.9445798790000002,0.0,0.0,-13913.0,0.0,0.0,0.0,0.0,0.125,4.822997553,0.0,-0.0012207029999995456,-10065.0,0.0,0.0,-0.0,0.0,0.0,2.9492184480000003,0.0,0.0,1.2899999618530273,-0.3199999928474426,0.019999999552965164,0.22125244140625,0.0570068359375,0.96929931640625,34.439998626708984,0.0,226.0,4.83367919921875,0.9083099365234375,Waiting,0.0,0.0,0.0,0.0,0.0,0.0,0.0,0.0,
1.66787,0.0,0.0,-9659.0,0.0,0.0,0.0,0.0,0.125,3.7329097740000003,0.0,-0.0012207030000004337,-22289.0,0.0,0.0,-0.0,0.0,0.0,1.9458005820000002,0.0,0.0,-13913.0,0.0,0.0,0.0,0.0,0.125,4.824218256,0.0,-0.0012207029999995456,-10065.0,0.0,0.0,-0.0,0.0,0.0,2.9492184480000003,0.0,0.0,1.2300000190734863,-0.23999999463558197,0.009999999776482582,-0.05224609375,0.0103759765625,1.12017822265625,34.439998626708984,0.0,-47.0,4.8332977294921875,0.908050537109375,Waiting,0.0,0.0,0.0,0.0,0.0,0.0,0.0,0.0,
1.6899890000000004,0.0,0.0,-9659.0,0.0,0.0,0.0,0.0,0.125,3.7341304770000003,0.0,-0.0012207030000004337,-22289.0,0.0,0.0,-0.0,0.0,0.0,1.9458005820000002,0.0,0.0,-13913.0,0.0,0.0,0.0,0.0,0.125,4.824218256,0.0,0.0012207029999995456,-10065.0,0.0,0.0,-0.0,0.0,0.0,2.9504391510000003,0.0,0.0,1.1799999475479126,-0.20000000298023224,0.009999999776482582,-0.062255859375,-0.13055419921875,1.21905517578125,34.439998626708984,0.0,-57.0,4.833038330078125,0.9078369140625,Waiting,0.0,0.0,0.0,0.0,0.0,0.0,0.0,0.0,
1.710393000000001,0.0,0.0,-9659.0,0.0,0.0,0.0,0.0,0.125,3.7292476650000004,0.0,0.0012207030000004337,-22289.0,0.0,0.0,-0.0,0.0,0.0,1.9458005820000002,0.0,0.0,-13913.0,0.0,0.0,0.0,0.0,0.125,4.825438959,0.0,0.0012207029999995456,-10065.0,0.0,0.0,-0.0,0.0,0.0,2.9467770420000003,0.0,0.0,1.2100000381469727,-0.2199999988079071,0.009999999776482582,0.04510498046875,-5.4931640625E-4,0.87164306640625,34.439998626708984,0.0,48.0,4.8324432373046875,0.9069671630859375,Waiting,0.0,0.0,0.0,0.0,0.0,0.0,0.0,0.0,
1.7289679999999998,0.0,0.0,-9659.0,0.0,0.0,0.0,0.0,0.125,3.7316890710000004,0.0,0.0012207030000004337,-22289.0,0.0,0.0,-0.0,0.0,0.0,1.9458005820000002,0.0,0.0,-13913.0,0.0,0.0,0.0,0.0,0.125,4.822997553,0.0,0.0012207029999995456,-10065.0,0.0,0.0,-0.0,0.0,0.0,2.9553219630000003,0.0,0.0,1.2300000190734863,-0.23999999463558197,0.009999999776482582,-0.06549072265625,0.0443115234375,0.60595703125,34.41999816894531,0.0,-62.0,4.8321533203125,0.9065093994140625,Waiting,0.0,0.0,0.0,0.0,0.0,0.0,0.0,0.0,
1.751389,0.0,0.0,-9659.0,0.0,0.0,0.0,0.0,0.125,3.7316890710000004,0.0,-0.0012207030000004337,-22289.0,0.0,0.0,-0.0,0.0,0.0,1.9445798790000002,0.0,0.0,-13913.0,0.0,0.0,0.0,0.0,0.125,4.816894038,0.0,0.0,-10065.0,0.0,0.0,-0.0,0.0,0.0,2.9504391510000003,0.0,0.0,1.2799999713897705,-0.27000001072883606,0.009999999776482582,0.1380615234375,0.0506591796875,1.12310791015625,34.41999816894531,0.0,74.0,4.8318328857421875,0.9057464599609375,Waiting,0.0,0.0,0.0,0.0,0.0,0.0,0.0,0.0,
1.7701660000000001,0.0,0.0,-9659.0,0.0,0.0,0.0,0.0,0.125,3.7316890710000004,0.0,-0.0012207030000004337,-22289.0,0.0,0.0,-0.0,0.0,0.0,1.9458005820000002,0.0,0.0,-13913.0,0.0,0.0,0.0,0.0,0.125,4.824218256,0.0,0.0,-10065.0,0.0,0.0,-0.0,0.0,0.0,2.9492184480000003,0.0,0.0,1.2300000190734863,-0.25,0.009999999776482582,0.068115234375,0.12579345703125,1.45947265625,34.41999816894531,0.0,74.0,4.8318328857421875,0.9057464599609375,Waiting,0.0,0.0,0.0,0.0,0.0,0.0,0.0,0.0,
1.7948720000000002,0.0,0.0,-9659.0,0.0,0.0,0.0,0.0,0.125,3.7304683680000004,0.0,0.0012207030000004337,-22289.0,0.0,0.0,-0.0,0.0,0.0,1.9458005820000002,0.0,0.0012207030000004337,-13913.0,0.0,0.0,0.0,0.0,0.125,4.825438959,0.0,0.0,-10065.0,0.0,0.0,-0.0,0.0,0.0,2.9504391510000003,0.0,0.0,1.2100000381469727,-0.23999999463558197,0.009999999776482582,0.00311279296875,-0.155029296875,1.096435546875,34.41999816894531,0.0,7.0,4.83154296875,0.90521240234375,Waiting,0.0,0.0,0.0,0.0,0.0,0.0,0.0,0.0,
1.813482000000001,0.0,0.0,-9659.0,0.0,0.0,0.0,0.0,0.125,3.7304683680000004,0.0,0.0012207030000004337,-22289.0,0.0,0.0,-0.0,0.0,0.0,1.9458005820000002,0.0,0.0012207030000004337,-13913.0,0.0,0.0,0.0,0.0,0.125,4.825438959,0.0,0.0,-10065.0,0.0,0.0,-0.0,0.0,0.0,2.9504391510000003,0.0,0.0,1.2400000095367432,-0.20000000298023224,0.009999999776482582,-0.01849365234375,-0.1575927734375,0.66668701171875,34.41999816894531,0.0,-16.0,4.8311309814453125,0.9039306640625,Waiting,0.0,0.0,0.0,0.0,0.0,0.0,0.0,0.0,
1.8496699999999993,0.0,0.0,-9659.0,0.0,0.0,0.0,0.0,0.125,3.7304683680000004,0.0,-0.0012207030000004337,-22289.0,0.0,0.0,-0.0,0.0,0.0,1.9445798790000002,0.0,-0.0012207030000004337,-13913.0,0.0,0.0,0.0,0.0,0.125,4.824218256,0.0,0.0,-10065.0,0.0,0.0,-0.0,0.0,0.0,2.9504391510000003,0.0,0.0,1.2599999904632568,-0.25999999046325684,0.009999999776482582,0.10601806640625,0.24176025390625,1.00238037109375,34.41999816894531,0.0,110.0,4.830657958984375,0.902679443359375,Waiting,0.0,0.0,0.0,0.0,0.0,0.0,0.0,0.0,
1.8690610000000005,0.0,0.0,-9659.0,0.0,0.0,0.0,0.0,0.125,3.7292476650000004,0.0,-0.0012207030000004337,-22289.0,0.0,0.0,-0.0,0.0,0.0,1.9458005820000002,0.0,-0.0012207030000004337,-13913.0,0.0,0.0,0.0,0.0,0.125,4.8205561470000005,0.0,0.0,-10065.0,0.0,0.0,-0.0,0.0,0.0,2.9492184480000003,0.0,0.0,1.2599999904632568,-0.27000001072883606,0.009999999776482582,0.2052001953125,0.2115478515625,1.2821044921875,34.41999816894531,0.0,211.0,4.830657958984375,0.9024658203125,Waiting,0.0,0.0,0.0,0.0,0.0,0.0,0.0,0.0,
1.8906230000000006,0.0,0.0,-9659.0,0.0,0.0,0.0,0.0,0.125,3.7292476650000004,0.0,-0.0012207030000004337,-22289.0,0.0,0.0,-0.0,0.0,0.0,1.9458005820000002,0.0,0.0,-13913.0,0.0,0.0,0.0,0.0,0.125,4.824218256,0.0,0.0,-10065.0,0.0,0.0,-0.0,0.0,0.0,2.9492184480000003,0.0,0.0,1.2799999713897705,-0.20999999344348907,0.009999999776482582,-0.08905029296875,-0.127685546875,1.234619140625,34.41999816894531,0.0,-84.0,4.8306884765625,0.9022369384765625,Waiting,0.0,0.0,0.0,0.0,0.0,0.0,0.0,0.0,
1.9110950000000002,0.0,0.0,-9659.0,0.0,0.0,0.0,0.0,0.125,3.712157823,0.0,0.0012207030000004337,-22289.0,0.0,0.0,-0.0,0.0,0.0,1.9458005820000002,0.0,0.0,-13913.0,0.0,0.0,0.0,0.0,0.125,4.824218256,0.0,0.0,-10065.0,0.0,0.0,-0.0,0.0,0.0,2.9492184480000003,0.0,0.0,1.2599999904632568,-0.18000000715255737,0.0,-0.02606201171875,-0.0333251953125,1.19390869140625,34.41999816894531,0.0,-22.0,4.83056640625,0.901947021484375,Waiting,0.0,0.0,0.0,0.0,0.0,0.0,0.0,0.0,
1.9305719999999993,0.0,0.0,-9659.0,0.0,0.0,0.0,0.0,0.125,3.7341304770000003,0.0,0.0012207030000004337,-22289.0,0.0,0.0,-0.0,0.0,0.0,1.9458005820000002,0.0,0.0,-13913.0,0.0,0.0,0.0,0.0,0.125,4.824218256,0.0,0.0,-10065.0,0.0,0.0,-0.0,0.0,0.0,2.9504391510000003,0.0,0.0,1.2699999809265137,-0.18000000715255737,0.0,0.007080078125,-0.18756103515625,0.77545166015625,34.41999816894531,0.0,9.0,4.8304290771484375,0.9014739990234375,Waiting,0.0,0.0,0.0,0.0,0.0,0.0,0.0,0.0,
1.9525620000000008,0.0,0.0,-9659.0,0.0,0.0,0.0,0.0,0.125,3.7292476650000004,0.0,0.0,-22289.0,0.0,0.0,-0.0,0.0,0.0,1.9470212850000002,0.0,0.0,-13913.0,0.0,0.0,0.0,0.0,0.125,4.824218256,0.0,0.0,-10065.0,0.0,0.0,-0.0,0.0,0.0,2.9492184480000003,0.0,0.0,1.2799999713897705,-0.20999999344348907,0.009999999776482582,-0.0108642578125,0.10723876953125,0.77813720703125,34.41999816894531,0.0,-7.0,4.8302154541015625,0.90020751953125,Waiting,0.0,0.0,0.0,0.0,0.0,0.0,0.0,0.0,
1.9709720000000006,0.0,0.0,-9659.0,0.0,0.0,0.0,0.0,0.125,3.7304683680000004,0.0,0.0,-22289.0,0.0,0.0,-0.0,0.0,0.0,1.9458005820000002,0.0,0.0,-13913.0,0.0,0.0,0.0,0.0,0.125,4.825438959,0.0,0.0,-10065.0,0.0,0.0,-0.0,0.0,0.0,2.9504391510000003,0.0,0.0,1.3200000524520874,-0.25,0.009999999776482582,0.14422607421875,0.1397705078125,1.1092529296875,34.41999816894531,0.0,149.0,4.8302001953125,0.8997344970703125,Waiting,0.0,0.0,0.0,0.0,0.0,0.0,0.0,0.0,
1.9916619999999994,0.0,0.0,-9659.0,0.0,0.0,0.0,0.0,0.125,3.7316890710000004,0.0,0.0,-22289.0,0.0,0.0,-0.0,0.0,0.0,1.9458005820000002,0.0,0.0,-13913.0,0.0,0.0,0.0,0.0,0.125,4.825438959,0.0,0.0,-10065.0,0.0,0.0,-0.0,0.0,0.0,2.9492184480000003,0.0,0.0,1.2799999713897705,-0.25,0.009999999776482582,0.05706787109375,0.15460205078125,1.417236328125,34.41999816894531,0.0,63.0,4.8303375244140625,0.8994140625,Waiting,0.0,0.0,0.0,0.0,0.0,0.0,0.0,0.0,
2.0104129999999993,0.0,0.0,-9659.0,0.0,0.0,0.0,0.0,0.125,3.7280269620000004,0.0,0.0,-22289.0,0.0,0.0,-0.0,0.0,0.0,1.9458005820000002,0.0,0.0,-13913.0,0.0,0.0,0.0,0.0,0.125,4.824218256,0.0,0.0,-10065.0,0.0,0.0,-0.0,0.0,0.0,2.9492184480000003,0.0,0.0,1.2799999713897705,-0.2199999988079071,0.009999999776482582,-0.10968017578125,0.149658203125,0.99566650390625,34.41999816894531,0.0,-105.0,4.8304443359375,0.899261474609375,Waiting,0.0,0.0,0.0,0.0,0.0,0.0,0.0,0.0,
2.0286549999999997,0.0,0.0,-9659.0,0.0,0.0,0.0,0.0,0.125,3.7304683680000004,0.0,0.0,-22289.0,0.0,0.0,-0.0,0.0,0.0,1.9445798790000002,0.0,0.0,-13913.0,0.0,0.0,0.0,0.0,0.125,4.824218256,0.0,0.0,-10065.0,0.0,0.0,-0.0,0.0,0.0,2.9553219630000003,0.0,0.0,1.2799999713897705,-0.20999999344348907,0.009999999776482582,-0.07806396484375,-0.1177978515625,1.03643798828125,34.41999816894531,0.0,-74.0,4.8304290771484375,0.89910888671875,Waiting,0.0,0.0,0.0,0.0,0.0,0.0,0.0,0.0,
2.0514090000000005,0.0,0.0,-9659.0,0.0,0.0,0.0,0.0,0.125,3.7304683680000004,0.0,0.0,-22289.0,0.0,0.0,-0.0,0.0,0.0,1.9458005820000002,0.0,0.0,-13913.0,0.0,0.0,0.0,0.0,0.125,4.825438959,0.0,0.0,-10065.0,0.0,0.0,-0.0,0.0,0.0,2.9504391510000003,0.0,0.0,1.2899999618530273,-0.1899999976158142,0.009999999776482582,-0.05731201171875,-0.130615234375,0.79852294921875,34.41999816894531,0.0,-54.0,4.830230712890625,0.8981781005859375,Waiting,0.0,0.0,0.0,0.0,0.0,0.0,0.0,0.0,
2.0710199999999994,0.0,0.0,-9659.0,0.0,0.0,0.0,0.0,0.125,3.7304683680000004,0.0,0.0,-22289.0,0.0,0.0,-0.0,0.0,0.0,1.9458005820000002,0.0,0.0,-13913.0,0.0,0.0,0.0,0.0,0.125,4.824218256,0.0,0.0,-10065.0,0.0,0.0,-0.0,0.0,0.0,2.9504391510000003,0.0,0.0,1.3300000429153442,-0.2199999988079071,0.009999999776482582,0.114013671875,0.201904296875,0.99493408203125,34.41999816894531,0.0,117.0,4.830108642578125,0.8973236083984375,Waiting,0.0,0.0,0.0,0.0,0.0,0.0,0.0,0.0,
2.096218,0.0,0.0,-9659.0,0.0,0.0,0.0,0.0,0.125,3.7304683680000004,0.0,-0.0012207030000004337,-22289.0,0.0,0.0,-0.0,0.0,0.0,1.9458005820000002,0.0,0.0,-13913.0,0.0,0.0,0.0,0.0,0.125,4.824218256,0.0,0.0,-10065.0,0.0,0.0,-0.0,0.0,0.0,2.9492184480000003,0.0,0.0,1.3300000429153442,-0.20000000298023224,0.009999999776482582,0.17901611328125,0.0726318359375,1.16558837890625,34.41999816894531,0.0,183.0,4.8303070068359375,0.8971710205078125,Waiting,0.0,0.0,0.0,0.0,0.0,0.0,0.0,0.0,
2.115866000000001,0.0,0.0,-9659.0,0.0,0.0,0.0,0.0,0.125,3.7329097740000003,0.0,-0.0012207030000004337,-22289.0,0.0,0.0,-0.0,0.0,0.0,1.9458005820000002,0.0,0.0,-13913.0,0.0,0.0,0.0,0.0,0.125,4.831542474,0.0,0.0,-10065.0,0.0,0.0,-0.0,0.0,0.0,2.9492184480000003,0.0,0.0,1.3200000524520874,-0.1599999964237213,0.009999999776482582,-0.04327392578125,0.07159423828125,0.96649169921875,34.41999816894531,0.0,-40.0,4.8306121826171875,0.8970794677734375,Waiting,0.0,0.0,0.0,0.0,0.0,0.0,0.0,0.0,
2.1339409999999996,0.0,0.0,-9659.0,0.0,0.0,0.0,0.0,0.125,3.7414546950000003,0.0,-0.0012207030000004337,-22289.0,0.0,0.0,-0.0,0.0,0.0,1.9458005820000002,0.0,0.0,-13913.0,0.0,0.0,0.0,0.0,0.125,4.829101068,0.0,0.0024414059999999793,-10065.0,0.0,0.0,-0.0,0.0,0.0,2.94189423,0.0,0.0,1.2699999809265137,-0.17000000178813934,0.0,-0.0089111328125,-0.17340087890625,1.3853759765625,34.41999816894531,0.0,-4.0,4.8310089111328125,0.8968658447265625,Waiting,0.0,0.0,0.0,0.0,0.0,0.0,0.0,0.0,
2.1558730000000006,0.0,0.0,-9659.0,0.0,0.0,0.0,0.0,0.125,3.7316890710000004,0.0,0.0012207030000004337,-22289.0,0.0,0.0,-0.0,0.0,0.0,1.9458005820000002,0.0,0.0,-13913.0,0.0,0.0,0.0,0.0,0.125,4.829101068,0.0,0.0024414059999999793,-10065.0,0.0,0.0,-0.0,0.0,0.0,2.9492184480000003,0.0,0.0,1.25,-0.1899999976158142,0.0,-0.05517578125,-0.1544189453125,0.73553466796875,34.41999816894531,0.0,-52.0,4.8311309814453125,0.8964385986328125,Waiting,0.0,0.0,0.0,0.0,0.0,0.0,0.0,0.0,
2.1743069999999998,0.0,0.0,-9659.0,0.0,0.0,0.0,0.0,0.125,3.7304683680000004,0.0,0.0012207030000004337,-22289.0,0.0,0.0,-0.0,0.0,0.0,1.9445798790000002,0.0,0.0,-13913.0,0.0,0.0,0.0,0.0,0.125,4.829101068,0.0,0.0024414059999999793,-10065.0,0.0,0.0,-0.0,0.0,0.0,2.9492184480000003,0.0,0.0,1.2799999713897705,-0.1899999976158142,0.009999999776482582,-0.0687255859375,-0.2017822265625,0.49151611328125,34.41999816894531,0.0,-67.0,4.8311767578125,0.895751953125,Waiting,0.0,0.0,0.0,0.0,0.0,0.0,0.0,0.0,
2.1998669999999994,0.0,0.0,-9659.0,0.0,0.0,0.0,0.0,0.125,3.7255855560000004,0.0,-0.0012207030000004337,-22289.0,0.0,0.0,-0.0,0.0,0.0,1.9458005820000002,0.0,0.0012207030000004337,-13913.0,0.0,0.0,0.0,0.0,0.0,4.830321771,0.0,0.0024414059999999793,-10065.0,0.0,0.0,-0.0,0.0,0.0,2.9504391510000003,0.0,0.0,1.3200000524520874,-0.25,0.009999999776482582,0.0113525390625,0.21588134765625,1.1470947265625,34.41999816894531,0.0,16.0,4.831146240234375,0.894561767578125,Waiting,0.0,0.0,0.0,0.0,0.0,0.0,0.0,0.0,
2.2210989999999993,0.0,0.0,-9659.0,0.0,0.0,0.0,0.0,0.125,3.7292476650000004,0.0,-0.0012207030000004337,-22289.0,0.0,0.0,-0.0,0.0,0.0,1.9458005820000002,0.0,0.0012207030000004337,-13913.0,0.0,0.0,0.0,0.0,0.0,4.830321771,0.0,0.0024414059999999793,-10065.0,0.0,0.0,-0.0,0.0,0.0,2.9504391510000003,0.0,0.0,1.2899999618530273,-0.23999999463558197,0.009999999776482582,0.0787353515625,0.08441162109375,1.18292236328125,34.41999816894531,0.0,83.0,4.831207275390625,0.8942413330078125,Waiting,0.0,0.0,0.0,0.0,0.0,0.0,0.0,0.0,
2.2397120000000004,0.0,0.0,-9659.0,0.0,0.0,0.0,0.0,0.125,3.7268062590000004,0.0,0.0,-22289.0,0.0,0.0,-0.0,0.0,0.0,1.9458005820000002,0.0,-0.0012207030000004337,-13913.0,0.0,0.0,0.0,0.0,0.0,4.829101068,0.0,-0.0012207029999995456,-10065.0,0.0,0.0,-0.0,0.0,0.0,2.9492184480000003,0.0,0.0,1.2899999618530273,-0.23000000417232513,0.009999999776482582,-0.17242431640625,0.0419921875,1.18194580078125,34.41999816894531,0.0,-167.0,4.83123779296875,0.8939361572265625,Waiting,0.0,0.0,0.0,0.0,0.0,0.0,0.0,0.0,
2.265214999999999,0.0,0.0,-9659.0,0.0,0.0,0.0,0.0,0.125,3.7316890710000004,0.0,0.0,-22289.0,0.0,0.0,-0.0,0.0,0.0,1.9445798790000002,0.0,-0.0012207030000004337,-13913.0,0.0,0.0,0.0,0.0,0.0,4.829101068,0.0,-0.0012207029999995456,-10065.0,0.0,0.0,-0.0,0.0,0.0,2.9492184480000003,0.0,0.0,1.2899999618530273,-0.20999999344348907,0.009999999776482582,-0.0267333984375,-0.12713623046875,1.09124755859375,34.41999816894531,0.0,-22.0,4.8310546875,0.89373779296875,Waiting,0.0,0.0,0.0,0.0,0.0,0.0,0.0,0.0,
2.2815600000000003,0.0,0.0,-9659.0,0.0,0.0,0.0,0.0,0.125,3.7316890710000004,0.0,0.0,-22289.0,0.0,0.0,-0.0,0.0,0.0,1.9458005820000002,0.0,-0.0012207030000004337,-13913.0,0.0,0.0,0.0,0.0,0.0,4.829101068,0.0,0.0012207029999995456,-10065.0,0.0,0.0,-0.0,0.0,0.0,2.9492184480000003,0.0,0.0,1.340000033378601,-0.25,0.009999999776482582,0.00836181640625,-0.15716552734375,0.80908203125,34.41999816894531,0.0,11.0,4.830535888671875,0.8929901123046875,Waiting,0.0,0.0,0.0,0.0,0.0,0.0,0.0,0.0,
2.3066979999999995,0.0,0.0,-9659.0,0.0,0.0,0.0,0.0,0.125,3.7316890710000004,0.0,0.0,-22289.0,0.0,0.0,-0.0,0.0,0.0,1.9458005820000002,0.0,0.0,-13913.0,0.0,0.0,0.0,0.0,0.0,4.829101068,0.0,0.0012207029999995456,-10065.0,0.0,0.0,-0.0,0.0,0.0,2.9492184480000003,0.0,0.0,1.340000033378601,-0.23999999463558197,0.009999999776482582,0.02166748046875,0.184814453125,0.5606689453125,34.41999816894531,0.0,24.0,4.8302764892578125,0.892547607421875,Waiting,0.0,0.0,0.0,0.0,0.0,0.0,0.0,0.0,
2.3252030000000006,0.0,0.0,-9659.0,0.0,0.0,0.0,0.0,0.125,3.7304683680000004,0.0,0.0,-22289.0,0.0,0.0,-0.0,0.0,0.0,1.9458005820000002,0.0,0.0,-13913.0,0.0,0.0,0.0,0.0,0.0,4.829101068,0.0,0.0012207029999995456,-10065.0,0.0,0.0,-0.0,0.0,0.0,2.9492184480000003,0.0,0.0,1.3600000143051147,-0.30000001192092896,0.009999999776482582,0.15899658203125,0.2421875,1.29437255859375,34.41999816894531,0.0,165.0,4.8301544189453125,0.8923797607421875,Waiting,0.0,0.0,0.0,0.0,0.0,0.0,0.0,0.0,
2.3457169999999996,0.0,0.0,-9659.0,0.0,0.0,0.0,0.0,0.125,3.7304683680000004,0.0,0.0012207030000004337,-22289.0,0.0,0.0,-0.0,0.0,0.0,1.9458005820000002,0.0,0.0,-13913.0,0.0,0.0,0.0,0.0,0.0,4.830321771,0.0,0.0,-10065.0,0.0,0.0,-0.0,0.0,0.0,2.9516598540000003,0.0,0.0,1.3300000429153442,-0.2800000011920929,0.009999999776482582,0.033203125,0.08941650390625,1.19708251953125,34.41999816894531,0.0,39.0,4.830169677734375,0.8924102783203125,Waiting,0.0,0.0,0.0,0.0,0.0,0.0,0.0,0.0,
2.3638550000000005,0.0,0.0,-9659.0,0.0,0.0,0.0,0.0,0.125,3.7316890710000004,0.0,0.0012207030000004337,-22289.0,0.0,0.0,-0.0,0.0,0.0,1.9458005820000002,0.0,0.0,-13913.0,0.0,0.0,0.0,0.0,0.0,4.830321771,0.0,0.0,-10065.0,0.0,0.0,-0.0,0.0,0.0,2.9504391510000003,0.0,0.0,1.2599999904632568,-0.2800000011920929,0.009999999776482582,-0.13507080078125,8.544921875E-4,1.0960693359375,34.41999816894531,0.0,-129.0,4.830078125,0.89239501953125,Waiting,0.0,0.0,0.0,0.0,0.0,0.0,0.0,0.0,
2.381759000000001,0.0,0.0,-9659.0,0.0,0.0,0.0,0.0,0.125,3.7304683680000004,0.0,0.0012207030000004337,-22289.0,0.0,0.0,-0.0,0.0,0.0,1.9458005820000002,0.0,0.0,-13913.0,0.0,0.0,0.0,0.0,0.0,4.829101068,0.0,0.0,-10065.0,0.0,0.0,-0.0,0.0,0.0,2.9504391510000003,0.0,0.0,1.2699999809265137,-0.23999999463558197,0.009999999776482582,-0.02117919921875,-0.155029296875,1.25152587890625,34.41999816894531,0.0,-15.0,4.829864501953125,0.8922271728515625,Waiting,0.0,0.0,0.0,0.0,0.0,0.0,0.0,0.0,
2.4031150000000006,0.0,0.0,-9659.0,0.0,0.0,0.0,0.0,0.125,3.7304683680000004,0.0,0.0,-22289.0,0.0,0.0,-0.0,0.0,0.0,1.9458005820000002,0.0,0.0012207030000004337,-13913.0,0.0,0.0,0.0,0.0,0.0,4.829101068,0.0,0.0,-10065.0,0.0,0.0,-0.0,0.0,0.0,2.9492184480000003,0.0,0.0,1.2799999713897705,-0.27000001072883606,0.009999999776482582,0.0078125,-0.05450439453125,0.78094482421875,34.41999816894531,0.0,11.0,4.82965087890625,0.89190673828125,Waiting,0.0,0.0,0.0,0.0,0.0,0.0,0.0,0.0,
2.421246,0.0,0.0,-9659.0,0.0,0.0,0.0,0.0,0.125,3.71093712,0.0,0.0,-22289.0,0.0,0.0,-0.0,0.0,0.0,1.9458005820000002,0.0,0.0012207030000004337,-13913.0,0.0,0.0,0.0,0.0,0.0,4.830321771,0.0,0.0,-10065.0,0.0,0.0,-0.0,0.0,0.0,2.9492184480000003,0.0,0.0,1.2999999523162842,-0.25999999046325684,0.009999999776482582,0.0045166015625,0.15216064453125,0.79962158203125,34.41999816894531,0.0,8.0,4.8291168212890625,0.8908538818359375,Waiting,0.0,0.0,0.0,0.0,0.0,0.0,0.0,0.0,
2.4429160000000003,0.0,0.0,-9659.0,0.0,0.0,0.0,0.0,0.125,3.7316890710000004,0.0,-0.0012207030000004337,-22289.0,0.0,0.0,-0.0,0.0,0.0,1.9470212850000002,0.0,-0.0012207030000004337,-13913.0,0.0,0.0,0.0,0.0,0.0,4.829101068,0.0,0.0,-10065.0,0.0,0.0,-0.0,0.0,0.0,2.9504391510000003,0.0,0.0,1.309999942779541,-0.30000001192092896,0.009999999776482582,0.1541748046875,0.2681884765625,1.35400390625,34.41999816894531,0.0,161.0,4.8289337158203125,0.89056396484375,Waiting,0.0,0.0,0.0,0.0,0.0,0.0,0.0,0.0,
2.4610189999999994,0.0,0.0,-9659.0,0.0,0.0,0.0,0.0,0.125,3.7316890710000004,0.0,-0.0012207030000004337,-22289.0,0.0,0.0,-0.0,0.0,0.0,1.9458005820000002,0.0,-0.0012207030000004337,-13913.0,0.0,0.0,0.0,0.0,0.0,4.829101068,0.0,0.0,-10065.0,0.0,0.0,-0.0,0.0,0.0,2.9492184480000003,0.0,0.0,1.2999999523162842,-0.27000001072883606,0.009999999776482582,0.08575439453125,0.11785888671875,1.44952392578125,34.41999816894531,0.0,92.0,4.8289337158203125,0.8905029296875,Waiting,0.0,0.0,0.0,0.0,0.0,0.0,0.0,0.0,
2.4798550000000006,0.0,0.0,-9659.0,0.0,0.0,0.0,0.0,0.125,3.7292476650000004,0.0,-0.0012207030000004337,-22289.0,0.0,0.0,-0.0,0.0,0.0,1.9445798790000002,0.0,-0.0012207030000004337,-13913.0,0.0,0.0,0.0,0.0,0.0,4.827880365,0.0,0.0,-10065.0,0.0,0.0,-0.0,0.0,0.0,2.9504391510000003,0.0,0.0,1.2899999618530273,-0.25999999046325684,0.009999999776482582,-0.024169921875,0.0169677734375,0.8809814453125,34.41999816894531,0.0,-20.0,4.8289947509765625,0.8904876708984375,Waiting,0.0,0.0,0.0,0.0,0.0,0.0,0.0,0.0,
2.5002020000000003,0.0,0.0,-9659.0,0.0,0.0,0.0,0.0,0.125,3.7304683680000004,0.0,0.0,-22289.0,0.0,0.0,-0.0,0.0,0.0,1.9458005820000002,0.0,0.0012207030000004337,-13913.0,0.0,0.0,0.0,0.0,0.0,4.829101068,0.0,0.0,-10065.0,0.0,0.0,-0.0,0.0,0.0,2.9504391510000003,0.0,0.0,1.2999999523162842,-0.20999999344348907,0.009999999776482582,-0.10748291015625,-0.14093017578125,1.19219970703125,34.41999816894531,0.0,-102.0,4.8288116455078125,0.890472412109375,Waiting,0.0,0.0,0.0,0.0,0.0,0.0,0.0,0.0,
2.520443,0.0,0.0,-9659.0,0.0,0.0,0.0,0.0,0.125,3.7304683680000004,0.0,0.0,-22289.0,0.0,0.0,-0.0,0.0,0.0,1.9445798790000002,0.0,0.0012207030000004337,-13913.0,0.0,0.0,0.0,0.0,0.0,4.830321771,0.0,0.0,-10065.0,0.0,0.0,-0.0,0.0,0.0,2.9492184480000003,0.0,0.0,1.340000033378601,-0.25,0.0,-0.06121826171875,-0.05859375,0.6173095703125,34.41999816894531,0.0,-58.0,4.8285369873046875,0.8902740478515625,Waiting,0.0,0.0,0.0,0.0,0.0,0.0,0.0,0.0,
2.5453200000000007,0.0,0.0,-9659.0,0.0,0.0,0.0,0.0,0.125,3.7316890710000004,0.0,0.0,-22289.0,0.0,0.0,-0.0,0.0,0.0,1.9458005820000002,0.0,-0.0012207030000004337,-13913.0,0.0,0.0,0.0,0.0,0.0,4.830321771,0.0,0.0,-10065.0,0.0,0.0,-0.0,0.0,0.0,2.9504391510000003,0.0,0.0,1.409999966621399,-0.25,0.0,-0.0169677734375,0.18536376953125,0.99072265625,34.41999816894531,0.0,-12.0,4.827850341796875,0.8895416259765625,Waiting,0.0,0.0,0.0,0.0,0.0,0.0,0.0,0.0,
2.5636989999999997,0.0,0.0,-9659.0,0.0,0.0,0.0,0.0,0.125,3.7243648530000004,0.0,0.0,-22289.0,0.0,0.0,-0.0,0.0,0.0,1.9458005820000002,0.0,-0.0012207030000004337,-13913.0,0.0,0.0,0.0,0.0,0.0,4.830321771,0.0,0.0,-10065.0,0.0,0.0,-0.0,0.0,0.0,2.9492184480000003,0.0,0.0,1.4199999570846558,-0.2800000011920929,0.0,0.067626953125,0.20355224609375,1.305419921875,34.41999816894531,0.0,74.0,4.8275299072265625,0.889404296875,Waiting,0.0,0.0,0.0,0.0,0.0,0.0,0.0,0.0,
2.5811089999999997,0.0,0.0,-9659.0,0.0,0.0,0.0,0.0,0.125,3.7304683680000004,0.0,0.0,-22289.0,0.0,0.0,-0.0,0.0,0.0,1.9458005820000002,0.0,-0.0012207030000004337,-13913.0,0.0,0.0,0.0,0.0,0.0,4.829101068,0.0,0.0,-10065.0,0.0,0.0,-0.0,0.0,0.0,2.9492184480000003,0.0,0.0,1.3899999856948853,-0.2800000011920929,0.0,0.07342529296875,0.04473876953125,1.16693115234375,34.41999816894531,0.0,79.0,4.8273162841796875,0.8893890380859375,Waiting,0.0,0.0,0.0,0.0,0.0,0.0,0.0,0.0,
2.6017879999999995,0.0,0.0,-9659.0,0.0,0.0,0.0,0.0,0.125,3.7316890710000004,0.0,0.0,-22289.0,0.0,0.0,-0.0,0.0,0.0,1.9458005820000002,0.0,0.0,-13913.0,0.0,0.0,0.0,0.0,0.0,4.835204583,0.0,0.0,-10065.0,0.0,0.0,-0.0,0.0,0.0,2.9492184480000003,0.0,0.0,1.3200000524520874,-0.25,0.0,-0.0889892578125,0.073486328125,1.13787841796875,34.41999816894531,0.0,-83.0,4.8269805908203125,0.889434814453125,Waiting,0.0,0.0,0.0,0.0,0.0,0.0,0.0,0.0,
2.619624000000001,0.0,0.0,-9659.0,0.0,0.0,0.0,0.0,0.125,3.7304683680000004,0.0,0.0,-22289.0,0.0,0.0,-0.0,0.0,0.0,1.9458005820000002,0.0,0.0,-13913.0,0.0,0.0,0.0,0.0,0.0,4.829101068,0.0,0.0,-10065.0,0.0,0.0,-0.0,0.0,0.0,2.9541012600000003,0.0,0.0,1.2999999523162842,-0.23000000417232513,0.0,-0.1053466796875,-0.09210205078125,0.794921875,34.41999816894531,0.0,-102.0,4.82666015625,0.889434814453125,Waiting,0.0,0.0,0.0,0.0,0.0,0.0,0.0,0.0,
2.6417570000000006,0.0,0.0,-9659.0,0.0,0.0,0.0,0.0,0.125,3.7316890710000004,0.0,0.0012207030000004337,-22289.0,0.0,0.0,-0.0,0.0,0.0,1.9458005820000002,0.0,0.0,-13913.0,0.0,0.0,0.0,0.0,0.0,4.829101068,0.0,0.0,-10065.0,0.0,0.0,-0.0,0.0,0.0,2.9479977450000003,0.0,0.0,1.340000033378601,-0.20999999344348907,0.0,-0.108642578125,-0.0743408203125,0.75628662109375,34.41999816894531,0.0,-105.0,4.826202392578125,0.8892974853515625,Waiting,0.0,0.0,0.0,0.0,0.0,0.0,0.0,0.0,
2.6609949999999998,0.0,0.0,-9659.0,0.0,0.0,0.0,0.0,0.125,3.7304683680000004,0.0,0.0012207030000004337,-22289.0,0.0,0.0,-0.0,0.0,0.0,1.9458005820000002,0.0,0.0,-13913.0,0.0,0.0,0.0,0.0,0.0,4.829101068,0.0,0.0,-10065.0,0.0,0.0,-0.0,0.0,0.0,2.9492184480000003,0.0,0.0,1.3600000143051147,-0.30000001192092896,0.0,0.038818359375,0.10198974609375,1.11248779296875,34.41999816894531,0.0,44.0,4.825042724609375,0.8888092041015625,Waiting,0.0,0.0,0.0,0.0,0.0,0.0,0.0,0.0,
2.680281,0.0,0.0,-9659.0,0.0,0.0,0.0,0.0,0.125,3.7316890710000004,0.0,0.0012207030000004337,-22289.0,0.0,0.0,-0.0,0.0,0.0,1.9458005820000002,0.0,0.0,-13913.0,0.0,0.0,0.0,0.0,0.0,4.829101068,0.0,0.0,-10065.0,0.0,0.0,-0.0,0.0,0.0,2.9492184480000003,0.0,0.0,1.3300000429153442,-0.3199999928474426,0.009999999776482582,-0.07647705078125,0.130126953125,0.75042724609375,34.41999816894531,0.0,-72.0,4.824432373046875,0.888702392578125,Waiting,0.0,0.0,0.0,0.0,0.0,0.0,0.0,0.0,
2.70078,0.0,0.0,-9659.0,0.0,0.0,0.0,0.0,0.125,3.7304683680000004,0.0,0.0,-22289.0,0.0,0.0,-0.0,0.0,0.0,1.9519040970000001,0.0,0.0,-13913.0,0.0,0.0,0.0,0.0,0.0,4.830321771,0.0,0.0,-10065.0,0.0,0.0,-0.0,0.0,0.0,2.9492184480000003,0.0,0.0,1.3300000429153442,-0.3499999940395355,0.009999999776482582,0.16766357421875,0.052001953125,1.43585205078125,34.41999816894531,0.0,176.0,4.8238983154296875,0.888671875,Waiting,0.0,0.0,0.0,0.0,0.0,0.0,0.0,0.0,
2.720041,0.0,0.0,-9659.0,0.0,0.0,0.0,0.0,0.125,3.7304683680000004,0.0,0.0,-22289.0,0.0,0.0,-0.0,0.0,0.0,1.9470212850000002,0.0,0.0,-13913.0,0.0,0.0,0.0,0.0,0.0,4.830321771,0.0,0.0,-10065.0,0.0,0.0,-0.0,0.0,0.0,2.9492184480000003,0.0,0.0,1.2699999809265137,-0.3100000023841858,0.009999999776482582,0.17706298828125,0.12744140625,1.28857421875,34.41999816894531,0.0,184.0,4.8236083984375,0.88873291015625,Waiting,0.0,0.0,0.0,0.0,0.0,0.0,0.0,0.0,
2.742250999999999,0.0,0.0,-9659.0,0.0,0.0,0.0,0.0,0.125,3.7243648530000004,0.0,0.0,-22289.0,0.0,0.0,-0.0,0.0,0.0,1.9470212850000002,0.0,0.0,-13913.0,0.0,0.0,0.0,0.0,0.0,4.829101068,0.0,0.0,-10065.0,0.0,0.0,-0.0,0.0,0.0,2.9492184480000003,0.0,0.0,1.3200000524520874,-0.2800000011920929,0.0,-0.102783203125,-0.16217041015625,0.64129638671875,34.41999816894531,0.0,-99.0,4.8231201171875,0.888916015625,Waiting,0.0,0.0,0.0,0.0,0.0,0.0,0.0,0.0,
2.760174,0.0,0.0,-9659.0,0.0,0.0,0.0,0.0,0.125,3.7329097740000003,0.0,0.0,-22289.0,0.0,0.0,-0.0,0.0,0.0,1.9445798790000002,0.0,0.0,-13913.0,0.0,0.0,0.0,0.0,0.0,4.830321771,0.0,0.0,-10065.0,0.0,0.0,-0.0,0.0,0.0,2.9492184480000003,0.0,0.0,1.3300000429153442,-0.2800000011920929,0.0,-0.09490966796875,-0.00189208984375,0.99322509765625,34.40999984741211,0.0,-90.0,4.8226776123046875,0.888824462890625,Waiting,0.0,0.0,0.0,0.0,0.0,0.0,0.0,0.0,
2.7804499999999996,0.0,0.0,-9659.0,0.0,0.0,0.0,0.0,0.125,3.7304683680000004,0.0,0.0,-22289.0,0.0,0.0,-0.0,0.0,0.0,1.9458005820000002,0.0,0.0,-13913.0,0.0,0.0,0.0,0.0,0.0,4.830321771,0.0,0.0,-10065.0,0.0,0.0,-0.0,0.0,0.0,2.9492184480000003,0.0,0.0,1.3600000143051147,-0.3199999928474426,0.0,-0.09844970703125,-0.0614013671875,0.52410888671875,34.40999984741211,0.0,-95.0,4.8221282958984375,0.8886566162109375,Waiting,0.0,0.0,0.0,0.0,0.0,0.0,0.0,0.0,
2.8019170000000004,0.0,0.0,-9659.0,0.0,0.0,0.0,0.0,0.125,3.7304683680000004,0.0,0.0,-22289.0,0.0,0.0,-0.0,0.0,0.0,1.9458005820000002,0.0,0.0,-13913.0,0.0,0.0,0.0,0.0,0.0,4.829101068,0.0,0.0,-10065.0,0.0,0.0,-0.0,0.0,0.0,2.9492184480000003,0.0,0.0,1.340000033378601,-0.3400000035762787,0.009999999776482582,0.0067138671875,0.13421630859375,1.256103515625,34.40999984741211,0.0,14.0,4.820892333984375,0.8881683349609375,Waiting,0.0,0.0,0.0,0.0,0.0,0.0,0.0,0.0,
2.8202529999999997,0.0,0.0,-9659.0,0.0,0.0,0.0,0.0,0.125,3.7316890710000004,0.0,0.0,-22289.0,0.0,0.0,-0.0,0.0,0.0,1.9470212850000002,0.0,0.0,-13913.0,0.0,0.0,0.0,0.0,0.0,4.829101068,0.0,0.0,-10065.0,0.0,0.0,-0.0,0.0,0.0,2.9492184480000003,0.0,0.0,1.350000023841858,-0.3499999940395355,0.009999999776482582,0.118896484375,0.18975830078125,1.08087158203125,34.40999984741211,0.0,125.0,4.8203887939453125,0.88812255859375,Waiting,0.0,0.0,0.0,0.0,0.0,0.0,0.0,0.0,
2.8443849999999995,0.0,0.0,-9659.0,0.0,0.0,0.0,0.0,0.125,3.7304683680000004,0.0,0.0,-22289.0,0.0,0.0,-0.0,0.0,0.0,1.9433591760000002,0.0,0.0012207030000004337,-13913.0,0.0,0.0,0.0,0.0,0.0,4.827880365,0.0,0.0,-10065.0,0.0,0.0,-0.0,0.0,0.0,2.9492184480000003,0.0,0.0,1.2899999618530273,-0.3400000035762787,0.009999999776482582,0.07305908203125,0.12738037109375,1.286376953125,34.40999984741211,0.0,80.0,4.82000732421875,0.88824462890625,Waiting,0.0,0.0,0.0,0.0,0.0,0.0,0.0,0.0,
2.86196,0.0,0.0,-9659.0,0.0,0.0,0.0,0.0,0.125,3.7268062590000004,0.0,0.0,-22289.0,0.0,0.0,-0.0,0.0,0.0,1.9445798790000002,0.0,0.0012207030000004337,-13913.0,0.0,0.0,0.0,0.0,0.0,4.827880365,0.0,0.0,-10065.0,0.0,0.0,-0.0,0.0,0.0,2.9492184480000003,0.0,0.0,1.2999999523162842,-0.30000001192092896,0.009999999776482582,-0.15350341796875,0.13214111328125,0.95269775390625,34.40999984741211,0.0,-148.0,4.8191986083984375,0.8886871337890625,Waiting,0.0,0.0,0.0,0.0,0.0,0.0,0.0,0.0,
