Time,ClimberA1,ClimberA2,FRpos,FRCurrent,FRspeed,FRsetpoint,FRApos,FRACurrent,FREncpos,FREncSetpoint,FREncSpeed,FLpos,FLCurrent,FLspeed,FLsetpoint,FLApos,FLACurrent,FLEncpos,FLEncSetpoint,FLEncSpeed,BRpos,BRCurrent,BRspeed,BRsetpoint,BRApos,BRACurrent,BREncpos,BREncSetpoint,BREncSpeed,BLpos,BLCurrent,BLspeed,BLsetpoint,BLApos,BLACurrent,BLEncpos,BLEncSetpoint,BLEncSpeed,navx_Pitch,navx_Roll,navx_Yaw,navx_XAcc,navx_YAcc,navx_ZAcc,navx_Temp,navx_Bar,navx_Alt,navx_XDis,navx_YDis,GearPlacerState,ShootOutputV,ShootOutputCurrent,ShootEncPos,ShootEncVelocity,ShootSpeed,ShootSetpoint,CarouselSetpoint,CarouselCurrent,
0.10474599999981,0.0,0.0,-15049.0,0.0,0.0,0.0,0.0,0.0,3.7890621120000003,0.0,0.0,-6806.0,0.0,0.0,-0.0,0.0,0.0,2.1105954870000003,0.0,0.0,6970.0,0.0,0.0,0.0,0.0,0.0,4.916991684,0.0,0.0,-7163.0,0.0,0.0,-0.0,0.0,0.0,2.940673527,0.0,0.0,-0.46000000834465027,89.41999816894531,-90.56999969482422,1.00531005859375,-0.009033203125,-0.00531005859375,35.13999938964844,0.0,0.0,-0.13482666015625,-0.173065185546875,Waiting,0.0,0.0,-396138.0,0.0,0.0,0.0,0.0,0.0,
0.4561729999999516,0.0,0.0,-15049.0,0.0,0.0,0.0,0.0,0.0,3.7854000030000003,0.0,0.0,-6806.0,0.0,0.0,-0.0,0.0,0.0,1.7675779440000001,0.0,0.0,6970.0,0.0,0.0,0.0,0.0,0.0,4.9182123870000005,0.0,0.0,-7163.0,0.0,0.0,-0.0,0.0,0.0,2.939452824,0.0,0.0,-0.4699999988079071,89.41999816894531,-90.56999969482422,1.00140380859375,-0.007568359375,-0.0079345703125,35.13999938964844,0.0,0.0,-0.13482666015625,-0.173065185546875,Waiting,0.0,0.0,-396138.0,0.0,0.0,0.0,0.0,0.0,
0.8125389999998733,0.0,0.0,-15049.0,0.0,0.0,0.0,0.0,0.0,3.7866207060000003,0.0,0.0,-6806.0,0.0,0.0,-0.0,0.0,0.0,2.103271269,0.0,0.0,6970.0,0.0,0.0,0.0,0.0,0.0,4.9182123870000005,0.0,0.0,-7163.0,0.0,0.0,-0.0,0.0,0.0,2.940673527,0.0,0.0,-0.4699999988079071,89.41000366210938,-90.58000183105469,0.9981689453125,-0.00714111328125,-0.00701904296875,35.150001525878906,0.0,0.0,-0.13482666015625,-0.173065185546875,Waiting,0.0,0.0,-396138.0,0.0,0.0,0.0,0.0,0.0,
1.1694020000000018,0.0,0.0,-15049.0,0.0,0.0,0.0,0.0,0.0,3.7854000030000003,0.0,0.0,-6806.0,0.0,0.0,-0.0,0.0,0.0,1.8151853610000002,0.0,0.0,6970.0,0.0,0.0,0.0,0.0,0.0,4.9182123870000005,0.0,0.0,-7163.0,0.0,0.0,-0.0,0.0,0.0,2.940673527,0.0,0.0,-0.47999998927116394,89.38999938964844,-90.58999633789062,1.00140380859375,-0.0086669921875,-0.0093994140625,35.13999938964844,0.0,1.0,-0.13482666015625,-0.173065185546875,Waiting,0.0,0.0,-396138.0,0.0,0.0,0.0,0.0,0.0,
1.5282409999999218,0.0,0.0,-15049.0,0.0,0.0,0.0,0.0,0.0,3.7854000030000003,0.0,0.0,-6806.0,0.0,0.0,-0.0,0.0,0.0,2.037353307,0.0,0.0,6970.0,0.0,0.0,0.0,0.0,0.0,4.9182123870000005,0.0,0.0,-7163.0,0.0,0.0,-0.0,0.0,0.0,2.938232121,0.0,0.0,-0.47999998927116394,89.4000015258789,-90.58999633789062,1.003662109375,-0.010986328125,-0.0072021484375,35.13999938964844,0.0,2.0,-0.13482666015625,-0.173065185546875,Waiting,0.0,0.0,-396138.0,0.0,0.0,0.0,0.0,0.0,
1.8835079999999143,0.0,0.0,-15049.0,0.0,0.0,0.0,0.0,0.0,3.7866207060000003,0.0,0.0,-6806.0,0.0,0.0,-0.0,0.0,0.0,1.932372849,0.0,0.0,6970.0,0.0,0.0,0.0,0.0,0.0,4.916991684,0.0,0.0,-7163.0,0.0,0.0,-0.0,0.0,0.0,2.939452824,0.0,0.0,-0.47999998927116394,89.4000015258789,-90.58999633789062,1.002197265625,-0.0093994140625,-0.00982666015625,35.150001525878906,0.0,2.0,-0.13482666015625,-0.173065185546875,Waiting,0.0,0.0,-396138.0,0.0,0.0,0.0,0.0,0.0,
2.2327309999999123,0.0,0.0,-15049.0,0.0,0.0,0.0,0.0,0.0,3.7854000030000003,0.0,0.0,-6806.0,0.0,0.0,-0.0,0.0,0.0,1.882324026,0.0,0.0,6970.0,0.0,0.0,0.0,0.0,0.0,4.916991684,0.0,0.0,-7163.0,0.0,0.0,-0.0,0.0,0.0,2.939452824,0.0,0.0,-0.47999998927116394,89.4000015258789,-90.58999633789062,1.00091552734375,-0.0074462890625,-0.01068115234375,35.150001525878906,0.0,0.0,-0.13482666015625,-0.173065185546875,Waiting,0.0,0.0,-396138.0,0.0,0.0,0.0,0.0,0.0,
2.6151929999999703,0.0,0.0,-15049.0,0.0,0.0,0.0,0.0,0.0,3.7854000030000003,0.0,0.0,-6806.0,0.0,0.0,-0.0,0.0,0.0,1.984863078,0.0,0.0,6970.0,0.0,0.0,0.0,0.0,0.0,4.9182123870000005,0.0,0.0,-7163.0,0.0,0.0,-0.0,0.0,0.0,2.930907903,0.0,0.0,-0.4699999988079071,89.41000366210938,-90.58000183105469,1.00445556640625,-0.00958251953125,-0.011962890625,35.150001525878906,0.0,2.0,-0.13482666015625,-0.173065185546875,Waiting,0.0,0.0,-396138.0,0.0,0.0,0.0,0.0,0.0,
2.9950059999998193,0.0,0.0,-15049.0,0.0,0.0,0.0,0.0,0.0,3.7866207060000003,0.0,0.0,-6806.0,0.0,0.0,-0.0,0.0,0.0,1.960449018,0.0,0.0,6970.0,0.0,0.0,0.0,0.0,0.0,4.9182123870000005,0.0,0.0,-7163.0,0.0,0.0,-0.0,0.0,0.0,2.940673527,0.0,0.0,-0.4699999988079071,89.41000366210938,-90.56999969482422,1.00335693359375,-0.00579833984375,-0.00286865234375,35.150001525878906,0.0,-3.0,-0.13482666015625,-0.173065185546875,Waiting,0.0,0.0,-396138.0,0.0,0.0,0.0,0.0,0.0,
3.36318200000003,0.0,0.0,-15049.0,0.0,0.0,0.0,0.0,0.0,3.7854000030000003,0.0,0.0,-6806.0,0.0,0.0,-0.0,0.0,0.0,1.955566206,0.0,0.0,6970.0,0.0,0.0,0.0,0.0,0.0,4.9182123870000005,0.0,0.0,-7163.0,0.0,0.0,-0.0,0.0,0.0,2.939452824,0.0,0.0,-0.4699999988079071,89.4000015258789,-90.58999633789062,1.00177001953125,-0.01226806640625,-0.01251220703125,35.150001525878906,0.0,5.0,-0.13482666015625,-0.173065185546875,Waiting,0.0,0.0,-396138.0,0.0,0.0,0.0,0.0,0.0,
3.750626999999862,0.0,0.0,-15049.0,0.0,0.0,0.0,0.0,0.0,3.7854000030000003,0.0,0.0,-6806.0,0.0,0.0,-0.0,0.0,0.0,1.955566206,0.0,0.0,6970.0,0.0,0.0,0.0,0.0,0.0,4.91943309,0.0,0.0,-7163.0,0.0,0.0,-0.0,0.0,0.0,2.939452824,0.0,0.0,-0.47999998927116394,89.4000015258789,-90.58999633789062,1.0032958984375,-0.010986328125,-0.004638671875,35.16999816894531,0.0,2.0,-0.13482666015625,-0.173065185546875,Waiting,0.0,0.0,-396138.0,0.0,0.0,0.0,0.0,0.0,
4.12218200000003,0.0,0.0,-15049.0,0.0,0.0,0.0,0.0,0.0,3.7854000030000003,0.0,0.0,-6806.0,0.0,0.0,-0.0,0.0,0.0,1.955566206,0.0,0.0,6970.0,0.0,0.0,0.0,0.0,0.0,4.9157709810000005,0.0,0.0,-7163.0,0.0,0.0,-0.0,0.0,0.0,2.939452824,0.0,0.0,-0.47999998927116394,89.4000015258789,-90.58999633789062,1.00555419921875,-0.0064697265625,-0.00439453125,35.16999816894531,0.0,-2.0,-0.13482666015625,-0.173065185546875,Waiting,0.0,0.0,-396138.0,0.0,0.0,0.0,0.0,0.0,
4.4723059999998656,0.0,0.0,-15049.0,0.0,0.0,0.0,0.0,0.0,3.7854000030000003,0.0,0.0,-6806.0,0.0,0.0,-0.0,0.0,0.0,1.954345503,0.0,0.0,6970.0,0.0,0.0,0.0,0.0,0.0,4.9182123870000005,0.0,0.0,-7163.0,0.0,0.0,-0.0,0.0,0.0,2.939452824,0.0,0.0,-0.47999998927116394,89.41000366210938,-90.58000183105469,1.0042724609375,-0.0087890625,-0.0078125,35.13999938964844,0.0,0.0,-0.13482666015625,-0.173065185546875,Waiting,0.0,0.0,-396138.0,0.0,0.0,0.0,0.0,0.0,
4.829334999999963,0.0,0.0,-15049.0,0.0,0.0,0.0,0.0,0.0,3.7854000030000003,0.0,0.0,-6806.0,0.0,0.0,-0.0,0.0,0.0,1.955566206,0.0,0.0,6970.0,0.0,0.0,0.0,0.0,0.0,4.9182123870000005,0.0,0.0,-7163.0,0.0,0.0,-0.0,0.0,0.0,2.939452824,0.0,0.0,-0.47999998927116394,89.41000366210938,-90.58000183105469,1.00421142578125,-0.00799560546875,-0.0068359375,35.150001525878906,0.0,0.0,-0.13482666015625,-0.173065185546875,Waiting,0.0,0.0,-396138.0,0.0,0.0,0.0,0.0,0.0,
5.189210999999894,0.0,0.0,-15049.0,0.0,0.0,0.0,0.0,0.0,3.7866207060000003,0.0,0.0,-6806.0,0.0,0.0,-0.0,0.0,0.0,1.955566206,0.0,0.0,6970.0,0.0,0.0,0.0,0.0,0.0,4.916991684,0.0,0.0,-7163.0,0.0,0.0,-0.0,0.0,0.0,2.940673527,0.0,0.0,-0.47999998927116394,89.41999816894531,-90.58000183105469,1.00701904296875,-0.00958251953125,-0.00750732421875,35.13999938964844,0.0,1.0,-0.13482666015625,-0.173065185546875,Waiting,0.0,0.0,-396138.0,0.0,0.0,0.0,0.0,0.0,
5.5483929999999235,0.0,0.0,-15049.0,0.0,0.0,0.0,0.0,0.0,3.7866207060000003,0.0,0.0,-6806.0,0.0,0.0,-0.0,0.0,0.0,1.955566206,0.0,0.0,6970.0,0.0,0.0,0.0,0.0,0.0,4.9182123870000005,0.0,0.0,-7163.0,0.0,0.0,-0.0,0.0,0.0,2.939452824,0.0,0.0,-0.47999998927116394,89.41999816894531,-90.58000183105469,1.0,-0.00738525390625,-9.765625E-4,35.13999938964844,0.0,-2.0,-0.13482666015625,-0.173065185546875,Waiting,0.0,0.0,-396138.0,0.0,0.0,0.0,0.0,0.0,
5.8966669999998995,0.0,0.0,-15049.0,0.0,0.0,0.0,0.0,0.0,3.7854000030000003,0.0,0.0,-6806.0,0.0,0.0,-0.0,0.0,0.0,1.955566206,0.0,0.0,6970.0,0.0,0.0,0.0,0.0,0.0,4.916991684,0.0,0.0,-7163.0,0.0,0.0,-0.0,0.0,0.0,2.939452824,0.0,0.0,-0.4699999988079071,89.41000366210938,-90.58000183105469,1.00335693359375,-0.01104736328125,-0.0098876953125,35.119998931884766,0.0,3.0,-0.13482666015625,-0.173065185546875,Waiting,0.0,0.0,-396138.0,0.0,0.0,0.0,0.0,0.0,
6.253231999999843,0.0,0.0,-15049.0,0.0,0.0,0.0,0.0,0.0,3.7866207060000003,0.0,0.0,-6806.0,0.0,0.0,-0.0,0.0,0.0,1.955566206,0.0,0.0,6970.0,0.0,0.0,0.0,0.0,0.0,4.9182123870000005,0.0,0.0,-7163.0,0.0,0.0,-0.0,0.0,0.0,2.940673527,0.0,0.0,-0.4699999988079071,89.41999816894531,-90.56999969482422,1.0020751953125,-0.01190185546875,-0.00201416015625,35.13999938964844,0.0,2.0,-0.13482666015625,-0.173065185546875,Waiting,0.0,0.0,-396138.0,0.0,0.0,0.0,0.0,0.0,
6.613738999999827,0.0,0.0,-15049.0,0.0,0.0,0.0,0.0,0.0,3.7854000030000003,0.0,0.0,-6806.0,0.0,0.0,-0.0,0.0,0.0,1.955566206,0.0,0.0,6970.0,0.0,0.0,0.0,0.0,0.0,4.916991684,0.0,0.0,-7163.0,0.0,0.0,-0.0,0.0,0.0,2.939452824,0.0,0.0,-0.47999998927116394,89.41000366210938,-90.58000183105469,1.004638671875,-0.0096435546875,-0.00335693359375,35.13999938964844,0.0,0.0,-0.13482666015625,-0.173065185546875,Waiting,0.0,0.0,-396138.0,0.0,0.0,0.0,0.0,0.0,
6.972637999999803,0.0,0.0,-15049.0,0.0,0.0,0.0,0.0,0.0,3.7866207060000003,0.0,0.0,-6806.0,0.0,0.0,-0.0,0.0,0.0,1.955566206,0.0,0.0,6970.0,0.0,0.0,0.0,0.0,0.0,4.9182123870000005,0.0,0.0,-7163.0,0.0,0.0,-0.0,0.0,0.0,2.939452824,0.0,0.0,-0.47999998927116394,89.41999816894531,-90.58000183105469,1.00604248046875,-0.00482177734375,-0.001708984375,35.130001068115234,0.0,-4.0,-0.13482666015625,-0.173065185546875,Waiting,0.0,0.0,-396138.0,0.0,0.0,0.0,0.0,0.0,
7.329365999999922,0.0,0.0,-15049.0,0.0,0.0,0.0,0.0,0.0,3.7854000030000003,0.0,0.0,-6806.0,0.0,0.0,-0.0,0.0,0.0,1.954345503,0.0,0.0,6970.0,0.0,0.0,0.0,0.0,0.0,4.916991684,0.0,0.0,-7163.0,0.0,0.0,-0.0,0.0,0.0,2.939452824,0.0,0.0,-0.47999998927116394,89.41000366210938,-90.58999633789062,1.00384521484375,-0.00469970703125,-0.007080078125,35.099998474121094,0.0,-3.0,-0.13482666015625,-0.173065185546875,Waiting,0.0,0.0,-396138.0,0.0,0.0,0.0,0.0,0.0,
7.6903869999998715,0.0,0.0,-15049.0,0.0,0.0,0.0,0.0,0.0,3.7866207060000003,0.0,0.0,-6806.0,0.0,0.0,-0.0,0.0,0.0,1.955566206,0.0,0.0,6970.0,0.0,0.0,0.0,0.0,0.0,4.91943309,0.0,0.0,-7163.0,0.0,0.0,-0.0,0.0,0.0,2.939452824,0.0,0.0,-0.47999998927116394,89.41000366210938,-90.58000183105469,1.003173828125,-0.005859375,0.002685546875,35.099998474121094,0.0,-4.0,-0.13482666015625,-0.173065185546875,Waiting,0.0,0.0,-396138.0,0.0,0.0,0.0,0.0,0.0,
8.04828199999989,0.0,0.0,-15049.0,0.0,0.0,0.0,0.0,0.0,3.7866207060000003,0.0,0.0,-6806.0,0.0,0.0,-0.0,0.0,0.0,1.955566206,0.0,0.0,6970.0,0.0,0.0,0.0,0.0,0.0,4.9182123870000005,0.0,0.0,-7163.0,0.0,0.0,-0.0,0.0,0.0,2.939452824,0.0,0.0,-0.47999998927116394,89.41000366210938,-90.58000183105469,1.00445556640625,-0.004638671875,-0.0028076171875,35.150001525878906,0.0,-4.0,-0.13482666015625,-0.173065185546875,Waiting,0.0,0.0,-396138.0,0.0,0.0,0.0,0.0,0.0,
8.407730999999913,0.0,0.0,-15049.0,0.0,0.0,0.0,0.0,0.0,3.7866207060000003,0.0,0.0,-6806.0,0.0,0.0,-0.0,0.0,0.0,1.955566206,0.0,0.0,6970.0,0.0,0.0,0.0,0.0,0.0,4.916991684,0.0,0.0,-7163.0,0.0,0.0,-0.0,0.0,0.0,2.940673527,0.0,0.0,-0.49000000953674316,89.41000366210938,-90.58999633789062,1.006103515625,-0.00732421875,-0.007568359375,35.16999816894531,0.0,0.0,-0.13482666015625,-0.173065185546875,Waiting,0.0,0.0,-396138.0,0.0,0.0,0.0,0.0,0.0,
8.763772999999812,0.0,0.0,-15049.0,0.0,0.0,0.0,0.0,0.0,3.7854000030000003,0.0,0.0,-6806.0,0.0,0.0,-0.0,0.0,0.0,1.955566206,0.0,0.0,6970.0,0.0,0.0,0.0,0.0,0.0,4.9182123870000005,0.0,0.0,-7163.0,0.0,0.0,-0.0,0.0,0.0,2.940673527,0.0,0.0,-0.49000000953674316,89.41000366210938,-90.58999633789062,1.00592041015625,-0.00604248046875,-0.0128173828125,35.189998626708984,0.0,0.0,-0.13482666015625,-0.173065185546875,Waiting,0.0,0.0,-396138.0,0.0,0.0,0.0,0.0,0.0,
9.129814999999944,0.0,0.0,-15049.0,0.0,0.0,0.0,0.0,0.0,3.7854000030000003,0.0,0.0,-6806.0,0.0,0.0,-0.0,0.0,0.0,1.954345503,0.0,0.0,6970.0,0.0,0.0,0.0,0.0,0.0,4.914550278,0.0,0.0,-7163.0,0.0,0.0,-0.0,0.0,0.0,2.940673527,0.0,0.0,-0.49000000953674316,89.41000366210938,-90.58999633789062,1.00372314453125,-0.0137939453125,-0.005615234375,35.189998626708984,0.0,4.0,-0.13482666015625,-0.173065185546875,Waiting,0.0,0.0,-396138.0,0.0,0.0,0.0,0.0,0.0,
9.487525999999837,0.0,0.0,-15049.0,0.0,0.0,0.0,0.0,0.0,3.7854000030000003,0.0,0.0,-6806.0,0.0,0.0,-0.0,0.0,0.0,1.954345503,0.0,0.0,6970.0,0.0,0.0,0.0,0.0,0.0,4.916991684,0.0,0.0,-7163.0,0.0,0.0,-0.0,0.0,0.0,2.940673527,0.0,0.0,-0.47999998927116394,89.41999816894531,-90.58000183105469,1.00714111328125,-0.01275634765625,-0.01123046875,35.150001525878906,0.0,5.0,-0.13482666015625,-0.173065185546875,Waiting,0.0,0.0,-396138.0,0.0,0.0,0.0,0.0,0.0,
9.850020000000018,0.0,0.0,-15049.0,0.0,0.0,0.0,0.0,0.0,3.7866207060000003,0.0,0.0,-6806.0,0.0,0.0,-0.0,0.0,0.0,1.955566206,0.0,0.0,6970.0,0.0,0.0,0.0,0.0,0.0,4.916991684,0.0,0.0,-7163.0,0.0,0.0,-0.0,0.0,0.0,2.940673527,0.0,0.0,-0.47999998927116394,89.41999816894531,-90.56999969482422,1.00567626953125,-0.01080322265625,-0.01483154296875,35.150001525878906,0.0,4.0,-0.13482666015625,-0.173065185546875,Waiting,0.0,0.0,-396138.0,0.0,0.0,0.0,0.0,0.0,
10.231200999999885,0.0,0.0,-15049.0,0.0,0.0,0.0,0.0,0.0,3.7866207060000003,0.0,0.0,-6806.0,0.0,0.0,-0.0,0.0,0.0,1.954345503,0.0,0.0,6970.0,0.0,0.0,0.0,0.0,0.0,4.9157709810000005,0.0,0.0,-7163.0,0.0,0.0,-0.0,0.0,0.0,2.940673527,0.0,0.0,-0.4699999988079071,89.41999816894531,-90.56999969482422,1.005126953125,-0.00994873046875,-0.0025634765625,35.150001525878906,0.0,0.0,-0.13482666015625,-0.173065185546875,Waiting,0.0,0.0,-396138.0,0.0,0.0,0.0,0.0,0.0,
10.610652999999933,0.0,0.0,-15049.0,0.0,0.0,0.0,0.0,0.0,3.7866207060000003,0.0,0.0,-6806.0,0.0,0.0,-0.0,0.0,0.0,1.9531248,0.0,0.0,6970.0,0.0,0.0,0.0,0.0,0.0,4.9182123870000005,0.0,0.0,-7163.0,0.0,0.0,-0.0,0.0,0.0,2.939452824,0.0,0.0,-0.47999998927116394,89.41999816894531,-90.58000183105469,1.001708984375,-0.0091552734375,-0.0084228515625,35.119998931884766,0.0,1.0,-0.13482666015625,-0.173065185546875,Waiting,0.0,0.0,-396138.0,0.0,0.0,0.0,0.0,0.0,
10.992007999999915,0.0,0.0,-15049.0,0.0,0.0,0.0,0.0,0.0,3.7854000030000003,0.0,0.0,-6806.0,0.0,0.0,-0.0,0.0,0.0,1.955566206,0.0,0.0,6970.0,0.0,0.0,0.0,0.0,0.0,4.916991684,0.0,0.0,-7163.0,0.0,0.0,-0.0,0.0,0.0,2.939452824,0.0,0.0,-0.4699999988079071,89.41999816894531,-90.56999969482422,1.00079345703125,-0.00738525390625,-0.00762939453125,35.13999938964844,0.0,0.0,-0.13482666015625,-0.173065185546875,Waiting,0.0,0.0,-396138.0,0.0,0.0,0.0,0.0,0.0,
11.36528199999989,0.0,0.0,-15049.0,0.0,0.0,0.0,0.0,0.0,3.7854000030000003,0.0,0.0,-6806.0,0.0,0.0,-0.0,0.0,0.0,1.955566206,0.0,0.0,6970.0,0.0,0.0,0.0,0.0,0.0,4.916991684,0.0,0.0,-7163.0,0.0,0.0,-0.0,0.0,0.0,2.940673527,0.0,0.0,-0.4699999988079071,89.41999816894531,-90.56999969482422,1.00543212890625,-0.00640869140625,-0.00390625,35.15999984741211,0.0,-2.0,-0.13482666015625,-0.173065185546875,Waiting,0.0,0.0,-396138.0,0.0,0.0,0.0,0.0,0.0,
11.732744999999879,0.0,0.0,-15049.0,0.0,0.0,0.0,0.0,0.0,3.7854000030000003,0.0,0.0,-6806.0,0.0,0.0,-0.0,0.0,0.0,1.955566206,0.0,0.0,6970.0,0.0,0.0,0.0,0.0,0.0,4.9157709810000005,0.0,0.0,-7163.0,0.0,0.0,-0.0,0.0,0.0,2.939452824,0.0,0.0,-0.4699999988079071,89.41000366210938,-90.58000183105469,1.003173828125,-0.0057373046875,-0.001220703125,35.15999984741211,0.0,-3.0,-0.13482666015625,-0.173065185546875,Waiting,0.0,0.0,-396138.0,0.0,0.0,0.0,0.0,0.0,
12.086704999999842,0.0,0.0,-15049.0,0.0,0.0,0.0,0.0,0.0,3.7866207060000003,0.0,0.0,-6806.0,0.0,0.0,-0.0,0.0,0.0,1.954345503,0.0,0.0,6970.0,0.0,0.0,0.0,0.0,0.0,4.9157709810000005,0.0,0.0,-7163.0,0.0,0.0,-0.0,0.0,0.0,2.939452824,0.0,0.0,-0.47999998927116394,89.4000015258789,-90.58999633789062,1.00244140625,-0.00836181640625,-0.0018310546875,35.099998474121094,0.0,-1.0,-0.13482666015625,-0.173065185546875,Waiting,0.0,0.0,-396138.0,0.0,0.0,0.0,0.0,0.0,
12.441362999999896,0.0,0.0,-15049.0,0.0,0.0,0.0,0.0,0.0,3.7854000030000003,0.0,0.0,-6806.0,0.0,0.0,-0.0,0.0,0.0,1.955566206,0.0,0.0,6970.0,0.0,0.0,0.0,0.0,0.0,4.9182123870000005,0.0,0.0,-7163.0,0.0,0.0,-0.0,0.0,0.0,2.939452824,0.0,0.0,-0.4699999988079071,89.41999816894531,-90.56999969482422,1.0079345703125,-0.0133056640625,-0.0048828125,35.130001068115234,0.0,4.0,-0.13482666015625,-0.173065185546875,Waiting,0.0,0.0,-396138.0,0.0,0.0,0.0,0.0,0.0,
12.807371999999974,0.0,0.0,-15049.0,0.0,0.0,0.0,0.0,0.0,3.7866207060000003,0.0,0.0,-6806.0,0.0,0.0,-0.0,0.0,0.0,1.955566206,0.0,0.0,6970.0,0.0,0.0,0.0,0.0,0.0,4.9182123870000005,0.0,0.0,-7163.0,0.0,0.0,-0.0,0.0,0.0,2.940673527,0.0,0.0,-0.47999998927116394,89.41000366210938,-90.58000183105469,1.0054931640625,-0.008544921875,-0.009521484375,35.130001068115234,0.0,1.0,-0.13482666015625,-0.173065185546875,Waiting,0.0,0.0,-396138.0,0.0,0.0,0.0,0.0,0.0,
13.159147999999812,0.0,0.0,-15049.0,0.0,0.0,0.0,0.0,0.0,3.7854000030000003,0.0,0.0,-6806.0,0.0,0.0,-0.0,0.0,0.0,1.955566206,0.0,0.0,6970.0,0.0,0.0,0.0,0.0,0.0,4.916991684,0.0,0.0,-7163.0,0.0,0.0,-0.0,0.0,0.0,2.939452824,0.0,0.0,-0.49000000953674316,89.41000366210938,-90.58999633789062,1.0108642578125,-0.0216064453125,-0.00799560546875,35.099998474121094,0.0,13.0,-0.13482666015625,-0.173065185546875,Waiting,0.0,0.0,-396138.0,0.0,0.0,0.0,0.0,0.0,
13.514287000000012,0.0,0.0,-15049.0,0.0,0.0,0.0,0.0,0.0,3.7854000030000003,0.0,0.0,-6806.0,0.0,0.0,-0.0,0.0,0.0,1.955566206,0.0,0.0,6970.0,0.0,0.0,0.0,0.0,0.0,4.916991684,0.0,0.0,-7163.0,0.0,0.0,-0.0,0.0,0.0,2.940673527,0.0,0.0,-0.49000000953674316,89.41000366210938,-90.58000183105469,1.00341796875,-0.0089111328125,-0.00506591796875,35.130001068115234,0.0,0.0,-0.13482666015625,-0.173065185546875,Waiting,0.0,0.0,-396138.0,0.0,0.0,0.0,0.0,0.0,
13.872551999999908,0.0,0.0,-15049.0,0.0,0.0,0.0,0.0,0.0,3.7854000030000003,0.0,0.0,-6806.0,0.0,0.0,-0.0,0.0,0.0,1.955566206,0.0,0.0,6970.0,0.0,0.0,0.0,0.0,0.0,4.916991684,0.0,0.0,-7163.0,0.0,0.0,-0.0,0.0,0.0,2.939452824,0.0,0.0,-0.49000000953674316,89.41000366210938,-90.58999633789062,1.00579833984375,-0.00946044921875,-0.00152587890625,35.130001068115234,0.0,0.0,-0.13482666015625,-0.173065185546875,Waiting,0.0,0.0,-396138.0,0.0,0.0,0.0,0.0,0.0,
14.238483000000008,0.0,0.0,-15049.0,0.0,0.0,0.0,0.0,0.0,3.7866207060000003,0.0,0.0,-6806.0,0.0,0.0,-0.0,0.0,0.0,1.955566206,0.0,0.0,6970.0,0.0,0.0,0.0,0.0,0.0,4.9182123870000005,0.0,0.0,-7163.0,0.0,0.0,-0.0,0.0,0.0,2.939452824,0.0,0.0,-0.49000000953674316,89.4000015258789,-90.5999984741211,1.00390625,-0.01104736328125,-0.00616455078125,35.130001068115234,0.0,2.0,-0.13482666015625,-0.173065185546875,Waiting,0.0,0.0,-396138.0,0.0,0.0,0.0,0.0,0.0,
14.583872999999905,0.0,0.0,-15049.0,0.0,0.0,0.0,0.0,0.0,3.7866207060000003,0.0,0.0,-6806.0,0.0,0.0,-0.0,0.0,0.0,1.954345503,0.0,0.0,6970.0,0.0,0.0,0.0,0.0,0.0,4.9182123870000005,0.0,0.0,-7163.0,0.0,0.0,-0.0,0.0,0.0,2.939452824,0.0,0.0,-0.49000000953674316,89.41000366210938,-90.5999984741211,1.0028076171875,-0.00750732421875,0.00213623046875,35.13999938964844,0.0,-3.0,-0.13482666015625,-0.173065185546875,Waiting,0.0,0.0,-396138.0,0.0,0.0,0.0,0.0,0.0,
14.937351000000024,0.0,0.0,-15049.0,0.0,0.0,0.0,0.0,0.0,3.7866207060000003,0.0,0.0,-6806.0,0.0,0.0,-0.0,0.0,0.0,1.954345503,0.0,0.0,6970.0,0.0,0.0,0.0,0.0,0.0,4.916991684,0.0,0.0,-7163.0,0.0,0.0,-0.0,0.0,0.0,2.940673527,0.0,0.0,-0.5,89.4000015258789,-90.5999984741211,1.0047607421875,-0.00811767578125,-0.0068359375,35.13999938964844,0.0,0.0,-0.13482666015625,-0.173065185546875,Waiting,0.0,0.0,-396138.0,0.0,0.0,0.0,0.0,0.0,
15.297089999999852,0.0,0.0,-15049.0,0.0,0.0,0.0,0.0,0.0,3.7854000030000003,0.0,0.0,-6806.0,0.0,0.0,-0.0,0.0,0.0,1.955566206,0.0,0.0,6970.0,0.0,0.0,0.0,0.0,0.0,4.91943309,0.0,0.0,-7163.0,0.0,0.0,-0.0,0.0,0.0,2.939452824,0.0,0.0,-0.5099999904632568,89.38999938964844,-90.61000061035156,1.0010986328125,-0.00714111328125,-0.0040283203125,35.13999938964844,0.0,-2.0,-0.13482666015625,-0.173065185546875,Waiting,0.0,0.0,-396138.0,0.0,0.0,0.0,0.0,0.0,
15.653979999999981,0.0,0.0,-15049.0,0.0,0.0,0.0,0.0,0.0,3.7854000030000003,0.0,0.0,-6806.0,0.0,0.0,-0.0,0.0,0.0,1.955566206,0.0,0.0,6970.0,0.0,0.0,0.0,0.0,0.0,4.9157709810000005,0.0,0.0,-7163.0,0.0,0.0,-0.0,0.0,0.0,2.939452824,0.0,0.0,-0.5,89.4000015258789,-90.5999984741211,1.0072021484375,-0.01141357421875,-0.0042724609375,35.119998931884766,0.0,2.0,-0.13482666015625,-0.173065185546875,Waiting,0.0,0.0,-396138.0,0.0,0.0,0.0,0.0,0.0,
16.00858799999999,0.0,0.0,-15049.0,0.0,0.0,0.0,0.0,0.0,3.7854000030000003,0.0,0.0,-6806.0,0.0,0.0,-0.0,0.0,0.0,1.955566206,0.0,0.0,6970.0,0.0,0.0,0.0,0.0,0.0,4.9182123870000005,0.0,0.0,-7163.0,0.0,0.0,-0.0,0.0,0.0,2.939452824,0.0,0.0,-0.5099999904632568,89.38999938964844,-90.61000061035156,1.00518798828125,-0.00909423828125,-0.0032958984375,35.099998474121094,0.0,0.0,-0.13482666015625,-0.173065185546875,Waiting,0.0,0.0,-396138.0,0.0,0.0,0.0,0.0,0.0,
16.35670499999984,0.0,0.0,-15049.0,0.0,0.0,0.0,0.0,0.0,3.7866207060000003,0.0,0.0,-6806.0,0.0,0.0,-0.0,0.0,0.0,1.955566206,0.0,0.0,6970.0,0.0,0.0,0.0,0.0,0.0,4.9182123870000005,0.0,0.0,-7163.0,0.0,0.0,-0.0,0.0,0.0,2.939452824,0.0,0.0,-0.49000000953674316,89.4000015258789,-90.5999984741211,1.00372314453125,-0.00323486328125,-0.0069580078125,35.099998474121094,0.0,-4.0,-0.13482666015625,-0.173065185546875,Waiting,0.0,0.0,-396138.0,0.0,0.0,0.0,0.0,0.0,
16.71630700000003,0.0,0.0,-15049.0,0.0,0.0,0.0,0.0,0.0,3.7854000030000003,0.0,0.0,-6806.0,0.0,0.0,-0.0,0.0,0.0,1.954345503,0.0,0.0,6970.0,0.0,0.0,0.0,0.0,0.0,4.916991684,0.0,0.0,-7163.0,0.0,0.0,-0.0,0.0,0.0,2.939452824,0.0,0.0,-0.49000000953674316,89.4000015258789,-90.58999633789062,1.002685546875,-0.00836181640625,-0.0062255859375,35.13999938964844,0.0,0.0,-0.13482666015625,-0.173065185546875,Waiting,0.0,0.0,-396138.0,0.0,0.0,0.0,0.0,0.0,
17.075570999999997,0.0,0.0,-15049.0,0.0,0.0,0.0,0.0,0.0,3.7841793000000004,0.0,0.0,-6806.0,0.0,0.0,-0.0,0.0,0.0,1.955566206,0.0,0.0,6970.0,0.0,0.0,0.0,0.0,0.0,4.9182123870000005,0.0,0.0,-7163.0,0.0,0.0,-0.0,0.0,0.0,2.940673527,0.0,0.0,-0.49000000953674316,89.4000015258789,-90.58999633789062,1.0064697265625,-0.0089111328125,-0.00811767578125,35.119998931884766,0.0,0.0,-0.13482666015625,-0.173065185546875,Waiting,0.0,0.0,-396138.0,0.0,0.0,0.0,0.0,0.0,
17.460065999999877,0.0,0.0,-15049.0,0.0,0.0,0.0,0.0,0.0,3.7854000030000003,0.0,0.0,-6806.0,0.0,0.0,-0.0,0.0,0.0,1.955566206,0.0,0.0,6970.0,0.0,0.0,0.0,0.0,0.0,4.916991684,0.0,0.0,-7163.0,0.0,0.0,-0.0,0.0,0.0,2.940673527,0.0,0.0,-0.49000000953674316,89.38999938964844,-90.5999984741211,1.0010986328125,-0.006103515625,-0.01214599609375,35.119998931884766,0.0,0.0,-0.13482666015625,-0.173065185546875,Waiting,0.0,0.0,-396138.0,0.0,0.0,0.0,0.0,0.0,
17.83810800000001,0.0,0.0,-15049.0,0.0,0.0,0.0,0.0,0.0,3.7866207060000003,0.0,0.0,-6806.0,0.0,0.0,-0.0,0.0,0.0,1.955566206,0.0,0.0,6970.0,0.0,0.0,0.0,0.0,0.0,4.916991684,0.0,0.0,-7163.0,0.0,0.0,-0.0,0.0,0.0,2.940673527,0.0,0.0,-0.49000000953674316,89.41000366210938,-90.58999633789062,1.01123046875,-0.00244140625,0.00103759765625,35.119998931884766,0.0,-7.0,-0.13482666015625,-0.173065185546875,Waiting,0.0,0.0,-396138.0,0.0,0.0,0.0,0.0,0.0,
18.221368000000016,0.0,0.0,-15049.0,0.0,0.0,0.0,0.0,0.0,3.7866207060000003,0.0,0.0,-6806.0,0.0,0.0,-0.0,0.0,0.0,1.954345503,0.0,0.0,6970.0,0.0,0.0,0.0,0.0,0.0,4.9157709810000005,0.0,0.0,-7163.0,0.0,0.0,-0.0,0.0,0.0,2.939452824,0.0,0.0,-0.47999998927116394,89.4000015258789,-90.58999633789062,1.0059814453125,-0.0064697265625,-0.00732421875,35.099998474121094,0.0,-1.0,-0.13482666015625,-0.173065185546875,Waiting,0.0,0.0,-396138.0,0.0,0.0,0.0,0.0,0.0,
18.60103299999982,0.0,0.0,-15049.0,0.0,0.0,0.0,0.0,0.0,3.7854000030000003,0.0,0.0,-6806.0,0.0,0.0,-0.0,0.0,0.0,1.954345503,0.0,0.0,6970.0,0.0,0.0,0.0,0.0,0.0,4.9182123870000005,0.0,0.0,-7163.0,0.0,0.0,-0.0,0.0,0.0,2.939452824,0.0,0.0,-0.49000000953674316,89.4000015258789,-90.58999633789062,1.00640869140625,-0.00689697265625,-0.0108642578125,35.119998931884766,0.0,0.0,-0.13482666015625,-0.173065185546875,Waiting,0.0,0.0,-396138.0,0.0,0.0,0.0,0.0,0.0,
18.964863999999828,0.0,0.0,-15049.0,0.0,0.0,0.0,0.0,0.0,3.7854000030000003,0.0,0.0,-6806.0,0.0,0.0,-0.0,0.0,0.0,1.955566206,0.0,0.0,6970.0,0.0,0.0,0.0,0.0,0.0,4.9182123870000005,0.0,0.0,-7163.0,0.0,0.0,-0.0,0.0,0.0,2.939452824,0.0,0.0,-0.49000000953674316,89.4000015258789,-90.58999633789062,1.00323486328125,-0.0096435546875,-0.00390625,35.150001525878906,0.0,0.0,-0.13482666015625,-0.173065185546875,Waiting,0.0,0.0,-396138.0,0.0,0.0,0.0,0.0,0.0,
19.32704099999997,0.0,0.0,-15049.0,0.0,0.0,0.0,0.0,0.0,3.7854000030000003,0.0,0.0,-6806.0,0.0,0.0,-0.0,0.0,0.0,1.955566206,0.0,0.0,6970.0,0.0,0.0,0.0,0.0,0.0,4.916991684,0.0,0.0,-7163.0,0.0,0.0,-0.0,0.0,0.0,2.939452824,0.0,0.0,-0.5,89.4000015258789,-90.5999984741211,1.0067138671875,-0.0068359375,-0.00299072265625,35.150001525878906,0.0,-2.0,-0.13482666015625,-0.173065185546875,Waiting,0.0,0.0,-396138.0,0.0,0.0,0.0,0.0,0.0,
19.681148999999976,0.0,0.0,-15049.0,0.0,0.0,0.0,0.0,0.0,3.7866207060000003,0.0,0.0,-6806.0,0.0,0.0,-0.0,0.0,0.0,1.954345503,0.0,0.0,6970.0,0.0,0.0,0.0,0.0,0.0,4.9182123870000005,0.0,0.0,-7163.0,0.0,0.0,-0.0,0.0,0.0,2.939452824,0.0,0.0,-0.49000000953674316,89.4000015258789,-90.58999633789062,1.003662109375,-0.009765625,-0.00555419921875,35.13999938964844,0.0,0.0,-0.13482666015625,-0.173065185546875,Waiting,0.0,0.0,-396138.0,0.0,0.0,0.0,0.0,0.0,
20.036111000000034,0.0,0.0,-15049.0,0.0,0.0,0.0,0.0,0.0,3.7854000030000003,0.0,0.0,-6806.0,0.0,0.0,-0.0,0.0,0.0,1.954345503,0.0,0.0,6970.0,0.0,0.0,0.0,0.0,0.0,4.916991684,0.0,0.0,-7163.0,0.0,0.0,-0.0,0.0,0.0,2.939452824,0.0,0.0,-0.49000000953674316,89.41000366210938,-90.58999633789062,1.0009765625,-0.0069580078125,-0.009033203125,35.15999984741211,0.0,0.0,-0.13482666015625,-0.173065185546875,Waiting,0.0,0.0,-396138.0,0.0,0.0,0.0,0.0,0.0,
20.395081000000005,0.0,0.0,-15049.0,0.0,0.0,0.0,0.0,0.0,3.7854000030000003,0.0,0.0,-6806.0,0.0,0.0,-0.0,0.0,0.0,1.955566206,0.0,0.0,6970.0,0.0,0.0,0.0,0.0,0.0,4.9182123870000005,0.0,0.0,-7163.0,0.0,0.0,-0.0,0.0,0.0,2.940673527,0.0,0.0,-0.5,89.4000015258789,-90.5999984741211,0.9825439453125,-0.013916015625,-0.02557373046875,35.15999984741211,0.0,10.0,-0.13482666015625,-0.17315673828125,Waiting,0.0,0.0,-396138.0,0.0,0.0,0.0,0.0,0.0,
20.74743200000003,0.0,0.0,-15049.0,0.0,0.0,0.0,0.0,0.0,3.7854000030000003,0.0,0.0,-6806.0,0.0,0.0,-0.0,0.0,0.0,1.955566206,0.0,0.0,6970.0,0.0,0.0,0.0,0.0,0.0,4.9182123870000005,0.0,0.0,-7163.0,0.0,0.0,-0.0,0.0,0.0,2.940673527,0.0,0.0,-0.5,89.38999938964844,-90.5999984741211,0.99713134765625,-0.00885009765625,-0.00714111328125,35.130001068115234,0.0,0.0,-0.13482666015625,-0.17315673828125,Waiting,0.0,0.0,-396138.0,0.0,0.0,0.0,0.0,0.0,
21.100986000000034,0.0,0.0,-15049.0,0.0,0.0,0.0,0.0,0.0,3.7854000030000003,0.0,0.0,-6806.0,0.0,0.0,-0.0,0.0,0.0,1.954345503,0.0,0.0,6970.0,0.0,0.0,0.0,0.0,0.0,4.91943309,0.0,0.0,-7163.0,0.0,0.0,-0.0,0.0,0.0,2.939452824,0.0,0.0,-0.5,89.4000015258789,-90.61000061035156,1.0064697265625,-0.013916015625,-0.0047607421875,35.150001525878906,0.0,4.0,-0.13482666015625,-0.17315673828125,Waiting,0.0,0.0,-396138.0,0.0,0.0,0.0,0.0,0.0,
21.46076199999987,0.0,0.0,-15049.0,0.0,0.0,0.0,0.0,0.0,3.7866207060000003,0.0,0.0,-6806.0,0.0,0.0,-0.0,0.0,0.0,1.955566206,0.0,0.0,6970.0,0.0,0.0,0.0,0.0,0.0,4.9182123870000005,0.0,0.0,-7163.0,0.0,0.0,-0.0,0.0,0.0,2.939452824,0.0,0.0,-0.49000000953674316,89.41000366210938,-90.58999633789062,1.00604248046875,-0.00726318359375,-0.0032958984375,35.150001525878906,0.0,-2.0,-0.13482666015625,-0.17315673828125,Waiting,0.0,0.0,-396138.0,0.0,0.0,0.0,0.0,0.0,
21.826064999999943,0.0,0.0,-15049.0,0.0,0.0,0.0,0.0,0.0,3.7854000030000003,0.0,0.0,-6806.0,0.0,0.0,-0.0,0.0,0.0,1.954345503,0.0,0.0,6970.0,0.0,0.0,0.0,0.0,0.0,4.916991684,0.0,0.0,-7163.0,0.0,0.0,-0.0,0.0,0.0,2.939452824,0.0,0.0,-0.5,89.41000366210938,-90.58999633789062,1.00445556640625,-0.00537109375,-0.0018310546875,35.15999984741211,0.0,-4.0,-0.13482666015625,-0.17315673828125,Waiting,0.0,0.0,-396138.0,0.0,0.0,0.0,0.0,0.0,
22.17935399999982,0.0,0.0,-15049.0,0.0,0.0,0.0,0.0,0.0,3.7854000030000003,0.0,0.0,-6806.0,0.0,0.0,-0.0,0.0,0.0,1.955566206,0.0,0.0,6970.0,0.0,0.0,0.0,0.0,0.0,4.916991684,0.0,0.0,-7163.0,0.0,0.0,-0.0,0.0,0.0,2.938232121,0.0,0.0,-0.49000000953674316,89.41000366210938,-90.58000183105469,1.0040283203125,-0.01123046875,-0.00628662109375,35.13999938964844,0.0,2.0,-0.13482666015625,-0.17315673828125,Waiting,0.0,0.0,-396138.0,0.0,0.0,0.0,0.0,0.0,
22.534778999999865,0.0,0.0,-15049.0,0.0,0.0,0.0,0.0,0.0,3.7854000030000003,0.0,0.0,-6806.0,0.0,0.0,-0.0,0.0,0.0,1.954345503,0.0,0.0,6970.0,0.0,0.0,0.0,0.0,0.0,4.91943309,0.0,0.0,-7163.0,0.0,0.0,-0.0,0.0,0.0,2.939452824,0.0,0.0,-0.49000000953674316,89.41999816894531,-90.58000183105469,1.00250244140625,-0.01171875,-0.00457763671875,35.15999984741211,0.0,2.0,-0.13482666015625,-0.17315673828125,Waiting,0.0,0.0,-396138.0,0.0,0.0,0.0,0.0,0.0,
22.90640099999984,0.0,0.0,-15049.0,0.0,0.0,0.0,0.0,0.0,3.7854000030000003,0.0,0.0,-6806.0,0.0,0.0,-0.0,0.0,0.0,1.954345503,0.0,0.0,6970.0,0.0,0.0,0.0,0.0,0.0,4.9182123870000005,0.0,0.0,-7163.0,0.0,0.0,-0.0,0.0,0.0,2.939452824,0.0,0.0,-0.47999998927116394,89.41999816894531,-90.58999633789062,1.0042724609375,-0.00933837890625,-0.00433349609375,35.15999984741211,0.0,0.0,-0.13482666015625,-0.17315673828125,Waiting,0.0,0.0,-396138.0,0.0,0.0,0.0,0.0,0.0,
23.256988999999827,0.0,0.0,-15049.0,0.0,0.0,0.0,0.0,0.0,3.7866207060000003,0.0,0.0,-6806.0,0.0,0.0,-0.0,0.0,0.0,1.954345503,0.0,0.0,6970.0,0.0,0.0,0.0,0.0,0.0,4.9182123870000005,0.0,0.0,-7163.0,0.0,0.0,-0.0,0.0,0.0,2.939452824,0.0,0.0,-0.47999998927116394,89.41999816894531,-90.58000183105469,1.0072021484375,-0.00347900390625,-0.00762939453125,35.16999816894531,0.0,-4.0,-0.13482666015625,-0.17315673828125,Waiting,0.0,0.0,-396138.0,0.0,0.0,0.0,0.0,0.0,
23.61627099999995,0.0,0.0,-15049.0,0.0,0.0,0.0,0.0,0.0,3.7854000030000003,0.0,0.0,-6806.0,0.0,0.0,-0.0,0.0,0.0,1.954345503,0.0,0.0,6970.0,0.0,0.0,0.0,0.0,0.0,4.91943309,0.0,0.0,-7163.0,0.0,0.0,-0.0,0.0,0.0,2.939452824,0.0,0.0,-0.47999998927116394,89.41999816894531,-90.58000183105469,1.00616455078125,-0.012451171875,6.7138671875E-4,35.16999816894531,0.0,1.0,-0.13482666015625,-0.17315673828125,Waiting,0.0,0.0,-396138.0,0.0,0.0,0.0,0.0,0.0,
23.979637999999802,0.0,0.0,-15049.0,0.0,0.0,0.0,0.0,0.0,3.7866207060000003,0.0,0.0,-6806.0,0.0,0.0,-0.0,0.0,0.0,1.954345503,0.0,0.0,6970.0,0.0,0.0,0.0,0.0,0.0,4.9182123870000005,0.0,0.0,-7163.0,0.0,0.0,-0.0,0.0,0.0,2.939452824,0.0,0.0,-0.49000000953674316,89.41000366210938,-90.58999633789062,1.00390625,-0.0087890625,-0.0042724609375,35.16999816894531,0.0,0.0,-0.13482666015625,-0.17315673828125,Waiting,0.0,0.0,-396138.0,0.0,0.0,0.0,0.0,0.0,
24.339231999999843,0.0,0.0,-15049.0,0.0,0.0,0.0,0.0,0.0,3.7854000030000003,0.0,0.0,-6806.0,0.0,0.0,-0.0,0.0,0.0,1.955566206,0.0,0.0,6970.0,0.0,0.0,0.0,0.0,0.0,4.916991684,0.0,0.0,-7163.0,0.0,0.0,-0.0,0.0,0.0,2.940673527,0.0,0.0,-0.49000000953674316,89.41000366210938,-90.58999633789062,1.00494384765625,-0.01226806640625,-0.00701904296875,35.18000030517578,0.0,3.0,-0.13482666015625,-0.17315673828125,Waiting,0.0,0.0,-396138.0,0.0,0.0,0.0,0.0,0.0,
24.71811499999999,0.0,0.0,-15049.0,0.0,0.0,0.0,0.0,0.0,3.7866207060000003,0.0,0.0,-6806.0,0.0,0.0,-0.0,0.0,0.0,1.955566206,0.0,0.0,6970.0,0.0,0.0,0.0,0.0,0.0,4.916991684,0.0,0.0,-7163.0,0.0,0.0,-0.0,0.0,0.0,2.940673527,0.0,0.0,-0.49000000953674316,89.41000366210938,-90.58999633789062,1.0008544921875,-0.00872802734375,-0.01116943359375,35.16999816894531,0.0,1.0,-0.13482666015625,-0.17315673828125,Waiting,0.0,0.0,-396138.0,0.0,0.0,0.0,0.0,0.0,
25.09351699999999,0.0,0.0,-15049.0,0.0,0.0,0.0,0.0,0.0,3.7866207060000003,0.0,0.0,-6806.0,0.0,0.0,-0.0,0.0,0.0,1.955566206,0.0,0.0,6970.0,0.0,0.0,0.0,0.0,0.0,4.916991684,0.0,0.0,-7163.0,0.0,0.0,-0.0,0.0,0.0,2.939452824,0.0,0.0,-0.49000000953674316,89.41000366210938,-90.58000183105469,1.00390625,-0.0047607421875,-0.00885009765625,35.18000030517578,0.0,-2.0,-0.13482666015625,-0.17315673828125,Waiting,0.0,0.0,-396138.0,0.0,0.0,0.0,0.0,0.0,
25.472777,0.0,0.0,-15049.0,0.0,0.0,0.0,0.0,0.0,3.7866207060000003,0.0,0.0,-6806.0,0.0,0.0,-0.0,0.0,0.0,1.954345503,0.0,0.0,6970.0,0.0,0.0,0.0,0.0,0.0,4.9182123870000005,0.0,0.0,-7163.0,0.0,0.0,-0.0,0.0,0.0,2.939452824,0.0,0.0,-0.49000000953674316,89.41000366210938,-90.58000183105469,1.000244140625,-0.00604248046875,-0.0052490234375,35.18000030517578,0.0,-2.0,-0.13482666015625,-0.17315673828125,Waiting,0.0,0.0,-396138.0,0.0,0.0,0.0,0.0,0.0,
25.84817799999984,0.0,0.0,-15049.0,0.0,0.0,0.0,0.0,0.0,3.7854000030000003,0.0,0.0,-6806.0,0.0,0.0,-0.0,0.0,0.0,1.955566206,0.0,0.0,6970.0,0.0,0.0,0.0,0.0,0.0,4.91943309,0.0,0.0,-7163.0,0.0,0.0,-0.0,0.0,0.0,2.939452824,0.0,0.0,-0.4699999988079071,89.43000030517578,-90.56999969482422,1.00775146484375,-0.001953125,-0.00482177734375,35.20000076293945,0.0,-6.0,-0.13482666015625,-0.17315673828125,Waiting,0.0,0.0,-396138.0,0.0,0.0,0.0,0.0,0.0,
26.20990699999989,0.0,0.0,-15049.0,0.0,0.0,0.0,0.0,0.0,3.7854000030000003,0.0,0.0,-6806.0,0.0,0.0,-0.0,0.0,0.0,1.955566206,0.0,0.0,6970.0,0.0,0.0,0.0,0.0,0.0,4.916991684,0.0,0.0,-7163.0,0.0,0.0,-0.0,0.0,0.0,2.940673527,0.0,0.0,-0.47999998927116394,89.41999816894531,-90.58000183105469,1.00726318359375,-0.0042724609375,-9.1552734375E-4,35.209999084472656,0.0,-5.0,-0.13482666015625,-0.17315673828125,Waiting,0.0,0.0,-396138.0,0.0,0.0,0.0,0.0,0.0,
26.561852999999886,0.0,0.0,-15049.0,0.0,0.0,0.0,0.0,0.0,3.7854000030000003,0.0,0.0,-6806.0,0.0,0.0,-0.0,0.0,0.0,1.955566206,0.0,0.0,6970.0,0.0,0.0,0.0,0.0,0.0,4.9182123870000005,0.0,0.0,-7163.0,0.0,0.0,-0.0,0.0,0.0,2.939452824,0.0,0.0,-0.49000000953674316,89.41000366210938,-90.58999633789062,1.0013427734375,-0.01373291015625,0.00250244140625,35.209999084472656,0.0,2.0,-0.13482666015625,-0.1730804443359375,Waiting,0.0,0.0,-396138.0,0.0,0.0,0.0,0.0,0.0,
26.92742699999991,0.0,0.0,-15049.0,0.0,0.0,0.0,0.0,0.0,3.7854000030000003,0.0,0.0,-6806.0,0.0,0.0,-0.0,0.0,0.0,1.955566206,0.0,0.0,6970.0,0.0,0.0,0.0,0.0,0.0,4.9182123870000005,0.0,0.0,-7163.0,0.0,0.0,-0.0,0.0,0.0,2.940673527,0.0,0.0,-0.49000000953674316,89.41999816894531,-90.58000183105469,1.0125732421875,-0.01654052734375,-0.01513671875,35.20000076293945,0.0,10.0,-0.13458251953125,-0.1728973388671875,Waiting,0.0,0.0,-396138.0,0.0,0.0,0.0,0.0,0.0,
27.288326999999814,0.0,0.0,-15049.0,0.0,0.0,0.0,0.0,0.0,3.7854000030000003,0.0,0.0,-6806.0,0.0,0.0,-0.0,0.0,0.0,1.954345503,0.0,0.0,6970.0,0.0,0.0,0.0,0.0,0.0,4.9182123870000005,0.0,0.0,-7163.0,0.0,0.0,-0.0,0.0,0.0,2.939452824,0.0,0.0,-0.49000000953674316,89.41000366210938,-90.58000183105469,1.004150390625,-0.00604248046875,0.00335693359375,35.18000030517578,0.0,-5.0,-0.13458251953125,-0.1729888916015625,Waiting,0.0,0.0,-396138.0,0.0,0.0,0.0,0.0,0.0,
27.646006999999983,0.0,0.0,-15049.0,0.0,0.0,0.0,0.0,0.0,3.7854000030000003,0.0,0.0,-6806.0,0.0,0.0,-0.0,0.0,0.0,1.955566206,0.0,0.0,6970.0,0.0,0.0,0.0,0.0,0.0,4.9157709810000005,0.0,0.0,-7163.0,0.0,0.0,-0.0,0.0,0.0,2.940673527,0.0,0.0,-0.49000000953674316,89.41999816894531,-90.58000183105469,1.00054931640625,-0.01043701171875,-0.0010986328125,35.189998626708984,0.0,0.0,-0.13458251953125,-0.1729888916015625,Waiting,0.0,0.0,-396138.0,0.0,0.0,0.0,0.0,0.0,
28.007831000000007,0.0,0.0,-15049.0,0.0,0.0,0.0,0.0,0.0,3.7854000030000003,0.0,0.0,-6806.0,0.0,0.0,-0.0,0.0,0.0,1.955566206,0.0,0.0,6970.0,0.0,0.0,0.0,0.0,0.0,4.916991684,0.0,0.0,-7163.0,0.0,0.0,-0.0,0.0,0.0,2.939452824,0.0,0.0,-0.47999998927116394,89.41000366210938,-90.58000183105469,1.0020751953125,-0.0054931640625,6.103515625E-5,35.189998626708984,0.0,-4.0,-0.13458251953125,-0.1729888916015625,Waiting,0.0,0.0,-396138.0,0.0,0.0,0.0,0.0,0.0,
28.363324000000024,0.0,0.0,-15049.0,0.0,0.0,0.0,0.0,0.0,3.7854000030000003,0.0,0.0,-6806.0,0.0,0.0,-0.0,0.0,0.0,1.955566206,0.0,0.0,6970.0,0.0,0.0,0.0,0.0,0.0,4.91943309,0.0,0.0,-7163.0,0.0,0.0,-0.0,0.0,0.0,2.939452824,0.0,0.0,-0.47999998927116394,89.41000366210938,-90.58000183105469,1.0057373046875,-0.00531005859375,0.00323486328125,35.189998626708984,0.0,-5.0,-0.13458251953125,-0.1729888916015625,Waiting,0.0,0.0,-396138.0,0.0,0.0,0.0,0.0,0.0,
28.714518999999854,0.0,0.0,-15049.0,0.0,0.0,0.0,0.0,0.0,3.7854000030000003,0.0,0.0,-6806.0,0.0,0.0,-0.0,0.0,0.0,1.954345503,0.0,0.0,6970.0,0.0,0.0,0.0,0.0,0.0,4.916991684,0.0,0.0,-7163.0,0.0,0.0,-0.0,0.0,0.0,2.940673527,0.0,0.0,-0.47999998927116394,89.41999816894531,-90.56999969482422,1.004638671875,-0.0084228515625,-0.008056640625,35.15999984741211,0.0,0.0,-0.13458251953125,-0.1729888916015625,Waiting,0.0,0.0,-396138.0,0.0,0.0,0.0,0.0,0.0,
29.067007999999916,0.0,0.0,-15049.0,0.0,0.0,0.0,0.0,0.0,3.7854000030000003,0.0,0.0,-6806.0,0.0,0.0,-0.0,0.0,0.0,1.955566206,0.0,0.0,6970.0,0.0,0.0,0.0,0.0,0.0,4.916991684,0.0,0.0,-7163.0,0.0,0.0,-0.0,0.0,0.0,2.939452824,0.0,0.0,-0.47999998927116394,89.41000366210938,-90.58999633789062,1.00482177734375,-0.00860595703125,0.003662109375,35.15999984741211,0.0,-2.0,-0.13458251953125,-0.1729888916015625,Waiting,0.0,0.0,-396138.0,0.0,0.0,0.0,0.0,0.0,
29.42828199999989,0.0,0.0,-15049.0,0.0,0.0,0.0,0.0,0.0,3.7854000030000003,0.0,0.0,-6806.0,0.0,0.0,-0.0,0.0,0.0,1.955566206,0.0,0.0,6970.0,0.0,0.0,0.0,0.0,0.0,4.9182123870000005,0.0,0.0,-7163.0,0.0,0.0,-0.0,0.0,0.0,2.940673527,0.0,0.0,-0.49000000953674316,89.41000366210938,-90.58999633789062,1.00299072265625,-0.00726318359375,-0.01055908203125,35.16999816894531,0.0,0.0,-0.13458251953125,-0.1729888916015625,Waiting,0.0,0.0,-396138.0,0.0,0.0,0.0,0.0,0.0,
29.779888999999965,0.0,0.0,-15049.0,0.0,0.0,0.0,0.0,0.0,3.7854000030000003,0.0,0.0,-6806.0,0.0,0.0,-0.0,0.0,0.0,1.955566206,0.0,0.0,6970.0,0.0,0.0,0.0,0.0,0.0,4.91943309,0.0,0.0,-7163.0,0.0,0.0,-0.0,0.0,0.0,2.939452824,0.0,0.0,-0.49000000953674316,89.41000366210938,-90.58999633789062,1.00604248046875,-0.01019287109375,-0.00311279296875,35.18000030517578,0.0,0.0,-0.13458251953125,-0.1729888916015625,Waiting,0.0,0.0,-396138.0,0.0,0.0,0.0,0.0,0.0,
30.130642999999925,0.0,0.0,-15049.0,0.0,0.0,0.0,0.0,0.0,3.7854000030000003,0.0,0.0,-6806.0,0.0,0.0,-0.0,0.0,0.0,1.955566206,0.0,0.0,6970.0,0.0,0.0,0.0,0.0,0.0,4.916991684,0.0,0.0,-7163.0,0.0,0.0,-0.0,0.0,0.0,2.940673527,0.0,0.0,-0.49000000953674316,89.41000366210938,-90.58000183105469,1.0025634765625,-0.005859375,-0.0123291015625,35.18000030517578,0.0,0.0,-0.13458251953125,-0.1729888916015625,Waiting,0.0,0.0,-396138.0,0.0,0.0,0.0,0.0,0.0,
30.49291799999983,0.0,0.0,-15049.0,0.0,0.0,0.0,0.0,0.0,3.7854000030000003,0.0,0.0,-6806.0,0.0,0.0,-0.0,0.0,0.0,1.955566206,0.0,0.0,6970.0,0.0,0.0,0.0,0.0,0.0,4.91943309,0.0,0.0,-7163.0,0.0,0.0,-0.0,0.0,0.0,2.939452824,0.0,0.0,-0.47999998927116394,89.41999816894531,-90.58000183105469,1.00653076171875,-0.00396728515625,-0.014892578125,35.13999938964844,0.0,-1.0,-0.13458251953125,-0.1729888916015625,Waiting,0.0,0.0,-396138.0,0.0,0.0,0.0,0.0,0.0,
30.848280999999957,0.0,0.0,-15049.0,0.0,0.0,0.0,0.0,0.0,3.7854000030000003,0.0,0.0,-6806.0,0.0,0.0,-0.0,0.0,0.0,1.954345503,0.0,0.0,6970.0,0.0,0.0,0.0,0.0,0.0,4.916991684,0.0,0.0,-7163.0,0.0,0.0,-0.0,0.0,0.0,2.940673527,0.0,0.0,-0.47999998927116394,89.41999816894531,-90.58000183105469,1.00274658203125,-0.0064697265625,-0.00146484375,35.18000030517578,0.0,-3.0,-0.13458251953125,-0.1729888916015625,Waiting,0.0,0.0,-396138.0,0.0,0.0,0.0,0.0,0.0,
31.201734999999868,0.0,0.0,-15049.0,0.0,0.0,0.0,0.0,0.0,3.7854000030000003,0.0,0.0,-6806.0,0.0,0.0,-0.0,0.0,0.0,1.955566206,0.0,0.0,6970.0,0.0,0.0,0.0,0.0,0.0,4.9182123870000005,0.0,0.0,-7163.0,0.0,0.0,-0.0,0.0,0.0,2.939452824,0.0,0.0,-0.49000000953674316,89.41000366210938,-90.58000183105469,1.0042724609375,-0.01202392578125,-0.00872802734375,35.16999816894531,0.0,4.0,-0.13458251953125,-0.1729888916015625,Waiting,0.0,0.0,-396138.0,0.0,0.0,0.0,0.0,0.0,
31.555051999999908,0.0,0.0,-15049.0,0.0,0.0,0.0,0.0,0.0,3.7866207060000003,0.0,0.0,-6806.0,0.0,0.0,-0.0,0.0,0.0,1.955566206,0.0,0.0,6970.0,0.0,0.0,0.0,0.0,0.0,4.9182123870000005,0.0,0.0,-7163.0,0.0,0.0,-0.0,0.0,0.0,2.939452824,0.0,0.0,-0.5,89.41000366210938,-90.58999633789062,1.00445556640625,-0.00921630859375,-0.003173828125,35.16999816894531,0.0,0.0,-0.13458251953125,-0.1729888916015625,Waiting,0.0,0.0,-396138.0,0.0,0.0,0.0,0.0,0.0,
31.945978999999816,0.0,0.0,-15049.0,0.0,0.0,0.0,0.0,0.0,3.7866207060000003,0.0,0.0,-6806.0,0.0,0.0,-0.0,0.0,0.0,1.955566206,0.0,0.0,6970.0,0.0,0.0,0.0,0.0,0.0,4.91943309,0.0,0.0,-7163.0,0.0,0.0,-0.0,0.0,0.0,2.939452824,0.0,0.0,-0.5,89.41000366210938,-90.58999633789062,1.00482177734375,-0.00531005859375,-0.00445556640625,35.13999938964844,0.0,-3.0,-0.13458251953125,-0.1729888916015625,Waiting,0.0,0.0,-396138.0,0.0,0.0,0.0,0.0,0.0,
32.324095999999905,0.0,0.0,-15049.0,0.0,0.0,0.0,0.0,0.0,3.7866207060000003,0.0,0.0,-6806.0,0.0,0.0,-0.0,0.0,0.0,1.955566206,0.0,0.0,6970.0,0.0,0.0,0.0,0.0,0.0,4.91943309,0.0,0.0,-7163.0,0.0,0.0,-0.0,0.0,0.0,2.939452824,0.0,0.0,-0.49000000953674316,89.41999816894531,-90.58999633789062,1.00665283203125,-0.00885009765625,-0.00738525390625,35.18000030517578,0.0,0.0,-0.13458251953125,-0.1729888916015625,Waiting,0.0,0.0,-396138.0,0.0,0.0,0.0,0.0,0.0,
32.70773600000003,0.0,0.0,-15049.0,0.0,0.0,0.0,0.0,0.0,3.7866207060000003,0.0,0.0,-6806.0,0.0,0.0,-0.0,0.0,0.0,1.954345503,0.0,0.0,6970.0,0.0,0.0,0.0,0.0,0.0,4.916991684,0.0,0.0,-7163.0,0.0,0.0,-0.0,0.0,0.0,2.940673527,0.0,0.0,-0.49000000953674316,89.41999816894531,-90.58000183105469,1.00067138671875,-0.01019287109375,-0.00518798828125,35.209999084472656,0.0,1.0,-0.13458251953125,-0.1729888916015625,Waiting,0.0,0.0,-396138.0,0.0,0.0,0.0,0.0,0.0,
33.08861199999996,0.0,0.0,-15049.0,0.0,0.0,0.0,0.0,0.0,3.7866207060000003,0.0,0.0,-6806.0,0.0,0.0,-0.0,0.0,0.0,1.955566206,0.0,0.0,6970.0,0.0,0.0,0.0,0.0,0.0,4.9182123870000005,0.0,0.0,-7163.0,0.0,0.0,-0.0,0.0,0.0,2.940673527,0.0,0.0,-0.5,89.41999816894531,-90.58999633789062,1.00189208984375,-0.0040283203125,-0.00860595703125,35.209999084472656,0.0,-3.0,-0.13458251953125,-0.1729888916015625,Waiting,0.0,0.0,-396138.0,0.0,0.0,0.0,0.0,0.0,
33.456196,0.0,0.0,-15049.0,0.0,0.0,0.0,0.0,0.0,3.7854000030000003,0.0,0.0,-6806.0,0.0,0.0,-0.0,0.0,0.0,1.954345503,0.0,0.0,6970.0,0.0,0.0,0.0,0.0,0.0,4.9182123870000005,0.0,0.0,-7163.0,0.0,0.0,-0.0,0.0,0.0,2.939452824,0.0,0.0,-0.49000000953674316,89.41000366210938,-90.58999633789062,1.0040283203125,-0.00970458984375,-0.00128173828125,35.15999984741211,0.0,0.0,-0.13458251953125,-0.1729888916015625,Waiting,0.0,0.0,-396138.0,0.0,0.0,0.0,0.0,0.0,
33.81409999999986,0.0,0.0,-15049.0,0.0,0.0,0.0,0.0,0.0,3.7854000030000003,0.0,0.0,-6806.0,0.0,0.0,-0.0,0.0,0.0,1.955566206,0.0,0.0,6970.0,0.0,0.0,0.0,0.0,0.0,4.9157709810000005,0.0,0.0,-7163.0,0.0,0.0,-0.0,0.0,0.0,2.939452824,0.0,0.0,-0.5,89.41000366210938,-90.58999633789062,1.0068359375,-0.0084228515625,0.00128173828125,35.150001525878906,0.0,-2.0,-0.13458251953125,-0.1729888916015625,Waiting,0.0,0.0,-396138.0,0.0,0.0,0.0,0.0,0.0,
34.16973999999999,0.0,0.0,-15049.0,0.0,0.0,0.0,0.0,0.0,3.7854000030000003,0.0,0.0,-6806.0,0.0,0.0,-0.0,0.0,0.0,1.955566206,0.0,0.0,6970.0,0.0,0.0,0.0,0.0,0.0,4.9182123870000005,0.0,0.0,-7163.0,0.0,0.0,-0.0,0.0,0.0,2.939452824,0.0,0.0,-0.5099999904632568,89.4000015258789,-90.5999984741211,1.00360107421875,-0.01068115234375,-0.0020751953125,35.150001525878906,0.0,0.0,-0.13458251953125,-0.1729888916015625,Waiting,0.0,0.0,-396138.0,0.0,0.0,0.0,0.0,0.0,
34.52762999999989,0.0,0.0,-15049.0,0.0,0.0,0.0,0.0,0.0,3.7866207060000003,0.0,0.0,-6806.0,0.0,0.0,-0.0,0.0,0.0,1.955566206,0.0,0.0,6970.0,0.0,0.0,0.0,0.0,0.0,4.916991684,0.0,0.0,-7163.0,0.0,0.0,-0.0,0.0,0.0,2.939452824,0.0,0.0,-0.5,89.41999816894531,-90.58999633789062,0.9984130859375,-0.0062255859375,-0.00384521484375,35.15999984741211,0.0,-2.0,-0.13458251953125,-0.1729888916015625,Waiting,0.0,0.0,-396138.0,0.0,0.0,0.0,0.0,0.0,
34.883044999999925,0.0,0.0,-15049.0,0.0,0.0,0.0,0.0,0.0,3.7866207060000003,0.0,0.0,-6806.0,0.0,0.0,-0.0,0.0,0.0,1.955566206,0.0,0.0,6970.0,0.0,0.0,0.0,0.0,0.0,4.9157709810000005,0.0,0.0,-7163.0,0.0,0.0,-0.0,0.0,0.0,2.940673527,0.0,0.0,-0.5,89.41000366210938,-90.58999633789062,1.000732421875,-0.00885009765625,0.00457763671875,35.16999816894531,0.0,-2.0,-0.13458251953125,-0.1729888916015625,Waiting,0.0,0.0,-396138.0,0.0,0.0,0.0,0.0,0.0,
35.24234100000002,0.0,0.0,-15049.0,0.0,0.0,0.0,0.0,0.0,3.7854000030000003,0.0,0.0,-6806.0,0.0,0.0,-0.0,0.0,0.0,1.954345503,0.0,0.0,6970.0,0.0,0.0,0.0,0.0,0.0,4.9182123870000005,0.0,0.0,-7163.0,0.0,0.0,-0.0,0.0,0.0,2.940673527,0.0,0.0,-0.49000000953674316,89.41999816894531,-90.58999633789062,1.00054931640625,-0.0059814453125,-0.003173828125,35.16999816894531,0.0,-3.0,-0.13458251953125,-0.1729888916015625,Waiting,0.0,0.0,-396138.0,0.0,0.0,0.0,0.0,0.0,
35.6003879999998,0.0,0.0,-15049.0,0.0,0.0,0.0,0.0,0.0,3.7854000030000003,0.0,0.0,-6806.0,0.0,0.0,-0.0,0.0,0.0,1.955566206,0.0,0.0,6970.0,0.0,0.0,0.0,0.0,0.0,4.916991684,0.0,0.0,-7163.0,0.0,0.0,-0.0,0.0,0.0,2.940673527,0.0,0.0,-0.49000000953674316,89.41999816894531,-90.58000183105469,1.00164794921875,-0.00592041015625,-0.00848388671875,35.13999938964844,0.0,-1.0,-0.13458251953125,-0.1729888916015625,Waiting,0.0,0.0,-396138.0,0.0,0.0,0.0,0.0,0.0,
35.955457999999865,0.0,0.0,-15049.0,0.0,0.0,0.0,0.0,0.0,3.7854000030000003,0.0,0.0,-6806.0,0.0,0.0,-0.0,0.0,0.0,1.954345503,0.0,0.0,6970.0,0.0,0.0,0.0,0.0,0.0,4.916991684,0.0,0.0,-7163.0,0.0,0.0,-0.0,0.0,0.0,2.939452824,0.0,0.0,-0.47999998927116394,89.41999816894531,-90.56999969482422,1.0018310546875,-0.00482177734375,-0.0018310546875,35.16999816894531,0.0,-4.0,-0.13458251953125,-0.1729888916015625,Waiting,0.0,0.0,-396138.0,0.0,0.0,0.0,0.0,0.0,
36.31786499999999,0.0,0.0,-15049.0,0.0,0.0,0.0,0.0,0.0,3.7854000030000003,0.0,0.0,-6806.0,0.0,0.0,-0.0,0.0,0.0,1.954345503,0.0,0.0,6970.0,0.0,0.0,0.0,0.0,0.0,4.916991684,0.0,0.0,-7163.0,0.0,0.0,-0.0,0.0,0.0,2.938232121,0.0,0.0,-0.47999998927116394,89.41000366210938,-90.58000183105469,1.0047607421875,-0.003662109375,-0.0023193359375,35.13999938964844,0.0,-5.0,-0.13458251953125,-0.1729888916015625,Waiting,0.0,0.0,-396138.0,0.0,0.0,0.0,0.0,0.0,
36.67284999999986,0.0,0.0,-15049.0,0.0,0.0,0.0,0.0,0.0,3.7866207060000003,0.0,0.0,-6806.0,0.0,0.0,-0.0,0.0,0.0,1.955566206,0.0,0.0,6970.0,0.0,0.0,0.0,0.0,0.0,4.916991684,0.0,0.0,-7163.0,0.0,0.0,-0.0,0.0,0.0,2.940673527,0.0,0.0,-0.47999998927116394,89.41999816894531,-90.56999969482422,1.00140380859375,-0.00341796875,0.00897216796875,35.13999938964844,0.0,-9.0,-0.13458251953125,-0.1729888916015625,Waiting,0.0,0.0,-396138.0,0.0,0.0,0.0,0.0,0.0,
37.04283299999987,0.0,0.0,-15049.0,0.0,0.0,0.0,0.0,0.0,3.7854000030000003,0.0,0.0,-6806.0,0.0,0.0,-0.0,0.0,0.0,1.955566206,0.0,0.0,6970.0,0.0,0.0,0.0,0.0,0.0,4.9182123870000005,0.0,0.0,-7163.0,0.0,0.0,-0.0,0.0,0.0,2.939452824,0.0,0.0,-0.47999998927116394,89.41999816894531,-90.56999969482422,1.00469970703125,-0.0052490234375,-0.0103759765625,35.119998931884766,0.0,-1.0,-0.13458251953125,-0.1729888916015625,Waiting,0.0,0.0,-396138.0,0.0,0.0,0.0,0.0,0.0,
37.393939999999944,0.0,0.0,-15049.0,0.0,0.0,0.0,0.0,0.0,3.7854000030000003,0.0,0.0,-6806.0,0.0,0.0,-0.0,0.0,0.0,1.955566206,0.0,0.0,6970.0,0.0,0.0,0.0,0.0,0.0,4.916991684,0.0,0.0,-7163.0,0.0,0.0,-0.0,0.0,0.0,2.939452824,0.0,0.0,-0.47999998927116394,89.43000030517578,-90.58000183105469,1.00390625,-0.0076904296875,0.00323486328125,35.13999938964844,0.0,-3.0,-0.13458251953125,-0.1729888916015625,Waiting,0.0,0.0,-396138.0,0.0,0.0,0.0,0.0,0.0,
37.75015799999982,0.0,0.0,-15049.0,0.0,0.0,0.0,0.0,0.0,3.7854000030000003,0.0,0.0,-6806.0,0.0,0.0,-0.0,0.0,0.0,1.955566206,0.0,0.0,6970.0,0.0,0.0,0.0,0.0,0.0,4.916991684,0.0,0.0,-7163.0,0.0,0.0,-0.0,0.0,0.0,2.939452824,0.0,0.0,-0.47999998927116394,89.41999816894531,-90.58000183105469,1.0048828125,-0.00775146484375,-0.00543212890625,35.13999938964844,0.0,0.0,-0.13458251953125,-0.1729888916015625,Waiting,0.0,0.0,-396138.0,0.0,0.0,0.0,0.0,0.0,
38.10951799999992,0.0,0.0,-15049.0,0.0,0.0,0.0,0.0,0.0,3.7866207060000003,0.0,0.0,-6806.0,0.0,0.0,-0.0,0.0,0.0,1.955566206,0.0,0.0,6970.0,0.0,0.0,0.0,0.0,0.0,4.9182123870000005,0.0,0.0,-7163.0,0.0,0.0,-0.0,0.0,0.0,2.939452824,0.0,0.0,-0.47999998927116394,89.41999816894531,-90.58000183105469,1.00201416015625,-0.01226806640625,0.0023193359375,35.16999816894531,0.0,1.0,-0.13458251953125,-0.1729888916015625,Waiting,0.0,0.0,-396138.0,0.0,0.0,0.0,0.0,0.0,
38.46100099999993,0.0,0.0,-15049.0,0.0,0.0,0.0,0.0,0.0,3.7866207060000003,0.0,0.0,-6806.0,0.0,0.0,-0.0,0.0,0.0,1.955566206,0.0,0.0,6970.0,0.0,0.0,0.0,0.0,0.0,4.9182123870000005,0.0,0.0,-7163.0,0.0,0.0,-0.0,0.0,0.0,2.940673527,0.0,0.0,-0.49000000953674316,89.41000366210938,-90.58000183105469,1.00335693359375,-0.009521484375,-0.01007080078125,35.13999938964844,0.0,2.0,-0.13458251953125,-0.1729888916015625,Waiting,0.0,0.0,-396138.0,0.0,0.0,0.0,0.0,0.0,
38.815321,0.0,0.0,-15049.0,0.0,0.0,0.0,0.0,0.0,3.7854000030000003,0.0,0.0,-6806.0,0.0,0.0,-0.0,0.0,0.0,1.955566206,0.0,0.0,6970.0,0.0,0.0,0.0,0.0,0.0,4.916991684,0.0,0.0,-7163.0,0.0,0.0,-0.0,0.0,0.0,2.939452824,0.0,0.0,-0.49000000953674316,89.41000366210938,-90.58000183105469,0.99945068359375,-0.0072021484375,-0.0050048828125,35.13999938964844,0.0,-1.0,-0.13458251953125,-0.1729888916015625,Waiting,0.0,0.0,-396138.0,0.0,0.0,0.0,0.0,0.0,
39.17365299999993,0.0,0.0,-15049.0,0.0,0.0,0.0,0.0,0.0,3.7866207060000003,0.0,0.0,-6806.0,0.0,0.0,-0.0,0.0,0.0,1.954345503,0.0,0.0,6970.0,0.0,0.0,0.0,0.0,0.0,4.9157709810000005,0.0,0.0,-7163.0,0.0,0.0,-0.0,0.0,0.0,2.939452824,0.0,0.0,-0.4699999988079071,89.43000030517578,-90.55999755859375,0.99664306640625,-0.0089111328125,0.0045166015625,35.13999938964844,0.0,-2.0,-0.13458251953125,-0.1729888916015625,Waiting,0.0,0.0,-396138.0,0.0,0.0,0.0,0.0,0.0,
39.566316999999806,0.0,0.0,-15049.0,0.0,0.0,0.0,0.0,0.0,3.7854000030000003,0.0,0.0,-6806.0,0.0,0.0,-0.0,0.0,0.0,1.955566206,0.0,0.0,6970.0,0.0,0.0,0.0,0.0,0.0,4.9182123870000005,0.0,0.0,-7163.0,0.0,0.0,-0.0,0.0,0.0,2.940673527,0.0,0.0,-0.47999998927116394,89.43000030517578,-90.58000183105469,1.00372314453125,-0.01031494140625,-0.00341796875,35.150001525878906,0.0,1.0,-0.13458251953125,-0.1729888916015625,Waiting,0.0,0.0,-396138.0,0.0,0.0,0.0,0.0,0.0,
39.94738099999982,0.0,0.0,-15049.0,0.0,0.0,0.0,0.0,0.0,3.7854000030000003,0.0,0.0,-6806.0,0.0,0.0,-0.0,0.0,0.0,1.954345503,0.0,0.0,6970.0,0.0,0.0,0.0,0.0,0.0,4.9182123870000005,0.0,0.0,-7163.0,0.0,0.0,-0.0,0.0,0.0,2.939452824,0.0,0.0,-0.47999998927116394,89.41999816894531,-90.58000183105469,1.007080078125,-0.01068115234375,-0.00152587890625,35.16999816894531,0.0,0.0,-0.13458251953125,-0.1729888916015625,Waiting,0.0,0.0,-396138.0,0.0,0.0,0.0,0.0,0.0,
40.32252099999995,0.0,0.0,-15049.0,0.0,0.0,0.0,0.0,0.0,3.7866207060000003,0.0,0.0,-6806.0,0.0,0.0,-0.0,0.0,0.0,1.955566206,0.0,0.0,6970.0,0.0,0.0,0.0,0.0,0.0,4.91943309,0.0,0.0,-7163.0,0.0,0.0,-0.0,0.0,0.0,2.940673527,0.0,0.0,-0.47999998927116394,89.43000030517578,-90.58000183105469,1.00347900390625,-0.005126953125,0.0018310546875,35.18000030517578,0.0,-5.0,-0.13458251953125,-0.1729888916015625,Waiting,0.0,0.0,-396138.0,0.0,0.0,0.0,0.0,0.0,
40.709871999999976,0.0,0.0,-15049.0,0.0,0.0,0.0,0.0,0.0,3.7866207060000003,0.0,0.0,-6806.0,0.0,0.0,-0.0,0.0,0.0,1.955566206,0.0,0.0,6970.0,0.0,0.0,0.0,0.0,0.0,4.9182123870000005,0.0,0.0,-7163.0,0.0,0.0,-0.0,0.0,0.0,2.939452824,0.0,0.0,-0.4699999988079071,89.43000030517578,-90.56999969482422,0.99847412109375,-0.012939453125,-0.00299072265625,35.18000030517578,0.0,3.0,-0.13458251953125,-0.173004150390625,Waiting,0.0,0.0,-396138.0,0.0,0.0,0.0,0.0,0.0,
41.06077899999986,0.0,0.0,-15049.0,0.0,0.0,0.0,0.0,0.0,3.7854000030000003,0.0,0.0,-6806.0,0.0,0.0,-0.0,0.0,0.0,1.954345503,0.0,0.0,6970.0,0.0,0.0,0.0,0.0,0.0,4.9182123870000005,0.0,0.0,-7163.0,0.0,0.0,-0.0,0.0,0.0,2.939452824,0.0,0.0,-0.4699999988079071,89.43000030517578,-90.56999969482422,1.00115966796875,-0.00555419921875,-0.001953125,35.18000030517578,0.0,-3.0,-0.13458251953125,-0.173004150390625,Waiting,0.0,0.0,-396138.0,0.0,0.0,0.0,0.0,0.0,
41.41551799999992,0.0,0.0,-15049.0,0.0,0.0,0.0,0.0,0.0,3.7866207060000003,0.0,0.0,-6806.0,0.0,0.0,-0.0,0.0,0.0,1.955566206,0.0,0.0,6970.0,0.0,0.0,0.0,0.0,0.0,4.9182123870000005,0.0,0.0,-7163.0,0.0,0.0,-0.0,0.0,0.0,2.939452824,0.0,0.0,-0.4699999988079071,89.43000030517578,-90.56999969482422,1.00445556640625,3.0517578125E-4,-0.0145263671875,35.15999984741211,0.0,-5.0,-0.13458251953125,-0.173004150390625,Waiting,0.0,0.0,-396138.0,0.0,0.0,0.0,0.0,0.0,
41.77308599999989,0.0,0.0,-15049.0,0.0,0.0,0.0,0.0,0.0,3.7866207060000003,0.0,0.0,-6806.0,0.0,0.0,-0.0,0.0,0.0,1.955566206,0.0,0.0,6970.0,0.0,0.0,0.0,0.0,0.0,4.9182123870000005,0.0,0.0,-7163.0,0.0,0.0,-0.0,0.0,0.0,2.939452824,0.0,0.0,-0.4699999988079071,89.41999816894531,-90.56999969482422,1.00604248046875,-0.00201416015625,-0.0076904296875,35.15999984741211,0.0,-5.0,-0.13458251953125,-0.173004150390625,Waiting,0.0,0.0,-396138.0,0.0,0.0,0.0,0.0,0.0,
42.13456199999992,0.0,0.0,-15049.0,0.0,0.0,0.0,0.0,0.0,3.7866207060000003,0.0,0.0,-6806.0,0.0,0.0,-0.0,0.0,0.0,1.955566206,0.0,0.0,6970.0,0.0,0.0,0.0,0.0,0.0,4.916991684,0.0,0.0,-7163.0,0.0,0.0,-0.0,0.0,0.0,2.940673527,0.0,0.0,-0.47999998927116394,89.43000030517578,-90.56999969482422,1.003173828125,-0.00347900390625,-0.0037841796875,35.18000030517578,0.0,-5.0,-0.13458251953125,-0.173004150390625,Waiting,0.0,0.0,-396138.0,0.0,0.0,0.0,0.0,0.0,
42.49028399999999,0.0,0.0,-15049.0,0.0,0.0,0.0,0.0,0.0,3.7866207060000003,0.0,0.0,-6806.0,0.0,0.0,-0.0,0.0,0.0,1.955566206,0.0,0.0,6970.0,0.0,0.0,0.0,0.0,0.0,4.9182123870000005,0.0,0.0,-7163.0,0.0,0.0,-0.0,0.0,0.0,2.940673527,0.0,0.0,-0.47999998927116394,89.41999816894531,-90.58000183105469,1.0057373046875,-0.00445556640625,-0.00494384765625,35.189998626708984,0.0,-4.0,-0.13458251953125,-0.173004150390625,Waiting,0.0,0.0,-396138.0,0.0,0.0,0.0,0.0,0.0,
42.85112599999993,0.0,0.0,-15049.0,0.0,0.0,0.0,0.0,0.0,3.7854000030000003,0.0,0.0,-6806.0,0.0,0.0,-0.0,0.0,0.0,1.955566206,0.0,0.0,6970.0,0.0,0.0,0.0,0.0,0.0,4.9182123870000005,0.0,0.0,-7163.0,0.0,0.0,-0.0,0.0,0.0,2.939452824,0.0,0.0,-0.49000000953674316,89.41000366210938,-90.58000183105469,1.00225830078125,-0.00653076171875,7.32421875E-4,35.189998626708984,0.0,-3.0,-0.13458251953125,-0.173004150390625,Waiting,0.0,0.0,-396138.0,0.0,0.0,0.0,0.0,0.0,
43.21139199999999,0.0,0.0,-15049.0,0.0,0.0,0.0,0.0,0.0,3.7854000030000003,0.0,0.0,-6806.0,0.0,0.0,-0.0,0.0,0.0,1.954345503,0.0,0.0,6970.0,0.0,0.0,0.0,0.0,0.0,4.91943309,0.0,0.0,-7163.0,0.0,0.0,-0.0,0.0,0.0,2.940673527,0.0,0.0,-0.47999998927116394,89.41999816894531,-90.58000183105469,1.0040283203125,-0.00421142578125,-0.00445556640625,35.150001525878906,0.0,-4.0,-0.13458251953125,-0.173004150390625,Waiting,0.0,0.0,-396138.0,0.0,0.0,0.0,0.0,0.0,
43.56955899999989,0.0,0.0,-15049.0,0.0,0.0,0.0,0.0,0.0,3.7854000030000003,0.0,0.0,-6806.0,0.0,0.0,-0.0,0.0,0.0,1.954345503,0.0,0.0,6970.0,0.0,0.0,0.0,0.0,0.0,4.916991684,0.0,0.0,-7163.0,0.0,0.0,-0.0,0.0,0.0,2.939452824,0.0,0.0,-0.47999998927116394,89.41999816894531,-90.58000183105469,1.0006103515625,-0.00567626953125,-0.00323486328125,35.15999984741211,0.0,-3.0,-0.13458251953125,-0.173004150390625,Waiting,0.0,0.0,-396138.0,0.0,0.0,0.0,0.0,0.0,
43.92476599999983,0.0,0.0,-15049.0,0.0,0.0,0.0,0.0,0.0,3.7854000030000003,0.0,0.0,-6806.0,0.0,0.0,-0.0,0.0,0.0,1.955566206,0.0,0.0,6970.0,0.0,0.0,0.0,0.0,0.0,4.9182123870000005,0.0,0.0,-7163.0,0.0,0.0,-0.0,0.0,0.0,2.939452824,0.0,0.0,-0.4699999988079071,89.41999816894531,-90.58000183105469,0.9998779296875,-0.00830078125,-0.00579833984375,35.130001068115234,0.0,0.0,-0.13458251953125,-0.173004150390625,Waiting,0.0,0.0,-396138.0,0.0,0.0,0.0,0.0,0.0,
44.27910499999998,0.0,0.0,-15049.0,0.0,0.0,0.0,0.0,0.0,3.7854000030000003,0.0,0.0,-6806.0,0.0,0.0,-0.0,0.0,0.0,1.954345503,0.0,0.0,6970.0,0.0,0.0,0.0,0.0,0.0,4.9182123870000005,0.0,0.0,-7163.0,0.0,0.0,-0.0,0.0,0.0,2.939452824,0.0,0.0,-0.4699999988079071,89.41000366210938,-90.58000183105469,1.005126953125,-0.00201416015625,-0.0146484375,35.130001068115234,0.0,-3.0,-0.13458251953125,-0.173004150390625,Waiting,0.0,0.0,-396138.0,0.0,0.0,0.0,0.0,0.0,
44.64666299999994,0.0,0.0,-15049.0,0.0,0.0,0.0,0.0,0.0,3.7854000030000003,0.0,0.0,-6806.0,0.0,0.0,-0.0,0.0,0.0,1.955566206,0.0,0.0,6970.0,0.0,0.0,0.0,0.0,0.0,4.916991684,0.0,0.0,-7163.0,0.0,0.0,-0.0,0.0,0.0,2.939452824,0.0,0.0,-0.47999998927116394,89.41000366210938,-90.58000183105469,1.00311279296875,-0.0111083984375,-0.00225830078125,35.13999938964844,0.0,1.0,-0.13458251953125,-0.173004150390625,Waiting,0.0,0.0,-396138.0,0.0,0.0,0.0,0.0,0.0,
44.99816799999983,0.0,0.0,-15049.0,0.0,0.0,0.0,0.0,0.0,3.7866207060000003,0.0,0.0,-6806.0,0.0,0.0,-0.0,0.0,0.0,1.955566206,0.0,0.0,6970.0,0.0,0.0,0.0,0.0,0.0,4.916991684,0.0,0.0,-7163.0,0.0,0.0,-0.0,0.0,0.0,2.938232121,0.0,0.0,-0.49000000953674316,89.41000366210938,-90.58999633789062,1.0047607421875,-0.0120849609375,-0.00347900390625,35.13999938964844,0.0,2.0,-0.13458251953125,-0.173004150390625,Waiting,0.0,0.0,-396138.0,0.0,0.0,0.0,0.0,0.0,
45.35328799999994,0.0,0.0,-15049.0,0.0,0.0,0.0,0.0,0.0,3.7866207060000003,0.0,0.0,-6806.0,0.0,0.0,-0.0,0.0,0.0,1.954345503,0.0,0.0,6970.0,0.0,0.0,0.0,0.0,0.0,4.916991684,0.0,0.0,-7163.0,0.0,0.0,-0.0,0.0,0.0,2.939452824,0.0,0.0,-0.49000000953674316,89.4000015258789,-90.58999633789062,1.00457763671875,-0.008056640625,-0.00762939453125,35.13999938964844,0.0,0.0,-0.13458251953125,-0.173004150390625,Waiting,0.0,0.0,-396138.0,0.0,0.0,0.0,0.0,0.0,
45.71657299999986,0.0,0.0,-15049.0,0.0,0.0,0.0,0.0,0.0,3.7854000030000003,0.0,0.0,-6806.0,0.0,0.0,-0.0,0.0,0.0,1.954345503,0.0,0.0,6970.0,0.0,0.0,0.0,0.0,0.0,4.9182123870000005,0.0,0.0,-7163.0,0.0,0.0,-0.0,0.0,0.0,2.939452824,0.0,0.0,-0.49000000953674316,89.4000015258789,-90.58999633789062,1.0020751953125,-0.0103759765625,-0.0025634765625,35.13999938964844,0.0,0.0,-0.13458251953125,-0.173004150390625,Waiting,0.0,0.0,-396138.0,0.0,0.0,0.0,0.0,0.0,
46.072777,0.0,0.0,-15049.0,0.0,0.0,0.0,0.0,0.0,3.7866207060000003,0.0,0.0,-6806.0,0.0,0.0,-0.0,0.0,0.0,1.955566206,0.0,0.0,6970.0,0.0,0.0,0.0,0.0,0.0,4.9157709810000005,0.0,0.0,-7163.0,0.0,0.0,-0.0,0.0,0.0,2.939452824,0.0,0.0,-0.49000000953674316,89.4000015258789,-90.58999633789062,1.00335693359375,-0.00457763671875,-0.0067138671875,35.13999938964844,0.0,-3.0,-0.13458251953125,-0.173004150390625,Waiting,0.0,0.0,-396138.0,0.0,0.0,0.0,0.0,0.0,
46.43443399999989,0.0,0.0,-15049.0,0.0,0.0,0.0,0.0,0.0,3.7866207060000003,0.0,0.0,-6806.0,0.0,0.0,-0.0,0.0,0.0,1.955566206,0.0,0.0,6970.0,0.0,0.0,0.0,0.0,0.0,4.916991684,0.0,0.0,-7163.0,0.0,0.0,-0.0,0.0,0.0,2.939452824,0.0,0.0,-0.49000000953674316,89.41000366210938,-90.58999633789062,1.00469970703125,-0.0150146484375,0.0045166015625,35.13999938964844,0.0,3.0,-0.13458251953125,-0.1730499267578125,Waiting,0.0,0.0,-396138.0,0.0,0.0,0.0,0.0,0.0,
