Time,ClimberA1,ClimberA2,FRpos,FRCurrent,FRspeed,FRsetpoint,FRApos,FRACurrent,FREncpos,FREncSetpoint,FREncSpeed,FLpos,FLCurrent,FLspeed,FLsetpoint,FLApos,FLACurrent,FLEncpos,FLEncSetpoint,FLEncSpeed,BRpos,BRCurrent,BRspeed,BRsetpoint,BRApos,BRACurrent,BREncpos,BREncSetpoint,BREncSpeed,BLpos,BLCurrent,BLspeed,BLsetpoint,BLApos,BLACurrent,BLEncpos,BLEncSetpoint,BLEncSpeed,navx_Pitch,navx_Roll,navx_Yaw,navx_XAcc,navx_YAcc,navx_ZAcc,navx_Temp,navx_Bar,navx_Alt,navx_XDis,navx_YDis,GearPlacerState,ShootOutputV,ShootOutputCurrent,ShootEncPos,ShootEncVelocity,ShootSpeed,ShootSetpoint,CarouselSetpoint,CarouselCurrent,
0.16102000000001862,0.0,0.0,-50971.0,0.0,0.0,0.0,0.0,0.125,2.4816891990000003,3.6379292238889973,0.0,45055.0,0.0,0.0,0.0,0.0,0.0,3.293456694,1.3220637129277484,0.0,14589.0,0.0,0.0,0.0,0.0,0.0,3.542480106,3.6118770864347263,0.0,42011.0,0.0,0.0,0.0,0.0,0.0,4.216308162,1.3403619529398823,0.0,1.4299999475479126,-0.20999999344348907,0.0,-0.0045166015625,0.02667236328125,0.99810791015625,35.09000015258789,0.0,0.0,-1.9493255615234375,-1.10015869140625,Closing,0.0,0.0,-110162.0,0.0,0.0,0.0,0.0,0.0,
0.2508560000000289,0.0,0.0,-50971.0,0.0,0.0,0.0,0.0,0.125,2.4816891990000003,3.6379292238889973,0.0,45055.0,0.0,0.0,0.0,0.0,0.0,3.294677397,1.3220637129277484,0.0,14589.0,0.0,0.0,0.0,0.0,0.0,3.541259403,3.6118770864347263,0.0,42011.0,0.0,0.0,0.0,0.0,0.0,4.216308162,1.3403619529398823,0.0,1.440000057220459,-0.20000000298023224,0.0,-0.002685546875,0.0262451171875,1.0013427734375,35.09000015258789,0.0,0.0,-1.9493255615234375,-1.10015869140625,Closing,0.0,0.0,-110162.0,0.0,0.0,0.0,0.0,0.0,
0.3275219999999972,0.0,0.0,-50971.0,0.0,0.0,0.0,0.0,0.125,2.4816891990000003,3.6379292238889973,0.0,45055.0,0.0,0.0,0.0,0.0,0.0,3.293456694,1.3220637129277484,0.0,14589.0,0.0,0.0,0.0,0.0,0.0,3.541259403,3.6118770864347263,0.0,42011.0,0.0,0.0,0.0,0.0,0.0,4.215087459,1.3403619529398823,0.0,1.4299999475479126,-0.20999999344348907,0.0,-0.00506591796875,0.02606201171875,0.99554443359375,35.09000015258789,0.0,-1.0,-1.9493255615234375,-1.10015869140625,Closing,0.0,0.0,-110162.0,0.0,0.0,0.0,0.0,0.0,
0.39658900000003633,0.0,0.0,-50971.0,0.0,0.0,0.0,0.0,0.125,2.4804684960000003,3.6379292238889973,0.0,45055.0,0.0,0.0,0.0,0.0,0.0,3.293456694,1.3220637129277484,0.0,14589.0,0.0,0.0,0.0,0.0,0.0,3.541259403,3.6118770864347263,0.0,42011.0,0.0,0.0,0.0,0.0,0.0,4.216308162,1.3403619529398823,0.0,1.4299999475479126,-0.20999999344348907,0.0,-0.0040283203125,0.0255126953125,0.99713134765625,35.09000015258789,0.0,0.0,-1.9493255615234375,-1.10015869140625,Closing,0.0,0.0,-110162.0,0.0,0.0,0.0,0.0,0.0,
0.4722700000000186,0.0,0.0,-50971.0,0.0,0.0,0.0,0.0,0.125,2.4816891990000003,3.6379292238889973,0.0,45055.0,0.0,0.0,0.0,0.0,0.0,3.294677397,1.3220637129277484,0.0,14589.0,0.0,0.0,0.0,0.0,0.0,3.541259403,3.6118770864347263,0.0,42011.0,0.0,0.0,0.0,0.0,0.0,4.216308162,1.3403619529398823,0.0,1.4199999570846558,-0.20999999344348907,0.0,-0.00390625,0.02191162109375,0.99822998046875,35.060001373291016,0.0,0.0,-1.9493255615234375,-1.10015869140625,Closing,0.0,0.0,-110162.0,0.0,0.0,0.0,0.0,0.0,
0.5466220000000903,0.0,0.0,-50971.0,0.0,0.0,0.0,0.0,0.125,2.4804684960000003,3.6379292238889973,0.0,45055.0,0.0,0.0,0.0,0.0,0.0,3.293456694,1.3220637129277484,0.0,14589.0,0.0,0.0,0.0,0.0,0.0,3.542480106,3.6118770864347263,0.0,42011.0,0.0,0.0,0.0,0.0,0.0,4.215087459,1.3403619529398823,0.0,1.4199999570846558,-0.20000000298023224,0.0,-0.00494384765625,0.02362060546875,0.99688720703125,35.060001373291016,0.0,-1.0,-1.9493255615234375,-1.10015869140625,Closing,0.0,0.0,-110162.0,0.0,0.0,0.0,0.0,0.0,
0.6203320000000531,0.0,0.0,-50971.0,0.25,0.0,198.42519611120224,0.0,0.125,2.4816891990000003,3.722999999999999,0.0,45055.0,0.125,0.0,198.42519611120224,0.0,0.0,3.291015288,1.2372499999999984,0.0,14589.0,0.125,0.0,198.42519611120224,0.0,0.0,3.548583621,3.7154999999999982,0.0,42011.0,0.0,0.0,198.42519611120224,0.0,0.0,4.224853083,1.2368749999999984,0.0,1.4199999570846558,-0.20999999344348907,0.0,-0.00115966796875,0.02734375,1.000244140625,35.060001373291016,0.0,2.0,-1.9493255615234375,-1.10015869140625,Closing,0.0,0.0,-110162.0,0.0,0.0,0.0,0.0,0.0,
0.6922870000000112,0.0,0.0,-50971.0,0.25,0.0,148.8189049065113,0.0,0.125,2.4829099020000003,3.722999999999999,0.0,45055.0,0.125,75.0,148.8189049065113,0.0,0.0,3.2739254460000002,1.2372499999999984,0.0,14589.0,0.125,0.0,148.8189049065113,0.0,0.0,3.5852047110000003,3.7154999999999982,0.0,42011.0,0.125,0.0,148.8189049065113,0.0,0.0,4.196776914,1.2368749999999984,0.0,1.4199999570846558,-0.20999999344348907,0.0,0.00567626953125,0.01129150390625,1.0130615234375,35.060001373291016,0.0,9.0,-1.9493255615234375,-1.10015869140625,Closing,0.0,0.0,-110162.0,0.0,0.0,0.0,0.0,0.0,
0.7706650000000372,0.0,0.0,-50971.0,0.0,0.0,0.0,0.0,0.125,2.4865720110000002,3.722999999999999,0.0012207029999999897,45068.0,0.0,60.0,0.0,0.0,0.0,3.2556149010000004,1.2372499999999984,-0.024414059999999793,14589.0,0.0,0.0,0.0,0.0,0.0,3.6230465040000004,3.7154999999999982,0.04394530800000007,42011.0,0.0,0.0,0.0,0.0,0.0,4.178466369000001,1.2368749999999984,-0.019531247999999835,1.4299999475479126,-0.2199999988079071,0.009999999776482582,-0.00189208984375,0.02874755859375,0.99945068359375,35.060001373291016,0.0,1.0,-1.9493255615234375,-1.10015869140625,Closing,0.0,0.0,-110162.0,0.0,0.0,0.0,0.0,0.0,
0.8471199999999953,0.0,0.0,-50971.0,0.0,0.0,0.0,0.0,0.125,2.491454823,3.722999999999999,0.0,45068.0,0.0,0.0,0.0,0.0,0.0,3.254394198,1.2372499999999984,0.0,14589.0,0.0,0.0,0.0,0.0,0.0,3.6230465040000004,3.7154999999999982,0.0,42011.0,0.0,0.0,0.0,0.0,0.0,4.182128478,1.2368749999999984,0.0,1.4299999475479126,-0.20999999344348907,0.009999999776482582,0.00103759765625,0.0234375,0.992919921875,35.060001373291016,0.0,4.0,-1.9493255615234375,-1.10015869140625,Closing,0.0,0.0,-110162.0,0.0,0.0,0.0,0.0,0.0,
0.9272140000000363,0.0,0.0,-50971.0,5.125,105.0,1091.338562965393,0.0,0.125,2.509765368,3.722999999999999,0.0,45068.0,6.0,37.5,1091.338562965393,0.0,0.0,3.250732089,1.2372499999999984,0.0,14589.0,5.0,67.5,1091.338562965393,0.0,0.0,3.614501583,3.7154999999999982,0.0,42011.0,3.375,45.0,1091.338562965393,0.0,0.0,4.173583557000001,1.2368749999999984,0.0,1.0700000524520874,-0.1899999976158142,0.05999999865889549,-0.07196044921875,-0.33428955078125,0.92572021484375,35.11000061035156,0.0,-69.0,-1.9490814208984375,-1.1009979248046875,Closing,0.0,0.0,-110162.0,0.0,0.0,0.0,0.0,0.0,
0.996844000000041,0.0,0.0,-50935.0,18.875,330.0,1918.1101977825165,0.0,0.125,2.4877927140000002,3.722999999999999,0.0,45083.0,20.125,240.0,1918.1101977825165,0.0,0.0,3.245849277,1.2372499999999984,0.0,14611.0,21.75,240.0,1918.1101977825165,0.0,0.0,3.61328088,3.7154999999999982,0.0,42030.0,24.25,225.0,1918.1101977825165,0.0,0.0,4.171142151000001,1.2368749999999984,0.0,0.029999999329447746,-0.25999999046325684,0.5299999713897705,0.0506591796875,-0.39013671875,0.84832763671875,35.11000061035156,0.0,50.0,-1.94866943359375,-1.1102447509765625,Closing,0.0,0.0,-110162.0,0.0,0.0,0.0,0.0,0.0,
1.07664300000004,0.0,0.0,-50813.0,26.0,690.0,2100.0,0.0,0.125,2.498779041,3.722999999999999,0.0,45186.0,32.5,547.5,2100.0,0.0,0.0,3.245849277,1.2372499999999984,0.0,14700.0,30.25,487.5,2100.0,0.0,0.0,3.615722286,3.7154999999999982,0.0,42110.0,34.625,412.5,2100.0,0.0,0.0,4.171142151000001,1.2368749999999984,0.0,-1.4199999570846558,-0.3400000035762787,1.2200000286102295,-0.01690673828125,-0.40484619140625,0.8974609375,35.11000061035156,0.0,-19.0,-1.94970703125,-1.1345062255859375,Closing,0.0,0.0,-110162.0,0.0,0.0,0.0,0.0,0.0,
1.1510880000001051,0.0,0.0,-50813.0,17.375,1140.0,1818.8976466655731,0.0,0.125,2.4877927140000002,3.722999999999999,0.0,45186.0,23.5,1080.0,1818.8976466655731,0.0,0.0,3.244628574,1.2372499999999984,0.0,14700.0,23.875,975.0,1818.8976466655731,0.0,0.0,3.599853147,3.7154999999999982,0.0,42110.0,31.75,877.5,1818.8976466655731,0.0,0.0,4.163817933,1.2368749999999984,0.0,-2.4600000381469727,-0.4000000059604645,2.2699999809265137,-0.0587158203125,-0.18707275390625,0.8917236328125,35.11000061035156,0.0,-58.0,-1.9523468017578125,-1.171478271484375,Closing,0.0,0.0,-110162.0,0.0,0.0,0.0,0.0,0.0,
1.2287179999999935,0.0,0.0,-50591.0,10.875,1417.5,1521.259868144989,0.0,0.125,2.492675526,3.722999999999999,0.0,45400.0,14.25,1395.0,1521.259868144989,0.0,0.0,3.244628574,1.2372499999999984,0.0,14897.0,17.0,1245.0,1521.259868144989,0.0,0.0,3.614501583,3.7154999999999982,0.0,42288.0,22.25,1170.0,1521.259868144989,0.0,0.0,4.16259723,1.2368749999999984,0.0,-3.0899999141693115,-0.4699999988079071,3.559999942779541,-0.1307373046875,-0.2139892578125,1.036376953125,35.11000061035156,0.0,-131.0,-1.957183837890625,-1.214263916015625,Closing,0.0,0.0,-110162.0,0.0,0.0,0.0,0.0,0.0,
1.3031520000000019,0.0,0.0,-50344.0,1.875,1575.0,843.3070600032806,0.0,0.125,2.492675526,3.722999999999999,0.0,45647.0,2.0,1575.0,843.3070600032806,0.0,0.0,3.242187168,1.2372499999999984,0.0,15117.0,5.375,1387.5,843.3070600032806,0.0,0.0,3.61328088,3.7154999999999982,0.0,42516.0,7.75,1402.5,843.3070600032806,0.0,0.0,4.163817933,1.2368749999999984,0.0,-3.140000104904175,-0.6499999761581421,4.889999866485596,-0.0816650390625,0.03057861328125,1.24005126953125,35.11000061035156,0.0,-58.0,-1.9640350341796875,-1.2601165771484375,Closing,0.0,0.0,-110162.0,0.0,0.0,0.0,0.0,0.0,
1.3798990000000921,0.0,0.0,-50344.0,0.0,1395.0,0.0,0.0,0.125,2.454833733,3.722999999999999,0.0,45647.0,0.0,1432.5,0.0,0.0,0.0,3.244628574,1.2372499999999984,0.0,15117.0,0.0,1245.0,0.0,0.0,0.0,3.6242672070000004,3.7154999999999982,0.0,42516.0,0.0,1245.0,0.0,0.0,0.0,4.16259723,1.2368749999999984,0.0,-2.380000114440918,-0.6700000166893005,6.730000019073486,0.14337158203125,0.2774658203125,1.0240478515625,35.11000061035156,0.0,191.0,-1.975494384765625,-1.3177947998046875,Closing,0.0,0.0,-110162.0,0.0,0.0,0.0,0.0,0.0,
1.4717100000000791,0.0,0.0,-50112.0,0.0,1500.0,0.0,0.0,0.125,2.491454823,3.722999999999999,0.0,45882.0,0.0,1485.0,0.0,0.0,0.0,3.244628574,1.2372499999999984,-0.0012207029999999897,15304.0,0.0,1125.0,0.0,0.0,0.0,3.6279293160000003,3.7154999999999982,0.008544921000000372,42712.0,0.0,1207.5,0.0,0.0,0.0,4.16259723,1.2368749999999984,0.0012207030000004337,-1.909999966621399,-0.7200000286102295,7.849999904632568,-0.10772705078125,0.13690185546875,1.11834716796875,35.040000915527344,0.0,-68.0,-1.978546142578125,-1.3436737060546875,Closing,0.0,0.0,-110162.0,0.0,0.0,0.0,0.0,0.0,
1.545350000000093,0.0,0.0,-49894.0,0.0,1395.0,0.0,0.0,0.125,2.492675526,3.722999999999999,0.0,46108.0,0.0,1447.5,0.0,0.0,0.0,3.245849277,1.2372499999999984,0.0,15492.0,0.0,1185.0,0.0,0.0,0.0,3.6267086130000004,3.7154999999999982,0.0,42900.0,0.0,1177.5,0.0,0.0,0.0,4.161376527,1.2368749999999984,0.0,-1.409999966621399,-0.7400000095367432,9.039999961853027,-0.0035400390625,0.16986083984375,1.19171142578125,35.040000915527344,0.0,43.0,-1.9784393310546875,-1.3716888427734375,Closing,0.0,0.0,-110162.0,0.0,0.0,0.0,0.0,0.0,
1.6210659999999917,0.0,0.0,-49894.0,0.0,1297.5,0.0,0.0,0.125,2.492675526,3.722999999999999,0.0,46108.0,0.0,1342.5,0.0,0.0,0.0,3.245849277,1.2372499999999984,-0.0012207029999999897,15492.0,0.0,1102.5,0.0,0.0,0.0,3.6279293160000003,3.7154999999999982,0.0,42900.0,0.0,1125.0,0.0,0.0,0.0,4.16259723,1.2368749999999984,0.0,-0.8500000238418579,-0.7900000214576721,10.289999961853027,-0.0269775390625,0.0638427734375,1.08538818359375,35.040000915527344,0.0,2.0,-1.978271484375,-1.3974761962890625,Closing,0.0,0.0,-110162.0,0.0,0.0,0.0,0.0,0.0,
1.694756000000052,0.0,0.0,-49700.0,0.0,1222.5,0.0,0.0,0.125,2.49023412,3.722999999999999,0.0,46305.0,0.0,1237.5,0.0,0.0,0.0,3.244628574,1.2372499999999984,0.0,15660.0,0.0,1027.5,0.0,0.0,0.0,3.6279293160000003,3.7154999999999982,0.0,43069.0,0.0,1027.5,0.0,0.0,0.0,4.157714418,1.2368749999999984,0.0,-0.41999998688697815,-0.7799999713897705,11.25,0.02081298828125,0.11474609375,1.01953125,35.040000915527344,0.0,57.0,-1.9773712158203125,-1.413421630859375,Closing,0.0,0.0,-110162.0,0.0,0.0,0.0,0.0,0.0,
1.773177000000025,0.0,0.0,-49700.0,13.25,1027.5,-360.9375,0.0,0.125,2.497558338,3.723000000000002,0.0,46305.0,10.0,1020.0,-360.9375,0.0,0.0,3.253173495,1.237250000000001,0.0,15660.0,9.375,870.0,-360.9375,0.0,0.0,3.6340328310000003,3.7155000000000014,0.0,43069.0,6.875,900.0,-360.9375,0.0,0.0,4.173583557000001,1.236875000000001,0.0,1.0199999809265137,-0.6399999856948853,11.869999885559082,0.120849609375,0.67724609375,1.31817626953125,35.040000915527344,0.0,267.0,-1.9751739501953125,-1.42034912109375,Closing,0.0,0.0,-110162.0,0.0,0.0,0.0,0.0,0.0,
1.8482900000000373,0.0,0.0,-49584.0,20.25,300.0,-623.4375,0.0,0.125,2.508544665,3.723000000000002,0.0,46388.0,9.25,-217.5,-623.4375,0.0,0.0,3.244628574,1.237250000000001,0.0,15770.0,16.75,405.0,-623.4375,0.0,0.0,3.6340328310000003,3.7155000000000014,0.0,43174.0,15.125,307.5,-623.4375,0.0,0.0,4.157714418,1.236875000000001,0.0,3.4800000190734863,-0.5699999928474426,12.180000305175781,0.1265869140625,1.03314208984375,1.85101318359375,35.040000915527344,0.0,336.0,-1.9666595458984375,-1.4081268310546875,Closing,0.0,0.0,-110162.0,0.0,0.0,0.0,0.0,0.0,
1.927405000000028,0.0,0.0,-49594.0,14.875,22.5,-639.84375,0.0,0.125,2.51464818,3.723000000000002,0.0,46330.0,4.625,-345.0,-639.84375,0.0,0.0,3.245849277,1.237250000000001,0.0,15763.0,14.625,-82.5,-639.84375,0.0,0.0,3.6425777520000002,3.7155000000000014,0.0,43164.0,11.5,-90.0,-639.84375,0.0,0.0,4.157714418,1.236875000000001,0.0,4.670000076293945,-0.550000011920929,12.020000457763672,-0.05712890625,0.41485595703125,1.57733154296875,35.040000915527344,0.0,18.0,-1.9542999267578125,-1.3769073486328125,Closing,0.0,0.0,-110162.0,0.0,0.0,0.0,0.0,0.0,
2.000178000000073,0.0,0.0,-49594.0,8.125,-397.5,-459.375,0.0,0.125,2.5268552100000004,3.723000000000002,0.0,46330.0,3.875,-397.5,-459.375,0.0,0.0,3.245849277,1.237250000000001,0.0,15763.0,8.125,-397.5,-459.375,0.0,0.0,3.647460564,3.7155000000000014,0.0,43164.0,6.25,-375.0,-459.375,0.0,0.0,4.156493715,1.236875000000001,0.0,5.019999980926514,-0.5400000214576721,11.6899995803833,-0.07489013671875,0.17547607421875,0.995849609375,34.95000076293945,0.0,-46.0,-1.953765869140625,-1.3379974365234375,Closing,0.0,0.0,-110162.0,0.0,0.0,0.0,0.0,0.0,
2.0759430000000867,0.0,0.0,-49682.0,4.125,-585.0,-410.15625,0.0,0.125,2.5268552100000004,3.723000000000002,0.0,46241.0,1.625,-577.5,-410.15625,0.0,0.0,3.244628574,1.237250000000001,0.0,15681.0,3.75,-555.0,-410.15625,0.0,0.0,3.648681267,3.7155000000000014,0.0,43085.0,2.875,-525.0,-410.15625,0.0,0.0,4.146728091,1.236875000000001,0.0,5.059999942779541,-0.550000011920929,11.239999771118164,-0.00164794921875,0.0802001953125,1.0137939453125,34.95000076293945,0.0,6.0,-1.953704833984375,-1.296295166015625,Closing,0.0,0.0,-110162.0,0.0,0.0,0.0,0.0,0.0,
2.150852000000072,0.0,0.0,-49787.0,2.0,-637.5,-410.15625,0.0,0.125,2.5280759130000003,3.723000000000002,0.0,46145.0,0.25,-615.0,-410.15625,0.0,0.0,3.245849277,1.237250000000001,0.0,15582.0,2.5,-607.5,-410.15625,0.0,0.0,3.6425777520000002,3.7155000000000014,0.0,42989.0,1.75,-585.0,-410.15625,0.0,0.0,4.156493715,1.236875000000001,0.0,4.900000095367432,-0.47999998927116394,10.920000076293945,-0.00384521484375,-0.0255126953125,0.888427734375,34.95000076293945,0.0,-15.0,-1.9539947509765625,-1.271575927734375,Closing,0.0,0.0,-110162.0,0.0,0.0,0.0,0.0,0.0,
2.2289980000000216,0.0,0.0,-49787.0,1.0,-667.5,-410.15625,0.0,0.125,2.5280759130000003,3.723000000000002,0.0,46145.0,0.25,-532.5,-410.15625,0.0,0.0,3.244628574,1.237250000000001,0.0,15582.0,1.75,-615.0,-410.15625,0.0,0.0,3.647460564,3.7155000000000014,0.0,42989.0,1.125,-585.0,-410.15625,0.0,0.0,4.154052309,1.236875000000001,0.0,4.590000152587891,-0.4399999976158142,10.529999732971191,-0.01434326171875,-0.018798828125,0.9793701171875,34.95000076293945,0.0,-24.0,-1.954254150390625,-1.273284912109375,Closing,0.0,0.0,-110162.0,0.0,0.0,0.0,0.0,0.0,
2.2973880000000353,0.0,0.0,-49892.0,0.75,-652.5,-410.15625,0.0,0.125,2.5366208340000003,3.723000000000002,0.0,46053.0,0.125,-585.0,-410.15625,0.0,0.0,3.245849277,1.237250000000001,0.0,15486.0,1.25,-585.0,-410.15625,0.0,0.0,3.660888297,3.7155000000000014,0.0,42895.0,0.875,-592.5,-410.15625,0.0,0.0,4.157714418,1.236875000000001,0.0,4.25,-0.38999998569488525,10.15999984741211,-0.0443115234375,-0.0145263671875,1.0665283203125,34.95000076293945,0.0,-53.0,-1.9554290771484375,-1.279144287109375,Closing,0.0,0.0,-110162.0,0.0,0.0,0.0,0.0,0.0,
2.376033000000054,0.0,0.0,-49892.0,0.375,-615.0,-410.15625,0.0,0.0,2.5305173190000003,3.723000000000002,0.0,46053.0,0.125,-600.0,-410.15625,0.0,0.0,3.245849277,1.237250000000001,0.0,15486.0,1.25,-570.0,-410.15625,0.0,0.0,3.647460564,3.7155000000000014,0.0,42811.0,0.625,-562.5,-410.15625,0.0,0.0,4.157714418,1.236875000000001,0.0,4.010000228881836,-0.3400000035762787,9.90999984741211,-0.00164794921875,-0.10125732421875,1.00115966796875,34.95000076293945,0.0,-25.0,-1.9561767578125,-1.285400390625,Closing,0.0,0.0,-110162.0,0.0,0.0,0.0,0.0,0.0,
2.4487060000000054,0.0,0.0,-49988.0,0.375,-577.5,-410.15625,0.0,0.125,2.5268552100000004,3.723000000000002,0.0,45959.0,0.125,-562.5,-410.15625,0.0,0.0,3.245849277,1.237250000000001,0.0,15397.0,1.0,-525.0,-410.15625,0.0,0.0,3.647460564,3.7155000000000014,0.0,42811.0,1.0,-457.5,-410.15625,0.0,0.0,4.157714418,1.236875000000001,0.0,3.6500000953674316,-0.33000001311302185,9.609999656677246,-0.09246826171875,0.02154541015625,1.1494140625,34.95000076293945,0.0,-93.0,-1.9562835693359375,-1.2986907958984375,Closing,0.0,0.0,-110162.0,0.0,0.0,0.0,0.0,0.0,
2.525319000000018,0.0,0.0,-50075.0,0.375,-547.5,-410.15625,0.0,0.125,2.5280759130000003,3.723000000000002,0.0,45877.0,0.125,-510.0,-410.15625,0.0,0.0,3.244628574,1.237250000000001,0.0,15316.0,1.25,-502.5,-410.15625,0.0,0.0,3.6242672070000004,3.7155000000000014,0.0,42734.0,0.875,-472.5,-410.15625,0.0,0.0,4.156493715,1.236875000000001,0.0,3.3399999141693115,-0.25999999046325684,9.40999984741211,0.0078125,-0.05596923828125,1.05047607421875,34.95000076293945,0.0,-6.0,-1.9566650390625,-1.3128204345703125,Closing,0.0,0.0,-110162.0,0.0,0.0,0.0,0.0,0.0,
2.5957350000001025,0.0,0.0,-50075.0,0.875,-502.5,-541.40625,0.0,0.0,2.5280759130000003,3.723000000000002,0.0,45877.0,0.125,-480.0,-541.40625,0.0,0.0,3.245849277,1.237250000000001,0.0,15316.0,1.875,-472.5,-541.40625,0.0,0.0,3.647460564,3.7155000000000014,0.0,42734.0,1.125,-510.0,-541.40625,0.0,0.0,4.157714418,1.236875000000001,0.0,3.1500000953674316,-0.20999999344348907,9.199999809265137,-0.013427734375,-0.0091552734375,1.07635498046875,34.95000076293945,0.0,-20.0,-1.9566802978515625,-1.326080322265625,Closing,0.0,0.0,-110162.0,0.0,0.0,0.0,0.0,0.0,
2.672052000000025,0.0,0.0,-50153.0,2.125,-487.5,-639.84375,0.0,0.125,2.5280759130000003,3.723000000000002,0.0,45803.0,0.625,-457.5,-639.84375,0.0,0.0,3.244628574,1.237250000000001,0.0,15243.0,3.375,-450.0,-639.84375,0.0,0.0,3.647460564,3.7155000000000014,0.0,42657.0,2.125,-472.5,-639.84375,0.0,0.0,4.158935121,1.236875000000001,0.0,3.049999952316284,-0.27000001072883606,8.979999542236328,-0.0201416015625,0.0513916015625,1.022216796875,34.95000076293945,0.0,-15.0,-1.956939697265625,-1.3330230712890625,Closing,0.0,0.0,-110162.0,0.0,0.0,0.0,0.0,0.0,
2.749898000000045,0.0,0.0,-50237.0,3.125,-510.0,-705.46875,0.0,0.125,2.51464818,3.723000000000002,0.0,45724.0,1.875,-480.0,-705.46875,0.0,0.0,3.245849277,1.237250000000001,0.0,15169.0,4.75,-457.5,-705.46875,0.0,0.0,3.647460564,3.7155000000000014,0.0,42582.0,3.375,-457.5,-705.46875,0.0,0.0,4.157714418,1.236875000000001,0.0,3.0999999046325684,-0.23999999463558197,8.779999732971191,-0.03955078125,0.177978515625,1.0399169921875,34.95000076293945,0.0,-16.0,-1.95721435546875,-1.3321380615234375,Closing,0.0,0.0,-110162.0,0.0,0.0,0.0,0.0,0.0,
2.831707000000053,0.0,0.0,-50237.0,3.625,-540.0,-721.875,0.0,0.0,2.5329587250000003,3.723000000000002,0.0,45724.0,2.0,-555.0,-721.875,0.0,0.0,3.236083653,1.237250000000001,0.0,15169.0,5.375,-510.0,-721.875,0.0,0.0,3.647460564,3.7155000000000014,0.0,42582.0,4.0,-510.0,-721.875,0.0,0.0,4.158935121,1.236875000000001,0.0,3.2100000381469727,-0.23000000417232513,8.609999656677246,-0.0264892578125,0.07135009765625,1.05181884765625,34.95000076293945,0.0,-20.0,-1.95758056640625,-1.330780029296875,Closing,0.0,0.0,-110162.0,0.0,0.0,0.0,0.0,0.0,
2.909085000000079,0.0,0.0,-50331.0,3.375,-607.5,-738.28125,0.0,0.0,2.5317380220000003,3.723000000000002,0.0,45631.0,1.875,-585.0,-738.28125,0.0,0.0,3.244628574,1.237250000000001,0.0,15079.0,5.375,-592.5,-738.28125,0.0,0.0,3.647460564,3.7155000000000014,0.0,42496.0,4.125,-562.5,-738.28125,0.0,0.0,4.173583557000001,1.236875000000001,0.0,3.3399999141693115,-0.1899999976158142,8.300000190734863,0.03558349609375,0.06640625,0.9478759765625,34.95000076293945,0.0,40.0,-1.9575653076171875,-1.3263397216796875,Closing,0.0,0.0,-110162.0,0.0,0.0,0.0,0.0,0.0,
2.9887800000000277,0.0,0.0,-50445.0,3.25,-682.5,-787.5,0.0,0.0,2.5317380220000003,3.723000000000002,0.0,45516.0,1.875,-682.5,-787.5,0.0,0.0,3.245849277,1.237250000000001,0.0,14974.0,5.375,-645.0,-787.5,0.0,0.0,3.645019158,3.7155000000000014,0.0,42393.0,4.5,-615.0,-787.5,0.0,0.0,4.156493715,1.236875000000001,0.0,3.4100000858306885,-0.23999999463558197,8.029999732971191,0.03387451171875,0.0389404296875,0.88519287109375,34.90999984741211,0.0,35.0,-1.9571990966796875,-1.3221435546875,Closing,0.0,0.0,-110162.0,0.0,0.0,0.0,0.0,0.0,
3.070570999999996,0.0,0.0,-50445.0,5.125,-757.5,-1099.21875,0.0,0.0,2.5317380220000003,3.723000000000002,0.0,45516.0,3.125,-795.0,-1099.21875,0.0,0.0,3.244628574,1.237250000000001,0.0,14974.0,8.0,-712.5,-1099.21875,0.0,0.0,3.64990197,3.7155000000000014,0.0,42393.0,6.75,-690.0,-1099.21875,0.0,0.0,4.157714418,1.236875000000001,0.0,3.609999895095825,-0.20999999344348907,7.650000095367432,-0.03643798828125,0.1636962890625,1.01983642578125,34.90999984741211,0.0,-19.0,-1.957000732421875,-1.322265625,Closing,0.0,0.0,-110162.0,0.0,0.0,0.0,0.0,0.0,
3.1485709999999965,0.0,0.0,-50578.0,5.75,-862.5,-1115.625,0.0,0.0,2.5268552100000004,3.723000000000002,0.0,45379.0,3.875,-870.0,-1115.625,0.0,0.0,3.245849277,1.237250000000001,0.0,14847.0,9.0,-832.5,-1115.625,0.0,0.0,3.648681267,3.7155000000000014,0.0,42271.0,8.125,-795.0,-1115.625,0.0,0.0,4.157714418,1.236875000000001,0.0,3.9200000762939453,-0.23000000417232513,7.28000020980835,-0.0787353515625,0.2449951171875,0.98956298828125,34.90999984741211,0.0,-51.0,-1.95635986328125,-1.31988525390625,Closing,0.0,0.0,-110162.0,0.0,0.0,0.0,0.0,0.0,
3.2293870000001044,0.0,0.0,-50739.0,5.125,-960.0,-1115.625,0.0,0.0,2.5317380220000003,3.723000000000002,0.0,45225.0,3.75,-907.5,-1115.625,0.0,0.0,3.244628574,1.237250000000001,0.0,14692.0,8.125,-960.0,-1115.625,0.0,0.0,3.647460564,3.7155000000000014,0.0,42123.0,7.5,-907.5,-1115.625,0.0,0.0,4.152831606,1.236875000000001,0.0,4.190000057220459,-0.25999999046325684,6.900000095367432,0.0438232421875,0.2015380859375,0.8753662109375,34.90999984741211,0.0,64.0,-1.95538330078125,-1.314666748046875,Closing,0.0,0.0,-110162.0,0.0,0.0,0.0,0.0,0.0,
3.3073810000000523,0.0,0.0,-50739.0,4.0,-1072.5,-1115.625,0.0,0.0,2.5329587250000003,3.723000000000002,0.0,45225.0,3.25,-1027.5,-1115.625,0.0,0.0,3.245849277,1.237250000000001,0.0,14692.0,7.125,-1035.0,-1115.625,0.0,0.0,3.648681267,3.7155000000000014,0.0,42123.0,6.625,-1020.0,-1115.625,0.0,0.0,4.154052309,1.236875000000001,0.0,4.369999885559082,-0.25999999046325684,6.389999866485596,-0.03216552734375,0.07879638671875,0.86114501953125,34.90999984741211,0.0,-26.0,-1.9534759521484375,-1.306793212890625,Closing,0.0,0.0,-110162.0,0.0,0.0,0.0,0.0,0.0,
3.388689000000013,0.0,0.0,-50919.0,3.125,-1132.5,-1115.625,0.0,0.0,2.5317380220000003,3.723000000000002,0.0,45050.0,2.5,-1095.0,-1115.625,0.0,0.0,3.244628574,1.237250000000001,0.0,14517.0,6.375,-1102.5,-1115.625,0.0,0.0,3.647460564,3.7155000000000014,0.0,41953.0,6.0,-1072.5,-1115.625,0.0,0.0,4.160155824,1.236875000000001,0.0,4.380000114440918,-0.1899999976158142,5.920000076293945,-0.05487060546875,-0.0267333984375,1.0269775390625,34.90999984741211,0.0,-62.0,-1.9515533447265625,-1.307159423828125,Closing,0.0,0.0,-110162.0,0.0,0.0,0.0,0.0,0.0,
3.4714949999999956,0.0,0.0,-51111.0,2.25,-1192.5,-1115.625,0.0,0.0,2.5329587250000003,3.723000000000002,0.0,44878.0,2.5,-1087.5,-1115.625,0.0,0.0,3.248290683,1.237250000000001,0.0,14332.0,5.625,-1147.5,-1115.625,0.0,0.0,3.648681267,3.7155000000000014,0.0,41772.0,5.25,-1117.5,-1115.625,0.0,0.0,4.158935121,1.236875000000001,0.0,4.360000133514404,-0.25999999046325684,5.309999942779541,-0.00299072265625,0.0997314453125,1.11968994140625,34.95000076293945,0.0,3.0,-1.9486083984375,-1.30865478515625,Closing,0.0,0.0,-110162.0,0.0,0.0,0.0,0.0,0.0,
3.5501780000000727,0.0,0.0,-51111.0,0.25,-1132.5,-147.65625,0.0,0.0,2.5305173190000003,3.723000000000002,0.0,44878.0,0.125,-1065.0,-147.65625,0.0,0.0,3.245849277,1.237250000000001,0.0,14332.0,1.125,-1102.5,-147.65625,0.0,0.0,3.647460564,3.7155000000000014,0.0,41772.0,1.625,-1110.0,-147.65625,0.0,0.0,4.157714418,1.236875000000001,0.0,4.090000152587891,-0.23000000417232513,4.829999923706055,-0.00579833984375,-0.08880615234375,1.09783935546875,34.95000076293945,0.0,-15.0,-1.946868896484375,-1.3117218017578125,Closing,0.0,0.0,-110162.0,0.0,0.0,0.0,0.0,0.0,
3.631709000000032,0.0,0.0,-51271.0,0.0,-990.0,0.0,0.0,0.0,2.5329587250000003,3.723000000000002,0.0,44701.0,0.0,-1102.5,0.0,0.0,0.0,3.244628574,1.237250000000001,0.0,14191.0,0.0,-780.0,0.0,0.0,0.0,3.6425777520000002,3.7155000000000014,-0.0012207029999999897,41627.0,0.0,-832.5,0.0,0.0,0.0,4.158935121,1.236875000000001,0.0,3.109999895095825,-0.05000000074505806,3.930000066757202,-0.00341796875,-0.2646484375,1.16632080078125,34.95000076293945,0.0,-24.0,-1.9451446533203125,-1.3268280029296875,Closing,0.0,0.0,-110162.0,0.0,0.0,0.0,0.0,0.0,
3.709988000000012,0.0,0.0,-51396.0,3.25,-1035.0,-213.28125,0.0,3.5,2.3291013240000003,3.035356049206692,0.0,44573.0,6.5,-832.5,-213.28125,0.0,3.125,3.3764644980000003,1.9228160581136369,0.0,14100.0,5.5,-630.0,213.28125,0.0,3.75,3.913573818,4.40175868900686,0.0,41512.0,6.375,-742.5,213.28125,0.0,7.5,3.920898036,0.5515167311543303,0.0,1.5399999618530273,-0.14000000059604645,3.319999933242798,0.151123046875,-0.33917236328125,0.80010986328125,34.95000076293945,0.0,131.0,-1.944061279296875,-1.3516845703125,Closing,0.0,0.0,-110162.0,0.0,0.0,0.0,0.0,0.0,
3.791676000000094,0.0,0.0,-51396.0,1.625,-277.5,-607.03125,0.0,1.125,1.9775388600000001,3.035356049206692,0.0,44573.0,2.125,-510.0,-607.03125,0.0,1.875,3.6938472780000002,1.9228160581136369,0.0,14100.0,7.875,15.0,607.03125,0.0,0.125,4.310302293,4.40175868900686,0.0,41512.0,14.25,-307.5,607.03125,0.0,1.125,3.5693355720000004,0.5515167311543303,0.0,-0.41999998688697815,0.029999999329447746,3.009999990463257,0.05322265625,-0.357421875,0.370361328125,34.95000076293945,0.0,34.0,-1.941497802734375,-1.40728759765625,Closing,0.0,0.0,-110162.0,0.0,0.0,0.0,0.0,0.0,
3.874375,0.0,0.0,-51430.0,0.125,-210.0,-607.03125,0.0,0.375,1.755370914,3.035356049206692,0.0,44532.0,0.125,-180.0,-607.03125,0.0,1.0,3.977050374,1.9228160581136369,0.0,14118.0,5.75,135.0,607.03125,0.0,0.0,4.556884299,4.40175868900686,0.0,41497.0,9.75,120.0,607.03125,0.0,0.375,3.3215328630000003,0.5515167311543303,0.0,-0.5099999904632568,-0.18000000715255737,1.8799999952316284,-0.10760498046875,0.23175048828125,1.12506103515625,34.95000076293945,0.0,-95.0,-1.939788818359375,-1.4639892578125,Closing,0.0,0.0,-110162.0,0.0,0.0,0.0,0.0,0.0,
3.952868000000017,0.0,0.0,-51451.0,0.375,-82.5,-607.03125,0.0,0.125,1.748046696,3.035356049206692,0.0,44497.0,0.125,-180.0,-607.03125,0.0,0.0,4.011230058000001,1.9228160581136369,0.0,14158.0,6.75,255.0,607.03125,0.0,0.125,4.532470239,4.40175868900686,0.0,41546.0,7.875,300.0,607.03125,0.0,0.0,3.302001615,0.5515167311543303,0.0,0.2800000011920929,-0.3100000023841858,-0.5699999928474426,0.07281494140625,0.04339599609375,1.14739990234375,34.95000076293945,0.0,78.0,-1.9395751953125,-1.5240478515625,Closing,0.0,0.0,-110162.0,0.0,0.0,0.0,0.0,0.0,
4.03473900000006,0.0,0.0,-51451.0,0.25,-405.0,-607.03125,0.0,0.125,1.7578123200000002,3.035356049206692,0.0,44497.0,0.25,-330.0,-607.03125,0.0,0.0,4.000243731,1.9228160581136369,0.0,14158.0,7.25,262.5,607.03125,0.0,0.0,4.403075721,4.40175868900686,0.0,41546.0,8.375,330.0,607.03125,0.0,0.0,3.306884427,0.5515167311543303,0.0,0.05000000074505806,-0.1899999976158142,-2.5999999046325684,0.0732421875,-0.16571044921875,0.8836669921875,34.90999984741211,0.0,83.0,-1.9388427734375,-1.5634765625,Closing,0.0,0.0,-110162.0,0.0,0.0,0.0,0.0,0.0,
4.126141000000062,0.0,0.0,-51515.0,0.375,-315.0,-607.03125,0.0,0.25,1.798095519,3.035356049206692,0.0,44447.0,0.5,-300.0,-607.03125,0.0,0.0,3.984374592,1.9228160581136369,0.0,14210.0,7.625,367.5,607.03125,0.0,0.0,4.310302293,4.40175868900686,0.0,41603.0,9.125,397.5,607.03125,0.0,0.25,3.306884427,0.5515167311543303,0.0,0.009999999776482582,-0.23000000417232513,-5.789999961853027,-0.0074462890625,0.08843994140625,1.1307373046875,34.90999984741211,0.0,-11.0,-1.9384307861328125,-1.6259765625,Closing,0.0,0.0,-110162.0,0.0,0.0,0.0,0.0,0.0,
4.20348900000006,0.0,0.0,-51581.0,0.75,-390.0,-607.03125,0.0,0.125,1.8127439550000002,3.035356049206692,0.0,44388.0,0.75,-367.5,-607.03125,0.0,0.0,3.970946859,1.9228160581136369,0.0,14280.0,7.375,427.5,607.03125,0.0,0.0,4.278564015000001,4.40175868900686,0.0,41675.0,8.875,442.5,607.03125,0.0,0.25,3.3105465360000004,0.5515167311543303,0.0,0.10999999940395355,-0.3100000023841858,-8.899999618530273,-0.00372314453125,0.03594970703125,0.9588623046875,34.90999984741211,0.0,-3.0,-1.9391632080078125,-1.6772918701171875,Closing,0.0,0.0,-110162.0,0.0,0.0,0.0,0.0,0.0,
4.283344000000041,0.0,0.0,-51581.0,0.75,-450.0,-607.03125,0.0,0.125,1.828613094,3.035356049206692,0.0,44388.0,0.5,-450.0,-607.03125,0.0,0.0,3.9428706900000003,1.9228160581136369,0.0,14280.0,7.5,480.0,607.03125,0.0,0.0,4.277343312,4.40175868900686,0.0,41675.0,7.75,540.0,607.03125,0.0,0.25,3.305663724,0.5515167311543303,0.0,0.11999999731779099,-0.44999998807907104,-13.34000015258789,-0.03155517578125,0.0107421875,0.9791259765625,34.90999984741211,0.0,-25.0,-1.9416656494140625,-1.7386016845703125,Closing,0.0,0.0,-110162.0,0.0,0.0,0.0,0.0,0.0,
4.366952000000048,0.0,0.0,-51649.0,1.125,-450.0,-607.03125,0.0,0.125,1.824950985,3.035356049206692,0.0,44302.0,0.125,-592.5,-607.03125,0.0,0.0,3.923339442,1.9228160581136369,0.0,14361.0,7.25,525.0,607.03125,0.0,0.0,4.2858882330000005,4.40175868900686,0.0,41770.0,6.125,637.5,607.03125,0.0,0.25,3.306884427,0.5515167311543303,0.0,0.20999999344348907,-0.44999998807907104,-17.579999923706055,0.05657958984375,0.04754638671875,0.852783203125,34.90999984741211,0.0,47.0,-1.944305419921875,-1.788909912109375,Closing,0.0,0.0,-110162.0,0.0,0.0,0.0,0.0,0.0,
4.445510000000009,0.0,0.0,-51731.0,1.0,-495.0,-607.03125,0.0,0.125,1.8164060640000002,3.035356049206692,0.0,44210.0,0.125,-585.0,-607.03125,0.0,0.0,3.923339442,1.9228160581136369,0.0,14453.0,6.875,577.5,607.03125,0.0,0.0,4.29687456,4.40175868900686,0.0,41882.0,4.875,690.0,607.03125,0.0,0.25,3.305663724,0.5515167311543303,0.0,0.28999999165534973,-0.4099999964237213,-22.25,0.0172119140625,0.101318359375,0.8985595703125,34.90999984741211,0.0,-14.0,-1.9464874267578125,-1.837799072265625,Closing,0.0,0.0,-110162.0,0.0,0.0,0.0,0.0,0.0,
4.524165000000037,0.0,0.0,-51731.0,1.0,-547.5,-607.03125,0.0,0.125,1.8188474700000001,3.035356049206692,0.0,44210.0,0.125,-570.0,-607.03125,0.0,0.0,3.924560145,1.9228160581136369,0.0,14453.0,6.125,622.5,607.03125,0.0,0.0,4.301757372,4.40175868900686,0.0,41882.0,4.25,712.5,607.03125,0.0,0.25,3.3081051300000004,0.5515167311543303,0.0,0.3799999952316284,-0.3199999928474426,-28.170000076293945,-0.063232421875,0.03656005859375,0.98638916015625,34.900001525878906,0.0,-64.0,-1.949249267578125,-1.894805908203125,Closing,0.0,0.0,-110162.0,0.0,0.0,0.0,0.0,0.0,
4.594445999999996,0.0,0.0,-51821.0,0.75,-570.0,-607.03125,0.0,0.125,1.8200681730000001,3.035356049206692,0.0,44109.0,0.125,-645.0,-607.03125,0.0,0.0,3.923339442,1.9228160581136369,0.0,14558.0,5.375,652.5,607.03125,0.0,0.0,4.301757372,4.40175868900686,0.0,41995.0,3.75,712.5,607.03125,0.0,0.25,3.306884427,0.5515167311543303,0.0,0.44999998807907104,-0.27000001072883606,-33.189998626708984,-0.01226806640625,-0.02008056640625,1.11065673828125,34.900001525878906,0.0,9.0,-1.9503173828125,-1.9419708251953125,Closing,0.0,0.0,-110162.0,0.0,0.0,0.0,0.0,0.0,
4.673034000000102,0.0,0.0,-51912.0,0.875,-562.5,-607.03125,0.0,0.125,1.829833797,3.035356049206692,0.0,44006.0,0.125,-645.0,-607.03125,0.0,0.0,3.91845663,1.9228160581136369,0.0,14662.0,5.25,652.5,607.03125,0.0,0.0,4.305419481,4.40175868900686,0.0,42111.0,3.375,720.0,607.03125,0.0,0.25,3.3117672390000004,0.5515167311543303,0.0,0.49000000953674316,-0.1599999964237213,-38.16999816894531,-0.04791259765625,-0.017822265625,1.0675048828125,34.900001525878906,0.0,-18.0,-1.9503631591796875,-1.9883575439453125,Closing,0.0,0.0,-110162.0,0.0,0.0,0.0,0.0,0.0,
4.746649000000092,0.0,0.0,-51912.0,0.875,-577.5,-607.03125,0.0,0.125,1.8212888760000001,3.035356049206692,0.0,44006.0,0.125,-630.0,-607.03125,0.0,0.0,3.91845663,1.9228160581136369,0.0,14662.0,5.125,645.0,607.03125,0.0,0.0,4.304198778,4.40175868900686,0.0,42111.0,3.125,697.5,607.03125,0.0,0.25,3.3227535660000003,0.5515167311543303,0.0,0.47999998927116394,-0.07000000029802322,-43.029998779296875,-0.04962158203125,0.09368896484375,1.00494384765625,34.900001525878906,0.0,-93.0,-1.9505462646484375,-2.0341339111328125,Closing,0.0,0.0,-110162.0,0.0,0.0,0.0,0.0,0.0,
4.82670000000007,0.0,0.0,-52006.0,0.25,-577.5,-246.09374999999997,0.0,0.125,1.828613094,3.035356049206692,0.0,43906.0,0.0,-622.5,-246.09374999999997,0.0,0.0,3.919677333,1.9228160581136373,0.0,14765.0,2.0,615.0,246.09374999999997,0.0,0.0,4.301757372,4.40175868900686,0.0,42221.0,1.375,645.0,246.09374999999997,0.0,0.25,3.3105465360000004,0.5515167311543303,0.0,0.550000011920929,0.019999999552965164,-47.70000076293945,0.024658203125,-0.0048828125,1.0186767578125,34.900001525878906,0.0,27.0,-1.951812744140625,-2.079254150390625,Closing,0.0,0.0,-110162.0,0.0,0.0,0.0,0.0,0.0,
4.901,0.0,0.0,-52006.0,0.0,-375.0,0.0,0.0,0.125,1.8212888760000001,3.035356049206692,0.0012207029999999897,43820.0,0.0,-577.5,0.0,0.0,0.0,3.919677333,1.9228160581136373,-0.0012207029999999897,14825.0,0.25,517.5,0.0,0.0,0.0,4.305419481,4.40175868900686,0.0,42285.0,0.0,435.0,0.0,0.0,0.0,3.3154293480000003,0.5515167311543303,0.0,0.6000000238418579,0.09000000357627869,-52.25,0.033447265625,0.08428955078125,0.990234375,34.900001525878906,0.0,-38.0,-1.9540863037109375,-2.1329345703125,Closing,0.0,0.0,-110162.0,0.0,0.0,0.0,0.0,0.0,
4.9762490000000685,0.0,0.0,-52062.0,0.0,-345.0,0.0,0.0,0.125,1.8212888760000001,3.035356049206692,-0.0012207029999999897,43820.0,0.0,-435.0,0.0,0.0,0.0,3.91845663,1.9228160581136373,0.0,14825.0,0.0,195.0,0.0,0.0,0.0,4.305419481,4.40175868900686,0.0012207030000004337,42285.0,0.0,352.5,0.0,0.0,0.0,3.350829735,0.5515167311543303,0.004882811999999959,0.699999988079071,0.18000000715255737,-54.540000915527344,0.07281494140625,0.03253173828125,1.28143310546875,34.900001525878906,0.0,26.0,-1.9568634033203125,-2.175933837890625,Closing,0.0,0.0,-110162.0,0.0,0.0,0.0,0.0,0.0,
5.051541000000085,0.0,0.0,-52093.0,0.0,-195.0,0.0,0.0,0.125,1.8212888760000001,3.035356049206692,0.0,43776.0,0.0,-277.5,0.0,0.0,0.0,3.919677333,1.9228160581136373,0.0,14856.0,0.0,187.5,0.0,0.0,0.0,4.305419481,4.40175868900686,0.0,42330.0,0.0,277.5,0.0,0.0,0.0,3.3703609830000003,0.5515167311543303,0.0,0.6399999856948853,0.3199999928474426,-55.33000183105469,0.013427734375,0.01458740234375,1.088134765625,34.84000015258789,0.0,2.0,-1.957855224609375,-2.2097320556640625,Closing,0.0,0.0,-110162.0,0.0,0.0,0.0,0.0,0.0,
5.128801000000094,0.0,0.0,-52093.0,0.125,-45.0,-344.53125,0.0,0.125,1.8212888760000001,3.035356049206692,0.0,43776.0,0.125,-60.0,-344.53125,0.0,0.0,3.917235927,1.9228160581136369,0.0,14856.0,0.125,60.0,344.53125,0.0,0.0,4.305419481,4.40175868900686,0.0,42330.0,0.0,67.5,344.53125,0.0,0.0,3.3691402800000003,0.5515167311543303,0.0,0.7799999713897705,0.4300000071525574,-55.279998779296875,0.027099609375,0.05328369140625,1.08013916015625,34.84000015258789,0.0,-20.0,-1.9580078125,-2.2424468994140625,Closing,0.0,0.0,-110162.0,0.0,0.0,0.0,0.0,0.0,
5.200447000000044,0.0,0.0,-52097.0,0.125,-7.5,0.0,0.0,0.125,1.8164060640000002,3.035356049206692,0.0,43765.0,0.0,-75.0,0.0,0.0,0.0,3.919677333,1.9228160581136369,0.0,14858.0,0.0,0.0,0.0,0.0,0.0,4.304198778,4.40175868900686,0.0,42337.0,0.0,30.0,0.0,0.0,0.0,3.3703609830000003,0.5515167311543303,0.0,0.7799999713897705,0.3400000035762787,-54.709999084472656,-0.01824951171875,0.009033203125,0.95208740234375,34.84000015258789,0.0,-10.0,-1.95831298828125,-2.2506103515625,Closing,0.0,0.0,-110162.0,0.0,0.0,0.0,0.0,0.0,
5.276344000000041,0.0,0.0,-52097.0,0.0,0.0,0.0,0.0,0.125,1.8212888760000001,3.035356049206692,0.0,43767.0,0.0,7.5,0.0,0.0,0.0,3.923339442,1.9228160581136369,0.0,14858.0,0.0,0.0,0.0,0.0,0.0,4.305419481,4.40175868900686,0.0012207030000004337,42338.0,0.0,0.0,0.0,0.0,0.0,3.3691402800000003,0.5515167311543303,0.0,0.8100000023841858,0.27000001072883606,-54.40999984741211,-0.00323486328125,0.02490234375,1.007080078125,34.84000015258789,0.0,-13.0,-1.9584503173828125,-2.250732421875,Closing,0.0,0.0,-110162.0,0.0,0.0,0.0,0.0,0.0,
5.356783000000054,0.0,0.0,-52097.0,0.125,0.0,-131.25,0.0,0.125,1.8212888760000001,3.035356049206692,0.0,43767.0,0.125,0.0,-131.25,0.0,0.0,3.91845663,1.9228160581136373,0.0,14858.0,0.0,0.0,131.25,0.0,0.0,4.306640184,4.40175868900686,0.0,42338.0,0.0,0.0,131.25,0.0,0.0,3.3691402800000003,0.5515167311543303,0.0,0.8500000238418579,0.2800000011920929,-54.439998626708984,0.0120849609375,0.01361083984375,0.9927978515625,34.84000015258789,0.0,5.0,-1.9585113525390625,-2.250732421875,Closing,0.0,0.0,-110162.0,0.0,0.0,0.0,0.0,0.0,
5.434766999999993,0.0,0.0,-52097.0,2.875,-45.0,-951.5625,0.0,0.125,1.8212888760000001,3.035356049206692,0.0,43767.0,3.0,-7.5,-951.5625,0.0,0.0,3.923339442,1.9228160581136373,0.0,14858.0,2.75,37.5,951.5625,0.0,0.0,4.302978075,4.40175868900686,0.0,42338.0,4.125,45.0,951.5625,0.0,0.0,3.3703609830000003,0.5515167311543303,0.0,0.9100000262260437,0.23000000417232513,-54.56999969482422,0.25921630859375,-0.24896240234375,1.04949951171875,34.84000015258789,0.0,364.0,-1.958404541015625,-2.2506866455078125,Closing,0.0,0.0,-110162.0,0.0,0.0,0.0,0.0,0.0,
5.509206000000005,0.0,0.0,-52125.0,0.75,-202.5,0.0,0.0,0.125,1.8200681730000001,3.035356049206692,0.0,43754.0,1.5,-90.0,0.0,0.0,0.0,3.91845663,1.9228160581136373,0.0,14887.0,1.75,195.0,0.0,0.0,0.0,4.306640184,4.40175868900686,0.0,42354.0,1.375,112.5,0.0,0.0,0.0,3.3703609830000003,0.5515167311543303,0.0,0.8500000238418579,0.25999999046325684,-56.040000915527344,-0.00390625,-0.06097412109375,0.72467041015625,34.84000015258789,0.0,55.0,-1.95721435546875,-2.2501373291015625,Closing,0.0,0.0,-110162.0,0.0,0.0,0.0,0.0,0.0,
5.586540000000038,0.0,0.0,-52125.0,0.0,-15.0,0.0,0.0,0.125,1.822509579,3.035356049206692,-0.0012207029999999897,43754.0,0.0,-15.0,0.0,0.0,0.0,3.919677333,1.9228160581136373,-0.004882811999999959,14887.0,0.0,22.5,0.0,0.0,0.0,4.306640184,4.40175868900686,0.004882811999999959,42354.0,0.0,30.0,0.0,0.0,0.0,3.3703609830000003,0.5515167311543303,0.0,0.8899999856948853,0.1599999964237213,-57.220001220703125,0.00103759765625,0.03851318359375,0.99725341796875,34.84000015258789,0.0,-20.0,-1.9571685791015625,-2.25048828125,Closing,0.0,0.0,-110162.0,0.0,0.0,0.0,0.0,0.0,
5.655849000000045,0.0,0.0,-52126.0,0.0,-7.5,0.0,0.0,0.125,1.822509579,3.035356049206692,0.0,43748.0,0.0,-37.5,0.0,0.0,0.0,3.91845663,1.9228160581136373,0.0,14887.0,0.0,0.0,0.0,0.0,0.0,4.305419481,4.40175868900686,0.0,42366.0,0.0,82.5,0.0,0.0,0.0,3.3740230920000003,0.5515167311543303,0.0,1.0199999809265137,0.36000001430511475,-57.33000183105469,0.0614013671875,0.01641845703125,1.029541015625,34.84000015258789,0.0,31.0,-1.957000732421875,-2.249420166015625,Closing,0.0,0.0,-110162.0,0.0,0.0,0.0,0.0,0.0,
5.732266000000061,0.0,0.0,-52126.0,0.0,0.0,0.0,0.0,0.125,1.8200681730000001,3.035356049206692,0.0,43748.0,0.0,-7.5,0.0,0.0,0.0,3.91845663,1.9228160581136373,0.0,14887.0,0.0,0.0,0.0,0.0,0.0,4.306640184,4.40175868900686,0.0,42366.0,0.0,7.5,0.0,0.0,0.0,3.3740230920000003,0.5515167311543303,0.004882811999999959,1.0,0.3700000047683716,-57.08000183105469,-0.02569580078125,0.00311279296875,1.02862548828125,34.84000015258789,0.0,-5.0,-1.95672607421875,-2.248626708984375,Closing,0.0,0.0,-110162.0,0.0,0.0,0.0,0.0,0.0,
5.806188000000082,0.0,0.0,-52126.0,0.0,0.0,0.0,0.0,0.125,1.8212888760000001,3.035356049206692,0.0,43748.0,0.0,0.0,0.0,0.0,0.0,3.91845663,1.9228160581136373,0.0,14887.0,0.0,0.0,0.0,0.0,0.0,4.306640184,4.40175868900686,0.0,42366.0,0.0,0.0,0.0,0.0,0.0,3.3740230920000003,0.5515167311543303,0.0,1.0299999713897705,0.2199999988079071,-56.68000030517578,-0.00384521484375,0.03802490234375,0.96697998046875,34.84000015258789,0.0,-21.0,-1.95721435546875,-2.2495880126953125,Closing,0.0,0.0,-110162.0,0.0,0.0,0.0,0.0,0.0,
5.887053000000073,0.0,0.0,-52147.0,5.875,-82.5,-1148.4375,0.0,0.125,1.805419737,3.035356049206692,0.0,43732.0,5.75,-52.5,-1148.4375,0.0,0.0,3.923339442,1.9228160581136369,0.0,14905.0,5.375,67.5,1148.4375,0.0,0.0,4.287108936,4.40175868900686,0.0,42377.0,4.125,37.5,1148.4375,0.0,0.0,3.3728023890000003,0.5515167311543303,0.0,0.9900000095367432,0.2800000011920929,-56.72999954223633,-0.0758056640625,0.21685791015625,1.12890625,34.84000015258789,0.0,-209.0,-1.9584197998046875,-2.2494964599609375,Closing,0.0,0.0,-110162.0,0.0,0.0,0.0,0.0,0.0,
5.958916000000085,0.0,0.0,-52147.0,1.0,-202.5,0.0,0.0,0.125,1.8212888760000001,3.035356049206692,0.0,43732.0,0.5,-150.0,0.0,0.0,0.0,3.91845663,1.9228160581136369,0.0,14905.0,1.125,180.0,0.0,0.0,0.0,4.306640184,4.40175868900686,0.0,42377.0,0.625,127.5,0.0,0.0,0.0,3.3740230920000003,0.5515167311543303,0.0,0.9700000286102295,0.12999999523162842,-59.029998779296875,-0.05560302734375,0.05462646484375,1.29461669921875,34.84000015258789,0.0,-58.0,-1.961700439453125,-2.2500762939453125,Closing,0.0,0.0,-110162.0,0.0,0.0,0.0,0.0,0.0,
6.048940999999991,0.0,0.0,-52159.0,0.0,-15.0,0.0,0.0,0.125,1.8212888760000001,3.035356049206692,0.0012207029999999897,43725.0,0.0,-45.0,0.0,0.0,0.0,3.91845663,1.9228160581136369,-0.004882811999999959,14916.0,0.0,22.5,0.0,0.0,0.0,4.310302293,4.40175868900686,0.004882811999999959,42386.0,0.0,67.5,0.0,0.0,0.0,3.3740230920000003,0.5515167311543303,0.0,1.0499999523162842,0.1599999964237213,-60.060001373291016,-0.00750732421875,-9.765625E-4,1.12664794921875,34.86000061035156,0.0,13.0,-1.964935302734375,-2.2507476806640625,Closing,0.0,0.0,-110162.0,0.0,0.0,0.0,0.0,0.0,
6.126665000000037,0.0,0.0,-52161.0,0.0,-7.5,0.0,0.0,0.125,1.8212888760000001,3.035356049206692,0.0,43708.0,0.0,-112.5,0.0,0.0,0.0,3.91845663,1.9228160581136369,0.0,14920.0,0.0,22.5,0.0,0.0,0.0,4.30908159,4.40175868900686,0.004882811999999959,42401.0,0.0,75.0,0.0,0.0,0.0,3.3752437950000003,0.5515167311543303,0.0,1.090000033378601,0.36000001430511475,-59.939998626708984,0.0582275390625,0.033447265625,0.97467041015625,34.86000061035156,0.0,13.0,-1.9653472900390625,-2.24981689453125,Closing,0.0,0.0,-110162.0,0.0,0.0,0.0,0.0,0.0,
6.19979600000009,0.0,0.0,-52161.0,0.0,0.0,0.0,0.0,0.125,1.8212888760000001,3.035356049206692,-0.0012207029999999897,43708.0,0.0,-7.5,0.0,0.0,0.0,3.919677333,1.9228160581136369,0.0,14920.0,0.0,0.0,0.0,0.0,0.0,4.312743699,4.40175868900686,0.0,42401.0,0.0,0.0,0.0,0.0,0.0,3.3740230920000003,0.5515167311543303,0.0,1.100000023841858,0.38999998569488525,-59.65999984741211,-0.01214599609375,0.010498046875,0.99725341796875,34.86000061035156,0.0,-2.0,-1.96490478515625,-2.2480926513671875,Closing,0.0,0.0,-110162.0,0.0,0.0,0.0,0.0,0.0,
6.274144000000088,0.0,0.0,-52161.0,0.0,0.0,0.0,0.0,0.125,1.8212888760000001,3.035356049206692,0.0,43708.0,0.0,0.0,0.0,0.0,0.0,3.91845663,1.9228160581136369,0.0,14920.0,0.0,0.0,0.0,0.0,0.0,4.310302293,4.40175868900686,0.0,42401.0,0.0,0.0,0.0,0.0,0.0,3.3740230920000003,0.5515167311543303,0.0,1.1200000047683716,0.23000000417232513,-59.349998474121094,-0.04254150390625,0.0413818359375,1.0029296875,34.86000061035156,0.0,-42.0,-1.96527099609375,-2.24664306640625,Closing,0.0,0.0,-110162.0,0.0,0.0,0.0,0.0,0.0,
6.347578000000096,0.0,0.0,-52161.0,0.0,0.0,0.0,0.0,0.125,1.8212888760000001,3.035356049206692,0.0,43708.0,0.0,0.0,0.0,0.0,0.0,3.919677333,1.9228160581136369,0.0,14920.0,0.0,0.0,0.0,0.0,0.0,4.310302293,4.40175868900686,0.0,42401.0,0.0,0.0,0.0,0.0,0.0,3.3752437950000003,0.5515167311543303,0.0,1.1299999952316284,0.20999999344348907,-59.16999816894531,0.0234375,0.0123291015625,1.00091552734375,34.86000061035156,0.0,16.0,-1.9659881591796875,-2.2464752197265625,Closing,0.0,0.0,-110162.0,0.0,0.0,0.0,0.0,0.0,
6.414137000000104,0.0,0.0,-52161.0,0.0,0.0,0.0,0.0,0.125,1.8212888760000001,3.035356049206692,0.0,43708.0,0.0,0.0,0.0,0.0,0.0,3.919677333,1.9228160581136369,0.0,14920.0,0.0,0.0,0.0,0.0,0.0,4.310302293,4.40175868900686,0.0,42401.0,0.0,0.0,0.0,0.0,0.0,3.3752437950000003,0.5515167311543303,0.0,1.1399999856948853,0.25999999046325684,-59.189998626708984,7.32421875E-4,0.03399658203125,1.01300048828125,34.86000061035156,0.0,-13.0,-1.9659881591796875,-2.2464752197265625,Closing,0.0,0.0,-110162.0,0.0,0.0,0.0,0.0,0.0,
6.4917700000000185,0.0,0.0,-52161.0,0.0,0.0,0.0,0.0,0.125,1.8212888760000001,3.035356049206692,0.0012207029999999897,43708.0,0.0,0.0,0.0,0.0,0.0,3.919677333,1.9228160581136369,0.0,14920.0,0.0,0.0,0.0,0.0,0.0,4.310302293,4.40175868900686,0.0,42401.0,0.0,0.0,0.0,0.0,0.0,3.3752437950000003,0.5515167311543303,0.0,1.1699999570846558,0.20999999344348907,-59.25,-0.0145263671875,0.01556396484375,0.9967041015625,34.86000061035156,0.0,-5.0,-1.966156005859375,-2.2464752197265625,Closing,0.0,0.0,-110162.0,0.0,0.0,0.0,0.0,0.0,
6.564867000000086,0.0,0.0,-52161.0,0.0,0.0,0.0,0.0,0.125,1.8212888760000001,3.035356049206692,0.0,43708.0,0.0,0.0,0.0,0.0,0.0,3.91845663,1.9228160581136369,0.0,14920.0,0.0,0.0,0.0,0.0,0.0,4.310302293,4.40175868900686,0.0,42401.0,0.0,0.0,0.0,0.0,0.0,3.3752437950000003,0.5515167311543303,0.0,1.149999976158142,0.20000000298023224,-59.209999084472656,0.002685546875,0.03411865234375,0.99981689453125,34.900001525878906,0.0,-12.0,-1.966156005859375,-2.2464752197265625,Closing,0.0,0.0,-110162.0,0.0,0.0,0.0,0.0,0.0,
6.6460630000000815,0.0,0.0,-52161.0,0.0,0.0,0.0,0.0,0.125,1.8212888760000001,3.035356049206692,0.0,43708.0,0.0,0.0,0.0,0.0,0.0,3.91845663,1.9228160581136369,0.0,14920.0,0.0,0.0,0.0,0.0,0.0,4.311522996,4.40175868900686,0.0,42401.0,0.0,0.0,0.0,0.0,0.0,3.3752437950000003,0.5515167311543303,0.0,1.2000000476837158,0.20000000298023224,-59.209999084472656,0.0059814453125,0.0203857421875,0.99615478515625,34.900001525878906,0.0,1.0,-1.966156005859375,-2.2464752197265625,Closing,0.0,0.0,-110162.0,0.0,0.0,0.0,0.0,0.0,
6.715543999999994,0.0,0.0,-52161.0,0.0,0.0,0.0,0.0,0.125,1.8212888760000001,3.035356049206692,0.0,43708.0,0.0,0.0,0.0,0.0,0.0,3.919677333,1.9228160581136369,0.0,14920.0,0.0,0.0,0.0,0.0,0.0,4.310302293,4.40175868900686,0.0,42401.0,0.0,0.0,0.0,0.0,0.0,3.3752437950000003,0.5515167311543303,0.0,1.190000057220459,0.1899999976158142,-59.220001220703125,-0.0042724609375,0.0255126953125,1.00018310546875,34.900001525878906,0.0,-7.0,-1.966156005859375,-2.2464752197265625,Closing,0.0,0.0,-110162.0,0.0,0.0,0.0,0.0,0.0,
6.792732000000076,0.0,0.0,-52161.0,0.0,0.0,0.0,0.0,0.125,1.8212888760000001,3.035356049206692,0.0,43708.0,0.0,0.0,0.0,0.0,0.0,3.91845663,1.9228160581136369,0.0,14920.0,0.0,0.0,0.0,0.0,0.0,4.311522996,4.40175868900686,0.0,42401.0,0.0,0.0,0.0,0.0,0.0,3.3752437950000003,0.5515167311543303,0.0,1.2000000476837158,0.17000000178813934,-59.209999084472656,0.0086669921875,0.02392578125,0.99908447265625,34.900001525878906,0.0,0.0,-1.966156005859375,-2.2464752197265625,Closing,0.0,0.0,-110162.0,0.0,0.0,0.0,0.0,0.0,
6.8663330000001,0.0,0.0,-52161.0,0.0,0.0,0.0,0.0,0.125,1.8212888760000001,3.035356049206692,0.0,43708.0,0.0,0.0,0.0,0.0,0.0,3.917235927,1.9228160581136369,0.0,14920.0,0.0,0.0,0.0,0.0,0.0,4.311522996,4.40175868900686,0.0,42401.0,0.0,0.0,0.0,0.0,0.0,3.3740230920000003,0.5515167311543303,0.0,1.2100000381469727,0.18000000715255737,-59.220001220703125,0.00152587890625,0.02801513671875,1.000732421875,34.900001525878906,0.0,-6.0,-1.966156005859375,-2.2464752197265625,Closing,0.0,0.0,-110162.0,0.0,0.0,0.0,0.0,0.0,
6.9408020000000255,0.0,0.0,-52161.0,0.0,0.0,0.0,0.0,0.125,1.8200681730000001,3.035356049206692,0.0,43708.0,0.0,0.0,0.0,0.0,0.0,3.91845663,1.9228160581136369,0.0,14920.0,0.0,0.0,0.0,0.0,0.0,4.315185105,4.40175868900686,0.0,42401.0,0.0,0.0,0.0,0.0,0.0,3.3740230920000003,0.5515167311543303,0.0,1.2200000286102295,0.1599999964237213,-59.220001220703125,-0.00164794921875,0.017333984375,1.0,34.900001525878906,0.0,1.0,-1.966156005859375,-2.2464752197265625,Closing,0.0,0.0,-110162.0,0.0,0.0,0.0,0.0,0.0,
7.0145670000000395,0.0,0.0,-52161.0,0.0,0.0,0.0,0.0,0.125,1.8212888760000001,3.035356049206692,0.0,43708.0,0.0,0.0,0.0,0.0,0.0,3.919677333,1.9228160581136369,0.0,14920.0,0.0,0.0,0.0,0.0,0.0,4.311522996,4.40175868900686,0.0,42401.0,0.0,0.0,0.0,0.0,0.0,3.3752437950000003,0.5515167311543303,0.0,1.2300000190734863,0.15000000596046448,-59.220001220703125,0.004150390625,0.03094482421875,0.99761962890625,34.900001525878906,0.0,-7.0,-1.966156005859375,-2.2464752197265625,Closing,0.0,0.0,-110162.0,0.0,0.0,0.0,0.0,0.0,
7.0905070000001,0.0,0.0,-52161.0,0.0,0.0,0.0,0.0,0.0,1.8212888760000001,3.035356049206692,0.0,43708.0,0.0,0.0,0.0,0.0,0.0,3.919677333,1.9228160581136369,0.0,14920.0,0.0,0.0,0.0,0.0,0.0,4.311522996,4.40175868900686,0.0,42401.0,0.0,0.0,0.0,0.0,0.0,3.3752437950000003,0.5515167311543303,0.0,1.2400000095367432,0.15000000596046448,-59.220001220703125,-0.00225830078125,0.01824951171875,0.99652099609375,34.88999938964844,0.0,0.0,-1.966156005859375,-2.2464752197265625,Closing,0.0,0.0,-110162.0,0.0,0.0,0.0,0.0,0.0,
