Time,ClimberA1,ClimberA2,FRpos,FRCurrent,FRspeed,FRsetpoint,FRApos,FRACurrent,FREncpos,FREncSetpoint,FREncSpeed,FLpos,FLCurrent,FLspeed,FLsetpoint,FLApos,FLACurrent,FLEncpos,FLEncSetpoint,FLEncSpeed,BRpos,BRCurrent,BRspeed,BRsetpoint,BRApos,BRACurrent,BREncpos,BREncSetpoint,BREncSpeed,BLpos,BLCurrent,BLspeed,BLsetpoint,BLApos,BLACurrent,BLEncpos,BLEncSetpoint,BLEncSpeed,navx_Pitch,navx_Roll,navx_Yaw,navx_XAcc,navx_YAcc,navx_ZAcc,navx_Temp,navx_Bar,navx_Alt,navx_XDis,navx_YDis,GearPlacerState,ShootOutputV,ShootOutputCurrent,ShootEncPos,ShootEncVelocity,ShootSpeed,ShootSetpoint,CarouselSetpoint,CarouselCurrent,
0.15305699999979697,0.0,0.0,-37254.0,0.0,0.0,0.0,0.0,0.125,4.2883296390000005,0.5533560492066917,0.0,34035.0,0.0,0.0,0.0,0.0,0.0,1.435546728,4.397316058113637,0.0,-6854.0,0.0,0.0,0.0,0.0,0.0,4.350585492,4.40175868900686,0.0,59458.0,0.0,0.0,0.0,0.0,0.0,0.955810449,3.0252667311543298,0.0,1.149999976158142,0.1899999976158142,0.0,0.0035400390625,0.0211181640625,0.99951171875,35.09000015258789,0.0,0.0,-3.0528411865234375,-1.423980712890625,Closing,0.0,0.0,-110162.0,0.0,0.0,0.0,0.0,0.0,
0.2721589999999851,0.0,0.0,-37254.0,0.0,0.0,0.0,0.0,0.125,4.266356985,0.5533560492066917,0.0,34035.0,0.0,0.0,0.0,0.0,0.0,1.433105322,4.397316058113637,0.0,-6854.0,0.0,0.0,0.0,0.0,0.0,4.3457026800000005,4.40175868900686,0.0,59458.0,0.0,0.0,0.0,0.0,0.0,0.9570311520000001,3.0252667311543298,0.0,1.149999976158142,0.1899999976158142,0.0,0.0025634765625,0.01898193359375,1.0025634765625,35.09000015258789,0.0,0.0,-3.0528411865234375,-1.423980712890625,Closing,0.0,0.0,-110162.0,0.0,0.0,0.0,0.0,0.0,
0.3893849999997765,0.0,0.0,-37254.0,0.0,0.0,0.0,0.0,0.125,4.2883296390000005,0.5533560492066917,0.0,34035.0,0.0,0.0,0.0,0.0,0.0,1.433105322,4.397316058113637,0.0,-6854.0,0.0,0.0,0.0,0.0,0.0,4.349364789,4.40175868900686,0.0,59458.0,0.0,0.0,0.0,0.0,0.0,0.9570311520000001,3.0252667311543298,0.0,1.149999976158142,0.1899999976158142,-0.009999999776482582,0.0059814453125,0.02008056640625,0.9971923828125,35.09000015258789,0.0,2.0,-3.0528411865234375,-1.423980712890625,Closing,0.0,0.0,-110162.0,0.0,0.0,0.0,0.0,0.0,
0.5082139999999199,0.0,0.0,-37254.0,0.0,0.0,0.0,0.0,0.125,4.2883296390000005,0.5533560492066917,0.0,34035.0,0.0,0.0,0.0,0.0,0.0,1.431884619,4.397316058113637,0.0,-6854.0,0.0,0.0,0.0,0.0,0.0,4.350585492,4.40175868900686,0.0,59458.0,0.0,0.0,0.0,0.0,0.0,0.9570311520000001,3.0252667311543298,0.0,1.149999976158142,0.1899999976158142,-0.009999999776482582,0.005615234375,0.0205078125,1.00128173828125,35.130001068115234,0.0,2.0,-3.0528411865234375,-1.423980712890625,Closing,0.0,0.0,-110162.0,0.0,0.0,0.0,0.0,0.0,
0.6273389999999199,0.0,0.0,-37254.0,0.0,0.0,0.0,0.0,0.125,4.2883296390000005,0.5533560492066917,0.0,34035.0,0.0,0.0,0.0,0.0,0.0,1.431884619,4.397316058113637,0.0,-6854.0,0.0,0.0,0.0,0.0,0.0,4.350585492,4.40175868900686,0.0,59458.0,0.0,0.0,0.0,0.0,0.0,0.9570311520000001,3.0252667311543298,0.0,1.149999976158142,0.1899999976158142,-0.009999999776482582,0.00445556640625,0.01959228515625,0.99884033203125,35.130001068115234,0.0,0.0,-3.0528411865234375,-1.423980712890625,Closing,0.0,0.0,-110162.0,0.0,0.0,0.0,0.0,0.0,
0.7515889999999199,0.0,0.0,-37254.0,0.0,0.0,0.0,0.0,0.125,4.289550342,0.5533560492066917,0.0,34035.0,0.0,0.0,0.0,0.0,0.0,1.431884619,4.397316058113637,0.0,-6854.0,0.0,0.0,0.0,0.0,0.0,4.349364789,4.40175868900686,0.0,59458.0,0.0,0.0,0.0,0.0,0.0,0.9570311520000001,3.0252667311543298,0.0,1.149999976158142,0.1899999976158142,-0.009999999776482582,0.00506591796875,0.02117919921875,0.99481201171875,35.130001068115234,0.0,1.0,-3.0528411865234375,-1.423980712890625,Closing,0.0,0.0,-110162.0,0.0,0.0,0.0,0.0,0.0,
0.875339999999851,0.0,0.0,-37254.0,0.0,0.0,0.0,0.0,0.125,4.287108936,0.5533560492066917,0.0,34035.0,0.0,0.0,0.0,0.0,0.0,1.431884619,4.397316058113637,0.0,-6854.0,0.0,0.0,0.0,0.0,0.0,4.349364789,4.40175868900686,0.0,59458.0,0.0,0.0,0.0,0.0,0.0,0.9570311520000001,3.0252667311543298,0.0,1.149999976158142,0.1899999976158142,-0.009999999776482582,0.0035400390625,0.02001953125,0.997802734375,35.130001068115234,0.0,0.0,-3.0528411865234375,-1.423980712890625,Closing,0.0,0.0,-110162.0,0.0,0.0,0.0,0.0,0.0,
1.008841999999946,0.0,0.0,-37254.0,0.0,0.0,0.0,0.0,0.125,4.289550342,0.5533560492066917,0.0,34035.0,0.0,0.0,0.0,0.0,0.0,1.431884619,4.397316058113637,0.0,-6854.0,0.0,0.0,0.0,0.0,0.0,4.349364789,4.40175868900686,0.0,59458.0,0.0,0.0,0.0,0.0,0.0,0.9570311520000001,3.0252667311543298,0.0,1.149999976158142,0.1899999976158142,-0.019999999552965164,0.00433349609375,0.02081298828125,0.99609375,35.119998931884766,0.0,0.0,-3.0528411865234375,-1.423980712890625,Closing,0.0,0.0,-110162.0,0.0,0.0,0.0,0.0,0.0,
1.13333899999992,0.0,0.0,-37254.0,0.0,0.0,0.0,0.0,0.125,4.291991748,0.5533560492066917,0.0,34035.0,0.0,0.0,0.0,0.0,0.0,1.433105322,4.397316058113637,0.0,-6854.0,0.0,0.0,0.0,0.0,0.0,4.349364789,4.40175868900686,0.0,59458.0,0.0,0.0,0.0,0.0,0.0,0.9570311520000001,3.0252667311543298,0.0,1.149999976158142,0.1899999976158142,-0.019999999552965164,0.0050048828125,0.0184326171875,1.0008544921875,35.119998931884766,0.0,1.0,-3.0528411865234375,-1.423980712890625,Closing,0.0,0.0,-110162.0,0.0,0.0,0.0,0.0,0.0,
1.2619589999997989,0.0,0.0,-37254.0,0.0,0.0,0.0,0.0,0.125,4.2883296390000005,0.5533560492066917,0.0,34035.0,0.0,0.0,0.0,0.0,0.0,1.431884619,4.397316058113637,0.0,-6854.0,0.0,0.0,0.0,0.0,0.0,4.350585492,4.40175868900686,0.0,59458.0,0.0,0.0,0.0,0.0,0.0,0.955810449,3.0252667311543298,0.0,1.149999976158142,0.1899999976158142,-0.019999999552965164,0.00408935546875,0.0201416015625,1.00286865234375,35.119998931884766,0.0,0.0,-3.0528411865234375,-1.423980712890625,Closing,0.0,0.0,-110162.0,0.0,0.0,0.0,0.0,0.0,
1.38874599999981,0.0,0.0,-37254.0,0.0,0.0,0.0,0.0,0.125,4.2883296390000005,0.5533560492066917,0.0,34035.0,0.0,0.0,0.0,0.0,0.0,1.433105322,4.397316058113637,0.0,-6854.0,0.0,0.0,0.0,0.0,0.0,4.349364789,4.40175868900686,0.0,59458.0,0.0,0.0,0.0,0.0,0.0,0.9570311520000001,3.0252667311543298,0.0,1.149999976158142,0.1899999976158142,-0.029999999329447746,0.0015869140625,0.01776123046875,0.9984130859375,35.119998931884766,0.0,-1.0,-3.0528411865234375,-1.423980712890625,Closing,0.0,0.0,-110162.0,0.0,0.0,0.0,0.0,0.0,
1.5196569999998901,0.0,0.0,-37240.0,0.5,105.0,328.125,0.0,0.625,4.008788652,4.9635863333425805,0.0,34018.0,0.25,-142.5,-328.125,0.0,1.375,1.719970527,4.948587583342551,0.0,-6854.0,1.0,0.0,328.125,0.0,1.0,4.7058100650000005,4.953587166675894,0.0,59460.0,0.625,15.0,328.125,0.0,0.75,0.605468688,2.4733377083425485,0.0,1.159999966621399,0.25,-0.009999999776482582,0.0142822265625,0.04901123046875,0.9620361328125,35.099998474121094,0.0,10.0,-3.0527801513671875,-1.4239654541015625,Closing,0.0,0.0,-110162.0,0.0,0.0,0.0,0.0,0.0,
1.6657339999999385,0.0,0.0,-37220.0,7.625,150.0,918.75,0.0,0.125,3.663329703,4.963862111114194,0.0,33992.0,6.875,-165.0,-918.75,0.0,0.25,2.042236119,4.94886252778085,0.0,-6841.0,8.25,120.0,918.75,0.0,0.125,0.083007804,4.953862388891965,0.0,59485.0,6.75,202.5,918.75,0.0,0.0,0.312499968,2.4736125694475164,0.0,1.1299999952316284,1.1100000143051147,0.09000000357627869,0.22149658203125,1.220703125E-4,0.9739990234375,35.099998474121094,0.0,202.0,-3.0457763671875,-1.4253997802734375,Closing,0.0,0.0,-110162.0,0.0,0.0,0.0,0.0,0.0,
1.7904509999998846,0.0,0.0,-37166.0,8.25,427.5,918.75,0.0,0.25,3.616942989,0.0012410000493129098,0.0,33946.0,9.125,-367.5,-918.75,0.0,0.0,2.1130368930000003,0.0012372500491638978,0.0,-6796.0,9.125,375.0,918.75,0.0,0.0,0.045166011000000006,0.0012385000492135686,0.0,59529.0,8.375,382.5,918.75,0.0,0.0,0.25878903600000003,2.474986875049149,0.0,1.1399999856948853,1.8700000047683716,-0.25,0.1385498046875,-0.0023193359375,1.0089111328125,35.099998474121094,0.0,105.0,-3.0233001708984375,-1.42572021484375,Closing,0.0,0.0,-110162.0,0.0,0.0,0.0,0.0,0.0,
1.9157739999999759,0.0,0.0,-37066.0,6.625,675.0,918.75,0.0,0.375,3.652343376,4.960552777777778,0.0,33863.0,9.625,-555.0,-918.75,0.0,0.0,2.103271269,4.9455631944444445,0.0,-6701.0,7.375,652.5,918.75,0.0,0.0,4.890136218,4.950559722222223,0.0,59604.0,9.5,532.5,918.75,0.0,0.25,0.29296872,2.4703142361111112,0.0,1.1100000143051147,2.299999952316284,-1.3899999856948853,0.08905029296875,0.017578125,1.00860595703125,35.08000183105469,0.0,48.0,-2.9867095947265625,-1.4267120361328125,Closing,0.0,0.0,-110162.0,0.0,0.0,0.0,0.0,0.0,
2.0452359999998007,0.0,0.0,-36939.0,3.625,840.0,787.5,0.0,0.25,3.696288684,4.944833444641697,0.0,33761.0,7.875,-697.5,-787.5,0.0,0.0,2.052001743,4.929891361307766,0.0,-6576.0,3.875,855.0,787.5,0.0,0.0,4.864501455,4.93487205575241,0.0,59699.0,7.375,667.5,787.5,0.0,0.0,0.325927701,2.4546471529743736,0.0,1.0700000524520874,2.559999942779541,-2.9800000190734863,0.08221435546875,0.010986328125,0.95989990234375,35.08000183105469,0.0,39.0,-2.943572998046875,-1.4251251220703125,Closing,0.0,0.0,-110162.0,0.0,0.0,0.0,0.0,0.0,
2.174786999999778,0.0,0.0,-36796.0,0.875,840.0,508.59375000000006,0.0,0.125,3.7255855560000004,4.922909110848109,0.0,33640.0,2.875,-757.5,-508.59375000000006,0.0,0.0,1.9982908110000002,4.90803327751557,0.0,-6433.0,0.5,847.5,508.59375000000006,0.0,0.0,4.864501455,4.912991888626417,0.0,59815.0,2.875,742.5,508.59375000000006,0.0,0.0,0.334472622,2.4327956941823166,0.0,1.100000023841858,2.369999885559082,-4.190000057220459,-0.029296875,0.06964111328125,1.154296875,35.08000183105469,0.0,-80.0,-2.9048614501953125,-1.4231719970703125,Closing,0.0,0.0,-110162.0,0.0,0.0,0.0,0.0,0.0,
2.3034759999997916,0.0,0.0,-36683.0,0.0,712.5,0.0,0.0,0.125,3.7255855560000004,4.922909110848109,0.0,33522.0,0.0,-547.5,0.0,0.0,0.0,1.955566206,4.90803327751557,0.0,-6304.0,0.0,667.5,0.0,0.0,0.0,4.864501455,4.912991888626417,0.0,59934.0,0.0,540.0,0.0,0.0,0.0,0.340576137,2.4327956941823166,0.0,1.2400000095367432,1.5,-5.050000190734863,-0.08154296875,0.00775146484375,0.95660400390625,35.08000183105469,0.0,-105.0,-2.87469482421875,-1.4229278564453125,Closing,0.0,0.0,-110162.0,0.0,0.0,0.0,0.0,0.0,
2.4217679999999238,0.0,0.0,-36571.0,0.0,577.5,0.0,0.0,0.125,3.7304683680000004,4.922909110848109,0.0,33432.0,0.0,-652.5,0.0,0.0,0.0,1.9519040970000001,4.90803327751557,0.0,-6204.0,0.0,570.0,0.0,0.0,0.0,4.864501455,4.912991888626417,0.0,60022.0,0.0,532.5,0.0,0.0,0.0,0.340576137,2.4327956941823166,0.0,1.2699999809265137,0.8899999856948853,-5.400000095367432,-0.1517333984375,0.0487060546875,0.944580078125,35.08000183105469,0.0,-168.0,-2.8603668212890625,-1.42291259765625,Closing,0.0,0.0,-110162.0,0.0,0.0,0.0,0.0,0.0,
2.543741999999853,0.0,0.0,-36493.0,0.125,352.5,590.625,0.0,1.125,4.104003486,0.5533560492066917,0.0,33371.0,8.625,-112.5,590.625,0.0,1.625,1.640624832,4.397316058113637,0.0,-6128.0,0.125,390.0,590.625,0.0,0.375,4.494628446,4.40175868900686,0.0,60090.0,7.0,187.5,-590.625,0.0,1.375,0.72021477,3.0252667311543298,0.0,1.4900000095367432,-0.6299999952316284,-6.360000133514404,-0.36810302734375,0.01055908203125,1.339111328125,35.06999969482422,0.0,-348.0,-2.86041259765625,-1.4224853515625,Closing,0.0,0.0,-110162.0,0.0,0.0,0.0,0.0,0.0,
2.6692339999999386,0.0,0.0,-36458.0,4.125,285.0,935.15625,0.0,0.25,4.489745634,0.5533560492066916,0.0,33366.0,15.625,165.0,935.15625,0.0,0.0,1.37939439,4.397316058113637,0.0,-6080.0,3.25,285.0,935.15625,0.0,0.0,4.255370658,4.40175868900686,0.0,60089.0,10.375,-195.0,-935.15625,0.0,0.0,1.071777234,3.0252667311543298,0.0,1.409999966621399,-0.8600000143051147,-7.989999771118164,0.05816650390625,0.10357666015625,0.73138427734375,35.06999969482422,0.0,56.0,-2.8814849853515625,-1.4249114990234375,Closing,0.0,0.0,-110162.0,0.0,0.0,0.0,0.0,0.0,
2.790282999999821,0.0,0.0,-36400.0,4.5,457.5,935.15625,0.0,0.25,4.4982905550000005,0.5533560492066916,0.0,33418.0,12.875,525.0,935.15625,0.0,0.0,1.2902830710000002,4.397316058113637,0.0,-6027.0,3.875,502.5,935.15625,0.0,0.0,4.2431636280000005,4.40175868900686,0.0,60038.0,9.5,-525.0,-935.15625,0.0,0.0,1.114501839,3.0252667311543298,0.0,1.3899999856948853,-0.6399999856948853,-15.260000228881836,-0.05181884765625,-0.02874755859375,0.89776611328125,35.06999969482422,0.0,-26.0,-2.8928985595703125,-1.42822265625,Closing,0.0,0.0,-110162.0,0.0,0.0,0.0,0.0,0.0,
2.9121619999997783,0.0,0.0,-36302.0,2.25,562.5,656.25,0.0,0.125,4.387206582,0.5533560492066917,0.0,33528.0,5.5,757.5,656.25,0.0,0.0,1.2939451800000001,4.397316058113637,0.0,-5930.0,2.25,562.5,656.25,0.0,0.125,4.289550342,4.40175868900686,0.0,59940.0,6.25,-585.0,-656.25,0.0,0.0,1.043701065,3.0252667311543298,0.0,1.4500000476837158,-0.5,-23.65999984741211,0.01153564453125,-0.02252197265625,1.1253662109375,35.06999969482422,0.0,40.0,-2.8925628662109375,-1.430206298828125,Closing,0.0,0.0,-110162.0,0.0,0.0,0.0,0.0,0.0,
3.0308949999997856,0.0,0.0,-36206.0,1.5,742.5,639.84375,0.0,0.125,4.270019094,0.5533560492066917,0.0,33646.0,5.25,675.0,639.84375,0.0,0.125,1.3159178340000002,4.397316058113637,0.0,-5852.0,2.25,615.0,639.84375,0.0,0.0,4.310302293,4.40175868900686,0.0,59853.0,5.25,-697.5,-639.84375,0.0,0.0,0.9729002910000001,3.02526673115433,0.0,1.3799999952316284,-0.23999999463558197,-31.389999389648438,6.103515625E-5,-0.04266357421875,1.08990478515625,35.08000183105469,0.0,40.0,-2.8876495361328125,-1.430999755859375,Closing,0.0,0.0,-110162.0,0.0,0.0,0.0,0.0,0.0,
3.1566739999998825,0.0,0.0,-36094.0,1.375,637.5,639.84375,0.0,0.125,4.2724605,0.5533560492066917,0.0,33753.0,5.0,697.5,639.84375,0.0,0.125,1.325683458,4.397316058113637,0.0,-5751.0,1.75,652.5,639.84375,0.0,0.0,4.328612838000001,4.40175868900686,0.0,59736.0,4.125,-690.0,-639.84375,0.0,0.0,0.937499904,3.02526673115433,0.0,1.340000033378601,-0.15000000596046448,-39.7400016784668,-0.01019287109375,-0.04327392578125,1.1739501953125,35.08000183105469,0.0,39.0,-2.88232421875,-1.4338226318359375,Closing,0.0,0.0,-110162.0,0.0,0.0,0.0,0.0,0.0,
3.27740699999989,0.0,0.0,-35988.0,4.875,795.0,1132.03125,0.0,0.125,4.271239797000001,0.5533560492066917,0.0,33872.0,10.0,832.5,1132.03125,0.0,0.0,1.3183592400000002,4.397316058113637,0.0,-5643.0,4.25,847.5,1132.03125,0.0,0.0,4.329833541,4.40175868900686,0.0,59623.0,10.25,-780.0,-1132.03125,0.0,0.0,0.938720607,3.0252667311543298,0.0,1.2300000190734863,0.03999999910593033,-49.16999816894531,0.00323486328125,-0.012451171875,1.00054931640625,35.08000183105469,0.0,27.0,-2.878173828125,-1.4372711181640625,Closing,0.0,0.0,-110162.0,0.0,0.0,0.0,0.0,0.0,
3.3957589999998454,0.0,0.0,-35848.0,3.75,1042.5,1214.0625,0.0,0.125,4.271239797000001,0.5533560492066917,0.0,34018.0,8.0,1102.5,1214.0625,0.0,0.0,1.326904161,4.397316058113637,0.0,-5498.0,4.5,975.0,1214.0625,0.0,0.0,4.329833541,4.40175868900686,0.0,59310.0,9.5,-1042.5,-1214.0625,0.0,0.0,0.9362792010000001,3.02526673115433,0.0,0.9700000286102295,0.15000000596046448,-61.810001373291016,0.14471435546875,-0.02880859375,0.898681640625,35.08000183105469,0.0,106.0,-2.872283935546875,-1.442352294921875,Closing,0.0,0.0,-110162.0,0.0,0.0,0.0,0.0,0.0,
3.5232129999999886,0.0,0.0,-35675.0,3.0,1140.0,1214.0625,0.0,0.125,4.255370658,0.5533560492066917,0.0,34201.0,5.75,1245.0,1214.0625,0.0,0.0,1.3452147060000001,4.397316058113637,0.0,-5332.0,3.625,1117.5,1214.0625,0.0,0.0,4.328612838000001,4.40175868900686,0.0,59111.0,6.625,-1215.0,-1214.0625,0.0,0.0,0.9362792010000001,3.02526673115433,0.0,0.7799999713897705,0.4000000059604645,-76.6500015258789,-0.06622314453125,0.04998779296875,1.01519775390625,35.060001373291016,0.0,-51.0,-2.8668212890625,-1.4499664306640625,Closing,0.0,0.0,-110162.0,0.0,0.0,0.0,0.0,0.0,
3.642936999999918,0.0,0.0,-35487.0,0.625,1065.0,824.7636070978532,0.0,0.25,4.206542538,0.24077884416234946,0.0,34406.0,3.25,772.5,-636.1679588602041,0.0,2.875,2.003173623,0.31472879431604467,0.0,-5002.0,0.75,1035.0,790.6426294937345,0.0,1.0,4.787597166,0.07820856286709027,0.0,59002.0,1.875,-780.0,591.261728729387,0.0,0.75,0.68359368,2.5783302548360214,0.0,0.7200000286102295,1.090000033378601,-90.80999755859375,0.156494140625,0.20361328125,1.02960205078125,35.060001373291016,0.0,-192.0,-2.86346435546875,-1.4570465087890625,Closing,0.0,0.0,-110162.0,0.0,0.0,0.0,0.0,0.0,
3.7681919999998064,0.0,0.0,-35332.0,2.625,810.0,771.09375,0.0,0.625,3.93066366,4.936560140567358,0.0,34483.0,1.5,-37.5,-771.09375,0.0,0.875,2.509765368,4.921643057145014,0.0,-4922.0,5.125,622.5,771.09375,0.0,0.125,0.189208965,4.926615418285795,0.0,59008.0,1.875,-142.5,771.09375,0.0,0.375,0.393066366,2.44640134880278,0.0,1.100000023841858,1.8700000047683716,-94.76000213623047,-0.01708984375,-0.0252685546875,1.52825927734375,35.060001373291016,0.0,60.0,-2.86553955078125,-1.45050048828125,Closing,0.0,0.0,-110162.0,0.0,0.0,0.0,0.0,0.0,
3.8869199999999253,0.0,0.0,-35228.0,8.0,555.0,869.5312500000001,0.0,0.125,3.6804195450000003,4.89850277777778,0.0,34446.0,1.875,-322.5,-869.5312500000001,0.0,1.125,2.18505837,4.883700694444446,0.0,-4833.0,11.5,510.0,869.5312500000001,0.0,0.125,0.025634763,4.888634722222224,0.0,59063.0,1.0,330.0,869.5312500000001,0.0,0.0,0.27832028400000003,2.4084704861111126,0.0,0.7799999713897705,1.9900000095367432,-96.36000061035156,0.0050048828125,0.01373291015625,0.9788818359375,35.060001373291016,0.0,2.0,-2.8648681640625,-1.4357757568359375,Closing,0.0,0.0,-110162.0,0.0,0.0,0.0,0.0,0.0,
4.010947999999859,0.0,0.0,-35131.0,11.25,622.5,1000.78125,0.0,0.125,3.653564079,4.876302658250599,0.0,34394.0,5.5,-382.5,-1000.78125,0.0,0.0,1.7626951320000002,4.861567658276029,0.0,-4789.0,1.5,292.5,-1000.78125,0.0,2.5,0.034179684,2.389479324934219,0.0,59131.0,3.25,375.0,1000.78125,0.0,0.0,0.28442379900000003,2.3863441582785727,0.0,0.2199999988079071,1.8300000429153442,-97.4000015258789,0.0240478515625,-0.11492919921875,0.9425048828125,35.040000915527344,0.0,118.0,-2.856109619140625,-1.4315643310546875,Closing,0.0,0.0,-110162.0,0.0,0.0,0.0,0.0,0.0,
4.130347999999998,0.0,0.0,-35035.0,17.375,532.5,1000.7812499999999,0.0,0.125,3.651122673,4.86196220118205,0.0,34325.0,6.625,-547.5,-1000.7812499999999,0.0,0.0,1.7114256060000002,4.847270534578961,0.0,-4701.0,6.0,495.0,1000.7812499999999,0.0,0.625,0.189208965,4.85216775677999,0.0,59216.0,4.25,517.5,1000.7812499999999,0.0,0.0,0.27832028400000003,2.372051367918652,0.0,0.5099999904632568,2.049999952316284,-96.79000091552734,0.071044921875,0.034912109375,1.083984375,35.040000915527344,0.0,-28.0,-2.842987060546875,-1.4336090087890625,Closing,0.0,0.0,-110162.0,0.0,0.0,0.0,0.0,0.0,
4.24795399999991,0.0,0.0,-34944.0,19.25,682.5,1000.7812500000001,0.0,0.125,3.653564079,4.870373431820341,0.0,34233.0,7.5,-682.5,-1000.7812500000001,0.0,0.0,1.8164060640000002,4.855656348525153,0.0,-4605.0,7.375,532.5,1000.7812500000001,0.0,0.375,4.899901842,4.860562042956883,0.0,59321.0,5.375,622.5,1000.7812500000001,0.0,0.0,0.27832028400000003,2.3804346401956344,0.0,0.46000000834465027,2.130000114440918,-96.0199966430664,0.09332275390625,0.0439453125,1.27001953125,35.040000915527344,0.0,-38.0,-2.8312225341796875,-1.43359375,Closing,0.0,0.0,-110162.0,0.0,0.0,0.0,0.0,0.0,
4.3712869999997785,0.0,0.0,-34828.0,14.125,975.0,1000.7812499999999,0.0,0.125,3.652343376,4.881542398156062,0.0,33977.0,6.625,-832.5,-1000.7812499999999,0.0,0.0,1.901855274,4.8667915649626,0.0,-4454.0,5.25,870.0,1000.7812499999999,0.0,0.0,4.656981945,4.871708509360421,0.0,59454.0,5.25,787.5,1000.7812499999999,0.0,0.0,0.253906224,2.3915664816432542,0.0,0.2199999988079071,2.680000066757202,-96.5199966430664,0.10333251953125,-0.053955078125,1.08038330078125,35.040000915527344,0.0,51.0,-2.8194732666015625,-1.4256134033203125,Closing,0.0,0.0,-110162.0,0.0,0.0,0.0,0.0,0.0,
4.491421999999788,0.0,0.0,-34468.0,8.0,1177.5,1000.7812500000001,0.0,0.125,3.651122673,4.874096490732831,0.0,33823.0,6.0,-952.5,-1000.7812500000001,0.0,0.0,1.900634571,4.859368157259625,0.0,-4292.0,3.25,1020.0,1000.7812500000001,0.0,0.0,4.71191358,4.864277601750693,0.0,59605.0,4.125,922.5,1000.7812500000001,0.0,0.0,0.249023412,2.3841453239123043,0.0,0.09000000357627869,2.7200000286102295,-97.98999786376953,-0.05731201171875,0.04071044921875,1.02593994140625,35.040000915527344,0.0,-23.0,-2.80889892578125,-1.412506103515625,Closing,0.0,0.0,-110162.0,0.0,0.0,0.0,0.0,0.0,
4.621619999999879,0.0,0.0,-34268.0,6.5,1245.0,1066.40625,0.0,0.125,3.651122673,4.853826807234024,0.0,33656.0,5.75,-1035.0,-1066.40625,0.0,0.0,1.901855274,4.83915972381168,0.0,-4098.0,1.5,1170.0,1066.40625,0.0,0.125,4.79736279,4.844048751619129,0.0,59775.0,3.75,1042.5,1066.40625,0.0,0.0,0.252685521,2.3639430154694465,0.0,0.20000000298023224,2.740000009536743,-99.30000305175781,-0.02935791015625,0.12677001953125,1.11199951171875,35.040000915527344,0.0,-107.0,-2.809906005859375,-1.4010772705078125,Closing,0.0,0.0,-110162.0,0.0,0.0,0.0,0.0,0.0,
4.745987999999896,0.0,0.0,-34066.0,5.25,1267.5,1082.8125,0.0,0.0,3.653564079,4.833695042080351,0.0,33476.0,4.75,-1110.0,-1082.8125,0.0,0.0,1.903075977,4.819088791953194,0.0,-3912.0,0.75,1170.0,1082.8125,0.0,0.0,4.8107905230000005,4.82395754199558,0.0,59953.0,2.875,1102.5,1082.8125,0.0,0.0,0.252685521,2.3438781669404785,0.0,0.28999999165534973,2.630000114440918,-100.4800033569336,0.03912353515625,0.17327880859375,1.0482177734375,35.040000915527344,0.0,-163.0,-2.81610107421875,-1.4005584716796875,Closing,0.0,0.0,-110162.0,0.0,0.0,0.0,0.0,0.0,
4.868441999999806,0.0,0.0,-33860.0,3.875,1267.5,1082.8125,0.0,0.125,3.653564079,4.819492398156062,0.0,33288.0,3.75,-1162.5,-1082.8125,0.0,0.0,1.901855274,4.8049290649626,0.0,-3717.0,0.5,1207.5,1082.8125,0.0,0.0,4.783935057,4.809783509360421,0.0,60142.0,2.0,1177.5,1082.8125,0.0,0.0,0.252685521,2.3297227316432543,0.0,0.33000001311302185,2.5399999618530273,-101.19999694824219,-0.06451416015625,-0.00970458984375,0.75299072265625,35.040000915527344,0.0,32.0,-2.8260955810546875,-1.404815673828125,Closing,0.0,0.0,-110162.0,0.0,0.0,0.0,0.0,0.0,
4.987160999999848,0.0,0.0,-33661.0,2.875,1260.0,1082.8125,0.0,0.125,3.654784782,4.8095644865247955,0.0,33107.0,3.5,-1147.5,-1082.8125,0.0,0.0,1.901855274,4.795031153064305,0.0,-3523.0,0.125,1207.5,1082.8125,0.0,0.0,4.754638185,4.799875597551136,0.0,60326.0,2.0,1147.5,1082.8125,0.0,0.0,0.252685521,2.3198278197182565,0.0,0.4699999988079071,2.140000104904175,-102.0999984741211,0.0504150390625,-0.00653076171875,1.18017578125,35.040000915527344,0.0,14.0,-2.835540771484375,-1.4141693115234375,Closing,0.0,0.0,-110162.0,0.0,0.0,0.0,0.0,0.0,
5.109368999999948,0.0,0.0,-33501.0,0.625,1027.5,656.25,0.0,0.125,3.652343376,4.797154465484621,0.0,32952.0,0.5,-967.5,-656.25,0.0,0.0,1.901855274,4.782658632087709,0.0,-3351.0,0.0,1095.0,656.25,0.0,0.0,4.746093264000001,4.787490576553346,0.0,60476.0,0.5,960.0,656.25,0.0,0.0,0.255126927,2.3074590487480178,0.0,0.550000011920929,1.5299999713897705,-102.95999908447266,-0.15960693359375,0.05908203125,1.09686279296875,35.040000915527344,0.0,-4.0,-2.843109130859375,-1.4314117431640625,Closing,0.0,0.0,-110162.0,0.0,0.0,0.0,0.0,0.0,
5.230868999999948,0.0,0.0,-33360.0,0.0,877.5,0.0,0.0,0.125,3.652343376,4.797154465484621,0.0,32830.0,0.0,-780.0,0.0,0.0,0.0,1.901855274,4.782658632087709,0.0,-3205.0,0.0,907.5,0.0,0.0,0.0,4.743651858000001,4.787490576553346,0.0,60615.0,0.0,870.0,0.0,0.0,0.0,0.252685521,2.3074590487480178,0.0,0.7400000095367432,0.6800000071525574,-103.77999877929688,-0.1015625,0.08050537109375,1.28271484375,35.040000915527344,0.0,-34.0,-2.843994140625,-1.469268798828125,Closing,0.0,0.0,-110162.0,0.0,0.0,0.0,0.0,0.0,
5.3520739999997895,0.0,0.0,-33313.0,45.375,412.5,-1504.7244429588318,0.0,3.625,3.86962851,0.5533560492066895,0.0,32701.0,1.875,-780.0,-1504.7244429588318,0.0,1.25,1.6638181890000001,4.397316058113635,0.0,-3233.0,20.875,-180.0,-1504.7244429588318,0.0,0.125,4.517821803,4.401758689006861,0.0,60725.0,1.625,675.0,1504.7244429588318,0.0,1.125,0.6726073530000001,3.0252667311543324,0.0,1.5,-1.309999942779541,-102.37999725341797,-0.25689697265625,0.29241943359375,1.01849365234375,35.040000915527344,0.0,-209.0,-2.84393310546875,-1.528289794921875,Closing,0.0,0.0,-110162.0,0.0,0.0,0.0,0.0,0.0,
5.473981999999843,0.0,0.0,-33363.0,65.125,-225.0,-2050.3937244415283,0.0,0.875,4.283446827000001,0.5533560492066895,0.0,32621.0,19.375,-517.5,-2050.3937244415283,0.0,0.125,1.459960788,4.397316058113635,0.0,-3367.0,24.25,-802.5,-2050.3937244415283,0.0,0.0,4.311522996,4.401758689006861,0.0,60793.0,20.0,465.0,2050.3937244415283,0.0,0.875,0.898437408,3.0252667311543324,0.0,1.3600000143051147,-1.8799999952316284,-98.2300033569336,-0.0693359375,-0.1368408203125,0.806640625,35.040000915527344,0.0,160.0,-2.8462677001953125,-1.599212646484375,Closing,0.0,0.0,-110162.0,0.0,0.0,0.0,0.0,0.0,
5.594988999999827,0.0,0.0,-33547.0,45.125,-1102.5,-2100.0,0.0,0.125,4.587401874,0.5533560492066895,0.0,32455.0,26.125,-997.5,-2100.0,0.0,0.0,1.442870946,4.397316058113635,0.0,-3546.0,34.125,-1087.5,-2100.0,0.0,0.0,4.2956538570000005,4.401758689006861,0.0,60940.0,28.5,952.5,2100.0,0.0,0.0,0.92773428,3.0252667311543324,0.0,0.5899999737739563,-1.6100000143051147,-85.23999786376953,0.01611328125,0.1650390625,0.84429931640625,35.02000045776367,0.0,-152.0,-2.841033935546875,-1.687530517578125,Closing,0.0,0.0,-110162.0,0.0,0.0,0.0,0.0,0.0,
5.718609999999869,0.0,0.0,-33856.0,33.0,-1912.5,-2100.0,0.0,0.25,4.595946795000001,0.5533560492066895,0.0,32165.0,14.125,-1800.0,-2100.0,0.0,0.0,1.436767431,4.397316058113635,0.0,-3812.0,29.0,-1650.0,-2100.0,0.0,0.0,4.306640184,4.401758689006861,0.0,61202.0,20.0,1635.0,2100.0,0.0,0.0,0.9228514680000001,3.0252667311543324,0.0,0.23999999463558197,-1.2400000095367432,-65.18000030517578,-0.00909423828125,0.01007080078125,0.963623046875,35.02000045776367,0.0,0.0,-2.83526611328125,-1.752899169921875,Closing,0.0,0.0,-110162.0,0.0,0.0,0.0,0.0,0.0,
5.835111999999965,0.0,0.0,-34209.0,25.0,-2205.0,-2100.0,0.0,0.375,4.477538604,0.5533560492066895,0.0,31806.0,5.875,-2242.5,-2100.0,0.0,0.0,1.436767431,4.397316058113635,0.0,-4139.0,20.25,-2070.0,-2100.0,0.0,0.0,4.331054244000001,4.401758689006861,0.0,61548.0,9.125,2167.5,2100.0,0.0,0.0,0.9350584980000001,3.0252667311543324,0.0,-0.3700000047683716,-1.0399999618530273,-39.93000030517578,-0.06268310546875,0.0447998046875,1.56097412109375,35.02000045776367,0.0,-61.0,-2.8236083984375,-1.8137359619140625,Closing,0.0,0.0,-110162.0,0.0,0.0,0.0,0.0,0.0,
5.968449999999954,0.0,0.0,-34539.0,0.875,-2017.5,-744.0945088863373,0.0,0.125,4.3408198680000005,0.5533560492066895,0.0,31478.0,0.125,-2010.0,-744.0945088863373,0.0,0.0,1.4257811040000001,4.397316058113635,0.0,-4455.0,0.0,-1927.5,-744.0945088863373,0.0,0.0,4.32128862,4.401758689006861,0.0,61885.0,0.0,1987.5,744.0945088863373,0.0,0.0,0.937499904,3.0252667311543324,0.0,-0.699999988079071,-0.550000011920929,-9.859999656677246,-0.10052490234375,0.14117431640625,1.04425048828125,35.02000045776367,0.0,-115.0,-2.8072052001953125,-1.8851165771484375,Closing,0.0,0.0,-110162.0,0.0,0.0,0.0,0.0,0.0,
6.0948779999997935,0.0,0.0,-34808.0,0.0,-1650.0,0.0,0.0,0.0,4.2883296390000005,0.5533560492066895,0.0,31184.0,0.0,-1807.5,0.0,0.0,0.0,1.433105322,4.397316058113635,0.0,-4738.0,0.0,-1717.5,0.0,0.0,0.0,4.32128862,4.401758689006861,0.0,62181.0,0.0,1807.5,0.0,0.0,0.0,0.937499904,3.0252667311543324,0.0,-0.8799999952316284,-0.28999999165534973,11.579999923706055,0.02740478515625,0.04742431640625,0.7996826171875,35.029998779296875,0.0,42.0,-2.793182373046875,-1.948638916015625,Closing,0.0,0.0,-110162.0,0.0,0.0,0.0,0.0,0.0,
6.216225999999791,0.0,0.0,-35028.0,0.0,-1297.5,0.0,0.0,0.125,4.289550342,0.5533560492066895,0.0,30949.0,0.0,-1387.5,0.0,0.0,0.0,1.431884619,4.397316058113635,0.0,-4974.0,0.0,-1417.5,0.0,0.0,0.0,4.320067917,4.401758689006861,0.0,62433.0,0.0,1515.0,0.0,0.0,0.0,0.937499904,3.0252667311543324,0.0,-0.8500000238418579,0.15000000596046448,29.420000076293945,-0.14874267578125,0.126953125,1.10357666015625,35.029998779296875,0.0,-61.0,-2.776763916015625,-2.0126800537109375,Closing,0.0,0.0,-110162.0,0.0,0.0,0.0,0.0,0.0,
6.336720999999903,0.0,0.0,-35156.0,12.5,-712.5,131.25,0.0,0.125,4.299315966,0.5533560492066917,0.0,30795.0,15.875,-622.5,131.25,0.0,0.0,1.4270018070000001,4.397316058113637,0.0,-5101.0,12.375,-472.5,131.25,0.0,0.0,4.306640184,4.40175868900686,0.0,62603.0,18.125,772.5,-131.25,0.0,0.0,0.9362792010000001,3.0252667311543298,0.0,-0.9700000286102295,-0.20999999344348907,39.0099983215332,-0.28692626953125,0.02484130859375,1.366943359375,35.029998779296875,0.0,-188.0,-2.762969970703125,-2.075653076171875,Closing,0.0,0.0,-110162.0,0.0,0.0,0.0,0.0,0.0,
6.456113999999827,0.0,0.0,-35123.0,11.75,277.5,935.15625,0.0,0.125,4.28466753,0.5533560492066916,0.0,30832.0,15.25,322.5,935.15625,0.0,0.0,1.384277202,4.397316058113637,0.0,-5071.0,8.0,412.5,935.15625,0.0,0.0,4.328612838000001,4.40175868900686,0.0,62573.0,13.0,-487.5,-935.15625,0.0,0.0,0.9350584980000001,3.0252667311543298,0.0,-1.0299999713897705,-0.7200000286102295,33.939998626708984,0.06158447265625,0.00335693359375,0.949951171875,35.029998779296875,0.0,72.0,-2.7599334716796875,-2.135406494140625,Closing,0.0,0.0,-110162.0,0.0,0.0,0.0,0.0,0.0,
6.579644999999786,0.0,0.0,-35017.0,0.375,637.5,131.25,0.0,0.125,4.268798391,0.5533560492066917,0.0,30954.0,0.25,720.0,131.25,0.0,0.0,1.386718608,4.397316058113637,0.0,-4969.0,0.375,615.0,131.25,0.0,0.0,4.306640184,4.40175868900686,0.0,62456.0,0.125,-682.5,-131.25,0.0,0.0,0.95214834,3.0252667311543298,0.0,-0.6899999976158142,-0.6499999761581421,23.6200008392334,0.04400634765625,-0.0389404296875,0.83770751953125,35.0099983215332,0.0,37.0,-2.7528228759765625,-2.193267822265625,Closing,0.0,0.0,-110162.0,0.0,0.0,0.0,0.0,0.0,
6.695822999999859,0.0,0.0,-34943.0,0.0,442.5,0.0,0.0,0.125,4.282226124,0.5533560492066917,0.0,31045.0,0.0,532.5,0.0,0.0,0.0,1.383056499,4.397316058113637,0.0,-4889.0,0.0,450.0,0.0,0.0,0.0,4.305419481,4.40175868900686,0.0,62367.0,0.0,-510.0,0.0,0.0,0.0,0.955810449,3.0252667311543298,0.0,-0.5,-0.5299999713897705,17.670000076293945,0.02423095703125,0.067626953125,1.2847900390625,35.0099983215332,0.0,58.0,-2.7417144775390625,-2.2471771240234375,Closing,0.0,0.0,-110162.0,0.0,0.0,0.0,0.0,0.0,
6.819402000000002,0.0,0.0,-34909.0,0.0,180.0,0.0,0.0,0.125,4.283446827000001,0.5533560492066917,0.0,31076.0,0.0,105.0,0.0,0.0,0.0,1.384277202,4.397316058113637,0.0,-4858.0,0.0,105.0,0.0,0.0,0.0,4.306640184,4.40175868900686,0.0,62335.0,0.0,-105.0,0.0,0.0,0.0,0.9570311520000001,3.0252667311543298,0.0,-0.28999999165534973,-0.3499999940395355,16.309999465942383,0.029052734375,-0.00274658203125,1.02447509765625,35.0099983215332,0.0,34.0,-2.726837158203125,-2.297271728515625,Closing,0.0,0.0,-110162.0,0.0,0.0,0.0,0.0,0.0,
6.939784999999916,0.0,0.0,-34909.0,0.0,0.0,0.0,0.0,0.125,4.289550342,0.5533560492066917,0.0,31076.0,0.0,0.0,0.0,0.0,0.0,1.383056499,4.397316058113637,0.0,-4858.0,0.0,0.0,0.0,0.0,0.0,4.306640184,4.40175868900686,0.0,62335.0,0.0,0.0,0.0,0.0,0.0,0.955810449,3.0252667311543298,0.0,-0.10999999940395355,-0.28999999165534973,17.209999084472656,-0.02276611328125,0.0509033203125,1.01031494140625,35.0099983215332,0.0,-1.0,-2.71405029296875,-2.29656982421875,Closing,0.0,0.0,-110162.0,0.0,0.0,0.0,0.0,0.0,
7.056685999999987,0.0,0.0,-34909.0,0.0,0.0,0.0,0.0,0.125,4.283446827000001,0.5533560492066917,0.0,31076.0,0.0,0.0,0.0,0.0,0.0,1.383056499,4.397316058113637,0.0,-4858.0,0.0,0.0,0.0,0.0,0.0,4.306640184,4.40175868900686,0.0,62335.0,0.0,0.0,0.0,0.0,0.0,0.955810449,3.0252667311543298,0.0,-0.05000000074505806,-0.2800000011920929,17.530000686645508,0.02178955078125,0.03289794921875,0.98779296875,34.9900016784668,0.0,35.0,-2.7138519287109375,-2.29473876953125,Closing,0.0,0.0,-110162.0,0.0,0.0,0.0,0.0,0.0,
7.181962999999989,0.0,0.0,-34909.0,0.0,0.0,0.0,0.0,0.125,4.282226124,0.5533560492066917,0.0,31076.0,0.0,0.0,0.0,0.0,0.0,1.384277202,4.397316058113637,0.0,-4858.0,0.0,0.0,0.0,0.0,0.0,4.306640184,4.40175868900686,0.0,62335.0,0.0,0.0,0.0,0.0,0.0,0.955810449,3.0252667311543298,0.0,0.09000000357627869,-0.27000001072883606,17.420000076293945,-0.0018310546875,0.00970458984375,1.00830078125,34.9900016784668,0.0,5.0,-2.71307373046875,-2.293060302734375,Closing,0.0,0.0,-110162.0,0.0,0.0,0.0,0.0,0.0,
7.301421999999787,0.0,0.0,-34909.0,0.0,0.0,0.0,0.0,0.125,4.283446827000001,0.5533560492066917,0.0,31076.0,0.0,0.0,0.0,0.0,0.0,1.384277202,4.397316058113637,0.0,-4858.0,0.0,0.0,0.0,0.0,0.0,4.306640184,4.40175868900686,0.0,62335.0,0.0,0.0,0.0,0.0,0.0,0.9570311520000001,3.0252667311543298,0.0,0.20999999344348907,-0.2199999988079071,17.459999084472656,-0.007080078125,0.01708984375,0.99578857421875,34.9900016784668,0.0,0.0,-2.7126312255859375,-2.292633056640625,Closing,0.0,0.0,-110162.0,0.0,0.0,0.0,0.0,0.0,
7.430285999999847,0.0,0.0,-34909.0,0.0,0.0,0.0,0.0,0.125,4.283446827000001,0.5533560492066917,0.0,31076.0,0.0,0.0,0.0,0.0,0.0,1.384277202,4.397316058113637,0.0,-4858.0,0.0,0.0,0.0,0.0,0.0,4.305419481,4.40175868900686,0.0,62335.0,0.0,0.0,0.0,0.0,0.0,0.953369043,3.0252667311543298,0.0,0.3100000023841858,-0.18000000715255737,17.459999084472656,0.005126953125,0.02520751953125,1.00244140625,34.9900016784668,0.0,13.0,-2.7124786376953125,-2.2924652099609375,Closing,0.0,0.0,-110162.0,0.0,0.0,0.0,0.0,0.0,
7.549572999999858,0.0,0.0,-34901.0,1.125,67.5,410.15625000000006,0.0,0.125,4.283446827000001,0.5533560492066917,0.0,31083.0,1.125,52.5,410.15625000000006,0.0,0.0,1.385497905,4.397316058113637,0.0,-4858.0,1.375,0.0,410.15625000000006,0.0,0.0,4.301757372,4.40175868900686,0.0,62333.0,0.75,-30.0,-410.15625000000006,0.0,0.0,0.9570311520000001,3.0252667311543298,0.0,0.4000000059604645,-0.18000000715255737,17.350000381469727,0.0052490234375,0.035400390625,0.96905517578125,34.97999954223633,0.0,16.0,-2.7121734619140625,-2.2915496826171875,Closing,0.0,0.0,-110162.0,0.0,0.0,0.0,0.0,0.0,
7.6711819999997966,0.0,0.0,-34892.0,2.375,60.0,426.5625,0.0,0.125,4.259032767,0.5533560492066917,0.0,31091.0,2.5,67.5,426.5625,0.0,0.0,1.383056499,4.397316058113637,0.0,-4858.0,2.5,45.0,426.5625,0.0,0.0,4.302978075,4.40175868900686,0.0,62322.0,1.875,-67.5,-426.5625,0.0,0.0,0.9570311520000001,3.02526673115433,0.0,0.46000000834465027,-0.12999999523162842,16.469999313354492,0.01287841796875,0.03936767578125,0.9814453125,34.97999954223633,0.0,23.0,-2.7115020751953125,-2.2909088134765625,Closing,0.0,0.0,-110162.0,0.0,0.0,0.0,0.0,0.0,
7.7906719999997875,0.0,0.0,-34880.0,0.0,60.0,0.0,0.0,0.125,4.2858882330000005,0.5533560492066917,0.0,31102.0,0.0,30.0,0.0,0.0,0.0,1.384277202,4.397316058113637,0.0,-4826.0,0.0,105.0,0.0,0.0,0.0,4.306640184,4.40175868900686,0.0,62309.0,0.0,-37.5,0.0,0.0,0.0,0.9570311520000001,3.02526673115433,0.0,0.5199999809265137,-0.12999999523162842,14.960000038146973,-0.02618408203125,0.02520751953125,1.07989501953125,34.97999954223633,0.0,-18.0,-2.71136474609375,-2.2918243408203125,Closing,0.0,0.0,-110162.0,0.0,0.0,0.0,0.0,0.0,
7.912725999999791,0.0,0.0,-34880.0,0.0,0.0,0.0,0.0,0.125,4.283446827000001,0.5533560492066917,0.0,31102.0,0.0,0.0,0.0,0.0,0.0,1.384277202,4.397316058113637,0.0,-4826.0,0.0,0.0,0.0,0.0,0.0,4.306640184,4.40175868900686,0.0,62309.0,0.0,0.0,0.0,0.0,0.0,0.955810449,3.02526673115433,0.0,0.6200000047683716,-0.019999999552965164,14.710000038146973,-0.00970458984375,0.0244140625,0.999755859375,34.97999954223633,0.0,-5.0,-2.71051025390625,-2.292327880859375,Closing,0.0,0.0,-110162.0,0.0,0.0,0.0,0.0,0.0,
8.038113999999826,0.0,0.0,-34880.0,0.0,0.0,0.0,0.0,0.125,4.283446827000001,0.5533560492066917,0.0,31102.0,0.0,0.0,0.0,0.0,0.0,1.384277202,4.397316058113637,0.0,-4826.0,0.0,0.0,0.0,0.0,0.0,4.306640184,4.40175868900686,0.0,62309.0,0.0,0.0,0.0,0.0,0.0,0.9570311520000001,3.02526673115433,0.0,0.7099999785423279,-0.03999999910593033,15.09000015258789,0.00177001953125,0.0068359375,0.9935302734375,35.0,0.0,0.0,-2.71051025390625,-2.2921600341796875,Closing,0.0,0.0,-110162.0,0.0,0.0,0.0,0.0,0.0,
8.169822999999859,0.0,0.0,-34880.0,0.0,0.0,0.0,0.0,0.125,4.283446827000001,0.5533560492066917,0.0,31102.0,0.0,0.0,0.0,0.0,0.0,1.384277202,4.397316058113637,0.0,-4826.0,0.0,0.0,0.0,0.0,0.0,4.306640184,4.40175868900686,0.0,62309.0,0.0,0.0,0.0,0.0,0.0,0.9582518550000001,3.02526673115433,0.0,0.7599999904632568,-0.029999999329447746,15.170000076293945,-0.003662109375,0.01800537109375,1.00640869140625,35.0,0.0,-1.0,-2.71051025390625,-2.2921600341796875,Closing,0.0,0.0,-110162.0,0.0,0.0,0.0,0.0,0.0,
8.294629999999888,0.0,0.0,-34880.0,0.0,0.0,0.0,0.0,0.125,4.283446827000001,0.5533560492066917,0.0,31102.0,0.0,0.0,0.0,0.0,0.0,1.405029153,4.397316058113637,0.0,-4826.0,0.0,0.0,0.0,0.0,0.0,4.306640184,4.40175868900686,0.0,62309.0,0.0,0.0,0.0,0.0,0.0,0.9570311520000001,3.02526673115433,0.0,0.8100000023841858,-0.009999999776482582,15.170000076293945,1.220703125E-4,0.0255126953125,1.0008544921875,35.0,0.0,3.0,-2.71051025390625,-2.2921600341796875,Closing,0.0,0.0,-110162.0,0.0,0.0,0.0,0.0,0.0,
8.4269589999998,0.0,0.0,-34880.0,0.0,0.0,0.0,0.0,0.125,4.283446827000001,0.5533560492066917,0.0,31102.0,0.0,0.0,0.0,0.0,0.0,1.383056499,4.397316058113637,0.0,-4826.0,0.0,0.0,0.0,0.0,0.0,4.306640184,4.40175868900686,0.0,62309.0,0.0,0.0,0.0,0.0,0.0,0.9570311520000001,3.02526673115433,0.0,0.8600000143051147,0.0,15.170000076293945,0.00347900390625,0.027099609375,0.99761962890625,35.0,0.0,6.0,-2.71051025390625,-2.2921600341796875,Closing,0.0,0.0,-110162.0,0.0,0.0,0.0,0.0,0.0,
8.549769999999786,0.0,0.0,-34880.0,0.75,60.0,344.53125,0.0,1.125,4.046630445,-0.0,0.0,31102.0,0.25,-105.0,-344.53125,0.0,1.125,1.772460756,-0.0,0.0,-4826.0,1.375,0.0,344.53125,0.0,0.625,4.73632764,0.0,0.0,62317.0,0.75,37.5,344.53125,0.0,0.75,0.615234312,2.47375,0.0,0.9100000262260437,0.07000000029802322,15.140000343322754,-0.02398681640625,0.00384521484375,1.0133056640625,34.9900016784668,0.0,-27.0,-2.710113525390625,-2.2921600341796875,Closing,0.0,0.0,-110162.0,0.0,0.0,0.0,0.0,0.0,
8.682133999999845,0.0,0.0,-34866.0,9.5,187.5,1082.8125,0.0,0.25,3.6877437630000003,-0.0,0.0,31080.0,9.625,-150.0,-1082.8125,0.0,0.0,2.108154081,-0.0,0.0,-4789.0,10.5,187.5,1082.8125,0.0,0.125,0.09765624,0.0,0.0,62353.0,10.5,195.0,1082.8125,0.0,0.0,0.281982393,2.47375,0.0,1.0099999904632568,1.1100000143051147,14.90999984741211,0.33270263671875,0.002197265625,0.92291259765625,34.9900016784668,0.0,300.0,-2.7022247314453125,-2.2934722900390625,Closing,0.0,0.0,-110162.0,0.0,0.0,0.0,0.0,0.0,
8.813476999999954,0.0,0.0,-34722.0,9.625,577.5,1082.8125,0.0,0.125,3.6291500190000003,-0.0,0.0,30960.0,12.375,-487.5,-1082.8125,0.0,0.0,2.187499776,-0.0,0.0,-4697.0,10.25,525.0,1082.8125,0.0,0.0,0.020751951,0.0,0.0,62431.0,11.875,457.5,1082.8125,0.0,0.0,0.253906224,2.47375,0.0,0.8999999761581421,2.009999990463257,14.050000190734863,0.17413330078125,0.064453125,1.08282470703125,34.9900016784668,0.0,143.0,-2.6792449951171875,-2.301605224609375,Closing,0.0,0.0,-110162.0,0.0,0.0,0.0,0.0,0.0,
8.949379999999888,0.0,0.0,-34586.0,7.625,840.0,1082.8125,0.0,0.375,3.6389156430000003,-0.0,0.0,30847.0,12.75,-682.5,-1082.8125,0.0,0.25,2.14843728,-0.0,0.0,-4562.0,8.125,832.5,1082.8125,0.0,0.0,4.8681635640000005,0.0,0.0,62532.0,14.375,645.0,1082.8125,0.0,0.0,0.31738278000000003,2.47375,0.0,0.8500000238418579,2.450000047683716,12.539999961853027,0.13037109375,0.0484619140625,1.01922607421875,34.9900016784668,0.0,91.0,-2.6745452880859375,-2.3115081787109375,Closing,0.0,0.0,-110162.0,0.0,0.0,0.0,0.0,0.0,
9.076933999999891,0.0,0.0,-34431.0,3.875,960.0,853.125,0.0,0.25,3.697509387,-0.0,0.0,30711.0,8.25,-847.5,-853.125,0.0,0.0,2.052001743,-0.0,0.0,-4407.0,3.75,975.0,853.125,0.0,0.0,4.864501455,0.0,0.0,62659.0,8.75,817.5,853.125,0.0,0.0,0.379638633,2.47375,0.0,0.8500000238418579,2.640000104904175,11.319999694824219,0.0595703125,0.02337646484375,0.9620361328125,35.0,0.0,16.0,-2.6632843017578125,-2.3224945068359375,Closing,0.0,0.0,-110162.0,0.0,0.0,0.0,0.0,0.0,
9.210559999999823,0.0,0.0,-34271.0,2.25,1012.5,836.71875,0.0,0.125,3.7463375070000002,-0.0,0.0,30560.0,5.625,-952.5,-836.71875,0.0,0.0,2.033691198,-0.0,0.0,-4249.0,2.625,990.0,836.71875,0.0,0.0,4.842528801,0.0,0.0,62805.0,6.125,930.0,836.71875,0.0,0.0,0.39062496,2.47375,0.0,0.8999999761581421,2.619999885559082,10.600000381469727,0.1083984375,0.08544921875,0.98443603515625,35.0,0.0,74.0,-2.64923095703125,-2.3235321044921875,Closing,0.0,0.0,-110162.0,0.0,0.0,0.0,0.0,0.0,
9.336582999999868,0.0,0.0,-34105.0,1.75,1035.0,879.3501621723786,0.0,0.25,3.819579687,0.12401436895753562,0.0,30407.0,1.5,-930.0,-559.5474867637789,0.0,0.0,2.032470495,0.19550882231858038,0.0,-4084.0,2.0,1035.0,879.3501621723786,0.0,0.0,4.829101068,4.8302354585383505,0.0,62957.0,1.875,930.0,559.5474867637789,0.0,0.0,0.340576137,2.2783004347502174,0.0,0.949999988079071,2.3499999046325684,9.779999732971191,0.01153564453125,0.0650634765625,0.9071044921875,35.0,0.0,-16.0,-2.639007568359375,-2.3202362060546875,Closing,0.0,0.0,-110162.0,0.0,0.0,0.0,0.0,0.0,
9.466925999999978,0.0,0.0,-33932.0,3.125,1117.5,1186.7231116146088,0.0,0.25,4.007567949,0.2654356856911412,0.0,30271.0,0.75,-772.5,-435.878719729314,0.0,1.875,2.6904294120000003,0.8777080140000757,0.0,-3910.0,3.125,1132.5,1186.7231116146088,0.0,0.0,4.638671400000001,4.6890990356740705,0.0,63095.0,0.75,772.5,435.878719729314,0.0,1.5,4.559325705,1.596308011867978,0.0,0.8799999952316284,1.6399999856948853,6.460000038146973,-0.19390869140625,0.08428955078125,1.15618896484375,35.0,0.0,-218.0,-2.6343994140625,-2.314605712890625,Closing,0.0,0.0,-110162.0,0.0,0.0,0.0,0.0,0.0,
9.597665999999968,0.0,0.0,-33738.0,0.375,1200.0,926.3374285921498,0.0,0.0,4.108886298,0.22864183273011227,0.0,30189.0,1.5,-510.0,-371.22717158168,0.0,0.0,2.94189423,0.6242305795316208,0.0,-3714.0,0.375,1177.5,926.3374285921498,0.0,0.0,4.501952664,4.725818767255243,0.0,63203.0,0.5,682.5,371.22717158168,0.0,0.25,4.310302293,1.8497086194720767,0.0,0.8299999833106995,0.800000011920929,-1.940000057220459,-0.0477294921875,0.07568359375,0.73736572265625,35.02000045776367,0.0,-60.0,-2.648223876953125,-2.3132476806640625,Closing,0.0,0.0,-110162.0,0.0,0.0,0.0,0.0,0.0,
9.72708899999992,0.0,0.0,-33577.0,1.625,915.0,894.9384512236004,0.0,0.125,4.117431219,0.23690849908756173,0.0,30108.0,1.875,-352.5,-348.97409993830996,0.0,0.25,2.813720415,0.6770097599914299,0.0,-3535.0,0.5,1050.0,894.9384512236004,0.0,0.125,4.536132348000001,4.717568754133808,0.0,63288.0,1.125,382.5,348.97409993830996,0.0,0.5,4.530028833,1.796945435935017,0.0,1.1200000047683716,0.3400000035762787,-9.069999694824219,-0.1572265625,0.13555908203125,0.97503662109375,35.02000045776367,0.0,-179.0,-2.6727447509765625,-2.30706787109375,Closing,0.0,0.0,-110162.0,0.0,0.0,0.0,0.0,0.0,
9.847831999999936,0.0,0.0,-33438.0,2.875,870.0,1001.6936404567706,0.0,0.125,4.057616772,0.28111756008361927,0.0,30063.0,3.375,-270.0,-366.1984513164782,0.0,0.0,2.7478024530000003,0.9945641756545733,0.0,-3399.0,3.375,802.5,1001.6936404567706,0.0,0.0,4.6081538250000005,4.673448752487056,0.0,63349.0,1.75,337.5,366.1984513164782,0.0,0.0,4.57763625,1.4794872683267322,0.0,1.399999976158142,0.3700000047683716,-13.819999694824219,-1.220703125E-4,0.10028076171875,1.01593017578125,35.02000045776367,0.0,-24.0,-2.7057037353515625,-2.29705810546875,Closing,0.0,0.0,-110162.0,0.0,0.0,0.0,0.0,0.0,
9.969141999999993,0.0,0.0,-33305.0,0.5,712.5,525.0,0.0,0.25,3.9025874910000002,-0.0,0.0,30015.0,6.0,-315.0,-525.0,0.0,4.875,2.6916501150000003,-0.0,0.0,-3263.0,1.125,750.0,525.0,0.0,0.375,4.721679204,0.0,0.0,63397.0,4.625,292.5,525.0,0.0,1.125,0.142822251,2.47375,0.0,1.3600000143051147,0.49000000953674316,-18.959999084472656,-0.12664794921875,0.22174072265625,1.14337158203125,35.02000045776367,0.0,-192.0,-2.7427215576171875,-2.28192138671875,Closing,0.0,0.0,-110162.0,0.0,0.0,0.0,0.0,0.0,
10.087482999999775,0.0,0.0,-33195.0,2.625,592.5,631.0466759099232,0.0,0.0,3.757323834,0.10622908890203007,0.0,29970.0,6.125,-285.0,-432.9933230698093,0.0,0.5,2.1142575960000003,0.15488250377695295,0.0,-3165.0,1.5,750.0,631.0466759099232,0.0,0.125,4.858397940000001,4.847984910068361,0.0,63433.0,6.0,195.0,432.9933230698093,0.0,0.25,0.54931635,2.3189144397986503,0.0,1.6699999570846558,0.5799999833106995,-21.729999542236328,-0.0384521484375,0.07177734375,1.02117919921875,35.02000045776367,0.0,-60.0,-2.774322509765625,-2.265411376953125,Closing,0.0,0.0,-110162.0,0.0,0.0,0.0,0.0,0.0,
10.20696399999992,0.0,0.0,-33121.0,2.5,547.5,525.0,0.0,0.125,3.757323834,-0.0,0.0,29910.0,6.125,-450.0,-525.0,0.0,0.0,1.9213865220000002,-0.0,0.0,-3069.0,3.625,352.5,525.0,0.0,0.0,4.860839346000001,0.0,0.0,63484.0,5.75,427.5,525.0,0.0,0.0,0.5041503390000001,2.47375,0.0,1.3799999952316284,0.5799999833106995,-21.600000381469727,0.09820556640625,-0.07080078125,0.94122314453125,35.02000045776367,0.0,116.0,-2.81036376953125,-2.2462615966796875,Closing,0.0,0.0,-110162.0,0.0,0.0,0.0,0.0,0.0,
10.332123999999837,0.0,0.0,-33041.0,0.0,262.5,0.0,0.0,0.125,3.752441022,-0.0,0.0,29832.0,0.0,-285.0,0.0,0.0,0.0,1.8920896500000002,-0.0,0.0,-3013.0,0.0,307.5,0.0,0.0,0.0,4.858397940000001,0.0,0.0,63559.0,0.0,330.0,0.0,0.0,0.0,0.435790971,2.47375,0.0,1.340000033378601,0.1599999964237213,-21.15999984741211,-0.19281005859375,-0.0726318359375,0.90142822265625,35.02000045776367,0.0,-148.0,-2.849822998046875,-2.228363037109375,Closing,0.0,0.0,-110162.0,0.0,0.0,0.0,0.0,0.0,
10.454445999999995,0.0,0.0,-33004.0,0.0,292.5,0.0,0.0,0.125,3.751220319,-0.0,0.0,29787.0,0.0,-345.0,0.0,0.0,0.0,1.8920896500000002,-0.0,0.0,-2976.0,0.0,202.5,0.0,0.0,0.0,4.858397940000001,0.0,0.0,63606.0,0.0,255.0,0.0,0.0,0.0,0.40771480200000004,2.47375,0.0,1.350000023841858,-0.47999998927116394,-20.760000228881836,-0.12890625,0.0660400390625,1.18206787109375,35.02000045776367,0.0,-124.0,-2.89520263671875,-2.2210693359375,Closing,0.0,0.0,-110162.0,0.0,0.0,0.0,0.0,0.0,
10.576045999999856,0.0,0.0,-32979.0,0.0,37.5,0.0,0.0,0.125,3.751220319,-0.0,0.0,29765.0,0.0,-30.0,0.0,0.0,0.0,1.909179492,-0.0,0.0,-2951.0,0.0,82.5,0.0,0.0,0.0,4.858397940000001,0.0,0.0,63633.0,0.0,52.5,0.0,0.0,0.0,0.40893550500000003,2.47375,0.0,1.3600000143051147,-1.0199999809265137,-20.889999389648438,-0.08184814453125,0.039794921875,1.0316162109375,35.02000045776367,0.0,-64.0,-2.94976806640625,-2.2218475341796875,Closing,0.0,0.0,-110162.0,0.0,0.0,0.0,0.0,0.0,
10.695775999999839,0.0,0.0,-32977.0,2.25,180.0,694.4881707429886,0.0,7.0,3.3691402800000003,3.722999999999999,0.0,29758.0,2.625,-157.5,-694.4881707429886,0.0,6.125,1.461181491,3.711749999999998,0.0,-2946.0,1.875,112.5,694.4881707429886,0.0,3.125,4.2956538570000005,3.7154999999999982,0.0,63636.0,2.875,-52.5,-694.4881707429886,0.0,7.75,0.826415931,3.7106249999999985,0.0,1.3200000524520874,-0.75,-20.969999313354492,0.08935546875,-0.10955810546875,0.95599365234375,35.02000045776367,0.0,142.0,-3.0068817138671875,-2.222198486328125,Closing,0.0,0.0,-110162.0,0.0,0.0,0.0,0.0,0.0,
10.817415999999968,0.0,0.0,-32943.0,8.375,60.0,843.3070600032806,0.0,16.625,3.2714840400000003,3.722999999999999,0.0,29742.0,10.125,7.5,-843.3070600032806,0.0,3.25,0.889892487,3.711749999999998,0.0,-2908.0,5.25,187.5,843.3070600032806,0.0,0.125,3.551025027,3.7154999999999982,0.0,63618.0,7.625,-150.0,-843.3070600032806,0.0,2.625,1.534423671,3.7106249999999985,0.0,0.8600000143051147,-0.7400000095367432,-21.56999969482422,4.2724609375E-4,-0.1060791015625,1.01220703125,35.02000045776367,0.0,57.0,-3.0430755615234375,-2.2263031005859375,Closing,0.0,0.0,-110162.0,0.0,0.0,0.0,0.0,0.0,
10.939704999999842,0.0,0.0,-32928.0,5.625,105.0,330.70866018533707,0.0,15.0,3.2580563070000004,3.722999999999999,0.0,29735.0,6.375,-112.5,-330.70866018533707,0.0,0.125,0.679931571,3.711749999999998,0.0,-2874.0,4.625,105.0,330.70866018533707,0.0,0.125,3.354491844,3.7154999999999982,0.0,63583.0,3.5,-255.0,-330.70866018533707,0.0,0.0,1.799316222,3.7106249999999985,0.0,0.8199999928474426,-0.6299999952316284,-22.200000762939453,-9.765625E-4,0.126220703125,1.01519775390625,35.02000045776367,0.0,-32.0,-3.040496826171875,-2.236358642578125,Closing,0.0,0.0,-110162.0,0.0,0.0,0.0,0.0,0.0,
11.056711999999825,0.0,0.0,-32913.0,0.0,37.5,0.0,0.0,14.75,3.2629391190000003,3.722999999999999,0.0,29715.0,0.0,-30.0,0.0,0.0,0.0,0.675048759,3.711749999999998,0.0,-2872.0,0.0,0.0,0.0,0.0,0.125,3.560790651,3.7154999999999982,0.0,63554.0,0.0,0.0,0.0,0.0,0.0,1.7846677860000002,3.7106249999999985,0.0,1.6799999475479126,-0.6600000262260437,-22.190000534057617,-0.0272216796875,0.0411376953125,1.04302978515625,35.02000045776367,0.0,-17.0,-3.0423583984375,-2.235076904296875,Closing,0.0,0.0,-110162.0,0.0,0.0,0.0,0.0,0.0,
11.179497999999905,0.0,0.0,-32917.0,0.0,-30.0,0.0,0.0,14.875,3.2727047430000002,3.722999999999999,0.0,29727.0,0.0,75.0,0.0,0.0,0.0,0.675048759,3.711749999999998,0.0,-2874.0,0.0,-15.0,0.0,0.0,0.125,3.6901851690000003,3.7154999999999982,0.0,63564.0,0.0,82.5,0.0,0.0,0.0,1.717529121,3.7106249999999985,0.0,1.2699999809265137,-0.550000011920929,-22.06999969482422,0.00201416015625,-0.07366943359375,1.0211181640625,35.0099983215332,0.0,47.0,-3.040557861328125,-2.232147216796875,Closing,0.0,0.0,-110162.0,0.0,0.0,0.0,0.0,0.0,
11.299052999999839,0.0,0.0,-32919.0,0.0,0.0,0.0,0.0,14.625,3.2714840400000003,3.722999999999999,0.0,29731.0,0.0,0.0,0.0,0.0,0.0,0.679931571,3.711749999999998,0.0,-2875.0,0.0,0.0,0.0,0.0,0.0,3.6767574360000004,3.7154999999999982,0.0,63570.0,0.0,0.0,0.0,0.0,0.0,1.697997873,3.7106249999999985,0.0,1.2000000476837158,-0.5099999904632568,-22.110000610351562,-3.662109375E-4,0.04803466796875,0.99853515625,35.0099983215332,0.0,-2.0,-3.038787841796875,-2.232391357421875,Closing,0.0,0.0,-110162.0,0.0,0.0,0.0,0.0,0.0,
11.41804299999983,0.0,0.0,-32919.0,0.0,0.0,0.0,0.0,14.75,3.2714840400000003,3.722999999999999,0.0,29731.0,0.0,0.0,0.0,0.0,0.0,0.679931571,3.711749999999998,0.0,-2875.0,0.0,0.0,0.0,0.0,0.0,3.663329703,3.7154999999999982,0.0,63570.0,0.0,0.0,0.0,0.0,0.0,1.697997873,3.7106249999999985,0.0,1.2799999713897705,-0.47999998927116394,-22.1200008392334,0.011962890625,0.0079345703125,0.98681640625,35.0099983215332,0.0,24.0,-3.03875732421875,-2.2314300537109375,Closing,0.0,0.0,-110162.0,0.0,0.0,0.0,0.0,0.0,
11.535246999999973,0.0,0.0,-32917.0,4.125,22.5,694.4881707429886,0.0,14.375,3.2702633370000003,3.722999999999999,0.0,29728.0,3.5,-60.0,-694.4881707429886,0.0,0.0,0.679931571,3.711749999999998,0.0,-2874.0,2.875,75.0,694.4881707429886,0.0,0.0,3.663329703,3.7154999999999982,0.0,63569.0,3.125,-45.0,-694.4881707429886,0.0,0.0,1.695556467,3.7106249999999985,0.0,0.9599999785423279,-0.38999998569488525,-22.170000076293945,-0.05291748046875,-0.05169677734375,1.0338134765625,35.0099983215332,0.0,-16.0,-3.036407470703125,-2.2335968017578125,Closing,0.0,0.0,-110162.0,0.0,0.0,0.0,0.0,0.0,
11.65614599999995,0.0,0.0,-32913.0,0.0,7.5,0.0,0.0,14.375,3.2714840400000003,3.722999999999999,0.0,29719.0,0.0,-7.5,0.0,0.0,0.0,0.679931571,3.711749999999998,0.0,-2860.0,0.0,0.0,0.0,0.0,0.0,3.662109,3.7154999999999982,0.0,63557.0,0.0,-22.5,0.0,0.0,0.0,1.693115061,3.7106249999999985,0.0,1.340000033378601,-0.41999998688697815,-22.31999969482422,-0.0216064453125,0.1129150390625,0.97296142578125,35.0,0.0,-47.0,-3.03271484375,-2.23492431640625,Closing,0.0,0.0,-110162.0,0.0,0.0,0.0,0.0,0.0,
11.790764999999897,0.0,0.0,-32914.0,0.0,-22.5,0.0,0.0,14.375,3.2714840400000003,3.722999999999999,0.0,29722.0,0.0,37.5,0.0,0.0,0.0,0.679931571,3.711749999999998,0.0,-2860.0,0.0,0.0,0.0,0.0,0.0,3.656005485,3.7154999999999982,0.0,63560.0,0.0,45.0,0.0,0.0,0.0,1.694335764,3.7106249999999985,0.0,1.2400000095367432,-0.36000001430511475,-22.149999618530273,0.01470947265625,-0.07794189453125,1.02178955078125,35.0,0.0,57.0,-3.030242919921875,-2.234344482421875,Closing,0.0,0.0,-110162.0,0.0,0.0,0.0,0.0,0.0,
11.908661999999778,0.0,0.0,-32916.0,0.0,0.0,0.0,0.0,14.375,3.2727047430000002,3.722999999999999,0.0,29726.0,0.0,0.0,0.0,0.0,0.0,0.679931571,3.711749999999998,0.0,-2860.0,0.0,0.0,0.0,0.0,0.0,3.6730953270000004,3.7154999999999982,0.0,63566.0,0.0,0.0,0.0,0.0,0.0,1.6882322490000001,3.7106249999999985,0.0,1.159999966621399,-0.3199999928474426,-22.18000030517578,0.0050048828125,0.0592041015625,1.0068359375,35.0,0.0,-4.0,-3.029052734375,-2.2384033203125,Closing,0.0,0.0,-110162.0,0.0,0.0,0.0,0.0,0.0,
12.027816999999807,0.0,0.0,-32916.0,0.0,0.0,0.0,0.0,14.375,3.284911773,3.722999999999999,0.0,29726.0,0.0,0.0,0.0,0.0,0.0,0.679931571,3.711749999999998,0.0,-2860.0,0.0,0.0,0.0,0.0,0.0,3.663329703,3.7154999999999982,0.0,63566.0,0.0,0.0,0.0,0.0,0.0,1.6882322490000001,3.7106249999999985,0.0,1.1799999475479126,-0.3100000023841858,-22.18000030517578,-0.0050048828125,-0.00909423828125,1.0074462890625,35.0,0.0,11.0,-3.0290985107421875,-2.2401885986328125,Closing,0.0,0.0,-110162.0,0.0,0.0,0.0,0.0,0.0,
12.144227999999886,0.0,0.0,-32917.0,0.0,0.0,0.0,0.0,14.25,3.2714840400000003,3.722999999999999,0.0,29726.0,0.0,0.0,0.0,0.0,0.0,0.679931571,3.711749999999998,0.0,-2860.0,0.0,0.0,0.0,0.0,0.0,3.662109,3.7154999999999982,0.0,63566.0,0.0,0.0,0.0,0.0,0.0,1.6882322490000001,3.7106249999999985,0.0,1.1699999570846558,-0.28999999165534973,-22.18000030517578,-0.00250244140625,0.0201416015625,0.98907470703125,35.0,0.0,2.0,-3.029052734375,-2.240509033203125,Closing,0.0,0.0,-110162.0,0.0,0.0,0.0,0.0,0.0,
12.255705999999773,0.0,0.0,-32917.0,0.0,0.0,0.0,0.0,14.125,3.2714840400000003,3.722999999999999,0.0,29726.0,0.0,0.0,0.0,0.0,0.0,0.679931571,3.711749999999998,0.0,-2860.0,0.0,0.0,0.0,0.0,0.0,3.662109,3.7154999999999982,0.0,63566.0,0.0,0.0,0.0,0.0,0.0,1.6882322490000001,3.7106249999999985,0.0,1.149999976158142,-0.25999999046325684,-22.18000030517578,0.00164794921875,0.02978515625,0.99359130859375,35.0,0.0,2.0,-3.029052734375,-2.240509033203125,Closing,0.0,0.0,-110162.0,0.0,0.0,0.0,0.0,0.0,
12.384394999999786,0.0,0.0,-32917.0,0.0,0.0,0.0,0.0,14.125,3.2714840400000003,3.722999999999999,0.0,29726.0,0.0,0.0,0.0,0.0,0.0,0.679931571,3.711749999999998,0.0,-2860.0,0.0,0.0,0.0,0.0,0.0,3.662109,3.7154999999999982,0.0,63566.0,0.0,0.0,0.0,0.0,0.0,1.6882322490000001,3.7106249999999985,0.0,1.1299999952316284,-0.23999999463558197,-22.18000030517578,0.00115966796875,0.01953125,0.99969482421875,35.0,0.0,5.0,-3.029052734375,-2.240509033203125,Closing,0.0,0.0,-110162.0,0.0,0.0,0.0,0.0,0.0,
12.5035419999999,0.0,0.0,-32917.0,0.0,0.0,0.0,0.0,14.125,3.2714840400000003,3.722999999999999,0.0,29726.0,0.0,0.0,0.0,0.0,0.0,0.679931571,3.711749999999998,0.0,-2860.0,0.0,0.0,0.0,0.0,0.0,3.662109,3.7154999999999982,0.0,63566.0,0.0,0.0,0.0,0.0,0.0,1.6882322490000001,3.7106249999999985,0.0,1.1299999952316284,-0.2199999988079071,-22.18000030517578,-0.00146484375,0.01220703125,1.00555419921875,35.0,0.0,5.0,-3.029052734375,-2.240509033203125,Closing,0.0,0.0,-110162.0,0.0,0.0,0.0,0.0,0.0,
12.627347999999998,0.0,0.0,-32917.0,0.0,0.0,0.0,0.0,14.0,3.2714840400000003,3.722999999999999,0.0,29726.0,0.0,0.0,0.0,0.0,0.0,0.679931571,3.711749999999998,0.0,-2860.0,0.0,0.0,0.0,0.0,0.0,3.662109,3.7154999999999982,0.0,63566.0,0.0,0.0,0.0,0.0,0.0,1.6882322490000001,3.7106249999999985,0.0,1.1299999952316284,-0.20000000298023224,-22.18000030517578,0.002197265625,0.0167236328125,0.99798583984375,35.0,0.0,6.0,-3.029052734375,-2.240509033203125,Closing,0.0,0.0,-110162.0,0.0,0.0,0.0,0.0,0.0,
12.744844999999971,0.0,0.0,-32917.0,0.0,0.0,0.0,0.0,14.0,3.2702633370000003,3.722999999999999,0.0,29726.0,0.0,0.0,0.0,0.0,0.0,0.681152274,3.711749999999998,0.0,-2860.0,0.0,0.0,0.0,0.0,0.0,3.663329703,3.7154999999999982,0.0,63566.0,0.0,0.0,0.0,0.0,0.0,1.6882322490000001,3.7106249999999985,0.0,1.1200000047683716,-0.18000000715255737,-22.18000030517578,-0.00115966796875,0.02203369140625,1.00115966796875,35.0099983215332,0.0,1.0,-3.029052734375,-2.240509033203125,Closing,0.0,0.0,-110162.0,0.0,0.0,0.0,0.0,0.0,
12.85927099999995,0.0,0.0,-32917.0,0.0,0.0,0.0,0.0,14.0,3.2714840400000003,3.722999999999999,0.0,29726.0,0.0,0.0,0.0,0.0,0.0,0.679931571,3.711749999999998,0.0,-2860.0,0.0,0.0,0.0,0.0,0.0,3.663329703,3.7154999999999982,0.0,63566.0,0.0,0.0,0.0,0.0,0.0,1.6894529520000001,3.7106249999999985,0.0,1.1100000143051147,-0.1599999964237213,-22.18000030517578,0.0010986328125,0.02166748046875,1.0003662109375,35.0099983215332,0.0,2.0,-3.029052734375,-2.240509033203125,Closing,0.0,0.0,-110162.0,0.0,0.0,0.0,0.0,0.0,
12.979097999999999,0.0,0.0,-32917.0,0.0,0.0,0.0,0.0,13.875,3.2714840400000003,3.722999999999999,0.0,29726.0,0.0,0.0,0.0,0.0,0.0,0.679931571,3.711749999999998,0.0,-2860.0,0.0,0.0,0.0,0.0,0.0,3.662109,3.7154999999999982,0.0,63566.0,0.0,0.0,0.0,0.0,0.0,1.6882322490000001,3.7106249999999985,0.0,1.100000023841858,-0.15000000596046448,-22.190000534057617,0.00152587890625,0.01898193359375,1.00360107421875,35.0099983215332,0.0,4.0,-3.029052734375,-2.240509033203125,Closing,0.0,0.0,-110162.0,0.0,0.0,0.0,0.0,0.0,
13.095393999999855,0.0,0.0,-32917.0,0.0,0.0,0.0,0.0,13.875,3.2714840400000003,3.722999999999999,0.0,29726.0,0.0,0.0,0.0,0.0,0.0,0.679931571,3.711749999999998,0.0,-2860.0,0.0,0.0,0.0,0.0,0.0,3.662109,3.7154999999999982,0.0,63566.0,0.0,0.0,0.0,0.0,0.0,1.6894529520000001,3.7106249999999985,0.0,1.100000023841858,-0.12999999523162842,-22.190000534057617,0.00299072265625,0.01568603515625,0.99969482421875,35.0099983215332,0.0,4.0,-3.029052734375,-2.240509033203125,Closing,0.0,0.0,-110162.0,0.0,0.0,0.0,0.0,0.0,
13.221535999999848,0.0,0.0,-32917.0,0.0,0.0,0.0,0.0,13.875,3.2727047430000002,3.722999999999999,0.0,29726.0,0.0,0.0,0.0,0.0,0.0,0.678710868,3.711749999999998,0.0,-2860.0,0.0,0.0,0.0,0.0,0.0,3.662109,3.7154999999999982,0.0,63566.0,0.0,0.0,0.0,0.0,0.0,1.6882322490000001,3.7106249999999985,0.0,1.090000033378601,-0.11999999731779099,-22.190000534057617,0.001953125,0.01702880859375,0.99676513671875,35.04999923706055,0.0,4.0,-3.029052734375,-2.240509033203125,Closing,0.0,0.0,-110162.0,0.0,0.0,0.0,0.0,0.0,
13.342862999999896,0.0,0.0,-32917.0,0.0,0.0,0.0,0.0,13.75,3.2714840400000003,3.722999999999999,0.0,29726.0,0.0,0.0,0.0,0.0,0.0,0.679931571,3.711749999999998,0.0,-2860.0,0.0,0.0,0.0,0.0,0.0,3.662109,3.7154999999999982,0.0,63566.0,0.0,0.0,0.0,0.0,0.0,1.6882322490000001,3.7106249999999985,0.0,1.090000033378601,-0.10999999940395355,-22.190000534057617,0.00244140625,0.01715087890625,0.99725341796875,35.04999923706055,0.0,4.0,-3.029052734375,-2.240509033203125,Closing,0.0,0.0,-110162.0,0.0,0.0,0.0,0.0,0.0,
13.466708999999799,0.0,0.0,-32917.0,0.0,0.0,0.0,0.0,13.75,3.2714840400000003,3.722999999999999,0.0,29726.0,0.0,0.0,0.0,0.0,0.0,0.679931571,3.711749999999998,0.0,-2860.0,0.0,0.0,0.0,0.0,0.0,3.662109,3.7154999999999982,0.0,63566.0,0.0,0.0,0.0,0.0,0.0,1.690673655,3.7106249999999985,0.0,1.090000033378601,-0.10000000149011612,-22.190000534057617,-6.103515625E-5,0.01800537109375,0.998046875,35.04999923706055,0.0,1.0,-3.029052734375,-2.240509033203125,Closing,0.0,0.0,-110162.0,0.0,0.0,0.0,0.0,0.0,
13.586218999999808,0.0,0.0,-32917.0,0.0,0.0,0.0,0.0,13.625,3.2714840400000003,3.722999999999999,0.0,29726.0,0.0,0.0,0.0,0.0,0.0,0.679931571,3.711749999999998,0.0,-2860.0,0.0,0.0,0.0,0.0,0.0,3.662109,3.7154999999999982,0.0,63566.0,0.0,0.0,0.0,0.0,0.0,1.6882322490000001,3.7106249999999985,0.0,1.090000033378601,-0.10000000149011612,-22.190000534057617,-0.00152587890625,0.02001953125,0.9964599609375,35.04999923706055,0.0,0.0,-3.029052734375,-2.240509033203125,Closing,0.0,0.0,-110162.0,0.0,0.0,0.0,0.0,0.0,
13.70005399999977,0.0,0.0,-32917.0,0.0,0.0,0.0,0.0,13.625,3.2714840400000003,3.722999999999999,0.0,29726.0,0.0,0.0,0.0,0.0,0.0,0.679931571,3.711749999999998,0.0,-2860.0,0.0,0.0,0.0,0.0,0.0,3.662109,3.7154999999999982,0.0,63566.0,0.0,0.0,0.0,0.0,0.0,1.6894529520000001,3.7106249999999985,0.0,1.0800000429153442,-0.09000000357627869,-22.190000534057617,0.0013427734375,0.016845703125,0.999755859375,35.029998779296875,0.0,3.0,-3.029052734375,-2.240509033203125,Closing,0.0,0.0,-110162.0,0.0,0.0,0.0,0.0,0.0,
13.821255999999819,0.0,0.0,-32917.0,0.0,0.0,0.0,0.0,13.625,3.2714840400000003,3.722999999999999,0.0,29726.0,0.0,0.0,0.0,0.0,0.0,0.679931571,3.711749999999998,0.0,-2860.0,0.0,0.0,0.0,0.0,0.0,3.659667594,3.7154999999999982,0.0,63566.0,0.0,0.0,0.0,0.0,0.0,1.6882322490000001,3.7106249999999985,0.0,1.0800000429153442,-0.07999999821186066,-22.190000534057617,-7.9345703125E-4,0.01904296875,0.99847412109375,35.029998779296875,0.0,0.0,-3.029052734375,-2.240509033203125,Closing,0.0,0.0,-110162.0,0.0,0.0,0.0,0.0,0.0,
13.946622999999905,0.0,0.0,-32917.0,0.0,0.0,0.0,0.0,13.5,3.2714840400000003,3.722999999999999,0.0,29726.0,0.0,0.0,0.0,0.0,0.0,0.679931571,3.711749999999998,0.0,-2860.0,0.0,0.0,0.0,0.0,0.0,3.666991812,3.7154999999999982,0.0,63566.0,0.0,0.0,0.0,0.0,0.0,1.697997873,3.7106249999999985,0.0,1.0800000429153442,-0.07999999821186066,-22.190000534057617,7.9345703125E-4,0.0179443359375,0.99713134765625,35.029998779296875,0.0,2.0,-3.029052734375,-2.240509033203125,Closing,0.0,0.0,-110162.0,0.0,0.0,0.0,0.0,0.0,
