Time,ClimberA1,ClimberA2,FRpos,FRCurrent,FRspeed,FRsetpoint,FRApos,FRACurrent,FREncpos,FREncSetpoint,FREncSpeed,FLpos,FLCurrent,FLspeed,FLsetpoint,FLApos,FLACurrent,FLEncpos,FLEncSetpoint,FLEncSpeed,BRpos,BRCurrent,BRspeed,BRsetpoint,BRApos,BRACurrent,BREncpos,BREncSetpoint,BREncSpeed,BLpos,BLCurrent,BLspeed,BLsetpoint,BLApos,BLACurrent,BLEncpos,BLEncSetpoint,BLEncSpeed,navx_Pitch,navx_Roll,navx_Yaw,navx_XAcc,navx_YAcc,navx_ZAcc,navx_Temp,navx_Bar,navx_Alt,navx_XDis,navx_YDis,GearPlacerState,ShootOutputV,ShootOutputCurrent,ShootEncPos,ShootEncVelocity,ShootSpeed,ShootSetpoint,CarouselSetpoint,CarouselCurrent,
0.17572200000000884,0.0,0.0,37920.0,0.0,0.0,0.0,0.0,0.125,3.7915035180000003,0.0,0.0,-17083.0,0.0,0.0,-0.0,0.0,0.0,1.979980266,0.0,0.0,20338.0,0.0,0.0,0.0,0.0,0.0,4.8632807520000005,0.0,0.0,-30860.0,0.0,0.0,-0.0,0.0,0.0,2.873534862,0.0,0.0,1.190000057220459,1.0299999713897705,-0.009999999776482582,0.02288818359375,0.0225830078125,1.00439453125,32.880001068115234,0.0,4.0,-3.1690521240234375,-1.32611083984375,Waiting,0.0,0.0,1.0,0.0,0.0,0.0,0.0,0.0,
0.22362100000001373,0.0,0.0,37920.0,0.0,0.0,0.0,0.0,0.125,3.7915035180000003,0.0,0.0,-17083.0,0.0,0.0,-0.0,0.0,0.0,1.978759563,0.0,0.0,20338.0,0.0,0.0,0.0,0.0,0.0,4.8632807520000005,0.0,0.0,-30860.0,0.0,0.0,-0.0,0.0,0.0,2.872314159,0.0,0.0,1.190000057220459,1.0299999713897705,-0.009999999776482582,0.0177001953125,0.02178955078125,1.00048828125,32.880001068115234,0.0,0.0,-3.1690521240234375,-1.32611083984375,Waiting,0.0,0.0,1.0,0.0,0.0,0.0,0.0,0.0,
0.2555,0.0,0.0,37920.0,0.0,0.0,0.0,0.0,0.125,3.7890621120000003,0.0,0.0,-17083.0,0.0,0.0,-0.0,0.0,0.0,1.978759563,0.0,-0.0012207030000004337,20338.0,0.0,0.0,0.0,0.0,0.0,4.864501455,0.0,-0.0012207029999995456,-30860.0,0.0,0.0,-0.0,0.0,0.0,2.872314159,0.0,0.0,1.190000057220459,1.0299999713897705,-0.009999999776482582,0.01873779296875,0.0216064453125,0.99652099609375,32.880001068115234,0.0,0.0,-3.1690521240234375,-1.32611083984375,Waiting,0.0,0.0,1.0,0.0,0.0,0.0,0.0,0.0,
0.29634700000000885,0.0,0.0,37920.0,0.0,0.0,0.0,0.0,0.125,3.7915035180000003,0.0,0.0,-17083.0,0.0,0.0,-0.0,0.0,0.0,1.979980266,0.0,0.0012207030000004337,20338.0,0.0,0.0,0.0,0.0,0.0,4.864501455,0.0,0.0,-30860.0,0.0,0.0,-0.0,0.0,0.0,2.872314159,0.0,0.0,1.190000057220459,1.0299999713897705,-0.009999999776482582,0.01641845703125,0.01983642578125,0.99688720703125,32.880001068115234,0.0,-1.0,-3.1690521240234375,-1.32611083984375,Waiting,0.0,0.0,1.0,0.0,0.0,0.0,0.0,0.0,
0.3387880000000005,0.0,0.0,37920.0,0.0,0.0,0.0,0.0,0.125,3.7902828150000003,0.0,0.0,-17083.0,0.0,0.0,-0.0,0.0,0.0,1.978759563,0.0,0.0,20338.0,0.0,0.0,0.0,0.0,0.0,4.8632807520000005,0.0,0.0,-30860.0,0.0,0.0,-0.0,0.0,0.0,2.872314159,0.0,0.0,1.190000057220459,1.0299999713897705,-0.009999999776482582,0.02020263671875,0.02276611328125,1.001220703125,32.880001068115234,0.0,2.0,-3.1690521240234375,-1.32611083984375,Waiting,0.0,0.0,1.0,0.0,0.0,0.0,0.0,0.0,
0.380195000000007,0.0,0.0,37920.0,0.0,0.0,0.0,0.0,0.125,3.7902828150000003,0.0,0.0,-17083.0,0.0,0.0,-0.0,0.0,0.0,1.978759563,0.0,0.0,20338.0,0.0,0.0,0.0,0.0,0.0,4.8632807520000005,0.0,0.0,-30860.0,0.0,0.0,-0.0,0.0,0.0,2.872314159,0.0,0.0,1.190000057220459,1.0299999713897705,-0.009999999776482582,0.02001953125,0.01934814453125,1.0037841796875,32.880001068115234,0.0,1.0,-3.1690521240234375,-1.32611083984375,Waiting,0.0,0.0,1.0,0.0,0.0,0.0,0.0,0.0,
0.4248399999999965,0.0,0.0,37920.0,0.0,0.0,0.0,0.0,0.125,3.7915035180000003,0.0,0.0,-17083.0,0.0,0.0,-0.0,0.0,0.0,1.979980266,0.0,0.0,20338.0,0.0,0.0,0.0,0.0,0.0,4.864501455,0.0,0.0,-30860.0,0.0,0.0,-0.0,0.0,0.0,2.872314159,0.0,0.0,1.190000057220459,1.0299999713897705,-0.009999999776482582,0.01861572265625,0.020263671875,1.00408935546875,32.790000915527344,0.0,0.0,-3.1690521240234375,-1.32611083984375,Waiting,0.0,0.0,1.0,0.0,0.0,0.0,0.0,0.0,
0.46142399999999906,0.0,0.0,37920.0,0.0,0.0,0.0,0.0,0.125,3.7902828150000003,0.0,0.0,-17083.0,0.0,0.0,-0.0,0.0,0.0,1.979980266,0.0,-0.0024414060000008675,20338.0,0.0,0.0,0.0,0.0,0.0,4.8632807520000005,0.0,0.0,-30860.0,0.0,0.0,-0.0,0.0,0.0,2.872314159,0.0,0.0,1.190000057220459,1.0299999713897705,-0.019999999552965164,0.019287109375,0.01873779296875,1.00323486328125,32.790000915527344,0.0,1.0,-3.1690521240234375,-1.32611083984375,Waiting,0.0,0.0,1.0,0.0,0.0,0.0,0.0,0.0,
0.4993710000000137,0.0,0.0,37920.0,0.0,0.0,0.0,0.0,0.125,3.7915035180000003,0.0,0.0,-17083.0,0.0,0.0,-0.0,0.0,0.0,1.979980266,0.0,0.0024414060000008675,20338.0,0.0,0.0,0.0,0.0,0.0,4.862060049,0.0,0.0,-30860.0,0.0,0.0,-0.0,0.0,0.0,2.872314159,0.0,0.0,1.190000057220459,1.0299999713897705,-0.019999999552965164,0.01873779296875,0.0213623046875,0.99951171875,32.790000915527344,0.0,0.0,-3.1690521240234375,-1.32611083984375,Waiting,0.0,0.0,1.0,0.0,0.0,0.0,0.0,0.0,
0.5386560000000172,0.0,0.0,37920.0,0.0,0.0,0.0,0.0,0.125,3.7902828150000003,0.0,0.0,-17083.0,0.0,0.0,-0.0,0.0,0.0,1.979980266,0.0,0.0,20338.0,0.0,0.0,0.0,0.0,0.0,4.864501455,0.0,0.0,-30860.0,0.0,0.0,-0.0,0.0,0.0,2.872314159,0.0,0.0,1.190000057220459,1.0299999713897705,-0.019999999552965164,0.015625,0.02197265625,0.99951171875,32.790000915527344,0.0,-2.0,-3.1690521240234375,-1.32611083984375,Waiting,0.0,0.0,1.0,0.0,0.0,0.0,0.0,0.0,
0.5802969999999914,0.0,0.0,37920.0,0.0,0.0,0.0,0.0,0.125,3.7902828150000003,0.0,0.0,-17083.0,0.0,0.0,-0.0,0.0,0.0,1.979980266,0.0,0.0,20338.0,0.0,0.0,0.0,0.0,0.0,4.864501455,0.0,0.0,-30860.0,0.0,0.0,-0.0,0.0,0.0,2.871093456,0.0,0.0,1.1799999475479126,1.0299999713897705,-0.019999999552965164,0.0179443359375,0.01947021484375,0.9959716796875,32.790000915527344,0.0,0.0,-3.1690521240234375,-1.32611083984375,Waiting,0.0,0.0,1.0,0.0,0.0,0.0,0.0,0.0,
0.6253330000000132,0.0,0.0,37920.0,0.0,0.0,0.0,0.0,0.125,3.7915035180000003,0.0,0.0,-17083.0,0.0,0.0,-0.0,0.0,0.0,1.979980266,0.0,0.0,20338.0,0.0,0.0,0.0,0.0,0.0,4.8632807520000005,0.0,0.0,-30860.0,0.0,0.0,-0.0,0.0,0.0,2.873534862,0.0,0.0,1.190000057220459,1.0299999713897705,-0.019999999552965164,0.0185546875,0.0218505859375,0.998291015625,32.790000915527344,0.0,0.0,-3.1690521240234375,-1.32611083984375,Waiting,0.0,0.0,1.0,0.0,0.0,0.0,0.0,0.0,
0.6603759999999893,0.0,0.0,37920.0,0.0,0.0,0.0,0.0,0.125,3.7915035180000003,0.0,0.0,-17083.0,0.0,0.0,-0.0,0.0,0.0,1.9750974540000001,0.0,0.0,20338.0,0.0,0.0,0.0,0.0,0.0,4.8632807520000005,0.0,0.0,-30860.0,0.0,0.0,-0.0,0.0,0.0,2.872314159,0.0,0.0,1.190000057220459,1.0299999713897705,-0.019999999552965164,0.01904296875,0.01873779296875,1.00482177734375,32.790000915527344,0.0,0.0,-3.1690521240234375,-1.32611083984375,Waiting,0.0,0.0,1.0,0.0,0.0,0.0,0.0,0.0,
0.7056339999999909,0.0,0.0,37920.0,0.0,0.0,0.0,0.0,0.125,3.7915035180000003,0.0,0.0,-17083.0,0.0,0.0,-0.0,0.0,0.0,1.979980266,0.0,-0.0012207030000004337,20338.0,0.0,0.0,0.0,0.0,0.0,4.864501455,0.0,0.0,-30860.0,0.0,0.0,-0.0,0.0,0.0,2.872314159,0.0,0.0,1.190000057220459,1.0299999713897705,-0.019999999552965164,0.01556396484375,0.0220947265625,1.00177001953125,32.790000915527344,0.0,-2.0,-3.1690521240234375,-1.32611083984375,Waiting,0.0,0.0,1.0,0.0,0.0,0.0,0.0,0.0,
0.7457410000000091,0.0,0.0,37920.0,0.0,0.0,0.0,0.0,0.125,3.7902828150000003,0.0,0.0,-17083.0,0.0,0.0,-0.0,0.0,0.0,1.979980266,0.0,0.0012207030000004337,20338.0,0.0,0.0,0.0,0.0,0.0,4.864501455,0.0,0.0,-30860.0,0.0,0.0,-0.0,0.0,0.0,2.873534862,0.0,0.0,1.190000057220459,1.0199999809265137,-0.019999999552965164,0.02069091796875,0.0208740234375,1.00115966796875,32.790000915527344,0.0,2.0,-3.1690521240234375,-1.32611083984375,Waiting,0.0,0.0,1.0,0.0,0.0,0.0,0.0,0.0,
0.7871300000000047,0.0,0.0,37920.0,0.0,0.0,0.0,0.0,0.125,3.7902828150000003,0.0,0.0,-17083.0,0.0,0.0,-0.0,0.0,0.0,1.978759563,0.0,0.0012207030000004337,20338.0,0.0,0.0,0.0,0.0,0.0,4.8632807520000005,0.0,0.0,-30860.0,0.0,0.0,-0.0,0.0,0.0,2.873534862,0.0,0.0,1.1799999475479126,1.0299999713897705,-0.019999999552965164,0.0181884765625,0.02239990234375,1.00433349609375,32.790000915527344,0.0,0.0,-3.1690521240234375,-1.32611083984375,Waiting,0.0,0.0,1.0,0.0,0.0,0.0,0.0,0.0,
0.8274770000000135,0.0,0.0,37920.0,0.0,0.0,0.0,0.0,0.125,3.7902828150000003,0.0,0.0,-17083.0,0.0,0.0,-0.0,0.0,0.0,1.979980266,0.0,0.0,20338.0,0.0,0.0,0.0,0.0,0.0,4.864501455,0.0,0.0,-30860.0,0.0,0.0,-0.0,0.0,0.0,2.872314159,0.0,0.0,1.1799999475479126,1.0299999713897705,-0.019999999552965164,0.01953125,0.01947021484375,1.0020751953125,32.790000915527344,0.0,1.0,-3.1690521240234375,-1.32611083984375,Waiting,0.0,0.0,1.0,0.0,0.0,0.0,0.0,0.0,
0.8659590000000026,0.0,0.0,37920.0,0.0,0.0,0.0,0.0,0.125,3.7902828150000003,0.0,0.0,-17083.0,0.0,0.0,-0.0,0.0,0.0,1.979980266,0.0,0.0,20338.0,0.0,0.0,0.0,0.0,0.0,4.8632807520000005,0.0,0.0,-30860.0,0.0,0.0,-0.0,0.0,0.0,2.872314159,0.0,0.0,1.1799999475479126,1.0299999713897705,-0.019999999552965164,0.01580810546875,0.0203857421875,0.999755859375,32.790000915527344,0.0,-2.0,-3.1690521240234375,-1.32611083984375,Waiting,0.0,0.0,1.0,0.0,0.0,0.0,0.0,0.0,
0.9052380000000121,0.0,0.0,37920.0,0.0,0.0,0.0,0.0,0.125,3.7915035180000003,0.0,0.0,-17083.0,0.0,0.0,-0.0,0.0,0.0,1.978759563,0.0,0.0,20338.0,0.0,0.0,0.0,0.0,0.0,4.864501455,0.0,0.0,-30860.0,0.0,0.0,-0.0,0.0,0.0,2.872314159,0.0,0.0,1.1799999475479126,1.0299999713897705,-0.019999999552965164,0.01885986328125,0.02093505859375,0.99755859375,32.79999923706055,0.0,0.0,-3.1690521240234375,-1.32611083984375,Waiting,0.0,0.0,1.0,0.0,0.0,0.0,0.0,0.0,
0.945801999999996,0.0,0.0,37920.0,0.0,0.0,0.0,0.0,0.125,3.7915035180000003,0.0,0.0,-17083.0,0.0,0.0,-0.0,0.0,0.0,1.979980266,0.0,0.0,20338.0,0.0,0.0,0.0,0.0,0.0,4.8632807520000005,0.0,0.0,-30860.0,0.0,0.0,-0.0,0.0,0.0,2.872314159,0.0,0.0,1.1799999475479126,1.0299999713897705,-0.019999999552965164,0.018310546875,0.01934814453125,1.00201416015625,32.79999923706055,0.0,0.0,-3.1690521240234375,-1.32611083984375,Waiting,0.0,0.0,1.0,0.0,0.0,0.0,0.0,0.0,
0.9863340000000026,0.0,0.0,37920.0,0.0,0.0,0.0,0.0,0.125,3.7902828150000003,0.0,0.0,-17083.0,0.0,0.0,-0.0,0.0,0.0,1.9750974540000001,0.0,0.0,20338.0,0.0,0.0,0.0,0.0,0.0,4.8632807520000005,0.0,0.0,-30860.0,0.0,0.0,-0.0,0.0,0.0,2.873534862,0.0,0.0,1.1799999475479126,1.0299999713897705,-0.019999999552965164,0.017822265625,0.0196533203125,1.00042724609375,32.79999923706055,0.0,0.0,-3.1690521240234375,-1.32611083984375,Waiting,0.0,0.0,1.0,0.0,0.0,0.0,0.0,0.0,
1.0274770000000135,0.0,0.0,37920.0,0.0,0.0,0.0,0.0,0.125,3.7915035180000003,0.0,0.0,-17083.0,0.0,0.0,-0.0,0.0,0.0,1.978759563,0.0,0.0,20338.0,0.0,0.0,0.0,0.0,0.0,4.8632807520000005,0.0,0.0,-30860.0,0.0,0.0,-0.0,0.0,0.0,2.872314159,0.0,0.0,1.1799999475479126,1.0299999713897705,-0.019999999552965164,0.01959228515625,0.01739501953125,1.00238037109375,32.79999923706055,0.0,1.0,-3.1690521240234375,-1.32611083984375,Waiting,0.0,0.0,1.0,0.0,0.0,0.0,0.0,0.0,
1.0628209999999962,0.0,0.0,37920.0,0.0,0.0,0.0,0.0,0.125,3.7915035180000003,0.0,0.0,-17083.0,0.0,0.0,-0.0,0.0,0.0,1.979980266,0.0,0.0,20338.0,0.0,0.0,0.0,0.0,0.0,4.864501455,0.0,0.0,-30860.0,0.0,0.0,-0.0,0.0,0.0,2.872314159,0.0,0.0,1.1799999475479126,1.0299999713897705,-0.029999999329447746,0.0179443359375,0.0213623046875,1.00390625,32.79999923706055,0.0,0.0,-3.1690521240234375,-1.32611083984375,Waiting,0.0,0.0,1.0,0.0,0.0,0.0,0.0,0.0,
1.1071600000000035,0.0,0.0,37920.0,0.0,0.0,0.0,0.0,0.125,3.7902828150000003,0.0,0.0,-17083.0,0.0,0.0,-0.0,0.0,0.0,1.979980266,0.0,0.0,20338.0,0.0,0.0,0.0,0.0,0.0,4.864501455,0.0,0.0,-30860.0,0.0,0.0,-0.0,0.0,0.0,2.871093456,0.0,0.0,1.1799999475479126,1.0299999713897705,-0.029999999329447746,0.01666259765625,0.0201416015625,1.0025634765625,32.79999923706055,0.0,-1.0,-3.1690521240234375,-1.32611083984375,Waiting,0.0,0.0,1.0,0.0,0.0,0.0,0.0,0.0,
1.1490080000000016,0.0,0.0,37920.0,0.0,0.0,0.0,0.0,0.125,3.7915035180000003,0.0,0.0,-17083.0,0.0,0.0,-0.0,0.0,0.0,1.9750974540000001,0.0,0.0,20338.0,0.0,0.0,0.0,0.0,0.0,4.864501455,0.0,-0.0012207030000004337,-30860.0,0.0,0.0,-0.0,0.0,0.0,2.872314159,0.0,-0.0012207029999999897,1.1799999475479126,1.0299999713897705,-0.029999999329447746,0.0184326171875,0.0162353515625,1.00360107421875,32.79999923706055,0.0,0.0,-3.1690521240234375,-1.32611083984375,Waiting,0.0,0.0,1.0,0.0,0.0,0.0,0.0,0.0,
1.1900050000000046,0.0,0.0,37920.0,0.0,0.0,0.0,0.0,0.125,3.7902828150000003,0.0,0.0,-17083.0,0.0,0.0,-0.0,0.0,0.0,1.979980266,0.0,-0.0012207030000004337,20338.0,0.0,0.0,0.0,0.0,0.0,4.8632807520000005,0.0,0.0,-30860.0,0.0,0.0,-0.0,0.0,0.0,2.872314159,0.0,0.0,1.1799999475479126,1.0299999713897705,-0.029999999329447746,0.0172119140625,0.0220947265625,1.00274658203125,32.79999923706055,0.0,0.0,-3.1690521240234375,-1.32611083984375,Waiting,0.0,0.0,1.0,0.0,0.0,0.0,0.0,0.0,
1.231619000000006,0.0,0.0,37920.0,0.0,0.0,0.0,0.0,0.125,3.7890621120000003,0.0,0.0,-17083.0,0.0,0.0,-0.0,0.0,0.0,1.979980266,0.0,-0.0012207030000004337,20338.0,0.0,0.0,0.0,0.0,0.0,4.864501455,0.0,0.0,-30860.0,0.0,0.0,-0.0,0.0,0.0,2.872314159,0.0,0.0,1.1799999475479126,1.0299999713897705,-0.029999999329447746,0.01751708984375,0.01959228515625,1.0035400390625,32.79999923706055,0.0,0.0,-3.1690521240234375,-1.32611083984375,Waiting,0.0,0.0,1.0,0.0,0.0,0.0,0.0,0.0,
1.2712980000000098,0.0,0.0,37920.0,0.0,0.0,0.0,0.0,0.125,3.7890621120000003,0.0,0.0,-17083.0,0.0,0.0,-0.0,0.0,0.0,1.978759563,0.0,0.0,20338.0,0.0,0.0,0.0,0.0,0.0,4.8632807520000005,0.0,0.0012207030000004337,-30860.0,0.0,0.0,-0.0,0.0,0.0,2.872314159,0.0,0.0012207029999999897,1.1799999475479126,1.0299999713897705,-0.029999999329447746,0.01397705078125,0.02130126953125,0.99810791015625,32.79999923706055,0.0,-4.0,-3.1690521240234375,-1.32611083984375,Waiting,0.0,0.0,1.0,0.0,0.0,0.0,0.0,0.0,
1.3095199999999896,0.0,0.0,37920.0,0.0,0.0,0.0,0.0,0.125,3.7915035180000003,0.0,0.0,-17083.0,0.0,0.0,-0.0,0.0,0.0,1.979980266,0.0,0.0,20338.0,0.0,0.0,0.0,0.0,0.0,4.864501455,0.0,0.0,-30860.0,0.0,0.0,-0.0,0.0,0.0,2.871093456,0.0,0.0,1.1799999475479126,1.0199999809265137,-0.029999999329447746,0.01544189453125,0.0196533203125,0.99725341796875,32.79999923706055,0.0,-2.0,-3.1690521240234375,-1.32611083984375,Waiting,0.0,0.0,1.0,0.0,0.0,0.0,0.0,0.0,
1.3502870000000111,0.0,0.0,37920.0,0.0,0.0,0.0,0.0,0.125,3.7902828150000003,0.0,0.0,-17083.0,0.0,0.0,-0.0,0.0,0.0,1.978759563,0.0,0.0012207030000004337,20338.0,0.0,0.0,0.0,0.0,0.0,4.864501455,0.0,0.0,-30860.0,0.0,0.0,-0.0,0.0,0.0,2.872314159,0.0,-0.0012207029999999897,1.1799999475479126,1.0199999809265137,-0.029999999329447746,0.0198974609375,0.0206298828125,0.99969482421875,32.79999923706055,0.0,1.0,-3.1690521240234375,-1.32611083984375,Waiting,0.0,0.0,1.0,0.0,0.0,0.0,0.0,0.0,
1.3899649999999966,0.0,0.0,37920.0,0.0,0.0,0.0,0.0,0.125,3.7902828150000003,0.0,0.0,-17083.0,0.0,0.0,-0.0,0.0,0.0,1.979980266,0.0,0.0,20338.0,0.0,0.0,0.0,0.0,0.0,4.862060049,0.0,0.0,-30860.0,0.0,0.0,-0.0,0.0,0.0,2.872314159,0.0,0.0012207029999999897,1.190000057220459,1.0199999809265137,-0.029999999329447746,0.01788330078125,0.02099609375,1.0035400390625,32.79999923706055,0.0,0.0,-3.1690521240234375,-1.32611083984375,Waiting,0.0,0.0,1.0,0.0,0.0,0.0,0.0,0.0,
1.4315840000000026,0.0,0.0,37920.0,0.0,0.0,0.0,0.0,0.125,3.7902828150000003,0.0,0.0,-17083.0,0.0,0.0,-0.0,0.0,0.0,1.979980266,0.0,-0.0012207030000004337,20338.0,0.0,0.0,0.0,0.0,0.0,4.864501455,0.0,0.0,-30860.0,0.0,0.0,-0.0,0.0,0.0,2.872314159,0.0,-0.0012207029999999897,1.190000057220459,1.0199999809265137,-0.029999999329447746,0.0172119140625,0.02227783203125,0.99920654296875,32.81999969482422,0.0,0.0,-3.1690521240234375,-1.32611083984375,Waiting,0.0,0.0,1.0,0.0,0.0,0.0,0.0,0.0,
1.4880510000000067,0.0,0.0,37920.0,0.0,0.0,-115.74803106486799,0.0,0.125,3.7902828150000003,4.963586333342582,0.0,-17083.0,0.0,0.0,115.74803106486799,0.0,0.0,1.978759563,4.948587583342554,0.0012207030000004337,20338.0,0.0,0.0,-115.74803106486799,0.0,0.0,4.862060049,4.953587166675897,0.0,-30860.0,0.0,0.0,115.74803106486799,0.0,0.0,2.873534862,4.947087708342551,0.0,1.190000057220459,1.0199999809265137,-0.029999999329447746,0.0186767578125,0.0185546875,1.0045166015625,32.81999969482422,0.0,0.0,-3.1690521240234375,-1.32611083984375,Waiting,0.0,0.0,1.0,0.0,0.0,0.0,0.0,0.0,
1.52880799999999,0.0,0.0,37920.0,0.125,0.0,-826.7716348171234,0.0,0.125,3.7915035180000003,4.963586333342582,0.0,-17083.0,0.25,0.0,826.7716348171234,0.0,0.0,1.981200969,4.948587583342554,-0.0024414060000008675,20338.0,0.0,0.0,-826.7716348171234,0.0,0.0,4.8632807520000005,4.953587166675897,0.0,-30860.0,0.375,0.0,826.7716348171234,0.0,0.0,2.872314159,4.947087708342551,0.0,1.190000057220459,1.0199999809265137,-0.029999999329447746,0.016845703125,0.022216796875,1.0028076171875,32.81999969482422,0.0,-1.0,-3.1690521240234375,-1.32611083984375,Waiting,0.0,0.0,1.0,0.0,0.0,0.0,0.0,0.0,
1.5689629999999888,0.0,0.0,37920.0,3.625,-7.5,-1240.1575148105621,0.0,0.125,3.7915035180000003,4.963586333342582,0.0,-17083.0,2.25,37.5,1240.1575148105621,0.0,0.0,1.9726560480000002,4.948587583342554,0.0,20338.0,2.625,-45.0,-1240.1575148105621,0.0,0.0,4.8632807520000005,4.953587166675897,0.0,-30860.0,1.375,15.0,1240.1575148105621,0.0,0.0,2.872314159,4.947087708342551,0.0,1.190000057220459,0.9900000095367432,-0.019999999552965164,-0.06097412109375,-0.03631591796875,0.9918212890625,32.81999969482422,0.0,-78.0,-3.1691741943359375,-1.326080322265625,Waiting,0.0,0.0,1.0,0.0,0.0,0.0,0.0,0.0,
1.608081999999995,0.0,0.0,37920.0,9.5,-60.0,-1289.7637903690338,0.0,0.125,3.7890621120000003,4.9637242222283895,0.0,-17083.0,7.75,150.0,1289.7637903690338,0.0,0.0,1.9750974540000001,4.948725055561703,0.0,20301.0,7.625,-172.5,-1289.7637903690338,0.0,0.0,4.864501455,4.953724777783932,0.0,-30825.0,5.75,135.0,1289.7637903690338,0.0,0.0,2.872314159,4.947225138895035,0.0,1.1699999570846558,0.4399999976158142,0.05000000074505806,-0.13690185546875,0.16534423828125,0.800537109375,32.81999969482422,0.0,-142.0,-3.1711578369140625,-1.326629638671875,Waiting,0.0,0.0,1.0,0.0,0.0,0.0,0.0,0.0,
1.6491600000000035,0.0,0.0,37900.0,12.75,-127.5,-1289.7637903690338,0.0,0.125,3.7902828150000003,6.894444547156158E-4,0.0,-17052.0,11.5,210.0,1289.7637903690338,0.0,0.0,1.9738767510000002,6.873611213512455E-4,0.0,20301.0,11.0,-247.5,-1289.7637903690338,0.0,0.0,4.864501455,6.880555658060356E-4,0.0,-30825.0,9.875,270.0,1289.7637903690338,0.0,0.0,2.872314159,6.871527880148085E-4,0.0,1.2000000476837158,-0.05999999865889549,0.07999999821186066,-0.24005126953125,0.18975830078125,0.9215087890625,32.81999969482422,0.0,-238.0,-3.1755828857421875,-1.3271942138671875,Waiting,0.0,0.0,1.0,0.0,0.0,0.0,0.0,0.0,
1.6898349999999918,0.0,0.0,37900.0,14.25,-217.5,-1157.480263710022,0.0,0.0,3.7902828150000003,0.001103111086452305,0.0012207029999999897,-17052.0,12.75,240.0,1157.480263710022,0.0,0.0,1.9738767510000002,0.0010997777531934845,0.0,20301.0,12.5,-262.5,-1157.480263710022,0.0,0.0,4.8632807520000005,0.001100888864279758,0.0,-30825.0,10.5,292.5,1157.480263710022,0.0,0.0,2.872314159,0.0010994444198676025,0.0,1.2699999809265137,-0.49000000953674316,0.15000000596046448,-0.1812744140625,0.0123291015625,1.16827392578125,32.81999969482422,0.0,-171.0,-3.1827239990234375,-1.32745361328125,Waiting,0.0,0.0,1.0,0.0,0.0,0.0,0.0,0.0,
1.7311480000000157,0.0,0.0,37900.0,13.375,-337.5,-1140.9448385238647,0.0,0.125,3.7939449240000003,0.002068333415518381,0.0,-17052.0,13.5,330.0,1140.9448385238647,0.0,0.0,1.9738767510000002,0.0020620834152700373,0.0,20301.0,12.75,-345.0,-1140.9448385238647,0.0,0.0,4.8632807520000005,0.002064166748686152,0.0,-30754.0,10.75,330.0,1140.9448385238647,0.0,0.0,2.872314159,0.0020614584152452028,0.0012207029999999897,1.25,-0.7400000095367432,0.23999999463558197,-0.2537841796875,0.04718017578125,0.8065185546875,32.81999969482422,0.0,-243.0,-3.18896484375,-1.3276519775390625,Waiting,0.0,0.0,1.0,0.0,0.0,0.0,0.0,0.0,
1.77119200000001,0.0,0.0,37826.0,12.625,-480.0,-1140.9448385238647,0.0,0.0,3.826903905,0.0038608889053233907,-0.0012207029999999897,-16980.0,13.875,465.0,1140.9448385238647,0.0,0.0,1.9677732360000002,0.0038492222386070623,0.0,20226.0,12.25,-487.5,-1140.9448385238647,0.0,0.0,4.864501455,0.003853111127512505,0.0,-30754.0,10.75,465.0,1140.9448385238647,0.0,0.0,2.873534862,0.0038480555719354295,0.0,1.2999999523162842,-1.149999976158142,0.3400000035762787,-0.210693359375,-0.00933837890625,0.8603515625,32.81999969482422,0.0,-193.0,-3.200531005859375,-1.32763671875,Waiting,0.0,0.0,1.0,0.0,0.0,0.0,0.0,0.0,
1.8102719999999972,0.0,0.0,37826.0,11.625,-615.0,-1140.9448385238647,0.0,0.0,3.7915035180000003,0.004688222271532781,0.0,-16980.0,12.75,592.5,1140.9448385238647,0.0,0.0,1.954345503,0.004674055604717109,0.0,20226.0,11.25,-630.0,-1140.9448385238647,0.0,0.0,4.8632807520000005,0.004678777826988999,0.0,-30754.0,10.125,592.5,1140.9448385238647,0.0,0.0,2.871093456,0.004672638938035542,0.0,1.2899999618530273,-1.5099999904632568,0.41999998688697815,-0.12091064453125,0.05029296875,0.88623046875,32.81999969482422,0.0,-97.0,-3.2142181396484375,-1.32763671875,Waiting,0.0,0.0,1.0,0.0,0.0,0.0,0.0,0.0,
1.851429999999993,0.0,0.0,37826.0,10.75,-742.5,-1140.9448385238647,0.0,0.0,3.7841793000000004,0.005791333152516981,0.0,-16851.0,11.5,727.5,1140.9448385238647,0.0,0.0,1.9445798790000002,0.005773833153063363,0.0,20089.0,9.75,-772.5,-1140.9448385238647,0.0,0.0,4.8632807520000005,0.00577966648621457,0.0,-30627.0,9.5,720.0,1140.9448385238647,0.0,0.0,2.872314159,0.005772083153118002,0.0,1.3899999856948853,-1.8200000524520874,0.5099999904632568,-0.207763671875,0.0205078125,1.03887939453125,32.81999969482422,0.0,-174.0,-3.2297210693359375,-1.327545166015625,Waiting,0.0,0.0,1.0,0.0,0.0,0.0,0.0,0.0,
1.8928680000000169,0.0,0.0,37696.0,9.75,-855.0,-1140.9448385238647,0.0,0.0,3.7854000030000003,0.007032333201829107,0.0,-16851.0,10.0,840.0,1140.9448385238647,0.0,0.0,1.9409177700000002,0.00701108320222648,0.0,20089.0,8.25,-892.5,-1140.9448385238647,0.0,0.0,4.862060049,0.007018166535427355,0.0,-30627.0,8.5,832.5,1140.9448385238647,0.0,0.0,2.885741892,0.007008958202266217,0.0,1.3899999856948853,-2.0,0.5699999928474426,-0.060546875,0.09173583984375,0.98455810546875,32.81999969482422,0.0,-25.0,-3.2410736083984375,-1.327484130859375,Waiting,0.0,0.0,1.0,0.0,0.0,0.0,0.0,0.0,
1.933051999999996,0.0,0.0,37696.0,8.75,-960.0,-1140.9448385238647,0.0,0.0,3.7951656270000003,0.008273333662083713,0.0,-16851.0,8.5,952.5,1140.9448385238647,0.0,0.0,1.9409177700000002,0.008248333661090308,-0.006103515000000392,20089.0,7.0,-997.5,-1140.9448385238647,0.0,0.0,4.8632807520000005,0.008256666994754776,0.0,-30627.0,7.5,930.0,1140.9448385238647,0.0,0.0,2.871093456,0.008245833660990968,0.0012207029999999897,1.3899999856948853,-2.130000114440918,0.6700000166893005,-0.10113525390625,0.07342529296875,0.84765625,32.849998474121094,0.0,-68.0,-3.2590179443359375,-1.327178955078125,Waiting,0.0,0.0,1.0,0.0,0.0,0.0,0.0,0.0,
1.9725869999999994,0.0,0.0,37696.0,8.125,-1005.0,-1140.9448385238647,0.0,0.0,3.7939449240000003,0.009238555785680115,0.003662108999999969,-16851.0,7.375,1035.0,1140.9448385238647,0.0,0.0,1.9531248,0.009210639118318067,0.0,19909.0,6.0,-1080.0,-1140.9448385238647,0.0,0.0,4.8632807520000005,0.009219944674105416,0.0,-30460.0,6.75,1012.5,1140.9448385238647,0.0,0.0,2.873534862,0.009207847451581862,0.0,1.4700000286102295,-2.25,0.8299999833106995,-0.0877685546875,-0.00689697265625,0.825927734375,32.849998474121094,0.0,-55.0,-3.278167724609375,-1.3266143798828125,Waiting,0.0,0.0,1.0,0.0,0.0,0.0,0.0,0.0,
2.012144,0.0,0.0,37519.0,7.125,-1132.5,-1306.299215555191,0.0,0.0,3.823241796,0.011444777547648517,0.0,-16677.0,6.875,1110.0,1306.299215555191,0.0,0.0,1.9409177700000002,0.011410194215010576,0.0,19909.0,5.625,-1147.5,-1306.299215555191,0.0,0.0,4.864501455,0.011421721992556557,0.0,-30460.0,6.625,1065.0,1306.299215555191,0.0,0.0,2.872314159,0.011406735881746783,0.0,1.4800000190734863,-2.3399999141693115,1.0199999809265137,-0.1668701171875,-0.0191650390625,1.1529541015625,32.849998474121094,0.0,-120.0,-3.2979583740234375,-1.3264617919921875,Waiting,0.0,0.0,1.0,0.0,0.0,0.0,0.0,0.0,
2.0528740000000107,0.0,0.0,37519.0,7.375,-1177.5,-1365.7950815325237,0.0,0.125,3.8000484390000002,4.882932872034429,0.0,-16677.0,7.25,1170.0,1365.7950815325237,0.0,0.0,1.939697067,4.8681778371672815,0.0,19909.0,6.0,-1215.0,-1365.7950815325237,0.0,0.0,4.8681635640000005,4.873096182122998,0.0,-30460.0,7.625,1117.5,1365.7950815325237,0.0,0.0,2.885741892,4.866702333680567,0.0,1.409999966621399,-2.4600000381469727,1.1799999475479126,-0.00732421875,0.02545166015625,0.7060546875,32.849998474121094,0.0,23.0,-3.311614990234375,-1.326629638671875,Waiting,0.0,0.0,1.0,0.0,0.0,0.0,0.0,0.0,
2.0934409999999914,0.0,0.0,37519.0,7.375,-1252.5,-1375.222181499569,0.0,0.125,3.8000484390000002,4.847697458475715,0.0,-16476.0,7.375,1207.5,1375.222181499569,0.0,0.0,1.9421384730000002,4.833048896453729,0.0,19704.0,5.875,-1275.0,-1375.222181499569,0.0,0.0,4.8681635640000005,4.837931750461058,0.0,-30268.0,7.625,1177.5,1375.222181499569,0.0,0.0,2.857665723,4.83158404025153,0.0,1.5,-2.490000009536743,1.4600000381469727,-0.0718994140625,0.0802001953125,0.9266357421875,32.849998474121094,0.0,-30.0,-3.332489013671875,-1.3265838623046875,Waiting,0.0,0.0,1.0,0.0,0.0,0.0,0.0,0.0,
2.135627999999997,0.0,0.0,37309.0,6.875,-1320.0,-1394.330019228931,0.0,0.125,3.7902828150000003,4.843957641392468,0.0,-16476.0,7.125,1297.5,1394.330019228931,0.0,0.0,1.936034958,4.829320380187615,0.0,19704.0,5.25,-1327.5,-1394.330019228931,0.0,0.0,4.847411613,4.834199467255899,0.0,-30268.0,7.25,1237.5,1394.330019228931,0.0,0.0,2.8466793960000003,4.82785665406713,0.0,1.5299999713897705,-2.559999942779541,1.7899999618530273,-0.03558349609375,0.1009521484375,0.88818359375,32.849998474121094,0.0,6.0,-3.3541107177734375,-1.3261260986328125,Waiting,0.0,0.0,1.0,0.0,0.0,0.0,0.0,0.0,
2.177665000000008,0.0,0.0,37309.0,6.0,-1380.0,-1419.1088568676257,0.0,0.125,3.765868755,4.785509215974155,-0.013427732999999886,-16476.0,6.375,1342.5,1419.1088568676257,0.0,0.0,1.936034958,4.771048571687367,-0.004882811999999959,19704.0,4.5,-1387.5,-1419.1088568676257,0.0,0.0,4.832763177,4.77586878644963,-0.01586913900000031,-30268.0,7.125,1290.0,1419.1088568676257,0.0,0.0,2.81982393,4.769602507258688,-0.0183105449999994,1.6399999856948853,-2.6500000953674316,2.130000114440918,-0.04510498046875,0.03668212890625,0.90020751953125,32.849998474121094,0.0,-2.0,-3.3761444091796875,-1.3245697021484375,Waiting,0.0,0.0,1.0,0.0,0.0,0.0,0.0,0.0,
2.2210869999999994,0.0,0.0,37078.0,5.5,-1432.5,-1469.428143440124,0.0,0.125,3.7255855560000004,4.704722581382803,0.0,-16251.0,6.0,1387.5,1469.428143440124,0.0,0.0,1.8969724620000001,4.69050605464615,0.0,19470.0,4.375,-1447.5,-1469.428143440124,0.0,0.0,4.791259275,4.6952448968917,0.0,-30052.0,6.75,1327.5,1469.428143440124,0.0,0.0,2.7868649490000004,4.689084401972485,0.0,1.659999966621399,-2.640000104904175,2.380000114440918,-0.0465087890625,0.2315673828125,1.04595947265625,32.849998474121094,0.0,10.0,-3.390716552734375,-1.322998046875,Waiting,0.0,0.0,1.0,0.0,0.0,0.0,0.0,0.0,
2.260515000000014,0.0,0.0,37078.0,5.5,-1455.0,-1507.4045194108114,0.0,0.125,3.666991812,4.661607754995971,0.0,-16251.0,5.75,1417.5,1507.4045194108114,0.0,0.0,1.834716609,4.647521510772573,0.0,19470.0,4.125,-1485.0,-1507.4045194108114,0.0,0.0,4.733886234,4.652216925513706,0.0,-30052.0,6.875,1380.0,1507.4045194108114,0.0,0.0,2.728271205,4.646112886350234,0.0,1.940000057220459,-2.630000114440918,2.7799999713897705,0.0888671875,0.165283203125,1.1697998046875,32.849998474121094,0.0,148.0,-3.397857666015625,-1.3192901611328125,Waiting,0.0,0.0,1.0,0.0,0.0,0.0,0.0,0.0,
2.3030380000000004,0.0,0.0,37078.0,5.625,-1470.0,-1590.5531514297004,0.0,0.25,3.6218258010000004,4.583707857225055,0.0,-16251.0,5.875,1470.0,1590.5531514297004,0.0,0.0,1.7626951320000002,4.5698570075356155,0.0,19470.0,4.375,-1507.5,-1590.5531514297004,0.0,0.0,4.676513193,4.574473957432095,0.0,-30052.0,7.25,1425.0,1590.5531514297004,0.0,0.0,2.664794649,4.568471922566672,0.0,2.2799999713897705,-2.490000009536743,3.1500000953674316,-0.002685546875,0.2684326171875,1.13214111328125,32.849998474121094,0.0,58.0,-3.3968353271484375,-1.314117431640625,Waiting,0.0,0.0,1.0,0.0,0.0,0.0,0.0,0.0,
2.3465180000000108,0.0,0.0,36835.0,6.625,-1485.0,-1718.1123679122247,0.0,0.25,3.55224573,4.497471840005361,0.0,-16005.0,6.0,1507.5,1718.1123679122247,0.0,0.0,1.690673655,4.48388157457424,0.0,19222.0,4.625,-1545.0,-1718.1123679122247,0.0,0.0,4.615478043,4.488411663051281,0.0,-29820.0,8.375,1440.0,1718.1123679122247,0.0,0.0,2.5891110630000003,4.482522548031128,0.0,2.619999885559082,-2.369999885559082,3.490000009536743,0.07220458984375,0.3482666015625,0.31744384765625,32.849998474121094,0.0,105.0,-3.394989013671875,-1.3063201904296875,Waiting,0.0,0.0,1.0,0.0,0.0,0.0,0.0,0.0,
2.3880020000000077,0.0,0.0,36835.0,7.75,-1522.5,-1738.0495846704007,0.0,0.25,3.4741207380000003,4.4902452373906625,-0.06225585299999992,-16005.0,6.75,1545.0,1738.0495846704007,0.0,0.0,1.614990069,4.476676808994034,-0.07324217999999938,19222.0,4.875,-1567.5,-1738.0495846704007,0.0,0.0,4.5483393780000005,4.481199618459576,-0.0646972589999999,-29820.0,9.375,1462.5,1738.0495846704007,0.0,0.0,2.5292966160000003,4.475319966154371,-0.07202147699999983,3.0799999237060547,-2.2799999713897705,3.680000066757202,0.01971435546875,0.40814208984375,1.8179931640625,32.849998474121094,0.0,112.0,-3.392730712890625,-1.29949951171875,Waiting,0.0,0.0,1.0,0.0,0.0,0.0,0.0,0.0,
2.4293680000000166,0.0,0.0,36835.0,8.125,-1560.0,-1779.0696500447789,0.0,0.25,3.40576137,4.471090584487301,-0.07690428899999979,-16005.0,7.625,1567.5,1779.0696500447789,0.0,0.0,1.546630701,4.457580036790421,-0.08178710100000064,19222.0,5.125,-1612.5,-1779.0696500447789,0.0,0.0,4.47998001,4.46208355268938,-0.07568358599999936,-29820.0,9.875,1485.0,1779.0696500447789,0.0,0.0,2.4340817820000002,4.456228982020733,-0.08422850700000062,3.509999990463257,-2.0899999141693115,3.990000009536743,0.0870361328125,0.00537109375,1.1402587890625,32.790000915527344,0.0,123.0,-3.3881378173828125,-1.2867584228515625,Waiting,0.0,0.0,1.0,0.0,0.0,0.0,0.0,0.0,
2.469975999999995,0.0,0.0,36578.0,8.5,-1605.0,-1843.2708464738578,0.0,0.125,3.3642574680000004,4.442945837926554,0.0,-15749.0,8.0,1590.0,1843.2708464738578,0.0,0.0,1.5002439870000002,4.429520336804695,0.0,18955.0,5.25,-1650.0,-1843.2708464738578,0.0,0.0,4.438476108000001,4.433995503845315,0.0,-29581.0,11.5,1492.5,1843.2708464738578,0.0,0.0,2.3718259290000003,4.42817778669251,0.0,3.8299999237060547,-1.7999999523162842,4.289999961853027,0.2833251953125,0.29150390625,0.264892578125,32.790000915527344,0.0,311.0,-3.3812103271484375,-1.2716064453125,Waiting,0.0,0.0,1.0,0.0,0.0,0.0,0.0,0.0,
2.5103340000000025,0.0,0.0,36578.0,9.5,-1612.5,-1843.2708464738578,0.0,0.125,3.343505517,4.446944615178327,0.0,-15749.0,8.5,1612.5,1843.2708464738578,0.0,0.0,1.458740085,4.4335070307247255,0.0,18955.0,5.75,-1672.5,-1843.2708464738578,0.0,0.0,4.411620642,4.437986225542592,0.0,-29581.0,12.625,1500.0,1843.2708464738578,0.0,0.0,2.351073978,4.432163272279365,0.0,4.300000190734863,-1.7200000286102295,4.460000038146973,0.04974365234375,0.333984375,1.681396484375,32.790000915527344,0.0,116.0,-3.3754425048828125,-1.260009765625,Waiting,0.0,0.0,1.0,0.0,0.0,0.0,0.0,0.0,
2.5524379999999947,0.0,0.0,36578.0,10.125,-1605.0,-1865.3347113414934,0.0,0.125,3.3239742690000003,4.437699845478009,0.0,-15749.0,8.875,1642.5,1865.3347113414934,0.0,0.0,1.441650243,4.424290196468707,0.0,18955.0,5.875,-1680.0,-1865.3347113414934,0.0,0.0,4.389647988,4.428760079471807,0.0,-29581.0,13.375,1530.0,1865.3347113414934,0.0,0.0,2.352294681,4.422949231567777,0.0,4.619999885559082,-1.659999966621399,4.71999979019165,0.1556396484375,0.2462158203125,1.51446533203125,32.790000915527344,0.0,209.0,-3.365478515625,-1.2412109375,Waiting,0.0,0.0,1.0,0.0,0.0,0.0,0.0,0.0,
2.5922250000000058,0.0,0.0,36310.0,10.375,-1642.5,-1887.7110683372475,0.0,0.125,3.3239742690000003,4.431180695147758,-0.012207029999999008,-15481.0,9.0,1657.5,1887.7110683372475,0.0,0.0,1.431884619,4.4177907454243055,-0.009765623999999917,18681.0,6.375,-1695.0,-1887.7110683372475,0.0,0.0,4.401855018,4.42225406199879,0.0,-29329.0,13.75,1582.5,1887.7110683372475,0.0,0.0,2.352294681,4.4164517504519605,0.0,4.639999866485596,-1.649999976158142,4.96999979019165,-0.05804443359375,0.28857421875,0.67645263671875,32.790000915527344,0.0,-18.0,-3.3581695556640625,-1.22125244140625,Waiting,0.0,0.0,1.0,0.0,0.0,0.0,0.0,0.0,
2.6327019999999903,0.0,0.0,36310.0,10.875,-1687.5,-1991.6238243884895,0.0,0.125,3.355712547,4.401268465015235,-0.006103515000000392,-15481.0,9.25,1687.5,1991.6238243884895,0.0,0.0,1.433105322,4.387968902772037,-0.004882811999999959,18681.0,6.875,-1717.5,-1991.6238243884895,0.0,0.0,4.396972206,4.392402090186437,-0.003662109000000413,-29329.0,14.125,1612.5,1991.6238243884895,0.0,0.0,2.347411869,4.386638946547718,0.0,4.949999809265137,-1.690000057220459,5.119999885559082,0.0533447265625,0.14794921875,1.2784423828125,32.790000915527344,0.0,94.0,-3.3580322265625,-1.207275390625,Waiting,0.0,0.0,1.0,0.0,0.0,0.0,0.0,0.0,
2.673937999999995,0.0,0.0,36310.0,11.625,-1717.5,-2074.4810794763557,0.0,0.125,3.3105465360000004,4.382805234654028,-0.009765623999999917,-15481.0,10.625,1725.0,2074.4810794763557,0.0,0.0,1.4245604010000001,4.369561463799916,0.0,18681.0,7.75,-1732.5,-2074.4810794763557,0.0,0.0,4.388427285000001,4.37397605408462,-0.004882811999999959,-29329.0,15.375,1672.5,2074.4810794763557,0.0,0.0,2.346191166,4.368237086714505,-0.003662108999999525,4.909999847412109,-1.7899999618530273,5.400000095367432,-0.176513671875,0.25201416015625,0.91925048828125,32.790000915527344,0.0,-130.0,-3.3576812744140625,-1.1855926513671875,Waiting,0.0,0.0,1.0,0.0,0.0,0.0,0.0,0.0,
2.71932699999999,0.0,0.0,36027.0,12.125,-1770.0,-2086.5774875163575,0.0,0.125,3.297118803,4.382733147704076,0.0,-15196.0,11.5,1770.0,2086.5774875163575,0.0,0.0,1.4270018070000001,4.369489594679184,0.0,18394.0,8.375,-1785.0,-2086.5774875163575,0.0,0.0,4.377440958,4.373904112354148,0.0,-29051.0,16.875,1747.5,2086.5774875163575,0.0,0.0,2.347411869,4.368165239376695,0.0,5.139999866485596,-1.9900000095367432,5.71999979019165,-0.14892578125,0.04583740234375,1.42889404296875,32.790000915527344,0.0,-106.0,-3.3577880859375,-1.162872314453125,Waiting,0.0,0.0,1.0,0.0,0.0,0.0,0.0,0.0,
2.7625929999999936,0.0,0.0,36027.0,11.75,-1845.0,-2110.94488944023,0.0,0.125,3.281249664,4.377494477359888,0.0,-15196.0,12.0,1815.0,2110.94488944023,0.0,0.0,1.4257811040000001,4.364266754321934,0.0,18394.0,8.375,-1860.0,-2110.94488944023,0.0,0.0,4.377440958,4.368675995334585,0.0,-29051.0,16.75,1777.5,2110.94488944023,0.0,0.0,2.335204839,4.362943982018138,0.0,5.130000114440918,-1.8799999952316284,6.0,-0.12335205078125,0.14556884765625,0.435546875,32.790000915527344,0.0,-97.0,-3.35797119140625,-1.13995361328125,Waiting,0.0,0.0,1.0,0.0,0.0,0.0,0.0,0.0,
2.8022540000000156,0.0,0.0,36027.0,11.875,-1905.0,-2158.773902872558,0.0,0.125,3.2629391190000003,4.373877179724923,0.0,-15196.0,12.125,1867.5,2158.773902872558,0.0,0.0,1.4233396980000002,4.360660387280145,0.0,18394.0,7.875,-1935.0,-2158.773902872558,0.0,0.0,4.349364789,4.3650659847617375,0.0,-29051.0,17.125,1830.0,2158.773902872558,0.0,0.0,2.333984136,4.359338708035668,0.0,5.210000038146973,-1.8799999952316284,6.210000038146973,-0.01568603515625,0.20587158203125,0.60748291015625,32.790000915527344,0.0,20.0,-3.3583221435546875,-1.116119384765625,Waiting,0.0,0.0,1.0,0.0,0.0,0.0,0.0,0.0,
2.845410999999993,0.0,0.0,35714.0,12.75,-1942.5,-2219.25479507796,0.0,0.125,3.2617184160000003,4.365812039306771,0.0,-14882.0,11.75,1935.0,2219.25479507796,0.0,0.0,1.4233396980000002,4.352619617753668,0.0,18080.0,8.5,-1972.5,-2219.25479507796,0.0,0.0,4.339599165,4.3570170916047015,0.0,-28749.0,18.125,1882.5,2219.25479507796,0.0,0.0,2.3278806210000003,4.351300375598357,0.0,5.349999904632568,-2.0999999046325684,6.340000152587891,0.07232666015625,0.0179443359375,1.2254638671875,32.790000915527344,0.0,106.0,-3.3585968017578125,-1.0995330810546875,Waiting,0.0,0.0,1.0,0.0,0.0,0.0,0.0,0.0,
2.8856659999999974,0.0,0.0,35714.0,13.25,-1965.0,-2313.9247110146425,0.0,0.125,3.251952792,4.3628972876789405,-0.010986327000000351,-14882.0,12.375,2002.5,2313.9247110146425,0.0,0.0,1.418456886,4.349713673795946,-0.0012207029999995456,18080.0,9.0,-1987.5,-2313.9247110146425,0.0,0.0,4.339599165,4.354108211756944,-0.006103514999999504,-28749.0,19.125,1912.5,2313.9247110146425,0.0,0.0,2.3242185120000003,4.3483953124076455,-0.003662108999999525,5.260000228881836,-1.9600000381469727,6.5,0.1116943359375,0.169921875,0.099609375,32.790000915527344,0.0,132.0,-3.358551025390625,-1.074981689453125,Waiting,0.0,0.0,1.0,0.0,0.0,0.0,0.0,0.0,
2.9275739999999932,0.0,0.0,35714.0,14.375,-2002.5,-2339.145896534769,0.0,0.125,3.242187168,4.357424264824137,0.0,-14882.0,12.5,2055.0,2339.145896534769,0.0,0.0,1.413574074,4.344257189084337,0.0,18080.0,10.0,-2002.5,-2339.145896534769,0.0,0.0,4.328612838000001,4.3486462143309375,0.0,-28749.0,20.5,1965.0,2339.145896534769,0.0,0.0,2.308349373,4.342940481510357,0.0,5.630000114440918,-2.0999999046325684,6.679999828338623,0.05206298828125,0.0975341796875,1.580810546875,32.790000915527344,0.0,102.0,-3.357818603515625,-1.04974365234375,Waiting,0.0,0.0,1.0,0.0,0.0,0.0,0.0,0.0,
2.9667369999999935,0.0,0.0,35388.0,14.5,-2062.5,-2349.7005387695717,0.0,0.125,3.242187168,4.364195712244333,0.0,-14550.0,12.75,2100.0,2349.7005387695717,0.0,0.0,1.4013670440000001,4.351008174838276,0.0,17748.0,9.75,-2077.5,-2349.7005387695717,0.0,0.0,4.326171432000001,4.355404020640295,0.0,-28424.0,20.5,2040.0,2349.7005387695717,0.0,0.0,2.3181149970000003,4.34968942109767,0.0,5.519999980926514,-1.9800000190734863,6.820000171661377,-0.099853515625,0.154541015625,0.6795654296875,32.790000915527344,0.0,-65.0,-3.357086181640625,-1.0243988037109375,Waiting,0.0,0.0,1.0,0.0,0.0,0.0,0.0,0.0,
3.009701000000001,0.0,0.0,35388.0,13.75,-2137.5,-2362.3247227099896,0.0,0.125,3.250732089,4.362612438389561,0.0,-14550.0,12.5,2152.5,2362.3247227099896,0.0,0.0,1.402587747,4.349429685251799,0.0,17748.0,10.125,-2160.0,-2362.3247227099896,0.0,0.0,4.342040571,4.35382393629772,0.0,-28424.0,20.25,2152.5,2362.3247227099896,0.0,0.0,2.313232185,4.348111409938023,0.0,5.400000095367432,-1.9500000476837158,7.0,-0.092041015625,0.11553955078125,-0.1278076171875,32.790000915527344,0.0,-80.0,-3.35650634765625,-0.9984893798828125,Waiting,0.0,0.0,1.0,0.0,0.0,0.0,0.0,0.0,
3.0524500000000114,0.0,0.0,35024.0,13.125,-2220.0,-2362.3247227099896,0.0,0.125,3.237304356,4.365094436022541,0.0,-14194.0,12.5,2190.0,2362.3247227099896,0.0,0.0,1.3989256380000001,4.351904182891932,0.0,17389.0,9.625,-2197.5,-2362.3247227099896,0.0,0.0,4.306640184,4.356300933935469,0.0,-28067.0,18.625,2212.5,2362.3247227099896,0.0,0.0,2.312011482,4.350585157578871,0.0,5.550000190734863,-2.1500000953674316,7.159999847412109,-0.021484375,0.21844482421875,1.3475341796875,32.790000915527344,0.0,39.0,-3.3563079833984375,-0.9716644287109375,Waiting,0.0,0.0,1.0,0.0,0.0,0.0,0.0,0.0,
3.094877000000008,0.0,0.0,35024.0,12.75,-2280.0,-2374.995136676656,0.0,0.125,3.276366852,4.363824355831685,0.0,-14194.0,12.25,2235.0,2374.995136676656,0.0,0.0,1.3977049350000001,4.3506379405743365,0.0,17389.0,8.5,-2265.0,-2374.995136676656,0.0,0.0,4.322509323,4.355033412326787,0.0,-28067.0,18.375,2257.5,2374.995136676656,0.0,0.0,2.309570076,4.349319299048602,0.0,5.570000171661377,-2.180000066757202,7.28000020980835,-0.0487060546875,0.133056640625,1.756103515625,32.790000915527344,0.0,13.0,-3.35577392578125,-0.94427490234375,Waiting,0.0,0.0,1.0,0.0,0.0,0.0,0.0,0.0,
3.1424679999999934,0.0,0.0,35024.0,12.625,-2287.5,-2413.2764638224376,0.0,0.125,3.238525059,4.355270061801603,0.0,-14194.0,12.125,2272.5,2413.2764638224376,0.0,0.0,1.3977049350000001,4.342109495539107,0.0,17389.0,8.5,-2325.0,-2413.2764638224376,0.0,0.0,4.3481440860000005,4.346496350959939,0.0,-28067.0,17.75,2302.5,2413.2764638224376,0.0,0.0,2.310790779,4.340793438912858,0.0,5.460000038146973,-2.130000114440918,7.389999866485596,-0.02545166015625,0.17059326171875,1.1873779296875,32.790000915527344,0.0,26.0,-3.355224609375,-0.9170379638671875,Waiting,0.0,0.0,1.0,0.0,0.0,0.0,0.0,0.0,
3.1878600000000152,0.0,0.0,34653.0,12.125,-2302.5,-2331.9726317285235,0.0,0.125,3.232421544,4.261305673360797,-0.0012207029999995456,-13821.0,12.0,2295.0,2331.9726317285235,0.0,0.0,1.3977049350000001,4.248429044613735,0.0,17017.0,8.125,-2332.5,-2331.9726317285235,0.0,0.0,4.328612838000001,4.252721254196089,0.0,-27696.0,17.5,2325.0,2331.9726317285235,0.0,0.0,2.308349373,4.247141381739029,0.0,5.400000095367432,-2.049999952316284,7.53000020980835,-0.0648193359375,0.02777099609375,0.635986328125,32.790000915527344,0.0,-45.0,-3.3549652099609375,-0.8897705078125,Waiting,0.0,0.0,1.0,0.0,0.0,0.0,0.0,0.0,
3.2304150000000083,0.0,0.0,34653.0,11.625,-2340.0,-2227.931021857454,0.0,0.125,3.2141109990000003,4.095862588807152,-0.003662109000000413,-13821.0,10.625,2340.0,2227.931021857454,0.0,0.0,1.392822123,4.083485888800682,0.0,17017.0,6.25,-2355.0,-2227.931021857454,0.0,0.0,4.304198778,4.0876114554695056,-0.0024414059999999793,-27696.0,15.5,2347.5,2227.931021857454,0.0,0.0,2.298583749,4.082248218800036,0.0,5.25,-2.0299999713897705,7.699999809265137,-0.0157470703125,0.32366943359375,0.73968505859375,32.790000915527344,0.0,44.0,-3.3546600341796875,-0.8624420166015625,Waiting,0.0,0.0,1.0,0.0,0.0,0.0,0.0,0.0,
3.2725869999999997,0.0,0.0,34653.0,10.125,-2362.5,-2161.65611316343,0.0,0.125,3.1701656910000002,4.018321408148345,0.0,-13821.0,9.125,2370.0,2161.65611316343,0.0,0.25,1.365966657,4.006179018720015,0.0,17017.0,5.25,-2385.0,-2161.65611316343,0.0,0.125,4.237060113,4.010226481862792,0.0,-27696.0,13.125,2377.5,2161.65611316343,0.0,0.0,2.2265622720000002,4.004964779777183,0.0,5.190000057220459,-1.9600000381469727,7.860000133514404,0.08172607421875,0.10296630859375,1.0501708984375,32.790000915527344,0.0,117.0,-3.353759765625,-0.83453369140625,Waiting,0.0,0.0,1.0,0.0,0.0,0.0,0.0,0.0,
3.312475000000006,0.0,0.0,34273.0,7.875,-2370.0,-2150.4329115613673,0.0,0.625,3.0505367970000004,4.002821166426955,0.0,-13438.0,6.25,2392.5,2150.4329115613673,0.0,0.25,1.225585812,3.99072561495709,0.0,16633.0,3.875,-2392.5,-2150.4329115613673,0.0,0.125,4.127196843,3.994757465447045,0.0,-27313.0,12.375,2385.0,2150.4329115613673,0.0,0.375,2.141113062,3.989516059810104,0.0,5.329999923706055,-1.5299999713897705,7.880000114440918,0.16656494140625,0.27105712890625,1.22833251953125,32.790000915527344,0.0,219.0,-3.351165771484375,-0.8070831298828125,Waiting,0.0,0.0,1.0,0.0,0.0,0.0,0.0,0.0,
3.357512000000017,0.0,0.0,34273.0,7.875,-2355.0,-2131.2755699506956,0.0,0.125,2.9516598540000003,3.967169845662875,0.0,-13438.0,4.75,2422.5,2131.2755699506956,0.0,0.0,1.125488166,3.9551820238085345,0.0,16633.0,3.875,-2347.5,-2131.2755699506956,0.0,0.0,4.060058178,3.959177964426648,0.0,-27313.0,15.0,2250.0,2131.2755699506956,0.0,0.0,2.0703122880000002,3.9539832416231007,0.0,5.460000038146973,-0.9100000262260437,7.800000190734863,0.58465576171875,-0.017822265625,1.63507080078125,32.790000915527344,0.0,345.0,-3.3443145751953125,-0.7785186767578125,Waiting,0.0,0.0,1.0,0.0,0.0,0.0,0.0,0.0,
3.4045950000000014,0.0,0.0,34273.0,8.0,-2295.0,-2107.862397967943,0.0,0.125,2.878417674,3.897571090335952,0.0,-13438.0,3.875,2452.5,2107.862397967943,0.0,0.0,1.04980458,3.8857935789832037,0.0,16633.0,4.875,-2287.5,-2107.862397967943,0.0,0.0,3.983153889,3.8897194161007866,0.0,-26975.0,14.75,2107.5,2107.862397967943,0.0,0.0,1.9970701080000002,3.884615827847929,0.0,5.539999961853027,-0.12999999523162842,7.53000020980835,0.50921630859375,0.20501708984375,0.55938720703125,32.790000915527344,0.0,525.0,-3.3366851806640625,-0.7598724365234375,Waiting,0.0,0.0,1.0,0.0,0.0,0.0,0.0,0.0,
3.4482419999999983,0.0,0.0,33915.0,8.0,-2227.5,-2100.0,0.0,0.125,2.835693069,3.8251756645626513,0.0,-13047.0,2.875,2430.0,2100.0,0.0,0.0,0.9875487270000001,3.813616914569008,0.0,16273.0,5.125,-2227.5,-2100.0,0.0,0.0,3.927001551,3.8174698312335558,0.0,-26975.0,15.5,2122.5,2100.0,0.0,0.0,1.933593552,3.8124610395696443,0.0,5.71999979019165,0.9700000286102295,7.0,0.446044921875,0.28607177734375,0.49658203125,32.790000915527344,0.0,462.0,-3.31427001953125,-0.7237701416015625,Waiting,0.0,0.0,1.0,0.0,0.0,0.0,0.0,0.0,
3.491600000000006,0.0,0.0,33915.0,7.25,-2235.0,-2100.0,0.0,0.375,2.822265336,3.8195222222222243,-0.03662108999999969,-13047.0,2.5,2385.0,2100.0,0.0,0.0,0.9313963890000001,3.807980555555557,-0.06347655600000035,16273.0,5.25,-2190.0,-2100.0,0.0,0.0,3.858642183,3.811827777777779,0.0,-26975.0,15.875,2205.0,2100.0,0.0,0.0,1.8713376990000001,3.8068263888888905,0.0,5.949999809265137,1.4900000095367432,6.590000152587891,0.27447509765625,0.119873046875,1.3363037109375,32.790000915527344,0.0,235.0,-3.2922210693359375,-0.696533203125,Waiting,0.0,0.0,1.0,0.0,0.0,0.0,0.0,0.0,
3.5351410000000034,0.0,0.0,33544.0,6.5,-2295.0,-2100.0,0.0,0.375,2.755126671,3.813868779881797,-0.03906249600000011,-12676.0,2.75,2347.5,2100.0,0.0,0.0,0.886230378,3.8023441965421054,-0.05615233800000041,15928.0,5.25,-2167.5,-2100.0,0.0,0.0,3.806151954,3.8061857243220025,-0.0646972589999999,-26626.0,14.625,2190.0,2100.0,0.0,0.0,1.807861143,3.8011917382081366,0.0,5.800000190734863,2.0399999618530273,6.409999847412109,0.4459228515625,0.23236083984375,0.4652099609375,32.790000915527344,0.0,446.0,-3.2754974365234375,-0.6786651611328125,Waiting,0.0,0.0,1.0,0.0,0.0,0.0,0.0,0.0,
3.5832289999999922,0.0,0.0,33544.0,6.25,-2317.5,-2099.9999999999995,0.0,0.125,2.705077848,3.809870002630024,-0.04272460500000008,-12676.0,3.125,2295.0,2099.9999999999995,0.0,0.0,0.832519446,3.7983575026220757,-0.04150390199999965,15928.0,5.375,-2152.5,-2099.9999999999995,0.0,0.0,3.768310161,3.802195002624725,-0.05126952600000001,-26626.0,14.5,2175.0,2099.9999999999995,0.0,0.0,1.7675779440000001,3.7972062526212813,-0.06103515000000037,5.840000152587891,2.4200000762939453,6.159999847412109,0.23504638671875,0.13409423828125,0.7764892578125,32.790000915527344,0.0,206.0,-3.24737548828125,-0.65191650390625,Waiting,0.0,0.0,1.0,0.0,0.0,0.0,0.0,0.0,
3.6254800000000107,0.0,0.0,33544.0,5.875,-2257.5,-2100.0,0.0,0.125,2.677001679,3.80793955345154,0.0,-12676.0,2.625,2265.0,2100.0,0.0,0.0,0.833740149,3.7964328867912305,0.0,15928.0,5.5,-2145.0,-2100.0,0.0,0.0,3.748778913,3.800268442344667,0.0,-26626.0,13.875,2182.5,2100.0,0.0,0.0,1.746825993,3.7952822201251997,0.0,5.860000133514404,2.640000104904175,5.96999979019165,0.2596435546875,0.13250732421875,1.15478515625,32.790000915527344,0.0,206.0,-3.21661376953125,-0.6252899169921875,Waiting,0.0,0.0,1.0,0.0,0.0,0.0,0.0,0.0,
3.6682300000000105,0.0,0.0,33189.0,6.375,-2205.0,-2100.0,0.0,0.125,2.667236055,3.804492331229318,0.0,-12315.0,2.75,2265.0,2100.0,0.0,0.0,0.823974525,3.792996081235675,0.0,15580.0,5.25,-2152.5,-2100.0,0.0,0.0,3.748778913,3.796828164566889,0.0,-26268.0,12.625,2212.5,2100.0,0.0,0.0,1.7358396660000002,3.791846456236311,0.0,5.75,2.9100000858306885,5.760000228881836,-0.00823974609375,-0.04583740234375,1.16888427734375,32.790000915527344,0.0,-83.0,-3.173431396484375,-0.5898590087890625,Waiting,0.0,0.0,1.0,0.0,0.0,0.0,0.0,0.0,
3.7118669999999985,0.0,0.0,33189.0,6.625,-2197.5,-2099.9999999999995,0.0,0.125,2.663573946,3.802424003156028,0.0,-12315.0,2.875,2242.5,2099.9999999999995,0.0,0.0,0.823974525,3.7909340031464906,0.0,15580.0,5.125,-2160.0,-2099.9999999999995,0.0,0.0,3.749999616,3.79476400314967,0.0,-26268.0,12.25,2235.0,2099.9999999999995,0.0,0.0,1.7395017750000001,3.7897850031455373,0.0,5.53000020980835,2.9600000381469727,5.739999771118164,0.14508056640625,-0.0706787109375,0.62261962890625,32.790000915527344,0.0,98.0,-3.1514129638671875,-0.572418212890625,Waiting,0.0,0.0,1.0,0.0,0.0,0.0,0.0,0.0,
3.753676999999996,0.0,0.0,33189.0,6.375,-2197.5,-2099.9999999999995,0.0,0.125,2.659911837,3.801596664036647,0.0,-12315.0,3.25,2190.0,2099.9999999999995,0.0,0.0,0.819091713,3.7901091640445936,0.0,15580.0,4.875,-2175.0,-2099.9999999999995,0.0,0.0,3.748778913,3.7939383307086114,0.0,-26268.0,11.75,2220.0,2099.9999999999995,0.0,0.0,1.722411933,3.7889604140453885,0.0,5.619999885559082,2.8499999046325684,5.71999979019165,0.07818603515625,-0.03814697265625,1.54656982421875,32.790000915527344,0.0,-18.0,-3.12908935546875,-0.5556182861328125,Waiting,0.0,0.0,1.0,0.0,0.0,0.0,0.0,0.0,
3.794322000000015,0.0,0.0,32839.0,5.875,-2205.0,-2100.0,0.0,0.125,2.663573946,3.8018724415514225,0.0,-11968.0,3.875,2160.0,2100.0,0.0,0.0,0.820312416,3.7903841082268306,0.0,15234.0,4.875,-2175.0,-2100.0,0.0,0.0,3.748778913,3.794213552668361,0.0,-25918.0,11.5,2197.5,2100.0,0.0,0.0,1.7163084180000001,3.7892352748943714,0.0,5.409999847412109,2.930000066757202,5.75,-0.02618408203125,0.1258544921875,1.25146484375,32.790000915527344,0.0,-89.0,-3.0958404541015625,-0.5308380126953125,Waiting,0.0,0.0,1.0,0.0,0.0,0.0,0.0,0.0,
3.8391020000000133,0.0,0.0,32839.0,5.625,-2205.0,-2100.0,0.0,0.125,2.662353243,3.8022861111111133,-0.0024414059999999793,-11968.0,4.5,2115.0,2100.0,0.0,0.0,0.809326089,3.790796527777779,0.0,15234.0,4.125,-2182.5,-2100.0,0.0,0.0,3.749999616,3.7946263888888905,0.0012207029999999897,-25918.0,11.25,2205.0,2100.0,0.0,0.0,1.7126463090000001,3.789647569444446,0.0,5.159999847412109,2.990000009536743,5.829999923706055,0.18304443359375,0.16229248046875,0.23846435546875,32.790000915527344,0.0,183.0,-3.0635223388671875,-0.53070068359375,Waiting,0.0,0.0,1.0,0.0,0.0,0.0,0.0,0.0,
3.8854250000000174,0.0,0.0,32839.0,5.5,-2190.0,-2100.0,0.0,0.125,2.663573946,3.8033892211702156,0.0012207029999999897,-11968.0,4.75,2070.0,2100.0,0.0,0.0,0.809326089,3.791896304506727,-0.003662109000000413,15234.0,3.5,-2190.0,-2100.0,0.0,0.0,3.748778913,3.79572727672789,0.0012207029999999897,-25918.0,11.125,2212.5,2100.0,0.0,0.0,1.7138670120000001,3.7907470128403786,0.0,5.130000114440918,2.740000009536743,5.920000076293945,0.1767578125,-0.10028076171875,0.50811767578125,32.790000915527344,0.0,136.0,-3.0314178466796875,-0.53131103515625,Waiting,0.0,0.0,1.0,0.0,0.0,0.0,0.0,0.0,
3.929811000000016,0.0,0.0,32487.0,5.5,-2182.5,-2100.0,0.0,0.125,2.663573946,3.804630223274233,0.0,-11632.0,4.625,2085.0,2100.0,0.0,0.0,0.8300780400000001,3.7931335566043867,0.0,14882.0,3.5,-2205.0,-2100.0,0.0,0.0,3.748778913,3.7969657788276687,0.0,-25563.0,10.625,2212.5,2100.0,0.0,0.0,1.7138670120000001,3.791983889937402,0.0,5.050000190734863,2.5799999237060547,6.079999923706055,-0.07232666015625,0.02789306640625,1.7171630859375,32.790000915527344,0.0,-162.0,-2.9993896484375,-0.5344085693359375,Waiting,0.0,0.0,1.0,0.0,0.0,0.0,0.0,0.0,
3.968317999999999,0.0,0.0,32487.0,5.25,-2182.5,-2099.9999999999995,0.0,0.125,2.662353243,3.8068364433924375,0.0,-11632.0,4.5,2122.5,2099.9999999999995,0.0,0.0,0.8044432770000001,3.7953331100622827,0.0,14882.0,2.875,-2197.5,-2099.9999999999995,0.0,0.0,3.7475582100000002,3.799167554505668,0.0,-25563.0,10.25,2205.0,2099.9999999999995,0.0,0.0,1.7114256060000002,3.7941827767292673,0.0,4.789999961853027,2.509999990463257,6.28000020980835,-0.03790283203125,0.20050048828125,1.54833984375,32.7599983215332,0.0,-97.0,-2.968109130859375,-0.538604736328125,Waiting,0.0,0.0,1.0,0.0,0.0,0.0,0.0,0.0,
4.010969000000012,0.0,0.0,32137.0,5.125,-2190.0,-2099.9999999999995,0.0,0.125,2.666015352,3.8095942251152484,0.0,-11292.0,4.25,2145.0,2099.9999999999995,0.0,0.0,0.798339762,3.7980825584398388,0.0,14533.0,2.875,-2182.5,-2099.9999999999995,0.0,0.0,3.749999616,3.801919780664975,0.0,-25208.0,9.75,2212.5,2099.9999999999995,0.0,0.0,1.7077634970000002,3.796931391772298,0.0,4.679999828338623,2.490000009536743,6.420000076293945,0.1929931640625,-0.0760498046875,1.06683349609375,32.7599983215332,0.0,127.0,-2.957733154296875,-0.5422515869140625,Waiting,0.0,0.0,1.0,0.0,0.0,0.0,0.0,0.0,
4.061752999999997,0.0,0.0,32137.0,4.75,-2197.5,-2100.0,0.0,0.125,2.662353243,3.8115246677186776,0.0,-11292.0,4.0,2137.5,2100.0,0.0,0.0,0.794677653,3.800007167715498,0.0,14533.0,2.625,-2175.0,-2100.0,0.0,0.0,3.749999616,3.8038463343832243,0.0,-25208.0,9.625,2212.5,2100.0,0.0,0.0,1.702880685,3.79885541771518,0.0,4.460000038146973,2.4100000858306885,6.53000020980835,0.0291748046875,-0.01202392578125,0.35137939453125,32.7599983215332,0.0,9.0,-2.95782470703125,-0.5474700927734375,Waiting,0.0,0.0,1.0,0.0,0.0,0.0,0.0,0.0,
4.108660000000003,0.0,0.0,32137.0,4.75,-2190.0,-2100.0,0.0,0.125,2.662353243,3.8130414473374703,0.0,-11292.0,3.5,2145.0,2100.0,0.0,0.0,0.794677653,3.8015193639953946,0.0,14533.0,1.875,-2190.0,-2100.0,0.0,0.0,3.7463375070000002,3.805360058442753,0.0,-25208.0,9.625,2182.5,2100.0,0.0,0.0,1.7126463090000001,3.800367155661187,0.0,4.519999980926514,2.190000057220459,6.599999904632568,0.0091552734375,0.03271484375,1.40191650390625,32.7599983215332,0.0,-53.0,-2.9587249755859375,-0.5540618896484375,Waiting,0.0,0.0,1.0,0.0,0.0,0.0,0.0,0.0,
4.153644999999989,0.0,0.0,31790.0,4.75,-2167.5,-2100.0,0.0,0.125,2.663573946,3.8142824428664333,0.0,-10945.0,3.25,2167.5,2100.0,0.0,0.0,0.795898356,3.8027566095378678,0.0,14181.0,2.125,-2197.5,-2100.0,0.0,0.0,3.7451168040000002,3.8065985539807228,0.0,-24861.0,9.625,2160.0,2100.0,0.0,0.0,1.7126463090000001,3.8016040262050113,0.0,4.480000019073486,2.109999895095825,6.650000095367432,0.09808349609375,0.12646484375,1.48773193359375,32.7599983215332,0.0,43.0,-2.960693359375,-0.5610809326171875,Waiting,0.0,0.0,1.0,0.0,0.0,0.0,0.0,0.0,
4.195483999999997,0.0,0.0,31790.0,4.5,-2167.5,-2100.0,0.0,0.125,2.662353243,3.814696112426124,0.0,-10945.0,3.125,2175.0,2100.0,0.0,0.0,0.794677653,3.8031690290888163,0.0,14181.0,2.375,-2167.5,-2100.0,0.0,0.0,3.7341304770000003,3.8070113902012523,0.0,-24861.0,9.625,2160.0,2100.0,0.0,0.0,1.7126463090000001,3.8020163207550857,0.0,4.300000190734863,2.190000057220459,6.71999979019165,-0.12457275390625,-0.202392578125,0.5689697265625,32.7599983215332,0.0,-173.0,-2.962738037109375,-0.5687408447265625,Waiting,0.0,0.0,1.0,0.0,0.0,0.0,0.0,0.0,
4.242106999999989,0.0,0.0,31790.0,4.5,-2175.0,-2114.3703870866766,0.0,0.125,2.650146213,3.7234982709061963,0.0,-10945.0,3.25,2160.0,2114.3703870866766,0.0,0.0,0.76904289,3.712246765252772,0.0012207029999995456,14181.0,2.375,-2130.0,-2114.3703870866766,0.0,0.0,3.7329097740000003,3.715997267137247,-0.009765623999999917,-24861.0,9.625,2160.0,2114.3703870866766,0.0,0.0,1.7126463090000001,3.71112161468743,0.0,4.289999961853027,2.009999990463257,6.769999980926514,0.02447509765625,-0.15264892578125,0.75823974609375,32.7599983215332,0.0,-26.0,-2.965087890625,-0.5784149169921875,Waiting,0.0,0.0,1.0,0.0,0.0,0.0,0.0,0.0,
4.288379000000015,0.0,0.0,31441.0,4.5,-2175.0,-2242.8009831458517,0.0,0.125,2.6416012920000003,3.5329057539869653,0.0,-10602.0,3.75,2137.5,2242.8009831458517,0.0,0.0,0.7897948410000001,3.5222301725385754,0.0,13839.0,2.875,-2137.5,-2242.8009831458517,0.0,0.0,3.7304683680000004,3.5257886996880385,0.0,-24516.0,10.0,2152.5,2242.8009831458517,0.0,0.0,1.702880685,3.5211626143937362,0.0,4.25,1.9700000286102295,6.820000171661377,-0.14794921875,-0.04742431640625,1.5302734375,32.7599983215332,0.0,-218.0,-2.967437744140625,-0.589691162109375,Waiting,0.0,0.0,1.0,0.0,0.0,0.0,0.0,0.0,
4.331171000000002,0.0,0.0,31441.0,5.25,-2175.0,-2273.90861742301,0.0,0.125,2.618407935,3.309785338088174,0.0,-10602.0,4.75,2130.0,2273.90861742301,0.0,0.0,0.784912029,3.299783972239801,-0.004882811999999959,13839.0,4.125,-2167.5,-2273.90861742301,0.0,0.0,3.697509387,3.3031177608559252,-0.006103514999999948,-24516.0,11.125,2160.0,2273.90861742301,0.0,0.0,1.669921704,3.2987838356549637,-0.008544920999999928,4.019999980926514,2.009999990463257,6.900000095367432,0.08154296875,0.14105224609375,0.79266357421875,32.7599983215332,0.0,63.0,-2.9703521728515625,-0.6015167236328125,Waiting,0.0,0.0,1.0,0.0,0.0,0.0,0.0,0.0,
4.370619999999995,0.0,0.0,31092.0,5.875,-2182.5,-2285.4206577800537,0.0,0.375,2.517089586,3.20165368161209,0.0,-10254.0,5.0,2152.5,2285.4206577800537,0.0,0.5,0.677490165,3.191979063315518,0.0,13494.0,5.0,-2167.5,-2285.4206577800537,0.0,0.125,3.5717769780000004,3.1952039360810423,0.0,-24171.0,12.375,2160.0,2285.4206577800537,0.0,0.375,1.549072107,3.191011601485861,0.0,3.950000047683716,2.109999895095825,6.920000076293945,0.1781005859375,0.052490234375,1.476318359375,32.7599983215332,0.0,116.0,-2.9726409912109375,-0.613525390625,Waiting,0.0,0.0,1.0,0.0,0.0,0.0,0.0,0.0,
4.414513999999995,0.0,0.0,31092.0,6.0,-2175.0,-2285.4206577800537,0.0,1.25,2.335204839,3.2019294591268657,0.0,-10254.0,4.375,2190.0,2285.4206577800537,0.0,1.0,0.490722606,3.192254007497755,0.0,13494.0,5.25,-2145.0,-2285.4206577800537,0.0,0.625,3.399657855,3.195479158040792,0.0,-24171.0,13.75,2137.5,2285.4206577800537,0.0,0.75,1.405029153,3.191286462334844,0.0,3.7699999809265137,2.740000009536743,6.789999961853027,0.3485107421875,0.0250244140625,1.40069580078125,32.7599983215332,0.0,270.0,-2.972137451171875,-0.627899169921875,Waiting,0.0,0.0,1.0,0.0,0.0,0.0,0.0,0.0,
4.45591399999999,0.0,0.0,31092.0,6.75,-2167.5,-2285.4206577800537,0.0,0.375,2.1716306370000003,3.200136901993297,0.0,-10254.0,2.875,2272.5,2285.4206577800537,0.0,0.0,0.35644527600000003,3.1904668670356213,0.0,13494.0,6.375,-2100.0,-2285.4206577800537,0.0,0.125,3.2678219310000003,3.1936902120215134,0.0,-24171.0,16.75,2047.5,2285.4206577800537,0.0,0.375,1.308593616,3.189499863539854,0.0,3.25,3.690000057220459,6.5,0.4140625,0.040283203125,0.98699951171875,32.790000915527344,0.0,345.0,-2.9675445556640625,-0.64544677734375,Waiting,0.0,0.0,1.0,0.0,0.0,0.0,0.0,0.0,
4.5009239999999995,0.0,0.0,30753.0,7.625,-2137.5,-2285.4206577800537,0.0,0.125,2.0654294760000003,3.1961381247415237,0.0,-9894.0,4.125,2295.0,2285.4206577800537,0.0,0.0,0.28442379900000003,3.186480173115592,0.0,13166.0,8.0,-2047.5,-2285.4206577800537,0.0,0.0,3.177489909,3.189699490324236,0.0,-23865.0,20.875,1912.5,2285.4206577800537,0.0,0.375,1.256103387,3.185514377952999,0.0,2.690000057220459,4.510000228881836,6.059999942779541,0.5068359375,-0.1707763671875,0.43707275390625,32.790000915527344,0.0,447.0,-2.9582061767578125,-0.665374755859375,Waiting,0.0,0.0,1.0,0.0,0.0,0.0,0.0,0.0,
4.547997000000003,0.0,0.0,30753.0,8.375,-2092.5,-2293.3566803446097,0.0,0.125,1.9995115140000002,3.33887698480677,-0.11230467599999994,-9894.0,4.5,2197.5,2293.3566803446097,0.0,0.0,0.260009739,3.3287877110815276,-0.07568358600000025,13166.0,9.375,-2025.0,-2293.3566803446097,0.0,0.0,3.135986007,3.332150802323275,0.0,-23865.0,20.75,1957.5,2293.3566803446097,0.0,0.0,1.202392455,3.3277787837090034,0.0,2.2300000190734863,5.019999980926514,5.489999771118164,0.3165283203125,-0.1422119140625,1.0203857421875,32.790000915527344,0.0,207.0,-2.9451751708984375,-0.6874542236328125,Waiting,0.0,0.0,1.0,0.0,0.0,0.0,0.0,0.0,
4.589458000000013,0.0,0.0,30753.0,8.75,-2085.0,-2324.135108789127,0.0,0.125,1.984863078,3.377483924172935,-0.052490228999999555,-9894.0,5.625,2092.5,2324.135108789127,0.0,0.0,0.255126927,3.367277989672009,-0.023193357000000248,13166.0,10.125,-2032.5,-2324.135108789127,0.0,0.0,3.139648116,3.370679967838984,-0.035400387000000144,-23865.0,24.625,2032.5,2324.135108789127,0.0,0.0,1.169433474,3.366257396221916,0.0,1.9500000476837158,5.489999771118164,4.940000057220459,0.1932373046875,0.07867431640625,1.57562255859375,32.790000915527344,0.0,43.0,-2.9296417236328125,-0.71124267578125,Waiting,0.0,0.0,1.0,0.0,0.0,0.0,0.0,0.0,
4.635671000000002,0.0,0.0,30406.0,8.625,-2137.5,-2298.807780549314,0.0,0.125,1.98974589,3.460128517552186,-0.009765624000000361,-9559.0,6.75,2070.0,2298.807780549314,0.0,0.0,0.255126927,3.449672851201806,0.003662109000000413,12837.0,10.125,-2062.5,-2298.807780549314,0.0,0.0,3.177489909,3.4531580733185994,0.014648435999999876,-23537.0,24.25,2025.0,2298.807780549314,0.0,0.0,1.125488166,3.4486272845667685,-0.025634763000000227,1.75,5.840000152587891,4.559999942779541,0.20587158203125,0.04168701171875,0.89080810546875,32.790000915527344,0.0,114.0,-2.9181365966796875,-0.72760009765625,Waiting,0.0,0.0,1.0,0.0,0.0,0.0,0.0,0.0,
4.675605000000011,0.0,0.0,30406.0,8.375,-2197.5,-2298.807780549314,0.0,0.125,2.0080564350000003,3.4522688485184996,0.0,-9559.0,7.125,2107.5,2298.807780549314,0.0,0.0,0.26489255100000003,3.4418369321752724,0.0,12837.0,9.625,-2107.5,-2298.807780549314,0.0,0.0,3.2177731080000003,3.445314237623015,0.0,-23537.0,24.5,2010.0,2298.807780549314,0.0,0.0,1.148681523,3.4407937405409497,0.0,1.690000057220459,6.119999885559082,4.039999961853027,0.0943603515625,0.0556640625,0.525634765625,32.790000915527344,0.0,40.0,-2.90008544921875,-0.75262451171875,Waiting,0.0,0.0,1.0,0.0,0.0,0.0,0.0,0.0,
