Time,ClimberA1,ClimberA2,FRpos,FRCurrent,FRspeed,FRsetpoint,FRApos,FRACurrent,FREncpos,FREncSetpoint,FREncSpeed,FLpos,FLCurrent,FLspeed,FLsetpoint,FLApos,FLACurrent,FLEncpos,FLEncSetpoint,FLEncSpeed,BRpos,BRCurrent,BRspeed,BRsetpoint,BRApos,BRACurrent,BREncpos,BREncSetpoint,BREncSpeed,BLpos,BLCurrent,BLspeed,BLsetpoint,BLApos,BLACurrent,BLEncpos,BLEncSetpoint,BLEncSpeed,navx_Pitch,navx_Roll,navx_Yaw,navx_XAcc,navx_YAcc,navx_ZAcc,navx_Temp,navx_Bar,navx_Alt,navx_XDis,navx_YDis,GearPlacerState,ShootOutputV,ShootOutputCurrent,ShootEncPos,ShootEncVelocity,ShootSpeed,ShootSetpoint,CarouselSetpoint,CarouselCurrent,
0.13532200000016018,0.0,0.0,20.0,0.0,0.0,0.0,0.0,0.125,3.978271077,0.0,0.0,343.0,0.0,0.0,-0.0,0.0,0.0,2.0080564350000003,0.0,0.0,37.0,0.0,0.0,0.0,0.0,0.0,4.691161629000001,0.0,0.0,-53.0,0.0,0.0,-0.0,0.0,0.0,2.921142279,0.0,0.0,-0.44999998807907104,89.43000030517578,-90.43000030517578,0.99945068359375,-0.00628662109375,-0.00274658203125,35.04999923706055,0.0,-1.0,-0.0727691650390625,0.060882568359375,Waiting,0.0,0.0,-396139.0,0.0,0.0,0.0,0.0,0.0,
0.2770209999999497,0.0,0.0,20.0,0.0,0.0,0.0,0.0,0.125,3.9453120960000003,0.0,0.0,343.0,0.0,0.0,-0.0,0.0,0.0,2.0080564350000003,0.0,0.0,37.0,0.0,0.0,0.0,0.0,0.0,4.686278817,0.0,0.0,-53.0,0.0,0.0,-0.0,0.0,0.0,2.919921576,0.0,0.0,-0.44999998807907104,89.44000244140625,-90.41999816894531,1.00604248046875,-0.00787353515625,-0.00811767578125,35.04999923706055,0.0,0.0,-0.0727691650390625,0.060882568359375,Waiting,0.0,0.0,-396139.0,0.0,0.0,0.0,0.0,0.0,
0.42879099999996834,0.0,0.0,20.0,0.0,0.0,0.0,0.0,0.125,3.920898036,0.0,0.0,343.0,0.0,0.0,-0.0,0.0,0.0,2.0080564350000003,0.0,0.0,37.0,0.0,0.0,0.0,0.0,0.0,4.691161629000001,0.0,0.0,-53.0,0.0,0.0,-0.0,0.0,0.0,2.921142279,0.0,0.0,-0.44999998807907104,89.44000244140625,-90.41999816894531,1.0048828125,-0.00750732421875,-0.0084228515625,35.04999923706055,0.0,0.0,-0.0727691650390625,0.060882568359375,Waiting,0.0,0.0,-396139.0,0.0,0.0,0.0,0.0,0.0,
0.5744480000000912,0.0,0.0,20.0,0.0,0.0,0.0,0.0,0.125,3.920898036,0.0,0.0,343.0,0.0,0.0,-0.0,0.0,0.0,2.0092771380000003,0.0,0.0,37.0,0.0,0.0,0.0,0.0,0.0,4.692382332,0.0,0.0,-53.0,0.0,0.0,-0.0,0.0,0.0,2.919921576,0.0,0.0,-0.44999998807907104,89.44000244140625,-90.43000030517578,1.00311279296875,-0.01171875,-0.00732421875,35.04999923706055,0.0,3.0,-0.0727691650390625,0.060882568359375,Waiting,0.0,0.0,-396139.0,0.0,0.0,0.0,0.0,0.0,
0.7287550000001211,0.0,0.0,20.0,0.0,0.0,0.0,0.0,0.125,3.920898036,0.0,0.0,343.0,0.0,0.0,-0.0,0.0,0.0,2.0080564350000003,0.0,0.0,37.0,0.0,0.0,0.0,0.0,0.0,4.689940926,0.0,0.0,-53.0,0.0,0.0,-0.0,0.0,0.0,2.919921576,0.0,0.0,-0.44999998807907104,89.44000244140625,-90.43000030517578,0.99945068359375,-0.010986328125,-0.00653076171875,35.08000183105469,0.0,2.0,-0.0727691650390625,0.060882568359375,Waiting,0.0,0.0,-396139.0,0.0,0.0,0.0,0.0,0.0,
0.8775700000000652,0.0,0.0,20.0,0.0,0.0,0.0,0.0,0.125,3.919677333,0.0,0.0,343.0,0.0,0.0,-0.0,0.0,0.0,2.0092771380000003,0.0,0.0,37.0,0.0,0.0,0.0,0.0,0.0,4.691161629000001,0.0,0.0,-53.0,0.0,0.0,-0.0,0.0,0.0,2.919921576,0.0,0.0,-0.4300000071525574,89.44999694824219,-90.41000366210938,0.99798583984375,-0.00592041015625,-0.00885009765625,35.08000183105469,0.0,-2.0,-0.0727691650390625,0.060882568359375,Waiting,0.0,0.0,-396139.0,0.0,0.0,0.0,0.0,0.0,
1.0356380000000354,0.0,0.0,20.0,0.0,0.0,0.0,0.0,0.125,3.920898036,0.0,0.0,343.0,0.0,0.0,-0.0,0.0,0.0,2.0080564350000003,0.0,0.0,37.0,0.0,0.0,0.0,0.0,0.0,4.691161629000001,0.0,0.0,-53.0,0.0,0.0,-0.0,0.0,0.0,2.922362982,0.0,0.0,-0.46000000834465027,89.43000030517578,-90.43000030517578,1.0008544921875,-0.01177978515625,-0.00665283203125,35.08000183105469,0.0,3.0,-0.0727691650390625,0.060882568359375,Waiting,0.0,0.0,-396139.0,0.0,0.0,0.0,0.0,0.0,
1.1855,0.0,0.0,20.0,0.0,0.0,0.0,0.0,0.125,3.920898036,0.0,0.0,343.0,0.0,0.0,-0.0,0.0,0.0,2.0092771380000003,0.0,0.0,37.0,0.0,0.0,0.0,0.0,0.0,4.689940926,0.0,0.0,-53.0,0.0,0.0,-0.0,0.0,0.0,2.921142279,0.0,0.0,-0.44999998807907104,89.44000244140625,-90.43000030517578,1.00018310546875,-0.0108642578125,-4.8828125E-4,35.06999969482422,0.0,3.0,-0.0727691650390625,0.060882568359375,Waiting,0.0,0.0,-396139.0,0.0,0.0,0.0,0.0,0.0,
1.3366080000000073,0.0,0.0,20.0,0.0,0.0,0.0,0.0,0.125,3.922118739,0.0,0.0,343.0,0.0,0.0,-0.0,0.0,0.0,2.0080564350000003,0.0,0.0,37.0,0.0,0.0,0.0,0.0,0.0,4.689940926,0.0,0.0,-53.0,0.0,0.0,-0.0,0.0,0.0,2.921142279,0.0,0.0,-0.44999998807907104,89.44000244140625,-90.41999816894531,1.00445556640625,-0.00946044921875,0.001953125,35.06999969482422,0.0,2.0,-0.0727691650390625,0.060882568359375,Waiting,0.0,0.0,-396139.0,0.0,0.0,0.0,0.0,0.0,
1.4952700000000185,0.0,0.0,20.0,0.0,0.0,0.0,0.0,0.125,3.919677333,0.0,0.0,343.0,0.0,0.0,-0.0,0.0,0.0,2.0092771380000003,0.0,0.0,37.0,0.0,0.0,0.0,0.0,0.0,4.691161629000001,0.0,0.0,-53.0,0.0,0.0,-0.0,0.0,0.0,2.921142279,0.0,0.0,-0.44999998807907104,89.44000244140625,-90.41999816894531,1.0006103515625,-0.0087890625,-0.00396728515625,35.06999969482422,0.0,0.0,-0.0727691650390625,0.060882568359375,Waiting,0.0,0.0,-396139.0,0.0,0.0,0.0,0.0,0.0,
1.6392380000001285,0.0,0.0,20.0,0.0,0.0,0.0,0.0,0.125,3.920898036,0.0,0.0,343.0,0.0,0.0,-0.0,0.0,0.0,2.0092771380000003,0.0,0.0,37.0,0.0,0.0,0.0,0.0,0.0,4.692382332,0.0,0.0,-53.0,0.0,0.0,-0.0,0.0,0.0,2.921142279,0.0,0.0,-0.44999998807907104,89.44000244140625,-90.41999816894531,1.0015869140625,-0.0079345703125,-0.00274658203125,35.06999969482422,0.0,0.0,-0.0727691650390625,0.060882568359375,Waiting,0.0,0.0,-396139.0,0.0,0.0,0.0,0.0,0.0,
1.7901330000001472,0.0,0.0,20.0,0.0,0.0,0.0,0.0,0.125,3.920898036,0.0,0.0,343.0,0.0,0.0,-0.0,0.0,0.0,1.9982908110000002,0.0,0.0,37.0,0.0,0.0,0.0,0.0,0.0,4.688720223000001,0.0,0.0,-53.0,0.0,0.0,-0.0,0.0,0.0,2.919921576,0.0,0.0,-0.44999998807907104,89.44000244140625,-90.41999816894531,1.00225830078125,-0.0062255859375,-0.00616455078125,35.09000015258789,0.0,-1.0,-0.0727691650390625,0.060882568359375,Waiting,0.0,0.0,-396139.0,0.0,0.0,0.0,0.0,0.0,
1.936032000000123,0.0,0.0,20.0,0.0,0.0,0.0,0.0,0.125,3.920898036,0.0,0.0,343.0,0.0,0.0,-0.0,0.0,0.0,2.0080564350000003,0.0,0.0,37.0,0.0,0.0,0.0,0.0,0.0,4.691161629000001,0.0,0.0,-53.0,0.0,0.0,-0.0,0.0,0.0,2.921142279,0.0,0.0,-0.44999998807907104,89.44000244140625,-90.41999816894531,1.0020751953125,-0.00738525390625,-0.0096435546875,35.09000015258789,0.0,0.0,-0.0727691650390625,0.060882568359375,Waiting,0.0,0.0,-396139.0,0.0,0.0,0.0,0.0,0.0,
2.0904390000000133,0.0,0.0,20.0,0.0,0.0,0.0,0.0,0.125,3.91845663,0.0,0.0,343.0,0.0,0.0,-0.0,0.0,0.0,2.0068357320000003,0.0,0.0,37.0,0.0,0.0,0.0,0.0,0.0,4.691161629000001,0.0,0.0,-53.0,0.0,0.0,-0.0,0.0,0.0,2.919921576,0.0,0.0,-0.44999998807907104,89.44000244140625,-90.41999816894531,1.0028076171875,-0.009765625,-0.00897216796875,35.09000015258789,0.0,1.0,-0.0727691650390625,0.060882568359375,Waiting,0.0,0.0,-396139.0,0.0,0.0,0.0,0.0,0.0,
2.240465000000084,0.0,0.0,20.0,0.0,0.0,0.0,0.0,0.125,3.920898036,0.0,0.0,343.0,0.0,0.0,-0.0,0.0,0.0,2.0080564350000003,0.0,0.0,37.0,0.0,0.0,0.0,0.0,0.0,4.692382332,0.0,0.0,-53.0,0.0,0.0,-0.0,0.0,0.0,2.919921576,0.0,0.0,-0.4399999976158142,89.44000244140625,-90.41999816894531,1.00128173828125,-0.00994873046875,-0.00445556640625,35.09000015258789,0.0,2.0,-0.0727691650390625,0.060882568359375,Waiting,0.0,0.0,-396139.0,0.0,0.0,0.0,0.0,0.0,
2.3900979999999983,0.0,0.0,20.0,0.0,0.0,0.0,0.0,0.125,3.920898036,0.0,0.0,343.0,0.0,0.0,-0.0,0.0,0.0,2.0080564350000003,0.0,0.0,37.0,0.0,0.0,0.0,0.0,0.0,4.691161629000001,0.0,0.0,-53.0,0.0,0.0,-0.0,0.0,0.0,2.919921576,0.0,0.0,-0.4399999976158142,89.44000244140625,-90.41999816894531,1.0015869140625,-0.00726318359375,0.002197265625,35.09000015258789,0.0,0.0,-0.0727691650390625,0.060882568359375,Waiting,0.0,0.0,-396139.0,0.0,0.0,0.0,0.0,0.0,
2.547121999999974,0.0,0.0,20.0,0.0,0.0,0.0,0.0,0.125,3.919677333,0.0,0.0,343.0,0.0,0.0,-0.0,0.0,0.0,2.0092771380000003,0.0,0.0,37.0,0.0,0.0,0.0,0.0,0.0,4.691161629000001,0.0,0.0,-53.0,0.0,0.0,-0.0,0.0,0.0,2.921142279,0.0,0.0,-0.4399999976158142,89.43000030517578,-90.41000366210938,1.00323486328125,-0.01141357421875,-0.00921630859375,35.09000015258789,0.0,3.0,-0.0727691650390625,0.060882568359375,Waiting,0.0,0.0,-396139.0,0.0,0.0,0.0,0.0,0.0,
2.7040470000000205,0.0,0.0,20.0,0.0,0.0,0.0,0.0,0.125,3.920898036,0.0,0.0,343.0,0.0,0.0,-0.0,0.0,0.0,2.0092771380000003,0.0,0.0,37.0,0.0,0.0,0.0,0.0,0.0,4.691161629000001,0.0,0.0,-53.0,0.0,0.0,-0.0,0.0,0.0,2.919921576,0.0,0.0,-0.4399999976158142,89.43000030517578,-90.41000366210938,1.00506591796875,-0.00836181640625,-0.00189208984375,35.060001373291016,0.0,0.0,-0.0727691650390625,0.060882568359375,Waiting,0.0,0.0,-396139.0,0.0,0.0,0.0,0.0,0.0,
2.854841999999946,0.0,0.0,20.0,0.0,0.0,0.0,0.0,0.125,3.920898036,0.0,0.0,343.0,0.0,0.0,-0.0,0.0,0.0,2.0092771380000003,0.0,0.0,37.0,0.0,0.0,0.0,0.0,0.0,4.691161629000001,0.0,0.0,-53.0,0.0,0.0,-0.0,0.0,0.0,2.919921576,0.0,0.0,-0.44999998807907104,89.43000030517578,-90.41999816894531,1.0047607421875,-0.00628662109375,-0.00555419921875,35.060001373291016,0.0,-1.0,-0.0727691650390625,0.060882568359375,Waiting,0.0,0.0,-396139.0,0.0,0.0,0.0,0.0,0.0,
3.0072020000000483,0.0,0.0,20.0,0.0,0.0,0.0,0.0,0.125,3.920898036,0.0,0.0,343.0,0.0,0.0,-0.0,0.0,0.0,2.0104978410000003,0.0,0.0,37.0,0.0,0.0,0.0,0.0,0.0,4.689940926,0.0,0.0,-53.0,0.0,0.0,-0.0,0.0,0.0,2.919921576,0.0,0.0,-0.44999998807907104,89.43000030517578,-90.41999816894531,1.00433349609375,-0.00506591796875,-0.00567626953125,35.060001373291016,0.0,-2.0,-0.0727691650390625,0.060882568359375,Waiting,0.0,0.0,-396139.0,0.0,0.0,0.0,0.0,0.0,
3.154152999999933,0.0,0.0,20.0,0.0,0.0,0.0,0.0,0.125,3.920898036,0.0,0.0,343.0,0.0,0.0,-0.0,0.0,0.0,2.0080564350000003,0.0,0.0,37.0,0.0,0.0,0.0,0.0,0.0,4.691161629000001,0.0,0.0,-53.0,0.0,0.0,-0.0,0.0,0.0,2.919921576,0.0,0.0,-0.44999998807907104,89.41999816894531,-90.41999816894531,1.0057373046875,-0.01007080078125,-0.01123046875,35.060001373291016,0.0,1.0,-0.0727691650390625,0.060882568359375,Waiting,0.0,0.0,-396139.0,0.0,0.0,0.0,0.0,0.0,
3.307118000000017,0.0,0.0,20.0,0.0,0.0,0.0,0.0,0.125,3.920898036,0.0,0.0,343.0,0.0,0.0,-0.0,0.0,0.0,2.0080564350000003,0.0,0.0,37.0,0.0,0.0,0.0,0.0,0.0,4.691161629000001,0.0,0.0,-53.0,0.0,0.0,-0.0,0.0,0.0,2.919921576,0.0,0.0,-0.44999998807907104,89.43000030517578,-90.41999816894531,1.00421142578125,-0.00799560546875,-0.0040283203125,35.04999923706055,0.0,0.0,-0.0727691650390625,0.060882568359375,Waiting,0.0,0.0,-396139.0,0.0,0.0,0.0,0.0,0.0,
3.455493999999948,0.0,0.0,20.0,0.0,0.0,0.0,0.0,0.125,3.920898036,0.0,0.0,343.0,0.0,0.0,-0.0,0.0,0.0,2.0092771380000003,0.0,0.0,37.0,0.0,0.0,0.0,0.0,0.0,4.689940926,0.0,0.0,-53.0,0.0,0.0,-0.0,0.0,0.0,2.919921576,0.0,0.0,-0.44999998807907104,89.41999816894531,-90.43000030517578,1.00537109375,-0.00799560546875,-0.00653076171875,35.04999923706055,0.0,0.0,-0.0727691650390625,0.060882568359375,Waiting,0.0,0.0,-396139.0,0.0,0.0,0.0,0.0,0.0,
3.6084980000001377,0.0,0.0,20.0,0.0,0.0,0.0,0.0,0.125,3.920898036,0.0,0.0,343.0,0.0,0.0,-0.0,0.0,0.0,2.0080564350000003,0.0,0.0,37.0,0.0,0.0,0.0,0.0,0.0,4.691161629000001,0.0,0.0,-53.0,0.0,0.0,-0.0,0.0,0.0,2.919921576,0.0,0.0,-0.44999998807907104,89.41999816894531,-90.43000030517578,1.0020751953125,-0.01019287109375,-0.005859375,35.04999923706055,0.0,2.0,-0.0727691650390625,0.060882568359375,Waiting,0.0,0.0,-396139.0,0.0,0.0,0.0,0.0,0.0,
3.7610849999999627,0.0,0.0,20.0,0.0,0.0,0.0,0.0,0.125,3.920898036,0.0,0.0,343.0,0.0,0.0,-0.0,0.0,0.0,2.0080564350000003,0.0,0.0,37.0,0.0,0.0,0.0,0.0,0.0,4.693603035000001,0.0,0.0,-53.0,0.0,0.0,-0.0,0.0,0.0,2.921142279,0.0,0.0,-0.44999998807907104,89.41999816894531,-90.43000030517578,1.00396728515625,-0.00604248046875,-0.00506591796875,35.029998779296875,0.0,-1.0,-0.0727691650390625,0.060882568359375,Waiting,0.0,0.0,-396139.0,0.0,0.0,0.0,0.0,0.0,
3.928465000000084,0.0,0.0,20.0,0.0,0.0,0.0,0.0,0.125,3.920898036,0.0,0.0,343.0,0.0,0.0,-0.0,0.0,0.0,2.0080564350000003,0.0,0.0,37.0,0.0,0.0,0.0,0.0,0.0,4.691161629000001,0.0,0.0,-53.0,0.0,0.0,-0.0,0.0,0.0,2.921142279,0.0,0.0,-0.46000000834465027,89.41999816894531,-90.44000244140625,1.004150390625,-0.0084228515625,-0.0062255859375,35.029998779296875,0.0,0.0,-0.0727691650390625,0.060882568359375,Waiting,0.0,0.0,-396139.0,0.0,0.0,0.0,0.0,0.0,
4.093863000000129,0.0,0.0,20.0,0.0,0.0,0.0,0.0,0.125,3.920898036,0.0,0.0,343.0,0.0,0.0,-0.0,0.0,0.0,2.0080564350000003,0.0,0.0,37.0,0.0,0.0,0.0,0.0,0.0,4.691161629000001,0.0,0.0,-53.0,0.0,0.0,-0.0,0.0,0.0,2.919921576,0.0,0.0,-0.46000000834465027,89.41999816894531,-90.43000030517578,1.0037841796875,-0.0069580078125,-0.01812744140625,35.029998779296875,0.0,-2.0,-0.0727691650390625,0.060882568359375,Waiting,0.0,0.0,-396139.0,0.0,0.0,0.0,0.0,0.0,
4.253422999999952,0.0,0.0,20.0,0.0,0.0,0.0,0.0,0.125,3.920898036,0.0,0.0,343.0,0.0,0.0,-0.0,0.0,0.0,2.0092771380000003,0.0,0.0,37.0,0.0,0.0,0.0,0.0,0.0,4.689940926,0.0,0.0,-53.0,0.0,0.0,-0.0,0.0,0.0,2.926025091,0.0,0.0,-0.4399999976158142,89.44000244140625,-90.41999816894531,1.01239013671875,0.00433349609375,0.01397705078125,35.08000183105469,0.0,-10.0,-0.0727691650390625,0.0608673095703125,Waiting,0.0,0.0,-396139.0,0.0,0.0,0.0,0.0,0.0,
4.413547999999952,0.0,0.0,20.0,0.0,0.0,0.0,0.0,0.125,3.920898036,0.0,0.0,343.0,0.0,0.0,-0.0,0.0,0.0,2.0080564350000003,0.0,0.0,37.0,0.0,0.0,0.0,0.0,0.0,4.691161629000001,0.0,0.0,-53.0,0.0,0.0,-0.0,0.0,0.0,2.919921576,0.0,0.0,-0.4399999976158142,89.43000030517578,-90.41000366210938,1.00408935546875,9.765625E-4,0.00238037109375,35.08000183105469,0.0,-8.0,-0.0727691650390625,0.060791015625,Waiting,0.0,0.0,-396139.0,0.0,0.0,0.0,0.0,0.0,
4.5756289999999575,0.0,0.0,20.0,0.0,0.0,0.0,0.0,0.125,3.920898036,0.0,0.0,343.0,0.0,0.0,-0.0,0.0,0.0,2.0092771380000003,0.0,0.0,37.0,0.0,0.0,0.0,0.0,0.0,4.691161629000001,0.0,0.0,-53.0,0.0,0.0,-0.0,0.0,0.0,2.921142279,0.0,0.0,-0.44999998807907104,89.41999816894531,-90.41000366210938,1.00604248046875,0.00164794921875,-0.01055908203125,35.08000183105469,0.0,-9.0,-0.0727691650390625,0.060791015625,Waiting,0.0,0.0,-396139.0,0.0,0.0,0.0,0.0,0.0,
4.733688000000082,0.0,0.0,20.0,0.0,0.0,0.0,0.0,0.125,3.920898036,0.0,0.0,343.0,0.0,0.0,-0.0,0.0,0.0,2.0092771380000003,0.0,0.0,37.0,0.0,0.0,0.0,0.0,0.0,4.691161629000001,0.0,0.0,-53.0,0.0,0.0,-0.0,0.0,0.0,2.919921576,0.0,0.0,-0.44999998807907104,89.41999816894531,-90.43000030517578,1.00408935546875,-0.00811767578125,-0.00341796875,35.09000015258789,0.0,0.0,-0.0727691650390625,0.060791015625,Waiting,0.0,0.0,-396139.0,0.0,0.0,0.0,0.0,0.0,
4.892022000000114,0.0,0.0,20.0,0.0,0.0,0.0,0.0,0.125,3.920898036,0.0,0.0,343.0,0.0,0.0,-0.0,0.0,0.0,2.0092771380000003,0.0,0.0,37.0,0.0,0.0,0.0,0.0,0.0,4.691161629000001,0.0,0.0,-53.0,0.0,0.0,-0.0,0.0,0.0,2.921142279,0.0,0.0,-0.46000000834465027,89.41999816894531,-90.43000030517578,1.0013427734375,-0.002685546875,-0.00946044921875,35.09000015258789,0.0,-5.0,-0.0727691650390625,0.060791015625,Waiting,0.0,0.0,-396139.0,0.0,0.0,0.0,0.0,0.0,
5.053130000000121,0.0,0.0,20.0,0.0,0.0,0.0,0.0,0.125,3.920898036,0.0,0.0,343.0,0.0,0.0,-0.0,0.0,0.0,2.0080564350000003,0.0,0.0,37.0,0.0,0.0,0.0,0.0,0.0,4.691161629000001,0.0,0.0,-53.0,0.0,0.0,-0.0,0.0,0.0,2.919921576,0.0,0.0,-0.46000000834465027,89.41999816894531,-90.43000030517578,1.00738525390625,-0.0093994140625,-0.01019287109375,35.09000015258789,0.0,0.0,-0.0727691650390625,0.060791015625,Waiting,0.0,0.0,-396139.0,0.0,0.0,0.0,0.0,0.0,
5.216675000000047,0.0,0.0,20.0,0.0,0.0,0.0,0.0,0.125,3.920898036,0.0,0.0,343.0,0.0,0.0,-0.0,0.0,0.0,2.0092771380000003,0.0,0.0,37.0,0.0,0.0,0.0,0.0,0.0,4.689940926,0.0,0.0,-53.0,0.0,0.0,-0.0,0.0,0.0,2.919921576,0.0,0.0,-0.46000000834465027,89.41999816894531,-90.43000030517578,1.0029296875,-0.00836181640625,-0.00244140625,35.08000183105469,0.0,0.0,-0.0727691650390625,0.060791015625,Waiting,0.0,0.0,-396139.0,0.0,0.0,0.0,0.0,0.0,
5.379616000000155,0.0,0.0,20.0,0.0,0.0,0.0,0.0,0.125,3.919677333,0.0,0.0,343.0,0.0,0.0,-0.0,0.0,0.0,2.0080564350000003,0.0,0.0,37.0,0.0,0.0,0.0,0.0,0.0,4.691161629000001,0.0,0.0,-53.0,0.0,0.0,-0.0,0.0,0.0,2.921142279,0.0,0.0,-0.44999998807907104,89.41999816894531,-90.43000030517578,1.00152587890625,-0.00933837890625,-0.00909423828125,35.08000183105469,0.0,1.0,-0.0727691650390625,0.060791015625,Waiting,0.0,0.0,-396139.0,0.0,0.0,0.0,0.0,0.0,
5.531508000000147,0.0,0.0,20.0,0.0,0.0,0.0,0.0,0.125,3.916015224,0.0,0.0,343.0,0.0,0.0,-0.0,0.0,0.0,2.0080564350000003,0.0,0.0,37.0,0.0,0.0,0.0,0.0,0.0,4.692382332,0.0,0.0,-53.0,0.0,0.0,-0.0,0.0,0.0,2.919921576,0.0,0.0,-0.44999998807907104,89.43000030517578,-90.43000030517578,1.00408935546875,-0.00946044921875,-0.00537109375,35.08000183105469,0.0,1.0,-0.0727691650390625,0.060791015625,Waiting,0.0,0.0,-396139.0,0.0,0.0,0.0,0.0,0.0,
5.67979700000002,0.0,0.0,20.0,0.0,0.0,0.0,0.0,0.125,3.922118739,0.0,0.0,343.0,0.0,0.0,-0.0,0.0,0.0,2.0080564350000003,0.0,0.0,37.0,0.0,0.0,0.0,0.0,0.0,4.691161629000001,0.0,0.0,-53.0,0.0,0.0,-0.0,0.0,0.0,2.919921576,0.0,0.0,-0.44999998807907104,89.43000030517578,-90.41999816894531,1.00323486328125,-0.010009765625,-0.00653076171875,35.08000183105469,0.0,1.0,-0.0727691650390625,0.060791015625,Waiting,0.0,0.0,-396139.0,0.0,0.0,0.0,0.0,0.0,
5.832303000000072,0.0,0.0,20.0,0.0,0.0,0.0,0.0,0.125,3.920898036,0.0,0.0,343.0,0.0,0.0,-0.0,0.0,0.0,2.0080564350000003,0.0,0.0,37.0,0.0,0.0,0.0,0.0,0.0,4.691161629000001,0.0,0.0,-53.0,0.0,0.0,-0.0,0.0,0.0,2.918700873,0.0,0.0,-0.44999998807907104,89.43000030517578,-90.41999816894531,1.00128173828125,-0.00616455078125,-0.0093994140625,35.029998779296875,0.0,-2.0,-0.0727691650390625,0.060791015625,Waiting,0.0,0.0,-396139.0,0.0,0.0,0.0,0.0,0.0,
5.987322000000161,0.0,0.0,20.0,0.0,0.0,0.0,0.0,0.125,3.919677333,0.0,0.0,343.0,0.0,0.0,-0.0,0.0,0.0,2.0092771380000003,0.0,0.0,37.0,0.0,0.0,0.0,0.0,0.0,4.691161629000001,0.0,0.0,-53.0,0.0,0.0,-0.0,0.0,0.0,2.919921576,0.0,0.0,-0.4399999976158142,89.44000244140625,-90.41999816894531,1.0037841796875,-0.00628662109375,-9.1552734375E-4,35.029998779296875,0.0,-1.0,-0.0727691650390625,0.060791015625,Waiting,0.0,0.0,-396139.0,0.0,0.0,0.0,0.0,0.0,
6.134871000000043,0.0,0.0,20.0,0.0,0.0,0.0,0.0,0.125,3.920898036,0.0,0.0,343.0,0.0,0.0,-0.0,0.0,0.0,2.0080564350000003,0.0,0.0,37.0,0.0,0.0,0.0,0.0,0.0,4.691161629000001,0.0,0.0,-53.0,0.0,0.0,-0.0,0.0,0.0,2.921142279,0.0,0.0,-0.44999998807907104,89.43000030517578,-90.41999816894531,1.0042724609375,-0.008544921875,9.1552734375E-4,35.029998779296875,0.0,1.0,-0.0727691650390625,0.060791015625,Waiting,0.0,0.0,-396139.0,0.0,0.0,0.0,0.0,0.0,
6.287972999999998,0.0,0.0,20.0,0.0,0.0,0.0,0.0,0.125,3.919677333,0.0,0.0,343.0,0.0,0.0,-0.0,0.0,0.0,2.0141599500000003,0.0,0.0,37.0,0.0,0.0,0.0,0.0,0.0,4.691161629000001,0.0,0.0,-53.0,0.0,0.0,-0.0,0.0,0.0,2.921142279,0.0,0.0,-0.4399999976158142,89.44000244140625,-90.41999816894531,1.004638671875,-0.00640869140625,-0.00726318359375,35.04999923706055,0.0,-1.0,-0.0727691650390625,0.060791015625,Waiting,0.0,0.0,-396139.0,0.0,0.0,0.0,0.0,0.0,
6.438834999999963,0.0,0.0,20.0,0.0,0.0,0.0,0.0,0.125,3.920898036,0.0,0.0,343.0,0.0,0.0,-0.0,0.0,0.0,2.0080564350000003,0.0,0.0,37.0,0.0,0.0,0.0,0.0,0.0,4.689940926,0.0,0.0,-53.0,0.0,0.0,-0.0,0.0,0.0,2.913818061,0.0,0.0,-0.4399999976158142,89.44000244140625,-90.41999816894531,1.00408935546875,-0.00860595703125,-0.002197265625,35.04999923706055,0.0,1.0,-0.0727691650390625,0.060791015625,Waiting,0.0,0.0,-396139.0,0.0,0.0,0.0,0.0,0.0,
6.594131999999983,0.0,0.0,20.0,0.0,0.0,0.0,0.0,0.125,3.922118739,0.0,0.0,343.0,0.0,0.0,-0.0,0.0,0.0,2.0080564350000003,0.0,0.0,37.0,0.0,0.0,0.0,0.0,0.0,4.691161629000001,0.0,0.0,-53.0,0.0,0.0,-0.0,0.0,0.0,2.919921576,0.0,0.0,-0.4399999976158142,89.44000244140625,-90.41999816894531,1.0023193359375,-0.0067138671875,-0.00250244140625,35.04999923706055,0.0,0.0,-0.0727691650390625,0.060791015625,Waiting,0.0,0.0,-396139.0,0.0,0.0,0.0,0.0,0.0,
6.744503000000026,0.0,0.0,20.0,0.0,0.0,0.0,0.0,0.125,3.920898036,0.0,0.0,343.0,0.0,0.0,-0.0,0.0,0.0,2.0092771380000003,0.0,0.0,37.0,0.0,0.0,0.0,0.0,0.0,4.691161629000001,0.0,0.0,-53.0,0.0,0.0,-0.0,0.0,0.0,2.921142279,0.0,0.0,-0.44999998807907104,89.44000244140625,-90.41999816894531,1.0015869140625,-0.00909423828125,-0.008056640625,35.04999923706055,0.0,0.0,-0.0727691650390625,0.060791015625,Waiting,0.0,0.0,-396139.0,0.0,0.0,0.0,0.0,0.0,
6.890969000000041,0.0,0.0,20.0,0.0,0.0,0.0,0.0,0.125,3.919677333,0.0,0.0,343.0,0.0,0.0,-0.0,0.0,0.0,2.0092771380000003,0.0,0.0,37.0,0.0,0.0,0.0,0.0,0.0,4.688720223000001,0.0,0.0,-53.0,0.0,0.0,-0.0,0.0,0.0,2.919921576,0.0,0.0,-0.44999998807907104,89.43000030517578,-90.43000030517578,1.00341796875,-0.0086669921875,-0.0035400390625,35.06999969482422,0.0,0.0,-0.0727691650390625,0.060791015625,Waiting,0.0,0.0,-396139.0,0.0,0.0,0.0,0.0,0.0,
7.038131000000052,0.0,0.0,20.0,0.0,0.0,0.0,0.0,0.125,3.920898036,0.0,0.0,343.0,0.0,0.0,-0.0,0.0,0.0,2.0092771380000003,0.0,0.0,37.0,0.0,0.0,0.0,0.0,0.0,4.691161629000001,0.0,0.0,-53.0,0.0,0.0,-0.0,0.0,0.0,2.919921576,0.0,0.0,-0.44999998807907104,89.43000030517578,-90.43000030517578,1.0028076171875,-0.00787353515625,-0.00830078125,35.06999969482422,0.0,0.0,-0.0727691650390625,0.060791015625,Waiting,0.0,0.0,-396139.0,0.0,0.0,0.0,0.0,0.0,
7.191404000000097,0.0,0.0,20.0,0.0,0.0,0.0,0.0,0.125,3.920898036,0.0,0.0,343.0,0.0,0.0,-0.0,0.0,0.0,2.0092771380000003,0.0,0.0,37.0,0.0,0.0,0.0,0.0,0.0,4.691161629000001,0.0,0.0,-53.0,0.0,0.0,-0.0,0.0,0.0,2.921142279,0.0,0.0,-0.44999998807907104,89.43000030517578,-90.43000030517578,1.004638671875,-0.00994873046875,-0.00604248046875,35.06999969482422,0.0,1.0,-0.0727691650390625,0.060791015625,Waiting,0.0,0.0,-396139.0,0.0,0.0,0.0,0.0,0.0,
7.3398850000000095,0.0,0.0,20.0,0.0,0.0,0.0,0.0,0.125,3.922118739,0.0,0.0,343.0,0.0,0.0,-0.0,0.0,0.0,2.0092771380000003,0.0,0.0,37.0,0.0,0.0,0.0,0.0,0.0,4.693603035000001,0.0,0.0,-53.0,0.0,0.0,-0.0,0.0,0.0,2.921142279,0.0,0.0,-0.46000000834465027,89.43000030517578,-90.43000030517578,1.00164794921875,-0.00775146484375,-0.0067138671875,35.04999923706055,0.0,0.0,-0.0727691650390625,0.060791015625,Waiting,0.0,0.0,-396139.0,0.0,0.0,0.0,0.0,0.0,
7.491090000000084,0.0,0.0,20.0,0.0,0.0,0.0,0.0,0.125,3.920898036,0.0,0.0,343.0,0.0,0.0,-0.0,0.0,0.0,2.0080564350000003,0.0,0.0,37.0,0.0,0.0,0.0,0.0,0.0,4.692382332,0.0,0.0,-53.0,0.0,0.0,-0.0,0.0,0.0,2.919921576,0.0,0.0,-0.46000000834465027,89.43000030517578,-90.43000030517578,1.0013427734375,-0.0087890625,-0.00799560546875,35.04999923706055,0.0,0.0,-0.0727691650390625,0.060791015625,Waiting,0.0,0.0,-396139.0,0.0,0.0,0.0,0.0,0.0,
7.651746000000043,0.0,0.0,20.0,0.0,0.0,0.0,0.0,0.125,3.920898036,0.0,0.0,343.0,0.0,0.0,-0.0,0.0,0.0,2.0092771380000003,0.0,0.0,37.0,0.0,0.0,0.0,0.0,0.0,4.688720223000001,0.0,0.0,-53.0,0.0,0.0,-0.0,0.0,0.0,2.921142279,0.0,0.0,-0.44999998807907104,89.43000030517578,-90.41999816894531,1.001708984375,-0.0072021484375,-0.00482177734375,35.04999923706055,0.0,0.0,-0.0727691650390625,0.060791015625,Waiting,0.0,0.0,-396139.0,0.0,0.0,0.0,0.0,0.0,
7.794451000000118,0.0,0.0,20.0,0.0,0.0,0.0,0.0,0.125,3.919677333,0.0,0.0,343.0,0.0,0.0,-0.0,0.0,0.0,2.0080564350000003,0.0,0.0,37.0,0.0,0.0,0.0,0.0,0.0,4.692382332,0.0,0.0,-53.0,0.0,0.0,-0.0,0.0,0.0,2.921142279,0.0,0.0,-0.44999998807907104,89.43000030517578,-90.41999816894531,1.0032958984375,-0.0072021484375,-0.00787353515625,35.060001373291016,0.0,0.0,-0.0727691650390625,0.060791015625,Waiting,0.0,0.0,-396139.0,0.0,0.0,0.0,0.0,0.0,
7.9468200000000655,0.0,0.0,20.0,0.0,0.0,0.0,0.0,0.125,3.919677333,0.0,0.0,343.0,0.0,0.0,-0.0,0.0,0.0,2.0104978410000003,0.0,0.0,37.0,0.0,0.0,0.0,0.0,0.0,4.689940926,0.0,0.0,-53.0,0.0,0.0,-0.0,0.0,0.0,2.919921576,0.0,0.0,-0.44999998807907104,89.43000030517578,-90.41999816894531,1.00390625,-0.0091552734375,-0.0067138671875,35.060001373291016,0.0,-1.0,-0.0727691650390625,0.060791015625,Waiting,0.0,0.0,-396139.0,0.0,0.0,0.0,0.0,0.0,
8.09514000000013,0.0,0.0,20.0,0.0,0.0,0.0,0.0,0.125,3.922118739,0.0,0.0,343.0,0.0,0.0,-0.0,0.0,0.0,2.0092771380000003,0.0,0.0,37.0,0.0,0.0,0.0,0.0,0.0,4.692382332,0.0,0.0,-53.0,0.0,0.0,-0.0,0.0,0.0,2.919921576,0.0,0.0,-0.44999998807907104,89.43000030517578,-90.41999816894531,1.003173828125,-0.0108642578125,-0.01934814453125,35.060001373291016,0.0,1.0,-0.0727691650390625,0.060791015625,Waiting,0.0,0.0,-396139.0,0.0,0.0,0.0,0.0,0.0,
8.247562000000151,0.0,0.0,20.0,0.0,0.0,0.0,0.0,0.0,3.922118739,0.0,0.0,343.0,0.0,0.0,-0.0,0.0,0.0,2.0092771380000003,0.0,0.0,37.0,0.0,0.0,0.0,0.0,0.0,4.691161629000001,0.0,0.0,-53.0,0.0,0.0,-0.0,0.0,0.0,2.919921576,0.0,0.0,-0.46000000834465027,89.44000244140625,-90.44000244140625,1.005126953125,-0.0120849609375,-0.00146484375,35.060001373291016,0.0,4.0,-0.0727691650390625,0.0606689453125,Waiting,0.0,0.0,-396139.0,0.0,0.0,0.0,0.0,0.0,
