Time,ClimberA1,ClimberA2,FRpos,FRCurrent,FRspeed,FRsetpoint,FRApos,FRACurrent,FREncpos,FREncSetpoint,FREncSpeed,FLpos,FLCurrent,FLspeed,FLsetpoint,FLApos,FLACurrent,FLEncpos,FLEncSetpoint,FLEncSpeed,BRpos,BRCurrent,BRspeed,BRsetpoint,BRApos,BRACurrent,BREncpos,BREncSetpoint,BREncSpeed,BLpos,BLCurrent,BLspeed,BLsetpoint,BLApos,BLACurrent,BLEncpos,BLEncSetpoint,BLEncSpeed,navx_Pitch,navx_Roll,navx_Yaw,navx_XAcc,navx_YAcc,navx_ZAcc,navx_Temp,navx_Bar,navx_Alt,navx_XDis,navx_YDis,GearPlacerState,ShootOutputV,ShootOutputCurrent,ShootEncPos,ShootEncVelocity,ShootSpeed,ShootSetpoint,CarouselSetpoint,CarouselCurrent,
0.08245000000001164,0.0,0.0,163849.0,4.0,142.5,840.0,0.0,0.125,0.925292874,0.10474833128356935,0.0,-94444.0,8.125,-150.0,-840.0,0.0,0.0,0.538330023,0.1054163594055176,0.0,174404.0,6.5,52.5,840.0,0.0,0.0,3.3679195770000003,0.10492104492187503,0.0,-71504.0,5.75,-165.0,-840.0,0.0,0.125,1.74560529,0.10529406738281252,0.0,0.6299999952316284,0.5099999904632568,0.05000000074505806,0.15435791015625,-0.01959228515625,0.950439453125,35.150001525878906,0.0,145.0,-10.196075439453125,0.3477325439453125,Waiting,0.0,0.0,-19187.0,0.0,0.0,0.0,0.0,0.0,
0.24652600000001257,0.0,0.0,163899.0,0.0,90.0,0.0,0.0,0.125,0.926513577,0.10474833128356935,0.0,-94465.0,0.0,-75.0,0.0,0.0,0.0,0.5407714290000001,0.1054163594055176,0.0,174427.0,0.0,67.5,0.0,0.0,0.0,3.3691402800000003,0.10492104492187503,0.0,-71531.0,0.125,-82.5,0.0,0.0,0.25,1.7358396660000002,0.10529406738281252,0.0,0.5400000214576721,0.019999999552965164,0.12999999523162842,-0.17889404296875,0.0609130859375,1.0703125,35.150001525878906,0.0,-112.0,-10.179367065429688,0.344757080078125,Waiting,0.0,0.0,-19187.0,0.0,0.0,0.0,0.0,0.0,
0.4062170000000042,0.0,0.0,163905.0,0.0,30.0,0.0,0.0,0.125,0.925292874,0.10474833128356935,0.0,-94485.0,0.0,-30.0,0.0,0.0,0.0,0.539550726,0.1054163594055176,0.0,174435.0,0.0,7.5,0.0,0.0,0.0,3.3691402800000003,0.10492104492187503,0.0,-71553.0,0.125,-30.0,0.0,0.0,0.25,1.727294745,0.10529406738281252,0.0,0.5400000214576721,-0.7599999904632568,0.17000000178813934,-0.0150146484375,0.01629638671875,1.1307373046875,35.18000030517578,0.0,0.0,-10.181884765625,0.342193603515625,Waiting,0.0,0.0,-19187.0,0.0,0.0,0.0,0.0,0.0,
0.5686720000000205,0.0,0.0,163905.0,0.0,0.0,0.0,0.0,0.125,0.9362792010000001,0.10474833128356935,0.0,-94486.0,0.0,0.0,0.0,0.0,0.0,0.539550726,0.1054163594055176,0.0,174436.0,0.0,0.0,0.0,0.0,0.0,3.3691402800000003,0.10492104492187503,0.0,-71553.0,0.125,0.0,0.0,0.0,0.25,1.7370603690000002,0.10529406738281252,0.0,0.5299999713897705,-0.6399999856948853,0.15000000596046448,0.013916015625,0.0240478515625,0.99652099609375,35.18000030517578,0.0,25.0,-10.185226440429688,0.3420867919921875,Waiting,0.0,0.0,-19187.0,0.0,0.0,0.0,0.0,0.0,
0.7313589999999968,0.0,0.0,163905.0,0.0,0.0,0.0,0.0,0.25,0.941162013,0.10474833128356935,0.0,-94486.0,0.0,0.0,0.0,0.0,0.0,0.5407714290000001,0.1054163594055176,0.0,174436.0,0.0,0.0,0.0,0.0,0.0,3.3691402800000003,0.10492104492187503,0.0,-71553.0,0.125,0.0,0.0,0.0,0.25,1.7419431810000001,0.10529406738281252,0.0,0.5400000214576721,-0.49000000953674316,0.12999999523162842,0.01641845703125,0.01776123046875,1.01287841796875,35.18000030517578,0.0,25.0,-10.183990478515625,0.3420867919921875,Waiting,0.0,0.0,-19187.0,0.0,0.0,0.0,0.0,0.0,
0.8937930000000052,0.0,0.0,163905.0,0.0,0.0,0.0,0.0,0.25,0.93994131,0.10474833128356935,0.0,-94486.0,0.0,0.0,0.0,0.0,0.0,0.539550726,0.1054163594055176,0.0,174436.0,0.0,0.0,0.0,0.0,0.0,3.3679195770000003,0.10492104492187503,0.0,-71553.0,0.125,0.0,0.0,0.0,0.25,1.7419431810000001,0.10529406738281252,0.0,0.550000011920929,-0.4699999988079071,0.12999999523162842,-0.0089111328125,0.01336669921875,1.01611328125,35.15999984741211,0.0,-7.0,-10.183822631835938,0.3420867919921875,Waiting,0.0,0.0,-19187.0,0.0,0.0,0.0,0.0,0.0,
1.052472000000009,0.0,0.0,163905.0,0.0,0.0,0.0,0.0,0.25,0.941162013,0.10474833128356935,0.0,-94486.0,0.0,0.0,0.0,0.0,0.0,0.539550726,0.1054163594055176,0.0,174436.0,0.0,0.0,0.0,0.0,0.0,3.3679195770000003,0.10492104492187503,0.0,-71553.0,0.125,0.0,0.0,0.0,0.25,1.7419431810000001,0.10529406738281252,0.0,0.550000011920929,-0.46000000834465027,0.12999999523162842,-0.0020751953125,0.0123291015625,1.01611328125,35.15999984741211,0.0,6.0,-10.183822631835938,0.3420867919921875,Waiting,0.0,0.0,-19187.0,0.0,0.0,0.0,0.0,0.0,
1.2401320000000415,0.0,0.0,163905.0,0.0,0.0,0.0,0.0,0.25,0.93994131,0.10474833128356935,0.0,-94486.0,0.0,0.0,0.0,0.0,0.0,0.5407714290000001,0.1054163594055176,0.0,174436.0,0.0,0.0,0.0,0.0,0.0,3.3679195770000003,0.10492104492187503,0.0,-71553.0,0.125,0.0,0.0,0.0,0.25,1.7419431810000001,0.10529406738281252,0.0,0.5699999928474426,-0.46000000834465027,0.12999999523162842,-0.00640869140625,0.01220703125,1.02392578125,35.15999984741211,0.0,1.0,-10.183822631835938,0.3420867919921875,Waiting,0.0,0.0,-19187.0,0.0,0.0,0.0,0.0,0.0,
1.4025730000000332,0.0,0.0,163905.0,0.375,0.0,-281.1023533344269,0.0,0.375,0.8825682690000001,0.0017847016845351886,0.0,-94486.0,0.75,0.0,281.1023533344269,0.0,0.25,0.5407714290000001,0.0017960835452288009,0.0,174428.0,0.375,-37.5,-281.1023533344269,0.0,0.125,3.3239742690000003,0.0017876443788716922,0.0,-71549.0,0.75,30.0,281.1023533344269,0.0,0.5,1.6833494370000002,0.0017939999341941189,0.0,0.5699999928474426,-0.4399999976158142,0.12999999523162842,-0.009521484375,0.01666259765625,1.0172119140625,35.18000030517578,0.0,-1.0,-10.183822631835938,0.3420867919921875,Waiting,0.0,0.0,-19187.0,0.0,0.0,0.0,0.0,0.0,
1.5676720000000204,0.0,0.0,163846.0,5.25,-240.0,-1069.2523797082897,0.0,0.5,0.701904225,4.715682850441587,0.0,-94444.0,26.0,352.5,1778.8696328595022,0.0,0.5,0.42846675300000003,4.83793642468888,0.0,174416.0,6.0,-127.5,-1070.9196885896552,0.0,0.0,3.382568013,0.23104582262281673,0.0,-71516.0,18.0,345.0,1779.8723264905334,0.0,0.25,1.649169753,0.13822265898624383,0.0,0.7099999785423279,-1.8700000047683716,-0.3100000023841858,-0.20733642578125,0.0682373046875,0.99102783203125,35.18000030517578,0.0,-175.0,-10.200973510742188,0.3443450927734375,Waiting,0.0,0.0,-19187.0,0.0,0.0,0.0,0.0,0.0,
1.728551000000036,0.0,0.0,163748.0,3.125,-630.0,-936.8089943021929,0.0,0.375,0.35034176100000003,4.395642387874564,0.0,-94345.0,35.25,1042.5,2207.544526914735,0.0,0.25,0.306396453,4.755928868146676,0.0,174371.0,4.625,-450.0,-927.0311313180947,0.0,0.25,3.697509387,0.537464159703782,0.0,-71236.0,26.125,1050.0,2203.412912946328,0.0,0.375,1.6577146740000002,0.21227426958506174,0.0,1.1200000047683716,-3.2699999809265137,-3.200000047683716,-0.14825439453125,0.063232421875,0.72802734375,35.18000030517578,0.0,-109.0,-10.263565063476562,0.3524932861328125,Waiting,0.0,0.0,-19187.0,0.0,0.0,0.0,0.0,0.0,
1.891826000000001,0.0,0.0,163625.0,2.75,-855.0,-988.5313790877445,0.0,0.25,0.087890616,4.302058506530805,0.0,-93834.0,24.125,1897.5,2275.433357143521,0.0,0.25,0.216064431,4.719412781688814,0.0,174172.0,4.75,-637.5,-860.6779135633694,0.0,0.0,3.865966401,0.5216834546786782,0.0,-70964.0,19.875,1785.0,2222.8740734139915,0.0,0.375,1.743163884,0.19004328848532526,0.0,1.659999966621399,-3.7699999809265137,-14.050000190734863,-0.2064208984375,-0.06976318359375,0.864990234375,35.18000030517578,0.0,-121.0,-10.348648071289062,0.36151123046875,Waiting,0.0,0.0,-19187.0,0.0,0.0,0.0,0.0,0.0,
2.0510670000000393,0.0,0.0,163287.0,2.5,-1132.5,-1197.378002678084,0.0,0.375,4.9157709810000005,4.095690381511135,0.0,-93463.0,14.5,2445.0,2415.924833584318,0.0,0.25,0.10986327000000001,4.616432807345017,0.0,174069.0,4.25,-630.0,-642.4512668013742,0.0,0.25,3.760985943,0.3822433032842732,0.0,-70636.0,14.625,2175.0,2194.4754157763414,0.0,0.25,1.773681459,0.10828703847931313,0.0,1.8700000047683716,-3.8299999237060547,-32.38999938964844,-0.20684814453125,-0.038330078125,0.8345947265625,35.15999984741211,0.0,-91.0,-10.455886840820312,0.3509368896484375,Waiting,0.0,0.0,-19187.0,0.0,0.0,0.0,0.0,0.0,
2.2154619999999996,0.0,0.0,163073.0,3.5,-1387.5,-1492.5627522988893,0.0,0.375,4.7607417000000005,3.9190042128893188,0.0,-92611.0,8.375,2685.0,2466.5373200297836,0.0,0.25,4.941405744,4.480856469945182,0.0,173883.0,3.0,-585.0,-406.9767568847129,0.0,0.5,3.118896165,4.784618941218083,0.0,-69903.0,8.625,2295.0,2005.4158826024268,0.0,0.25,1.691894358,4.934475517080424,0.0,2.049999952316284,-3.5799999237060547,-51.61000061035156,0.069091796875,0.0062255859375,1.18505859375,35.15999984741211,0.0,117.0,-10.546234130859375,0.3136138916015625,Waiting,0.0,0.0,-19187.0,0.0,0.0,0.0,0.0,0.0,
2.3867630000000353,0.0,0.0,162831.0,0.375,-1515.0,-1273.2283651828766,0.0,0.5,4.862060049,4.233724396870807,0.0,-92238.0,0.0,2265.0,1273.2283651828766,0.0,0.25,4.799804196,4.260724797956258,0.0,173822.0,18.75,-420.0,-1273.2283651828766,0.0,0.625,2.441406,4.240705147162546,0.0,-69582.0,1.625,1912.5,1273.2283651828766,0.0,0.875,0.877685457,4.255781991577152,0.0,2.930000066757202,-2.4200000762939453,-67.16999816894531,8.544921875E-4,0.136474609375,1.4090576171875,35.15999984741211,0.0,-35.0,-10.620681762695312,0.2972564697265625,Waiting,0.0,0.0,-19187.0,0.0,0.0,0.0,0.0,0.0,
2.548447000000044,0.0,0.0,162343.0,0.125,-1485.0,-1256.6929399967194,0.0,0.25,0.054931635000000006,4.0201093593875905,0.0,-91929.0,1.5,1410.0,1256.6929399967194,0.0,0.25,4.489745634,4.045747439464572,0.0,173689.0,13.875,-1035.0,-1256.6929399967194,0.0,0.125,2.158202904,4.0267378918457055,0.0,-69330.0,5.75,1380.0,1256.6929399967194,0.0,0.5,0.465087843,4.041054025268557,0.0,2.3299999237060547,0.05000000074505806,-69.9000015258789,0.11431884765625,-0.25091552734375,0.787353515625,35.150001525878906,0.0,304.0,-10.700820922851562,0.3209228515625,Waiting,0.0,0.0,-19187.0,0.0,0.0,0.0,0.0,0.0,
2.7128960000000077,0.0,0.0,162176.0,0.125,-930.0,-727.55908370018,0.0,0.375,4.827880365,3.9826305765520122,0.0,-91586.0,2.125,930.0,727.55908370018,0.0,0.25,4.35790971,4.008029637251751,0.0,173338.0,5.375,-1080.0,-727.55908370018,0.0,0.125,2.2265622720000002,3.989197312350806,0.0,-68934.0,2.625,1110.0,727.55908370018,0.0,0.25,0.533447211,4.003379978942874,0.0,1.3300000429153442,0.5899999737739563,-67.22000122070312,-0.04583740234375,-0.06463623046875,1.0455322265625,35.150001525878906,0.0,60.0,-10.753005981445312,0.345306396484375,Waiting,0.0,0.0,-19187.0,0.0,0.0,0.0,0.0,0.0,
2.892717000000004,0.0,0.0,161903.0,0.125,-825.0,-595.2756196260452,0.0,0.125,4.727782719,4.019422893741609,0.0,-91436.0,0.75,870.0,595.2756196260452,0.0,0.25,4.365233928,4.045056595912512,0.0,173184.0,3.375,-975.0,-595.2756196260452,0.0,0.0,2.365722414,4.026050294325089,0.0,-68773.0,1.625,870.0,595.2756196260452,0.0,0.25,0.655517511,4.0403639831542995,0.0,1.0099999904632568,0.5600000023841858,-66.11000061035156,-0.131591796875,0.11334228515625,1.14276123046875,35.150001525878906,0.0,-142.0,-10.759262084960938,0.3416900634765625,Waiting,0.0,0.0,-19187.0,0.0,0.0,0.0,0.0,0.0,
3.1738180000000282,0.0,0.0,161661.0,0.0,-645.0,0.0,0.0,0.25,4.775390136,4.019422893741609,0.0,-91111.0,0.0,585.0,0.0,0.0,0.5,4.388427285000001,4.045056595912512,0.0,172815.0,0.0,-487.5,0.0,0.0,0.125,2.414550534,4.026050294325089,0.0,-68426.0,0.125,532.5,0.0,0.0,0.25,0.733642503,4.0403639831542995,0.0,-0.029999999329447746,0.5099999904632568,-65.69999694824219,0.046875,-0.21722412109375,0.886474609375,35.119998931884766,0.0,213.0,-10.734115600585938,0.3193206787109375,Waiting,0.0,0.0,-19187.0,0.0,0.0,0.0,0.0,0.0,
3.3518940000000295,0.0,0.0,161531.0,0.0,-345.0,0.0,0.0,0.25,4.831542474,4.019422893741609,0.0,-91047.0,0.0,345.0,0.0,0.0,0.25,4.387206582,4.045056595912512,0.0,172750.0,0.0,-360.0,0.0,0.0,0.125,2.3266599180000003,4.026050294325089,0.0,-68356.0,0.125,345.0,0.0,0.0,0.25,0.72021477,4.0403639831542995,0.0,-0.8700000047683716,0.6600000262260437,-65.55999755859375,0.0634765625,-0.0999755859375,1.05169677734375,35.119998931884766,0.0,97.0,-10.691864013671875,0.3161163330078125,Waiting,0.0,0.0,-19187.0,0.0,0.0,0.0,0.0,0.0,
3.5286170000000276,0.0,0.0,161528.0,2.875,37.5,661.4173203706741,0.0,1.25,4.165038636,2.806649462516783,0.0,-91029.0,5.75,-30.0,-661.4173203706741,0.0,2.625,3.8476558560000003,2.8245487526194237,0.0,172718.0,3.625,-7.5,661.4173203706741,0.0,1.0,1.568603355,2.8112771891276025,0.0,-68304.0,2.0,142.5,661.4173203706741,0.0,1.625,1.3989256380000001,0.3372720336914047,0.0,-1.8899999856948853,0.75,-65.27999877929688,-0.08056640625,-0.0467529296875,1.0277099609375,35.06999969482422,0.0,-27.0,-10.64300537109375,0.3140106201171875,Waiting,0.0,0.0,-19187.0,0.0,0.0,0.0,0.0,0.0,
3.700515000000014,0.0,0.0,161572.0,9.125,337.5,1256.6929399967194,0.0,0.5,3.486327768,2.8104934187583908,0.0,-91063.0,22.125,-262.5,-1256.6929399967194,0.0,0.875,3.2043453750000004,2.828417223531934,0.0,172759.0,11.25,292.5,1256.6929399967194,0.0,0.375,0.965576073,2.81512748345269,0.0,-68296.0,13.5,202.5,1256.6929399967194,0.0,1.5,1.9763181570000001,0.34113601684570155,0.0,-1.5499999523162842,-0.8500000238418579,-64.30999755859375,-0.2987060546875,-0.18243408203125,1.09014892578125,35.06999969482422,0.0,15.0,-10.658401489257812,0.296112060546875,Waiting,0.0,0.0,-19187.0,0.0,0.0,0.0,0.0,0.0,
3.8752840000000432,0.0,0.0,161752.0,12.375,667.5,1256.6929399967194,0.0,0.375,3.3190914570000003,2.823810056266783,0.0,-91143.0,20.875,-757.5,-1256.6929399967194,0.0,0.25,3.0651852330000002,2.8418187873416465,0.0,172844.0,11.625,720.0,1256.6929399967194,0.0,0.25,0.8312987430000001,2.828466078016492,0.0,-68115.0,14.0,675.0,1256.6929399967194,0.0,0.25,2.1166990020000003,0.35452203369140467,0.0,-1.1799999475479126,-1.850000023841858,-64.41000366210938,-0.01165771484375,0.01849365234375,1.32574462890625,35.06999969482422,0.0,-28.0,-10.69378662109375,0.2515869140625,Waiting,0.0,0.0,-19187.0,0.0,0.0,0.0,0.0,0.0,
4.048483999999997,0.0,0.0,161866.0,13.375,780.0,1065.0924096846,0.0,0.25,3.3276363780000002,2.441354681380695,0.0,-91426.0,16.375,-930.0,-1065.0924096846,0.0,0.25,2.993163756,2.4569243192243495,0.0,173104.0,10.875,870.0,1065.0924096846,0.0,0.125,0.839843664,2.4453800939505084,0.0,-67971.0,10.125,945.0,1065.0924096846,0.0,1.375,1.7895505980000002,4.93807407618498,0.0,-1.2400000095367432,-2.299999952316284,-66.08000183105469,-0.1607666015625,0.1209716796875,0.9947509765625,35.040000915527344,0.0,-179.0,-10.711669921875,0.2357025146484375,Waiting,0.0,0.0,-19187.0,0.0,0.0,0.0,0.0,0.0,
4.2237900000000375,0.0,0.0,162166.0,3.625,1020.0,470.6066835532763,0.0,0.25,3.291015288,2.5464268545508215,0.0,-91596.0,4.125,-1057.5,-470.6066835532763,0.0,0.0,2.926025091,2.562666585804574,0.0,173258.0,3.0,1057.5,470.6066835532763,0.0,0.0,0.809326089,2.5506255147236327,0.0,-67800.0,3.75,930.0,470.6066835532763,0.0,0.25,1.4758299270000002,0.07569367266221072,0.0,-0.41999998688697815,-2.6600000858306885,-66.63999938964844,0.20587158203125,0.09356689453125,0.59771728515625,35.040000915527344,0.0,2.0,-10.741668701171875,0.2274169921875,Waiting,0.0,0.0,-19187.0,0.0,0.0,0.0,0.0,0.0,
4.391565999999991,0.0,0.0,162338.0,0.5,1027.5,429.92127388715744,0.0,0.5,3.5314937790000003,2.791822684379195,0.0,-91901.0,1.75,-900.0,-429.92127388715744,0.0,0.25,3.08837859,2.8096274173215217,0.0,173596.0,0.5,1027.5,429.92127388715744,0.0,0.25,1.019287005,2.7964259639485665,0.0,-67515.0,1.25,847.5,429.92127388715744,0.0,0.625,1.7944334100000001,0.32236800842284996,0.0,-0.3199999928474426,-2.0999999046325684,-64.7699966430664,0.12005615234375,-0.09765625,0.987548828125,35.040000915527344,0.0,149.0,-10.785140991210938,0.2341766357421875,Waiting,0.0,0.0,-19187.0,0.0,0.0,0.0,0.0,0.0,
4.556362000000023,0.0,0.0,162493.0,7.5,982.5,1388.9763414859772,0.0,0.375,3.6315914250000003,2.8190050062248218,0.0,-92064.0,10.5,-1057.5,-1388.9763414859772,0.0,0.25,3.3654781710000004,2.836983093293083,0.0,173750.0,6.375,975.0,1388.9763414859772,0.0,0.125,1.149902226,2.8236531051974816,0.0,-67350.0,7.5,1050.0,1388.9763414859772,0.0,0.375,1.9677732360000002,0.34969194946288906,0.0,-1.6799999475479126,-1.9199999570846558,-64.58000183105469,-0.2691650390625,-0.1383056640625,0.8438720703125,35.029998779296875,0.0,0.0,-10.805450439453125,0.2438812255859375,Waiting,0.0,0.0,-19187.0,0.0,0.0,0.0,0.0,0.0,
4.723212999999989,0.0,0.0,162859.0,7.75,1312.5,1628.7563861716305,0.0,0.25,3.668212515,2.9001559192960427,0.0,-92241.0,14.25,-1230.0,-1628.7563861716305,0.0,0.125,3.452148084,2.918651542933995,0.0,173917.0,9.0,1155.0,1628.7563861716305,0.0,0.0,1.180419801,2.904937823449908,0.0,-66995.0,12.125,1162.5,1628.7563861716305,0.0,0.375,2.019042762,0.4312656566942351,0.0,-2.25,-2.390000104904175,-63.369998931884766,-0.11749267578125,0.11566162109375,0.63861083984375,35.029998779296875,0.0,-166.0,-10.81158447265625,0.234283447265625,Waiting,0.0,0.0,-19187.0,0.0,0.0,0.0,0.0,0.0,
4.887623000000022,0.0,0.0,163106.0,5.25,1612.5,1656.693285981199,0.0,0.25,3.757323834,3.0038317474247997,0.0,-92692.0,12.25,-1515.0,-1656.693285981199,0.0,0.0,3.496093392,3.02298855934048,0.0,174362.0,7.25,1530.0,1656.693285981199,0.0,0.125,1.259765496,3.008784596826776,0.0,-66775.0,12.25,1380.0,1656.693285981199,0.0,0.25,2.072753694,0.5354816332085125,0.0,-2.819999933242798,-2.9000000953674316,-61.279998779296875,-0.02655029296875,0.16448974609375,1.07080078125,35.029998779296875,0.0,-177.0,-10.817123413085938,0.213165283203125,Waiting,0.0,0.0,-19187.0,0.0,0.0,0.0,0.0,0.0,
5.049426000000036,0.0,0.0,163614.0,0.0,1470.0,0.0,0.0,0.25,3.818358984,3.0038317474247997,0.0,-92914.0,0.0,-1275.0,0.0,0.0,0.25,3.496093392,3.02298855934048,0.0,174590.0,0.0,1267.5,0.0,0.0,0.0,1.3220213490000001,3.008784596826776,0.0,-66574.0,0.0,1140.0,0.0,0.0,0.25,2.135009547,0.5354816332085125,0.0,-2.2200000286102295,-1.6200000047683716,-58.880001068115234,0.15576171875,0.18060302734375,1.38348388671875,35.02000045776367,0.0,-99.0,-10.8253173828125,0.194427490234375,Waiting,0.0,0.0,-19187.0,0.0,0.0,0.0,0.0,0.0,
5.2305730000000334,0.0,0.0,163824.0,0.0,1215.0,0.0,0.0,0.125,3.8281246080000004,3.0038317474247997,0.0,-93288.0,0.0,-1072.5,0.0,0.0,0.25,3.496093392,3.02298855934048,0.0,174962.0,0.0,1102.5,0.0,0.0,0.125,1.33056627,3.008784596826776,0.0,-66228.0,0.0,945.0,0.0,0.0,0.125,2.139892359,0.5354816332085125,0.0,-1.0800000429153442,-0.14000000059604645,-57.310001373291016,0.609375,0.3248291015625,0.56103515625,35.02000045776367,0.0,47.0,-10.843643188476562,0.2193145751953125,Waiting,0.0,0.0,-19187.0,0.0,0.0,0.0,0.0,0.0,
5.388703000000038,0.0,0.0,163959.0,0.0,-30.0,0.0,0.0,0.125,3.8342281230000004,3.0038317474247997,0.0,-93347.0,0.0,-292.5,0.0,0.0,0.25,3.49121058,3.02298855934048,0.0,175012.0,0.0,-7.5,0.0,0.0,0.125,1.33056627,3.008784596826776,0.0,-66152.0,0.125,277.5,0.0,0.0,0.125,2.139892359,0.5354816332085125,0.0,1.4600000381469727,3.049999952316284,-59.02000045776367,-0.013916015625,-0.2076416015625,0.87713623046875,35.02000045776367,0.0,165.0,-10.86773681640625,0.3231048583984375,Waiting,0.0,0.0,-19187.0,0.0,0.0,0.0,0.0,0.0,
5.546795000000042,0.0,0.0,163859.0,0.0,-247.5,0.0,0.0,0.125,3.8330074200000004,3.0038317474247997,0.0,-93294.0,0.0,247.5,0.0,0.0,0.25,3.4814449560000003,3.02298855934048,0.0,174964.0,0.0,-262.5,0.0,0.0,0.125,1.331786973,3.008784596826776,0.0,-66193.0,0.125,-262.5,0.0,0.0,0.125,2.139892359,0.5354816332085125,0.0,0.9800000190734863,2.0799999237060547,-58.79999923706055,-0.0396728515625,-0.06219482421875,0.8671875,35.0,0.0,29.0,-10.895233154296875,0.4371795654296875,Waiting,0.0,0.0,-19187.0,0.0,0.0,0.0,0.0,0.0,
5.709511999999988,0.0,0.0,163814.0,9.25,-285.0,-1558.59375,0.0,0.125,3.8513179650000002,3.0220571050660396,0.0,-93282.0,23.375,-52.5,-1558.59375,0.0,4.125,2.9492184480000003,1.9324398515586718,0.0,174904.0,11.0,-225.0,-1558.59375,0.0,1.625,0.7226561760000001,1.9233599947637376,0.0,-66202.0,16.0,75.0,1558.59375,0.0,0.125,2.139892359,0.5538019444921097,0.0,0.20999999344348907,1.1299999952316284,-59.869998931884766,-0.046630859375,0.01116943359375,1.0784912109375,35.0,0.0,-40.0,-10.922866821289062,0.5363616943359375,Waiting,0.0,0.0,-19187.0,0.0,0.0,0.0,0.0,0.0,
5.870434999999998,0.0,0.0,163811.0,0.0,30.0,0.0,0.0,0.125,3.8366695290000004,3.0220571050660396,0.0,-93287.0,0.0,0.0,0.0,0.0,2.375,2.418212643,1.9324398515586718,0.0,174909.0,0.0,30.0,0.0,0.0,1.875,0.25634763,1.9233599947637376,0.0,-66190.0,0.125,7.5,0.0,0.0,0.125,2.139892359,0.5538019444921097,0.0,0.2800000011920929,1.190000057220459,-60.63999938964844,-0.05120849609375,-0.018310546875,0.9825439453125,35.0,0.0,-14.0,-10.945632934570312,0.6325225830078125,Waiting,0.0,0.0,-19187.0,0.0,0.0,0.0,0.0,0.0,
6.031994999999996,0.0,0.0,163771.0,7.375,-247.5,-1345.3125,0.0,0.125,3.8330074200000004,3.0220571050660396,0.0,-93294.0,12.125,-247.5,-1345.3125,0.0,0.25,2.257079847,1.9324398515586714,0.0,174908.0,8.125,-202.5,-1345.3125,0.0,0.125,0.11962889400000001,1.9233599947637376,0.0,-66184.0,9.25,225.0,1345.3125,0.0,0.125,2.139892359,0.5538019444921097,0.0,0.3100000023841858,0.9399999976158142,-64.36000061035156,0.03692626953125,0.0255126953125,0.91522216796875,34.970001220703125,0.0,-8.0,-10.951736450195312,0.718353271484375,Waiting,0.0,0.0,-19187.0,0.0,0.0,0.0,0.0,0.0,
6.193996000000043,0.0,0.0,163706.0,0.0,-285.0,0.0,0.0,0.25,3.8427730440000003,3.0220571050660396,0.0,-93412.0,0.0,-285.0,0.0,0.0,0.25,2.261962659,1.9324398515586714,0.0,174813.0,0.0,-270.0,0.0,0.0,0.125,0.126953112,1.9233599947637376,0.0,-66087.0,0.125,240.0,0.0,0.0,0.125,2.135009547,0.5538019444921097,0.0,-0.05999999865889549,0.5899999737739563,-71.52999877929688,-0.00909423828125,-0.11749267578125,1.16143798828125,34.970001220703125,0.0,103.0,-10.957870483398438,0.798370361328125,Waiting,0.0,0.0,-19187.0,0.0,0.0,0.0,0.0,0.0,
6.357440999999992,0.0,0.0,163653.0,8.75,-367.5,-1607.8125,0.0,0.125,3.85742148,3.0220571050660396,0.0,-93472.0,12.875,-412.5,-1607.8125,0.0,0.25,2.2668454710000003,1.9324398515586718,0.0,174760.0,8.0,-397.5,-1607.8125,0.0,0.25,0.126953112,1.9233599947637376,0.0,-66036.0,10.25,360.0,1607.8125,0.0,0.125,2.135009547,0.5538019444921097,0.0,0.029999999329447746,0.5400000214576721,-75.77999877929688,-0.13861083984375,0.026123046875,0.8226318359375,34.970001220703125,0.0,-60.0,-10.96221923828125,0.8757781982421875,Waiting,0.0,0.0,-19187.0,0.0,0.0,0.0,0.0,0.0,
6.5288150000000025,0.0,0.0,163539.0,0.0,-277.5,0.0,0.0,0.25,3.856200777,3.0220571050660396,0.0,-93539.0,0.0,-345.0,0.0,0.0,0.25,2.299804452,1.9324398515586718,0.0,174698.0,0.0,-232.5,0.0,0.0,0.25,0.126953112,1.9233599947637376,0.0,-65946.0,0.125,195.0,0.0,0.0,0.125,2.135009547,0.5538019444921097,0.0,-0.09000000357627869,0.4000000059604645,-82.38999938964844,-0.0377197265625,-0.10205078125,1.03253173828125,34.97999954223633,0.0,93.0,-10.972579956054688,0.9445343017578125,Waiting,0.0,0.0,-19187.0,0.0,0.0,0.0,0.0,0.0,
6.691298999999999,0.0,0.0,163518.0,0.0,-7.5,0.0,0.0,0.25,3.856200777,3.0220571050660396,0.0,-93592.0,0.0,0.0,0.0,0.0,0.25,2.3193357000000003,1.9324398515586718,0.0,174665.0,0.0,-15.0,0.0,0.0,0.125,0.15502928100000002,1.9233599947637376,0.0,-65939.0,0.125,15.0,0.0,0.0,0.25,2.138671656,0.5538019444921097,0.0,-0.25999999046325684,0.18000000715255737,-82.8499984741211,-0.011474609375,0.0294189453125,1.03668212890625,34.97999954223633,0.0,-35.0,-10.980422973632812,1.015716552734375,Waiting,0.0,0.0,-19187.0,0.0,0.0,0.0,0.0,0.0,
6.852269000000029,0.0,0.0,163598.0,13.0,382.5,1868.5039222240448,0.0,0.25,3.8391109350000003,3.0220571050660365,0.0,-93553.0,17.75,502.5,1868.5039222240448,0.0,0.25,2.3205564030000003,1.932439851558669,0.0,174691.0,12.25,397.5,1868.5039222240448,0.0,0.125,0.16845701400000002,1.9233599947637403,0.0,-65958.0,15.5,-367.5,-1868.5039222240448,0.0,0.125,2.207031024,0.5538019444921118,0.0,-0.49000000953674316,0.019999999552965164,-78.18000030517578,0.15106201171875,-0.2099609375,0.81842041015625,34.97999954223633,0.0,229.0,-10.989730834960938,1.080718994140625,Waiting,0.0,0.0,-19187.0,0.0,0.0,0.0,0.0,0.0,
7.021347000000008,0.0,0.0,163691.0,0.0,547.5,0.0,0.0,0.125,3.856200777,3.0220571050660365,0.0,-93394.0,0.0,397.5,0.0,0.0,0.25,2.3193357000000003,1.932439851558669,0.0,174866.0,0.0,442.5,0.0,0.0,0.0,0.169677717,1.9233599947637403,0.0,-66118.0,0.125,-427.5,0.0,0.0,0.25,2.1972654,0.5538019444921118,0.0,-0.12999999523162842,-0.1899999976158142,-67.31999969482422,-0.05755615234375,-0.11834716796875,1.15997314453125,34.970001220703125,0.0,86.0,-10.99920654296875,1.1463775634765625,Waiting,0.0,0.0,-19187.0,0.0,0.0,0.0,0.0,0.0,
7.186244000000006,0.0,0.0,163759.0,0.0,75.0,0.0,0.0,0.25,3.85742148,3.0220571050660365,0.0,-93365.0,0.0,127.5,0.0,0.0,0.25,2.3205564030000003,1.932439851558669,0.0,174886.0,0.0,97.5,0.0,0.0,0.0,0.17089842,1.9233599947637403,0.0,-66151.0,0.125,-112.5,0.0,0.0,0.25,2.177734152,0.5538019444921118,0.0,0.11999999731779099,-0.009999999776482582,-64.7300033569336,0.024169921875,0.01922607421875,1.0401611328125,34.970001220703125,0.0,-4.0,-11.010543823242188,1.160400390625,Waiting,0.0,0.0,-19187.0,0.0,0.0,0.0,0.0,0.0,
7.346868000000017,0.0,0.0,163757.0,0.0,-15.0,0.0,0.0,0.25,3.85742148,3.0220571050660365,0.0,-93364.0,0.0,0.0,0.0,0.0,0.25,2.3193357000000003,1.932439851558669,0.0,174886.0,0.0,0.0,0.0,0.0,0.0,0.17089842,1.9233599947637403,0.0,-66152.0,0.125,0.0,0.0,0.0,0.25,2.178954855,0.5538019444921118,0.0,0.03999999910593033,-0.07999999821186066,-65.6500015258789,-0.0069580078125,0.02288818359375,0.96435546875,34.970001220703125,0.0,-22.0,-11.010635375976562,1.159149169921875,Waiting,0.0,0.0,-19187.0,0.0,0.0,0.0,0.0,0.0,
7.507378000000026,0.0,0.0,163755.0,0.0,0.0,0.0,0.0,0.25,3.85742148,3.0220571050660365,0.0,-93364.0,0.0,0.0,0.0,0.0,0.25,2.3254392150000003,1.932439851558669,0.0,174886.0,0.0,0.0,0.0,0.0,0.0,0.175781232,1.9233599947637403,0.0,-66152.0,0.125,0.0,0.0,0.0,0.25,2.177734152,0.5538019444921118,0.0,0.05999999865889549,-0.1599999964237213,-65.58999633789062,-0.00640869140625,0.007568359375,1.02703857421875,34.970001220703125,0.0,-7.0,-11.010910034179688,1.157379150390625,Waiting,0.0,0.0,-19187.0,0.0,0.0,0.0,0.0,0.0,
7.667155000000028,0.0,0.0,163755.0,0.0,0.0,0.0,0.0,0.25,3.856200777,3.0220571050660365,0.0,-93364.0,0.0,0.0,0.0,0.0,0.25,2.3193357000000003,1.932439851558669,0.0,174886.0,0.0,0.0,0.0,0.0,0.0,0.17456052900000002,1.9233599947637403,0.0,-66152.0,0.125,0.0,0.0,0.0,0.25,2.178954855,0.5538019444921118,0.0,0.05999999865889549,-0.20000000298023224,-65.6500015258789,-0.00823974609375,0.0020751953125,1.013671875,34.97999954223633,0.0,-2.0,-11.010955810546875,1.157379150390625,Waiting,0.0,0.0,-19187.0,0.0,0.0,0.0,0.0,0.0,
7.829853000000003,0.0,0.0,163728.0,1.0,-180.0,-607.03125,0.0,0.25,3.856200777,3.0220571050660396,0.0,-93375.0,2.5,-142.5,-607.03125,0.0,0.25,2.3229978090000003,1.9324398515586714,0.0,174879.0,1.75,-120.0,-607.03125,0.0,0.0,0.185546856,1.9233599947637376,0.0,-66147.0,1.875,120.0,607.03125,0.0,0.25,2.1643064190000003,0.5538019444921097,0.0,-0.019999999552965164,-0.3400000035762787,-66.30000305175781,-0.15594482421875,0.007080078125,1.17523193359375,34.97999954223633,0.0,-66.0,-11.010971069335938,1.1559600830078125,Waiting,0.0,0.0,-19187.0,0.0,0.0,0.0,0.0,0.0,
7.9909800000000395,0.0,0.0,163717.0,0.0,-15.0,0.0,0.0,0.25,3.856200777,3.0220571050660396,0.0,-93396.0,0.0,-7.5,0.0,0.0,0.25,2.340087651,1.9324398515586714,0.0,174859.0,0.0,0.0,0.0,0.0,0.0,0.189208965,1.9233599947637376,0.0,-66123.0,0.125,15.0,0.0,0.0,0.125,2.159423607,0.5538019444921097,0.0,-0.07000000029802322,-0.3400000035762787,-68.01000213623047,-0.0244140625,0.00531005859375,0.98052978515625,34.97999954223633,0.0,-13.0,-11.0111083984375,1.148712158203125,Waiting,0.0,0.0,-19187.0,0.0,0.0,0.0,0.0,0.0,
8.153187000000035,0.0,0.0,163713.0,0.625,-112.5,-426.5625,0.0,0.25,3.85742148,3.0220571050660396,0.0,-93410.0,1.125,-97.5,-426.5625,0.0,0.125,2.34374976,1.9324398515586714,0.0,174848.0,0.875,-75.0,-426.5625,0.0,0.0,0.189208965,1.9233599947637376,0.0,-66123.0,1.5,0.0,426.5625,0.0,0.125,2.149657983,0.5538019444921097,0.0,-0.019999999552965164,-0.33000001311302185,-68.05000305175781,-0.06292724609375,-0.0206298828125,1.05194091796875,35.0,0.0,-2.0,-11.0111083984375,1.1485137939453125,Waiting,0.0,0.0,-19187.0,0.0,0.0,0.0,0.0,0.0,
8.32098000000004,0.0,0.0,163720.0,0.875,135.0,628.3464699983597,0.0,0.5,3.7304683680000004,2.772465484354018,0.0,-93419.0,4.625,-135.0,-628.3464699983597,0.0,1.0,3.2189938110000003,2.7901467675590506,0.0,174847.0,0.875,75.0,628.3464699983597,0.0,1.5,1.063232313,2.7770368469238274,0.0,-66088.0,3.875,195.0,628.3464699983597,0.0,0.5,2.028808386,0.3029099578857414,0.0,-0.05999999865889549,-0.5799999833106995,-68.8499984741211,-0.04925537109375,-0.09149169921875,1.05865478515625,35.0,0.0,70.0,-11.01190185546875,1.14422607421875,Waiting,0.0,0.0,-19187.0,0.0,0.0,0.0,0.0,0.0,
8.483688000000024,0.0,0.0,163733.0,1.25,187.5,496.06300592422485,0.0,0.375,3.544921512,2.760247149983214,0.0,-93484.0,5.625,-210.0,-496.06300592422485,0.0,0.25,3.643798455,2.7778505112694623,0.0,174873.0,1.875,75.0,496.06300592422485,0.0,0.0,1.5002439870000002,2.7647983664279505,0.0,-66058.0,4.875,187.5,496.06300592422485,0.0,0.5,1.8725584020000001,0.29062796630859217,0.0,-0.5,-1.1299999952316284,-69.08000183105469,-0.01348876953125,-0.05279541015625,1.09185791015625,35.0,0.0,43.0,-11.01171875,1.1282806396484375,Waiting,0.0,0.0,-19187.0,0.0,0.0,0.0,0.0,0.0,
8.647277000000003,0.0,0.0,163774.0,0.0,67.5,0.0,0.0,0.25,3.500976204,2.760247149983214,0.0,-93501.0,0.0,-7.5,0.0,0.0,0.875,3.4289547270000003,2.7778505112694623,0.0,174887.0,0.0,22.5,0.0,0.0,0.5,1.20849597,2.7647983664279505,0.0,-66043.0,0.125,22.5,0.0,0.0,0.25,1.822509579,0.29062796630859217,0.0,0.019999999552965164,-0.41999998688697815,-69.02999877929688,0.131591796875,0.03179931640625,1.04693603515625,35.0,0.0,20.0,-11.011962890625,1.1136016845703125,Waiting,0.0,0.0,-19187.0,0.0,0.0,0.0,0.0,0.0,
8.808027999999991,0.0,0.0,163774.0,0.0,0.0,0.0,0.0,0.25,3.5156246400000004,2.760247149983214,0.0,-93501.0,0.0,0.0,0.0,0.0,0.25,3.2104488900000003,2.7778505112694623,0.0,174893.0,0.0,7.5,0.0,0.0,0.25,1.019287005,2.7647983664279505,0.0,-66043.0,0.125,0.0,0.0,0.0,0.25,1.8371580150000002,0.29062796630859217,0.0,0.07000000029802322,-0.2800000011920929,-69.0,-0.0352783203125,-0.00146484375,0.98760986328125,35.0,0.0,-8.0,-11.012603759765625,1.1139373779296875,Waiting,0.0,0.0,-19187.0,0.0,0.0,0.0,0.0,0.0,
8.96983600000001,0.0,0.0,163756.0,2.25,-195.0,-738.28125,0.0,0.5,3.768310161,3.0220571050660396,0.0,-93509.0,5.125,-45.0,-738.28125,0.0,3.0,2.46582006,1.9324398515586718,0.0,174892.0,3.875,-7.5,-738.28125,0.0,1.875,0.285644502,1.9233599947637376,0.0,-66037.0,4.0,52.5,738.28125,0.0,0.625,1.981200969,0.5538019444921097,0.0,0.009999999776482582,-0.5299999713897705,-69.5,-0.0250244140625,-0.0274658203125,0.96490478515625,35.0,0.0,20.0,-11.01214599609375,1.1094818115234375,Waiting,0.0,0.0,-19187.0,0.0,0.0,0.0,0.0,0.0,
9.133978000000003,0.0,0.0,163740.0,0.0,0.0,0.0,0.0,0.25,3.909911709,3.0220571050660396,0.0,-93513.0,0.0,0.0,0.0,0.0,0.25,2.0690915850000002,1.9324398515586718,0.0,174893.0,0.0,7.5,0.0,0.0,0.125,4.940185041,1.9233599947637376,0.0,-66028.0,0.125,-7.5,0.0,0.0,0.375,2.192382588,0.5538019444921097,0.0,-0.05999999865889549,-0.4699999988079071,-71.22000122070312,-0.02520751953125,0.0032958984375,1.00738525390625,35.029998779296875,0.0,-9.0,-11.011795043945312,1.1047210693359375,Waiting,0.0,0.0,-19187.0,0.0,0.0,0.0,0.0,0.0,
9.29508600000001,0.0,0.0,163740.0,0.0,0.0,0.0,0.0,0.25,3.8916011640000003,3.0220571050660396,0.0,-93513.0,0.0,0.0,0.0,0.0,0.25,2.1704099340000003,1.9324398515586718,0.0,174893.0,0.0,0.0,0.0,0.0,0.125,0.107421864,1.9233599947637376,0.0,-66029.0,0.125,0.0,0.0,0.0,0.25,2.193603291,0.5538019444921097,0.0,-0.14000000059604645,-0.5400000214576721,-70.97000122070312,-0.01025390625,0.014404296875,0.9661865234375,35.029998779296875,0.0,-16.0,-11.011184692382812,1.1036834716796875,Waiting,0.0,0.0,-19187.0,0.0,0.0,0.0,0.0,0.0,
9.454549999999989,0.0,0.0,163740.0,0.0,0.0,0.0,0.0,0.25,3.854980074,3.0220571050660396,0.0,-93513.0,0.0,0.0,0.0,0.0,0.5,2.3840329590000002,1.9324398515586718,0.0,174893.0,0.0,0.0,0.0,0.0,0.125,0.218505837,1.9233599947637376,0.0,-66028.0,0.125,0.0,0.0,0.0,0.25,2.1691892310000003,0.5538019444921097,0.0,-0.07000000029802322,-0.5600000023841858,-70.9000015258789,-0.020263671875,-0.023681640625,1.03741455078125,35.029998779296875,0.0,17.0,-11.011795043945312,1.1036834716796875,Waiting,0.0,0.0,-19187.0,0.0,0.0,0.0,0.0,0.0,
9.614420000000042,0.0,0.0,163740.0,0.0,0.0,0.0,0.0,0.125,3.8513179650000002,3.0220571050660396,0.0,-93513.0,0.0,0.0,0.0,0.0,0.125,2.418212643,1.9324398515586718,0.0,174893.0,0.0,0.0,0.0,0.0,0.0,0.228271461,1.9233599947637376,0.0,-66028.0,0.125,0.0,0.0,0.0,0.25,2.1679685280000003,0.5538019444921097,0.0,-0.03999999910593033,-0.5799999833106995,-70.80999755859375,-0.01373291015625,-0.00689697265625,1.02850341796875,35.029998779296875,0.0,4.0,-11.011993408203125,1.1036834716796875,Waiting,0.0,0.0,-19187.0,0.0,0.0,0.0,0.0,0.0,
9.774389000000024,0.0,0.0,163740.0,0.0,0.0,0.0,0.0,0.125,3.852538668,3.0220571050660396,0.0,-93513.0,0.0,0.0,0.0,0.0,0.25,2.398681395,1.9324398515586718,0.0,174893.0,0.0,0.0,0.0,0.0,0.0,0.228271461,1.9233599947637376,0.0,-66028.0,0.125,0.0,0.0,0.0,0.125,2.1679685280000003,0.5538019444921097,0.0,-0.029999999329447746,-0.6100000143051147,-70.81999969482422,-0.01690673828125,0.0013427734375,1.018798828125,35.029998779296875,0.0,-3.0,-11.011993408203125,1.1036834716796875,Waiting,0.0,0.0,-19187.0,0.0,0.0,0.0,0.0,0.0,
9.933880999999994,0.0,0.0,163740.0,0.0,0.0,0.0,0.0,0.125,3.852538668,3.0220571050660396,0.0,-93513.0,0.0,0.0,0.0,0.0,0.25,2.39257788,1.9324398515586718,0.0,174893.0,0.0,0.0,0.0,0.0,0.0,0.22705075800000002,1.9233599947637376,0.0,-66028.0,0.125,0.0,0.0,0.0,0.125,2.1679685280000003,0.5538019444921097,0.0,-0.019999999552965164,-0.6200000047683716,-70.81999969482422,-0.01885986328125,0.0057373046875,1.01446533203125,35.029998779296875,0.0,-8.0,-11.011993408203125,1.1036834716796875,Waiting,0.0,0.0,-19187.0,0.0,0.0,0.0,0.0,0.0,
10.105206999999995,0.0,0.0,163753.0,1.625,90.0,529.1338562965393,0.0,1.25,4.376220255000001,3.7066882499999982,0.0,-93503.0,1.75,97.5,529.1338562965393,0.0,1.125,1.877441214,1.2434424999999985,0.0,174890.0,1.875,-37.5,-529.1338562965393,0.0,1.125,4.643554212000001,1.2375999999999985,0.0,-66028.0,1.625,90.0,529.1338562965393,0.0,1.375,2.7990719790000003,1.2419999999999984,0.0,-0.1599999964237213,-0.6800000071525574,-70.9000015258789,0.01348876953125,-0.07781982421875,1.03167724609375,35.02000045776367,0.0,79.0,-11.010665893554688,1.1034393310546875,Waiting,0.0,0.0,-19187.0,0.0,0.0,0.0,0.0,0.0,
10.276226000000024,0.0,0.0,163760.0,3.25,135.0,562.2047066688538,0.0,0.25,4.757079591,3.7066882499999982,0.0,-93463.0,4.125,172.5,562.2047066688538,0.0,0.25,1.4233396980000002,1.2434424999999985,0.0,174878.0,3.25,-52.5,-562.2047066688538,0.0,0.125,4.2407222220000005,1.2375999999999985,0.0,-65989.0,3.75,105.0,562.2047066688538,0.0,0.25,3.195800454,1.2419999999999984,0.0,-0.5299999713897705,-0.6000000238418579,-70.93000030517578,0.044677734375,0.0938720703125,1.07989501953125,35.02000045776367,0.0,-79.0,-11.00299072265625,1.0993194580078125,Waiting,0.0,0.0,-19187.0,0.0,0.0,0.0,0.0,0.0,
10.44935500000004,0.0,0.0,163797.0,6.875,75.0,562.2047066688538,0.0,0.375,4.621581558,3.7066882499999982,0.0,-93439.0,10.5,75.0,562.2047066688538,0.0,0.5,1.441650243,1.2434424999999985,0.0,174862.0,7.375,-52.5,-562.2047066688538,0.0,0.875,4.2858882330000005,1.2375999999999985,0.0,-65979.0,7.125,135.0,562.2047066688538,0.0,0.5,2.9956051620000004,1.2419999999999984,0.0,0.03999999910593033,-0.6299999952316284,-70.94999694824219,-0.07122802734375,-0.059814453125,1.01116943359375,35.02000045776367,0.0,37.0,-11.00811767578125,1.09613037109375,Waiting,0.0,0.0,-19187.0,0.0,0.0,0.0,0.0,0.0,
10.623766000000003,0.0,0.0,163803.0,5.875,30.0,181.889770925045,0.0,0.375,4.544677269,3.7066882499999982,0.0,-93432.0,8.625,15.0,181.889770925045,0.0,1.0,1.5002439870000002,1.2434424999999985,0.0,174850.0,6.875,-30.0,-181.889770925045,0.0,0.875,4.28466753,1.2375999999999985,0.0,-65955.0,6.125,22.5,181.889770925045,0.0,0.5,2.928466497,1.2419999999999984,0.0,0.009999999776482582,-0.6499999761581421,-70.97000122070312,-0.0426025390625,0.01287841796875,1.01885986328125,35.02000045776367,0.0,-22.0,-11.013565063476562,1.0924530029296875,Waiting,0.0,0.0,-19187.0,0.0,0.0,0.0,0.0,0.0,
10.796016999999992,0.0,0.0,163818.0,7.375,45.0,165.35433009266853,0.0,0.125,4.52880813,3.7066882499999982,0.0,-93425.0,9.875,45.0,165.35433009266853,0.0,0.75,1.5002439870000002,1.2434424999999985,0.0,174845.0,6.375,-37.5,-165.35433009266853,0.0,0.875,4.294433154,1.2375999999999985,0.0,-65950.0,7.0,37.5,165.35433009266853,0.0,0.25,2.933349309,1.2419999999999984,0.0,-0.03999999910593033,-0.6499999761581421,-70.94000244140625,-0.03094482421875,-0.01568603515625,1.030517578125,35.02000045776367,0.0,35.0,-11.012908935546875,1.0882110595703125,Waiting,0.0,0.0,-19187.0,0.0,0.0,0.0,0.0,0.0,
10.972679999999993,0.0,0.0,163835.0,9.25,135.0,347.2440853714943,0.0,0.125,4.510497585,3.7066882499999982,0.0,-93391.0,12.5,120.0,347.2440853714943,0.0,0.75,1.5002439870000002,1.2434424999999985,0.0,174812.0,9.25,-127.5,-347.2440853714943,0.0,0.75,4.287108936,1.2375999999999985,0.0,-65919.0,9.125,127.5,347.2440853714943,0.0,0.25,2.933349309,1.2419999999999984,0.0,-0.5600000023841858,-0.6800000071525574,-70.86000061035156,0.03948974609375,-0.02484130859375,1.08544921875,35.02000045776367,0.0,30.0,-11.008071899414062,1.0810394287109375,Waiting,0.0,0.0,-19187.0,0.0,0.0,0.0,0.0,0.0,
11.155315000000002,0.0,0.0,163860.0,0.0,15.0,0.0,0.0,0.125,4.515380397,3.7066882499999982,0.0,-93378.0,0.0,0.0,0.0,0.0,0.75,1.5051267990000001,1.2434424999999985,0.0,174798.0,0.0,-7.5,0.0,0.0,1.0,4.2907710450000005,1.2375999999999985,0.0,-65903.0,0.125,15.0,0.0,0.0,0.25,2.933349309,1.2419999999999984,0.0,0.23000000417232513,-0.6600000262260437,-70.80999755859375,-0.02044677734375,0.21246337890625,1.0927734375,34.9900016784668,0.0,-198.0,-11.006378173828125,1.0753173828125,Waiting,0.0,0.0,-19187.0,0.0,0.0,0.0,0.0,0.0,
11.333244000000006,0.0,0.0,163837.0,1.375,-202.5,-656.25,0.0,0.125,4.52880813,3.7066882500000014,0.0,-93422.0,2.25,-232.5,-656.25,0.0,0.25,1.622314287,1.2434425000000011,0.0,174820.0,2.25,105.0,656.25,0.0,0.75,4.304198778,1.2376000000000011,0.0,-65934.0,2.125,-187.5,-656.25,0.0,0.25,2.889404001,1.242000000000001,0.0,0.7799999713897705,-0.6100000143051147,-70.91999816894531,-0.06561279296875,0.01385498046875,1.091552734375,34.9900016784668,0.0,-16.0,-11.02557373046875,1.0769500732421875,Waiting,0.0,0.0,-19187.0,0.0,0.0,0.0,0.0,0.0,
11.508331999999994,0.0,0.0,163801.0,2.5,-277.5,-656.25,0.0,0.125,4.530028833,3.7066882500000014,0.0,-93466.0,4.0,-300.0,-656.25,0.0,0.25,1.6845701400000002,1.2434425000000011,0.0,174848.0,3.625,187.5,656.25,0.0,0.25,4.488524931000001,1.2376000000000011,0.0,-65972.0,3.125,-255.0,-656.25,0.0,0.25,2.869872753,1.242000000000001,0.0,1.0800000429153442,-0.7300000190734863,-71.1500015258789,0.00439453125,0.1002197265625,1.07476806640625,34.9900016784668,0.0,-69.0,-11.028488159179688,1.078521728515625,Waiting,0.0,0.0,-19187.0,0.0,0.0,0.0,0.0,0.0,
11.68267300000001,0.0,0.0,163682.0,3.0,-435.0,-672.65625,0.0,0.125,4.530028833,3.7066882500000014,0.0,-93524.0,4.5,-435.0,-672.65625,0.0,0.125,1.6845701400000002,1.2434425000000011,0.0,174891.0,4.5,375.0,672.65625,0.0,0.0,4.56542922,1.2376000000000011,0.0,-66102.0,3.625,-435.0,-672.65625,0.0,0.25,2.869872753,1.242000000000001,0.0,1.6299999952316284,-0.7900000214576721,-71.05999755859375,-0.01385498046875,0.08660888671875,0.9132080078125,35.0,0.0,-57.0,-11.041641235351562,1.080963134765625,Waiting,0.0,0.0,-19187.0,0.0,0.0,0.0,0.0,0.0,
11.848244999999995,0.0,0.0,163596.0,2.75,-585.0,-672.65625,0.0,0.125,4.530028833,3.7066882500000014,0.0,-93702.0,3.375,-607.5,-672.65625,0.0,0.125,1.7407224780000001,1.2434425000000011,0.0,175057.0,3.5,585.0,672.65625,0.0,0.125,4.5507807840000005,1.2376000000000011,0.0,-66199.0,3.0,-622.5,-672.65625,0.0,0.25,2.869872753,1.242000000000001,0.0,1.9500000476837158,-0.7699999809265137,-70.80999755859375,0.01513671875,0.07904052734375,0.72210693359375,35.0,0.0,-43.0,-11.061721801757812,1.0824127197265625,Waiting,0.0,0.0,-19187.0,0.0,0.0,0.0,0.0,0.0,
12.009110000000044,0.0,0.0,163426.0,0.0,-405.0,0.0,0.0,0.125,4.525146021,3.7066882500000014,0.0,-93774.0,0.0,-442.5,0.0,0.0,0.25,1.7419431810000001,1.2434425000000011,0.0,175146.0,0.0,435.0,0.0,0.0,0.125,4.506835476,1.2376000000000011,0.0,-66275.0,0.125,-427.5,0.0,0.0,0.25,2.871093456,1.242000000000001,0.0,1.4199999570846558,-0.7300000190734863,-70.72000122070312,0.0291748046875,-0.08551025390625,0.97674560546875,35.0,0.0,117.0,-11.08740234375,1.081878662109375,Waiting,0.0,0.0,-19187.0,0.0,0.0,0.0,0.0,0.0,
12.170178000000014,0.0,0.0,163371.0,0.0,-315.0,0.0,0.0,0.125,4.530028833,3.7066882500000014,0.0,-93849.0,0.0,-307.5,0.0,0.0,0.25,1.7321775570000002,1.2434425000000011,0.0,175203.0,0.0,247.5,0.0,0.0,0.125,4.4982905550000005,1.2376000000000011,0.0,-66400.0,0.125,-337.5,0.0,0.0,0.25,2.871093456,1.242000000000001,0.0,0.49000000953674316,-0.7599999904632568,-70.81999969482422,0.03887939453125,-0.175537109375,1.009033203125,35.040000915527344,0.0,191.0,-11.0919189453125,1.0737457275390625,Waiting,0.0,0.0,-19187.0,0.0,0.0,0.0,0.0,0.0,
12.331007000000042,0.0,0.0,163345.0,0.0,-45.0,0.0,0.0,0.125,4.52880813,3.7066882500000014,0.0,-93905.0,0.0,-45.0,0.0,0.0,0.25,1.718749824,1.2434425000000011,0.0,175244.0,0.0,37.5,0.0,0.0,0.0,4.497069852,1.2376000000000011,0.0,-66413.0,0.125,-45.0,0.0,0.0,0.25,2.871093456,1.242000000000001,0.0,-0.41999998688697815,-0.75,-70.83000183105469,-0.0098876953125,-0.01324462890625,0.96905517578125,35.040000915527344,0.0,6.0,-11.074020385742188,1.0585174560546875,Waiting,0.0,0.0,-19187.0,0.0,0.0,0.0,0.0,0.0,
12.492011999999988,0.0,0.0,163346.0,0.125,0.0,115.74803106486797,0.0,0.125,4.532470239,3.7066882499999982,0.0,-93905.0,0.125,0.0,115.74803106486797,0.0,0.25,1.693115061,1.2434424999999985,0.0,175244.0,0.125,0.0,-115.74803106486797,0.0,0.0,4.49218704,1.2375999999999985,0.0,-66413.0,0.375,0.0,115.74803106486797,0.0,0.25,2.871093456,1.2419999999999984,0.0,-0.25,-0.7799999713897705,-70.80000305175781,-0.01806640625,0.0164794921875,1.03546142578125,35.040000915527344,0.0,-21.0,-11.049484252929688,1.05865478515625,Waiting,0.0,0.0,-19187.0,0.0,0.0,0.0,0.0,0.0,
12.654291000000027,0.0,0.0,163347.0,0.0,0.0,0.0,0.0,0.125,4.52880813,3.7066882499999982,0.0,-93905.0,0.0,0.0,0.0,0.0,0.125,1.6845701400000002,1.2434424999999985,0.0,175244.0,0.0,0.0,0.0,0.0,0.0,4.488524931000001,1.2375999999999985,0.0,-66413.0,0.125,0.0,0.0,0.0,0.25,2.869872753,1.2419999999999984,0.0,-0.009999999776482582,-0.7599999904632568,-70.80000305175781,-0.01129150390625,0.00213623046875,1.00750732421875,35.02000045776367,0.0,-1.0,-11.031982421875,1.058807373046875,Waiting,0.0,0.0,-19187.0,0.0,0.0,0.0,0.0,0.0,
12.814774000000034,0.0,0.0,163347.0,0.0,0.0,0.0,0.0,0.125,4.52880813,3.7066882499999982,0.0,-93905.0,0.0,0.0,0.0,0.0,0.125,1.6845701400000002,1.2434424999999985,0.0,175244.0,0.0,0.0,0.0,0.0,0.0,4.488524931000001,1.2375999999999985,0.0,-66413.0,0.125,0.0,0.0,0.0,0.25,2.869872753,1.2419999999999984,0.0,0.0,-0.7699999809265137,-70.80999755859375,-0.01788330078125,0.01629638671875,1.0152587890625,35.02000045776367,0.0,-16.0,-11.031982421875,1.058807373046875,Waiting,0.0,0.0,-19187.0,0.0,0.0,0.0,0.0,0.0,
12.981290000000037,0.0,0.0,163384.0,3.625,202.5,909.4488233327866,0.0,0.125,4.509276882,3.7066882499999982,0.0,-93881.0,5.625,195.0,909.4488233327866,0.0,0.125,1.6870115460000001,1.2434424999999985,0.0,175243.0,4.625,-67.5,-909.4488233327866,0.0,0.0,4.486083525000001,1.2375999999999985,0.0,-66392.0,4.125,187.5,909.4488233327866,0.0,0.25,2.8417965840000003,1.2419999999999984,0.0,-0.6200000047683716,-1.1200000047683716,-70.72000122070312,-0.12139892578125,-0.289306640625,1.239501953125,35.02000045776367,0.0,228.0,-11.0286865234375,1.0565643310546875,Waiting,0.0,0.0,-19187.0,0.0,0.0,0.0,0.0,0.0,
13.149209000000031,0.0,0.0,163396.0,0.0,30.0,0.0,0.0,0.125,4.509276882,3.7066882499999982,0.0,-93850.0,0.0,22.5,0.0,0.0,0.125,1.679687328,1.2434424999999985,0.0,175210.0,0.0,-82.5,0.0,0.0,0.0,4.482421416,1.2375999999999985,0.0,-66361.0,0.125,37.5,0.0,0.0,0.125,2.836913772,1.2419999999999984,0.0,-0.25999999046325684,-0.9100000262260437,-70.8499984741211,0.0107421875,0.11297607421875,0.8912353515625,34.959999084472656,0.0,-85.0,-11.018478393554688,1.0503082275390625,Waiting,0.0,0.0,-19187.0,0.0,0.0,0.0,0.0,0.0,
13.310688000000024,0.0,0.0,163411.0,0.0,22.5,0.0,0.0,0.125,4.508056179,3.7066882499999982,0.0,-93843.0,0.0,0.0,0.0,0.0,0.125,1.679687328,1.2434424999999985,0.0,175208.0,0.0,-7.5,0.0,0.0,0.0,4.483642119000001,1.2375999999999985,0.0,-66351.0,0.125,15.0,0.0,0.0,0.125,2.835693069,1.2419999999999984,0.0,0.33000001311302185,-0.800000011920929,-70.83000183105469,0.0113525390625,-0.00701904296875,0.9544677734375,34.959999084472656,0.0,20.0,-11.023727416992188,1.0514678955078125,Waiting,0.0,0.0,-19187.0,0.0,0.0,0.0,0.0,0.0,
13.470825000000012,0.0,0.0,163411.0,0.0,0.0,0.0,0.0,0.125,4.508056179,3.7066882499999982,0.0,-93843.0,0.0,0.0,0.0,0.0,0.125,1.679687328,1.2434424999999985,0.0,175208.0,0.0,0.0,0.0,0.0,0.0,4.483642119000001,1.2375999999999985,0.0,-66351.0,0.125,0.0,0.0,0.0,0.125,2.836913772,1.2419999999999984,0.0,0.27000001072883606,-0.8100000023841858,-70.83999633789062,-0.0052490234375,-0.01397705078125,1.06256103515625,34.959999084472656,0.0,21.0,-11.024398803710938,1.0514373779296875,Waiting,0.0,0.0,-19187.0,0.0,0.0,0.0,0.0,0.0,
13.635323000000033,0.0,0.0,163411.0,0.125,0.0,115.74803106486797,0.0,1.75,3.9477535020000003,2.471125499999997,0.0,-93843.0,0.0,0.0,-115.74803106486797,0.0,1.5,2.156982201,2.486884999999998,0.0,175208.0,0.125,0.0,-115.74803106486797,0.0,2.125,3.8964839760000003,2.3449805060712E-15,0.0,-66348.0,0.25,15.0,115.74803106486797,0.0,1.75,2.198486103,2.3533175408374518E-15,0.0,0.2199999988079071,-0.8299999833106995,-70.88999938964844,-0.00262451171875,-0.017333984375,1.1036376953125,34.959999084472656,0.0,24.0,-11.024337768554688,1.0522003173828125,Waiting,0.0,0.0,-19187.0,0.0,0.0,0.0,0.0,0.0,
13.801146000000008,0.0,0.0,163450.0,1.5,225.0,644.8818951845169,0.0,1.0,3.1018063230000004,2.471125499999997,0.0,-93872.0,2.75,-232.5,-644.8818951845169,0.0,1.0,3.1616207700000003,2.486884999999998,0.0,175202.0,2.75,-52.5,-644.8818951845169,0.0,1.125,3.0615231240000003,2.3449805060712E-15,0.0,-66332.0,2.0,172.5,644.8818951845169,0.0,1.25,1.407470559,2.3533175408374518E-15,0.0,0.15000000596046448,-1.2599999904632568,-71.13999938964844,-0.08453369140625,-0.02935791015625,1.00518798828125,34.959999084472656,0.0,10.0,-11.025665283203125,1.04815673828125,Waiting,0.0,0.0,-19187.0,0.0,0.0,0.0,0.0,0.0,
13.966367000000027,0.0,0.0,163486.0,3.5,225.0,677.9527455568314,0.0,0.375,2.9968258650000004,2.471125499999997,0.0,-93901.0,6.25,-180.0,-677.9527455568314,0.0,0.25,3.389892231,2.486884999999998,0.0,175192.0,4.75,-120.0,-677.9527455568314,0.0,0.125,3.013915707,2.3449805060712E-15,0.0,-66296.0,5.125,150.0,677.9527455568314,0.0,0.25,1.364745954,2.3533175408374518E-15,0.0,0.4000000059604645,-1.3200000524520874,-70.80000305175781,-0.02154541015625,-0.0201416015625,1.012939453125,34.959999084472656,0.0,26.0,-11.03021240234375,1.0370330810546875,Waiting,0.0,0.0,-19187.0,0.0,0.0,0.0,0.0,0.0,
14.126635999999998,0.0,0.0,163516.0,7.75,120.0,677.9527455568314,0.0,0.75,3.1127926500000003,2.471125499999997,0.0,-93937.0,13.625,-82.5,-677.9527455568314,0.0,1.75,3.127441086,2.486884999999998,0.0,175140.0,8.75,-105.0,-677.9527455568314,0.0,0.125,3.2226559200000002,2.3449805060712E-15,0.0,-66256.0,9.625,105.0,677.9527455568314,0.0,0.625,1.518554532,2.3533175408374518E-15,0.0,0.20000000298023224,-0.6100000143051147,-70.44999694824219,-0.03204345703125,-0.0379638671875,1.046875,34.959999084472656,0.0,32.0,-11.033218383789062,1.0316314697265625,Waiting,0.0,0.0,-19187.0,0.0,0.0,0.0,0.0,0.0,
14.290559999999997,0.0,0.0,163521.0,15.875,15.0,677.9527455568314,0.0,0.625,3.1616207700000003,2.471125499999997,0.0,-93938.0,22.625,-15.0,-677.9527455568314,0.0,0.5,3.028564143,2.486884999999998,0.0,175140.0,16.625,0.0,-677.9527455568314,0.0,0.0,3.2958981,2.3449805060712E-15,0.0,-66254.0,17.5,22.5,677.9527455568314,0.0,0.25,1.567382652,2.3533175408374518E-15,0.0,0.20999999344348907,-0.6899999976158142,-70.44000244140625,1.8310546875E-4,0.02606201171875,0.9749755859375,34.970001220703125,0.0,-17.0,-11.032867431640625,1.03240966796875,Waiting,0.0,0.0,-19187.0,0.0,0.0,0.0,0.0,0.0,
14.453255000000004,0.0,0.0,163514.0,5.125,-45.0,1223.622089624405,0.0,0.375,3.1579586610000003,2.471125499999997,0.0,-93940.0,3.75,52.5,-1223.622089624405,0.0,0.25,3.024902034,2.486884999999998,0.0,175140.0,3.5,0.0,-1223.622089624405,0.0,0.125,3.2958981,2.3449805060712E-15,0.0,-66260.0,3.0,-52.5,1223.622089624405,0.0,0.25,1.566161949,2.3533175408374518E-15,0.0,0.1599999964237213,-0.9399999976158142,-70.45999908447266,-0.32000732421875,0.04864501953125,1.00982666015625,34.970001220703125,0.0,-144.0,-11.033065795898438,1.0340728759765625,Waiting,0.0,0.0,-19187.0,0.0,0.0,0.0,0.0,0.0,
14.614507000000042,0.0,0.0,163525.0,18.625,60.0,1769.2913711071014,0.0,0.25,3.1616207700000003,2.471125499999997,0.0,-93948.0,30.625,-97.5,-1769.2913711071014,0.0,0.0,3.021239925,2.486884999999998,0.0,175138.0,18.375,-7.5,-1769.2913711071014,0.0,0.0,3.2958981,2.3449805060712E-15,0.0,-66246.0,17.625,67.5,1769.2913711071014,0.0,0.125,1.571044761,2.3533175408374518E-15,0.0,0.20999999344348907,-0.7799999713897705,-70.48999786376953,0.28472900390625,-0.205810546875,1.09442138671875,34.970001220703125,0.0,297.0,-11.037628173828125,1.03021240234375,Waiting,0.0,0.0,-19187.0,0.0,0.0,0.0,0.0,0.0,
14.77647100000002,0.0,0.0,163531.0,25.875,90.0,2100.0,0.0,0.375,3.1652828790000003,2.471125499999997,0.0,-93942.0,32.75,-142.5,-2100.0,0.0,0.0,3.024902034,2.486884999999998,0.0,175141.0,16.5,0.0,-2100.0,0.0,0.0,3.2751461490000002,2.3449805060712E-15,0.0,-66259.0,19.5,90.0,2100.0,0.0,0.25,1.571044761,2.3533175408374518E-15,0.0,0.12999999523162842,-0.8799999952316284,-70.51000213623047,0.42706298828125,-0.0125732421875,1.131591796875,34.970001220703125,0.0,162.0,-11.034255981445312,1.0302276611328125,Waiting,0.0,0.0,-19187.0,0.0,0.0,0.0,0.0,0.0,
14.949212,0.0,0.0,163508.0,0.75,-127.5,214.96063694357872,0.0,0.375,3.201903969,2.471125499999997,0.0,-93928.0,0.625,105.0,-214.96063694357872,0.0,0.25,3.0004879740000003,2.486884999999998,0.0,175138.0,0.375,7.5,-214.96063694357872,0.0,0.125,3.2751461490000002,2.3449805060712E-15,0.0,-66268.0,0.875,-120.0,214.96063694357872,0.0,0.25,1.5759275730000002,2.3533175408374518E-15,0.0,0.17000000178813934,-0.8500000238418579,-70.62999725341797,-0.3466796875,0.04730224609375,1.01422119140625,34.970001220703125,0.0,-151.0,-11.024124145507812,1.041412353515625,Waiting,0.0,0.0,-19187.0,0.0,0.0,0.0,0.0,0.0,
15.11436499999999,0.0,0.0,163501.0,0.0,0.0,0.0,0.0,0.375,3.237304356,2.471125499999997,0.0,-93928.0,0.0,0.0,0.0,0.0,0.25,2.935790715,2.486884999999998,0.0,175138.0,0.0,0.0,0.0,0.0,0.125,3.276366852,2.3449805060712E-15,0.0,-66268.0,0.125,0.0,0.0,0.0,0.25,1.5771482760000002,2.3533175408374518E-15,0.0,0.25,-0.8700000047683716,-70.52999877929688,0.0166015625,0.0028076171875,0.99554443359375,34.970001220703125,0.0,12.0,-11.01849365234375,1.0365142822265625,Waiting,0.0,0.0,-19187.0,0.0,0.0,0.0,0.0,0.0,
15.279340000000026,0.0,0.0,163501.0,0.0,0.0,0.0,0.0,0.25,3.242187168,2.471125499999997,0.0,-93928.0,0.0,0.0,0.0,0.0,0.125,2.926025091,2.486884999999998,0.0,175138.0,0.0,0.0,0.0,0.0,0.125,3.276366852,2.3449805060712E-15,0.0,-66268.0,0.125,0.0,0.0,0.0,0.25,1.5759275730000002,2.3533175408374518E-15,0.0,0.23999999463558197,-0.7200000286102295,-70.55000305175781,-0.02313232421875,0.0216064453125,1.051025390625,34.97999954223633,0.0,-19.0,-11.011810302734375,1.037322998046875,Waiting,0.0,0.0,-19187.0,0.0,0.0,0.0,0.0,0.0,
15.444407999999996,0.0,0.0,163501.0,0.0,0.0,0.0,0.0,0.25,3.242187168,2.471125499999997,0.0,-93928.0,0.0,0.0,0.0,0.0,0.125,2.924804388,2.486884999999998,0.0,175138.0,0.0,0.0,0.0,0.0,0.125,3.2751461490000002,2.3449805060712E-15,0.0,-66268.0,0.125,0.0,0.0,0.0,0.25,1.5759275730000002,2.3533175408374518E-15,0.0,0.25,-0.8500000238418579,-70.55999755859375,-0.005126953125,0.0081787109375,1.00860595703125,34.97999954223633,0.0,0.0,-11.011398315429688,1.0377655029296875,Waiting,0.0,0.0,-19187.0,0.0,0.0,0.0,0.0,0.0,
15.606589000000037,0.0,0.0,163501.0,0.0,0.0,0.0,0.0,0.25,3.242187168,2.471125499999997,0.0,-93928.0,0.0,0.0,0.0,0.0,0.125,2.923583685,2.486884999999998,0.0,175138.0,0.0,0.0,0.0,0.0,0.125,3.276366852,2.3449805060712E-15,0.0,-66268.0,0.125,0.0,0.0,0.0,0.25,1.5759275730000002,2.3533175408374518E-15,0.0,0.25999999046325684,-0.8100000023841858,-70.56999969482422,-0.02972412109375,-0.00347900390625,1.01953125,34.97999954223633,0.0,2.0,-11.011398315429688,1.0381927490234375,Waiting,0.0,0.0,-19187.0,0.0,0.0,0.0,0.0,0.0,
15.769297000000021,0.0,0.0,163501.0,0.0,0.0,0.0,0.0,0.25,3.242187168,2.471125499999997,0.0,-93928.0,0.0,0.0,0.0,0.0,0.125,2.924804388,2.486884999999998,0.0,175138.0,0.0,0.0,0.0,0.0,0.125,3.2751461490000002,2.3449805060712E-15,0.0,-66268.0,0.125,0.0,0.0,0.0,0.25,1.5771482760000002,2.3533175408374518E-15,0.0,0.2800000011920929,-0.800000011920929,-70.55999755859375,-0.01055908203125,4.2724609375E-4,1.01263427734375,35.0,0.0,5.0,-11.011398315429688,1.0381927490234375,Waiting,0.0,0.0,-19187.0,0.0,0.0,0.0,0.0,0.0,
15.929310999999988,0.0,0.0,163501.0,0.0,0.0,0.0,0.0,0.25,3.242187168,2.471125499999997,0.0,-93928.0,0.0,0.0,0.0,0.0,0.125,2.924804388,2.486884999999998,0.0,175138.0,0.0,0.0,0.0,0.0,0.125,3.276366852,2.3449805060712E-15,0.0,-66268.0,0.125,0.0,0.0,0.0,0.25,1.5759275730000002,2.3533175408374518E-15,0.0,0.28999999165534973,-0.8100000023841858,-70.55999755859375,-0.01153564453125,0.010986328125,1.02001953125,35.0,0.0,-4.0,-11.011398315429688,1.0381927490234375,Waiting,0.0,0.0,-19187.0,0.0,0.0,0.0,0.0,0.0,
16.091890000000014,0.0,0.0,163501.0,0.0,0.0,0.0,0.0,0.25,3.242187168,2.471125499999997,0.0,-93928.0,0.0,0.0,0.0,0.0,0.125,2.923583685,2.486884999999998,0.0,175138.0,0.0,0.0,0.0,0.0,0.125,3.2751461490000002,2.3449805060712E-15,0.0,-66268.0,0.125,0.0,0.0,0.0,0.25,1.5771482760000002,2.3533175408374518E-15,0.0,0.3100000023841858,-0.800000011920929,-70.55999755859375,-0.0189208984375,0.00689697265625,1.01226806640625,35.0,0.0,-2.0,-11.011398315429688,1.0381927490234375,Waiting,0.0,0.0,-19187.0,0.0,0.0,0.0,0.0,0.0,
16.253342999999994,0.0,0.0,163501.0,0.0,0.0,0.0,0.0,0.25,3.242187168,2.471125499999997,0.0,-93928.0,0.0,0.0,0.0,0.0,0.125,2.924804388,2.486884999999998,0.0,175138.0,0.0,0.0,0.0,0.0,0.125,3.276366852,2.3449805060712E-15,0.0,-66268.0,0.125,0.0,0.0,0.0,0.25,1.5759275730000002,2.3533175408374518E-15,0.0,0.3199999928474426,-0.8100000023841858,-70.55999755859375,-0.01605224609375,0.00457763671875,1.02117919921875,35.04999923706055,0.0,0.0,-11.011398315429688,1.0381927490234375,Waiting,0.0,0.0,-19187.0,0.0,0.0,0.0,0.0,0.0,
16.411477000000012,0.0,0.0,163501.0,0.0,0.0,0.0,0.0,0.25,3.240966465,2.471125499999997,0.0,-93928.0,0.0,0.0,0.0,0.0,0.125,2.923583685,2.486884999999998,0.0,175138.0,0.0,0.0,0.0,0.0,0.125,3.276366852,2.3449805060712E-15,0.0,-66268.0,0.125,0.0,0.0,0.0,0.25,1.5759275730000002,2.3533175408374518E-15,0.0,0.3199999928474426,-0.800000011920929,-70.55999755859375,-0.016357421875,0.00811767578125,1.02099609375,35.04999923706055,0.0,-2.0,-11.011398315429688,1.0381927490234375,Waiting,0.0,0.0,-19187.0,0.0,0.0,0.0,0.0,0.0,
16.573967000000003,0.0,0.0,163501.0,0.0,0.0,0.0,0.0,0.25,3.242187168,2.471125499999997,0.0,-93928.0,0.0,0.0,0.0,0.0,0.125,2.926025091,2.486884999999998,0.0,175138.0,0.0,0.0,0.0,0.0,0.125,3.2714840400000003,2.3449805060712E-15,0.0,-66268.0,0.125,0.0,0.0,0.0,0.25,1.5759275730000002,2.3533175408374518E-15,0.0,0.3400000035762787,-0.800000011920929,-70.55999755859375,-0.01220703125,0.01129150390625,1.01873779296875,35.04999923706055,0.0,-4.0,-11.011398315429688,1.0381927490234375,Waiting,0.0,0.0,-19187.0,0.0,0.0,0.0,0.0,0.0,
16.733377000000036,0.0,0.0,163501.0,0.0,0.0,0.0,0.0,0.25,3.242187168,2.471125499999997,0.0,-93928.0,0.0,0.0,0.0,0.0,0.125,2.924804388,2.486884999999998,0.0,175138.0,0.0,0.0,0.0,0.0,0.125,3.276366852,2.3449805060712E-15,0.0,-66268.0,0.125,0.0,0.0,0.0,0.25,1.5771482760000002,2.3533175408374518E-15,0.0,0.3400000035762787,-0.7900000214576721,-70.55000305175781,-0.0087890625,0.0064697265625,1.02301025390625,35.029998779296875,0.0,1.0,-11.011398315429688,1.0381927490234375,Waiting,0.0,0.0,-19187.0,0.0,0.0,0.0,0.0,0.0,
16.90323000000004,0.0,0.0,163501.0,0.0,0.0,0.0,0.0,0.25,3.242187168,2.471125499999997,0.0,-93928.0,0.0,0.0,0.0,0.0,0.125,2.924804388,2.486884999999998,0.0,175138.0,0.0,0.0,0.0,0.0,0.125,3.2751461490000002,2.3449805060712E-15,0.0,-66268.0,0.125,0.0,0.0,0.0,0.25,1.5759275730000002,2.3533175408374518E-15,0.0,0.3499999940395355,-0.800000011920929,-70.55999755859375,-0.01165771484375,0.00286865234375,1.01666259765625,35.029998779296875,0.0,4.0,-11.011398315429688,1.0381927490234375,Waiting,0.0,0.0,-19187.0,0.0,0.0,0.0,0.0,0.0,
17.066271999999998,0.0,0.0,163501.0,0.0,0.0,0.0,0.0,0.25,3.242187168,2.471125499999997,0.0,-93928.0,0.0,0.0,0.0,0.0,0.125,2.926025091,2.486884999999998,0.0,175138.0,0.0,0.0,0.0,0.0,0.125,3.2751461490000002,2.3449805060712E-15,0.0,-66268.0,0.125,0.0,0.0,0.0,0.25,1.5759275730000002,2.3533175408374518E-15,0.0,0.3700000047683716,-0.7900000214576721,-70.55999755859375,-0.01214599609375,0.0086669921875,1.02239990234375,35.029998779296875,0.0,-1.0,-11.011398315429688,1.0381927490234375,Waiting,0.0,0.0,-19187.0,0.0,0.0,0.0,0.0,0.0,
17.221862000000023,0.0,0.0,163501.0,0.0,0.0,0.0,0.0,0.25,3.243407871,2.471125499999997,0.0,-93928.0,0.0,0.0,0.0,0.0,0.125,2.924804388,2.486884999999998,0.0,175138.0,0.0,0.0,0.0,0.0,0.125,3.276366852,2.3449805060712E-15,0.0,-66268.0,0.125,0.0,0.0,0.0,0.25,1.5759275730000002,2.3533175408374518E-15,0.0,0.3799999952316284,-0.7900000214576721,-70.55000305175781,-0.01129150390625,0.00970458984375,1.0223388671875,35.0099983215332,0.0,-1.0,-11.011398315429688,1.0381927490234375,Waiting,0.0,0.0,-19187.0,0.0,0.0,0.0,0.0,0.0,
17.389863000000013,0.0,0.0,163501.0,0.0,0.0,0.0,0.0,0.25,3.240966465,2.471125499999997,0.0,-93928.0,0.0,0.0,0.0,0.0,0.125,2.924804388,2.486884999999998,0.0,175138.0,0.0,0.0,0.0,0.0,0.125,3.276366852,2.3449805060712E-15,0.0,-66268.0,0.125,0.0,0.0,0.0,0.25,1.5759275730000002,2.3533175408374518E-15,0.0,0.3799999952316284,-0.800000011920929,-70.55999755859375,-0.01397705078125,0.00775146484375,1.0224609375,35.0099983215332,0.0,0.0,-11.011398315429688,1.0381927490234375,Waiting,0.0,0.0,-19187.0,0.0,0.0,0.0,0.0,0.0,
17.55545300000004,0.0,0.0,163501.0,0.0,0.0,0.0,0.0,0.25,3.242187168,2.471125499999997,0.0,-93928.0,0.0,0.0,0.0,0.0,0.125,2.924804388,2.486884999999998,0.0,175138.0,0.0,0.0,0.0,0.0,0.125,3.2751461490000002,2.3449805060712E-15,0.0,-66268.0,0.125,0.0,0.0,0.0,0.25,1.5771482760000002,2.3533175408374518E-15,0.0,0.38999998569488525,-0.7900000214576721,-70.55000305175781,-0.01348876953125,0.00537109375,1.017333984375,35.0099983215332,0.0,1.0,-11.011398315429688,1.0381927490234375,Waiting,0.0,0.0,-19187.0,0.0,0.0,0.0,0.0,0.0,
17.73117100000003,0.0,0.0,163501.0,0.0,0.0,0.0,0.0,0.25,3.242187168,2.471125499999997,0.0,-93928.0,0.0,0.0,0.0,0.0,0.125,2.924804388,2.486884999999998,0.0,175138.0,0.0,0.0,0.0,0.0,0.125,3.2751461490000002,2.3449805060712E-15,0.0,-66268.0,0.125,0.0,0.0,0.0,0.25,1.5771482760000002,2.3533175408374518E-15,0.0,0.38999998569488525,-0.7900000214576721,-70.55000305175781,-0.014404296875,0.0054931640625,1.01324462890625,35.09000015258789,0.0,1.0,-11.011398315429688,1.0381927490234375,Waiting,0.0,0.0,-19187.0,0.0,0.0,0.0,0.0,0.0,
17.906274000000035,0.0,0.0,163501.0,0.0,0.0,0.0,0.0,0.25,3.243407871,2.471125499999997,0.0,-93928.0,0.0,0.0,0.0,0.0,0.125,2.924804388,2.486884999999998,0.0,175138.0,0.0,0.0,0.0,0.0,0.125,3.2751461490000002,2.3449805060712E-15,0.0,-66268.0,0.125,0.0,0.0,0.0,0.25,1.5771482760000002,2.3533175408374518E-15,0.0,0.38999998569488525,-0.7900000214576721,-70.55999755859375,-0.010498046875,0.01019287109375,1.01861572265625,35.09000015258789,0.0,-1.0,-11.011398315429688,1.0381927490234375,Waiting,0.0,0.0,-19187.0,0.0,0.0,0.0,0.0,0.0,
