Time,ClimberA1,ClimberA2,FRpos,FRCurrent,FRspeed,FRsetpoint,FRApos,FRACurrent,FREncpos,FREncSetpoint,FREncSpeed,FLpos,FLCurrent,FLspeed,FLsetpoint,FLApos,FLACurrent,FLEncpos,FLEncSetpoint,FLEncSpeed,BRpos,BRCurrent,BRspeed,BRsetpoint,BRApos,BRACurrent,BREncpos,BREncSetpoint,BREncSpeed,BLpos,BLCurrent,BLspeed,BLsetpoint,BLApos,BLACurrent,BLEncpos,BLEncSetpoint,BLEncSpeed,navx_Pitch,navx_Roll,navx_Yaw,navx_XAcc,navx_YAcc,navx_ZAcc,navx_Temp,navx_Bar,navx_Alt,navx_XDis,navx_YDis,GearPlacerState,ShootOutputV,ShootOutputCurrent,ShootEncPos,ShootEncVelocity,ShootSpeed,ShootSetpoint,CarouselSetpoint,CarouselCurrent,
0.17872299999999997,0.0,0.0,174585.0,0.0,-22.5,0.0,0.0,2.25,1.673583813,2.4,0.0,-100928.0,0.0,0.0,0.0,0.0,1.25,1.7358396660000002,2.4,0.0,184458.0,0.0,-60.0,0.0,0.0,1.625,4.544677269,2.4,0.0,-75956.0,0.125,-75.0,0.0,0.0,2.5,2.817382524,2.4,0.0,0.6899999976158142,-0.3700000047683716,0.009999999776482582,-0.04278564453125,-0.0189208984375,1.02410888671875,36.22999954223633,0.0,-36.0,-11.000762939453125,-0.44036865234375,Waiting,0.0,0.0,-19187.0,0.0,0.0,0.0,0.0,0.0,
0.2226199999999999,0.0,0.0,174580.0,0.0,-30.0,0.0,0.0,2.5,1.9177244130000002,0.0,0.988095519,-100928.0,0.0,0.0,-0.0,0.0,1.25,2.00195292,0.0,1.4182522329999996,184458.0,0.125,-52.5,0.0,0.0,1.625,4.8132319290000005,0.0,1.3972163210000001,-75956.0,0.125,-75.0,-0.0,0.0,5.25,3.026122737,0.0,1.26865205,0.6899999976158142,-0.33000001311302185,-0.009999999776482582,0.03955078125,-0.0074462890625,0.8043212890625,36.22999954223633,0.0,44.0,-11.000930786132812,-0.440185546875,Waiting,0.0,0.0,-19187.0,0.0,0.0,0.0,0.0,0.0,
0.24488400000000002,0.0,0.0,174580.0,0.0,-30.0,0.0,0.0,8.5,1.9177244130000002,0.0,0.988095519,-100928.0,0.0,0.0,-0.0,0.0,9.0,2.022704871,0.0,1.4182522329999996,184458.0,0.125,-37.5,0.0,0.0,1.5,4.837645989,0.0,1.3972163210000001,-75956.0,0.125,-67.5,-0.0,0.0,10.375,2.9479977450000003,0.0,1.26865205,0.6700000166893005,-0.3700000047683716,-0.07000000029802322,-0.06951904296875,-0.10791015625,1.01922607421875,36.22999954223633,0.0,-62.0,-11.001007080078125,-0.44024658203125,Waiting,0.0,0.0,-19187.0,0.0,0.0,0.0,0.0,0.0,
0.2686210000000001,0.0,0.0,174580.0,0.0,-22.5,0.0,0.0,9.5,1.778564271,0.0,0.05004882300000002,-100928.0,0.0,0.0,-0.0,0.0,10.25,1.905517383,0.0,0.13671873600000017,184454.0,0.125,-30.0,0.0,0.0,9.625,4.689940926,0.0,0.14404295399999967,-75963.0,0.125,-37.5,-0.0,0.0,10.625,2.7978512760000003,0.0,0.05859374399999995,0.6499999761581421,-0.3799999952316284,-0.11999999731779099,4.2724609375E-4,0.08355712890625,1.0810546875,36.22999954223633,0.0,7.0,-11.0013427734375,-0.440704345703125,Waiting,0.0,0.0,-19187.0,0.0,0.0,0.0,0.0,0.0,
0.30122299999999996,0.0,0.0,174580.0,0.0,-7.5,0.0,0.0,3.75,1.625976396,0.0,0.05004882300000002,-100928.0,0.0,0.0,-0.0,0.0,7.75,1.7663572410000001,0.0,0.13671873600000017,184454.0,0.0,-15.0,0.0,0.0,9.625,4.5056147730000005,0.0,0.14404295399999967,-75963.0,0.125,-15.0,-0.0,0.0,9.375,2.655029025,0.0,0.05859374399999995,0.6499999761581421,-0.4399999976158142,-0.14000000059604645,-0.04254150390625,-0.1162109375,1.05462646484375,36.22999954223633,0.0,-34.0,-11.001556396484375,-0.4409942626953125,Waiting,0.0,0.0,-19187.0,0.0,0.0,0.0,0.0,0.0,
0.3338460000000005,0.0,0.0,174580.0,0.0,0.0,0.0,0.0,1.625,1.389160014,0.0,-0.13671873599999995,-100928.0,0.0,0.0,-0.0,0.0,1.5,1.510009611,0.0,-0.09521483400000008,184454.0,0.0,-7.5,0.0,0.0,1.25,4.227294489,0.0,-0.15380857799999959,-75963.0,0.125,22.5,-0.0,0.0,1.25,2.366943117,0.0,-0.13671873599999973,0.6800000071525574,-0.4399999976158142,-0.20999999344348907,0.01031494140625,0.0621337890625,0.89117431640625,36.22999954223633,0.0,17.0,-11.002288818359375,-0.4420318603515625,Waiting,0.0,0.0,-19187.0,0.0,0.0,0.0,0.0,0.0,
0.3678320000000003,0.0,0.0,174580.0,0.0,0.0,0.0,0.0,1.5,1.195068237,0.0,-0.4248046440000002,-100928.0,0.0,0.0,-0.0,0.0,1.125,1.278076041,0.0,-0.4614257340000001,184454.0,0.0,0.0,0.0,0.0,1.25,3.9868159980000004,0.0,-0.4858397940000003,-75951.0,0.125,60.0,-0.0,0.0,1.375,2.130126735,0.0,-0.4870604970000003,0.6499999761581421,-0.4699999988079071,-0.28999999165534973,0.05767822265625,0.01824951171875,1.0157470703125,36.22999954223633,0.0,66.0,-11.002487182617188,-0.442352294921875,Waiting,0.0,0.0,-19187.0,0.0,0.0,0.0,0.0,0.0,
0.3930829999999996,0.0,0.0,174580.0,0.0,0.0,0.0,0.0,1.25,1.07421864,0.0,-0.4248046440000002,-100928.0,0.0,0.0,-0.0,0.0,1.5,1.126708869,0.0,-0.4614257340000001,184454.0,0.0,0.0,0.0,0.0,1.375,3.8354488260000004,0.0,-0.4858397940000003,-75951.0,0.25,67.5,-0.0,0.0,1.25,2.0056150290000003,0.0,-0.4870604970000003,0.6700000166893005,-0.38999998569488525,-0.3700000047683716,0.03466796875,-0.06634521484375,1.01611328125,36.22999954223633,0.0,42.0,-11.002304077148438,-0.4423980712890625,Waiting,0.0,0.0,-19187.0,0.0,0.0,0.0,0.0,0.0,
0.41633700000000046,0.0,0.0,174580.0,0.0,0.0,0.0,0.0,1.0,0.991210836,0.0,-0.2490234119999999,-100928.0,0.0,0.0,-0.0,0.0,1.75,0.953369043,0.0,-0.35400386999999967,184454.0,0.0,0.0,0.0,0.0,1.25,3.64990197,0.0,-0.3527831669999997,-75951.0,0.25,75.0,-0.0,0.0,1.0,1.881103323,0.0,-0.313720671,0.6800000071525574,-0.4000000059604645,-0.4000000059604645,-0.0794677734375,-0.02862548828125,0.9453125,36.22999954223633,0.0,-72.0,-11.002182006835938,-0.4425201416015625,Waiting,0.0,0.0,-19187.0,0.0,0.0,0.0,0.0,0.0,
0.4470429999999997,0.0,0.0,174580.0,0.0,0.0,0.0,0.0,0.625,0.938720607,0.0,-0.2490234119999999,-100928.0,0.0,0.0,-0.0,0.0,1.5,0.8276366340000001,0.0,-0.35400386999999967,184454.0,0.0,0.0,0.0,0.0,1.0,3.5266109670000003,0.0,-0.3527831669999997,-75951.0,0.25,75.0,-0.0,0.0,0.625,1.8127439550000002,0.0,-0.313720671,0.6800000071525574,-0.41999998688697815,-0.4399999976158142,-0.026611328125,0.0712890625,1.094482421875,36.22999954223633,0.0,-18.0,-11.002044677734375,-0.4426727294921875,Waiting,0.0,0.0,-19187.0,0.0,0.0,0.0,0.0,0.0,
0.4678100000000004,0.0,0.0,174580.0,0.0,0.0,0.0,0.0,0.5,0.9216307650000001,0.0,-0.10742186400000009,-100928.0,0.0,0.0,-0.0,0.0,1.125,0.709228443,0.0,-0.29174801700000064,184454.0,0.0,0.0,0.0,0.0,0.625,3.4167476970000004,0.0,-0.3039550470000001,-75951.0,0.25,67.5,-0.0,0.0,0.625,1.7419431810000001,0.0,-0.1965331829999999,0.6899999976158142,-0.4399999976158142,-0.4300000071525574,-0.01947021484375,-0.01312255859375,0.940673828125,36.22999954223633,0.0,-12.0,-11.002044677734375,-0.4425811767578125,Waiting,0.0,0.0,-19187.0,0.0,0.0,0.0,0.0,0.0,
0.49326599999999965,0.0,0.0,174580.0,0.0,0.0,0.0,0.0,0.375,0.9057616260000001,0.0,-0.10742186400000009,-100928.0,0.0,0.0,-0.0,0.0,0.5,0.617675718,0.0,-0.29174801700000064,184454.0,0.0,7.5,0.0,0.0,0.25,3.348388329,0.0,-0.3039550470000001,-75944.0,0.25,45.0,-0.0,0.0,0.5,1.7114256060000002,0.0,-0.1965331829999999,0.6899999976158142,-0.4399999976158142,-0.41999998688697815,-0.03375244140625,-0.00762939453125,1.09173583984375,36.22999954223633,0.0,-25.0,-11.0020751953125,-0.4425506591796875,Waiting,0.0,0.0,-19187.0,0.0,0.0,0.0,0.0,0.0,
0.524442,0.0,0.0,174580.0,0.0,0.0,0.0,0.0,0.375,0.9228514680000001,0.0,-0.024414059999999904,-100928.0,0.0,0.0,-0.0,0.0,0.5,0.560302677,0.0,-0.1818847469999998,184457.0,0.0,15.0,0.0,0.0,0.25,3.3105465360000004,0.0,-0.15136717200000005,-75944.0,0.25,37.5,-0.0,0.0,0.5,1.69677717,0.0,-0.08178710099999997,0.6800000071525574,-0.4699999988079071,-0.38999998569488525,-0.0169677734375,-0.01800537109375,1.05548095703125,36.22999954223633,0.0,-8.0,-11.002212524414062,-0.4425506591796875,Waiting,0.0,0.0,-19187.0,0.0,0.0,0.0,0.0,0.0,
0.5464769999999999,0.0,0.0,174580.0,0.0,0.0,0.0,0.0,0.375,0.9069823290000001,0.0,-0.024414059999999904,-100928.0,0.0,0.0,-0.0,0.0,0.25,0.52490229,0.0,-0.1818847469999998,184457.0,0.0,22.5,0.0,0.0,0.125,3.2958981,0.0,-0.15136717200000005,-75944.0,0.25,30.0,-0.0,0.0,0.5,1.691894358,0.0,-0.08178710099999997,0.6700000166893005,-0.44999998807907104,-0.3799999952316284,0.002685546875,-0.0018310546875,0.98944091796875,36.22999954223633,0.0,10.0,-11.002212524414062,-0.442596435546875,Waiting,0.0,0.0,-19187.0,0.0,0.0,0.0,0.0,0.0,
0.5840069999999996,0.0,0.0,174580.0,0.0,0.0,0.0,0.0,0.375,0.9069823290000001,0.0,0.0012207029999999897,-100928.0,0.0,0.0,-0.0,0.0,0.25,0.5017089330000001,0.0,-0.05493163499999998,184457.0,0.0,22.5,0.0,0.0,0.125,3.284911773,0.0,-0.03906249600000011,-75944.0,0.125,15.0,-0.0,0.0,0.5,1.693115061,0.0,-0.014648436000000098,0.6499999761581421,-0.46000000834465027,-0.4000000059604645,-0.00396728515625,0.01544189453125,1.00067138671875,36.22999954223633,0.0,4.0,-11.002044677734375,-0.442657470703125,Waiting,0.0,0.0,-19187.0,0.0,0.0,0.0,0.0,0.0,
0.6087319999999999,0.0,0.0,174580.0,0.0,0.0,0.0,0.0,0.375,0.9057616260000001,0.0,0.0012207029999999897,-100928.0,0.0,0.0,-0.0,0.0,0.25,0.496826121,0.0,-0.05493163499999998,184457.0,0.0,15.0,0.0,0.0,0.125,3.286132476,0.0,-0.03906249600000011,-75944.0,0.125,7.5,-0.0,0.0,0.5,1.693115061,0.0,-0.003662108999999969,0.6700000166893005,-0.44999998807907104,-0.4000000059604645,-0.00457763671875,0.03314208984375,1.02886962890625,36.22999954223633,0.0,3.0,-11.002044677734375,-0.4426422119140625,Waiting,0.0,0.0,-19187.0,0.0,0.0,0.0,0.0,0.0,
0.634393,0.0,0.0,174580.0,0.0,0.0,0.0,0.0,0.375,0.9069823290000001,0.0,-0.0012207029999999897,-100928.0,0.0,0.0,-0.0,0.0,0.25,0.49194330900000005,0.0,-0.04638671399999961,184458.0,0.0,0.0,0.0,0.0,0.125,3.286132476,0.0,-0.019531247999999835,-75943.0,0.125,0.0,-0.0,0.0,0.5,1.693115061,0.0,-0.003662108999999969,0.6899999976158142,-0.4399999976158142,-0.4000000059604645,-5.4931640625E-4,0.00860595703125,0.99853515625,36.22999954223633,0.0,7.0,-11.002044677734375,-0.442535400390625,Waiting,0.0,0.0,-19187.0,0.0,0.0,0.0,0.0,0.0,
0.6598059999999996,0.0,0.0,174580.0,0.0,0.0,0.0,0.0,0.375,0.902099517,0.0,-0.0012207029999999897,-100928.0,0.0,0.0,-0.0,0.0,0.25,0.490722606,0.0,-0.04638671399999961,184458.0,0.0,0.0,0.0,0.0,0.125,3.287353179,0.0,-0.019531247999999835,-75943.0,0.125,0.0,-0.0,0.0,0.5,1.693115061,0.0,-0.0012207029999999897,0.6800000071525574,-0.4099999964237213,-0.3799999952316284,0.013427734375,0.0111083984375,1.03582763671875,36.22999954223633,0.0,20.0,-11.001983642578125,-0.442535400390625,Waiting,0.0,0.0,-19187.0,0.0,0.0,0.0,0.0,0.0,
0.6876779999999999,0.0,0.0,174580.0,0.0,0.0,0.0,0.0,0.375,0.902099517,0.0,0.0,-100928.0,0.0,0.0,-0.0,0.0,0.25,0.490722606,0.0,-0.004882811999999959,184458.0,0.0,0.0,0.0,0.0,0.125,3.284911773,0.0,0.0,-75943.0,0.125,0.0,-0.0,0.0,0.5,1.691894358,0.0,-0.0012207029999999897,0.6800000071525574,-0.4000000059604645,-0.3700000047683716,0.005615234375,-4.8828125E-4,1.01617431640625,36.22999954223633,0.0,12.0,-11.001907348632812,-0.442535400390625,Waiting,0.0,0.0,-19187.0,0.0,0.0,0.0,0.0,0.0,
0.7089300000000003,0.0,0.0,174580.0,0.0,0.0,0.0,0.0,0.375,0.902099517,0.0,0.0,-100928.0,0.0,0.0,-0.0,0.0,0.25,0.490722606,0.0,-0.004882811999999959,184458.0,0.0,0.0,0.0,0.0,0.125,3.284911773,0.0,0.0,-75943.0,0.125,0.0,-0.0,0.0,0.5,1.693115061,0.0,0.0,0.6700000166893005,-0.38999998569488525,-0.3799999952316284,0.00592041015625,0.00958251953125,1.02349853515625,36.22999954223633,0.0,12.0,-11.001907348632812,-0.442535400390625,Waiting,0.0,0.0,-19187.0,0.0,0.0,0.0,0.0,0.0,
0.7395630000000001,0.0,0.0,174580.0,0.0,0.0,0.0,0.0,0.375,0.902099517,0.0,-0.00366210900000008,-100928.0,0.0,0.0,-0.0,0.0,0.25,0.49194330900000005,0.0,0.0,184458.0,0.0,0.0,0.0,0.0,0.125,3.284911773,0.0,0.0,-75943.0,0.125,0.0,-0.0,0.0,0.5,1.693115061,0.0,0.0,0.6700000166893005,-0.3799999952316284,-0.3799999952316284,-0.0111083984375,0.02349853515625,0.9981689453125,36.22999954223633,0.0,-4.0,-11.001907348632812,-0.442535400390625,Waiting,0.0,0.0,-19187.0,0.0,0.0,0.0,0.0,0.0,
0.762058,0.0,0.0,174580.0,0.0,0.0,0.0,0.0,0.375,0.900878814,0.0,-0.00366210900000008,-100928.0,0.0,0.0,-0.0,0.0,0.25,0.49194330900000005,0.0,0.0,184458.0,0.0,0.0,0.0,0.0,0.125,3.286132476,0.0,0.0,-75943.0,0.125,0.0,-0.0,0.0,0.5,1.693115061,0.0,0.0,0.6800000071525574,-0.38999998569488525,-0.38999998569488525,-0.0086669921875,0.01031494140625,1.0252685546875,36.22999954223633,0.0,-1.0,-11.001907348632812,-0.442535400390625,Waiting,0.0,0.0,-19187.0,0.0,0.0,0.0,0.0,0.0,
0.7862240000000001,0.0,0.0,174580.0,0.0,0.0,0.0,0.0,0.375,0.90332022,0.0,-0.0012207029999999897,-100928.0,0.0,0.0,-0.0,0.0,0.25,0.49316401200000004,0.0,0.0,184458.0,0.0,0.0,0.0,0.0,0.125,3.286132476,0.0,0.0,-75943.0,0.125,0.0,-0.0,0.0,0.5,1.691894358,0.0,0.0,0.6899999976158142,-0.38999998569488525,-0.4000000059604645,-0.0172119140625,0.00457763671875,1.0303955078125,36.22999954223633,0.0,-9.0,-11.001907348632812,-0.442535400390625,Waiting,0.0,0.0,-19187.0,0.0,0.0,0.0,0.0,0.0,
0.806768,0.0,0.0,174580.0,0.0,0.0,0.0,0.0,0.375,0.902099517,0.0,-0.0012207029999999897,-100928.0,0.0,0.0,-0.0,0.0,0.25,0.490722606,0.0,0.0,184458.0,0.0,0.0,0.0,0.0,0.125,3.286132476,0.0,0.0,-75943.0,0.125,0.0,-0.0,0.0,0.5,1.693115061,0.0,0.0,0.6800000071525574,-0.4000000059604645,-0.38999998569488525,-0.01202392578125,0.0028076171875,0.98797607421875,36.22999954223633,0.0,-4.0,-11.001907348632812,-0.442535400390625,Waiting,0.0,0.0,-19187.0,0.0,0.0,0.0,0.0,0.0,
0.8431289999999999,0.0,0.0,174580.0,0.0,0.0,0.0,0.0,0.375,0.900878814,0.0,0.0,-100928.0,0.0,0.0,-0.0,0.0,0.25,0.49194330900000005,0.0,0.0,184458.0,0.0,0.0,0.0,0.0,0.125,3.284911773,0.0,0.0,-75943.0,0.125,0.0,-0.0,0.0,0.5,1.693115061,0.0,0.0,0.6600000262260437,-0.41999998688697815,-0.3799999952316284,-0.01324462890625,0.009033203125,1.020263671875,36.22999954223633,0.0,-5.0,-11.001907348632812,-0.442535400390625,Waiting,0.0,0.0,-19187.0,0.0,0.0,0.0,0.0,0.0,
0.8663310000000002,0.0,0.0,174580.0,0.0,0.0,0.0,0.0,0.375,0.900878814,0.0,0.0,-100928.0,0.0,0.0,-0.0,0.0,0.25,0.49194330900000005,0.0,0.0,184458.0,0.0,0.0,0.0,0.0,0.125,3.286132476,0.0,0.0,-75943.0,0.125,0.0,-0.0,0.0,0.5,1.693115061,0.0,0.0,0.6700000166893005,-0.41999998688697815,-0.3799999952316284,-0.006103515625,0.02093505859375,1.025634765625,36.22999954223633,0.0,1.0,-11.001907348632812,-0.442535400390625,Waiting,0.0,0.0,-19187.0,0.0,0.0,0.0,0.0,0.0,
0.9043710000000001,0.0,0.0,174580.0,0.0,0.0,0.0,0.0,0.375,0.902099517,0.0,0.0,-100928.0,0.0,0.0,-0.0,0.0,0.25,0.49194330900000005,0.0,0.0,184458.0,0.0,0.0,0.0,0.0,0.125,3.286132476,0.0,0.0,-75943.0,0.125,0.0,-0.0,0.0,0.5,1.693115061,0.0,0.0,0.6899999976158142,-0.41999998688697815,-0.38999998569488525,-9.1552734375E-4,0.01385498046875,1.02142333984375,36.22999954223633,0.0,6.0,-11.001907348632812,-0.442535400390625,Waiting,0.0,0.0,-19187.0,0.0,0.0,0.0,0.0,0.0,
0.9277550000000001,0.0,0.0,174580.0,0.0,0.0,0.0,0.0,0.375,0.900878814,0.0,0.0,-100928.0,0.0,0.0,-0.0,0.0,0.25,0.48706049700000004,0.0,0.0,184458.0,0.0,0.0,0.0,0.0,0.125,3.286132476,0.0,0.0,-75943.0,0.125,0.0,-0.0,0.0,0.25,1.693115061,0.0,0.0,0.6899999976158142,-0.41999998688697815,-0.38999998569488525,0.0020751953125,0.00970458984375,1.00714111328125,36.22999954223633,0.0,9.0,-11.001907348632812,-0.442535400390625,Waiting,0.0,0.0,-19187.0,0.0,0.0,0.0,0.0,0.0,
0.9466860000000006,0.0,0.0,174580.0,0.0,0.0,0.0,0.0,0.375,0.902099517,0.0,0.0,-100928.0,0.0,0.0,-0.0,0.0,0.25,0.48706049700000004,0.0,0.0,184458.0,0.0,0.0,0.0,0.0,0.125,3.286132476,0.0,0.0,-75943.0,0.125,0.0,-0.0,0.0,0.25,1.693115061,0.0,0.0,0.6800000071525574,-0.4099999964237213,-0.38999998569488525,-0.00738525390625,0.0045166015625,1.021728515625,36.22999954223633,0.0,0.0,-11.001907348632812,-0.442535400390625,Waiting,0.0,0.0,-19187.0,0.0,0.0,0.0,0.0,0.0,
0.9664790000000003,0.0,0.0,174580.0,0.0,0.0,0.0,0.0,0.375,0.902099517,0.0,0.0,-100928.0,0.0,0.0,-0.0,0.0,0.25,0.49194330900000005,0.0,0.0,184458.0,0.0,0.0,0.0,0.0,0.125,3.284911773,0.0,0.0,-75943.0,0.125,0.0,-0.0,0.0,0.25,1.693115061,0.0,0.0,0.6700000166893005,-0.4000000059604645,-0.38999998569488525,-0.00457763671875,0.00799560546875,1.01812744140625,36.22999954223633,0.0,2.0,-11.001907348632812,-0.442535400390625,Waiting,0.0,0.0,-19187.0,0.0,0.0,0.0,0.0,0.0,
0.9883589999999994,0.0,0.0,174580.0,0.0,0.0,0.0,0.0,0.375,0.902099517,0.0,0.0012207029999999897,-100928.0,0.0,0.0,-0.0,0.0,0.25,0.49194330900000005,0.0,0.0,184458.0,0.0,0.0,0.0,0.0,0.125,3.286132476,0.0,0.0,-75943.0,0.125,0.0,-0.0,0.0,0.5,1.693115061,0.0,0.0,0.6700000166893005,-0.4000000059604645,-0.3799999952316284,-0.0015869140625,0.0128173828125,1.01519775390625,36.22999954223633,0.0,5.0,-11.001907348632812,-0.442535400390625,Waiting,0.0,0.0,-19187.0,0.0,0.0,0.0,0.0,0.0,
1.0072169999999996,0.0,0.0,174580.0,0.0,0.0,0.0,0.0,0.375,0.902099517,0.0,0.0012207029999999897,-100928.0,0.0,0.0,-0.0,0.0,0.25,0.49194330900000005,0.0,0.0,184458.0,0.0,0.0,0.0,0.0,0.125,3.286132476,0.0,0.0,-75943.0,0.125,0.0,-0.0,0.0,0.5,1.691894358,0.0,0.0,0.6700000166893005,-0.4000000059604645,-0.3799999952316284,-0.00543212890625,0.014892578125,1.02301025390625,36.22999954223633,0.0,0.0,-11.001907348632812,-0.442535400390625,Waiting,0.0,0.0,-19187.0,0.0,0.0,0.0,0.0,0.0,
1.0290839999999999,0.0,0.0,174580.0,0.0,0.0,0.0,0.0,0.375,0.902099517,0.0,-0.0012207029999999897,-100928.0,0.0,0.0,-0.0,0.0,0.25,0.490722606,0.0,-4.9749907030000005,184458.0,0.0,0.0,0.0,0.0,0.125,3.286132476,0.0,0.0,-75943.0,0.125,0.0,-0.0,0.0,0.5,1.694335764,0.0,0.0,0.6800000071525574,-0.4000000059604645,-0.3799999952316284,-0.00347900390625,0.0194091796875,1.0196533203125,36.22999954223633,0.0,3.0,-11.001907348632812,-0.442535400390625,Waiting,0.0,0.0,-19187.0,0.0,0.0,0.0,0.0,0.0,
1.049455000000001,0.0,0.0,174580.0,0.0,0.0,0.0,0.0,0.375,0.902099517,0.0,-0.0012207029999999897,-100928.0,0.0,0.0,-0.0,0.0,0.25,0.490722606,0.0,-4.9749907030000005,184458.0,0.0,0.0,0.0,0.0,0.125,3.281249664,0.0,0.0,-75943.0,0.125,0.0,-0.0,0.0,0.25,1.693115061,0.0,0.0,0.6800000071525574,-0.4000000059604645,-0.38999998569488525,-0.012451171875,0.0113525390625,1.01641845703125,36.22999954223633,0.0,-5.0,-11.001907348632812,-0.442535400390625,Waiting,0.0,0.0,-19187.0,0.0,0.0,0.0,0.0,0.0,
1.0686909999999998,0.0,0.0,174580.0,0.0,0.0,0.0,0.0,0.375,0.902099517,0.0,-0.0012207029999999897,-100928.0,0.0,0.0,-0.0,0.0,0.25,0.484619091,0.0,4.9725492970000005,184458.0,0.0,0.0,0.0,0.0,0.125,3.287353179,0.0,0.0,-75943.0,0.125,0.0,-0.0,0.0,0.25,1.693115061,0.0,0.0,0.6700000166893005,-0.4099999964237213,-0.38999998569488525,-0.01007080078125,0.00811767578125,1.02313232421875,36.22999954223633,0.0,-2.0,-11.001907348632812,-0.442535400390625,Waiting,0.0,0.0,-19187.0,0.0,0.0,0.0,0.0,0.0,
1.0913740000000007,0.0,0.0,174580.0,0.0,0.0,0.0,0.0,0.375,0.902099517,0.0,0.0,-100928.0,0.0,0.0,-0.0,0.0,0.25,0.48706049700000004,0.0,4.9725492970000005,184458.0,0.0,0.0,0.0,0.0,0.125,3.286132476,0.0,0.0,-75943.0,0.125,0.0,-0.0,0.0,0.25,1.693115061,0.0,0.0,0.6700000166893005,-0.4099999964237213,-0.38999998569488525,-0.008544921875,0.00238037109375,1.01715087890625,36.22999954223633,0.0,-1.0,-11.001907348632812,-0.442535400390625,Waiting,0.0,0.0,-19187.0,0.0,0.0,0.0,0.0,0.0,
1.1108699999999998,0.0,0.0,174580.0,0.0,0.0,-132.28346407413483,0.0,0.375,0.902099517,4.936896894946389,0.0,-100928.0,0.0,0.0,132.28346407413483,0.0,0.25,0.49194330900000005,4.968381749364309,0.0,184458.0,0.0,0.0,-132.28346407413483,0.0,0.125,3.28369107,4.945037066863381,0.0,-75943.0,0.25,0.0,132.28346407413483,0.0,0.25,1.693115061,4.962618000197413,0.0,0.6700000166893005,-0.4099999964237213,-0.38999998569488525,-0.0062255859375,0.00897216796875,1.01861572265625,36.22999954223633,0.0,1.0,-11.001907348632812,-0.442535400390625,Waiting,0.0,0.0,-19187.0,0.0,0.0,0.0,0.0,0.0,
1.1323399999999992,0.0,0.0,174580.0,0.125,0.0,-717.5533353197551,0.0,0.375,0.8972167050000001,4.736919288321383,0.0,-100928.0,0.0,0.0,717.5533353197551,0.0,0.25,0.489501903,4.767128793878387,0.0024414059999999793,184458.0,0.125,0.0,-717.5533353197551,0.0,0.125,3.286132476,4.7447297283982905,0.0,-75943.0,0.375,0.0,717.5533353197551,0.0,0.25,1.693115061,4.7615985154094025,0.0,0.6700000166893005,-0.4099999964237213,-0.38999998569488525,-0.0029296875,0.02001953125,1.0244140625,36.22999954223633,0.0,4.0,-11.001907348632812,-0.442535400390625,Waiting,0.0,0.0,-19187.0,0.0,0.0,0.0,0.0,0.0,
1.1516079999999993,0.0,0.0,174580.0,0.125,0.0,-1258.753546518557,0.0,0.375,0.902099517,4.750622591156504,0.0012207029999999897,-100928.0,0.5,0.0,1258.753546518557,0.0,0.25,0.48583979400000005,4.780919488956852,-0.003662109000000413,184458.0,0.375,0.0,-1258.753546518557,0.0,0.125,3.286132476,4.758455625839554,0.0,-75943.0,0.875,0.0,1258.753546518557,0.0,0.25,1.6870115460000001,4.775373212098195,0.0,0.6700000166893005,-0.4099999964237213,-0.38999998569488525,-0.009765625,0.024658203125,1.01824951171875,36.22999954223633,0.0,-2.0,-11.001907348632812,-0.442535400390625,Waiting,0.0,0.0,-19187.0,0.0,0.0,0.0,0.0,0.0,
1.1790399999999999,0.0,0.0,174567.0,3.125,-22.5,-1906.2253835868155,0.0,0.375,0.902099517,4.78015472951513,0.0,-100928.0,1.875,7.5,1906.2253835868155,0.0,0.25,0.48706049700000004,4.810639967298397,0.0,184458.0,1.25,0.0,-1906.2253835868155,0.0,0.125,3.292235991,4.788036458081894,0.0,-75943.0,3.0,7.5,1906.2253835868155,0.0,0.5,1.693115061,4.805059212134545,0.0,0.6700000166893005,-0.41999998688697815,-0.3799999952316284,-0.02764892578125,-0.02166748046875,1.01715087890625,36.22999954223633,0.0,-19.0,-11.001907348632812,-0.4425506591796875,Waiting,0.0,0.0,-19187.0,0.0,0.0,0.0,0.0,0.0,
1.1981709999999994,0.0,0.0,174567.0,8.125,-60.0,-2130.0342598138627,0.0,0.375,0.8972167050000001,4.772251054413147,0.0,-100928.0,5.875,52.5,2130.0342598138627,0.0,0.25,0.482177685,4.802685886837491,-0.003662108999999525,184458.0,4.375,0.0,-2130.0342598138627,0.0,0.125,3.276366852,4.780119751054093,0.0012207029999999897,-75943.0,5.5,37.5,2130.0342598138627,0.0,0.5,1.674804516,4.797114359089515,0.0,0.6299999952316284,-0.5199999809265137,-0.3700000047683716,-0.45758056640625,-0.18328857421875,1.16168212890625,36.22999954223633,0.0,-445.0,-11.002227783203125,-0.442718505859375,Waiting,0.0,0.0,-19187.0,0.0,0.0,0.0,0.0,0.0,
1.2241729999999997,0.0,0.0,174567.0,13.625,-105.0,-2149.6570402333946,0.0,0.5,0.872802645,4.7681864672275855,0.0,-100928.0,14.0,112.5,2149.6570402333946,0.0,0.25,0.46752924900000004,4.798595377916369,0.0,184434.0,7.125,-22.5,-2149.6570402333946,0.0,0.25,3.2617184160000003,4.7760484619990855,0.0,-75912.0,8.875,105.0,2149.6570402333946,0.0,0.5,1.6540525650000002,4.793028595509748,0.0,0.6100000143051147,-1.1200000047683716,-0.30000001192092896,-0.25787353515625,-0.4034423828125,1.04718017578125,36.22999954223633,0.0,-235.0,-11.00457763671875,-0.4432373046875,Waiting,0.0,0.0,-19187.0,0.0,0.0,0.0,0.0,0.0,
1.2457030000000004,0.0,0.0,174567.0,18.25,-150.0,-2149.6570402333946,0.0,0.5,0.8544921000000001,4.768735606113027,-0.019531247999999946,-100897.0,21.125,172.5,2149.6570402333946,0.0,0.5,0.457763625,4.79914801891219,-0.010986327000000351,184434.0,10.0,-75.0,-2149.6570402333946,0.0,0.25,3.250732089,4.776598506328782,-0.014648435999999876,-75912.0,13.0,172.5,2149.6570402333946,0.0,0.5,1.624755693,4.793580595394592,-0.028076168999999984,0.6100000143051147,-1.3300000429153442,-0.2800000011920929,-0.33941650390625,0.1177978515625,1.0843505859375,36.22999954223633,0.0,-314.0,-11.00634765625,-0.44378662109375,Waiting,0.0,0.0,-19187.0,0.0,0.0,0.0,0.0,0.0,
1.2651449999999995,0.0,0.0,174567.0,20.75,-187.5,-2149.6570402333946,0.0,0.625,0.8422850700000001,4.7692847454076075,-0.019531248000000057,-100897.0,26.5,225.0,2149.6570402333946,0.0,0.5,0.449218704,4.799700660319761,-0.010986327000000351,184434.0,12.375,-150.0,-2149.6570402333946,0.0,0.25,3.238525059,4.777148551068294,4.935751563999999,-75912.0,16.125,247.5,2149.6570402333946,0.0,0.5,1.6015623360000002,4.794132595690708,0.0,0.6499999761581421,-1.7400000095367432,-0.23999999463558197,-0.37451171875,-0.0576171875,1.1455078125,36.22999954223633,0.0,-339.0,-11.011367797851562,-0.4450225830078125,Waiting,0.0,0.0,-19187.0,0.0,0.0,0.0,0.0,0.0,
1.2876539999999996,0.0,0.0,174567.0,21.0,-232.5,-2149.657040233395,0.0,0.5,0.821533119,4.769559314850328,-0.023193357000000026,-100897.0,27.0,262.5,2149.657040233395,0.0,0.5,0.438232377,4.7999769808176715,-0.012207029999999897,184434.0,14.625,-240.0,-2149.657040233395,0.0,0.25,3.227538732,4.777423573233142,-0.013427732999999442,-75912.0,18.125,300.0,2149.657040233395,0.0,0.5,1.567382652,4.79440859563313,4.932599613,0.6399999856948853,-2.059999942779541,-0.2199999988079071,-0.40545654296875,0.22576904296875,1.34130859375,36.22999954223633,0.0,-357.0,-11.01458740234375,-0.44561767578125,Waiting,0.0,0.0,-19187.0,0.0,0.0,0.0,0.0,0.0,
1.306767999999999,0.0,0.0,174516.0,22.0,-277.5,-2149.657040233395,0.0,0.375,0.806884683,4.769833884293049,-0.014648435999999987,-100897.0,27.75,300.0,2149.657040233395,0.0,0.5,0.42846675300000003,4.800253301315582,-0.007324217999999938,184434.0,16.125,-315.0,-2149.657040233395,0.0,0.25,3.2177731080000003,4.77769859539799,-0.009765623999999917,-75912.0,18.75,345.0,2149.657040233395,0.0,0.25,1.5039060960000001,4.794684595575552,-0.030517574999999297,0.6700000166893005,-2.069999933242798,-0.20999999344348907,-0.26824951171875,0.0999755859375,0.65447998046875,36.22999954223633,0.0,-244.0,-11.018218994140625,-0.4459991455078125,Waiting,0.0,0.0,-19187.0,0.0,0.0,0.0,0.0,0.0,
1.3304820000000008,0.0,0.0,174516.0,22.375,-345.0,-2149.6570402333946,0.0,0.375,0.787353435,4.7701084537357685,0.0,-100897.0,28.75,345.0,2149.6570402333946,0.0,0.25,0.418701129,4.800529621813493,0.0,184434.0,17.375,-375.0,-2149.6570402333946,0.0,0.25,3.2031246720000004,4.777973617562838,-0.004882811999999959,-75842.0,20.375,412.5,2149.6570402333946,0.0,0.25,1.439208837,4.794960595517973,0.0,0.8500000238418579,-2.5199999809265137,-0.17000000178813934,-0.400634765625,0.0772705078125,1.2257080078125,36.209999084472656,0.0,-281.0,-11.03179931640625,-0.4472198486328125,Waiting,0.0,0.0,-19187.0,0.0,0.0,0.0,0.0,0.0,
1.3618059999999996,0.0,0.0,174516.0,23.375,-427.5,-2153.2226540354723,0.0,0.375,0.767822187,4.7654891170720655,-0.02075195100000027,-100806.0,31.375,510.0,2153.2226540354723,0.0,0.25,0.41503902000000004,4.795880825522526,-0.009765623999999917,184374.0,18.25,-367.5,-2153.2226540354723,0.0,0.25,3.199462563,4.773346664334442,-0.01586913900000031,-75842.0,20.875,487.5,2153.2226540354723,0.0,0.25,1.418456886,4.790317192229619,-0.03906249599999967,0.9100000262260437,-2.8399999141693115,-0.03999999910593033,-0.35272216796875,0.12274169921875,0.83319091796875,36.209999084472656,0.0,-310.0,-11.037185668945312,-0.447479248046875,Waiting,0.0,0.0,-19187.0,0.0,0.0,0.0,0.0,0.0,
1.3857310000000007,0.0,0.0,174516.0,24.0,-532.5,-2153.2226540354723,0.0,0.375,0.743408127,4.766450110326156,-0.012207029999999897,-100806.0,32.0,600.0,2153.2226540354723,0.0,0.25,0.40893550500000003,4.796847947471088,-0.003662108999999525,184374.0,18.75,-360.0,-2153.2226540354723,0.0,0.25,3.187255533,4.774309242116317,-0.009765623999999917,-75842.0,22.0,570.0,2153.2226540354723,0.0,0.25,1.412353371,4.79128319223373,-0.024414059999999793,0.9599999785423279,-3.0399999618530273,0.05000000074505806,-0.25872802734375,-0.11334228515625,1.058349609375,36.209999084472656,0.0,-202.0,-11.042922973632812,-0.4477386474609375,Waiting,0.0,0.0,-19187.0,0.0,0.0,0.0,0.0,0.0,
1.404942,0.0,0.0,174516.0,24.25,-630.0,-2153.2226540354727,0.0,0.375,0.7397460180000001,4.769058520645711,-0.010986327000000351,-100806.0,32.125,682.5,2153.2226540354727,0.0,0.25,0.404052693,4.799472992818863,-0.004882812000000847,184374.0,19.5,-360.0,-2153.2226540354727,0.0,0.25,3.182372721,4.776921953297097,-0.004882811999999959,-75842.0,24.125,637.5,2153.2226540354727,0.0,0.25,1.407470559,4.793905192303647,-0.004882811999999959,0.9399999976158142,-3.309999942779541,0.28999999165534973,-0.3294677734375,-0.0411376953125,1.11895751953125,36.209999084472656,0.0,-264.0,-11.055618286132812,-0.4482269287109375,Waiting,0.0,0.0,-19187.0,0.0,0.0,0.0,0.0,0.0,
1.4271670000000003,0.0,0.0,174375.0,23.375,-735.0,-2153.2226540354727,0.0,0.375,0.740966721,4.770980506949324,0.0,-100806.0,32.0,765.0,2153.2226540354727,0.0,0.25,0.405273396,4.801407236510112,0.0,184374.0,19.375,-390.0,-2153.2226540354727,0.0,0.25,3.178710612,4.778847108655942,0.0,-75842.0,24.25,697.5,2153.2226540354727,0.0,0.25,1.413574074,4.795837192106237,0.0,0.9100000262260437,-3.5899999141693115,0.4399999976158142,-0.25372314453125,0.1251220703125,1.0364990234375,36.209999084472656,0.0,-187.0,-11.0625,-0.4484100341796875,Waiting,0.0,0.0,-19187.0,0.0,0.0,0.0,0.0,0.0,
1.4461369999999998,0.0,0.0,174375.0,23.0,-832.5,-2153.222654035472,0.0,0.25,0.734863206,4.773039778281152,-0.004882811999999959,-100806.0,32.625,840.0,2153.222654035472,0.0,0.25,0.399169881,4.80347964075913,-0.004882811999999959,184374.0,19.0,-450.0,-2153.222654035472,0.0,0.125,3.1738278,4.780909775404572,-0.007324217999999938,-75842.0,24.25,772.5,2153.222654035472,0.0,0.125,1.407470559,4.797907192188492,0.0024414060000008675,0.9200000166893005,-3.6700000762939453,0.6200000047683716,-0.23583984375,0.24517822265625,1.0250244140625,36.209999084472656,0.0,-167.0,-11.069625854492188,-0.4483642578125,Waiting,0.0,0.0,-19187.0,0.0,0.0,0.0,0.0,0.0,
1.4660590000000002,0.0,0.0,174375.0,22.5,-930.0,-2153.2226540354727,0.0,0.25,0.728759691,4.777707459421108,-0.004882811999999959,-100806.0,32.625,915.0,2153.2226540354727,0.0,0.25,0.39428706900000005,4.808177089841233,0.0,184265.0,18.0,-547.5,-2153.2226540354727,0.0,0.125,3.1689449880000002,4.785585152821711,0.0,-75700.0,24.375,847.5,2153.2226540354727,0.0,0.125,1.413574074,4.802599191826571,0.0,1.190000057220459,-3.869999885559082,0.9300000071525574,-0.16986083984375,0.0980224609375,1.021240234375,36.209999084472656,0.0,-99.0,-11.084793090820312,-0.4471435546875,Waiting,0.0,0.0,-19187.0,0.0,0.0,0.0,0.0,0.0,
1.4884190000000008,0.0,0.0,174375.0,22.375,-1020.0,-2153.2226540354723,0.0,0.25,0.7238768790000001,4.779766731162078,-0.009765623999999917,-100643.0,32.625,990.0,2153.2226540354723,0.0,0.25,0.393066366,4.810249494502001,-0.004882811999999959,184265.0,17.25,-652.5,-2153.2226540354723,0.0,0.125,3.1689449880000002,4.787647819980157,-0.004882811999999959,-75700.0,23.875,930.0,2153.2226540354723,0.0,0.25,1.402587747,4.804669192320099,0.004882811999999959,1.1399999856948853,-3.950000047683716,1.100000023841858,0.00775146484375,0.4854736328125,1.2030029296875,36.209999084472656,0.0,99.0,-11.092498779296875,-0.4460296630859375,Waiting,0.0,0.0,-19187.0,0.0,0.0,0.0,0.0,0.0,
1.5071770000000007,0.0,0.0,174375.0,21.625,-1102.5,-1287.1256518955997,0.0,0.375,0.7250975820000001,4.74653844365083,-0.004882812000000847,-100643.0,31.625,1065.0,1287.1256518955997,0.0,0.25,0.38940425700000003,4.776809294970488,0.0,184265.0,16.625,-757.5,-1287.1256518955997,0.0,0.125,3.1640621760000003,4.75436474421252,0.0,-75700.0,23.875,930.0,1287.1256518955997,0.0,0.25,1.4013670440000001,4.771267786289552,-0.004882811999999959,1.309999942779541,-4.050000190734863,1.2699999809265137,-0.3507080078125,0.07769775390625,1.532470703125,36.209999084472656,0.0,-240.0,-11.100311279296875,-0.4445648193359375,Waiting,0.0,0.0,-19187.0,0.0,0.0,0.0,0.0,0.0,
1.5287979999999999,0.0,0.0,174375.0,21.0,-1185.0,-1287.1256518955995,0.0,0.375,0.721435473,4.7487349991925925,0.0,-100643.0,30.125,1140.0,1287.1256518955995,0.0,0.25,0.384521445,4.779019858953773,0.0,184265.0,15.75,-847.5,-1287.1256518955995,0.0,0.125,3.1640621760000003,4.756564921531305,0.0,-75700.0,20.25,1095.0,1287.1256518955995,0.0,0.25,1.408691262,4.773475785828927,0.0,1.340000033378601,-4.150000095367432,1.600000023841858,-0.27581787109375,0.302978515625,0.27825927734375,36.209999084472656,0.0,-246.0,-11.116867065429688,-0.440887451171875,Waiting,0.0,0.0,-19187.0,0.0,0.0,0.0,0.0,0.0,
1.5517830000000004,0.0,0.0,174162.0,17.75,-1260.0,0.0,0.0,0.375,0.715331958,4.7487349991925925,0.0,-100643.0,26.25,1207.5,0.0,0.0,0.25,0.37597652400000003,4.779019858953773,0.0,184265.0,15.5,-915.0,0.0,0.0,0.125,3.1604000670000003,4.756564921531305,0.0,-75700.0,16.375,1155.0,0.0,0.0,0.125,1.40380845,4.773475785828927,0.0,1.4199999570846558,-4.449999809265137,1.9600000381469727,-0.3348388671875,-0.1337890625,1.30975341796875,36.209999084472656,0.0,-237.0,-11.134933471679688,-0.4361724853515625,Waiting,0.0,0.0,-19187.0,0.0,0.0,0.0,0.0,0.0,
1.5712439999999996,0.0,0.0,174162.0,11.875,-1380.0,0.0,0.0,0.375,0.7006835220000001,4.7487349991925925,-0.008544920999999484,-100643.0,18.625,1260.0,0.0,0.0,0.25,0.35644527600000003,4.779019858953773,-0.019531247999999835,184265.0,10.75,-952.5,0.0,0.0,0.125,3.144530928,4.756564921531305,-0.009765623999999917,-75525.0,8.625,1170.0,0.0,0.0,0.125,1.408691262,4.773475785828927,0.0,1.3799999952316284,-4.559999942779541,2.1600000858306885,-0.05230712890625,0.24017333984375,0.966796875,36.209999084472656,0.0,33.0,-11.144287109375,-0.4337615966796875,Waiting,0.0,0.0,-19187.0,0.0,0.0,0.0,0.0,0.0,
1.5939270000000005,0.0,0.0,174162.0,6.375,-1380.0,0.0,0.0,0.375,0.689697195,4.7487349991925925,-0.008544920999999484,-100444.0,9.625,1282.5,0.0,0.0,0.25,0.344238246,4.779019858953773,-0.019531247999999835,184101.0,7.25,-990.0,0.0,0.0,0.125,3.135986007,4.756564921531305,-0.009765623999999917,-75525.0,4.25,1132.5,0.0,0.0,0.125,1.408691262,4.773475785828927,0.0,1.4199999570846558,-4.360000133514404,2.359999895095825,0.08270263671875,-0.11962890625,0.890625,36.209999084472656,0.0,144.0,-11.153533935546875,-0.4313201904296875,Waiting,0.0,0.0,-19187.0,0.0,0.0,0.0,0.0,0.0,
1.6131259999999994,0.0,0.0,174162.0,2.75,-1395.0,0.0,0.0,0.25,0.681152274,4.7487349991925925,-0.008544920999999484,-100444.0,3.25,1252.5,0.0,0.0,0.25,0.32226559200000005,4.779019858953773,-0.019531247999999835,184101.0,3.25,-1020.0,0.0,0.0,0.125,3.1176754620000002,4.756564921531305,-0.024414059999999793,-75525.0,0.125,1087.5,0.0,0.0,0.125,1.408691262,4.773475785828927,0.0,1.5299999713897705,-3.940000057220459,2.869999885559082,-0.06884765625,0.00872802734375,1.1710205078125,36.209999084472656,0.0,10.0,-11.171173095703125,-0.425750732421875,Waiting,0.0,0.0,-19187.0,0.0,0.0,0.0,0.0,0.0,
1.6489229999999997,0.0,0.0,174162.0,0.0,-1305.0,0.0,0.0,0.25,0.662841729,4.7487349991925925,-0.025634763000000227,-100444.0,0.0,1072.5,0.0,0.0,0.25,0.312499968,4.779019858953773,-0.03417968399999971,184101.0,0.0,-1065.0,0.0,0.0,0.125,3.1005856200000004,4.756564921531305,-0.024414059999999793,-75525.0,0.125,1080.0,0.0,0.0,0.125,1.408691262,4.773475785828927,0.0,1.7200000286102295,-3.4200000762939453,3.5399999618530273,0.0693359375,0.03326416015625,1.163818359375,36.209999084472656,0.0,138.0,-11.195083618164062,-0.415557861328125,Waiting,0.0,0.0,-19187.0,0.0,0.0,0.0,0.0,0.0,
1.6678030000000008,0.0,0.0,173957.0,0.0,-1252.5,0.0,0.0,0.25,0.6579589170000001,4.7487349991925925,-0.025634763000000227,-100444.0,0.0,1072.5,0.0,0.0,0.25,0.30395504700000003,4.779019858953773,-0.03417968399999971,184101.0,0.0,-1087.5,0.0,0.0,0.125,3.095702808,4.756564921531305,-0.030517574999999297,-75525.0,0.125,1080.0,0.0,0.0,0.125,1.409911965,4.773475785828927,0.0,1.7999999523162842,-3.3299999237060547,3.6700000762939453,0.42755126953125,-0.2618408203125,1.21697998046875,36.209999084472656,0.0,477.0,-11.202392578125,-0.412139892578125,Waiting,0.0,0.0,-19187.0,0.0,0.0,0.0,0.0,0.0,
1.6904319999999997,0.0,0.0,173957.0,0.0,-1237.5,0.0,0.0,0.25,0.653076105,4.7487349991925925,-0.024414059999999793,-100444.0,0.0,1005.0,0.0,0.0,0.25,0.29296872,4.779019858953773,-0.023193357000000248,184101.0,0.0,-1110.0,0.0,0.0,0.125,3.085937184,4.756564921531305,-0.030517574999999297,-75342.0,0.125,1080.0,0.0,0.0,0.125,1.412353371,4.773475785828927,0.0,1.75,-3.2300000190734863,3.7899999618530273,0.19775390625,0.28857421875,0.8240966796875,36.209999084472656,0.0,260.0,-11.209182739257812,-0.408782958984375,Waiting,0.0,0.0,-19187.0,0.0,0.0,0.0,0.0,0.0,
1.7085700000000006,0.0,0.0,173957.0,0.0,-1252.5,0.0,0.0,0.25,0.6481932930000001,4.7487349991925925,-0.024414059999999793,-100281.0,0.0,997.5,0.0,0.0,0.25,0.29663082900000004,4.779019858953773,-0.023193357000000248,183914.0,0.0,-1110.0,0.0,0.0,0.125,3.085937184,4.756564921531305,-0.030517574999999297,-75342.0,0.125,1110.0,0.0,0.0,0.125,1.412353371,4.773475785828927,0.0,1.8700000047683716,-2.8499999046325684,3.9000000953674316,0.1314697265625,-0.04534912109375,1.201904296875,36.209999084472656,0.0,185.0,-11.215667724609375,-0.4053192138671875,Waiting,0.0,0.0,-19187.0,0.0,0.0,0.0,0.0,0.0,
1.730924,0.0,0.0,173957.0,0.0,-1290.0,0.0,0.0,0.25,0.643310481,4.7487349991925925,-0.01342773300000033,-100281.0,0.0,1020.0,0.0,0.0,0.25,0.29052731400000004,4.779019858953773,-0.019531247999999835,183914.0,0.0,-1162.5,0.0,0.0,0.125,3.081054372,4.756564921531305,-0.015869139000001198,-75342.0,0.125,1140.0,0.0,0.0,0.125,1.408691262,4.773475785828927,0.004882811999999959,1.7799999713897705,-2.930000066757202,4.099999904632568,0.0616455078125,-0.056640625,1.41943359375,36.209999084472656,0.0,126.0,-11.228073120117188,-0.3986358642578125,Waiting,0.0,0.0,-19187.0,0.0,0.0,0.0,0.0,0.0,
1.7490960000000004,0.0,0.0,173957.0,0.0,-1305.0,0.0,0.0,0.25,0.6445311840000001,4.7487349991925925,-0.01342773300000033,-100281.0,0.0,1057.5,0.0,0.0,0.25,0.28442379900000003,4.779019858953773,-0.019531247999999835,183914.0,0.0,-1162.5,0.0,0.0,0.125,3.081054372,4.756564921531305,-0.015869139000001198,-75342.0,0.125,1140.0,0.0,0.0,0.125,1.407470559,4.773475785828927,0.004882811999999959,1.75,-2.6700000762939453,4.150000095367432,0.14239501953125,0.06817626953125,1.2369384765625,36.209999084472656,0.0,201.0,-11.233963012695312,-0.395416259765625,Waiting,0.0,0.0,-19187.0,0.0,0.0,0.0,0.0,0.0,
1.7681250000000008,0.0,0.0,173957.0,0.0,-1267.5,0.0,0.0,0.25,0.6445311840000001,4.7487349991925925,-0.01342773300000033,-100281.0,0.0,1072.5,0.0,0.0,0.25,0.27832028400000003,4.779019858953773,-0.019531247999999835,183914.0,0.0,-1170.0,0.0,0.0,0.125,3.081054372,4.756564921531305,-0.002441405999999091,-75342.0,0.125,1102.5,0.0,0.0,0.125,1.408691262,4.773475785828927,-0.004882811999999959,1.7799999713897705,-2.4000000953674316,4.170000076293945,0.2156982421875,0.05621337890625,0.826416015625,36.209999084472656,0.0,251.0,-11.23956298828125,-0.395416259765625,Waiting,0.0,0.0,-19187.0,0.0,0.0,0.0,0.0,0.0,
1.7897809999999998,0.0,0.0,173776.0,0.0,-1185.0,0.0,0.0,0.25,0.643310481,4.7487349991925925,-0.004882811999999959,-100281.0,0.0,1065.0,0.0,0.0,0.25,0.273437472,4.779019858953773,-0.009765623999999917,183914.0,0.0,-1147.5,0.0,0.0,0.125,3.081054372,4.756564921531305,-0.002441405999999091,-75342.0,0.125,1065.0,0.0,0.0,0.125,1.407470559,4.773475785828927,-0.004882811999999959,1.6699999570846558,-2.109999895095825,4.179999828338623,0.175048828125,0.1070556640625,0.763427734375,36.209999084472656,0.0,208.0,-11.249786376953125,-0.39605712890625,Waiting,0.0,0.0,-19187.0,0.0,0.0,0.0,0.0,0.0,
1.8079409999999998,0.0,0.0,173776.0,0.0,-1087.5,0.0,0.0,0.25,0.643310481,4.7487349991925925,-0.004882811999999959,-100281.0,0.0,1027.5,0.0,0.0,0.25,0.273437472,4.779019858953773,-0.009765623999999917,183914.0,0.0,-1102.5,0.0,0.0,0.125,3.081054372,4.756564921531305,-0.002441405999999091,-75342.0,0.125,1012.5,0.0,0.0,0.125,1.408691262,4.773475785828927,-0.004882811999999959,1.649999976158142,-1.9800000190734863,4.190000057220459,0.24530029296875,-0.24072265625,1.03765869140625,36.209999084472656,0.0,260.0,-11.254425048828125,-0.3966064453125,Waiting,0.0,0.0,-19187.0,0.0,0.0,0.0,0.0,0.0,
1.829094,0.0,0.0,173776.0,0.0,-1012.5,0.0,0.0,0.25,0.6445311840000001,4.7487349991925925,0.0,-100127.0,0.0,1005.0,0.0,0.0,0.25,0.267333957,4.779019858953773,-0.014648435999999876,183760.0,0.0,-1042.5,0.0,0.0,0.125,3.081054372,4.756564921531305,0.0,-75186.0,0.125,960.0,0.0,0.0,0.125,1.407470559,4.773475785828927,0.0,1.590000033378601,-1.8700000047683716,4.21999979019165,0.22662353515625,-0.13531494140625,1.111083984375,36.209999084472656,0.0,249.0,-11.25872802734375,-0.397491455078125,Waiting,0.0,0.0,-19187.0,0.0,0.0,0.0,0.0,0.0,
1.8480790000000007,0.0,0.0,173776.0,0.0,-1012.5,0.0,0.0,0.25,0.6445311840000001,4.7487349991925925,0.0,-100127.0,0.0,982.5,0.0,0.0,0.25,0.269775363,4.779019858953773,-0.014648435999999876,183760.0,0.0,-990.0,0.0,0.0,0.125,3.081054372,4.756564921531305,0.0,-75186.0,0.125,907.5,0.0,0.0,0.125,1.408691262,4.773475785828927,0.0,1.5099999904632568,-1.7400000095367432,4.25,0.11669921875,0.11962890625,1.24493408203125,36.209999084472656,0.0,160.0,-11.262741088867188,-0.3984527587890625,Waiting,0.0,0.0,-19187.0,0.0,0.0,0.0,0.0,0.0,
1.8868090000000002,0.0,0.0,173776.0,0.0,-922.5,0.0,0.0,0.25,0.6445311840000001,4.7487349991925925,0.0,-100127.0,0.0,915.0,0.0,0.0,0.25,0.26855466,4.779019858953773,0.0,183760.0,0.0,-900.0,0.0,0.0,0.125,3.081054372,4.756564921531305,0.0,-75186.0,0.125,832.5,0.0,0.0,0.125,1.408691262,4.773475785828927,-0.003662109000000413,1.4500000476837158,-1.399999976158142,4.320000171661377,0.390380859375,-0.02288818359375,0.9090576171875,36.189998626708984,0.0,407.0,-11.270294189453125,-0.400482177734375,Waiting,0.0,0.0,-19187.0,0.0,0.0,0.0,0.0,0.0,
1.9051580000000004,0.0,0.0,173635.0,0.0,-900.0,0.0,0.0,0.25,0.6445311840000001,4.7487349991925925,0.0,-100127.0,0.0,862.5,0.0,0.0,0.25,0.26855466,4.779019858953773,0.0,183760.0,0.0,-862.5,0.0,0.0,0.125,3.081054372,4.756564921531305,0.0,-75186.0,0.125,832.5,0.0,0.0,0.125,1.413574074,4.773475785828927,-0.003662109000000413,1.409999966621399,-1.25,4.389999866485596,0.1138916015625,0.00146484375,1.1986083984375,36.189998626708984,0.0,137.0,-11.273574829101562,-0.4016265869140625,Waiting,0.0,0.0,-19187.0,0.0,0.0,0.0,0.0,0.0,
1.927728,0.0,0.0,173635.0,0.0,-885.0,0.0,0.0,0.25,0.6445311840000001,4.7487349991925925,0.0,-100127.0,0.0,810.0,0.0,0.0,0.25,0.269775363,4.779019858953773,0.0,183760.0,0.0,-825.0,0.0,0.0,0.125,3.081054372,4.756564921531305,-0.0012207030000004337,-75186.0,0.125,832.5,0.0,0.0,0.125,1.408691262,4.773475785828927,0.008544921000000372,1.399999976158142,-1.1799999475479126,4.519999980926514,0.2523193359375,0.03802490234375,1.29071044921875,36.189998626708984,0.0,278.0,-11.279693603515625,-0.404205322265625,Waiting,0.0,0.0,-19187.0,0.0,0.0,0.0,0.0,0.0,
1.9458120000000008,0.0,0.0,173635.0,0.0,-855.0,0.0,0.0,0.25,0.643310481,4.7487349991925925,0.0,-100127.0,0.0,765.0,0.0,0.0,0.25,0.26855466,4.779019858953773,0.0,183635.0,0.0,-802.5,0.0,0.0,0.125,3.082275075,4.756564921531305,-0.0012207030000004337,-75057.0,0.125,832.5,0.0,0.0,0.125,1.408691262,4.773475785828927,0.008544921000000372,1.399999976158142,-1.1799999475479126,4.519999980926514,0.2523193359375,0.03802490234375,1.29071044921875,36.189998626708984,0.0,278.0,-11.279693603515625,-0.404205322265625,Waiting,0.0,0.0,-19187.0,0.0,0.0,0.0,0.0,0.0,
1.9665420000000005,0.0,0.0,173635.0,0.0,-817.5,0.0,0.0,0.25,0.638427669,4.7487349991925925,0.0,-100012.0,0.0,720.0,0.0,0.0,0.25,0.26855466,4.779019858953773,0.0,183635.0,0.0,-780.0,0.0,0.0,0.125,3.082275075,4.756564921531305,0.0012207030000004337,-75057.0,0.125,765.0,0.0,0.0,0.125,1.407470559,4.773475785828927,-0.004882811999999959,1.399999976158142,-1.1799999475479126,4.519999980926514,0.2523193359375,0.03802490234375,1.29071044921875,36.189998626708984,0.0,278.0,-11.279693603515625,-0.404205322265625,Waiting,0.0,0.0,-19187.0,0.0,0.0,0.0,0.0,0.0,
1.9914820000000009,0.0,0.0,173635.0,0.0,-772.5,0.0,0.0,0.25,0.639648372,4.7487349991925925,0.0,-100012.0,0.0,682.5,0.0,0.0,0.25,0.26855466,4.779019858953773,0.0,183635.0,0.0,-742.5,0.0,0.0,0.125,3.081054372,4.756564921531305,0.0012207030000004337,-75057.0,0.125,690.0,0.0,0.0,0.125,1.408691262,4.773475785828927,-0.004882811999999959,1.2300000190734863,-0.6399999856948853,4.570000171661377,0.24310302734375,0.11016845703125,1.22955322265625,36.189998626708984,0.0,262.0,-11.292129516601562,-0.4120330810546875,Waiting,0.0,0.0,-19187.0,0.0,0.0,0.0,0.0,0.0,
2.010491000000001,0.0,0.0,173635.0,0.0,-727.5,0.0,0.0,0.25,0.638427669,4.7487349991925925,0.0,-100012.0,0.0,660.0,0.0,0.0,0.25,0.26855466,4.779019858953773,0.0,183635.0,0.0,-697.5,0.0,0.0,0.125,3.081054372,4.756564921531305,0.0012207030000004337,-75057.0,0.125,615.0,0.0,0.0,0.125,1.413574074,4.773475785828927,-0.004882811999999959,1.25,-0.550000011920929,4.539999961853027,0.01171875,-0.1402587890625,1.0791015625,36.189998626708984,0.0,9.0,-11.293960571289062,-0.413665771484375,Waiting,0.0,0.0,-19187.0,0.0,0.0,0.0,0.0,0.0,
2.0329749999999995,0.0,0.0,173532.0,0.0,-690.0,0.0,0.0,0.25,0.638427669,4.7487349991925925,-0.004882811999999959,-100012.0,0.0,630.0,0.0,0.0,0.25,0.26855466,4.779019858953773,0.0,183635.0,0.0,-630.0,0.0,0.0,0.125,3.081054372,4.756564921531305,0.0,-75057.0,0.125,532.5,0.0,0.0,0.125,1.408691262,4.773475785828927,0.0,1.2300000190734863,-0.4699999988079071,4.510000228881836,0.23870849609375,0.07330322265625,1.0186767578125,36.189998626708984,0.0,250.0,-11.295608520507812,-0.4153900146484375,Waiting,0.0,0.0,-19187.0,0.0,0.0,0.0,0.0,0.0,
2.05096,0.0,0.0,173532.0,0.0,-645.0,0.0,0.0,0.125,0.638427669,4.7487349991925925,-0.004882811999999959,-100012.0,0.0,600.0,0.0,0.0,0.25,0.269775363,4.779019858953773,0.0,183635.0,0.0,-555.0,0.0,0.0,0.125,3.081054372,4.756564921531305,0.0,-74990.0,0.125,532.5,0.0,0.0,0.125,1.408691262,4.773475785828927,0.0,1.2100000381469727,-0.2800000011920929,4.46999979019165,0.26129150390625,-0.13543701171875,0.9014892578125,36.189998626708984,0.0,252.0,-11.296920776367188,-0.417205810546875,Waiting,0.0,0.0,-19187.0,0.0,0.0,0.0,0.0,0.0,
2.068491999999999,0.0,0.0,173532.0,0.0,-600.0,0.0,0.0,0.125,0.639648372,4.7487349991925925,-0.004882811999999959,-99926.0,0.0,570.0,0.0,0.0,0.25,0.26855466,4.779019858953773,0.0,183565.0,0.0,-480.0,0.0,0.0,0.125,3.081054372,4.756564921531305,0.0,-74990.0,0.125,472.5,0.0,0.0,0.125,1.408691262,4.773475785828927,0.0,1.159999966621399,-0.09000000357627869,4.440000057220459,0.17034912109375,-9.765625E-4,1.23150634765625,36.189998626708984,0.0,169.0,-11.298538208007812,-0.4215240478515625,Waiting,0.0,0.0,-19187.0,0.0,0.0,0.0,0.0,0.0,
2.0916960000000007,0.0,0.0,173532.0,0.0,-547.5,0.0,0.0,0.125,0.639648372,4.7487349991925925,0.0,-99926.0,0.0,525.0,0.0,0.0,0.25,0.26855466,4.779019858953773,0.0,183565.0,0.0,-427.5,0.0,0.0,0.125,3.081054372,4.756564921531305,0.0,-74990.0,0.125,442.5,0.0,0.0,0.125,1.408691262,4.773475785828927,0.0,1.0700000524520874,0.10999999940395355,4.449999809265137,0.16387939453125,-0.06805419921875,1.1766357421875,36.189998626708984,0.0,154.0,-11.298980712890625,-0.423858642578125,Waiting,0.0,0.0,-19187.0,0.0,0.0,0.0,0.0,0.0,
2.1107300000000007,0.0,0.0,173532.0,0.0,-502.5,0.0,0.0,0.125,0.639648372,4.7487349991925925,0.0,-99926.0,0.0,525.0,0.0,0.0,0.25,0.26855466,4.779019858953773,0.0,183565.0,0.0,-382.5,0.0,0.0,0.125,3.081054372,4.756564921531305,0.0,-74990.0,0.125,442.5,0.0,0.0,0.125,1.412353371,4.773475785828927,0.0,1.0,0.27000001072883606,4.46999979019165,0.3577880859375,0.003173828125,0.86810302734375,36.189998626708984,0.0,351.0,-11.299087524414062,-0.4262847900390625,Waiting,0.0,0.0,-19187.0,0.0,0.0,0.0,0.0,0.0,
2.1315639999999996,0.0,0.0,173532.0,0.0,-450.0,0.0,0.0,0.125,0.638427669,4.7487349991925925,0.0,-99926.0,0.0,472.5,0.0,0.0,0.25,0.269775363,4.779019858953773,0.0,183565.0,0.0,-352.5,0.0,0.0,0.125,3.081054372,4.756564921531305,0.0,-74990.0,0.125,420.0,0.0,0.0,0.125,1.418456886,4.773475785828927,0.0,0.9399999976158142,0.4399999976158142,4.480000019073486,0.16119384765625,0.1329345703125,1.36944580078125,36.189998626708984,0.0,158.0,-11.298507690429688,-0.4311370849609375,Waiting,0.0,0.0,-19187.0,0.0,0.0,0.0,0.0,0.0,
2.1495899999999994,0.0,0.0,173473.0,0.0,-405.0,0.0,0.0,0.125,0.639648372,4.7487349991925925,0.0,-99926.0,0.0,420.0,0.0,0.0,0.25,0.26855466,4.779019858953773,0.0,183565.0,0.0,-315.0,0.0,0.0,0.125,3.081054372,4.756564921531305,0.0,-74990.0,0.125,382.5,0.0,0.0,0.125,1.417236183,4.773475785828927,0.0,0.9300000071525574,0.5400000214576721,4.449999809265137,0.1192626953125,-0.08245849609375,0.90472412109375,36.189998626708984,0.0,102.0,-11.297958374023438,-0.43353271484375,Waiting,0.0,0.0,-19187.0,0.0,0.0,0.0,0.0,0.0,
2.168094,0.0,0.0,173473.0,0.0,-352.5,0.0,0.0,0.125,0.639648372,4.7487349991925925,0.0,-99926.0,0.0,367.5,0.0,0.0,0.25,0.26855466,4.779019858953773,0.0,183565.0,0.0,-315.0,0.0,0.0,0.125,3.081054372,4.756564921531305,0.0,-74990.0,0.125,352.5,0.0,0.0,0.125,1.417236183,4.773475785828927,0.009765623999999917,0.9100000262260437,0.6399999856948853,4.420000076293945,0.16448974609375,-0.02880859375,1.0897216796875,36.189998626708984,0.0,148.0,-11.2972412109375,-0.43603515625,Waiting,0.0,0.0,-19187.0,0.0,0.0,0.0,0.0,0.0,
2.1891850000000006,0.0,0.0,173473.0,0.0,-307.5,0.0,0.0,0.125,0.639648372,4.7487349991925925,0.0,-99885.0,0.0,322.5,0.0,0.0,0.25,0.26855466,4.779019858953773,0.0,183530.0,0.0,-285.0,0.0,0.0,0.125,3.082275075,4.756564921531305,0.0,-74945.0,0.125,315.0,0.0,0.0,0.125,1.4221189950000002,4.773475785828927,0.009765623999999917,0.8700000047683716,0.7300000190734863,4.400000095367432,0.144775390625,0.04425048828125,0.92535400390625,36.189998626708984,0.0,134.0,-11.29632568359375,-0.438568115234375,Waiting,0.0,0.0,-19187.0,0.0,0.0,0.0,0.0,0.0,
2.207642999999999,0.0,0.0,173473.0,0.0,-255.0,0.0,0.0,0.125,0.637206966,4.7487349991925925,0.0,-99885.0,0.0,277.5,0.0,0.0,0.25,0.26855466,4.779019858953773,0.0,183530.0,0.0,-240.0,0.0,0.0,0.125,3.081054372,4.756564921531305,0.0,-74945.0,0.125,270.0,0.0,0.0,0.125,1.4233396980000002,4.773475785828927,0.009765623999999917,0.7599999904632568,0.9599999785423279,4.380000114440918,0.10833740234375,0.01318359375,1.026611328125,36.189998626708984,0.0,90.0,-11.29248046875,-0.44671630859375,Waiting,0.0,0.0,-19187.0,0.0,0.0,0.0,0.0,0.0,
2.2293480000000008,0.0,0.0,173473.0,0.0,-210.0,0.0,0.0,0.125,0.638427669,4.7487349991925925,0.0,-99885.0,0.0,232.5,0.0,0.0,0.25,0.269775363,4.779019858953773,0.0,183530.0,0.0,-202.5,0.0,0.0,0.125,3.081054372,4.756564921531305,0.0,-74945.0,0.125,217.5,0.0,0.0,0.125,1.4270018070000001,4.773475785828927,0.004882811999999959,0.7400000095367432,1.0199999809265137,4.380000114440918,0.13250732421875,-0.05377197265625,1.0814208984375,36.189998626708984,0.0,107.0,-11.290908813476562,-0.4495697021484375,Waiting,0.0,0.0,-19187.0,0.0,0.0,0.0,0.0,0.0,
2.2484939999999995,0.0,0.0,173473.0,0.0,-172.5,0.0,0.0,0.125,0.638427669,4.7487349991925925,0.0,-99885.0,0.0,195.0,0.0,0.0,0.25,0.26855466,4.779019858953773,0.0,183530.0,0.0,-165.0,0.0,0.0,0.125,3.081054372,4.756564921531305,0.0,-74945.0,0.125,172.5,0.0,0.0,0.25,1.4282225100000001,4.773475785828927,0.004882811999999959,0.7300000190734863,1.090000033378601,4.400000095367432,0.13916015625,-0.041015625,1.05767822265625,36.189998626708984,0.0,114.0,-11.289169311523438,-0.4524993896484375,Waiting,0.0,0.0,-19187.0,0.0,0.0,0.0,0.0,0.0,
2.2666089999999994,0.0,0.0,173454.0,0.0,-172.5,0.0,0.0,0.125,0.639648372,4.7487349991925925,0.0,-99885.0,0.0,150.0,0.0,0.0,0.25,0.26855466,4.779019858953773,0.0,183530.0,0.0,-135.0,0.0,0.0,0.125,3.081054372,4.756564921531305,0.0,-74945.0,0.125,120.0,0.0,0.0,0.25,1.4282225100000001,4.773475785828927,0.004882811999999959,0.6899999976158142,1.1799999475479126,4.409999847412109,0.1746826171875,0.01226806640625,1.044677734375,36.189998626708984,0.0,152.0,-11.287261962890625,-0.4554901123046875,Waiting,0.0,0.0,-19187.0,0.0,0.0,0.0,0.0,0.0,
2.2883460000000007,0.0,0.0,173454.0,0.0,-135.0,0.0,0.0,0.125,0.639648372,4.7487349991925925,0.0,-99885.0,0.0,105.0,0.0,0.0,0.25,0.26855466,4.779019858953773,0.0,183530.0,0.0,-105.0,0.0,0.0,0.125,3.081054372,4.756564921531305,-0.0012207030000004337,-74945.0,0.125,90.0,0.0,0.0,0.25,1.4270018070000001,4.773475785828927,0.004882811999999959,0.6499999761581421,1.3700000047683716,4.409999847412109,0.12152099609375,-0.025634765625,1.00164794921875,36.189998626708984,0.0,94.0,-11.282852172851562,-0.4616851806640625,Waiting,0.0,0.0,-19187.0,0.0,0.0,0.0,0.0,0.0,
2.306459,0.0,0.0,173454.0,0.0,-97.5,0.0,0.0,0.125,0.638427669,4.7487349991925925,0.0,-99879.0,0.0,67.5,0.0,0.0,0.25,0.269775363,4.779019858953773,0.0,183523.0,0.0,-67.5,0.0,0.0,0.125,3.081054372,4.756564921531305,-0.0012207030000004337,-74934.0,0.125,60.0,0.0,0.0,0.25,1.4270018070000001,4.773475785828927,0.004882811999999959,0.6399999856948853,1.3700000047683716,4.400000095367432,0.044189453125,-0.02264404296875,1.10931396484375,36.189998626708984,0.0,14.0,-11.280487060546875,-0.4648590087890625,Waiting,0.0,0.0,-19187.0,0.0,0.0,0.0,0.0,0.0,
2.328701,0.0,0.0,173454.0,0.0,-67.5,295.3125,0.0,0.125,0.639648372,0.5509316050660396,0.0,-99879.0,0.0,37.5,295.3125,0.0,0.25,0.26855466,4.419324851558671,0.0,183523.0,0.0,-37.5,295.3125,0.0,0.125,3.081054372,4.398559994763738,0.0,-74934.0,0.125,30.0,295.3125,0.0,0.25,1.4270018070000001,0.5538019444921097,0.0,0.6200000047683716,1.3700000047683716,4.409999847412109,-0.010986328125,0.03240966796875,0.9893798828125,36.189998626708984,0.0,-32.0,-11.27581787109375,-0.4713287353515625,Waiting,0.0,0.0,-19187.0,0.0,0.0,0.0,0.0,0.0,
2.3464810000000007,0.0,0.0,173454.0,0.125,-37.5,967.9687500000001,0.0,0.125,0.639648372,0.5509316050660396,0.0,-99879.0,0.0,22.5,967.9687500000001,0.0,0.25,0.26855466,4.419324851558671,0.0,183523.0,0.125,-15.0,967.9687500000001,0.0,0.125,3.081054372,4.398559994763738,0.0012207030000004337,-74934.0,0.125,30.0,967.9687500000001,0.0,0.25,1.4270018070000001,0.5538019444921097,0.0,0.6299999952316284,1.340000033378601,4.429999828338623,-0.00396728515625,0.029052734375,1.01458740234375,36.189998626708984,0.0,-26.0,-11.2735595703125,-0.4745330810546875,Waiting,0.0,0.0,-19187.0,0.0,0.0,0.0,0.0,0.0,
2.3654209999999996,0.0,0.0,173454.0,0.5,-15.0,1689.84375,0.0,0.125,0.6335448570000001,0.5509316050660396,-0.0012207029999995456,-99879.0,1.25,7.5,1689.84375,0.0,0.25,0.26855466,4.419324851558671,0.0,183523.0,0.875,0.0,1689.84375,0.0,0.125,3.073730154,4.398559994763738,-0.0012207030000004337,-74934.0,0.375,0.0,1689.84375,0.0,0.25,1.4208982920000002,0.5538019444921097,0.0,0.6399999856948853,1.2999999523162842,4.460000038146973,-0.0101318359375,0.0338134765625,1.040771484375,36.15999984741211,0.0,-32.0,-11.271316528320312,-0.4777069091796875,Waiting,0.0,0.0,-19187.0,0.0,0.0,0.0,0.0,0.0,
2.3870520000000006,0.0,0.0,173469.0,3.75,15.0,2083.59375,0.0,0.125,0.6201171240000001,0.5509316050660396,-0.009765624000000805,-99879.0,4.5,37.5,2083.59375,0.0,0.25,0.26855466,4.419324851558671,0.0,183523.0,4.0,7.5,2083.59375,0.0,0.125,3.0566403120000003,4.398559994763738,-0.0024414059999999793,-74934.0,2.0,0.0,2083.59375,0.0,1.5,1.412353371,0.5538019444921097,-0.004882811999999959,0.6600000262260437,1.4199999570846558,4.460000038146973,0.09326171875,-0.065185546875,1.20001220703125,36.15999984741211,0.0,57.0,-11.266708374023438,-0.483734130859375,Waiting,0.0,0.0,-19187.0,0.0,0.0,0.0,0.0,0.0,
2.405674,0.0,0.0,173469.0,8.125,60.0,2100.0,0.0,2.25,0.654296808,0.5509316050660396,-0.003662108999999525,-99879.0,4.5,105.0,2100.0,0.0,0.5,0.253906224,4.419324851558671,-0.004882812000000847,183523.0,7.5,30.0,2100.0,0.0,0.375,3.02734344,4.398559994763738,-0.029296871999999752,-74934.0,5.25,37.5,2100.0,0.0,2.625,1.470947115,0.5538019444921097,-0.003662109000000413,0.800000011920929,1.340000033378601,4.320000171661377,-0.313232421875,0.17706298828125,0.6939697265625,36.15999984741211,0.0,-315.0,-11.2645263671875,-0.4866485595703125,Waiting,0.0,0.0,-19187.0,0.0,0.0,0.0,0.0,0.0,
2.4290469999999997,0.0,0.0,173469.0,12.875,112.5,2100.0,0.0,2.75,0.729980394,0.5509316050660396,0.0,-99846.0,18.875,180.0,2100.0,0.0,0.875,0.21972654000000003,4.419324851558671,0.0,183542.0,11.125,67.5,2100.0,0.0,0.5,2.984618835,4.398559994763738,0.0,-74912.0,10.625,90.0,2100.0,0.0,3.0,1.5527342160000002,0.5538019444921097,0.0,0.7599999904632568,1.190000057220459,4.090000152587891,0.07159423828125,-0.02655029296875,0.8355712890625,36.15999984741211,0.0,50.0,-11.260589599609375,-0.49249267578125,Waiting,0.0,0.0,-19187.0,0.0,0.0,0.0,0.0,0.0,
2.4469620000000005,0.0,0.0,173469.0,17.5,157.5,2100.0,0.0,3.0,0.7885741380000001,0.5509316050660396,0.08666991299999971,-99846.0,18.875,180.0,2100.0,0.0,0.875,0.190429668,4.419324851558671,-0.03662108999999969,183542.0,13.75,112.5,2100.0,0.0,0.5,2.9431149330000004,4.398559994763738,-0.05004882299999913,-74912.0,15.625,135.0,2100.0,0.0,2.125,1.600341633,0.5538019444921097,0.08666991299999971,0.7799999713897705,1.309999942779541,3.5199999809265137,0.0107421875,-0.0489501953125,1.0592041015625,36.15999984741211,0.0,-17.0,-11.258590698242188,-0.4955291748046875,Waiting,0.0,0.0,-19187.0,0.0,0.0,0.0,0.0,0.0,
2.4701760000000004,0.0,0.0,173469.0,20.5,187.5,2100.0,0.0,1.25,0.8581542090000001,0.5509316050660396,-4.886098661999999,-99846.0,27.125,255.0,2100.0,0.0,0.5,0.162353499,4.419324851558671,0.0,183542.0,15.125,157.5,2100.0,0.0,0.125,2.9016110310000003,4.398559994763738,0.0,-74912.0,22.75,165.0,2100.0,0.0,1.375,1.6833494370000002,0.5538019444921097,0.0,0.7300000190734863,1.0399999618530273,3.049999952316284,-0.093017578125,0.0816650390625,0.79248046875,36.15999984741211,0.0,-103.0,-11.254989624023438,-0.5017242431640625,Waiting,0.0,0.0,-19187.0,0.0,0.0,0.0,0.0,0.0,
2.4929759999999996,0.0,0.0,173469.0,23.125,187.5,2100.0,0.0,1.0,0.925292874,0.5509316050660396,0.079345695,-99846.0,28.25,247.5,2100.0,0.0,0.5,0.128173815,4.419324851558671,-0.035400387000000144,183542.0,17.0,180.0,2100.0,0.0,0.125,2.872314159,4.398559994763738,-0.04516601099999917,-74912.0,24.75,142.5,2100.0,0.0,1.375,1.722411933,0.5538019444921097,0.07080077400000007,0.7300000190734863,1.0399999618530273,3.049999952316284,-0.093017578125,0.0816650390625,0.79248046875,36.15999984741211,0.0,-103.0,-11.254989624023438,-0.5017242431640625,Waiting,0.0,0.0,-19187.0,0.0,0.0,0.0,0.0,0.0,
2.5122490000000006,0.0,0.0,173494.0,24.5,180.0,2100.0,0.0,0.875,0.9594725580000001,0.5509316050660396,0.04638671399999994,-99846.0,29.875,202.5,2100.0,0.0,0.5,0.12939451800000001,4.419324851558671,-0.014648435999999876,183542.0,18.0,187.5,2100.0,0.0,0.0,2.857665723,4.398559994763738,-0.029296871999999752,-74912.0,20.125,112.5,2100.0,0.0,0.625,1.746825993,0.5538019444921097,0.03662108999999991,0.699999988079071,1.0099999904632568,2.619999885559082,-0.0943603515625,0.002685546875,1.195068359375,36.15999984741211,0.0,-116.0,-11.251754760742188,-0.507904052734375,Waiting,0.0,0.0,-19187.0,0.0,0.0,0.0,0.0,0.0,
2.536687000000001,0.0,0.0,173494.0,20.125,157.5,2100.0,0.0,0.375,0.9741209940000001,0.5509316050660396,0.030517575000000075,-99846.0,20.625,157.5,2100.0,0.0,0.0,0.12939451800000001,4.419324851558671,-0.008544920999999484,183542.0,13.375,180.0,2100.0,0.0,0.0,2.857665723,4.398559994763738,-0.009765623999999917,-74900.0,12.625,90.0,2100.0,0.0,0.375,1.750488102,0.5538019444921097,0.025634763000000005,0.6499999761581421,0.9700000286102295,2.2100000381469727,0.04986572265625,0.08984375,0.82220458984375,36.15999984741211,0.0,38.0,-11.2491455078125,-0.5142059326171875,Waiting,0.0,0.0,-19187.0,0.0,0.0,0.0,0.0,0.0,
2.553541,0.0,0.0,173494.0,11.875,127.5,2100.0,0.0,0.25,0.9729002910000001,0.5509316050660396,0.0,-99828.0,10.875,127.5,2100.0,0.0,0.0,0.12939451800000001,4.419324851558671,0.0,183566.0,7.5,165.0,2100.0,0.0,0.0,2.857665723,4.398559994763738,0.0,-74900.0,8.625,82.5,2100.0,0.0,0.875,1.751708805,0.5538019444921097,0.004882811999999959,0.6499999761581421,0.9399999976158142,2.130000114440918,0.0040283203125,0.134033203125,0.765380859375,36.15999984741211,0.0,-3.0,-11.24786376953125,-0.5172119140625,Waiting,0.0,0.0,-19187.0,0.0,0.0,0.0,0.0,0.0,
2.5720009999999993,0.0,0.0,173494.0,4.375,90.0,2100.0,0.0,0.125,0.9729002910000001,0.5509316050660396,0.0,-99828.0,0.0,105.0,2100.0,0.0,0.0,0.12939451800000001,4.419324851558671,0.0,183566.0,0.375,142.5,2100.0,0.0,0.0,2.857665723,4.398559994763738,0.0,-74900.0,9.125,90.0,2100.0,0.0,1.375,1.795654113,0.5538019444921097,0.0,0.6600000262260437,0.9200000166893005,2.1500000953674316,0.01324462890625,0.00433349609375,1.2542724609375,36.15999984741211,0.0,-7.0,-11.24786376953125,-0.5201416015625,Waiting,0.0,0.0,-19187.0,0.0,0.0,0.0,0.0,0.0,
2.595335,0.0,0.0,173494.0,0.125,45.0,2100.0,0.0,0.125,0.989990133,0.5509316050660396,0.0,-99828.0,0.375,67.5,2100.0,0.0,0.0,0.130615221,4.419324851558671,-0.0012207029999995456,183566.0,0.0,112.5,2100.0,0.0,0.125,2.8564450200000002,4.398559994763738,0.0012207029999995456,-74900.0,15.375,97.5,2100.0,0.0,1.625,1.833495906,0.5538019444921097,0.04516601100000006,0.5899999737739563,0.8700000047683716,2.319999933242798,0.03143310546875,0.1365966796875,0.80572509765625,36.15999984741211,0.0,24.0,-11.248306274414062,-0.5260009765625,Waiting,0.0,0.0,-19187.0,0.0,0.0,0.0,0.0,0.0,
