Time,ClimberA1,ClimberA2,FRpos,FRCurrent,FRspeed,FRsetpoint,FRApos,FRACurrent,FREncpos,FREncSetpoint,FREncSpeed,FLpos,FLCurrent,FLspeed,FLsetpoint,FLApos,FLACurrent,FLEncpos,FLEncSetpoint,FLEncSpeed,BRpos,BRCurrent,BRspeed,BRsetpoint,BRApos,BRACurrent,BREncpos,BREncSetpoint,BREncSpeed,BLpos,BLCurrent,BLspeed,BLsetpoint,BLApos,BLACurrent,BLEncpos,BLEncSetpoint,BLEncSpeed,navx_Pitch,navx_Roll,navx_Yaw,navx_XAcc,navx_YAcc,navx_ZAcc,navx_Temp,navx_Bar,navx_Alt,navx_XDis,navx_YDis,GearPlacerState,ShootOutputV,ShootOutputCurrent,ShootEncPos,ShootEncVelocity,ShootSpeed,ShootSetpoint,CarouselSetpoint,CarouselCurrent,
0.14886800000001676,0.0,0.0,904.0,0.0,0.0,0.0,0.0,0.25,0.847167882,0.0,0.0,129.0,0.0,0.0,-0.0,0.0,0.125,0.412597614,0.0,0.0,-1357.0,0.0,0.0,0.0,0.0,0.125,3.276366852,0.0,0.0,24.0,0.0,0.0,-0.0,0.0,0.125,1.6052244450000002,0.0,0.0,13.5600004196167,-1.5499999523162842,-0.009999999776482582,-0.02691650390625,0.23626708984375,1.002685546875,33.77000045776367,0.0,1.0,-0.061187744140625,-0.0707550048828125,Waiting,0.0,0.0,-38695.0,0.0,0.0,0.0,0.0,0.0,
0.19424600000004283,0.0,0.0,904.0,0.0,0.0,0.0,0.0,0.25,0.848388585,0.0,0.0,129.0,0.0,0.0,-0.0,0.0,0.125,0.41381831700000005,0.0,0.0,-1357.0,0.0,0.0,0.0,0.0,0.125,3.2751461490000002,0.0,0.0,24.0,0.0,0.0,-0.0,0.0,0.125,1.6052244450000002,0.0,-0.0012207029999999897,13.5600004196167,-1.5399999618530273,0.0,-0.03179931640625,0.23321533203125,0.98699951171875,33.77000045776367,0.0,-4.0,-0.061187744140625,-0.0707550048828125,Waiting,0.0,0.0,-38695.0,0.0,0.0,0.0,0.0,0.0,
0.2326909999998752,0.0,0.0,904.0,0.0,0.0,0.0,0.0,0.25,0.848388585,0.0,0.0,129.0,0.0,0.0,-0.0,0.0,0.125,0.41503902000000004,0.0,0.0,-1357.0,0.0,0.0,0.0,0.0,0.125,3.2751461490000002,0.0,0.0,24.0,0.0,0.0,-0.0,0.0,0.125,1.6052244450000002,0.0,0.0012207029999999897,13.5600004196167,-1.5299999713897705,0.009999999776482582,-0.029541015625,0.24151611328125,0.98455810546875,33.77000045776367,0.0,-2.0,-0.061187744140625,-0.0707550048828125,Waiting,0.0,0.0,-38695.0,0.0,0.0,0.0,0.0,0.0,
0.2719329999999609,0.0,0.0,904.0,0.0,0.0,0.0,0.0,0.25,0.847167882,0.0,0.0,129.0,0.0,0.0,-0.0,0.0,0.125,0.41381831700000005,0.0,0.0,-1357.0,0.0,0.0,0.0,0.0,0.125,3.2751461490000002,0.0,0.0,24.0,0.0,0.0,-0.0,0.0,0.125,1.6052244450000002,0.0,-0.0012207029999999897,13.579999923706055,-1.5099999904632568,0.029999999329447746,-0.02850341796875,0.24517822265625,0.99298095703125,33.77000045776367,0.0,-1.0,-0.061187744140625,-0.0707550048828125,Waiting,0.0,0.0,-38695.0,0.0,0.0,0.0,0.0,0.0,
0.3129719999998342,0.0,0.0,904.0,0.0,0.0,0.0,0.0,0.25,0.848388585,0.0,0.0,129.0,0.0,0.0,-0.0,0.0,0.125,0.41381831700000005,0.0,0.0,-1357.0,0.0,0.0,0.0,0.0,0.125,3.276366852,0.0,0.0,24.0,0.0,0.0,-0.0,0.0,0.125,1.6052244450000002,0.0,-0.0012207029999999897,13.579999923706055,-1.5,0.029999999329447746,-0.0126953125,0.23858642578125,0.97064208984375,33.77000045776367,0.0,13.0,-0.061187744140625,-0.0707550048828125,Waiting,0.0,0.0,-38695.0,0.0,0.0,0.0,0.0,0.0,
0.34664299999992365,0.0,0.0,904.0,0.0,0.0,0.0,0.0,0.25,0.847167882,0.0,0.0,129.0,0.0,0.0,-0.0,0.0,0.125,0.41381831700000005,0.0,0.0,-1357.0,0.0,0.0,0.0,0.0,0.125,3.2751461490000002,0.0,0.0,24.0,0.0,0.0,-0.0,0.0,0.125,1.6052244450000002,0.0,0.0,13.579999923706055,-1.5,0.019999999552965164,-0.02056884765625,0.246826171875,1.0069580078125,33.77000045776367,0.0,6.0,-0.061187744140625,-0.0707550048828125,Waiting,0.0,0.0,-38695.0,0.0,0.0,0.0,0.0,0.0,
0.3874469999999274,0.0,0.0,904.0,0.0,0.0,0.0,0.0,0.25,0.847167882,0.0,0.0,129.0,0.0,0.0,-0.0,0.0,0.125,0.41381831700000005,0.0,0.0,-1357.0,0.0,0.0,0.0,0.0,0.125,3.2751461490000002,0.0,0.0,24.0,0.0,0.0,-0.0,0.0,0.125,1.6052244450000002,0.0,0.0012207029999999897,13.609999656677246,-1.5199999809265137,0.009999999776482582,-0.08880615234375,0.34503173828125,1.02783203125,33.790000915527344,0.0,-60.0,-0.0612335205078125,-0.0706939697265625,Waiting,0.0,0.0,-38695.0,0.0,0.0,0.0,0.0,0.0,
0.42294900000002233,0.0,0.0,904.0,0.0,0.0,0.0,0.0,0.25,0.848388585,0.0,0.0,129.0,0.0,0.0,-0.0,0.0,0.125,0.41381831700000005,0.0,0.0,-1357.0,0.0,0.0,0.0,0.0,0.125,3.2751461490000002,0.0,-0.0012207029999999897,24.0,0.0,0.0,-0.0,0.0,0.125,1.6052244450000002,0.0,0.0,13.619999885559082,-1.5399999618530273,0.05999999865889549,-0.072021484375,0.121337890625,1.11865234375,33.790000915527344,0.0,-41.0,-0.0614013671875,-0.07049560546875,Waiting,0.0,0.0,-38695.0,0.0,0.0,0.0,0.0,0.0,
0.46833299999986777,0.0,0.0,904.0,0.0,0.0,0.0,0.0,0.25,0.847167882,0.0,0.0012207029999999897,129.0,0.0,0.0,-0.0,0.0,0.125,0.41381831700000005,0.0,0.0,-1357.0,0.0,0.0,0.0,0.0,0.125,3.2751461490000002,0.0,0.0012207029999999897,24.0,0.0,0.0,-0.0,0.0,0.125,1.6064451480000002,0.0,0.0,13.529999732971191,-1.5499999523162842,0.07999999821186066,0.0400390625,0.2110595703125,1.0023193359375,33.790000915527344,0.0,67.0,-0.0614776611328125,-0.0711212158203125,Waiting,0.0,0.0,-38695.0,0.0,0.0,0.0,0.0,0.0,
0.5093219999999273,0.0,0.0,904.0,0.0,0.0,0.0,0.0,0.25,0.847167882,0.0,0.0012207029999999897,129.0,0.0,0.0,-0.0,0.0,0.125,0.41503902000000004,0.0,0.0,-1357.0,0.0,0.0,0.0,0.0,0.125,3.2739254460000002,0.0,0.0012207029999999897,24.0,0.0,0.0,-0.0,0.0,0.125,1.6052244450000002,0.0,0.0,13.529999732971191,-1.4900000095367432,0.05000000074505806,-0.0626220703125,0.28326416015625,0.962646484375,33.790000915527344,0.0,-36.0,-0.0613250732421875,-0.071563720703125,Waiting,0.0,0.0,-38695.0,0.0,0.0,0.0,0.0,0.0,
0.5492229999999981,0.0,0.0,904.0,0.0,0.0,0.0,0.0,0.25,0.847167882,0.0,0.0,129.0,0.0,0.0,-0.0,0.0,0.125,0.41503902000000004,0.0,0.0,-1357.0,0.0,0.0,0.0,0.0,0.125,3.2751461490000002,0.0,0.0,24.0,0.0,0.0,-0.0,0.0,0.125,1.6052244450000002,0.0,0.0,13.569999694824219,-1.5299999713897705,0.029999999329447746,-0.02777099609375,0.2156982421875,0.93756103515625,33.790000915527344,0.0,-1.0,-0.061431884765625,-0.0720367431640625,Waiting,0.0,0.0,-38695.0,0.0,0.0,0.0,0.0,0.0,
0.5868950000000186,0.0,0.0,904.0,0.0,0.0,0.0,0.0,0.25,0.848388585,0.0,-0.0012207029999999897,129.0,0.0,0.0,-0.0,0.0,0.125,0.41381831700000005,0.0,0.0,-1357.0,0.0,0.0,0.0,0.0,0.125,3.2751461490000002,0.0,-0.0012207029999999897,24.0,0.0,0.0,-0.0,0.0,0.125,1.6052244450000002,0.0,-0.0012207029999999897,13.609999656677246,-1.559999942779541,0.029999999329447746,-0.00115966796875,0.2767333984375,1.0228271484375,33.790000915527344,0.0,27.0,-0.061492919921875,-0.0724334716796875,Waiting,0.0,0.0,-38695.0,0.0,0.0,0.0,0.0,0.0,
0.6276659999999683,0.0,0.0,904.0,0.0,0.0,0.0,0.0,0.25,0.847167882,0.0,0.0,129.0,0.0,0.0,-0.0,0.0,0.125,0.41503902000000004,0.0,0.0,-1357.0,0.0,0.0,0.0,0.0,0.125,3.2751461490000002,0.0,0.0012207029999999897,24.0,0.0,0.0,-0.0,0.0,0.125,1.6040037420000002,0.0,0.0,13.640000343322754,-1.5,0.03999999910593033,-0.04290771484375,0.21502685546875,0.973388671875,33.790000915527344,0.0,-16.0,-0.0611572265625,-0.072540283203125,Waiting,0.0,0.0,-38695.0,0.0,0.0,0.0,0.0,0.0,
0.6682539999999572,0.0,0.0,904.0,0.0,0.0,0.0,0.0,0.25,0.847167882,0.0,0.0,129.0,0.0,0.0,-0.0,0.0,0.125,0.41381831700000005,0.0,0.0,-1357.0,0.0,0.0,0.0,0.0,0.125,3.2739254460000002,0.0,0.0,24.0,0.0,0.0,-0.0,0.0,0.125,1.6052244450000002,0.0,0.0012207029999999897,13.579999923706055,-1.5499999523162842,0.05000000074505806,-0.0228271484375,0.21343994140625,0.97198486328125,33.790000915527344,0.0,4.0,-0.061065673828125,-0.0727386474609375,Waiting,0.0,0.0,-38695.0,0.0,0.0,0.0,0.0,0.0,
0.7086010000000242,0.0,0.0,904.0,0.0,0.0,0.0,0.0,0.25,0.848388585,0.0,0.0,129.0,0.0,0.0,-0.0,0.0,0.125,0.41503902000000004,0.0,0.0,-1357.0,0.0,0.0,0.0,0.0,0.125,3.2751461490000002,0.0,0.0,24.0,0.0,0.0,-0.0,0.0,0.125,1.6052244450000002,0.0,0.0012207029999999897,13.539999961853027,-1.600000023841858,0.009999999776482582,-0.0277099609375,0.2593994140625,0.9901123046875,33.790000915527344,0.0,0.0,-0.061065673828125,-0.073089599609375,Waiting,0.0,0.0,-38695.0,0.0,0.0,0.0,0.0,0.0,
0.7428789999999572,0.0,0.0,904.0,0.0,0.0,0.0,0.0,0.25,0.848388585,0.0,0.0012207029999999897,129.0,0.0,0.0,-0.0,0.0,0.125,0.416259723,0.0,0.0,-1357.0,0.0,0.0,0.0,0.0,0.125,3.276366852,0.0,0.0,24.0,0.0,0.0,-0.0,0.0,0.125,1.6052244450000002,0.0,0.0,13.550000190734863,-1.590000033378601,-0.009999999776482582,-0.032958984375,0.2349853515625,0.99029541015625,33.790000915527344,0.0,-4.0,-0.061065673828125,-0.0732574462890625,Waiting,0.0,0.0,-38695.0,0.0,0.0,0.0,0.0,0.0,
0.776344000000041,0.0,0.0,904.0,0.0,0.0,0.0,0.0,0.25,0.848388585,0.0,-0.0012207029999999897,129.0,0.0,0.0,-0.0,0.0,0.125,0.41503902000000004,0.0,0.0,-1357.0,0.0,0.0,0.0,0.0,0.125,3.2702633370000003,0.0,0.0,24.0,0.0,0.0,-0.0,0.0,0.125,1.6088865540000001,0.0,0.0,13.550000190734863,-1.590000033378601,-0.019999999552965164,-0.02801513671875,0.228271484375,0.98773193359375,33.790000915527344,0.0,0.0,-0.061065673828125,-0.0732574462890625,Waiting,0.0,0.0,-38695.0,0.0,0.0,0.0,0.0,0.0,
0.817155999999959,0.0,0.0,904.0,0.0,0.0,0.0,0.0,0.25,0.848388585,0.0,0.0,129.0,0.0,0.0,-0.0,0.0,0.125,0.41381831700000005,0.0,0.0,-1357.0,0.0,0.0,0.0,0.0,0.125,3.2751461490000002,0.0,0.0,24.0,0.0,0.0,-0.0,0.0,0.125,1.6040037420000002,0.0,0.0,13.579999923706055,-1.5399999618530273,-0.009999999776482582,-0.0262451171875,0.2431640625,0.98974609375,33.790000915527344,0.0,1.0,-0.061065673828125,-0.0732574462890625,Waiting,0.0,0.0,-38695.0,0.0,0.0,0.0,0.0,0.0,
0.8593980000000447,0.0,0.0,904.0,0.0,0.0,0.0,0.0,0.25,0.848388585,0.0,0.0,129.0,0.0,0.0,-0.0,0.0,0.125,0.41381831700000005,0.0,0.0,-1357.0,0.0,0.0,0.0,0.0,0.125,3.2751461490000002,0.0,0.0,24.0,0.0,0.0,-0.0,0.0,0.125,1.6052244450000002,0.0,0.0,13.59000015258789,-1.5099999904632568,0.0,-0.01861572265625,0.22821044921875,0.990966796875,33.779998779296875,0.0,8.0,-0.061065673828125,-0.0732574462890625,Waiting,0.0,0.0,-38695.0,0.0,0.0,0.0,0.0,0.0,
0.9019939999999479,0.0,0.0,904.0,0.0,0.0,0.0,0.0,0.25,0.848388585,0.0,0.0,129.0,0.0,0.0,-0.0,0.0,0.125,0.41381831700000005,0.0,0.0,-1357.0,0.0,0.0,0.0,0.0,0.125,3.2751461490000002,0.0,0.0,24.0,0.0,0.0,-0.0,0.0,0.125,1.6052244450000002,0.0,-0.0012207029999999897,13.600000381469727,-1.4900000095367432,0.0,-0.0274658203125,0.25250244140625,0.9908447265625,33.779998779296875,0.0,0.0,-0.061065673828125,-0.0732574462890625,Waiting,0.0,0.0,-38695.0,0.0,0.0,0.0,0.0,0.0,
0.9366949999998324,0.0,0.0,904.0,0.0,0.0,0.0,0.0,0.25,0.848388585,0.0,0.0,129.0,0.0,0.0,-0.0,0.0,0.125,0.41503902000000004,0.0,0.0,-1357.0,0.0,0.0,0.0,0.0,0.125,3.2739254460000002,0.0,0.0,24.0,0.0,0.0,-0.0,0.0,0.125,1.6040037420000002,0.0,0.0012207029999999897,13.619999885559082,-1.5,-0.019999999552965164,-0.0263671875,0.2530517578125,0.99066162109375,33.779998779296875,0.0,0.0,-0.061065673828125,-0.0732574462890625,Waiting,0.0,0.0,-38695.0,0.0,0.0,0.0,0.0,0.0,
0.976844000000041,0.0,0.0,904.0,0.0,0.0,0.0,0.0,0.25,0.847167882,0.0,0.0,129.0,0.0,0.0,-0.0,0.0,0.125,0.41381831700000005,0.0,0.0,-1357.0,0.0,0.0,0.0,0.0,0.125,3.2739254460000002,0.0,0.0,24.0,0.0,0.0,-0.0,0.0,0.125,1.6052244450000002,0.0,0.0,13.619999885559082,-1.5099999904632568,-0.029999999329447746,-0.024658203125,0.2294921875,0.9925537109375,33.779998779296875,0.0,2.0,-0.061065673828125,-0.0732574462890625,Waiting,0.0,0.0,-38695.0,0.0,0.0,0.0,0.0,0.0,
1.0122600000000093,0.0,0.0,904.0,0.0,0.0,0.0,0.0,0.25,0.847167882,0.0,0.0,129.0,0.0,0.0,-0.0,0.0,0.125,0.41381831700000005,0.0,0.0,-1357.0,0.0,0.0,0.0,0.0,0.125,3.2751461490000002,0.0,0.0,24.0,0.0,0.0,-0.0,0.0,0.125,1.6052244450000002,0.0,0.0,13.59000015258789,-1.5299999713897705,-0.03999999910593033,-0.036865234375,0.2288818359375,0.9930419921875,33.779998779296875,0.0,-9.0,-0.061065673828125,-0.0732574462890625,Waiting,0.0,0.0,-38695.0,0.0,0.0,0.0,0.0,0.0,
1.0469429999999702,0.0,0.0,904.0,0.0,0.0,0.0,0.0,0.25,0.848388585,0.0,0.0,129.0,0.0,0.0,-0.0,0.0,0.125,0.41381831700000005,0.0,0.0,-1357.0,0.0,0.0,0.0,0.0,0.125,3.2751461490000002,0.0,0.0,24.0,0.0,0.0,-0.0,0.0,0.125,1.6052244450000002,0.0,0.0,13.569999694824219,-1.5299999713897705,-0.029999999329447746,-0.032958984375,0.238525390625,0.9893798828125,33.779998779296875,0.0,-5.0,-0.061065673828125,-0.0732574462890625,Waiting,0.0,0.0,-38695.0,0.0,0.0,0.0,0.0,0.0,
1.083067000000039,0.0,0.0,904.0,0.0,0.0,0.0,0.0,0.25,0.848388585,0.0,0.0,129.0,0.0,0.0,-0.0,0.0,0.125,0.41381831700000005,0.0,0.0,-1357.0,0.0,0.0,0.0,0.0,0.125,3.2739254460000002,0.0,-0.0012207029999999897,24.0,0.0,0.0,-0.0,0.0,0.125,1.6052244450000002,0.0,0.0,13.59000015258789,-1.5299999713897705,-0.019999999552965164,-0.0338134765625,0.23919677734375,0.99200439453125,33.779998779296875,0.0,-6.0,-0.061065673828125,-0.0732574462890625,Waiting,0.0,0.0,-38695.0,0.0,0.0,0.0,0.0,0.0,
1.1275479999999516,0.0,0.0,904.0,0.0,0.0,0.0,0.0,0.25,0.848388585,0.0,0.0,129.0,0.0,0.0,-0.0,0.0,0.125,0.417480426,0.0,0.0,-1357.0,0.0,0.0,0.0,0.0,0.125,3.2751461490000002,0.0,0.0012207029999999897,24.0,0.0,0.0,-0.0,0.0,0.125,1.6052244450000002,0.0,0.0,13.59000015258789,-1.5199999809265137,-0.019999999552965164,-0.026123046875,0.23834228515625,0.99102783203125,33.779998779296875,0.0,1.0,-0.061065673828125,-0.0732574462890625,Waiting,0.0,0.0,-38695.0,0.0,0.0,0.0,0.0,0.0,
1.167744999999879,0.0,0.0,904.0,0.0,0.0,0.0,0.0,0.25,0.847167882,0.0,0.0,129.0,0.0,0.0,-0.0,0.0,0.125,0.41381831700000005,0.0,0.0,-1357.0,0.0,0.0,0.0,0.0,0.125,3.276366852,0.0,-0.0012207029999999897,24.0,0.0,0.0,-0.0,0.0,0.125,1.6052244450000002,0.0,-0.0012207029999999897,13.600000381469727,-1.5,-0.019999999552965164,-0.0146484375,0.24078369140625,0.9842529296875,33.779998779296875,0.0,12.0,-0.061065673828125,-0.0732574462890625,Waiting,0.0,0.0,-38695.0,0.0,0.0,0.0,0.0,0.0,
1.2074909999999217,0.0,0.0,904.0,0.0,0.0,0.0,0.0,0.25,0.848388585,0.0,0.0,129.0,0.0,0.0,-0.0,0.0,0.125,0.41381831700000005,0.0,0.0,-1357.0,0.0,0.0,0.0,0.0,0.125,3.2751461490000002,0.0,-0.0012207029999999897,24.0,0.0,0.0,-0.0,0.0,0.125,1.6052244450000002,0.0,-0.0012207029999999897,13.600000381469727,-1.5,-0.009999999776482582,-0.02947998046875,0.2401123046875,0.98333740234375,33.779998779296875,0.0,-2.0,-0.061065673828125,-0.0732574462890625,Waiting,0.0,0.0,-38695.0,0.0,0.0,0.0,0.0,0.0,
1.2434860000000336,0.0,0.0,904.0,0.0,0.0,0.0,0.0,0.25,0.847167882,0.0,0.0,129.0,0.0,0.0,-0.0,0.0,0.125,0.41381831700000005,0.0,0.0,-1357.0,0.0,0.0,0.0,0.0,0.125,3.2751461490000002,0.0,0.0012207029999999897,24.0,0.0,0.0,-0.0,0.0,0.125,1.6052244450000002,0.0,0.0012207029999999897,13.59000015258789,-1.5199999809265137,-0.009999999776482582,-0.03204345703125,0.23992919921875,0.996337890625,33.779998779296875,0.0,-4.0,-0.061065673828125,-0.0732574462890625,Waiting,0.0,0.0,-38695.0,0.0,0.0,0.0,0.0,0.0,
1.2857539999999572,0.0,0.0,904.0,0.0,0.0,0.0,0.0,0.25,0.848388585,0.0,0.0,129.0,0.0,0.0,-0.0,0.0,0.125,0.41503902000000004,0.0,0.0,-1357.0,0.0,0.0,0.0,0.0,0.125,3.2739254460000002,0.0,0.0,24.0,0.0,0.0,-0.0,0.0,0.125,1.6052244450000002,0.0,0.0,13.579999923706055,-1.5399999618530273,-0.009999999776482582,-0.02496337890625,0.239013671875,0.9979248046875,33.779998779296875,0.0,2.0,-0.061065673828125,-0.0732574462890625,Waiting,0.0,0.0,-38695.0,0.0,0.0,0.0,0.0,0.0,
1.3277079999998678,0.0,0.0,904.0,0.0,0.0,0.0,0.0,0.25,0.847167882,0.0,0.0,129.0,0.0,0.0,-0.0,0.0,0.125,0.41503902000000004,0.0,0.0,-1357.0,0.0,0.0,0.0,0.0,0.125,3.2751461490000002,0.0,0.0,24.0,0.0,0.0,-0.0,0.0,0.125,1.6040037420000002,0.0,-0.0012207029999999897,13.579999923706055,-1.5199999809265137,-0.009999999776482582,-0.02996826171875,0.2379150390625,0.99114990234375,33.779998779296875,0.0,-2.0,-0.061065673828125,-0.0732574462890625,Waiting,0.0,0.0,-38695.0,0.0,0.0,0.0,0.0,0.0,
1.3698939999998547,0.0,0.0,904.0,0.0,0.0,0.0,0.0,0.25,0.849609288,0.0,0.0,129.0,0.0,0.0,-0.0,0.0,0.125,0.41503902000000004,0.0,0.0,-1357.0,0.0,0.0,0.0,0.0,0.125,3.2751461490000002,0.0,0.0,24.0,0.0,0.0,-0.0,0.0,0.125,1.6052244450000002,0.0,0.0012207029999999897,13.59000015258789,-1.5,0.0,-0.02923583984375,0.24298095703125,0.9915771484375,33.790000915527344,0.0,-2.0,-0.061065673828125,-0.0732574462890625,Waiting,0.0,0.0,-38695.0,0.0,0.0,0.0,0.0,0.0,
1.4214369999999181,0.0,0.0,904.0,0.0,0.0,0.0,0.0,0.25,0.847167882,0.0,0.0,129.0,0.0,0.0,-0.0,0.0,0.125,0.41503902000000004,0.0,0.0,-1357.0,0.0,0.0,0.0,0.0,0.125,3.2751461490000002,0.0,0.0,24.0,0.0,0.0,-0.0,0.0,0.125,1.6052244450000002,0.0,0.0,13.609999656677246,-1.4900000095367432,0.009999999776482582,-0.0235595703125,0.24053955078125,0.98565673828125,33.790000915527344,0.0,2.0,-0.061065673828125,-0.0732574462890625,Waiting,0.0,0.0,-38695.0,0.0,0.0,0.0,0.0,0.0,
1.4635159999998286,0.0,0.0,904.0,0.0,0.0,0.0,0.0,0.25,0.847167882,0.0,0.0,129.0,0.0,0.0,-0.0,0.0,0.125,0.41381831700000005,0.0,0.0,-1357.0,0.0,0.0,0.0,0.0,0.125,3.2751461490000002,0.0,0.0,24.0,0.0,0.0,-0.0,0.0,0.125,1.6064451480000002,0.0,0.0,13.619999885559082,-1.5,0.0,-0.02764892578125,0.23583984375,0.9979248046875,33.790000915527344,0.0,0.0,-0.061065673828125,-0.0732574462890625,Waiting,0.0,0.0,-38695.0,0.0,0.0,0.0,0.0,0.0,
1.5042949999999256,0.0,0.0,904.0,0.0,0.0,0.0,0.0,0.25,0.847167882,0.0,0.0,129.0,0.0,0.0,-0.0,0.0,0.125,0.41503902000000004,0.0,0.0,-1357.0,0.0,0.0,0.0,0.0,0.125,3.276366852,0.0,0.0,24.0,0.0,0.0,-0.0,0.0,0.125,1.6052244450000002,0.0,0.0,13.600000381469727,-1.5,0.0,-0.028076171875,0.23577880859375,0.98797607421875,33.790000915527344,0.0,-1.0,-0.061065673828125,-0.0732574462890625,Waiting,-12.65,26.75,-38695.0,0.0,0.0,-2600.0,0.0,0.0,
1.5395999999998602,0.0,0.0,904.0,0.0,0.0,0.0,0.0,0.25,0.848388585,0.0,0.0,129.0,0.0,0.0,-0.0,0.0,0.125,0.412597614,0.0,0.0,-1357.0,0.0,0.0,0.0,0.0,0.125,3.276366852,0.0,0.0,24.0,0.0,0.0,-0.0,0.0,0.125,1.6052244450000002,0.0,0.0,13.600000381469727,-1.4900000095367432,0.0,-0.02655029296875,0.2430419921875,0.98760986328125,33.790000915527344,0.0,0.0,-0.061065673828125,-0.0732574462890625,Waiting,-12.65,83.75,-38695.0,0.0,-30.0,-2600.0,0.0,0.0,
1.5804499999999535,0.0,0.0,904.0,0.0,0.0,0.0,0.0,0.25,0.847167882,0.0,0.0,129.0,0.0,0.0,-0.0,0.0,0.125,0.41381831700000005,0.0,0.0,-1357.0,0.0,0.0,0.0,0.0,0.125,3.2751461490000002,0.0,0.0,24.0,0.0,0.0,-0.0,0.0,0.125,1.6052244450000002,0.0,-0.0012207029999999897,13.609999656677246,-1.4900000095367432,0.0,-0.0291748046875,0.2412109375,0.99163818359375,33.790000915527344,0.0,-2.0,-0.061065673828125,-0.0732574462890625,Waiting,-9.75,85.25,-38717.0,-9.0,-142.5,-2600.0,0.0,0.0,
1.6216999999999535,0.0,0.0,904.0,0.0,0.0,0.0,0.0,0.25,0.847167882,0.0,0.0,129.0,0.0,0.0,-0.0,0.0,0.125,0.41381831700000005,0.0,0.0,-1357.0,0.0,0.0,0.0,0.0,0.125,3.276366852,0.0,-0.0012207029999999897,24.0,0.0,0.0,-0.0,0.0,0.125,1.6052244450000002,0.0,0.0,13.600000381469727,-1.5,0.0,-0.02569580078125,0.2432861328125,0.99639892578125,33.790000915527344,0.0,1.0,-0.061065673828125,-0.0732574462890625,Waiting,-9.75,83.625,-38717.0,-9.0,-225.0,-2600.0,0.0,0.0,
1.6640719999999274,0.0,0.0,904.0,0.0,0.0,0.0,0.0,0.25,0.848388585,0.0,0.0,129.0,0.0,0.0,-0.0,0.0,0.125,0.41503902000000004,0.0,0.0,-1357.0,0.0,0.0,0.0,0.0,0.125,3.2751461490000002,0.0,0.0,24.0,0.0,0.0,-0.0,0.0,0.125,1.6052244450000002,0.0,0.0,13.600000381469727,-1.5,0.0,-0.02935791015625,0.2335205078125,0.9901123046875,33.790000915527344,0.0,-2.0,-0.061065673828125,-0.0732574462890625,Waiting,-9.75,79.0,-38717.0,-9.0,-427.5,-2600.0,0.0,0.0,
1.7046409999998287,0.0,0.0,904.0,0.0,0.0,0.0,0.0,0.25,0.847167882,0.0,0.0,129.0,0.0,0.0,-0.0,0.0,0.125,0.41381831700000005,0.0,0.0,-1357.0,0.0,0.0,0.0,0.0,0.125,3.2751461490000002,0.0,0.0,24.0,0.0,0.0,-0.0,0.0,0.125,1.6052244450000002,0.0,0.0,13.600000381469727,-1.4800000190734863,0.0,-0.03271484375,0.23828125,0.98333740234375,33.790000915527344,0.0,-6.0,-0.061065673828125,-0.0732574462890625,Waiting,-10.05,74.125,-38827.0,-78.0,-630.0,-2600.0,0.0,0.0,
1.7373240000000223,0.0,0.0,904.0,0.0,0.0,0.0,0.0,0.25,0.847167882,0.0,0.0,129.0,0.0,0.0,-0.0,0.0,0.125,0.41381831700000005,0.0,0.0,-1357.0,0.0,0.0,0.0,0.0,0.125,3.2751461490000002,0.0,0.0012207029999999897,24.0,0.0,0.0,-0.0,0.0,0.125,1.6064451480000002,0.0,0.0012207029999999897,13.600000381469727,-1.4800000190734863,0.0,-0.02447509765625,0.242919921875,0.9903564453125,33.790000915527344,0.0,1.0,-0.061065673828125,-0.0732574462890625,Waiting,-10.05,70.0,-38827.0,-78.0,-817.5,-2600.0,0.0,0.0,
1.7780119999998716,0.0,0.0,904.0,0.0,0.0,0.0,0.0,0.25,0.848388585,0.0,0.0,129.0,0.0,0.0,-0.0,0.0,0.125,0.41381831700000005,0.0,0.0,-1357.0,0.0,0.0,0.0,0.0,0.125,3.276366852,0.0,0.0,24.0,0.0,0.0,-0.0,0.0,0.125,1.6052244450000002,0.0,0.0,13.609999656677246,-1.4900000095367432,0.0,-0.025146484375,0.2437744140625,0.99072265625,33.790000915527344,0.0,1.0,-0.061065673828125,-0.0732574462890625,Waiting,-10.05,66.375,-38827.0,-78.0,-990.0,-2600.0,0.0,0.0,
1.8198340000000317,0.0,0.0,904.0,0.0,0.0,0.0,0.0,0.25,0.847167882,0.0,0.0,129.0,0.0,0.0,-0.0,0.0,0.125,0.41381831700000005,0.0,0.0,-1357.0,0.0,0.0,0.0,0.0,0.125,3.276366852,0.0,0.0,24.0,0.0,0.0,-0.0,0.0,0.125,1.6052244450000002,0.0,0.0,13.600000381469727,-1.4900000095367432,0.0,-0.0277099609375,0.23876953125,0.99981689453125,33.790000915527344,0.0,0.0,-0.061065673828125,-0.0732574462890625,Waiting,-10.3,63.25,-39017.0,-146.0,-1155.0,-2600.0,0.0,0.0,
1.8629020000000018,0.0,0.0,904.0,0.0,0.0,0.0,0.0,0.25,0.848388585,0.0,0.0,129.0,0.0,0.0,-0.0,0.0,0.125,0.41503902000000004,0.0,0.0,-1357.0,0.0,0.0,0.0,0.0,0.125,3.2751461490000002,0.0,0.0,24.0,0.0,0.0,-0.0,0.0,0.125,1.6040037420000002,0.0,0.0,13.609999656677246,-1.4700000286102295,0.009999999776482582,-0.0289306640625,0.2423095703125,0.99066162109375,33.790000915527344,0.0,-2.0,-0.061065673828125,-0.0732574462890625,Waiting,-10.3,60.5,-39017.0,-146.0,-1312.5,-2600.0,0.0,0.0,
1.9036010000000243,0.0,0.0,904.0,0.0,0.0,0.0,0.0,0.25,0.847167882,0.0,0.0,129.0,0.0,0.0,-0.0,0.0,0.125,0.41381831700000005,0.0,0.0,-1357.0,0.0,0.0,0.0,0.0,0.125,3.2751461490000002,0.0,0.0,24.0,0.0,0.0,-0.0,0.0,0.125,1.6052244450000002,0.0,0.0,13.619999885559082,-1.4600000381469727,0.0,-0.02374267578125,0.2401123046875,0.9796142578125,33.79999923706055,0.0,2.0,-0.061065673828125,-0.0732574462890625,Waiting,-10.3,57.75,-39017.0,-146.0,-1455.0,-2600.0,0.0,0.0,
1.9405570000000298,0.0,0.0,904.0,0.0,0.0,0.0,0.0,0.25,0.847167882,0.0,0.0,129.0,0.0,0.0,-0.0,0.0,0.125,0.41381831700000005,0.0,0.0,-1357.0,0.0,0.0,0.0,0.0,0.125,3.2751461490000002,0.0,0.0,24.0,0.0,0.0,-0.0,0.0,0.125,1.6052244450000002,0.0,0.0,13.630000114440918,-1.4500000476837158,0.0,-0.022216796875,0.248779296875,0.9879150390625,33.79999923706055,0.0,3.0,-0.061065673828125,-0.0732574462890625,Waiting,-10.55,55.125,-39272.0,-203.0,-1590.0,-2600.0,0.0,0.0,
1.9795749999999535,0.0,0.0,904.0,0.0,0.0,0.0,0.0,0.25,0.859374912,0.0,0.0,129.0,0.0,0.0,-0.0,0.0,0.125,0.41381831700000005,0.0,0.0,-1357.0,0.0,0.0,0.0,0.0,0.125,3.2751461490000002,0.0,0.0,24.0,0.0,0.0,-0.0,0.0,0.125,1.6040037420000002,0.0,0.0,13.619999885559082,-1.4500000476837158,0.0,-0.026123046875,0.23626708984375,0.98736572265625,33.79999923706055,0.0,0.0,-0.061065673828125,-0.0732574462890625,Waiting,-10.55,53.0,-39272.0,-203.0,-1717.5,-2600.0,0.0,0.0,
2.02072499999986,0.0,0.0,904.0,0.0,0.0,0.0,0.0,0.25,0.8312987430000001,0.0,0.0,129.0,0.0,0.0,-0.0,0.0,0.125,0.41503902000000004,0.0,0.0,-1357.0,0.0,0.0,0.0,0.0,0.125,3.2751461490000002,0.0,0.0,24.0,0.0,0.0,-0.0,0.0,0.125,1.6052244450000002,0.0,0.0,13.609999656677246,-1.4600000381469727,0.0,-0.02398681640625,0.2357177734375,0.99664306640625,33.79999923706055,0.0,2.0,-0.061065673828125,-0.0732574462890625,Waiting,-10.55,50.75,-39272.0,-203.0,-1837.5,-2600.0,0.0,0.0,
2.0649529999999796,0.0,0.0,904.0,0.0,0.0,0.0,0.0,0.25,0.848388585,0.0,0.0,129.0,0.0,0.0,-0.0,0.0,0.125,0.41381831700000005,0.0,0.0,-1357.0,0.0,0.0,0.0,0.0,0.125,3.2751461490000002,0.0,0.0,24.0,0.0,0.0,-0.0,0.0,0.125,1.6052244450000002,0.0,0.0,13.609999656677246,-1.4700000286102295,0.0,-0.02874755859375,0.239013671875,0.994140625,33.79999923706055,0.0,-2.0,-0.061065673828125,-0.0732574462890625,Waiting,-10.75,49.5,-39582.0,-250.0,-1890.0,-2600.0,0.0,0.0,
2.1077020000000486,0.0,0.0,904.0,0.0,0.0,0.0,0.0,0.25,0.847167882,0.0,0.0,129.0,0.0,0.0,-0.0,0.0,0.125,0.416259723,0.0,0.0,-1357.0,0.0,0.0,0.0,0.0,0.125,3.2751461490000002,0.0,0.0,24.0,0.0,0.0,-0.0,0.0,0.125,1.6052244450000002,0.0,0.0,13.609999656677246,-1.4800000190734863,0.0,-0.02752685546875,0.23590087890625,0.98870849609375,33.79999923706055,0.0,-1.0,-0.061065673828125,-0.0732574462890625,Waiting,-10.75,47.875,-39582.0,-250.0,-2002.5,-2600.0,0.0,0.0,
2.14906799999997,0.0,0.0,904.0,0.0,0.0,0.0,0.0,0.25,0.847167882,0.0,0.0,129.0,0.0,0.0,-0.0,0.0,0.125,0.41381831700000005,0.0,0.0,-1357.0,0.0,0.0,0.0,0.0,0.125,3.2751461490000002,0.0,0.0,24.0,0.0,0.0,-0.0,0.0,0.125,1.6064451480000002,0.0,-0.0012207029999999897,13.600000381469727,-1.4700000286102295,0.0,-0.02105712890625,0.2449951171875,0.99664306640625,33.79999923706055,0.0,5.0,-0.061065673828125,-0.0732574462890625,Waiting,-10.75,46.25,-39582.0,-250.0,-2107.5,-2600.0,0.0,0.0,
2.186332999999868,0.0,0.0,904.0,0.0,0.0,0.0,0.0,0.25,0.847167882,0.0,0.0,129.0,0.0,0.0,-0.0,0.0,0.125,0.41381831700000005,0.0,0.0,-1357.0,0.0,0.0,0.0,0.0,0.125,3.2751461490000002,0.0,0.0,24.0,0.0,0.0,-0.0,0.0,0.125,1.6052244450000002,0.0,0.0012207029999999897,13.609999656677246,-1.4600000381469727,0.0,-0.02569580078125,0.238525390625,0.99530029296875,33.79999923706055,0.0,0.0,-0.061065673828125,-0.0732574462890625,Waiting,-10.850000000000001,44.625,-39937.0,-289.0,-2197.5,-2600.0,0.0,0.0,
2.2247039999999108,0.0,0.0,904.0,0.0,0.0,0.0,0.0,0.25,0.847167882,0.0,0.0,129.0,0.0,0.0,-0.0,0.0,0.125,0.41503902000000004,0.0,0.0,-1357.0,0.0,0.0,0.0,0.0,0.125,3.2751461490000002,0.0,0.0,24.0,0.0,0.0,-0.0,0.0,0.125,1.6052244450000002,0.0,-0.0012207029999999897,13.609999656677246,-1.4600000381469727,0.0,-0.02685546875,0.2392578125,0.99249267578125,33.79999923706055,0.0,0.0,-0.061065673828125,-0.0732574462890625,Waiting,-10.850000000000001,43.0,-39937.0,-289.0,-2280.0,-2600.0,0.0,0.0,
2.2653859999999404,0.0,0.0,904.0,0.0,0.0,0.0,0.0,0.25,0.847167882,0.0,0.0,129.0,0.0,0.0,-0.0,0.0,0.125,0.41381831700000005,0.0,0.0,-1357.0,0.0,0.0,0.0,0.0,0.125,3.276366852,0.0,0.0,24.0,0.0,0.0,-0.0,0.0,0.125,1.6064451480000002,0.0,-0.0012207029999999897,13.619999885559082,-1.4500000476837158,0.0,-0.02423095703125,0.2470703125,0.9876708984375,33.79999923706055,0.0,1.0,-0.061065673828125,-0.0732574462890625,Waiting,-10.850000000000001,41.75,-39937.0,-289.0,-2362.5,-2600.0,0.0,0.0,
2.3035799999998416,0.0,0.0,904.0,0.0,0.0,0.0,0.0,0.25,0.847167882,0.0,0.0,129.0,0.0,0.0,-0.0,0.0,0.125,0.41381831700000005,0.0,0.0,-1357.0,0.0,0.0,0.0,0.0,0.125,3.276366852,0.0,0.0,24.0,0.0,0.0,-0.0,0.0,0.125,1.6052244450000002,0.0,0.0,13.640000343322754,-1.440000057220459,-0.009999999776482582,-0.020263671875,0.25128173828125,0.98876953125,33.79999923706055,0.0,5.0,-0.061065673828125,-0.0732574462890625,Waiting,-11.0,40.75,-40329.0,-321.0,-2437.5,-2600.0,0.0,0.0,
2.3404269999999086,0.0,0.0,904.0,0.0,0.0,0.0,0.0,0.25,0.847167882,0.0,0.0,129.0,0.0,0.0,-0.0,0.0,0.125,0.41381831700000005,0.0,0.0,-1357.0,0.0,0.0,0.0,0.0,0.125,3.2739254460000002,0.0,0.0,24.0,0.0,0.0,-0.0,0.0,0.125,1.6064451480000002,0.0,0.0,13.630000114440918,-1.440000057220459,-0.03999999910593033,-0.024658203125,0.2216796875,0.97698974609375,33.79999923706055,0.0,0.0,-0.061065673828125,-0.0732574462890625,Waiting,-11.0,39.625,-40329.0,-321.0,-2512.5,-2600.0,0.0,0.0,
2.3833850000000094,0.0,0.0,904.0,0.0,0.0,0.0,0.0,0.25,0.847167882,0.0,0.0,129.0,0.0,0.0,-0.0,0.0,0.125,0.41381831700000005,0.0,0.0,-1357.0,0.0,0.0,0.0,0.0,0.125,3.2751461490000002,0.0,0.0,24.0,0.0,0.0,-0.0,0.0,0.125,1.6052244450000002,0.0,0.0,13.600000381469727,-1.4500000476837158,-0.05000000074505806,-0.02911376953125,0.22509765625,0.99835205078125,33.79999923706055,0.0,-3.0,-0.061065673828125,-0.0734100341796875,Waiting,-11.0,38.5,-40329.0,-321.0,-2580.0,-2600.0,0.0,0.0,
2.4225359999998473,0.0,0.0,904.0,0.0,0.0,0.0,0.0,0.25,0.847167882,0.0,0.0,129.0,0.0,0.0,-0.0,0.0,0.125,0.41381831700000005,0.0,0.0,-1357.0,0.0,0.0,0.0,0.0,0.125,3.2751461490000002,0.0,0.0,24.0,0.0,0.0,-0.0,0.0,0.125,1.6052244450000002,0.0,0.0012207029999999897,13.600000381469727,-1.399999976158142,-0.019999999552965164,-0.02593994140625,0.23529052734375,0.98486328125,33.79999923706055,0.0,-1.0,-0.061065673828125,-0.0734100341796875,Waiting,-11.100000000000001,37.125,-40752.0,-348.0,-2647.5,-2600.0,0.0,0.0,
2.4658009999999777,0.0,0.0,904.0,0.0,0.0,0.0,0.0,0.25,0.848388585,0.0,0.0,129.0,0.0,0.0,-0.0,0.0,0.125,0.41381831700000005,0.0,0.0,-1357.0,0.0,0.0,0.0,0.0,0.125,3.2751461490000002,0.0,0.0,24.0,0.0,0.0,-0.0,0.0,0.125,1.6064451480000002,0.0,0.0012207029999999897,13.619999885559082,-1.3700000047683716,-0.009999999776482582,-0.03070068359375,0.25482177734375,0.98016357421875,33.79999923706055,0.0,-6.0,-0.061065673828125,-0.0734100341796875,Waiting,-10.42727272727273,35.875,-40752.0,-348.0,-2677.5,-2600.0,0.0,0.0,
2.5067260000000244,0.0,0.0,904.0,0.0,0.0,0.0,0.0,0.25,0.847167882,0.0,0.0,129.0,0.0,0.0,-0.0,0.0,0.125,0.416259723,0.0,0.0,-1357.0,0.0,0.0,0.0,0.0,0.125,3.2751461490000002,0.0,0.0,24.0,0.0,0.0,-0.0,0.0,0.125,1.6052244450000002,0.0,0.0,13.640000343322754,-1.3600000143051147,0.0,-0.02294921875,0.24114990234375,0.9794921875,33.79999923706055,0.0,1.0,-0.061065673828125,-0.0734100341796875,Waiting,-9.526686217008798,28.75,-40752.0,-348.0,-2730.0,-2600.0,0.0,0.0,
2.5439860000000336,0.0,0.0,904.0,0.0,0.0,0.0,0.0,0.25,0.847167882,0.0,0.0,129.0,0.0,0.0,-0.0,0.0,0.125,0.41381831700000005,0.0,0.0,-1357.0,0.0,0.0,0.0,0.0,0.125,3.2751461490000002,0.0,0.0,24.0,0.0,0.0,-0.0,0.0,0.125,1.6052244450000002,0.0,0.0,13.649999618530273,-1.3600000143051147,0.009999999776482582,-0.020751953125,0.24725341796875,0.99163818359375,33.79999923706055,0.0,3.0,-0.061065673828125,-0.0734100341796875,Waiting,-9.058064516129033,19.625,-41199.0,-369.0,-2775.0,-2600.0,0.0,0.0,
2.5849539999999105,0.0,0.0,904.0,0.0,0.0,0.0,0.0,0.25,0.848388585,0.0,0.0,129.0,0.0,0.0,-0.0,0.0,0.125,0.41381831700000005,0.0,0.0,-1357.0,0.0,0.0,0.0,0.0,0.125,3.276366852,0.0,0.0,24.0,0.0,0.0,-0.0,0.0,0.125,1.6040037420000002,0.0,-0.0012207029999999897,13.649999618530273,-1.3600000143051147,0.019999999552965164,-0.02044677734375,0.2454833984375,1.00537109375,33.79999923706055,0.0,4.0,-0.061065673828125,-0.0734100341796875,Waiting,-8.36041055718475,13.625,-41199.0,-369.0,-2805.0,-2600.0,0.0,0.0,
2.6261809999998658,0.0,0.0,904.0,0.0,0.0,0.0,0.0,0.25,0.847167882,0.0,0.0,129.0,0.0,0.0,-0.0,0.0,0.125,0.41381831700000005,0.0,0.0,-1357.0,0.0,0.0,0.0,0.0,0.125,3.2739254460000002,0.0,-0.0012207029999999897,24.0,0.0,0.0,-0.0,0.0,0.125,1.6064451480000002,0.0,0.0012207029999999897,13.65999984741211,-1.3799999952316284,0.009999999776482582,-0.02313232421875,0.24725341796875,0.9930419921875,33.79999923706055,0.0,1.0,-0.061065673828125,-0.0734100341796875,Waiting,-8.08592375366569,10.5,-41199.0,-369.0,-2820.0,-2600.0,0.0,0.0,
2.669689000000013,0.0,0.0,904.0,0.0,0.0,0.0,0.0,0.25,0.847167882,0.0,0.0,129.0,0.0,0.0,-0.0,0.0,0.125,0.41381831700000005,0.0,0.0,-1357.0,0.0,0.0,0.0,0.0,0.125,3.2739254460000002,0.0,0.0012207029999999897,24.0,0.0,0.0,-0.0,0.0,0.125,1.6052244450000002,0.0,0.0,13.65999984741211,-1.3700000047683716,0.009999999776482582,-0.02691650390625,0.24462890625,0.990234375,33.79999923706055,0.0,-2.0,-0.061065673828125,-0.0734100341796875,Waiting,-8.244086021505375,9.0,-41651.0,-376.0,-2820.0,-2600.0,0.0,0.0,
2.7099790000000503,0.0,0.0,904.0,0.0,0.0,0.0,0.0,0.25,0.847167882,0.0,0.0,129.0,0.0,0.0,-0.0,0.0,0.125,0.417480426,0.0,0.0,-1357.0,0.0,0.0,0.0,0.0,0.125,3.2751461490000002,0.0,0.0012207029999999897,24.0,0.0,0.0,-0.0,0.0,0.125,1.6052244450000002,0.0,0.0,13.649999618530273,-1.3799999952316284,0.0,-0.02374267578125,0.23870849609375,0.99212646484375,33.79999923706055,0.0,0.0,-0.061065673828125,-0.0734100341796875,Waiting,-8.303225806451612,8.875,-41651.0,-376.0,-2812.5,-2600.0,0.0,0.0,
2.742872999999905,0.0,0.0,904.0,0.0,0.0,0.0,0.0,0.25,0.847167882,0.0,0.0,129.0,0.0,0.0,-0.0,0.0,0.125,0.41503902000000004,0.0,0.0,-1357.0,0.0,0.0,0.0,0.0,0.125,3.2751461490000002,0.0,-0.0012207029999999897,24.0,0.0,0.0,-0.0,0.0,0.125,1.6040037420000002,0.0,-0.0012207029999999897,13.649999618530273,-1.3799999952316284,0.0,-0.02056884765625,0.24609375,0.99127197265625,33.79999923706055,0.0,4.0,-0.061065673828125,-0.0734100341796875,Waiting,-8.49247311827957,9.375,-41651.0,-376.0,-2797.5,-2600.0,0.0,0.0,
2.789033000000054,0.0,0.0,904.0,0.0,0.0,0.0,0.0,0.25,0.847167882,0.0,0.0,129.0,0.0,0.0,-0.0,0.0,0.125,0.41381831700000005,0.0,0.0,-1357.0,0.0,0.0,0.0,0.0,0.125,3.2751461490000002,0.0,0.0012207029999999897,24.0,0.0,0.0,-0.0,0.0,0.125,1.6052244450000002,0.0,0.0012207029999999897,13.65999984741211,-1.3600000143051147,0.0,-0.02374267578125,0.236572265625,0.9921875,33.79999923706055,0.0,0.0,-0.061065673828125,-0.0734100341796875,Waiting,-8.539784946236558,10.125,-42097.0,-373.0,-2790.0,-2600.0,0.0,0.0,
2.8293829999999143,0.0,0.0,904.0,0.0,0.0,0.0,0.0,0.25,0.847167882,0.0,0.0,129.0,0.0,0.0,-0.0,0.0,0.125,0.41381831700000005,0.0,0.0,-1357.0,0.0,0.0,0.0,0.0,0.125,3.2751461490000002,0.0,0.0,24.0,0.0,0.0,-0.0,0.0,0.125,1.6052244450000002,0.0,0.0,13.649999618530273,-1.3600000143051147,-0.009999999776482582,-0.02734375,0.23309326171875,0.995849609375,33.79999923706055,0.0,-2.0,-0.061065673828125,-0.0734100341796875,Waiting,-8.610752688172042,10.875,-42097.0,-373.0,-2782.5,-2600.0,0.0,0.0,
2.8705189999998546,0.0,0.0,904.0,0.0,0.0,0.0,0.0,0.25,0.847167882,0.0,0.0,129.0,0.0,0.0,-0.0,0.0,0.125,0.41381831700000005,0.0,0.0,-1357.0,0.0,0.0,0.0,0.0,0.125,3.2751461490000002,0.0,0.0,24.0,0.0,0.0,-0.0,0.0,0.125,1.6052244450000002,0.0,0.0,13.630000114440918,-1.3700000047683716,0.0,-0.0252685546875,0.25201416015625,0.98968505859375,33.79999923706055,0.0,0.0,-0.061065673828125,-0.0734100341796875,Waiting,-8.66989247311828,11.25,-42097.0,-373.0,-2775.0,-2600.0,0.0,0.0,
2.9121269999998622,0.0,0.0,904.0,0.0,0.0,0.0,0.0,0.25,0.848388585,0.0,0.0,129.0,0.0,0.0,-0.0,0.0,0.125,0.41381831700000005,0.0,0.0,-1357.0,0.0,0.0,0.0,0.0,0.125,3.2751461490000002,0.0,0.0,24.0,0.0,0.0,-0.0,0.0,0.125,1.6052244450000002,0.0,0.0,13.649999618530273,-1.3600000143051147,0.009999999776482582,-0.023681640625,0.25103759765625,0.98529052734375,33.779998779296875,0.0,0.0,-0.061065673828125,-0.0734100341796875,Waiting,-8.716520039100685,11.625,-42541.0,-369.0,-2767.5,-2600.0,0.0,0.0,
2.95185400000005,0.0,0.0,904.0,0.0,0.0,0.0,0.0,0.25,0.8410643670000001,0.0,0.0,129.0,0.0,0.0,-0.0,0.0,0.125,0.41503902000000004,0.0,0.0,-1357.0,0.0,0.0,0.0,0.0,0.125,3.2751461490000002,0.0,0.0,24.0,0.0,0.0,-0.0,0.0,0.125,1.6052244450000002,0.0,0.0,13.680000305175781,-1.350000023841858,0.009999999776482582,-0.02581787109375,0.24749755859375,0.97821044921875,33.779998779296875,0.0,-1.0,-0.061065673828125,-0.0734100341796875,Waiting,-9.953323558162268,11.625,-42541.0,-369.0,-2760.0,-2600.0,0.0,0.0,
2.985402000000002,0.0,0.0,904.0,0.0,0.0,0.0,0.0,0.25,0.847167882,0.0,0.0,129.0,0.0,0.0,-0.0,0.0,0.125,0.41381831700000005,0.0,0.0,-1357.0,0.0,0.0,0.0,0.0,0.125,3.2751461490000002,0.0,-0.0012207029999999897,24.0,0.0,0.0,-0.0,0.0,0.125,1.6052244450000002,0.0,0.0,13.6899995803833,-1.340000033378601,0.0,-0.02471923828125,0.2470703125,1.00274658203125,33.779998779296875,0.0,0.0,-0.061065673828125,-0.0734100341796875,Waiting,-8.704740957966765,11.5,-42541.0,-369.0,-2760.0,-2600.0,0.0,0.0,
3.025905999999959,0.0,0.0,904.0,0.0,0.0,0.0,0.0,0.25,0.848388585,0.0,0.0,129.0,0.0,0.0,-0.0,0.0,0.125,0.41381831700000005,0.0,0.0,-1357.0,0.0,0.0,0.0,0.0,0.125,3.2751461490000002,0.0,0.0012207029999999897,24.0,0.0,0.0,-0.0,0.0,0.125,1.6052244450000002,0.0,-0.0012207029999999897,13.670000076293945,-1.3600000143051147,0.0,-0.025390625,0.23382568359375,1.01031494140625,33.779998779296875,0.0,0.0,-0.061065673828125,-0.0734100341796875,Waiting,-8.610508308895406,11.5,-42983.0,-368.0,-2760.0,-2600.0,0.0,0.0,
3.0618909999998287,0.0,0.0,904.0,0.0,0.0,0.0,0.0,0.25,0.848388585,0.0,0.0,129.0,0.0,0.0,-0.0,0.0,0.125,0.41381831700000005,0.0,0.0,-1357.0,0.0,0.0,0.0,0.0,0.125,3.276366852,0.0,0.0012207029999999897,24.0,0.0,0.0,-0.0,0.0,0.125,1.6052244450000002,0.0,0.0012207029999999897,13.649999618530273,-1.3700000047683716,0.0,-0.02392578125,0.23663330078125,1.00665283203125,33.779998779296875,0.0,0.0,-0.061065673828125,-0.0734100341796875,Waiting,-8.539833822091886,11.125,-42983.0,-368.0,-2760.0,-2600.0,0.0,0.0,
3.1096149999999905,0.0,0.0,904.0,0.0,0.0,0.0,0.0,0.25,0.847167882,0.0,0.0,129.0,0.0,0.0,-0.0,0.0,0.125,0.412597614,0.0,0.0,-1357.0,0.0,0.0,0.0,0.0,0.125,3.2751461490000002,0.0,0.0,24.0,0.0,0.0,-0.0,0.0,0.125,1.6052244450000002,0.0,0.0012207029999999897,13.649999618530273,-1.3600000143051147,0.0,-0.026123046875,0.24456787109375,0.99395751953125,33.779998779296875,0.0,-1.0,-0.061065673828125,-0.0734100341796875,Waiting,-8.610508308895406,11.0,-42983.0,-368.0,-2752.5,-2600.0,0.0,0.0,
3.1432730000000446,0.0,0.0,904.0,0.0,0.0,0.0,0.0,0.25,0.848388585,0.0,0.0,129.0,0.0,0.0,-0.0,0.0,0.125,0.41381831700000005,0.0,0.0,-1357.0,0.0,0.0,0.0,0.0,0.125,3.276366852,0.0,0.0,24.0,0.0,0.0,-0.0,0.0,0.125,1.6052244450000002,0.0,0.0,13.65999984741211,-1.3600000143051147,0.0,-0.02587890625,0.2447509765625,0.98968505859375,33.779998779296875,0.0,-1.0,-0.061065673828125,-0.0734100341796875,Waiting,-8.539833822091886,11.0,-43424.0,-367.0,-2752.5,-2600.0,0.0,0.0,
3.178868000000017,0.0,0.0,904.0,0.0,0.0,0.0,0.0,0.25,0.8666991300000001,0.0,0.0,129.0,0.0,0.0,-0.0,0.0,0.125,0.41381831700000005,0.0,0.0,-1357.0,0.0,0.0,0.0,0.0,0.125,3.2751461490000002,0.0,0.0,24.0,0.0,0.0,-0.0,0.0,0.125,1.6052244450000002,0.0,0.0,13.65999984741211,-1.350000023841858,0.0,-0.022216796875,0.2437744140625,0.9910888671875,33.779998779296875,0.0,1.0,-0.061065673828125,-0.0734100341796875,Waiting,-8.610508308895406,11.0,-43424.0,-367.0,-2745.0,-2600.0,0.0,0.0,
3.2139849999998695,0.0,0.0,904.0,0.0,0.0,0.0,0.0,0.25,0.848388585,0.0,0.0,129.0,0.0,0.0,-0.0,0.0,0.125,0.41381831700000005,0.0,0.0,-1357.0,0.0,0.0,0.0,0.0,0.125,3.2739254460000002,0.0,0.0,24.0,0.0,0.0,-0.0,0.0,0.125,1.6052244450000002,0.0,0.0,13.65999984741211,-1.350000023841858,0.0,-0.01708984375,0.2401123046875,0.99554443359375,33.779998779296875,0.0,7.0,-0.061065673828125,-0.0734100341796875,Waiting,-8.539833822091886,11.0,-43424.0,-367.0,-2745.0,-2600.0,0.0,0.0,
3.2531909999998754,0.0,0.0,904.0,0.0,0.0,0.0,0.0,0.25,0.847167882,0.0,0.0,129.0,0.0,0.0,-0.0,0.0,0.125,0.41381831700000005,0.0,0.0,-1357.0,0.0,0.0,0.0,0.0,0.125,3.2739254460000002,0.0,0.0,24.0,0.0,0.0,-0.0,0.0,0.125,1.6064451480000002,0.0,0.0,13.65999984741211,-1.3600000143051147,0.0,-0.0269775390625,0.23980712890625,0.9952392578125,33.779998779296875,0.0,-2.0,-0.061065673828125,-0.0734100341796875,Waiting,-8.457380254154447,10.875,-43863.0,-366.0,-2745.0,-2600.0,0.0,0.0,
3.290967999999877,0.0,0.0,904.0,0.0,0.0,0.0,0.0,0.25,0.848388585,0.0,0.0,129.0,0.0,0.0,-0.0,0.0,0.125,0.41503902000000004,0.0,0.0,-1357.0,0.0,0.0,0.0,0.0,0.125,3.2739254460000002,0.0,0.0,24.0,0.0,0.0,-0.0,0.0,0.125,1.6064451480000002,0.0,0.0,13.649999618530273,-1.3600000143051147,-0.009999999776482582,-0.0263671875,0.2396240234375,0.99859619140625,33.779998779296875,0.0,-1.0,-0.061065673828125,-0.0734100341796875,Waiting,-8.551612903225807,11.125,-43863.0,-366.0,-2737.5,-2600.0,0.0,0.0,
3.332774999999907,0.0,0.0,904.0,0.0,0.0,0.0,0.0,0.25,0.847167882,0.0,0.0,129.0,0.0,0.0,-0.0,0.0,0.125,0.41381831700000005,0.0,0.0,-1357.0,0.0,0.0,0.0,0.0,0.125,3.2751461490000002,0.0,0.0,24.0,0.0,0.0,-0.0,0.0,0.125,1.6052244450000002,0.0,0.0,13.65999984741211,-1.3600000143051147,-0.009999999776482582,-0.0250244140625,0.24468994140625,0.9971923828125,33.779998779296875,0.0,0.0,-0.061065673828125,-0.0734100341796875,Waiting,-8.480938416422287,11.125,-43863.0,-366.0,-2737.5,-2600.0,0.0,0.0,
3.3693009999999775,0.0,0.0,904.0,0.0,0.0,0.0,0.0,0.25,0.848388585,0.0,0.0,129.0,0.0,0.0,-0.0,0.0,0.125,0.41381831700000005,0.0,0.0,-1357.0,0.0,0.0,0.0,0.0,0.125,3.2751461490000002,0.0,0.0,24.0,0.0,0.0,-0.0,0.0,0.125,1.6088865540000001,0.0,0.0,13.65999984741211,-1.3600000143051147,-0.009999999776482582,-0.01763916015625,0.24664306640625,0.99224853515625,33.779998779296875,0.0,6.0,-0.061065673828125,-0.0734100341796875,Waiting,-8.586950146627567,11.0,-43863.0,-366.0,-2730.0,-2600.0,0.0,0.0,
3.4041189999999477,0.0,0.0,904.0,0.0,0.0,0.0,0.0,0.25,0.848388585,0.0,0.0,129.0,0.0,0.0,-0.0,0.0,0.125,0.41381831700000005,0.0,0.0,-1357.0,0.0,0.0,0.0,0.0,0.125,3.276366852,0.0,0.0,24.0,0.0,0.0,-0.0,0.0,0.125,1.6052244450000002,0.0,-0.0012207029999999897,13.670000076293945,-1.350000023841858,-0.009999999776482582,-0.02288818359375,0.23919677734375,0.98516845703125,33.79999923706055,0.0,1.0,-0.061065673828125,-0.0734100341796875,Waiting,-8.551612903225806,11.125,-44301.0,-364.0,-2730.0,-2600.0,0.0,0.0,
3.4368070000000297,0.0,0.0,904.0,0.0,0.0,0.0,0.0,0.25,0.848388585,0.0,0.0012207029999999897,129.0,0.0,0.0,-0.0,0.0,0.125,0.41381831700000005,0.0,0.0,-1357.0,0.0,0.0,0.0,0.0,0.125,3.2751461490000002,0.0,0.0,24.0,0.0,0.0,-0.0,0.0,0.125,1.6052244450000002,0.0,0.0012207029999999897,13.670000076293945,-1.350000023841858,-0.019999999552965164,-0.0255126953125,0.24041748046875,0.994140625,33.79999923706055,0.0,-1.0,-0.061065673828125,-0.0734100341796875,Waiting,-8.634408602150538,11.5,-44301.0,-364.0,-2722.5,-2600.0,0.0,0.0,
3.4786369999998716,0.0,0.0,904.0,0.0,0.0,0.0,0.0,0.25,0.848388585,0.0,-0.0012207029999999897,129.0,0.0,0.0,-0.0,0.0,0.125,0.411376911,0.0,0.0,-1357.0,0.0,0.0,0.0,0.0,0.125,3.2751461490000002,0.0,0.0,24.0,0.0,0.0,-0.0,0.0,0.125,1.6064451480000002,0.0,0.0,13.670000076293945,-1.350000023841858,-0.019999999552965164,-0.02252197265625,0.23779296875,0.99041748046875,33.79999923706055,0.0,1.0,-0.061065673828125,-0.0734100341796875,Waiting,-8.575268817204302,11.25,-44737.0,-363.0,-2722.5,-2600.0,0.0,0.0,
3.5246820000000296,0.0,0.0,904.0,0.0,0.0,0.0,0.0,0.25,0.847167882,0.0,-0.0012207029999999897,129.0,0.0,0.0,-0.0,0.0,0.125,0.41503902000000004,0.0,0.0,-1357.0,0.0,0.0,0.0,0.0,0.125,3.2751461490000002,0.0,0.0,24.0,0.0,0.0,-0.0,0.0,0.125,1.6052244450000002,0.0,-0.0012207029999999897,13.670000076293945,-1.350000023841858,-0.019999999552965164,-0.02020263671875,0.239990234375,0.98431396484375,33.79999923706055,0.0,3.0,-0.061065673828125,-0.0734100341796875,Waiting,-8.504301075268817,11.0,-44737.0,-363.0,-2722.5,-2600.0,0.0,0.0,
3.5675130000000355,0.0,0.0,904.0,0.0,0.0,0.0,0.0,0.25,0.848388585,0.0,-0.0012207029999999897,129.0,0.0,0.0,-0.0,0.0,0.125,0.41503902000000004,0.0,0.0,-1357.0,0.0,0.0,0.0,0.0,0.125,3.2751461490000002,0.0,0.0,24.0,0.0,0.0,-0.0,0.0,0.125,1.6052244450000002,0.0,-0.0012207029999999897,13.670000076293945,-1.350000023841858,-0.019999999552965164,-0.02313232421875,0.24114990234375,0.9931640625,33.79999923706055,0.0,1.0,-0.061065673828125,-0.0734100341796875,Waiting,-8.587096774193549,10.875,-44737.0,-363.0,-2715.0,-2600.0,0.0,0.0,
3.6077669999999924,0.0,0.0,904.0,0.0,0.0,0.0,0.0,0.25,0.847167882,0.0,0.0012207029999999897,129.0,0.0,0.0,-0.0,0.0,0.125,0.41503902000000004,0.0,0.0,-1357.0,0.0,0.0,0.0,0.0,0.125,3.2751461490000002,0.0,-0.0012207029999999897,24.0,0.0,0.0,-0.0,0.0,0.125,1.6052244450000002,0.0,0.0012207029999999897,13.670000076293945,-1.350000023841858,-0.019999999552965164,-0.02557373046875,0.24200439453125,0.9949951171875,33.79999923706055,0.0,-1.0,-0.061065673828125,-0.0734100341796875,Waiting,-8.539784946236558,11.0,-45175.0,-362.0,-2715.0,-2600.0,0.0,0.0,
3.646621999999974,0.0,0.0,904.0,0.0,0.0,0.0,0.0,0.25,0.847167882,0.0,0.0,129.0,0.0,0.0,-0.0,0.0,0.125,0.41381831700000005,0.0,0.0,-1357.0,0.0,0.0,0.0,0.0,0.125,3.2751461490000002,0.0,0.0012207029999999897,24.0,0.0,0.0,-0.0,0.0,0.125,1.6052244450000002,0.0,-0.0012207029999999897,13.65999984741211,-1.3600000143051147,-0.009999999776482582,-0.02435302734375,0.2403564453125,0.99090576171875,33.79999923706055,0.0,0.0,-0.061065673828125,-0.0734100341796875,Waiting,-8.634408602150538,11.125,-45175.0,-362.0,-2707.5,-2600.0,0.0,0.0,
3.6857970000000204,0.0,0.0,904.0,0.0,0.0,0.0,0.0,0.25,0.847167882,0.0,0.0,129.0,0.0,0.0,-0.0,0.0,0.125,0.41381831700000005,0.0,0.0,-1357.0,0.0,0.0,0.0,0.0,0.125,3.2751461490000002,0.0,0.0,24.0,0.0,0.0,-0.0,0.0,0.125,1.6052244450000002,0.0,0.0012207029999999897,13.65999984741211,-1.3600000143051147,-0.009999999776482582,-0.02471923828125,0.2393798828125,0.99444580078125,33.79999923706055,0.0,0.0,-0.061065673828125,-0.0734100341796875,Waiting,-8.563440860215053,11.25,-45175.0,-362.0,-2707.5,-2600.0,0.0,0.0,
3.7281949999998325,0.0,0.0,904.0,0.0,0.0,0.0,0.0,0.25,0.847167882,0.0,0.0,129.0,0.0,0.0,-0.0,0.0,0.125,0.41381831700000005,0.0,0.0,-1357.0,0.0,0.0,0.0,0.0,0.125,3.2751461490000002,0.0,0.0,24.0,0.0,0.0,-0.0,0.0,0.125,1.6052244450000002,0.0,0.0,13.65999984741211,-1.3600000143051147,-0.009999999776482582,-0.02581787109375,0.24237060546875,0.9854736328125,33.79999923706055,0.0,-1.0,-0.061065673828125,-0.0734100341796875,Waiting,-8.539442815249267,11.125,-45604.0,-361.0,-2707.5,-2600.0,0.0,0.0,
3.769949000000022,0.0,0.0,904.0,0.0,0.0,0.0,0.0,0.25,0.848388585,0.0,0.0,129.0,0.0,0.0,-0.0,0.0,0.125,0.416259723,0.0,0.0,-1357.0,0.0,0.0,0.0,0.0,0.125,3.2751461490000002,0.0,0.0,24.0,0.0,0.0,-0.0,0.0,0.125,1.6052244450000002,0.0,0.0,13.670000076293945,-1.3600000143051147,-0.019999999552965164,-0.02374267578125,0.2432861328125,0.9923095703125,33.79999923706055,0.0,0.0,-0.061065673828125,-0.0734100341796875,Waiting,-8.64633431085044,11.0,-45604.0,-361.0,-2700.0,-2600.0,0.0,0.0,
3.810533000000054,0.0,0.0,904.0,0.0,0.0,0.0,0.0,0.25,0.848388585,0.0,0.0,129.0,0.0,0.0,-0.0,0.0,0.125,0.41381831700000005,0.0,0.0,-1357.0,0.0,0.0,0.0,0.0,0.125,3.2751461490000002,0.0,0.0,24.0,0.0,0.0,-0.0,0.0,0.125,1.6052244450000002,0.0,0.0,13.670000076293945,-1.3600000143051147,-0.019999999552965164,-0.0244140625,0.24456787109375,0.9927978515625,33.79999923706055,0.0,0.0,-0.061065673828125,-0.0734100341796875,Waiting,-8.586950146627567,11.125,-45604.0,-361.0,-2700.0,-2600.0,0.0,0.0,
3.849939999999944,0.0,0.0,904.0,0.0,0.0,0.0,0.0,0.25,0.847167882,0.0,0.0012207029999999897,129.0,0.0,0.0,-0.0,0.0,0.125,0.41503902000000004,0.0,0.0,-1357.0,0.0,0.0,0.0,0.0,0.125,3.2751461490000002,0.0,0.0,24.0,0.0,0.0,-0.0,0.0,0.125,1.6064451480000002,0.0,0.0,13.670000076293945,-1.3700000047683716,-0.019999999552965164,-0.0208740234375,0.237060546875,0.9940185546875,33.79999923706055,0.0,3.0,-0.061065673828125,-0.0734100341796875,Waiting,-8.527565982404694,11.0,-46037.0,-360.0,-2700.0,-2600.0,0.0,0.0,
3.8936080000000075,0.0,0.0,904.0,0.0,0.0,0.0,0.0,0.25,0.847167882,0.0,-0.0012207029999999897,129.0,0.0,0.0,-0.0,0.0,0.125,0.41381831700000005,0.0,0.0,-1357.0,0.0,0.0,0.0,0.0,0.125,3.276366852,0.0,0.0,24.0,0.0,0.0,-0.0,0.0,0.125,1.6052244450000002,0.0,0.0,13.65999984741211,-1.3700000047683716,-0.019999999552965164,-0.0218505859375,0.23785400390625,0.9908447265625,33.79999923706055,0.0,2.0,-0.061065673828125,-0.0734100341796875,Waiting,-8.468181818181819,10.625,-46037.0,-360.0,-2700.0,-2600.0,0.0,0.0,
3.934193999999901,0.0,0.0,904.0,0.0,0.0,0.0,0.0,0.25,0.847167882,0.0,0.0,129.0,0.0,0.0,-0.0,0.0,0.125,0.41381831700000005,0.0,0.0,-1357.0,0.0,0.0,0.0,0.0,0.125,3.2751461490000002,0.0,0.0,24.0,0.0,0.0,-0.0,0.0,0.125,1.6052244450000002,0.0,0.0,13.65999984741211,-1.3600000143051147,-0.019999999552965164,-0.02490234375,0.2442626953125,0.9886474609375,33.779998779296875,0.0,0.0,-0.061065673828125,-0.0734100341796875,Waiting,-8.575073313782992,11.0,-46037.0,-360.0,-2692.5,-2600.0,0.0,0.0,
3.9747630000000354,0.0,0.0,904.0,0.0,0.0,0.0,0.0,0.25,0.847167882,0.0,0.0,129.0,0.0,0.0,-0.0,0.0,0.125,0.41381831700000005,0.0,0.0,-1357.0,0.0,0.0,0.0,0.0,0.125,3.2751461490000002,0.0,0.0,24.0,0.0,0.0,-0.0,0.0,0.125,1.6052244450000002,0.0,0.0,13.670000076293945,-1.3700000047683716,-0.019999999552965164,-0.02349853515625,0.24420166015625,0.99017333984375,33.779998779296875,0.0,0.0,-0.061065673828125,-0.0734100341796875,Waiting,-8.48064516129032,11.0,-46468.0,-359.0,-2692.5,-2600.0,0.0,0.0,
4.015665000000038,0.0,0.0,904.0,0.0,0.0,0.0,0.0,0.25,0.848388585,0.0,0.0,129.0,0.0,0.0,-0.0,0.0,0.125,0.41381831700000005,0.0,0.0,-1357.0,0.0,0.0,0.0,0.0,0.125,3.2751461490000002,0.0,0.0,24.0,0.0,0.0,-0.0,0.0,0.125,1.6052244450000002,0.0,0.0,13.65999984741211,-1.3700000047683716,-0.019999999552965164,-0.0240478515625,0.2386474609375,0.993896484375,33.779998779296875,0.0,0.0,-0.061065673828125,-0.0734100341796875,Waiting,-8.44516129032258,10.875,-46468.0,-359.0,-2685.0,-2600.0,0.0,0.0,
4.056470999999903,0.0,0.0,904.0,0.0,0.0,0.0,0.0,0.25,0.848388585,0.0,-0.0012207029999999897,129.0,0.0,0.0,-0.0,0.0,0.125,0.41381831700000005,0.0,0.0,-1357.0,0.0,0.0,0.0,0.0,0.125,3.2751461490000002,0.0,0.0,24.0,0.0,0.0,-0.0,0.0,0.125,1.6052244450000002,0.0,0.0,13.65999984741211,-1.3700000047683716,-0.019999999552965164,-0.0213623046875,0.240478515625,0.9937744140625,33.779998779296875,0.0,3.0,-0.061065673828125,-0.0734100341796875,Waiting,-8.539784946236558,11.0,-46468.0,-359.0,-2685.0,-2600.0,0.0,0.0,
4.095845999999903,0.0,0.0,904.0,0.0,0.0,0.0,0.0,0.25,0.847167882,0.0,0.0012207029999999897,129.0,0.0,0.0,-0.0,0.0,0.125,0.412597614,0.0,0.0,-1357.0,0.0,0.0,0.0,0.0,0.125,3.2751461490000002,0.0,0.0,24.0,0.0,0.0,-0.0,0.0,0.125,1.6052244450000002,0.0,0.0,13.65999984741211,-1.3600000143051147,-0.019999999552965164,-0.0230712890625,0.240966796875,0.9949951171875,33.779998779296875,0.0,1.0,-0.061065673828125,-0.0734100341796875,Waiting,-8.457380254154447,11.125,-46898.0,-358.0,-2685.0,-2600.0,0.0,0.0,
4.139808999999892,0.0,0.0,904.0,0.0,0.0,0.0,0.0,0.25,0.847167882,0.0,0.0,129.0,0.0,0.0,-0.0,0.0,0.125,0.41381831700000005,0.0,0.0,-1357.0,0.0,0.0,0.0,0.0,0.125,3.2751461490000002,0.0,0.0,24.0,0.0,0.0,-0.0,0.0,0.125,1.6052244450000002,0.0,-0.0012207029999999897,13.65999984741211,-1.3700000047683716,-0.019999999552965164,-0.02752685546875,0.245361328125,0.9871826171875,33.779998779296875,0.0,-3.0,-0.061065673828125,-0.0734100341796875,Waiting,-8.422043010752688,10.875,-46898.0,-358.0,-2685.0,-2600.0,0.0,0.0,
4.184665999999968,0.0,0.0,904.0,0.0,0.0,0.0,0.0,0.25,0.847167882,0.0,-0.0012207029999999897,129.0,0.0,0.0,-0.0,0.0,0.125,0.41381831700000005,0.0,0.0,-1357.0,0.0,0.0,0.0,0.0,0.125,3.2751461490000002,0.0,0.0,24.0,0.0,0.0,-0.0,0.0,0.125,1.6088865540000001,0.0,0.0012207029999999897,13.65999984741211,-1.3700000047683716,-0.029999999329447746,-0.02587890625,0.24468994140625,0.9947509765625,33.779998779296875,0.0,-1.0,-0.061065673828125,-0.0734100341796875,Waiting,-8.37492668621701,10.75,-46898.0,-358.0,-2677.5,-2600.0,0.0,0.0,
4.227265999999829,0.0,0.0,904.0,0.0,0.0,0.0,0.0,0.25,0.847167882,0.0,-0.0012207029999999897,129.0,0.0,0.0,-0.0,0.0,0.125,0.41381831700000005,0.0,0.0,-1357.0,0.0,0.0,0.0,0.0,0.125,3.2751461490000002,0.0,0.0,24.0,0.0,0.0,-0.0,0.0,0.125,1.6052244450000002,0.0,-0.0012207029999999897,13.65999984741211,-1.3700000047683716,-0.029999999329447746,-0.0225830078125,0.2412109375,0.991455078125,33.779998779296875,0.0,1.0,-0.061065673828125,-0.0734100341796875,Waiting,-8.480938416422287,10.75,-47331.0,-357.0,-2677.5,-2600.0,0.0,0.0,
4.266815999999875,0.0,0.0,904.0,0.0,0.0,0.0,0.0,0.25,0.847167882,0.0,0.0012207029999999897,129.0,0.0,0.0,-0.0,0.0,0.125,0.41381831700000005,0.0,0.0,-1357.0,0.0,0.0,0.0,0.0,0.125,3.2751461490000002,0.0,0.0,24.0,0.0,0.0,-0.0,0.0,0.125,1.6052244450000002,0.0,-0.0012207029999999897,13.65999984741211,-1.3600000143051147,-0.029999999329447746,-0.02239990234375,0.23870849609375,0.99237060546875,33.779998779296875,0.0,1.0,-0.061065673828125,-0.0734100341796875,Waiting,-8.445601173020528,11.125,-47331.0,-357.0,-2677.5,-2600.0,0.0,0.0,
4.307923999999883,0.0,0.0,904.0,0.0,0.0,0.0,0.0,0.25,0.847167882,0.0,0.0,129.0,0.0,0.0,-0.0,0.0,0.125,0.41503902000000004,0.0,0.0,-1357.0,0.0,0.0,0.0,0.0,0.125,3.2739254460000002,0.0,0.0,24.0,0.0,0.0,-0.0,0.0,0.125,1.6052244450000002,0.0,0.0,13.649999618530273,-1.3700000047683716,-0.029999999329447746,-0.0240478515625,0.24163818359375,0.99188232421875,33.779998779296875,0.0,0.0,-0.061065673828125,-0.0734100341796875,Waiting,-8.398484848484848,10.75,-47331.0,-357.0,-2677.5,-2600.0,0.0,0.0,
4.346131999999983,0.0,0.0,904.0,0.0,0.0,0.0,0.0,0.25,0.875244051,0.0,0.0,129.0,0.0,0.0,-0.0,0.0,0.125,0.412597614,0.0,0.0,-1357.0,0.0,0.0,0.0,0.0,0.125,3.277587555,0.0,0.0,24.0,0.0,0.0,-0.0,0.0,0.125,1.6052244450000002,0.0,0.0012207029999999897,13.649999618530273,-1.3700000047683716,-0.029999999329447746,-0.02520751953125,0.2452392578125,0.98785400390625,33.779998779296875,0.0,0.0,-0.061065673828125,-0.0734100341796875,Waiting,-8.35136852394917,10.625,-47756.0,-357.0,-2677.5,-2600.0,0.0,0.0,
4.387258999999846,0.0,0.0,904.0,0.0,0.0,0.0,0.0,0.25,0.845947179,0.0,0.0,129.0,0.0,0.0,-0.0,0.0,0.125,0.41503902000000004,0.0,0.0,-1357.0,0.0,0.0,0.0,0.0,0.125,3.2751461490000002,0.0,-0.0012207029999999897,24.0,0.0,0.0,-0.0,0.0,0.125,1.6052244450000002,0.0,0.0,13.649999618530273,-1.3700000047683716,-0.029999999329447746,-0.02618408203125,0.23919677734375,0.98724365234375,33.779998779296875,0.0,-1.0,-0.061065673828125,-0.0734100341796875,Waiting,-8.480938416422287,11.0,-47756.0,-357.0,-2670.0,-2600.0,0.0,0.0,
4.426545999999856,0.0,0.0,904.0,0.0,0.0,0.0,0.0,0.25,0.847167882,0.0,0.0,129.0,0.0,0.0,-0.0,0.0,0.125,0.41503902000000004,0.0,0.0,-1357.0,0.0,0.0,0.0,0.0,0.125,3.276366852,0.0,0.0,24.0,0.0,0.0,-0.0,0.0,0.125,1.6052244450000002,0.0,-0.0012207029999999897,13.649999618530273,-1.3600000143051147,-0.03999999910593033,-0.02789306640625,0.2467041015625,0.99261474609375,33.79999923706055,0.0,-3.0,-0.061065673828125,-0.0734100341796875,Waiting,-8.43382209188661,11.0,-47756.0,-357.0,-2670.0,-2600.0,0.0,0.0,
4.4681720000000205,0.0,0.0,904.0,0.0,0.0,0.0,0.0,0.25,0.8300780400000001,0.0,0.0,129.0,0.0,0.0,-0.0,0.0,0.125,0.41381831700000005,0.0,0.0,-1357.0,0.0,0.0,0.0,0.0,0.125,3.276366852,0.0,0.0,24.0,0.0,0.0,-0.0,0.0,0.125,1.6052244450000002,0.0,-0.0012207029999999897,13.649999618530273,-1.3600000143051147,-0.03999999910593033,-0.0245361328125,0.2415771484375,0.99114990234375,33.79999923706055,0.0,0.0,-0.061065673828125,-0.0734100341796875,Waiting,-8.386705767350929,10.875,-48183.0,-356.0,-2670.0,-2600.0,0.0,0.0,
4.50873900000006,0.0,0.0,904.0,0.0,0.0,0.0,0.0,0.25,0.8435057730000001,0.0,0.0,129.0,0.0,0.0,-0.0,0.0,0.125,0.41503902000000004,0.0,0.0,-1357.0,0.0,0.0,0.0,0.0,0.125,3.277587555,0.0,0.0012207029999999897,24.0,0.0,0.0,-0.0,0.0,0.125,1.6052244450000002,0.0,0.0012207029999999897,13.649999618530273,-1.3600000143051147,-0.03999999910593033,-0.02386474609375,0.23919677734375,0.98248291015625,33.79999923706055,0.0,0.0,-0.061065673828125,-0.0734100341796875,Waiting,-8.516275659824046,10.875,-48183.0,-356.0,-2662.5,-2600.0,0.0,0.0,
4.54613599999994,0.0,0.0,904.0,0.0,0.0,0.0,0.0,0.25,0.848388585,0.0,0.0,129.0,0.0,0.0,-0.0,0.0,0.125,0.41381831700000005,0.0,0.0,-1357.0,0.0,0.0,0.0,0.0,0.125,3.276366852,0.0,0.0,24.0,0.0,0.0,-0.0,0.0,0.125,1.6052244450000002,0.0,0.0,13.649999618530273,-1.3700000047683716,-0.03999999910593033,-0.0263671875,0.2440185546875,0.9920654296875,33.79999923706055,0.0,-1.0,-0.061065673828125,-0.0734100341796875,Waiting,-8.480938416422287,11.25,-48183.0,-356.0,-2662.5,-2600.0,0.0,0.0,
4.587900999999838,0.0,0.0,904.0,0.0,0.0,0.0,0.0,0.25,0.848388585,0.0,0.0,129.0,0.0,0.0,-0.0,0.0,0.125,0.41381831700000005,0.0,0.0,-1357.0,0.0,0.0,0.0,0.0,0.125,3.2714840400000003,0.0,0.0,24.0,0.0,0.0,-0.0,0.0,0.125,1.6052244450000002,0.0,-0.0012207029999999897,13.649999618530273,-1.3600000143051147,-0.05000000074505806,-0.02655029296875,0.24224853515625,0.99017333984375,33.79999923706055,0.0,-2.0,-0.061065673828125,-0.0734100341796875,Waiting,-8.48064516129032,11.125,-48610.0,-355.0,-2662.5,-2600.0,0.0,0.0,
4.628851000000024,0.0,0.0,904.0,0.0,0.0,0.0,0.0,0.25,0.848388585,0.0,0.0,129.0,0.0,0.0,-0.0,0.0,0.125,0.41381831700000005,0.0,0.0,-1357.0,0.0,0.0,0.0,0.0,0.125,3.2751461490000002,0.0,0.0,24.0,0.0,0.0,-0.0,0.0,0.125,1.6052244450000002,0.0,0.0,13.649999618530273,-1.3600000143051147,-0.05000000074505806,-0.0245361328125,0.2393798828125,0.98779296875,33.79999923706055,0.0,0.0,-0.061065673828125,-0.0734100341796875,Waiting,-8.433333333333332,10.875,-48610.0,-355.0,-2662.5,-2600.0,0.0,0.0,
4.668030999999959,0.0,0.0,904.0,0.0,0.0,0.0,0.0,0.25,0.847167882,0.0,0.0,129.0,0.0,0.0,-0.0,0.0,0.125,0.41381831700000005,0.0,0.0,-1357.0,0.0,0.0,0.0,0.0,0.125,3.2751461490000002,0.0,0.0,24.0,0.0,0.0,-0.0,0.0,0.125,1.6052244450000002,0.0,0.0,13.649999618530273,-1.3600000143051147,-0.05000000074505806,-0.0267333984375,0.2410888671875,0.99102783203125,33.79999923706055,0.0,-2.0,-0.061065673828125,-0.0734100341796875,Waiting,-8.40967741935484,10.875,-48610.0,-355.0,-2662.5,-2600.0,0.0,0.0,
4.707273999999976,0.0,0.0,904.0,0.0,0.0,0.0,0.0,0.25,0.848388585,0.0,0.0,129.0,0.0,0.0,-0.0,0.0,0.125,0.41381831700000005,0.0,0.0,-1357.0,0.0,0.0,0.0,0.0,0.125,3.2739254460000002,0.0,0.0,24.0,0.0,0.0,-0.0,0.0,0.125,1.6064451480000002,0.0,0.0,13.649999618530273,-1.3700000047683716,-0.05000000074505806,-0.0223388671875,0.2435302734375,0.99212646484375,33.79999923706055,0.0,2.0,-0.061065673828125,-0.0734100341796875,Waiting,-8.539784946236558,11.125,-49036.0,-355.0,-2655.0,-2600.0,0.0,0.0,
4.747746999999974,0.0,0.0,904.0,0.0,0.0,0.0,0.0,0.25,0.8532713970000001,0.0,0.0,129.0,0.0,0.0,-0.0,0.0,0.125,0.41381831700000005,0.0,0.0,-1357.0,0.0,0.0,0.0,0.0,0.125,3.278808258,0.0,0.0,24.0,0.0,0.0,-0.0,0.0,0.125,1.6052244450000002,0.0,0.0012207029999999897,13.65999984741211,-1.3799999952316284,-0.05000000074505806,-0.02105712890625,0.240478515625,0.99725341796875,33.79999923706055,0.0,3.0,-0.061065673828125,-0.0734100341796875,Waiting,-8.504301075268817,11.125,-49036.0,-355.0,-2655.0,-2600.0,0.0,0.0,
4.789521999999881,0.0,0.0,904.0,0.0,0.0,0.0,0.0,0.25,0.847167882,0.0,0.0,129.0,0.0,0.0,-0.0,0.0,0.125,0.40893550500000003,0.0,0.0,-1357.0,0.0,0.0,0.0,0.0,0.125,3.276366852,0.0,-0.0012207029999999897,24.0,0.0,0.0,-0.0,0.0,0.125,1.6052244450000002,0.0,0.0,13.649999618530273,-1.3799999952316284,-0.05000000074505806,-0.0269775390625,0.2413330078125,0.99359130859375,33.79999923706055,0.0,-2.0,-0.061065673828125,-0.0734100341796875,Waiting,-8.468817204301075,11.125,-49036.0,-355.0,-2655.0,-2600.0,0.0,0.0,
4.8286450000000185,0.0,0.0,904.0,0.0,0.0,0.0,0.0,0.25,0.847167882,0.0,0.0,129.0,0.0,0.0,-0.0,0.0,0.125,0.416259723,0.0,0.0,-1357.0,0.0,0.0,0.0,0.0,0.125,3.2751461490000002,0.0,0.0,24.0,0.0,0.0,-0.0,0.0,0.125,1.6052244450000002,0.0,0.0,13.649999618530273,-1.3799999952316284,-0.05000000074505806,-0.0257568359375,0.23870849609375,0.99481201171875,33.79999923706055,0.0,-1.0,-0.061065673828125,-0.0734100341796875,Waiting,-8.398484848484848,11.0,-49462.0,-354.0,-2655.0,-2600.0,0.0,0.0,
4.870265999999829,0.0,0.0,904.0,0.0,0.0,0.0,0.0,0.25,0.848388585,0.0,0.0,129.0,0.0,0.0,-0.0,0.0,0.125,0.41503902000000004,0.0,0.0,-1357.0,0.0,0.0,0.0,0.0,0.125,3.2751461490000002,0.0,0.0012207029999999897,24.0,0.0,0.0,-0.0,0.0,0.125,1.6052244450000002,0.0,0.0,13.640000343322754,-1.3700000047683716,-0.05999999865889549,-0.0225830078125,0.24395751953125,0.99237060546875,33.79999923706055,0.0,1.0,-0.061065673828125,-0.0734100341796875,Waiting,-8.363147605083089,10.875,-49462.0,-354.0,-2655.0,-2600.0,0.0,0.0,
4.910835999999894,0.0,0.0,904.0,0.0,0.0,0.0,0.0,0.25,0.848388585,0.0,0.0,129.0,0.0,0.0,-0.0,0.0,0.125,0.41381831700000005,0.0,0.0,-1357.0,0.0,0.0,0.0,0.0,0.125,3.276366852,0.0,0.0012207029999999897,24.0,0.0,0.0,-0.0,0.0,0.125,1.6088865540000001,0.0,0.0,13.649999618530273,-1.3700000047683716,-0.05999999865889549,-0.0218505859375,0.24267578125,0.99346923828125,33.79999923706055,0.0,2.0,-0.061065673828125,-0.0734100341796875,Waiting,-8.33958944281525,10.625,-49462.0,-354.0,-2655.0,-2600.0,0.0,0.0,
4.949335999999894,0.0,0.0,904.0,0.0,0.0,0.0,0.0,0.25,0.836181555,0.0,0.0,129.0,0.0,0.0,-0.0,0.0,0.125,0.41381831700000005,0.0,0.0,-1357.0,0.0,0.0,0.0,0.0,0.125,3.2751461490000002,0.0,0.0,24.0,0.0,0.0,-0.0,0.0,0.125,1.6052244450000002,0.0,0.0,13.640000343322754,-1.3799999952316284,-0.05999999865889549,-0.02203369140625,0.24237060546875,0.9915771484375,33.79999923706055,0.0,2.0,-0.061065673828125,-0.0734100341796875,Waiting,-8.30425219941349,10.625,-49887.0,-354.0,-2655.0,-2600.0,0.0,0.0,
