Time,ClimberA1,ClimberA2,FRpos,FRCurrent,FRspeed,FRsetpoint,FRApos,FRACurrent,FREncpos,FREncSetpoint,FREncSpeed,FLpos,FLCurrent,FLspeed,FLsetpoint,FLApos,FLACurrent,FLEncpos,FLEncSetpoint,FLEncSpeed,BRpos,BRCurrent,BRspeed,BRsetpoint,BRApos,BRACurrent,BREncpos,BREncSetpoint,BREncSpeed,BLpos,BLCurrent,BLspeed,BLsetpoint,BLApos,BLACurrent,BLEncpos,BLEncSetpoint,BLEncSpeed,navx_Pitch,navx_Roll,navx_Yaw,navx_XAcc,navx_YAcc,navx_ZAcc,navx_Temp,navx_Bar,navx_Alt,navx_XDis,navx_YDis,GearPlacerState,ShootOutputV,ShootOutputCurrent,ShootEncPos,ShootEncVelocity,ShootSpeed,ShootSetpoint,CarouselSetpoint,CarouselCurrent,
0.12918599999998695,0.0,0.0,903.0,0.0,0.0,0.0,0.0,0.25,0.848388585,0.0,0.0,129.0,0.0,0.0,-0.0,0.0,0.125,0.41381831700000005,0.0,0.0,-1357.0,0.0,0.0,0.0,0.0,0.125,3.2751461490000002,0.0,0.0,24.0,0.0,0.0,-0.0,0.0,0.125,1.6052244450000002,0.0,0.0,13.609999656677246,-1.4600000381469727,0.0,-0.0238037109375,0.23858642578125,0.98907470703125,33.599998474121094,0.0,2.0,-0.061187744140625,-0.070709228515625,Waiting,0.0,0.0,-2387.0,0.0,0.0,0.0,0.0,0.0,
0.1559450000000652,0.0,0.0,903.0,0.0,0.0,0.0,0.0,0.25,0.848388585,0.0,0.0,129.0,0.0,0.0,-0.0,0.0,0.125,0.41381831700000005,0.0,0.0,-1357.0,0.0,0.0,0.0,0.0,0.125,3.2751461490000002,0.0,0.0,24.0,0.0,0.0,-0.0,0.0,0.125,1.6052244450000002,0.0,0.0,13.600000381469727,-1.4600000381469727,0.0,-0.02899169921875,0.23638916015625,0.99237060546875,33.599998474121094,0.0,-2.0,-0.061187744140625,-0.070709228515625,Waiting,0.0,0.0,-2387.0,0.0,0.0,0.0,0.0,0.0,
0.18677499999990688,0.0,0.0,903.0,0.0,0.0,0.0,0.0,0.25,0.848388585,0.0,0.0,129.0,0.0,0.0,-0.0,0.0,0.125,0.41381831700000005,0.0,0.0,-1357.0,0.0,0.0,0.0,0.0,0.125,3.2751461490000002,0.0,0.0,24.0,0.0,0.0,-0.0,0.0,0.125,1.6052244450000002,0.0,0.0,13.600000381469727,-1.4600000381469727,0.0,-0.0284423828125,0.24237060546875,0.98828125,33.599998474121094,0.0,-2.0,-0.061187744140625,-0.070709228515625,Waiting,0.0,0.0,-2387.0,0.0,0.0,0.0,0.0,0.0,
0.2105700000000652,0.0,0.0,903.0,0.0,0.0,0.0,0.0,0.25,0.847167882,0.0,-0.0012207029999999897,129.0,0.0,0.0,-0.0,0.0,0.125,0.41381831700000005,0.0,0.0,-1357.0,0.0,0.0,0.0,0.0,0.125,3.2751461490000002,0.0,0.0,24.0,0.0,0.0,-0.0,0.0,0.125,1.6052244450000002,0.0,0.0,13.609999656677246,-1.4500000476837158,0.0,-0.02606201171875,0.24200439453125,0.98876953125,33.599998474121094,0.0,0.0,-0.061187744140625,-0.070709228515625,Waiting,0.0,0.0,-2387.0,0.0,0.0,0.0,0.0,0.0,
0.23868800000008195,0.0,0.0,903.0,0.0,0.0,0.0,0.0,0.25,0.848388585,0.0,-0.0012207029999999897,129.0,0.0,0.0,-0.0,0.0,0.125,0.41381831700000005,0.0,0.0,-1357.0,0.0,0.0,0.0,0.0,0.125,3.2751461490000002,0.0,0.0,24.0,0.0,0.0,-0.0,0.0,0.125,1.6052244450000002,0.0,0.0,13.619999885559082,-1.4500000476837158,0.0,-0.02532958984375,0.2421875,0.99285888671875,33.599998474121094,0.0,0.0,-0.061187744140625,-0.070709228515625,Waiting,0.0,0.0,-2387.0,0.0,0.0,0.0,0.0,0.0,
0.2671939999999013,0.0,0.0,903.0,0.0,0.0,0.0,0.0,0.25,0.848388585,0.0,0.0012207029999999897,129.0,0.0,0.0,-0.0,0.0,0.125,0.41503902000000004,0.0,0.0,-1357.0,0.0,0.0,0.0,0.0,0.125,3.276366852,0.0,0.0,24.0,0.0,0.0,-0.0,0.0,0.125,1.6052244450000002,0.0,-0.0012207029999999897,13.609999656677246,-1.440000057220459,0.0,-0.0238037109375,0.24029541015625,0.9896240234375,33.599998474121094,0.0,1.0,-0.061187744140625,-0.070709228515625,Waiting,0.0,0.0,-2387.0,0.0,0.0,0.0,0.0,0.0,
0.2942739999999758,0.0,0.0,903.0,0.0,0.0,0.0,0.0,0.25,0.848388585,0.0,0.0012207029999999897,129.0,0.0,0.0,-0.0,0.0,0.125,0.41503902000000004,0.0,0.0,-1357.0,0.0,0.0,0.0,0.0,0.125,3.2751461490000002,0.0,0.0,24.0,0.0,0.0,-0.0,0.0,0.125,1.6052244450000002,0.0,-0.0012207029999999897,13.619999885559082,-1.440000057220459,0.0,-0.02569580078125,0.24261474609375,0.99053955078125,33.599998474121094,0.0,0.0,-0.061187744140625,-0.070709228515625,Waiting,0.0,0.0,-2387.0,0.0,0.0,0.0,0.0,0.0,
0.32763000000012105,0.0,0.0,903.0,0.0,0.0,0.0,0.0,0.25,0.848388585,0.0,0.0012207029999999897,129.0,0.0,0.0,-0.0,0.0,0.125,0.41503902000000004,0.0,0.0,-1357.0,0.0,0.0,0.0,0.0,0.125,3.2751461490000002,0.0,0.0,24.0,0.0,0.0,-0.0,0.0,0.125,1.6052244450000002,0.0,0.0012207029999999897,13.619999885559082,-1.440000057220459,0.0,-0.022705078125,0.2393798828125,0.98876953125,33.599998474121094,0.0,2.0,-0.061187744140625,-0.070709228515625,Waiting,0.0,0.0,-2387.0,0.0,0.0,0.0,0.0,0.0,
0.35269200000003914,0.0,0.0,903.0,0.0,0.0,0.0,0.0,0.25,0.848388585,0.0,0.0012207029999999897,129.0,0.0,0.0,-0.0,0.0,0.125,0.410156208,0.0,0.0,-1357.0,0.0,0.0,0.0,0.0,0.125,3.276366852,0.0,0.0,24.0,0.0,0.0,-0.0,0.0,0.125,1.6052244450000002,0.0,0.0,13.619999885559082,-1.440000057220459,-0.009999999776482582,-0.02532958984375,0.24200439453125,0.9935302734375,33.599998474121094,0.0,0.0,-0.061187744140625,-0.070709228515625,Waiting,0.0,0.0,-2387.0,0.0,0.0,0.0,0.0,0.0,
0.38563500000000933,0.0,0.0,903.0,0.0,0.0,0.0,0.0,0.25,0.847167882,0.0,-0.0012207029999999897,129.0,0.0,0.0,-0.0,0.0,0.125,0.41503902000000004,0.0,0.0,-1357.0,0.0,0.0,0.0,0.0,0.125,3.2739254460000002,0.0,0.0,24.0,0.0,0.0,-0.0,0.0,0.125,1.6052244450000002,0.0,0.0,13.619999885559082,-1.4500000476837158,0.0,-0.02606201171875,0.24090576171875,0.99359130859375,33.599998474121094,0.0,0.0,-0.061187744140625,-0.070709228515625,Waiting,0.0,0.0,-2387.0,0.0,0.0,0.0,0.0,0.0,
0.41062899999995717,0.0,0.0,903.0,0.0,0.0,0.0,0.0,0.25,0.848388585,0.0,0.0,129.0,0.0,0.0,-0.0,0.0,0.125,0.41381831700000005,0.0,0.0,-1357.0,0.0,0.0,0.0,0.0,0.125,3.2751461490000002,0.0,0.0,24.0,0.0,0.0,-0.0,0.0,0.125,1.6052244450000002,0.0,0.0,13.619999885559082,-1.4600000381469727,0.0,-0.02789306640625,0.2418212890625,0.9945068359375,33.599998474121094,0.0,-1.0,-0.061187744140625,-0.070709228515625,Waiting,0.0,0.0,-2387.0,0.0,0.0,0.0,0.0,0.0,
0.4435339999999851,0.0,0.0,903.0,0.0,0.0,0.0,0.0,0.25,0.848388585,0.0,0.0,129.0,0.0,0.0,-0.0,0.0,0.125,0.41381831700000005,0.0,0.0,-1357.0,0.0,0.0,0.0,0.0,0.125,3.2751461490000002,0.0,0.0,24.0,0.0,0.0,-0.0,0.0,0.125,1.6052244450000002,0.0,0.0,13.619999885559082,-1.4600000381469727,0.0,-0.02557373046875,0.2381591796875,0.99188232421875,33.59000015258789,0.0,0.0,-0.061187744140625,-0.070709228515625,Waiting,0.0,0.0,-2387.0,0.0,0.0,0.0,0.0,0.0,
0.468591999999946,0.0,0.0,903.0,0.0,0.0,0.0,0.0,0.25,0.848388585,0.0,0.0,129.0,0.0,0.0,-0.0,0.0,0.125,0.41381831700000005,0.0,-0.0012207030000004337,-1357.0,0.0,0.0,0.0,0.0,0.125,3.2751461490000002,0.0,-0.0012207029999999897,24.0,0.0,0.0,-0.0,0.0,0.125,1.6064451480000002,0.0,-0.0012207029999999897,13.619999885559082,-1.4600000381469727,-0.009999999776482582,-0.02606201171875,0.2386474609375,0.991455078125,33.59000015258789,0.0,0.0,-0.061187744140625,-0.070709228515625,Waiting,0.0,0.0,-2387.0,0.0,0.0,0.0,0.0,0.0,
0.49666800000006334,0.0,0.0,903.0,0.0,0.0,0.0,0.0,0.25,0.848388585,0.0,0.0,129.0,0.0,0.0,-0.0,0.0,0.125,0.41503902000000004,0.0,-0.0012207030000004337,-1357.0,0.0,0.0,0.0,0.0,0.125,3.2751461490000002,0.0,-0.0012207029999999897,24.0,0.0,0.0,-0.0,0.0,0.125,1.6052244450000002,0.0,-0.0012207029999999897,13.619999885559082,-1.4500000476837158,0.0,-0.02581787109375,0.23944091796875,0.9921875,33.59000015258789,0.0,0.0,-0.061187744140625,-0.070709228515625,Waiting,0.0,0.0,-2387.0,0.0,0.0,0.0,0.0,0.0,
0.5289510000001173,0.0,0.0,903.0,0.0,0.0,0.0,0.0,0.25,0.847167882,0.0,0.0,129.0,0.0,0.0,-0.0,0.0,0.125,0.41381831700000005,0.0,0.0,-1357.0,0.0,0.0,0.0,0.0,0.125,3.2751461490000002,0.0,0.0,24.0,0.0,0.0,-0.0,0.0,0.125,1.6052244450000002,0.0,0.0,13.619999885559082,-1.4500000476837158,0.0,-0.02752685546875,0.24383544921875,0.995361328125,33.59000015258789,0.0,-1.0,-0.061187744140625,-0.070709228515625,Waiting,0.0,0.0,-2387.0,0.0,0.0,0.0,0.0,0.0,
0.567441000000108,0.0,0.0,903.0,0.0,0.0,0.0,0.0,0.25,0.847167882,0.0,0.0,129.0,0.0,0.0,-0.0,0.0,0.125,0.41381831700000005,0.0,0.0012207030000004337,-1357.0,0.0,0.0,0.0,0.0,0.125,3.2751461490000002,0.0,0.0012207029999999897,24.0,0.0,0.0,-0.0,0.0,0.125,1.6052244450000002,0.0,0.0012207029999999897,13.619999885559082,-1.4500000476837158,0.0,-0.02593994140625,0.2408447265625,0.98785400390625,33.59000015258789,0.0,0.0,-0.061187744140625,-0.070709228515625,Waiting,0.0,0.0,-2387.0,0.0,0.0,0.0,0.0,0.0,
0.5938360000001267,0.0,0.0,903.0,0.0,0.0,0.0,0.0,0.25,0.848388585,0.0,0.0,129.0,0.0,0.0,-0.0,0.0,0.125,0.412597614,0.0,0.0012207030000004337,-1357.0,0.0,0.0,0.0,0.0,0.125,3.2751461490000002,0.0,0.0012207029999999897,24.0,0.0,0.0,-0.0,0.0,0.125,1.6052244450000002,0.0,0.0012207029999999897,13.619999885559082,-1.4600000381469727,0.0,-0.0240478515625,0.24334716796875,0.989990234375,33.59000015258789,0.0,1.0,-0.061187744140625,-0.070709228515625,Waiting,0.0,0.0,-2387.0,0.0,0.0,0.0,0.0,0.0,
0.6274860000000335,0.0,0.0,903.0,0.0,0.0,0.0,0.0,0.25,0.848388585,0.0,0.0,129.0,0.0,0.0,-0.0,0.0,0.125,0.411376911,0.0,0.0,-1357.0,0.0,0.0,0.0,0.0,0.125,3.2739254460000002,0.0,0.0,24.0,0.0,0.0,-0.0,0.0,0.125,1.6064451480000002,0.0,-0.0012207029999999897,13.619999885559082,-1.4600000381469727,-0.009999999776482582,-0.025634765625,0.24578857421875,0.99774169921875,33.59000015258789,0.0,0.0,-0.061187744140625,-0.070709228515625,Waiting,0.0,0.0,-2387.0,0.0,0.0,0.0,0.0,0.0,
0.6527770000000018,0.0,0.0,903.0,0.0,0.0,0.0,0.0,0.25,0.847167882,0.0,0.0,129.0,0.0,0.0,-0.0,0.0,0.125,0.41503902000000004,0.0,0.0,-1357.0,0.0,0.0,0.0,0.0,0.125,3.2751461490000002,0.0,0.0,24.0,0.0,0.0,-0.0,0.0,0.125,1.6052244450000002,0.0,0.0012207029999999897,13.619999885559082,-1.4600000381469727,-0.009999999776482582,-0.03228759765625,0.23834228515625,0.995849609375,33.59000015258789,0.0,-6.0,-0.061187744140625,-0.070709228515625,Waiting,0.0,0.0,-2387.0,0.0,0.0,0.0,0.0,0.0,
0.6863389999999199,0.0,0.0,903.0,0.0,0.0,0.0,0.0,0.25,0.847167882,0.0,-0.0012207029999999897,129.0,0.0,0.0,-0.0,0.0,0.125,0.41381831700000005,0.0,0.0,-1357.0,0.0,0.0,0.0,0.0,0.125,3.2751461490000002,0.0,0.0,24.0,0.0,0.0,-0.0,0.0,0.125,1.6064451480000002,0.0,0.0012207029999999897,13.609999656677246,-1.4600000381469727,-0.009999999776482582,-0.028076171875,0.236083984375,0.9918212890625,33.59000015258789,0.0,-2.0,-0.061187744140625,-0.070709228515625,Waiting,0.0,0.0,-2387.0,0.0,0.0,0.0,0.0,0.0,
0.7110979999999981,0.0,0.0,903.0,0.0,0.0,0.0,0.0,0.25,0.848388585,0.0,0.0012207029999999897,129.0,0.0,0.0,-0.0,0.0,0.125,0.41381831700000005,0.0,0.0,-1357.0,0.0,0.0,0.0,0.0,0.125,3.2751461490000002,0.0,0.0,24.0,0.0,0.0,-0.0,0.0,0.125,1.6040037420000002,0.0,0.0,13.619999885559082,-1.4500000476837158,-0.009999999776482582,-0.02069091796875,0.24658203125,0.99652099609375,33.59000015258789,0.0,5.0,-0.061187744140625,-0.070709228515625,Waiting,0.0,0.0,-2387.0,0.0,0.0,0.0,0.0,0.0,
0.7450069999999832,0.0,0.0,903.0,0.0,0.0,0.0,0.0,0.25,0.8300780400000001,0.0,0.0012207029999999897,129.0,0.0,0.0,-0.0,0.0,0.125,0.41381831700000005,0.0,0.0,-1357.0,0.0,0.0,0.0,0.0,0.125,3.2751461490000002,0.0,0.0,24.0,0.0,0.0,-0.0,0.0,0.125,1.6052244450000002,0.0,0.0,13.630000114440918,-1.4500000476837158,-0.009999999776482582,-0.01983642578125,0.24542236328125,0.99066162109375,33.59000015258789,0.0,6.0,-0.061187744140625,-0.070709228515625,Waiting,0.0,0.0,-2387.0,0.0,0.0,0.0,0.0,0.0,
0.7693810000000522,0.0,0.0,903.0,0.0,0.0,0.0,0.0,0.25,0.848388585,0.0,0.0012207029999999897,129.0,0.0,0.0,-0.0,0.0,0.125,0.41381831700000005,0.0,0.0,-1357.0,0.0,0.0,0.0,0.0,0.125,3.2751461490000002,0.0,-0.0012207029999999897,24.0,0.0,0.0,-0.0,0.0,0.125,1.6052244450000002,0.0,0.0,13.619999885559082,-1.4500000476837158,-0.009999999776482582,-0.0277099609375,0.2398681640625,0.99493408203125,33.59000015258789,0.0,-1.0,-0.061187744140625,-0.070709228515625,Waiting,0.0,0.0,-2387.0,0.0,0.0,0.0,0.0,0.0,
0.7950419999998994,0.0,0.0,903.0,0.0,0.0,0.0,0.0,0.25,0.847167882,0.0,0.0012207029999999897,129.0,0.0,0.0,-0.0,0.0,0.125,0.41381831700000005,0.0,0.0,-1357.0,0.0,0.0,0.0,0.0,0.125,3.2751461490000002,0.0,-0.0012207029999999897,24.0,0.0,0.0,-0.0,0.0,0.125,1.6052244450000002,0.0,0.0,13.619999885559082,-1.4600000381469727,-0.009999999776482582,-0.02569580078125,0.23736572265625,0.99884033203125,33.59000015258789,0.0,0.0,-0.061187744140625,-0.070709228515625,Waiting,0.0,0.0,-2387.0,0.0,0.0,0.0,0.0,0.0,
0.8271380000000353,0.0,0.0,903.0,0.0,0.0,0.0,0.0,0.25,0.848388585,0.0,0.0,129.0,0.0,0.0,-0.0,0.0,0.125,0.41381831700000005,0.0,0.0,-1357.0,0.0,0.0,0.0,0.0,0.125,3.276366852,0.0,0.0012207029999999897,24.0,0.0,0.0,-0.0,0.0,0.125,1.6040037420000002,0.0,0.0,13.609999656677246,-1.4600000381469727,-0.019999999552965164,-0.0302734375,0.2386474609375,0.99298095703125,33.59000015258789,0.0,-4.0,-0.061187744140625,-0.070709228515625,Waiting,0.0,0.0,-2387.0,0.0,0.0,0.0,0.0,0.0,
0.8524180000000633,0.0,0.0,903.0,0.0,0.0,0.0,0.0,0.25,0.849609288,0.0,0.0,129.0,0.0,0.0,-0.0,0.0,0.125,0.41381831700000005,0.0,0.0,-1357.0,0.0,0.0,0.0,0.0,0.125,3.276366852,0.0,0.0012207029999999897,24.0,0.0,0.0,-0.0,0.0,0.125,1.6064451480000002,0.0,0.0,13.619999885559082,-1.4500000476837158,-0.009999999776482582,-0.0267333984375,0.23895263671875,0.99072265625,33.59000015258789,0.0,0.0,-0.061187744140625,-0.070709228515625,Waiting,0.0,0.0,-2387.0,0.0,0.0,0.0,0.0,0.0,
0.8855609999999869,0.0,0.0,903.0,0.0,0.0,0.0,0.0,0.25,0.848388585,0.0,0.0,129.0,0.0,0.0,-0.0,0.0,0.125,0.41381831700000005,0.0,0.0,-1357.0,0.0,0.0,0.0,0.0,0.125,3.276366852,0.0,0.0,24.0,0.0,0.0,-0.0,0.0,0.125,1.6052244450000002,0.0,0.0,13.619999885559082,-1.4500000476837158,-0.009999999776482582,-0.0223388671875,0.24127197265625,0.99395751953125,33.59000015258789,0.0,3.0,-0.061187744140625,-0.070709228515625,Waiting,0.0,0.0,-2387.0,0.0,0.0,0.0,0.0,0.0,
0.9096810000000988,0.0,0.0,903.0,0.0,0.0,0.0,0.0,0.25,0.848388585,0.0,0.0,129.0,0.0,0.0,-0.0,0.0,0.125,0.41503902000000004,0.0,-0.0012207030000004337,-1357.0,0.0,0.0,0.0,0.0,0.125,3.2751461490000002,0.0,0.0,24.0,0.0,0.0,-0.0,0.0,0.125,1.6052244450000002,0.0,0.0,13.630000114440918,-1.4299999475479126,-0.009999999776482582,-0.026611328125,0.2398681640625,0.99371337890625,33.59000015258789,0.0,0.0,-0.061187744140625,-0.070709228515625,Waiting,0.0,0.0,-2387.0,0.0,0.0,0.0,0.0,0.0,
0.938530999999959,0.0,0.0,903.0,0.0,0.0,0.0,0.0,0.25,0.848388585,0.0,-0.0012207029999999897,129.0,0.0,0.0,-0.0,0.0,0.125,0.41381831700000005,0.0,-0.0012207030000004337,-1357.0,0.0,0.0,0.0,0.0,0.125,3.2751461490000002,0.0,0.0,24.0,0.0,0.0,-0.0,0.0,0.125,1.6052244450000002,0.0,0.0,13.630000114440918,-1.4299999475479126,-0.009999999776482582,-0.02557373046875,0.24212646484375,0.9921875,33.59000015258789,0.0,0.0,-0.061187744140625,-0.070709228515625,Waiting,0.0,0.0,-2387.0,0.0,0.0,0.0,0.0,0.0,
0.9616000000000932,0.0,0.0,903.0,0.0,0.0,0.0,0.0,0.25,0.847167882,0.0,0.0,129.0,0.0,0.0,-0.0,0.0,0.125,0.41381831700000005,0.0,0.0012207030000004337,-1357.0,0.0,0.0,0.0,0.0,0.125,3.2739254460000002,0.0,0.0,24.0,0.0,0.0,-0.0,0.0,0.125,1.6052244450000002,0.0,0.0,13.630000114440918,-1.440000057220459,0.0,-0.02435302734375,0.2425537109375,0.99200439453125,33.61000061035156,0.0,1.0,-0.061187744140625,-0.070709228515625,Waiting,0.0,0.0,-2387.0,0.0,0.0,0.0,0.0,0.0,
0.9938459999999032,0.0,0.0,903.0,0.0,0.0,0.0,0.0,0.25,0.847167882,0.0,0.0,129.0,0.0,0.0,-0.0,0.0,0.125,0.41381831700000005,0.0,0.0012207030000004337,-1357.0,0.0,0.0,0.0,0.0,0.125,3.276366852,0.0,0.0,24.0,0.0,0.0,-0.0,0.0,0.125,1.6052244450000002,0.0,0.0,13.630000114440918,-1.440000057220459,0.0,-0.0235595703125,0.23980712890625,0.99169921875,33.61000061035156,0.0,2.0,-0.061187744140625,-0.070709228515625,Waiting,0.0,0.0,-2387.0,0.0,0.0,0.0,0.0,0.0,
1.0205169999999926,0.0,0.0,903.0,0.0,0.0,0.0,0.0,0.25,0.848388585,0.0,-0.0012207029999999897,129.0,0.0,0.0,-0.0,0.0,0.125,0.41503902000000004,0.0,0.0,-1357.0,0.0,0.0,0.0,0.0,0.125,3.276366852,0.0,0.0,24.0,0.0,0.0,-0.0,0.0,0.125,1.6052244450000002,0.0,-0.0012207029999999897,13.630000114440918,-1.440000057220459,-0.009999999776482582,-0.03021240234375,0.240478515625,0.98675537109375,33.61000061035156,0.0,-4.0,-0.061187744140625,-0.070709228515625,Waiting,0.0,0.0,-2387.0,0.0,0.0,0.0,0.0,0.0,
1.054652000000002,0.0,0.0,903.0,0.0,0.0,0.0,0.0,0.25,0.848388585,0.0,-0.0012207029999999897,129.0,0.0,0.0,-0.0,0.0,0.125,0.41381831700000005,0.0,0.0,-1357.0,0.0,0.0,0.0,0.0,0.125,3.2751461490000002,0.0,0.0,24.0,0.0,0.0,-0.0,0.0,0.125,1.6052244450000002,0.0,0.0012207029999999897,13.630000114440918,-1.440000057220459,0.0,-0.02557373046875,0.2403564453125,0.99713134765625,33.61000061035156,0.0,0.0,-0.061187744140625,-0.070709228515625,Waiting,0.0,0.0,-2387.0,0.0,0.0,0.0,0.0,0.0,
1.0871000000000932,0.0,0.0,903.0,0.0,0.0,0.0,0.0,0.25,0.848388585,0.0,0.0,129.0,0.0,0.0,-0.0,0.0,0.125,0.41381831700000005,0.0,0.0,-1357.0,0.0,0.0,0.0,0.0,0.125,3.2751461490000002,0.0,0.0,24.0,0.0,0.0,-0.0,0.0,0.125,1.6064451480000002,0.0,0.0012207029999999897,13.619999885559082,-1.4500000476837158,0.0,-0.023681640625,0.23980712890625,0.9937744140625,33.61000061035156,0.0,2.0,-0.061187744140625,-0.070709228515625,Waiting,0.0,0.0,-2387.0,0.0,0.0,0.0,0.0,0.0,
1.1114580000001006,0.0,0.0,903.0,0.0,0.0,0.0,0.0,0.25,0.847167882,0.0,0.0012207029999999897,129.0,0.0,0.0,-0.0,0.0,0.125,0.41381831700000005,0.0,0.0,-1357.0,0.0,0.0,0.0,0.0,0.125,3.2739254460000002,0.0,0.0,24.0,0.0,0.0,-0.0,0.0,0.125,1.6052244450000002,0.0,0.0,13.619999885559082,-1.4500000476837158,0.0,-0.02569580078125,0.24334716796875,0.9853515625,33.61000061035156,0.0,0.0,-0.061187744140625,-0.070709228515625,Waiting,0.0,0.0,-2387.0,0.0,0.0,0.0,0.0,0.0,
1.1431359999999404,0.0,0.0,903.0,0.0,0.0,0.0,0.0,0.25,0.8532713970000001,0.0,0.0012207029999999897,129.0,0.0,0.0,-0.0,0.0,0.125,0.41381831700000005,0.0,0.0,-1357.0,0.0,0.0,0.0,0.0,0.125,3.2751461490000002,0.0,0.0,24.0,0.0,0.0,-0.0,0.0,0.125,1.6052244450000002,0.0,0.0,13.619999885559082,-1.4500000476837158,-0.009999999776482582,-0.0242919921875,0.2423095703125,0.9945068359375,33.61000061035156,0.0,1.0,-0.061187744140625,-0.070709228515625,Waiting,0.0,0.0,-2387.0,0.0,0.0,0.0,0.0,0.0,
1.1681720000000204,0.0,0.0,903.0,0.0,0.0,0.0,0.0,0.25,0.847167882,0.0,0.0,129.0,0.0,0.0,-0.0,0.0,0.125,0.41381831700000005,0.0,0.0,-1357.0,0.0,0.0,0.0,0.0,0.125,3.2751461490000002,0.0,0.0,24.0,0.0,0.0,-0.0,0.0,0.125,1.6052244450000002,0.0,-0.0012207029999999897,13.619999885559082,-1.4500000476837158,-0.009999999776482582,-0.0252685546875,0.24102783203125,0.993896484375,33.61000061035156,0.0,0.0,-0.061187744140625,-0.070709228515625,Waiting,0.0,0.0,-2387.0,0.0,0.0,0.0,0.0,0.0,
1.1956319999999832,0.0,0.0,903.0,0.0,0.0,0.0,0.0,0.25,0.848388585,0.0,0.0,129.0,0.0,0.0,-0.0,0.0,0.125,0.41381831700000005,0.0,0.0,-1357.0,0.0,0.0,0.0,0.0,0.125,3.2751461490000002,0.0,0.0,24.0,0.0,0.0,-0.0,0.0,0.125,1.6040037420000002,0.0,-0.0012207029999999897,13.619999885559082,-1.4500000476837158,-0.009999999776482582,-0.024658203125,0.24261474609375,0.9888916015625,33.61000061035156,0.0,1.0,-0.061187744140625,-0.070709228515625,Waiting,0.0,0.0,-2387.0,0.0,0.0,0.0,0.0,0.0,
1.2300989999999292,0.0,0.0,903.0,0.0,0.0,0.0,0.0,0.25,0.848388585,0.0,0.0,129.0,0.0,0.0,-0.0,0.0,0.125,0.41381831700000005,0.0,0.0,-1357.0,0.0,0.0,0.0,0.0,0.125,3.2751461490000002,0.0,0.0,24.0,0.0,0.0,-0.0,0.0,0.125,1.6052244450000002,0.0,0.0,13.619999885559082,-1.4500000476837158,-0.009999999776482582,-0.02197265625,0.2415771484375,0.9920654296875,33.61000061035156,0.0,3.0,-0.061187744140625,-0.070709228515625,Waiting,0.0,0.0,-2387.0,0.0,0.0,0.0,0.0,0.0,
1.257624000000069,0.0,0.0,903.0,0.0,0.0,0.0,0.0,0.25,0.847167882,0.0,0.0,129.0,0.0,0.0,-0.0,0.0,0.125,0.41381831700000005,0.0,0.0,-1357.0,0.0,0.0,0.0,0.0,0.125,3.2751461490000002,0.0,0.0,24.0,0.0,0.0,-0.0,0.0,0.125,1.6052244450000002,0.0,0.0012207029999999897,13.619999885559082,-1.4500000476837158,-0.009999999776482582,-0.0235595703125,0.24078369140625,0.98944091796875,33.61000061035156,0.0,2.0,-0.061187744140625,-0.070709228515625,Waiting,0.0,0.0,-2387.0,0.0,0.0,0.0,0.0,0.0,
1.292560999999987,0.0,0.0,903.0,0.0,0.0,0.0,0.0,0.25,0.848388585,0.0,0.0,129.0,0.0,0.0,-0.0,0.0,0.125,0.41381831700000005,0.0,0.0,-1357.0,0.0,0.0,0.0,0.0,0.125,3.2751461490000002,0.0,0.0,24.0,0.0,0.0,-0.0,0.0,0.125,1.6052244450000002,0.0,0.0012207029999999897,13.619999885559082,-1.4500000476837158,-0.009999999776482582,-0.02691650390625,0.2381591796875,0.9967041015625,33.61000061035156,0.0,0.0,-0.061187744140625,-0.070709228515625,Waiting,0.0,0.0,-2387.0,0.0,0.0,0.0,0.0,0.0,
1.3241159999999217,0.0,0.0,903.0,0.0,0.0,0.0,0.0,0.25,0.847167882,0.0,0.0,129.0,0.0,0.0,-0.0,0.0,0.125,0.41503902000000004,0.0,0.0,-1357.0,0.0,0.0,0.0,0.0,0.125,3.2751461490000002,0.0,0.0,24.0,0.0,0.0,-0.0,0.0,0.125,1.6052244450000002,0.0,0.0,13.619999885559082,-1.4500000476837158,-0.009999999776482582,-0.027587890625,0.23956298828125,0.99383544921875,33.61000061035156,0.0,-1.0,-0.061187744140625,-0.070709228515625,Waiting,0.0,0.0,-2387.0,0.0,0.0,0.0,0.0,0.0,
1.35333899999992,0.0,0.0,903.0,0.0,0.0,0.0,0.0,0.25,0.848388585,0.0,0.0,129.0,0.0,0.0,-0.0,0.0,0.125,0.41503902000000004,0.0,0.0,-1357.0,0.0,0.0,0.0,0.0,0.125,3.2751461490000002,0.0,0.0,24.0,0.0,0.0,-0.0,0.0,0.125,1.6052244450000002,0.0,0.0,13.619999885559082,-1.4500000476837158,-0.009999999776482582,-0.0234375,0.2418212890625,0.99169921875,33.61000061035156,0.0,2.0,-0.061187744140625,-0.070709228515625,Waiting,0.0,0.0,-2387.0,0.0,0.0,0.0,0.0,0.0,
1.38741100000008,0.0,0.0,903.0,0.0,0.0,0.0,0.0,0.25,0.847167882,0.0,0.0,129.0,0.0,0.0,-0.0,0.0,0.125,0.41503902000000004,0.0,0.0,-1357.0,0.0,0.0,0.0,0.0,0.125,3.2751461490000002,0.0,0.0,24.0,0.0,0.0,-0.0,0.0,0.125,1.6052244450000002,0.0,0.0,13.630000114440918,-1.440000057220459,-0.009999999776482582,-0.02630615234375,0.2421875,0.98858642578125,33.61000061035156,0.0,0.0,-0.061187744140625,-0.070709228515625,Waiting,0.0,0.0,-2387.0,0.0,0.0,0.0,0.0,0.0,
1.4132460000000429,0.0,0.0,903.0,0.0,0.0,0.0,0.0,0.25,0.848388585,0.0,0.0,129.0,0.0,0.0,-0.0,0.0,0.125,0.41381831700000005,0.0,0.0,-1357.0,0.0,0.0,0.0,0.0,0.125,3.2751461490000002,0.0,0.0,24.0,0.0,0.0,-0.0,0.0,0.125,1.6052244450000002,0.0,-0.0012207029999999897,13.630000114440918,-1.440000057220459,-0.009999999776482582,-0.02410888671875,0.24090576171875,0.98858642578125,33.61000061035156,0.0,1.0,-0.061187744140625,-0.070709228515625,Waiting,0.0,0.0,-2387.0,0.0,0.0,0.0,0.0,0.0,
1.4464480000000912,0.0,0.0,903.0,0.0,0.0,0.0,0.0,0.25,0.847167882,0.0,0.0,129.0,0.0,0.0,-0.0,0.0,0.125,0.41503902000000004,0.0,0.0,-1357.0,0.0,0.0,0.0,0.0,0.125,3.2751461490000002,0.0,0.0,24.0,0.0,0.0,-0.0,0.0,0.125,1.6052244450000002,0.0,-0.0012207029999999897,13.630000114440918,-1.440000057220459,-0.009999999776482582,-0.02593994140625,0.2406005859375,0.9945068359375,33.61000061035156,0.0,0.0,-0.061187744140625,-0.070709228515625,Waiting,0.0,0.0,-2387.0,0.0,0.0,0.0,0.0,0.0,
1.473975000000093,0.0,0.0,903.0,0.0,0.0,0.0,0.0,0.25,0.848388585,0.0,0.0,129.0,0.0,0.0,-0.0,0.0,0.125,0.41503902000000004,0.0,0.0,-1357.0,0.0,0.0,0.0,0.0,0.125,3.2751461490000002,0.0,0.0,24.0,0.0,0.0,-0.0,0.0,0.125,1.6052244450000002,0.0,0.0012207029999999897,13.630000114440918,-1.440000057220459,-0.019999999552965164,-0.02392578125,0.24267578125,0.98797607421875,33.599998474121094,0.0,1.0,-0.061187744140625,-0.070709228515625,Waiting,0.0,0.0,-2387.0,0.0,0.0,0.0,0.0,0.0,
1.5089499999999534,0.0,0.0,903.0,0.0,0.0,0.0,0.0,0.25,0.847167882,0.0,0.0,129.0,0.0,0.0,-0.0,0.0,0.125,0.41503902000000004,0.0,0.0,-1357.0,0.0,0.0,0.0,0.0,0.125,3.2751461490000002,0.0,-0.0012207029999999897,24.0,0.0,0.0,-0.0,0.0,0.125,1.6040037420000002,0.0,-0.0012207029999999897,13.630000114440918,-1.440000057220459,-0.019999999552965164,-0.02557373046875,0.2381591796875,0.99517822265625,33.599998474121094,0.0,0.0,-0.061187744140625,-0.070709228515625,Waiting,0.0,0.0,-2387.0,0.0,0.0,0.0,0.0,0.0,
1.5402239999999292,0.0,0.0,903.0,0.0,0.0,0.0,0.0,0.25,0.848388585,0.0,-0.0012207029999999897,129.0,0.0,0.0,-0.0,0.0,0.125,0.41381831700000005,0.0,0.0,-1357.0,0.0,0.0,0.0,0.0,0.125,3.2751461490000002,0.0,-0.0012207029999999897,24.0,0.0,0.0,-0.0,0.0,0.125,1.6052244450000002,0.0,-0.0012207029999999897,13.630000114440918,-1.440000057220459,-0.019999999552965164,-0.025634765625,0.23980712890625,0.9913330078125,33.599998474121094,0.0,0.0,-0.061187744140625,-0.070709228515625,Waiting,0.0,0.0,-2387.0,0.0,0.0,0.0,0.0,0.0,
1.567750999999931,0.0,0.0,903.0,0.0,0.0,0.0,0.0,0.25,0.848388585,0.0,0.0012207029999999897,129.0,0.0,0.0,-0.0,0.0,0.125,0.41381831700000005,0.0,0.0,-1357.0,0.0,0.0,0.0,0.0,0.125,3.276366852,0.0,0.0,24.0,0.0,0.0,-0.0,0.0,0.125,1.6052244450000002,0.0,0.0,13.630000114440918,-1.4299999475479126,-0.019999999552965164,-0.02423095703125,0.240966796875,0.99346923828125,33.599998474121094,0.0,1.0,-0.061187744140625,-0.070709228515625,Waiting,0.0,0.0,-2387.0,0.0,0.0,0.0,0.0,0.0,
1.5971480000000446,0.0,0.0,903.0,0.0,0.0,0.0,0.0,0.25,0.848388585,0.0,0.0012207029999999897,129.0,0.0,0.0,-0.0,0.0,0.125,0.41503902000000004,0.0,0.0,-1357.0,0.0,0.0,0.0,0.0,0.125,3.2751461490000002,0.0,0.0,24.0,0.0,0.0,-0.0,0.0,0.125,1.6064451480000002,0.0,0.0,13.630000114440918,-1.4299999475479126,-0.019999999552965164,-0.0264892578125,0.2418212890625,0.99395751953125,33.599998474121094,0.0,0.0,-0.061187744140625,-0.070709228515625,Waiting,0.0,0.0,-2387.0,0.0,0.0,0.0,0.0,0.0,
1.6311599999999162,0.0,0.0,903.0,0.0,0.0,0.0,0.0,0.25,0.848388585,0.0,0.0,129.0,0.0,0.0,-0.0,0.0,0.125,0.41503902000000004,0.0,0.0,-1357.0,0.0,0.0,0.0,0.0,0.125,3.2739254460000002,0.0,0.0,24.0,0.0,0.0,-0.0,0.0,0.125,1.6052244450000002,0.0,0.0012207029999999897,13.630000114440918,-1.440000057220459,-0.019999999552965164,-0.025634765625,0.23944091796875,0.9962158203125,33.599998474121094,0.0,0.0,-0.061187744140625,-0.070709228515625,Waiting,0.0,0.0,-2387.0,0.0,0.0,0.0,0.0,0.0,
1.6604539999999106,0.0,0.0,903.0,0.0,0.0,0.0,0.0,0.25,0.848388585,0.0,0.0,129.0,0.0,0.0,-0.0,0.0,0.125,0.41381831700000005,0.0,0.0,-1357.0,0.0,0.0,0.0,0.0,0.125,3.2739254460000002,0.0,0.0,24.0,0.0,0.0,-0.0,0.0,0.125,1.6052244450000002,0.0,0.0,13.630000114440918,-1.440000057220459,-0.019999999552965164,-0.0263671875,0.24383544921875,0.99639892578125,33.599998474121094,0.0,0.0,-0.061187744140625,-0.070709228515625,Waiting,0.0,0.0,-2387.0,0.0,0.0,0.0,0.0,0.0,
1.6906680000000633,0.0,0.0,903.0,0.0,0.0,0.0,0.0,0.25,0.848388585,0.0,0.0,129.0,0.0,0.0,-0.0,0.0,0.125,0.41381831700000005,0.0,0.0,-1357.0,0.0,0.0,0.0,0.0,0.125,3.276366852,0.0,0.0012207029999999897,24.0,0.0,0.0,-0.0,0.0,0.125,1.6052244450000002,0.0,0.0,13.630000114440918,-1.440000057220459,-0.019999999552965164,-0.02398681640625,0.24224853515625,0.99420166015625,33.599998474121094,0.0,1.0,-0.061187744140625,-0.070709228515625,Waiting,0.0,0.0,-2387.0,0.0,0.0,0.0,0.0,0.0,
1.716625,0.0,0.0,903.0,0.0,0.0,0.0,0.0,0.25,0.847167882,0.0,0.0,129.0,0.0,0.0,-0.0,0.0,0.125,0.41381831700000005,0.0,0.0,-1357.0,0.0,0.0,0.0,0.0,0.125,3.2751461490000002,0.0,0.0,24.0,0.0,0.0,-0.0,0.0,0.125,1.6040037420000002,0.0,-0.0012207029999999897,13.630000114440918,-1.4299999475479126,-0.019999999552965164,-0.02728271484375,0.2357177734375,0.9964599609375,33.599998474121094,0.0,-1.0,-0.061187744140625,-0.070709228515625,Waiting,0.0,0.0,-2387.0,0.0,0.0,0.0,0.0,0.0,
1.7515,0.0,0.0,903.0,0.0,0.0,0.0,0.0,0.25,0.847167882,0.0,0.0,129.0,0.0,0.0,-0.0,0.0,0.125,0.41503902000000004,0.0,0.0,-1357.0,0.0,0.0,0.0,0.0,0.125,3.2751461490000002,0.0,0.0,24.0,0.0,0.0,-0.0,0.0,0.125,1.6052244450000002,0.0,-0.0012207029999999897,13.630000114440918,-1.4299999475479126,-0.019999999552965164,-0.028076171875,0.2388916015625,0.99224853515625,33.599998474121094,0.0,-2.0,-0.061187744140625,-0.070709228515625,Waiting,0.0,0.0,-2387.0,0.0,0.0,0.0,0.0,0.0,
1.7845460000000894,0.0,0.0,903.0,0.0,0.0,0.0,0.0,0.25,0.847167882,0.0,-0.0012207029999999897,129.0,0.0,0.0,-0.0,0.0,0.125,0.41381831700000005,0.0,0.0,-1357.0,0.0,0.0,0.0,0.0,0.125,3.2751461490000002,0.0,0.0,24.0,0.0,0.0,-0.0,0.0,0.125,1.6052244450000002,0.0,0.0,13.619999885559082,-1.4299999475479126,-0.019999999552965164,-0.0247802734375,0.24017333984375,0.99163818359375,33.599998474121094,0.0,0.0,-0.061187744140625,-0.070709228515625,Waiting,0.0,0.0,-2387.0,0.0,0.0,0.0,0.0,0.0,
1.811402999999933,0.0,0.0,903.0,0.0,0.0,0.0,0.0,0.25,0.848388585,0.0,0.0012207029999999897,129.0,0.0,0.0,-0.0,0.0,0.125,0.41503902000000004,0.0,0.0,-1357.0,0.0,0.0,0.0,0.0,0.125,3.2739254460000002,0.0,0.0,24.0,0.0,0.0,-0.0,0.0,0.125,1.6052244450000002,0.0,0.0012207029999999897,13.619999885559082,-1.4299999475479126,-0.019999999552965164,-0.025390625,0.24310302734375,0.9940185546875,33.599998474121094,0.0,0.0,-0.061187744140625,-0.070709228515625,Waiting,0.0,0.0,-2387.0,0.0,0.0,0.0,0.0,0.0,
1.8448989999999759,0.0,0.0,903.0,0.0,0.0,0.0,0.0,0.25,0.848388585,0.0,0.0012207029999999897,129.0,0.0,0.0,-0.0,0.0,0.125,0.41503902000000004,0.0,0.0,-1357.0,0.0,0.0,0.0,0.0,0.125,3.2739254460000002,0.0,0.0,24.0,0.0,0.0,-0.0,0.0,0.125,1.6052244450000002,0.0,0.0012207029999999897,13.630000114440918,-1.440000057220459,-0.019999999552965164,-0.02325439453125,0.241455078125,0.99053955078125,33.599998474121094,0.0,2.0,-0.061187744140625,-0.070709228515625,Waiting,0.0,0.0,-2387.0,0.0,0.0,0.0,0.0,0.0,
1.8722350000001025,0.0,0.0,903.0,0.0,0.0,0.0,0.0,0.25,0.847167882,0.0,0.0,129.0,0.0,0.0,-0.0,0.0,0.125,0.41381831700000005,0.0,0.0,-1357.0,0.0,0.0,0.0,0.0,0.125,3.2751461490000002,0.0,0.0,24.0,0.0,0.0,-0.0,0.0,0.125,1.6052244450000002,0.0,-0.0012207029999999897,13.619999885559082,-1.440000057220459,-0.019999999552965164,-0.02740478515625,0.2392578125,0.9923095703125,33.599998474121094,0.0,-1.0,-0.061187744140625,-0.070709228515625,Waiting,0.0,0.0,-2387.0,0.0,0.0,0.0,0.0,0.0,
1.9035590000001248,0.0,0.0,903.0,0.0,0.0,0.0,0.0,0.25,0.847167882,0.0,0.0,129.0,0.0,0.0,-0.0,0.0,0.125,0.41381831700000005,0.0,0.0,-1357.0,0.0,0.0,0.0,0.0,0.125,3.2751461490000002,0.0,0.0,24.0,0.0,0.0,-0.0,0.0,0.125,1.6052244450000002,0.0,0.0012207029999999897,13.619999885559082,-1.4500000476837158,-0.019999999552965164,-0.02691650390625,0.24188232421875,0.99652099609375,33.599998474121094,0.0,0.0,-0.061187744140625,-0.070709228515625,Waiting,0.0,0.0,-2387.0,0.0,0.0,0.0,0.0,0.0,
1.946966999999946,0.0,0.0,903.0,0.0,0.0,0.0,0.0,0.25,0.847167882,0.0,0.0,129.0,0.0,0.0,-0.0,0.0,0.125,0.41503902000000004,0.0,0.0,-1357.0,0.0,0.0,0.0,0.0,0.125,3.2751461490000002,0.0,0.0,24.0,0.0,0.0,-0.0,0.0,0.125,1.6052244450000002,0.0,0.0012207029999999897,13.609999656677246,-1.440000057220459,-0.019999999552965164,-0.0263671875,0.2413330078125,0.989990234375,33.599998474121094,0.0,0.0,-0.061187744140625,-0.070709228515625,Waiting,0.0,0.0,-2387.0,0.0,0.0,0.0,0.0,0.0,
1.9734210000000894,0.0,0.0,903.0,0.0,0.0,0.0,0.0,0.25,0.848388585,0.0,0.0,129.0,0.0,0.0,-0.0,0.0,0.125,0.410156208,0.0,0.0,-1357.0,0.0,0.0,0.0,0.0,0.125,3.276366852,0.0,0.0,24.0,0.0,0.0,-0.0,0.0,0.125,1.6052244450000002,0.0,0.0,13.609999656677246,-1.440000057220459,-0.019999999552965164,-0.0262451171875,0.24029541015625,0.98907470703125,33.599998474121094,0.0,0.0,-0.061187744140625,-0.070709228515625,Waiting,0.0,0.0,-2387.0,0.0,0.0,0.0,0.0,0.0,
2.007526000000071,0.0,0.0,903.0,0.0,0.0,0.0,0.0,0.25,0.8801268630000001,0.0,0.0,129.0,0.0,0.0,-0.0,0.0,0.125,0.41381831700000005,0.0,0.0,-1357.0,0.0,0.0,0.0,0.0,0.125,3.2751461490000002,0.0,0.0,24.0,0.0,0.0,-0.0,0.0,0.125,1.6040037420000002,0.0,0.0,13.609999656677246,-1.440000057220459,-0.029999999329447746,-0.02655029296875,0.2396240234375,0.9923095703125,33.599998474121094,0.0,0.0,-0.061187744140625,-0.070709228515625,Waiting,0.0,0.0,-2387.0,0.0,0.0,0.0,0.0,0.0,
2.0369129999999425,0.0,0.0,903.0,0.0,0.0,0.0,0.0,0.25,0.847167882,0.0,0.0,129.0,0.0,0.0,-0.0,0.0,0.125,0.412597614,0.0,-0.0012207030000004337,-1357.0,0.0,0.0,0.0,0.0,0.125,3.2751461490000002,0.0,0.0,24.0,0.0,0.0,-0.0,0.0,0.125,1.6052244450000002,0.0,0.0,13.609999656677246,-1.4500000476837158,-0.029999999329447746,-0.02471923828125,0.23822021484375,0.99359130859375,33.599998474121094,0.0,1.0,-0.061187744140625,-0.070709228515625,Waiting,0.0,0.0,-2387.0,0.0,0.0,0.0,0.0,0.0,
2.0676740000001157,0.0,0.0,903.0,0.0,0.0,0.0,0.0,0.25,0.848388585,0.0,0.0,129.0,0.0,0.0,-0.0,0.0,0.125,0.41503902000000004,0.0,0.0012207030000004337,-1357.0,0.0,0.0,0.0,0.0,0.125,3.2751461490000002,0.0,0.0,24.0,0.0,0.0,-0.0,0.0,0.125,1.6064451480000002,0.0,-0.0012207029999999897,13.609999656677246,-1.4600000381469727,-0.019999999552965164,-0.02398681640625,0.241943359375,0.99444580078125,33.599998474121094,0.0,2.0,-0.061187744140625,-0.070709228515625,Waiting,0.0,0.0,-2387.0,0.0,0.0,0.0,0.0,0.0,
2.0951450000000187,0.0,0.0,903.0,0.0,0.0,0.0,0.0,0.25,0.847167882,0.0,0.0,129.0,0.0,0.0,-0.0,0.0,0.125,0.41381831700000005,0.0,0.0012207030000004337,-1357.0,0.0,0.0,0.0,0.0,0.125,3.2751461490000002,0.0,0.0,24.0,0.0,0.0,-0.0,0.0,0.125,1.6052244450000002,0.0,-0.0012207029999999897,13.609999656677246,-1.4600000381469727,-0.019999999552965164,-0.02850341796875,0.23748779296875,0.9976806640625,33.599998474121094,0.0,-2.0,-0.061187744140625,-0.070709228515625,Waiting,0.0,0.0,-2387.0,0.0,0.0,0.0,0.0,0.0,
2.1280560000000985,0.0,0.0,903.0,0.0,0.0,0.0,0.0,0.25,0.847167882,0.0,0.0,129.0,0.0,0.0,-0.0,0.0,0.125,0.41381831700000005,0.0,0.0,-1357.0,0.0,0.0,0.0,0.0,0.125,3.2739254460000002,0.0,-0.0012207029999999897,24.0,0.0,0.0,-0.0,0.0,0.125,1.6052244450000002,0.0,0.0012207029999999897,13.609999656677246,-1.4600000381469727,-0.019999999552965164,-0.029052734375,0.2401123046875,0.99176025390625,33.599998474121094,0.0,-2.0,-0.061187744140625,-0.070709228515625,Waiting,0.0,0.0,-2387.0,0.0,0.0,0.0,0.0,0.0,
2.1554590000000315,0.0,0.0,903.0,0.0,0.0,0.0,0.0,0.25,0.847167882,0.0,0.0,129.0,0.0,0.0,-0.0,0.0,0.125,0.41381831700000005,0.0,0.0,-1357.0,0.0,0.0,0.0,0.0,0.125,3.2751461490000002,0.0,-0.0012207029999999897,24.0,0.0,0.0,-0.0,0.0,0.125,1.6052244450000002,0.0,0.0,13.609999656677246,-1.4600000381469727,-0.019999999552965164,-0.02947998046875,0.23992919921875,0.99267578125,33.599998474121094,0.0,-3.0,-0.061187744140625,-0.070709228515625,Waiting,0.0,0.0,-2387.0,0.0,0.0,0.0,0.0,0.0,
2.188932999999961,0.0,0.0,903.0,0.0,0.0,0.0,0.0,0.25,0.848388585,0.0,0.0,129.0,0.0,0.0,-0.0,0.0,0.125,0.41381831700000005,0.0,-0.0012207030000004337,-1357.0,0.0,0.0,0.0,0.0,0.125,3.2751461490000002,0.0,0.0012207029999999897,24.0,0.0,0.0,-0.0,0.0,0.125,1.6052244450000002,0.0,0.0,13.600000381469727,-1.4600000381469727,-0.019999999552965164,-0.0234375,0.238037109375,0.99261474609375,33.599998474121094,0.0,2.0,-0.061187744140625,-0.070709228515625,Waiting,0.0,0.0,-2387.0,0.0,0.0,0.0,0.0,0.0,
2.2154820000000766,0.0,0.0,903.0,0.0,0.0,0.0,0.0,0.25,0.847167882,0.0,0.0012207029999999897,129.0,0.0,0.0,-0.0,0.0,0.125,0.41381831700000005,0.0,0.0012207030000004337,-1357.0,0.0,0.0,0.0,0.0,0.125,3.2739254460000002,0.0,0.0,24.0,0.0,0.0,-0.0,0.0,0.125,1.6052244450000002,0.0,0.0,13.600000381469727,-1.4600000381469727,-0.019999999552965164,-0.026611328125,0.2396240234375,0.9910888671875,33.599998474121094,0.0,0.0,-0.061187744140625,-0.070709228515625,Waiting,0.0,0.0,-2387.0,0.0,0.0,0.0,0.0,0.0,
2.2488249999999534,0.0,0.0,903.0,0.0,0.0,0.0,0.0,0.25,0.848388585,0.0,0.0012207029999999897,129.0,0.0,0.0,-0.0,0.0,0.125,0.41381831700000005,0.0,0.0012207030000004337,-1357.0,0.0,0.0,0.0,0.0,0.125,3.2739254460000002,0.0,0.0,24.0,0.0,0.0,-0.0,0.0,0.125,1.6015623360000002,0.0,0.0,13.600000381469727,-1.4700000286102295,-0.019999999552965164,-0.02716064453125,0.24005126953125,0.99188232421875,33.599998474121094,0.0,0.0,-0.061187744140625,-0.070709228515625,Waiting,0.0,0.0,-2387.0,0.0,0.0,0.0,0.0,0.0,
2.275131000000052,0.0,0.0,903.0,0.0,0.0,0.0,0.0,0.25,0.847167882,0.0,-0.0012207029999999897,129.0,0.0,0.0,-0.0,0.0,0.125,0.41381831700000005,0.0,0.0,-1357.0,0.0,0.0,0.0,0.0,0.125,3.276366852,0.0,0.0,24.0,0.0,0.0,-0.0,0.0,0.125,1.6052244450000002,0.0,-0.0012207029999999897,13.600000381469727,-1.4600000381469727,-0.019999999552965164,-0.0264892578125,0.2373046875,0.99737548828125,33.599998474121094,0.0,0.0,-0.061187744140625,-0.070709228515625,Waiting,0.0,0.0,-2387.0,0.0,0.0,0.0,0.0,0.0,
2.307813000000082,0.0,0.0,903.0,0.0,0.0,0.0,0.0,0.25,0.847167882,0.0,-0.0012207029999999897,129.0,0.0,0.0,-0.0,0.0,0.125,0.41503902000000004,0.0,0.0,-1357.0,0.0,0.0,0.0,0.0,0.125,3.276366852,0.0,0.0,24.0,0.0,0.0,-0.0,0.0,0.125,1.6052244450000002,0.0,0.0012207029999999897,13.600000381469727,-1.4700000286102295,-0.019999999552965164,-0.02642822265625,0.24163818359375,0.9921875,33.599998474121094,0.0,0.0,-0.061187744140625,-0.070709228515625,Waiting,0.0,0.0,-2387.0,0.0,0.0,0.0,0.0,0.0,
2.3394809999999127,0.0,0.0,903.0,0.0,0.0,0.0,0.0,0.25,0.848388585,0.0,0.0,129.0,0.0,0.0,-0.0,0.0,0.125,0.41381831700000005,0.0,0.0,-1357.0,0.0,0.0,0.0,0.0,0.125,3.2751461490000002,0.0,0.0,24.0,0.0,0.0,-0.0,0.0,0.125,1.6052244450000002,0.0,0.0012207029999999897,13.600000381469727,-1.4700000286102295,-0.019999999552965164,-0.02520751953125,0.24261474609375,0.989990234375,33.599998474121094,0.0,1.0,-0.061187744140625,-0.070709228515625,Waiting,0.0,0.0,-2387.0,0.0,0.0,0.0,0.0,0.0,
2.3686939999999015,0.0,0.0,903.0,0.0,0.0,0.0,0.0,0.25,0.847167882,0.0,0.0,129.0,0.0,0.0,-0.0,0.0,0.125,0.410156208,0.0,0.0,-1357.0,0.0,0.0,0.0,0.0,0.125,3.2751461490000002,0.0,0.0,24.0,0.0,0.0,-0.0,0.0,0.125,1.6052244450000002,0.0,0.0,13.600000381469727,-1.4600000381469727,-0.029999999329447746,-0.0263671875,0.2379150390625,0.99188232421875,33.599998474121094,0.0,0.0,-0.061187744140625,-0.070709228515625,Waiting,0.0,0.0,-2387.0,0.0,0.0,0.0,0.0,0.0,
2.3969690000000408,0.0,0.0,903.0,0.0,0.0,0.0,0.0,0.25,0.848388585,0.0,0.0,129.0,0.0,0.0,-0.0,0.0,0.125,0.41381831700000005,0.0,0.0,-1357.0,0.0,0.0,0.0,0.0,0.125,3.2739254460000002,0.0,0.0,24.0,0.0,0.0,-0.0,0.0,0.125,1.6052244450000002,0.0,0.0,13.600000381469727,-1.4600000381469727,-0.029999999329447746,-0.02728271484375,0.24029541015625,0.9893798828125,33.599998474121094,0.0,-1.0,-0.061187744140625,-0.070709228515625,Waiting,0.0,0.0,-2387.0,0.0,0.0,0.0,0.0,0.0,
2.428380000000121,0.0,0.0,903.0,0.0,0.0,0.0,0.0,0.25,0.847167882,0.0,0.0,129.0,0.0,0.0,-0.0,0.0,0.125,0.412597614,0.0,0.0,-1357.0,0.0,0.0,0.0,0.0,0.125,3.2751461490000002,0.0,-0.0012207029999999897,24.0,0.0,0.0,-0.0,0.0,0.125,1.6052244450000002,0.0,0.0,13.600000381469727,-1.4600000381469727,-0.029999999329447746,-0.02587890625,0.24114990234375,0.99578857421875,33.599998474121094,0.0,0.0,-0.061187744140625,-0.070709228515625,Waiting,0.0,0.0,-2387.0,0.0,0.0,0.0,0.0,0.0,
2.4557209999999032,0.0,0.0,903.0,0.0,0.0,0.0,0.0,0.25,0.847167882,0.0,0.0,129.0,0.0,0.0,-0.0,0.0,0.125,0.41381831700000005,0.0,0.0,-1357.0,0.0,0.0,0.0,0.0,0.125,3.2751461490000002,0.0,-0.0012207029999999897,24.0,0.0,0.0,-0.0,0.0,0.125,1.6040037420000002,0.0,0.0,13.600000381469727,-1.4700000286102295,-0.029999999329447746,-0.02813720703125,0.24072265625,0.99176025390625,33.599998474121094,0.0,-1.0,-0.061187744140625,-0.070709228515625,Waiting,0.0,0.0,-2387.0,0.0,0.0,0.0,0.0,0.0,
2.4898060000000988,0.0,0.0,903.0,0.0,0.0,0.0,0.0,0.25,0.847167882,0.0,0.0,129.0,0.0,0.0,-0.0,0.0,0.125,0.41503902000000004,0.0,0.0,-1357.0,0.0,0.0,0.0,0.0,0.125,3.276366852,0.0,0.0012207029999999897,24.0,0.0,0.0,-0.0,0.0,0.125,1.6052244450000002,0.0,0.0,13.600000381469727,-1.4700000286102295,-0.029999999329447746,-0.02789306640625,0.24237060546875,0.99078369140625,33.61000061035156,0.0,-1.0,-0.061187744140625,-0.070709228515625,Waiting,0.0,0.0,-2387.0,0.0,0.0,0.0,0.0,0.0,
2.5152420000000855,0.0,0.0,903.0,0.0,0.0,0.0,0.0,0.25,0.847167882,0.0,0.0,129.0,0.0,0.0,-0.0,0.0,0.125,0.411376911,0.0,0.0,-1357.0,0.0,0.0,0.0,0.0,0.125,3.2739254460000002,0.0,0.0,24.0,0.0,0.0,-0.0,0.0,0.125,1.6052244450000002,0.0,0.0,13.609999656677246,-1.4700000286102295,-0.029999999329447746,-0.02752685546875,0.24139404296875,0.99407958984375,33.61000061035156,0.0,-1.0,-0.061187744140625,-0.070709228515625,Waiting,0.0,0.0,-2387.0,0.0,0.0,0.0,0.0,0.0,
2.550871999999974,0.0,0.0,903.0,0.0,0.0,0.0,0.0,0.25,0.848388585,0.0,0.0,129.0,0.0,0.0,-0.0,0.0,0.125,0.41381831700000005,0.0,0.0,-1357.0,0.0,0.0,0.0,0.0,0.125,3.2751461490000002,0.0,0.0,24.0,0.0,0.0,-0.0,0.0,0.125,1.6052244450000002,0.0,0.0,13.609999656677246,-1.4700000286102295,-0.03999999910593033,-0.02587890625,0.23834228515625,0.99493408203125,33.61000061035156,0.0,0.0,-0.061187744140625,-0.070709228515625,Waiting,0.0,0.0,-2387.0,0.0,0.0,0.0,0.0,0.0,
2.579155999999959,0.0,0.0,903.0,0.0,0.0,0.0,0.0,0.25,0.847167882,0.0,0.0,129.0,0.0,0.0,-0.0,0.0,0.125,0.41503902000000004,0.0,0.0,-1357.0,0.0,0.0,0.0,0.0,0.125,3.2751461490000002,0.0,0.0,24.0,0.0,0.0,-0.0,0.0,0.125,1.6052244450000002,0.0,0.0,13.600000381469727,-1.4800000190734863,-0.03999999910593033,-0.02435302734375,0.238037109375,0.987548828125,33.61000061035156,0.0,1.0,-0.061187744140625,-0.070709228515625,Waiting,0.0,0.0,-2387.0,0.0,0.0,0.0,0.0,0.0,
2.6111699999999254,0.0,0.0,903.0,0.0,0.0,0.0,0.0,0.25,0.847167882,0.0,0.0,129.0,0.0,0.0,-0.0,0.0,0.125,0.41381831700000005,0.0,0.0,-1357.0,0.0,0.0,0.0,0.0,0.125,3.2751461490000002,0.0,0.0,24.0,0.0,0.0,-0.0,0.0,0.125,1.6052244450000002,0.0,0.0,13.600000381469727,-1.4800000190734863,-0.03999999910593033,-0.026611328125,0.24139404296875,0.99468994140625,33.61000061035156,0.0,0.0,-0.061187744140625,-0.070709228515625,Waiting,0.0,0.0,-2387.0,0.0,0.0,0.0,0.0,0.0,
2.645631999999983,0.0,0.0,903.0,0.0,0.0,0.0,0.0,0.25,0.847167882,0.0,0.0,129.0,0.0,0.0,-0.0,0.0,0.125,0.41381831700000005,0.0,0.0,-1357.0,0.0,0.0,0.0,0.0,0.125,3.276366852,0.0,0.0,24.0,0.0,0.0,-0.0,0.0,0.125,1.6052244450000002,0.0,0.0,13.600000381469727,-1.4800000190734863,-0.03999999910593033,-0.029052734375,0.24420166015625,0.98876953125,33.61000061035156,0.0,-2.0,-0.061187744140625,-0.070709228515625,Waiting,0.0,0.0,-2387.0,0.0,0.0,0.0,0.0,0.0,
2.6718009999999777,0.0,0.0,903.0,0.0,0.0,0.0,0.0,0.25,0.847167882,0.0,0.0,129.0,0.0,0.0,-0.0,0.0,0.125,0.41381831700000005,0.0,-0.0012207030000004337,-1357.0,0.0,0.0,0.0,0.0,0.125,3.276366852,0.0,0.0,24.0,0.0,0.0,-0.0,0.0,0.125,1.6052244450000002,0.0,0.0,13.609999656677246,-1.4800000190734863,-0.03999999910593033,-0.0255126953125,0.23980712890625,0.9901123046875,33.61000061035156,0.0,0.0,-0.061187744140625,-0.070709228515625,Waiting,0.0,0.0,-2387.0,0.0,0.0,0.0,0.0,0.0,
2.7057879999999424,0.0,0.0,903.0,0.0,0.0,0.0,0.0,0.25,0.848388585,0.0,0.0,129.0,0.0,0.0,-0.0,0.0,0.125,0.41381831700000005,0.0,-0.0012207030000004337,-1357.0,0.0,0.0,0.0,0.0,0.125,3.2751461490000002,0.0,0.0,24.0,0.0,0.0,-0.0,0.0,0.125,1.6052244450000002,0.0,0.0,13.609999656677246,-1.4700000286102295,-0.029999999329447746,-0.02593994140625,0.2388916015625,0.9945068359375,33.61000061035156,0.0,0.0,-0.061187744140625,-0.070709228515625,Waiting,0.0,0.0,-2387.0,0.0,0.0,0.0,0.0,0.0,
2.732060999999987,0.0,0.0,903.0,0.0,0.0,0.0,0.0,0.25,0.865478427,0.0,0.0,129.0,0.0,0.0,-0.0,0.0,0.125,0.41503902000000004,0.0,0.0012207030000004337,-1357.0,0.0,0.0,0.0,0.0,0.125,3.2751461490000002,0.0,0.0,24.0,0.0,0.0,-0.0,0.0,0.125,1.6052244450000002,0.0,0.0,13.609999656677246,-1.4700000286102295,-0.029999999329447746,-0.024169921875,0.244384765625,0.989013671875,33.61000061035156,0.0,2.0,-0.061187744140625,-0.070709228515625,Waiting,0.0,0.0,-2387.0,0.0,0.0,0.0,0.0,0.0,
2.7600239999999756,0.0,0.0,903.0,0.0,0.0,0.0,0.0,0.25,0.848388585,0.0,0.0,129.0,0.0,0.0,-0.0,0.0,0.125,0.41381831700000005,0.0,0.0012207030000004337,-1357.0,0.0,0.0,0.0,0.0,0.125,3.2751461490000002,0.0,0.0,24.0,0.0,0.0,-0.0,0.0,0.125,1.6052244450000002,0.0,0.0,13.609999656677246,-1.4700000286102295,-0.03999999910593033,-0.02264404296875,0.24212646484375,0.98895263671875,33.61000061035156,0.0,3.0,-0.061187744140625,-0.070709228515625,Waiting,0.0,0.0,-2387.0,0.0,0.0,0.0,0.0,0.0,
2.788127000000095,0.0,0.0,903.0,0.0,0.0,0.0,0.0,0.25,0.847167882,0.0,-0.0012207029999999897,129.0,0.0,0.0,-0.0,0.0,0.125,0.41381831700000005,0.0,0.0,-1357.0,0.0,0.0,0.0,0.0,0.125,3.2751461490000002,0.0,-0.0012207029999999897,24.0,0.0,0.0,-0.0,0.0,0.125,1.6052244450000002,0.0,0.0,13.609999656677246,-1.4700000286102295,-0.05000000074505806,-0.03021240234375,0.237060546875,0.99359130859375,33.61000061035156,0.0,-3.0,-0.061187744140625,-0.070709228515625,Waiting,0.0,0.0,-2387.0,0.0,0.0,0.0,0.0,0.0,
2.813300999999978,0.0,0.0,903.0,0.0,0.0,0.0,0.0,0.25,0.847167882,0.0,-0.0012207029999999897,129.0,0.0,0.0,-0.0,0.0,0.125,0.41503902000000004,0.0,0.0,-1357.0,0.0,0.0,0.0,0.0,0.125,3.276366852,0.0,-0.0012207029999999897,24.0,0.0,0.0,-0.0,0.0,0.125,1.6052244450000002,0.0,-0.0012207029999999897,13.609999656677246,-1.4700000286102295,-0.05000000074505806,-0.02911376953125,0.23809814453125,0.99298095703125,33.61000061035156,0.0,-2.0,-0.061187744140625,-0.070709228515625,Waiting,0.0,0.0,-2387.0,0.0,0.0,0.0,0.0,0.0,
2.8464199999999256,0.0,0.0,903.0,0.0,0.0,0.0,0.0,0.25,0.848388585,0.0,0.0012207029999999897,129.0,0.0,0.0,-0.0,0.0,0.125,0.41503902000000004,0.0,0.0,-1357.0,0.0,0.0,0.0,0.0,0.125,3.2751461490000002,0.0,0.0012207029999999897,24.0,0.0,0.0,-0.0,0.0,0.125,1.6052244450000002,0.0,-0.0012207029999999897,13.609999656677246,-1.4800000190734863,-0.05000000074505806,-0.027587890625,0.24114990234375,0.99188232421875,33.61000061035156,0.0,-1.0,-0.061187744140625,-0.070709228515625,Waiting,-12.65,0.125,-2387.0,0.0,0.0,-2600.0,0.0,0.0,
2.8731259999999312,0.0,0.0,903.0,0.0,0.0,0.0,0.0,0.25,0.848388585,0.0,-0.0012207029999999897,129.0,0.0,0.0,-0.0,0.0,0.125,0.41381831700000005,0.0,0.0,-1357.0,0.0,0.0,0.0,0.0,0.125,3.2751461490000002,0.0,0.0,24.0,0.0,0.0,-0.0,0.0,0.125,1.6052244450000002,0.0,0.0,13.609999656677246,-1.4700000286102295,-0.029999999329447746,-0.02215576171875,0.2430419921875,0.99664306640625,33.61000061035156,0.0,4.0,-0.061187744140625,-0.070709228515625,Waiting,-12.65,57.25,-2387.0,0.0,-15.0,-2600.0,0.0,0.0,
2.9059169999998993,0.0,0.0,903.0,0.0,0.0,0.0,0.0,0.25,0.847167882,0.0,-0.0012207029999999897,129.0,0.0,0.0,-0.0,0.0,0.125,0.41381831700000005,0.0,0.0,-1357.0,0.0,0.0,0.0,0.0,0.125,3.2751461490000002,0.0,0.0,24.0,0.0,0.0,-0.0,0.0,0.125,1.6052244450000002,0.0,0.0,13.609999656677246,-1.4700000286102295,-0.029999999329447746,-0.02264404296875,0.24053955078125,0.9940185546875,33.61000061035156,0.0,3.0,-0.061187744140625,-0.070709228515625,Waiting,-12.65,86.25,-2387.0,0.0,-37.5,-2600.0,0.0,0.0,
2.932,0.0,0.0,903.0,0.0,0.0,0.0,0.0,0.25,0.847167882,0.0,0.0012207029999999897,129.0,0.0,0.0,-0.0,0.0,0.125,0.41381831700000005,0.0,0.0,-1357.0,0.0,0.0,0.0,0.0,0.125,3.2751461490000002,0.0,0.0,24.0,0.0,0.0,-0.0,0.0,0.125,1.6052244450000002,0.0,0.0,13.609999656677246,-1.4600000381469727,-0.03999999910593033,-0.02581787109375,0.24102783203125,0.99566650390625,33.61000061035156,0.0,0.0,-0.061187744140625,-0.070709228515625,Waiting,-9.75,88.25,-2420.0,-16.0,-82.5,-2600.0,0.0,0.0,
2.9618430000001097,0.0,0.0,903.0,0.0,0.0,0.0,0.0,0.25,0.847167882,0.0,0.0012207029999999897,129.0,0.0,0.0,-0.0,0.0,0.125,0.41381831700000005,0.0,0.0,-1357.0,0.0,0.0,0.0,0.0,0.125,3.276366852,0.0,0.0,24.0,0.0,0.0,-0.0,0.0,0.125,1.6052244450000002,0.0,0.0012207029999999897,13.609999656677246,-1.4700000286102295,-0.03999999910593033,-0.030517578125,0.242919921875,0.9901123046875,33.61000061035156,0.0,-4.0,-0.061187744140625,-0.070709228515625,Waiting,-9.75,84.0,-2420.0,-16.0,-240.0,-2600.0,0.0,0.0,
2.9904099999999163,0.0,0.0,903.0,0.0,0.0,0.0,0.0,0.25,0.8557128030000001,0.0,0.0,129.0,0.0,0.0,-0.0,0.0,0.125,0.41381831700000005,0.0,0.0,-1357.0,0.0,0.0,0.0,0.0,0.125,3.2751461490000002,0.0,0.0,24.0,0.0,0.0,-0.0,0.0,0.125,1.6052244450000002,0.0,0.0012207029999999897,13.609999656677246,-1.4700000286102295,-0.05000000074505806,-0.0283203125,0.24237060546875,0.99761962890625,33.630001068115234,0.0,-1.0,-0.061187744140625,-0.070709228515625,Waiting,-9.75,81.375,-2420.0,-16.0,-337.5,-2600.0,0.0,0.0,
3.0166180000000167,0.0,0.0,903.0,0.0,0.0,0.0,0.0,0.25,0.847167882,0.0,0.0,129.0,0.0,0.0,-0.0,0.0,0.125,0.41381831700000005,0.0,0.0,-1357.0,0.0,0.0,0.0,0.0,0.125,3.2751461490000002,0.0,0.0,24.0,0.0,0.0,-0.0,0.0,0.125,1.6052244450000002,0.0,0.0,13.600000381469727,-1.4800000190734863,-0.05000000074505806,-0.03179931640625,0.23779296875,0.99530029296875,33.630001068115234,0.0,-5.0,-0.061187744140625,-0.070709228515625,Waiting,-9.75,76.5,-2420.0,-16.0,-540.0,-2600.0,0.0,0.0,
3.0496370000001045,0.0,0.0,903.0,0.0,0.0,0.0,0.0,0.25,0.865478427,0.0,0.0,129.0,0.0,0.0,-0.0,0.0,0.125,0.41381831700000005,0.0,0.0,-1357.0,0.0,0.0,0.0,0.0,0.125,3.2751461490000002,0.0,0.0,24.0,0.0,0.0,-0.0,0.0,0.125,1.6052244450000002,0.0,0.0,13.600000381469727,-1.4800000190734863,-0.05000000074505806,-0.02813720703125,0.2398681640625,0.99273681640625,33.630001068115234,0.0,-1.0,-0.061187744140625,-0.070709228515625,Waiting,-10.100000000000001,74.25,-2542.0,-89.0,-637.5,-2600.0,0.0,0.0,
3.0751999999999535,0.0,0.0,903.0,0.0,0.0,0.0,0.0,0.25,0.845947179,0.0,0.0,129.0,0.0,0.0,-0.0,0.0,0.125,0.41503902000000004,0.0,0.0,-1357.0,0.0,0.0,0.0,0.0,0.125,3.2751461490000002,0.0,0.0,24.0,0.0,0.0,-0.0,0.0,0.125,1.6052244450000002,0.0,0.0,13.600000381469727,-1.4800000190734863,-0.05000000074505806,-0.02813720703125,0.23712158203125,0.994384765625,33.630001068115234,0.0,-1.0,-0.061187744140625,-0.070709228515625,Waiting,-10.100000000000001,72.125,-2542.0,-89.0,-735.0,-2600.0,0.0,0.0,
3.1072930000000634,0.0,0.0,903.0,0.0,0.0,0.0,0.0,0.25,0.861816318,0.0,0.0,129.0,0.0,0.0,-0.0,0.0,0.125,0.41381831700000005,0.0,0.0,-1357.0,0.0,0.0,0.0,0.0,0.125,3.276366852,0.0,0.0,24.0,0.0,0.0,-0.0,0.0,0.125,1.6064451480000002,0.0,0.0,13.600000381469727,-1.4800000190734863,-0.05000000074505806,-0.02459716796875,0.23797607421875,0.9871826171875,33.630001068115234,0.0,1.0,-0.061187744140625,-0.070709228515625,Waiting,-10.100000000000001,68.75,-2542.0,-89.0,-915.0,-2600.0,0.0,0.0,
3.13319299999997,0.0,0.0,903.0,0.0,0.0,0.0,0.0,0.25,0.847167882,0.0,0.0,129.0,0.0,0.0,-0.0,0.0,0.125,0.41503902000000004,0.0,0.0,-1357.0,0.0,0.0,0.0,0.0,0.125,3.2739254460000002,0.0,0.0,24.0,0.0,0.0,-0.0,0.0,0.125,1.6052244450000002,0.0,0.0,13.600000381469727,-1.4800000190734863,-0.03999999910593033,-0.02593994140625,0.2392578125,0.9893798828125,33.630001068115234,0.0,0.0,-0.061187744140625,-0.070709228515625,Waiting,-10.100000000000001,66.875,-2542.0,-89.0,-997.5,-2600.0,0.0,0.0,
3.165274999999907,0.0,0.0,903.0,0.0,0.0,0.0,0.0,0.25,0.848388585,0.0,0.0,129.0,0.0,0.0,-0.0,0.0,0.125,0.41381831700000005,0.0,0.0,-1357.0,0.0,0.0,0.0,0.0,0.125,3.2751461490000002,0.0,0.0,24.0,0.0,0.0,-0.0,0.0,0.125,1.6052244450000002,0.0,-0.0012207029999999897,13.600000381469727,-1.4800000190734863,-0.03999999910593033,-0.02716064453125,0.24346923828125,0.98944091796875,33.630001068115234,0.0,0.0,-0.061187744140625,-0.070709228515625,Waiting,-10.100000000000001,65.0,-2542.0,-89.0,-1080.0,-2600.0,0.0,0.0,
3.192027999999933,0.0,0.0,903.0,0.0,0.0,0.0,0.0,0.25,0.847167882,0.0,0.0,129.0,0.0,0.0,-0.0,0.0,0.125,0.41503902000000004,0.0,0.0,-1357.0,0.0,0.0,0.0,0.0,0.125,3.276366852,0.0,0.0,24.0,0.0,0.0,-0.0,0.0,0.125,1.6052244450000002,0.0,-0.0012207029999999897,13.600000381469727,-1.4800000190734863,-0.019999999552965164,-0.02825927734375,0.2349853515625,0.99615478515625,33.630001068115234,0.0,-1.0,-0.061187744140625,-0.070709228515625,Waiting,-10.350000000000001,61.625,-2742.0,-155.0,-1245.0,-2600.0,0.0,0.0,
3.21466100000008,0.0,0.0,903.0,0.0,0.0,0.0,0.0,0.25,0.848388585,0.0,0.0,129.0,0.0,0.0,-0.0,0.0,0.125,0.41381831700000005,0.0,0.0,-1357.0,0.0,0.0,0.0,0.0,0.125,3.2751461490000002,0.0,0.0,24.0,0.0,0.0,-0.0,0.0,0.125,1.6052244450000002,0.0,0.0012207029999999897,13.600000381469727,-1.4800000190734863,-0.019999999552965164,-0.02587890625,0.23779296875,0.9964599609375,33.630001068115234,0.0,0.0,-0.061187744140625,-0.070709228515625,Waiting,-10.350000000000001,60.125,-2742.0,-155.0,-1320.0,-2600.0,0.0,0.0,
3.2400740000000225,0.0,0.0,903.0,0.0,0.0,0.0,0.0,0.25,0.849609288,0.0,0.0,129.0,0.0,0.0,-0.0,0.0,0.125,0.41503902000000004,0.0,0.0,-1357.0,0.0,0.0,0.0,0.0,0.125,3.2751461490000002,0.0,0.0,24.0,0.0,0.0,-0.0,0.0,0.125,1.6040037420000002,0.0,0.0012207029999999897,13.609999656677246,-1.4700000286102295,-0.009999999776482582,-0.02496337890625,0.2398681640625,0.99359130859375,33.630001068115234,0.0,1.0,-0.061187744140625,-0.070709228515625,Waiting,-10.350000000000001,58.75,-2742.0,-155.0,-1387.5,-2600.0,0.0,0.0,
3.270692000000039,0.0,0.0,903.0,0.0,0.0,0.0,0.0,0.25,0.848388585,0.0,0.0012207029999999897,129.0,0.0,0.0,-0.0,0.0,0.125,0.41381831700000005,0.0,0.0,-1357.0,0.0,0.0,0.0,0.0,0.125,3.2751461490000002,0.0,-0.0012207029999999897,24.0,0.0,0.0,-0.0,0.0,0.125,1.6052244450000002,0.0,0.0,13.609999656677246,-1.4600000381469727,0.0,-0.0269775390625,0.2401123046875,0.98870849609375,33.630001068115234,0.0,0.0,-0.061187744140625,-0.070709228515625,Waiting,-10.350000000000001,56.125,-2742.0,-155.0,-1530.0,-2600.0,0.0,0.0,
3.301247999999905,0.0,0.0,903.0,0.0,0.0,0.0,0.0,0.25,0.847167882,0.0,0.0012207029999999897,129.0,0.0,0.0,-0.0,0.0,0.125,0.41503902000000004,0.0,0.0,-1357.0,0.0,0.0,0.0,0.0,0.125,3.2739254460000002,0.0,-0.0012207029999999897,24.0,0.0,0.0,-0.0,0.0,0.125,1.6052244450000002,0.0,0.0,13.609999656677246,-1.4600000381469727,0.0,-0.0211181640625,0.24029541015625,0.9884033203125,33.630001068115234,0.0,4.0,-0.061187744140625,-0.070709228515625,Waiting,-10.55,55.0,-3005.0,-210.0,-1590.0,-2600.0,0.0,0.0,
3.3291180000000167,0.0,0.0,903.0,0.0,0.0,0.0,0.0,0.25,0.837402258,0.0,-0.0012207029999999897,129.0,0.0,0.0,-0.0,0.0,0.125,0.41381831700000005,0.0,0.0,-1357.0,0.0,0.0,0.0,0.0,0.125,3.2751461490000002,0.0,0.0,24.0,0.0,0.0,-0.0,0.0,0.125,1.6052244450000002,0.0,-0.0012207029999999897,13.619999885559082,-1.4500000476837158,0.009999999776482582,-0.01629638671875,0.24371337890625,0.99298095703125,33.630001068115234,0.0,9.0,-0.061187744140625,-0.070709228515625,Waiting,-10.55,53.875,-3005.0,-210.0,-1657.5,-2600.0,0.0,0.0,
3.3562110000001266,0.0,0.0,903.0,0.0,0.0,0.0,0.0,0.25,0.847167882,0.0,-0.0012207029999999897,129.0,0.0,0.0,-0.0,0.0,0.125,0.41381831700000005,0.0,0.0,-1357.0,0.0,0.0,0.0,0.0,0.125,3.2751461490000002,0.0,0.0,24.0,0.0,0.0,-0.0,0.0,0.125,1.6052244450000002,0.0,0.0,13.630000114440918,-1.440000057220459,0.0,-0.02264404296875,0.2421875,0.99664306640625,33.630001068115234,0.0,3.0,-0.061187744140625,-0.070709228515625,Waiting,-10.55,51.5,-3005.0,-210.0,-1777.5,-2600.0,0.0,0.0,
3.3820409999999685,0.0,0.0,903.0,0.0,0.0,0.0,0.0,0.25,0.847167882,0.0,0.0,129.0,0.0,0.0,-0.0,0.0,0.125,0.41381831700000005,0.0,0.0,-1357.0,0.0,0.0,0.0,0.0,0.125,3.2751461490000002,0.0,0.0012207029999999897,24.0,0.0,0.0,-0.0,0.0,0.125,1.6052244450000002,0.0,0.0,13.619999885559082,-1.440000057220459,-0.009999999776482582,-0.026611328125,0.24169921875,0.99359130859375,33.630001068115234,0.0,0.0,-0.061187744140625,-0.070709228515625,Waiting,-10.55,50.5,-3005.0,-210.0,-1837.5,-2600.0,0.0,0.0,
3.413279000000097,0.0,0.0,903.0,0.0,0.0,0.0,0.0,0.25,0.848388585,0.0,0.0,129.0,0.0,0.0,-0.0,0.0,0.125,0.41381831700000005,0.0,0.0,-1357.0,0.0,0.0,0.0,0.0,0.125,3.2751461490000002,0.0,0.0012207029999999897,24.0,0.0,0.0,-0.0,0.0,0.125,1.6052244450000002,0.0,0.0,13.619999885559082,-1.4500000476837158,-0.029999999329447746,-0.032958984375,0.23870849609375,0.99407958984375,33.630001068115234,0.0,-7.0,-0.061187744140625,-0.070709228515625,Waiting,-10.75,49.5,-3321.0,-255.0,-1890.0,-2600.0,0.0,0.0,
3.4387260000000244,0.0,0.0,903.0,0.0,0.0,0.0,0.0,0.25,0.875244051,0.0,0.0,129.0,0.0,0.0,-0.0,0.0,0.125,0.41381831700000005,0.0,-0.0012207030000004337,-1357.0,0.0,0.0,0.0,0.0,0.125,3.2739254460000002,0.0,0.0,24.0,0.0,0.0,-0.0,0.0,0.125,1.6052244450000002,0.0,0.0,13.600000381469727,-1.4700000286102295,-0.029999999329447746,-0.03363037109375,0.2340087890625,0.995849609375,33.630001068115234,0.0,-7.0,-0.061187744140625,-0.070709228515625,Waiting,-10.75,47.875,-3321.0,-255.0,-2002.5,-2600.0,0.0,0.0,
3.4689860000000334,0.0,0.0,903.0,0.0,0.0,0.0,0.0,0.25,0.848388585,0.0,0.0,129.0,0.0,0.0,-0.0,0.0,0.125,0.41381831700000005,0.0,0.0012207030000004337,-1357.0,0.0,0.0,0.0,0.0,0.125,3.2751461490000002,0.0,-0.0012207029999999897,24.0,0.0,0.0,-0.0,0.0,0.125,1.6052244450000002,0.0,0.0012207029999999897,13.600000381469727,-1.4800000190734863,-0.019999999552965164,-0.02777099609375,0.23492431640625,0.98822021484375,33.630001068115234,0.0,-1.0,-0.061187744140625,-0.070709228515625,Waiting,-10.75,47.0,-3321.0,-255.0,-2055.0,-2600.0,0.0,0.0,
3.4965439999999943,0.0,0.0,903.0,0.0,0.0,0.0,0.0,0.25,0.847167882,0.0,0.0,129.0,0.0,0.0,-0.0,0.0,0.125,0.41381831700000005,0.0,0.0012207030000004337,-1357.0,0.0,0.0,0.0,0.0,0.125,3.2751461490000002,0.0,-0.0012207029999999897,24.0,0.0,0.0,-0.0,0.0,0.125,1.6052244450000002,0.0,0.0012207029999999897,13.600000381469727,-1.4700000286102295,-0.019999999552965164,-0.02490234375,0.23956298828125,0.9954833984375,33.650001525878906,0.0,1.0,-0.061187744140625,-0.070709228515625,Waiting,-10.75,45.875,-3321.0,-255.0,-2100.0,-2600.0,0.0,0.0,
3.527476000000024,0.0,0.0,903.0,0.0,0.0,0.0,0.0,0.25,0.847167882,0.0,0.0,129.0,0.0,0.0,-0.0,0.0,0.125,0.41381831700000005,0.0,0.0,-1357.0,0.0,0.0,0.0,0.0,0.125,3.2751461490000002,0.0,0.0,24.0,0.0,0.0,-0.0,0.0,0.125,1.6052244450000002,0.0,0.0,13.609999656677246,-1.4600000381469727,-0.019999999552965164,-0.021240234375,0.24267578125,0.99554443359375,33.650001525878906,0.0,4.0,-0.061187744140625,-0.070709228515625,Waiting,-10.9,44.5,-3680.0,-293.0,-2190.0,-2600.0,0.0,0.0,
3.553560999999987,0.0,0.0,903.0,0.0,0.0,0.0,0.0,0.25,0.847167882,0.0,0.0,129.0,0.0,0.0,-0.0,0.0,0.125,0.41381831700000005,0.0,0.0,-1357.0,0.0,0.0,0.0,0.0,0.125,3.2751461490000002,0.0,0.0,24.0,0.0,0.0,-0.0,0.0,0.125,1.6052244450000002,0.0,0.0,13.609999656677246,-1.4500000476837158,-0.019999999552965164,-0.021484375,0.242431640625,0.99432373046875,33.650001525878906,0.0,4.0,-0.061187744140625,-0.070709228515625,Waiting,-10.9,43.75,-3680.0,-293.0,-2235.0,-2600.0,0.0,0.0,
3.584341999999946,0.0,0.0,903.0,0.0,0.0,0.0,0.0,0.25,0.848388585,0.0,0.0,129.0,0.0,0.0,-0.0,0.0,0.125,0.41381831700000005,0.0,-0.0012207030000004337,-1357.0,0.0,0.0,0.0,0.0,0.125,3.2751461490000002,0.0,0.0012207029999999897,24.0,0.0,0.0,-0.0,0.0,0.125,1.6052244450000002,0.0,0.0,13.609999656677246,-1.4500000476837158,-0.029999999329447746,-0.02734375,0.23931884765625,0.9947509765625,33.650001525878906,0.0,-1.0,-0.061187744140625,-0.070709228515625,Waiting,-10.9,43.0,-3680.0,-293.0,-2317.5,-2600.0,0.0,0.0,
3.6112039999999106,0.0,0.0,903.0,0.0,0.0,0.0,0.0,0.25,0.859374912,0.0,0.0,129.0,0.0,0.0,-0.0,0.0,0.125,0.41503902000000004,0.0,-0.0012207030000004337,-1357.0,0.0,0.0,0.0,0.0,0.125,3.276366852,0.0,0.0012207029999999897,24.0,0.0,0.0,-0.0,0.0,0.125,1.6052244450000002,0.0,-0.0012207029999999897,13.609999656677246,-1.4500000476837158,-0.029999999329447746,-0.02734375,0.24212646484375,0.9921875,33.650001525878906,0.0,-1.0,-0.061187744140625,-0.070709228515625,Waiting,-10.9,41.5,-3680.0,-293.0,-2355.0,-2600.0,0.0,0.0,
3.6424629999999887,0.0,0.0,903.0,0.0,0.0,0.0,0.0,0.25,0.848388585,0.0,-0.0012207029999999897,129.0,0.0,0.0,-0.0,0.0,0.125,0.41381831700000005,0.0,0.0012207030000004337,-1357.0,0.0,0.0,0.0,0.0,0.125,3.2751461490000002,0.0,0.0,24.0,0.0,0.0,-0.0,0.0,0.125,1.6052244450000002,0.0,-0.0012207029999999897,13.609999656677246,-1.4600000381469727,-0.019999999552965164,-0.02734375,0.2393798828125,0.9940185546875,33.650001525878906,0.0,-1.0,-0.061187744140625,-0.070709228515625,Waiting,-10.9,40.75,-3680.0,-293.0,-2392.5,-2600.0,0.0,0.0,
3.6697309999999126,0.0,0.0,903.0,0.0,0.0,0.0,0.0,0.25,0.847167882,0.0,-0.0012207029999999897,129.0,0.0,0.0,-0.0,0.0,0.125,0.41503902000000004,0.0,0.0,-1357.0,0.0,0.0,0.0,0.0,0.125,3.276366852,0.0,-0.0012207029999999897,24.0,0.0,0.0,-0.0,0.0,0.125,1.6052244450000002,0.0,0.0,13.600000381469727,-1.4500000476837158,-0.019999999552965164,-0.0263671875,0.23614501953125,0.9989013671875,33.650001525878906,0.0,0.0,-0.061187744140625,-0.070709228515625,Waiting,-11.0,39.875,-4075.0,-324.0,-2467.5,-2600.0,0.0,0.0,
3.6963459999999033,0.0,0.0,903.0,0.0,0.0,0.0,0.0,0.25,0.847167882,0.0,0.0012207029999999897,129.0,0.0,0.0,-0.0,0.0,0.125,0.41503902000000004,0.0,0.0,-1357.0,0.0,0.0,0.0,0.0,0.125,3.276366852,0.0,-0.0012207029999999897,24.0,0.0,0.0,-0.0,0.0,0.125,1.6052244450000002,0.0,0.0,13.609999656677246,-1.440000057220459,-0.029999999329447746,-0.02484130859375,0.2412109375,0.98968505859375,33.650001525878906,0.0,0.0,-0.061187744140625,-0.070709228515625,Waiting,-11.0,39.375,-4075.0,-324.0,-2505.0,-2600.0,0.0,0.0,
