Time,ClimberA1,ClimberA2,FRpos,FRCurrent,FRspeed,FRsetpoint,FRApos,FRACurrent,FREncpos,FREncSetpoint,FREncSpeed,FLpos,FLCurrent,FLspeed,FLsetpoint,FLApos,FLACurrent,FLEncpos,FLEncSetpoint,FLEncSpeed,BRpos,BRCurrent,BRspeed,BRsetpoint,BRApos,BRACurrent,BREncpos,BREncSetpoint,BREncSpeed,BLpos,BLCurrent,BLspeed,BLsetpoint,BLApos,BLACurrent,BLEncpos,BLEncSetpoint,BLEncSpeed,navx_Pitch,navx_Roll,navx_Yaw,navx_XAcc,navx_YAcc,navx_ZAcc,navx_Temp,navx_Bar,navx_Alt,navx_XDis,navx_YDis,GearPlacerState,ShootOutputV,ShootOutputCurrent,ShootEncPos,ShootEncVelocity,ShootSpeed,ShootSetpoint,CarouselSetpoint,CarouselCurrent,
0.1724319999999716,0.0,0.0,18960.0,0.0,0.0,0.0,0.0,0.125,4.531249536000001,3.6991882499999984,0.0,-6773.0,0.0,0.0,0.0,0.0,0.0,4.151610903,3.7228274999999984,0.0,44751.0,0.0,0.0,0.0,0.0,0.0,4.476317901,1.2350999999999985,0.0,114.0,0.0,0.0,0.0,0.0,0.125,2.817382524,1.2394999999999985,0.0,1.0099999904632568,-0.49000000953674316,0.0,-0.0103759765625,0.0167236328125,1.02447509765625,30.700000762939453,0.0,-1.0,-0.1339111328125,-5.2728118896484375,Waiting,0.0,0.0,0.0,0.0,0.0,0.0,0.0,0.0,
0.2536119999999646,0.0,0.0,18960.0,0.0,0.0,0.0,0.0,0.125,4.532470239,3.6991882499999984,0.0,-6773.0,0.0,0.0,0.0,0.0,0.0,4.152831606,3.7228274999999984,0.0,44751.0,0.0,0.0,0.0,0.0,0.0,4.475097198,1.2350999999999985,0.0,114.0,0.0,0.0,0.0,0.0,0.125,2.817382524,1.2394999999999985,0.0,1.0,-0.49000000953674316,0.0,-0.0113525390625,0.01708984375,1.02752685546875,30.700000762939453,0.0,-2.0,-0.1339111328125,-5.2728118896484375,Waiting,0.0,0.0,0.0,0.0,0.0,0.0,0.0,0.0,
0.44262299999996324,0.0,0.0,18960.0,0.0,0.0,0.0,0.0,0.125,4.533690942000001,3.6991882499999984,0.0,-6773.0,0.0,0.0,0.0,0.0,0.0,4.152831606,3.7228274999999984,0.0,44751.0,0.0,0.0,0.0,0.0,0.0,4.475097198,1.2350999999999985,0.0,114.0,0.0,0.0,0.0,0.0,0.125,2.816161821,1.2394999999999985,0.0,1.0,-0.5,0.0,-0.00909423828125,0.01763916015625,1.0255126953125,30.700000762939453,0.0,0.0,-0.1339111328125,-5.2728118896484375,Waiting,0.0,0.0,0.0,0.0,0.0,0.0,0.0,0.0,
0.49819199999998093,0.0,0.0,18960.0,0.0,0.0,0.0,0.0,0.125,4.531249536000001,3.6991882499999984,0.0,-6773.0,0.0,0.0,0.0,0.0,0.0,4.152831606,3.7228274999999984,0.0,44751.0,0.0,0.0,0.0,0.0,0.0,4.475097198,1.2350999999999985,0.0,114.0,0.0,0.0,0.0,0.0,0.25,2.816161821,1.2394999999999985,0.0,1.0,-0.5,0.0,-0.00689697265625,0.0140380859375,1.0274658203125,30.700000762939453,0.0,2.0,-0.1339111328125,-5.2728118896484375,Waiting,0.0,0.0,0.0,0.0,0.0,0.0,0.0,0.0,
0.5596439999999712,0.0,0.0,18960.0,0.0,0.0,0.0,0.0,0.125,4.531249536000001,3.6991882499999984,0.0,-6773.0,0.0,0.0,0.0,0.0,0.0,4.152831606,3.7228274999999984,0.0,44751.0,0.0,0.0,0.0,0.0,0.0,4.475097198,1.2350999999999985,0.0,114.0,0.0,0.0,0.0,0.0,0.25,2.817382524,1.2394999999999985,0.0,1.0,-0.5,0.0,-0.01043701171875,0.01507568359375,1.02093505859375,30.700000762939453,0.0,-1.0,-0.1339111328125,-5.2728118896484375,Waiting,0.0,0.0,0.0,0.0,0.0,0.0,0.0,0.0,
0.625100999999966,0.0,0.0,18960.0,0.0,0.0,0.0,0.0,0.125,4.530028833,3.6991882499999984,0.0,-6773.0,0.0,0.0,0.0,0.0,0.0,4.152831606,3.7228274999999984,0.0,44751.0,0.0,0.0,0.0,0.0,0.0,4.476317901,1.2350999999999985,0.0,114.0,0.0,0.0,0.0,0.0,0.125,2.817382524,1.2394999999999985,0.0,1.0,-0.5,0.009999999776482582,-0.009765625,0.0169677734375,1.03009033203125,30.700000762939453,0.0,0.0,-0.1339111328125,-5.2728118896484375,Waiting,0.0,0.0,0.0,0.0,0.0,0.0,0.0,0.0,
0.687310999999987,0.0,0.0,18960.0,0.0,0.0,0.0,0.0,0.125,4.532470239,3.6991882499999984,0.0,-6773.0,0.0,0.0,0.0,0.0,0.0,4.152831606,3.7228274999999984,0.0,44751.0,0.0,0.0,0.0,0.0,0.0,4.475097198,1.2350999999999985,0.0,114.0,0.0,0.0,0.0,0.0,0.125,2.816161821,1.2394999999999985,0.0,1.0,-0.5,0.009999999776482582,-0.00958251953125,0.01904296875,1.02655029296875,30.709999084472656,0.0,0.0,-0.1339111328125,-5.2728118896484375,Waiting,0.0,0.0,0.0,0.0,0.0,0.0,0.0,0.0,
0.7468800000000047,0.0,0.0,18960.0,0.0,0.0,0.0,0.0,0.125,4.531249536000001,3.6991882499999984,0.0,-6773.0,0.0,0.0,0.0,0.0,0.0,4.152831606,3.7228274999999984,0.0,44751.0,0.0,0.0,0.0,0.0,0.0,4.475097198,1.2350999999999985,0.0,114.0,0.0,0.0,0.0,0.0,0.25,2.816161821,1.2394999999999985,0.0,1.0,-0.5,0.009999999776482582,-0.0101318359375,0.01873779296875,1.03033447265625,30.709999084472656,0.0,0.0,-0.1339111328125,-5.2728118896484375,Waiting,0.0,0.0,0.0,0.0,0.0,0.0,0.0,0.0,
0.8064649999999675,0.0,0.0,18960.0,0.0,0.0,0.0,0.0,0.125,4.532470239,3.6991882499999984,0.0,-6773.0,0.0,0.0,0.0,0.0,0.0,4.151610903,3.7228274999999984,0.0,44751.0,0.0,0.0,0.0,0.0,0.0,4.476317901,1.2350999999999985,0.0,114.0,0.0,0.0,0.0,0.0,0.25,2.817382524,1.2394999999999985,0.0,1.0,-0.5,0.009999999776482582,-0.01104736328125,0.019775390625,1.030029296875,30.709999084472656,0.0,-1.0,-0.1339111328125,-5.2728118896484375,Waiting,0.0,0.0,0.0,0.0,0.0,0.0,0.0,0.0,
0.8676589999999851,0.0,0.0,18960.0,0.0,0.0,0.0,0.0,0.125,4.531249536000001,3.6991882499999984,0.0,-6773.0,0.0,0.0,0.0,0.0,0.0,4.151610903,3.7228274999999984,0.0,44751.0,0.0,0.0,0.0,0.0,0.0,4.476317901,1.2350999999999985,0.0,114.0,0.0,0.0,0.0,0.0,0.125,2.817382524,1.2394999999999985,0.0,1.0,-0.5,0.009999999776482582,-0.01123046875,0.01690673828125,1.0247802734375,30.709999084472656,0.0,-2.0,-0.1339111328125,-5.2728118896484375,Waiting,0.0,0.0,0.0,0.0,0.0,0.0,0.0,0.0,
0.9308819999999832,0.0,0.0,18960.0,0.0,0.0,0.0,0.0,0.125,4.532470239,3.6991882499999984,0.0,-6773.0,0.0,0.0,0.0,0.0,0.0,4.151610903,3.7228274999999984,0.0,44751.0,0.0,0.0,0.0,0.0,0.0,4.476317901,1.2350999999999985,0.0,114.0,0.0,0.0,0.0,0.0,0.125,2.817382524,1.2394999999999985,0.0,1.0,-0.5099999904632568,0.009999999776482582,-0.0084228515625,0.017578125,1.03082275390625,30.709999084472656,0.0,0.0,-0.1339111328125,-5.2728118896484375,Waiting,0.0,0.0,0.0,0.0,0.0,0.0,0.0,0.0,
0.9913790000000153,0.0,0.0,18960.0,0.0,0.0,0.0,0.0,0.125,4.532470239,3.6991882499999984,0.0,-6773.0,0.0,0.0,0.0,0.0,0.0,4.152831606,3.7228274999999984,0.0,44751.0,0.0,0.0,0.0,0.0,0.0,4.477538604,1.2350999999999985,0.0,114.0,0.0,0.0,0.0,0.0,0.125,2.817382524,1.2394999999999985,0.0,1.0,-0.5,0.009999999776482582,-0.0098876953125,0.014892578125,1.027099609375,30.709999084472656,0.0,-1.0,-0.1339111328125,-5.2728118896484375,Waiting,0.0,0.0,0.0,0.0,0.0,0.0,0.0,0.0,
1.0510690000000178,0.0,0.0,18960.0,0.0,0.0,0.0,0.0,0.125,4.532470239,3.6991882499999984,0.0,-6773.0,0.0,0.0,0.0,0.0,0.0,4.152831606,3.7228274999999984,0.0,44751.0,0.0,0.0,0.0,0.0,0.0,4.477538604,1.2350999999999985,0.0,114.0,0.0,0.0,0.0,0.0,0.125,2.817382524,1.2394999999999985,0.0,0.9900000095367432,-0.5099999904632568,0.009999999776482582,-0.01068115234375,0.01763916015625,1.0201416015625,30.709999084472656,0.0,-1.0,-0.1339111328125,-5.2728118896484375,Waiting,0.0,0.0,0.0,0.0,0.0,0.0,0.0,0.0,
1.1102849999999744,0.0,0.0,18960.0,0.0,0.0,0.0,0.0,0.125,4.531249536000001,3.6991882499999984,0.0,-6773.0,0.0,0.0,0.0,0.0,0.0,4.152831606,3.7228274999999984,0.0,44751.0,0.0,0.0,0.0,0.0,0.0,4.475097198,1.2350999999999985,0.0,114.0,0.0,0.0,0.0,0.0,0.25,2.816161821,1.2394999999999985,0.0,0.9900000095367432,-0.5099999904632568,0.009999999776482582,-0.0111083984375,0.01873779296875,1.01922607421875,30.709999084472656,0.0,-2.0,-0.1339111328125,-5.2728118896484375,Waiting,0.0,0.0,0.0,0.0,0.0,0.0,0.0,0.0,
1.1727170000000042,0.0,0.0,18960.0,0.0,0.0,0.0,0.0,0.125,4.532470239,3.6991882499999984,0.0,-6773.0,0.0,0.0,0.0,0.0,0.0,4.151610903,3.7228274999999984,0.0,44751.0,0.0,0.0,0.0,0.0,0.0,4.475097198,1.2350999999999985,0.0,114.0,0.0,0.0,0.0,0.0,0.125,2.816161821,1.2394999999999985,0.0,1.0,-0.5,0.009999999776482582,-0.00787353515625,0.01983642578125,1.0302734375,30.719999313354492,0.0,1.0,-0.1339111328125,-5.2728118896484375,Waiting,0.0,0.0,0.0,0.0,0.0,0.0,0.0,0.0,
1.2368269999999901,0.0,0.0,18960.0,0.0,0.0,0.0,0.0,0.125,4.532470239,3.6991882499999984,0.0,-6773.0,0.0,0.0,0.0,0.0,0.0,4.152831606,3.7228274999999984,-0.0012207030000004337,44751.0,0.0,0.0,0.0,0.0,0.0,4.476317901,1.2350999999999985,0.0,114.0,0.0,0.0,0.0,0.0,0.25,2.817382524,1.2394999999999985,0.0,1.0,-0.5,0.009999999776482582,-0.0079345703125,0.01483154296875,1.02410888671875,30.719999313354492,0.0,1.0,-0.1339111328125,-5.2728118896484375,Waiting,0.0,0.0,0.0,0.0,0.0,0.0,0.0,0.0,
1.3025079999999725,0.0,0.0,18960.0,0.0,0.0,0.0,0.0,0.125,4.531249536000001,3.6991882499999984,0.0,-6773.0,0.0,0.0,0.0,0.0,0.0,4.151610903,3.7228274999999984,0.0,44751.0,0.0,0.0,0.0,0.0,0.0,4.475097198,1.2350999999999985,0.0,114.0,0.0,0.0,0.0,0.0,0.25,2.817382524,1.2394999999999985,0.0,1.0,-0.5,0.009999999776482582,-0.00592041015625,0.01788330078125,1.02471923828125,30.719999313354492,0.0,3.0,-0.1339111328125,-5.2728118896484375,Waiting,0.0,0.0,0.0,0.0,0.0,0.0,0.0,0.0,
1.3625569999999716,0.0,0.0,18960.0,0.0,0.0,0.0,0.0,0.125,4.532470239,3.6991882499999984,0.0,-6773.0,0.0,0.0,0.0,0.0,0.0,4.152831606,3.7228274999999984,0.0,44751.0,0.0,0.0,0.0,0.0,0.0,4.476317901,1.2350999999999985,0.0,114.0,0.0,0.0,0.0,0.0,0.25,2.816161821,1.2394999999999985,0.0,1.0,-0.5,0.009999999776482582,-0.00933837890625,0.014892578125,1.02728271484375,30.719999313354492,0.0,0.0,-0.1339111328125,-5.2728118896484375,Waiting,0.0,0.0,0.0,0.0,0.0,0.0,0.0,0.0,
1.4257280000000028,0.0,0.0,18960.0,0.125,0.0,196.875,0.0,0.125,4.533690942000001,0.01,0.0,-6773.0,0.125,0.0,196.875,0.0,0.0,4.151610903,2.481885,0.0,44751.0,0.125,0.0,196.875,0.0,0.0,4.475097198,0.01,0.0,114.0,0.125,0.0,-196.875,0.0,0.125,2.817382524,0.01,0.0,0.9900000095367432,-0.5099999904632568,0.009999999776482582,-0.00909423828125,0.01702880859375,1.02642822265625,30.719999313354492,0.0,0.0,-0.1339111328125,-5.2728118896484375,Waiting,0.0,0.0,0.0,0.0,0.0,0.0,0.0,0.0,
1.4870109999999985,0.0,0.0,18965.0,0.125,7.5,262.5,0.0,6.25,4.799804196,0.01,0.0,-6773.0,0.375,0.0,262.5,0.0,8.375,3.923339442,2.481885,0.0,44753.0,0.375,0.0,262.5,0.0,5.75,4.18701129,0.01,0.0,112.0,0.125,-7.5,-262.5,0.0,6.875,2.4890134170000002,0.01,0.0,0.9900000095367432,-0.5099999904632568,0.019999999552965164,-2.44140625E-4,0.04376220703125,1.01397705078125,30.719999313354492,0.0,8.0,-0.1340484619140625,-5.2729339599609375,Waiting,0.0,0.0,0.0,0.0,0.0,0.0,0.0,0.0,
1.5488420000000043,0.0,0.0,18965.0,0.5,45.0,278.90625,0.0,1.75,0.299072235,0.01,0.0,-6773.0,0.75,0.0,278.90625,0.0,1.125,3.486327768,2.481885,0.0,44753.0,0.375,60.0,278.90625,0.0,1.25,3.72314415,0.01,0.0,112.0,0.375,0.0,-278.90625,0.0,1.25,2.028808386,0.01,0.0,1.0499999523162842,-0.5,0.03999999910593033,0.04052734375,0.0396728515625,1.00628662109375,30.719999313354492,0.0,49.0,-0.13427734375,-5.2712860107421875,Waiting,0.0,0.0,0.0,0.0,0.0,0.0,0.0,0.0,
1.6096469999999972,0.0,0.0,18966.0,0.875,30.0,311.71875,0.0,1.5,0.668945244,0.01,0.0,-6773.0,1.0,0.0,311.71875,0.0,1.125,3.140868819,2.481885,0.0,44778.0,0.375,150.0,311.71875,0.0,0.75,3.3764644980000003,0.01,0.0,114.0,0.75,7.5,-311.71875,0.0,1.0,1.6870115460000001,0.01,0.0,1.1200000047683716,-0.41999998688697815,0.12999999523162842,0.02215576171875,-0.033203125,1.10498046875,30.719999313354492,0.0,30.0,-0.1339874267578125,-5.2678985595703125,Waiting,0.0,0.0,0.0,0.0,0.0,0.0,0.0,0.0,
1.6731659999999684,0.0,0.0,18966.0,1.375,-7.5,328.125,0.0,0.25,0.7922362470000001,0.01,0.0,-6773.0,1.375,37.5,328.125,0.0,0.25,3.0102535980000003,2.481885,0.0,44778.0,0.5,135.0,328.125,0.0,0.5,3.1652828790000003,0.01,0.0,114.0,1.625,-7.5,-328.125,0.0,0.25,1.6101072570000001,0.01,0.0,0.9200000166893005,-0.3100000023841858,0.23999999463558197,-0.00897216796875,0.0076904296875,1.02496337890625,30.709999084472656,0.0,-3.0,-0.1327667236328125,-5.265655517578125,Waiting,0.0,0.0,0.0,0.0,0.0,0.0,0.0,0.0,
1.7347540000000155,0.0,0.0,18971.0,2.0,7.5,344.53125,0.0,0.25,0.806884683,0.01,0.0,-6740.0,1.5,217.5,344.53125,0.0,0.0,2.9431149330000004,2.481885,0.0,44793.0,1.125,97.5,344.53125,0.0,0.0,3.1127926500000003,0.01,0.0,107.0,1.875,-45.0,-344.53125,0.0,0.125,1.6052244450000002,0.01,0.0,0.9700000286102295,-0.20000000298023224,0.23999999463558197,0.047607421875,-0.0146484375,1.029296875,30.709999084472656,0.0,51.0,-0.132476806640625,-5.264404296875,Waiting,0.0,0.0,0.0,0.0,0.0,0.0,0.0,0.0,
1.801871999999974,0.0,0.0,18971.0,2.375,82.5,360.9375,0.0,0.125,0.806884683,0.01,0.0,-6740.0,1.5,165.0,360.9375,0.0,0.0,2.927245794,2.481885,0.0,44793.0,1.5,112.5,360.9375,0.0,0.0,3.1628414730000003,0.01,0.0,107.0,2.125,-82.5,-360.9375,0.0,0.0,1.6064451480000002,0.01,0.0,0.9399999976158142,-0.1599999964237213,0.18000000715255737,0.02435302734375,-0.03875732421875,0.99639892578125,30.709999084472656,0.0,26.0,-0.1316986083984375,-5.2632904052734375,Waiting,0.0,0.0,0.0,0.0,0.0,0.0,0.0,0.0,
1.8679780000000028,0.0,0.0,18991.0,2.25,112.5,360.9375,0.0,0.125,0.806884683,0.01,0.0,-6724.0,2.75,105.0,360.9375,0.0,0.125,2.928466497,2.481885,0.0,44814.0,1.625,127.5,360.9375,0.0,0.0,3.187255533,0.01,0.0,87.0,2.125,-120.0,-360.9375,0.0,0.125,1.6052244450000002,0.01,0.0,0.9300000071525574,-0.019999999552965164,0.15000000596046448,0.08837890625,0.032470703125,1.00030517578125,30.709999084472656,0.0,88.0,-0.1300811767578125,-5.262420654296875,Waiting,0.0,0.0,0.0,0.0,0.0,0.0,0.0,0.0,
1.929679999999993,0.0,0.0,18991.0,2.625,142.5,360.9375,0.0,0.0,0.8056639800000001,0.01,0.0,-6724.0,2.875,157.5,360.9375,0.0,0.0,2.924804388,2.481885,0.0,44814.0,1.875,142.5,360.9375,0.0,0.0,3.2153317020000003,0.01,0.0,87.0,2.375,-157.5,-360.9375,0.0,0.125,1.6052244450000002,0.01,0.0,0.8999999761581421,0.23999999463558197,0.15000000596046448,0.11309814453125,0.03594970703125,0.95501708984375,30.709999084472656,0.0,109.0,-0.12603759765625,-5.2624359130859375,Waiting,0.0,0.0,0.0,0.0,0.0,0.0,0.0,0.0,
1.9913499999999766,0.0,0.0,19024.0,2.625,195.0,360.9375,0.0,0.125,0.806884683,0.01,0.0,-6692.0,2.875,210.0,360.9375,0.0,0.0,2.923583685,2.481885,0.0,44847.0,1.75,217.5,360.9375,0.0,0.0,3.243407871,0.01,0.0,55.0,2.25,-202.5,-360.9375,0.0,0.0,1.6052244450000002,0.01,0.0,0.9300000071525574,0.3700000047683716,0.05000000074505806,0.06512451171875,0.0384521484375,1.03131103515625,30.709999084472656,0.0,58.0,-0.1210784912109375,-5.2623138427734375,Waiting,0.0,0.0,0.0,0.0,0.0,0.0,0.0,0.0,
2.051348999999987,0.0,0.0,19024.0,2.5,247.5,360.9375,0.0,0.125,0.8044432770000001,0.01,0.0,-6692.0,2.75,255.0,360.9375,0.0,0.0,2.923583685,2.481885,0.0,44847.0,1.625,277.5,360.9375,0.0,0.0,3.237304356,0.01,0.0,55.0,2.25,-255.0,-360.9375,0.0,0.0,1.6040037420000002,0.01,0.0,0.9399999976158142,0.46000000834465027,0.05999999865889549,0.01806640625,0.01153564453125,0.9669189453125,30.709999084472656,0.0,10.0,-0.11962890625,-5.262298583984375,Waiting,0.0,0.0,0.0,0.0,0.0,0.0,0.0,0.0,
2.112545999999973,0.0,0.0,19072.0,2.25,292.5,360.9375,0.0,0.0,0.806884683,0.01,0.0,-6645.0,2.5,292.5,360.9375,0.0,0.0,2.924804388,2.481885,0.0,44895.0,1.5,307.5,360.9375,0.0,0.0,3.240966465,0.01,0.0,10.0,2.125,-292.5,-360.9375,0.0,0.125,1.6052244450000002,0.01,0.0,0.9599999785423279,0.5,0.009999999776482582,0.08697509765625,0.0626220703125,0.9593505859375,30.709999084472656,0.0,78.0,-0.119171142578125,-5.2623443603515625,Waiting,0.0,0.0,0.0,0.0,0.0,0.0,0.0,0.0,
2.175603000000003,0.0,0.0,19072.0,2.125,337.5,360.9375,0.0,0.0,0.806884683,0.01,0.0,-6645.0,2.125,322.5,360.9375,0.0,0.0,2.926025091,2.481885,0.0,44895.0,1.375,345.0,360.9375,0.0,0.0,3.236083653,0.01,0.0,10.0,2.0,-322.5,-360.9375,0.0,0.125,1.6052244450000002,0.01,0.0,0.949999988079071,0.5799999833106995,-0.03999999910593033,-0.07427978515625,0.03277587890625,0.88677978515625,30.719999313354492,0.0,-83.0,-0.1177978515625,-5.262237548828125,Waiting,0.0,0.0,0.0,0.0,0.0,0.0,0.0,0.0,
2.23577999999997,0.0,0.0,19128.0,2.0,345.0,360.9375,0.0,0.125,0.806884683,0.01,0.0,-6589.0,2.125,352.5,360.9375,0.0,0.0,2.922362982,2.481885,0.0,44953.0,1.375,367.5,360.9375,0.0,0.0,3.236083653,0.01,0.0,-45.0,1.875,-352.5,-360.9375,0.0,0.125,1.6052244450000002,0.01,0.0,0.9900000095367432,0.5600000023841858,-0.029999999329447746,0.02581787109375,-0.00604248046875,0.9208984375,30.719999313354492,0.0,16.0,-0.116729736328125,-5.2621307373046875,Waiting,0.0,0.0,0.0,0.0,0.0,0.0,0.0,0.0,
2.2967189999999826,0.0,0.0,19128.0,1.75,375.0,360.9375,0.0,0.125,0.806884683,0.01,0.0,-6589.0,1.875,367.5,360.9375,0.0,0.0,2.923583685,2.481885,0.0,44953.0,0.875,375.0,360.9375,0.0,0.0,3.233642247,0.01,0.0,-45.0,1.875,-352.5,-360.9375,0.0,0.125,1.6040037420000002,0.01,0.0,0.9800000190734863,0.550000011920929,-0.10999999940395355,-0.00347900390625,-0.0057373046875,0.9744873046875,30.719999313354492,0.0,-12.0,-0.1158599853515625,-5.2622222900390625,Waiting,0.0,0.0,0.0,0.0,0.0,0.0,0.0,0.0,
2.358604999999981,0.0,0.0,19189.0,1.75,382.5,360.9375,0.0,0.125,0.806884683,0.01,0.0,-6528.0,1.75,382.5,360.9375,0.0,0.0,2.922362982,2.481885,0.0,45018.0,0.875,405.0,360.9375,0.0,0.0,3.236083653,0.01,0.0,-105.0,1.625,-375.0,-360.9375,0.0,0.125,1.6040037420000002,0.01,0.0,0.9300000071525574,0.4399999976158142,-0.15000000596046448,0.0152587890625,0.03839111328125,1.03424072265625,30.719999313354492,0.0,7.0,-0.1159210205078125,-5.2624664306640625,Waiting,0.0,0.0,0.0,0.0,0.0,0.0,0.0,0.0,
2.4297359999999752,0.0,0.0,19189.0,1.625,382.5,360.9375,0.0,0.125,0.806884683,0.01,0.0,-6528.0,1.625,390.0,360.9375,0.0,0.0,2.922362982,2.481885,0.0,45083.0,0.75,397.5,360.9375,0.0,0.0,3.242187168,0.01,0.0,-165.0,1.625,-382.5,-360.9375,0.0,0.125,1.6040037420000002,0.01,0.0,0.949999988079071,0.38999998569488525,-0.23000000417232513,-0.02117919921875,0.04608154296875,1.00335693359375,30.719999313354492,0.0,-28.0,-0.1160888671875,-5.2622833251953125,Waiting,0.0,0.0,0.0,0.0,0.0,0.0,0.0,0.0,
2.493694000000018,0.0,0.0,19254.0,1.625,397.5,360.9375,0.0,0.125,0.806884683,0.01,0.0,-6466.0,1.5,382.5,360.9375,0.0,0.0,2.923583685,2.481885,0.0,45083.0,0.75,412.5,360.9375,0.0,0.0,3.240966465,0.01,0.0,-165.0,1.375,-382.5,-360.9375,0.0,0.125,1.6052244450000002,0.01,0.0,0.9399999976158142,0.3400000035762787,-0.3400000035762787,-0.0081787109375,0.06396484375,1.07672119140625,30.719999313354492,0.0,-14.0,-0.1163330078125,-5.2622833251953125,Waiting,0.0,0.0,0.0,0.0,0.0,0.0,0.0,0.0,
2.5599519999999902,0.0,0.0,19315.0,1.5,382.5,360.9375,0.0,0.125,0.806884683,0.01,0.0,-6403.0,1.5,390.0,360.9375,0.0,0.0,2.923583685,2.481885,0.0,45146.0,0.75,397.5,360.9375,0.0,0.0,3.236083653,0.01,0.0,-226.0,1.375,-382.5,-360.9375,0.0,0.125,1.6052244450000002,0.01,0.0,0.9300000071525574,0.2800000011920929,-0.3499999940395355,0.05767822265625,0.0933837890625,0.91571044921875,30.719999313354492,0.0,52.0,-0.11688232421875,-5.2624969482421875,Waiting,0.0,0.0,0.0,0.0,0.0,0.0,0.0,0.0,
2.6308829999999723,0.0,0.0,19315.0,1.625,390.0,393.75,0.0,0.125,0.806884683,0.01,0.0,-6403.0,1.375,382.5,393.75,0.0,0.0,2.924804388,2.481885,0.0,45146.0,0.75,382.5,393.75,0.0,0.0,3.236083653,0.01,0.0,-226.0,1.625,-367.5,-393.75,0.0,0.0,1.6052244450000002,0.01,0.0,0.9700000286102295,0.27000001072883606,-0.4699999988079071,-0.0013427734375,-0.004638671875,0.98358154296875,30.719999313354492,0.0,-49.0,-0.1167755126953125,-5.2625274658203125,Waiting,0.0,0.0,0.0,0.0,0.0,0.0,0.0,0.0,
2.692989000000001,0.0,0.0,19378.0,1.75,390.0,426.5625,0.0,0.125,0.806884683,0.01,0.0,-6342.0,1.75,375.0,426.5625,0.0,0.0,2.923583685,2.481885,0.0,45210.0,0.875,390.0,426.5625,0.0,0.0,3.237304356,0.01,0.0,-286.0,2.0,-367.5,-426.5625,0.0,0.125,1.600341633,0.01,0.0,0.9900000095367432,0.25,-0.5299999713897705,0.02923583984375,0.01336669921875,1.0076904296875,30.729999542236328,0.0,24.0,-0.1172332763671875,-5.2624359130859375,Waiting,0.0,0.0,0.0,0.0,0.0,0.0,0.0,0.0,
2.754855999999971,0.0,0.0,19378.0,2.0,397.5,508.59375,0.0,0.125,0.8154296040000001,0.01,0.0,-6342.0,2.25,382.5,508.59375,0.0,0.0,2.924804388,2.481885,0.0,45210.0,1.125,390.0,508.59375,0.0,0.0,3.236083653,0.01,0.0,-286.0,2.375,-367.5,-508.59375,0.0,0.125,1.6052244450000002,0.01,0.0,0.9900000095367432,0.2800000011920929,-0.6200000047683716,0.01702880859375,0.09539794921875,0.9730224609375,30.729999542236328,0.0,11.0,-0.117584228515625,-5.262237548828125,Waiting,0.0,0.0,0.0,0.0,0.0,0.0,0.0,0.0,
2.822267999999982,0.0,0.0,19445.0,2.625,412.5,590.625,0.0,0.0,0.806884683,0.01,0.0,-6277.0,3.25,412.5,590.625,0.0,0.0,2.924804388,2.481885,0.0,45276.0,1.875,420.0,590.625,0.0,0.0,3.236083653,0.01,0.0,-349.0,3.0,-397.5,-590.625,0.0,0.0,1.6040037420000002,0.01,0.0,0.9900000095367432,0.4000000059604645,-0.699999988079071,0.02606201171875,0.04632568359375,1.03521728515625,30.729999542236328,0.0,18.0,-0.1171112060546875,-5.2621307373046875,Waiting,0.0,0.0,0.0,0.0,0.0,0.0,0.0,0.0,
2.89141399999999,0.0,0.0,19445.0,2.875,457.5,607.03125,0.0,0.125,0.806884683,0.01,0.0,-6277.0,3.125,457.5,607.03125,0.0,0.0,2.924804388,2.481885,0.0,45276.0,2.0,442.5,607.03125,0.0,0.0,3.240966465,0.01,0.0,-349.0,3.25,-427.5,-607.03125,0.0,0.125,1.6052244450000002,0.01,0.0,0.9900000095367432,0.46000000834465027,-0.8199999928474426,0.05126953125,0.05169677734375,1.06005859375,30.729999542236328,0.0,42.0,-0.11578369140625,-5.261962890625,Waiting,0.0,0.0,0.0,0.0,0.0,0.0,0.0,0.0,
2.954918000000005,0.0,0.0,19523.0,2.875,495.0,607.03125,0.0,0.125,0.806884683,0.01,0.0,-6200.0,3.375,487.5,607.03125,0.0,0.0,2.924804388,2.481885,0.0,45352.0,2.0,480.0,607.03125,0.0,0.0,3.237304356,0.01,0.0,-422.0,3.25,-465.0,-607.03125,0.0,0.0,1.6052244450000002,0.01,0.0,0.8799999952316284,0.5,-0.9300000071525574,0.04473876953125,-0.0146484375,0.94622802734375,30.729999542236328,0.0,36.0,-0.1139068603515625,-5.2621002197265625,Waiting,0.0,0.0,0.0,0.0,0.0,0.0,0.0,0.0,
3.0216749999999886,0.0,0.0,19523.0,2.875,532.5,623.4375,0.0,0.125,0.806884683,0.01,0.0,-6200.0,3.25,525.0,623.4375,0.0,0.0,2.924804388,2.481885,0.0,45352.0,2.0,510.0,623.4375,0.0,0.0,3.236083653,0.01,0.0,-422.0,3.375,-502.5,-623.4375,0.0,0.125,1.6052244450000002,0.01,0.0,0.8799999952316284,0.5199999809265137,-1.0299999713897705,0.07904052734375,0.103271484375,0.86236572265625,30.729999542236328,0.0,69.0,-0.1120452880859375,-5.2620086669921875,Waiting,0.0,0.0,0.0,0.0,0.0,0.0,0.0,0.0,
3.090381999999983,0.0,0.0,19612.0,2.75,562.5,623.4375,0.0,0.125,0.806884683,0.01,0.0,-6111.0,3.25,562.5,623.4375,0.0,0.0,2.923583685,2.481885,0.0,45438.0,2.0,555.0,623.4375,0.0,0.0,3.238525059,0.01,0.0,-506.0,3.375,-547.5,-623.4375,0.0,0.125,1.6040037420000002,0.01,0.0,0.8899999856948853,0.6299999952316284,-1.090000033378601,-0.04351806640625,-0.00177001953125,0.9522705078125,30.729999542236328,0.0,-53.0,-0.1099395751953125,-5.2615509033203125,Waiting,0.0,0.0,0.0,0.0,0.0,0.0,0.0,0.0,
3.153826000000001,0.0,0.0,19612.0,2.625,600.0,623.4375,0.0,0.125,0.806884683,0.01,0.0,-6012.0,2.75,600.0,623.4375,0.0,0.0,2.924804388,2.481885,0.0,45535.0,1.75,585.0,623.4375,0.0,0.0,3.236083653,0.01,0.0,-599.0,3.125,-562.5,-623.4375,0.0,0.0,1.6040037420000002,0.01,0.0,0.8899999856948853,0.5699999928474426,-1.2200000286102295,0.10516357421875,-0.11895751953125,0.96044921875,30.729999542236328,0.0,98.0,-0.1094970703125,-5.261444091796875,Waiting,0.0,0.0,0.0,0.0,0.0,0.0,0.0,0.0,
3.2166869999999763,0.0,0.0,19713.0,2.25,637.5,623.4375,0.0,0.125,0.808105386,0.01,0.0,-6012.0,2.625,622.5,623.4375,0.0,0.0,2.924804388,2.481885,0.0,45535.0,1.5,615.0,623.4375,0.0,0.0,3.236083653,0.01,0.0,-599.0,3.0,-592.5,-623.4375,0.0,0.0,1.6052244450000002,0.01,0.0,0.8899999856948853,0.6399999856948853,-1.340000033378601,-0.0504150390625,0.0035400390625,0.93389892578125,30.719999313354492,0.0,-60.0,-0.109100341796875,-5.261871337890625,Waiting,0.0,0.0,0.0,0.0,0.0,0.0,0.0,0.0,
3.2873570000000183,0.0,0.0,19818.0,2.125,652.5,623.4375,0.0,0.125,0.806884683,0.01,0.0,-5907.0,2.375,645.0,623.4375,0.0,0.0,2.923583685,2.481885,0.0,45637.0,1.375,630.0,623.4375,0.0,0.0,3.236083653,0.01,0.0,-697.0,3.0,-615.0,-623.4375,0.0,0.0,1.6040037420000002,0.01,0.0,0.9100000262260437,0.6499999761581421,-1.4800000190734863,0.0150146484375,-0.05047607421875,1.064208984375,30.719999313354492,0.0,4.0,-0.109222412109375,-5.2615814208984375,Waiting,0.0,0.0,0.0,0.0,0.0,0.0,0.0,0.0,
3.3558619999999646,0.0,0.0,19818.0,2.0,652.5,623.4375,0.0,0.125,0.806884683,0.01,0.0,-5907.0,2.375,645.0,623.4375,0.0,0.0,2.923583685,2.481885,0.0,45637.0,1.375,637.5,623.4375,0.0,0.0,3.236083653,0.01,0.0,-697.0,2.75,-630.0,-623.4375,0.0,0.0,1.6052244450000002,0.01,0.0,0.9100000262260437,0.5699999928474426,-1.5800000429153442,0.0675048828125,0.16375732421875,1.0242919921875,30.719999313354492,0.0,53.0,-0.1089630126953125,-5.2615509033203125,Waiting,0.0,0.0,0.0,0.0,0.0,0.0,0.0,0.0,
3.4183549999999814,0.0,0.0,19923.0,2.125,652.5,623.4375,0.0,0.0,0.811767495,0.01,0.0,-5802.0,2.125,652.5,623.4375,0.0,0.0,2.923583685,2.481885,0.0,45743.0,1.125,652.5,623.4375,0.0,0.0,3.240966465,0.01,0.0,-800.0,2.75,-637.5,-623.4375,0.0,0.0,1.6052244450000002,0.01,0.0,0.9100000262260437,0.550000011920929,-1.659999966621399,0.033203125,0.05584716796875,0.86627197265625,30.719999313354492,0.0,23.0,-0.10772705078125,-5.2608184814453125,Waiting,0.0,0.0,0.0,0.0,0.0,0.0,0.0,0.0,
3.4908209999999964,0.0,0.0,19923.0,2.0,652.5,623.4375,0.0,0.125,0.8044432770000001,0.01,0.0,-5802.0,2.0,667.5,623.4375,0.0,0.0,2.924804388,2.481885,0.0,45743.0,0.875,660.0,623.4375,0.0,0.0,3.23486295,0.01,0.0,-800.0,2.75,-630.0,-623.4375,0.0,0.0,1.596679524,0.01,0.0,0.8700000047683716,0.5,-1.7200000286102295,0.0074462890625,0.02972412109375,0.89630126953125,30.719999313354492,0.0,0.0,-0.1058807373046875,-5.2584228515625,Waiting,0.0,0.0,0.0,0.0,0.0,0.0,0.0,0.0,
3.554558000000019,0.0,0.0,20029.0,1.875,667.5,623.4375,0.0,0.125,0.806884683,0.01,0.0,-5696.0,1.875,667.5,623.4375,0.0,0.0,2.923583685,2.481885,0.0,45850.0,0.875,660.0,623.4375,0.0,0.0,3.240966465,0.01,0.0,-902.0,2.75,-637.5,-623.4375,0.0,0.0,1.6052244450000002,0.01,0.0,0.8799999952316284,0.4699999988079071,-1.840000033378601,-0.006591796875,-0.0042724609375,1.0997314453125,30.719999313354492,0.0,-14.0,-0.10455322265625,-5.2555999755859375,Waiting,0.0,0.0,0.0,0.0,0.0,0.0,0.0,0.0,
3.6181030000000027,0.0,0.0,20029.0,1.875,667.5,623.4375,0.0,0.125,0.808105386,0.01,0.0,-5696.0,1.875,660.0,623.4375,0.0,0.0,2.923583685,2.481885,0.0,45850.0,0.75,660.0,623.4375,0.0,0.0,3.240966465,0.01,0.0,-902.0,2.625,-637.5,-623.4375,0.0,0.0,1.6052244450000002,0.01,0.0,0.8899999856948853,0.3400000035762787,-1.9900000095367432,0.04791259765625,-0.06396484375,1.14727783203125,30.719999313354492,0.0,43.0,-0.1047210693359375,-5.25201416015625,Waiting,0.0,0.0,0.0,0.0,0.0,0.0,0.0,0.0,
3.6894759999999662,0.0,0.0,20138.0,1.625,675.0,623.4375,0.0,0.125,0.806884683,0.01,0.0,-5592.0,1.875,645.0,623.4375,0.0,0.0,2.924804388,2.481885,0.0,45957.0,0.75,675.0,623.4375,0.0,0.0,3.240966465,0.01,0.0,-1005.0,2.625,-645.0,-623.4375,0.0,0.125,1.6040037420000002,0.01,0.0,0.9200000166893005,0.36000001430511475,-2.140000104904175,-0.0323486328125,-0.0445556640625,0.9925537109375,30.719999313354492,0.0,-36.0,-0.105224609375,-5.2476043701171875,Waiting,0.0,0.0,0.0,0.0,0.0,0.0,0.0,0.0,
3.7526749999999884,0.0,0.0,20138.0,1.5,675.0,623.4375,0.0,0.125,0.806884683,0.01,0.0,-5486.0,1.75,652.5,623.4375,0.0,0.0,2.923583685,2.481885,0.0,46065.0,0.75,675.0,623.4375,0.0,0.0,3.240966465,0.01,0.0,-1110.0,2.5,-652.5,-623.4375,0.0,0.125,1.6052244450000002,0.01,0.0,0.949999988079071,0.3100000023841858,-2.2200000286102295,-0.03656005859375,0.0010986328125,1.12799072265625,30.719999313354492,0.0,-42.0,-0.10540771484375,-5.2447357177734375,Waiting,0.0,0.0,0.0,0.0,0.0,0.0,0.0,0.0,
3.815910999999964,0.0,0.0,20246.0,1.25,667.5,623.4375,0.0,0.25,0.806884683,4.901835451774687,0.0,-5486.0,1.75,652.5,623.4375,0.0,0.0,2.924804388,2.451275084605515,0.0,46065.0,0.75,667.5,623.4375,0.0,0.125,3.239745762,4.909934199607372,0.0,-1110.0,2.5,-652.5,-623.4375,0.0,0.25,1.6052244450000002,4.92742566627264,0.0,0.949999988079071,0.20000000298023224,-2.3299999237060547,-0.0052490234375,-7.9345703125E-4,0.94757080078125,30.719999313354492,0.0,-7.0,-0.1064605712890625,-5.24151611328125,Waiting,0.0,0.0,0.0,0.0,0.0,0.0,0.0,0.0,
3.8879859999999753,0.0,0.0,20352.0,1.25,660.0,623.4375,0.0,0.25,0.806884683,4.9003283765175025,0.0,-5381.0,1.5,652.5,623.4375,0.0,0.0,2.923583685,2.44975837855196,0.0,46170.0,0.75,660.0,623.4375,0.0,0.125,3.240966465,4.90842463438034,0.0,-1215.0,2.5,-652.5,-623.4375,0.0,0.25,1.6052244450000002,4.92591072327296,0.0,1.0,0.10999999940395355,-2.4200000762939453,-0.0325927734375,-0.071533203125,0.89501953125,30.719999313354492,0.0,-30.0,-0.1081085205078125,-5.239471435546875,Waiting,0.0,0.0,0.0,0.0,0.0,0.0,0.0,0.0,
3.9490690000000175,0.0,0.0,20352.0,1.5,645.0,623.4374999999999,0.0,0.125,0.806884683,4.899095311676942,0.0,-5381.0,1.625,645.0,623.4374999999999,0.0,0.0,2.922362982,2.44851743394804,0.0,46170.0,0.5,652.5,623.4374999999999,0.0,0.125,3.238525059,4.907189532286326,0.0,-1215.0,2.5,-652.5,-623.4374999999999,0.0,0.125,1.59912093,4.924671221171485,0.0,1.0299999713897705,0.0,-2.490000009536743,0.0281982421875,0.01763916015625,1.0533447265625,30.719999313354492,0.0,28.0,-0.110565185546875,-5.2372894287109375,Waiting,0.0,0.0,0.0,0.0,0.0,0.0,0.0,0.0,
4.012766999999992,0.0,0.0,20455.0,1.25,645.0,623.4375,0.0,0.25,0.806884683,4.898136263786006,0.0,-5280.0,1.75,637.5,623.4375,0.0,0.0,2.924804388,2.447552257368505,0.0,46274.0,0.75,645.0,623.4375,0.0,0.125,3.242187168,4.906228899869125,0.0,-1319.0,2.25,-645.0,-623.4375,0.0,0.125,1.6015623360000002,4.9237071665353245,0.0,1.0199999809265137,0.0,-2.5799999237060547,-0.05035400390625,-0.024169921875,0.98590087890625,30.719999313354492,0.0,-48.0,-0.1126861572265625,-5.2349395751953125,Waiting,0.0,0.0,0.0,0.0,0.0,0.0,0.0,0.0,
4.080162000000011,0.0,0.0,20455.0,1.25,645.0,623.4375,0.0,0.125,0.806884683,4.896903202211947,0.0,-5280.0,1.75,630.0,623.4375,0.0,0.0,2.923583685,2.44631131605196,0.0,46274.0,0.5,645.0,623.4375,0.0,0.125,3.242187168,4.9049938010470076,0.0,-1319.0,2.5,-630.0,-623.4375,0.0,0.125,1.600341633,4.922467667717404,0.0,0.9800000190734863,-0.10000000149011612,-2.690000057220459,-0.0252685546875,0.03948974609375,0.8663330078125,30.719999313354492,0.0,-24.0,-0.1158905029296875,-5.2322998046875,Waiting,0.0,0.0,0.0,0.0,0.0,0.0,0.0,0.0,
4.144347999999998,0.0,0.0,20557.0,1.25,637.5,623.4375,0.0,0.25,0.808105386,4.895396123688262,0.0,-5178.0,1.75,630.0,623.4375,0.0,0.0,2.923583685,2.44479460671103,0.0,46376.0,0.5,637.5,623.4375,0.0,0.125,3.240966465,4.903484232548078,0.0,-1418.0,2.5,-622.5,-623.4375,0.0,0.125,1.59912093,4.920952721434169,0.0,0.9800000190734863,-0.17000000178813934,-2.8399999141693115,0.00518798828125,0.03424072265625,0.8505859375,30.719999313354492,0.0,6.0,-0.1201934814453125,-5.22930908203125,Waiting,0.0,0.0,0.0,0.0,0.0,0.0,0.0,0.0,
4.210287000000011,0.0,0.0,20557.0,1.25,637.5,623.4375,0.0,0.125,0.806884683,4.893341021064829,0.0,-5178.0,1.875,622.5,623.4375,0.0,0.0,2.924804388,2.442726371183455,0.0,46376.0,0.5,630.0,623.4375,0.0,0.125,3.231200841,4.901425734511217,0.0,-1418.0,2.625,-622.5,-623.4375,0.0,0.125,1.595458821,4.918886890070969,0.0,1.0099999904632568,-0.2199999988079071,-3.0299999713897705,-0.05975341796875,-0.033203125,0.95233154296875,30.739999771118164,0.0,-53.0,-0.1203765869140625,-5.2255859375,Waiting,0.0,0.0,0.0,0.0,0.0,0.0,0.0,0.0,
4.275622999999963,0.0,0.0,20659.0,1.25,630.0,623.4375,0.0,0.125,0.8056639800000001,4.890737887808647,0.0,-5079.0,1.875,607.5,623.4375,0.0,0.0,2.919921576,2.440106602894485,0.0,46478.0,0.75,630.0,623.4375,0.0,0.125,3.240966465,4.898818300392628,0.0,-1518.0,2.5,-622.5,-623.4375,0.0,0.125,1.594238118,4.916270167060693,0.0,1.0199999809265137,-0.2800000011920929,-3.1600000858306885,-0.010986328125,-0.00482177734375,0.887451171875,30.739999771118164,0.0,-5.0,-0.12042236328125,-5.2230377197265625,Waiting,0.0,0.0,0.0,0.0,0.0,0.0,0.0,0.0,
4.338392999999982,0.0,0.0,20659.0,1.25,630.0,623.4375,0.0,0.125,0.806884683,4.888408768235589,0.0,-5079.0,2.0,600.0,623.4375,0.0,0.0,2.924804388,2.437762599342525,0.0,46478.0,0.5,630.0,623.4375,0.0,0.125,3.240966465,4.896485332678954,0.0,-1518.0,2.625,-615.0,-623.4375,0.0,0.125,1.594238118,4.913928888232178,0.0,0.9900000095367432,-0.36000001430511475,-3.2899999618530273,0.00860595703125,-0.0345458984375,1.00482177734375,30.739999771118164,0.0,18.0,-0.12091064453125,-5.220794677734375,Waiting,0.0,0.0,0.0,0.0,0.0,0.0,0.0,0.0,
4.401914999999979,0.0,0.0,20762.0,1.25,637.5,623.4375,0.0,0.125,0.811767495,4.887175706661529,0.0,-4983.0,2.125,600.0,623.4375,0.0,0.0,2.924804388,2.43652165802598,0.0,46579.0,0.5,630.0,623.4375,0.0,0.125,3.240966465,4.895250233856837,0.0,-1615.0,2.625,-600.0,-623.4375,0.0,0.125,1.595458821,4.912689389414258,0.0,1.0399999618530273,-0.3799999952316284,-3.4200000762939453,-0.00360107421875,-0.0087890625,1.04644775390625,30.739999771118164,0.0,5.0,-0.121826171875,-5.2189178466796875,Waiting,0.0,0.0,0.0,0.0,0.0,0.0,0.0,0.0,
4.463712999999989,0.0,0.0,20762.0,1.25,630.0,623.4375,0.0,0.125,0.811767495,4.88539461445472,0.0,-4983.0,2.0,615.0,623.4375,0.0,0.0,2.923583685,2.43472918394804,0.0,46579.0,0.75,622.5,623.4375,0.0,0.0,3.239745762,4.893466198952993,0.0,-1615.0,2.75,-607.5,-623.4375,0.0,0.125,1.595458821,4.910898998949262,0.0,1.0199999809265137,-0.3799999952316284,-3.4800000190734863,-0.00885009765625,0.02923583984375,1.14605712890625,30.739999771118164,0.0,-1.0,-0.1226043701171875,-5.217071533203125,Waiting,0.0,0.0,0.0,0.0,0.0,0.0,0.0,0.0,
4.5282689999999715,0.0,0.0,20862.0,1.5,622.5,656.9224390075557,0.0,0.25,0.806884683,4.705183522166556,0.0,-4884.0,2.0,622.5,656.9224390075557,0.0,0.25,2.8906247040000004,2.253366472770686,0.0,46678.0,0.75,615.0,656.9224390075557,0.0,0.0,3.240966465,4.712957364276809,0.0,-1713.0,2.875,-607.5,-656.9224390075557,0.0,0.125,1.594238118,4.72974710794357,0.0,1.0,-0.46000000834465027,-3.5999999046325684,-0.035400390625,0.04119873046875,1.07769775390625,30.739999771118164,0.0,-27.0,-0.1236724853515625,-5.215087890625,Waiting,0.0,0.0,0.0,0.0,0.0,0.0,0.0,0.0,
4.589512999999977,0.0,0.0,20862.0,1.625,622.5,696.8144081685078,0.0,0.25,0.706787037,4.6752092923062465,0.0,-4884.0,2.375,615.0,696.8144081685078,0.0,0.25,2.829589554,2.223200695937002,0.0,46678.0,0.875,615.0,696.8144081685078,0.0,0.25,3.177489909,4.682933611389562,0.0,-1713.0,3.125,-615.0,-696.8144081685078,0.0,0.25,1.518554532,4.699616396500172,0.0,0.9800000190734863,-0.4399999976158142,-3.7300000190734863,-0.0064697265625,-0.13055419921875,1.22637939453125,30.739999771118164,0.0,12.0,-0.12506103515625,-5.213409423828125,Waiting,0.0,0.0,0.0,0.0,0.0,0.0,0.0,0.0,
4.650521000000008,0.0,0.0,20963.0,1.875,637.5,701.3123334975877,0.0,0.25,0.600585876,4.65597094366626,0.0,-4783.0,2.625,622.5,701.3123334975877,0.0,0.25,2.772216513,2.2038394067753777,0.0,46780.0,0.875,630.0,701.3123334975877,0.0,0.125,3.070068045,4.663663477403885,0.0,-1813.0,3.25,-622.5,-701.3123334975877,0.0,0.25,1.407470559,4.680277613344762,0.0,0.6499999761581421,-0.44999998807907104,-3.640000104904175,0.01446533203125,-0.09552001953125,1.11102294921875,30.739999771118164,0.0,30.0,-0.1252899169921875,-5.2144012451171875,Waiting,0.0,0.0,0.0,0.0,0.0,0.0,0.0,0.0,
4.710100999999966,0.0,0.0,20963.0,2.125,645.0,753.2008968795703,0.0,0.125,0.53710932,4.65518823949958,0.0,-4783.0,3.0,645.0,753.2008968795703,0.0,0.25,2.731933314,2.203051700825004,0.0,46780.0,1.125,645.0,753.2008968795703,0.0,0.125,3.0041500830000003,4.662879480063712,0.0,-1914.0,3.5,-630.0,-753.2008968795703,0.0,0.125,1.3427733000000002,4.679490823041835,0.0,0.36000001430511475,-0.44999998807907104,-3.5799999237060547,0.0347900390625,-0.0513916015625,0.9776611328125,30.739999771118164,0.0,46.0,-0.124786376953125,-5.217315673828125,Waiting,0.0,0.0,0.0,0.0,0.0,0.0,0.0,0.0,
4.770700000000011,0.0,0.0,21070.0,2.125,667.5,758.0857091428214,0.0,0.125,0.513915963,4.63959890128488,0.0,-4679.0,3.375,660.0,758.0857091428214,0.0,0.25,2.701415739,2.187362740682875,0.0,46885.0,1.375,667.5,758.0857091428214,0.0,0.125,2.977294617,4.647264385350182,0.0,-1914.0,3.875,-652.5,-758.0857091428214,0.0,0.125,1.331786973,4.66382010010651,0.0,0.20000000298023224,-0.3199999928474426,-3.5999999046325684,0.07659912109375,-0.00555419921875,0.902587890625,30.75,0.0,82.0,-0.123260498046875,-5.2216644287109375,Waiting,0.0,0.0,0.0,0.0,0.0,0.0,0.0,0.0,
4.834969999999972,0.0,0.0,21184.0,2.375,690.0,810.0032084817362,0.0,0.125,0.509033151,4.638631270612582,0.0,-4565.0,3.5,705.0,810.0032084817362,0.0,0.25,2.668456758,2.1863889264746694,0.0,46998.0,1.5,697.5,810.0032084817362,0.0,0.125,2.972411805,4.646295155971259,0.0,-2029.0,4.0,-697.5,-810.0032084817362,0.0,0.125,1.33056627,4.662847417882257,0.0,0.18000000715255737,-0.20999999344348907,-3.5999999046325684,0.01568603515625,0.01910400390625,1.087646484375,30.75,0.0,18.0,-0.119171142578125,-5.222076416015625,Waiting,0.0,0.0,0.0,0.0,0.0,0.0,0.0,0.0,
4.907485999999976,0.0,0.0,21184.0,2.5,720.0,830.7538200151786,0.0,0.125,0.5041503390000001,4.6285039903282374,0.0,-4565.0,3.5,742.5,830.7538200151786,0.0,0.25,2.658691134,2.176196928935002,0.0,46998.0,1.5,735.0,830.7538200151786,0.0,0.125,2.972411805,4.636151143528101,0.0,-2029.0,4.0,-750.0,-830.7538200151786,0.0,0.125,1.328124864,4.652667267754095,0.0,0.17000000178813934,-0.1599999964237213,-3.559999942779541,0.007080078125,0.02215576171875,1.214111328125,30.75,0.0,9.0,-0.1151885986328125,-5.22247314453125,Waiting,0.0,0.0,0.0,0.0,0.0,0.0,0.0,0.0,
4.968728000000003,0.0,0.0,21309.0,2.375,765.0,830.7538200151787,0.0,0.125,0.509033151,4.629052017694486,0.0,-4437.0,3.25,772.5,830.7538200151787,0.0,0.0,2.658691134,2.176748458409022,0.0,47125.0,1.375,765.0,830.7538200151787,0.0,0.125,2.973632508,4.636700076337931,0.0,-2155.0,3.75,-787.5,-830.7538200151787,0.0,0.125,1.331786973,4.653218156117615,0.0,0.12999999523162842,-0.11999999731779099,-3.509999990463257,0.011962890625,0.001220703125,1.08154296875,30.75,0.0,14.0,-0.111907958984375,-5.2231903076171875,Waiting,0.0,0.0,0.0,0.0,0.0,0.0,0.0,0.0,
5.032360999999975,0.0,0.0,21309.0,2.25,795.0,836.1667196499471,0.0,0.125,0.507812448,4.615295009184251,0.0,-4437.0,2.875,817.5,836.1667196499471,0.0,0.0,2.659911837,2.1629035372700036,0.0,47125.0,1.125,810.0,836.1667196499471,0.0,0.125,2.968749696,4.622920338679819,0.0,-2155.0,3.5,-817.5,-836.1667196499471,0.0,0.125,1.33056627,4.6393893286322045,0.0,0.12999999523162842,-0.09000000357627869,-3.440000057220459,0.07708740234375,0.08477783203125,1.07855224609375,30.75,0.0,73.0,-0.111968994140625,-5.223663330078125,Waiting,0.0,0.0,0.0,0.0,0.0,0.0,0.0,0.0,
5.09294299999997,0.0,0.0,21439.0,2.25,802.5,836.166719649947,0.0,0.125,0.509033151,4.615980043392063,0.0,-4300.0,2.625,847.5,836.166719649947,0.0,0.0,2.653808322,2.1635929491125285,0.0,47256.0,1.125,817.5,836.166719649947,0.0,0.125,2.973632508,4.623606504692106,0.0,-2292.0,3.375,-840.0,-836.166719649947,0.0,0.125,1.331786973,4.640077939086605,0.0,0.1599999964237213,0.019999999552965164,-3.3499999046325684,0.04327392578125,-0.03973388671875,0.87811279296875,30.75,0.0,45.0,-0.1116943359375,-5.2235565185546875,Waiting,0.0,0.0,0.0,0.0,0.0,0.0,0.0,0.0,
5.152200000000011,0.0,0.0,21439.0,2.25,817.5,851.6359502975528,0.0,0.125,0.5175780720000001,4.622296988097575,0.0,-4300.0,2.5,847.5,851.6359502975528,0.0,0.0,2.655029025,2.1699502615487525,0.0,47256.0,1.125,825.0,851.6359502975528,0.0,0.125,2.972411805,4.6299338861702815,0.0,-2292.0,3.125,-870.0,-851.6359502975528,0.0,0.125,1.328124864,4.646427861637166,0.0,0.20999999344348907,0.09000000357627869,-3.299999952316284,-0.01141357421875,-0.10186767578125,0.81256103515625,30.75,0.0,-6.0,-0.1112518310546875,-5.2231292724609375,Waiting,0.0,0.0,0.0,0.0,0.0,0.0,0.0,0.0,
5.212603000000003,0.0,0.0,21575.0,2.375,847.5,903.5543876575957,0.0,0.0,0.509033151,4.623535495426015,0.0,-4164.0,2.625,855.0,903.5543876575957,0.0,0.0,2.655029025,2.171196683420164,0.0,47392.0,1.125,840.0,903.5543876575957,0.0,0.125,2.972411805,4.631174439744183,0.0,-2430.0,3.25,-870.0,-903.5543876575957,0.0,0.125,1.333007676,4.6476728346392315,0.0,0.23999999463558197,0.05000000074505806,-3.240000009536743,-0.00482177734375,0.08245849609375,0.8829345703125,30.75,0.0,-10.0,-0.1114501953125,-5.2222442626953125,Waiting,0.0,0.0,0.0,0.0,0.0,0.0,0.0,0.0,
5.2751890000000135,0.0,0.0,21575.0,2.375,862.5,919.0608579179376,0.0,0.125,0.509033151,4.628973545612436,0.0,-4164.0,2.75,892.5,919.0608579179376,0.0,0.0,2.653808322,2.176669484859883,0.0,47392.0,1.375,862.5,919.0608579179376,0.0,0.125,2.973632508,4.636621474605343,0.0,-2430.0,3.5,-870.0,-919.0608579179376,0.0,0.125,1.339111191,4.653139274369138,0.0,0.27000001072883606,0.10000000149011612,-3.200000047683716,-0.0582275390625,-0.00921630859375,1.00927734375,30.729999542236328,0.0,-59.0,-0.111358642578125,-5.2211761474609375,Waiting,0.0,0.0,0.0,0.0,0.0,0.0,0.0,0.0,
5.355580000000017,0.0,0.0,21716.0,2.625,900.0,981.3793750351367,0.0,0.125,0.509033151,4.6465226123287415,0.0,-4018.0,2.875,907.5,981.3793750351367,0.0,0.0,2.655029025,2.19433069693007,0.0,47533.0,1.5,892.5,981.3793750351367,0.0,0.0,2.972411805,4.654199535658042,0.0,-2571.0,3.875,-900.0,-981.3793750351367,0.0,0.125,1.331786973,4.670779956641683,0.0,0.2800000011920929,0.14000000059604645,-3.130000114440918,0.04327392578125,-0.03289794921875,0.93853759765625,30.729999542236328,0.0,42.0,-0.1121826171875,-5.219757080078125,Waiting,0.0,0.0,0.0,0.0,0.0,0.0,0.0,0.0,
5.446051999999967,0.0,0.0,21866.0,2.625,937.5,997.0253042107522,0.0,0.125,0.507812448,4.651399272225596,0.0,-3868.0,3.125,930.0,997.0253042107522,0.0,0.0,2.655029025,2.1992385205781804,0.0,47683.0,1.5,930.0,997.0253042107522,0.0,0.0,2.973632508,4.65908425270801,0.0,-2721.0,3.875,-930.0,-997.0253042107522,0.0,0.125,1.331786973,4.675682075323114,0.0,0.20000000298023224,0.10000000149011612,-3.0399999618530273,0.00177001953125,0.11248779296875,1.161865234375,30.729999542236328,0.0,-6.0,-0.11273193359375,-5.220062255859375,Waiting,0.0,0.0,0.0,0.0,0.0,0.0,0.0,0.0,
5.550899999999965,0.0,0.0,22023.0,2.5,990.0,1012.6952981064222,0.0,0.125,0.509033151,4.656428802456486,0.0,-3712.0,3.0,975.0,1012.6952981064222,0.0,0.0,2.655029025,2.2043001914611473,0.0,47835.0,1.5,975.0,1012.6952981064222,0.0,0.0,2.973632508,4.664122092662361,0.0,-2880.0,3.5,-1005.0,-1012.6952981064222,0.0,0.125,1.331786973,4.680737862403851,0.0,0.17000000178813934,0.10999999940395355,-3.119999885559082,-0.0218505859375,0.060791015625,0.84246826171875,30.729999542236328,0.0,-26.0,-0.1120452880859375,-5.2196807861328125,Waiting,0.0,0.0,0.0,0.0,0.0,0.0,0.0,0.0,
5.712222000000009,0.0,0.0,22186.0,4.0,1027.5,1214.0625,0.0,0.25,0.6726073530000001,4.889367816126525,0.0,-3371.0,4.125,1087.5,1214.0625,0.0,0.25,2.679443085,2.43872777592206,0.0,48164.0,3.0,1035.0,1214.0625,0.0,0.125,3.133544601,4.897445965096156,0.0,-3211.0,5.5,-1057.5,-1214.0625,0.0,0.25,1.484374848,4.914892942868339,0.0,0.44999998807907104,0.3199999928474426,-3.069999933242798,0.1656494140625,0.02374267578125,1.19744873046875,30.729999542236328,0.0,157.0,-0.109161376953125,-5.2183990478515625,Waiting,0.0,0.0,0.0,0.0,0.0,0.0,0.0,0.0,
5.910246999999974,0.0,0.0,22533.0,10.75,1162.5,1657.0312500000002,0.0,0.125,0.839843664,4.89032686728396,0.0,-3175.0,9.25,1290.0,1657.0312500000002,0.0,0.5,2.7478024530000003,2.43969295578897,0.0,48337.0,8.625,1155.0,1657.0312500000002,0.0,0.0,3.231200841,4.898406600785256,0.0,-3396.0,11.375,-1230.0,-1657.0312500000002,0.0,0.125,1.667480298,4.915857000788053,0.0,1.1399999856948853,0.7200000286102295,-2.4700000286102295,0.11993408203125,0.0128173828125,1.31182861328125,30.729999542236328,0.0,103.0,-0.0964813232421875,-5.2003631591796875,Waiting,0.0,0.0,0.0,0.0,0.0,0.0,0.0,0.0,
6.1101259999999895,0.0,0.0,22725.0,11.5,1297.5,1657.03125,0.0,0.125,0.8300780400000001,4.899369325360067,0.0,-2727.0,9.0,1440.0,1657.03125,0.0,0.25,2.7478024530000003,2.44879319868505,0.0,48736.0,9.5,1290.0,1657.03125,0.0,0.0,3.231200841,4.907463998691241,0.0,-3826.0,11.125,-1387.5,-1657.03125,0.0,0.25,1.673583813,4.924946665353245,0.0,1.1699999570846558,1.2000000476837158,-1.6399999856948853,0.1431884765625,0.03375244140625,1.19915771484375,30.729999542236328,0.0,117.0,-0.079376220703125,-5.1813201904296875,Waiting,0.0,0.0,0.0,0.0,0.0,0.0,0.0,0.0,
6.226381999999983,0.0,0.0,22946.0,11.25,1447.5,1657.03125,0.0,0.125,0.806884683,4.909781856751546,0.0,-2475.0,8.125,1552.5,1657.03125,0.0,0.5,2.7380368290000003,2.4592722701972427,0.0,48952.0,10.5,1312.5,1657.03125,0.0,0.0,3.231200841,4.917893733529647,0.0,-4076.0,9.875,-1552.5,-1657.03125,0.0,0.25,1.6540525650000002,4.935413555752569,0.0,0.949999988079071,1.409999966621399,-0.6899999976158142,0.0609130859375,-0.04058837890625,1.041259765625,30.719999313354492,0.0,35.0,-0.0609130859375,-5.160430908203125,Waiting,0.0,0.0,0.0,0.0,0.0,0.0,0.0,0.0,
6.353899999999965,0.0,0.0,23184.0,9.625,1582.5,1657.0312500000002,0.0,0.0,0.795898356,4.924304595839766,0.0,-2475.0,7.0,1612.5,1657.0312500000002,0.0,0.5,2.777099325,2.4738878152301162,0.0,49198.0,11.0,1462.5,1657.0312500000002,0.0,0.0,3.231200841,4.9324404668957,0.0,-4337.0,9.625,-1605.0,-1657.0312500000002,0.0,0.125,1.643066238,4.95001211134096,0.0,0.5699999928474426,1.75,0.3499999940395355,0.02899169921875,0.39263916015625,0.10455322265625,30.719999313354492,0.0,28.0,-0.0393218994140625,-5.152740478515625,Waiting,0.0,0.0,0.0,0.0,0.0,0.0,0.0,0.0,
6.452960000000021,0.0,0.0,23460.0,9.125,1717.5,1793.6916434867119,0.0,0.25,0.8007811680000001,0.12735321198459976,0.0,-2205.0,6.625,1725.0,1793.6916434867119,0.0,0.25,2.818603227,2.610052048484109,0.0,49198.0,11.625,1552.5,1793.6916434867119,0.0,0.0,3.236083653,0.12756362328046902,0.0,-4337.0,9.625,-1680.0,-1793.6916434867119,0.0,0.125,1.649169753,0.1280180641698173,0.0,0.7799999713897705,2.6500000953674316,1.0299999713897705,0.32269287109375,-0.47216796875,-2.0,30.719999313354492,0.0,406.0,-0.024810791015625,-5.1559295654296875,Waiting,0.0,0.0,0.0,0.0,0.0,0.0,0.0,0.0,
6.531071999999986,0.0,0.0,23732.0,13.875,1725.0,2327.606905439576,0.0,0.25,0.845947179,0.5679771824467225,0.0,-1919.0,12.0,1807.5,2327.606905439576,0.0,2.625,3.0053707860000003,3.0534917772936874,0.0,49447.0,17.625,1575.0,2327.606905439576,0.0,1.5,3.433837539,0.5689155868506667,0.0,-4616.0,15.25,-1732.5,-2327.606905439576,0.0,0.75,1.6625974860000001,0.5709423284765617,0.0,0.7799999713897705,3.1600000858306885,1.4299999475479126,0.32659912109375,-0.87750244140625,-1.55743408203125,30.719999313354492,0.0,390.0,-0.0066986083984375,-5.1556854248046875,Waiting,0.0,0.0,0.0,0.0,0.0,0.0,0.0,0.0,
6.608246999999974,0.0,0.0,24007.0,10.875,1732.5,1724.6082690398491,0.0,2.25,1.3195799430000001,0.8719955828909661,0.0,-1632.0,7.375,1815.0,1724.6082690398491,0.0,1.25,3.562011354,3.359452973423634,0.0,49714.0,12.75,1657.5,1724.6082690398491,0.0,1.0,3.925780848,0.8734362824832981,0.0,-4917.0,7.5,-1882.5,-1724.6082690398491,0.0,1.5,2.2253415690000002,0.8765478683005812,0.0,3.069999933242798,1.5499999523162842,2.2699999809265137,-0.68035888671875,0.66485595703125,0.138671875,30.719999313354492,0.0,-657.0,0.0255279541015625,-5.1391143798828125,Waiting,0.0,0.0,0.0,0.0,0.0,0.0,0.0,0.0,
6.730717999999993,0.0,0.0,24207.0,0.0,1335.0,0.0,0.0,0.5,1.669921704,0.8719955828909661,0.0,-1436.0,0.0,1312.5,0.0,0.0,0.25,3.8500972620000002,3.359452973423634,0.0,49956.0,0.0,1590.0,0.0,0.0,0.0,4.265136282,0.8734362824832981,0.0,-5159.0,0.0,-1530.0,0.0,0.0,0.25,2.559814191,0.8765478683005812,0.0,4.340000152587891,-0.9599999785423279,3.130000114440918,-0.4295654296875,0.17413330078125,0.69775390625,30.709999084472656,0.0,-410.0,0.02581787109375,-5.0919036865234375,Waiting,0.0,0.0,0.0,0.0,0.0,0.0,0.0,0.0,
6.833358000000008,0.0,0.0,24207.0,0.0,1117.5,0.0,0.0,0.5,1.7944334100000001,0.8719955828909661,0.312499968,-1436.0,0.0,1087.5,0.0,0.0,0.25,3.8806148370000004,3.359452973423634,0.0,49956.0,0.0,1237.5,0.0,0.0,0.125,4.277343312,0.8734362824832981,0.3002929380000001,-5159.0,0.0,-1125.0,0.0,0.0,0.25,2.667236055,0.8765478683005812,0.30639645300000007,4.230000019073486,-2.200000047683716,3.3499999046325684,-0.2484130859375,-0.2197265625,0.6754150390625,30.709999084472656,0.0,-237.0,-7.01904296875E-4,-5.0561676025390625,Waiting,0.0,0.0,0.0,0.0,0.0,0.0,0.0,0.0,
6.895907999999996,0.0,0.0,24379.0,0.0,1102.5,0.0,0.0,0.125,1.828613094,0.8719955828909661,0.12695311200000003,-1267.0,0.0,1087.5,0.0,0.0,0.0,3.870849213,3.359452973423634,0.024414059999999793,50130.0,0.0,1117.5,0.0,0.0,0.125,4.2333980040000005,0.8734362824832981,0.01342773300000033,-5335.0,0.0,-1087.5,0.0,0.0,0.25,2.657470431,0.8765478683005812,0.10375975500000001,3.859999895095825,-2.5399999618530273,3.5899999141693115,-0.02587890625,-0.22344970703125,1.087890625,30.709999084472656,0.0,3.0,-0.0274658203125,-5.02935791015625,Waiting,0.0,0.0,0.0,0.0,0.0,0.0,0.0,0.0,
6.955485999999976,0.0,0.0,24379.0,0.0,967.5,0.0,0.0,0.25,1.805419737,0.8719955828909661,0.017089841999999855,-1267.0,0.0,997.5,0.0,0.0,0.0,3.870849213,3.359452973423634,-0.009765623999999917,50130.0,0.0,1005.0,0.0,0.0,0.125,4.152831606,0.8734362824832981,-0.043945308000000516,-5335.0,0.0,-1035.0,0.0,0.0,0.25,2.608642311,0.8765478683005812,-0.009765623999999917,3.2300000190734863,-2.549999952316284,3.8399999141693115,0.118896484375,-0.1544189453125,0.93359375,30.709999084472656,0.0,146.0,-0.055145263671875,-5.006744384765625,Waiting,0.0,0.0,0.0,0.0,0.0,0.0,0.0,0.0,
7.015939000000013,0.0,0.0,24517.0,0.0,870.0,0.0,0.0,0.25,1.746825993,0.8719955828909661,-0.029296871999999974,-1126.0,0.0,892.5,0.0,0.0,0.0,3.870849213,3.359452973423634,0.0,50266.0,0.0,855.0,0.0,0.0,0.125,4.108886298,0.8734362824832981,-0.08422850699999973,-5478.0,0.0,-907.5,0.0,0.0,0.125,2.5317380220000003,0.8765478683005812,-0.05004882300000002,2.630000114440918,-2.319999933242798,3.9200000762939453,0.11456298828125,-0.18328857421875,1.0277099609375,30.709999084472656,0.0,140.0,-0.081939697265625,-4.98883056640625,Waiting,0.0,0.0,0.0,0.0,0.0,0.0,0.0,0.0,
7.088539999999979,0.0,0.0,24517.0,0.0,787.5,0.0,0.0,0.25,1.694335764,0.8719955828909661,-0.06103514999999993,-1126.0,0.0,787.5,0.0,0.0,0.0,3.86962851,3.359452973423634,0.0,50266.0,0.0,757.5,0.0,0.0,0.0,4.108886298,0.8734362824832981,-0.04150390200000054,-5478.0,0.0,-727.5,0.0,0.0,0.125,2.4890134170000002,0.8765478683005812,0.0,2.0,-2.190000057220459,3.680000066757202,0.0240478515625,-0.16522216796875,1.04345703125,30.709999084472656,0.0,50.0,-0.11395263671875,-4.971893310546875,Waiting,0.0,0.0,0.0,0.0,0.0,0.0,0.0,0.0,
7.14925900000002,0.0,0.0,24631.0,0.0,712.5,0.0,0.0,0.125,1.665038892,0.8719955828909661,-0.05004882300000002,-1015.0,0.0,697.5,0.0,0.0,0.0,3.86962851,3.359452973423634,0.0,50373.0,0.0,675.0,0.0,0.0,0.0,4.124755437,0.8734362824832981,0.0,-5582.0,0.0,-615.0,0.0,0.0,0.125,2.4792477930000003,0.8765478683005812,-0.0402831990000001,1.649999976158142,-2.3399999141693115,3.5,-0.07293701171875,-0.033935546875,1.09130859375,30.709999084472656,0.0,-32.0,-0.120635986328125,-4.9611968994140625,Waiting,0.0,0.0,0.0,0.0,0.0,0.0,0.0,0.0,
7.209219999999972,0.0,0.0,24631.0,0.0,615.0,0.0,0.0,0.125,1.665038892,0.8719955828909661,-0.023193357000000026,-1015.0,0.0,592.5,0.0,0.0,0.0,3.870849213,3.359452973423634,0.0,50373.0,0.0,592.5,0.0,0.0,0.0,4.123534734000001,0.8734362824832981,0.014648436000000764,-5582.0,0.0,-555.0,0.0,0.0,0.125,2.419433346,0.8765478683005812,-0.010986326999999907,1.3300000429153442,-2.5299999713897705,3.2300000190734863,-0.0615234375,-0.19482421875,0.93017578125,30.709999084472656,0.0,-32.0,-0.121337890625,-4.9535980224609375,Waiting,0.0,0.0,0.0,0.0,0.0,0.0,0.0,0.0,
7.273141000000003,0.0,0.0,24712.0,0.0,502.5,0.0,0.0,0.125,1.665038892,0.8719955828909661,0.0,-936.0,0.0,450.0,0.0,0.0,0.25,3.859862886,3.359452973423634,0.0,50454.0,0.0,465.0,0.0,0.0,0.0,4.123534734000001,0.8734362824832981,0.0,-5657.0,0.0,-427.5,0.0,0.0,0.125,2.4243161580000003,0.8765478683005812,0.0,1.059999942779541,-2.609999895095825,3.190000057220459,-0.09814453125,-0.10284423828125,0.91546630859375,30.670000076293945,0.0,-62.0,-0.1223907470703125,-4.9494171142578125,Waiting,0.0,0.0,0.0,0.0,0.0,0.0,0.0,0.0,
7.341649999999965,0.0,0.0,24712.0,0.0,382.5,0.0,0.0,0.125,1.665038892,0.8719955828909661,0.0,-936.0,0.0,345.0,0.0,0.0,0.0,3.8513179650000002,3.359452973423634,0.0,50454.0,0.0,360.0,0.0,0.0,0.0,4.123534734000001,0.8734362824832981,0.0,-5657.0,0.0,-345.0,0.0,0.0,0.125,2.4340817820000002,0.8765478683005812,0.0,0.7699999809265137,-2.7899999618530273,3.200000047683716,-0.04119873046875,-0.08544921875,0.94488525390625,30.670000076293945,0.0,0.0,-0.1245880126953125,-4.9478302001953125,Waiting,0.0,0.0,0.0,0.0,0.0,0.0,0.0,0.0,
7.406681999999972,0.0,0.0,24758.0,0.0,270.0,0.0,0.0,0.125,1.665038892,0.8719955828909661,0.0,-889.0,0.0,277.5,0.0,0.0,0.0,3.8513179650000002,3.359452973423634,-0.006103514999999504,50502.0,0.0,240.0,0.0,0.0,0.0,4.122314031,0.8734362824832981,-0.0012207030000004337,-5704.0,0.0,-255.0,0.0,0.0,0.125,2.443847406,0.8765478683005812,0.009765623999999917,0.5299999713897705,-2.8499999046325684,3.1700000762939453,-0.04962158203125,-0.05975341796875,0.91497802734375,30.670000076293945,0.0,-7.0,-0.127288818359375,-4.94842529296875,Waiting,0.0,0.0,0.0,0.0,0.0,0.0,0.0,0.0,
7.465912000000011,0.0,0.0,24758.0,0.0,180.0,0.0,0.0,0.125,1.667480298,0.8719955828909661,0.0,-889.0,0.0,180.0,0.0,0.0,0.0,3.8500972620000002,3.359452973423634,0.0,50502.0,0.0,150.0,0.0,0.0,0.0,4.123534734000001,0.8734362824832981,0.0012207030000004337,-5704.0,0.0,-157.5,0.0,0.0,0.125,2.45361303,0.8765478683005812,0.009765623999999917,0.27000001072883606,-2.9100000858306885,3.190000057220459,-0.0623779296875,-0.10980224609375,0.97802734375,30.670000076293945,0.0,-18.0,-0.1296234130859375,-4.9511260986328125,Waiting,0.0,0.0,0.0,0.0,0.0,0.0,0.0,0.0,
7.529035999999964,0.0,0.0,24776.0,0.0,82.5,0.0,0.0,0.125,1.665038892,0.8719955828909661,0.0,-871.0,0.0,90.0,0.0,0.0,0.0,3.8500972620000002,3.359452973423634,0.0,50520.0,0.0,90.0,0.0,0.0,0.0,4.123534734000001,0.8734362824832981,0.0,-5725.0,0.0,-67.5,0.0,0.0,0.25,2.45361303,0.8765478683005812,0.0,-0.019999999552965164,-2.9600000381469727,3.200000047683716,-0.040283203125,-0.06268310546875,1.0369873046875,30.670000076293945,0.0,9.0,-0.129791259765625,-4.9572906494140625,Waiting,0.0,0.0,0.0,0.0,0.0,0.0,0.0,0.0,
7.592640000000014,0.0,0.0,24776.0,0.0,7.5,0.0,0.0,0.125,1.665038892,0.8719955828909661,0.0,-871.0,0.0,15.0,0.0,0.0,0.0,3.8366695290000004,3.359452973423634,0.0,50521.0,0.0,7.5,0.0,0.0,0.0,4.123534734000001,0.8734362824832981,0.0,-5725.0,0.0,-7.5,0.0,0.0,0.25,2.45361303,0.8765478683005812,0.0012207029999999897,-0.07000000029802322,-2.9000000953674316,3.190000057220459,-0.015380859375,0.0174560546875,1.04498291015625,30.670000076293945,0.0,38.0,-0.1296844482421875,-4.9620208740234375,Waiting,0.0,0.0,0.0,0.0,0.0,0.0,0.0,0.0,
7.653080000000016,0.0,0.0,24776.0,0.0,0.0,0.0,0.0,0.125,1.665038892,0.8719955828909661,0.0,-871.0,0.0,0.0,0.0,0.0,0.0,3.822021093,3.359452973423634,-0.014648435999999876,50521.0,0.0,0.0,0.0,0.0,0.0,4.123534734000001,0.8734362824832981,0.0,-5725.0,0.0,0.0,0.0,0.0,0.125,2.457275139,0.8765478683005812,-0.0012207029999999897,-0.019999999552965164,-2.759999990463257,3.190000057220459,0.0089111328125,0.02825927734375,1.02935791015625,30.670000076293945,0.0,60.0,-0.12872314453125,-4.96185302734375,Waiting,0.0,0.0,0.0,0.0,0.0,0.0,0.0,0.0,
7.713540999999968,0.0,0.0,24776.0,0.0,0.0,0.0,0.0,0.125,1.665038892,0.8719955828909661,0.0,-871.0,0.0,0.0,0.0,0.0,0.0,3.817138281,3.359452973423634,-0.014648436000000764,50521.0,0.0,0.0,0.0,0.0,0.0,4.124755437,0.8734362824832981,0.0,-5725.0,0.0,0.0,0.0,0.0,0.125,2.45361303,0.8765478683005812,0.0012207029999999897,0.05000000074505806,-2.619999885559082,3.190000057220459,0.0059814453125,0.03131103515625,1.01190185546875,30.670000076293945,0.0,53.0,-0.126495361328125,-4.961181640625,Waiting,0.0,0.0,0.0,0.0,0.0,0.0,0.0,0.0,
7.775099999999977,0.0,0.0,24776.0,0.0,0.0,0.0,0.0,0.125,1.665038892,0.8719955828909661,0.0,-871.0,0.0,0.0,0.0,0.0,0.125,3.817138281,3.359452973423634,-0.004882811999999959,50521.0,0.0,0.0,0.0,0.0,0.0,4.124755437,0.8734362824832981,0.0,-5725.0,0.0,0.0,0.0,0.0,0.25,2.45361303,0.8765478683005812,0.0,0.14000000059604645,-2.4800000190734863,3.190000057220459,0.009765625,0.03668212890625,1.018798828125,30.670000076293945,0.0,55.0,-0.1231231689453125,-4.9598236083984375,Waiting,0.0,0.0,0.0,0.0,0.0,0.0,0.0,0.0,
7.839893999999971,0.0,0.0,24776.0,0.0,0.0,0.0,0.0,0.125,1.665038892,0.8719955828909661,0.0,-871.0,0.0,0.0,0.0,0.0,0.125,3.817138281,3.359452973423634,0.0,50521.0,0.0,0.0,0.0,0.0,0.0,4.123534734000001,0.8734362824832981,0.0,-5725.0,0.0,0.0,0.0,0.0,0.125,2.45361303,0.8765478683005812,0.0,0.23999999463558197,-2.3299999237060547,3.190000057220459,1.220703125E-4,0.03411865234375,1.03277587890625,30.709999084472656,0.0,43.0,-0.1172637939453125,-4.95721435546875,Waiting,0.0,0.0,0.0,0.0,0.0,0.0,0.0,0.0,
7.902402999999991,0.0,0.0,24776.0,0.0,0.0,0.0,0.0,0.125,1.665038892,0.8719955828909661,0.0,-871.0,0.0,0.0,0.0,0.0,0.0,3.815917578,3.359452973423634,0.0,50521.0,0.0,0.0,0.0,0.0,0.0,4.123534734000001,0.8734362824832981,0.0,-5725.0,0.0,0.0,0.0,0.0,0.125,2.45361303,0.8765478683005812,0.0,0.28999999165534973,-2.2200000286102295,3.190000057220459,9.765625E-4,0.0167236328125,1.02593994140625,30.709999084472656,0.0,41.0,-0.11151123046875,-4.95526123046875,Waiting,0.0,0.0,0.0,0.0,0.0,0.0,0.0,0.0,
7.962933000000019,0.0,0.0,24776.0,0.0,0.0,0.0,0.0,0.125,1.665038892,0.8719955828909661,0.0,-871.0,0.0,0.0,0.0,0.0,0.0,3.817138281,3.359452973423634,0.0,50521.0,0.0,0.0,0.0,0.0,0.0,4.122314031,0.8734362824832981,-0.0012207030000004337,-5725.0,0.0,0.0,0.0,0.0,0.125,2.452392327,0.8765478683005812,0.0,0.3100000023841858,-2.130000114440918,3.190000057220459,-0.01123046875,0.01092529296875,1.028076171875,30.709999084472656,0.0,27.0,-0.104949951171875,-4.95526123046875,Waiting,0.0,0.0,0.0,0.0,0.0,0.0,0.0,0.0,
8.02390399999998,0.0,0.0,24776.0,0.0,0.0,0.0,0.0,0.125,1.665038892,0.8719955828909661,0.0,-871.0,0.0,0.0,0.0,0.0,0.0,3.815917578,3.359452973423634,0.0,50521.0,0.0,0.0,0.0,0.0,0.0,4.122314031,0.8734362824832981,0.0,-5725.0,0.0,0.0,0.0,0.0,0.25,2.45361303,0.8765478683005812,0.0,0.3100000023841858,-2.069999933242798,3.190000057220459,-0.00823974609375,0.00970458984375,1.02630615234375,30.709999084472656,0.0,29.0,-0.0977935791015625,-4.95526123046875,Waiting,0.0,0.0,0.0,0.0,0.0,0.0,0.0,0.0,
8.087322999999975,0.0,0.0,24776.0,0.0,0.0,0.0,0.0,0.125,1.665038892,0.8719955828909661,0.0,-871.0,0.0,0.0,0.0,0.0,0.0,3.817138281,3.359452973423634,0.0,50521.0,0.0,0.0,0.0,0.0,0.0,4.124755437,0.8734362824832981,0.0012207030000004337,-5725.0,0.0,0.0,0.0,0.0,0.125,2.45361303,0.8765478683005812,0.0,0.3199999928474426,-1.9900000095367432,3.190000057220459,-0.009033203125,0.012451171875,1.02685546875,30.709999084472656,0.0,27.0,-0.0900115966796875,-4.95526123046875,Waiting,0.0,0.0,0.0,0.0,0.0,0.0,0.0,0.0,
8.150092000000004,0.0,0.0,24776.0,0.0,0.0,0.0,0.0,0.125,1.665038892,0.8719955828909661,0.0,-871.0,0.0,0.0,0.0,0.0,0.0,3.817138281,3.359452973423634,0.0,50521.0,0.0,0.0,0.0,0.0,0.0,4.123534734000001,0.8734362824832981,0.0,-5725.0,0.0,0.0,0.0,0.0,0.125,2.45361303,0.8765478683005812,0.0012207029999999897,0.3499999940395355,-1.909999966621399,3.190000057220459,-0.00457763671875,0.0185546875,1.02252197265625,30.709999084472656,0.0,30.0,-0.08160400390625,-4.95526123046875,Waiting,0.0,0.0,0.0,0.0,0.0,0.0,0.0,0.0,
8.210466000000014,0.0,0.0,24776.0,0.0,0.0,0.0,0.0,0.125,1.665038892,0.8719955828909661,0.0,-871.0,0.0,0.0,0.0,0.0,0.0,3.817138281,3.359452973423634,0.0,50521.0,0.0,0.0,0.0,0.0,0.0,4.124755437,0.8734362824832981,0.0,-5725.0,0.0,0.0,0.0,0.0,0.25,2.45361303,0.8765478683005812,0.0,0.38999998569488525,-1.8300000429153442,3.190000057220459,-0.00616455078125,0.0185546875,1.02252197265625,30.709999084472656,0.0,27.0,-0.072479248046875,-4.95526123046875,Waiting,0.0,0.0,0.0,0.0,0.0,0.0,0.0,0.0,
8.271323999999964,0.0,0.0,24776.0,0.0,0.0,0.0,0.0,0.125,1.665038892,0.8719955828909661,0.0,-871.0,0.0,0.0,0.0,0.0,0.0,3.815917578,3.359452973423634,0.0,50521.0,0.0,0.0,0.0,0.0,0.0,4.124755437,0.8734362824832981,0.0,-5725.0,0.0,0.0,0.0,0.0,0.25,2.45361303,0.8765478683005812,-0.0012207029999999897,0.4099999964237213,-1.7599999904632568,3.190000057220459,-0.00640869140625,0.0125732421875,1.02117919921875,30.709999084472656,0.0,25.0,-0.0627593994140625,-4.95526123046875,Waiting,0.0,0.0,0.0,0.0,0.0,0.0,0.0,0.0,
