Time,ClimberA1,ClimberA2,FRpos,FRCurrent,FRspeed,FRsetpoint,FRApos,FRACurrent,FREncpos,FREncSetpoint,FREncSpeed,FLpos,FLCurrent,FLspeed,FLsetpoint,FLApos,FLACurrent,FLEncpos,FLEncSetpoint,FLEncSpeed,BRpos,BRCurrent,BRspeed,BRsetpoint,BRApos,BRACurrent,BREncpos,BREncSetpoint,BREncSpeed,BLpos,BLCurrent,BLspeed,BLsetpoint,BLApos,BLACurrent,BLEncpos,BLEncSetpoint,BLEncSpeed,navx_Pitch,navx_Roll,navx_Yaw,navx_XAcc,navx_YAcc,navx_ZAcc,navx_Temp,navx_Bar,navx_Alt,navx_XDis,navx_YDis,GearPlacerState,ShootOutputV,ShootOutputCurrent,ShootEncPos,ShootEncVelocity,ShootSpeed,ShootSetpoint,CarouselSetpoint,CarouselCurrent,
0.16285000000000582,0.0,0.0,82456.0,0.0,0.0,0.0,0.0,0.25,0.836181555,0.01,0.0,-155047.0,0.0,0.0,0.0,0.0,0.0,0.5175780720000001,0.01,0.0,11550.0,0.0,0.0,0.0,0.0,0.0,3.3728023890000003,0.01,0.0012207029999999897,-27891.0,0.125,0.0,0.0,0.0,0.125,1.641845535,0.01,0.0,-0.11999999731779099,-0.47999998927116394,141.14999389648438,-0.00872802734375,-0.00164794921875,1.02227783203125,35.90999984741211,0.0,0.0,0.7310943603515625,-2.29180908203125,Closing,0.0,0.0,3.0,0.0,0.0,0.0,0.0,0.0,
0.2189519999999902,0.0,0.0,82456.0,3.0,0.0,1470.0,0.0,0.25,0.836181555,0.01,0.0,-155047.0,2.875,0.0,-1470.0,0.0,0.0,0.522460884,0.01,0.0,11550.0,3.25,0.0,1470.0,0.0,0.0,3.3679195770000003,0.01,-0.0012207029999999897,-27891.0,3.625,-7.5,-1470.0,0.0,0.125,1.6552732680000002,0.01,0.0,-0.11999999731779099,-0.46000000834465027,141.14999389648438,0.03558349609375,0.0413818359375,1.02001953125,35.90999984741211,0.0,-6.0,0.7310943603515625,-2.2918548583984375,Closing,0.0,0.0,3.0,0.0,0.0,0.0,0.0,0.0,
0.2712599999999802,0.0,0.0,82456.0,8.0,232.5,1470.0,0.0,0.125,0.821533119,0.01,-0.007324217999999938,-155085.0,12.875,-195.0,-1470.0,0.0,0.0,0.522460884,0.01,0.003662109000000413,11550.0,9.375,300.0,1470.0,0.0,0.0,3.352050438,0.01,4.92819297,-27919.0,8.875,-195.0,-1470.0,0.0,0.125,1.666259595,0.01,0.004882811999999959,0.0,0.550000011920929,141.27000427246094,0.23748779296875,0.303466796875,1.2459716796875,35.90999984741211,0.0,14.0,0.7300872802734375,-2.2928924560546875,Closing,0.0,0.0,3.0,0.0,0.0,0.0,0.0,0.0,
0.3251969999999856,0.0,0.0,82516.0,10.5,337.5,1470.0,0.0,0.25,0.821533119,0.01,-0.007324217999999938,-155085.0,15.375,-330.0,-1470.0,0.0,0.0,0.5151366660000001,0.01,0.0012207029999995456,11639.0,10.25,555.0,1470.0,0.0,0.0,3.352050438,0.01,-0.007324217999999938,-27919.0,11.0,-300.0,-1470.0,0.0,0.25,1.695556467,0.01,0.029296871999999974,0.019999999552965164,1.090000033378601,141.36000061035156,0.3505859375,0.01031494140625,0.99090576171875,35.90999984741211,0.0,-252.0,0.72552490234375,-2.29791259765625,Closing,0.0,0.0,3.0,0.0,0.0,0.0,0.0,0.0,
0.3751669999999867,0.0,0.0,82516.0,12.125,352.5,1470.0,0.0,0.25,0.8166503070000001,0.01,0.0012207029999995456,-155085.0,17.0,-397.5,-1470.0,0.0,0.0,0.522460884,0.01,0.0,11639.0,9.5,525.0,1470.0,0.0,0.0,3.352050438,0.01,0.0,-27988.0,12.5,-375.0,-1470.0,0.0,0.25,1.695556467,0.01,0.018310545000000067,0.05000000074505806,1.3899999856948853,141.42999267578125,0.16845703125,-0.0364990234375,1.21136474609375,35.90999984741211,0.0,-132.0,0.7194366455078125,-2.3043060302734375,Closing,0.0,0.0,3.0,0.0,0.0,0.0,0.0,0.0,
0.42406299999999464,0.0,0.0,82516.0,13.875,502.5,1469.9999999999998,0.0,0.25,0.8178710100000001,0.01,0.0012207029999995456,-155172.0,17.875,-570.0,-1469.9999999999998,0.0,0.0,0.522460884,0.01,0.0,11723.0,10.875,480.0,1469.9999999999998,0.0,0.0,3.353271141,0.01,0.0,-27988.0,13.625,-525.0,-1469.9999999999998,0.0,0.25,1.690673655,0.01,0.0012207029999999897,0.07999999821186066,2.0,141.47000122070312,0.23602294921875,-0.00360107421875,1.0296630859375,35.90999984741211,0.0,-159.0,0.7113494873046875,-2.31219482421875,Closing,0.0,0.0,3.0,0.0,0.0,0.0,0.0,0.0,
0.47272099999999045,0.0,0.0,82616.0,13.25,720.0,1470.0,0.0,0.25,0.820312416,0.01,-0.0012207029999995456,-155172.0,16.375,-802.5,-1470.0,0.0,0.0,0.522460884,0.01,-0.0012207029999995456,11723.0,13.25,652.5,1470.0,0.0,0.0,3.352050438,0.01,0.0,-27988.0,13.375,-675.0,-1470.0,0.0,0.25,1.6809080310000002,0.01,-0.004882811999999959,0.10000000149011612,2.630000114440918,141.5500030517578,0.26678466796875,0.0738525390625,1.14642333984375,35.90999984741211,0.0,-122.0,0.698089599609375,-2.32470703125,Closing,0.0,0.0,3.0,0.0,0.0,0.0,0.0,0.0,
0.5275479999999807,0.0,0.0,82616.0,12.625,862.5,1470.0,0.0,0.25,0.8154296040000001,0.01,0.0,-155328.0,15.25,-937.5,-1470.0,0.0,0.0,0.522460884,0.01,0.0012207029999995456,11723.0,12.5,802.5,1470.0,0.0,0.0,3.352050438,0.01,0.0,-28122.0,12.75,-877.5,-1470.0,0.0,0.25,1.67236311,0.01,-0.009765623999999917,0.07999999821186066,3.059999942779541,141.64999389648438,0.11029052734375,-0.0997314453125,0.8824462890625,35.90999984741211,0.0,-112.0,0.681884765625,-2.3402862548828125,Closing,0.0,0.0,3.0,0.0,0.0,0.0,0.0,0.0,
0.5805009999999893,0.0,0.0,82781.0,11.5,1057.5,1470.0000000000002,0.0,0.25,0.8166503070000001,0.01,0.0024414059999999793,-155328.0,13.125,-1125.0,-1470.0000000000002,0.0,0.0,0.546874944,0.01,0.0,11871.0,11.5,1012.5,1470.0000000000002,0.0,0.0,3.353271141,0.01,0.0,-28122.0,11.625,-1057.5,-1470.0000000000002,0.0,0.25,1.6625974860000001,0.01,-0.00976562400000014,0.05999999865889549,3.2899999618530273,141.72000122070312,0.17333984375,-0.05322265625,1.08184814453125,35.900001525878906,0.0,-120.0,0.6678314208984375,-2.353240966796875,Closing,0.0,0.0,3.0,0.0,0.0,0.0,0.0,0.0,
0.6331449999999895,0.0,0.0,82781.0,10.5,1162.5,1470.0,0.0,0.25,0.8178710100000001,0.01,-0.0024414059999999793,-155534.0,11.875,-1230.0,-1470.0,0.0,0.25,0.56152338,0.01,0.024414059999999793,11871.0,10.375,1132.5,1470.0,0.0,0.0,3.353271141,0.01,0.0,-28307.0,10.75,-1162.5,-1470.0,0.0,0.25,1.6638181890000001,0.01,-0.009765623999999917,0.18000000715255737,3.630000114440918,141.75999450683594,0.26593017578125,-0.14471435546875,1.46875,35.900001525878906,0.0,-227.0,0.6473541259765625,-2.37164306640625,Closing,0.0,0.0,3.0,0.0,0.0,0.0,0.0,0.0,
0.6877200000000012,0.0,0.0,82992.0,9.375,1297.5,1470.0,0.0,0.25,0.8166503070000001,0.01,0.0012207029999995456,-155534.0,10.0,-1365.0,-1470.0,0.0,0.25,0.560302677,0.01,0.01342773300000033,12068.0,9.25,1237.5,1470.0,0.0,0.0,3.353271141,0.01,0.0012207030000004337,-28307.0,9.875,-1290.0,-1470.0,0.0,0.25,1.666259595,0.01,0.0012207029999999897,0.15000000596046448,3.869999885559082,141.69000244140625,0.177734375,-0.016357421875,0.7816162109375,35.900001525878906,0.0,-109.0,0.6302947998046875,-2.372283935546875,Closing,0.0,0.0,3.0,0.0,0.0,0.0,0.0,0.0,
0.7395089999999909,0.0,0.0,82992.0,8.5,1380.0,1470.0000000000002,0.0,0.25,0.8166503070000001,0.01,-0.0012207029999995456,-155770.0,9.0,-1447.5,-1470.0000000000002,0.0,0.25,0.576171816,0.01,0.0,12068.0,8.625,1320.0,1470.0000000000002,0.0,0.0,3.352050438,0.01,-0.0012207030000004337,-28530.0,9.125,-1357.5,-1470.0000000000002,0.0,0.25,1.666259595,0.01,0.0,0.11999999731779099,3.990000009536743,141.5,0.02294921875,0.16156005859375,0.8643798828125,35.900001525878906,0.0,128.0,0.6061859130859375,-2.375091552734375,Closing,0.0,0.0,3.0,0.0,0.0,0.0,0.0,0.0,
0.7917509999999893,0.0,0.0,83236.0,6.875,1492.5,1470.0,0.0,0.25,0.820312416,0.01,0.0,-155770.0,7.625,-1492.5,-1470.0,0.0,0.25,0.576171816,0.01,0.014648435999999876,12306.0,7.0,1477.5,1470.0,0.0,0.0,3.352050438,0.01,0.0,-28530.0,8.25,-1417.5,-1470.0,0.0,0.25,1.666259595,0.01,0.003662108999999969,0.07000000029802322,3.9600000381469727,141.27000427246094,0.14263916015625,0.064208984375,1.0068359375,35.900001525878906,0.0,-17.0,0.581298828125,-2.3779296875,Closing,0.0,0.0,3.0,0.0,0.0,0.0,0.0,0.0,
0.8474119999999821,0.0,0.0,83236.0,5.875,1552.5,1470.0,0.0,0.125,0.821533119,0.01,0.0,-155770.0,6.5,-1560.0,-1470.0,0.0,0.25,0.5822753310000001,0.01,0.0,12306.0,5.875,1545.0,1470.0,0.0,0.0,3.353271141,0.01,0.0,-28773.0,7.25,-1500.0,-1470.0,0.0,0.25,1.667480298,0.01,0.0,0.07999999821186066,3.940000057220459,141.0800018310547,0.0496826171875,0.023681640625,1.18505859375,35.900001525878906,0.0,38.0,0.562896728515625,-2.3804473876953125,Closing,0.0,0.0,3.0,0.0,0.0,0.0,0.0,0.0,
0.9021429999999818,0.0,0.0,83236.0,4.875,1605.0,1470.0,0.0,0.125,0.8178710100000001,4.93129205990359,0.0,-156023.0,5.75,-1590.0,-1470.0,0.0,0.25,0.571289004,4.962804931903839,0.0,12565.0,4.875,1605.0,1470.0,0.0,0.0,3.353271141,4.93943947555542,0.0,-28773.0,6.375,-1537.5,-1470.0,0.0,0.25,1.666259595,4.95703605372111,0.0,0.029999999329447746,3.9600000381469727,140.8300018310547,0.02691650390625,0.0108642578125,1.01910400390625,35.900001525878906,0.0,40.0,0.539093017578125,-2.38427734375,Closing,0.0,0.0,3.0,0.0,0.0,0.0,0.0,0.0,
0.9525779999999795,0.0,0.0,83498.0,4.125,1642.5,1470.0,0.0,0.25,0.821533119,4.927866885598035,0.0,-156023.0,4.75,-1627.5,-1470.0,0.0,0.25,0.56152338,4.959357869403839,0.0,12565.0,4.375,1627.5,1470.0,0.0,0.0,3.352050438,4.936008642222087,0.0,-28773.0,6.0,-1575.0,-1470.0,0.0,0.25,1.667480298,4.953592998165554,0.0,0.10999999940395355,3.819999933242798,140.66000366210938,0.06610107421875,0.1766357421875,1.0184326171875,35.900001525878906,0.0,112.0,0.5223541259765625,-2.387481689453125,Closing,0.0,0.0,3.0,0.0,0.0,0.0,0.0,0.0,
1.0107339999999967,0.0,0.0,83498.0,3.5,1695.0,1470.0,0.0,0.25,0.8166503070000001,4.924989647196706,0.0,-156288.0,4.125,-1642.5,-1470.0,0.0,0.25,0.538330023,4.95646224433136,0.0,12832.0,3.625,1657.5,1470.0,0.0,0.0,3.352050438,4.933126650085449,0.0,-29033.0,4.875,-1620.0,-1470.0,0.0,0.25,1.666259595,4.9507007390340165,0.0,0.14000000059604645,3.640000104904175,140.47999572753906,0.02044677734375,-0.02935791015625,1.18646240234375,35.900001525878906,0.0,22.0,0.500823974609375,-2.3913421630859375,Closing,0.0,0.0,3.0,0.0,0.0,0.0,0.0,0.0,
1.0681870000000053,0.0,0.0,83772.0,2.625,1702.5,1470.0,0.0,0.25,0.8178710100000001,4.9225236220436095,0.0,-156288.0,3.25,-1665.0,-1470.0,0.0,0.25,0.51269526,4.953980460319519,-0.02563476299999934,12832.0,2.75,1672.5,1470.0,0.0,0.0,3.352050438,4.930656550598145,0.0,-29033.0,4.25,-1650.0,-1470.0,0.0,0.25,1.6564939710000002,4.948221839904785,-0.0012207029999999897,0.11999999731779099,3.450000047683716,140.30999755859375,0.0526123046875,-0.17779541015625,1.09637451171875,35.779998779296875,0.0,-104.0,0.480621337890625,-2.3944549560546875,Closing,0.0,0.0,3.0,0.0,0.0,0.0,0.0,0.0,
1.1226229999999924,0.0,0.0,83772.0,2.25,1702.5,1470.0,0.0,0.25,0.8166503070000001,4.920742464506786,0.0,-156553.0,3.0,-1665.0,-1470.0,0.0,0.25,0.5029296360000001,4.9521879204940795,-0.01831054500000029,12832.0,2.5,1672.5,1470.0,0.0,0.0,3.353271141,4.928872450256348,0.0,-29296.0,3.75,-1650.0,-1470.0,0.0,0.25,1.6333006140000002,4.946431383768718,-0.009765623999999917,-0.019999999552965164,3.1500000953674316,140.25,-0.01458740234375,0.07598876953125,0.78668212890625,35.779998779296875,0.0,93.0,0.4606170654296875,-2.396331787109375,Closing,0.0,0.0,3.0,0.0,0.0,0.0,0.0,0.0,
1.1740679999999992,0.0,0.0,84042.0,1.875,1680.0,1470.0,0.0,0.25,0.8166503070000001,4.91992045612242,0.0012207029999995456,-156553.0,2.375,-1642.5,-1470.0,0.0,0.125,0.498046824,4.9513606591568,-0.014648435999999876,13099.0,2.25,1657.5,1470.0,0.0,0.0,3.353271141,4.9280490837605795,0.0,-29296.0,2.625,-1642.5,-1470.0,0.0,0.25,1.6284178020000002,4.945605084058974,-0.014648436000000098,0.0,2.880000114440918,140.27000427246094,-0.0164794921875,-0.15277099609375,1.2933349609375,35.779998779296875,0.0,-34.0,0.4464263916015625,-2.39727783203125,Closing,0.0,0.0,3.0,0.0,0.0,0.0,0.0,0.0,
1.2298129999999947,0.0,0.0,84042.0,1.5,1665.0,1470.0,0.0,0.25,0.8166503070000001,4.920194528602558,-0.0012207029999995456,-156816.0,2.125,-1642.5,-1470.0,0.0,0.0,0.51269526,4.951636483066559,0.0,13099.0,2.125,1627.5,1470.0,0.0,0.0,3.352050438,4.928323609059652,0.0,-29561.0,2.625,-1650.0,-1470.0,0.0,0.25,1.621093584,4.9458805873447,4.943351564,-0.05999999865889549,2.799999952316284,140.27000427246094,-0.117919921875,0.06585693359375,1.0302734375,35.779998779296875,0.0,172.0,0.4322357177734375,-2.3974151611328125,Closing,0.0,0.0,3.0,0.0,0.0,0.0,0.0,0.0,
1.2865119999999879,0.0,0.0,84309.0,1.25,1657.5,1470.0,0.0,0.25,0.8166503070000001,4.91992045612242,0.0,-156816.0,1.75,-1635.0,-1470.0,0.0,0.0,0.483398388,4.9513606591568,-0.0012207030000004337,13358.0,2.125,1620.0,1470.0,0.0,0.125,3.352050438,4.9280490837605795,0.0,-29561.0,2.25,-1635.0,-1470.0,0.0,0.25,1.624755693,4.945605084058974,0.0,-0.12999999523162842,2.5299999713897705,140.1199951171875,-0.00494384765625,0.061279296875,1.1580810546875,35.779998779296875,0.0,84.0,0.41424560546875,-2.3968963623046875,Closing,0.0,0.0,3.0,0.0,0.0,0.0,0.0,0.0,
1.3435099999999802,0.0,0.0,84309.0,0.875,1665.0,1470.0,0.0,0.125,0.8178710100000001,4.918139298585595,0.0,-157075.0,1.5,-1612.5,-1470.0,0.0,0.0,0.48583979400000005,4.94956811933136,-0.013427732999999442,13358.0,1.75,1605.0,1470.0,0.0,0.125,3.345946923,4.926264983418783,0.0,-29819.0,2.25,-1612.5,-1470.0,0.0,0.25,1.613769366,4.943814627922905,-0.004882811999999959,-0.14000000059604645,2.4700000286102295,139.9499969482422,0.0147705078125,-0.079833984375,1.2239990234375,35.779998779296875,0.0,-20.0,0.3975982666015625,-2.3955230712890625,Closing,0.0,0.0,3.0,0.0,0.0,0.0,0.0,0.0,
1.4066849999999977,0.0,0.0,84572.0,0.75,1642.5,1470.0,0.0,0.25,0.821533119,4.915810205144544,0.0,-157075.0,1.375,-1605.0,-1470.0,0.0,0.125,0.47851557600000005,4.9472241420784,-0.004882811999999959,13615.0,1.5,1605.0,1470.0,0.0,0.125,3.350829735,4.92393204188029,0.0,-29819.0,2.25,-1597.5,-1470.0,0.0,0.125,1.622314287,4.94147337536282,-0.009765623999999917,-0.11999999731779099,2.0899999141693115,139.82000732421875,-0.07470703125,-0.09649658203125,1.1593017578125,35.779998779296875,0.0,28.0,0.3779754638671875,-2.3918914794921875,Closing,0.0,0.0,3.0,0.0,0.0,0.0,0.0,0.0,
1.4659020000000018,0.0,0.0,84572.0,0.75,1620.0,1470.0,0.0,0.125,0.8178710100000001,4.914029256663768,0.0,-157328.0,1.375,-1590.0,-1470.0,0.0,0.125,0.468749952,4.945431812644959,-0.006103515000000392,13615.0,1.375,1597.5,1470.0,0.0,0.125,3.3618160620000004,4.922148150939941,0.0,-30073.0,2.0,-1582.5,-1470.0,0.0,0.25,1.6369627230000001,4.9396831293741865,0.0,-0.12999999523162842,2.2300000190734863,139.8000030517578,0.11553955078125,-0.05859375,0.99249267578125,35.779998779296875,0.0,-95.0,0.3675384521484375,-2.389190673828125,Closing,0.0,0.0,3.0,0.0,0.0,0.0,0.0,0.0,
1.5220779999999796,0.0,0.0,84825.0,0.75,1597.5,1470.0,0.0,0.25,0.8178710100000001,4.913755184183629,0.0,-157328.0,1.25,-1567.5,-1470.0,0.0,0.125,0.469970655,4.945155988735199,-0.003662108999999525,13868.0,1.375,1575.0,1470.0,0.0,0.125,3.352050438,4.9218736256408695,0.0,-30073.0,1.875,-1575.0,-1470.0,0.0,0.25,1.622314287,4.93940762608846,0.004882811999999959,-0.11999999731779099,2.0399999618530273,139.82000732421875,-0.14599609375,0.1058349609375,0.8414306640625,35.779998779296875,0.0,203.0,0.3543853759765625,-2.3852691650390625,Closing,0.0,0.0,3.0,0.0,0.0,0.0,0.0,0.0,
1.5747239999999874,0.0,0.0,84825.0,0.75,1560.0,1470.0,0.0,0.25,0.8166503070000001,4.914029256663768,0.0,-157577.0,1.125,-1560.0,-1470.0,0.0,0.125,0.46386714,4.945431812644959,-0.0012207030000004337,13868.0,1.375,1552.5,1470.0,0.0,0.125,3.353271141,4.922148150939941,0.0,-30323.0,1.875,-1560.0,-1470.0,0.0,0.25,1.6345213170000001,4.9396831293741865,-0.004882811999999959,-0.11999999731779099,1.840000033378601,139.91000366210938,0.07452392578125,0.09271240234375,0.7935791015625,35.709999084472656,0.0,23.0,0.343414306640625,-2.3807373046875,Closing,0.0,0.0,3.0,0.0,0.0,0.0,0.0,0.125,
1.6337419999999985,0.0,0.0,85070.0,0.875,1530.0,1470.0,0.0,0.25,0.8166503070000001,4.915262269240316,0.0,-157577.0,1.125,-1545.0,-1470.0,0.0,0.125,0.465087843,4.946672704650879,-0.003662109000000413,14113.0,1.5,1530.0,1470.0,0.0,0.125,3.353271141,4.923383200683594,0.0,-30323.0,2.0,-1537.5,-1470.0,0.0,0.25,1.6284178020000002,4.940922578938802,0.004882811999999959,-0.05999999865889549,1.75,140.0,0.01666259765625,-0.08648681640625,0.86749267578125,35.709999084472656,0.0,-47.0,0.3359375,-2.377105712890625,Closing,0.0,0.0,3.0,0.0,0.0,0.0,0.0,0.0,
1.6894919999999984,0.0,0.0,85070.0,0.625,1462.5,0.0,0.0,0.25,0.8166503070000001,0.01,0.0,-157577.0,0.875,-1500.0,-0.0,0.0,0.25,0.483398388,0.01,0.003662109000000413,14113.0,0.625,1462.5,0.0,0.0,0.0,3.353271141,0.01,0.0,-30546.0,0.625,-1507.5,-0.0,0.0,0.125,1.613769366,0.01,0.0012207030000004337,0.029999999329447746,1.4700000286102295,140.08999633789062,0.04150390625,0.0103759765625,1.09552001953125,35.709999084472656,0.0,-4.0,0.326873779296875,-2.3725738525390625,Closing,0.0,0.0,3.0,0.0,0.0,0.0,0.0,0.0,
1.7479549999999873,0.0,0.0,85253.0,1.0,1252.5,0.0,0.0,0.25,0.836181555,0.01,-4.922485376,-157784.0,2.25,-1192.5,-0.0,0.0,0.25,0.47973627900000004,0.01,0.006103515000000392,14297.0,0.625,1237.5,0.0,0.0,0.0,3.387450825,0.01,0.004882811999999959,-30546.0,0.375,-1245.0,-0.0,0.0,0.25,1.5551756220000001,0.01,-0.02075195100000027,-0.07000000029802322,0.25999999046325684,140.08999633789062,-0.35546875,-0.0194091796875,0.83349609375,35.709999084472656,0.0,263.0,0.3214263916015625,-2.36968994140625,Closing,0.0,0.0,3.0,0.0,0.0,0.0,0.0,0.0,
1.8104339999999792,0.0,0.0,85253.0,1.75,1042.5,0.0,0.0,0.25,0.8422850700000001,0.01,0.014648436000000098,-157784.0,2.625,-1035.0,-0.0,0.0,0.25,0.47851557600000005,0.01,0.004882811999999959,14297.0,0.875,952.5,0.0,0.0,0.125,3.387450825,0.01,-4.911103128,-30701.0,0.75,-1027.5,-0.0,0.0,0.25,1.563720543,0.01,-0.05737304099999996,-0.10000000149011612,-0.8899999856948853,139.88999938964844,-0.3980712890625,0.11981201171875,1.28680419921875,35.709999084472656,0.0,367.0,0.3237457275390625,-2.35931396484375,Closing,0.0,0.0,3.0,0.0,0.0,0.0,0.0,0.0,
1.8694290000000038,0.0,0.0,85387.0,2.875,945.0,0.0,0.0,0.25,0.8422850700000001,0.01,0.0,-157939.0,3.375,-885.0,-0.0,0.0,0.25,0.47851557600000005,0.01,0.0,14430.0,1.5,870.0,0.0,0.0,0.125,3.394775043,0.01,0.0,-30701.0,1.25,-855.0,-0.0,0.0,0.25,1.593017415,0.01,0.014648435999999876,-0.07000000029802322,-1.7200000286102295,139.61000061035156,-0.440673828125,0.1339111328125,1.35943603515625,35.709999084472656,0.0,392.0,0.332061767578125,-2.3431243896484375,Closing,0.0,0.0,3.0,0.0,0.0,0.0,0.0,0.0,
1.927774000000005,0.0,0.0,85387.0,2.875,667.5,0.0,0.0,0.25,0.8410643670000001,0.01,-0.0012207030000001007,-157939.0,3.125,-600.0,-0.0,0.0,0.25,0.47851557600000005,0.01,0.0,14430.0,1.625,630.0,0.0,0.0,0.125,3.385009419,0.01,0.0,-30786.0,1.125,-600.0,-0.0,0.0,0.25,1.612548663,0.01,0.029296871999999752,0.019999999552965164,-2.5299999713897705,139.4199981689453,-0.36749267578125,0.00494384765625,0.926513671875,35.709999084472656,0.0,250.0,0.3471221923828125,-2.322296142578125,Closing,0.0,0.0,3.0,0.0,0.0,0.0,0.0,0.0,
1.9860439999999944,0.0,0.0,85439.0,2.0,412.5,0.0,0.0,0.25,0.838622961,0.01,0.0,-158011.0,2.125,-375.0,-0.0,0.0,0.25,0.47851557600000005,0.01,0.0,14488.0,1.25,382.5,0.0,0.0,0.125,3.386230122,0.01,0.0,-30786.0,0.75,-367.5,-0.0,0.0,0.125,1.622314287,0.01,0.023193357000000248,0.019999999552965164,-3.2100000381469727,139.41000366210938,-0.21588134765625,-0.023193359375,0.841796875,35.709999084472656,0.0,112.0,0.3674163818359375,-2.2979583740234375,Closing,0.0,0.0,3.0,0.0,0.0,0.0,0.0,0.0,
2.046280999999988,0.0,0.0,85439.0,1.125,180.0,0.0,0.0,0.25,0.834960852,0.01,0.0,-158011.0,1.375,-187.5,-0.0,0.0,0.25,0.47973627900000004,0.01,0.0,14488.0,0.625,172.5,0.0,0.0,0.125,3.387450825,0.01,0.0,-30807.0,0.5,-225.0,-0.0,0.0,0.125,1.62353499,0.01,0.004882811999999959,0.0,-3.630000114440918,139.42999267578125,-0.17230224609375,0.00946044921875,1.033447265625,35.709999084472656,0.0,87.0,0.390716552734375,-2.270904541015625,Closing,0.0,0.0,3.0,0.0,0.0,0.0,0.0,0.0,
2.10632699999999,0.0,0.0,85442.0,0.75,75.0,0.0,0.0,0.25,0.8410643670000001,0.01,0.0012207030000001007,-158026.0,1.0,-82.5,-0.0,0.0,0.25,0.47851557600000005,0.01,0.0,14495.0,0.375,75.0,0.0,0.0,0.125,3.386230122,0.01,0.0,-30807.0,0.25,-60.0,-0.0,0.0,0.125,1.622314287,0.01,0.0,0.05000000074505806,-3.680000066757202,139.38999938964844,-0.02593994140625,0.054931640625,1.09149169921875,35.66999816894531,0.0,1.0,0.415618896484375,-2.2427520751953125,Closing,0.0,0.0,3.0,0.0,0.0,0.0,0.0,0.0,
2.1636539999999806,0.0,0.0,85442.0,0.125,-15.0,0.0,0.0,0.25,0.8410643670000001,0.01,-0.0012207030000001007,-158026.0,0.5,0.0,-0.0,0.0,0.25,0.484619091,0.01,-0.0012207030000004337,14495.0,0.125,0.0,0.0,0.0,0.125,3.387450825,0.01,0.0,-30807.0,0.25,0.0,-0.0,0.0,0.125,1.622314287,0.01,0.0,0.009999999776482582,-3.559999942779541,139.41000366210938,0.01043701171875,-0.010498046875,0.98388671875,35.66999816894531,0.0,-61.0,0.4401702880859375,-2.2153167724609375,Closing,0.0,0.0,3.0,0.0,0.0,0.0,0.0,0.0,
2.2282299999999813,0.0,0.0,85434.0,0.125,-45.0,0.0,0.0,0.25,0.8422850700000001,0.01,0.0012207030000001007,-158025.0,0.5,0.0,-0.0,0.0,0.25,0.477294873,0.01,0.0,14494.0,0.125,-7.5,0.0,0.0,0.125,3.386230122,0.01,0.0012207029999999897,-30807.0,0.25,0.0,-0.0,0.0,0.125,1.622314287,0.01,0.0,0.019999999552965164,-3.380000114440918,139.41000366210938,-0.0029296875,0.01312255859375,0.98687744140625,35.66999816894531,0.0,-33.0,0.46356201171875,-2.18878173828125,Closing,0.0,0.0,3.0,0.0,0.0,0.0,0.0,0.0,
2.2844830000000074,0.0,0.0,85434.0,0.125,-22.5,525.0,0.0,0.25,0.8410643670000001,3.015942366852486,0.0,-158025.0,0.375,0.0,-525.0,0.0,0.25,0.47851557600000005,4.41043958977222,0.0,14494.0,0.375,0.0,525.0,0.0,3.0,3.395995746,1.9194747329772914,-0.0012207029999999897,-30813.0,0.625,-7.5,-525.0,0.0,0.125,1.6333006140000002,0.552687206278561,0.0,0.05000000074505806,-3.200000047683716,139.39999389648438,0.01141357421875,7.32421875E-4,1.0030517578125,35.66999816894531,0.0,-51.0,0.4860076904296875,-2.1634368896484375,Closing,0.0,0.0,3.0,0.0,0.0,0.0,0.0,0.0,
2.337698000000004,0.0,0.0,85434.0,0.375,37.5,525.0,0.0,6.625,0.535888617,3.015942366852486,0.0,-158027.0,0.375,-22.5,-525.0,0.0,2.0,0.344238246,4.41043958977222,0.0,14503.0,0.75,37.5,525.0,0.0,4.0,3.804931251,1.9194747329772914,0.010986326999999907,-30813.0,1.0,-45.0,-525.0,0.0,2.625,1.8688962930000002,0.552687206278561,-4.948234376,0.05999999865889549,-2.9000000953674316,139.42999267578125,0.0252685546875,0.0377197265625,1.0421142578125,35.66999816894531,0.0,-35.0,0.5071563720703125,-2.1386871337890625,Closing,0.0,0.0,3.0,0.0,0.0,0.0,0.0,0.0,
2.3939529999999793,0.0,0.0,85449.0,0.375,120.0,525.0,0.0,1.625,0.181884747,3.015942366852486,4.585571347999999,-158027.0,1.125,-75.0,-525.0,0.0,0.5,0.126953112,4.41043958977222,-0.1416015479999997,14503.0,1.25,52.5,525.0,0.0,1.875,4.232177301,1.9194747329772914,0.41137691100000007,-30825.0,1.625,-67.5,-525.0,0.0,0.75,2.088622833,0.552687206278561,0.234374976,0.09000000357627869,-2.549999952316284,139.47000122070312,0.06695556640625,-0.02288818359375,1.059814453125,35.66999816894531,0.0,-102.0,0.5267791748046875,-2.115234375,Closing,0.0,0.0,3.0,0.0,0.0,0.0,0.0,0.0,
2.4519759999999953,0.0,0.0,85449.0,0.5,180.0,525.0,0.0,1.875,4.7058100650000005,3.015942366852486,-0.3735351179999995,-158039.0,1.375,-60.0,-525.0,0.0,0.25,4.951171368000001,4.41043958977222,-0.22094724300000035,14504.0,1.625,7.5,525.0,0.0,1.75,4.649657727,1.9194747329772914,0.4333495649999999,-30825.0,1.875,-82.5,-525.0,0.0,0.375,2.1704099340000003,0.552687206278561,0.2209472429999999,0.10999999940395355,-2.450000047683716,139.66000366210938,-0.07745361328125,-0.05279541015625,1.03253173828125,35.66999816894531,0.0,-10.0,0.5404815673828125,-2.104095458984375,Closing,0.0,0.0,3.0,0.0,0.0,0.0,0.0,0.0,
2.5138859999999985,0.0,0.0,85475.0,0.75,142.5,525.0,0.0,1.5,4.302978075,3.015942366852486,-0.44250536599999934,-158039.0,2.125,-75.0,-525.0,0.0,0.25,4.921874496,4.41043958977222,4.830321771,14504.0,2.625,30.0,525.0,0.0,1.625,0.065917962,1.9194747329772914,0.0,-30825.0,2.0,-120.0,-525.0,0.0,0.125,2.181396261,0.552687206278561,0.08300780400000018,0.10999999940395355,-2.4200000762939453,140.11000061035156,-0.01312255859375,0.0362548828125,1.0450439453125,35.66999816894531,0.0,-2.0,0.54052734375,-2.103973388671875,Closing,0.0,0.0,3.0,0.0,0.0,0.0,0.0,0.0,
2.5700160000000034,0.0,0.0,85475.0,1.125,135.0,525.0,0.0,1.125,3.9428706900000003,3.015942366852486,0.0,-158060.0,2.625,-142.5,-525.0,0.0,0.25,4.9206537930000005,4.41043958977222,0.0,14504.0,2.875,45.0,525.0,0.0,1.125,0.43334956500000005,1.9194747329772914,0.4018262460000006,-30851.0,2.625,-172.5,-525.0,0.0,0.125,2.199706806,0.552687206278561,0.009765623999999917,0.07999999821186066,-2.390000104904175,140.99000549316406,-0.09637451171875,-0.02996826171875,0.9981689453125,35.66999816894531,0.0,22.0,0.5403594970703125,-2.1042938232421875,Closing,0.0,0.0,3.0,0.0,0.0,0.0,0.0,0.0,
2.6263949999999894,0.0,0.0,85504.0,1.5,180.0,525.0,0.0,0.75,3.657226188,3.015942366852486,-0.35400387000000055,-158060.0,2.875,-180.0,-525.0,0.0,0.0,4.9206537930000005,4.41043958977222,0.0,14515.0,3.25,82.5,525.0,0.0,0.125,0.552978459,1.9194747329772914,0.312499968,-30851.0,2.75,-225.0,-525.0,0.0,0.125,2.2241208660000003,0.552687206278561,0.020751950999999824,-0.07999999821186066,-2.5199999809265137,142.27000427246094,-0.10015869140625,-0.01202392578125,1.03643798828125,35.630001068115234,0.0,36.0,0.5402679443359375,-2.1037445068359375,Closing,0.0,0.0,3.0,0.0,0.0,0.0,0.0,0.0,
2.679024000000005,0.0,0.0,85504.0,1.5,262.5,525.0,0.0,0.375,3.592528929,3.015942366852486,-0.22460935199999987,-158102.0,3.0,-247.5,-525.0,0.0,0.0,4.921874496,4.41043958977222,-0.0012207029999995456,14515.0,3.5,172.5,525.0,0.0,0.25,0.548095647,1.9194747329772914,0.09887694300000005,-30891.0,3.5,-255.0,-525.0,0.0,0.25,2.232665787,0.552687206278561,0.021972654000000258,-0.14000000059604645,-2.619999885559082,143.97000122070312,-0.11395263671875,0.04779052734375,0.94256591796875,35.630001068115234,0.0,86.0,0.541015625,-2.102996826171875,Closing,0.0,0.0,3.0,0.0,0.0,0.0,0.0,0.0,
2.7421459999999787,0.0,0.0,85557.0,1.25,352.5,525.0,0.0,0.5,3.603515256,3.015942366852486,-0.05615233799999997,-158102.0,3.25,-292.5,-525.0,0.0,0.0,4.9230951990000005,4.41043958977222,0.0012207029999995456,14551.0,3.625,270.0,525.0,0.0,0.25,0.46142573400000003,1.9194747329772914,-0.01586913900000031,-30891.0,3.25,-262.5,-525.0,0.0,0.25,2.238769302,0.552687206278561,0.009765623999999917,-0.07000000029802322,-2.680000066757202,145.97999572753906,0.036865234375,0.06256103515625,1.08624267578125,35.630001068115234,0.0,-36.0,0.5428314208984375,-2.103240966796875,Closing,0.0,0.0,3.0,0.0,0.0,0.0,0.0,0.0,
2.79941399999999,0.0,0.0,85557.0,1.25,375.0,525.0,0.0,0.5,3.6938472780000002,3.015942366852486,0.028076168999999762,-158148.0,3.625,-285.0,-525.0,0.0,0.0,4.9230951990000005,4.41043958977222,0.0,14551.0,2.875,382.5,525.0,0.0,0.125,0.40283199000000003,1.9194747329772914,-0.08056639799999976,-30937.0,4.0,-277.5,-525.0,0.0,0.25,2.229003678,0.552687206278561,0.004882811999999959,-0.05000000074505806,-2.4700000286102295,148.1300048828125,0.05609130859375,-0.0625,1.04693603515625,35.630001068115234,0.0,-118.0,0.5443572998046875,-2.1049346923828125,Closing,0.0,0.0,3.0,0.0,0.0,0.0,0.0,0.0,
2.8575219999999972,0.0,0.0,85619.0,1.25,375.0,525.0,0.0,0.375,3.770751567,3.015942366852486,0.09033202200000012,-158148.0,4.25,-315.0,-525.0,0.0,0.0,4.9230951990000005,4.41043958977222,0.0,14618.0,2.75,427.5,525.0,0.0,0.125,0.36987300900000003,1.9194747329772914,-0.06835936799999986,-30937.0,3.5,-337.5,-525.0,0.0,0.25,2.2192380540000003,0.552687206278561,-0.009765623999999917,-0.2199999988079071,-2.3299999237060547,150.6300048828125,0.103515625,0.0,1.0919189453125,35.630001068115234,0.0,-126.0,0.5442352294921875,-2.1072235107421875,Closing,0.0,0.0,3.0,0.0,0.0,0.0,0.0,0.0,
2.920828999999998,0.0,0.0,85619.0,1.25,412.5,525.0,0.0,0.375,3.801269142,3.015942366852486,0.07446288300000026,-158210.0,4.0,-367.5,-525.0,0.0,0.0,4.9206537930000005,4.41043958977222,0.0,14618.0,2.625,457.5,525.0,0.0,0.125,0.364990197,1.9194747329772914,0.0,-31000.0,3.25,-405.0,-525.0,0.0,0.25,2.20947243,0.552687206278561,-0.008544920999999928,-0.41999998688697815,-2.180000066757202,153.49000549316406,0.00726318359375,0.0419921875,1.0032958984375,35.630001068115234,0.0,-18.0,0.5426788330078125,-2.1098480224609375,Closing,0.0,0.0,3.0,0.0,0.0,0.0,0.0,0.0,
2.9724359999999868,0.0,0.0,85692.0,1.25,442.5,525.0,0.0,0.25,3.819579687,3.015942366852486,0.0,-158210.0,3.375,-450.0,-525.0,0.0,0.0,4.9206537930000005,4.41043958977222,0.0,14696.0,2.625,480.0,525.0,0.0,0.125,0.36132808800000005,1.9194747329772914,-0.004882811999999959,-31000.0,3.0,-457.5,-525.0,0.0,0.25,2.20947243,0.552687206278561,-0.007324218000000382,-0.49000000953674316,-2.130000114440918,155.80999755859375,-0.016845703125,0.0716552734375,1.0263671875,35.630001068115234,0.0,13.0,0.540985107421875,-2.1123809814453125,Closing,0.0,0.0,3.0,0.0,0.0,0.0,0.0,0.0,
3.0273269999999903,0.0,0.0,85692.0,1.125,502.5,525.0,0.0,0.125,3.8305660140000004,3.015942366852486,0.019531247999999835,-158292.0,3.125,-487.5,-525.0,0.0,0.0,4.916991684,4.41043958977222,0.0012207029999995456,14696.0,2.375,502.5,525.0,0.0,0.125,0.35522457300000004,1.9194747329772914,-0.009765623999999917,-31083.0,2.625,-510.0,-525.0,0.0,0.25,2.20947243,0.552687206278561,-0.006103514999999948,-0.5799999833106995,-2.0899999141693115,158.30999755859375,0.00909423828125,-0.03857421875,0.95928955078125,35.630001068115234,0.0,-51.0,0.5391693115234375,-2.11492919921875,Closing,0.0,0.0,3.0,0.0,0.0,0.0,0.0,0.0,
3.077674999999988,0.0,0.0,85777.0,0.875,517.5,525.0,0.0,0.25,3.8342281230000004,3.015942366852486,0.019531247999999835,-158292.0,2.5,-525.0,-525.0,0.0,0.0,4.9206537930000005,4.41043958977222,-0.0012207029999995456,14785.0,2.125,562.5,525.0,0.0,0.125,0.35522457300000004,1.9194747329772914,0.0,-31083.0,2.5,-532.5,-525.0,0.0,0.25,2.205810321,0.552687206278561,-0.0012207029999999897,-0.6299999952316284,-2.0199999809265137,160.9199981689453,0.05078125,-0.002685546875,0.8992919921875,35.630001068115234,0.0,-75.0,0.53704833984375,-2.117645263671875,Closing,0.0,0.0,3.0,0.0,0.0,0.0,0.0,0.0,
3.1301939999999884,0.0,0.0,85777.0,0.75,532.5,525.0,0.0,0.125,3.8391109350000003,3.015942366852486,0.004882811999999959,-158292.0,2.25,-555.0,-525.0,0.0,0.0,4.921874496,4.41043958977222,0.0012207029999995456,14785.0,2.0,585.0,525.0,0.0,0.125,0.35522457300000004,1.9194747329772914,0.0,-31174.0,2.375,-562.5,-525.0,0.0,0.25,2.20947243,0.552687206278561,0.0,-0.699999988079071,-1.8899999856948853,164.5399932861328,-0.014404296875,-0.00872802734375,1.07373046875,35.63999938964844,0.0,-19.0,0.5333404541015625,-2.1218109130859375,Closing,0.0,0.0,3.0,0.0,0.0,0.0,0.0,0.0,
3.187479999999981,0.0,0.0,85871.0,0.5,577.5,525.0,0.0,0.25,3.8354488260000004,3.015942366852486,0.0,-158385.0,1.875,-585.0,-525.0,0.0,0.0,4.9206537930000005,4.41043958977222,0.0,14880.0,1.875,592.5,525.0,0.0,0.125,0.35522457300000004,1.9194747329772914,-0.0012207029999999897,-31174.0,2.25,-570.0,-525.0,0.0,0.25,2.20947243,0.552687206278561,0.0,-0.7799999713897705,-1.8200000524520874,168.1999969482422,-0.03411865234375,0.0126953125,1.03466796875,35.63999938964844,0.0,6.0,0.5332183837890625,-2.1264495849609375,Closing,0.0,0.0,3.0,0.0,0.0,0.0,0.0,0.0,
3.239225000000006,0.0,0.0,85871.0,0.5,585.0,525.0,0.0,0.25,3.8354488260000004,3.015942366852486,-0.0012207029999999897,-158385.0,1.625,-592.5,-525.0,0.0,0.0,4.924315902,4.41043958977222,0.0,14880.0,1.75,592.5,525.0,0.0,0.125,0.35522457300000004,1.9194747329772914,0.0012207029999999897,-31174.0,2.25,-585.0,-525.0,0.0,0.25,2.203368915,0.552687206278561,0.0012207029999999897,-0.8100000023841858,-1.7899999618530273,170.94000244140625,0.00830078125,-0.04443359375,1.0338134765625,35.63999938964844,0.0,-44.0,0.533203125,-2.1302032470703125,Closing,0.0,0.0,3.0,0.0,0.0,0.0,0.0,0.0,
3.291320000000007,0.0,0.0,85871.0,0.5,577.5,525.0,0.0,0.125,3.8427730440000003,3.015942366852486,0.0,-158480.0,1.5,-592.5,-525.0,0.0,0.0,4.916991684,4.41043958977222,0.0,14976.0,1.75,592.5,525.0,0.0,0.125,0.35522457300000004,1.9194747329772914,0.0,-31269.0,1.875,-592.5,-525.0,0.0,0.25,2.20947243,0.552687206278561,-0.0012207029999999897,-0.8700000047683716,-1.7200000286102295,174.5500030517578,0.05059814453125,0.07672119140625,1.00665283203125,35.63999938964844,0.0,-71.0,0.5330657958984375,-2.1353759765625,Closing,0.0,0.0,3.0,0.0,0.0,0.0,0.0,0.125,
3.3458940000000004,0.0,0.0,85964.0,0.375,577.5,525.0,0.0,0.125,3.8342281230000004,3.015942366852486,0.0012207029999999897,-158480.0,1.5,-577.5,-525.0,0.0,0.0,4.9182123870000005,4.41043958977222,-0.003662108999999525,14976.0,1.5,600.0,525.0,0.0,0.125,0.35522457300000004,1.9194747329772914,0.0,-31269.0,2.0,-585.0,-525.0,0.0,0.25,2.20947243,0.552687206278561,0.0,-0.9200000166893005,-1.6399999856948853,177.24000549316406,-0.00421142578125,-0.025390625,0.91900634765625,35.63999938964844,0.0,-22.0,0.53253173828125,-2.1368255615234375,Closing,0.0,0.0,3.0,0.0,0.0,0.0,0.0,0.125,
3.3952509999999894,0.0,0.0,85964.0,0.375,570.0,525.0,0.0,0.25,3.8354488260000004,3.015942366852486,0.0,-158572.0,1.5,-570.0,-525.0,0.0,0.0,4.9182123870000005,4.41043958977222,-0.0012207030000004337,14976.0,1.5,592.5,525.0,0.0,0.125,0.35522457300000004,1.9194747329772914,-0.0012207029999999897,-31362.0,1.875,-570.0,-525.0,0.0,0.25,2.203368915,0.552687206278561,0.0012207029999999897,-0.949999988079071,-1.5499999523162842,-179.25,-0.0068359375,0.06103515625,0.89910888671875,35.63999938964844,0.0,-18.0,0.53204345703125,-2.13677978515625,Closing,0.0,0.0,3.0,0.0,0.0,0.0,0.0,0.0,
3.4494640000000074,0.0,0.0,86055.0,0.375,570.0,525.0,0.0,0.125,3.8354488260000004,3.015942366852486,-0.0012207029999999897,-158572.0,1.5,-562.5,-525.0,0.0,0.0,4.9157709810000005,4.41043958977222,0.0,15070.0,1.5,585.0,525.0,0.0,0.125,0.351562464,1.9194747329772914,0.0012207029999999897,-31362.0,2.125,-562.5,-525.0,0.0,0.25,2.204589618,0.552687206278561,0.0024414059999999793,-0.9399999976158142,-1.5499999523162842,-176.63999938964844,-0.0205078125,0.0015869140625,1.11920166015625,35.63999938964844,0.0,-11.0,0.531829833984375,-2.1369476318359375,Closing,0.0,0.0,3.0,0.0,0.0,0.0,0.0,0.0,
3.505815999999992,0.0,0.0,86055.0,0.0,555.0,0.0,0.0,1.25,3.879394134,0.01,0.0012207029999999897,-158656.0,0.875,-555.0,-0.0,0.0,1.75,4.924315902,0.01,0.0,15070.0,0.625,555.0,0.0,0.0,5.375,0.191650371,0.01,-0.0012207029999999897,-31446.0,0.875,-525.0,-0.0,0.0,1.875,2.132568141,0.01,-0.0012207029999999897,-0.949999988079071,-1.409999966621399,-173.25999450683594,0.0074462890625,-0.0625,0.86517333984375,35.63999938964844,0.0,-22.0,0.5311279296875,-2.1371307373046875,Closing,0.0,0.0,3.0,0.0,0.0,0.0,0.0,0.0,
3.558442999999999,0.0,0.0,86121.0,0.0,495.0,0.0,0.0,6.125,4.245605034,0.01,0.06591796199999989,-158656.0,0.125,-412.5,-0.0,0.0,1.5,0.159912093,0.01,0.004882811999999959,15138.0,0.375,397.5,0.0,0.0,4.875,4.769286621,0.01,-0.16723631099999992,-31446.0,0.375,-450.0,-0.0,0.0,1.0,1.883544729,0.01,-0.08056639799999976,-0.9100000262260437,-1.1699999570846558,-170.13999938964844,0.06182861328125,0.03472900390625,0.75970458984375,35.63999938964844,0.0,-84.0,0.5295867919921875,-2.137115478515625,Closing,0.0,0.0,3.0,0.0,0.0,0.0,0.0,0.0,
3.6121089999999967,0.0,0.0,86121.0,0.125,277.5,0.0,0.0,1.25,4.68749952,0.01,0.4162597229999996,-158656.0,0.0,-307.5,-0.0,0.0,0.5,0.373535118,0.01,-4.737548343,15138.0,0.375,300.0,0.0,0.0,1.25,4.359130413,0.01,-0.3847364040000003,-31491.0,0.375,-285.0,-0.0,0.0,0.5,1.705322091,0.01,-0.2502441150000001,-0.8199999928474426,-0.6100000143051147,-168.1999969482422,0.17120361328125,0.0374755859375,1.01507568359375,35.65999984741211,0.0,-188.0,0.525360107421875,-2.13720703125,Closing,0.0,0.0,3.0,0.0,0.0,0.0,0.0,0.0,
3.6716110000000044,0.0,0.0,86130.0,0.125,90.0,0.0,0.0,1.5,0.124511706,0.01,0.0,-158706.0,0.0,-337.5,-0.0,0.0,0.5,0.522460884,0.01,0.0,15182.0,0.375,285.0,0.0,0.0,1.375,3.9489742050000003,0.01,-0.44677729799999977,-31491.0,0.375,-300.0,-0.0,0.0,0.25,1.597900227,0.01,-0.184326153,-0.800000011920929,-0.6100000143051147,-167.77999877929688,-0.14813232421875,0.00543212890625,1.12030029296875,35.65999984741211,0.0,128.0,0.520111083984375,-2.13702392578125,Closing,0.0,0.0,3.0,0.0,0.0,0.0,0.0,0.0,
3.7275039999999864,0.0,0.0,86130.0,0.125,37.5,0.0,0.0,2.125,0.545654241,0.01,0.3302006899999994,-158706.0,0.125,-232.5,-0.0,0.0,0.5,0.605468688,0.01,0.14282225100000012,15182.0,0.375,157.5,0.0,0.0,1.25,3.496093392,0.01,-0.40283199000000014,-31526.0,0.375,-285.0,-0.0,0.0,0.25,1.5563963250000001,0.01,4.855460948,-0.8399999737739563,-0.9700000286102295,-167.4600067138672,-0.08880615234375,-0.04376220703125,1.020263671875,35.65999984741211,0.0,75.0,0.5152587890625,-2.1368865966796875,Closing,0.0,0.0,3.0,0.0,0.0,0.0,0.0,0.0,
3.7874499999999824,0.0,0.0,86142.0,0.125,60.0,0.0,0.0,1.25,0.8703612390000001,0.01,0.4577636250000001,-158732.0,0.0,-135.0,-0.0,0.0,0.25,0.599365173,0.01,0.05493163499999998,15197.0,0.375,97.5,0.0,0.0,0.5,3.2177731080000003,0.01,-0.474853467,-31526.0,0.375,-142.5,-0.0,0.0,0.25,1.560058434,0.01,-0.03906249599999967,-0.7200000286102295,-1.090000033378601,-167.35000610351562,-0.072021484375,0.08270263671875,0.99041748046875,35.65999984741211,0.0,30.0,0.51226806640625,-2.1377410888671875,Closing,0.0,0.0,3.0,0.0,0.0,0.0,0.0,0.0,
3.835706999999995,0.0,0.0,86142.0,0.125,60.0,8.4,0.0,0.75,0.9582518550000001,0.01,-4.686889697,-158732.0,0.125,-97.5,-8.4,0.0,0.25,0.5957030640000001,0.01,0.0,15197.0,0.375,105.0,8.4,0.0,0.0,3.2080074840000004,0.01,4.738984005000001,-31526.0,0.375,-75.0,-8.4,0.0,0.25,1.589355306,0.01,0.009765623999999917,-0.6399999856948853,-1.059999942779541,-167.57000732421875,0.00128173828125,-0.012451171875,1.04083251953125,35.65999984741211,0.0,-20.0,0.510894775390625,-2.1394195556640625,Closing,0.0,0.0,3.0,0.0,0.0,0.0,0.0,0.0,
3.8891169999999984,0.0,0.0,86142.0,0.125,30.0,8.4,0.0,0.375,0.9362792010000001,4.929647834078811,0.05493163499999998,-158744.0,0.125,-67.5,-8.4,0.0,0.25,0.5810546280000001,4.96115019883728,-0.009765623999999917,15210.0,0.375,105.0,8.4,0.0,0.125,3.2653805250000003,4.937792533162435,-0.003662109000000413,-31540.0,0.375,-82.5,-8.4,0.0,0.25,1.594238118,4.955383244154189,0.028076169000000206,-0.6600000262260437,-1.0399999618530273,-167.5800018310547,-0.01824951171875,-0.02783203125,1.04083251953125,35.65999984741211,0.0,2.0,0.5108489990234375,-2.139251708984375,Closing,0.0,0.0,3.0,0.0,0.0,0.0,0.0,0.125,
3.944484999999986,0.0,0.0,86143.0,0.125,0.0,8.4,0.0,0.375,0.8837889720000001,4.929510902366766,-0.014648435999999987,-158744.0,0.125,-60.0,-8.4,0.0,0.25,0.5798339250000001,4.961012392078399,-0.009765623999999917,15210.0,0.375,52.5,8.4,0.0,0.125,3.3105465360000004,4.937655375213623,0.05004882300000002,-31540.0,0.375,-37.5,-8.4,0.0,0.25,1.59912093,4.9552455975850425,0.006103514999999504,-0.6000000238418579,-1.0299999713897705,-167.47000122070312,-0.01361083984375,0.00909423828125,0.97100830078125,35.65999984741211,0.0,-7.0,0.510711669921875,-2.1394195556640625,Closing,0.0,0.0,3.0,0.0,0.0,0.0,0.0,0.0,
3.999524999999994,0.0,0.0,86143.0,0.125,0.0,8.4,0.0,0.375,0.8544921000000001,4.931017987423452,-0.05737304100000007,-158753.0,0.0,-52.5,-8.4,0.0,0.25,0.578613222,4.962529107994079,0.0,15210.0,0.5,7.5,8.4,0.0,0.125,3.3264156750000002,4.939164950256348,0.04150390199999965,-31542.0,0.625,-15.0,-8.4,0.0,0.25,1.59912093,4.956760550435384,0.003662109000000413,-0.5600000023841858,-1.0199999809265137,-167.47999572753906,-0.01373291015625,-0.0072021484375,1.05499267578125,35.65999984741211,0.0,-5.0,0.5104217529296875,-2.1398468017578125,Closing,0.0,0.0,3.0,0.0,0.0,0.0,0.0,0.0,
4.05275,0.0,0.0,86144.0,0.125,0.0,8.4,0.0,0.25,0.797119059,4.930606983231269,-0.028076168999999984,-158753.0,0.0,-37.5,-8.4,0.0,0.25,0.5810546280000001,4.9621154773254394,0.0,15211.0,0.5,0.0,8.4,0.0,0.0,3.3239742690000003,4.9387532670084635,0.014648436000000764,-31542.0,0.75,0.0,-8.4,0.0,0.25,1.6027830390000002,4.956347400580512,0.0,-0.550000011920929,-0.9700000286102295,-167.50999450683594,-0.00909423828125,0.004638671875,1.03118896484375,35.65999984741211,0.0,-11.0,0.5097198486328125,-2.1398468017578125,Closing,0.0,0.0,3.0,0.0,0.0,0.0,0.0,0.0,
4.109160999999993,0.0,0.0,86144.0,0.125,0.0,0.0,0.0,0.125,0.833740149,0.01,-0.009765624000000028,-158754.0,0.125,-7.5,-0.0,0.0,0.25,0.574951113,0.01,0.0,15211.0,0.5,22.5,0.0,0.0,0.0,3.3251949720000002,0.01,0.004882811999999959,-31542.0,0.75,0.0,-0.0,0.0,0.25,1.6040037420000002,0.01,0.004882811999999959,-0.5199999809265137,-0.9599999785423279,-167.47999572753906,-0.00299072265625,0.01519775390625,1.020751953125,35.65999984741211,0.0,-19.0,0.509490966796875,-2.1398773193359375,Closing,0.0,0.0,3.0,0.0,0.0,0.0,0.0,0.0,
4.188199999999982,0.0,0.0,86144.0,0.875,7.5,420.0,0.0,0.25,0.8410643670000001,0.01,0.0,-158754.0,1.125,-15.0,-420.0,0.0,0.25,0.565185489,0.01,-0.009765623999999917,15215.0,1.5,15.0,420.0,0.0,0.0,3.328857081,0.01,0.004882811999999959,-31542.0,1.625,0.0,-420.0,0.0,0.25,1.622314287,0.01,0.0,-0.47999998927116394,-0.8700000047683716,-167.5,0.08447265625,-0.0357666015625,1.10333251953125,35.720001220703125,0.0,-93.0,0.50933837890625,-2.13995361328125,Closing,0.0,0.0,3.0,0.0,0.0,0.0,0.0,0.0,
4.3174249999999885,0.0,0.0,86163.0,1.625,120.0,420.049236371836,0.0,0.375,0.8422850700000001,4.920231747388577,0.0012207030000001007,-158763.0,2.75,-75.0,-420.049236371836,0.0,0.25,0.5664061920000001,4.9516739396950795,-0.004882811999999959,15226.0,2.875,82.5,420.049236371836,0.0,0.0,3.3276363780000002,4.928360889338058,0.0,-31545.0,2.625,-52.5,-420.049236371836,0.0,0.125,1.62353499,4.945918000432777,0.0,-0.4099999964237213,-0.36000001430511475,-167.61000061035156,0.06207275390625,-0.01092529296875,0.9654541015625,35.720001220703125,0.0,-65.0,0.502655029296875,-2.139678955078125,Closing,0.0,0.0,3.0,0.0,0.0,0.0,0.0,0.0,
4.445835999999981,0.0,0.0,86189.0,2.25,180.0,479.5871408044633,0.0,0.25,0.8300780400000001,4.536770084489355,0.0,-158781.0,3.5,-195.0,-479.5871408044633,0.0,0.5,0.522460884,4.565761807800479,-0.014648435999999876,15250.0,3.0,195.0,479.5871408044633,0.0,0.625,3.3154293480000003,4.544265676140814,0.0,-31597.0,3.875,-210.0,-479.5871408044633,0.0,0.875,1.600341633,4.560454461644028,0.0012207029999995456,-0.36000001430511475,0.07999999821186066,-167.61000061035156,0.0809326171875,-0.00323486328125,0.96124267578125,35.720001220703125,0.0,-78.0,0.4898529052734375,-2.1395416259765625,Closing,0.0,0.0,3.0,0.0,0.0,0.0,0.0,0.0,
4.527074999999982,0.0,0.0,86239.0,2.25,307.5,479.5871408044633,0.0,0.5,0.605468688,4.536770084489355,0.0,-158820.0,4.0,-277.5,-479.5871408044633,0.0,0.5,0.261230442,4.565761807800479,0.0,15296.0,3.0,307.5,479.5871408044633,0.0,0.25,3.1140133530000003,4.544265676140814,0.0,-31597.0,4.375,-270.0,-479.5871408044633,0.0,0.5,1.363525251,4.560454461644028,0.0,-0.4699999988079071,0.4000000059604645,-167.77000427246094,0.0723876953125,-0.1591796875,1.0670166015625,35.720001220703125,0.0,-31.0,0.4756011962890625,-2.138641357421875,Closing,0.0,0.0,3.0,0.0,0.0,0.0,0.0,0.0,
4.661532999999996,0.0,0.0,86307.0,1.75,427.5,476.51568315120807,0.0,0.375,0.294189423,4.54604853311691,-0.38696285099999983,-158875.0,3.375,-397.5,-476.51568315120807,0.0,0.5,4.937743635,4.575099549319312,-0.4052733960000001,15368.0,2.25,450.0,476.51568315120807,0.0,0.125,2.836913772,4.553559454498723,-0.35034176100000014,-31648.0,3.875,-405.0,-476.51568315120807,0.0,0.375,1.1096190270000001,4.569781348758131,-0.36865230599999954,-1.1200000047683716,0.44999998807907104,-167.77000427246094,-0.02606201171875,-0.112548828125,1.1192626953125,35.709999084472656,0.0,53.0,0.4654693603515625,-2.1272125244140625,Closing,0.0,0.0,3.0,0.0,0.0,0.0,0.0,0.0,
4.783434999999998,0.0,0.0,86389.0,1.125,510.0,482.72474238851953,0.0,0.25,0.285644502,4.527610985593798,-0.09765624000000006,-158951.0,2.125,-510.0,-482.72474238851953,0.0,0.25,4.951171368000001,4.556544178704799,4.897460436,15450.0,1.875,525.0,482.72474238851953,0.0,0.0,2.827148148,4.535091444702956,-0.09521483400000008,-31721.0,2.5,-525.0,-482.72474238851953,0.0,0.25,1.120605354,4.551247547331644,-0.046386714000000495,-1.2599999904632568,0.49000000953674316,-167.75999450683594,0.04559326171875,-0.0244140625,1.10797119140625,35.709999084472656,0.0,-35.0,0.4665374755859375,-2.106658935546875,Closing,0.0,0.0,3.0,0.0,0.0,0.0,0.0,0.125,
4.9219219999999915,0.0,0.0,86477.0,0.75,547.5,485.92720664339225,0.0,0.375,0.34301754300000004,4.518571394050653,0.026855465999999772,-159041.0,1.25,-570.0,-485.92720664339225,0.0,0.25,0.029296872,4.54744682065994,0.006103515000000392,15537.0,1.625,547.5,485.92720664339225,0.0,0.125,2.9052731400000003,4.526036918065979,0.05615233800000041,-31807.0,2.0,-577.5,-485.92720664339225,0.0,0.25,1.1645506620000001,4.5421607642642545,0.0,-1.1699999570846558,0.5299999713897705,-167.6999969482422,0.01727294921875,0.046875,1.0662841796875,35.709999084472656,0.0,-21.0,0.466339111328125,-2.1080322265625,Closing,0.0,0.0,3.0,0.0,0.0,0.0,0.0,0.0,
5.050233999999997,0.0,0.0,86567.0,0.5,562.5,485.92720664339225,0.0,0.125,0.38208003900000004,4.518571394050653,0.05737304099999996,-159134.0,0.875,-577.5,-485.92720664339225,0.0,0.0,0.114746082,4.54744682065994,-4.860839346000001,15628.0,1.125,562.5,485.92720664339225,0.0,0.0,2.930907903,4.526036918065979,0.04638671399999961,-31994.0,1.625,-570.0,-485.92720664339225,0.0,0.125,1.219482297,4.5421607642642545,0.062255853000000805,-0.9100000262260437,0.5600000023841858,-167.6999969482422,-0.0111083984375,0.1025390625,0.86993408203125,35.709999084472656,0.0,-5.0,0.4658660888671875,-2.1137237548828125,Closing,0.0,0.0,3.0,0.0,0.0,0.0,0.0,0.0,
5.187470000000001,0.0,0.0,86654.0,0.5,540.0,462.19571493713573,0.0,0.125,0.391845663,4.594215514558043,0.017089842000000743,-159314.0,0.75,-547.5,-462.19571493713573,0.0,0.0,0.12329100300000001,4.6235743364840465,0.03662108999999969,15718.0,0.875,555.0,462.19571493713573,0.0,0.0,2.938232121,4.601806016790823,0.004882811999999959,-32084.0,1.25,-562.5,-462.19571493713573,0.0,0.125,1.231689327,4.618199787719395,0.03906249599999967,-0.7799999713897705,0.3700000047683716,-167.75,-0.0120849609375,-0.02392578125,1.09356689453125,35.72999954223633,0.0,20.0,0.46636962890625,-2.122772216796875,Closing,0.0,0.0,3.0,0.0,0.0,0.0,0.0,0.125,
5.3235689999999884,0.0,0.0,86741.0,0.375,517.5,454.4800896783736,0.0,0.25,0.43334956500000005,4.624505442297681,0.026855465999999772,-159399.0,0.5,-525.0,-454.4800896783736,0.0,0.25,0.126953112,4.654057828629151,-0.0012207029999995456,15806.0,0.75,510.0,454.4800896783736,0.0,0.0,2.980956726,4.632145989149268,0.0,-32170.0,1.0,-525.0,-454.4800896783736,0.0,0.25,1.236572139,4.648647845154657,0.0,-0.6000000238418579,0.23999999463558197,-167.6999969482422,-0.03741455078125,0.0467529296875,1.113037109375,35.72999954223633,0.0,28.0,0.467437744140625,-2.1244354248046875,Closing,0.0,0.0,3.0,0.0,0.0,0.0,0.0,0.0,
5.450748999999981,0.0,0.0,86822.0,0.375,480.0,445.28637594424845,0.0,0.25,0.484619091,4.666435188907449,0.04516601100000006,-159478.0,0.5,-495.0,-445.28637594424845,0.0,0.25,0.169677717,4.696255522608871,0.024414059999999793,15966.0,0.75,487.5,445.28637594424845,0.0,0.0,3.026122737,4.674145011532941,0.048828120000000474,-32250.0,1.0,-502.5,-445.28637594424845,0.0,0.25,1.2963865860000001,4.690796487567873,0.03662108999999969,-0.4699999988079071,0.11999999731779099,-167.75,0.01568603515625,0.01702880859375,1.0457763671875,35.72999954223633,0.0,-18.0,0.468048095703125,-2.1269683837890625,Closing,0.0,0.0,3.0,0.0,0.0,0.0,0.0,0.125,
5.58520199999999,0.0,0.0,86899.0,0.5,450.0,439.2543575481068,0.0,0.25,0.544433538,4.698966387762507,0.058593743999999504,-159555.0,0.5,-480.0,-439.2543575481068,0.0,0.25,0.24047849100000002,4.728994608462525,0.0646972589999999,16039.0,0.875,457.5,439.2543575481068,0.0,0.0,3.085937184,4.706729958005359,0.053710931999999545,-32328.0,1.0,-472.5,-439.2543575481068,0.0,0.25,1.3696287660000002,4.723497516757868,0.06225585299999992,-0.27000001072883606,0.05000000074505806,-167.75,-0.025634765625,0.0352783203125,1.0406494140625,35.72999954223633,0.0,17.0,0.4682464599609375,-2.131134033203125,Closing,0.0,0.0,3.0,0.0,0.0,0.0,0.0,0.125,
5.723288,0.0,0.0,87038.0,0.5,420.0,435.66151586552843,0.0,0.25,0.5676268950000001,4.721129584569014,0.0402831990000001,-159627.0,0.625,-435.0,-435.66151586552843,0.0,0.125,0.274658175,4.751299436706716,0.0,16109.0,1.125,427.5,435.66151586552843,0.0,0.0,3.1091305410000003,4.728929772553091,0.0,-32401.0,1.25,-435.0,-435.66151586552843,0.0,0.25,1.39160142,4.745776417358559,0.0,-0.11999999731779099,-0.019999999552965164,-167.8000030517578,-0.02606201171875,-0.03619384765625,1.0477294921875,35.709999084472656,0.0,32.0,0.470245361328125,-2.133575439453125,Closing,0.0,0.0,3.0,0.0,0.0,0.0,0.0,0.0,
5.851804999999993,0.0,0.0,87103.0,0.75,405.0,429.54249080416946,0.0,0.25,0.572509707,4.766477385014434,0.010986327000000351,-159694.0,0.75,-412.5,-429.54249080416946,0.0,0.25,0.28076169,4.796937027213962,0.009765623999999917,16175.0,1.125,412.5,429.54249080416946,0.0,0.125,3.1091305410000003,4.774352496035848,0.009765623999999917,-32469.0,1.625,-420.0,-429.54249080416946,0.0,0.25,1.3989256380000001,4.7913609576847485,0.009765623999999917,-0.14000000059604645,-0.009999999776482582,-167.85000610351562,0.0316162109375,0.0208740234375,1.04150390625,35.709999084472656,0.0,-36.0,0.4720611572265625,-2.1344757080078125,Closing,0.0,0.0,3.0,0.0,0.0,0.0,0.0,0.0,
5.9925950000000014,0.0,0.0,87167.0,0.75,397.5,427.0315920690178,0.0,0.375,0.629882748,4.789599983969735,0.023193357000000248,-159827.0,0.75,-412.5,-427.0315920690178,0.0,0.25,0.339355434,4.820207388559393,0.028076168999999318,16241.0,1.375,397.5,427.0315920690178,0.0,0.125,3.1677242850000003,4.797513297843942,0.0,-32599.0,1.625,-412.5,-427.0315920690178,0.0,0.25,1.4538572730000001,4.814604269028877,0.0,-0.07999999821186066,-0.029999999329447746,-167.85000610351562,0.0147705078125,0.0125732421875,1.025634765625,35.709999084472656,0.0,-17.0,0.4720916748046875,-2.1374969482421875,Closing,0.0,0.0,3.0,0.0,0.0,0.0,0.0,0.125,
6.116212999999989,0.0,0.0,87232.0,0.875,397.5,427.0315920690178,0.0,0.25,0.640869075,4.789599983969735,0.03295898099999928,-159827.0,0.875,-412.5,-427.0315920690178,0.0,0.125,0.358886682,4.820207388559393,0.03906249600000056,16305.0,1.375,390.0,427.0315920690178,0.0,0.0,3.183593424,4.797513297843942,0.0,-32665.0,1.625,-405.0,-427.0315920690178,0.0,0.125,1.4733885210000002,4.814604269028877,0.0,-0.05999999865889549,0.0,-167.8300018310547,4.2724609375E-4,0.04150390625,0.998291015625,35.709999084472656,0.0,-9.0,0.471954345703125,-2.137725830078125,Closing,0.0,0.0,3.0,0.0,0.0,0.0,0.0,0.0,
6.248979999999982,0.0,0.0,87298.0,0.875,405.0,423.9696204936888,0.0,0.25,0.6469725900000001,4.824746445161359,0.009765623999999917,-159893.0,0.875,-412.5,-423.9696204936888,0.0,0.125,0.358886682,4.855578449291936,0.009765623999999917,16370.0,1.375,405.0,423.9696204936888,0.0,0.0,3.182372721,4.832717827554839,0.004882811999999959,-32729.0,1.875,-397.5,-423.9696204936888,0.0,0.25,1.4746092240000002,4.849934213629845,0.009765623999999917,-0.019999999552965164,0.019999999552965164,-167.83999633789062,0.03009033203125,0.01837158203125,1.02734375,35.709999084472656,0.0,-32.0,0.4717864990234375,-2.1380615234375,Closing,0.0,0.0,3.0,0.0,0.0,0.0,0.0,0.0,
6.391347999999998,0.0,0.0,87363.0,0.875,405.0,423.139578035428,0.0,0.375,0.6591796200000001,4.836566187440436,0.014648436000000764,-160028.0,0.875,-412.5,-423.139578035428,0.0,0.25,0.357665979,4.867473724315979,0.006103515000000392,16434.0,1.5,397.5,423.139578035428,0.0,0.0,3.2165524050000003,4.844557098256096,0.019531247999999835,-32795.0,1.875,-405.0,-423.139578035428,0.0,0.25,1.4733885210000002,4.861815661313603,0.0,-0.019999999552965164,0.07999999821186066,-167.82000732421875,0.01788330078125,0.01568603515625,0.9794921875,35.709999084472656,0.0,-19.0,0.471588134765625,-2.1382293701171875,Closing,0.0,0.0,3.0,0.0,0.0,0.0,0.0,0.0,
6.513975999999995,0.0,0.0,87428.0,0.875,420.0,422.40583311735,0.0,0.25,0.6713866500000001,4.848429690877773,0.013427732999999442,-160095.0,0.875,-420.0,-422.40583311735,0.0,0.25,0.393066366,4.8794130401490845,0.02319335699999936,16499.0,1.375,427.5,422.40583311735,0.0,0.0,3.231200841,4.856440202417223,0.0,-32865.0,1.625,-427.5,-422.40583311735,0.0,0.25,1.5063475020000001,4.873741098612378,0.0,-0.029999999329447746,0.10000000149011612,-167.8699951171875,-0.00799560546875,-0.04595947265625,0.976806640625,35.709999084472656,0.0,19.0,0.4715576171875,-2.138641357421875,Closing,0.0,0.0,3.0,0.0,0.0,0.0,0.0,0.0,
6.648318,0.0,0.0,87498.0,0.75,442.5,422.40583311735,0.0,0.25,0.692138601,4.848429690877773,0.014648435999999876,-160164.0,0.75,-420.0,-422.40583311735,0.0,0.25,0.396728475,4.8794130401490845,0.009765623999999917,16569.0,1.375,427.5,422.40583311735,0.0,0.0,3.236083653,4.856440202417223,0.009765623999999917,-32932.0,1.375,-427.5,-422.40583311735,0.0,0.125,1.535644374,4.873741098612378,0.037841793000000123,0.0,0.12999999523162842,-167.85000610351562,0.01519775390625,0.00799560546875,1.0533447265625,35.709999084472656,0.0,-14.0,0.471710205078125,-2.13836669921875,Closing,0.0,0.0,3.0,0.0,0.0,0.0,0.0,0.125,
6.788861999999994,0.0,0.0,87637.0,0.75,427.5,420.7870906111546,0.0,0.25,0.6982421160000001,4.884230223231326,0.012207029999999897,-160234.0,0.75,-435.0,-420.7870906111546,0.0,0.125,0.396728475,4.91544235181238,0.0,16707.0,1.375,427.5,420.7870906111546,0.0,0.0,3.237304356,4.89229988393779,0.0,-33001.0,1.375,-420.0,-420.7870906111546,0.0,0.125,1.539306483,4.909728528978131,0.014648436000000764,-0.009999999776482582,0.14000000059604645,-167.77000427246094,-0.03076171875,0.0106201171875,1.05291748046875,35.689998626708984,0.0,30.0,0.47174072265625,-2.1383819580078125,Closing,0.0,0.0,3.0,0.0,0.0,0.0,0.0,0.125,
6.913475999999995,0.0,0.0,87706.0,0.75,427.5,420.4429197751611,0.0,0.375,0.721435473,4.896215757744391,0.017089842000000743,-160302.0,0.75,-420.0,-420.4429197751611,0.0,0.25,0.430908159,4.927504478547194,0.017089841999999855,16775.0,1.375,427.5,420.4429197751611,0.0,0.125,3.2604977130000004,4.904305220792776,0.009765623999999917,-33073.0,1.375,-420.0,-420.4429197751611,0.0,0.375,1.536865077,4.921776634420408,0.0,-0.019999999552965164,0.11999999731779099,-167.72999572753906,0.022216796875,0.0023193359375,1.03326416015625,35.689998626708984,0.0,-20.0,0.472686767578125,-2.138427734375,Closing,0.0,0.0,3.0,0.0,0.0,0.0,0.0,0.0,
7.046271999999997,0.0,0.0,87774.0,0.75,427.5,420.4429197751611,0.0,0.375,0.754394454,4.896215757744391,0.03417968399999971,-160370.0,0.75,-420.0,-420.4429197751611,0.0,0.25,0.468749952,4.927504478547194,0.0402831990000001,16844.0,1.375,427.5,420.4429197751611,0.0,0.125,3.292235991,4.904305220792776,0.03662108999999969,-33142.0,1.375,-420.0,-420.4429197751611,0.0,0.25,1.564941246,4.921776634420408,0.019531247999999835,0.029999999329447746,0.09000000357627869,-167.86000061035156,0.01953125,0.02838134765625,0.97564697265625,35.689998626708984,0.0,-23.0,0.47259521484375,-2.1394500732421875,Closing,0.0,0.0,3.0,0.0,0.0,0.0,0.0,0.0,
7.192608000000008,0.0,0.0,87842.0,0.75,427.5,420.049236371836,0.0,0.25,0.755615157,4.920231747388577,0.008544921000000372,-160436.0,0.75,-420.0,-420.049236371836,0.0,0.125,0.468749952,4.9516739396950795,0.01342773300000033,16912.0,1.375,420.0,420.049236371836,0.0,0.0,3.294677397,4.928360889338058,0.012207029999999897,-33278.0,1.375,-427.5,-420.049236371836,0.0,0.25,1.6064451480000002,4.945918000432777,0.024414059999999793,0.03999999910593033,0.03999999910593033,-167.94000244140625,-0.03057861328125,-0.0218505859375,1.02154541015625,35.68000030517578,0.0,35.0,0.4723968505859375,-2.141204833984375,Closing,0.0,0.0,3.0,0.0,0.0,0.0,0.0,0.125,
7.314666999999987,0.0,0.0,87909.0,0.75,412.5,420.0,0.0,0.25,0.759277266,0.01,0.0024414059999999793,-160504.0,0.75,-427.5,-420.0,0.0,0.25,0.47363276400000004,0.01,0.0012207030000004337,16978.0,1.375,412.5,420.0,0.0,0.0,3.3142086450000003,0.01,0.0,-33278.0,1.375,-427.5,-420.0,0.0,0.125,1.613769366,0.01,0.032958981000000165,0.10000000149011612,-0.029999999329447746,-167.88999938964844,-0.00762939453125,-0.0064697265625,1.0333251953125,35.68000030517578,0.0,8.0,0.4724578857421875,-2.141448974609375,Closing,0.0,0.0,3.0,0.0,0.0,0.0,0.0,0.125,
7.45407699999999,0.0,0.0,87976.0,0.75,412.5,420.049236371836,0.0,0.25,0.783691326,4.920231747388577,0.021972653999999814,-160642.0,0.625,-427.5,-420.049236371836,0.0,0.0,0.49194330900000005,4.9516739396950795,0.024414059999999793,17044.0,1.5,405.0,420.049236371836,0.0,0.0,3.333739893,4.928360889338058,0.0,-33412.0,1.375,-420.0,-420.049236371836,0.0,0.125,1.585693197,4.945918000432777,0.0,0.12999999523162842,-0.07999999821186066,-167.8000030517578,0.01904296875,0.02490234375,0.94854736328125,35.68000030517578,0.0,-24.0,0.47235107421875,-2.1419525146484375,Closing,0.0,0.0,3.0,0.0,0.0,0.0,0.0,0.0,
7.587438999999984,0.0,0.0,88043.0,0.75,420.0,420.049236371836,0.0,0.25,0.783691326,4.920231747388577,0.003662108999999525,-160708.0,0.75,-405.0,-420.049236371836,0.0,0.0,0.498046824,4.9516739396950795,0.004882811999999959,17110.0,1.5,412.5,420.049236371836,0.0,0.0,3.338622705,4.928360889338058,0.010986326999999463,-33479.0,1.375,-412.5,-420.049236371836,0.0,0.25,1.5844724940000001,4.945918000432777,-0.032958981000000165,0.09000000357627869,-0.18000000715255737,-167.86000061035156,-0.03173828125,-0.0423583984375,1.01885986328125,35.68000030517578,0.0,37.0,0.4722747802734375,-2.1423492431640625,Closing,0.0,0.0,3.0,0.0,0.0,0.0,0.0,0.0,
7.728324999999982,0.0,0.0,88112.0,0.75,420.0,420.049236371836,0.0,0.25,0.808105386,0.01201925261142284,0.0,-160774.0,0.875,-412.5,-420.049236371836,0.0,0.0,0.498046824,0.012096060304920076,0.0,17245.0,1.5,412.5,420.049236371836,0.0,0.0,3.334960596,0.01203911066194186,0.0,-33545.0,1.625,-405.0,-420.049236371836,0.0,0.25,1.5844724940000001,0.012081999567222845,0.0,0.07999999821186066,-0.2199999988079071,-167.97999572753906,-0.03045654296875,-0.01708984375,0.9891357421875,35.68000030517578,0.0,29.0,0.471710205078125,-2.142303466796875,Closing,0.0,0.0,3.0,0.0,0.0,0.0,0.0,0.0,
7.84532699999999,0.0,0.0,88180.0,0.75,412.5,420.19691087185544,0.0,0.25,0.783691326,0.02403287237242459,-0.0012207029999995456,-160841.0,0.875,-420.0,-420.19691087185544,0.0,0.125,0.5041503390000001,0.024186451763316588,0.0,17245.0,1.375,420.0,420.19691087185544,0.0,0.0,3.338622705,0.024072579166941513,0.0,-33613.0,1.875,-420.0,-420.19691087185544,0.0,0.25,1.6076658510000001,0.024158336877519233,0.009765623999999917,0.07999999821186066,-0.23999999463558197,-168.02000427246094,-0.00103759765625,0.02056884765625,1.0421142578125,35.68000030517578,0.0,-7.0,0.4716033935546875,-2.1425018310546875,Closing,0.0,0.0,3.0,0.0,0.0,0.0,0.0,0.0,
7.91897099999999,0.0,0.0,88248.0,0.75,420.0,420.049236371836,0.0,0.25,0.783691326,0.01201925261142284,-0.0012207030000004337,-160841.0,0.875,-412.5,-420.049236371836,0.0,0.125,0.49438471500000003,0.012096060304920076,0.0,17313.0,1.5,420.0,420.049236371836,0.0,0.0,3.333739893,0.01203911066194186,-0.0012207030000004337,-33613.0,1.625,-412.5,-420.049236371836,0.0,0.25,1.616210772,0.012081999567222845,0.01831054500000029,0.10000000149011612,-0.23999999463558197,-168.0800018310547,-0.0062255859375,7.32421875E-4,1.01318359375,35.68000030517578,0.0,2.0,0.471893310546875,-2.142578125,Closing,0.0,0.0,3.0,0.0,0.0,0.0,0.0,0.0,
8.048896999999997,0.0,0.0,88315.0,0.75,420.0,420.049236371836,0.0,0.25,0.784912029,0.01201925261142284,0.0012207030000004337,-160908.0,0.875,-412.5,-420.049236371836,0.0,0.125,0.498046824,0.012096060304920076,0.0,17380.0,1.5,412.5,420.049236371836,0.0,0.0,3.333739893,0.01203911066194186,0.0,-33746.0,1.625,-405.0,-420.049236371836,0.0,0.125,1.6284178020000002,0.012081999567222845,-4.93358594,0.07999999821186066,-0.23999999463558197,-168.11000061035156,0.01336669921875,-0.0362548828125,0.9737548828125,35.68000030517578,0.0,-9.0,0.471771240234375,-2.14251708984375,Closing,0.0,0.0,3.0,0.0,0.0,0.0,0.0,0.0,
8.19251999999999,0.0,0.0,88382.0,0.75,412.5,420.0,0.0,0.25,0.783691326,0.01,0.0,-161042.0,0.875,-420.0,-420.0,0.0,0.125,0.49926752700000004,0.01,0.0,17446.0,1.5,412.5,420.0,0.0,0.0,3.339843408,0.01,0.0024414059999999793,-33814.0,1.375,-420.0,-420.0,0.0,0.125,1.617431475,0.01,4.943351564,0.05000000074505806,-0.20000000298023224,-168.0800018310547,-0.02239990234375,0.06927490234375,1.01336669921875,35.68000030517578,0.0,4.0,0.47186279296875,-2.1422119140625,Closing,0.0,0.0,3.0,0.0,0.0,0.0,0.0,0.0,
