Time,ClimberA1,ClimberA2,FRpos,FRCurrent,FRspeed,FRsetpoint,FRApos,FRACurrent,FREncpos,FREncSetpoint,FREncSpeed,FLpos,FLCurrent,FLspeed,FLsetpoint,FLApos,FLACurrent,FLEncpos,FLEncSetpoint,FLEncSpeed,BRpos,BRCurrent,BRspeed,BRsetpoint,BRApos,BRACurrent,BREncpos,BREncSetpoint,BREncSpeed,BLpos,BLCurrent,BLspeed,BLsetpoint,BLApos,BLACurrent,BLEncpos,BLEncSetpoint,BLEncSpeed,navx_Pitch,navx_Roll,navx_Yaw,navx_XAcc,navx_YAcc,navx_ZAcc,navx_Temp,navx_Bar,navx_Alt,navx_XDis,navx_YDis,GearPlacerState,ShootOutputV,ShootOutputCurrent,ShootEncPos,ShootEncVelocity,ShootSpeed,ShootSetpoint,CarouselSetpoint,CarouselCurrent,
0.593137999999999,0.0,0.0,92894.0,0.0,0.0,0.0,0.0,0.125,0.822753822,0.01,0.0,-102966.0,0.0,0.0,0.0,0.0,0.125,0.498046824,0.01,0.0,2278.0,0.0,0.0,0.0,0.0,0.0,3.337402002,0.01,0.0,-10964.0,0.125,0.0,0.0,0.0,0.25,1.665038892,0.01,0.0,0.029999999329447746,-0.8100000023841858,-35.939998626708984,-0.01312255859375,-0.00103759765625,1.0238037109375,36.560001373291016,0.0,2.0,0.866912841796875,-0.2404937744140625,Waiting,0.0,0.0,3.0,0.0,0.0,0.0,0.0,0.0,
0.7434720000000016,0.0,0.0,92894.0,0.0,0.0,840.0,0.0,0.125,0.822753822,0.01,0.0,-102966.0,0.0,0.0,-840.0,0.0,0.125,0.49926752700000004,0.01,0.0,2278.0,0.0,0.0,840.0,0.0,0.0,3.338622705,0.01,0.0,-10964.0,0.125,0.0,-840.0,0.0,0.25,1.6638181890000001,0.01,0.0,0.019999999552965164,-0.8100000023841858,-35.939998626708984,-0.014892578125,-0.00140380859375,1.0206298828125,36.560001373291016,0.0,0.0,0.866912841796875,-0.2404937744140625,Waiting,0.0,0.0,3.0,0.0,0.0,0.0,0.0,0.0,
0.7676069999999999,0.0,0.0,92894.0,0.75,0.0,840.0,0.0,0.25,0.822753822,0.01,0.0,-102966.0,0.625,0.0,-840.0,0.0,0.125,0.5029296360000001,0.01,0.0,2278.0,1.375,0.0,840.0,0.0,0.0,3.338622705,0.01,0.0,-10964.0,0.375,0.0,-840.0,0.0,0.25,1.669921704,0.01,0.0,0.029999999329447746,-0.800000011920929,-35.939998626708984,-0.00445556640625,-0.01641845703125,1.00054931640625,36.560001373291016,0.0,17.0,0.866912841796875,-0.2404937744140625,Waiting,0.0,0.0,3.0,0.0,0.0,0.0,0.0,0.0,
0.7927690000000003,0.0,0.0,92894.0,1.5,15.0,840.0,0.0,0.125,0.809326089,0.01,-0.0012207029999999897,-102966.0,1.75,-15.0,-840.0,0.0,0.125,0.507812448,0.01,0.0,2278.0,2.125,0.0,840.0,0.0,0.0,3.333739893,0.01,0.0,-10964.0,1.875,-45.0,-840.0,0.0,0.25,1.674804516,0.01,0.0,0.029999999329447746,-0.7900000214576721,-35.939998626708984,0.2752685546875,0.0118408203125,1.055419921875,36.560001373291016,0.0,228.0,0.8670806884765625,-0.2403717041015625,Waiting,0.0,0.0,3.0,0.0,0.0,0.0,0.0,0.0,
0.8157250000000021,0.0,0.0,92894.0,2.375,45.0,840.0,0.0,0.125,0.819091713,0.01,-0.0012207029999999897,-102977.0,3.125,-37.5,-840.0,0.0,0.125,0.507812448,0.01,0.0,2278.0,2.75,15.0,840.0,0.0,0.0,3.333739893,0.01,0.0,-10992.0,2.5,-112.5,-840.0,0.0,0.25,1.693115061,0.01,0.0,-0.029999999329447746,-0.44999998807907104,-35.939998626708984,0.1016845703125,-0.025390625,0.92950439453125,36.560001373291016,0.0,102.0,0.86810302734375,-0.2398834228515625,Waiting,0.0,0.0,3.0,0.0,0.0,0.0,0.0,0.0,
0.8455169999999999,0.0,0.0,92894.0,3.0,67.5,840.0,0.0,0.125,0.819091713,0.01,4.9188232670000005,-102977.0,4.375,-67.5,-840.0,0.0,0.0,0.507812448,0.01,0.009765623999999917,2278.0,3.5,30.0,840.0,0.0,0.0,3.334960596,0.01,-0.003662108999999525,-10992.0,2.75,-172.5,-840.0,0.0,0.25,1.6894529520000001,0.01,0.009765623999999917,-0.029999999329447746,-0.3100000023841858,-35.93000030517578,0.005615234375,-0.00811767578125,1.19757080078125,36.560001373291016,0.0,14.0,0.8708648681640625,-0.2392425537109375,Waiting,0.0,0.0,3.0,0.0,0.0,0.0,0.0,0.0,
0.8944930000000022,0.0,0.0,92913.0,4.125,112.5,840.0,0.0,0.25,0.809326089,0.01,0.008544920999999484,-102977.0,6.0,-127.5,-840.0,0.0,0.0,0.507812448,0.01,0.0,2290.0,4.875,97.5,840.0,0.0,0.0,3.333739893,0.01,0.0,-10992.0,2.75,-217.5,-840.0,0.0,0.25,1.677245922,0.01,0.017089842000000077,-0.019999999552965164,-0.10999999940395355,-35.900001525878906,0.0789794921875,0.05499267578125,0.93133544921875,36.560001373291016,0.0,32.0,0.8731689453125,-0.2387237548828125,Waiting,0.0,0.0,3.0,0.0,0.0,0.0,0.0,0.0,
0.9221510000000016,0.0,0.0,92913.0,4.875,127.5,840.0,0.0,0.125,0.808105386,0.01,0.008544920999999484,-102977.0,6.375,-142.5,-840.0,0.0,0.0,0.507812448,0.01,0.0,2290.0,5.0,120.0,840.0,0.0,0.0,3.333739893,0.01,0.0,-10992.0,3.5,-195.0,-840.0,0.0,0.25,1.6870115460000001,0.01,0.017089842000000077,-0.009999999776482582,-0.029999999329447746,-35.900001525878906,0.1192626953125,0.01275634765625,1.13958740234375,36.560001373291016,0.0,89.0,0.8759307861328125,-0.23785400390625,Waiting,0.0,0.0,3.0,0.0,0.0,0.0,0.0,0.0,
0.946224000000002,0.0,0.0,92913.0,5.25,142.5,840.0,0.0,0.125,0.808105386,0.01,-0.008544920999999484,-103014.0,6.875,-165.0,-840.0,0.0,0.0,0.507812448,0.01,-0.0012207030000004337,2290.0,5.25,142.5,840.0,0.0,0.0,3.333739893,0.01,0.0,-11020.0,4.25,-180.0,-840.0,0.0,0.25,1.674804516,0.01,-0.0024414059999999793,-0.009999999776482582,0.25999999046325684,-35.88999938964844,0.15478515625,-0.01239013671875,0.880859375,36.560001373291016,0.0,129.0,0.87921142578125,-0.2365264892578125,Waiting,0.0,0.0,3.0,0.0,0.0,0.0,0.0,0.0,
0.9695299999999988,0.0,0.0,92913.0,5.5,187.5,840.0,0.0,0.125,0.809326089,0.01,-0.008544920999999484,-103014.0,7.5,-202.5,-840.0,0.0,0.125,0.507812448,0.01,-0.0012207030000004337,2325.0,5.625,172.5,840.0,0.0,0.0,3.337402002,0.01,0.0,-11020.0,4.875,-210.0,-840.0,0.0,0.25,1.673583813,0.01,-0.00976562400000014,0.009999999776482582,0.3400000035762787,-35.880001068115234,0.06781005859375,0.03436279296875,1.04443359375,36.560001373291016,0.0,29.0,0.8831329345703125,-0.234710693359375,Waiting,0.0,0.0,3.0,0.0,0.0,0.0,0.0,0.0,
0.9969510000000009,0.0,0.0,92957.0,5.625,262.5,840.0,0.0,0.125,0.809326089,0.01,-0.0012207030000004337,-103014.0,7.5,-285.0,-840.0,0.0,0.0,0.507812448,0.01,0.0012207030000004337,2325.0,6.25,225.0,840.0,0.0,0.0,3.33251919,0.01,0.0,-11020.0,4.875,-247.5,-840.0,0.0,0.25,1.668701001,0.01,-0.00976562400000014,0.009999999776482582,0.49000000953674316,-35.849998474121094,0.13104248046875,0.01092529296875,0.9512939453125,36.560001373291016,0.0,93.0,0.8852386474609375,-0.2336578369140625,Waiting,0.0,0.0,3.0,0.0,0.0,0.0,0.0,0.0,
1.0227930000000014,0.0,0.0,92957.0,5.75,307.5,839.9999999999999,0.0,0.125,0.8044432770000001,0.01,-0.0012207030000004337,-103014.0,7.375,-330.0,-839.9999999999999,0.0,0.0,0.507812448,0.01,0.0012207030000004337,2325.0,6.75,255.0,839.9999999999999,0.0,0.0,3.333739893,0.01,0.0,-11020.0,4.875,-292.5,-839.9999999999999,0.0,0.25,1.668701001,0.01,-0.009765623999999917,0.05000000074505806,0.7300000190734863,-35.84000015258789,0.092041015625,-0.02935791015625,1.0863037109375,36.560001373291016,0.0,81.0,0.8897857666015625,-0.2311248779296875,Waiting,0.0,0.0,3.0,0.0,0.0,0.0,0.0,0.0,
1.047887999999999,0.0,0.0,92957.0,5.625,345.0,840.0,0.0,0.125,0.808105386,0.01,0.0,-103014.0,7.375,-375.0,-840.0,0.0,0.0,0.505371042,0.01,-0.0012207030000004337,2325.0,7.0,277.5,840.0,0.0,0.0,3.333739893,0.01,0.0,-11083.0,4.75,-367.5,-840.0,0.0,0.25,1.665038892,0.01,-0.009765623999999917,0.05000000074505806,0.8100000023841858,-35.810001373291016,0.108642578125,-0.01513671875,1.00616455078125,36.560001373291016,0.0,85.0,0.89483642578125,-0.2282867431640625,Waiting,0.0,0.0,3.0,0.0,0.0,0.0,0.0,0.0,
1.0724779999999992,0.0,0.0,92957.0,5.75,382.5,840.0,0.0,0.125,0.809326089,0.01,0.0,-103090.0,7.375,-427.5,-840.0,0.0,0.125,0.507812448,0.01,-0.0012207030000004337,2325.0,7.0,337.5,840.0,0.0,0.0,3.333739893,0.01,-0.0012207030000004337,-11083.0,4.625,-397.5,-840.0,0.0,0.25,1.665038892,0.01,-0.004882811999999959,0.029999999329447746,0.9800000190734863,-35.779998779296875,0.20074462890625,0.0364990234375,1.06829833984375,36.560001373291016,0.0,127.0,0.9003448486328125,-0.225128173828125,Waiting,0.0,0.0,3.0,0.0,0.0,0.0,0.0,0.0,
1.1057849999999998,0.0,0.0,93040.0,5.5,465.0,840.0,0.0,0.25,0.809326089,0.01,0.0,-103090.0,6.75,-510.0,-840.0,0.0,0.125,0.507812448,0.01,0.0,2389.0,7.0,382.5,840.0,0.0,0.0,3.333739893,0.01,-0.0012207030000004337,-11083.0,4.375,-450.0,-840.0,0.0,0.25,1.665038892,0.01,-0.004882811999999959,0.03999999910593033,1.1299999952316284,-35.779998779296875,0.08294677734375,0.00482177734375,0.9088134765625,36.560001373291016,0.0,50.0,0.9032745361328125,-0.223358154296875,Waiting,0.0,0.0,3.0,0.0,0.0,0.0,0.0,0.0,
1.1277710000000007,0.0,0.0,93040.0,5.375,510.0,840.0,0.0,0.25,0.808105386,0.01,0.0,-103090.0,6.5,-555.0,-840.0,0.0,0.125,0.507812448,0.01,0.0,2389.0,7.125,420.0,840.0,0.0,0.0,3.34472622,0.01,0.0,-11083.0,4.375,-525.0,-840.0,0.0,0.25,1.6638181890000001,0.01,0.0,0.07000000029802322,1.1399999856948853,-35.79999923706055,0.14794921875,-0.0067138671875,1.13433837890625,36.560001373291016,0.0,106.0,0.9095001220703125,-0.2197265625,Waiting,0.0,0.0,3.0,0.0,0.0,0.0,0.0,0.0,
1.152242000000002,0.0,0.0,93040.0,5.25,547.5,840.0,0.0,0.25,0.809326089,0.01,0.0,-103090.0,6.25,-592.5,-840.0,0.0,0.0,0.507812448,0.01,0.0012207030000004337,2389.0,7.125,435.0,840.0,0.0,0.0,3.33251919,0.01,0.0,-11083.0,4.125,-555.0,-840.0,0.0,0.25,1.6638181890000001,0.01,0.0,0.05999999865889549,1.2699999809265137,-35.810001373291016,0.02032470703125,-0.03515625,0.949462890625,36.529998779296875,0.0,20.0,0.916046142578125,-0.215972900390625,Waiting,0.0,0.0,3.0,0.0,0.0,0.0,0.0,0.0,
1.1745640000000022,0.0,0.0,93040.0,5.0,592.5,840.0,0.0,0.25,0.808105386,0.01,0.0,-103090.0,6.0,-630.0,-840.0,0.0,0.0,0.5017089330000001,0.01,0.0012207030000004337,2389.0,7.25,427.5,840.0,0.0,0.0,3.334960596,0.01,0.0012207030000004337,-11181.0,4.0,-592.5,-840.0,0.0,0.25,1.6638181890000001,0.01,-0.0012207029999999897,0.07000000029802322,1.3600000143051147,-35.810001373291016,0.07080078125,-0.0604248046875,1.07427978515625,36.529998779296875,0.0,72.0,0.9193878173828125,-0.2141265869140625,Waiting,0.0,0.0,3.0,0.0,0.0,0.0,0.0,0.0,
1.2045610000000015,0.0,0.0,93040.0,4.5,660.0,840.0,0.0,0.125,0.8178710100000001,0.01,0.0,-103200.0,5.75,-667.5,-840.0,0.0,0.0,0.506591745,0.01,0.0,2389.0,7.375,427.5,840.0,0.0,0.0,3.333739893,0.01,0.0012207030000004337,-11181.0,3.75,-622.5,-840.0,0.0,0.25,1.6638181890000001,0.01,-0.0012207029999999897,0.05000000074505806,1.4199999570846558,-35.810001373291016,0.16387939453125,0.01513671875,0.99700927734375,36.529998779296875,0.0,104.0,0.9262847900390625,-0.2102508544921875,Waiting,0.0,0.0,3.0,0.0,0.0,0.0,0.0,0.0,
1.227380000000001,0.0,0.0,93154.0,4.25,690.0,840.0,0.0,0.125,0.809326089,0.01,0.0,-103200.0,5.0,-727.5,-840.0,0.0,0.0,0.51269526,0.01,-0.0012207030000004337,2469.0,8.0,480.0,840.0,0.0,0.0,3.333739893,0.01,-0.0012207030000004337,-11181.0,3.5,-690.0,-840.0,0.0,0.25,1.6589353770000002,0.01,0.0,0.09000000357627869,1.5700000524520874,-35.810001373291016,0.07867431640625,0.07305908203125,0.979736328125,36.529998779296875,0.0,0.0,0.93341064453125,-0.205810546875,Waiting,0.0,0.0,3.0,0.0,0.0,0.0,0.0,0.0,
1.2591219999999994,0.0,0.0,93154.0,4.125,720.0,840.0,0.0,0.25,0.808105386,0.01,-0.0012207029999995456,-103200.0,4.625,-750.0,-840.0,0.0,0.125,0.507812448,0.01,-0.0012207030000004337,2469.0,7.875,562.5,840.0,0.0,0.0,3.333739893,0.01,-0.0012207030000004337,-11181.0,3.25,-727.5,-840.0,0.0,0.25,1.6601560800000001,0.01,0.0,0.09000000357627869,1.6200000047683716,-35.79999923706055,-0.01580810546875,0.01763916015625,1.1199951171875,36.529998779296875,0.0,-47.0,0.940643310546875,-0.201263427734375,Waiting,0.0,0.0,3.0,0.0,0.0,0.0,0.0,0.0,
1.3017829999999995,0.0,0.0,93154.0,3.625,780.0,840.0,0.0,0.25,0.809326089,0.01,0.004882811999999959,-103333.0,4.125,-795.0,-840.0,0.0,0.125,0.510253854,0.01,0.0,2469.0,7.0,727.5,840.0,0.0,0.0,3.33251919,0.01,0.0,-11308.0,3.125,-780.0,-840.0,0.0,0.25,1.6638181890000001,0.01,0.0012207029999999897,0.07999999821186066,1.649999976158142,-35.810001373291016,0.16082763671875,-0.03570556640625,0.935546875,36.529998779296875,0.0,130.0,0.94805908203125,-0.1966552734375,Waiting,0.0,0.0,3.0,0.0,0.0,0.0,0.0,0.0,
1.3234110000000001,0.0,0.0,93154.0,3.375,802.5,840.0,0.0,0.25,0.8178710100000001,0.01,0.004882811999999959,-103333.0,3.875,-817.5,-840.0,0.0,0.125,0.507812448,0.01,0.0,2469.0,6.375,772.5,840.0,0.0,0.0,3.334960596,0.01,0.0,-11308.0,3.125,-795.0,-840.0,0.0,0.25,1.6638181890000001,0.01,0.0012207029999999897,0.05999999865889549,1.6299999952316284,-35.79999923706055,-0.01348876953125,0.10894775390625,0.9794921875,36.529998779296875,0.0,-96.0,0.95556640625,-0.19189453125,Waiting,0.0,0.0,3.0,0.0,0.0,0.0,0.0,0.0,
1.3461540000000023,0.0,0.0,93293.0,3.25,825.0,840.0,0.0,0.25,0.8178710100000001,0.01,0.0024414059999999793,-103333.0,3.5,-840.0,-840.0,0.0,0.125,0.507812448,0.01,0.0,2602.0,5.75,810.0,840.0,0.0,0.0,3.333739893,0.01,0.0012207030000004337,-11308.0,2.875,-817.5,-840.0,0.0,0.25,1.665038892,0.01,0.0,0.11999999731779099,1.690000057220459,-35.79999923706055,0.0408935546875,-0.00592041015625,1.1634521484375,36.529998779296875,0.0,10.0,0.9632110595703125,-0.186920166015625,Waiting,0.0,0.0,3.0,0.0,0.0,0.0,0.0,0.0,
1.380290000000001,0.0,0.0,93293.0,2.875,870.0,840.0,0.0,0.25,0.821533119,0.01,0.003662108999999525,-103333.0,3.125,-877.5,-840.0,0.0,0.125,0.507812448,0.01,0.0012207030000004337,2602.0,5.125,855.0,840.0,0.0,0.0,3.334960596,0.01,0.0012207029999995456,-11308.0,2.5,-840.0,-840.0,0.0,0.25,1.6638181890000001,0.01,0.0,0.10999999940395355,1.649999976158142,-35.79999923706055,0.08111572265625,-0.0543212890625,0.99969482421875,36.529998779296875,0.0,75.0,0.970947265625,-0.1819915771484375,Waiting,0.0,0.0,3.0,0.0,0.0,0.0,0.0,0.0,
1.4073539999999993,0.0,0.0,93293.0,2.75,885.0,840.0,0.0,0.25,0.823974525,0.01,0.003662108999999525,-103333.0,2.875,-892.5,-840.0,0.0,0.125,0.507812448,0.01,0.0012207030000004337,2602.0,4.875,862.5,840.0,0.0,0.0,3.333739893,0.01,0.0012207029999995456,-11448.0,2.25,-855.0,-840.0,0.0,0.25,1.6638181890000001,0.01,0.0,0.10999999940395355,1.6799999475479126,-35.79999923706055,-0.02392578125,0.0020751953125,0.89593505859375,36.529998779296875,0.0,-40.0,0.974853515625,-0.1795654296875,Waiting,0.0,0.0,3.0,0.0,0.0,0.0,0.0,0.0,
1.4456039999999994,0.0,0.0,93293.0,2.5,907.5,840.0,0.0,0.25,0.822753822,0.01,-4.9285888909999995,-103482.0,2.375,-922.5,-840.0,0.0,0.0,0.509033151,0.01,0.0,2602.0,4.625,862.5,840.0,0.0,0.0,3.334960596,0.01,-0.0012207029999995456,-11448.0,1.875,-892.5,-840.0,0.0,0.25,1.6638181890000001,0.01,-0.0012207029999999897,0.10999999940395355,1.6699999570846558,-35.79999923706055,0.02001953125,0.111572265625,0.99578857421875,36.529998779296875,0.0,-71.0,0.986053466796875,-0.172332763671875,Waiting,0.0,0.0,3.0,0.0,0.0,0.0,0.0,0.0,
1.4663100000000013,0.0,0.0,93441.0,2.375,915.0,840.0,0.0,0.25,0.822753822,0.01,-4.9285888909999995,-103482.0,2.25,-937.5,-840.0,0.0,0.0,0.507812448,0.01,0.0,2739.0,4.5,855.0,840.0,0.0,0.0,3.338622705,0.01,-0.0012207029999995456,-11448.0,1.875,-907.5,-840.0,0.0,0.25,1.6552732680000002,0.01,-0.0012207029999999897,0.10999999940395355,1.6200000047683716,-35.79999923706055,0.0421142578125,-0.04571533203125,1.0833740234375,36.529998779296875,0.0,37.0,0.9896697998046875,-0.1698455810546875,Waiting,0.0,0.0,3.0,0.0,0.0,0.0,0.0,0.0,
1.4878379999999998,0.0,0.0,93441.0,2.25,922.5,840.0,0.0,0.25,0.820312416,0.01,0.0,-103482.0,2.0,-945.0,-840.0,0.0,0.0,0.507812448,0.01,-0.0012207030000004337,2739.0,4.5,847.5,840.0,0.0,0.0,3.333739893,0.01,0.0,-11448.0,1.625,-922.5,-840.0,0.0,0.25,1.665038892,0.01,0.0,0.12999999523162842,1.600000023841858,-35.810001373291016,0.07257080078125,-0.02239990234375,0.90802001953125,36.529998779296875,0.0,52.0,0.9967193603515625,-0.1650543212890625,Waiting,0.0,0.0,3.0,0.0,0.0,0.0,0.0,0.0,
1.5096850000000013,0.0,0.0,93441.0,2.0,930.0,840.0,0.0,0.25,0.822753822,0.01,0.0,-103482.0,1.875,-945.0,-840.0,0.0,0.125,0.507812448,0.01,-0.0012207030000004337,2739.0,4.375,855.0,840.0,0.0,0.0,3.333739893,0.01,0.0,-11448.0,1.375,-937.5,-840.0,0.0,0.25,1.665038892,0.01,0.0,0.17000000178813934,1.6799999475479126,-35.81999969482422,-0.01263427734375,0.023681640625,1.03997802734375,36.529998779296875,0.0,-46.0,1.0002288818359375,-0.162689208984375,Waiting,0.0,0.0,3.0,0.0,0.0,0.0,0.0,0.0,
1.5271229999999996,0.0,0.0,93441.0,1.875,945.0,840.0,0.0,0.25,0.822753822,0.01,0.0,-103482.0,1.625,-945.0,-840.0,0.0,0.125,0.507812448,0.01,-0.0012207030000004337,2739.0,4.375,870.0,840.0,0.0,0.0,3.333739893,0.01,0.0,-11600.0,1.25,-945.0,-840.0,0.0,0.25,1.6638181890000001,0.01,-0.0012207029999999897,0.17000000178813934,1.4800000190734863,-35.84000015258789,0.0059814453125,0.05133056640625,1.0399169921875,36.529998779296875,0.0,-45.0,1.0072021484375,-0.158111572265625,Waiting,0.0,0.0,3.0,0.0,0.0,0.0,0.0,0.0,
1.5477649999999994,0.0,0.0,93441.0,1.625,952.5,840.0,0.0,0.25,0.822753822,0.01,0.0012207029999999897,-103635.0,1.5,-952.5,-840.0,0.0,0.125,0.507812448,0.01,0.0,2739.0,4.25,877.5,840.0,0.0,0.0,3.339843408,0.01,0.0,-11600.0,1.25,-945.0,-840.0,0.0,0.25,1.6638181890000001,0.01,-0.0012207029999999897,0.1899999976158142,1.4800000190734863,-35.86000061035156,-0.04925537109375,9.1552734375E-4,0.85675048828125,36.529998779296875,0.0,-56.0,1.0106048583984375,-0.1558685302734375,Waiting,0.0,0.0,3.0,0.0,0.0,0.0,0.0,0.0,
1.5665760000000009,0.0,0.0,93441.0,1.5,960.0,840.0000000000001,0.0,0.25,0.820312416,0.01,0.0012207029999999897,-103635.0,1.5,-952.5,-840.0000000000001,0.0,0.125,0.507812448,0.01,0.0,2739.0,4.25,862.5,840.0000000000001,0.0,0.0,3.333739893,0.01,0.0,-11600.0,1.25,-945.0,-840.0000000000001,0.0,0.25,1.6638181890000001,0.01,-0.0012207029999999897,0.2199999988079071,1.5099999904632568,-35.880001068115234,-0.1041259765625,-0.06561279296875,0.8262939453125,36.529998779296875,0.0,-61.0,1.0139312744140625,-0.1537322998046875,Waiting,0.0,0.0,3.0,0.0,0.0,0.0,0.0,0.0,
1.5901670000000012,0.0,0.0,93596.0,1.5,967.5,840.0,0.0,0.25,0.822753822,0.01,0.0,-103635.0,1.375,-952.5,-840.0,0.0,0.125,0.507812448,0.01,0.0012207030000004337,2865.0,4.375,810.0,840.0,0.0,0.0,3.333739893,0.01,-0.0012207030000004337,-11600.0,1.25,-945.0,-840.0,0.0,0.25,1.6625974860000001,0.01,0.0012207029999999897,0.20000000298023224,1.4800000190734863,-35.880001068115234,-0.001220703125,-0.05377197265625,1.1053466796875,36.529998779296875,0.0,9.0,1.0172271728515625,-0.1517333984375,Waiting,0.0,0.0,3.0,0.0,0.0,0.0,0.0,0.0,
1.6075620000000017,0.0,0.0,93596.0,1.25,967.5,840.0,0.0,0.125,0.825195228,0.01,0.0,-103635.0,1.25,-952.5,-840.0,0.0,0.0,0.509033151,0.01,0.0012207030000004337,2865.0,4.625,735.0,840.0,0.0,0.0,3.333739893,0.01,-0.0012207030000004337,-11600.0,1.25,-945.0,-840.0,0.0,0.25,1.665038892,0.01,0.0012207029999999897,0.20999999344348907,1.3700000047683716,-35.90999984741211,-0.04351806640625,-0.06121826171875,1.17315673828125,36.529998779296875,0.0,-19.0,1.0237274169921875,-0.1478271484375,Waiting,0.0,0.0,3.0,0.0,0.0,0.0,0.0,0.0,
1.625790000000001,0.0,0.0,93596.0,1.125,975.0,840.0000000000001,0.0,0.125,0.821533119,0.01,0.0,-103635.0,1.125,-952.5,-840.0000000000001,0.0,0.0,0.507812448,0.01,0.0012207030000004337,2865.0,4.625,735.0,840.0000000000001,0.0,0.0,3.333739893,0.01,-0.0012207030000004337,-11600.0,1.0,-930.0,-840.0000000000001,0.0,0.25,1.665038892,0.01,0.0012207029999999897,0.1599999964237213,1.3799999952316284,-35.939998626708984,-0.01312255859375,-0.0196533203125,0.71466064453125,36.529998779296875,0.0,-11.0,1.026947021484375,-0.1459808349609375,Waiting,0.0,0.0,3.0,0.0,0.0,0.0,0.0,0.0,
1.6494930000000023,0.0,0.0,93596.0,1.125,975.0,840.0,0.0,0.125,0.822753822,0.01,-0.0012207029999999897,-103635.0,1.125,-960.0,-840.0,0.0,0.0,0.507812448,0.01,0.0,2865.0,5.125,667.5,840.0,0.0,0.0,3.333739893,0.01,0.0012207030000004337,-11748.0,1.0,-930.0,-840.0,0.0,0.25,1.665038892,0.01,0.0012207029999999897,0.15000000596046448,1.3600000143051147,-35.959999084472656,0.0184326171875,-0.01318359375,0.92156982421875,36.529998779296875,0.0,6.0,1.026947021484375,-0.1441802978515625,Waiting,0.0,0.0,3.0,0.0,0.0,0.0,0.0,0.0,
1.6669969999999994,0.0,0.0,93596.0,1.125,967.5,840.0,0.0,0.125,0.839843664,4.931976979783874,-0.0012207029999999897,-103789.0,1.0,-960.0,-840.0,0.0,0.0,0.509033151,4.96349422868824,0.0,2865.0,5.75,645.0,840.0,0.0,0.0,3.334960596,4.94012552705129,0.0012207030000004337,-11748.0,1.0,-922.5,-840.0,0.0,0.25,1.6638181890000001,4.957724549251132,0.0012207029999999897,0.20999999344348907,1.3200000524520874,-35.970001220703125,0.07794189453125,0.05865478515625,1.32366943359375,36.529998779296875,0.0,6.0,1.026947021484375,-0.142333984375,Waiting,0.0,0.0,3.0,0.0,0.0,0.0,0.0,0.0,
1.6890090000000018,0.0,0.0,93596.0,0.875,967.5,840.0,0.0,0.125,0.822753822,4.931839943543805,0.0,-103789.0,1.0,-967.5,-840.0,0.0,0.0,0.509033151,4.9633563167333605,0.0,2865.0,6.25,675.0,840.0,0.0,0.0,3.333739893,4.939988264401754,0.0,-11748.0,1.0,-915.0,-840.0,0.0,0.25,1.6638181890000001,4.957586797608269,0.0,0.20000000298023224,1.3200000524520874,-36.0,-0.03302001953125,0.051513671875,1.1788330078125,36.47999954223633,0.0,-76.0,1.0269012451171875,-0.1404266357421875,Waiting,0.0,0.0,3.0,0.0,0.0,0.0,0.0,0.0,
1.7065950000000012,0.0,0.0,93751.0,0.875,967.5,840.0,0.0,0.125,0.821533119,4.931154919135497,0.0,-103789.0,1.0,-967.5,-840.0,0.0,0.0,0.509033151,4.96266691475296,0.0,2995.0,6.375,750.0,840.0,0.0,0.0,3.334960596,4.93930210820516,0.0,-11748.0,1.0,-907.5,-840.0,0.0,0.25,1.6589353770000002,4.95689819700453,0.0,0.2199999988079071,1.3700000047683716,-36.02000045776367,0.0301513671875,0.06304931640625,0.7620849609375,36.47999954223633,0.0,-25.0,1.0267791748046875,-0.13848876953125,Waiting,0.0,0.0,3.0,0.0,0.0,0.0,0.0,0.0,
1.7242050000000018,0.0,0.0,93751.0,0.875,967.5,840.0,0.0,0.25,0.822753822,4.930606878703244,0.0,-103789.0,0.875,-967.5,-840.0,0.0,0.0,0.507812448,4.96211537212944,0.0,2995.0,6.125,832.5,840.0,0.0,0.0,3.333739893,4.93875316230774,0.0,-11748.0,1.0,-907.5,-840.0,0.0,0.25,1.668701001,4.956347295506795,0.0,0.23000000417232513,1.3200000524520874,-36.09000015258789,-0.03369140625,0.022705078125,1.11993408203125,36.47999954223633,0.0,-58.0,1.026611328125,-0.13470458984375,Waiting,0.0,0.0,3.0,0.0,0.0,0.0,0.0,0.0,
1.745362000000001,0.0,0.0,93751.0,0.875,967.5,840.0,0.0,0.25,0.822753822,4.930195874511062,0.0012207029999999897,-103789.0,0.75,-967.5,-840.0,0.0,0.0,0.507812448,4.9617017414608,0.0,2995.0,5.625,900.0,840.0,0.0,0.0,3.333739893,4.938341479059855,0.0,-11748.0,1.0,-907.5,-840.0,0.0,0.25,1.6552732680000002,4.9559341456519235,-0.004882811999999959,0.2199999988079071,1.2699999809265137,-36.11000061035156,-0.068115234375,-0.01953125,1.13848876953125,36.47999954223633,0.0,-61.0,1.026458740234375,-0.132904052734375,Waiting,0.0,0.0,3.0,0.0,0.0,0.0,0.0,0.0,
1.7641130000000012,0.0,0.0,93751.0,0.75,967.5,840.0,0.0,0.25,0.821533119,4.929921854294936,0.0012207029999999897,-103789.0,0.75,-967.5,-840.0,0.0,0.0,0.520019478,4.96142597014904,0.0,2995.0,5.125,937.5,840.0,0.0,0.0,3.333739893,4.938067006111146,0.0,-11894.0,1.0,-907.5,-840.0,0.0,0.25,1.6552732680000002,4.955658694903056,-0.004882811999999959,0.20000000298023224,1.2799999713897705,-36.119998931884766,0.00543212890625,0.00518798828125,1.010986328125,36.47999954223633,0.0,-14.0,1.0262603759765625,-0.1311492919921875,Waiting,0.0,0.0,3.0,0.0,0.0,0.0,0.0,0.0,
1.7806559999999991,0.0,0.0,93751.0,0.75,967.5,840.0,0.0,0.25,0.821533119,4.929784870318879,0.0,-103944.0,0.625,-967.5,-840.0,0.0,0.0,0.507812448,4.96128811079216,0.0,2995.0,4.625,945.0,840.0,0.0,0.0,3.333739893,4.9379297958119714,0.0,-11894.0,1.0,-907.5,-840.0,0.0,0.25,1.64794905,4.955520995797051,-0.004882811999999959,0.17000000178813934,1.2699999809265137,-36.13999938964844,-0.08172607421875,0.0128173828125,0.8985595703125,36.47999954223633,0.0,-88.0,1.02581787109375,-0.1278076171875,Waiting,0.0,0.0,3.0,0.0,0.0,0.0,0.0,0.0,
1.8014360000000016,0.0,0.0,93751.0,0.75,975.0,840.0,0.0,0.25,0.822753822,4.929510850102753,0.0,-103944.0,0.625,-960.0,-840.0,0.0,0.0,0.507812448,4.9610123394804,0.0,2995.0,4.25,937.5,840.0,0.0,0.0,3.331298487,4.937655322863261,0.0,-11894.0,1.0,-907.5,-840.0,0.0,0.25,1.644286941,4.955245545048184,-0.004882811999999959,0.18000000715255737,1.2300000190734863,-36.150001525878906,-0.01397705078125,-0.17413330078125,0.78741455078125,36.47999954223633,0.0,79.0,1.0255889892578125,-0.126312255859375,Waiting,0.0,0.0,3.0,0.0,0.0,0.0,0.0,0.0,
1.817958999999999,0.0,0.0,93751.0,0.75,975.0,840.0,0.0,0.25,0.822753822,4.929373813862684,0.0,-103944.0,0.625,-960.0,-840.0,0.0,0.0,0.507812448,4.96087442752552,0.0,3142.0,4.25,922.5,840.0,0.0,0.0,3.333739893,4.937518060213725,0.0,-11894.0,1.0,-907.5,-840.0,0.0,0.25,1.643066238,4.955107793405321,-0.004882811999999959,0.17000000178813934,1.2000000476837158,-36.13999938964844,-0.02252197265625,-0.01123046875,1.0777587890625,36.47999954223633,0.0,-27.0,1.0253753662109375,-0.1249542236328125,Waiting,0.0,0.0,3.0,0.0,0.0,0.0,0.0,0.0,
1.8405040000000008,0.0,0.0,93907.0,0.75,967.5,840.0,0.0,0.25,0.822753822,4.929510850102753,0.0,-103944.0,0.5,-952.5,-840.0,0.0,0.0,0.506591745,4.9610123394804,0.0,3142.0,4.25,892.5,840.0,0.0,0.0,3.330077784,4.937655322863261,-0.0012207030000004337,-11894.0,1.0,-907.5,-840.0,0.0,0.25,1.639404129,4.955245545048184,-0.00976562400000014,0.18000000715255737,1.190000057220459,-36.13999938964844,0.01068115234375,0.10113525390625,1.2037353515625,36.47999954223633,0.0,-69.0,1.0251007080078125,-0.123565673828125,Waiting,0.0,0.0,3.0,0.0,0.0,0.0,0.0,0.0,
1.8574660000000003,0.0,0.0,93907.0,0.5,960.0,840.0,0.0,0.25,0.822753822,4.929373813862684,0.0,-103944.0,0.5,-952.5,-840.0,0.0,0.0,0.507812448,4.96087442752552,0.0,3142.0,4.25,892.5,840.0,0.0,0.0,3.334960596,4.937518060213725,-0.0012207030000004337,-11894.0,0.75,-900.0,-840.0,0.0,0.25,1.638183426,4.955107793405321,-0.00976562400000014,0.2199999988079071,1.1799999475479126,-36.150001525878906,-0.0679931640625,0.0242919921875,1.02886962890625,36.47999954223633,0.0,-84.0,1.024200439453125,-0.120574951171875,Waiting,0.0,0.0,3.0,0.0,0.0,0.0,0.0,0.0,
1.8786219999999993,0.0,0.0,93907.0,0.5,952.5,840.0,0.0,0.25,0.822753822,4.929373813862684,0.0,-103944.0,0.5,-945.0,-840.0,0.0,0.0,0.507812448,4.96087442752552,0.0,3142.0,4.375,840.0,840.0,0.0,0.0,3.333739893,4.937518060213725,-0.0012207030000004337,-11894.0,0.75,-900.0,-840.0,0.0,0.25,1.6345213170000001,4.955107793405321,-0.004882811999999959,0.1899999976158142,1.149999976158142,-36.150001525878906,-0.00616455078125,0.01275634765625,0.737060546875,36.47999954223633,0.0,-23.0,1.02362060546875,-0.119110107421875,Waiting,0.0,0.0,3.0,0.0,0.0,0.0,0.0,0.0,
1.899601999999999,0.0,0.0,93907.0,0.5,945.0,840.0,0.0,0.25,0.822753822,4.929373813862684,-0.0012207029999999897,-104093.0,0.5,-937.5,-840.0,0.0,0.0,0.507812448,4.96087442752552,-0.0012207030000004337,3142.0,4.75,765.0,840.0,0.0,0.0,3.333739893,4.937518060213725,0.0,-12044.0,0.75,-915.0,-840.0,0.0,0.25,1.639404129,4.955107793405321,-0.004882811999999959,0.1899999976158142,1.1399999856948853,-36.13999938964844,0.0357666015625,-0.03826904296875,0.93353271484375,36.47999954223633,0.0,38.0,1.023040771484375,-0.117645263671875,Waiting,0.0,0.0,3.0,0.0,0.0,0.0,0.0,0.0,
1.917630000000001,0.0,0.0,93907.0,0.5,945.0,840.0,0.0,0.25,0.822753822,4.929236829886627,-0.0012207029999999897,-104093.0,0.5,-937.5,-840.0,0.0,0.0,0.507812448,4.96073656816864,-0.0012207030000004337,3142.0,5.125,675.0,840.0,0.0,0.0,3.328857081,4.937380849914551,0.0,-12044.0,0.625,-937.5,-840.0,0.0,0.25,1.640624832,4.954970094299316,-0.004882811999999959,0.18000000715255737,1.1200000047683716,-36.15999984741211,-0.10711669921875,0.0623779296875,1.1038818359375,36.47999954223633,0.0,-138.0,1.021697998046875,-0.1149444580078125,Waiting,0.0,0.0,3.0,0.0,0.0,0.0,0.0,0.0,
1.9407340000000004,0.0,0.0,94059.0,0.5,945.0,840.0,0.0,0.25,0.822753822,4.929236829886627,0.0012207029999999897,-104093.0,0.5,-922.5,-840.0,0.0,0.0,0.506591745,4.96073656816864,0.0012207030000004337,3227.0,6.0,592.5,840.0,0.0,0.0,3.337402002,4.937380849914551,0.0,-12044.0,0.625,-952.5,-840.0,0.0,0.25,1.639404129,4.954970094299316,0.0,0.14000000059604645,1.1699999570846558,-36.16999816894531,0.022216796875,-0.0477294921875,0.74542236328125,36.47999954223633,0.0,34.0,1.0208892822265625,-0.113677978515625,Waiting,0.0,0.0,3.0,0.0,0.0,0.0,0.0,0.0,
1.95809,0.0,0.0,94059.0,0.5,945.0,840.0,0.0,0.25,0.822753822,4.929099845910571,0.0012207029999999897,-104093.0,0.5,-922.5,-840.0,0.0,0.0,0.507812448,4.96059870881176,0.0012207030000004337,3227.0,7.125,532.5,840.0,0.0,0.0,3.333739893,4.937243639615377,0.0,-12044.0,0.625,-967.5,-840.0,0.0,0.25,1.639404129,4.9548323951933115,0.0,0.14000000059604645,1.0499999523162842,-36.18000030517578,0.06939697265625,0.04229736328125,0.80615234375,36.47999954223633,0.0,20.0,1.020111083984375,-0.1123809814453125,Waiting,0.0,0.0,3.0,0.0,0.0,0.0,0.0,0.0,
1.9780770000000012,0.0,0.0,94059.0,0.5,945.0,840.0,0.0,0.25,0.820312416,4.928551805478318,0.0012207029999999897,-104093.0,0.5,-915.0,-840.0,0.0,0.0,0.5029296360000001,4.96004716618824,0.0012207030000004337,3227.0,8.0,517.5,840.0,0.0,0.0,3.333739893,4.936694693717957,0.0,-12044.0,0.625,-975.0,-840.0,0.0,0.25,1.640624832,4.954281493695577,0.0,0.20000000298023224,0.949999988079071,-36.22999954223633,-0.0819091796875,0.02593994140625,1.23382568359375,36.47999954223633,0.0,-95.0,1.0185699462890625,-0.109893798828125,Waiting,0.0,0.0,3.0,0.0,0.0,0.0,0.0,0.0,
1.997992000000002,0.0,0.0,94059.0,0.5,945.0,840.0,0.0,0.25,0.822753822,4.928277785262193,-0.0012207029999999897,-104093.0,0.5,-907.5,-840.0,0.0,0.0,0.51269526,4.95977139487648,0.0,3227.0,8.875,525.0,840.0,0.0,0.0,3.333739893,4.9364202207692465,0.0,-12044.0,0.625,-967.5,-840.0,0.0,0.25,1.640624832,4.95400604294671,0.0,0.20000000298023224,1.0399999618530273,-36.27000045776367,-0.0472412109375,-0.01263427734375,0.88482666015625,36.47999954223633,0.0,-41.0,1.0176849365234375,-0.1087646484375,Waiting,0.0,0.0,3.0,0.0,0.0,0.0,0.0,0.0,
2.017060000000001,0.0,0.0,94059.0,0.5,945.0,840.0,0.0,0.125,0.822753822,4.927729744829941,-0.0012207029999999897,-104093.0,0.5,-900.0,-840.0,0.0,0.0,0.507812448,4.959219852252961,0.0,3227.0,9.25,547.5,840.0,0.0,0.0,3.33251919,4.935871274871826,0.0,-12198.0,0.375,-960.0,-840.0,0.0,0.25,1.639404129,4.953455141448974,0.0,0.17000000178813934,1.100000023841858,-36.310001373291016,0.1475830078125,0.0230712890625,0.79486083984375,36.47999954223633,0.0,94.0,1.0168304443359375,-0.1075897216796875,Waiting,0.0,0.0,3.0,0.0,0.0,0.0,0.0,0.0,
2.0398070000000006,0.0,0.0,94059.0,0.375,945.0,840.0,0.0,0.125,0.823974525,4.926496679989381,0.0012207029999999897,-104236.0,0.5,-892.5,-840.0,0.0,0.0,0.507812448,4.95797890764904,0.0,3227.0,9.625,562.5,840.0,0.0,0.0,3.333739893,4.934636172777812,0.0012207030000004337,-12198.0,0.375,-952.5,-840.0,0.0,0.25,1.639404129,4.9522156393475,-0.0012207029999999897,0.2199999988079071,0.9100000262260437,-36.38999938964844,-0.11431884765625,0.0318603515625,1.2462158203125,36.47999954223633,0.0,-124.0,1.01495361328125,-0.1052093505859375,Waiting,0.0,0.0,3.0,0.0,0.0,0.0,0.0,0.0,
2.060191999999999,0.0,0.0,94059.0,0.375,937.5,840.0,0.0,0.125,0.822753822,4.926085675797197,0.0012207029999999897,-104236.0,0.375,-892.5,-840.0,0.0,0.0,0.509033151,4.9575652769804,0.0,3327.0,10.0,577.5,840.0,0.0,0.0,3.333739893,4.934224489529928,0.0012207030000004337,-12198.0,0.375,-945.0,-840.0,0.0,0.25,1.639404129,4.9518024894926285,-0.0012207029999999897,0.1899999976158142,0.9700000286102295,-36.43000030517578,0.07257080078125,-6.103515625E-5,1.06439208984375,36.47999954223633,0.0,46.0,1.013885498046875,-0.1040802001953125,Waiting,0.0,0.0,3.0,0.0,0.0,0.0,0.0,0.0,
2.0780560000000006,0.0,0.0,94207.0,0.375,930.0,840.0,0.0,0.125,0.823974525,4.925537635364946,0.0012207029999999897,-104236.0,0.375,-907.5,-840.0,0.0,0.0,0.507812448,4.95701373435688,0.0,3327.0,10.0,607.5,840.0,0.0,0.0,3.333739893,4.933675543632508,0.0012207030000004337,-12198.0,0.375,-945.0,-840.0,0.0,0.25,1.639404129,4.951251587994894,0.0012207029999999897,0.17000000178813934,1.0,-36.529998779296875,-0.0238037109375,0.0911865234375,0.92095947265625,36.47999954223633,0.0,-84.0,1.01177978515625,-0.1016845703125,Waiting,0.0,0.0,3.0,0.0,0.0,0.0,0.0,0.0,
2.0991640000000005,0.0,0.0,94207.0,0.375,922.5,840.0000000000001,0.0,0.25,0.822753822,4.924167586548329,-0.0012207029999999897,-104236.0,0.25,-922.5,-840.0000000000001,0.0,0.0,0.507812448,4.95563493039608,0.0,3327.0,10.0,667.5,840.0000000000001,0.0,0.0,3.333739893,4.932303231239319,-0.0012207030000004337,-12198.0,0.375,-945.0,-840.0000000000001,0.0,0.25,1.639404129,4.949874386787415,0.0012207029999999897,0.18000000715255737,0.8899999856948853,-36.630001068115234,0.03192138671875,-0.1043701171875,1.12921142578125,36.47999954223633,0.0,75.0,1.0095672607421875,-0.0994110107421875,Waiting,0.0,0.0,3.0,0.0,0.0,0.0,0.0,0.0,
2.1299799999999998,0.0,0.0,94207.0,0.375,907.5,840.0,0.0,0.125,0.822753822,4.922797485467699,-0.0012207029999999897,-104236.0,0.25,-960.0,-840.0,0.0,0.125,0.509033151,4.95425607383728,0.0,3327.0,9.125,847.5,840.0,0.0,0.0,3.333739893,4.9309308664957685,0.0,-12351.0,0.375,-945.0,-840.0,0.0,0.25,1.640624832,4.948497133043078,0.0,0.1599999964237213,0.8799999952316284,-36.68000030517578,-0.11041259765625,0.1015625,1.1201171875,36.47999954223633,0.0,-161.0,1.0084228515625,-0.0983734130859375,Waiting,0.0,0.0,3.0,0.0,0.0,0.0,0.0,0.0,
2.150494999999999,0.0,0.0,94207.0,0.375,922.5,840.0,0.0,0.125,0.823974525,4.92211246105939,0.0012207029999999897,-104392.0,0.25,-967.5,-840.0,0.0,0.125,0.507812448,4.95356667185688,0.0,3327.0,9.125,847.5,840.0,0.0,0.0,3.333739893,4.930244710299174,0.0,-12351.0,0.375,-952.5,-840.0,0.0,0.25,1.640624832,4.947808532439338,0.0,0.1899999976158142,0.8700000047683716,-36.7400016784668,-0.001953125,0.02001953125,1.11737060546875,36.47999954223633,0.0,-24.0,1.0071563720703125,-0.0973358154296875,Waiting,0.0,0.0,3.0,0.0,0.0,0.0,0.0,0.0,
2.16943,0.0,0.0,94207.0,0.375,922.5,840.0,0.0,0.125,0.822753822,4.920742412242773,0.0012207029999999897,-104392.0,0.25,-967.5,-840.0,0.0,0.125,0.507812448,4.95218786789608,0.0,3327.0,8.375,930.0,840.0,0.0,0.0,3.333739893,4.928872397905986,0.0,-12351.0,0.375,-952.5,-840.0,0.0,0.25,1.639404129,4.946431331231859,0.0,0.17000000178813934,0.7799999713897705,-36.83000183105469,-0.04638671875,0.028076171875,0.73309326171875,36.47999954223633,0.0,-60.0,1.004486083984375,-0.0973358154296875,Waiting,0.0,0.0,3.0,0.0,0.0,0.0,0.0,0.0,
2.1901320000000015,0.0,0.0,94364.0,0.375,945.0,840.0,0.0,0.125,0.822753822,4.920057335570452,-0.0012207029999999897,-104392.0,0.125,-960.0,-840.0,0.0,0.125,0.507812448,4.9514984133176805,0.0,3489.0,7.5,982.5,840.0,0.0,0.0,3.3215328630000003,4.928186189359029,0.0,-12351.0,0.375,-952.5,-840.0,0.0,0.25,1.639404129,4.9457426780912614,0.0,0.20000000298023224,0.7200000286102295,-36.880001068115234,-0.0091552734375,-0.0457763671875,1.29345703125,36.400001525878906,0.0,9.0,1.003082275390625,-0.097381591796875,Waiting,0.0,0.0,3.0,0.0,0.0,0.0,0.0,0.0,
2.207325000000001,0.0,0.0,94364.0,0.125,967.5,840.0,0.0,0.25,0.821533119,4.919372311162143,-0.0012207029999999897,-104392.0,0.125,-960.0,-840.0,0.0,0.125,0.507812448,4.95080901133728,0.0,3489.0,6.75,1012.5,840.0,0.0,0.0,3.336181299,4.927500033162435,0.0,-12351.0,0.375,-952.5,-840.0,0.0,0.25,1.640624832,4.945054077487522,0.0,0.1599999964237213,0.7400000095367432,-36.91999816894531,-0.11126708984375,0.0684814453125,1.16314697265625,36.400001525878906,0.0,-140.0,1.0016021728515625,-0.0974884033203125,Waiting,0.0,0.0,3.0,0.0,0.0,0.0,0.0,0.125,
2.2257400000000014,0.0,0.0,94364.0,0.125,990.0,840.0,0.0,0.25,0.822753822,4.9188243229939035,-0.0012207029999999897,-104392.0,0.125,-952.5,-840.0,0.0,0.125,0.507812448,4.95025752131176,0.0,3489.0,6.375,1020.0,840.0,0.0,0.0,3.343505517,4.926951139615377,0.0,-12351.0,0.375,-945.0,-840.0,0.0,0.25,1.640624832,4.944503228526645,0.0,0.14000000059604645,0.7400000095367432,-36.970001220703125,-0.0506591796875,-0.0838623046875,0.9632568359375,36.400001525878906,0.0,1.0,1.0000152587890625,-0.097686767578125,Waiting,0.0,0.0,3.0,0.0,0.0,0.0,0.0,0.125,
2.246142,0.0,0.0,94364.0,0.375,997.5,840.0,0.0,0.25,0.822753822,4.917591258153343,0.0012207029999999897,-104392.0,0.125,-952.5,-840.0,0.0,0.125,0.507812448,4.94901657670784,-0.0012207030000004337,3489.0,6.0,1020.0,840.0,0.0,0.0,3.333739893,4.9257160375213624,0.0,-12501.0,0.375,-930.0,-840.0,0.0,0.25,1.640624832,4.943263726425171,0.0,0.10000000149011612,0.6299999952316284,-37.0099983215332,-0.0250244140625,-0.04833984375,0.88470458984375,36.400001525878906,0.0,2.0,0.9984283447265625,-0.097991943359375,Waiting,0.0,0.0,3.0,0.0,0.0,0.0,0.0,0.125,
2.2637370000000008,0.0,0.0,94364.0,0.375,1005.0,840.0,0.0,0.25,0.822753822,4.916906181481022,0.0012207029999999897,-104544.0,0.125,-945.0,-840.0,0.0,0.125,0.507812448,4.948327122129441,-0.0012207030000004337,3489.0,5.75,1012.5,840.0,0.0,0.0,3.333739893,4.925029828974406,0.0,-12501.0,0.375,-930.0,-840.0,0.0,0.25,1.639404129,4.942575073284573,0.0,0.09000000357627869,0.5400000214576721,-37.099998474121094,0.00970458984375,-0.05322265625,1.00518798828125,36.400001525878906,0.0,33.0,0.9951629638671875,-0.098876953125,Waiting,0.0,0.0,3.0,0.0,0.0,0.0,0.0,0.125,
2.2814449999999997,0.0,0.0,94364.0,0.375,997.5,840.0,0.0,0.25,0.822753822,4.916358193312783,-0.0012207029999999897,-104544.0,0.125,-945.0,-840.0,0.0,0.125,0.507812448,4.94777563210392,-0.0012207030000004337,3489.0,5.625,1012.5,840.0,0.0,0.0,3.333739893,4.924480935427348,0.0012207030000004337,-12501.0,0.375,-922.5,-840.0,0.0,0.25,1.639404129,4.9420242243236965,0.0,0.07999999821186066,0.6100000143051147,-37.13999938964844,-0.04351806640625,-0.02862548828125,0.91448974609375,36.400001525878906,0.0,-24.0,0.9935302734375,-0.0994415283203125,Waiting,0.0,0.0,3.0,0.0,0.0,0.0,0.0,0.125,
2.3040750000000005,0.0,0.0,94520.0,0.375,982.5,840.0,0.0,0.25,0.821533119,4.915810152880531,-0.0012207029999999897,-104544.0,0.125,-945.0,-840.0,0.0,0.125,0.507812448,4.9472240894804,0.0,3650.0,5.5,1005.0,840.0,0.0,0.0,3.333739893,4.923931989529928,0.0012207030000004337,-12501.0,0.375,-922.5,-840.0,0.0,0.25,1.639404129,4.941473322825962,0.0,0.05999999865889549,0.5,-37.18000030517578,-0.06231689453125,-0.0120849609375,1.093505859375,36.400001525878906,0.0,-49.0,0.9918365478515625,-0.1000823974609375,Waiting,0.0,0.0,3.0,0.0,0.0,0.0,0.0,0.0,
2.322221000000001,0.0,0.0,94520.0,0.375,975.0,840.0000000000001,0.0,0.25,0.821533119,4.914714072016028,-0.0012207029999999897,-104544.0,0.125,-937.5,-840.0000000000001,0.0,0.125,0.509033151,4.94612100423336,0.0,3650.0,5.375,997.5,840.0000000000001,0.0,0.0,3.33251919,4.9228340977350875,0.0012207030000004337,-12501.0,0.375,-922.5,-840.0000000000001,0.0,0.25,1.639404129,4.940371519830491,0.0,0.07000000029802322,0.4000000059604645,-37.25,-0.064208984375,0.01654052734375,0.85186767578125,36.400001525878906,0.0,-65.0,0.988250732421875,-0.101654052734375,Waiting,0.0,0.0,3.0,0.0,0.0,0.0,0.0,0.0,
2.343085999999999,0.0,0.0,94520.0,0.375,967.5,840.0,0.0,0.25,0.822753822,4.914303067823845,0.0,-104544.0,0.125,-922.5,-840.0,0.0,0.125,0.507812448,4.94570737356472,0.0,3650.0,5.375,990.0,840.0,0.0,0.0,3.333739893,4.922422414487203,0.0,-12501.0,0.375,-922.5,-840.0,0.0,0.25,1.639404129,4.93995836997562,0.0012207029999999897,0.05000000074505806,0.4399999976158142,-37.279998779296875,0.10589599609375,-0.010009765625,0.8717041015625,36.400001525878906,0.0,85.0,0.9864349365234375,-0.1024627685546875,Waiting,0.0,0.0,3.0,0.0,0.0,0.0,0.0,0.0,
2.3607299999999998,0.0,0.0,94520.0,0.375,952.5,840.0,0.0,0.25,0.822753822,4.913892063631662,0.0,-104544.0,0.125,-915.0,-840.0,0.0,0.125,0.51269526,4.94529374289608,0.0,3650.0,5.375,990.0,840.0,0.0,0.0,3.333739893,4.922010731239319,0.0,-12501.0,0.375,-915.0,-840.0,0.0,0.25,1.639404129,4.939545220120748,0.0012207029999999897,0.05999999865889549,0.36000001430511475,-37.29999923706055,-0.14306640625,-0.002685546875,0.9521484375,36.400001525878906,0.0,-116.0,0.9846038818359375,-0.103302001953125,Waiting,0.0,0.0,3.0,0.0,0.0,0.0,0.0,0.0,
2.3783140000000023,0.0,0.0,94520.0,0.375,952.5,840.0,0.0,0.25,0.822753822,4.913618043415536,0.0,-104544.0,0.125,-915.0,-840.0,0.0,0.125,0.507812448,4.9450179715843205,0.0,3650.0,5.25,982.5,840.0,0.0,0.0,3.333739893,4.921736258290609,0.0,-12646.0,0.375,-915.0,-840.0,0.0,0.25,1.639404129,4.93926976937188,-0.0012207029999999897,0.05000000074505806,0.23999999463558197,-37.34000015258789,-0.11505126953125,0.04339599609375,1.1573486328125,36.400001525878906,0.0,-120.0,0.98260498046875,-0.104248046875,Waiting,0.0,0.0,3.0,0.0,0.0,0.0,0.0,0.0,
2.397763999999999,0.0,0.0,94520.0,0.375,937.5,840.0,0.0,0.25,0.822753822,4.912795982767158,0.0,-104688.0,0.125,-907.5,-840.0,0.0,0.125,0.507812448,4.94419065764904,0.0012207030000004337,3650.0,5.25,975.0,840.0,0.0,0.0,3.33251919,4.920912839444479,-0.0012207030000004337,-12646.0,0.375,-907.5,-840.0,0.0,0.25,1.640624832,4.938443417125278,-0.0012207029999999897,0.019999999552965164,0.28999999165534973,-37.38999938964844,0.0252685546875,0.13372802734375,0.984130859375,36.400001525878906,0.0,-64.0,0.978546142578125,-0.106231689453125,Waiting,0.0,0.0,3.0,0.0,0.0,0.0,0.0,0.0,
2.4179269999999997,0.0,0.0,94520.0,0.375,930.0,840.0,0.0,0.25,0.822753822,4.912384978574975,0.0,-104688.0,0.125,-900.0,-840.0,0.0,0.125,0.507812448,4.9437770269804,0.0012207030000004337,3802.0,5.25,960.0,840.0,0.0,0.0,3.333739893,4.920501156196594,-0.0012207030000004337,-12646.0,0.375,-907.5,-840.0,0.0,0.25,1.640624832,4.938030267270406,-0.0012207029999999897,0.07999999821186066,0.23000000417232513,-37.40999984741211,-0.0888671875,-0.02496337890625,1.14776611328125,36.400001525878906,0.0,-58.0,0.9764404296875,-0.107177734375,Waiting,0.0,0.0,3.0,0.0,0.0,0.0,0.0,0.0,
2.4390790000000013,0.0,0.0,94666.0,0.375,922.5,840.0,0.0,0.25,0.822753822,4.912110958358849,0.0012207029999999897,-104688.0,0.125,-892.5,-840.0,0.0,0.125,0.507812448,4.94350125566864,0.0,3802.0,5.375,952.5,840.0,0.0,0.0,3.333739893,4.9202266832478845,0.0,-12646.0,0.375,-892.5,-840.0,0.0,0.25,1.640624832,4.937754816521538,0.0,0.07000000029802322,0.15000000596046448,-37.47999954223633,-0.0169677734375,-0.0367431640625,1.03448486328125,36.400001525878906,0.0,7.0,0.97430419921875,-0.1093292236328125,Waiting,0.0,0.0,3.0,0.0,0.0,0.0,0.0,0.0,
2.458226999999999,0.0,0.0,94666.0,0.375,915.0,840.0000000000001,0.0,0.25,0.811767495,4.911151913734415,0.0012207029999999897,-104688.0,0.125,-885.0,-840.0000000000001,0.0,0.125,0.507812448,4.94253608237648,0.0,3802.0,5.375,937.5,840.0000000000001,0.0,0.0,3.333739893,4.91926605410258,0.0,-12646.0,0.375,-885.0,-840.0000000000001,0.0,0.25,1.649169753,4.936790765168932,0.0,0.05000000074505806,0.17000000178813934,-37.5099983215332,-0.03485107421875,0.07843017578125,0.8719482421875,36.400001525878906,0.0,-77.0,0.9742584228515625,-0.1104278564453125,Waiting,0.0,0.0,3.0,0.0,0.0,0.0,0.0,0.0,
2.477933000000001,0.0,0.0,94666.0,0.375,907.5,840.0,0.0,0.25,0.822753822,4.910740909542232,0.0012207029999999897,-104688.0,0.125,-885.0,-840.0,0.0,0.125,0.507812448,4.94212245170784,0.0,3802.0,5.375,930.0,840.0,0.0,0.0,3.333739893,4.918854370854696,0.0,-12646.0,0.375,-877.5,-840.0,0.0,0.25,1.639404129,4.9363776153140595,0.0,0.07999999821186066,0.15000000596046448,-37.54999923706055,0.01385498046875,0.06298828125,1.056640625,36.400001525878906,0.0,-28.0,0.974151611328125,-0.111480712890625,Waiting,0.0,0.0,3.0,0.0,0.0,0.0,0.0,0.0,
2.4992659999999995,0.0,0.0,94666.0,0.375,900.0,840.0,0.0,0.25,0.822753822,4.910192869109981,0.0,-104828.0,0.125,-885.0,-840.0,0.0,0.125,0.509033151,4.94157090908432,0.0,3802.0,5.25,930.0,840.0,0.0,0.0,3.33251919,4.918305424957276,0.0,-12783.0,0.375,-862.5,-840.0,0.0,0.25,1.641845535,4.935826713816325,0.0,0.09000000357627869,0.05000000074505806,-37.619998931884766,-0.12322998046875,0.09136962890625,0.8795166015625,36.400001525878906,0.0,-153.0,0.9736480712890625,-0.113616943359375,Waiting,0.0,0.0,3.0,0.0,0.0,0.0,0.0,0.0,
2.517981,0.0,0.0,94666.0,0.375,900.0,840.0,0.0,0.25,0.821533119,4.909233824485546,0.0,-104828.0,0.125,-877.5,-840.0,0.0,0.125,0.509033151,4.94060573579216,0.0,3802.0,5.25,922.5,840.0,0.0,0.0,3.331298487,4.917344795811971,0.0,-12783.0,0.375,-855.0,-840.0,0.0,0.25,1.639404129,4.934862662463718,0.0,0.10999999940395355,0.0,-37.65999984741211,-0.06036376953125,-0.0701904296875,0.89178466796875,36.400001525878906,0.0,-3.0,0.973236083984375,-0.1147613525390625,Waiting,0.0,0.0,3.0,0.0,0.0,0.0,0.0,0.0,
2.539630000000001,0.0,0.0,94666.0,0.375,892.5,840.0,0.0,0.25,0.822753822,4.9086857840532945,-0.0012207029999999897,-104828.0,0.125,-862.5,-840.0,0.0,0.125,0.509033151,4.94005419316864,0.0,3950.0,5.25,922.5,840.0,0.0,0.0,3.333739893,4.916795849914551,0.0,-12783.0,0.375,-847.5,-840.0,0.0,0.25,1.640624832,4.934311760965983,0.0,0.10000000149011612,-0.009999999776482582,-37.709999084472656,0.01141357421875,-0.06475830078125,0.95452880859375,36.400001525878906,0.0,49.0,0.97283935546875,-0.1160125732421875,Waiting,0.0,0.0,3.0,0.0,0.0,0.0,0.0,0.0,
2.5572920000000012,0.0,0.0,94809.0,0.375,885.0,840.0,0.0,0.25,0.821533119,4.9080007596449855,-0.0012207029999999897,-104828.0,0.125,-855.0,-840.0,0.0,0.125,0.506591745,4.93936479118824,0.0,3950.0,5.125,915.0,840.0,0.0,0.0,3.333739893,4.9161096937179565,0.0,-12783.0,0.375,-847.5,-840.0,0.0,0.25,1.639404129,4.933623160362243,0.0,0.12999999523162842,0.019999999552965164,-37.7599983215332,-0.03265380859375,0.08380126953125,1.18359375,36.400001525878906,0.0,-75.0,0.9724273681640625,-0.1172637939453125,Waiting,0.0,0.0,3.0,0.0,0.0,0.0,0.0,0.0,
2.577697,0.0,0.0,94809.0,0.375,885.0,840.0,0.0,0.375,0.8288573370000001,4.906767694804425,-0.0012207029999999897,-104828.0,0.125,-847.5,-840.0,0.0,0.125,0.509033151,4.93812384658432,0.0,3950.0,5.125,915.0,840.0,0.0,0.0,3.333739893,4.914874591623942,0.0,-12783.0,0.375,-847.5,-840.0,0.0,0.25,1.639404129,4.932383658260769,0.0,0.10999999940395355,-0.029999999329447746,-37.86000061035156,-0.0670166015625,0.0166015625,0.878662109375,36.400001525878906,0.0,-61.0,0.971343994140625,-0.1198883056640625,Waiting,0.0,0.0,3.0,0.0,0.0,0.0,0.0,0.0,
2.597780999999999,0.0,0.0,94809.0,0.125,885.0,840.0,0.0,0.25,0.821533119,4.905945634156047,0.0012207029999999897,-104828.0,0.25,-832.5,-840.0,0.0,0.125,0.507812448,4.93729653264904,0.0,3950.0,5.125,907.5,840.0,0.0,0.0,3.33251919,4.914051172777812,0.0,-12783.0,0.375,-840.0,-840.0,0.0,0.25,1.6369627230000001,4.931557306014167,0.0,0.11999999731779099,-0.11999999731779099,-37.900001525878906,-0.04071044921875,0.05194091796875,0.90399169921875,36.400001525878906,0.0,-61.0,0.9706878662109375,-0.121246337890625,Waiting,0.0,0.0,3.0,0.0,0.0,0.0,0.0,0.0,
2.6187829999999996,0.0,0.0,94809.0,0.125,877.5,840.0,0.0,0.25,0.822753822,4.905397593723795,0.0012207029999999897,-104961.0,0.25,-832.5,-840.0,0.0,0.25,0.507812448,4.93674499002552,0.0,3950.0,5.25,900.0,840.0,0.0,0.0,3.33251919,4.913502226880392,0.0,-12917.0,0.375,-832.5,-840.0,0.0,0.25,1.639404129,4.931006404516432,0.0,0.17000000178813934,-0.07999999821186066,-38.0,-0.0897216796875,-0.00390625,1.12689208984375,36.400001525878906,0.0,-64.0,0.969268798828125,-0.1239013671875,Waiting,0.0,0.0,3.0,0.0,0.0,0.0,0.0,0.0,
2.6404419999999993,0.0,0.0,94809.0,0.125,870.0,840.0,0.0,0.25,0.822753822,4.904027544907178,0.0012207029999999897,-104961.0,0.25,-832.5,-840.0,0.0,0.25,0.507812448,4.93536618606472,-0.0012207030000004337,3950.0,5.25,892.5,840.0,0.0,0.0,3.333739893,4.9121299144872035,0.0012207030000004337,-12917.0,0.375,-825.0,-840.0,0.0,0.25,1.627197099,4.929629203308953,0.0,0.17000000178813934,-0.12999999523162842,-38.04999923706055,-0.02862548828125,-0.02423095703125,0.95855712890625,36.400001525878906,0.0,-4.0,0.9684906005859375,-0.1253204345703125,Waiting,0.0,0.0,3.0,0.0,0.0,0.0,0.0,0.0,
2.658457000000002,0.0,0.0,94809.0,0.375,870.0,840.0,0.0,0.25,0.7922362470000001,4.903342520498869,0.0012207029999999897,-104961.0,0.25,-825.0,-840.0,0.0,0.25,0.510253854,4.93467678408432,-0.0012207030000004337,4090.0,5.25,892.5,840.0,0.0,0.0,3.33251919,4.911443758290609,0.0012207030000004337,-12917.0,0.625,-817.5,-840.0,0.0,0.25,1.640624832,4.928940602705214,0.0,0.10999999940395355,-0.1899999976158142,-38.099998474121094,0.0501708984375,0.00372314453125,0.8675537109375,36.400001525878906,0.0,40.0,0.967742919921875,-0.1267242431640625,Waiting,0.0,0.0,3.0,0.0,0.0,0.0,0.0,0.0,
2.678751,0.0,0.0,94949.0,0.375,862.5,840.0,0.0,0.25,0.8178710100000001,4.902657496090561,0.0012207029999999897,-104961.0,0.25,-825.0,-840.0,0.0,0.25,0.507812448,4.93398738210392,-0.0012207030000004337,4090.0,5.375,877.5,840.0,0.0,0.0,3.333739893,4.910757602094015,0.0012207030000004337,-12917.0,0.625,-802.5,-840.0,0.0,0.25,1.643066238,4.928252002101474,0.0,0.14000000059604645,-0.23999999463558197,-38.189998626708984,-0.0360107421875,-0.02642822265625,1.129638671875,36.400001525878906,0.0,-6.0,0.9661102294921875,-0.129486083984375,Waiting,0.0,0.0,3.0,0.0,0.0,0.0,0.0,0.0,
2.6991939999999994,0.0,0.0,94949.0,0.125,862.5,840.0,0.0,0.25,0.8178710100000001,4.901424431250001,4.9261474849999995,-104961.0,0.25,-825.0,-840.0,0.0,0.25,0.506591745,4.9327464375,0.0,4090.0,5.375,877.5,840.0,0.0,0.0,3.33251919,4.9095225000000005,-0.0012207030000004337,-12917.0,0.625,-795.0,-840.0,0.0,0.25,1.640624832,4.9270125,0.0,0.12999999523162842,-0.18000000715255737,-38.22999954223633,-0.0469970703125,-0.039794921875,1.2442626953125,36.38999938964844,0.0,-7.0,0.9661102294921875,-0.1309356689453125,Waiting,0.0,0.0,3.0,0.0,0.0,0.0,0.0,0.0,
2.7176890000000022,0.0,0.0,94949.0,0.125,870.0,840.0,0.0,0.25,0.821533119,4.900876390817748,4.9261474849999995,-104961.0,0.25,-825.0,-840.0,0.0,0.25,0.507812448,4.93219489487648,0.0,4090.0,5.375,870.0,840.0,0.0,0.0,3.333739893,4.90897355410258,-0.0012207030000004337,-12917.0,0.625,-787.5,-840.0,0.0,0.25,1.6345213170000001,4.926461598502265,0.0,0.10999999940395355,-0.20999999344348907,-38.27000045776367,-0.09222412109375,-0.0531005859375,0.9461669921875,36.38999938964844,0.0,-35.0,0.9660797119140625,-0.13250732421875,Waiting,0.0,0.0,3.0,0.0,0.0,0.0,0.0,0.0,
2.7389969999999995,0.0,0.0,94949.0,0.125,870.0,840.0,0.0,0.25,0.8178710100000001,4.899780309953245,-0.0012207029999995456,-105091.0,0.25,-817.5,-840.0,0.0,0.25,0.507812448,4.93109180962944,0.0,4090.0,5.375,870.0,840.0,0.0,0.0,3.338622705,4.907875662307739,0.0,-13042.0,0.625,-780.0,-840.0,0.0,0.25,1.6308592080000002,4.925359795506795,-0.004882811999999959,0.07999999821186066,-0.41999998688697815,-38.349998474121094,-0.01947021484375,0.0103759765625,1.10626220703125,36.38999938964844,0.0,-14.0,0.9659423828125,-0.135711669921875,Waiting,0.0,0.0,3.0,0.0,0.0,0.0,0.0,0.0,
2.7583110000000017,0.0,0.0,94949.0,0.125,862.5,840.0,0.0,0.25,0.8300780400000001,4.899232321785005,-0.0012207029999995456,-105091.0,0.25,-817.5,-840.0,0.0,0.25,0.509033151,4.93054031960392,0.0,4090.0,5.375,870.0,840.0,0.0,0.125,3.333739893,4.907326768760681,0.0,-13042.0,0.625,-780.0,-840.0,0.0,0.25,1.6296385050000002,4.924808946545919,-0.004882811999999959,0.07000000029802322,-0.3700000047683716,-38.38999938964844,-0.02203369140625,-0.02703857421875,0.97064208984375,36.38999938964844,0.0,5.0,0.9659423828125,-0.1373443603515625,Waiting,0.0,0.0,3.0,0.0,0.0,0.0,0.0,0.0,
2.777738000000001,0.0,0.0,94949.0,0.125,862.5,840.0,0.0,0.25,0.819091713,4.898684281352753,-0.0012207029999995456,-105091.0,0.25,-810.0,-840.0,0.0,0.25,0.507812448,4.9299887769804,0.0,4231.0,5.375,870.0,840.0,0.0,0.125,3.333739893,4.906777822863261,0.0,-13042.0,0.625,-780.0,-840.0,0.0,0.25,1.625976396,4.924258045048184,4.950675782,0.10000000149011612,-0.30000001192092896,-38.41999816894531,-0.04290771484375,0.07232666015625,1.09686279296875,36.38999938964844,0.0,-72.0,0.9658966064453125,-0.1389617919921875,Waiting,0.0,0.0,3.0,0.0,0.0,0.0,0.0,0.0,
2.797767,0.0,0.0,95087.0,0.125,862.5,840.0,0.0,0.25,0.8178710100000001,4.89758820048825,0.0012207029999995456,-105091.0,0.375,-802.5,-840.0,0.0,0.25,0.506591745,4.9288856917333606,0.0,4231.0,5.375,870.0,840.0,0.0,0.125,3.333739893,4.905679931068421,0.0,-13042.0,0.625,-780.0,-840.0,0.0,0.25,1.621093584,4.923156242052714,4.950675782,0.11999999731779099,-0.36000001430511475,-38.52000045776367,-0.05963134765625,-0.0120849609375,0.99493408203125,36.38999938964844,0.0,-32.0,0.9656829833984375,-0.142364501953125,Waiting,0.0,0.0,3.0,0.0,0.0,0.0,0.0,0.0,
2.817474000000002,0.0,0.0,95087.0,0.375,855.0,840.0,0.0,0.25,0.8166503070000001,4.896903176079941,0.0012207029999995456,-105091.0,0.375,-795.0,-840.0,0.0,0.25,0.509033151,4.92819628975296,0.0,4231.0,5.25,877.5,840.0,0.0,0.125,3.333739893,4.904993774871826,0.0,-13042.0,0.625,-787.5,-840.0,0.0,0.25,1.621093584,4.922467641448975,4.950675782,0.12999999523162842,-0.41999998688697815,-38.56999969482422,-0.03985595703125,-0.0048828125,0.878662109375,36.38999938964844,0.0,-21.0,0.96551513671875,-0.1441650390625,Waiting,0.0,0.0,3.0,0.0,0.0,0.0,0.0,0.0,
2.840583999999999,0.0,0.0,95087.0,0.125,855.0,840.0,0.0,0.25,0.8044432770000001,4.896218151671633,0.0,-105091.0,0.375,-795.0,-840.0,0.0,0.25,0.509033151,4.9275068877725605,0.0,4231.0,5.125,877.5,840.0,0.0,0.125,3.334960596,4.904307618675232,0.0,-13042.0,0.625,-795.0,-840.0,0.0,0.25,1.614990069,4.9217790408452355,-0.007324217999999938,0.17000000178813934,-0.3199999928474426,-38.66999816894531,-0.03582763671875,-0.0167236328125,1.082275390625,36.38999938964844,0.0,-10.0,0.96502685546875,-0.147705078125,Waiting,0.0,0.0,3.0,0.0,0.0,0.0,0.0,0.0,
2.858276000000002,0.0,0.0,95087.0,0.125,847.5,840.0,0.0,0.25,0.8300780400000001,4.894848102855015,0.0,-105091.0,0.375,-787.5,-840.0,0.0,0.25,0.507812448,4.92612808381176,0.0,4231.0,5.0,877.5,840.0,0.0,0.125,3.33251919,4.9029353062820435,0.0,-13170.0,0.625,-802.5,-840.0,0.0,0.25,1.616210772,4.920401839637757,-0.007324217999999938,0.20000000298023224,-0.36000001430511475,-38.709999084472656,0.00848388671875,-0.09088134765625,1.08721923828125,36.38999938964844,0.0,71.0,0.964813232421875,-0.1495208740234375,Waiting,0.0,0.0,3.0,0.0,0.0,0.0,0.0,0.125,
2.879313000000002,0.0,0.0,95087.0,0.125,847.5,840.0,0.0,0.25,0.819091713,4.894300062422763,0.0,-105217.0,0.5,-787.5,-840.0,0.0,0.25,0.507812448,4.92557654118824,0.0,4231.0,4.875,885.0,840.0,0.0,0.125,3.333739893,4.902386360384623,0.0,-13170.0,0.625,-795.0,-840.0,0.0,0.25,1.619872881,4.919850938140021,-0.004882811999999959,0.12999999523162842,-0.4099999964237213,-38.7599983215332,-0.03741455078125,0.11090087890625,1.0609130859375,36.38999938964844,0.0,-90.0,0.964569091796875,-0.1513519287109375,Waiting,0.0,0.0,3.0,0.0,0.0,0.0,0.0,0.125,
2.8990119999999986,0.0,0.0,95087.0,0.125,847.5,840.0,0.0,0.25,0.8178710100000001,4.893066997582203,0.0012207030000004337,-105217.0,0.5,-787.5,-840.0,0.0,0.25,0.5175780720000001,4.92433559658432,0.0,4373.0,5.0,885.0,840.0,0.0,0.125,3.3251949720000002,4.901151258290609,0.0012207030000004337,-13170.0,0.625,-795.0,-840.0,0.0,0.25,1.6088865540000001,4.918611436038547,-0.004882811999999959,0.1599999964237213,-0.44999998807907104,-38.84000015258789,-0.0084228515625,-0.03240966796875,0.923583984375,36.38999938964844,0.0,21.0,0.963775634765625,-0.15496826171875,Waiting,0.0,0.0,3.0,0.0,0.0,0.0,0.0,0.125,
2.917744999999999,0.0,0.0,95222.0,0.125,847.5,840.0,0.0,0.25,0.811767495,4.892518957149951,0.0012207030000004337,-105217.0,0.5,-780.0,-840.0,0.0,0.25,0.507812448,4.923784053960801,0.0,4373.0,4.875,885.0,840.0,0.0,0.125,3.333739893,4.900602312393189,0.0012207030000004337,-13170.0,0.625,-787.5,-840.0,0.0,0.25,1.6101072570000001,4.918060534540812,-0.004882811999999959,0.1599999964237213,-0.3700000047683716,-38.880001068115234,0.0301513671875,0.02520751953125,1.00091552734375,36.38999938964844,0.0,14.0,0.96337890625,-0.15679931640625,Waiting,0.0,0.0,3.0,0.0,0.0,0.0,0.0,0.125,
2.939523000000001,0.0,0.0,95222.0,0.125,847.5,840.0,0.0,0.25,0.823974525,4.891970916717699,-0.0012207030000004337,-105217.0,0.5,-780.0,-840.0,0.0,0.25,0.507812448,4.923232511337281,0.0012207030000004337,4373.0,4.875,877.5,840.0,0.0,0.125,3.333739893,4.900053366495769,0.0,-13170.0,0.625,-787.5,-840.0,0.0,0.25,1.6113279600000001,4.917509633043077,-0.006103515000000392,0.18000000715255737,-0.38999998569488525,-38.93000030517578,-0.038330078125,0.03143310546875,1.092529296875,36.38999938964844,0.0,-41.0,0.9629669189453125,-0.1585845947265625,Waiting,0.0,0.0,3.0,0.0,0.0,0.0,0.0,0.125,
2.957988000000001,0.0,0.0,95222.0,0.125,840.0,840.0,0.0,0.25,0.794677653,4.8908748881172075,-0.0012207030000004337,-105217.0,0.5,-787.5,-840.0,0.0,0.25,0.506591745,4.92212947868824,0.0012207030000004337,4373.0,4.875,877.5,840.0,0.0,0.125,3.33251919,4.89895552705129,0.0,-13170.0,0.75,-787.5,-840.0,0.0,0.25,1.6101072570000001,4.9164078825844655,-0.006103515000000392,0.20999999344348907,-0.49000000953674316,-39.0099983215332,-0.0125732421875,0.05303955078125,1.0635986328125,36.38999938964844,0.0,-33.0,0.9620208740234375,-0.1585693359375,Waiting,0.0,0.0,3.0,0.0,0.0,0.0,0.0,0.0,
2.978393,0.0,0.0,95222.0,0.125,832.5,840.0,0.0,0.25,0.811767495,4.8901898637088985,-0.0012207030000004337,-105345.0,0.5,-787.5,-840.0,0.0,0.25,0.506591745,4.92144007670784,0.0012207030000004337,4373.0,4.875,877.5,840.0,0.0,0.125,3.333739893,4.898269370854696,0.0,-13297.0,0.75,-795.0,-840.0,0.0,0.25,1.6113279600000001,4.915719281980726,0.0012207030000004337,0.20000000298023224,-0.4000000059604645,-39.04999923706055,-0.01904296875,-0.029052734375,0.796142578125,36.38999938964844,0.0,9.0,0.961517333984375,-0.1585540771484375,Waiting,0.0,0.0,3.0,0.0,0.0,0.0,0.0,0.0,
2.997985000000001,0.0,0.0,95222.0,0.125,825.0,840.0,0.0,0.25,0.8007811680000001,4.889641823276647,-0.004882811999999959,-105345.0,0.5,-795.0,-840.0,0.0,0.25,0.507812448,4.9208885340843205,-0.0012207030000004337,4373.0,4.875,877.5,840.0,0.0,0.125,3.333739893,4.897720424957275,0.0,-13297.0,0.75,-795.0,-840.0,0.0,0.25,1.6101072570000001,4.915168380482991,0.0012207030000004337,0.20000000298023224,-0.4000000059604645,-39.09000015258789,-0.0482177734375,-0.03253173828125,0.94366455078125,36.38999938964844,0.0,-9.0,0.9610137939453125,-0.1585845947265625,Waiting,0.0,0.0,3.0,0.0,0.0,0.0,0.0,0.0,
3.0172700000000003,0.0,0.0,95222.0,0.125,817.5,840.0,0.0,0.25,0.8044432770000001,4.889093782844395,-0.004882811999999959,-105345.0,0.5,-795.0,-840.0,0.0,0.25,0.507812448,4.9203369914608,-0.0012207030000004337,4513.0,4.875,877.5,840.0,0.0,0.125,3.333739893,4.897171479059855,0.0,-13297.0,0.625,-795.0,-840.0,0.0,0.25,1.6113279600000001,4.914617478985257,0.0012207030000004337,0.23999999463558197,-0.5,-39.15999984741211,-0.065185546875,-0.026123046875,1.24371337890625,36.38999938964844,0.0,-22.0,0.9610137939453125,-0.1585845947265625,Waiting,0.0,0.0,3.0,0.0,0.0,0.0,0.0,0.0,
3.040339,0.0,0.0,95353.0,0.125,817.5,840.0,0.0,0.25,0.8044432770000001,4.888134738219961,-0.010986326999999463,-105345.0,0.5,-802.5,-840.0,0.0,0.25,0.505371042,4.91937181816864,0.0012207030000004337,4513.0,4.875,870.0,840.0,0.0,0.125,3.33251919,4.896210849914551,-0.0012207030000004337,-13297.0,0.625,-802.5,-840.0,0.0,0.25,1.6088865540000001,4.913653427632649,0.0,0.2199999988079071,-0.46000000834465027,-39.20000076293945,-0.03436279296875,-0.03179931640625,0.89227294921875,36.38999938964844,0.0,1.0,0.96099853515625,-0.15863037109375,Waiting,0.0,0.0,3.0,0.0,0.0,0.0,0.0,0.0,
3.0576790000000003,0.0,0.0,95353.0,0.125,817.5,840.0,0.0,0.25,0.799560465,4.887586697787709,-0.010986326999999463,-105345.0,0.625,-802.5,-840.0,0.0,0.25,0.5017089330000001,4.91882027554512,0.0012207030000004337,4513.0,4.875,862.5,840.0,0.0,0.125,3.333739893,4.895661904017131,-0.0012207030000004337,-13297.0,0.625,-802.5,-840.0,0.0,0.25,1.6027830390000002,4.913102526134915,0.0,0.2199999988079071,-0.46000000834465027,-39.20000076293945,-0.03436279296875,-0.03179931640625,0.89227294921875,36.38999938964844,0.0,1.0,0.96099853515625,-0.15863037109375,Waiting,0.0,0.0,3.0,0.0,0.0,0.0,0.0,0.0,
3.0771919999999993,0.0,0.0,95353.0,0.125,817.5,840.0,0.0,0.25,0.811767495,4.887038657355457,-0.010986326999999463,-105345.0,0.5,-802.5,-840.0,0.0,0.25,0.507812448,4.9182687329216,0.0012207030000004337,4513.0,4.875,855.0,840.0,0.0,0.125,3.333739893,4.895112958119711,-0.0012207030000004337,-13297.0,0.625,-802.5,-840.0,0.0,0.25,1.6113279600000001,4.91255162463718,0.0,0.18000000715255737,-0.4300000071525574,-39.279998779296875,0.06451416015625,0.04443359375,1.09234619140625,36.38999938964844,0.0,30.0,0.9609832763671875,-0.15875244140625,Waiting,0.0,0.0,3.0,0.0,0.0,0.0,0.0,0.0,
