Time,ClimberA1,ClimberA2,FRpos,FRCurrent,FRspeed,FRsetpoint,FRApos,FRACurrent,FREncpos,FREncSetpoint,FREncSpeed,FLpos,FLCurrent,FLspeed,FLsetpoint,FLApos,FLACurrent,FLEncpos,FLEncSetpoint,FLEncSpeed,BRpos,BRCurrent,BRspeed,BRsetpoint,BRApos,BRACurrent,BREncpos,BREncSetpoint,BREncSpeed,BLpos,BLCurrent,BLspeed,BLsetpoint,BLApos,BLACurrent,BLEncpos,BLEncSetpoint,BLEncSpeed,navx_Pitch,navx_Roll,navx_Yaw,navx_XAcc,navx_YAcc,navx_ZAcc,navx_Temp,navx_Bar,navx_Alt,navx_XDis,navx_YDis,GearPlacerState,ShootOutputV,ShootOutputCurrent,ShootEncPos,ShootEncVelocity,ShootSpeed,ShootSetpoint,CarouselSetpoint,CarouselCurrent,
0.1737949999999837,0.0,0.0,93100.0,0.0,0.0,0.0,0.0,0.25,0.8557128030000001,0.01,0.0,-98710.0,0.0,0.0,-0.0,0.0,0.25,0.4882812,0.01,0.0,4516.0,0.0,0.0,0.0,0.0,0.0,3.3239742690000003,0.01,0.0,-5181.0,0.125,0.0,-0.0,0.0,0.125,1.6357420200000001,0.01,0.0,0.33000001311302185,-0.5199999809265137,-96.91000366210938,-0.006103515625,0.00506591796875,1.01446533203125,36.34000015258789,0.0,0.0,0.2993011474609375,-1.8883056640625,Closing,0.0,0.0,3.0,0.0,0.0,0.0,0.0,0.0,
0.263122000000003,0.0,0.0,93100.0,0.0,0.0,0.0,0.0,0.25,0.8569335060000001,0.01,0.0,-98710.0,0.0,0.0,-0.0,0.0,0.25,0.4882812,0.01,0.0,4516.0,0.0,0.0,0.0,0.0,0.0,3.3239742690000003,0.01,0.0,-5181.0,0.125,0.0,-0.0,0.0,0.125,1.6345213170000001,0.01,0.0,0.33000001311302185,-0.49000000953674316,-96.91999816894531,0.0263671875,-0.0244140625,1.001953125,36.34000015258789,0.0,25.0,0.29931640625,-1.8881988525390625,Closing,0.0,0.0,3.0,0.0,0.0,0.0,0.0,0.125,
0.3629439999999886,0.0,0.0,93100.0,0.0,0.0,0.0,0.0,0.25,0.8557128030000001,0.01,0.0,-98710.0,0.0,0.0,-0.0,0.0,0.25,0.489501903,0.01,0.0,4516.0,0.125,0.0,0.0,0.0,0.0,3.3239742690000003,0.01,0.0,-5181.0,0.125,0.0,-0.0,0.0,0.125,1.6357420200000001,0.01,0.0,0.25999999046325684,-0.550000011920929,-96.91999816894531,0.1124267578125,-0.03472900390625,0.805908203125,36.34000015258789,0.0,23.0,0.30072021484375,-1.8889312744140625,Closing,0.0,0.0,3.0,0.0,0.0,0.0,0.0,0.0,
0.4525809999999765,0.0,0.0,93100.0,0.0,0.0,0.0,0.0,0.25,0.8557128030000001,0.01,0.0,-98710.0,0.0,0.0,-0.0,0.0,0.25,0.4882812,0.01,0.0,4516.0,0.0,0.0,0.0,0.0,0.0,3.3227535660000003,0.01,0.0,-5181.0,0.125,0.0,-0.0,0.0,0.125,1.6345213170000001,0.01,0.0,0.3100000023841858,-0.5400000214576721,-96.91999816894531,-0.07305908203125,0.04388427734375,1.06085205078125,36.34000015258789,0.0,-30.0,0.3012542724609375,-1.8900604248046875,Closing,0.0,0.0,3.0,0.0,0.0,0.0,0.0,0.0,
0.5503640000000014,0.0,0.0,93100.0,0.0,0.0,0.0,0.0,0.25,0.8557128030000001,0.01,0.0,-98710.0,0.0,0.0,-0.0,0.0,0.25,0.4882812,0.01,-0.0012207030000004337,4516.0,0.0,0.0,0.0,0.0,0.0,3.3264156750000002,0.01,0.0,-5181.0,0.125,0.0,-0.0,0.0,0.125,1.6345213170000001,0.01,0.0,0.3100000023841858,-0.5699999928474426,-96.91999816894531,0.00311279296875,0.0257568359375,1.04833984375,36.34000015258789,0.0,-21.0,0.30108642578125,-1.891815185546875,Closing,0.0,0.0,3.0,0.0,0.0,0.0,0.0,0.0,
0.6277759999999835,0.0,0.0,93100.0,0.0,0.0,0.0,0.0,0.25,0.8569335060000001,0.01,0.0,-98710.0,0.0,0.0,-0.0,0.0,0.25,0.4882812,0.01,0.0,4516.0,0.125,0.0,0.0,0.0,0.0,3.3239742690000003,0.01,0.0,-5181.0,0.125,0.0,-0.0,0.0,0.125,1.6345213170000001,0.01,0.0,0.30000001192092896,-0.5,-96.91999816894531,-0.02587890625,0.01641845703125,0.97943115234375,36.34000015258789,0.0,-8.0,0.3011932373046875,-1.893585205078125,Closing,0.0,0.0,3.0,0.0,0.0,0.0,0.0,0.0,
0.7087739999999758,0.0,0.0,93100.0,0.0,0.0,0.0,0.0,0.25,0.8569335060000001,0.01,0.0,-98710.0,0.0,0.0,-0.0,0.0,0.25,0.4882812,0.01,0.0012207030000004337,4516.0,0.0,0.0,0.0,0.0,0.0,3.3239742690000003,0.01,0.0,-5181.0,0.125,0.0,-0.0,0.0,0.125,1.6345213170000001,0.01,0.0,0.3100000023841858,-0.5400000214576721,-96.91999816894531,-0.01776123046875,-0.00213623046875,1.06396484375,36.34000015258789,0.0,8.0,0.3011932373046875,-1.893585205078125,Closing,0.0,0.0,3.0,0.0,0.0,0.0,0.0,0.0,
0.7835819999999949,0.0,0.0,93100.0,0.0,0.0,0.0,0.0,0.25,0.8569335060000001,0.01,0.0,-98710.0,0.0,0.0,-0.0,0.0,0.25,0.48583979400000005,0.01,-0.0012207030000004337,4516.0,0.0,0.0,0.0,0.0,0.0,3.3227535660000003,0.01,0.0,-5181.0,0.125,0.0,-0.0,0.0,0.125,1.6357420200000001,0.01,0.0,0.3100000023841858,-0.5299999713897705,-96.91999816894531,0.01800537109375,0.02734375,0.97406005859375,36.34000015258789,0.0,-25.0,0.3011627197265625,-1.893524169921875,Closing,0.0,0.0,3.0,0.0,0.0,0.0,0.0,0.0,
0.8908640000000014,0.0,0.0,93100.0,0.0,0.0,0.0,0.0,0.25,0.8569335060000001,0.01,0.0,-98710.0,0.0,0.0,-0.0,0.0,0.25,0.4882812,0.01,0.0,4516.0,0.125,0.0,0.0,0.0,0.0,3.3203121600000003,0.01,0.0,-5181.0,0.125,0.0,-0.0,0.0,0.125,1.6357420200000001,0.01,0.0,0.3100000023841858,-0.5299999713897705,-96.91999816894531,-0.0050048828125,0.01080322265625,0.9766845703125,36.34000015258789,0.0,-5.0,0.30108642578125,-1.8933868408203125,Closing,0.0,0.0,3.0,0.0,0.0,0.0,0.0,0.0,
0.9534709999999904,0.0,0.0,93100.0,0.0,0.0,0.0,0.0,0.25,0.8569335060000001,0.01,0.0,-98710.0,0.0,0.0,-0.0,0.0,0.25,0.4882812,0.01,0.0,4516.0,0.125,0.0,0.0,0.0,0.0,3.3239742690000003,0.01,0.0,-5181.0,0.125,0.0,-0.0,0.0,0.125,1.6345213170000001,0.01,0.0,0.3199999928474426,-0.5299999713897705,-96.91999816894531,-0.00701904296875,0.00372314453125,1.03558349609375,36.34000015258789,0.0,1.0,0.30108642578125,-1.8933868408203125,Closing,0.0,0.0,3.0,0.0,0.0,0.0,0.0,0.0,
1.0469659999999859,0.0,0.0,93100.0,0.0,0.0,0.0,0.0,0.25,0.8569335060000001,0.01,0.0,-98710.0,0.0,0.0,-0.0,0.0,0.25,0.4882812,0.01,0.0012207030000004337,4516.0,0.125,0.0,0.0,0.0,0.0,3.328857081,0.01,0.0,-5181.0,0.125,0.0,-0.0,0.0,0.125,1.6357420200000001,0.01,0.0,0.3199999928474426,-0.5299999713897705,-96.91999816894531,-0.014892578125,0.0047607421875,1.01824951171875,36.34000015258789,0.0,1.0,0.30108642578125,-1.8933868408203125,Closing,0.0,0.0,3.0,0.0,0.0,0.0,0.0,0.0,
1.1331079999999782,0.0,0.0,93100.0,0.0,0.0,0.0,0.0,0.25,0.8557128030000001,0.01,0.0012207029999999897,-98710.0,0.0,0.0,-0.0,0.0,0.25,0.4882812,0.01,0.0,4516.0,0.125,0.0,0.0,0.0,0.0,3.3239742690000003,0.01,0.0,-5181.0,0.125,0.0,-0.0,0.0,0.125,1.6345213170000001,0.01,0.0,0.3199999928474426,-0.5299999713897705,-96.91999816894531,-0.00341796875,9.1552734375E-4,1.0076904296875,36.34000015258789,0.0,4.0,0.30108642578125,-1.8933868408203125,Closing,0.0,0.0,3.0,0.0,0.0,0.0,0.0,0.0,
1.240173999999999,0.0,0.0,93100.0,0.0,0.0,0.0,0.0,0.25,0.8569335060000001,0.01,-0.0012207029999999897,-98710.0,0.0,0.0,-0.0,0.0,0.25,0.4882812,0.01,0.0012207030000004337,4516.0,0.0,0.0,0.0,0.0,0.0,3.3239742690000003,0.01,-0.0012207030000004337,-5181.0,0.125,0.0,-0.0,0.0,0.125,1.6345213170000001,0.01,0.0,0.3199999928474426,-0.5299999713897705,-96.91999816894531,-0.0146484375,0.00787353515625,1.0252685546875,36.36000061035156,0.0,-1.0,0.30108642578125,-1.8933868408203125,Closing,0.0,0.0,3.0,0.0,0.0,0.0,0.0,0.0,
1.332167999999976,0.0,0.0,93100.0,0.0,0.0,0.0,0.0,0.25,0.8569335060000001,0.01,0.0,-98710.0,0.0,0.0,-0.0,0.0,0.25,0.4882812,0.01,0.0,4516.0,0.0,0.0,0.0,0.0,0.0,3.3239742690000003,0.01,0.0,-5181.0,0.125,0.0,-0.0,0.0,0.125,1.6357420200000001,0.01,0.0,0.3199999928474426,-0.5299999713897705,-96.91999816894531,-0.009521484375,0.00732421875,1.01763916015625,36.36000061035156,0.0,-1.0,0.30108642578125,-1.8933868408203125,Closing,0.0,0.0,3.0,0.0,0.0,0.0,0.0,0.0,
1.4296600000000035,0.0,0.0,93100.0,0.0,0.0,0.0,0.0,0.25,0.8557128030000001,0.01,0.0,-98710.0,0.0,0.0,-0.0,0.0,0.25,0.4882812,0.01,0.0,4516.0,0.0,0.0,0.0,0.0,0.0,3.3239742690000003,0.01,0.0,-5181.0,0.125,0.0,-0.0,0.0,0.125,1.6345213170000001,0.01,0.0,0.3199999928474426,-0.5299999713897705,-96.91999816894531,-0.0126953125,0.00634765625,1.023193359375,36.36000061035156,0.0,0.0,0.30108642578125,-1.8933868408203125,Closing,0.0,0.0,3.0,0.0,0.0,0.0,0.0,0.0,
1.5102390000000014,0.0,0.0,93100.0,0.0,0.0,0.0,0.0,0.25,0.8569335060000001,0.01,-0.0012207029999999897,-98710.0,0.0,0.0,-0.0,0.0,0.25,0.4882812,0.01,0.0,4516.0,0.125,0.0,0.0,0.0,0.0,3.3239742690000003,0.01,-0.0012207030000004337,-5181.0,0.125,0.0,-0.0,0.0,0.125,1.6345213170000001,0.01,0.0,0.3199999928474426,-0.5299999713897705,-96.91999816894531,-0.00933837890625,0.00592041015625,1.02032470703125,36.36000061035156,0.0,0.0,0.30108642578125,-1.8933868408203125,Closing,0.0,0.0,3.0,0.0,0.0,0.0,0.0,0.0,
1.5869670000000042,0.0,0.0,93100.0,0.0,0.0,0.0,0.0,0.25,0.8557128030000001,0.01,0.0,-98710.0,0.0,0.0,-0.0,0.0,0.25,0.4882812,0.01,0.0012207030000004337,4516.0,0.0,0.0,0.0,0.0,0.0,3.3239742690000003,0.01,0.0,-5181.0,0.125,0.0,-0.0,0.0,0.125,1.6345213170000001,0.01,0.0,0.3199999928474426,-0.5299999713897705,-96.91999816894531,-0.0111083984375,0.00408935546875,1.023193359375,36.36000061035156,0.0,1.0,0.30108642578125,-1.8933868408203125,Closing,0.0,0.0,3.0,0.0,0.0,0.0,0.0,0.0,
1.674625,0.0,0.0,93100.0,0.0,0.0,0.0,0.0,0.25,0.8569335060000001,0.01,0.0,-98710.0,0.0,0.0,-0.0,0.0,0.25,0.489501903,0.01,0.0,4516.0,0.125,0.0,0.0,0.0,0.0,3.3239742690000003,0.01,0.0,-5181.0,0.125,0.0,-0.0,0.0,0.125,1.6357420200000001,0.01,0.0,0.3199999928474426,-0.5199999809265137,-96.91999816894531,-0.00885009765625,0.00714111328125,1.01666259765625,36.36000061035156,0.0,-1.0,0.30108642578125,-1.8933868408203125,Closing,0.0,0.0,3.0,0.0,0.0,0.0,0.0,0.0,
1.773237999999983,0.0,0.0,93100.0,0.0,0.0,0.0,0.0,0.25,0.8569335060000001,0.01,0.0,-98710.0,0.0,0.0,-0.0,0.0,0.25,0.48706049700000004,0.01,0.0,4516.0,0.0,0.0,0.0,0.0,0.0,3.3239742690000003,0.01,0.0,-5181.0,0.125,0.0,-0.0,0.0,0.125,1.6345213170000001,0.01,0.0,0.3199999928474426,-0.5299999713897705,-96.91999816894531,-0.0101318359375,0.0029296875,1.02239990234375,36.349998474121094,0.0,2.0,0.30108642578125,-1.8933868408203125,Closing,0.0,0.0,3.0,0.0,0.0,0.0,0.0,0.0,
1.8565920000000042,0.0,0.0,93100.0,0.0,0.0,0.0,0.0,0.25,0.8569335060000001,0.01,0.0,-98710.0,0.0,0.0,-0.0,0.0,0.25,0.48706049700000004,0.01,0.0,4516.0,0.0,0.0,0.0,0.0,0.0,3.3239742690000003,0.01,0.0,-5181.0,0.125,0.0,-0.0,0.0,0.125,1.6357420200000001,0.01,0.0,0.3100000023841858,-0.550000011920929,-96.91999816894531,-0.02398681640625,-0.01702880859375,1.03094482421875,36.349998474121094,0.0,24.0,0.3011932373046875,-1.89300537109375,Closing,0.0,0.0,3.0,0.0,0.0,0.0,0.0,0.0,
1.9762189999999829,0.0,0.0,93100.0,0.0,0.0,0.0,0.0,0.25,0.8569335060000001,0.01,0.0,-98710.0,0.0,0.0,-0.0,0.0,0.25,0.4882812,0.01,0.0012207030000004337,4516.0,0.0,0.0,0.0,0.0,0.0,3.328857081,0.01,0.0,-5181.0,0.125,0.0,-0.0,0.0,0.125,1.6345213170000001,0.01,0.0,0.3199999928474426,-0.5099999904632568,-96.91999816894531,0.0113525390625,0.0155029296875,0.974609375,36.349998474121094,0.0,-12.0,0.301239013671875,-1.892730712890625,Closing,0.0,0.0,3.0,0.0,0.0,0.0,0.0,0.0,
2.051627999999997,0.0,0.0,93100.0,0.0,0.0,0.0,0.0,0.25,0.8569335060000001,0.01,0.0,-98710.0,0.0,0.0,-0.0,0.0,0.25,0.4882812,0.01,0.0,4516.0,0.125,0.0,0.0,0.0,0.0,3.3239742690000003,0.01,0.0,-5181.0,0.125,0.0,-0.0,0.0,0.125,1.6345213170000001,0.01,0.0,0.3199999928474426,-0.5199999809265137,-96.91999816894531,-0.0018310546875,0.01580810546875,0.9989013671875,36.349998474121094,0.0,-10.0,0.301239013671875,-1.892333984375,Closing,0.0,0.0,3.0,0.0,0.0,0.0,0.0,0.0,
2.1470229999999866,0.0,0.0,93100.0,0.0,0.0,0.0,0.0,0.25,0.8569335060000001,0.01,0.0,-98710.0,0.0,0.0,-0.0,0.0,0.25,0.4882812,0.01,0.0,4516.0,0.0,0.0,0.0,0.0,0.0,3.3239742690000003,0.01,0.0,-5181.0,0.125,0.0,-0.0,0.0,0.125,1.6357420200000001,0.01,0.0,0.3199999928474426,-0.5299999713897705,-96.93000030517578,0.03009033203125,0.0250244140625,0.97479248046875,36.349998474121094,0.0,-24.0,0.30157470703125,-1.892333984375,Closing,0.0,0.0,3.0,0.0,0.0,0.0,0.0,0.0,
2.245206999999995,0.0,0.0,93100.0,0.0,0.0,0.0,0.0,0.25,0.8557128030000001,0.01,0.0,-98710.0,0.0,0.0,-0.0,0.0,0.25,0.489501903,0.01,0.0,4516.0,0.0,0.0,0.0,0.0,0.0,3.3239742690000003,0.01,-0.0012207029999995456,-5181.0,0.125,0.0,-0.0,0.0,0.125,1.6345213170000001,0.01,0.0,0.33000001311302185,-0.5199999809265137,-96.93000030517578,-0.0128173828125,0.003662109375,0.9969482421875,36.400001525878906,0.0,2.0,0.3016204833984375,-1.8923187255859375,Closing,0.0,0.0,3.0,0.0,0.0,0.0,0.0,0.0,
2.332487999999983,0.0,0.0,93100.0,0.0,0.0,0.0,0.0,0.25,0.8569335060000001,0.01,0.0,-98710.0,0.0,0.0,-0.0,0.0,0.25,0.4882812,0.01,0.0,4516.0,0.125,0.0,0.0,0.0,0.0,3.3239742690000003,0.01,0.0,-5181.0,0.125,0.0,-0.0,0.0,0.125,1.6345213170000001,0.01,0.0,0.4300000071525574,-0.5099999904632568,-96.91999816894531,0.03448486328125,-0.0029296875,1.08258056640625,36.400001525878906,0.0,5.0,0.3004302978515625,-1.8925323486328125,Closing,0.0,0.0,3.0,0.0,0.0,0.0,0.0,0.0,
2.43375,0.0,0.0,93100.0,0.0,0.0,0.0,0.0,0.25,0.8569335060000001,0.01,0.0,-98710.0,0.0,0.0,-0.0,0.0,0.25,0.4882812,0.01,0.0,4516.0,0.0,0.0,0.0,0.0,0.0,3.328857081,0.01,0.003662108999999525,-5181.0,0.125,0.0,-0.0,0.0,0.125,1.6345213170000001,0.01,0.0,0.36000001430511475,-0.5099999904632568,-96.91999816894531,0.0137939453125,0.008544921875,0.9642333984375,36.400001525878906,0.0,-5.0,0.2991790771484375,-1.892913818359375,Closing,0.0,0.0,3.0,0.0,0.0,0.0,0.0,0.0,
2.516578999999998,0.0,0.0,93100.0,0.0,0.0,0.0,0.0,0.25,0.8557128030000001,0.01,0.0,-98710.0,0.0,0.0,-0.0,0.0,0.25,0.4882812,0.01,0.0,4516.0,0.0,0.0,0.0,0.0,0.0,3.3239742690000003,0.01,0.0,-5181.0,0.125,0.0,-0.0,0.0,0.125,1.6357420200000001,0.01,0.0,0.38999998569488525,-0.5299999713897705,-96.91999816894531,-0.01446533203125,0.0152587890625,1.04443359375,36.400001525878906,0.0,-7.0,0.29779052734375,-1.8932952880859375,Closing,0.0,0.0,3.0,0.0,0.0,0.0,0.0,0.0,
2.5945350000000036,0.0,0.0,93100.0,0.0,0.0,0.0,0.0,0.25,0.8569335060000001,0.01,0.0,-98710.0,0.0,0.0,-0.0,0.0,0.25,0.4882812,0.01,0.0,4516.0,0.125,0.0,0.0,0.0,0.0,3.3251949720000002,0.01,0.0,-5181.0,0.125,0.0,-0.0,0.0,0.125,1.6345213170000001,0.01,0.0,0.38999998569488525,-0.5199999809265137,-96.91999816894531,-0.0062255859375,6.103515625E-5,1.0164794921875,36.400001525878906,0.0,6.0,0.2970733642578125,-1.8932037353515625,Closing,0.0,0.0,3.0,0.0,0.0,0.0,0.0,0.125,
2.703916999999987,0.0,0.0,93100.0,0.0,0.0,0.0,0.0,0.25,0.8569335060000001,0.01,0.0,-98710.0,0.0,0.0,-0.0,0.0,0.25,0.489501903,0.01,0.0,4516.0,0.0,0.0,0.0,0.0,0.0,3.333739893,0.01,0.0,-5181.0,0.125,0.0,-0.0,0.0,0.125,1.6357420200000001,0.01,0.0,0.3700000047683716,-0.5299999713897705,-96.91999816894531,-0.0146484375,0.01220703125,1.02880859375,36.400001525878906,0.0,-4.0,0.2970733642578125,-1.8932037353515625,Closing,0.0,0.0,3.0,0.0,0.0,0.0,0.0,0.125,
2.774285999999993,0.0,0.0,93100.0,0.0,0.0,0.0,0.0,0.25,0.8557128030000001,0.01,0.0,-98710.0,0.0,0.0,-0.0,0.0,0.25,0.4882812,0.01,0.0,4516.0,0.0,0.0,0.0,0.0,0.0,3.3227535660000003,0.01,0.0,-5181.0,0.125,0.0,-0.0,0.0,0.125,1.6357420200000001,0.01,0.0,0.3700000047683716,-0.5299999713897705,-96.91999816894531,-0.00787353515625,-0.0010986328125,1.0140380859375,36.369998931884766,0.0,7.0,0.2970733642578125,-1.8932037353515625,Closing,0.0,0.0,3.0,0.0,0.0,0.0,0.0,0.0,
2.8827729999999865,0.0,0.0,93100.0,0.0,0.0,0.0,0.0,0.25,0.8569335060000001,0.01,0.0,-98710.0,0.0,0.0,-0.0,0.0,0.25,0.4882812,0.01,0.0,4516.0,0.0,0.0,0.0,0.0,0.0,3.328857081,0.01,0.0,-5181.0,0.125,0.0,-0.0,0.0,0.125,1.6369627230000001,0.01,0.0,0.3700000047683716,-0.5299999713897705,-96.91999816894531,-0.009765625,0.00537109375,1.02044677734375,36.369998931884766,0.0,1.0,0.2970733642578125,-1.8932037353515625,Closing,0.0,0.0,3.0,0.0,0.0,0.0,0.0,0.0,
2.969228000000003,0.0,0.0,93100.0,0.0,0.0,0.0,0.0,0.25,0.8557128030000001,0.01,0.0,-98710.0,0.0,0.0,-0.0,0.0,0.25,0.4882812,0.01,0.0,4516.0,0.0,0.0,0.0,0.0,0.0,3.330077784,0.01,0.0,-5181.0,0.125,0.0,-0.0,0.0,0.125,1.6345213170000001,0.01,0.0,0.36000001430511475,-0.5199999809265137,-96.91999816894531,-0.00738525390625,0.00921630859375,1.02386474609375,36.369998931884766,0.0,-2.0,0.2970733642578125,-1.8932037353515625,Closing,0.0,0.0,3.0,0.0,0.0,0.0,0.0,0.0,
3.0524320000000005,0.0,0.0,93100.0,0.0,0.0,0.0,0.0,0.25,0.8569335060000001,0.01,0.0,-98710.0,0.0,0.0,-0.0,0.0,0.25,0.4882812,0.01,0.0,4516.0,0.0,0.0,0.0,0.0,0.0,3.328857081,0.01,0.0,-5181.0,0.125,0.0,-0.0,0.0,0.125,1.6357420200000001,0.01,0.0,0.36000001430511475,-0.5299999713897705,-96.91999816894531,-0.009033203125,0.002197265625,1.0211181640625,36.369998931884766,0.0,4.0,0.2970733642578125,-1.8932037353515625,Closing,0.0,0.0,3.0,0.0,0.0,0.0,0.0,0.0,
3.1647159999999857,0.0,0.0,93100.0,0.0,0.0,0.0,0.0,0.25,0.8569335060000001,0.01,0.0,-98710.0,0.0,0.0,-0.0,0.0,0.25,0.4882812,0.01,0.0,4516.0,0.0,0.0,0.0,0.0,0.0,3.328857081,0.01,0.0,-5181.0,0.125,0.0,-0.0,0.0,0.125,1.6345213170000001,0.01,0.0,0.36000001430511475,-0.5199999809265137,-96.91999816894531,-0.00836181640625,0.00421142578125,1.0108642578125,36.369998931884766,0.0,2.0,0.2970733642578125,-1.8932037353515625,Closing,0.0,0.0,3.0,0.0,0.0,0.0,0.0,0.0,
3.257481,0.0,0.0,93100.0,0.0,0.0,0.0,0.0,0.25,0.8557128030000001,0.01,0.0,-98710.0,0.0,0.0,-0.0,0.0,0.25,0.489501903,0.01,0.0,4516.0,0.0,0.0,0.0,0.0,0.0,3.328857081,0.01,0.0,-5181.0,0.125,0.0,-0.0,0.0,0.125,1.6345213170000001,0.01,0.0,0.36000001430511475,-0.5199999809265137,-96.91999816894531,-0.0103759765625,0.00146484375,1.01629638671875,36.380001068115234,0.0,5.0,0.2970733642578125,-1.8932037353515625,Closing,0.0,0.0,3.0,0.0,0.0,0.0,0.0,0.0,
3.3752899999999793,0.0,0.0,93100.0,0.0,0.0,0.0,0.0,0.25,0.8557128030000001,0.01,0.0,-98710.0,0.0,0.0,-0.0,0.0,0.25,0.4882812,0.01,0.0,4516.0,0.0,0.0,0.0,0.0,0.0,3.3239742690000003,0.01,0.0,-5181.0,0.125,0.0,-0.0,0.0,0.125,1.6345213170000001,0.01,0.0,0.36000001430511475,-0.5199999809265137,-96.91999816894531,-0.011962890625,0.00537109375,1.01629638671875,36.380001068115234,0.0,1.0,0.2970733642578125,-1.8932037353515625,Closing,0.0,0.0,3.0,0.0,0.0,0.0,0.0,0.0,
3.5014919999999985,0.0,0.0,93100.0,0.0,0.0,0.0,0.0,0.25,0.8557128030000001,0.01,0.0,-98710.0,0.0,0.0,-0.0,0.0,0.25,0.4882812,0.01,0.0,4516.0,0.125,0.0,0.0,0.0,0.0,3.3239742690000003,0.01,0.0,-5181.0,0.125,0.0,-0.0,0.0,0.125,1.6345213170000001,0.01,0.0,0.36000001430511475,-0.5199999809265137,-96.91999816894531,-0.00750732421875,0.00537109375,1.018798828125,36.380001068115234,0.0,0.0,0.2970733642578125,-1.8932037353515625,Closing,0.0,0.0,3.0,0.0,0.0,0.0,0.0,0.125,
3.5938949999999896,0.0,0.0,93100.0,0.0,0.0,0.0,0.0,0.25,0.8569335060000001,0.01,0.0,-98710.0,0.0,0.0,-0.0,0.0,0.25,0.4882812,0.01,0.0,4516.0,0.125,0.0,0.0,0.0,0.0,3.328857081,0.01,0.0,-5181.0,0.125,0.0,-0.0,0.0,0.125,1.6345213170000001,0.01,0.0,0.36000001430511475,-0.5199999809265137,-96.91999816894531,-0.01123046875,0.00457763671875,1.02294921875,36.380001068115234,0.0,2.0,0.2970733642578125,-1.8932037353515625,Closing,0.0,0.0,3.0,0.0,0.0,0.0,0.0,0.0,
3.708963999999978,0.0,0.0,93100.0,0.0,0.0,0.0,0.0,0.25,0.8569335060000001,0.01,0.0,-98710.0,0.0,0.0,-0.0,0.0,0.25,0.4882812,0.01,0.0,4516.0,0.0,0.0,0.0,0.0,0.0,3.328857081,0.01,0.0,-5181.0,0.125,0.0,-0.0,0.0,0.125,1.6357420200000001,0.01,0.0,0.36000001430511475,-0.5199999809265137,-96.91999816894531,-0.0120849609375,0.0078125,1.0198974609375,36.380001068115234,0.0,0.0,0.2970733642578125,-1.8932037353515625,Closing,0.0,0.0,3.0,0.0,0.0,0.0,0.0,0.0,
3.8025619999999765,0.0,0.0,93100.0,0.0,0.0,0.0,0.0,0.25,0.8569335060000001,0.01,0.0,-98710.0,0.0,0.0,-0.0,0.0,0.25,0.489501903,0.01,0.0,4516.0,0.0,0.0,0.0,0.0,0.0,3.328857081,0.01,0.0012207030000004337,-5181.0,0.125,0.0,-0.0,0.0,0.125,1.6296385050000002,0.01,0.0,0.36000001430511475,-0.5199999809265137,-96.93000030517578,-0.013427734375,0.001708984375,1.015869140625,36.400001525878906,0.0,5.0,0.2970733642578125,-1.8932037353515625,Closing,0.0,0.0,3.0,0.0,0.0,0.0,0.0,0.0,
3.895368999999977,0.0,0.0,93100.0,0.0,0.0,0.0,0.0,0.25,0.8557128030000001,0.01,0.0,-98710.0,0.0,0.0,-0.0,0.0,0.25,0.4882812,0.01,0.0,4516.0,0.125,0.0,0.0,0.0,0.0,3.328857081,0.01,0.0,-5181.0,0.125,0.0,-0.0,0.0,0.125,1.6345213170000001,0.01,0.0,0.36000001430511475,-0.5299999713897705,-96.91999816894531,-0.013671875,0.0062255859375,1.05035400390625,36.400001525878906,0.0,0.0,0.2970733642578125,-1.8932037353515625,Closing,0.0,0.0,3.0,0.0,0.0,0.0,0.0,0.0,
3.989945999999996,0.0,0.0,93100.0,0.0,0.0,0.0,0.0,0.25,0.8557128030000001,0.01,0.0,-98710.0,0.0,0.0,-0.0,0.0,0.25,0.4882812,0.01,0.0,4516.0,0.0,0.0,0.0,0.0,0.0,3.3239742690000003,0.01,0.0,-5181.0,0.125,0.0,-0.0,0.0,0.125,1.6345213170000001,0.01,0.0,0.3700000047683716,-0.5199999809265137,-96.91999816894531,-0.00537109375,0.01416015625,1.030517578125,36.400001525878906,0.0,-7.0,0.2970733642578125,-1.8932037353515625,Closing,0.0,0.0,3.0,0.0,0.0,0.0,0.0,0.0,
4.0941719999999915,0.0,0.0,93100.0,0.0,0.0,0.0,0.0,0.25,0.8557128030000001,0.01,0.0,-98710.0,0.0,0.0,-0.0,0.0,0.25,0.4882812,0.01,0.0,4516.0,0.0,0.0,0.0,0.0,0.0,3.3239742690000003,0.01,0.0,-5181.0,0.125,0.0,-0.0,0.0,0.125,1.639404129,0.01,0.0,0.36000001430511475,-0.5,-96.93000030517578,-0.0108642578125,0.0096435546875,1.057861328125,36.400001525878906,0.0,-2.0,0.2972259521484375,-1.89312744140625,Closing,0.0,0.0,3.0,0.0,0.0,0.0,0.0,0.0,
4.169593999999983,0.0,0.0,93100.0,0.0,0.0,0.0,0.0,0.25,0.8569335060000001,0.01,0.0,-98710.0,0.0,0.0,-0.0,0.0,0.25,0.4882812,0.01,0.0,4516.0,0.0,0.0,0.0,0.0,0.0,3.328857081,0.01,0.0,-5181.0,0.125,0.0,-0.0,0.0,0.125,1.6345213170000001,0.01,0.0,0.36000001430511475,-0.5,-96.91999816894531,-0.03302001953125,-0.00103759765625,1.02545166015625,36.400001525878906,0.0,10.0,0.297332763671875,-1.8930206298828125,Closing,0.0,0.0,3.0,0.0,0.0,0.0,0.0,0.0,
4.264576000000001,0.0,0.0,93100.0,0.0,0.0,0.0,0.0,0.25,0.8435057730000001,0.01,0.0,-98710.0,0.0,0.0,-0.0,0.0,0.25,0.4882812,0.01,0.0,4516.0,0.0,0.0,0.0,0.0,0.0,3.328857081,0.01,0.0,-5181.0,0.125,0.0,-0.0,0.0,0.125,1.6345213170000001,0.01,0.0,0.36000001430511475,-0.49000000953674316,-96.91999816894531,-0.02239990234375,0.01361083984375,1.0625,36.34000015258789,0.0,-5.0,0.297515869140625,-1.892852783203125,Closing,0.0,0.0,3.0,0.0,0.0,0.0,0.0,0.125,
4.3837889999999895,0.0,0.0,93100.0,0.0,0.0,0.0,0.0,0.25,0.8569335060000001,0.01,0.0,-98710.0,0.0,0.0,-0.0,0.0,0.25,0.4882812,0.01,0.0,4516.0,0.0,0.0,0.0,0.0,0.0,3.330077784,0.01,0.0,-5181.0,0.125,0.0,-0.0,0.0,0.125,1.6345213170000001,0.01,0.0,0.3400000035762787,-0.5099999904632568,-96.93000030517578,-0.00506591796875,-0.02056884765625,0.9549560546875,36.34000015258789,0.0,25.0,0.297698974609375,-1.8928985595703125,Closing,0.0,0.0,3.0,0.0,0.0,0.0,0.0,0.0,
4.474870999999984,0.0,0.0,93100.0,0.0,0.0,0.0,0.0,0.25,0.8557128030000001,0.01,0.0,-98710.0,0.0,0.0,-0.0,0.0,0.25,0.4882812,0.01,0.0,4516.0,0.0,0.0,0.0,0.0,0.0,3.328857081,0.01,0.0,-5181.0,0.125,0.0,-0.0,0.0,0.125,1.6357420200000001,0.01,0.0,0.3700000047683716,-0.5299999713897705,-96.93000030517578,0.02081298828125,-0.03302001953125,1.03143310546875,36.34000015258789,0.0,-49.0,0.2991485595703125,-1.894134521484375,Closing,0.0,0.0,3.0,0.0,0.0,0.0,0.0,0.0,
4.554690000000003,0.0,0.0,93100.0,0.0,0.0,0.0,0.0,0.25,0.8581542090000001,0.01,0.0,-98710.0,0.0,0.0,-0.0,0.0,0.25,0.4882812,0.01,0.0,4516.0,0.125,0.0,0.0,0.0,0.0,3.328857081,0.01,0.0,-5181.0,0.125,0.0,-0.0,0.0,0.125,1.6345213170000001,0.01,0.0,0.3400000035762787,-0.5199999809265137,-96.91999816894531,7.32421875E-4,0.024658203125,1.04571533203125,36.34000015258789,0.0,-19.0,0.300689697265625,-1.8951873779296875,Closing,0.0,0.0,3.0,0.0,0.0,0.0,0.0,0.0,
4.6490279999999915,0.0,0.0,93100.0,0.0,0.0,0.0,0.0,0.25,0.8557128030000001,0.01,0.0,-98710.0,0.0,0.0,-0.0,0.0,0.25,0.4882812,0.01,0.0,4516.0,0.125,0.0,0.0,0.0,0.0,3.3239742690000003,0.01,-0.0012207030000004337,-5181.0,0.125,0.0,-0.0,0.0,0.125,1.6357420200000001,0.01,0.0,0.33000001311302185,-0.49000000953674316,-96.93000030517578,-0.01043701171875,0.00164794921875,0.99273681640625,36.34000015258789,0.0,4.0,0.3007049560546875,-1.8958587646484375,Closing,0.0,0.0,3.0,0.0,0.0,0.0,0.0,0.0,
4.733941999999981,0.0,0.0,93100.0,0.0,0.0,0.0,0.0,0.25,0.8569335060000001,0.01,0.0,-98710.0,0.0,0.0,-0.0,0.0,0.25,0.4882812,0.01,0.0,4516.0,0.0,0.0,0.0,0.0,0.0,3.328857081,0.01,0.0,-5181.0,0.125,0.0,-0.0,0.0,0.125,1.6345213170000001,0.01,0.0,0.3499999940395355,-0.5,-96.91000366210938,-0.0413818359375,0.0208740234375,1.21435546875,36.34000015258789,0.0,-9.0,0.3003082275390625,-1.8958740234375,Closing,0.0,0.0,3.0,0.0,0.0,0.0,0.0,0.125,
4.826467999999993,0.0,0.0,93100.0,0.0,0.0,0.0,0.0,0.25,0.8557128030000001,0.01,0.0,-98710.0,0.0,0.0,-0.0,0.0,0.25,0.4882812,0.01,0.0,4516.0,0.0,0.0,0.0,0.0,0.0,3.328857081,0.01,0.0,-5181.0,0.125,0.0,-0.0,0.0,0.125,1.6345213170000001,0.01,0.0,0.3100000023841858,-0.5199999809265137,-96.91000366210938,-0.01165771484375,0.0107421875,1.04644775390625,36.380001068115234,0.0,-4.0,0.301544189453125,-1.8959503173828125,Closing,0.0,0.0,3.0,0.0,0.0,0.0,0.0,0.0,
4.911326000000001,0.0,0.0,93100.0,0.0,0.0,0.0,0.0,0.25,0.8557128030000001,0.01,0.0012207029999999897,-98710.0,0.0,0.0,-0.0,0.0,0.25,0.4882812,0.01,-0.0012207030000004337,4516.0,0.0,0.0,0.0,0.0,0.0,3.3276363780000002,0.01,0.0012207030000004337,-5181.0,0.125,0.0,-0.0,0.0,0.125,1.6345213170000001,0.01,0.0,0.3100000023841858,-0.4399999976158142,-96.91999816894531,-0.19256591796875,0.01251220703125,1.1041259765625,36.380001068115234,0.0,15.0,0.3016357421875,-1.8952178955078125,Closing,0.0,0.0,3.0,0.0,0.0,0.0,0.0,0.0,
4.984054999999993,0.0,0.0,93100.0,0.0,0.0,0.0,0.0,0.25,0.8557128030000001,0.01,0.0,-98710.0,0.0,0.0,-0.0,0.0,0.25,0.4882812,0.01,0.0012207030000004337,4516.0,0.0,0.0,0.0,0.0,0.0,3.328857081,0.01,0.0,-5181.0,0.125,0.0,-0.0,0.0,0.125,1.6345213170000001,0.01,0.0,0.33000001311302185,-0.47999998927116394,-96.91999816894531,0.00244140625,-0.00518798828125,1.035400390625,36.380001068115234,0.0,9.0,0.3038177490234375,-1.8939971923828125,Closing,0.0,0.0,3.0,0.0,0.0,0.0,0.0,0.125,
5.091842999999994,0.0,0.0,93100.0,0.0,0.0,0.0,0.0,0.25,0.8557128030000001,0.01,0.0,-98710.0,0.0,0.0,-0.0,0.0,0.25,0.4882812,0.01,0.0,4516.0,0.0,0.0,0.0,0.0,0.0,3.328857081,0.01,0.0,-5181.0,0.125,0.0,-0.0,0.0,0.125,1.6345213170000001,0.01,0.0,0.3199999928474426,-0.46000000834465027,-96.91999816894531,-0.01348876953125,-0.0118408203125,1.0220947265625,36.380001068115234,0.0,18.0,0.305145263671875,-1.894073486328125,Closing,0.0,0.0,3.0,0.0,0.0,0.0,0.0,0.0,
5.170301999999996,0.0,0.0,93100.0,0.0,0.0,0.0,0.0,0.25,0.8557128030000001,0.01,0.0,-98710.0,0.0,0.0,-0.0,0.0,0.25,0.4882812,0.01,0.0,4516.0,0.0,0.0,0.0,0.0,0.0,3.328857081,0.01,0.0,-5181.0,0.125,0.0,-0.0,0.0,0.125,1.6345213170000001,0.01,0.0,0.33000001311302185,-0.47999998927116394,-96.93000030517578,-0.00830078125,-0.004150390625,1.02789306640625,36.380001068115234,0.0,10.0,0.305145263671875,-1.894073486328125,Closing,0.0,0.0,3.0,0.0,0.0,0.0,0.0,0.0,
5.257823999999993,0.0,0.0,93100.0,0.0,0.0,0.0,0.0,0.25,0.8569335060000001,0.01,0.0,-98710.0,0.0,0.0,-0.0,0.0,0.25,0.4882812,0.01,0.0,4516.0,0.0,0.0,0.0,0.0,0.0,3.3276363780000002,0.01,-0.0012207030000004337,-5181.0,0.125,0.0,-0.0,0.0,0.125,1.6345213170000001,0.01,0.0,0.33000001311302185,-0.47999998927116394,-96.91999816894531,-0.01556396484375,0.0040283203125,1.040283203125,36.380001068115234,0.0,2.0,0.305145263671875,-1.894073486328125,Closing,0.0,0.0,3.0,0.0,0.0,0.0,0.0,0.125,
5.36070199999999,0.0,0.0,93100.0,0.125,0.0,-138.89763727784157,0.0,0.25,0.845947179,4.932250999999998,0.0,-98710.0,0.125,0.0,138.89763727784157,0.0,0.125,0.482177685,4.963769999999998,0.0,4516.0,0.125,0.0,-138.89763727784157,0.0,0.0,3.328857081,0.01,0.0,-5181.0,0.25,0.0,138.89763727784157,0.0,0.125,1.6345213170000001,0.01,0.0,0.33000001311302185,-0.49000000953674316,-96.93000030517578,-0.01385498046875,0.00213623046875,1.029296875,36.36000061035156,0.0,4.0,0.305145263671875,-1.894073486328125,Closing,0.0,0.0,3.0,0.0,0.0,0.0,0.0,0.0,
5.450095000000001,0.0,0.0,93098.0,0.125,0.0,-357.16537177562714,0.0,0.25,0.8557128030000001,4.932250999999998,0.0,-98710.0,0.75,0.0,357.16537177562714,0.0,0.125,0.4882812,4.963769999999998,0.0,4512.0,0.625,-7.5,-357.16537177562714,0.0,0.0,3.328857081,0.01,0.0,-5181.0,1.0,0.0,357.16537177562714,0.0,0.125,1.6345213170000001,0.01,0.0,0.33000001311302185,-0.5099999904632568,-96.91000366210938,-0.0157470703125,3.662109375E-4,1.0045166015625,36.36000061035156,0.0,6.0,0.305145263671875,-1.894073486328125,Closing,0.0,0.0,3.0,0.0,0.0,0.0,0.0,0.125,
5.550220999999991,0.0,0.0,93098.0,1.875,-22.5,-634.9606275558472,0.0,0.25,0.847167882,4.932250999999998,0.0,-98700.0,2.625,45.0,634.9606275558472,0.0,0.125,0.495605418,4.963769999999998,0.0,4512.0,2.625,-90.0,-634.9606275558472,0.0,0.0,3.333739893,0.01,0.0,-5177.0,2.75,7.5,634.9606275558472,0.0,0.125,1.614990069,0.01,0.0,0.3499999940395355,-0.7099999785423279,-96.87000274658203,-0.11572265625,-0.03302001953125,1.07672119140625,36.36000061035156,0.0,51.0,0.305419921875,-1.8953399658203125,Closing,0.0,0.0,3.0,0.0,0.0,0.0,0.0,0.0,
5.627971999999979,0.0,0.0,93085.0,4.5,-105.0,-734.173253774643,0.0,0.25,0.859374912,4.932250999999998,0.0,-98700.0,6.125,97.5,734.173253774643,0.0,0.125,0.4882812,4.963769999999998,0.0,4498.0,5.25,-67.5,-734.173253774643,0.0,0.0,3.358153953,0.01,0.0,-5177.0,3.875,90.0,734.173253774643,0.0,0.125,1.614990069,0.01,0.0,0.27000001072883606,-1.090000033378601,-96.87000274658203,-0.1202392578125,-0.00299072265625,1.0296630859375,36.36000061035156,0.0,19.0,0.3070220947265625,-1.902099609375,Closing,0.0,0.0,3.0,0.0,0.0,0.0,0.0,0.0,
5.718100999999995,0.0,0.0,93050.0,6.25,-217.5,-833.3858048915863,0.0,0.25,0.850829991,4.932250999999998,0.0,-98675.0,8.75,217.5,833.3858048915863,0.0,0.125,0.4882812,4.963769999999998,0.0,4474.0,7.75,-165.0,-833.3858048915863,0.0,0.0,3.355712547,0.01,0.0,-5156.0,5.75,202.5,833.3858048915863,0.0,0.125,1.614990069,0.01,0.0,0.25999999046325684,-1.559999942779541,-96.79000091552734,-0.15045166015625,0.01177978515625,1.040283203125,36.36000061035156,0.0,7.0,0.30908203125,-1.9111480712890625,Closing,0.0,0.0,3.0,0.0,0.0,0.0,0.0,0.0,
5.817119999999996,0.0,0.0,92970.0,8.0,-450.0,-1011.9684720039367,0.0,0.25,0.850829991,4.932250999999998,0.0,-98607.0,11.5,472.5,1011.9684720039367,0.0,0.125,0.48706049700000004,4.963769999999998,0.0,4402.0,9.5,-442.5,-1011.9684720039367,0.0,0.0,3.3605953590000004,0.01,0.0,-5096.0,7.375,480.0,1011.9684720039367,0.0,0.125,1.614990069,0.01,0.0,0.2199999988079071,-2.3499999046325684,-96.69999694824219,-0.196044921875,0.03594970703125,0.9453125,36.369998931884766,0.0,-13.0,0.3135986328125,-1.937408447265625,Closing,0.0,0.0,3.0,0.0,0.0,0.0,0.0,0.0,
5.918281999999977,0.0,0.0,92970.0,7.125,-667.5,-1011.9684720039367,0.0,0.25,0.850829991,4.932250999999998,0.0,-98492.0,10.25,690.0,1011.9684720039367,0.0,0.125,0.4882812,4.963769999999998,0.0,4402.0,8.75,-667.5,-1011.9684720039367,0.0,0.0,3.3618160620000004,0.01,0.0,-4991.0,6.5,682.5,1011.9684720039367,0.0,0.125,1.614990069,0.01,0.0,0.2800000011920929,-2.9600000381469727,-96.58999633789062,-0.1231689453125,0.0416259765625,0.92431640625,36.369998931884766,0.0,-28.0,0.3176422119140625,-1.9684295654296875,Closing,0.0,0.0,3.0,0.0,0.0,0.0,0.0,0.0,
6.024894000000001,0.0,0.0,92840.0,2.875,-915.0,-754.0157639980315,0.0,0.25,0.847167882,4.932250999999998,0.0,-98341.0,3.875,937.5,754.0157639980315,0.0,0.125,0.4882812,4.963769999999998,0.0,4276.0,3.375,-945.0,-754.0157639980315,0.0,0.0,3.3605953590000004,0.01,0.0,-4848.0,3.125,885.0,754.0157639980315,0.0,0.125,1.6113279600000001,0.01,0.0,0.4300000071525574,-3.200000047683716,-96.55999755859375,-0.0479736328125,-0.04705810546875,0.8768310546875,36.369998931884766,0.0,53.0,0.3227691650390625,-1.98681640625,Closing,0.0,0.0,3.0,0.0,0.0,0.0,0.0,0.0,
6.113648999999976,0.0,0.0,92688.0,1.25,-975.0,-734.173253774643,0.0,0.25,0.8276366340000001,4.932250999999998,0.0,-98341.0,2.25,990.0,734.173253774643,0.0,0.125,0.4882812,4.963769999999998,0.0,4120.0,1.875,-975.0,-734.173253774643,0.0,0.0,3.3618160620000004,0.01,0.0,-4848.0,2.0,945.0,734.173253774643,0.0,0.125,1.616210772,0.01,0.0,0.3499999940395355,-3.130000114440918,-96.56999969482422,0.07330322265625,0.03680419921875,0.8170166015625,36.369998931884766,0.0,-45.0,0.32568359375,-1.98687744140625,Closing,0.0,0.0,3.0,0.0,0.0,0.0,0.0,0.0,
6.201188999999984,0.0,0.0,92531.0,0.75,-982.5,-734.173253774643,0.0,0.125,0.822753822,4.932250999999998,0.0,-98180.0,1.625,975.0,734.173253774643,0.0,0.125,0.4882812,4.963769999999998,0.0,3962.0,1.25,-982.5,-734.173253774643,0.0,0.0,3.3630367650000004,0.01,0.0,-4696.0,2.0,892.5,734.173253774643,0.0,0.125,1.614990069,0.01,0.0,0.46000000834465027,-2.930000066757202,-96.58000183105469,-0.1513671875,-0.09051513671875,1.30450439453125,36.369998931884766,0.0,110.0,0.3282318115234375,-1.984130859375,Closing,0.0,0.0,3.0,0.0,0.0,0.0,0.0,0.0,
6.307812999999995,0.0,0.0,92368.0,7.875,-997.5,-1655.5939687867358,0.0,0.625,0.8422850700000001,0.32227939932973726,0.0,-98038.0,2.375,757.5,-662.6360662140861,0.0,8.625,0.45410151600000004,3.782099819257066,0.0,3797.0,7.0,-997.5,-1655.5939687867358,0.0,0.5,3.3190914570000003,4.617588134900549,0.0,-4562.0,1.25,810.0,-662.6360662140861,0.0,6.875,1.826171688,1.1802965802451497,0.0,0.41999998688697815,-2.549999952316284,-96.37000274658203,0.1434326171875,0.10595703125,0.73712158203125,36.29999923706055,0.0,-119.0,0.3305206298828125,-1.978759765625,Closing,0.0,0.0,3.0,0.0,0.0,0.0,0.0,0.0,
6.391873999999982,0.0,0.0,92368.0,11.75,-1072.5,-1782.760012106671,0.0,0.375,1.046142471,0.3389288290234718,0.0,-97981.0,4.625,435.0,-761.1232450174933,0.0,1.5,4.770507324,3.8804038401671646,0.0,3797.0,12.875,-1132.5,-1782.760012106671,0.0,0.25,3.096923511,4.600911197238835,0.0,-4466.0,4.0,510.0,-761.1232450174933,0.0,1.625,2.5329587250000003,1.0821068301817367,0.0,0.0,-1.7400000095367432,-93.95999908447266,0.36944580078125,-0.08660888671875,0.9581298828125,36.29999923706055,0.0,58.0,0.334869384765625,-1.9659881591796875,Closing,0.0,0.0,3.0,0.0,0.0,0.0,0.0,0.0,
6.5073799999999755,0.0,0.0,92192.0,13.875,-1207.5,-1782.760012106671,0.0,0.25,1.2707518230000001,0.3389288290234718,0.0,-98059.0,1.625,-337.5,-761.1232450174933,0.0,0.5,4.1833491810000005,3.8804038401671646,0.0,3614.0,15.75,-1170.0,-1782.760012106671,0.0,0.25,2.9443356360000004,4.600911197238835,0.0,-4494.0,2.375,-37.5,-761.1232450174933,0.0,1.125,2.9614254780000002,1.0821068301817367,0.0,0.009999999776482582,-1.0,-87.91000366210938,-0.17449951171875,0.11273193359375,1.03704833984375,36.29999923706055,0.0,-118.0,0.339508056640625,-1.9420318603515625,Closing,0.0,0.0,3.0,0.0,0.0,0.0,0.0,0.0,
6.583040999999997,0.0,0.0,91961.0,12.5,-1485.0,-1798.707668647634,0.0,0.375,1.275634635,0.34084427758399327,0.0,-98059.0,0.375,-510.0,-774.1428365702463,0.0,0.5,4.201659726,3.890895077054371,0.0,3410.0,16.25,-1357.5,-1798.707668647634,0.0,0.0,2.9553219630000003,4.598992583999484,0.0,-4494.0,1.0,-472.5,-774.1428365702463,0.0,0.875,2.937011418,1.0716277885487098,0.0,0.18000000715255737,-2.2100000381469727,-79.83000183105469,-0.20843505859375,0.0279541015625,1.2052001953125,36.29999923706055,0.0,-52.0,0.3406524658203125,-1.9206695556640625,Closing,0.0,0.0,3.0,0.0,0.0,0.0,0.0,0.125,
6.696422999999981,0.0,0.0,91697.0,10.125,-1680.0,-1798.707668647634,0.0,0.375,1.199951049,0.34084427758399327,0.0,-98154.0,0.0,-765.0,-774.1428365702463,0.0,0.25,4.304198778,3.890895077054371,0.0,3170.0,15.125,-1522.5,-1798.707668647634,0.0,0.0,3.0053707860000003,4.598992583999484,0.0,-4567.0,1.625,-397.5,-774.1428365702463,0.0,0.25,2.725829799,1.0716277885487098,0.0,0.11999999731779099,-2.430000066757202,-68.54000091552734,0.0169677734375,0.18621826171875,1.113037109375,36.29999923706055,0.0,-147.0,0.3389129638671875,-1.9057159423828125,Closing,0.0,0.0,3.0,0.0,0.0,0.0,0.0,0.125,
6.791676999999996,0.0,0.0,91403.0,6.375,-1822.5,-1639.7551457907832,0.0,0.25,1.1633299590000001,0.3200168852208739,0.0,-98283.0,0.0,-847.5,-651.1678616840488,0.0,0.25,4.377440958,3.767773131684183,0.0,2892.0,10.25,-1762.5,-1639.7551457907832,0.0,0.0,3.018798519,4.6198543871053595,0.0,-4639.0,1.25,-510.0,-651.1678616840488,0.0,0.375,2.6391598860000003,1.1946066141480804,0.0,0.3499999940395355,-2.4200000762939453,-56.72999954223633,0.0604248046875,0.3597412109375,0.60137939453125,36.290000915527344,0.0,-250.0,0.3295135498046875,-1.9024505615234375,Closing,0.0,0.0,3.0,0.0,0.0,0.0,0.0,0.0,
6.896146999999997,0.0,0.0,91129.0,1.0,-1837.5,-734.173253774643,0.0,0.5,1.140136602,4.932250999999998,0.0,-98410.0,14.125,-757.5,734.173253774643,0.0,7.375,4.482421416,4.963769999999998,0.0,2617.0,0.375,-1770.0,-734.173253774643,0.0,0.25,3.035888361,0.01,0.0,-4727.0,1.5,-495.0,734.173253774643,0.0,7.75,2.5378415370000003,0.01,0.0,0.7799999713897705,-2.680000066757202,-47.939998626708984,0.0860595703125,0.408935546875,0.93389892578125,36.290000915527344,0.0,-206.0,0.3157958984375,-1.8960113525390625,Closing,0.0,0.0,3.0,0.0,0.0,0.0,0.0,0.0,
6.981179999999993,0.0,0.0,91129.0,0.125,-1440.0,-734.173253774643,0.0,0.375,0.942382716,4.932250999999998,0.0,-98430.0,16.25,-240.0,734.173253774643,0.0,2.375,0.131835924,4.963769999999998,0.0,2617.0,0.375,-1380.0,-734.173253774643,0.0,0.25,3.245849277,0.01,0.0,-4770.0,2.625,-322.5,734.173253774643,0.0,1.5,1.9201658190000002,0.01,0.0,0.9100000262260437,-2.2699999809265137,-39.720001220703125,0.02801513671875,-0.1021728515625,0.8135986328125,36.290000915527344,0.0,119.0,0.2960662841796875,-1.880218505859375,Closing,0.0,0.0,3.0,0.0,0.0,0.0,0.0,0.0,
7.092804999999993,0.0,0.0,90921.0,0.625,-1110.0,-734.173253774643,0.0,0.375,0.8044432770000001,4.932250999999998,0.0,-98430.0,7.25,330.0,734.173253774643,0.0,0.5,0.639648372,4.963769999999998,0.0,2414.0,2.5,-1132.5,-734.173253774643,0.0,0.25,3.4240719150000003,0.01,0.0,-4706.0,1.625,322.5,734.173253774643,0.0,0.25,1.4501951640000001,0.01,0.0,1.0499999523162842,-2.1700000762939453,-36.060001373291016,-0.03948974609375,0.44866943359375,1.00213623046875,36.290000915527344,0.0,-254.0,0.2779083251953125,-1.85662841796875,Closing,0.0,0.0,3.0,0.0,0.0,0.0,0.0,0.0,
7.170548999999999,0.0,0.0,90811.0,2.25,-660.0,-734.173253774643,0.0,0.25,0.784912029,4.932250999999998,0.0,-98350.0,4.75,607.5,734.173253774643,0.0,0.5,0.7263182850000001,4.963769999999998,0.0,2290.0,4.25,-652.5,-734.173253774643,0.0,0.125,3.459472302,0.01,0.0,-4706.0,1.5,472.5,734.173253774643,0.0,0.75,1.3977049350000001,0.01,0.0,1.149999976158142,-1.9600000381469727,-36.16999816894531,0.04632568359375,0.1583251953125,0.98443603515625,36.290000915527344,0.0,-16.0,0.2720184326171875,-1.830810546875,Closing,0.0,0.0,3.0,0.0,0.0,0.0,0.0,0.0,
7.255834000000003,0.0,0.0,90704.0,3.25,-697.5,-734.173253774643,0.0,0.25,0.755615157,4.932250999999998,0.0,-98264.0,5.375,525.0,734.173253774643,0.0,0.25,0.701904225,4.963769999999998,0.0,2179.0,5.75,-690.0,-734.173253774643,0.0,0.125,3.443603163,0.01,0.0,-4643.0,1.875,442.5,734.173253774643,0.0,0.375,1.533202968,0.01,0.0,1.0700000524520874,-1.75,-34.66999816894531,0.0670166015625,0.05517578125,1.21392822265625,36.290000915527344,0.0,67.0,0.2730255126953125,-1.7996063232421875,Closing,0.0,0.0,3.0,0.0,0.0,0.0,0.0,0.125,
7.365677999999986,0.0,0.0,90704.0,4.0,-637.5,-734.173253774643,0.0,0.25,0.7507323450000001,4.932250999999998,0.0,-98180.0,7.125,517.5,734.173253774643,0.0,0.25,0.559081974,4.963769999999998,0.0,2073.0,6.0,-660.0,-734.173253774643,0.0,0.125,3.4167476970000004,0.01,0.0,-4573.0,2.375,450.0,734.173253774643,0.0,0.375,1.645507644,0.01,0.0,0.9900000095367432,-1.8799999952316284,-34.0099983215332,-0.10784912109375,-0.02471923828125,1.16259765625,36.33000183105469,0.0,-32.0,0.2748260498046875,-1.770843505859375,Closing,0.0,0.0,3.0,0.0,0.0,0.0,0.0,0.0,
7.452258000000001,0.0,0.0,90604.0,4.5,-622.5,-734.173253774643,0.0,0.25,0.8020018710000001,4.932250999999998,0.0,-98180.0,6.5,615.0,734.173253774643,0.0,0.25,0.416259723,4.963769999999998,0.0,2073.0,6.375,-645.0,-734.173253774643,0.0,0.125,3.400878558,0.01,0.0,-4471.0,2.0,607.5,734.173253774643,0.0,0.25,1.6833494370000002,0.01,0.0,1.0199999809265137,-2.140000104904175,-34.040000915527344,-0.05413818359375,0.03118896484375,1.032470703125,36.33000183105469,0.0,-19.0,0.2768096923828125,-1.742340087890625,Closing,0.0,0.0,3.0,0.0,0.0,0.0,0.0,0.0,
7.566522999999987,0.0,0.0,90495.0,8.375,-727.5,-1150.86611866951,0.0,0.125,0.8178710100000001,4.932250999999998,0.0,-98070.0,9.0,817.5,1150.86611866951,0.0,0.25,0.373535118,4.963769999999998,0.0,1967.0,11.5,-750.0,-1150.86611866951,0.0,0.125,3.395995746,0.01,0.0,-4330.0,2.75,825.0,1150.86611866951,0.0,0.25,1.669921704,0.01,0.0,1.0099999904632568,-2.5399999618530273,-34.650001525878906,-0.0753173828125,-0.00396728515625,0.94915771484375,36.33000183105469,0.0,-15.0,0.2768402099609375,-1.7057647705078125,Closing,0.0,0.0,3.0,0.0,0.0,0.0,0.0,0.0,
7.655114000000001,0.0,0.0,90357.0,11.25,-870.0,-1448.5039973258972,0.0,0.125,0.8178710100000001,4.932250999999998,0.0,-97931.0,12.125,967.5,1448.5039973258972,0.0,0.5,0.40161128700000004,4.963769999999998,0.0,1825.0,14.25,-930.0,-1448.5039973258972,0.0,0.125,3.395995746,0.01,0.0,-4330.0,4.125,1027.5,1448.5039973258972,0.0,0.25,1.639404129,0.01,0.0,0.9599999785423279,-3.0999999046325684,-35.18000030517578,-0.21258544921875,0.033447265625,1.18804931640625,36.33000183105469,0.0,-128.0,0.272308349609375,-1.6817626953125,Closing,0.0,0.0,3.0,0.0,0.0,0.0,0.0,0.125,
7.7559320000000005,0.0,0.0,90181.0,11.875,-1095.0,-1471.2931247361196,0.0,0.375,0.8300780400000001,0.13834284905037741,0.0,-97752.0,11.5,1177.5,1471.2931247361196,0.0,0.5,0.49926752700000004,0.1392269136000564,0.0,1640.0,12.875,-1170.0,-1471.2931247361196,0.0,0.0,3.40576137,0.13857141727955136,0.0,-4164.0,4.375,1140.0,1471.2931247361196,0.0,0.25,1.6601560800000001,0.13906507304510074,0.0,0.8899999856948853,-3.619999885559082,-35.599998474121094,-0.112548828125,-0.0594482421875,1.1939697265625,36.33000183105469,0.0,15.0,0.260467529296875,-1.659637451171875,Closing,0.0,0.0,3.0,0.0,0.0,0.0,0.0,0.0,
7.855479999999981,0.0,0.0,89964.0,10.0,-1305.0,-1471.2931247361196,0.0,0.375,0.9094237350000001,0.13834284905037741,0.0,-97542.0,10.25,1320.0,1471.2931247361196,0.0,0.5,0.623779233,0.1392269136000564,0.0,1415.0,10.75,-1357.5,-1471.2931247361196,0.0,0.0,3.45458949,0.13857141727955136,0.0,-3965.0,4.0,1267.5,1471.2931247361196,0.0,0.375,1.7333982600000002,0.13906507304510074,0.0,0.46000000834465027,-4.0,-35.599998474121094,-0.13995361328125,-0.0546875,1.20928955078125,36.29999923706055,0.0,-7.0,0.24774169921875,-1.641571044921875,Closing,0.0,0.0,3.0,0.0,0.0,0.0,0.0,0.125,
7.965430999999982,0.0,0.0,89964.0,5.75,-1462.5,-1167.1720249573752,0.0,0.375,0.965576073,0.24413121387612952,0.0,-97314.0,6.375,1425.0,1167.1720249573752,0.0,0.25,0.705566334,0.24569130717433385,0.0,1415.0,6.375,-1507.5,-1167.1720249573752,0.0,0.0,3.487548471,0.2445345642453375,0.0,-3748.0,1.875,1365.0,1167.1720249573752,0.0,0.375,1.781005677,0.2454057099685012,0.0,0.029999999329447746,-4.070000171661377,-35.15999984741211,-0.03656005859375,-0.1290283203125,1.09893798828125,36.29999923706055,0.0,108.0,0.2403411865234375,-1.6343231201171875,Closing,0.0,0.0,3.0,0.0,0.0,0.0,0.0,0.0,
8.036521999999998,0.0,0.0,89720.0,0.75,-1507.5,-923.0504501932023,0.0,0.375,1.066894422,0.34886558782253113,0.0,-97314.0,1.75,1440.0,923.0504501932023,0.0,0.25,0.799560465,0.35109497445808113,0.0,1167.0,1.875,-1507.5,-923.0504501932023,0.0,0.125,3.598632444,0.3494419789419542,0.0,-3543.0,0.75,1282.5,923.0504501932023,0.0,0.375,1.905517383,0.3506868536139197,0.0,-0.41999998688697815,-3.5999999046325684,-34.40999984741211,0.03277587890625,-0.09112548828125,1.00506591796875,36.29999923706055,0.0,126.0,0.236358642578125,-1.626953125,Closing,0.0,0.0,3.0,0.0,0.0,0.0,0.0,0.0,
8.130152999999991,0.0,0.0,89486.0,0.375,-1462.5,-923.0504501932023,0.0,0.375,1.1633299590000001,0.34886558782253113,0.0,-97093.0,1.0,1320.0,923.0504501932023,0.0,0.25,0.852050694,0.35109497445808113,0.0,939.0,0.875,-1432.5,-923.0504501932023,0.0,0.25,3.701171496,0.3494419789419542,0.0,-3543.0,0.75,1342.5,923.0504501932023,0.0,0.375,1.9665525330000002,0.3506868536139197,0.0,-0.9200000166893005,-3.0,-34.11000061035156,0.098388671875,-0.152587890625,0.77606201171875,36.29999923706055,0.0,193.0,0.23974609375,-1.622528076171875,Closing,0.0,0.0,3.0,0.0,0.0,0.0,0.0,0.0,
8.214358999999996,0.0,0.0,89486.0,0.125,-1380.0,-905.1756327402225,0.0,0.125,1.1914061280000001,0.3562639717497128,0.0,-96883.0,0.5,1305.0,905.1756327402225,0.0,0.125,0.861816318,0.3585406369327254,0.0,939.0,0.625,-1417.5,-905.1756327402225,0.0,0.0,3.7414546950000003,0.35685258638140704,0.0,-3323.0,0.5,1365.0,905.1756327402225,0.0,0.125,1.990966593,0.3581238610798753,0.0,-1.1200000047683716,-2.5899999141693115,-34.04999923706055,0.06256103515625,-0.02081298828125,0.8095703125,36.29999923706055,0.0,84.0,0.2476654052734375,-1.61920166015625,Closing,0.0,0.0,3.0,0.0,0.0,0.0,0.0,0.0,
8.28591499999998,0.0,0.0,89279.0,0.125,-1192.5,-905.1756327402225,0.0,0.25,1.1914061280000001,0.3562639717497128,0.0,-96681.0,0.25,1275.0,905.1756327402225,0.0,0.0,0.8679198330000001,0.3585406369327254,0.0,719.0,0.375,-1252.5,-905.1756327402225,0.0,0.125,3.7414546950000003,0.35685258638140704,0.0,-3121.0,0.5,1275.0,905.1756327402225,0.0,0.125,1.990966593,0.3581238610798753,0.0,-0.8700000047683716,-2.0199999809265137,-34.290000915527344,0.109619140625,-0.062744140625,1.15887451171875,36.29999923706055,0.0,149.0,0.2621307373046875,-1.6094818115234375,Closing,0.0,0.0,3.0,0.0,0.0,0.0,0.0,0.0,
8.376589999999997,0.0,0.0,89090.0,0.125,-1185.0,-905.1756327402225,0.0,0.25,1.1901854250000001,0.3562639717497128,0.0,-96681.0,0.25,1215.0,905.1756327402225,0.0,0.0,0.861816318,0.3585406369327254,0.0,539.0,0.625,-1110.0,-905.1756327402225,0.0,0.125,3.7414546950000003,0.35685258638140704,0.0,-3121.0,0.5,1170.0,905.1756327402225,0.0,0.125,1.990966593,0.3581238610798753,0.0,-0.7200000286102295,-1.600000023841858,-34.439998626708984,0.0965576171875,0.14306640625,0.88580322265625,36.2400016784668,0.0,12.0,0.2639312744140625,-1.5965423583984375,Closing,0.0,0.0,3.0,0.0,0.0,0.0,0.0,0.0,
8.457004999999976,0.0,0.0,89090.0,0.125,-1102.5,-837.3919337749527,0.0,0.375,1.1914061280000001,0.18779492463898662,0.0,-96503.0,0.25,1102.5,837.3919337749527,0.0,0.25,0.845947179,0.18899500716311124,0.0,361.0,0.375,-1117.5,-837.3919337749527,0.0,0.125,3.7365718830000003,0.18810519693471592,0.0,-2943.0,0.5,1087.5,837.3919337749527,0.0,0.5,1.982421672,0.18877531503568973,0.0,-0.550000011920929,-1.2300000190734863,-34.47999954223633,0.10235595703125,0.064453125,0.95062255859375,36.2400016784668,0.0,59.0,0.267181396484375,-1.579254150390625,Closing,0.0,0.0,3.0,0.0,0.0,0.0,0.0,0.0,
8.530337999999988,0.0,0.0,88920.0,0.375,-1027.5,-1051.6535675525665,0.0,0.625,0.9472655280000001,4.932250999999998,0.0,-96343.0,0.75,997.5,1051.6535675525665,0.0,0.5,0.7006835220000001,4.963769999999998,0.0,361.0,1.0,-945.0,-1051.6535675525665,0.0,0.375,3.497314095,0.01,0.0,-2789.0,0.5,967.5,1051.6535675525665,0.0,0.5,1.751708805,0.01,0.0,-0.12999999523162842,-0.8999999761581421,-34.54999923706055,-0.05657958984375,0.24884033203125,0.96112060546875,36.2400016784668,0.0,-176.0,0.2760162353515625,-1.5507965087890625,Closing,0.0,0.0,3.0,0.0,0.0,0.0,0.0,0.0,
8.648205999999977,0.0,0.0,88753.0,1.625,-1012.5,-1210.3937244415283,0.0,0.25,0.8007811680000001,4.932250999999998,0.0,-96343.0,1.5,1005.0,1210.3937244415283,0.0,0.25,0.483398388,4.963769999999998,0.0,218.0,4.25,-862.5,-1210.3937244415283,0.0,0.125,3.3630367650000004,0.01,0.0,-2660.0,1.125,862.5,1210.3937244415283,0.0,0.25,1.533202968,0.01,0.0,0.8999999761581421,-0.9900000095367432,-34.279998779296875,0.0142822265625,0.2801513671875,1.25360107421875,36.2400016784668,0.0,-116.0,0.280303955078125,-1.51800537109375,Closing,0.0,0.0,3.0,0.0,0.0,0.0,0.0,0.0,
8.728244999999996,0.0,0.0,88606.0,3.25,-915.0,-1210.3937244415283,0.0,0.25,0.761718672,4.932250999999998,0.0,-96183.0,3.375,952.5,1210.3937244415283,0.0,0.25,0.386962851,4.963769999999998,0.0,75.0,5.625,-900.0,-1210.3937244415283,0.0,0.0,3.3239742690000003,0.01,0.0,-2660.0,3.0,795.0,1210.3937244415283,0.0,0.375,1.4770506300000001,0.01,0.0,1.2799999713897705,-0.9599999785423279,-33.849998474121094,-0.13043212890625,-0.024658203125,0.9522705078125,36.2400016784668,0.0,-69.0,0.2800750732421875,-1.47027587890625,Closing,0.0,0.0,3.0,0.0,0.0,0.0,0.0,0.0,
8.829997000000002,0.0,0.0,88606.0,3.875,-945.0,-1210.3937244415283,0.0,0.25,0.761718672,4.932250999999998,0.0,-96042.0,5.5,870.0,1210.3937244415283,0.0,0.25,0.391845663,4.963769999999998,0.0,-78.0,6.0,-937.5,-1210.3937244415283,0.0,0.0,3.3227535660000003,0.01,0.0,-2525.0,3.5,855.0,1210.3937244415283,0.0,0.375,1.5270994530000002,0.01,0.0,1.1299999952316284,-1.2699999809265137,-33.599998474121094,-0.162353515625,-0.05682373046875,0.96002197265625,36.2400016784668,0.0,-75.0,0.27923583984375,-1.4382171630859375,Closing,0.0,0.0,3.0,0.0,0.0,0.0,0.0,0.0,
8.908811999999976,0.0,0.0,88451.0,4.375,-997.5,-1210.3937244415283,0.0,0.25,0.780029217,4.932250999999998,0.0,-95886.0,6.25,952.5,1210.3937244415283,0.0,0.25,0.391845663,4.963769999999998,0.0,-78.0,6.375,-990.0,-1210.3937244415283,0.0,0.0,3.328857081,0.01,0.0,-2366.0,3.125,975.0,1210.3937244415283,0.0,0.375,1.624755693,0.01,0.0,0.9900000095367432,-1.5499999523162842,-33.41999816894531,-0.17498779296875,0.04339599609375,1.0726318359375,36.20000076293945,0.0,-135.0,0.2772064208984375,-1.403533935546875,Closing,0.0,0.0,3.0,0.0,0.0,0.0,0.0,0.0,
8.993016000000003,0.0,0.0,88289.0,3.25,-1027.5,-1051.6535675525665,0.0,0.125,0.7897948410000001,4.932250999999998,0.0,-95886.0,4.125,1035.0,1051.6535675525665,0.0,0.25,0.437011674,4.963769999999998,0.0,-243.0,4.875,-1050.0,-1051.6535675525665,0.0,0.0,3.333739893,0.01,0.0,-2366.0,2.625,1057.5,1051.6535675525665,0.0,0.125,1.6638181890000001,0.01,0.0,0.7799999713897705,-1.659999966621399,-33.61000061035156,0.08050537109375,0.09429931640625,0.86395263671875,36.20000076293945,0.0,42.0,0.273345947265625,-1.3708343505859375,Closing,0.0,0.0,3.0,0.0,0.0,0.0,0.0,0.0,
9.074367999999987,0.0,0.0,88122.0,2.875,-1050.0,-912.7559208869933,0.0,0.125,0.780029217,4.932250999999998,0.0,-95715.0,2.25,1065.0,912.7559208869933,0.0,0.25,0.47973627900000004,4.963769999999998,0.0,-410.0,3.5,-1042.5,-912.7559208869933,0.0,0.0,3.333739893,0.01,0.0,-2201.0,1.25,1050.0,912.7559208869933,0.0,0.25,1.666259595,0.01,0.0,0.6399999856948853,-1.7799999713897705,-33.970001220703125,-0.03363037109375,-0.00762939453125,1.19134521484375,36.20000076293945,0.0,14.0,0.2700653076171875,-1.3399658203125,Closing,0.0,0.0,3.0,0.0,0.0,0.0,0.0,0.0,
9.170827999999979,0.0,0.0,87961.0,1.625,-1012.5,-892.9134106636047,0.0,0.25,0.780029217,4.932250999999998,0.0,-95547.0,1.75,1050.0,892.9134106636047,0.0,0.125,0.498046824,4.963769999999998,0.0,-577.0,3.25,-1035.0,-892.9134106636047,0.0,0.0,3.333739893,0.01,0.0,-2036.0,1.125,997.5,892.9134106636047,0.0,0.25,1.6638181890000001,0.01,0.0,0.4699999988079071,-1.6399999856948853,-34.2599983215332,0.07293701171875,0.10882568359375,0.82550048828125,36.20000076293945,0.0,22.0,0.2679595947265625,-1.3397216796875,Closing,0.0,0.0,3.0,0.0,0.0,0.0,0.0,0.0,
9.262781999999977,0.0,0.0,87961.0,2.75,-1012.5,-1071.4960777759552,0.0,0.25,0.7897948410000001,4.932250999999998,0.0,-95374.0,2.125,1050.0,1071.4960777759552,0.0,0.0,0.496826121,4.963769999999998,0.0,-577.0,3.875,-1042.5,-1071.4960777759552,0.0,0.0,3.333739893,0.01,0.0,-1876.0,1.875,975.0,1071.4960777759552,0.0,0.25,1.6625974860000001,0.01,0.0,0.47999998927116394,-1.5800000429153442,-34.45000076293945,-0.1092529296875,0.0264892578125,1.109130859375,36.20000076293945,0.0,-74.0,0.26629638671875,-1.33795166015625,Closing,0.0,0.0,3.0,0.0,0.0,0.0,0.0,0.125,
9.36733599999998,0.0,0.0,87794.0,0.625,-1042.5,-694.4881582260131,0.0,0.125,0.794677653,4.932250999999998,0.0,-95374.0,0.75,1005.0,694.4881582260131,0.0,0.0,0.49926752700000004,4.963769999999998,0.0,-745.0,1.875,-1035.0,-694.4881582260131,0.0,0.0,3.333739893,0.01,0.0,-1708.0,0.5,1110.0,694.4881582260131,0.0,0.25,1.665038892,0.01,0.0,0.47999998927116394,-1.5399999618530273,-34.529998779296875,-0.037841796875,0.05987548828125,1.0892333984375,36.2599983215332,0.0,-35.0,0.2642974853515625,-1.3364105224609375,Closing,0.0,0.0,3.0,0.0,0.0,0.0,0.0,0.0,
9.455910999999993,0.0,0.0,87636.0,0.0,-982.5,0.0,0.0,0.125,0.7788085140000001,4.932250999999998,-0.0012207029999995456,-95225.0,0.25,832.5,0.0,0.0,0.0,0.498046824,4.963769999999998,0.0,-905.0,0.125,-975.0,0.0,0.0,0.0,3.333739893,0.01,0.0,-1708.0,0.125,877.5,0.0,0.0,0.25,1.6638181890000001,0.01,0.0,0.3700000047683716,-1.190000057220459,-34.63999938964844,0.139892578125,-0.10467529296875,0.85198974609375,36.2599983215332,0.0,192.0,0.2640838623046875,-1.333709716796875,Closing,0.0,0.0,3.0,0.0,0.0,0.0,0.0,0.0,
9.527157999999996,0.0,0.0,87636.0,0.0,-802.5,0.0,0.0,0.25,0.78124992,4.932250999999998,-0.01342773300000033,-95085.0,0.0,885.0,0.0,0.0,0.0,0.498046824,4.963769999999998,0.0,-905.0,0.0,-742.5,0.0,0.0,0.0,3.328857081,0.01,0.0012207030000004337,-1565.0,0.125,915.0,0.0,0.0,0.25,1.6638181890000001,0.01,0.0,0.4399999976158142,-0.7099999785423279,-34.790000915527344,0.20892333984375,-0.00433349609375,0.80322265625,36.2599983215332,0.0,185.0,0.267181396484375,-1.32843017578125,Closing,0.0,0.0,3.0,0.0,0.0,0.0,0.0,0.0,
9.628521999999997,0.0,0.0,87514.0,0.0,-765.0,0.0,0.0,0.25,0.780029217,4.932250999999998,0.0,-95085.0,0.0,832.5,0.0,0.0,0.125,0.496826121,4.963769999999998,-0.0012207030000004337,-1018.0,0.0,-622.5,0.0,0.0,0.0,3.328857081,0.01,-0.006103515000000392,-1438.0,0.125,802.5,0.0,0.0,0.25,1.6638181890000001,0.01,0.0,0.38999998569488525,-0.2800000011920929,-35.20000076293945,0.14117431640625,0.0760498046875,1.20416259765625,36.2599983215332,0.0,81.0,0.2776947021484375,-1.31732177734375,Closing,0.0,0.0,3.0,0.0,0.0,0.0,0.0,0.125,
9.709036999999983,0.0,0.0,87403.0,0.0,-682.5,0.0,0.0,0.25,0.7897948410000001,4.932250999999998,0.0,-94960.0,0.0,682.5,0.0,0.0,0.125,0.498046824,4.963769999999998,0.0,-1114.0,0.0,-592.5,0.0,0.0,0.0,3.328857081,0.01,0.0,-1438.0,0.125,637.5,0.0,0.0,0.25,1.6638181890000001,0.01,0.0,0.1599999964237213,1.8200000524520874,-35.22999954223633,1.07763671875,-0.32879638671875,0.84075927734375,36.2599983215332,0.0,1049.0,0.2946624755859375,-1.3032989501953125,Closing,0.0,0.0,3.0,0.0,0.0,0.0,0.0,0.0,
9.785896999999997,0.0,0.0,87408.0,0.0,-52.5,0.0,0.0,0.125,0.783691326,4.932250999999998,0.0,-94913.0,0.0,195.0,0.0,0.0,0.0,0.498046824,4.963769999999998,0.0,-1137.0,0.0,-255.0,0.0,0.0,0.0,3.338622705,0.01,0.0,-1382.0,0.125,37.5,0.0,0.0,0.25,1.697997873,0.01,0.0,0.4699999988079071,3.059999942779541,-35.060001373291016,0.005615234375,-0.122314453125,1.10223388671875,36.2599983215332,0.0,31.0,0.338592529296875,-1.2709808349609375,Closing,0.0,0.0,3.0,0.0,0.0,0.0,0.0,0.0,
9.872465999999985,0.0,0.0,87408.0,0.0,315.0,0.0,0.0,0.25,0.794677653,4.932250999999998,-0.004882811999999959,-94963.0,0.0,-285.0,0.0,0.0,0.0,0.522460884,4.963769999999998,0.0,-1096.0,0.0,240.0,0.0,0.0,0.0,3.338622705,0.01,0.0,-1431.0,0.125,-277.5,0.0,0.0,0.25,1.7077634970000002,0.01,0.0,0.25999999046325684,2.430000066757202,-35.22999954223633,-0.12945556640625,-0.04046630859375,1.13031005859375,36.25,0.0,-118.0,0.38970947265625,-1.23492431640625,Closing,0.0,0.0,3.0,0.0,0.0,0.0,0.0,0.0,
9.972099999999976,0.0,0.0,87451.0,0.0,240.0,0.0,0.0,0.125,0.794677653,4.932250999999998,0.008544921000000372,-94996.0,0.0,-240.0,0.0,0.0,0.125,0.53710932,4.963769999999998,0.0,-1096.0,0.0,225.0,0.0,0.0,0.0,3.338622705,0.01,0.0,-1466.0,0.125,-225.0,0.0,0.0,0.25,1.668701001,0.01,0.0,0.25,1.8799999952316284,-35.08000183105469,-0.1002197265625,-0.06195068359375,0.94281005859375,36.25,0.0,-69.0,0.4272613525390625,-1.209014892578125,Closing,0.0,0.0,3.0,0.0,0.0,0.0,0.0,0.0,
10.062282999999995,0.0,0.0,87473.0,0.0,135.0,0.0,0.0,0.125,0.794677653,4.932250999999998,0.0,-94996.0,0.0,-142.5,0.0,0.0,0.25,0.5407714290000001,4.963769999999998,0.010986327000000351,-1070.0,0.0,142.5,0.0,0.0,0.0,3.338622705,0.01,0.0,-1466.0,0.125,-127.5,0.0,0.0,0.25,1.644286941,0.01,-0.03906249600000011,0.25,1.4299999475479126,-35.150001525878906,-0.09881591796875,0.0198974609375,0.945068359375,36.25,0.0,-109.0,0.454345703125,-1.190704345703125,Closing,0.0,0.0,3.0,0.0,0.0,0.0,0.0,0.0,
10.131940999999992,0.0,0.0,87473.0,0.0,82.5,0.0,0.0,0.125,0.79345695,4.932250999999998,0.0,-95005.0,0.0,-67.5,0.0,0.0,0.25,0.5407714290000001,4.963769999999998,0.004882811999999959,-1070.0,0.0,67.5,0.0,0.0,0.0,3.338622705,0.01,0.0,-1476.0,0.125,-52.5,0.0,0.0,0.25,1.644286941,0.01,-0.024414060000000015,0.20999999344348907,1.1100000143051147,-35.130001068115234,-0.10968017578125,-0.01953125,1.0928955078125,36.25,0.0,-93.0,0.473388671875,-1.177978515625,Closing,0.0,0.0,3.0,0.0,0.0,0.0,0.0,0.0,
10.208763999999995,0.0,0.0,87479.0,0.0,0.0,0.0,0.0,0.125,0.794677653,4.932250999999998,0.0,-95005.0,0.0,0.0,0.0,0.0,0.25,0.5419921320000001,4.963769999999998,0.0,-1065.0,0.0,0.0,0.0,0.0,0.0,3.338622705,0.01,0.0,-1477.0,0.125,0.0,0.0,0.0,0.25,1.645507644,0.01,0.0,0.1899999976158142,0.8199999928474426,-35.06999969482422,0.00286865234375,-0.01055908203125,1.02099609375,36.25,0.0,-1.0,0.503265380859375,-1.1697998046875,Closing,0.0,0.0,3.0,0.0,0.0,0.0,0.0,0.0,
10.310864000000002,0.0,0.0,87479.0,0.0,0.0,0.0,0.0,0.25,0.794677653,4.932250999999998,0.0,-95005.0,0.0,0.0,0.0,0.0,0.25,0.5419921320000001,4.963769999999998,0.0,-1065.0,0.0,0.0,0.0,0.0,0.0,3.338622705,0.01,0.0,-1477.0,0.125,0.0,0.0,0.0,0.25,1.645507644,0.01,0.0,0.18000000715255737,0.7900000214576721,-35.06999969482422,-0.00323486328125,0.02374267578125,1.01617431640625,36.25,0.0,-25.0,0.5032501220703125,-1.1699676513671875,Closing,0.0,0.0,3.0,0.0,0.0,0.0,0.0,0.0,
10.375973999999987,0.0,0.0,87479.0,0.0,0.0,0.0,0.0,0.125,0.794677653,4.932250999999998,0.0,-95005.0,0.0,0.0,0.0,0.0,0.25,0.5419921320000001,4.963769999999998,0.0,-1065.0,0.125,0.0,0.0,0.0,0.0,3.338622705,0.01,0.0,-1477.0,0.125,0.0,0.0,0.0,0.25,1.645507644,0.01,0.0,0.18000000715255737,0.7599999904632568,-35.06999969482422,-1.220703125E-4,-0.0086669921875,1.00079345703125,36.25,0.0,-4.0,0.50311279296875,-1.1699676513671875,Closing,0.0,0.0,3.0,0.0,0.0,0.0,0.0,0.0,
10.451513999999996,0.0,0.0,87479.0,0.0,0.0,0.0,0.0,0.125,0.794677653,4.932250999999998,0.0,-95005.0,0.0,0.0,0.0,0.0,0.25,0.5407714290000001,4.963769999999998,0.0,-1065.0,0.125,0.0,0.0,0.0,0.0,3.337402002,0.01,0.0,-1477.0,0.125,0.0,0.0,0.0,0.25,1.645507644,0.01,0.0,0.18000000715255737,0.699999988079071,-35.06999969482422,-0.023193359375,-0.00567626953125,1.0306396484375,36.16999816894531,0.0,-24.0,0.502838134765625,-1.170135498046875,Closing,0.0,0.0,3.0,0.0,0.0,0.0,0.0,0.0,
10.555899999999994,0.0,0.0,87479.0,0.0,0.0,0.0,0.0,0.125,0.794677653,4.932250999999998,0.0,-95005.0,0.0,0.0,0.0,0.0,0.25,0.5419921320000001,4.963769999999998,0.0,-1065.0,0.0,0.0,0.0,0.0,0.0,3.338622705,0.01,0.0,-1477.0,0.125,0.0,0.0,0.0,0.25,1.645507644,0.01,0.0,0.1599999964237213,0.5699999928474426,-35.06999969482422,-0.0162353515625,4.8828125E-4,1.02008056640625,36.16999816894531,0.0,-20.0,0.502471923828125,-1.1709442138671875,Closing,0.0,0.0,3.0,0.0,0.0,0.0,0.0,0.0,
10.655578999999998,0.0,0.0,87465.0,5.5,-75.0,-1200.9375,0.0,6.5,0.396728475,3.6991882500000015,0.0,-95005.0,6.75,-135.0,-1200.9375,0.0,8.0,0.729980394,1.2409425000000012,0.0,-1065.0,6.25,-22.5,-1200.9375,0.0,5.0,3.139648116,3.7053000000000016,0.0,-1477.0,5.75,-127.5,-1200.9375,0.0,6.5,1.8469236390000001,1.2395000000000012,0.0,0.14000000059604645,0.46000000834465027,-34.5099983215332,0.0340576171875,-0.1444091796875,0.69915771484375,36.16999816894531,0.0,106.0,0.5010528564453125,-1.1732025146484375,Closing,0.0,0.0,3.0,0.0,0.0,0.0,0.0,0.0,
10.773704999999987,0.0,0.0,87455.0,41.125,-60.0,-2264.0625,0.0,1.75,4.777831542,3.6991882500000015,0.0,-95047.0,23.25,-532.5,-2264.0625,0.0,0.5,1.463622897,1.2409425000000012,0.0,-1088.0,32.5,-217.5,-2264.0625,0.0,1.5,2.5268552100000004,3.7053000000000016,0.0,-1509.0,32.0,-337.5,-2264.0625,0.0,0.875,2.5415036460000002,1.2395000000000012,0.0,0.9399999976158142,0.7599999904632568,-32.72999954223633,0.095947265625,0.08587646484375,0.8092041015625,36.16999816894531,0.0,32.0,0.5001678466796875,-1.1715545654296875,Closing,0.0,0.0,3.0,0.0,0.0,0.0,0.0,0.0,
10.875994999999996,0.0,0.0,87466.0,8.25,-15.0,0.0,0.0,2.125,4.399413612,3.6991882500000015,-0.5108647339999997,-95203.0,4.0,-877.5,0.0,0.0,1.0,1.861572075,1.2409425000000012,0.0,-1148.0,7.125,-405.0,0.0,0.0,2.625,2.097167754,3.7053000000000016,-0.6213378270000005,-1587.0,0.125,-457.5,0.0,0.0,1.0,2.980956726,1.2395000000000012,0.0,1.690000057220459,-0.029999999329447746,-30.440000534057617,-0.19219970703125,-0.49017333984375,1.373046875,36.16999816894531,0.0,103.0,0.4904022216796875,-1.1602020263671875,Closing,0.0,0.0,3.0,0.0,0.0,0.0,0.0,0.0,
