Time,ClimberA1,ClimberA2,FRpos,FRCurrent,FRspeed,FRsetpoint,FRApos,FRACurrent,FREncpos,FREncSetpoint,FREncSpeed,FLpos,FLCurrent,FLspeed,FLsetpoint,FLApos,FLACurrent,FLEncpos,FLEncSetpoint,FLEncSpeed,BRpos,BRCurrent,BRspeed,BRsetpoint,BRApos,BRACurrent,BREncpos,BREncSetpoint,BREncSpeed,BLpos,BLCurrent,BLspeed,BLsetpoint,BLApos,BLACurrent,BLEncpos,BLEncSetpoint,BLEncSpeed,navx_Pitch,navx_Roll,navx_Yaw,navx_XAcc,navx_YAcc,navx_ZAcc,navx_Temp,navx_Bar,navx_Alt,navx_XDis,navx_YDis,GearPlacerState,ShootOutputV,ShootOutputCurrent,ShootEncPos,ShootEncVelocity,ShootSpeed,ShootSetpoint,CarouselSetpoint,CarouselCurrent,
0.5902119999999995,0.0,0.0,87744.0,0.0,0.0,0.0,0.0,0.125,0.823974525,0.01,0.0,-153913.0,0.0,0.0,0.0,0.0,0.25,0.4882812,0.01,0.0,14664.0,0.0,0.0,0.0,0.0,0.0,3.353271141,0.01,0.0,-28866.0,0.0,0.0,0.0,0.0,0.25,1.573486167,0.01,0.0,0.38999998569488525,-0.6299999952316284,-104.80999755859375,-0.0111083984375,0.00726318359375,1.02349853515625,36.849998474121094,0.0,0.0,2.3931884765625,-2.5866241455078125,Waiting,0.0,0.0,3.0,0.0,0.0,0.0,0.0,0.125,
0.6989419999999991,0.0,0.0,87744.0,0.0,0.0,420.0,0.0,0.25,0.821533119,0.01,0.0,-153913.0,0.0,0.0,-420.0,0.0,0.25,0.4882812,0.01,0.0,14664.0,0.0,0.0,420.0,0.0,0.0,3.353271141,0.01,0.0,-28866.0,0.125,0.0,-420.0,0.0,0.25,1.57470687,0.01,0.0,0.3799999952316284,-0.6399999856948853,-104.80999755859375,-0.0115966796875,0.00634765625,1.01708984375,36.849998474121094,0.0,0.0,2.3931884765625,-2.5866241455078125,Waiting,0.0,0.0,3.0,0.0,0.0,0.0,0.0,0.0,
0.7270370000000003,0.0,0.0,87744.0,0.125,0.0,420.0,0.0,0.25,0.821533119,0.01,0.0,-153913.0,0.0,0.0,-420.0,0.0,0.25,0.49316401200000004,0.01,0.0,14664.0,0.375,0.0,420.0,0.0,0.0,3.355712547,0.01,0.0,-28866.0,0.375,0.0,-420.0,0.0,0.25,1.57470687,0.01,0.0,0.38999998569488525,-0.6299999952316284,-104.80999755859375,-0.00396728515625,0.00836181640625,1.01531982421875,36.849998474121094,0.0,-3.0,2.3931884765625,-2.5866241455078125,Waiting,0.0,0.0,3.0,0.0,0.0,0.0,0.0,0.0,
0.8771700000000019,0.0,0.0,87774.0,0.5,180.0,NaN,0.0,0.25,0.821533119,NaN,0.0,-153931.0,1.125,-120.0,NaN,0.0,0.25,0.498046824,NaN,0.008544920999999484,14670.0,1.375,37.5,NaN,0.0,0.0,3.342284814,NaN,-0.008544920999999484,-28875.0,0.5,-135.0,NaN,0.0,0.25,1.57470687,NaN,0.0,0.3799999952316284,-0.4399999976158142,-104.8499984741211,-0.0069580078125,0.0291748046875,0.9779052734375,36.849998474121094,0.0,-22.0,2.39312744140625,-2.585174560546875,Waiting,0.0,0.0,3.0,0.0,0.0,0.0,0.0,0.125,
0.9497309999999998,0.0,0.0,87774.0,0.125,60.0,NaN,0.0,0.25,0.821533119,NaN,-0.0012207029999999897,-153935.0,0.0,-22.5,NaN,0.0,0.0,0.498046824,NaN,0.0012207030000004337,14673.0,0.375,22.5,NaN,0.0,0.0,3.342284814,NaN,0.0,-28892.0,0.375,-52.5,NaN,0.0,0.125,1.573486167,NaN,-0.0012207030000004337,0.38999998569488525,-0.5400000214576721,-104.8499984741211,-0.0521240234375,0.01220703125,1.032958984375,36.849998474121094,0.0,5.0,2.393157958984375,-2.584259033203125,Waiting,0.0,0.0,3.0,0.0,0.0,0.0,0.0,0.125,
1.0119239999999992,0.0,0.0,87775.0,0.125,0.0,424.8953961344487,0.0,0.125,0.821533119,0.11927545009225914,0.0,-153935.0,0.125,0.0,-424.8953961344487,0.0,0.0,0.498046824,0.12003766655518,0.0,14673.0,0.5,7.5,424.8953961344487,0.0,0.0,3.343505517,0.11947251541655059,0.0,-28894.0,0.375,0.0,-424.8953961344487,0.0,0.125,1.57470687,0.11989813202073876,0.0,0.38999998569488525,-0.7099999785423279,-104.83999633789062,-0.028564453125,0.01177978515625,1.05828857421875,36.84000015258789,0.0,0.0,2.393310546875,-2.5846405029296875,Waiting,0.0,0.0,3.0,0.0,0.0,0.0,0.0,0.0,
1.1356029999999993,0.0,0.0,87781.0,1.75,37.5,424.8953961344487,0.0,0.375,0.821533119,0.11927545009225914,0.008544921000000039,-153939.0,3.375,-52.5,-424.8953961344487,0.0,0.25,0.5419921320000001,0.12003766655518,0.030517575000000186,14675.0,2.25,22.5,424.8953961344487,0.0,0.125,3.3679195770000003,0.11947251541655059,0.004882811999999959,-28902.0,1.625,-37.5,-424.8953961344487,0.0,0.375,1.622314287,0.11989813202073876,0.025634763000000227,0.36000001430511475,-0.4099999964237213,-104.86000061035156,0.0447998046875,0.0045166015625,0.95404052734375,36.84000015258789,0.0,-11.0,2.393096923828125,-2.5829925537109375,Waiting,0.0,0.0,3.0,0.0,0.0,0.0,0.0,0.0,
1.2091929999999993,0.0,0.0,87781.0,2.25,60.0,423.9696204936888,0.0,0.375,0.860595615,0.10750455483864146,0.0,-153948.0,3.125,-67.5,-423.9696204936888,0.0,0.25,0.5798339250000001,0.1081915507080648,0.0,14685.0,3.125,52.5,423.9696204936888,0.0,0.125,3.410644182,0.10768217244516232,0.0,-28902.0,2.25,-75.0,-423.9696204936888,0.0,0.375,1.6809080310000002,0.1080657863701552,0.0,0.3799999952316284,-0.27000001072883606,-104.87000274658203,0.04327392578125,-0.0035400390625,1.0765380859375,36.84000015258789,0.0,-1.0,2.3928070068359375,-2.5803985595703125,Waiting,0.0,0.0,3.0,0.0,0.0,0.0,0.0,0.0,
1.2709789999999994,0.0,0.0,87796.0,2.625,105.0,423.9696204936888,0.0,0.375,0.888671784,0.10750455483864146,0.023193357000000026,-153948.0,4.25,-112.5,-423.9696204936888,0.0,0.25,0.6201171240000001,0.1081915507080648,0.04272460500000008,14685.0,3.25,82.5,423.9696204936888,0.0,0.125,3.439941054,0.10768217244516232,-4.89157188,-28925.0,2.25,-120.0,-423.9696204936888,0.0,0.375,1.724853339,0.1080657863701552,-4.89696485,0.46000000834465027,-0.019999999552965164,-104.95999908447266,0.056884765625,-0.00750732421875,1.0172119140625,36.84000015258789,0.0,0.0,2.3913116455078125,-2.5753021240234375,Waiting,0.0,0.0,3.0,0.0,0.0,0.0,0.0,0.0,
1.3355190000000001,0.0,0.0,87796.0,2.5,172.5,423.9696204936888,0.0,0.25,0.8923338930000001,0.10750455483864146,0.009765624000000028,-153973.0,3.875,-180.0,-423.9696204936888,0.0,0.0,0.6726073530000001,0.1081915507080648,0.04638671399999961,14704.0,3.0,120.0,423.9696204936888,0.0,0.0,3.446044569,0.10768217244516232,0.009765623999999917,-28925.0,2.75,-180.0,-423.9696204936888,0.0,0.125,1.752929508,0.1080657863701552,0.020751951000000046,0.5099999904632568,0.18000000715255737,-104.91999816894531,0.0830078125,0.02490234375,1.03082275390625,36.84000015258789,0.0,-35.0,2.38934326171875,-2.569427490234375,Waiting,0.0,0.0,3.0,0.0,0.0,0.0,0.0,0.0,
1.4177680000000001,0.0,0.0,87829.0,2.25,262.5,424.8953961344487,0.0,0.125,0.8935545960000001,0.11927545009225914,0.0,-154019.0,4.0,-277.5,-424.8953961344487,0.0,0.25,0.715331958,0.12003766655518,0.0,14704.0,3.5,195.0,424.8953961344487,0.0,0.0,3.439941054,0.11947251541655059,0.0,-28965.0,2.375,-262.5,-424.8953961344487,0.0,0.125,1.744384587,0.11989813202073876,0.0,0.6000000238418579,0.4300000071525574,-105.08000183105469,0.067138671875,0.0198974609375,1.04840087890625,36.84000015258789,0.0,-23.0,2.3856353759765625,-2.5596923828125,Waiting,0.0,0.0,3.0,0.0,0.0,0.0,0.0,0.0,
1.4775070000000015,0.0,0.0,87885.0,2.125,337.5,423.9696204936888,0.0,0.25,0.849609288,0.10750455483864146,-0.0012207029999999897,-154019.0,3.25,-330.0,-423.9696204936888,0.0,0.25,0.715331958,0.1081915507080648,0.04150390200000054,14748.0,3.0,315.0,423.9696204936888,0.0,0.0,3.446044569,0.10768217244516232,0.0012207029999999897,-28965.0,2.25,-307.5,-423.9696204936888,0.0,0.25,1.749267399,0.1080657863701552,0.009765623999999917,0.6000000238418579,0.5099999904632568,-105.2699966430664,0.0640869140625,0.04779052734375,1.06494140625,36.84000015258789,0.0,-49.0,2.3810272216796875,-2.548309326171875,Waiting,0.0,0.0,3.0,0.0,0.0,0.0,0.0,0.0,
1.5467600000000021,0.0,0.0,87885.0,1.875,397.5,423.9696204936888,0.0,0.125,0.8972167050000001,0.10750455483864146,0.003662108999999969,-154079.0,2.875,-382.5,-423.9696204936888,0.0,0.25,0.6872557890000001,0.1081915507080648,-0.014648435999999876,14811.0,2.625,382.5,423.9696204936888,0.0,0.0,3.444823866,0.10768217244516232,0.0,-29020.0,2.0,-382.5,-423.9696204936888,0.0,0.25,1.7675779440000001,0.1080657863701552,0.0,0.6000000238418579,0.6299999952316284,-105.55000305175781,0.061279296875,-3.662109375E-4,0.969482421875,36.88999938964844,0.0,-3.0,2.3778228759765625,-2.53082275390625,Waiting,0.0,0.0,3.0,0.0,0.0,0.0,0.0,0.0,
1.6878990000000011,0.0,0.0,87956.0,1.125,480.0,423.9696204936888,0.0,0.125,0.9069823290000001,0.10750455483864146,0.009765624000000028,-154150.0,2.25,-450.0,-423.9696204936888,0.0,0.25,0.6188964210000001,0.1081915507080648,-0.06835936800000031,14883.0,2.25,450.0,423.9696204936888,0.0,0.0,3.444823866,0.10768217244516232,0.0,-29087.0,1.375,-457.5,-423.9696204936888,0.0,0.25,1.7407224780000001,0.1080657863701552,-0.00976562400000014,0.5600000023841858,0.6399999856948853,-105.73999786376953,0.00738525390625,-0.03497314453125,1.082763671875,36.88999938964844,0.0,45.0,2.37811279296875,-2.509490966796875,Waiting,0.0,0.0,3.0,0.0,0.0,0.0,0.0,0.0,
1.8135440000000016,0.0,0.0,88036.0,0.75,502.5,421.768888321851,0.0,0.25,0.9069823290000001,0.07191924801325907,0.0,-154228.0,1.625,-487.5,-421.768888321851,0.0,0.125,0.6091307970000001,0.07237883994767803,0.0,14957.0,2.125,457.5,421.768888321851,0.0,0.0,3.446044569,0.07203807204554373,0.0,-29163.0,1.25,-487.5,-421.768888321851,0.0,0.25,1.7395017750000001,0.07229470512545659,0.0,0.5,0.6100000143051147,-105.86000061035156,0.01953125,0.0107421875,0.94024658203125,36.88999938964844,0.0,-4.0,2.37841796875,-2.4909820556640625,Waiting,0.0,0.0,3.0,0.0,0.0,0.0,0.0,0.0,
1.8729789999999993,0.0,0.0,88118.0,0.5,510.0,421.2291827664158,0.0,0.25,0.9082030320000001,0.059983937446018626,0.0,-154228.0,1.375,-502.5,-421.2291827664158,0.0,0.25,0.6091307970000001,0.060367258109212986,-0.024414059999999793,14957.0,1.75,465.0,421.2291827664158,0.0,0.125,3.446044569,0.060083042115721685,0.0,-29244.0,1.0,-502.5,-421.2291827664158,0.0,0.25,1.729736151,0.06029708582498342,0.0012207029999999897,0.5099999904632568,0.5600000023841858,-105.95999908447266,-0.0416259765625,-0.01806640625,1.0302734375,36.88999938964844,0.0,40.0,2.3785400390625,-2.4783477783203125,Waiting,0.0,0.0,3.0,0.0,0.0,0.0,0.0,0.0,
1.9722870000000003,0.0,0.0,88202.0,0.375,525.0,420.7870906111546,0.0,0.25,0.9069823290000001,0.04802077676867344,0.0,-154311.0,1.0,-517.5,-420.7870906111546,0.0,0.25,0.599365173,0.04832764818762024,-0.003662109000000413,15036.0,1.375,510.0,420.7870906111546,0.0,0.125,3.455810193,0.04810011606221059,-0.0012207029999999897,-29325.0,0.75,-502.5,-420.7870906111546,0.0,0.25,1.7382810720000001,0.04827147102186869,0.003662108999999969,0.5199999809265137,0.38999998569488525,-106.02999877929688,-0.06396484375,0.02374267578125,1.1033935546875,36.88999938964844,0.0,6.0,2.3787994384765625,-2.459991455078125,Waiting,0.0,0.0,3.0,0.0,0.0,0.0,0.0,0.0,
2.0914010000000016,0.0,0.0,88286.0,0.375,510.0,420.049236371836,0.0,0.25,0.9069823290000001,0.01201925261142284,0.0,-154393.0,0.75,-495.0,-420.049236371836,0.0,0.25,0.574951113,0.012096060304920076,-0.019531247999999835,15117.0,1.375,487.5,420.049236371836,0.0,0.125,3.4301754300000002,0.01203911066194186,-0.004882811999999959,-29406.0,0.625,-502.5,-420.049236371836,0.0,0.25,1.6882322490000001,0.012081999567222845,-0.03173827799999995,0.47999998927116394,0.33000001311302185,-106.06999969482422,-0.05950927734375,-0.00921630859375,1.069091796875,36.79999923706055,0.0,35.0,2.3790283203125,-2.4517974853515625,Waiting,0.0,0.0,3.0,0.0,0.0,0.0,0.0,0.0,
2.230223000000002,0.0,0.0,88365.0,0.375,487.5,420.049236371836,0.0,0.375,0.859374912,0.01201925261142284,0.0,-154472.0,0.75,-472.5,-420.049236371836,0.0,0.25,0.52490229,0.012096060304920076,-0.04394530799999963,15182.0,1.875,367.5,420.049236371836,0.0,0.125,3.387450825,0.01203911066194186,-0.04272460500000008,-29480.0,0.625,-465.0,-420.049236371836,0.0,0.25,1.6369627230000001,0.012081999567222845,-0.05493163499999998,0.38999998569488525,0.15000000596046448,-106.30000305175781,-0.02606201171875,-0.04730224609375,1.0111083984375,36.79999923706055,0.0,60.0,2.379486083984375,-2.453857421875,Waiting,0.0,0.0,3.0,0.0,0.0,0.0,0.0,0.125,
2.356203000000001,0.0,0.0,88441.0,0.375,465.0,420.0,0.0,0.25,0.8312987430000001,0.01,0.0,-154619.0,0.75,-457.5,-420.0,0.0,0.125,0.5285643990000001,0.01,0.0,15249.0,1.75,442.5,420.0,0.0,0.125,3.358153953,0.01,0.0,-29553.0,0.625,-442.5,-420.0,0.0,0.25,1.6308592080000002,0.01,-0.024414060000000015,0.2800000011920929,-0.009999999776482582,-106.47000122070312,-0.02984619140625,-0.033935546875,1.02972412109375,36.79999923706055,0.0,45.0,2.3821868896484375,-2.4555816650390625,Waiting,0.0,0.0,3.0,0.0,0.0,0.0,0.0,0.125,
2.4766460000000006,0.0,0.0,88515.0,0.375,450.0,420.049236371836,0.0,0.125,0.809326089,4.920231747388577,0.0,-154691.0,0.75,-450.0,-420.049236371836,0.0,0.125,0.527343696,4.9516739396950795,0.0,15319.0,1.75,420.0,420.049236371836,0.0,0.0,3.3618160620000004,4.928360889338058,0.0012207029999999897,-29624.0,0.625,-442.5,-420.049236371836,0.0,0.25,1.6320799110000002,4.945918000432777,0.0,0.27000001072883606,-0.09000000357627869,-106.56999969482422,-0.01116943359375,-0.00860595703125,1.03497314453125,36.79999923706055,0.0,15.0,2.3828582763671875,-2.4569244384765625,Waiting,0.0,0.0,3.0,0.0,0.0,0.0,0.0,0.125,
2.617285,0.0,0.0,88586.0,0.375,435.0,420.4429197751611,0.0,0.25,0.8166503070000001,4.896215757744391,0.0,-154761.0,0.75,-427.5,-420.4429197751611,0.0,0.25,0.521240181,4.927504478547194,-0.003662109000000413,15422.0,2.875,285.0,420.4429197751611,0.0,0.125,3.3618160620000004,4.904305220792776,0.0,-29694.0,0.625,-435.0,-420.4429197751611,0.0,0.25,1.6333006140000002,4.921776634420408,0.0,0.3100000023841858,-0.18000000715255737,-106.58999633789062,0.01531982421875,-0.0244140625,0.98095703125,36.77000045776367,0.0,23.0,2.3831787109375,-2.457061767578125,Waiting,0.0,0.0,3.0,0.0,0.0,0.0,0.0,0.0,
2.812325000000001,0.0,0.0,88727.0,0.125,435.0,420.4429197751611,0.0,0.25,0.8154296040000001,4.896215757744391,0.0012207029999995456,-154831.0,0.75,-427.5,-420.4429197751611,0.0,0.25,0.482177685,4.927504478547194,-0.024414059999999793,15486.0,2.875,345.0,420.4429197751611,0.0,0.125,3.334960596,4.904305220792776,0.0,-29832.0,0.625,-420.0,-420.4429197751611,0.0,0.25,1.613769366,4.921776634420408,0.0,0.30000001192092896,-0.2199999988079071,-106.73999786376953,-0.0506591796875,0.00628662109375,0.99835205078125,36.77000045776367,0.0,12.0,2.383331298828125,-2.45721435546875,Waiting,0.0,0.0,3.0,0.0,0.0,0.0,0.0,0.125,
2.9749269999999997,0.0,0.0,88796.0,0.125,427.5,421.2291827664158,0.0,0.25,0.825195228,4.872267062553982,0.0,-154968.0,0.75,-427.5,-421.2291827664158,0.0,0.25,0.490722606,4.903402741890788,-0.010986327000000351,15613.0,2.625,420.0,421.2291827664158,0.0,0.125,3.3251949720000002,4.880316957884279,-0.014648435999999876,-29899.0,0.625,-427.5,-421.2291827664158,0.0,0.25,1.6113279600000001,4.897702914175017,-0.004882811999999959,0.33000001311302185,-0.23999999463558197,-106.83999633789062,-0.02069091796875,-7.9345703125E-4,0.97576904296875,36.77000045776367,0.0,10.0,2.38330078125,-2.4574127197265625,Waiting,0.0,0.0,3.0,0.0,0.0,0.0,0.0,0.125,
3.092494999999999,0.0,0.0,88865.0,0.125,420.0,421.768888321851,0.0,0.25,0.782470623,4.860331751986741,-0.024414059999999793,-155037.0,0.625,-420.0,-421.768888321851,0.0,0.25,0.483398388,4.891391160052322,-0.003662108999999525,15613.0,3.0,307.5,421.768888321851,0.0,0.125,3.3251949720000002,4.8683619279544565,0.0,-29969.0,0.625,-427.5,-421.768888321851,0.0,0.25,1.594238118,4.885705294874543,-0.009765623999999917,0.3199999928474426,-0.23999999463558197,-106.9000015258789,0.01031494140625,-0.02996826171875,0.995849609375,36.7400016784668,0.0,29.0,2.3833160400390625,-2.45867919921875,Waiting,0.0,0.0,3.0,0.0,0.0,0.0,0.0,0.0,
3.2110859999999994,0.0,0.0,88932.0,0.125,420.0,421.768888321851,0.0,0.25,0.759277266,4.860331751986741,0.0,-155106.0,0.625,-427.5,-421.768888321851,0.0,0.25,0.482177685,4.891391160052322,0.0,15650.0,5.25,210.0,421.768888321851,0.0,0.125,3.304443021,4.8683619279544565,0.0,-30038.0,0.625,-427.5,-421.768888321851,0.0,0.25,1.5759275730000002,4.885705294874543,0.0,0.28999999165534973,-0.20999999344348907,-106.94000244140625,-0.0162353515625,0.0233154296875,0.92529296875,36.7400016784668,0.0,-14.0,2.383941650390625,-2.4598846435546875,Waiting,0.0,0.0,3.0,0.0,0.0,0.0,0.0,0.0,
3.273559000000001,0.0,0.0,89001.0,0.125,420.0,422.40583311735,0.0,0.25,0.755615157,4.848429690877773,-0.024414059999999793,-155106.0,0.625,-435.0,-422.40583311735,0.0,0.25,0.47485346700000003,4.8794130401490845,-0.0012207030000004337,15704.0,4.75,367.5,422.40583311735,0.0,0.125,3.294677397,4.856440202417223,-0.019531248000000723,-30038.0,0.625,-427.5,-422.40583311735,0.0,0.25,1.561279137,4.873741098612378,-0.028076169000000206,0.27000001072883606,-0.20000000298023224,-107.01000213623047,-0.0224609375,-0.05426025390625,1.17620849609375,36.7400016784668,0.0,62.0,2.3839263916015625,-2.4598388671875,Waiting,0.0,0.0,3.0,0.0,0.0,0.0,0.0,0.0,
3.3386860000000014,0.0,0.0,89001.0,0.125,450.0,422.40583311735,0.0,0.25,0.754394454,4.848429690877773,0.0,-155178.0,0.5,-442.5,-422.40583311735,0.0,0.25,0.46020503100000004,4.8794130401490845,-0.014648435999999876,15769.0,4.25,412.5,422.40583311735,0.0,0.125,3.294677397,4.856440202417223,0.0,-30109.0,0.625,-450.0,-422.40583311735,0.0,0.25,1.561279137,4.873741098612378,-0.003662108999999525,0.23000000417232513,-0.1899999976158142,-107.06999969482422,0.006103515625,-0.03887939453125,1.0411376953125,36.7400016784668,0.0,38.0,2.384063720703125,-2.4598236083984375,Waiting,0.0,0.0,3.0,0.0,0.0,0.0,0.0,0.0,
3.4154390000000023,0.0,0.0,89073.0,0.125,442.5,423.139578035428,0.0,0.25,0.755615157,4.836566187440436,0.0,-155178.0,0.5,-450.0,-423.139578035428,0.0,0.25,0.449218704,4.867473724315979,0.0,15769.0,4.25,405.0,423.139578035428,0.0,0.125,3.294677397,4.844557098256096,0.0,-30183.0,0.375,-450.0,-423.139578035428,0.0,0.25,1.560058434,4.861815661313603,0.0,0.2199999988079071,-0.20999999344348907,-107.13999938964844,0.02838134765625,0.03326416015625,1.04052734375,36.7400016784668,0.0,-35.0,2.384033203125,-2.4595947265625,Waiting,0.0,0.0,3.0,0.0,0.0,0.0,0.0,0.0,
3.4768369999999997,0.0,0.0,89073.0,0.125,435.0,423.9696204936888,0.0,0.25,0.75683586,4.824746445161359,0.0,-155251.0,0.375,-450.0,-423.9696204936888,0.0,0.25,0.44067378300000004,4.855578449291936,-0.01342773300000033,15846.0,4.25,465.0,423.9696204936888,0.0,0.125,3.289794585,4.832717827554839,0.0,-30183.0,0.375,-465.0,-423.9696204936888,0.0,0.25,1.560058434,4.849934213629845,-0.0012207030000004337,0.23999999463558197,-0.1599999964237213,-107.18000030517578,-0.01971435546875,0.0196533203125,0.87994384765625,36.7400016784668,0.0,-10.0,2.3836822509765625,-2.4593048095703125,Waiting,0.0,0.0,3.0,0.0,0.0,0.0,0.0,0.0,
3.539709999999999,0.0,0.0,89148.0,0.125,472.5,423.9696204936888,0.0,0.25,0.7507323450000001,4.824746445161359,-0.006103515000000392,-155251.0,0.375,-457.5,-423.9696204936888,0.0,0.25,0.430908159,4.855578449291936,-0.009765623999999917,15846.0,3.5,487.5,423.9696204936888,0.0,0.125,3.2751461490000002,4.832717827554839,-0.014648435999999876,-30256.0,0.375,-457.5,-423.9696204936888,0.0,0.25,1.5551756220000001,4.849934213629845,0.0,0.20999999344348907,-0.2199999988079071,-107.25,-0.01593017578125,-0.0242919921875,0.87457275390625,36.7400016784668,0.0,30.0,2.3834228515625,-2.459320068359375,Waiting,0.0,0.0,3.0,0.0,0.0,0.0,0.0,0.0,
3.6139259999999993,0.0,0.0,89148.0,0.125,465.0,423.9696204936888,0.0,0.25,0.7495116420000001,4.824746445161359,0.0,-155324.0,0.375,-442.5,-423.9696204936888,0.0,0.25,0.424804644,4.855578449291936,0.0,15926.0,3.25,495.0,423.9696204936888,0.0,0.125,3.2604977130000004,4.832717827554839,0.0,-30256.0,0.375,-450.0,-423.9696204936888,0.0,0.25,1.540527186,4.849934213629845,0.0,0.15000000596046448,-0.3400000035762787,-107.36000061035156,-0.04168701171875,-0.016845703125,1.0968017578125,36.7400016784668,0.0,29.0,2.38372802734375,-2.459808349609375,Waiting,0.0,0.0,3.0,0.0,0.0,0.0,0.0,0.0,
3.668956000000002,0.0,0.0,89223.0,0.125,465.0,424.8953961344487,0.0,0.25,0.761718672,4.812975549907741,0.0012207030000004337,-155324.0,0.375,-435.0,-424.8953961344487,0.0,0.25,0.42114253500000004,4.84373233344482,-0.009765623999999917,15926.0,3.25,495.0,424.8953961344487,0.0,0.125,3.254394198,4.82092748458345,-0.014648435999999876,-30328.0,0.375,-442.5,-424.8953961344487,0.0,0.25,1.5307615620000001,4.838101867979261,-0.014648435999999876,0.11999999731779099,-0.33000001311302185,-107.43000030517578,0.0137939453125,-0.0062255859375,0.9168701171875,36.7400016784668,0.0,2.0,2.3843231201171875,-2.46038818359375,Waiting,0.0,0.0,3.0,0.0,0.0,0.0,0.0,0.0,
3.737117000000002,0.0,0.0,89223.0,0.125,457.5,424.8953961344487,0.0,0.25,0.7263182850000001,4.812975549907741,0.0012207029999995456,-155395.0,0.375,-442.5,-424.8953961344487,0.0,0.25,0.42236323800000003,4.84373233344482,0.0,16004.0,3.0,480.0,424.8953961344487,0.0,0.125,3.2556149010000004,4.82092748458345,0.0,-30328.0,0.375,-435.0,-424.8953961344487,0.0,0.25,1.5319822650000001,4.838101867979261,-0.0012207030000004337,0.17000000178813934,-0.4000000059604645,-107.58000183105469,-0.03857421875,0.0069580078125,1.10821533203125,36.7400016784668,0.0,5.0,2.38525390625,-2.461517333984375,Waiting,0.0,0.0,3.0,0.0,0.0,0.0,0.0,0.125,
3.8118240000000005,0.0,0.0,89297.0,0.125,457.5,425.9162806985224,0.0,0.25,0.731201097,4.801258457807891,0.0,-155463.0,0.375,-420.0,-425.9162806985224,0.0,0.25,0.42114253500000004,4.831940364574527,0.0,16004.0,3.25,472.5,425.9162806985224,0.0,0.125,3.2556149010000004,4.809191033658689,0.0,-30397.0,0.375,-420.0,-425.9162806985224,0.0,0.25,1.5295408590000001,4.826323606363813,0.0,0.1599999964237213,-0.4000000059604645,-107.72000122070312,-0.06390380859375,0.00140380859375,1.06317138671875,36.7400016784668,0.0,18.0,2.385650634765625,-2.462677001953125,Waiting,0.0,0.0,3.0,0.0,0.0,0.0,0.0,0.0,
3.8726280000000006,0.0,0.0,89369.0,0.125,450.0,425.9162806985224,0.0,0.375,0.716552661,4.801258457807891,-0.019531248000000723,-155463.0,0.375,-420.0,-425.9162806985224,0.0,0.25,0.42114253500000004,4.831940364574527,0.0012207030000004337,16080.0,3.0,465.0,425.9162806985224,0.0,0.125,3.253173495,4.809191033658689,0.0,-30397.0,0.375,-420.0,-425.9162806985224,0.0,0.25,1.5319822650000001,4.826323606363813,-0.0012207029999995456,0.12999999523162842,-0.44999998807907104,-107.83999633789062,-0.022705078125,-0.023193359375,1.0179443359375,36.7400016784668,0.0,28.0,2.38555908203125,-2.4642333984375,Waiting,0.0,0.0,3.0,0.0,0.0,0.0,0.0,0.0,
3.9444789999999994,0.0,0.0,89369.0,0.125,435.0,427.0315920690178,0.0,0.25,0.703124928,4.789599983969735,-0.009765623999999917,-155530.0,0.375,-412.5,-427.0315920690178,0.0,0.25,0.41503902000000004,4.820207388559393,-0.003662108999999525,16152.0,3.25,457.5,427.0315920690178,0.0,0.125,3.242187168,4.797513297843942,-0.009765623999999917,-30462.0,0.375,-405.0,-427.0315920690178,0.0,0.25,1.520995938,4.814604269028877,-0.007324217999999938,0.10999999940395355,-0.5,-107.91000366210938,-0.01763916015625,-0.04052734375,1.0484619140625,36.7400016784668,0.0,43.0,2.3856201171875,-2.4646453857421875,Waiting,0.0,0.0,3.0,0.0,0.0,0.0,0.0,0.125,
4.015021000000001,0.0,0.0,89436.0,0.125,412.5,427.0315920690178,0.0,0.25,0.701904225,4.789599983969735,0.0,-155530.0,0.375,-412.5,-427.0315920690178,0.0,0.25,0.40039058400000005,4.820207388559393,0.0,16152.0,2.875,442.5,427.0315920690178,0.0,0.125,3.232421544,4.797513297843942,0.0,-30527.0,0.375,-412.5,-427.0315920690178,0.0,0.25,1.512451017,4.814604269028877,0.0,0.05999999865889549,-0.5400000214576721,-107.94000244140625,-0.0216064453125,-0.0225830078125,0.9581298828125,36.7400016784668,0.0,26.0,2.3860626220703125,-2.4648590087890625,Waiting,0.0,0.0,3.0,0.0,0.0,0.0,0.0,0.0,
4.071266,0.0,0.0,89436.0,0.125,412.5,428.24059247000696,0.0,0.25,0.703124928,4.778004792092225,-0.004882811999999959,-155596.0,0.375,-412.5,-428.24059247000696,0.0,0.25,0.393066366,4.808538098901216,-0.009765624000000805,16222.0,3.25,435.0,428.24059247000696,0.0,0.125,3.227538732,4.785898948543459,-0.009765623999999917,-30527.0,0.625,-397.5,-428.24059247000696,0.0,0.25,1.5026853930000001,4.802948544020418,-0.008544921000000372,0.07000000029802322,-0.5299999713897705,-108.01000213623047,-0.02215576171875,-0.03070068359375,1.01239013671875,36.7400016784668,0.0,34.0,2.386474609375,-2.46490478515625,Waiting,0.0,0.0,3.0,0.0,0.0,0.0,0.0,0.0,
4.139124,0.0,0.0,89503.0,0.125,412.5,428.24059247000696,0.0,0.25,0.701904225,4.778004792092225,0.0,-155596.0,0.5,-405.0,-428.24059247000696,0.0,0.25,0.38208003900000004,4.808538098901216,-0.009765623999999917,16222.0,3.0,442.5,428.24059247000696,0.0,0.125,3.2226559200000002,4.785898948543459,-0.006103514999999504,-30592.0,0.625,-397.5,-428.24059247000696,0.0,0.25,1.492919769,4.802948544020418,-0.008544921000000372,0.07000000029802322,-0.5299999713897705,-108.13999938964844,-0.01348876953125,0.01568603515625,1.1151123046875,36.72999954223633,0.0,-12.0,2.386871337890625,-2.4644622802734375,Waiting,0.0,0.0,3.0,0.0,0.0,0.0,0.0,0.0,
4.215042000000001,0.0,0.0,89503.0,0.125,420.0,429.54249080416946,0.0,0.25,0.701904225,4.766477385014434,0.0,-155662.0,0.5,-405.0,-429.54249080416946,0.0,0.25,0.37475582100000004,4.796937027213962,0.0,16292.0,3.375,435.0,429.54249080416946,0.0,0.125,3.2226559200000002,4.774352496035848,0.0,-30592.0,0.625,-397.5,-429.54249080416946,0.0,0.25,1.486816254,4.7913609576847485,0.0,0.09000000357627869,-0.49000000953674316,-108.26000213623047,0.008056640625,0.02252197265625,1.026123046875,36.72999954223633,0.0,-24.0,2.3865509033203125,-2.4635162353515625,Waiting,0.0,0.0,3.0,0.0,0.0,0.0,0.0,0.0,
4.2690920000000006,0.0,0.0,89571.0,0.125,420.0,428.24059247000696,0.0,0.25,0.701904225,4.778004792092225,-0.0012207030000004337,-155662.0,0.625,-405.0,-428.24059247000696,0.0,0.25,0.377197227,4.808538098901216,-0.003662109000000413,16292.0,3.0,435.0,428.24059247000696,0.0,0.125,3.2214352170000002,4.785898948543459,0.0,-30657.0,0.625,-397.5,-428.24059247000696,0.0,0.25,1.492919769,4.802948544020418,-0.0012207030000004337,0.10000000149011612,-0.49000000953674316,-108.3499984741211,-0.02239990234375,0.03045654296875,1.04071044921875,36.72999954223633,0.0,-22.0,2.3863372802734375,-2.4624786376953125,Waiting,0.0,0.0,3.0,0.0,0.0,0.0,0.0,0.125,
4.3334850000000005,0.0,0.0,89571.0,0.125,420.0,429.54249080416946,0.0,0.25,0.692138601,4.766477385014434,0.0012207030000004337,-155727.0,0.625,-405.0,-429.54249080416946,0.0,0.125,0.383300742,4.796937027213962,-0.006103514999999504,16363.0,3.25,435.0,429.54249080416946,0.0,0.125,3.2189938110000003,4.774352496035848,0.0,-30657.0,0.625,-405.0,-429.54249080416946,0.0,0.25,1.488036957,4.7913609576847485,-0.004882811999999959,0.10999999940395355,-0.5099999904632568,-108.38999938964844,-0.00164794921875,0.00396728515625,0.95147705078125,36.72999954223633,0.0,-4.0,2.3860321044921875,-2.462066650390625,Waiting,0.0,0.0,3.0,0.0,0.0,0.0,0.0,0.0,
4.41141,0.0,0.0,89639.0,0.125,420.0,428.24059247000696,0.0,0.25,0.68359368,4.778004792092225,0.0,-155794.0,0.625,-420.0,-428.24059247000696,0.0,0.25,0.37597652400000003,4.808538098901216,0.0,16363.0,3.125,442.5,428.24059247000696,0.0,0.125,3.2165524050000003,4.785898948543459,0.0,-30722.0,0.625,-405.0,-428.24059247000696,0.0,0.25,1.48925766,4.802948544020418,0.0,0.09000000357627869,-0.49000000953674316,-108.48999786376953,-0.04351806640625,0.0638427734375,0.9864501953125,36.72999954223633,0.0,-47.0,2.385406494140625,-2.4622802734375,Waiting,0.0,0.0,3.0,0.0,0.0,0.0,0.0,0.0,
4.476274000000001,0.0,0.0,89709.0,0.125,427.5,430.9364451129221,0.0,0.25,0.6738280560000001,4.755022096236761,-0.009765623999999917,-155794.0,0.625,-412.5,-430.9364451129221,0.0,0.25,0.377197227,4.785408534690783,0.0012207029999995456,16434.0,3.25,442.5,430.9364451129221,0.0,0.125,3.2165524050000003,4.762878280981259,0.0,-30722.0,0.625,-412.5,-430.9364451129221,0.0,0.25,1.5014646900000002,4.77984586614547,0.0,0.10999999940395355,-0.5299999713897705,-108.58999633789062,-0.04083251953125,0.0013427734375,1.111328125,36.72999954223633,0.0,10.0,2.3845977783203125,-2.4628753662109375,Waiting,0.0,0.0,3.0,0.0,0.0,0.0,0.0,0.0,
4.547406999999999,0.0,0.0,89709.0,0.125,435.0,429.54249080416946,0.0,0.25,0.6726073530000001,4.766477385014434,0.0012207030000004337,-155861.0,0.75,-412.5,-429.54249080416946,0.0,0.25,0.377197227,4.796937027213962,-0.0012207029999995456,16504.0,2.875,442.5,429.54249080416946,0.0,0.125,3.2128902960000003,4.774352496035848,0.0,-30788.0,0.625,-405.0,-429.54249080416946,0.0,0.25,1.488036957,4.7913609576847485,0.0,0.10000000149011612,-0.5400000214576721,-108.69000244140625,-0.0015869140625,0.025390625,1.14349365234375,36.72999954223633,0.0,-24.0,2.384185791015625,-2.46337890625,Waiting,0.0,0.0,3.0,0.0,0.0,0.0,0.0,0.125,
4.618526000000002,0.0,0.0,89777.0,0.125,420.0,429.54249080416946,0.0,0.25,0.667724541,4.766477385014434,0.0,-155861.0,0.625,-412.5,-429.54249080416946,0.0,0.25,0.372314415,4.796937027213962,0.0,16504.0,3.125,435.0,429.54249080416946,0.0,0.125,3.2080074840000004,4.774352496035848,0.0,-30853.0,0.625,-412.5,-429.54249080416946,0.0,0.25,1.488036957,4.7913609576847485,0.0,0.11999999731779099,-0.5299999713897705,-108.7300033569336,-0.0279541015625,0.01824951171875,1.037841796875,36.72999954223633,0.0,-9.0,2.3841094970703125,-2.4637908935546875,Waiting,0.0,0.0,3.0,0.0,0.0,0.0,0.0,0.125,
4.680420000000002,0.0,0.0,89777.0,0.125,420.0,430.9364451129221,0.0,0.25,0.668945244,4.755022096236761,-0.004882811999999959,-155928.0,0.75,-420.0,-430.9364451129221,0.0,0.25,0.367431603,4.785408534690783,-0.003662109000000413,16575.0,3.125,442.5,430.9364451129221,0.0,0.125,3.2067867810000004,4.762878280981259,-0.009765623999999917,-30853.0,0.625,-405.0,-430.9364451129221,0.0,0.25,1.488036957,4.77984586614547,-0.0012207029999995456,0.10999999940395355,-0.5199999809265137,-108.81999969482422,-0.06005859375,0.02801513671875,0.9686279296875,36.72999954223633,0.0,-8.0,2.3841094970703125,-2.464111328125,Waiting,0.0,0.0,3.0,0.0,0.0,0.0,0.0,0.0,
4.744966000000001,0.0,0.0,89845.0,0.125,427.5,429.54249080416946,0.0,0.25,0.6713866500000001,4.766477385014434,0.0,-155928.0,0.75,-420.0,-429.54249080416946,0.0,0.25,0.371093712,4.796937027213962,0.0,16575.0,3.25,435.0,429.54249080416946,0.0,0.125,3.2080074840000004,4.774352496035848,-0.0012207029999995456,-30920.0,0.625,-420.0,-429.54249080416946,0.0,0.25,1.488036957,4.7913609576847485,0.0012207029999995456,0.1599999964237213,-0.49000000953674316,-108.88999938964844,-0.03076171875,0.00152587890625,1.04266357421875,36.72999954223633,0.0,8.0,2.3836212158203125,-2.46441650390625,Waiting,0.0,0.0,3.0,0.0,0.0,0.0,0.0,0.0,
4.842162,0.0,0.0,89914.0,0.125,427.5,429.54249080416946,0.0,0.25,0.668945244,4.766477385014434,0.0,-155995.0,0.75,-420.0,-429.54249080416946,0.0,0.25,0.36865230600000004,4.796937027213962,0.0,16647.0,3.125,442.5,429.54249080416946,0.0,0.125,3.2080074840000004,4.774352496035848,0.0012207029999995456,-30989.0,0.625,-420.0,-429.54249080416946,0.0,0.25,1.48925766,4.7913609576847485,0.0,0.12999999523162842,-0.4399999976158142,-108.98999786376953,0.01116943359375,0.04595947265625,0.88323974609375,36.72999954223633,0.0,-47.0,2.3831329345703125,-2.4645843505859375,Waiting,0.0,0.0,3.0,0.0,0.0,0.0,0.0,0.125,
4.947597000000002,0.0,0.0,89982.0,0.125,420.0,429.54249080416946,0.0,0.25,0.668945244,4.766477385014434,0.0,-156064.0,0.75,-420.0,-429.54249080416946,0.0,0.25,0.367431603,4.796937027213962,0.0,16718.0,2.875,442.5,429.54249080416946,0.0,0.125,3.2080074840000004,4.774352496035848,0.0,-30989.0,0.625,-420.0,-429.54249080416946,0.0,0.25,1.488036957,4.7913609576847485,0.0,0.15000000596046448,-0.46000000834465027,-109.01000213623047,-0.010498046875,0.03619384765625,0.96038818359375,36.72999954223633,0.0,-30.0,2.3831634521484375,-2.46466064453125,Waiting,0.0,0.0,3.0,0.0,0.0,0.0,0.0,0.125,
5.017521,0.0,0.0,89982.0,0.125,420.0,429.54249080416946,0.0,0.25,0.668945244,4.766477385014434,0.0,-156132.0,0.75,-427.5,-429.54249080416946,0.0,0.25,0.367431603,4.796937027213962,0.0,16718.0,3.0,442.5,429.54249080416946,0.0,0.125,3.2080074840000004,4.774352496035848,0.0,-31057.0,0.625,-420.0,-429.54249080416946,0.0,0.25,1.48925766,4.7913609576847485,0.0,0.12999999523162842,-0.4000000059604645,-109.01000213623047,-0.03662109375,-0.0294189453125,0.92120361328125,36.72999954223633,0.0,39.0,2.383087158203125,-2.46466064453125,Waiting,0.0,0.0,3.0,0.0,0.0,0.0,0.0,0.0,
5.075847000000001,0.0,0.0,90050.0,0.125,427.5,430.9364451129221,0.0,0.25,0.668945244,4.755022096236761,0.0,-156132.0,0.625,-427.5,-430.9364451129221,0.0,0.25,0.367431603,4.785408534690783,0.0,16789.0,2.875,442.5,430.9364451129221,0.0,0.125,3.2080074840000004,4.762878280981259,-0.0012207029999995456,-31057.0,0.625,-420.0,-430.9364451129221,0.0,0.25,1.4770506300000001,4.77984586614547,-0.0012207029999995456,0.18000000715255737,-0.41999998688697815,-109.02999877929688,-0.02117919921875,0.01605224609375,0.91107177734375,36.72999954223633,0.0,-7.0,2.382843017578125,-2.4651947021484375,Waiting,0.0,0.0,3.0,0.0,0.0,0.0,0.0,0.0,
5.13802,0.0,0.0,90050.0,0.125,420.0,429.54249080416946,0.0,0.25,0.670165947,4.766477385014434,0.0,-156202.0,0.75,-435.0,-429.54249080416946,0.0,0.25,0.367431603,4.796937027213962,0.0,16860.0,2.875,442.5,429.54249080416946,0.0,0.125,3.2092281870000003,4.774352496035848,0.0,-31125.0,0.625,-435.0,-429.54249080416946,0.0,0.25,1.488036957,4.7913609576847485,-0.0012207029999995456,0.18000000715255737,-0.4399999976158142,-109.0199966430664,-0.022705078125,-0.021484375,0.962890625,36.72999954223633,0.0,28.0,2.3828582763671875,-2.4661865234375,Waiting,0.0,0.0,3.0,0.0,0.0,0.0,0.0,0.0,
5.211958000000003,0.0,0.0,90119.0,0.125,427.5,428.24059247000696,0.0,0.25,0.668945244,4.778004792092225,0.0,-156202.0,0.625,-435.0,-428.24059247000696,0.0,0.25,0.367431603,4.808538098901216,0.0,16860.0,2.875,450.0,428.24059247000696,0.0,0.125,3.2092281870000003,4.785898948543459,0.0,-31125.0,0.625,-427.5,-428.24059247000696,0.0,0.25,1.488036957,4.802948544020418,0.0,0.17000000178813934,-0.4099999964237213,-109.04000091552734,-8.544921875E-4,0.0472412109375,1.0531005859375,36.72999954223633,0.0,-43.0,2.382904052734375,-2.466094970703125,Waiting,0.0,0.0,3.0,0.0,0.0,0.0,0.0,0.125,
5.279226999999999,0.0,0.0,90119.0,0.125,427.5,428.24059247000696,0.0,0.25,0.668945244,4.778004792092225,-0.0012207030000004337,-156273.0,0.625,-442.5,-428.24059247000696,0.0,0.125,0.367431603,4.808538098901216,0.0,16933.0,2.75,450.0,428.24059247000696,0.0,0.0,3.2067867810000004,4.785898948543459,0.0,-31195.0,0.625,-442.5,-428.24059247000696,0.0,0.25,1.488036957,4.802948544020418,0.0012207029999995456,0.18000000715255737,-0.4399999976158142,-109.04000091552734,0.04412841796875,-0.0120849609375,1.0587158203125,36.72999954223633,0.0,-2.0,2.3825225830078125,-2.46612548828125,Waiting,0.0,0.0,3.0,0.0,0.0,0.0,0.0,0.0,
5.338867000000002,0.0,0.0,90189.0,0.125,435.0,427.0315920690178,0.0,0.125,0.6726073530000001,4.789599983969735,0.0,-156273.0,0.625,-435.0,-427.0315920690178,0.0,0.125,0.36865230600000004,4.820207388559393,0.0,16933.0,2.625,450.0,427.0315920690178,0.0,0.0,3.2092281870000003,4.797513297843942,0.0,-31262.0,0.625,-427.5,-427.0315920690178,0.0,0.25,1.486816254,4.814604269028877,0.0012207029999995456,0.20999999344348907,-0.44999998807907104,-109.04000091552734,-0.00152587890625,-0.0220947265625,1.0040283203125,36.72999954223633,0.0,22.0,2.3824005126953125,-2.4660491943359375,Waiting,0.0,0.0,3.0,0.0,0.0,0.0,0.0,0.0,
5.416892,0.0,0.0,90189.0,0.125,427.5,427.0315920690178,0.0,0.125,0.668945244,4.789599983969735,0.0,-156343.0,0.625,-435.0,-427.0315920690178,0.0,0.0,0.367431603,4.820207388559393,0.0,17007.0,2.625,450.0,427.0315920690178,0.0,0.0,3.2092281870000003,4.797513297843942,0.0,-31262.0,0.625,-427.5,-427.0315920690178,0.0,0.125,1.48925766,4.814604269028877,0.0,0.20000000298023224,-0.4399999976158142,-109.0199966430664,-0.03631591796875,0.01312255859375,1.04150390625,36.72999954223633,0.0,0.0,2.3822021484375,-2.46588134765625,Waiting,0.0,0.0,3.0,0.0,0.0,0.0,0.0,0.0,
5.476958999999999,0.0,0.0,90258.0,0.125,427.5,427.0315920690178,0.0,0.125,0.6604003230000001,4.789599983969735,0.0,-156413.0,0.5,-435.0,-427.0315920690178,0.0,0.0,0.367431603,4.820207388559393,0.0,17007.0,2.5,442.5,427.0315920690178,0.0,0.0,3.2067867810000004,4.797513297843942,0.0,-31334.0,0.625,-442.5,-427.0315920690178,0.0,0.125,1.488036957,4.814604269028877,0.0,0.20000000298023224,-0.46000000834465027,-109.01000213623047,0.00372314453125,-0.0081787109375,1.09808349609375,36.72999954223633,0.0,7.0,2.3822021484375,-2.466064453125,Waiting,0.0,0.0,3.0,0.0,0.0,0.0,0.0,0.0,
5.543292000000001,0.0,0.0,90327.0,0.125,420.0,425.9162806985224,0.0,0.125,0.643310481,4.801258457807891,0.0,-156413.0,0.5,-435.0,-425.9162806985224,0.0,0.0,0.367431603,4.831940364574527,0.0,17079.0,2.625,450.0,425.9162806985224,0.0,0.0,3.2080074840000004,4.809191033658689,0.0,-31334.0,0.625,-435.0,-425.9162806985224,0.0,0.125,1.483154145,4.826323606363813,-0.0012207029999995456,0.1899999976158142,-0.4699999988079071,-109.05999755859375,0.00286865234375,0.018798828125,1.0650634765625,36.72999954223633,0.0,-18.0,2.3822021484375,-2.4663848876953125,Waiting,0.0,0.0,3.0,0.0,0.0,0.0,0.0,0.0,
5.616670000000002,0.0,0.0,90327.0,0.125,427.5,425.9162806985224,0.0,0.125,0.667724541,4.801258457807891,0.0,-156481.0,0.5,-420.0,-425.9162806985224,0.0,0.0,0.367431603,4.831940364574527,0.0,17079.0,2.5,435.0,425.9162806985224,0.0,0.0,3.2080074840000004,4.809191033658689,0.0,-31403.0,0.625,-412.5,-425.9162806985224,0.0,0.125,1.483154145,4.826323606363813,0.0,0.20000000298023224,-0.5099999904632568,-109.05000305175781,-0.005859375,0.00701904296875,1.06005859375,36.709999084472656,0.0,-4.0,2.3822479248046875,-2.4664764404296875,Waiting,0.0,0.0,3.0,0.0,0.0,0.0,0.0,0.0,
5.673581000000002,0.0,0.0,90394.0,0.125,412.5,425.9162806985224,0.0,0.125,0.667724541,4.801258457807891,0.0,-156481.0,0.625,-420.0,-425.9162806985224,0.0,0.0,0.36865230600000004,4.831940364574527,-0.0012207030000004337,17148.0,2.625,427.5,425.9162806985224,0.0,0.0,3.2080074840000004,4.809191033658689,0.0,-31403.0,0.625,-420.0,-425.9162806985224,0.0,0.125,1.486816254,4.826323606363813,0.0012207029999995456,0.20000000298023224,-0.5299999713897705,-109.08000183105469,-0.0406494140625,0.0174560546875,1.0115966796875,36.709999084472656,0.0,-2.0,2.3822479248046875,-2.4665679931640625,Waiting,0.0,0.0,3.0,0.0,0.0,0.0,0.0,0.125,
5.748394,0.0,0.0,90394.0,0.125,420.0,424.8953961344487,0.0,0.25,0.668945244,4.812975549907741,-0.0012207030000004337,-156548.0,0.5,-412.5,-424.8953961344487,0.0,0.0,0.367431603,4.84373233344482,0.0012207030000004337,17216.0,2.5,427.5,424.8953961344487,0.0,0.0,3.2067867810000004,4.82092748458345,0.0,-31473.0,0.625,-427.5,-424.8953961344487,0.0,0.125,1.4990232840000002,4.838101867979261,-0.0012207029999995456,0.20999999344348907,-0.5400000214576721,-109.08000183105469,-0.04852294921875,0.0439453125,0.95306396484375,36.709999084472656,0.0,-25.0,2.3819427490234375,-2.4667816162109375,Waiting,0.0,0.0,3.0,0.0,0.0,0.0,0.0,0.0,
5.816237000000001,0.0,0.0,90461.0,0.125,412.5,424.8953961344487,0.0,0.25,0.668945244,4.812975549907741,0.0012207030000004337,-156548.0,0.625,-412.5,-424.8953961344487,0.0,0.125,0.367431603,4.84373233344482,0.0,17216.0,2.625,427.5,424.8953961344487,0.0,0.0,3.2080074840000004,4.82092748458345,0.0,-31541.0,0.625,-397.5,-424.8953961344487,0.0,0.125,1.48925766,4.838101867979261,0.0,0.20999999344348907,-0.5400000214576721,-109.12000274658203,0.01171875,-0.0244140625,0.99786376953125,36.709999084472656,0.0,19.0,2.3816680908203125,-2.4671173095703125,Waiting,0.0,0.0,3.0,0.0,0.0,0.0,0.0,0.0,
5.872829000000001,0.0,0.0,90461.0,0.125,405.0,423.9696204936888,0.0,0.25,0.668945244,4.824746445161359,0.0,-156615.0,0.625,-412.5,-423.9696204936888,0.0,0.125,0.3662109,4.855578449291936,0.0,17286.0,2.5,427.5,423.9696204936888,0.0,0.0,3.2080074840000004,4.832717827554839,0.0,-31541.0,0.625,-435.0,-423.9696204936888,0.0,0.125,1.488036957,4.849934213629845,0.0012207029999995456,0.20000000298023224,-0.5400000214576721,-109.12000274658203,0.0152587890625,0.00177001953125,1.02801513671875,36.709999084472656,0.0,-6.0,2.3816680908203125,-2.467376708984375,Waiting,0.0,0.0,3.0,0.0,0.0,0.0,0.0,0.125,
5.947813000000002,0.0,0.0,90528.0,0.125,412.5,423.9696204936888,0.0,0.25,0.668945244,4.824746445161359,0.0012207030000004337,-156615.0,0.75,-412.5,-423.9696204936888,0.0,0.25,0.367431603,4.855578449291936,0.0,17286.0,2.625,420.0,423.9696204936888,0.0,0.0,3.2080074840000004,4.832717827554839,0.0,-31601.0,0.625,-367.5,-423.9696204936888,0.0,0.25,1.488036957,4.849934213629845,0.0,0.23000000417232513,-0.5299999713897705,-109.16999816894531,0.0235595703125,-0.038330078125,0.91552734375,36.709999084472656,0.0,29.0,2.381683349609375,-2.467498779296875,Waiting,0.0,0.0,3.0,0.0,0.0,0.0,0.0,0.0,
6.017404999999999,0.0,0.0,90594.0,0.125,405.0,423.139578035428,0.0,0.25,0.668945244,4.836566187440436,0.0,-156681.0,0.625,-412.5,-423.139578035428,0.0,0.25,0.367431603,4.867473724315979,0.0,17354.0,2.625,420.0,423.139578035428,0.0,0.0,3.2067867810000004,4.844557098256096,0.0,-31601.0,0.625,-435.0,-423.139578035428,0.0,0.25,1.488036957,4.861815661313603,0.0,0.17000000178813934,-0.5600000023841858,-109.18000030517578,-0.0174560546875,0.063720703125,1.03472900390625,36.709999084472656,0.0,-54.0,2.3819732666015625,-2.4670867919921875,Waiting,0.0,0.0,3.0,0.0,0.0,0.0,0.0,0.0,
6.072774000000002,0.0,0.0,90594.0,0.125,405.0,423.139578035428,0.0,0.375,0.6616210260000001,4.836566187440436,-0.0012207030000004337,-156681.0,0.75,-412.5,-423.139578035428,0.0,0.25,0.36865230600000004,4.867473724315979,0.0,17354.0,2.625,420.0,423.139578035428,0.0,0.0,3.2080074840000004,4.844557098256096,0.0,-31667.0,0.75,-405.0,-423.139578035428,0.0,0.25,1.488036957,4.861815661313603,0.0012207029999995456,0.1899999976158142,-0.5299999713897705,-109.19000244140625,-0.01458740234375,0.04766845703125,1.048828125,36.709999084472656,0.0,-40.0,2.3819732666015625,-2.4669036865234375,Waiting,0.0,0.0,3.0,0.0,0.0,0.0,0.0,0.125,
6.148344000000001,0.0,0.0,90659.0,0.125,405.0,422.40583311735,0.0,0.25,0.701904225,4.848429690877773,0.0024414059999999793,-156749.0,0.75,-412.5,-422.40583311735,0.0,0.25,0.377197227,4.8794130401490845,0.003662109000000413,17421.0,2.625,420.0,422.40583311735,0.0,0.0,3.2116695930000003,4.856440202417223,0.0012207029999995456,-31667.0,0.625,-427.5,-422.40583311735,0.0,0.25,1.488036957,4.873741098612378,0.0,0.15000000596046448,-0.5099999904632568,-109.2300033569336,-0.013427734375,0.02294921875,0.9820556640625,36.70000076293945,0.0,-17.0,2.3819427490234375,-2.4669036865234375,Waiting,0.0,0.0,3.0,0.0,0.0,0.0,0.0,0.0,
6.2142170000000005,0.0,0.0,90659.0,0.125,412.5,422.40583311735,0.0,0.25,0.689697195,4.848429690877773,0.012207029999999897,-156815.0,0.75,-405.0,-422.40583311735,0.0,0.25,0.397949178,4.8794130401490845,0.009765623999999917,17421.0,2.5,427.5,422.40583311735,0.0,0.0,3.227538732,4.856440202417223,0.01342773300000033,-31735.0,0.75,-420.0,-422.40583311735,0.0,0.25,1.5026853930000001,4.873741098612378,0.0,0.20000000298023224,-0.5199999809265137,-109.27999877929688,0.0177001953125,0.02252197265625,1.02447509765625,36.70000076293945,0.0,-26.0,2.3818359375,-2.4670562744140625,Waiting,0.0,0.0,3.0,0.0,0.0,0.0,0.0,0.0,
6.278222000000001,0.0,0.0,90726.0,0.125,412.5,421.768888321851,0.0,0.25,0.703124928,4.860331751986741,0.0,-156815.0,0.75,-420.0,-421.768888321851,0.0,0.25,0.40161128700000004,4.891391160052322,0.0,17490.0,2.625,427.5,421.768888321851,0.0,0.0,3.236083653,4.8683619279544565,0.0,-31735.0,0.625,-412.5,-421.768888321851,0.0,0.25,1.516113126,4.885705294874543,0.007324218000000826,0.20999999344348907,-0.47999998927116394,-109.29000091552734,-0.00994873046875,0.00390625,1.01702880859375,36.70000076293945,0.0,0.0,2.3816375732421875,-2.46697998046875,Waiting,0.0,0.0,3.0,0.0,0.0,0.0,0.0,0.0,
6.352469000000001,0.0,0.0,90726.0,0.125,420.0,421.768888321851,0.0,0.25,0.7116698490000001,4.860331751986741,0.009765623999999917,-156881.0,0.75,-405.0,-421.768888321851,0.0,0.25,0.410156208,4.891391160052322,0.009765623999999917,17560.0,2.5,427.5,421.768888321851,0.0,0.0,3.242187168,4.8683619279544565,0.006103515000000392,-31803.0,0.75,-412.5,-421.768888321851,0.0,0.25,1.5258787500000002,4.885705294874543,0.014648436000000764,0.23000000417232513,-0.5,-109.36000061035156,-0.00543212890625,-0.00714111328125,0.91375732421875,36.70000076293945,0.0,9.0,2.38116455078125,-2.4662628173828125,Waiting,0.0,0.0,3.0,0.0,0.0,0.0,0.0,0.0,
6.4137400000000016,0.0,0.0,90794.0,0.125,420.0,421.2291827664158,0.0,0.25,0.716552661,4.872267062553982,0.007324217999999938,-156881.0,0.75,-412.5,-421.2291827664158,0.0,0.125,0.411376911,4.903402741890788,0.006103514999999504,17560.0,2.5,427.5,421.2291827664158,0.0,0.0,3.244628574,4.880316957884279,0.007324217999999938,-31803.0,0.75,-412.5,-421.2291827664158,0.0,0.25,1.5258787500000002,4.897702914175017,0.0,0.23999999463558197,-0.5199999809265137,-109.41000366210938,-0.0433349609375,-7.32421875E-4,1.10552978515625,36.70000076293945,0.0,16.0,2.3811187744140625,-2.466278076171875,Waiting,0.0,0.0,3.0,0.0,0.0,0.0,0.0,0.0,
6.474921000000002,0.0,0.0,90794.0,0.125,412.5,421.2291827664158,0.0,0.25,0.721435473,4.872267062553982,0.0,-156947.0,0.75,-405.0,-421.2291827664158,0.0,0.25,0.40771480200000004,4.903402741890788,0.0,17629.0,2.375,427.5,421.2291827664158,0.0,0.0,3.248290683,4.880316957884279,0.0,-31871.0,0.625,-420.0,-421.2291827664158,0.0,0.25,1.5246580470000002,4.897702914175017,0.0,0.2199999988079071,-0.5299999713897705,-109.48999786376953,-0.0133056640625,0.0057373046875,0.96478271484375,36.70000076293945,0.0,0.0,2.38128662109375,-2.4663543701171875,Waiting,0.0,0.0,3.0,0.0,0.0,0.0,0.0,0.0,
6.543025000000002,0.0,0.0,90861.0,0.125,420.0,420.7870906111546,0.0,0.25,0.70800774,4.884230223231326,0.0024414059999999793,-156947.0,0.875,-405.0,-420.7870906111546,0.0,0.25,0.411376911,4.91544235181238,-0.0012207029999995456,17629.0,2.5,427.5,420.7870906111546,0.0,0.0,3.245849277,4.89229988393779,0.0,-31937.0,0.75,-412.5,-420.7870906111546,0.0,0.25,1.5258787500000002,4.909728528978131,0.0,0.23000000417232513,-0.5299999713897705,-109.58000183105469,0.02142333984375,-0.00750732421875,1.03021240234375,36.70000076293945,0.0,0.0,2.38128662109375,-2.466217041015625,Waiting,0.0,0.0,3.0,0.0,0.0,0.0,0.0,0.0,
6.611223000000002,0.0,0.0,90861.0,0.125,420.0,420.7870906111546,0.0,0.25,0.716552661,4.884230223231326,0.0,-157014.0,0.875,-412.5,-420.7870906111546,0.0,0.25,0.416259723,4.91544235181238,-0.0012207029999995456,17696.0,2.5,420.0,420.7870906111546,0.0,0.0,3.2556149010000004,4.89229988393779,0.004882811999999959,-31937.0,0.75,-412.5,-420.7870906111546,0.0,0.25,1.535644374,4.909728528978131,0.004882811999999959,0.1899999976158142,-0.44999998807907104,-109.63999938964844,0.0296630859375,-0.00518798828125,1.0098876953125,36.70000076293945,0.0,-4.0,2.3814697265625,-2.46624755859375,Waiting,0.0,0.0,3.0,0.0,0.0,0.0,0.0,0.125,
6.676540000000001,0.0,0.0,90929.0,0.125,420.0,420.7870906111546,0.0,0.25,0.716552661,4.884230223231326,0.0,-157079.0,0.875,-405.0,-420.7870906111546,0.0,0.25,0.42114253500000004,4.91544235181238,0.0,17696.0,2.5,420.0,420.7870906111546,0.0,0.0,3.2666012280000003,4.89229988393779,0.0,-32003.0,0.75,-412.5,-420.7870906111546,0.0,0.25,1.5515135130000002,4.909728528978131,0.0,0.25,-0.4300000071525574,-109.6500015258789,0.00830078125,0.01177978515625,1.03955078125,36.70000076293945,0.0,-12.0,2.3812255859375,-2.466339111328125,Waiting,0.0,0.0,3.0,0.0,0.0,0.0,0.0,0.0,
6.743654000000002,0.0,0.0,90996.0,0.125,412.5,420.4429197751611,0.0,0.25,0.717773364,4.896215757744391,0.0024414059999999793,-157079.0,0.75,-420.0,-420.4429197751611,0.0,0.25,0.429687456,4.927504478547194,0.009765623999999917,17764.0,2.5,412.5,420.4429197751611,0.0,0.0,3.2702633370000003,4.904305220792776,0.006103514999999504,-32003.0,0.75,-427.5,-420.4429197751611,0.0,0.25,1.5588377310000001,4.921776634420408,0.014648435999999876,0.33000001311302185,-0.4699999988079071,-109.55999755859375,-0.014892578125,0.011962890625,0.95135498046875,36.70000076293945,0.0,-3.0,2.3808746337890625,-2.4661865234375,Waiting,0.0,0.0,3.0,0.0,0.0,0.0,0.0,0.0,
6.813721000000001,0.0,0.0,90996.0,0.125,412.5,420.4429197751611,0.0,0.25,0.706787037,4.896215757744391,-0.012207029999999897,-157150.0,0.75,-427.5,-420.4429197751611,0.0,0.25,0.444335892,4.927504478547194,0.009765623999999917,17764.0,2.5,427.5,420.4429197751611,0.0,0.0,3.2702633370000003,4.904305220792776,0.0,-32072.0,0.625,-420.0,-420.4429197751611,0.0,0.25,1.560058434,4.921776634420408,-0.0012207030000004337,0.3700000047683716,-0.4300000071525574,-109.56999969482422,-0.03436279296875,0.067138671875,0.7596435546875,36.70000076293945,0.0,-49.0,2.3801116943359375,-2.4664154052734375,Waiting,0.0,0.0,3.0,0.0,0.0,0.0,0.0,0.0,
6.87945,0.0,0.0,91066.0,0.125,427.5,0.0,0.0,0.25,0.727538988,0.01,0.0,-157150.0,0.75,-427.5,-0.0,0.0,0.25,0.45166011,0.01,0.0,17834.0,2.375,435.0,0.0,0.0,0.0,3.280028961,0.01,0.0,-32072.0,0.625,-427.5,-0.0,0.0,0.25,1.560058434,0.01,0.0,0.25,-0.41999998688697815,-109.61000061035156,0.0078125,-0.04437255859375,0.76220703125,36.70000076293945,0.0,40.0,2.379119873046875,-2.4671173095703125,Waiting,0.0,0.0,3.0,0.0,0.0,0.0,0.0,0.0,
6.896848000000002,0.0,0.0,91066.0,0.125,435.0,420.0,0.0,0.25,0.7373046120000001,4.931976927519862,0.0,-157150.0,0.5,-420.0,-420.0,0.0,0.25,0.449218704,4.963494176090241,0.0,17834.0,1.75,435.0,420.0,0.0,0.0,3.280028961,4.9401254747009276,0.009765623999999917,-32136.0,0.625,-420.0,-420.0,0.0,0.25,1.560058434,4.957724496714274,0.0,0.2199999988079071,-0.46000000834465027,-109.62999725341797,-0.02490234375,0.03106689453125,0.87127685546875,36.70000076293945,0.0,-20.0,2.379058837890625,-2.467254638671875,Waiting,0.0,0.0,3.0,0.0,0.0,0.0,0.0,0.0,
6.918431000000001,0.0,0.0,91066.0,0.125,435.0,420.00000000000006,0.0,0.25,0.7531737510000001,4.931702959567748,0.025634763000000227,-157211.0,0.5,-405.0,-420.00000000000006,0.0,0.25,0.449218704,4.96321845737648,0.009765623999999917,17834.0,2.0,427.5,420.00000000000006,0.0,0.0,3.280028961,4.93985105410258,0.009765623999999917,-32136.0,0.625,-397.5,-420.00000000000006,0.0,0.25,1.566161949,4.9574490985022654,0.0,0.23999999463558197,-0.49000000953674316,-109.6500015258789,-0.08935546875,-0.00848388671875,1.11700439453125,36.70000076293945,0.0,39.0,2.3790283203125,-2.4674530029296875,Waiting,0.0,0.0,3.0,0.0,0.0,0.0,0.0,0.0,
6.936424999999999,0.0,0.0,91066.0,0.125,420.0,420.0,0.0,0.25,0.760497969,4.93142888708761,0.025634763000000227,-157211.0,0.625,-390.0,-420.0,0.0,0.25,0.45410151600000004,4.962942633466721,0.009765623999999917,17834.0,2.0,420.0,420.0,0.0,0.0,3.280028961,4.939576528803507,0.009765623999999917,-32136.0,0.625,-367.5,-420.0,0.0,0.25,1.564941246,4.957173595216539,0.0,0.25999999046325684,-0.4699999988079071,-109.6500015258789,-0.0291748046875,0.0313720703125,0.9022216796875,36.70000076293945,0.0,-18.0,2.378875732421875,-2.468109130859375,Waiting,0.0,0.0,3.0,0.0,0.0,0.0,0.0,0.0,
6.953526000000002,0.0,0.0,91066.0,0.125,412.5,420.0,0.0,0.25,0.7519530480000001,4.93142888708761,0.028076169000000206,-157211.0,0.625,-382.5,-420.0,0.0,0.25,0.46386714,4.962942633466721,0.004882811999999959,17900.0,2.125,412.5,420.0,0.0,0.125,3.291015288,4.939576528803507,0.0012207030000004337,-32136.0,0.75,-345.0,-420.0,0.0,0.25,1.57470687,4.957173595216539,0.006103515000000392,0.2800000011920929,-0.5299999713897705,-109.6500015258789,-0.00933837890625,-6.103515625E-4,1.0489501953125,36.70000076293945,0.0,5.0,2.378753662109375,-2.468475341796875,Waiting,0.0,0.0,3.0,0.0,0.0,0.0,0.0,0.0,
6.976072,0.0,0.0,91066.0,0.125,397.5,420.0,0.0,0.25,0.76904289,4.93142888708761,0.028076169000000206,-157211.0,0.75,-390.0,-420.0,0.0,0.25,0.46630854600000005,4.962942633466721,0.004882811999999959,17900.0,2.125,412.5,420.0,0.0,0.125,3.293456694,4.939576528803507,0.0012207030000004337,-32136.0,0.75,-337.5,-420.0,0.0,0.25,1.57470687,4.957173595216539,0.006103515000000392,0.2800000011920929,-0.550000011920929,-109.66000366210938,0.01513671875,0.0909423828125,1.0673828125,36.70000076293945,0.0,-89.0,2.378570556640625,-2.4688720703125,Waiting,0.0,0.0,3.0,0.0,0.0,0.0,0.0,0.0,
6.994916000000001,0.0,0.0,91130.0,0.125,397.5,420.0,0.0,0.25,0.8044432770000001,4.931154919135497,0.028076169000000206,-157211.0,0.75,-405.0,-420.0,0.0,0.25,0.47363276400000004,4.96266691475296,0.004882811999999959,17900.0,2.375,405.0,420.0,0.0,0.125,3.300780912,4.93930210820516,0.0012207030000004337,-32136.0,0.75,-337.5,-420.0,0.0,0.25,1.5795896820000002,4.95689819700453,0.006103515000000392,0.30000001192092896,-0.47999998927116394,-109.66999816894531,0.0064697265625,0.02679443359375,0.9373779296875,36.70000076293945,0.0,-25.0,2.378326416015625,-2.4688720703125,Waiting,0.0,0.0,3.0,0.0,0.0,0.0,0.0,0.0,
7.016437000000002,0.0,0.0,91130.0,0.125,397.5,420.0,0.0,0.25,0.7885741380000001,4.930880846655358,0.01586913899999942,-157211.0,0.75,-420.0,-420.0,0.0,0.25,0.47851557600000005,4.962391090843201,0.014648436000000764,17900.0,2.375,397.5,420.0,0.0,0.125,3.305663724,4.939027582906087,0.013427732999999442,-32201.0,0.75,-352.5,-420.0,0.0,0.25,1.594238118,4.9566226937188045,0.008544920999999484,0.3199999928474426,-0.49000000953674316,-109.70999908447266,-0.02801513671875,-0.0157470703125,1.180419921875,36.70000076293945,0.0,27.0,2.37786865234375,-2.468719482421875,Waiting,0.0,0.0,3.0,0.0,0.0,0.0,0.0,0.0,
7.034096000000002,0.0,0.0,91130.0,0.125,397.5,420.0,0.0,0.25,0.798339762,4.930606878703244,0.01586913899999942,-157211.0,0.75,-420.0,-420.0,0.0,0.25,0.483398388,4.96211537212944,0.014648436000000764,17900.0,2.375,390.0,420.0,0.0,0.125,3.3105465360000004,4.93875316230774,0.013427732999999442,-32201.0,0.75,-382.5,-420.0,0.0,0.25,1.594238118,4.956347295506795,0.008544920999999484,0.33000001311302185,-0.5,-109.72000122070312,-0.04425048828125,0.0064697265625,1.0751953125,36.70000076293945,0.0,11.0,2.3777008056640625,-2.4686737060546875,Waiting,0.0,0.0,3.0,0.0,0.0,0.0,0.0,0.125,
7.05243,0.0,0.0,91130.0,0.125,397.5,420.00000000000006,0.0,0.25,0.767822187,4.930469842463176,0.01586913899999942,-157279.0,0.75,-420.0,-420.00000000000006,0.0,0.25,0.482177685,4.961977460174561,0.013427732999999442,17900.0,2.375,397.5,420.00000000000006,0.0,0.0,3.3154293480000003,4.9386158996582035,0.014648436000000764,-32201.0,0.75,-412.5,-420.00000000000006,0.0,0.25,1.6101072570000001,4.956209543863932,0.019531248000000723,0.3100000023841858,-0.4699999988079071,-109.73999786376953,0.05377197265625,-0.01971435546875,0.82049560546875,36.70000076293945,0.0,2.0,2.3777008056640625,-2.4685821533203125,Waiting,0.0,0.0,3.0,0.0,0.0,0.0,0.0,0.125,
7.0722309999999995,0.0,0.0,91130.0,0.125,405.0,420.00000000000006,0.0,0.25,0.798339762,4.929921802030924,0.014648435999999876,-157279.0,0.75,-412.5,-420.00000000000006,0.0,0.125,0.490722606,4.961425917551041,0.013427732999999442,17965.0,2.5,397.5,420.00000000000006,0.0,0.0,3.3142086450000003,4.938066953760783,0.014648436000000764,-32201.0,0.75,-435.0,-420.00000000000006,0.0,0.25,1.6040037420000002,4.955658642366197,0.019531248000000723,0.33000001311302185,-0.46000000834465027,-109.76000213623047,0.02899169921875,0.05419921875,1.208251953125,36.70000076293945,0.0,-56.0,2.3776092529296875,-2.4682464599609375,Waiting,0.0,0.0,3.0,0.0,0.0,0.0,0.0,0.125,
7.089469000000001,0.0,0.0,91130.0,0.125,397.5,420.0,0.0,0.125,0.798339762,4.929510797838741,0.014648435999999876,-157279.0,0.875,-397.5,-420.0,0.0,0.125,0.4882812,4.961012286882401,0.013427732999999442,17965.0,2.5,405.0,420.0,0.0,0.0,3.3142086450000003,4.937655270512899,0.014648436000000764,-32201.0,0.75,-427.5,-420.0,0.0,0.25,1.6040037420000002,4.955245492511326,0.019531248000000723,0.3799999952316284,-0.46000000834465027,-109.80999755859375,-0.03204345703125,0.00604248046875,1.10870361328125,36.70000076293945,0.0,9.0,2.37750244140625,-2.4680633544921875,Waiting,0.0,0.0,3.0,0.0,0.0,0.0,0.0,0.125,
7.108304,0.0,0.0,91193.0,0.125,397.5,420.0,0.0,0.125,0.797119059,4.929236829886627,0.007324217999999938,-157279.0,0.875,-382.5,-420.0,0.0,0.125,0.4882812,4.96073656816864,0.004882811999999959,17965.0,2.5,405.0,420.0,0.0,0.0,3.3142086450000003,4.937380849914551,0.004882811999999959,-32201.0,0.75,-412.5,-420.0,0.0,0.25,1.6076658510000001,4.954970094299316,0.009765623999999917,0.36000001430511475,-0.46000000834465027,-109.81999969482422,0.00897216796875,0.0216064453125,0.960693359375,36.70000076293945,0.0,-20.0,2.37738037109375,-2.4678802490234375,Waiting,0.0,0.0,3.0,0.0,0.0,0.0,0.0,0.125,
7.125639,0.0,0.0,91193.0,0.125,390.0,420.0,0.0,0.125,0.798339762,4.929099793646558,0.007324217999999938,-157279.0,1.0,-382.5,-420.0,0.0,0.125,0.4882812,4.960598656213761,0.004882811999999959,17965.0,2.375,412.5,420.0,0.0,0.0,3.3154293480000003,4.937243587265015,0.004882811999999959,-32201.0,0.75,-397.5,-420.0,0.0,0.125,1.6088865540000001,4.954832342656453,0.009765623999999917,0.3799999952316284,-0.46000000834465027,-109.81999969482422,-0.01434326171875,-6.7138671875E-4,0.970458984375,36.70000076293945,0.0,8.0,2.37725830078125,-2.4676971435546875,Waiting,0.0,0.0,3.0,0.0,0.0,0.0,0.0,0.0,
7.145053,0.0,0.0,91193.0,0.125,397.5,420.0,0.0,0.25,0.798339762,4.929099793646558,0.007324217999999938,-157279.0,1.0,-390.0,-420.0,0.0,0.125,0.48706049700000004,4.960598656213761,0.004882811999999959,17965.0,2.375,412.5,420.0,0.0,0.0,3.3142086450000003,4.937243587265015,0.004882811999999959,-32265.0,0.75,-390.0,-420.0,0.0,0.125,1.6101072570000001,4.954832342656453,0.009765623999999917,0.3799999952316284,-0.44999998807907104,-109.81999969482422,-0.01068115234375,-0.02978515625,0.98394775390625,36.70000076293945,0.0,35.0,2.3771820068359375,-2.4676971435546875,Waiting,0.0,0.0,3.0,0.0,0.0,0.0,0.0,0.0,
7.1649030000000025,0.0,0.0,91193.0,0.125,397.5,420.0,0.0,0.25,0.798339762,4.929099793646558,-0.0012207029999995456,-157343.0,0.875,-390.0,-420.0,0.0,0.125,0.4882812,4.960598656213761,0.0,17965.0,2.375,412.5,420.0,0.0,0.0,3.3154293480000003,4.937243587265015,0.0,-32265.0,0.75,-390.0,-420.0,0.0,0.125,1.6076658510000001,4.954832342656453,0.004882811999999959,0.36000001430511475,-0.4099999964237213,-109.81999969482422,0.0244140625,0.05133056640625,1.01470947265625,36.70000076293945,0.0,-53.0,2.3769683837890625,-2.4676971435546875,Waiting,0.0,0.0,3.0,0.0,0.0,0.0,0.0,0.0,
7.185921000000002,0.0,0.0,91193.0,0.125,405.0,420.0,0.0,0.25,0.798339762,4.929099793646558,-0.0012207029999995456,-157343.0,0.875,-397.5,-420.0,0.0,0.125,0.4882812,4.960598656213761,0.0,17965.0,2.375,412.5,420.0,0.0,0.0,3.3142086450000003,4.937243587265015,0.0,-32265.0,0.75,-397.5,-420.0,0.0,0.125,1.6052244450000002,4.954832342656453,0.004882811999999959,0.3799999952316284,-0.4399999976158142,-109.81999969482422,-2.44140625E-4,-0.04412841796875,1.0582275390625,36.70000076293945,0.0,45.0,2.3768463134765625,-2.4676666259765625,Waiting,0.0,0.0,3.0,0.0,0.0,0.0,0.0,0.0,
7.208844000000001,0.0,0.0,91193.0,0.125,405.0,420.0,0.0,0.25,0.799560465,4.929099793646558,0.0012207029999995456,-157343.0,0.875,-397.5,-420.0,0.0,0.125,0.4882812,4.960598656213761,0.0012207030000004337,18032.0,2.375,412.5,420.0,0.0,0.0,3.3142086450000003,4.937243587265015,0.0,-32265.0,0.75,-397.5,-420.0,0.0,0.125,1.6076658510000001,4.954832342656453,0.0,0.36000001430511475,-0.38999998569488525,-109.86000061035156,-0.03997802734375,0.03216552734375,0.91986083984375,36.70000076293945,0.0,-13.0,2.376708984375,-2.4675750732421875,Waiting,0.0,0.0,3.0,0.0,0.0,0.0,0.0,0.0,
7.225794000000001,0.0,0.0,91260.0,0.125,412.5,0.0,0.0,0.25,0.798339762,0.01,0.0012207029999995456,-157343.0,0.875,-397.5,-0.0,0.0,0.125,0.4882812,0.01,0.0012207030000004337,18032.0,2.375,412.5,0.0,0.0,0.0,3.3190914570000003,0.01,0.0,-32265.0,0.75,-397.5,-0.0,0.0,0.125,1.6076658510000001,0.01,0.0,0.3799999952316284,-0.3799999952316284,-109.87999725341797,0.0338134765625,-0.001953125,1.0736083984375,36.70000076293945,0.0,-5.0,2.376617431640625,-2.467529296875,Waiting,0.0,0.0,3.0,0.0,0.0,0.0,0.0,0.0,
7.244966000000001,0.0,0.0,91260.0,0.125,412.5,0.0,0.0,0.25,0.798339762,0.01,0.0012207029999995456,-157343.0,0.875,-397.5,-0.0,0.0,0.125,0.4882812,0.01,0.0012207030000004337,18032.0,1.875,420.0,0.0,0.0,0.0,3.3142086450000003,0.01,0.0,-32265.0,0.75,-397.5,-0.0,0.0,0.125,1.6088865540000001,0.01,0.0,0.38999998569488525,-0.38999998569488525,-109.9000015258789,-0.01519775390625,-1.8310546875E-4,1.14337158203125,36.70000076293945,0.0,10.0,2.376617431640625,-2.46746826171875,Waiting,0.0,0.0,3.0,0.0,0.0,0.0,0.0,0.0,
