Time,ClimberA1,ClimberA2,FRpos,FRCurrent,FRspeed,FRsetpoint,FRApos,FRACurrent,FREncpos,FREncSetpoint,FREncSpeed,FLpos,FLCurrent,FLspeed,FLsetpoint,FLApos,FLACurrent,FLEncpos,FLEncSetpoint,FLEncSpeed,BRpos,BRCurrent,BRspeed,BRsetpoint,BRApos,BRACurrent,BREncpos,BREncSetpoint,BREncSpeed,BLpos,BLCurrent,BLspeed,BLsetpoint,BLApos,BLACurrent,BLEncpos,BLEncSetpoint,BLEncSpeed,navx_Pitch,navx_Roll,navx_Yaw,navx_XAcc,navx_YAcc,navx_ZAcc,navx_Temp,navx_Bar,navx_Alt,navx_XDis,navx_YDis,GearPlacerState,ShootOutputV,ShootOutputCurrent,ShootEncPos,ShootEncVelocity,ShootSpeed,ShootSetpoint,CarouselSetpoint,CarouselCurrent,
0.1847479999999923,0.0,0.0,21870.0,1.5,52.5,420.0,0.0,0.125,0.8178710100000001,4.930606878703244,0.0,-23815.0,2.875,-52.5,-420.0,0.0,0.125,0.531005805,4.96211537212944,0.0,767.0,2.5,52.5,420.0,0.0,0.0,3.352050438,4.93875316230774,0.0,-25752.0,1.0,-67.5,-420.0,0.0,0.25,1.644286941,4.956347295506795,0.0,0.10999999940395355,-0.09000000357627869,-69.73999786376953,-0.0037841796875,-0.0013427734375,1.01727294921875,33.470001220703125,0.0,2.0,4.377685546875,-0.9886627197265625,Closing,0.0,0.0,3.0,0.0,0.0,0.0,0.0,0.0,
0.3048209999999963,0.0,0.0,21870.0,0.125,45.0,0.0,0.0,0.125,0.819091713,0.01,0.0,-23823.0,1.0,-60.0,-0.0,0.0,0.125,0.535888617,0.01,0.0,777.0,0.875,60.0,0.0,0.0,0.0,3.353271141,0.01,0.0,-25762.0,0.75,-67.5,-0.0,0.0,0.25,1.649169753,0.01,0.0,0.10000000149011612,-0.12999999523162842,-69.73999786376953,-0.0830078125,0.0115966796875,1.00933837890625,33.470001220703125,0.0,-37.0,4.3777313232421875,-0.9867401123046875,Closing,0.0,0.0,3.0,0.0,0.0,0.0,0.0,0.0,
0.4378399999999965,0.0,0.0,21879.0,0.375,15.0,0.0,0.0,0.125,0.8178710100000001,0.01,0.0,-23825.0,0.75,-15.0,-0.0,0.0,0.125,0.53710932,0.01,0.0,783.0,1.0,7.5,0.0,0.0,0.0,3.353271141,0.01,0.0,-25762.0,0.625,0.0,-0.0,0.0,0.25,1.649169753,0.01,0.0,0.10999999940395355,-0.38999998569488525,-69.75,0.03216552734375,0.0059814453125,1.0035400390625,33.45000076293945,0.0,9.0,4.3769989013671875,-0.987579345703125,Closing,0.0,0.0,3.0,0.0,0.0,0.0,0.0,0.0,
0.5716159999999946,0.0,0.0,21879.0,0.375,0.0,0.0,0.0,0.125,0.8178710100000001,0.01,0.0,-23825.0,0.875,0.0,-0.0,0.0,0.125,0.535888617,0.01,0.0,783.0,1.0,0.0,0.0,0.0,0.0,3.352050438,0.01,0.0,-25762.0,0.625,0.0,-0.0,0.0,0.25,1.649169753,0.01,0.0,0.10999999940395355,-0.3700000047683716,-69.75,0.001708984375,0.00897216796875,1.01446533203125,33.45000076293945,0.0,-3.0,4.3769989013671875,-0.9882965087890625,Closing,0.0,0.0,3.0,0.0,0.0,0.0,0.0,0.0,
0.6455209999999934,0.0,0.0,21879.0,0.5,0.0,0.0,0.0,0.125,0.8166503070000001,0.01,0.0,-23825.0,0.875,0.0,-0.0,0.0,0.125,0.535888617,0.01,-0.0012207030000004337,783.0,1.125,0.0,0.0,0.0,0.0,3.353271141,0.01,0.0,-25762.0,0.625,0.0,-0.0,0.0,0.25,1.649169753,0.01,0.0,0.10999999940395355,-0.3199999928474426,-69.75,-0.021728515625,-6.7138671875E-4,1.0267333984375,33.45000076293945,0.0,-2.0,4.3769989013671875,-0.9881134033203125,Closing,0.0,0.0,3.0,0.0,0.0,0.0,0.0,0.0,
0.709297000000006,0.0,0.0,21879.0,0.375,0.0,0.0,0.0,0.125,0.8178710100000001,0.01,0.0,-23825.0,0.875,0.0,-0.0,0.0,0.0,0.535888617,0.01,0.0012207030000004337,783.0,1.125,0.0,0.0,0.0,0.0,3.353271141,0.01,0.0,-25762.0,0.625,0.0,-0.0,0.0,0.25,1.64794905,0.01,-0.0012207029999999897,0.10999999940395355,-0.3400000035762787,-69.75,-0.0189208984375,0.00677490234375,1.01556396484375,33.45000076293945,0.0,-8.0,4.3769989013671875,-0.9881134033203125,Closing,0.0,0.0,3.0,0.0,0.0,0.0,0.0,0.0,
0.7593590000000113,0.0,0.0,21879.0,0.375,0.0,0.0,0.0,0.125,0.8178710100000001,0.01,0.0,-23825.0,0.875,0.0,-0.0,0.0,0.125,0.534667914,0.01,0.0012207029999995456,783.0,1.125,0.0,0.0,0.0,0.0,3.353271141,0.01,0.0,-25762.0,0.625,0.0,-0.0,0.0,0.25,1.650390456,0.01,0.0012207029999999897,0.10999999940395355,-0.3199999928474426,-69.73999786376953,0.01171875,-9.765625E-4,1.02105712890625,33.45000076293945,0.0,8.0,4.3769989013671875,-0.9881134033203125,Closing,0.0,0.0,3.0,0.0,0.0,0.0,0.0,0.0,
0.8204710000000051,0.0,0.0,21879.0,0.375,0.0,0.0,0.0,0.125,0.819091713,0.01,0.0,-23825.0,0.875,0.0,-0.0,0.0,0.125,0.53710932,0.01,-0.0012207029999995456,783.0,1.125,0.0,0.0,0.0,0.0,3.353271141,0.01,0.0,-25762.0,0.625,0.0,-0.0,0.0,0.25,1.649169753,0.01,0.0,0.10999999940395355,-0.3199999928474426,-69.75,-0.01812744140625,0.002197265625,1.02099609375,33.45000076293945,0.0,-4.0,4.3769989013671875,-0.9881134033203125,Closing,0.0,0.0,3.0,0.0,0.0,0.0,0.0,0.0,
0.8723329999999987,0.0,0.0,21879.0,0.5,0.0,0.0,0.0,0.125,0.8178710100000001,0.01,0.0,-23825.0,0.875,0.0,-0.0,0.0,0.125,0.53710932,0.01,0.0,783.0,1.125,0.0,0.0,0.0,0.0,3.353271141,0.01,0.0,-25762.0,0.375,0.0,-0.0,0.0,0.25,1.649169753,0.01,0.0,0.11999999731779099,-0.33000001311302185,-69.73999786376953,0.0040283203125,0.00103759765625,1.02520751953125,33.4900016784668,0.0,4.0,4.3769989013671875,-0.9881134033203125,Closing,0.0,0.0,3.0,0.0,0.0,0.0,0.0,0.0,
0.943257999999987,0.0,0.0,21879.0,0.5,0.0,0.0,0.0,0.125,0.8154296040000001,0.01,0.0,-23825.0,0.875,0.0,-0.0,0.0,0.125,0.53710932,0.01,0.0,783.0,1.125,0.0,0.0,0.0,0.0,3.352050438,0.01,-0.0012207030000004337,-25762.0,0.375,0.0,-0.0,0.0,0.25,1.649169753,0.01,0.0,0.10999999940395355,-0.3100000023841858,-69.73999786376953,-0.00732421875,0.0015869140625,1.02252197265625,33.4900016784668,0.0,0.0,4.3769989013671875,-0.9881134033203125,Closing,0.0,0.0,3.0,0.0,0.0,0.0,0.0,0.0,
0.9902750000000087,0.0,0.0,21879.0,0.5,0.0,0.0,0.0,0.125,0.8178710100000001,0.01,0.0012207029999995456,-23825.0,0.875,0.0,-0.0,0.0,0.125,0.53710932,0.01,0.0,783.0,1.125,0.0,0.0,0.0,0.0,3.352050438,0.01,0.0,-25762.0,0.625,0.0,-0.0,0.0,0.25,1.650390456,0.01,0.0,0.11999999731779099,-0.3199999928474426,-69.73999786376953,-0.0078125,0.00494384765625,1.0208740234375,33.4900016784668,0.0,-3.0,4.3769989013671875,-0.9881134033203125,Closing,0.0,0.0,3.0,0.0,0.0,0.0,0.0,0.0,
1.053851999999999,0.0,0.0,21879.0,0.5,0.0,0.0,0.0,0.125,0.809326089,0.01,-0.0012207029999995456,-23825.0,0.875,0.0,-0.0,0.0,0.125,0.53710932,0.01,0.0012207029999995456,783.0,1.125,0.0,0.0,0.0,0.0,3.353271141,0.01,0.0,-25762.0,0.625,0.0,-0.0,0.0,0.25,1.649169753,0.01,0.0,0.11999999731779099,-0.3100000023841858,-69.73999786376953,0.0018310546875,0.001708984375,1.0181884765625,33.4900016784668,0.0,3.0,4.3769989013671875,-0.9881134033203125,Closing,0.0,0.0,3.0,0.0,0.0,0.0,0.0,0.0,
1.1184089999999995,0.0,0.0,21879.0,0.5,0.0,0.0,0.0,0.125,0.8178710100000001,0.01,0.0,-23825.0,0.875,0.0,-0.0,0.0,0.125,0.53710932,0.01,0.0,783.0,1.125,0.0,0.0,0.0,0.0,3.352050438,0.01,0.0,-25762.0,0.625,0.0,-0.0,0.0,0.25,1.649169753,0.01,0.0,0.11999999731779099,-0.3100000023841858,-69.73999786376953,-0.009033203125,0.00531005859375,1.0208740234375,33.4900016784668,0.0,-3.0,4.3769989013671875,-0.9881134033203125,Closing,0.0,0.0,3.0,0.0,0.0,0.0,0.0,0.0,
1.1893620000000082,0.0,0.0,21879.0,0.5,0.0,0.0,0.0,0.125,0.8178710100000001,0.01,0.0,-23825.0,0.875,0.0,-0.0,0.0,0.125,0.53710932,0.01,0.0,783.0,1.125,0.0,0.0,0.0,0.0,3.353271141,0.01,0.0,-25762.0,0.625,0.0,-0.0,0.0,0.25,1.64794905,0.01,0.0,0.11999999731779099,-0.3199999928474426,-69.73999786376953,-8.544921875E-4,4.8828125E-4,1.0191650390625,33.4900016784668,0.0,3.0,4.3769989013671875,-0.9881134033203125,Closing,0.0,0.0,3.0,0.0,0.0,0.0,0.0,0.0,
1.2512320000000037,0.0,0.0,21879.0,0.5,0.0,0.0,0.0,0.125,0.812988198,0.01,0.0012207029999995456,-23825.0,0.875,0.0,-0.0,0.0,0.125,0.538330023,0.01,0.0,783.0,1.125,0.0,0.0,0.0,0.0,3.353271141,0.01,0.0,-25762.0,0.625,0.0,-0.0,0.0,0.25,1.649169753,0.01,-0.0012207029999999897,0.11999999731779099,-0.3100000023841858,-69.7300033569336,-0.0081787109375,0.00201416015625,1.0242919921875,33.4900016784668,0.0,0.0,4.3769989013671875,-0.9881134033203125,Closing,0.0,0.0,3.0,0.0,0.0,0.0,0.0,0.0,
1.3276189999999914,0.0,0.0,21879.0,0.5,0.0,0.0,0.0,0.125,0.8178710100000001,0.01,-0.0012207029999995456,-23825.0,0.875,0.0,-0.0,0.0,0.125,0.5432128350000001,0.01,0.0,783.0,1.125,0.0,0.0,0.0,0.0,3.353271141,0.01,-0.0012207029999995456,-25762.0,0.625,0.0,-0.0,0.0,0.25,1.650390456,0.01,0.0,0.11999999731779099,-0.3199999928474426,-69.7300033569336,-0.00299072265625,0.00299072265625,1.02606201171875,33.4900016784668,0.0,0.0,4.3769989013671875,-0.9881134033203125,Closing,0.0,0.0,3.0,0.0,0.0,0.0,0.0,0.0,
1.3884699999999865,0.0,0.0,21879.0,0.5,0.0,0.0,0.0,0.125,0.8178710100000001,0.01,0.0,-23825.0,0.875,0.0,-0.0,0.0,0.125,0.53710932,0.01,0.0,783.0,1.125,0.0,0.0,0.0,0.0,3.353271141,0.01,0.0,-25762.0,0.625,0.0,-0.0,0.0,0.25,1.649169753,0.01,0.0,0.11999999731779099,-0.3100000023841858,-69.7300033569336,-0.0029296875,0.00225830078125,1.02587890625,33.5,0.0,0.0,4.3769989013671875,-0.9881134033203125,Closing,0.0,0.0,3.0,0.0,0.0,0.0,0.0,0.0,
1.430906999999992,0.0,0.0,21879.0,0.5,0.0,0.0,0.0,0.125,0.8178710100000001,0.01,0.0012207029999995456,-23825.0,0.875,0.0,-0.0,0.0,0.125,0.5432128350000001,0.01,0.0,783.0,1.125,0.0,0.0,0.0,0.0,3.352050438,0.01,0.0012207029999995456,-25762.0,0.625,0.0,-0.0,0.0,0.25,1.649169753,0.01,0.0,0.11999999731779099,-0.3100000023841858,-69.7300033569336,-0.00946044921875,-4.2724609375E-4,1.02227783203125,33.5,0.0,1.0,4.3769989013671875,-0.9881134033203125,Closing,0.0,0.0,3.0,0.0,0.0,0.0,0.0,0.0,
1.4811269999999932,0.0,0.0,21879.0,0.5,0.0,0.0,0.0,0.125,0.810546792,0.01,-0.0012207029999995456,-23825.0,0.875,0.0,-0.0,0.0,0.125,0.53710932,0.01,0.0,783.0,1.125,0.0,0.0,0.0,0.0,3.352050438,0.01,0.0,-25762.0,0.625,0.0,-0.0,0.0,0.25,1.649169753,0.01,0.0,0.11999999731779099,-0.3199999928474426,-69.72000122070312,-0.0035400390625,0.00323486328125,1.02099609375,33.5,0.0,0.0,4.3769989013671875,-0.9881134033203125,Closing,0.0,0.0,3.0,0.0,0.0,0.0,0.0,0.0,
1.5294850000000006,0.0,0.0,21879.0,0.5,0.0,0.0,0.0,0.125,0.8178710100000001,0.01,0.0,-23825.0,0.875,0.0,-0.0,0.0,0.125,0.53710932,0.01,0.0,783.0,1.125,0.0,0.0,0.0,0.0,3.352050438,0.01,0.0,-25762.0,0.625,0.0,-0.0,0.0,0.25,1.64794905,0.01,0.0,0.10999999940395355,-0.3100000023841858,-69.72000122070312,-0.00433349609375,0.0028076171875,1.01593017578125,33.5,0.0,0.0,4.3769989013671875,-0.9881134033203125,Closing,0.0,0.0,3.0,0.0,0.0,0.0,0.0,0.0,
1.6013210000000109,0.0,0.0,21879.0,0.5,0.0,0.0,0.0,0.125,0.797119059,0.01,0.0012207029999995456,-23825.0,0.875,0.0,-0.0,0.0,0.125,0.53710932,0.01,-0.0024414059999999793,783.0,1.125,0.0,0.0,0.0,0.0,3.352050438,0.01,-0.0012207030000004337,-25762.0,0.625,0.0,-0.0,0.0,0.25,1.649169753,0.01,0.0012207029999999897,0.11999999731779099,-0.3100000023841858,-69.72000122070312,-0.00567626953125,0.0035400390625,1.0235595703125,33.5,0.0,-1.0,4.3769989013671875,-0.9881134033203125,Closing,0.0,0.0,3.0,0.0,0.0,0.0,0.0,0.0,
1.6508700000000098,0.0,0.0,21879.0,0.5,0.0,0.0,0.0,0.125,0.8178710100000001,0.01,0.0,-23825.0,0.875,0.0,-0.0,0.0,0.125,0.53710932,0.01,0.0012207030000004337,783.0,1.125,0.0,0.0,0.0,0.0,3.352050438,0.01,0.0,-25762.0,0.625,0.0,-0.0,0.0,0.25,1.649169753,0.01,0.0,0.11999999731779099,-0.3100000023841858,-69.72000122070312,-0.00225830078125,-0.0023193359375,1.0169677734375,33.5,0.0,5.0,4.3769989013671875,-0.9881134033203125,Closing,0.0,0.0,3.0,0.0,0.0,0.0,0.0,0.0,
1.7157409999999946,0.0,0.0,21879.0,0.5,0.0,0.0,0.0,0.125,0.8178710100000001,0.01,0.0,-23825.0,0.875,0.0,-0.0,0.0,0.125,0.535888617,0.01,0.0,783.0,1.125,0.0,0.0,0.0,0.0,3.345946923,0.01,0.0,-25762.0,0.625,0.0,-0.0,0.0,0.25,1.649169753,0.01,0.0,0.11999999731779099,-0.30000001192092896,-69.72000122070312,-0.00665283203125,0.001953125,1.02191162109375,33.5,0.0,0.0,4.3769989013671875,-0.9881134033203125,Closing,0.0,0.0,3.0,0.0,0.0,0.0,0.0,0.0,
1.7788320000000095,0.0,0.0,21879.0,0.5,0.0,0.0,0.0,0.125,0.8142089010000001,0.01,0.0,-23825.0,0.875,0.0,-0.0,0.0,0.125,0.53710932,0.01,0.0,783.0,1.125,0.0,0.0,0.0,0.0,3.353271141,0.01,0.0,-25762.0,0.625,0.0,-0.0,0.0,0.25,1.649169753,0.01,0.0,0.11999999731779099,-0.30000001192092896,-69.72000122070312,-0.0042724609375,9.1552734375E-4,1.01959228515625,33.5,0.0,1.0,4.3769989013671875,-0.9881134033203125,Closing,0.0,0.0,3.0,0.0,0.0,0.0,0.0,0.0,
1.830428,0.0,0.0,21879.0,0.5,0.0,0.0,0.0,0.125,0.819091713,0.01,0.0,-23825.0,0.875,0.0,-0.0,0.0,0.125,0.53710932,0.01,0.0,783.0,1.125,0.0,0.0,0.0,0.0,3.352050438,0.01,0.0,-25762.0,0.625,0.0,-0.0,0.0,0.25,1.649169753,0.01,0.0,0.11999999731779099,-0.30000001192092896,-69.69999694824219,-0.00396728515625,-8.544921875E-4,1.01947021484375,33.5,0.0,3.0,4.3769989013671875,-0.9881134033203125,Closing,0.0,0.0,3.0,0.0,0.0,0.0,0.0,0.0,
1.8725589999999939,0.0,0.0,21879.0,0.5,0.0,0.0,0.0,0.125,0.8178710100000001,0.01,0.0,-23825.0,0.875,0.0,-0.0,0.0,0.125,0.53710932,0.01,0.0,783.0,1.125,0.0,0.0,0.0,0.0,3.352050438,0.01,0.0,-25762.0,0.625,0.0,-0.0,0.0,0.25,1.6601560800000001,0.01,0.0,0.11999999731779099,-0.30000001192092896,-69.69999694824219,-0.00433349609375,0.00140380859375,1.0238037109375,33.470001220703125,0.0,1.0,4.3769989013671875,-0.9881134033203125,Closing,0.0,0.0,3.0,0.0,0.0,0.0,0.0,0.0,
1.9675569999999862,0.0,0.0,21879.0,0.5,0.0,0.0,0.0,0.125,0.8154296040000001,0.01,0.0,-23825.0,0.875,0.0,-0.0,0.0,0.125,0.532226508,0.01,0.0,783.0,1.125,0.0,0.0,0.0,0.0,3.353271141,0.01,0.0,-25762.0,0.625,0.0,-0.0,0.0,0.25,1.649169753,0.01,0.0012207029999999897,0.11999999731779099,-0.28999999165534973,-69.69999694824219,-0.00439453125,0.0025634765625,1.02069091796875,33.470001220703125,0.0,0.0,4.3769989013671875,-0.9881134033203125,Closing,0.0,0.0,3.0,0.0,0.0,0.0,0.0,0.0,
2.024816000000006,0.0,0.0,21879.0,0.375,0.0,-555.5905491113663,0.0,0.125,0.819091713,4.932250999999998,0.0,-23825.0,0.5,0.0,555.5905491113663,0.0,0.25,0.53710932,4.963769999999998,0.0,782.0,0.625,0.0,-555.5905491113663,0.0,0.0,3.352050438,0.01,0.0,-25762.0,0.25,0.0,555.5905491113663,0.0,0.25,1.650390456,0.01,0.0,0.12999999523162842,-0.30000001192092896,-69.69999694824219,-0.05120849609375,-6.7138671875E-4,1.02197265625,33.470001220703125,0.0,-13.0,4.3769989013671875,-0.9881439208984375,Closing,0.0,0.0,3.0,0.0,0.0,0.0,0.0,0.0,
2.0740820000000095,0.0,0.0,21879.0,0.125,-22.5,-595.2756071090697,0.0,0.125,0.8178710100000001,4.932250999999998,0.0,-23825.0,0.25,30.0,595.2756071090697,0.0,0.25,0.550537053,4.963769999999998,0.0,782.0,0.125,-15.0,-595.2756071090697,0.0,0.0,3.345946923,0.01,0.0,-25761.0,0.375,0.0,595.2756071090697,0.0,0.25,1.649169753,0.01,0.0,0.12999999523162842,-0.4099999964237213,-69.66000366210938,-0.03021240234375,1.220703125E-4,1.02056884765625,33.470001220703125,0.0,0.0,4.3768768310546875,-0.98919677734375,Closing,0.0,0.0,3.0,0.0,0.0,0.0,0.0,0.0,
2.16237999999999,0.0,0.0,21863.0,0.375,-187.5,-754.0157639980315,0.0,0.125,0.833740149,4.932250999999998,0.0,-23816.0,0.75,127.5,754.0157639980315,0.0,0.25,0.532226508,4.963769999999998,0.0,774.0,1.5,-52.5,-754.0157639980315,0.0,0.0,3.3764644980000003,0.01,0.0,-25761.0,0.875,60.0,754.0157639980315,0.0,0.25,1.649169753,0.01,0.0,0.15000000596046448,-0.5799999833106995,-69.52999877929688,-0.2677001953125,0.00830078125,1.20855712890625,33.470001220703125,0.0,-94.0,4.376678466796875,-0.9898223876953125,Closing,0.0,0.0,3.0,0.0,0.0,0.0,0.0,0.0,
2.220843000000008,0.0,0.0,21863.0,1.0,-232.5,-773.8582742214203,0.0,0.125,0.8276366340000001,4.932250999999998,0.0,-23782.0,2.375,225.0,773.8582742214203,0.0,0.125,0.522460884,4.963769999999998,0.0,774.0,2.375,-90.0,-773.8582742214203,0.0,0.125,3.3776852010000002,0.01,0.0,-25729.0,1.625,172.5,773.8582742214203,0.0,0.25,1.6296385050000002,0.01,0.0,0.12999999523162842,-0.8100000023841858,-69.5,-0.06707763671875,0.00567626953125,1.1304931640625,33.470001220703125,0.0,-20.0,4.376495361328125,-0.991790771484375,Closing,0.0,0.0,3.0,0.0,0.0,0.0,0.0,0.0,
2.271855999999985,0.0,0.0,21830.0,1.375,-142.5,-595.2756071090697,0.0,0.125,0.832519446,4.932250999999998,0.0,-23782.0,1.875,165.0,595.2756071090697,0.0,0.125,0.53710932,4.963769999999998,0.0,754.0,2.875,-112.5,-595.2756071090697,0.0,0.125,3.3776852010000002,0.01,0.0,-25729.0,1.5,232.5,595.2756071090697,0.0,0.125,1.59912093,0.01,0.0,0.12999999523162842,-1.0,-69.61000061035156,-0.12554931640625,-0.03009033203125,1.13671875,33.470001220703125,0.0,-6.0,4.3762969970703125,-0.997100830078125,Closing,0.0,0.0,3.0,0.0,0.0,0.0,0.0,0.0,
2.371406999999992,0.0,0.0,21795.0,1.625,-202.5,-515.9055286645889,0.0,0.125,0.8312987430000001,4.932250999999998,0.0,-23746.0,2.375,225.0,515.9055286645889,0.0,0.125,0.507812448,4.963769999999998,0.0,754.0,3.0,-142.5,-515.9055286645889,0.0,0.125,3.3801266070000002,0.01,0.0,-25702.0,1.625,165.0,515.9055286645889,0.0,0.25,1.591796712,0.01,0.0,0.10999999940395355,-1.1399999856948853,-69.44999694824219,-0.04656982421875,0.02099609375,1.010498046875,33.47999954223633,0.0,-27.0,4.3758392333984375,-1.0042266845703125,Closing,0.0,0.0,3.0,0.0,0.0,0.0,0.0,0.0,
2.424583999999988,0.0,0.0,21795.0,1.25,-270.0,-377.00788199901575,0.0,0.125,0.832519446,4.932250999999998,0.0,-23746.0,1.875,240.0,377.00788199901575,0.0,0.0,0.5029296360000001,4.963769999999998,0.0,733.0,2.5,-120.0,-377.00788199901575,0.0,0.125,3.3789059040000002,0.01,0.0,-25702.0,1.25,262.5,377.00788199901575,0.0,0.25,1.591796712,0.01,0.0,0.10999999940395355,-1.25,-69.3499984741211,-0.00787353515625,0.06396484375,0.9385986328125,33.47999954223633,0.0,-53.0,4.375335693359375,-1.010955810546875,Closing,0.0,0.0,3.0,0.0,0.0,0.0,0.0,0.0,
2.4712189999999974,0.0,0.0,21748.0,0.125,-300.0,-138.89763727784157,0.0,0.125,0.832519446,4.932250999999998,0.0,-23701.0,0.625,285.0,138.89763727784157,0.0,0.0,0.5029296360000001,4.963769999999998,0.0,733.0,1.625,-142.5,-138.89763727784157,0.0,0.125,3.3776852010000002,0.01,0.0,-25652.0,0.5,300.0,138.89763727784157,0.0,0.25,1.6027830390000002,0.01,0.0,0.12999999523162842,-1.2400000095367432,-69.33999633789062,0.0513916015625,-0.0433349609375,0.9329833984375,33.47999954223633,0.0,67.0,4.3741302490234375,-1.0176849365234375,Closing,0.0,0.0,3.0,0.0,0.0,0.0,0.0,0.0,
2.5499889999999867,0.0,0.0,21748.0,0.0,-255.0,0.0,0.0,0.125,0.832519446,4.932250999999998,-0.0012207029999999897,-23701.0,0.0,202.5,0.0,0.0,0.0,0.522460884,4.963769999999998,0.004882811999999959,700.0,0.25,-247.5,0.0,0.0,0.125,3.3728023890000003,0.01,0.0,-25652.0,0.0,157.5,0.0,0.0,0.25,1.6113279600000001,0.01,0.009765623999999917,0.10000000149011612,-1.0399999618530273,-69.20999908447266,0.0391845703125,-0.0587158203125,1.009033203125,33.47999954223633,0.0,77.0,4.3731842041015625,-1.018707275390625,Closing,0.0,0.0,3.0,0.0,0.0,0.0,0.0,0.0,
2.612901999999987,0.0,0.0,21725.0,0.0,-142.5,0.0,0.0,0.125,0.822753822,4.932250999999998,0.0012207029999999897,-23684.0,0.0,105.0,0.0,0.0,0.0,0.527343696,4.963769999999998,0.014648436000000764,676.0,0.0,-225.0,0.0,0.0,0.0,3.3630367650000004,0.01,-0.004882811999999959,-25627.0,0.0,150.0,0.0,0.0,0.25,1.6101072570000001,0.01,0.009765623999999917,0.10000000149011612,-0.75,-69.08999633789062,0.12054443359375,7.9345703125E-4,0.9947509765625,33.47999954223633,0.0,48.0,4.37396240234375,-1.0159454345703125,Closing,0.0,0.0,3.0,0.0,0.0,0.0,0.0,0.0,
2.6695939999999974,0.0,0.0,21725.0,0.0,-157.5,0.0,0.0,0.125,0.8288573370000001,4.932250999999998,-0.008544921000000039,-23684.0,0.0,157.5,0.0,0.0,0.125,0.527343696,4.963769999999998,0.004882811999999959,676.0,0.0,-67.5,0.0,0.0,0.0,3.353271141,0.01,-0.009765623999999917,-25627.0,0.0,202.5,0.0,0.0,0.25,1.6101072570000001,0.01,0.0,0.14000000059604645,-0.5199999809265137,-69.1500015258789,0.04974365234375,-0.0523681640625,1.0400390625,33.47999954223633,0.0,72.0,4.3757476806640625,-1.010955810546875,Closing,0.0,0.0,3.0,0.0,0.0,0.0,0.0,0.0,
2.728968000000008,0.0,0.0,21696.0,0.0,-127.5,0.0,0.0,0.125,0.822753822,4.932250999999998,0.0,-23654.0,0.0,127.5,0.0,0.0,0.125,0.527343696,4.963769999999998,0.0,668.0,0.0,-37.5,0.0,0.0,0.0,3.352050438,0.01,0.0,-25602.0,0.0,142.5,0.0,0.0,0.25,1.6101072570000001,0.01,0.0,0.10000000149011612,-0.33000001311302185,-69.04000091552734,0.0902099609375,0.0184326171875,0.99578857421875,33.47999954223633,0.0,18.0,4.378570556640625,-1.0046234130859375,Closing,0.0,0.0,3.0,0.0,0.0,0.0,0.0,0.0,
2.818768999999986,0.0,0.0,21696.0,0.0,-60.0,0.0,0.0,0.125,0.822753822,4.932250999999998,-0.004882811999999959,-23647.0,0.0,67.5,0.0,0.0,0.125,0.527343696,4.963769999999998,0.0,668.0,0.0,-45.0,0.0,0.0,0.0,3.353271141,0.01,0.0,-25593.0,0.0,52.5,0.0,0.0,0.25,1.6101072570000001,0.01,0.0,0.14000000059604645,-0.07000000029802322,-69.04000091552734,0.05352783203125,0.01123046875,1.0281982421875,33.47999954223633,0.0,11.0,4.3828887939453125,-0.9943084716796875,Closing,0.0,0.0,3.0,0.0,0.0,0.0,0.0,0.0,
2.8887890000000045,0.0,0.0,21689.0,0.0,-22.5,-257.95276433229446,0.0,0.125,0.822753822,4.932250999999998,0.0,-23647.0,0.125,7.5,257.95276433229446,0.0,0.125,0.527343696,4.963769999999998,0.0,664.0,0.125,-22.5,-257.95276433229446,0.0,0.0,3.353271141,0.01,0.0,-25593.0,0.125,15.0,257.95276433229446,0.0,0.25,1.6101072570000001,0.01,0.0,0.11999999731779099,0.019999999552965164,-69.05999755859375,0.0028076171875,-9.765625E-4,0.991943359375,33.52000045776367,0.0,3.0,4.3830413818359375,-0.9871826171875,Closing,0.0,0.0,3.0,0.0,0.0,0.0,0.0,0.0,
2.969058999999994,0.0,0.0,21680.0,0.375,-52.5,-555.5905491113663,0.0,0.125,0.822753822,4.932250999999998,0.0,-23639.0,1.125,37.5,555.5905491113663,0.0,0.125,0.527343696,4.963769999999998,0.0,664.0,0.625,-15.0,-555.5905491113663,0.0,0.0,3.353271141,0.01,0.0,-25593.0,1.125,7.5,555.5905491113663,0.0,0.25,1.6113279600000001,0.01,0.0,0.12999999523162842,0.0,-69.05000305175781,-0.01104736328125,0.00738525390625,1.00421142578125,33.52000045776367,0.0,-8.0,4.3830413818359375,-0.9871826171875,Closing,0.0,0.0,3.0,0.0,0.0,0.0,0.0,0.0,
3.024446000000011,0.0,0.0,21680.0,1.25,-120.0,-595.2756071090697,0.0,0.125,0.8276366340000001,4.932250999999998,0.0,-23639.0,2.875,187.5,595.2756071090697,0.0,0.125,0.527343696,4.963769999999998,0.0,654.0,1.875,-60.0,-595.2756071090697,0.0,0.0,3.3679195770000003,0.01,0.0,-25593.0,1.25,90.0,595.2756071090697,0.0,0.25,1.6101072570000001,0.01,0.0,0.20000000298023224,-0.3499999940395355,-69.06999969482422,-0.1351318359375,-0.02130126953125,0.89642333984375,33.52000045776367,0.0,-23.0,4.3822479248046875,-0.9884490966796875,Closing,0.0,0.0,3.0,0.0,0.0,0.0,0.0,0.0,
3.0719749999999912,0.0,0.0,21657.0,2.125,-127.5,-595.2756071090697,0.0,0.125,0.8276366340000001,4.932250999999998,0.0,-23614.0,3.25,120.0,595.2756071090697,0.0,0.125,0.505371042,4.963769999999998,0.0,654.0,2.875,-82.5,-595.2756071090697,0.0,0.0,3.3764644980000003,0.01,0.0,-25566.0,2.125,172.5,595.2756071090697,0.0,0.25,1.6101072570000001,0.01,0.0,0.1899999976158142,-0.5600000023841858,-69.02999877929688,-0.11126708984375,-0.01812744140625,0.98822021484375,33.52000045776367,0.0,-16.0,4.38055419921875,-0.9921112060546875,Closing,0.0,0.0,3.0,0.0,0.0,0.0,0.0,0.0,
3.1508510000000096,0.0,0.0,21657.0,3.0,-157.5,-615.1181173324585,0.0,0.125,0.847167882,4.932250999999998,0.0,-23614.0,5.375,150.0,615.1181173324585,0.0,0.125,0.505371042,4.963769999999998,0.0,639.0,4.25,-127.5,-615.1181173324585,0.0,0.0,3.3776852010000002,0.01,0.0,-25566.0,2.375,142.5,615.1181173324585,0.0,0.25,1.59912093,0.01,0.0,0.1899999976158142,-0.949999988079071,-68.98999786376953,-0.14697265625,7.32421875E-4,1.10052490234375,33.52000045776367,0.0,-43.0,4.377105712890625,-0.99951171875,Closing,0.0,0.0,3.0,0.0,0.0,0.0,0.0,0.0,
3.207184999999983,0.0,0.0,21617.0,3.125,-225.0,-615.1181173324585,0.0,0.125,0.8276366340000001,4.932250999999998,0.0,-23576.0,5.25,247.5,615.1181173324585,0.0,0.0,0.483398388,4.963769999999998,0.0,639.0,4.125,-172.5,-615.1181173324585,0.0,0.125,3.3776852010000002,0.01,0.0,-25531.0,3.125,225.0,615.1181173324585,0.0,0.25,1.6101072570000001,0.01,0.0,0.20000000298023224,-1.2999999523162842,-68.97000122070312,-0.22406005859375,0.052001953125,1.0980224609375,33.52000045776367,0.0,-116.0,4.3730010986328125,-1.00811767578125,Closing,0.0,0.0,3.0,0.0,0.0,0.0,0.0,0.0,
3.2657379999999976,0.0,0.0,21617.0,2.875,-330.0,-615.1181173324585,0.0,0.125,0.8276366340000001,4.932250999999998,0.0,-23576.0,5.25,345.0,615.1181173324585,0.0,0.125,0.483398388,4.963769999999998,0.0,616.0,4.625,-150.0,-615.1181173324585,0.0,0.125,3.3776852010000002,0.01,0.0,-25531.0,2.75,322.5,615.1181173324585,0.0,0.25,1.6088865540000001,0.01,0.0,0.1899999976158142,-1.5299999713897705,-68.97000122070312,-0.1309814453125,0.02081298828125,1.12481689453125,33.52000045776367,0.0,-52.0,4.3676605224609375,-1.0189971923828125,Closing,0.0,0.0,3.0,0.0,0.0,0.0,0.0,0.0,
3.3253220000000003,0.0,0.0,21547.0,2.75,-390.0,-615.1181173324585,0.0,0.125,0.826415931,4.932250999999998,0.0,-23508.0,4.625,412.5,615.1181173324585,0.0,0.125,0.483398388,4.963769999999998,0.0,616.0,5.25,-322.5,-615.1181173324585,0.0,0.125,3.3776852010000002,0.01,0.0,-25468.0,2.75,412.5,615.1181173324585,0.0,0.25,1.6101072570000001,0.01,0.0,0.18000000715255737,-1.7200000286102295,-68.91999816894531,-0.03900146484375,-0.00299072265625,1.07586669921875,33.52000045776367,0.0,3.0,4.3646087646484375,-1.0284576416015625,Closing,0.0,0.0,3.0,0.0,0.0,0.0,0.0,0.0,
3.3883780000000114,0.0,0.0,21547.0,2.75,-547.5,-714.3307435512543,0.0,0.125,0.8276366340000001,4.932250999999998,0.0,-23508.0,4.75,532.5,714.3307435512543,0.0,0.125,0.483398388,4.963769999999998,0.0,542.0,4.25,-555.0,-714.3307435512543,0.0,0.125,3.3764644980000003,0.01,0.0,-25468.0,2.625,540.0,714.3307435512543,0.0,0.25,1.6101072570000001,0.01,0.0,0.15000000596046448,-1.940000057220459,-68.83000183105469,-0.10028076171875,0.015869140625,1.02447509765625,33.5099983215332,0.0,-35.0,4.36383056640625,-1.0500030517578125,Closing,0.0,0.0,3.0,0.0,0.0,0.0,0.0,0.0,
3.4533000000000027,0.0,0.0,21451.0,2.75,-592.5,-773.8582742214203,0.0,0.125,0.8142089010000001,4.932250999999998,0.0,-23413.0,4.5,592.5,773.8582742214203,0.0,0.125,0.484619091,4.963769999999998,0.0,542.0,3.875,-607.5,-773.8582742214203,0.0,0.125,3.3776852010000002,0.01,0.0,-25378.0,2.625,585.0,773.8582742214203,0.0,0.25,1.612548663,0.01,0.0,0.1899999976158142,-2.0199999809265137,-68.79000091552734,-0.0911865234375,-0.0213623046875,0.86822509765625,33.5099983215332,0.0,0.0,4.36279296875,-1.061859130859375,Closing,0.0,0.0,3.0,0.0,0.0,0.0,0.0,0.0,
3.5021459999999935,0.0,0.0,21451.0,2.875,-637.5,-833.3858048915863,0.0,0.125,0.8276366340000001,4.932250999999998,0.0012207030000001007,-23413.0,4.625,645.0,833.3858048915863,0.0,0.125,0.483398388,4.963769999999998,0.0,440.0,4.25,-652.5,-833.3858048915863,0.0,0.125,3.3776852010000002,0.01,0.0,-25378.0,2.75,630.0,833.3858048915863,0.0,0.25,1.6088865540000001,0.01,0.0,0.1899999976158142,-2.140000104904175,-68.77999877929688,-0.04180908203125,-0.05206298828125,0.88177490234375,33.5099983215332,0.0,48.0,4.361297607421875,-1.0743255615234375,Closing,0.0,0.0,3.0,0.0,0.0,0.0,0.0,0.0,
3.5685919999999896,0.0,0.0,21335.0,2.875,-705.0,-833.3858048915863,0.0,0.125,0.8276366340000001,4.932250999999998,0.0,-23295.0,4.5,735.0,833.3858048915863,0.0,0.125,0.483398388,4.963769999999998,0.0,440.0,4.125,-690.0,-833.3858048915863,0.0,0.125,3.3764644980000003,0.01,0.0,-25265.0,2.875,697.5,833.3858048915863,0.0,0.25,1.6101072570000001,0.01,0.0,0.1599999964237213,-2.299999952316284,-68.75,0.009033203125,-0.01593017578125,1.014892578125,33.5099983215332,0.0,35.0,4.358367919921875,-1.09564208984375,Closing,0.0,0.0,3.0,0.0,0.0,0.0,0.0,0.0,
3.694900999999998,0.0,0.0,21202.0,2.0,-817.5,-833.3858048915863,0.0,0.125,0.8276366340000001,4.932250999999998,0.0,-23161.0,3.125,847.5,833.3858048915863,0.0,0.125,0.483398388,4.963769999999998,0.0,322.0,3.5,-810.0,-833.3858048915863,0.0,0.125,3.3703609830000003,0.01,0.0,-25137.0,2.25,810.0,833.3858048915863,0.0,0.25,1.6113279600000001,0.01,0.0,0.15000000596046448,-2.4100000858306885,-68.69000244140625,-0.0770263671875,0.013916015625,0.8585205078125,33.5099983215332,0.0,-25.0,4.357879638671875,-1.10882568359375,Closing,0.0,0.0,3.0,0.0,0.0,0.0,0.0,0.0,
3.8360880000000033,0.0,0.0,21058.0,1.0,-900.0,-833.3858048915863,0.0,0.125,0.8178710100000001,4.932250999999998,0.0,-23016.0,2.125,900.0,833.3858048915863,0.0,0.125,0.483398388,4.963769999999998,0.0,58.0,3.125,-825.0,-833.3858048915863,0.0,0.125,3.3776852010000002,0.01,0.0,-24996.0,1.25,885.0,833.3858048915863,0.0,0.25,1.6113279600000001,0.01,0.0,0.38999998569488525,-2.5299999713897705,-68.6500015258789,-0.05548095703125,-0.0936279296875,1.2083740234375,33.5099983215332,0.0,94.0,4.3573150634765625,-1.1090240478515625,Closing,0.0,0.0,3.0,0.0,0.0,0.0,0.0,0.0,
3.9703139999999983,0.0,0.0,20916.0,0.75,-877.5,-833.3858048915863,0.0,0.125,0.8276366340000001,4.932250999999998,0.0,-22868.0,1.375,930.0,833.3858048915863,0.0,0.125,0.48706049700000004,4.963769999999998,0.0,-85.0,2.875,-892.5,-833.3858048915863,0.0,0.125,3.3764644980000003,0.01,0.0,-24850.0,1.125,885.0,833.3858048915863,0.0,0.25,1.6101072570000001,0.01,0.0,0.10999999940395355,-2.140000104904175,-68.91000366210938,0.12628173828125,-0.14666748046875,0.9437255859375,33.45000076293945,0.0,196.0,4.3582611083984375,-1.10687255859375,Closing,0.0,0.0,3.0,0.0,0.0,0.0,0.0,0.0,
4.105453999999983,0.0,0.0,20770.0,0.625,-907.5,-833.3858048915863,0.0,0.125,0.821533119,4.932250999999998,0.0,-22722.0,1.125,907.5,833.3858048915863,0.0,0.125,0.483398388,4.963769999999998,0.0,-230.0,2.125,-900.0,-833.3858048915863,0.0,0.125,3.3764644980000003,0.01,0.0,-24709.0,1.125,892.5,833.3858048915863,0.0,0.25,1.616210772,0.01,0.0,0.18000000715255737,-1.9500000476837158,-69.01000213623047,-0.034423828125,-0.16448974609375,1.0792236328125,33.45000076293945,0.0,157.0,4.36065673828125,-1.101715087890625,Closing,0.0,0.0,3.0,0.0,0.0,0.0,0.0,0.0,
4.2338210000000105,0.0,0.0,20627.0,0.0,-795.0,0.0,0.0,0.125,0.8142089010000001,4.932250999999998,0.0,-22575.0,0.0,847.5,0.0,0.0,0.125,0.483398388,4.963769999999998,0.0,-374.0,0.0,-832.5,0.0,0.0,0.125,3.3764644980000003,0.01,0.0,-24571.0,0.0,802.5,0.0,0.0,0.25,1.614990069,0.01,0.0,0.25,-1.5800000429153442,-69.11000061035156,0.12310791015625,-0.02471923828125,0.93536376953125,33.45000076293945,0.0,80.0,4.3650054931640625,-1.0922393798828125,Closing,0.0,0.0,3.0,0.0,0.0,0.0,0.0,0.0,
4.371045999999987,0.0,0.0,20520.0,0.0,-712.5,0.0,0.0,0.125,0.812988198,4.932250999999998,0.0,-22460.0,0.0,735.0,0.0,0.0,0.125,0.4882812,4.963769999999998,0.0,-460.0,0.0,-570.0,0.0,0.0,0.125,3.353271141,0.01,0.0,-24330.0,0.0,720.0,0.0,0.0,0.125,1.619872881,0.01,0.0,0.1899999976158142,-0.7200000286102295,-69.4800033569336,0.10614013671875,-0.0306396484375,0.90130615234375,33.45000076293945,0.0,72.0,4.37640380859375,-1.0644683837890625,Closing,0.0,0.0,3.0,0.0,0.0,0.0,0.0,0.0,
4.5048739999999965,0.0,0.0,20415.0,0.0,-607.5,0.0,0.0,0.125,0.812988198,4.932250999999998,0.0,-22258.0,0.0,600.0,0.0,0.0,0.125,0.498046824,4.963769999999998,0.0,-551.0,0.0,-547.5,0.0,0.0,0.0,3.353271141,0.01,0.0,-24241.0,0.0,592.5,0.0,0.0,0.125,1.6101072570000001,0.01,0.0,0.2199999988079071,-0.3199999928474426,-69.43000030517578,0.110107421875,-0.0174560546875,1.03863525390625,33.41999816894531,0.0,60.0,4.37921142578125,-1.038360595703125,Closing,0.0,0.0,3.0,0.0,0.0,0.0,0.0,0.0,
4.635172000000006,0.0,0.0,20255.0,0.0,-457.5,0.0,0.0,0.125,0.812988198,4.932250999999998,0.0,-22189.0,0.0,435.0,0.0,0.0,0.125,0.498046824,4.963769999999998,0.0,-635.0,0.0,-457.5,0.0,0.0,0.0,3.352050438,0.01,0.0,-24173.0,0.0,420.0,0.0,0.0,0.25,1.6101072570000001,0.01,0.0,0.2199999988079071,0.17000000178813934,-69.33999633789062,0.0625,0.01837158203125,1.03485107421875,33.41999816894531,0.0,7.0,4.3797760009765625,-0.9958953857421875,Closing,0.0,0.0,3.0,0.0,0.0,0.0,0.0,0.0,
4.771142999999997,0.0,0.0,20207.0,0.0,-322.5,0.0,0.0,0.125,0.812988198,4.932250999999998,0.0,-22140.0,0.0,300.0,0.0,0.0,0.0,0.498046824,4.963769999999998,0.0,-698.0,0.0,-307.5,0.0,0.0,0.0,3.353271141,0.01,0.0,-24127.0,0.0,285.0,0.0,0.0,0.25,1.6113279600000001,0.01,0.0,0.20000000298023224,0.5699999928474426,-69.2699966430664,0.0833740234375,0.00146484375,1.04913330078125,33.41999816894531,0.0,27.0,4.380950927734375,-0.9515533447265625,Closing,0.0,0.0,3.0,0.0,0.0,0.0,0.0,0.0,
4.905642999999996,0.0,0.0,20180.0,0.0,-157.5,0.0,0.0,0.125,0.812988198,4.932250999999998,0.0,-22113.0,0.0,157.5,0.0,0.0,0.0,0.496826121,4.963769999999998,0.0,-742.0,0.0,-150.0,0.0,0.0,0.0,3.353271141,0.01,0.0,-24099.0,0.0,165.0,0.0,0.0,0.25,1.6101072570000001,0.01,0.0,0.1899999976158142,0.9599999785423279,-69.22000122070312,0.08770751953125,-0.0067138671875,1.003662109375,33.41999816894531,0.0,34.0,4.385284423828125,-0.8954620361328125,Closing,0.0,0.0,3.0,0.0,0.0,0.0,0.0,0.0,
5.03887000000001,0.0,0.0,20174.0,0.0,-22.5,0.0,0.0,0.125,0.812988198,4.932250999999998,0.0,-22105.0,0.0,15.0,0.0,0.0,0.125,0.498046824,4.963769999999998,0.0,-765.0,0.0,-22.5,0.0,0.0,0.0,3.353271141,0.01,0.0,-24091.0,0.0,15.0,0.0,0.0,0.25,1.6101072570000001,0.01,0.0,0.18000000715255737,1.2699999809265137,-69.19000244140625,0.0228271484375,-0.01171875,1.007568359375,33.470001220703125,0.0,14.0,4.389617919921875,-0.83294677734375,Closing,0.0,0.0,3.0,0.0,0.0,0.0,0.0,0.0,
5.167865999999995,0.0,0.0,20174.0,0.0,0.0,0.0,0.0,0.125,0.812988198,4.932250999999998,0.0,-22105.0,0.0,0.0,0.0,0.0,0.125,0.498046824,4.963769999999998,0.0,-765.0,0.0,0.0,0.0,0.0,0.0,3.352050438,0.01,0.0,-24091.0,0.0,0.0,0.0,0.0,0.25,1.6101072570000001,0.01,0.0,0.18000000715255737,1.0700000524520874,-69.2300033569336,-0.0186767578125,-0.005615234375,1.013916015625,33.470001220703125,0.0,-5.0,4.38916015625,-0.834197998046875,Closing,0.0,0.0,3.0,0.0,0.0,0.0,0.0,0.0,
5.305591000000001,0.0,0.0,20174.0,0.0,0.0,0.0,0.0,0.125,0.812988198,4.932250999999998,0.0,-22105.0,0.0,0.0,0.0,0.0,0.0,0.498046824,4.963769999999998,0.0,-765.0,0.0,0.0,0.0,0.0,0.0,3.353271141,0.01,0.0,-24091.0,0.0,0.0,0.0,0.0,0.25,1.6101072570000001,0.01,0.0,0.18000000715255737,0.8199999928474426,-69.22000122070312,-0.02294921875,0.00244140625,1.02099609375,33.470001220703125,0.0,-12.0,4.3889923095703125,-0.8397369384765625,Closing,0.0,0.0,3.0,0.0,0.0,0.0,0.0,0.0,
5.4358739999999965,0.0,0.0,20174.0,0.0,0.0,0.0,0.0,0.125,0.812988198,4.932250999999998,0.0,-22105.0,0.0,0.0,0.0,0.0,0.125,0.496826121,4.963769999999998,0.0,-765.0,0.0,0.0,0.0,0.0,0.0,3.352050438,0.01,0.0,-24091.0,0.0,0.0,0.0,0.0,0.25,1.6101072570000001,0.01,0.0,0.18000000715255737,0.7099999785423279,-69.20999908447266,0.00439453125,0.00311279296875,1.01971435546875,33.43000030517578,0.0,-2.0,4.3889923095703125,-0.842437744140625,Closing,0.0,0.0,3.0,0.0,0.0,0.0,0.0,0.0,
5.57039,0.0,0.0,20174.0,0.0,0.0,0.0,0.0,0.125,0.811767495,4.932250999999998,0.0,-22105.0,0.0,0.0,0.0,0.0,0.125,0.498046824,4.963769999999998,0.0,-765.0,0.0,0.0,0.0,0.0,0.0,3.353271141,0.01,0.0,-24091.0,0.0,0.0,0.0,0.0,0.25,1.6113279600000001,0.01,0.0,0.18000000715255737,0.6299999952316284,-69.20999908447266,-0.0079345703125,0.00286865234375,1.027587890625,33.43000030517578,0.0,-6.0,4.3889923095703125,-0.842437744140625,Closing,0.0,0.0,3.0,0.0,0.0,0.0,0.0,0.0,
5.705890999999989,0.0,0.0,20174.0,0.0,0.0,0.0,0.0,0.125,0.8142089010000001,4.932250999999998,0.0,-22105.0,0.0,0.0,0.0,0.0,0.125,0.498046824,4.963769999999998,0.0,-765.0,0.0,0.0,0.0,0.0,0.0,3.353271141,0.01,0.0,-24091.0,0.0,0.0,0.0,0.0,0.25,1.6101072570000001,0.01,0.0,0.18000000715255737,0.5099999904632568,-69.20999908447266,-0.005126953125,0.00286865234375,1.021240234375,33.43000030517578,0.0,-4.0,4.3889923095703125,-0.84259033203125,Closing,0.0,0.0,3.0,0.0,0.0,0.0,0.0,0.0,
5.834640999999989,0.0,0.0,20174.0,0.0,0.0,0.0,0.0,0.125,0.8142089010000001,4.932250999999998,0.0,-22105.0,0.0,0.0,0.0,0.0,0.0,0.498046824,4.963769999999998,0.0,-765.0,0.0,0.0,0.0,0.0,0.0,3.352050438,0.01,0.0,-24091.0,0.0,0.0,0.0,0.0,0.25,1.6101072570000001,0.01,0.0,0.18000000715255737,0.44999998807907104,-69.19999694824219,-0.00433349609375,0.00335693359375,1.02410888671875,33.43000030517578,0.0,-4.0,4.3889923095703125,-0.84259033203125,Closing,0.0,0.0,3.0,0.0,0.0,0.0,0.0,0.0,
5.971800000000003,0.0,0.0,20187.0,1.375,90.0,551.25,0.0,0.125,0.812988198,0.01,0.0,-22120.0,2.5,-97.5,-551.25,0.0,0.125,0.527343696,0.01,0.0,-765.0,1.375,142.5,551.25,0.0,0.0,3.348388329,0.01,0.0,-24103.0,1.0,-82.5,-551.25,0.0,0.25,1.6101072570000001,0.01,0.0,0.20999999344348907,0.6100000143051147,-69.12000274658203,0.050537109375,0.027587890625,1.0706787109375,33.400001525878906,0.0,-8.0,4.3895416259765625,-0.8411865234375,Closing,0.0,0.0,3.0,0.0,0.0,0.0,0.0,0.0,
6.105914000000005,0.0,0.0,20194.0,0.0,37.5,0.0,0.0,0.125,0.819091713,0.01,0.0,-22126.0,0.0,-30.0,0.0,0.0,0.125,0.522460884,0.01,0.0,-735.0,0.0,52.5,0.0,0.0,0.0,3.347167626,0.01,0.0,-24113.0,0.0,-52.5,0.0,0.0,0.25,1.624755693,0.01,0.0,0.20999999344348907,0.5400000214576721,-69.22000122070312,-0.04180908203125,0.03131103515625,0.96246337890625,33.400001525878906,0.0,-43.0,4.3906402587890625,-0.8379364013671875,Closing,0.0,0.0,3.0,0.0,0.0,0.0,0.0,0.0,
6.235064999999988,0.0,0.0,20194.0,0.0,0.0,0.0,0.0,0.125,0.8178710100000001,0.01,0.0,-22126.0,0.0,0.0,0.0,0.0,0.0,0.522460884,0.01,0.0,-735.0,0.0,0.0,0.0,0.0,0.0,3.347167626,0.01,0.0,-24113.0,0.0,0.0,0.0,0.0,0.125,1.625976396,0.01,0.0,0.18000000715255737,0.23999999463558197,-69.19000244140625,-0.04705810546875,0.011474609375,1.07171630859375,33.400001525878906,0.0,-25.0,4.3902740478515625,-0.8388824462890625,Closing,0.0,0.0,3.0,0.0,0.0,0.0,0.0,0.0,
6.367944999999993,0.0,0.0,20194.0,0.0,0.0,0.0,0.0,0.125,0.8178710100000001,0.01,0.0,-22126.0,0.0,0.0,0.0,0.0,0.0,0.522460884,0.01,0.0,-735.0,0.0,0.0,0.0,0.0,0.0,3.348388329,0.01,0.0,-24113.0,0.0,0.0,0.0,0.0,0.125,1.624755693,0.01,0.0,0.20000000298023224,0.03999999910593033,-69.19999694824219,-0.01507568359375,3.662109375E-4,1.04742431640625,33.400001525878906,0.0,-2.0,4.3900299072265625,-0.8441009521484375,Closing,0.0,0.0,3.0,0.0,0.0,0.0,0.0,0.0,
6.507205999999991,0.0,0.0,20194.0,0.0,0.0,0.0,0.0,0.125,0.8178710100000001,0.01,0.0,-22126.0,0.0,0.0,0.0,0.0,0.0,0.522460884,0.01,0.0,-735.0,0.0,0.0,0.0,0.0,0.0,3.347167626,0.01,0.0,-24113.0,0.0,0.0,0.0,0.0,0.125,1.624755693,0.01,0.0,0.20000000298023224,0.019999999552965164,-69.19000244140625,0.0023193359375,0.00555419921875,1.02825927734375,33.38999938964844,0.0,-1.0,4.3900299072265625,-0.8441009521484375,Closing,0.0,0.0,3.0,0.0,0.0,0.0,0.0,0.0,
6.6395660000000065,0.0,0.0,20194.0,0.0,0.0,0.0,0.0,0.125,0.8178710100000001,0.01,0.0,-22126.0,0.0,0.0,0.0,0.0,0.0,0.520019478,0.01,0.0,-735.0,0.0,0.0,0.0,0.0,0.0,3.347167626,0.01,0.0,-24113.0,0.0,0.0,0.0,0.0,0.125,1.624755693,0.01,0.0,0.20000000298023224,0.019999999552965164,-69.19000244140625,-0.006591796875,0.0079345703125,1.0169677734375,33.38999938964844,0.0,-6.0,4.3900299072265625,-0.8441009521484375,Closing,0.0,0.0,3.0,0.0,0.0,0.0,0.0,0.0,
6.759004000000001,0.0,0.0,20194.0,0.0,0.0,0.0,0.0,0.125,0.819091713,0.01,0.0,-22126.0,0.0,0.0,0.0,0.0,0.0,0.522460884,0.01,0.0,-735.0,0.0,0.0,0.0,0.0,0.0,3.347167626,0.01,0.0,-24113.0,0.0,0.0,0.0,0.0,0.125,1.624755693,0.01,0.0,0.20000000298023224,-0.019999999552965164,-69.19999694824219,-0.01239013671875,0.0020751953125,1.01910400390625,33.38999938964844,0.0,-2.0,4.3900299072265625,-0.8441009521484375,Closing,0.0,0.0,3.0,0.0,0.0,0.0,0.0,0.0,
6.905414999999993,0.0,0.0,20194.0,0.0,0.0,0.0,0.0,0.125,0.819091713,0.01,0.0,-22126.0,0.0,0.0,0.0,0.0,0.0,0.521240181,0.01,0.0,-735.0,0.0,0.0,0.0,0.0,0.0,3.348388329,0.01,0.0,-24113.0,0.0,0.0,0.0,0.0,0.125,1.624755693,0.01,0.0,0.20000000298023224,-0.05000000074505806,-69.19000244140625,-0.00335693359375,0.00469970703125,1.0225830078125,33.38999938964844,0.0,-1.0,4.3900299072265625,-0.8441009521484375,Closing,0.0,0.0,3.0,0.0,0.0,0.0,0.0,0.0,
7.040841,0.0,0.0,20194.0,0.0,0.0,0.0,0.0,0.125,0.8178710100000001,0.01,0.0,-22126.0,0.0,0.0,0.0,0.0,0.0,0.522460884,0.01,0.0,-735.0,0.0,0.0,0.0,0.0,0.0,3.347167626,0.01,0.0,-24113.0,0.0,0.0,0.0,0.0,0.125,1.624755693,0.01,0.0,0.1899999976158142,-0.07999999821186066,-69.18000030517578,-0.00653076171875,0.00665283203125,1.0184326171875,33.40999984741211,0.0,-4.0,4.3900299072265625,-0.8441009521484375,Closing,0.0,0.0,3.0,0.0,0.0,0.0,0.0,0.0,
7.169230999999985,0.0,0.0,20194.0,0.0,0.0,0.0,0.0,0.125,0.8178710100000001,0.01,0.0,-22126.0,0.0,0.0,0.0,0.0,0.0,0.522460884,0.01,0.0,-735.0,0.0,0.0,0.0,0.0,0.0,3.348388329,0.01,0.0,-24113.0,0.0,0.0,0.0,0.0,0.125,1.624755693,0.01,0.0,0.1899999976158142,-0.10999999940395355,-69.18000030517578,-0.0076904296875,0.00445556640625,1.0169677734375,33.40999984741211,0.0,-3.0,4.3900299072265625,-0.8441009521484375,Closing,0.0,0.0,3.0,0.0,0.0,0.0,0.0,0.0,
7.304466000000001,0.0,0.0,20194.0,0.0,0.0,0.0,0.0,0.125,0.8178710100000001,0.01,0.0,-22126.0,0.0,0.0,0.0,0.0,0.0,0.522460884,0.01,0.0,-735.0,0.0,0.0,0.0,0.0,0.0,3.348388329,0.01,0.0,-24113.0,0.0,0.0,0.0,0.0,0.125,1.624755693,0.01,0.0,0.1899999976158142,-0.11999999731779099,-69.16999816894531,-0.0064697265625,0.002685546875,1.0184326171875,33.40999984741211,0.0,0.0,4.3900299072265625,-0.8441009521484375,Closing,0.0,0.0,3.0,0.0,0.0,0.0,0.0,0.0,
7.438308999999994,0.0,0.0,20194.0,0.0,0.0,0.0,0.0,0.125,0.8178710100000001,0.01,0.0,-22126.0,0.0,0.0,0.0,0.0,0.0,0.522460884,0.01,0.0,-735.0,0.0,0.0,0.0,0.0,0.0,3.347167626,0.01,0.0,-24113.0,0.0,0.0,0.0,0.0,0.125,1.62353499,0.01,0.0,0.1899999976158142,-0.14000000059604645,-69.16999816894531,-0.00408935546875,0.00628662109375,1.02093505859375,33.40999984741211,0.0,-3.0,4.3900299072265625,-0.8441009521484375,Closing,0.0,0.0,3.0,0.0,0.0,0.0,0.0,0.0,
7.571751999999993,0.0,0.0,20194.0,0.0,0.0,0.0,0.0,0.125,0.8178710100000001,0.01,0.0,-22126.0,0.0,0.0,0.0,0.0,0.0,0.522460884,0.01,0.0,-735.0,0.0,0.0,0.0,0.0,0.0,3.348388329,0.01,0.0,-24113.0,0.0,0.0,0.0,0.0,0.125,1.624755693,0.01,0.0,0.18000000715255737,-0.1599999964237213,-69.16000366210938,-0.00665283203125,0.00360107421875,1.02459716796875,33.38999938964844,0.0,-1.0,4.3900299072265625,-0.8441009521484375,Closing,0.0,0.0,3.0,0.0,0.0,0.0,0.0,0.0,
7.706430000000007,0.0,0.0,20194.0,0.0,0.0,0.0,0.0,0.125,0.8178710100000001,0.01,0.0,-22126.0,0.0,0.0,0.0,0.0,0.0,0.522460884,0.01,0.0,-735.0,0.0,0.0,0.0,0.0,0.0,3.347167626,0.01,0.0,-24113.0,0.0,0.0,0.0,0.0,0.125,1.624755693,0.01,0.0,0.1899999976158142,-0.18000000715255737,-69.16000366210938,-0.00628662109375,0.00640869140625,1.024169921875,33.38999938964844,0.0,-3.0,4.3900299072265625,-0.8441009521484375,Closing,0.0,0.0,3.0,0.0,0.0,0.0,0.0,0.0,
7.836648000000001,0.0,0.0,20194.0,0.0,0.0,0.0,0.0,0.125,0.8178710100000001,0.01,0.0,-22126.0,0.0,0.0,0.0,0.0,0.0,0.522460884,0.01,0.0,-735.0,0.0,0.0,0.0,0.0,0.0,3.347167626,0.01,0.0,-24113.0,0.0,0.0,0.0,0.0,0.125,1.624755693,0.01,0.0,0.18000000715255737,-0.20000000298023224,-69.16000366210938,-0.00433349609375,0.004150390625,1.02178955078125,33.38999938964844,0.0,0.0,4.3900299072265625,-0.8441009521484375,Closing,0.0,0.0,3.0,0.0,0.0,0.0,0.0,0.0,
7.971442999999985,0.0,0.0,20194.0,0.0,0.0,0.0,0.0,0.125,0.8178710100000001,0.01,0.0,-22126.0,0.0,0.0,0.0,0.0,0.0,0.522460884,0.01,0.0,-735.0,0.0,0.0,0.0,0.0,0.0,3.348388329,0.01,0.0,-24113.0,0.0,0.0,0.0,0.0,0.125,1.624755693,0.01,0.0,0.1899999976158142,-0.20999999344348907,-69.1500015258789,-0.0050048828125,0.002197265625,1.027099609375,33.38999938964844,0.0,0.0,4.3900299072265625,-0.8441009521484375,Closing,0.0,0.0,3.0,0.0,0.0,0.0,0.0,0.0,
8.106553,0.0,0.0,20194.0,0.0,0.0,0.0,0.0,0.125,0.8178710100000001,0.01,0.0,-22126.0,0.0,0.0,0.0,0.0,0.0,0.522460884,0.01,0.0,-735.0,0.0,0.0,0.0,0.0,0.0,3.348388329,0.01,0.0,-24113.0,0.0,0.0,0.0,0.0,0.125,1.624755693,0.01,0.0,0.18000000715255737,-0.2199999988079071,-69.1500015258789,-0.0064697265625,0.00445556640625,1.01947021484375,33.38999938964844,0.0,-1.0,4.3900299072265625,-0.8441009521484375,Closing,0.0,0.0,3.0,0.0,0.0,0.0,0.0,0.0,
8.234156000000002,0.0,0.0,20194.0,0.0,0.0,0.0,0.0,0.125,0.8178710100000001,0.01,0.0,-22126.0,0.0,0.0,0.0,0.0,0.0,0.522460884,0.01,0.0,-735.0,0.0,0.0,0.0,0.0,0.0,3.347167626,0.01,0.0,-24113.0,0.0,0.0,0.0,0.0,0.125,1.624755693,0.01,0.0,0.1899999976158142,-0.23000000417232513,-69.13999938964844,-0.0052490234375,0.0023193359375,1.02508544921875,33.38999938964844,0.0,0.0,4.3900299072265625,-0.8441009521484375,Closing,0.0,0.0,3.0,0.0,0.0,0.0,0.0,0.0,
8.372661000000008,0.0,0.0,20194.0,0.0,0.0,0.0,0.0,0.125,0.8178710100000001,0.01,0.0,-22126.0,0.0,0.0,0.0,0.0,0.0,0.522460884,0.01,0.0,-735.0,0.0,0.0,0.0,0.0,0.0,3.347167626,0.01,0.0,-24113.0,0.0,0.0,0.0,0.0,0.125,1.624755693,0.01,0.0,0.1899999976158142,-0.23999999463558197,-69.13999938964844,-0.00799560546875,0.00634765625,1.02630615234375,33.38999938964844,0.0,-3.0,4.3900299072265625,-0.8441009521484375,Closing,0.0,0.0,3.0,0.0,0.0,0.0,0.0,0.0,
8.506564999999988,0.0,0.0,20194.0,0.0,0.0,0.0,0.0,0.125,0.8178710100000001,0.01,0.0,-22126.0,0.0,0.0,0.0,0.0,0.0,0.522460884,0.01,0.0,-735.0,0.0,0.0,0.0,0.0,0.0,3.348388329,0.01,0.0,-24113.0,0.0,0.0,0.0,0.0,0.125,1.624755693,0.01,0.0,0.1899999976158142,-0.25,-69.13999938964844,-0.0059814453125,0.0035400390625,1.0211181640625,33.400001525878906,0.0,0.0,4.3900299072265625,-0.8441009521484375,Closing,0.0,0.0,3.0,0.0,0.0,0.0,0.0,0.0,
8.637933999999994,0.0,0.0,20194.0,0.0,0.0,0.0,0.0,0.125,0.8178710100000001,0.01,0.0,-22126.0,0.0,0.0,0.0,0.0,0.0,0.522460884,0.01,0.0,-735.0,0.0,0.0,0.0,0.0,0.0,3.348388329,0.01,0.0,-24113.0,0.0,0.0,0.0,0.0,0.125,1.624755693,0.01,0.0,0.1899999976158142,-0.25999999046325684,-69.13999938964844,-0.005615234375,0.00189208984375,1.01959228515625,33.400001525878906,0.0,1.0,4.3900299072265625,-0.8441009521484375,Closing,0.0,0.0,3.0,0.0,0.0,0.0,0.0,0.0,
8.772797999999995,0.0,0.0,20194.0,0.0,0.0,0.0,0.0,0.125,0.8178710100000001,0.01,0.0,-22126.0,0.0,0.0,0.0,0.0,0.0,0.522460884,0.01,0.0,-735.0,0.0,0.0,0.0,0.0,0.0,3.348388329,0.01,0.0,-24113.0,0.0,0.0,0.0,0.0,0.125,1.62353499,0.01,0.0,0.1899999976158142,-0.27000001072883606,-69.13999938964844,-0.0057373046875,0.00469970703125,1.0274658203125,33.400001525878906,0.0,-1.0,4.3900299072265625,-0.8441009521484375,Closing,0.0,0.0,3.0,0.0,0.0,0.0,0.0,0.0,
8.905091,0.0,0.0,20194.0,0.0,0.0,0.0,0.0,0.125,0.8178710100000001,0.01,0.0,-22126.0,0.0,0.0,0.0,0.0,0.0,0.522460884,0.01,0.0,-735.0,0.0,0.0,0.0,0.0,0.0,3.348388329,0.01,0.0,-24113.0,0.0,0.0,0.0,0.0,0.125,1.624755693,0.01,0.0,0.1899999976158142,-0.2800000011920929,-69.13999938964844,-0.003662109375,0.00250244140625,1.0220947265625,33.400001525878906,0.0,1.0,4.3900299072265625,-0.8441009521484375,Closing,0.0,0.0,3.0,0.0,0.0,0.0,0.0,0.0,
9.04252399999999,0.0,0.0,20194.0,0.0,0.0,0.0,0.0,0.125,0.8178710100000001,0.01,0.0,-22126.0,0.0,0.0,0.0,0.0,0.0,0.522460884,0.01,0.0,-735.0,0.0,0.0,0.0,0.0,0.0,3.348388329,0.01,0.0,-24113.0,0.0,0.0,0.0,0.0,0.125,1.624755693,0.01,0.0,0.1899999976158142,-0.2800000011920929,-69.12999725341797,-0.00634765625,0.00140380859375,1.02020263671875,33.400001525878906,0.0,1.0,4.3900299072265625,-0.8441009521484375,Closing,0.0,0.0,3.0,0.0,0.0,0.0,0.0,0.0,
9.170552000000011,0.0,0.0,20194.0,0.0,0.0,0.0,0.0,0.125,0.8178710100000001,0.01,0.0,-22126.0,0.0,0.0,0.0,0.0,0.0,0.521240181,0.01,0.0,-735.0,0.0,0.0,0.0,0.0,0.0,3.348388329,0.01,0.0,-24113.0,0.0,0.0,0.0,0.0,0.125,1.624755693,0.01,0.0,0.1899999976158142,-0.2800000011920929,-69.12999725341797,-0.00341796875,0.00390625,1.021728515625,33.400001525878906,0.0,0.0,4.3900299072265625,-0.8441009521484375,Closing,0.0,0.0,3.0,0.0,0.0,0.0,0.0,0.0,
9.303957999999998,0.0,0.0,20194.0,0.0,0.0,0.0,0.0,0.125,0.8178710100000001,0.01,0.0,-22126.0,0.0,0.0,0.0,0.0,0.0,0.522460884,0.01,0.0,-735.0,0.0,0.0,0.0,0.0,0.0,3.348388329,0.01,0.0,-24113.0,0.0,0.0,0.0,0.0,0.125,1.624755693,0.01,0.0,0.1899999976158142,-0.28999999165534973,-69.12000274658203,-0.00531005859375,0.00482177734375,1.01776123046875,33.400001525878906,0.0,-1.0,4.3900299072265625,-0.8441009521484375,Closing,0.0,0.0,3.0,0.0,0.0,0.0,0.0,0.0,
9.437642999999996,0.0,0.0,20194.0,0.0,0.0,0.0,0.0,0.125,0.8178710100000001,0.01,0.0,-22126.0,0.0,0.0,0.0,0.0,0.0,0.522460884,0.01,0.0,-735.0,0.0,0.0,0.0,0.0,0.0,3.348388329,0.01,0.0,-24113.0,0.0,0.0,0.0,0.0,0.125,1.624755693,0.01,0.0,0.1899999976158142,-0.28999999165534973,-69.12000274658203,-0.0050048828125,0.0035400390625,1.02313232421875,33.400001525878906,0.0,0.0,4.3900299072265625,-0.8441009521484375,Closing,0.0,0.0,3.0,0.0,0.0,0.0,0.0,0.0,
9.571506000000008,0.0,0.0,20194.0,0.0,0.0,0.0,0.0,0.125,0.819091713,0.01,0.0,-22126.0,0.0,0.0,0.0,0.0,0.0,0.522460884,0.01,0.0,-735.0,0.0,0.0,0.0,0.0,0.0,3.348388329,0.01,0.0,-24113.0,0.0,0.0,0.0,0.0,0.125,1.625976396,0.01,0.0,0.1899999976158142,-0.30000001192092896,-69.12000274658203,-0.00640869140625,0.0045166015625,1.0189208984375,33.439998626708984,0.0,-1.0,4.3900299072265625,-0.8441009521484375,Closing,0.0,0.0,3.0,0.0,0.0,0.0,0.0,0.0,
9.702890999999989,0.0,0.0,20194.0,0.0,0.0,0.0,0.0,0.125,0.8178710100000001,0.01,0.0,-22126.0,0.0,0.0,0.0,0.0,0.0,0.522460884,0.01,0.0,-735.0,0.0,0.0,0.0,0.0,0.0,3.348388329,0.01,0.0,-24113.0,0.0,0.0,0.0,0.0,0.125,1.624755693,0.01,0.0,0.1899999976158142,-0.30000001192092896,-69.11000061035156,-0.006591796875,0.003173828125,1.0211181640625,33.439998626708984,0.0,0.0,4.3900299072265625,-0.8441009521484375,Closing,0.0,0.0,3.0,0.0,0.0,0.0,0.0,0.0,
9.838487999999998,0.0,0.0,20194.0,0.0,0.0,0.0,0.0,0.125,0.8178710100000001,0.01,0.0,-22126.0,0.0,0.0,0.0,0.0,0.0,0.522460884,0.01,0.0,-735.0,0.0,0.0,0.0,0.0,0.0,3.348388329,0.01,0.0,-24113.0,0.0,0.0,0.0,0.0,0.125,1.624755693,0.01,0.0,0.1899999976158142,-0.30000001192092896,-69.11000061035156,-0.0062255859375,0.0025634765625,1.0196533203125,33.439998626708984,0.0,0.0,4.3900299072265625,-0.8441009521484375,Closing,0.0,0.0,3.0,0.0,0.0,0.0,0.0,0.0,
9.971971999999994,0.0,0.0,20194.0,0.0,0.0,0.0,0.0,0.125,0.8178710100000001,0.01,0.0,-22126.0,0.0,0.0,0.0,0.0,0.0,0.522460884,0.01,0.0,-735.0,0.0,0.0,0.0,0.0,0.0,3.347167626,0.01,0.0,-24113.0,0.0,0.0,0.0,0.0,0.125,1.624755693,0.01,0.0,0.1899999976158142,-0.3100000023841858,-69.11000061035156,-0.00689697265625,0.00311279296875,1.0279541015625,33.439998626708984,0.0,0.0,4.3900299072265625,-0.8441009521484375,Closing,0.0,0.0,3.0,0.0,0.0,0.0,0.0,0.0,
10.105036999999996,0.0,0.0,20194.0,0.0,0.0,0.0,0.0,0.125,0.8178710100000001,0.01,0.0,-22126.0,0.0,0.0,0.0,0.0,0.0,0.522460884,0.01,0.0,-735.0,0.0,0.0,0.0,0.0,0.0,3.347167626,0.01,0.0,-24113.0,0.0,0.0,0.0,0.0,0.125,1.625976396,0.01,0.0,0.1899999976158142,-0.3100000023841858,-69.0999984741211,-0.00958251953125,0.0037841796875,1.02008056640625,33.439998626708984,0.0,-1.0,4.3900299072265625,-0.8441009521484375,Closing,0.0,0.0,3.0,0.0,0.0,0.0,0.0,0.0,
10.23806300000001,0.0,0.0,20194.0,0.0,0.0,0.0,0.0,0.125,0.8178710100000001,0.01,0.0,-22126.0,0.0,0.0,0.0,0.0,0.0,0.521240181,0.01,0.0,-735.0,0.0,0.0,0.0,0.0,0.0,3.347167626,0.01,0.0,-24113.0,0.0,0.0,0.0,0.0,0.125,1.624755693,0.01,0.0,0.1899999976158142,-0.3100000023841858,-69.0999984741211,-0.004638671875,0.00372314453125,1.01690673828125,33.439998626708984,0.0,0.0,4.3900299072265625,-0.8441009521484375,Closing,0.0,0.0,3.0,0.0,0.0,0.0,0.0,0.0,
10.372792,0.0,0.0,20194.0,0.0,0.0,0.0,0.0,0.125,0.8178710100000001,0.01,0.0,-22126.0,0.0,0.0,0.0,0.0,0.0,0.522460884,0.01,0.0,-735.0,0.0,0.0,0.0,0.0,0.0,3.348388329,0.01,0.0,-24113.0,0.0,0.0,0.0,0.0,0.125,1.625976396,0.01,0.0,0.1899999976158142,-0.3100000023841858,-69.0999984741211,-0.0069580078125,0.00421142578125,1.022216796875,33.439998626708984,0.0,-1.0,4.3900299072265625,-0.8441009521484375,Closing,0.0,0.0,3.0,0.0,0.0,0.0,0.0,0.0,
10.504995999999998,0.0,0.0,20194.0,0.0,0.0,0.0,0.0,0.125,0.8178710100000001,0.01,0.0,-22126.0,0.0,0.0,0.0,0.0,0.0,0.522460884,0.01,0.0,-735.0,0.0,0.0,0.0,0.0,0.0,3.347167626,0.01,0.0,-24113.0,0.0,0.0,0.0,0.0,0.125,1.625976396,0.01,0.0,0.18000000715255737,-0.3199999928474426,-69.08999633789062,-0.00775146484375,0.00384521484375,1.019287109375,33.439998626708984,0.0,-1.0,4.3900299072265625,-0.8441009521484375,Closing,0.0,0.0,3.0,0.0,0.0,0.0,0.0,0.0,
10.639156999999992,0.0,0.0,20194.0,0.0,0.0,0.0,0.0,0.125,0.819091713,0.01,0.0,-22126.0,0.0,0.0,0.0,0.0,0.0,0.521240181,0.01,0.0,-735.0,0.0,0.0,0.0,0.0,0.0,3.347167626,0.01,0.0,-24113.0,0.0,0.0,0.0,0.0,0.125,1.624755693,0.01,0.0,0.1899999976158142,-0.3199999928474426,-69.08999633789062,-0.00494384765625,0.0047607421875,1.02435302734375,33.43000030517578,0.0,0.0,4.3900299072265625,-0.8441009521484375,Closing,0.0,0.0,3.0,0.0,0.0,0.0,0.0,0.0,
10.775061999999991,0.0,0.0,20194.0,0.0,0.0,0.0,0.0,0.125,0.8178710100000001,0.01,0.0,-22126.0,0.0,0.0,0.0,0.0,0.0,0.522460884,0.01,0.0,-735.0,0.0,0.0,0.0,0.0,0.0,3.348388329,0.01,0.0,-24113.0,0.0,0.0,0.0,0.0,0.125,1.624755693,0.01,0.0,0.1899999976158142,-0.3199999928474426,-69.08999633789062,-0.00396728515625,0.0037841796875,1.01629638671875,33.43000030517578,0.0,0.0,4.3900299072265625,-0.8441009521484375,Closing,0.0,0.0,3.0,0.0,0.0,0.0,0.0,0.0,
10.90369799999999,0.0,0.0,20174.0,14.5,-120.0,-1746.1418008804321,0.0,0.125,0.838622961,4.932250999999998,0.0,-22102.0,24.625,202.5,1746.1418008804321,0.0,0.125,0.511474557,4.963769999999998,0.0,-750.0,11.625,-22.5,-1746.1418008804321,0.0,0.0,3.3740230920000003,0.01,0.0,-24095.0,12.375,135.0,1746.1418008804321,0.0,0.125,1.6064451480000002,0.01,0.0,0.12999999523162842,-1.559999942779541,-69.19000244140625,-0.58062744140625,-0.0438232421875,0.717041015625,33.43000030517578,0.0,-156.0,4.387847900390625,-0.8494873046875,Closing,0.0,0.0,3.0,0.0,0.0,0.0,0.0,0.0,
11.040667999999991,0.0,0.0,20080.0,10.5,-682.5,-1369.1338062286377,0.0,0.25,0.838622961,4.932250999999998,0.0,-22011.0,16.875,742.5,1369.1338062286377,0.0,0.0,0.51269526,4.963769999999998,0.0,-851.0,14.375,-555.0,-1369.1338062286377,0.0,0.125,3.38134731,0.01,0.0,-24015.0,9.125,682.5,1369.1338062286377,0.0,0.25,1.6064451480000002,0.01,0.0,0.3100000023841858,-3.450000047683716,-68.88999938964844,-0.25274658203125,-0.040771484375,1.00958251953125,33.439998626708984,0.0,-46.0,4.3674468994140625,-0.9014434814453125,Closing,0.0,0.0,3.0,0.0,0.0,0.0,0.0,0.0,
11.162319999999992,0.0,0.0,19912.0,6.75,-1117.5,-1329.4487857818604,0.0,0.25,0.837402258,4.932250999999998,0.0,-21847.0,9.75,1162.5,1329.4487857818604,0.0,0.0,0.47973627900000004,4.963769999999998,0.0,-1036.0,7.625,-1147.5,-1329.4487857818604,0.0,0.125,3.382568013,0.01,0.0,-23864.0,6.375,1065.0,1329.4487857818604,0.0,0.25,1.6040037420000002,0.01,0.0,0.25,-4.130000114440918,-68.56999969482422,-0.0384521484375,-0.01422119140625,1.1268310546875,33.439998626708984,0.0,33.0,4.3467864990234375,-0.9568023681640625,Closing,0.0,0.0,3.0,0.0,0.0,0.0,0.0,0.0,
11.30618800000001,0.0,0.0,19720.0,0.0,-1072.5,0.0,0.0,0.25,0.8178710100000001,4.932250999999998,0.0,-21646.0,0.0,1087.5,0.0,0.0,0.25,0.4882812,4.963769999999998,0.0,-1225.0,0.0,-1095.0,0.0,0.0,0.125,3.348388329,0.01,0.0,-23669.0,0.0,1087.5,0.0,0.0,0.25,1.6064451480000002,0.01,0.0,0.3100000023841858,-3.359999895095825,-68.2300033569336,0.14495849609375,-0.05096435546875,0.88311767578125,33.439998626708984,0.0,124.0,4.32879638671875,-1.0157318115234375,Closing,0.0,0.0,3.0,0.0,0.0,0.0,0.0,0.0,
11.429526999999988,0.0,0.0,19534.0,0.0,-1132.5,0.0,0.0,0.125,0.819091713,4.932250999999998,4.913940455,-21478.0,0.0,1087.5,0.0,0.0,0.125,0.5029296360000001,4.963769999999998,0.0,-1401.0,0.0,-1110.0,0.0,0.0,0.0,3.347167626,0.01,0.0,-23503.0,0.0,1042.5,0.0,0.0,0.25,1.6101072570000001,0.01,0.0,0.23999999463558197,-2.990000009536743,-67.94999694824219,0.14453125,-0.0047607421875,1.10113525390625,33.439998626708984,0.0,84.0,4.322265625,-1.0533294677734375,Closing,0.0,0.0,3.0,0.0,0.0,0.0,0.0,0.0,
11.574319999999993,0.0,0.0,19366.0,1.0,-1072.5,-2100.0,0.0,1.0,1.038818253,0.5498168668524864,0.0,-21321.0,11.5,-1140.0,-2100.0,0.0,0.5,0.34301754300000004,4.41043958977222,0.0,-1559.0,1.0,-1027.5,-2100.0,0.0,0.75,3.12499968,4.389674732977291,0.0,-23319.0,86.375,427.5,-2100.0,0.0,1.0,1.87988262,0.552687206278561,0.0,-0.10000000149011612,-0.4099999964237213,-65.79000091552734,0.204345703125,-0.0936279296875,0.85284423828125,33.41999816894531,0.0,170.0,4.3291778564453125,-1.0855712890625,Closing,0.0,0.0,3.0,0.0,0.0,0.0,0.0,0.0,
11.703129999999991,0.0,0.0,19208.0,10.125,-877.5,-2100.0,0.0,0.375,1.4245604010000001,0.5498168668524864,0.0,-21838.0,5.125,-1470.0,-2100.0,0.0,0.0,4.913329575000001,4.41043958977222,0.0,-1700.0,12.0,-727.5,-2100.0,0.0,0.125,2.785644246,4.389674732977291,0.0,-23407.0,64.625,-337.5,-2100.0,0.0,0.375,2.288818125,0.552687206278561,0.0,0.30000001192092896,0.6700000166893005,-58.63999938964844,0.099609375,0.17437744140625,0.85650634765625,33.41999816894531,0.0,-98.0,4.3534698486328125,-1.0832061767578125,Closing,0.0,0.0,3.0,0.0,0.0,0.0,0.0,0.0,
11.83898599999999,0.0,0.0,18837.0,13.625,-1290.0,-2100.0,0.0,0.25,1.484374848,0.5498168668524864,0.0,-22056.0,24.5,-1252.5,-2100.0,0.0,0.125,4.83398388,4.41043958977222,0.0,-1837.0,15.875,-1237.5,-2100.0,0.0,0.0,2.723388393,4.389674732977291,0.0,-23639.0,37.75,-1440.0,-2100.0,0.0,0.25,2.351073978,0.552687206278561,0.0,0.8999999761581421,0.20000000298023224,-42.290000915527344,-0.05291748046875,-0.1390380859375,0.890869140625,33.41999816894531,0.0,61.0,4.3751678466796875,-1.0685272216796875,Closing,0.0,0.0,3.0,0.0,0.0,0.0,0.0,0.0,
11.960591,0.0,0.0,18560.0,6.875,-1687.5,-1752.7559459209442,0.0,0.25,1.463622897,0.5498168668524864,0.0,-22330.0,11.5,-1687.5,-1752.7559459209442,0.0,0.0,4.862060049,4.41043958977222,0.0,-2075.0,7.0,-1770.0,-1752.7559459209442,0.0,0.0,2.7490231560000002,4.389674732977291,0.0,-23943.0,33.25,-1935.0,-1752.7559459209442,0.0,0.25,2.260741956,0.552687206278561,0.0,1.25,-0.6200000047683716,-18.90999984741211,0.14678955078125,0.18988037109375,0.63037109375,33.41999816894531,0.0,88.0,4.3919677734375,-1.0529022216796875,Closing,0.0,0.0,3.0,0.0,0.0,0.0,0.0,0.0,
12.037702000000005,0.0,0.0,18560.0,1.5,-1762.5,0.0,0.0,0.25,1.434326025,0.5498168668524864,-0.025634763000000005,-22330.0,2.5,-1755.0,0.0,0.0,0.0,4.897460436,4.41043958977222,0.03417968399999971,-2373.0,1.5,-1875.0,0.0,0.0,0.0,2.772216513,4.389674732977291,0.019531248000000723,-23943.0,7.875,-1920.0,0.0,0.0,0.25,2.192382588,0.552687206278561,0.0,1.1699999570846558,-1.090000033378601,-4.480000019073486,-0.39251708984375,-0.0845947265625,0.81048583984375,33.41999816894531,0.0,-367.0,4.397430419921875,-1.039276123046875,Closing,0.0,0.0,3.0,0.0,0.0,0.0,0.0,0.0,
12.089366999999983,0.0,0.0,18309.0,0.0,-1582.5,0.0,0.0,0.25,1.4013670440000001,0.5498168668524864,-0.028076168999999984,-22583.0,0.0,-1552.5,0.0,0.0,0.0,4.912108872,4.41043958977222,0.030517575000000186,-2373.0,0.0,-1777.5,0.0,0.0,0.0,2.7868649490000004,4.389674732977291,0.024414059999999793,-24220.0,0.0,-1635.0,0.0,0.0,0.25,2.1630857160000003,0.552687206278561,-0.0634765559999999,0.949999988079071,-1.2899999618530273,6.300000190734863,0.19921875,-0.04705810546875,0.8115234375,33.400001525878906,0.0,209.0,4.3978424072265625,-1.028167724609375,Closing,0.0,0.0,3.0,0.0,0.0,0.0,0.0,0.0,
12.161036000000008,0.0,0.0,18309.0,17.875,-1372.5,459.375,0.0,0.25,1.352538924,0.5498168668524888,0.0,-22583.0,22.25,-1447.5,459.375,0.0,0.0,4.910888169000001,4.410439589772222,0.0,-2635.0,22.25,-1515.0,459.375,0.0,0.0,2.7929684640000003,4.389674732977289,0.0,-24220.0,27.75,-1365.0,459.375,0.0,0.125,2.091064239,0.5526872062785588,0.0,0.7900000214576721,-1.5499999523162842,17.479999542236328,0.25079345703125,0.15313720703125,1.7686767578125,33.400001525878906,0.0,323.0,4.399688720703125,-1.01348876953125,Closing,0.0,0.0,3.0,0.0,0.0,0.0,0.0,0.0,
12.222028999999996,0.0,0.0,18180.0,28.125,-840.0,2100.0,0.0,0.125,1.3427733000000002,0.5498168668524888,0.0,-22746.0,56.375,-735.0,2100.0,0.0,0.0,4.910888169000001,4.410439589772222,0.0,-2755.0,37.5,-1237.5,2100.0,0.0,0.0,2.769775107,4.389674732977289,0.0,-24394.0,39.75,-862.5,2100.0,0.0,0.25,2.086181427,0.5526872062785588,0.0,1.0099999904632568,-1.3300000429153442,19.700000762939453,-0.06298828125,-0.19219970703125,0.7509765625,33.400001525878906,0.0,-112.0,4.404510498046875,-1.00506591796875,Closing,0.0,0.0,3.0,0.0,0.0,0.0,0.0,0.0,
12.271265,0.0,0.0,18180.0,42.75,-15.0,2100.0,0.0,0.125,1.3427733000000002,0.5498168668524888,0.0,-22746.0,60.5,22.5,2100.0,0.0,0.0,4.910888169000001,4.410439589772222,0.0,-2755.0,42.5,-75.0,2100.0,0.0,0.0,2.761230186,4.389674732977289,0.0,-24329.0,47.5,-90.0,2100.0,0.0,0.25,2.083740021,0.5526872062785588,0.0,0.9800000190734863,-1.1200000047683716,16.6200008392334,-0.052001953125,0.155029296875,0.83502197265625,33.400001525878906,0.0,6.0,4.41607666015625,-0.992279052734375,Closing,0.0,0.0,3.0,0.0,0.0,0.0,0.0,0.0,
