Time,ClimberA1,ClimberA2,FRpos,FRCurrent,FRspeed,FRsetpoint,FRApos,FRACurrent,FREncpos,FREncSetpoint,FREncSpeed,FLpos,FLCurrent,FLspeed,FLsetpoint,FLApos,FLACurrent,FLEncpos,FLEncSetpoint,FLEncSpeed,BRpos,BRCurrent,BRspeed,BRsetpoint,BRApos,BRACurrent,BREncpos,BREncSetpoint,BREncSpeed,BLpos,BLCurrent,BLspeed,BLsetpoint,BLApos,BLACurrent,BLEncpos,BLEncSetpoint,BLEncSpeed,navx_Pitch,navx_Roll,navx_Yaw,navx_XAcc,navx_YAcc,navx_ZAcc,navx_Temp,navx_Bar,navx_Alt,navx_XDis,navx_YDis,GearPlacerState,ShootOutputV,ShootOutputCurrent,ShootEncPos,ShootEncVelocity,ShootSpeed,ShootSetpoint,CarouselSetpoint,CarouselCurrent,
0.18347100000001956,0.0,0.0,15009.0,0.0,0.0,0.0,0.0,0.25,0.7897948410000001,0.01,0.0,-18840.0,0.0,0.0,0.0,0.0,0.125,0.53710932,0.01,0.0,-5989.0,0.0,0.0,0.0,0.0,0.125,3.389892231,0.01,0.0,-20585.0,0.0,0.0,0.0,0.0,0.25,1.6540525650000002,0.01,0.0,0.019999999552965164,-0.6499999761581421,-1.399999976158142,-0.01251220703125,-4.2724609375E-4,1.02239990234375,33.41999816894531,0.0,0.0,4.397705078125,-0.9633026123046875,Closing,0.0,0.0,3.0,0.0,0.0,0.0,0.0,0.0,
0.26693300000001907,0.0,0.0,15018.0,1.5,22.5,840.0,0.0,0.25,0.7897948410000001,0.01,0.0,-18845.0,1.125,-7.5,-840.0,0.0,0.125,0.5407714290000001,0.01,-0.0024414059999999793,-5989.0,1.5,0.0,840.0,0.0,0.125,3.388671528,0.01,0.0,-20587.0,1.625,-37.5,-840.0,0.0,0.25,1.6540525650000002,0.01,0.0012207030000002117,0.009999999776482582,-0.6499999761581421,-1.399999976158142,-0.00506591796875,-0.02459716796875,1.02130126953125,33.41999816894531,0.0,7.0,4.397705078125,-0.9633331298828125,Closing,0.0,0.0,3.0,0.0,0.0,0.0,0.0,0.0,
0.3284000000000233,0.0,0.0,15018.0,3.0,180.0,840.0,0.0,0.25,0.783691326,0.01,0.0,-18845.0,5.0,-225.0,-840.0,0.0,0.125,0.576171816,0.01,0.0,-5985.0,4.25,22.5,840.0,0.0,0.125,3.354491844,0.01,0.0,-20587.0,3.5,-180.0,-840.0,0.0,0.25,1.673583813,0.01,0.0,-0.07999999821186066,-0.18000000715255737,-1.3899999856948853,0.1046142578125,0.01458740234375,1.19110107421875,33.41999816894531,0.0,108.0,4.4020843505859375,-0.96405029296875,Closing,0.0,0.0,3.0,0.0,0.0,0.0,0.0,0.0,
0.40526800000001095,0.0,0.0,15052.0,3.875,187.5,840.0,0.0,0.25,0.7788085140000001,0.01,-0.006103514999999504,-18885.0,5.875,-202.5,-840.0,0.0,0.25,0.5676268950000001,0.01,0.029296871999999752,-5964.0,7.375,97.5,840.0,0.0,0.0,3.35693325,0.01,4.906220316000001,-20622.0,4.375,-180.0,-840.0,0.0,0.25,1.676025219,0.01,0.024414059999999793,-0.05000000074505806,0.27000001072883606,-1.4700000286102295,0.1363525390625,0.00592041015625,1.12994384765625,33.41999816894531,0.0,130.0,4.411468505859375,-0.964263916015625,Closing,0.0,0.0,3.0,0.0,0.0,0.0,0.0,0.0,
0.47434000000002563,0.0,0.0,15052.0,4.875,277.5,840.0000000000001,0.0,0.125,0.783691326,4.931291950475814,0.0012207029999995456,-18951.0,7.375,-352.5,-840.0000000000001,0.0,0.0,0.562744083,4.9628048217767775,-0.0024414059999999793,-5964.0,7.0,255.0,840.0000000000001,0.0,0.0,3.354491844,4.939439365946849,0.0012207029999995456,-20680.0,5.375,-307.5,-840.0000000000001,0.0,0.25,1.668701001,4.957035943722063,0.0,-0.03999999910593033,0.6399999856948853,-1.3600000143051147,0.059326171875,0.01983642578125,1.0281982421875,33.41999816894531,0.0,47.0,4.4228973388671875,-0.9640960693359375,Closing,0.0,0.0,3.0,0.0,0.0,0.0,0.0,0.0,
0.5705240000000049,0.0,0.0,15113.0,4.75,465.0,840.0,0.0,0.25,0.784912029,0.01,0.0,-18951.0,6.625,-487.5,-840.0,0.0,0.0,0.571289004,0.01,0.0024414059999999793,-5903.0,7.125,390.0,840.0,0.0,0.0,3.353271141,0.01,0.0,-20680.0,5.25,-465.0,-840.0,0.0,0.25,1.6589353770000002,0.01,-0.014648435999999876,0.029999999329447746,1.149999976158142,-1.440000057220459,0.111328125,0.0343017578125,1.08673095703125,33.41999816894531,0.0,88.0,4.445556640625,-0.962921142578125,Closing,0.0,0.0,3.0,0.0,0.0,0.0,0.0,0.0,
0.6245350000000035,0.0,0.0,15213.0,4.0,592.5,840.0,0.0,0.125,0.783691326,4.931702971000501,-0.0012207029999995456,-19053.0,5.5,-607.5,-840.0,0.0,0.0,0.5810546280000001,4.9632184688822925,0.0,-5903.0,6.875,532.5,840.0,0.0,0.0,3.354491844,4.939851065554222,0.0,-20771.0,5.25,-532.5,-840.0,0.0,0.25,1.669921704,4.957449109994703,-0.003662108999999969,0.03999999910593033,1.2799999713897705,-1.4700000286102295,0.1563720703125,0.05438232421875,1.0408935546875,33.45000076293945,0.0,131.0,4.459075927734375,-0.9619903564453125,Closing,0.0,0.0,3.0,0.0,0.0,0.0,0.0,0.0,
0.6846070000000182,0.0,0.0,15213.0,3.5,697.5,840.0000000000001,0.0,0.125,0.784912029,4.931291950475814,0.0012207029999995456,-19053.0,4.625,-712.5,-840.0000000000001,0.0,0.0,0.571289004,4.9628048217767775,-0.0024414059999999793,-5801.0,6.0,660.0,840.0000000000001,0.0,0.0,3.354491844,4.939439365946849,0.0,-20771.0,4.375,-645.0,-840.0000000000001,0.0,0.25,1.6540525650000002,4.957035943722063,0.0,0.07999999821186066,1.4500000476837158,-1.5099999904632568,0.116455078125,0.05535888671875,1.12152099609375,33.45000076293945,0.0,86.0,4.4794464111328125,-0.9602508544921875,Closing,0.0,0.0,3.0,0.0,0.0,0.0,0.0,0.0,
0.7476660000000266,0.0,0.0,15339.0,3.125,750.0,840.0000000000001,0.0,0.125,0.784912029,4.930606916268004,0.0,-19180.0,3.75,-787.5,-840.0000000000001,0.0,0.0,0.560302677,4.962115409934253,0.0,-5801.0,5.75,712.5,840.0000000000001,0.0,0.0,3.354491844,4.938753199934562,0.0,-20889.0,3.875,-735.0,-840.0000000000001,0.0,0.25,1.6577146740000002,4.956347333267662,-0.004882811999999959,0.07999999821186066,1.649999976158142,-1.5700000524520874,0.08892822265625,0.00701904296875,1.00616455078125,33.45000076293945,0.0,59.0,4.5011444091796875,-0.9589080810546875,Closing,0.0,0.0,3.0,0.0,0.0,0.0,0.0,0.0,
0.8029280000000144,0.0,0.0,15339.0,2.625,832.5,840.0,0.0,0.125,0.784912029,4.929647866743818,0.0,-19180.0,3.125,-832.5,-840.0,0.0,0.0,0.5407714290000001,4.96115023171103,-0.007324218000000826,-5674.0,4.625,817.5,840.0,0.0,0.0,3.354491844,4.937792565881411,-0.0012207029999995456,-20889.0,3.25,-817.5,-840.0,0.0,0.125,1.6540525650000002,4.955383276989725,-0.0012207030000002117,0.11999999731779099,1.7200000286102295,-1.6399999856948853,0.12176513671875,-0.01788330078125,1.21588134765625,33.45000076293945,0.0,85.0,4.5294342041015625,-0.95684814453125,Closing,0.0,0.0,3.0,0.0,0.0,0.0,0.0,0.0,
0.8740270000000019,0.0,0.0,15481.0,2.25,885.0,840.0,0.0,0.125,0.7910155440000001,4.928962832536007,0.006103514999999504,-19322.0,2.25,-892.5,-840.0,0.0,0.0,0.527343696,4.960460819868505,-0.02075195099999938,-5674.0,4.125,862.5,840.0,0.0,0.0,3.354491844,4.9371063998691245,0.0012207029999995456,-21027.0,2.875,-862.5,-840.0,0.0,0.125,1.6540525650000002,4.954694666535325,0.0012207030000002117,0.10000000149011612,1.7300000190734863,-1.6399999856948853,0.01043701171875,0.06317138671875,1.1129150390625,33.45000076293945,0.0,-25.0,4.5583648681640625,-0.9548492431640625,Closing,0.0,0.0,3.0,0.0,0.0,0.0,0.0,0.0,
0.9667090000000026,0.0,0.0,15481.0,1.625,915.0,840.0,0.0,0.125,0.8032225740000001,4.929099839377569,0.003662109000000413,-19322.0,1.75,-930.0,-840.0,0.0,0.0,0.527343696,4.96059870223701,-0.01586913900000031,-5536.0,3.875,847.5,840.0,0.0,0.0,3.350829735,4.937243633071581,0.0,-21176.0,2.0,-915.0,-840.0,0.0,0.125,1.649169753,4.954832388626205,0.0,0.11999999731779099,1.649999976158142,-1.590000033378601,0.02142333984375,0.0572509765625,1.0155029296875,33.45000076293945,0.0,-9.0,4.5867919921875,-0.95245361328125,Closing,0.0,0.0,3.0,0.0,0.0,0.0,0.0,0.0,
1.0269350000000268,0.0,0.0,15629.0,1.25,930.0,840.0,0.0,0.125,0.8044432770000001,4.929647866743818,0.008544921000000372,-19472.0,1.25,-937.5,-840.0,0.0,0.125,0.527343696,4.96115023171103,0.0012207030000004337,-5393.0,3.5,907.5,840.0,0.0,0.0,3.354491844,4.937792565881411,0.0,-21176.0,1.625,-930.0,-840.0,0.0,0.25,1.6552732680000002,4.955383276989725,0.0,0.20000000298023224,1.559999942779541,-1.659999966621399,0.0396728515625,0.07916259765625,0.93878173828125,33.45000076293945,0.0,11.0,4.5919952392578125,-0.948638916015625,Closing,0.0,0.0,3.0,0.0,0.0,0.0,0.0,0.0,
1.112506000000023,0.0,0.0,15783.0,0.875,952.5,840.0,0.0,0.125,0.8020018710000001,4.928688818852883,0.0024414059999999793,-19623.0,1.0,-937.5,-840.0,0.0,0.125,0.527343696,4.960185055131495,0.0,-5393.0,3.0,885.0,840.0,0.0,0.0,3.349609032,4.93683193346421,0.0,-21322.0,1.375,-915.0,-840.0,0.0,0.25,1.6540525650000002,4.954419222353565,0.0024414059999999793,0.20999999344348907,1.4500000476837158,-1.690000057220459,-0.0211181640625,-0.033203125,0.7755126953125,33.45000076293945,0.0,-39.0,4.591156005859375,-0.9456024169921875,Closing,0.0,0.0,3.0,0.0,0.0,0.0,0.0,0.0,
1.169622000000003,0.0,0.0,15783.0,0.875,937.5,840.0,0.0,0.125,0.8032225740000001,4.928277796694945,0.0,-19623.0,0.75,-945.0,-840.0,0.0,0.125,0.526122993,4.959771406382292,-0.003662109000000413,-5253.0,3.25,855.0,840.0,0.0,0.0,3.358153953,4.936420232220889,0.004882811999999959,-21322.0,1.25,-937.5,-840.0,0.0,0.125,1.6564939710000002,4.954006054439147,0.003662109000000191,0.2800000011920929,1.3899999856948853,-1.6699999570846558,0.031494140625,-0.12701416015625,0.9053955078125,33.380001068115234,0.0,13.0,4.5898895263671875,-0.942138671875,Closing,0.0,0.0,3.0,0.0,0.0,0.0,0.0,0.0,
1.2304690000000118,0.0,0.0,15930.0,0.875,922.5,840.0,0.0,0.125,0.8044432770000001,4.92855181201132,0.0,-19773.0,0.625,-930.0,-840.0,0.0,0.125,0.527343696,4.96004717276299,0.003662109000000413,-5253.0,3.75,772.5,840.0,0.0,0.0,3.358153953,4.936694700261752,0.0,-21474.0,1.0,-937.5,-840.0,0.0,0.25,1.6540525650000002,4.9542815002626845,0.0,0.1899999976158142,1.2999999523162842,-1.6200000047683716,7.9345703125E-4,0.13800048828125,1.02972412109375,33.380001068115234,0.0,-26.0,4.58782958984375,-0.9372711181640625,Closing,0.0,0.0,3.0,0.0,0.0,0.0,0.0,0.0,
1.313418000000005,0.0,0.0,15930.0,0.75,922.5,840.0,0.0,0.125,0.8032225740000001,4.929236846219132,-0.0012207030000004337,-19921.0,0.5,-922.5,-840.0,0.0,0.125,0.5285643990000001,4.960736584605515,0.0,-5147.0,6.0,585.0,840.0,0.0,0.0,3.3605953590000004,4.937380866274039,0.0,-21619.0,1.0,-915.0,-840.0,0.0,0.25,1.6540525650000002,4.954970110717085,0.0012207030000002117,0.28999999165534973,1.1699999570846558,-1.6200000047683716,-0.0626220703125,0.00164794921875,1.183349609375,33.380001068115234,0.0,-86.0,4.5838775634765625,-0.9302825927734375,Closing,0.0,0.0,3.0,0.0,0.0,0.0,0.0,0.0,
1.3906720000000206,0.0,0.0,16078.0,0.5,922.5,840.0,0.0,0.125,0.8044432770000001,4.929236846219132,0.0,-19921.0,0.5,-922.5,-840.0,0.0,0.125,0.518798775,4.960736584605515,0.0,-5046.0,6.875,637.5,840.0,0.0,0.0,3.3605953590000004,4.937380866274039,0.0,-21619.0,1.0,-885.0,-840.0,0.0,0.125,1.6540525650000002,4.954970110717085,0.0,0.17000000178813934,1.149999976158142,-1.6299999952316284,-0.072021484375,0.0384521484375,1.23687744140625,33.380001068115234,0.0,-97.0,4.5800933837890625,-0.9260711669921875,Closing,0.0,0.0,3.0,0.0,0.0,0.0,0.0,0.0,
1.4538770000000076,0.0,0.0,16078.0,0.375,922.5,840.0,0.0,0.125,0.8044432770000001,4.929099839377569,0.0,-20062.0,0.5,-892.5,-840.0,0.0,0.125,0.534667914,4.96059870223701,0.0,-5046.0,7.125,667.5,840.0,0.0,0.0,3.359374656,4.937243633071581,0.0,-21761.0,1.0,-870.0,-840.0,0.0,0.25,1.6540525650000002,4.954832388626205,0.0,0.12999999523162842,1.0499999523162842,-1.649999976158142,-0.04400634765625,0.037353515625,1.0018310546875,33.380001068115234,0.0,-63.0,4.5751495361328125,-0.9228363037109375,Closing,0.0,0.0,3.0,0.0,0.0,0.0,0.0,0.0,
1.5068400000000257,0.0,0.0,16228.0,0.375,937.5,840.0,0.0,0.125,0.8044432770000001,4.928825825694445,0.0012207030000004337,-20062.0,0.5,-877.5,-840.0,0.0,0.125,0.522460884,4.9603229375,-0.0024414060000008675,-4907.0,6.125,870.0,840.0,0.0,0.0,3.3605953590000004,4.936969166666667,0.0012207029999995456,-21761.0,0.75,-900.0,-840.0,0.0,0.125,1.6540525650000002,4.954556944444445,0.0,0.18000000715255737,1.0,-1.6799999475479126,-0.10943603515625,-0.0467529296875,1.10247802734375,33.380001068115234,0.0,-127.0,4.5693359375,-0.9199676513671875,Closing,0.0,0.0,3.0,0.0,0.0,0.0,0.0,0.0,
1.570417000000016,0.0,0.0,16228.0,0.375,937.5,840.0,0.0,0.125,0.8032225740000001,4.9284148051697585,-0.0024414059999999793,-20210.0,0.375,-900.0,-840.0,0.0,0.125,0.527343696,4.959909290394485,0.0024414060000008675,-4907.0,5.25,922.5,840.0,0.0,0.0,3.35693325,4.936557467059295,0.0,-21912.0,0.625,-937.5,-840.0,0.0,0.25,1.6552732680000002,4.9541437781718045,0.0,0.09000000357627869,0.8799999952316284,-1.690000057220459,-0.06719970703125,0.01275634765625,1.0941162109375,33.380001068115234,0.0,-84.0,4.5623016357421875,-0.9171600341796875,Closing,0.0,0.0,3.0,0.0,0.0,0.0,0.0,0.0,
1.6270600000000268,0.0,0.0,16377.0,0.375,922.5,840.0,0.0,0.125,0.8044432770000001,4.928277796694945,0.0012207029999995456,-20210.0,0.125,-937.5,-840.0,0.0,0.125,0.522460884,4.959771406382292,0.0,-4760.0,4.75,922.5,840.0,0.0,0.0,3.3605953590000004,4.936420232220889,0.0,-21912.0,0.625,-945.0,-840.0,0.0,0.25,1.6540525650000002,4.954006054439147,0.0,0.14000000059604645,0.800000011920929,-1.7000000476837158,-0.0711669921875,-0.0540771484375,1.19842529296875,33.380001068115234,0.0,-86.0,4.5566558837890625,-0.914794921875,Closing,0.0,0.0,3.0,0.0,0.0,0.0,0.0,0.0,
1.6902309999999998,0.0,0.0,16519.0,0.375,892.5,840.0,0.0,0.125,0.8032225740000001,4.9281407898533836,0.0,-20359.0,0.125,-915.0,-840.0,0.0,0.125,0.521240181,4.959633524013787,0.0,-4613.0,4.75,900.0,840.0,0.0,0.0,3.3605953590000004,4.936282999018431,0.0,-22060.0,0.375,-915.0,-840.0,0.0,0.25,1.6540525650000002,4.953868332348267,0.0,0.20000000298023224,0.7099999785423279,-1.7999999523162842,0.00677490234375,-0.0533447265625,0.82568359375,33.33000183105469,0.0,-1.0,4.54168701171875,-0.9086456298828125,Closing,0.0,0.0,3.0,0.0,0.0,0.0,0.0,0.0,
1.7867820000000065,0.0,0.0,16519.0,0.375,885.0,840.0,0.0,0.125,0.8020018710000001,4.926359699279825,-0.0012207029999995456,-20359.0,0.125,-885.0,-840.0,0.0,0.125,0.522460884,4.9578410515795355,0.0012207029999995456,-4613.0,4.5,937.5,840.0,0.0,0.125,3.3618160620000004,4.934498965750535,0.0,-22060.0,0.625,-892.5,-840.0,0.0,0.125,1.651611159,4.952077943525049,0.0,0.18000000715255737,0.5299999713897705,-1.899999976158142,-0.0274658203125,0.095458984375,1.03802490234375,33.33000183105469,0.0,-40.0,4.5291290283203125,-0.9043426513671875,Closing,0.0,0.0,3.0,0.0,0.0,0.0,0.0,0.0,
1.8531710000000021,0.0,0.0,16663.0,0.125,892.5,840.0,0.0,0.125,0.8044432770000001,4.925400651388889,0.0012207029999995456,-20500.0,0.125,-877.5,-840.0,0.0,0.125,0.522460884,4.956875875,-0.0012207029999995456,-4465.0,4.125,922.5,840.0,0.0,0.125,3.358153953,4.933538333333334,0.0,-22201.0,0.625,-877.5,-840.0,0.0,0.25,1.6540525650000002,4.951113888888889,0.0012207030000002117,0.23000000417232513,0.3400000035762787,-1.9500000476837158,0.02105712890625,0.0401611328125,1.2069091796875,33.33000183105469,0.0,12.0,4.51519775390625,-0.899627685546875,Closing,0.0,0.0,3.0,0.0,0.0,0.0,0.0,0.0,
1.927103000000003,0.0,0.0,16663.0,0.375,870.0,840.0,0.0,0.125,0.8032225740000001,4.924715615547828,0.0,-20639.0,0.125,-870.0,-840.0,0.0,0.125,0.522460884,4.956186461513788,0.0,-4465.0,4.125,900.0,840.0,0.0,0.125,3.359374656,4.932852165685097,0.0,-22338.0,0.625,-862.5,-840.0,0.0,0.25,1.6540525650000002,4.9504252767927115,0.0,0.25,0.27000001072883606,-2.0,-0.06103515625,0.01043701171875,1.03033447265625,33.33000183105469,0.0,-66.0,4.5150909423828125,-0.895782470703125,Closing,0.0,0.0,3.0,0.0,0.0,0.0,0.0,0.0,
1.9957370000000227,0.0,0.0,16801.0,0.375,855.0,840.0,0.0,0.125,0.8044432770000001,4.924030581340017,0.0,-20639.0,0.25,-847.5,-840.0,0.0,0.125,0.522460884,4.955497049671263,0.0,-4324.0,4.375,870.0,840.0,0.0,0.125,3.359374656,4.932165999672811,0.0,-22338.0,0.625,-825.0,-840.0,0.0,0.25,1.651611159,4.949736666338311,0.0,0.28999999165534973,0.15000000596046448,-2.0899999141693115,-0.08184814453125,-0.04144287109375,1.09149169921875,33.33000183105469,0.0,-83.0,4.5147552490234375,-0.891357421875,Closing,0.0,0.0,3.0,0.0,0.0,0.0,0.0,0.0,
2.0717300000000103,0.0,0.0,16938.0,0.375,855.0,840.0,0.0,0.125,0.8044432770000001,4.9227975197659575,0.0,-20773.0,0.25,-825.0,-840.0,0.0,0.125,0.522460884,4.954256108354717,-0.0012207029999995456,-4187.0,4.5,855.0,840.0,0.0,0.125,3.3605953590000004,4.930930900850694,0.0,-22471.0,0.75,-825.0,-840.0,0.0,0.25,1.6552732680000002,4.94849716752039,-0.0012207030000002117,0.30000001192092896,0.12999999523162842,-2.190000057220459,-0.07489013671875,0.06561279296875,0.94097900390625,33.33000183105469,0.0,-79.0,4.5136871337890625,-0.88726806640625,Closing,0.0,0.0,3.0,0.0,0.0,0.0,0.0,0.0,
2.1585510000000068,0.0,0.0,16938.0,0.375,847.5,840.0,0.0,0.125,0.8044432770000001,4.920879420717585,0.0,-20773.0,0.375,-825.0,-840.0,0.0,0.125,0.522460884,4.952325751908273,0.0,-4187.0,4.5,847.5,840.0,0.0,0.125,3.3605953590000004,4.929009632744392,-0.0012207029999995456,-22471.0,0.75,-810.0,-840.0,0.0,0.25,1.6540525650000002,4.946569054964516,0.0012207030000002117,0.28999999165534973,0.009999999776482582,-2.309999942779541,-0.06756591796875,0.0238037109375,1.03363037109375,33.310001373291016,0.0,-68.0,4.512969970703125,-0.883819580078125,Closing,0.0,0.0,3.0,0.0,0.0,0.0,0.0,0.0,
2.2127430000000166,0.0,0.0,17074.0,0.375,840.0,840.0,0.0,0.125,0.8044432770000001,4.919509352301963,0.0,-20902.0,0.375,-802.5,-840.0,0.0,0.25,0.522460884,4.950946928223223,0.0012207029999995456,-4052.0,4.5,840.0,840.0,0.0,0.125,3.359374656,4.927637300719818,0.0012207029999995456,-22600.0,0.75,-810.0,-840.0,0.0,0.25,1.6601560800000001,4.9451918340557155,0.0,0.25999999046325684,-0.07999999821186066,-2.440000057220459,-0.01416015625,-0.01617431640625,1.1099853515625,33.310001373291016,0.0,-11.0,4.5121307373046875,-0.8829345703125,Closing,0.0,0.0,3.0,0.0,0.0,0.0,0.0,0.0,
2.273604000000021,0.0,0.0,17074.0,0.375,840.0,840.0000000000001,0.0,0.125,0.782470623,4.918002273778279,0.0,-21033.0,0.5,-802.5,-840.0000000000001,0.0,0.25,0.522460884,4.949430218882292,0.0,-4052.0,4.5,847.5,840.0000000000001,0.0,0.125,3.358153953,4.9261277322208885,0.0,-22730.0,0.75,-810.0,-840.0000000000001,0.0,0.25,1.6552732680000002,4.94367688777248,0.0,0.25999999046325684,-0.019999999552965164,-2.5799999237060547,0.095458984375,0.05059814453125,0.59576416015625,33.310001373291016,0.0,93.0,4.5098876953125,-0.8827972412109375,Closing,0.0,0.0,3.0,0.0,0.0,0.0,0.0,0.0,
2.3689060000000173,0.0,0.0,17209.0,0.375,847.5,840.0,0.0,0.125,0.799560465,4.916084177996408,0.0,-21033.0,0.5,-825.0,-840.0,0.0,0.25,0.522460884,4.9474998657232225,0.0,-3913.0,4.125,870.0,840.0,0.0,0.125,3.348388329,4.924206467386484,0.0,-22730.0,1.0,-802.5,-840.0,0.0,0.25,1.6577146740000002,4.94174877850016,0.0,0.27000001072883606,-0.1599999964237213,-2.740000009536743,-0.0318603515625,0.034423828125,1.2562255859375,33.310001373291016,0.0,-29.0,4.5066375732421875,-0.883056640625,Closing,0.0,0.0,3.0,0.0,0.0,0.0,0.0,0.0,
2.4567140000000074,0.0,0.0,17344.0,0.375,840.0,839.9999999999999,0.0,0.125,0.8044432770000001,4.913892065264912,0.0,-21166.0,0.5,-825.0,-839.9999999999999,0.0,0.25,0.522460884,4.945293744539768,0.0,-3774.0,4.0,862.5,839.9999999999999,0.0,0.125,3.359374656,4.922010732875268,0.0,-22860.0,1.0,-832.5,-839.9999999999999,0.0,0.25,1.6540525650000002,4.939545221762525,0.0,0.30000001192092896,-0.25,-2.8299999237060547,-0.06829833984375,-0.0054931640625,1.0799560546875,33.310001373291016,0.0,-62.0,4.5029754638671875,-0.8830108642578125,Closing,0.0,0.0,3.0,0.0,0.0,0.0,0.0,0.0,
2.5328010000000067,0.0,0.0,17478.0,0.375,832.5,839.9999999999999,0.0,0.125,0.8032225740000001,4.912659003690853,0.0,-21299.0,0.5,-825.0,-839.9999999999999,0.0,0.25,0.522460884,4.944052803223222,0.0,-3774.0,4.125,847.5,839.9999999999999,0.0,0.125,3.359374656,4.920775634053151,0.0,-22993.0,1.0,-825.0,-839.9999999999999,0.0,0.25,1.649169753,4.938305722944604,0.0,0.28999999165534973,-0.23000000417232513,-2.8399999141693115,-0.0408935546875,-1.8310546875E-4,0.951171875,33.310001373291016,0.0,-36.0,4.4989471435546875,-0.8831329345703125,Closing,0.0,0.0,3.0,0.0,0.0,0.0,0.0,0.0,
2.6176820000000007,0.0,0.0,17478.0,0.375,840.0,840.0,0.0,0.125,0.8032225740000001,4.912247983166166,0.0012207029999995456,-21299.0,0.5,-832.5,-840.0,0.0,0.25,0.522460884,4.943639156117707,0.0,-3639.0,4.375,840.0,840.0,0.0,0.125,3.358153953,4.920363934445779,0.0,-22993.0,0.75,-832.5,-840.0,0.0,0.25,1.6357420200000001,4.937892556671963,-0.004882812000000181,0.20000000298023224,-0.20999999344348907,-2.930000066757202,0.0762939453125,-0.03759765625,0.7550048828125,33.310001373291016,0.0,81.0,4.4943389892578125,-0.8834228515625,Closing,0.0,0.0,3.0,0.0,0.0,0.0,0.0,0.0,
2.6751510000000125,0.0,0.0,17613.0,0.375,840.0,840.0,0.0,0.125,0.8044432770000001,4.91128893200873,0.0,-21435.0,0.375,-840.0,-840.0,0.0,0.25,0.5163573690000001,4.942673976250798,0.0012207029999995456,-3639.0,4.5,825.0,840.0,0.0,0.125,3.3605953590000004,4.919403298756679,0.0012207029999995456,-23128.0,0.75,-832.5,-840.0,0.0,0.25,1.624755693,4.936928498752249,-0.015869138999999866,0.18000000715255737,-0.25999999046325684,-3.0,-0.10528564453125,0.027099609375,0.81072998046875,33.290000915527344,0.0,-102.0,4.4912872314453125,-0.884124755859375,Closing,0.0,0.0,3.0,0.0,0.0,0.0,0.0,0.0,
2.734787000000011,0.0,0.0,17613.0,0.0,682.5,0.0,0.0,0.125,0.8032225740000001,0.01,0.0,-21535.0,0.125,-735.0,-0.0,0.0,0.0,0.5175780720000001,0.01,0.0,-3508.0,0.125,742.5,0.0,0.0,0.0,3.3703609830000003,0.01,0.0,-23224.0,0.125,-645.0,-0.0,0.0,0.125,1.585693197,0.01,0.0,0.25,-0.8399999737739563,-3.0999999046325684,-0.12164306640625,0.097900390625,1.09527587890625,33.290000915527344,0.0,-110.0,4.478271484375,-0.8869476318359375,Closing,0.0,0.0,3.0,0.0,0.0,0.0,0.0,0.0,
2.8503970000000263,0.0,0.0,17708.0,0.0,547.5,0.0,0.0,0.125,0.8044432770000001,0.01,0.0,-21535.0,0.5,-555.0,-0.0,0.0,0.0,0.5175780720000001,0.01,0.0,-3424.0,0.375,427.5,0.0,0.0,0.0,3.385009419,0.01,-4.925751564,-23224.0,0.125,-562.5,-0.0,0.0,0.25,1.614990069,0.01,0.0,0.3100000023841858,-1.409999966621399,-3.1500000953674316,-0.251953125,-0.017822265625,0.89801025390625,33.290000915527344,0.0,-228.0,4.4564056396484375,-0.888214111328125,Closing,0.0,0.0,3.0,0.0,0.0,0.0,0.0,0.0,
2.9321359999999985,0.0,0.0,17790.0,0.375,465.0,0.0,0.0,0.125,0.8032225740000001,0.01,0.0,-21619.0,1.375,-435.0,-0.0,0.0,0.0,0.5175780720000001,0.01,0.0012207029999995456,-3360.0,0.375,405.0,0.0,0.0,0.125,3.383788716,0.01,0.0,-23314.0,0.375,-472.5,-0.0,0.0,0.125,1.621093584,0.01,0.0,0.2800000011920929,-1.9900000095367432,-3.25,-0.20684814453125,0.0091552734375,0.9815673828125,33.290000915527344,0.0,-172.0,4.4318695068359375,-0.8894195556640625,Closing,0.0,0.0,3.0,0.0,0.0,0.0,0.0,0.0,
3.0087050000000164,0.0,0.0,17831.0,0.125,292.5,0.0,0.0,0.125,0.8044432770000001,0.01,0.0,-21663.0,0.875,-270.0,-0.0,0.0,0.0,0.5175780720000001,0.01,0.0,-3360.0,0.125,285.0,0.0,0.0,0.125,3.383788716,0.01,0.0,-23359.0,0.375,-285.0,-0.0,0.0,0.125,1.6345213170000001,0.01,0.008544920999999484,0.3100000023841858,-2.319999933242798,-3.200000047683716,-0.15106201171875,0.026611328125,1.046142578125,33.290000915527344,0.0,-109.0,4.4086456298828125,-0.8903045654296875,Closing,0.0,0.0,3.0,0.0,0.0,0.0,0.0,0.0,
3.108268000000011,0.0,0.0,17831.0,0.125,97.5,0.0,0.0,0.125,0.8044432770000001,0.01,0.0,-21673.0,0.5,-90.0,-0.0,0.0,0.0,0.5163573690000001,0.01,0.0,-3329.0,0.375,127.5,0.0,0.0,0.125,3.385009419,0.01,0.0,-23372.0,0.125,-97.5,-0.0,0.0,0.125,1.6345213170000001,0.01,0.0,0.25999999046325684,-2.7899999618530273,-3.180000066757202,-0.084716796875,0.00677490234375,1.001220703125,33.290000915527344,0.0,-35.0,4.355255126953125,-0.8908538818359375,Closing,0.0,0.0,3.0,0.0,0.0,0.0,0.0,0.0,
3.1864100000000035,0.0,0.0,17840.0,0.0,15.0,0.0,0.0,0.125,0.8044432770000001,0.01,0.0,-21673.0,0.25,-7.5,-0.0,0.0,0.0,0.511474557,0.01,0.0,-3310.0,0.375,105.0,0.0,0.0,0.125,3.383788716,0.01,0.0,-23372.0,0.125,-22.5,-0.0,0.0,0.125,1.6345213170000001,0.01,0.0,0.25,-2.7799999713897705,-3.140000104904175,-0.01654052734375,-0.01373291015625,0.98748779296875,33.290000915527344,0.0,32.0,4.3269500732421875,-0.8908538818359375,Closing,0.0,0.0,3.0,0.0,0.0,0.0,0.0,0.0,
3.270022000000026,0.0,0.0,17838.0,0.0,-7.5,0.0,0.0,0.125,0.8044432770000001,0.01,0.0012207030000004337,-21673.0,0.125,0.0,-0.0,0.0,0.0,0.51269526,0.01,0.0,-3310.0,0.375,37.5,0.0,0.0,0.125,3.3752437950000003,0.01,-0.004882811999999959,-23372.0,0.0,0.0,-0.0,0.0,0.125,1.6345213170000001,0.01,0.0012207029999999897,0.25999999046325684,-2.559999942779541,-3.1500000953674316,0.0269775390625,0.00946044921875,0.99969482421875,33.290000915527344,0.0,71.0,4.2930450439453125,-0.8908538818359375,Closing,0.0,0.0,3.0,0.0,0.0,0.0,0.0,0.0,
3.3351400000000138,0.0,0.0,17838.0,0.125,-7.5,420.0,0.0,1.75,0.8569335060000001,0.5498168668524888,-0.0012207030000004337,-21673.0,0.0,0.0,-420.0,0.0,8.5,0.522460884,1.9285545897722227,0.0,-3309.0,2.0,0.0,420.0,0.0,1.625,3.2727047430000002,4.389674732977289,0.0,-23372.0,0.375,0.0,-420.0,0.0,7.125,1.3940428260000002,3.0316872062785585,0.0,0.25999999046325684,-2.3499999046325684,-3.1700000762939453,0.052734375,-0.0098876953125,1.031982421875,33.290000915527344,0.0,95.0,4.261566162109375,-0.8908538818359375,Closing,0.0,0.0,3.0,0.0,0.0,0.0,0.0,0.0,
3.4147330000000076,0.0,0.0,17843.0,0.125,75.0,420.0,0.0,0.75,1.235351436,0.5498168668524888,-4.819946324,-21678.0,0.125,-97.5,-420.0,0.0,1.25,1.254882684,1.9285545897722227,0.11230467599999994,-3304.0,3.625,37.5,420.0,0.0,0.5,2.9028317340000003,4.389674732977289,4.800019155,-23380.0,0.75,-75.0,-420.0,0.0,1.75,0.7373046120000001,3.0316872062785585,4.679679716,0.25999999046325684,-2.0899999141693115,-3.180000066757202,0.05157470703125,-0.06256103515625,0.97479248046875,33.290000915527344,0.0,90.0,4.23297119140625,-0.89105224609375,Closing,0.0,0.0,3.0,0.0,0.0,0.0,0.0,0.0,
3.50619200000001,0.0,0.0,17871.0,0.375,180.0,420.0,0.0,0.375,1.300048695,0.5498168668524888,0.0,-21717.0,0.0,-232.5,-420.0,0.0,1.25,1.874999808,1.9285545897722227,0.0,-3304.0,3.625,90.0,420.0,0.0,0.125,2.8015133850000002,4.389674732977289,0.0,-23385.0,1.0,-22.5,-420.0,0.0,1.875,0.144042954,3.0316872062785585,0.0,0.2199999988079071,-1.840000033378601,-3.640000104904175,-0.00787353515625,-0.014892578125,1.02154541015625,33.290000915527344,0.0,26.0,4.1972808837890625,-0.8913421630859375,Closing,0.0,0.0,3.0,0.0,0.0,0.0,0.0,0.0,
3.580906000000017,0.0,0.0,17871.0,0.5,150.0,420.0,0.0,0.125,1.3708494690000002,0.5498168668524888,0.0,-21717.0,0.375,-142.5,-420.0,0.0,0.5,2.438964594,1.9285545897722227,0.6555175110000002,-3285.0,4.375,112.5,420.0,0.0,0.0,2.766112998,4.389674732977289,0.0,-23400.0,2.25,-60.0,-420.0,0.0,1.0,4.594726092,3.0316872062785585,0.0,0.1899999976158142,-1.909999966621399,-4.679999828338623,-0.0965576171875,-0.00238037109375,1.09619140625,33.290000915527344,0.0,-59.0,4.19219970703125,-0.8917083740234375,Closing,0.0,0.0,3.0,0.0,0.0,0.0,0.0,0.0,
3.661622000000003,0.0,0.0,17899.0,0.75,187.5,420.0,0.0,0.125,1.3720701720000001,0.5498168668524888,0.00732421800000016,-21735.0,0.875,-157.5,-420.0,0.0,0.25,2.764892295,1.9285545897722227,0.5126952599999997,-3264.0,5.875,120.0,420.0,0.0,0.0,2.7465817500000003,4.389674732977289,-0.028076169000000206,-23400.0,2.25,-150.0,-420.0,0.0,0.375,4.372558146,3.0316872062785585,-0.48046139599999904,0.3700000047683716,-2.0299999713897705,-6.449999809265137,-0.0706787109375,0.03662109375,1.0517578125,33.29999923706055,0.0,-36.0,4.19036865234375,-0.8918304443359375,Closing,0.0,0.0,3.0,0.0,0.0,0.0,0.0,0.0,
3.7373650000000196,0.0,0.0,17940.0,0.875,240.0,420.0,0.0,0.125,1.365966657,0.5498168668524888,-0.0012207029999999897,-21783.0,0.75,-292.5,-420.0,0.0,1.5,2.8454586930000003,1.9285545897722227,0.3259277009999999,-3264.0,6.0,187.5,420.0,0.0,0.0,2.7404782350000003,4.389674732977289,-0.019531247999999835,-23439.0,2.0,-232.5,-420.0,0.0,0.375,4.392089394,3.0316872062785585,-0.21850583700000037,0.4099999964237213,-2.0899999141693115,-8.210000038146973,-0.07000732421875,-0.0323486328125,1.00897216796875,33.29999923706055,0.0,-27.0,4.1875762939453125,-0.8918304443359375,Closing,0.0,0.0,3.0,0.0,0.0,0.0,0.0,0.0,
3.806677000000025,0.0,0.0,17940.0,1.375,225.0,420.0,0.0,0.125,1.3720701720000001,0.5498168668524888,0.0,-21783.0,0.875,-270.0,-420.0,0.0,0.25,2.712402066,1.9285545897722227,0.0,-3225.0,7.0,232.5,420.0,0.0,0.0,2.7465817500000003,4.389674732977289,-0.006103514999999504,-23439.0,2.125,-285.0,-420.0,0.0,0.25,4.571532735,3.0316872062785585,0.019531247999999835,0.28999999165534973,-1.9600000381469727,-10.220000267028809,0.0103759765625,0.0059814453125,1.02679443359375,33.29999923706055,0.0,44.0,4.1834564208984375,-0.893035888671875,Closing,0.0,0.0,3.0,0.0,0.0,0.0,0.0,0.0,
3.8909280000000144,0.0,0.0,17962.0,2.375,112.5,420.0,0.0,0.125,1.364745954,0.5498168668524888,0.0,-21818.0,1.75,-210.0,-420.0,0.0,0.25,2.503661853,1.9285545897722227,0.0,-3216.0,10.625,37.5,420.0,0.0,0.0,2.7514645620000002,4.389674732977289,0.0,-23486.0,2.25,-300.0,-420.0,0.0,0.25,4.698485847000001,3.0316872062785585,0.0,0.4699999988079071,-1.659999966621399,-12.289999961853027,0.0638427734375,0.011474609375,1.00445556640625,33.29999923706055,0.0,90.0,4.18035888671875,-0.8930816650390625,Closing,0.0,0.0,3.0,0.0,0.0,0.0,0.0,0.0,
3.9833300000000165,0.0,0.0,17996.0,2.5,180.0,420.0,0.0,0.125,1.378173687,0.5498168668524888,-0.003662109000000191,-21860.0,1.875,-247.5,-420.0,0.0,0.25,2.4353024850000002,1.9285545897722227,-0.1806640439999998,-3216.0,12.0,75.0,420.0,0.0,0.0,2.7514645620000002,4.389674732977289,0.003662109000000413,-23536.0,2.375,-315.0,-420.0,0.0,0.25,4.7131342830000005,3.0316872062785585,0.1110839729999995,0.4300000071525574,-1.409999966621399,-14.119999885559082,0.0059814453125,-0.03662109375,0.89984130859375,33.29999923706055,0.0,37.0,4.1807708740234375,-0.8925018310546875,Closing,0.0,0.0,3.0,0.0,0.0,0.0,0.0,0.0,
4.049541000000026,0.0,0.0,17996.0,2.375,255.0,420.0,0.0,0.125,1.36718736,0.5498168668524888,0.0012207029999999897,-21860.0,1.875,-307.5,-420.0,0.0,0.0,2.412109128,1.9285545897722227,-0.0646972589999999,-3181.0,11.0,210.0,420.0,0.0,0.0,2.7502438590000002,4.389674732977289,0.0,-23536.0,2.25,-345.0,-420.0,0.0,0.25,4.702147956,3.0316872062785585,0.014648435999999876,0.44999998807907104,-1.3200000524520874,-15.930000305175781,-0.03277587890625,-0.0426025390625,0.98162841796875,33.29999923706055,0.0,4.0,4.181488037109375,-0.8925628662109375,Closing,0.0,0.0,3.0,0.0,0.0,0.0,0.0,0.0,
4.111682000000001,0.0,0.0,18062.0,1.75,390.0,420.0,0.0,0.125,1.3708494690000002,0.5498168668524888,-0.0012207029999999897,-21925.0,1.125,-412.5,-420.0,0.0,0.25,2.3815915530000002,1.9285545897722227,-0.035400387000000144,-3107.0,8.0,420.0,420.0,0.0,0.0,2.752685265,4.389674732977289,0.0012207029999995456,-23607.0,1.375,-457.5,-420.0,0.0,0.25,4.685058114,3.0316872062785585,-0.009765623999999917,0.6399999856948853,-1.1799999475479126,-20.489999771118164,0.0379638671875,0.02728271484375,1.0086669921875,33.29999923706055,0.0,49.0,4.183074951171875,-0.8919525146484375,Closing,0.0,0.0,3.0,0.0,0.0,0.0,0.0,0.0,
4.187257000000012,0.0,0.0,18062.0,1.125,480.0,420.0,0.0,0.125,1.364745954,0.5498168668524888,0.0012207029999999897,-21925.0,0.625,-487.5,-420.0,0.0,0.0,2.3815915530000002,1.9285545897722227,-0.018310544999999845,-3107.0,6.75,457.5,420.0,0.0,0.0,2.753905968,4.389674732977289,0.0,-23607.0,0.75,-525.0,-420.0,0.0,0.25,4.654540539,3.0316872062785585,-0.023193357000000248,0.6299999952316284,-1.090000033378601,-23.139999389648438,-0.0516357421875,0.0494384765625,0.99017333984375,33.29999923706055,0.0,-45.0,4.1842498779296875,-0.890869140625,Closing,0.0,0.0,3.0,0.0,0.0,0.0,0.0,0.0,
4.243127000000007,0.0,0.0,18151.0,0.375,570.0,420.0,0.0,0.125,1.365966657,0.5498168668524888,0.0,-22007.0,0.25,-525.0,-420.0,0.0,0.0,2.3815915530000002,1.9285545897722227,0.0,-3037.0,6.5,427.5,420.0,0.0,0.0,2.753905968,4.389674732977289,0.0,-23698.0,0.375,-570.0,-420.0,0.0,0.125,4.643554212000001,3.0316872062785585,0.0,0.75,-0.8799999952316284,-28.780000686645508,-0.0203857421875,-0.02978515625,1.0780029296875,33.310001373291016,0.0,17.0,4.186279296875,-0.8880767822265625,Closing,0.0,0.0,3.0,0.0,0.0,0.0,0.0,0.0,
4.325896000000008,0.0,0.0,18243.0,0.125,577.5,420.0,0.0,0.125,1.365966657,0.5498168668524888,0.0,-22091.0,0.125,-525.0,-420.0,0.0,0.0,2.36816382,1.9285545897722227,-0.003662108999999969,-3037.0,5.875,510.0,420.0,0.0,0.0,2.760009483,4.389674732977289,0.0012207029999995456,-23789.0,0.375,-570.0,-420.0,0.0,0.125,4.645995618000001,3.0316872062785585,-0.004882811999999959,0.7900000214576721,-0.800000011920929,-33.709999084472656,0.00653076171875,-0.02099609375,0.92041015625,33.310001373291016,0.0,34.0,4.1880645751953125,-0.8859100341796875,Closing,0.0,0.0,3.0,0.0,0.0,0.0,0.0,0.0,
4.399512000000017,0.0,0.0,18243.0,0.125,570.0,420.0,0.0,0.125,1.365966657,0.5498168668524888,0.0,-22091.0,0.0,-525.0,-420.0,0.0,0.0,2.396239989,1.9285545897722227,0.0,-2944.0,4.625,585.0,420.0,0.0,0.0,2.761230186,4.389674732977289,0.0,-23789.0,0.375,-547.5,-420.0,0.0,0.125,4.644774915,3.0316872062785585,0.0,0.7699999809265137,-0.6899999976158142,-38.66999816894531,-0.01678466796875,0.01519775390625,1.18890380859375,33.310001373291016,0.0,-1.0,4.189971923828125,-0.88433837890625,Closing,0.0,0.0,3.0,0.0,0.0,0.0,0.0,0.0,
4.472150000000023,0.0,0.0,18332.0,0.125,555.0,420.0,0.0,0.125,1.3684080630000002,0.5498168668524888,-0.0024414060000002014,-22182.0,0.0,-585.0,-420.0,0.0,0.0,2.406005613,1.9285545897722227,0.019531247999999835,-2944.0,3.75,615.0,420.0,0.0,0.0,2.761230186,4.389674732977289,-0.0012207029999995456,-23882.0,0.375,-592.5,-420.0,0.0,0.125,4.643554212000001,3.0316872062785585,0.0,0.8100000023841858,-0.6000000238418579,-43.45000076293945,0.00543212890625,0.017333984375,1.22271728515625,33.310001373291016,0.0,13.0,4.19036865234375,-0.8831024169921875,Closing,0.0,0.0,3.0,0.0,0.0,0.0,0.0,0.0,
4.553151000000012,0.0,0.0,18332.0,0.0,570.0,420.0,0.0,0.125,1.3708494690000002,0.5498168668524888,0.0012207029999999897,-22182.0,0.0,-555.0,-420.0,0.0,0.0,2.412109128,1.9285545897722227,0.0,-2844.0,3.5,622.5,420.0,0.0,0.0,2.760009483,4.389674732977289,0.0012207029999995456,-23972.0,0.125,-570.0,-420.0,0.0,0.125,4.648437024000001,3.0316872062785585,0.003662108999999525,0.8299999833106995,-0.5799999833106995,-47.95000076293945,-0.042236328125,-0.0032958984375,1.2991943359375,33.310001373291016,0.0,-2.0,4.1900177001953125,-0.882904052734375,Closing,0.0,0.0,3.0,0.0,0.0,0.0,0.0,0.0,
4.646756000000023,0.0,0.0,18423.0,0.0,525.0,0.0,0.0,2.0,1.235351436,0.01,0.0,-22271.0,0.125,-502.5,-0.0,0.0,9.5,2.187499776,0.01,0.0,-2753.0,1.25,532.5,0.0,0.0,2.625,3.0126950040000002,0.01,0.0,-23972.0,0.125,-540.0,-0.0,0.0,7.25,0.047607417,0.01,0.0,0.8500000238418579,-0.4300000071525574,-52.810001373291016,-0.0322265625,-0.006103515625,1.04364013671875,33.310001373291016,0.0,2.0,4.189697265625,-0.882843017578125,Closing,0.0,0.0,3.0,0.0,0.0,0.0,0.0,0.0,
4.725302000000025,0.0,0.0,18498.0,0.125,435.0,0.0,0.0,0.5,0.9228514680000001,0.01,-0.15991209299999998,-22339.0,0.375,-360.0,-0.0,0.0,1.125,1.619872881,0.01,-0.261230442,-2697.0,0.75,375.0,0.0,0.0,0.5,3.350829735,0.01,0.27099606600000037,-24055.0,0.125,-472.5,-0.0,0.0,1.25,0.627441342,0.01,0.38036374999999945,0.7900000214576721,-0.03999999910593033,-55.97999954223633,0.06011962890625,-0.0089111328125,1.1444091796875,33.310001373291016,0.0,54.0,4.1899871826171875,-0.8813323974609375,Closing,0.0,0.0,3.0,0.0,0.0,0.0,0.0,0.0,
4.793894,0.0,0.0,18498.0,0.125,360.0,0.0,0.0,0.25,0.794677653,0.01,-0.29541012599999994,-22339.0,0.0,-142.5,-0.0,0.0,1.5,1.175536989,0.01,-0.5541991620000002,-2697.0,0.875,285.0,0.0,0.0,0.0,3.4167476970000004,0.01,0.32226559199999993,-24055.0,0.125,-262.5,-0.0,0.0,1.5,1.1132811360000001,0.01,0.0,0.7799999713897705,-0.11999999731779099,-56.95000076293945,-0.101318359375,-0.0257568359375,1.108154296875,33.310001373291016,0.0,-19.0,4.1909637451171875,-0.8777313232421875,Closing,0.0,0.0,3.0,0.0,0.0,0.0,0.0,0.0,
4.86410500000001,0.0,0.0,18536.0,0.0,172.5,0.0,0.0,0.25,0.7653807810000001,0.01,4.805297887999999,-22348.0,0.0,-22.5,-0.0,0.0,1.75,0.62255853,0.01,-0.48339838799999946,-2678.0,1.5,120.0,0.0,0.0,0.125,3.4130855880000004,0.01,-4.876923444,-24080.0,0.0,-105.0,-0.0,0.0,1.25,1.6589353770000002,0.01,0.49194330899999983,0.6899999976158142,-0.4000000059604645,-57.040000915527344,-0.09130859375,-0.00848388671875,1.0400390625,33.310001373291016,0.0,-27.0,4.1911163330078125,-0.8768768310546875,Closing,0.0,0.0,3.0,0.0,0.0,0.0,0.0,0.0,
4.933046000000002,0.0,0.0,18542.0,0.0,37.5,0.0,0.0,0.25,0.7751464050000001,0.01,-0.019531247999999835,-22351.0,0.0,-15.0,-0.0,0.0,0.5,0.339355434,0.01,-0.5407714290000003,-2678.0,2.125,22.5,0.0,0.0,0.125,3.388671528,0.01,0.0,-24092.0,0.0,-60.0,-0.0,0.0,0.5,1.828613094,0.01,0.0,0.6700000166893005,-0.5,-57.029998779296875,-0.01116943359375,-1.8310546875E-4,1.07562255859375,33.310001373291016,0.0,9.0,4.190155029296875,-0.8773193359375,Closing,0.0,0.0,3.0,0.0,0.0,0.0,0.0,0.0,
5.013300000000018,0.0,0.0,18542.0,0.0,7.5,8.399999999999999,0.0,0.25,0.8044432770000001,0.01,0.014648435999999876,-22351.0,0.0,0.0,-8.399999999999999,0.0,0.0,0.33691402800000003,0.01,-0.2319335699999998,-2678.0,2.625,0.0,8.399999999999999,0.0,0.125,3.3752437950000003,0.01,-0.023193357000000248,-24092.0,0.125,-15.0,-8.399999999999999,0.0,0.25,1.7858884890000002,0.01,0.14526365699999988,0.6499999761581421,-0.4699999988079071,-57.0,-7.32421875E-4,0.0115966796875,1.01800537109375,33.310001373291016,0.0,4.0,4.190155029296875,-0.877166748046875,Closing,0.0,0.0,3.0,0.0,0.0,0.0,0.0,0.0,
5.073673999999999,0.0,0.0,18543.0,0.0,0.0,8.399999999999999,0.0,0.25,0.799560465,0.01,0.01342773300000033,-22351.0,0.0,0.0,-8.399999999999999,0.0,0.25,0.411376911,0.01,0.004882811999999959,-2678.0,2.625,0.0,8.399999999999999,0.0,0.0,3.3740230920000003,0.01,-0.014648435999999876,-24093.0,0.125,-7.5,-8.399999999999999,0.0,0.25,1.6882322490000001,0.01,-0.04394530800000007,0.6299999952316284,-0.49000000953674316,-57.0099983215332,-0.015380859375,-0.0093994140625,0.98272705078125,33.310001373291016,0.0,13.0,4.190155029296875,-0.877166748046875,Closing,0.0,0.0,3.0,0.0,0.0,0.0,0.0,0.0,
5.141739000000001,0.0,0.0,18543.0,0.0,7.5,8.4,0.0,0.125,0.799560465,0.01,0.004882811999999959,-22351.0,0.0,0.0,-8.4,0.0,0.25,0.426025347,0.01,0.0708007739999994,-2677.0,2.75,7.5,8.4,0.0,0.0,3.3752437950000003,0.01,0.0,-24093.0,0.125,0.0,-8.4,0.0,0.25,1.666259595,0.01,-0.09643553699999985,0.6000000238418579,-0.5199999809265137,-57.0,-0.021240234375,0.0068359375,1.00665283203125,33.310001373291016,0.0,-3.0,4.190155029296875,-0.8773193359375,Closing,0.0,0.0,3.0,0.0,0.0,0.0,0.0,0.0,
5.205959000000003,0.0,0.0,18543.0,0.0,0.0,8.399999999999999,0.0,0.125,0.799560465,0.01,0.0,-22351.0,0.0,0.0,-8.399999999999999,0.0,0.0,0.445556595,0.01,0.0,-2677.0,2.75,0.0,8.399999999999999,0.0,0.0,3.3740230920000003,0.01,0.0,-24093.0,0.125,0.0,-8.399999999999999,0.0,0.25,1.6589353770000002,0.01,0.0,0.6100000143051147,-0.5299999713897705,-57.0,-0.00128173828125,0.0023193359375,1.01531982421875,33.349998474121094,0.0,11.0,4.190155029296875,-0.8773193359375,Closing,0.0,0.0,3.0,0.0,0.0,0.0,0.0,0.0,
5.282074000000022,0.0,0.0,18543.0,0.0,0.0,0.0,0.0,0.125,0.799560465,0.01,0.0,-22351.0,0.0,0.0,-0.0,0.0,0.25,0.47363276400000004,0.01,0.019531247999999835,-2677.0,2.75,0.0,0.0,0.0,0.0,3.3752437950000003,0.01,0.0,-24093.0,0.125,0.0,-0.0,0.0,0.25,1.649169753,0.01,0.0,0.5899999737739563,-0.5299999713897705,-57.0099983215332,-0.0125732421875,0.0150146484375,1.01641845703125,33.349998474121094,0.0,-5.0,4.1902923583984375,-0.8773193359375,Closing,0.0,0.0,3.0,0.0,0.0,0.0,0.0,0.0,
5.437077000000019,0.0,0.0,18545.0,0.125,0.0,420.0,0.0,0.125,0.8056639800000001,0.01,0.0024414059999999793,-22352.0,0.25,0.0,-420.0,0.0,0.125,0.51269526,0.01,0.05371093200000043,-2677.0,5.5,0.0,420.0,0.0,0.0,3.3728023890000003,0.01,0.0,-24093.0,0.375,-7.5,-420.0,0.0,0.25,1.6540525650000002,0.01,-0.004882811999999959,0.5699999928474426,-0.49000000953674316,-57.02000045776367,0.00177001953125,-0.0030517578125,1.02197265625,33.349998474121094,0.0,16.0,4.1902923583984375,-0.877227783203125,Closing,0.0,0.0,3.0,0.0,0.0,0.0,0.0,0.0,
5.574716000000015,0.0,0.0,18579.0,0.375,202.5,462.19571493713573,0.0,0.75,0.8178710100000001,0.3380354854419578,0.0024414059999999793,-22384.0,1.125,-120.0,-462.19571493713573,0.0,0.75,0.5407714290000001,0.3401956635159538,0.014648435999999876,-2673.0,9.875,15.0,462.19571493713573,0.0,0.5,3.408202776,0.33859398320917733,0.0,-24122.0,0.625,-135.0,-462.19571493713573,0.0,0.625,1.667480298,0.3398002122806051,0.0,0.5400000214576721,-0.05000000074505806,-57.04999923706055,0.06536865234375,0.0438232421875,1.06793212890625,33.349998474121094,0.0,7.0,4.1926727294921875,-0.873046875,Closing,0.0,0.0,3.0,0.0,0.0,0.0,0.0,0.0,
5.711004000000015,0.0,0.0,18602.0,1.125,150.0,432.4215651421655,0.0,0.375,1.0607909070000001,0.1886079175616436,-4.782104531,-22411.0,1.875,-195.0,-432.4215651421655,0.0,0.25,0.809326089,0.18981319542638028,0.16723631099999992,-2645.0,11.125,150.0,432.4215651421655,0.0,0.25,3.610839474,0.18891953307354878,0.0,-24145.0,1.0,-247.5,-432.4215651421655,0.0,0.25,1.910400195,0.18959255221817156,0.0,0.6899999976158142,0.28999999165534973,-57.04999923706055,0.05462646484375,0.0679931640625,1.02154541015625,33.349998474121094,0.0,-19.0,4.1937408447265625,-0.8637847900390625,Closing,0.0,0.0,3.0,0.0,0.0,0.0,0.0,0.0,
5.840597000000009,0.0,0.0,18649.0,0.75,330.0,459.54823608524765,0.0,0.125,1.129150275,0.32805240266596947,0.16113279600000008,-22457.0,1.5,-315.0,-459.54823608524765,0.0,0.0,0.9069823290000001,0.33014878496273997,0.20629880699999958,-2598.0,9.625,300.0,459.54823608524765,0.0,0.0,3.6291500190000003,0.3285944065155961,0.0,-24187.0,1.25,-330.0,-459.54823608524765,0.0,0.125,1.9470212850000002,0.32976501244926026,0.0,0.949999988079071,0.6200000047683716,-57.45000076293945,0.03466796875,0.08221435546875,0.960693359375,33.36000061035156,0.0,-42.0,4.193603515625,-0.8427734375,Closing,0.0,0.0,3.0,0.0,0.0,0.0,0.0,0.0,
5.970982000000018,0.0,0.0,18718.0,0.125,480.0,432.4215651421655,0.0,0.25,1.124267463,0.1886079175616436,0.020751951000000046,-22519.0,0.875,-420.0,-432.4215651421655,0.0,0.25,0.9057616260000001,0.18981319542638028,0.032958981000000165,-2554.0,9.875,270.0,432.4215651421655,0.0,0.125,3.607177365,0.18891953307354878,0.0024414059999999793,-24242.0,0.75,-390.0,-432.4215651421655,0.0,0.25,1.938476364,0.18959255221817156,0.0,1.1100000143051147,0.8600000143051147,-58.189998626708984,0.05218505859375,-0.04937744140625,0.99114990234375,33.36000061035156,0.0,77.0,4.193511962890625,-0.8178253173828125,Closing,0.0,0.0,3.0,0.0,0.0,0.0,0.0,0.0,
6.093532000000007,0.0,0.0,18796.0,0.125,472.5,462.19571493713573,0.0,0.25,1.046142471,0.3380354854419578,-0.05004882300000002,-22591.0,0.625,-472.5,-462.19571493713573,0.0,0.125,0.759277266,0.3401956635159538,0.0,-2490.0,9.5,450.0,462.19571493713573,0.0,0.125,3.5815426020000003,0.33859398320917733,0.0,-24380.0,0.75,-405.0,-462.19571493713573,0.0,0.25,1.8713376990000001,0.3398002122806051,0.0,0.9200000166893005,0.9399999976158142,-58.95000076293945,0.00933837890625,-0.06036376953125,1.005615234375,33.36000061035156,0.0,61.0,4.19427490234375,-0.80621337890625,Closing,0.0,0.0,3.0,0.0,0.0,0.0,0.0,0.0,
6.232378000000026,0.0,0.0,18873.0,0.0,570.0,452.0619649519853,0.0,0.125,1.099853403,0.29742484555944054,-0.004882812000000181,-22669.0,0.375,-510.0,-452.0619649519853,0.0,0.25,0.7360839090000001,0.29932550586792606,-0.12817381500000025,-2417.0,9.125,465.0,452.0619649519853,0.0,0.0,3.6291500190000003,0.29791624696347774,0.023193356999999803,-24459.0,0.625,-450.0,-452.0619649519853,0.0,0.25,1.8701169960000001,0.2989775630404264,-0.05737304099999996,0.8799999952316284,0.9200000166893005,-59.25,0.00970458984375,-0.02630615234375,1.092529296875,33.349998474121094,0.0,33.0,4.1972198486328125,-0.8065032958984375,Closing,0.0,0.0,3.0,0.0,0.0,0.0,0.0,0.0,
6.373667000000016,0.0,0.0,19062.0,0.125,577.5,420.19691087185544,0.0,0.375,1.0815428580000002,0.02403287237242459,0.018310545000000067,-22833.0,0.125,-517.5,-420.19691087185544,0.0,0.25,0.7775878110000001,0.024186451763316588,0.024414059999999793,-2332.0,6.75,577.5,420.19691087185544,0.0,0.25,3.597411741,0.024072579166941513,0.01831054500000029,-24553.0,0.375,-592.5,-420.19691087185544,0.0,0.25,1.8676755900000002,0.024158336877519233,0.009765623999999917,0.8299999833106995,0.7900000214576721,-59.34000015258789,0.0076904296875,0.01739501953125,0.99407958984375,33.349998474121094,0.0,-5.0,4.199615478515625,-0.8081512451171875,Closing,0.0,0.0,3.0,0.0,0.0,0.0,0.0,0.0,
6.501164000000019,0.0,0.0,19155.0,0.125,585.0,423.9696204936888,0.0,0.25,0.8959960020000001,0.10750455483864146,-0.13427732999999997,-22919.0,0.0,-547.5,-423.9696204936888,0.0,0.0,0.629882748,0.1081915507080648,-0.06103514999999948,-2241.0,5.625,600.0,423.9696204936888,0.0,0.125,3.4179684000000004,0.10768217244516232,0.0,-24636.0,0.375,-525.0,-423.9696204936888,0.0,0.25,1.7077634970000002,0.1080657863701552,0.0,0.27000001072883606,0.6499999761581421,-59.72999954223633,-0.0181884765625,-0.1949462890625,0.99749755859375,33.349998474121094,0.0,157.0,4.2024078369140625,-0.813446044921875,Closing,0.0,0.0,3.0,0.0,0.0,0.0,0.0,0.0,
6.636637000000017,0.0,0.0,19245.0,0.0,562.5,421.768888321851,0.0,0.125,0.8703612390000001,0.07191924801325907,-0.08789061600000003,-23000.0,0.0,-495.0,-421.768888321851,0.0,0.0,0.545654241,0.07237883994767803,-0.12329100300000029,-2141.0,4.5,577.5,421.768888321851,0.0,0.0,3.388671528,0.07203807204554373,-0.10253905200000002,-24714.0,0.375,-480.0,-421.768888321851,0.0,0.125,1.678466625,0.07229470512545659,-0.08300780399999996,0.17000000178813934,0.3700000047683716,-60.11000061035156,-0.008056640625,-0.08978271484375,1.01629638671875,33.349998474121094,0.0,73.0,4.2107086181640625,-0.82696533203125,Closing,0.0,0.0,3.0,0.0,0.0,0.0,0.0,0.0,
6.773832000000024,0.0,0.0,19325.0,0.0,502.5,420.19691087185544,0.0,0.125,0.871581942,0.02403287237242459,-0.006103514999999948,-23075.0,0.0,-457.5,-420.19691087185544,0.0,0.0,0.5419921320000001,0.024186451763316588,-0.032958981000000165,-1969.0,4.25,510.0,420.19691087185544,0.0,0.125,3.388671528,0.024072579166941513,-0.009765623999999917,-24789.0,0.375,-457.5,-420.19691087185544,0.0,0.25,1.6638181890000001,0.024158336877519233,-0.024414060000000015,0.14000000059604645,0.18000000715255737,-60.45000076293945,-0.03826904296875,0.023193359375,1.01336669921875,33.33000183105469,0.0,-38.0,4.217742919921875,-0.846832275390625,Closing,0.0,0.0,3.0,0.0,0.0,0.0,0.0,0.0,
6.908192999999999,0.0,0.0,19401.0,0.0,472.5,420.19691087185544,0.0,0.25,0.8703612390000001,4.908218127627576,0.0,-23147.0,0.0,-435.0,-420.19691087185544,0.0,0.125,0.5407714290000001,4.939583548236683,0.0,-1892.0,4.5,472.5,420.19691087185544,0.0,0.125,3.391112934,4.916327420833059,0.0,-24861.0,0.375,-427.5,-420.19691087185544,0.0,0.25,1.668701001,4.933841663122481,0.0,0.12999999523162842,0.0,-60.7400016784668,0.00567626953125,0.0758056640625,1.05853271484375,33.33000183105469,0.0,-61.0,4.2180023193359375,-0.865264892578125,Closing,0.0,0.0,3.0,0.0,0.0,0.0,0.0,0.0,
7.039709000000003,0.0,0.0,19472.0,0.0,435.0,423.139578035428,0.0,0.25,0.8312987430000001,4.836566187440436,-0.023193357000000026,-23214.0,0.0,-412.5,-423.139578035428,0.0,0.0,0.507812448,4.867473724315979,-0.01342773300000033,-1818.0,4.375,450.0,423.139578035428,0.0,0.125,3.341064111,4.844557098256096,-0.019531247999999835,-24929.0,0.375,-412.5,-423.139578035428,0.0,0.25,1.6296385050000002,4.861815661313603,-0.004882811999999959,0.14000000059604645,-0.14000000059604645,-60.93000030517578,-0.0714111328125,0.0123291015625,1.034912109375,33.33000183105469,0.0,-41.0,4.21624755859375,-0.885406494140625,Closing,0.0,0.0,3.0,0.0,0.0,0.0,0.0,0.0,
7.177347000000009,0.0,0.0,19540.0,0.0,412.5,425.9162806985224,0.0,0.25,0.709228443,4.801258457807891,4.8333740569999994,-23277.0,0.125,-375.0,-425.9162806985224,0.0,0.25,0.40161128700000004,4.831940364574527,-0.08789061600000014,-1749.0,4.625,427.5,425.9162806985224,0.0,0.125,3.229980138,4.809191033658689,4.843964463,-24988.0,0.375,-382.5,-425.9162806985224,0.0,0.25,1.507568205,4.826323606363813,4.84813673,0.0,-0.23999999463558197,-61.130001068115234,-0.04132080078125,-0.0400390625,0.946044921875,33.33000183105469,0.0,17.0,4.21563720703125,-0.9083251953125,Closing,0.0,0.0,3.0,0.0,0.0,0.0,0.0,0.0,
7.226728000000003,0.0,0.0,19603.0,0.0,397.5,427.0315920690178,0.0,0.25,0.6848143830000001,4.789599983969735,-0.04394530799999963,-23338.0,0.125,-375.0,-427.0315920690178,0.0,0.0,0.37841793,4.820207388559393,-0.04394530799999963,-1749.0,5.0,420.0,427.0315920690178,0.0,0.125,3.2055660780000004,4.797513297843942,-0.04760741700000004,-25046.0,0.375,-360.0,-427.0315920690178,0.0,0.25,1.470947115,4.814604269028877,-0.05493163499999998,-0.10000000149011612,-0.2800000011920929,-61.29999923706055,-0.02001953125,-0.007568359375,0.95880126953125,33.34000015258789,0.0,-2.0,4.2164459228515625,-0.9208831787109375,Closing,0.0,0.0,3.0,0.0,0.0,0.0,0.0,0.0,
7.312496000000014,0.0,0.0,19603.0,0.0,390.0,NaN,0.0,0.25,0.678710868,NaN,0.0,-23338.0,0.125,-360.0,NaN,0.0,0.25,0.372314415,NaN,0.0,-1682.0,3.125,412.5,NaN,0.0,0.125,3.2165524050000003,NaN,-0.02075195099999938,-25046.0,0.125,-367.5,NaN,0.0,0.25,1.470947115,NaN,-0.023193357000000248,-0.11999999731779099,-0.3100000023841858,-61.38999938964844,-0.04327392578125,0.0103759765625,0.9200439453125,33.34000015258789,0.0,-29.0,4.2162628173828125,-0.9210662841796875,Closing,0.0,0.0,3.0,0.0,0.0,0.0,0.0,0.0,
7.385652000000002,0.0,0.0,19659.0,0.375,315.0,NaN,0.0,0.125,0.678710868,NaN,-0.0012207030000004337,-23391.0,0.0,-322.5,NaN,0.0,0.0,0.373535118,NaN,0.0,-1624.0,1.25,367.5,NaN,0.0,0.0,3.2055660780000004,NaN,0.0,-25105.0,0.125,-322.5,NaN,0.0,0.125,1.470947115,NaN,-0.0012207029999995456,-0.029999999329447746,-0.6000000238418579,-61.369998931884766,-0.083251953125,0.00250244140625,1.09576416015625,33.34000015258789,0.0,-37.0,4.2138824462890625,-0.9239959716796875,Closing,0.0,0.0,3.0,0.0,0.0,0.0,0.0,0.0,
7.466794000000023,0.0,0.0,19701.0,0.625,270.0,NaN,0.0,0.125,0.678710868,NaN,0.0012207030000004337,-23437.0,0.0,-262.5,NaN,0.0,0.0,0.372314415,NaN,0.0,-1624.0,1.125,285.0,NaN,0.0,0.0,3.2055660780000004,NaN,0.0,-25151.0,0.0,-277.5,NaN,0.0,0.125,1.470947115,NaN,0.0,0.0,-0.8199999928474426,-61.41999816894531,-0.0791015625,0.02093505859375,1.041748046875,33.34000015258789,0.0,-49.0,4.210052490234375,-0.9291229248046875,Closing,0.0,0.0,3.0,0.0,0.0,0.0,0.0,0.0,
7.569794000000024,0.0,0.0,19701.0,0.625,195.0,NaN,0.0,0.125,0.678710868,NaN,0.0,-23462.0,0.0,-180.0,NaN,0.0,0.0,0.372314415,NaN,0.0,-1583.0,1.125,187.5,NaN,0.0,0.0,3.2055660780000004,NaN,0.0,-25177.0,0.125,-180.0,NaN,0.0,0.125,1.470947115,NaN,0.0012207029999995456,0.07000000029802322,-1.0800000429153442,-61.5,-0.07904052734375,0.01739501953125,0.99200439453125,33.34000015258789,0.0,-42.0,4.2033233642578125,-0.9380645751953125,Closing,0.0,0.0,3.0,0.0,0.0,0.0,0.0,0.0,
7.628583000000013,0.0,0.0,19726.0,0.625,135.0,NaN,0.0,0.125,0.678710868,NaN,0.0,-23462.0,0.0,-127.5,NaN,0.0,0.0,0.372314415,NaN,0.0,-1561.0,1.125,142.5,NaN,0.0,0.0,3.2055660780000004,NaN,0.0,-25177.0,0.0,-105.0,NaN,0.0,0.125,1.470947115,NaN,-0.0012207029999995456,0.09000000357627869,-1.2999999523162842,-61.52000045776367,-0.064453125,0.02972412109375,1.04998779296875,33.34000015258789,0.0,-43.0,4.196014404296875,-0.9473876953125,Closing,0.0,0.0,3.0,0.0,0.0,0.0,0.0,0.0,
7.710181000000011,0.0,0.0,19735.0,0.375,67.5,NaN,0.0,0.125,0.679931571,NaN,0.0,-23471.0,0.0,-52.5,NaN,0.0,0.0,0.372314415,NaN,0.0,-1561.0,1.5,75.0,NaN,0.0,0.0,3.2055660780000004,NaN,0.0,-25186.0,0.0,-52.5,NaN,0.0,0.125,1.4721678180000002,NaN,0.0,0.12999999523162842,-1.399999976158142,-61.56999969482422,-0.05889892578125,0.00921630859375,1.00048828125,33.34000015258789,0.0,-22.0,4.1877593994140625,-0.957794189453125,Closing,0.0,0.0,3.0,0.0,0.0,0.0,0.0,0.0,
7.785387000000017,0.0,0.0,19735.0,0.375,7.5,NaN,0.0,0.125,0.678710868,NaN,0.0,-23471.0,0.0,0.0,NaN,0.0,0.0,0.372314415,NaN,-0.0012207029999995456,-1554.0,1.75,22.5,NaN,0.0,0.0,3.2067867810000004,NaN,0.0,-25187.0,0.125,-7.5,NaN,0.0,0.125,1.470947115,NaN,0.0,0.15000000596046448,-1.4299999475479126,-61.560001373291016,0.0146484375,0.00201416015625,0.99755859375,33.31999969482422,0.0,19.0,4.1842193603515625,-0.96209716796875,Closing,0.0,0.0,3.0,0.0,0.0,0.0,0.0,0.0,
7.911050000000017,0.0,0.0,19735.0,0.375,0.0,NaN,0.0,0.125,0.678710868,NaN,0.0,-23471.0,0.0,0.0,NaN,0.0,0.0,0.372314415,NaN,0.0012207029999995456,-1554.0,1.75,0.0,NaN,0.0,0.0,3.2055660780000004,NaN,0.0,-25187.0,0.125,0.0,NaN,0.0,0.125,1.470947115,NaN,0.0,0.14000000059604645,-1.2899999618530273,-61.56999969482422,-0.00653076171875,0.00360107421875,1.00982666015625,33.31999969482422,0.0,6.0,4.184417724609375,-0.961151123046875,Closing,0.0,0.0,3.0,0.0,0.0,0.0,0.0,0.0,
8.040146000000007,0.0,0.0,19735.0,0.125,0.0,435.66151586552843,0.0,0.125,0.678710868,4.721129584569014,0.0,-23471.0,0.125,-22.5,-435.66151586552843,0.0,0.0,0.373535118,4.751299436706716,0.0,-1554.0,4.0,0.0,435.66151586552843,0.0,0.0,3.2055660780000004,4.728929772553091,0.0,-25194.0,0.375,-15.0,-435.66151586552843,0.0,0.125,1.467285006,4.745776417358559,0.0012207029999995456,0.1599999964237213,-1.1399999856948853,-61.599998474121094,0.021728515625,0.00311279296875,1.0384521484375,33.31999969482422,0.0,19.0,4.1845855712890625,-0.96063232421875,Closing,0.0,0.0,3.0,0.0,0.0,0.0,0.0,0.0,
8.175379000000015,0.0,0.0,19736.0,0.125,52.5,437.41434880335436,0.0,0.25,0.6457518870000001,4.7100024765632575,-0.014648435999999876,-23502.0,0.5,-172.5,-437.41434880335436,0.0,0.25,0.339355434,4.740101222158078,-0.009765623999999917,-1551.0,8.125,37.5,437.41434880335436,0.0,0.125,3.172607097,4.717784280486358,-0.014648436000000764,-25215.0,0.75,-127.5,-437.41434880335436,0.0,0.25,1.4465330550000002,4.7345912198711355,-0.010986326999999463,0.10999999940395355,-0.8600000143051147,-61.61000061035156,0.053955078125,-0.02850341796875,0.971923828125,33.31999969482422,0.0,73.0,4.187042236328125,-0.95660400390625,Closing,0.0,0.0,3.0,0.0,0.0,0.0,0.0,0.0,
8.309969000000011,0.0,0.0,19780.0,0.125,172.5,437.41434880335436,0.0,0.25,0.6066893910000001,4.7100024765632575,-0.048828120000000474,-23529.0,1.875,-150.0,-437.41434880335436,0.0,0.125,0.295410126,4.740101222158078,0.0,-1535.0,9.375,172.5,437.41434880335436,0.0,0.0,3.1164547590000002,4.717784280486358,0.0,-25239.0,1.625,-157.5,-437.41434880335436,0.0,0.25,1.417236183,4.7345912198711355,0.0,-0.009999999776482582,-0.27000001072883606,-61.68000030517578,0.10638427734375,-0.03411865234375,0.99639892578125,33.29999923706055,0.0,82.0,4.1959228515625,-0.94476318359375,Closing,0.0,0.0,3.0,0.0,0.0,0.0,0.0,0.0,
8.435619000000006,0.0,0.0,19829.0,0.125,300.0,437.41434880335436,0.0,0.25,0.6066893910000001,4.7100024765632575,-0.009765623999999917,-23575.0,1.75,-277.5,-437.41434880335436,0.0,0.125,0.301513641,4.740101222158078,-0.010986327000000351,-1502.0,8.75,315.0,437.41434880335436,0.0,0.0,3.1176754620000002,4.717784280486358,-0.014648435999999876,-25280.0,1.375,-270.0,-437.41434880335436,0.0,0.25,1.417236183,4.7345912198711355,-0.004882811999999959,-0.07999999821186066,0.07000000029802322,-61.75,0.05548095703125,-0.00836181640625,1.0211181640625,33.29999923706055,0.0,31.0,4.2065887451171875,-0.9315338134765625,Closing,0.0,0.0,3.0,0.0,0.0,0.0,0.0,0.0,
8.579097999999998,0.0,0.0,19884.0,0.125,367.5,437.41434880335436,0.0,0.125,0.6066893910000001,4.7100024765632575,0.0012207030000004337,-23638.0,1.125,-405.0,-437.41434880335436,0.0,0.125,0.295410126,4.740101222158078,0.0012207030000004337,-1371.0,6.875,442.5,437.41434880335436,0.0,0.0,3.118896165,4.717784280486358,0.0,-25343.0,1.0,-390.0,-437.41434880335436,0.0,0.25,1.417236183,4.7345912198711355,0.0,-0.1599999964237213,0.36000001430511475,-61.84000015258789,0.00531005859375,-0.02435302734375,0.9705810546875,33.29999923706055,0.0,18.0,4.2237701416015625,-0.9066162109375,Closing,0.0,0.0,3.0,0.0,0.0,0.0,0.0,0.0,
8.704248000000021,0.0,0.0,19956.0,0.0,457.5,439.2543575481068,0.0,0.25,0.6066893910000001,4.698966387762507,-0.0012207030000004337,-23709.0,0.75,-465.0,-439.2543575481068,0.0,0.125,0.295410126,4.728994608462525,0.0,-1290.0,5.625,502.5,439.2543575481068,0.0,0.0,3.1164547590000002,4.706729958005359,0.0,-25411.0,0.75,-487.5,-439.2543575481068,0.0,0.25,1.417236183,4.723497516757868,0.0,-0.20000000298023224,0.4099999964237213,-61.900001525878906,-0.0079345703125,0.00360107421875,0.94781494140625,33.29999923706055,0.0,-13.0,4.2238311767578125,-0.8813018798828125,Closing,0.0,0.0,3.0,0.0,0.0,0.0,0.0,0.0,
8.840440000000003,0.0,0.0,20033.0,0.375,480.0,437.41434880335436,0.0,0.125,0.6066893910000001,4.7100024765632575,0.0012207030000004337,-23786.0,0.375,-487.5,-437.41434880335436,0.0,0.125,0.29663082900000004,4.740101222158078,-0.0012207030000004337,-1208.0,4.875,517.5,437.41434880335436,0.0,0.0,3.1164547590000002,4.717784280486358,-0.0012207029999995456,-25484.0,0.75,-480.0,-437.41434880335436,0.0,0.25,1.417236183,4.7345912198711355,0.0,-0.17000000178813934,0.3199999928474426,-62.02000045776367,-0.013427734375,-0.02569580078125,1.15814208984375,33.31999969482422,0.0,10.0,4.2238006591796875,-0.88128662109375,Closing,0.0,0.0,3.0,0.0,0.0,0.0,0.0,0.0,
8.978944000000018,0.0,0.0,20114.0,0.125,495.0,437.41434880335436,0.0,0.125,0.6066893910000001,4.7100024765632575,0.0,-23863.0,0.25,-495.0,-437.41434880335436,0.0,0.125,0.295410126,4.740101222158078,0.0012207030000004337,-1123.0,4.0,525.0,437.41434880335436,0.0,0.0,3.1164547590000002,4.717784280486358,0.0,-25555.0,0.75,-472.5,-437.41434880335436,0.0,0.25,1.418456886,4.7345912198711355,0.0,-0.14000000059604645,0.23999999463558197,-62.099998474121094,-0.02117919921875,0.05230712890625,1.064697265625,33.31999969482422,0.0,-60.0,4.22308349609375,-0.881561279296875,Closing,0.0,0.0,3.0,0.0,0.0,0.0,0.0,0.0,
9.106685000000027,0.0,0.0,20192.0,0.125,480.0,433.99691499659593,0.0,0.125,0.617675718,4.732344317004644,0.0,-23940.0,0.25,-450.0,-433.99691499659593,0.0,0.125,0.294189423,4.762585835639374,0.0,-1039.0,3.375,525.0,433.99691499659593,0.0,0.0,3.1176754620000002,4.7401630338216245,0.0,-25705.0,0.625,-465.0,-433.99691499659593,0.0,0.125,1.418456886,4.757049696722454,0.0,-0.05000000074505806,0.1599999964237213,-62.22999954223633,0.0145263671875,-0.04254150390625,0.91650390625,33.31999969482422,0.0,42.0,4.2224578857421875,-0.881805419921875,Closing,0.0,0.0,3.0,0.0,0.0,0.0,0.0,0.0,
9.244523000000015,0.0,0.0,20267.0,0.125,457.5,433.99691499659593,0.0,0.125,0.6066893910000001,4.732344317004644,-0.0012207030000004337,-24012.0,0.25,-45