Time,ClimberA1,ClimberA2,FRpos,FRCurrent,FRspeed,FRsetpoint,FRApos,FRACurrent,FREncpos,FREncSetpoint,FREncSpeed,FLpos,FLCurrent,FLspeed,FLsetpoint,FLApos,FLACurrent,FLEncpos,FLEncSetpoint,FLEncSpeed,BRpos,BRCurrent,BRspeed,BRsetpoint,BRApos,BRACurrent,BREncpos,BREncSetpoint,BREncSpeed,BLpos,BLCurrent,BLspeed,BLsetpoint,BLApos,BLACurrent,BLEncpos,BLEncSetpoint,BLEncSpeed,navx_Pitch,navx_Roll,navx_Yaw,navx_XAcc,navx_YAcc,navx_ZAcc,navx_Temp,navx_Bar,navx_Alt,navx_XDis,navx_YDis,GearPlacerState,ShootOutputV,ShootOutputCurrent,ShootEncPos,ShootEncVelocity,ShootSpeed,ShootSetpoint,CarouselSetpoint,CarouselCurrent,
0.16314600000006613,0.0,0.0,105025.0,0.0,0.0,0.0,0.0,0.25,3.2678219310000003,2.4661255000000026,0.0,-138232.0,0.0,0.0,0.0,0.0,0.25,2.9614254780000002,2.4818850000000023,0.0,13301.0,0.0,0.0,0.0,0.0,0.0,0.89111319,2.470199999999998,0.0,-39146.0,0.125,0.0,0.0,0.0,0.125,4.096679268,2.4789999999999974,0.0,0.14000000059604645,-0.5600000023841858,-109.9000015258789,0.00958251953125,0.037353515625,1.01519775390625,36.470001220703125,0.0,-39.0,0.4145965576171875,-0.4876556396484375,Closing,0.0,0.0,3.0,0.0,0.0,0.0,0.0,0.0,
0.33316399999998975,0.0,0.0,105025.0,0.0,0.0,0.0,0.0,2.375,2.60009739,0.01,0.0,-138232.0,0.0,0.0,-0.0,0.0,2.375,2.3278806210000003,0.01,0.0,13301.0,0.0,-30.0,0.0,0.0,2.125,1.705322091,0.01,0.0,-39146.0,0.125,0.0,-0.0,0.0,2.25,3.339843408,0.01,0.0,0.17000000178813934,-0.6899999976158142,-110.02999877929688,-0.08599853515625,-0.03271484375,1.1500244140625,36.470001220703125,0.0,58.0,0.4074859619140625,-0.489288330078125,Closing,0.0,0.0,3.0,0.0,0.0,0.0,0.0,0.0,
0.4965280000000494,0.0,0.0,105029.0,0.0,15.0,0.0,0.0,1.75,1.412353371,0.01,0.0,-138232.0,0.0,0.0,-0.0,0.0,1.5,1.142578008,0.01,0.0,13289.0,0.125,-30.0,0.0,0.0,1.875,2.915038764,0.01,0.0,-39140.0,0.25,75.0,-0.0,0.0,1.875,2.1215818140000002,0.01,0.0,0.07000000029802322,-0.5,-110.4000015258789,-0.01092529296875,-0.021484375,1.05914306640625,36.470001220703125,0.0,21.0,0.405364990234375,-0.4928131103515625,Closing,0.0,0.0,3.0,0.0,0.0,0.0,0.0,0.0,
0.6720310000000754,0.0,0.0,105033.0,0.125,37.5,0.0,0.0,0.875,0.482177685,0.01,0.0,-138227.0,0.0,75.0,-0.0,0.0,0.875,0.17456052900000002,0.01,0.0,13286.0,0.125,-22.5,0.0,0.0,0.5,3.7854000030000003,0.01,0.0,-39122.0,0.25,45.0,-0.0,0.0,0.875,1.2145994850000001,0.01,0.0,0.3199999928474426,-0.47999998927116394,-110.51000213623047,0.0244140625,-0.0029296875,1.03363037109375,36.45000076293945,0.0,-3.0,0.406982421875,-0.4933319091796875,Closing,0.0,0.0,3.0,0.0,0.0,0.0,0.0,0.0,
0.8333080000000773,0.0,0.0,105043.0,0.125,37.5,0.0,0.0,0.5,0.506591745,0.01,0.0,-138217.0,0.0,0.0,-0.0,0.0,0.25,0.15502928100000002,0.01,0.0,13284.0,0.125,0.0,0.0,0.0,0.25,3.6242672070000004,0.01,0.0,-39123.0,0.25,0.0,-0.0,0.0,0.375,1.365966657,0.01,0.0,0.12999999523162842,-0.5,-110.19999694824219,-0.04766845703125,0.04351806640625,0.98626708984375,36.45000076293945,0.0,-25.0,0.4075469970703125,-0.4921875,Closing,0.0,0.0,3.0,0.0,0.0,0.0,0.0,0.0,
1.0029700000000885,0.0,0.0,105043.0,0.125,0.0,0.0,0.0,0.625,0.863037021,0.01,0.0,-138217.0,0.0,0.0,-0.0,0.0,0.5,0.5944823610000001,0.01,0.0,13284.0,0.125,0.0,0.0,0.0,0.375,3.299560209,0.01,0.0,-39124.0,0.25,-15.0,-0.0,0.0,0.75,1.697997873,0.01,0.0,0.20000000298023224,-0.5799999833106995,-110.22000122070312,0.00897216796875,0.028076171875,0.96990966796875,36.45000076293945,0.0,-29.0,0.409332275390625,-0.49407958984375,Closing,0.0,0.0,3.0,0.0,0.0,0.0,0.0,0.0,
1.16953600000008,0.0,0.0,105043.0,0.125,0.0,0.0,0.0,0.25,0.8557128030000001,0.01,0.0,-138217.0,0.0,0.0,-0.0,0.0,0.25,0.5664061920000001,0.01,0.0,13284.0,0.125,0.0,0.0,0.0,0.0,3.333739893,0.01,0.0,-39126.0,0.25,0.0,-0.0,0.0,0.25,1.6345213170000001,0.01,0.0,0.20000000298023224,-0.5699999928474426,-110.22000122070312,-0.040771484375,-0.0362548828125,1.09710693359375,36.47999954223633,0.0,48.0,0.40972900390625,-0.49407958984375,Closing,0.0,0.0,3.0,0.0,0.0,0.0,0.0,0.0,
1.3330430000000633,0.0,0.0,104983.0,20.125,-292.5,-1845.3543519973755,0.0,0.25,0.8557128030000001,4.932250999999998,0.0,-138180.0,24.625,330.0,1845.3543519973755,0.0,0.25,0.526122993,4.963769999999998,0.0,13244.0,16.25,-277.5,-1845.3543519973755,0.0,0.0,3.3630367650000004,0.01,0.0,-39101.0,16.625,337.5,1845.3543519973755,0.0,0.125,1.5576170280000001,0.01,0.0,-0.009999999776482582,-2.640000104904175,-110.12999725341797,-0.3851318359375,0.01434326171875,0.84722900390625,36.47999954223633,0.0,105.0,0.4242706298828125,-0.5105133056640625,Closing,0.0,0.0,3.0,0.0,0.0,0.0,0.0,0.0,
1.4972210000000195,0.0,0.0,104828.0,19.5,-1132.5,-1984.2519235610962,0.0,0.25,0.8569335060000001,4.932250999999998,0.0,-138067.0,27.625,1080.0,1984.2519235610962,0.0,0.125,0.527343696,4.963769999999998,0.0,13096.0,16.25,-1207.5,-1984.2519235610962,0.0,0.0,3.3618160620000004,0.01,0.0,-38813.0,18.875,1102.5,1984.2519235610962,0.0,0.25,1.572265464,0.01,0.0,0.10999999940395355,-4.570000171661377,-109.05999755859375,-0.39794921875,-0.02850341796875,1.0252685546875,36.47999954223633,0.0,132.0,0.4595489501953125,-0.5784759521484375,Closing,0.0,0.0,3.0,0.0,0.0,0.0,0.0,0.0,
1.671722999999998,0.0,0.0,104257.0,26.25,-1980.0,-2875.45001854035,0.0,0.25,0.942382716,0.18800047357340516,0.0,-137615.0,6.0,1582.5,1358.7345900587409,0.0,0.5,0.770263593,0.4154747535576219,0.0,12520.0,25.125,-2100.0,-2875.45001854035,0.0,0.25,3.251952792,4.752088914525629,0.0,-38572.0,4.625,1567.5,1358.7345900587409,0.0,0.5,1.329345567,4.543008203817121,0.0,-0.009999999776482582,-5.75,-105.72000122070312,0.01800537109375,0.232666015625,1.02703857421875,36.45000076293945,0.0,-257.0,0.515869140625,-0.7037811279296875,Closing,0.0,0.0,3.0,0.0,0.0,0.0,0.0,0.0,
1.8529610000000103,0.0,0.0,103914.0,0.0,-2010.0,-277.79527455568314,0.0,0.375,0.886230378,4.932250999999998,0.0,-137383.0,0.0,1125.0,277.79527455568314,0.0,0.25,0.7751464050000001,4.963769999999998,0.0,12197.0,0.0,-1717.5,-277.79527455568314,0.0,0.125,3.2629391190000003,0.01,0.0,-38336.0,0.5,1012.5,277.79527455568314,0.0,0.375,1.5026853930000001,0.01,0.0,0.05999999865889549,-4.440000057220459,-95.94000244140625,0.182861328125,0.2435302734375,1.0596923828125,36.45000076293945,0.0,-268.0,0.5531005859375,-0.8027496337890625,Closing,0.0,0.0,3.0,0.0,0.0,0.0,0.0,0.0,
2.019666000000085,0.0,0.0,103617.0,0.375,-1590.0,-257.95276433229446,0.0,0.375,0.822753822,4.932250999999998,0.0,-137031.0,0.0,1065.0,257.95276433229446,0.0,0.25,0.47363276400000004,4.963769999999998,0.0,11920.0,0.875,-1575.0,-257.95276433229446,0.0,0.125,3.358153953,0.01,0.0,-38014.0,0.25,1005.0,257.95276433229446,0.0,0.375,1.6833494370000002,0.01,0.0,0.5,-2.690000057220459,-89.66000366210938,0.32666015625,0.0595703125,1.0517578125,36.45000076293945,0.0,-48.0,0.5637359619140625,-0.8712921142578125,Closing,0.0,0.0,3.0,0.0,0.0,0.0,0.0,0.0,
2.17441399999999,0.0,0.0,103308.0,0.125,-750.0,-218.26772511005402,0.0,0.125,0.7788085140000001,4.932250999999998,0.0,-136888.0,1.5,795.0,218.26772511005402,0.0,0.25,0.35400387,4.963769999999998,0.0,11596.0,0.625,-705.0,-218.26772511005402,0.0,0.0,3.391112934,0.01,0.0,-37859.0,0.625,817.5,218.26772511005402,0.0,0.25,1.72119123,0.01,0.0,0.5299999713897705,-0.5199999809265137,-90.9800033569336,0.1640625,0.0452880859375,1.17083740234375,36.33000183105469,0.0,-37.0,0.5657501220703125,-0.89190673828125,Closing,0.0,0.0,3.0,0.0,0.0,0.0,0.0,0.0,
2.3348010000000943,0.0,0.0,103215.0,12.625,-645.0,-1941.2780993188787,0.0,0.875,1.063232313,0.49288017470872103,0.0,-136842.0,17.75,-442.5,-1608.572302541111,0.0,0.875,0.137939439,4.341259644770438,0.0,11516.0,13.0,-510.0,-1941.2780993188787,0.0,0.5,3.1005856200000004,4.446705495172293,0.0,-37778.0,31.75,52.5,-1608.572302541111,0.0,1.0,2.048339634,0.6217867349269139,0.0,0.10000000149011612,1.1799999475479126,-88.47000122070312,0.17364501953125,0.165771484375,1.2171630859375,36.33000183105469,0.0,-159.0,0.57489013671875,-0.8704071044921875,Closing,0.0,0.0,3.0,0.0,0.0,0.0,0.0,0.0,
2.492738000000012,0.0,0.0,103167.0,0.0,-180.0,0.0,0.0,0.75,1.285400259,0.49288017470872103,0.0,-137004.0,0.0,-142.5,0.0,0.0,0.25,4.727782719,4.341259644770438,0.0,11446.0,0.0,-97.5,0.0,0.0,0.25,2.7368161260000003,4.446705495172293,0.0,-37812.0,0.125,-112.5,0.0,0.0,0.375,2.3767087410000003,0.6217867349269139,0.0,0.8999999761581421,0.8899999856948853,-84.08999633789062,-0.18377685546875,0.00665283203125,1.40069580078125,36.33000183105469,0.0,-5.0,0.5795135498046875,-0.841033935546875,Closing,0.0,0.0,3.0,0.0,0.0,0.0,0.0,0.0,
2.647275000000023,0.0,0.0,103123.0,0.0,-97.5,0.0,0.0,0.125,1.357421736,0.49288017470872103,0.0,-137014.0,0.0,-60.0,0.0,0.0,0.25,4.721679204,4.341259644770438,0.0,11420.0,0.0,-97.5,0.0,0.0,0.125,2.717284878,4.446705495172293,0.0,-37830.0,0.125,-60.0,0.0,0.0,0.5,2.399902098,0.6217867349269139,0.0,0.5799999833106995,0.8299999833106995,-82.91999816894531,0.01715087890625,0.0623779296875,0.89154052734375,36.33000183105469,0.0,-52.0,0.582061767578125,-0.8194732666015625,Closing,0.0,0.0,3.0,0.0,0.0,0.0,0.0,0.125,
2.8011300000000046,0.0,0.0,103053.0,17.125,-525.0,-2066.929149627686,0.0,0.125,1.390380717,0.5498168668524864,0.0,-137068.0,23.5,-547.5,-2066.929149627686,0.0,0.25,4.794921384,4.41043958977222,0.0,11407.0,23.0,-240.0,-2066.929149627686,0.0,0.0,2.833251663,4.389674732977291,0.0,-37866.0,20.5,-420.0,-2066.929149627686,0.0,0.5,2.236327896,0.552687206278561,0.0,0.550000011920929,0.1599999964237213,-79.0199966430664,-0.09423828125,-0.1334228515625,0.86773681640625,36.380001068115234,0.0,120.0,0.5878448486328125,-0.82342529296875,Closing,0.0,0.0,3.0,0.0,0.0,0.0,0.0,0.0,
2.9605650000000607,0.0,0.0,102927.0,0.0,-757.5,0.0,0.0,0.25,1.376952984,0.5498168668524864,0.0,-137280.0,0.0,-630.0,0.0,0.0,0.25,4.951171368000001,4.41043958977222,0.0,11271.0,0.0,-787.5,0.0,0.0,0.125,2.8430172870000003,4.389674732977291,0.0,-38056.0,0.125,-660.0,0.0,0.0,0.25,2.149657983,0.552687206278561,0.0,0.6600000262260437,0.1599999964237213,-64.69999694824219,0.1048583984375,-0.003662109375,1.05718994140625,36.380001068115234,0.0,57.0,0.6005096435546875,-0.834136962890625,Closing,0.0,0.0,3.0,0.0,0.0,0.0,0.0,0.0,
3.1228080000000773,0.0,0.0,102718.0,0.0,-525.0,0.0,0.0,0.25,1.39160142,0.5498168668524864,0.0,-137374.0,0.0,-585.0,0.0,0.0,0.25,0.014648436,4.41043958977222,0.0,11078.0,0.0,-517.5,0.0,0.0,0.125,2.833251663,4.389674732977291,0.0,-38144.0,0.125,-555.0,0.0,0.0,0.25,2.139892359,0.552687206278561,0.0,0.6800000071525574,0.0,-54.619998931884766,0.010986328125,-0.117431640625,1.01116943359375,36.380001068115234,0.0,111.0,0.614532470703125,-0.8347625732421875,Closing,0.0,0.0,3.0,0.0,0.0,0.0,0.0,0.0,
3.2896310000000524,0.0,0.0,102649.0,2.625,-375.0,-1071.4960777759552,0.0,1.0,1.079101452,4.932250999999998,0.0,-137422.0,19.125,0.0,1071.4960777759552,0.0,1.25,0.29052731400000004,4.963769999999998,0.0,11027.0,4.25,-375.0,-1071.4960777759552,0.0,0.375,3.178710612,0.01,0.0,-38202.0,11.875,-60.0,1071.4960777759552,0.0,0.625,1.7858884890000002,0.01,0.0,0.7099999785423279,-0.6299999952316284,-51.880001068115234,-0.18701171875,-0.02777099609375,1.03558349609375,36.369998931884766,0.0,-76.0,0.627288818359375,-0.84033203125,Closing,0.0,0.0,3.0,0.0,0.0,0.0,0.0,0.0,
3.448216000000015,0.0,0.0,102636.0,15.375,-292.5,-1527.874038219452,0.0,0.5,0.79345695,4.932250999999998,0.0,-137302.0,30.5,472.5,1527.874038219452,0.0,0.5,0.527343696,4.963769999999998,0.0,10999.0,15.375,-195.0,-1527.874038219452,0.0,0.125,3.513183234,0.01,0.0,-38088.0,19.625,532.5,1527.874038219452,0.0,0.25,1.3745115780000001,0.01,0.0,0.6000000238418579,-2.380000114440918,-52.88999938964844,-0.317138671875,0.14031982421875,1.0404052734375,36.369998931884766,0.0,-268.0,0.6242523193359375,-0.8667449951171875,Closing,0.0,0.0,3.0,0.0,0.0,0.0,0.0,0.125,
3.6062070000000532,0.0,0.0,102353.0,11.75,-1012.5,-1527.874038219452,0.0,0.25,0.7397460180000001,4.932250999999998,0.0,-137140.0,26.25,1065.0,1527.874038219452,0.0,0.125,0.565185489,4.963769999999998,0.0,10820.0,18.625,-727.5,-1527.874038219452,0.0,0.25,3.489989877,0.01,0.0,-37949.0,20.0,922.5,1527.874038219452,0.0,0.375,1.496581878,0.01,0.0,0.7799999713897705,-3.7799999713897705,-52.22999954223633,-0.17877197265625,-0.050048828125,1.11138916015625,36.369998931884766,0.0,-12.0,0.59136962890625,-0.9243011474609375,Closing,0.0,0.0,3.0,0.0,0.0,0.0,0.0,0.0,
3.756492000000086,0.0,0.0,102126.0,9.75,-1410.0,-1567.5590586662292,0.0,0.25,0.7775878110000001,4.932250999999998,0.0,-136923.0,18.5,1485.0,1567.5590586662292,0.0,0.25,0.533447211,4.963769999999998,0.0,10603.0,15.125,-1447.5,-1567.5590586662292,0.0,0.25,3.435058242,0.01,0.0,-37752.0,14.0,1440.0,1567.5590586662292,0.0,0.375,1.649169753,0.01,0.0,0.5400000214576721,-4.880000114440918,-52.630001068115234,-0.18682861328125,-0.01763916015625,0.9605712890625,36.33000183105469,0.0,-42.0,0.538543701171875,-0.9966583251953125,Closing,0.0,0.0,3.0,0.0,0.0,0.0,0.0,0.0,
3.913915000000037,0.0,0.0,101865.0,5.5,-1717.5,-1567.5590586662292,0.0,0.25,0.786132732,4.932250999999998,0.0,-136654.0,9.125,1822.5,1567.5590586662292,0.0,0.25,0.527343696,4.963769999999998,0.0,10338.0,9.0,-1747.5,-1567.5590586662292,0.0,0.125,3.382568013,0.01,0.0,-37200.0,7.0,1845.0,1567.5590586662292,0.0,0.25,1.6833494370000002,0.01,0.0,0.4399999976158142,-5.269999980926514,-53.70000076293945,-0.34967041015625,-0.05926513671875,1.10443115234375,36.33000183105469,0.0,-91.0,0.4864501953125,-1.076171875,Closing,0.0,0.0,3.0,0.0,0.0,0.0,0.0,0.0,
4.076190000000061,0.0,0.0,101579.0,3.125,-1800.0,-1567.5590586662292,0.0,0.125,0.795898356,4.932250999999998,0.0,-136048.0,4.75,1920.0,1567.5590586662292,0.0,0.125,0.5285643990000001,4.963769999999998,0.0,9747.0,5.25,-1875.0,-1567.5590586662292,0.0,0.125,3.3618160620000004,0.01,0.0,-36892.0,4.0,1927.5,1567.5590586662292,0.0,0.25,1.665038892,0.01,0.0,0.41999998688697815,-4.929999828338623,-54.970001220703125,0.0242919921875,-0.08917236328125,0.41534423828125,36.33000183105469,0.0,109.0,0.434783935546875,-1.16082763671875,Closing,0.0,0.0,3.0,0.0,0.0,0.0,0.0,0.0,
4.231726000000024,0.0,0.0,100952.0,20.0,-2047.5,-2947.930176005359,0.0,0.375,0.942382716,0.2752105693836777,0.0,-135772.0,0.125,1642.5,1076.7689469322956,0.0,1.5,1.077880749,0.9665563803010491,0.0,9403.0,22.875,-2167.5,-2947.930176005359,0.0,0.25,3.2080074840000004,4.6647347313461704,0.0,-36598.0,0.375,1740.0,1076.7689469322956,0.0,1.25,1.1096190270000001,3.9925671669854563,0.0,0.17000000178813934,-4.809999942779541,-54.560001373291016,-0.10888671875,-0.356689453125,0.76947021484375,36.29999923706055,0.0,266.0,0.382232666015625,-1.245452880859375,Closing,0.0,0.0,3.0,0.0,0.0,0.0,0.0,0.0,
4.384743000000017,0.0,0.0,100604.0,0.0,-2070.0,-674.6456480026245,0.0,0.375,1.026611223,4.932250999999998,0.0,-135542.0,0.625,960.0,674.6456480026245,0.0,0.5,1.246337763,4.963769999999998,0.0,9048.0,0.0,-2017.5,-674.6456480026245,0.0,0.125,3.1530758490000004,0.01,0.0,-36235.0,1.625,825.0,674.6456480026245,0.0,0.875,0.9887694300000001,0.01,0.0,0.3199999928474426,-1.940000057220459,-39.209999084472656,0.1646728515625,0.4105224609375,0.83917236328125,36.29999923706055,0.0,-106.0,0.3445587158203125,-1.3111724853515625,Closing,0.0,0.0,3.0,0.0,0.0,0.0,0.0,0.0,
4.548376000000047,0.0,0.0,100277.0,0.0,-1755.0,0.0,0.0,0.375,0.847167882,4.932250999999998,0.0,-135268.0,0.0,757.5,0.0,0.0,0.875,0.377197227,4.963769999999998,0.0,8487.0,0.0,-1672.5,0.0,0.0,0.125,3.3801266070000002,0.01,0.0,-36151.0,0.125,495.0,0.0,0.0,0.875,1.7907713010000001,0.01,0.0,0.9200000166893005,-1.9500000476837158,-26.219999313354492,-0.0167236328125,0.15948486328125,1.30963134765625,36.29999923706055,0.0,-36.0,0.318023681640625,-1.3299102783203125,Closing,0.0,0.0,3.0,0.0,0.0,0.0,0.0,0.0,
4.711915000000038,0.0,0.0,99894.0,0.0,-832.5,0.0,0.0,0.25,0.782470623,4.932250999999998,0.0,-135147.0,0.0,690.0,0.0,0.0,0.25,0.159912093,4.963769999999998,0.0,8330.0,0.0,-810.0,0.0,0.0,0.125,3.435058242,0.01,0.0,-36026.0,0.125,765.0,0.0,0.0,0.5,1.8908689470000002,0.01,0.0,0.9900000095367432,-0.09000000357627869,-25.489999771118164,0.17510986328125,0.19122314453125,1.009765625,36.25,0.0,84.0,0.3117218017578125,-1.3309173583984375,Closing,0.0,0.0,3.0,0.0,0.0,0.0,0.0,0.0,
4.874063000000082,0.0,0.0,99841.0,0.0,-285.0,0.0,0.0,0.125,0.78124992,4.932250999999998,0.0,-135041.0,0.0,540.0,0.0,0.0,0.5,0.5407714290000001,4.963769999999998,0.0,8276.0,0.0,-300.0,0.0,0.0,0.125,3.4155269940000004,0.01,0.0,-35824.0,0.125,547.5,0.0,0.0,0.5,1.5771482760000002,0.01,0.0,0.9399999976158142,0.6600000262260437,-27.899999618530273,0.05877685546875,-0.06915283203125,1.15924072265625,36.25,0.0,81.0,0.330413818359375,-1.3199005126953125,Closing,0.0,0.0,3.0,0.0,0.0,0.0,0.0,0.0,
5.030350000000093,0.0,0.0,99810.0,19.25,60.0,1607.8125,0.0,1.25,1.014404193,0.5498168668524888,0.0,-134914.0,14.5,352.5,1607.8125,0.0,0.875,0.5419921320000001,4.410439589772222,0.0,8251.0,27.125,7.5,1607.8125,0.0,0.75,3.037109064,4.389674732977289,0.0,-35762.0,8.375,390.0,1607.8125,0.0,0.875,1.828613094,0.5526872062785588,0.0,0.7799999713897705,1.9299999475479126,-29.309999465942383,0.1590576171875,0.0892333984375,1.33843994140625,36.25,0.0,64.0,0.37200927734375,-1.3147735595703125,Closing,0.0,0.0,3.0,0.0,0.0,0.0,0.0,0.0,
5.188678000000072,0.0,0.0,99846.0,0.0,-22.5,0.0,0.0,0.5,1.5014646900000002,0.5498168668524888,0.0,-134911.0,0.0,0.0,0.0,0.0,1.5,4.906005357000001,4.410439589772222,0.0,8258.0,0.0,30.0,0.0,0.0,0.375,2.702636442,4.389674732977289,0.0,-35778.0,0.125,-135.0,0.0,0.0,0.625,2.337646245,0.5526872062785588,0.0,0.6899999976158142,1.2300000190734863,-29.520000457763672,0.01837158203125,0.10467529296875,1.0753173828125,36.25,0.0,-49.0,0.4178314208984375,-1.312469482421875,Closing,0.0,0.0,3.0,0.0,0.0,0.0,0.0,0.125,
5.341276000000071,0.0,0.0,99845.0,0.0,0.0,0.0,0.0,0.375,1.545409998,0.5498168668524888,0.0,-134908.0,0.0,22.5,0.0,0.0,0.125,4.613036637,4.410439589772222,0.0,8258.0,0.125,0.0,0.0,0.0,0.0,2.7416989380000003,4.389674732977289,0.0,-35780.0,0.125,0.0,0.0,0.0,0.25,2.337646245,0.5526872062785588,0.0,0.5899999737739563,1.2200000286102295,-30.520000457763672,-0.00213623046875,-0.053955078125,1.0849609375,36.2400016784668,0.0,11.0,0.4526824951171875,-1.313629150390625,Closing,0.0,0.0,3.0,0.0,0.0,0.0,0.0,0.0,
5.50101000000001,0.0,0.0,99834.0,3.5,-75.0,-773.8582742214203,0.0,1.5,1.015624896,4.932250999999998,0.0,-134883.0,4.25,172.5,773.8582742214203,0.0,1.5,0.22705075800000002,4.963769999999998,0.0,8257.0,3.25,-67.5,-773.8582742214203,0.0,0.75,3.251952792,0.01,0.0,-35750.0,2.875,202.5,773.8582742214203,0.0,1.0,1.7370603690000002,0.01,0.0,0.5400000214576721,0.699999988079071,-30.65999984741211,-0.07177734375,-0.0968017578125,1.19964599609375,36.2400016784668,0.0,-19.0,0.44696044921875,-1.322723388671875,Closing,0.0,0.0,3.0,0.0,0.0,0.0,0.0,0.0,
5.653013000000035,0.0,0.0,99803.0,2.0,-127.5,-297.63780355453486,0.0,0.375,0.631103451,4.932250999999998,0.0,-134870.0,2.625,97.5,297.63780355453486,0.0,0.5,0.690917898,4.963769999999998,0.0,8216.0,1.75,-150.0,-297.63780355453486,0.0,0.125,3.5400387,0.01,0.0,-35729.0,1.25,150.0,297.63780355453486,0.0,0.25,1.457519382,0.01,0.0,0.44999998807907104,0.03999999910593033,-30.510000228881836,-0.03857421875,-0.02301025390625,1.1265869140625,36.2400016784668,0.0,-17.0,0.4320220947265625,-1.342254638671875,Closing,0.0,0.0,3.0,0.0,0.0,0.0,0.0,0.0,
5.810043000000063,0.0,0.0,99791.0,0.0,-30.0,0.0,0.0,0.375,0.7006835220000001,4.932250999999998,0.0,-134847.0,0.0,22.5,0.0,0.0,0.25,0.721435473,4.963769999999998,0.0,8195.0,0.0,-60.0,0.0,0.0,0.25,3.439941054,0.01,0.0,-35702.0,0.125,7.5,0.0,0.0,0.25,1.518554532,0.01,0.0,0.36000001430511475,0.5299999713897705,-30.459999084472656,0.19219970703125,-0.01129150390625,1.06927490234375,36.22999954223633,0.0,166.0,0.4358978271484375,-1.367462158203125,Closing,0.0,0.0,3.0,0.0,0.0,0.0,0.0,0.0,
5.9682470000000905,0.0,0.0,99788.0,0.0,0.0,0.0,0.0,0.375,0.799560465,4.932250999999998,0.0,-134846.0,0.0,0.0,0.0,0.0,0.25,0.5029296360000001,4.963769999999998,0.0,8196.0,0.0,0.0,0.0,0.0,0.125,3.392333637,0.01,0.0,-35703.0,0.125,0.0,0.0,0.0,0.375,1.624755693,0.01,0.0,0.3499999940395355,0.7300000190734863,-30.559999465942383,-0.03009033203125,0.00274658203125,1.02191162109375,36.22999954223633,0.0,-35.0,0.4429779052734375,-1.376617431640625,Closing,0.0,0.0,3.0,0.0,0.0,0.0,0.0,0.0,
6.135319000000018,0.0,0.0,99780.0,3.25,-45.0,-669.375,0.0,1.875,0.2441406,3.6991882500000015,0.0,-134828.0,3.5,157.5,669.375,0.0,2.0,4.67529249,3.7228275000000015,0.0,8204.0,3.625,52.5,669.375,0.0,1.875,4.0881343470000004,1.2351000000000012,0.0,-35695.0,2.25,112.5,669.375,0.0,1.25,0.9729002910000001,3.7185000000000015,0.0,0.36000001430511475,0.23999999463558197,-30.75,-0.0933837890625,0.03729248046875,1.0643310546875,36.22999954223633,0.0,-99.0,0.438629150390625,-1.381011962890625,Closing,0.0,0.0,3.0,0.0,0.0,0.0,0.0,0.125,
6.296003000000026,0.0,0.0,99756.0,18.875,-232.5,-1496.25,0.0,1.25,4.436034702000001,3.6991882500000015,0.0,-134794.0,19.125,375.0,1496.25,0.0,0.25,4.0332027120000005,3.7228275000000015,0.0,8204.0,25.0,22.5,1496.25,0.0,1.125,4.674071787,1.2351000000000012,0.0,-35666.0,15.875,322.5,1496.25,0.0,0.625,0.173339826,3.7185000000000015,0.0,2.059999942779541,0.3499999940395355,-31.450000762939453,0.00482177734375,0.2872314453125,1.037353515625,36.279998779296875,0.0,-131.0,0.4218292236328125,-1.37646484375,Closing,0.0,0.0,3.0,0.0,0.0,0.0,0.0,0.0,
6.4514470000000435,0.0,0.0,99672.0,10.0,-585.0,-826.875,0.0,0.25,4.257812064,3.6991882500000015,0.0,-134597.0,8.625,682.5,826.875,0.0,0.25,3.93066366,3.7228275000000015,0.0,8229.0,18.625,240.0,826.875,0.0,0.125,4.791259275,1.2351000000000012,0.0,-35468.0,4.875,810.0,826.875,0.0,0.375,0.030517575,3.7185000000000015,0.0,2.700000047683716,0.9300000071525574,-29.729999542236328,0.00457763671875,0.04364013671875,0.9927978515625,36.279998779296875,0.0,-8.0,0.4022064208984375,-1.34503173828125,Closing,0.0,0.0,3.0,0.0,0.0,0.0,0.0,0.0,
6.609648000000044,0.0,0.0,99509.0,0.0,-382.5,0.0,0.0,0.5,4.459228059,3.6991882500000015,0.0,-134527.0,0.0,352.5,0.0,0.0,0.5,4.237060113,3.7228275000000015,0.0,8327.0,0.0,307.5,0.0,0.0,0.25,4.6105952310000005,1.2351000000000012,0.0,-35359.0,0.125,615.0,0.0,0.0,0.375,0.424804644,3.7185000000000015,0.0,1.7699999809265137,0.10999999940395355,-27.040000915527344,-0.11566162109375,-0.0860595703125,1.2001953125,36.279998779296875,0.0,-49.0,0.3780670166015625,-1.31005859375,Closing,0.0,0.0,3.0,0.0,0.0,0.0,0.0,0.0,
6.7705879999999885,0.0,0.0,99444.0,0.0,-397.5,0.0,0.0,0.25,4.554442893,3.6991882500000015,0.0,-134464.0,0.0,397.5,0.0,0.0,0.125,4.333495650000001,3.7228275000000015,0.0,8386.0,0.0,337.5,0.0,0.0,0.125,4.543456566000001,1.2351000000000012,0.0,-35257.0,0.125,225.0,0.0,0.0,0.25,0.531005805,3.7185000000000015,0.0,0.9300000071525574,-0.10999999940395355,-27.3799991607666,0.0660400390625,-0.16241455078125,0.94915771484375,36.2400016784668,0.0,142.0,0.354766845703125,-1.3047332763671875,Closing,0.0,0.0,3.0,0.0,0.0,0.0,0.0,0.0,
6.928987000000081,0.0,0.0,99395.0,0.125,-307.5,-654.8031377792358,0.0,1.5,0.496826121,4.932250999999998,0.0,-134364.0,0.75,262.5,654.8031377792358,0.0,1.5,0.275878878,4.963769999999998,0.0,8420.0,6.625,120.0,-654.8031377792358,0.0,2.375,4.04052693,0.01,0.0,-35183.0,1.25,277.5,654.8031377792358,0.0,1.5,1.3977049350000001,0.01,0.0,0.009999999776482582,-0.3199999928474426,-27.889999389648438,-0.01043701171875,-0.221435546875,1.04010009765625,36.2400016784668,0.0,99.0,0.3334808349609375,-1.3135986328125,Closing,0.0,0.0,3.0,0.0,0.0,0.0,0.0,0.0,
7.087603000000003,0.0,0.0,99313.0,2.0,-172.5,-667.0324010529121,0.0,1.75,0.52490229,3.5537045324866376,0.0,-134325.0,23.375,292.5,1575.418323731558,0.0,0.25,0.784912029,4.624693079702628,0.0,8421.0,7.75,-60.0,-667.0324010529121,0.0,0.625,4.007567949,1.3808240837911565,0.0,-35156.0,17.625,277.5,1575.418323731558,0.0,0.75,2.2741696890000003,0.33868276951477827,0.0,-0.7900000214576721,-1.4600000381469727,-28.899999618530273,-0.30084228515625,-0.1239013671875,0.88641357421875,36.2400016784668,0.0,-189.0,0.3050384521484375,-1.344482421875,Closing,0.0,0.0,3.0,0.0,0.0,0.0,0.0,0.0,
7.247928000000073,0.0,0.0,99317.0,0.0,60.0,0.0,0.0,1.75,4.298095263,3.5537045324866376,0.0,-134272.0,0.0,225.0,0.0,0.0,0.5,0.301513641,4.624693079702628,0.0,8399.0,0.0,-105.0,0.0,0.0,1.125,4.953612774000001,1.3808240837911565,0.0,-35089.0,0.125,292.5,0.0,0.0,0.5,2.362060305,0.33868276951477827,0.0,-0.6100000143051147,0.09000000357627869,-31.510000228881836,0.07781982421875,0.03546142578125,1.0909423828125,36.2400016784668,0.0,40.0,0.2821502685546875,-1.3815155029296875,Closing,0.0,0.0,3.0,0.0,0.0,0.0,0.0,0.0,
7.408790000000037,0.0,0.0,99342.0,0.0,30.0,0.0,0.0,0.25,4.000243731,3.5537045324866376,0.0,-134229.0,0.0,45.0,0.0,0.0,0.25,4.945067853,4.624693079702628,0.0,8384.0,0.0,-120.0,0.0,0.0,0.25,0.131835924,1.3808240837911565,0.0,-35022.0,0.125,90.0,0.0,0.0,0.875,1.9189451160000002,0.33868276951477827,0.0,0.36000001430511475,-0.2199999988079071,-32.70000076293945,0.00311279296875,-0.1075439453125,1.25640869140625,36.25,0.0,69.0,0.26373291015625,-1.3929443359375,Closing,0.0,0.0,3.0,0.0,0.0,0.0,0.0,0.0,
7.560011000000057,0.0,0.0,99342.0,0.0,0.0,0.0,0.0,0.625,4.322509323,3.5537045324866376,0.0,-134226.0,0.0,7.5,0.0,0.0,0.25,0.068359368,4.624693079702628,0.0,8374.0,0.0,0.0,0.0,0.0,0.375,4.752196779,1.3808240837911565,0.0,-35013.0,0.125,30.0,0.0,0.0,0.5,1.8469236390000001,0.33868276951477827,0.0,0.12999999523162842,-0.09000000357627869,-32.77000045776367,-0.04046630859375,0.0540771484375,1.07977294921875,36.25,0.0,-60.0,0.25054931640625,-1.4029693603515625,Closing,0.0,0.0,3.0,0.0,0.0,0.0,0.0,0.0,
7.732234999999986,0.0,0.0,99321.0,2.5,-157.5,-721.875,0.0,0.625,4.0881343470000004,3.0159423668524887,0.0,-134203.0,3.375,225.0,721.875,0.0,0.25,0.052490229,4.410439589772222,0.0,8368.0,3.25,-60.0,-721.875,0.0,0.5,0.046386714,1.9194747329772885,0.0,-35004.0,2.75,187.5,721.875,0.0,0.375,2.0678708820000002,0.5526872062785588,0.0,0.11999999731779099,-0.5199999809265137,-33.5099983215332,-0.061279296875,0.07073974609375,1.1859130859375,36.25,0.0,-79.0,0.245849609375,-1.4058990478515625,Closing,0.0,0.0,3.0,0.0,0.0,0.0,0.0,0.0,
7.896041000000085,0.0,0.0,99315.0,0.0,0.0,0.0,0.0,0.375,3.6779781390000004,3.0159423668524887,0.0,-134163.0,0.0,52.5,0.0,0.0,0.25,4.951171368000001,4.410439589772222,0.0,8346.0,0.0,-15.0,0.0,0.0,0.375,0.48706049700000004,1.9194747329772885,0.0,-34963.0,0.125,37.5,0.0,0.0,0.375,2.2705075800000003,0.5526872062785588,0.0,0.019999999552965164,-0.10000000149011612,-36.2400016784668,0.0506591796875,0.0140380859375,1.02154541015625,36.27000045776367,0.0,34.0,0.2397918701171875,-1.408599853515625,Closing,0.0,0.0,3.0,0.0,0.0,0.0,0.0,0.125,
8.069655000000028,0.0,0.0,99314.0,0.0,0.0,0.0,0.0,0.375,3.762206646,3.0159423668524887,0.0,-134161.0,0.0,0.0,0.0,0.0,0.25,4.951171368000001,4.410439589772222,0.0,8338.0,0.0,-22.5,0.0,0.0,0.125,0.410156208,1.9194747329772885,0.0,-34960.0,0.125,0.0,0.0,0.0,0.25,2.2167966480000003,0.5526872062785588,0.0,0.07000000029802322,-0.4300000071525574,-36.540000915527344,-0.01568603515625,0.0037841796875,1.0518798828125,36.27000045776367,0.0,-7.0,0.23785400390625,-1.4106903076171875,Closing,0.0,0.0,3.0,0.0,0.0,0.0,0.0,0.0,
8.247717000000062,0.0,0.0,99314.0,0.0,0.0,0.0,0.0,0.25,3.8378902320000003,3.0159423668524887,0.0,-134161.0,0.0,0.0,0.0,0.0,0.25,4.951171368000001,4.410439589772222,0.0,8338.0,0.0,0.0,0.0,0.0,0.125,0.334472622,1.9194747329772885,0.0,-34960.0,0.125,0.0,0.0,0.0,0.25,2.178954855,0.5526872062785588,0.0,0.07999999821186066,-0.3799999952316284,-36.220001220703125,-0.01812744140625,-0.01641845703125,1.025146484375,36.27000045776367,0.0,1.0,0.23785400390625,-1.409332275390625,Closing,0.0,0.0,3.0,0.0,0.0,0.0,0.0,0.0,
8.414394000000087,0.0,0.0,99314.0,0.0,0.0,0.0,0.0,0.25,3.8391109350000003,3.0159423668524887,0.0,-134161.0,0.0,0.0,0.0,0.0,0.25,4.949950665,4.410439589772222,0.0,8338.0,0.0,0.0,0.0,0.0,0.0,0.332031216,1.9194747329772885,0.0,-34960.0,0.125,0.0,0.0,0.0,0.125,2.183837667,0.5526872062785588,0.0,0.09000000357627869,-0.4300000071525574,-36.2400016784668,-0.0074462890625,0.00787353515625,1.0224609375,36.279998779296875,0.0,-3.0,0.23785400390625,-1.4091644287109375,Closing,0.0,0.0,3.0,0.0,0.0,0.0,0.0,0.0,
8.586404000000098,0.0,0.0,99314.0,0.0,0.0,0.0,0.0,0.125,3.8403316380000003,3.0159423668524887,0.0,-134161.0,0.0,0.0,0.0,0.0,0.25,4.949950665,4.410439589772222,0.0,8338.0,0.0,0.0,0.0,0.0,0.0,0.333251919,1.9194747329772885,0.0,-34960.0,0.125,0.0,0.0,0.0,0.125,2.18505837,0.5526872062785588,0.0,0.10000000149011612,-0.46000000834465027,-36.2400016784668,-0.00933837890625,0.0081787109375,1.01739501953125,36.279998779296875,0.0,-4.0,0.23785400390625,-1.4091644287109375,Closing,0.0,0.0,3.0,0.0,0.0,0.0,0.0,0.0,
8.753150000000023,0.0,0.0,99306.0,1.875,-195.0,-656.25,0.0,0.25,3.8403316380000003,3.0159423668524887,0.0,-134131.0,2.75,202.5,656.25,0.0,0.25,4.91943309,4.410439589772222,0.0,8324.0,2.25,-75.0,-656.25,0.0,0.0,0.332031216,1.9194747329772885,0.0,-34934.0,2.0,202.5,656.25,0.0,0.125,2.126464626,0.5526872062785588,0.0,0.12999999523162842,-0.3700000047683716,-37.43000030517578,-0.00994873046875,0.12359619140625,0.97894287109375,36.279998779296875,0.0,-76.0,0.2372894287109375,-1.4090118408203125,Closing,0.0,0.0,3.0,0.0,0.0,0.0,0.0,0.0,
8.921781000000076,0.0,0.0,99268.0,0.0,0.0,0.0,0.0,0.125,3.8391109350000003,3.0159423668524887,0.0,-134115.0,0.0,7.5,0.0,0.0,0.0,4.879149891,4.410439589772222,0.0,8317.0,0.0,0.0,0.0,0.0,0.0,0.333251919,1.9194747329772885,0.0,-34912.0,0.125,0.0,0.0,0.0,0.25,2.125243923,0.5526872062785588,0.0,0.11999999731779099,-0.4399999976158142,-40.22999954223633,-0.0098876953125,0.00323486328125,0.89459228515625,36.290000915527344,0.0,-3.0,0.2353973388671875,-1.40765380859375,Closing,0.0,0.0,3.0,0.0,0.0,0.0,0.0,0.0,
9.09457500000007,0.0,0.0,99266.0,0.0,0.0,0.0,0.0,0.25,3.8354488260000004,3.0159423668524887,0.0,-134110.0,0.0,0.0,0.0,0.0,0.25,4.882812,4.410439589772222,0.0,8312.0,0.0,0.0,0.0,0.0,0.0,0.332031216,1.9194747329772885,0.0,-34912.0,0.125,0.0,0.0,0.0,0.25,2.125243923,0.5526872062785588,0.0,0.10999999940395355,-0.5799999833106995,-39.72999954223633,-0.00616455078125,0.01959228515625,0.966796875,36.290000915527344,0.0,-8.0,0.2346038818359375,-1.4084320068359375,Closing,0.0,0.0,3.0,0.0,0.0,0.0,0.0,0.0,
9.269371000000042,0.0,0.0,99266.0,0.0,0.0,0.0,0.0,0.125,3.8403316380000003,3.0159423668524887,0.0,-134110.0,0.0,0.0,0.0,0.0,0.25,4.898681139000001,4.410439589772222,0.0,8312.0,0.0,0.0,0.0,0.0,0.0,0.332031216,1.9194747329772885,0.0,-34912.0,0.125,0.0,0.0,0.0,0.25,2.158202904,0.5526872062785588,0.0,0.11999999731779099,-0.550000011920929,-39.38999938964844,-0.00469970703125,0.02752685546875,1.0015869140625,36.290000915527344,0.0,-12.0,0.234405517578125,-1.4084320068359375,Closing,0.0,0.0,3.0,0.0,0.0,0.0,0.0,0.0,
9.429205000000074,0.0,0.0,99286.0,5.25,150.0,952.4409413337708,0.0,1.25,4.4482417320000005,3.6991882499999984,0.0,-134120.0,6.875,-165.0,-952.4409413337708,0.0,3.875,4.631347182,3.7228274999999984,0.0,8310.0,7.0,-22.5,-952.4409413337708,0.0,0.875,4.709472174,1.2350999999999985,0.0,-34891.0,5.625,112.5,952.4409413337708,0.0,1.375,2.836913772,1.2394999999999985,0.0,-0.25999999046325684,-0.5899999737739563,-39.290000915527344,-0.0069580078125,0.08099365234375,1.13311767578125,36.279998779296875,0.0,-50.0,0.236541748046875,-1.4109039306640625,Closing,0.0,0.0,3.0,0.0,0.0,0.0,0.0,0.0,
9.590048999999999,0.0,0.0,99292.0,0.0,-7.5,0.0,0.0,0.375,4.616698746,3.6991882499999984,0.0,-134135.0,0.125,30.0,0.0,0.0,0.5,4.0283199000000005,3.7228274999999984,0.0,8299.0,0.125,-15.0,0.0,0.0,0.125,4.514159694,1.2350999999999985,0.0,-34889.0,0.125,-7.5,0.0,0.0,0.125,3.145751631,1.2394999999999985,0.0,-0.2800000011920929,-0.5199999809265137,-39.119998931884766,0.00457763671875,0.0181884765625,0.95404052734375,36.279998779296875,0.0,-4.0,0.2392425537109375,-1.414398193359375,Closing,0.0,0.0,3.0,0.0,0.0,0.0,0.0,0.0,
9.747562000000034,0.0,0.0,99304.0,0.0,75.0,0.0,0.0,0.375,4.616698746,3.6991882499999984,0.0,-134142.0,0.0,-52.5,0.0,0.0,0.25,3.9514156110000003,3.7228274999999984,0.0,8295.0,0.0,-22.5,0.0,0.0,0.0,4.499511258,1.2350999999999985,0.0,-34881.0,0.125,52.5,0.0,0.0,0.5,2.987060241,1.2394999999999985,0.0,0.23000000417232513,-0.6299999952316284,-39.09000015258789,-0.02203369140625,0.10186767578125,0.98663330078125,36.279998779296875,0.0,-70.0,0.2333831787109375,-1.4096527099609375,Closing,0.0,0.0,3.0,0.0,0.0,0.0,0.0,0.0,
9.907501000000048,0.0,0.0,99338.0,5.125,262.5,1031.8110573291779,0.0,0.375,4.511718288,3.6991882499999984,0.0,-134167.0,7.5,-262.5,-1031.8110573291779,0.0,0.5,4.212646053,3.7228274999999984,0.0,8288.0,6.5,-82.5,-1031.8110573291779,0.0,0.0,4.588622577000001,1.2350999999999985,0.0,-34833.0,4.625,240.0,1031.8110573291779,0.0,0.5,2.8027340880000002,1.2394999999999985,0.0,-0.5699999928474426,-0.6100000143051147,-39.130001068115234,0.01031494140625,-0.24383544921875,1.06427001953125,36.279998779296875,0.0,164.0,0.2227630615234375,-1.410369873046875,Closing,0.0,0.0,3.0,0.0,0.0,0.0,0.0,0.0,
10.068666000000086,0.0,0.0,99373.0,0.75,292.5,198.42519611120224,0.0,0.25,4.472655792,3.6991882499999984,0.0,-134249.0,0.75,-315.0,-198.42519611120224,0.0,0.125,4.381103067000001,3.7228274999999984,0.0,8223.0,1.5,-255.0,-198.42519611120224,0.0,0.0,4.616698746,1.2350999999999985,0.0,-34800.0,0.75,247.5,198.42519611120224,0.0,0.25,2.778320028,1.2394999999999985,0.0,-0.699999988079071,-0.5899999737739563,-39.25,-0.01123046875,0.030029296875,1.09442138671875,36.279998779296875,0.0,-27.0,0.2210693359375,-1.4253997802734375,Closing,0.0,0.0,3.0,0.0,0.0,0.0,0.0,0.0,
10.231703000000095,0.0,0.0,99432.0,0.0,75.0,0.0,0.0,0.25,4.472655792,3.6991882499999984,0.0,-134275.0,0.0,-45.0,0.0,0.0,0.25,4.35790971,3.7228274999999984,0.0,8207.0,0.0,-75.0,0.0,0.0,0.125,4.615478043,1.2350999999999985,0.0,-34752.0,0.125,82.5,0.0,0.0,0.25,2.8454586930000003,1.2394999999999985,0.0,0.0,-0.6499999761581421,-39.22999954223633,-0.03973388671875,0.16937255859375,1.019287109375,36.279998779296875,0.0,-128.0,0.2146759033203125,-1.43218994140625,Closing,0.0,0.0,3.0,0.0,0.0,0.0,0.0,0.0,
10.394270000000018,0.0,0.0,99464.0,1.125,247.5,595.2756071090697,0.0,3.375,3.920898036,2.4661254999999977,0.0,-134286.0,3.625,15.0,595.2756071090697,0.0,2.375,4.829101068,4.963769999999998,0.0,8201.0,3.25,0.0,595.2756071090697,0.0,2.125,0.22705075800000002,2.4702000000000024,0.0,-34716.0,1.25,172.5,595.2756071090697,0.0,1.875,2.237548599,0.01,0.0,0.6499999761581421,-0.8100000023841858,-39.189998626708984,-0.03607177734375,-0.06256103515625,1.2117919921875,36.290000915527344,0.0,33.0,0.2041473388671875,-1.42864990234375,Closing,0.0,0.0,3.0,0.0,0.0,0.0,0.0,0.0,
10.550600000000093,0.0,0.0,99473.0,4.625,105.0,674.6456480026245,0.0,0.875,3.0480953910000004,2.4661254999999977,0.0,-134256.0,8.125,135.0,674.6456480026245,0.0,1.25,0.715331958,4.963769999999998,0.0,8225.0,5.875,105.0,674.6456480026245,0.0,1.0,1.1120604330000001,2.4702000000000024,0.0,-34697.0,3.875,142.5,674.6456480026245,0.0,0.875,1.361083845,0.01,0.0,0.15000000596046448,-1.4900000095367432,-39.45000076293945,-0.18438720703125,-0.05999755859375,0.989013671875,36.290000915527344,0.0,-82.0,0.20330810546875,-1.4312591552734375,Closing,0.0,0.0,3.0,0.0,0.0,0.0,0.0,0.0,
10.70816399999999,0.0,0.0,99555.0,4.875,322.5,674.6456480026245,0.0,0.625,2.889404001,2.4661254999999977,0.0,-134209.0,10.625,285.0,674.6456480026245,0.0,0.25,0.900878814,4.963769999999998,0.0,8255.0,10.125,180.0,674.6456480026245,0.0,0.25,1.256103387,2.4702000000000024,0.0,-34649.0,6.0,225.0,674.6456480026245,0.0,0.375,1.2158201880000001,0.01,0.0,0.25,-0.6499999761581421,-39.27000045776367,0.18212890625,-0.077392578125,0.987548828125,36.290000915527344,0.0,201.0,0.198333740234375,-1.4466552734375,Closing,0.0,0.0,3.0,0.0,0.0,0.0,0.0,0.0,
10.87155700000003,0.0,0.0,99559.0,14.75,37.5,694.4881582260131,0.0,1.5,3.096923511,2.4661254999999977,0.0,-134190.0,25.0,60.0,694.4881582260131,0.0,0.5,0.611572203,4.963769999999998,0.0,8266.0,19.25,67.5,694.4881582260131,0.0,0.5,0.9863280240000001,2.4702000000000024,0.0,-34613.0,17.25,67.5,694.4881582260131,0.0,0.875,1.572265464,0.01,0.0,0.25999999046325684,-1.1399999856948853,-39.34000015258789,-0.29052734375,9.765625E-4,0.9569091796875,36.279998779296875,0.0,-207.0,0.2061614990234375,-1.4507293701171875,Closing,0.0,0.0,3.0,0.0,0.0,0.0,0.0,0.125,
11.032032000000006,0.0,0.0,99589.0,12.25,487.5,694.4881582260131,0.0,0.5,3.23486295,2.4661254999999977,0.0,-134089.0,18.5,547.5,694.4881582260131,0.0,0.25,0.49316401200000004,4.963769999999998,0.0,8334.0,18.75,262.5,694.4881582260131,0.0,0.125,0.8166503070000001,2.4702000000000024,0.0,-34546.0,11.0,487.5,694.4881582260131,0.0,0.25,1.678466625,0.01,0.0,0.20999999344348907,-3.0999999046325684,-39.709999084472656,-0.1727294921875,0.18402099609375,1.27398681640625,36.279998779296875,0.0,-194.0,0.1898193359375,-1.4748077392578125,Closing,0.0,0.0,3.0,0.0,0.0,0.0,0.0,0.0,
11.196354000000051,0.0,0.0,99853.0,11.5,1102.5,1309.6062755584717,0.0,0.25,3.293456694,2.4661254999999977,0.0,-133935.0,16.0,1162.5,1309.6062755584717,0.0,0.25,0.426025347,4.963769999999998,0.0,8407.0,30.875,487.5,1309.6062755584717,0.0,0.0,0.7922362470000001,2.4702000000000024,0.0,-34406.0,10.25,1087.5,1309.6062755584717,0.0,0.25,1.6552732680000002,0.01,0.0,0.28999999165534973,-4.789999961853027,-40.040000915527344,-0.1431884765625,-0.0357666015625,0.81256103515625,36.279998779296875,0.0,-31.0,0.1371612548828125,-1.5256805419921875,Closing,0.0,0.0,3.0,0.0,0.0,0.0,0.0,0.0,
11.356406000000076,0.0,0.0,100077.0,5.5,1507.5,1309.6062755584717,0.0,0.25,3.286132476,2.4661254999999977,0.0,-133473.0,8.0,1492.5,1309.6062755584717,0.0,0.25,0.435790971,4.963769999999998,0.0,8501.0,33.0,607.5,1309.6062755584717,0.0,0.125,0.799560465,2.4702000000000024,0.0,-33970.0,5.0,1470.0,1309.6062755584717,0.0,0.25,1.6345213170000001,0.01,0.0,0.33000001311302185,-5.440000057220459,-39.72999954223633,-0.05963134765625,-0.1837158203125,1.2205810546875,36.2599983215332,0.0,165.0,0.0842742919921875,-1.5750885009765625,Closing,0.0,0.0,3.0,0.0,0.0,0.0,0.0,0.125,
11.515230000000098,0.0,0.0,100340.0,0.0,1455.0,0.0,0.0,0.25,3.293456694,2.4661254999999977,0.0,-133252.0,0.0,1342.5,0.0,0.0,0.25,0.450439407,4.963769999999998,0.0,8749.0,0.0,795.0,0.0,0.0,0.0,0.852050694,2.4702000000000024,0.0,-33736.0,0.125,1440.0,0.0,0.0,0.125,1.6357420200000001,0.01,0.0,0.1599999964237213,-4.320000171661377,-39.150001525878906,1.99993896484375,-0.25048828125,1.36761474609375,36.2599983215332,0.0,1788.0,0.0211944580078125,-1.6314239501953125,Closing,0.0,0.0,3.0,0.0,0.0,0.0,0.0,0.0,
11.673515000000014,0.0,0.0,100742.0,0.0,1042.5,0.0,0.0,0.25,3.3166500510000003,2.4661254999999977,0.0,-133057.0,0.0,870.0,0.0,0.0,0.25,0.5029296360000001,4.963769999999998,0.0,8714.0,0.125,-532.5,0.0,0.0,0.0,0.89111319,2.4702000000000024,0.0,-33659.0,0.125,-757.5,0.0,0.0,0.125,1.7114256060000002,0.01,0.0,0.3400000035762787,0.5199999809265137,-41.310001373291016,1.0274658203125,-1.17840576171875,1.99993896484375,36.2599983215332,0.0,1544.0,0.0632476806640625,-1.615142822265625,Closing,0.0,0.0,3.0,0.0,0.0,0.0,0.0,0.0,
11.830301000000095,0.0,0.0,100602.0,0.0,-825.0,0.0,0.0,0.25,3.3154293480000003,2.4661254999999977,0.0,-133120.0,0.0,-570.0,0.0,0.0,0.0,0.5798339250000001,4.963769999999998,0.0,8595.0,0.125,-712.5,0.0,0.0,0.0,0.887451081,2.4702000000000024,0.0,-33862.0,0.125,-645.0,0.0,0.0,0.25,1.6601560800000001,0.01,0.0,0.36000001430511475,0.07000000029802322,-41.720001220703125,0.24444580078125,0.0855712890625,1.447265625,36.2599983215332,0.0,130.0,0.1238250732421875,-1.5986175537109375,Closing,0.0,0.0,3.0,0.0,0.0,0.0,0.0,0.125,
11.991744999999995,0.0,0.0,100521.0,0.0,-585.0,0.0,0.0,0.25,3.3190914570000003,2.4661254999999977,0.0,-133293.0,0.0,-532.5,0.0,0.0,0.25,0.551757756,4.963769999999998,0.0,8413.0,0.0,-540.0,0.0,0.0,0.0,0.887451081,2.4702000000000024,0.0,-33948.0,0.125,-502.5,0.0,0.0,0.25,1.6345213170000001,0.01,0.0,0.28999999165534973,-0.5899999737739563,-42.11000061035156,-0.083251953125,-0.001708984375,1.170654296875,36.18000030517578,0.0,-47.0,0.169921875,-1.5924530029296875,Closing,0.0,0.0,3.0,0.0,0.0,0.0,0.0,0.0,
12.150377000000095,0.0,0.0,100378.0,0.0,-382.5,0.0,0.0,0.25,3.3203121600000003,2.4661254999999977,0.0,-133358.0,0.0,-352.5,0.0,0.0,0.25,0.5041503390000001,4.963769999999998,0.0,8351.0,0.0,-367.5,0.0,0.0,0.0,0.887451081,2.4702000000000024,0.0,-34014.0,0.125,-367.5,0.0,0.0,0.125,1.6345213170000001,0.01,0.0,0.1899999976158142,-1.190000057220459,-42.220001220703125,-0.0919189453125,-0.01409912109375,0.90789794921875,36.18000030517578,0.0,-42.0,0.2069244384765625,-1.5962371826171875,Closing,0.0,0.0,3.0,0.0,0.0,0.0,0.0,0.0,
12.319119000000065,0.0,0.0,100336.0,0.0,-210.0,0.0,0.0,0.25,3.3203121600000003,2.4661254999999977,0.0,-133436.0,0.0,-210.0,0.0,0.0,0.0,0.5029296360000001,4.963769999999998,0.0,8307.0,0.125,-210.0,0.0,0.0,0.0,0.887451081,2.4702000000000024,0.0,-34096.0,0.125,-195.0,0.0,0.0,0.125,1.6345213170000001,0.01,0.0,0.15000000596046448,-1.7300000190734863,-42.2400016784668,-0.0950927734375,9.765625E-4,0.910400390625,36.18000030517578,0.0,-48.0,0.2357330322265625,-1.6081695556640625,Closing,0.0,0.0,3.0,0.0,0.0,0.0,0.0,0.0,
12.477924,0.0,0.0,100313.0,0.0,-37.5,0.0,0.0,0.25,3.3190914570000003,2.4661254999999977,0.0,-133447.0,0.0,-45.0,0.0,0.0,0.0,0.5029296360000001,4.963769999999998,0.0,8276.0,0.0,-37.5,0.0,0.0,0.0,0.885009675,2.4702000000000024,0.0,-34109.0,0.125,-52.5,0.0,0.0,0.125,1.6357420200000001,0.01,0.0,0.14000000059604645,-2.130000114440918,-42.220001220703125,-0.05810546875,0.011474609375,0.99969482421875,36.15999984741211,0.0,-21.0,0.2564544677734375,-1.6285552978515625,Closing,0.0,0.0,3.0,0.0,0.0,0.0,0.0,0.0,
12.640592000000062,0.0,0.0,100309.0,0.0,0.0,0.0,0.0,0.25,3.3203121600000003,2.4661254999999977,0.0,-133447.0,0.0,0.0,0.0,0.0,0.0,0.5029296360000001,4.963769999999998,0.0,8276.0,0.0,0.0,0.0,0.0,0.0,0.887451081,2.4702000000000024,0.0,-34110.0,0.125,0.0,0.0,0.0,0.125,1.6333006140000002,0.01,0.0,0.11999999731779099,-2.0,-42.220001220703125,-0.00311279296875,0.01080322265625,1.0250244140625,36.15999984741211,0.0,18.0,0.2605743408203125,-1.6278076171875,Closing,0.0,0.0,3.0,0.0,0.0,0.0,0.0,0.0,
12.795209000000032,0.0,0.0,100309.0,0.0,0.0,0.0,0.0,0.25,3.3203121600000003,2.4661254999999977,0.0,-133447.0,0.0,0.0,0.0,0.0,0.0,0.5017089330000001,4.963769999999998,0.0,8276.0,0.0,0.0,0.0,0.0,0.0,0.888671784,2.4702000000000024,0.0,-34110.0,0.125,0.0,0.0,0.0,0.125,1.6357420200000001,0.01,0.0,0.12999999523162842,-1.7799999713897705,-42.209999084472656,-0.01531982421875,4.8828125E-4,1.056396484375,36.15999984741211,0.0,14.0,0.264984130859375,-1.62359619140625,Closing,0.0,0.0,3.0,0.0,0.0,0.0,0.0,0.0,
12.952795000000043,0.0,0.0,100311.0,0.875,67.5,377.00788199901575,0.0,0.25,3.3154293480000003,2.4661254999999977,0.0,-133439.0,1.25,45.0,377.00788199901575,0.0,0.0,0.498046824,4.963769999999998,0.0,8287.0,1.125,60.0,377.00788199901575,0.0,0.0,0.8813475660000001,2.4702000000000024,0.0,-34102.0,1.125,60.0,377.00788199901575,0.0,0.125,1.6284178020000002,0.01,0.0,0.12999999523162842,-1.840000033378601,-42.189998626708984,-0.05755615234375,0.0177001953125,1.04193115234375,36.13999938964844,0.0,-28.0,0.2645721435546875,-1.624114990234375,Closing,0.0,0.0,3.0,0.0,0.0,0.0,0.0,0.0,
13.109210000000079,0.0,0.0,100350.0,3.625,180.0,714.3307435512543,0.0,0.25,3.303222318,2.4661254999999977,0.0,-133422.0,6.125,180.0,714.3307435512543,0.0,0.0,0.49316401200000004,4.963769999999998,0.0,8310.0,3.875,150.0,714.3307435512543,0.0,0.0,0.864257724,2.4702000000000024,0.0,-34086.0,3.625,165.0,714.3307435512543,0.0,0.125,1.567382652,0.01,0.0,0.1599999964237213,-2.4600000381469727,-42.22999954223633,-0.18212890625,0.01959228515625,1.004150390625,36.13999938964844,0.0,-114.0,0.258331298828125,-1.6280670166015625,Closing,0.0,0.0,3.0,0.0,0.0,0.0,0.0,0.0,
13.270939000000013,0.0,0.0,100408.0,3.875,420.0,714.3307435512543,0.0,0.25,3.302001615,2.4661254999999977,0.0,-133375.0,6.375,412.5,714.3307435512543,0.0,0.125,0.458984328,4.963769999999998,0.0,8365.0,4.25,390.0,714.3307435512543,0.0,0.0,0.864257724,2.4702000000000024,0.0,-33970.0,4.0,420.0,714.3307435512543,0.0,0.375,1.591796712,0.01,0.0,0.1599999964237213,-3.140000104904175,-42.029998779296875,-0.05535888671875,-0.0726318359375,1.0452880859375,36.13999938964844,0.0,52.0,0.2385101318359375,-1.641876220703125,Closing,0.0,0.0,3.0,0.0,0.0,0.0,0.0,0.0,
13.429418999999994,0.0,0.0,100498.0,3.0,630.0,714.3307435512543,0.0,0.25,3.302001615,2.4661254999999977,0.0,-133196.0,4.5,645.0,714.3307435512543,0.0,0.25,0.45532221900000003,4.963769999999998,0.0,8447.0,3.25,630.0,714.3307435512543,0.0,0.0,0.864257724,2.4702000000000024,0.0,-33872.0,3.125,630.0,714.3307435512543,0.0,0.25,1.6101072570000001,0.01,0.0,0.09000000357627869,-3.359999895095825,-42.0,-0.0560302734375,-0.02191162109375,0.8970947265625,36.13999938964844,0.0,13.0,0.2122955322265625,-1.6638336181640625,Closing,0.0,0.0,3.0,0.0,0.0,0.0,0.0,0.0,
13.588602000000071,0.0,0.0,100684.0,0.0,465.0,0.0,0.0,0.25,3.302001615,2.4661254999999977,0.0,-133119.0,0.0,465.0,0.0,0.0,0.25,0.46386714,4.963769999999998,0.0,8629.0,0.125,472.5,0.0,0.0,0.0,0.864257724,2.4702000000000024,0.0,-33779.0,0.125,487.5,0.0,0.0,0.25,1.614990069,0.01,0.0,0.03999999910593033,-2.680000066757202,-41.97999954223633,0.08612060546875,6.7138671875E-4,1.01922607421875,36.13999938964844,0.0,99.0,0.192047119140625,-1.67071533203125,Closing,0.0,0.0,3.0,0.0,0.0,0.0,0.0,0.125,
13.749668000000064,0.0,0.0,100760.0,0.0,405.0,0.0,0.0,0.25,3.302001615,2.4661254999999977,0.0,-133031.0,0.0,427.5,0.0,0.0,0.25,0.4882812,4.963769999999998,0.0,8710.0,0.0,435.0,0.0,0.0,0.0,0.864257724,2.4702000000000024,0.0,-33627.0,0.125,427.5,0.0,0.0,0.125,1.614990069,0.01,0.0,-0.05000000074505806,-1.5499999523162842,-41.81999969482422,0.39703369140625,-0.1607666015625,0.88873291015625,36.13999938964844,0.0,420.0,0.187469482421875,-1.6612091064453125,Closing,0.0,0.0,3.0,0.0,0.0,0.0,0.0,0.0,
13.912734999999985,0.0,0.0,100813.0,0.0,37.5,0.0,0.0,0.25,3.302001615,2.4661254999999977,0.0,-132960.0,0.0,15.0,0.0,0.0,0.125,0.4882812,4.963769999999998,0.0,8764.0,0.0,90.0,0.0,0.0,0.0,0.864257724,2.4702000000000024,0.0,-33621.0,0.125,7.5,0.0,0.0,0.125,1.6284178020000002,0.01,0.0,0.14000000059604645,0.019999999552965164,-41.279998779296875,-0.12109375,-0.091552734375,1.02191162109375,36.130001068115234,0.0,-29.0,0.2146148681640625,-1.62640380859375,Closing,0.0,0.0,3.0,0.0,0.0,0.0,0.0,0.0,
14.068109999999987,0.0,0.0,100794.0,0.0,-90.0,0.0,0.0,0.25,3.3105465360000004,2.4661254999999977,0.0,-132972.0,0.0,-52.5,0.0,0.0,0.125,0.4882812,4.963769999999998,0.0,8742.0,0.0,-105.0,0.0,0.0,0.0,0.8691405360000001,2.4702000000000024,0.0,-33629.0,0.125,-45.0,0.0,0.0,0.125,1.639404129,0.01,0.0,-0.019999999552965164,-0.6200000047683716,-41.43000030517578,-0.0841064453125,-0.03118896484375,1.05438232421875,36.130001068115234,0.0,-34.0,0.2156982421875,-1.5873260498046875,Closing,0.0,0.0,3.0,0.0,0.0,0.0,0.0,0.0,
14.221215000000084,0.0,0.0,100794.0,0.0,0.0,0.0,0.0,0.25,3.306884427,2.4661254999999977,0.0,-132975.0,0.0,0.0,0.0,0.0,0.125,0.4882812,4.963769999999998,0.0,8742.0,0.125,0.0,0.0,0.0,0.0,0.8691405360000001,2.4702000000000024,0.0,-33633.0,0.125,0.0,0.0,0.0,0.125,1.639404129,0.01,0.0,-0.05000000074505806,-0.6700000166893005,-41.47999954223633,-0.02789306640625,-0.02471923828125,1.11932373046875,36.130001068115234,0.0,4.0,0.2136688232421875,-1.5681915283203125,Closing,0.0,0.0,3.0,0.0,0.0,0.0,0.0,0.0,
14.375363000000013,0.0,0.0,100794.0,0.0,0.0,0.0,0.0,0.25,3.306884427,2.4661254999999977,0.0,-132975.0,0.125,0.0,0.0,0.0,0.125,0.4882812,4.963769999999998,0.0,8742.0,0.0,0.0,0.0,0.0,0.0,0.8703612390000001,2.4702000000000024,0.0,-33633.0,0.125,0.0,0.0,0.0,0.125,1.639404129,0.01,0.0,-0.019999999552965164,-0.5699999928474426,-41.47999954223633,-0.02899169921875,-0.00665283203125,1.04315185546875,36.130001068115234,0.0,-35.0,0.2137298583984375,-1.5679931640625,Closing,0.0,0.0,3.0,0.0,0.0,0.0,0.0,0.0,
14.530254000000074,0.0,0.0,100794.0,0.0,0.0,0.0,0.0,0.25,3.306884427,2.4661254999999977,0.0,-132975.0,0.0,0.0,0.0,0.0,0.125,0.4882812,4.963769999999998,0.0,8742.0,0.0,0.0,0.0,0.0,0.0,0.8691405360000001,2.4702000000000024,0.0,-33633.0,0.125,0.0,0.0,0.0,0.125,1.639404129,0.01,0.0,-0.009999999776482582,-0.6600000262260437,-41.47999954223633,-0.016357421875,0.00189208984375,1.02777099609375,36.15999984741211,0.0,-4.0,0.2135772705078125,-1.5679931640625,Closing,0.0,0.0,3.0,0.0,0.0,0.0,0.0,0.0,
14.689753000000026,0.0,0.0,100794.0,0.0,0.0,0.0,0.0,0.25,3.306884427,2.4661254999999977,0.0,-132975.0,0.0,0.0,0.0,0.0,0.125,0.4882812,4.963769999999998,0.0,8742.0,0.0,0.0,0.0,0.0,0.0,0.8691405360000001,2.4702000000000024,0.0,-33633.0,0.125,0.0,0.0,0.0,0.125,1.638183426,0.01,0.0,0.0,-0.6299999952316284,-41.470001220703125,-0.01251220703125,0.0140380859375,1.02685546875,36.15999984741211,0.0,-10.0,0.2135772705078125,-1.5679931640625,Closing,0.0,0.0,3.0,0.0,0.0,0.0,0.0,0.0,
14.844282000000007,0.0,0.0,100806.0,4.375,60.0,754.0157639980315,0.0,1.875,4.182128478,3.6991882499999984,0.0,-133001.0,4.125,-180.0,-754.0157639980315,0.0,1.75,4.951171368000001,3.7228274999999984,0.0,8738.0,4.5,-37.5,-754.0157639980315,0.0,2.125,4.958495586000001,1.2350999999999985,0.0,-33631.0,4.0,0.0,754.0157639980315,0.0,1.875,2.558593488,1.2394999999999985,0.0,-0.05999999865889549,-0.6499999761581421,-41.380001068115234,-0.04046630859375,-0.01153564453125,0.8116455078125,36.15999984741211,0.0,-16.0,0.2143402099609375,-1.56982421875,Closing,0.0,0.0,3.0,0.0,0.0,0.0,0.0,0.0,
15.012552000000024,0.0,0.0,100795.0,0.0,-52.5,0.0,0.0,0.625,4.848632316000001,3.6991882499999984,0.0,-132993.0,0.0,30.0,0.0,0.0,1.125,3.970946859,3.7228274999999984,0.0,8740.0,0.0,22.5,0.0,0.0,0.375,4.2358394100000005,1.2350999999999985,0.0,-33639.0,0.125,-45.0,0.0,0.0,0.75,3.23486295,1.2394999999999985,0.0,-0.14000000059604645,-0.6899999976158142,-41.369998931884766,-0.0330810546875,-0.0247802734375,0.951416015625,36.20000076293945,0.0,-1.0,0.21539306640625,-1.5725860595703125,Closing,0.0,0.0,3.0,0.0,0.0,0.0,0.0,0.0,
15.17469000000006,0.0,0.0,100795.0,0.0,0.0,0.0,0.0,0.5,4.641112806000001,3.6991882499999984,0.0,-132993.0,0.125,0.0,0.0,0.0,0.25,3.9355464720000004,3.7228274999999984,0.0,8740.0,0.0,0.0,0.0,0.0,0.25,4.440917514000001,1.2350999999999985,0.0,-33637.0,0.125,15.0,0.0,0.0,0.5,3.013915707,1.2394999999999985,0.0,0.009999999776482582,-0.75,-41.290000915527344,-0.02142333984375,0.01861572265625,0.91778564453125,36.20000076293945,0.0,-19.0,0.21478271484375,-1.57452392578125,Closing,0.0,0.0,3.0,0.0,0.0,0.0,0.0,0.0,
15.352812000000034,0.0,0.0,100797.0,0.0,0.0,0.0,0.0,0.375,4.506835476,3.6991882499999984,0.0,-132993.0,0.0,0.0,0.0,0.0,0.5,4.289550342,3.7228274999999984,0.0,8740.0,0.125,0.0,0.0,0.0,0.25,4.609374528,1.2350999999999985,0.0,-33634.0,0.125,7.5,0.0,0.0,0.5,2.828368851,1.2394999999999985,0.0,0.11999999731779099,-0.7300000190734863,-41.310001373291016,-0.02508544921875,0.008544921875,1.046630859375,36.20000076293945,0.0,-12.0,0.2144775390625,-1.574371337890625,Closing,0.0,0.0,3.0,0.0,0.0,0.0,0.0,0.0,
15.51806500000006,0.0,0.0,100797.0,0.0,0.0,0.0,0.0,0.25,4.4958491490000005,3.6991882499999984,0.0,-132993.0,0.0,0.0,0.0,0.0,0.25,4.313964402,3.7228274999999984,0.0,8740.0,0.0,0.0,0.0,0.0,0.125,4.647216321,1.2350999999999985,0.0,-33633.0,0.125,0.0,0.0,0.0,0.25,2.834472366,1.2394999999999985,0.0,0.07000000029802322,-0.7400000095367432,-41.33000183105469,-0.017333984375,-0.01123046875,1.02227783203125,36.20000076293945,0.0,5.0,0.2144775390625,-1.574371337890625,Closing,0.0,0.0,3.0,0.0,0.0,0.0,0.0,0.0,
15.691734000000055,0.0,0.0,100797.0,0.0,0.0,0.0,0.0,0.25,4.497069852,3.6991882499999984,0.0,-132993.0,0.0,0.0,0.0,0.0,0.25,4.266356985,3.7228274999999984,0.0,8740.0,0.125,0.0,0.0,0.0,0.125,4.598388201000001,1.2350999999999985,0.0,-33633.0,0.125,0.0,0.0,0.0,0.25,2.857665723,1.2394999999999985,0.0,0.07000000029802322,-0.7400000095367432,-41.33000183105469,-0.01019287109375,0.00775146484375,1.0228271484375,36.20000076293945,0.0,-1.0,0.2144775390625,-1.574371337890625,Closing,0.0,0.0,3.0,0.0,0.0,0.0,0.0,0.125,
15.855239999999991,0.0,0.0,100797.0,0.0,0.0,0.0,0.0,0.25,4.4958491490000005,3.6991882499999984,0.0,-132993.0,0.125,0.0,0.0,0.0,0.25,4.255370658,3.7228274999999984,0.0,8740.0,0.0,0.0,0.0,0.0,0.0,4.57763625,1.2350999999999985,0.0,-33633.0,0.125,0.0,0.0,0.0,0.125,2.857665723,1.2394999999999985,0.0,0.05999999865889549,-0.7300000190734863,-41.33000183105469,-0.01123046875,5.4931640625E-4,1.02008056640625,36.20000076293945,0.0,1.0,0.2144775390625,-1.574371337890625,Closing,0.0,0.0,3.0,0.0,0.0,0.0,0.0,0.0,
16.023752000000094,0.0,0.0,100799.0,0.125,15.0,178.58268588781357,0.0,2.125,3.721923447,2.4661254999999977,0.0,-132993.0,0.375,0.0,178.58268588781357,0.0,1.75,0.131835924,4.963769999999998,0.0,8740.0,0.375,0.0,-178.58268588781357,0.0,1.5,3.804931251,0.01,0.0,-33621.0,0.375,67.5,178.58268588781357,0.0,1.875,1.9995115140000002,0.01,0.0,0.17000000178813934,-0.7099999785423279,-41.45000076293945,-0.02667236328125,0.021728515625,0.9739990234375,36.22999954223633,0.0,-23.0,0.2127838134765625,-1.5724029541015625,Closing,0.0,0.0,3.0,0.0,0.0,0.0,0.0,0.0,
16.196062000000033,0.0,0.0,100834.0,2.125,180.0,615.1181173324585,0.0,0.625,3.1005856200000004,2.4661254999999977,0.0,-132980.0,4.875,97.5,615.1181173324585,0.0,0.5,0.943603419,4.963769999999998,0.0,8731.0,3.0,-45.0,-615.1181173324585,0.0,0.5,3.118896165,0.01,0.0,-33597.0,2.125,180.0,615.1181173324585,0.0,0.625,1.40380845,0.01,0.0,-0.07000000029802322,-1.1699999570846558,-41.83000183105469,-0.0037841796875,0.06390380859375,0.90472412109375,36.22999954223633,0.0,-32.0,0.206451416015625,-1.5709991455078125,Closing,0.0,0.0,3.0,0.0,0.0,0.0,0.0,0.0,
16.37016399999999,0.0,0.0,100845.0,0.0,15.0,0.0,0.0,0.375,3.07617156,2.4661254999999977,0.0,-132967.0,0.125,0.0,0.0,0.0,0.5,0.7653807810000001,4.963769999999998,0.0,8719.0,0.0,-15.0,0.0,0.0,0.125,3.089599293,0.01,0.0,-33580.0,0.125,-22.5,0.0,0.0,0.25,1.4208982920000002,0.01,0.0,0.07000000029802322,-0.4000000059604645,-41.58000183105469,-0.08843994140625,-0.040283203125,1.02337646484375,36.22999954223633,0.0,-33.0,0.2017974853515625,-1.567474365234375,Closing,0.0,0.0,3.0,0.0,0.0,0.0,0.0,0.0,
16.533773000000046,0.0,0.0,100830.0,0.0,-60.0,0.0,0.0,0.5,3.2690426340000003,2.4661254999999977,0.0,-132972.0,0.0,0.0,0.0,0.0,0.5,0.430908159,4.963769999999998,0.0,8731.0,0.0,30.0,0.0,0.0,0.375,3.402099261,0.01,0.0,-33592.0,0.125,-22.5,0.0,0.0,0.375,1.667480298,0.01,0.0,0.07000000029802322,-0.7300000190734863,-41.880001068115234,-0.03106689453125,0.01043701171875,0.99359130859375,36.27000045776367,0.0,-19.0,0.1994476318359375,-1.56561279296875,Closing,0.0,0.0,3.0,0.0,0.0,0.0,0.0,0.0,
16.703851000000025,0.0,0.0,100826.0,0.0,0.0,0.0,0.0,0.125,3.292235991,2.4661254999999977,0.0,-132972.0,0.0,0.0,0.0,0.0,0.25,0.373535118,4.963769999999998,0.0,8732.0,0.125,0.0,0.0,0.0,0.125,3.406982073,0.01,0.0,-33594.0,0.125,0.0,0.0,0.0,0.25,1.67236311,0.01,0.0,0.03999999910593033,-0.7300000190734863,-41.869998931884766,-0.02777099609375,0.00140380859375,1.01409912109375,36.27000045776367,0.0,-11.0,0.19879150390625,-1.5655364990234375,Closing,0.0,0.0,3.0,0.0,0.0,0.0,0.0,0.0,
16.86916399999999,0.0,0.0,100826.0,0.0,0.0,0.0,0.0,0.25,3.291015288,2.4661254999999977,0.0,-132972.0,0.0,0.0,0.0,0.0,0.25,0.416259723,4.963769999999998,0.0,8732.0,0.0,0.0,0.0,0.0,0.125,3.3679195770000003,0.01,0.0,-33594.0,0.125,0.0,0.0,0.0,0.25,1.6369627230000001,0.01,0.0,0.03999999910593033,-0.699999988079071,-41.86000061035156,-0.028076171875,-0.0118408203125,1.01373291015625,36.27000045776367,0.0,-3.0,0.19879150390625,-1.5655364990234375,Closing,0.0,0.0,3.0,0.0,0.0,0.0,0.0,0.0,
17.023859999999985,0.0,0.0,100826.0,0.0,0.0,0.0,0.0,0.25,3.292235991,2.4661254999999977,0.0,-132972.0,0.125,0.0,0.0,0.0,0.25,0.4882812,4.963769999999998,0.0,8732.0,0.0,0.0,0.0,0.0,0.0,3.353271141,0.01,0.0,-33594.0,0.125,0.0,0.0,0.0,0.125,1.6333006140000002,0.01,0.0,0.029999999329447746,-0.7200000286102295,-41.86000061035156,-0.0172119140625,0.0010986328125,1.02374267578125,36.25,0.0,-3.0,0.19866943359375,-1.5655364990234375,Closing,0.0,0.0,3.0,0.0,0.0,0.0,0.0,0.0,
17.174722000000067,0.0,0.0,100826.0,0.0,0.0,0.0,0.0,0.25,3.292235991,2.4661254999999977,0.0,-132972.0,0.0,0.0,0.0,0.0,0.125,0.507812448,4.963769999999998,0.0,8732.0,0.0,0.0,0.0,0.0,0.0,3.350829735,0.01,0.0,-33594.0,0.125,0.0,0.0,0.0,0.125,1.6333006140000002,0.01,0.0,0.029999999329447746,-0.7200000286102295,-41.86000061035156,-0.01849365234375,-0.00140380859375,1.0123291015625,36.25,0.0,-2.0,0.19866943359375,-1.5655364990234375,Closing,0.0,0.0,3.0,0.0,0.0,0.0,0.0,0.0,
17.333326,0.0,0.0,100826.0,0.0,0.0,0.0,0.0,0.25,3.297118803,2.4661254999999977,0.0,-132972.0,0.125,0.0,0.0,0.0,0.0,0.507812448,4.963769999999998,0.0,8732.0,0.0,0.0,0.0,0.0,0.0,3.352050438,0.01,0.0,-33594.0,0.125,0.0,0.0,0.0,0.125,1.6345213170000001,0.01,0.0,0.029999999329447746,-0.7200000286102295,-41.86000061035156,-0.01324462890625,7.9345703125E-4,1.02239990234375,36.25,0.0,0.0,0.19866943359375,-1.5655364990234375,Closing,0.0,0.0,3.0,0.0,0.0,0.0,0.0,0.0,
17.49133600000001,0.0,0.0,100826.0,0.0,0.0,0.0,0.0,0.25,3.298339506,2.4661254999999977,0.0,-132972.0,0.0,0.0,0.0,0.0,0.0,0.507812448,4.963769999999998,0.0,8732.0,0.0,0.0,0.0,0.0,0.0,3.353271141,0.01,0.0,-33594.0,0.125,0.0,0.0,0.0,0.125,1.6333006140000002,0.01,0.0,0.019999999552965164,-0.7200000286102295,-41.869998931884766,-0.0169677734375,-9.1552734375E-4,1.021240234375,36.27000045776367,0.0,-2.0,0.19866943359375,-1.5655364990234375,Closing,0.0,0.0,3.0,0.0,0.0,0.0,0.0,0.0,
17.64482500000007,0.0,0.0,100826.0,0.0,0.0,0.0,0.0,0.125,3.293456694,2.4661254999999977,0.0,-132972.0,0.125,0.0,0.0,0.0,0.0,0.509033151,4.963769999999998,0.0,8732.0,0.0,0.0,0.0,0.0,0.0,3.353271141,0.01,0.0,-33594.0,0.125,0.0,0.0,0.0,0.125,1.6333006140000002,0.01,0.0,0.029999999329447746,-0.7200000286102295,-41.869998931884766,-0.0140380859375,5.4931640625E-4,1.0186767578125,36.27000045776367,0.0,0.0,0.19866943359375,-1.5655364990234375,Closing,0.0,0.0,3.0,0.0,0.0,0.0,0.0,0.0,
17.796804000000005,0.0,0.0,100826.0,0.0,0.0,0.0,0.0,0.125,3.297118803,2.4661254999999977,0.0,-132972.0,0.0,0.0,0.0,0.0,0.0,0.507812448,4.963769999999998,0.0,8732.0,0.0,0.0,0.0,0.0,0.0,3.353271141,0.01,0.0,-33594.0,0.125,0.0,0.0,0.0,0.125,1.6345213170000001,0.01,0.0,0.029999999329447746,-0.7200000286102295,-41.880001068115234,-0.013427734375,0.0023193359375,1.02154541015625,36.27000045776367,0.0,-1.0,0.19866943359375,-1.5655364990234375,Closing,0.0,0.0,3.0,0.0,0.0,0.0,0.0,0.0,
17.962597000000066,0.0,0.0,100826.0,0.0,0.0,0.0,0.0,0.25,3.292235991,2.4661254999999977,0.0,-132972.0,0.125,0.0,0.0,0.0,0.0,0.507812448,4.963769999999998,0.0,8732.0,0.0,0.0,0.0,0.0,0.0,3.352050438,0.01,0.0,-33594.0,0.125,0.0,0.0,0.0,0.125,1.6345213170000001,0.01,0.0,0.03999999910593033,-0.7300000190734863,-41.880001068115234,-0.009521484375,0.00140380859375,1.02020263671875,36.27000045776367,0.0,2.0,0.19866943359375,-1.5655364990234375,Closing,0.0,0.0,3.0,0.0,0.0,0.0,0.0,0.0,
18.127030000000026,0.0,0.0,100826.0,0.0,0.0,0.0,0.0,0.25,3.297118803,2.4661254999999977,0.0,-132972.0,0.0,0.0,0.0,0.0,0.0,0.506591745,4.963769999999998,0.0,8732.0,0.0,0.0,0.0,0.0,0.0,3.352050438,0.01,0.0,-33594.0,0.125,0.0,0.0,0.0,0.125,1.6345213170000001,0.01,0.0,0.03999999910593033,-0.7300000190734863,-41.880001068115234,-0.01397705078125,0.0018310546875,1.0242919921875,36.290000915527344,0.0,-1.0,0.19866943359375,-1.5655364990234375,Closing,0.0,0.0,3.0,0.0,0.0,0.0,0.0,0.0,
18.28259600000002,0.0,0.0,100826.0,0.0,0.0,0.0,0.0,0.25,3.292235991,2.4661254999999977,0.0,-132972.0,0.0,0.0,0.0,0.0,0.0,0.507812448,4.963769999999998,0.0,8732.0,0.125,0.0,0.0,0.0,0.0,3.352050438,0.01,0.0,-33594.0,0.125,0.0,0.0,0.0,0.125,1.6333006140000002,0.01,0.0,0.03999999910593033,-0.7300000190734863,-41.880001068115234,-0.0106201171875,9.1552734375E-4,1.02239990234375,36.290000915527344,0.0,1.0,0.19866943359375,-1.5655364990234375,Closing,0.0,0.0,3.0,0.0,0.0,0.0,0.0,0.125,
