Time,ClimberA1,ClimberA2,FRpos,FRCurrent,FRspeed,FRsetpoint,FRApos,FRACurrent,FREncpos,FREncSetpoint,FREncSpeed,FLpos,FLCurrent,FLspeed,FLsetpoint,FLApos,FLACurrent,FLEncpos,FLEncSetpoint,FLEncSpeed,BRpos,BRCurrent,BRspeed,BRsetpoint,BRApos,BRACurrent,BREncpos,BREncSetpoint,BREncSpeed,BLpos,BLCurrent,BLspeed,BLsetpoint,BLApos,BLACurrent,BLEncpos,BLEncSetpoint,BLEncSpeed,navx_Pitch,navx_Roll,navx_Yaw,navx_XAcc,navx_YAcc,navx_ZAcc,navx_Temp,navx_Bar,navx_Alt,navx_XDis,navx_YDis,GearPlacerState,ShootOutputV,ShootOutputCurrent,ShootEncPos,ShootEncVelocity,ShootSpeed,ShootSetpoint,CarouselSetpoint,CarouselCurrent,
0.276366,0.0,0.0,90408.0,0.0,0.0,0.0,0.0,0.125,0.8276366340000001,0.01,0.0,-94249.0,0.0,0.0,0.0,0.0,0.125,0.527343696,0.01,0.0,1525.0,0.0,0.0,0.0,0.0,0.0,3.328857081,0.01,0.0,0.0,0.125,0.0,0.0,0.0,0.125,1.573486167,0.01,0.0,0.3100000023841858,-0.2800000011920929,-91.0,-0.0072021484375,0.00469970703125,1.01776123046875,36.599998474121094,0.0,-1.0,0.7791595458984375,-1.5798797607421875,Waiting,0.0,0.0,3.0,0.0,0.0,0.0,0.0,0.0,
0.36608699999999955,0.0,0.0,90408.0,0.0,0.0,0.0,0.0,0.125,0.8276366340000001,0.01,0.01641593099999994,-94249.0,0.0,0.0,-0.0,0.0,0.125,0.527343696,0.01,0.019892993000000914,1525.0,0.0,0.0,0.0,0.0,0.0,3.328857081,0.01,4.918036378,0.0,0.125,0.0,-0.0,0.0,0.25,1.572265464,0.01,4.910265464,0.3100000023841858,-0.2800000011920929,-91.01000213623047,-0.00555419921875,0.00732421875,1.01953125,36.599998474121094,0.0,-1.0,0.7791595458984375,-1.5798797607421875,Closing,0.0,0.0,3.0,0.0,0.0,0.0,0.0,0.0,
0.4024410000000007,0.0,0.0,90408.0,0.0,0.0,0.0,0.0,0.125,0.8276366340000001,0.01,0.0012207030000001007,-94249.0,0.0,0.0,-0.0,0.0,0.125,0.527343696,0.01,0.0,1525.0,0.0,0.0,0.0,0.0,0.0,3.3276363780000002,0.01,0.0012207030000004337,0.0,0.125,0.0,-0.0,0.0,0.25,1.573486167,0.01,0.0,0.3100000023841858,-0.2800000011920929,-91.01000213623047,-0.00152587890625,0.00799560546875,1.01885986328125,36.599998474121094,0.0,-2.0,0.7791595458984375,-1.5798797607421875,Closing,0.0,0.0,3.0,0.0,0.0,0.0,0.0,0.0,
0.443630000000001,0.0,0.0,90408.0,0.0,0.0,0.0,0.0,0.125,0.8276366340000001,0.01,0.0012207030000001007,-94249.0,0.0,0.0,-0.0,0.0,0.125,0.527343696,0.01,0.0,1525.0,0.0,0.0,0.0,0.0,0.0,3.3276363780000002,0.01,0.0012207030000004337,0.0,0.125,0.0,-0.0,0.0,0.25,1.5783689790000002,0.01,0.0,0.3100000023841858,-0.2800000011920929,-91.01000213623047,-0.00250244140625,0.005615234375,1.01812744140625,36.58000183105469,0.0,0.0,0.7791595458984375,-1.5798797607421875,Closing,0.0,0.0,3.0,0.0,0.0,0.0,0.0,0.0,
0.4732569999999996,0.0,0.0,90408.0,0.0,0.0,0.0,0.0,0.125,0.8276366340000001,0.01,0.0,-94249.0,0.0,0.0,-0.0,0.0,0.125,0.527343696,0.01,0.0,1525.0,0.0,0.0,0.0,0.0,0.0,3.328857081,0.01,0.0,0.0,0.125,0.0,-0.0,0.0,0.25,1.5820310880000001,0.01,0.0,0.3100000023841858,-0.2800000011920929,-91.01000213623047,-0.00469970703125,0.0067138671875,1.01800537109375,36.58000183105469,0.0,-1.0,0.7791595458984375,-1.5798797607421875,Closing,0.0,0.0,3.0,0.0,0.0,0.0,0.0,0.0,
0.49579299999999965,0.0,0.0,90408.0,0.0,0.0,0.0,0.0,0.125,0.8276366340000001,0.01,0.0,-94249.0,0.0,0.0,-0.0,0.0,0.125,0.5297851020000001,0.01,0.0,1525.0,0.0,0.0,0.0,0.0,0.0,3.3276363780000002,0.01,0.0,0.0,0.125,0.0,-0.0,0.0,0.25,1.590576009,0.01,0.0,0.3100000023841858,-0.2800000011920929,-91.01000213623047,-0.00347900390625,0.0025634765625,1.02001953125,36.58000183105469,0.0,3.0,0.7791595458984375,-1.5798797607421875,Closing,0.0,0.0,3.0,0.0,0.0,0.0,0.0,0.0,
0.5799740000000002,0.0,0.0,90408.0,0.0,0.0,0.0,0.0,0.125,0.8276366340000001,0.01,0.0,-94249.0,0.0,0.0,-0.0,0.0,0.125,0.527343696,0.01,0.0,1525.0,0.0,0.0,0.0,0.0,0.0,3.328857081,0.01,0.0,0.0,0.125,0.0,-0.0,0.0,0.25,1.593017415,0.01,0.007324217999999938,0.3100000023841858,-0.2800000011920929,-91.01000213623047,-5.4931640625E-4,0.00433349609375,1.0220947265625,36.58000183105469,0.0,1.0,0.7791595458984375,-1.5798797607421875,Closing,0.0,0.0,3.0,0.0,0.0,0.0,0.0,0.0,
0.6129480000000003,0.0,0.0,90408.0,0.0,0.0,0.0,0.0,0.125,0.8276366340000001,0.01,-0.0012207030000001007,-94249.0,0.0,0.0,-0.0,0.0,0.125,0.527343696,0.01,0.0,1525.0,0.0,0.0,0.0,0.0,0.0,3.328857081,0.01,0.0,0.0,0.125,0.0,-0.0,0.0,0.25,1.591796712,0.01,0.0012207029999995456,0.3100000023841858,-0.2800000011920929,-91.01000213623047,-0.00732421875,0.0072021484375,1.0166015625,36.58000183105469,0.0,-1.0,0.7791595458984375,-1.5798797607421875,Closing,0.0,0.0,3.0,0.0,0.0,0.0,0.0,0.125,
0.6422240000000001,0.0,0.0,90408.0,0.0,0.0,0.0,0.0,0.25,0.8276366340000001,0.01,0.0012207030000001007,-94249.0,0.0,0.0,-0.0,0.0,0.125,0.527343696,0.01,0.0,1525.0,0.0,0.0,0.0,0.0,0.0,3.330077784,0.01,0.0,0.0,0.125,0.0,-0.0,0.0,0.25,1.591796712,0.01,0.0,0.3100000023841858,-0.2800000011920929,-91.0,-0.003662109375,0.00439453125,1.02398681640625,36.58000183105469,0.0,1.0,0.7791595458984375,-1.5798797607421875,Closing,0.0,0.0,3.0,0.0,0.0,0.0,0.0,0.0,
0.6943289999999998,0.0,0.0,90408.0,0.0,0.0,0.0,0.0,0.25,0.8276366340000001,0.01,0.0012207030000001007,-94249.0,0.0,0.0,-0.0,0.0,0.125,0.527343696,0.01,0.0,1525.0,0.0,0.0,0.0,0.0,0.0,3.328857081,0.01,0.0,0.0,0.125,0.0,-0.0,0.0,0.25,1.591796712,0.01,0.0,0.3100000023841858,-0.2800000011920929,-91.0,-0.00384521484375,0.008056640625,1.01666259765625,36.58000183105469,0.0,-2.0,0.7791595458984375,-1.5798797607421875,Closing,0.0,0.0,3.0,0.0,0.0,0.0,0.0,0.0,
0.7290540000000001,0.0,0.0,90408.0,0.0,0.0,0.0,0.0,0.125,0.8276366340000001,0.01,0.0,-94249.0,0.0,0.0,-0.0,0.0,0.125,0.526122993,0.01,0.0,1525.0,0.0,0.0,0.0,0.0,0.0,3.328857081,0.01,0.0,0.0,0.125,0.0,-0.0,0.0,0.25,1.597900227,0.01,0.0,0.3100000023841858,-0.2800000011920929,-91.0,-0.00421142578125,0.00250244140625,1.02532958984375,36.58000183105469,0.0,3.0,0.7791595458984375,-1.5798797607421875,Closing,0.0,0.0,3.0,0.0,0.0,0.0,0.0,0.0,
0.7559629999999997,0.0,0.0,90408.0,0.0,0.0,0.0,0.0,0.125,0.8276366340000001,0.01,-0.0012207030000001007,-94249.0,0.0,0.0,-0.0,0.0,0.125,0.527343696,0.01,0.0,1525.0,0.0,0.0,0.0,0.0,0.0,3.328857081,0.01,0.0,0.0,0.125,0.0,-0.0,0.0,0.25,1.593017415,0.01,-0.0012207029999995456,0.3100000023841858,-0.27000001072883606,-91.0,-0.00250244140625,0.00775146484375,1.022705078125,36.58000183105469,0.0,-2.0,0.7791595458984375,-1.5798797607421875,Closing,0.0,0.0,3.0,0.0,0.0,0.0,0.0,0.0,
0.8065910000000004,0.0,0.0,90408.0,0.0,0.0,0.0,0.0,0.125,0.8276366340000001,0.01,0.0012207030000001007,-94249.0,0.0,0.0,-0.0,0.0,0.125,0.527343696,0.01,0.0,1525.0,0.0,0.0,0.0,0.0,0.0,3.328857081,0.01,0.0,0.0,0.125,0.0,-0.0,0.0,0.25,1.591796712,0.01,-0.0012207029999995456,0.3100000023841858,-0.27000001072883606,-91.0,-0.0059814453125,0.001708984375,1.0147705078125,36.58000183105469,0.0,3.0,0.7791595458984375,-1.5798797607421875,Closing,0.0,0.0,3.0,0.0,0.0,0.0,0.0,0.0,
0.830621000000001,0.0,0.0,90408.0,0.0,0.0,0.0,0.0,0.125,0.8276366340000001,0.01,0.0012207030000001007,-94249.0,0.0,0.0,-0.0,0.0,0.125,0.527343696,0.01,0.0,1525.0,0.0,0.0,0.0,0.0,0.0,3.328857081,0.01,0.0,0.0,0.125,0.0,-0.0,0.0,0.25,1.591796712,0.01,0.0024414059999999793,0.30000001192092896,-0.2800000011920929,-91.0,-0.00714111328125,0.0059814453125,1.01702880859375,36.58000183105469,0.0,0.0,0.7791595458984375,-1.5798797607421875,Closing,0.0,0.0,3.0,0.0,0.0,0.0,0.0,0.125,
0.8844400000000006,0.0,0.0,90408.0,0.0,0.0,0.0,0.0,0.125,0.826415931,0.01,0.0,-94249.0,0.0,0.0,-0.0,0.0,0.125,0.527343696,0.01,0.0,1525.0,0.0,0.0,0.0,0.0,0.0,3.328857081,0.01,-0.0012207030000004337,0.0,0.125,0.0,-0.0,0.0,0.25,1.591796712,0.01,0.0,0.3100000023841858,-0.27000001072883606,-91.0,-0.0048828125,0.00323486328125,1.0179443359375,36.58000183105469,0.0,2.0,0.7791595458984375,-1.5798797607421875,Closing,0.0,0.0,3.0,0.0,0.0,0.0,0.0,0.125,
0.9070640000000003,0.0,0.0,90408.0,0.0,0.0,0.0,0.0,0.125,0.8276366340000001,0.01,0.0,-94249.0,0.0,0.0,-0.0,0.0,0.125,0.527343696,0.01,0.0,1525.0,0.0,0.0,0.0,0.0,0.0,3.328857081,0.01,0.0,0.0,0.125,0.0,-0.0,0.0,0.25,1.591796712,0.01,0.0,0.3100000023841858,-0.2800000011920929,-91.0,-0.00506591796875,0.00689697265625,1.0196533203125,36.58000183105469,0.0,-1.0,0.7791595458984375,-1.5798797607421875,Closing,0.0,0.0,3.0,0.0,0.0,0.0,0.0,0.0,
0.9526260000000002,0.0,0.0,90408.0,0.0,0.0,0.0,0.0,0.125,0.8276366340000001,0.01,0.0,-94249.0,0.0,0.0,-0.0,0.0,0.125,0.526122993,0.01,0.0,1525.0,0.0,0.0,0.0,0.0,0.0,3.3276363780000002,0.01,0.0012207030000004337,0.0,0.125,0.0,-0.0,0.0,0.25,1.595458821,0.01,-0.0024414059999999793,0.3100000023841858,-0.2800000011920929,-91.0,-0.00494384765625,0.0035400390625,1.020751953125,36.56999969482422,0.0,2.0,0.7791595458984375,-1.5798797607421875,Closing,0.0,0.0,3.0,0.0,0.0,0.0,0.0,0.0,
1.0058500000000004,0.0,0.0,90408.0,0.0,0.0,0.0,0.0,0.125,0.8276366340000001,0.01,0.0,-94249.0,0.0,0.0,-0.0,0.0,0.125,0.527343696,0.01,0.0012207029999995456,1525.0,0.0,0.0,0.0,0.0,0.0,3.330077784,0.01,0.0,0.0,0.125,0.0,-0.0,0.0,0.25,1.591796712,0.01,-0.0024414059999999793,0.3100000023841858,-0.2800000011920929,-91.0,-0.0052490234375,0.0072021484375,1.01239013671875,36.56999969482422,0.0,-1.0,0.7791595458984375,-1.5798797607421875,Closing,0.0,0.0,3.0,0.0,0.0,0.0,0.0,0.0,
1.0304249999999993,0.0,0.0,90408.0,0.0,0.0,0.0,0.0,0.125,0.8276366340000001,0.01,-0.0012207030000001007,-94249.0,0.0,0.0,-0.0,0.0,0.125,0.527343696,0.01,-0.0012207029999995456,1525.0,0.0,0.0,0.0,0.0,0.0,3.328857081,0.01,0.0,0.0,0.125,0.0,-0.0,0.0,0.25,1.591796712,0.01,0.0012207029999995456,0.3100000023841858,-0.2800000011920929,-91.0,-0.005859375,0.0035400390625,1.0184326171875,36.56999969482422,0.0,2.0,0.7791595458984375,-1.5798797607421875,Closing,0.0,0.0,3.0,0.0,0.0,0.0,0.0,0.0,
1.0920930000000006,0.0,0.0,90408.0,0.0,0.0,0.0,0.0,0.125,0.8276366340000001,0.01,0.0,-94249.0,0.0,0.0,-0.0,0.0,0.125,0.527343696,0.01,0.0,1525.0,0.0,0.0,0.0,0.0,0.0,3.328857081,0.01,0.0,0.0,0.125,0.0,-0.0,0.0,0.25,1.591796712,0.01,0.0,0.3100000023841858,-0.2800000011920929,-91.0,-0.0047607421875,0.00555419921875,1.019775390625,36.56999969482422,0.0,0.0,0.7791595458984375,-1.5798797607421875,Closing,0.0,0.0,3.0,0.0,0.0,0.0,0.0,0.0,
1.1410580000000008,0.0,0.0,90408.0,0.0,0.0,0.0,0.0,0.125,0.8276366340000001,0.01,0.0012207030000001007,-94249.0,0.0,0.0,-0.0,0.0,0.125,0.5285643990000001,0.01,0.0,1525.0,0.0,0.0,0.0,0.0,0.0,3.328857081,0.01,0.0,0.0,0.125,0.0,-0.0,0.0,0.25,1.593017415,0.01,0.0012207030000004337,0.30000001192092896,-0.2800000011920929,-91.0,-0.00390625,0.00616455078125,1.021484375,36.56999969482422,0.0,0.0,0.7791595458984375,-1.5798797607421875,Closing,0.0,0.0,3.0,0.0,0.0,0.0,0.0,0.0,
1.1880769999999994,0.0,0.0,90408.0,0.0,0.0,0.0,0.0,0.125,0.8276366340000001,0.01,-0.0012207030000001007,-94249.0,0.0,0.0,-0.0,0.0,0.125,0.527343696,0.01,0.0012207029999995456,1525.0,0.0,0.0,0.0,0.0,0.0,3.3276363780000002,0.01,-0.0012207030000004337,0.0,0.125,0.0,-0.0,0.0,0.25,1.591796712,0.01,0.0,0.30000001192092896,-0.2800000011920929,-91.01000213623047,-0.00537109375,0.00506591796875,1.02044677734375,36.56999969482422,0.0,0.0,0.7791595458984375,-1.5798797607421875,Closing,0.0,0.0,3.0,0.0,0.0,0.0,0.0,0.0,
1.211768,0.0,0.0,90408.0,0.0,0.0,0.0,0.0,0.125,0.8288573370000001,0.01,0.0,-94249.0,0.0,0.0,-0.0,0.0,0.125,0.527343696,0.01,-0.0012207029999995456,1525.0,0.0,0.0,0.0,0.0,0.0,3.328857081,0.01,0.0,0.0,0.125,0.0,-0.0,0.0,0.25,1.591796712,0.01,0.0,0.30000001192092896,-0.2800000011920929,-91.0,-0.00592041015625,0.0042724609375,1.0196533203125,36.56999969482422,0.0,1.0,0.7791595458984375,-1.5798797607421875,Closing,0.0,0.0,3.0,0.0,0.0,0.0,0.0,0.0,
1.2405969999999997,0.0,0.0,90408.0,0.0,0.0,0.0,0.0,0.125,0.826415931,0.01,0.0,-94249.0,0.0,0.0,-0.0,0.0,0.125,0.527343696,0.01,-0.0012207029999995456,1525.0,0.0,0.0,0.0,0.0,0.0,3.328857081,0.01,0.0,0.0,0.125,0.0,-0.0,0.0,0.25,1.591796712,0.01,0.0,0.30000001192092896,-0.2800000011920929,-91.0,-0.00244140625,0.00390625,1.0206298828125,36.56999969482422,0.0,1.0,0.7791595458984375,-1.5798797607421875,Closing,0.0,0.0,3.0,0.0,0.0,0.0,0.0,0.0,
1.2949480000000002,0.0,0.0,90408.0,0.0,0.0,0.0,0.0,0.125,0.8276366340000001,0.01,0.0,-94249.0,0.0,0.0,-0.0,0.0,0.125,0.527343696,0.01,0.0,1525.0,0.0,0.0,0.0,0.0,0.0,3.330077784,0.01,0.0012207030000004337,0.0,0.125,0.0,-0.0,0.0,0.25,1.596679524,0.01,0.0,0.30000001192092896,-0.2800000011920929,-91.0,-0.00372314453125,0.001708984375,1.0191650390625,36.56999969482422,0.0,3.0,0.7791595458984375,-1.5798797607421875,Closing,0.0,0.0,3.0,0.0,0.0,0.0,0.0,0.0,
1.3475429999999997,0.0,0.0,90408.0,0.0,0.0,0.0,0.0,0.125,0.8276366340000001,0.01,0.0012207030000001007,-94249.0,0.0,0.0,-0.0,0.0,0.125,0.527343696,0.01,0.0,1525.0,0.0,0.0,0.0,0.0,0.0,3.3276363780000002,0.01,0.0,0.0,0.125,0.0,-0.0,0.0,0.25,1.591796712,0.01,0.0012207029999995456,0.30000001192092896,-0.2800000011920929,-91.0,-0.00714111328125,0.005126953125,1.01953125,36.56999969482422,0.0,0.0,0.7791595458984375,-1.5798797607421875,Closing,0.0,0.0,3.0,0.0,0.0,0.0,0.0,0.0,
1.4056460000000006,0.0,0.0,90408.0,0.0,0.0,0.0,0.0,0.125,0.8276366340000001,0.01,0.0,-94249.0,0.0,0.0,-0.0,0.0,0.125,0.527343696,0.01,0.0,1525.0,0.0,0.0,0.0,0.0,0.0,3.3276363780000002,0.01,0.0,0.0,0.125,0.0,-0.0,0.0,0.25,1.595458821,0.01,-0.0012207029999995456,0.30000001192092896,-0.27000001072883606,-91.01000213623047,-0.005126953125,0.0030517578125,1.021484375,36.56999969482422,0.0,2.0,0.7791595458984375,-1.5798797607421875,Closing,0.0,0.0,3.0,0.0,0.0,0.0,0.0,0.0,
1.430964,0.0,0.0,90408.0,0.0,0.0,0.0,0.0,0.125,0.8276366340000001,0.01,0.0,-94249.0,0.0,0.0,-0.0,0.0,0.125,0.527343696,0.01,0.0,1525.0,0.0,0.0,0.0,0.0,0.0,3.328857081,0.01,0.0,0.0,0.125,0.0,-0.0,0.0,0.25,1.591796712,0.01,0.0,0.30000001192092896,-0.27000001072883606,-91.01000213623047,-0.0057373046875,0.0045166015625,1.01531982421875,36.56999969482422,0.0,0.0,0.7791595458984375,-1.5798797607421875,Closing,0.0,0.0,3.0,0.0,0.0,0.0,0.0,0.0,
1.477955,0.0,0.0,90408.0,0.0,0.0,0.0,0.0,0.125,0.8276366340000001,0.01,-0.0012207030000001007,-94249.0,0.0,0.0,-0.0,0.0,0.125,0.527343696,0.01,0.0012207029999995456,1525.0,0.0,0.0,0.0,0.0,0.0,3.328857081,0.01,-0.0012207030000004337,0.0,0.125,0.0,-0.0,0.0,0.25,1.590576009,0.01,-0.0012207030000004337,0.30000001192092896,-0.27000001072883606,-91.01000213623047,-0.0040283203125,0.00628662109375,1.01971435546875,36.59000015258789,0.0,0.0,0.7791595458984375,-1.5798797607421875,Closing,0.0,0.0,3.0,0.0,0.0,0.0,0.0,0.0,
1.4990750000000008,0.0,0.0,90408.0,0.0,0.0,0.0,0.0,0.125,0.8300780400000001,0.01,-0.0012207030000001007,-94249.0,0.0,0.0,-0.0,0.0,0.125,0.527343696,0.01,0.0012207029999995456,1525.0,0.0,0.0,0.0,0.0,0.0,3.328857081,0.01,0.0012207030000004337,0.0,0.125,0.0,-0.0,0.0,0.25,1.591796712,0.01,0.0,0.30000001192092896,-0.27000001072883606,-91.01000213623047,-0.004638671875,0.00579833984375,1.01641845703125,36.59000015258789,0.0,0.0,0.7791595458984375,-1.5798797607421875,Closing,0.0,0.0,3.0,0.0,0.0,0.0,0.0,0.0,
1.5452240000000002,0.0,0.0,90408.0,0.0,0.0,0.0,0.0,0.25,0.8276366340000001,0.01,0.0,-94249.0,0.0,0.0,-0.0,0.0,0.125,0.527343696,0.01,-0.0012207029999995456,1525.0,0.0,0.0,0.0,0.0,0.0,3.330077784,0.01,0.0012207030000004337,0.0,0.125,0.0,-0.0,0.0,0.25,1.591796712,0.01,0.0,0.30000001192092896,-0.27000001072883606,-91.01000213623047,-0.00543212890625,0.00543212890625,1.019287109375,36.59000015258789,0.0,0.0,0.7791595458984375,-1.5798797607421875,Closing,0.0,0.0,3.0,0.0,0.0,0.0,0.0,0.0,
1.5671810000000006,0.0,0.0,90408.0,0.0,0.0,0.0,0.0,0.25,0.8276366340000001,0.01,0.0012207030000001007,-94249.0,0.0,0.0,-0.0,0.0,0.125,0.527343696,0.01,0.0,1525.0,0.0,0.0,0.0,0.0,0.0,3.328857081,0.01,0.0,0.0,0.125,0.0,-0.0,0.0,0.25,1.591796712,0.01,0.0024414059999999793,0.28999999165534973,-0.2800000011920929,-91.01000213623047,-0.0050048828125,0.00274658203125,1.019775390625,36.59000015258789,0.0,2.0,0.7791595458984375,-1.5798797607421875,Closing,0.0,0.0,3.0,0.0,0.0,0.0,0.0,0.0,
1.6090210000000007,0.0,0.0,90408.0,0.0,0.0,0.0,0.0,0.125,0.8276366340000001,0.01,0.0012207030000001007,-94249.0,0.0,0.0,-0.0,0.0,0.125,0.5285643990000001,0.01,0.0,1525.0,0.0,0.0,0.0,0.0,0.0,3.328857081,0.01,0.0,0.0,0.125,0.0,-0.0,0.0,0.25,1.591796712,0.01,0.0024414059999999793,0.28999999165534973,-0.2800000011920929,-91.01000213623047,-0.0064697265625,0.00897216796875,1.018798828125,36.59000015258789,0.0,-3.0,0.7791595458984375,-1.5798797607421875,Closing,0.0,0.0,3.0,0.0,0.0,0.0,0.0,0.0,
1.6327780000000003,0.0,0.0,90408.0,0.0,0.0,0.0,0.0,0.125,0.8288573370000001,0.01,0.0,-94249.0,0.0,0.0,-0.0,0.0,0.125,0.527343696,0.01,0.0,1525.0,0.0,0.0,0.0,0.0,0.0,3.328857081,0.01,-0.0012207030000004337,0.0,0.125,0.0,-0.0,0.0,0.25,1.591796712,0.01,-0.0012207029999995456,0.28999999165534973,-0.2800000011920929,-91.01000213623047,-0.00384521484375,0.0050048828125,1.019775390625,36.59000015258789,0.0,0.0,0.7791595458984375,-1.5798797607421875,Closing,0.0,0.0,3.0,0.0,0.0,0.0,0.0,0.125,
1.654621000000001,0.0,0.0,90408.0,0.0,0.0,0.0,0.0,0.125,0.825195228,0.01,-0.0012207030000001007,-94249.0,0.0,0.0,-0.0,0.0,0.125,0.527343696,0.01,0.0,1525.0,0.0,0.0,0.0,0.0,0.0,3.328857081,0.01,0.0012207030000004337,0.0,0.125,0.0,-0.0,0.0,0.25,1.595458821,0.01,0.0012207029999995456,0.28999999165534973,-0.27000001072883606,-91.01000213623047,-0.00531005859375,0.00286865234375,1.021240234375,36.59000015258789,0.0,2.0,0.7791595458984375,-1.5798797607421875,Closing,0.0,0.0,3.0,0.0,0.0,0.0,0.0,0.0,
1.6897700000000004,0.0,0.0,90408.0,0.0,0.0,0.0,0.0,0.125,0.8276366340000001,0.01,-0.0012207030000001007,-94249.0,0.0,0.0,-0.0,0.0,0.125,0.527343696,0.01,0.0,1525.0,0.0,0.0,0.0,0.0,0.0,3.328857081,0.01,0.0012207030000004337,0.0,0.125,0.0,-0.0,0.0,0.25,1.591796712,0.01,0.0012207029999995456,0.28999999165534973,-0.27000001072883606,-91.01000213623047,-0.0042724609375,0.00665283203125,1.0230712890625,36.59000015258789,0.0,-1.0,0.7791595458984375,-1.5798797607421875,Closing,0.0,0.0,3.0,0.0,0.0,0.0,0.0,0.0,
1.7086730000000008,0.0,0.0,90408.0,0.0,0.0,0.0,0.0,0.125,0.8276366340000001,0.01,0.0,-94249.0,0.0,0.0,-0.0,0.0,0.125,0.527343696,0.01,0.0,1525.0,0.0,0.0,0.0,0.0,0.0,3.328857081,0.01,0.0,0.0,0.125,0.0,-0.0,0.0,0.25,1.595458821,0.01,-0.0012207029999995456,0.28999999165534973,-0.27000001072883606,-91.01000213623047,-0.006591796875,0.0030517578125,1.01763916015625,36.59000015258789,0.0,2.0,0.7791595458984375,-1.5798797607421875,Closing,0.0,0.0,3.0,0.0,0.0,0.0,0.0,0.0,
1.7509269999999997,0.0,0.0,90408.0,0.0,0.0,0.0,0.0,0.125,0.8276366340000001,0.01,0.0,-94249.0,0.0,0.0,-0.0,0.0,0.125,0.527343696,0.01,0.0,1525.0,0.125,0.0,0.0,0.0,0.0,3.330077784,0.01,0.0,0.0,0.125,0.0,-0.0,0.0,0.25,1.596679524,0.01,-0.0012207029999995456,0.28999999165534973,-0.27000001072883606,-91.01000213623047,-0.00714111328125,0.003662109375,1.0194091796875,36.59000015258789,0.0,1.0,0.7791595458984375,-1.5798797607421875,Closing,0.0,0.0,3.0,0.0,0.0,0.0,0.0,0.0,
1.7727680000000001,0.0,0.0,90408.0,0.0,0.0,0.0,0.0,0.125,0.8276366340000001,0.01,0.0012207030000001007,-94249.0,0.0,0.0,-0.0,0.0,0.125,0.526122993,0.01,0.0,1525.0,0.0,0.0,0.0,0.0,0.0,3.328857081,0.01,0.0,0.0,0.125,0.0,-0.0,0.0,0.25,1.596679524,0.01,0.0,0.28999999165534973,-0.27000001072883606,-91.01000213623047,-0.00238037109375,0.00518798828125,1.02569580078125,36.59000015258789,0.0,0.0,0.7791595458984375,-1.5798797607421875,Closing,0.0,0.0,3.0,0.0,0.0,0.0,0.0,0.0,
1.8134079999999995,0.0,0.0,90408.0,0.0,0.0,0.0,0.0,0.125,0.8276366340000001,0.01,0.0,-94249.0,0.0,0.0,-0.0,0.0,0.125,0.527343696,0.01,0.0,1525.0,0.0,0.0,0.0,0.0,0.0,3.328857081,0.01,0.0,0.0,0.125,0.0,-0.0,0.0,0.25,1.591796712,0.01,0.0,0.2800000011920929,-0.27000001072883606,-91.01000213623047,-0.004150390625,0.00506591796875,1.021240234375,36.59000015258789,0.0,0.0,0.7791595458984375,-1.5798797607421875,Closing,0.0,0.0,3.0,0.0,0.0,0.0,0.0,0.0,
1.8356849999999996,0.0,0.0,90408.0,0.0,0.0,0.0,0.0,0.125,0.8276366340000001,0.01,0.0,-94249.0,0.0,0.0,-0.0,0.0,0.125,0.527343696,0.01,0.0,1525.0,0.0,0.0,0.0,0.0,0.0,3.328857081,0.01,0.0,0.0,0.125,0.0,-0.0,0.0,0.25,1.591796712,0.01,0.0,0.2800000011920929,-0.27000001072883606,-91.01000213623047,-0.0054931640625,0.00372314453125,1.01513671875,36.59000015258789,0.0,1.0,0.7791595458984375,-1.5798797607421875,Closing,0.0,0.0,3.0,0.0,0.0,0.0,0.0,0.0,
1.865821,0.0,0.0,90408.0,0.0,0.0,0.0,0.0,0.125,0.8276366340000001,0.01,0.0,-94249.0,0.0,0.0,-0.0,0.0,0.125,0.527343696,0.01,0.0012207029999995456,1525.0,0.0,0.0,0.0,0.0,0.0,3.328857081,0.01,0.0,0.0,0.125,0.0,-0.0,0.0,0.25,1.591796712,0.01,0.0,0.2800000011920929,-0.27000001072883606,-91.01000213623047,-0.0059814453125,0.00567626953125,1.0225830078125,36.59000015258789,0.0,0.0,0.7791595458984375,-1.5798797607421875,Closing,0.0,0.0,3.0,0.0,0.0,0.0,0.0,0.0,
1.8910499999999992,0.0,0.0,90408.0,0.0,0.0,0.0,0.0,0.125,0.8276366340000001,0.01,0.0,-94249.0,0.0,0.0,-0.0,0.0,0.125,0.527343696,0.01,0.0012207029999995456,1525.0,0.0,0.0,0.0,0.0,0.0,3.328857081,0.01,0.0,0.0,0.125,0.0,-0.0,0.0,0.25,1.591796712,0.01,0.0,0.2800000011920929,-0.27000001072883606,-91.0199966430664,-0.00421142578125,0.005615234375,1.018798828125,36.59000015258789,0.0,0.0,0.7791595458984375,-1.5798797607421875,Closing,0.0,0.0,3.0,0.0,0.0,0.0,0.0,0.0,
1.9114629999999997,0.0,0.0,90408.0,0.0,0.0,0.0,0.0,0.125,0.8276366340000001,0.01,0.0,-94249.0,0.0,0.0,-0.0,0.0,0.125,0.5285643990000001,0.01,0.0012207029999995456,1525.0,0.0,0.0,0.0,0.0,0.0,3.328857081,0.01,0.0,0.0,0.125,0.0,-0.0,0.0,0.25,1.591796712,0.01,0.0012207029999995456,0.28999999165534973,-0.27000001072883606,-91.01000213623047,-0.00408935546875,0.00732421875,1.0220947265625,36.59000015258789,0.0,-2.0,0.7791595458984375,-1.5798797607421875,Closing,0.0,0.0,3.0,0.0,0.0,0.0,0.0,0.0,
1.9456069999999999,0.0,0.0,90408.0,0.0,0.0,0.0,0.0,0.125,0.8276366340000001,0.01,0.0,-94249.0,0.0,0.0,-0.0,0.0,0.125,0.527343696,0.01,-0.0012207029999995456,1525.0,0.0,0.0,0.0,0.0,0.0,3.330077784,0.01,0.0,0.0,0.125,0.0,-0.0,0.0,0.25,1.591796712,0.01,0.0012207029999995456,0.2800000011920929,-0.27000001072883606,-91.01000213623047,-0.00347900390625,0.006103515625,1.01995849609375,36.59000015258789,0.0,0.0,0.7791595458984375,-1.5798797607421875,Closing,0.0,0.0,3.0,0.0,0.0,0.0,0.0,0.0,
1.968794,0.0,0.0,90408.0,0.0,0.0,0.0,0.0,0.125,0.8276366340000001,0.01,-0.0012207030000001007,-94249.0,0.0,0.0,-0.0,0.0,0.125,0.527343696,0.01,0.0,1525.0,0.0,0.0,0.0,0.0,0.0,3.328857081,0.01,0.0,0.0,0.125,0.0,-0.0,0.0,0.25,1.591796712,0.01,0.0,0.2800000011920929,-0.27000001072883606,-91.01000213623047,-0.0059814453125,0.004150390625,1.0194091796875,36.59000015258789,0.0,1.0,0.7791595458984375,-1.5798797607421875,Closing,0.0,0.0,3.0,0.0,0.0,0.0,0.0,0.0,
1.9895130000000008,0.0,0.0,90408.0,0.0,0.0,0.0,0.0,0.125,0.8276366340000001,0.01,-0.0012207030000001007,-94249.0,0.0,0.0,-0.0,0.0,0.125,0.527343696,0.01,0.0,1525.0,0.0,0.0,0.0,0.0,0.0,3.328857081,0.01,0.0,0.0,0.125,0.0,-0.0,0.0,0.25,1.590576009,0.01,0.0,0.2800000011920929,-0.27000001072883606,-91.0199966430664,-0.00653076171875,0.006103515625,1.0201416015625,36.56999969482422,0.0,0.0,0.7791595458984375,-1.5798797607421875,Closing,0.0,0.0,3.0,0.0,0.0,0.0,0.0,0.0,
2.0130650000000005,0.0,0.0,90408.0,0.0,0.0,0.0,0.0,0.125,0.8276366340000001,0.01,0.0012207030000001007,-94249.0,0.0,0.0,-0.0,0.0,0.125,0.527343696,0.01,0.0,1525.0,0.0,0.0,0.0,0.0,0.0,3.328857081,0.01,0.0,0.0,0.125,0.0,-0.0,0.0,0.25,1.591796712,0.01,-0.0012207029999995456,0.2800000011920929,-0.27000001072883606,-91.0199966430664,-0.00592041015625,0.0037841796875,1.017578125,36.56999969482422,0.0,1.0,0.7791595458984375,-1.5798797607421875,Closing,0.0,0.0,3.0,0.0,0.0,0.0,0.0,0.0,
2.040992,0.0,0.0,90408.0,0.0,0.0,0.0,0.0,0.125,0.8276366340000001,0.01,0.0012207030000001007,-94249.0,0.0,0.0,-0.0,0.0,0.125,0.527343696,0.01,0.0,1525.0,0.0,0.0,0.0,0.0,0.0,3.328857081,0.01,0.0,0.0,0.125,0.0,-0.0,0.0,0.25,1.596679524,0.01,-0.0012207030000004337,0.2800000011920929,-0.27000001072883606,-91.0199966430664,-0.00518798828125,0.00567626953125,1.0224609375,36.56999969482422,0.0,0.0,0.7791595458984375,-1.5798797607421875,Closing,0.0,0.0,3.0,0.0,0.0,0.0,0.0,0.0,
2.086519,0.0,0.0,90408.0,0.0,0.0,0.0,0.0,0.125,0.8276366340000001,0.01,0.0,-94249.0,0.0,0.0,-0.0,0.0,0.125,0.527343696,0.01,0.0,1525.0,0.0,0.0,0.0,0.0,0.0,3.3276363780000002,0.01,0.0,0.0,0.125,0.0,-0.0,0.0,0.25,1.591796712,0.01,-0.0012207030000004337,0.2800000011920929,-0.27000001072883606,-91.0199966430664,-0.00506591796875,0.0045166015625,1.01458740234375,36.56999969482422,0.0,0.0,0.7791595458984375,-1.5798797607421875,Closing,0.0,0.0,3.0,0.0,0.0,0.0,0.0,0.0,
2.107540000000001,0.0,0.0,90408.0,0.0,0.0,0.0,0.0,0.125,0.8276366340000001,0.01,-0.0012207030000001007,-94249.0,0.0,0.0,-0.0,0.0,0.125,0.527343696,0.01,0.0,1525.0,0.0,0.0,0.0,0.0,0.0,3.330077784,0.01,-0.0012207030000004337,0.0,0.125,0.0,-0.0,0.0,0.25,1.595458821,0.01,0.0024414059999999793,0.28999999165534973,-0.27000001072883606,-91.0199966430664,-0.00384521484375,0.0045166015625,1.01922607421875,36.56999969482422,0.0,0.0,0.7791595458984375,-1.5798797607421875,Closing,0.0,0.0,3.0,0.0,0.0,0.0,0.0,0.0,
2.185723,0.0,0.0,90408.0,0.0,0.0,0.0,0.0,0.125,0.8276366340000001,0.01,0.0,-94249.0,0.0,0.0,-0.0,0.0,0.125,0.527343696,0.01,0.0,1525.0,0.0,0.0,0.0,0.0,0.0,3.328857081,0.01,0.0012207030000004337,0.0,0.125,0.0,-0.0,0.0,0.25,1.591796712,0.01,-0.0012207029999995456,0.28999999165534973,-0.27000001072883606,-91.0199966430664,-0.00726318359375,0.00604248046875,1.0186767578125,36.56999969482422,0.0,0.0,0.7791595458984375,-1.5798797607421875,Closing,0.0,0.0,3.0,0.0,0.0,0.0,0.0,0.0,
2.212786,0.0,0.0,90408.0,0.0,0.0,0.0,0.0,0.125,0.8276366340000001,0.01,0.0,-94249.0,0.0,0.0,-0.0,0.0,0.125,0.527343696,0.01,0.0,1525.0,0.0,0.0,0.0,0.0,0.0,3.328857081,0.01,0.0012207030000004337,0.0,0.125,0.0,-0.0,0.0,0.25,1.591796712,0.01,0.0,0.28999999165534973,-0.27000001072883606,-91.0199966430664,-0.0029296875,0.004150390625,1.0184326171875,36.56999969482422,0.0,1.0,0.7791595458984375,-1.5798797607421875,Closing,0.0,0.0,3.0,0.0,0.0,0.0,0.0,0.0,
2.234626,0.0,0.0,90408.0,0.0,0.0,0.0,0.0,0.125,0.8276366340000001,0.01,0.0012207030000001007,-94249.0,0.0,0.0,-0.0,0.0,0.125,0.526122993,0.01,0.0,1525.0,0.0,0.0,0.0,0.0,0.0,3.328857081,0.01,0.0,0.0,0.125,0.0,-0.0,0.0,0.25,1.595458821,0.01,0.0,0.28999999165534973,-0.27000001072883606,-91.0199966430664,-0.00677490234375,0.0035400390625,1.01776123046875,36.56999969482422,0.0,1.0,0.7791595458984375,-1.5798797607421875,Closing,0.0,0.0,3.0,0.0,0.0,0.0,0.0,0.0,
2.2816710000000002,0.0,0.0,90408.0,0.0,0.0,0.0,0.0,0.125,0.8276366340000001,0.01,0.0,-94249.0,0.0,0.0,-0.0,0.0,0.125,0.527343696,0.01,0.0,1525.0,0.0,0.0,0.0,0.0,0.0,3.328857081,0.01,0.0,0.0,0.125,0.0,-0.0,0.0,0.25,1.596679524,0.01,0.0,0.28999999165534973,-0.27000001072883606,-91.0199966430664,-0.00543212890625,0.0059814453125,1.01971435546875,36.56999969482422,0.0,0.0,0.7791595458984375,-1.5798797607421875,Closing,0.0,0.0,3.0,0.0,0.0,0.0,0.0,0.0,
2.300469000000001,0.0,0.0,90408.0,0.0,0.0,0.0,0.0,0.125,0.8276366340000001,0.01,0.0,-94249.0,0.0,0.0,-0.0,0.0,0.125,0.527343696,0.01,0.0,1525.0,0.0,0.0,0.0,0.0,0.0,3.328857081,0.01,0.0,0.0,0.125,0.0,-0.0,0.0,0.25,1.591796712,0.01,0.0,0.2800000011920929,-0.2800000011920929,-91.0199966430664,-0.0064697265625,0.00396728515625,1.021728515625,36.56999969482422,0.0,1.0,0.7791595458984375,-1.5798797607421875,Closing,0.0,0.0,3.0,0.0,0.0,0.0,0.0,0.0,
2.343124,0.0,0.0,90408.0,0.0,0.0,0.0,0.0,0.125,0.8276366340000001,0.01,-0.0012207030000001007,-94249.0,0.0,0.0,-0.0,0.0,0.125,0.527343696,0.01,0.0,1525.0,0.125,0.0,0.0,0.0,0.0,3.328857081,0.01,0.0,0.0,0.125,0.0,-0.0,0.0,0.25,1.596679524,0.01,0.0,0.28999999165534973,-0.2800000011920929,-91.0199966430664,-0.0035400390625,0.0052490234375,1.0196533203125,36.56999969482422,0.0,0.0,0.7791595458984375,-1.5798797607421875,Closing,0.0,0.0,3.0,0.0,0.0,0.0,0.0,0.0,
2.3654040000000003,0.0,0.0,90408.0,0.0,0.0,0.0,0.0,0.125,0.8276366340000001,0.01,-0.0012207030000001007,-94249.0,0.0,0.0,-0.0,0.0,0.125,0.526122993,0.01,0.0,1525.0,0.0,0.0,0.0,0.0,0.0,3.328857081,0.01,0.0,0.0,0.125,0.0,-0.0,0.0,0.25,1.591796712,0.01,0.0012207029999995456,0.28999999165534973,-0.2800000011920929,-91.0199966430664,-0.003662109375,0.0042724609375,1.0211181640625,36.56999969482422,0.0,1.0,0.7791595458984375,-1.5798797607421875,Closing,0.0,0.0,3.0,0.0,0.0,0.0,0.0,0.0,
2.411991,0.0,0.0,90408.0,0.0,0.0,0.0,0.0,0.125,0.825195228,0.01,0.0012207030000001007,-94249.0,0.0,0.0,-0.0,0.0,0.125,0.527343696,0.01,0.0,1525.0,0.0,0.0,0.0,0.0,0.0,3.328857081,0.01,0.0,0.0,0.125,0.0,-0.0,0.0,0.25,1.591796712,0.01,-0.0012207029999995456,0.28999999165534973,-0.2800000011920929,-91.0199966430664,-0.00457763671875,0.0086669921875,1.01849365234375,36.56999969482422,0.0,-3.0,0.7791595458984375,-1.5798797607421875,Closing,0.0,0.0,3.0,0.0,0.0,0.0,0.0,0.0,
2.4377559999999994,0.0,0.0,90408.0,0.0,0.0,0.0,0.0,0.125,0.8312987430000001,0.01,0.0,-94249.0,0.0,0.0,-0.0,0.0,0.125,0.526122993,0.01,0.0,1525.0,0.0,0.0,0.0,0.0,0.0,3.328857081,0.01,-0.0012207030000004337,0.0,0.125,0.0,-0.0,0.0,0.25,1.596679524,0.01,-0.0012207029999995456,0.28999999165534973,-0.2800000011920929,-91.0199966430664,-0.007080078125,0.006591796875,1.02294921875,36.56999969482422,0.0,-1.0,0.7791595458984375,-1.5798797607421875,Closing,0.0,0.0,3.0,0.0,0.0,0.0,0.0,0.0,
2.4798600000000004,0.0,0.0,90408.0,0.0,0.0,-138.89763727784157,0.0,0.125,0.8276366340000001,4.932250999999998,0.0,-94249.0,0.0,0.0,138.89763727784157,0.0,0.125,0.527343696,4.963769999999998,0.0,1525.0,0.0,0.0,-138.89763727784157,0.0,0.0,3.328857081,0.01,0.0,0.0,0.25,0.0,138.89763727784157,0.0,0.25,1.596679524,0.01,0.0,0.28999999165534973,-0.2800000011920929,-91.0199966430664,-0.00384521484375,0.0035400390625,1.01873779296875,36.61000061035156,0.0,1.0,0.7791595458984375,-1.5798797607421875,Closing,0.0,0.0,3.0,0.0,0.0,0.0,0.0,0.0,
2.4975689999999995,0.0,0.0,90408.0,0.0,0.0,-515.9055286645889,0.0,0.125,0.8276366340000001,4.932250999999998,0.0012207030000001007,-94249.0,0.0,0.0,515.9055286645889,0.0,0.125,0.527343696,4.963769999999998,0.0,1525.0,0.125,0.0,-515.9055286645889,0.0,0.0,3.328857081,0.01,0.0,0.0,0.25,0.0,515.9055286645889,0.0,0.25,1.594238118,0.01,-0.0012207030000004337,0.28999999165534973,-0.2800000011920929,-91.0199966430664,-0.00299072265625,0.00616455078125,1.01922607421875,36.61000061035156,0.0,0.0,0.7791595458984375,-1.5798797607421875,Closing,0.0,0.0,3.0,0.0,0.0,0.0,0.0,0.0,
2.5444339999999994,0.0,0.0,90403.0,0.375,-15.0,-654.8031377792358,0.0,0.125,0.8032225740000001,4.932250999999998,0.0,-94249.0,0.625,0.0,654.8031377792358,0.0,0.125,0.52490229,4.963769999999998,0.0,1524.0,0.625,0.0,-654.8031377792358,0.0,0.0,3.328857081,0.01,0.0,0.0,0.75,0.0,654.8031377792358,0.0,0.25,1.591796712,0.01,0.0012207030000004337,0.28999999165534973,-0.3100000023841858,-91.0199966430664,-0.01300048828125,-0.01123046875,1.00360107421875,36.61000061035156,0.0,16.0,0.7791595458984375,-1.5799713134765625,Closing,0.0,0.0,3.0,0.0,0.0,0.0,0.0,0.125,
2.5621450000000006,0.0,0.0,90403.0,0.375,-15.0,-674.6456480026245,0.0,0.125,0.832519446,4.932250999999998,0.0,-94249.0,0.875,15.0,674.6456480026245,0.0,0.125,0.527343696,4.963769999999998,0.0,1524.0,0.625,0.0,-674.6456480026245,0.0,0.0,3.333739893,0.01,0.0,0.0,1.25,15.0,674.6456480026245,0.0,0.25,1.597900227,0.01,-0.0012207030000004337,0.30000001192092896,-0.3100000023841858,-91.0199966430664,-0.04217529296875,0.0206298828125,1.0364990234375,36.61000061035156,0.0,-14.0,0.7791595458984375,-1.5800628662109375,Closing,0.0,0.0,3.0,0.0,0.0,0.0,0.0,0.0,
2.589192000000001,0.0,0.0,90403.0,0.75,-112.5,-674.6456480026245,0.0,0.125,0.837402258,4.932250999999998,0.0,-94249.0,2.0,135.0,674.6456480026245,0.0,0.125,0.522460884,4.963769999999998,0.0,1524.0,1.0,-7.5,-674.6456480026245,0.0,0.0,3.328857081,0.01,0.0,0.0,1.625,52.5,674.6456480026245,0.0,0.25,1.590576009,0.01,0.0024414059999999793,0.30000001192092896,-0.4699999988079071,-91.0,-0.34820556640625,0.034912109375,0.9964599609375,36.61000061035156,0.0,-23.0,0.779388427734375,-1.58099365234375,Closing,0.0,0.0,3.0,0.0,0.0,0.0,0.0,0.0,
2.610553,0.0,0.0,90403.0,1.375,-172.5,-694.4881582260131,0.0,0.125,0.838622961,4.932250999999998,0.004882811999999959,-94249.0,2.875,195.0,694.4881582260131,0.0,0.125,0.5175780720000001,4.963769999999998,-0.004882811999999959,1524.0,2.125,-22.5,-694.4881582260131,0.0,0.0,3.328857081,0.01,0.0,28.0,1.75,112.5,694.4881582260131,0.0,0.25,1.591796712,0.01,-0.003662108999999525,0.28999999165534973,-0.6800000071525574,-90.98999786376953,-0.01568603515625,-0.0322265625,1.20989990234375,36.61000061035156,0.0,38.0,0.7795257568359375,-1.5818939208984375,Closing,0.0,0.0,3.0,0.0,0.0,0.0,0.0,0.0,
2.632876,0.0,0.0,90403.0,1.625,-202.5,-694.4881582260131,0.0,0.125,0.8435057730000001,4.932250999999998,-0.0012207029999999897,-94216.0,3.375,225.0,694.4881582260131,0.0,0.125,0.52490229,4.963769999999998,-0.004882811999999959,1524.0,3.0,-45.0,-694.4881582260131,0.0,0.0,3.330077784,0.01,0.0,28.0,2.0,165.0,694.4881582260131,0.0,0.25,1.591796712,0.01,0.0012207029999995456,0.27000001072883606,-0.7400000095367432,-91.01000213623047,-0.05145263671875,0.04022216796875,0.95953369140625,36.61000061035156,0.0,-34.0,0.7798614501953125,-1.583892822265625,Closing,0.0,0.0,3.0,0.0,0.0,0.0,0.0,0.0,
2.666071,0.0,0.0,90373.0,2.0,-195.0,-694.4881582260131,0.0,0.25,0.837402258,4.932250999999998,0.0,-94216.0,3.5,225.0,694.4881582260131,0.0,0.125,0.507812448,4.963769999999998,0.0,1514.0,3.25,-60.0,-694.4881582260131,0.0,0.0,3.328857081,0.01,-0.0012207030000004337,28.0,2.25,210.0,694.4881582260131,0.0,0.25,1.588134603,0.01,0.0,0.3100000023841858,-0.7400000095367432,-91.01000213623047,-0.11126708984375,0.049072265625,1.118896484375,36.61000061035156,0.0,-41.0,0.780029296875,-1.586090087890625,Closing,0.0,0.0,3.0,0.0,0.0,0.0,0.0,0.0,
2.691678,0.0,0.0,90373.0,2.375,-142.5,-694.4881582260131,0.0,0.25,0.839843664,4.932250999999998,0.0012207029999999897,-94216.0,3.5,195.0,694.4881582260131,0.0,0.125,0.498046824,4.963769999999998,-0.019531248000000723,1514.0,3.875,-67.5,-694.4881582260131,0.0,0.0,3.328857081,0.01,0.0,28.0,2.375,195.0,694.4881582260131,0.0,0.25,1.591796712,0.01,0.0,0.30000001192092896,-0.9399999976158142,-91.0,-0.19134521484375,0.03509521484375,0.79449462890625,36.61000061035156,0.0,-27.0,0.780059814453125,-1.588775634765625,Closing,0.0,0.0,3.0,0.0,0.0,0.0,0.0,0.0,
2.7141740000000008,0.0,0.0,90373.0,2.875,-142.5,-694.4881582260131,0.0,0.25,0.837402258,4.932250999999998,-0.0012207029999999897,-94216.0,4.75,150.0,694.4881582260131,0.0,0.125,0.489501903,4.963769999999998,-0.003662108999999525,1514.0,4.75,-82.5,-694.4881582260131,0.0,0.0,3.328857081,0.01,0.0,55.0,2.75,172.5,694.4881582260131,0.0,0.25,1.591796712,0.01,0.0,0.30000001192092896,-1.0399999618530273,-90.95999908447266,-0.062744140625,0.009033203125,1.09686279296875,36.61000061035156,0.0,-2.0,0.7800445556640625,-1.5922088623046875,Closing,0.0,0.0,3.0,0.0,0.0,0.0,0.0,0.0,
2.749933999999999,0.0,0.0,90373.0,3.375,-165.0,-694.4881582260131,0.0,0.25,0.836181555,4.932250999999998,0.0012207029999999897,-94184.0,5.375,165.0,694.4881582260131,0.0,0.125,0.49316401200000004,4.963769999999998,-0.0012207030000004337,1514.0,4.875,-97.5,-694.4881582260131,0.0,0.0,3.353271141,0.01,0.009765623999999917,55.0,3.5,172.5,694.4881582260131,0.0,0.25,1.590576009,0.01,0.0,0.28999999165534973,-1.100000023841858,-90.94999694824219,-0.126953125,-0.06964111328125,1.11773681640625,36.61000061035156,0.0,77.0,0.78009033203125,-1.594085693359375,Closing,0.0,0.0,3.0,0.0,0.0,0.0,0.0,0.0,
2.7696090000000004,0.0,0.0,90373.0,3.625,-202.5,-694.4881582260131,0.0,0.25,0.8300780400000001,4.932250999999998,-0.0012207029999999897,-94184.0,5.875,195.0,694.4881582260131,0.0,0.125,0.49316401200000004,4.963769999999998,0.0,1483.0,5.125,-180.0,-694.4881582260131,0.0,0.0,3.3630367650000004,0.01,0.0,55.0,3.625,232.5,694.4881582260131,0.0,0.25,1.591796712,0.01,0.0,0.20000000298023224,-1.3300000429153442,-90.94000244140625,-0.0135498046875,0.08880615234375,0.9541015625,36.61000061035156,0.0,-85.0,0.7802734375,-1.6002197265625,Closing,0.0,0.0,3.0,0.0,0.0,0.0,0.0,0.0,
2.809058999999999,0.0,0.0,90331.0,3.375,-262.5,-714.3307435512543,0.0,0.25,0.833740149,4.932250999999998,0.0,-94184.0,6.25,262.5,714.3307435512543,0.0,0.125,0.49316401200000004,4.963769999999998,0.0012207030000004337,1483.0,5.375,-232.5,-714.3307435512543,0.0,0.0,3.3618160620000004,0.01,0.0012207029999999897,55.0,3.625,262.5,714.3307435512543,0.0,0.25,1.590576009,0.01,0.0,0.23000000417232513,-1.4299999475479126,-90.91999816894531,-0.13739013671875,-0.0152587890625,1.13934326171875,36.61000061035156,0.0,21.0,0.7801971435546875,-1.6023101806640625,Closing,0.0,0.0,3.0,0.0,0.0,0.0,0.0,0.0,
2.8314760000000008,0.0,0.0,90331.0,3.5,-292.5,-714.3307435512543,0.0,0.25,0.8410643670000001,4.932250999999998,0.0012207029999999897,-94184.0,6.25,292.5,714.3307435512543,0.0,0.125,0.49316401200000004,4.963769999999998,0.0,1483.0,5.5,-285.0,-714.3307435512543,0.0,0.0,3.3618160620000004,0.01,0.0,55.0,3.875,292.5,714.3307435512543,0.0,0.25,1.596679524,0.01,0.0,0.17000000178813934,-1.6299999952316284,-90.8499984741211,-0.130859375,0.04052734375,0.91009521484375,36.61000061035156,0.0,-36.0,0.7799072265625,-1.606964111328125,Closing,0.0,0.0,3.0,0.0,0.0,0.0,0.0,0.0,
2.8813050000000002,0.0,0.0,90331.0,3.375,-405.0,-714.3307435512543,0.0,0.25,0.837402258,4.932250999999998,0.0,-94123.0,6.375,360.0,714.3307435512543,0.0,0.125,0.4882812,4.963769999999998,0.0,1483.0,5.125,-360.0,-714.3307435512543,0.0,0.0,3.3618160620000004,0.01,0.0,110.0,4.125,360.0,714.3307435512543,0.0,0.25,1.597900227,0.01,0.0,0.1899999976158142,-1.8200000524520874,-90.75,-0.167236328125,0.133056640625,1.10662841796875,36.61000061035156,0.0,-127.0,0.779022216796875,-1.6146087646484375,Closing,0.0,0.0,3.0,0.0,0.0,0.0,0.0,0.125,
2.900276,0.0,0.0,90256.0,3.25,-435.0,-714.3307435512543,0.0,0.25,0.836181555,4.932250999999998,-0.0012207029999999897,-94123.0,6.375,390.0,714.3307435512543,0.0,0.125,0.489501903,4.963769999999998,-0.0012207030000004337,1418.0,5.125,-382.5,-714.3307435512543,0.0,0.0,3.3630367650000004,0.01,0.0,110.0,4.0,382.5,714.3307435512543,0.0,0.25,1.596679524,0.01,0.0,0.2199999988079071,-1.850000023841858,-90.70999908447266,-0.037353515625,0.07855224609375,0.9259033203125,36.61000061035156,0.0,-74.0,0.7785491943359375,-1.61737060546875,Closing,0.0,0.0,3.0,0.0,0.0,0.0,0.0,0.0,
2.932366,0.0,0.0,90256.0,3.25,-472.5,-714.3307435512543,0.0,0.25,0.836181555,4.932250999999998,0.0,-94123.0,6.0,457.5,714.3307435512543,0.0,0.125,0.48706049700000004,4.963769999999998,0.0,1418.0,5.25,-420.0,-714.3307435512543,0.0,0.0,3.3630367650000004,0.01,0.0,110.0,3.75,442.5,714.3307435512543,0.0,0.25,1.6015623360000002,0.01,0.0,0.20999999344348907,-2.109999895095825,-90.55999755859375,-0.19708251953125,0.021728515625,1.09967041015625,36.61000061035156,0.0,-16.0,0.77752685546875,-1.6264190673828125,Closing,0.0,0.0,3.0,0.0,0.0,0.0,0.0,0.0,
2.953272000000001,0.0,0.0,90256.0,3.0,-502.5,-714.3307435512543,0.0,0.25,0.837402258,4.932250999999998,-0.0012207029999999897,-94123.0,5.75,487.5,714.3307435512543,0.0,0.125,0.4882812,4.963769999999998,0.0,1418.0,5.125,-442.5,-714.3307435512543,0.0,0.0,3.3630367650000004,0.01,-0.0012207029999999897,110.0,3.625,480.0,714.3307435512543,0.0,0.25,1.596679524,0.01,0.003662108999999525,0.2199999988079071,-2.140000104904175,-90.5199966430664,-0.12353515625,0.05865478515625,1.03594970703125,36.61000061035156,0.0,-53.0,0.7774810791015625,-1.62969970703125,Closing,0.0,0.0,3.0,0.0,0.0,0.0,0.0,0.0,
2.9715540000000003,0.0,0.0,90256.0,2.875,-532.5,-714.3307435512543,0.0,0.25,0.837402258,4.932250999999998,0.0012207029999999897,-94034.0,5.125,547.5,714.3307435512543,0.0,0.125,0.4882812,4.963769999999998,0.0,1418.0,4.875,-502.5,-714.3307435512543,0.0,0.0,3.3618160620000004,0.01,0.0,193.0,3.625,540.0,714.3307435512543,0.0,0.25,1.596679524,0.01,0.0,0.20000000298023224,-2.299999952316284,-90.43000030517578,-0.12457275390625,0.029296875,1.05987548828125,36.61000061035156,0.0,-24.0,0.7772674560546875,-1.640106201171875,Closing,0.0,0.0,3.0,0.0,0.0,0.0,0.0,0.0,
3.010576000000001,0.0,0.0,90156.0,2.75,-592.5,-714.3307435512543,0.0,0.25,0.837402258,4.932250999999998,-0.0012207029999999897,-94034.0,5.0,577.5,714.3307435512543,0.0,0.125,0.4882812,4.963769999999998,0.0012207030000004337,1327.0,4.875,-502.5,-714.3307435512543,0.0,0.0,3.3618160620000004,0.01,0.0,193.0,3.625,540.0,714.3307435512543,0.0,0.25,1.595458821,0.01,-0.0012207029999995456,0.23000000417232513,-2.309999942779541,-90.38999938964844,-0.08270263671875,-0.0335693359375,0.9981689453125,36.61000061035156,0.0,37.0,0.7771759033203125,-1.64373779296875,Closing,0.0,0.0,3.0,0.0,0.0,0.0,0.0,0.0,
3.0307819999999994,0.0,0.0,90156.0,2.625,-615.0,-714.3307435512543,0.0,0.25,0.837402258,4.932250999999998,0.0,-94034.0,4.875,600.0,714.3307435512543,0.0,0.125,0.482177685,4.963769999999998,0.0,1327.0,4.625,-540.0,-714.3307435512543,0.0,0.0,3.358153953,0.01,0.0,193.0,3.375,562.5,714.3307435512543,0.0,0.25,1.600341633,0.01,0.003662108999999525,0.18000000715255737,-2.3399999141693115,-90.30999755859375,-0.10223388671875,0.00189208984375,1.04278564453125,36.61000061035156,0.0,1.0,0.7768096923828125,-1.651031494140625,Closing,0.0,0.0,3.0,0.0,0.0,0.0,0.0,0.125,
3.0699969999999994,0.0,0.0,90156.0,2.5,-667.5,-714.3307435512543,0.0,0.25,0.834960852,4.932250999999998,0.0,-94034.0,4.5,652.5,714.3307435512543,0.0,0.125,0.48706049700000004,4.963769999999998,-0.0012207030000004337,1327.0,4.25,-577.5,-714.3307435512543,0.0,0.0,3.3618160620000004,0.01,0.0,193.0,3.0,607.5,714.3307435512543,0.0,0.25,1.595458821,0.01,0.0,0.1899999976158142,-2.440000057220459,-90.23999786376953,-0.047607421875,0.022705078125,1.03662109375,36.61000061035156,0.0,-19.0,0.7768096923828125,-1.6585235595703125,Closing,0.0,0.0,3.0,0.0,0.0,0.0,0.0,0.0,
3.0920030000000005,0.0,0.0,90156.0,2.0,-682.5,-714.3307435512543,0.0,0.25,0.836181555,4.932250999999998,0.0,-94034.0,4.5,652.5,714.3307435512543,0.0,0.125,0.48706049700000004,4.963769999999998,0.0012207030000004337,1327.0,4.375,-532.5,-714.3307435512543,0.0,0.0,3.355712547,0.01,4.939179296999999,295.0,3.125,630.0,714.3307435512543,0.0,0.25,1.596679524,0.01,-0.0024414059999999793,0.20000000298023224,-2.440000057220459,-90.19999694824219,-0.029541015625,0.01995849609375,0.9022216796875,36.61000061035156,0.0,-16.0,0.7768096923828125,-1.6622772216796875,Closing,0.0,0.0,3.0,0.0,0.0,0.0,0.0,0.0,
3.1114269999999995,0.0,0.0,90156.0,2.0,-682.5,-714.3307435512543,0.0,0.25,0.839843664,4.932250999999998,0.0012207029999999897,-93922.0,4.375,675.0,714.3307435512543,0.0,0.125,0.48583979400000005,4.963769999999998,0.0,1327.0,4.5,-450.0,-714.3307435512543,0.0,0.0,3.3618160620000004,0.01,-0.0012207029999995456,295.0,3.0,652.5,714.3307435512543,0.0,0.25,1.600341633,0.01,0.0,0.17000000178813934,-2.4700000286102295,-90.13999938964844,-0.056884765625,0.06591796875,0.9102783203125,36.61000061035156,0.0,-63.0,0.7767486572265625,-1.6622772216796875,Closing,0.0,0.0,3.0,0.0,0.0,0.0,0.0,0.0,
3.1495339999999996,0.0,0.0,90035.0,1.625,-727.5,-714.3307435512543,0.0,0.25,0.8410643670000001,4.932250999999998,-0.0012207029999999897,-93922.0,3.875,705.0,714.3307435512543,0.0,0.125,0.4882812,4.963769999999998,0.0,1266.0,6.0,-337.5,-714.3307435512543,0.0,0.0,3.35693325,0.01,0.0,295.0,2.625,675.0,714.3307435512543,0.0,0.25,1.595458821,0.01,0.004882811999999959,0.20999999344348907,-2.4600000381469727,-89.94000244140625,-0.087158203125,2.44140625E-4,0.86505126953125,36.61000061035156,0.0,2.0,0.7758636474609375,-1.66259765625,Closing,0.0,0.0,3.0,0.0,0.0,0.0,0.0,0.0,
3.169116,0.0,0.0,90035.0,1.375,-750.0,-714.3307435512543,0.0,0.25,0.839843664,4.932250999999998,-0.0012207029999999897,-93922.0,3.5,720.0,714.3307435512543,0.0,0.125,0.4882812,4.963769999999998,0.0,1266.0,6.5,-390.0,-714.3307435512543,0.0,0.0,3.3618160620000004,0.01,-0.0012207030000004337,295.0,2.625,690.0,714.3307435512543,0.0,0.25,1.596679524,0.01,0.0,0.20999999344348907,-2.6500000953674316,-89.77999877929688,-0.0831298828125,0.02093505859375,1.11480712890625,36.61000061035156,0.0,-16.0,0.7751922607421875,-1.6630859375,Closing,0.0,0.0,3.0,0.0,0.0,0.0,0.0,0.0,
3.2075820000000004,0.0,0.0,90035.0,1.0,-795.0,-714.3307435512543,0.0,0.25,0.836181555,4.932250999999998,0.0012207029999999897,-93922.0,3.0,750.0,714.3307435512543,0.0,0.125,0.4882812,4.963769999999998,0.0,1266.0,6.25,-645.0,-714.3307435512543,0.0,0.0,3.3618160620000004,0.01,-4.936737891,413.0,2.5,720.0,714.3307435512543,0.0,0.25,1.5869139,0.01,-0.0012207029999995456,0.20999999344348907,-2.5299999713897705,-89.63999938964844,-0.06829833984375,-0.09686279296875,1.04071044921875,36.61000061035156,0.0,100.0,0.774627685546875,-1.6637725830078125,Closing,0.0,0.0,3.0,0.0,0.0,0.0,0.0,0.125,
3.2305249999999996,0.0,0.0,90035.0,0.75,-810.0,-714.3307435512543,0.0,0.25,0.849609288,4.932250999999998,0.0,-93799.0,2.75,765.0,714.3307435512543,0.0,0.125,0.4882812,4.963769999999998,0.0,1266.0,5.375,-757.5,-714.3307435512543,0.0,0.0,3.3630367650000004,0.01,0.0,413.0,2.375,742.5,714.3307435512543,0.0,0.25,1.596679524,0.01,0.0,0.2199999988079071,-2.5799999237060547,-89.55999755859375,0.01300048828125,0.1085205078125,1.15191650390625,36.61000061035156,0.0,-103.0,0.774383544921875,-1.6641082763671875,Closing,0.0,0.0,3.0,0.0,0.0,0.0,0.0,0.125,
3.254814,0.0,0.0,89900.0,0.625,-832.5,-714.3307435512543,0.0,0.25,0.837402258,4.932250999999998,0.0,-93799.0,2.375,795.0,714.3307435512543,0.0,0.125,0.4882812,4.963769999999998,0.0,1127.0,3.625,-847.5,-714.3307435512543,0.0,0.0,3.347167626,0.01,0.0,413.0,2.25,757.5,714.3307435512543,0.0,0.25,1.596679524,0.01,0.0,0.28999999165534973,-2.619999885559082,-89.44000244140625,-0.07489013671875,-0.0726318359375,0.889404296875,36.61000061035156,0.0,76.0,0.77386474609375,-1.664703369140625,Closing,0.0,0.0,3.0,0.0,0.0,0.0,0.0,0.125,
3.287772000000001,0.0,0.0,89900.0,0.625,-840.0,-714.3307435512543,0.0,0.25,0.837402258,4.932250999999998,0.0024414059999999793,-93799.0,2.25,810.0,714.3307435512543,0.0,0.125,0.489501903,4.963769999999998,0.0,1127.0,3.125,-855.0,-714.3307435512543,0.0,0.0,3.355712547,0.01,4.9355171879999995,413.0,2.0,772.5,714.3307435512543,0.0,0.25,1.596679524,0.01,0.0,0.30000001192092896,-2.5399999618530273,-89.33000183105469,-0.03759765625,-0.04241943359375,1.179931640625,36.61000061035156,0.0,48.0,0.773345947265625,-1.6653900146484375,Closing,0.0,0.0,3.0,0.0,0.0,0.0,0.0,0.0,
3.3077109999999994,0.0,0.0,89900.0,0.375,-847.5,-714.3307435512543,0.0,0.25,0.833740149,4.932250999999998,-0.0024414059999999793,-93799.0,2.0,817.5,714.3307435512543,0.0,0.125,0.4882812,4.963769999999998,0.0,1127.0,3.0,-862.5,-714.3307435512543,0.0,0.0,3.35693325,0.01,0.0,413.0,2.0,787.5,714.3307435512543,0.0,0.25,1.596679524,0.01,0.0,0.2800000011920929,-2.5199999809265137,-89.27999877929688,-0.08636474609375,0.09271240234375,1.1837158203125,36.61000061035156,0.0,-87.0,0.773040771484375,-1.6657257080078125,Closing,0.0,0.0,3.0,0.0,0.0,0.0,0.0,0.0,
3.3290149999999996,0.0,0.0,89900.0,0.375,-855.0,-714.3307435512543,0.0,0.25,0.836181555,4.932250999999998,0.0,-93799.0,1.875,817.5,714.3307435512543,0.0,0.125,0.4882812,4.963769999999998,0.0,1127.0,2.875,-870.0,-714.3307435512543,0.0,0.0,3.35693325,0.01,0.0,542.0,1.875,802.5,714.3307435512543,0.0,0.25,1.596679524,0.01,0.0,0.3199999928474426,-2.509999990463257,-89.19999694824219,-0.020751953125,-0.0185546875,0.901611328125,36.61000061035156,0.0,23.0,0.7722930908203125,-1.666229248046875,Closing,0.0,0.0,3.0,0.0,0.0,0.0,0.0,0.0,
3.3507880000000005,0.0,0.0,89900.0,0.375,-862.5,-714.3307435512543,0.0,0.25,0.837402258,4.932250999999998,0.0,-93665.0,1.75,825.0,714.3307435512543,0.0,0.125,0.4882812,4.963769999999998,0.0,1127.0,2.75,-870.0,-714.3307435512543,0.0,0.0,3.352050438,0.01,-0.0012207030000004337,542.0,1.875,795.0,714.3307435512543,0.0,0.25,1.596679524,0.01,0.0012207029999995456,0.3400000035762787,-2.4100000858306885,-89.08999633789062,0.0042724609375,-0.02935791015625,1.061767578125,36.61000061035156,0.0,36.0,0.7716064453125,-1.66668701171875,Closing,0.0,0.0,3.0,0.0,0.0,0.0,0.0,0.0,
3.371198,0.0,0.0,89761.0,0.375,-862.5,-714.3307435512543,0.0,0.25,0.837402258,4.932250999999998,-0.0012207029999999897,-93665.0,1.625,825.0,714.3307435512543,0.0,0.125,0.4882812,4.963769999999998,0.0012207030000004337,987.0,2.625,-877.5,-714.3307435512543,0.0,0.0,3.358153953,0.01,0.0,542.0,1.625,795.0,714.3307435512543,0.0,0.25,1.596679524,0.01,0.0,0.30000001192092896,-2.4200000762939453,-88.98999786376953,-0.058837890625,0.0966796875,0.97979736328125,36.61000061035156,0.0,-91.0,0.7710113525390625,-1.6668853759765625,Closing,0.0,0.0,3.0,0.0,0.0,0.0,0.0,0.0,
3.4153770000000003,0.0,0.0,89761.0,0.375,-862.5,-714.3307435512543,0.0,0.25,0.837402258,4.932250999999998,0.0,-93665.0,1.5,825.0,714.3307435512543,0.0,0.125,0.495605418,4.963769999999998,0.0,987.0,2.375,-870.0,-714.3307435512543,0.0,0.0,3.359374656,0.01,0.0,542.0,1.5,802.5,714.3307435512543,0.0,0.25,1.6015623360000002,0.01,0.0,0.3400000035762787,-2.319999933242798,-88.91000366210938,-0.05145263671875,-0.041015625,1.07659912109375,36.61000061035156,0.0,47.0,0.7701873779296875,-1.6665191650390625,Closing,0.0,0.0,3.0,0.0,0.0,0.0,0.0,0.0,
3.4373510000000005,0.0,0.0,89761.0,0.125,-862.5,-714.3307435512543,0.0,0.25,0.837402258,4.932250999999998,0.0024414059999999793,-93534.0,1.375,825.0,714.3307435512543,0.0,0.125,0.4882812,4.963769999999998,0.0,987.0,2.125,-862.5,-714.3307435512543,0.0,0.0,3.359374656,0.01,0.0,674.0,1.25,810.0,714.3307435512543,0.0,0.25,1.6015623360000002,0.01,0.003662109000000413,0.30000001192092896,-2.25,-88.81999969482422,0.0765380859375,-0.01251220703125,0.8392333984375,36.61000061035156,0.0,19.0,0.7693328857421875,-1.666015625,Closing,0.0,0.0,3.0,0.0,0.0,0.0,0.0,0.0,
3.4785169999999996,0.0,0.0,89761.0,0.125,-840.0,-714.3307435512543,0.0,0.25,0.837402258,4.932250999999998,0.0,-93534.0,1.25,817.5,714.3307435512543,0.0,0.125,0.4882812,4.963769999999998,0.0,855.0,2.125,-847.5,-714.3307435512543,0.0,0.0,3.35693325,0.01,0.0,674.0,1.25,825.0,714.3307435512543,0.0,0.25,1.6015623360000002,0.01,0.0,0.3400000035762787,-2.2699999809265137,-88.76000213623047,-0.0452880859375,0.03570556640625,1.24542236328125,36.61000061035156,0.0,-28.0,0.769317626953125,-1.6656646728515625,Closing,0.0,0.0,3.0,0.0,0.0,0.0,0.0,0.0,
3.500169,0.0,0.0,89630.0,0.375,-832.5,-714.3307435512543,0.0,0.25,0.838622961,4.932250999999998,0.0,-93534.0,1.125,817.5,714.3307435512543,0.0,0.125,0.4882812,4.963769999999998,0.0012207030000004337,855.0,2.125,-832.5,-714.3307435512543,0.0,0.0,3.358153953,0.01,0.0,674.0,1.125,817.5,714.3307435512543,0.0,0.25,1.6015623360000002,0.01,0.0,0.30000001192092896,-2.1700000762939453,-88.7300033569336,0.04150390625,-0.0147705078125,0.84686279296875,36.61000061035156,0.0,20.0,0.7693023681640625,-1.6656036376953125,Closing,0.0,0.0,3.0,0.0,0.0,0.0,0.0,0.0,
3.5408850000000003,0.0,0.0,89630.0,0.375,-810.0,-714.3307435512543,0.0,0.25,0.836181555,4.932250999999998,0.0,-93534.0,1.125,817.5,714.3307435512543,0.0,0.125,0.4882812,4.963769999999998,0.0,855.0,2.125,-802.5,-714.3307435512543,0.0,0.0,3.358153953,0.01,0.0,674.0,0.875,802.5,714.3307435512543,0.0,0.25,1.613769366,0.01,0.0,0.28999999165534973,-2.119999885559082,-88.66000366210938,0.027099609375,0.02032470703125,1.1427001953125,36.52000045776367,0.0,-12.0,0.7695770263671875,-1.6649169921875,Closing,0.0,0.0,3.0,0.0,0.0,0.0,0.0,0.0,
3.5580319999999994,0.0,0.0,89630.0,0.375,-795.0,-714.3307435512543,0.0,0.25,0.837402258,4.932250999999998,0.0,-93534.0,1.125,810.0,714.3307435512543,0.0,0.125,0.4882812,4.963769999999998,0.0,855.0,2.125,-787.5,-714.3307435512543,0.0,0.0,3.358153953,0.01,0.0,804.0,0.875,802.5,714.3307435512543,0.0,0.25,1.6015623360000002,0.01,0.0012207029999995456,0.25,-2.0899999141693115,-88.6500015258789,-7.9345703125E-4,-0.06842041015625,0.98077392578125,36.52000045776367,0.0,73.0,0.7696990966796875,-1.6645355224609375,Closing,0.0,0.0,3.0,0.0,0.0,0.0,0.0,0.0,
3.5957170000000005,0.0,0.0,89630.0,0.375,-780.0,-714.3307435512543,0.0,0.25,0.836181555,4.932250999999998,0.0,-93404.0,1.0,802.5,714.3307435512543,0.0,0.125,0.4882812,4.963769999999998,0.0,742.0,2.375,-765.0,-714.3307435512543,0.0,0.0,3.355712547,0.01,0.0,804.0,0.875,810.0,714.3307435512543,0.0,0.25,1.6015623360000002,0.01,0.0,0.23999999463558197,-2.0199999809265137,-88.5999984741211,-0.06597900390625,-0.0433349609375,0.996826171875,36.52000045776367,0.0,46.0,0.7704010009765625,-1.6629180908203125,Closing,0.0,0.0,3.0,0.0,0.0,0.0,0.0,0.0,
3.6214030000000004,0.0,0.0,89505.0,0.125,-780.0,-714.3307435512543,0.0,0.25,0.837402258,4.932250999999998,0.0,-93404.0,0.875,802.5,714.3307435512543,0.0,0.125,0.4882812,4.963769999999998,0.0,742.0,2.375,-720.0,-714.3307435512543,0.0,0.0,3.35693325,0.01,0.0,804.0,0.875,817.5,714.3307435512543,0.0,0.25,1.6015623360000002,0.01,0.0,0.23999999463558197,-2.009999990463257,-88.58000183105469,0.039306640625,-0.01806640625,1.12628173828125,36.52000045776367,0.0,24.0,0.770751953125,-1.662322998046875,Closing,0.0,0.0,3.0,0.0,0.0,0.0,0.0,0.0,
3.659630999999999,0.0,0.0,89505.0,0.125,-772.5,-396.8503922224045,0.0,0.25,0.836181555,4.932250999999998,-0.0012207029999999897,-93404.0,0.75,802.5,396.8503922224045,0.0,0.125,0.482177685,4.963769999999998,0.0012207030000004337,742.0,2.375,-510.0,-396.8503922224045,0.0,0.0,3.358153953,0.01,0.0,804.0,0.875,802.5,396.8503922224045,0.0,0.25,1.6015623360000002,0.01,0.0,0.27000001072883606,-1.9500000476837158,-88.5199966430664,-0.0526123046875,0.1341552734375,1.10003662109375,36.52000045776367,0.0,-129.0,0.771759033203125,-1.659912109375,Closing,0.0,0.0,3.0,0.0,0.0,0.0,0.0,0.0,
3.706035,0.0,0.0,89505.0,0.125,-750.0,-138.89763727784157,0.0,0.25,0.812988198,4.932250999999998,-0.013427732999999997,-93290.0,0.25,750.0,138.89763727784157,0.0,0.125,0.4882812,4.963769999999998,-0.0012207030000004337,742.0,2.125,-375.0,-138.89763727784157,0.0,0.0,3.359374656,0.01,0.0012207030000004337,921.0,0.375,705.0,138.89763727784157,0.0,0.25,1.6052244450000002,0.01,0.0,0.4399999976158142,-1.8899999856948853,-88.36000061035156,0.32568359375,0.02008056640625,1.1103515625,36.52000045776367,0.0,-1.0,0.7726593017578125,-1.6546630859375,Closing,0.0,0.0,3.0,0.0,0.0,0.0,0.0,0.0,
3.746013000000001,0.0,0.0,89391.0,0.125,-697.5,0.0,0.0,0.125,0.8178710100000001,4.932250999999998,0.0,-93290.0,0.125,630.0,0.0,0.0,0.125,0.4882812,4.963769999999998,0.0,663.0,1.875,-510.0,0.0,0.0,0.0,3.358153953,0.01,0.0,921.0,0.5,660.0,0.0,0.0,0.25,1.6101072570000001,0.01,0.0,0.41999998688697815,-1.6200000047683716,-88.30999755859375,0.253173828125,-0.0634765625,1.2105712890625,36.52000045776367,0.0,80.0,0.7729949951171875,-1.6527862548828125,Closing,0.0,0.0,3.0,0.0,0.0,0.0,0.0,0.0,
3.7651820000000007,0.0,0.0,89391.0,0.0,-697.5,0.0,0.0,0.125,0.8178710100000001,4.932250999999998,0.0,-93290.0,0.125,585.0,0.0,0.0,0.125,0.4882812,4.963769999999998,0.0,663.0,1.5,-510.0,0.0,0.0,0.0,3.35693325,0.01,0.0,921.0,0.25,630.0,0.0,0.0,0.25,1.6015623360000002,0.01,0.0,0.2800000011920929,-1.4600000381469727,-88.27999877929688,0.08843994140625,0.151123046875,1.01776123046875,36.52000045776367,0.0,-142.0,0.7732696533203125,-1.650634765625,Closing,0.0,0.0,3.0,0.0,0.0,0.0,0.0,0.0,
3.7984750000000003,0.0,0.0,89391.0,0.0,-712.5,0.0,0.0,0.125,0.8178710100000001,4.932250999999998,4.927368188,-93290.0,0.0,570.0,0.0,0.0,0.125,0.4882812,4.963769999999998,0.0012207030000004337,663.0,0.25,-667.5,0.0,0.0,0.0,3.353271141,0.01,-0.0012207030000004337,1020.0,0.125,622.5,0.0,0.0,0.25,1.6015623360000002,0.01,0.0012207029999995456,0.3700000047683716,-1.2699999809265137,-88.23999786376953,0.21356201171875,0.033203125,0.76910400390625,36.52000045776367,0.0,-21.0,0.773834228515625,-1.643157958984375,Closing,0.0,0.0,3.0,0.0,0.0,0.0,0.0,0.0,
3.820367,0.0,0.0,89391.0,0.0,-720.0,0.0,0.0,0.125,0.8178710100000001,4.932250999999998,4.927368188,-93190.0,0.0,592.5,0.0,0.0,0.125,0.49316401200000004,4.963769999999998,0.0012207030000004337,663.0,0.125,-652.5,0.0,0.0,0.0,3.352050438,0.01,-0.0012207030000004337,1020.0,0.125,637.5,0.0,0.0,0.25,1.6015623360000002,0.01,0.0012207029999995456,0.3499999940395355,-1.1799999475479126,-88.2300033569336,0.03570556640625,0.1025390625,1.1185302734375,36.52000045776367,0.0,-93.0,0.7739410400390625,-1.6402435302734375,Closing,0.0,0.0,3.0,0.0,0.0,0.0,0.0,0.0,
3.8408919999999998,0.0,0.0,89391.0,0.0,-727.5,0.0,0.0,0.125,0.819091713,4.932250999999998,0.0,-93190.0,0.0,622.5,0.0,0.0,0.125,0.49316401200000004,4.963769999999998,0.004882811999999959,663.0,0.0,-585.0,0.0,0.0,0.0,3.343505517,0.01,-0.004882811999999959,1020.0,0.125,652.5,0.0,0.0,0.25,1.6015623360000002,0.01,-0.0012207029999995456,0.3400000035762787,-1.1200000047683716,-88.2300033569336,0.11151123046875,-0.041015625,1.25128173828125,36.52000045776367,0.0,52.0,0.7740325927734375,-1.63720703125,Closing,0.0,0.0,3.0,0.0,0.0,0.0,0.0,0.0,
3.8639449999999997,0.0,0.0,89287.0,0.0,-660.0,0.0,0.0,0.125,0.819091713,4.932250999999998,0.0,-93190.0,0.0,645.0,0.0,0.0,0.125,0.498046824,4.963769999999998,0.004882811999999959,592.0,0.0,-495.0,0.0,0.0,0.0,3.328857081,0.01,-0.004882811999999959,1020.0,0.125,652.5,0.0,0.0,0.25,1.6015623360000002,0.01,-0.0012207029999995456,0.3400000035762787,-0.949999988079071,-88.27999877929688,0.0426025390625,0.0015869140625,0.78680419921875,36.52000045776367,0.0,4.0,0.7741851806640625,-1.63055419921875,Closing,0.0,0.0,3.0,0.0,0.0,0.0,0.0,0.0,
3.8916890000000004,0.0,0.0,89287.0,0.0,-615.0,0.0,0.0,0.125,0.8178710100000001,4.932250999999998,0.0,-93190.0,0.0,622.5,0.0,0.0,0.125,0.498046824,4.963769999999998,0.0,592.0,0.0,-330.0,0.0,0.0,0.0,3.33251919,0.01,-0.013427732999999442,1020.0,0.125,630.0,0.0,0.0,0.25,1.6015623360000002,0.01,0.0,0.3400000035762787,-0.8799999952316284,-88.30000305175781,0.063720703125,-0.00408935546875,0.58935546875,36.52000045776367,0.0,9.0,0.774261474609375,-1.6270599365234375,Closing,0.0,0.0,3.0,0.0,0.0,0.0,0.0,0.0,
3.910308000000001,0.0,0.0,89287.0,0.0,-577.5,0.0,0.0,0.125,0.8178710100000001,4.932250999999998,0.0,-93190.0,0.0,600.0,0.0,0.0,0.125,0.49316401200000004,4.963769999999998,0.0,592.0,0.0,-330.0,0.0,0.0,0.0,3.333739893,0.01,-0.013427732999999442,1020.0,0.125,600.0,0.0,0.0,0.25,1.600341633,0.01,0.0,0.3700000047683716,-0.7599999904632568,-88.27999877929688,0.0296630859375,-0.04022216796875,1.35723876953125,36.52000045776367,0.0,50.0,0.7744903564453125,-1.619659423828125,Closing,0.0,0.0,3.0,0.0,0.0,0.0,0.0,0.0,
3.9499439999999995,0.0,0.0,89287.0,0.0,-547.5,0.0,0.0,0.125,0.819091713,4.932250999999998,0.0,-93103.0,0.0,577.5,0.0,0.0,0.125,0.4882812,4.963769999999998,0.003662108999999525,592.0,0.0,-210.0,0.0,0.0,0.0,3.33251919,0.01,-0.004882811999999959,1111.0,0.125,547.5,0.0,0.0,0.25,1.6015623360000002,0.01,0.0,0.30000001192092896,-0.6800000071525574,-88.18000030517578,0.08123779296875,-0.0316162109375,0.868408203125,36.52000045776367,0.0,39.0,0.774932861328125,-1.6117706298828125,Closing,0.0,0.0,3.0,0.0,0.0,0.0,0.0,0.0,
3.9682440000000008,0.0,0.0,89287.0,0.0,-547.5,0.0,0.0,0.125,0.8178710100000001,4.932250999999998,0.0,-93103.0,0.0,547.5,0.0,0.0,0.125,0.4882812,4.963769999999998,0.003662108999999525,561.0,0.0,-180.0,0.0,0.0,0.0,3.333739893,0.01,-0.004882811999999959,1111.0,0.125,510.0,0.0,0.0,0.25,1.6015623360000002,0.01,0.0,0.3400000035762787,-0.5699999928474426,-88.08999633789062,0.109130859375,-0.0091552734375,1.04290771484375,36.52000045776367,0.0,19.0,0.77520751953125,-1.6033477783203125,Closing,0.0,0.0,3.0,0.0,0.0,0.0,0.0,0.0,
4.008557000000001,0.0,0.0,89202.0,0.0,-525.0,0.0,0.0,0.125,0.8178710100000001,4.932250999999998,0.0,-93103.0,0.0,487.5,0.0,0.0,0.125,0.4882812,4.963769999999998,-0.008544920999999484,561.0,0.0,-202.5,0.0,0.0,0.0,3.328857081,0.01,-0.0012207030000004337,1111.0,0.125,472.5,0.0,0.0,0.25,1.6015623360000002,0.01,0.0,0.3499999940395355,-0.4000000059604645,-88.02999877929688,0.057373046875,-0.04058837890625,1.03857421875,36.52000045776367,0.0,49.0,0.7752227783203125,-1.5943603515625,Closing,0.0,0.0,3.0,0.0,0.0,0.0,0.0,0.0,
4.052382,0.0,0.0,89202.0,0.0,-465.0,0.0,0.0,0.125,0.8178710100000001,4.932250999999998,0.0,-93038.0,0.0,420.0,0.0,0.0,0.125,0.4882812,4.963769999999998,0.0,561.0,0.0,-262.5,0.0,0.0,0.0,3.328857081,0.01,-0.004882811999999959,1178.0,0.125,427.5,0.0,0.0,0.25,1.6015623360000002,0.01,0.0,0.33000001311302185,-0.15000000596046448,-88.0199966430664,0.07666015625,-0.0164794921875,1.075927734375,36.529998779296875,0.0,25.0,0.775909423828125,-1.5750274658203125,Closing,0.0,0.0,3.0,0.0,0.0,0.0,0.0,0.0,
