Time,ClimberA1,ClimberA2,FRpos,FRCurrent,FRspeed,FRsetpoint,FRApos,FRACurrent,FREncpos,FREncSetpoint,FREncSpeed,FLpos,FLCurrent,FLspeed,FLsetpoint,FLApos,FLACurrent,FLEncpos,FLEncSetpoint,FLEncSpeed,BRpos,BRCurrent,BRspeed,BRsetpoint,BRApos,BRACurrent,BREncpos,BREncSetpoint,BREncSpeed,BLpos,BLCurrent,BLspeed,BLsetpoint,BLApos,BLACurrent,BLEncpos,BLEncSetpoint,BLEncSpeed,navx_Pitch,navx_Roll,navx_Yaw,navx_XAcc,navx_YAcc,navx_ZAcc,navx_Temp,navx_Bar,navx_Alt,navx_XDis,navx_YDis,GearPlacerState,ShootOutputV,ShootOutputCurrent,ShootEncPos,ShootEncVelocity,ShootSpeed,ShootSetpoint,CarouselSetpoint,CarouselCurrent,
0.2781469999999972,0.0,0.0,98382.0,0.0,0.0,0.0,0.0,0.25,0.845947179,0.01,0.0,-169945.0,0.0,0.0,-0.0,0.0,0.0,0.51269526,0.01,0.0,27160.0,0.0,0.0,0.0,0.0,0.125,3.382568013,0.01,0.0,-41846.0,0.0,0.0,-0.0,0.0,0.125,1.62353499,0.01,0.0,-0.07999999821186066,-0.2800000011920929,-173.55999755859375,-0.0076904296875,0.02227783203125,1.00555419921875,36.95000076293945,0.0,0.0,0.375885009765625,-2.74468994140625,Closing,0.0,0.0,3.0,0.0,0.0,0.0,0.0,0.0,
0.452,0.0,0.0,98382.0,0.0,0.0,0.0,0.0,0.25,0.845947179,0.01,0.0,-169945.0,0.0,0.0,-0.0,0.0,0.0,0.51269526,0.01,0.0,27160.0,0.0,0.0,0.0,0.0,0.125,3.382568013,0.01,0.0,-41846.0,0.125,0.0,-0.0,0.0,0.125,1.622314287,0.01,0.0,-0.11999999731779099,-0.3499999940395355,-173.55999755859375,-0.02935791015625,-0.105712890625,1.0272216796875,36.95000076293945,0.0,34.0,0.376220703125,-2.7450103759765625,Closing,0.0,0.0,3.0,0.0,0.0,0.0,0.0,0.0,
0.5813889999999665,0.0,0.0,98382.0,0.0,0.0,0.0,0.0,0.25,0.845947179,0.01,0.0,-169945.0,0.0,0.0,-0.0,0.0,0.0,0.51269526,0.01,0.0,27160.0,0.0,0.0,0.0,0.0,0.125,3.382568013,0.01,0.0,-41846.0,0.125,0.0,-0.0,0.0,0.125,1.62353499,0.01,0.0,-0.1599999964237213,-0.4000000059604645,-173.55999755859375,-0.14208984375,0.05657958984375,1.26397705078125,36.95000076293945,0.0,125.0,0.3770751953125,-2.7444000244140625,Closing,0.0,0.0,3.0,0.0,0.0,0.0,0.0,0.0,
0.7060799999999581,0.0,0.0,98382.0,0.0,0.0,0.0,0.0,0.25,0.845947179,0.01,0.0,-169945.0,0.0,0.0,-0.0,0.0,0.0,0.51269526,0.01,0.0,27160.0,0.0,0.0,0.0,0.0,0.125,3.382568013,0.01,0.0,-41846.0,0.125,0.0,-0.0,0.0,0.125,1.62353499,0.01,0.0,-0.1599999964237213,-0.3199999928474426,-173.5500030517578,0.007080078125,0.03411865234375,1.035888671875,36.95000076293945,0.0,-17.0,0.3773040771484375,-2.7458343505859375,Closing,0.0,0.0,3.0,0.0,0.0,0.0,0.0,0.0,
0.8260450000000419,0.0,0.0,98382.0,0.0,0.0,0.0,0.0,0.25,0.845947179,0.01,0.0,-169945.0,0.0,0.0,-0.0,0.0,0.0,0.51269526,0.01,0.0,27160.0,0.0,0.0,0.0,0.0,0.125,3.382568013,0.01,0.0,-41846.0,0.125,0.0,-0.0,0.0,0.125,1.622314287,0.01,0.0,-0.11999999731779099,-0.33000001311302185,-173.5500030517578,-0.01727294921875,-0.02154541015625,1.04229736328125,36.93000030517578,0.0,13.0,0.3770294189453125,-2.7461700439453125,Closing,0.0,0.0,3.0,0.0,0.0,0.0,0.0,0.0,
0.9500119999999879,0.0,0.0,98382.0,0.0,0.0,0.0,0.0,0.25,0.845947179,0.01,0.0,-169945.0,0.0,0.0,-0.0,0.0,0.0,0.51269526,0.01,0.0,27160.0,0.0,0.0,0.0,0.0,0.125,3.382568013,0.01,0.0,-41846.0,0.125,0.0,-0.0,0.0,0.125,1.62353499,0.01,0.0,-0.11999999731779099,-0.3100000023841858,-173.5500030517578,0.00286865234375,-0.00787353515625,0.96295166015625,36.93000030517578,0.0,-7.0,0.3765716552734375,-2.7471466064453125,Closing,0.0,0.0,3.0,0.0,0.0,0.0,0.0,0.125,
1.0693730000000214,0.0,0.0,98382.0,0.0,0.0,0.0,0.0,0.25,0.845947179,0.01,0.0,-169945.0,0.0,0.0,-0.0,0.0,0.0,0.51269526,0.01,0.0,27160.0,0.0,0.0,0.0,0.0,0.125,3.382568013,0.01,0.0,-41846.0,0.125,0.0,-0.0,0.0,0.125,1.622314287,0.01,0.0,-0.10999999940395355,-0.28999999165534973,-173.5500030517578,-0.00640869140625,-0.014404296875,1.065185546875,36.93000030517578,0.0,2.0,0.3768157958984375,-2.746673583984375,Closing,0.0,0.0,3.0,0.0,0.0,0.0,0.0,0.0,
1.1934919999999694,0.0,0.0,98382.0,0.0,0.0,0.0,0.0,0.25,0.8447264760000001,0.01,0.0,-169945.0,0.0,0.0,-0.0,0.0,0.0,0.51269526,0.01,0.0,27160.0,0.0,0.0,0.0,0.0,0.125,3.382568013,0.01,0.0,-41846.0,0.125,0.0,-0.0,0.0,0.125,1.622314287,0.01,0.0,-0.10999999940395355,-0.2800000011920929,-173.5500030517578,0.0059814453125,0.0369873046875,1.04290771484375,36.93000030517578,0.0,-15.0,0.376129150390625,-2.746673583984375,Closing,0.0,0.0,3.0,0.0,0.0,0.0,0.0,0.0,
1.3119399999999442,0.0,0.0,98382.0,0.0,0.0,0.0,0.0,0.25,0.845947179,0.01,0.0,-169945.0,0.0,0.0,-0.0,0.0,0.0,0.51269526,0.01,0.0,27160.0,0.0,0.0,0.0,0.0,0.125,3.382568013,0.01,0.0,-41846.0,0.125,0.0,-0.0,0.0,0.125,1.622314287,0.01,0.0,-0.10000000149011612,-0.28999999165534973,-173.5500030517578,-0.02899169921875,-0.0145263671875,1.0120849609375,36.90999984741211,0.0,25.0,0.376129150390625,-2.74676513671875,Closing,0.0,0.0,3.0,0.0,0.0,0.0,0.0,0.0,
1.4359320000000297,0.0,0.0,98382.0,0.0,0.0,0.0,0.0,0.25,0.8447264760000001,0.01,0.0,-169945.0,0.0,0.0,-0.0,0.0,0.0,0.51269526,0.01,0.0,27160.0,0.0,0.0,0.0,0.0,0.125,3.382568013,0.01,0.0,-41846.0,0.125,0.0,-0.0,0.0,0.125,1.622314287,0.01,0.0,-0.10000000149011612,-0.2800000011920929,-173.5500030517578,0.02386474609375,0.01910400390625,1.02850341796875,36.90999984741211,0.0,-31.0,0.3762054443359375,-2.746490478515625,Closing,0.0,0.0,3.0,0.0,0.0,0.0,0.0,0.0,
1.5628699999999953,0.0,0.0,98382.0,0.0,0.0,0.0,0.0,0.25,0.8447264760000001,0.01,0.0,-169945.0,0.0,0.0,-0.0,0.0,0.0,0.51269526,0.01,0.0,27160.0,0.0,0.0,0.0,0.0,0.125,3.382568013,0.01,0.0,-41846.0,0.125,0.0,-0.0,0.0,0.125,1.622314287,0.01,0.0,-0.09000000357627869,-0.27000001072883606,-173.5500030517578,-0.02752685546875,-0.03179931640625,1.00091552734375,36.90999984741211,0.0,25.0,0.37554931640625,-2.7470703125,Closing,0.0,0.0,3.0,0.0,0.0,0.0,0.0,0.0,
1.6892190000000409,0.0,0.0,98382.0,0.0,0.0,0.0,0.0,0.25,0.8447264760000001,0.01,0.0,-169945.0,0.0,0.0,-0.0,0.0,0.0,0.51269526,0.01,0.0,27160.0,0.0,0.0,0.0,0.0,0.125,3.383788716,0.01,0.0,-41846.0,0.125,0.0,-0.0,0.0,0.125,1.622314287,0.01,0.0,-0.09000000357627869,-0.27000001072883606,-173.55999755859375,0.01849365234375,0.04034423828125,1.016845703125,36.90999984741211,0.0,-27.0,0.37579345703125,-2.7469024658203125,Closing,0.0,0.0,3.0,0.0,0.0,0.0,0.0,0.0,
1.809616000000038,0.0,0.0,98382.0,0.0,0.0,0.0,0.0,0.25,0.845947179,0.01,0.0,-169945.0,0.0,0.0,-0.0,0.0,0.0,0.51269526,0.01,0.0,27160.0,0.0,0.0,0.0,0.0,0.125,3.382568013,0.01,0.0,-41846.0,0.125,0.0,-0.0,0.0,0.125,1.622314287,0.01,0.0,-0.09000000357627869,-0.25999999046325684,-173.55999755859375,-0.0093994140625,0.01458740234375,1.01995849609375,36.90999984741211,0.0,2.0,0.3751220703125,-2.7475128173828125,Closing,0.0,0.0,3.0,0.0,0.0,0.0,0.0,0.125,
1.9193209999999963,0.0,0.0,98382.0,0.0,0.0,0.0,0.0,0.25,0.8447264760000001,0.01,0.0,-169945.0,0.0,0.0,-0.0,0.0,0.0,0.511474557,0.01,0.0,27160.0,0.0,0.0,0.0,0.0,0.125,3.38134731,0.01,0.0,-41846.0,0.125,0.0,-0.0,0.0,0.125,1.62353499,0.01,0.0,-0.07000000029802322,-0.25999999046325684,-173.55999755859375,-0.00927734375,-0.00537109375,1.025146484375,36.95000076293945,0.0,5.0,0.3756561279296875,-2.7469329833984375,Closing,0.0,0.0,3.0,0.0,0.0,0.0,0.0,0.0,
2.0343950000000186,0.0,0.0,98382.0,0.0,0.0,0.0,0.0,0.25,0.8447264760000001,0.01,0.0,-169945.0,0.0,0.0,-0.0,0.0,0.0,0.51269526,0.01,0.0,27160.0,0.0,0.0,0.0,0.0,0.125,3.382568013,0.01,0.0,-41846.0,0.0,0.0,-0.0,0.0,0.125,1.622314287,0.01,0.0,-0.07999999821186066,-0.25999999046325684,-173.55999755859375,0.00341796875,0.03204345703125,1.0411376953125,36.95000076293945,0.0,-12.0,0.375152587890625,-2.7472686767578125,Closing,0.0,0.0,3.0,0.0,0.0,0.0,0.0,0.0,
2.1469599999999627,0.0,0.0,98382.0,0.0,0.0,0.0,0.0,0.25,0.8447264760000001,0.01,0.0,-169945.0,0.0,0.0,-0.0,0.0,0.0,0.51269526,0.01,0.0,27160.0,0.0,0.0,0.0,0.0,0.125,3.382568013,0.01,0.0,-41846.0,0.125,0.0,-0.0,0.0,0.125,1.622314287,0.01,0.0,-0.07999999821186066,-0.25999999046325684,-173.55999755859375,-0.02313232421875,-0.0164794921875,1.01153564453125,36.95000076293945,0.0,19.0,0.375396728515625,-2.7474212646484375,Closing,0.0,0.0,3.0,0.0,0.0,0.0,0.0,0.0,
2.2589340000000084,0.0,0.0,98382.0,0.0,0.0,0.0,0.0,0.25,0.845947179,0.01,0.0,-169945.0,0.0,0.0,-0.0,0.0,0.0,0.51269526,0.01,0.0,27160.0,0.0,0.0,0.0,0.0,0.125,3.383788716,0.01,0.0,-41846.0,0.125,0.0,-0.0,0.0,0.125,1.62353499,0.01,0.0,-0.07000000029802322,-0.25999999046325684,-173.55999755859375,0.00994873046875,0.0146484375,1.03704833984375,36.95000076293945,0.0,-16.0,0.37506103515625,-2.7471160888671875,Closing,0.0,0.0,3.0,0.0,0.0,0.0,0.0,0.0,
2.371069999999949,0.0,0.0,98382.0,0.0,0.0,0.0,0.0,0.25,0.845947179,0.01,0.0,-169945.0,0.0,0.0,-0.0,0.0,0.0,0.51269526,0.01,0.0,27160.0,0.0,0.0,0.0,0.0,0.125,3.382568013,0.01,0.0,-41846.0,0.125,0.0,-0.0,0.0,0.125,1.62353499,0.01,0.0,-0.07000000029802322,-0.25999999046325684,-173.55999755859375,-0.03912353515625,-0.03936767578125,0.9796142578125,36.95000076293945,0.0,38.0,0.375,-2.7475128173828125,Closing,0.0,0.0,3.0,0.0,0.0,0.0,0.0,0.0,
2.4915130000000354,0.0,0.0,98382.0,0.0,0.0,0.0,0.0,0.25,0.845947179,0.01,0.0,-169945.0,0.0,0.0,-0.0,0.0,0.0,0.51269526,0.01,0.0,27160.0,0.0,0.0,0.0,0.0,0.125,3.382568013,0.01,0.0,-41846.0,0.125,0.0,-0.0,0.0,0.125,1.622314287,0.01,0.0,-0.07999999821186066,-0.27000001072883606,-173.55999755859375,0.0252685546875,0.0206298828125,1.0301513671875,36.95000076293945,0.0,-32.0,0.3753814697265625,-2.7469635009765625,Closing,0.0,0.0,3.0,0.0,0.0,0.0,0.0,0.0,
2.6103079999999608,0.0,0.0,98382.0,0.0,0.0,0.0,0.0,0.25,0.845947179,0.01,0.0,-169945.0,0.0,0.0,-0.0,0.0,0.0,0.51269526,0.01,0.0,27160.0,0.0,0.0,0.0,0.0,0.125,3.382568013,0.01,0.0,-41846.0,0.125,0.0,-0.0,0.0,0.125,1.622314287,0.01,0.0,-0.07000000029802322,-0.25999999046325684,-173.57000732421875,-0.03424072265625,-0.019775390625,0.99957275390625,36.95000076293945,0.0,31.0,0.3748321533203125,-2.7474212646484375,Closing,0.0,0.0,3.0,0.0,0.0,0.0,0.0,0.0,
2.7533399999999673,0.0,0.0,98382.0,0.0,0.0,0.0,0.0,0.25,0.845947179,0.01,0.0,-169945.0,0.0,0.0,-0.0,0.0,0.0,0.51269526,0.01,0.0,27160.0,0.0,0.0,0.0,0.0,0.125,3.382568013,0.01,0.0,-41846.0,0.125,0.0,-0.0,0.0,0.125,1.622314287,0.01,0.0,-0.07000000029802322,-0.25999999046325684,-173.57000732421875,0.016845703125,0.043212890625,1.01385498046875,36.95000076293945,0.0,-26.0,0.3749542236328125,-2.7470550537109375,Closing,0.0,0.0,3.0,0.0,0.0,0.0,0.0,0.125,
2.8694780000000026,0.0,0.0,98382.0,0.0,0.0,0.0,0.0,0.25,0.8447264760000001,0.01,0.0,-169945.0,0.0,0.0,-0.0,0.0,0.0,0.51269526,0.01,0.0,27160.0,0.0,0.0,0.0,0.0,0.125,3.382568013,0.01,0.0,-41846.0,0.125,0.0,-0.0,0.0,0.125,1.622314287,0.01,0.0,-0.05000000074505806,-0.25,-173.57000732421875,-0.03521728515625,-0.0374755859375,0.988525390625,36.939998626708984,0.0,34.0,0.3743133544921875,-2.747528076171875,Closing,0.0,0.0,3.0,0.0,0.0,0.0,0.0,0.125,
2.9796080000000074,0.0,0.0,98382.0,0.0,0.0,0.0,0.0,0.25,0.845947179,0.01,0.0,-169945.0,0.0,0.0,-0.0,0.0,0.0,0.513915963,0.01,0.0,27160.0,0.0,0.0,0.0,0.0,0.125,3.382568013,0.01,0.0,-41846.0,0.0,0.0,-0.0,0.0,0.125,1.622314287,0.01,0.0,-0.05999999865889549,-0.25999999046325684,-173.57000732421875,0.0264892578125,-0.0079345703125,1.031982421875,36.939998626708984,0.0,-30.0,0.3747711181640625,-2.7469329833984375,Closing,0.0,0.0,3.0,0.0,0.0,0.0,0.0,0.0,
3.100241000000038,0.0,0.0,98382.0,0.0,0.0,0.0,0.0,0.25,0.845947179,0.01,0.0,-169945.0,0.0,0.0,-0.0,0.0,0.0,0.51269526,0.01,0.0,27160.0,0.0,0.0,0.0,0.0,0.125,3.382568013,0.01,0.0,-41846.0,0.0,0.0,-0.0,0.0,0.125,1.62353499,0.01,0.0,-0.05999999865889549,-0.25,-173.57000732421875,-0.0115966796875,0.01788330078125,1.018310546875,36.939998626708984,0.0,4.0,0.3742523193359375,-2.747528076171875,Closing,0.0,0.0,3.0,0.0,0.0,0.0,0.0,0.125,
3.211481000000029,0.0,0.0,98382.0,0.0,0.0,0.0,0.0,0.25,0.845947179,0.01,0.0,-169945.0,0.0,0.0,-0.0,0.0,0.0,0.51269526,0.01,0.0,27160.0,0.0,0.0,0.0,0.0,0.125,3.382568013,0.01,0.0,-41846.0,0.125,0.0,-0.0,0.0,0.125,1.622314287,0.01,0.0,-0.03999999910593033,-0.25,-173.57000732421875,0.00238037109375,-0.005859375,1.01763916015625,36.939998626708984,0.0,-6.0,0.3747711181640625,-2.74700927734375,Closing,0.0,0.0,3.0,0.0,0.0,0.0,0.0,0.0,
3.326758999999962,0.0,0.0,98382.0,0.0,0.0,0.0,0.0,0.25,0.845947179,0.01,0.0,-169945.0,0.0,0.0,-0.0,0.0,0.0,0.51269526,0.01,0.0,27160.0,0.0,0.0,0.0,0.0,0.125,3.38134731,0.01,0.0,-41846.0,0.0,0.0,-0.0,0.0,0.125,1.62353499,0.01,0.0,-0.05999999865889549,-0.25999999046325684,-173.57000732421875,-0.01324462890625,-0.0052490234375,1.00762939453125,36.939998626708984,0.0,8.0,0.3742828369140625,-2.7476654052734375,Closing,0.0,0.0,3.0,0.0,0.0,0.0,0.0,0.0,
3.4443589999999387,0.0,0.0,98382.0,0.0,0.0,0.0,0.0,0.25,0.845947179,0.01,0.0,-169945.0,0.0,0.0,-0.0,0.0,0.0,0.51269526,0.01,0.0,27160.0,0.0,0.0,0.0,0.0,0.125,3.382568013,0.01,0.0,-41846.0,0.125,0.0,-0.0,0.0,0.125,1.622314287,0.01,0.0,-0.03999999910593033,-0.25,-173.57000732421875,-0.005126953125,-0.00299072265625,1.01165771484375,36.95000076293945,0.0,0.0,0.3748016357421875,-2.7470703125,Closing,0.0,0.0,3.0,0.0,0.0,0.0,0.0,0.0,
3.556417999999947,0.0,0.0,98382.0,0.0,0.0,0.0,0.0,0.25,0.845947179,0.01,0.0,-169945.0,0.0,0.0,-0.0,0.0,0.0,0.51269526,0.01,0.0,27160.0,0.0,0.0,0.0,0.0,0.125,3.382568013,0.01,0.0,-41846.0,0.125,0.0,-0.0,0.0,0.125,1.622314287,0.01,0.0,-0.05000000074505806,-0.25999999046325684,-173.57000732421875,-0.0079345703125,0.01904296875,1.02392578125,36.95000076293945,0.0,0.0,0.3742523193359375,-2.74749755859375,Closing,0.0,0.0,3.0,0.0,0.0,0.0,0.0,0.0,
3.6715409999999684,0.0,0.0,98382.0,0.0,0.0,0.0,0.0,0.25,0.8447264760000001,0.01,0.0,-169945.0,0.0,0.0,-0.0,0.0,0.0,0.51269526,0.01,0.0,27160.0,0.0,0.0,0.0,0.0,0.125,3.382568013,0.01,0.0,-41846.0,0.125,0.0,-0.0,0.0,0.125,1.622314287,0.01,0.0,-0.03999999910593033,-0.25,-173.5800018310547,-0.0047607421875,-0.03271484375,1.0379638671875,36.95000076293945,0.0,3.0,0.374755859375,-2.747283935546875,Closing,0.0,0.0,3.0,0.0,0.0,0.0,0.0,0.0,
3.7831849999999396,0.0,0.0,98382.0,0.0,0.0,0.0,0.0,0.25,0.845947179,0.01,0.0,-169945.0,0.0,0.0,-0.0,0.0,0.0,0.51269526,0.01,0.0,27160.0,0.0,0.0,0.0,0.0,0.125,3.38134731,0.01,0.0,-41846.0,0.125,0.0,-0.0,0.0,0.125,1.622314287,0.01,0.0,-0.05999999865889549,-0.25999999046325684,-173.5800018310547,-0.0068359375,0.01934814453125,1.02496337890625,36.95000076293945,0.0,0.0,0.3742523193359375,-2.7475128173828125,Closing,0.0,0.0,3.0,0.0,0.0,0.0,0.0,0.0,
3.8973279999999795,0.0,0.0,98382.0,0.0,0.0,0.0,0.0,0.25,0.845947179,0.01,0.0,-169945.0,0.0,0.0,-0.0,0.0,0.0,0.513915963,0.01,0.0,27160.0,0.0,0.0,0.0,0.0,0.125,3.382568013,0.01,0.0,-41846.0,0.125,0.0,-0.0,0.0,0.125,1.622314287,0.01,0.0,-0.03999999910593033,-0.23999999463558197,-173.5800018310547,-0.00372314453125,-0.02423095703125,1.031982421875,36.95000076293945,0.0,1.0,0.3747711181640625,-2.7473297119140625,Closing,0.0,0.0,3.0,0.0,0.0,0.0,0.0,0.0,
4.012768999999971,0.0,0.0,98382.0,0.0,0.0,0.0,0.0,0.25,0.845947179,0.01,0.0,-169945.0,0.0,0.0,-0.0,0.0,0.0,0.511474557,0.01,0.0,27160.0,0.0,0.0,0.0,0.0,0.125,3.382568013,0.01,0.0,-41846.0,0.125,0.0,-0.0,0.0,0.125,1.62353499,0.01,0.0,-0.05000000074505806,-0.25,-173.5800018310547,0.015380859375,0.01190185546875,1.0594482421875,36.95000076293945,0.0,-21.0,0.3744049072265625,-2.747344970703125,Closing,0.0,0.0,3.0,0.0,0.0,0.0,0.0,0.0,
4.126268999999971,0.0,0.0,98382.0,0.0,0.0,0.0,0.0,0.25,0.845947179,0.01,0.0,-169945.0,0.0,0.0,-0.0,0.0,0.0,0.51269526,0.01,0.0,27160.0,0.0,0.0,0.0,0.0,0.125,3.382568013,0.01,0.0,-41846.0,0.125,0.0,-0.0,0.0,0.125,1.622314287,0.01,0.0,-0.05999999865889549,-0.25,-173.5800018310547,-0.02618408203125,-0.023193359375,1.00262451171875,36.95000076293945,0.0,24.0,0.374481201171875,-2.7476043701171875,Closing,0.0,0.0,3.0,0.0,0.0,0.0,0.0,0.125,
4.2422550000000046,0.0,0.0,98382.0,0.0,0.0,0.0,0.0,0.25,0.845947179,0.01,0.0,-169945.0,0.0,0.0,-0.0,0.0,0.0,0.51269526,0.01,0.0,27160.0,0.0,0.0,0.0,0.0,0.125,3.382568013,0.01,0.0,-41846.0,0.125,0.0,-0.0,0.0,0.125,1.622314287,0.01,0.0,-0.05000000074505806,-0.25,-173.5800018310547,0.01129150390625,0.02349853515625,1.064208984375,36.95000076293945,0.0,-18.0,0.3743438720703125,-2.7464752197265625,Closing,0.0,0.0,3.0,0.0,0.0,0.0,0.0,0.0,
4.354846999999951,0.0,0.0,98382.0,0.0,0.0,0.0,0.0,0.25,0.845947179,0.01,0.0,-169945.0,0.0,0.0,-0.0,0.0,0.0,0.51269526,0.01,0.0,27160.0,0.0,0.0,0.0,0.0,0.125,3.382568013,0.01,0.0,-41846.0,0.0,0.0,-0.0,0.0,0.125,1.62353499,0.01,0.0,-0.05999999865889549,-0.23999999463558197,-173.5800018310547,-0.03558349609375,-0.02423095703125,0.981689453125,36.95000076293945,0.0,33.0,0.3745574951171875,-2.746307373046875,Closing,0.0,0.0,3.0,0.0,0.0,0.0,0.0,0.0,
4.468491999999969,0.0,0.0,98384.0,0.5,60.0,452.81249999999994,0.0,7.125,1.143798711,1.2330627500000013,0.0,-169945.0,0.5,-90.0,-452.81249999999994,0.0,8.25,0.799560465,1.2409425000000012,0.0,27160.0,1.25,7.5,452.81249999999994,0.0,5.375,3.80859336,1.2351000000000012,0.0,-41838.0,0.75,30.0,452.81249999999994,0.0,6.0,1.182861207,3.7185000000000015,0.0,-0.05000000074505806,-0.15000000596046448,-173.61000061035156,-0.02349853515625,0.04705810546875,1.0849609375,36.91999816894531,0.0,15.0,0.3743133544921875,-2.746307373046875,Closing,0.0,0.0,3.0,0.0,0.0,0.0,0.0,0.0,
4.577701999999932,0.0,0.0,98407.0,0.125,112.5,177.18749999999997,0.0,1.875,1.905517383,1.2330627500000013,0.0,-169965.0,0.125,-67.5,-177.18749999999997,0.0,1.5,1.6577146740000002,1.2409425000000012,0.0,27161.0,0.75,0.0,177.18749999999997,0.0,1.625,4.515380397,1.2351000000000012,0.0,-41825.0,0.375,82.5,177.18749999999997,0.0,1.5,0.406494099,3.7185000000000015,0.0,0.009999999776482582,-0.05000000074505806,-173.77000427246094,-0.11138916015625,0.08154296875,0.9984130859375,36.91999816894531,0.0,100.0,0.3711090087890625,-2.7472991943359375,Closing,0.0,0.0,3.0,0.0,0.0,0.0,0.0,0.0,
4.706204999999958,0.0,0.0,98405.0,0.0,-15.0,0.0,0.0,0.875,2.397460692,1.2330627500000013,0.0,-169979.0,0.0,-105.0,0.0,0.0,0.375,2.232665787,1.2409425000000012,0.0,27162.0,0.0,0.0,0.0,0.0,0.375,4.9206537930000005,1.2351000000000012,0.0,-41822.0,0.0,30.0,0.0,0.0,0.375,4.791259275,3.7185000000000015,0.0,-0.03999999910593033,-0.3100000023841858,-173.8000030517578,0.10693359375,-0.04840087890625,0.94952392578125,36.91999816894531,0.0,-106.0,0.37255859375,-2.749725341796875,Closing,0.0,0.0,3.0,0.0,0.0,0.0,0.0,0.0,
4.815410999999964,0.0,0.0,98405.0,0.0,0.0,0.0,0.0,0.75,2.2766110950000003,1.2330627500000013,0.0,-169988.0,0.0,0.0,0.0,0.0,1.75,2.088622833,1.2409425000000012,0.0,27161.0,0.0,-7.5,0.0,0.0,0.25,4.782714354,1.2351000000000012,0.0,-41822.0,0.125,0.0,0.0,0.0,1.0,0.11352537900000001,3.7185000000000015,0.0,-0.12999999523162842,-0.3400000035762787,-173.8300018310547,-0.05755615234375,-0.00469970703125,1.03424072265625,36.91999816894531,0.0,51.0,0.373260498046875,-2.75030517578125,Closing,0.0,0.0,3.0,0.0,0.0,0.0,0.0,0.0,
4.935417000000016,0.0,0.0,98405.0,0.0,0.0,0.0,0.0,0.25,2.048339634,1.2330627500000013,0.0,-169988.0,0.0,7.5,0.0,0.0,0.25,1.774902162,1.2409425000000012,0.0,27160.0,0.0,0.0,0.0,0.0,0.125,4.583739765000001,1.2351000000000012,0.0,-41824.0,0.125,-7.5,0.0,0.0,0.625,0.40771480200000004,3.7185000000000015,0.0,-0.03999999910593033,-0.3100000023841858,-173.9199981689453,0.00958251953125,0.02301025390625,1.0281982421875,36.91999816894531,0.0,-17.0,0.3736724853515625,-2.7513275146484375,Closing,0.0,0.0,3.0,0.0,0.0,0.0,0.0,0.0,
5.053298999999999,0.0,0.0,98405.0,0.0,0.0,0.0,0.0,0.25,1.962890424,1.2330627500000013,0.0,-169985.0,0.0,15.0,0.0,0.0,0.0,1.572265464,1.2409425000000012,0.0,27160.0,0.0,0.0,0.0,0.0,0.0,4.521483912,1.2351000000000012,0.0,-41824.0,0.125,0.0,0.0,0.0,0.375,0.5041503390000001,3.7185000000000015,0.0,-0.019999999552965164,-0.3199999928474426,-173.91000366210938,-0.02081298828125,-0.0301513671875,1.01531982421875,36.91999816894531,0.0,18.0,0.373687744140625,-2.7523193359375,Closing,0.0,0.0,3.0,0.0,0.0,0.0,0.0,0.0,
5.168072999999975,0.0,0.0,98405.0,0.0,0.0,0.0,0.0,0.25,1.9958494050000002,1.2330627500000013,0.0,-169983.0,0.0,0.0,0.0,0.0,0.25,1.666259595,1.2409425000000012,0.0,27160.0,0.0,0.0,0.0,0.0,0.0,4.549560081,1.2351000000000012,0.0,-41824.0,0.125,0.0,0.0,0.0,0.25,0.42114253500000004,3.7185000000000015,0.0,-0.05999999865889549,-0.30000001192092896,-173.88999938964844,-4.2724609375E-4,0.01910400390625,1.0162353515625,36.91999816894531,0.0,-7.0,0.37353515625,-2.751678466796875,Closing,0.0,0.0,3.0,0.0,0.0,0.0,0.0,0.125,
5.281246999999974,0.0,0.0,98405.0,0.0,0.0,0.0,0.0,0.25,2.0178220590000002,1.2330627500000013,0.0,-169983.0,0.0,0.0,0.0,0.0,0.25,1.697997873,1.2409425000000012,0.0,27160.0,0.0,0.0,0.0,0.0,0.0,4.566649923,1.2351000000000012,0.0,-41824.0,0.125,0.0,0.0,0.0,0.25,0.41381831700000005,3.7185000000000015,0.0,-0.029999999329447746,-0.28999999165534973,-173.88999938964844,-0.03485107421875,-0.0272216796875,1.00885009765625,36.91999816894531,0.0,32.0,0.3736114501953125,-2.7521209716796875,Closing,0.0,0.0,3.0,0.0,0.0,0.0,0.0,0.0,
5.407148999999976,0.0,0.0,98407.0,0.375,7.5,315.0,0.0,0.125,2.028808386,1.2330627500000013,0.0,-169983.0,0.375,-30.0,-315.0,0.0,0.25,1.726074042,1.2409425000000012,0.0,27162.0,0.5,15.0,315.0,0.0,0.0,4.572753438,1.2351000000000012,0.0,-41824.0,0.5,7.5,315.0,0.0,0.25,0.40283199000000003,3.7185000000000015,0.0,0.0,-0.2800000011920929,-173.89999389648438,0.0032958984375,0.01806640625,0.9964599609375,36.91999816894531,0.0,-10.0,0.3737030029296875,-2.7519073486328125,Closing,0.0,0.0,3.0,0.0,0.0,0.0,0.0,0.0,
5.520792999999947,0.0,0.0,98408.0,0.0,0.0,0.0,0.0,0.125,2.030029089,1.2330627500000013,0.0,-169989.0,0.0,0.0,0.0,0.0,0.25,1.722411933,1.2409425000000012,0.0,27164.0,0.0,7.5,0.0,0.0,0.0,4.578856953,1.2351000000000012,0.0,-41823.0,0.125,7.5,0.0,0.0,0.25,0.397949178,3.7185000000000015,0.0,-0.03999999910593033,-0.28999999165534973,-173.88999938964844,-0.017822265625,-0.05987548828125,1.01544189453125,36.95000076293945,0.0,18.0,0.3739013671875,-2.7532501220703125,Closing,0.0,0.0,3.0,0.0,0.0,0.0,0.0,0.125,
5.633317000000039,0.0,0.0,98408.0,0.0,0.0,0.0,0.0,0.125,2.034911901,1.2330627500000013,0.0,-169988.0,0.0,0.0,0.0,0.0,0.125,1.722411933,1.2409425000000012,0.0,27164.0,0.0,0.0,0.0,0.0,0.0,4.578856953,1.2351000000000012,0.0,-41822.0,0.125,0.0,0.0,0.0,0.25,0.396728475,3.7185000000000015,0.0,-0.03999999910593033,-0.28999999165534973,-173.88999938964844,0.0107421875,0.05615234375,1.02008056640625,36.95000076293945,0.0,-22.0,0.3738555908203125,-2.752410888671875,Closing,0.0,0.0,3.0,0.0,0.0,0.0,0.0,0.0,
5.7536539999999805,0.0,0.0,98408.0,0.0,0.0,0.0,0.0,0.25,2.034911901,1.2330627500000013,0.0,-169988.0,0.0,0.0,0.0,0.0,0.125,1.722411933,1.2409425000000012,0.0,27164.0,0.0,0.0,0.0,0.0,0.0,4.578856953,1.2351000000000012,0.0,-41822.0,0.125,0.0,0.0,0.0,0.25,0.399169881,3.7185000000000015,0.0,-0.03999999910593033,-0.2800000011920929,-173.89999389648438,-0.00518798828125,-0.053955078125,1.03765869140625,36.95000076293945,0.0,5.0,0.374237060546875,-2.7521820068359375,Closing,0.0,0.0,3.0,0.0,0.0,0.0,0.0,0.0,
5.868445999999996,0.0,0.0,98415.0,3.375,37.5,905.6249999999999,0.0,0.25,2.034911901,1.2330627500000013,0.0,-169990.0,5.125,-60.0,-905.6249999999999,0.0,0.125,1.74560529,1.2409425000000012,0.0,27168.0,4.875,37.5,905.6249999999999,0.0,0.0,4.549560081,1.2351000000000012,0.0,-41822.0,4.125,45.0,905.6249999999999,0.0,0.25,0.364990197,3.7185000000000015,0.0,0.4300000071525574,-0.3100000023841858,-173.8800048828125,-0.03607177734375,0.07098388671875,1.13214111328125,36.95000076293945,0.0,22.0,0.3736419677734375,-2.754241943359375,Closing,0.0,0.0,3.0,0.0,0.0,0.0,0.0,0.0,
5.983525999999954,0.0,0.0,98423.0,0.0,45.0,0.0,0.0,0.25,2.039794713,1.2330627500000013,0.0,-170006.0,0.0,-60.0,0.0,0.0,0.0,1.74560529,1.2409425000000012,0.0,27182.0,0.0,82.5,0.0,0.0,0.0,4.569091329,1.2351000000000012,0.0,-41803.0,0.125,60.0,0.0,0.0,0.125,0.358886682,3.7185000000000015,0.0,0.36000001430511475,-0.28999999165534973,-173.9199981689453,-0.034912109375,-0.08489990234375,0.895751953125,36.93000030517578,0.0,39.0,0.373077392578125,-2.754119873046875,Closing,0.0,0.0,3.0,0.0,0.0,0.0,0.0,0.0,
6.105859999999986,0.0,0.0,98426.0,0.0,15.0,0.0,0.0,0.125,2.044677525,1.2330627500000013,0.0,-170007.0,0.0,-15.0,0.0,0.0,0.0,1.746825993,1.2409425000000012,0.0,27185.0,0.0,22.5,0.0,0.0,0.0,4.569091329,1.2351000000000012,0.0,-41803.0,0.125,30.0,0.0,0.0,0.25,0.36865230600000004,3.7185000000000015,0.0,-0.03999999910593033,-0.25,-173.85000610351562,0.0069580078125,-0.1236572265625,1.114990234375,36.93000030517578,0.0,1.0,0.37335205078125,-2.75067138671875,Closing,0.0,0.0,3.0,0.0,0.0,0.0,0.0,0.0,
6.2207179999999935,0.0,0.0,98422.0,1.875,-7.5,-644.8818951845169,0.0,2.25,1.7370603690000002,0.5498168668524864,0.0,-170007.0,2.75,30.0,644.8818951845169,0.0,3.375,2.054443149,1.92855458977222,0.0,27195.0,1.75,60.0,644.8818951845169,0.0,2.25,4.886474109,1.9194747329772914,0.0,-41797.0,1.5,105.0,644.8818951845169,0.0,2.25,0.06103515,3.031687206278561,0.0,-0.3100000023841858,-0.3100000023841858,-173.67999267578125,-0.00616455078125,0.05438232421875,1.0535888671875,36.93000030517578,0.0,-6.0,0.3737640380859375,-2.743011474609375,Closing,0.0,0.0,3.0,0.0,0.0,0.0,0.0,0.0,
6.337131999999984,0.0,0.0,98415.0,0.375,-52.5,-115.74803106486797,0.0,0.5,1.4001463410000001,0.5498168668524864,0.0,-170000.0,0.625,45.0,115.74803106486797,0.0,0.75,2.412109128,1.92855458977222,0.0,27198.0,0.375,7.5,115.74803106486797,0.0,0.625,0.273437472,1.9194747329772914,0.0,-41771.0,0.375,82.5,115.74803106486797,0.0,0.5,4.6081538250000005,3.031687206278561,0.0,-0.07999999821186066,-0.28999999165534973,-173.1199951171875,-0.03436279296875,0.085693359375,1.1156005859375,36.93000030517578,0.0,17.0,0.373199462890625,-2.7393646240234375,Closing,0.0,0.0,3.0,0.0,0.0,0.0,0.0,0.0,
6.454807999999961,0.0,0.0,98414.0,0.0,0.0,0.0,0.0,0.25,1.209716673,0.5498168668524864,0.0,-169999.0,0.0,0.0,0.0,0.0,0.0,2.570800518,1.92855458977222,0.0,27198.0,0.0,0.0,0.0,0.0,0.25,0.437011674,1.9194747329772914,0.0,-41769.0,0.125,7.5,0.0,0.0,0.375,4.466552277,3.031687206278561,0.0,-0.05999999865889549,-0.3199999928474426,-172.63999938964844,-0.0089111328125,-0.0433349609375,1.02734375,36.95000076293945,0.0,8.0,0.3738555908203125,-2.738250732421875,Closing,0.0,0.0,3.0,0.0,0.0,0.0,0.0,0.0,
6.573099999999977,0.0,0.0,98414.0,0.0,0.0,0.0,0.0,0.375,1.2670897140000001,0.5498168668524864,0.0,-169999.0,0.0,0.0,0.0,0.0,0.25,2.517089586,1.92855458977222,0.0,27198.0,0.0,0.0,0.0,0.0,0.125,0.396728475,1.9194747329772914,0.0,-41769.0,0.125,0.0,0.0,0.0,0.375,4.544677269,3.031687206278561,0.0,-0.03999999910593033,-0.27000001072883606,-171.9199981689453,-0.00604248046875,-0.00128173828125,1.02203369140625,36.95000076293945,0.0,1.0,0.372772216796875,-2.736114501953125,Closing,0.0,0.0,3.0,0.0,0.0,0.0,0.0,0.125,
6.6946280000000264,0.0,0.0,98414.0,0.0,0.0,0.0,0.0,0.375,1.333007676,0.5498168668524864,0.0,-169999.0,0.0,0.0,0.0,0.0,0.25,2.508544665,1.92855458977222,0.0,27198.0,0.0,0.0,0.0,0.0,0.125,0.373535118,1.9194747329772914,0.0,-41769.0,0.125,0.0,0.0,0.0,0.25,4.636229994000001,3.031687206278561,0.0,0.0,-0.3100000023841858,-171.6999969482422,0.00469970703125,0.01300048828125,1.0281982421875,36.95000076293945,0.0,-12.0,0.3733062744140625,-2.7358856201171875,Closing,0.0,0.0,3.0,0.0,0.0,0.0,0.0,0.0,
6.811023000000045,0.0,0.0,98414.0,0.0,0.0,0.0,0.0,0.25,1.351318221,0.5498168668524864,0.0,-169999.0,0.0,0.0,0.0,0.0,0.25,2.4829099020000003,1.92855458977222,0.0,27198.0,0.0,0.0,0.0,0.0,0.125,0.358886682,1.9194747329772914,0.0,-41769.0,0.125,0.0,0.0,0.0,0.125,4.6606440540000005,3.031687206278561,0.0,-0.009999999776482582,-0.28999999165534973,-171.75999450683594,-0.0037841796875,-0.00677490234375,0.98590087890625,36.95000076293945,0.0,0.0,0.372802734375,-2.7363128662109375,Closing,0.0,0.0,3.0,0.0,0.0,0.0,0.0,0.0,
6.926665000000037,0.0,0.0,98414.0,0.0,0.0,0.0,0.0,0.25,1.352538924,0.5498168668524864,0.0,-169999.0,0.0,0.0,0.0,0.0,0.25,2.469482169,1.92855458977222,0.0,27198.0,0.0,0.0,0.0,0.0,0.125,0.360107385,1.9194747329772914,0.0,-41769.0,0.125,0.0,0.0,0.0,0.125,4.659423351,3.031687206278561,0.0,0.009999999776482582,-0.28999999165534973,-171.74000549316406,7.9345703125E-4,-0.0050048828125,1.02777099609375,36.95000076293945,0.0,-5.0,0.3733978271484375,-2.735748291015625,Closing,0.0,0.0,3.0,0.0,0.0,0.0,0.0,0.0,
7.03992499999993,0.0,0.0,98414.0,0.0,0.0,0.0,0.0,0.25,1.351318221,0.5498168668524864,0.0,-169999.0,0.0,0.0,0.0,0.0,0.25,2.469482169,1.92855458977222,0.0,27198.0,0.0,0.0,0.0,0.0,0.125,0.360107385,1.9194747329772914,0.0,-41769.0,0.125,0.0,0.0,0.0,0.125,4.6606440540000005,3.031687206278561,0.0,0.0,-0.2800000011920929,-171.75,-4.2724609375E-4,0.01226806640625,1.0240478515625,36.95000076293945,0.0,-6.0,0.3728485107421875,-2.735076904296875,Closing,0.0,0.0,3.0,0.0,0.0,0.0,0.0,0.0,
7.155974999999977,0.0,0.0,98414.0,0.0,0.0,0.0,0.0,0.125,1.351318221,0.5498168668524864,0.0,-169999.0,0.0,0.0,0.0,0.0,0.25,2.468261466,1.92855458977222,0.0,27198.0,0.0,0.0,0.0,0.0,0.125,0.358886682,1.9194747329772914,0.0,-41769.0,0.125,0.0,0.0,0.0,0.125,4.6606440540000005,3.031687206278561,0.0,0.009999999776482582,-0.2800000011920929,-171.74000549316406,0.01348876953125,-0.00335693359375,1.01129150390625,36.95000076293945,0.0,-17.0,0.37335205078125,-2.734619140625,Closing,0.0,0.0,3.0,0.0,0.0,0.0,0.0,0.0,
7.276439000000013,0.0,0.0,98414.0,0.0,0.0,0.0,0.0,0.125,1.351318221,0.5498168668524864,0.0,-169999.0,0.0,0.0,0.0,0.0,0.25,2.469482169,1.92855458977222,0.0,27198.0,0.0,0.0,0.0,0.0,0.125,0.358886682,1.9194747329772914,0.0,-41769.0,0.125,0.0,0.0,0.0,0.125,4.659423351,3.031687206278561,0.0,0.0,-0.2800000011920929,-171.74000549316406,-0.010986328125,0.0074462890625,1.02752685546875,36.95000076293945,0.0,4.0,0.372772216796875,-2.7352447509765625,Closing,0.0,0.0,3.0,0.0,0.0,0.0,0.0,0.0,
7.394452999999979,0.0,0.0,98414.0,0.125,7.5,275.625,0.0,0.75,1.0595702040000001,0.01,0.0,-169998.0,0.375,7.5,275.625,0.0,2.125,2.513427477,2.481885,0.0,27198.0,0.125,0.0,-275.625,0.0,0.75,0.664062432,2.4702,0.0,-41767.0,0.375,22.5,275.625,0.0,2.25,4.5007319610000005,2.479,0.0,0.0,-0.30000001192092896,-171.7100067138672,0.0032958984375,0.04168701171875,0.94976806640625,36.95000076293945,0.0,-14.0,0.3732452392578125,-2.73443603515625,Closing,0.0,0.0,3.0,0.0,0.0,0.0,0.0,0.0,
7.512841000000015,0.0,0.0,98418.0,1.375,97.5,472.49999999999994,0.0,0.375,0.7373046120000001,0.01,0.0,-169977.0,1.75,135.0,472.49999999999994,0.0,0.75,2.971191102,2.481885,0.0,27197.0,0.375,0.0,-472.49999999999994,0.0,0.5,0.9472655280000001,2.4702,0.0,-41755.0,1.125,127.5,472.49999999999994,0.0,0.625,4.053954663,2.479,0.0,-0.019999999552965164,-0.11999999731779099,-171.4199981689453,0.02703857421875,0.0250244140625,1.0811767578125,36.959999084472656,0.0,-32.0,0.370941162109375,-2.7328033447265625,Closing,0.0,0.0,3.0,0.0,0.0,0.0,0.0,0.0,
7.634690999999991,0.0,0.0,98431.0,2.375,60.0,472.49999999999994,0.0,0.375,0.7360839090000001,0.01,0.0,-169967.0,3.375,82.5,472.49999999999994,0.0,0.0,3.140868819,2.481885,0.0,27188.0,2.375,-52.5,-472.49999999999994,0.0,0.125,0.9460448250000001,2.4702,0.0,-41731.0,1.875,105.0,472.49999999999994,0.0,0.375,4.001464434,2.479,0.0,0.0,0.20999999344348907,-171.2899932861328,0.0472412109375,0.01605224609375,0.949462890625,36.959999084472656,0.0,-45.0,0.3636627197265625,-2.7303314208984375,Closing,0.0,0.0,3.0,0.0,0.0,0.0,0.0,0.0,
7.762559000000008,0.0,0.0,98481.0,2.75,195.0,492.1875,0.0,0.375,0.754394454,0.01,0.0,-169940.0,4.875,172.5,492.1875,0.0,0.25,3.1079098380000003,2.481885,0.0,27165.0,3.5,-135.0,-492.1875,0.0,0.125,0.9362792010000001,2.4702,0.0,-41708.0,3.0,180.0,492.1875,0.0,0.25,4.00390584,2.479,0.0,-0.009999999776482582,0.47999998927116394,-171.41000366210938,0.0670166015625,0.04071044921875,0.97015380859375,36.959999084472656,0.0,-64.0,0.359832763671875,-2.7299957275390625,Closing,0.0,0.0,3.0,0.0,0.0,0.0,0.0,0.0,
7.888170000000042,0.0,0.0,98531.0,3.25,300.0,492.1875,0.0,0.375,0.759277266,0.01,0.0,-169900.0,5.0,270.0,492.1875,0.0,0.25,2.974853211,2.481885,0.0,27139.0,4.0,-195.0,-492.1875,0.0,0.125,0.917968656,2.4702,0.0,-41672.0,3.25,270.0,492.1875,0.0,0.375,4.084472238,2.479,0.0,-0.07999999821186066,0.7300000190734863,-171.5399932861328,0.0130615234375,0.0184326171875,1.11865234375,36.959999084472656,0.0,-1.0,0.353912353515625,-2.729095458984375,Closing,0.0,0.0,3.0,0.0,0.0,0.0,0.0,0.0,
8.014074999999954,0.0,0.0,98597.0,3.25,405.0,511.875,0.0,0.375,0.766601484,0.01,0.0,-169837.0,4.375,427.5,511.875,0.0,0.125,2.9089352490000002,2.481885,0.0,27079.0,3.75,-375.0,-511.875,0.0,0.125,0.9082030320000001,2.4702,0.0,-41617.0,2.75,412.5,511.875,0.0,0.125,4.121093328000001,2.479,0.0,-0.1599999964237213,1.0700000524520874,-171.25999450683594,0.060791015625,-0.01446533203125,0.98260498046875,36.90999984741211,0.0,-40.0,0.3482513427734375,-2.7255401611328125,Closing,0.0,0.0,3.0,0.0,0.0,0.0,0.0,0.0,
8.13398999999999,0.0,0.0,98679.0,2.625,502.5,511.875,0.0,0.25,0.76904289,0.01,0.0,-169751.0,2.5,585.0,511.875,0.0,0.25,2.937011418,2.481885,0.0,27008.0,3.5,-450.0,-511.875,0.0,0.125,0.902099517,2.4702,0.0,-41537.0,2.0,555.0,511.875,0.0,0.25,4.116210516000001,2.479,0.0,-0.07999999821186066,1.3200000524520874,-170.60000610351562,0.05169677734375,0.006103515625,1.12957763671875,36.90999984741211,0.0,-26.0,0.343353271484375,-2.7193603515625,Closing,0.0,0.0,3.0,0.0,0.0,0.0,0.0,0.0,
8.267081000000006,0.0,0.0,98771.0,2.0,570.0,511.875,0.0,0.25,0.761718672,0.01,0.0,-169653.0,1.625,615.0,511.875,0.0,0.25,2.971191102,2.481885,0.0,26927.0,3.0,-510.0,-511.875,0.0,0.125,0.898437408,2.4702,0.0,-41443.0,1.25,607.5,511.875,0.0,0.25,4.117431219,2.479,0.0,-0.05000000074505806,1.309999942779541,-170.22999572753906,0.037841796875,-0.06103515625,1.0948486328125,36.90999984741211,0.0,-2.0,0.3377685546875,-2.714599609375,Closing,0.0,0.0,3.0,0.0,0.0,0.0,0.0,0.0,
8.388795000000043,0.0,0.0,98871.0,1.5,615.0,511.875,0.0,0.25,0.770263593,0.01,0.0,-169552.0,1.0,630.0,511.875,0.0,0.125,2.974853211,2.481885,0.0,26831.0,2.75,-607.5,-511.875,0.0,0.125,0.899658111,2.4702,0.0,-41343.0,0.75,645.0,511.875,0.0,0.25,4.117431219,2.479,0.0,-0.05999999865889549,1.1399999856948853,-169.8699951171875,-0.09619140625,0.0413818359375,1.02313232421875,36.90999984741211,0.0,107.0,0.330780029296875,-2.7111968994140625,Closing,0.0,0.0,3.0,0.0,0.0,0.0,0.0,0.125,
8.515300999999978,0.0,0.0,98966.0,1.25,585.0,511.875,0.0,0.25,0.761718672,0.01,0.0,-169450.0,0.625,637.5,511.875,0.0,0.125,2.976073914,2.481885,0.0,26736.0,2.125,-592.5,-511.875,0.0,0.125,0.888671784,2.4702,0.0,-41238.0,0.5,630.0,511.875,0.0,0.25,4.117431219,2.479,0.0,-0.05999999865889549,0.8799999952316284,-169.5800018310547,-0.0235595703125,-0.023681640625,0.9527587890625,36.86000061035156,0.0,41.0,0.328857421875,-2.7112884521484375,Closing,0.0,0.0,3.0,0.0,0.0,0.0,0.0,0.0,
8.64406999999995,0.0,0.0,99043.0,0.0,420.0,0.0,0.0,0.25,0.76904289,0.01,0.0,-169350.0,0.0,435.0,0.0,0.0,0.125,2.976073914,2.481885,0.0,26644.0,0.0,-487.5,0.0,0.0,0.0,0.875244051,2.4702,0.0,-41061.0,0.125,465.0,0.0,0.0,0.25,4.117431219,2.479,0.0,-0.09000000357627869,0.14000000059604645,-169.38999938964844,0.034423828125,0.0406494140625,0.9140625,36.86000061035156,0.0,-39.0,0.3318023681640625,-2.71246337890625,Closing,0.0,0.0,3.0,0.0,0.0,0.0,0.0,0.0,
8.770204000000026,0.0,0.0,99110.0,0.0,442.5,0.0,0.0,0.25,0.767822187,0.01,0.0,-169281.0,0.0,412.5,0.0,0.0,0.125,2.976073914,2.481885,0.0,26598.0,0.0,-322.5,0.0,0.0,0.0,0.874023348,2.4702,0.0,-41004.0,0.125,420.0,0.0,0.0,0.25,4.116210516000001,2.479,0.0,-0.05999999865889549,-0.2199999988079071,-169.33999633789062,-0.0621337890625,-0.0174560546875,1.0045166015625,36.86000061035156,0.0,60.0,0.342864990234375,-2.7135162353515625,Closing,0.0,0.0,3.0,0.0,0.0,0.0,0.0,0.0,
8.893341999999945,0.0,0.0,99155.0,0.0,255.0,0.0,0.0,0.25,0.76904289,0.01,0.0,-169227.0,0.0,277.5,0.0,0.0,0.125,2.974853211,2.481885,0.0,26558.0,0.0,-187.5,0.0,0.0,0.0,0.875244051,2.4702,0.0,-40963.0,0.125,285.0,0.0,0.0,0.25,4.117431219,2.479,0.0,-0.009999999776482582,-0.8199999928474426,-169.24000549316406,-0.14520263671875,-0.00885009765625,0.9583740234375,36.86000061035156,0.0,130.0,0.368865966796875,-2.7140350341796875,Closing,0.0,0.0,3.0,0.0,0.0,0.0,0.0,0.0,
9.01705999999994,0.0,0.0,99180.0,0.0,112.5,0.0,0.0,0.25,0.76904289,0.01,0.0,-169191.0,0.0,120.0,0.0,0.0,0.125,2.974853211,2.481885,0.0,26527.0,0.0,-127.5,0.0,0.0,0.0,0.875244051,2.4702,0.0,-40949.0,0.125,105.0,0.0,0.0,0.25,4.117431219,2.479,0.0,-0.029999999329447746,-1.309999942779541,-169.27999877929688,-0.0931396484375,0.033447265625,1.0592041015625,36.83000183105469,0.0,61.0,0.4011077880859375,-2.7149658203125,Closing,0.0,0.0,3.0,0.0,0.0,0.0,0.0,0.0,
9.149064000000013,0.0,0.0,99194.0,1.75,187.5,689.0625,0.0,1.5,1.075439343,0.5498168668524888,0.0,-169177.0,4.375,-7.5,-689.0625,0.0,0.5,2.725829799,1.9285545897722223,0.0,26521.0,1.25,-15.0,-689.0625,0.0,0.75,0.5554198650000001,1.9194747329772885,0.0,-40956.0,1.625,-30.0,-689.0625,0.0,0.875,4.510497585,3.031687206278559,0.0,-0.019999999552965164,-1.399999976158142,-169.38999938964844,-0.02545166015625,0.02752685546875,1.02569580078125,36.83000183105469,0.0,-4.0,0.4386138916015625,-2.7178192138671875,Closing,0.0,0.0,3.0,0.0,0.0,0.0,0.0,0.0,
9.26813500000001,0.0,0.0,99213.0,0.0,15.0,0.0,0.0,0.625,1.4501951640000001,0.5498168668524888,0.0,-169186.0,0.0,-15.0,0.0,0.0,0.25,2.407226316,1.9285545897722223,0.0,26513.0,0.0,-22.5,0.0,0.0,0.375,0.26855466,1.9194747329772885,0.0,-40966.0,0.125,-82.5,0.0,0.0,0.375,4.787597166,3.031687206278559,0.0,0.0,-1.159999966621399,-170.50999450683594,-0.013916015625,-0.0579833984375,1.01885986328125,36.83000183105469,0.0,2.0,0.474761962890625,-2.7205810546875,Closing,0.0,0.0,3.0,0.0,0.0,0.0,0.0,0.125,
9.380900000000024,0.0,0.0,99213.0,0.0,0.0,0.0,0.0,0.375,1.496581878,0.5498168668524888,0.0,-169186.0,0.0,0.0,0.0,0.0,0.25,2.357177493,1.9285545897722223,0.0,26513.0,0.0,0.0,0.0,0.0,0.0,0.229492164,1.9194747329772885,0.0,-40966.0,0.125,0.0,0.0,0.0,0.25,4.732665531,3.031687206278559,0.0,0.029999999329447746,-1.1299999952316284,-171.30999755859375,-0.02630615234375,0.01287841796875,0.99530029296875,36.83000183105469,0.0,4.0,0.4962921142578125,-2.721588134765625,Closing,0.0,0.0,3.0,0.0,0.0,0.0,0.0,0.0,
9.496878999999957,0.0,0.0,99213.0,0.0,0.0,0.0,0.0,0.375,1.439208837,0.5498168668524888,0.0,-169186.0,0.0,0.0,0.0,0.0,0.25,2.36816382,1.9285545897722223,0.0,26513.0,0.0,0.0,0.0,0.0,0.125,0.25634763,1.9194747329772885,0.0,-40967.0,0.125,0.0,0.0,0.0,0.25,4.709472174,3.031687206278559,0.0,0.07000000029802322,-1.0199999809265137,-171.77999877929688,-0.00543212890625,-0.0390625,1.0323486328125,36.83000183105469,0.0,-7.0,0.4963226318359375,-2.7215576171875,Closing,0.0,0.0,3.0,0.0,0.0,0.0,0.0,0.0,
9.612613999999944,0.0,0.0,99213.0,0.0,0.0,0.0,0.0,0.25,1.390380717,0.5498168668524888,0.0,-169186.0,0.0,0.0,0.0,0.0,0.25,2.366943117,1.9285545897722223,0.0,26513.0,0.0,0.0,0.0,0.0,0.125,0.301513641,1.9194747329772885,0.0,-40967.0,0.125,0.0,0.0,0.0,0.25,4.683837411,3.031687206278559,0.0,0.03999999910593033,-1.0199999809265137,-171.63999938964844,-0.0029296875,0.01141357421875,1.010498046875,36.83000183105469,0.0,-16.0,0.495880126953125,-2.7210235595703125,Closing,0.0,0.0,3.0,0.0,0.0,0.0,0.0,0.0,
9.734363000000013,0.0,0.0,99218.0,0.5,75.0,426.5625,0.0,0.25,1.384277202,0.5498168668524888,0.0,-169186.0,0.375,-90.0,-426.5625,0.0,0.25,2.3828122560000002,1.9285545897722223,0.0,26513.0,0.375,0.0,-426.5625,0.0,0.0,0.306396453,1.9194747329772885,0.0,-40985.0,0.375,-67.5,-426.5625,0.0,0.25,4.680175302,3.031687206278559,0.0,0.05999999865889549,-0.9700000286102295,-171.63999938964844,-0.0286865234375,-0.01922607421875,1.0692138671875,36.83000183105469,0.0,13.0,0.495574951171875,-2.72088623046875,Closing,0.0,0.0,3.0,0.0,0.0,0.0,0.0,0.125,
9.854908999999985,0.0,0.0,99234.0,0.0,67.5,0.0,0.0,0.25,1.385497905,0.5498168668524888,0.0,-169207.0,0.0,-15.0,0.0,0.0,0.25,2.396239989,1.9285545897722223,0.0,26504.0,0.0,-30.0,0.0,0.0,0.0,0.306396453,1.9194747329772885,0.0,-40990.0,0.125,-45.0,0.0,0.0,0.25,4.680175302,3.031687206278559,0.0,0.019999999552965164,-0.8600000143051147,-172.05999755859375,0.00567626953125,0.02252197265625,0.957275390625,36.83000183105469,0.0,-22.0,0.4948883056640625,-2.7205963134765625,Closing,0.0,0.0,3.0,0.0,0.0,0.0,0.0,0.0,
9.97129999999993,0.0,0.0,99234.0,0.0,0.0,0.0,0.0,0.25,1.385497905,0.5498168668524888,0.0,-169207.0,0.0,0.0,0.0,0.0,0.25,2.397460692,1.9285545897722223,0.0,26505.0,0.0,0.0,0.0,0.0,0.0,0.306396453,1.9194747329772885,0.0,-40990.0,0.125,0.0,0.0,0.0,0.25,4.680175302,3.031687206278559,0.0,0.05000000074505806,-0.8700000047683716,-172.0,-0.0010986328125,-0.0355224609375,1.064453125,36.83000183105469,0.0,-9.0,0.4948883056640625,-2.7208251953125,Closing,0.0,0.0,3.0,0.0,0.0,0.0,0.0,0.0,
10.089184000000008,0.0,0.0,99234.0,0.0,0.0,0.0,0.0,0.25,1.385497905,0.5498168668524888,0.0,-169207.0,0.0,0.0,0.0,0.0,0.25,2.396239989,1.9285545897722223,0.0,26505.0,0.0,0.0,0.0,0.0,0.0,0.306396453,1.9194747329772885,0.0,-40990.0,0.0,0.0,0.0,0.0,0.25,4.680175302,3.031687206278559,0.0,0.029999999329447746,-0.8199999928474426,-171.9499969482422,0.002197265625,0.0146484375,1.02874755859375,36.81999969482422,0.0,-18.0,0.4944610595703125,-2.7198944091796875,Closing,0.0,0.0,3.0,0.0,0.0,0.0,0.0,0.0,
10.20065399999998,0.0,0.0,99234.0,0.0,0.0,0.0,0.0,0.25,1.385497905,0.5498168668524888,0.0,-169207.0,0.0,0.0,0.0,0.0,0.25,2.396239989,1.9285545897722223,0.0,26505.0,0.0,0.0,0.0,0.0,0.0,0.306396453,1.9194747329772885,0.0,-40990.0,0.125,0.0,0.0,0.0,0.25,4.680175302,3.031687206278559,0.0,0.03999999910593033,-0.7799999713897705,-171.9600067138672,-0.043701171875,-0.00628662109375,1.0133056640625,36.81999969482422,0.0,30.0,0.4945526123046875,-2.720306396484375,Closing,0.0,0.0,3.0,0.0,0.0,0.0,0.0,0.0,
10.31620900000003,0.0,0.0,99235.0,0.875,7.5,410.15625000000006,0.0,0.25,1.385497905,0.5498168668524888,0.0,-169207.0,0.75,-15.0,-410.15625000000006,0.0,0.25,2.397460692,1.9285545897722227,0.0,26503.0,0.625,-15.0,-410.15625000000006,0.0,0.0,0.31005856200000004,1.9194747329772885,0.0,-40990.0,0.625,-7.5,-410.15625000000006,0.0,0.25,4.681396005,3.0316872062785585,0.0,0.03999999910593033,-0.7599999904632568,-172.05999755859375,-0.00799560546875,0.01171875,1.0272216796875,36.81999969482422,0.0,-7.0,0.4944610595703125,-2.720062255859375,Closing,0.0,0.0,3.0,0.0,0.0,0.0,0.0,0.0,
10.434047999999951,0.0,0.0,99239.0,0.0,15.0,0.0,0.0,0.25,1.385497905,0.5498168668524888,0.0,-169214.0,0.0,-30.0,0.0,0.0,0.25,2.397460692,1.9285545897722227,0.0,26501.0,0.0,-7.5,0.0,0.0,0.0,0.30517575,1.9194747329772885,0.0,-40993.0,0.125,-7.5,0.0,0.0,0.25,4.680175302,3.0316872062785585,0.0,0.019999999552965164,-0.699999988079071,-172.36000061035156,-0.05059814453125,-0.011962890625,0.9569091796875,36.81999969482422,0.0,40.0,0.494110107421875,-2.7203521728515625,Closing,0.0,0.0,3.0,0.0,0.0,0.0,0.0,0.0,
10.553400999999955,0.0,0.0,99239.0,0.0,0.0,0.0,0.0,0.25,1.385497905,0.5498168668524888,0.0,-169214.0,0.0,0.0,0.0,0.0,0.25,2.396239989,1.9285545897722227,0.0,26501.0,0.0,0.0,0.0,0.0,0.0,0.306396453,1.9194747329772885,0.0,-40993.0,0.0,0.0,0.0,0.0,0.25,4.681396005,3.0316872062785585,0.0,0.019999999552965164,-0.6899999976158142,-172.27999877929688,0.00103759765625,-0.00384521484375,1.02874755859375,36.83000183105469,0.0,-12.0,0.49395751953125,-2.720245361328125,Closing,0.0,0.0,3.0,0.0,0.0,0.0,0.0,0.0,
10.669047999999952,0.0,0.0,99239.0,0.0,0.0,0.0,0.0,0.25,1.385497905,0.5498168668524888,0.0,-169214.0,0.0,0.0,0.0,0.0,0.25,2.396239989,1.9285545897722227,0.0,26501.0,0.0,0.0,0.0,0.0,0.0,0.306396453,1.9194747329772885,0.0,-40993.0,0.125,0.0,0.0,0.0,0.25,4.680175302,3.0316872062785585,0.0,0.029999999329447746,-0.6499999761581421,-172.32000732421875,-0.0364990234375,-0.02923583984375,1.00958251953125,36.83000183105469,0.0,28.0,0.493988037109375,-2.720733642578125,Closing,0.0,0.0,3.0,0.0,0.0,0.0,0.0,0.0,
10.781341999999945,0.0,0.0,99239.0,0.0,0.0,0.0,0.0,0.25,1.385497905,0.5498168668524888,0.0,-169214.0,0.0,0.0,0.0,0.0,0.25,2.396239989,1.9285545897722227,0.0,26501.0,0.0,0.0,0.0,0.0,0.0,0.30517575,1.9194747329772885,0.0,-40993.0,0.125,0.0,0.0,0.0,0.25,4.680175302,3.0316872062785585,0.0,0.009999999776482582,-0.6399999856948853,-172.3000030517578,0.01995849609375,-0.0086669921875,1.0159912109375,36.83000183105469,0.0,-29.0,0.4943695068359375,-2.7208099365234375,Closing,0.0,0.0,3.0,0.0,0.0,0.0,0.0,0.0,
10.895814999999944,0.0,0.0,99239.0,0.375,0.0,262.5,0.0,0.25,1.385497905,0.5498168668524888,0.0,-169214.0,0.125,0.0,-262.5,0.0,0.25,2.390136474,1.9285545897722227,0.0,26501.0,0.125,0.0,-262.5,0.0,0.0,0.306396453,1.9194747329772885,0.0,-40993.0,0.375,0.0,-262.5,0.0,0.25,4.680175302,3.0316872062785585,0.0,0.009999999776482582,-0.6100000143051147,-172.3000030517578,-0.002685546875,0.03302001953125,1.0162353515625,36.83000183105469,0.0,-12.0,0.4938812255859375,-2.7209930419921875,Closing,0.0,0.0,3.0,0.0,0.0,0.0,0.0,0.0,
11.016271999999997,0.0,0.0,99239.0,0.0,0.0,0.0,0.0,0.25,1.385497905,0.5498168668524888,0.0,-169214.0,0.0,0.0,0.0,0.0,0.25,2.396239989,1.9285545897722227,0.0,26500.0,0.0,0.0,0.0,0.0,0.0,0.306396453,1.9194747329772885,0.0,-40995.0,0.125,-7.5,0.0,0.0,0.25,4.680175302,3.0316872062785585,0.0,0.019999999552965164,-0.5899999737739563,-172.3300018310547,-0.00128173828125,0.00628662109375,1.01953125,36.83000183105469,0.0,-10.0,0.494293212890625,-2.7209625244140625,Closing,0.0,0.0,3.0,0.0,0.0,0.0,0.0,0.0,
11.132128000000026,0.0,0.0,99239.0,0.0,0.0,0.0,0.0,0.25,1.385497905,0.5498168668524888,0.0,-169214.0,0.0,0.0,0.0,0.0,0.25,2.396239989,1.9285545897722227,0.0,26500.0,0.0,0.0,0.0,0.0,0.0,0.30517575,1.9194747329772885,0.0,-40995.0,0.125,0.0,0.0,0.0,0.25,4.680175302,3.0316872062785585,0.0,0.0,-0.5799999833106995,-172.32000732421875,-0.0174560546875,0.00347900390625,1.02685546875,36.849998474121094,0.0,6.0,0.4938812255859375,-2.7210235595703125,Closing,0.0,0.0,3.0,0.0,0.0,0.0,0.0,0.0,
11.248184000000009,0.0,0.0,99239.0,0.0,0.0,0.0,0.0,0.25,1.385497905,0.5498168668524888,0.0,-169214.0,0.0,0.0,0.0,0.0,0.25,2.396239989,1.9285545897722227,0.0,26500.0,0.0,0.0,0.0,0.0,0.0,0.306396453,1.9194747329772885,0.0,-40995.0,0.125,0.0,0.0,0.0,0.25,4.680175302,3.0316872062785585,0.0,0.009999999776482582,-0.5600000023841858,-172.32000732421875,-0.0103759765625,-0.0335693359375,1.05743408203125,36.849998474121094,0.0,4.0,0.49420166015625,-2.7215576171875,Closing,0.0,0.0,3.0,0.0,0.0,0.0,0.0,0.125,
11.368174,0.0,0.0,99239.0,0.0,0.0,0.0,0.0,0.25,1.385497905,0.5498168668524888,0.0,-169214.0,0.0,0.0,0.0,0.0,0.25,2.396239989,1.9285545897722227,0.0,26500.0,0.0,0.0,0.0,0.0,0.0,0.306396453,1.9194747329772885,0.0,-40995.0,0.125,0.0,0.0,0.0,0.25,4.678954599,3.0316872062785585,0.0,0.009999999776482582,-0.5400000214576721,-172.32000732421875,0.0029296875,0.0052490234375,1.03369140625,36.849998474121094,0.0,-13.0,0.494140625,-2.7215118408203125,Closing,0.0,0.0,3.0,0.0,0.0,0.0,0.0,0.0,
11.478496000000042,0.0,0.0,99239.0,0.0,0.0,0.0,0.0,0.25,1.385497905,0.5498168668524888,0.0,-169214.0,0.0,0.0,0.0,0.0,0.25,2.396239989,1.9285545897722227,0.0,26500.0,0.0,0.0,0.0,0.0,0.0,0.306396453,1.9194747329772885,0.0,-40995.0,0.125,0.0,0.0,0.0,0.25,4.680175302,3.0316872062785585,0.0,0.019999999552965164,-0.5299999713897705,-172.32000732421875,-0.02813720703125,-0.0335693359375,1.0067138671875,36.849998474121094,0.0,23.0,0.4941558837890625,-2.7218170166015625,Closing,0.0,0.0,3.0,0.0,0.0,0.0,0.0,0.0,
11.592697999999976,0.0,0.0,99239.0,0.875,0.0,393.75,0.0,0.25,1.385497905,0.5498168668524888,0.0,-169215.0,0.625,0.0,-393.75,0.0,0.25,2.396239989,1.9285545897722227,0.0,26499.0,0.625,0.0,-393.75,0.0,0.0,0.31005856200000004,1.9194747329772885,0.0,-40995.0,0.375,0.0,-393.75,0.0,0.25,4.680175302,3.0316872062785585,0.0,0.009999999776482582,-0.5199999809265137,-172.36000061035156,0.0140380859375,0.00933837890625,1.01654052734375,36.849998474121094,0.0,-24.0,0.4945068359375,-2.7215728759765625,Closing,0.0,0.0,3.0,0.0,0.0,0.0,0.0,0.0,
11.712388000000036,0.0,0.0,99241.0,0.0,7.5,0.0,0.0,0.25,1.385497905,0.5498168668524888,0.0,-169216.0,0.0,-7.5,0.0,0.0,0.25,2.396239989,1.9285545897722227,0.0,26499.0,0.0,0.0,0.0,0.0,0.0,0.30517575,1.9194747329772885,0.0,-40997.0,0.0,-7.5,0.0,0.0,0.25,4.680175302,3.0316872062785585,0.0,0.0,-0.5099999904632568,-172.5,-0.00445556640625,0.029052734375,0.982421875,36.849998474121094,0.0,-8.0,0.494415283203125,-2.7222747802734375,Closing,0.0,0.0,3.0,0.0,0.0,0.0,0.0,0.0,
11.826902999999932,0.0,0.0,99242.0,0.0,0.0,0.0,0.0,0.25,1.385497905,0.5498168668524888,0.0,-169216.0,0.0,0.0,0.0,0.0,0.25,2.396239989,1.9285545897722227,0.0,26499.0,0.0,0.0,0.0,0.0,0.0,0.30395504700000003,1.9194747329772885,0.0,-40997.0,0.125,0.0,0.0,0.0,0.25,4.680175302,3.0316872062785585,0.0,0.0,-0.5,-172.4600067138672,-6.103515625E-5,-0.00714111328125,1.02313232421875,36.849998474121094,0.0,-7.0,0.4946136474609375,-2.7223968505859375,Closing,0.0,0.0,3.0,0.0,0.0,0.0,0.0,0.125,
11.94658799999999,0.0,0.0,99242.0,0.0,0.0,0.0,0.0,0.25,1.385497905,0.5498168668524888,0.0,-169216.0,0.0,0.0,0.0,0.0,0.25,2.396239989,1.9285545897722227,0.0,26499.0,0.0,0.0,0.0,0.0,0.0,0.30517575,1.9194747329772885,0.0,-40997.0,0.125,0.0,0.0,0.0,0.25,4.680175302,3.0316872062785585,0.0,0.0,-0.47999998927116394,-172.4600067138672,-0.01654052734375,-0.00958251953125,1.0150146484375,36.849998474121094,0.0,9.0,0.4937896728515625,-2.722564697265625,Closing,0.0,0.0,3.0,0.0,0.0,0.0,0.0,0.0,
12.064402999999933,0.0,0.0,99242.0,0.0,0.0,0.0,0.0,0.25,1.384277202,0.5498168668524888,0.0,-169216.0,0.0,0.0,0.0,0.0,0.25,2.397460692,1.9285545897722227,0.0,26499.0,0.0,0.0,0.0,0.0,0.0,0.306396453,1.9194747329772885,0.0,-40997.0,0.125,0.0,0.0,0.0,0.25,4.678954599,3.0316872062785585,0.0,0.009999999776482582,-0.4699999988079071,-172.4600067138672,-0.00213623046875,-0.03924560546875,1.05999755859375,36.86000061035156,0.0,-1.0,0.4939422607421875,-2.7225799560546875,Closing,0.0,0.0,3.0,0.0,0.0,0.0,0.0,0.0,
12.183545999999973,0.0,0.0,99242.0,0.0,0.0,0.0,0.0,0.25,1.385497905,0.5498168668524888,0.0,-169216.0,0.0,0.0,0.0,0.0,0.25,2.396239989,1.9285545897722227,0.0,26499.0,0.0,0.0,0.0,0.0,0.0,0.30517575,1.9194747329772885,0.0,-40997.0,0.125,0.0,0.0,0.0,0.25,4.681396005,3.0316872062785585,0.0,0.009999999776482582,-0.4699999988079071,-172.4600067138672,-0.00897216796875,-0.00677490234375,1.001708984375,36.86000061035156,0.0,1.0,0.4940185546875,-2.7224578857421875,Closing,0.0,0.0,3.0,0.0,0.0,0.0,0.0,0.0,
12.296667999999947,0.0,0.0,99242.0,0.875,7.5,360.9375,0.0,0.25,1.385497905,0.5498168668524888,0.0,-169217.0,0.625,0.0,-360.9375,0.0,0.25,2.396239989,1.9285545897722223,0.0,26498.0,0.625,0.0,-360.9375,0.0,0.0,0.306396453,1.9194747329772885,0.0,-40998.0,0.375,-7.5,-360.9375,0.0,0.25,4.680175302,3.031687206278559,0.0,0.019999999552965164,-0.4699999988079071,-172.52999877929688,-0.00506591796875,-0.00299072265625,1.02301025390625,36.86000061035156,0.0,-2.0,0.4940185546875,-2.7224578857421875,Closing,0.0,0.0,3.0,0.0,0.0,0.0,0.0,0.0,
12.421035999999964,0.0,0.0,99245.0,0.0,7.5,0.0,0.0,0.25,1.385497905,0.5498168668524888,0.0,-169219.0,0.0,-7.5,0.0,0.0,0.25,2.397460692,1.9285545897722223,0.0,26497.0,0.0,0.0,0.0,0.0,0.0,0.306396453,1.9194747329772885,0.0,-40999.0,0.125,0.0,0.0,0.0,0.25,4.680175302,3.031687206278559,0.0,0.0,-0.4399999976158142,-172.6300048828125,-0.013427734375,0.01434326171875,1.00518798828125,36.86000061035156,0.0,3.0,0.4940185546875,-2.7222747802734375,Closing,0.0,0.0,3.0,0.0,0.0,0.0,0.0,0.0,
12.533461999999941,0.0,0.0,99245.0,0.0,0.0,0.0,0.0,0.25,1.385497905,0.5498168668524888,0.0,-169218.0,0.0,7.5,0.0,0.0,0.25,2.396239989,1.9285545897722223,0.0,26497.0,0.0,0.0,0.0,0.0,0.0,0.30517575,1.9194747329772885,0.0,-40999.0,0.125,0.0,0.0,0.0,0.25,4.681396005,3.031687206278559,0.0,0.0,-0.4300000071525574,-172.58999633789062,-0.001953125,-0.01177978515625,0.99896240234375,36.86000061035156,0.0,-4.0,0.4940185546875,-2.7222747802734375,Closing,0.0,0.0,3.0,0.0,0.0,0.0,0.0,0.0,
12.648027999999933,0.0,0.0,99245.0,0.0,0.0,0.0,0.0,0.25,1.385497905,0.5498168668524888,0.0,-169218.0,0.0,0.0,0.0,0.0,0.25,2.396239989,1.9285545897722223,0.0,26497.0,0.0,0.0,0.0,0.0,0.0,0.306396453,1.9194747329772885,0.0,-40999.0,0.125,0.0,0.0,0.0,0.25,4.680175302,3.031687206278559,0.0,0.019999999552965164,-0.4399999976158142,-172.60000610351562,-0.00958251953125,-0.002685546875,1.02587890625,36.880001068115234,0.0,2.0,0.4940185546875,-2.7222747802734375,Closing,0.0,0.0,3.0,0.0,0.0,0.0,0.0,0.0,
12.769270000000018,0.0,0.0,99245.0,0.0,0.0,0.0,0.0,0.25,1.385497905,0.5498168668524888,0.0,-169218.0,0.0,0.0,0.0,0.0,0.25,2.396239989,1.9285545897722223,0.0,26497.0,0.0,0.0,0.0,0.0,0.0,0.30517575,1.9194747329772885,0.0,-40999.0,0.125,0.0,0.0,0.0,0.25,4.680175302,3.031687206278559,0.0,0.009999999776482582,-0.4300000071525574,-172.60000610351562,-0.013427734375,0.00439453125,1.01605224609375,36.880001068115234,0.0,5.0,0.4940185546875,-2.7222747802734375,Closing,0.0,0.0,3.0,0.0,0.0,0.0,0.0,0.0,
12.886804000000003,0.0,0.0,99245.0,0.0,0.0,0.0,0.0,0.25,1.385497905,0.5498168668524888,0.0,-169218.0,0.0,0.0,0.0,0.0,0.25,2.397460692,1.9285545897722223,0.0,26497.0,0.0,0.0,0.0,0.0,0.0,0.306396453,1.9194747329772885,0.0,-40999.0,0.125,0.0,0.0,0.0,0.25,4.680175302,3.031687206278559,0.0,0.0,-0.4300000071525574,-172.60000610351562,-0.003662109375,0.00457763671875,1.01666259765625,36.880001068115234,0.0,-4.0,0.4940185546875,-2.7222747802734375,Closing,0.0,0.0,3.0,0.0,0.0,0.0,0.0,0.0,
12.995295000000041,0.0,0.0,99245.0,0.0,0.0,0.0,0.0,0.25,1.385497905,0.5498168668524888,0.0,-169218.0,0.0,0.0,0.0,0.0,0.25,2.397460692,1.9285545897722223,0.0,26497.0,0.0,0.0,0.0,0.0,0.0,0.306396453,1.9194747329772885,0.0,-40999.0,0.125,0.0,0.0,0.0,0.25,4.680175302,3.031687206278559,0.0,0.0,-0.4300000071525574,-172.60000610351562,-9.1552734375E-4,0.00250244140625,1.0174560546875,36.880001068115234,0.0,-7.0,0.4940185546875,-2.7222747802734375,Closing,0.0,0.0,3.0,0.0,0.0,0.0,0.0,0.0,
13.115380000000005,0.0,0.0,99245.0,0.0,0.0,0.0,0.0,0.25,1.386718608,0.5498168668524888,0.0,-169218.0,0.0,0.0,0.0,0.0,0.25,2.396239989,1.9285545897722223,0.0,26497.0,0.0,0.0,0.0,0.0,0.0,0.306396453,1.9194747329772885,0.0,-40999.0,0.125,0.0,0.0,0.0,0.25,4.680175302,3.031687206278559,0.0,0.0,-0.41999998688697815,-172.60000610351562,-0.00665283203125,-6.103515625E-5,1.01422119140625,36.86000061035156,0.0,0.0,0.4940185546875,-2.7222747802734375,Closing,0.0,0.0,3.0,0.0,0.0,0.0,0.0,0.125,
13.231047999999952,0.0,0.0,99245.0,0.0,0.0,0.0,0.0,0.25,1.385497905,0.5498168668524888,0.0,-169218.0,0.0,0.0,0.0,0.0,0.25,2.396239989,1.9285545897722223,0.0,26497.0,0.0,0.0,0.0,0.0,0.0,0.306396453,1.9194747329772885,0.0,-40999.0,0.125,0.0,0.0,0.0,0.25,4.681396005,3.031687206278559,0.0,0.0,-0.41999998688697815,-172.60000610351562,-0.0118408203125,0.00213623046875,1.01666259765625,36.86000061035156,0.0,3.0,0.4940185546875,-2.7222747802734375,Closing,0.0,0.0,3.0,0.0,0.0,0.0,0.0,0.0,
13.347543999999994,0.0,0.0,99245.0,0.0,0.0,0.0,0.0,0.25,1.385497905,0.5498168668524888,0.0,-169218.0,0.0,0.0,0.0,0.0,0.25,2.396239989,1.9285545897722223,0.0,26497.0,0.0,0.0,0.0,0.0,0.0,0.306396453,1.9194747329772885,0.0,-40999.0,0.125,0.0,0.0,0.0,0.25,4.680175302,3.031687206278559,0.0,0.0,-0.41999998688697815,-172.60000610351562,-0.006103515625,-0.00323486328125,1.015380859375,36.86000061035156,0.0,-1.0,0.4940185546875,-2.7222747802734375,Closing,0.0,0.0,3.0,0.0,0.0,0.0,0.0,0.0,
13.456427000000025,0.0,0.0,99245.0,0.0,0.0,0.0,0.0,0.25,1.385497905,0.5498168668524888,0.0,-169218.0,0.0,0.0,0.0,0.0,0.25,2.397460692,1.9285545897722223,0.0,26497.0,0.0,0.0,0.0,0.0,0.0,0.302734344,1.9194747329772885,0.0,-40999.0,0.125,0.0,0.0,0.0,0.25,4.680175302,3.031687206278559,0.0,0.0,-0.41999998688697815,-172.60000610351562,-0.00823974609375,-0.00531005859375,1.02142333984375,36.86000061035156,0.0,1.0,0.4940185546875,-2.7222747802734375,Closing,0.0,0.0,3.0,0.0,0.0,0.0,0.0,0.0,
13.574199999999953,0.0,0.0,99245.0,0.0,0.0,0.0,0.0,0.25,1.385497905,0.5498168668524888,0.0,-169218.0,0.0,0.0,0.0,0.0,0.25,2.398681395,1.9285545897722223,0.0,26497.0,0.0,0.0,0.0,0.0,0.0,0.30517575,1.9194747329772885,0.0,-40999.0,0.0,0.0,0.0,0.0,0.25,4.681396005,3.031687206278559,0.0,0.0,-0.41999998688697815,-172.60000610351562,-0.00909423828125,-0.0032958984375,1.02386474609375,36.86000061035156,0.0,2.0,0.4940185546875,-2.7222747802734375,Closing,0.0,0.0,3.0,0.0,0.0,0.0,0.0,0.0,
13.68781700000004,0.0,0.0,99245.0,0.0,0.0,0.0,0.0,0.25,1.385497905,0.5498168668524888,0.0,-169218.0,0.0,0.0,0.0,0.0,0.25,2.396239989,1.9285545897722223,0.0,26497.0,0.0,0.0,0.0,0.0,0.0,0.306396453,1.9194747329772885,0.0,-40999.0,0.125,0.0,0.0,0.0,0.25,4.680175302,3.031687206278559,0.0,0.0,-0.41999998688697815,-172.60000610351562,-0.0068359375,0.00274658203125,1.01971435546875,36.900001525878906,0.0,0.0,0.4940185546875,-2.7222747802734375,Closing,0.0,0.0,3.0,0.0,0.0,0.0,0.0,0.0,
13.80135699999996,0.0,0.0,99245.0,0.0,0.0,0.0,0.0,0.25,1.385497905,0.5498168668524888,0.0,-169218.0,0.0,0.0,0.0,0.0,0.25,2.396239989,1.9285545897722223,0.0,26497.0,0.0,0.0,0.0,0.0,0.0,0.30517575,1.9194747329772885,0.0,-40999.0,0.125,0.0,0.0,0.0,0.25,4.680175302,3.031687206278559,0.0,0.0,-0.4099999964237213,-172.60000610351562,-0.0069580078125,0.0018310546875,1.01702880859375,36.900001525878906,0.0,0.0,0.4940185546875,-2.7222747802734375,Closing,0.0,0.0,3.0,0.0,0.0,0.0,0.0,0.125,
13.923030999999959,0.0,0.0,99245.0,0.0,0.0,0.0,0.0,0.25,1.386718608,0.5498168668524888,0.0,-169218.0,0.0,0.0,0.0,0.0,0.25,2.397460692,1.9285545897722223,0.0,26497.0,0.0,0.0,0.0,0.0,0.0,0.306396453,1.9194747329772885,0.0,-40999.0,0.125,0.0,0.0,0.0,0.25,4.680175302,3.031687206278559,0.0,0.0,-0.41999998688697815,-172.60000610351562,-0.006591796875,-0.00347900390625,1.0181884765625,36.900001525878906,0.0,0.0,0.4940185546875,-2.7222747802734375,Closing,0.0,0.0,3.0,0.0,0.0,0.0,0.0,0.0,
14.036162000000012,0.0,0.0,99245.0,0.0,0.0,0.0,0.0,0.25,1.385497905,0.5498168668524888,0.0,-169218.0,0.0,0.0,0.0,0.0,0.25,2.397460692,1.9285545897722223,0.0,26497.0,0.0,0.0,0.0,0.0,0.0,0.30517575,1.9194747329772885,0.0,-40999.0,0.125,0.0,0.0,0.0,0.25,4.680175302,3.031687206278559,0.0,0.0,-0.41999998688697815,-172.60000610351562,-0.00921630859375,-0.002685546875,1.02667236328125,36.900001525878906,0.0,2.0,0.4940185546875,-2.7222747802734375,Closing,0.0,0.0,3.0,0.0,0.0,0.0,0.0,0.0,
14.16526800000004,0.0,0.0,99245.0,0.0,0.0,0.0,0.0,0.25,1.385497905,0.5498168668524888,0.0,-169218.0,0.0,0.0,0.0,0.0,0.25,2.397460692,1.9285545897722223,0.0,26497.0,0.0,0.0,0.0,0.0,0.0,0.306396453,1.9194747329772885,0.0,-40999.0,0.125,0.0,0.0,0.0,0.25,4.680175302,3.031687206278559,0.0,0.009999999776482582,-0.41999998688697815,-172.60000610351562,-0.0072021484375,2.44140625E-4,1.02081298828125,36.86000061035156,0.0,0.0,0.4940185546875,-2.7222747802734375,Closing,0.0,0.0,3.0,0.0,0.0,0.0,0.0,0.0,
14.275270000000019,0.0,0.0,99245.0,0.0,0.0,0.0,0.0,0.25,1.385497905,0.5498168668524888,0.0,-169218.0,0.0,0.0,0.0,0.0,0.25,2.397460692,1.9285545897722223,0.0,26497.0,0.0,0.0,0.0,0.0,0.0,0.30517575,1.9194747329772885,0.0,-40999.0,0.125,0.0,0.0,0.0,0.25,4.680175302,3.031687206278559,0.0,0.009999999776482582,-0.4099999964237213,-172.61000061035156,-0.00885009765625,6.103515625E-4,1.01922607421875,36.86000061035156,0.0,1.0,0.4940185546875,-2.7222747802734375,Closing,0.0,0.0,3.0,0.0,0.0,0.0,0.0,0.0,
14.391868999999948,0.0,0.0,99245.0,0.0,0.0,0.0,0.0,0.25,1.386718608,0.5498168668524888,0.0,-169218.0,0.0,0.0,0.0,0.0,0.25,2.395019286,1.9285545897722223,0.0,26497.0,0.0,0.0,0.0,0.0,0.0,0.306396453,1.9194747329772885,0.0,-40999.0,0.125,0.0,0.0,0.0,0.25,4.680175302,3.031687206278559,0.0,0.0,-0.4099999964237213,-172.61000061035156,-0.00604248046875,-4.8828125E-4,1.0172119140625,36.86000061035156,0.0,-1.0,0.4940185546875,-2.7222747802734375,Closing,0.0,0.0,3.0,0.0,0.0,0.0,0.0,0.0,
14.509508999999962,0.0,0.0,99245.0,0.0,0.0,0.0,0.0,0.25,1.385497905,0.5498168668524888,0.0,-169218.0,0.0,0.0,0.0,0.0,0.25,2.396239989,1.9285545897722223,0.0,26497.0,0.0,0.0,0.0,0.0,0.0,0.306396453,1.9194747329772885,0.0,-40999.0,0.125,0.0,0.0,0.0,0.25,4.681396005,3.031687206278559,0.0,0.0,-0.4099999964237213,-172.61000061035156,-0.0064697265625,6.7138671875E-4,1.02142333984375,36.86000061035156,0.0,0.0,0.4940185546875,-2.7222747802734375,Closing,0.0,0.0,3.0,0.0,0.0,0.0,0.0,0.0,
