Time,ClimberA1,ClimberA2,FRpos,FRCurrent,FRspeed,FRsetpoint,FRApos,FRACurrent,FREncpos,FREncSetpoint,FREncSpeed,FLpos,FLCurrent,FLspeed,FLsetpoint,FLApos,FLACurrent,FLEncpos,FLEncSetpoint,FLEncSpeed,BRpos,BRCurrent,BRspeed,BRsetpoint,BRApos,BRACurrent,BREncpos,BREncSetpoint,BREncSpeed,BLpos,BLCurrent,BLspeed,BLsetpoint,BLApos,BLACurrent,BLEncpos,BLEncSetpoint,BLEncSpeed,navx_Pitch,navx_Roll,navx_Yaw,navx_XAcc,navx_YAcc,navx_ZAcc,navx_Temp,navx_Bar,navx_Alt,navx_XDis,navx_YDis,GearPlacerState,ShootOutputV,ShootOutputCurrent,ShootEncPos,ShootEncVelocity,ShootSpeed,ShootSetpoint,CarouselSetpoint,CarouselCurrent,
0.19957299999997485,0.0,0.0,82834.0,0.0,0.0,0.0,0.0,0.125,0.823974525,0.01,0.0,-83902.0,0.0,0.0,-0.0,0.0,0.125,0.5029296360000001,0.01,0.0,-2597.0,0.0,0.0,0.0,0.0,0.0,3.339843408,0.01,0.0,2432.0,0.125,0.0,-0.0,0.0,0.25,1.6015623360000002,0.01,0.0,0.18000000715255737,-0.5299999713897705,-84.37000274658203,0.01129150390625,0.0526123046875,0.97918701171875,36.70000076293945,0.0,-47.0,1.660400390625,-2.8036651611328125,Closing,0.0,0.0,3.0,0.0,0.0,0.0,0.0,0.0,
0.3659560000000056,0.0,0.0,82834.0,0.0,0.0,0.0,0.0,0.25,0.822753822,0.01,0.0,-83902.0,0.0,0.0,-0.0,0.0,0.125,0.5029296360000001,0.01,0.0,-2597.0,0.0,0.0,0.0,0.0,0.0,3.339843408,0.01,0.0,2432.0,0.125,0.0,-0.0,0.0,0.25,1.6015623360000002,0.01,0.0,0.1599999964237213,-0.550000011920929,-84.36000061035156,0.0115966796875,0.051513671875,0.97894287109375,36.689998626708984,0.0,-46.0,1.6454620361328125,-2.79559326171875,Closing,0.0,0.0,3.0,0.0,0.0,0.0,0.0,0.0,
0.4859199999999837,0.0,0.0,82834.0,0.0,0.0,0.0,0.0,0.125,0.822753822,0.01,0.0,-83902.0,0.0,0.0,-0.0,0.0,0.125,0.5029296360000001,0.01,0.0,-2597.0,0.0,0.0,0.0,0.0,0.0,3.338622705,0.01,0.0,2432.0,0.125,0.0,-0.0,0.0,0.25,1.6015623360000002,0.01,0.0,0.1599999964237213,-0.5699999928474426,-84.36000061035156,0.00787353515625,0.044677734375,1.00970458984375,36.689998626708984,0.0,-39.0,1.6289520263671875,-2.786712646484375,Closing,0.0,0.0,3.0,0.0,0.0,0.0,0.0,0.0,
0.6351109999999753,0.0,0.0,82834.0,0.0,0.0,0.0,0.0,0.125,0.822753822,0.01,0.0,-83902.0,0.0,0.0,-0.0,0.0,0.125,0.5029296360000001,0.01,0.0,-2597.0,0.0,0.0,0.0,0.0,0.0,3.339843408,0.01,0.0,2432.0,0.125,0.0,-0.0,0.0,0.25,1.600341633,0.01,0.0,0.18000000715255737,-0.5600000023841858,-84.36000061035156,0.0096435546875,0.06793212890625,1.00665283203125,36.689998626708984,0.0,-62.0,1.6030426025390625,-2.772613525390625,Closing,0.0,0.0,3.0,0.0,0.0,0.0,0.0,0.0,
0.769789999999979,0.0,0.0,82834.0,0.0,0.0,0.0,0.0,0.125,0.822753822,0.01,0.0,-83902.0,0.0,0.0,-0.0,0.0,0.125,0.5029296360000001,0.01,0.0,-2597.0,0.0,0.0,0.0,0.0,0.0,3.339843408,0.01,0.0,2432.0,0.125,0.0,-0.0,0.0,0.25,1.6015623360000002,0.01,0.0,0.1899999976158142,-0.550000011920929,-84.36000061035156,0.0010986328125,-0.00592041015625,1.002685546875,36.689998626708984,0.0,10.0,1.5875091552734375,-2.7677001953125,Closing,0.0,0.0,3.0,0.0,0.0,0.0,0.0,0.0,
0.8763099999999977,0.0,0.0,82834.0,0.0,0.0,0.0,0.0,0.125,0.822753822,0.01,0.0,-83902.0,0.0,0.0,-0.0,0.0,0.125,0.5029296360000001,0.01,0.0,-2597.0,0.0,0.0,0.0,0.0,0.0,3.338622705,0.01,0.0,2432.0,0.125,0.0,-0.0,0.0,0.25,1.6015623360000002,0.01,0.0,0.1599999964237213,-0.550000011920929,-84.3499984741211,0.00128173828125,-0.001220703125,1.03045654296875,36.65999984741211,0.0,5.0,1.58807373046875,-2.7677001953125,Closing,0.0,0.0,3.0,0.0,0.0,0.0,0.0,0.0,
0.9969280000000145,0.0,0.0,82834.0,0.0,0.0,0.0,0.0,0.125,0.822753822,0.01,0.0,-83902.0,0.0,0.0,-0.0,0.0,0.125,0.5029296360000001,0.01,0.0,-2597.0,0.0,0.0,0.0,0.0,0.0,3.339843408,0.01,0.0,2432.0,0.125,0.0,-0.0,0.0,0.25,1.600341633,0.01,0.0,0.1899999976158142,-0.5400000214576721,-84.3499984741211,-0.03082275390625,-0.046630859375,1.05755615234375,36.65999984741211,0.0,47.0,1.588348388671875,-2.767791748046875,Closing,0.0,0.0,3.0,0.0,0.0,0.0,0.0,0.0,
1.1631940000000176,0.0,0.0,82834.0,0.0,0.0,0.0,0.0,0.125,0.822753822,0.01,0.0,-83902.0,0.0,0.0,-0.0,0.0,0.125,0.5029296360000001,0.01,0.0,-2597.0,0.0,0.0,0.0,0.0,0.0,3.338622705,0.01,0.0,2432.0,0.125,0.0,-0.0,0.0,0.25,1.6015623360000002,0.01,0.0,0.18000000715255737,-0.5400000214576721,-84.3499984741211,-0.04095458984375,-0.04705810546875,1.0372314453125,36.65999984741211,0.0,47.0,1.5933837890625,-2.7704925537109375,Closing,0.0,0.0,3.0,0.0,0.0,0.0,0.0,0.0,
1.3040439999999944,0.0,0.0,82834.0,0.0,0.0,0.0,0.0,0.125,0.822753822,0.01,0.0,-83902.0,0.0,0.0,-0.0,0.0,0.125,0.5029296360000001,0.01,0.0,-2597.0,0.0,0.0,0.0,0.0,0.0,3.339843408,0.01,0.0,2432.0,0.125,0.0,-0.0,0.0,0.25,1.6015623360000002,0.01,0.0,0.1899999976158142,-0.5400000214576721,-84.36000061035156,-3.0517578125E-4,0.0081787109375,1.0247802734375,36.65999984741211,0.0,-3.0,1.599090576171875,-2.7734375,Closing,0.0,0.0,3.0,0.0,0.0,0.0,0.0,0.0,
1.4354459999999962,0.0,0.0,82834.0,0.0,0.0,0.0,0.0,0.125,0.822753822,0.01,0.0,-83902.0,0.0,0.0,-0.0,0.0,0.125,0.5029296360000001,0.01,0.0,-2597.0,0.0,0.0,0.0,0.0,0.0,3.339843408,0.01,0.0,2432.0,0.125,0.0,-0.0,0.0,0.25,1.6015623360000002,0.01,0.0,0.1599999964237213,-0.5400000214576721,-84.3499984741211,0.0074462890625,0.03631591796875,0.9893798828125,36.68000030517578,0.0,-31.0,1.597076416015625,-2.7729949951171875,Closing,0.0,0.0,3.0,0.0,0.0,0.0,0.0,0.125,
1.5718140000000131,0.0,0.0,82834.0,0.0,0.0,0.0,0.0,0.125,0.822753822,0.01,0.0,-83902.0,0.0,0.0,-0.0,0.0,0.125,0.5029296360000001,0.01,0.0,-2597.0,0.0,0.0,0.0,0.0,0.0,3.339843408,0.01,0.0,2432.0,0.125,0.0,-0.0,0.0,0.25,1.6015623360000002,0.01,0.0,0.18000000715255737,-0.5400000214576721,-84.3499984741211,0.00396728515625,0.01751708984375,0.9996337890625,36.68000030517578,0.0,-12.0,1.591156005859375,-2.77215576171875,Closing,0.0,0.0,3.0,0.0,0.0,0.0,0.0,0.0,
1.710054999999993,0.0,0.0,82834.0,0.0,0.0,0.0,0.0,0.125,0.822753822,0.01,0.0,-83902.0,0.0,0.0,-0.0,0.0,0.125,0.5029296360000001,0.01,0.0,-2597.0,0.0,0.0,0.0,0.0,0.0,3.338622705,0.01,0.0,2432.0,0.125,0.0,-0.0,0.0,0.25,1.6015623360000002,0.01,0.0,0.18000000715255737,-0.5299999713897705,-84.3499984741211,-0.035888671875,-0.04364013671875,1.04107666015625,36.68000030517578,0.0,44.0,1.5876007080078125,-2.7722320556640625,Closing,0.0,0.0,3.0,0.0,0.0,0.0,0.0,0.125,
1.8483969999999972,0.0,0.0,82834.0,0.0,0.0,0.0,0.0,0.125,0.822753822,0.01,0.0,-83902.0,0.0,0.0,-0.0,0.0,0.125,0.5029296360000001,0.01,0.0,-2597.0,0.0,0.0,0.0,0.0,0.0,3.338622705,0.01,0.0,2432.0,0.125,0.0,-0.0,0.0,0.25,1.6015623360000002,0.01,0.0,0.18000000715255737,-0.5199999809265137,-84.36000061035156,-0.0340576171875,-0.0472412109375,1.05267333984375,36.68000030517578,0.0,48.0,1.589935302734375,-2.7736663818359375,Closing,0.0,0.0,3.0,0.0,0.0,0.0,0.0,0.0,
1.9737729999999865,0.0,0.0,82834.0,0.0,0.0,0.0,0.0,0.125,0.823974525,0.01,0.0,-83902.0,0.0,0.0,-0.0,0.0,0.125,0.5029296360000001,0.01,0.0,-2597.0,0.0,0.0,0.0,0.0,0.0,3.339843408,0.01,0.0,2432.0,0.125,0.0,-0.0,0.0,0.25,1.6015623360000002,0.01,0.0,0.1599999964237213,-0.5299999713897705,-84.36000061035156,0.00482177734375,0.05126953125,0.96356201171875,36.68000030517578,0.0,-46.0,1.593353271484375,-2.7758941650390625,Closing,0.0,0.0,3.0,0.0,0.0,0.0,0.0,0.0,
2.1660480000000097,0.0,0.0,82834.0,0.0,0.0,0.0,0.0,0.125,0.822753822,0.01,0.0,-83902.0,0.0,0.0,-0.0,0.0,0.125,0.5029296360000001,0.01,0.0,-2597.0,0.0,0.0,0.0,0.0,0.0,3.339843408,0.01,0.0,2432.0,0.125,0.0,-0.0,0.0,0.25,1.6015623360000002,0.01,0.0,0.1599999964237213,-0.5299999713897705,-84.36000061035156,0.00469970703125,0.06622314453125,0.99932861328125,36.68000030517578,0.0,-61.0,1.5898590087890625,-2.77545166015625,Closing,0.0,0.0,3.0,0.0,0.0,0.0,0.0,0.0,
2.2867170000000043,0.0,0.0,82805.0,4.0,-217.5,-952.4409413337708,0.0,0.125,0.852050694,4.932250999999998,0.0,-83895.0,4.75,195.0,952.4409413337708,0.0,0.0,0.49316401200000004,4.963769999999998,0.0,-2600.0,4.5,-22.5,-952.4409413337708,0.0,0.0,3.3691402800000003,0.01,0.0,2440.0,3.5,187.5,952.4409413337708,0.0,0.25,1.6040037420000002,0.01,0.0,0.25999999046325684,-1.0099999904632568,-84.33000183105469,-0.2454833984375,-0.0538330078125,0.796630859375,36.68000030517578,0.0,34.0,1.581451416015625,-2.7784423828125,Closing,0.0,0.0,3.0,0.0,0.0,0.0,0.0,0.0,
2.4313859999999985,0.0,0.0,82777.0,1.375,-255.0,-396.8503922224045,0.0,0.25,0.8422850700000001,4.932250999999998,0.0,-83856.0,1.875,240.0,396.8503922224045,0.0,0.125,0.49316401200000004,4.963769999999998,0.0,-2611.0,2.875,-165.0,-396.8503922224045,0.0,0.0,3.3605953590000004,0.01,0.0,2519.0,1.75,255.0,396.8503922224045,0.0,0.25,1.600341633,0.01,0.0,0.25,-1.4600000381469727,-84.16999816894531,-0.0621337890625,-0.06732177734375,1.0250244140625,36.65999984741211,0.0,67.0,1.57269287109375,-2.800994873046875,Closing,0.0,0.0,3.0,0.0,0.0,0.0,0.0,0.0,
2.5716630000000005,0.0,0.0,82726.0,0.0,-210.0,0.0,0.0,0.25,0.8276366340000001,4.932250999999998,0.0,-83790.0,0.0,165.0,0.0,0.0,0.125,0.49316401200000004,4.963769999999998,0.0,-2657.0,0.0,-120.0,0.0,0.0,0.0,3.338622705,0.01,0.0,2544.0,0.125,120.0,0.0,0.0,0.25,1.600341633,0.01,0.0,0.27000001072883606,-0.949999988079071,-84.05000305175781,-0.00836181640625,-0.0841064453125,1.15057373046875,36.65999984741211,0.0,90.0,1.574859619140625,-2.807037353515625,Closing,0.0,0.0,3.0,0.0,0.0,0.0,0.0,0.125,
2.7072689999999713,0.0,0.0,82685.0,0.0,-150.0,0.0,0.0,0.125,0.8276366340000001,4.932250999999998,0.0,-83762.0,0.0,150.0,0.0,0.0,0.125,0.49316401200000004,4.963769999999998,0.0,-2700.0,0.0,-187.5,0.0,0.0,0.0,3.339843408,0.01,0.0,2568.0,0.125,135.0,0.0,0.0,0.25,1.6015623360000002,0.01,0.0,0.25999999046325684,-0.5699999928474426,-83.94999694824219,0.10211181640625,0.0118408203125,1.109375,36.65999984741211,0.0,5.0,1.5795440673828125,-2.7994842529296875,Closing,0.0,0.0,3.0,0.0,0.0,0.0,0.0,0.0,
2.8492909999999685,0.0,0.0,82649.0,0.75,-157.5,-674.6456480026245,0.0,0.125,0.836181555,4.932250999999998,0.0,-83736.0,1.375,187.5,674.6456480026245,0.0,0.125,0.49316401200000004,4.963769999999998,0.0,-2714.0,1.875,-67.5,-674.6456480026245,0.0,0.0,3.3691402800000003,0.01,0.0,2586.0,1.5,142.5,674.6456480026245,0.0,0.25,1.6015623360000002,0.01,0.0,0.2199999988079071,-0.38999998569488525,-84.05999755859375,-0.1334228515625,0.075439453125,1.05645751953125,36.65999984741211,0.0,-84.0,1.5835418701171875,-2.7842254638671875,Closing,0.0,0.0,3.0,0.0,0.0,0.0,0.0,0.0,
2.9660800000000163,0.0,0.0,82649.0,7.125,-187.5,-1230.236234664917,0.0,0.125,0.8422850700000001,4.932250999999998,0.0,-83706.0,10.625,165.0,1230.236234664917,0.0,0.125,0.49316401200000004,4.963769999999998,0.0,-2727.0,10.5,-90.0,-1230.236234664917,0.0,0.0,3.3691402800000003,0.01,0.0,2619.0,7.75,195.0,1230.236234664917,0.0,0.25,1.595458821,0.01,0.0,0.23000000417232513,-1.3300000429153442,-83.95999908447266,-0.236328125,0.0665283203125,1.0989990234375,36.650001525878906,0.0,-83.0,1.5855255126953125,-2.7750701904296875,Closing,0.0,0.0,3.0,0.0,0.0,0.0,0.0,0.0,
3.0814039999999805,0.0,0.0,82517.0,11.25,-577.5,-1369.1338062286377,0.0,0.25,0.8422850700000001,4.932250999999998,0.0,-83629.0,16.625,592.5,1369.1338062286377,0.0,0.125,0.49316401200000004,4.963769999999998,0.0,-2818.0,14.875,-585.0,-1369.1338062286377,0.0,0.0,3.3679195770000003,0.01,0.0,2696.0,12.125,607.5,1369.1338062286377,0.0,0.25,1.596679524,0.01,0.0,0.2800000011920929,-2.819999933242798,-83.76000213623047,-0.240478515625,-0.0294189453125,0.7877197265625,36.650001525878906,0.0,11.0,1.585418701171875,-2.7899017333984375,Closing,0.0,0.0,3.0,0.0,0.0,0.0,0.0,0.125,
3.2137600000000095,0.0,0.0,82353.0,9.0,-1005.0,-1369.1338062286377,0.0,0.25,0.8422850700000001,4.932250999999998,0.0,-83481.0,12.625,1027.5,1369.1338062286377,0.0,0.125,0.49316401200000004,4.963769999999998,0.0,-2979.0,10.625,-1012.5,-1369.1338062286377,0.0,0.0,3.3691402800000003,0.01,0.0,2840.0,9.375,990.0,1369.1338062286377,0.0,0.25,1.596679524,0.01,0.0,0.25,-3.890000104904175,-83.37999725341797,-0.1668701171875,0.03497314453125,0.8780517578125,36.650001525878906,0.0,-43.0,1.5836639404296875,-2.8342742919921875,Closing,0.0,0.0,3.0,0.0,0.0,0.0,0.0,0.0,
3.3675349999999744,0.0,0.0,82145.0,4.875,-1387.5,-1369.1338062286377,0.0,0.25,0.8410643670000001,4.932250999999998,0.0,-83059.0,7.625,1365.0,1369.1338062286377,0.0,0.125,0.49438471500000003,4.963769999999998,0.0,-3176.0,7.375,-1387.5,-1369.1338062286377,0.0,0.0,3.3679195770000003,0.01,0.0,3243.0,6.5,1305.0,1369.1338062286377,0.0,0.25,1.596679524,0.01,0.0,0.2800000011920929,-4.210000038146973,-82.86000061035156,-0.13104248046875,-0.11981201171875,0.96881103515625,36.650001525878906,0.0,116.0,1.58160400390625,-2.889251708984375,Closing,0.0,0.0,3.0,0.0,0.0,0.0,0.0,0.0,
3.5185869999999997,0.0,0.0,81910.0,2.875,-1522.5,-1369.1338062286377,0.0,0.25,0.8422850700000001,4.932250999999998,0.0,-82823.0,5.25,1470.0,1369.1338062286377,0.0,0.125,0.49316401200000004,4.963769999999998,0.0,-3411.0,5.0,-1462.5,-1369.1338062286377,0.0,0.0,3.3691402800000003,0.01,0.0,3471.0,4.875,1425.0,1369.1338062286377,0.0,0.25,1.596679524,0.01,0.0,0.3199999928474426,-4.21999979019165,-82.08999633789062,-0.0772705078125,0.093505859375,1.4716796875,36.650001525878906,0.0,-78.0,1.58447265625,-2.944305419921875,Closing,0.0,0.0,3.0,0.0,0.0,0.0,0.0,0.0,
3.653841000000015,0.0,0.0,81662.0,0.125,-1267.5,-238.1102353334427,0.0,0.25,0.823974525,4.932250999999998,0.0,-82629.0,0.0,1192.5,238.1102353334427,0.0,0.125,0.49316401200000004,4.963769999999998,0.0,-3837.0,0.125,-1267.5,-238.1102353334427,0.0,0.0,3.334960596,0.01,0.0,3676.0,0.375,1222.5,238.1102353334427,0.0,0.25,1.6064451480000002,0.01,0.0,0.5600000023841858,-2.9800000190734863,-81.6500015258789,0.31561279296875,0.13775634765625,1.28857421875,36.650001525878906,0.0,-68.0,1.5868377685546875,-2.9776458740234375,Closing,0.0,0.0,3.0,0.0,0.0,0.0,0.0,0.0,
3.794587999999989,0.0,0.0,81289.0,0.0,-1185.0,0.0,0.0,0.25,0.822753822,4.932250999999998,0.0,-82444.0,0.0,1125.0,0.0,0.0,0.125,0.49438471500000003,4.963769999999998,0.0,-4017.0,0.0,-1125.0,0.0,0.0,0.0,3.334960596,0.01,0.0,3859.0,0.125,1117.5,0.0,0.0,0.25,1.6015623360000002,0.01,0.0,0.5799999833106995,-2.119999885559082,-81.31999969482422,0.1336669921875,-0.14288330078125,1.263916015625,36.650001525878906,0.0,181.0,1.5880279541015625,-2.9850616455078125,Closing,0.0,0.0,3.0,0.0,0.0,0.0,0.0,0.0,
3.9593859999999985,0.0,0.0,81169.0,3.75,-555.0,-181.889770925045,0.0,0.875,1.125488166,0.5498168668524864,0.0,-82319.0,7.375,255.0,-181.889770925045,0.0,0.875,0.25634763,4.41043958977222,0.0,-4135.0,3.25,-502.5,-181.889770925045,0.0,0.5,2.913818061,4.389674732977291,0.0,4001.0,8.5,465.0,-181.889770925045,0.0,0.875,1.9763181570000001,0.552687206278561,0.0,0.5099999904632568,0.8299999833106995,-80.62999725341797,0.60223388671875,3.662109375E-4,1.2652587890625,36.58000183105469,0.0,105.0,1.5905914306640625,-2.957183837890625,Closing,0.0,0.0,3.0,0.0,0.0,0.0,0.0,0.0,
4.093772999999986,0.0,0.0,81132.0,0.125,-195.0,-975.5905240774155,0.0,0.5,1.4489744610000002,0.5498168668524864,0.0,-82298.0,17.625,-97.5,-975.5905240774155,0.0,0.25,4.927978011,4.41043958977222,0.0,-4161.0,0.375,-67.5,-975.5905240774155,0.0,0.125,2.775878622,4.389674732977291,0.0,4034.0,15.0,-150.0,-975.5905240774155,0.0,0.375,2.332763433,0.552687206278561,0.0,0.47999998927116394,2.0199999809265137,-79.47000122070312,-0.177978515625,0.0740966796875,1.0869140625,36.58000183105469,0.0,-103.0,1.5991363525390625,-2.8901214599609375,Closing,0.0,0.0,3.0,0.0,0.0,0.0,0.0,0.0,
4.212882999999972,0.0,0.0,81100.0,0.125,-262.5,-396.8503922224045,0.0,0.375,1.483154145,0.5498168668524864,0.0,-82362.0,6.375,-360.0,-396.8503922224045,0.0,0.0,4.816894038,4.41043958977222,0.0,-4179.0,0.125,-180.0,-396.8503922224045,0.0,0.0,2.7514645620000002,4.389674732977291,0.0,3976.0,4.875,-405.0,-396.8503922224045,0.0,0.5,2.357177493,0.552687206278561,0.0,0.7099999785423279,0.8600000143051147,-74.37000274658203,0.07489013671875,-0.0751953125,1.21417236328125,36.58000183105469,0.0,102.0,1.6042022705078125,-2.8258819580078125,Closing,0.0,0.0,3.0,0.0,0.0,0.0,0.0,0.0,
4.348964999999968,0.0,0.0,81040.0,0.0,-337.5,0.0,0.0,0.375,1.429443213,0.5498168668524864,0.0,-82417.0,0.0,-135.0,0.0,0.0,0.25,4.842528801,4.41043958977222,0.0,-4228.0,0.0,-352.5,0.0,0.0,0.0,2.77099581,4.389674732977291,0.0,3897.0,0.125,-112.5,0.0,0.0,0.5,2.193603291,0.552687206278561,0.0,0.6600000262260437,0.8100000023841858,-70.04000091552734,-0.0419921875,-0.01544189453125,1.04376220703125,36.58000183105469,0.0,6.0,1.6104888916015625,-2.7989501953125,Closing,0.0,0.0,3.0,0.0,0.0,0.0,0.0,0.0,
4.4825439999999945,0.0,0.0,81006.0,0.0,-45.0,0.0,0.0,0.25,1.418456886,0.5498168668524864,0.0,-82439.0,0.0,-22.5,0.0,0.0,0.25,4.888915515,4.41043958977222,0.0,-4269.0,0.0,-22.5,0.0,0.0,0.0,2.775878622,4.389674732977291,0.0,3892.0,0.125,-15.0,0.0,0.0,0.25,2.1203611110000002,0.552687206278561,0.0,0.6899999976158142,0.7200000286102295,-69.1500015258789,-0.01849365234375,-3.662109375E-4,1.03515625,36.529998779296875,0.0,0.0,1.61895751953125,-2.80126953125,Closing,0.0,0.0,3.0,0.0,0.0,0.0,0.0,0.0,
4.641543999999994,0.0,0.0,81002.0,0.0,0.0,0.0,0.0,0.25,1.4208982920000002,0.5498168668524864,0.0,-82439.0,0.0,0.0,0.0,0.0,0.25,4.879149891,4.41043958977222,0.0,-4269.0,0.0,0.0,0.0,0.0,0.0,2.775878622,4.389674732977291,0.0,3892.0,0.125,0.0,0.0,0.0,0.25,2.144775171,0.552687206278561,0.0,0.5699999928474426,0.5299999713897705,-69.73999786376953,-0.010498046875,0.04058837890625,1.0152587890625,36.529998779296875,0.0,-35.0,1.619232177734375,-2.8043365478515625,Closing,0.0,0.0,3.0,0.0,0.0,0.0,0.0,0.0,
4.789676999999967,0.0,0.0,81002.0,0.0,0.0,0.0,0.0,0.25,1.4208982920000002,0.5498168668524864,0.0,-82439.0,0.0,0.0,0.0,0.0,0.25,4.879149891,4.41043958977222,0.0,-4269.0,0.0,0.0,0.0,0.0,0.0,2.777099325,4.389674732977291,0.0,3891.0,0.125,0.0,0.0,0.0,0.25,2.154540795,0.552687206278561,0.0,0.550000011920929,0.4399999976158142,-69.75,-0.028564453125,-0.003173828125,1.04266357421875,36.529998779296875,0.0,0.0,1.61688232421875,-2.804351806640625,Closing,0.0,0.0,3.0,0.0,0.0,0.0,0.0,0.0,
4.931228000000003,0.0,0.0,80985.0,1.75,-127.5,-634.9606275558472,0.0,1.25,0.966796776,4.932250999999998,0.0,-82438.0,3.75,82.5,634.9606275558472,0.0,1.25,0.35400387,4.963769999999998,0.0,-4279.0,1.75,-165.0,-634.9606275558472,0.0,0.625,3.1665035820000003,0.01,0.0,3892.0,2.25,112.5,634.9606275558472,0.0,0.625,1.728515448,0.01,0.0,0.5400000214576721,0.009999999776482582,-69.56999969482422,-0.0418701171875,0.06817626953125,0.9029541015625,36.5099983215332,0.0,-70.0,1.6171112060546875,-2.810333251953125,Closing,0.0,0.0,3.0,0.0,0.0,0.0,0.0,0.0,
5.068228999999992,0.0,0.0,80970.0,8.75,-187.5,-1150.86611866951,0.0,0.25,0.747070236,4.932250999999998,0.0,-82425.0,14.5,165.0,1150.86611866951,0.0,0.5,0.5664061920000001,4.963769999999998,0.0,-4306.0,7.5,-172.5,-1150.86611866951,0.0,0.25,3.5375972940000002,0.01,0.0,3912.0,8.125,225.0,1150.86611866951,0.0,0.25,1.456298679,0.01,0.0,0.5400000214576721,-1.0700000524520874,-69.37000274658203,-0.3184814453125,0.00726318359375,1.0322265625,36.5099983215332,0.0,-102.0,1.612152099609375,-2.826324462890625,Closing,0.0,0.0,3.0,0.0,0.0,0.0,0.0,0.0,
5.192327999999979,0.0,0.0,80906.0,9.875,-555.0,-1150.86611866951,0.0,0.25,0.7226561760000001,4.932250999999998,0.0,-82280.0,14.5,555.0,1150.86611866951,0.0,0.25,0.590820252,4.963769999999998,0.0,-4361.0,9.75,-510.0,-1150.86611866951,0.0,0.25,3.55224573,0.01,0.0,4054.0,9.5,517.5,1150.86611866951,0.0,0.375,1.4770506300000001,0.01,0.0,0.6499999761581421,-1.7999999523162842,-69.30999755859375,0.018798828125,0.01318359375,0.9840087890625,36.5099983215332,0.0,15.0,1.5998077392578125,-2.8626251220703125,Closing,0.0,0.0,3.0,0.0,0.0,0.0,0.0,0.125,
5.328757999999972,0.0,0.0,80662.0,9.75,-817.5,-1164.6392569376699,0.0,0.375,0.904540923,0.12084535782051795,0.0,-82146.0,13.875,862.5,1164.6392569376699,0.0,0.25,0.584716737,0.1216176066037094,0.0,-4594.0,9.875,-817.5,-1164.6392569376699,0.0,0.125,3.504638313,0.12104501692563635,0.0,4177.0,9.375,825.0,1164.6392569376699,0.0,0.375,1.7614744290000002,0.12147623551074914,0.0,0.3799999952316284,-2.7300000190734863,-69.37000274658203,-0.20654296875,-0.19586181640625,1.03631591796875,36.5099983215332,0.0,134.0,1.5952606201171875,-2.923126220703125,Closing,0.0,0.0,3.0,0.0,0.0,0.0,0.0,0.125,
5.505679000000003,0.0,0.0,80478.0,10.375,-1155.0,-1468.346507549286,0.0,0.375,0.965576073,4.932250999999998,0.0,-81972.0,13.625,1207.5,1468.346507549286,0.0,0.25,0.58593744,4.963769999999998,0.0,-4766.0,11.375,-1110.0,-1468.346507549286,0.0,0.125,3.446044569,0.01,0.0,4345.0,9.875,1177.5,1468.346507549286,0.0,0.25,1.776122865,0.01,0.0,-0.23999999463558197,-3.609999895095825,-69.6500015258789,-0.24951171875,0.06982421875,0.86907958984375,36.52000045776367,0.0,-136.0,1.5988922119140625,-3.0009307861328125,Closing,0.0,0.0,3.0,0.0,0.0,0.0,0.0,0.0,
5.649390000000014,0.0,0.0,80251.0,12.375,-1485.0,-1845.3543519973755,0.0,0.375,0.871581942,4.932250999999998,0.0,-81746.0,15.0,1507.5,1845.3543519973755,0.0,0.25,0.571289004,4.963769999999998,0.0,-4990.0,12.875,-1470.0,-1845.3543519973755,0.0,0.125,3.387450825,0.01,0.0,4561.0,11.625,1485.0,1845.3543519973755,0.0,0.25,1.6357420200000001,0.01,0.0,-0.05000000074505806,-4.380000114440918,-69.63999938964844,-0.15118408203125,0.22332763671875,1.37841796875,36.52000045776367,0.0,-226.0,1.59161376953125,-3.0755462646484375,Closing,0.0,0.0,3.0,0.0,0.0,0.0,0.0,0.0,
5.774497999999963,0.0,0.0,79979.0,9.625,-1762.5,-1865.1968622207642,0.0,0.25,0.822753822,4.932250999999998,0.0,-81483.0,11.75,1777.5,1865.1968622207642,0.0,0.25,0.49316401200000004,4.963769999999998,0.0,-5254.0,10.625,-1695.0,-1865.1968622207642,0.0,0.125,3.3764644980000003,0.01,0.0,4817.0,10.0,1740.0,1865.1968622207642,0.0,0.125,1.53808578,0.01,0.0,0.7599999904632568,-4.929999828338623,-68.7699966430664,-0.14886474609375,-0.12908935546875,1.09564208984375,36.52000045776367,0.0,114.0,1.562408447265625,-3.1754150390625,Closing,0.0,0.0,3.0,0.0,0.0,0.0,0.0,0.125,
5.928414999999979,0.0,0.0,79685.0,0.0,-1605.0,0.0,0.0,0.125,0.799560465,4.932250999999998,0.0,-80934.0,0.0,1537.5,0.0,0.0,0.125,0.468749952,4.963769999999998,0.0,-5791.0,0.0,-1560.0,0.0,0.0,0.0,3.339843408,0.01,0.0,5357.0,0.125,1537.5,0.0,0.0,0.375,1.6113279600000001,0.01,0.0,0.6299999952316284,-4.059999942779541,-67.77999877929688,0.00537109375,-0.032958984375,1.159423828125,36.4900016784668,0.0,75.0,1.529266357421875,-3.2709808349609375,Closing,0.0,0.0,3.0,0.0,0.0,0.0,0.0,0.0,
6.074292000000016,0.0,0.0,79170.0,0.0,-1627.5,0.0,0.0,0.125,0.799560465,4.932250999999998,0.0,-80680.0,0.0,1575.0,0.0,0.0,0.25,0.47851557600000005,4.963769999999998,0.0,-6038.0,0.0,-1552.5,0.0,0.0,0.0,3.338622705,0.01,0.0,5609.0,0.125,1567.5,0.0,0.0,0.25,1.625976396,0.01,0.0,0.5099999904632568,-3.0299999713897705,-67.68000030517578,0.18353271484375,-0.1505126953125,1.03515625,36.4900016784668,0.0,238.0,1.507598876953125,-3.3441009521484375,Closing,0.0,0.0,3.0,0.0,0.0,0.0,0.0,0.125,
6.202879000000015,0.0,0.0,78936.0,1.875,-1455.0,-2520.0,0.0,1.0,0.037841793,3.6991882500000015,0.0,-80440.0,1.875,1492.5,2520.0,0.0,0.875,4.7607417000000005,3.7228275000000015,0.0,-6262.0,6.25,-1275.0,-2520.0,0.0,1.875,2.470702872,3.7053000000000016,0.0,5845.0,3.625,1365.0,2520.0,0.0,0.875,0.8020018710000001,3.7185000000000015,0.0,1.659999966621399,-1.1399999856948853,-68.01000213623047,0.75323486328125,0.40045166015625,0.57928466796875,36.4900016784668,0.0,-69.0,1.4849090576171875,-3.4062652587890625,Closing,0.0,0.0,3.0,0.0,0.0,0.0,0.0,0.0,
6.383871999999974,0.0,0.0,78777.0,0.0,-540.0,0.0,0.0,0.375,4.245605034,3.6991882500000015,0.0,-80087.0,0.0,765.0,0.0,0.0,0.25,4.010009355,3.7228275000000015,0.0,-6395.0,0.0,-577.5,0.0,0.0,0.125,1.824950985,3.7053000000000016,0.0,6119.0,0.125,502.5,0.0,0.0,0.625,0.14526365700000002,3.7185000000000015,0.0,1.8300000429153442,2.8499999046325684,-70.22000122070312,0.0460205078125,-0.10467529296875,1.20599365234375,36.4900016784668,0.0,130.0,1.4541015625,-3.366119384765625,Closing,0.0,0.0,3.0,0.0,0.0,0.0,0.0,0.0,
6.551225999999966,0.0,0.0,78625.0,0.0,-367.5,0.0,0.0,0.5,4.41894486,3.6991882500000015,0.0,-80014.0,0.0,405.0,0.0,0.0,0.5,4.060058178,3.7228275000000015,0.0,-6549.0,0.0,-420.0,0.0,0.0,0.25,1.9738767510000002,3.7053000000000016,0.0,6189.0,0.125,367.5,0.0,0.0,0.375,0.31738278000000003,3.7185000000000015,0.0,0.8100000023841858,2.180000066757202,-70.63999938964844,-0.206298828125,-0.1197509765625,0.81353759765625,36.47999954223633,0.0,45.0,1.449066162109375,-3.30438232421875,Closing,0.0,0.0,3.0,0.0,0.0,0.0,0.0,0.0,
6.712092000000005,0.0,0.0,78577.0,0.0,-255.0,0.0,0.0,0.375,4.58984328,3.6991882500000015,0.0,-79964.0,0.0,232.5,0.0,0.0,0.25,4.237060113,3.7228275000000015,0.0,-6597.0,0.0,-270.0,0.0,0.0,0.125,2.198486103,3.7053000000000016,0.0,6236.0,0.125,232.5,0.0,0.0,0.25,0.429687456,3.7185000000000015,0.0,0.28999999165534973,1.4800000190734863,-70.5199966430664,-0.02880859375,-0.04656982421875,1.0050048828125,36.47999954223633,0.0,30.0,1.45062255859375,-3.2733306884765625,Closing,0.0,0.0,3.0,0.0,0.0,0.0,0.0,0.0,
6.8574899999999905,0.0,0.0,78553.0,0.0,-97.5,0.0,0.0,0.25,4.588622577000001,3.6991882500000015,0.0,-79935.0,0.0,90.0,0.0,0.0,0.125,4.299315966,3.7228275000000015,0.0,-6626.0,0.0,-97.5,0.0,0.0,0.125,2.194823994,3.7053000000000016,0.0,6279.0,0.125,97.5,0.0,0.0,0.25,0.419921832,3.7185000000000015,0.0,-0.15000000596046448,1.2400000095367432,-70.44000244140625,0.0186767578125,-0.07708740234375,1.0482177734375,36.47999954223633,0.0,68.0,1.4581451416015625,-3.254638671875,Closing,0.0,0.0,3.0,0.0,0.0,0.0,0.0,0.0,
7.000728000000003,0.0,0.0,78559.0,0.5,67.5,297.6378098130226,0.0,1.5,3.9025874910000002,3.015942366852486,0.0,-79928.0,0.5,-45.0,-297.6378098130226,0.0,1.0,4.909667466,4.41043958977222,0.0,-6653.0,0.375,-135.0,-297.6378098130226,0.0,1.125,2.830810257,4.389674732977291,0.0,6283.0,0.5,52.5,297.6378098130226,0.0,1.25,4.649657727,3.031687206278561,0.0,-0.2800000011920929,0.949999988079071,-70.31999969482422,-0.00433349609375,0.08990478515625,1.039306640625,36.439998626708984,0.0,-96.0,1.474761962890625,-3.241180419921875,Closing,0.0,0.0,3.0,0.0,0.0,0.0,0.0,0.0,
7.214064000000013,0.0,0.0,78590.0,11.0,270.0,1322.8346407413483,0.0,0.25,3.388671528,3.015942366852486,0.0,-79951.0,13.75,-270.0,-1322.8346407413483,0.0,0.25,0.306396453,4.41043958977222,0.0,-6662.0,12.125,-90.0,-1322.8346407413483,0.0,0.125,3.034667658,4.389674732977291,0.0,6298.0,7.875,352.5,1322.8346407413483,0.0,0.375,4.246825737,3.031687206278561,0.0,-0.09000000357627869,0.7099999785423279,-67.58999633789062,0.11151123046875,0.127197265625,1.04864501953125,36.439998626708984,0.0,-81.0,1.4832305908203125,-3.2435760498046875,Closing,0.0,0.0,3.0,0.0,0.0,0.0,0.0,0.0,
7.348496999999974,0.0,0.0,78637.0,21.625,262.5,1322.8346407413483,0.0,2.125,3.5180660460000004,3.015942366852486,0.0,-80016.0,13.5,-705.0,-1322.8346407413483,0.0,0.5,0.234374976,4.41043958977222,0.0,-6694.0,17.125,-232.5,-1322.8346407413483,0.0,0.25,2.91748017,4.389674732977291,0.0,6367.0,15.75,360.0,1322.8346407413483,0.0,0.625,4.519042506,3.031687206278561,0.0,0.05000000074505806,0.7400000095367432,-63.09000015258789,0.12298583984375,0.05657958984375,0.9254150390625,36.439998626708984,0.0,0.0,1.4886474609375,-3.245147705078125,Closing,0.0,0.0,3.0,0.0,0.0,0.0,0.0,0.0,
7.475312999999965,0.0,0.0,78670.0,0.0,75.0,0.0,0.0,0.875,3.752441022,3.015942366852486,0.0,-80165.0,0.0,-262.5,0.0,0.0,0.25,4.897460436,4.41043958977222,0.0,-6744.0,0.0,-247.5,0.0,0.0,0.125,2.781982137,4.389674732977291,0.0,6468.0,0.125,225.0,0.0,0.0,0.375,4.7680659180000005,3.031687206278561,0.0,0.3100000023841858,0.6100000143051147,-58.380001068115234,-0.16351318359375,-0.08209228515625,0.79547119140625,36.439998626708984,0.0,-16.0,1.49005126953125,-3.24017333984375,Closing,0.0,0.0,3.0,0.0,0.0,0.0,0.0,0.0,
7.633771000000008,0.0,0.0,78685.0,0.0,150.0,0.0,0.0,0.25,3.8977046790000003,3.015942366852486,0.0,-80183.0,0.0,-97.5,0.0,0.0,0.25,4.755858888000001,4.41043958977222,0.0,-6767.0,0.0,-112.5,0.0,0.0,0.0,2.7514645620000002,4.389674732977291,0.0,6483.0,0.125,82.5,0.0,0.0,0.25,4.801024899000001,3.031687206278561,0.0,0.009999999776482582,0.3400000035762787,-56.310001373291016,0.06719970703125,0.08392333984375,1.02197265625,36.439998626708984,0.0,-35.0,1.491912841796875,-3.24371337890625,Closing,0.0,0.0,3.0,0.0,0.0,0.0,0.0,0.0,
7.767877999999968,0.0,0.0,78705.0,0.0,15.0,0.0,0.0,0.25,3.8989253820000003,3.015942366852486,0.0,-80187.0,0.0,-7.5,0.0,0.0,0.25,4.796142087000001,4.41043958977222,0.0,-6785.0,0.0,0.0,0.0,0.0,0.0,2.7514645620000002,4.389674732977291,0.0,6486.0,0.125,15.0,0.0,0.0,0.5,4.7082514710000005,3.031687206278561,0.0,0.1599999964237213,0.30000001192092896,-56.470001220703125,-0.04248046875,-0.03521728515625,1.025390625,36.439998626708984,0.0,5.0,1.492401123046875,-3.244873046875,Closing,0.0,0.0,3.0,0.0,0.0,0.0,0.0,0.0,
7.885247999999963,0.0,0.0,78765.0,17.25,375.0,2000.7874488830569,0.0,0.25,3.8818355400000004,3.015942366852486,0.0,-80232.0,22.625,-487.5,-2000.7874488830569,0.0,0.25,4.840087395,4.41043958977222,0.0,-6796.0,24.125,-90.0,-2000.7874488830569,0.0,0.0,2.7990719790000003,4.389674732977291,0.0,6524.0,18.5,427.5,2000.7874488830569,0.0,0.25,4.6057124190000005,3.031687206278561,0.0,0.28999999165534973,-0.009999999776482582,-53.04999923706055,-0.011474609375,0.16497802734375,0.972412109375,36.439998626708984,0.0,-134.0,1.4878692626953125,-3.24627685546875,Closing,0.0,0.0,3.0,0.0,0.0,0.0,0.0,0.0,
8.031915999999969,0.0,0.0,78915.0,5.125,945.0,1207.0866644382477,0.0,0.125,3.811034766,3.0159423668524865,0.0,-80358.0,7.125,-982.5,-1207.0866644382477,0.0,0.25,4.90722606,4.41043958977222,0.0,-6870.0,14.125,-577.5,-1207.0866644382477,0.0,0.0,2.814941118,4.389674732977291,0.0,6630.0,6.5,892.5,1207.0866644382477,0.0,0.25,4.6557612420000005,3.031687206278561,0.0,0.3700000047683716,-0.4300000071525574,-39.369998931884766,-0.143798828125,0.03839111328125,1.08428955078125,36.439998626708984,0.0,-124.0,1.4752197265625,-3.2488555908203125,Closing,0.0,0.0,3.0,0.0,0.0,0.0,0.0,0.0,
8.173452999999979,0.0,0.0,79097.0,0.0,1057.5,0.0,0.0,0.125,3.819579687,3.0159423668524865,0.0,-80542.0,0.0,-975.0,0.0,0.0,0.125,0.032958981,4.41043958977222,0.0,-7067.0,0.0,-1087.5,0.0,0.0,0.125,2.805175494,4.389674732977291,0.0,6808.0,0.125,1050.0,0.0,0.0,0.125,4.683837411,3.031687206278561,0.0,0.6200000047683716,-0.7799999713897705,-24.280000686645508,-0.00152587890625,-0.14703369140625,1.0626220703125,36.439998626708984,0.0,77.0,1.4584503173828125,-3.2505340576171875,Closing,0.0,0.0,3.0,0.0,0.0,0.0,0.0,0.0,
8.306212,0.0,0.0,79260.0,0.0,1012.5,0.0,0.0,0.125,3.82080039,3.0159423668524865,0.0,-80693.0,0.0,-952.5,0.0,0.0,0.25,0.028076169,4.41043958977222,0.0,-7213.0,0.0,-937.5,0.0,0.0,0.0,2.805175494,4.389674732977291,0.0,6969.0,0.125,997.5,0.0,0.0,0.25,4.683837411,3.031687206278561,0.0,0.44999998807907104,-0.8500000238418579,-10.199999809265137,-0.03656005859375,0.01544189453125,0.99432373046875,36.439998626708984,0.0,-22.0,1.4413604736328125,-3.25,Closing,0.0,0.0,3.0,0.0,0.0,0.0,0.0,0.0,
8.434973999999988,0.0,0.0,79394.0,0.0,772.5,0.0,0.0,0.125,3.819579687,3.0159423668524865,0.0,-80948.0,0.0,-742.5,0.0,0.0,0.25,4.953612774000001,4.41043958977222,0.0,-7360.0,0.0,-817.5,0.0,0.0,0.0,2.805175494,4.389674732977291,0.0,7240.0,0.125,765.0,0.0,0.0,0.25,4.683837411,3.031687206278561,0.0,0.3100000023841858,-1.0800000429153442,1.8899999856948853,-0.03289794921875,-0.0125732421875,1.05426025390625,36.439998626708984,0.0,-13.0,1.4241180419921875,-3.2490081787109375,Closing,0.0,0.0,3.0,0.0,0.0,0.0,0.0,0.0,
8.579304000000004,0.0,0.0,79466.0,30.75,-112.5,-2100.0,0.0,0.125,3.8305660140000004,3.0159423668524887,0.0,-80975.0,46.0,-45.0,2100.0,0.0,0.25,4.930419417,4.410439589772222,0.0,-7529.0,48.875,-397.5,2100.0,0.0,0.0,2.775878622,4.389674732977289,0.0,7267.0,35.0,-7.5,-2100.0,0.0,0.25,4.698485847000001,3.0316872062785585,0.0,0.3499999940395355,-0.7300000190734863,4.010000228881836,0.053955078125,0.0650634765625,1.33544921875,36.459999084472656,0.0,74.0,1.40643310546875,-3.2481842041015625,Closing,0.0,0.0,3.0,0.0,0.0,0.0,0.0,0.0,
8.729458999999974,0.0,0.0,79351.0,0.0,-682.5,0.0,0.0,0.125,3.814696875,3.0159423668524887,0.0,-80867.0,0.0,712.5,0.0,0.0,0.125,4.8730463760000005,4.410439589772222,0.0,-7509.0,0.0,187.5,0.0,0.0,0.0,2.805175494,4.389674732977289,0.0,7161.0,0.125,-712.5,0.0,0.0,0.25,4.611815934,3.0316872062785585,0.0,0.5400000214576721,-0.5,-8.380000114440918,-0.07391357421875,0.100830078125,0.9744873046875,36.459999084472656,0.0,-77.0,1.40338134765625,-3.2439117431640625,Closing,0.0,0.0,3.0,0.0,0.0,0.0,0.0,0.0,
8.864809999999999,0.0,0.0,79232.0,0.0,-735.0,0.0,0.0,0.125,3.815917578,3.0159423668524887,0.0,-80740.0,0.0,697.5,0.0,0.0,0.25,4.854735831,4.410439589772222,0.0,-7396.0,0.0,697.5,0.0,0.0,0.0,2.7966305730000003,4.389674732977289,0.0,7035.0,0.125,-697.5,0.0,0.0,0.25,4.60205031,3.0316872062785585,0.0,0.550000011920929,-0.36000001430511475,-18.690000534057617,0.055419921875,0.05511474609375,0.94219970703125,36.459999084472656,0.0,43.0,1.397674560546875,-3.2379913330078125,Closing,0.0,0.0,3.0,0.0,0.0,0.0,0.0,0.0,
8.988168000000005,0.0,0.0,79135.0,0.0,-607.5,0.0,0.0,0.125,3.817138281,3.0159423668524887,0.0,-80638.0,0.0,570.0,0.0,0.0,0.25,4.876708485,4.410439589772222,0.0,-7312.0,0.0,532.5,0.0,0.0,0.0,2.808837603,4.389674732977289,0.0,6939.0,0.125,-532.5,0.0,0.0,0.25,4.6057124190000005,3.0316872062785585,0.0,0.4000000059604645,-0.2800000011920929,-24.6299991607666,0.0106201171875,0.0125732421875,0.895751953125,36.459999084472656,0.0,11.0,1.3934173583984375,-3.2362213134765625,Closing,0.0,0.0,3.0,0.0,0.0,0.0,0.0,0.0,
9.106600999999966,0.0,0.0,79074.0,0.0,-322.5,0.0,0.0,0.125,3.815917578,3.0159423668524887,0.0,-80569.0,0.0,307.5,0.0,0.0,0.25,4.90722606,4.410439589772222,0.0,-7257.0,0.0,285.0,0.0,0.0,0.0,2.808837603,4.389674732977289,0.0,6875.0,0.125,-292.5,0.0,0.0,0.25,4.606933122,3.0316872062785585,0.0,0.3100000023841858,-0.4000000059604645,-29.81999969482422,0.00628662109375,-0.0179443359375,1.02703857421875,36.459999084472656,0.0,23.0,1.3932342529296875,-3.2366790771484375,Closing,0.0,0.0,3.0,0.0,0.0,0.0,0.0,0.0,
9.258561999999976,0.0,0.0,79046.0,0.0,-105.0,0.0,0.0,0.125,3.815917578,3.0159423668524887,0.0,-80531.0,0.0,105.0,0.0,0.0,0.125,4.908446763000001,4.410439589772222,0.0,-7224.0,0.0,127.5,0.0,0.0,0.0,2.810058306,4.389674732977289,0.0,6840.0,0.125,-127.5,0.0,0.0,0.25,4.6057124190000005,3.0316872062785585,0.0,0.2800000011920929,-0.4399999976158142,-31.40999984741211,-0.006103515625,-0.024658203125,1.036865234375,36.459999084472656,0.0,17.0,1.39312744140625,-3.236419677734375,Closing,0.0,0.0,3.0,0.0,0.0,0.0,0.0,0.125,
9.386027000000002,0.0,0.0,79042.0,0.0,0.0,0.0,0.0,0.125,3.815917578,3.0159423668524887,0.0,-80521.0,0.0,0.0,0.0,0.0,0.125,4.906005357000001,4.410439589772222,0.0,-7219.0,0.0,0.0,0.0,0.0,0.0,2.810058306,4.389674732977289,0.0,6831.0,0.125,0.0,0.0,0.0,0.25,4.606933122,3.0316872062785585,0.0,0.25999999046325684,-0.49000000953674316,-31.059999465942383,-0.01885986328125,0.015869140625,1.01513671875,36.459999084472656,0.0,-14.0,1.39306640625,-3.236907958984375,Closing,0.0,0.0,3.0,0.0,0.0,0.0,0.0,0.0,
9.517869999999995,0.0,0.0,79042.0,0.0,0.0,0.0,0.0,0.125,3.815917578,3.0159423668524887,0.0,-80521.0,0.0,0.0,0.0,0.0,0.125,4.90722606,4.410439589772222,0.0,-7219.0,0.0,0.0,0.0,0.0,0.0,2.810058306,4.389674732977289,0.0,6831.0,0.125,0.0,0.0,0.0,0.25,4.6057124190000005,3.0316872062785585,0.0,0.20999999344348907,-0.5199999809265137,-30.8700008392334,-0.00677490234375,0.021484375,1.01422119140625,36.47999954223633,0.0,-6.0,1.39300537109375,-3.2370758056640625,Closing,0.0,0.0,3.0,0.0,0.0,0.0,0.0,0.0,
9.653652999999991,0.0,0.0,79042.0,0.0,0.0,0.0,0.0,0.125,3.815917578,3.0159423668524887,0.0,-80521.0,0.0,0.0,0.0,0.0,0.125,4.908446763000001,4.410439589772222,0.0,-7219.0,0.0,0.0,0.0,0.0,0.0,2.810058306,4.389674732977289,0.0,6831.0,0.125,0.0,0.0,0.0,0.25,4.606933122,3.0316872062785585,0.0,0.20000000298023224,-0.5299999713897705,-30.950000762939453,-0.01885986328125,-3.662109375E-4,1.023193359375,36.47999954223633,0.0,-5.0,1.39300537109375,-3.2370758056640625,Closing,0.0,0.0,3.0,0.0,0.0,0.0,0.0,0.0,
9.792995999999984,0.0,0.0,79042.0,0.0,0.0,0.0,0.0,0.125,3.814696875,3.0159423668524887,0.0,-80521.0,0.0,0.0,0.0,0.0,0.125,4.908446763000001,4.410439589772222,0.0,-7219.0,0.0,0.0,0.0,0.0,0.0,2.810058306,4.389674732977289,0.0,6831.0,0.125,0.0,0.0,0.0,0.25,4.6057124190000005,3.0316872062785585,0.0,0.20000000298023224,-0.550000011920929,-30.920000076293945,-0.0072021484375,0.00146484375,1.01904296875,36.47999954223633,0.0,3.0,1.39300537109375,-3.2370758056640625,Closing,0.0,0.0,3.0,0.0,0.0,0.0,0.0,0.0,
9.92912400000001,0.0,0.0,79022.0,1.375,-135.0,-570.9375,0.0,2.375,4.206542538,3.6991882500000015,0.0,-80503.0,1.875,180.0,570.9375,0.0,0.875,4.523925318,3.7228275000000015,0.0,-7220.0,2.0,-7.5,-570.9375,0.0,1.625,2.451171624,3.7053000000000016,0.0,6842.0,2.375,75.0,570.9375,0.0,1.5,0.23071286700000002,3.7185000000000015,0.0,0.3700000047683716,-0.6000000238418579,-30.850000381469727,-0.0108642578125,0.0533447265625,1.1239013671875,36.47999954223633,0.0,-22.0,1.3922882080078125,-3.235260009765625,Closing,0.0,0.0,3.0,0.0,0.0,0.0,0.0,0.0,
10.06900099999999,0.0,0.0,78989.0,12.75,-255.0,-1378.125,0.0,0.375,4.584960468,3.6991882500000015,0.0,-80477.0,16.625,285.0,1378.125,0.0,0.25,4.079589426,3.7228275000000015,0.0,-7226.0,17.375,-45.0,-1378.125,0.0,0.5,2.082519318,3.7053000000000016,0.0,6848.0,15.25,135.0,1378.125,0.0,0.25,0.637206966,3.7185000000000015,0.0,1.7899999618530273,-0.6100000143051147,-31.049999237060547,0.0147705078125,0.37451171875,1.04852294921875,36.5099983215332,0.0,-153.0,1.3839111328125,-3.2215118408203125,Closing,0.0,0.0,3.0,0.0,0.0,0.0,0.0,0.0,
10.23373999999999,0.0,0.0,78935.0,0.0,-322.5,0.0,0.0,0.25,4.622802261,3.6991882500000015,0.0,-80407.0,0.0,330.0,0.0,0.0,0.25,3.9855952950000004,3.7228275000000015,0.0,-7255.0,0.0,-187.5,0.0,0.0,0.0,2.0056150290000003,3.7053000000000016,0.0,6968.0,0.125,322.5,0.0,0.0,0.5,0.5017089330000001,3.7185000000000015,0.0,0.8399999737739563,-0.5299999713897705,-31.290000915527344,0.09210205078125,-0.1600341796875,0.94964599609375,36.5099983215332,0.0,176.0,1.361328125,-3.1903839111328125,Closing,0.0,0.0,3.0,0.0,0.0,0.0,0.0,0.0,
10.374936999999976,0.0,0.0,78864.0,0.0,-157.5,0.0,0.0,0.25,4.531249536000001,3.6991882500000015,0.0,-80331.0,0.0,142.5,0.0,0.0,0.75,4.096679268,3.7228275000000015,0.0,-7288.0,0.0,-165.0,0.0,0.0,0.125,2.030029089,3.7053000000000016,0.0,6995.0,0.125,202.5,0.0,0.0,0.5,0.352783167,3.7185000000000015,0.0,0.019999999552965164,-0.5199999809265137,-31.229999542236328,-0.01727294921875,-0.11328125,0.98541259765625,36.5099983215332,0.0,51.0,1.3569183349609375,-3.1857147216796875,Closing,0.0,0.0,3.0,0.0,0.0,0.0,0.0,0.125,
10.504674999999988,0.0,0.0,78858.0,0.0,-15.0,0.0,0.0,0.125,4.511718288,3.6991882500000015,0.0,-80327.0,0.0,15.0,0.0,0.0,0.5,4.157714418,3.7228275000000015,0.0,-7310.0,0.0,-15.0,0.0,0.0,0.0,2.093505645,3.7053000000000016,0.0,6999.0,0.125,15.0,0.0,0.0,0.25,0.328369107,3.7185000000000015,0.0,-0.23000000417232513,-0.6000000238418579,-31.239999771118164,-0.007080078125,0.00689697265625,1.02178955078125,36.5099983215332,0.0,-2.0,1.356231689453125,-3.187957763671875,Closing,0.0,0.0,3.0,0.0,0.0,0.0,0.0,0.0,
10.631222999999999,0.0,0.0,78855.0,0.0,0.0,0.0,0.0,0.125,4.511718288,3.6991882500000015,0.0,-80327.0,0.0,0.0,0.0,0.0,0.25,4.163817933,3.7228275000000015,0.0,-7310.0,0.0,0.0,0.0,0.0,0.0,2.1118161900000003,3.7053000000000016,0.0,6999.0,0.125,0.0,0.0,0.0,0.25,0.35034176100000003,3.7185000000000015,0.0,-0.15000000596046448,-0.5899999737739563,-31.239999771118164,-0.0093994140625,0.02117919921875,1.025146484375,36.5,0.0,-11.0,1.3560791015625,-3.1868896484375,Closing,0.0,0.0,3.0,0.0,0.0,0.0,0.0,0.0,
10.755518999999971,0.0,0.0,78855.0,0.0,0.0,0.0,0.0,0.125,4.511718288,3.6991882500000015,0.0,-80327.0,0.0,0.0,0.0,0.0,0.25,4.165038636,3.7228275000000015,0.0,-7310.0,0.0,0.0,0.0,0.0,0.0,2.1118161900000003,3.7053000000000016,0.0,6999.0,0.125,0.0,0.0,0.0,0.25,0.3662109,3.7185000000000015,0.0,-0.09000000357627869,-0.5899999737739563,-31.25,-0.0185546875,0.0130615234375,1.02142333984375,36.5,0.0,-14.0,1.3560791015625,-3.186370849609375,Closing,0.0,0.0,3.0,0.0,0.0,0.0,0.0,0.0,
10.892918999999994,0.0,0.0,78818.0,6.75,-210.0,-1279.6875,0.0,0.125,4.512938991,3.6991882500000015,0.0,-80293.0,9.25,255.0,1279.6875,0.0,0.25,4.169921448,3.7228275000000015,0.0,-7315.0,8.75,-22.5,-1279.6875,0.0,0.0,2.145995874,3.7053000000000016,0.0,7023.0,8.875,210.0,1279.6875,0.0,0.125,0.32226559200000005,3.7185000000000015,0.0,0.7699999809265137,-0.6100000143051147,-31.31999969482422,0.02532958984375,0.1026611328125,1.27691650390625,36.5,0.0,-7.0,1.3517913818359375,-3.1787872314453125,Closing,0.0,0.0,3.0,0.0,0.0,0.0,0.0,0.0,
11.043207999999984,0.0,0.0,78782.0,0.0,-180.0,0.0,0.0,0.125,4.4958491490000005,3.6991882500000015,0.0,-80246.0,0.0,187.5,0.0,0.0,0.25,4.204101132,3.7228275000000015,0.0,-7347.0,0.0,-112.5,0.0,0.0,0.125,2.141113062,3.7053000000000016,0.0,7071.0,0.125,240.0,0.0,0.0,0.25,0.357665979,3.7185000000000015,0.0,0.9599999785423279,-0.6499999761581421,-30.989999771118164,0.0693359375,-0.1539306640625,0.79437255859375,36.5,0.0,153.0,1.33624267578125,-3.1496734619140625,Closing,0.0,0.0,3.0,0.0,0.0,0.0,0.0,0.0,
11.177374000000011,0.0,0.0,78728.0,0.0,-270.0,0.0,0.0,0.125,4.4982905550000005,3.6991882500000015,0.0,-80175.0,0.0,240.0,0.0,0.0,0.125,4.217528865,3.7228275000000015,0.0,-7381.0,0.0,-180.0,0.0,0.0,0.125,2.13623025,3.7053000000000016,0.0,7148.0,0.125,225.0,0.0,0.0,0.25,0.385742148,3.7185000000000015,0.0,0.46000000834465027,-0.6700000166893005,-31.010000228881836,-0.02337646484375,-0.10028076171875,1.15228271484375,36.52000045776367,0.0,48.0,1.328155517578125,-3.1298980712890625,Closing,0.0,0.0,3.0,0.0,0.0,0.0,0.0,0.0,
11.326087999999988,0.0,0.0,78698.0,0.0,-142.5,0.0,0.0,0.125,4.497069852,3.6991882500000015,0.0,-80157.0,0.0,120.0,0.0,0.0,0.125,4.216308162,3.7228275000000015,0.0,-7397.0,0.0,-82.5,0.0,0.0,0.125,2.13623025,3.7053000000000016,0.0,7165.0,0.125,120.0,0.0,0.0,0.125,0.399169881,3.7185000000000015,0.0,-0.11999999731779099,-0.6800000071525574,-31.010000228881836,-0.01824951171875,-0.0738525390625,1.11126708984375,36.52000045776367,0.0,32.0,1.32470703125,-3.1183624267578125,Closing,0.0,0.0,3.0,0.0,0.0,0.0,0.0,0.0,
11.456221000000019,0.0,0.0,78686.0,0.0,-15.0,0.0,0.0,0.125,4.497069852,3.6991882500000015,0.0,-80155.0,0.0,15.0,0.0,0.0,0.125,4.217528865,3.7228275000000015,0.0,-7406.0,0.0,0.0,0.0,0.0,0.125,2.13623025,3.7053000000000016,0.0,7166.0,0.125,0.0,0.0,0.0,0.25,0.40039058400000005,3.7185000000000015,0.0,-0.36000001430511475,-0.6800000071525574,-31.010000228881836,-0.01702880859375,-0.0078125,1.04864501953125,36.52000045776367,0.0,-3.0,1.3252410888671875,-3.11627197265625,Closing,0.0,0.0,3.0,0.0,0.0,0.0,0.0,0.0,
11.58386499999999,0.0,0.0,78686.0,0.0,0.0,0.0,0.0,0.125,4.497069852,3.6991882500000015,0.0,-80155.0,0.0,0.0,0.0,0.0,0.125,4.217528865,3.7228275000000015,0.0,-7406.0,0.0,0.0,0.0,0.0,0.125,2.13623025,3.7053000000000016,0.0,7166.0,0.125,0.0,0.0,0.0,0.25,0.399169881,3.7185000000000015,0.0,-0.25999999046325684,-0.6800000071525574,-31.030000686645508,-0.01123046875,0.0218505859375,0.99566650390625,36.4900016784668,0.0,-13.0,1.3252410888671875,-3.1157989501953125,Closing,0.0,0.0,3.0,0.0,0.0,0.0,0.0,0.0,
11.731227000000013,0.0,0.0,78686.0,0.0,0.0,0.0,0.0,0.125,4.497069852,3.6991882500000015,0.0,-80155.0,0.0,0.0,0.0,0.0,0.125,4.217528865,3.7228275000000015,0.0,-7406.0,0.0,0.0,0.0,0.0,0.125,2.13623025,3.7053000000000016,0.0,7166.0,0.125,0.0,0.0,0.0,0.25,0.399169881,3.7185000000000015,0.0,-0.11999999731779099,-0.6800000071525574,-31.020000457763672,-0.01654052734375,3.662109375E-4,1.02484130859375,36.4900016784668,0.0,-5.0,1.3252410888671875,-3.114288330078125,Closing,0.0,0.0,3.0,0.0,0.0,0.0,0.0,0.0,
11.886370999999984,0.0,0.0,78686.0,0.0,0.0,0.0,0.0,0.125,4.497069852,3.6991882500000015,0.0,-80155.0,0.0,0.0,0.0,0.0,0.125,4.217528865,3.7228275000000015,0.0,-7406.0,0.0,0.0,0.0,0.0,0.125,2.13623025,3.7053000000000016,0.0,7166.0,0.125,0.0,0.0,0.0,0.25,0.40039058400000005,3.7185000000000015,0.0,-0.14000000059604645,-0.6800000071525574,-31.030000686645508,-0.01104736328125,-0.0040283203125,1.02294921875,36.4900016784668,0.0,1.0,1.3252410888671875,-3.114288330078125,Closing,0.0,0.0,3.0,0.0,0.0,0.0,0.0,0.0,
12.03824800000002,0.0,0.0,78686.0,0.0,0.0,0.0,0.0,0.125,4.4958491490000005,3.6991882500000015,0.0,-80155.0,0.0,0.0,0.0,0.0,0.125,4.217528865,3.7228275000000015,0.0,-7406.0,0.0,0.0,0.0,0.0,0.125,2.13623025,3.7053000000000016,0.0,7166.0,0.125,0.0,0.0,0.0,0.25,0.40039058400000005,3.7185000000000015,0.0,-0.10999999940395355,-0.6899999976158142,-31.040000915527344,-0.01580810546875,0.0067138671875,1.01580810546875,36.4900016784668,0.0,-7.0,1.3252410888671875,-3.114288330078125,Closing,0.0,0.0,3.0,0.0,0.0,0.0,0.0,0.125,
12.156297999999952,0.0,0.0,78686.0,0.0,0.0,0.0,0.0,0.125,4.497069852,3.6991882500000015,0.0,-80155.0,0.0,0.0,0.0,0.0,0.125,4.216308162,3.7228275000000015,0.0,-7406.0,0.0,0.0,0.0,0.0,0.125,2.13623025,3.7053000000000016,0.0,7166.0,0.125,0.0,0.0,0.0,0.25,0.40039058400000005,3.7185000000000015,0.0,-0.09000000357627869,-0.6899999976158142,-31.040000915527344,-0.0118408203125,-0.00103759765625,1.01690673828125,36.470001220703125,0.0,0.0,1.3252410888671875,-3.114288330078125,Closing,0.0,0.0,3.0,0.0,0.0,0.0,0.0,0.0,
12.34789300000004,0.0,0.0,78703.0,1.875,120.0,654.8031377792358,0.0,3.0,4.042968336,2.4661254999999977,0.0,-80166.0,3.75,-75.0,-654.8031377792358,0.0,2.0,3.706054308,2.481884999999998,0.0,-7413.0,2.75,-60.0,-654.8031377792358,0.0,3.625,2.707519254,0.01,0.0,7176.0,2.5,105.0,654.8031377792358,0.0,1.5,1.0986327,0.01,0.0,-0.17000000178813934,-0.7400000095367432,-30.81999969482422,-0.1063232421875,0.02935791015625,1.04095458984375,36.470001220703125,0.0,-96.0,1.32464599609375,-3.115631103515625,Closing,0.0,0.0,3.0,0.0,0.0,0.0,0.0,0.0,
12.475493999999948,0.0,0.0,78735.0,9.0,240.0,1250.0787448883057,0.0,0.5,3.2067867810000004,2.4661254999999977,0.0,-80167.0,21.875,-52.5,-1250.0787448883057,0.0,1.125,3.018798519,2.481884999999998,0.0,-7440.0,10.75,-202.5,-1250.0787448883057,0.0,0.25,3.489989877,0.01,0.0,7179.0,17.5,60.0,1250.0787448883057,0.0,0.75,1.7419431810000001,0.01,0.0,-0.20999999344348907,-1.9199999570846558,-29.610000610351562,-0.39495849609375,-0.04205322265625,1.020263671875,36.470001220703125,0.0,-294.0,1.3161468505859375,-3.1229400634765625,Closing,0.0,0.0,3.0,0.0,0.0,0.0,0.0,0.0,
12.609478999999935,0.0,0.0,78821.0,12.75,517.5,1260.0,0.0,0.25,2.9956051620000004,2.4661254999999977,0.0,-80203.0,18.875,-682.5,-1260.0,0.0,0.125,2.730712611,2.481884999999998,0.0,-7478.0,20.0,-270.0,-1260.0,0.0,0.25,3.6730953270000004,0.01,0.0,7216.0,14.25,570.0,1260.0,0.0,0.5,1.9506833940000001,0.01,0.0,-0.07999999821186066,-2.859999895095825,-31.040000915527344,-0.20166015625,-0.0216064453125,0.982666015625,36.470001220703125,0.0,-120.0,1.28485107421875,-3.14300537109375,Closing,0.0,0.0,3.0,0.0,0.0,0.0,0.0,0.0,
12.746391999999993,0.0,0.0,78901.0,12.25,570.0,902.8346657752991,0.0,0.625,3.145751631,2.4661254999999977,0.0,-80534.0,4.75,-1132.5,-902.8346657752991,0.0,0.25,2.874755565,2.481884999999998,0.0,-7562.0,15.125,-727.5,-902.8346657752991,0.0,0.375,3.498534798,0.01,0.0,7545.0,3.25,1147.5,902.8346657752991,0.0,0.5,1.646728347,0.01,0.0,0.029999999329447746,-3.5999999046325684,-36.27000045776367,-0.09716796875,0.06927490234375,0.969970703125,36.470001220703125,0.0,-69.0,1.243377685546875,-3.17181396484375,Closing,0.0,0.0,3.0,0.0,0.0,0.0,0.0,0.0,
12.887890000000015,0.0,0.0,79015.0,0.0,607.5,0.0,0.0,0.375,3.3703609830000003,2.4661254999999977,0.0,-80677.0,0.0,-817.5,0.0,0.0,0.25,2.985839538,2.481884999999998,0.0,-7780.0,0.0,-600.0,0.0,0.0,0.125,3.227538732,0.01,0.0,7691.0,0.125,885.0,0.0,0.0,0.25,1.3989256380000001,0.01,0.0,0.28999999165534973,-2.9000000953674316,-38.22999954223633,0.13946533203125,-0.09417724609375,1.10028076171875,36.470001220703125,0.0,215.0,1.194580078125,-3.209014892578125,Closing,0.0,0.0,3.0,0.0,0.0,0.0,0.0,0.0,
13.034373000000022,0.0,0.0,79253.0,0.0,772.5,0.0,0.0,0.25,3.40576137,2.4661254999999977,0.0,-80774.0,0.0,-517.5,0.0,0.0,0.0,3.043212579,2.481884999999998,0.0,-7896.0,0.0,-720.0,0.0,0.0,0.125,3.19824186,0.01,0.0,7780.0,0.125,547.5,0.0,0.0,0.375,1.495361175,0.01,0.0,0.07000000029802322,-2.0399999618530273,-35.77000045776367,0.15533447265625,0.02349853515625,1.2620849609375,36.470001220703125,0.0,149.0,1.1691131591796875,-3.227783203125,Closing,0.0,0.0,3.0,0.0,0.0,0.0,0.0,0.0,
13.184368999999949,0.0,0.0,79351.0,0.0,547.5,0.0,0.0,0.25,3.2739254460000002,2.4661254999999977,0.0,-80846.0,0.0,-420.0,0.0,0.0,0.25,3.013915707,2.481884999999998,0.0,-8002.0,0.0,-555.0,0.0,0.0,0.125,3.3740230920000003,0.01,0.0,7847.0,0.125,390.0,0.0,0.0,0.375,1.678466625,0.01,0.0,-0.11999999731779099,-1.1699999570846558,-34.220001220703125,0.15673828125,0.004150390625,0.966552734375,36.439998626708984,0.0,142.0,1.15478515625,-3.2398223876953125,Closing,0.0,0.0,3.0,0.0,0.0,0.0,0.0,0.125,
13.337018999999971,0.0,0.0,79446.0,5.25,255.0,1122.1874999999998,0.0,2.125,2.4780270900000003,1.2330627500000013,0.0,-80886.0,16.875,157.5,1122.1874999999998,0.0,1.5,3.9038081940000002,3.7228275000000015,0.0,-8062.0,17.375,-37.5,1122.1874999999998,0.0,2.375,4.147948794,1.2351000000000012,0.0,7892.0,11.0,-90.0,-1122.1874999999998,0.0,1.625,2.67333957,1.2395000000000012,0.0,0.30000001192092896,0.8399999737739563,-33.93000030517578,0.01904296875,0.28021240234375,1.10882568359375,36.439998626708984,0.0,-150.0,1.17510986328125,-3.226776123046875,Closing,0.0,0.0,3.0,0.0,0.0,0.0,0.0,0.0,
13.52966399999999,0.0,0.0,79452.0,0.0,30.0,0.0,0.0,0.5,1.848144342,1.2330627500000013,0.0,-80868.0,0.0,-7.5,0.0,0.0,0.5,4.562987814,3.7228275000000015,0.0,-8059.0,0.0,7.5,0.0,0.0,0.625,4.791259275,1.2351000000000012,0.0,7861.0,0.125,-82.5,0.0,0.0,0.375,3.2226559200000002,1.2395000000000012,0.0,0.3700000047683716,-0.10999999940395355,-33.459999084472656,0.1031494140625,-0.03643798828125,1.1116943359375,36.439998626708984,0.0,112.0,1.1873626708984375,-3.20343017578125,Closing,0.0,0.0,3.0,0.0,0.0,0.0,0.0,0.125,
13.684462999999988,0.0,0.0,79482.0,0.0,165.0,0.0,0.0,1.0,1.676025219,1.2330627500000013,0.0,-80855.0,0.0,127.5,0.0,0.0,0.25,4.572753438,3.7228275000000015,0.0,-8059.0,0.0,0.0,0.0,0.0,0.25,4.693603035000001,1.2351000000000012,0.0,7837.0,0.125,-67.5,0.0,0.0,0.5,3.01513641,1.2395000000000012,0.0,-0.05000000074505806,-0.1599999964237213,-34.130001068115234,0.03363037109375,-0.04168701171875,0.975341796875,36.43000030517578,0.0,53.0,1.194122314453125,-3.18743896484375,Closing,0.0,0.0,3.0,0.0,0.0,0.0,0.0,0.0,
13.841893999999971,0.0,0.0,79485.0,0.0,0.0,0.0,0.0,0.875,1.884765432,1.2330627500000013,0.0,-80841.0,0.0,15.0,0.0,0.0,0.25,4.2431636280000005,3.7228275000000015,0.0,-8054.0,0.0,7.5,0.0,0.0,0.125,4.586181171000001,1.2351000000000012,0.0,7839.0,0.125,7.5,0.0,0.0,0.5,2.8417965840000003,1.2395000000000012,0.0,-0.20000000298023224,-0.15000000596046448,-34.20000076293945,-0.022216796875,0.0205078125,1.0166015625,36.43000030517578,0.0,-29.0,1.1948699951171875,-3.18792724609375,Closing,0.0,0.0,3.0,0.0,0.0,0.0,0.0,0.0,
13.972508999999961,0.0,0.0,79486.0,4.0,165.0,954.8437499999999,0.0,0.375,2.041015416,1.2330627500000013,0.0,-80805.0,5.625,232.5,954.8437499999999,0.0,0.0,4.124755437,3.7228275000000015,0.0,-8054.0,5.25,37.5,954.8437499999999,0.0,0.0,4.567870626,1.2351000000000012,0.0,7811.0,4.125,-187.5,-954.8437499999999,0.0,0.25,2.8076169,1.2395000000000012,0.0,0.46000000834465027,-0.1899999976158142,-34.11000061035156,-3.0517578125E-4,0.2147216796875,0.86041259765625,36.43000030517578,0.0,-114.0,1.190643310546875,-3.1845703125,Closing,0.0,0.0,3.0,0.0,0.0,0.0,0.0,0.0,
14.104001999999978,0.0,0.0,79520.0,1.375,187.5,305.15624999999994,0.0,0.25,2.106933378,1.2330627500000013,0.0,-80772.0,1.0,165.0,305.15624999999994,0.0,0.25,4.1333003580000005,3.7228275000000015,0.0,-8046.0,2.25,75.0,305.15624999999994,0.0,0.0,4.544677269,1.2351000000000012,0.0,7777.0,1.0,-180.0,-305.15624999999994,0.0,0.25,2.828368851,1.2395000000000012,0.0,0.75,-0.17000000178813934,-34.06999969482422,-0.019287109375,-0.00909423828125,1.1607666015625,36.43000030517578,0.0,0.0,1.181549072265625,-3.174285888671875,Closing,0.0,0.0,3.0,0.0,0.0,0.0,0.0,0.0,
14.222275999999955,0.0,0.0,79555.0,0.0,127.5,0.0,0.0,0.25,2.073974397,1.2330627500000013,0.0,-80758.0,0.0,75.0,0.0,0.0,0.25,4.155273012,3.7228275000000015,0.0,-8016.0,0.0,135.0,0.0,0.0,0.0,4.5581050020000005,1.2351000000000012,0.0,7757.0,0.125,-105.0,0.0,0.0,0.25,2.83203096,1.2395000000000012,0.0,0.6100000143051147,-0.25999999046325684,-33.959999084472656,0.0035400390625,-0.08935546875,0.83135986328125,36.43000030517578,0.0,61.0,1.169586181640625,-3.17352294921875,Closing,0.0,0.0,3.0,0.0,0.0,0.0,0.0,0.0,
14.36976800000004,0.0,0.0,79584.0,0.0,112.5,0.0,0.0,0.25,2.0642087730000003,1.2330627500000013,0.0,-80738.0,0.0,105.0,0.0,0.0,0.25,4.230956598000001,3.7228275000000015,0.0,-7993.0,0.0,60.0,0.0,0.0,0.0,4.567870626,1.2351000000000012,0.0,7735.0,0.125,-120.0,0.0,0.0,0.25,2.830810257,1.2395000000000012,0.0,0.05000000074505806,-0.4300000071525574,-33.849998474121094,-0.00421142578125,-0.09625244140625,1.0477294921875,36.43000030517578,0.0,57.0,1.1610107421875,-3.18408203125,Closing,0.0,0.0,3.0,0.0,0.0,0.0,0.0,0.125,
14.50926800000004,0.0,0.0,79587.0,0.0,15.0,0.0,0.0,0.125,2.0642087730000003,1.2330627500000013,0.0,-80732.0,0.0,7.5,0.0,0.0,0.0,4.2407222220000005,3.7228275000000015,0.0,-7991.0,0.0,7.5,0.0,0.0,0.0,4.567870626,1.2351000000000012,0.0,7730.0,0.125,-7.5,0.0,0.0,0.25,2.83203096,1.2395000000000012,0.0,-0.25,-0.4699999988079071,-33.849998474121094,-0.006103515625,-0.00555419921875,0.98443603515625,36.43000030517578,0.0,2.0,1.157440185546875,-3.19964599609375,Closing,0.0,0.0,3.0,0.0,0.0,0.0,0.0,0.0,
14.625096000000019,0.0,0.0,79587.0,0.0,0.0,0.0,0.0,0.125,2.0654294760000003,1.2330627500000013,0.0,-80732.0,0.0,0.0,0.0,0.0,0.125,4.241942925,3.7228275000000015,0.0,-7991.0,0.0,0.0,0.0,0.0,0.0,4.567870626,1.2351000000000012,0.0,7730.0,0.125,0.0,0.0,0.0,0.25,2.83203096,1.2395000000000012,0.0,-0.15000000596046448,-0.5099999904632568,-33.86000061035156,-0.02679443359375,0.02630615234375,1.0076904296875,36.43000030517578,0.0,-30.0,1.1566619873046875,-3.199493408203125,Closing,0.0,0.0,3.0,0.0,0.0,0.0,0.0,0.0,
14.747187000000034,0.0,0.0,79587.0,0.0,0.0,0.0,0.0,0.125,2.0642087730000003,1.2330627500000013,0.0,-80732.0,0.0,0.0,0.0,0.0,0.125,4.241942925,3.7228275000000015,0.0,-7991.0,0.0,0.0,0.0,0.0,0.0,4.567870626,1.2351000000000012,0.0,7730.0,0.125,0.0,0.0,0.0,0.25,2.830810257,1.2395000000000012,0.0,-0.10000000149011612,-0.5299999713897705,-33.86000061035156,-0.0220947265625,-0.0064697265625,1.01580810546875,36.45000076293945,0.0,-7.0,1.1564788818359375,-3.199493408203125,Closing,0.0,0.0,3.0,0.0,0.0,0.0,0.0,0.125,
14.86701800000004,0.0,0.0,79587.0,0.0,0.0,0.0,0.0,0.125,2.0642087730000003,1.2330627500000013,0.0,-80732.0,0.0,0.0,0.0,0.0,0.125,4.241942925,3.7228275000000015,0.0,-7991.0,0.0,0.0,0.0,0.0,0.0,4.567870626,1.2351000000000012,0.0,7730.0,0.125,0.0,0.0,0.0,0.25,2.83203096,1.2395000000000012,0.0,-0.12999999523162842,-0.5600000023841858,-33.86000061035156,-0.0164794921875,-0.00115966796875,1.02703857421875,36.45000076293945,0.0,-5.0,1.1564788818359375,-3.199493408203125,Closing,0.0,0.0,3.0,0.0,0.0,0.0,0.0,0.0,
14.998238999999943,0.0,0.0,79587.0,0.125,0.0,138.89763727784157,0.0,2.5,2.6379391830000003,2.4661254999999977,0.0,-80732.0,0.25,0.0,138.89763727784157,0.0,2.125,0.020751951,4.963769999999998,0.0,-7991.0,0.125,0.0,-138.89763727784157,0.0,2.875,3.9868159980000004,0.01,0.0,7730.0,0.25,37.5,138.89763727784157,0.0,2.125,2.0056150290000003,0.01,0.0,-0.05000000074505806,-0.6299999952316284,-33.93000030517578,-0.0068359375,0.06378173828125,1.0467529296875,36.45000076293945,0.0,-32.0,1.1556549072265625,-3.1990509033203125,Closing,0.0,0.0,3.0,0.0,0.0,0.0,0.0,0.125,
15.146466999999946,0.0,0.0,79589.0,0.5,37.5,238.1102353334427,0.0,0.75,3.441161757,2.4661254999999977,0.0,-80732.0,0.625,67.5,238.1102353334427,0.0,0.75,0.6970214130000001,4.963769999999998,0.0,-7991.0,0.625,0.0,-238.1102353334427,0.0,0.625,3.178710612,0.01,0.0,7750.0,0.375,52.5,238.1102353334427,0.0,0.625,1.4514158670000001,0.01,0.0,-0.03999999910593033,-0.75,-34.18000030517578,-0.020263671875,-0.0048828125,1.01812744140625,36.45000076293945,0.0,-3.0,1.1539764404296875,-3.1979217529296875,Closing,0.0,0.0,3.0,0.0,0.0,0.0,0.0,0.0,
15.276543999999994,0.0,0.0,79594.0,1.375,67.5,347.24407911300653,0.0,0.375,3.463134411,2.4661254999999977,0.0,-80710.0,1.625,67.5,347.24407911300653,0.0,0.5,0.825195228,4.963769999999998,0.0,-7990.0,1.875,0.0,-347.24407911300653,0.0,0.0,3.193359048,0.01,0.0,7765.0,1.25,75.0,347.24407911300653,0.0,0.25,1.444091649,0.01,0.0,-0.09000000357627869,-0.8999999761581421,-34.130001068115234,-0.07159423828125,-0.01904296875,1.0638427734375,36.45000076293945,0.0,-35.0,1.1531219482421875,-3.20001220703125,Closing,0.0,0.0,3.0,0.0,0.0,0.0,0.0,0.0,
15.43286699999997,0.0,0.0,79614.0,18.625,307.5,1661.039755724744,0.0,0.75,3.543700809,2.949378325703558,0.0,-80732.0,6.75,-165.0,-1328.774486054618,0.0,6.0,0.435790971,4.326642484659871,0.0,-8056.0,21.875,-240.0,-1661.039755724744,0.0,0.375,3.077392263,4.456348750356407,0.0,7743.0,4.75,-180.0,-1328.774486054618,0.0,2.125,1.9152830070000002,0.6363869037155953,0.0,-0.20999999344348907,-1.340000033378601,-32.11000061035156,-0.075927734375,0.03009033203125,1.2261962890625,36.45000076293945,0.0,-58.0,1.147003173828125,-3.208526611328125,Closing,0.0,0.0,3.0,0.0,0.0,0.0,0.0,0.0,
15.574505000000004,0.0,0.0,79706.0,0.0,240.0,0.0,0.0,0.5,3.718261338,2.949378325703558,0.0,-80742.0,0.0,-60.0,0.0,0.0,0.5,4.627685073,4.326642484659871,0.0,-8117.0,0.0,-502.5,0.0,0.0,0.125,2.858886426,4.456348750356407,0.0,7732.0,0.125,-75.0,0.0,0.0,1.625,2.4255368610000003,0.6363869037155953,0.0,-0.33000001311302185,-0.49000000953674316,-28.40999984741211,0.06268310546875,0.18310546875,1.10296630859375,36.45000076293945,0.0,-26.0,1.1457672119140625,-3.2070770263671875,Closing,0.0,0.0,3.0,0.0,0.0,0.0,0.0,0.0,
15.694925999999978,0.0,0.0,79739.0,0.0,232.5,0.0,0.0,0.25,3.775634379,2.949378325703558,0.0,-80759.0,0.0,-120.0,0.0,0.0,0.75,4.554442893,4.326642484659871,0.0,-8120.0,0.0,-7.5,0.0,0.0,0.0,2.77099581,4.456348750356407,0.0,7709.0,0.125,-150.0,0.0,0.0,0.625,2.4792477930000003,0.6363869037155953,0.0,0.09000000357627869,-0.8600000143051147,-26.450000762939453,-0.02593994140625,-0.10760498046875,1.0887451171875,36.4900016784668,0.0,40.0,1.1448822021484375,-3.2010650634765625,Closing,0.0,0.0,3.0,0.0,0.0,0.0,0.0,0.0,
15.822849999999976,0.0,0.0,79740.0,0.0,0.0,0.0,0.0,0.125,3.7780757850000004,2.949378325703558,0.0,-80760.0,0.0,-15.0,0.0,0.0,0.5,4.771728027,4.326642484659871,0.0,-8129.0,0.0,-45.0,0.0,0.0,0.125,2.7905270580000003,4.456348750356407,0.0,7702.0,0.125,-7.5,0.0,0.0,0.5,2.2790525010000002,0.6363869037155953,0.0,-0.14000000059604645,-0.5299999713897705,-26.110000610351562,-0.025146484375,0.0400390625,1.05975341796875,36.4900016784668,0.0,-32.0,1.1464996337890625,-3.20526123046875,Closing,0.0,0.0,3.0,0.0,0.0,0.0,0.0,0.0,
15.954157999999937,0.0,0.0,79747.0,0.375,60.0,257.95276433229446,0.0,0.875,3.5168453430000004,2.4661254999999977,0.0,-80763.0,0.625,0.0,257.95276433229446,0.0,1.5,0.39062496,4.963769999999998,0.0,-8133.0,0.375,-52.5,-257.95276433229446,0.0,2.125,3.1652828790000003,0.01,0.0,7703.0,0.5,45.0,257.95276433229446,0.0,1.25,1.697997873,0.01,0.0,-0.10999999940395355,-0.5799999833106995,-26.700000762939453,-0.058837890625,-0.01910400390625,0.97601318359375,36.4900016784668,0.0,-35.0,1.1474761962890625,-3.2071685791015625,Closing,0.0,0.0,3.0,0.0,0.0,0.0,0.0,0.125,
16.108204000000026,0.0,0.0,79755.0,0.125,15.0,-169.6287041863985,0.0,8.625,3.64990197,3.642692244035687,0.0,-80763.0,2.25,60.0,424.3890600153769,0.0,0.25,0.532226508,4.6398174980456,0.0,-8140.0,0.125,7.5,169.6287041863985,0.0,8.625,3.013915707,3.7618893479196602,0.0,7714.0,1.375,112.5,424.3890600153769,0.0,0.375,1.645507644,0.3235759321422862,0.0,-0.09000000357627869,-0.8199999928474426,-27.079999923706055,-0.05145263671875,-0.0263671875,1.10418701171875,36.4900016784668,0.0,-20.0,1.1468353271484375,-3.2078704833984375,Closing,0.0,0.0,3.0,0.0,0.0,0.0,0.0,0.0,
