Time,ClimberA1,ClimberA2,FRpos,FRCurrent,FRspeed,FRsetpoint,FRApos,FRACurrent,FREncpos,FREncSetpoint,FREncSpeed,FLpos,FLCurrent,FLspeed,FLsetpoint,FLApos,FLACurrent,FLEncpos,FLEncSetpoint,FLEncSpeed,BRpos,BRCurrent,BRspeed,BRsetpoint,BRApos,BRACurrent,BREncpos,BREncSetpoint,BREncSpeed,BLpos,BLCurrent,BLspeed,BLsetpoint,BLApos,BLACurrent,BLEncpos,BLEncSetpoint,BLEncSpeed,navx_Pitch,navx_Roll,navx_Yaw,navx_XAcc,navx_YAcc,navx_ZAcc,navx_Temp,navx_Bar,navx_Alt,navx_XDis,navx_YDis,GearPlacerState,ShootOutputV,ShootOutputCurrent,ShootEncPos,ShootEncVelocity,ShootSpeed,ShootSetpoint,CarouselSetpoint,CarouselCurrent,
0.268387999999999,0.0,0.0,70392.0,0.0,0.0,0.0,0.0,0.125,0.8178710100000001,0.01,0.0,-70086.0,0.0,0.0,0.0,0.0,0.125,0.5029296360000001,0.01,0.0,27983.0,0.0,0.0,0.0,0.0,0.0,3.354491844,0.01,0.0,-69124.0,0.0,0.0,0.0,0.0,0.125,1.5869139,0.01,0.0,0.23000000417232513,-0.5099999904632568,-84.37000274658203,-0.01068115234375,0.00250244140625,1.02203369140625,36.900001525878906,0.0,1.0,2.1983642578125,-1.7155914306640625,Waiting,0.0,0.0,3.0,0.0,0.0,0.0,0.0,0.0,
0.37449599999999916,0.0,0.0,70392.0,0.0,0.0,0.0,0.0,0.125,0.8178710100000001,0.01,4.94012201,-70086.0,0.0,0.0,-0.0,0.0,0.125,0.5029296360000001,0.01,-0.003300363999999334,27983.0,0.0,0.0,0.0,0.0,0.0,3.354491844,0.01,4.943671141,-69124.0,0.0,0.0,-0.0,0.0,0.25,1.591796712,0.01,4.923693197,0.23000000417232513,-0.5099999904632568,-84.37000274658203,-0.0098876953125,0.00433349609375,1.01983642578125,36.900001525878906,0.0,0.0,2.1983642578125,-1.7155914306640625,Closing,0.0,0.0,3.0,0.0,0.0,0.0,0.0,0.0,
0.4278600000000006,0.0,0.0,70392.0,0.0,0.0,0.0,0.0,0.125,0.819091713,0.01,0.0,-70086.0,0.0,0.0,-0.0,0.0,0.125,0.5029296360000001,0.01,0.0,27983.0,0.0,0.0,0.0,0.0,0.0,3.354491844,0.01,0.0012207029999995456,-69124.0,0.0,0.0,-0.0,0.0,0.25,1.591796712,0.01,0.004882811999999959,0.23000000417232513,-0.5099999904632568,-84.37000274658203,-0.01043701171875,0.00128173828125,1.02362060546875,36.900001525878906,0.0,2.0,2.1983642578125,-1.7155914306640625,Closing,0.0,0.0,3.0,0.0,0.0,0.0,0.0,0.0,
0.4649890000000014,0.0,0.0,70392.0,0.0,0.0,0.0,0.0,0.125,0.8178710100000001,0.01,0.0,-70086.0,0.0,0.0,-0.0,0.0,0.125,0.5029296360000001,0.01,0.0,27983.0,0.0,0.0,0.0,0.0,0.0,3.354491844,0.01,0.0,-69124.0,0.125,0.0,-0.0,0.0,0.25,1.591796712,0.01,0.0012207029999995456,0.23000000417232513,-0.5,-84.37000274658203,-0.0068359375,-8.544921875E-4,1.0220947265625,36.900001525878906,0.0,5.0,2.1983642578125,-1.7155914306640625,Closing,0.0,0.0,3.0,0.0,0.0,0.0,0.0,0.0,
0.5051129999999976,0.0,0.0,70392.0,0.0,0.0,0.0,0.0,0.125,0.8178710100000001,0.01,0.0,-70086.0,0.0,0.0,-0.0,0.0,0.125,0.5029296360000001,0.01,0.0,27983.0,0.0,0.0,0.0,0.0,0.0,3.354491844,0.01,0.0,-69124.0,0.0,0.0,-0.0,0.0,0.25,1.591796712,0.01,-0.0012207029999995456,0.23000000417232513,-0.5,-84.37000274658203,-0.00970458984375,0.0048828125,1.015380859375,36.90999984741211,0.0,0.0,2.1983642578125,-1.7155914306640625,Closing,0.0,0.0,3.0,0.0,0.0,0.0,0.0,0.0,
0.5625089999999981,0.0,0.0,70392.0,0.0,0.0,0.0,0.0,0.125,0.8178710100000001,0.01,0.0,-70086.0,0.0,0.0,-0.0,0.0,0.125,0.5029296360000001,0.01,0.0,27983.0,0.0,0.0,0.0,0.0,0.0,3.353271141,0.01,0.0,-69124.0,0.0,0.0,-0.0,0.0,0.25,1.591796712,0.01,0.0012207029999995456,0.23000000417232513,-0.5099999904632568,-84.37000274658203,-0.01080322265625,0.00421142578125,1.020751953125,36.90999984741211,0.0,0.0,2.1983642578125,-1.7155914306640625,Closing,0.0,0.0,3.0,0.0,0.0,0.0,0.0,0.0,
0.6069459999999963,0.0,0.0,70392.0,0.0,0.0,0.0,0.0,0.125,0.8178710100000001,0.01,0.0,-70086.0,0.0,0.0,-0.0,0.0,0.125,0.5029296360000001,0.01,0.0,27983.0,0.0,0.0,0.0,0.0,0.0,3.354491844,0.01,-0.0012207029999995456,-69124.0,0.0,0.0,-0.0,0.0,0.25,1.591796712,0.01,0.0,0.23000000417232513,-0.5,-84.37000274658203,-0.00970458984375,0.00347900390625,1.017333984375,36.90999984741211,0.0,0.0,2.1983642578125,-1.7155914306640625,Closing,0.0,0.0,3.0,0.0,0.0,0.0,0.0,0.0,
0.6512469999999958,0.0,0.0,70392.0,0.0,0.0,0.0,0.0,0.125,0.819091713,0.01,0.0,-70086.0,0.0,0.0,-0.0,0.0,0.125,0.5029296360000001,0.01,0.0,27983.0,0.0,0.0,0.0,0.0,0.0,3.355712547,0.01,0.0,-69124.0,0.0,0.0,-0.0,0.0,0.25,1.591796712,0.01,-0.0012207029999995456,0.23000000417232513,-0.5,-84.37000274658203,-0.0120849609375,0.00396728515625,1.0184326171875,36.90999984741211,0.0,0.0,2.1983642578125,-1.7155914306640625,Closing,0.0,0.0,3.0,0.0,0.0,0.0,0.0,0.0,
0.6835479999999953,0.0,0.0,70392.0,0.0,0.0,0.0,0.0,0.125,0.819091713,0.01,0.0,-70086.0,0.0,0.0,-0.0,0.0,0.125,0.5029296360000001,0.01,0.0,27983.0,0.0,0.0,0.0,0.0,0.0,3.355712547,0.01,0.0,-69124.0,0.0,0.0,-0.0,0.0,0.25,1.591796712,0.01,-0.0012207029999995456,0.23000000417232513,-0.5,-84.37000274658203,-0.010498046875,0.00421142578125,1.02105712890625,36.90999984741211,0.0,0.0,2.1983642578125,-1.7155914306640625,Closing,0.0,0.0,3.0,0.0,0.0,0.0,0.0,0.0,
0.7047359999999971,0.0,0.0,70392.0,0.0,0.0,0.0,0.0,0.125,0.8178710100000001,0.01,0.0,-70086.0,0.0,0.0,-0.0,0.0,0.125,0.5029296360000001,0.01,0.0,27983.0,0.0,0.0,0.0,0.0,0.0,3.355712547,0.01,0.0,-69124.0,0.0,0.0,-0.0,0.0,0.25,1.591796712,0.01,0.0012207029999995456,0.23000000417232513,-0.5,-84.37000274658203,-0.00994873046875,0.0052490234375,1.02496337890625,36.90999984741211,0.0,-1.0,2.1983642578125,-1.7155914306640625,Closing,0.0,0.0,3.0,0.0,0.0,0.0,0.0,0.0,
0.7511449999999968,0.0,0.0,70392.0,0.0,0.0,0.0,0.0,0.125,0.8178710100000001,0.01,0.0,-70086.0,0.0,0.0,-0.0,0.0,0.125,0.5029296360000001,0.01,0.0,27983.0,0.0,0.0,0.0,0.0,0.0,3.354491844,0.01,0.0012207029999995456,-69124.0,0.0,0.0,-0.0,0.0,0.25,1.591796712,0.01,-0.0012207029999995456,0.23000000417232513,-0.5,-84.37000274658203,-0.01031494140625,0.00543212890625,1.017578125,36.90999984741211,0.0,-1.0,2.1983642578125,-1.7155914306640625,Closing,0.0,0.0,3.0,0.0,0.0,0.0,0.0,0.0,
0.782426999999996,0.0,0.0,70392.0,0.0,0.0,0.0,0.0,0.125,0.8178710100000001,0.01,0.0,-70086.0,0.0,0.0,-0.0,0.0,0.125,0.5029296360000001,0.01,0.0,27983.0,0.0,0.0,0.0,0.0,0.0,3.354491844,0.01,0.0012207029999995456,-69124.0,0.125,0.0,-0.0,0.0,0.25,1.591796712,0.01,-0.0012207029999995456,0.23000000417232513,-0.5,-84.37000274658203,-0.0087890625,0.00189208984375,1.02032470703125,36.90999984741211,0.0,2.0,2.1983642578125,-1.7155914306640625,Closing,0.0,0.0,3.0,0.0,0.0,0.0,0.0,0.0,
0.8169379999999946,0.0,0.0,70392.0,0.0,0.0,0.0,0.0,0.125,0.8178710100000001,0.01,0.0,-70086.0,0.0,0.0,-0.0,0.0,0.125,0.5029296360000001,0.01,0.0,27983.0,0.0,0.0,0.0,0.0,0.0,3.355712547,0.01,0.0,-69124.0,0.0,0.0,-0.0,0.0,0.25,1.591796712,0.01,0.0,0.23000000417232513,-0.5,-84.37000274658203,-0.01141357421875,0.00537109375,1.01708984375,36.90999984741211,0.0,-1.0,2.1983642578125,-1.7155914306640625,Closing,0.0,0.0,3.0,0.0,0.0,0.0,0.0,0.0,
0.8422279999999955,0.0,0.0,70392.0,0.0,0.0,0.0,0.0,0.125,0.8178710100000001,0.01,0.0,-70086.0,0.0,0.0,-0.0,0.0,0.125,0.5029296360000001,0.01,0.0,27983.0,0.0,0.0,0.0,0.0,0.0,3.355712547,0.01,0.0,-69124.0,0.0,0.0,-0.0,0.0,0.25,1.591796712,0.01,0.0,0.23000000417232513,-0.5,-84.37000274658203,-0.00927734375,0.002685546875,1.0185546875,36.90999984741211,0.0,1.0,2.1983642578125,-1.7155914306640625,Closing,0.0,0.0,3.0,0.0,0.0,0.0,0.0,0.0,
0.8878349999999992,0.0,0.0,70392.0,0.0,0.0,0.0,0.0,0.125,0.8178710100000001,0.01,0.0,-70086.0,0.0,0.0,-0.0,0.0,0.125,0.5029296360000001,0.01,0.0,27983.0,0.0,0.0,0.0,0.0,0.0,3.355712547,0.01,0.0,-69124.0,0.0,0.0,-0.0,0.0,0.25,1.591796712,0.01,0.0,0.23000000417232513,-0.5,-84.36000061035156,-0.00830078125,0.001220703125,1.02008056640625,36.90999984741211,0.0,3.0,2.1983642578125,-1.7155914306640625,Closing,0.0,0.0,3.0,0.0,0.0,0.0,0.0,0.0,
0.9156749999999957,0.0,0.0,70392.0,0.0,0.0,0.0,0.0,0.125,0.8178710100000001,0.01,0.0,-70086.0,0.0,0.0,-0.0,0.0,0.125,0.5029296360000001,0.01,0.0,27983.0,0.0,0.0,0.0,0.0,0.0,3.355712547,0.01,-0.0024414059999999793,-69124.0,0.0,0.0,-0.0,0.0,0.25,1.591796712,0.01,0.0,0.23000000417232513,-0.5,-84.37000274658203,-0.00823974609375,0.00244140625,1.015625,36.90999984741211,0.0,0.0,2.1983642578125,-1.7155914306640625,Closing,0.0,0.0,3.0,0.0,0.0,0.0,0.0,0.0,
0.9582809999999954,0.0,0.0,70392.0,0.0,0.0,0.0,0.0,0.125,0.8178710100000001,0.01,0.0,-70086.0,0.0,0.0,-0.0,0.0,0.125,0.5029296360000001,0.01,-0.0012207030000004337,27983.0,0.0,0.0,0.0,0.0,0.0,3.350829735,0.01,0.0024414059999999793,-69124.0,0.125,0.0,-0.0,0.0,0.25,1.591796712,0.01,0.0,0.23000000417232513,-0.5,-84.36000061035156,-0.0089111328125,0.0018310546875,1.017822265625,36.90999984741211,0.0,1.0,2.1983642578125,-1.7155914306640625,Closing,0.0,0.0,3.0,0.0,0.0,0.0,0.0,0.0,
0.981867999999995,0.0,0.0,70392.0,0.0,0.0,0.0,0.0,0.125,0.8178710100000001,0.01,0.0,-70086.0,0.0,0.0,-0.0,0.0,0.125,0.5029296360000001,0.01,-0.0012207030000004337,27983.0,0.0,0.0,0.0,0.0,0.0,3.349609032,0.01,0.0024414059999999793,-69124.0,0.125,0.0,-0.0,0.0,0.25,1.591796712,0.01,0.0,0.23000000417232513,-0.5,-84.37000274658203,-0.009521484375,0.00335693359375,1.0211181640625,36.90999984741211,0.0,0.0,2.1983642578125,-1.7155914306640625,Closing,0.0,0.0,3.0,0.0,0.0,0.0,0.0,0.0,
1.0063999999999942,0.0,0.0,70392.0,0.0,0.0,0.0,0.0,0.125,0.820312416,0.01,0.0,-70086.0,0.0,0.0,-0.0,0.0,0.125,0.5029296360000001,0.01,0.0012207030000004337,27983.0,0.0,0.0,0.0,0.0,0.0,3.354491844,0.01,-0.0012207029999995456,-69124.0,0.0,0.0,-0.0,0.0,0.25,1.591796712,0.01,0.0,0.23000000417232513,-0.5,-84.37000274658203,-0.01123046875,0.00494384765625,1.018310546875,36.90999984741211,0.0,0.0,2.1983642578125,-1.7155914306640625,Closing,0.0,0.0,3.0,0.0,0.0,0.0,0.0,0.0,
1.0444479999999967,0.0,0.0,70392.0,0.0,0.0,0.0,0.0,0.125,0.819091713,0.01,0.0,-70086.0,0.0,0.0,-0.0,0.0,0.125,0.5029296360000001,0.01,0.0012207030000004337,27983.0,0.0,0.0,0.0,0.0,0.0,3.355712547,0.01,-0.0012207029999995456,-69124.0,0.0,0.0,-0.0,0.0,0.25,1.591796712,0.01,0.0,0.23000000417232513,-0.5,-84.37000274658203,-0.01092529296875,0.0037841796875,1.01690673828125,36.93000030517578,0.0,0.0,2.1983642578125,-1.7155914306640625,Closing,0.0,0.0,3.0,0.0,0.0,0.0,0.0,0.0,
1.0890749999999971,0.0,0.0,70392.0,0.375,0.0,-1230.236234664917,0.0,0.125,0.821533119,0.07727192397108983,0.0,-70086.0,0.0,0.0,1230.236234664917,0.0,0.125,0.5029296360000001,0.0777657215843185,0.0,27983.0,1.0,0.0,-1230.236234664917,0.0,0.0,3.354491844,0.0773995916239405,-0.0012207029999995456,-69124.0,0.5,7.5,1230.236234664917,0.0,0.375,1.591796712,0.07767532492743441,0.0,0.23999999463558197,-0.5799999833106995,-84.3499984741211,-0.52349853515625,0.280029296875,0.89813232421875,36.93000030517578,0.0,-325.0,2.19818115234375,-1.7158660888671875,Closing,0.0,0.0,3.0,0.0,0.0,0.0,0.0,0.0,
1.1520420000000013,0.0,0.0,70392.0,4.0,-37.5,-1885.0393724441528,0.0,0.25,0.8410643670000001,0.0774089602111589,-4.913940455,-70070.0,6.375,52.5,1885.0393724441528,0.0,0.25,0.49926752700000004,0.07790363353919827,0.0,27983.0,9.625,0.0,-1885.0393724441528,0.0,0.0,3.399657855,0.07753685427347663,0.0,-69112.0,6.25,67.5,1885.0393724441528,0.0,0.375,1.6064451480000002,0.07781307657029737,0.0,0.28999999165534973,-1.0099999904632568,-84.33999633789062,-0.27142333984375,-0.07073974609375,0.80670166015625,36.93000030517578,0.0,49.0,2.19744873046875,-1.7173004150390625,Closing,0.0,0.0,3.0,0.0,0.0,0.0,0.0,0.0,
1.1799959999999992,0.0,0.0,70364.0,11.25,-112.5,-2083.4646248817444,0.0,0.25,0.8532713970000001,0.07754599645122796,0.010986327000000018,-70070.0,11.375,105.0,2083.4646248817444,0.0,0.25,0.49438471500000003,0.07804154549407802,-0.004882811999999959,27983.0,15.125,-7.5,-2083.4646248817444,0.0,0.0,3.406982073,0.07767411692301276,0.009765623999999917,-69112.0,10.0,105.0,2083.4646248817444,0.0,0.375,1.612548663,0.07795082821316032,0.009765623999999917,0.25999999046325684,-1.159999966621399,-84.30999755859375,-0.3699951171875,0.0845947265625,0.9024658203125,36.93000030517578,0.0,-114.0,2.1970672607421875,-1.718536376953125,Closing,0.0,0.0,3.0,0.0,0.0,0.0,0.0,0.0,
1.2032869999999967,0.0,0.0,70364.0,17.0,-165.0,-2123.1496453285217,0.0,0.25,0.871581942,0.07836800483559347,0.008544921000000039,-70070.0,25.0,202.5,2123.1496453285217,0.0,0.25,0.498046824,0.0788688068313583,0.0,27979.0,19.625,-15.0,-2123.1496453285217,0.0,0.0,3.4130855880000004,0.07849748341878099,0.0,-69112.0,20.375,202.5,2123.1496453285217,0.0,0.25,1.625976396,0.07877712792290426,0.0,0.23999999463558197,-2.009999990463257,-84.27999877929688,-0.489501953125,-0.123779296875,0.88311767578125,36.93000030517578,0.0,81.0,2.195465087890625,-1.725372314453125,Closing,0.0,0.0,3.0,0.0,0.0,0.0,0.0,0.0,
1.2484219999999986,0.0,0.0,70364.0,23.75,-285.0,-2123.1496453285217,0.0,0.25,0.8703612390000001,0.07836800483559347,0.014648435999999987,-70070.0,34.125,322.5,2123.1496453285217,0.0,0.25,0.498046824,0.0788688068313583,0.0,27979.0,27.75,-112.5,-2123.1496453285217,0.0,0.0,3.40576137,0.07849748341878099,0.003662109000000413,-69038.0,23.375,360.0,2123.1496453285217,0.0,0.25,1.6357420200000001,0.07877712792290426,0.0,0.20000000298023224,-2.4800000190734863,-84.30999755859375,-0.46728515625,-0.013916015625,1.0518798828125,36.93000030517578,0.0,-24.0,2.19427490234375,-1.7326202392578125,Closing,0.0,0.0,3.0,0.0,0.0,0.0,0.0,0.0,
1.2888580000000003,0.0,0.0,70364.0,25.625,-465.0,-2123.1496453285217,0.0,0.125,0.871581942,0.07781996440334164,0.0,-69984.0,35.75,420.0,2123.1496453285217,0.0,0.25,0.498046824,0.0783172642078384,0.0,27979.0,29.25,-337.5,-2123.1496453285217,0.0,0.0,3.4118648850000004,0.07794853752136074,0.0,-69038.0,25.375,472.5,2123.1496453285217,0.0,0.25,1.638183426,0.07822622642516933,-4.948234376,0.23000000417232513,-3.009999990463257,-84.3499984741211,-0.40252685546875,0.103515625,1.025390625,36.93000030517578,0.0,-133.0,2.1928558349609375,-1.7418975830078125,Closing,0.0,0.0,3.0,0.0,0.0,0.0,0.0,0.0,
1.3245539999999965,0.0,0.0,70256.0,25.75,-697.5,-2123.1496453285217,0.0,0.125,0.871581942,0.07713488773102076,0.0,-69984.0,35.75,682.5,2123.1496453285217,0.0,0.25,0.498046824,0.07762780962943874,0.0,27857.0,28.875,-697.5,-2123.1496453285217,0.0,0.0,3.4130855880000004,0.07726232897440437,0.0,-69038.0,26.0,720.0,2123.1496453285217,0.0,0.25,1.644286941,0.07753757328457146,0.0,0.27000001072883606,-4.090000152587891,-84.44000244140625,-0.34515380859375,0.09735107421875,1.2410888671875,36.93000030517578,0.0,-115.0,2.189300537109375,-1.7668609619140625,Closing,0.0,0.0,3.0,0.0,0.0,0.0,0.0,0.0,
1.3551270000000004,0.0,0.0,70256.0,25.375,-825.0,-2123.1496453285217,0.0,0.125,0.89111319,0.07617584310658618,0.0,-69984.0,33.125,952.5,2123.1496453285217,0.0,0.25,0.5029296360000001,0.07666263633727871,0.0,27857.0,27.5,-877.5,-2123.1496453285217,0.0,0.0,3.4118648850000004,0.07630169982910001,0.0,-69038.0,25.125,952.5,2123.1496453285217,0.0,0.25,1.644286941,0.07657352193196458,0.0,0.2800000011920929,-4.429999828338623,-84.48999786376953,-0.38848876953125,-0.04107666015625,1.1873779296875,36.93000030517578,0.0,18.0,2.1871337890625,-1.7816162109375,Closing,0.0,0.0,3.0,0.0,0.0,0.0,0.0,0.0,
1.3838319999999948,0.0,0.0,70256.0,24.875,-937.5,-2123.1496453285217,0.0,0.125,0.871581942,0.07549087096228974,-0.0012207029999999897,-69984.0,31.875,1072.5,2123.1496453285217,0.0,0.25,0.5029296360000001,0.07597328695487819,0.004882811999999959,27857.0,25.625,-1050.0,-2123.1496453285217,0.0,0.0,3.4130855880000004,0.0756155959828679,0.0012207029999999897,-68859.0,24.75,1057.5,2123.1496453285217,0.0,0.25,1.643066238,0.07588497386508361,0.0,0.30000001192092896,-4.760000228881836,-84.54000091552734,-0.252197265625,0.09246826171875,0.882568359375,36.93000030517578,0.0,-104.0,2.1849822998046875,-1.798004150390625,Closing,0.0,0.0,3.0,0.0,0.0,0.0,0.0,0.0,
1.410822,0.0,0.0,70256.0,23.625,-1170.0,-2123.1496453285217,0.0,0.125,0.871581942,0.07480579428996885,0.0,-69781.0,28.125,1312.5,2123.1496453285217,0.0,0.25,0.5029296360000001,0.07528383237647854,0.0,27857.0,22.25,-1327.5,-2123.1496453285217,0.0,0.0,3.410644182,0.07492938743591153,0.0,-68859.0,23.75,1155.0,2123.1496453285217,0.0,0.25,1.644286941,0.07519632072448573,0.0,0.30000001192092896,-4.940000057220459,-84.56999969482422,-0.3563232421875,-0.03985595703125,1.084228515625,36.93000030517578,0.0,20.0,2.183807373046875,-1.806671142578125,Closing,0.0,0.0,3.0,0.0,0.0,0.0,0.0,0.0,
1.4431779999999998,0.0,0.0,70039.0,22.625,-1282.5,-2123.1496453285217,0.0,0.125,0.8679198330000001,0.07398378590560334,0.0,-69781.0,26.375,1417.5,2123.1496453285217,0.0,0.25,0.507812448,0.07445657103919827,0.004882811999999959,27618.0,20.75,-1410.0,-2123.1496453285217,0.0,0.0,3.4130855880000004,0.0741060209401433,0.0,-68859.0,23.0,1260.0,2123.1496453285217,0.0,0.25,1.645507644,0.07437002101474181,0.0,0.1899999976158142,-5.269999980926514,-84.62999725341797,-0.2025146484375,0.1473388671875,1.243408203125,36.93000030517578,0.0,-150.0,2.1817626953125,-1.8250732421875,Closing,0.0,0.0,3.0,0.0,0.0,0.0,0.0,0.0,
1.4859660000000003,0.0,0.0,70039.0,20.875,-1485.0,-2123.1496453285217,0.0,0.125,0.8691405360000001,0.07288770504109969,0.0,-69781.0,23.25,1612.5,2123.1496453285217,0.0,0.25,0.507812448,0.07335348579215847,0.0012207030000004337,27618.0,19.0,-1560.0,-2123.1496453285217,0.0,0.0,3.4130855880000004,0.0730081291453028,0.0012207029999999897,-68859.0,19.25,1575.0,2123.1496453285217,0.0,0.25,1.645507644,0.07326821801927198,0.0,0.28999999165534973,-5.650000095367432,-84.76000213623047,-0.36541748046875,0.08892822265625,0.87554931640625,36.93000030517578,0.0,-109.0,2.1788330078125,-1.8543548583984375,Closing,0.0,0.0,3.0,0.0,0.0,0.0,0.0,0.0,
1.505377999999997,0.0,0.0,70039.0,19.875,-1575.0,-1448.5039973258972,0.0,0.125,0.8703612390000001,0.07179162417659604,-0.0012207029999999897,-69492.0,22.0,1695.0,1448.5039973258972,0.0,0.25,0.507812448,0.07225040054511868,0.0,27618.0,18.375,-1627.5,-1448.5039973258972,0.0,0.0,3.4118648850000004,0.07191023735046231,0.0,-68589.0,17.0,1665.0,1448.5039973258972,0.0,0.25,1.649169753,0.07216641502380214,0.0,0.25,-5.849999904632568,-84.81999969482422,-0.21502685546875,0.378662109375,1.212890625,36.93000030517578,0.0,-379.0,2.17657470703125,-1.875274658203125,Closing,0.0,0.0,3.0,0.0,0.0,0.0,0.0,0.0,
1.5513199999999998,0.0,0.0,69752.0,14.75,-1725.0,-158.7401568889618,0.0,0.125,0.8703612390000001,0.07028453911990964,0.0012207029999999897,-69492.0,14.0,1837.5,158.7401568889618,0.0,0.25,0.522460884,0.07073368462943874,0.0,27321.0,7.875,-1830.0,-158.7401568889618,0.0,0.0,3.4118648850000004,0.0704006623077377,0.0,-68589.0,10.0,1800.0,158.7401568889618,0.0,0.25,1.650390456,0.07065146217346034,0.0,0.4300000071525574,-5.829999923706055,-84.91999816894531,-0.1383056640625,0.20806884765625,0.8792724609375,36.849998474121094,0.0,-204.0,2.1729888916015625,-1.896484375,Closing,0.0,0.0,3.0,0.0,0.0,0.0,0.0,0.0,
1.5780639999999986,0.0,0.0,69752.0,5.375,-1822.5,0.0,0.0,0.125,0.871581942,0.07028453911990964,0.0,-69492.0,8.0,1882.5,0.0,0.0,0.25,0.5432128350000001,0.07073368462943874,0.0,27321.0,3.625,-1860.0,0.0,0.0,0.0,3.385009419,0.0704006623077377,0.0,-68589.0,2.125,1830.0,0.0,0.0,0.25,1.64794905,0.07065146217346034,0.0,0.4000000059604645,-5.769999980926514,-84.94000244140625,-0.084716796875,0.07659912109375,1.24749755859375,36.849998474121094,0.0,-63.0,2.167999267578125,-1.9282379150390625,Closing,0.0,0.0,3.0,0.0,0.0,0.0,0.0,0.0,
1.622665000000001,0.0,0.0,69752.0,0.5,-1785.0,0.0,0.0,0.125,0.8569335060000001,0.07028453911990964,0.0,-69492.0,0.875,1845.0,0.0,0.0,0.25,0.5566405680000001,0.07073368462943874,0.008544921000000372,27321.0,0.25,-1792.5,0.0,0.0,0.0,3.3752437950000003,0.0704006623077377,0.0,-68326.0,0.625,1762.5,0.0,0.0,0.25,1.668701001,0.07065146217346034,0.0,0.49000000953674316,-5.659999847412109,-84.94000244140625,-0.03656005859375,-0.14471435546875,0.95013427734375,36.849998474121094,0.0,157.0,2.1665802001953125,-1.9386444091796875,Closing,0.0,0.0,3.0,0.0,0.0,0.0,0.0,0.0,
1.6410780000000014,0.0,0.0,69752.0,0.0,-1710.0,0.0,0.0,0.125,0.852050694,0.07028453911990964,0.0,-69225.0,0.0,1740.0,0.0,0.0,0.25,0.560302677,0.07073368462943874,0.008544921000000372,27321.0,0.0,-1695.0,0.0,0.0,0.0,3.3752437950000003,0.0704006623077377,0.0,-68326.0,0.125,1672.5,0.0,0.0,0.25,1.6589353770000002,0.07065146217346034,0.0,0.49000000953674316,-5.070000171661377,-84.76000213623047,0.2750244140625,-0.15948486328125,1.21514892578125,36.849998474121094,0.0,204.0,2.1643524169921875,-1.958709716796875,Closing,0.0,0.0,3.0,0.0,0.0,0.0,0.0,0.0,
1.6805389999999971,0.0,0.0,69491.0,0.0,-1590.0,0.0,0.0,0.125,0.852050694,0.07028453911990964,-0.019531248000000057,-69225.0,0.0,1597.5,0.0,0.0,0.125,0.5676268950000001,0.07073368462943874,0.03417968399999971,27071.0,0.0,-1537.5,0.0,0.0,0.0,3.3740230920000003,0.0704006623077377,-0.037841793000000123,-68326.0,0.125,1590.0,0.0,0.0,0.25,1.6589353770000002,0.07065146217346034,0.00976562400000014,0.4000000059604645,-4.889999866485596,-84.6500015258789,-0.0546875,0.17584228515625,1.07110595703125,36.849998474121094,0.0,-163.0,2.162567138671875,-1.9771575927734375,Closing,0.0,0.0,3.0,0.0,0.0,0.0,0.0,0.0,
1.6992149999999966,0.0,0.0,69491.0,0.0,-1590.0,0.0,0.0,0.25,0.852050694,0.07028453911990964,-0.019531248000000057,-69225.0,0.0,1590.0,0.0,0.0,0.125,0.5688475980000001,0.07073368462943874,0.03417968399999971,27071.0,0.0,-1537.5,0.0,0.0,0.0,3.3789059040000002,0.0704006623077377,-0.037841793000000123,-68326.0,0.125,1597.5,0.0,0.0,0.25,1.6589353770000002,0.07065146217346034,0.00976562400000014,0.41999998688697815,-4.809999942779541,-84.61000061035156,0.11614990234375,-0.04736328125,0.844970703125,36.849998474121094,0.0,71.0,2.1609649658203125,-1.9947052001953125,Closing,0.0,0.0,3.0,0.0,0.0,0.0,0.0,0.0,
1.724351999999999,0.0,0.0,69491.0,0.0,-1605.0,0.0,0.0,0.25,0.8569335060000001,0.07028453911990964,0.0,-69225.0,0.0,1665.0,0.0,0.0,0.125,0.5664061920000001,0.07073368462943874,0.004882811999999959,27071.0,0.0,-1575.0,0.0,0.0,0.0,3.3789059040000002,0.0704006623077377,0.003662108999999969,-68058.0,0.0,1635.0,0.0,0.0,0.25,1.6540525650000002,0.07065146217346034,0.0,0.5,-4.5,-84.47000122070312,0.10797119140625,-0.31427001953125,0.957763671875,36.849998474121094,0.0,338.0,2.159576416015625,-2.0113372802734375,Closing,0.0,0.0,3.0,0.0,0.0,0.0,0.0,0.0,
1.7628430000000008,0.0,0.0,69491.0,0.0,-1725.0,0.0,0.0,0.25,0.8569335060000001,0.07028453911990964,0.00488281200000007,-68957.0,0.0,1680.0,0.0,0.0,0.125,0.571289004,0.07073368462943874,0.004882811999999959,27071.0,0.0,-1642.5,0.0,0.0,0.0,3.383788716,0.0704006623077377,0.0012207029999999897,-68058.0,0.0,1612.5,0.0,0.0,0.25,1.6552732680000002,0.07065146217346034,-0.004882811999999959,0.4099999964237213,-4.349999904632568,-84.27999877929688,0.027587890625,0.2442626953125,0.90228271484375,36.849998474121094,0.0,-227.0,2.158782958984375,-2.02679443359375,Closing,0.0,0.0,3.0,0.0,0.0,0.0,0.0,0.0,
1.7845369999999967,0.0,0.0,69219.0,0.0,-1725.0,0.0,0.0,0.125,0.8557128030000001,0.07028453911990964,0.00488281200000007,-68957.0,0.0,1657.5,0.0,0.0,0.0,0.570068301,0.07073368462943874,0.004882811999999959,27071.0,0.0,-1642.5,0.0,0.0,0.0,3.388671528,0.0704006623077377,0.0012207029999999897,-68058.0,0.0,1560.0,0.0,0.0,0.25,1.6564939710000002,0.07065146217346034,-0.004882811999999959,0.4399999976158142,-4.010000228881836,-84.08999633789062,0.22100830078125,-0.070068359375,0.9373779296875,36.849998474121094,0.0,106.0,2.1576385498046875,-2.0413055419921875,Closing,0.0,0.0,3.0,0.0,0.0,0.0,0.0,0.0,
1.833899999999994,0.0,0.0,69219.0,0.0,-1642.5,0.0,0.0,0.125,0.8666991300000001,0.07028453911990964,0.0,-68957.0,0.0,1552.5,0.0,0.0,0.0,0.571289004,0.07073368462943874,0.0,26816.0,0.0,-1545.0,0.0,0.0,0.0,3.389892231,0.0704006623077377,0.004882811999999959,-68058.0,0.0,1507.5,0.0,0.0,0.25,1.6601560800000001,0.07065146217346034,0.0,0.38999998569488525,-3.819999933242798,-83.80999755859375,0.14996337890625,0.1207275390625,0.8768310546875,36.849998474121094,0.0,-91.0,2.156494140625,-2.06097412109375,Closing,0.0,0.0,3.0,0.0,0.0,0.0,0.0,0.0,
1.8802279999999956,0.0,0.0,69219.0,0.0,-1612.5,0.0,0.0,0.125,0.860595615,0.07028453911990964,0.009765623999999917,-68722.0,0.0,1485.0,0.0,0.0,0.0,0.576171816,0.07073368462943874,0.0,26816.0,0.0,-1507.5,0.0,0.0,0.0,3.39355434,0.0704006623077377,0.009765623999999917,-67828.0,0.0,1425.0,0.0,0.0,0.25,1.6540525650000002,0.07065146217346034,0.003662108999999969,0.41999998688697815,-3.3399999141693115,-83.45999908447266,0.0810546875,0.0472412109375,1.08123779296875,36.849998474121094,0.0,-22.0,2.1549835205078125,-2.08453369140625,Closing,0.0,0.0,3.0,0.0,0.0,0.0,0.0,0.0,
1.9228589999999968,0.0,0.0,68973.0,0.0,-1545.0,0.0,0.0,0.125,0.8557128030000001,0.07028453911990964,-0.007324217999999938,-68722.0,0.0,1417.5,0.0,0.0,0.0,0.574951113,0.07073368462943874,0.004882811999999959,26579.0,0.0,-1492.5,0.0,0.0,0.0,3.39355434,0.0704006623077377,0.0,-67828.0,0.0,1395.0,0.0,0.0,0.25,1.6552732680000002,0.07065146217346034,-0.003662108999999969,0.41999998688697815,-3.2799999713897705,-83.38999938964844,0.19140625,-0.02069091796875,0.7093505859375,36.849998474121094,0.0,52.0,2.154632568359375,-2.08978271484375,Closing,0.0,0.0,3.0,0.0,0.0,0.0,0.0,0.0,
1.9417390000000014,0.0,0.0,68973.0,0.0,-1507.5,0.0,0.0,0.125,0.860595615,0.07028453911990964,-0.007324217999999938,-68722.0,0.0,1395.0,0.0,0.0,0.0,0.574951113,0.07073368462943874,0.004882811999999959,26579.0,0.0,-1470.0,0.0,0.0,0.0,3.39355434,0.0704006623077377,0.0,-67828.0,0.0,1372.5,0.0,0.0,0.25,1.6552732680000002,0.07065146217346034,-0.003662108999999969,0.4300000071525574,-2.9800000190734863,-83.22000122070312,0.15069580078125,-0.05902099609375,1.0860595703125,36.849998474121094,0.0,91.0,2.1541290283203125,-2.0994110107421875,Closing,0.0,0.0,3.0,0.0,0.0,0.0,0.0,0.0,
1.9609749999999986,0.0,0.0,68973.0,0.0,-1485.0,0.0,0.0,0.125,0.861816318,0.07028453911990964,0.0024414059999999793,-68722.0,0.0,1365.0,0.0,0.0,0.0,0.576171816,0.07073368462943874,0.0,26579.0,0.0,-1455.0,0.0,0.0,0.0,3.398437152,0.0704006623077377,0.0,-67828.0,0.125,1357.5,0.0,0.0,0.25,1.6540525650000002,0.07065146217346034,0.0,0.4300000071525574,-2.930000066757202,-83.1500015258789,0.0286865234375,-0.0396728515625,0.82891845703125,36.849998474121094,0.0,54.0,2.154022216796875,-2.103912353515625,Closing,0.0,0.0,3.0,0.0,0.0,0.0,0.0,0.0,
1.9821569999999993,0.0,0.0,68973.0,0.0,-1462.5,0.0,0.0,0.125,0.861816318,0.07028453911990964,0.0024414059999999793,-68722.0,0.0,1342.5,0.0,0.0,0.0,0.565185489,0.07073368462943874,0.0,26579.0,0.0,-1425.0,0.0,0.0,0.0,3.394775043,0.0704006623077377,0.0,-67618.0,0.0,1335.0,0.0,0.0,0.25,1.6552732680000002,0.07065146217346034,0.0,0.44999998807907104,-2.9100000858306885,-83.08000183105469,0.0799560546875,0.07763671875,1.03662109375,36.849998474121094,0.0,-52.0,2.1539154052734375,-2.1082611083984375,Closing,0.0,0.0,3.0,0.0,0.0,0.0,0.0,0.0,
2.0000679999999993,0.0,0.0,68973.0,0.0,-1440.0,0.0,0.0,0.125,0.861816318,0.07028453911990964,0.0024414059999999793,-68511.0,0.0,1342.5,0.0,0.0,0.0,0.571289004,0.07073368462943874,0.0,26579.0,0.0,-1395.0,0.0,0.0,0.0,3.389892231,0.0704006623077377,0.0,-67618.0,0.0,1320.0,0.0,0.0,0.25,1.6540525650000002,0.07065146217346034,0.0,0.4399999976158142,-2.809999942779541,-83.0,0.048583984375,0.029052734375,0.97412109375,36.849998474121094,0.0,-9.0,2.1537628173828125,-2.112457275390625,Closing,0.0,0.0,3.0,0.0,0.0,0.0,0.0,0.0,
2.029144,0.0,0.0,68754.0,0.0,-1410.0,0.0,0.0,0.125,0.861816318,0.07028453911990964,0.0,-68511.0,0.0,1290.0,0.0,0.0,0.125,0.565185489,0.07073368462943874,-0.009765623999999917,26375.0,0.0,-1342.5,0.0,0.0,0.0,3.394775043,0.0704006623077377,0.0,-67618.0,0.0,1267.5,0.0,0.0,0.25,1.665038892,0.07065146217346034,0.0,0.5,-2.440000057220459,-82.80999755859375,0.12298583984375,-0.03509521484375,1.04296875,36.849998474121094,0.0,64.0,2.1535797119140625,-2.123748779296875,Closing,0.0,0.0,3.0,0.0,0.0,0.0,0.0,0.0,
2.0478569999999965,0.0,0.0,68754.0,0.0,-1372.5,0.0,0.0,0.125,0.860595615,0.07028453911990964,0.0,-68511.0,0.0,1260.0,0.0,0.0,0.125,0.571289004,0.07073368462943874,0.0024414059999999793,26375.0,0.0,-1252.5,0.0,0.0,0.0,3.39355434,0.0704006623077377,0.0,-67618.0,0.0,1237.5,0.0,0.0,0.25,1.6589353770000002,0.07065146217346034,0.009765623999999917,0.5400000214576721,-2.3499999046325684,-82.73999786376953,0.14666748046875,0.0140380859375,1.02813720703125,36.79999923706055,0.0,19.0,2.1535797119140625,-2.1302642822265625,Closing,0.0,0.0,3.0,0.0,0.0,0.0,0.0,0.0,
2.0900760000000007,0.0,0.0,68754.0,0.0,-1290.0,-281.1023533344269,0.0,0.125,0.8557128030000001,0.5498168668524864,-0.004882811999999959,-68511.0,0.0,1200.0,-281.1023533344269,0.0,0.125,0.5554198650000001,4.41043958977222,-0.0012207030000004337,26375.0,0.0,-1230.0,-281.1023533344269,0.0,0.0,3.394775043,4.389674732977291,0.0,-67430.0,0.125,1185.0,-281.1023533344269,0.0,0.25,1.6589353770000002,0.552687206278561,-0.004882811999999959,0.5899999737739563,-2.140000104904175,-82.69999694824219,-0.004150390625,0.12225341796875,1.00372314453125,36.79999923706055,0.0,-106.0,2.153472900390625,-2.135986328125,Closing,0.0,0.0,3.0,0.0,0.0,0.0,0.0,0.0,
2.1515079999999944,0.0,0.0,68598.0,4.5,-1087.5,-479.5275494456292,0.0,1.625,0.917968656,0.5498168668524864,0.020751950999999935,-68335.0,13.25,915.0,-479.5275494456292,0.0,2.625,0.5554198650000001,4.41043958977222,-0.010986326999999463,26205.0,4.25,-1080.0,-479.5275494456292,0.0,1.875,3.297118803,4.389674732977291,0.0,-67430.0,14.0,990.0,-479.5275494456292,0.0,1.875,1.7932127070000001,0.552687206278561,0.0,0.5400000214576721,-0.4000000059604645,-82.66999816894531,0.50555419921875,-0.16876220703125,0.7574462890625,36.79999923706055,0.0,239.0,2.15234375,-2.14215087890625,Closing,0.0,0.0,3.0,0.0,0.0,0.0,0.0,0.0,
2.1822119999999994,0.0,0.0,68598.0,4.375,-960.0,-644.8818951845169,0.0,1.75,1.0339354410000001,0.5498168668524864,0.11352537900000004,-68335.0,13.0,637.5,-644.8818951845169,0.0,2.625,0.47607417,4.41043958977222,-0.026855465999999772,26205.0,4.75,-975.0,-644.8818951845169,0.0,2.0,3.2153317020000003,4.389674732977291,4.826874621,-67430.0,17.25,870.0,-644.8818951845169,0.0,0.75,1.9250486310000001,0.552687206278561,0.11230467599999994,0.550000011920929,0.09000000357627869,-82.72000122070312,0.4244384765625,-0.23956298828125,1.341796875,36.79999923706055,0.0,303.0,2.1529541015625,-2.138946533203125,Closing,0.0,0.0,3.0,0.0,0.0,0.0,0.0,0.0,
2.2229179999999977,0.0,0.0,68598.0,2.0,-682.5,-661.4173203706741,0.0,0.625,1.1633299590000001,0.5498168668524864,0.0,-68335.0,11.25,0.0,-661.4173203706741,0.0,0.875,0.30517575,4.41043958977222,0.0,26205.0,3.625,-840.0,-661.4173203706741,0.0,0.75,3.037109064,4.389674732977291,0.0,-67352.0,20.5,735.0,-661.4173203706741,0.0,0.625,2.0104978410000003,0.552687206278561,0.0,0.49000000953674316,0.5299999713897705,-82.69000244140625,0.36663818359375,0.12640380859375,1.51318359375,36.79999923706055,0.0,-67.0,2.1535797119140625,-2.13641357421875,Closing,0.0,0.0,3.0,0.0,0.0,0.0,0.0,0.0,
2.2421100000000007,0.0,0.0,68598.0,1.125,-585.0,-694.4881707429886,0.0,0.5,1.2121580790000002,0.5498168668524864,0.08056639799999998,-68371.0,10.75,-195.0,-694.4881707429886,0.0,0.875,0.235595679,4.41043958977222,-0.10742186399999998,26205.0,2.125,-697.5,-694.4881707429886,0.0,0.375,2.980956726,4.389674732977291,-0.10253905200000002,-67352.0,22.125,577.5,-694.4881707429886,0.0,0.375,2.0593259610000003,0.552687206278561,0.07934569500000022,0.44999998807907104,1.100000023841858,-82.58000183105469,0.67352294921875,-0.067626953125,0.439453125,36.79999923706055,0.0,156.0,2.1542510986328125,-2.1331787109375,Closing,0.0,0.0,3.0,0.0,0.0,0.0,0.0,0.0,
2.2756939999999957,0.0,0.0,68532.0,0.25,-457.5,-694.4881707429886,0.0,0.375,1.280517447,0.5498168668524864,0.0,-68371.0,9.75,-232.5,-694.4881707429886,0.0,0.5,0.131835924,4.41043958977222,0.0,26147.0,0.5,-457.5,-694.4881707429886,0.0,0.125,2.9040524370000003,4.389674732977291,0.0,-67352.0,22.625,307.5,-694.4881707429886,0.0,0.375,2.1105954870000003,0.552687206278561,0.0,0.5,1.7799999713897705,-81.91000366210938,0.34356689453125,0.02099609375,1.06427001953125,36.79999923706055,0.0,32.0,2.1573333740234375,-2.1198577880859375,Closing,0.0,0.0,3.0,0.0,0.0,0.0,0.0,0.0,
2.2972779999999986,0.0,0.0,68532.0,0.0,-405.0,-694.4881707429886,0.0,0.375,1.304931507,0.5498168668524864,0.0634765559999999,-68371.0,8.25,-232.5,-694.4881707429886,0.0,0.25,0.078124992,4.41043958977222,-0.0988769429999996,26147.0,0.125,-375.0,-694.4881707429886,0.0,0.125,2.879638377,4.389674732977291,-0.07324217999999938,-67352.0,22.25,165.0,-694.4881707429886,0.0,0.375,2.135009547,0.552687206278561,0.05615233800000041,0.5299999713897705,2.1600000858306885,-81.5999984741211,0.37261962890625,0.04486083984375,0.7613525390625,36.79999923706055,0.0,12.0,2.158447265625,-2.1144866943359375,Closing,0.0,0.0,3.0,0.0,0.0,0.0,0.0,0.0,
2.3187330000000004,0.0,0.0,68532.0,0.125,-352.5,-694.4881707429886,0.0,0.375,1.3195799430000001,0.5498168668524864,0.0,-68371.0,7.375,-180.0,-694.4881707429886,0.0,0.25,0.037841793,4.41043958977222,0.0,26147.0,0.125,-307.5,-694.4881707429886,0.0,0.125,2.8564450200000002,4.389674732977291,0.0,-67352.0,20.375,22.5,-694.4881707429886,0.0,0.375,2.2180173510000003,0.552687206278561,0.0,0.6600000262260437,2.3299999237060547,-80.83999633789062,0.080322265625,-0.01031494140625,1.30145263671875,36.79999923706055,0.0,29.0,2.1606903076171875,-2.102935791015625,Closing,0.0,0.0,3.0,0.0,0.0,0.0,0.0,0.0,
2.338682000000001,0.0,0.0,68532.0,0.125,-300.0,-694.4881707429886,0.0,0.375,1.324462755,0.5498168668524864,0.015869139000000088,-68371.0,7.125,-165.0,-694.4881707429886,0.0,0.25,0.014648436,4.41043958977222,-0.04272460500000008,26147.0,0.125,-255.0,-694.4881707429886,0.0,0.125,2.8515622080000003,4.389674732977291,-0.0183105449999994,-67393.0,17.375,-105.0,-694.4881707429886,0.0,0.375,2.242431411,0.552687206278561,0.07812499199999978,0.6899999976158142,2.2300000190734863,-80.4000015258789,-0.019775390625,0.07647705078125,1.0509033203125,36.79999923706055,0.0,-72.0,2.1617889404296875,-2.0971221923828125,Closing,0.0,0.0,3.0,0.0,0.0,0.0,0.0,0.0,
2.3599419999999953,0.0,0.0,68532.0,0.0,-247.5,-694.4881707429886,0.0,0.375,1.324462755,0.5498168668524864,-0.0012207029999999897,-68426.0,8.375,-322.5,-694.4881707429886,0.0,0.25,4.951171368000001,4.41043958977222,0.0,26147.0,0.125,-202.5,-694.4881707429886,0.0,0.125,2.8466793960000003,4.389674732977291,0.0,-67393.0,14.875,-225.0,-694.4881707429886,0.0,0.375,2.250976332,0.552687206278561,0.0,0.8600000143051147,2.130000114440918,-79.4000015258789,-0.022216796875,0.08197021484375,0.90966796875,36.79999923706055,0.0,-77.0,2.1632843017578125,-2.0856781005859375,Closing,0.0,0.0,3.0,0.0,0.0,0.0,0.0,0.0,
2.3841149999999978,0.0,0.0,68499.0,0.0,-210.0,-694.4881707429886,0.0,0.25,1.3427733000000002,0.5498168668524864,0.0012207029999999897,-68426.0,8.5,-412.5,-694.4881707429886,0.0,0.25,4.948729962000001,4.41043958977222,4.936522932000001,26125.0,0.125,-142.5,-694.4881707429886,0.0,0.125,2.8430172870000003,4.389674732977291,-0.0012207030000004337,-67393.0,11.625,-397.5,-694.4881707429886,0.0,0.25,2.250976332,0.552687206278561,0.0,0.9900000095367432,1.5199999809265137,-77.13999938964844,-0.17034912109375,0.0233154296875,0.9051513671875,36.79999923706055,0.0,-50.0,2.1651611328125,-2.0653076171875,Closing,0.0,0.0,3.0,0.0,0.0,0.0,0.0,0.0,
2.4265809999999983,0.0,0.0,68499.0,0.125,-195.0,-694.4881707429886,0.0,0.25,1.337890488,0.5498168668524864,0.004882811999999959,-68426.0,7.625,-457.5,-694.4881707429886,0.0,0.25,4.951171368000001,4.41043958977222,0.0,26125.0,0.125,-135.0,-694.4881707429886,0.0,0.125,2.8417965840000003,4.389674732977291,-0.003662108999999525,-67393.0,11.0,-442.5,-694.4881707429886,0.0,0.25,2.24609352,0.552687206278561,0.0,0.9900000095367432,1.5199999809265137,-77.13999938964844,-0.17034912109375,0.0233154296875,0.9051513671875,36.79999923706055,0.0,-50.0,2.1651611328125,-2.0653076171875,Closing,0.0,0.0,3.0,0.0,0.0,0.0,0.0,0.0,
2.4454259999999994,0.0,0.0,68499.0,0.125,-217.5,-694.4881707429886,0.0,0.25,1.3439940030000002,0.5498168668524864,0.003662108999999969,-68426.0,7.375,-442.5,-694.4881707429886,0.0,0.25,4.953612774000001,4.41043958977222,0.0,26125.0,0.125,-150.0,-694.4881707429886,0.0,0.125,2.8405758810000004,4.389674732977291,0.0,-67393.0,10.625,-472.5,-694.4881707429886,0.0,0.25,2.244872817,0.552687206278561,-0.003662108999999969,0.9700000286102295,1.3600000143051147,-76.54000091552734,-0.16473388671875,-0.02606201171875,0.952880859375,36.79999923706055,0.0,-2.0,2.1655426025390625,-2.0608673095703125,Closing,0.0,0.0,3.0,0.0,0.0,0.0,0.0,0.0,
2.4645319999999993,0.0,0.0,68499.0,0.125,-255.0,-694.4881707429886,0.0,0.25,1.353759627,0.5498168668524864,0.0,-68497.0,7.625,-427.5,-694.4881707429886,0.0,0.25,4.951171368000001,4.41043958977222,0.0,26125.0,0.375,-172.5,-694.4881707429886,0.0,0.125,2.8417965840000003,4.389674732977291,0.0,-67472.0,10.625,-480.0,-694.4881707429886,0.0,0.25,2.236327896,0.552687206278561,0.0,0.8999999761581421,1.309999942779541,-75.20999908447266,-0.02911376953125,-0.06707763671875,1.08013916015625,36.79999923706055,0.0,67.0,2.166534423828125,-2.052490234375,Closing,0.0,0.0,3.0,0.0,0.0,0.0,0.0,0.0,
2.4868039999999962,0.0,0.0,68499.0,0.125,-307.5,-694.4881707429886,0.0,0.125,1.3476561120000001,0.5498168668524864,-0.0012207029999999897,-68497.0,8.25,-420.0,-694.4881707429886,0.0,0.25,4.949950665,4.41043958977222,0.0,26125.0,0.375,-210.0,-694.4881707429886,0.0,0.125,2.8417965840000003,4.389674732977291,0.0012207030000004337,-67472.0,10.5,-480.0,-694.4881707429886,0.0,0.25,2.231445084,0.552687206278561,-0.004882811999999959,0.9100000262260437,1.2300000190734863,-74.51000213623047,-0.0345458984375,0.0440673828125,1.11566162109375,36.79999923706055,0.0,-41.0,2.1670989990234375,-2.0484466552734375,Closing,0.0,0.0,3.0,0.0,0.0,0.0,0.0,0.0,
2.5078629999999977,0.0,0.0,68434.0,0.125,-360.0,-694.4881707429886,0.0,0.125,1.351318221,0.5498168668524864,-0.0012207029999999897,-68497.0,8.625,-435.0,-694.4881707429886,0.0,0.25,4.949950665,4.41043958977222,0.0,26075.0,0.375,-247.5,-694.4881707429886,0.0,0.125,2.8417965840000003,4.389674732977291,0.0,-67472.0,10.25,-495.0,-694.4881707429886,0.0,0.25,2.2229001630000003,0.552687206278561,0.0,0.8899999856948853,1.090000033378601,-71.3499984741211,0.0531005859375,0.0191650390625,1.2188720703125,36.79999923706055,0.0,9.0,2.1699676513671875,-2.0405426025390625,Closing,0.0,0.0,3.0,0.0,0.0,0.0,0.0,0.0,
2.550887999999999,0.0,0.0,68434.0,0.125,-442.5,-115.74803106486797,0.0,0.125,1.3476561120000001,0.5498168668524864,0.0,-68497.0,8.25,-502.5,-115.74803106486797,0.0,0.25,4.952392071,4.41043958977222,0.0,26075.0,0.375,-330.0,-115.74803106486797,0.0,0.125,2.8417965840000003,4.389674732977291,-0.0012207030000004337,-67472.0,10.375,-502.5,-115.74803106486797,0.0,0.25,2.2216794600000003,0.5526872062785609,-0.004882811999999959,0.9200000166893005,1.059999942779541,-70.5,-0.00872802734375,-0.01348876953125,1.18463134765625,36.79999923706055,0.0,20.0,2.17083740234375,-2.0405426025390625,Closing,0.0,0.0,3.0,0.0,0.0,0.0,0.0,0.0,
2.572403999999995,0.0,0.0,68434.0,0.125,-480.0,-115.74803106486797,0.0,0.125,1.3488768150000001,0.5498168668524864,-0.0012207029999999897,-68497.0,6.0,-532.5,-115.74803106486797,0.0,0.25,4.948729962000001,4.41043958977222,0.0,26075.0,0.0,-382.5,-115.74803106486797,0.0,0.125,2.838134475,4.389674732977291,0.0,-67561.0,9.375,-525.0,-115.74803106486797,0.0,0.25,2.2216794600000003,0.5526872062785609,0.0,0.9800000190734863,1.0199999809265137,-68.72000122070312,-0.03948974609375,0.095458984375,0.8709716796875,36.79999923706055,0.0,-95.0,2.17236328125,-2.0406494140625,Closing,0.0,0.0,3.0,0.0,0.0,0.0,0.0,0.0,
2.6050079999999944,0.0,0.0,68434.0,0.0,-502.5,0.0,0.0,0.125,1.339111191,0.5498168668524864,0.0,-68584.0,1.25,-555.0,0.0,0.0,0.25,4.94384715,4.41043958977222,-0.0024414059999999793,26075.0,0.0,-472.5,0.0,0.0,0.125,2.835693069,4.389674732977291,-0.003662109000000413,-67561.0,3.875,-562.5,0.0,0.0,0.25,2.2167966480000003,0.5526872062785609,-0.0012207029999999897,1.1200000047683716,0.9599999785423279,-67.0199966430664,0.041015625,-0.10791015625,1.04827880859375,36.79999923706055,0.0,127.0,2.17352294921875,-2.0408172607421875,Closing,0.0,0.0,3.0,0.0,0.0,0.0,0.0,0.0,
2.631604999999996,0.0,0.0,68351.0,0.0,-502.5,0.0,0.0,0.125,1.3476561120000001,0.5498168668524864,0.0,-68584.0,0.5,-540.0,0.0,0.0,0.25,4.946288556,4.41043958977222,-0.0024414059999999793,25992.0,0.0,-502.5,0.0,0.0,0.125,2.836913772,4.389674732977291,-0.003662109000000413,-67561.0,1.375,-562.5,0.0,0.0,0.25,2.213134539,0.5526872062785609,-0.0012207029999999897,1.1200000047683716,0.7900000214576721,-65.43000030517578,0.01043701171875,0.01641845703125,1.103271484375,36.79999923706055,0.0,2.0,2.1748809814453125,-2.0411224365234375,Closing,0.0,0.0,3.0,0.0,0.0,0.0,0.0,0.0,
2.6508169999999955,0.0,0.0,68351.0,0.0,-510.0,0.0,0.0,0.125,1.3439940030000002,0.5498168668524864,0.0,-68584.0,0.0,-487.5,0.0,0.0,0.25,4.94384715,4.41043958977222,-0.0024414059999999793,25992.0,0.0,-517.5,0.0,0.0,0.125,2.836913772,4.389674732977291,-0.003662109000000413,-67561.0,0.0,-450.0,0.0,0.0,0.25,2.202148212,0.5526872062785609,-0.008544921000000372,1.1299999952316284,0.6800000071525574,-64.66000366210938,-0.06768798828125,-0.0594482421875,1.2449951171875,36.79999923706055,0.0,40.0,2.17559814453125,-2.0413818359375,Closing,0.0,0.0,3.0,0.0,0.0,0.0,0.0,0.0,
2.6839809999999997,0.0,0.0,68351.0,0.0,-517.5,0.0,0.0,0.125,1.3476561120000001,0.5498168668524864,0.0,-68584.0,0.0,-405.0,0.0,0.0,0.25,4.94384715,4.41043958977222,-0.003662109000000413,25992.0,0.0,-510.0,0.0,0.0,0.125,2.83203096,4.389674732977291,-0.0012207029999995456,-67561.0,0.0,-367.5,0.0,0.0,0.25,2.198486103,0.5526872062785609,-0.008544921000000372,0.9599999785423279,0.5799999833106995,-63.27000045776367,0.07232666015625,0.12548828125,0.97015380859375,36.79999923706055,0.0,-69.0,2.177520751953125,-2.04229736328125,Closing,0.0,0.0,3.0,0.0,0.0,0.0,0.0,0.0,
2.703909999999996,0.0,0.0,68351.0,0.0,-525.0,0.0,0.0,0.125,1.3464354090000001,0.5498168668524864,0.0,-68584.0,0.0,-315.0,0.0,0.0,0.25,4.946288556,4.41043958977222,-0.003662109000000413,25992.0,0.0,-502.5,0.0,0.0,0.125,2.838134475,4.389674732977291,-0.0012207029999995456,-67616.0,0.125,-367.5,0.0,0.0,0.25,2.198486103,0.5526872062785609,-0.008544921000000372,0.9800000190734863,0.5199999809265137,-62.63999938964844,0.04864501953125,-0.04754638671875,0.841796875,36.79999923706055,0.0,73.0,2.17852783203125,-2.0427093505859375,Closing,0.0,0.0,3.0,0.0,0.0,0.0,0.0,0.0,
2.7392999999999956,0.0,0.0,68285.0,0.0,-480.0,0.0,0.0,0.125,1.3476561120000001,0.5498168668524864,-0.0012207029999999897,-68628.0,0.0,-240.0,0.0,0.0,0.25,4.946288556,4.41043958977222,0.0,25992.0,0.0,-472.5,0.0,0.0,0.125,2.836913772,4.389674732977291,0.0012207029999995456,-67616.0,0.125,-292.5,0.0,0.0,0.25,2.1972654,0.5526872062785609,-0.014648435999999876,0.949999988079071,0.5400000214576721,-61.0099983215332,0.0555419921875,-0.112060546875,0.94378662109375,36.79999923706055,0.0,134.0,2.1819305419921875,-2.0437774658203125,Closing,0.0,0.0,3.0,0.0,0.0,0.0,0.0,0.0,
2.764445,0.0,0.0,68285.0,0.0,-427.5,0.0,0.0,0.125,1.3488768150000001,0.5498168668524864,0.0012207029999999897,-68628.0,0.0,-270.0,0.0,0.0,0.25,4.946288556,4.41043958977222,0.0,25924.0,0.0,-450.0,0.0,0.0,0.125,2.836913772,4.389674732977291,0.0,-67616.0,0.125,-315.0,0.0,0.0,0.25,2.203368915,0.5526872062785609,0.0,0.9399999976158142,0.5099999904632568,-60.529998779296875,0.05804443359375,0.0040283203125,1.0615234375,36.79999923706055,0.0,35.0,2.183197021484375,-2.044097900390625,Closing,0.0,0.0,3.0,0.0,0.0,0.0,0.0,0.0,
2.7857239999999948,0.0,0.0,68285.0,0.0,-375.0,0.0,0.0,0.125,1.3476561120000001,0.5498168668524864,0.0012207029999999897,-68628.0,0.0,-307.5,0.0,0.0,0.25,4.946288556,4.41043958977222,0.0,25924.0,0.0,-420.0,0.0,0.0,0.125,2.836913772,4.389674732977291,0.0,-67616.0,0.125,-315.0,0.0,0.0,0.25,2.203368915,0.5526872062785609,0.0,0.9599999785423279,0.47999998927116394,-59.66999816894531,0.00726318359375,-0.0030517578125,0.9598388671875,36.79999923706055,0.0,16.0,2.185760498046875,-2.044769287109375,Closing,0.0,0.0,3.0,0.0,0.0,0.0,0.0,0.0,
2.824578000000001,0.0,0.0,68285.0,0.0,-322.5,0.0,0.0,0.125,1.3439940030000002,0.5498168668524864,-0.0012207029999999897,-68628.0,0.0,-307.5,0.0,0.0,0.25,4.947509259,4.41043958977222,0.0,25924.0,0.0,-337.5,0.0,0.0,0.125,2.836913772,4.389674732977291,-0.0012207029999995456,-67657.0,0.125,-300.0,0.0,0.0,0.25,2.202148212,0.5526872062785609,0.004882811999999959,1.0,0.47999998927116394,-58.939998626708984,-0.00152587890625,0.09222412109375,1.1124267578125,36.79999923706055,0.0,-67.0,2.1857147216796875,-2.0455474853515625,Closing,0.0,0.0,3.0,0.0,0.0,0.0,0.0,0.0,
2.84875,0.0,0.0,68285.0,0.0,-300.0,-396.8503922224045,0.0,0.125,1.3476561120000001,0.5498168668524864,0.0024414059999999793,-68670.0,0.0,-262.5,-396.8503922224045,0.0,0.25,4.946288556,4.41043958977222,0.0,25924.0,0.125,-277.5,-396.8503922224045,0.0,0.125,2.838134475,4.389674732977291,0.0,-67657.0,0.25,-240.0,-396.8503922224045,0.0,0.25,2.202148212,0.552687206278561,0.0,1.0299999713897705,0.41999998688697815,-58.36000061035156,-0.02392578125,-3.0517578125E-4,0.94879150390625,36.79999923706055,0.0,-1.0,2.1854400634765625,-2.0462799072265625,Closing,0.0,0.0,3.0,0.0,0.0,0.0,0.0,0.0,
2.888021999999997,0.0,0.0,68246.0,0.125,-240.0,-1157.480263710022,0.0,0.125,1.3439940030000002,0.5498168668524864,-0.0012207029999999897,-68670.0,0.0,-172.5,-1157.480263710022,0.0,0.25,4.947509259,4.41043958977222,0.0,25888.0,0.125,-247.5,-1157.480263710022,0.0,0.125,2.835693069,4.389674732977291,-0.0012207029999995456,-67657.0,0.375,-195.0,-1157.480263710022,0.0,0.25,2.203368915,0.552687206278561,0.0,1.0099999904632568,0.4099999964237213,-57.75,-0.02471923828125,-0.00946044921875,1.08074951171875,36.79999923706055,0.0,6.0,2.185089111328125,-2.047607421875,Closing,0.0,0.0,3.0,0.0,0.0,0.0,0.0,0.0,
2.908273999999998,0.0,0.0,68246.0,0.625,-202.5,-1207.0866644382477,0.0,0.125,1.3488768150000001,0.5498168668524864,-0.0012207029999999897,-68670.0,1.0,-157.5,-1207.0866644382477,0.0,0.25,4.947509259,4.41043958977222,0.0,25888.0,0.625,-210.0,-1207.0866644382477,0.0,0.125,2.836913772,4.389674732977291,0.0,-67657.0,0.75,-180.0,-1207.0866644382477,0.0,0.25,2.202148212,0.552687206278561,0.0,0.9900000095367432,0.3799999952316284,-57.619998931884766,-0.00408935546875,-0.0394287109375,1.0115966796875,36.79999923706055,0.0,42.0,2.185028076171875,-2.048126220703125,Closing,0.0,0.0,3.0,0.0,0.0,0.0,0.0,0.0,
2.950926999999996,0.0,0.0,68246.0,2.25,-210.0,-1223.622089624405,0.0,0.125,1.351318221,0.5498168668524864,0.0024414059999999793,-68724.0,3.625,-240.0,-1223.622089624405,0.0,0.25,4.946288556,4.41043958977222,-0.0012207030000004337,25888.0,2.625,-165.0,-1223.622089624405,0.0,0.125,2.836913772,4.389674732977291,0.0012207029999995456,-67702.0,3.0,-195.0,-1223.622089624405,0.0,0.25,2.205810321,0.552687206278561,-0.0012207029999999897,0.9700000286102295,0.4000000059604645,-57.400001525878906,0.25225830078125,-0.2330322265625,1.0064697265625,36.79999923706055,0.0,342.0,2.1852264404296875,-2.0491943359375,Closing,0.0,0.0,3.0,0.0,0.0,0.0,0.0,0.0,
2.9742560000000013,0.0,0.0,68246.0,3.5,-277.5,-1074.8031377792358,0.0,0.125,1.3476561120000001,0.5498168668524864,0.0,-68724.0,5.5,-307.5,-1074.8031377792358,0.0,0.25,4.946288556,4.41043958977222,0.0012207030000004337,25888.0,4.25,-157.5,-1074.8031377792358,0.0,0.125,2.836913772,4.389674732977291,0.0,-67702.0,5.0,-300.0,-1074.8031377792358,0.0,0.25,2.208251727,0.552687206278561,0.0,1.0,0.4699999988079071,-57.220001220703125,-0.36871337890625,-0.190185546875,1.4600830078125,36.79999923706055,0.0,-24.0,2.1856536865234375,-2.049957275390625,Closing,0.0,0.0,3.0,0.0,0.0,0.0,0.0,0.0,
3.018159,0.0,0.0,68194.0,4.375,-360.0,-628.3464699983597,0.0,0.125,1.3476561120000001,0.5498168668524864,0.0,-68724.0,6.375,-390.0,-628.3464699983597,0.0,0.25,4.945067853,4.41043958977222,0.0,25860.0,5.375,-180.0,-628.3464699983597,0.0,0.125,2.836913772,4.389674732977291,0.0,-67702.0,4.5,-352.5,-628.3464699983597,0.0,0.25,2.205810321,0.552687206278561,0.0,0.9800000190734863,0.25,-55.970001220703125,-0.115234375,0.03466796875,1.29156494140625,36.79999923706055,0.0,-78.0,2.186859130859375,-2.053466796875,Closing,0.0,0.0,3.0,0.0,0.0,0.0,0.0,0.0,
3.0422749999999943,0.0,0.0,68194.0,3.125,-375.0,0.0,0.0,0.125,1.3476561120000001,0.5498168668524864,0.0,-68724.0,4.625,-397.5,0.0,0.0,0.25,4.945067853,4.41043958977222,0.0,25860.0,3.125,-180.0,0.0,0.0,0.125,2.836913772,4.389674732977291,0.0,-67702.0,2.375,-352.5,0.0,0.0,0.25,2.207031024,0.552687206278561,0.0,0.9399999976158142,0.25999999046325684,-54.83000183105469,0.00189208984375,0.07666015625,0.80645751953125,36.79999923706055,0.0,-52.0,2.1874237060546875,-2.0561370849609375,Closing,0.0,0.0,3.0,0.0,0.0,0.0,0.0,0.0,
3.0823659999999946,0.0,0.0,68194.0,0.375,-330.0,0.0,0.0,0.125,1.3488768150000001,0.5498168668524864,0.0012207029999999897,-68770.0,0.875,-330.0,0.0,0.0,0.25,4.945067853,4.41043958977222,0.0,25860.0,1.5,-180.0,0.0,0.0,0.125,2.838134475,4.389674732977291,0.0012207029999995456,-67747.0,1.25,-277.5,0.0,0.0,0.25,2.207031024,0.552687206278561,0.0,0.9900000095367432,0.10999999940395355,-52.97999954223633,-0.0155029296875,0.0447998046875,1.03704833984375,36.75,0.0,-32.0,2.1880340576171875,-2.0602569580078125,Closing,0.0,0.0,3.0,0.0,0.0,0.0,0.0,0.0,
3.1024939999999988,0.0,0.0,68151.0,0.125,-307.5,0.0,0.0,0.125,1.3476561120000001,0.5498168668524864,0.0012207029999999897,-68770.0,0.25,-292.5,0.0,0.0,0.25,4.945067853,4.41043958977222,0.0,25860.0,0.375,-180.0,0.0,0.0,0.125,2.833251663,4.389674732977291,0.0012207029999995456,-67747.0,0.25,-277.5,0.0,0.0,0.25,2.207031024,0.552687206278561,0.0,0.9700000286102295,0.15000000596046448,-52.380001068115234,0.0374755859375,-0.035888671875,0.8165283203125,36.75,0.0,60.0,2.188232421875,-2.0602569580078125,Closing,0.0,0.0,3.0,0.0,0.0,0.0,0.0,0.0,
3.145189999999995,0.0,0.0,68151.0,0.0,-247.5,0.0,0.0,0.125,1.3476561120000001,0.5498168668524864,0.0,-68770.0,0.0,-195.0,0.0,0.0,0.25,4.947509259,4.41043958977222,0.0,25835.0,0.0,-157.5,0.0,0.0,0.125,2.83203096,4.389674732977291,-0.0024414059999999793,-67747.0,0.125,-202.5,0.0,0.0,0.25,2.203368915,0.552687206278561,-0.0024414059999999793,0.9300000071525574,0.03999999910593033,-50.810001373291016,0.0628662109375,0.06597900390625,1.04376220703125,36.75,0.0,1.0,2.1891937255859375,-2.060394287109375,Closing,0.0,0.0,3.0,0.0,0.0,0.0,0.0,0.0,
3.163375,0.0,0.0,68151.0,0.0,-187.5,0.0,0.0,0.125,1.3476561120000001,0.5498168668524864,0.0,-68770.0,0.0,-150.0,0.0,0.0,0.25,4.945067853,4.41043958977222,0.0,25835.0,0.0,-135.0,0.0,0.0,0.125,2.828368851,4.389674732977291,-0.006103514999999504,-67747.0,0.125,-187.5,0.0,0.0,0.25,2.202148212,0.552687206278561,-0.0024414059999999793,0.9399999976158142,0.11999999731779099,-50.40999984741211,0.00238037109375,0.00958251953125,0.981201171875,36.75,0.0,5.0,2.1895599365234375,-2.06036376953125,Closing,0.0,0.0,3.0,0.0,0.0,0.0,0.0,0.0,
3.1843529999999953,0.0,0.0,68151.0,0.0,-150.0,0.0,0.0,0.125,1.3476561120000001,0.5498168668524864,0.0,-68770.0,0.0,-127.5,0.0,0.0,0.25,4.94384715,4.41043958977222,0.0,25835.0,0.0,-97.5,0.0,0.0,0.125,2.828368851,4.389674732977291,-0.006103514999999504,-67776.0,0.0,-217.5,0.0,0.0,0.25,2.203368915,0.552687206278561,-0.0024414059999999793,0.9200000166893005,0.03999999910593033,-49.470001220703125,-0.0306396484375,-0.12823486328125,1.05389404296875,36.75,0.0,90.0,2.191253662109375,-2.0605621337890625,Closing,0.0,0.0,3.0,0.0,0.0,0.0,0.0,0.0,
3.227574999999997,0.0,0.0,68122.0,0.0,-172.5,0.0,0.0,0.125,1.3476561120000001,0.5498168668524864,0.0,-68795.0,0.0,-165.0,0.0,0.0,0.25,4.94384715,4.41043958977222,0.0,25814.0,0.0,-97.5,0.0,0.0,0.125,2.828368851,4.389674732977291,-0.0012207030000004337,-67776.0,0.0,-217.5,0.0,0.0,0.25,2.202148212,0.552687206278561,0.0,0.9100000262260437,0.009999999776482582,-49.220001220703125,-0.01275634765625,0.048828125,1.11053466796875,36.75,0.0,-32.0,2.19195556640625,-2.0607757568359375,Closing,0.0,0.0,3.0,0.0,0.0,0.0,0.0,0.0,
3.2450360000000003,0.0,0.0,68122.0,0.0,-195.0,0.0,0.0,0.125,1.3476561120000001,0.5498168668524864,0.0,-68795.0,0.0,-187.5,0.0,0.0,0.25,4.945067853,4.41043958977222,0.0,25814.0,0.0,-112.5,0.0,0.0,0.125,2.827148148,4.389674732977291,-0.0012207030000004337,-67776.0,0.125,-217.5,0.0,0.0,0.25,2.203368915,0.552687206278561,0.0,0.8899999856948853,0.03999999910593033,-49.0,-0.04632568359375,0.058349609375,0.96258544921875,36.75,0.0,-63.0,2.1925811767578125,-2.0609893798828125,Closing,0.0,0.0,3.0,0.0,0.0,0.0,0.0,0.0,
3.286047999999995,0.0,0.0,68122.0,0.0,-165.0,0.0,0.0,0.125,1.3476561120000001,0.5498168668524864,0.0,-68795.0,0.0,-150.0,0.0,0.0,0.25,4.945067853,4.41043958977222,0.0,25814.0,0.0,-150.0,0.0,0.0,0.125,2.827148148,4.389674732977291,0.0,-67776.0,0.125,-150.0,0.0,0.0,0.25,2.203368915,0.552687206278561,0.0,0.9200000166893005,-0.029999999329447746,-48.529998779296875,-0.02813720703125,0.01287841796875,1.13873291015625,36.75,0.0,-14.0,2.1944122314453125,-2.0609893798828125,Closing,0.0,0.0,3.0,0.0,0.0,0.0,0.0,0.0,
3.3035309999999956,0.0,0.0,68122.0,0.0,-112.5,0.0,0.0,0.125,1.3488768150000001,0.5498168668524864,0.0,-68795.0,0.0,-150.0,0.0,0.0,0.25,4.945067853,4.41043958977222,0.0,25814.0,0.0,-142.5,0.0,0.0,0.125,2.828368851,4.389674732977291,0.0,-67794.0,0.0,-127.5,0.0,0.0,0.25,2.203368915,0.552687206278561,0.0,0.8999999761581421,0.0,-48.439998626708984,0.00201416015625,0.0380859375,0.9639892578125,36.75,0.0,-15.0,2.19500732421875,-2.0610198974609375,Closing,0.0,0.0,3.0,0.0,0.0,0.0,0.0,0.0,
3.3452079999999986,0.0,0.0,68117.0,0.0,-45.0,0.0,0.0,0.125,1.3476561120000001,0.5498168668524864,0.0,-68806.0,0.0,-67.5,0.0,0.0,0.25,4.945067853,4.41043958977222,0.0,25814.0,0.0,-75.0,0.0,0.0,0.125,2.825927445,4.389674732977291,0.0,-67794.0,0.0,-75.0,0.0,0.0,0.25,2.202148212,0.552687206278561,0.0,0.8700000047683716,-0.029999999329447746,-48.369998931884766,-0.02069091796875,-0.02386474609375,1.12567138671875,36.75,0.0,17.0,2.19500732421875,-2.061065673828125,Closing,0.0,0.0,3.0,0.0,0.0,0.0,0.0,0.0,
3.363970000000001,0.0,0.0,68117.0,0.0,-37.5,0.0,0.0,0.125,1.3488768150000001,0.5498168668524864,0.0,-68806.0,0.0,-45.0,0.0,0.0,0.25,4.946288556,4.41043958977222,0.0,25809.0,0.0,-37.5,0.0,0.0,0.125,2.827148148,4.389674732977291,0.0,-67794.0,0.0,-52.5,0.0,0.0,0.25,2.203368915,0.552687206278561,0.0,0.8199999928474426,0.009999999776482582,-48.41999816894531,0.02545166015625,0.01544189453125,0.938232421875,36.75,0.0,15.0,2.1951141357421875,-2.0611724853515625,Closing,0.0,0.0,3.0,0.0,0.0,0.0,0.0,0.0,
3.386057999999997,0.0,0.0,68117.0,0.0,-30.0,0.0,0.0,0.125,1.3476561120000001,0.5498168668524864,0.0,-68806.0,0.0,-30.0,0.0,0.0,0.25,4.946288556,4.41043958977222,0.0,25809.0,0.0,-15.0,0.0,0.0,0.125,2.827148148,4.389674732977291,0.0,-67794.0,0.0,-30.0,0.0,0.0,0.25,2.202148212,0.552687206278561,0.0,0.8299999833106995,0.0,-48.47999954223633,-0.01654052734375,0.0238037109375,1.06707763671875,36.75,0.0,-17.0,2.1951904296875,-2.061248779296875,Closing,0.0,0.0,3.0,0.0,0.0,0.0,0.0,0.0,
3.417810999999994,0.0,0.0,68117.0,0.0,-22.5,-178.58268588781357,0.0,0.125,1.3476561120000001,4.267356180530043,0.0,-68806.0,0.0,0.0,178.58268588781357,0.0,0.25,4.946288556,4.294626244331363,0.0,25809.0,0.125,0.0,-178.58268588781357,0.0,0.125,2.827148148,4.274406650085453,0.0,-67794.0,0.125,0.0,-178.58268588781357,0.0,0.25,2.203368915,1.810634072367353,0.0,0.8299999833106995,0.0,-48.59000015258789,-0.01300048828125,0.02264404296875,0.998291015625,36.75,0.0,-14.0,2.1951904296875,-2.061248779296875,Closing,0.0,0.0,3.0,0.0,0.0,0.0,0.0,0.0,
3.439743999999999,0.0,0.0,68117.0,0.125,-7.5,-257.95276433229446,0.0,3.875,1.302490101,4.265712059233287,0.0012207029999999897,-68806.0,0.0,0.0,257.95276433229446,0.0,0.25,4.936522932,4.292971616460803,0.0,25809.0,0.125,0.0,-257.95276433229446,0.0,0.125,2.816161821,4.272759812393192,0.0,-67794.0,0.125,0.0,-257.95276433229446,0.0,4.25,2.210693133,1.8089813678741482,0.0,0.8299999833106995,-0.029999999329447746,-48.720001220703125,-0.0228271484375,0.007080078125,1.0274658203125,36.75,0.0,-8.0,2.1951904296875,-2.0612640380859375,Closing,0.0,0.0,3.0,0.0,0.0,0.0,0.0,0.0,
3.4605709999999963,0.0,0.0,68116.0,0.125,0.0,-317.4803137779236,0.0,6.375,1.1645506620000001,4.264753014608852,-0.07568358600000002,-68806.0,0.125,0.0,317.4803137779236,0.0,0.25,4.916991684,4.292006443168643,-0.01342773300000033,25809.0,0.125,0.0,-317.4803137779236,0.0,0.125,2.8027340880000002,4.271799183247887,-0.009765623999999917,-67794.0,0.125,0.0,-317.4803137779236,0.0,6.875,2.333984136,1.808017316521541,0.004882811999999959,0.8199999928474426,-0.03999999910593033,-48.779998779296875,-0.022216796875,-7.9345703125E-4,1.017822265625,36.75,0.0,-2.0,2.1951904296875,-2.0613250732421875,Closing,0.0,0.0,3.0,0.0,0.0,0.0,0.0,0.0,
3.4913629999999976,0.0,0.0,68116.0,0.125,-7.5,-396.8503922224045,0.0,4.5,0.9082030320000001,4.263245929552166,-0.21484372799999996,-68806.0,0.375,7.5,396.8503922224045,0.0,0.25,4.890136218,4.290489727252964,-0.02563476299999934,25809.0,0.125,0.0,-396.8503922224045,0.0,0.25,2.773437216,4.270289608205163,-0.024414059999999793,-67794.0,0.375,0.0,-396.8503922224045,0.0,7.375,2.595214578,1.8065023636711997,0.17944334100000026,0.8100000023841858,-0.05999999865889549,-48.900001525878906,-0.09423828125,0.07440185546875,1.0618896484375,36.75,0.0,-105.0,2.19500732421875,-2.061767578125,Closing,0.0,0.0,3.0,0.0,0.0,0.0,0.0,0.0,
3.510600999999995,0.0,0.0,68116.0,0.125,-7.5,-416.69290244579315,0.0,4.5,0.7910155440000001,4.261601860519423,-0.1989745890000001,-68806.0,0.375,7.5,416.69290244579315,0.0,0.25,4.8632807520000005,4.288835151980402,0.0,25809.0,0.375,-15.0,-416.69290244579315,0.0,0.25,2.7368161260000003,4.268642822863264,0.0,-67810.0,0.375,-45.0,-416.69290244579315,0.0,1.5,2.927245794,1.804849711714853,0.0,0.800000011920929,-0.10999999940395355,-49.040000915527344,-0.1246337890625,0.04058837890625,1.1083984375,36.75,0.0,-99.0,2.19427490234375,-2.0623016357421875,Closing,0.0,0.0,3.0,0.0,0.0,0.0,0.0,0.0,
3.557519,0.0,0.0,68116.0,0.375,-67.5,-416.69290244579315,0.0,1.5,0.489501903,4.260094775462736,4.640502982999999,-68792.0,1.125,90.0,416.69290244579315,0.0,0.25,4.848632316000001,4.287318436064723,-0.024414059999999793,25809.0,0.875,-30.0,-416.69290244579315,0.0,0.125,2.729491908,4.2671332478205395,-0.03173827799999973,-67810.0,0.625,-82.5,-416.69290244579315,0.0,1.375,3.083495778,1.8033347588645114,0.32958980999999987,0.8100000023841858,-0.1899999976158142,-49.060001373291016,-0.0196533203125,0.04144287109375,1.0233154296875,36.75,0.0,-30.0,2.193634033203125,-2.0630950927734375,Closing,0.0,0.0,3.0,0.0,0.0,0.0,0.0,0.0,
3.5841129999999977,0.0,0.0,68104.0,0.625,-82.5,-416.69290244579315,0.0,1.0,0.371093712,4.260094775462736,-0.10986326999999996,-68792.0,1.25,97.5,416.69290244579315,0.0,0.25,4.844970207,4.287318436064723,-0.009765623999999917,25809.0,0.875,-37.5,-416.69290244579315,0.0,0.125,2.720946987,4.2671332478205395,-0.012207030000000785,-67810.0,0.625,-120.0,-416.69290244579315,0.0,1.375,3.227538732,1.8033347588645114,0.0,0.8299999833106995,-0.20999999344348907,-49.02000045776367,-0.0377197265625,0.10626220703125,1.0433349609375,36.709999084472656,0.0,-90.0,2.1932220458984375,-2.0634613037109375,Closing,0.0,0.0,3.0,0.0,0.0,0.0,0.0,0.0,
3.610167999999998,0.0,0.0,68104.0,0.75,-75.0,-416.69290244579315,0.0,0.75,0.241699194,4.261464876543365,0.0,-68792.0,1.625,67.5,416.69290244579315,0.0,0.25,4.844970207,4.288697292623523,0.0,25800.0,1.0,-52.5,-416.69290244579315,0.0,0.125,2.711181363,4.2685056125640894,0.0,-67810.0,0.625,-142.5,-416.69290244579315,0.0,0.75,3.359374656,1.8047120126088483,0.0,0.9100000262260437,-0.25999999046325684,-48.75,-0.02783203125,0.0582275390625,0.91455078125,36.709999084472656,0.0,-48.0,2.19146728515625,-2.06439208984375,Closing,0.0,0.0,3.0,0.0,0.0,0.0,0.0,0.0,
3.6430230000000012,0.0,0.0,68104.0,1.0,-60.0,-416.69290244579315,0.0,0.5,0.196533183,4.2658490954733566,-0.11840819100000033,-68792.0,2.0,37.5,416.69290244579315,0.0,0.25,4.842528801,4.293109528415683,0.0,25800.0,1.25,-60.0,-416.69290244579315,0.0,0.125,2.711181363,4.272897075042728,-0.009765623999999917,-67810.0,0.625,-142.5,-416.69290244579315,0.0,0.75,3.382568013,1.809119119517011,0.11962889400000032,0.9399999976158142,-0.30000001192092896,-48.63999938964844,-0.031494140625,0.0966796875,0.97271728515625,36.709999084472656,0.0,-77.0,2.19073486328125,-2.06463623046875,Closing,0.0,0.0,3.0,0.0,0.0,0.0,0.0,0.0,
