Time,ClimberA1,ClimberA2,FRpos,FRCurrent,FRspeed,FRsetpoint,FRApos,FRACurrent,FREncpos,FREncSetpoint,FREncSpeed,FLpos,FLCurrent,FLspeed,FLsetpoint,FLApos,FLACurrent,FLEncpos,FLEncSetpoint,FLEncSpeed,BRpos,BRCurrent,BRspeed,BRsetpoint,BRApos,BRACurrent,BREncpos,BREncSetpoint,BREncSpeed,BLpos,BLCurrent,BLspeed,BLsetpoint,BLApos,BLACurrent,BLEncpos,BLEncSetpoint,BLEncSpeed,navx_Pitch,navx_Roll,navx_Yaw,navx_XAcc,navx_YAcc,navx_ZAcc,navx_Temp,navx_Bar,navx_Alt,navx_XDis,navx_YDis,GearPlacerState,ShootOutputV,ShootOutputCurrent,ShootEncPos,ShootEncVelocity,ShootSpeed,ShootSetpoint,CarouselSetpoint,CarouselCurrent,
0.26871600000000034,0.0,0.0,20808.0,0.0,0.0,0.0,0.0,0.125,0.832519446,0.01,0.0,-27043.0,0.0,0.0,0.0,0.0,0.125,0.5017089330000001,0.01,0.0,-481.0,0.0,0.0,0.0,0.0,0.0,3.337402002,0.01,0.0,-32865.0,0.0,0.0,0.0,0.0,0.125,1.6052244450000002,0.01,0.0,0.18000000715255737,-0.38999998569488525,-74.63999938964844,-0.00927734375,0.0050048828125,1.02020263671875,36.13999938964844,0.0,0.0,3.6851043701171875,-1.322265625,Waiting,0.0,0.0,3.0,0.0,0.0,0.0,0.0,0.0,
0.38241799999999965,0.0,0.0,20808.0,0.0,0.0,0.0,0.0,0.125,0.832519446,0.01,0.02129874300000001,-27043.0,0.0,0.0,-0.0,0.0,0.125,0.5029296360000001,0.01,-0.003300363999999334,-481.0,0.0,0.0,0.0,0.0,0.0,3.337402002,0.01,4.927802002,-32865.0,0.0,0.0,-0.0,0.0,0.25,1.6052244450000002,0.01,4.943224445,0.18000000715255737,-0.38999998569488525,-74.63999938964844,-0.007568359375,0.001220703125,1.025634765625,36.13999938964844,0.0,1.0,3.6851043701171875,-1.322265625,Closing,0.0,0.0,3.0,0.0,0.0,0.0,0.0,0.0,
0.4076710000000003,0.0,0.0,20808.0,0.0,0.0,0.0,0.0,0.125,0.832519446,0.01,0.0,-27043.0,0.0,0.0,-0.0,0.0,0.125,0.5029296360000001,0.01,-0.0012207030000004337,-481.0,0.0,0.0,0.0,0.0,0.0,3.337402002,0.01,-0.0012207029999995456,-32865.0,0.0,0.0,-0.0,0.0,0.25,1.6052244450000002,0.01,0.0,0.17000000178813934,-0.38999998569488525,-74.63999938964844,-0.00604248046875,0.00341796875,1.019775390625,36.13999938964844,0.0,0.0,3.6851043701171875,-1.322265625,Closing,0.0,0.0,3.0,0.0,0.0,0.0,0.0,0.0,
0.46772099999999955,0.0,0.0,20808.0,0.0,0.0,0.0,0.0,0.125,0.832519446,0.01,0.0,-27043.0,0.0,0.0,-0.0,0.0,0.125,0.5041503390000001,0.01,0.0012207030000004337,-481.0,0.0,0.0,0.0,0.0,0.0,3.337402002,0.01,0.0012207029999995456,-32865.0,0.0,0.0,-0.0,0.0,0.25,1.600341633,0.01,0.0,0.17000000178813934,-0.38999998569488525,-74.62999725341797,-0.005615234375,0.003662109375,1.02105712890625,36.13999938964844,0.0,0.0,3.6851043701171875,-1.322265625,Closing,0.0,0.0,3.0,0.0,0.0,0.0,0.0,0.0,
0.5195370000000002,0.0,0.0,20808.0,0.0,0.0,-178.58268588781357,0.0,0.125,0.832519446,3.9097680039356475,0.0,-27043.0,0.0,0.0,178.58268588781357,0.0,0.125,0.5029296360000001,3.934752940370563,-0.0012207030000004337,-481.0,0.0,0.0,-178.58268588781357,0.0,0.0,3.338622705,3.9162276710255974,0.0,-32865.0,0.125,0.0,178.58268588781357,0.0,0.25,1.6064451480000002,3.9301790933820966,0.0,0.17000000178813934,-0.38999998569488525,-74.62999725341797,-0.0074462890625,0.00177001953125,1.0238037109375,36.13999938964844,0.0,1.0,3.6851043701171875,-1.322265625,Closing,0.0,0.0,3.0,0.0,0.0,0.0,0.0,0.0,
0.5685079999999998,0.0,0.0,20808.0,0.0,0.0,-178.58268588781357,0.0,7.0,0.590820252,3.9097680039356475,0.0,-27043.0,0.125,0.0,178.58268588781357,0.0,0.125,0.5029296360000001,3.934752940370563,0.0,-481.0,0.125,0.0,-178.58268588781357,0.0,6.0,3.037109064,3.9162276710255974,0.0,-32865.0,0.125,0.0,178.58268588781357,0.0,6.0,1.590576009,3.9301790933820966,0.0,0.15000000596046448,-0.4000000059604645,-74.62999725341797,0.01580810546875,0.05206298828125,1.0640869140625,36.13999938964844,0.0,-41.0,3.68524169921875,-1.3224639892578125,Closing,0.0,0.0,3.0,0.0,0.0,0.0,0.0,0.0,
0.617554,0.0,0.0,20808.0,0.125,0.0,-218.26772511005404,0.0,2.125,0.22338864900000002,3.9097680039356475,0.0,-27042.0,0.125,0.0,218.26772511005404,0.0,9.25,0.27099606600000004,3.934752940370563,0.0,-481.0,0.125,-15.0,-218.26772511005404,0.0,1.625,2.6928708180000003,3.9162276710255974,0.0,-32864.0,0.375,7.5,218.26772511005404,0.0,8.125,1.284179556,3.9301790933820966,0.0,0.12999999523162842,-0.4099999964237213,-74.62999725341797,-0.08197021484375,0.0587158203125,1.10845947265625,36.13999938964844,0.0,-73.0,3.685302734375,-1.3225860595703125,Closing,0.0,0.0,3.0,0.0,0.0,0.0,0.0,0.0,
0.6503050000000002,0.0,0.0,20808.0,0.125,0.0,-277.79527455568314,0.0,1.5,0.075683586,3.9097680039356475,-0.21972653999999991,-27042.0,0.125,0.0,277.79527455568314,0.0,4.75,0.076904289,3.934752940370563,-0.22949216399999983,-481.0,0.125,-22.5,-277.79527455568314,0.0,1.25,2.55126927,3.9162276710255974,-0.22338864900000033,-32864.0,0.375,15.0,277.79527455568314,0.0,3.0,1.0559080950000002,3.9301790933820966,0.0,0.17000000178813934,-0.41999998688697815,-74.5999984741211,-0.028076171875,0.06976318359375,0.98388671875,36.13999938964844,0.0,-69.0,3.6848602294921875,-1.3227081298828125,Closing,0.0,0.0,3.0,0.0,0.0,0.0,0.0,0.0,
0.6946970000000001,0.0,0.0,20808.0,0.125,-15.0,-436.53545022010803,0.0,0.5,4.814452632,3.91017900812783,-0.15441945799999957,-27042.0,0.5,60.0,436.53545022010803,0.0,0.875,4.654540539,3.9351665710392023,4.680175302,-485.0,0.375,-15.0,-436.53545022010803,0.0,0.25,2.3742673350000003,3.9166393542734808,-0.15869138999999954,-32864.0,0.375,52.5,436.53545022010803,0.0,1.0,0.734863206,3.9305922432369678,0.0,0.23999999463558197,-0.44999998807907104,-74.4800033569336,-0.02349853515625,0.08953857421875,1.03131103515625,36.13999938964844,0.0,-86.0,3.6835479736328125,-1.3227691650390625,Closing,0.0,0.0,3.0,0.0,0.0,0.0,0.0,0.0,
0.7284269999999997,0.0,0.0,20808.0,0.375,-37.5,-535.7480388879776,0.0,0.5,4.754638185,3.9125081015688816,-0.156249984,-27042.0,0.625,105.0,535.7480388879776,0.0,0.5,4.5056147730000005,3.9375105482921624,-0.33569332500000026,-485.0,0.875,-15.0,-535.7480388879776,0.0,0.375,2.3181149970000003,3.9189722958119737,-0.1452636570000001,-32849.0,0.75,82.5,535.7480388879776,0.0,0.625,0.612792906,3.932933495797054,-0.3088378589999996,0.30000001192092896,-0.46000000834465027,-74.38999938964844,-0.02398681640625,0.09765625,0.95330810546875,36.13999938964844,0.0,-92.0,3.680999755859375,-1.32269287109375,Closing,0.0,0.0,3.0,0.0,0.0,0.0,0.0,0.0,
0.7756430000000001,0.0,0.0,20791.0,0.75,-97.5,-555.5905491113663,0.0,0.375,4.694823738,3.913056142001133,0.0,-27015.0,1.25,172.5,555.5905491113663,0.0,0.25,4.318847214,3.9380620909156825,-0.16479490499999994,-495.0,1.75,-45.0,-555.5905491113663,0.0,0.125,2.280273204,3.919521241709394,0.0,-32849.0,1.125,90.0,555.5905491113663,0.0,0.375,0.48706049700000004,3.9334843972947886,0.0,0.44999998807907104,-0.49000000953674316,-74.37999725341797,-0.00616455078125,0.0693359375,1.08734130859375,36.13999938964844,0.0,-57.0,3.6786651611328125,-1.3223724365234375,Closing,0.0,0.0,3.0,0.0,0.0,0.0,0.0,0.0,
0.803723,0.0,0.0,20791.0,1.625,-112.5,-555.5905491113663,0.0,0.125,4.69970655,3.913056142001133,-0.023193357000000248,-27015.0,2.0,172.5,555.5905491113663,0.0,0.25,4.287108936,3.9380620909156825,-0.09643553700000052,-495.0,2.0,-82.5,-555.5905491113663,0.0,0.0,2.280273204,3.919521241709394,0.0,-32849.0,1.25,112.5,555.5905491113663,0.0,0.25,0.507812448,3.9334843972947886,0.0,0.5699999928474426,-0.47999998927116394,-74.43000030517578,-0.00726318359375,0.10150146484375,1.02911376953125,36.119998931884766,0.0,-87.0,3.672637939453125,-1.321380615234375,Closing,0.0,0.0,3.0,0.0,0.0,0.0,0.0,0.0,
0.8531530000000003,0.0,0.0,20791.0,1.875,-97.5,-595.2756071090697,0.0,0.25,4.698485847000001,3.9125081015688816,0.0012207030000004337,-26991.0,2.875,150.0,595.2756071090697,0.0,0.25,4.271239797000001,3.9375105482921624,0.0,-495.0,2.5,-97.5,-595.2756071090697,0.0,0.0,2.285156016,3.9189722958119737,0.0,-32818.0,1.25,172.5,595.2756071090697,0.0,0.25,0.5297851020000001,3.932933495797054,0.0,0.6499999761581421,-0.46000000834465027,-74.41999816894531,0.02398681640625,0.1240234375,1.02337646484375,36.119998931884766,0.0,-99.0,3.668975830078125,-1.3206787109375,Closing,0.0,0.0,3.0,0.0,0.0,0.0,0.0,0.0,
0.888634,0.0,0.0,20770.0,2.75,-120.0,-615.1181173324585,0.0,0.125,4.697265144,3.9126451378089504,-0.0012207030000004337,-26991.0,4.25,157.5,615.1181173324585,0.0,0.25,4.279784718,3.937648460247042,0.009765623999999917,-520.0,3.25,-127.5,-615.1181173324585,0.0,0.0,2.288818125,3.9191095584615097,0.003662109000000413,-32818.0,1.5,262.5,615.1181173324585,0.0,0.25,0.5017089330000001,3.9330712474399165,0.023193357000000248,0.7900000214576721,-0.4699999988079071,-74.37000274658203,-0.04486083984375,0.22076416015625,1.036865234375,36.119998931884766,0.0,-208.0,3.6647491455078125,-1.31976318359375,Closing,0.0,0.0,3.0,0.0,0.0,0.0,0.0,0.0,
0.931092999999999,0.0,0.0,20770.0,3.875,-165.0,-615.1181173324585,0.0,0.25,4.694823738,3.9137412186734544,0.0012207030000004337,-26991.0,5.125,180.0,615.1181173324585,0.0,0.25,4.279784718,3.938751545494082,-0.0012207029999995456,-520.0,3.25,-180.0,-615.1181173324585,0.0,0.0,2.29492164,3.92020745025635,0.010986326999999463,-32818.0,1.875,292.5,615.1181173324585,0.0,0.25,0.5163573690000001,3.9341730504353865,-0.028076169000000206,0.9900000095367432,-0.4699999988079071,-74.29000091552734,-0.05560302734375,0.11651611328125,1.00347900390625,36.119998931884766,0.0,-108.0,3.6570587158203125,-1.3181610107421875,Closing,0.0,0.0,3.0,0.0,0.0,0.0,0.0,0.0,
0.9827229999999999,0.0,0.0,20770.0,4.375,-217.5,-634.9606275558472,0.0,0.25,4.697265144,3.91456322705782,0.0,-26948.0,5.25,225.0,634.9606275558472,0.0,0.25,4.328612838000001,3.939578806831362,0.02075195099999938,-520.0,3.125,-232.5,-634.9606275558472,0.0,0.0,2.305907967,3.9210308167521184,0.0,-32770.0,2.0,277.5,634.9606275558472,0.0,0.25,0.531005805,3.9349993501451306,0.01342773300000033,1.2000000476837158,-0.5600000023841858,-74.2699966430664,-0.00469970703125,0.09710693359375,1.01873779296875,36.119998931884766,0.0,-71.0,3.648040771484375,-1.316436767578125,Closing,0.0,0.0,3.0,0.0,0.0,0.0,0.0,0.0,
1.00617,0.0,0.0,20724.0,4.5,-247.5,-634.9606275558472,0.0,0.25,4.697265144,3.9147002632978887,0.0,-26948.0,5.375,292.5,634.9606275558472,0.0,0.25,4.372558146,3.939716718786242,0.0,-567.0,3.625,-277.5,-634.9606275558472,0.0,0.0,2.304687264,3.9211680794016543,0.0,-32770.0,2.375,292.5,634.9606275558472,0.0,0.25,0.552978459,3.9351371017879933,0.0,1.409999966621399,-0.6299999952316284,-74.20999908447266,-0.09619140625,0.12567138671875,1.1263427734375,36.119998931884766,0.0,-116.0,3.6380157470703125,-1.314849853515625,Closing,0.0,0.0,3.0,0.0,0.0,0.0,0.0,0.0,
1.052741,0.0,0.0,20724.0,4.125,-337.5,-634.9606275558472,0.0,0.25,4.704589362,3.915933275874437,0.0,-26948.0,5.5,360.0,634.9606275558472,0.0,0.25,4.387206582,3.9409576107921622,0.04638671399999961,-567.0,4.0,-292.5,-634.9606275558472,0.0,0.0,2.304687264,3.922403129145307,0.0012207029999995456,-32770.0,2.375,330.0,634.9606275558472,0.0,0.25,0.557861271,3.936376551352609,0.0,1.559999942779541,-0.6700000166893005,-74.13999938964844,0.00738525390625,0.12261962890625,0.82000732421875,36.119998931884766,0.0,-91.0,3.6304931640625,-1.31390380859375,Closing,0.0,0.0,3.0,0.0,0.0,0.0,0.0,0.0,
1.1006219999999993,0.0,0.0,20724.0,3.625,-405.0,-634.9606275558472,0.0,0.25,4.696044441000001,3.916481316306689,0.0012207030000004337,-26875.0,5.0,420.0,634.9606275558472,0.0,0.25,4.40673783,3.9415091534156823,0.012207029999999897,-567.0,3.75,-337.5,-634.9606275558472,0.0,0.0,2.304687264,3.922952075042727,0.0,-32700.0,2.25,405.0,634.9606275558472,0.0,0.25,0.5664061920000001,3.936927452850344,0.009765624000000361,1.7999999523162842,-0.800000011920929,-74.08999633789062,-0.06390380859375,0.1014404296875,1.05462646484375,36.119998931884766,0.0,-78.0,3.622314453125,-1.3128509521484375,Closing,0.0,0.0,3.0,0.0,0.0,0.0,0.0,0.0,
1.1415349999999997,0.0,0.0,20651.0,3.125,-465.0,-634.9606275558472,0.0,0.25,4.702147956,3.9171663929790097,0.0,-26875.0,4.125,495.0,634.9606275558472,0.0,0.25,4.416503454,3.942198607994082,0.017089841999999855,-635.0,3.75,-405.0,-634.9606275558472,0.0,0.0,2.304687264,3.9236382835896837,0.0,-32700.0,1.875,495.0,634.9606275558472,0.0,0.25,0.576171816,3.937616105990942,0.0,1.809999942779541,-0.75,-74.16000366210938,0.019287109375,-0.0260009765625,0.48577880859375,36.119998931884766,0.0,46.0,3.601165771484375,-1.3098297119140625,Closing,0.0,0.0,3.0,0.0,0.0,0.0,0.0,0.0,
1.1929889999999996,0.0,0.0,20651.0,3.0,-517.5,0.0,0.0,0.25,4.696044441000001,3.9171663929790097,0.0,-26875.0,3.125,562.5,0.0,0.0,0.25,4.421386266,3.942198607994082,0.0,-635.0,3.5,-472.5,0.0,0.0,0.0,2.303466561,3.9236382835896837,0.0,-32614.0,1.625,510.0,0.0,0.0,0.25,0.5688475980000001,3.937616105990942,-0.0012207029999995456,1.9900000095367432,-0.8700000047683716,-74.11000061035156,-0.01458740234375,0.051513671875,1.34442138671875,36.119998931884766,0.0,-2.0,3.58758544921875,-1.3084259033203125,Closing,0.0,0.0,3.0,0.0,0.0,0.0,0.0,0.0,
1.258348,0.0,0.0,20564.0,0.375,-517.5,0.0,0.0,0.25,4.682616708,3.9171663929790097,-0.009765624000000805,-26784.0,0.0,495.0,0.0,0.0,0.125,4.426269078,3.942198607994082,0.003662109000000413,-704.0,0.0,-435.0,0.0,0.0,0.0,2.280273204,3.9236382835896837,-0.004882811999999959,-32614.0,0.0,450.0,0.0,0.0,0.25,0.57373041,3.937616105990942,0.0,1.7999999523162842,-0.8500000238418579,-74.12000274658203,-0.04296875,-0.20574951171875,1.17828369140625,36.119998931884766,0.0,226.0,3.569915771484375,-1.3080902099609375,Closing,0.0,0.0,3.0,0.0,0.0,0.0,0.0,0.0,
1.2915290000000004,0.0,0.0,20564.0,0.0,-465.0,0.0,0.0,0.25,4.676513193,3.9171663929790097,-0.009765624000000805,-26784.0,0.0,427.5,0.0,0.0,0.125,4.426269078,3.942198607994082,0.003662109000000413,-704.0,0.0,-360.0,0.0,0.0,0.0,2.2753903920000003,3.9236382835896837,-0.004882811999999959,-32614.0,0.0,412.5,0.0,0.0,0.25,0.5688475980000001,3.937616105990942,0.0,1.4700000286102295,-0.6000000238418579,-74.16000366210938,0.06951904296875,-0.23309326171875,0.77520751953125,36.119998931884766,0.0,264.0,3.5623321533203125,-1.3079681396484375,Closing,0.0,0.0,3.0,0.0,0.0,0.0,0.0,0.0,
1.3175519999999996,0.0,0.0,20564.0,0.0,-390.0,0.0,0.0,0.25,4.676513193,3.9171663929790097,-0.009765623999999917,-26784.0,0.0,375.0,0.0,0.0,0.125,4.425048375,3.942198607994082,0.0,-704.0,0.0,-285.0,0.0,0.0,0.0,2.280273204,3.9236382835896837,-0.019531247999999835,-32540.0,0.0,412.5,0.0,0.0,0.25,0.5688475980000001,3.937616105990942,0.0012207029999995456,1.4199999570846558,-0.6299999952316284,-74.19000244140625,0.02130126953125,0.01727294921875,1.13970947265625,36.119998931884766,0.0,19.0,3.5588836669921875,-1.3078765869140625,Closing,0.0,0.0,3.0,0.0,0.0,0.0,0.0,0.0,
1.3840190000000003,0.0,0.0,20500.0,0.0,-382.5,0.0,0.0,0.25,4.676513193,3.9171663929790097,0.0,-26716.0,0.0,450.0,0.0,0.0,0.125,4.425048375,3.942198607994082,0.0,-737.0,0.0,-195.0,0.0,0.0,0.0,2.286376719,3.9236382835896837,0.0,-32540.0,0.0,495.0,0.0,0.0,0.25,0.5676268950000001,3.937616105990942,-0.0012207029999995456,1.2100000381469727,-0.5400000214576721,-74.25,0.04168701171875,-0.121826171875,0.81378173828125,36.119998931884766,0.0,147.0,3.5463409423828125,-1.3078155517578125,Closing,0.0,0.0,3.0,0.0,0.0,0.0,0.0,0.0,
1.4059570000000003,0.0,0.0,20500.0,0.0,-435.0,0.0,0.0,0.25,4.669188975,3.9171663929790097,0.0,-26716.0,0.0,487.5,0.0,0.0,0.125,4.425048375,3.942198607994082,0.0,-737.0,0.0,-210.0,0.0,0.0,0.0,2.290038828,3.9236382835896837,0.0,-32540.0,0.0,457.5,0.0,0.0,0.25,0.5688475980000001,3.937616105990942,0.0,1.0800000429153442,-0.6499999761581421,-74.27999877929688,-0.09490966796875,-0.2513427734375,1.243408203125,36.119998931884766,0.0,242.0,3.5408935546875,-1.3079986572265625,Closing,0.0,0.0,3.0,0.0,0.0,0.0,0.0,0.0,
1.4551479999999992,0.0,0.0,20500.0,0.0,-427.5,0.0,0.0,0.25,4.689940926,3.9171663929790097,0.0,-26658.0,0.0,367.5,0.0,0.0,0.125,4.423827672,3.942198607994082,0.0012207029999995456,-737.0,0.0,-232.5,0.0,0.0,0.0,2.29492164,3.9236382835896837,0.004882811999999959,-32484.0,0.0,360.0,0.0,0.0,0.25,0.5688475980000001,3.937616105990942,0.0,0.7900000214576721,-0.5799999833106995,-74.2699966430664,0.0426025390625,-0.07635498046875,1.24188232421875,36.119998931884766,0.0,105.0,3.534515380859375,-1.3088226318359375,Closing,0.0,0.0,3.0,0.0,0.0,0.0,0.0,0.0,
1.494628999999999,0.0,0.0,20445.0,0.0,-337.5,0.0,0.0,0.25,4.691161629000001,3.9171663929790097,0.008544921000000372,-26658.0,0.0,352.5,0.0,0.0,0.125,4.425048375,3.942198607994082,0.0012207029999995456,-772.0,0.0,-210.0,0.0,0.0,0.0,2.29492164,3.9236382835896837,0.009765623999999917,-32484.0,0.0,345.0,0.0,0.0,0.25,0.5688475980000001,3.937616105990942,0.0,0.5799999833106995,-0.4699999988079071,-74.30999755859375,0.02862548828125,-0.14849853515625,0.733154296875,36.119998931884766,0.0,159.0,3.5292205810546875,-1.3093719482421875,Closing,0.0,0.0,3.0,0.0,0.0,0.0,0.0,0.0,
1.5303140000000004,0.0,0.0,20445.0,0.0,-315.0,0.0,0.0,0.25,4.694823738,3.9171663929790097,0.006103515000000392,-26658.0,0.0,345.0,0.0,0.0,0.125,4.426269078,3.942198607994082,-0.0012207029999995456,-772.0,0.0,-202.5,0.0,0.0,0.0,2.299804452,3.9236382835896837,0.0,-32484.0,0.0,315.0,0.0,0.0,0.25,0.5688475980000001,3.937616105990942,0.0,0.30000001192092896,-0.5099999904632568,-74.2699966430664,-0.00665283203125,-0.1240234375,1.00152587890625,36.119998931884766,0.0,125.0,3.5255279541015625,-1.309722900390625,Closing,0.0,0.0,3.0,0.0,0.0,0.0,0.0,0.0,
1.5776350000000001,0.0,0.0,20445.0,0.0,-262.5,0.0,0.0,0.25,4.702147956,3.9171663929790097,0.004882811999999959,-26624.0,0.0,225.0,0.0,0.0,0.125,4.427489781,3.942198607994082,0.0,-772.0,0.0,-210.0,0.0,0.0,0.0,2.299804452,3.9236382835896837,0.0012207030000004337,-32451.0,0.0,232.5,0.0,0.0,0.25,0.5688475980000001,3.937616105990942,0.0,0.1599999964237213,-0.49000000953674316,-74.22000122070312,0.009765625,-0.09332275390625,1.07232666015625,36.119998931884766,0.0,97.0,3.5239715576171875,-1.3100738525390625,Closing,0.0,0.0,3.0,0.0,0.0,0.0,0.0,0.0,
1.5957880000000004,0.0,0.0,20412.0,0.0,-262.5,0.0,0.0,0.25,4.69970655,3.9171663929790097,0.004882811999999959,-26624.0,0.0,195.0,0.0,0.0,0.125,4.425048375,3.942198607994082,0.0,-772.0,0.0,-210.0,0.0,0.0,0.0,2.299804452,3.9236382835896837,0.0012207030000004337,-32451.0,0.0,202.5,0.0,0.0,0.25,0.5688475980000001,3.937616105990942,0.0,0.07999999821186066,-0.5,-74.19999694824219,0.02001953125,-0.117431640625,1.113525390625,36.119998931884766,0.0,164.0,3.5230712890625,-1.3100738525390625,Closing,0.0,0.0,3.0,0.0,0.0,0.0,0.0,0.0,
1.6476990000000005,0.0,0.0,20412.0,0.0,-165.0,0.0,0.0,0.125,4.700927253000001,3.9171663929790097,0.004882811999999959,-26624.0,0.0,142.5,0.0,0.0,0.125,4.426269078,3.942198607994082,0.0,-798.0,0.0,-172.5,0.0,0.0,0.0,2.301025155,3.9236382835896837,0.003662108999999525,-32451.0,0.0,165.0,0.0,0.0,0.25,0.5688475980000001,3.937616105990942,0.0,-0.18000000715255737,-0.3700000047683716,-74.19999694824219,0.02325439453125,-0.162841796875,1.137451171875,36.119998931884766,0.0,161.0,3.5230255126953125,-1.30999755859375,Closing,0.0,0.0,3.0,0.0,0.0,0.0,0.0,0.0,
1.6721739999999992,0.0,0.0,20412.0,0.0,-127.5,0.0,0.0,0.125,4.69970655,3.9171663929790097,0.0,-26624.0,0.0,112.5,0.0,0.0,0.125,4.425048375,3.942198607994082,0.0012207029999995456,-798.0,0.0,-135.0,0.0,0.0,0.0,2.299804452,3.9236382835896837,0.0,-32451.0,0.0,135.0,0.0,0.0,0.25,0.5676268950000001,3.937616105990942,0.0,-0.3799999952316284,-0.3100000023841858,-74.19999694824219,0.047607421875,-0.12713623046875,0.8834228515625,36.119998931884766,0.0,130.0,3.5237274169921875,-1.309967041015625,Closing,0.0,0.0,3.0,0.0,0.0,0.0,0.0,0.0,
1.6933860000000005,0.0,0.0,20412.0,0.0,-90.0,0.0,0.0,0.125,4.700927253000001,3.9171663929790097,0.0,-26618.0,0.0,45.0,0.0,0.0,0.125,4.426269078,3.942198607994082,0.0012207029999995456,-798.0,0.0,-67.5,0.0,0.0,0.0,2.299804452,3.9236382835896837,0.0,-32442.0,0.0,60.0,0.0,0.0,0.25,0.5688475980000001,3.937616105990942,0.0,-0.4699999988079071,-0.30000001192092896,-74.20999908447266,-0.0191650390625,-0.0689697265625,1.14544677734375,36.119998931884766,0.0,53.0,3.524993896484375,-1.3098907470703125,Closing,0.0,0.0,3.0,0.0,0.0,0.0,0.0,0.0,
1.7261949999999997,0.0,0.0,20407.0,0.0,-30.0,0.0,0.0,0.125,4.700927253000001,3.9171663929790097,0.0,-26618.0,0.0,30.0,0.0,0.0,0.125,4.426269078,3.942198607994082,-0.0012207029999995456,-798.0,0.0,-37.5,0.0,0.0,0.0,2.299804452,3.9236382835896837,0.0,-32442.0,0.0,30.0,0.0,0.0,0.25,0.5688475980000001,3.937616105990942,0.0,-0.5099999904632568,-0.30000001192092896,-74.22000122070312,0.0040283203125,-0.04510498046875,0.91790771484375,36.119998931884766,0.0,38.0,3.5265655517578125,-1.30987548828125,Closing,0.0,0.0,3.0,0.0,0.0,0.0,0.0,0.0,
1.7526090000000003,0.0,0.0,20407.0,0.0,-15.0,0.0,0.0,0.125,4.69970655,3.9171663929790097,0.0,-26618.0,0.0,22.5,0.0,0.0,0.125,4.425048375,3.942198607994082,-0.0012207029999995456,-800.0,0.0,-7.5,0.0,0.0,0.0,2.299804452,3.9236382835896837,0.0,-32442.0,0.0,0.0,0.0,0.0,0.25,0.5688475980000001,3.937616105990942,0.0,-0.5600000023841858,-0.30000001192092896,-74.27999877929688,-0.01165771484375,-0.0068359375,1.110107421875,36.119998931884766,0.0,-5.0,3.528289794921875,-1.30987548828125,Closing,0.0,0.0,3.0,0.0,0.0,0.0,0.0,0.0,
1.775414999999999,0.0,0.0,20407.0,0.0,0.0,0.0,0.0,0.125,4.702147956,3.9171663929790097,-0.0012207030000004337,-26618.0,0.0,15.0,0.0,0.0,0.125,4.426269078,3.942198607994082,0.0,-800.0,0.0,0.0,0.0,0.0,0.0,2.299804452,3.9236382835896837,0.0,-32442.0,0.0,0.0,0.0,0.0,0.25,0.5688475980000001,3.937616105990942,0.0,-0.5699999928474426,-0.27000001072883606,-74.29000091552734,-8.544921875E-4,0.00115966796875,1.0057373046875,36.119998931884766,0.0,-9.0,3.528289794921875,-1.30987548828125,Closing,0.0,0.0,3.0,0.0,0.0,0.0,0.0,0.0,
1.7993690000000007,0.0,0.0,20407.0,0.0,0.0,0.0,0.0,0.125,4.700927253000001,3.9171663929790097,-0.0012207030000004337,-26618.0,0.0,0.0,0.0,0.0,0.125,4.425048375,3.942198607994082,0.0,-800.0,0.0,0.0,0.0,0.0,0.0,2.299804452,3.9236382835896837,0.0,-32442.0,0.0,0.0,0.0,0.0,0.25,0.5688475980000001,3.937616105990942,0.0,-0.5299999713897705,-0.2800000011920929,-74.33999633789062,-0.00726318359375,0.0111083984375,1.02899169921875,36.119998931884766,0.0,-20.0,3.528228759765625,-1.30987548828125,Closing,0.0,0.0,3.0,0.0,0.0,0.0,0.0,0.0,
1.844932999999999,0.0,0.0,20407.0,0.0,0.0,0.0,0.0,0.125,4.700927253000001,3.9171663929790097,0.0012207030000004337,-26618.0,0.0,0.0,0.0,0.0,0.125,4.426269078,3.942198607994082,0.0,-800.0,0.0,0.0,0.0,0.0,0.0,2.301025155,3.9236382835896837,0.0,-32442.0,0.0,0.0,0.0,0.0,0.25,0.5688475980000001,3.937616105990942,0.0,-0.5299999713897705,-0.27000001072883606,-74.3499984741211,0.00347900390625,0.01568603515625,0.9791259765625,36.119998931884766,0.0,-21.0,3.5281524658203125,-1.30987548828125,Closing,0.0,0.0,3.0,0.0,0.0,0.0,0.0,0.0,
1.8636599999999999,0.0,0.0,20407.0,0.0,0.0,0.0,0.0,0.125,4.700927253000001,3.9171663929790097,0.0,-26618.0,0.0,0.0,0.0,0.0,0.125,4.427489781,3.942198607994082,0.0,-800.0,0.0,0.0,0.0,0.0,0.0,2.299804452,3.9236382835896837,0.0,-32442.0,0.0,0.0,0.0,0.0,0.25,0.5688475980000001,3.937616105990942,0.0,-0.47999998927116394,-0.28999999165534973,-74.3499984741211,-0.02642822265625,0.02679443359375,1.0711669921875,36.130001068115234,0.0,-40.0,3.5278778076171875,-1.30987548828125,Closing,0.0,0.0,3.0,0.0,0.0,0.0,0.0,0.0,
1.9045100000000001,0.0,0.0,20407.0,0.0,0.0,0.0,0.0,0.125,4.700927253000001,3.9171663929790097,0.0,-26618.0,0.0,0.0,0.0,0.0,0.125,4.426269078,3.942198607994082,0.0,-800.0,0.0,0.0,0.0,0.0,0.0,2.299804452,3.9236382835896837,0.0,-32442.0,0.0,0.0,0.0,0.0,0.25,0.5688475980000001,3.937616105990942,0.0,-0.41999998688697815,-0.3199999928474426,-74.33999633789062,-0.01983642578125,0.0262451171875,1.03765869140625,36.130001068115234,0.0,-36.0,3.527130126953125,-1.30987548828125,Closing,0.0,0.0,3.0,0.0,0.0,0.0,0.0,0.0,
1.9290460000000003,0.0,0.0,20407.0,0.0,0.0,0.0,0.0,0.125,4.700927253000001,3.9171663929790097,-0.0012207030000004337,-26618.0,0.0,0.0,0.0,0.0,0.125,4.426269078,3.942198607994082,0.0,-800.0,0.0,0.0,0.0,0.0,0.0,2.305907967,3.9236382835896837,0.0,-32442.0,0.0,0.0,0.0,0.0,0.25,0.5688475980000001,3.937616105990942,0.0,-0.38999998569488525,-0.33000001311302185,-74.33000183105469,-0.01873779296875,0.03997802734375,1.0494384765625,36.130001068115234,0.0,-48.0,3.52679443359375,-1.30987548828125,Closing,0.0,0.0,3.0,0.0,0.0,0.0,0.0,0.0,
1.9715920000000005,0.0,0.0,20407.0,0.0,0.0,0.0,0.0,0.125,4.7058100650000005,3.9171663929790097,0.004882811999999959,-26618.0,0.0,0.0,0.0,0.0,0.125,4.426269078,3.942198607994082,0.0,-800.0,0.0,7.5,0.0,0.0,0.0,2.304687264,3.9236382835896837,0.004882811999999959,-32442.0,0.0,0.0,0.0,0.0,0.25,0.5688475980000001,3.937616105990942,0.0,-0.2800000011920929,-0.3400000035762787,-74.30999755859375,-0.0091552734375,0.08770751953125,1.031982421875,36.130001068115234,0.0,-90.0,3.525360107421875,-1.3098602294921875,Closing,0.0,0.0,3.0,0.0,0.0,0.0,0.0,0.0,
1.991083999999999,0.0,0.0,20407.0,0.0,0.0,0.0,0.0,0.125,4.7058100650000005,3.9171663929790097,0.004882811999999959,-26618.0,0.0,0.0,0.0,0.0,0.125,4.425048375,3.942198607994082,0.0,-797.0,0.0,15.0,0.0,0.0,0.0,2.304687264,3.9236382835896837,0.004882811999999959,-32442.0,0.0,0.0,0.0,0.0,0.25,0.5676268950000001,3.937616105990942,0.0,-0.23999999463558197,-0.3499999940395355,-74.30999755859375,-0.0115966796875,0.04925537109375,1.01885986328125,36.130001068115234,0.0,-53.0,3.5247039794921875,-1.309814453125,Closing,0.0,0.0,3.0,0.0,0.0,0.0,0.0,0.0,
2.0312119999999996,0.0,0.0,20407.0,0.0,0.0,0.0,0.0,0.125,4.7058100650000005,3.9171663929790097,0.0,-26618.0,0.0,0.0,0.0,0.0,0.125,4.426269078,3.942198607994082,0.0,-797.0,0.0,15.0,0.0,0.0,0.0,2.304687264,3.9236382835896837,0.0,-32442.0,0.0,0.0,0.0,0.0,0.25,0.5688475980000001,3.937616105990942,0.0,-0.1599999964237213,-0.3700000047683716,-74.33000183105469,-0.02020263671875,0.03057861328125,1.0360107421875,36.130001068115234,0.0,-35.0,3.5224151611328125,-1.3097686767578125,Closing,0.0,0.0,3.0,0.0,0.0,0.0,0.0,0.0,
2.051169,0.0,0.0,20407.0,0.0,0.0,0.0,0.0,0.125,4.7058100650000005,3.9171663929790097,0.0,-26618.0,0.0,0.0,0.0,0.0,0.125,4.426269078,3.942198607994082,0.0,-797.0,0.0,7.5,0.0,0.0,0.0,2.304687264,3.9236382835896837,0.0,-32442.0,0.0,0.0,0.0,0.0,0.25,0.5676268950000001,3.937616105990942,0.0,-0.14000000059604645,-0.3799999952316284,-74.33000183105469,-0.00408935546875,-0.0076904296875,1.00958251953125,36.130001068115234,0.0,5.0,3.5207061767578125,-1.3097686767578125,Closing,0.0,0.0,3.0,0.0,0.0,0.0,0.0,0.0,
2.1030969999999996,0.0,0.0,20407.0,0.0,0.0,-238.1102353334427,0.0,0.125,4.704589362,4.932250999999998,0.0012207030000004337,-26618.0,0.0,0.0,238.1102353334427,0.0,0.125,4.425048375,4.963769999999998,0.0,-797.0,0.125,0.0,-238.1102353334427,0.0,0.0,2.314452888,0.01,0.0,-32442.0,0.125,0.0,238.1102353334427,0.0,0.25,0.5676268950000001,0.01,0.0,-0.1599999964237213,-0.3799999952316284,-74.30999755859375,-0.0072021484375,-0.01434326171875,1.010986328125,36.130001068115234,0.0,10.0,3.5207061767578125,-1.3097686767578125,Closing,0.0,0.0,3.0,0.0,0.0,0.0,0.0,0.0,
2.1238809999999995,0.0,0.0,20407.0,0.125,0.0,-257.95276433229446,0.0,0.125,4.707030768,4.932250999999998,0.0,-26618.0,0.125,0.0,257.95276433229446,0.0,0.125,4.440917514000001,4.963769999999998,0.0,-797.0,0.125,0.0,-257.95276433229446,0.0,0.0,2.314452888,0.01,0.0,-32442.0,0.125,0.0,257.95276433229446,0.0,0.25,0.5932616580000001,0.01,0.0,-0.1599999964237213,-0.3799999952316284,-74.30999755859375,-0.00372314453125,-0.0113525390625,1.0155029296875,36.130001068115234,0.0,8.0,3.5207061767578125,-1.3097686767578125,Closing,0.0,0.0,3.0,0.0,0.0,0.0,0.0,0.0,
2.1507680000000002,0.0,0.0,20407.0,0.125,0.0,-257.95276433229446,0.0,4.375,4.788817869,4.932250999999998,0.0,-26618.0,0.25,0.0,257.95276433229446,0.0,8.25,4.606933122,4.963769999999998,0.021972653999999814,-797.0,0.125,0.0,-257.95276433229446,0.0,5.5,2.5415036460000002,0.01,0.0012207030000004337,-32442.0,0.375,0.0,257.95276433229446,0.0,7.375,0.8935545960000001,0.01,0.0,-0.17000000178813934,-0.36000001430511475,-74.30999755859375,-0.01123046875,0.02105712890625,1.01141357421875,36.130001068115234,0.0,-24.0,3.5206146240234375,-1.3097686767578125,Closing,0.0,0.0,3.0,0.0,0.0,0.0,0.0,0.0,
2.1878369999999996,0.0,0.0,20407.0,0.125,0.0,-257.95276433229446,0.0,6.375,0.092773428,4.932250999999998,0.26062061899999955,-26618.0,0.375,0.0,257.95276433229446,0.0,8.125,4.8632807520000005,4.963769999999998,0.31738278,-797.0,0.125,0.0,-257.95276433229446,0.0,6.25,2.706298551,0.01,0.29174801699999975,-32442.0,0.375,0.0,257.95276433229446,0.0,7.875,1.021728411,0.01,0.3100585619999996,-0.18000000715255737,-0.3700000047683716,-74.30999755859375,0.00579833984375,0.0687255859375,0.9635009765625,36.130001068115234,0.0,-65.0,3.520477294921875,-1.30975341796875,Closing,0.0,0.0,3.0,0.0,0.0,0.0,0.0,0.0,
2.2065589999999995,0.0,0.0,20405.0,0.125,0.0,-257.95276433229446,0.0,6.375,0.262451145,4.932250999999998,0.1171874879999999,-26618.0,0.375,0.0,257.95276433229446,0.0,3.375,0.068359368,4.963769999999998,0.14160154800000058,-797.0,0.125,-15.0,-257.95276433229446,0.0,2.875,2.857665723,0.01,0.13793943900000016,-32442.0,0.375,0.0,257.95276433229446,0.0,2.625,1.1889647220000001,0.01,0.0,-0.15000000596046448,-0.38999998569488525,-74.30999755859375,-0.03436279296875,-0.00146484375,0.98016357421875,36.130001068115234,0.0,-8.0,3.520294189453125,-1.309722900390625,Closing,0.0,0.0,3.0,0.0,0.0,0.0,0.0,0.0,
2.250262999999999,0.0,0.0,20405.0,0.125,-22.5,-257.95276433229446,0.0,1.25,0.5688475980000001,4.932250999999998,0.32348629500000037,-26618.0,0.75,0.0,257.95276433229446,0.0,1.0,0.357665979,4.963769999999998,-4.637450697,-806.0,0.125,-52.5,-257.95276433229446,0.0,1.125,3.172607097,0.01,0.3186034830000004,-32442.0,0.5,-22.5,257.95276433229446,0.0,1.0,1.4807127390000001,0.01,0.0,-0.07999999821186066,-0.4699999988079071,-74.2699966430664,-0.01251220703125,0.08734130859375,1.01312255859375,36.130001068115234,0.0,-86.0,3.5192718505859375,-1.3099822998046875,Closing,0.0,0.0,3.0,0.0,0.0,0.0,0.0,0.0,
2.2942649999999993,0.0,0.0,20405.0,0.125,-60.0,-257.95276433229446,0.0,0.75,0.819091713,4.932250999999998,0.16479490499999994,-26618.0,1.25,0.0,257.95276433229446,0.0,0.5,0.5175780720000001,4.963769999999998,0.13427732999999975,-806.0,0.125,-97.5,-257.95276433229446,0.0,0.5,3.3776852010000002,0.01,0.0,-32444.0,0.5,-22.5,257.95276433229446,0.0,0.375,1.640624832,0.01,0.14770506300000008,0.009999999776482582,-0.5099999904632568,-74.23999786376953,-0.04302978515625,0.00701904296875,1.07574462890625,36.130001068115234,0.0,-15.0,3.5176239013671875,-1.310394287109375,Closing,0.0,0.0,3.0,0.0,0.0,0.0,0.0,0.0,
2.3218950000000005,0.0,0.0,20387.0,0.125,-90.0,-277.79527455568314,0.0,0.75,0.885009675,4.932250999999998,0.0,-26618.0,1.25,0.0,277.79527455568314,0.0,0.125,0.552978459,4.963769999999998,0.0,-806.0,0.125,-105.0,-277.79527455568314,0.0,0.375,3.394775043,0.01,0.0,-32444.0,0.5,0.0,277.79527455568314,0.0,0.25,1.668701001,0.01,0.0,-0.029999999329447746,-0.5400000214576721,-74.19999694824219,-0.0322265625,-0.06884765625,0.9935302734375,36.130001068115234,0.0,59.0,3.5176544189453125,-1.3108673095703125,Closing,0.0,0.0,3.0,0.0,0.0,0.0,0.0,0.0,
2.352268,0.0,0.0,20387.0,0.125,-112.5,-317.4803137779236,0.0,0.375,0.9191893590000001,4.932250999999998,0.05615233800000008,-26618.0,1.25,0.0,317.4803137779236,0.0,0.125,0.574951113,4.963769999999998,0.03295898099999928,-822.0,0.125,-97.5,-317.4803137779236,0.0,0.125,3.40576137,0.01,0.023193356999999803,-32444.0,0.75,7.5,317.4803137779236,0.0,0.25,1.6833494370000002,0.01,0.0,-0.09000000357627869,-0.5699999928474426,-74.16000366210938,-0.00970458984375,-0.06097412109375,1.028564453125,36.130001068115234,0.0,57.0,3.5179595947265625,-1.3115081787109375,Closing,0.0,0.0,3.0,0.0,0.0,0.0,0.0,0.0,
2.389411,0.0,0.0,20387.0,0.125,-120.0,-377.00788199901575,0.0,0.25,0.917968656,4.932250999999998,0.017089841999999966,-26618.0,1.875,15.0,377.00788199901575,0.0,0.25,0.574951113,4.963769999999998,0.02075195100000027,-822.0,0.375,-90.0,-377.00788199901575,0.0,0.125,3.40576137,0.01,0.004882811999999959,-32444.0,0.875,37.5,377.00788199901575,0.0,0.25,1.6809080310000002,0.01,0.010986327000000129,-0.14000000059604645,-0.5899999737739563,-74.13999938964844,-0.027099609375,8.544921875E-4,1.05560302734375,36.130001068115234,0.0,-7.0,3.5184326171875,-1.311859130859375,Closing,0.0,0.0,3.0,0.0,0.0,0.0,0.0,0.0,
2.4087649999999994,0.0,0.0,20387.0,0.125,-105.0,-436.53545022010803,0.0,0.25,0.899658111,4.932250999999998,-0.010986327000000018,-26618.0,2.125,30.0,436.53545022010803,0.0,0.25,0.5664061920000001,4.963769999999998,-0.004882811999999959,-822.0,0.625,-82.5,-436.53545022010803,0.0,0.125,3.399657855,0.01,-0.004882811999999959,-32435.0,0.875,45.0,436.53545022010803,0.0,0.25,1.6638181890000001,0.01,0.0,-0.11999999731779099,-0.6399999856948853,-74.18000030517578,-0.0386962890625,0.0184326171875,1.01092529296875,36.130001068115234,0.0,-27.0,3.518402099609375,-1.3119354248046875,Closing,0.0,0.0,3.0,0.0,0.0,0.0,0.0,0.0,
2.4322260000000004,0.0,0.0,20387.0,0.625,-82.5,-555.5905491113663,0.0,0.25,0.8837889720000001,4.932250999999998,-0.013427732999999997,-26608.0,2.875,67.5,555.5905491113663,0.0,0.25,0.5566405680000001,4.963769999999998,-0.008544921000000372,-822.0,0.875,-82.5,-555.5905491113663,0.0,0.125,3.391112934,0.01,-0.004882811999999959,-32435.0,1.25,60.0,555.5905491113663,0.0,0.25,1.6552732680000002,0.01,-0.008544920999999928,-0.10999999940395355,-0.6399999856948853,-74.19999694824219,-0.0284423828125,0.0570068359375,0.97491455078125,36.130001068115234,0.0,-61.0,3.518310546875,-1.31201171875,Closing,0.0,0.0,3.0,0.0,0.0,0.0,0.0,0.0,
2.457114,0.0,0.0,20374.0,1.0,-75.0,-615.1181173324585,0.0,0.25,0.8703612390000001,4.932250999999998,-0.015869138999999977,-26608.0,2.875,82.5,615.1181173324585,0.0,0.25,0.5541991620000001,4.963769999999998,-0.004882811999999959,-837.0,1.25,-82.5,-615.1181173324585,0.0,0.125,3.386230122,0.01,-0.004882811999999959,-32435.0,1.5,75.0,615.1181173324585,0.0,0.25,1.644286941,0.01,0.0,-0.05999999865889549,-0.7300000190734863,-74.26000213623047,-0.1240234375,0.0274658203125,1.0865478515625,36.130001068115234,0.0,-57.0,3.517913818359375,-1.312286376953125,Closing,0.0,0.0,3.0,0.0,0.0,0.0,0.0,0.0,
2.487439,0.0,0.0,20374.0,2.625,-90.0,-634.9606275558472,0.0,0.25,0.886230378,4.932250999999998,-0.008544921000000039,-26608.0,4.5,105.0,634.9606275558472,0.0,0.25,0.5419921320000001,4.963769999999998,-0.01586913899999942,-837.0,2.125,-90.0,-634.9606275558472,0.0,0.125,3.386230122,0.01,-0.004882811999999959,-32435.0,2.0,82.5,634.9606275558472,0.0,0.25,1.6333006140000002,0.01,-0.00976562400000014,-0.05999999865889549,-0.8700000047683716,-74.26000213623047,-0.1627197265625,-0.01507568359375,0.95257568359375,36.130001068115234,0.0,-26.0,3.517242431640625,-1.3130340576171875,Closing,0.0,0.0,3.0,0.0,0.0,0.0,0.0,0.0,
2.510664999999999,0.0,0.0,20374.0,3.125,-112.5,-634.9606275558472,0.0,0.25,0.8557128030000001,4.932250999999998,-0.003662108999999969,-26608.0,5.875,120.0,634.9606275558472,0.0,0.25,0.53710932,4.963769999999998,0.0,-837.0,2.625,-120.0,-634.9606275558472,0.0,0.125,3.395995746,0.01,0.0,-32435.0,2.75,120.0,634.9606275558472,0.0,0.25,1.6357420200000001,0.01,0.0,-0.07999999821186066,-1.100000023841858,-74.2300033569336,-0.174072265625,-0.08038330078125,1.078125,36.130001068115234,0.0,34.0,3.516448974609375,-1.3145751953125,Closing,0.0,0.0,3.0,0.0,0.0,0.0,0.0,0.0,
2.5362889999999987,0.0,0.0,20374.0,3.5,-135.0,-634.9606275558472,0.0,0.25,0.847167882,4.932250999999998,-0.006103514999999948,-26578.0,7.25,172.5,634.9606275558472,0.0,0.25,0.53710932,4.963769999999998,-0.004882811999999959,-837.0,2.75,-172.5,-634.9606275558472,0.0,0.125,3.403319964,0.01,0.004882811999999959,-32409.0,3.0,180.0,634.9606275558472,0.0,0.125,1.6345213170000001,0.01,0.0,-0.14000000059604645,-1.2599999904632568,-74.2300033569336,-0.15484619140625,-0.04144287109375,0.9683837890625,36.130001068115234,0.0,1.0,3.5151824951171875,-1.318267822265625,Closing,0.0,0.0,3.0,0.0,0.0,0.0,0.0,0.0,
2.582950999999999,0.0,0.0,20341.0,3.75,-187.5,-634.9606275558472,0.0,0.25,0.8422850700000001,4.932250999999998,-0.008544921000000039,-26578.0,7.0,202.5,634.9606275558472,0.0,0.25,0.522460884,4.963769999999998,-0.004882811999999959,-875.0,2.75,-210.0,-634.9606275558472,0.0,0.125,3.4130855880000004,0.01,0.014648435999999876,-32409.0,3.0,202.5,634.9606275558472,0.0,0.125,1.6345213170000001,0.01,0.0,-0.11999999731779099,-1.440000057220459,-74.22000122070312,-0.15191650390625,0.0537109375,1.1497802734375,36.130001068115234,0.0,-87.0,3.514678955078125,-1.3198089599609375,Closing,0.0,0.0,3.0,0.0,0.0,0.0,0.0,0.0,
2.603458999999999,0.0,0.0,20341.0,3.75,-225.0,-634.9606275558472,0.0,0.25,0.8410643670000001,4.932250999999998,-0.004882811999999959,-26578.0,6.75,232.5,634.9606275558472,0.0,0.25,0.5175780720000001,4.963769999999998,-0.01342773300000033,-875.0,3.0,-232.5,-634.9606275558472,0.0,0.125,3.409423479,0.01,0.0,-32409.0,3.0,232.5,634.9606275558472,0.0,0.125,1.6345213170000001,0.01,0.0,-0.10999999940395355,-1.5,-74.20999908447266,-0.1343994140625,0.03900146484375,0.9859619140625,36.130001068115234,0.0,-69.0,3.514068603515625,-1.32147216796875,Closing,0.0,0.0,3.0,0.0,0.0,0.0,0.0,0.0,
2.6436610000000003,0.0,0.0,20341.0,3.5,-300.0,-634.9606275558472,0.0,0.25,0.834960852,4.932250999999998,0.0,-26578.0,6.5,300.0,634.9606275558472,0.0,0.125,0.5175780720000001,4.963769999999998,-0.0012207029999995456,-875.0,3.125,-292.5,-634.9606275558472,0.0,0.125,3.409423479,0.01,0.0,-32356.0,3.125,292.5,634.9606275558472,0.0,0.125,1.6345213170000001,0.01,0.0,-0.10000000149011612,-1.7000000476837158,-74.16000366210938,-0.09423828125,0.03240966796875,1.05322265625,36.130001068115234,0.0,-50.0,3.51336669921875,-1.327301025390625,Closing,0.0,0.0,3.0,0.0,0.0,0.0,0.0,0.0,
2.663411,0.0,0.0,20341.0,3.375,-337.5,-634.9606275558472,0.0,0.25,0.839843664,4.932250999999998,-0.0012207029999999897,-26518.0,6.375,337.5,634.9606275558472,0.0,0.125,0.5175780720000001,4.963769999999998,0.0,-875.0,3.125,-330.0,-634.9606275558472,0.0,0.125,3.409423479,0.01,0.0,-32356.0,3.125,322.5,634.9606275558472,0.0,0.125,1.6345213170000001,0.01,0.0,-0.10999999940395355,-1.7200000286102295,-74.16000366210938,-0.10577392578125,-0.03167724609375,0.95831298828125,36.130001068115234,0.0,7.0,3.5132904052734375,-1.3294525146484375,Closing,0.0,0.0,3.0,0.0,0.0,0.0,0.0,0.0,
2.6878269999999995,0.0,0.0,20276.0,3.25,-367.5,-634.9606275558472,0.0,0.25,0.837402258,4.932250999999998,0.0,-26518.0,6.375,367.5,634.9606275558472,0.0,0.125,0.5175780720000001,4.963769999999998,0.0012207029999995456,-875.0,3.0,-345.0,-634.9606275558472,0.0,0.125,3.409423479,0.01,0.0,-32356.0,3.0,352.5,634.9606275558472,0.0,0.125,1.6345213170000001,0.01,-0.0012207029999999897,-0.07999999821186066,-1.840000033378601,-74.16999816894531,-0.09075927734375,0.0081787109375,1.12005615234375,36.130001068115234,0.0,-24.0,3.51300048828125,-1.33404541015625,Closing,0.0,0.0,3.0,0.0,0.0,0.0,0.0,0.0,
2.7101630000000005,0.0,0.0,20276.0,3.25,-397.5,-634.9606275558472,0.0,0.25,0.836181555,4.932250999999998,0.0012207029999999897,-26518.0,6.25,397.5,634.9606275558472,0.0,0.125,0.5175780720000001,4.963769999999998,-0.0012207029999995456,-933.0,2.875,-360.0,-634.9606275558472,0.0,0.125,3.404540667,0.01,0.0,-32356.0,2.875,390.0,634.9606275558472,0.0,0.125,1.6357420200000001,0.01,0.0,-0.10999999940395355,-1.9700000286102295,-74.20999908447266,-0.1519775390625,0.0433349609375,0.89178466796875,36.130001068115234,0.0,-76.0,3.51251220703125,-1.3391265869140625,Closing,0.0,0.0,3.0,0.0,0.0,0.0,0.0,0.0,
2.732959999999999,0.0,0.0,20276.0,3.125,-420.0,-634.9606275558472,0.0,0.25,0.837402258,4.932250999999998,0.0,-26518.0,5.625,465.0,634.9606275558472,0.0,0.125,0.521240181,4.963769999999998,0.0,-933.0,3.0,-367.5,-634.9606275558472,0.0,0.125,3.410644182,0.01,0.0,-32356.0,2.875,427.5,634.9606275558472,0.0,0.125,1.6357420200000001,0.01,0.0,-0.10999999940395355,-2.009999990463257,-74.23999786376953,-0.09259033203125,-0.05987548828125,0.975830078125,36.130001068115234,0.0,39.0,3.5121917724609375,-1.3418731689453125,Closing,0.0,0.0,3.0,0.0,0.0,0.0,0.0,0.0,
2.769281999999999,0.0,0.0,20276.0,2.875,-465.0,-634.9606275558472,0.0,0.25,0.837402258,4.932250999999998,0.0,-26518.0,5.375,495.0,634.9606275558472,0.0,0.125,0.5175780720000001,4.963769999999998,0.0,-933.0,3.125,-412.5,-634.9606275558472,0.0,0.125,3.395995746,0.01,0.0,-32279.0,2.875,465.0,634.9606275558472,0.0,0.125,1.6357420200000001,0.01,0.0,-0.10999999940395355,-2.0799999237060547,-74.2300033569336,-0.07403564453125,-0.01544189453125,1.01312255859375,36.130001068115234,0.0,2.0,3.511566162109375,-1.3504486083984375,Closing,0.0,0.0,3.0,0.0,0.0,0.0,0.0,0.0,
2.791977999999999,0.0,0.0,20276.0,2.75,-495.0,-634.9606275558472,0.0,0.25,0.836181555,4.932250999999998,0.0,-26430.0,5.125,525.0,634.9606275558472,0.0,0.125,0.5175780720000001,4.963769999999998,0.0012207029999995456,-933.0,3.125,-450.0,-634.9606275558472,0.0,0.125,3.394775043,0.01,-0.004882811999999959,-32279.0,2.875,480.0,634.9606275558472,0.0,0.125,1.6369627230000001,0.01,0.0,-0.10000000149011612,-2.119999885559082,-74.20999908447266,-0.11773681640625,0.01239013671875,1.06585693359375,36.130001068115234,0.0,-34.0,3.51153564453125,-1.3534393310546875,Closing,0.0,0.0,3.0,0.0,0.0,0.0,0.0,0.0,
2.8133979999999994,0.0,0.0,20190.0,2.75,-517.5,-634.9606275558472,0.0,0.25,0.839843664,4.932250999999998,-0.0012207029999999897,-26430.0,4.75,562.5,634.9606275558472,0.0,0.125,0.5175780720000001,4.963769999999998,0.0,-1018.0,2.875,-487.5,-634.9606275558472,0.0,0.125,3.388671528,0.01,0.0,-32279.0,2.625,502.5,634.9606275558472,0.0,0.125,1.6345213170000001,0.01,0.0,-0.10999999940395355,-2.140000104904175,-74.1500015258789,-0.03167724609375,-0.04302978515625,0.9296875,36.130001068115234,0.0,40.0,3.5115203857421875,-1.3597259521484375,Closing,0.0,0.0,3.0,0.0,0.0,0.0,0.0,0.0,
2.847242,0.0,0.0,20190.0,2.5,-570.0,-634.9606275558472,0.0,0.25,0.837402258,4.932250999999998,0.0012207029999999897,-26430.0,4.375,577.5,634.9606275558472,0.0,0.125,0.5175780720000001,4.963769999999998,-0.0012207029999995456,-1018.0,2.75,-517.5,-634.9606275558472,0.0,0.125,3.386230122,0.01,-0.007324217999999938,-32279.0,2.375,532.5,634.9606275558472,0.0,0.125,1.6345213170000001,0.01,-0.0012207029999999897,-0.10999999940395355,-2.1700000762939453,-74.13999938964844,-0.0296630859375,0.0030517578125,0.96728515625,36.130001068115234,0.0,-2.0,3.5115509033203125,-1.3628997802734375,Closing,0.0,0.0,3.0,0.0,0.0,0.0,0.0,0.0,
2.868821,0.0,0.0,20190.0,2.375,-585.0,-634.9606275558472,0.0,0.25,0.833740149,4.932250999999998,0.0,-26430.0,4.125,592.5,634.9606275558472,0.0,0.125,0.521240181,4.963769999999998,0.0,-1018.0,2.625,-562.5,-634.9606275558472,0.0,0.125,3.386230122,0.01,0.0,-32179.0,2.375,615.0,634.9606275558472,0.0,0.125,1.6345213170000001,0.01,0.0,-0.05000000074505806,-2.2100000381469727,-74.08000183105469,-0.05596923828125,-0.018310546875,0.9586181640625,36.11000061035156,0.0,11.0,3.51171875,-1.363250732421875,Closing,0.0,0.0,3.0,0.0,0.0,0.0,0.0,0.0,
2.910713,0.0,0.0,20190.0,2.0,-622.5,-634.9606275558472,0.0,0.25,0.836181555,4.932250999999998,0.0,-26327.0,3.75,622.5,634.9606275558472,0.0,0.125,0.5175780720000001,4.963769999999998,-0.0012207029999995456,-1018.0,2.625,-600.0,-634.9606275558472,0.0,0.125,3.38134731,0.01,0.0,-32179.0,2.0,630.0,634.9606275558472,0.0,0.125,1.6345213170000001,0.01,0.0,-0.029999999329447746,-2.2699999809265137,-74.05999755859375,-0.0887451171875,0.067138671875,1.17144775390625,36.11000061035156,0.0,-76.0,3.5116729736328125,-1.36346435546875,Closing,0.0,0.0,3.0,0.0,0.0,0.0,0.0,0.0,
2.9333379999999996,0.0,0.0,20086.0,1.875,-637.5,-634.9606275558472,0.0,0.25,0.837402258,4.932250999999998,0.0012207029999999897,-26327.0,3.5,645.0,634.9606275558472,0.0,0.125,0.5175780720000001,4.963769999999998,0.0012207029999995456,-1119.0,2.125,-615.0,-634.9606275558472,0.0,0.125,3.3752437950000003,0.01,-0.004882811999999959,-32179.0,1.875,630.0,634.9606275558472,0.0,0.125,1.6345213170000001,0.01,0.0,-0.03999999910593033,-2.2699999809265137,-74.02999877929688,-0.031982421875,0.01171875,1.00140380859375,36.11000061035156,0.0,-9.0,3.5113372802734375,-1.3643341064453125,Closing,0.0,0.0,3.0,0.0,0.0,0.0,0.0,0.0,
2.979661,0.0,0.0,20086.0,1.625,-652.5,-634.9606275558472,0.0,0.25,0.838622961,4.932250999999998,-0.0012207029999999897,-26327.0,3.0,667.5,634.9606275558472,0.0,0.125,0.5175780720000001,4.963769999999998,-0.0012207029999995456,-1119.0,2.125,-637.5,-634.9606275558472,0.0,0.125,3.3764644980000003,0.01,0.0,-32179.0,1.875,637.5,634.9606275558472,0.0,0.125,1.6345213170000001,0.01,0.0,-0.019999999552965164,-2.25,-74.0199966430664,-0.08251953125,0.00787353515625,1.09906005859375,36.11000061035156,0.0,-18.0,3.5113372802734375,-1.3646697998046875,Closing,0.0,0.0,3.0,0.0,0.0,0.0,0.0,0.0,
2.997125,0.0,0.0,20086.0,1.375,-660.0,-634.9606275558472,0.0,0.25,0.836181555,4.932250999999998,0.0012207029999999897,-26327.0,2.875,675.0,634.9606275558472,0.0,0.125,0.52490229,4.963769999999998,0.0012207029999995456,-1119.0,1.875,-645.0,-634.9606275558472,0.0,0.125,3.3715816860000003,0.01,0.0,-32179.0,1.875,645.0,634.9606275558472,0.0,0.125,1.6333006140000002,0.01,0.0,-0.009999999776482582,-2.240000009536743,-73.98999786376953,0.0443115234375,0.0447998046875,1.03350830078125,36.11000061035156,0.0,-19.0,3.5111236572265625,-1.365325927734375,Closing,0.0,0.0,3.0,0.0,0.0,0.0,0.0,0.0,
3.0428040000000003,0.0,0.0,19974.0,1.0,-682.5,-782.8571767130537,0.0,0.25,0.833740149,0.11799729856823328,0.0,-26217.0,2.5,690.0,509.5610027223707,0.0,0.125,0.518798775,0.1833986284541739,0.0024414059999999793,-1119.0,1.875,-667.5,-782.8571767130537,0.0,0.0,3.3715816860000003,4.822207747852553,0.0,-32071.0,1.625,660.0,509.5610027223707,0.0,0.125,1.6345213170000001,4.774814558314387,-0.0012207029999999897,-0.019999999552965164,-2.200000047683716,-73.93000030517578,0.0654296875,0.03509521484375,0.927734375,36.11000061035156,0.0,-6.0,3.5105438232421875,-1.3656158447265625,Closing,0.0,0.0,3.0,0.0,0.0,0.0,0.0,0.0,
3.0666369999999987,0.0,0.0,19974.0,1.375,-690.0,-811.2335126345157,0.0,0.25,0.837402258,0.13472770264421216,0.0,-26217.0,2.25,690.0,490.5775534421379,0.0,0.125,0.523681587,0.22619204893596268,0.0,-1231.0,2.125,-682.5,-811.2335126345157,0.0,0.0,3.3764644980000003,4.805449702023789,0.0,-32071.0,1.5,660.0,490.5775534421379,0.0,0.125,1.6296385050000002,4.73207088188524,0.0,0.0,-2.2300000190734863,-73.87999725341797,-0.0416259765625,0.036376953125,1.247314453125,36.11000061035156,0.0,-33.0,3.510162353515625,-1.36553955078125,Closing,0.0,0.0,3.0,0.0,0.0,0.0,0.0,0.0,
3.0905560000000003,0.0,0.0,19974.0,2.25,-712.5,-839.9533494605331,0.0,0.25,0.837402258,0.15032069559602781,-0.0012207029999999897,-26217.0,1.375,690.0,473.1465108669311,0.0,0.25,0.5419921320000001,0.27228256149903407,0.007324217999999938,-1231.0,2.375,-690.0,-839.9533494605331,0.0,0.125,3.3764644980000003,4.789830946534835,0.004882811999999959,-32071.0,1.125,667.5,473.1465108669311,0.0,0.25,1.6052244450000002,4.686033945990203,4.947013673,0.0,-2.200000047683716,-73.83999633789062,0.03997802734375,0.010498046875,1.12005615234375,36.11000061035156,0.0,12.0,3.50994873046875,-1.365478515625,Closing,0.0,0.0,3.0,0.0,0.0,0.0,0.0,0.0,
3.112777,0.0,0.0,19974.0,2.25,-727.5,-868.9826159877462,0.0,0.25,0.852050694,0.1648773107934368,0.006103515000000059,-26217.0,1.125,682.5,457.4453806779884,0.0,0.5,0.599365173,0.3217155421078581,0.0,-1231.0,3.0,-712.5,-868.9826159877462,0.0,0.125,3.35693325,4.775250281089933,0.0,-31964.0,0.75,667.5,457.4453806779884,0.0,0.5,1.572265464,4.636658427410867,0.0,-0.009999999776482582,-2.190000057220459,-73.7699966430664,-0.0538330078125,-0.0599365234375,0.997314453125,36.11000061035156,0.0,52.0,3.5096588134765625,-1.3652191162109375,Closing,0.0,0.0,3.0,0.0,0.0,0.0,0.0,0.0,
3.1688500000000004,0.0,0.0,19854.0,2.75,-727.5,-868.9826159877462,0.0,0.25,0.877685457,0.1648773107934368,0.024414059999999904,-26111.0,0.75,667.5,457.4453806779884,0.0,0.25,0.693359304,0.3217155421078581,0.0,-1231.0,3.125,-727.5,-868.9826159877462,0.0,0.25,3.299560209,4.775250281089933,0.0,-31964.0,0.75,652.5,457.4453806779884,0.0,0.5,1.456298679,4.636658427410867,0.0,0.0,-2.0899999141693115,-73.58000183105469,-0.00909423828125,-0.0614013671875,0.8333740234375,36.11000061035156,0.0,64.0,3.50933837890625,-1.364990234375,Closing,0.0,0.0,3.0,0.0,0.0,0.0,0.0,0.0,
3.1885879999999998,0.0,0.0,19854.0,2.75,-742.5,-868.9826159877462,0.0,0.25,0.8959960020000001,0.1648773107934368,0.032958981000000054,-26111.0,0.75,652.5,457.4453806779884,0.0,0.5,0.729980394,0.3217155421078581,0.10742186399999998,-1348.0,3.125,-727.5,-868.9826159877462,0.0,0.25,3.280028961,4.775250281089933,-0.05981444699999994,-31964.0,0.75,637.5,457.4453806779884,0.0,0.25,1.417236183,4.636658427410867,-0.12329100300000029,0.0,-2.0999999046325684,-73.47000122070312,0.01031494140625,-0.09759521484375,0.95550537109375,36.11000061035156,0.0,106.0,3.5093231201171875,-1.3649444580078125,Closing,0.0,0.0,3.0,0.0,0.0,0.0,0.0,0.0,
3.2078629999999992,0.0,0.0,19854.0,2.75,-750.0,-868.9826159877462,0.0,0.25,0.9204100620000001,0.1648773107934368,0.012207030000000008,-26111.0,0.75,645.0,457.4453806779884,0.0,0.25,0.770263593,0.3217155421078581,0.029296871999999752,-1348.0,3.125,-727.5,-868.9826159877462,0.0,0.25,3.2604977130000004,4.775250281089933,-0.021972653999999814,-31964.0,0.75,637.5,457.4453806779884,0.0,0.25,1.3745115780000001,4.636658427410867,-0.035400387000000144,-0.019999999552965164,-2.119999885559082,-73.31999969482422,-0.03143310546875,-0.025390625,1.0181884765625,36.11000061035156,0.0,25.0,3.5093994140625,-1.3649444580078125,Closing,0.0,0.0,3.0,0.0,0.0,0.0,0.0,0.0,
3.2443680000000006,0.0,0.0,19854.0,2.5,-795.0,-868.9826159877462,0.0,0.375,0.950927637,0.1648773107934368,0.026855465999999995,-26111.0,0.75,622.5,457.4453806779884,0.0,0.25,0.821533119,0.3217155421078581,0.05493163499999998,-1348.0,3.125,-750.0,-868.9826159877462,0.0,0.125,3.2116695930000003,4.775250281089933,-0.035400387000000144,-31889.0,0.875,547.5,457.4453806779884,0.0,0.25,1.3171385370000002,4.636658427410867,-0.06835936799999942,-0.009999999776482582,-1.9700000286102295,-72.52999877929688,-0.0101318359375,-0.0018310546875,0.844970703125,36.11000061035156,0.0,7.0,3.5094757080078125,-1.3645782470703125,Closing,0.0,0.0,3.0,0.0,0.0,0.0,0.0,0.0,
3.269536,0.0,0.0,19854.0,2.25,-817.5,-868.9826159877462,0.0,0.375,0.9704588850000001,0.1648773107934368,0.019531248000000057,-26015.0,0.75,607.5,457.4453806779884,0.0,0.25,0.833740149,0.3217155421078581,0.0,-1348.0,2.75,-810.0,-868.9826159877462,0.0,0.125,3.192138345,4.775250281089933,0.0,-31889.0,1.125,465.0,457.4453806779884,0.0,0.125,1.284179556,4.636658427410867,0.0,-0.009999999776482582,-1.940000057220459,-71.70999908447266,0.02197265625,0.06634521484375,0.956298828125,36.11000061035156,0.0,-46.0,3.509368896484375,-1.363983154296875,Closing,0.0,0.0,3.0,0.0,0.0,0.0,0.0,0.0,
3.3086540000000007,0.0,0.0,19716.0,1.625,-877.5,-868.9826159877462,0.0,0.125,0.9753416970000001,0.1648773107934368,0.025634762999999894,-26015.0,0.875,562.5,457.4453806779884,0.0,0.0,0.8435057730000001,0.3217155421078581,0.014648435999999876,-1489.0,2.625,-847.5,-868.9826159877462,0.0,0.125,3.177489909,4.775250281089933,-0.024414059999999793,-31889.0,1.125,450.0,457.4453806779884,0.0,0.125,1.273193229,4.636658427410867,-0.03173827799999973,0.05000000074505806,-1.850000023841858,-70.75,-0.0166015625,-0.05914306640625,1.08587646484375,36.11000061035156,0.0,62.0,3.508941650390625,-1.362945556640625,Closing,0.0,0.0,3.0,0.0,0.0,0.0,0.0,0.0,
3.330866,0.0,0.0,19716.0,1.375,-900.0,-868.9826159877462,0.0,0.125,0.9851073210000001,0.1648773107934368,0.0,-26015.0,0.875,532.5,457.4453806779884,0.0,0.125,0.8532713970000001,0.3217155421078581,0.004882811999999959,-1489.0,2.375,-877.5,-868.9826159877462,0.0,0.125,3.177489909,4.775250281089933,0.0,-31889.0,1.125,465.0,457.4453806779884,0.0,0.125,1.2707518230000001,4.636658427410867,-0.004882811999999959,0.029999999329447746,-1.899999976158142,-69.72000122070312,-0.006103515625,0.0457763671875,1.0001220703125,36.11000061035156,0.0,-32.0,3.5084381103515625,-1.3617095947265625,Closing,0.0,0.0,3.0,0.0,0.0,0.0,0.0,0.0,
3.372538999999999,0.0,0.0,19716.0,1.0,-945.0,-883.6038001093918,0.0,0.125,0.9851073210000001,0.17179577265727938,0.0,-25937.0,1.125,487.5,450.30084741765546,0.0,0.125,0.8679198330000001,0.34767378030584817,0.0,-1489.0,1.5,-930.0,-883.6038001093918,0.0,0.0,3.177489909,4.768320388634718,0.0,-31793.0,0.75,577.5,450.30084741765546,0.0,0.125,1.260986199,4.610730363663829,0.0,0.09000000357627869,-1.8600000143051147,-68.19000244140625,0.0106201171875,0.06219482421875,1.24517822265625,36.11000061035156,0.0,-36.0,3.5073699951171875,-1.359375,Closing,0.0,0.0,3.0,0.0,0.0,0.0,0.0,0.0,
3.3925679999999994,0.0,0.0,19716.0,0.75,-952.5,-883.6038001093918,0.0,0.125,0.953369043,0.17179577265727938,0.0,-25937.0,1.125,480.0,450.30084741765546,0.0,0.0,0.871581942,0.34767378030584817,0.004882811999999959,-1489.0,1.5,-930.0,-883.6038001093918,0.0,0.0,3.177489909,4.768320388634718,0.0,-31793.0,0.75,592.5,450.30084741765546,0.0,0.125,1.251220575,4.610730363663829,-0.010986327000000351,0.14000000059604645,-1.840000033378601,-67.69000244140625,-0.06243896484375,0.08612060546875,1.1104736328125,36.040000915527344,0.0,-87.0,3.50689697265625,-1.3584747314453125,Closing,0.0,0.0,3.0,0.0,0.0,0.0,0.0,0.0,
3.429366,0.0,0.0,19562.0,0.75,-960.0,-898.2913540953903,0.0,0.125,0.9838866180000001,0.17848848620482627,0.0,-25937.0,1.25,487.5,443.6578449992748,0.0,0.125,0.876464754,0.3744389750154364,0.0,-1640.0,1.25,-945.0,-898.2913540953903,0.0,0.0,3.171386394,4.761616617474187,0.0,-31793.0,0.875,540.0,443.6578449992748,0.0,0.125,1.249999872,4.583996281429934,0.0,0.14000000059604645,-1.7599999904632568,-66.19000244140625,0.034912109375,0.0069580078125,0.98663330078125,36.040000915527344,0.0,22.0,3.506378173828125,-1.355682373046875,Closing,0.0,0.0,3.0,0.0,0.0,0.0,0.0,0.0,
3.4541090000000003,0.0,0.0,19562.0,0.75,-952.5,-898.2913540953903,0.0,0.125,0.9851073210000001,0.17848848620482627,0.0,-25937.0,1.25,487.5,443.6578449992748,0.0,0.125,0.8813475660000001,0.3744389750154364,0.004882811999999959,-1640.0,1.25,-945.0,-898.2913540953903,0.0,0.0,3.177489909,4.761616617474187,0.0012207029999995456,-31793.0,0.875,540.0,443.6578449992748,0.0,0.125,1.256103387,4.583996281429934,0.0,0.17000000178813934,-1.7599999904632568,-65.68000030517578,-0.02569580078125,0.05645751953125,1.21337890625,36.040000915527344,0.0,-43.0,3.5063934326171875,-1.3546295166015625,Closing,0.0,0.0,3.0,0.0,0.0,0.0,0.0,0.0,
3.4755779999999996,0.0,0.0,19562.0,0.625,-952.5,-898.2913540953903,0.0,0.125,0.9851073210000001,0.17848848620482627,0.0,-25937.0,1.125,487.5,443.6578449992748,0.0,0.0,0.8923338930000001,0.3744389750154364,0.009765623999999917,-1640.0,1.25,-937.5,-898.2913540953903,0.0,0.0,3.177489909,4.761616617474187,0.0,-31725.0,0.875,450.0,443.6578449992748,0.0,0.125,1.254882684,4.583996281429934,0.006103515000000392,0.23000000417232513,-1.7400000095367432,-64.63999938964844,0.00677490234375,0.00830078125,1.0194091796875,36.040000915527344,0.0,12.0,3.5063323974609375,-1.352294921875,Closing,0.0,0.0,3.0,0.0,0.0,0.0,0.0,0.0,
3.5037029999999993,0.0,0.0,19562.0,0.625,-952.5,-898.2913540953903,0.0,0.125,0.9851073210000001,0.17848848620482627,0.0012207029999999897,-25860.0,1.25,480.0,443.6578449992748,0.0,0.0,0.89111319,0.3744389750154364,0.004882811999999959,-1640.0,1.25,-930.0,-898.2913540953903,0.0,0.0,3.1677242850000003,4.761616617474187,0.0,-31725.0,1.125,435.0,443.6578449992748,0.0,0.125,1.256103387,4.583996281429934,0.0,0.23000000417232513,-1.7400000095367432,-64.12000274658203,-0.044677734375,0.17138671875,0.92742919921875,36.040000915527344,0.0,-157.0,3.5061798095703125,-1.3510284423828125,Closing,0.0,0.0,3.0,0.0,0.0,0.0,0.0,0.0,
3.5335609999999997,0.0,0.0,19408.0,0.625,-960.0,-898.2913540953903,0.0,0.125,0.9851073210000001,0.17848848620482627,0.0,-25860.0,1.25,465.0,443.6578449992748,0.0,0.125,0.8959960020000001,0.3744389750154364,0.0,-1787.0,1.25,-922.5,-898.2913540953903,0.0,0.0,3.175048503,4.761616617474187,0.0,-31725.0,1.25,435.0,443.6578449992748,0.0,0.125,1.229247921,4.583996281429934,0.0,0.30000001192092896,-1.659999966621399,-62.04999923706055,-0.0389404296875,0.01702880859375,1.03680419921875,36.040000915527344,0.0,-14.0,3.5057373046875,-1.34521484375,Closing,0.0,0.0,3.0,0.0,0.0,0.0,0.0,0.0,
3.586994999999999,0.0,0.0,19408.0,0.625,-952.5,-898.2913540953903,0.0,0.125,0.9851073210000001,0.17848848620482627,0.0,-25860.0,1.25,465.0,443.6578449992748,0.0,0.125,0.8959960020000001,0.3744389750154364,0.004882812000000847,-1787.0,1.5,-892.5,-898.2913540953903,0.0,0.0,3.177489909,4.761616617474187,0.0,-31725.0,1.125,442.5,443.6578449992748,0.0,0.125,1.224365109,4.583996281429934,-0.030517575000000186,0.27000001072883606,-1.6200000047683716,-61.029998779296875,-0.0015869140625,0.09625244140625,0.91070556640625,36.040000915527344,0.0,-68.0,3.5057525634765625,-1.3451690673828125,Closing,0.0,0.0,3.0,0.0,0.0,0.0,0.0,0.0,
3.6066270000000005,0.0,0.0,19408.0,0.625,-952.5,-898.2913540953903,0.0,0.125,0.979003806,0.17848848620482627,0.0012207029999999897,-25860.0,1.25,465.0,443.6578449992748,0.0,0.125,0.889892487,0.3744389750154364,0.0,-1787.0,1.5,-892.5,-898.2913540953903,0.0,0.0,3.177489909,4.761616617474187,0.0,-31725.0,1.125,442.5,443.6578449992748,0.0,0.125,1.219482297,4.583996281429934,0.0,0.3199999928474426,-1.600000023841858,-60.52000045776367,0.037353515625,0.06939697265625,1.00189208984375,36.040000915527344,0.0,-23.0,3.5056915283203125,-1.34503173828125,Closing,0.0,0.0,3.0,0.0,0.0,0.0,0.0,0.0,
3.6351499999999994,0.0,0.0,19256.0,0.625,-945.0,-898.2913540953903,0.0,0.125,0.9851073210000001,0.17848848620482627,-0.0012207029999999897,-25786.0,1.25,457.5,443.6578449992748,0.0,0.125,0.8972167050000001,0.3744389750154364,0.0,-1787.0,1.75,-870.0,-898.2913540953903,0.0,0.0,3.177489909,4.761616617474187,0.0,-31653.0,1.25,442.5,443.6578449992748,0.0,0.25,1.219482297,4.583996281429934,-0.004882811999999959,0.3400000035762787,-1.559999942779541,-58.959999084472656,0.03680419921875,0.05853271484375,1.04180908203125,36.040000915527344,0.0,-11.0,3.50543212890625,-1.3442840576171875,Closing,0.0,0.0,3.0,0.0,0.0,0.0,0.0,0.0,
3.661020999999999,0.0,0.0,19256.0,0.625,-945.0,-898.2913540953903,0.0,0.125,0.9851073210000001,0.17848848620482627,0.0012207029999999897,-25786.0,1.375,457.5,443.6578449992748,0.0,0.125,0.8959960020000001,0.3744389750154364,0.0,-1924.0,1.75,-862.5,-898.2913540953903,0.0,0.0,3.177489909,4.761616617474187,0.0,-31653.0,1.25,442.5,443.6578449992748,0.0,0.25,1.219482297,4.583996281429934,0.0,0.33000001311302185,-1.5499999523162842,-58.45000076293945,0.019775390625,0.0035400390625,0.86248779296875,36.040000915527344,0.0,23.0,3.5053253173828125,-1.3438873291015625,Closing,0.0,0.0,3.0,0.0,0.0,0.0,0.0,0.0,
3.703046,0.0,0.0,19256.0,0.625,-952.5,-898.2913540953903,0.0,0.125,0.9741209940000001,0.17848848620482627,-0.0012207029999999897,-25786.0,1.375,450.0,443.6578449992748,0.0,0.125,0.8959960020000001,0.3744389750154364,0.0,-1924.0,1.75,-847.5,-898.2913540953903,0.0,0.0,3.178710612,4.761616617474187,0.0,-31653.0,1.25,427.5,443.6578449992748,0.0,0.25,1.219482297,4.583996281429934,0.0,0.4300000071525574,-1.5399999618530273,-56.880001068115234,-0.02691650390625,0.1273193359375,1.2698974609375,36.040000915527344,0.0,-94.0,3.5050048828125,-1.342376708984375,Closing,0.0,0.0,3.0,0.0,0.0,0.0,0.0,0.0,
3.725947,0.0,0.0,19256.0,0.625,-945.0,-898.2913540953903,0.0,0.125,0.996093648,0.17848848620482627,0.0,-25786.0,1.375,450.0,443.6578449992748,0.0,0.125,0.89111319,0.3744389750154364,0.0,-1924.0,1.875,-840.0,-898.2913540953903,0.0,0.0,3.177489909,4.761616617474187,0.0,-31585.0,1.25,420.0,443.6578449992748,0.0,0.25,1.207275267,4.583996281429934,0.0,0.46000000834465027,-1.5199999809265137,-56.36000061035156,-0.02850341796875,0.05010986328125,1.016357421875,36.040000915527344,0.0,-35.0,3.504730224609375,-1.341705322265625,Closing,0.0,0.0,3.0,0.0,0.0,0.0,0.0,0.0,
