Time,ClimberA1,ClimberA2,FRpos,FRCurrent,FRspeed,FRsetpoint,FRApos,FRACurrent,FREncpos,FREncSetpoint,FREncSpeed,FLpos,FLCurrent,FLspeed,FLsetpoint,FLApos,FLACurrent,FLEncpos,FLEncSetpoint,FLEncSpeed,BRpos,BRCurrent,BRspeed,BRsetpoint,BRApos,BRACurrent,BREncpos,BREncSetpoint,BREncSpeed,BLpos,BLCurrent,BLspeed,BLsetpoint,BLApos,BLACurrent,BLEncpos,BLEncSetpoint,BLEncSpeed,navx_Pitch,navx_Roll,navx_Yaw,navx_XAcc,navx_YAcc,navx_ZAcc,navx_Temp,navx_Bar,navx_Alt,navx_XDis,navx_YDis,GearPlacerState,ShootOutputV,ShootOutputCurrent,ShootEncPos,ShootEncVelocity,ShootSpeed,ShootSetpoint,CarouselSetpoint,CarouselCurrent,
0.20882900000002702,0.0,0.0,89393.0,0.0,0.0,0.0,0.0,0.125,0.8422850700000001,0.01,0.0,-90258.0,0.0,0.0,-0.0,0.0,0.125,0.527343696,0.01,0.0,1127.0,0.0,0.0,0.0,0.0,0.0,3.348388329,0.01,0.0,-1396.0,0.125,0.0,-0.0,0.0,0.25,1.6552732680000002,0.01,0.0,0.23999999463558197,-0.46000000834465027,-86.62999725341797,-0.0079345703125,0.005126953125,1.01776123046875,36.529998779296875,0.0,0.0,1.2696380615234375,-1.461181640625,Closing,0.0,0.0,3.0,0.0,0.0,0.0,0.0,0.0,
0.4035329999999376,0.0,0.0,89393.0,0.0,0.0,0.0,0.0,0.125,0.8422850700000001,0.01,0.0,-90258.0,0.0,0.0,-0.0,0.0,0.125,0.527343696,0.01,0.0,1127.0,0.0,0.0,0.0,0.0,0.0,3.347167626,0.01,0.0,-1396.0,0.125,0.0,-0.0,0.0,0.25,1.6540525650000002,0.01,0.0,0.25,-0.5299999713897705,-86.62000274658203,-0.01324462890625,0.0816650390625,1.2313232421875,36.529998779296875,0.0,-76.0,1.269134521484375,-1.4626007080078125,Closing,0.0,0.0,3.0,0.0,0.0,0.0,0.0,0.0,
0.5709969999999739,0.0,0.0,89393.0,0.0,0.0,0.0,0.0,0.125,0.8422850700000001,0.01,0.0,-90258.0,0.0,0.0,-0.0,0.0,0.125,0.527343696,0.01,0.0,1127.0,0.0,0.0,0.0,0.0,0.0,3.348388329,0.01,0.0,-1396.0,0.125,0.0,-0.0,0.0,0.25,1.6540525650000002,0.01,0.0,0.23999999463558197,-0.4000000059604645,-86.62000274658203,-0.028564453125,0.013427734375,1.06683349609375,36.529998779296875,0.0,-10.0,1.26824951171875,-1.4644775390625,Closing,0.0,0.0,3.0,0.0,0.0,0.0,0.0,0.0,
0.7284009999999543,0.0,0.0,89393.0,0.0,0.0,0.0,0.0,0.125,0.8422850700000001,0.01,0.0,-90258.0,0.0,0.0,-0.0,0.0,0.125,0.527343696,0.01,0.0,1127.0,0.0,0.0,0.0,0.0,0.0,3.348388329,0.01,0.0,-1396.0,0.125,0.0,-0.0,0.0,0.25,1.6552732680000002,0.01,0.0,0.20999999344348907,-0.4399999976158142,-86.62000274658203,-0.018310546875,3.662109375E-4,1.0352783203125,36.540000915527344,0.0,2.0,1.268463134765625,-1.4657135009765625,Closing,0.0,0.0,3.0,0.0,0.0,0.0,0.0,0.0,
0.8675629999999656,0.0,0.0,89393.0,0.0,0.0,0.0,0.0,0.125,0.8422850700000001,0.01,0.0,-90258.0,0.0,0.0,-0.0,0.0,0.125,0.526122993,0.01,0.0,1127.0,0.0,0.0,0.0,0.0,0.0,3.348388329,0.01,0.0,-1396.0,0.125,0.0,-0.0,0.0,0.25,1.6552732680000002,0.01,0.0,0.2199999988079071,-0.4399999976158142,-86.62000274658203,-0.01165771484375,0.00189208984375,1.0223388671875,36.540000915527344,0.0,1.0,1.268646240234375,-1.4658660888671875,Closing,0.0,0.0,3.0,0.0,0.0,0.0,0.0,0.0,
1.0318800000000046,0.0,0.0,89393.0,0.0,0.0,0.0,0.0,0.125,0.8422850700000001,0.01,0.0,-90258.0,0.0,0.0,-0.0,0.0,0.125,0.527343696,0.01,0.0,1127.0,0.0,0.0,0.0,0.0,0.0,3.349609032,0.01,0.0,-1396.0,0.125,0.0,-0.0,0.0,0.25,1.6552732680000002,0.01,0.0,0.23000000417232513,-0.44999998807907104,-86.62000274658203,-0.00347900390625,-9.1552734375E-4,1.01422119140625,36.540000915527344,0.0,5.0,1.268646240234375,-1.4658660888671875,Closing,0.0,0.0,3.0,0.0,0.0,0.0,0.0,0.0,
1.204405999999959,0.0,0.0,89393.0,0.0,0.0,0.0,0.0,0.125,0.8422850700000001,0.01,0.0,-90258.0,0.0,0.0,-0.0,0.0,0.125,0.527343696,0.01,0.0,1127.0,0.0,0.0,0.0,0.0,0.0,3.348388329,0.01,0.0,-1396.0,0.125,0.0,-0.0,0.0,0.25,1.6552732680000002,0.01,0.0,0.23000000417232513,-0.44999998807907104,-86.62000274658203,-0.01116943359375,0.00433349609375,1.02117919921875,36.52000045776367,0.0,0.0,1.268646240234375,-1.4658660888671875,Closing,0.0,0.0,3.0,0.0,0.0,0.0,0.0,0.0,
1.3526159999999217,0.0,0.0,89393.0,0.0,0.0,0.0,0.0,0.125,0.8422850700000001,0.01,0.0,-90258.0,0.0,0.0,-0.0,0.0,0.125,0.527343696,0.01,0.0,1127.0,0.0,0.0,0.0,0.0,0.0,3.347167626,0.01,0.0,-1396.0,0.125,0.0,-0.0,0.0,0.25,1.6540525650000002,0.01,0.0,0.23999999463558197,-0.44999998807907104,-86.62000274658203,-0.0078125,0.00830078125,1.01666259765625,36.52000045776367,0.0,-3.0,1.268646240234375,-1.4658660888671875,Closing,0.0,0.0,3.0,0.0,0.0,0.0,0.0,0.0,
1.5372739999999758,0.0,0.0,89393.0,0.0,0.0,0.0,0.0,0.125,0.8410643670000001,0.01,0.0,-90258.0,0.0,0.0,-0.0,0.0,0.125,0.527343696,0.01,0.0,1127.0,0.0,0.0,0.0,0.0,0.0,3.348388329,0.01,0.0,-1396.0,0.125,0.0,-0.0,0.0,0.25,1.6552732680000002,0.01,0.0,0.23999999463558197,-0.44999998807907104,-86.62000274658203,-0.0081787109375,0.0048828125,1.02294921875,36.52000045776367,0.0,0.0,1.268646240234375,-1.4658660888671875,Closing,0.0,0.0,3.0,0.0,0.0,0.0,0.0,0.0,
1.7321159999999218,0.0,0.0,89380.0,0.125,-97.5,-238.1102353334427,0.0,0.25,0.8410643670000001,4.932250999999998,0.0,-90258.0,0.875,0.0,238.1102353334427,0.0,0.125,0.527343696,4.963769999999998,0.0,1123.0,0.375,-22.5,-238.1102353334427,0.0,0.0,3.347167626,0.01,0.0,-1396.0,0.75,0.0,238.1102353334427,0.0,0.25,1.6540525650000002,0.01,0.0,0.23000000417232513,-0.5199999809265137,-86.56999969482422,-0.04046630859375,-0.008056640625,1.0101318359375,36.52000045776367,0.0,10.0,1.2685394287109375,-1.4662628173828125,Closing,0.0,0.0,3.0,0.0,0.0,0.0,0.0,0.0,
1.9342770000000018,0.0,0.0,89374.0,2.625,-82.5,-595.2756071090697,0.0,0.25,0.839843664,4.932250999999998,0.0,-90240.0,4.875,105.0,595.2756071090697,0.0,0.125,0.527343696,4.963769999999998,0.0,1110.0,4.25,-52.5,-595.2756071090697,0.0,0.0,3.3630367650000004,0.01,0.0,-1381.0,4.0,105.0,595.2756071090697,0.0,0.25,1.6101072570000001,0.01,0.0,0.18000000715255737,-1.0700000524520874,-86.45999908447266,-0.232177734375,-0.01531982421875,0.99737548828125,36.52000045776367,0.0,5.0,1.2679290771484375,-1.47332763671875,Closing,0.0,0.0,3.0,0.0,0.0,0.0,0.0,0.0,
2.084262999999919,0.0,0.0,89298.0,3.25,-382.5,-674.6456480026245,0.0,0.25,0.8422850700000001,4.932250999999998,0.0,-90198.0,5.875,337.5,674.6456480026245,0.0,0.125,0.527343696,4.963769999999998,0.0,1080.0,6.875,-210.0,-674.6456480026245,0.0,0.0,3.38134731,0.01,0.0,-1339.0,5.0,345.0,674.6456480026245,0.0,0.125,1.5869139,0.01,0.0,0.1599999964237213,-2.059999942779541,-86.2300033569336,-0.114501953125,0.0233154296875,0.98504638671875,36.52000045776367,0.0,-25.0,1.2664794921875,-1.5001678466796875,Closing,0.0,0.0,3.0,0.0,0.0,0.0,0.0,0.0,
2.249628000000026,0.0,0.0,89206.0,1.875,-645.0,-674.6456480026245,0.0,0.25,0.8422850700000001,4.932250999999998,0.0,-90020.0,3.5,622.5,674.6456480026245,0.0,0.125,0.527343696,4.963769999999998,0.0,997.0,4.25,-630.0,-674.6456480026245,0.0,0.125,3.38134731,0.01,0.0,-1170.0,3.625,547.5,674.6456480026245,0.0,0.25,1.588134603,0.01,0.0,0.18000000715255737,-2.25,-85.69000244140625,0.00115966796875,0.07928466796875,0.8258056640625,36.529998779296875,0.0,-73.0,1.2656707763671875,-1.54705810546875,Closing,0.0,0.0,3.0,0.0,0.0,0.0,0.0,0.0,
2.4201199999999954,0.0,0.0,88984.0,1.0,-705.0,-674.6456480026245,0.0,0.25,0.837402258,4.932250999999998,0.0,-89910.0,2.75,682.5,674.6456480026245,0.0,0.125,0.527343696,4.963769999999998,0.0,773.0,2.875,-727.5,-674.6456480026245,0.0,0.125,3.38134731,0.01,0.0,-1069.0,3.125,622.5,674.6456480026245,0.0,0.25,1.5869139,0.01,0.0,0.23000000417232513,-2.3399999141693115,-85.20999908447266,-0.05963134765625,-9.765625E-4,1.226806640625,36.529998779296875,0.0,5.0,1.2666168212890625,-1.5516510009765625,Closing,0.0,0.0,3.0,0.0,0.0,0.0,0.0,0.0,
2.5860989999999293,0.0,0.0,88864.0,0.625,-742.5,-674.6456480026245,0.0,0.25,0.8276366340000001,4.932250999999998,0.0,-89797.0,2.125,720.0,674.6456480026245,0.0,0.125,0.527343696,4.963769999999998,0.0,650.0,2.25,-765.0,-674.6456480026245,0.0,0.125,3.3776852010000002,0.01,0.0,-955.0,2.875,660.0,674.6456480026245,0.0,0.25,1.5869139,0.01,0.0,0.25999999046325684,-2.119999885559082,-84.83000183105469,0.0601806640625,0.0494384765625,0.9393310546875,36.529998779296875,0.0,-36.0,1.2686920166015625,-1.550323486328125,Closing,0.0,0.0,3.0,0.0,0.0,0.0,0.0,0.0,
2.7305509999999775,0.0,0.0,88744.0,0.375,-750.0,-674.6456480026245,0.0,0.125,0.8276366340000001,4.932250999999998,0.0,-89566.0,1.875,705.0,674.6456480026245,0.0,0.125,0.527343696,4.963769999999998,0.0,528.0,1.875,-735.0,-674.6456480026245,0.0,0.125,3.3776852010000002,0.01,0.0,-743.0,2.75,720.0,674.6456480026245,0.0,0.25,1.5832517910000001,0.01,0.0,0.2800000011920929,-1.9299999475479126,-84.33999633789062,-0.0335693359375,-0.11785888671875,0.97943115234375,36.45000076293945,0.0,122.0,1.2675628662109375,-1.5456085205078125,Closing,0.0,0.0,3.0,0.0,0.0,0.0,0.0,0.0,
2.8898850000000094,0.0,0.0,88509.0,0.375,-720.0,-674.6456480026245,0.0,0.125,0.8276366340000001,4.932250999999998,0.0,-89454.0,2.0,697.5,674.6456480026245,0.0,0.125,0.527343696,4.963769999999998,0.0,291.0,1.5,-750.0,-674.6456480026245,0.0,0.125,3.3776852010000002,0.01,0.0,-635.0,3.0,690.0,674.6456480026245,0.0,0.25,1.5783689790000002,0.01,0.0,0.3400000035762787,-1.7699999809265137,-83.9000015258789,0.02569580078125,-0.0284423828125,1.03631591796875,36.45000076293945,0.0,40.0,1.2663116455078125,-1.539031982421875,Closing,0.0,0.0,3.0,0.0,0.0,0.0,0.0,0.0,
3.048212999999989,0.0,0.0,88408.0,0.125,-615.0,-515.9055286645889,0.0,0.125,0.8300780400000001,4.932250999999998,0.0,-89348.0,0.875,630.0,515.9055286645889,0.0,0.125,0.526122993,4.963769999999998,0.0,180.0,0.625,-675.0,-515.9055286645889,0.0,0.125,3.3776852010000002,0.01,0.0,-533.0,2.125,622.5,515.9055286645889,0.0,0.25,1.5783689790000002,0.01,0.0,0.3199999928474426,-1.399999976158142,-83.51000213623047,-0.00177001953125,0.06988525390625,1.0523681640625,36.45000076293945,0.0,-60.0,1.270416259765625,-1.523590087890625,Closing,0.0,0.0,3.0,0.0,0.0,0.0,0.0,0.0,
3.21108600000001,0.0,0.0,88243.0,0.0,-532.5,0.0,0.0,0.125,0.8422850700000001,4.932250999999998,0.0,-89192.0,0.0,375.0,0.0,0.0,0.125,0.53710932,4.963769999999998,0.0,38.0,0.0,-292.5,0.0,0.0,0.125,3.358153953,0.01,0.0,-367.0,0.125,420.0,0.0,0.0,0.25,1.5869139,0.01,0.0,0.3199999928474426,-0.6200000047683716,-82.91000366210938,0.1138916015625,0.003173828125,0.9788818359375,36.43000030517578,0.0,17.0,1.279388427734375,-1.4881134033203125,Closing,0.0,0.0,3.0,0.0,0.0,0.0,0.0,0.125,
3.4081720000000204,0.0,0.0,88193.0,0.0,-300.0,0.0,0.0,0.25,0.8422850700000001,4.932250999999998,0.0,-89147.0,0.0,232.5,0.0,0.0,0.25,0.5419921320000001,4.963769999999998,0.0,-8.0,0.0,-217.5,0.0,0.0,0.0,3.353271141,0.01,0.0,-321.0,0.125,225.0,0.0,0.0,0.25,1.5869139,0.01,0.0,0.3199999928474426,0.12999999523162842,-82.37999725341797,0.100830078125,0.00494384765625,1.0009765625,36.43000030517578,0.0,13.0,1.2965545654296875,-1.4249114990234375,Closing,0.0,0.0,3.0,0.0,0.0,0.0,0.0,0.0,
3.606216999999946,0.0,0.0,88159.0,0.0,-67.5,0.0,0.0,0.25,0.832519446,4.932250999999998,0.0,-89105.0,0.0,45.0,0.0,0.0,0.25,0.5419921320000001,4.963769999999998,0.0,-44.0,0.0,-60.0,0.0,0.0,0.0,3.353271141,0.01,0.0,-283.0,0.125,37.5,0.0,0.0,0.25,1.5869139,0.01,0.0,0.30000001192092896,0.6100000143051147,-82.2699966430664,0.046142578125,0.001953125,0.989013671875,36.43000030517578,0.0,8.0,1.3077545166015625,-1.3676300048828125,Closing,0.0,0.0,3.0,0.0,0.0,0.0,0.0,0.0,
3.7708310000000056,0.0,0.0,88134.0,1.375,-180.0,-627.8667695459729,0.0,0.625,1.105956918,0.3887935153156101,0.0,-89105.0,0.75,0.0,-336.5291233400741,0.0,1.125,4.804687008,4.102471127618054,0.0,-62.0,2.75,-135.0,-627.8667695459729,0.0,0.375,3.070068045,4.550964125170183,0.0,-287.0,0.625,-60.0,-336.5291233400741,0.0,1.875,2.457275139,0.8602976788347744,0.0,0.23999999463558197,0.2800000011920929,-82.05000305175781,-0.0364990234375,0.02777099609375,1.04486083984375,36.41999816894531,0.0,-28.0,1.30926513671875,-1.3634490966796875,Closing,0.0,0.0,3.0,0.0,0.0,0.0,0.0,0.0,
3.9329710000000198,0.0,0.0,88013.0,5.625,-540.0,-982.1948721481219,0.0,0.125,1.246337763,0.34300547659470254,0.0,-89143.0,1.625,-225.0,-426.6368692619468,0.0,0.5,4.0856929410000005,3.90252977617483,0.0,-128.0,11.0,-285.0,-982.1948721481219,0.0,0.125,2.9541012600000003,4.596827814284296,0.0,-339.0,1.0,-255.0,-426.6368692619468,0.0,0.375,3.1164547590000002,1.0600066138691338,0.0,0.1899999976158142,-1.0499999523162842,-75.76000213623047,-0.12994384765625,-0.043212890625,1.0328369140625,36.41999816894531,0.0,18.0,1.309906005859375,-1.3918914794921875,Closing,0.0,0.0,3.0,0.0,0.0,0.0,0.0,0.0,
4.162407000000006,0.0,0.0,87878.0,3.125,-922.5,-998.1690404288363,0.0,0.375,1.2133787820000002,0.3463919789112345,0.0,-89262.0,1.0,-397.5,-439.9827016101597,0.0,0.25,4.222411677,3.9203314580589823,0.0,-220.0,11.125,-600.0,-998.1690404288363,0.0,0.0,2.97851532,4.593435716833336,0.0,-416.0,2.0,-232.5,-439.9827016101597,0.0,0.625,2.7990719790000003,1.0422256250679558,0.0,0.2199999988079071,-1.4900000095367432,-67.83999633789062,-0.04107666015625,0.02642822265625,0.92156982421875,36.41999816894531,0.0,-27.0,1.3068695068359375,-1.4190216064453125,Closing,0.0,0.0,3.0,0.0,0.0,0.0,0.0,0.0,
4.3329099999999166,0.0,0.0,87578.0,0.125,-907.5,-595.2756071090697,0.0,0.625,0.885009675,4.932250999999998,0.0,-89303.0,2.875,-217.5,595.2756071090697,0.0,2.125,0.23193357,4.963769999999998,0.0,-492.0,2.875,-1005.0,-595.2756071090697,0.0,0.25,3.251952792,0.01,0.0,-439.0,1.125,-120.0,595.2756071090697,0.0,1.5,1.756591617,0.01,0.0,0.5699999928474426,-1.2200000286102295,-56.630001068115234,0.02215576171875,0.14190673828125,1.14398193359375,36.439998626708984,0.0,-83.0,1.2927093505859375,-1.41351318359375,Closing,0.0,0.0,3.0,0.0,0.0,0.0,0.0,0.125,
4.49390399999998,0.0,0.0,87495.0,3.625,-405.0,-674.6456480026245,0.0,0.25,0.664062432,4.932250999999998,0.0,-89243.0,2.25,360.0,674.6456480026245,0.0,0.5,0.968017479,4.963769999999998,0.0,-587.0,9.5,-427.5,-674.6456480026245,0.0,0.125,3.5156246400000004,0.01,0.0,-381.0,1.75,225.0,674.6456480026245,0.0,0.25,1.2377928420000002,0.01,0.0,0.7400000095367432,-0.9599999785423279,-54.619998931884766,0.0450439453125,-0.09722900390625,0.8641357421875,36.439998626708984,0.0,122.0,1.274078369140625,-1.398040771484375,Closing,0.0,0.0,3.0,0.0,0.0,0.0,0.0,0.125,
4.700020000000019,0.0,0.0,87365.0,7.375,-345.0,-674.6456480026245,0.0,0.375,0.743408127,4.932250999999998,0.0,-89208.0,7.5,202.5,674.6456480026245,0.0,0.875,0.716552661,4.963769999999998,0.0,-734.0,13.75,-397.5,-674.6456480026245,0.0,0.25,3.493651986,0.01,0.0,-327.0,4.25,180.0,674.6456480026245,0.0,0.625,1.6015623360000002,0.01,0.0,0.6899999976158142,-0.75,-52.2400016784668,-0.07763671875,-0.130126953125,0.89361572265625,36.439998626708984,0.0,71.0,1.2721405029296875,-1.3702850341796875,Closing,0.0,0.0,3.0,0.0,0.0,0.0,0.0,0.125,
4.933022999999928,0.0,0.0,87207.0,8.625,-592.5,-773.8582742214203,0.0,0.25,0.860595615,4.932250999999998,0.0,-89082.0,7.125,652.5,773.8582742214203,0.0,0.25,0.357665979,4.963769999999998,0.0,-903.0,15.625,-592.5,-773.8582742214203,0.0,0.25,3.406982073,0.01,0.0,-216.0,4.875,562.5,773.8582742214203,0.0,0.125,1.8176267670000001,0.01,0.0,0.44999998807907104,-2.2899999618530273,-52.25,-0.1512451171875,-0.01690673828125,1.10791015625,36.439998626708984,0.0,-45.0,1.2662506103515625,-1.364898681640625,Closing,0.0,0.0,3.0,0.0,0.0,0.0,0.0,0.0,
5.106587999999989,0.0,0.0,87075.0,10.5,-900.0,-1111.1810982227325,0.0,0.25,0.8703612390000001,4.932250999999998,0.0,-88943.0,7.0,982.5,1111.1810982227325,0.0,0.25,0.32958981000000004,4.963769999999998,0.0,-1036.0,16.375,-900.0,-1111.1810982227325,0.0,0.125,3.382568013,0.01,0.0,-82.0,4.375,975.0,1111.1810982227325,0.0,0.25,1.6369627230000001,0.01,0.0,0.33000001311302185,-3.2200000286102295,-53.56999969482422,0.0931396484375,-0.01141357421875,0.955322265625,36.439998626708984,0.0,100.0,1.247222900390625,-1.38262939453125,Closing,0.0,0.0,3.0,0.0,0.0,0.0,0.0,0.0,
5.2749789999999335,0.0,0.0,86903.0,6.875,-1245.0,-1170.7086288928986,0.0,0.25,0.8703612390000001,4.932250999999998,0.0,-88592.0,6.0,1147.5,1170.7086288928986,0.0,0.5,0.44677729800000004,4.963769999999998,0.0,-1204.0,12.25,-1245.0,-1170.7086288928986,0.0,0.125,3.382568013,0.01,0.0,265.0,3.75,1110.0,1170.7086288928986,0.0,0.125,1.491699066,0.01,0.0,0.5299999713897705,-3.680000066757202,-52.93000030517578,-0.13421630859375,0.04296875,0.91851806640625,36.40999984741211,0.0,-72.0,1.2201080322265625,-1.4098968505859375,Closing,0.0,0.0,3.0,0.0,0.0,0.0,0.0,0.0,
5.429723999999929,0.0,0.0,86454.0,5.75,-1447.5,-1397.4280944486275,0.0,0.25,0.876464754,0.10206313662167851,0.0,-88407.0,2.625,1155.0,972.8047977238625,0.0,0.5,0.574951113,0.14799878441647815,0.0,-1657.0,9.875,-1515.0,-1397.4280944486275,0.0,0.25,3.345946923,4.838168236011156,0.0,431.0,2.875,1020.0,972.8047977238625,0.0,0.25,1.533202968,4.810173252762135,0.0,0.5400000214576721,-3.7200000286102295,-50.2400016784668,-0.11492919921875,-0.0693359375,0.6307373046875,36.40999984741211,0.0,10.0,1.1830902099609375,-1.424652099609375,Closing,0.0,0.0,3.0,0.0,0.0,0.0,0.0,0.0,
5.606306999999913,0.0,0.0,86215.0,0.75,-1515.0,-1102.7702567166073,0.0,0.375,1.016845599,0.27087004780411494,0.0,-88222.0,0.25,855.0,403.0932127665289,0.0,1.25,1.41601548,0.9338294976436613,0.0,-1908.0,3.25,-1522.5,-1102.7702567166073,0.0,0.25,3.095702808,4.669082424278195,0.0,620.0,0.5,1005.0,403.0932127665289,0.0,1.0,0.787353435,4.025256007164459,0.0,0.3799999952316284,-2.7699999809265137,-45.18000030517578,0.341552734375,0.20880126953125,0.87713623046875,36.40999984741211,0.0,126.0,1.1516876220703125,-1.42333984375,Closing,0.0,0.0,3.0,0.0,0.0,0.0,0.0,0.0,
5.7655339999999855,0.0,0.0,85753.0,0.125,-1305.0,-575.433059334755,0.0,0.375,0.875244051,4.932250999999998,0.0,-87995.0,0.75,712.5,575.433059334755,0.0,0.875,0.8312987430000001,4.963769999999998,0.0,-2356.0,0.125,-1290.0,-575.433059334755,0.0,0.125,3.2958981,0.01,0.0,858.0,1.625,547.5,575.433059334755,0.0,1.375,1.597900227,0.01,0.0,0.3700000047683716,-1.2999999523162842,-29.889999389648438,0.24591064453125,-0.0726318359375,0.69964599609375,36.380001068115234,0.0,265.0,1.1393585205078125,-1.3787689208984375,Closing,0.0,0.0,3.0,0.0,0.0,0.0,0.0,0.0,
5.9556790000000035,0.0,0.0,85612.0,0.125,-570.0,-575.433059334755,0.0,0.25,0.78124992,4.932250999999998,0.0,-87797.0,1.0,600.0,575.433059334755,0.0,0.25,0.159912093,4.963769999999998,0.0,-2508.0,0.625,-645.0,-575.433059334755,0.0,0.125,3.452148084,0.01,0.0,997.0,2.75,450.0,575.433059334755,0.0,0.25,2.2180173510000003,0.01,0.0,0.5699999928474426,0.1599999964237213,-28.170000076293945,0.17645263671875,-0.00433349609375,0.60699462890625,36.380001068115234,0.0,159.0,1.1463623046875,-1.36346435546875,Closing,0.0,0.0,3.0,0.0,0.0,0.0,0.0,0.125,
6.1478939999999715,0.0,0.0,85533.0,0.0,-82.5,0.0,0.0,0.25,0.766601484,4.932250999999998,0.0,-87771.0,0.0,30.0,0.0,0.0,0.5,0.150146469,4.963769999999998,0.0,-2614.0,0.0,-97.5,0.0,0.0,0.125,3.449706678,0.01,0.0,1022.0,0.125,37.5,0.0,0.0,1.25,1.746825993,0.01,0.0,0.800000011920929,1.4199999570846558,-28.8799991607666,0.002197265625,0.03668212890625,0.87762451171875,36.380001068115234,0.0,-28.0,1.18670654296875,-1.3271484375,Closing,0.0,0.0,3.0,0.0,0.0,0.0,0.0,0.125,
6.334581000000005,0.0,0.0,85543.0,0.0,15.0,0.0,0.0,0.25,0.76904289,4.932250999999998,0.0,-87781.0,0.0,-30.0,0.0,0.0,0.5,0.574951113,4.963769999999998,0.0,-2608.0,0.0,7.5,0.0,0.0,0.125,3.387450825,0.01,0.0,1022.0,0.125,0.0,0.0,0.0,0.25,1.5820310880000001,0.01,0.0,0.699999988079071,0.699999988079071,-28.739999771118164,-0.00836181640625,0.01385498046875,1.02117919921875,36.36000061035156,0.0,-19.0,1.2308807373046875,-1.29888916015625,Closing,0.0,0.0,3.0,0.0,0.0,0.0,0.0,0.0,
6.501184999999939,0.0,0.0,85517.0,2.75,-150.0,-734.173253774643,0.0,0.25,0.812988198,4.932250999999998,0.0,-87769.0,4.625,127.5,734.173253774643,0.0,0.25,0.638427669,4.963769999999998,0.0,-2623.0,4.375,-120.0,-734.173253774643,0.0,0.125,3.3776852010000002,0.01,0.0,1039.0,3.375,135.0,734.173253774643,0.0,0.25,1.5588377310000001,0.01,0.0,0.5199999809265137,-0.12999999523162842,-28.729999542236328,-0.1661376953125,0.05859375,1.02520751953125,36.36000061035156,0.0,-167.0,1.236114501953125,-1.305999755859375,Closing,0.0,0.0,3.0,0.0,0.0,0.0,0.0,0.0,
6.690581000000005,0.0,0.0,85470.0,6.0,-457.5,-992.1259617805481,0.0,0.125,0.836181555,4.932250999999998,0.0,-87663.0,10.5,405.0,992.1259617805481,0.0,0.25,0.628662045,4.963769999999998,0.0,-2668.0,7.875,-397.5,-992.1259617805481,0.0,0.125,3.3776852010000002,0.01,0.0,1142.0,8.0,360.0,992.1259617805481,0.0,0.25,1.5869139,0.01,0.0,0.49000000953674316,-1.2999999523162842,-28.209999084472656,-0.16522216796875,-0.02978515625,1.01861572265625,36.36000061035156,0.0,-106.0,1.216156005859375,-1.3228607177734375,Closing,0.0,0.0,3.0,0.0,0.0,0.0,0.0,0.125,
6.8665050000000045,0.0,0.0,85243.0,4.375,-832.5,-992.1259617805481,0.0,0.125,0.825195228,4.932250999999998,0.0,-87547.0,8.25,780.0,992.1259617805481,0.0,0.25,0.46386714,4.963769999999998,0.0,-2889.0,6.0,-817.5,-992.1259617805481,0.0,0.125,3.3776852010000002,0.01,0.0,1252.0,6.875,742.5,992.1259617805481,0.0,0.25,1.6015623360000002,0.01,0.0,0.6299999952316284,-2.390000104904175,-27.549999237060547,-0.11077880859375,-0.009521484375,1.183837890625,36.33000183105469,0.0,-43.0,1.1606903076171875,-1.3609619140625,Closing,0.0,0.0,3.0,0.0,0.0,0.0,0.0,0.0,
7.035081000000005,0.0,0.0,85087.0,3.0,-1035.0,-992.1259617805481,0.0,0.125,0.8276366340000001,4.932250999999998,0.0,-87230.0,4.75,1042.5,992.1259617805481,0.0,0.25,0.45410151600000004,4.963769999999998,0.0,-3042.0,3.875,-1027.5,-992.1259617805481,0.0,0.125,3.3728023890000003,0.01,0.0,1559.0,4.25,1012.5,992.1259617805481,0.0,0.25,1.600341633,0.01,0.0,0.5400000214576721,-2.7300000190734863,-27.709999084472656,0.0350341796875,-4.8828125E-4,0.97564697265625,36.33000183105469,0.0,76.0,1.090179443359375,-1.4053955078125,Closing,0.0,0.0,3.0,0.0,0.0,0.0,0.0,0.0,
7.220248999999953,0.0,0.0,84734.0,1.25,-1125.0,-992.1259617805481,0.0,0.125,0.8276366340000001,4.932250999999998,0.0,-87049.0,2.75,1132.5,992.1259617805481,0.0,0.25,0.45410151600000004,4.963769999999998,0.0,-3378.0,3.375,-1035.0,-992.1259617805481,0.0,0.0,3.3715816860000003,0.01,0.0,1732.0,3.375,1080.0,992.1259617805481,0.0,0.25,1.6064451480000002,0.01,0.0,0.36000001430511475,-2.740000009536743,-27.790000915527344,-0.06103515625,0.14520263671875,1.1197509765625,36.33000183105469,0.0,-70.0,1.026763916015625,-1.4487152099609375,Closing,0.0,0.0,3.0,0.0,0.0,0.0,0.0,0.0,
7.371035999999964,0.0,0.0,84586.0,0.0,-892.5,0.0,0.0,0.125,0.822753822,4.932250999999998,0.0,-86891.0,0.0,825.0,0.0,0.0,0.25,0.46386714,4.963769999999998,0.0,-3522.0,0.0,-780.0,0.0,0.0,0.0,3.342284814,0.01,0.0,1875.0,0.125,930.0,0.0,0.0,0.25,1.6064451480000002,0.01,0.0,0.30000001192092896,-1.8899999856948853,-27.690000534057617,0.06512451171875,-0.0777587890625,0.9925537109375,36.33000183105469,0.0,125.0,0.9756317138671875,-1.48663330078125,Closing,0.0,0.0,3.0,0.0,0.0,0.0,0.0,0.0,
7.545812999999965,0.0,0.0,84443.0,0.0,-765.0,0.0,0.0,0.125,0.808105386,4.932250999999998,0.0,-86633.0,0.0,757.5,0.0,0.0,0.25,0.51269526,4.963769999999998,0.0,-3659.0,0.0,-712.5,0.0,0.0,0.0,3.343505517,0.01,0.0,2148.0,0.125,705.0,0.0,0.0,0.25,1.6052244450000002,0.01,0.0,0.03999999910593033,-0.9800000190734863,-27.450000762939453,0.03082275390625,-0.0078125,0.65997314453125,36.33000183105469,0.0,41.0,0.948211669921875,-1.519012451171875,Closing,0.0,0.0,3.0,0.0,0.0,0.0,0.0,0.0,
7.7122679999999235,0.0,0.0,84223.0,0.0,-622.5,0.0,0.0,0.125,0.808105386,4.932250999999998,0.0,-86536.0,0.0,547.5,0.0,0.0,0.125,0.51269526,4.963769999999998,0.0,-3869.0,0.0,-570.0,0.0,0.0,0.0,3.342284814,0.01,0.0,2241.0,0.125,532.5,0.0,0.0,0.25,1.6052244450000002,0.01,0.0,0.03999999910593033,-0.4300000071525574,-26.959999084472656,0.0496826171875,-0.04901123046875,0.884033203125,36.33000183105469,0.0,72.0,0.936126708984375,-1.5474395751953125,Closing,0.0,0.0,3.0,0.0,0.0,0.0,0.0,0.0,
7.88781799999997,0.0,0.0,84151.0,0.0,-382.5,0.0,0.0,0.125,0.808105386,4.932250999999998,0.0,-86408.0,0.0,345.0,0.0,0.0,0.0,0.513915963,4.963769999999998,0.0,-3935.0,0.0,-330.0,0.0,0.0,0.0,3.343505517,0.01,0.0,2367.0,0.125,337.5,0.0,0.0,0.25,1.6064451480000002,0.01,0.0,-0.009999999776482582,0.3499999940395355,-26.739999771118164,0.08050537109375,-0.02069091796875,1.1087646484375,36.349998474121094,0.0,74.0,0.940155029296875,-1.5735015869140625,Closing,0.0,0.0,3.0,0.0,0.0,0.0,0.0,0.0,
8.07005799999996,0.0,0.0,84075.0,0.125,-150.0,-377.00788199901575,0.0,0.125,0.808105386,4.932250999999998,0.0,-86377.0,0.125,142.5,377.00788199901575,0.0,0.0,0.51269526,4.963769999999998,0.0,-4012.0,0.375,-150.0,-377.00788199901575,0.0,0.0,3.343505517,0.01,0.0,2397.0,0.375,135.0,377.00788199901575,0.0,0.25,1.6076658510000001,0.01,0.0,-0.029999999329447746,0.7599999904632568,-26.65999984741211,0.0281982421875,-0.01043701171875,1.04010009765625,36.349998474121094,0.0,17.0,0.9561920166015625,-1.59027099609375,Closing,0.0,0.0,3.0,0.0,0.0,0.0,0.0,0.0,
8.236056999999914,0.0,0.0,84062.0,0.125,-7.5,-138.89763727784157,0.0,0.125,0.809326089,4.932250999999998,0.0,-86361.0,0.5,0.0,138.89763727784157,0.0,0.0,0.51269526,4.963769999999998,0.0,-4032.0,0.125,-7.5,-138.89763727784157,0.0,0.0,3.343505517,0.01,0.0,2413.0,0.5,15.0,138.89763727784157,0.0,0.25,1.6064451480000002,0.01,0.0,-0.03999999910593033,0.8700000047683716,-26.639999389648438,-0.00140380859375,0.00335693359375,1.02960205078125,36.349998474121094,0.0,-17.0,0.956634521484375,-1.59027099609375,Closing,0.0,0.0,3.0,0.0,0.0,0.0,0.0,0.0,
8.435990999999921,0.0,0.0,84060.0,0.0,0.0,0.0,0.0,0.125,0.809326089,4.932250999999998,0.0,-86361.0,0.0,0.0,0.0,0.0,0.0,0.51269526,4.963769999999998,0.0,-4037.0,0.0,0.0,0.0,0.0,0.0,3.342284814,0.01,0.0,2413.0,0.125,0.0,0.0,0.0,0.25,1.6064451480000002,0.01,0.0,-0.029999999329447746,0.5199999809265137,-26.639999389648438,-0.0277099609375,-0.00799560546875,1.02471923828125,36.29999923706055,0.0,-29.0,0.95263671875,-1.5915679931640625,Closing,0.0,0.0,3.0,0.0,0.0,0.0,0.0,0.0,
8.62460899999994,0.0,0.0,84060.0,0.0,0.0,0.0,0.0,0.125,0.808105386,4.932250999999998,0.0,-86361.0,0.0,0.0,0.0,0.0,0.0,0.51269526,4.963769999999998,0.0,-4037.0,0.0,0.0,0.0,0.0,0.0,3.342284814,0.01,0.0,2413.0,0.125,0.0,0.0,0.0,0.25,1.6064451480000002,0.01,0.0,-0.05000000074505806,0.38999998569488525,-26.65999984741211,-0.00567626953125,0.0020751953125,1.02008056640625,36.29999923706055,0.0,-12.0,0.9490203857421875,-1.5916748046875,Closing,0.0,0.0,3.0,0.0,0.0,0.0,0.0,0.125,
8.783486999999965,0.0,0.0,84060.0,0.0,0.0,0.0,0.0,0.125,0.809326089,4.932250999999998,0.0,-86361.0,0.0,0.0,0.0,0.0,0.0,0.51269526,4.963769999999998,0.0,-4037.0,0.0,0.0,0.0,0.0,0.0,3.343505517,0.01,0.0,2413.0,0.125,0.0,0.0,0.0,0.25,1.6064451480000002,0.01,0.0,-0.03999999910593033,0.2199999988079071,-26.65999984741211,-0.01123046875,0.001220703125,1.0181884765625,36.29999923706055,0.0,-14.0,0.947601318359375,-1.5916748046875,Closing,0.0,0.0,3.0,0.0,0.0,0.0,0.0,0.0,
8.949694000000017,0.0,0.0,84041.0,4.5,-135.0,-866.25,0.0,2.0,0.2441406,3.6991882500000015,0.0,-86372.0,7.0,-75.0,-866.25,0.0,1.5,1.166992068,1.2409425000000012,0.0,-4039.0,6.125,-15.0,-866.25,0.0,1.5,2.5939938750000002,3.7053000000000016,0.0,2454.0,4.375,180.0,866.25,0.0,1.5,0.747070236,3.7185000000000015,0.0,0.15000000596046448,-0.33000001311302185,-26.09000015258789,-0.044189453125,0.10137939453125,1.0506591796875,36.31999969482422,0.0,-77.0,0.945037841796875,-1.5948486328125,Closing,0.0,0.0,3.0,0.0,0.0,0.0,0.0,0.0,
9.140631999999984,0.0,0.0,84035.0,0.0,0.0,0.0,0.0,0.75,4.0759273170000005,3.6991882500000015,0.0,-86376.0,0.0,-75.0,0.0,0.0,0.75,2.1643064190000003,1.2409425000000012,0.0,-4044.0,0.0,-15.0,0.0,0.0,0.5,1.719970527,3.7053000000000016,0.0,2469.0,0.125,82.5,0.0,0.0,0.625,0.053710932,3.7185000000000015,0.0,0.23000000417232513,-0.07000000029802322,-25.6200008392334,0.010986328125,-0.056396484375,0.9945068359375,36.31999969482422,0.0,37.0,0.9387664794921875,-1.5947723388671875,Closing,0.0,0.0,3.0,0.0,0.0,0.0,0.0,0.0,
9.354243999999948,0.0,0.0,84029.0,0.0,-30.0,0.0,0.0,0.875,4.144286685,3.6991882500000015,0.0,-86402.0,0.0,-52.5,0.0,0.0,0.25,2.193603291,1.2409425000000012,0.0,-4053.0,0.0,-37.5,0.0,0.0,0.25,1.822509579,3.7053000000000016,0.0,2491.0,0.125,30.0,0.0,0.0,0.375,0.159912093,3.7185000000000015,0.0,-0.15000000596046448,-0.07999999821186066,-25.649999618530273,-0.05853271484375,0.078369140625,1.074462890625,36.279998779296875,0.0,-86.0,0.9400787353515625,-1.6026763916015625,Closing,0.0,0.0,3.0,0.0,0.0,0.0,0.0,0.0,
9.509555999999982,0.0,0.0,84022.0,0.0,0.0,0.0,0.0,0.625,4.545897972000001,3.6991882500000015,0.0,-86402.0,0.0,0.0,0.0,0.0,0.5,1.727294745,1.2409425000000012,0.0,-4057.0,0.0,0.0,0.0,0.0,0.375,2.1679685280000003,3.7053000000000016,0.0,2491.0,0.125,0.0,0.0,0.0,0.625,0.423583941,3.7185000000000015,0.0,-0.14000000059604645,-0.1599999964237213,-25.549999237060547,-0.0137939453125,-0.0098876953125,1.04168701171875,36.279998779296875,0.0,-6.0,0.9399566650390625,-1.6067962646484375,Closing,0.0,0.0,3.0,0.0,0.0,0.0,0.0,0.0,
9.663944000000019,0.0,0.0,84022.0,0.0,0.0,0.0,0.0,0.25,4.584960468,3.6991882500000015,0.0,-86402.0,0.0,0.0,0.0,0.0,0.25,1.5832517910000001,1.2409425000000012,0.0,-4057.0,0.0,0.0,0.0,0.0,0.125,2.2216794600000003,3.7053000000000016,0.0,2491.0,0.125,0.0,0.0,0.0,0.25,0.418701129,3.7185000000000015,0.0,-0.07999999821186066,-0.23000000417232513,-25.520000457763672,-0.0186767578125,0.01861572265625,1.0233154296875,36.279998779296875,0.0,-21.0,0.939697265625,-1.6065673828125,Closing,0.0,0.0,3.0,0.0,0.0,0.0,0.0,0.0,
9.832641999999993,0.0,0.0,84022.0,0.0,0.0,0.0,0.0,0.25,4.508056179,3.6991882500000015,0.0,-86402.0,0.0,0.0,0.0,0.0,0.25,1.702880685,1.2409425000000012,0.0,-4057.0,0.0,0.0,0.0,0.0,0.125,2.1166990020000003,3.7053000000000016,0.0,2491.0,0.125,0.0,0.0,0.0,0.25,0.38208003900000004,3.7185000000000015,0.0,-0.07000000029802322,-0.3400000035762787,-25.520000457763672,-0.02435302734375,-0.00433349609375,1.01495361328125,36.33000183105469,0.0,-15.0,0.9388275146484375,-1.6065673828125,Closing,0.0,0.0,3.0,0.0,0.0,0.0,0.0,0.0,
10.031437999999966,0.0,0.0,84022.0,0.0,0.0,0.0,0.0,0.125,4.486083525000001,3.6991882500000015,0.0,-86402.0,0.0,0.0,0.0,0.0,0.25,1.755370914,1.2409425000000012,0.0,-4057.0,0.0,0.0,0.0,0.0,0.0,2.091064239,3.7053000000000016,0.0,2491.0,0.125,0.0,0.0,0.0,0.125,0.37597652400000003,3.7185000000000015,0.0,-0.07999999821186066,-0.41999998688697815,-25.520000457763672,-0.0118408203125,-6.103515625E-5,1.01983642578125,36.33000183105469,0.0,-4.0,0.9387054443359375,-1.6065673828125,Closing,0.0,0.0,3.0,0.0,0.0,0.0,0.0,0.0,
10.211153999999981,0.0,0.0,84022.0,0.0,0.0,0.0,0.0,0.125,4.493407743000001,3.6991882500000015,0.0,-86402.0,0.0,0.0,0.0,0.0,0.125,1.755370914,1.2409425000000012,0.0,-4057.0,0.0,0.0,0.0,0.0,0.0,2.095947051,3.7053000000000016,0.0,2491.0,0.125,0.0,0.0,0.0,0.125,0.377197227,3.7185000000000015,0.0,-0.07000000029802322,-0.46000000834465027,-25.520000457763672,-0.0166015625,-0.0042724609375,1.01544189453125,36.33000183105469,0.0,-6.0,0.9387054443359375,-1.6065673828125,Closing,0.0,0.0,3.0,0.0,0.0,0.0,0.0,0.0,
10.40234600000002,0.0,0.0,84022.0,0.0,0.0,0.0,0.0,0.125,4.490966337000001,3.6991882500000015,0.0,-86402.0,0.0,0.0,0.0,0.0,0.125,1.756591617,1.2409425000000012,0.0,-4057.0,0.0,0.0,0.0,0.0,0.0,2.095947051,3.7053000000000016,0.0,2491.0,0.125,0.0,0.0,0.0,0.125,0.377197227,3.7185000000000015,0.0,-0.05999999865889549,-0.5199999809265137,-25.530000686645508,-0.0155029296875,-0.00250244140625,1.02496337890625,36.310001373291016,0.0,-4.0,0.9387054443359375,-1.6065673828125,Closing,0.0,0.0,3.0,0.0,0.0,0.0,0.0,0.0,
10.567641999999992,0.0,0.0,84022.0,0.0,0.0,0.0,0.0,0.125,4.49218704,3.6991882500000015,0.0,-86402.0,0.0,0.0,0.0,0.0,0.125,1.756591617,1.2409425000000012,0.0,-4057.0,0.0,0.0,0.0,0.0,0.0,2.095947051,3.7053000000000016,0.0,2491.0,0.125,0.0,0.0,0.0,0.125,0.377197227,3.7185000000000015,0.0,-0.05999999865889549,-0.5600000023841858,-25.540000915527344,-0.01617431640625,-6.103515625E-4,1.01806640625,36.310001373291016,0.0,-5.0,0.9387054443359375,-1.6065673828125,Closing,0.0,0.0,3.0,0.0,0.0,0.0,0.0,0.0,
10.751076999999931,0.0,0.0,84022.0,0.0,0.0,0.0,0.0,0.125,4.49218704,3.6991882500000015,0.0,-86402.0,0.0,0.0,0.0,0.0,0.125,1.755370914,1.2409425000000012,0.0,-4057.0,0.0,0.0,0.0,0.0,0.0,2.095947051,3.7053000000000016,0.0,2491.0,0.125,0.0,0.0,0.0,0.125,0.37597652400000003,3.7185000000000015,0.0,-0.05000000074505806,-0.5899999737739563,-25.549999237060547,-0.01458740234375,-7.32421875E-4,1.01544189453125,36.310001373291016,0.0,-3.0,0.9387054443359375,-1.6065673828125,Closing,0.0,0.0,3.0,0.0,0.0,0.0,0.0,0.0,
10.899319999999948,0.0,0.0,84022.0,0.0,0.0,0.0,0.0,0.125,4.49218704,3.6991882500000015,0.0,-86402.0,0.0,0.0,0.0,0.0,0.125,1.756591617,1.2409425000000012,0.0,-4057.0,0.125,0.0,0.0,0.0,0.0,2.095947051,3.7053000000000016,0.0,2491.0,0.125,0.0,0.0,0.0,0.125,0.37597652400000003,3.7185000000000015,0.0,-0.05000000074505806,-0.6299999952316284,-25.549999237060547,-0.0191650390625,-0.001708984375,1.02093505859375,36.380001068115234,0.0,-6.0,0.9387054443359375,-1.6065673828125,Closing,0.0,0.0,3.0,0.0,0.0,0.0,0.0,0.0,
11.086809000000008,0.0,0.0,84022.0,0.0,0.0,0.0,0.0,0.125,4.49218704,3.6991882500000015,0.0,-86402.0,0.0,0.0,0.0,0.0,0.125,1.756591617,1.2409425000000012,0.0,-4057.0,0.0,0.0,0.0,0.0,0.0,2.095947051,3.7053000000000016,0.0,2491.0,0.125,0.0,0.0,0.0,0.125,0.377197227,3.7185000000000015,0.0,-0.05000000074505806,-0.6600000262260437,-25.549999237060547,-0.01715087890625,6.103515625E-5,1.01751708984375,36.380001068115234,0.0,-2.0,0.9387054443359375,-1.6065673828125,Closing,0.0,0.0,3.0,0.0,0.0,0.0,0.0,0.125,
11.259625,0.0,0.0,84022.0,0.0,0.0,0.0,0.0,0.125,4.490966337000001,3.6991882500000015,0.0,-86402.0,0.0,0.0,0.0,0.0,0.125,1.756591617,1.2409425000000012,0.0,-4057.0,0.0,0.0,0.0,0.0,0.0,2.095947051,3.7053000000000016,0.0,2491.0,0.125,0.0,0.0,0.0,0.125,0.377197227,3.7185000000000015,0.0,-0.05000000074505806,-0.6800000071525574,-25.549999237060547,-0.01708984375,-3.0517578125E-4,1.01629638671875,36.380001068115234,0.0,-4.0,0.9387054443359375,-1.6065673828125,Closing,0.0,0.0,3.0,0.0,0.0,0.0,0.0,0.125,
11.410576,0.0,0.0,84022.0,0.0,0.0,0.0,0.0,0.125,4.490966337000001,3.6991882500000015,0.0,-86402.0,0.0,0.0,0.0,0.0,0.125,1.755370914,1.2409425000000012,0.0,-4057.0,0.0,0.0,0.0,0.0,0.0,2.095947051,3.7053000000000016,0.0,2491.0,0.125,0.0,0.0,0.0,0.125,0.37597652400000003,3.7185000000000015,0.0,-0.05000000074505806,-0.7200000286102295,-25.549999237060547,-0.015869140625,-0.0015869140625,1.01727294921875,36.400001525878906,0.0,-2.0,0.9387054443359375,-1.6065673828125,Closing,0.0,0.0,3.0,0.0,0.0,0.0,0.0,0.0,
11.569341000000016,0.0,0.0,84022.0,0.0,0.0,0.0,0.0,0.125,4.490966337000001,3.6991882500000015,0.0,-86402.0,0.0,0.0,0.0,0.0,0.125,1.756591617,1.2409425000000012,0.0,-4057.0,0.0,0.0,0.0,0.0,0.0,2.097167754,3.7053000000000016,0.0,2491.0,0.125,0.0,0.0,0.0,0.125,0.37597652400000003,3.7185000000000015,0.0,-0.05000000074505806,-0.7300000190734863,-25.559999465942383,-0.01483154296875,7.9345703125E-4,1.0216064453125,36.400001525878906,0.0,-2.0,0.9387054443359375,-1.6065673828125,Closing,0.0,0.0,3.0,0.0,0.0,0.0,0.0,0.0,
11.733826,0.0,0.0,84022.0,0.0,0.0,0.0,0.0,0.125,4.490966337000001,3.6991882500000015,0.0,-86402.0,0.0,0.0,0.0,0.0,0.125,1.755370914,1.2409425000000012,0.0,-4057.0,0.0,0.0,0.0,0.0,0.0,2.094726348,3.7053000000000016,0.0,2491.0,0.125,0.0,0.0,0.0,0.125,0.377197227,3.7185000000000015,0.0,-0.05000000074505806,-0.75,-25.559999465942383,-0.013916015625,0.00189208984375,1.0260009765625,36.400001525878906,0.0,-1.0,0.9387054443359375,-1.6065673828125,Closing,0.0,0.0,3.0,0.0,0.0,0.0,0.0,0.0,
11.89177899999998,0.0,0.0,84022.0,0.0,0.0,0.0,0.0,0.125,4.489745634,3.6991882500000015,0.0,-86402.0,0.0,0.0,0.0,0.0,0.125,1.755370914,1.2409425000000012,0.0,-4057.0,0.0,0.0,0.0,0.0,0.0,2.095947051,3.7053000000000016,0.0,2491.0,0.125,0.0,0.0,0.0,0.125,0.37597652400000003,3.7185000000000015,0.0,-0.03999999910593033,-0.7699999809265137,-25.56999969482422,-0.01708984375,0.00115966796875,1.02294921875,36.380001068115234,0.0,-3.0,0.9387054443359375,-1.6065673828125,Closing,0.0,0.0,3.0,0.0,0.0,0.0,0.0,0.0,
12.103079000000028,0.0,0.0,84022.0,0.0,0.0,0.0,0.0,0.125,4.490966337000001,3.6991882500000015,0.0,-86402.0,0.0,0.0,0.0,0.0,0.125,1.755370914,1.2409425000000012,0.0,-4057.0,0.0,0.0,0.0,0.0,0.0,2.095947051,3.7053000000000016,0.0,2491.0,0.125,0.0,0.0,0.0,0.125,0.377197227,3.7185000000000015,0.0,-0.03999999910593033,-0.7900000214576721,-25.56999969482422,-0.01483154296875,-1.8310546875E-4,1.0145263671875,36.380001068115234,0.0,0.0,0.9387054443359375,-1.6065673828125,Closing,0.0,0.0,3.0,0.0,0.0,0.0,0.0,0.0,
12.313015999999944,0.0,0.0,84022.0,0.0,0.0,0.0,0.0,0.125,4.490966337000001,3.6991882500000015,0.0,-86402.0,0.0,0.0,0.0,0.0,0.125,1.756591617,1.2409425000000012,0.0,-4057.0,0.0,0.0,0.0,0.0,0.0,2.095947051,3.7053000000000016,0.0,2491.0,0.125,0.0,0.0,0.0,0.125,0.37597652400000003,3.7185000000000015,0.0,-0.029999999329447746,-0.7900000214576721,-25.579999923706055,-0.01556396484375,-0.004150390625,1.0159912109375,36.380001068115234,0.0,0.0,0.9387054443359375,-1.6065673828125,Closing,0.0,0.0,3.0,0.0,0.0,0.0,0.0,0.0,
12.531169999999925,0.0,0.0,84022.0,0.0,0.0,0.0,0.0,0.125,4.490966337000001,3.6991882500000015,0.0,-86402.0,0.0,0.0,0.0,0.0,0.125,1.755370914,1.2409425000000012,0.0,-4057.0,0.0,0.0,0.0,0.0,0.0,2.095947051,3.7053000000000016,0.0,2491.0,0.125,0.0,0.0,0.0,0.125,0.377197227,3.7185000000000015,0.0,-0.029999999329447746,-0.800000011920929,-25.579999923706055,-0.013916015625,-0.00262451171875,1.017822265625,36.400001525878906,0.0,1.0,0.9387054443359375,-1.6065673828125,Closing,0.0,0.0,3.0,0.0,0.0,0.0,0.0,0.0,
12.708309000000009,0.0,0.0,84022.0,0.0,0.0,0.0,0.0,0.125,4.490966337000001,3.6991882500000015,0.0,-86402.0,0.0,0.0,0.0,0.0,0.125,1.756591617,1.2409425000000012,0.0,-4057.0,0.0,0.0,0.0,0.0,0.0,2.095947051,3.7053000000000016,0.0,2491.0,0.125,0.0,0.0,0.0,0.125,0.377197227,3.7185000000000015,0.0,-0.029999999329447746,-0.8100000023841858,-25.579999923706055,-0.0135498046875,-0.0015869140625,1.0181884765625,36.400001525878906,0.0,1.0,0.9387054443359375,-1.6065673828125,Closing,0.0,0.0,3.0,0.0,0.0,0.0,0.0,0.0,
12.873032000000007,0.0,0.0,84022.0,0.0,0.0,0.0,0.0,0.125,4.490966337000001,3.6991882500000015,0.0,-86402.0,0.0,0.0,0.0,0.0,0.125,1.755370914,1.2409425000000012,0.0,-4057.0,0.0,0.0,0.0,0.0,0.0,2.094726348,3.7053000000000016,0.0,2491.0,0.125,0.0,0.0,0.0,0.125,0.37597652400000003,3.7185000000000015,0.0,-0.029999999329447746,-0.8100000023841858,-25.579999923706055,-0.01483154296875,-1.220703125E-4,1.0203857421875,36.38999938964844,0.0,0.0,0.9387054443359375,-1.6065673828125,Closing,0.0,0.0,3.0,0.0,0.0,0.0,0.0,0.125,
13.074753999999958,0.0,0.0,84022.0,0.0,0.0,0.0,0.0,0.125,4.49218704,3.6991882500000015,0.0,-86402.0,0.0,0.0,0.0,0.0,0.125,1.755370914,1.2409425000000012,0.0,-4057.0,0.0,0.0,0.0,0.0,0.0,2.095947051,3.7053000000000016,0.0,2491.0,0.125,0.0,0.0,0.0,0.125,0.37597652400000003,3.7185000000000015,0.0,-0.03999999910593033,-0.8199999928474426,-25.579999923706055,-0.01727294921875,-0.00201416015625,1.01251220703125,36.38999938964844,0.0,-1.0,0.9387054443359375,-1.6065673828125,Closing,0.0,0.0,3.0,0.0,0.0,0.0,0.0,0.0,
13.23803899999999,0.0,0.0,84022.0,0.0,0.0,0.0,0.0,0.125,4.490966337000001,3.6991882500000015,0.0,-86402.0,0.0,0.0,0.0,0.0,0.125,1.755370914,1.2409425000000012,0.0,-4057.0,0.0,0.0,0.0,0.0,0.0,2.095947051,3.7053000000000016,0.0,2491.0,0.125,0.0,0.0,0.0,0.125,0.37597652400000003,3.7185000000000015,0.0,-0.029999999329447746,-0.8299999833106995,-25.59000015258789,-0.016357421875,-0.00250244140625,1.01531982421875,36.38999938964844,0.0,0.0,0.9387054443359375,-1.6065673828125,Closing,0.0,0.0,3.0,0.0,0.0,0.0,0.0,0.125,
13.43352000000002,0.0,0.0,84022.0,0.0,0.0,0.0,0.0,0.125,4.490966337000001,3.6991882500000015,0.0,-86402.0,0.0,0.0,0.0,0.0,0.125,1.755370914,1.2409425000000012,0.0,-4057.0,0.0,0.0,0.0,0.0,0.0,2.095947051,3.7053000000000016,0.0,2491.0,0.125,0.0,0.0,0.0,0.125,0.377197227,3.7185000000000015,0.0,-0.029999999329447746,-0.8299999833106995,-25.59000015258789,-0.01434326171875,-0.00396728515625,1.02276611328125,36.43000030517578,0.0,1.0,0.9387054443359375,-1.6065673828125,Closing,0.0,0.0,3.0,0.0,0.0,0.0,0.0,0.0,
13.626664999999921,0.0,0.0,84022.0,0.0,0.0,0.0,0.0,0.125,4.49218704,3.6991882500000015,0.0,-86402.0,0.0,0.0,0.0,0.0,0.125,1.755370914,1.2409425000000012,0.0,-4057.0,0.0,0.0,0.0,0.0,0.0,2.095947051,3.7053000000000016,0.0,2491.0,0.125,0.0,0.0,0.0,0.125,0.37597652400000003,3.7185000000000015,0.0,-0.029999999329447746,-0.8399999737739563,-25.59000015258789,-0.01226806640625,-0.00262451171875,1.02252197265625,36.43000030517578,0.0,3.0,0.9387054443359375,-1.6065673828125,Closing,0.0,0.0,3.0,0.0,0.0,0.0,0.0,0.0,
13.79273199999996,0.0,0.0,84022.0,0.0,0.0,0.0,0.0,0.25,4.490966337000001,3.6991882500000015,0.0,-86402.0,0.0,0.0,0.0,0.0,0.125,1.755370914,1.2409425000000012,0.0,-4057.0,0.0,0.0,0.0,0.0,0.0,2.094726348,3.7053000000000016,0.0,2491.0,0.125,0.0,0.0,0.0,0.125,0.377197227,3.7185000000000015,0.0,-0.029999999329447746,-0.8399999737739563,-25.600000381469727,-0.01324462890625,-4.2724609375E-4,1.01513671875,36.43000030517578,0.0,1.0,0.9387054443359375,-1.6065673828125,Closing,0.0,0.0,3.0,0.0,0.0,0.0,0.0,0.0,
13.973939000000014,0.0,0.0,84022.0,0.0,0.0,0.0,0.0,0.125,4.490966337000001,3.6991882500000015,0.0,-86402.0,0.0,0.0,0.0,0.0,0.125,1.756591617,1.2409425000000012,0.0,-4057.0,0.0,0.0,0.0,0.0,0.0,2.094726348,3.7053000000000016,0.0,2491.0,0.125,0.0,0.0,0.0,0.125,0.37597652400000003,3.7185000000000015,0.0,-0.029999999329447746,-0.8399999737739563,-25.610000610351562,-0.01568603515625,-0.00128173828125,1.01995849609375,36.40999984741211,0.0,-1.0,0.9387054443359375,-1.6065673828125,Closing,0.0,0.0,3.0,0.0,0.0,0.0,0.0,0.0,
14.150873999999952,0.0,0.0,84022.0,0.0,0.0,0.0,0.0,0.125,4.490966337000001,3.6991882500000015,0.0,-86402.0,0.0,0.0,0.0,0.0,0.125,1.756591617,1.2409425000000012,0.0,-4057.0,0.0,0.0,0.0,0.0,0.0,2.095947051,3.7053000000000016,0.0,2491.0,0.125,0.0,0.0,0.0,0.125,0.377197227,3.7185000000000015,0.0,-0.029999999329447746,-0.8399999737739563,-25.610000610351562,-0.01666259765625,0.00250244140625,1.0206298828125,36.40999984741211,0.0,-2.0,0.9387054443359375,-1.6065673828125,Closing,0.0,0.0,3.0,0.0,0.0,0.0,0.0,0.0,
14.38028999999992,0.0,0.0,84022.0,0.0,0.0,0.0,0.0,0.125,4.490966337000001,3.6991882500000015,0.0,-86402.0,0.0,0.0,0.0,0.0,0.125,1.755370914,1.2409425000000012,0.0,-4057.0,0.0,0.0,0.0,0.0,0.0,2.095947051,3.7053000000000016,0.0,2491.0,0.125,0.0,0.0,0.0,0.125,0.37597652400000003,3.7185000000000015,0.0,-0.029999999329447746,-0.8299999833106995,-25.610000610351562,-0.01446533203125,3.0517578125E-4,1.01934814453125,36.40999984741211,0.0,0.0,0.9387054443359375,-1.6065673828125,Closing,0.0,0.0,3.0,0.0,0.0,0.0,0.0,0.0,
14.556017999999924,0.0,0.0,84022.0,0.0,0.0,0.0,0.0,0.125,4.49218704,3.6991882500000015,0.0,-86402.0,0.0,0.0,0.0,0.0,0.125,1.755370914,1.2409425000000012,0.0,-4057.0,0.0,0.0,0.0,0.0,0.0,2.095947051,3.7053000000000016,0.0,2491.0,0.125,0.0,0.0,0.0,0.125,0.37597652400000003,3.7185000000000015,0.0,-0.019999999552965164,-0.8399999737739563,-25.610000610351562,-0.0147705078125,-1.8310546875E-4,1.0184326171875,36.400001525878906,0.0,0.0,0.9387054443359375,-1.6065673828125,Closing,0.0,0.0,3.0,0.0,0.0,0.0,0.0,0.0,
14.742814999999943,0.0,0.0,84022.0,0.0,0.0,0.0,0.0,0.125,4.490966337000001,3.6991882500000015,0.0,-86402.0,0.0,0.0,0.0,0.0,0.125,1.755370914,1.2409425000000012,0.0,-4057.0,0.0,0.0,0.0,0.0,0.0,2.095947051,3.7053000000000016,0.0,2491.0,0.125,0.0,0.0,0.0,0.125,0.377197227,3.7185000000000015,0.0,-0.029999999329447746,-0.8399999737739563,-25.610000610351562,-0.0185546875,-0.0028076171875,1.017333984375,36.400001525878906,0.0,-2.0,0.9387054443359375,-1.6065673828125,Closing,0.0,0.0,3.0,0.0,0.0,0.0,0.0,0.125,
14.891931999999914,0.0,0.0,84022.0,0.0,0.0,0.0,0.0,0.125,4.49218704,3.6991882500000015,0.0,-86402.0,0.0,0.0,0.0,0.0,0.125,1.756591617,1.2409425000000012,0.0,-4057.0,0.0,0.0,0.0,0.0,0.0,2.094726348,3.7053000000000016,0.0,2491.0,0.125,0.0,0.0,0.0,0.125,0.377197227,3.7185000000000015,0.0,-0.029999999329447746,-0.8399999737739563,-25.610000610351562,-0.014892578125,-0.0010986328125,1.02093505859375,36.400001525878906,0.0,0.0,0.9387054443359375,-1.6065673828125,Closing,0.0,0.0,3.0,0.0,0.0,0.0,0.0,0.0,
15.074826999999932,0.0,0.0,84022.0,0.0,0.0,0.0,0.0,0.125,4.490966337000001,3.6991882500000015,0.0,-86402.0,0.0,0.0,0.0,0.0,0.125,1.756591617,1.2409425000000012,0.0,-4057.0,0.0,0.0,0.0,0.0,0.0,2.095947051,3.7053000000000016,0.0,2491.0,0.125,0.0,0.0,0.0,0.125,0.37597652400000003,3.7185000000000015,0.0,-0.029999999329447746,-0.8399999737739563,-25.6200008392334,-0.01458740234375,-9.1552734375E-4,1.02410888671875,36.400001525878906,0.0,0.0,0.9387054443359375,-1.6065673828125,Closing,0.0,0.0,3.0,0.0,0.0,0.0,0.0,0.0,
15.235410999999964,0.0,0.0,84022.0,0.0,0.0,0.0,0.0,0.125,4.490966337000001,3.6991882500000015,0.0,-86402.0,0.0,0.0,0.0,0.0,0.125,1.755370914,1.2409425000000012,0.0,-4057.0,0.0,0.0,0.0,0.0,0.0,2.095947051,3.7053000000000016,0.0,2491.0,0.125,0.0,0.0,0.0,0.125,0.37597652400000003,3.7185000000000015,0.0,-0.03999999910593033,-0.8399999737739563,-25.6200008392334,-0.015380859375,-7.9345703125E-4,1.0234375,36.400001525878906,0.0,0.0,0.9387054443359375,-1.6065673828125,Closing,0.0,0.0,3.0,0.0,0.0,0.0,0.0,0.0,
15.431457999999985,0.0,0.0,84022.0,0.0,0.0,0.0,0.0,0.125,4.489745634,3.6991882500000015,0.0,-86402.0,0.0,0.0,0.0,0.0,0.125,1.756591617,1.2409425000000012,0.0,-4057.0,0.0,0.0,0.0,0.0,0.0,2.095947051,3.7053000000000016,0.0,2491.0,0.125,0.0,0.0,0.0,0.125,0.37597652400000003,3.7185000000000015,0.0,-0.03999999910593033,-0.8399999737739563,-25.6299991607666,-0.0142822265625,-1.8310546875E-4,1.020263671875,36.400001525878906,0.0,0.0,0.9387054443359375,-1.6065673828125,Closing,0.0,0.0,3.0,0.0,0.0,0.0,0.0,0.0,
15.628690999999991,0.0,0.0,84022.0,0.0,0.0,0.0,0.0,0.125,4.490966337000001,3.6991882500000015,0.0,-86402.0,0.0,0.0,0.0,0.0,0.125,1.756591617,1.2409425000000012,0.0,-4057.0,0.0,0.0,0.0,0.0,0.0,2.095947051,3.7053000000000016,0.0,2491.0,0.125,0.0,0.0,0.0,0.125,0.37597652400000003,3.7185000000000015,0.0,-0.029999999329447746,-0.8399999737739563,-25.6299991607666,-0.01397705078125,-0.001220703125,1.01690673828125,36.38999938964844,0.0,1.0,0.9387054443359375,-1.6065673828125,Closing,0.0,0.0,3.0,0.0,0.0,0.0,0.0,0.0,
15.786256999999983,0.0,0.0,84022.0,0.0,0.0,0.0,0.0,0.125,4.489745634,3.6991882500000015,0.0,-86402.0,0.0,0.0,0.0,0.0,0.125,1.756591617,1.2409425000000012,0.0,-4057.0,0.0,0.0,0.0,0.0,0.0,2.095947051,3.7053000000000016,0.0,2491.0,0.125,0.0,0.0,0.0,0.125,0.37597652400000003,3.7185000000000015,0.0,-0.029999999329447746,-0.8399999737739563,-25.6299991607666,-0.01397705078125,6.103515625E-5,1.0172119140625,36.38999938964844,0.0,0.0,0.9387054443359375,-1.6065673828125,Closing,0.0,0.0,3.0,0.0,0.0,0.0,0.0,0.0,
15.968187999999966,0.0,0.0,84022.0,0.0,0.0,0.0,0.0,0.125,4.490966337000001,3.6991882500000015,0.0,-86402.0,0.0,0.0,0.0,0.0,0.125,1.755370914,1.2409425000000012,0.0,-4057.0,0.0,0.0,0.0,0.0,0.0,2.094726348,3.7053000000000016,0.0,2491.0,0.125,0.0,0.0,0.0,0.125,0.37597652400000003,3.7185000000000015,0.0,-0.029999999329447746,-0.8399999737739563,-25.6299991607666,-0.0146484375,1.8310546875E-4,1.0201416015625,36.369998931884766,0.0,0.0,0.9387054443359375,-1.6065673828125,Closing,0.0,0.0,3.0,0.0,0.0,0.0,0.0,0.0,
16.132869999999997,0.0,0.0,83967.0,24.25,-405.0,-2244.3749999999995,0.0,0.125,4.490966337000001,3.6991882500000015,0.0,-86440.0,30.25,-585.0,-2244.3749999999995,0.0,0.125,1.7614744290000002,1.2409425000000012,0.0,-4065.0,36.75,-165.0,-2244.3749999999995,0.0,0.0,2.095947051,3.7053000000000016,0.0,2525.0,24.875,442.5,2244.3749999999995,0.0,0.125,0.372314415,3.7185000000000015,0.0,2.4100000858306885,-0.6100000143051147,-25.829999923706055,0.09173583984375,0.420654296875,0.1849365234375,36.369998931884766,0.0,-95.0,0.92474365234375,-1.57830810546875,Closing,0.0,0.0,3.0,0.0,0.0,0.0,0.0,0.125,
16.29408999999997,0.0,0.0,83710.0,0.125,-847.5,-177.18749999999997,0.0,0.125,4.489745634,3.6991882500000015,0.0,-86684.0,0.0,-750.0,-177.18749999999997,0.0,0.125,1.7602537260000002,1.2409425000000012,0.0,-4307.0,0.375,-862.5,-177.18749999999997,0.0,0.0,2.088622833,3.7053000000000016,0.0,2747.0,0.5,757.5,177.18749999999997,0.0,0.125,0.399169881,3.7185000000000015,0.0,2.5399999618530273,-0.8399999737739563,-26.020000457763672,0.028564453125,-0.1240234375,0.86376953125,36.369998931884766,0.0,108.0,0.8912811279296875,-1.5107574462890625,Closing,0.0,0.0,3.0,0.0,0.0,0.0,0.0,0.125,
16.49633600000001,0.0,0.0,83597.0,0.0,-735.0,0.0,0.0,0.125,4.477538604,3.6991882500000015,0.0,-86816.0,0.0,-735.0,0.0,0.0,0.125,1.7614744290000002,1.2409425000000012,0.0,-4402.0,0.125,-487.5,0.0,0.0,0.0,2.0629880700000003,3.7053000000000016,0.0,2873.0,0.125,660.0,0.0,0.0,0.25,0.385742148,3.7185000000000015,0.0,1.6100000143051147,-0.7799999713897705,-26.709999084472656,0.0069580078125,-0.11279296875,0.7330322265625,36.380001068115234,0.0,75.0,0.86688232421875,-1.4635009765625,Closing,0.0,0.0,3.0,0.0,0.0,0.0,0.0,0.0,
16.684255000000004,0.0,0.0,83498.0,6.375,-105.0,535.7480388879776,0.0,0.25,4.476317901,3.6991882499999984,0.0,-86969.0,11.125,-165.0,535.7480388879776,0.0,0.125,1.7602537260000002,1.2409424999999985,0.0,-4521.0,9.375,-247.5,535.7480388879776,0.0,0.0,2.056884555,3.7052999999999985,0.0,3015.0,7.625,232.5,-535.7480388879776,0.0,0.125,0.419921832,3.7184999999999984,0.0,-1.25,-0.9100000262260437,-26.84000015258789,0.01171875,-0.28173828125,0.71771240234375,36.380001068115234,0.0,140.0,0.8603973388671875,-1.4554290771484375,Closing,0.0,0.0,3.0,0.0,0.0,0.0,0.0,0.0,
16.863910999999963,0.0,0.0,83556.0,1.625,427.5,377.00788199901575,0.0,0.25,4.473876495,3.6991882499999984,0.0,-86929.0,2.125,450.0,377.00788199901575,0.0,0.125,1.7602537260000002,1.2409424999999985,0.0,-4492.0,4.125,300.0,377.00788199901575,0.0,0.0,2.076415803,3.7052999999999985,0.0,2974.0,2.0,-405.0,-377.00788199901575,0.0,0.25,0.42114253500000004,3.7184999999999984,0.0,-2.180000066757202,-0.8600000143051147,-26.579999923706055,-0.00360107421875,0.02490234375,1.103515625,36.380001068115234,0.0,-18.0,0.8750457763671875,-1.5060882568359375,Closing,0.0,0.0,3.0,0.0,0.0,0.0,0.0,0.0,
17.055947999999976,0.0,0.0,83675.0,0.0,277.5,0.0,0.0,0.25,4.486083525000001,3.6991882499999984,0.0,-86803.0,0.0,337.5,0.0,0.0,0.125,1.7614744290000002,1.2409424999999985,0.0,-4411.0,0.0,135.0,0.0,0.0,0.0,2.149657983,3.7052999999999985,0.0,2856.0,0.125,-352.5,0.0,0.0,0.25,0.429687456,3.7184999999999984,0.0,-1.190000057220459,-0.8199999928474426,-26.350000381469727,-0.01226806640625,0.060302734375,0.9273681640625,36.290000915527344,0.0,-34.0,0.8665618896484375,-1.5507659912109375,Closing,0.0,0.0,3.0,0.0,0.0,0.0,0.0,0.125,
17.275351000000025,0.0,0.0,83721.0,0.0,180.0,0.0,0.0,0.125,4.486083525000001,3.6991882499999984,0.0,-86724.0,0.0,180.0,0.0,0.0,0.125,1.7602537260000002,1.2409424999999985,0.0,-4359.0,0.0,165.0,0.0,0.0,0.125,2.153320092,3.7052999999999985,0.0,2779.0,0.125,-157.5,0.0,0.0,0.25,0.429687456,3.7184999999999984,0.0,-0.4099999964237213,-0.8500000238418579,-26.270000457763672,-0.01409912109375,0.105224609375,1.003173828125,36.290000915527344,0.0,-49.0,0.849517822265625,-1.5674896240234375,Closing,0.0,0.0,3.0,0.0,0.0,0.0,0.0,0.0,
17.438880999999935,0.0,0.0,83781.0,2.25,262.5,773.8582742214203,0.0,0.125,4.476317901,3.6991882499999984,0.0,-86687.0,3.5,255.0,773.8582742214203,0.0,0.125,1.7614744290000002,1.2409424999999985,0.0,-4336.0,3.875,157.5,773.8582742214203,0.0,0.125,2.1105954870000003,3.7052999999999985,0.0,2743.0,2.375,-217.5,-773.8582742214203,0.0,0.25,0.42846675300000003,3.7184999999999984,0.0,-0.6399999856948853,-0.8399999737739563,-26.25,-0.041259765625,-0.14788818359375,1.00732421875,36.290000915527344,0.0,36.0,0.83636474609375,-1.575103759765625,Closing,0.0,0.0,3.0,0.0,0.0,0.0,0.0,0.0,
17.625724999999978,0.0,0.0,83815.0,0.0,30.0,0.0,0.0,0.25,4.478759307,3.6991882499999984,0.0,-86654.0,0.0,45.0,0.0,0.0,0.125,1.776122865,1.2409424999999985,0.0,-4309.0,0.0,22.5,0.0,0.0,0.0,2.1191404080000003,3.7052999999999985,0.0,2715.0,0.125,-30.0,0.0,0.0,0.25,0.424804644,3.7184999999999984,0.0,-0.3400000035762787,-0.8500000238418579,-26.06999969482422,-0.0408935546875,-0.0029296875,0.98394775390625,36.33000183105469,0.0,-24.0,0.8375244140625,-1.5917205810546875,Closing,0.0,0.0,3.0,0.0,0.0,0.0,0.0,0.0,
17.805390000000013,0.0,0.0,83821.0,0.0,15.0,0.0,0.0,0.25,4.477538604,3.6991882499999984,0.0,-86642.0,0.0,22.5,0.0,0.0,0.25,1.774902162,1.2409424999999985,0.0,-4301.0,0.0,15.0,0.0,0.0,0.0,2.1191404080000003,3.7052999999999985,0.0,2702.0,0.125,-7.5,0.0,0.0,0.25,0.41503902000000004,3.7184999999999984,0.0,0.15000000596046448,-0.8799999952316284,-26.049999237060547,-0.01239013671875,0.0184326171875,1.0709228515625,36.33000183105469,0.0,-3.0,0.834930419921875,-1.594451904296875,Closing,0.0,0.0,3.0,0.0,0.0,0.0,0.0,0.0,
17.991194000000018,0.0,0.0,83821.0,0.0,0.0,0.0,0.0,0.25,4.476317901,3.6991882499999984,0.0,-86642.0,0.0,0.0,0.0,0.0,0.25,1.774902162,1.2409424999999985,0.0,-4301.0,0.0,0.0,0.0,0.0,0.0,2.1191404080000003,3.7052999999999985,0.0,2702.0,0.125,0.0,0.0,0.0,0.25,0.41503902000000004,3.7184999999999984,0.0,0.05000000074505806,-0.8899999856948853,-26.059999465942383,-0.022705078125,-0.01470947265625,1.00054931640625,36.33000183105469,0.0,0.0,0.8347015380859375,-1.5946197509765625,Closing,0.0,0.0,3.0,0.0,0.0,0.0,0.0,0.0,
18.173397999999928,0.0,0.0,83814.0,0.125,-52.5,-255.80052986985652,0.0,0.75,4.891356921,4.07921157499741,0.0,-86642.0,0.375,-37.5,-255.80052986985652,0.0,0.5,2.073974397,1.6233943216778484,0.0,-4311.0,0.375,-67.5,-255.80052986985652,0.0,0.375,2.4291989700000003,4.085951194518933,0.0,2705.0,0.75,15.0,255.80052986985652,0.0,0.625,0.666503838,4.100507250915891,0.0,0.14000000059604645,-0.8999999761581421,-25.989999771118164,4.8828125E-4,0.0430908203125,1.02081298828125,36.310001373291016,0.0,-2.0,0.83416748046875,-1.5937957763671875,Closing,0.0,0.0,3.0,0.0,0.0,0.0,0.0,0.125,
18.358142999999924,0.0,0.0,83807.0,0.0,0.0,0.0,0.0,0.125,0.133056627,4.07921157499741,0.0,-86650.0,0.0,0.0,0.0,0.0,0.25,2.1643064190000003,1.6233943216778484,0.0,-4318.0,0.0,0.0,0.0,0.0,0.125,2.5378415370000003,4.085951194518933,0.0,2706.0,0.125,0.0,0.0,0.0,0.375,0.771484296,4.100507250915891,0.0,0.029999999329447746,-0.8299999833106995,-25.93000030517578,-0.0072021484375,-0.0096435546875,1.05242919921875,36.310001373291016,0.0,11.0,0.8343353271484375,-1.5926971435546875,Closing,0.0,0.0,3.0,0.0,0.0,0.0,0.0,0.0,
18.55249099999992,0.0,0.0,83807.0,0.0,0.0,0.0,0.0,0.375,4.899901842,4.07921157499741,0.0,-86650.0,0.0,0.0,0.0,0.0,0.25,2.1215818140000002,1.6233943216778484,0.0,-4318.0,0.0,0.0,0.0,0.0,0.125,2.492675526,4.085951194518933,0.0,2706.0,0.125,0.0,0.0,0.0,0.125,0.748290939,4.100507250915891,0.0,0.09000000357627869,-0.8700000047683716,-25.979999542236328,-0.03070068359375,8.544921875E-4,1.021728515625,36.34000015258789,0.0,-13.0,0.8343353271484375,-1.5926971435546875,Closing,0.0,0.0,3.0,0.0,0.0,0.0,0.0,0.0,
18.762672999999953,0.0,0.0,83799.0,9.5,-30.0,-1033.59375,0.0,2.75,4.08935505,3.0159423668524887,0.0,-86665.0,11.75,-120.0,-1033.59375,0.0,0.5,2.458495842,1.9285545897722227,0.0,-4308.0,11.25,90.0,1033.59375,0.0,0.5,2.7514645620000002,4.389674732977289,0.0,2684.0,8.5,-52.5,-1033.59375,0.0,2.75,4.69970655,3.0316872062785585,0.0,0.0,-0.7900000214576721,-26.93000030517578,-0.078125,0.0367431640625,1.07867431640625,36.34000015258789,0.0,-72.0,0.8336639404296875,-1.5897369384765625,Closing,0.0,0.0,3.0,0.0,0.0,0.0,0.0,0.0,
18.955349999999978,0.0,0.0,83774.0,0.0,-67.5,0.0,0.0,0.375,3.450927381,3.0159423668524887,0.0,-86703.0,0.0,-90.0,0.0,0.0,0.25,2.542724349,1.9285545897722227,0.0,-4283.0,0.0,22.5,0.0,0.0,0.0,2.8479000990000003,4.389674732977289,0.0,2660.0,0.125,-142.5,0.0,0.0,0.25,4.329833541,3.0316872062785585,0.0,0.1599999964237213,-0.8299999833106995,-31.139999389648438,-0.05633544921875,-0.08282470703125,1.07330322265625,36.34000015258789,0.0,9.0,0.8329315185546875,-1.58563232421875,Closing,0.0,0.0,3.0,0.0,0.0,0.0,0.0,0.0,
19.14318499999994,0.0,0.0,83769.0,0.0,0.0,0.0,0.0,0.75,3.873290619,3.0159423668524887,0.0,-86716.0,0.0,0.0,0.0,0.0,0.25,2.515868883,1.9285545897722227,0.0,-4277.0,0.0,0.0,0.0,0.0,0.125,2.8430172870000003,4.389674732977289,0.0,2646.0,0.125,0.0,0.0,0.0,0.625,4.631347182,3.0316872062785585,0.0,0.09000000357627869,-0.7099999785423279,-30.5,-0.02911376953125,-0.03228759765625,0.99188232421875,36.349998474121094,0.0,2.0,0.83367919921875,-1.5813140869140625,Closing,0.0,0.0,3.0,0.0,0.0,0.0,0.0,0.0,
19.348978999999932,0.0,0.0,83769.0,0.0,0.0,0.0,0.0,0.25,3.861083589,3.0159423668524887,0.0,-86716.0,0.0,0.0,0.0,0.0,0.25,2.440185297,1.9285545897722227,0.0,-4281.0,0.0,-7.5,0.0,0.0,0.125,2.818603227,4.389674732977289,0.0,2646.0,0.125,0.0,0.0,0.0,0.125,4.782714354,3.0316872062785585,0.0,0.07999999821186066,-0.75,-30.190000534057617,-0.01123046875,-0.0030517578125,1.0142822265625,36.349998474121094,0.0,4.0,0.8336334228515625,-1.5807952880859375,Closing,0.0,0.0,3.0,0.0,0.0,0.0,0.0,0.0,
19.56874199999997,0.0,0.0,83769.0,0.0,0.0,0.0,0.0,0.25,3.8488765590000003,3.0159423668524887,0.0,-86716.0,0.0,0.0,0.0,0.0,0.0,2.4353024850000002,1.9285545897722227,0.0,-4281.0,0.0,0.0,0.0,0.0,0.125,2.818603227,4.389674732977289,0.0,2646.0,0.125,0.0,0.0,0.0,0.25,4.648437024000001,3.0316872062785585,0.0,0.09000000357627869,-0.7699999809265137,-30.229999542236328,-0.01666259765625,0.00189208984375,1.01055908203125,36.369998931884766,0.0,-2.0,0.8334808349609375,-1.5807037353515625,Closing,0.0,0.0,3.0,0.0,0.0,0.0,0.0,0.0,
19.773216999999946,0.0,0.0,83769.0,0.125,0.0,79.3700784444809,0.0,1.0,3.2031246720000004,2.4661254999999977,0.0,-86716.0,0.0,0.0,-79.3700784444809,0.0,0.75,2.9040524370000003,2.481884999999998,0.0,-4281.0,0.125,0.0,-79.3700784444809,0.0,0.875,3.3190914570000003,0.01,0.0,2646.0,0.25,0.0,-79.3700784444809,0.0,1.0,4.068603099000001,2.4790000000000023,0.0,0.03999999910593033,-0.7300000190734863,-30.489999771118164,3.0517578125E-4,0.0267333984375,0.98773193359375,36.369998931884766,0.0,-2.0,0.8337249755859375,-1.5804901123046875,Closing,0.0,0.0,3.0,0.0,0.0,0.0,0.0,0.0,
19.973121999999975,0.0,0.0,83769.0,0.375,7.5,168.66141200065613,0.0,0.25,3.0993649170000004,2.4661254999999977,0.0,-86718.0,0.125,-60.0,-168.66141200065613,0.0,0.25,3.330077784,2.481884999999998,0.0,-4286.0,0.375,-67.5,-168.66141200065613,0.0,0.0,3.598632444,0.01,0.0,2646.0,0.375,0.0,-168.66141200065613,0.0,0.375,3.809814063,2.4790000000000023,0.0,0.10999999940395355,-0.800000011920929,-30.780000686645508,-0.01922607421875,0.01715087890625,1.01226806640625,36.369998931884766,0.0,-12.0,0.833343505859375,-1.5801544189453125,Closing,0.0,0.0,3.0,0.0,0.0,0.0,0.0,0.125,
20.149983000000006,0.0,0.0,83788.0,0.5,22.5,168.66141200065613,0.0,0.5,3.287353179,2.4661254999999977,0.0,-86727.0,0.5,-7.5,-168.66141200065613,0.0,0.25,3.028564143,2.481884999999998,0.0,-4297.0,0.625,-7.5,-168.66141200065613,0.0,0.25,3.358153953,0.01,0.0,2641.0,0.625,-15.0,-168.66141200065613,0.0,0.375,4.155273012,2.4790000000000023,0.0,0.07999999821186066,-0.8399999737739563,-30.719999313354492,-0.0435791015625,0.020751953125,0.99365234375,36.380001068115234,0.0,-34.0,0.8325347900390625,-1.580596923828125,Closing,0.0,0.0,3.0,0.0,0.0,0.0,0.0,0.0,
20.350239999999992,0.0,0.0,83798.0,1.75,112.5,347.24407911300653,0.0,0.125,3.350829735,2.4661254999999977,0.0,-86755.0,2.375,-97.5,-347.24407911300653,0.0,0.125,2.9077145460000002,2.481884999999998,0.0,-4311.0,2.5,-52.5,-347.24407911300653,0.0,0.0,3.2958981,0.01,0.0,2616.0,2.0,-105.0,-347.24407911300653,0.0,0.25,4.197997617,2.4790000000000023,0.0,0.07000000029802322,-1.2699999809265137,-30.65999984741211,-0.0906982421875,0.0078125,0.9854736328125,36.380001068115234,0.0,-62.0,0.82659912109375,-1.583282470703125,Closing,0.0,0.0,3.0,0.0,0.0,0.0,0.0,0.125,
