Time,ClimberA1,ClimberA2,FRpos,FRCurrent,FRspeed,FRsetpoint,FRApos,FRACurrent,FREncpos,FREncSetpoint,FREncSpeed,FLpos,FLCurrent,FLspeed,FLsetpoint,FLApos,FLACurrent,FLEncpos,FLEncSetpoint,FLEncSpeed,BRpos,BRCurrent,BRspeed,BRsetpoint,BRApos,BRACurrent,BREncpos,BREncSetpoint,BREncSpeed,BLpos,BLCurrent,BLspeed,BLsetpoint,BLApos,BLACurrent,BLEncpos,BLEncSetpoint,BLEncSpeed,navx_Pitch,navx_Roll,navx_Yaw,navx_XAcc,navx_YAcc,navx_ZAcc,navx_Temp,navx_Bar,navx_Alt,navx_XDis,navx_YDis,GearPlacerState,ShootOutputV,ShootOutputCurrent,ShootEncPos,ShootEncVelocity,ShootSpeed,ShootSetpoint,CarouselSetpoint,CarouselCurrent,
0.23289699999999722,0.0,0.0,102297.0,0.0,0.0,0.0,0.0,0.25,0.852050694,0.01,0.0,-126294.0,0.0,0.0,-0.0,0.0,0.125,0.49316401200000004,0.01,0.0,10939.0,0.0,0.0,0.0,0.0,0.0,3.330077784,0.01,0.0,-27246.0,0.125,0.0,-0.0,0.0,0.125,1.6308592080000002,0.01,0.0,0.20000000298023224,-0.4699999988079071,-95.20999908447266,-0.00714111328125,0.002685546875,1.01995849609375,36.529998779296875,0.0,0.0,0.7278594970703125,-0.3263702392578125,Closing,0.0,0.0,3.0,0.0,0.0,0.0,0.0,0.125,
0.35071299999998884,0.0,0.0,102297.0,0.0,0.0,0.0,0.0,0.25,0.852050694,0.01,0.0,-126294.0,0.0,0.0,0.0,0.0,0.125,0.49316401200000004,0.01,0.0,10939.0,0.0,0.0,0.0,0.0,0.0,3.328857081,0.01,0.0,-27246.0,0.125,0.0,0.0,0.0,0.125,1.6308592080000002,0.01,0.0,0.23000000417232513,-0.4300000071525574,-95.22000122070312,-0.08050537109375,-0.06158447265625,1.084228515625,36.529998779296875,0.0,72.0,0.72784423828125,-0.3262939453125,Closing,0.0,0.0,3.0,0.0,0.0,0.0,0.0,0.0,
0.44742900000000374,0.0,0.0,102297.0,0.0,0.0,0.0,0.0,0.25,0.850829991,0.01,0.0,-126294.0,0.0,0.0,0.0,0.0,0.125,0.49316401200000004,0.01,0.0,10939.0,0.0,0.0,0.0,0.0,0.0,3.328857081,0.01,0.0,-27246.0,0.125,0.0,0.0,0.0,0.125,1.6308592080000002,0.01,0.0,0.1899999976158142,-0.47999998927116394,-95.20999908447266,0.0306396484375,-0.036865234375,0.72784423828125,36.529998779296875,0.0,35.0,0.7292022705078125,-0.3259124755859375,Closing,0.0,0.0,3.0,0.0,0.0,0.0,0.0,0.0,
0.5363280000000377,0.0,0.0,102297.0,0.0,0.0,0.0,0.0,0.25,0.852050694,0.01,0.0,-126294.0,0.0,0.0,0.0,0.0,0.125,0.49438471500000003,0.01,0.0,10939.0,0.0,0.0,0.0,0.0,0.0,3.328857081,0.01,0.0,-27246.0,0.125,0.0,0.0,0.0,0.125,1.6308592080000002,0.01,0.0,0.1899999976158142,-0.4699999988079071,-95.20999908447266,-0.03912353515625,-0.01898193359375,1.075927734375,36.529998779296875,0.0,25.0,0.7313385009765625,-0.325775146484375,Closing,0.0,0.0,3.0,0.0,0.0,0.0,0.0,0.0,
0.6323390000000363,0.0,0.0,102297.0,0.0,0.0,0.0,0.0,0.25,0.850829991,0.01,0.0,-126294.0,0.0,0.0,0.0,0.0,0.125,0.49316401200000004,0.01,0.0,10939.0,0.0,0.0,0.0,0.0,0.0,3.328857081,0.01,-0.0012207030000004337,-27246.0,0.125,0.0,0.0,0.0,0.125,1.6296385050000002,0.01,0.0,0.1899999976158142,-0.47999998927116394,-95.20999908447266,-0.0299072265625,0.04412841796875,1.11767578125,36.540000915527344,0.0,-38.0,0.7339019775390625,-0.3264617919921875,Closing,0.0,0.0,3.0,0.0,0.0,0.0,0.0,0.0,
0.7296270000000368,0.0,0.0,102297.0,0.0,0.0,0.0,0.0,0.25,0.852050694,0.01,0.0,-126294.0,0.0,0.0,-0.0,0.0,0.125,0.49316401200000004,0.01,0.0,10939.0,0.0,0.0,0.0,0.0,0.0,3.328857081,0.01,0.0,-27246.0,0.125,0.0,-0.0,0.0,0.125,1.6296385050000002,0.01,0.0,0.18000000715255737,-0.49000000953674316,-95.20999908447266,-0.0087890625,0.01263427734375,1.061767578125,36.540000915527344,0.0,-9.0,0.736602783203125,-0.3271636962890625,Closing,0.0,0.0,3.0,0.0,0.0,0.0,0.0,0.0,
0.8198060000000406,0.0,0.0,102297.0,0.0,0.0,0.0,0.0,0.25,0.852050694,0.01,0.0,-126294.0,0.0,0.0,-0.0,0.0,0.125,0.49316401200000004,0.01,0.0,10939.0,0.0,0.0,0.0,0.0,0.0,3.3276363780000002,0.01,0.0,-27246.0,0.125,0.0,-0.0,0.0,0.125,1.6284178020000002,0.01,0.0,0.1899999976158142,-0.49000000953674316,-95.22000122070312,-0.0146484375,0.01507568359375,1.02850341796875,36.540000915527344,0.0,-10.0,0.7365264892578125,-0.3271636962890625,Closing,0.0,0.0,3.0,0.0,0.0,0.0,0.0,0.0,
0.9162330000000074,0.0,0.0,102297.0,0.0,0.0,0.0,0.0,0.25,0.852050694,0.01,0.0,-126294.0,0.0,0.0,-0.0,0.0,0.125,0.49316401200000004,0.01,0.0,10939.0,0.0,0.0,0.0,0.0,0.0,3.328857081,0.01,0.0,-27246.0,0.125,0.0,-0.0,0.0,0.125,1.6308592080000002,0.01,0.0,0.1899999976158142,-0.49000000953674316,-95.20999908447266,-0.0076904296875,0.002685546875,1.00213623046875,36.540000915527344,0.0,0.0,0.7365264892578125,-0.3271636962890625,Closing,0.0,0.0,3.0,0.0,0.0,0.0,0.0,0.0,
1.0125230000000447,0.0,0.0,102297.0,0.0,0.0,0.0,0.0,0.25,0.852050694,0.01,0.0,-126294.0,0.0,0.0,-0.0,0.0,0.125,0.49194330900000005,0.01,0.0,10939.0,0.0,0.0,0.0,0.0,0.0,3.328857081,0.01,0.0,-27246.0,0.125,0.0,-0.0,0.0,0.125,1.6296385050000002,0.01,0.0,0.1899999976158142,-0.49000000953674316,-95.22000122070312,-0.01348876953125,0.00396728515625,1.0057373046875,36.540000915527344,0.0,0.0,0.7365264892578125,-0.3271636962890625,Closing,0.0,0.0,3.0,0.0,0.0,0.0,0.0,0.0,
1.1121630000000005,0.0,0.0,102297.0,0.0,0.0,0.0,0.0,0.25,0.852050694,0.01,0.0,-126294.0,0.0,0.0,-0.0,0.0,0.125,0.49316401200000004,0.01,0.0,10939.0,0.125,0.0,0.0,0.0,0.0,3.330077784,0.01,0.0,-27246.0,0.125,0.0,-0.0,0.0,0.125,1.6296385050000002,0.01,0.0,0.1899999976158142,-0.49000000953674316,-95.22000122070312,-0.01239013671875,0.007080078125,1.02899169921875,36.54999923706055,0.0,-3.0,0.7365264892578125,-0.3271636962890625,Closing,0.0,0.0,3.0,0.0,0.0,0.0,0.0,0.0,
1.2118400000000256,0.0,0.0,102297.0,0.0,0.0,0.0,0.0,0.25,0.850829991,0.01,0.0,-126294.0,0.0,0.0,-0.0,0.0,0.125,0.49438471500000003,0.01,0.0,10939.0,0.0,0.0,0.0,0.0,0.0,3.328857081,0.01,0.0,-27246.0,0.125,0.0,-0.0,0.0,0.125,1.6296385050000002,0.01,0.0,0.1899999976158142,-0.49000000953674316,-95.22000122070312,-0.00885009765625,0.00146484375,1.017822265625,36.54999923706055,0.0,1.0,0.7365264892578125,-0.3271636962890625,Closing,0.0,0.0,3.0,0.0,0.0,0.0,0.0,0.0,
1.3116650000000372,0.0,0.0,102297.0,0.0,0.0,0.0,0.0,0.25,0.850829991,0.01,0.0,-126294.0,0.0,0.0,-0.0,0.0,0.125,0.49316401200000004,0.01,0.0,10939.0,0.0,0.0,0.0,0.0,0.0,3.328857081,0.01,0.0,-27246.0,0.125,0.0,-0.0,0.0,0.125,1.6296385050000002,0.01,0.0,0.1899999976158142,-0.49000000953674316,-95.22000122070312,-0.01129150390625,0.005615234375,1.016845703125,36.54999923706055,0.0,-1.0,0.7365264892578125,-0.3271636962890625,Closing,0.0,0.0,3.0,0.0,0.0,0.0,0.0,0.0,
1.4121240000000108,0.0,0.0,102297.0,0.0,0.0,0.0,0.0,0.25,0.850829991,0.01,0.0,-126294.0,0.0,0.0,-0.0,0.0,0.125,0.49316401200000004,0.01,0.0,10939.0,0.0,0.0,0.0,0.0,0.0,3.328857081,0.01,0.0,-27246.0,0.125,0.0,-0.0,0.0,0.125,1.6308592080000002,0.01,0.0,0.1899999976158142,-0.49000000953674316,-95.22000122070312,-0.00946044921875,0.00274658203125,1.020751953125,36.54999923706055,0.0,0.0,0.7365264892578125,-0.3271636962890625,Closing,0.0,0.0,3.0,0.0,0.0,0.0,0.0,0.0,
1.5106720000000204,0.0,0.0,102297.0,0.0,0.0,0.0,0.0,0.25,0.852050694,0.01,0.0,-126294.0,0.0,0.0,-0.0,0.0,0.125,0.49316401200000004,0.01,0.0,10939.0,0.0,0.0,0.0,0.0,0.0,3.330077784,0.01,0.0,-27246.0,0.125,0.0,-0.0,0.0,0.125,1.6308592080000002,0.01,0.0,0.1899999976158142,-0.47999998927116394,-95.22000122070312,-0.0074462890625,0.00360107421875,1.01947021484375,36.54999923706055,0.0,0.0,0.7365264892578125,-0.3271636962890625,Closing,0.0,0.0,3.0,0.0,0.0,0.0,0.0,0.0,
1.6082889999999899,0.0,0.0,102297.0,0.0,0.0,0.0,0.0,0.25,0.852050694,0.01,0.0,-126294.0,0.0,0.0,-0.0,0.0,0.125,0.49438471500000003,0.01,0.0,10939.0,0.0,0.0,0.0,0.0,0.0,3.328857081,0.01,0.0,-27246.0,0.125,0.0,-0.0,0.0,0.125,1.6296385050000002,0.01,0.0,0.1899999976158142,-0.47999998927116394,-95.22000122070312,-0.005859375,0.0035400390625,1.02447509765625,36.54999923706055,0.0,0.0,0.7365264892578125,-0.3271636962890625,Closing,0.0,0.0,3.0,0.0,0.0,0.0,0.0,0.0,
1.7093759999999893,0.0,0.0,102297.0,0.0,0.0,0.0,0.0,0.25,0.852050694,0.01,0.0,-126294.0,0.0,0.0,-0.0,0.0,0.125,0.49316401200000004,0.01,0.0,10939.0,0.0,0.0,0.0,0.0,0.0,3.328857081,0.01,0.0,-27246.0,0.125,0.0,-0.0,0.0,0.125,1.6296385050000002,0.01,0.0,0.20000000298023224,-0.47999998927116394,-95.2300033569336,-0.00897216796875,0.00360107421875,1.0185546875,36.54999923706055,0.0,0.0,0.7365264892578125,-0.3271636962890625,Closing,0.0,0.0,3.0,0.0,0.0,0.0,0.0,0.0,
1.827755999999994,0.0,0.0,102297.0,0.0,0.0,0.0,0.0,0.25,0.850829991,0.01,0.0,-126294.0,0.0,0.0,-0.0,0.0,0.125,0.49316401200000004,0.01,0.0,10939.0,0.0,0.0,0.0,0.0,0.0,3.3276363780000002,0.01,0.0,-27246.0,0.125,0.0,-0.0,0.0,0.125,1.6308592080000002,0.01,0.0,0.20000000298023224,-0.47999998927116394,-95.2300033569336,-0.01080322265625,4.8828125E-4,1.02105712890625,36.54999923706055,0.0,3.0,0.7365264892578125,-0.3271636962890625,Closing,0.0,0.0,3.0,0.0,0.0,0.0,0.0,0.0,
1.9293450000000303,0.0,0.0,102297.0,0.0,0.0,0.0,0.0,0.25,0.850829991,0.01,0.0,-126294.0,0.0,0.0,-0.0,0.0,0.125,0.49316401200000004,0.01,0.0,10939.0,0.0,0.0,0.0,0.0,0.0,3.328857081,0.01,0.0,-27246.0,0.125,0.0,-0.0,0.0,0.125,1.6296385050000002,0.01,0.0,0.20000000298023224,-0.47999998927116394,-95.22000122070312,-0.00909423828125,0.0048828125,1.020751953125,36.54999923706055,0.0,-1.0,0.7365264892578125,-0.3271636962890625,Closing,0.0,0.0,3.0,0.0,0.0,0.0,0.0,0.0,
2.0191380000000354,0.0,0.0,102297.0,0.0,0.0,0.0,0.0,0.25,0.850829991,0.01,0.0,-126294.0,0.0,0.0,-0.0,0.0,0.125,0.49316401200000004,0.01,0.0,10939.0,0.0,0.0,0.0,0.0,0.0,3.328857081,0.01,0.0,-27246.0,0.125,0.0,-0.0,0.0,0.125,1.6308592080000002,0.01,0.0,0.20000000298023224,-0.47999998927116394,-95.2300033569336,-0.0078125,0.008056640625,1.01629638671875,36.54999923706055,0.0,-4.0,0.7365264892578125,-0.3271636962890625,Closing,0.0,0.0,3.0,0.0,0.0,0.0,0.0,0.0,
2.1210020000000367,0.0,0.0,102297.0,0.0,0.0,0.0,0.0,0.25,0.850829991,0.01,0.0,-126294.0,0.0,0.0,-0.0,0.0,0.125,0.49316401200000004,0.01,0.0,10939.0,0.0,0.0,0.0,0.0,0.0,3.328857081,0.01,0.0,-27246.0,0.125,0.0,-0.0,0.0,0.125,1.6308592080000002,0.01,0.0,0.20000000298023224,-0.47999998927116394,-95.2300033569336,-0.00848388671875,0.0018310546875,1.0152587890625,36.52000045776367,0.0,1.0,0.7365264892578125,-0.3271636962890625,Closing,0.0,0.0,3.0,0.0,0.0,0.0,0.0,0.0,
2.213054999999993,0.0,0.0,102297.0,0.0,0.0,0.0,0.0,0.25,0.852050694,0.01,0.0,-126294.0,0.0,0.0,-0.0,0.0,0.125,0.49316401200000004,0.01,0.0,10939.0,0.0,0.0,0.0,0.0,0.0,3.328857081,0.01,0.0,-27246.0,0.125,0.0,-0.0,0.0,0.125,1.6296385050000002,0.01,0.0,0.20000000298023224,-0.49000000953674316,-95.2300033569336,-0.00787353515625,-0.0010986328125,1.01287841796875,36.52000045776367,0.0,4.0,0.7365264892578125,-0.3271636962890625,Closing,0.0,0.0,3.0,0.0,0.0,0.0,0.0,0.0,
2.30813400000002,0.0,0.0,102297.0,0.0,0.0,0.0,0.0,0.25,0.852050694,0.01,0.0,-126294.0,0.0,0.0,-0.0,0.0,0.125,0.49316401200000004,0.01,0.0,10939.0,0.0,0.0,0.0,0.0,0.0,3.328857081,0.01,0.0,-27246.0,0.125,0.0,-0.0,0.0,0.125,1.6296385050000002,0.01,0.0,0.20000000298023224,-0.47999998927116394,-95.2300033569336,-0.01519775390625,0.005126953125,1.0203857421875,36.52000045776367,0.0,0.0,0.7365264892578125,-0.3271636962890625,Closing,0.0,0.0,3.0,0.0,0.0,0.0,0.0,0.0,
2.3973310000000057,0.0,0.0,102297.0,0.0,0.0,0.0,0.0,0.25,0.852050694,0.01,0.0,-126294.0,0.0,0.0,-0.0,0.0,0.125,0.49194330900000005,0.01,0.0,10939.0,0.0,0.0,0.0,0.0,0.0,3.328857081,0.01,0.0,-27246.0,0.125,0.0,-0.0,0.0,0.125,1.6308592080000002,0.01,0.0,0.20000000298023224,-0.49000000953674316,-95.2300033569336,-0.01177978515625,0.00396728515625,1.00958251953125,36.52000045776367,0.0,0.0,0.7365264892578125,-0.3271636962890625,Closing,0.0,0.0,3.0,0.0,0.0,0.0,0.0,0.0,
2.4920300000000277,0.0,0.0,102297.0,0.0,0.0,0.0,0.0,0.25,0.852050694,0.01,0.0,-126294.0,0.0,0.0,-0.0,0.0,0.125,0.49316401200000004,0.01,0.0,10939.0,0.0,0.0,0.0,0.0,0.0,3.328857081,0.01,0.0,-27246.0,0.125,0.0,-0.0,0.0,0.125,1.6308592080000002,0.01,0.0,0.20999999344348907,-0.47999998927116394,-95.2300033569336,-0.0045166015625,0.01324462890625,1.02130126953125,36.52000045776367,0.0,-9.0,0.7365264892578125,-0.3271636962890625,Closing,0.0,0.0,3.0,0.0,0.0,0.0,0.0,0.0,
2.5837609999999986,0.0,0.0,102297.0,0.0,0.0,0.0,0.0,0.25,0.852050694,0.01,0.0,-126294.0,0.0,0.0,-0.0,0.0,0.125,0.49316401200000004,0.01,0.0,10939.0,0.0,0.0,0.0,0.0,0.0,3.330077784,0.01,0.0,-27246.0,0.125,0.0,-0.0,0.0,0.125,1.6308592080000002,0.01,0.0,0.20999999344348907,-0.47999998927116394,-95.2300033569336,-0.00457763671875,0.00225830078125,0.9989013671875,36.52000045776367,0.0,1.0,0.7365264892578125,-0.3271636962890625,Closing,0.0,0.0,3.0,0.0,0.0,0.0,0.0,0.0,
2.6708910000000032,0.0,0.0,102297.0,0.0,0.0,0.0,0.0,0.25,0.850829991,0.01,0.0,-126294.0,0.0,0.0,-0.0,0.0,0.125,0.49438471500000003,0.01,0.0,10939.0,0.0,0.0,0.0,0.0,0.0,3.328857081,0.01,0.0,-27246.0,0.125,0.0,-0.0,0.0,0.125,1.6308592080000002,0.01,0.0,0.20000000298023224,-0.49000000953674316,-95.23999786376953,-0.01495361328125,-0.022216796875,1.0179443359375,36.540000915527344,0.0,26.0,0.736541748046875,-0.3271636962890625,Closing,0.0,0.0,3.0,0.0,0.0,0.0,0.0,0.0,
2.7637179999999937,0.0,0.0,102297.0,0.0,0.0,0.0,0.0,0.25,0.852050694,0.01,0.0,-126294.0,0.0,0.0,-0.0,0.0,0.125,0.49438471500000003,0.01,0.0,10939.0,0.0,0.0,0.0,0.0,0.0,3.330077784,0.01,0.0,-27246.0,0.125,0.0,-0.0,0.0,0.125,1.6308592080000002,0.01,0.0,0.20999999344348907,-0.49000000953674316,-95.22000122070312,-0.00927734375,0.00445556640625,1.06060791015625,36.540000915527344,0.0,0.0,0.7366943359375,-0.327117919921875,Closing,0.0,0.0,3.0,0.0,0.0,0.0,0.0,0.0,
2.853451000000001,0.0,0.0,102297.0,0.0,0.0,0.0,0.0,0.25,0.850829991,0.01,0.0,-126294.0,0.0,0.0,-0.0,0.0,0.125,0.49316401200000004,0.01,0.0,10939.0,0.0,0.0,0.0,0.0,0.0,3.328857081,0.01,0.0,-27246.0,0.125,0.0,-0.0,0.0,0.125,1.6296385050000002,0.01,0.0,0.0,-0.5299999713897705,-95.23999786376953,0.12017822265625,-0.006591796875,1.12664794921875,36.540000915527344,0.0,-5.0,0.7363433837890625,-0.328338623046875,Closing,0.0,0.0,3.0,0.0,0.0,0.0,0.0,0.0,
2.947558000000019,0.0,0.0,102297.0,0.0,0.0,0.0,0.0,0.25,0.852050694,0.01,0.0,-126294.0,0.0,0.0,-0.0,0.0,0.125,0.49438471500000003,0.01,0.0,10939.0,0.0,0.0,0.0,0.0,0.0,3.328857081,0.01,0.0012207030000004337,-27246.0,0.125,0.0,-0.0,0.0,0.125,1.6308592080000002,0.01,0.0,0.07000000029802322,-0.5699999928474426,-95.2300033569336,-0.04705810546875,-0.0087890625,1.17291259765625,36.540000915527344,0.0,13.0,0.735809326171875,-0.3315277099609375,Closing,0.0,0.0,3.0,0.0,0.0,0.0,0.0,0.0,
3.0355830000000426,0.0,0.0,102297.0,0.0,0.0,0.0,0.0,0.25,0.852050694,0.01,0.0,-126294.0,0.0,0.0,-0.0,0.0,0.125,0.49316401200000004,0.01,0.0,10939.0,0.0,0.0,0.0,0.0,0.0,3.328857081,0.01,0.0,-27246.0,0.125,0.0,-0.0,0.0,0.125,1.6308592080000002,0.01,0.0,0.05000000074505806,-0.5099999904632568,-95.22000122070312,0.01141357421875,-0.0052490234375,0.9176025390625,36.540000915527344,0.0,4.0,0.73583984375,-0.333587646484375,Closing,0.0,0.0,3.0,0.0,0.0,0.0,0.0,0.0,
3.129613000000012,0.0,0.0,102297.0,0.0,0.0,0.0,0.0,0.25,0.852050694,0.01,0.0,-126294.0,0.0,0.0,-0.0,0.0,0.125,0.49438471500000003,0.01,0.0,10939.0,0.0,0.0,0.0,0.0,0.0,3.328857081,0.01,0.0,-27246.0,0.125,0.0,-0.0,0.0,0.125,1.6308592080000002,0.01,0.0,0.07999999821186066,-0.5099999904632568,-95.2300033569336,3.0517578125E-4,-0.00225830078125,0.9482421875,36.540000915527344,0.0,2.0,0.7357635498046875,-0.334320068359375,Closing,0.0,0.0,3.0,0.0,0.0,0.0,0.0,0.0,
3.2208010000000358,0.0,0.0,102297.0,0.0,0.0,0.0,0.0,0.25,0.852050694,0.01,0.0,-126294.0,0.0,0.0,-0.0,0.0,0.125,0.49194330900000005,0.01,0.0,10939.0,0.0,0.0,0.0,0.0,0.0,3.328857081,0.01,0.0,-27246.0,0.125,0.0,-0.0,0.0,0.125,1.6296385050000002,0.01,0.0,0.09000000357627869,-0.5299999713897705,-95.22000122070312,-0.0115966796875,0.0079345703125,1.03692626953125,36.540000915527344,0.0,-6.0,0.7357635498046875,-0.33453369140625,Closing,0.0,0.0,3.0,0.0,0.0,0.0,0.0,0.125,
3.311579000000027,0.0,0.0,102297.0,0.0,0.0,0.0,0.0,0.25,0.852050694,0.01,0.0,-126294.0,0.0,0.0,-0.0,0.0,0.125,0.49316401200000004,0.01,0.0,10939.0,0.0,0.0,0.0,0.0,0.0,3.330077784,0.01,0.0,-27246.0,0.125,0.0,-0.0,0.0,0.125,1.6308592080000002,0.01,0.0,0.09000000357627869,-0.5099999904632568,-95.2300033569336,-0.0133056640625,-0.0028076171875,1.02288818359375,36.540000915527344,0.0,4.0,0.7358245849609375,-0.33453369140625,Closing,0.0,0.0,3.0,0.0,0.0,0.0,0.0,0.0,
3.40526800000004,0.0,0.0,102297.0,0.0,0.0,0.0,0.0,0.25,0.850829991,0.01,0.0,-126294.0,0.0,0.0,-0.0,0.0,0.125,0.49438471500000003,0.01,0.0,10939.0,0.0,0.0,0.0,0.0,0.0,3.330077784,0.01,0.0,-27246.0,0.125,0.0,-0.0,0.0,0.125,1.6296385050000002,0.01,0.0,0.09000000357627869,-0.5099999904632568,-95.2300033569336,-0.00616455078125,4.2724609375E-4,1.02703857421875,36.540000915527344,0.0,1.0,0.7358245849609375,-0.33453369140625,Closing,0.0,0.0,3.0,0.0,0.0,0.0,0.0,0.0,
3.4937480000000214,0.0,0.0,102297.0,0.0,0.0,0.0,0.0,0.25,0.852050694,0.01,0.0,-126294.0,0.0,0.0,-0.0,0.0,0.125,0.49316401200000004,0.01,0.0,10939.0,0.125,0.0,0.0,0.0,0.0,3.328857081,0.01,-0.0012207030000004337,-27246.0,0.125,0.0,-0.0,0.0,0.125,1.6296385050000002,0.01,0.0,0.09000000357627869,-0.5,-95.2300033569336,-0.0023193359375,0.009033203125,1.02099609375,36.540000915527344,0.0,-7.0,0.7358245849609375,-0.33453369140625,Closing,0.0,0.0,3.0,0.0,0.0,0.0,0.0,0.0,
3.5829349999999978,0.0,0.0,102297.0,5.125,-52.5,-1051.6535675525665,0.0,0.25,0.850829991,4.932250999999998,0.0,-126294.0,7.375,30.0,1051.6535675525665,0.0,0.125,0.49316401200000004,4.963769999999998,0.0,10939.0,5.0,-30.0,-1051.6535675525665,0.0,0.0,3.3728023890000003,0.01,0.0,-27238.0,3.375,45.0,1051.6535675525665,0.0,0.125,1.6308592080000002,0.01,0.0,0.11999999731779099,-0.9800000190734863,-95.19000244140625,-0.20416259765625,0.06689453125,0.88006591796875,36.540000915527344,0.0,-47.0,0.735504150390625,-0.3359527587890625,Closing,0.0,0.0,3.0,0.0,0.0,0.0,0.0,0.0,
3.6723400000000255,0.0,0.0,102265.0,10.875,-202.5,-1369.1338062286377,0.0,0.25,0.850829991,4.932250999999998,0.0,-126283.0,15.125,165.0,1369.1338062286377,0.0,0.125,0.49438471500000003,4.963769999999998,0.0,10921.0,11.875,-150.0,-1369.1338062286377,0.0,0.0,3.3666988740000003,0.01,0.0,-27238.0,10.125,202.5,1369.1338062286377,0.0,0.125,1.6308592080000002,0.01,0.0,0.10999999940395355,-1.9900000095367432,-95.05000305175781,-0.3262939453125,-0.044677734375,0.93994140625,36.54999923706055,0.0,72.0,0.73468017578125,-0.3460845947265625,Closing,0.0,0.0,3.0,0.0,0.0,0.0,0.0,0.125,
3.7687030000000377,0.0,0.0,102175.0,11.0,-540.0,-1369.1338062286377,0.0,0.25,0.852050694,4.932250999999998,0.0,-126215.0,16.625,570.0,1369.1338062286377,0.0,0.125,0.49316401200000004,4.963769999999998,0.0,10840.0,14.125,-547.5,-1369.1338062286377,0.0,0.0,3.3679195770000003,0.01,0.0,-27179.0,10.25,510.0,1369.1338062286377,0.0,0.125,1.6308592080000002,0.01,0.0,0.11999999731779099,-2.940000057220459,-95.05000305175781,-0.373779296875,0.00408935546875,0.986572265625,36.54999923706055,0.0,26.0,0.7350311279296875,-0.3699951171875,Closing,0.0,0.0,3.0,0.0,0.0,0.0,0.0,0.0,
3.8591689999999943,0.0,0.0,102175.0,9.5,-847.5,-1369.1338062286377,0.0,0.25,0.852050694,4.932250999999998,0.0,-126073.0,14.375,870.0,1369.1338062286377,0.0,0.125,0.49316401200000004,4.963769999999998,0.0,10681.0,10.875,-907.5,-1369.1338062286377,0.0,0.0,3.3679195770000003,0.01,0.0,-27054.0,9.25,862.5,1369.1338062286377,0.0,0.125,1.6308592080000002,0.01,0.0,0.25,-3.700000047683716,-94.94999694824219,-0.342529296875,0.06866455078125,1.22052001953125,36.54999923706055,0.0,-40.0,0.73663330078125,-0.4131317138671875,Closing,0.0,0.0,3.0,0.0,0.0,0.0,0.0,0.0,
3.9511870000000346,0.0,0.0,102018.0,7.375,-1132.5,-1369.1338062286377,0.0,0.25,0.850829991,4.932250999999998,0.0,-125880.0,10.25,1177.5,1369.1338062286377,0.0,0.125,0.49316401200000004,4.963769999999998,0.0,10681.0,8.125,-1177.5,-1369.1338062286377,0.0,0.0,3.3679195770000003,0.01,0.0,-26872.0,7.875,1110.0,1369.1338062286377,0.0,0.125,1.6284178020000002,0.01,0.0,0.25999999046325684,-4.139999866485596,-94.87000274658203,-0.21929931640625,-0.08258056640625,1.02667236328125,36.54999923706055,0.0,99.0,0.736724853515625,-0.45721435546875,Closing,0.0,0.0,3.0,0.0,0.0,0.0,0.0,0.0,
4.047124000000011,0.0,0.0,101818.0,5.75,-1290.0,-1369.1338062286377,0.0,0.25,0.845947179,4.932250999999998,0.0,-125880.0,7.875,1335.0,1369.1338062286377,0.0,0.125,0.49316401200000004,4.963769999999998,0.0,10479.0,6.25,-1335.0,-1369.1338062286377,0.0,0.0,3.3679195770000003,0.01,0.0,-26872.0,6.375,1290.0,1369.1338062286377,0.0,0.125,1.6308592080000002,0.01,0.0,0.23999999463558197,-4.309999942779541,-94.83000183105469,-0.03643798828125,-0.04974365234375,1.14703369140625,36.54999923706055,0.0,50.0,0.73443603515625,-0.5052032470703125,Closing,0.0,0.0,3.0,0.0,0.0,0.0,0.0,0.0,
4.137440999999992,0.0,0.0,101588.0,4.25,-1417.5,-1369.1338062286377,0.0,0.25,0.850829991,4.932250999999998,0.0,-125654.0,6.125,1455.0,1369.1338062286377,0.0,0.125,0.49438471500000003,4.963769999999998,0.0,10249.0,4.75,-1432.5,-1369.1338062286377,0.0,0.0,3.358153953,0.01,0.0,-26657.0,4.75,1402.5,1369.1338062286377,0.0,0.125,1.6296385050000002,0.01,0.0,0.1899999976158142,-4.420000076293945,-94.68000030517578,-0.02923583984375,0.0218505859375,1.02545166015625,36.54999923706055,0.0,-22.0,0.73236083984375,-0.55364990234375,Closing,0.0,0.0,3.0,0.0,0.0,0.0,0.0,0.125,
4.229777999999991,0.0,0.0,101319.0,19.125,-1597.5,-2652.9903495624303,0.0,0.5,0.938720607,0.28363748345949824,0.0,-125420.0,0.875,1432.5,972.3346780003333,0.0,8.25,0.9204100620000001,1.0299736877474999,0.0,9979.0,20.375,-1635.0,-2652.9903495624303,0.0,0.5,3.2604977130000004,4.6562938944341425,0.0,-26427.0,1.625,1417.5,972.3346780003333,0.0,6.25,1.5295408590000001,3.929223577270481,0.0,-0.07000000029802322,-4.659999847412109,-94.08000183105469,-0.05914306640625,-0.2249755859375,1.21051025390625,36.47999954223633,0.0,220.0,0.7307281494140625,-0.60333251953125,Closing,0.0,0.0,3.0,0.0,0.0,0.0,0.0,0.0,
4.319656000000017,0.0,0.0,101319.0,24.125,-1972.5,-3014.305490623016,0.0,0.375,1.091308482,0.3165911299223451,0.0,-125224.0,2.75,1222.5,1183.4890326531681,0.0,1.0,1.539306483,1.2637731169015547,0.0,9979.0,24.875,-2040.0,-3014.305490623016,0.0,0.25,3.0993649170000004,4.623285802391575,0.0,-26237.0,3.5,1177.5,1183.4890326531681,0.0,0.875,0.8447264760000001,3.6956959219307284,0.0,-0.6299999952316284,-4.150000095367432,-88.43000030517578,0.1265869140625,0.1751708984375,1.322265625,36.47999954223633,0.0,-183.0,0.7345428466796875,-0.65692138671875,Closing,0.0,0.0,3.0,0.0,0.0,0.0,0.0,0.0,
4.414103999999992,0.0,0.0,100940.0,0.375,-2475.0,-1459.5400450624923,0.0,0.625,1.065673719,0.04014176801774885,0.0,-125224.0,5.375,1200.0,1282.8066218125,0.0,11.0,1.6320799110000002,0.045969906396470354,0.0,9618.0,1.0,-2332.5,-1459.5400450624923,0.0,0.5,3.085937184,4.900191910282975,0.0,-26099.0,7.75,945.0,1282.8066218125,0.0,7.0,0.898437408,4.912083530076192,0.0,-0.550000011920929,-3.1600000858306885,-76.69000244140625,0.4246826171875,0.220947265625,0.96044921875,36.47999954223633,0.0,-114.0,0.7316436767578125,-0.6888580322265625,Closing,0.0,0.0,3.0,0.0,0.0,0.0,0.0,0.0,
4.5103159999999916,0.0,0.0,100568.0,0.0,-2310.0,-1369.1338062286377,0.0,0.375,0.914306547,4.932250999999998,0.0,-125026.0,6.0,1305.0,1369.1338062286377,0.0,1.125,0.902099517,4.963769999999998,0.0,9280.0,0.375,-2040.0,-1369.1338062286377,0.0,0.125,3.242187168,0.01,0.0,-26099.0,21.375,645.0,1369.1338062286377,0.0,0.875,1.4758299270000002,0.01,0.0,0.019999999552965164,-3.7100000381469727,-65.19000244140625,-0.35015869140625,0.4688720703125,1.041748046875,36.47999954223633,0.0,-543.0,0.717620849609375,-0.7039947509765625,Closing,0.0,0.0,3.0,0.0,0.0,0.0,0.0,0.0,
4.609798999999999,0.0,0.0,100247.0,0.0,-2032.5,-1369.1338062286377,0.0,0.375,0.845947179,4.932250999999998,0.0,-124829.0,7.5,1185.0,1369.1338062286377,0.0,0.5,0.458984328,4.963769999999998,0.0,8968.0,0.375,-1920.0,-1369.1338062286377,0.0,0.125,3.387450825,0.01,0.0,-25993.0,23.75,915.0,1369.1338062286377,0.0,0.25,1.7419431810000001,0.01,0.0,0.8500000238418579,-3.940000057220459,-59.04999923706055,0.02532958984375,0.1048583984375,0.81561279296875,36.47999954223633,0.0,-37.0,0.6888885498046875,-0.7038726806640625,Closing,0.0,0.0,3.0,0.0,0.0,0.0,0.0,0.0,
4.704861000000034,0.0,0.0,100247.0,0.125,-1605.0,-1369.1338062286377,0.0,0.375,0.8044432770000001,4.932250999999998,0.0,-124605.0,5.75,1380.0,1369.1338062286377,0.0,0.5,0.295410126,4.963769999999998,0.0,8718.0,0.875,-1620.0,-1369.1338062286377,0.0,0.125,3.4240719150000003,0.01,0.0,-25786.0,13.25,1410.0,1369.1338062286377,0.0,0.5,1.7321775570000002,0.01,0.0,1.2899999618530273,-3.740000009536743,-58.810001373291016,0.0538330078125,0.171875,0.52410888671875,36.459999084472656,0.0,-91.0,0.648162841796875,-0.698150634765625,Closing,0.0,0.0,3.0,0.0,0.0,0.0,0.0,0.0,
4.7960320000000065,0.0,0.0,100014.0,0.375,-1395.0,-1210.3937244415283,0.0,0.125,0.798339762,4.932250999999998,0.0,-124361.0,1.25,1560.0,1210.3937244415283,0.0,0.25,0.31005856200000004,4.963769999999998,0.0,8718.0,1.5,-1410.0,-1210.3937244415283,0.0,0.125,3.4204098060000003,0.01,0.0,-25520.0,5.875,1657.5,1210.3937244415283,0.0,0.25,1.6552732680000002,0.01,0.0,1.4500000476837158,-3.5199999809265137,-60.59000015258789,-0.05914306640625,0.31036376953125,0.7105712890625,36.459999084472656,0.0,4.0,0.613433837890625,-0.688629150390625,Closing,0.0,0.0,3.0,0.0,0.0,0.0,0.0,0.0,
4.892428000000015,0.0,0.0,99791.0,0.375,-1342.5,-1131.023608446121,0.0,0.25,0.799560465,4.932250999999998,0.0,-124361.0,0.625,1470.0,1131.023608446121,0.0,0.25,0.391845663,4.963769999999998,0.0,8507.0,1.75,-1252.5,-1131.023608446121,0.0,0.125,3.399657855,0.01,0.0,-25279.0,3.5,1560.0,1131.023608446121,0.0,0.25,1.5820310880000001,0.01,0.0,1.399999976158142,-3.140000104904175,-62.7400016784668,0.05731201171875,-0.141357421875,0.89251708984375,36.459999084472656,0.0,193.0,0.5809478759765625,-0.67706298828125,Closing,0.0,0.0,3.0,0.0,0.0,0.0,0.0,0.0,
4.987909000000044,0.0,0.0,99582.0,6.75,-1312.5,-2100.0,0.0,2.0,0.9863280240000001,0.5498168668524864,0.0,-124138.0,30.0,795.0,-2100.0,0.0,1.75,0.406494099,4.41043958977222,0.0,8302.0,9.625,-1290.0,-2100.0,0.0,1.0,3.1542965520000004,4.389674732977291,0.0,-25279.0,19.5,1170.0,-2100.0,0.0,2.125,1.678466625,0.552687206278561,0.0,1.0800000429153442,-2.049999952316284,-62.880001068115234,0.224365234375,-0.39239501953125,0.7171630859375,36.459999084472656,0.0,475.0,0.5592498779296875,-0.6750946044921875,Closing,0.0,0.0,3.0,0.0,0.0,0.0,0.0,0.0,
5.075464000000037,0.0,0.0,99385.0,0.5,-1365.0,0.0,0.0,0.5,1.314697131,0.5498168668524864,0.0,-124197.0,0.0,-472.5,0.0,0.0,0.875,0.102539052,4.41043958977222,0.0,8127.0,0.0,-1215.0,0.0,0.0,0.25,2.828368851,4.389674732977291,0.0,-25162.0,0.125,757.5,0.0,0.0,1.0,2.039794713,0.552687206278561,0.0,0.6600000262260437,-0.9100000262260437,-58.880001068115234,0.759033203125,-0.16802978515625,1.47265625,36.459999084472656,0.0,562.0,0.5522003173828125,-0.662017822265625,Closing,0.0,0.0,3.0,0.0,0.0,0.0,0.0,0.0,
5.172105000000039,0.0,0.0,99385.0,0.0,-757.5,0.0,0.0,0.125,1.455077976,0.5498168668524864,0.0,-124142.0,0.0,322.5,0.0,0.0,0.25,4.864501455,4.41043958977222,0.0,8127.0,0.0,-202.5,0.0,0.0,0.125,2.7416989380000003,4.389674732977291,0.0,-25095.0,0.125,300.0,0.0,0.0,0.375,2.159423607,0.552687206278561,0.0,0.8199999928474426,1.8600000143051147,-57.20000076293945,0.50958251953125,0.3248291015625,1.0909423828125,36.459999084472656,0.0,-3.0,0.561309814453125,-0.6270904541015625,Closing,0.0,0.0,3.0,0.0,0.0,0.0,0.0,0.0,
5.26695199999999,0.0,0.0,99298.0,0.0,-217.5,0.0,0.0,0.375,1.457519382,0.5498168668524864,0.0,-124155.0,0.0,-37.5,0.0,0.0,0.25,4.819335444,4.41043958977222,0.0,8103.0,0.125,-52.5,0.0,0.0,0.0,2.7416989380000003,4.389674732977291,0.0,-25091.0,0.125,22.5,0.0,0.0,0.25,2.203368915,0.552687206278561,0.0,1.4800000190734863,1.9800000190734863,-57.08000183105469,-0.23602294921875,0.14569091796875,1.1832275390625,36.459999084472656,0.0,-247.0,0.5736541748046875,-0.574371337890625,Closing,0.0,0.0,3.0,0.0,0.0,0.0,0.0,0.0,
5.357380999999994,0.0,0.0,99314.0,0.0,97.5,0.0,0.0,0.375,1.413574074,0.5498168668524864,0.0,-124155.0,0.0,-15.0,0.0,0.0,0.25,4.825438959,4.41043958977222,0.0,8103.0,0.0,0.0,0.0,0.0,0.0,2.7502438590000002,4.389674732977291,0.0,-25091.0,0.125,-7.5,0.0,0.0,0.25,2.203368915,0.552687206278561,0.0,1.0499999523162842,1.159999966621399,-56.939998626708984,0.116943359375,-0.03448486328125,1.05255126953125,36.459999084472656,0.0,97.0,0.58221435546875,-0.5228118896484375,Closing,0.0,0.0,3.0,0.0,0.0,0.0,0.0,0.0,
5.451831999999995,0.0,0.0,99289.0,16.875,-142.5,-2050.3937244415283,0.0,0.375,1.39160142,0.5498168668524864,0.0,-124157.0,21.875,-232.5,-2050.3937244415283,0.0,0.25,4.842528801,4.41043958977222,0.0,8096.0,15.0,-52.5,-2050.3937244415283,0.0,0.0,2.813720415,4.389674732977291,0.0,-25092.0,17.875,-225.0,-2050.3937244415283,0.0,0.25,2.257079847,0.552687206278561,0.0,0.75,1.4199999570846558,-55.779998779296875,0.07855224609375,-0.0169677734375,0.93267822265625,36.459999084472656,0.0,55.0,0.5899505615234375,-0.48126220703125,Closing,0.0,0.0,3.0,0.0,0.0,0.0,0.0,0.125,
5.547535000000033,0.0,0.0,99289.0,9.25,-495.0,-1273.2283651828766,0.0,0.25,1.3977049350000001,0.5498168668524864,0.0,-124267.0,11.375,-645.0,-1273.2283651828766,0.0,0.25,4.875487782,4.41043958977222,0.0,8003.0,11.375,-442.5,-1273.2283651828766,0.0,0.0,2.818603227,4.389674732977291,0.0,-25172.0,8.375,-555.0,-1273.2283651828766,0.0,0.25,2.250976332,0.552687206278561,0.0,1.0099999904632568,0.6600000262260437,-49.61000061035156,0.0460205078125,-0.01715087890625,0.91668701171875,36.459999084472656,0.0,48.0,0.5919189453125,-0.4420013427734375,Closing,0.0,0.0,3.0,0.0,0.0,0.0,0.0,0.0,
5.643912000000011,0.0,0.0,99178.0,0.0,-817.5,0.0,0.0,0.25,1.3964842320000002,0.5498168668524864,0.0012207029999999897,-124379.0,0.0,-772.5,0.0,0.0,0.25,4.9255366050000005,4.41043958977222,0.0,8003.0,0.0,-765.0,0.0,0.0,0.125,2.812499712,4.389674732977291,0.0,-25289.0,0.125,-712.5,0.0,0.0,0.25,2.194823994,0.552687206278561,0.0,1.2000000476837158,0.20999999344348907,-39.86000061035156,0.0693359375,-0.0970458984375,1.4110107421875,36.459999084472656,0.0,130.0,0.5912017822265625,-0.3983612060546875,Closing,0.0,0.0,3.0,0.0,0.0,0.0,0.0,0.0,
5.733592999999994,0.0,0.0,99063.0,0.0,-682.5,0.0,0.0,0.25,1.3964842320000002,0.5498168668524864,0.0,-124379.0,0.0,-675.0,0.0,0.0,0.125,4.93164012,4.41043958977222,0.0,7887.0,0.125,-675.0,0.0,0.0,0.125,2.8039547910000002,4.389674732977291,0.0,-25394.0,0.125,-660.0,0.0,0.0,0.25,2.177734152,0.552687206278561,-0.052490229,1.1799999475479126,0.23000000417232513,-34.18000030517578,0.04736328125,-0.02484130859375,1.1947021484375,36.40999984741211,0.0,-105.0,0.592803955078125,-0.3597412109375,Closing,0.0,0.0,3.0,0.0,0.0,0.0,0.0,0.0,
5.8222770000000015,0.0,0.0,98959.0,0.0,-607.5,0.0,0.0,0.25,1.3977049350000001,0.5498168668524864,0.0,-124495.0,0.0,-607.5,0.0,0.0,0.125,4.936522932,4.41043958977222,0.0,7775.0,0.0,-660.0,0.0,0.0,0.0,2.7990719790000003,4.389674732977291,0.0,-25394.0,0.125,-630.0,0.0,0.0,0.125,2.178954855,0.552687206278561,0.0,1.149999976158142,0.07999999821186066,-28.510000228881836,0.02996826171875,0.0653076171875,1.1854248046875,36.40999984741211,0.0,5.0,0.5941009521484375,-0.328582763671875,Closing,0.0,0.0,3.0,0.0,0.0,0.0,0.0,0.0,
5.913546000000031,0.0,0.0,98886.0,0.0,-487.5,0.0,0.0,0.25,1.3964842320000002,0.5498168668524864,0.0,-124582.0,0.0,-517.5,0.0,0.0,0.125,4.934081526,4.41043958977222,0.0,7700.0,0.0,-472.5,0.0,0.0,0.0,2.7941891670000003,4.389674732977291,0.0,-25484.0,0.125,-487.5,0.0,0.0,0.125,2.177734152,0.552687206278561,0.0,1.149999976158142,-0.05000000074505806,-24.239999771118164,-0.00396728515625,0.033447265625,1.07232666015625,36.40999984741211,0.0,-7.0,0.594146728515625,-0.2968902587890625,Closing,0.0,0.0,3.0,0.0,0.0,0.0,0.0,0.0,
6.011048999999999,0.0,0.0,98886.0,2.625,-240.0,328.125,0.0,0.25,1.390380717,0.5498168668524888,0.0,-124621.0,4.25,-232.5,328.125,0.0,0.125,4.93164012,4.410439589772222,0.0,7663.0,2.625,-307.5,328.125,0.0,0.0,2.7893063550000003,4.389674732977289,0.0,-25536.0,2.5,-240.0,328.125,0.0,0.125,2.1691892310000003,0.5526872062785588,0.0,1.090000033378601,-0.14000000059604645,-21.780000686645508,0.01043701171875,-0.06024169921875,1.1644287109375,36.40999984741211,0.0,43.0,0.594757080078125,-0.2980804443359375,Closing,0.0,0.0,3.0,0.0,0.0,0.0,0.0,0.0,
6.1107370000000225,0.0,0.0,98867.0,18.75,75.0,1919.53125,0.0,0.25,1.3720701720000001,0.5498168668524887,0.0,-124575.0,25.75,82.5,1919.53125,0.0,0.125,4.9255366050000005,4.410439589772222,0.0,7663.0,21.25,-37.5,1919.53125,0.0,0.0,2.779540731,4.389674732977289,0.0,-25505.0,19.875,142.5,1919.53125,0.0,0.125,2.106933378,0.5526872062785588,0.0,1.2100000381469727,-0.03999999910593033,-24.510000228881836,-0.04803466796875,0.08563232421875,0.89703369140625,36.40999984741211,0.0,-70.0,0.5956573486328125,-0.299652099609375,Closing,0.0,0.0,3.0,0.0,0.0,0.0,0.0,0.0,
6.205460000000021,0.0,0.0,98943.0,4.0,487.5,0.0,0.0,0.125,1.3720701720000001,0.5498168668524887,-0.024414060000000015,-124575.0,7.125,532.5,0.0,0.0,0.125,4.899901842,4.410439589772222,-0.004882811999999959,7683.0,6.0,165.0,0.0,0.0,0.0,2.7893063550000003,4.389674732977289,-0.009765623999999917,-25505.0,1.0,495.0,0.0,0.0,0.25,2.1166990020000003,0.5526872062785588,0.0,1.340000033378601,0.10000000149011612,-31.31999969482422,-0.4036865234375,-0.0418701171875,1.404296875,36.369998931884766,0.0,-308.0,0.5944671630859375,-0.29888916015625,Closing,0.0,0.0,3.0,0.0,0.0,0.0,0.0,0.125,
6.294449000000022,0.0,0.0,99031.0,0.0,540.0,0.0,0.0,0.125,1.3720701720000001,0.5498168668524887,0.0,-124478.0,0.0,607.5,0.0,0.0,0.25,4.882812,4.410439589772222,-0.037841793000000123,7730.0,0.0,292.5,0.0,0.0,0.0,2.784423543,4.389674732977289,0.014648435999999876,-25413.0,0.125,637.5,0.0,0.0,0.25,2.144775171,0.5526872062785588,0.01464843600000032,1.059999942779541,0.09000000357627869,-35.900001525878906,0.10009765625,0.03778076171875,1.1055908203125,36.369998931884766,0.0,69.0,0.592620849609375,-0.3001251220703125,Closing,0.0,0.0,3.0,0.0,0.0,0.0,0.0,0.125,
6.390086999999999,0.0,0.0,99031.0,0.0,457.5,0.0,0.0,0.25,1.381835796,0.5498168668524887,0.0,-124395.0,0.0,480.0,0.0,0.0,0.25,4.882812,4.410439589772222,0.0,7793.0,0.0,435.0,0.0,0.0,0.0,2.785644246,4.389674732977289,0.0,-25330.0,0.125,450.0,0.0,0.0,0.25,2.159423607,0.5526872062785588,0.024414059999999793,0.9300000071525574,0.05999999865889549,-41.119998931884766,-0.05059814453125,-0.00396728515625,1.153564453125,36.369998931884766,0.0,-24.0,0.590301513671875,-0.300201416015625,Closing,0.0,0.0,3.0,0.0,0.0,0.0,0.0,0.0,
6.476438000000024,0.0,0.0,99101.0,0.0,397.5,0.0,0.0,0.25,1.376952984,0.5498168668524887,0.0,-124341.0,0.0,367.5,0.0,0.0,0.25,4.884032703,4.410439589772222,0.0,7793.0,0.0,367.5,0.0,0.0,0.0,2.784423543,4.389674732977289,0.0,-25272.0,0.125,337.5,0.0,0.0,0.125,2.159423607,0.5526872062785588,0.0,0.800000011920929,0.15000000596046448,-44.27000045776367,-0.04669189453125,-0.0557861328125,0.912841796875,36.369998931884766,0.0,12.0,0.587615966796875,-0.3011474609375,Closing,0.0,0.0,3.0,0.0,0.0,0.0,0.0,0.0,
6.571676000000036,0.0,0.0,99152.0,0.0,262.5,0.0,0.0,0.125,1.3720701720000001,0.5498168668524887,0.0,-124341.0,0.0,262.5,0.0,0.0,0.25,4.882812,4.410439589772222,0.0,7844.0,0.0,240.0,0.0,0.0,0.0,2.7880856520000004,4.389674732977289,0.0,-25240.0,0.125,240.0,0.0,0.0,0.125,2.159423607,0.5526872062785588,0.0,0.75,0.10999999940395355,-46.290000915527344,-0.02593994140625,-0.00823974609375,1.01580810546875,36.369998931884766,0.0,-3.0,0.585662841796875,-0.301422119140625,Closing,0.0,0.0,3.0,0.0,0.0,0.0,0.0,0.0,
6.666594000000041,0.0,0.0,99164.0,4.5,45.0,-826.7716348171234,0.0,0.25,1.386718608,0.5498168668524864,0.0,-124309.0,6.625,67.5,-826.7716348171234,0.0,0.25,4.884032703,4.41043958977222,0.0,7861.0,4.125,30.0,-826.7716348171234,0.0,0.0,2.8076169,4.389674732977291,0.0,-25240.0,3.375,97.5,-826.7716348171234,0.0,0.125,2.1630857160000003,0.552687206278561,0.0,0.550000011920929,-0.019999999552965164,-46.68000030517578,0.0054931640625,-0.04205322265625,0.8529052734375,36.369998931884766,0.0,40.0,0.585723876953125,-0.3029632568359375,Closing,0.0,0.0,3.0,0.0,0.0,0.0,0.0,0.0,
6.756439000000013,0.0,0.0,99127.0,2.0,-172.5,-462.9921242594719,0.0,0.25,1.386718608,0.5498168668524864,0.0,-124331.0,3.375,-180.0,-462.9921242594719,0.0,0.25,4.921874496,4.41043958977222,0.0,7830.0,1.875,-180.0,-462.9921242594719,0.0,0.0,2.818603227,4.389674732977291,0.0,-25252.0,1.875,-180.0,-462.9921242594719,0.0,0.125,2.202148212,0.5526872062785609,0.0,0.5400000214576721,-0.07000000029802322,-44.45000076293945,-0.01922607421875,-0.001953125,1.0281982421875,36.41999816894531,0.0,-4.0,0.585418701171875,-0.30596923828125,Closing,0.0,0.0,3.0,0.0,0.0,0.0,0.0,0.125,
6.852173000000009,0.0,0.0,99127.0,0.0,-240.0,0.0,0.0,0.25,1.385497905,0.5498168668524864,-0.0012207029999999897,-124369.0,0.0,-232.5,0.0,0.0,0.0,4.921874496,4.41043958977222,0.0402831990000001,7830.0,0.125,-247.5,0.0,0.0,0.125,2.813720415,4.389674732977291,0.007324217999999938,-25296.0,0.125,-277.5,0.0,0.0,0.25,2.202148212,0.5526872062785609,0.0,0.5899999737739563,-0.30000001192092896,-40.90999984741211,-0.0029296875,0.0372314453125,1.096923828125,36.41999816894531,0.0,-14.0,0.5850067138671875,-0.30999755859375,Closing,0.0,0.0,3.0,0.0,0.0,0.0,0.0,0.0,
6.950377000000037,0.0,0.0,99106.0,0.0,-112.5,0.0,0.0,0.25,1.385497905,0.5498168668524864,0.0,-124369.0,0.0,-112.5,0.0,0.0,0.0,4.921874496,4.41043958977222,0.0,7797.0,0.0,-60.0,0.0,0.0,0.0,2.814941118,4.389674732977291,0.0,-25313.0,0.125,-112.5,0.0,0.0,0.25,2.211913836,0.5526872062785609,0.0,0.5400000214576721,-0.28999999165534973,-38.97999954223633,-0.01959228515625,-4.8828125E-4,1.0772705078125,36.41999816894531,0.0,-4.0,0.5828704833984375,-0.310791015625,Closing,0.0,0.0,3.0,0.0,0.0,0.0,0.0,0.0,
7.036409000000043,0.0,0.0,99082.0,0.0,-127.5,0.0,0.0,0.25,1.385497905,0.5498168668524864,0.0,-124394.0,0.0,-120.0,0.0,0.0,0.0,4.9230951990000005,4.41043958977222,0.0,7790.0,0.0,-45.0,0.0,0.0,0.0,2.812499712,4.389674732977291,0.0,-25313.0,0.125,-82.5,0.0,0.0,0.25,2.211913836,0.5526872062785609,0.009765623999999917,0.5899999737739563,-0.3100000023841858,-38.40999984741211,-3.662109375E-4,0.02001953125,0.9171142578125,36.41999816894531,0.0,-2.0,0.5816192626953125,-0.310333251953125,Closing,0.0,0.0,3.0,0.0,0.0,0.0,0.0,0.0,
7.129814000000013,0.0,0.0,99082.0,0.0,0.0,0.0,0.0,0.25,1.386718608,0.5498168668524864,0.0,-124394.0,0.0,0.0,0.0,0.0,0.0,4.9230951990000005,4.41043958977222,0.0,7789.0,0.0,0.0,0.0,0.0,0.0,2.813720415,4.389674732977291,0.0,-25319.0,0.125,0.0,0.0,0.0,0.25,2.207031024,0.5526872062785609,0.0,0.5099999904632568,-0.3100000023841858,-38.84000015258789,-0.0157470703125,0.009033203125,1.001220703125,36.41999816894531,0.0,-7.0,0.58172607421875,-0.310516357421875,Closing,0.0,0.0,3.0,0.0,0.0,0.0,0.0,0.125,
7.220828000000037,0.0,0.0,99082.0,0.0,0.0,0.0,0.0,0.25,1.386718608,0.5498168668524864,0.0,-124394.0,0.0,0.0,0.0,0.0,0.0,4.9206537930000005,4.41043958977222,0.0,7789.0,0.0,0.0,0.0,0.0,0.0,2.814941118,4.389674732977291,0.0,-25319.0,0.125,0.0,0.0,0.0,0.25,2.202148212,0.5526872062785609,0.0,0.5400000214576721,-0.3700000047683716,-39.2599983215332,-0.01495361328125,-0.0057373046875,1.04278564453125,36.400001525878906,0.0,3.0,0.58154296875,-0.310516357421875,Closing,0.0,0.0,3.0,0.0,0.0,0.0,0.0,0.0,
7.312962,0.0,0.0,99082.0,0.125,0.0,-198.42519611120224,0.0,2.375,1.224365109,4.932250999999998,0.0,-124394.0,0.25,0.0,198.42519611120224,0.0,2.625,0.076904289,4.963769999999998,0.0,7789.0,0.125,-7.5,-198.42519611120224,0.0,1.75,2.910155952,0.01,0.0,-25318.0,0.375,0.0,198.42519611120224,0.0,2.75,1.990966593,0.01,0.0,0.49000000953674316,-0.3700000047683716,-39.5,-0.0206298828125,-0.04986572265625,1.06121826171875,36.400001525878906,0.0,26.0,0.581573486328125,-0.310546875,Closing,0.0,0.0,3.0,0.0,0.0,0.0,0.0,0.125,
7.407526000000012,0.0,0.0,99079.0,1.375,-52.5,-555.5905491113663,0.0,0.625,0.875244051,4.932250999999998,0.0,-124394.0,1.75,67.5,555.5905491113663,0.0,0.75,0.47363276400000004,4.963769999999998,0.0,7783.0,1.5,-67.5,-555.5905491113663,0.0,0.5,3.3251949720000002,0.01,0.0,-25296.0,1.5,97.5,555.5905491113663,0.0,0.625,1.621093584,0.01,0.0,0.49000000953674316,-0.6499999761581421,-39.540000915527344,-0.100830078125,-0.00335693359375,0.78582763671875,36.400001525878906,0.0,-64.0,0.5808563232421875,-0.3116607666015625,Closing,0.0,0.0,3.0,0.0,0.0,0.0,0.0,0.0,
7.508708000000042,0.0,0.0,99061.0,2.25,-97.5,-555.5905491113663,0.0,0.5,0.7226561760000001,4.932250999999998,0.0,-124376.0,3.25,97.5,555.5905491113663,0.0,0.125,0.690917898,4.963769999999998,0.0,7769.0,2.25,-90.0,-555.5905491113663,0.0,0.25,3.511962531,0.01,0.0,-25296.0,1.875,150.0,555.5905491113663,0.0,0.25,1.4465330550000002,0.01,0.0,0.44999998807907104,-1.0800000429153442,-39.459999084472656,-0.126953125,0.00872802734375,0.9766845703125,36.400001525878906,0.0,-84.0,0.5767669677734375,-0.31640625,Closing,0.0,0.0,3.0,0.0,0.0,0.0,0.0,0.0,
7.609103999999992,0.0,0.0,99024.0,3.25,-225.0,-575.433059334755,0.0,0.25,0.7373046120000001,4.932250999999998,0.0,-124350.0,4.625,217.5,575.433059334755,0.0,0.25,0.662841729,4.963769999999998,0.0,7734.0,3.0,-225.0,-575.433059334755,0.0,0.25,3.509521125,0.01,0.0,-25268.0,2.75,217.5,575.433059334755,0.0,0.375,1.437988134,0.01,0.0,0.44999998807907104,-1.3300000429153442,-39.400001525878906,-0.01959228515625,-6.103515625E-5,0.97137451171875,36.400001525878906,0.0,7.0,0.5678863525390625,-0.325714111328125,Closing,0.0,0.0,3.0,0.0,0.0,0.0,0.0,0.0,
7.706728999999992,0.0,0.0,99024.0,3.375,-277.5,-575.433059334755,0.0,0.25,0.799560465,4.932250999999998,0.0,-124306.0,4.75,270.0,575.433059334755,0.0,0.25,0.638427669,4.963769999999998,0.0,7685.0,3.125,-300.0,-575.433059334755,0.0,0.25,3.447265272,0.01,0.0,-25230.0,3.375,232.5,575.433059334755,0.0,0.375,1.567382652,0.01,0.0,0.4399999976158142,-1.3600000143051147,-39.13999938964844,-0.06640625,0.01141357421875,1.01171875,36.400001525878906,0.0,-34.0,0.56011962890625,-0.326446533203125,Closing,0.0,0.0,3.0,0.0,0.0,0.0,0.0,0.125,
7.798726000000024,0.0,0.0,98975.0,3.625,-337.5,-575.433059334755,0.0,0.125,0.8178710100000001,4.932250999999998,0.0,-124252.0,6.0,322.5,575.433059334755,0.0,0.25,0.565185489,4.963769999999998,0.0,7685.0,3.875,-330.0,-575.433059334755,0.0,0.125,3.383788716,0.01,0.0,-25179.0,3.875,330.0,575.433059334755,0.0,0.375,1.6638181890000001,0.01,0.0,0.4000000059604645,-1.590000033378601,-39.040000915527344,-0.12567138671875,0.02581787109375,1.07098388671875,36.400001525878906,0.0,-85.0,0.55914306640625,-0.3289337158203125,Closing,0.0,0.0,3.0,0.0,0.0,0.0,0.0,0.0,
7.894500999999989,0.0,0.0,98917.0,3.75,-397.5,-575.433059334755,0.0,0.25,0.8178710100000001,4.932250999999998,0.0,-124252.0,5.5,427.5,575.433059334755,0.0,0.25,0.435790971,4.963769999999998,0.0,7625.0,3.5,-427.5,-575.433059334755,0.0,0.125,3.3715816860000003,0.01,0.0,-25106.0,3.125,427.5,575.433059334755,0.0,0.25,1.6833494370000002,0.01,0.0,0.4399999976158142,-1.9299999475479126,-39.060001373291016,-0.1473388671875,0.065185546875,1.05938720703125,36.400001525878906,0.0,-122.0,0.5552825927734375,-0.334503173828125,Closing,0.0,0.0,3.0,0.0,0.0,0.0,0.0,0.125,
7.99221100000001,0.0,0.0,98834.0,3.125,-517.5,-575.433059334755,0.0,0.25,0.8178710100000001,4.932250999999998,0.0,-124171.0,3.625,585.0,575.433059334755,0.0,0.25,0.386962851,4.963769999999998,0.0,7542.0,2.75,-540.0,-575.433059334755,0.0,0.0,3.383788716,0.01,0.0,-25106.0,2.625,577.5,575.433059334755,0.0,0.25,1.678466625,0.01,0.0,0.5400000214576721,-2.200000047683716,-39.5099983215332,-0.035400390625,0.05718994140625,1.01043701171875,36.400001525878906,0.0,-27.0,0.546051025390625,-0.3388824462890625,Closing,0.0,0.0,3.0,0.0,0.0,0.0,0.0,0.0,
8.089148000000044,0.0,0.0,98742.0,2.75,-570.0,-575.433059334755,0.0,0.25,0.8178710100000001,4.932250999999998,0.0,-124066.0,2.25,667.5,575.433059334755,0.0,0.5,0.429687456,4.963769999999998,0.0,7449.0,2.5,-585.0,-575.433059334755,0.0,0.0,3.3728023890000003,0.01,0.0,-25006.0,2.0,660.0,575.433059334755,0.0,0.25,1.645507644,0.01,0.0,0.5099999904632568,-2.2100000381469727,-40.20000076293945,0.00140380859375,-0.0252685546875,1.07220458984375,36.400001525878906,0.0,55.0,0.5331573486328125,-0.33929443359375,Closing,0.0,0.0,3.0,0.0,0.0,0.0,0.0,0.0,
8.192538,0.0,0.0,98640.0,2.25,-630.0,-575.433059334755,0.0,0.25,0.8166503070000001,4.932250999999998,0.0,-123958.0,1.875,675.0,575.433059334755,0.0,0.25,0.47241206100000005,4.963769999999998,0.0,7345.0,1.875,-637.5,-575.433059334755,0.0,0.0,3.3679195770000003,0.01,0.0,-24898.0,1.625,667.5,575.433059334755,0.0,0.125,1.614990069,0.01,0.0,0.4399999976158142,-2.140000104904175,-40.5,-0.06158447265625,-0.044921875,1.03472900390625,36.400001525878906,0.0,17.0,0.52130126953125,-0.340911865234375,Closing,0.0,0.0,3.0,0.0,0.0,0.0,0.0,0.0,
8.291929000000003,0.0,0.0,98640.0,1.375,-660.0,-575.433059334755,0.0,0.25,0.8178710100000001,4.932250999999998,0.0,-123848.0,1.5,690.0,575.433059334755,0.0,0.25,0.490722606,4.963769999999998,0.0,7345.0,1.25,-675.0,-575.433059334755,0.0,0.0,3.3618160620000004,0.01,0.0,-24792.0,1.125,667.5,575.433059334755,0.0,0.125,1.616210772,0.01,0.0,0.4099999964237213,-2.049999952316284,-40.619998931884766,-0.06365966796875,0.0299072265625,0.95477294921875,36.38999938964844,0.0,-37.0,0.5194091796875,-0.3422698974609375,Closing,0.0,0.0,3.0,0.0,0.0,0.0,0.0,0.125,
8.388456999999995,0.0,0.0,98532.0,1.0,-675.0,-575.433059334755,0.0,0.25,0.812988198,4.932250999999998,0.0,-123740.0,1.25,675.0,575.433059334755,0.0,0.125,0.484619091,4.963769999999998,0.0,7236.0,1.0,-667.5,-575.433059334755,0.0,0.0,3.354491844,0.01,0.0,-24684.0,0.875,660.0,575.433059334755,0.0,0.125,1.616210772,0.01,0.0,0.4099999964237213,-1.9500000476837158,-40.65999984741211,-0.0289306640625,0.04046630859375,1.11248779296875,36.38999938964844,0.0,-14.0,0.5181427001953125,-0.3409271240234375,Closing,0.0,0.0,3.0,0.0,0.0,0.0,0.0,0.0,
8.483975000000035,0.0,0.0,98425.0,0.75,-660.0,-575.433059334755,0.0,0.25,0.8154296040000001,4.932250999999998,0.0,-123740.0,1.25,652.5,575.433059334755,0.0,0.125,0.484619091,4.963769999999998,0.0,7130.0,0.875,-660.0,-575.433059334755,0.0,0.0,3.338622705,0.01,0.0,-24581.0,0.875,652.5,575.433059334755,0.0,0.125,1.62353499,0.01,0.0,0.36000001430511475,-1.7699999809265137,-40.650001525878906,-0.05426025390625,0.11529541015625,1.00054931640625,36.38999938964844,0.0,-88.0,0.517120361328125,-0.33978271484375,Closing,0.0,0.0,3.0,0.0,0.0,0.0,0.0,0.0,
8.58625900000002,0.0,0.0,98320.0,0.625,-652.5,-575.433059334755,0.0,0.25,0.8142089010000001,4.932250999999998,0.0,-123637.0,1.0,630.0,575.433059334755,0.0,0.125,0.483398388,4.963769999999998,0.0,7025.0,0.875,-652.5,-575.433059334755,0.0,0.0,3.337402002,0.01,0.0,-24581.0,0.875,637.5,575.433059334755,0.0,0.125,1.616210772,0.01,0.0,0.3499999940395355,-1.6299999952316284,-40.59000015258789,0.01715087890625,-0.034912109375,0.9205322265625,36.38999938964844,0.0,59.0,0.5160064697265625,-0.3389739990234375,Closing,0.0,0.0,3.0,0.0,0.0,0.0,0.0,0.0,
8.691803000000014,0.0,0.0,98218.0,0.625,-637.5,-575.433059334755,0.0,0.125,0.808105386,4.932250999999998,0.0,-123537.0,0.875,615.0,575.433059334755,0.0,0.125,0.483398388,4.963769999999998,0.0,6924.0,0.875,-622.5,-575.433059334755,0.0,0.0,3.338622705,0.01,0.0,-24479.0,0.875,622.5,575.433059334755,0.0,0.125,1.616210772,0.01,0.0,0.4000000059604645,-1.4900000095367432,-40.59000015258789,0.0076904296875,0.0238037109375,1.01318359375,36.38999938964844,0.0,15.0,0.5171966552734375,-0.3387451171875,Closing,0.0,0.0,3.0,0.0,0.0,0.0,0.0,0.0,
8.791667000000016,0.0,0.0,98121.0,0.625,-615.0,-575.433059334755,0.0,0.25,0.8032225740000001,4.932250999999998,0.0,-123438.0,1.0,615.0,575.433059334755,0.0,0.125,0.484619091,4.963769999999998,0.0,6827.0,0.875,-607.5,-575.433059334755,0.0,0.0,3.330077784,0.01,0.0,-24383.0,0.875,592.5,575.433059334755,0.0,0.125,1.616210772,0.01,0.0,0.3700000047683716,-1.3700000047683716,-40.630001068115234,0.01519775390625,-0.06781005859375,1.061767578125,36.36000061035156,0.0,79.0,0.51971435546875,-0.33734130859375,Closing,0.0,0.0,3.0,0.0,0.0,0.0,0.0,0.0,
8.890629000000015,0.0,0.0,98121.0,0.625,-592.5,-575.433059334755,0.0,0.25,0.8044432770000001,4.932250999999998,0.0,-123342.0,0.875,600.0,575.433059334755,0.0,0.125,0.483398388,4.963769999999998,0.0,6732.0,0.875,-592.5,-575.433059334755,0.0,0.0,3.349609032,0.01,0.0,-24287.0,0.875,585.0,575.433059334755,0.0,0.125,1.616210772,0.01,0.0,0.3499999940395355,-1.2899999618530273,-40.65999984741211,6.103515625E-5,0.0042724609375,1.05224609375,36.36000061035156,0.0,19.0,0.524688720703125,-0.3366546630859375,Closing,0.0,0.0,3.0,0.0,0.0,0.0,0.0,0.0,
8.995434999999997,0.0,0.0,98027.0,1.0,-577.5,-634.9606275558472,0.0,0.25,0.8032225740000001,4.932250999999998,0.0,-123247.0,1.375,585.0,634.9606275558472,0.0,0.125,0.490722606,4.963769999999998,0.0,6732.0,1.0,-577.5,-634.9606275558472,0.0,0.0,3.338622705,0.01,0.0,-24197.0,1.5,562.5,634.9606275558472,0.0,0.125,1.616210772,0.01,0.0,0.28999999165534973,-1.2400000095367432,-40.70000076293945,0.04150390625,0.0052490234375,1.0701904296875,36.36000061035156,0.0,49.0,0.525360107421875,-0.335174560546875,Closing,0.0,0.0,3.0,0.0,0.0,0.0,0.0,0.0,
9.09376800000004,0.0,0.0,97933.0,1.25,-585.0,-634.9606275558472,0.0,0.25,0.8032225740000001,4.932250999999998,0.0,-123247.0,1.5,577.5,634.9606275558472,0.0,0.125,0.49316401200000004,4.963769999999998,0.0,6640.0,1.25,-577.5,-634.9606275558472,0.0,0.0,3.343505517,0.01,0.0,-24108.0,1.625,555.0,634.9606275558472,0.0,0.125,1.6076658510000001,0.01,0.0,0.23000000417232513,-1.2400000095367432,-40.68000030517578,-2.44140625E-4,-0.00726318359375,1.03515625,36.36000061035156,0.0,24.0,0.5256195068359375,-0.3338623046875,Closing,0.0,0.0,3.0,0.0,0.0,0.0,0.0,0.0,
9.193179000000004,0.0,0.0,97838.0,1.25,-585.0,-634.9606275558472,0.0,0.25,0.8032225740000001,4.932250999999998,0.0,-123154.0,1.5,585.0,634.9606275558472,0.0,0.125,0.483398388,4.963769999999998,0.0,6546.0,1.5,-592.5,-634.9606275558472,0.0,0.0,3.348388329,0.01,0.0,-24108.0,1.625,577.5,634.9606275558472,0.0,0.125,1.614990069,0.01,0.0,0.20999999344348907,-1.309999942779541,-40.689998626708984,-0.00738525390625,0.0074462890625,0.9417724609375,36.36000061035156,0.0,8.0,0.526123046875,-0.3336181640625,Closing,0.0,0.0,3.0,0.0,0.0,0.0,0.0,0.0,
9.292948000000033,0.0,0.0,97741.0,1.25,-600.0,-634.9606275558472,0.0,0.25,0.8044432770000001,4.932250999999998,0.0,-123058.0,1.5,592.5,634.9606275558472,0.0,0.125,0.484619091,4.963769999999998,0.0,6450.0,1.5,-592.5,-634.9606275558472,0.0,0.0,3.343505517,0.01,0.0,-24013.0,1.625,592.5,634.9606275558472,0.0,0.125,1.613769366,0.01,0.0,0.25,-1.2999999523162842,-40.68000030517578,-0.0101318359375,-0.0135498046875,1.11407470703125,36.38999938964844,0.0,23.0,0.5263824462890625,-0.333343505859375,Closing,0.0,0.0,3.0,0.0,0.0,0.0,0.0,0.0,
9.39525,0.0,0.0,97642.0,1.25,-615.0,-634.9606275558472,0.0,0.125,0.8044432770000001,4.932250999999998,0.0,-122963.0,1.75,592.5,634.9606275558472,0.0,0.125,0.483398388,4.963769999999998,0.0,6353.0,1.5,-600.0,-634.9606275558472,0.0,0.0,3.347167626,0.01,0.0,-23919.0,1.625,585.0,634.9606275558472,0.0,0.125,1.614990069,0.01,0.0,0.23000000417232513,-1.3700000047683716,-40.66999816894531,-0.00860595703125,0.0748291015625,0.98162841796875,36.38999938964844,0.0,-34.0,0.5264892578125,-0.33349609375,Closing,0.0,0.0,3.0,0.0,0.0,0.0,0.0,0.0,
9.500108999999997,0.0,0.0,97642.0,1.0,-622.5,-634.9606275558472,0.0,0.25,0.8032225740000001,4.932250999999998,0.0,-122867.0,1.875,600.0,634.9606275558472,0.0,0.125,0.5029296360000001,4.963769999999998,0.0,6253.0,1.5,-622.5,-634.9606275558472,0.0,0.0,3.338622705,0.01,0.0,-23823.0,1.625,600.0,634.9606275558472,0.0,0.125,1.614990069,0.01,0.0,0.20999999344348907,-1.350000023841858,-40.619998931884766,0.0245361328125,-0.081298828125,1.093505859375,36.38999938964844,0.0,93.0,0.52716064453125,-0.333251953125,Closing,0.0,0.0,3.0,0.0,0.0,0.0,0.0,0.0,
9.603391000000004,0.0,0.0,97542.0,1.25,-615.0,-634.9606275558472,0.0,0.125,0.8032225740000001,4.932250999999998,0.0,-122766.0,1.75,630.0,634.9606275558472,0.0,0.125,0.484619091,4.963769999999998,0.0,6253.0,1.5,-615.0,-634.9606275558472,0.0,0.0,3.339843408,0.01,0.0,-23725.0,1.625,607.5,634.9606275558472,0.0,0.125,1.616210772,0.01,0.0,0.1899999976158142,-1.3300000429153442,-40.68000030517578,-0.04150390625,-0.03448486328125,1.06982421875,36.38999938964844,0.0,12.0,0.5280914306640625,-0.3333740234375,Closing,0.0,0.0,3.0,0.0,0.0,0.0,0.0,0.0,
9.702170000000041,0.0,0.0,97443.0,1.25,-622.5,-634.9606275558472,0.0,0.25,0.8032225740000001,4.932250999999998,0.0,-122766.0,1.625,630.0,634.9606275558472,0.0,0.125,0.483398388,4.963769999999998,0.0,6154.0,1.5,-615.0,-634.9606275558472,0.0,0.0,3.336181299,0.01,0.0,-23627.0,1.875,615.0,634.9606275558472,0.0,0.125,1.616210772,0.01,0.0,0.1599999964237213,-1.409999966621399,-40.720001220703125,-0.03997802734375,-0.0439453125,1.04022216796875,36.38999938964844,0.0,19.0,0.5280609130859375,-0.333892822265625,Closing,0.0,0.0,3.0,0.0,0.0,0.0,0.0,0.0,
9.791043999999994,0.0,0.0,97342.0,1.25,-630.0,-634.9606275558472,0.0,0.25,0.8032225740000001,4.932250999999998,0.0,-122665.0,1.625,622.5,634.9606275558472,0.0,0.125,0.483398388,4.963769999999998,0.0,6054.0,1.25,-630.0,-634.9606275558472,0.0,0.0,3.338622705,0.01,0.0,-23627.0,1.625,607.5,634.9606275558472,0.0,0.125,1.614990069,0.01,0.0,0.10000000149011612,-1.2999999523162842,-40.68000030517578,0.0068359375,0.04296875,0.84783935546875,36.38999938964844,0.0,-7.0,0.528594970703125,-0.334014892578125,Closing,0.0,0.0,3.0,0.0,0.0,0.0,0.0,0.0,
9.887498000000022,0.0,0.0,97239.0,1.0,-637.5,-634.9606275558472,0.0,0.25,0.8032225740000001,4.932250999999998,0.0,-122563.0,1.5,637.5,634.9606275558472,0.0,0.125,0.47485346700000003,4.963769999999998,0.0,5948.0,1.25,-652.5,-634.9606275558472,0.0,0.0,3.334960596,0.01,0.0,-23528.0,1.625,630.0,634.9606275558472,0.0,0.125,1.616210772,0.01,0.0,0.14000000059604645,-1.2999999523162842,-40.619998931884766,-0.02362060546875,0.00103759765625,1.0758056640625,36.38999938964844,0.0,1.0,0.528839111328125,-0.33270263671875,Closing,0.0,0.0,3.0,0.0,0.0,0.0,0.0,0.0,
9.976608000000008,0.0,0.0,97239.0,1.0,-637.5,-634.9606275558472,0.0,0.25,0.8032225740000001,4.932250999999998,0.0,-122461.0,1.625,637.5,634.9606275558472,0.0,0.125,0.483398388,4.963769999999998,0.0,5845.0,1.25,-637.5,-634.9606275558472,0.0,0.0,3.338622705,0.01,0.0,-23425.0,1.5,637.5,634.9606275558472,0.0,0.125,1.616210772,0.01,0.0,0.11999999731779099,-1.2899999618530273,-40.66999816894531,0.00677490234375,0.025146484375,1.0733642578125,36.38999938964844,0.0,8.0,0.529052734375,-0.332275390625,Closing,0.0,0.0,3.0,0.0,0.0,0.0,0.0,0.125,
10.071549999999988,0.0,0.0,97137.0,1.0,-630.0,-634.9606275558472,0.0,0.25,0.8032225740000001,4.932250999999998,0.0,-122361.0,1.625,622.5,634.9606275558472,0.0,0.125,0.483398388,4.963769999999998,0.0,5845.0,1.25,-645.0,-634.9606275558472,0.0,0.0,3.337402002,0.01,0.0,-23324.0,1.625,622.5,634.9606275558472,0.0,0.125,1.621093584,0.01,0.0,0.10999999940395355,-1.1699999570846558,-40.689998626708984,-0.00738525390625,0.04058837890625,0.86383056640625,36.38999938964844,0.0,-17.0,0.5300140380859375,-0.33184814453125,Closing,0.0,0.0,3.0,0.0,0.0,0.0,0.0,0.0,
10.166981000000028,0.0,0.0,97035.0,1.0,-630.0,-634.9606275558472,0.0,0.25,0.806884683,4.932250999999998,0.0,-122361.0,1.625,622.5,634.9606275558472,0.0,0.125,0.483398388,4.963769999999998,0.0,5741.0,1.0,-645.0,-634.9606275558472,0.0,0.0,3.347167626,0.01,0.0,-23324.0,1.625,630.0,634.9606275558472,0.0,0.125,1.616210772,0.01,0.0,0.07999999821186066,-1.1299999952316284,-40.720001220703125,-0.019775390625,0.09307861328125,0.97930908203125,36.38999938964844,0.0,-59.0,0.5308685302734375,-0.330169677734375,Closing,0.0,0.0,3.0,0.0,0.0,0.0,0.0,0.0,
10.257589000000037,0.0,0.0,96939.0,0.125,-600.0,-317.4803137779236,0.0,0.125,0.8032225740000001,4.932250999999998,0.0,-122259.0,0.375,592.5,317.4803137779236,0.0,0.125,0.490722606,4.963769999999998,0.0,5645.0,0.375,-585.0,-317.4803137779236,0.0,0.0,3.333739893,0.01,0.0,-23223.0,0.75,622.5,317.4803137779236,0.0,0.125,1.616210772,0.01,0.0,0.07999999821186066,-1.0199999809265137,-40.810001373291016,0.0203857421875,-0.0216064453125,0.94879150390625,36.38999938964844,0.0,43.0,0.5316009521484375,-0.328460693359375,Closing,0.0,0.0,3.0,0.0,0.0,0.0,0.0,0.0,
10.351744000000005,0.0,0.0,96868.0,0.125,-510.0,-277.79527455568314,0.0,0.25,0.8178710100000001,4.932250999999998,0.0,-122185.0,0.5,442.5,277.79527455568314,0.0,0.125,0.483398388,4.963769999999998,0.0,5568.0,0.375,-480.0,-277.79527455568314,0.0,0.0,3.352050438,0.01,0.0,-23143.0,1.125,390.0,277.79527455568314,0.0,0.125,1.614990069,0.01,0.0,-0.3799999952316284,1.100000023841858,-39.630001068115234,0.46771240234375,0.0487060546875,0.87274169921875,36.380001068115234,0.0,312.0,0.544647216796875,-0.318511962890625,Closing,0.0,0.0,3.0,0.0,0.0,0.0,0.0,0.0,
10.451198000000034,0.0,0.0,96868.0,0.0,-60.0,0.0,0.0,0.125,0.7910155440000001,4.932250999999998,0.0,-122195.0,0.125,-30.0,0.0,0.0,0.125,0.483398388,4.963769999999998,0.0,5568.0,0.0,-82.5,0.0,0.0,0.0,3.3666988740000003,0.01,0.0,-23153.0,0.125,-135.0,0.0,0.0,0.125,1.6345213170000001,0.01,0.004882811999999959,0.36000001430511475,1.5199999809265137,-39.369998931884766,0.07781982421875,-0.0675048828125,0.963134765625,36.380001068115234,0.0,86.0,0.5658416748046875,-0.29583740234375,Closing,0.0,0.0,3.0,0.0,0.0,0.0,0.0,0.125,
10.536407000000006,0.0,0.0,96893.0,0.0,202.5,0.0,0.0,0.25,0.794677653,4.932250999999998,0.0,-122195.0,0.0,-112.5,0.0,0.0,0.125,0.484619091,4.963769999999998,0.0,5585.0,0.125,217.5,0.0,0.0,0.0,3.3679195770000003,0.01,0.0,-23163.0,0.125,-75.0,0.0,0.0,0.125,1.640624832,0.01,0.0,-0.019999999552965164,1.059999942779541,-39.9900016784668,-0.169189453125,-0.0159912109375,1.1976318359375,36.380001068115234,0.0,-136.0,0.5854644775390625,-0.27337646484375,Closing,0.0,0.0,3.0,0.0,0.0,0.0,0.0,0.0,
10.632775000000024,0.0,0.0,96905.0,0.0,37.5,0.0,0.0,0.25,0.8044432770000001,4.932250999999998,0.0,-122206.0,0.0,-60.0,0.0,0.0,0.125,0.49316401200000004,4.963769999999998,0.0,5605.0,0.0,45.0,0.0,0.0,0.0,3.3679195770000003,0.01,0.0,-23163.0,0.125,-82.5,0.0,0.0,0.125,1.640624832,0.01,0.0,0.12999999523162842,0.6800000071525574,-39.54999923706055,-0.049560546875,-0.05645751953125,0.93927001953125,36.380001068115234,0.0,-9.0,0.60272216796875,-0.267486572265625,Closing,0.0,0.0,3.0,0.0,0.0,0.0,0.0,0.0,
10.729233000000008,0.0,0.0,96905.0,0.0,0.0,0.0,0.0,0.125,0.8032225740000001,4.932250999999998,0.0,-122209.0,0.0,0.0,0.0,0.0,0.125,0.49316401200000004,4.963769999999998,0.0,5605.0,0.0,0.0,0.0,0.0,0.0,3.3666988740000003,0.01,0.0,-23174.0,0.125,-15.0,0.0,0.0,0.125,1.640624832,0.01,0.0,0.05000000074505806,0.4399999976158142,-39.72999954223633,-0.038818359375,0.00775146484375,0.993896484375,36.380001068115234,0.0,-40.0,0.614959716796875,-0.2711639404296875,Closing,0.0,0.0,3.0,0.0,0.0,0.0,0.0,0.125,
10.820994000000006,0.0,0.0,96905.0,0.0,0.0,0.0,0.0,0.25,0.8044432770000001,4.932250999999998,0.0,-122209.0,0.0,0.0,0.0,0.0,0.125,0.49438471500000003,4.963769999999998,0.0,5605.0,0.125,0.0,0.0,0.0,0.0,3.3691402800000003,0.01,0.0,-23174.0,0.125,0.0,0.0,0.0,0.125,1.640624832,0.01,0.0,0.09000000357627869,0.3799999952316284,-39.68000030517578,-8.544921875E-4,0.011962890625,1.0548095703125,36.34000015258789,0.0,-12.0,0.6257171630859375,-0.2748870849609375,Closing,0.0,0.0,3.0,0.0,0.0,0.0,0.0,0.0,
10.913317000000038,0.0,0.0,96905.0,0.0,0.0,0.0,0.0,0.25,0.8044432770000001,4.932250999999998,0.0,-122209.0,0.0,0.0,0.0,0.0,0.125,0.49316401200000004,4.963769999999998,0.0,5605.0,0.0,0.0,0.0,0.0,0.0,3.3666988740000003,0.01,0.0,-23174.0,0.125,0.0,0.0,0.0,0.125,1.639404129,0.01,0.0,0.009999999776482582,0.3799999952316284,-39.65999984741211,-0.0069580078125,0.03045654296875,1.0087890625,36.34000015258789,0.0,-29.0,0.6258544921875,-0.2750701904296875,Closing,0.0,0.0,3.0,0.0,0.0,0.0,0.0,0.0,
11.003589000000037,0.0,0.0,96905.0,0.0,0.0,0.0,0.0,0.25,0.8044432770000001,4.932250999999998,0.0,-122209.0,0.0,0.0,0.0,0.0,0.125,0.49316401200000004,4.963769999999998,0.0,5605.0,0.0,0.0,0.0,0.0,0.0,3.3679195770000003,0.01,0.0,-23174.0,0.125,0.0,0.0,0.0,0.125,1.639404129,0.01,0.0,0.09000000357627869,0.3100000023841858,-39.709999084472656,-0.01324462890625,0.0037841796875,1.01580810546875,36.34000015258789,0.0,-15.0,0.62481689453125,-0.2750701904296875,Closing,0.0,0.0,3.0,0.0,0.0,0.0,0.0,0.0,
