Time,ClimberA1,ClimberA2,FRpos,FRCurrent,FRspeed,FRsetpoint,FRApos,FRACurrent,FREncpos,FREncSetpoint,FREncSpeed,FLpos,FLCurrent,FLspeed,FLsetpoint,FLApos,FLACurrent,FLEncpos,FLEncSetpoint,FLEncSpeed,BRpos,BRCurrent,BRspeed,BRsetpoint,BRApos,BRACurrent,BREncpos,BREncSetpoint,BREncSpeed,BLpos,BLCurrent,BLspeed,BLsetpoint,BLApos,BLACurrent,BLEncpos,BLEncSetpoint,BLEncSpeed,navx_Pitch,navx_Roll,navx_Yaw,navx_XAcc,navx_YAcc,navx_ZAcc,navx_Temp,navx_Bar,navx_Alt,navx_XDis,navx_YDis,GearPlacerState,ShootOutputV,ShootOutputCurrent,ShootEncPos,ShootEncVelocity,ShootSpeed,ShootSetpoint,CarouselSetpoint,CarouselCurrent,
0.584125,0.0,0.0,7339.0,0.0,0.0,0.0,0.0,0.125,0.822753822,0.01,0.0,-10403.0,0.0,0.0,0.0,0.0,0.25,0.483398388,0.01,0.0,4123.0,0.0,0.0,0.0,0.0,0.125,3.391112934,0.01,0.0,-5275.0,0.0,0.0,0.0,0.0,0.125,1.6101072570000001,0.01,0.0,0.0,-0.6200000047683716,0.07000000029802322,-0.00714111328125,-0.0023193359375,1.03662109375,32.52000045776367,0.0,4.0,-0.594818115234375,0.038787841796875,Closing,0.0,0.0,1.0,0.0,0.0,0.0,0.0,0.0,
0.7139899999999907,0.0,0.0,7339.0,1.625,45.0,840.0,0.0,0.125,0.822753822,0.01,0.0,-10403.0,1.625,-30.0,-840.0,0.0,0.0,0.483398388,0.01,0.0012207029999995456,4123.0,1.75,0.0,840.0,0.0,0.125,3.3715816860000003,0.01,0.0,-5275.0,1.375,-22.5,-840.0,0.0,0.25,1.614990069,0.01,0.0,-0.019999999552965164,-0.6200000047683716,0.05999999865889549,-0.0093994140625,0.013916015625,1.0419921875,32.52000045776367,0.0,1.0,-0.594818115234375,0.038787841796875,Closing,0.0,0.0,1.0,0.0,0.0,0.0,0.0,0.0,
0.7809229999999515,0.0,0.0,7339.0,3.0,217.5,840.0,0.0,0.125,0.8044432770000001,0.01,4.9188232670000005,-10447.0,4.875,-255.0,-840.0,0.0,0.0,0.527343696,0.01,0.0012207030000004337,4131.0,5.125,45.0,840.0,0.0,0.0,3.3666988740000003,0.01,-0.028076168999999762,-5311.0,3.25,-195.0,-840.0,0.0,0.125,1.638183426,0.01,0.007324217999999938,-0.15000000596046448,-0.1599999964237213,0.12999999523162842,0.10382080078125,-0.0860595703125,1.293701171875,32.52000045776367,0.0,107.0,-0.589324951171875,0.0363922119140625,Closing,0.0,0.0,1.0,0.0,0.0,0.0,0.0,0.0,
0.8636679999998305,0.0,0.0,7377.0,3.75,187.5,840.0,0.0,0.125,0.8032225740000001,0.01,-0.006103515000000392,-10447.0,5.25,-225.0,-840.0,0.0,0.125,0.570068301,0.01,0.03906249599999967,4131.0,8.25,30.0,840.0,0.0,0.0,3.35693325,0.01,-0.0012207029999999897,-5311.0,4.625,-210.0,-840.0,0.0,0.125,1.6638181890000001,0.01,-4.937248049,-0.10999999940395355,0.3400000035762787,0.1599999964237213,0.07061767578125,-0.00433349609375,1.277099609375,32.52000045776367,0.0,62.0,-0.5789031982421875,0.032989501953125,Closing,0.0,0.0,1.0,0.0,0.0,0.0,0.0,0.0,
0.9324930000000168,0.0,0.0,7434.0,4.875,337.5,839.9999999999999,0.0,0.125,0.8007811680000001,0.01,0.0012207030000004337,-10505.0,7.0,-345.0,-839.9999999999999,0.0,0.0,0.589599549,0.01,0.04760741700000004,4146.0,9.25,82.5,839.9999999999999,0.0,0.0,3.358153953,0.01,4.9355171879999995,-5363.0,5.0,-307.5,-839.9999999999999,0.0,0.125,1.6638181890000001,0.01,0.025634763000000005,-0.09000000357627869,0.7900000214576721,0.05999999865889549,0.17547607421875,0.03741455078125,1.07147216796875,32.529998779296875,0.0,160.0,-0.566864013671875,0.030303955078125,Closing,0.0,0.0,1.0,0.0,0.0,0.0,0.0,0.0,
1.0190119999998715,0.0,0.0,7434.0,3.875,577.5,840.0,0.0,0.125,0.8056639800000001,4.931565965154201,0.0,-10606.0,5.25,-577.5,-840.0,0.0,0.0,0.570068301,4.963080587515409,0.014648435999999876,4170.0,11.875,142.5,840.0,0.0,0.0,3.358153953,4.93971383334867,0.0,-5453.0,4.25,-517.5,-840.0,0.0,0.125,1.6638181890000001,4.95731138890428,-0.0012207029999999897,-0.019999999552965164,1.409999966621399,-0.12999999523162842,0.186279296875,0.0618896484375,1.078125,32.529998779296875,0.0,159.0,-0.5373382568359375,0.0278778076171875,Closing,0.0,0.0,1.0,0.0,0.0,0.0,0.0,0.0,
1.1016929999999703,0.0,0.0,7535.0,2.875,697.5,840.0,0.0,0.125,0.8044432770000001,4.929099839632764,-0.0024414059999999793,-10606.0,3.625,-735.0,-840.0,0.0,0.0,0.53710932,4.9605987024938365,-0.024414059999999793,4170.0,16.0,202.5,840.0,0.0,0.0,3.355712547,4.937243633327199,0.0,-5453.0,3.375,-660.0,-840.0,0.0,0.125,1.646728347,4.954832388882732,0.0012207029999999897,0.05000000074505806,1.7699999809265137,-0.4000000059604645,0.03326416015625,-0.021484375,1.0286865234375,32.529998779296875,0.0,1.0,-0.5057525634765625,0.0277252197265625,Closing,0.0,0.0,1.0,0.0,0.0,0.0,0.0,0.0,
1.1784250000000465,0.0,0.0,7667.0,2.0,832.5,840.0,0.0,0.125,0.797119059,4.925948679214489,0.0024414059999999793,-10736.0,2.5,-817.5,-840.0,0.0,0.0,0.5175780720000001,4.957427404936307,-0.032958981000000165,4234.0,16.625,412.5,840.0,0.0,0.0,3.35693325,4.934087266603274,0.0,-5574.0,2.625,-787.5,-840.0,0.0,0.125,1.649169753,4.951664777714159,0.0,0.009999999776482582,2.0299999713897705,-0.6100000143051147,0.0953369140625,0.05712890625,1.145751953125,32.529998779296875,0.0,53.0,-0.4766998291015625,0.0265960693359375,Closing,0.0,0.0,1.0,0.0,0.0,0.0,0.0,0.0,
1.2762849999999162,0.0,0.0,7667.0,0.875,922.5,840.0,0.0,0.125,0.8044432770000001,4.923071532683496,-0.0024414059999999793,-10884.0,1.25,-907.5,-840.0,0.0,0.0,0.5163573690000001,4.954531872321249,-0.014648435999999876,4320.0,12.5,682.5,840.0,0.0,0.0,3.35693325,4.931205366488758,0.0,-5716.0,1.625,-862.5,-840.0,0.0,0.125,1.644286941,4.948772610932568,-0.004882812000000181,-0.05000000074505806,2.180000066757202,-0.7200000286102295,0.06549072265625,0.04595947265625,0.9537353515625,32.529998779296875,0.0,28.0,-0.4453582763671875,0.0258941650390625,Closing,0.0,0.0,1.0,0.0,0.0,0.0,0.0,0.0,
1.3339819999998435,0.0,0.0,7817.0,0.5,945.0,840.0,0.0,0.125,0.8032225740000001,4.921564455793061,0.0024414059999999793,-10884.0,0.75,-937.5,-840.0,0.0,0.125,0.510253854,4.953015164624007,-0.0012207029999995456,4320.0,17.625,247.5,840.0,0.0,0.125,3.3654781710000004,4.929695799625777,0.0,-5716.0,0.75,-937.5,-840.0,0.0,0.125,1.644286941,4.94725766629111,0.0,0.07000000029802322,2.180000066757202,-0.8399999737739563,0.06243896484375,0.0045166015625,1.219970703125,32.529998779296875,0.0,15.0,-0.4066009521484375,0.02581787109375,Closing,0.0,0.0,1.0,0.0,0.0,0.0,0.0,0.0,
1.423935999999987,0.0,0.0,7970.0,0.375,960.0,840.0,0.0,0.125,0.8007811680000001,4.9189613233535034,0.0,-11038.0,0.25,-952.5,-840.0,0.0,0.125,0.5151366660000001,4.95039539715688,0.0,4391.0,22.625,502.5,840.0,0.0,0.125,3.35693325,4.927088366325163,0.0,-5866.0,0.625,-907.5,-840.0,0.0,0.125,1.640624832,4.944640944101724,0.0,0.03999999910593033,2.180000066757202,-1.1699999570846558,0.0054931640625,0.06243896484375,1.17254638671875,32.4900016784668,0.0,-40.0,-0.3743743896484375,0.025848388671875,Closing,0.0,0.0,1.0,0.0,0.0,0.0,0.0,0.0,
1.510719999999972,0.0,0.0,8132.0,0.125,975.0,840.0,0.0,0.125,0.808105386,4.915399143023011,0.0024414059999999793,-11190.0,0.125,-922.5,-840.0,0.0,0.0,0.5175780720000001,4.946810453110219,0.0,4419.0,25.375,225.0,840.0,0.0,0.125,3.35693325,4.923520300607346,0.0,-6021.0,0.375,-937.5,-840.0,0.0,0.125,1.644286941,4.941060167276176,0.0,0.05999999865889549,2.2100000381469727,-1.5199999809265137,-0.04443359375,0.11773681640625,0.90020751953125,32.4900016784668,0.0,-82.0,-0.3417205810546875,0.026824951171875,Closing,0.0,0.0,1.0,0.0,0.0,0.0,0.0,0.0,
1.5773119999999181,0.0,0.0,8132.0,0.375,1042.5,840.0,0.0,0.125,0.8032225740000001,4.910603898668583,-0.003662108999999525,-11190.0,0.0,-1020.0,-840.0,0.0,0.25,0.5163573690000001,4.941984565281482,0.0012207029999995456,4419.0,35.0,202.5,840.0,0.0,0.125,3.355712547,4.91871713361349,0.0,-6021.0,0.125,-1027.5,-840.0,0.0,0.125,1.645507644,4.936239889170043,-0.0012207029999999897,0.12999999523162842,2.130000114440918,-1.7400000095367432,-0.0052490234375,-0.08245849609375,1.16552734375,32.4900016784668,0.0,-46.0,-0.3232574462890625,0.0277252197265625,Closing,0.0,0.0,1.0,0.0,0.0,0.0,0.0,0.0,
1.6347839999999851,0.0,0.0,8314.0,0.125,1125.0,840.0,0.0,0.125,0.8044432770000001,4.906493688521967,0.0,-11363.0,0.0,-1080.0,-840.0,0.0,0.0,0.511474557,4.937848089295269,0.0,4476.0,39.0,367.5,840.0,0.0,0.125,3.35693325,4.914600132631921,0.0,-6190.0,0.125,-1057.5,-840.0,0.0,0.125,1.6296385050000002,4.932108221518311,0.0,-0.009999999776482582,2.2300000190734863,-2.319999933242798,0.0992431640625,0.03839111328125,0.71319580078125,32.4900016784668,0.0,69.0,-0.288299560546875,0.028594970703125,Closing,0.0,0.0,1.0,0.0,0.0,0.0,0.0,0.0,
1.715872999999905,0.0,0.0,8314.0,0.0,1162.5,840.0,0.0,0.125,0.808105386,4.898136263020421,0.0,-11363.0,0.0,-1072.5,-840.0,0.0,0.0,0.507812448,4.9294372565980265,-0.004882812000000847,4476.0,39.125,487.5,840.0,0.0,0.125,3.352050438,4.906228899102273,0.0,-6190.0,0.125,-1065.0,-840.0,0.0,0.125,1.616210772,4.923707165765742,4.943351564,0.05999999865889549,2.119999885559082,-2.9200000762939453,-0.04791259765625,-0.06396484375,0.9866943359375,32.4900016784668,0.0,-80.0,-0.26007080078125,0.0296783447265625,Closing,0.0,0.0,1.0,0.0,0.0,0.0,0.0,0.0,
1.7777260000000241,0.0,0.0,8503.0,0.0,1177.5,840.0000000000001,0.0,0.125,0.8142089010000001,4.8914229212508715,0.0,-11537.0,0.0,-1080.0,-840.0000000000001,0.0,0.0,0.507812448,4.922681013966532,0.0,4552.0,38.75,502.5,840.0000000000001,0.0,0.125,3.338622705,4.899504465638064,0.0,-6363.0,0.0,-1095.0,-840.0000000000001,0.0,0.125,1.600341633,4.916958776745511,0.0,0.07999999821186066,2.009999990463257,-3.6600000858306885,0.01806640625,0.03729248046875,1.1121826171875,32.4900016784668,0.0,-23.0,-0.2281341552734375,0.03125,Closing,0.0,0.0,1.0,0.0,0.0,0.0,0.0,0.0,
1.8790189999998548,0.0,0.0,8503.0,0.0,1170.0,840.0,0.0,0.125,0.8166503070000001,4.881284405175768,0.004882811999999959,-11705.0,0.0,-1065.0,-840.0,0.0,0.0,0.5029296360000001,4.912477708835037,0.0,4737.0,32.25,1140.0,840.0,0.0,0.125,3.3190914570000003,4.889349198840521,-0.019531247999999835,-6537.0,0.0,-1080.0,-840.0,0.0,0.125,1.596679524,4.906767332169724,0.0,0.019999999552965164,1.7899999618530273,-4.420000076293945,-0.01336669921875,-0.06268310546875,0.866943359375,32.4900016784668,0.0,-35.0,-0.2029876708984375,0.0335540771484375,Closing,0.0,0.0,1.0,0.0,0.0,0.0,0.0,0.0,
1.9552949999999254,0.0,0.0,8691.0,0.0,1170.0,840.0,0.0,0.25,0.8178710100000001,4.868405752269419,0.006103514999999504,-11705.0,0.0,-1020.0,-840.0,0.0,0.0,0.484619091,4.899516756333441,-0.010986327000000351,4737.0,23.625,1230.0,840.0,0.0,0.125,3.3129879420000004,4.876449267993831,-0.014648435999999876,-6537.0,0.0,-1042.5,-840.0,0.0,0.125,1.5820310880000001,4.893821445776336,-0.008544921000000372,-0.019999999552965164,1.3899999856948853,-5.179999828338623,-0.09344482421875,-0.061279296875,1.04437255859375,32.45000076293945,0.0,-112.0,-0.180023193359375,0.0359039306640625,Closing,0.0,0.0,1.0,0.0,0.0,0.0,0.0,0.0,
2.025847999999998,0.0,0.0,8869.0,0.0,1095.0,840.0,0.0,0.25,0.8056639800000001,4.858541246610939,-0.0012207029999995456,-11865.0,0.0,-975.0,-840.0,0.0,0.0,0.46386714,4.889589212651582,-0.0183105449999994,4879.0,27.125,622.5,840.0,0.0,0.125,3.3129879420000004,4.866568464329305,-0.004882811999999959,-6702.0,0.0,-1012.5,-840.0,0.0,0.125,1.5820310880000001,4.883905442098756,-0.010986326999999463,-0.019999999552965164,1.059999942779541,-5.869999885559082,-0.13397216796875,0.016845703125,1.06378173828125,32.45000076293945,0.0,-154.0,-0.159454345703125,0.0375518798828125,Closing,0.0,0.0,1.0,0.0,0.0,0.0,0.0,0.0,
2.101001999999862,0.0,0.0,8869.0,0.0,1050.0,840.0,0.0,0.25,0.808105386,4.849087764743644,0.0,-11865.0,0.0,-937.5,-840.0,0.0,0.0,0.465087843,4.880075319362612,0.0,4879.0,38.125,262.5,840.0,0.0,0.125,3.299560209,4.85709936354405,-0.004882811999999959,-6848.0,0.0,-937.5,-840.0,0.0,0.125,1.5820310880000001,4.87440260797737,0.0,-0.07999999821186066,0.8199999928474426,-6.650000095367432,0.0771484375,0.00830078125,0.8663330078125,32.45000076293945,0.0,63.0,-0.1418914794921875,0.0380706787109375,Closing,0.0,0.0,1.0,0.0,0.0,0.0,0.0,0.0,
2.1622730000000447,0.0,0.0,9033.0,0.0,1020.0,840.0,0.0,0.25,0.784912029,4.8403193203506625,-0.009765623999999917,-12009.0,0.0,-877.5,-840.0,0.0,0.0,0.46020503100000004,4.871250841203541,0.0,4922.0,53.125,345.0,840.0,0.0,0.125,3.2739254460000002,4.848316432042979,-0.014648435999999876,-6848.0,0.0,-885.0,-840.0,0.0,0.125,1.57470687,4.865588387593937,0.0,-0.10000000149011612,0.7900000214576721,-7.420000076293945,-0.02850341796875,0.00811767578125,0.89837646484375,32.45000076293945,0.0,-41.0,-0.12841796875,0.038848876953125,Closing,0.0,0.0,1.0,0.0,0.0,0.0,0.0,0.0,
2.236166999999899,0.0,0.0,9197.0,0.0,1020.0,840.0,0.0,0.25,0.7751464050000001,4.827303660602753,0.0,-12147.0,0.0,-862.5,-840.0,0.0,0.0,0.45532221900000003,4.858152006333442,0.0,5000.0,53.375,450.0,840.0,0.0,0.125,3.2604977130000004,4.835279267993831,0.0,-6988.0,0.125,-877.5,-840.0,0.0,0.125,1.5771482760000002,4.852504779109669,0.0,-0.05000000074505806,0.6899999976158142,-8.180000305175781,-0.01824951171875,0.10137939453125,1.13824462890625,32.45000076293945,0.0,-46.0,-0.1156158447265625,0.03924560546875,Closing,0.0,0.0,1.0,0.0,0.0,0.0,0.0,0.0,
2.309652999999933,0.0,0.0,9197.0,0.125,1005.0,840.0000000000001,0.0,0.25,0.7653807810000001,4.816754124002961,-0.008544920999999484,-12147.0,0.0,-847.5,-840.0000000000001,0.0,0.0,0.449218704,4.847535054096432,-0.004882811999999959,5000.0,49.625,1102.5,840.0000000000001,0.0,0.125,3.2556149010000004,4.8247123015889155,-0.014648435999999876,-6988.0,0.125,-840.0,-840.0000000000001,0.0,0.125,1.5576170280000001,4.841900168261242,0.0,-0.03999999910593033,0.5,-9.34000015258789,0.01373291015625,0.00518798828125,1.076416015625,32.45000076293945,0.0,3.0,-0.100433349609375,0.0400390625,Closing,0.0,0.0,1.0,0.0,0.0,0.0,0.0,0.0,
2.382961999999825,0.0,0.0,9355.0,0.125,982.5,840.0,0.0,0.25,0.767822187,4.803464444038925,-0.010986327000000351,-12282.0,0.0,-840.0,-840.0,0.0,0.0,0.418701129,4.834160447914572,0.0,5194.0,35.5,1185.0,840.0,0.0,0.125,3.254394198,4.811400664591057,-0.003662109000000413,-7120.0,0.125,-825.0,-840.0,0.0,0.125,1.5283201560000002,4.828541109028107,0.0,0.0,0.4099999964237213,-10.170000076293945,-0.0081787109375,0.01031494140625,1.01080322265625,32.45000076293945,0.0,-17.0,-0.1014251708984375,0.0409088134765625,Closing,0.0,0.0,1.0,0.0,0.0,0.0,0.0,0.0,
2.470844999999972,0.0,0.0,9355.0,0.125,937.5,840.0,0.0,0.25,0.7373046120000001,4.792092866389761,-0.009765623999999917,-12415.0,0.0,-832.5,-840.0,0.0,0.0,0.40161128700000004,4.822716201466531,-0.028076169000000206,5380.0,33.625,1147.5,840.0,0.0,0.125,3.248290683,4.800010298971397,0.0,-7255.0,0.125,-832.5,-840.0,0.0,0.125,1.5051267990000001,4.817110165634399,-0.032958981000000165,-0.019999999552965164,0.27000001072883606,-10.710000038146973,0.03436279296875,0.10699462890625,1.12945556640625,32.400001525878906,0.0,8.0,-0.1032867431640625,0.0413665771484375,Closing,0.0,0.0,1.0,0.0,0.0,0.0,0.0,0.0,
2.5331990000000224,0.0,0.0,9504.0,0.125,907.5,840.0,0.0,0.25,0.742187424,4.782913398205592,-0.014648435999999876,-12415.0,0.0,-810.0,-840.0,0.0,0.0,0.391845663,4.813478072914571,-0.02075195100000027,5380.0,32.0,1162.5,840.0,0.0,0.125,3.236083653,4.790815664591057,-0.0012207030000004337,-7255.0,0.0,-817.5,-840.0,0.0,0.125,1.496581878,4.8078827756947735,-0.02075195100000027,0.019999999552965164,0.15000000596046448,-11.210000038146973,-0.07464599609375,-0.03594970703125,1.12664794921875,32.400001525878906,0.0,-69.0,-0.1058197021484375,0.04205322265625,Closing,0.0,0.0,1.0,0.0,0.0,0.0,0.0,0.0,
2.616426999999909,0.0,0.0,9644.0,0.125,870.0,840.0,0.0,0.25,0.70800774,4.77482998475392,-0.019531247999999835,-12542.0,0.0,-795.0,-840.0,0.0,0.0,0.386962851,4.805343003310652,-0.008544920999999484,5554.0,30.0,1095.0,840.0,0.0,0.125,3.2067867810000004,4.782718895830375,-0.02319335699999936,-7382.0,0.125,-787.5,-840.0,0.0,0.125,1.494140472,4.799757162482188,-0.003662108999999525,0.009999999776482582,0.07000000029802322,-12.0,0.05303955078125,-0.0244140625,1.0211181640625,32.400001525878906,0.0,55.0,-0.1121978759765625,0.0420074462890625,Closing,0.0,0.0,1.0,0.0,0.0,0.0,0.0,0.0,
2.68515699999989,0.0,0.0,9644.0,0.125,862.5,840.0,0.0,0.25,0.7141112550000001,4.767020591518374,-0.014648435999999876,-12542.0,0.0,-795.0,-840.0,0.0,0.0,0.386962851,4.797483705018491,-0.004882811999999959,5554.0,28.875,1057.5,840.0,0.0,0.125,3.187255533,4.774896600018405,-0.02929687200000064,-7382.0,0.125,-780.0,-840.0,0.0,0.125,1.491699066,4.79190700001847,-0.006103515000000392,0.07000000029802322,-0.029999999329447746,-12.489999771118164,0.05755615234375,0.06610107421875,0.76080322265625,32.400001525878906,0.0,42.0,-0.1163177490234375,0.042938232421875,Closing,0.0,0.0,1.0,0.0,0.0,0.0,0.0,0.0,
2.7428969999998807,0.0,0.0,9779.0,0.125,840.0,839.9999999999999,0.0,0.25,0.6982421160000001,4.760307253015326,0.0,-12668.0,0.0,-780.0,-839.9999999999999,0.0,0.0,0.385742148,4.7907274656743715,0.0,5726.0,27.625,1057.5,839.9999999999999,0.0,0.0,3.187255533,4.768172169826093,0.0,-7508.0,0.125,-787.5,-839.9999999999999,0.0,0.125,1.483154145,4.785158614281793,0.0,0.07999999821186066,-0.20000000298023224,-13.010000228881836,-0.00244140625,0.01727294921875,0.96002197265625,32.400001525878906,0.0,-2.0,-0.122955322265625,0.044097900390625,Closing,0.0,0.0,1.0,0.0,0.0,0.0,0.0,0.0,
2.8204539999999105,0.0,0.0,9913.0,0.0,825.0,840.0,0.0,0.25,0.69580071,4.753182884188089,0.0,-12792.0,0.0,-772.5,-840.0,0.0,0.0,0.371093712,4.783557569362611,0.0,5889.0,26.5,1027.5,840.0,0.0,0.125,3.188476236,4.761036030210716,0.0,-7634.0,0.125,-780.0,-840.0,0.0,0.125,1.4758299270000002,4.777997052421814,-0.004882811999999959,0.10000000149011612,-0.11999999731779099,-13.600000381469727,-0.01983642578125,-0.15618896484375,0.88983154296875,32.400001525878906,0.0,19.0,-0.132171630859375,0.0459442138671875,Closing,0.0,0.0,1.0,0.0,0.0,0.0,0.0,0.0,
2.9104129999999424,0.0,0.0,9913.0,0.0,825.0,840.0,0.0,0.25,0.6848143830000001,4.745099470736418,0.0,-12792.0,0.0,-765.0,-840.0,0.0,0.0,0.358886682,4.775422499758691,0.0,5889.0,25.75,1012.5,840.0,0.0,0.125,3.187255533,4.752939261450035,0.0,-7634.0,0.125,-780.0,-840.0,0.0,0.125,1.463622897,4.769871439209228,0.0,-0.009999999776482582,-0.28999999165534973,-13.9399995803833,0.09478759765625,-0.07720947265625,0.88714599609375,32.400001525878906,0.0,114.0,-0.1393280029296875,0.04559326171875,Closing,0.0,0.0,1.0,0.0,0.0,0.0,0.0,0.0,
2.9779779999998865,0.0,0.0,10042.0,0.0,802.5,840.0,0.0,0.25,0.678710868,4.7394821869658665,-0.009765623999999917,-12916.0,0.0,-765.0,-840.0,0.0,0.0,0.344238246,4.769769319362611,-0.014648436000000764,6050.0,24.75,997.5,840.0,0.0,0.125,3.187255533,4.747312696877383,0.0012207029999995456,-7758.0,0.125,-772.5,-840.0,0.0,0.125,1.457519382,4.764224830199592,-0.010986327000000351,-0.10999999940395355,-0.2800000011920929,-14.369999885559082,-0.02496337890625,-0.193115234375,0.99822998046875,32.349998474121094,0.0,28.0,-0.14862060546875,0.04400634765625,Closing,0.0,0.0,1.0,0.0,0.0,0.0,0.0,0.0,
3.0770479999999516,0.0,0.0,10042.0,3.875,765.0,0.0,0.0,0.25,0.6726073530000001,0.01,0.0,-13030.0,0.75,-742.5,-0.0,0.0,0.0,0.333251919,0.01,0.0,6203.0,15.125,997.5,0.0,0.0,0.125,3.187255533,0.01,0.0,-7874.0,0.125,-750.0,-0.0,0.0,0.125,1.4514158670000001,0.01,0.0,-0.12999999523162842,-0.7200000286102295,-14.8100004196167,-0.2967529296875,-0.12762451171875,1.112060546875,32.349998474121094,0.0,-241.0,-0.162017822265625,0.040435791015625,Closing,0.0,0.0,1.0,0.0,0.0,0.0,0.0,0.0,
3.1336639999998734,0.0,0.0,10158.0,7.25,690.0,0.0,0.0,0.25,0.70800774,0.01,-0.004882811999999959,-13030.0,2.625,-637.5,-0.0,0.0,0.25,0.345458949,0.01,-0.008544921000000372,6203.0,6.25,855.0,0.0,0.0,0.125,3.232421544,0.01,0.0,-7874.0,0.75,-667.5,-0.0,0.0,0.25,1.4648436,0.01,-0.006103514999999504,-0.10000000149011612,-1.1299999952316284,-14.920000076293945,-0.24224853515625,0.0771484375,1.04998779296875,32.349998474121094,0.0,-234.0,-0.1726531982421875,0.037567138671875,Closing,0.0,0.0,1.0,0.0,0.0,0.0,0.0,0.0,
3.186988999999827,0.0,0.0,10225.0,7.5,525.0,0.0,0.0,0.25,0.7751464050000001,0.01,0.04638671399999961,-13103.0,2.5,-495.0,-0.0,0.0,0.0,0.372314415,0.01,0.008544921000000372,6290.0,6.75,607.5,0.0,0.0,0.125,3.291015288,0.01,0.048828120000000474,-7949.0,0.875,-510.0,-0.0,0.0,0.25,1.542968592,0.01,0.010986326999999463,0.17000000178813934,-1.8799999952316284,-15.050000190734863,-0.23321533203125,-0.03631591796875,1.10736083984375,32.349998474121094,0.0,-179.0,-0.19720458984375,0.03375244140625,Closing,0.0,0.0,1.0,0.0,0.0,0.0,0.0,0.0,
3.2621139999998268,0.0,0.0,10225.0,7.0,345.0,0.0,0.0,0.25,0.810546792,0.01,0.06591796200000033,-13103.0,2.125,-337.5,-0.0,0.0,0.0,0.429687456,0.01,0.035400387000000144,6290.0,8.125,397.5,0.0,0.0,0.0,3.3142086450000003,0.01,0.056152337999999524,-7949.0,0.75,-345.0,-0.0,0.0,0.25,1.595458821,0.01,0.08544921000000016,0.28999999165534973,-2.380000114440918,-15.09000015258789,-0.16510009765625,0.040283203125,0.968505859375,32.349998474121094,0.0,-129.0,-0.221923828125,0.030426025390625,Closing,0.0,0.0,1.0,0.0,0.0,0.0,0.0,0.0,
3.318682999999961,0.0,0.0,10247.0,5.75,202.5,0.0,0.0,0.125,0.8410643670000001,0.01,0.035400387000000144,-13128.0,1.75,-187.5,-0.0,0.0,0.0,0.47485346700000003,0.01,0.056152337999999524,6322.0,11.5,232.5,0.0,0.0,0.0,3.3190914570000003,0.01,0.02075195100000027,-7976.0,0.5,-187.5,-0.0,0.0,0.125,1.6113279600000001,0.01,0.048828120000000474,0.2800000011920929,-2.740000009536743,-15.119999885559082,-0.1463623046875,0.01715087890625,1.00103759765625,32.349998474121094,0.0,-97.0,-0.250030517578125,0.026123046875,Closing,0.0,0.0,1.0,0.0,0.0,0.0,0.0,0.0,
3.3783839999998455,0.0,0.0,10247.0,5.5,82.5,0.0,0.0,0.0,0.8691405360000001,0.01,-4.922485376,-13128.0,1.375,-97.5,-0.0,0.0,0.0,0.48706049700000004,0.01,0.043945308000000516,6322.0,14.25,120.0,0.0,0.0,0.0,3.3190914570000003,0.01,0.004882811999999959,-7976.0,0.375,-67.5,-0.0,0.0,0.125,1.619872881,0.01,0.02319335699999936,0.27000001072883606,-2.890000104904175,-15.170000076293945,-0.08453369140625,0.06683349609375,1.03778076171875,32.349998474121094,0.0,-46.0,-0.2724609375,0.0225982666015625,Closing,0.0,0.0,1.0,0.0,0.0,0.0,0.0,0.0,
3.4347289999998174,0.0,0.0,10246.0,4.5,7.5,0.0,0.0,0.125,0.8276366340000001,0.01,0.0012207030000001007,-13130.0,0.625,-7.5,-0.0,0.0,0.0,0.4882812,0.01,0.009765623999999917,6324.0,17.625,15.0,0.0,0.0,0.0,3.3190914570000003,0.01,0.0,-7977.0,0.125,-7.5,-0.0,0.0,0.125,1.619872881,0.01,0.0,0.28999999165534973,-2.6700000762939453,-15.15999984741211,-0.002685546875,-0.0594482421875,1.067138671875,32.349998474121094,0.0,62.0,-0.3166046142578125,0.0187225341796875,Closing,0.0,0.0,1.0,0.0,0.0,0.0,0.0,0.0,
3.5069239999998825,0.0,0.0,10246.0,4.75,0.0,0.0,0.0,0.125,0.8288573370000001,0.01,0.0,-13130.0,0.625,0.0,-0.0,0.0,0.25,0.482177685,0.01,0.0,6324.0,18.0,0.0,0.0,0.0,0.0,3.3190914570000003,0.01,0.0,-7977.0,0.125,0.0,-0.0,0.0,0.125,1.619872881,0.01,0.0,0.27000001072883606,-2.5399999618530273,-15.140000343322754,-0.01123046875,0.01617431640625,1.00909423828125,32.349998474121094,0.0,29.0,-0.3513336181640625,0.0182037353515625,Closing,0.0,0.0,1.0,0.0,0.0,0.0,0.0,0.0,
3.585555999999866,0.0,0.0,10246.0,4.75,0.0,0.0,0.0,0.125,0.8312987430000001,0.01,0.0,-13130.0,0.625,0.0,-0.0,0.0,0.25,0.48706049700000004,0.01,0.0012207030000004337,6324.0,18.375,0.0,0.0,0.0,0.0,3.3190914570000003,0.01,0.0012207030000004337,-7977.0,0.125,0.0,-0.0,0.0,0.125,1.621093584,0.01,0.0,0.27000001072883606,-2.4600000381469727,-15.15999984741211,0.007080078125,0.02899169921875,1.0201416015625,32.349998474121094,0.0,42.0,-0.37841796875,0.018798828125,Closing,0.0,0.0,1.0,0.0,0.0,0.0,0.0,0.0,
3.639426999999909,0.0,0.0,10246.0,2.375,0.0,420.0,0.0,0.75,0.852050694,0.5498168668524888,-0.0012207030000001007,-13130.0,0.25,0.0,-420.0,0.0,6.625,0.623779233,1.9285545897722227,0.0,6324.0,23.125,0.0,420.0,0.0,1.25,3.2556149010000004,4.389674732977289,0.0,-7977.0,0.125,0.0,-420.0,0.0,6.25,1.5051267990000001,3.0316872062785585,0.0,0.27000001072883606,-2.2899999618530273,-15.149999618530273,0.0313720703125,-0.0513916015625,1.0118408203125,32.349998474121094,0.0,84.0,-0.4043731689453125,0.0191192626953125,Closing,0.0,0.0,1.0,0.0,0.0,0.0,0.0,0.0,
3.703092999999877,0.0,0.0,10249.0,0.375,22.5,420.0,0.0,1.375,1.053466689,0.5498168668524888,0.04150390200000009,-13136.0,0.0,-37.5,-420.0,0.0,2.875,1.044921768,1.9285545897722227,0.1513671719999996,6326.0,28.5,15.0,420.0,0.0,0.25,3.0566403120000003,4.389674732977289,0.0,-7978.0,0.125,-7.5,-420.0,0.0,1.375,1.065673719,3.0316872062785585,0.0,0.27000001072883606,-1.9900000095367432,-15.210000038146973,0.170166015625,0.0780029296875,0.986572265625,32.349998474121094,0.0,178.0,-0.428070068359375,0.01947021484375,Closing,0.0,0.0,1.0,0.0,0.0,0.0,0.0,0.0,
3.7678839999998455,0.0,0.0,10249.0,0.125,45.0,420.0,0.0,0.625,1.252441278,0.5498168668524888,0.0,-13136.0,0.0,-135.0,-420.0,0.0,1.25,1.402587747,1.9285545897722227,0.0,6326.0,27.75,97.5,420.0,0.0,0.25,2.8479000990000003,4.389674732977289,-0.20263669799999917,-7978.0,0.375,-37.5,-420.0,0.0,1.75,0.640869075,3.0316872062785585,-0.4443358919999998,0.20000000298023224,-1.659999966621399,-15.369999885559082,0.03692626953125,-0.016357421875,0.9761962890625,32.349998474121094,0.0,68.0,-0.4485015869140625,0.0201416015625,Closing,0.0,0.0,1.0,0.0,0.0,0.0,0.0,0.0,
3.833811999999918,0.0,0.0,10270.0,0.125,142.5,420.0,0.0,0.375,1.437988134,0.5498168668524888,0.22949216400000005,-13165.0,0.0,-180.0,-420.0,0.0,1.0,1.981200969,1.9285545897722227,0.4650878430000005,6358.0,24.25,210.0,420.0,0.0,0.0,2.719726284,4.389674732977289,-0.20629880700000047,-7989.0,0.375,-120.0,-420.0,0.0,1.75,0.172119123,3.0316872062785585,-0.41992183200000044,0.14000000059604645,-1.6100000143051147,-16.0,-0.106201171875,-0.06243896484375,1.046630859375,32.349998474121094,0.0,-55.0,-0.4730377197265625,0.0193939208984375,Closing,0.0,0.0,1.0,0.0,0.0,0.0,0.0,0.0,
3.8986620000000114,0.0,0.0,10302.0,0.0,195.0,420.0,0.0,0.25,1.437988134,0.5498168668524888,0.0,-13198.0,0.0,-180.0,-420.0,0.0,0.25,2.419433346,1.9285545897722227,0.0,6385.0,24.625,180.0,420.0,0.0,0.0,2.675780976,4.389674732977289,0.0,-8024.0,0.375,-217.5,-420.0,0.0,0.25,4.731444828,3.0316872062785585,0.0,0.10999999940395355,-1.8300000429153442,-17.610000610351562,-0.0950927734375,0.03790283203125,1.005615234375,32.349998474121094,0.0,-70.0,-0.4986419677734375,0.0175933837890625,Closing,0.0,0.0,1.0,0.0,0.0,0.0,0.0,0.0,
3.9769290000000037,0.0,0.0,10302.0,0.0,172.5,420.0,0.0,0.25,1.4489744610000002,0.5498168668524888,-0.003662108999999969,-13198.0,0.125,-240.0,-420.0,0.0,0.0,2.628173559,1.9285545897722227,0.3942870690000002,6385.0,28.625,195.0,420.0,0.0,0.125,2.677001679,4.389674732977289,-0.037841793000000123,-8024.0,0.375,-187.5,-420.0,0.0,0.5,4.4982905550000005,3.0316872062785585,-0.3876879679999998,0.2800000011920929,-2.0299999713897705,-18.889999389648438,-0.11566162109375,0.04412841796875,1.09478759765625,32.349998474121094,0.0,-85.0,-0.5208892822265625,0.0171661376953125,Closing,0.0,0.0,1.0,0.0,0.0,0.0,0.0,0.0,
4.047251999999862,0.0,0.0,10337.0,0.0,195.0,420.0,0.0,0.25,1.4001463410000001,0.5498168668524888,-0.006103514999999948,-13239.0,0.125,-247.5,-420.0,0.0,0.25,2.652587619,1.9285545897722227,0.19042966800000016,6433.0,30.625,307.5,420.0,0.0,0.25,2.677001679,4.389674732977289,0.0,-8066.0,0.375,-262.5,-420.0,0.0,0.25,4.478759307,3.0316872062785585,0.0,0.5099999904632568,-1.9700000286102295,-21.1200008392334,-0.08282470703125,0.003173828125,0.98406982421875,32.369998931884766,0.0,-43.0,-0.55029296875,0.017242431640625,Closing,0.0,0.0,1.0,0.0,0.0,0.0,0.0,0.0,
4.11946399999992,0.0,0.0,10337.0,0.0,262.5,420.0,0.0,0.125,1.376952984,0.5498168668524888,-0.0378417929999999,-13239.0,0.125,-307.5,-420.0,0.0,0.25,2.652587619,1.9285545897722227,0.020751950999999824,6433.0,28.125,307.5,420.0,0.0,0.25,2.6831051940000004,4.389674732977289,0.004882811999999959,-8066.0,0.375,-337.5,-420.0,0.0,0.25,4.4982905550000005,3.0316872062785585,-0.019531248000000723,0.5,-1.899999976158142,-23.43000030517578,-0.02117919921875,-0.15155029296875,1.02178955078125,32.369998931884766,0.0,75.0,-0.5735931396484375,0.017425537109375,Closing,0.0,0.0,1.0,0.0,0.0,0.0,0.0,0.0,
4.176603999999817,0.0,0.0,10386.0,0.0,307.5,420.0,0.0,0.0,1.353759627,0.5498168668524888,-0.024414060000000015,-13294.0,0.125,-337.5,-420.0,0.0,0.25,2.5805661420000003,1.9285545897722227,0.0,6472.0,29.875,225.0,420.0,0.0,0.25,2.6940915210000003,4.389674732977289,0.0024414060000008675,-8122.0,0.125,-352.5,-420.0,0.0,0.25,4.575194844,3.0316872062785585,0.02441406000000068,0.46000000834465027,-1.75,-26.700000762939453,0.07244873046875,-0.0479736328125,0.94439697265625,32.369998931884766,0.0,115.0,-0.6015777587890625,0.0162353515625,Closing,0.0,0.0,1.0,0.0,0.0,0.0,0.0,0.0,
4.244525999999838,0.0,0.0,10386.0,0.0,337.5,420.0,0.0,0.125,1.361083845,0.5498168668524888,-0.014648436000000098,-13294.0,0.0,-382.5,-420.0,0.0,0.0,2.4890134170000002,1.9285545897722227,-0.07934569500000022,6472.0,32.625,105.0,420.0,0.0,0.125,2.701415739,4.389674732977289,0.010986326999999463,-8122.0,0.125,-502.5,-420.0,0.0,0.25,4.628905776,3.0316872062785585,0.07202147699999983,0.47999998927116394,-1.5099999904632568,-30.389999389648438,0.08612060546875,-0.0374755859375,1.02691650390625,32.369998931884766,0.0,120.0,-0.627044677734375,0.0163726806640625,Closing,0.0,0.0,1.0,0.0,0.0,0.0,0.0,0.0,
4.318736000000033,0.0,0.0,10449.0,0.0,405.0,420.0,0.0,0.125,1.357421736,0.5498168668524888,0.0,-13365.0,0.0,-457.5,-420.0,0.0,0.0,2.4255368610000003,1.9285545897722227,0.0,6484.0,35.375,82.5,420.0,0.0,0.125,2.707519254,4.389674732977289,0.009765623999999917,-8212.0,0.125,-577.5,-420.0,0.0,0.125,4.6533198360000005,3.0316872062785585,0.058593743999999504,0.5199999809265137,-1.309999942779541,-32.95000076293945,0.03094482421875,0.0758056640625,1.023193359375,32.369998931884766,0.0,9.0,-0.64129638671875,0.016387939453125,Closing,0.0,0.0,1.0,0.0,0.0,0.0,0.0,0.0,
4.376700999999884,0.0,0.0,10449.0,0.0,472.5,420.0,0.0,0.125,1.358642439,0.5498168668524888,0.0,-13365.0,0.0,-495.0,-420.0,0.0,0.0,2.360839602,1.9285545897722227,-0.06225585299999992,6484.0,35.625,142.5,420.0,0.0,0.125,2.700195036,4.389674732977289,0.0012207030000004337,-8212.0,0.125,-637.5,-420.0,0.0,0.125,4.6533198360000005,3.0316872062785585,0.019531248000000723,0.5600000023841858,-1.1299999952316284,-36.709999084472656,0.01318359375,-0.03668212890625,0.98284912109375,32.369998931884766,0.0,53.0,-0.6638031005859375,0.0183258056640625,Closing,0.0,0.0,1.0,0.0,0.0,0.0,0.0,0.0,
4.438950999999885,0.0,0.0,10531.0,0.125,532.5,420.0,0.0,0.125,1.3684080630000002,0.5498168668524888,0.0012207029999999897,-13451.0,0.0,-555.0,-420.0,0.0,0.0,2.362060305,1.9285545897722227,-0.05004882300000002,6517.0,33.625,300.0,420.0,0.0,0.125,2.706298551,4.389674732977289,0.0,-8317.0,0.125,-660.0,-420.0,0.0,0.125,4.654540539,3.0316872062785585,0.0,0.699999988079071,-0.9200000166893005,-41.70000076293945,0.05731201171875,0.049072265625,1.02880859375,32.369998931884766,0.0,30.0,-0.680816650390625,0.0210418701171875,Closing,0.0,0.0,1.0,0.0,0.0,0.0,0.0,0.0,
4.515373999999836,0.0,0.0,10531.0,0.625,577.5,420.0,0.0,0.125,1.380615093,0.5498168668524888,0.009765623999999917,-13538.0,0.0,-540.0,-420.0,0.0,0.0,2.391357177,1.9285545897722227,0.0,6573.0,32.125,367.5,420.0,0.0,0.125,2.711181363,4.389674732977289,0.0,-8422.0,0.125,-645.0,-420.0,0.0,0.0,4.654540539,3.0316872062785585,0.0,0.7900000214576721,-0.6700000166893005,-46.689998626708984,-0.09881591796875,-0.0150146484375,0.88311767578125,32.400001525878906,0.0,-40.0,-0.7017822265625,0.02618408203125,Closing,0.0,0.0,1.0,0.0,0.0,0.0,0.0,0.0,
4.575082999999868,0.0,0.0,10623.0,1.0,555.0,420.0,0.0,0.125,1.358642439,0.5498168668524888,0.003662109000000191,-13538.0,0.0,-555.0,-420.0,0.0,0.0,2.395019286,1.9285545897722227,0.029296872000000196,6573.0,33.375,300.0,420.0,0.0,0.125,2.711181363,4.389674732977289,0.004882811999999959,-8422.0,0.0,-697.5,-420.0,0.0,0.125,4.654540539,3.0316872062785585,0.0,0.7200000286102295,-0.5899999737739563,-51.83000183105469,-0.0313720703125,0.03240966796875,0.92205810546875,32.400001525878906,0.0,-29.0,-0.7230987548828125,0.0313720703125,Closing,0.0,0.0,1.0,0.0,0.0,0.0,0.0,0.0,
4.645579999999842,0.0,0.0,10714.0,1.125,562.5,420.0,0.0,0.125,1.362304548,0.5498168668524888,-0.004882812000000181,-13634.0,0.0,-585.0,-420.0,0.0,0.0,2.388915771,1.9285545897722227,0.004882811999999959,6634.0,34.125,382.5,420.0,0.0,0.125,2.705077848,4.389674732977289,0.0,-8537.0,0.125,-705.0,-420.0,0.0,0.0,4.654540539,3.0316872062785585,0.0,0.8100000023841858,-0.550000011920929,-55.97999954223633,-0.012939453125,0.00872802734375,1.1055908203125,32.400001525878906,0.0,4.0,-0.7316741943359375,0.036224365234375,Closing,0.0,0.0,1.0,0.0,0.0,0.0,0.0,0.0,
4.720618000000017,0.0,0.0,10714.0,1.5,577.5,420.0,0.0,0.125,1.362304548,0.5498168668524888,0.0,-13634.0,0.0,-622.5,-420.0,0.0,0.0,2.395019286,1.9285545897722227,0.0,6634.0,32.625,397.5,420.0,0.0,0.125,2.711181363,4.389674732977289,0.0,-8537.0,0.375,-675.0,-420.0,0.0,0.125,4.654540539,3.0316872062785585,0.0,0.9300000071525574,-0.41999998688697815,-60.16999816894531,-0.0277099609375,0.031005859375,1.09539794921875,32.400001525878906,0.0,-21.0,-0.731414794921875,0.04095458984375,Closing,0.0,0.0,1.0,0.0,0.0,0.0,0.0,0.0,
4.7781129999998955,0.0,0.0,10808.0,1.75,585.0,420.0,0.0,0.125,1.36718736,0.5498168668524888,-0.004882811999999959,-13731.0,0.0,-607.5,-420.0,0.0,0.0,2.396239989,1.9285545897722227,0.0012207029999999897,6695.0,32.375,367.5,420.0,0.0,0.125,2.70996066,4.389674732977289,0.0,-8641.0,0.375,-645.0,-420.0,0.0,0.125,4.652099133,3.0316872062785585,0.0,0.9599999785423279,-0.28999999165534973,-64.22000122070312,0.01422119140625,-0.07196044921875,1.0333251953125,32.400001525878906,0.0,88.0,-0.731414794921875,0.0463409423828125,Closing,0.0,0.0,1.0,0.0,0.0,0.0,0.0,0.0,
4.838902999999933,0.0,0.0,10808.0,4.125,555.0,0.0,0.0,1.5,1.309814319,0.01,0.006103514999999948,-13731.0,2.25,-517.5,-0.0,0.0,7.75,2.387695068,0.01,-0.0012207029999999897,6695.0,24.75,405.0,0.0,0.0,2.5,2.8417965840000003,0.01,0.0,-8641.0,2.25,-607.5,-0.0,0.0,5.375,4.799804196,0.01,0.0,0.8299999833106995,-0.07999999821186066,-68.94999694824219,-0.041259765625,-0.11187744140625,1.10064697265625,32.400001525878906,0.0,105.0,-0.730621337890625,0.0527496337890625,Closing,0.0,0.0,1.0,0.0,0.0,0.0,0.0,0.0,
4.921058999999892,0.0,0.0,10887.0,6.125,480.0,0.0,0.0,0.75,1.075439343,0.01,0.0,-13797.0,2.375,-330.0,-0.0,0.0,1.5,1.9714353450000002,0.01,-0.06713866499999988,6767.0,21.25,465.0,0.0,0.0,1.375,3.1042477290000003,0.01,0.14038084500000014,-8729.0,3.0,-502.5,-0.0,0.0,2.5,0.28320309600000004,0.01,0.18676755899999975,0.8600000143051147,-0.09000000357627869,-71.5199966430664,0.17205810546875,-0.04229736328125,0.9617919921875,32.400001525878906,0.0,108.0,-0.72918701171875,0.0572357177734375,Closing,0.0,0.0,1.0,0.0,0.0,0.0,0.0,0.0,
4.978534999999916,0.0,0.0,10887.0,6.375,307.5,0.0,0.0,0.375,0.837402258,0.01,-0.22949216400000005,-13811.0,1.5,-165.0,-0.0,0.0,1.5,1.461181491,0.01,-0.41381831700000005,6824.0,21.75,397.5,0.0,0.0,0.375,3.349609032,0.01,0.2832030959999994,-8770.0,2.875,-285.0,-0.0,0.0,1.5,0.784912029,0.01,0.4304125729999999,0.8999999761581421,0.09000000357627869,-73.26000213623047,0.00885009765625,0.08428955078125,0.94677734375,32.400001525878906,0.0,-64.0,-0.727691650390625,0.0640716552734375,Closing,0.0,0.0,1.0,0.0,0.0,0.0,0.0,0.0,
5.055665000000038,0.0,0.0,10926.0,5.5,187.5,0.0,0.0,0.125,0.799560465,0.01,0.0,-13811.0,0.625,-7.5,-0.0,0.0,1.5,0.9338377950000001,0.01,0.0,6824.0,22.875,202.5,0.0,0.0,0.0,3.386230122,0.01,0.0,-8770.0,2.25,-135.0,-0.0,0.0,1.25,1.298827992,0.01,0.0,0.8999999761581421,-0.20999999344348907,-73.77999877929688,-0.1121826171875,-0.01861572265625,1.11505126953125,32.369998931884766,0.0,4.0,-0.72735595703125,0.0707550048828125,Closing,0.0,0.0,1.0,0.0,0.0,0.0,0.0,0.0,
5.14421399999992,0.0,0.0,10934.0,5.125,60.0,0.0,0.0,0.125,0.8032225740000001,0.01,4.901733425,-13809.0,0.25,15.0,-0.0,0.0,0.5,0.46752924900000004,0.01,0.0,6834.0,33.5,15.0,0.0,0.0,0.125,3.386230122,0.01,0.0,-8781.0,2.0,-37.5,-0.0,0.0,0.625,1.678466625,0.01,0.0,0.7699999809265137,-0.3400000035762787,-73.91000366210938,-0.04217529296875,0.03680419921875,1.04864501953125,32.369998931884766,0.0,-31.0,-0.7264404296875,0.074249267578125,Closing,0.0,0.0,1.0,0.0,0.0,0.0,0.0,0.0,
5.225663999999873,0.0,0.0,10935.0,4.0,0.0,8.4,0.0,0.125,0.8044432770000001,4.930880846655358,0.003662109000000413,-13806.0,0.25,22.5,-8.4,0.0,0.25,0.358886682,4.962391090843201,-0.3491210580000006,6834.0,35.5,0.0,8.4,0.0,0.125,3.386230122,4.939027582906087,0.0,-8782.0,1.875,-7.5,-8.4,0.0,0.5,1.7419431810000001,4.9566226937188045,-4.667472686,0.7799999713897705,-0.33000001311302185,-73.91999816894531,0.023193359375,1.220703125E-4,1.0679931640625,32.369998931884766,0.0,22.0,-0.7258758544921875,0.0763397216796875,Closing,0.0,0.0,1.0,0.0,0.0,0.0,0.0,0.0,
5.298782999999821,0.0,0.0,10935.0,4.0,0.0,8.4,0.0,0.125,0.795898356,4.930743914943314,-0.003662109000000413,-13806.0,0.25,0.0,-8.4,0.0,0.0,0.406494099,4.96225328408432,-0.09399413099999965,6834.0,35.375,0.0,8.4,0.0,0.125,3.3715816860000003,4.938890424957275,-0.0024414059999999793,-8782.0,1.625,0.0,-8.4,0.0,0.125,1.6882322490000001,4.956485047149658,0.0,0.7400000095367432,-0.3199999928474426,-73.91000366210938,-0.0238037109375,-4.2724609375E-4,1.02960205078125,32.369998931884766,0.0,8.0,-0.7254638671875,0.077239990234375,Closing,0.0,0.0,1.0,0.0,0.0,0.0,0.0,0.0,
5.371209000000031,0.0,0.0,10935.0,4.0,0.0,8.4,0.0,0.125,0.8044432770000001,4.930880846655358,0.0012207030000004337,-13806.0,0.25,0.0,-8.4,0.0,0.25,0.483398388,4.962391090843201,0.05737304099999996,6835.0,33.875,0.0,8.4,0.0,0.125,3.35693325,4.939027582906087,-0.012207029999999897,-8782.0,1.5,0.0,-8.4,0.0,0.125,1.613769366,4.9566226937188045,-0.05859374399999995,0.7099999785423279,-0.3499999940395355,-73.91999816894531,-0.00347900390625,0.03961181640625,1.049560546875,32.369998931884766,0.0,-24.0,-0.725311279296875,0.0771026611328125,Closing,0.0,0.0,1.0,0.0,0.0,0.0,0.0,0.0,
5.44192200000002,0.0,0.0,10935.0,4.125,0.0,8.4,0.0,0.125,0.797119059,4.930743914943314,-0.0012207030000004337,-13806.0,0.25,0.0,-8.4,0.0,0.125,0.507812448,4.96225328408432,0.06835936800000031,6835.0,32.75,0.0,8.4,0.0,0.0,3.350829735,4.938890424957275,4.925751564,-8782.0,1.5,0.0,-8.4,0.0,0.0,1.590576009,4.956485047149658,4.890861335,0.6899999976158142,-0.3400000035762787,-73.91000366210938,-0.01458740234375,-0.029296875,1.059326171875,32.369998931884766,0.0,38.0,-0.72528076171875,0.0770721435546875,Closing,0.0,0.0,1.0,0.0,0.0,0.0,0.0,0.0,
5.520356999999843,0.0,0.0,10935.0,4.125,0.0,0.0,0.0,0.125,0.8044432770000001,0.01,0.0,-13806.0,0.25,0.0,-0.0,0.0,0.125,0.507812448,0.01,-0.0012207030000004337,6835.0,31.5,0.0,0.0,0.0,0.0,3.350829735,0.01,0.0012207029999995456,-8781.0,1.5,0.0,-0.0,0.0,0.25,1.585693197,0.01,-0.024414059999999793,0.6600000262260437,-0.3199999928474426,-73.91999816894531,0.02301025390625,0.0355224609375,1.01165771484375,32.400001525878906,0.0,-14.0,-0.725128173828125,0.076995849609375,Closing,0.0,0.0,1.0,0.0,0.0,0.0,0.0,0.0,
5.685960999999894,0.0,0.0,10935.0,1.375,15.0,420.0,0.0,0.125,0.8032225740000001,0.01,0.0,-13806.0,0.0,0.0,-420.0,0.0,0.125,0.507812448,0.01,0.0,6837.0,37.5,0.0,420.0,0.0,0.0,3.352050438,0.01,0.0,-8784.0,0.125,-7.5,-420.0,0.0,0.125,1.590576009,0.01,-0.004882811999999959,0.6299999952316284,-0.20000000298023224,-73.97000122070312,0.0465087890625,-0.01239013671875,0.9923095703125,32.400001525878906,0.0,36.0,-0.724700927734375,0.076873779296875,Closing,0.0,0.0,1.0,0.0,0.0,0.0,0.0,0.0,
5.817149999999907,0.0,0.0,10941.0,0.125,97.5,597.1334975583351,0.0,0.125,0.8044432770000001,4.311571430425666,0.0,-13834.0,0.25,-82.5,-597.1334975583351,0.0,0.0,0.5175780720000001,4.33912404685082,0.0,6855.0,54.875,75.0,597.1334975583351,0.0,0.125,3.353271141,4.3186949518333435,0.0,-8800.0,0.125,-90.0,-597.1334975583351,0.0,1.0,1.590576009,4.33408014962143,0.0,0.5899999737739563,0.2800000011920929,-74.18000030517578,0.06329345703125,-0.0406494140625,0.91241455078125,32.400001525878906,0.0,64.0,-0.7224273681640625,0.082611083984375,Closing,0.0,0.0,1.0,0.0,0.0,0.0,0.0,0.0,
5.9439709999999035,0.0,0.0,10964.0,0.0,270.0,588.0599969390878,0.0,0.875,0.41503902000000004,4.323648568749151,-0.1818847469999998,-13834.0,0.75,-300.0,-588.0599969390878,0.0,0.5,0.102539052,4.351278362779991,-0.19531248000000012,6887.0,52.5,232.5,588.0599969390878,0.0,0.25,2.867431347,4.330792043845357,-0.20141599499999963,-8834.0,0.125,-180.0,-588.0599969390878,0.0,0.25,1.157226444,4.346220337095231,0.0,0.25,0.699999988079071,-74.77999877929688,0.01092529296875,-0.2481689453125,0.964111328125,32.400001525878906,0.0,243.0,-0.715362548828125,0.0945892333984375,Closing,0.0,0.0,1.0,0.0,0.0,0.0,0.0,0.0,
6.086773000000044,0.0,0.0,11020.0,0.0,435.0,592.579214938022,0.0,0.5,0.021972654,4.317563769126311,-0.47729487299999995,-13930.0,1.25,-285.0,-592.579214938022,0.0,0.25,4.642333509,4.345154678923701,4.450683138,6904.0,56.75,97.5,592.579214938022,0.0,0.25,2.5280759130000003,4.324697190996894,-0.520019478,-8893.0,0.125,-337.5,-592.579214938022,0.0,0.25,0.832519446,4.340103771549389,-0.4699706550000009,-0.6000000238418579,0.7200000286102295,-75.44999694824219,-0.04248046875,-0.18145751953125,0.99114990234375,32.400001525878906,0.0,151.0,-0.6934967041015625,0.10382080078125,Closing,0.0,0.0,1.0,0.0,0.0,0.0,0.0,0.0,
6.218625999999931,0.0,0.0,11185.0,0.0,570.0,601.7220486146925,0.0,0.375,0.057373041,4.305670143725325,0.0,-14014.0,0.25,-555.0,-601.7220486146925,0.0,0.25,4.7155756890000005,4.333185048635897,0.0,6945.0,58.0,277.5,601.7220486146925,0.0,0.625,2.5317380220000003,4.312783915105008,0.0,-8985.0,0.125,-607.5,-601.7220486146925,0.0,0.25,0.834960852,4.328148055034133,0.0,-1.3300000429153442,0.7699999809265137,-76.0999984741211,-0.0386962890625,-0.068115234375,1.211669921875,32.400001525878906,0.0,25.0,-0.643890380859375,0.1074981689453125,Closing,0.0,0.0,1.0,0.0,0.0,0.0,0.0,0.0,
6.342189000000013,0.0,0.0,11292.0,0.125,660.0,553.2702978653382,0.0,0.25,0.198974589,4.375823367730094,0.13855031899999837,-14111.0,0.125,-592.5,-553.2702978653382,0.0,0.0,4.8156733350000005,4.403786578995597,0.11962889399999987,6979.0,54.875,195.0,553.2702978653382,0.0,0.625,2.5939938750000002,4.383053045340506,0.05737304099999996,-9101.0,0.125,-727.5,-553.2702978653382,0.0,0.25,0.9497069340000001,4.398667516557005,0.046386714000000495,-1.2799999713897705,1.100000023841858,-76.81999969482422,0.04510498046875,0.006103515625,1.0736083984375,32.400001525878906,0.0,-23.0,-0.6082763671875,0.1103363037109375,Closing,0.0,0.0,1.0,0.0,0.0,0.0,0.0,0.0,
6.483244999999879,0.0,0.0,11411.0,1.125,750.0,629.9306661066458,0.0,0.25,0.328369107,4.272095997847069,0.14160154800000058,-14212.0,0.0,-682.5,-629.9306661066458,0.0,0.25,4.9255366050000005,4.299396350922398,0.09399413100000054,7033.0,52.875,457.5,629.9306661066458,0.0,0.375,2.681884491,4.2791542984660875,0.07690428900000068,-9224.0,0.0,-765.0,-629.9306661066458,0.0,0.25,1.104736215,4.294398634077172,0.157470687,-0.8799999952316284,1.309999942779541,-78.47000122070312,0.0784912109375,-0.1112060546875,0.84295654296875,32.400001525878906,0.0,108.0,-0.5581512451171875,0.114288330078125,Closing,0.0,0.0,1.0,0.0,0.0,0.0,0.0,0.0,
6.613043999999994,0.0,0.0,11535.0,1.75,772.5,601.7220486146925,0.0,0.25,0.267333957,4.305670143725325,0.0,-14325.0,0.0,-705.0,-601.7220486146925,0.0,0.0,4.898681139000001,4.333185048635897,0.0,7130.0,52.625,555.0,601.7220486146925,0.0,0.0,2.6843258970000003,4.312783915105008,0.0,-9347.0,0.125,-772.5,-601.7220486146925,0.0,0.25,1.0864256700000001,4.328148055034133,0.0,-0.7699999809265137,1.2599999904632568,-79.66999816894531,0.0941162109375,0.0238037109375,0.742919921875,32.38999938964844,0.0,-19.0,-0.5130767822265625,0.126373291015625,Closing,0.0,0.0,1.0,0.0,0.0,0.0,0.0,0.0,
6.7451039999998175,0.0,0.0,11658.0,2.375,757.5,610.9988620399079,0.0,0.25,0.224609352,4.294135099020602,-0.05737304099999996,-14443.0,0.0,-735.0,-610.9988620399079,0.0,0.0,4.852294425,4.32157629051431,-0.03906249600000056,7208.0,53.25,427.5,610.9988620399079,0.0,0.0,2.6916501150000003,4.3012298123516794,0.0012207029999995456,-9469.0,0.375,-735.0,-610.9988620399079,0.0,0.125,1.0070799750000001,4.316552791199018,-0.053710931999999545,-0.7599999904632568,1.0199999809265137,-80.37000274658203,0.08489990234375,-0.04437255859375,0.88946533203125,32.38999938964844,0.0,43.0,-0.4659271240234375,0.1369171142578125,Closing,0.0,0.0,1.0,0.0,0.0,0.0,0.0,0.0,
6.882508999999845,0.0,0.0,11776.0,2.75,712.5,615.6856220152051,0.0,0.25,0.20385740100000002,4.288498536838169,-0.023193357000000248,-14557.0,0.0,-675.0,-615.6856220152051,0.0,0.0,4.827880365,4.315903708509806,-0.0402831990000001,7284.0,55.125,412.5,615.6856220152051,0.0,0.0,2.681884491,4.295583937515608,0.0,-9585.0,0.375,-712.5,-615.6856220152051,0.0,0.125,0.954589746,4.310886803133831,-0.06713866499999988,-0.5400000214576721,0.75,-81.45999908447266,-0.01239013671875,0.0498046875,1.08837890625,32.38999938964844,0.0,-63.0,-0.41607666015625,0.1483917236328125,Closing,0.0,0.0,1.0,0.0,0.0,0.0,0.0,0.0,
7.016469000000041,0.0,0.0,11887.0,2.875,682.5,625.152223462414,0.0,0.25,0.21972654000000003,4.277480367376621,0.0,-14662.0,0.0,-622.5,-625.152223462414,0.0,0.0,4.827880365,4.304815128664995,0.0,7374.0,55.0,217.5,625.152223462414,0.0,0.0,2.680663788,4.284547563979907,0.0,-9807.0,0.5,-682.5,-625.152223462414,0.0,0.125,0.911865141,4.299811112908343,0.0,-0.44999998807907104,0.6299999952316284,-82.87000274658203,-0.0277099609375,-0.04425048828125,1.2171630859375,32.38999938964844,0.0,29.0,-0.3648529052734375,0.1571502685546875,Closing,0.0,0.0,1.0,0.0,0.0,0.0,0.0,0.0,
7.1449960000000425,0.0,0.0,11994.0,3.25,660.0,532.8976449929785,0.0,0.25,0.21972654000000003,4.411794228293951,0.0,-14761.0,0.0,-592.5,-532.8976449929785,0.0,0.125,4.822997553,4.439987307332629,-0.003662108999999525,7374.0,55.5,232.5,532.8976449929785,0.0,0.125,2.6831051940000004,4.419083336485397,0.0012207029999995456,-9915.0,0.875,-675.0,-532.8976449929785,0.0,0.25,0.930175686,4.434826164337827,0.0,-0.38999998569488525,0.4399999976158142,-84.2300033569336,-0.07293701171875,-0.06414794921875,0.97265625,32.369998931884766,0.0,49.0,-0.3242645263671875,0.1642608642578125,Closing,0.0,0.0,1.0,0.0,0.0,0.0,0.0,0.0,
7.283523000000045,0.0,0.0,12197.0,4.0,615.0,528.9635539488993,0.0,0.25,0.23925778800000003,4.419316466454968,-0.0012207029999995456,-14943.0,0.0,-555.0,-528.9635539488993,0.0,0.0,4.9206537930000005,4.447557615517778,0.037841793000000123,7468.0,57.25,247.5,528.9635539488993,0.0,0.375,2.6940915210000003,4.426618002789016,0.004882812000000847,-10014.0,1.0,-600.0,-528.9635539488993,0.0,0.25,1.0839842640000001,4.442387672623257,0.09155272499999967,-0.14000000059604645,0.4099999964237213,-85.70999908447266,0.00970458984375,-0.07293701171875,1.0653076171875,32.369998931884766,0.0,70.0,-0.2805328369140625,0.1720428466796875,Closing,0.0,0.0,1.0,0.0,0.0,0.0,0.0,0.0,
7.416037000000011,0.0,0.0,12286.0,3.125,547.5,615.6856220152051,0.0,0.125,0.288085908,4.288498536838169,0.0,-15030.0,0.0,-532.5,-615.6856220152051,0.0,0.0,4.941405744,4.315903708509806,0.0,7511.0,59.75,262.5,615.6856220152051,0.0,0.0,2.6916501150000003,4.295583937515608,0.0,-10102.0,0.5,-540.0,-615.6856220152051,0.0,0.125,1.126708869,4.310886803133831,0.0,0.1899999976158142,0.36000001430511475,-86.29000091552734,0.1004638671875,0.00201416015625,0.8629150390625,32.369998931884766,0.0,7.0,-0.2475128173828125,0.1791839599609375,Closing,0.0,0.0,1.0,0.0,0.0,0.0,0.0,0.0,
7.540625999999931,0.0,0.0,12369.0,2.375,510.0,620.403645098546,0.0,0.25,0.26855466,4.282947421502145,0.028076169000000206,-15114.0,0.0,-510.0,-620.403645098546,0.0,0.25,4.914550278,4.3103171193902545,-0.004882811999999959,7562.0,57.875,330.0,620.403645098546,0.0,0.0,2.6916501150000003,4.290023650700096,0.0012207030000004337,-10187.0,0.375,-525.0,-620.403645098546,0.0,0.25,1.090087779,4.3053067079934975,0.006103515000000392,0.3499999940395355,0.46000000834465027,-86.77999877929688,0.048828125,-0.14501953125,0.8505859375,32.369998931884766,0.0,152.0,-0.2267913818359375,0.1844940185546875,Closing,0.0,0.0,1.0,0.0,0.0,0.0,0.0,0.0,
7.685290999999968,0.0,0.0,12452.0,2.25,502.5,525.0787604984251,0.0,0.25,0.21118161900000001,4.426950720862847,-0.04760741700000004,-15196.0,0.0,-510.0,-525.0787604984251,0.0,0.25,4.847411613,4.455240655777124,-0.04760741700000004,7617.0,58.625,300.0,525.0787604984251,0.0,0.0,2.6928708180000003,4.43426487041126,-0.0012207030000004337,-10269.0,0.375,-510.0,-525.0787604984251,0.0,0.25,0.96435537,4.450061781940537,-0.10986326999999996,-0.07000000029802322,0.05999999865889549,-87.62999725341797,0.03021240234375,0.01263427734375,0.80059814453125,32.400001525878906,0.0,-12.0,-0.185638427734375,0.1874847412109375,Closing,0.0,0.0,1.0,0.0,0.0,0.0,0.0,0.0,
7.814403999999864,0.0,0.0,12537.0,2.125,525.0,615.6856220152051,0.0,0.125,0.234374976,4.288498536838169,-0.014648435999999876,-15275.0,0.0,-495.0,-615.6856220152051,0.0,0.0,4.860839346000001,4.315903708509806,0.0,7676.0,59.0,472.5,615.6856220152051,0.0,0.125,2.6916501150000003,4.295583937515608,0.0,-10353.0,0.125,-562.5,-615.6856220152051,0.0,0.125,0.9741209940000001,4.310886803133831,0.0,-0.12999999523162842,0.1899999976158142,-88.44999694824219,0.07666015625,-0.0677490234375,1.1209716796875,32.400001525878906,0.0,67.0,-0.1615142822265625,0.186614990234375,Closing,0.0,0.0,1.0,0.0,0.0,0.0,0.0,0.0,
7.948480999999912,0.0,0.0,12628.0,2.75,585.0,506.4334612019628,0.0,0.25,0.23315427300000002,4.466836679194237,0.012207029999999897,-15362.0,0.0,-540.0,-506.4334612019628,0.0,0.0,4.862060049,4.495381500877384,-0.0012207029999995456,7771.0,57.125,600.0,506.4334612019628,0.0,0.0,2.6940915210000003,4.474216727796539,0.0,-10446.0,0.5,-585.0,-506.4334612019628,0.0,0.25,0.9887694300000001,4.4901559664025665,0.009765624000000805,-0.1599999964237213,0.11999999731779099,-89.41000366210938,0.02410888671875,-0.00628662109375,1.05615234375,32.400001525878906,0.0,3.0,-0.159271240234375,0.18792724609375,Closing,0.0,0.0,1.0,0.0,0.0,0.0,0.0,0.0,
8.085986000000034,0.0,0.0,12722.0,3.375,570.0,506.4334612019628,0.0,0.125,0.302734344,4.466836679194237,0.03173827799999973,-15446.0,0.0,-532.5,-506.4334612019628,0.0,0.0,4.934081526,4.495381500877384,0.0402831990000001,7861.0,59.0,562.5,506.4334612019628,0.0,0.5,2.763671592,4.474216727796539,0.029296871999999752,-10540.0,0.625,-570.0,-506.4334612019628,0.0,0.25,1.149902226,4.4901559664025665,0.0927734280000001,0.14000000059604645,0.05999999865889549,-90.4800033569336,-0.06036376953125,0.1802978515625,0.8194580078125,32.380001068115234,0.0,-177.0,-0.160614013671875,0.188629150390625,Closing,0.0,0.0,1.0,0.0,0.0,0.0,0.0,0.0,
8.220345999999903,0.0,0.0,12809.0,2.625,435.0,499.3603535086161,0.0,0.0,0.36254879100000004,4.483606814375716,0.09155272500000056,-15534.0,0.0,-532.5,-499.3603535086161,0.0,0.0,0.05981444700000001,4.512258803737634,-4.8730463760000005,7861.0,59.0,562.5,499.3603535086161,0.0,0.125,2.885741892,4.491014570374012,0.12084959700000031,-10630.0,0.5,-420.0,-499.3603535086161,0.0,0.0,1.206054564,4.5070136506992045,0.104980458,0.8899999856948853,-0.699999988079071,-90.01000213623047,-0.13470458984375,0.09259033203125,1.02618408203125,32.380001068115234,0.0,-16.0,-0.1731719970703125,0.1780853271484375,Closing,0.0,0.0,1.0,0.0,0.0,0.0,0.0,0.0,
8.349319999999832,0.0,0.0,12892.0,0.0,195.0,715.1390844837458,0.0,0.5,0.319824186,4.191941004272547,0.017089841999999855,-15655.0,3.125,-285.0,-715.1390844837458,0.0,0.5,0.083007804,4.218729135799848,0.0,7861.0,59.0,562.5,715.1390844837458,0.0,0.5,2.875976268,4.198866873869171,0.0,-10720.0,0.125,-180.0,-715.1390844837458,0.0,0.625,1.157226444,4.213825188374088,0.0,1.0499999523162842,-1.0700000524520874,-89.8499984741211,0.0313720703125,0.0,0.98529052734375,32.380001068115234,0.0,18.0,-0.1919403076171875,0.1549224853515625,Closing,0.0,0.0,1.0,0.0,0.0,0.0,0.0,0.0,
