Time,ClimberA1,ClimberA2,FRpos,FRCurrent,FRspeed,FRsetpoint,FRApos,FRACurrent,FREncpos,FREncSetpoint,FREncSpeed,FLpos,FLCurrent,FLspeed,FLsetpoint,FLApos,FLACurrent,FLEncpos,FLEncSetpoint,FLEncSpeed,BRpos,BRCurrent,BRspeed,BRsetpoint,BRApos,BRACurrent,BREncpos,BREncSetpoint,BREncSpeed,BLpos,BLCurrent,BLspeed,BLsetpoint,BLApos,BLACurrent,BLEncpos,BLEncSetpoint,BLEncSpeed,navx_Pitch,navx_Roll,navx_Yaw,navx_XAcc,navx_YAcc,navx_ZAcc,navx_Temp,navx_Bar,navx_Alt,navx_XDis,navx_YDis,GearPlacerState,ShootOutputV,ShootOutputCurrent,ShootEncPos,ShootEncVelocity,ShootSpeed,ShootSetpoint,CarouselSetpoint,CarouselCurrent,
0.2025219999999972,0.0,0.0,84333.0,0.0,0.0,0.0,0.0,0.125,0.826415931,0.01,0.0,-150545.0,0.0,0.0,0.0,0.0,0.125,0.527343696,0.01,0.0,12614.0,0.0,0.0,0.0,0.0,0.125,3.382568013,0.01,0.0,-24815.0,0.125,0.0,0.0,0.0,0.25,1.676025219,0.01,0.0,0.4099999964237213,-0.7300000190734863,-98.58999633789062,-0.011474609375,0.00909423828125,1.02227783203125,36.56999969482422,0.0,-1.0,2.297515869140625,-2.433868408203125,Closing,0.0,0.0,3.0,0.0,0.0,0.0,0.0,0.125,
0.3660810000000056,0.0,0.0,84348.0,0.375,52.5,420.0,0.0,0.25,0.826415931,0.01,0.0,-150545.0,0.875,-7.5,-420.0,0.0,0.125,0.527343696,0.01,0.0,12615.0,0.5,7.5,420.0,0.0,0.125,3.3776852010000002,0.01,0.0,-24815.0,0.75,-7.5,-420.0,0.0,0.25,1.673583813,0.01,0.0,0.41999998688697815,-0.6700000166893005,-98.58000183105469,0.014404296875,0.01336669921875,0.9991455078125,36.56999969482422,0.0,-9.0,2.297515869140625,-2.433837890625,Closing,0.0,0.0,3.0,0.0,0.0,0.0,0.0,0.0,
0.5536320000000123,0.0,0.0,84360.0,1.5,45.0,420.0,0.0,0.25,0.8276366340000001,0.01,0.0,-150560.0,3.0,-60.0,-420.0,0.0,0.125,0.56152338,0.01,0.0,12622.0,2.25,45.0,420.0,0.0,0.0,3.353271141,0.01,0.0,-24828.0,2.125,-67.5,-420.0,0.0,0.25,1.676025219,0.01,0.0,0.4300000071525574,-0.4300000071525574,-98.54000091552734,0.0255126953125,0.0303955078125,1.00347900390625,36.56999969482422,0.0,-27.0,2.2970123291015625,-2.42926025390625,Closing,0.0,0.0,3.0,0.0,0.0,0.0,0.0,0.125,
0.7621700000000128,0.0,0.0,84403.0,2.375,187.5,441.18045136209577,0.0,0.5,0.850829991,0.24422648619776471,0.0,-150579.0,4.375,-202.5,-441.18045136209577,0.0,0.25,0.612792906,0.24578718832311625,0.0,12653.0,3.125,150.0,441.18045136209577,0.0,0.375,3.4118648850000004,0.244629993974645,0.0,-24880.0,3.0,-210.0,-441.18045136209577,0.0,0.375,1.6857908430000001,0.245501479662839,0.0,0.4399999976158142,0.10000000149011612,-98.63999938964844,0.08599853515625,0.035888671875,1.0224609375,36.56999969482422,0.0,-40.0,2.295989990234375,-2.4155120849609375,Closing,0.0,0.0,3.0,0.0,0.0,0.0,0.0,0.0,
0.9633729999999923,0.0,0.0,84514.0,1.875,390.0,439.2543575481068,0.0,0.25,1.065673719,0.23328461223749342,0.0,-150678.0,2.75,-420.0,-439.2543575481068,0.0,0.25,0.780029217,0.234775391537475,0.0,12748.0,2.625,397.5,439.2543575481068,0.0,0.0,3.60107385,0.23367004199464148,0.0,-24935.0,2.375,-420.0,-439.2543575481068,0.0,0.25,1.8969724620000001,0.23450248324213271,0.0,0.8899999856948853,0.5699999928474426,-98.68000030517578,0.075927734375,0.02398681640625,1.0687255859375,36.56999969482422,0.0,-16.0,2.289093017578125,-2.3811798095703125,Closing,0.0,0.0,3.0,0.0,0.0,0.0,0.0,0.0,
1.1545780000000085,0.0,0.0,84590.0,1.25,495.0,441.18045136209577,0.0,0.25,1.092529185,0.24422648619776471,0.0,-150835.0,2.0,-495.0,-441.18045136209577,0.0,0.25,0.832519446,0.24578718832311625,0.12329100300000029,12824.0,1.875,502.5,441.18045136209577,0.0,0.0,3.599853147,0.244629993974645,0.0,-25084.0,1.625,-495.0,-441.18045136209577,0.0,0.25,1.931152146,0.245501479662839,0.0,0.949999988079071,0.6000000238418579,-98.8499984741211,-0.0103759765625,-0.00384521484375,1.001220703125,36.56999969482422,0.0,23.0,2.289276123046875,-2.37249755859375,Closing,0.0,0.0,3.0,0.0,0.0,0.0,0.0,0.0,
1.2891970000000146,0.0,0.0,84674.0,0.75,540.0,439.2543575481068,0.0,0.25,1.0864256700000001,0.23328461223749342,0.0,-150919.0,1.125,-525.0,-439.2543575481068,0.0,0.25,0.820312416,0.234775391537475,0.0,12992.0,1.375,532.5,439.2543575481068,0.0,0.125,3.599853147,0.23367004199464148,0.0,-25167.0,1.25,-517.5,-439.2543575481068,0.0,0.25,1.906738086,0.23450248324213271,0.0,0.8999999761581421,0.47999998927116394,-99.0199966430664,-0.01959228515625,0.02044677734375,0.91339111328125,36.56999969482422,0.0,-1.0,2.2903900146484375,-2.3748931884765625,Closing,0.0,0.0,3.0,0.0,0.0,0.0,0.0,0.125,
1.4225890000000072,0.0,0.0,84844.0,0.5,532.5,435.66151586552843,0.0,0.25,1.070556531,0.21112141543098661,0.0,-151003.0,1.0,-517.5,-435.66151586552843,0.0,0.25,0.786132732,0.21247056329328504,0.0,13077.0,1.125,525.0,435.66151586552843,0.0,0.125,3.594970335,0.21147022744690938,0.0,-25247.0,1.0,-495.0,-435.66151586552843,0.0,0.25,1.849365045,0.2122235826414413,0.0,0.7699999809265137,0.3700000047683716,-99.19000244140625,-0.0352783203125,0.014892578125,1.04620361328125,36.5099983215332,0.0,6.0,2.2919464111328125,-2.37615966796875,Closing,0.0,0.0,3.0,0.0,0.0,0.0,0.0,0.125,
1.6334400000000022,0.0,0.0,85005.0,0.375,495.0,432.4215651421655,0.0,0.25,1.011962787,0.1886079175616436,0.0,-151160.0,0.875,-465.0,-432.4215651421655,0.0,0.25,0.6970214130000001,0.18981319542638028,0.0,13237.0,0.875,480.0,432.4215651421655,0.0,0.125,3.555907839,0.18891953307354878,0.0,-25401.0,1.0,-465.0,-432.4215651421655,0.0,0.25,1.80664044,0.18959255221817156,0.0,0.5400000214576721,0.05000000074505806,-99.5199966430664,-0.02716064453125,-0.00762939453125,1.05126953125,36.5099983215332,0.0,21.0,2.299774169921875,-2.383514404296875,Closing,0.0,0.0,3.0,0.0,0.0,0.0,0.0,0.125,
1.8303889999999956,0.0,0.0,85074.0,0.5,427.5,425.9162806985224,0.0,0.375,0.980224509,0.13099254219210868,0.0,-151302.0,1.0,-427.5,-425.9162806985224,0.0,0.25,0.6591796200000001,0.13182963542547274,0.0,13308.0,0.875,442.5,425.9162806985224,0.0,0.125,3.508300422,0.13120896634131024,0.0,-25546.0,1.0,-427.5,-425.9162806985224,0.0,0.25,1.7919920040000001,0.13167639363618658,0.0,0.4300000071525574,-0.07000000029802322,-99.48999786376953,0.003173828125,0.02117919921875,1.00872802734375,36.5099983215332,0.0,-14.0,2.3007659912109375,-2.395050048828125,Closing,0.0,0.0,3.0,0.0,0.0,0.0,0.0,0.125,
2.023629000000015,0.0,0.0,85143.0,0.5,420.0,421.2291827664158,0.0,0.375,0.925292874,0.059983937446018626,0.0,-151370.0,1.125,-420.0,-421.2291827664158,0.0,0.25,0.617675718,0.060367258109212986,0.0,13446.0,1.125,427.5,421.2291827664158,0.0,0.125,3.4643551140000004,0.060083042115721685,0.0,-25610.0,1.0,-412.5,-421.2291827664158,0.0,0.25,1.748046696,0.06029708582498342,0.0,0.3499999940395355,-0.11999999731779099,-99.5199966430664,0.007568359375,-0.027587890625,1.13677978515625,36.4900016784668,0.0,32.0,2.3011627197265625,-2.395660400390625,Closing,0.0,0.0,3.0,0.0,0.0,0.0,0.0,0.0,
2.1525020000000077,0.0,0.0,85279.0,0.5,412.5,420.19691087185544,0.0,0.375,0.865478427,0.02403287237242459,0.0,-151436.0,1.125,-405.0,-420.19691087185544,0.0,0.25,0.546874944,0.024186451763316588,0.0,13513.0,1.125,412.5,420.19691087185544,0.0,0.125,3.392333637,0.024072579166941513,0.0,-25678.0,1.25,-405.0,-420.19691087185544,0.0,0.25,1.651611159,0.024158336877519233,0.0,0.23999999463558197,-0.20000000298023224,-99.5999984741211,-0.0111083984375,0.00433349609375,1.0665283203125,36.4900016784668,0.0,1.0,2.3016357421875,-2.3960113525390625,Closing,0.0,0.0,3.0,0.0,0.0,0.0,0.0,0.125,
2.3619409999999914,0.0,0.0,85345.0,0.5,412.5,420.0,0.0,0.25,0.8312987430000001,0.01,0.0,-151568.0,1.125,-405.0,-420.0,0.0,0.0,0.49316401200000004,0.01,0.0,13646.0,1.125,412.5,420.0,0.0,0.0,3.3679195770000003,0.01,0.0,-25805.0,1.375,-405.0,-420.0,0.0,0.125,1.6076658510000001,0.01,0.0,0.14000000059604645,-0.1899999976158142,-99.69999694824219,-0.00140380859375,0.04052734375,1.01885986328125,36.4900016784668,0.0,-37.0,2.30218505859375,-2.396240234375,Closing,0.0,0.0,3.0,0.0,0.0,0.0,0.0,0.125,
2.5556490000000047,0.0,0.0,85476.0,0.75,420.0,420.4429197751611,0.0,0.25,0.8056639800000001,4.896215757744391,0.0,-151699.0,1.375,-405.0,-420.4429197751611,0.0,0.125,0.49316401200000004,4.927504478547194,0.0,13712.0,1.375,412.5,420.4429197751611,0.0,0.125,3.338622705,4.904305220792776,0.0,-25936.0,1.375,-405.0,-420.4429197751611,0.0,0.25,1.6076658510000001,4.921776634420408,0.0,0.15000000596046448,-0.2199999988079071,-99.88999938964844,-0.02227783203125,-0.03350830078125,1.06243896484375,36.4900016784668,0.0,39.0,2.3013916015625,-2.3967437744140625,Closing,0.0,0.0,3.0,0.0,0.0,0.0,0.0,0.0,
2.764005999999994,0.0,0.0,85612.0,0.5,420.0,421.2291827664158,0.0,0.25,0.79345695,4.872267062553982,0.0,-151765.0,1.375,-412.5,-421.2291827664158,0.0,0.25,0.4882812,4.903402741890788,0.0,13845.0,1.125,412.5,421.2291827664158,0.0,0.125,3.333739893,4.880316957884279,0.0,-26001.0,1.375,-405.0,-421.2291827664158,0.0,0.25,1.6027830390000002,4.897702914175017,0.0,0.15000000596046448,-0.23000000417232513,-100.04000091552734,-0.00823974609375,-0.0048828125,1.019287109375,36.4900016784668,0.0,8.0,2.301361083984375,-2.3966522216796875,Closing,0.0,0.0,3.0,0.0,0.0,0.0,0.0,0.125,
2.9510650000000025,0.0,0.0,85681.0,0.5,442.5,422.40583311735,0.0,0.25,0.7788085140000001,4.848429690877773,0.0,-151898.0,1.25,-412.5,-422.40583311735,0.0,0.25,0.469970655,4.8794130401490845,0.0,13913.0,1.125,427.5,422.40583311735,0.0,0.125,3.291015288,4.856440202417223,0.0,-26132.0,1.625,-405.0,-422.40583311735,0.0,0.25,1.560058434,4.873741098612378,0.0,0.15000000596046448,-0.27000001072883606,-100.26000213623047,0.02978515625,0.0174560546875,0.99005126953125,36.470001220703125,0.0,-20.0,2.30145263671875,-2.3964080810546875,Closing,0.0,0.0,3.0,0.0,0.0,0.0,0.0,0.0,
3.1547140000000073,0.0,0.0,85825.0,0.375,442.5,423.139578035428,0.0,0.25,0.7507323450000001,4.836566187440436,0.0,-151966.0,1.25,-420.0,-423.139578035428,0.0,0.25,0.445556595,4.867473724315979,0.0,14053.0,0.875,435.0,423.139578035428,0.0,0.125,3.2617184160000003,4.844557098256096,0.0,-26269.0,1.375,-420.0,-423.139578035428,0.0,0.25,1.5307615620000001,4.861815661313603,0.0,0.10000000149011612,-0.30000001192092896,-100.58999633789062,-0.0010986328125,0.03887939453125,0.98455810546875,36.470001220703125,0.0,-37.0,2.3035430908203125,-2.3966522216796875,Closing,0.0,0.0,3.0,0.0,0.0,0.0,0.0,0.125,
3.363660999999993,0.0,0.0,85966.0,0.375,442.5,425.9162806985224,0.0,0.375,0.740966721,4.801258457807891,0.0,-152104.0,1.25,-427.5,-425.9162806985224,0.0,0.25,0.43457026800000004,4.831940364574527,0.0,14197.0,0.875,442.5,425.9162806985224,0.0,0.125,3.2604977130000004,4.809191033658689,0.0,-26334.0,1.625,-412.5,-425.9162806985224,0.0,0.25,1.533202968,4.826323606363813,0.0,0.17000000178813934,-0.3700000047683716,-100.93000030517578,0.00848388671875,-0.0068359375,1.08990478515625,36.470001220703125,0.0,6.0,2.3056488037109375,-2.3985137939453125,Closing,0.0,0.0,3.0,0.0,0.0,0.0,0.0,0.125,
3.549823000000004,0.0,0.0,86038.0,0.375,427.5,428.24059247000696,0.0,0.25,0.693359304,4.778004792092225,0.0,-152239.0,1.25,-420.0,-428.24059247000696,0.0,0.25,0.37841793,4.808538098901216,0.0,14267.0,0.875,435.0,428.24059247000696,0.0,0.125,3.225097326,4.785898948543459,0.0,-26471.0,1.625,-420.0,-428.24059247000696,0.0,0.25,1.517333829,4.802948544020418,0.0,0.10999999940395355,-0.47999998927116394,-101.04000091552734,-0.04852294921875,0.02294921875,1.05780029296875,36.439998626708984,0.0,-12.0,2.305877685546875,-2.3985137939453125,Closing,0.0,0.0,3.0,0.0,0.0,0.0,0.0,0.125,
3.690097000000009,0.0,0.0,86107.0,0.5,412.5,430.9364451129221,0.0,0.25,0.693359304,4.755022096236761,0.0,-152309.0,1.125,-427.5,-430.9364451129221,0.0,0.25,0.352783167,4.785408534690783,0.0,14404.0,0.875,412.5,430.9364451129221,0.0,0.125,3.2080074840000004,4.762878280981259,0.0,-26539.0,1.625,-420.0,-430.9364451129221,0.0,0.25,1.470947115,4.77984586614547,0.0,0.07999999821186066,-0.4399999976158142,-100.91999816894531,-0.01702880859375,-0.035888671875,1.0716552734375,36.439998626708984,0.0,38.0,2.3058624267578125,-2.399169921875,Closing,0.0,0.0,3.0,0.0,0.0,0.0,0.0,0.0,
3.8858610000000042,0.0,0.0,86242.0,0.5,427.5,433.99691499659593,0.0,0.375,0.6591796200000001,4.732344317004644,0.0,-152378.0,1.375,-427.5,-433.99691499659593,0.0,0.25,0.334472622,4.762585835639374,0.0,14471.0,0.875,427.5,433.99691499659593,0.0,0.125,3.177489909,4.7401630338216245,0.0,-26676.0,1.625,-427.5,-433.99691499659593,0.0,0.25,1.436767431,4.757049696722454,0.0,0.05000000074505806,-0.47999998927116394,-100.8499984741211,0.01470947265625,-0.02581787109375,1.00592041015625,36.439998626708984,0.0,21.0,2.307159423828125,-2.3991241455078125,Closing,0.0,0.0,3.0,0.0,0.0,0.0,0.0,0.125,
4.025451000000001,0.0,0.0,86311.0,0.375,427.5,435.66151586552843,0.0,0.25,0.6201171240000001,4.721129584569014,0.0,-152516.0,1.25,-427.5,-435.66151586552843,0.0,0.25,0.334472622,4.751299436706716,0.0,14608.0,1.125,420.0,435.66151586552843,0.0,0.125,3.1689449880000002,4.728929772553091,0.0,-26748.0,1.375,-427.5,-435.66151586552843,0.0,0.25,1.439208837,4.745776417358559,0.0,0.10999999940395355,-0.5299999713897705,-100.81999969482422,-0.04132080078125,-0.0179443359375,1.01544189453125,36.43000030517578,0.0,25.0,2.30780029296875,-2.3990478515625,Closing,0.0,0.0,3.0,0.0,0.0,0.0,0.0,0.0,
4.226360000000015,0.0,0.0,86447.0,0.5,420.0,433.99691499659593,0.0,0.125,0.601806579,4.732344317004644,0.0,-152586.0,1.125,-435.0,-433.99691499659593,0.0,0.25,0.334472622,4.762585835639374,0.0,14678.0,1.125,435.0,433.99691499659593,0.0,0.125,3.1689449880000002,4.7401630338216245,0.0,-26817.0,1.375,-435.0,-433.99691499659593,0.0,0.25,1.439208837,4.757049696722454,0.0,0.10000000149011612,-0.550000011920929,-100.66999816894531,0.01251220703125,-0.06005859375,1.11273193359375,36.43000030517578,0.0,56.0,2.3085174560546875,-2.3997955322265625,Closing,0.0,0.0,3.0,0.0,0.0,0.0,0.0,0.125,
4.433818,0.0,0.0,86582.0,0.5,420.0,433.99691499659593,0.0,0.125,0.600585876,4.732344317004644,0.0,-152727.0,1.25,-435.0,-433.99691499659593,0.0,0.25,0.334472622,4.762585835639374,0.0,14815.0,0.875,420.0,433.99691499659593,0.0,0.125,3.1689449880000002,4.7401630338216245,0.0,-26957.0,1.375,-435.0,-433.99691499659593,0.0,0.25,1.44042954,4.757049696722454,0.0,0.07999999821186066,-0.5899999737739563,-100.45999908447266,-0.01580810546875,0.03265380859375,0.99090576171875,36.43000030517578,0.0,-29.0,2.308624267578125,-2.3995513916015625,Closing,0.0,0.0,3.0,0.0,0.0,0.0,0.0,0.125,
4.633698000000004,0.0,0.0,86651.0,0.5,420.0,432.4215651421655,0.0,0.25,0.614013609,4.743643082438357,0.0,-152866.0,1.25,-427.5,-432.4215651421655,0.0,0.125,0.338134731,4.77395680457362,0.0,14883.0,1.125,420.0,432.4215651421655,0.0,0.0,3.1677242850000003,4.751480466926451,0.0,-27094.0,1.375,-420.0,-432.4215651421655,0.0,0.125,1.44042954,4.768407447781828,0.0,0.11999999731779099,-0.6399999856948853,-100.3499984741211,-0.02923583984375,6.103515625E-4,1.02166748046875,36.45000076293945,0.0,4.0,2.3083343505859375,-2.3994903564453125,Closing,0.0,0.0,3.0,0.0,0.0,0.0,0.0,0.0,
4.834372999999992,0.0,0.0,86785.0,0.5,420.0,428.24059247000696,0.0,0.25,0.605468688,4.778004792092225,0.0,-152935.0,1.25,-435.0,-428.24059247000696,0.0,0.125,0.333251919,4.808538098901216,0.0,15019.0,1.125,420.0,428.24059247000696,0.0,0.0,3.1677242850000003,4.785898948543459,0.0,-27231.0,1.625,-427.5,-428.24059247000696,0.0,0.25,1.44042954,4.802948544020418,0.0,0.10000000149011612,-0.5799999833106995,-100.20999908447266,-0.00860595703125,0.0181884765625,1.03240966796875,36.45000076293945,0.0,-16.0,2.30621337890625,-2.399017333984375,Closing,0.0,0.0,3.0,0.0,0.0,0.0,0.0,0.125,
5.040489000000002,0.0,0.0,86921.0,0.5,420.0,427.0315920690178,0.0,0.25,0.635986263,4.789599983969735,0.0,-153146.0,1.125,-427.5,-427.0315920690178,0.0,0.25,0.334472622,4.820207388559393,0.0,15155.0,0.875,435.0,427.0315920690178,0.0,0.0,3.1591793640000003,4.797513297843942,0.0,-27366.0,1.625,-412.5,-427.0315920690178,0.0,0.25,1.4538572730000001,4.814604269028877,0.0,0.1899999976158142,-0.5600000023841858,-100.26000213623047,-0.0367431640625,-0.00335693359375,0.9591064453125,36.41999816894531,0.0,11.0,2.3058013916015625,-2.3997039794921875,Closing,0.0,0.0,3.0,0.0,0.0,0.0,0.0,0.0,
5.286603999999992,0.0,0.0,87058.0,0.5,420.0,424.8953961344487,0.0,0.25,0.654296808,4.812975549907741,0.0,-153216.0,1.0,-435.0,-424.8953961344487,0.0,0.25,0.344238246,4.84373233344482,0.0,15297.0,0.875,427.5,424.8953961344487,0.0,0.0,3.197021157,4.82092748458345,0.0,-27435.0,1.625,-427.5,-424.8953961344487,0.0,0.25,1.492919769,4.838101867979261,0.0,0.2199999988079071,-0.5299999713897705,-100.26000213623047,-0.037841796875,0.022216796875,1.0169677734375,36.41999816894531,0.0,-12.0,2.3039703369140625,-2.399749755859375,Closing,0.0,0.0,3.0,0.0,0.0,0.0,0.0,0.125,
5.4226320000000126,0.0,0.0,87126.0,0.5,427.5,423.9696204936888,0.0,0.25,0.709228443,4.824746445161359,0.0,-153286.0,1.0,-435.0,-423.9696204936888,0.0,0.25,0.384521445,4.855578449291936,0.0,15364.0,1.125,420.0,423.9696204936888,0.0,0.0,3.2226559200000002,4.832717827554839,0.0,-27504.0,1.375,-427.5,-423.9696204936888,0.0,0.25,1.491699066,4.849934213629845,0.0,0.27000001072883606,-0.5099999904632568,-100.2300033569336,0.01788330078125,-0.00616455078125,1.07110595703125,36.41999816894531,0.0,6.0,2.3029632568359375,-2.4008026123046875,Closing,0.0,0.0,3.0,0.0,0.0,0.0,0.0,0.125,
5.623695999999996,0.0,0.0,87194.0,0.5,420.0,423.139578035428,0.0,0.125,0.6970214130000001,4.836566187440436,0.0,-153423.0,1.0,-412.5,-423.139578035428,0.0,0.125,0.416259723,4.867473724315979,0.0,15498.0,1.125,420.0,423.139578035428,0.0,0.0,3.237304356,4.844557098256096,0.0,-27638.0,1.625,-405.0,-423.139578035428,0.0,0.25,1.492919769,4.861815661313603,0.0,0.3100000023841858,-0.49000000953674316,-100.36000061035156,-0.017333984375,0.0018310546875,1.05535888671875,36.40999984741211,0.0,5.0,2.3005523681640625,-2.401031494140625,Closing,0.0,0.0,3.0,0.0,0.0,0.0,0.0,0.125,
5.827051000000007,0.0,0.0,87327.0,0.5,412.5,422.40583311735,0.0,0.25,0.6982421160000001,4.848429690877773,0.0,-153557.0,1.125,-420.0,-422.40583311735,0.0,0.0,0.416259723,4.8794130401490845,0.0,15565.0,1.125,412.5,422.40583311735,0.0,0.0,3.242187168,4.856440202417223,0.0,-27772.0,1.625,-412.5,-422.40583311735,0.0,0.25,1.507568205,4.873741098612378,0.0,0.3400000035762787,-0.47999998927116394,-100.4000015258789,-0.0301513671875,0.04046630859375,1.0048828125,36.40999984741211,0.0,-29.0,2.3005828857421875,-2.40093994140625,Closing,0.0,0.0,3.0,0.0,0.0,0.0,0.0,0.125,
6.028331000000006,0.0,0.0,87461.0,0.75,420.0,422.40583311735,0.0,0.25,0.6982421160000001,4.848429690877773,0.0,-153627.0,1.0,-427.5,-422.40583311735,0.0,0.0,0.41503902000000004,4.8794130401490845,0.0,15698.0,1.125,420.0,422.40583311735,0.0,0.0,3.242187168,4.856440202417223,0.0,-27840.0,1.375,-427.5,-422.40583311735,0.0,0.125,1.545409998,4.873741098612378,0.0,0.3199999928474426,-0.4699999988079071,-100.2699966430664,-0.0555419921875,0.0218505859375,1.0858154296875,36.439998626708984,0.0,-7.0,2.2995758056640625,-2.4012908935546875,Closing,0.0,0.0,3.0,0.0,0.0,0.0,0.0,0.0,
6.229481999999989,0.0,0.0,87526.0,0.75,397.5,423.139578035428,0.0,0.25,0.704345631,4.836566187440436,0.0,-153764.0,1.0,-427.5,-423.139578035428,0.0,0.0,0.416259723,4.867473724315979,0.0,15833.0,1.125,420.0,423.139578035428,0.0,0.0,3.24706998,4.844557098256096,0.0,-27979.0,1.625,-420.0,-423.139578035428,0.0,0.25,1.546630701,4.861815661313603,0.0,0.3100000023841858,-0.5,-99.9800033569336,0.0208740234375,0.01165771484375,1.05218505859375,36.439998626708984,0.0,-10.0,2.3004150390625,-2.401397705078125,Closing,0.0,0.0,3.0,0.0,0.0,0.0,0.0,0.0,
6.4232580000000015,0.0,0.0,87657.0,0.75,405.0,423.139578035428,0.0,0.25,0.6970214130000001,4.836566187440436,0.0,-153834.0,0.875,-427.5,-423.139578035428,0.0,0.0,0.416259723,4.867473724315979,0.0,15899.0,1.125,405.0,423.139578035428,0.0,0.0,3.245849277,4.844557098256096,0.0,-28118.0,1.375,-427.5,-423.139578035428,0.0,0.25,1.545409998,4.861815661313603,0.0,0.28999999165534973,-0.46000000834465027,-99.76000213623047,-0.02215576171875,-0.01666259765625,0.9879150390625,36.439998626708984,0.0,23.0,2.3011932373046875,-2.401519775390625,Closing,0.0,0.0,3.0,0.0,0.0,0.0,0.0,0.0,
6.569149999999994,0.0,0.0,87721.0,0.125,300.0,0.0,0.0,0.375,0.745849533,0.01,0.0,-153946.0,0.0,-330.0,-0.0,0.0,0.25,0.44067378300000004,0.01,0.0,15965.0,0.375,352.5,0.0,0.0,0.125,3.289794585,0.01,0.0,-28159.0,0.375,-270.0,-0.0,0.0,0.375,1.5551756220000001,0.01,0.0,0.28999999165534973,-0.6499999761581421,-99.70999908447266,-0.053955078125,0.0126953125,1.0926513671875,36.40999984741211,0.0,0.0,2.3015594482421875,-2.40234375,Closing,0.0,0.0,3.0,0.0,0.0,0.0,0.0,0.125,
6.6557090000000025,0.0,0.0,87753.0,0.125,202.5,0.0,0.0,0.375,0.795898356,0.01,0.0,-153946.0,0.0,-202.5,-0.0,0.0,0.25,0.468749952,0.01,0.0,16006.0,0.375,195.0,0.0,0.0,0.0,3.328857081,0.01,0.0,-28210.0,0.375,-300.0,-0.0,0.0,0.25,1.594238118,0.01,0.0,0.3700000047683716,-0.9200000166893005,-99.72000122070312,-0.0242919921875,0.03131103515625,1.045166015625,36.40999984741211,0.0,-22.0,2.30096435546875,-2.4056243896484375,Closing,0.0,0.0,3.0,0.0,0.0,0.0,0.0,0.125,
6.749470000000001,0.0,0.0,87794.0,0.0,270.0,0.0,0.0,0.125,0.8166503070000001,0.01,0.0,-153991.0,0.0,-262.5,-0.0,0.0,0.25,0.498046824,0.01,0.0,16046.0,0.125,262.5,0.0,0.0,0.0,3.343505517,0.01,0.0,-28210.0,0.375,-217.5,-0.0,0.0,0.25,1.622314287,0.01,0.04272460500000008,0.3799999952316284,-1.149999976158142,-99.70999908447266,-0.14300537109375,0.00128173828125,0.98944091796875,36.40999984741211,0.0,26.0,2.2997589111328125,-2.4111785888671875,Closing,0.0,0.0,3.0,0.0,0.0,0.0,0.0,0.0,
6.843312000000005,0.0,0.0,87794.0,0.125,172.5,0.0,0.0,0.25,0.821533119,0.01,0.019531248000000723,-154020.0,0.0,-165.0,-0.0,0.0,0.125,0.506591745,0.01,0.0,16071.0,0.125,165.0,0.0,0.0,0.0,3.343505517,0.01,0.0,-28243.0,0.375,-165.0,-0.0,0.0,0.125,1.6320799110000002,0.01,0.026855465999999772,0.3700000047683716,-1.4299999475479126,-99.79000091552734,-0.07342529296875,0.00506591796875,0.9532470703125,36.40999984741211,0.0,9.0,2.2989501953125,-2.4204864501953125,Closing,0.0,0.0,3.0,0.0,0.0,0.0,0.0,0.125,
6.9316680000000055,0.0,0.0,87816.0,0.125,75.0,0.0,0.0,0.25,0.826415931,0.01,-4.927368188,-154034.0,0.0,-82.5,-0.0,0.0,0.0,0.507812448,0.01,0.0,16071.0,0.125,67.5,0.0,0.0,0.0,3.342284814,0.01,0.0,-28260.0,0.375,-105.0,-0.0,0.0,0.125,1.643066238,0.01,0.0,0.36000001430511475,-1.6299999952316284,-99.69999694824219,-0.07025146484375,-0.00115966796875,1.0299072265625,36.40999984741211,0.0,14.0,2.2993316650390625,-2.4328155517578125,Closing,0.0,0.0,3.0,0.0,0.0,0.0,0.0,0.125,
7.028081000000006,0.0,0.0,87822.0,0.125,15.0,0.0,0.0,0.25,0.8276366340000001,0.01,0.004882811999999959,-154034.0,0.0,-15.0,-0.0,0.0,0.125,0.507812448,0.01,-0.0012207030000004337,16079.0,0.375,15.0,0.0,0.0,0.0,3.342284814,0.01,0.0012207030000004337,-28265.0,0.375,-37.5,-0.0,0.0,0.125,1.641845535,0.01,0.0,0.33000001311302185,-1.7200000286102295,-99.76000213623047,-0.03228759765625,0.00909423828125,1.01654052734375,36.40999984741211,0.0,-2.0,2.2993316650390625,-2.4444580078125,Closing,0.0,0.0,3.0,0.0,0.0,0.0,0.0,0.125,
7.128413,0.0,0.0,87822.0,0.125,0.0,0.0,0.0,0.25,0.826415931,0.01,-0.0012207029999999897,-154034.0,0.0,0.0,-0.0,0.0,0.125,0.506591745,0.01,0.0,16079.0,0.375,0.0,0.0,0.0,0.0,3.342284814,0.01,0.0,-28265.0,0.375,0.0,-0.0,0.0,0.125,1.641845535,0.01,0.0,0.33000001311302185,-1.600000023841858,-99.70999908447266,0.00885009765625,0.00146484375,1.0174560546875,36.41999816894531,0.0,-1.0,2.2993316650390625,-2.44390869140625,Closing,0.0,0.0,3.0,0.0,0.0,0.0,0.0,0.125,
7.226,0.0,0.0,87822.0,0.125,0.0,0.0,0.0,0.25,0.8276366340000001,0.01,0.0012207029999999897,-154034.0,0.0,0.0,-0.0,0.0,0.125,0.507812448,0.01,0.0,16081.0,0.375,7.5,0.0,0.0,0.0,3.343505517,0.01,0.0,-28265.0,0.375,0.0,-0.0,0.0,0.125,1.638183426,0.01,0.0,0.3199999928474426,-1.4700000286102295,-99.7300033569336,0.0029296875,0.01116943359375,1.03973388671875,36.41999816894531,0.0,-10.0,2.2993316650390625,-2.4416656494140625,Closing,0.0,0.0,3.0,0.0,0.0,0.0,0.0,0.125,
7.315527000000002,0.0,0.0,87822.0,0.125,0.0,0.0,0.0,0.25,0.833740149,0.01,0.0,-154034.0,0.0,0.0,-0.0,0.0,0.0,0.507812448,0.01,0.0012207030000004337,16081.0,0.375,0.0,0.0,0.0,0.0,3.343505517,0.01,0.0,-28265.0,0.375,0.0,-0.0,0.0,0.125,1.6369627230000001,0.01,0.0,0.33000001311302185,-1.3700000047683716,-99.7300033569336,-0.00787353515625,0.00384521484375,1.022216796875,36.41999816894531,0.0,0.0,2.2993316650390625,-2.43798828125,Closing,0.0,0.0,3.0,0.0,0.0,0.0,0.0,0.125,
7.407861000000004,0.0,0.0,87822.0,0.125,0.0,0.0,0.0,0.25,0.826415931,0.01,0.0,-154034.0,0.0,0.0,-0.0,0.0,0.0,0.507812448,0.01,0.0,16081.0,0.375,0.0,0.0,0.0,0.0,3.343505517,0.01,0.0,-28265.0,0.375,0.0,-0.0,0.0,0.125,1.6357420200000001,0.01,0.0,0.3199999928474426,-1.3300000429153442,-99.7300033569336,-0.0157470703125,0.00750732421875,1.02081298828125,36.41999816894531,0.0,-3.0,2.2993316650390625,-2.43798828125,Closing,0.0,0.0,3.0,0.0,0.0,0.0,0.0,0.125,
7.500676999999996,0.0,0.0,87822.0,0.125,0.0,0.0,0.0,0.25,0.823974525,0.01,0.0,-154034.0,0.0,0.0,-0.0,0.0,0.0,0.507812448,0.01,0.0,16081.0,0.375,0.0,0.0,0.0,0.0,3.34472622,0.01,0.0,-28265.0,0.375,0.0,-0.0,0.0,0.125,1.6369627230000001,0.01,0.0,0.3100000023841858,-1.2799999713897705,-99.73999786376953,-0.00689697265625,3.662109375E-4,1.01275634765625,36.41999816894531,0.0,2.0,2.2993316650390625,-2.43798828125,Closing,0.0,0.0,3.0,0.0,0.0,0.0,0.0,0.0,
7.590875999999989,0.0,0.0,87822.0,0.125,0.0,0.0,0.0,0.25,0.8276366340000001,0.01,-0.0024414060000000903,-154034.0,0.0,0.0,-0.0,0.0,0.0,0.507812448,0.01,0.0,16081.0,0.375,0.0,0.0,0.0,0.0,3.343505517,0.01,0.0,-28265.0,0.375,0.0,-0.0,0.0,0.125,1.6369627230000001,0.01,-0.0012207029999999897,0.3100000023841858,-1.2000000476837158,-99.73999786376953,-4.2724609375E-4,0.003173828125,1.010986328125,36.439998626708984,0.0,-1.0,2.2993316650390625,-2.437957763671875,Closing,0.0,0.0,3.0,0.0,0.0,0.0,0.0,0.125,
7.685149999999994,0.0,0.0,87822.0,0.125,0.0,0.0,0.0,0.25,0.826415931,0.01,0.0,-154034.0,0.0,0.0,-0.0,0.0,0.0,0.507812448,0.01,0.0,16081.0,0.375,0.0,0.0,0.0,0.0,3.343505517,0.01,0.0,-28265.0,0.375,0.0,-0.0,0.0,0.125,1.6369627230000001,0.01,0.0,0.3100000023841858,-1.159999966621399,-99.75,-0.01123046875,0.00390625,1.02435302734375,36.439998626708984,0.0,0.0,2.2993316650390625,-2.437835693359375,Closing,0.0,0.0,3.0,0.0,0.0,0.0,0.0,0.0,
7.772371000000014,0.0,0.0,87822.0,0.125,0.0,0.0,0.0,0.25,0.826415931,0.01,0.0,-154034.0,0.0,0.0,-0.0,0.0,0.125,0.507812448,0.01,-0.0012207030000004337,16081.0,0.375,0.0,0.0,0.0,0.0,3.342284814,0.01,0.0,-28265.0,0.375,0.0,-0.0,0.0,0.125,1.6369627230000001,0.01,0.0,0.3100000023841858,-1.1200000047683716,-99.75,-0.01019287109375,0.00665283203125,1.02032470703125,36.439998626708984,0.0,-2.0,2.2993316650390625,-2.437835693359375,Closing,0.0,0.0,3.0,0.0,0.0,0.0,0.0,0.125,
7.860110000000015,0.0,0.0,87822.0,0.125,0.0,0.0,0.0,0.25,0.826415931,0.01,0.0,-154034.0,0.0,0.0,-0.0,0.0,0.0,0.507812448,0.01,0.0,16081.0,0.375,0.0,0.0,0.0,0.0,3.343505517,0.01,0.0,-28265.0,0.375,0.0,-0.0,0.0,0.125,1.6369627230000001,0.01,0.0,0.3100000023841858,-1.0700000524520874,-99.75,-0.007080078125,0.00439453125,1.01953125,36.439998626708984,0.0,0.0,2.2993316650390625,-2.437835693359375,Closing,0.0,0.0,3.0,0.0,0.0,0.0,0.0,0.125,
7.954398000000015,0.0,0.0,87822.0,0.125,0.0,0.0,0.0,0.25,0.826415931,0.01,0.0,-154034.0,0.0,0.0,-0.0,0.0,0.0,0.507812448,0.01,0.0,16081.0,0.375,0.0,0.0,0.0,0.0,3.343505517,0.01,0.0,-28265.0,0.375,0.0,-0.0,0.0,0.125,1.6369627230000001,0.01,0.0,0.3100000023841858,-1.0399999618530273,-99.75,-0.01116943359375,0.00201416015625,1.01947021484375,36.439998626708984,0.0,2.0,2.2993316650390625,-2.437835693359375,Closing,0.0,0.0,3.0,0.0,0.0,0.0,0.0,0.125,
8.047624000000011,0.0,0.0,87822.0,0.125,0.0,0.0,0.0,0.25,0.8276366340000001,0.01,0.0,-154034.0,0.0,0.0,-0.0,0.0,0.125,0.507812448,0.01,0.0,16081.0,0.375,0.0,0.0,0.0,0.0,3.353271141,0.01,0.0,-28265.0,0.375,0.0,-0.0,0.0,0.125,1.638183426,0.01,0.0012207029999999897,0.30000001192092896,-1.0,-99.75,-0.00665283203125,0.00701904296875,1.02484130859375,36.439998626708984,0.0,-3.0,2.2993316650390625,-2.437835693359375,Closing,0.0,0.0,3.0,0.0,0.0,0.0,0.0,0.0,
8.133972999999997,0.0,0.0,87822.0,0.125,0.0,0.0,0.0,0.125,0.826415931,0.01,0.0,-154034.0,0.0,0.0,-0.0,0.0,0.0,0.507812448,0.01,0.0,16081.0,0.375,0.0,0.0,0.0,0.0,3.342284814,0.01,0.0,-28265.0,0.375,0.0,-0.0,0.0,0.125,1.6284178020000002,0.01,0.0,0.30000001192092896,-0.949999988079071,-99.75,-0.00567626953125,0.00408935546875,1.0181884765625,36.43000030517578,0.0,0.0,2.2993316650390625,-2.437835693359375,Closing,0.0,0.0,3.0,0.0,0.0,0.0,0.0,0.125,
8.227844000000012,0.0,0.0,87822.0,0.125,0.0,0.0,0.0,0.25,0.826415931,0.01,0.0012207029999999897,-154034.0,0.0,0.0,-0.0,0.0,0.125,0.507812448,0.01,-0.0012207030000004337,16081.0,0.375,0.0,0.0,0.0,0.0,3.333739893,0.01,0.0,-28265.0,0.375,0.0,-0.0,0.0,0.125,1.6369627230000001,0.01,0.0,0.28999999165534973,-0.9100000262260437,-99.75,-0.0068359375,0.0037841796875,1.02117919921875,36.43000030517578,0.0,0.0,2.2993316650390625,-2.437835693359375,Closing,0.0,0.0,3.0,0.0,0.0,0.0,0.0,0.0,
8.314706999999995,0.0,0.0,87822.0,0.125,0.0,0.0,0.0,0.25,0.826415931,0.01,0.0,-154034.0,0.0,0.0,-0.0,0.0,0.0,0.507812448,0.01,0.0,16081.0,0.375,0.0,0.0,0.0,0.0,3.34472622,0.01,0.0,-28265.0,0.375,0.0,-0.0,0.0,0.125,1.6369627230000001,0.01,0.0,0.28999999165534973,-0.8799999952316284,-99.75,-0.00762939453125,0.00390625,1.0234375,36.43000030517578,0.0,0.0,2.2993316650390625,-2.437835693359375,Closing,0.0,0.0,3.0,0.0,0.0,0.0,0.0,0.0,
8.423320000000007,0.0,0.0,87822.0,0.125,0.0,0.0,0.0,0.125,0.826415931,0.01,0.0,-154034.0,0.0,0.0,-0.0,0.0,0.125,0.506591745,0.01,-0.0012207030000004337,16081.0,0.375,0.0,0.0,0.0,0.0,3.342284814,0.01,0.0,-28265.0,0.375,0.0,-0.0,0.0,0.125,1.6357420200000001,0.01,0.0,0.30000001192092896,-0.8399999737739563,-99.75,-0.010009765625,0.00567626953125,1.01947021484375,36.43000030517578,0.0,-1.0,2.2993316650390625,-2.437835693359375,Closing,0.0,0.0,3.0,0.0,0.0,0.0,0.0,0.125,
8.522850000000005,0.0,0.0,87822.0,0.125,0.0,0.0,0.0,0.25,0.8276366340000001,0.01,0.0,-154034.0,0.0,0.0,-0.0,0.0,0.0,0.509033151,0.01,0.0012207030000004337,16081.0,0.375,0.0,0.0,0.0,0.0,3.342284814,0.01,0.0,-28265.0,0.375,0.0,-0.0,0.0,0.125,1.6369627230000001,0.01,0.0,0.28999999165534973,-0.8100000023841858,-99.75,-0.00634765625,0.00299072265625,1.02093505859375,36.43000030517578,0.0,0.0,2.2993316650390625,-2.437835693359375,Closing,0.0,0.0,3.0,0.0,0.0,0.0,0.0,0.0,
8.618168999999995,0.0,0.0,87822.0,0.125,0.0,0.0,0.0,0.25,0.826415931,0.01,0.0,-154034.0,0.0,0.0,-0.0,0.0,0.0,0.507812448,0.01,0.0,16081.0,0.375,0.0,0.0,0.0,0.0,3.343505517,0.01,0.0,-28265.0,0.375,0.0,-0.0,0.0,0.125,1.6369627230000001,0.01,0.0,0.30000001192092896,-0.7900000214576721,-99.76000213623047,-0.01007080078125,0.00457763671875,1.0185546875,36.43000030517578,0.0,0.0,2.2993316650390625,-2.437835693359375,Closing,0.0,0.0,3.0,0.0,0.0,0.0,0.0,0.125,
8.715519,0.0,0.0,87822.0,0.125,0.0,0.0,0.0,0.25,0.826415931,0.01,0.0,-154034.0,0.0,0.0,-0.0,0.0,0.125,0.507812448,0.01,0.0,16081.0,0.375,0.0,0.0,0.0,0.0,3.343505517,0.01,0.0,-28265.0,0.375,0.0,-0.0,0.0,0.125,1.6369627230000001,0.01,0.0,0.28999999165534973,-0.7599999904632568,-99.76000213623047,-0.009033203125,0.0047607421875,1.01751708984375,36.43000030517578,0.0,0.0,2.2993316650390625,-2.437835693359375,Closing,0.0,0.0,3.0,0.0,0.0,0.0,0.0,0.125,
8.810641999999993,0.0,0.0,87822.0,0.125,0.0,0.0,0.0,0.25,0.823974525,0.01,0.0,-154034.0,0.0,0.0,-0.0,0.0,0.125,0.507812448,0.01,0.0,16081.0,0.375,0.0,0.0,0.0,0.0,3.342284814,0.01,0.0,-28265.0,0.375,0.0,-0.0,0.0,0.125,1.6369627230000001,0.01,0.0,0.28999999165534973,-0.7400000095367432,-99.76000213623047,-0.00634765625,0.00323486328125,1.02081298828125,36.43000030517578,0.0,0.0,2.2993316650390625,-2.437835693359375,Closing,0.0,0.0,3.0,0.0,0.0,0.0,0.0,0.125,
8.90902900000001,0.0,0.0,87822.0,0.125,0.0,0.0,0.0,0.125,0.826415931,0.01,0.0,-154034.0,0.0,0.0,-0.0,0.0,0.125,0.507812448,0.01,0.0,16081.0,0.375,0.0,0.0,0.0,0.0,3.343505517,0.01,0.0,-28265.0,0.375,0.0,-0.0,0.0,0.125,1.6369627230000001,0.01,0.0,0.2800000011920929,-0.7200000286102295,-99.76000213623047,-0.0074462890625,0.00323486328125,1.01885986328125,36.43000030517578,0.0,0.0,2.2993316650390625,-2.437835693359375,Closing,0.0,0.0,3.0,0.0,0.0,0.0,0.0,0.125,
9.008410000000003,0.0,0.0,87822.0,0.125,0.0,0.0,0.0,0.25,0.8312987430000001,0.01,0.0,-154034.0,0.0,0.0,-0.0,0.0,0.125,0.507812448,0.01,0.0,16081.0,0.375,0.0,0.0,0.0,0.0,3.342284814,0.01,0.0,-28265.0,0.375,0.0,-0.0,0.0,0.125,1.6369627230000001,0.01,0.0,0.2800000011920929,-0.6899999976158142,-99.76000213623047,-0.0074462890625,0.0023193359375,1.01641845703125,36.43000030517578,0.0,1.0,2.2993316650390625,-2.437835693359375,Closing,0.0,0.0,3.0,0.0,0.0,0.0,0.0,0.125,
9.108716000000015,0.0,0.0,87822.0,0.125,0.0,0.0,0.0,0.25,0.826415931,0.01,0.0,-154034.0,0.0,0.0,-0.0,0.0,0.125,0.505371042,0.01,0.0,16081.0,0.375,0.0,0.0,0.0,0.0,3.343505517,0.01,0.0,-28265.0,0.375,0.0,-0.0,0.0,0.125,1.6369627230000001,0.01,0.0,0.2800000011920929,-0.6800000071525574,-99.76000213623047,-0.005859375,0.00341796875,1.016845703125,36.470001220703125,0.0,0.0,2.2993316650390625,-2.437835693359375,Closing,0.0,0.0,3.0,0.0,0.0,0.0,0.0,0.125,
9.207799,0.0,0.0,87822.0,0.125,0.0,0.0,0.0,0.25,0.826415931,0.01,0.0,-154034.0,0.0,0.0,-0.0,0.0,0.0,0.507812448,0.01,0.0,16081.0,0.375,0.0,0.0,0.0,0.0,3.342284814,0.01,0.0,-28265.0,0.375,0.0,-0.0,0.0,0.125,1.638183426,0.01,0.0,0.2800000011920929,-0.6700000166893005,-99.76000213623047,-0.0078125,0.0032958984375,1.019775390625,36.470001220703125,0.0,1.0,2.2993316650390625,-2.437835693359375,Closing,0.0,0.0,3.0,0.0,0.0,0.0,0.0,0.125,
9.307575000000012,0.0,0.0,87822.0,0.125,0.0,0.0,0.0,0.25,0.826415931,0.01,0.0,-154034.0,0.0,0.0,-0.0,0.0,0.125,0.507812448,0.01,0.0,16081.0,0.375,0.0,0.0,0.0,0.0,3.343505517,0.01,0.0,-28265.0,0.375,0.0,-0.0,0.0,0.125,1.6369627230000001,0.01,0.0,0.2800000011920929,-0.6499999761581421,-99.76000213623047,-0.00555419921875,0.004638671875,1.01287841796875,36.470001220703125,0.0,0.0,2.2993316650390625,-2.437835693359375,Closing,0.0,0.0,3.0,0.0,0.0,0.0,0.0,0.125,
9.405687999999994,0.0,0.0,87822.0,0.125,0.0,0.0,0.0,0.125,0.826415931,0.01,0.0,-154034.0,0.0,0.0,-0.0,0.0,0.125,0.507812448,0.01,0.0,16081.0,0.375,0.0,0.0,0.0,0.0,3.342284814,0.01,0.0,-28265.0,0.375,0.0,-0.0,0.0,0.125,1.6369627230000001,0.01,0.0,0.2800000011920929,-0.6399999856948853,-99.76000213623047,-0.00689697265625,0.00543212890625,1.02642822265625,36.470001220703125,0.0,-1.0,2.2993316650390625,-2.437835693359375,Closing,0.0,0.0,3.0,0.0,0.0,0.0,0.0,0.125,
9.505592999999994,0.0,0.0,87822.0,0.125,0.0,0.0,0.0,0.25,0.826415931,0.01,0.0,-154034.0,0.0,0.0,-0.0,0.0,0.0,0.522460884,0.01,0.0,16081.0,0.375,0.0,0.0,0.0,0.0,3.343505517,0.01,0.0,-28265.0,0.375,0.0,-0.0,0.0,0.125,1.6369627230000001,0.01,0.0,0.2800000011920929,-0.6200000047683716,-99.76000213623047,-0.00701904296875,0.0059814453125,1.01385498046875,36.470001220703125,0.0,-1.0,2.2993316650390625,-2.437835693359375,Closing,0.0,0.0,3.0,0.0,0.0,0.0,0.0,0.125,
9.600554999999993,0.0,0.0,87822.0,0.125,0.0,0.0,0.0,0.25,0.8276366340000001,0.01,0.0,-154034.0,0.0,0.0,-0.0,0.0,0.125,0.507812448,0.01,0.0,16083.0,0.375,7.5,0.0,0.0,0.0,3.343505517,0.01,0.0,-28265.0,0.375,0.0,-0.0,0.0,0.125,1.6369627230000001,0.01,0.0,0.2800000011920929,-0.6100000143051147,-99.76000213623047,-0.00701904296875,0.00482177734375,1.02105712890625,36.47999954223633,0.0,0.0,2.2993316650390625,-2.437835693359375,Closing,0.0,0.0,3.0,0.0,0.0,0.0,0.0,0.0,
9.701861000000005,0.0,0.0,87822.0,0.125,0.0,0.0,0.0,0.25,0.826415931,0.01,0.0,-154034.0,0.0,0.0,-0.0,0.0,0.0,0.507812448,0.01,0.0,16084.0,0.375,7.5,0.0,0.0,0.0,3.343505517,0.01,0.0,-28265.0,0.375,0.0,-0.0,0.0,0.125,1.6369627230000001,0.01,0.0,0.2800000011920929,-0.6000000238418579,-99.76000213623047,-0.01202392578125,0.00640869140625,1.01995849609375,36.47999954223633,0.0,-1.0,2.2993316650390625,-2.437835693359375,Closing,0.0,0.0,3.0,0.0,0.0,0.0,0.0,0.125,
9.808467000000004,0.0,0.0,87822.0,0.125,0.0,0.0,0.0,0.25,0.826415931,0.01,0.0,-154034.0,0.0,0.0,-0.0,0.0,0.0,0.507812448,0.01,0.0,16084.0,0.375,0.0,0.0,0.0,0.0,3.343505517,0.01,0.0,-28265.0,0.375,0.0,-0.0,0.0,0.125,1.638183426,0.01,0.0,0.2800000011920929,-0.5899999737739563,-99.76000213623047,-0.007080078125,0.00421142578125,1.019287109375,36.47999954223633,0.0,0.0,2.2993316650390625,-2.437835693359375,Closing,0.0,0.0,3.0,0.0,0.0,0.0,0.0,0.0,
9.906616999999999,0.0,0.0,87822.0,0.125,0.0,0.0,0.0,0.25,0.826415931,0.01,0.0,-154034.0,0.0,0.0,-0.0,0.0,0.125,0.507812448,0.01,0.0,16084.0,0.375,0.0,0.0,0.0,0.0,3.342284814,0.01,0.0,-28265.0,0.375,0.0,-0.0,0.0,0.125,1.638183426,0.01,0.0,0.2800000011920929,-0.5799999833106995,-99.76000213623047,-0.0074462890625,0.0081787109375,1.01458740234375,36.47999954223633,0.0,-3.0,2.2993316650390625,-2.437835693359375,Closing,0.0,0.0,3.0,0.0,0.0,0.0,0.0,0.0,
10.006114000000002,0.0,0.0,87822.0,0.125,0.0,0.0,0.0,0.25,0.826415931,0.01,0.0,-154034.0,0.0,0.0,-0.0,0.0,0.0,0.507812448,0.01,0.0,16084.0,0.375,0.0,0.0,0.0,0.0,3.343505517,0.01,0.0,-28265.0,0.375,0.0,-0.0,0.0,0.125,1.641845535,0.01,0.0,0.2800000011920929,-0.5699999928474426,-99.76000213623047,-0.00726318359375,0.00689697265625,1.01995849609375,36.47999954223633,0.0,-2.0,2.2993316650390625,-2.437835693359375,Closing,0.0,0.0,3.0,0.0,0.0,0.0,0.0,0.0,
10.095673999999999,0.0,0.0,87822.0,0.125,0.0,0.0,0.0,0.25,0.826415931,0.01,-0.0024414060000000903,-154034.0,0.0,0.0,-0.0,0.0,0.0,0.507812448,0.01,0.0,16084.0,0.375,0.0,0.0,0.0,0.0,3.343505517,0.01,0.0,-28265.0,0.375,0.0,-0.0,0.0,0.125,1.6369627230000001,0.01,0.0,0.2800000011920929,-0.5600000023841858,-99.7699966430664,-0.01104736328125,0.002197265625,1.01800537109375,36.47999954223633,0.0,2.0,2.2993316650390625,-2.437835693359375,Closing,0.0,0.0,3.0,0.0,0.0,0.0,0.0,0.125,
10.188212999999989,0.0,0.0,87822.0,0.125,0.0,0.0,0.0,0.25,0.833740149,0.01,0.0,-154034.0,0.0,0.0,-0.0,0.0,0.125,0.509033151,0.01,0.0,16084.0,0.375,0.0,0.0,0.0,0.0,3.343505517,0.01,0.0,-28265.0,0.375,0.0,-0.0,0.0,0.125,1.64794905,0.01,0.0,0.27000001072883606,-0.5600000023841858,-99.76000213623047,-0.00885009765625,0.0037841796875,1.0167236328125,36.529998779296875,0.0,0.0,2.2993316650390625,-2.437835693359375,Closing,0.0,0.0,3.0,0.0,0.0,0.0,0.0,0.0,
10.279320000000007,0.0,0.0,87822.0,0.125,0.0,0.0,0.0,0.25,0.826415931,0.01,0.0,-154034.0,0.0,0.0,-0.0,0.0,0.125,0.507812448,0.01,0.0,16084.0,0.375,0.0,0.0,0.0,0.0,3.347167626,0.01,0.0,-28265.0,0.375,0.0,-0.0,0.0,0.125,1.6369627230000001,0.01,0.0,0.2800000011920929,-0.550000011920929,-99.7699966430664,-0.00653076171875,0.0052490234375,1.0186767578125,36.529998779296875,0.0,0.0,2.2993316650390625,-2.437835693359375,Closing,0.0,0.0,3.0,0.0,0.0,0.0,0.0,0.125,
10.372171000000002,0.0,0.0,87822.0,0.125,0.0,0.0,0.0,0.25,0.8276366340000001,0.01,0.0,-154034.0,0.0,0.0,-0.0,0.0,0.0,0.507812448,0.01,0.0012207030000004337,16084.0,0.375,0.0,0.0,0.0,0.0,3.34472622,0.01,0.0,-28265.0,0.375,0.0,-0.0,0.0,0.125,1.6296385050000002,0.01,0.0,0.2800000011920929,-0.550000011920929,-99.76000213623047,-0.0106201171875,0.00469970703125,1.01666259765625,36.529998779296875,0.0,0.0,2.2993316650390625,-2.437835693359375,Closing,0.0,0.0,3.0,0.0,0.0,0.0,0.0,0.125,
10.469133000000001,0.0,0.0,87822.0,0.125,0.0,0.0,0.0,0.25,0.826415931,0.01,0.0,-154034.0,0.0,0.0,-0.0,0.0,0.125,0.509033151,0.01,0.0,16084.0,0.375,0.0,0.0,0.0,0.0,3.343505517,0.01,0.0,-28265.0,0.375,0.0,-0.0,0.0,0.125,1.6369627230000001,0.01,0.0,0.2800000011920929,-0.5400000214576721,-99.76000213623047,-0.00714111328125,0.0067138671875,1.01629638671875,36.529998779296875,0.0,-2.0,2.2993316650390625,-2.437835693359375,Closing,0.0,0.0,3.0,0.0,0.0,0.0,0.0,0.0,
10.561205000000017,0.0,0.0,87822.0,0.125,0.0,0.0,0.0,0.25,0.826415931,0.01,0.0,-154034.0,0.0,0.0,-0.0,0.0,0.0,0.507812448,0.01,0.0,16084.0,0.375,0.0,0.0,0.0,0.0,3.343505517,0.01,0.0,-28265.0,0.375,0.0,-0.0,0.0,0.125,1.639404129,0.01,0.0,0.2800000011920929,-0.5400000214576721,-99.7699966430664,-0.00604248046875,0.006591796875,1.01678466796875,36.529998779296875,0.0,-2.0,2.2993316650390625,-2.437835693359375,Closing,0.0,0.0,3.0,0.0,0.0,0.0,0.0,0.125,
10.652193999999989,0.0,0.0,87822.0,0.125,0.0,0.0,0.0,0.125,0.826415931,0.01,-0.0012207029999999897,-154034.0,0.0,0.0,-0.0,0.0,0.125,0.507812448,0.01,0.0,16084.0,0.375,0.0,0.0,0.0,0.0,3.342284814,0.01,0.0,-28265.0,0.375,0.0,-0.0,0.0,0.125,1.6369627230000001,0.01,-0.0012207029999999897,0.27000001072883606,-0.5299999713897705,-99.7699966430664,-0.007568359375,-3.0517578125E-4,1.01556396484375,36.47999954223633,0.0,4.0,2.2993316650390625,-2.437835693359375,Closing,0.0,0.0,3.0,0.0,0.0,0.0,0.0,0.125,
10.747429000000004,0.0,0.0,87822.0,0.125,0.0,0.0,0.0,0.25,0.8166503070000001,0.01,0.0,-154034.0,0.0,0.0,-0.0,0.0,0.0,0.507812448,0.01,0.0,16084.0,0.375,0.0,0.0,0.0,0.0,3.343505517,0.01,0.0,-28265.0,0.375,0.0,-0.0,0.0,0.125,1.638183426,0.01,0.0012207029999999897,0.27000001072883606,-0.5199999809265137,-99.7699966430664,-0.00836181640625,0.0050048828125,1.0206298828125,36.47999954223633,0.0,0.0,2.2993316650390625,-2.437835693359375,Closing,0.0,0.0,3.0,0.0,0.0,0.0,0.0,0.0,
10.834412000000011,0.0,0.0,87822.0,0.125,0.0,0.0,0.0,0.25,0.833740149,0.01,0.0,-154034.0,0.0,0.0,-0.0,0.0,0.125,0.506591745,0.01,-0.0012207030000004337,16084.0,0.375,0.0,0.0,0.0,0.0,3.342284814,0.01,0.0,-28265.0,0.375,0.0,-0.0,0.0,0.125,1.638183426,0.01,0.0,0.27000001072883606,-0.5199999809265137,-99.7699966430664,-0.00946044921875,0.00323486328125,1.0225830078125,36.47999954223633,0.0,1.0,2.2993316650390625,-2.437835693359375,Closing,0.0,0.0,3.0,0.0,0.0,0.0,0.0,0.125,
10.928306000000012,0.0,0.0,87822.0,0.125,0.0,0.0,0.0,0.25,0.826415931,0.01,0.0,-154034.0,0.0,0.0,-0.0,0.0,0.0,0.506591745,0.01,0.0012207030000004337,16084.0,0.375,0.0,0.0,0.0,0.0,3.343505517,0.01,0.0012207030000004337,-28265.0,0.375,0.0,-0.0,0.0,0.125,1.6369627230000001,0.01,0.0,0.27000001072883606,-0.5199999809265137,-99.76000213623047,-0.00677490234375,0.00335693359375,1.0191650390625,36.47999954223633,0.0,1.0,2.2993316650390625,-2.437835693359375,Closing,0.0,0.0,3.0,0.0,0.0,0.0,0.0,0.125,
11.015349000000016,0.0,0.0,87822.0,0.125,0.0,0.0,0.0,0.25,0.826415931,0.01,0.0,-154034.0,0.0,0.0,-0.0,0.0,0.0,0.507812448,0.01,0.0,16084.0,0.375,0.0,0.0,0.0,0.0,3.343505517,0.01,0.0,-28265.0,0.375,0.0,-0.0,0.0,0.125,1.6369627230000001,0.01,0.0,0.27000001072883606,-0.5199999809265137,-99.7699966430664,-0.00811767578125,0.0030517578125,1.02532958984375,36.47999954223633,0.0,1.0,2.2993316650390625,-2.437835693359375,Closing,0.0,0.0,3.0,0.0,0.0,0.0,0.0,0.125,
11.113029999999998,0.0,0.0,87822.0,0.125,0.0,0.0,0.0,0.25,0.826415931,0.01,0.0,-154034.0,0.0,0.0,-0.0,0.0,0.125,0.507812448,0.01,0.0,16084.0,0.375,0.0,0.0,0.0,0.0,3.343505517,0.01,0.0,-28265.0,0.375,0.0,-0.0,0.0,0.125,1.6369627230000001,0.01,0.0,0.27000001072883606,-0.5099999904632568,-99.7699966430664,-0.009033203125,0.00506591796875,1.013671875,36.47999954223633,0.0,0.0,2.2993316650390625,-2.437835693359375,Closing,0.0,0.0,3.0,0.0,0.0,0.0,0.0,0.125,
11.207811000000016,0.0,0.0,87822.0,0.125,0.0,0.0,0.0,0.25,0.8276366340000001,0.01,0.0,-154034.0,0.0,0.0,-0.0,0.0,0.0,0.507812448,0.01,0.0,16084.0,0.375,0.0,0.0,0.0,0.0,3.343505517,0.01,0.0,-28265.0,0.375,0.0,-0.0,0.0,0.125,1.6369627230000001,0.01,0.0,0.27000001072883606,-0.5099999904632568,-99.7699966430664,-0.007568359375,0.0062255859375,1.01898193359375,36.4900016784668,0.0,-1.0,2.2993316650390625,-2.437835693359375,Closing,0.0,0.0,3.0,0.0,0.0,0.0,0.0,0.125,
11.296822000000015,0.0,0.0,87822.0,0.125,0.0,0.0,0.0,0.25,0.826415931,0.01,0.0,-154034.0,0.0,0.0,-0.0,0.0,0.125,0.507812448,0.01,0.0,16084.0,0.375,0.0,0.0,0.0,0.0,3.343505517,0.01,0.0,-28265.0,0.375,0.0,-0.0,0.0,0.125,1.640624832,0.01,0.0,0.27000001072883606,-0.5,-99.7699966430664,-0.00555419921875,0.005126953125,1.02081298828125,36.4900016784668,0.0,0.0,2.2993316650390625,-2.437835693359375,Closing,0.0,0.0,3.0,0.0,0.0,0.0,0.0,0.0,
11.388722999999999,0.0,0.0,87822.0,0.125,0.0,0.0,0.0,0.25,0.826415931,0.01,0.0,-154034.0,0.0,0.0,-0.0,0.0,0.125,0.507812448,0.01,0.0,16084.0,0.375,0.0,0.0,0.0,0.0,3.343505517,0.01,0.0,-28265.0,0.375,0.0,-0.0,0.0,0.125,1.6369627230000001,0.01,0.0,0.27000001072883606,-0.5,-99.7699966430664,-0.0101318359375,0.00677490234375,1.0205078125,36.4900016784668,0.0,-1.0,2.2993316650390625,-2.437835693359375,Closing,0.0,0.0,3.0,0.0,0.0,0.0,0.0,0.0,
11.48020199999999,0.0,0.0,87822.0,0.125,0.0,0.0,0.0,0.25,0.826415931,0.01,0.0,-154034.0,0.0,0.0,-0.0,0.0,0.0,0.507812448,0.01,0.0012207030000004337,16084.0,0.375,0.0,0.0,0.0,0.0,3.343505517,0.01,-0.0012207030000004337,-28265.0,0.375,0.0,-0.0,0.0,0.125,1.639404129,0.01,0.0,0.27000001072883606,-0.5,-99.7699966430664,-0.0087890625,0.0047607421875,1.017333984375,36.4900016784668,0.0,0.0,2.2993316650390625,-2.437835693359375,Closing,0.0,0.0,3.0,0.0,0.0,0.0,0.0,0.0,
11.569986999999994,0.0,0.0,87822.0,0.125,0.0,0.0,0.0,0.25,0.8276366340000001,0.01,0.0,-154034.0,0.0,0.0,-0.0,0.0,0.0,0.509033151,0.01,0.0,16084.0,0.375,0.0,0.0,0.0,0.0,3.343505517,0.01,0.0,-28265.0,0.375,0.0,-0.0,0.0,0.125,1.638183426,0.01,0.0,0.27000001072883606,-0.49000000953674316,-99.7699966430664,-0.0111083984375,0.00372314453125,1.01812744140625,36.4900016784668,0.0,1.0,2.2993316650390625,-2.437835693359375,Closing,0.0,0.0,3.0,0.0,0.0,0.0,0.0,0.125,
11.656206999999995,0.0,0.0,87822.0,0.125,0.0,0.0,0.0,0.25,0.826415931,0.01,0.0,-154034.0,0.0,0.0,-0.0,0.0,0.0,0.507812448,0.01,0.0,16084.0,0.375,0.0,0.0,0.0,0.0,3.341064111,0.01,0.0,-28265.0,0.375,0.0,-0.0,0.0,0.125,1.6369627230000001,0.01,0.0,0.27000001072883606,-0.49000000953674316,-99.7699966430664,-0.008056640625,0.0067138671875,1.01531982421875,36.529998779296875,0.0,-2.0,2.2993316650390625,-2.437835693359375,Closing,0.0,0.0,3.0,0.0,0.0,0.0,0.0,0.125,
11.752399000000004,0.0,0.0,87822.0,0.125,0.0,0.0,0.0,0.25,0.826415931,0.01,0.0,-154034.0,0.0,0.0,-0.0,0.0,0.125,0.507812448,0.01,0.0,16084.0,0.375,0.0,0.0,0.0,0.0,3.343505517,0.01,0.0,-28265.0,0.375,0.0,-0.0,0.0,0.125,1.6369627230000001,0.01,0.0,0.27000001072883606,-0.47999998927116394,-99.7699966430664,-0.00579833984375,0.009521484375,1.0224609375,36.529998779296875,0.0,-5.0,2.2993316650390625,-2.437835693359375,Closing,0.0,0.0,3.0,0.0,0.0,0.0,0.0,0.0,
11.84802799999999,0.0,0.0,87822.0,0.125,0.0,0.0,0.0,0.25,0.826415931,0.01,-0.0012207029999999897,-154034.0,0.0,0.0,-0.0,0.0,0.0,0.5041503390000001,0.01,0.0,16084.0,0.375,0.0,0.0,0.0,0.0,3.343505517,0.01,0.0,-28265.0,0.375,0.0,-0.0,0.0,0.125,1.6369627230000001,0.01,0.0,0.25999999046325684,-0.47999998927116394,-99.77999877929688,-0.00946044921875,0.00836181640625,1.0189208984375,36.529998779296875,0.0,-3.0,2.2993316650390625,-2.437835693359375,Closing,0.0,0.0,3.0,0.0,0.0,0.0,0.0,0.125,
11.939850000000005,0.0,0.0,87822.0,0.125,0.0,0.0,0.0,0.25,0.826415931,0.01,0.0,-154034.0,0.0,0.0,-0.0,0.0,0.0,0.507812448,0.01,0.0,16084.0,0.375,0.0,0.0,0.0,0.0,3.342284814,0.01,0.0,-28265.0,0.375,0.0,-0.0,0.0,0.125,1.638183426,0.01,0.0,0.25999999046325684,-0.47999998927116394,-99.77999877929688,-0.00762939453125,0.00408935546875,1.01922607421875,36.529998779296875,0.0,0.0,2.2993316650390625,-2.437835693359375,Closing,0.0,0.0,3.0,0.0,0.0,0.0,0.0,0.125,
12.030532999999997,0.0,0.0,87822.0,0.125,0.0,0.0,0.0,0.25,0.826415931,0.01,0.0,-154034.0,0.0,0.0,-0.0,0.0,0.0,0.507812448,0.01,0.0,16084.0,0.375,0.0,0.0,0.0,0.0,3.343505517,0.01,0.0,-28265.0,0.375,0.0,-0.0,0.0,0.125,1.6369627230000001,0.01,0.0,0.25999999046325684,-0.47999998927116394,-99.77999877929688,-0.005859375,0.005126953125,1.02008056640625,36.529998779296875,0.0,0.0,2.2993316650390625,-2.437835693359375,Closing,0.0,0.0,3.0,0.0,0.0,0.0,0.0,0.125,
12.123986000000004,0.0,0.0,87822.0,0.125,0.0,0.0,0.0,0.25,0.819091713,0.01,0.0,-154034.0,0.0,0.0,-0.0,0.0,0.0,0.513915963,0.01,0.0,16084.0,0.375,0.0,0.0,0.0,0.0,3.342284814,0.01,0.0,-28265.0,0.375,0.0,-0.0,0.0,0.125,1.6369627230000001,0.01,0.0,0.27000001072883606,-0.47999998927116394,-99.77999877929688,-0.00946044921875,0.0052490234375,1.0191650390625,36.529998779296875,0.0,0.0,2.2993316650390625,-2.437835693359375,Closing,0.0,0.0,3.0,0.0,0.0,0.0,0.0,0.0,
12.213660999999993,0.0,0.0,87822.0,0.125,0.0,0.0,0.0,0.25,0.820312416,0.01,0.0,-154034.0,0.0,0.0,-0.0,0.0,0.0,0.510253854,0.01,0.0,16084.0,0.375,0.0,0.0,0.0,0.0,3.341064111,0.01,0.0,-28265.0,0.375,0.0,-0.0,0.0,0.125,1.638183426,0.01,0.0,0.27000001072883606,-0.4699999988079071,-99.77999877929688,-0.00921630859375,0.00677490234375,1.02001953125,36.5,0.0,-1.0,2.2993316650390625,-2.437835693359375,Closing,0.0,0.0,3.0,0.0,0.0,0.0,0.0,0.0,
12.308754000000015,0.0,0.0,87822.0,0.125,0.0,0.0,0.0,0.25,0.823974525,0.01,0.0,-154034.0,0.0,0.0,-0.0,0.0,0.0,0.507812448,0.01,0.0,16084.0,0.375,0.0,0.0,0.0,0.0,3.343505517,0.01,0.0,-28265.0,0.375,0.0,-0.0,0.0,0.125,1.6369627230000001,0.01,-0.0012207029999999897,0.27000001072883606,-0.4699999988079071,-99.77999877929688,-0.009765625,0.0059814453125,1.0205078125,36.5,0.0,0.0,2.2993316650390625,-2.437835693359375,Closing,0.0,0.0,3.0,0.0,0.0,0.0,0.0,0.125,
12.406894,0.0,0.0,87822.0,0.125,0.0,0.0,0.0,0.25,0.826415931,0.01,0.0,-154034.0,0.0,0.0,-0.0,0.0,0.125,0.507812448,0.01,0.0,16084.0,0.375,0.0,0.0,0.0,0.0,3.342284814,0.01,0.0,-28265.0,0.375,0.0,-0.0,0.0,0.125,1.6369627230000001,0.01,0.0012207029999999897,0.27000001072883606,-0.4699999988079071,-99.77999877929688,-0.0111083984375,0.00384521484375,1.0181884765625,36.5,0.0,1.0,2.2993316650390625,-2.437835693359375,Closing,0.0,0.0,3.0,0.0,0.0,0.0,0.0,0.0,
12.496118000000017,0.0,0.0,87822.0,0.125,0.0,0.0,0.0,0.25,0.825195228,0.01,0.0,-154034.0,0.0,0.0,-0.0,0.0,0.0,0.509033151,0.01,0.0,16084.0,0.375,0.0,0.0,0.0,0.0,3.343505517,0.01,0.0,-28265.0,0.375,0.0,-0.0,0.0,0.125,1.638183426,0.01,0.0,0.27000001072883606,-0.46000000834465027,-99.77999877929688,-0.01123046875,0.00274658203125,1.017578125,36.5,0.0,2.0,2.2993316650390625,-2.437835693359375,Closing,0.0,0.0,3.0,0.0,0.0,0.0,0.0,0.125,
12.58975,0.0,0.0,87822.0,0.125,0.0,0.0,0.0,0.25,0.8276366340000001,0.01,0.0012207029999999897,-154034.0,0.0,0.0,-0.0,0.0,0.0,0.506591745,0.01,0.0,16084.0,0.375,0.0,0.0,0.0,0.0,3.342284814,0.01,0.0,-28266.0,0.375,-7.5,-0.0,0.0,0.125,1.6369627230000001,0.01,0.0,0.27000001072883606,-0.4699999988079071,-99.77999877929688,-0.00750732421875,0.00433349609375,1.02362060546875,36.5,0.0,0.0,2.2993316650390625,-2.437835693359375,Closing,0.0,0.0,3.0,0.0,0.0,0.0,0.0,0.125,
12.68648000000001,0.0,0.0,87822.0,0.125,0.0,0.0,0.0,0.125,0.826415931,0.01,0.0,-154034.0,0.0,0.0,-0.0,0.0,0.0,0.50048823,0.01,0.0,16084.0,0.375,0.0,0.0,0.0,0.0,3.343505517,0.01,0.0,-28266.0,0.375,0.0,-0.0,0.0,0.125,1.638183426,0.01,0.0,0.27000001072883606,-0.46000000834465027,-99.77999877929688,-0.0062255859375,0.00384521484375,1.02008056640625,36.4900016784668,0.0,0.0,2.2993316650390625,-2.437835693359375,Closing,0.0,0.0,3.0,0.0,0.0,0.0,0.0,0.125,
12.775195000000007,0.0,0.0,87822.0,0.125,0.0,0.0,0.0,0.25,0.8312987430000001,0.01,0.0,-154034.0,0.0,0.0,-0.0,0.0,0.0,0.509033151,0.01,0.0,16084.0,0.375,0.0,0.0,0.0,0.0,3.342284814,0.01,0.0,-28266.0,0.375,0.0,-0.0,0.0,0.125,1.6369627230000001,0.01,0.0,0.27000001072883606,-0.46000000834465027,-99.77999877929688,-0.01031494140625,0.0059814453125,1.021484375,36.4900016784668,0.0,0.0,2.2993316650390625,-2.437835693359375,Closing,0.0,0.0,3.0,0.0,0.0,0.0,0.0,0.125,
12.868814000000013,0.0,0.0,87822.0,0.125,0.0,0.0,0.0,0.25,0.826415931,0.01,0.0,-154034.0,0.0,0.0,-0.0,0.0,0.125,0.507812448,0.01,0.0,16084.0,0.375,0.0,0.0,0.0,0.0,3.342284814,0.01,0.0,-28266.0,0.375,0.0,-0.0,0.0,0.125,1.6369627230000001,0.01,0.0,0.27000001072883606,-0.46000000834465027,-99.77999877929688,-0.0089111328125,-1.8310546875E-4,1.01763916015625,36.4900016784668,0.0,5.0,2.2993316650390625,-2.437835693359375,Closing,0.0,0.0,3.0,0.0,0.0,0.0,0.0,0.125,
12.96004699999999,0.0,0.0,87822.0,0.125,0.0,0.0,0.0,0.25,0.825195228,0.01,-0.0012207029999999897,-154034.0,0.0,0.0,-0.0,0.0,0.125,0.5175780720000001,0.01,0.0,16084.0,0.375,0.0,0.0,0.0,0.0,3.343505517,0.01,0.0,-28266.0,0.375,0.0,-0.0,0.0,0.125,1.6357420200000001,0.01,0.0,0.27000001072883606,-0.46000000834465027,-99.77999877929688,-0.00799560546875,0.00531005859375,1.01690673828125,36.4900016784668,0.0,0.0,2.2993316650390625,-2.437835693359375,Closing,0.0,0.0,3.0,0.0,0.0,0.0,0.0,0.0,
13.051638999999996,0.0,0.0,87822.0,0.125,0.0,0.0,0.0,0.25,0.826415931,0.01,0.0,-154034.0,0.0,0.0,-0.0,0.0,0.0,0.507812448,0.01,0.0,16084.0,0.375,0.0,0.0,0.0,0.0,3.34472622,0.01,0.0,-28266.0,0.375,0.0,-0.0,0.0,0.125,1.6357420200000001,0.01,-0.0012207029999999897,0.27000001072883606,-0.44999998807907104,-99.77999877929688,-0.00677490234375,0.0062255859375,1.01971435546875,36.4900016784668,0.0,-1.0,2.2993316650390625,-2.437835693359375,Closing,0.0,0.0,3.0,0.0,0.0,0.0,0.0,0.125,
13.145181000000012,0.0,0.0,87822.0,0.125,0.0,0.0,0.0,0.25,0.826415931,0.01,0.0,-154034.0,0.0,0.0,-0.0,0.0,0.125,0.507812448,0.01,-0.0012207030000004337,16084.0,0.375,0.0,0.0,0.0,0.0,3.345946923,0.01,0.0,-28266.0,0.375,0.0,-0.0,0.0,0.125,1.627197099,0.01,0.0,0.2800000011920929,-0.44999998807907104,-99.77999877929688,-0.00982666015625,0.002685546875,1.01397705078125,36.4900016784668,0.0,2.0,2.2993316650390625,-2.437835693359375,Closing,0.0,0.0,3.0,0.0,0.0,0.0,0.0,0.0,
13.234035000000004,0.0,0.0,87822.0,0.125,0.0,0.0,0.0,0.25,0.826415931,0.01,0.0,-154034.0,0.0,0.0,-0.0,0.0,0.125,0.5029296360000001,0.01,0.0,16084.0,0.375,0.0,0.0,0.0,0.0,3.342284814,0.01,-0.0012207030000004337,-28266.0,0.375,0.0,-0.0,0.0,0.125,1.6369627230000001,0.01,0.0,0.27000001072883606,-0.44999998807907104,-99.77999877929688,-0.009765625,0.00482177734375,1.02154541015625,36.54999923706055,0.0,0.0,2.2993316650390625,-2.437835693359375,Closing,0.0,0.0,3.0,0.0,0.0,0.0,0.0,0.125,
13.32212599999999,0.0,0.0,87822.0,0.125,0.0,0.0,0.0,0.25,0.826415931,0.01,0.0,-154034.0,0.0,0.0,-0.0,0.0,0.0,0.507812448,0.01,0.0,16084.0,0.375,0.0,0.0,0.0,0.0,3.354491844,0.01,0.0,-28266.0,0.375,0.0,-0.0,0.0,0.125,1.6369627230000001,0.01,0.0,0.27000001072883606,-0.44999998807907104,-99.77999877929688,-0.0101318359375,0.00482177734375,1.01910400390625,36.54999923706055,0.0,0.0,2.2993316650390625,-2.437835693359375,Closing,0.0,0.0,3.0,0.0,0.0,0.0,0.0,0.0,
13.415619999999995,0.0,0.0,87822.0,0.125,0.0,0.0,0.0,0.25,0.826415931,0.01,0.0,-154034.0,0.0,0.0,-0.0,0.0,0.0,0.509033151,0.01,0.0,16084.0,0.375,0.0,0.0,0.0,0.0,3.343505517,0.01,0.0,-28266.0,0.375,0.0,-0.0,0.0,0.125,1.6369627230000001,0.01,0.0,0.27000001072883606,-0.44999998807907104,-99.77999877929688,-0.008056640625,0.00701904296875,1.01959228515625,36.54999923706055,0.0,-2.0,2.2993316650390625,-2.437835693359375,Closing,0.0,0.0,3.0,0.0,0.0,0.0,0.0,0.0,
13.512019,0.0,0.0,87822.0,0.125,0.0,0.0,0.0,0.25,0.826415931,0.01,0.0,-154034.0,0.0,0.0,-0.0,0.0,0.0,0.507812448,0.01,0.0,16084.0,0.375,0.0,0.0,0.0,0.0,3.343505517,0.01,0.0,-28267.0,0.375,-7.5,-0.0,0.0,0.125,1.6369627230000001,0.01,0.0,0.27000001072883606,-0.44999998807907104,-99.77999877929688,-0.0076904296875,0.00543212890625,1.0157470703125,36.54999923706055,0.0,0.0,2.2993316650390625,-2.437835693359375,Closing,0.0,0.0,3.0,0.0,0.0,0.0,0.0,0.125,
13.607184000000009,0.0,0.0,87822.0,0.125,0.0,0.0,0.0,0.25,0.826415931,0.01,0.0,-154034.0,0.0,0.0,-0.0,0.0,0.0,0.507812448,0.01,0.0,16084.0,0.375,0.0,0.0,0.0,0.0,3.342284814,0.01,0.0,-28267.0,0.375,0.0,-0.0,0.0,0.125,1.638183426,0.01,-0.0012207029999999897,0.27000001072883606,-0.44999998807907104,-99.77999877929688,-0.00836181640625,0.0054931640625,1.02099609375,36.54999923706055,0.0,0.0,2.2993316650390625,-2.437835693359375,Closing,0.0,0.0,3.0,0.0,0.0,0.0,0.0,0.0,
13.706187999999994,0.0,0.0,87822.0,0.125,0.0,0.0,0.0,0.25,0.826415931,0.01,0.0,-154034.0,0.0,0.0,-0.0,0.0,0.0,0.507812448,0.01,0.0,16084.0,0.375,0.0,0.0,0.0,0.0,3.343505517,0.01,0.0,-28267.0,0.375,0.0,-0.0,0.0,0.125,1.6369627230000001,0.01,0.0,0.27000001072883606,-0.44999998807907104,-99.77999877929688,-0.00604248046875,0.00494384765625,1.021728515625,36.529998779296875,0.0,0.0,2.2993316650390625,-2.437835693359375,Closing,0.0,0.0,3.0,0.0,0.0,0.0,0.0,0.125,
13.793135999999999,0.0,0.0,87822.0,0.125,0.0,0.0,0.0,0.25,0.826415931,0.01,0.0,-154034.0,0.0,0.0,-0.0,0.0,0.125,0.507812448,0.01,-0.0012207030000004337,16084.0,0.375,0.0,0.0,0.0,0.0,3.343505517,0.01,0.0,-28267.0,0.375,0.0,-0.0,0.0,0.125,1.6369627230000001,0.01,0.0,0.27000001072883606,-0.4399999976158142,-99.77999877929688,-0.006103515625,0.0040283203125,1.015869140625,36.529998779296875,0.0,0.0,2.2993316650390625,-2.437835693359375,Closing,0.0,0.0,3.0,0.0,0.0,0.0,0.0,0.0,
13.887880000000004,0.0,0.0,87822.0,0.125,0.0,0.0,0.0,0.25,0.8276366340000001,0.01,0.0,-154034.0,0.0,0.0,-0.0,0.0,0.0,0.510253854,0.01,0.0012207030000004337,16084.0,0.375,0.0,0.0,0.0,0.0,3.343505517,0.01,0.0012207030000004337,-28267.0,0.375,0.0,-0.0,0.0,0.125,1.6369627230000001,0.01,0.0,0.27000001072883606,-0.4399999976158142,-99.77999877929688,-0.00897216796875,0.00567626953125,1.01312255859375,36.529998779296875,0.0,0.0,2.2993316650390625,-2.437835693359375,Closing,0.0,0.0,3.0,0.0,0.0,0.0,0.0,0.125,
13.975766999999992,0.0,0.0,87822.0,0.125,0.0,0.0,0.0,0.25,0.826415931,0.01,0.0,-154034.0,0.0,0.0,-0.0,0.0,0.125,0.507812448,0.01,0.0,16084.0,0.375,0.0,0.0,0.0,0.0,3.343505517,0.01,0.0,-28267.0,0.375,0.0,-0.0,0.0,0.125,1.6369627230000001,0.01,0.0,0.27000001072883606,-0.4399999976158142,-99.77999877929688,-0.00634765625,0.00714111328125,1.01336669921875,36.529998779296875,0.0,-2.0,2.2993316650390625,-2.437835693359375,Closing,0.0,0.0,3.0,0.0,0.0,0.0,0.0,0.0,
14.068553000000014,0.0,0.0,87822.0,0.125,0.0,0.0,0.0,0.25,0.8276366340000001,0.01,0.0,-154034.0,0.0,0.0,-0.0,0.0,0.0,0.509033151,0.01,0.0,16084.0,0.375,0.0,0.0,0.0,0.0,3.342284814,0.01,0.0,-28267.0,0.375,0.0,-0.0,0.0,0.125,1.6369627230000001,0.01,0.0,0.2800000011920929,-0.4300000071525574,-99.7699966430664,-0.00714111328125,0.0042724609375,1.0191650390625,36.529998779296875,0.0,0.0,2.2993316650390625,-2.437835693359375,Closing,0.0,0.0,3.0,0.0,0.0,0.0,0.0,0.125,
14.163701000000001,0.0,0.0,87822.0,0.125,0.0,0.0,0.0,0.25,0.822753822,0.01,0.0012207029999999897,-154034.0,0.0,0.0,-0.0,0.0,0.125,0.507812448,0.01,0.0,16084.0,0.375,0.0,0.0,0.0,0.0,3.354491844,0.01,0.0,-28267.0,0.375,0.0,-0.0,0.0,0.125,1.638183426,0.01,-0.0012207029999999897,0.2800000011920929,-0.4399999976158142,-99.77999877929688,-0.00958251953125,0.00518798828125,1.0225830078125,36.529998779296875,0.0,0.0,2.2993316650390625,-2.437835693359375,Closing,0.0,0.0,3.0,0.0,0.0,0.0,0.0,0.125,
14.252010999999998,0.0,0.0,87822.0,0.125,0.0,0.0,0.0,0.25,0.826415931,0.01,0.0,-154034.0,0.0,0.0,-0.0,0.0,0.125,0.509033151,0.01,0.0,16084.0,0.375,0.0,0.0,0.0,0.0,3.342284814,0.01,0.0,-28267.0,0.375,0.0,-0.0,0.0,0.125,1.638183426,0.01,0.0,0.2800000011920929,-0.4399999976158142,-99.77999877929688,-0.0113525390625,0.00445556640625,1.02386474609375,36.52000045776367,0.0,1.0,2.2993316650390625,-2.437835693359375,Closing,0.0,0.0,3.0,0.0,0.0,0.0,0.0,0.125,
14.349407000000006,0.0,0.0,87822.0,0.125,0.0,0.0,0.0,0.25,0.8276366340000001,0.01,0.0,-154034.0,0.0,0.0,-0.0,0.0,0.0,0.509033151,0.01,0.0,16084.0,0.375,0.0,0.0,0.0,0.0,3.343505517,0.01,0.0,-28267.0,0.375,0.0,-0.0,0.0,0.125,1.64794905,0.01,0.0,0.27000001072883606,-0.44999998807907104,-99.77999877929688,-0.00946044921875,0.00555419921875,1.01666259765625,36.52000045776367,0.0,0.0,2.2993316650390625,-2.437835693359375,Closing,0.0,0.0,3.0,0.0,0.0,0.0,0.0,0.0,
14.437540999999998,0.0,0.0,87822.0,0.125,0.0,0.0,0.0,0.25,0.826415931,0.01,0.0,-154034.0,0.0,0.0,-0.0,0.0,0.0,0.5029296360000001,0.01,0.0,16084.0,0.375,0.0,0.0,0.0,0.0,3.343505517,0.01,0.0,-28267.0,0.375,0.0,-0.0,0.0,0.125,1.6369627230000001,0.01,0.0,0.27000001072883606,-0.44999998807907104,-99.77999877929688,-0.00762939453125,0.0030517578125,1.01318359375,36.52000045776367,0.0,1.0,2.2993316650390625,-2.437835693359375,Closing,0.0,0.0,3.0,0.0,0.0,0.0,0.0,0.125,
14.526347000000008,0.0,0.0,87822.0,0.125,0.0,0.0,0.0,0.25,0.826415931,0.01,0.0,-154034.0,0.0,0.0,-0.0,0.0,0.0,0.507812448,0.01,0.0,16084.0,0.375,0.0,0.0,0.0,0.0,3.343505517,0.01,0.0,-28267.0,0.375,0.0,-0.0,0.0,0.125,1.6369627230000001,0.01,0.0,0.27000001072883606,-0.44999998807907104,-99.77999877929688,-0.0089111328125,0.005615234375,1.0166015625,36.52000045776367,0.0,0.0,2.2993316650390625,-2.437835693359375,Closing,0.0,0.0,3.0,0.0,0.0,0.0,0.0,0.125,
