Time,ClimberA1,ClimberA2,FRpos,FRCurrent,FRspeed,FRsetpoint,FRApos,FRACurrent,FREncpos,FREncSetpoint,FREncSpeed,FLpos,FLCurrent,FLspeed,FLsetpoint,FLApos,FLACurrent,FLEncpos,FLEncSetpoint,FLEncSpeed,BRpos,BRCurrent,BRspeed,BRsetpoint,BRApos,BRACurrent,BREncpos,BREncSetpoint,BREncSpeed,BLpos,BLCurrent,BLspeed,BLsetpoint,BLApos,BLACurrent,BLEncpos,BLEncSetpoint,BLEncSpeed,navx_Pitch,navx_Roll,navx_Yaw,navx_XAcc,navx_YAcc,navx_ZAcc,navx_Temp,navx_Bar,navx_Alt,navx_XDis,navx_YDis,GearPlacerState,ShootOutputV,ShootOutputCurrent,ShootEncPos,ShootEncVelocity,ShootSpeed,ShootSetpoint,CarouselSetpoint,CarouselCurrent,
0.1769530000000086,0.0,0.0,90213.0,0.0,0.0,0.0,0.0,0.125,0.8312987430000001,0.01,0.0,-99046.0,0.0,0.0,0.0,0.0,0.125,0.527343696,0.01,0.0,574.0,0.125,0.0,0.0,0.0,0.0,3.333739893,0.01,0.0,-7921.0,0.125,0.0,0.0,0.0,0.25,1.6052244450000002,0.01,0.0,0.009999999776482582,-0.8299999833106995,-33.2599983215332,-0.01220703125,9.1552734375E-4,1.0198974609375,36.20000076293945,0.0,1.0,0.2878570556640625,-1.156951904296875,Closing,0.0,0.0,3.0,0.0,0.0,0.0,0.0,0.0,
0.3515570000000007,0.0,0.0,90255.0,3.25,225.0,840.0,0.0,0.125,0.832519446,0.01,0.0,-99063.0,6.25,-120.0,-840.0,0.0,0.125,0.532226508,0.01,0.0,602.0,3.875,172.5,840.0,0.0,0.0,3.33251919,0.01,0.0,-7945.0,3.25,-195.0,-840.0,0.0,0.25,1.6638181890000001,0.01,0.0,0.05000000074505806,-0.10999999940395355,-33.2599983215332,0.1077880859375,0.015625,1.01654052734375,36.209999084472656,0.0,83.0,0.296783447265625,-1.14990234375,Closing,0.0,0.0,3.0,0.0,0.0,0.0,0.0,0.0,
0.5137030000000086,0.0,0.0,90307.0,5.25,367.5,840.0,0.0,0.125,0.8312987430000001,0.01,0.0,-99107.0,7.625,-352.5,-840.0,0.0,0.125,0.584716737,0.01,0.0,632.0,7.0,187.5,840.0,0.0,0.0,3.3227535660000003,0.01,0.0,-7981.0,5.375,-337.5,-840.0,0.0,0.25,1.668701001,0.01,0.0,0.12999999523162842,0.7699999809265137,-33.36000061035156,0.186767578125,0.01593017578125,1.15374755859375,36.209999084472656,0.0,135.0,0.3222808837890625,-1.12762451171875,Closing,0.0,0.0,3.0,0.0,0.0,0.0,0.0,0.0,
0.6667380000000122,0.0,0.0,90400.0,4.25,630.0,840.0000000000001,0.0,0.25,0.8312987430000001,4.930332858487119,0.0,-99187.0,6.5,-622.5,-840.0000000000001,0.0,0.25,0.6079100940000001,4.96183960081768,0.0,691.0,7.875,442.5,840.0000000000001,0.0,0.0,3.3227535660000003,4.938478689359029,0.0,-8048.0,5.0,-585.0,-840.0000000000001,0.0,0.25,1.6638181890000001,4.956071844757928,0.0,0.17000000178813934,1.440000057220459,-34.04999923706055,0.1220703125,0.0390625,0.98443603515625,36.209999084472656,0.0,60.0,0.353424072265625,-1.089935302734375,Closing,0.0,0.0,3.0,0.0,0.0,0.0,0.0,0.0,
0.8221230000000215,0.0,0.0,90526.0,2.375,877.5,839.9999999999999,0.0,0.25,0.836181555,4.921427436651082,0.0,-99434.0,4.375,-825.0,-839.9999999999999,0.0,0.25,0.522460884,4.95287726987648,0.0,789.0,5.375,832.5,839.9999999999999,0.0,0.0,3.3093258330000004,4.92955855410258,0.0,-8273.0,3.875,-765.0,-839.9999999999999,0.0,0.25,1.639404129,4.947119931835599,0.0,0.11999999731779099,1.7100000381469727,-34.790000915527344,-0.0311279296875,-0.0611572265625,1.0350341796875,36.18000030517578,0.0,-14.0,0.357208251953125,-1.0507049560546875,Closing,0.0,0.0,3.0,0.0,0.0,0.0,0.0,0.125,
0.9657700000000187,0.0,0.0,90829.0,1.125,960.0,840.0,0.0,0.25,0.845947179,4.911288897710472,0.0,-99582.0,2.75,-922.5,-840.0,0.0,0.25,0.5041503390000001,4.942673941733361,0.0,1056.0,6.0,795.0,840.0,0.0,0.0,3.3081051300000004,4.919403264401754,0.0,-8416.0,2.5,-907.5,-840.0,0.0,0.25,1.621093584,4.936928464274936,0.0,0.019999999552965164,1.659999966621399,-35.279998779296875,0.10406494140625,0.05084228515625,1.0391845703125,36.18000030517578,0.0,31.0,0.3639068603515625,-1.0124359130859375,Closing,0.0,0.0,3.0,0.0,0.0,0.0,0.0,0.0,
1.105002999999997,0.0,0.0,90990.0,0.5,1012.5,840.0,0.0,0.25,0.847167882,4.903753524691052,0.0,-99735.0,1.625,-960.0,-840.0,0.0,0.125,0.5017089330000001,4.935090414752961,0.0,1216.0,3.375,997.5,840.0,0.0,0.0,3.304443021,4.911855441538493,0.0,-8566.0,1.625,-937.5,-840.0,0.0,0.25,1.614990069,4.929353752560086,0.0,0.07000000029802322,1.4900000095367432,-35.91999816894531,-0.09844970703125,0.03204345703125,1.181396484375,36.18000030517578,0.0,-122.0,0.370513916015625,-0.970672607421875,Closing,0.0,0.0,3.0,0.0,0.0,0.0,0.0,0.0,
1.2459120000000112,0.0,0.0,91145.0,0.375,952.5,840.0,0.0,0.25,0.784912029,4.89580714747945,0.0,-99891.0,1.0,-960.0,-840.0,0.0,0.25,0.498046824,4.92709325710392,0.0,1379.0,2.5,1012.5,840.0,0.0,0.0,3.304443021,4.903895935427348,0.0,-8717.0,1.25,-945.0,-840.0,0.0,0.25,1.614990069,4.921365890990363,0.0,-0.05000000074505806,1.2400000095367432,-36.31999969482422,0.01837158203125,0.01324462890625,0.73779296875,36.18000030517578,0.0,-6.0,0.370941162109375,-0.9323883056640625,Closing,0.0,0.0,3.0,0.0,0.0,0.0,0.0,0.0,
1.3959410000000207,0.0,0.0,91291.0,0.5,900.0,840.0000000000001,0.0,0.125,0.783691326,4.890326847684956,0.0,-100194.0,0.75,-937.5,-840.0000000000001,0.0,0.25,0.49316401200000004,4.92157793606472,0.0,1538.0,2.25,952.5,840.0000000000001,0.0,0.0,3.303222318,4.8984065811538695,0.0,-9010.0,1.25,-892.5,-840.0000000000001,0.0,0.25,1.616210772,4.915856981086731,0.0,0.0,0.949999988079071,-36.38999938964844,-0.09466552734375,-0.082275390625,0.82159423828125,36.09000015258789,0.0,-38.0,0.3673095703125,-0.9000396728515625,Closing,0.0,0.0,3.0,0.0,0.0,0.0,0.0,0.0,
1.5503099999999976,0.0,0.0,91436.0,0.375,907.5,840.0,0.0,0.125,0.784912029,4.889367803060521,0.0,-100341.0,0.625,-915.0,-840.0,0.0,0.25,0.49316401200000004,4.92061276277256,0.0,1688.0,2.125,922.5,840.0,0.0,0.0,3.3093258330000004,4.897445952008566,0.0,-9160.0,1.0,-930.0,-840.0,0.0,0.25,1.625976396,4.914892929734124,0.0,0.05000000074505806,0.7099999785423279,-36.470001220703125,-0.05328369140625,0.03399658203125,0.98272705078125,36.09000015258789,0.0,-72.0,0.35919189453125,-0.8740997314453125,Closing,0.0,0.0,3.0,0.0,0.0,0.0,0.0,0.125,
1.6918770000000076,0.0,0.0,91719.0,0.375,870.0,840.0,0.0,0.25,0.784912029,4.887860718003835,0.0,-100483.0,0.625,-885.0,-840.0,0.0,0.25,0.49316401200000004,4.91909604685688,0.0,1980.0,2.125,892.5,840.0,0.0,0.0,3.3093258330000004,4.895936376965841,0.0,-9297.0,1.0,-847.5,-840.0,0.0,0.25,1.616210772,4.913377976883782,0.0,0.05000000074505806,0.4000000059604645,-36.619998931884766,-0.11083984375,0.0633544921875,0.8167724609375,36.09000015258789,0.0,-130.0,0.3441925048828125,-0.8446197509765625,Closing,0.0,0.0,3.0,0.0,0.0,0.0,0.0,0.0,
1.8484049999999987,0.0,0.0,91856.0,0.375,847.5,840.0,0.0,0.125,0.7910155440000001,4.886216648971091,0.0,-100621.0,0.875,-840.0,-840.0,0.0,0.25,0.49316401200000004,4.91744147158432,0.0,2116.0,2.375,847.5,840.0,0.0,0.0,3.3142086450000003,4.894289591623942,0.0,-9441.0,0.75,-877.5,-840.0,0.0,0.25,1.618652178,4.911725324927436,0.0,0.14000000059604645,0.20000000298023224,-36.7599983215332,-0.096435546875,0.0035400390625,0.9832763671875,36.0099983215332,0.0,-80.0,0.325408935546875,-0.8440399169921875,Closing,0.0,0.0,3.0,0.0,0.0,0.0,0.0,0.0,
2.006186000000016,0.0,0.0,91990.0,0.375,832.5,840.0,0.0,0.25,0.78124992,4.884161523482153,0.0,-100884.0,1.125,-810.0,-840.0,0.0,0.25,0.49438471500000003,4.91537321304512,0.0,2249.0,2.5,817.5,840.0,0.0,0.0,3.3093258330000004,4.892231070683797,0.0,-9710.0,1.25,-810.0,-840.0,0.0,0.25,1.614990069,4.909659470579359,0.0,0.12999999523162842,0.009999999776482582,-36.86000061035156,0.02459716796875,0.04107666015625,1.12322998046875,36.0099983215332,0.0,-3.0,0.3120269775390625,-0.843780517578125,Closing,0.0,0.0,3.0,0.0,0.0,0.0,0.0,0.0,
2.146180000000022,0.0,0.0,92125.0,0.5,840.0,840.0,0.0,0.25,0.784912029,4.882928458641593,0.0,-101013.0,1.25,-802.5,-840.0,0.0,0.25,0.49316401200000004,4.9141322684412,0.0,2381.0,2.625,817.5,840.0,0.0,0.0,3.299560209,4.890995968589783,0.0,-9833.0,1.625,-765.0,-840.0,0.0,0.25,1.616210772,4.908419968477885,0.0,0.20999999344348907,-0.029999999329447746,-37.13999938964844,0.11712646484375,0.05401611328125,0.9476318359375,36.0099983215332,0.0,63.0,0.3107147216796875,-0.842498779296875,Closing,0.0,0.0,3.0,0.0,0.0,0.0,0.0,0.0,
2.3022850000000035,0.0,0.0,92393.0,0.375,832.5,840.0,0.0,0.25,0.784912029,4.879092280143855,0.0,-101142.0,1.5,-795.0,-840.0,0.0,0.25,0.49316401200000004,4.91027157527256,0.0,2643.0,2.75,817.5,840.0,0.0,0.0,3.300780912,4.887153452008565,0.0,-9958.0,2.0,-787.5,-840.0,0.0,0.25,1.616210772,4.904563763067458,0.0,0.27000001072883606,-0.14000000059604645,-37.43000030517578,-0.01922607421875,-0.029541015625,1.25347900390625,36.0099983215332,0.0,8.0,0.308837890625,-0.84039306640625,Closing,0.0,0.0,3.0,0.0,0.0,0.0,0.0,0.0,
2.4429049999999988,0.0,0.0,92527.0,0.375,840.0,840.0,0.0,0.25,0.784912029,4.874708061213864,0.0,-101270.0,1.625,-810.0,-840.0,0.0,0.25,0.4882812,4.9058593394804,0.0,2777.0,2.75,832.5,840.0,0.0,0.0,3.298339506,4.882761989529928,0.0,-10084.0,2.25,-795.0,-840.0,0.0,0.25,1.614990069,4.900156656159295,0.0,0.25,-0.23000000417232513,-37.75,0.07159423828125,0.010009765625,1.003173828125,35.970001220703125,0.0,56.0,0.3057708740234375,-0.8389129638671875,Closing,0.0,0.0,3.0,0.0,0.0,0.0,0.0,0.0,
2.5959670000000044,0.0,0.0,92661.0,0.5,832.5,840.0,0.0,0.25,0.786132732,4.870734846476057,0.0,-101403.0,1.625,-832.5,-840.0,0.0,0.25,0.468749952,4.90186073435688,0.0,2913.0,2.75,847.5,840.0,0.0,0.0,3.303222318,4.878782210299174,0.0,-10213.0,2.0,-825.0,-840.0,0.0,0.25,1.5869139,4.8961626991060045,0.0,0.27000001072883606,-0.25,-37.900001525878906,0.01483154296875,0.0318603515625,1.08892822265625,35.970001220703125,0.0,0.0,0.30352783203125,-0.8390655517578125,Closing,0.0,0.0,3.0,0.0,0.0,0.0,0.0,0.0,
2.7466300000000046,0.0,0.0,92796.0,0.375,840.0,840.0,0.0,0.25,0.783691326,4.868542737011062,0.0,-101671.0,1.5,-840.0,-840.0,0.0,0.125,0.468749952,4.899654616460801,0.0,3051.0,2.75,847.5,840.0,0.0,0.0,3.298339506,4.876586479059855,0.0,-10481.0,2.0,-825.0,-840.0,0.0,0.25,1.5783689790000002,4.893959145651923,0.0,0.20000000298023224,-0.15000000596046448,-38.099998474121094,-0.05706787109375,7.32421875E-4,1.02545166015625,35.970001220703125,0.0,-40.0,0.3034515380859375,-0.8392333984375,Closing,0.0,0.0,3.0,0.0,0.0,0.0,0.0,0.0,
2.889296000000002,0.0,0.0,93065.0,0.5,840.0,840.0,0.0,0.25,0.782470623,4.865939623353884,0.0,-101809.0,1.25,-847.5,-840.0,0.0,0.25,0.46752924900000004,4.89703486789608,0.0,3323.0,2.625,855.0,840.0,0.0,0.125,3.298339506,4.873979064572652,0.0,-10615.0,1.875,-840.0,-840.0,0.0,0.25,1.5771482760000002,4.89134244234297,0.0,0.28999999165534973,-0.20000000298023224,-38.209999084472656,0.0579833984375,0.04718017578125,1.081298828125,35.93000030517578,0.0,22.0,0.3047027587890625,-0.838958740234375,Closing,0.0,0.0,3.0,0.0,0.0,0.0,0.0,0.125,
3.023654999999999,0.0,0.0,93171.0,0.125,600.0,0.0,0.0,0.25,0.784912029,0.01,0.0,-101913.0,0.125,-577.5,-0.0,0.0,0.25,0.483398388,0.01,0.0,3418.0,0.125,510.0,0.0,0.0,0.0,3.3618160620000004,0.01,0.0,-10731.0,0.25,-585.0,-0.0,0.0,0.25,1.616210772,0.01,0.0,0.20999999344348907,-1.1799999475479126,-38.290000915527344,-0.30322265625,0.17047119140625,1.47491455078125,35.93000030517578,0.0,-316.0,0.2971954345703125,-0.8414306640625,Closing,0.0,0.0,3.0,0.0,0.0,0.0,0.0,0.0,
3.1890519999999962,0.0,0.0,93251.0,0.75,450.0,0.0,0.0,0.25,0.794677653,0.01,0.0,-102014.0,0.625,-465.0,-0.0,0.0,0.25,0.4882812,0.01,0.0,3477.0,0.125,405.0,0.0,0.0,0.0,3.3776852010000002,0.01,0.0,-10830.0,0.25,-450.0,-0.0,0.0,0.125,1.639404129,0.01,0.0,0.33000001311302185,-2.1600000858306885,-38.11000061035156,-0.2178955078125,-4.2724609375E-4,1.14447021484375,35.93000030517578,0.0,-132.0,0.2657928466796875,-0.8592071533203125,Closing,0.0,0.0,3.0,0.0,0.0,0.0,0.0,0.0,
3.330942999999999,0.0,0.0,93294.0,0.375,165.0,0.0,0.0,0.125,0.799560465,0.01,0.0,-102093.0,0.5,-172.5,-0.0,0.0,0.25,0.48706049700000004,0.01,0.0,3522.0,0.25,112.5,0.0,0.0,0.125,3.3776852010000002,0.01,0.0,-10916.0,0.25,-187.5,-0.0,0.0,0.125,1.639404129,0.01,0.0,0.28999999165534973,-2.8399999141693115,-37.9900016784668,-0.16058349609375,-0.0045166015625,0.9237060546875,35.93000030517578,0.0,-84.0,0.22406005859375,-0.885833740234375,Closing,0.0,0.0,3.0,0.0,0.0,0.0,0.0,0.0,
3.489963000000018,0.0,0.0,93301.0,0.125,-7.5,0.0,0.0,0.125,0.8032225740000001,0.01,0.0,-102093.0,0.0,0.0,-0.0,0.0,0.25,0.4882812,0.01,0.0,3526.0,0.375,0.0,0.0,0.0,0.125,3.3776852010000002,0.01,0.0,-10917.0,0.125,0.0,-0.0,0.0,0.125,1.639404129,0.01,0.0,0.2800000011920929,-2.859999895095825,-37.9900016784668,0.00634765625,-0.0020751953125,1.020263671875,35.95000076293945,0.0,49.0,0.208770751953125,-0.9028472900390625,Closing,0.0,0.0,3.0,0.0,0.0,0.0,0.0,0.125,
3.6353490000000166,0.0,0.0,93298.0,0.125,-15.0,0.0,0.0,0.125,0.8435057730000001,0.01,0.0,-102093.0,0.0,0.0,-0.0,0.0,0.25,0.483398388,0.01,0.0,3526.0,0.375,0.0,0.0,0.0,0.125,3.3764644980000003,0.01,0.0,-10917.0,0.125,0.0,-0.0,0.0,0.125,1.640624832,0.01,0.0,0.28999999165534973,-2.450000047683716,-38.02000045776367,0.0103759765625,0.00750732421875,1.0433349609375,35.95000076293945,0.0,42.0,0.21539306640625,-0.8980712890625,Closing,0.0,0.0,3.0,0.0,0.0,0.0,0.0,0.0,
3.776182000000001,0.0,0.0,93301.0,0.375,37.5,420.0,0.0,1.0,1.275634635,0.5498168668524888,0.0,-102094.0,0.25,-127.5,-420.0,0.0,1.25,1.170654177,1.9285545897722227,0.0,3528.0,2.375,67.5,420.0,0.0,0.75,2.911376655,4.389674732977289,0.0,-10917.0,1.25,-22.5,-420.0,0.0,1.875,0.7910155440000001,3.0316872062785585,0.0,0.27000001072883606,-2.069999933242798,-38.08000183105469,0.0552978515625,0.03143310546875,0.99578857421875,35.95000076293945,0.0,55.0,0.226898193359375,-0.8899078369140625,Closing,0.0,0.0,3.0,0.0,0.0,0.0,0.0,0.0,
3.925104000000021,0.0,0.0,93323.0,0.5,157.5,420.0,0.0,0.25,1.4245604010000001,0.5498168668524888,0.0,-102140.0,1.125,-112.5,-420.0,0.0,1.25,2.572021221,1.9285545897722227,0.0,3563.0,3.75,105.0,420.0,0.0,0.125,2.667236055,4.389674732977289,0.0,-10923.0,2.625,-30.0,-420.0,0.0,2.125,4.422606969,3.0316872062785585,0.0,0.25999999046325684,-2.0,-39.13999938964844,-0.08831787109375,-0.05084228515625,1.06658935546875,35.959999084472656,0.0,-4.0,0.248626708984375,-0.8718414306640625,Closing,0.0,0.0,3.0,0.0,0.0,0.0,0.0,0.0,
4.099494000000006,0.0,0.0,93370.0,1.25,150.0,420.0,0.0,0.25,1.4013670440000001,0.5498168668524888,0.0,-102178.0,1.625,-255.0,-420.0,0.0,1.125,3.0993649170000004,1.9285545897722227,0.0,3583.0,5.125,105.0,420.0,0.0,0.25,2.6367184800000003,4.389674732977289,0.0,-10949.0,2.75,-202.5,-420.0,0.0,1.5,4.049071851,3.0316872062785585,0.0,0.46000000834465027,-2.119999885559082,-41.7599983215332,0.06591796875,-0.062744140625,1.11383056640625,35.959999084472656,0.0,127.0,0.26141357421875,-0.8612518310546875,Closing,0.0,0.0,3.0,0.0,0.0,0.0,0.0,0.125,
4.237937000000005,0.0,0.0,93374.0,3.25,7.5,420.0,0.0,0.25,1.358642439,0.5498168668524888,0.0,-102193.0,5.25,-15.0,-420.0,0.0,1.75,2.550048567,1.9285545897722227,0.0,3585.0,8.5,0.0,420.0,0.0,0.25,2.756347374,4.389674732977289,0.0,-10970.0,5.125,-90.0,-420.0,0.0,1.0,4.7607417000000005,3.0316872062785585,0.0,0.36000001430511475,-1.8600000143051147,-42.209999084472656,-0.14849853515625,-0.0242919921875,0.97357177734375,35.959999084472656,0.0,-66.0,0.2815704345703125,-0.8432159423828125,Closing,0.0,0.0,3.0,0.0,0.0,0.0,0.0,0.125,
4.404650000000023,0.0,0.0,93388.0,3.75,180.0,420.0,0.0,0.125,1.3464354090000001,0.5498168668524888,0.0,-102205.0,5.0,-277.5,-420.0,0.0,0.25,2.187499776,1.9285545897722227,0.0,3599.0,9.125,195.0,420.0,0.0,0.0,2.7990719790000003,4.389674732977289,0.0,-11047.0,4.375,-330.0,-420.0,0.0,0.25,0.06958007100000001,3.0316872062785585,0.0,0.4099999964237213,-1.059999942779541,-45.619998931884766,0.26361083984375,0.1055908203125,1.02215576171875,36.0,0.0,127.0,0.288970947265625,-0.8287811279296875,Closing,0.0,0.0,3.0,0.0,0.0,0.0,0.0,0.0,
4.5565329999999955,0.0,0.0,93452.0,1.25,540.0,420.0,0.0,0.25,1.350097518,0.5498168668524888,0.0,-102308.0,4.5,-322.5,-420.0,0.0,0.75,2.211913836,1.9285545897722227,0.0,3649.0,6.375,405.0,420.0,0.0,0.0,2.7990719790000003,4.389674732977289,0.0,-11105.0,4.75,-345.0,-420.0,0.0,0.5,4.747313967,3.0316872062785585,0.0,0.5299999713897705,-0.7900000214576721,-52.529998779296875,-0.00299072265625,-0.041259765625,1.076416015625,36.0,0.0,47.0,0.305084228515625,-0.803558349609375,Closing,0.0,0.0,3.0,0.0,0.0,0.0,0.0,0.0,
4.693152000000002,0.0,0.0,93655.0,0.375,660.0,420.0,0.0,0.25,1.3488768150000001,0.5498168668524888,0.0,-102397.0,1.875,-577.5,-420.0,0.0,0.5,2.4353024850000002,1.9285545897722227,0.0,3830.0,4.125,652.5,420.0,0.0,0.0,2.7990719790000003,4.389674732977289,0.0,-11183.0,3.0,-517.5,-420.0,0.0,0.25,4.486083525000001,3.0316872062785585,0.0,0.8799999952316284,-0.9900000095367432,-62.16999816894531,-0.04229736328125,0.0958251953125,0.99676513671875,36.0,0.0,-82.0,0.315826416015625,-0.795074462890625,Closing,0.0,0.0,3.0,0.0,0.0,0.0,0.0,0.0,
4.829650000000023,0.0,0.0,93745.0,0.375,555.0,420.0,0.0,0.125,1.357421736,0.5498168668524888,0.0,-102504.0,0.25,-667.5,-420.0,0.0,0.125,2.523193101,1.9285545897722227,0.0,3934.0,3.0,622.5,420.0,0.0,0.0,2.7978512760000003,4.389674732977289,0.0,-11283.0,1.0,-645.0,-420.0,0.0,0.375,4.576415547,3.0316872062785585,0.0,0.7799999713897705,-1.100000023841858,-71.95999908447266,0.00762939453125,0.00311279296875,1.07537841796875,36.0,0.0,19.0,0.321990966796875,-0.802642822265625,Closing,0.0,0.0,3.0,0.0,0.0,0.0,0.0,0.0,
4.9758800000000045,0.0,0.0,93828.0,0.375,495.0,420.0,0.0,0.25,1.3488768150000001,0.5498168668524888,0.0,-102602.0,0.375,-532.5,-420.0,0.0,0.25,2.518310289,1.9285545897722227,0.0,4015.0,3.375,502.5,420.0,0.0,0.0,2.7990719790000003,4.389674732977289,0.0,-11386.0,0.75,-592.5,-420.0,0.0,0.25,4.674071787,3.0316872062785585,0.0,0.6499999761581421,-0.6600000262260437,-80.19999694824219,0.03021240234375,0.002197265625,0.83331298828125,36.02000045776367,0.0,14.0,0.3245086669921875,-0.8105316162109375,Closing,0.0,0.0,3.0,0.0,0.0,0.0,0.0,0.0,
5.126086000000011,0.0,0.0,93905.0,0.375,465.0,420.0,0.0,0.125,1.356201033,0.5498168668524888,0.0,-102757.0,0.5,-457.5,-420.0,0.0,0.25,2.508544665,1.9285545897722227,0.0,4098.0,2.875,502.5,420.0,0.0,0.0,2.7990719790000003,4.389674732977289,0.0,-11559.0,1.0,-525.0,-420.0,0.0,0.25,4.703368659000001,3.0316872062785585,0.0,0.5699999928474426,-0.5199999809265137,-86.98999786376953,-0.0184326171875,0.041259765625,0.93890380859375,36.02000045776367,0.0,-32.0,0.3291473388671875,-0.8117828369140625,Closing,0.0,0.0,3.0,0.0,0.0,0.0,0.0,0.0,
5.294485000000015,0.0,0.0,94042.0,0.125,405.0,0.0,0.0,1.875,1.142578008,0.01,0.0,-102804.0,0.0,-270.0,-0.0,0.0,9.5,2.072753694,0.01,0.0,4242.0,0.5,405.0,0.0,0.0,2.25,3.0566403120000003,0.01,0.0,-11624.0,0.375,-315.0,-0.0,0.0,6.25,0.294189423,0.01,0.0,0.6600000262260437,-0.38999998569488525,-93.83000183105469,0.1033935546875,0.0740966796875,1.10101318359375,36.02000045776367,0.0,-68.0,0.32781982421875,-0.81085205078125,Closing,0.0,0.0,3.0,0.0,0.0,0.0,0.0,0.0,
5.427089999999996,0.0,0.0,94078.0,0.125,187.5,0.0,0.0,0.5,0.747070236,0.01,0.0,-102839.0,0.0,-150.0,-0.0,0.0,1.75,0.9204100620000001,0.01,0.0,4277.0,0.75,195.0,0.0,0.0,0.25,3.4729000350000003,0.01,0.0,-11660.0,0.375,-142.5,-0.0,0.0,1.875,1.408691262,0.01,0.0,0.6499999761581421,-0.28999999165534973,-96.30000305175781,-0.06988525390625,-0.0714111328125,0.99188232421875,36.0099983215332,0.0,89.0,0.3256378173828125,-0.8051910400390625,Closing,0.0,0.0,3.0,0.0,0.0,0.0,0.0,0.0,
5.578752999999997,0.0,0.0,94089.0,0.0,22.5,0.0,0.0,0.25,0.745849533,0.01,0.0,-102840.0,0.125,-45.0,-0.0,0.0,0.5,0.300292938,0.01,0.0,4282.0,1.25,15.0,0.0,0.0,0.125,3.438720351,0.01,0.0,-11697.0,0.375,-97.5,-0.0,0.0,0.625,1.7944334100000001,0.01,0.0,0.550000011920929,-0.46000000834465027,-96.37000274658203,0.01922607421875,-0.00311279296875,0.97955322265625,36.0099983215332,0.0,9.0,0.32623291015625,-0.8052978515625,Closing,0.0,0.0,3.0,0.0,0.0,0.0,0.0,0.125,
5.766618000000017,0.0,0.0,94094.0,0.0,22.5,8.399999999999999,0.0,0.25,0.8032225740000001,4.932113963759931,0.0,-102850.0,0.125,-15.0,-8.399999999999999,0.0,0.25,0.249023412,4.96363208804512,0.0,4290.0,1.125,30.0,8.399999999999999,0.0,0.125,3.358153953,4.940262737350464,0.0,-11702.0,0.375,-45.0,-8.399999999999999,0.0,0.25,1.697997873,4.957862248357137,0.0,0.5400000214576721,-0.38999998569488525,-96.16000366210938,-0.00927734375,-0.0166015625,0.99188232421875,36.0099983215332,0.0,26.0,0.326446533203125,-0.8046417236328125,Closing,0.0,0.0,3.0,0.0,0.0,0.0,0.0,0.125,
5.919187999999995,0.0,0.0,94099.0,0.125,22.5,0.0,0.0,0.125,0.8178710100000001,0.01,0.0,-102853.0,0.125,-22.5,-0.0,0.0,0.5,0.522460884,0.01,0.0,4297.0,1.25,37.5,0.0,0.0,0.0,3.343505517,0.01,0.0,-11705.0,0.375,0.0,-0.0,0.0,0.25,1.645507644,0.01,0.0,0.5199999809265137,-0.4699999988079071,-96.08999633789062,-0.02557373046875,0.01837158203125,1.02679443359375,36.06999969482422,0.0,-7.0,0.326690673828125,-0.804443359375,Closing,0.0,0.0,3.0,0.0,0.0,0.0,0.0,0.0,
6.157399000000005,0.0,0.0,94118.0,0.375,120.0,420.0,0.0,0.125,0.820312416,0.01,0.0,-102875.0,2.0,-172.5,-420.0,0.0,0.25,0.7116698490000001,0.01,0.0,4304.0,4.75,37.5,420.0,0.0,0.0,3.3142086450000003,0.01,0.0,-11709.0,1.875,-120.0,-420.0,0.0,0.125,1.6284178020000002,0.01,0.0,0.5099999904632568,-0.28999999165534973,-96.11000061035156,-0.00927734375,0.01165771484375,1.06707763671875,36.06999969482422,0.0,-1.0,0.3269805908203125,-0.8022003173828125,Closing,0.0,0.0,3.0,0.0,0.0,0.0,0.0,0.0,
6.3578820000000125,0.0,0.0,94185.0,0.75,217.5,421.2291827664158,0.0,0.25,0.794677653,4.872267062553982,0.0,-102918.0,3.25,-187.5,-421.2291827664158,0.0,0.25,0.47363276400000004,4.903402741890788,0.0,4363.0,5.625,232.5,421.2291827664158,0.0,0.125,3.3093258330000004,4.880316957884279,0.0,-11754.0,2.625,-202.5,-421.2291827664158,0.0,0.25,1.6015623360000002,4.897702914175017,0.0,0.44999998807907104,0.36000001430511475,-96.58000183105469,0.0643310546875,-0.00433349609375,0.98095703125,36.06999969482422,0.0,5.0,0.3269195556640625,-0.7809600830078125,Closing,0.0,0.0,3.0,0.0,0.0,0.0,0.0,0.0,
6.558085000000021,0.0,0.0,94240.0,0.5,367.5,421.2291827664158,0.0,0.25,0.7629393750000001,4.872267062553982,0.0,-103030.0,2.625,-382.5,-421.2291827664158,0.0,0.25,0.275878878,4.903402741890788,0.0,4417.0,4.75,360.0,421.2291827664158,0.0,0.125,3.3105465360000004,4.880316957884279,0.0,-11862.0,2.125,-405.0,-421.2291827664158,0.0,0.25,1.567382652,4.897702914175017,0.0,0.23000000417232513,0.6600000262260437,-96.48999786376953,0.0501708984375,0.059326171875,1.0460205078125,36.060001373291016,0.0,-59.0,0.3289031982421875,-0.7520599365234375,Closing,0.0,0.0,3.0,0.0,0.0,0.0,0.0,0.125,
6.757270000000019,0.0,0.0,94371.0,0.375,427.5,422.40583311735,0.0,0.25,0.75683586,4.848429690877773,0.0,-103102.0,1.875,-435.0,-422.40583311735,0.0,0.25,0.285644502,4.8794130401490845,0.0,4525.0,5.0,307.5,422.40583311735,0.0,0.125,3.2958981,4.856440202417223,0.0,-11934.0,1.375,-457.5,-422.40583311735,0.0,0.25,1.567382652,4.873741098612378,0.0,0.28999999165534973,0.6000000238418579,-96.12999725341797,-0.02789306640625,0.007568359375,1.07220458984375,36.060001373291016,0.0,2.0,0.330413818359375,-0.73699951171875,Closing,0.0,0.0,3.0,0.0,0.0,0.0,0.0,0.0,
6.948488000000012,0.0,0.0,94511.0,0.375,465.0,423.139578035428,0.0,0.25,0.740966721,4.836566187440436,0.0,-103254.0,1.0,-502.5,-423.139578035428,0.0,0.25,0.484619091,4.867473724315979,0.0,4643.0,5.5,450.0,423.139578035428,0.0,0.125,3.2714840400000003,4.844557098256096,0.0,-12079.0,1.25,-457.5,-423.139578035428,0.0,0.25,1.5539549190000002,4.861815661313603,0.0,0.33000001311302185,0.5899999737739563,-95.95999908447266,0.02978515625,0.02813720703125,0.9798583984375,36.04999923706055,0.0,-24.0,0.3303070068359375,-0.7379150390625,Closing,0.0,0.0,3.0,0.0,0.0,0.0,0.0,0.125,
7.152045000000013,0.0,0.0,94584.0,0.125,472.5,422.40583311735,0.0,0.125,0.728759691,4.848429690877773,0.0,-103417.0,0.5,-502.5,-422.40583311735,0.0,0.25,0.53710932,4.8794130401490845,0.0,4727.0,3.875,532.5,422.40583311735,0.0,0.0,3.2653805250000003,4.856440202417223,0.0,-12235.0,0.75,-487.5,-422.40583311735,0.0,0.125,1.542968592,4.873741098612378,0.0,0.36000001430511475,0.5,-96.55000305175781,-0.07012939453125,-0.01104736328125,0.84527587890625,36.04999923706055,0.0,25.0,0.32916259765625,-0.738067626953125,Closing,0.0,0.0,3.0,0.0,0.0,0.0,0.0,0.125,
7.3588160000000205,0.0,0.0,94752.0,0.5,510.0,420.7870906111546,0.0,0.25,0.731201097,4.884230223231326,0.0,-103495.0,0.375,-472.5,-420.7870906111546,0.0,0.25,0.47363276400000004,4.91544235181238,0.0,4899.0,3.125,540.0,420.7870906111546,0.0,0.0,3.2666012280000003,4.89229988393779,0.0,-12312.0,0.625,-502.5,-420.7870906111546,0.0,0.25,1.544189295,4.909728528978131,0.0,0.20000000298023224,0.30000001192092896,-97.19999694824219,-0.0465087890625,0.01593017578125,0.9981689453125,36.04999923706055,0.0,-5.0,0.3297271728515625,-0.74176025390625,Closing,0.0,0.0,3.0,0.0,0.0,0.0,0.0,0.0,
7.555337,0.0,0.0,94903.0,0.375,457.5,421.768888321851,0.0,0.125,0.731201097,4.860331751986741,0.0,-103645.0,0.375,-457.5,-421.768888321851,0.0,0.125,0.416259723,4.891391160052322,0.0,5057.0,3.0,480.0,421.768888321851,0.0,0.0,3.2702633370000003,4.8683619279544565,0.0,-12461.0,0.625,-412.5,-421.768888321851,0.0,0.125,1.542968592,4.885705294874543,0.0,0.18000000715255737,0.07000000029802322,-97.37000274658203,-0.01739501953125,-0.0301513671875,1.0902099609375,36.040000915527344,0.0,35.0,0.3301849365234375,-0.7451629638671875,Closing,0.0,0.0,3.0,0.0,0.0,0.0,0.0,0.0,
7.758643000000011,0.0,0.0,94974.0,0.375,442.5,424.8953961344487,0.0,0.25,0.7360839090000001,4.812975549907741,0.0,-103718.0,0.25,-442.5,-424.8953961344487,0.0,0.25,0.417480426,4.84373233344482,0.0,5131.0,3.0,457.5,424.8953961344487,0.0,0.125,3.2702633370000003,4.82092748458345,0.0,-12535.0,0.625,-450.0,-424.8953961344487,0.0,0.25,1.544189295,4.838101867979261,0.0,0.12999999523162842,0.0,-97.33999633789062,0.0386962890625,0.08209228515625,0.9595947265625,36.040000915527344,0.0,-84.0,0.33074951171875,-0.74603271484375,Closing,0.0,0.0,3.0,0.0,0.0,0.0,0.0,0.0,
7.950519,0.0,0.0,95111.0,0.125,420.0,430.9364451129221,0.0,0.375,0.676269462,4.755022096236761,0.0,-103856.0,0.375,-420.0,-430.9364451129221,0.0,0.25,0.339355434,4.785408534690783,0.0,5274.0,3.0,435.0,430.9364451129221,0.0,0.125,3.2177731080000003,4.762878280981259,0.0,-12679.0,0.75,-375.0,-430.9364451129221,0.0,0.25,1.4758299270000002,4.77984586614547,0.0,0.18000000715255737,-0.1899999976158142,-97.37000274658203,-0.0267333984375,-0.043212890625,1.01171875,36.02000045776367,0.0,49.0,0.3303680419921875,-0.7500762939453125,Closing,0.0,0.0,3.0,0.0,0.0,0.0,0.0,0.0,
8.154355000000011,0.0,0.0,95177.0,0.125,412.5,429.54249080416946,0.0,0.125,0.627441342,4.766477385014434,0.0,-103989.0,0.5,-405.0,-429.54249080416946,0.0,0.125,0.300292938,4.796937027213962,0.0,5411.0,3.125,427.5,429.54249080416946,0.0,0.125,3.129882492,4.774352496035848,0.0,-12812.0,0.625,-412.5,-429.54249080416946,0.0,0.125,1.40380845,4.7913609576847485,0.0,0.03999999910593033,-0.2199999988079071,-97.31999969482422,-0.00799560546875,0.00531005859375,0.9493408203125,36.02000045776367,0.0,-3.0,0.3311309814453125,-0.75103759765625,Closing,0.0,0.0,3.0,0.0,0.0,0.0,0.0,0.0,
8.359008000000001,0.0,0.0,95313.0,0.125,420.0,432.4215651421655,0.0,0.25,0.615234312,4.743643082438357,0.0,-104119.0,0.625,-405.0,-432.4215651421655,0.0,0.125,0.31005856200000004,4.77395680457362,0.0,5483.0,2.75,435.0,432.4215651421655,0.0,0.0,3.129882492,4.751480466926451,0.0,-12942.0,0.75,-397.5,-432.4215651421655,0.0,0.25,1.40380845,4.768407447781828,0.0,0.07999999821186066,-0.23999999463558197,-97.6500015258789,-0.0242919921875,-0.00189208984375,1.00457763671875,36.02000045776367,0.0,6.0,0.3327484130859375,-0.75091552734375,Closing,0.0,0.0,3.0,0.0,0.0,0.0,0.0,0.0,
8.548981,0.0,0.0,95446.0,0.125,412.5,430.9364451129221,0.0,0.125,0.6213378270000001,4.755022096236761,0.0,-104184.0,0.75,-405.0,-430.9364451129221,0.0,0.125,0.31005856200000004,4.785408534690783,0.0,5622.0,2.875,435.0,430.9364451129221,0.0,0.0,3.128661789,4.762878280981259,0.0,-13006.0,1.0,-390.0,-430.9364451129221,0.0,0.25,1.405029153,4.77984586614547,0.0,0.10999999940395355,-0.25,-97.93000030517578,-0.04119873046875,0.00897216796875,1.0421142578125,36.040000915527344,0.0,-1.0,0.33258056640625,-0.7509307861328125,Closing,0.0,0.0,3.0,0.0,0.0,0.0,0.0,0.0,
8.748233999999997,0.0,0.0,95514.0,0.125,427.5,430.9364451129221,0.0,0.125,0.62255853,4.755022096236761,0.0,-104316.0,0.75,-412.5,-430.9364451129221,0.0,0.125,0.31005856200000004,4.785408534690783,0.0,5764.0,2.875,435.0,430.9364451129221,0.0,0.0,3.144530928,4.762878280981259,0.0,-13141.0,0.75,-427.5,-430.9364451129221,0.0,0.25,1.4270018070000001,4.77984586614547,0.0,0.10999999940395355,-0.23999999463558197,-98.23999786376953,-0.02032470703125,0.04132080078125,1.00848388671875,36.040000915527344,0.0,-36.0,0.332489013671875,-0.75140380859375,Closing,0.0,0.0,3.0,0.0,0.0,0.0,0.0,0.0,
8.948008000000002,0.0,0.0,95653.0,0.125,427.5,430.9364451129221,0.0,0.125,0.599365173,4.755022096236761,0.0,-104455.0,0.75,-435.0,-430.9364451129221,0.0,0.125,0.31005856200000004,4.785408534690783,0.0,5835.0,2.625,450.0,430.9364451129221,0.0,0.0,3.143310225,4.762878280981259,0.0,-13278.0,0.75,-412.5,-430.9364451129221,0.0,0.125,1.4282225100000001,4.77984586614547,0.0,0.07000000029802322,-0.23999999463558197,-98.4000015258789,0.00115966796875,-0.0325927734375,0.974365234375,36.02000045776367,0.0,32.0,0.3323516845703125,-0.7512969970703125,Closing,0.0,0.0,3.0,0.0,0.0,0.0,0.0,0.0,
9.157964000000007,0.0,0.0,95794.0,0.125,427.5,429.54249080416946,0.0,0.125,0.62255853,4.766477385014434,0.0,-104525.0,0.625,-450.0,-429.54249080416946,0.0,0.25,0.31005856200000004,4.796937027213962,0.0,5979.0,2.375,450.0,429.54249080416946,0.0,0.0,3.1591793640000003,4.774352496035848,0.0,-13349.0,0.75,-450.0,-429.54249080416946,0.0,0.25,1.4270018070000001,4.7913609576847485,0.0,0.1899999976158142,-0.4000000059604645,-98.44999694824219,-0.07769775390625,0.00225830078125,0.9517822265625,36.02000045776367,0.0,11.0,0.3331451416015625,-0.750762939453125,Closing,0.0,0.0,3.0,0.0,0.0,0.0,0.0,0.0,
9.358603000000002,0.0,0.0,95866.0,0.125,427.5,428.24059247000696,0.0,0.25,0.631103451,4.778004792092225,0.0,-104665.0,0.75,-420.0,-428.24059247000696,0.0,0.25,0.319824186,4.808538098901216,0.0,6122.0,2.5,427.5,428.24059247000696,0.0,0.0,3.1665035820000003,4.785898948543459,0.0,-13488.0,1.0,-412.5,-428.24059247000696,0.0,0.25,1.431884619,4.802948544020418,0.0,0.10000000149011612,-0.49000000953674316,-98.5999984741211,-0.0037841796875,0.0174560546875,1.02423095703125,36.02000045776367,0.0,-16.0,0.3341217041015625,-0.75201416015625,Closing,0.0,0.0,3.0,0.0,0.0,0.0,0.0,0.125,
9.54956700000001,0.0,0.0,95997.0,0.125,412.5,427.0315920690178,0.0,0.125,0.650634699,4.789599983969735,0.0,-104730.0,0.875,-405.0,-427.0315920690178,0.0,0.25,0.339355434,4.820207388559393,0.0,6191.0,2.625,427.5,427.0315920690178,0.0,0.0,3.1689449880000002,4.797513297843942,0.0,-13618.0,1.0,-397.5,-427.0315920690178,0.0,0.25,1.461181491,4.814604269028877,0.0,0.15000000596046448,-0.41999998688697815,-98.80000305175781,0.01751708984375,-0.016357421875,1.04010009765625,36.0099983215332,0.0,15.0,0.3341217041015625,-0.7517547607421875,Closing,0.0,0.0,3.0,0.0,0.0,0.0,0.0,0.0,
9.750358999999996,0.0,0.0,96132.0,0.125,420.0,424.8953961344487,0.0,0.25,0.6604003230000001,4.812975549907741,0.0,-104862.0,0.75,-412.5,-424.8953961344487,0.0,0.25,0.373535118,4.84373233344482,0.0,6328.0,2.5,427.5,424.8953961344487,0.0,0.125,3.188476236,4.82092748458345,0.0,-13683.0,1.0,-420.0,-424.8953961344487,0.0,0.25,1.4807127390000001,4.838101867979261,0.0,0.23000000417232513,-0.41999998688697815,-98.88999938964844,-0.002685546875,0.00335693359375,1.0565185546875,36.0099983215332,0.0,0.0,0.3329315185546875,-0.7494354248046875,Closing,0.0,0.0,3.0,0.0,0.0,0.0,0.0,0.125,
9.95897900000002,0.0,0.0,96267.0,0.125,420.0,422.40583311735,0.0,0.25,0.679931571,4.848429690877773,0.0,-104999.0,0.75,-427.5,-422.40583311735,0.0,0.25,0.405273396,4.8794130401490845,0.0,6468.0,2.25,435.0,422.40583311735,0.0,0.125,3.2214352170000002,4.856440202417223,0.0,-13820.0,0.75,-427.5,-422.40583311735,0.0,0.25,1.5002439870000002,4.873741098612378,0.0,0.23000000417232513,-0.4399999976158142,-98.91999816894531,0.00970458984375,0.0164794921875,1.00408935546875,36.0099983215332,0.0,-14.0,0.3312530517578125,-0.7494354248046875,Closing,0.0,0.0,3.0,0.0,0.0,0.0,0.0,0.125,
10.15524000000002,0.0,0.0,96334.0,0.125,412.5,421.768888321851,0.0,0.25,0.717773364,4.860331751986741,0.0,-105068.0,0.625,-427.5,-421.768888321851,0.0,0.125,0.416259723,4.891391160052322,0.0,6536.0,2.25,420.0,421.768888321851,0.0,0.0,3.251952792,4.8683619279544565,0.0,-13959.0,0.75,-435.0,-421.768888321851,0.0,0.25,1.533202968,4.885705294874543,0.0,0.1899999976158142,-0.5,-98.79000091552734,-0.0062255859375,-0.01141357421875,1.03125,36.0,0.0,14.0,0.33056640625,-0.74951171875,Closing,0.0,0.0,3.0,0.0,0.0,0.0,0.0,0.125,
10.343168000000006,0.0,0.0,96461.0,0.125,397.5,0.0,0.0,0.375,0.7751464050000001,0.01,0.0,-105185.0,0.0,-232.5,-0.0,0.0,0.25,0.445556595,0.01,0.0,6664.0,0.375,367.5,0.0,0.0,0.125,3.3190914570000003,0.01,0.0,-14022.0,0.375,-307.5,-0.0,0.0,0.25,1.5576170280000001,0.01,0.0,0.30000001192092896,-0.6499999761581421,-98.9000015258789,-0.14056396484375,0.04052734375,0.98968505859375,36.0,0.0,-14.0,0.3313140869140625,-0.75140380859375,Closing,0.0,0.0,3.0,0.0,0.0,0.0,0.0,0.0,
10.475066000000021,0.0,0.0,96512.0,0.125,330.0,420.0,0.0,0.125,0.8178710100000001,4.930332910751131,0.0,-105243.0,0.25,-420.0,-420.0,0.0,0.25,0.5029296360000001,4.96183965341568,0.0,6725.0,1.875,390.0,420.0,0.0,0.0,3.348388329,4.938478741709392,0.0,-14063.0,0.625,-420.0,-420.0,0.0,0.25,1.614990069,4.956071897294787,0.0,0.41999998688697815,-0.8500000238418579,-98.81999969482422,0.03875732421875,0.01434326171875,1.083984375,36.0,0.0,-14.0,0.3320770263671875,-0.755279541015625,Closing,0.0,0.0,3.0,0.0,0.0,0.0,0.0,0.0,
10.612271000000009,0.0,0.0,96555.0,0.375,262.5,420.00000000000006,0.0,0.125,0.810546792,4.931839995807818,0.0,-105302.0,0.625,-285.0,-420.00000000000006,0.0,0.0,0.531005805,4.96335636933136,0.0,6764.0,2.75,202.5,420.00000000000006,0.0,0.0,3.347167626,4.939988316752116,0.0,-14127.0,1.0,-270.0,-420.00000000000006,0.0,0.125,1.6552732680000002,4.957586850145128,0.0,0.36000001430511475,-0.7900000214576721,-98.76000213623047,0.01788330078125,-0.00299072265625,0.9869384765625,36.0099983215332,0.0,4.0,0.3326416015625,-0.7552490234375,Closing,0.0,0.0,3.0,0.0,0.0,0.0,0.0,0.125,
10.765243000000016,0.0,0.0,96604.0,0.375,315.0,420.0,0.0,0.125,0.822753822,0.01,0.0,-105403.0,1.25,-322.5,-420.0,0.0,0.125,0.545654241,0.01,0.0,6809.0,3.5,315.0,420.0,0.0,0.0,3.347167626,0.01,0.0,-14224.0,1.375,-307.5,-420.0,0.0,0.25,1.702880685,0.01,0.0,0.3499999940395355,-0.6200000047683716,-98.62999725341797,0.0020751953125,0.00994873046875,1.0213623046875,36.0099983215332,0.0,-5.0,0.33245849609375,-0.752655029296875,Closing,0.0,0.0,3.0,0.0,0.0,0.0,0.0,0.125,
10.914081999999995,0.0,0.0,96658.0,0.375,360.0,420.0,0.0,0.125,0.822753822,0.01,0.0,-105459.0,1.375,-345.0,-420.0,0.0,0.25,0.551757756,0.01,0.0,6913.0,3.5,330.0,420.0,0.0,0.0,3.349609032,0.01,0.0,-14279.0,1.875,-322.5,-420.0,0.0,0.25,1.673583813,0.01,0.0,0.33000001311302185,-0.47999998927116394,-98.52999877929688,0.0306396484375,0.03875732421875,0.99017333984375,36.0099983215332,0.0,-38.0,0.332244873046875,-0.7512054443359375,Closing,0.0,0.0,3.0,0.0,0.0,0.0,0.0,0.0,
11.080401000000013,0.0,0.0,96778.0,0.375,382.5,420.0,0.0,0.25,0.822753822,0.01,0.0,-105520.0,1.375,-397.5,-420.0,0.0,0.25,0.5566405680000001,0.01,0.0,6973.0,3.625,360.0,420.0,0.0,0.0,3.348388329,0.01,0.0,-14334.0,1.375,-412.5,-420.0,0.0,0.25,1.624755693,0.01,0.0,0.30000001192092896,-0.3700000047683716,-98.52999877929688,-0.00732421875,-0.0487060546875,1.0455322265625,36.0099983215332,0.0,53.0,0.3324737548828125,-0.748443603515625,Closing,0.0,0.0,3.0,0.0,0.0,0.0,0.0,0.0,
11.239532999999996,0.0,0.0,96841.0,0.75,360.0,420.0,0.0,0.25,0.822753822,0.01,0.0,-105630.0,2.125,-345.0,-420.0,0.0,0.25,0.5566405680000001,0.01,0.0,7028.0,5.625,300.0,420.0,0.0,0.0,3.348388329,0.01,0.0,-14449.0,2.25,-315.0,-420.0,0.0,0.125,1.616210772,0.01,0.0,0.07000000029802322,-1.7200000286102295,-97.8499984741211,-0.13299560546875,-0.0640869140625,0.8516845703125,36.0099983215332,0.0,79.0,0.3381805419921875,-0.757110595703125,Closing,0.0,0.0,3.0,0.0,0.0,0.0,0.0,0.0,
11.387978000000002,0.0,0.0,96858.0,0.875,-22.5,0.0,0.0,0.25,0.821533119,0.01,0.0,-105627.0,3.125,22.5,-0.0,0.0,0.25,0.5566405680000001,0.01,0.0,7048.0,5.0,0.0,0.0,0.0,0.0,3.348388329,0.01,0.0,-14446.0,2.25,22.5,-0.0,0.0,0.125,1.616210772,0.01,0.0,0.07000000029802322,-1.5399999618530273,-97.95999908447266,0.02349853515625,-0.0048828125,0.95050048828125,36.0099983215332,0.0,0.0,0.353240966796875,-0.7875823974609375,Closing,0.0,0.0,3.0,0.0,0.0,0.0,0.0,0.0,
11.567728000000002,0.0,0.0,96858.0,0.875,0.0,0.0,0.0,0.25,0.822753822,0.01,0.0,-105628.0,2.625,0.0,-0.0,0.0,0.25,0.5566405680000001,0.01,0.0,7048.0,5.0,0.0,0.0,0.0,0.0,3.34472622,0.01,0.0,-14446.0,2.125,0.0,-0.0,0.0,0.125,1.613769366,0.01,0.0,0.05000000074505806,-1.5700000524520874,-97.97000122070312,-0.13470458984375,0.01287841796875,1.05328369140625,35.970001220703125,0.0,2.0,0.3542327880859375,-0.79718017578125,Closing,0.0,0.0,3.0,0.0,0.0,0.0,0.0,0.0,
11.727570999999996,0.0,0.0,96859.0,3.625,0.0,420.0,0.0,2.75,1.271972526,2.4661255000000026,0.0,-105634.0,8.375,-22.5,-420.0,0.0,8.5,0.8959960020000001,2.4818850000000023,0.0,7048.0,11.125,22.5,420.0,0.0,2.125,2.7941891670000003,2.470199999999998,0.0,-14443.0,6.25,0.0,-420.0,0.0,2.5,1.046142471,2.4789999999999974,0.0,0.009999999776482582,-1.4600000381469727,-97.91999816894531,0.00262451171875,0.0372314453125,0.994384765625,35.970001220703125,0.0,-40.0,0.3553619384765625,-0.7956390380859375,Closing,0.0,0.0,3.0,0.0,0.0,0.0,0.0,0.125,
11.886818,0.0,0.0,96856.0,8.125,-7.5,420.0,0.0,2.625,2.25830055,2.4661255000000026,0.0,-105652.0,9.75,-120.0,-420.0,0.0,1.0,2.0642087730000003,2.4818850000000023,0.0,7071.0,13.625,82.5,420.0,0.0,1.25,1.69677717,2.470199999999998,0.0,-14437.0,13.0,37.5,-420.0,0.0,3.5,0.03662109,2.4789999999999974,0.0,-0.05000000074505806,-1.3899999856948853,-98.18000030517578,-0.03472900390625,-0.07708740234375,0.952392578125,35.970001220703125,0.0,76.0,0.3555908203125,-0.792205810546875,Closing,0.0,0.0,3.0,0.0,0.0,0.0,0.0,0.0,
12.033468000000022,0.0,0.0,96856.0,9.875,0.0,420.0,0.0,5.0,3.129882492,2.4661255000000026,0.0,-105676.0,10.25,-247.5,-420.0,0.0,0.75,3.118896165,2.4818850000000023,0.0,7109.0,13.5,262.5,420.0,0.0,0.5,0.8020018710000001,2.470199999999998,0.0,-14446.0,10.375,-247.5,-420.0,0.0,1.875,4.073485911000001,2.4789999999999974,0.0,0.0,-2.119999885559082,-99.43000030517578,-0.33587646484375,0.1683349609375,1.06842041015625,36.029998779296875,0.0,-117.0,0.3593292236328125,-0.7967376708984375,Closing,0.0,0.0,3.0,0.0,0.0,0.0,0.0,0.0,
12.18506600000002,0.0,0.0,96902.0,5.625,465.0,420.0,0.0,0.375,3.5327144820000003,2.4661255000000026,0.0,-105755.0,7.25,-450.0,-420.0,0.0,0.25,3.449706678,2.4818850000000023,0.0,7155.0,11.25,315.0,420.0,0.0,0.125,0.5798339250000001,2.470199999999998,0.0,-14511.0,9.0,-450.0,-420.0,0.0,0.25,3.7866207060000003,2.4789999999999974,0.0,-0.10000000149011612,-2.859999895095825,-99.19000244140625,-0.14581298828125,0.0120849609375,1.095703125,36.029998779296875,0.0,0.0,0.36370849609375,-0.8231201171875,Closing,0.0,0.0,3.0,0.0,0.0,0.0,0.0,0.0,
12.326619999999995,0.0,0.0,97038.0,0.75,885.0,420.0,0.0,0.5,3.498534798,2.4661255000000026,0.0,-105816.0,7.25,-480.0,-420.0,0.0,1.125,3.2128902960000003,2.4818850000000023,0.0,7227.0,7.75,487.5,420.0,0.0,0.25,0.766601484,2.470199999999998,0.0,-14646.0,9.375,-442.5,-420.0,0.0,0.375,3.966064047,2.4789999999999974,0.0,-0.23000000417232513,-3.369999885559082,-94.37000274658203,-0.108642578125,0.0067138671875,1.19842529296875,36.029998779296875,0.0,-8.0,0.37255859375,-0.85626220703125,Closing,0.0,0.0,3.0,0.0,0.0,0.0,0.0,0.125,
12.45723000000001,0.0,0.0,97181.0,0.125,937.5,420.0,0.0,0.375,3.3264156750000002,2.4661255000000026,0.0,-106008.0,3.25,-652.5,-420.0,0.0,0.25,2.9077145460000002,2.4818850000000023,0.0,7319.0,5.0,712.5,420.0,0.0,0.125,0.9619139640000001,2.470199999999998,0.0,-14754.0,5.0,-660.0,-420.0,0.0,0.25,4.1503902,2.4789999999999974,0.0,-0.1899999976158142,-3.450000047683716,-91.23999786376953,-0.0732421875,0.02728271484375,0.38330078125,36.029998779296875,0.0,-27.0,0.3787689208984375,-0.8995513916015625,Closing,0.0,0.0,3.0,0.0,0.0,0.0,0.0,0.0,
12.601478000000002,0.0,0.0,97457.0,0.375,802.5,420.0,0.0,0.25,3.2604977130000004,2.4661255000000026,0.0,-106130.0,0.625,-757.5,-420.0,0.0,0.25,2.864989941,2.4818850000000023,0.0,7440.0,11.625,202.5,420.0,0.0,0.125,0.91552725,2.470199999999998,0.0,-14890.0,0.75,-862.5,-420.0,0.0,0.25,4.146728091,2.4789999999999974,0.0,0.10999999940395355,-3.0899999141693115,-91.80000305175781,-0.05230712890625,0.0582275390625,0.81610107421875,36.0,0.0,-56.0,0.3788604736328125,-0.922882080078125,Closing,0.0,0.0,3.0,0.0,0.0,0.0,0.0,0.0,
12.770652000000002,0.0,0.0,97590.0,0.0,825.0,420.0,0.0,0.125,3.24706998,2.4661255000000026,0.0,-106266.0,0.0,-840.0,-420.0,0.0,0.25,2.889404001,2.4818850000000023,0.0,7542.0,6.625,667.5,420.0,0.0,0.125,0.860595615,2.470199999999998,0.0,-15027.0,0.375,-795.0,-420.0,0.0,0.25,4.093017159,2.4789999999999974,0.0,0.27000001072883606,-2.680000066757202,-92.19000244140625,0.02362060546875,0.0950927734375,1.01727294921875,36.0,0.0,-92.0,0.377166748046875,-0.9165191650390625,Closing,0.0,0.0,3.0,0.0,0.0,0.0,0.0,0.0,
12.907271000000009,0.0,0.0,97710.0,0.125,697.5,420.0,0.0,0.125,3.251952792,2.4661255000000026,0.0,-106394.0,0.0,-742.5,-420.0,0.0,0.25,2.985839538,2.4818850000000023,0.0,7674.0,3.0,795.0,420.0,0.0,0.0,0.860595615,2.470199999999998,0.0,-15260.0,0.375,-720.0,-420.0,0.0,0.125,4.0832515350000005,2.4789999999999974,0.0,0.18000000715255737,-1.9900000095367432,-92.27999877929688,0.02386474609375,-0.05047607421875,1.179443359375,36.0,0.0,51.0,0.3743438720703125,-0.8984832763671875,Closing,0.0,0.0,3.0,0.0,0.0,0.0,0.0,0.0,
13.058123000000021,0.0,0.0,97815.0,0.125,592.5,420.0,0.0,0.25,3.253173495,2.4661255000000026,0.0,-106602.0,0.0,-585.0,-420.0,0.0,0.0,2.991943053,2.4818850000000023,0.0,7792.0,2.875,652.5,420.0,0.0,0.0,0.861816318,2.470199999999998,0.0,-15360.0,0.375,-615.0,-420.0,0.0,0.125,4.0832515350000005,2.4789999999999974,0.0,0.15000000596046448,-1.3700000047683716,-92.16000366210938,0.09857177734375,0.059814453125,1.08123779296875,35.95000076293945,0.0,-61.0,0.3747406005859375,-0.868316650390625,Closing,0.0,0.0,3.0,0.0,0.0,0.0,0.0,0.125,
13.222902000000001,0.0,0.0,97978.0,0.125,465.0,420.0,0.0,0.25,3.253173495,2.4661255000000026,0.0,-106679.0,0.0,-450.0,-420.0,0.0,0.125,2.9992672710000003,2.4818850000000023,0.0,7970.0,3.5,502.5,420.0,0.0,0.0,0.861816318,2.470199999999998,0.0,-15439.0,0.375,-465.0,-420.0,0.0,0.125,4.0832515350000005,2.4789999999999974,0.0,0.14000000059604645,-0.8999999761581421,-91.95999908447266,-0.00390625,-0.020263671875,1.03924560546875,35.95000076293945,0.0,22.0,0.3739471435546875,-0.81524658203125,Closing,0.0,0.0,3.0,0.0,0.0,0.0,0.0,0.125,
13.351998000000021,0.0,0.0,98033.0,1.875,322.5,0.0,0.0,2.0,2.41699194,0.01,0.0,-106739.0,0.625,-300.0,-0.0,0.0,2.125,3.7805171910000004,0.01,0.0,8030.0,1.125,337.5,0.0,0.0,1.375,4.953612774000001,0.01,0.0,-15500.0,0.25,-232.5,-0.0,0.0,1.5,3.2031246720000004,0.01,0.0,0.25,0.11999999731779099,-91.88999938964844,0.28515625,0.02703857421875,0.8428955078125,35.95000076293945,0.0,-32.0,0.373260498046875,-0.8056640625,Closing,0.0,0.0,3.0,0.0,0.0,0.0,0.0,0.0,
13.513046000000003,0.0,0.0,98044.0,1.25,45.0,0.0,0.0,2.625,1.6357420200000001,0.01,0.0,-106764.0,0.25,-60.0,-0.0,0.0,1.75,4.666747569,0.01,0.0,8056.0,1.625,105.0,0.0,0.0,1.75,4.094237862,0.01,0.0,-15520.0,0.375,0.0,-0.0,0.0,1.75,2.357177493,0.01,0.0,0.23999999463558197,0.4000000059604645,-91.61000061035156,-0.0380859375,0.0762939453125,1.02154541015625,35.95000076293945,0.0,-70.0,0.371002197265625,-0.7810516357421875,Closing,0.0,0.0,3.0,0.0,0.0,0.0,0.0,0.0,
13.629464999999996,0.0,0.0,98046.0,0.75,22.5,0.0,0.0,1.625,0.8557128030000001,0.01,0.0,-106770.0,0.0,-7.5,-0.0,0.0,1.25,0.5798339250000001,0.01,0.0,8070.0,1.625,105.0,0.0,0.0,0.75,3.33251919,0.01,0.0,-15520.0,0.375,7.5,-0.0,0.0,1.0,1.5539549190000002,0.01,0.0,0.25,0.30000001192092896,-91.66999816894531,0.031005859375,-0.05877685546875,1.0584716796875,35.959999084472656,0.0,62.0,0.366302490234375,-0.7578582763671875,Closing,0.0,0.0,3.0,0.0,0.0,0.0,0.0,0.125,
13.75476000000001,0.0,0.0,98052.0,1.25,7.5,0.0,0.0,0.125,0.733642503,0.01,0.0,-106778.0,0.25,-22.5,-0.0,0.0,0.25,0.7885741380000001,0.01,0.0,8082.0,1.875,22.5,0.0,0.0,0.0,3.2177731080000003,0.01,0.0,-15519.0,0.375,0.0,-0.0,0.0,0.375,1.461181491,0.01,0.0,0.1899999976158142,0.1599999964237213,-91.68000030517578,-0.02508544921875,0.0079345703125,1.01275634765625,35.959999084472656,0.0,-3.0,0.362701416015625,-0.7306671142578125,Closing,0.0,0.0,3.0,0.0,0.0,0.0,0.0,0.125,
13.907644,0.0,0.0,98052.0,1.0,0.0,0.0,0.0,0.25,0.819091713,0.01,0.0,-106778.0,0.125,0.0,-0.0,0.0,0.25,0.638427669,0.01,0.0,8083.0,2.25,0.0,0.0,0.0,0.125,3.3093258330000004,0.01,0.0,-15520.0,0.375,0.0,-0.0,0.0,0.25,1.572265464,0.01,0.0,0.20000000298023224,0.09000000357627869,-91.68000030517578,0.0030517578125,0.013671875,1.0203857421875,35.959999084472656,0.0,-10.0,0.36260986328125,-0.7209930419921875,Closing,0.0,0.0,3.0,0.0,0.0,0.0,0.0,0.0,
14.059610000000015,0.0,0.0,98052.0,1.125,0.0,0.0,0.0,0.25,0.8544921000000001,0.01,0.0,-106778.0,0.125,0.0,-0.0,0.0,0.25,0.45410151600000004,0.01,0.0,8083.0,2.125,0.0,0.0,0.0,0.0,3.333739893,0.01,0.0,-15520.0,0.375,0.0,-0.0,0.0,0.25,1.6345213170000001,0.01,0.0,0.20999999344348907,-0.05000000074505806,-91.68000030517578,-0.00335693359375,0.00482177734375,1.009765625,35.959999084472656,0.0,0.0,0.3635101318359375,-0.7222442626953125,Closing,0.0,0.0,3.0,0.0,0.0,0.0,0.0,0.0,
14.253222999999998,0.0,0.0,98052.0,1.25,0.0,0.0,0.0,0.25,0.847167882,0.01,0.0,-106778.0,0.125,0.0,-0.0,0.0,0.25,0.47973627900000004,0.01,0.0,8083.0,2.25,0.0,0.0,0.0,0.0,3.334960596,0.01,0.0,-15521.0,0.375,0.0,-0.0,0.0,0.125,1.6357420200000001,0.01,0.0,0.20000000298023224,-0.10999999940395355,-91.68000030517578,-0.026611328125,0.00457763671875,1.02001953125,35.959999084472656,0.0,0.0,0.362884521484375,-0.722259521484375,Closing,0.0,0.0,3.0,0.0,0.0,0.0,0.0,0.0,
14.413118000000017,0.0,0.0,98052.0,1.125,0.0,0.0,0.0,0.25,0.861816318,0.01,0.0,-106778.0,0.125,0.0,-0.0,0.0,0.25,0.49316401200000004,0.01,0.0,8083.0,2.25,0.0,0.0,0.0,0.0,3.333739893,0.01,0.0,-15521.0,0.375,0.0,-0.0,0.0,0.125,1.6357420200000001,0.01,0.0,0.20000000298023224,-0.17000000178813934,-91.69000244140625,-0.002197265625,0.02178955078125,1.01409912109375,35.959999084472656,0.0,-18.0,0.36358642578125,-0.7227935791015625,Closing,0.0,0.0,3.0,0.0,0.0,0.0,0.0,0.125,
14.572292000000015,0.0,0.0,98052.0,1.25,0.0,0.0,0.0,0.25,0.8447264760000001,0.01,0.0,-106778.0,0.125,0.0,-0.0,0.0,0.125,0.496826121,0.01,0.0,8083.0,2.375,0.0,0.0,0.0,0.0,3.333739893,0.01,0.0,-15521.0,0.375,0.0,-0.0,0.0,0.125,1.6357420200000001,0.01,0.0,0.23000000417232513,-0.2199999988079071,-91.69000244140625,-0.021728515625,-0.0228271484375,1.01361083984375,35.95000076293945,0.0,27.0,0.3626251220703125,-0.7231597900390625,Closing,0.0,0.0,3.0,0.0,0.0,0.0,0.0,0.0,
14.726156000000017,0.0,0.0,98052.0,1.25,0.0,0.0,0.0,0.25,0.847167882,0.01,0.0,-106778.0,0.125,0.0,-0.0,0.0,0.125,0.498046824,0.01,0.0,8083.0,2.375,0.0,0.0,0.0,0.0,3.334960596,0.01,0.0,-15521.0,0.375,0.0,-0.0,0.0,0.125,1.6345213170000001,0.01,0.0,0.23000000417232513,-0.2800000011920929,-91.69999694824219,-0.00732421875,-0.00885009765625,1.0172119140625,35.95000076293945,0.0,13.0,0.3617401123046875,-0.7232208251953125,Closing,0.0,0.0,3.0,0.0,0.0,0.0,0.0,0.0,
14.898751000000019,0.0,0.0,98052.0,1.25,0.0,0.0,0.0,0.25,0.845947179,0.01,0.0,-106778.0,0.125,0.0,-0.0,0.0,0.125,0.498046824,0.01,0.0,8083.0,2.375,0.0,0.0,0.0,0.0,3.333739893,0.01,0.0,-15521.0,0.375,0.0,-0.0,0.0,0.125,1.6345213170000001,0.01,0.0,0.23000000417232513,-0.3199999928474426,-91.69999694824219,0.01593017578125,0.04107666015625,0.99810791015625,35.95000076293945,0.0,-37.0,0.36199951171875,-0.723663330078125,Closing,0.0,0.0,3.0,0.0,0.0,0.0,0.0,0.125,
15.051488000000012,0.0,0.0,98052.0,1.25,0.0,0.0,0.0,0.25,0.845947179,0.01,0.0,-106778.0,0.125,0.0,-0.0,0.0,0.125,0.49316401200000004,0.01,0.0,8083.0,2.375,0.0,0.0,0.0,0.0,3.333739893,0.01,0.0,-15521.0,0.375,0.0,-0.0,0.0,0.125,1.6345213170000001,0.01,0.0,0.23999999463558197,-0.3499999940395355,-91.69999694824219,-0.04327392578125,-0.020263671875,1.01080322265625,35.95000076293945,0.0,25.0,0.3612518310546875,-0.723602294921875,Closing,0.0,0.0,3.0,0.0,0.0,0.0,0.0,0.0,
15.213852000000013,0.0,0.0,98052.0,1.25,0.0,0.0,0.0,0.25,0.845947179,0.01,0.0,-106778.0,0.125,0.0,-0.0,0.0,0.125,0.498046824,0.01,0.0,8083.0,2.375,0.0,0.0,0.0,0.0,3.333739893,0.01,0.0,-15521.0,0.375,0.0,-0.0,0.0,0.125,1.6345213170000001,0.01,0.0,0.23999999463558197,-0.4000000059604645,-91.69999694824219,0.00244140625,0.0360107421875,1.046142578125,35.939998626708984,0.0,-31.0,0.3613739013671875,-0.723663330078125,Closing,0.0,0.0,3.0,0.0,0.0,0.0,0.0,0.0,
15.369967000000004,0.0,0.0,98052.0,1.25,0.0,0.0,0.0,0.25,0.847167882,0.01,0.0,-106778.0,0.125,0.0,-0.0,0.0,0.125,0.498046824,0.01,0.0,8083.0,2.375,0.0,0.0,0.0,0.0,3.333739893,0.01,0.0,-15521.0,0.375,0.0,-0.0,0.0,0.125,1.6357420200000001,0.01,0.0,0.25,-0.4099999964237213,-91.70999908447266,-0.01861572265625,-0.0084228515625,1.05859375,35.939998626708984,0.0,13.0,0.3614654541015625,-0.7238922119140625,Closing,0.0,0.0,3.0,0.0,0.0,0.0,0.0,0.0,
15.518822000000014,0.0,0.0,98052.0,1.25,0.0,0.0,0.0,0.25,0.845947179,0.01,0.0,-106778.0,0.125,0.0,-0.0,0.0,0.125,0.498046824,0.01,0.0,8083.0,2.375,0.0,0.0,0.0,0.0,3.333739893,0.01,0.0,-15521.0,0.375,0.0,-0.0,0.0,0.125,1.6357420200000001,0.01,0.0,0.23999999463558197,-0.4399999976158142,-91.70999908447266,-0.01422119140625,-0.0198974609375,1.0087890625,35.939998626708984,0.0,24.0,0.3606109619140625,-0.7237396240234375,Closing,0.0,0.0,3.0,0.0,0.0,0.0,0.0,0.0,
15.675708000000013,0.0,0.0,98052.0,1.25,0.0,0.0,0.0,0.25,0.845947179,0.01,0.0,-106778.0,0.125,0.0,-0.0,0.0,0.125,0.498046824,0.01,0.0,8083.0,2.375,0.0,0.0,0.0,0.0,3.333739893,0.01,0.0,-15521.0,0.375,0.0,-0.0,0.0,0.125,1.6345213170000001,0.01,0.0,0.25,-0.44999998807907104,-91.70999908447266,-0.01129150390625,0.00189208984375,1.02496337890625,35.959999084472656,0.0,2.0,0.3604888916015625,-0.72418212890625,Closing,0.0,0.0,3.0,0.0,0.0,0.0,0.0,0.0,
15.799089999999996,0.0,0.0,98052.0,1.25,0.0,0.0,0.0,0.25,0.845947179,0.01,0.0,-106778.0,0.125,0.0,-0.0,0.0,0.125,0.496826121,0.01,0.0,8083.0,2.375,0.0,0.0,0.0,0.0,3.33251919,0.01,0.0,-15521.0,0.375,0.0,-0.0,0.0,0.125,1.6345213170000001,0.01,0.0,0.23999999463558197,-0.4699999988079071,-91.70999908447266,-0.03704833984375,-0.01220703125,1.01324462890625,35.959999084472656,0.0,17.0,0.3592681884765625,-0.72406005859375,Closing,0.0,0.0,3.0,0.0,0.0,0.0,0.0,0.0,
15.961956999999995,0.0,0.0,98052.0,1.25,0.0,0.0,0.0,0.25,0.845947179,0.01,0.0,-106778.0,0.125,0.0,-0.0,0.0,0.125,0.498046824,0.01,0.0,8083.0,2.375,0.0,0.0,0.0,0.0,3.33251919,0.01,0.0,-15521.0,0.375,0.0,-0.0,0.0,0.125,1.6345213170000001,0.01,0.0,0.23999999463558197,-0.49000000953674316,-91.70999908447266,-3.0517578125E-4,0.033447265625,1.04937744140625,35.959999084472656,0.0,-29.0,0.359161376953125,-0.7243194580078125,Closing,0.0,0.0,3.0,0.0,0.0,0.0,0.0,0.0,
16.113447000000015,0.0,0.0,98052.0,1.25,0.0,0.0,0.0,0.25,0.847167882,0.01,0.0,-106778.0,0.125,0.0,-0.0,0.0,0.125,0.496826121,0.01,0.0,8083.0,2.375,0.0,0.0,0.0,0.0,3.333739893,0.01,0.0,-15521.0,0.375,0.0,-0.0,0.0,0.125,1.6345213170000001,0.01,0.0,0.25,-0.5,-91.70999908447266,-0.02911376953125,-0.02264404296875,0.97784423828125,35.959999084472656,0.0,27.0,0.3583831787109375,-0.7244873046875,Closing,0.0,0.0,3.0,0.0,0.0,0.0,0.0,0.0,
16.243818,0.0,0.0,98052.0,1.25,0.0,0.0,0.0,0.25,0.838622961,0.01,0.0,-106778.0,0.125,0.0,-0.0,0.0,0.125,0.498046824,0.01,0.0,8083.0,2.375,0.0,0.0,0.0,0.0,3.333739893,0.01,0.0,-15521.0,0.375,0.0,-0.0,0.0,0.125,1.6345213170000001,0.01,0.0,0.25,-0.5099999904632568,-91.70999908447266,0.004150390625,0.04656982421875,1.04742431640625,35.939998626708984,0.0,-42.0,0.3581085205078125,-0.724334716796875,Closing,0.0,0.0,3.0,0.0,0.0,0.0,0.0,0.0,
16.391600999999994,0.0,0.0,98052.0,1.25,0.0,0.0,0.0,0.25,0.849609288,0.01,0.0,-106778.0,0.125,0.0,-0.0,0.0,0.125,0.496826121,0.01,0.0,8083.0,2.375,0.0,0.0,0.0,0.0,3.333739893,0.01,0.0,-15521.0,0.375,0.0,-0.0,0.0,0.125,1.6345213170000001,0.01,0.0,0.25,-0.5199999809265137,-91.70999908447266,-0.0220947265625,-0.01214599609375,1.05572509765625,35.939998626708984,0.0,17.0,0.357940673828125,-0.7245330810546875,Closing,0.0,0.0,3.0,0.0,0.0,0.0,0.0,0.125,
16.551600999999994,0.0,0.0,98052.0,1.25,0.0,0.0,0.0,0.25,0.845947179,0.01,0.0,-106778.0,0.125,0.0,-0.0,0.0,0.125,0.498046824,0.01,0.0,8083.0,2.375,0.0,0.0,0.0,0.0,3.333739893,0.01,0.0,-15521.0,0.375,0.0,-0.0,0.0,0.125,1.64794905,0.01,0.0,0.25,-0.5299999713897705,-91.72000122070312,-0.0125732421875,-0.01641845703125,1.016845703125,35.939998626708984,0.0,20.0,0.357086181640625,-0.724365234375,Closing,0.0,0.0,3.0,0.0,0.0,0.0,0.0,0.0,
16.684493000000018,0.0,0.0,98052.0,1.25,0.0,0.0,0.0,0.25,0.8666991300000001,0.01,0.0,-106778.0,0.125,0.0,-0.0,0.0,0.125,0.498046824,0.01,0.0,8083.0,2.25,0.0,0.0,0.0,0.0,3.3264156750000002,0.01,0.0,-15521.0,0.375,0.0,-0.0,0.0,0.125,1.6296385050000002,0.01,0.0,0.25999999046325684,-0.5400000214576721,-91.72000122070312,-0.0047607421875,0.0040283203125,1.004150390625,35.970001220703125,0.0,0.0,0.3573150634765625,-0.7245635986328125,Closing,0.0,0.0,3.0,0.0,0.0,0.0,0.0,0.0,
16.840555000000023,0.0,0.0,98052.0,1.25,0.0,0.0,0.0,0.25,0.8435057730000001,0.01,0.0,-106778.0,0.125,0.0,-0.0,0.0,0.125,0.498046824,0.01,0.0,8083.0,2.375,0.0,0.0,0.0,0.0,3.333739893,0.01,0.0,-15521.0,0.375,0.0,-0.0,0.0,0.125,1.640624832,0.01,0.0,0.25999999046325684,-0.550000011920929,-91.72000122070312,-0.007568359375,0.001708984375,1.0325927734375,35.970001220703125,0.0,-4.0,0.3561859130859375,-0.7244110107421875,Closing,0.0,0.0,3.0,0.0,0.0,0.0,0.0,0.125,
16.981198000000003,0.0,0.0,98052.0,1.25,0.0,0.0,0.0,0.25,0.847167882,0.01,0.0,-106778.0,0.125,0.0,-0.0,0.0,0.125,0.498046824,0.01,0.0,8083.0,2.375,0.0,0.0,0.0,0.0,3.333739893,0.01,0.0,-15521.0,0.375,0.0,-0.0,0.0,0.125,1.6345213170000001,0.01,0.0,0.25999999046325684,-0.5600000023841858,-91.72000122070312,0.013916015625,0.01495361328125,1.0025634765625,35.970001220703125,0.0,-11.0,0.3563690185546875,-0.7245635986328125,Closing,0.0,0.0,3.0,0.0,0.0,0.0,0.0,0.0,
17.136678000000014,0.0,0.0,98052.0,1.25,0.0,0.0,0.0,0.25,0.847167882,0.01,0.0,-106778.0,0.125,0.0,-0.0,0.0,0.125,0.498046824,0.01,0.0,8083.0,2.375,0.0,0.0,0.0,0.0,3.333739893,0.01,0.0,-15521.0,0.375,0.0,-0.0,0.0,0.125,1.6357420200000001,0.01,0.0,0.25999999046325684,-0.5600000023841858,-91.7300033569336,-0.045654296875,-0.02081298828125,0.9849853515625,35.97999954223633,0.0,26.0,0.355194091796875,-0.724456787109375,Closing,0.0,0.0,3.0,0.0,0.0,0.0,0.0,0.0,
17.29002800000002,0.0,0.0,98052.0,1.25,0.0,0.0,0.0,0.25,0.847167882,0.01,0.0,-106778.0,0.125,0.0,-0.0,0.0,0.125,0.498046824,0.01,0.0,8083.0,2.375,0.0,0.0,0.0,0.0,3.333739893,0.01,0.0,-15521.0,0.375,0.0,-0.0,0.0,0.125,1.6357420200000001,0.01,0.0,0.25999999046325684,-0.5699999928474426,-91.7300033569336,-0.0018310546875,0.0220947265625,1.0224609375,35.97999954223633,0.0,-17.0,0.3555755615234375,-0.7244415283203125,Closing,0.0,0.0,3.0,0.0,0.0,0.0,0.0,0.0,
17.441369000000005,0.0,0.0,98052.0,1.25,0.0,0.0,0.0,0.25,0.845947179,0.01,0.0,-106778.0,0.125,0.0,-0.0,0.0,0.125,0.498046824,0.01,0.0,8083.0,2.25,0.0,0.0,0.0,0.0,3.333739893,0.01,0.0,-15521.0,0.375,0.0,-0.0,0.0,0.125,1.621093584,0.01,0.0,0.27000001072883606,-0.5799999833106995,-91.7300033569336,-0.02899169921875,-0.0225830078125,0.97625732421875,35.97999954223633,0.0,27.0,0.3552703857421875,-0.7245330810546875,Closing,0.0,0.0,3.0,0.0,0.0,0.0,0.0,0.0,
17.59773300000001,0.0,0.0,98052.0,1.25,0.0,0.0,0.0,0.25,0.847167882,0.01,0.0,-106778.0,0.125,0.0,-0.0,0.0,0.125,0.496826121,0.01,0.0,8083.0,2.375,0.0,0.0,0.0,0.0,3.33251919,0.01,0.0,-15521.0,0.375,0.0,-0.0,0.0,0.125,1.641845535,0.01,0.0,0.25,-0.5899999737739563,-91.7300033569336,0.00823974609375,0.04364013671875,1.05438232421875,35.97999954223633,0.0,-39.0,0.3551788330078125,-0.7244720458984375,Closing,0.0,0.0,3.0,0.0,0.0,0.0,0.0,0.0,
17.763303000000015,0.0,0.0,98052.0,1.25,0.0,0.0,0.0,0.25,0.847167882,0.01,0.0,-106778.0,0.125,0.0,-0.0,0.0,0.125,0.495605418,0.01,0.0,8083.0,2.25,0.0,0.0,0.0,0.0,3.333739893,0.01,0.0,-15521.0,0.375,0.0,-0.0,0.0,0.125,1.6357420200000001,0.01,0.0,0.25,-0.5899999737739563,-91.7300033569336,-0.017822265625,-0.01165771484375,1.01434326171875,35.959999084472656,0.0,16.0,0.3549346923828125,-0.724639892578125,Closing,0.0,0.0,3.0,0.0,0.0,0.0,0.0,0.0,
17.90752000000002,0.0,0.0,98052.0,1.25,0.0,0.0,0.0,0.25,0.845947179,0.01,0.0,-106778.0,0.125,0.0,-0.0,0.0,0.125,0.498046824,0.01,0.0,8083.0,2.375,0.0,0.0,0.0,0.0,3.33251919,0.01,0.0,-15521.0,0.375,0.0,-0.0,0.0,0.125,1.6345213170000001,0.01,0.0,0.25,-0.6000000238418579,-91.7300033569336,-0.0032958984375,0.02947998046875,1.0545654296875,35.959999084472656,0.0,-25.0,0.3547821044921875,-0.7244720458984375,Closing,0.0,0.0,3.0,0.0,0.0,0.0,0.0,0.0,
18.044623000000023,0.0,0.0,98052.0,1.25,0.0,0.0,0.0,0.25,0.847167882,0.01,0.0,-106778.0,0.125,0.0,-0.0,0.0,0.125,0.498046824,0.01,0.0,8083.0,2.25,0.0,0.0,0.0,0.0,3.334960596,0.01,0.0,-15521.0,0.375,0.0,-0.0,0.0,0.125,1.6345213170000001,0.01,0.0,0.25999999046325684,-0.6000000238418579,-91.7300033569336,-0.0235595703125,-0.0152587890625,0.986083984375,35.959999084472656,0.0,20.0,0.353790283203125,-0.7246551513671875,Closing,0.0,0.0,3.0,0.0,0.0,0.0,0.0,0.0,
18.191807,0.0,0.0,98052.0,1.25,0.0,0.0,0.0,0.25,0.848388585,0.01,0.0,-106778.0,0.125,0.0,-0.0,0.0,0.125,0.49926752700000004,0.01,0.0,8083.0,2.375,0.0,0.0,0.0,0.0,3.3239742690000003,0.01,0.0,-15521.0,0.375,0.0,-0.0,0.0,0.125,1.6357420200000001,0.01,0.0,0.25,-0.6000000238418579,-91.7300033569336,7.32421875E-4,0.0252685546875,1.0579833984375,35.970001220703125,0.0,-20.0,0.353729248046875,-0.7244720458984375,Closing,0.0,0.0,3.0,0.0,0.0,0.0,0.0,0.0,
18.349265000000013,0.0,0.0,98052.0,1.25,0.0,0.0,0.0,0.25,0.847167882,0.01,0.0,-106778.0,0.125,0.0,-0.0,0.0,0.125,0.49926752700000004,0.01,0.0,8083.0,2.25,0.0,0.0,0.0,0.0,3.333739893,0.01,0.0,-15521.0,0.375,0.0,-0.0,0.0,0.125,1.6357420200000001,0.01,0.0,0.25999999046325684,-0.6000000238418579,-91.73999786376953,-0.02655029296875,-0.0146484375,0.990234375,35.970001220703125,0.0,19.0,0.3536224365234375,-0.72467041015625,Closing,0.0,0.0,3.0,0.0,0.0,0.0,0.0,0.125,
18.489650000000022,0.0,0.0,98052.0,1.25,0.0,0.0,0.0,0.25,0.845947179,0.01,0.0,-106778.0,0.125,0.0,-0.0,0.0,0.125,0.498046824,0.01,0.0,8084.0,2.25,0.0,0.0,0.0,0.0,3.333739893,0.01,0.0,-15521.0,0.375,0.0,-0.0,0.0,0.125,1.6345213170000001,0.01,0.0,0.25,-0.6000000238418579,-91.73999786376953,-0.00506591796875,0.016357421875,1.03863525390625,35.970001220703125,0.0,-11.0,0.353424072265625,-0.7245025634765625,Closing,0.0,0.0,3.0,0.0,0.0,0.0,0.0,0.125,
18.63294200000001,0.0,0.0,98052.0,1.25,0.0,0.0,0.0,0.25,0.845947179,0.01,0.0,-106778.0,0.125,0.0,-0.0,0.0,0.125,0.5017089330000001,0.01,0.0,8084.0,2.375,0.0,0.0,0.0,0.0,3.333739893,0.01,0.0,-15521.0,0.375,0.0,-0.0,0.0,0.125,1.6345213170000001,0.01,0.0,0.25999999046325684,-0.6000000238418579,-91.75,-0.02227783203125,-0.019287109375,0.9921875,35.970001220703125,0.0,24.0,0.3531036376953125,-0.72467041015625,Closing,0.0,0.0,3.0,0.0,0.0,0.0,0.0,0.0,
18.78856700000001,0.0,0.0,98052.0,1.25,0.0,0.0,0.0,0.25,0.847167882,0.01,0.0,-106778.0,0.125,0.0,-0.0,0.0,0.125,0.498046824,0.01,0.0,8084.0,2.375,0.0,0.0,0.0,0.0,3.334960596,0.01,0.0,-15521.0,0.375,0.0,-0.0,0.0,0.125,1.6345213170000001,0.01,0.0,0.2800000011920929,-0.6100000143051147,-91.75,-0.007080078125,0.0189208984375,0.9970703125,36.02000045776367,0.0,-14.0,0.353729248046875,-0.72467041015625,Closing,0.0,0.0,3.0,0.0,0.0,0.0,0.0,0.0,
