Time,ClimberA1,ClimberA2,FRpos,FRCurrent,FRspeed,FRsetpoint,FRApos,FRACurrent,FREncpos,FREncSetpoint,FREncSpeed,FLpos,FLCurrent,FLspeed,FLsetpoint,FLApos,FLACurrent,FLEncpos,FLEncSetpoint,FLEncSpeed,BRpos,BRCurrent,BRspeed,BRsetpoint,BRApos,BRACurrent,BREncpos,BREncSetpoint,BREncSpeed,BLpos,BLCurrent,BLspeed,BLsetpoint,BLApos,BLACurrent,BLEncpos,BLEncSetpoint,BLEncSpeed,navx_Pitch,navx_Roll,navx_Yaw,navx_XAcc,navx_YAcc,navx_ZAcc,navx_Temp,navx_Bar,navx_Alt,navx_XDis,navx_YDis,GearPlacerState,ShootOutputV,ShootOutputCurrent,ShootEncPos,ShootEncVelocity,ShootSpeed,ShootSetpoint,CarouselSetpoint,CarouselCurrent,
0.5097140000000036,0.0,0.0,15008.0,0.0,0.0,0.0,0.0,0.25,0.770263593,0.01,0.0,-21388.0,0.0,0.0,0.0,0.0,0.25,0.483398388,0.01,0.0,-6056.0,0.0,0.0,0.0,0.0,0.0,3.3276363780000002,0.01,0.0,-27198.0,0.0,0.0,0.0,0.0,0.25,1.6601560800000001,0.01,0.0,0.07000000029802322,-0.7300000190734863,-6.489999771118164,-0.01318359375,0.001220703125,1.02374267578125,35.59000015258789,0.0,0.0,3.6953887939453125,-0.9750518798828125,Closing,0.0,0.0,3.0,0.0,0.0,0.0,0.0,0.0,
0.5865470000000023,0.0,0.0,15008.0,0.75,0.0,840.0,0.0,0.25,0.770263593,0.01,0.0,-21388.0,0.625,0.0,-840.0,0.0,0.25,0.483398388,0.01,-0.0012207030000004337,-6056.0,0.375,0.0,840.0,0.0,0.0,3.3239742690000003,0.01,-0.0024414059999999793,-27198.0,0.375,0.0,-840.0,0.0,0.25,1.6589353770000002,0.01,0.0,0.07000000029802322,-0.7400000095367432,-6.489999771118164,-0.0125732421875,-1.8310546875E-4,1.02325439453125,35.599998474121094,0.0,0.0,3.6953887939453125,-0.9750518798828125,Closing,0.0,0.0,3.0,0.0,0.0,0.0,0.0,0.0,
0.6232310000000034,0.0,0.0,15008.0,2.375,67.5,840.0,0.0,0.25,0.76904289,0.01,0.0,-21407.0,1.375,-75.0,-840.0,0.0,0.25,0.483398388,0.01,-0.0012207030000004337,-6056.0,2.125,7.5,840.0,0.0,0.0,3.3276363780000002,0.01,0.0012207030000004337,-27204.0,1.375,-22.5,-840.0,0.0,0.25,1.6589353770000002,0.01,0.0,0.11999999731779099,-0.699999988079071,-6.5,0.49560546875,-0.0767822265625,1.0882568359375,35.599998474121094,0.0,514.0,3.6958465576171875,-0.97503662109375,Closing,0.0,0.0,3.0,0.0,0.0,0.0,0.0,0.0,
0.6653660000000018,0.0,0.0,15028.0,3.25,120.0,840.0000000000001,0.0,0.25,0.770263593,4.9321139898919375,0.0,-21407.0,3.5,-135.0,-840.0000000000001,0.0,0.25,0.4882812,4.96363211434412,0.0,-6046.0,3.375,52.5,840.0000000000001,0.0,0.0,3.3276363780000002,4.940262763525645,0.0012207030000004337,-27204.0,2.375,-135.0,-840.0000000000001,0.0,0.25,1.6540525650000002,4.957862274625566,0.0,0.15000000596046448,-0.2800000011920929,-6.550000190734863,0.1890869140625,-0.2076416015625,0.67333984375,35.599998474121094,0.0,215.0,3.6977386474609375,-0.974884033203125,Closing,0.0,0.0,3.0,0.0,0.0,0.0,0.0,0.0,
0.7088050000000002,0.0,0.0,15028.0,4.125,165.0,840.0,0.0,0.25,0.770263593,4.931428952417625,0.0,-21407.0,4.375,-195.0,-840.0,0.0,0.125,0.5175780720000001,4.96294269921422,0.012207029999999897,-6046.0,4.75,82.5,840.0,0.0,0.0,3.3276363780000002,4.93957659424146,0.0012207029999995456,-27204.0,2.875,-217.5,-840.0,0.0,0.25,1.6589353770000002,4.957173660887612,0.0,0.10000000149011612,-0.18000000715255737,-6.539999961853027,0.142578125,-0.05157470703125,1.05078125,35.599998474121094,0.0,151.0,3.70159912109375,-0.9754638671875,Closing,0.0,0.0,3.0,0.0,0.0,0.0,0.0,0.0,
0.7388070000000007,0.0,0.0,15054.0,4.5,150.0,840.0,0.0,0.25,0.770263593,4.9315659625256885,-0.0012207029999995456,-21434.0,5.75,-180.0,-840.0,0.0,0.125,0.565185489,4.9630805848701005,0.021972654000000702,-6046.0,6.875,75.0,840.0,0.0,0.0,3.3276363780000002,4.9397138307158155,0.0,-27242.0,3.375,-210.0,-840.0,0.0,0.25,1.6589353770000002,4.957311386262046,-0.0012207029999999897,0.10999999940395355,0.11999999731779099,-6.480000019073486,0.06005859375,0.016845703125,1.07928466796875,35.599998474121094,0.0,55.0,3.70867919921875,-0.9764251708984375,Closing,0.0,0.0,3.0,0.0,0.0,0.0,0.0,0.0,
0.7924230000000025,0.0,0.0,15054.0,5.125,195.0,840.0,0.0,0.25,0.770263593,0.01,0.0,-21434.0,7.125,-255.0,-840.0,0.0,0.25,0.571289004,0.01,0.053710931999999545,-6031.0,8.375,120.0,840.0,0.0,0.0,3.3276363780000002,0.01,0.0,-27242.0,4.0,-240.0,-840.0,0.0,0.25,1.6589353770000002,0.01,0.0,0.15000000596046448,0.4699999988079071,-6.460000038146973,0.1270751953125,-0.0435791015625,0.99530029296875,35.599998474121094,0.0,123.0,3.718353271484375,-0.976837158203125,Closing,0.0,0.0,3.0,0.0,0.0,0.0,0.0,0.0,
0.8534620000000032,0.0,0.0,15054.0,5.5,307.5,839.9999999999999,0.0,0.25,0.773925702,0.01,0.0,-21498.0,8.0,-345.0,-839.9999999999999,0.0,0.25,0.571289004,0.01,0.0,-6031.0,8.375,217.5,839.9999999999999,0.0,0.0,3.3276363780000002,0.01,0.0,-27296.0,4.125,-307.5,-839.9999999999999,0.0,0.25,1.6589353770000002,0.01,0.0,0.11999999731779099,0.6700000166893005,-6.480000019073486,0.1090087890625,0.02178955078125,1.07843017578125,35.599998474121094,0.0,93.0,3.724334716796875,-0.97698974609375,Closing,0.0,0.0,3.0,0.0,0.0,0.0,0.0,0.0,
0.9180850000000028,0.0,0.0,15118.0,5.375,412.5,840.0,0.0,0.25,0.780029217,4.93170296610075,0.0012207029999995456,-21498.0,7.0,-442.5,-840.0,0.0,0.25,0.570068301,4.96321846395123,0.0,-5979.0,8.75,307.5,840.0,0.0,0.0,3.3276363780000002,4.939851060646375,0.0,-27296.0,4.5,-420.0,-840.0,0.0,0.25,1.6589353770000002,4.957449105069372,0.0012207029999999897,0.12999999523162842,0.9800000190734863,-6.599999904632568,0.10455322265625,-0.00164794921875,0.95465087890625,35.599998474121094,0.0,88.0,3.738555908203125,-0.9768829345703125,Closing,0.0,0.0,3.0,0.0,0.0,0.0,0.0,0.0,
0.945997000000003,0.0,0.0,15118.0,4.875,547.5,840.0,0.0,0.25,0.784912029,4.930743921476315,0.007324217999999938,-21498.0,6.75,-570.0,-840.0,0.0,0.25,0.571289004,4.96225329065907,0.0,-5979.0,8.5,412.5,840.0,0.0,0.0,3.3276363780000002,4.938890431501071,0.0,-27383.0,4.25,-487.5,-840.0,0.0,0.25,1.6601560800000001,4.956485053716765,0.0,0.12999999523162842,1.149999976158142,-6.659999847412109,0.0521240234375,-0.07647705078125,1.0946044921875,35.599998474121094,0.0,38.0,3.75079345703125,-0.97650146484375,Closing,0.0,0.0,3.0,0.0,0.0,0.0,0.0,0.0,
0.993291000000001,0.0,0.0,15220.0,4.5,585.0,840.0,0.0,0.25,0.786132732,4.929647866743818,0.006103515000000392,-21597.0,6.125,-607.5,-840.0,0.0,0.25,0.5664061920000001,4.96115023171103,0.0,-5979.0,8.625,480.0,840.0,0.0,0.0,3.3276363780000002,4.937792565881411,0.0,-27383.0,3.875,-555.0,-840.0,0.0,0.25,1.6589353770000002,4.955383276989725,0.0,0.18000000715255737,1.3700000047683716,-6.739999771118164,0.0341796875,-0.13592529296875,1.16107177734375,35.599998474121094,0.0,22.0,3.7637939453125,-0.977020263671875,Closing,0.0,0.0,3.0,0.0,0.0,0.0,0.0,0.0,
1.026358,0.0,0.0,15220.0,4.375,652.5,840.0,0.0,0.125,0.784912029,4.928825825694445,0.0,-21597.0,5.875,-667.5,-840.0,0.0,0.25,0.571289004,4.9603229375,0.0,-5881.0,7.5,607.5,840.0,0.0,0.0,3.3276363780000002,4.936969166666667,0.0,-27383.0,3.875,-592.5,-840.0,0.0,0.25,1.652831862,4.954556944444445,0.0,0.1599999964237213,1.4199999570846558,-6.800000190734863,-0.00531005859375,-0.047119140625,1.1123046875,35.599998474121094,0.0,-26.0,3.77264404296875,-0.97802734375,Closing,0.0,0.0,3.0,0.0,0.0,0.0,0.0,0.0,
1.067783000000003,0.0,0.0,15220.0,4.0,690.0,840.0000000000001,0.0,0.125,0.786132732,4.927455750745821,0.0,-21597.0,5.0,-727.5,-840.0000000000001,0.0,0.25,0.5566405680000001,4.9589441072402005,-0.004882811999999959,-5881.0,7.5,645.0,840.0000000000001,0.0,0.0,3.3276363780000002,4.935596828098297,0.0,-27496.0,3.5,-675.0,-840.0000000000001,0.0,0.25,1.6540525650000002,4.9531797169685365,-0.004882811999999959,0.11999999731779099,1.5700000524520874,-6.96999979019165,0.0955810546875,-0.07464599609375,1.0697021484375,35.61000061035156,0.0,75.0,3.7906494140625,-0.9805755615234375,Closing,0.0,0.0,3.0,0.0,0.0,0.0,0.0,0.0,
1.1249050000000025,0.0,0.0,15348.0,3.5,765.0,840.0,0.0,0.125,0.784912029,4.925674665072013,0.0,-21720.0,4.75,-757.5,-840.0,0.0,0.25,0.546874944,4.95715163973701,-0.004882811999999959,-5881.0,6.875,697.5,840.0,0.0,0.0,3.3276363780000002,4.933812799738249,0.0,-27496.0,3.5,-720.0,-840.0,0.0,0.25,1.6540525650000002,4.951389333070649,0.0,0.09000000357627869,1.5499999523162842,-7.079999923706055,0.1285400390625,0.04144287109375,1.0506591796875,35.61000061035156,0.0,94.0,3.804656982421875,-0.982757568359375,Closing,0.0,0.0,3.0,0.0,0.0,0.0,0.0,0.0,
1.1822390000000014,0.0,0.0,15348.0,3.125,832.5,840.0,0.0,0.125,0.784912029,4.923482549074017,0.0012207029999995456,-21720.0,3.875,-825.0,-840.0,0.0,0.25,0.534667914,4.95494551526618,-0.009765623999999917,-5764.0,6.5,772.5,840.0,0.0,0.0,3.3264156750000002,4.9316170619551345,-0.0012207029999995456,-27496.0,3.25,-780.0,-840.0,0.0,0.25,1.6540525650000002,4.949185773049461,0.0,0.09000000357627869,1.6699999570846558,-7.199999809265137,0.050048828125,0.0655517578125,0.888916015625,35.61000061035156,0.0,15.0,3.81915283203125,-0.985107421875,Closing,0.0,0.0,3.0,0.0,0.0,0.0,0.0,0.0,
1.2242930000000014,0.0,0.0,15348.0,2.625,870.0,840.0,0.0,0.125,0.784912029,4.922112480658395,-0.0012207029999995456,-21859.0,3.25,-855.0,-840.0,0.0,0.25,0.535888617,4.9535666915811305,-0.014648435999999876,-5764.0,6.125,780.0,840.0,0.0,0.0,3.3276363780000002,4.93024472993056,-0.0012207029999995456,-27623.0,3.25,-795.0,-840.0,0.0,0.25,1.6540525650000002,4.94780855214066,0.0,0.14000000059604645,1.6399999856948853,-7.269999980926514,0.06280517578125,0.09332275390625,1.09283447265625,35.61000061035156,0.0,19.0,3.83367919921875,-0.987548828125,Closing,0.0,0.0,3.0,0.0,0.0,0.0,0.0,0.0,
1.2629110000000001,0.0,0.0,15490.0,2.5,900.0,840.0,0.0,0.125,0.784912029,4.921290439609022,0.0012207029999995456,-21859.0,2.875,-892.5,-840.0,0.0,0.25,0.526122993,4.9527393973701,-0.014648435999999876,-5654.0,6.0,757.5,840.0,0.0,0.0,3.3276363780000002,4.929421330715815,0.0012207029999995456,-27623.0,2.625,-847.5,-840.0,0.0,0.25,1.6540525650000002,4.946982219595379,0.0,0.18000000715255737,1.6699999570846558,-7.289999961853027,0.04522705078125,0.00579833984375,1.38299560546875,35.61000061035156,0.0,4.0,3.848175048828125,-0.9898681640625,Closing,0.0,0.0,3.0,0.0,0.0,0.0,0.0,0.0,
1.3122390000000015,0.0,0.0,15490.0,2.25,915.0,840.0,0.0,0.125,0.7897948410000001,4.921153429500959,0.0,-21859.0,2.375,-915.0,-840.0,0.0,0.25,0.527343696,4.95260151171422,0.0,-5654.0,7.5,510.0,840.0,0.0,0.0,3.3276363780000002,4.92928409424146,-0.0012207029999995456,-27623.0,2.25,-892.5,-840.0,0.0,0.25,1.6540525650000002,4.9468444942209455,0.0,0.14000000059604645,1.6200000047683716,-7.329999923706055,0.0540771484375,-0.14422607421875,0.96246337890625,35.61000061035156,0.0,45.0,3.8622283935546875,-0.992584228515625,Closing,0.0,0.0,3.0,0.0,0.0,0.0,0.0,0.0,
1.3456320000000015,0.0,0.0,15640.0,1.875,922.5,840.0,0.0,0.125,0.799560465,4.920742412242773,0.003662109000000413,-22007.0,2.125,-922.5,-840.0,0.0,0.25,0.52490229,4.95218786789608,0.0,-5654.0,8.75,390.0,840.0,0.0,0.0,3.3276363780000002,4.928872397905986,0.0012207029999995456,-27769.0,1.875,-915.0,-840.0,0.0,0.25,1.6540525650000002,4.946431331231859,0.0,0.12999999523162842,1.6200000047683716,-7.409999847412109,0.05657958984375,-0.046875,1.03973388671875,35.61000061035156,0.0,33.0,3.8761444091796875,-0.9959259033203125,Closing,0.0,0.0,3.0,0.0,0.0,0.0,0.0,0.0,
1.3890220000000009,0.0,0.0,15640.0,1.5,937.5,840.0,0.0,0.125,0.794677653,4.919646357510276,0.004882811999999959,-22007.0,1.625,-930.0,-840.0,0.0,0.25,0.527343696,4.95108480894804,0.0,-5598.0,11.25,367.5,840.0,0.0,0.0,3.3276363780000002,4.9277745322863264,0.0,-27769.0,1.875,-900.0,-840.0,0.0,0.25,1.6625974860000001,4.945329554504818,0.0,0.14000000059604645,1.6100000143051147,-7.460000038146973,0.081787109375,0.02398681640625,1.1051025390625,35.61000061035156,0.0,47.0,3.880828857421875,-0.9969940185546875,Closing,0.0,0.0,3.0,0.0,0.0,0.0,0.0,0.0,
1.4231330000000015,0.0,0.0,15640.0,1.25,945.0,840.0,0.0,0.125,0.797119059,4.918276282561652,0.004882811999999959,-22007.0,1.5,-937.5,-840.0,0.0,0.25,0.527343696,4.9497059786882405,0.0,-5598.0,13.5,375.0,840.0,0.0,0.0,3.328857081,4.926402193717957,0.0,-27769.0,2.0,-862.5,-840.0,0.0,0.25,1.6552732680000002,4.94395232702891,0.0,0.18000000715255737,1.649999976158142,-7.599999904632568,0.01055908203125,0.0069580078125,0.82415771484375,35.61000061035156,0.0,-13.0,3.8949432373046875,-1.000213623046875,Closing,0.0,0.0,3.0,0.0,0.0,0.0,0.0,0.0,
1.4644400000000024,0.0,0.0,15640.0,0.875,967.5,840.0,0.0,0.125,0.7897948410000001,4.917043224254093,0.0012207029999995456,-22160.0,1.25,-937.5,-840.0,0.0,0.25,0.527343696,4.9484650406590704,0.0012207029999995456,-5598.0,15.25,502.5,840.0,0.0,0.0,3.3276363780000002,4.925167098167737,0.0,-27906.0,1.875,-855.0,-840.0,0.0,0.25,1.6540525650000002,4.942712831494544,0.0,0.23000000417232513,1.5700000524520874,-7.809999942779541,-0.05572509765625,-0.0447998046875,0.88751220703125,35.61000061035156,0.0,-72.0,3.8948974609375,-1.0040130615234375,Closing,0.0,0.0,3.0,0.0,0.0,0.0,0.0,0.0,
1.5241420000000034,0.0,0.0,15800.0,0.75,997.5,840.0,0.0,0.125,0.797119059,4.914166077314786,0.0024414059999999793,-22160.0,0.875,-952.5,-840.0,0.0,0.25,0.527343696,4.94556950763309,-0.0012207029999995456,-5496.0,14.25,675.0,840.0,0.0,0.0,3.3276363780000002,4.922285197644234,0.0,-27906.0,1.875,-930.0,-840.0,0.0,0.25,1.6552732680000002,4.939820664302508,0.0,0.23000000417232513,1.5800000429153442,-8.020000457763672,-0.0751953125,0.01763916015625,1.08782958984375,35.61000061035156,0.0,-106.0,3.8944091796875,-1.00653076171875,Closing,0.0,0.0,3.0,0.0,0.0,0.0,0.0,0.0,
1.5792800000000025,0.0,0.0,15800.0,0.375,1012.5,840.0,0.0,0.125,0.799560465,4.910740896476229,0.0,-22318.0,0.625,-982.5,-840.0,0.0,0.25,0.533447211,4.94212243855834,0.0,-5496.0,12.125,840.0,840.0,0.0,0.0,3.3276363780000002,4.918854357767105,0.0,-28065.0,1.375,-982.5,-840.0,0.0,0.25,1.6540525650000002,4.936377602179845,0.0,0.2800000011920929,1.559999942779541,-8.109999656677246,0.01580810546875,-0.01824951171875,1.09075927734375,35.5,0.0,-10.0,3.894073486328125,-1.00653076171875,Closing,0.0,0.0,3.0,0.0,0.0,0.0,0.0,0.0,
1.6091260000000003,0.0,0.0,15962.0,0.375,1012.5,840.0,0.0,0.125,0.798339762,4.9093708345936085,0.0012207030000004337,-22318.0,0.5,-975.0,-840.0,0.0,0.25,0.527343696,4.94074362144804,0.0,-5335.0,9.125,997.5,840.0,0.0,0.0,3.3276363780000002,4.917482032286326,0.0012207029999995456,-28065.0,0.75,-967.5,-840.0,0.0,0.25,1.6345213170000001,4.935000387838151,0.0,0.28999999165534973,1.5,-8.279999732971191,-0.0076904296875,0.04156494140625,0.9554443359375,35.5,0.0,-37.0,3.8926849365234375,-1.0070648193359375,Closing,0.0,0.0,3.0,0.0,0.0,0.0,0.0,0.0,
1.6650910000000003,0.0,0.0,15962.0,0.375,997.5,840.0,0.0,0.125,0.79345695,4.907726752494862,0.0,-22318.0,0.5,-945.0,-840.0,0.0,0.25,0.5285643990000001,4.93908903302598,0.0,-5335.0,8.625,1012.5,840.0,0.0,0.0,3.328857081,4.915835233856837,0.0012207029999995456,-28065.0,0.75,-967.5,-840.0,0.0,0.25,1.6296385050000002,4.933347722747591,0.0,0.25999999046325684,1.5399999618530273,-8.34000015258789,0.0123291015625,0.0927734375,1.07281494140625,35.5,0.0,-29.0,3.8917388916015625,-1.007293701171875,Closing,0.0,0.0,3.0,0.0,0.0,0.0,0.0,0.0,
1.6924440000000032,0.0,0.0,15962.0,0.375,967.5,840.0,0.0,0.125,0.799560465,4.906904704912488,0.0,-22466.0,0.625,-930.0,-840.0,0.0,0.25,0.527343696,4.9382617322402,0.0012207029999995456,-5335.0,7.625,1027.5,840.0,0.0,0.0,3.328857081,4.915011828098297,0.0,-28222.0,0.75,-975.0,-840.0,0.0,0.25,1.616210772,4.932521383635203,4.932365237000001,0.30000001192092896,1.5,-8.449999809265137,-0.00250244140625,-0.02587890625,0.939208984375,35.5,0.0,-22.0,3.8900299072265625,-1.007476806640625,Closing,0.0,0.0,3.0,0.0,0.0,0.0,0.0,0.0,
1.7311440000000002,0.0,0.0,16114.0,0.375,952.5,840.0,0.0,0.125,0.806884683,4.9053976329218045,0.0,-22466.0,0.5,-922.5,-840.0,0.0,0.25,0.522460884,4.93674502947402,-0.006103514999999504,-5163.0,6.875,1050.0,840.0,0.0,0.0,3.3276363780000002,4.913502266143163,0.0,-28222.0,0.625,-997.5,-840.0,0.0,0.25,1.614990069,4.931006443919076,-0.01342773300000033,0.27000001072883606,1.3799999952316284,-8.569999694824219,-0.08209228515625,-0.0609130859375,1.09906005859375,35.5,0.0,-97.0,3.887786865234375,-1.008056640625,Closing,0.0,0.0,3.0,0.0,0.0,0.0,0.0,0.0,
1.7824410000000026,0.0,0.0,16114.0,0.375,937.5,840.0,0.0,0.125,0.799560465,4.903753550823058,0.0012207029999995456,-22466.0,0.375,-937.5,-840.0,0.0,0.25,0.51269526,4.93509044105196,-0.006103514999999504,-5163.0,6.25,1087.5,840.0,0.0,0.0,3.3276363780000002,4.911855467713674,0.0,-28222.0,0.625,-1020.0,-840.0,0.0,0.25,1.619872881,4.929353778828515,-0.0012207030000004337,0.2199999988079071,1.3600000143051147,-8.649999618530273,-0.0057373046875,-0.0517578125,0.97802734375,35.5,0.0,-20.0,3.8857269287109375,-1.0087432861328125,Closing,0.0,0.0,3.0,0.0,0.0,0.0,0.0,0.0,
1.8130700000000033,0.0,0.0,16114.0,0.125,967.5,840.0,0.0,0.125,0.809326089,4.902657496090561,-0.0012207029999995456,-22624.0,0.25,-967.5,-840.0,0.0,0.25,0.507812448,4.93398738210392,-0.003662109000000413,-5163.0,5.625,1095.0,840.0,0.0,0.0,3.328857081,4.910757602094015,0.0,-28384.0,0.375,-1012.5,-840.0,0.0,0.25,1.614990069,4.928252002101474,-0.0012207030000004337,0.17000000178813934,1.25,-8.75,-0.09259033203125,-0.04412841796875,0.95745849609375,35.5,0.0,-105.0,3.881988525390625,-1.0100555419921875,Closing,0.0,0.0,3.0,0.0,0.0,0.0,0.0,0.0,
1.859107,0.0,0.0,16277.0,0.125,1012.5,840.0,0.0,0.125,0.799560465,4.901287421141937,0.0012207029999995456,-22624.0,0.125,-997.5,-840.0,0.0,0.25,0.496826121,4.93260855184412,-0.006103515000000392,-4993.0,5.25,1072.5,840.0,0.0,0.0,3.3276363780000002,4.909385263525645,-0.0012207029999995456,-28384.0,0.375,-990.0,-840.0,0.0,0.25,1.616210772,4.926874774625566,0.0012207030000004337,0.20999999344348907,1.0199999809265137,-8.829999923706055,-0.08563232421875,0.1097412109375,1.296875,35.5,0.0,-123.0,3.877410888671875,-1.011566162109375,Closing,0.0,0.0,3.0,0.0,0.0,0.0,0.0,0.0,
1.9125900000000002,0.0,0.0,16277.0,0.375,1042.5,840.0,0.0,0.125,0.799560465,4.8997803491512535,-0.0012207029999995456,-22624.0,0.125,-990.0,-840.0,0.0,0.25,0.498046824,4.93109184907794,-0.009765623999999917,-4993.0,4.875,1050.0,840.0,0.0,0.0,3.3264156750000002,4.907875701570511,0.0012207029999995456,-28384.0,0.375,-967.5,-840.0,0.0,0.25,1.613769366,4.925359834909439,0.0,0.1599999964237213,0.9800000190734863,-8.899999618530273,0.0087890625,0.01556396484375,1.0123291015625,35.5,0.0,-10.0,3.872222900390625,-1.0125274658203125,Closing,0.0,0.0,3.0,0.0,0.0,0.0,0.0,0.0,
1.9443970000000008,0.0,0.0,16440.0,0.375,1020.0,840.0,0.0,0.125,0.797119059,4.899232321785005,0.0,-22780.0,0.125,-967.5,-840.0,0.0,0.125,0.498046824,4.93054031960392,-0.004882811999999959,-4993.0,4.625,1027.5,840.0,0.0,0.0,3.328857081,4.907326768760681,0.0,-28539.0,0.375,-967.5,-840.0,0.0,0.25,1.614990069,4.924808946545919,0.0,0.09000000357627869,0.8500000238418579,-8.979999542236328,-0.0157470703125,-0.0533447265625,0.94805908203125,35.5,0.0,-20.0,3.866424560546875,-1.01287841796875,Closing,0.0,0.0,3.0,0.0,0.0,0.0,0.0,0.0,
1.995363000000001,0.0,0.0,16440.0,0.375,1005.0,840.0,0.0,0.125,0.798339762,4.898136267052507,0.0,-22780.0,0.125,-952.5,-840.0,0.0,0.25,0.498046824,4.92943726065588,0.0012207030000004337,-4829.0,4.5,1012.5,840.0,0.0,0.0,3.3276363780000002,4.906228903141022,-0.0012207029999995456,-28539.0,0.375,-952.5,-840.0,0.0,0.25,1.614990069,4.923707169818878,0.0,0.03999999910593033,0.6700000166893005,-9.050000190734863,-0.01336669921875,0.0135498046875,0.9915771484375,35.5,0.0,-26.0,3.8621368408203125,-1.01348876953125,Closing,0.0,0.0,3.0,0.0,0.0,0.0,0.0,0.0,
2.034669000000002,0.0,0.0,16440.0,0.375,982.5,840.0,0.0,0.125,0.799560465,4.896629181995821,0.0,-22780.0,0.125,-930.0,-840.0,0.0,0.25,0.47973627900000004,4.9279205447402,0.0,-4829.0,4.5,990.0,840.0,0.0,0.0,3.328857081,4.904719328098297,0.0012207029999995456,-28686.0,0.375,-930.0,-840.0,0.0,0.25,1.616210772,4.922192216968536,0.0,0.019999999552965164,0.699999988079071,-9.170000076293945,0.00946044921875,-0.02880859375,0.99017333984375,35.5,0.0,1.0,3.855010986328125,-1.0135498046875,Closing,0.0,0.0,3.0,0.0,0.0,0.0,0.0,0.0,
2.1128120000000017,0.0,0.0,16592.0,0.375,922.5,840.0,0.0,0.125,0.799560465,4.8941630523147,0.0,-22928.0,0.125,-885.0,-840.0,0.0,0.25,0.498046824,4.92543865553236,0.0,-4675.0,4.375,945.0,840.0,0.0,0.0,3.3276363780000002,4.902249123910268,0.0,-28686.0,0.625,-862.5,-840.0,0.0,0.25,1.614990069,4.919713212765588,0.0,0.03999999910593033,0.3700000047683716,-9.529999732971191,-0.06915283203125,0.05706787109375,0.8760986328125,35.439998626708984,0.0,-83.0,3.8330535888671875,-1.013824462890625,Closing,0.0,0.0,3.0,0.0,0.0,0.0,0.0,0.0,
2.180966,0.0,0.0,16592.0,0.125,900.0,840.0,0.0,0.25,0.799560465,4.890600880967085,0.0,-23066.0,0.125,-862.5,-840.0,0.0,0.25,0.498046824,4.92185372052598,0.0,-4675.0,4.375,937.5,840.0,0.0,0.125,3.3276363780000002,4.898681067190171,0.0,-28824.0,0.625,-862.5,-840.0,0.0,0.25,1.616210772,4.916132444969813,0.0,0.05999999865889549,0.2199999988079071,-9.600000381469727,-0.11480712890625,0.0213623046875,1.0772705078125,35.439998626708984,0.0,-120.0,3.82666015625,-1.0140228271484375,Closing,0.0,0.0,3.0,0.0,0.0,0.0,0.0,0.0,
2.222796000000002,0.0,0.0,16733.0,0.125,862.5,840.0,0.0,0.25,0.798339762,4.889641823276647,0.0,-23066.0,0.125,-840.0,-840.0,0.0,0.25,0.496826121,4.9208885340843205,-0.0012207030000004337,-4531.0,4.625,892.5,840.0,0.0,0.125,3.3276363780000002,4.897720424957275,-0.0012207029999995456,-28824.0,0.625,-847.5,-840.0,0.0,0.25,1.6101072570000001,4.915168380482991,0.0,0.09000000357627869,0.05000000074505806,-9.6899995803833,-0.0191650390625,-0.0301513671875,1.09735107421875,35.439998626708984,0.0,-14.0,3.813018798828125,-1.014495849609375,Closing,0.0,0.0,3.0,0.0,0.0,0.0,0.0,0.0,
2.2731680000000014,0.0,0.0,16733.0,0.0,847.5,840.0,0.0,0.25,0.798339762,4.88840877150209,0.0012207029999995456,-23200.0,0.125,-840.0,-840.0,0.0,0.25,0.498046824,4.9196476026299,0.0,-4531.0,4.875,862.5,840.0,0.0,0.125,3.3264156750000002,4.896485335950851,0.0012207029999995456,-28955.0,0.625,-817.5,-840.0,0.0,0.25,1.6052244450000002,4.913928891515732,-0.004882811999999959,0.05999999865889549,0.05999999865889549,-9.800000190734863,-0.0384521484375,0.088134765625,1.043212890625,35.439998626708984,0.0,-53.0,3.8026885986328125,-1.01531982421875,Closing,0.0,0.0,3.0,0.0,0.0,0.0,0.0,0.0,
2.331720000000001,0.0,0.0,16869.0,0.125,840.0,840.0,0.0,0.25,0.798339762,4.886901686445404,-0.0012207029999995456,-23200.0,0.25,-825.0,-840.0,0.0,0.25,0.498046824,4.91813088671422,0.0,-4393.0,5.125,855.0,840.0,0.0,0.125,3.3276363780000002,4.894975760908127,0.0,-28955.0,0.625,-795.0,-840.0,0.0,0.25,1.6064451480000002,4.91241393866539,-0.004882811999999959,0.09000000357627869,0.0,-9.979999542236328,0.03948974609375,-0.0052490234375,1.12933349609375,35.439998626708984,0.0,40.0,3.788299560546875,-1.01641845703125,Closing,0.0,0.0,3.0,0.0,0.0,0.0,0.0,0.0,
2.3886720000000023,0.0,0.0,16869.0,0.125,840.0,840.0,0.0,0.25,0.799560465,4.884435569830285,0.0,-23200.0,0.375,-802.5,-840.0,0.0,0.25,0.498046824,4.91564901065588,0.0012207030000004337,-4393.0,5.0,855.0,840.0,0.0,0.125,3.3264156750000002,4.892505569807689,0.0,-28955.0,0.75,-787.5,-840.0,0.0,0.25,1.6064451480000002,4.909934947596656,0.0,0.14000000059604645,-0.07999999821186066,-10.149999618530273,0.0050048828125,1.220703125E-4,0.99053955078125,35.439998626708984,0.0,6.0,3.777130126953125,-1.01739501953125,Closing,0.0,0.0,3.0,0.0,0.0,0.0,0.0,0.0,
2.4449570000000023,0.0,0.0,17004.0,0.125,840.0,840.0,0.0,0.25,0.799560465,4.88114739256679,0.0,-23327.0,0.375,-780.0,-840.0,0.0,0.0,0.498046824,4.91233982066226,0.0,-4393.0,5.125,847.5,840.0,0.0,0.125,3.3276363780000002,4.88921195986112,-0.0012207029999995456,-29081.0,0.75,-772.5,-840.0,0.0,0.25,1.6027830390000002,4.90662960428132,0.0,0.14000000059604645,-0.09000000357627869,-10.329999923706055,-0.00732421875,0.01092529296875,0.87744140625,35.439998626708984,0.0,-7.0,3.773406982421875,-1.0174560546875,Closing,0.0,0.0,3.0,0.0,0.0,0.0,0.0,0.0,
2.4739150000000008,0.0,0.0,17004.0,0.125,832.5,840.0,0.0,0.25,0.794677653,4.879640320576106,0.0012207029999995456,-23327.0,0.5,-787.5,-840.0,0.0,0.25,0.49926752700000004,4.91082311789608,0.0,-4258.0,5.25,840.0,840.0,0.0,0.125,3.3276363780000002,4.8877023979059855,0.0012207029999995456,-29081.0,1.0,-765.0,-840.0,0.0,0.25,1.6064451480000002,4.905114664565192,0.0,0.15000000596046448,-0.18000000715255737,-10.520000457763672,-0.02313232421875,0.08258056640625,0.917236328125,35.439998626708984,0.0,-34.0,3.7729339599609375,-1.0174560546875,Closing,0.0,0.0,3.0,0.0,0.0,0.0,0.0,0.0,
2.531469000000001,0.0,0.0,17137.0,0.125,832.5,840.0,0.0,0.25,0.794677653,4.877037180786923,-0.006103514999999504,-23454.0,0.5,-795.0,-840.0,0.0,0.25,0.498046824,4.90820334303236,0.0,-4258.0,5.25,832.5,840.0,0.0,0.125,3.3264156750000002,4.885094957243601,-0.0012207029999995456,-29203.0,1.0,-757.5,-840.0,0.0,0.25,1.6052244450000002,4.90249793498781,0.0,0.1599999964237213,-0.25,-10.649999618530273,-0.07952880859375,0.03704833984375,1.02398681640625,35.439998626708984,0.0,-79.0,3.772552490234375,-1.0175018310546875,Closing,0.0,0.0,3.0,0.0,0.0,0.0,0.0,0.0,
2.5859120000000004,0.0,0.0,17137.0,0.125,825.0,840.0,0.0,0.25,0.795898356,4.875256101646117,-0.006103514999999504,-23454.0,0.625,-795.0,-840.0,0.0,0.25,0.495605418,4.90641088210392,-0.0012207030000004337,-4122.0,5.125,840.0,840.0,0.0,0.125,3.337402002,4.883310935427348,0.0012207029999995456,-29203.0,1.25,-750.0,-840.0,0.0,0.25,1.6052244450000002,4.90070755765703,0.0,0.18000000715255737,-0.27000001072883606,-10.739999771118164,0.0799560546875,4.2724609375E-4,0.94873046875,35.40999984741211,0.0,83.0,3.7721710205078125,-1.0174102783203125,Closing,0.0,0.0,3.0,0.0,0.0,0.0,0.0,0.0,
2.6395430000000015,0.0,0.0,17137.0,0.125,825.0,840.0,0.0,0.25,0.794677653,4.872515951748869,0.0,-23454.0,0.5,-810.0,-840.0,0.0,0.25,0.498046824,4.90365322158432,0.0,-4122.0,5.0,862.5,840.0,0.0,0.125,3.328857081,4.880566258290609,-0.0012207029999995456,-29203.0,1.25,-742.5,-840.0,0.0,0.25,1.6076658510000001,4.8979531027052134,0.0,0.25999999046325684,-0.2800000011920929,-10.970000267028809,-0.0682373046875,-0.03106689453125,1.1065673828125,35.40999984741211,0.0,-54.0,3.7714385986328125,-1.016754150390625,Closing,0.0,0.0,3.0,0.0,0.0,0.0,0.0,0.0,
2.6692800000000023,0.0,0.0,17137.0,0.125,825.0,840.0,0.0,0.25,0.79345695,4.870871869650123,0.0,-23586.0,0.5,-825.0,-840.0,0.0,0.25,0.496826121,4.90199863316226,0.0,-4122.0,4.875,870.0,840.0,0.0,0.125,3.3276363780000002,4.87891945986112,-0.0012207029999995456,-29325.0,1.375,-750.0,-840.0,0.0,0.25,1.6052244450000002,4.896300437614653,0.0,0.23000000417232513,-0.27000001072883606,-11.069999694824219,-0.02215576171875,0.04864501953125,0.9530029296875,35.40999984741211,0.0,-25.0,3.770965576171875,-1.0164031982421875,Closing,0.0,0.0,3.0,0.0,0.0,0.0,0.0,0.0,
2.7212680000000002,0.0,0.0,17270.0,0.125,825.0,840.0,0.0,0.25,0.794677653,4.868953780401254,0.0012207029999995456,-23586.0,0.5,-825.0,-840.0,0.0,0.25,0.50048823,4.90006828657794,0.0012207030000004337,-3983.0,4.875,862.5,840.0,0.0,0.125,3.3276363780000002,4.876998201570511,0.0012207029999995456,-29325.0,1.375,-772.5,-840.0,0.0,0.25,1.596679524,4.8943723349094395,0.0,0.27000001072883606,-0.4000000059604645,-11.180000305175781,-0.0477294921875,-0.00946044921875,1.12603759765625,35.40999984741211,0.0,-36.0,3.77008056640625,-1.015716552734375,Closing,0.0,0.0,3.0,0.0,0.0,0.0,0.0,0.0,
2.7593080000000008,0.0,0.0,17270.0,0.125,817.5,840.0,0.0,0.25,0.7922362470000001,4.867994722710816,-0.0012207029999995456,-23716.0,0.625,-817.5,-840.0,0.0,0.25,0.47973627900000004,4.89910310013628,-0.004882811999999959,-3983.0,4.875,855.0,840.0,0.0,0.125,3.3154293480000003,4.876037559337616,0.0,-29452.0,1.25,-780.0,-840.0,0.0,0.25,1.585693197,4.893408270422618,-0.009765623999999917,0.25,-0.3499999940395355,-11.25,-0.054931640625,0.0770263671875,0.97283935546875,35.40999984741211,0.0,-62.0,3.7690277099609375,-1.0152587890625,Closing,0.0,0.0,3.0,0.0,0.0,0.0,0.0,0.0,
2.807818000000003,0.0,0.0,17400.0,0.125,810.0,839.9999999999999,0.0,0.25,0.786132732,4.866487650720133,0.0,-23716.0,0.875,-795.0,-839.9999999999999,0.0,0.25,0.468749952,4.8975863973701,0.0,-3845.0,4.75,855.0,839.9999999999999,0.0,0.125,3.3129879420000004,4.874527997382482,0.0,-29452.0,1.25,-817.5,-839.9999999999999,0.0,0.25,1.591796712,4.89189333070649,0.0,0.2199999988079071,-0.3499999940395355,-11.449999809265137,-0.076904296875,-0.1419677734375,1.17657470703125,35.40999984741211,0.0,-39.0,3.766815185546875,-1.0150604248046875,Closing,0.0,0.0,3.0,0.0,0.0,0.0,0.0,0.0,
2.869576000000001,0.0,0.0,17400.0,0.125,802.5,840.0,0.0,0.25,0.784912029,4.864295541255138,-0.008544921000000372,-23841.0,1.125,-780.0,-840.0,0.0,0.25,0.47363276400000004,4.89538027947402,-0.010986327000000351,-3845.0,4.875,847.5,840.0,0.0,0.125,3.3142086450000003,4.872332266143164,-0.004882811999999959,-29580.0,1.375,-795.0,-840.0,0.0,0.25,1.593017415,4.889689777252409,0.003662108999999525,0.18000000715255737,-0.3400000035762787,-11.59000015258789,-0.01934814453125,0.05487060546875,0.87255859375,35.40999984741211,0.0,-24.0,3.765045166015625,-1.015533447265625,Closing,0.0,0.0,3.0,0.0,0.0,0.0,0.0,0.0,
2.971800000000003,0.0,0.0,17529.0,0.125,810.0,840.0,0.0,0.25,0.771484296,4.862103431790143,-0.012207029999999897,-23841.0,1.125,-787.5,-840.0,0.0,0.25,0.46386714,4.89317416157794,-0.003662109000000413,-3712.0,4.875,825.0,840.0,0.0,0.125,3.3142086450000003,4.870136534903844,0.0,-29580.0,1.625,-765.0,-840.0,0.0,0.25,1.5869139,4.887486223798328,-0.0024414059999999793,0.1599999964237213,-0.3199999928474426,-11.640000343322754,-0.01458740234375,0.00244140625,0.991455078125,35.40999984741211,0.0,-8.0,3.763763427734375,-1.01605224609375,Closing,0.0,0.0,3.0,0.0,0.0,0.0,0.0,0.0,
3.0130490000000028,0.0,0.0,17529.0,0.125,802.5,840.0,0.0,0.25,0.767822187,4.861418394315831,0.0,-23971.0,1.125,-787.5,-840.0,0.0,0.25,0.46386714,4.89248474644804,0.0,-3712.0,5.0,825.0,840.0,0.0,0.125,3.3142086450000003,4.8694503656196595,0.0,-29707.0,1.625,-780.0,-840.0,0.0,0.25,1.590576009,4.886797610060374,0.0,0.15000000596046448,-0.3199999928474426,-11.680000305175781,0.05322265625,-0.01837158203125,1.04803466796875,35.40999984741211,0.0,62.0,3.7631683349609375,-1.016448974609375,Closing,0.0,0.0,3.0,0.0,0.0,0.0,0.0,0.0,
3.0512900000000007,0.0,0.0,17658.0,0.125,802.5,0.0,0.0,0.25,0.770263593,0.01,-0.004882811999999959,-23971.0,0.75,-802.5,-0.0,0.0,0.25,0.46386714,0.01,0.0,-3580.0,3.5,825.0,0.0,0.0,0.0,3.3142086450000003,0.01,0.0,-29707.0,0.875,-817.5,-0.0,0.0,0.25,1.588134603,0.01,-0.0012207029999995456,0.10999999940395355,-0.23000000417232513,-11.710000038146973,0.04644775390625,0.1036376953125,0.79278564453125,35.40999984741211,0.0,27.0,3.76226806640625,-1.017486572265625,Closing,0.0,0.0,3.0,0.0,0.0,0.0,0.0,0.0,
3.0885830000000025,0.0,0.0,17658.0,0.125,795.0,0.0,0.0,0.25,0.7751464050000001,0.01,0.0024414059999999793,-23971.0,0.25,-735.0,-0.0,0.0,0.25,0.46752924900000004,0.01,-0.0012207029999995456,-3580.0,2.25,817.5,0.0,0.0,0.0,3.3203121600000003,0.01,0.0,-29707.0,0.5,-817.5,-0.0,0.0,0.25,1.6015623360000002,0.01,0.004882811999999959,0.1899999976158142,-0.550000011920929,-11.699999809265137,-0.39813232421875,-0.03857421875,1.10980224609375,35.41999816894531,0.0,-370.0,3.760650634765625,-1.0186309814453125,Closing,0.0,0.0,3.0,0.0,0.0,0.0,0.0,0.0,
3.1226280000000006,0.0,0.0,17658.0,0.0,772.5,0.0,0.0,0.25,0.78124992,0.01,0.0024414059999999793,-23971.0,0.125,-667.5,-0.0,0.0,0.25,0.46386714,0.01,-0.0012207029999995456,-3580.0,0.375,757.5,0.0,0.0,0.0,3.3239742690000003,0.01,0.0,-29812.0,0.125,-705.0,-0.0,0.0,0.25,1.5869139,0.01,0.004882811999999959,0.1599999964237213,-0.75,-11.75,-0.1973876953125,-0.00286865234375,0.92529296875,35.41999816894531,0.0,-180.0,3.757965087890625,-1.019989013671875,Closing,0.0,0.0,3.0,0.0,0.0,0.0,0.0,0.0,
3.153755000000001,0.0,0.0,17768.0,0.375,682.5,0.0,0.0,0.25,0.794677653,0.01,0.014648435999999876,-24063.0,0.125,-540.0,-0.0,0.0,0.0,0.46386714,0.01,0.0,-3500.0,0.125,615.0,0.0,0.0,0.0,3.342284814,0.01,0.012207029999999897,-29812.0,0.125,-592.5,-0.0,0.0,0.25,1.6015623360000002,0.01,-0.003662109000000413,0.2199999988079071,-1.0299999713897705,-11.75,-0.0924072265625,-0.03582763671875,1.06634521484375,35.41999816894531,0.0,-63.0,3.7519073486328125,-1.0225067138671875,Closing,0.0,0.0,3.0,0.0,0.0,0.0,0.0,0.0,
3.201417000000001,0.0,0.0,17768.0,0.625,607.5,0.0,0.0,0.25,0.799560465,0.01,0.009765623999999917,-24063.0,0.125,-555.0,-0.0,0.0,0.0,0.46386714,0.01,0.0012207029999995456,-3500.0,0.375,472.5,0.0,0.0,0.0,3.345946923,0.01,0.017089841999999855,-29812.0,0.125,-562.5,-0.0,0.0,0.25,1.6015623360000002,0.01,0.01586913900000031,0.2199999988079071,-1.190000057220459,-11.710000038146973,-0.2298583984375,0.07086181640625,1.1533203125,35.41999816894531,0.0,-214.0,3.7494964599609375,-1.0234527587890625,Closing,0.0,0.0,3.0,0.0,0.0,0.0,0.0,0.0,
3.2451360000000022,0.0,0.0,17768.0,0.625,570.0,0.0,0.0,0.125,0.799560465,0.01,0.003662109000000413,-24063.0,0.5,-577.5,-0.0,0.0,0.0,0.465087843,0.01,0.0,-3500.0,0.125,427.5,0.0,0.0,0.0,3.350829735,0.01,0.003662109000000413,-29896.0,0.125,-555.0,-0.0,0.0,0.25,1.6101072570000001,0.01,0.0012207029999995456,0.20999999344348907,-1.5099999904632568,-11.619999885559082,-0.1121826171875,0.00738525390625,1.03155517578125,35.41999816894531,0.0,-83.0,3.74053955078125,-1.026214599609375,Closing,0.0,0.0,3.0,0.0,0.0,0.0,0.0,0.0,
3.2748140000000023,0.0,0.0,17839.0,0.75,435.0,0.0,0.0,0.125,0.7775878110000001,0.01,0.0,-24144.0,0.875,-450.0,-0.0,0.0,0.0,0.46386714,0.01,0.0,-3432.0,0.125,442.5,0.0,0.0,0.0,3.355712547,0.01,0.004882811999999959,-29896.0,0.125,-480.0,-0.0,0.0,0.25,1.621093584,0.01,0.01586913900000031,0.23999999463558197,-2.0,-11.649999618530273,-0.22760009765625,0.0028076171875,1.05377197265625,35.41999816894531,0.0,-186.0,3.721954345703125,-1.0263671875,Closing,0.0,0.0,3.0,0.0,0.0,0.0,0.0,0.0,
3.3279670000000006,0.0,0.0,17839.0,0.75,405.0,0.0,0.0,0.125,0.799560465,0.01,0.0,-24144.0,0.875,-405.0,-0.0,0.0,0.0,0.46386714,0.01,0.0,-3432.0,0.125,405.0,0.0,0.0,0.0,3.355712547,0.01,0.004882811999999959,-29896.0,0.125,-390.0,-0.0,0.0,0.125,1.622314287,0.01,0.01586913900000031,0.23999999463558197,-2.0899999141693115,-11.649999618530273,-0.15203857421875,-0.01849365234375,1.0179443359375,35.41999816894531,0.0,-107.0,3.717620849609375,-1.026519775390625,Closing,0.0,0.0,3.0,0.0,0.0,0.0,0.0,0.0,
3.381425000000003,0.0,0.0,17839.0,0.625,292.5,0.0,0.0,0.125,0.798339762,0.01,0.0,-24186.0,0.875,-322.5,-0.0,0.0,0.0,0.46386714,0.01,0.0,-3432.0,0.125,315.0,0.0,0.0,0.0,3.355712547,0.01,0.004882811999999959,-29941.0,0.125,-300.0,-0.0,0.0,0.125,1.619872881,0.01,0.0012207029999995456,0.23999999463558197,-2.380000114440918,-11.609999656677246,-0.16912841796875,-0.0086669921875,0.97576904296875,35.41999816894531,0.0,-123.0,3.7036285400390625,-1.0272216796875,Closing,0.0,0.0,3.0,0.0,0.0,0.0,0.0,0.0,
3.4091540000000022,0.0,0.0,17875.0,0.625,247.5,0.0,0.0,0.125,0.798339762,0.01,0.0,-24186.0,0.875,-240.0,-0.0,0.0,0.25,0.46386714,0.01,0.0,-3400.0,0.375,225.0,0.0,0.0,0.0,3.352050438,0.01,0.0,-29941.0,0.125,-262.5,-0.0,0.0,0.125,1.624755693,0.01,0.0,0.23999999463558197,-2.630000114440918,-11.539999961853027,-0.14935302734375,0.00921630859375,1.1356201171875,35.41999816894531,0.0,-95.0,3.6881103515625,-1.0282745361328125,Closing,0.0,0.0,3.0,0.0,0.0,0.0,0.0,0.0,
3.445107,0.0,0.0,17875.0,0.625,157.5,0.0,0.0,0.125,0.799560465,0.01,0.0,-24186.0,0.5,-172.5,-0.0,0.0,0.0,0.468749952,0.01,-0.0012207029999995456,-3400.0,0.375,195.0,0.0,0.0,0.0,3.3630367650000004,0.01,-4.935517188,-29941.0,0.0,-180.0,-0.0,0.0,0.125,1.624755693,0.01,0.003662109000000413,0.2199999988079071,-2.75,-11.520000457763672,-0.11614990234375,0.02325439453125,0.97100830078125,35.41999816894531,0.0,-71.0,3.677093505859375,-1.029144287109375,Closing,0.0,0.0,3.0,0.0,0.0,0.0,0.0,0.0,
3.476939000000002,0.0,0.0,17875.0,0.125,52.5,0.0,0.0,0.125,0.799560465,0.01,0.0012207029999995456,-24195.0,0.375,-60.0,-0.0,0.0,0.0,0.483398388,0.01,0.004882811999999959,-3400.0,0.375,157.5,0.0,0.0,0.0,3.3618160620000004,0.01,0.0,-29951.0,0.125,-67.5,-0.0,0.0,0.125,1.625976396,0.01,0.0,0.23000000417232513,-2.9000000953674316,-11.529999732971191,-0.04583740234375,0.01611328125,1.02581787109375,35.41999816894531,0.0,3.0,3.6538848876953125,-1.031036376953125,Closing,0.0,0.0,3.0,0.0,0.0,0.0,0.0,0.0,
3.533005000000001,0.0,0.0,17880.0,0.125,30.0,0.0,0.0,0.125,0.799560465,0.01,0.0012207029999995456,-24195.0,0.375,-30.0,-0.0,0.0,0.25,0.4882812,0.01,0.004882811999999959,-3379.0,0.375,157.5,0.0,0.0,0.0,3.35693325,0.01,0.0,-29951.0,0.125,-37.5,-0.0,0.0,0.125,1.624755693,0.01,0.0,0.25,-2.890000104904175,-11.529999732971191,-0.01519775390625,0.0311279296875,1.0302734375,35.41999816894531,0.0,30.0,3.642242431640625,-1.031005859375,Closing,0.0,0.0,3.0,0.0,0.0,0.0,0.0,0.0,
3.5867880000000003,0.0,0.0,17880.0,0.125,0.0,0.0,0.0,0.125,0.797119059,0.01,0.0,-24195.0,0.125,0.0,-0.0,0.0,0.25,0.49438471500000003,0.01,0.014648435999999876,-3379.0,0.375,97.5,0.0,0.0,0.0,3.355712547,0.01,0.0,-29951.0,0.125,0.0,-0.0,0.0,0.125,1.624755693,0.01,0.0,0.23999999463558197,-2.740000009536743,-11.569999694824219,0.0076904296875,-0.00244140625,1.0218505859375,35.40999984741211,0.0,56.0,3.6197662353515625,-1.030853271484375,Closing,0.0,0.0,3.0,0.0,0.0,0.0,0.0,0.0,
3.6406340000000017,0.0,0.0,17877.0,0.125,-15.0,420.0,0.0,0.125,0.7910155440000001,0.5498168668524888,-0.0012207029999995456,-24195.0,0.0,0.0,-420.0,0.0,0.25,0.4882812,1.9285545897722227,0.006103515000000392,-3379.0,0.375,22.5,420.0,0.0,0.0,3.350829735,4.389674732977289,4.935517188,-29951.0,0.125,0.0,-420.0,0.0,0.125,1.624755693,3.0316872062785585,0.0,0.2199999988079071,-2.5899999141693115,-11.579999923706055,0.02423095703125,-0.01318359375,1.01904296875,35.40999984741211,0.0,72.0,3.6038818359375,-1.030853271484375,Closing,0.0,0.0,3.0,0.0,0.0,0.0,0.0,0.0,
3.668817000000003,0.0,0.0,17877.0,0.0,0.0,420.0,0.0,1.875,0.889892487,0.5498168668524888,0.0,-24195.0,0.0,0.0,-420.0,0.0,8.25,0.676269462,1.9285545897722227,-0.0012207030000004337,-3380.0,1.75,0.0,420.0,0.0,1.375,3.2678219310000003,4.389674732977289,-0.004882811999999959,-29951.0,0.625,0.0,-420.0,0.0,7.75,1.365966657,3.0316872062785585,0.0,0.23000000417232513,-2.4700000286102295,-11.569999694824219,0.00323486328125,-0.066650390625,1.04931640625,35.40999984741211,0.0,61.0,3.5889739990234375,-1.030792236328125,Closing,0.0,0.0,3.0,0.0,0.0,0.0,0.0,0.0,
3.715425000000003,0.0,0.0,17877.0,0.125,7.5,420.0,0.0,1.625,1.041259659,0.5498168668524888,0.0012207029999995456,-24195.0,0.125,-45.0,-420.0,0.0,8.125,0.913085844,1.9285545897722227,0.0,-3380.0,2.5,0.0,420.0,0.0,2.0,3.143310225,4.389674732977289,0.0,-29951.0,0.625,0.0,-420.0,0.0,8.375,1.166992068,3.0316872062785585,0.0,0.23999999463558197,-2.380000114440918,-11.550000190734863,-0.0096435546875,0.02020263671875,1.02301025390625,35.40999984741211,0.0,29.0,3.579559326171875,-1.030975341796875,Closing,0.0,0.0,3.0,0.0,0.0,0.0,0.0,0.0,
3.745925000000003,0.0,0.0,17882.0,0.125,15.0,420.0,0.0,1.0,1.247558466,0.5498168668524888,-4.650268606999999,-24212.0,0.125,-75.0,-420.0,0.0,1.5,1.1901854250000001,1.9285545897722227,0.469970655,-3380.0,3.375,7.5,420.0,0.0,0.625,2.988280944,4.389674732977289,-0.23071286700000027,-29952.0,0.75,-7.5,-420.0,0.0,1.75,0.8935545960000001,3.0316872062785585,-0.48706049699999987,0.2199999988079071,-2.2100000381469727,-11.529999732971191,0.05059814453125,0.0177001953125,1.04168701171875,35.40999984741211,0.0,86.0,3.5662384033203125,-1.0310516357421875,Closing,0.0,0.0,3.0,0.0,0.0,0.0,0.0,0.0,
3.7846410000000033,0.0,0.0,17882.0,0.125,30.0,420.0,0.0,0.625,1.301269398,0.5498168668524888,-4.650268606999999,-24212.0,0.125,-150.0,-420.0,0.0,1.25,1.433105322,1.9285545897722227,0.469970655,-3370.0,3.875,30.0,420.0,0.0,0.5,2.8906247040000004,4.389674732977289,-0.23071286700000027,-29952.0,1.0,-15.0,-420.0,0.0,1.75,0.639648372,3.0316872062785585,-0.48706049699999987,0.2199999988079071,-2.0999999046325684,-11.539999961853027,0.0076904296875,0.06414794921875,0.95806884765625,35.40999984741211,0.0,29.0,3.55792236328125,-1.0309295654296875,Closing,0.0,0.0,3.0,0.0,0.0,0.0,0.0,0.0,
3.83068,0.0,0.0,17882.0,0.125,67.5,420.0,0.0,0.375,1.36718736,0.5498168668524888,0.16479490499999994,-24212.0,0.125,-202.5,-420.0,0.0,1.25,1.8420408270000002,1.9285545897722227,0.3271484039999999,-3370.0,4.125,97.5,420.0,0.0,0.125,2.818603227,4.389674732977289,-0.16723631099999992,-29952.0,1.625,-82.5,-420.0,0.0,2.125,0.29296872,3.0316872062785585,-0.2868652050000007,0.23000000417232513,-2.0,-11.6899995803833,0.0047607421875,0.09832763671875,1.00628662109375,35.40999984741211,0.0,20.0,3.545806884765625,-1.0302581787109375,Closing,0.0,0.0,3.0,0.0,0.0,0.0,0.0,0.0,
3.867117000000002,0.0,0.0,17882.0,0.125,142.5,420.0,0.0,0.375,1.3757322810000001,0.5498168668524888,0.07202147700000006,-24244.0,0.25,-210.0,-420.0,0.0,1.25,2.1740720430000002,1.9285545897722227,0.24169919400000062,-3370.0,4.125,120.0,420.0,0.0,0.125,2.774657919,4.389674732977289,-0.0805663980000002,-29965.0,2.125,-82.5,-420.0,0.0,1.875,4.909667466,3.0316872062785585,-0.22583005499999942,0.20999999344348907,-1.9600000381469727,-11.90999984741211,-0.0921630859375,-0.046630859375,1.05859375,35.40999984741211,0.0,-44.0,3.5378875732421875,-1.0296478271484375,Closing,0.0,0.0,3.0,0.0,0.0,0.0,0.0,0.0,
3.909353000000003,0.0,0.0,17911.0,0.375,180.0,420.0,0.0,0.125,1.376952984,0.5498168668524888,0.05737304099999996,-24244.0,0.5,-165.0,-420.0,0.0,1.0,2.4304196730000003,1.9285545897722227,0.7312010969999996,-3349.0,4.0,127.5,420.0,0.0,0.125,2.755126671,4.389674732977289,-0.10253905200000002,-29965.0,2.625,-60.0,-420.0,0.0,1.875,4.709472174,3.0316872062785585,-0.687980906,0.1599999964237213,-1.9700000286102295,-12.210000038146973,-0.02069091796875,0.00830078125,0.944091796875,35.40999984741211,0.0,10.0,3.5338897705078125,-1.0292205810546875,Closing,0.0,0.0,3.0,0.0,0.0,0.0,0.0,0.0,
3.940675000000003,0.0,0.0,17911.0,0.375,172.5,420.0,0.0,0.125,1.376952984,0.5498168668524888,0.05737304099999996,-24244.0,0.625,-142.5,-420.0,0.0,1.0,2.495116932,1.9285545897722227,0.7312010969999996,-3349.0,4.375,142.5,420.0,0.0,0.0,2.7453610470000003,4.389674732977289,-0.014648435999999876,-29980.0,2.875,-52.5,-420.0,0.0,0.125,4.615478043,3.0316872062785585,-0.18432615299999977,0.25999999046325684,-2.0799999237060547,-13.279999732971191,-0.11590576171875,0.07293701171875,1.013916015625,35.40999984741211,0.0,-92.0,3.53369140625,-1.0290374755859375,Closing,0.0,0.0,3.0,0.0,0.0,0.0,0.0,0.0,
3.9879580000000026,0.0,0.0,17911.0,0.5,135.0,420.0,0.0,0.125,1.3684080630000002,0.5498168668524888,0.0012207029999999897,-24268.0,1.625,-150.0,-420.0,0.0,0.0,2.5415036460000002,1.9285545897722227,0.18066404400000025,-3349.0,4.875,157.5,420.0,0.0,0.0,2.725829799,4.389674732977289,-0.014648435999999876,-29980.0,3.0,-82.5,-420.0,0.0,0.25,4.606933122,3.0316872062785585,-0.18432615299999977,0.25999999046325684,-2.0799999237060547,-13.279999732971191,-0.11590576171875,0.07293701171875,1.013916015625,35.40999984741211,0.0,-92.0,3.53369140625,-1.0290374755859375,Closing,0.0,0.0,3.0,0.0,0.0,0.0,0.0,0.0,
4.015379000000001,0.0,0.0,17934.0,0.5,142.5,420.0,0.0,0.125,1.3757322810000001,0.5498168668524888,-0.0012207029999999897,-24268.0,1.75,-165.0,-420.0,0.0,0.25,2.545165755,1.9285545897722227,0.10742186399999998,-3321.0,5.0,172.5,420.0,0.0,0.0,2.725829799,4.389674732977289,-0.009765623999999917,-29980.0,2.625,-150.0,-420.0,0.0,0.25,4.60205031,3.0316872062785585,-0.0927734280000001,0.36000001430511475,-2.119999885559082,-14.289999961853027,-0.03057861328125,0.04559326171875,0.99444580078125,35.40999984741211,0.0,-3.0,3.5326995849609375,-1.028533935546875,Closing,0.0,0.0,3.0,0.0,0.0,0.0,0.0,0.0,
4.048979000000003,0.0,0.0,17934.0,0.5,180.0,420.0,0.0,0.125,1.3745115780000001,0.5498168668524888,0.0012207029999999897,-24268.0,1.25,-202.5,-420.0,0.0,0.25,2.521972398,1.9285545897722227,-0.0024414059999999793,-3321.0,5.25,172.5,420.0,0.0,0.0,2.730712611,4.389674732977289,-0.02075195100000027,-29980.0,2.5,-187.5,-420.0,0.0,0.25,4.6008296070000005,3.0316872062785585,-0.017089841999999855,0.38999998569488525,-2.0899999141693115,-15.510000228881836,-0.03607177734375,-0.03778076171875,0.986572265625,35.40999984741211,0.0,12.0,3.53179931640625,-1.0278472900390625,Closing,0.0,0.0,3.0,0.0,0.0,0.0,0.0,0.0,
4.107833000000002,0.0,0.0,17977.0,0.75,240.0,420.0,0.0,0.125,1.376952984,0.5498168668524888,-0.0012207029999999897,-24315.0,1.125,-262.5,-420.0,0.0,0.25,2.4890134170000002,1.9285545897722227,-0.03906249600000011,-3321.0,6.375,120.0,420.0,0.0,0.125,2.7465817500000003,4.389674732977289,0.01586913900000031,-30026.0,2.375,-292.5,-420.0,0.0,0.25,4.586181171000001,3.0316872062785585,0.0,0.38999998569488525,-1.9900000095367432,-16.969999313354492,0.00201416015625,-0.01995849609375,1.07049560546875,35.41999816894531,0.0,45.0,3.5311126708984375,-1.027435302734375,Closing,0.0,0.0,3.0,0.0,0.0,0.0,0.0,0.0,
4.138327000000001,0.0,0.0,17977.0,0.5,277.5,420.0,0.0,0.125,1.376952984,0.5498168668524888,0.0012207029999999897,-24315.0,0.875,-330.0,-420.0,0.0,0.25,2.464599357,1.9285545897722227,-0.014648435999999876,-3311.0,6.75,60.0,420.0,0.0,0.0,2.755126671,4.389674732977289,0.003662109000000413,-30026.0,2.25,-352.5,-420.0,0.0,0.25,4.587401874,3.0316872062785585,-0.01586913900000031,0.4300000071525574,-1.9199999570846558,-18.649999618530273,-0.0169677734375,0.02447509765625,1.10650634765625,35.41999816894531,0.0,13.0,3.5308837890625,-1.0268402099609375,Closing,0.0,0.0,3.0,0.0,0.0,0.0,0.0,0.0,
4.186455000000001,0.0,0.0,17977.0,0.5,292.5,420.0,0.0,0.125,1.384277202,0.5498168668524888,0.0012207029999999897,-24315.0,0.75,-337.5,-420.0,0.0,0.25,2.445068109,1.9285545897722227,-0.014648435999999876,-3311.0,8.0,30.0,420.0,0.0,0.0,2.755126671,4.389674732977289,0.003662109000000413,-30026.0,2.0,-375.0,-420.0,0.0,0.25,4.580077656,3.0316872062785585,-0.01586913900000031,0.47999998927116394,-1.809999942779541,-19.8799991607666,0.00555419921875,-0.0228271484375,0.95098876953125,35.41999816894531,0.0,44.0,3.530914306640625,-1.026336669921875,Closing,0.0,0.0,3.0,0.0,0.0,0.0,0.0,0.0,
4.213699,0.0,0.0,18033.0,0.375,345.0,420.0,0.0,0.125,1.3757322810000001,0.5498168668524888,-0.0012207029999999897,-24374.0,0.5,-360.0,-420.0,0.0,0.125,2.4304196730000003,1.9285545897722227,-0.04516601100000006,-3311.0,9.5,37.5,420.0,0.0,0.0,2.761230186,4.389674732977289,0.010986326999999463,-30091.0,1.625,-412.5,-420.0,0.0,0.25,4.582519062,3.0316872062785585,-0.003662109000000413,0.5600000023841858,-1.7200000286102295,-21.84000015258789,0.0159912109375,0.0205078125,1.050048828125,35.41999816894531,0.0,40.0,3.5311279296875,-1.0254974365234375,Closing,0.0,0.0,3.0,0.0,0.0,0.0,0.0,0.0,
4.269341000000001,0.0,0.0,18033.0,0.375,390.0,420.0,0.0,0.125,1.3757322810000001,0.5498168668524888,0.0012207029999999897,-24374.0,0.25,-412.5,-420.0,0.0,0.125,2.4255368610000003,1.9285545897722227,0.0,-3301.0,10.0,60.0,420.0,0.0,0.0,2.760009483,4.389674732977289,0.0,-30091.0,1.25,-435.0,-420.0,0.0,0.25,4.6057124190000005,3.0316872062785585,0.0,0.6700000166893005,-1.5700000524520874,-24.670000076293945,-0.00775146484375,0.035400390625,1.005615234375,35.41999816894531,0.0,8.0,3.5317840576171875,-1.023773193359375,Closing,0.0,0.0,3.0,0.0,0.0,0.0,0.0,0.0,
4.3209440000000034,0.0,0.0,18033.0,0.125,405.0,420.0,0.0,0.125,1.3757322810000001,0.5498168668524888,-0.0012207029999999897,-24374.0,0.125,-435.0,-420.0,0.0,0.125,2.4255368610000003,1.9285545897722227,-0.018310544999999845,-3301.0,10.5,67.5,420.0,0.0,0.0,2.756347374,4.389674732977289,0.004882811999999959,-30172.0,0.75,-472.5,-420.0,0.0,0.25,4.621581558,3.0316872062785585,0.003662109000000413,0.699999988079071,-1.5299999713897705,-26.190000534057617,-0.0068359375,0.0169677734375,1.085693359375,35.41999816894531,0.0,18.0,3.532318115234375,-1.0226593017578125,Closing,0.0,0.0,3.0,0.0,0.0,0.0,0.0,0.0,
4.349923000000002,0.0,0.0,18106.0,0.125,442.5,420.0,0.0,0.125,1.376952984,0.5498168668524888,0.0,-24450.0,0.125,-465.0,-420.0,0.0,0.125,2.4255368610000003,1.9285545897722227,0.0,-3301.0,11.625,60.0,420.0,0.0,0.0,2.760009483,4.389674732977289,0.0,-30172.0,0.75,-502.5,-420.0,0.0,0.25,4.647216321,3.0316872062785585,0.03662108999999969,0.6899999976158142,-1.399999976158142,-28.600000381469727,0.030029296875,0.00848388671875,0.982177734375,35.41999816894531,0.0,49.0,3.533355712890625,-1.022705078125,Closing,0.0,0.0,3.0,0.0,0.0,0.0,0.0,0.0,
4.390198000000001,0.0,0.0,18106.0,0.125,450.0,420.0,0.0,0.125,1.376952984,0.5498168668524888,0.0,-24450.0,0.125,-457.5,-420.0,0.0,0.125,2.4255368610000003,1.9285545897722227,0.0,-3290.0,11.875,67.5,420.0,0.0,0.0,2.761230186,4.389674732977289,0.0,-30172.0,0.625,-517.5,-420.0,0.0,0.25,4.639892103,3.0316872062785585,0.03662108999999969,0.7200000286102295,-1.3300000429153442,-30.299999237060547,-0.0025634765625,-0.01959228515625,1.12628173828125,35.41999816894531,0.0,37.0,3.5343475341796875,-1.0227203369140625,Closing,0.0,0.0,3.0,0.0,0.0,0.0,0.0,0.0,
4.442705000000002,0.0,0.0,18106.0,0.125,442.5,420.0,0.0,0.125,1.376952984,0.5498168668524888,0.0,-24450.0,0.125,-420.0,-420.0,0.0,0.125,2.4279782670000003,1.9285545897722227,0.0,-3290.0,12.625,75.0,420.0,0.0,0.0,2.764892295,4.389674732977289,0.0,-30172.0,0.625,-540.0,-420.0,0.0,0.125,4.639892103,3.0316872062785585,0.0,0.8299999833106995,-1.1799999475479126,-33.939998626708984,-0.0263671875,-0.056640625,1.12786865234375,35.41999816894531,0.0,38.0,3.5372161865234375,-1.02294921875,Closing,0.0,0.0,3.0,0.0,0.0,0.0,0.0,0.0,
4.471368000000002,0.0,0.0,18178.0,0.125,435.0,420.0,0.0,0.125,1.3757322810000001,0.5498168668524888,0.0012207029999999897,-24518.0,0.125,-427.5,-420.0,0.0,0.125,2.4267575640000003,1.9285545897722227,-0.0012207029999999897,-3290.0,13.25,150.0,420.0,0.0,0.0,2.760009483,4.389674732977289,0.0,-30260.0,0.375,-562.5,-420.0,0.0,0.125,4.639892103,3.0316872062785585,0.0,0.8199999928474426,-1.149999976158142,-36.79999923706055,2.44140625E-4,0.03009033203125,0.89300537109375,35.41999816894531,0.0,4.0,3.5397186279296875,-1.0235137939453125,Closing,0.0,0.0,3.0,0.0,0.0,0.0,0.0,0.0,
4.5268710000000025,0.0,0.0,18178.0,0.125,472.5,420.0,0.0,0.125,1.376952984,0.5498168668524888,0.0,-24518.0,0.0,-495.0,-420.0,0.0,0.125,2.4291989700000003,1.9285545897722227,0.0012207029999999897,-3256.0,13.375,232.5,420.0,0.0,0.0,2.757568077,4.389674732977289,0.0,-30260.0,0.375,-555.0,-420.0,0.0,0.125,4.641112806000001,3.0316872062785585,0.0,0.8899999856948853,-1.0399999618530273,-38.7599983215332,0.01141357421875,0.00909423828125,1.13525390625,35.41999816894531,0.0,32.0,3.539825439453125,-1.02374267578125,Closing,0.0,0.0,3.0,0.0,0.0,0.0,0.0,0.0,
4.580668000000001,0.0,0.0,18178.0,0.125,585.0,420.0,0.0,0.125,1.376952984,0.5498168668524888,-0.0012207029999999897,-24616.0,0.0,-600.0,-420.0,0.0,0.125,2.4243161580000003,1.9285545897722227,0.0,-3256.0,12.375,330.0,420.0,0.0,0.0,2.760009483,4.389674732977289,0.0,-30349.0,0.375,-540.0,-420.0,0.0,0.125,4.641112806000001,3.0316872062785585,0.0,0.8899999856948853,-0.949999988079071,-41.779998779296875,-0.02606201171875,-0.0115966796875,1.08502197265625,35.41999816894531,0.0,13.0,3.54010009765625,-1.023773193359375,Closing,0.0,0.0,3.0,0.0,0.0,0.0,0.0,0.0,
4.605203000000001,0.0,0.0,18278.0,0.125,615.0,420.0,0.0,0.125,1.3757322810000001,0.5498168668524888,0.0,-24616.0,0.0,-607.5,-420.0,0.0,0.125,2.4255368610000003,1.9285545897722227,0.0,-3172.0,11.5,450.0,420.0,0.0,0.0,2.761230186,4.389674732977289,0.0,-30349.0,0.375,-570.0,-420.0,0.0,0.125,4.639892103,3.0316872062785585,0.0,0.8999999761581421,-0.8600000143051147,-44.79999923706055,-0.04608154296875,0.0284423828125,0.91094970703125,35.41999816894531,0.0,-32.0,3.54022216796875,-1.0241241455078125,Closing,0.0,0.0,3.0,0.0,0.0,0.0,0.0,0.0,
4.653526000000002,0.0,0.0,18278.0,0.125,615.0,420.0,0.0,0.125,1.3757322810000001,0.5498168668524888,0.0,-24616.0,0.0,-607.5,-420.0,0.0,0.125,2.4255368610000003,1.9285545897722227,0.0,-3172.0,9.5,577.5,420.0,0.0,0.0,2.772216513,4.389674732977289,-0.0012207029999995456,-30349.0,0.375,-630.0,-420.0,0.0,0.125,4.639892103,3.0316872062785585,-0.0012207029999995456,0.9399999976158142,-0.8299999833106995,-46.79999923706055,-0.02294921875,0.0345458984375,1.0281982421875,35.41999816894531,0.0,-18.0,3.54010009765625,-1.02447509765625,Closing,0.0,0.0,3.0,0.0,0.0,0.0,0.0,0.0,
4.708931000000001,0.0,0.0,18374.0,0.125,607.5,420.0,0.0,0.125,1.376952984,0.5498168668524888,0.0,-24713.0,0.0,-600.0,-420.0,0.0,0.125,2.4255368610000003,1.9285545897722227,-0.0012207029999999897,-3172.0,7.5,645.0,420.0,0.0,0.0,2.760009483,4.389674732977289,0.0012207029999995456,-30454.0,0.375,-652.5,-420.0,0.0,0.125,4.641112806000001,3.0316872062785585,0.0012207029999995456,0.9399999976158142,-0.7200000286102295,-50.70000076293945,0.0428466796875,0.0201416015625,1.09613037109375,35.41999816894531,0.0,34.0,3.5399627685546875,-1.0248870849609375,Closing,0.0,0.0,3.0,0.0,0.0,0.0,0.0,0.0,
4.741900000000001,0.0,0.0,18374.0,0.125,585.0,420.0,0.0,0.125,1.3757322810000001,0.5498168668524888,0.0,-24713.0,0.0,-585.0,-420.0,0.0,0.125,2.4255368610000003,1.9285545897722227,0.0,-3066.0,6.75,660.0,420.0,0.0,0.0,2.761230186,4.389674732977289,-0.0012207029999995456,-30454.0,0.125,-622.5,-420.0,0.0,0.125,4.641112806000001,3.0316872062785585,0.0,0.9200000166893005,-0.5899999737739563,-54.41999816894531,0.05035400390625,-0.00408935546875,1.0467529296875,35.41999816894531,0.0,52.0,3.5406341552734375,-1.02508544921875,Closing,0.0,0.0,3.0,0.0,0.0,0.0,0.0,0.0,
4.794794000000001,0.0,0.0,18374.0,0.125,577.5,420.0,0.0,0.125,1.3757322810000001,0.5498168668524888,0.0,-24713.0,0.0,-577.5,-420.0,0.0,0.125,2.4255368610000003,1.9285545897722227,0.0,-3066.0,6.25,660.0,420.0,0.0,0.0,2.766112998,4.389674732977289,0.0012207029999995456,-30547.0,0.125,-592.5,-420.0,0.0,0.125,4.639892103,3.0316872062785585,0.0,0.8999999761581421,-0.6000000238418579,-56.189998626708984,-0.0189208984375,0.0260009765625,1.06890869140625,35.41999816894531,0.0,-11.0,3.5413665771484375,-1.025299072265625,Closing,0.0,0.0,3.0,0.0,0.0,0.0,0.0,0.0,
4.840473000000002,0.0,0.0,18462.0,0.25,562.5,420.0,0.0,0.125,1.376952984,0.5498168668524888,-0.0012207029999999897,-24802.0,0.0,-555.0,-420.0,0.0,0.125,2.4243161580000003,1.9285545897722227,0.0,-3066.0,5.75,645.0,420.0,0.0,0.0,2.764892295,4.389674732977289,0.0012207029999995456,-30547.0,0.125,-562.5,-420.0,0.0,0.125,4.639892103,3.0316872062785585,0.0,0.8899999856948853,-0.550000011920929,-57.88999938964844,-0.00994873046875,0.02728271484375,0.9110107421875,35.41999816894531,0.0,-11.0,3.541717529296875,-1.025299072265625,Closing,0.0,0.0,3.0,0.0,0.0,0.0,0.0,0.0,
4.874458000000002,0.0,0.0,18462.0,0.125,525.0,0.0,0.0,0.125,1.376952984,0.01,0.0012207029999999897,-24802.0,0.25,-502.5,-0.0,0.0,0.125,2.4243161580000003,0.01,0.0,-2967.0,4.625,607.5,0.0,0.0,0.0,2.764892295,0.01,-0.0024414059999999793,-30547.0,0.125,-540.0,-0.0,0.0,0.125,4.639892103,0.01,0.0,0.9100000262260437,-0.46000000834465027,-61.099998474121094,-0.0211181640625,0.0848388671875,0.917236328125,35.41999816894531,0.0,-68.0,3.5415191650390625,-1.025604248046875,Closing,0.0,0.0,3.0,0.0,0.0,0.0,0.0,0.0,
4.931098000000002,0.0,0.0,18462.0,0.375,472.5,0.0,0.0,0.125,1.358642439,0.01,0.0,-24870.0,0.625,-480.0,-0.0,0.0,6.5,2.420654049,0.01,0.0012207029999999897,-2967.0,2.375,555.0,0.0,0.0,1.5,2.813720415,0.01,-0.0024414059999999793,-30626.0,0.125,-510.0,-0.0,0.0,6.125,4.775390136,0.01,0.0,0.8600000143051147,-0.47999998927116394,-62.529998779296875,-0.02239990234375,-0.05645751953125,1.06854248046875,35.41999816894531,0.0,58.0,3.5414581298828125,-1.0258026123046875,Closing,0.0,0.0,3.0,0.0,0.0,0.0,0.0,0.0,
4.963951000000001,0.0,0.0,18529.0,0.375,405.0,0.0,0.0,2.125,1.1914061280000001,0.01,-0.04638671400000005,-24870.0,1.0,-382.5,-0.0,0.0,9.375,2.1215818140000002,0.01,-0.036621090000000134,-2899.0,2.0,480.0,0.0,0.0,2.375,3.0126950040000002,0.01,0.08422850700000062,-30626.0,0.125,-457.5,-0.0,0.0,7.875,0.163574202,0.01,0.1794433409999998,0.8100000023841858,-0.4699999988079071,-64.26000213623047,-0.10443115234375,-0.0147705078125,0.97808837890625,35.41999816894531,0.0,-15.0,3.5413665771484375,-1.02655029296875,Closing,0.0,0.0,3.0,0.0,0.0,0.0,0.0,0.0,
5.00668,0.0,0.0,18529.0,0.375,337.5,0.0,0.0,0.625,0.965576073,0.01,-0.18066404400000002,-24870.0,1.0,-277.5,-0.0,0.0,1.125,1.679687328,0.01,-0.3332519190000003,-2899.0,2.375,330.0,0.0,0.0,0.375,3.226318029,0.01,0.1940917769999997,-30626.0,0.375,-345.0,-0.0,0.0,1.5,0.600585876,0.01,0.34252195699999977,0.7900000214576721,-0.27000001072883606,-65.87999725341797,0.12841796875,-0.03167724609375,1.0224609375,35.41999816894531,0.0,96.0,3.5420989990234375,-1.0278472900390625,Closing,0.0,0.0,3.0,0.0,0.0,0.0,0.0,0.0,
5.066307000000001,0.0,0.0,18566.0,0.375,285.0,0.0,0.0,0.375,0.865478427,0.01,-0.20385740099999994,-24888.0,0.75,-142.5,-0.0,0.0,1.5,1.3696287660000002,0.01,-0.4089355050000001,-2899.0,2.75,232.5,0.0,0.0,0.25,3.3178707540000003,0.01,0.19531248000000012,-30669.0,0.375,-255.0,-0.0,0.0,1.625,0.916747953,0.01,0.4138183170000005,0.75,-0.20999999344348907,-66.4000015258789,-0.0423583984375,0.01812744140625,1.0050048828125,35.41999816894531,0.0,-19.0,3.5433807373046875,-1.028106689453125,Closing,0.0,0.0,3.0,0.0,0.0,0.0,0.0,0.0,
5.106687000000002,0.0,0.0,18566.0,0.375,217.5,0.0,0.0,0.25,0.8312987430000001,0.01,-0.0927734280000001,-24888.0,0.375,-37.5,-0.0,0.0,1.5,1.068115125,0.01,-0.3454589490000002,-2874.0,3.0,157.5,0.0,0.0,0.125,3.342284814,0.01,0.08666991299999971,-30669.0,0.25,-172.5,-0.0,0.0,1.375,1.219482297,0.01,0.3527831670000001,0.7699999809265137,-0.3100000023841858,-66.61000061035156,-0.06451416015625,0.04840087890625,0.97491455078125,35.41999816894531,0.0,-55.0,3.544342041015625,-1.028564453125,Closing,0.0,0.0,3.0,0.0,0.0,0.0,0.0,0.0,
5.150439000000002,0.0,0.0,18566.0,0.125,150.0,0.0,0.0,0.25,0.8166503070000001,0.01,-0.0927734280000001,-24888.0,0.0,0.0,-0.0,0.0,0.875,0.833740149,0.01,-0.3369140279999998,-2874.0,3.5,112.5,0.0,0.0,0.125,3.342284814,0.01,0.019531247999999835,-30669.0,0.125,-142.5,-0.0,0.0,0.875,1.441650243,0.01,0.31249996799999913,0.800000011920929,-0.3700000047683716,-66.7300033569336,-0.0760498046875,0.02117919921875,1.05194091796875,35.45000076293945,0.0,-33.0,3.5447235107421875,-1.029052734375,Closing,0.0,0.0,3.0,0.0,0.0,0.0,0.0,0.0,
5.183402000000002,0.0,0.0,18566.0,0.125,97.5,8.4,0.0,0.125,0.819091713,4.930606878703244,-0.025634763000000005,-24888.0,0.0,0.0,-8.4,0.0,0.5,0.666503838,4.96211537212944,-0.3369140279999998,-2874.0,3.625,90.0,8.4,0.0,0.0,3.342284814,4.93875316230774,0.019531247999999835,-30686.0,0.125,-105.0,-8.4,0.0,0.625,1.5576170280000001,4.956347295506795,0.31249996799999913,0.7699999809265137,-0.4399999976158142,-66.8499984741211,-0.03369140625,-0.04656982421875,0.9833984375,35.45000076293945,0.0,44.0,3.5450439453125,-1.02978515625,Closing,0.0,0.0,3.0,0.0,0.0,0.0,0.0,0.0,
5.210044000000002,0.0,0.0,18580.0,0.125,67.5,8.4,0.0,0.125,0.825195228,4.929784870318879,0.0,-24888.0,0.0,0.0,-8.4,0.0,0.25,0.532226508,4.96128811079216,-0.3210448889999995,-2864.0,3.875,67.5,8.4,0.0,0.0,3.342284814,4.9379297958119714,-0.0012207029999995456,-30686.0,0.125,-82.5,-8.4,0.0,0.375,1.6296385050000002,4.955520995797051,0.2758788780000003,0.7300000190734863,-0.47999998927116394,-66.97000122070312,-0.02166748046875,-0.00408935546875,1.05804443359375,35.45000076293945,0.0,11.0,3.545684814453125,-1.0313262939453125,Closing,0.0,0.0,3.0,0.0,0.0,0.0,0.0,0.0,
5.256005000000001,0.0,0.0,18580.0,0.125,52.5,8.4,0.0,0.125,0.8276366340000001,4.928140749022123,0.0,-24888.0,0.0,0.0,-8.4,0.0,0.25,0.51269526,4.959633482921601,-0.1171874879999999,-2864.0,4.375,37.5,8.4,0.0,0.0,3.341064111,4.93628295811971,0.0,-30686.0,0.125,-52.5,-8.4,0.0,0.25,1.6296385050000002,4.953868291303847,0.07080077400000029,0.7099999785423279,-0.5400000214576721,-66.98999786376953,-0.03125,0.03558349609375,1.0516357421875,35.45000076293945,0.0,-29.0,3.5459136962890625,-1.0319061279296875,Closing,0.0,0.0,3.0,0.0,0.0,0.0,0.0,0.0,
