Time,ClimberA1,ClimberA2,FRpos,FRCurrent,FRspeed,FRsetpoint,FRApos,FRACurrent,FREncpos,FREncSetpoint,FREncSpeed,FLpos,FLCurrent,FLspeed,FLsetpoint,FLApos,FLACurrent,FLEncpos,FLEncSetpoint,FLEncSpeed,BRpos,BRCurrent,BRspeed,BRsetpoint,BRApos,BRACurrent,BREncpos,BREncSetpoint,BREncSpeed,BLpos,BLCurrent,BLspeed,BLsetpoint,BLApos,BLACurrent,BLEncpos,BLEncSetpoint,BLEncSpeed,navx_Pitch,navx_Roll,navx_Yaw,navx_XAcc,navx_YAcc,navx_ZAcc,navx_Temp,navx_Bar,navx_Alt,navx_XDis,navx_YDis,GearPlacerState,ShootOutputV,ShootOutputCurrent,ShootEncPos,ShootEncVelocity,ShootSpeed,ShootSetpoint,CarouselSetpoint,CarouselCurrent,
0.18487699999999313,0.0,0.0,89234.0,0.0,0.0,NaN,0.0,0.25,0.79345695,NaN,0.0,-155241.0,0.0,0.0,NaN,0.0,0.0,0.468749952,NaN,0.0,16758.0,0.0,0.0,NaN,0.0,0.0,3.328857081,NaN,0.0,-29467.0,0.125,0.0,NaN,0.0,0.125,1.6333006140000002,NaN,0.0,0.3400000035762787,-0.3199999928474426,-102.22000122070312,-0.0050048828125,0.00457763671875,1.01934814453125,36.65999984741211,0.0,1.0,2.42926025390625,-1.824310302734375,Waiting,0.0,0.0,3.0,0.0,0.0,0.0,0.0,0.125,
0.2646479999999865,0.0,0.0,89234.0,0.0,0.0,0.0,0.0,0.25,0.79345695,0.01,-0.0012207030000004337,-155241.0,0.0,0.0,-0.0,0.0,0.0,0.468749952,0.01,0.0,16758.0,0.0,0.0,0.0,0.0,0.0,3.328857081,0.01,0.0,-29467.0,0.125,0.0,-0.0,0.0,0.125,1.6320799110000002,0.01,-0.004882811999999959,0.3400000035762787,-0.3199999928474426,-102.22000122070312,-0.00762939453125,0.0059814453125,1.01251220703125,36.65999984741211,0.0,0.0,2.42926025390625,-1.824310302734375,Closing,0.0,0.0,3.0,0.0,0.0,0.0,0.0,0.125,
0.3282409999999945,0.0,0.0,89234.0,0.0,0.0,0.0,0.0,0.25,0.794677653,0.01,0.0012207030000004337,-155241.0,0.0,0.0,-0.0,0.0,0.0,0.469970655,0.01,0.0,16758.0,0.0,0.0,0.0,0.0,0.0,3.330077784,0.01,0.0,-29467.0,0.125,0.0,-0.0,0.0,0.125,1.6320799110000002,0.01,0.0,0.3499999940395355,-0.33000001311302185,-102.22000122070312,-0.005126953125,0.00579833984375,1.019287109375,36.65999984741211,0.0,0.0,2.42926025390625,-1.824310302734375,Closing,0.0,0.0,3.0,0.0,0.0,0.0,0.0,0.0,
0.3894259999999922,0.0,0.0,89234.0,0.0,0.0,0.0,0.0,0.25,0.794677653,0.01,0.0,-155241.0,0.0,0.0,-0.0,0.0,0.25,0.47851557600000005,0.01,0.0,16758.0,0.0,0.0,0.0,0.0,0.0,3.330077784,0.01,0.0,-29467.0,0.125,0.0,-0.0,0.0,0.125,1.6320799110000002,0.01,0.0,0.3499999940395355,-0.33000001311302185,-102.22000122070312,-0.00634765625,0.004150390625,1.0179443359375,36.65999984741211,0.0,2.0,2.42926025390625,-1.824310302734375,Closing,0.0,0.0,3.0,0.0,0.0,0.0,0.0,0.0,
0.42672299999999813,0.0,0.0,89234.0,0.0,0.0,0.0,0.0,0.25,0.79345695,0.01,0.0,-155241.0,0.0,0.0,-0.0,0.0,0.25,0.483398388,0.01,0.009765623999999917,16758.0,0.0,0.0,0.0,0.0,0.0,3.330077784,0.01,0.0,-29467.0,0.125,0.0,-0.0,0.0,0.125,1.6333006140000002,0.01,0.0,0.3499999940395355,-0.33000001311302185,-102.22000122070312,-0.0030517578125,0.0042724609375,1.02093505859375,36.65999984741211,0.0,1.0,2.42926025390625,-1.824310302734375,Closing,0.0,0.0,3.0,0.0,0.0,0.0,0.0,0.0,
0.4729899999999907,0.0,0.0,89234.0,0.0,0.0,0.0,0.0,0.125,0.79345695,0.01,0.0,-155241.0,0.0,0.0,-0.0,0.0,0.25,0.482177685,0.01,0.004882811999999959,16758.0,0.0,0.0,0.0,0.0,0.0,3.328857081,0.01,0.0,-29467.0,0.125,0.0,-0.0,0.0,0.125,1.6320799110000002,0.01,0.0,0.3499999940395355,-0.33000001311302185,-102.22000122070312,-0.00830078125,0.004150390625,1.01300048828125,36.65999984741211,0.0,2.0,2.42926025390625,-1.824310302734375,Closing,0.0,0.0,3.0,0.0,0.0,0.0,0.0,0.0,
0.5329409999999917,0.0,0.0,89234.0,0.0,0.0,0.0,0.0,0.125,0.79345695,0.01,0.0,-155241.0,0.0,0.0,-0.0,0.0,0.25,0.483398388,0.01,0.0,16758.0,0.0,0.0,0.0,0.0,0.0,3.328857081,0.01,0.0,-29467.0,0.125,0.0,-0.0,0.0,0.125,1.6333006140000002,0.01,0.0,0.3499999940395355,-0.33000001311302185,-102.22000122070312,-0.00250244140625,0.0050048828125,1.0213623046875,36.65999984741211,0.0,0.0,2.42926025390625,-1.824310302734375,Closing,0.0,0.0,3.0,0.0,0.0,0.0,0.0,0.0,
0.6068189999999886,0.0,0.0,89234.0,0.0,0.0,0.0,0.0,0.25,0.79345695,0.01,0.0,-155241.0,0.0,0.0,-0.0,0.0,0.25,0.483398388,0.01,0.0,16758.0,0.0,0.0,0.0,0.0,0.0,3.328857081,0.01,0.0,-29467.0,0.125,0.0,-0.0,0.0,0.125,1.6320799110000002,0.01,0.0,0.3499999940395355,-0.33000001311302185,-102.22000122070312,-0.0035400390625,0.00616455078125,1.01873779296875,36.65999984741211,0.0,0.0,2.42926025390625,-1.824310302734375,Closing,0.0,0.0,3.0,0.0,0.0,0.0,0.0,0.0,
0.6501049999999959,0.0,0.0,89234.0,0.0,0.0,0.0,0.0,0.25,0.794677653,0.01,0.0,-155241.0,0.0,0.0,-0.0,0.0,0.25,0.483398388,0.01,0.0,16758.0,0.0,0.0,0.0,0.0,0.0,3.330077784,0.01,0.0,-29467.0,0.125,0.0,-0.0,0.0,0.125,1.6320799110000002,0.01,0.0,0.3499999940395355,-0.3199999928474426,-102.22000122070312,-0.0042724609375,0.0054931640625,1.02081298828125,36.65999984741211,0.0,0.0,2.42926025390625,-1.824310302734375,Closing,0.0,0.0,3.0,0.0,0.0,0.0,0.0,0.0,
0.7066059999999997,0.0,0.0,89234.0,0.0,0.0,0.0,0.0,0.25,0.79345695,0.01,0.0,-155241.0,0.0,0.0,-0.0,0.0,0.25,0.484619091,0.01,0.0,16758.0,0.0,0.0,0.0,0.0,0.0,3.328857081,0.01,0.0,-29467.0,0.125,0.0,-0.0,0.0,0.125,1.6320799110000002,0.01,0.0,0.3499999940395355,-0.3199999928474426,-102.22000122070312,-0.00732421875,0.0048828125,1.01593017578125,36.630001068115234,0.0,1.0,2.42926025390625,-1.824310302734375,Closing,0.0,0.0,3.0,0.0,0.0,0.0,0.0,0.0,
0.7408829999999871,0.0,0.0,89234.0,0.0,0.0,0.0,0.0,0.125,0.79345695,0.01,0.0,-155241.0,0.0,0.0,-0.0,0.0,0.25,0.484619091,0.01,0.0,16758.0,0.0,0.0,0.0,0.0,0.0,3.328857081,0.01,0.0,-29467.0,0.125,0.0,-0.0,0.0,0.125,1.6320799110000002,0.01,0.0,0.3499999940395355,-0.33000001311302185,-102.22000122070312,-0.00604248046875,0.00799560546875,1.02362060546875,36.630001068115234,0.0,-1.0,2.42926025390625,-1.824310302734375,Closing,0.0,0.0,3.0,0.0,0.0,0.0,0.0,0.0,
0.7951169999999984,0.0,0.0,89234.0,0.0,0.0,0.0,0.0,0.25,0.79345695,0.01,-0.0012207030000004337,-155241.0,0.0,0.0,-0.0,0.0,0.25,0.483398388,0.01,0.0,16758.0,0.0,0.0,0.0,0.0,0.0,3.328857081,0.01,0.0,-29467.0,0.125,0.0,-0.0,0.0,0.125,1.6320799110000002,0.01,0.0,0.3499999940395355,-0.33000001311302185,-102.22000122070312,-0.00408935546875,0.00537109375,1.02349853515625,36.630001068115234,0.0,0.0,2.42926025390625,-1.824310302734375,Closing,0.0,0.0,3.0,0.0,0.0,0.0,0.0,0.0,
0.8481589999999997,0.0,0.0,89234.0,0.0,0.0,0.0,0.0,0.25,0.79345695,0.01,0.0012207030000004337,-155241.0,0.0,0.0,-0.0,0.0,0.25,0.484619091,0.01,0.0,16758.0,0.0,0.0,0.0,0.0,0.0,3.328857081,0.01,0.0,-29467.0,0.125,0.0,-0.0,0.0,0.125,1.6333006140000002,0.01,0.0,0.3499999940395355,-0.3199999928474426,-102.22000122070312,-0.00323486328125,0.00543212890625,1.02117919921875,36.630001068115234,0.0,0.0,2.42926025390625,-1.824310302734375,Closing,0.0,0.0,3.0,0.0,0.0,0.0,0.0,0.0,
0.8761459999999933,0.0,0.0,89234.0,0.0,0.0,0.0,0.0,0.25,0.7922362470000001,0.01,0.0,-155241.0,0.0,0.0,-0.0,0.0,0.25,0.483398388,0.01,0.0,16758.0,0.0,0.0,0.0,0.0,0.0,3.328857081,0.01,0.0,-29467.0,0.125,0.0,-0.0,0.0,0.125,1.6333006140000002,0.01,0.0,0.3499999940395355,-0.3199999928474426,-102.22000122070312,-0.00762939453125,0.005615234375,1.0233154296875,36.630001068115234,0.0,1.0,2.42926025390625,-1.824310302734375,Closing,0.0,0.0,3.0,0.0,0.0,0.0,0.0,0.0,
0.9344130000000005,0.0,0.0,89234.0,0.0,0.0,0.0,0.0,0.25,0.79345695,0.01,0.0,-155241.0,0.0,0.0,-0.0,0.0,0.25,0.483398388,0.01,0.0,16758.0,0.0,0.0,0.0,0.0,0.0,3.328857081,0.01,0.0,-29467.0,0.125,0.0,-0.0,0.0,0.125,1.6320799110000002,0.01,0.0,0.3499999940395355,-0.33000001311302185,-102.22000122070312,-0.00518798828125,0.00628662109375,1.02142333984375,36.630001068115234,0.0,0.0,2.42926025390625,-1.824310302734375,Closing,0.0,0.0,3.0,0.0,0.0,0.0,0.0,0.125,
0.9707869999999966,0.0,0.0,89234.0,0.0,0.0,0.0,0.0,0.125,0.79345695,0.01,0.0,-155241.0,0.0,0.0,-0.0,0.0,0.25,0.483398388,0.01,0.0,16758.0,0.0,0.0,0.0,0.0,0.0,3.328857081,0.01,0.0,-29467.0,0.125,0.0,-0.0,0.0,0.125,1.6320799110000002,0.01,0.0,0.3499999940395355,-0.33000001311302185,-102.2300033569336,-0.005126953125,0.00360107421875,1.0155029296875,36.630001068115234,0.0,2.0,2.42926025390625,-1.824310302734375,Closing,0.0,0.0,3.0,0.0,0.0,0.0,0.0,0.0,
1.0100929999999935,0.0,0.0,89234.0,0.0,0.0,0.0,0.0,0.25,0.79345695,0.01,0.0,-155241.0,0.0,0.0,-0.0,0.0,0.25,0.482177685,0.01,0.0,16758.0,0.0,0.0,0.0,0.0,0.0,3.328857081,0.01,0.0,-29467.0,0.125,0.0,-0.0,0.0,0.125,1.6320799110000002,0.01,0.0,0.3400000035762787,-0.33000001311302185,-102.2300033569336,-0.00238037109375,0.00494384765625,1.02392578125,36.630001068115234,0.0,0.0,2.42926025390625,-1.824310302734375,Closing,0.0,0.0,3.0,0.0,0.0,0.0,0.0,0.0,
1.0622799999999988,0.0,0.0,89234.0,0.0,0.0,0.0,0.0,0.25,0.79345695,0.01,0.0,-155241.0,0.0,0.0,-0.0,0.0,0.25,0.483398388,0.01,0.0,16758.0,0.0,0.0,0.0,0.0,0.0,3.328857081,0.01,0.0,-29467.0,0.125,0.0,-0.0,0.0,0.125,1.6320799110000002,0.01,0.0,0.3400000035762787,-0.33000001311302185,-102.2300033569336,-0.0059814453125,0.0064697265625,1.01800537109375,36.630001068115234,0.0,0.0,2.42926025390625,-1.824310302734375,Closing,0.0,0.0,3.0,0.0,0.0,0.0,0.0,0.0,
1.117212999999989,0.0,0.0,89234.0,0.0,0.0,0.0,0.0,0.25,0.79345695,0.01,0.0,-155241.0,0.0,0.0,-0.0,0.0,0.25,0.483398388,0.01,0.0,16758.0,0.0,0.0,0.0,0.0,0.0,3.328857081,0.01,0.0,-29467.0,0.125,0.0,-0.0,0.0,0.125,1.6333006140000002,0.01,0.0,0.3400000035762787,-0.33000001311302185,-102.2300033569336,-0.00750732421875,0.00299072265625,1.0123291015625,36.630001068115234,0.0,3.0,2.42926025390625,-1.824310302734375,Closing,0.0,0.0,3.0,0.0,0.0,0.0,0.0,0.0,
1.1518709999999992,0.0,0.0,89234.0,0.0,0.0,0.0,0.0,0.25,0.79345695,0.01,0.0,-155241.0,0.0,0.0,-0.0,0.0,0.25,0.484619091,0.01,0.0,16758.0,0.0,0.0,0.0,0.0,0.0,3.328857081,0.01,0.0,-29467.0,0.125,0.0,-0.0,0.0,0.125,1.6320799110000002,0.01,0.0,0.3400000035762787,-0.33000001311302185,-102.2300033569336,-0.00592041015625,0.00927734375,1.01641845703125,36.630001068115234,0.0,-3.0,2.42926025390625,-1.824310302734375,Closing,0.0,0.0,3.0,0.0,0.0,0.0,0.0,0.125,
1.1918839999999908,0.0,0.0,89234.0,0.0,0.0,0.0,0.0,0.25,0.79345695,0.01,0.0,-155241.0,0.0,0.0,-0.0,0.0,0.25,0.484619091,0.01,0.0,16758.0,0.0,0.0,0.0,0.0,0.0,3.328857081,0.01,0.0,-29467.0,0.125,0.0,-0.0,0.0,0.125,1.6320799110000002,0.01,0.0,0.3400000035762787,-0.33000001311302185,-102.2300033569336,-0.00244140625,0.005615234375,1.0179443359375,36.650001525878906,0.0,0.0,2.42926025390625,-1.824310302734375,Closing,0.0,0.0,3.0,0.0,0.0,0.0,0.0,0.0,
1.225830999999991,0.0,0.0,89234.0,0.0,0.0,0.0,0.0,0.25,0.79345695,0.01,0.0,-155241.0,0.0,0.0,-0.0,0.0,0.25,0.483398388,0.01,0.0,16758.0,0.0,0.0,0.0,0.0,0.0,3.330077784,0.01,0.0,-29467.0,0.125,0.0,-0.0,0.0,0.125,1.6320799110000002,0.01,0.0,0.3400000035762787,-0.33000001311302185,-102.2300033569336,-0.00604248046875,0.0062255859375,1.0126953125,36.650001525878906,0.0,0.0,2.42926025390625,-1.824310302734375,Closing,0.0,0.0,3.0,0.0,0.0,0.0,0.0,0.125,
1.2642969999999913,0.0,0.0,89234.0,0.0,0.0,257.95276433229446,0.0,0.25,0.787353435,1.065503176979894,0.0,-155241.0,0.0,0.0,-257.95276433229446,0.0,0.25,0.483398388,1.072312156213763,0.0,16758.0,0.375,0.0,257.95276433229446,0.0,0.0,3.3276363780000002,1.0672635872650171,0.0,-29467.0,0.375,0.0,-257.95276433229446,0.0,3.375,1.6320799110000002,1.0710656759897894,0.0,0.3400000035762787,-0.33000001311302185,-102.2300033569336,-0.005126953125,0.00390625,1.017822265625,36.650001525878906,0.0,2.0,2.42926025390625,-1.824310302734375,Closing,0.0,0.0,3.0,0.0,0.0,0.0,0.0,0.0,
1.3103659999999946,0.0,0.0,89234.0,0.125,0.0,317.4803137779236,0.0,4.875,0.9228514680000001,1.0655031769798942,0.009765623999999917,-155241.0,0.125,0.0,-317.4803137779236,0.0,7.375,0.6103515,1.0723121562137632,-0.0012207030000004337,16758.0,0.5,0.0,317.4803137779236,0.0,5.375,3.562011354,1.0672635872650174,0.0,-29467.0,0.375,0.0,-317.4803137779236,0.0,6.25,1.835937312,1.0710656759897894,0.0,0.3400000035762787,-0.33000001311302185,-102.2300033569336,-0.03289794921875,0.0623779296875,1.018798828125,36.650001525878906,0.0,-49.0,2.4292144775390625,-1.8243255615234375,Closing,0.0,0.0,3.0,0.0,0.0,0.0,0.0,0.125,
1.3574739999999874,0.0,0.0,89234.0,0.5,0.0,317.4803137779236,0.0,3.125,1.352538924,1.0655031769798942,0.0,-155241.0,0.375,-15.0,-317.4803137779236,0.0,2.875,1.07421864,1.0723121562137632,0.0,16758.0,0.875,0.0,317.4803137779236,0.0,2.25,3.983153889,1.0672635872650174,0.0,-29472.0,0.375,-15.0,-317.4803137779236,0.0,1.875,2.2778317980000002,1.0710656759897894,0.0,0.33000001311302185,-0.3400000035762787,-102.23999786376953,0.0206298828125,-0.02947998046875,1.00341796875,36.650001525878906,0.0,28.0,2.4289398193359375,-1.8246612548828125,Closing,0.0,0.0,3.0,0.0,0.0,0.0,0.0,0.125,
1.4060279999999912,0.0,0.0,89234.0,0.875,-15.0,317.4803137779236,0.0,2.0,1.5502928100000002,1.0653662452678492,0.3662109,-155249.0,0.5,-45.0,-317.4803137779236,0.0,1.25,1.364745954,1.072174349454882,0.43090815900000035,16758.0,1.125,-22.5,317.4803137779236,0.0,1.75,4.222411677,1.0671264293162053,0.39916988100000017,-29472.0,0.625,-37.5,-317.4803137779236,0.0,1.375,2.572021221,1.0709280294206431,0.0,0.30000001192092896,-0.36000001430511475,-102.23999786376953,-0.0159912109375,-0.00115966796875,0.938720703125,36.650001525878906,0.0,8.0,2.4291229248046875,-1.8248138427734375,Closing,0.0,0.0,3.0,0.0,0.0,0.0,0.0,0.0,
1.453929999999993,0.0,0.0,89225.0,1.25,-37.5,416.6929024457932,0.0,1.625,1.8188474700000001,1.0652292090277806,0.338134731,-155249.0,0.625,-67.5,-416.6929024457932,0.0,0.75,1.646728347,1.0720364375000027,0.41381831700000005,16752.0,1.5,-37.5,416.6929024457932,0.0,1.0,4.422606969,1.0669891666666695,0.3283691070000003,-29472.0,0.625,-45.0,-416.6929024457932,0.0,0.875,2.7514645620000002,1.0707902777777805,0.36010738500000006,0.2800000011920929,-0.3499999940395355,-102.26000213623047,-0.006103515625,0.03125,1.01263427734375,36.650001525878906,0.0,-25.0,2.4291839599609375,-1.82489013671875,Closing,0.0,0.0,3.0,0.0,0.0,0.0,0.0,0.0,
1.5107419999999985,0.0,0.0,89225.0,2.25,-60.0,436.53545022010803,0.0,0.875,1.96533183,1.0650921727877114,0.18798826199999996,-155261.0,1.625,-67.5,-436.53545022010803,0.0,0.5,1.751708805,1.071898525545123,0.21728513399999994,16752.0,2.25,-22.5,436.53545022010803,0.0,0.25,4.4958491490000005,1.0668519040171334,0.15502928099999913,-29477.0,1.0,-30.0,-436.53545022010803,0.0,0.375,2.822265336,1.0706525261349176,0.0,0.3100000023841858,-0.3700000047683716,-102.26000213623047,-0.00433349609375,0.0206298828125,0.97210693359375,36.650001525878906,0.0,-15.0,2.4290313720703125,-1.82489013671875,Closing,0.0,0.0,3.0,0.0,0.0,0.0,0.0,0.125,
1.5592019999999902,0.0,0.0,89222.0,3.125,-22.5,436.53545022010803,0.0,0.25,1.981200969,1.0652292090277802,0.0,-155261.0,3.125,-45.0,-436.53545022010803,0.0,0.25,1.7321775570000002,1.0720364375000024,0.0,16752.0,3.5,0.0,436.53545022010803,0.0,0.125,4.472655792,1.066989166666669,0.0,-29477.0,2.0,-22.5,-436.53545022010803,0.0,0.25,2.775878622,1.07079027777778,0.0,0.33000001311302185,-0.36000001430511475,-102.2300033569336,0.0048828125,-0.01593017578125,0.958251953125,36.650001525878906,0.0,18.0,2.4286346435546875,-1.82489013671875,Closing,0.0,0.0,3.0,0.0,0.0,0.0,0.0,0.125,
1.607654999999999,0.0,0.0,89222.0,3.25,0.0,436.53545022010803,0.0,0.375,1.959228315,1.065503176979894,0.0,-155261.0,3.875,-22.5,-436.53545022010803,0.0,0.25,1.727294745,1.072312156213763,0.0,16752.0,3.875,0.0,436.53545022010803,0.0,0.125,4.432372593,1.0672635872650171,0.0,-29480.0,3.625,-15.0,-436.53545022010803,0.0,0.25,2.718505581,1.0710656759897894,0.0,0.33000001311302185,-0.3400000035762787,-102.2300033569336,-0.00506591796875,-0.0068359375,1.00146484375,36.650001525878906,0.0,12.0,2.4286346435546875,-1.82489013671875,Closing,0.0,0.0,3.0,0.0,0.0,0.0,0.0,0.125,
1.661976999999999,0.0,0.0,89222.0,4.0,0.0,436.53545022010803,0.0,0.25,1.9238279280000001,1.065503176979894,-0.03295898099999994,-155263.0,5.0,-7.5,-436.53545022010803,0.0,0.25,1.724853339,1.072312156213763,0.0012207029999999897,16754.0,4.375,7.5,436.53545022010803,0.0,0.125,4.41894486,1.0672635872650171,0.0,-29480.0,4.75,-7.5,-436.53545022010803,0.0,0.25,2.707519254,1.0710656759897894,0.0,0.33000001311302185,-0.3499999940395355,-102.23999786376953,-0.01556396484375,0.00909423828125,1.0577392578125,36.650001525878906,0.0,0.0,2.4286346435546875,-1.82489013671875,Closing,0.0,0.0,3.0,0.0,0.0,0.0,0.0,0.125,
1.7198689999999914,0.0,0.0,89225.0,5.0,15.0,436.53545022010803,0.0,0.25,1.885986135,1.065503176979894,-0.037841793000000123,-155263.0,5.875,-15.0,-436.53545022010803,0.0,0.25,1.6845701400000002,1.072312156213763,0.0,16754.0,5.25,15.0,436.53545022010803,0.0,0.0,4.407958533,1.0672635872650171,0.0,-29480.0,5.375,-7.5,-436.53545022010803,0.0,0.25,2.703857145,1.0710656759897894,0.0,0.3499999940395355,-0.3499999940395355,-102.2300033569336,-0.00909423828125,-0.02496337890625,1.02093505859375,36.63999938964844,0.0,31.0,2.42864990234375,-1.82489013671875,Closing,0.0,0.0,3.0,0.0,0.0,0.0,0.0,0.0,
1.750481999999989,0.0,0.0,89225.0,5.25,15.0,515.9055286645889,0.0,0.25,1.876220511,1.065503176979894,-0.024414060000000015,-155266.0,6.75,-15.0,-515.9055286645889,0.0,0.25,1.669921704,1.072312156213763,-0.032958981000000165,16754.0,6.0,15.0,515.9055286645889,0.0,0.0,4.407958533,1.0672635872650171,-0.003662108999999525,-29481.0,6.25,-7.5,-515.9055286645889,0.0,0.25,2.703857145,1.0710656759897894,-0.003662108999999969,0.3499999940395355,-0.3400000035762787,-102.2300033569336,0.003662109375,0.03472900390625,1.0328369140625,36.63999938964844,0.0,-29.0,2.4287109375,-1.82489013671875,Closing,0.0,0.0,3.0,0.0,0.0,0.0,0.0,0.0,
1.7915149999999995,0.0,0.0,89225.0,7.125,22.5,615.1181173324585,0.0,0.25,1.877441214,1.065503176979894,0.0,-155266.0,9.0,-15.0,-615.1181173324585,0.0,0.25,1.6638181890000001,1.072312156213763,0.0,16756.0,7.875,7.5,615.1181173324585,0.0,0.0,4.407958533,1.0672635872650171,0.0,-29481.0,7.625,-15.0,-615.1181173324585,0.0,0.125,2.712402066,1.0710656759897894,0.0,0.36000001430511475,-0.33000001311302185,-102.25,-0.00299072265625,0.01025390625,0.95794677734375,36.63999938964844,0.0,-4.0,2.428680419921875,-1.82489013671875,Closing,0.0,0.0,3.0,0.0,0.0,0.0,0.0,0.125,
1.86923599999999,0.0,0.0,89229.0,11.625,45.0,714.3307435512543,0.0,0.25,1.877441214,1.0652292090277806,0.0,-155274.0,14.5,-45.0,-714.3307435512543,0.0,0.25,1.665038892,1.0720364375000027,0.0,16757.0,15.375,0.0,714.3307435512543,0.0,0.0,4.407958533,1.0669891666666695,0.0,-29490.0,15.375,-60.0,-714.3307435512543,0.0,0.25,2.72216769,1.0707902777777805,0.0,0.5199999809265137,-0.3100000023841858,-102.2300033569336,1.220703125E-4,0.0484619140625,1.03759765625,36.63999938964844,0.0,-70.0,2.426910400390625,-1.8249664306640625,Closing,0.0,0.0,3.0,0.0,0.0,0.0,0.0,0.125,
1.9284419999999955,0.0,0.0,89242.0,13.625,67.5,754.0157639980314,0.0,0.25,1.8688962930000002,1.0656402132199632,0.0,-155274.0,17.375,-75.0,-754.0157639980314,0.0,0.25,1.665038892,1.0724500681686426,0.0,16757.0,18.625,7.5,754.0157639980314,0.0,0.0,4.40673783,1.0674008499145533,0.0,-29490.0,17.875,-75.0,-754.0157639980314,0.0,0.25,2.723388393,1.0712034276326523,0.0,0.5600000023841858,-0.3100000023841858,-102.22000122070312,-0.0042724609375,-0.0028076171875,1.0032958984375,36.63999938964844,0.0,12.0,2.42578125,-1.824981689453125,Closing,0.0,0.0,3.0,0.0,0.0,0.0,0.0,0.125,
1.9866849999999976,0.0,0.0,89242.0,15.625,90.0,773.8582742214203,0.0,0.25,1.877441214,1.0656402132199632,0.0,-155274.0,21.5,-105.0,-773.8582742214203,0.0,0.25,1.665038892,1.0724500681686426,0.0,16757.0,20.75,30.0,773.8582742214203,0.0,0.0,4.407958533,1.0674008499145533,-0.0012207030000004337,-29502.0,19.25,-75.0,-773.8582742214203,0.0,0.25,2.723388393,1.0712034276326523,0.0,0.5099999904632568,-0.30000001192092896,-102.22000122070312,-0.00115966796875,-0.0174560546875,0.96917724609375,36.63999938964844,0.0,24.0,2.4248199462890625,-1.824981689453125,Closing,0.0,0.0,3.0,0.0,0.0,0.0,0.0,0.0,
2.0266679999999906,0.0,0.0,89242.0,18.5,97.5,773.8582742214203,0.0,0.25,1.877441214,1.0656402132199632,0.0,-155296.0,25.375,-127.5,-773.8582742214203,0.0,0.25,1.665038892,1.0724500681686426,0.0,16768.0,24.875,67.5,773.8582742214203,0.0,0.0,4.40673783,1.0674008499145533,0.0,-29502.0,22.75,-75.0,-773.8582742214203,0.0,0.25,2.72216769,1.0712034276326523,0.0,0.4699999988079071,-0.30000001192092896,-102.19999694824219,-0.02764892578125,-0.11334228515625,1.00091552734375,36.63999938964844,0.0,123.0,2.4240570068359375,-1.824981689453125,Closing,0.0,0.0,3.0,0.0,0.0,0.0,0.0,0.0,
2.069051999999996,0.0,0.0,89257.0,20.0,90.0,773.8582742214203,0.0,0.25,1.877441214,1.0659142857001012,0.0,-155296.0,25.25,-135.0,-773.8582742214203,0.0,0.25,1.665038892,1.072725892078402,0.0,16768.0,28.5,75.0,773.8582742214203,0.0,0.0,4.40673783,1.0676753752136254,0.0,-29514.0,27.125,-75.0,-773.8582742214203,0.0,0.25,2.72216769,1.071478930918378,0.0,0.38999998569488525,-0.30000001192092896,-102.16000366210938,-0.008056640625,-0.052490234375,1.10675048828125,36.63999938964844,0.0,59.0,2.423828125,-1.8249053955078125,Closing,0.0,0.0,3.0,0.0,0.0,0.0,0.0,0.0,
2.1199719999999944,0.0,0.0,89257.0,25.625,67.5,773.8582742214203,0.0,0.25,1.876220511,1.0664622216043287,0.0,-155325.0,25.125,-172.5,-773.8582742214203,0.0,0.25,1.666259595,1.073277329505923,0.0,16768.0,30.75,60.0,773.8582742214203,0.0,0.0,4.40673783,1.0682242164103215,0.0,-29514.0,30.25,-67.5,-773.8582742214203,0.0,0.25,2.72216769,1.0720297273423962,0.0,0.3199999928474426,-0.30000001192092896,-102.13999938964844,-0.02349853515625,0.01068115234375,0.99176025390625,36.63999938964844,0.0,-1.0,2.4239959716796875,-1.82476806640625,Closing,0.0,0.0,3.0,0.0,0.0,0.0,0.0,0.125,
2.159652999999991,0.0,0.0,89257.0,28.0,52.5,238.11023533344266,0.0,0.25,1.877441214,1.0667362940844667,-0.0012207029999999897,-155325.0,21.125,-270.0,-238.11023533344266,0.0,0.25,1.665038892,1.0735531534156826,0.0,16777.0,31.625,52.5,238.11023533344266,0.0,0.0,4.407958533,1.0684987417093939,0.0,-29514.0,26.75,-45.0,-238.11023533344266,0.0,0.25,2.719726284,1.0723052306281222,0.0,0.3499999940395355,-0.30000001192092896,-102.12000274658203,-0.043701171875,-0.01995849609375,1.1312255859375,36.63999938964844,0.0,34.0,2.424163818359375,-1.824615478515625,Closing,0.0,0.0,3.0,0.0,0.0,0.0,0.0,0.125,
2.2016630000000004,0.0,0.0,89263.0,21.5,30.0,0.0,0.0,0.125,1.877441214,1.0667362940844667,0.0,-155325.0,12.375,-322.5,0.0,0.0,0.25,1.6369627230000001,1.0735531534156826,0.0012207029999999897,16777.0,9.0,22.5,0.0,0.0,0.0,4.409179236,1.0684987417093939,0.0,-29511.0,14.25,-7.5,0.0,0.0,0.25,2.723388393,1.0723052306281222,0.0,0.0,-0.38999998569488525,-102.0999984741211,-0.17529296875,-0.2977294921875,0.94976806640625,36.70000076293945,0.0,326.0,2.4251251220703125,-1.8244476318359375,Closing,0.0,0.0,3.0,0.0,0.0,0.0,0.0,0.0,
2.252310999999987,0.0,0.0,89263.0,5.0,-45.0,0.0,0.0,0.125,1.877441214,1.0667362940844667,0.0,-155346.0,2.5,-165.0,0.0,0.0,0.25,1.6320799110000002,1.0735531534156826,0.0012207029999999897,16777.0,0.0,0.0,0.0,0.0,0.0,4.407958533,1.0684987417093939,0.0,-29511.0,0.75,45.0,0.0,0.0,0.25,2.72216769,1.0723052306281222,0.0,-0.3700000047683716,-0.5,-102.08000183105469,0.079345703125,-0.20635986328125,1.14801025390625,36.70000076293945,0.0,175.0,2.4271240234375,-1.8243408203125,Closing,0.0,0.0,3.0,0.0,0.0,0.0,0.0,0.0,
2.302851999999999,0.0,0.0,89232.0,0.0,-210.0,0.0,0.0,0.125,1.876220511,1.0667362940844667,0.0,-155346.0,0.0,150.0,0.0,0.0,0.25,1.6076658510000001,1.0735531534156826,-0.03906249600000011,16774.0,0.0,-22.5,0.0,0.0,0.0,4.407958533,1.0684987417093939,0.0,-29511.0,0.125,120.0,0.0,0.0,0.25,2.723388393,1.0723052306281222,0.0012207029999999897,-0.4699999988079071,-0.44999998807907104,-102.08000183105469,-0.00469970703125,0.15460205078125,0.982177734375,36.70000076293945,0.0,-159.0,2.4319915771484375,-1.823333740234375,Closing,0.0,0.0,3.0,0.0,0.0,0.0,0.0,0.125,
2.3432919999999866,0.0,0.0,89232.0,0.0,-150.0,0.0,0.0,0.25,1.876220511,1.0667362940844667,0.0,-155320.0,0.0,142.5,0.0,0.0,0.25,1.6076658510000001,1.0735531534156826,0.0,16774.0,0.0,-60.0,0.0,0.0,0.0,4.407958533,1.0684987417093939,0.0,-29479.0,0.125,202.5,0.0,0.0,0.375,2.72216769,1.0723052306281222,0.0,-0.23999999463558197,-0.44999998807907104,-102.19000244140625,-0.06573486328125,0.012451171875,0.98138427734375,36.70000076293945,0.0,-4.0,2.434600830078125,-1.8225555419921875,Closing,0.0,0.0,3.0,0.0,0.0,0.0,0.0,0.0,
2.404676999999996,0.0,0.0,89232.0,0.0,-142.5,0.0,0.0,0.25,1.877441214,1.0667362940844667,0.0,-155320.0,0.0,150.0,0.0,0.0,0.25,1.6064451480000002,1.0735531534156826,0.0,16761.0,0.0,-75.0,0.0,0.0,0.0,4.412841345,1.0684987417093939,0.0,-29479.0,0.125,210.0,0.0,0.0,0.25,2.72216769,1.0723052306281222,0.0,-0.09000000357627869,-0.41999998688697815,-102.12000274658203,0.00640869140625,0.019287109375,1.0347900390625,36.70000076293945,0.0,-23.0,2.434326171875,-1.8223114013671875,Closing,0.0,0.0,3.0,0.0,0.0,0.0,0.0,0.125,
2.4487609999999984,0.0,0.0,89205.0,0.0,-180.0,0.0,0.0,0.25,1.876220511,1.0667362940844667,0.0,-155320.0,0.0,157.5,0.0,0.0,0.25,1.6076658510000001,1.0735531534156826,0.0,16761.0,0.0,-112.5,0.0,0.0,0.0,4.41894486,1.0684987417093939,0.003662108999999525,-29456.0,0.125,165.0,0.0,0.0,0.25,2.723388393,1.0723052306281222,0.0,0.029999999329447746,-0.4099999964237213,-102.06999969482422,-0.01568603515625,0.07110595703125,1.05255126953125,36.70000076293945,0.0,-67.0,2.433685302734375,-1.822113037109375,Closing,0.0,0.0,3.0,0.0,0.0,0.0,0.0,0.125,
2.4760769999999903,0.0,0.0,89205.0,0.0,-135.0,0.0,0.0,0.25,1.877441214,1.0667362940844667,0.0,-155303.0,0.0,97.5,0.0,0.0,0.25,1.6076658510000001,1.0735531534156826,0.0,16746.0,0.0,-105.0,0.0,0.0,0.0,4.41894486,1.0684987417093939,0.006103515000000392,-29456.0,0.125,90.0,0.0,0.0,0.25,2.723388393,1.0723052306281222,0.0,0.28999999165534973,-0.36000001430511475,-102.0999984741211,0.00775146484375,0.08782958984375,1.134033203125,36.70000076293945,0.0,-83.0,2.430816650390625,-1.82171630859375,Closing,0.0,0.0,3.0,0.0,0.0,0.0,0.0,0.125,
2.5390759999999863,0.0,0.0,89195.0,0.0,-52.5,0.0,0.0,0.25,1.877441214,1.0667362940844667,0.0,-155303.0,0.0,37.5,0.0,0.0,0.25,1.6076658510000001,1.0735531534156826,0.0,16746.0,0.0,-37.5,0.0,0.0,0.0,4.417724157,1.0684987417093939,0.0,-29456.0,0.125,45.0,0.0,0.0,0.25,2.727050502,1.0723052306281222,0.0,0.4699999988079071,-0.3400000035762787,-102.1500015258789,-0.00628662109375,0.04022216796875,1.05743408203125,36.70000076293945,0.0,-30.0,2.42608642578125,-1.82171630859375,Closing,0.0,0.0,3.0,0.0,0.0,0.0,0.0,0.125,
2.5934479999999893,0.0,0.0,89195.0,0.0,-7.5,0.0,0.0,0.25,1.877441214,1.0667362940844667,0.0,-155302.0,0.0,15.0,0.0,0.0,0.25,1.6076658510000001,1.0735531534156826,0.0,16746.0,0.0,-22.5,0.0,0.0,0.0,4.423827672,1.0684987417093939,0.0,-29452.0,0.125,22.5,0.0,0.0,0.25,2.72216769,1.0723052306281222,0.0,0.5,-0.33000001311302185,-102.13999938964844,0.00299072265625,0.0311279296875,1.01458740234375,36.70000076293945,0.0,-23.0,2.4234466552734375,-1.82171630859375,Closing,0.0,0.0,3.0,0.0,0.0,0.0,0.0,0.125,
2.6441630000000003,0.0,0.0,89195.0,0.0,0.0,0.0,0.0,0.25,1.877441214,1.0667362940844667,0.0,-155302.0,0.0,0.0,0.0,0.0,0.25,1.6015623360000002,1.0735531534156826,-0.0024414059999999793,16746.0,0.0,0.0,0.0,0.0,0.0,4.422606969,1.0684987417093939,-0.0024414059999999793,-29452.0,0.125,7.5,0.0,0.0,0.25,2.72216769,1.0723052306281222,0.0,0.5099999904632568,-0.3100000023841858,-102.0999984741211,-0.0128173828125,-0.00860595703125,1.0435791015625,36.70000076293945,0.0,19.0,2.4207611083984375,-1.82171630859375,Closing,0.0,0.0,3.0,0.0,0.0,0.0,0.0,0.125,
2.6701609999999927,0.0,0.0,89195.0,0.0,0.0,0.0,0.0,0.25,1.877441214,1.0667362940844667,0.0,-155302.0,0.0,0.0,0.0,0.0,0.125,1.6027830390000002,1.0735531534156826,-0.0024414059999999793,16746.0,0.0,0.0,0.0,0.0,0.0,4.41894486,1.0684987417093939,0.0,-29452.0,0.125,0.0,0.0,0.0,0.25,2.723388393,1.0723052306281222,0.0,0.46000000834465027,-0.33000001311302185,-102.12000274658203,-0.00933837890625,-0.0260009765625,0.97967529296875,36.70000076293945,0.0,33.0,2.420989990234375,-1.82171630859375,Closing,0.0,0.0,3.0,0.0,0.0,0.0,0.0,0.125,
2.721011999999988,0.0,0.0,89195.0,0.0,0.0,0.0,0.0,0.25,1.876220511,1.0667362940844667,0.0,-155302.0,0.0,0.0,0.0,0.0,0.125,1.6015623360000002,1.0735531534156826,0.0,16746.0,0.0,0.0,0.0,0.0,0.0,4.417724157,1.0684987417093939,-0.0012207029999995456,-29452.0,0.125,0.0,0.0,0.0,0.25,2.723388393,1.0723052306281222,-0.0012207029999999897,0.3799999952316284,-0.3400000035762787,-102.12999725341797,-0.02423095703125,-0.01397705078125,0.9739990234375,36.65999984741211,0.0,24.0,2.4216461181640625,-1.82171630859375,Closing,0.0,0.0,3.0,0.0,0.0,0.0,0.0,0.125,
2.7611649999999934,0.0,0.0,89195.0,0.0,0.0,0.0,0.0,0.25,1.876220511,1.0667362940844667,0.0,-155302.0,0.0,0.0,0.0,0.0,0.125,1.6027830390000002,1.0735531534156826,0.0,16746.0,0.0,0.0,0.0,0.0,0.0,4.41894486,1.0684987417093939,0.0,-29452.0,0.125,0.0,0.0,0.0,0.25,2.723388393,1.0723052306281222,0.0,0.3199999928474426,-0.36000001430511475,-102.11000061035156,-0.0064697265625,-0.0010986328125,1.02801513671875,36.65999984741211,0.0,6.0,2.4227294921875,-1.82171630859375,Closing,0.0,0.0,3.0,0.0,0.0,0.0,0.0,0.125,
2.8064749999999914,0.0,0.0,89195.0,0.375,-7.5,-515.9055286645889,0.0,0.375,1.877441214,4.932250999999998,0.0,-155294.0,0.5,0.0,515.9055286645889,0.0,0.125,1.6027830390000002,4.963769999999998,0.0,16746.0,0.375,0.0,-515.9055286645889,0.0,0.0,4.41894486,0.01,0.0,-29449.0,0.75,0.0,515.9055286645889,0.0,5.125,2.6977536300000002,0.01,0.0,0.28999999165534973,-0.3499999940395355,-102.12000274658203,-0.00225830078125,-0.00335693359375,1.02679443359375,36.65999984741211,0.0,7.0,2.4227294921875,-1.82171630859375,Closing,0.0,0.0,3.0,0.0,0.0,0.0,0.0,0.0,
2.8576389999999954,0.0,0.0,89195.0,0.375,-30.0,-1428.6614871025085,0.0,4.875,1.8139646580000002,4.932250999999998,0.0,-155294.0,1.375,52.5,1428.6614871025085,0.0,8.375,1.5063475020000001,4.963769999999998,0.0,16743.0,2.75,-7.5,-1428.6614871025085,0.0,4.875,4.30908159,0.01,0.0,-29449.0,0.875,22.5,1428.6614871025085,0.0,7.125,2.524413804,0.01,-0.024414059999999793,0.30000001192092896,-0.3499999940395355,-102.12999725341797,0.0069580078125,0.02252197265625,1.0484619140625,36.65999984741211,0.0,-19.0,2.4227294921875,-1.82171630859375,Closing,0.0,0.0,3.0,0.0,0.0,0.0,0.0,0.125,
2.911955999999991,0.0,0.0,89168.0,8.375,-180.0,-1547.7165484428406,0.0,2.375,1.5002439870000002,4.932250999999998,-0.236816382,-155294.0,7.375,187.5,1547.7165484428406,0.0,9.5,1.14746082,4.963769999999998,-0.2832030959999998,16743.0,8.125,-22.5,-1547.7165484428406,0.0,3.375,3.9440913930000003,0.01,-0.2929687200000002,-29449.0,7.875,180.0,1547.7165484428406,0.0,1.375,2.155761498,0.01,-0.35156246400000013,-0.25999999046325684,-0.6200000047683716,-102.08000183105469,-0.13775634765625,-0.435302734375,0.96728515625,36.65999984741211,0.0,448.0,2.42596435546875,-1.821258544921875,Closing,0.0,0.0,3.0,0.0,0.0,0.0,0.0,0.125,
2.958933999999994,0.0,0.0,89168.0,11.75,-225.0,-1547.7165484428406,0.0,1.625,1.2158201880000001,4.932250999999998,-0.20141599500000007,-155239.0,13.625,315.0,1547.7165484428406,0.0,1.125,0.848388585,4.963769999999998,-0.2136230250000004,16743.0,16.25,-60.0,-1547.7165484428406,0.0,0.5,3.615722286,0.01,0.0,-29404.0,12.75,285.0,1547.7165484428406,0.0,0.875,1.8151853610000002,0.01,0.0,-0.6700000166893005,-1.2899999618530273,-102.05000305175781,-0.41180419921875,0.076171875,0.7301025390625,36.65999984741211,0.0,0.0,2.4358978271484375,-1.82318115234375,Closing,0.0,0.0,3.0,0.0,0.0,0.0,0.0,0.0,
2.9955509999999923,0.0,0.0,89168.0,13.125,-255.0,-1329.4487857818604,0.0,0.875,1.01318349,4.932250999999998,-0.29174801699999997,-155239.0,15.125,382.5,1329.4487857818604,0.0,0.5,0.6481932930000001,4.963769999999998,-0.314941374,16727.0,18.625,-97.5,-1329.4487857818604,0.0,0.375,3.439941054,0.01,-0.3015136410000001,-29404.0,12.25,367.5,1329.4487857818604,0.0,0.25,1.627197099,0.01,-0.31005856200000026,-0.49000000953674316,-1.8799999952316284,-101.9800033569336,-0.40093994140625,0.1375732421875,0.956298828125,36.65999984741211,0.0,-65.0,2.440948486328125,-1.8271942138671875,Closing,0.0,0.0,3.0,0.0,0.0,0.0,0.0,0.0,
3.0332369999999935,0.0,0.0,89115.0,12.25,-367.5,-1329.4487857818604,0.0,0.5,0.836181555,4.932250999999998,0.0,-155239.0,14.125,495.0,1329.4487857818604,0.0,0.25,0.51269526,4.963769999999998,0.0,16727.0,19.375,-172.5,-1329.4487857818604,0.0,0.25,3.338622705,0.01,0.0,-29317.0,12.25,487.5,1329.4487857818604,0.0,0.125,1.468505709,0.01,0.0,0.11999999731779099,-2.390000104904175,-101.76000213623047,-0.27593994140625,0.2637939453125,1.12274169921875,36.65999984741211,0.0,-209.0,2.447021484375,-1.8369140625,Closing,0.0,0.0,3.0,0.0,0.0,0.0,0.0,0.0,
3.0768399999999967,0.0,0.0,89115.0,11.25,-607.5,-1329.4487857818604,0.0,0.375,0.794677653,4.932250999999998,0.0,-155142.0,14.5,600.0,1329.4487857818604,0.0,0.25,0.47973627900000004,4.963769999999998,0.0,16635.0,20.0,-367.5,-1329.4487857818604,0.0,0.0,3.333739893,0.01,0.0,-29317.0,12.125,592.5,1329.4487857818604,0.0,0.625,1.340331894,0.01,0.0,0.6000000238418579,-2.9800000190734863,-101.38999938964844,-0.15625,0.19647216796875,0.945556640625,36.65999984741211,0.0,-161.0,2.452880859375,-1.8552398681640625,Closing,0.0,0.0,3.0,0.0,0.0,0.0,0.0,0.0,
3.132125,0.0,0.0,88991.0,10.625,-682.5,-1329.4487857818604,0.0,0.25,0.79345695,4.932250999999998,0.0,-155142.0,14.625,697.5,1329.4487857818604,0.0,0.25,0.47851557600000005,4.963769999999998,0.0,16635.0,18.0,-660.0,-1329.4487857818604,0.0,0.0,3.333739893,0.01,0.0,-29317.0,12.0,705.0,1329.4487857818604,0.0,0.75,1.331786973,0.01,0.0,0.7099999785423279,-3.319999933242798,-100.9000015258789,-0.16497802734375,0.0399169921875,0.82623291015625,36.65999984741211,0.0,-6.0,2.456085205078125,-1.872039794921875,Closing,0.0,0.0,3.0,0.0,0.0,0.0,0.0,0.0,
3.184323999999993,0.0,0.0,88991.0,8.875,-937.5,-1329.4487857818604,0.0,0.25,0.7922362470000001,4.932250999999998,0.0,-154999.0,14.5,847.5,1329.4487857818604,0.0,0.25,0.47851557600000005,4.963769999999998,0.0,16635.0,14.625,-922.5,-1329.4487857818604,0.0,0.0,3.333739893,0.01,0.0,-29185.0,12.375,802.5,1329.4487857818604,0.0,0.625,1.3964842320000002,0.01,0.0,0.6800000071525574,-3.619999885559082,-100.18000030517578,-0.2265625,0.12615966796875,1.2437744140625,36.65999984741211,0.0,-83.0,2.4590911865234375,-1.8906707763671875,Closing,0.0,0.0,3.0,0.0,0.0,0.0,0.0,0.125,
3.229304999999993,0.0,0.0,88991.0,7.5,-1080.0,-1269.9212551116943,0.0,0.25,0.7922362470000001,4.932250999999998,0.0,-154999.0,13.875,937.5,1269.9212551116943,0.0,0.25,0.47851557600000005,4.963769999999998,0.0,16450.0,10.375,-1140.0,-1269.9212551116943,0.0,0.0,3.33251919,0.01,0.0,-29185.0,12.0,922.5,1269.9212551116943,0.0,0.375,1.507568205,0.01,0.0,0.6499999761581421,-3.859999895095825,-99.41999816894531,-0.18414306640625,0.12139892578125,0.99481201171875,36.61000061035156,0.0,-89.0,2.4613189697265625,-1.9110107421875,Closing,0.0,0.0,3.0,0.0,0.0,0.0,0.0,0.0,
3.2726089999999965,0.0,0.0,88800.0,2.0,-1215.0,0.0,0.0,0.125,0.79345695,4.932250999999998,0.0,-154999.0,5.375,1035.0,0.0,0.0,0.25,0.47363276400000004,4.963769999999998,0.0012207030000004337,16450.0,5.0,-1267.5,0.0,0.0,0.0,3.334960596,0.01,0.0,-29026.0,6.375,1005.0,0.0,0.0,0.375,1.6027830390000002,0.01,0.10864256700000041,0.5199999809265137,-3.9100000858306885,-98.66000366210938,-0.0076904296875,-0.10809326171875,0.8756103515625,36.61000061035156,0.0,106.0,2.46405029296875,-1.9402313232421875,Closing,0.0,0.0,3.0,0.0,0.0,0.0,0.0,0.0,
3.3301129999999977,0.0,0.0,88800.0,0.0,-1140.0,0.0,0.0,0.125,0.783691326,4.932250999999998,0.0012207030000004337,-154845.0,1.5,1012.5,0.0,0.0,0.25,0.46386714,4.963769999999998,-0.009765623999999917,16450.0,0.625,-1245.0,0.0,0.0,0.0,3.334960596,0.01,-0.0012207030000004337,-29026.0,0.25,967.5,0.0,0.0,0.375,1.641845535,0.01,0.0988769429999996,0.5099999904632568,-3.7200000286102295,-98.37000274658203,0.48779296875,-0.3134765625,1.4324951171875,36.61000061035156,0.0,238.0,2.4661712646484375,-1.954010009765625,Closing,0.0,0.0,3.0,0.0,0.0,0.0,0.0,0.0,
3.3660999999999914,0.0,0.0,88636.0,0.0,-1005.0,0.0,0.0,0.25,0.771484296,4.932250999999998,-0.019531247999999835,-154845.0,0.0,885.0,0.0,0.0,0.25,0.468749952,4.963769999999998,0.0,16273.0,0.0,-1095.0,0.0,0.0,0.0,3.333739893,0.01,0.0,-29026.0,0.125,885.0,0.0,0.0,0.25,1.669921704,0.01,-4.917716801,0.38999998569488525,-3.1700000762939453,-98.19999694824219,0.04315185546875,-0.18145751953125,0.8216552734375,36.61000061035156,0.0,172.0,2.468963623046875,-1.965850830078125,Closing,0.0,0.0,3.0,0.0,0.0,0.0,0.0,0.0,
3.4063819999999976,0.0,0.0,88636.0,0.0,-990.0,0.0,0.0,0.25,0.773925702,4.932250999999998,-0.019531247999999835,-154845.0,0.0,870.0,0.0,0.0,0.25,0.46386714,4.963769999999998,0.0,16273.0,0.0,-855.0,0.0,0.0,0.0,3.334960596,0.01,0.0012207030000004337,-28871.0,0.125,997.5,0.0,0.0,0.25,1.6625974860000001,0.01,0.019531248000000057,0.36000001430511475,-2.75,-98.47000122070312,0.1221923828125,0.06866455078125,0.78558349609375,36.61000061035156,0.0,-86.0,2.476348876953125,-1.992279052734375,Closing,0.0,0.0,3.0,0.0,0.0,0.0,0.0,0.0,
3.460080999999991,0.0,0.0,88636.0,0.0,-1080.0,0.0,0.0,0.25,0.773925702,4.932250999999998,-0.004882811999999959,-154686.0,0.0,990.0,0.0,0.0,0.25,0.449218704,4.963769999999998,-0.006103515000000392,16130.0,0.0,-855.0,0.0,0.0,0.0,3.333739893,0.01,0.0012207030000004337,-28871.0,0.125,1042.5,0.0,0.0,0.25,1.6625974860000001,0.01,0.0,0.4699999988079071,-2.819999933242798,-98.62000274658203,0.16412353515625,0.04254150390625,0.9364013671875,36.61000061035156,0.0,-65.0,2.4800262451171875,-2.0060882568359375,Closing,0.0,0.0,3.0,0.0,0.0,0.0,0.0,0.0,
3.5262719999999974,0.0,0.0,88481.0,0.0,-915.0,0.0,0.0,0.25,0.773925702,4.932250999999998,0.0012207030000004337,-154686.0,0.0,1005.0,0.0,0.0,0.25,0.45532221900000003,4.963769999999998,-0.009765623999999917,16130.0,0.0,-900.0,0.0,0.0,0.0,3.333739893,0.01,0.0,-28715.0,0.125,990.0,0.0,0.0,0.25,1.651611159,0.01,-0.009765623999999917,0.3799999952316284,-2.4000000953674316,-98.91000366210938,-0.0670166015625,0.201171875,1.346923828125,36.61000061035156,0.0,-188.0,2.4833221435546875,-2.017425537109375,Closing,0.0,0.0,3.0,0.0,0.0,0.0,0.0,0.0,
3.569801999999996,0.0,0.0,88481.0,0.0,-840.0,0.0,0.0,0.25,0.773925702,4.932250999999998,0.0,-154532.0,0.0,960.0,0.0,0.0,0.25,0.465087843,4.963769999999998,0.004882811999999959,16004.0,0.0,-832.5,0.0,0.0,0.0,3.333739893,0.01,0.0,-28715.0,0.125,937.5,0.0,0.0,0.25,1.64794905,0.01,-0.004882812000000181,0.3799999952316284,-2.1700000762939453,-99.1500015258789,0.05462646484375,0.10614013671875,1.1767578125,36.61000061035156,0.0,-112.0,2.486175537109375,-2.0276641845703125,Closing,0.0,0.0,3.0,0.0,0.0,0.0,0.0,0.125,
3.608521999999997,0.0,0.0,88349.0,0.0,-825.0,0.0,0.0,0.25,0.773925702,4.932250999999998,0.0,-154532.0,0.0,907.5,0.0,0.0,0.25,0.468749952,4.963769999999998,0.004882811999999959,16004.0,0.0,-802.5,0.0,0.0,0.0,3.333739893,0.01,0.0,-28715.0,0.125,900.0,0.0,0.0,0.25,1.646728347,0.01,-0.004882812000000181,0.41999998688697815,-2.0,-99.30000305175781,0.1650390625,0.0264892578125,1.3170166015625,36.61000061035156,0.0,-50.0,2.488067626953125,-2.033843994140625,Closing,0.0,0.0,3.0,0.0,0.0,0.0,0.0,0.0,
3.6541359999999985,0.0,0.0,88349.0,0.0,-787.5,0.0,0.0,0.25,0.773925702,4.932250999999998,0.0,-154532.0,0.0,855.0,0.0,0.0,0.25,0.47363276400000004,4.963769999999998,0.014648436000000764,16004.0,0.0,-735.0,0.0,0.0,0.0,3.333739893,0.01,0.0,-28585.0,0.125,825.0,0.0,0.0,0.25,1.645507644,0.01,-0.004882811999999959,0.3499999940395355,-1.7100000381469727,-99.4800033569336,0.0667724609375,0.05096435546875,1.029296875,36.61000061035156,0.0,-60.0,2.49127197265625,-2.044281005859375,Closing,0.0,0.0,3.0,0.0,0.0,0.0,0.0,0.0,
3.7109419999999953,0.0,0.0,88349.0,0.0,-720.0,0.0,0.0,0.25,0.773925702,4.932250999999998,0.0,-154403.0,0.0,795.0,0.0,0.0,0.25,0.47241206100000005,4.963769999999998,0.004882811999999959,15888.0,0.0,-720.0,0.0,0.0,0.0,3.333739893,0.01,-0.0012207030000004337,-28585.0,0.125,772.5,0.0,0.0,0.25,1.646728347,0.01,-0.0012207029999999897,0.3700000047683716,-1.5,-99.61000061035156,0.02392578125,-0.096923828125,1.07904052734375,36.61000061035156,0.0,93.0,2.49285888671875,-2.0505523681640625,Closing,0.0,0.0,3.0,0.0,0.0,0.0,0.0,0.0,
3.7443919999999924,0.0,0.0,88240.0,0.0,-652.5,0.0,0.0,0.25,0.773925702,4.932250999999998,0.0,-154403.0,0.0,720.0,0.0,0.0,0.25,0.47363276400000004,4.963769999999998,0.0,15888.0,0.0,-682.5,0.0,0.0,0.0,3.333739893,0.01,0.0,-28477.0,0.125,705.0,0.0,0.0,0.25,1.64794905,0.01,0.0,0.3799999952316284,-1.2100000381469727,-99.76000213623047,0.09027099609375,-0.07550048828125,1.19091796875,36.560001373291016,0.0,-22.0,2.4958343505859375,-2.057281494140625,Closing,0.0,0.0,3.0,0.0,0.0,0.0,0.0,0.0,
3.805833999999988,0.0,0.0,88240.0,0.0,-630.0,0.0,0.0,0.25,0.773925702,4.932250999999998,0.0,-154297.0,0.0,667.5,0.0,0.0,0.25,0.47241206100000005,4.963769999999998,0.0,15888.0,0.0,-630.0,0.0,0.0,0.0,3.333739893,0.01,0.0,-28477.0,0.125,652.5,0.0,0.0,0.25,1.646728347,0.01,0.0,0.3199999928474426,-1.0399999618530273,-99.83000183105469,0.08551025390625,0.032958984375,0.95697021484375,36.560001373291016,0.0,-44.0,2.4969635009765625,-2.058929443359375,Closing,0.0,0.0,3.0,0.0,0.0,0.0,0.0,0.0,
3.8522209999999903,0.0,0.0,88149.0,0.0,-570.0,0.0,0.0,0.25,0.773925702,4.932250999999998,0.0,-154297.0,0.0,615.0,0.0,0.0,0.25,0.47363276400000004,4.963769999999998,0.0,15794.0,0.0,-577.5,0.0,0.0,0.0,3.333739893,0.01,0.0012207029999995456,-28477.0,0.125,592.5,0.0,0.0,0.25,1.646728347,0.01,0.0,0.3499999940395355,-0.8299999833106995,-99.88999938964844,0.049072265625,-0.0189208984375,1.03680419921875,36.560001373291016,0.0,13.0,2.4981842041015625,-2.060333251953125,Closing,0.0,0.0,3.0,0.0,0.0,0.0,0.0,0.0,
3.906256999999998,0.0,0.0,88149.0,0.0,-540.0,0.0,0.0,0.25,0.773925702,4.932250999999998,0.0,-154214.0,0.0,540.0,0.0,0.0,0.25,0.47363276400000004,4.963769999999998,0.0012207030000004337,15794.0,0.0,-517.5,0.0,0.0,0.0,3.334960596,0.01,0.0012207030000004337,-28394.0,0.125,517.5,0.0,0.0,0.25,1.649169753,0.01,0.0,0.3199999928474426,-0.5699999928474426,-99.94000244140625,0.029052734375,0.00921630859375,0.98406982421875,36.560001373291016,0.0,-10.0,2.498443603515625,-2.0603485107421875,Closing,0.0,0.0,3.0,0.0,0.0,0.0,0.0,0.0,
3.9374279999999997,0.0,0.0,88149.0,0.0,-480.0,0.0,0.0,0.25,0.7763671080000001,4.932250999999998,0.0,-154214.0,0.0,495.0,0.0,0.0,0.25,0.47363276400000004,4.963769999999998,0.0,15719.0,0.0,-472.5,0.0,0.0,0.0,3.333739893,0.01,-0.0012207030000004337,-28394.0,0.125,472.5,0.0,0.0,0.25,1.64794905,0.01,0.0,0.36000001430511475,-0.3799999952316284,-99.98999786376953,0.072021484375,0.0048828125,1.1273193359375,36.560001373291016,0.0,-11.0,2.4979705810546875,-2.0590972900390625,Closing,0.0,0.0,3.0,0.0,0.0,0.0,0.0,0.0,
3.9931849999999978,0.0,0.0,88076.0,0.0,-457.5,0.0,0.0,0.25,0.773925702,4.932250999999998,-0.0012207030000004337,-154214.0,0.0,450.0,0.0,0.0,0.25,0.47363276400000004,4.963769999999998,0.0,15719.0,0.0,-427.5,0.0,0.0,0.0,3.333739893,0.01,0.0012207030000004337,-28394.0,0.125,427.5,0.0,0.0,0.25,1.641845535,0.01,0.0,0.3199999928474426,-0.2800000011920929,-100.0199966430664,0.07806396484375,0.0137939453125,0.93829345703125,36.560001373291016,0.0,-22.0,2.4974517822265625,-2.057708740234375,Closing,0.0,0.0,3.0,0.0,0.0,0.0,0.0,0.0,
4.046931999999986,0.0,0.0,88076.0,0.0,-375.0,0.0,0.0,0.25,0.773925702,4.932250999999998,0.0,-154151.0,0.0,390.0,0.0,0.0,0.25,0.47363276400000004,4.963769999999998,0.0,15719.0,0.0,-390.0,0.0,0.0,0.0,3.333739893,0.01,0.0,-28330.0,0.125,390.0,0.0,0.0,0.25,1.64794905,0.01,0.0,0.3100000023841858,-0.07999999821186066,-100.05999755859375,0.08404541015625,0.017333984375,1.00860595703125,36.560001373291016,0.0,-26.0,2.49664306640625,-2.05487060546875,Closing,0.0,0.0,3.0,0.0,0.0,0.0,0.0,0.0,
4.079691999999995,0.0,0.0,88026.0,0.0,-330.0,0.0,0.0,0.25,0.773925702,4.932250999999998,0.0012207030000004337,-154151.0,0.0,345.0,0.0,0.0,0.25,0.47363276400000004,4.963769999999998,0.0,15665.0,0.0,-315.0,0.0,0.0,0.0,3.333739893,0.01,0.0,-28330.0,0.125,330.0,0.0,0.0,0.25,1.646728347,0.01,0.0,0.3199999928474426,0.10999999940395355,-100.12000274658203,0.1041259765625,0.04522705078125,0.98040771484375,36.560001373291016,0.0,-57.0,2.4948883056640625,-2.0498199462890625,Closing,0.0,0.0,3.0,0.0,0.0,0.0,0.0,0.125,
4.132197,0.0,0.0,88026.0,0.125,-262.5,-158.7401568889618,0.0,0.25,0.773925702,4.932250999999998,0.0,-154111.0,0.0,270.0,158.7401568889618,0.0,0.25,0.47363276400000004,4.963769999999998,0.0,15665.0,0.125,-247.5,-158.7401568889618,0.0,0.0,3.333739893,0.01,0.0,-28285.0,0.25,262.5,158.7401568889618,0.0,0.25,1.646728347,0.01,0.0,0.30000001192092896,0.3199999928474426,-100.16999816894531,0.1060791015625,-0.026123046875,0.9755859375,36.560001373291016,0.0,13.0,2.4925537109375,-2.043182373046875,Closing,0.0,0.0,3.0,0.0,0.0,0.0,0.0,0.0,
4.192108999999997,0.0,0.0,88026.0,0.0,-217.5,-218.26772511005402,0.0,0.25,0.773925702,4.932250999999998,0.0,-154111.0,0.0,247.5,218.26772511005402,0.0,0.25,0.47363276400000004,4.963769999999998,0.0,15630.0,0.0,-225.0,-218.26772511005402,0.0,0.0,3.333739893,0.01,0.0,-28285.0,0.125,232.5,218.26772511005402,0.0,0.25,1.64794905,0.01,0.0,0.2800000011920929,0.4099999964237213,-100.16000366210938,0.0882568359375,0.00921630859375,1.04266357421875,36.560001373291016,0.0,-18.0,2.4925537109375,-2.0391845703125,Closing,0.0,0.0,3.0,0.0,0.0,0.0,0.0,0.125,
4.248163999999989,0.0,0.0,87996.0,0.0,-172.5,-515.9055286645889,0.0,0.25,0.773925702,4.932250999999998,0.0,-154111.0,0.0,172.5,515.9055286645889,0.0,0.25,0.47363276400000004,4.963769999999998,0.0,15630.0,0.125,-165.0,-515.9055286645889,0.0,0.0,3.333739893,0.01,0.0,-28264.0,0.375,157.5,515.9055286645889,0.0,0.25,1.6540525650000002,0.01,0.0,0.28999999165534973,0.6299999952316284,-100.18000030517578,0.09088134765625,0.00482177734375,1.05218505859375,36.540000915527344,0.0,-13.0,2.4925537109375,-2.0299224853515625,Closing,0.0,0.0,3.0,0.0,0.0,0.0,0.0,0.125,
4.2783319999999945,0.0,0.0,87996.0,0.125,-120.0,-734.173253774643,0.0,0.25,0.773925702,4.932250999999998,0.0,-154088.0,0.375,127.5,734.173253774643,0.0,0.25,0.47363276400000004,4.963769999999998,0.0,15609.0,0.375,-127.5,-734.173253774643,0.0,0.0,3.33251919,0.01,0.0,-28264.0,0.75,120.0,734.173253774643,0.0,0.25,1.646728347,0.01,0.0,0.2800000011920929,0.6800000071525574,-100.22000122070312,-6.103515625E-5,0.02130126953125,1.052978515625,36.540000915527344,0.0,-13.0,2.4924163818359375,-2.02215576171875,Closing,0.0,0.0,3.0,0.0,0.0,0.0,0.0,0.0,
4.332989999999991,0.0,0.0,87969.0,1.0,-187.5,-754.0157639980315,0.0,0.25,0.7885741380000001,4.932250999999998,0.0,-154088.0,1.875,247.5,754.0157639980315,0.0,0.25,0.465087843,4.963769999999998,0.0,15609.0,2.125,-165.0,-754.0157639980315,0.0,0.0,3.330077784,0.01,0.0,-28227.0,1.625,232.5,754.0157639980315,0.0,0.25,1.646728347,0.01,0.0,0.23999999463558197,0.3700000047683716,-100.23999786376953,-0.16046142578125,-0.06793212890625,1.0748291015625,36.540000915527344,0.0,101.0,2.4924468994140625,-2.0230560302734375,Closing,0.0,0.0,3.0,0.0,0.0,0.0,0.0,0.0,
4.401063999999998,0.0,0.0,87969.0,2.0,-232.5,-754.0157639980315,0.0,0.25,0.784912029,4.932250999999998,0.010986327000000351,-154050.0,2.375,255.0,754.0157639980315,0.0,0.25,0.46020503100000004,4.963769999999998,-0.009765624000000805,15609.0,2.5,-157.5,-754.0157639980315,0.0,0.0,3.328857081,0.01,-0.004882811999999959,-28227.0,2.375,247.5,754.0157639980315,0.0,0.25,1.64794905,0.01,0.0012207029999999897,0.25,0.27000001072883606,-100.2699966430664,-0.0826416015625,0.0010986328125,1.31243896484375,36.540000915527344,0.0,20.0,2.4929656982421875,-2.0255279541015625,Closing,0.0,0.0,3.0,0.0,0.0,0.0,0.0,0.0,
4.451332999999999,0.0,0.0,87939.0,2.375,-195.0,-754.0157639980315,0.0,0.125,0.7885741380000001,4.932250999999998,0.0,-154050.0,3.625,172.5,754.0157639980315,0.0,0.25,0.430908159,4.963769999999998,0.0,15589.0,3.625,-97.5,-754.0157639980315,0.0,0.0,3.328857081,0.01,0.0,-28227.0,2.875,165.0,754.0157639980315,0.0,0.25,1.646728347,0.01,0.0,0.23999999463558197,0.09000000357627869,-100.29000091552734,-0.16552734375,-0.02459716796875,0.79791259765625,36.540000915527344,0.0,57.0,2.4937286376953125,-2.029205322265625,Closing,0.0,0.0,3.0,0.0,0.0,0.0,0.0,0.0,
4.503293999999994,0.0,0.0,87939.0,3.375,-180.0,-754.0157639980315,0.0,0.125,0.7885741380000001,4.932250999999998,0.0,-154013.0,4.5,172.5,754.0157639980315,0.0,0.25,0.429687456,4.963769999999998,0.0,15589.0,4.875,-127.5,-754.0157639980315,0.0,0.0,3.3276363780000002,0.01,0.0,-28196.0,3.875,172.5,754.0157639980315,0.0,0.25,1.646728347,0.01,0.0,0.23999999463558197,-0.27000001072883606,-100.33000183105469,-0.11224365234375,-0.036865234375,0.997802734375,36.540000915527344,0.0,59.0,2.4947509765625,-2.034393310546875,Closing,0.0,0.0,3.0,0.0,0.0,0.0,0.0,0.0,
4.536248999999996,0.0,0.0,87939.0,3.75,-240.0,-754.0157639980315,0.0,0.125,0.783691326,4.932250999999998,0.0,-154013.0,5.5,270.0,754.0157639980315,0.0,0.25,0.444335892,4.963769999999998,0.0,15550.0,5.25,-247.5,-754.0157639980315,0.0,0.0,3.330077784,0.01,0.0,-28196.0,5.0,270.0,754.0157639980315,0.0,0.25,1.649169753,0.01,0.0,0.30000001192092896,-0.6499999761581421,-100.38999938964844,-0.1390380859375,0.0020751953125,1.06219482421875,36.540000915527344,0.0,26.0,2.4965362548828125,-2.043853759765625,Closing,0.0,0.0,3.0,0.0,0.0,0.0,0.0,0.0,
4.5951059999999995,0.0,0.0,87892.0,3.75,-307.5,-754.0157639980315,0.0,0.25,0.783691326,4.932250999999998,0.0,-154013.0,5.375,307.5,754.0157639980315,0.0,0.25,0.45410151600000004,4.963769999999998,0.014648435999999876,15550.0,5.375,-277.5,-754.0157639980315,0.0,0.0,3.328857081,0.01,0.0,-28196.0,4.875,307.5,754.0157639980315,0.0,0.25,1.646728347,0.01,0.0,0.3100000023841858,-0.800000011920929,-100.5,-0.09674072265625,-0.009521484375,1.08831787109375,36.540000915527344,0.0,30.0,2.497650146484375,-2.0495452880859375,Closing,0.0,0.0,3.0,0.0,0.0,0.0,0.0,0.125,
4.628112999999997,0.0,0.0,87892.0,4.0,-367.5,-754.0157639980315,0.0,0.25,0.783691326,4.932250999999998,0.0,-153942.0,5.25,427.5,754.0157639980315,0.0,0.25,0.47363276400000004,4.963769999999998,0.0,15550.0,5.5,-337.5,-754.0157639980315,0.0,0.0,3.328857081,0.01,0.0,-28131.0,4.875,427.5,754.0157639980315,0.0,0.25,1.64794905,0.01,0.0,0.25999999046325684,-1.100000023841858,-100.61000061035156,-0.08734130859375,-0.06329345703125,1.11114501953125,36.540000915527344,0.0,79.0,2.4998016357421875,-2.059539794921875,Closing,0.0,0.0,3.0,0.0,0.0,0.0,0.0,0.0,
4.673317999999999,0.0,0.0,87812.0,3.625,-472.5,-754.0157639980315,0.0,0.25,0.783691326,4.932250999999998,0.0,-153942.0,4.875,495.0,754.0157639980315,0.0,0.25,0.47973627900000004,4.963769999999998,0.0,15482.0,5.5,-442.5,-754.0157639980315,0.0,0.0,3.3276363780000002,0.01,0.0,-28131.0,4.125,487.5,754.0157639980315,0.0,0.25,1.646728347,0.01,0.0,0.23000000417232513,-1.3600000143051147,-100.62999725341797,-0.0718994140625,0.03265380859375,0.963134765625,36.540000915527344,0.0,-19.0,2.5033721923828125,-2.0751495361328125,Closing,0.0,0.0,3.0,0.0,0.0,0.0,0.0,0.125,
4.729990999999995,0.0,0.0,87812.0,3.5,-547.5,-754.0157639980315,0.0,0.25,0.7885741380000001,4.932250999999998,0.0,-153841.0,4.25,592.5,754.0157639980315,0.0,0.25,0.47851557600000005,4.963769999999998,0.0,15482.0,4.625,-570.0,-754.0157639980315,0.0,0.0,3.330077784,0.01,0.0,-28039.0,4.0,570.0,754.0157639980315,0.0,0.25,1.646728347,0.01,0.0,0.27000001072883606,-1.5499999523162842,-100.63999938964844,-0.027099609375,-0.00775146484375,0.96319580078125,36.540000915527344,0.0,12.0,2.507049560546875,-2.0924072265625,Closing,0.0,0.0,3.0,0.0,0.0,0.0,0.0,0.0,
4.78843299999999,0.0,0.0,87812.0,3.25,-607.5,-754.0157639980315,0.0,0.25,0.783691326,4.932250999999998,0.0,-153841.0,3.875,645.0,754.0157639980315,0.0,0.25,0.47973627900000004,4.963769999999998,0.0,15379.0,4.125,-630.0,-754.0157639980315,0.0,0.0,3.331298487,0.01,0.0,-28039.0,3.5,630.0,754.0157639980315,0.0,0.25,1.646728347,0.01,0.0,0.3499999940395355,-1.6200000047683716,-100.6500015258789,-0.01409912109375,-0.0421142578125,1.17486572265625,36.540000915527344,0.0,45.0,2.507080078125,-2.1012115478515625,Closing,0.0,0.0,3.0,0.0,0.0,0.0,0.0,0.0,
4.824822,0.0,0.0,87707.0,3.125,-630.0,-754.0157639980315,0.0,0.25,0.783691326,4.932250999999998,0.0,-153841.0,3.375,682.5,754.0157639980315,0.0,0.25,0.477294873,4.963769999999998,0.0,15379.0,3.875,-682.5,-754.0157639980315,0.0,0.0,3.3276363780000002,0.01,0.0,-28039.0,3.25,675.0,754.0157639980315,0.0,0.25,1.646728347,0.01,0.0,0.3100000023841858,-1.7899999618530273,-100.7300033569336,-0.20550537109375,0.0565185546875,1.1280517578125,36.540000915527344,0.0,-17.0,2.5076446533203125,-2.1143798828125,Closing,0.0,0.0,3.0,0.0,0.0,0.0,0.0,0.125,
4.867971999999995,0.0,0.0,87707.0,2.875,-690.0,-754.0157639980315,0.0,0.25,0.783691326,4.932250999999998,0.0,-153722.0,3.0,727.5,754.0157639980315,0.0,0.25,0.47973627900000004,4.963769999999998,0.0,15379.0,3.5,-720.0,-754.0157639980315,0.0,0.0,3.328857081,0.01,0.0,-27924.0,3.0,720.0,754.0157639980315,0.0,0.25,1.646728347,0.01,0.0,0.3100000023841858,-1.7899999618530273,-100.77999877929688,-0.03692626953125,-0.00543212890625,1.0203857421875,36.540000915527344,0.0,11.0,2.508453369140625,-2.1283111572265625,Closing,0.0,0.0,3.0,0.0,0.0,0.0,0.0,0.0,
4.9246929999999995,0.0,0.0,87707.0,2.75,-727.5,-773.8582742214203,0.0,0.25,0.782470623,4.932250999999998,0.0024414059999999793,-153722.0,2.75,757.5,773.8582742214203,0.0,0.25,0.47851557600000005,4.963769999999998,0.0,15260.0,3.375,-735.0,-773.8582742214203,0.0,0.0,3.328857081,0.01,0.0,-27924.0,2.875,750.0,773.8582742214203,0.0,0.25,1.64794905,0.01,0.0,0.3400000035762787,-1.809999942779541,-100.80999755859375,-0.1170654296875,-0.05804443359375,1.21002197265625,36.540000915527344,0.0,78.0,2.5101470947265625,-2.1472320556640625,Closing,0.0,0.0,3.0,0.0,0.0,0.0,0.0,0.0,
4.981907999999996,0.0,0.0,87584.0,2.25,-780.0,-773.8582742214203,0.0,0.25,0.787353435,4.932250999999998,0.0,-153592.0,2.375,795.0,773.8582742214203,0.0,0.25,0.483398388,4.963769999999998,0.0,15260.0,3.25,-757.5,-773.8582742214203,0.0,0.0,3.328857081,0.01,0.0,-27800.0,2.625,772.5,773.8582742214203,0.0,0.25,1.646728347,0.01,0.0,0.30000001192092896,-1.8200000524520874,-100.80000305175781,-0.046875,-0.02716064453125,0.97149658203125,36.540000915527344,0.0,34.0,2.5117034912109375,-2.1619415283203125,Closing,0.0,0.0,3.0,0.0,0.0,0.0,0.0,0.0,
5.034195999999996,0.0,0.0,87584.0,1.875,-802.5,-773.8582742214203,0.0,0.125,0.783691326,4.932250999999998,0.0,-153592.0,2.125,817.5,773.8582742214203,0.0,0.125,0.482177685,4.963769999999998,0.0,15133.0,3.125,-787.5,-773.8582742214203,0.0,0.0,3.328857081,0.01,0.0,-27800.0,2.5,802.5,773.8582742214203,0.0,0.25,1.641845535,0.01,0.0,0.3199999928474426,-1.7999999523162842,-100.79000091552734,-0.0206298828125,0.02783203125,0.91058349609375,36.540000915527344,0.0,-23.0,2.5138092041015625,-2.1815032958984375,Closing,0.0,0.0,3.0,0.0,0.0,0.0,0.0,0.0,
5.072704999999988,0.0,0.0,87454.0,1.375,-825.0,-773.8582742214203,0.0,0.25,0.783691326,4.932250999999998,0.0,-153592.0,2.125,817.5,773.8582742214203,0.0,0.125,0.483398388,4.963769999999998,0.0,15133.0,3.0,-802.5,-773.8582742214203,0.0,0.0,3.328857081,0.01,0.0,-27668.0,2.375,817.5,773.8582742214203,0.0,0.25,1.646728347,0.01,0.0,0.33000001311302185,-1.7699999809265137,-100.80999755859375,0.01580810546875,-0.0604248046875,1.05517578125,36.540000915527344,0.0,56.0,2.5152740478515625,-2.18634033203125,Closing,0.0,0.0,3.0,0.0,0.0,0.0,0.0,0.125,
5.129613999999987,0.0,0.0,87454.0,1.375,-840.0,-773.8582742214203,0.0,0.25,0.787353435,4.932250999999998,0.0,-153460.0,1.875,817.5,773.8582742214203,0.0,0.125,0.484619091,4.963769999999998,0.0,15002.0,2.75,-817.5,-773.8582742214203,0.0,0.0,3.328857081,0.01,0.0,-27668.0,2.375,825.0,773.8582742214203,0.0,0.25,1.645507644,0.01,0.0,0.3199999928474426,-1.7799999713897705,-100.83000183105469,-0.0673828125,0.07183837890625,1.13177490234375,36.540000915527344,0.0,-58.0,2.5174713134765625,-2.18603515625,Closing,0.0,0.0,3.0,0.0,0.0,0.0,0.0,0.125,
5.188601999999999,0.0,0.0,87320.0,1.25,-840.0,-773.8582742214203,0.0,0.25,0.7885741380000001,4.932250999999998,0.0,-153460.0,1.625,832.5,773.8582742214203,0.0,0.125,0.482177685,4.963769999999998,0.0,15002.0,2.75,-825.0,-773.8582742214203,0.0,0.0,3.330077784,0.01,0.0,-27668.0,2.0,825.0,773.8582742214203,0.0,0.25,1.646728347,0.01,0.0,0.3199999928474426,-1.7899999618530273,-100.88999938964844,-0.10858154296875,0.0252685546875,0.82196044921875,36.540000915527344,0.0,-4.0,2.51904296875,-2.185699462890625,Closing,0.0,0.0,3.0,0.0,0.0,0.0,0.0,0.0,
5.226271999999997,0.0,0.0,87320.0,1.25,-832.5,-773.8582742214203,0.0,0.25,0.783691326,4.932250999999998,0.0,-153323.0,1.5,855.0,773.8582742214203,0.0,0.125,0.484619091,4.963769999999998,0.0,15002.0,2.375,-825.0,-773.8582742214203,0.0,0.0,3.330077784,0.01,0.0,-27533.0,1.625,847.5,773.8582742214203,0.0,0.25,1.646728347,0.01,0.0,0.28999999165534973,-1.7400000095367432,-101.01000213623047,-0.02593994140625,-0.01556396484375,0.982421875,36.540000915527344,0.0,19.0,2.5210723876953125,-2.1852264404296875,Closing,0.0,0.0,3.0,0.0,0.0,0.0,0.0,0.0,
5.296149999999995,0.0,0.0,87186.0,1.0,-825.0,-773.8582742214203,0.0,0.25,0.783691326,4.932250999999998,0.0,-153323.0,1.375,840.0,773.8582742214203,0.0,0.125,0.483398388,4.963769999999998,0.0,14871.0,2.375,-810.0,-773.8582742214203,0.0,0.0,3.328857081,0.01,0.0,-27533.0,1.5,870.0,773.8582742214203,0.0,0.25,1.646728347,0.01,0.0,0.28999999165534973,-1.7300000190734863,-101.12999725341797,-0.04486083984375,-0.0076904296875,1.1094970703125,36.5099983215332,0.0,15.0,2.5227203369140625,-2.184356689453125,Closing,0.0,0.0,3.0,0.0,0.0,0.0,0.0,0.125,
5.354699999999997,0.0,0.0,87186.0,1.0,-817.5,-773.8582742214203,0.0,0.125,0.7897948410000001,4.932250999999998,0.0,-153187.0,1.25,840.0,773.8582742214203,0.0,0.125,0.458984328,4.963769999999998,0.0,14871.0,2.75,-750.0,-773.8582742214203,0.0,0.0,3.328857081,0.01,0.0,-27394.0,1.25,862.5,773.8582742214203,0.0,0.25,1.64794905,0.01,0.0,0.2800000011920929,-1.6399999856948853,-101.33999633789062,0.031982421875,0.03912353515625,0.833740234375,36.5099983215332,0.0,-45.0,2.52239990234375,-2.18389892578125,Closing,0.0,0.0,3.0,0.0,0.0,0.0,0.0,0.0,
5.396673999999999,0.0,0.0,87186.0,1.0,-817.5,-773.8582742214203,0.0,0.25,0.7885741380000001,4.932250999999998,0.0,-153187.0,1.125,847.5,773.8582742214203,0.0,0.125,0.483398388,4.963769999999998,0.0,14748.0,2.875,-750.0,-773.8582742214203,0.0,0.0,3.328857081,0.01,0.0,-27394.0,1.25,847.5,773.8582742214203,0.0,0.25,1.646728347,0.01,0.0,0.30000001192092896,-1.5700000524520874,-101.4000015258789,-0.04144287109375,-0.083984375,1.20928955078125,36.5099983215332,0.0,90.0,2.522003173828125,-2.1833648681640625,Closing,0.0,0.0,3.0,0.0,0.0,0.0,0.0,0.125,
5.433723999999987,0.0,0.0,87055.0,1.0,-817.5,-773.8582742214203,0.0,0.25,0.783691326,4.932250999999998,0.0,-153187.0,1.0,847.5,773.8582742214203,0.0,0.125,0.483398388,4.963769999999998,0.0,14748.0,2.875,-795.0,-773.8582742214203,0.0,0.0,3.330077784,0.01,0.0,-27260.0,1.25,832.5,773.8582742214203,0.0,0.25,1.646728347,0.01,0.0,0.27000001072883606,-1.559999942779541,-101.48999786376953,0.03411865234375,0.00189208984375,1.0885009765625,36.5099983215332,0.0,-9.0,2.5214996337890625,-2.1825714111328125,Closing,0.0,0.0,3.0,0.0,0.0,0.0,0.0,0.125,
5.475600999999995,0.0,0.0,87055.0,1.0,-817.5,-773.8582742214203,0.0,0.25,0.7885741380000001,4.932250999999998,0.0,-153051.0,1.0,855.0,773.8582742214203,0.0,0.125,0.483398388,4.963769999999998,0.0,14748.0,2.625,-810.0,-773.8582742214203,0.0,0.0,3.328857081,0.01,0.0,-27260.0,1.25,832.5,773.8582742214203,0.0,0.25,1.646728347,0.01,0.0,0.30000001192092896,-1.4800000190734863,-101.54000091552734,0.00689697265625,-0.0396728515625,1.01361083984375,36.5099983215332,0.0,37.0,2.52117919921875,-2.18206787109375,Closing,0.0,0.0,3.0,0.0,0.0,0.0,0.0,0.125,
5.515699999999997,0.0,0.0,87055.0,0.75,-817.5,-773.8582742214203,0.0,0.25,0.7885741380000001,4.932250999999998,0.0024414059999999793,-153051.0,0.875,855.0,773.8582742214203,0.0,0.125,0.483398388,4.963769999999998,0.0,14617.0,2.625,-810.0,-773.8582742214203,0.0,0.0,3.328857081,0.01,0.0,-27260.0,1.25,825.0,773.8582742214203,0.0,0.25,1.646728347,0.01,0.0,0.30000001192092896,-1.4600000381469727,-101.5999984741211,0.011962890625,-0.0732421875,0.95196533203125,36.5099983215332,0.0,69.0,2.520599365234375,-2.1810455322265625,Closing,0.0,0.0,3.0,0.0,0.0,0.0,0.0,0.125,
