Time,ClimberA1,ClimberA2,FRpos,FRCurrent,FRspeed,FRsetpoint,FRApos,FRACurrent,FREncpos,FREncSetpoint,FREncSpeed,FLpos,FLCurrent,FLspeed,FLsetpoint,FLApos,FLACurrent,FLEncpos,FLEncSetpoint,FLEncSpeed,BRpos,BRCurrent,BRspeed,BRsetpoint,BRApos,BRACurrent,BREncpos,BREncSetpoint,BREncSpeed,BLpos,BLCurrent,BLspeed,BLsetpoint,BLApos,BLACurrent,BLEncpos,BLEncSetpoint,BLEncSpeed,navx_Pitch,navx_Roll,navx_Yaw,navx_XAcc,navx_YAcc,navx_ZAcc,navx_Temp,navx_Bar,navx_Alt,navx_XDis,navx_YDis,GearPlacerState,ShootOutputV,ShootOutputCurrent,ShootEncPos,ShootEncVelocity,ShootSpeed,ShootSetpoint,CarouselSetpoint,CarouselCurrent,
0.5467200000000012,0.0,0.0,81642.0,0.0,0.0,0.0,0.0,0.25,0.875244051,0.01,0.0,-147146.0,0.0,0.0,0.0,0.0,0.25,0.4882812,0.01,0.0,9933.0,0.0,0.0,0.0,0.0,0.0,3.350829735,0.01,0.0,-20115.0,0.125,0.0,0.0,0.0,0.5,1.666259595,0.01,0.0,0.41999998688697815,-0.6100000143051147,-96.12000274658203,-0.01068115234375,0.007080078125,1.02435302734375,36.88999938964844,0.0,0.0,1.3437347412109375,-2.6158447265625,Closing,0.0,0.0,3.0,0.0,0.0,0.0,0.0,0.125,
0.7704670000000042,0.0,0.0,81642.0,0.875,0.0,840.0,0.0,0.25,0.864257724,0.01,0.0,-147146.0,0.375,0.0,-840.0,0.0,0.25,0.4882812,0.01,0.0,9933.0,0.5,0.0,840.0,0.0,0.0,3.353271141,0.01,0.0,-20115.0,0.625,0.0,-840.0,0.0,0.25,1.671142407,0.01,0.0,0.4099999964237213,-0.6100000143051147,-96.12999725341797,-0.00518798828125,-0.0020751953125,1.0235595703125,36.88999938964844,0.0,8.0,1.3437347412109375,-2.6158447265625,Closing,0.0,0.0,3.0,0.0,0.0,0.0,0.0,0.0,
0.849622000000003,0.0,0.0,81651.0,2.25,165.0,929.8341754884309,0.0,0.375,0.874023348,0.34790327770322443,0.0,-147146.0,3.5,-187.5,-929.8341754884309,0.0,0.25,0.498046824,0.3501265148032682,0.0,9933.0,2.75,112.5,929.8341754884309,0.0,0.0,3.348388329,0.34847807890657023,0.0,-20135.0,3.5,-82.5,-929.8341754884309,0.0,0.25,1.666259595,0.34971951971880316,0.0,0.5199999809265137,-0.029999999329447746,-96.08999633789062,0.18780517578125,-0.0233154296875,0.62359619140625,36.88999938964844,0.0,8.0,1.34307861328125,-2.613616943359375,Closing,0.0,0.0,3.0,0.0,0.0,0.0,0.0,0.125,
0.9102790000000023,0.0,0.0,81690.0,3.625,247.5,929.8341754884309,0.0,0.625,0.887451081,0.34790327770322443,-0.0012207029999999897,-147179.0,5.125,-232.5,-929.8341754884309,0.0,1.0,0.563964786,0.3501265148032682,0.0,9981.0,4.125,292.5,929.8341754884309,0.0,0.625,3.4155269940000004,0.34847807890657023,-0.009765623999999917,-20135.0,4.875,-187.5,-929.8341754884309,0.0,0.75,1.718749824,0.34971951971880316,0.0,0.5400000214576721,0.2800000011920929,-96.04000091552734,0.1248779296875,0.00494384765625,0.95062255859375,36.88999938964844,0.0,-8.0,1.341949462890625,-2.6077117919921875,Closing,0.0,0.0,3.0,0.0,0.0,0.0,0.0,0.125,
0.9770990000000019,0.0,0.0,81690.0,5.125,187.5,929.8341754884309,0.0,0.5,1.018066302,0.34790327770322443,0.08544921000000005,-147230.0,6.75,-262.5,-929.8341754884309,0.0,0.5,0.7653807810000001,0.3501265148032682,0.157470687,9981.0,5.875,180.0,929.8341754884309,0.0,0.375,3.5864254140000003,0.34847807890657023,-4.789032828,-20176.0,6.5,-262.5,-929.8341754884309,0.0,0.375,1.8444822330000001,0.34971951971880316,0.09521483400000008,0.6800000071525574,0.7599999904632568,-95.94000244140625,0.23028564453125,0.16583251953125,0.97991943359375,36.900001525878906,0.0,-175.0,1.3397216796875,-2.5956878662109375,Closing,0.0,0.0,3.0,0.0,0.0,0.0,0.0,0.125,
1.0492620000000024,0.0,0.0,81747.0,6.375,360.0,929.8341754884309,0.0,0.375,1.103515512,0.34790327770322443,0.0,-147230.0,7.25,-412.5,-929.8341754884309,0.0,0.5,0.8825682690000001,0.3501265148032682,0.0,10006.0,8.0,157.5,929.8341754884309,0.0,0.125,3.669433218,0.34847807890657023,0.0,-20176.0,6.5,-397.5,-929.8341754884309,0.0,0.375,1.954345503,0.34971951971880316,0.0,1.0499999523162842,1.0199999809265137,-95.93000030517578,0.0615234375,0.2562255859375,1.115234375,36.900001525878906,0.0,-238.0,1.3351287841796875,-2.5825958251953125,Closing,0.0,0.0,3.0,0.0,0.0,0.0,0.0,0.125,
1.105708000000006,0.0,0.0,81747.0,6.0,457.5,935.4221293084744,0.0,0.375,1.157226444,0.35765470080898376,0.10986326999999996,-147319.0,7.0,-525.0,-935.4221293084744,0.0,0.25,0.941162013,0.35994025329096374,0.16479490499999994,10006.0,10.125,202.5,935.4221293084744,0.0,0.125,3.7316890710000004,0.3582456131848731,0.13549803300000018,-20257.0,6.0,-525.0,-935.4221293084744,0.0,0.375,2.045898228,0.3595218504919846,0.13549803299999996,1.399999976158142,1.2300000190734863,-95.93000030517578,0.0296630859375,0.1865234375,0.99578857421875,36.900001525878906,0.0,-162.0,1.3266754150390625,-2.56781005859375,Closing,0.0,0.0,3.0,0.0,0.0,0.0,0.0,0.125,
1.1718510000000024,0.0,0.0,81846.0,5.375,630.0,929.8341754884309,0.0,0.125,1.166992068,0.34790327770322443,0.025634763000000005,-147319.0,6.0,-645.0,-929.8341754884309,0.0,0.25,0.9570311520000001,0.3501265148032682,0.04760741700000004,10047.0,11.5,277.5,929.8341754884309,0.0,0.0,3.7365718830000003,0.34847807890657023,0.024414060000000237,-20257.0,5.75,-652.5,-929.8341754884309,0.0,0.25,2.109374784,0.34971951971880316,0.10864256699999975,1.7400000095367432,1.3600000143051147,-95.95999908447266,0.14898681640625,0.01812744140625,0.9471435546875,36.900001525878906,0.0,-2.0,1.311553955078125,-2.5476531982421875,Closing,0.0,0.0,3.0,0.0,0.0,0.0,0.0,0.125,
1.2495030000000042,0.0,0.0,81846.0,4.25,765.0,929.8341754884309,0.0,0.125,1.166992068,0.34790327770322443,-0.0012207029999999897,-147441.0,4.75,-780.0,-929.8341754884309,0.0,0.25,0.982665915,0.3501265148032682,0.0,10120.0,12.25,375.0,929.8341754884309,0.0,0.125,3.7268062590000004,0.34847807890657023,0.0,-20372.0,4.875,-742.5,-929.8341754884309,0.0,0.5,2.0703122880000002,0.34971951971880316,-0.006103514999999948,1.8799999952316284,1.5700000524520874,-96.08999633789062,0.02545166015625,0.04071044921875,0.99224853515625,36.900001525878906,0.0,-7.0,1.3109283447265625,-2.530059814453125,Closing,0.0,0.0,3.0,0.0,0.0,0.0,0.0,0.125,
1.3098970000000045,0.0,0.0,81983.0,3.375,885.0,935.4221293084744,0.0,0.125,1.1633299590000001,0.35765470080898376,0.0,-147441.0,3.875,-877.5,-935.4221293084744,0.0,0.25,0.980224509,0.35994025329096374,0.0,10120.0,12.375,562.5,935.4221293084744,0.0,0.125,3.717040635,0.3582456131848731,-0.004882811999999959,-20511.0,4.25,-817.5,-935.4221293084744,0.0,0.25,2.0117185440000003,0.3595218504919846,0.0,1.8799999952316284,1.7699999809265137,-96.41000366210938,0.09503173828125,-0.0228271484375,1.00946044921875,36.900001525878906,0.0,48.0,1.3095245361328125,-2.5063629150390625,Closing,0.0,0.0,3.0,0.0,0.0,0.0,0.0,0.125,
1.3724040000000022,0.0,0.0,81983.0,2.625,990.0,932.6101629172624,0.0,0.25,1.166992068,0.35279359615022904,0.0,-147590.0,3.125,-945.0,-932.6101629172624,0.0,0.25,0.9350584980000001,0.3550480842849689,-0.026855465999999772,10217.0,12.0,600.0,932.6101629172624,0.0,0.0,3.717040635,0.3533764770731643,-0.003662108999999969,-20511.0,3.625,-907.5,-932.6101629172624,0.0,0.25,1.9750974540000001,0.35463536825535347,-0.052490229,1.8200000524520874,1.9600000381469727,-96.88999938964844,0.109130859375,-0.11474609375,0.81561279296875,36.900001525878906,0.0,129.0,1.3084564208984375,-2.4810943603515625,Closing,0.0,0.0,3.0,0.0,0.0,0.0,0.0,0.0,
1.443987000000001,0.0,0.0,82150.0,1.25,1080.0,921.7253166828297,0.0,0.25,1.168212771,0.3330582812008017,0.0,-147590.0,2.375,-990.0,-921.7253166828297,0.0,0.25,0.8923338930000001,0.3351866530061231,-0.048828119999999586,10217.0,12.25,675.0,921.7253166828297,0.0,0.0,3.717040635,0.33360855569686965,-0.0012207029999999897,-20668.0,3.25,-960.0,-921.7253166828297,0.0,0.125,1.9738767510000002,0.3347970243593797,-0.013427732999999886,1.7599999904632568,2.0799999237060547,-97.25,0.068603515625,0.0599365234375,0.80035400390625,36.900001525878906,0.0,-39.0,1.307830810546875,-2.4593658447265625,Closing,0.0,0.0,3.0,0.0,0.0,0.0,0.0,0.125,
1.5109190000000017,0.0,0.0,82329.0,0.75,1110.0,916.5052170345582,0.0,0.25,1.166992068,0.32301801197261687,0.0,-147754.0,1.625,-1035.0,-916.5052170345582,0.0,0.25,0.877685457,0.32508222255706704,0.0,10340.0,11.75,765.0,916.5052170345582,0.0,0.125,3.717040635,0.32355169806839035,0.0,-20668.0,2.5,-1012.5,-916.5052170345582,0.0,0.25,1.9750974540000001,0.32470433953183536,0.0,1.7400000095367432,2.069999933242798,-97.47000122070312,0.04998779296875,0.10028076171875,0.55108642578125,36.86000061035156,0.0,-86.0,1.3065338134765625,-2.43743896484375,Closing,0.0,0.0,3.0,0.0,0.0,0.0,0.0,0.125,
1.5793070000000007,0.0,0.0,82329.0,0.5,1125.0,901.7648806862367,0.0,0.375,1.168212771,0.2922234261307565,-0.0012207029999999897,-147927.0,0.875,-1072.5,-901.7648806862367,0.0,0.25,0.8532713970000001,0.2940908473484146,-0.024414059999999793,10340.0,11.75,795.0,901.7648806862367,0.0,0.125,3.71093712,0.2927062338182687,0.0012207029999999897,-20840.0,1.25,-1080.0,-901.7648806862367,0.0,0.25,1.9738767510000002,0.29374898940793787,0.0,1.6699999570846558,2.009999990463257,-97.58999633789062,0.04803466796875,-0.0716552734375,0.706298828125,36.86000061035156,0.0,88.0,1.303741455078125,-2.4106292724609375,Closing,0.0,0.0,3.0,0.0,0.0,0.0,0.0,0.125,
1.6466870000000053,0.0,0.0,82507.0,0.375,1110.0,890.5727518884969,0.0,0.25,1.177978395,0.26581581109255153,0.0,-147927.0,0.625,-1095.0,-890.5727518884969,0.0,0.25,0.833740149,0.2675144773911292,0.0,10470.0,11.5,817.5,890.5727518884969,0.0,0.125,3.6779781390000004,0.2662549884670593,0.0,-20840.0,1.0,-1095.0,-890.5727518884969,0.0,0.25,1.961669721,0.2672035124321269,0.0,1.6399999856948853,2.049999952316284,-97.63999938964844,0.01898193359375,0.01617431640625,0.58734130859375,36.86000061035156,0.0,0.0,1.3021240234375,-2.3894500732421875,Closing,0.0,0.0,3.0,0.0,0.0,0.0,0.0,0.0,
1.711237000000001,0.0,0.0,82507.0,0.375,1057.5,876.6470471926331,0.0,0.25,1.152343632,0.22777814965487148,0.0,-148092.0,0.5,-1027.5,-876.6470471926331,0.0,0.25,0.8142089010000001,0.22923374051976703,-0.019531247999999835,10470.0,11.0,885.0,876.6470471926331,0.0,0.125,3.648681267,0.22815448170722194,-0.024414059999999793,-21012.0,0.75,-1072.5,-876.6470471926331,0.0,0.25,1.9531248,0.2289672739665627,-0.00976562400000014,1.5399999618530273,2.0,-97.73999786376953,0.0986328125,0.03460693359375,0.7255859375,36.86000061035156,0.0,-24.0,1.3009185791015625,-2.3681640625,Closing,0.0,0.0,3.0,0.0,0.0,0.0,0.0,0.125,
1.770461000000003,0.0,0.0,82677.0,0.375,1050.0,871.3230317310569,0.0,0.375,1.104736215,0.21112141543098653,-0.029296871999999974,-148092.0,0.25,-1042.5,-871.3230317310569,0.0,0.25,0.798339762,0.21247056329328495,-0.024414059999999793,10622.0,9.375,1012.5,871.3230317310569,0.0,0.125,3.614501583,0.2114702274469093,-0.03295898099999972,-21012.0,0.625,-1042.5,-871.3230317310569,0.0,0.25,1.8969724620000001,0.21222358264144126,-0.025634763000000005,1.3200000524520874,1.8600000143051147,-97.94999694824219,0.02691650390625,-0.11358642578125,1.0772705078125,36.86000061035156,0.0,138.0,1.30078125,-2.341796875,Closing,0.0,0.0,3.0,0.0,0.0,0.0,0.0,0.125,
1.835369000000006,0.0,0.0,82677.0,0.125,1170.0,861.8728902258442,0.0,0.375,1.065673719,0.1772289037632384,-0.04516601099999984,-148269.0,0.125,-1110.0,-861.8728902258442,0.0,0.25,0.7360839090000001,0.1783614653092168,-0.035400387000000144,10800.0,7.625,1095.0,861.8728902258442,0.0,0.125,3.5815426020000003,0.17752171901874073,-0.034179684000000154,-21182.0,0.375,-1072.5,-861.8728902258442,0.0,0.25,1.859130669,0.1781541338545293,-0.0402831990000001,1.0700000524520874,1.7100000381469727,-98.19999694824219,-0.1005859375,-0.00823974609375,1.1158447265625,36.86000061035156,0.0,48.0,1.3021087646484375,-2.3209991455078125,Closing,0.0,0.0,3.0,0.0,0.0,0.0,0.0,0.125,
1.9117360000000043,0.0,0.0,82863.0,0.125,1132.5,855.248858725671,0.0,0.375,1.042480362,0.14845680751587403,0.0,-148269.0,0.0,-1087.5,-855.248858725671,0.0,0.25,0.715331958,0.1494055041892779,0.0,10800.0,6.625,1087.5,855.248858725671,0.0,0.125,3.551025027,0.14870208589372766,0.0,-21353.0,0.375,-1080.0,-855.248858725671,0.0,0.25,1.826171688,0.14923183180736413,0.0,0.8500000238418579,1.5499999523162842,-98.43000030517578,-0.03680419921875,-0.0960693359375,1.12420654296875,36.86000061035156,0.0,121.0,1.304840087890625,-2.301300048828125,Closing,0.0,0.0,3.0,0.0,0.0,0.0,0.0,0.125,
1.9704100000000035,0.0,0.0,82863.0,0.125,1102.5,847.9392409873776,0.0,0.375,1.0070799750000001,0.10750455483864146,-0.021972654000000036,-148441.0,0.0,-1065.0,-847.9392409873776,0.0,0.25,0.679931571,0.1081915507080648,-0.03417968399999971,10963.0,6.375,1027.5,847.9392409873776,0.0,0.125,3.5229488580000003,0.10768217244516232,-0.029296871999999752,-21353.0,0.375,-1050.0,-847.9392409873776,0.0,0.25,1.7932127070000001,0.1080657863701552,-0.034179684000000154,0.6499999761581421,1.2799999713897705,-98.70999908447266,-0.1058349609375,-0.09283447265625,1.26416015625,36.86000061035156,0.0,126.0,1.3108062744140625,-2.2778167724609375,Closing,0.0,0.0,3.0,0.0,0.0,0.0,0.0,0.125,
2.040814000000006,0.0,0.0,83038.0,0.125,1072.5,844.150463506988,0.0,0.375,0.992431539,0.07787476881183616,-0.03540038699999992,-148441.0,0.0,-1020.0,-844.150463506988,0.0,0.25,0.653076105,0.07837241883779394,-0.030517575000000186,10963.0,6.375,1020.0,844.150463506988,0.0,0.125,3.4838863620000002,0.0780034324769756,-0.035400387000000144,-21511.0,0.375,-997.5,-844.150463506988,0.0,0.25,1.7614744290000002,0.07828131694211907,-0.029296871999999974,0.5,1.100000023841858,-98.93000030517578,-0.0203857421875,-0.02374267578125,1.3953857421875,36.779998779296875,0.0,42.0,1.31671142578125,-2.260528564453125,Closing,0.0,0.0,3.0,0.0,0.0,0.0,0.0,0.125,
2.1119000000000017,0.0,0.0,83202.0,0.125,1035.0,840.8858395503222,0.0,0.375,0.955810449,0.03603524225560892,0.0,-148602.0,0.0,-982.5,-840.8858395503222,0.0,0.25,0.627441342,0.03626552145280601,0.0,11131.0,5.625,1050.0,840.8858395503222,0.0,0.125,3.4643551140000004,0.036094779207224106,0.0,-21511.0,0.375,-967.5,-840.8858395503222,0.0,0.25,1.7395017750000001,0.03622336557959216,0.0,0.33000001311302185,0.949999988079071,-99.23999786376953,0.0234375,-0.0113525390625,1.04571533203125,36.779998779296875,0.0,16.0,1.3237152099609375,-2.24029541015625,Closing,0.0,0.0,3.0,0.0,0.0,0.0,0.0,0.125,
2.172915000000001,0.0,0.0,83202.0,0.125,1005.0,840.0246192681275,0.0,0.375,0.9228514680000001,0.01,-0.03295898099999994,-148751.0,0.0,-945.0,-840.0246192681275,0.0,0.25,0.5810546280000001,0.01,-0.032958981000000165,11131.0,5.25,1042.5,840.0246192681275,0.0,0.125,3.4313961330000002,0.01,-0.028076169000000206,-21661.0,0.375,-930.0,-840.0246192681275,0.0,0.25,1.700439279,0.01,-0.03295898099999994,0.1899999976158142,0.7799999713897705,-99.56999969482422,-0.0255126953125,0.02978515625,1.1656494140625,36.779998779296875,0.0,-18.0,1.3249359130859375,-2.22198486328125,Closing,0.0,0.0,3.0,0.0,0.0,0.0,0.0,0.0,
2.2480390000000043,0.0,0.0,83356.0,0.125,960.0,840.6152653943792,0.0,0.375,0.8789061600000001,4.902215186436001,-0.039062496,-148751.0,0.0,-900.0,-840.6152653943792,0.0,0.25,0.5541991620000001,4.9335422459188365,-0.043945308000000516,11294.0,5.125,997.5,840.6152653943792,0.0,0.125,3.387450825,4.9103145616612816,-0.04150390200000009,-21661.0,0.375,-885.0,-840.6152653943792,0.0,0.25,1.6613767830000001,4.927807383352893,-0.0402831990000001,-0.029999999329447746,0.6100000143051147,-99.83000183105469,-0.0277099609375,0.01751708984375,1.0479736328125,36.779998779296875,0.0,-11.0,1.327545166015625,-2.20831298828125,Closing,0.0,0.0,3.0,0.0,0.0,0.0,0.0,0.125,
2.3118380000000034,0.0,0.0,83356.0,0.125,922.5,842.9737114311826,0.0,0.375,0.8544921000000001,4.866295586575074,0.0,-148888.0,0.0,-862.5,-842.9737114311826,0.0,0.25,0.52490229,4.89739310586054,0.0,11294.0,5.125,937.5,842.9737114311826,0.0,0.125,3.359374656,4.874335615911578,0.0,-21799.0,0.375,-847.5,-842.9737114311826,0.0,0.25,1.638183426,4.89170026388341,0.0,-0.1599999964237213,0.4399999976158142,-100.06999969482422,-0.04901123046875,0.05523681640625,0.87042236328125,36.779998779296875,0.0,-47.0,1.3324737548828125,-2.19268798828125,Closing,0.0,0.0,3.0,0.0,0.0,0.0,0.0,0.0,
2.3740450000000055,0.0,0.0,83500.0,0.125,885.0,844.8116662347,0.0,0.375,0.806884683,4.848429690877773,-0.04028319899999999,-148888.0,0.125,-832.5,-844.8116662347,0.0,0.25,0.483398388,4.8794130401490845,-0.03417968399999971,11439.0,5.75,870.0,844.8116662347,0.0,0.125,3.3190914570000003,4.856440202417223,4.906220316000001,-21799.0,0.375,-840.0,-844.8116662347,0.0,0.5,1.595458821,4.873741098612378,4.9189375040000005,-0.23999999463558197,0.3400000035762787,-100.41000366210938,-0.07379150390625,0.003662109375,1.16009521484375,36.779998779296875,0.0,6.0,1.3369140625,-2.1812896728515625,Closing,0.0,0.0,3.0,0.0,0.0,0.0,0.0,0.0,
2.4502880000000005,0.0,0.0,83500.0,0.125,870.0,848.8411586033412,0.0,0.375,0.7763671080000001,4.818854578721152,4.895629909999999,-149017.0,0.125,-795.0,-848.8411586033412,0.0,0.25,0.449218704,4.849648931536268,-0.043945308000000516,11577.0,6.0,847.5,848.8411586033412,0.0,0.125,3.281249664,4.826816226650666,-0.04272460500000008,-21928.0,0.625,-787.5,-848.8411586033412,0.0,0.25,1.561279137,4.8440115884815,-0.037841793000000123,-0.4399999976158142,0.14000000059604645,-100.77999877929688,-0.0323486328125,0.03057861328125,1.1346435546875,36.779998779296875,0.0,-32.0,1.3436431884765625,-2.168365478515625,Closing,0.0,0.0,3.0,0.0,0.0,0.0,0.0,0.0,
2.508565000000002,0.0,0.0,83636.0,0.125,840.0,855.248858725671,0.0,0.375,0.7653807810000001,4.783794192484126,0.0,-149017.0,0.25,-780.0,-855.248858725671,0.0,0.25,0.43457026800000004,4.814364495810722,0.0,11577.0,6.375,855.0,855.248858725671,0.0,0.125,3.2617184160000003,4.7916979141062725,0.0,-21928.0,0.625,-780.0,-855.248858725671,0.0,0.25,1.545409998,4.8087681681926355,0.0,-0.4699999988079071,0.05999999865889549,-101.05999755859375,-0.091064453125,0.021240234375,1.0755615234375,36.7599983215332,0.0,-11.0,1.350067138671875,-2.1588592529296875,Closing,0.0,0.0,3.0,0.0,0.0,0.0,0.0,0.125,
2.5726510000000054,0.0,0.0,83636.0,0.125,825.0,860.4560310027832,0.0,0.375,0.729980394,4.760740461820586,-0.028076169000000206,-149142.0,0.25,-780.0,-860.4560310027832,0.0,0.25,0.40161128700000004,4.791163442852192,-0.026855465999999772,11707.0,6.5,825.0,860.4560310027832,0.0,0.125,3.239745762,4.768606094373223,-0.021972653999999814,-22054.0,0.625,-795.0,-860.4560310027832,0.0,0.25,1.512451017,4.785594084669751,-0.02319335699999936,-0.4699999988079071,0.009999999776482582,-101.30000305175781,0.02593994140625,-0.05010986328125,0.912353515625,36.7599983215332,0.0,36.0,1.3497772216796875,-2.1500396728515625,Closing,0.0,0.0,3.0,0.0,0.0,0.0,0.0,0.125,
2.6480200000000043,0.0,0.0,83767.0,0.125,810.0,866.3960430868568,0.0,0.25,0.6970214130000001,4.737983427655408,-0.030517574999999297,-149265.0,0.375,-772.5,-866.3960430868568,0.0,0.25,0.364990197,4.768260982397912,-0.035400387000000144,11707.0,7.0,810.0,866.3960430868568,0.0,0.125,3.2104488900000003,4.745811461336574,-0.026855465999999772,-22186.0,0.625,-810.0,-866.3960430868568,0.0,0.25,1.484374848,4.762718246560346,-0.02929687200000064,-0.5299999713897705,-0.009999999776482582,-101.5199966430664,0.0206298828125,-0.0262451171875,0.90869140625,36.7599983215332,0.0,13.0,1.349609375,-2.139251708984375,Closing,0.0,0.0,3.0,0.0,0.0,0.0,0.0,0.125,
2.712471000000005,0.0,0.0,83894.0,0.375,795.0,873.0539370016394,0.0,0.375,0.678710868,4.715554860696036,0.0,-149265.0,0.5,-765.0,-873.0539370016394,0.0,0.25,0.34912105800000004,4.745689088182488,0.0,11843.0,7.25,840.0,873.0539370016394,0.0,0.125,3.183593424,4.723345838194913,0.0,-22186.0,0.625,-832.5,-873.0539370016394,0.0,0.25,1.463622897,4.740172590432025,0.0,-0.5699999928474426,0.0,-101.62000274658203,0.03173828125,0.04437255859375,0.9920654296875,36.7599983215332,0.0,-59.0,1.350067138671875,-2.1308441162109375,Closing,0.0,0.0,3.0,0.0,0.0,0.0,0.0,0.0,
2.7685050000000047,0.0,0.0,83894.0,0.375,787.5,880.4134265227688,0.0,0.375,0.651855402,4.693483482027408,-0.024414059999999793,-149392.0,0.625,-780.0,-880.4134265227688,0.0,0.25,0.324706998,4.7234766648297475,-0.029296871999999752,11843.0,7.125,840.0,880.4134265227688,0.0,0.125,3.1628414730000003,4.701237993485774,-0.02929687200000064,-22316.0,0.75,-817.5,-880.4134265227688,0.0,0.25,1.44042954,4.71798598730922,-0.024414059999999793,-0.6000000238418579,-0.05999999865889549,-101.68000030517578,0.0220947265625,-0.0606689453125,0.97760009765625,36.7599983215332,0.0,44.0,1.3505401611328125,-2.122589111328125,Closing,0.0,0.0,3.0,0.0,0.0,0.0,0.0,0.125,
2.844269,0.0,0.0,84022.0,0.375,795.0,890.5727518884969,0.0,0.25,0.615234312,4.666435188907449,-0.032958981000000165,-149392.0,0.75,-795.0,-890.5727518884969,0.0,0.25,0.295410126,4.696255522608871,-0.023193357000000248,11978.0,7.375,847.5,890.5727518884969,0.0,0.125,3.129882492,4.674145011532941,-0.023193357000000248,-22316.0,1.0,-787.5,-890.5727518884969,0.0,0.25,1.411132668,4.690796487567873,-0.024414059999999793,-0.7099999785423279,-0.12999999523162842,-101.83999633789062,-0.0797119140625,-0.0372314453125,0.97625732421875,36.7599983215332,0.0,40.0,1.3515472412109375,-2.1125946044921875,Closing,0.0,0.0,3.0,0.0,0.0,0.0,0.0,0.0,
2.9098780000000044,0.0,0.0,84022.0,0.125,802.5,894.9277568608542,0.0,0.25,0.603027282,4.655793124164234,0.0,-149522.0,0.75,-802.5,-894.9277568608542,0.0,0.25,0.27099606600000004,4.685545450937655,0.0,11978.0,7.5,862.5,894.9277568608542,0.0,0.125,3.1103512440000003,4.663485364110825,0.0,-22443.0,1.25,-795.0,-894.9277568608542,0.0,0.25,1.3977049350000001,4.680098865529405,0.0,-0.7699999809265137,-0.18000000715255737,-101.97000122070312,-0.03887939453125,0.00848388671875,1.127685546875,36.7599983215332,0.0,-15.0,1.3529815673828125,-2.10504150390625,Closing,0.0,0.0,3.0,0.0,0.0,0.0,0.0,0.0,
2.9895470000000057,0.0,0.0,84151.0,0.125,802.5,901.7648806862367,0.0,0.375,0.572509707,4.640027573869244,-0.028076169000000206,-149522.0,0.75,-840.0,-901.7648806862367,0.0,0.25,0.25146481800000003,4.669679152651586,-0.028076169000000206,12117.0,7.875,870.0,901.7648806862367,0.0,0.125,3.081054372,4.647693766181732,-0.026855465999999772,-22569.0,1.625,-795.0,-901.7648806862367,0.0,0.25,1.3732908750000001,4.6642510105920625,-0.024414059999999793,-0.7599999904632568,-0.3100000023841858,-102.19000244140625,-0.0716552734375,-0.0333251953125,1.23565673828125,36.7599983215332,0.0,30.0,1.35430908203125,-2.0965118408203125,Closing,0.0,0.0,3.0,0.0,0.0,0.0,0.0,0.125,
3.113122000000003,0.0,0.0,84279.0,0.375,787.5,906.5224669935449,0.0,0.25,0.548095647,4.6296520333548,0.0,-149653.0,1.875,-720.0,-906.5224669935449,0.0,0.25,0.23193357,4.659237308402503,0.0,12257.0,8.0,847.5,906.5224669935449,0.0,0.125,3.081054372,4.637301083336199,0.0,-22683.0,2.875,-720.0,-906.5224669935449,0.0,0.25,1.356201033,4.653821304182025,0.0,-0.6000000238418579,-0.5400000214576721,-103.04000091552734,-0.00872802734375,-0.16082763671875,1.0404052734375,36.72999954223633,0.0,145.0,1.355224609375,-2.0896453857421875,Closing,0.0,0.0,3.0,0.0,0.0,0.0,0.0,0.125,
3.1696140000000015,0.0,0.0,84279.0,0.375,742.5,911.436752661183,0.0,0.25,0.538330023,4.619386601030175,-0.008544920999999484,-149764.0,2.75,-697.5,-911.436752661183,0.0,0.25,0.23193357,4.648906275977349,-0.004882811999999959,12376.0,9.5,765.0,911.436752661183,0.0,0.125,3.081054372,4.627018690599785,-0.010986327000000351,-22683.0,3.375,-712.5,-911.436752661183,0.0,0.25,1.3452147060000001,4.643502280785712,-0.009765623999999917,-0.5699999928474426,-0.5299999713897705,-102.9800033569336,-0.01275634765625,0.03692626953125,1.12042236328125,36.72999954223633,0.0,-46.0,1.355712890625,-2.086700439453125,Closing,0.0,0.0,3.0,0.0,0.0,0.0,0.0,0.0,
3.246366000000002,0.0,0.0,84399.0,0.5,757.5,919.0964721704953,0.0,0.25,0.5285643990000001,4.604198597334031,-0.01586913900000031,-149879.0,3.5,-720.0,-919.0964721704953,0.0,0.25,0.23193357,4.633621215037261,0.0,12376.0,11.25,720.0,919.0964721704953,0.0,0.125,3.071288748,4.611805593484404,-0.006103515000000392,-22798.0,4.25,-712.5,-919.0964721704953,0.0,0.25,1.3452147060000001,4.62823498755074,-0.004882811999999959,-0.5099999904632568,-0.5,-103.04000091552734,-0.12774658203125,-0.04376220703125,1.12664794921875,36.72999954223633,0.0,59.0,1.3554534912109375,-2.086944580078125,Closing,0.0,0.0,3.0,0.0,0.0,0.0,0.0,0.125,
3.2780020000000003,0.0,0.0,84525.0,0.5,802.5,927.0944902161067,0.0,0.25,0.523681587,4.589267135672414,0.0,-149879.0,4.25,-712.5,-927.0944902161067,0.0,0.25,0.23315427300000002,4.618594335534963,-0.0012207029999995456,12494.0,12.0,742.5,927.0944902161067,0.0,0.125,3.046874688,4.596849462258914,-0.007324217999999938,-22798.0,4.625,-705.0,-927.0944902161067,0.0,0.25,1.340331894,4.613225575637539,0.0,-0.5299999713897705,-0.5099999904632568,-103.19999694824219,0.0047607421875,-0.0015869140625,1.03826904296875,36.72999954223633,0.0,-11.0,1.3553924560546875,-2.0878448486328125,Closing,0.0,0.0,3.0,0.0,0.0,0.0,0.0,0.0,
3.3327490000000033,0.0,0.0,84525.0,0.75,795.0,NaN,0.0,0.375,0.513915963,NaN,-0.008544921000000372,-149879.0,4.5,-712.5,NaN,0.0,0.25,0.22705075800000002,NaN,0.0012207029999995456,12494.0,10.375,742.5,NaN,0.0,0.125,3.037109064,NaN,-0.021972653999999814,-22798.0,4.75,-705.0,NaN,0.0,0.25,1.335449082,NaN,-0.004882811999999959,-0.5299999713897705,-0.5199999809265137,-103.2699966430664,-0.03363037109375,0.047119140625,1.1705322265625,36.72999954223633,0.0,-51.0,1.3553009033203125,-2.0882110595703125,Closing,0.0,0.0,3.0,0.0,0.0,0.0,0.0,0.0,
3.365995999999999,0.0,0.0,84525.0,0.25,735.0,NaN,0.0,0.25,0.5151366660000001,NaN,-0.008544921000000372,-149976.0,1.75,-682.5,NaN,0.0,0.0,0.222167946,NaN,0.0012207029999995456,12494.0,4.375,727.5,NaN,0.0,0.0,3.032226252,NaN,-0.021972653999999814,-22903.0,1.625,-660.0,NaN,0.0,0.125,1.334228379,NaN,-0.004882811999999959,-0.5099999904632568,-0.7599999904632568,-103.3499984741211,-0.17413330078125,0.02215576171875,0.8197021484375,36.72999954223633,0.0,8.0,1.355316162109375,-2.0890960693359375,Closing,0.0,0.0,3.0,0.0,0.0,0.0,0.0,0.0,
3.4059259999999996,0.0,0.0,84525.0,0.0,562.5,NaN,0.0,0.125,0.5151366660000001,NaN,-0.006103514999999504,-149976.0,0.125,-547.5,NaN,0.0,0.0,0.22338864900000002,NaN,-0.009765623999999917,12603.0,2.125,712.5,NaN,0.0,0.0,3.032226252,NaN,-0.008544921000000372,-22903.0,0.375,-607.5,NaN,0.0,0.125,1.335449082,NaN,-0.004882811999999959,-0.4099999964237213,-0.9300000071525574,-103.43000030517578,-0.15948486328125,0.05560302734375,1.14208984375,36.72999954223633,0.0,-29.0,1.3553619384765625,-2.090789794921875,Closing,0.0,0.0,3.0,0.0,0.0,0.0,0.0,0.0,
3.448016000000003,0.0,0.0,84597.0,0.125,420.0,NaN,0.0,0.125,0.5151366660000001,NaN,0.0,-149976.0,0.125,-457.5,NaN,0.0,0.0,0.222167946,NaN,0.0,12603.0,1.75,652.5,NaN,0.0,0.0,3.032226252,NaN,-0.006103514999999504,-22903.0,0.375,-450.0,NaN,0.0,0.125,1.33056627,NaN,0.0,-0.20999999344348907,-1.2899999618530273,-103.54000091552734,-0.23626708984375,0.06634521484375,0.7132568359375,36.72999954223633,0.0,-15.0,1.3546600341796875,-2.0954437255859375,Closing,0.0,0.0,3.0,0.0,0.0,0.0,0.0,0.0,
3.4741630000000003,0.0,0.0,84597.0,0.0,405.0,NaN,0.0,0.25,0.5151366660000001,NaN,0.0,-149976.0,0.125,-337.5,NaN,0.0,0.0,0.22338864900000002,NaN,0.0,12603.0,1.625,562.5,NaN,0.0,0.0,3.031005549,NaN,0.0012207029999995456,-22964.0,0.375,-367.5,NaN,0.0,0.125,1.33056627,NaN,-0.004882811999999959,-0.05000000074505806,-1.4800000190734863,-103.62000274658203,-0.18914794921875,0.0894775390625,1.365478515625,36.72999954223633,0.0,-52.0,1.3539886474609375,-2.099700927734375,Closing,0.0,0.0,3.0,0.0,0.0,0.0,0.0,0.125,
3.524359000000004,0.0,0.0,84597.0,0.125,420.0,NaN,0.0,0.125,0.513915963,NaN,0.0012207029999995456,-150032.0,0.125,-352.5,NaN,0.0,0.0,0.22338864900000002,NaN,0.0,12669.0,1.75,465.0,NaN,0.0,0.0,3.032226252,NaN,0.0012207029999995456,-22964.0,0.375,-375.0,NaN,0.0,0.125,1.33056627,NaN,0.0,0.019999999552965164,-1.75,-103.68000030517578,-0.1402587890625,0.08837890625,0.876953125,36.72999954223633,0.0,-58.0,1.352813720703125,-2.107574462890625,Closing,0.0,0.0,3.0,0.0,0.0,0.0,0.0,0.125,
3.5819040000000024,0.0,0.0,84652.0,0.125,337.5,NaN,0.0,0.125,0.5151366660000001,NaN,0.0,-150032.0,0.0,-345.0,NaN,0.0,0.0,0.22338864900000002,NaN,0.0,12669.0,2.125,322.5,NaN,0.0,0.0,3.031005549,NaN,0.0,-22964.0,0.375,-292.5,NaN,0.0,0.125,1.33056627,NaN,0.0,0.20999999344348907,-2.0399999618530273,-103.75,-0.139892578125,0.0733642578125,1.006591796875,36.70000076293945,0.0,-42.0,1.3508453369140625,-2.12060546875,Closing,0.0,0.0,3.0,0.0,0.0,0.0,0.0,0.0,
3.6126580000000033,0.0,0.0,84652.0,0.125,255.0,NaN,0.0,0.25,0.513915963,NaN,0.0,-150068.0,0.0,-300.0,NaN,0.0,0.0,0.222167946,NaN,0.0,12669.0,2.125,232.5,NaN,0.0,0.0,3.032226252,NaN,0.0,-22998.0,0.375,-195.0,NaN,0.0,0.125,1.33056627,NaN,0.0,0.3199999928474426,-2.25,-103.83000183105469,-0.1295166015625,0.06134033203125,1.06121826171875,36.70000076293945,0.0,-31.0,1.3489227294921875,-2.13201904296875,Closing,0.0,0.0,3.0,0.0,0.0,0.0,0.0,0.0,
3.6628899999999995,0.0,0.0,84652.0,0.125,187.5,NaN,0.0,0.25,0.513915963,NaN,0.0,-150068.0,0.0,-195.0,NaN,0.0,0.0,0.22338864900000002,NaN,0.0,12695.0,2.25,195.0,NaN,0.0,0.0,3.032226252,NaN,0.0012207029999995456,-22998.0,0.375,-120.0,NaN,0.0,0.125,1.33056627,NaN,0.0,0.5,-2.430000066757202,-103.88999938964844,-0.1129150390625,0.037109375,0.9117431640625,36.70000076293945,0.0,-10.0,1.346527099609375,-2.1446685791015625,Closing,0.0,0.0,3.0,0.0,0.0,0.0,0.0,0.125,
3.7110300000000063,0.0,0.0,84673.0,0.125,112.5,NaN,0.0,0.25,0.513915963,NaN,0.0,-150068.0,0.125,-127.5,NaN,0.0,0.0,0.222167946,NaN,0.0,12695.0,3.5,90.0,NaN,0.0,0.0,3.031005549,NaN,-0.0012207029999995456,-22998.0,0.75,-67.5,NaN,0.0,0.125,1.33056627,NaN,0.0,0.5699999928474426,-2.5,-103.91000366210938,-0.083984375,0.04547119140625,1.09271240234375,36.70000076293945,0.0,-24.0,1.3447113037109375,-2.1536102294921875,Closing,0.0,0.0,3.0,0.0,0.0,0.0,0.0,0.125,
3.740072,0.0,0.0,84673.0,0.0,45.0,NaN,0.0,0.25,0.5151366660000001,NaN,0.0,-150089.0,0.125,-127.5,NaN,0.0,0.0,0.216064431,NaN,0.0,12695.0,3.875,37.5,NaN,0.0,0.0,3.032226252,NaN,0.0,-23009.0,0.75,-52.5,NaN,0.0,0.125,1.33056627,NaN,0.0,0.5799999833106995,-2.5,-103.8499984741211,-7.32421875E-4,0.0115966796875,1.031982421875,36.70000076293945,0.0,-11.0,1.34375,-2.1671905517578125,Closing,0.0,0.0,3.0,0.0,0.0,0.0,0.0,0.125,
3.780296000000002,0.0,0.0,84673.0,0.0,7.5,NaN,0.0,0.25,0.513915963,NaN,0.0,-150089.0,0.125,-120.0,NaN,0.0,0.0,0.222167946,NaN,0.0,12697.0,4.875,15.0,NaN,0.0,0.0,3.033446955,NaN,0.0012207029999995456,-23009.0,0.75,-60.0,NaN,0.0,0.125,1.33056627,NaN,0.0,0.5299999713897705,-2.359999895095825,-103.83000183105469,0.056640625,-0.0257568359375,0.96856689453125,36.70000076293945,0.0,10.0,1.34375,-2.1759185791015625,Closing,0.0,0.0,3.0,0.0,0.0,0.0,0.0,0.125,
3.813096000000005,0.0,0.0,84673.0,0.125,0.0,NaN,0.0,0.25,0.5151366660000001,NaN,0.0,-150089.0,0.375,-37.5,NaN,0.0,0.0,0.22338864900000002,NaN,0.0,12697.0,5.375,0.0,NaN,0.0,0.0,3.041991876,NaN,-0.0012207029999995456,-23023.0,0.625,-97.5,NaN,0.0,0.125,1.33056627,NaN,0.0,0.46000000834465027,-2.1700000762939453,-103.86000061035156,-0.00689697265625,0.021484375,0.97869873046875,36.70000076293945,0.0,-20.0,1.3439178466796875,-2.19183349609375,Closing,0.0,0.0,3.0,0.0,0.0,0.0,0.0,0.0,
