Time,ClimberA1,ClimberA2,FRpos,FRCurrent,FRspeed,FRsetpoint,FRApos,FRACurrent,FREncpos,FREncSetpoint,FREncSpeed,FLpos,FLCurrent,FLspeed,FLsetpoint,FLApos,FLACurrent,FLEncpos,FLEncSetpoint,FLEncSpeed,BRpos,BRCurrent,BRspeed,BRsetpoint,BRApos,BRACurrent,BREncpos,BREncSetpoint,BREncSpeed,BLpos,BLCurrent,BLspeed,BLsetpoint,BLApos,BLACurrent,BLEncpos,BLEncSetpoint,BLEncSpeed,navx_Pitch,navx_Roll,navx_Yaw,navx_XAcc,navx_YAcc,navx_ZAcc,navx_Temp,navx_Bar,navx_Alt,navx_XDis,navx_YDis,GearPlacerState,ShootOutputV,ShootOutputCurrent,ShootEncPos,ShootEncVelocity,ShootSpeed,ShootSetpoint,CarouselSetpoint,CarouselCurrent,
0.2107139999999781,0.0,0.0,55536.0,0.0,0.0,0.0,0.0,0.625,0.670165947,0.01,0.0,-56537.0,0.0,0.0,0.0,0.0,1.75,1.433105322,0.01,0.0,22729.0,0.0,0.0,0.0,0.0,0.375,3.385009419,0.01,0.0,-55785.0,0.125,37.5,0.0,0.0,1.875,2.386474365,0.01,0.0,0.07999999821186066,-0.8500000238418579,-19.68000030517578,-0.060546875,0.09136962890625,0.98394775390625,36.18000030517578,0.0,-73.0,2.65240478515625,-1.7942047119140625,Closing,0.0,0.0,3.0,0.0,0.0,0.0,0.0,0.0,
0.32878800000000047,0.0,0.0,55536.0,2.875,45.0,840.0,0.0,0.5,0.819091713,0.01,0.1855468560000002,-56538.0,3.875,7.5,-840.0,0.0,0.875,0.731201097,0.01,0.0,22729.0,2.375,82.5,840.0,0.0,0.25,3.444823866,0.01,0.0,-55780.0,4.5,37.5,-840.0,0.0,1.0,1.7846677860000002,0.01,0.0,0.20999999344348907,-0.5099999904632568,-19.790000915527344,0.18408203125,0.036376953125,1.00018310546875,36.18000030517578,0.0,170.0,2.6520538330078125,-1.78997802734375,Closing,0.0,0.0,3.0,0.0,0.0,0.0,0.0,0.0,
0.414640000000014,0.0,0.0,55548.0,5.625,127.5,840.0,0.0,0.125,0.808105386,4.930743914943314,0.0,-56571.0,8.25,-157.5,-840.0,0.0,0.0,0.295410126,4.96225328408432,0.0,22757.0,4.375,135.0,840.0,0.0,0.125,3.4228512120000003,4.938890424957275,0.0,-55803.0,6.375,-157.5,-840.0,0.0,0.25,1.3952635290000002,4.956485047149658,0.0,-0.07000000029802322,0.23999999463558197,-19.489999771118164,0.2679443359375,-0.0772705078125,0.89654541015625,36.18000030517578,0.0,274.0,2.662017822265625,-1.781097412109375,Closing,0.0,0.0,3.0,0.0,0.0,0.0,0.0,0.0,
0.5353319999999949,0.0,0.0,55582.0,5.875,367.5,840.0,0.0,0.125,0.809326089,0.01,0.0,-56647.0,7.75,-435.0,-840.0,0.0,0.5,0.281982393,0.01,0.0,22776.0,7.125,210.0,840.0,0.0,0.125,3.3691402800000003,0.01,0.0,-55869.0,6.0,-390.0,-840.0,0.0,0.625,1.4465330550000002,0.01,0.0,-0.09000000357627869,0.8899999856948853,-19.549999237060547,0.1297607421875,0.0115966796875,0.9132080078125,36.18000030517578,0.0,104.0,2.6856689453125,-1.7709808349609375,Closing,0.0,0.0,3.0,0.0,0.0,0.0,0.0,0.0,
0.6505779999999796,0.0,0.0,55658.0,5.625,555.0,840.0,0.0,0.125,0.810546792,0.01,0.0,-56647.0,7.375,-570.0,-840.0,0.0,0.5,0.405273396,0.01,0.0,22843.0,6.625,517.5,840.0,0.0,0.0,3.349609032,0.01,0.0,-55969.0,5.375,-577.5,-840.0,0.0,0.375,1.616210772,0.01,0.0,-0.019999999552965164,1.149999976158142,-19.540000915527344,0.17132568359375,0.14544677734375,0.961669921875,36.18000030517578,0.0,94.0,2.70721435546875,-1.761016845703125,Closing,0.0,0.0,3.0,0.0,0.0,0.0,0.0,0.0,
0.7509110000000219,0.0,0.0,55758.0,5.375,667.5,840.0,0.0,0.125,0.809326089,0.01,0.0,-56753.0,5.375,-765.0,-840.0,0.0,0.25,0.583496034,0.01,0.0,22939.0,6.125,600.0,840.0,0.0,0.0,3.350829735,0.01,0.0,-55969.0,4.0,-727.5,-840.0,0.0,0.125,1.77001935,0.01,0.0,0.3499999940395355,1.4800000190734863,-19.200000762939453,0.2054443359375,0.12872314453125,0.95587158203125,36.18000030517578,0.0,130.0,2.7352447509765625,-1.743988037109375,Closing,0.0,0.0,3.0,0.0,0.0,0.0,0.0,0.0,
0.850283999999985,0.0,0.0,55884.0,4.125,795.0,840.0,0.0,0.125,0.809326089,0.01,0.0,-56886.0,3.875,-855.0,-840.0,0.0,0.25,0.6335448570000001,0.01,0.0,23045.0,6.5,645.0,840.0,0.0,0.0,3.349609032,0.01,0.0,-56087.0,4.0,-787.5,-840.0,0.0,0.25,1.7114256060000002,0.01,0.0,0.5799999833106995,1.6200000047683716,-19.239999771118164,0.05987548828125,-0.03326416015625,1.093505859375,36.18000030517578,0.0,41.0,2.765045166015625,-1.720916748046875,Closing,0.0,0.0,3.0,0.0,0.0,0.0,0.0,0.0,
0.9642810000000173,0.0,0.0,56035.0,2.75,922.5,840.0,0.0,0.125,0.809326089,0.01,0.0,-57028.0,3.125,-892.5,-840.0,0.0,0.25,0.590820252,0.01,0.0,23178.0,5.375,802.5,840.0,0.0,0.0,3.355712547,0.01,0.0,-56223.0,3.375,-855.0,-840.0,0.0,0.25,1.644286941,0.01,0.0,0.4699999988079071,1.7000000476837158,-19.610000610351562,0.13470458984375,-0.017578125,0.6407470703125,36.18000030517578,0.0,116.0,2.791961669921875,-1.7002716064453125,Closing,0.0,0.0,3.0,0.0,0.0,0.0,0.0,0.0,
1.0492600000000094,0.0,0.0,56195.0,1.625,990.0,840.0,0.0,0.125,0.809326089,0.01,0.0,-57178.0,2.375,-930.0,-840.0,0.0,0.25,0.534667914,0.01,0.0,23178.0,4.125,937.5,840.0,0.0,0.0,3.348388329,0.01,0.0,-56369.0,2.875,-915.0,-840.0,0.0,0.25,1.6284178020000002,0.01,0.0,0.47999998927116394,1.6299999952316284,-20.020000457763672,0.0106201171875,0.01129150390625,1.1995849609375,36.119998931884766,0.0,-22.0,2.8249969482421875,-1.6764678955078125,Closing,0.0,0.0,3.0,0.0,0.0,0.0,0.0,0.0,
1.1487010000000009,0.0,0.0,56195.0,0.875,997.5,840.0,0.0,0.125,0.809326089,4.9275927608538845,0.0,-57336.0,1.25,-982.5,-840.0,0.0,0.25,0.522460884,4.95908199289608,0.0,23332.0,3.375,952.5,840.0,0.0,0.0,3.354491844,4.935734064572652,0.0,-56524.0,1.875,-975.0,-840.0,0.0,0.125,1.6308592080000002,4.9533174423429704,0.0,0.5199999809265137,1.649999976158142,-20.190000534057617,-0.04705810546875,-0.02398681640625,0.6246337890625,36.119998931884766,0.0,-50.0,2.8583221435546875,-1.6519012451171875,Closing,0.0,0.0,3.0,0.0,0.0,0.0,0.0,0.0,
1.265777000000002,0.0,0.0,56355.0,0.75,982.5,840.0,0.0,0.125,0.809326089,4.925263641280826,-0.0012207030000004337,-57493.0,0.875,-975.0,-840.0,0.0,0.125,0.522460884,4.95673798934412,-0.009765623999999917,23484.0,2.875,990.0,840.0,0.0,0.0,3.354491844,4.9334010968589785,0.0,-56680.0,1.25,-975.0,-840.0,0.0,0.25,1.6296385050000002,4.950976163514455,0.0,0.4699999988079071,1.4900000095367432,-20.309999465942383,-0.00140380859375,0.001953125,0.79254150390625,36.119998931884766,0.0,-19.0,2.895050048828125,-1.6241302490234375,Closing,0.0,0.0,3.0,0.0,0.0,0.0,0.0,0.0,
1.3752029999999795,0.0,0.0,56512.0,0.5,982.5,840.0,0.0,0.125,0.812988198,4.923619572248083,0.0,-57493.0,0.5,-975.0,-840.0,0.0,0.125,0.518798775,4.95508341407156,0.0,23646.0,2.375,990.0,840.0,0.0,0.0,3.355712547,4.931754311517079,0.0,-56834.0,1.0,-967.5,-840.0,0.0,0.25,1.6308592080000002,4.9493235115581085,0.0,0.47999998927116394,1.2000000476837158,-20.420000076293945,-0.0379638671875,-0.02874755859375,1.19073486328125,36.119998931884766,0.0,-45.0,2.9198150634765625,-1.6047821044921875,Closing,0.0,0.0,3.0,0.0,0.0,0.0,0.0,0.0,
1.471826000000001,0.0,0.0,56667.0,0.375,952.5,840.0,0.0,0.125,0.8154296040000001,4.92183846697527,0.0,-57647.0,0.5,-922.5,-840.0,0.0,0.125,0.5175780720000001,4.95329092684412,0.0,23803.0,1.875,982.5,840.0,0.0,0.0,3.352050438,4.929970263525645,0.0,-56834.0,0.75,-952.5,-840.0,0.0,0.25,1.6296385050000002,4.9475331079589,0.0,0.44999998807907104,1.059999942779541,-20.459999084472656,-0.04400634765625,-0.005615234375,0.93487548828125,36.119998931884766,0.0,-53.0,2.949188232421875,-1.601531982421875,Closing,0.0,0.0,3.0,0.0,0.0,0.0,0.0,0.0,
1.5845129999999772,0.0,0.0,56817.0,0.375,922.5,840.0,0.0,0.125,0.8154296040000001,4.921564472891151,0.0,-57793.0,0.5,-907.5,-840.0,0.0,0.125,0.5175780720000001,4.95301518183136,0.0,23955.0,1.5,945.0,840.0,0.0,0.125,3.354491844,4.929695816752116,0.0,-56989.0,0.625,-952.5,-840.0,0.0,0.25,1.640624832,4.947257683478461,0.0,0.4300000071525574,0.8299999833106995,-20.59000015258789,0.00457763671875,0.1065673828125,1.1737060546875,35.97999954223633,0.0,-46.0,2.9677886962890625,-1.6027069091796875,Closing,0.0,0.0,3.0,0.0,0.0,0.0,0.0,0.0,
1.6941990000000224,0.0,0.0,56962.0,0.375,900.0,840.0,0.0,0.125,0.8178710100000001,4.91937233729415,0.0,-57938.0,0.5,-885.0,-840.0,0.0,0.125,0.5175780720000001,4.95080903763628,0.0,24102.0,1.75,907.5,840.0,0.0,0.125,3.358153953,4.927500059337616,0.0,-57136.0,0.75,-885.0,-840.0,0.0,0.25,1.6308592080000002,4.945054103755951,0.0,0.3799999952316284,0.5299999713897705,-20.709999084472656,-0.0335693359375,-0.018798828125,0.883544921875,35.97999954223633,0.0,-30.0,2.99163818359375,-1.6080474853515625,Closing,0.0,0.0,3.0,0.0,0.0,0.0,0.0,0.0,
1.8084519999999902,0.0,0.0,57103.0,0.375,877.5,840.0,0.0,0.25,0.820312416,4.918139298585595,0.0,-58076.0,0.5,-870.0,-840.0,0.0,0.125,0.5175780720000001,4.94956811933136,0.0,24242.0,1.75,870.0,840.0,0.0,0.125,3.359374656,4.926264983418783,0.0,-57278.0,0.75,-870.0,-840.0,0.0,0.25,1.6296385050000002,4.943814627922905,0.0,0.3799999952316284,0.25999999046325684,-20.860000610351562,-0.0450439453125,0.02008056640625,0.9014892578125,35.97999954223633,0.0,-51.0,3.0087127685546875,-1.6150665283203125,Closing,0.0,0.0,3.0,0.0,0.0,0.0,0.0,0.0,
1.9346500000000233,0.0,0.0,57242.0,0.375,855.0,840.0,0.0,0.25,0.822753822,4.916084173096657,0.0,-58215.0,0.5,-855.0,-840.0,0.0,0.25,0.5175780720000001,4.94749986079216,0.0,24380.0,1.875,855.0,840.0,0.0,0.125,3.3605953590000004,4.9242064624786375,0.0,-57415.0,1.0,-832.5,-840.0,0.0,0.25,1.6296385050000002,4.941748773574829,0.0,0.41999998688697815,0.14000000059604645,-20.979999542236328,-0.11578369140625,-0.038330078125,1.28173828125,35.97999954223633,0.0,-93.0,3.0191497802734375,-1.618316650390625,Closing,0.0,0.0,3.0,0.0,0.0,0.0,0.0,0.0,
2.031677000000025,0.0,0.0,57374.0,0.5,817.5,840.0,0.0,0.25,0.822753822,4.9143030939558505,0.0,-58351.0,0.5,-847.5,-840.0,0.0,0.25,0.522460884,4.94570739986372,0.0,24511.0,2.25,825.0,840.0,0.0,0.125,3.353271141,4.922422440662384,0.0,-57545.0,1.25,-802.5,-840.0,0.0,0.25,1.6296385050000002,4.939958396244049,0.0,0.4000000059604645,0.05999999865889549,-21.139999389648438,-0.046142578125,0.0380859375,1.3428955078125,35.959999084472656,0.0,-54.0,3.028778076171875,-1.6186370849609375,Closing,0.0,0.0,3.0,0.0,0.0,0.0,0.0,0.0,
2.1293919999999926,0.0,0.0,57374.0,0.5,817.5,840.0,0.0,0.25,0.822753822,4.912247994598919,0.0,-58481.0,0.875,-810.0,-840.0,0.0,0.25,0.5175780720000001,4.94363916762352,0.0,24511.0,2.375,810.0,840.0,0.0,0.125,3.354491844,4.920363945897421,0.0,-57669.0,1.875,-757.5,-840.0,0.0,0.25,1.6308592080000002,4.9378925681644015,0.0,0.4099999964237213,-0.05999999865889549,-21.540000915527344,0.0118408203125,0.025390625,1.00640869140625,35.959999084472656,0.0,5.0,3.03936767578125,-1.618743896484375,Closing,0.0,0.0,3.0,0.0,0.0,0.0,0.0,0.0,
2.2531689999999944,0.0,0.0,57636.0,0.5,810.0,840.0,0.0,0.25,0.822753822,4.906767694804425,0.0,-58608.0,1.125,-795.0,-840.0,0.0,0.25,0.5175780720000001,4.93812384658432,0.0,24640.0,2.5,802.5,840.0,0.0,0.125,3.354491844,4.914874591623942,0.0,-57792.0,2.0,-772.5,-840.0,0.0,0.25,1.6320799110000002,4.932383658260769,0.0,0.38999998569488525,-0.029999999329447746,-21.760000228881836,0.05645751953125,0.00531005859375,1.073974609375,35.959999084472656,0.0,53.0,3.0394439697265625,-1.618927001953125,Closing,0.0,0.0,3.0,0.0,0.0,0.0,0.0,0.0,
2.352954000000027,0.0,0.0,57636.0,0.5,825.0,840.0,0.0,0.25,0.822753822,4.903753550823058,0.0,-58736.0,1.25,-787.5,-840.0,0.0,0.25,0.5175780720000001,4.93509044105196,0.0,24769.0,2.5,817.5,840.0,0.0,0.125,3.35693325,4.911855467713674,0.0,-57918.0,2.25,-787.5,-840.0,0.0,0.25,1.6308592080000002,4.929353778828515,0.0,0.44999998807907104,-0.1599999964237213,-21.979999542236328,0.02764892578125,0.0548095703125,1.05645751953125,35.959999084472656,0.0,11.0,3.0394134521484375,-1.61944580078125,Closing,0.0,0.0,3.0,0.0,0.0,0.0,0.0,0.0,
2.459912000000011,0.0,0.0,57769.0,0.5,825.0,840.0,0.0,0.25,0.821533119,4.900739406841692,0.0,-58868.0,1.125,-817.5,-840.0,0.0,0.25,0.52490229,4.9320570355196,0.0,24902.0,2.375,840.0,840.0,0.0,0.125,3.354491844,4.908836343803406,0.0,-58048.0,2.0,-802.5,-840.0,0.0,0.25,1.6284178020000002,4.926323899396261,0.0,0.44999998807907104,-0.20000000298023224,-22.149999618530273,-0.0513916015625,0.01593017578125,0.90167236328125,35.959999084472656,0.0,-47.0,3.0391998291015625,-1.619842529296875,Closing,0.0,0.0,3.0,0.0,0.0,0.0,0.0,0.0,
2.565168000000005,0.0,0.0,57904.0,0.5,855.0,840.0,0.0,0.25,0.808105386,4.898410287268634,0.0024414059999999793,-58868.0,1.125,-825.0,-840.0,0.0,0.25,0.5175780720000001,4.92971303196764,0.0,25038.0,2.375,840.0,840.0,0.0,0.125,3.354491844,4.906503376089732,0.0,-58048.0,1.875,-825.0,-840.0,0.0,0.25,1.6284178020000002,4.923982620567745,0.0,0.3700000047683716,-0.18000000715255737,-22.280000686645508,0.02606201171875,0.04876708984375,0.8056640625,35.939998626708984,0.0,9.0,3.0387420654296875,-1.621185302734375,Closing,0.0,0.0,3.0,0.0,0.0,0.0,0.0,0.0,
2.6642629999999774,0.0,0.0,58038.0,0.5,825.0,840.0,0.0,0.25,0.808105386,4.896629181995821,0.0,-59001.0,1.125,-832.5,-840.0,0.0,0.25,0.5175780720000001,4.9279205447402,0.0,25174.0,2.5,840.0,840.0,0.0,0.125,3.349609032,4.904719328098297,0.0,-58180.0,2.0,-825.0,-840.0,0.0,0.25,1.621093584,4.922192216968536,0.0,0.3799999952316284,-0.23000000417232513,-22.329999923706055,0.0687255859375,0.0072021484375,1.15228271484375,35.939998626708984,0.0,68.0,3.0381927490234375,-1.6251068115234375,Closing,0.0,0.0,3.0,0.0,0.0,0.0,0.0,0.0,
2.7924770000000136,0.0,0.0,58174.0,0.5,847.5,840.0000000000001,0.0,0.25,0.8032225740000001,4.895944157587513,0.0,-59273.0,1.0,-855.0,-840.0000000000001,0.0,0.25,0.511474557,4.9272311427598,0.0,25307.0,2.5,840.0,840.0000000000001,0.0,0.125,3.336181299,4.904033171901703,0.0,-58447.0,2.0,-832.5,-840.0000000000001,0.0,0.25,1.6101072570000001,4.921503616364797,0.0,0.3100000023841858,-0.18000000715255737,-22.399999618530273,-0.0128173828125,-0.0623779296875,1.11553955078125,35.939998626708984,0.0,17.0,3.0381317138671875,-1.6256561279296875,Closing,0.0,0.0,3.0,0.0,0.0,0.0,0.0,0.0,
2.9388169999999807,0.0,0.0,58306.0,0.0,615.0,0.0,0.0,0.125,0.808105386,0.01,0.0,-59377.0,0.125,-585.0,-0.0,0.0,0.0,0.507812448,0.01,0.0,25443.0,0.125,720.0,0.0,0.0,0.0,3.336181299,0.01,0.0,-58547.0,0.125,-630.0,-0.0,0.0,0.25,1.5869139,0.01,0.0,0.1599999964237213,-0.800000011920929,-22.559999465942383,-0.04632568359375,0.08392333984375,0.64532470703125,35.939998626708984,0.0,-65.0,3.0364532470703125,-1.626739501953125,Closing,0.0,0.0,3.0,0.0,0.0,0.0,0.0,0.0,
3.069375,0.0,0.0,58402.0,0.125,600.0,0.0,0.0,0.125,0.808105386,0.01,0.0,-59377.0,0.5,-585.0,-0.0,0.0,0.0,0.507812448,0.01,-0.003662108999999525,25537.0,0.0,517.5,0.0,0.0,0.0,3.334960596,0.01,0.0,-58640.0,0.125,-570.0,-0.0,0.0,0.25,1.6064451480000002,0.01,-0.017089841999999855,0.25,-1.559999942779541,-22.65999984741211,-0.22723388671875,0.05157470703125,1.0797119140625,35.900001525878906,0.0,-200.0,3.02642822265625,-1.630401611328125,Closing,0.0,0.0,3.0,0.0,0.0,0.0,0.0,0.0,
3.1652640000000245,0.0,0.0,58478.0,0.375,405.0,0.0,0.0,0.125,0.808105386,0.01,0.0,-59459.0,0.75,-360.0,-0.0,0.0,0.0,0.507812448,0.01,0.0,25609.0,0.125,405.0,0.0,0.0,0.0,3.336181299,0.01,0.0,-58640.0,0.25,-397.5,-0.0,0.0,0.25,1.6052244450000002,0.01,0.0,0.23000000417232513,-2.1700000762939453,-22.719999313354492,-0.1689453125,0.0535888671875,1.09149169921875,35.900001525878906,0.0,-136.0,3.004547119140625,-1.63690185546875,Closing,0.0,0.0,3.0,0.0,0.0,0.0,0.0,0.0,
3.2630350000000328,0.0,0.0,58514.0,0.125,187.5,0.0,0.0,0.125,0.809326089,0.01,0.0,-59503.0,0.625,-202.5,-0.0,0.0,0.0,0.507812448,0.01,0.0,25641.0,0.125,180.0,0.0,0.0,0.0,3.336181299,0.01,0.0,-58688.0,0.125,-180.0,-0.0,0.0,0.25,1.6040037420000002,0.01,0.0,0.25,-2.7100000381469727,-22.739999771118164,-0.12298583984375,-0.004150390625,0.98876953125,35.900001525878906,0.0,-66.0,2.974151611328125,-1.646514892578125,Closing,0.0,0.0,3.0,0.0,0.0,0.0,0.0,0.0,
3.3497200000000302,0.0,0.0,58520.0,0.125,30.0,0.0,0.0,0.125,0.808105386,0.01,0.0,-59514.0,0.125,-22.5,-0.0,0.0,0.125,0.5029296360000001,0.01,0.0,25645.0,0.125,22.5,0.0,0.0,0.0,3.336181299,0.01,0.0,-58701.0,0.125,-22.5,-0.0,0.0,0.25,1.6064451480000002,0.01,0.0,0.25,-2.9100000858306885,-22.719999313354492,-0.0235595703125,0.02362060546875,0.96844482421875,35.900001525878906,0.0,16.0,2.94415283203125,-1.6531982421875,Closing,0.0,0.0,3.0,0.0,0.0,0.0,0.0,0.0,
3.4723699999999953,0.0,0.0,58518.0,0.125,-7.5,0.0,0.0,0.125,0.809326089,0.01,0.0,-59514.0,0.125,0.0,-0.0,0.0,0.125,0.5041503390000001,0.01,0.0,25645.0,0.125,0.0,0.0,0.0,0.0,3.336181299,0.01,0.0,-58701.0,0.25,0.0,-0.0,0.0,0.25,1.6052244450000002,0.01,0.0,0.25,-2.6600000858306885,-22.739999771118164,0.00421142578125,0.0057373046875,1.00762939453125,35.900001525878906,0.0,46.0,2.9461669921875,-1.6527557373046875,Closing,0.0,0.0,3.0,0.0,0.0,0.0,0.0,0.0,
3.5912729999999864,0.0,0.0,58521.0,0.125,22.5,420.0,0.0,1.25,1.069335828,0.5498168668524888,0.0,-59514.0,0.25,-45.0,-420.0,0.0,5.5,0.9851073210000001,1.9285545897722227,0.0,25650.0,1.375,22.5,420.0,0.0,1.0,2.9968258650000004,4.389674732977289,0.0,-58703.0,1.0,-45.0,-420.0,0.0,2.125,0.96435537,3.0316872062785585,0.0,0.20999999344348907,-2.259999990463257,-22.729999542236328,0.0887451171875,-0.03350830078125,1.0260009765625,35.880001068115234,0.0,133.0,2.953765869140625,-1.6505126953125,Closing,0.0,0.0,3.0,0.0,0.0,0.0,0.0,0.0,
3.7264720000000087,0.0,0.0,58536.0,0.5,97.5,420.0,0.0,0.875,1.4538572730000001,0.5498168668524888,-4.594116269,-59538.0,0.375,-172.5,-420.0,0.0,1.25,1.7321775570000002,1.9285545897722227,0.5480956470000002,25661.0,2.0,67.5,420.0,0.0,0.375,2.705077848,4.389674732977289,-0.36010738500000006,-58705.0,2.0,0.0,-420.0,0.0,2.125,0.273437472,3.0316872062785585,-0.6762694620000005,0.20000000298023224,-1.940000057220459,-22.770000457763672,-0.0567626953125,-0.06494140625,1.08868408203125,35.880001068115234,0.0,8.0,2.9653472900390625,-1.64923095703125,Closing,0.0,0.0,3.0,0.0,0.0,0.0,0.0,0.0,
3.830478999999992,0.0,0.0,58545.0,1.5,60.0,420.0,0.0,0.375,1.511230314,0.5498168668524888,0.0,-59562.0,1.125,-142.5,-420.0,0.0,0.5,2.6342770740000003,1.9285545897722227,0.0,25669.0,3.875,52.5,420.0,0.0,0.125,2.6379391830000003,4.389674732977289,0.0,-58712.0,2.875,-52.5,-420.0,0.0,0.625,4.442138217,3.0316872062785585,0.0,0.20999999344348907,-2.109999895095825,-23.780000686645508,-0.07965087890625,0.00775146484375,1.03057861328125,35.880001068115234,0.0,-39.0,2.9794769287109375,-1.6508026123046875,Closing,0.0,0.0,3.0,0.0,0.0,0.0,0.0,0.0,
3.939713999999978,0.0,0.0,58571.0,1.875,112.5,420.0,0.0,0.25,1.431884619,0.5498168668524888,0.0,-59593.0,1.25,-217.5,-420.0,0.0,1.75,2.913818061,1.9285545897722227,0.0,25669.0,4.125,97.5,420.0,0.0,0.125,2.6965329270000002,4.389674732977289,0.0,-58737.0,3.25,-180.0,-420.0,0.0,1.25,4.301757372,3.0316872062785585,0.0,0.44999998807907104,-2.25,-25.639999389648438,0.0145263671875,-0.0765380859375,1.0670166015625,35.880001068115234,0.0,87.0,2.987030029296875,-1.650421142578125,Closing,0.0,0.0,3.0,0.0,0.0,0.0,0.0,0.0,
4.040049999999988,0.0,0.0,58571.0,2.5,150.0,420.0,0.0,0.25,1.3745115780000001,0.5498168668524888,0.0,-59637.0,1.5,-262.5,-420.0,0.0,0.875,2.755126671,1.9285545897722227,0.0,25684.0,7.625,67.5,420.0,0.0,0.125,2.760009483,4.389674732977289,0.0,-58784.0,2.875,-292.5,-420.0,0.0,0.625,4.499511258,3.0316872062785585,0.0,0.3499999940395355,-2.0,-27.739999771118164,0.1014404296875,-0.02520751953125,1.15277099609375,35.880001068115234,0.0,140.0,2.9904937744140625,-1.6511993408203125,Closing,0.0,0.0,3.0,0.0,0.0,0.0,0.0,0.0,
4.145937000000035,0.0,0.0,58590.0,3.875,75.0,420.0,0.0,0.125,1.334228379,0.5498168668524888,-0.06958007100000008,-59637.0,2.75,-172.5,-420.0,0.0,0.875,2.546386458,1.9285545897722227,0.0,25695.0,9.75,60.0,420.0,0.0,0.0,2.774657919,4.389674732977289,0.0,-58784.0,3.875,-232.5,-420.0,0.0,0.375,4.665526866,3.0316872062785585,0.0,0.4699999988079071,-1.7200000286102295,-28.889999389648438,0.04083251953125,-0.015380859375,0.8861083984375,35.939998626708984,0.0,69.0,2.994415283203125,-1.6496734619140625,Closing,0.0,0.0,3.0,0.0,0.0,0.0,0.0,0.0,
4.2276469999999975,0.0,0.0,58612.0,4.0,217.5,420.0,0.0,0.125,1.329345567,0.5498168668524888,0.0,-59664.0,3.25,-232.5,-420.0,0.0,0.25,2.386474365,1.9285545897722227,0.0,25702.0,10.75,67.5,420.0,0.0,0.0,2.772216513,4.389674732977289,0.0,-58821.0,4.25,-292.5,-420.0,0.0,0.25,4.752196779,3.0316872062785585,0.0,0.47999998927116394,-1.4299999475479126,-31.719999313354492,-0.0050048828125,0.01885986328125,1.09490966796875,35.939998626708984,0.0,13.0,3.001800537109375,-1.6454315185546875,Closing,0.0,0.0,3.0,0.0,0.0,0.0,0.0,0.0,
4.339287000000011,0.0,0.0,58675.0,2.375,405.0,420.0,0.0,0.25,1.3220213490000001,0.5498168668524888,0.0,-59720.0,2.125,-397.5,-420.0,0.0,0.25,2.338866948,1.9285545897722227,0.0,25742.0,9.875,247.5,420.0,0.0,0.0,2.774657919,4.389674732977289,0.0,-58876.0,2.625,-480.0,-420.0,0.0,0.25,4.749755373,3.0316872062785585,0.0,0.5699999928474426,-0.9700000286102295,-37.09000015258789,-0.02960205078125,-0.0546875,0.97796630859375,35.939998626708984,0.0,28.0,3.0123443603515625,-1.6383819580078125,Closing,0.0,0.0,3.0,0.0,0.0,0.0,0.0,0.0,
4.4493649999999905,0.0,0.0,58775.0,0.5,637.5,420.0,0.0,0.25,1.329345567,0.5498168668524888,0.0,-59798.0,0.75,-525.0,-420.0,0.0,0.25,2.3278806210000003,1.9285545897722227,0.0,25817.0,6.375,472.5,420.0,0.0,0.0,2.784423543,4.389674732977289,0.0,-58963.0,1.25,-585.0,-420.0,0.0,0.25,4.683837411,3.0316872062785585,0.0,0.6899999976158142,-0.7400000095367432,-44.099998474121094,-0.0308837890625,-0.0133056640625,1.04254150390625,35.939998626708984,0.0,5.0,3.0238189697265625,-1.6304779052734375,Closing,0.0,0.0,3.0,0.0,0.0,0.0,0.0,0.0,
4.549799999999989,0.0,0.0,58883.0,0.125,667.5,420.0,0.0,0.25,1.329345567,0.5498168668524888,0.0,-59893.0,0.125,-600.0,-420.0,0.0,0.25,2.386474365,1.9285545897722227,0.0,25935.0,3.75,727.5,420.0,0.0,0.0,2.774657919,4.389674732977289,0.0,-59064.0,0.625,-630.0,-420.0,0.0,0.25,4.625243667,3.0316872062785585,0.0,0.8299999833106995,-0.6700000166893005,-52.790000915527344,-0.08245849609375,0.0626220703125,1.11993408203125,35.970001220703125,0.0,-78.0,3.0221405029296875,-1.6208038330078125,Closing,0.0,0.0,3.0,0.0,0.0,0.0,0.0,0.0,
4.672693000000028,0.0,0.0,58982.0,0.125,607.5,420.0,0.0,0.25,1.329345567,0.5498168668524888,0.0,-59981.0,0.125,-547.5,-420.0,0.0,0.25,2.445068109,1.9285545897722227,0.0,26048.0,2.25,697.5,420.0,0.0,0.0,2.772216513,4.389674732977289,0.0,-59165.0,0.375,-615.0,-420.0,0.0,0.25,4.606933122,3.0316872062785585,0.0,0.8600000143051147,-0.699999988079071,-60.08000183105469,-0.0557861328125,0.0618896484375,1.0169677734375,35.970001220703125,0.0,-61.0,3.01861572265625,-1.61474609375,Closing,0.0,0.0,3.0,0.0,0.0,0.0,0.0,0.0,
4.773304000000004,0.0,0.0,59077.0,0.125,600.0,420.0,0.0,0.25,1.329345567,0.5498168668524888,0.0,-60078.0,0.0,-592.5,-420.0,0.0,0.125,2.449950921,1.9285545897722227,0.0,26143.0,2.0,622.5,420.0,0.0,0.0,2.774657919,4.389674732977289,0.0,-59255.0,0.375,-547.5,-420.0,0.0,0.25,4.606933122,3.0316872062785585,0.0,0.800000011920929,-0.5899999737739563,-66.6500015258789,-0.00665283203125,0.02490234375,0.94305419921875,35.970001220703125,0.0,-9.0,3.01446533203125,-1.615936279296875,Closing,0.0,0.0,3.0,0.0,0.0,0.0,0.0,0.0,
4.897879000000016,0.0,0.0,59077.0,0.125,502.5,0.0,0.0,1.75,1.166992068,0.01,0.0,-60159.0,0.125,-510.0,-0.0,0.0,9.375,2.255859144,0.01,0.0,26143.0,0.375,480.0,0.0,0.0,2.5,3.0065914890000003,0.01,0.0,-59341.0,0.0,-525.0,-0.0,0.0,7.375,0.096435537,0.01,0.0,0.7599999904632568,-0.5099999904632568,-72.23999786376953,0.04693603515625,-0.04754638671875,1.0556640625,35.970001220703125,0.0,75.0,3.01458740234375,-1.6167449951171875,Closing,0.0,0.0,3.0,0.0,0.0,0.0,0.0,0.0,
4.991623000000021,0.0,0.0,59154.0,0.125,375.0,0.0,0.0,0.375,0.8947752990000001,0.01,0.0,-60186.0,0.25,-232.5,-0.0,0.0,1.5,1.534423671,0.01,0.0,26210.0,0.375,322.5,0.0,0.0,0.375,3.354491844,0.01,0.0,-59395.0,0.125,-397.5,-0.0,0.0,1.375,0.810546792,0.01,0.0,0.6800000071525574,-0.05000000074505806,-75.55000305175781,-0.040771484375,0.01007080078125,1.0496826171875,35.970001220703125,0.0,-7.0,3.01666259765625,-1.6134490966796875,Closing,0.0,0.0,3.0,0.0,0.0,0.0,0.0,0.0,
5.104918999999994,0.0,0.0,59195.0,0.0,127.5,0.0,0.0,0.25,0.755615157,0.01,0.0,-60186.0,0.0,0.0,-0.0,0.0,1.75,0.666503838,0.01,0.0,26240.0,1.0,90.0,0.0,0.0,0.0,3.4851070650000002,0.01,0.0,-59412.0,0.125,-112.5,-0.0,0.0,1.25,1.650390456,0.01,0.0,0.6800000071525574,-0.5,-75.83999633789062,-0.06793212890625,-0.01336669921875,1.01165771484375,35.95000076293945,0.0,10.0,3.01519775390625,-1.611419677734375,Closing,0.0,0.0,3.0,0.0,0.0,0.0,0.0,0.0,
5.206472999999998,0.0,0.0,59204.0,0.125,30.0,0.0,0.0,0.25,0.771484296,0.01,0.0,-60186.0,0.0,0.0,-0.0,0.0,0.5,0.300292938,0.01,0.0,26245.0,1.25,15.0,0.0,0.0,0.125,3.44238246,0.01,0.0,-59412.0,0.25,-52.5,-0.0,0.0,0.25,1.848144342,0.01,0.0,0.6200000047683716,-0.5600000023841858,-75.80000305175781,0.0166015625,-0.00811767578125,1.08587646484375,35.95000076293945,0.0,26.0,3.0153656005859375,-1.6125946044921875,Closing,0.0,0.0,3.0,0.0,0.0,0.0,0.0,0.0,
5.305130999999994,0.0,0.0,59204.0,0.0,0.0,8.4,0.0,0.25,0.7897948410000001,0.01,0.0,-60186.0,0.0,0.0,-8.4,0.0,0.5,0.38208003900000004,0.01,0.0,26247.0,1.25,15.0,8.4,0.0,0.125,3.403319964,0.01,0.0,-59417.0,0.125,0.0,-8.4,0.0,0.25,1.7126463090000001,0.01,0.0,0.6100000143051147,-0.49000000953674316,-75.80000305175781,-0.03045654296875,-0.0030517578125,1.015380859375,35.95000076293945,0.0,8.0,3.0160980224609375,-1.6128082275390625,Closing,0.0,0.0,3.0,0.0,0.0,0.0,0.0,0.0,
5.407552000000025,0.0,0.0,59206.0,0.0,15.0,8.4,0.0,0.25,0.794677653,0.01,0.0,-60186.0,0.0,0.0,-8.4,0.0,0.25,0.411376911,0.01,0.0,26251.0,1.375,30.0,8.4,0.0,0.125,3.389892231,0.01,0.0,-59417.0,0.25,0.0,-8.4,0.0,0.25,1.650390456,0.01,0.0,0.5799999833106995,-0.5299999713897705,-75.77999877929688,-0.02435302734375,0.0062255859375,1.03533935546875,35.95000076293945,0.0,0.0,3.0160980224609375,-1.6129302978515625,Closing,0.0,0.0,3.0,0.0,0.0,0.0,0.0,0.0,
5.519390000000014,0.0,0.0,59206.0,0.0,0.0,0.0,0.0,0.125,0.794677653,0.01,0.0,-60187.0,0.0,-7.5,-0.0,0.0,0.25,0.48583979400000005,0.01,0.0,26251.0,1.5,0.0,0.0,0.0,0.125,3.388671528,0.01,0.0,-59417.0,0.25,0.0,-0.0,0.0,0.25,1.638183426,0.01,0.0,0.5600000023841858,-0.5600000023841858,-75.77999877929688,-0.0040283203125,0.00537109375,1.01202392578125,35.95000076293945,0.0,5.0,3.0160980224609375,-1.6129302978515625,Closing,0.0,0.0,3.0,0.0,0.0,0.0,0.0,0.0,
5.64925,0.0,0.0,59213.0,0.375,52.5,420.0,0.0,0.125,0.794677653,0.01,0.0,-60189.0,0.375,-150.0,-420.0,0.0,0.125,0.507812448,0.01,0.0,26253.0,4.375,15.0,420.0,0.0,0.125,3.354491844,0.01,0.0,-59417.0,0.625,-60.0,-420.0,0.0,0.125,1.639404129,0.01,0.0,0.5,-0.44999998807907104,-75.79000091552734,0.14044189453125,0.067138671875,1.0927734375,35.970001220703125,0.0,-19.0,3.0164337158203125,-1.6122283935546875,Closing,0.0,0.0,3.0,0.0,0.0,0.0,0.0,0.0,
5.844709000000032,0.0,0.0,59241.0,0.75,127.5,454.4800896783736,0.0,0.75,0.8276366340000001,0.3077455577023193,0.0012207029999995456,-60245.0,2.0,-127.5,-454.4800896783736,0.0,0.75,0.614013609,0.30971217137084905,0.0,26264.0,8.0,120.0,454.4800896783736,0.0,0.75,3.455810193,0.30825401085073295,0.0,-59466.0,1.625,-127.5,-454.4800896783736,0.0,0.75,1.678466625,0.3093521548453433,0.0,0.47999998927116394,0.07999999821186066,-75.79000091552734,0.07073974609375,-0.00921630859375,0.946533203125,35.970001220703125,0.0,33.0,3.01983642578125,-1.6012420654296875,Closing,0.0,0.0,3.0,0.0,0.0,0.0,0.0,0.0,
5.982628000000026,0.0,0.0,59269.0,1.25,240.0,454.4800896783736,0.0,0.5,1.1340330870000002,0.3077455577023193,-4.7686767979999996,-60291.0,1.875,-277.5,-454.4800896783736,0.0,0.25,0.916747953,0.30971217137084905,0.21728513399999994,26287.0,8.875,165.0,454.4800896783736,0.0,0.25,3.6877437630000003,0.30825401085073295,-4.758515253,-59509.0,1.375,-270.0,-454.4800896783736,0.0,0.375,1.9494626910000001,0.3093521548453433,0.0,0.949999988079071,0.4000000059604645,-75.87999725341797,0.0745849609375,0.10552978515625,0.989990234375,35.970001220703125,0.0,-69.0,3.02142333984375,-1.58416748046875,Closing,0.0,0.0,3.0,0.0,0.0,0.0,0.0,0.0,
6.107760999999998,0.0,0.0,59382.0,0.75,420.0,459.54823608524765,0.0,0.25,1.2170408910000001,0.32805240266596947,0.0,-60353.0,1.25,-412.5,-459.54823608524765,0.0,0.25,0.9753416970000001,0.33014878496273997,0.0,26387.0,8.375,382.5,459.54823608524765,0.0,0.125,3.721923447,0.3285944065155961,0.0,-59566.0,1.25,-382.5,-459.54823608524765,0.0,0.25,2.033691198,0.32976501244926026,0.0,1.2799999713897705,0.6600000262260437,-76.36000061035156,0.0562744140625,0.0299072265625,0.9683837890625,36.0,0.0,2.0,3.0191650390625,-1.5578155517578125,Closing,0.0,0.0,3.0,0.0,0.0,0.0,0.0,0.0,
6.250625999999989,0.0,0.0,59465.0,0.125,540.0,454.4800896783736,0.0,0.25,1.182861207,0.3077455577023193,0.0,-60428.0,0.75,-487.5,-454.4800896783736,0.0,0.25,0.8959960020000001,0.30971217137084905,0.0,26468.0,5.75,510.0,454.4800896783736,0.0,0.125,3.696288684,0.30825401085073295,0.0,-59635.0,1.0,-457.5,-454.4800896783736,0.0,0.25,2.0153806530000002,0.3093521548453433,0.0,1.2200000286102295,0.7799999713897705,-76.94999694824219,0.00830078125,0.01031494140625,0.93878173828125,36.0,0.0,8.0,3.0193634033203125,-1.530670166015625,Closing,0.0,0.0,3.0,0.0,0.0,0.0,0.0,0.0,
6.435887999999977,0.0,0.0,59546.0,0.125,457.5,452.0619649519853,0.0,0.25,1.1108397300000001,0.29742484555944054,-0.08056639799999998,-60590.0,0.375,-502.5,-452.0619649519853,0.0,0.0,0.728759691,0.29932550586792606,0.0,26555.0,4.375,555.0,452.0619649519853,0.0,0.0,3.6389156430000003,0.29791624696347774,0.0,-59789.0,0.75,-510.0,-452.0619649519853,0.0,0.25,1.900634571,0.2989775630404264,0.0,0.8299999833106995,0.7099999785423279,-77.38999938964844,0.0059814453125,-0.008056640625,1.12750244140625,36.0,0.0,22.0,3.025177001953125,-1.4962615966796875,Closing,0.0,0.0,3.0,0.0,0.0,0.0,0.0,0.0,
6.584315000000002,0.0,0.0,59714.0,0.125,532.5,439.2543575481068,0.0,0.25,1.096191294,0.23328461223749342,0.0,-60669.0,0.25,-480.0,-439.2543575481068,0.0,0.125,0.731201097,0.234775391537475,0.0,26722.0,3.875,472.5,439.2543575481068,0.0,0.125,3.615722286,0.23367004199464148,0.0,-59868.0,0.375,-510.0,-439.2543575481068,0.0,0.25,1.8908689470000002,0.23450248324213271,0.0,0.699999988079071,0.5600000023841858,-77.3499984741211,-0.01898193359375,-0.02593994140625,1.1220703125,36.0099983215332,0.0,32.0,3.0269012451171875,-1.4975738525390625,Closing,0.0,0.0,3.0,0.0,0.0,0.0,0.0,0.0,
6.785400000000023,0.0,0.0,59800.0,0.375,525.0,423.9696204936888,0.0,0.25,1.0046385690000001,0.10750455483864146,0.0,-60832.0,0.125,-502.5,-423.9696204936888,0.0,0.25,0.682372977,0.1081915507080648,0.0,26788.0,4.75,405.0,423.9696204936888,0.0,0.125,3.509521125,0.10768217244516232,0.0,-60035.0,0.375,-502.5,-423.9696204936888,0.0,0.25,1.804199034,0.1080657863701552,0.0,0.5199999809265137,0.3100000023841858,-77.5,0.00714111328125,0.01763916015625,0.99005126953125,36.0099983215332,0.0,-8.0,3.02740478515625,-1.5013885498046875,Closing,0.0,0.0,3.0,0.0,0.0,0.0,0.0,0.0,
6.98418200000003,0.0,0.0,59967.0,0.125,517.5,420.4429197751611,0.0,0.25,0.837402258,0.03603524225560903,0.0,-60908.0,0.125,-457.5,-420.4429197751611,0.0,0.25,0.550537053,0.03626552145280612,0.0,26878.0,8.0,262.5,420.4429197751611,0.0,0.125,3.354491844,0.03609477920722422,0.0,-60108.0,0.375,-427.5,-420.4429197751611,0.0,0.25,1.625976396,0.03622336557959227,0.0,0.10000000149011612,0.23000000417232513,-78.12999725341797,-0.0184326171875,-0.01104736328125,1.102783203125,36.0099983215332,0.0,8.0,3.032318115234375,-1.510528564453125,Closing,0.0,0.0,3.0,0.0,0.0,0.0,0.0,0.0,
7.111718999999983,0.0,0.0,60049.0,0.375,502.5,420.4429197751611,0.0,0.25,0.8166503070000001,4.896215757744391,0.0,-60981.0,0.125,-450.0,-420.4429197751611,0.0,0.25,0.49316401200000004,4.927504478547194,0.0,26936.0,7.75,405.0,420.4429197751611,0.0,0.125,3.3215328630000003,4.904305220792776,0.0,-60178.0,0.375,-457.5,-420.4429197751611,0.0,0.25,1.595458821,4.921776634420408,0.0,0.0,0.18000000715255737,-78.62999725341797,-0.03265380859375,0.06585693359375,1.08551025390625,35.95000076293945,0.0,-17.0,3.03289794921875,-1.52056884765625,Closing,0.0,0.0,3.0,0.0,0.0,0.0,0.0,0.0,
7.248335000000021,0.0,0.0,60130.0,0.25,487.5,423.9696204936888,0.0,0.25,0.786132732,4.824746445161359,0.0,-61052.0,0.125,-435.0,-423.9696204936888,0.0,0.25,0.429687456,4.855578449291936,0.0,27015.0,6.125,495.0,423.9696204936888,0.0,0.125,3.277587555,4.832717827554839,0.0,-60320.0,0.375,-435.0,-423.9696204936888,0.0,0.25,1.56249984,4.849934213629845,0.0,0.019999999552965164,0.019999999552965164,-79.0999984741211,-0.08642578125,-0.041015625,1.13348388671875,35.95000076293945,0.0,24.0,3.0320892333984375,-1.5300750732421875,Closing,0.0,0.0,3.0,0.0,0.0,0.0,0.0,0.0,
7.446832999999984,0.0,0.0,60277.0,0.25,442.5,428.24059247000696,0.0,0.25,0.678710868,4.778004792092225,0.0,-61189.0,0.125,-420.0,-428.24059247000696,0.0,0.25,0.351562464,4.808538098901216,0.0,27169.0,5.875,472.5,428.24059247000696,0.0,0.125,3.2092281870000003,4.785898948543459,0.0,-60387.0,0.375,-412.5,-428.24059247000696,0.0,0.25,1.481933442,4.802948544020418,0.0,-0.14000000059604645,-0.1599999964237213,-79.45999908447266,0.00140380859375,0.00433349609375,0.94708251953125,35.95000076293945,0.0,-17.0,3.03363037109375,-1.532623291015625,Closing,0.0,0.0,3.0,0.0,0.0,0.0,0.0,0.0,
7.587587999999989,0.0,0.0,60346.0,0.375,427.5,435.66151586552843,0.0,0.25,0.650634699,4.721129584569014,0.0,-61256.0,0.125,-405.0,-435.66151586552843,0.0,0.25,0.33569332500000004,4.751299436706716,0.0,27242.0,5.875,450.0,435.66151586552843,0.0,0.125,3.195800454,4.728929772553091,0.0,-60454.0,0.375,-405.0,-435.66151586552843,0.0,0.25,1.437988134,4.745776417358559,0.0,-0.1599999964237213,-0.23999999463558197,-79.69999694824219,-0.014892578125,-0.0743408203125,0.95953369140625,35.95000076293945,0.0,68.0,3.033294677734375,-1.5352630615234375,Closing,0.0,0.0,3.0,0.0,0.0,0.0,0.0,0.0,
7.7841410000000035,0.0,0.0,60479.0,0.375,420.0,445.28637594424845,0.0,0.25,0.587158143,4.666435188907449,0.0,-61385.0,0.25,-412.5,-445.28637594424845,0.0,0.25,0.261230442,4.696255522608871,0.0,27389.0,5.75,465.0,445.28637594424845,0.0,0.125,3.08837859,4.674145011532941,0.0,-60596.0,0.625,-390.0,-445.28637594424845,0.0,0.25,1.365966657,4.690796487567873,0.0,-0.28999999165534973,-0.25999999046325684,-80.05999755859375,0.019287109375,-0.00390625,1.0235595703125,35.959999084472656,0.0,2.0,3.0346527099609375,-1.5353240966796875,Closing,0.0,0.0,3.0,0.0,0.0,0.0,0.0,0.0,
8.04541399999999,0.0,0.0,60617.0,0.375,427.5,447.46387843042703,0.0,0.125,0.511474557,4.655793124164234,0.0,-61520.0,0.25,-427.5,-447.46387843042703,0.0,0.125,0.192871074,4.685545450937655,0.0,27540.0,5.25,472.5,447.46387843042703,0.0,0.0,3.01513641,4.663485364110825,0.0,-60719.0,0.625,-382.5,-447.46387843042703,0.0,0.125,1.325683458,4.680098865529405,0.0,-0.38999998569488525,-0.33000001311302185,-80.38999938964844,-0.001953125,-0.0296630859375,0.97515869140625,35.959999084472656,0.0,23.0,3.0360565185546875,-1.5352783203125,Closing,0.0,0.0,3.0,0.0,0.0,0.0,0.0,0.0,
8.18512599999999,0.0,0.0,60687.0,0.375,442.5,452.0619649519854,0.0,0.125,0.510253854,4.634826154440559,0.0,-61591.0,0.25,-442.5,-452.0619649519854,0.0,0.125,0.19409177700000002,4.664444494132074,-0.019531247999999835,27616.0,5.25,472.5,452.0619649519854,0.0,0.0,3.021239925,4.642483753036522,-0.019531247999999835,-60788.0,0.625,-412.5,-452.0619649519854,0.0,0.125,1.326904161,4.659022436959574,0.0,-0.3199999928474426,-0.3499999940395355,-80.48999786376953,0.02349853515625,-0.0220947265625,0.94683837890625,35.959999084472656,0.0,21.0,3.0355072021484375,-1.5352630615234375,Closing,0.0,0.0,3.0,0.0,0.0,0.0,0.0,0.0,
8.307483000000007,0.0,0.0,60757.0,0.375,435.0,452.0619649519854,0.0,0.125,0.511474557,4.634826154440559,0.0,-61663.0,0.25,-442.5,-452.0619649519854,0.0,0.125,0.192871074,4.664444494132074,0.0,27692.0,5.0,472.5,452.0619649519854,0.0,0.0,3.021239925,4.642483753036522,0.0,-60858.0,0.75,-420.0,-452.0619649519854,0.0,0.125,1.328124864,4.659022436959574,0.0,-0.23999999463558197,-0.3199999928474426,-80.58999633789062,0.0181884765625,-0.05535888671875,1.0634765625,35.959999084472656,0.0,54.0,3.03533935546875,-1.5349273681640625,Closing,0.0,0.0,3.0,0.0,0.0,0.0,0.0,0.0,
8.447090000000026,0.0,0.0,60828.0,0.375,442.5,452.0619649519854,0.0,0.125,0.511474557,4.634826154440559,0.0,-61736.0,0.375,-435.0,-452.0619649519854,0.0,0.125,0.192871074,4.664444494132074,0.0,27769.0,4.875,472.5,452.0619649519854,0.0,0.0,3.021239925,4.642483753036522,0.0,-60993.0,0.75,-442.5,-452.0619649519854,0.0,0.125,1.328124864,4.659022436959574,0.0,-0.25999999046325684,-0.3400000035762787,-80.72000122070312,-0.0067138671875,0.022216796875,1.06707763671875,35.959999084472656,0.0,-26.0,3.0346221923828125,-1.5350799560546875,Closing,0.0,0.0,3.0,0.0,0.0,0.0,0.0,0.0,
8.583815999999992,0.0,0.0,60899.0,0.375,442.5,447.46387843042703,0.0,0.125,0.510253854,4.655793124164234,0.0,-61878.0,0.25,-442.5,-447.46387843042703,0.0,0.25,0.19409177700000002,4.685545450937655,0.0,27845.0,4.625,472.5,447.46387843042703,0.0,0.0,3.021239925,4.663485364110825,0.0,-61062.0,1.0,-420.0,-447.46387843042703,0.0,0.125,1.325683458,4.680098865529405,0.0,-0.1899999976158142,-0.3499999940395355,-80.87999725341797,-0.04046630859375,0.02783203125,1.00067138671875,35.959999084472656,0.0,-36.0,3.0339508056640625,-1.5351104736328125,Closing,0.0,0.0,3.0,0.0,0.0,0.0,0.0,0.0,
8.772304000000004,0.0,0.0,61041.0,0.375,435.0,443.19150787921245,0.0,0.25,0.511474557,4.677179849637432,0.0,-61949.0,0.25,-435.0,-443.19150787921245,0.0,0.25,0.198974589,4.707068845895068,0.0,27996.0,4.625,465.0,443.19150787921245,0.0,0.0,3.035888361,4.684907424449561,0.0,-61132.0,0.75,-390.0,-443.19150787921245,0.0,0.25,1.333007676,4.70159724119928,0.0,-0.12999999523162842,-0.33000001311302185,-81.06999969482422,-0.02008056640625,-0.02734375,1.020751953125,35.97999954223633,0.0,22.0,3.0331573486328125,-1.5351715087890625,Closing,0.0,0.0,3.0,0.0,0.0,0.0,0.0,0.0,
8.91244199999998,0.0,0.0,61109.0,0.375,420.0,443.19150787921245,0.0,0.25,0.5285643990000001,4.677179849637432,0.0,-62018.0,0.375,-435.0,-443.19150787921245,0.0,0.25,0.235595679,4.707068845895068,0.0,28070.0,4.625,450.0,443.19150787921245,0.0,0.0,3.0651852330000002,4.684907424449561,0.0,-61210.0,0.625,-472.5,-443.19150787921245,0.0,0.25,1.3452147060000001,4.70159724119928,0.0,-0.10000000149011612,-0.33000001311302185,-81.23999786376953,0.0267333984375,-0.02984619140625,1.00714111328125,35.97999954223633,0.0,32.0,3.0325775146484375,-1.5348663330078125,Closing,0.0,0.0,3.0,0.0,0.0,0.0,0.0,0.0,
9.050934999999997,0.0,0.0,61181.0,0.375,442.5,437.41434880335436,0.0,0.25,0.535888617,4.7100024765632575,0.02075195100000027,-62087.0,0.375,-435.0,-437.41434880335436,0.0,0.25,0.26855466,4.740101222158078,0.0,28145.0,4.25,472.5,437.41434880335436,0.0,0.0,3.073730154,4.717784280486358,0.0,-61285.0,0.625,-472.5,-437.41434880335436,0.0,0.25,1.356201033,4.7345912198711355,0.0,-0.10999999940395355,-0.30000001192092896,-81.44999694824219,0.0062255859375,0.01422119140625,1.008544921875,35.97999954223633,0.0,-14.0,3.0323944091796875,-1.534423828125,Closing,0.0,0.0,3.0,0.0,0.0,0.0,0.0,0.0,
9.18217200000002,0.0,0.0,61253.0,0.375,435.0,432.4215651421655,0.0,0.25,0.587158143,4.743643082438357,0.0,-62227.0,0.25,-442.5,-432.4215651421655,0.0,0.25,0.275878878,4.77395680457362,0.0,28221.0,3.75,472.5,432.4215651421655,0.0,0.0,3.098144214,4.751480466926451,0.0,-61431.0,0.625,-412.5,-432.4215651421655,0.0,0.25,1.380615093,4.768407447781828,0.0,0.12999999523162842,-0.4099999964237213,-81.55000305175781,0.01849365234375,0.037841796875,1.35784912109375,35.970001220703125,0.0,-30.0,3.0317230224609375,-1.5331573486328125,Closing,0.0,0.0,3.0,0.0,0.0,0.0,0.0,0.0,
9.311826000000002,0.0,0.0,61326.0,0.375,465.0,429.54249080416946,0.0,0.25,0.615234312,4.766477385014434,0.0,-62295.0,0.25,-427.5,-429.54249080416946,0.0,0.25,0.30517575,4.796937027213962,0.0,28300.0,3.375,487.5,429.54249080416946,0.0,0.0,3.1530758490000004,4.774352496035848,0.0,-61500.0,0.625,-450.0,-429.54249080416946,0.0,0.25,1.389160014,4.7913609576847485,0.0,0.1599999964237213,-0.3499999940395355,-81.93000030517578,-0.064208984375,0.0286865234375,1.14593505859375,35.970001220703125,0.0,-33.0,3.0296630859375,-1.531219482421875,Closing,0.0,0.0,3.0,0.0,0.0,0.0,0.0,0.0,
9.44441200000001,0.0,0.0,61399.0,0.375,427.5,427.0315920690178,0.0,0.25,0.6713866500000001,4.789599983969735,0.0,-62363.0,0.375,-427.5,-427.0315920690178,0.0,0.25,0.344238246,4.820207388559393,0.0,28376.0,3.375,450.0,427.0315920690178,0.0,0.0,3.18603483,4.797513297843942,0.0,-61569.0,0.625,-427.5,-427.0315920690178,0.0,0.25,1.4453123520000002,4.814604269028877,0.0,0.2800000011920929,-0.2800000011920929,-82.1500015258789,-0.04302978515625,0.030029296875,1.00152587890625,35.970001220703125,0.0,-29.0,3.0284576416015625,-1.5305938720703125,Closing,0.0,0.0,3.0,0.0,0.0,0.0,0.0,0.0,
9.581940000000003,0.0,0.0,61538.0,0.375,435.0,423.139578035428,0.0,0.25,0.668945244,4.836566187440436,0.0,-62430.0,0.375,-412.5,-423.139578035428,0.0,0.25,0.386962851,4.867473724315979,0.0,28449.0,3.125,465.0,423.139578035428,0.0,0.0,3.189696939,4.844557098256096,0.0,-61637.0,0.75,-412.5,-423.139578035428,0.0,0.25,1.5002439870000002,4.861815661313603,0.0,0.3499999940395355,-0.28999999165534973,-82.38999938964844,-0.005615234375,0.01800537109375,1.10943603515625,35.970001220703125,0.0,-11.0,3.0265350341796875,-1.5307769775390625,Closing,0.0,0.0,3.0,0.0,0.0,0.0,0.0,0.0,
9.710331999999996,0.0,0.0,61598.0,0.125,382.5,0.0,0.0,0.375,0.703124928,0.01,0.0,-62492.0,0.0,-375.0,-0.0,0.0,0.25,0.43457026800000004,0.01,0.0,28583.0,0.75,405.0,0.0,0.0,0.125,3.2678219310000003,0.01,0.0,-61699.0,0.375,-330.0,-0.0,0.0,0.25,1.563720543,0.01,0.0,0.3700000047683716,-0.5199999809265137,-82.29000091552734,-0.177001953125,0.09088134765625,1.00628662109375,35.93000030517578,0.0,-106.0,3.0262603759765625,-1.5318450927734375,Closing,0.0,0.0,3.0,0.0,0.0,0.0,0.0,0.0,
9.80284600000002,0.0,0.0,61649.0,0.125,337.5,420.0,0.0,0.375,0.782470623,0.01,0.0,-62547.0,0.25,-397.5,-420.0,0.0,0.25,0.47973627900000004,0.01,0.0,28637.0,3.25,345.0,420.0,0.0,0.0,3.3605953590000004,0.01,0.0,-61750.0,0.75,-382.5,-420.0,0.0,0.375,1.644286941,0.01,0.0,0.49000000953674316,-0.6899999976158142,-82.31999969482422,-0.0242919921875,0.00347900390625,0.9029541015625,35.93000030517578,0.0,2.0,3.023284912109375,-1.532928466796875,Closing,0.0,0.0,3.0,0.0,0.0,0.0,0.0,0.0,
9.932591000000015,0.0,0.0,61649.0,0.125,277.5,420.0,0.0,0.125,0.8679198330000001,0.01,-4.82238773,-62599.0,0.25,-315.0,-420.0,0.0,0.125,0.532226508,0.01,0.06225585299999992,28637.0,3.5,307.5,420.0,0.0,0.0,3.402099261,0.01,-4.843964463,-61803.0,0.625,-322.5,-420.0,0.0,0.25,1.6833494370000002,0.01,-4.873771493,0.49000000953674316,-0.6800000071525574,-82.16999816894531,-0.01519775390625,0.074462890625,1.06085205078125,35.93000030517578,0.0,-64.0,3.02020263671875,-1.532989501953125,Closing,0.0,0.0,3.0,0.0,0.0,0.0,0.0,0.0,
10.018636999999988,0.0,0.0,61697.0,0.0,315.0,420.0,0.0,0.25,0.8691405360000001,0.01,0.0,-62655.0,0.625,-352.5,-420.0,0.0,0.125,0.546874944,0.01,0.0,28687.0,4.0,330.0,420.0,0.0,0.125,3.388671528,0.01,0.0,-61861.0,0.75,-345.0,-420.0,0.0,0.25,1.7089842000000002,0.01,0.0,0.5099999904632568,-0.5799999833106995,-82.23999786376953,-0.0152587890625,-0.0205078125,1.01483154296875,35.93000030517578,0.0,33.0,3.016876220703125,-1.53253173828125,Closing,0.0,0.0,3.0,0.0,0.0,0.0,0.0,0.0,
10.132934000000008,0.0,0.0,61749.0,0.0,322.5,420.00000000000006,0.0,0.25,0.860595615,0.01,0.0,-62655.0,0.75,-330.0,-420.00000000000006,0.0,0.25,0.56152338,0.01,0.01342773300000033,28742.0,4.125,352.5,420.00000000000006,0.0,0.125,3.3801266070000002,0.01,-0.008544920999999928,-61861.0,1.25,-345.0,-420.00000000000006,0.0,0.25,1.6882322490000001,0.01,0.024414060000000015,0.44999998807907104,-0.5,-82.16999816894531,-0.00555419921875,0.023681640625,0.88873291015625,35.93000030517578,0.0,-16.0,3.016693115234375,-1.5318145751953125,Closing,0.0,0.0,3.0,0.0,0.0,0.0,0.0,0.0,
10.215410000000032,0.0,0.0,61802.0,0.0,315.0,420.0,0.0,0.25,0.8300780400000001,0.01,0.0,-62712.0,1.75,-285.0,-420.0,0.0,0.25,0.5944823610000001,0.01,0.0,28796.0,5.75,292.5,420.0,0.0,0.125,3.3789059040000002,0.01,0.0,-61915.0,2.0,-292.5,-420.0,0.0,0.25,1.6638181890000001,0.01,0.0,0.30000001192092896,-1.850000023841858,-81.95999908447266,-0.28814697265625,-0.025390625,1.003173828125,35.939998626708984,0.0,-5.0,3.016571044921875,-1.54071044921875,Closing,0.0,0.0,3.0,0.0,0.0,0.0,0.0,0.0,
10.337129000000015,0.0,0.0,61824.0,1.125,97.5,420.0,0.0,0.25,0.8410643670000001,0.01,-0.015869138999999977,-62734.0,5.625,-37.5,-420.0,0.0,0.25,0.5957030640000001,0.01,0.03417968399999971,28801.0,11.0,22.5,420.0,0.0,0.125,3.3789059040000002,0.01,-0.0012207029999999897,-61943.0,5.75,0.0,-420.0,0.0,0.25,1.6601560800000001,0.01,-0.023193357000000026,0.3700000047683716,-1.4700000286102295,-82.04000091552734,0.07366943359375,0.0419921875,1.09881591796875,35.939998626708984,0.0,-20.0,3.0166778564453125,-1.55621337890625,Closing,0.0,0.0,3.0,0.0,0.0,0.0,0.0,0.0,
10.43249099999998,0.0,0.0,61827.0,2.875,15.0,420.0,0.0,0.125,0.8435057730000001,0.01,-0.003662108999999969,-62739.0,8.75,-37.5,-420.0,0.0,0.25,0.589599549,0.01,-0.0024414059999999793,28801.0,17.0,0.0,420.0,0.0,0.125,3.3789059040000002,0.01,0.0012207029999999897,-61941.0,8.25,-15.0,-420.0,0.0,0.25,1.6589353770000002,0.01,0.0,0.3100000023841858,-1.3899999856948853,-81.88999938964844,-0.00341796875,-0.01422119140625,1.06829833984375,35.939998626708984,0.0,23.0,3.017120361328125,-1.565887451171875,Closing,0.0,0.0,3.0,0.0,0.0,0.0,0.0,0.0,
10.534331000000005,0.0,0.0,61827.0,4.0,7.5,420.0,0.0,0.125,0.8312987430000001,0.01,-0.00488281200000007,-62743.0,12.5,-30.0,-420.0,0.0,0.25,0.589599549,0.01,-0.003662108999999525,28801.0,20.125,0.0,420.0,0.0,0.125,3.3789059040000002,0.01,0.0,-61944.0,11.25,-7.5,-420.0,0.0,0.25,1.6601560800000001,0.01,0.0012207029999999897,0.33000001311302185,-1.340000033378601,-81.93000030517578,0.02008056640625,-0.02490234375,0.98291015625,35.939998626708984,0.0,36.0,3.017547607421875,-1.5658416748046875,Closing,0.0,0.0,3.0,0.0,0.0,0.0,0.0,0.0,
10.641281000000017,0.0,0.0,61829.0,6.25,7.5,420.0,0.0,0.125,0.833740149,0.01,0.0,-62751.0,15.625,-37.5,-420.0,0.0,0.25,0.589599549,0.01,0.0,28801.0,24.5,0.0,420.0,0.0,0.125,3.3789059040000002,0.01,0.0,-61948.0,17.125,-30.0,-420.0,0.0,0.25,1.6601560800000001,0.01,0.0,0.3100000023841858,-1.1399999856948853,-81.79000091552734,0.01617431640625,-0.01776123046875,1.0584716796875,35.939998626708984,0.0,28.0,3.017822265625,-1.5634002685546875,Closing,0.0,0.0,3.0,0.0,0.0,0.0,0.0,0.0,
10.746793000000006,0.0,0.0,61832.0,7.625,37.5,419.99999999999994,0.0,0.125,0.832519446,0.01,-0.0012207029999999897,-62751.0,13.625,-157.5,-419.99999999999994,0.0,0.25,0.59814447,0.01,0.0012207029999995456,28802.0,30.625,22.5,419.99999999999994,0.0,0.125,3.3801266070000002,0.01,0.0,-61956.0,20.5,-45.0,-419.99999999999994,0.0,0.25,1.6589353770000002,0.01,0.0,0.3199999928474426,-0.9800000190734863,-81.83999633789062,0.05596923828125,-0.00439453125,1.0443115234375,35.91999816894531,0.0,20.0,3.0184478759765625,-1.5595855712890625,Closing,0.0,0.0,3.0,0.0,0.0,0.0,0.0,0.0,
10.847020000000018,0.0,0.0,61842.0,8.875,82.5,420.0,0.0,0.125,0.8532713970000001,0.01,0.0,-62788.0,14.0,-225.0,-420.0,0.0,0.25,0.589599549,0.01,0.0,28811.0,28.625,75.0,420.0,0.0,0.125,3.3801266070000002,0.01,0.0,-61956.0,21.875,-90.0,-420.0,0.0,0.25,1.6625974860000001,0.01,0.0,0.2800000011920929,-0.7699999809265137,-81.73999786376953,-0.0648193359375,-0.02301025390625,0.8798828125,35.91999816894531,0.0,19.0,3.0190887451171875,-1.5521392822265625,Closing,0.0,0.0,3.0,0.0,0.0,0.0,0.0,0.0,
10.946575000000012,0.0,0.0,61858.0,11.375,82.5,420.0,0.0,0.125,0.832519446,0.01,0.0,-62832.0,13.5,-322.5,-420.0,0.0,0.25,0.589599549,0.01,0.0,28828.0,32.625,97.5,420.0,0.0,0.125,3.3789059040000002,0.01,0.0,-61973.0,25.375,-97.5,-420.0,0.0,0.25,1.646728347,0.01,0.0,0.2800000011920929,-0.8899999856948853,-81.6500015258789,-0.061279296875,0.03228759765625,1.10223388671875,35.91999816894531,0.0,-32.0,3.01971435546875,-1.5450439453125,Closing,0.0,0.0,3.0,0.0,0.0,0.0,0.0,0.0,
11.047868000000017,0.0,0.0,61867.0,14.5,45.0,420.00000000000006,0.0,0.125,0.834960852,0.010412559156735739,0.0,-62870.0,17.125,-187.5,-420.00000000000006,0.0,0.25,0.590820252,0.010479099454879761,0.0,28836.0,36.25,45.0,420.00000000000006,0.0,0.125,3.3801266070000002,0.010429762649536134,0.0,-61987.0,30.25,-60.0,-420.00000000000006,0.0,0.25,1.6601560800000001,0.010466918309529623,0.0,0.20999999344348907,-1.0299999713897705,-81.55999755859375,-0.063720703125,-0.07403564453125,1.0533447265625,35.91999816894531,0.0,70.0,3.019989013671875,-1.5396575927734375,Closing,0.0,0.0,3.0,0.0,0.0,0.0,0.0,0.0,
11.149937000000035,0.0,0.0,61869.0,18.625,7.5,420.0,0.0,0.125,0.820312416,0.011645676261308456,0.0,-62929.0,13.75,-412.5,-420.0,0.0,0.25,0.589599549,0.011720096656799316,0.0,28837.0,42.375,0.0,420.0,0.0,0.125,3.3801266070000002,0.01166491709391276,0.0,-61992.0,37.875,-7.5,-420.0,0.0,0.25,1.6638181890000001,0.01170647294786241,0.0,0.17000000178813934,-0.7599999904632568,-81.5199966430664,0.363037109375,0.0224609375,1.11236572265625,35.91999816894531,0.0,36.0,3.0209808349609375,-1.534088134765625,Closing,0.0,0.0,3.0,0.0,0.0,0.0,0.0,0.0,
11.26652799999999,0.0,0.0,61935.0,13.75,285.0,420.0,0.0,0.125,0.8312987430000001,0.01191964421342214,0.0,-62983.0,12.5,-390.0,-420.0,0.0,0.25,0.589599549,0.011995815370559692,0.0,28870.0,39.625,135.0,420.0,0.0,0.125,3.3740230920000003,0.011939337692260743,0.0,-62023.0,29.625,-285.0,-420.0,0.0,0.25,1.6638181890000001,0.01198187115987142,0.0,0.14000000059604645,1.2200000286102295,-81.7699966430664,0.18682861328125,-0.03057861328125,0.42181396484375,35.939998626708984,0.0,56.0,3.025390625,-1.508819580078125,Closing,0.0,0.0,3.0,0.0,0.0,0.0,0.0,0.0,
11.367911000000023,0.0,0.0,61935.0,0.5,630.0,420.0,0.0,0.125,0.8276366340000001,0.01,0.0,-63083.0,1.75,-615.0,-420.0,0.0,0.0,0.576171816,0.01,0.0,28870.0,0.625,270.0,420.0,0.0,0.0,3.397216449,0.01,0.0,-62113.0,0.125,-577.5,-420.0,0.0,0.125,1.6357420200000001,0.01,0.0,0.11999999731779099,1.2999999523162842,-81.7699966430664,-0.14031982421875,-0.17041015625,0.97845458984375,35.939998626708984,0.0,147.0,3.031402587890625,-1.4639739990234375,Closing,0.0,0.0,3.0,0.0,0.0,0.0,0.0,0.0,
