Time,ClimberA1,ClimberA2,FRpos,FRCurrent,FRspeed,FRsetpoint,FRApos,FRACurrent,FREncpos,FREncSetpoint,FREncSpeed,FLpos,FLCurrent,FLspeed,FLsetpoint,FLApos,FLACurrent,FLEncpos,FLEncSetpoint,FLEncSpeed,BRpos,BRCurrent,BRspeed,BRsetpoint,BRApos,BRACurrent,BREncpos,BREncSetpoint,BREncSpeed,BLpos,BLCurrent,BLspeed,BLsetpoint,BLApos,BLACurrent,BLEncpos,BLEncSetpoint,BLEncSpeed,navx_Pitch,navx_Roll,navx_Yaw,navx_XAcc,navx_YAcc,navx_ZAcc,navx_Temp,navx_Bar,navx_Alt,navx_XDis,navx_YDis,GearPlacerState,ShootOutputV,ShootOutputCurrent,ShootEncPos,ShootEncVelocity,ShootSpeed,ShootSetpoint,CarouselSetpoint,CarouselCurrent,
0.6312009999999991,0.0,0.0,87065.0,0.0,0.0,0.0,0.0,0.25,0.8020018710000001,0.01,0.0,-156529.0,0.0,0.0,0.0,0.0,0.125,0.49316401200000004,0.01,0.0,13264.0,0.0,0.0,0.0,0.0,0.125,3.387450825,0.01,0.0,-31396.0,0.125,0.0,0.0,0.0,0.5,1.6857908430000001,0.01,0.0,0.46000000834465027,-0.7699999809265137,-107.05000305175781,-0.01495361328125,0.00872802734375,1.0257568359375,36.79999923706055,0.0,0.0,1.700775146484375,-1.818817138671875,Waiting,0.0,0.0,3.0,0.0,0.0,0.0,0.0,0.125,
0.7668639999999995,0.0,0.0,87065.0,0.0,0.0,420.0,0.0,0.25,0.8032225740000001,0.01,0.0,-156529.0,0.125,0.0,-420.0,0.0,0.125,0.484619091,0.01,0.0,13264.0,0.375,0.0,420.0,0.0,0.125,3.387450825,0.01,0.0012207029999999897,-31396.0,0.375,0.0,-420.0,0.0,0.25,1.6857908430000001,0.01,0.0,0.46000000834465027,-0.7599999904632568,-107.05000305175781,0.0015869140625,0.00555419921875,1.0220947265625,36.810001373291016,0.0,-12.0,1.700775146484375,-1.81878662109375,Waiting,0.0,0.0,3.0,0.0,0.0,0.0,0.0,0.0,
0.8540349999999999,0.0,0.0,87066.0,0.5,7.5,NaN,0.0,0.125,0.8032225740000001,NaN,0.0,-156529.0,0.875,-7.5,NaN,0.0,0.125,0.49316401200000004,NaN,0.0,13264.0,0.75,0.0,NaN,0.0,0.125,3.386230122,NaN,0.0,-31396.0,0.5,0.0,NaN,0.0,0.25,1.6857908430000001,NaN,0.0012207029999999897,0.4699999988079071,-0.7200000286102295,-107.05999755859375,-0.0091552734375,0.0166015625,1.0211181640625,36.810001373291016,0.0,-8.0,1.700775146484375,-1.8185577392578125,Waiting,0.0,0.0,3.0,0.0,0.0,0.0,0.0,0.0,
0.8859419999999991,0.0,0.0,87066.0,0.375,7.5,NaN,0.0,0.125,0.8032225740000001,NaN,0.0,-156531.0,0.5,-7.5,NaN,0.0,0.0,0.49316401200000004,NaN,-0.0012207030000004337,13264.0,0.625,7.5,NaN,0.0,0.0,3.387450825,NaN,0.0,-31396.0,0.375,0.0,NaN,0.0,0.25,1.6870115460000001,NaN,0.0012207029999999897,0.46000000834465027,-0.7200000286102295,-107.06999969482422,-0.0369873046875,-0.0069580078125,0.99468994140625,36.810001373291016,0.0,21.0,1.7008056640625,-1.8184051513671875,Waiting,0.0,0.0,3.0,0.0,0.0,0.0,0.0,0.0,
0.9320020000000004,0.0,0.0,87066.0,0.125,7.5,NaN,0.0,0.25,0.8020018710000001,NaN,0.0012207029999995456,-156531.0,0.0,-7.5,NaN,0.0,0.0,0.49926752700000004,NaN,0.0,13265.0,0.25,0.0,NaN,0.0,0.0,3.387450825,NaN,0.0,-31396.0,0.375,0.0,NaN,0.0,0.125,1.694335764,NaN,0.0,0.46000000834465027,-0.7699999809265137,-107.05000305175781,-0.02972412109375,0.0078125,1.01544189453125,36.810001373291016,0.0,5.0,1.700958251953125,-1.818389892578125,Waiting,0.0,0.0,3.0,0.0,0.0,0.0,0.0,0.0,
0.953503999999999,0.0,0.0,87067.0,0.125,7.5,NaN,0.0,0.25,0.8032225740000001,NaN,0.0012207029999995456,-156531.0,0.0,0.0,NaN,0.0,0.0,0.49316401200000004,NaN,0.0012207030000004337,13265.0,0.25,0.0,NaN,0.0,0.0,3.387450825,NaN,-0.0012207029999999897,-31396.0,0.375,0.0,NaN,0.0,0.125,1.6857908430000001,NaN,-0.0012207029999999897,0.47999998927116394,-0.7699999809265137,-107.05999755859375,-6.103515625E-4,0.0054931640625,1.0430908203125,36.810001373291016,0.0,0.0,1.7010345458984375,-1.8183135986328125,Waiting,0.0,0.0,3.0,0.0,0.0,0.0,0.0,0.0,
1.0320560000000005,0.0,0.0,87067.0,0.125,0.0,NaN,0.0,0.25,0.8032225740000001,NaN,0.0,-156531.0,0.0,0.0,NaN,0.0,0.0,0.49316401200000004,NaN,0.0,13265.0,0.25,0.0,NaN,0.0,0.0,3.387450825,NaN,0.0,-31396.0,0.375,0.0,NaN,0.0,0.125,1.6857908430000001,NaN,0.0,0.46000000834465027,-0.75,-107.05999755859375,-0.01043701171875,0.00506591796875,1.0052490234375,36.810001373291016,0.0,2.0,1.7010345458984375,-1.8183135986328125,Waiting,0.0,0.0,3.0,0.0,0.0,0.0,0.0,0.0,
1.0627430000000004,0.0,0.0,87067.0,0.125,0.0,NaN,0.0,0.25,0.8032225740000001,NaN,0.0,-156531.0,0.0,0.0,NaN,0.0,0.0,0.49438471500000003,NaN,-0.0012207030000004337,13265.0,0.25,0.0,NaN,0.0,0.0,3.388671528,NaN,0.0012207029999999897,-31396.0,0.375,0.0,NaN,0.0,0.125,1.6857908430000001,NaN,0.0012207029999999897,0.46000000834465027,-0.7599999904632568,-107.05000305175781,-0.0201416015625,0.0086669921875,1.02850341796875,36.810001373291016,0.0,1.0,1.7010345458984375,-1.8183135986328125,Waiting,0.0,0.0,3.0,0.0,0.0,0.0,0.0,0.0,
1.0913220000000001,0.0,0.0,87067.0,0.125,0.0,NaN,0.0,0.125,0.8032225740000001,NaN,0.0,-156531.0,0.0,0.0,NaN,0.0,0.0,0.49438471500000003,NaN,-0.0012207030000004337,13265.0,0.25,0.0,NaN,0.0,0.0,3.395995746,NaN,0.0012207029999999897,-31396.0,0.375,0.0,NaN,0.0,0.125,1.6857908430000001,NaN,0.0012207029999999897,0.4699999988079071,-0.7699999809265137,-107.05000305175781,-0.024169921875,0.0152587890625,1.0242919921875,36.810001373291016,0.0,-3.0,1.7010345458984375,-1.8183135986328125,Waiting,0.0,0.0,3.0,0.0,0.0,0.0,0.0,0.0,
1.1243439999999991,0.0,0.0,87067.0,0.125,0.0,NaN,0.0,0.125,0.820312416,NaN,0.0,-156531.0,0.0,0.0,NaN,0.0,0.0,0.507812448,NaN,0.0,13265.0,0.25,0.0,NaN,0.0,0.0,3.389892231,NaN,0.0,-31396.0,0.375,0.0,NaN,0.0,0.125,1.6857908430000001,NaN,-0.0012207029999999897,0.4699999988079071,-0.7699999809265137,-107.05999755859375,-0.0155029296875,0.01025390625,1.01385498046875,36.810001373291016,0.0,-1.0,1.7010345458984375,-1.8183135986328125,Waiting,0.0,0.0,3.0,0.0,0.0,0.0,0.0,0.0,
1.149084999999999,0.0,0.0,87067.0,0.125,0.0,NaN,0.0,0.25,0.8020018710000001,NaN,0.0,-156531.0,0.0,0.0,NaN,0.0,0.0,0.49316401200000004,NaN,0.0,13265.0,0.25,0.0,NaN,0.0,0.0,3.388671528,NaN,0.0,-31396.0,0.375,0.0,NaN,0.0,0.125,1.6857908430000001,NaN,-0.0012207029999999897,0.4699999988079071,-0.7799999713897705,-107.05999755859375,-0.00811767578125,0.00347900390625,1.02581787109375,36.810001373291016,0.0,3.0,1.7010345458984375,-1.8183135986328125,Waiting,0.0,0.0,3.0,0.0,0.0,0.0,0.0,0.0,
1.1931659999999993,0.0,0.0,87067.0,0.125,0.0,NaN,0.0,0.25,0.8032225740000001,NaN,0.0012207029999995456,-156531.0,0.0,0.0,NaN,0.0,0.0,0.49316401200000004,NaN,0.0012207030000004337,13265.0,0.25,0.0,NaN,0.0,0.0,3.387450825,NaN,0.0,-31396.0,0.375,0.0,NaN,0.0,0.125,1.6882322490000001,NaN,0.0,0.46000000834465027,-0.7599999904632568,-107.05000305175781,-0.0128173828125,0.008544921875,1.02447509765625,36.810001373291016,0.0,0.0,1.7010345458984375,-1.8183135986328125,Waiting,0.0,0.0,3.0,0.0,0.0,0.0,0.0,0.0,
1.2143459999999995,0.0,0.0,87067.0,0.125,0.0,NaN,0.0,0.25,0.8032225740000001,NaN,0.0,-156531.0,0.0,0.0,NaN,0.0,0.0,0.49316401200000004,NaN,0.0,13265.0,0.25,0.0,NaN,0.0,0.0,3.386230122,NaN,0.0,-31396.0,0.375,0.0,NaN,0.0,0.125,1.6857908430000001,NaN,0.0,0.46000000834465027,-0.7599999904632568,-107.05000305175781,-0.01910400390625,0.0135498046875,1.02032470703125,36.810001373291016,0.0,-1.0,1.7010345458984375,-1.8183135986328125,Waiting,0.0,0.0,3.0,0.0,0.0,0.0,0.0,0.0,
1.2491279999999987,0.0,0.0,87067.0,0.125,0.0,NaN,0.0,0.25,0.8032225740000001,NaN,0.0,-156531.0,0.0,0.0,NaN,0.0,0.0,0.49316401200000004,NaN,0.0,13265.0,0.25,0.0,NaN,0.0,0.0,3.386230122,NaN,0.0,-31396.0,0.375,0.0,NaN,0.0,0.125,1.6857908430000001,NaN,0.0,0.4699999988079071,-0.7599999904632568,-107.05999755859375,-0.02117919921875,0.00787353515625,1.0244140625,36.810001373291016,0.0,2.0,1.7010345458984375,-1.8183135986328125,Waiting,0.0,0.0,3.0,0.0,0.0,0.0,0.0,0.0,
1.2840339999999997,0.0,0.0,87067.0,0.125,0.0,NaN,0.0,0.25,0.8032225740000001,NaN,0.0,-156531.0,0.0,0.0,NaN,0.0,0.0,0.49316401200000004,NaN,0.0,13265.0,0.25,0.0,NaN,0.0,0.0,3.387450825,NaN,-0.0012207029999999897,-31396.0,0.375,0.0,NaN,0.0,0.125,1.6857908430000001,NaN,0.0012207029999999897,0.46000000834465027,-0.7699999809265137,-107.05999755859375,-0.0145263671875,0.0013427734375,1.00958251953125,36.810001373291016,0.0,6.0,1.7010345458984375,-1.8183135986328125,Waiting,0.0,0.0,3.0,0.0,0.0,0.0,0.0,0.0,
1.3305659999999988,0.0,0.0,87067.0,0.125,0.0,NaN,0.0,0.25,0.8020018710000001,NaN,-0.0012207029999995456,-156531.0,0.0,0.0,NaN,0.0,0.0,0.49316401200000004,NaN,0.0,13265.0,0.25,0.0,NaN,0.0,0.0,3.388671528,NaN,0.0,-31396.0,0.375,0.0,NaN,0.0,0.125,1.6870115460000001,NaN,-0.0012207029999999897,0.46000000834465027,-0.7699999809265137,-107.05999755859375,-0.00341796875,0.01043701171875,1.01495361328125,36.81999969482422,0.0,-5.0,1.7010345458984375,-1.8183135986328125,Waiting,0.0,0.0,3.0,0.0,0.0,0.0,0.0,0.0,
1.3525959999999995,0.0,0.0,87067.0,0.125,0.0,NaN,0.0,0.25,0.8020018710000001,NaN,-0.0012207029999995456,-156531.0,0.0,0.0,NaN,0.0,0.0,0.49316401200000004,NaN,0.0,13265.0,0.25,0.0,NaN,0.0,0.0,3.386230122,NaN,0.0,-31396.0,0.375,0.0,NaN,0.0,0.125,1.6857908430000001,NaN,-0.0012207029999999897,0.46000000834465027,-0.7699999809265137,-107.05999755859375,-0.01153564453125,0.01123046875,1.02227783203125,36.81999969482422,0.0,-3.0,1.7010345458984375,-1.8183135986328125,Waiting,0.0,0.0,3.0,0.0,0.0,0.0,0.0,0.0,
1.4000329999999994,0.0,0.0,87067.0,0.125,0.0,NaN,0.0,0.25,0.8032225740000001,NaN,0.0012207029999995456,-156531.0,0.0,0.0,NaN,0.0,0.0,0.495605418,NaN,0.0,13265.0,0.25,0.0,NaN,0.0,0.0,3.387450825,NaN,0.0012207029999999897,-31396.0,0.375,0.0,NaN,0.0,0.125,1.6857908430000001,NaN,0.0012207029999999897,0.4699999988079071,-0.7599999904632568,-107.05999755859375,-0.01654052734375,0.003662109375,1.0157470703125,36.81999969482422,0.0,5.0,1.7010345458984375,-1.8183135986328125,Waiting,0.0,0.0,3.0,0.0,0.0,0.0,0.0,0.0,
1.4269220000000005,0.0,0.0,87067.0,0.125,0.0,NaN,0.0,0.25,0.8032225740000001,NaN,-0.0012207029999995456,-156531.0,0.0,0.0,NaN,0.0,0.0,0.49316401200000004,NaN,0.0,13265.0,0.25,0.0,NaN,0.0,0.0,3.387450825,NaN,0.0,-31396.0,0.375,0.0,NaN,0.0,0.125,1.6857908430000001,NaN,-0.0012207029999999897,0.4699999988079071,-0.7699999809265137,-107.05999755859375,-0.0140380859375,0.00665283203125,1.0186767578125,36.81999969482422,0.0,1.0,1.7010345458984375,-1.8183135986328125,Waiting,0.0,0.0,3.0,0.0,0.0,0.0,0.0,0.0,
1.4894750000000003,0.0,0.0,87067.0,0.125,0.0,NaN,0.0,0.25,0.8032225740000001,NaN,0.0,-156531.0,0.0,0.0,NaN,0.0,0.0,0.49316401200000004,NaN,0.0,13265.0,0.25,0.0,NaN,0.0,0.0,3.386230122,NaN,0.0,-31396.0,0.375,0.0,NaN,0.0,0.125,1.6845701400000002,NaN,0.0,0.4699999988079071,-0.7599999904632568,-107.05999755859375,-0.01190185546875,0.01031494140625,1.02056884765625,36.81999969482422,0.0,-2.0,1.7010345458984375,-1.8183135986328125,Waiting,0.0,0.0,3.0,0.0,0.0,0.0,0.0,0.0,
1.530726999999999,0.0,0.0,87067.0,0.125,0.0,NaN,0.0,0.25,0.8020018710000001,NaN,-0.0012207030000004337,-156531.0,0.0,0.0,NaN,0.0,0.0,0.4882812,NaN,0.0,13265.0,0.25,0.0,NaN,0.0,0.0,3.387450825,NaN,-0.0012207029999999897,-31396.0,0.375,0.0,NaN,0.0,0.125,1.6845701400000002,NaN,0.0,0.4699999988079071,-0.7599999904632568,-107.05999755859375,-0.016357421875,0.0048828125,1.01336669921875,36.81999969482422,0.0,4.0,1.7010345458984375,-1.8183135986328125,Waiting,0.0,0.0,3.0,0.0,0.0,0.0,0.0,0.0,
1.5589869999999992,0.0,0.0,87067.0,0.125,0.0,NaN,0.0,0.25,0.8032225740000001,NaN,0.0024414059999999793,-156531.0,0.0,0.0,NaN,0.0,0.0,0.496826121,NaN,0.0,13265.0,0.25,0.0,NaN,0.0,0.0,3.388671528,NaN,0.0,-31396.0,0.375,0.0,NaN,0.0,0.125,1.6845701400000002,NaN,0.0024414059999999793,0.4699999988079071,-0.7699999809265137,-107.05000305175781,-0.01361083984375,0.0101318359375,1.01129150390625,36.81999969482422,0.0,-1.0,1.7010345458984375,-1.8183135986328125,Waiting,0.0,0.0,3.0,0.0,0.0,0.0,0.0,0.0,
1.6039339999999993,0.0,0.0,87067.0,0.125,0.0,NaN,0.0,0.25,0.8032225740000001,NaN,0.0024414059999999793,-156531.0,0.0,0.0,NaN,0.0,0.0,0.49438471500000003,NaN,0.0,13265.0,0.25,0.0,NaN,0.0,0.0,3.387450825,NaN,0.0,-31396.0,0.375,0.0,NaN,0.0,0.125,1.6857908430000001,NaN,0.0024414059999999793,0.4699999988079071,-0.7699999809265137,-107.05000305175781,-0.013427734375,0.01043701171875,1.0211181640625,36.81999969482422,0.0,-2.0,1.7010345458984375,-1.8183135986328125,Waiting,0.0,0.0,3.0,0.0,0.0,0.0,0.0,0.0,
1.6280049999999993,0.0,0.0,87067.0,0.125,0.0,NaN,0.0,0.25,0.8020018710000001,NaN,-0.0012207029999995456,-156531.0,0.0,0.0,NaN,0.0,0.0,0.49316401200000004,NaN,-0.0012207030000004337,13265.0,0.25,0.0,NaN,0.0,0.0,3.387450825,NaN,0.0012207029999999897,-31396.0,0.375,0.0,NaN,0.0,0.125,1.6857908430000001,NaN,-0.0012207029999999897,0.4699999988079071,-0.7699999809265137,-107.05000305175781,-0.01129150390625,0.00885009765625,1.02008056640625,36.81999969482422,0.0,-1.0,1.7010345458984375,-1.8183135986328125,Waiting,0.0,0.0,3.0,0.0,0.0,0.0,0.0,0.0,
1.6783959999999989,0.0,0.0,87067.0,0.125,0.0,NaN,0.0,0.25,0.8032225740000001,NaN,0.0,-156531.0,0.0,0.0,NaN,0.0,0.0,0.49316401200000004,NaN,0.0,13265.0,0.25,0.0,NaN,0.0,0.0,3.386230122,NaN,-0.0012207029999999897,-31396.0,0.375,0.0,NaN,0.0,0.125,1.6857908430000001,NaN,0.0,0.46000000834465027,-0.7699999809265137,-107.05000305175781,-0.017333984375,0.00518798828125,1.0201416015625,36.81999969482422,0.0,4.0,1.7010345458984375,-1.8183135986328125,Waiting,0.0,0.0,3.0,0.0,0.0,0.0,0.0,0.0,
1.7276800000000003,0.0,0.0,87067.0,0.125,0.0,NaN,0.0,0.25,0.806884683,NaN,0.0012207029999995456,-156531.0,0.0,0.0,NaN,0.0,0.0,0.496826121,NaN,0.0012207030000004337,13265.0,0.25,0.0,NaN,0.0,0.0,3.387450825,NaN,0.0012207029999999897,-31396.0,0.375,0.0,NaN,0.0,0.125,1.6857908430000001,NaN,0.0,0.46000000834465027,-0.7799999713897705,-107.05000305175781,-0.0115966796875,0.0123291015625,1.01055908203125,36.81999969482422,0.0,-4.0,1.7010345458984375,-1.8183135986328125,Waiting,0.0,0.0,3.0,0.0,0.0,0.0,0.0,0.0,
1.7609609999999993,0.0,0.0,87067.0,0.125,0.0,NaN,0.0,0.25,0.8032225740000001,NaN,0.0,-156531.0,0.0,0.0,NaN,0.0,0.0,0.490722606,NaN,0.0,13265.0,0.25,0.0,NaN,0.0,0.0,3.388671528,NaN,0.0,-31396.0,0.375,0.0,NaN,0.0,0.125,1.6845701400000002,NaN,-0.0012207029999999897,0.46000000834465027,-0.7699999809265137,-107.05000305175781,-0.01202392578125,0.0029296875,1.02142333984375,36.81999969482422,0.0,4.0,1.7010345458984375,-1.8183135986328125,Waiting,0.0,0.0,3.0,0.0,0.0,0.0,0.0,0.125,
1.8164449999999996,0.0,0.0,87067.0,0.125,0.0,NaN,0.0,0.25,0.8032225740000001,NaN,-0.0012207029999995456,-156531.0,0.0,0.0,NaN,0.0,0.0,0.49316401200000004,NaN,0.0,13265.0,0.25,0.0,NaN,0.0,0.0,3.387450825,NaN,-0.0012207029999999897,-31396.0,0.375,0.0,NaN,0.0,0.125,1.6857908430000001,NaN,0.0,0.46000000834465027,-0.7699999809265137,-107.05000305175781,-0.01531982421875,0.00885009765625,1.01904296875,36.77000045776367,0.0,0.0,1.7010345458984375,-1.8183135986328125,Waiting,0.0,0.0,3.0,0.0,0.0,0.0,0.0,0.0,
1.865530999999999,0.0,0.0,87067.0,0.125,0.0,NaN,0.0,0.25,0.8020018710000001,NaN,-0.0012207029999995456,-156531.0,0.0,0.0,NaN,0.0,0.0,0.49316401200000004,NaN,0.0,13265.0,0.25,0.0,NaN,0.0,0.0,3.387450825,NaN,0.0012207029999999897,-31396.0,0.375,0.0,NaN,0.0,0.125,1.6857908430000001,NaN,0.0,0.4699999988079071,-0.7699999809265137,-107.05000305175781,-0.01385498046875,0.010986328125,1.01763916015625,36.77000045776367,0.0,-2.0,1.7010345458984375,-1.8183135986328125,Waiting,0.0,0.0,3.0,0.0,0.0,0.0,0.0,0.0,
1.8874009999999999,0.0,0.0,87067.0,0.125,0.0,NaN,0.0,0.25,0.8032225740000001,NaN,0.0012207029999995456,-156531.0,0.0,0.0,NaN,0.0,0.0,0.49438471500000003,NaN,-0.0012207030000004337,13265.0,0.25,0.0,NaN,0.0,0.0,3.388671528,NaN,0.0012207029999999897,-31396.0,0.375,0.0,NaN,0.0,0.125,1.6857908430000001,NaN,0.0,0.4699999988079071,-0.7699999809265137,-107.05000305175781,-0.01092529296875,0.00927734375,1.01953125,36.77000045776367,0.0,0.0,1.7010345458984375,-1.8183135986328125,Waiting,0.0,0.0,3.0,0.0,0.0,0.0,0.0,0.0,
1.9316360000000004,0.0,0.0,87067.0,0.125,0.0,NaN,0.0,0.25,0.8020018710000001,NaN,-0.0012207029999995456,-156531.0,0.0,0.0,NaN,0.0,0.0,0.49316401200000004,NaN,0.0012207030000004337,13265.0,0.25,0.0,NaN,0.0,0.0,3.387450825,NaN,0.0,-31396.0,0.375,0.0,NaN,0.0,0.125,1.6857908430000001,NaN,0.0,0.46000000834465027,-0.7799999713897705,-107.05000305175781,-0.01409912109375,0.01080322265625,1.02227783203125,36.77000045776367,0.0,-2.0,1.7010345458984375,-1.8183135986328125,Waiting,0.0,0.0,3.0,0.0,0.0,0.0,0.0,0.0,
1.9498199999999997,0.0,0.0,87067.0,0.125,0.0,NaN,0.0,0.25,0.8020018710000001,NaN,-0.0012207029999995456,-156531.0,0.0,0.0,NaN,0.0,0.0,0.49438471500000003,NaN,0.0012207030000004337,13265.0,0.25,0.0,NaN,0.0,0.0,3.387450825,NaN,0.0,-31396.0,0.375,0.0,NaN,0.0,0.125,1.694335764,NaN,0.0,0.46000000834465027,-0.7799999713897705,-107.05000305175781,-0.011474609375,0.00909423828125,1.01837158203125,36.77000045776367,0.0,-1.0,1.7010345458984375,-1.8183135986328125,Waiting,0.0,0.0,3.0,0.0,0.0,0.0,0.0,0.125,
1.9934220000000005,0.0,0.0,87067.0,0.125,0.0,NaN,0.0,0.25,0.8312987430000001,NaN,0.0,-156531.0,0.0,0.0,NaN,0.0,0.0,0.505371042,NaN,-0.0012207030000004337,13265.0,0.25,0.0,NaN,0.0,0.0,3.386230122,NaN,0.0,-31396.0,0.375,0.0,NaN,0.0,0.125,1.6857908430000001,NaN,0.0012207029999999897,0.46000000834465027,-0.7799999713897705,-107.05000305175781,-0.01416015625,0.0093994140625,1.0201416015625,36.77000045776367,0.0,0.0,1.7010345458984375,-1.8183135986328125,Waiting,0.0,0.0,3.0,0.0,0.0,0.0,0.0,0.125,
2.0121059999999997,0.0,0.0,87067.0,0.125,0.0,NaN,0.0,0.25,0.809326089,NaN,0.0,-156531.0,0.0,0.0,NaN,0.0,0.0,0.49316401200000004,NaN,-0.0012207030000004337,13265.0,0.25,0.0,NaN,0.0,0.0,3.387450825,NaN,0.0,-31396.0,0.375,0.0,NaN,0.0,0.125,1.6894529520000001,NaN,0.0,0.46000000834465027,-0.7799999713897705,-107.05000305175781,-0.0137939453125,0.00738525390625,1.01910400390625,36.77000045776367,0.0,0.0,1.7010345458984375,-1.8183135986328125,Waiting,0.0,0.0,3.0,0.0,0.0,0.0,0.0,0.125,
2.0524899999999997,0.0,0.0,87067.0,0.125,0.0,NaN,0.0,0.25,0.8032225740000001,NaN,-0.0012207030000004337,-156531.0,0.0,0.0,NaN,0.0,0.0,0.49438471500000003,NaN,0.0012207030000004337,13265.0,0.25,0.0,NaN,0.0,0.0,3.388671528,NaN,-0.0012207029999999897,-31396.0,0.375,0.0,NaN,0.0,0.125,1.6857908430000001,NaN,0.0,0.46000000834465027,-0.7799999713897705,-107.05000305175781,-0.01361083984375,0.00616455078125,1.01324462890625,36.77000045776367,0.0,1.0,1.7010345458984375,-1.8183135986328125,Waiting,0.0,0.0,3.0,0.0,0.0,0.0,0.0,0.0,
2.0800139999999994,0.0,0.0,87067.0,0.125,0.0,NaN,0.0,0.25,0.8032225740000001,NaN,0.0012207030000004337,-156531.0,0.0,0.0,NaN,0.0,0.0,0.498046824,NaN,0.0,13265.0,0.25,0.0,NaN,0.0,0.0,3.386230122,NaN,0.0012207029999999897,-31396.0,0.375,0.0,NaN,0.0,0.125,1.6857908430000001,NaN,0.0,0.46000000834465027,-0.7799999713897705,-107.05000305175781,-0.01226806640625,0.011962890625,1.015625,36.77000045776367,0.0,-3.0,1.7010345458984375,-1.8183135986328125,Waiting,0.0,0.0,3.0,0.0,0.0,0.0,0.0,0.0,
2.1021090000000004,0.0,0.0,87067.0,0.125,0.0,NaN,0.0,0.25,0.8032225740000001,NaN,0.0012207030000004337,-156531.0,0.0,0.0,NaN,0.0,0.0,0.49316401200000004,NaN,0.0,13265.0,0.25,0.0,NaN,0.0,0.0,3.388671528,NaN,0.0012207029999999897,-31396.0,0.375,0.0,NaN,0.0,0.125,1.6857908430000001,NaN,0.0,0.46000000834465027,-0.7799999713897705,-107.05000305175781,-0.013671875,0.01226806640625,1.0224609375,36.77000045776367,0.0,-3.0,1.7010345458984375,-1.8183135986328125,Waiting,0.0,0.0,3.0,0.0,0.0,0.0,0.0,0.125,
2.130395999999999,0.0,0.0,87067.0,0.125,0.0,NaN,0.0,0.125,0.8032225740000001,NaN,0.0,-156531.0,0.0,0.0,NaN,0.0,0.0,0.49316401200000004,NaN,0.0,13265.0,0.25,0.0,NaN,0.0,0.0,3.387450825,NaN,0.0,-31396.0,0.375,0.0,NaN,0.0,0.125,1.690673655,NaN,-0.0012207029999999897,0.46000000834465027,-0.7799999713897705,-107.04000091552734,-0.01361083984375,0.00701904296875,1.02093505859375,36.77000045776367,0.0,1.0,1.7010345458984375,-1.8183135986328125,Waiting,0.0,0.0,3.0,0.0,0.0,0.0,0.0,0.125,
2.1517749999999998,0.0,0.0,87067.0,0.125,0.0,NaN,0.0,0.125,0.8032225740000001,NaN,0.0,-156531.0,0.0,0.0,NaN,0.0,0.0,0.49438471500000003,NaN,0.0,13265.0,0.25,0.0,NaN,0.0,0.0,3.387450825,NaN,0.0,-31396.0,0.375,0.0,NaN,0.0,0.125,1.6857908430000001,NaN,-0.0012207029999999897,0.46000000834465027,-0.7799999713897705,-107.04000091552734,-0.01629638671875,0.007568359375,1.02239990234375,36.77000045776367,0.0,1.0,1.7010345458984375,-1.8183135986328125,Waiting,0.0,0.0,3.0,0.0,0.0,0.0,0.0,0.0,
2.171267,0.0,0.0,87067.0,0.125,0.0,NaN,0.0,0.125,0.8032225740000001,NaN,0.0012207029999995456,-156531.0,0.0,0.0,NaN,0.0,0.0,0.49438471500000003,NaN,-0.0012207030000004337,13265.0,0.25,0.0,NaN,0.0,0.0,3.387450825,NaN,0.0,-31396.0,0.375,0.0,NaN,0.0,0.125,1.6857908430000001,NaN,0.0012207029999999897,0.46000000834465027,-0.7799999713897705,-107.04000091552734,-0.01580810546875,0.0089111328125,1.0142822265625,36.77000045776367,0.0,0.0,1.7010345458984375,-1.8183135986328125,Waiting,0.0,0.0,3.0,0.0,0.0,0.0,0.0,0.0,
2.207895999999999,0.0,0.0,87067.0,0.125,0.0,NaN,0.0,0.25,0.8032225740000001,NaN,0.0012207029999995456,-156531.0,0.0,0.0,NaN,0.0,0.0,0.49194330900000005,NaN,-0.0012207030000004337,13265.0,0.25,0.0,NaN,0.0,0.0,3.387450825,NaN,0.0,-31396.0,0.375,0.0,NaN,0.0,0.125,1.6857908430000001,NaN,0.0012207029999999897,0.46000000834465027,-0.7799999713897705,-107.04000091552734,-0.012451171875,0.0078125,1.01947021484375,36.77000045776367,0.0,0.0,1.7010345458984375,-1.8183135986328125,Waiting,0.0,0.0,3.0,0.0,0.0,0.0,0.0,0.0,
2.230618,0.0,0.0,87067.0,0.125,0.0,NaN,0.0,0.25,0.809326089,NaN,-0.0012207029999995456,-156531.0,0.0,0.0,NaN,0.0,0.0,0.49316401200000004,NaN,0.0012207030000004337,13265.0,0.25,0.0,NaN,0.0,0.0,3.387450825,NaN,-0.0012207029999999897,-31396.0,0.375,0.0,NaN,0.0,0.125,1.6857908430000001,NaN,-0.0012207029999999897,0.46000000834465027,-0.7799999713897705,-107.04000091552734,-0.01385498046875,0.01019287109375,1.0205078125,36.77000045776367,0.0,-1.0,1.7010345458984375,-1.8183135986328125,Waiting,0.0,0.0,3.0,0.0,0.0,0.0,0.0,0.125,
2.2536450000000006,0.0,0.0,87067.0,0.125,0.0,NaN,0.0,0.25,0.8020018710000001,NaN,-0.0012207029999995456,-156531.0,0.0,0.0,NaN,0.0,0.0,0.49316401200000004,NaN,0.0012207030000004337,13265.0,0.25,0.0,NaN,0.0,0.0,3.387450825,NaN,-0.0012207029999999897,-31396.0,0.375,0.0,NaN,0.0,0.125,1.6857908430000001,NaN,-0.0012207029999999897,0.4699999988079071,-0.7799999713897705,-107.04000091552734,-0.0162353515625,0.00579833984375,1.02484130859375,36.77000045776367,0.0,3.0,1.7010345458984375,-1.8183135986328125,Waiting,0.0,0.0,3.0,0.0,0.0,0.0,0.0,0.0,
2.2851980000000003,0.0,0.0,87067.0,0.125,0.0,NaN,0.0,0.25,0.8032225740000001,NaN,0.0012207029999995456,-156531.0,0.0,0.0,NaN,0.0,0.0,0.49316401200000004,NaN,0.0,13265.0,0.25,0.0,NaN,0.0,0.0,3.388671528,NaN,0.0012207029999999897,-31396.0,0.375,0.0,NaN,0.0,0.125,1.6857908430000001,NaN,0.0,0.4699999988079071,-0.7799999713897705,-107.04000091552734,-0.014404296875,0.0089111328125,1.0140380859375,36.77000045776367,0.0,0.0,1.7010345458984375,-1.8183135986328125,Waiting,0.0,0.0,3.0,0.0,0.0,0.0,0.0,0.0,
2.305179,0.0,0.0,87067.0,0.125,0.0,NaN,0.0,0.25,0.8032225740000001,NaN,0.0012207029999995456,-156531.0,0.0,0.0,NaN,0.0,0.0,0.49316401200000004,NaN,0.0,13265.0,0.25,0.0,NaN,0.0,0.0,3.388671528,NaN,0.0012207029999999897,-31396.0,0.375,0.0,NaN,0.0,0.25,1.6857908430000001,NaN,0.0,0.46000000834465027,-0.7799999713897705,-107.04000091552734,-0.012939453125,0.00665283203125,1.020751953125,36.77000045776367,0.0,1.0,1.7010345458984375,-1.8183135986328125,Waiting,0.0,0.0,3.0,0.0,0.0,0.0,0.0,0.0,
2.328672999999999,0.0,0.0,87067.0,0.125,0.0,NaN,0.0,0.25,0.797119059,NaN,-0.0012207029999995456,-156531.0,0.0,0.0,NaN,0.0,0.0,0.49316401200000004,NaN,-0.0012207030000004337,13265.0,0.25,0.0,NaN,0.0,0.0,3.3789059040000002,NaN,-0.0012207029999999897,-31396.0,0.375,0.0,NaN,0.0,0.125,1.6857908430000001,NaN,0.0012207029999999897,0.46000000834465027,-0.7799999713897705,-107.04000091552734,-0.01165771484375,0.0072021484375,1.02166748046875,36.79999923706055,0.0,0.0,1.7010345458984375,-1.8183135986328125,Waiting,0.0,0.0,3.0,0.0,0.0,0.0,0.0,0.0,
2.3528779999999987,0.0,0.0,87067.0,0.125,0.0,NaN,0.0,0.25,0.8020018710000001,NaN,-0.0012207029999995456,-156531.0,0.0,0.0,NaN,0.0,0.0,0.49438471500000003,NaN,-0.0012207030000004337,13265.0,0.25,0.0,NaN,0.0,0.0,3.387450825,NaN,-0.0012207029999999897,-31396.0,0.375,0.0,NaN,0.0,0.125,1.6857908430000001,NaN,0.0012207029999999897,0.46000000834465027,-0.7799999713897705,-107.04000091552734,-0.01312255859375,0.01025390625,1.01837158203125,36.79999923706055,0.0,-2.0,1.7010345458984375,-1.8183135986328125,Waiting,0.0,0.0,3.0,0.0,0.0,0.0,0.0,0.0,
2.4029089999999997,0.0,0.0,87067.0,0.125,0.0,NaN,0.0,0.25,0.8032225740000001,NaN,0.0,-156531.0,0.0,0.0,NaN,0.0,0.0,0.49316401200000004,NaN,0.0,13265.0,0.25,0.0,NaN,0.0,0.0,3.3789059040000002,NaN,0.0012207029999999897,-31396.0,0.375,0.0,NaN,0.0,0.125,1.690673655,NaN,0.0012207029999999897,0.46000000834465027,-0.7799999713897705,-107.04000091552734,-0.01300048828125,0.00531005859375,1.02276611328125,36.79999923706055,0.0,2.0,1.7010345458984375,-1.8183135986328125,Waiting,0.0,0.0,3.0,0.0,0.0,0.0,0.0,0.0,
2.426575999999999,0.0,0.0,87067.0,0.125,0.0,NaN,0.0,0.25,0.8032225740000001,NaN,0.0,-156531.0,0.0,0.0,NaN,0.0,0.0,0.49316401200000004,NaN,0.0012207030000004337,13265.0,0.25,0.0,NaN,0.0,0.0,3.387450825,NaN,-0.0012207029999999897,-31396.0,0.375,0.0,NaN,0.0,0.125,1.6845701400000002,NaN,0.0,0.46000000834465027,-0.7799999713897705,-107.04000091552734,-0.01470947265625,0.0091552734375,1.0238037109375,36.79999923706055,0.0,0.0,1.7010345458984375,-1.8183135986328125,Waiting,0.0,0.0,3.0,0.0,0.0,0.0,0.0,0.0,
2.4482489999999997,0.0,0.0,87067.0,0.125,0.0,NaN,0.0,0.25,0.8032225740000001,NaN,0.0,-156531.0,0.0,0.0,NaN,0.0,0.0,0.49194330900000005,NaN,0.0012207030000004337,13265.0,0.25,0.0,NaN,0.0,0.0,3.387450825,NaN,-0.0012207029999999897,-31396.0,0.375,0.0,NaN,0.0,0.125,1.6857908430000001,NaN,0.0,0.46000000834465027,-0.7799999713897705,-107.04000091552734,-0.01483154296875,0.0084228515625,1.02197265625,36.79999923706055,0.0,0.0,1.7010345458984375,-1.8183135986328125,Waiting,0.0,0.0,3.0,0.0,0.0,0.0,0.0,0.0,
2.4791090000000002,0.0,0.0,87067.0,0.125,0.0,NaN,0.0,0.25,0.8032225740000001,NaN,0.0,-156531.0,0.0,0.0,NaN,0.0,0.0,0.49316401200000004,NaN,-0.0012207030000004337,13265.0,0.25,0.0,NaN,0.0,0.0,3.382568013,NaN,0.0012207029999999897,-31396.0,0.375,0.0,NaN,0.0,0.125,1.6870115460000001,NaN,-0.0024414059999999793,0.4699999988079071,-0.7799999713897705,-107.04000091552734,-0.01422119140625,0.0086669921875,1.0240478515625,36.79999923706055,0.0,0.0,1.7010345458984375,-1.8183135986328125,Waiting,0.0,0.0,3.0,0.0,0.0,0.0,0.0,0.0,
2.496324999999999,0.0,0.0,87067.0,0.125,0.0,NaN,0.0,0.25,0.8007811680000001,NaN,0.0,-156531.0,0.0,0.0,NaN,0.0,0.0,0.49316401200000004,NaN,-0.0012207030000004337,13265.0,0.25,0.0,NaN,0.0,0.0,3.387450825,NaN,0.0012207029999999897,-31396.0,0.375,0.0,NaN,0.0,0.125,1.6857908430000001,NaN,0.0012207029999999897,0.4699999988079071,-0.7799999713897705,-107.04000091552734,-0.0137939453125,0.0072021484375,1.01654052734375,36.79999923706055,0.0,1.0,1.7010345458984375,-1.8183135986328125,Waiting,0.0,0.0,3.0,0.0,0.0,0.0,0.0,0.0,
2.544366,0.0,0.0,87067.0,0.125,0.0,NaN,0.0,0.25,0.8032225740000001,NaN,0.0,-156531.0,0.0,0.0,NaN,0.0,0.0,0.49316401200000004,NaN,0.0012207030000004337,13265.0,0.25,0.0,NaN,0.0,0.0,3.387450825,NaN,0.0,-31396.0,0.375,0.0,NaN,0.0,0.125,1.6857908430000001,NaN,0.0012207029999999897,0.4699999988079071,-0.7699999809265137,-107.04000091552734,-0.0142822265625,0.00836181640625,1.0184326171875,36.79999923706055,0.0,0.0,1.7010345458984375,-1.8183135986328125,Waiting,0.0,0.0,3.0,0.0,0.0,0.0,0.0,0.125,
2.561224,0.0,0.0,87067.0,0.125,0.0,NaN,0.0,0.25,0.8020018710000001,NaN,0.0012207029999995456,-156531.0,0.0,0.0,NaN,0.0,0.0,0.49316401200000004,NaN,-0.0012207030000004337,13265.0,0.25,0.0,NaN,0.0,0.0,3.388671528,NaN,0.0,-31396.0,0.375,0.0,NaN,0.0,0.125,1.6857908430000001,NaN,-0.0012207029999999897,0.4699999988079071,-0.7799999713897705,-107.04000091552734,-0.012939453125,0.01202392578125,1.02191162109375,36.79999923706055,0.0,-3.0,1.7010345458984375,-1.8183135986328125,Waiting,0.0,0.0,3.0,0.0,0.0,0.0,0.0,0.0,
2.6209439999999997,0.0,0.0,87067.0,0.125,0.0,NaN,0.0,0.125,0.8020018710000001,NaN,-0.0012207029999995456,-156531.0,0.0,0.0,NaN,0.0,0.0,0.49438471500000003,NaN,0.0012207030000004337,13265.0,0.25,0.0,NaN,0.0,0.0,3.387450825,NaN,0.0,-31396.0,0.375,0.0,NaN,0.0,0.125,1.6857908430000001,NaN,0.0012207029999999897,0.4699999988079071,-0.7699999809265137,-107.04000091552734,-0.01177978515625,0.0115966796875,1.01934814453125,36.79999923706055,0.0,-3.0,1.7010345458984375,-1.8183135986328125,Waiting,0.0,0.0,3.0,0.0,0.0,0.0,0.0,0.0,
2.648478999999999,0.0,0.0,87067.0,0.125,0.0,NaN,0.0,0.125,0.8032225740000001,NaN,-0.0012207029999995456,-156531.0,0.0,0.0,NaN,0.0,0.0,0.49438471500000003,NaN,0.0012207030000004337,13265.0,0.25,0.0,NaN,0.0,0.0,3.387450825,NaN,0.0,-31396.0,0.375,0.0,NaN,0.0,0.125,1.6857908430000001,NaN,0.0012207029999999897,0.4699999988079071,-0.7699999809265137,-107.04000091552734,-0.01470947265625,0.0084228515625,1.0166015625,36.79999923706055,0.0,0.0,1.7010345458984375,-1.8183135986328125,Waiting,0.0,0.0,3.0,0.0,0.0,0.0,0.0,0.0,
2.6829570000000005,0.0,0.0,87067.0,0.125,0.0,NaN,0.0,0.25,0.8020018710000001,NaN,-0.0012207030000004337,-156531.0,0.0,0.0,NaN,0.0,0.0,0.49316401200000004,NaN,-0.0012207030000004337,13265.0,0.25,0.0,NaN,0.0,0.0,3.387450825,NaN,-0.0012207029999999897,-31396.0,0.375,0.0,NaN,0.0,0.125,1.6857908430000001,NaN,0.0,0.4699999988079071,-0.7699999809265137,-107.04000091552734,-0.0159912109375,0.0079345703125,1.0177001953125,36.79999923706055,0.0,1.0,1.7010345458984375,-1.8183135986328125,Waiting,0.0,0.0,3.0,0.0,0.0,0.0,0.0,0.0,
2.730278,0.0,0.0,87067.0,0.125,0.0,NaN,0.0,0.125,0.8032225740000001,NaN,0.0012207030000004337,-156531.0,0.0,0.0,NaN,0.0,0.0,0.49316401200000004,NaN,0.0012207030000004337,13265.0,0.25,0.0,NaN,0.0,0.0,3.387450825,NaN,0.0012207029999999897,-31396.0,0.375,0.0,NaN,0.0,0.125,1.6870115460000001,NaN,-0.0012207029999999897,0.4699999988079071,-0.7699999809265137,-107.04000091552734,-0.01416015625,0.01043701171875,1.018798828125,36.79999923706055,0.0,-1.0,1.7010345458984375,-1.8183135986328125,Waiting,0.0,0.0,3.0,0.0,0.0,0.0,0.0,0.125,
2.7486059999999997,0.0,0.0,87067.0,0.125,0.0,NaN,0.0,0.125,0.809326089,NaN,0.0012207030000004337,-156531.0,0.0,0.0,NaN,0.0,0.0,0.49316401200000004,NaN,0.0012207030000004337,13265.0,0.25,0.0,NaN,0.0,0.0,3.387450825,NaN,0.0012207029999999897,-31396.0,0.375,0.0,NaN,0.0,0.125,1.6857908430000001,NaN,-0.0012207029999999897,0.4699999988079071,-0.7699999809265137,-107.04000091552734,-0.01165771484375,0.00811767578125,1.019287109375,36.79999923706055,0.0,0.0,1.7010345458984375,-1.8183135986328125,Waiting,0.0,0.0,3.0,0.0,0.0,0.0,0.0,0.125,
2.7682870000000004,0.0,0.0,87067.0,0.125,0.0,NaN,0.0,0.125,0.8032225740000001,NaN,0.0012207030000004337,-156531.0,0.0,0.0,NaN,0.0,0.0,0.48583979400000005,NaN,0.0012207030000004337,13265.0,0.25,0.0,NaN,0.0,0.0,3.387450825,NaN,0.0012207029999999897,-31396.0,0.375,0.0,NaN,0.0,0.125,1.6845701400000002,NaN,0.0,0.4699999988079071,-0.7699999809265137,-107.04000091552734,-0.01153564453125,0.008544921875,1.01507568359375,36.79999923706055,0.0,0.0,1.7010345458984375,-1.8183135986328125,Waiting,0.0,0.0,3.0,0.0,0.0,0.0,0.0,0.125,
2.7938320000000005,0.0,0.0,87067.0,0.125,0.0,NaN,0.0,0.125,0.8032225740000001,NaN,-0.0012207030000004337,-156531.0,0.0,0.0,NaN,0.0,0.0,0.49438471500000003,NaN,0.0,13265.0,0.25,0.0,NaN,0.0,0.0,3.388671528,NaN,-0.0012207029999999897,-31396.0,0.375,0.0,NaN,0.0,0.125,1.6857908430000001,NaN,0.0,0.4699999988079071,-0.7699999809265137,-107.04000091552734,-0.01409912109375,0.010498046875,1.0172119140625,36.79999923706055,0.0,-1.0,1.7010345458984375,-1.8183135986328125,Waiting,0.0,0.0,3.0,0.0,0.0,0.0,0.0,0.0,
2.8153909999999995,0.0,0.0,87067.0,0.125,0.0,NaN,0.0,0.125,0.8032225740000001,NaN,-0.0012207030000004337,-156531.0,0.0,0.0,NaN,0.0,0.0,0.49926752700000004,NaN,0.0,13265.0,0.25,0.0,NaN,0.0,0.0,3.387450825,NaN,0.0,-31396.0,0.375,0.0,NaN,0.0,0.125,1.6857908430000001,NaN,0.0,0.4699999988079071,-0.7699999809265137,-107.04000091552734,-0.01226806640625,0.0079345703125,1.0223388671875,36.79999923706055,0.0,0.0,1.7010345458984375,-1.8183135986328125,Waiting,0.0,0.0,3.0,0.0,0.0,0.0,0.0,0.0,
2.8646990000000003,0.0,0.0,87067.0,0.125,0.0,NaN,0.0,0.25,0.797119059,NaN,0.0,-156531.0,0.0,0.0,NaN,0.0,0.0,0.49316401200000004,NaN,0.0,13265.0,0.25,0.0,NaN,0.0,0.0,3.387450825,NaN,0.0,-31396.0,0.375,0.0,NaN,0.0,0.125,1.6857908430000001,NaN,0.0,0.4699999988079071,-0.7699999809265137,-107.04000091552734,-0.010498046875,0.01055908203125,1.00994873046875,36.79999923706055,0.0,-3.0,1.7010345458984375,-1.8183135986328125,Waiting,0.0,0.0,3.0,0.0,0.0,0.0,0.0,0.125,
2.88601,0.0,0.0,87067.0,0.125,0.0,NaN,0.0,0.25,0.8032225740000001,NaN,0.0012207030000004337,-156531.0,0.0,0.0,NaN,0.0,0.0,0.49316401200000004,NaN,0.0,13265.0,0.25,0.0,NaN,0.0,0.0,3.387450825,NaN,0.0012207029999999897,-31396.0,0.375,0.0,NaN,0.0,0.125,1.690673655,NaN,0.0012207029999999897,0.4699999988079071,-0.7699999809265137,-107.04000091552734,-0.01239013671875,0.010009765625,1.0186767578125,36.79999923706055,0.0,-1.0,1.7010345458984375,-1.8183135986328125,Waiting,0.0,0.0,3.0,0.0,0.0,0.0,0.0,0.125,
2.906008,0.0,0.0,87067.0,0.125,0.0,NaN,0.0,0.25,0.8032225740000001,NaN,0.0012207030000004337,-156531.0,0.0,0.0,NaN,0.0,0.0,0.49438471500000003,NaN,0.0,13265.0,0.25,0.0,NaN,0.0,0.0,3.387450825,NaN,0.0012207029999999897,-31396.0,0.375,0.0,NaN,0.0,0.125,1.6857908430000001,NaN,0.0012207029999999897,0.4699999988079071,-0.7699999809265137,-107.04000091552734,-0.01092529296875,0.0072021484375,1.0172119140625,36.79999923706055,0.0,0.0,1.7010345458984375,-1.8183135986328125,Waiting,0.0,0.0,3.0,0.0,0.0,0.0,0.0,0.0,
2.9319499999999987,0.0,0.0,87067.0,0.125,0.0,NaN,0.0,0.25,0.806884683,NaN,0.0,-156531.0,0.0,0.0,NaN,0.0,0.0,0.49316401200000004,NaN,-0.0012207030000004337,13265.0,0.25,0.0,NaN,0.0,0.0,3.391112934,NaN,0.0,-31396.0,0.375,0.0,NaN,0.0,0.125,1.6857908430000001,NaN,-0.0012207029999999897,0.4699999988079071,-0.7699999809265137,-107.04000091552734,-0.013427734375,0.0074462890625,1.0152587890625,36.79999923706055,0.0,0.0,1.7010345458984375,-1.8183135986328125,Waiting,0.0,0.0,3.0,0.0,0.0,0.0,0.0,0.0,
2.9530149999999993,0.0,0.0,87067.0,0.125,0.0,NaN,0.0,0.25,0.8044432770000001,NaN,0.0,-156531.0,0.0,0.0,NaN,0.0,0.0,0.49316401200000004,NaN,-0.0012207030000004337,13265.0,0.25,0.0,NaN,0.0,0.0,3.387450825,NaN,0.0,-31396.0,0.375,0.0,NaN,0.0,0.125,1.6857908430000001,NaN,-0.0012207029999999897,0.4699999988079071,-0.7699999809265137,-107.04000091552734,-0.0128173828125,0.00982666015625,1.02313232421875,36.79999923706055,0.0,-1.0,1.7010345458984375,-1.8183135986328125,Waiting,0.0,0.0,3.0,0.0,0.0,0.0,0.0,0.0,
2.9956080000000003,0.0,0.0,87067.0,0.125,0.0,NaN,0.0,0.25,0.8020018710000001,NaN,0.0,-156531.0,0.0,0.0,NaN,0.0,0.0,0.49316401200000004,NaN,0.0012207030000004337,13265.0,0.125,0.0,NaN,0.0,0.0,3.387450825,NaN,0.0,-31396.0,0.375,0.0,NaN,0.0,0.125,1.6857908430000001,NaN,0.0,0.4699999988079071,-0.7699999809265137,-107.04000091552734,-0.0142822265625,0.0086669921875,1.01702880859375,36.79999923706055,0.0,0.0,1.7010345458984375,-1.8183135986328125,Waiting,0.0,0.0,3.0,0.0,0.0,0.0,0.0,0.125,
3.012967999999999,0.0,0.0,87067.0,0.125,0.0,NaN,0.0,0.25,0.8044432770000001,NaN,0.0,-156531.0,0.0,0.0,NaN,0.0,0.0,0.49316401200000004,NaN,0.0012207030000004337,13265.0,0.25,0.0,NaN,0.0,0.0,3.387450825,NaN,0.0,-31396.0,0.375,0.0,NaN,0.0,0.125,1.6857908430000001,NaN,0.0,0.4699999988079071,-0.7699999809265137,-107.04000091552734,-0.01483154296875,0.012451171875,1.020751953125,36.79999923706055,0.0,-3.0,1.7010345458984375,-1.8183135986328125,Waiting,0.0,0.0,3.0,0.0,0.0,0.0,0.0,0.0,
3.03567,0.0,0.0,87067.0,0.125,0.0,NaN,0.0,0.25,0.8020018710000001,NaN,0.0012207029999995456,-156531.0,0.0,0.0,NaN,0.0,0.0,0.49316401200000004,NaN,0.0,13265.0,0.25,0.0,NaN,0.0,0.0,3.387450825,NaN,-0.0012207029999999897,-31396.0,0.375,0.0,NaN,0.0,0.125,1.6857908430000001,NaN,0.0012207029999999897,0.4699999988079071,-0.7699999809265137,-107.04000091552734,-0.01397705078125,0.00787353515625,1.01312255859375,36.79999923706055,0.0,0.0,1.7010345458984375,-1.8183135986328125,Waiting,0.0,0.0,3.0,0.0,0.0,0.0,0.0,0.0,
3.0557070000000004,0.0,0.0,87067.0,0.125,0.0,NaN,0.0,0.25,0.8032225740000001,NaN,0.0012207029999995456,-156531.0,0.0,0.0,NaN,0.0,0.0,0.49316401200000004,NaN,0.0,13265.0,0.25,0.0,NaN,0.0,0.0,3.388671528,NaN,-0.0012207029999999897,-31396.0,0.375,0.0,NaN,0.0,0.125,1.6857908430000001,NaN,0.0012207029999999897,0.4699999988079071,-0.7699999809265137,-107.04000091552734,-0.0128173828125,0.00811767578125,1.0196533203125,36.79999923706055,0.0,0.0,1.7010345458984375,-1.8183135986328125,Waiting,0.0,0.0,3.0,0.0,0.0,0.0,0.0,0.0,
3.084923999999999,0.0,0.0,87067.0,0.125,0.0,NaN,0.0,0.25,0.8032225740000001,NaN,0.0,-156531.0,0.0,0.0,NaN,0.0,0.0,0.489501903,NaN,0.0,13265.0,0.25,0.0,NaN,0.0,0.0,3.387450825,NaN,0.0012207029999999897,-31396.0,0.375,0.0,NaN,0.0,0.125,1.6870115460000001,NaN,0.0,0.4699999988079071,-0.7699999809265137,-107.04000091552734,-0.0125732421875,0.0086669921875,1.01544189453125,36.79999923706055,0.0,0.0,1.7010345458984375,-1.8183135986328125,Waiting,0.0,0.0,3.0,0.0,0.0,0.0,0.0,0.0,
3.1077700000000004,0.0,0.0,87067.0,0.125,0.0,NaN,0.0,0.25,0.8007811680000001,NaN,0.0,-156531.0,0.0,0.0,NaN,0.0,0.0,0.49316401200000004,NaN,0.0,13265.0,0.25,0.0,NaN,0.0,0.0,3.387450825,NaN,0.0012207029999999897,-31396.0,0.375,0.0,NaN,0.0,0.125,1.6857908430000001,NaN,0.0,0.4699999988079071,-0.7699999809265137,-107.04000091552734,-0.01336669921875,0.0067138671875,1.01580810546875,36.79999923706055,0.0,1.0,1.7010345458984375,-1.8183135986328125,Waiting,0.0,0.0,3.0,0.0,0.0,0.0,0.0,0.0,
3.140116,0.0,0.0,87067.0,0.125,0.0,NaN,0.0,0.25,0.8056639800000001,NaN,-0.0012207029999995456,-156531.0,0.0,0.0,NaN,0.0,0.0,0.49316401200000004,NaN,0.0,13265.0,0.25,0.0,NaN,0.0,0.0,3.387450825,NaN,-0.0012207029999999897,-31396.0,0.375,0.0,NaN,0.0,0.125,1.6857908430000001,NaN,0.0,0.4699999988079071,-0.7699999809265137,-107.04000091552734,-0.0152587890625,0.00677490234375,1.01739501953125,36.79999923706055,0.0,2.0,1.7010345458984375,-1.8183135986328125,Waiting,0.0,0.0,3.0,0.0,0.0,0.0,0.0,0.0,
3.1576630000000003,0.0,0.0,87067.0,0.125,0.0,NaN,0.0,0.25,0.8032225740000001,NaN,-0.0012207029999995456,-156531.0,0.0,0.0,NaN,0.0,0.0,0.49438471500000003,NaN,0.0,13265.0,0.25,0.0,NaN,0.0,0.0,3.387450825,NaN,0.0012207029999999897,-31396.0,0.375,0.0,NaN,0.0,0.125,1.690673655,NaN,-0.0012207029999999897,0.4699999988079071,-0.7699999809265137,-107.04000091552734,-0.012939453125,0.00823974609375,1.02325439453125,36.79999923706055,0.0,0.0,1.7010345458984375,-1.8183135986328125,Waiting,0.0,0.0,3.0,0.0,0.0,0.0,0.0,0.0,
3.2067669999999997,0.0,0.0,87067.0,0.125,0.0,NaN,0.0,0.25,0.8020018710000001,NaN,0.0,-156531.0,0.0,0.0,NaN,0.0,0.0,0.49316401200000004,NaN,0.0,13265.0,0.25,0.0,NaN,0.0,0.0,3.387450825,NaN,0.0012207029999999897,-31396.0,0.375,0.0,NaN,0.0,0.125,1.6857908430000001,NaN,-0.0012207029999999897,0.4699999988079071,-0.7699999809265137,-107.04000091552734,-0.01239013671875,0.00506591796875,1.0220947265625,36.79999923706055,0.0,2.0,1.7010345458984375,-1.8183135986328125,Waiting,0.0,0.0,3.0,0.0,0.0,0.0,0.0,0.0,
3.2258850000000003,0.0,0.0,87067.0,0.125,0.0,NaN,0.0,0.25,0.794677653,NaN,0.0012207029999995456,-156531.0,0.0,0.0,NaN,0.0,0.0,0.498046824,NaN,-0.0012207030000004337,13265.0,0.25,0.0,NaN,0.0,0.0,3.387450825,NaN,0.0,-31396.0,0.375,0.0,NaN,0.0,0.125,1.6833494370000002,NaN,0.0012207029999999897,0.4699999988079071,-0.7699999809265137,-107.04000091552734,-0.0137939453125,0.00640869140625,1.01763916015625,36.79999923706055,0.0,1.0,1.7010345458984375,-1.8183135986328125,Waiting,0.0,0.0,3.0,0.0,0.0,0.0,0.0,0.0,
3.2710560000000006,0.0,0.0,87067.0,0.125,0.0,NaN,0.0,0.25,0.8032225740000001,NaN,0.0012207029999995456,-156531.0,0.0,0.0,NaN,0.0,0.0,0.49194330900000005,NaN,-0.0012207030000004337,13265.0,0.25,0.0,NaN,0.0,0.0,3.387450825,NaN,0.0,-31396.0,0.375,0.0,NaN,0.0,0.125,1.6845701400000002,NaN,0.0,0.4699999988079071,-0.7699999809265137,-107.04000091552734,-0.01397705078125,0.008056640625,1.02044677734375,36.79999923706055,0.0,0.0,1.7010345458984375,-1.8183135986328125,Waiting,0.0,0.0,3.0,0.0,0.0,0.0,0.0,0.125,
3.292009,0.0,0.0,87067.0,0.125,0.0,NaN,0.0,0.25,0.8032225740000001,NaN,0.0,-156531.0,0.0,0.0,NaN,0.0,0.0,0.490722606,NaN,0.0,13265.0,0.25,0.0,NaN,0.0,0.0,3.388671528,NaN,0.0,-31396.0,0.375,0.0,NaN,0.0,0.125,1.6845701400000002,NaN,0.0,0.4699999988079071,-0.7699999809265137,-107.04000091552734,-0.013916015625,0.008544921875,1.022705078125,36.79999923706055,0.0,0.0,1.7010345458984375,-1.8183135986328125,Waiting,0.0,0.0,3.0,0.0,0.0,0.0,0.0,0.0,
3.335241,0.0,0.0,87067.0,0.125,0.0,NaN,0.0,0.25,0.808105386,NaN,-0.0012207029999995456,-156531.0,0.0,0.0,NaN,0.0,0.0,0.49316401200000004,NaN,0.0012207030000004337,13265.0,0.25,0.0,NaN,0.0,0.0,3.387450825,NaN,-0.0012207029999999897,-31396.0,0.375,0.0,NaN,0.0,0.125,1.6857908430000001,NaN,0.0,0.4699999988079071,-0.7699999809265137,-107.04000091552734,-0.01165771484375,0.0064697265625,1.01922607421875,36.81999969482422,0.0,1.0,1.7010345458984375,-1.8183135986328125,Waiting,0.0,0.0,3.0,0.0,0.0,0.0,0.0,0.0,
3.3535200000000005,0.0,0.0,87067.0,0.125,0.0,NaN,0.0,0.25,0.8032225740000001,NaN,-0.0012207029999995456,-156531.0,0.0,0.0,NaN,0.0,0.0,0.49316401200000004,NaN,0.0012207030000004337,13265.0,0.25,0.0,NaN,0.0,0.0,3.387450825,NaN,-0.0012207029999999897,-31396.0,0.375,0.0,NaN,0.0,0.125,1.6857908430000001,NaN,0.0,0.4699999988079071,-0.7699999809265137,-107.04000091552734,-0.01513671875,0.0087890625,1.02154541015625,36.81999969482422,0.0,0.0,1.7010345458984375,-1.8183135986328125,Waiting,0.0,0.0,3.0,0.0,0.0,0.0,0.0,0.0,
3.397298999999999,0.0,0.0,87067.0,0.125,0.0,NaN,0.0,0.25,0.8020018710000001,NaN,0.0,-156531.0,0.0,0.0,NaN,0.0,0.0,0.49438471500000003,NaN,-0.0012207030000004337,13265.0,0.25,0.0,NaN,0.0,0.0,3.387450825,NaN,0.001220702999999989