Time,ClimberA1,ClimberA2,FRpos,FRCurrent,FRspeed,FRsetpoint,FRApos,FRACurrent,FREncpos,FREncSetpoint,FREncSpeed,FLpos,FLCurrent,FLspeed,FLsetpoint,FLApos,FLACurrent,FLEncpos,FLEncSetpoint,FLEncSpeed,BRpos,BRCurrent,BRspeed,BRsetpoint,BRApos,BRACurrent,BREncpos,BREncSetpoint,BREncSpeed,BLpos,BLCurrent,BLspeed,BLsetpoint,BLApos,BLACurrent,BLEncpos,BLEncSetpoint,BLEncSpeed,navx_Pitch,navx_Roll,navx_Yaw,navx_XAcc,navx_YAcc,navx_ZAcc,navx_Temp,navx_Bar,navx_Alt,navx_XDis,navx_YDis,GearPlacerState,ShootOutputV,ShootOutputCurrent,ShootEncPos,ShootEncVelocity,ShootSpeed,ShootSetpoint,CarouselSetpoint,CarouselCurrent,
0.18348200000001816,0.0,0.0,45392.0,0.0,0.0,0.0,0.0,0.125,0.8178710100000001,0.01,0.0,-48136.0,0.0,0.0,0.0,0.0,0.125,0.532226508,0.01,0.0,19714.0,0.0,0.0,0.0,0.0,0.0,3.349609032,0.01,0.0,-50532.0,0.0,0.0,0.0,0.0,0.25,1.668701001,0.01,0.0,0.0,-0.7799999713897705,-19.200000762939453,-0.0107421875,1.220703125E-4,1.02154541015625,36.33000183105469,0.0,2.0,3.2758941650390625,-1.016571044921875,Closing,0.0,0.0,3.0,0.0,0.0,0.0,0.0,0.0,
0.2666140000000014,0.0,0.0,45392.0,1.5,15.0,840.0,0.0,0.125,0.8178710100000001,0.01,0.0,-48136.0,2.5,-52.5,-840.0,0.0,0.125,0.532226508,0.01,0.0,19714.0,1.75,15.0,840.0,0.0,0.0,3.350829735,0.01,0.0,-50532.0,2.25,-22.5,-840.0,0.0,0.25,1.669921704,0.01,0.0,-0.029999999329447746,-0.6000000238418579,-19.149999618530273,0.0830078125,-0.0667724609375,0.96807861328125,36.29999923706055,0.0,109.0,3.2762451171875,-1.0166473388671875,Closing,0.0,0.0,3.0,0.0,0.0,0.0,0.0,0.0,
0.34046000000002097,0.0,0.0,45428.0,3.25,225.0,840.0,0.0,0.125,0.8166503070000001,0.01,0.0,-48162.0,5.5,-187.5,-840.0,0.0,0.125,0.535888617,0.01,0.0012207029999995456,19769.0,3.25,307.5,840.0,0.0,0.0,3.349609032,0.01,0.0,-50545.0,3.75,-105.0,-840.0,0.0,0.25,1.668701001,0.01,0.0,0.029999999329447746,-0.05999999865889549,-19.139999389648438,0.07720947265625,0.05059814453125,1.1475830078125,36.29999923706055,0.0,57.0,3.2831573486328125,-1.013397216796875,Closing,0.0,0.0,3.0,0.0,0.0,0.0,0.0,0.0,
0.4128410000000149,0.0,0.0,45428.0,3.875,202.5,840.0,0.0,0.125,0.808105386,0.01,-0.0024414059999999793,-48162.0,7.375,-202.5,-840.0,0.0,0.125,0.545654241,0.01,0.004882811999999959,19769.0,2.875,292.5,840.0,0.0,0.0,3.34472622,0.01,-0.0012207029999995456,-50582.0,5.25,-202.5,-840.0,0.0,0.25,1.668701001,0.01,0.0,0.03999999910593033,0.4399999976158142,-19.1200008392334,0.1329345703125,0.05987548828125,1.04718017578125,36.29999923706055,0.0,98.0,3.2970123291015625,-1.007293701171875,Closing,0.0,0.0,3.0,0.0,0.0,0.0,0.0,0.0,
0.513314000000013,0.0,0.0,45474.0,5.125,292.5,839.9999999999999,0.0,0.125,0.806884683,0.01,-0.007324217999999938,-48206.0,7.25,-337.5,-839.9999999999999,0.0,0.25,0.560302677,0.01,0.008544921000000372,19811.0,5.125,255.0,839.9999999999999,0.0,0.0,3.331298487,0.01,-0.008544921000000372,-50582.0,5.875,-337.5,-839.9999999999999,0.0,0.25,1.668701001,0.01,0.0,0.05000000074505806,0.7400000095367432,-19.0,0.15313720703125,-0.0208740234375,1.0614013671875,36.29999923706055,0.0,138.0,3.309478759765625,-1.001800537109375,Closing,0.0,0.0,3.0,0.0,0.0,0.0,0.0,0.0,
0.568054999999993,0.0,0.0,45474.0,5.0,480.0,840.0,0.0,0.125,0.8032225740000001,0.01,-0.004882811999999959,-48290.0,7.0,-510.0,-840.0,0.0,0.25,0.590820252,0.01,0.013427732999999442,19811.0,5.125,405.0,840.0,0.0,0.0,3.3203121600000003,0.01,-0.009765623999999917,-50655.0,5.875,-472.5,-840.0,0.0,0.25,1.668701001,0.01,0.0,0.10000000149011612,1.1200000047683716,-19.149999618530273,0.0828857421875,-0.043701171875,1.1463623046875,36.29999923706055,0.0,72.0,3.3284912109375,-0.9935455322265625,Closing,0.0,0.0,3.0,0.0,0.0,0.0,0.0,0.0,
0.6428209999999963,0.0,0.0,45560.0,4.375,600.0,840.0,0.0,0.125,0.8044432770000001,0.01,0.0,-48290.0,5.875,-652.5,-840.0,0.0,0.25,0.6103515,0.01,0.0402831990000001,19896.0,4.625,577.5,840.0,0.0,0.0,3.3166500510000003,0.01,-0.008544920999999484,-50655.0,5.5,-585.0,-840.0,0.0,0.25,1.666259595,0.01,0.0,0.11999999731779099,1.3700000047683716,-19.260000228881836,0.094482421875,0.050537109375,1.1500244140625,36.29999923706055,0.0,47.0,3.34979248046875,-0.991546630859375,Closing,0.0,0.0,3.0,0.0,0.0,0.0,0.0,0.0,
0.7146209999999846,0.0,0.0,45560.0,3.75,697.5,840.0,0.0,0.125,0.8044432770000001,4.9314289654836285,0.0,-48406.0,5.0,-735.0,-840.0,0.0,0.25,0.6091307970000001,4.96294271236372,0.008544921000000372,19994.0,4.25,577.5,840.0,0.0,0.0,3.3166500510000003,4.939576607329051,-0.004882811999999959,-50759.0,5.125,-660.0,-840.0,0.0,0.25,1.668701001,4.957173674021827,0.0,0.14000000059604645,1.440000057220459,-19.540000915527344,0.075927734375,0.12164306640625,1.19146728515625,36.290000915527344,0.0,3.0,3.371734619140625,-0.991363525390625,Closing,0.0,0.0,3.0,0.0,0.0,0.0,0.0,0.0,
0.7905629999999655,0.0,0.0,45678.0,3.25,802.5,840.0,0.0,0.125,0.8044432770000001,4.9275927608538845,0.0,-48406.0,4.25,-787.5,-840.0,0.0,0.25,0.576171816,4.95908199289608,-0.007324217999999938,19994.0,4.75,712.5,840.0,0.0,0.0,3.3154293480000003,4.935734064572652,-0.0012207030000004337,-50875.0,4.875,-727.5,-840.0,0.0,0.25,1.668701001,4.9533174423429704,0.0,0.17000000178813934,1.5700000524520874,-19.799999237060547,0.0953369140625,0.0709228515625,0.94512939453125,36.290000915527344,0.0,42.0,3.3718719482421875,-0.9910736083984375,Closing,0.0,0.0,3.0,0.0,0.0,0.0,0.0,0.0,
0.8485009999999893,0.0,0.0,45814.0,2.625,862.5,840.0,0.0,0.125,0.8166503070000001,4.924030602572271,0.0,-48535.0,3.5,-847.5,-840.0,0.0,0.25,0.532226508,4.9554970710392,-0.030517575000000186,20128.0,3.625,832.5,840.0,0.0,0.0,3.3166500510000003,4.932166020940145,0.0,-50875.0,4.25,-795.0,-840.0,0.0,0.25,1.669921704,4.94973668768141,0.0,0.20000000298023224,1.6399999856948853,-19.989999771118164,-0.017333984375,0.0142822265625,0.83917236328125,36.290000915527344,0.0,-42.0,3.3722686767578125,-0.990814208984375,Closing,0.0,0.0,3.0,0.0,0.0,0.0,0.0,0.0,
0.9277789999999805,0.0,0.0,45814.0,2.375,892.5,840.0,0.0,0.125,0.795898356,4.921427462783088,0.0,-48679.0,3.0,-892.5,-840.0,0.0,0.25,0.5175780720000001,4.95287729617548,-0.04272460500000008,20128.0,3.125,840.0,840.0,0.0,0.0,3.3215328630000003,4.929558580277761,0.0,-51018.0,3.375,-885.0,-840.0,0.0,0.25,1.650390456,4.947119958104028,0.0,0.1899999976158142,1.559999942779541,-20.059999465942383,-0.0623779296875,0.01068115234375,1.1444091796875,36.290000915527344,0.0,-90.0,3.3721160888671875,-0.990966796875,Closing,0.0,0.0,3.0,0.0,0.0,0.0,0.0,0.0,
0.9971529999999912,0.0,0.0,45961.0,1.875,915.0,839.9999999999999,0.0,0.125,0.8044432770000001,4.920468418158653,0.0,-48679.0,2.25,-922.5,-839.9999999999999,0.0,0.25,0.522460884,4.95191212288332,-0.004882811999999959,20264.0,3.0,847.5,839.9999999999999,0.0,0.0,3.3276363780000002,4.928597951132456,0.004882811999999959,-51018.0,3.0,-915.0,-839.9999999999999,0.0,0.25,1.6333006140000002,4.946155906751421,-0.013427733000000108,0.1899999976158142,1.5399999618530273,-20.1200008392334,-0.04046630859375,-0.0665283203125,0.93011474609375,36.290000915527344,0.0,-37.0,3.37103271484375,-0.991973876953125,Closing,0.0,0.0,3.0,0.0,0.0,0.0,0.0,0.0,
1.072613000000012,0.0,0.0,46113.0,1.25,937.5,840.0,0.0,0.125,0.8044432770000001,4.919646357510276,0.0,-48828.0,1.75,-930.0,-840.0,0.0,0.25,0.522460884,4.95108480894804,0.0,20389.0,2.875,825.0,840.0,0.0,0.0,3.3251949720000002,4.9277745322863264,0.0,-51163.0,2.625,-922.5,-840.0,0.0,0.25,1.639404129,4.945329554504818,0.0,0.1899999976158142,1.4900000095367432,-20.229999542236328,-0.11981201171875,0.034423828125,0.87371826171875,36.290000915527344,0.0,-144.0,3.36865234375,-0.992889404296875,Closing,0.0,0.0,3.0,0.0,0.0,0.0,0.0,0.0,
1.1609550000000164,0.0,0.0,46113.0,1.125,952.5,840.0000000000001,0.0,0.125,0.8044432770000001,4.91786527836947,0.0012207029999995456,-48979.0,1.5,-937.5,-840.0000000000001,0.0,0.25,0.522460884,4.9492923480196,0.0012207029999995456,20389.0,4.125,592.5,840.0000000000001,0.0,0.0,3.3203121600000003,4.925990510470073,0.0,-51311.0,2.5,-930.0,-840.0000000000001,0.0,0.25,1.639404129,4.9435391771740385,0.004882811999999959,0.20000000298023224,1.3200000524520874,-20.360000610351562,-0.02581787109375,-0.05535888671875,1.0748291015625,36.290000915527344,0.0,-26.0,3.3646697998046875,-0.993408203125,Closing,0.0,0.0,3.0,0.0,0.0,0.0,0.0,0.0,
1.2217939999999945,0.0,0.0,46264.0,0.75,945.0,840.0,0.0,0.125,0.8044432770000001,4.916358193312783,0.0,-48979.0,1.125,-945.0,-840.0,0.0,0.25,0.5175780720000001,4.94777563210392,0.0,20493.0,5.875,622.5,840.0,0.0,0.0,3.3166500510000003,4.924480935427348,-0.004882811999999959,-51311.0,2.5,-907.5,-840.0,0.0,0.25,1.6345213170000001,4.9420242243236965,0.0,0.15000000596046448,1.2200000286102295,-20.510000228881836,-0.09234619140625,0.0115966796875,1.15606689453125,36.22999954223633,0.0,-112.0,3.3613128662109375,-0.9948883056640625,Closing,0.0,0.0,3.0,0.0,0.0,0.0,0.0,0.0,
1.3081099999999861,0.0,0.0,46264.0,0.5,967.5,840.0,0.0,0.125,0.8032225740000001,4.91307002911529,0.0,-49130.0,1.0,-937.5,-840.0,0.0,0.25,0.513915963,4.9444664552598,-0.006103514999999504,20493.0,4.125,900.0,840.0,0.0,0.0,3.3166500510000003,4.9211873385683695,-0.004882811999999959,-51459.0,2.0,-922.5,-840.0,0.0,0.25,1.6552732680000002,4.938718894142575,-0.004882811999999959,0.17000000178813934,1.159999966621399,-20.719999313354492,0.00152587890625,0.03900146484375,1.265380859375,36.22999954223633,0.0,-35.0,3.35650634765625,-0.9969635009765625,Closing,0.0,0.0,3.0,0.0,0.0,0.0,0.0,0.0,
1.3626359999999986,0.0,0.0,46419.0,0.375,967.5,840.0,0.0,0.125,0.8032225740000001,4.910877919650296,-0.0012207029999995456,-49130.0,0.875,-945.0,-840.0,0.0,0.25,0.5175780720000001,4.94226033736372,0.0012207029999995456,20649.0,3.125,982.5,840.0,0.0,0.0,3.3239742690000003,4.918991607329051,0.0,-51459.0,1.625,-945.0,-840.0,0.0,0.25,1.6345213170000001,4.936515340688493,0.004882811999999959,0.17000000178813934,1.1100000143051147,-20.860000610351562,-0.068603515625,0.05474853515625,0.965087890625,36.22999954223633,0.0,-100.0,3.351593017578125,-0.9978485107421875,Closing,0.0,0.0,3.0,0.0,0.0,0.0,0.0,0.0,
1.4277949999999837,0.0,0.0,46572.0,0.375,952.5,840.0,0.0,0.125,0.812988198,4.909507844701672,0.004882811999999959,-49280.0,0.625,-937.5,-840.0,0.0,0.25,0.5175780720000001,4.94088150710392,0.0,20649.0,2.625,1005.0,840.0,0.0,0.0,3.3166500510000003,4.9176192687606815,0.0,-51608.0,1.625,-907.5,-840.0,0.0,0.25,1.6345213170000001,4.935138113212585,0.0,0.2199999988079071,1.0299999713897705,-20.979999542236328,-0.04473876953125,0.03826904296875,0.88153076171875,36.22999954223633,0.0,-69.0,3.3452301025390625,-0.9980621337890625,Closing,0.0,0.0,3.0,0.0,0.0,0.0,0.0,0.0,
1.500527000000002,0.0,0.0,46572.0,0.375,952.5,840.0,0.0,0.125,0.819091713,4.90745274534474,0.006103514999999504,-49280.0,0.625,-922.5,-840.0,0.0,0.25,0.5163573690000001,4.93881327486372,0.0,20808.0,2.5,982.5,840.0,0.0,0.0,3.3203121600000003,4.9155607739957174,0.0,-51608.0,1.375,-900.0,-840.0,0.0,0.25,1.6345213170000001,4.933072285132938,-0.0012207029999999897,0.20000000298023224,0.8899999856948853,-21.139999389648438,-0.07257080078125,0.06024169921875,1.063232421875,36.22999954223633,0.0,-103.0,3.3352813720703125,-0.99859619140625,Closing,0.0,0.0,3.0,0.0,0.0,0.0,0.0,0.0,
1.5726030000000029,0.0,0.0,46720.0,0.375,922.5,840.0,0.0,0.25,0.812988198,4.905671666203934,0.0,-49427.0,0.625,-907.5,-840.0,0.0,0.25,0.5175780720000001,4.93702081393528,0.0,20960.0,2.25,952.5,840.0,0.0,0.0,3.330077784,4.913776752179464,0.006103515000000392,-51755.0,1.375,-915.0,-840.0,0.0,0.25,1.645507644,4.931281907802158,0.0012207029999999897,0.28999999165534973,0.7200000286102295,-21.350000381469727,-0.0321044921875,-0.042724609375,0.95458984375,36.22999954223633,0.0,-23.0,3.3228912353515625,-0.9995269775390625,Closing,0.0,0.0,3.0,0.0,0.0,0.0,0.0,0.0,
1.6481379999999772,0.0,0.0,46720.0,0.375,892.5,840.0,0.0,0.25,0.812988198,4.902794506198624,0.0012207030000004337,-49568.0,0.625,-877.5,-840.0,0.0,0.25,0.5175780720000001,4.9341252677598,0.0,20960.0,2.25,937.5,840.0,0.0,0.0,3.334960596,4.91089483856837,0.008544920999999484,-51900.0,1.25,-907.5,-840.0,0.0,0.25,1.6345213170000001,4.928389727475908,0.0,0.25999999046325684,0.6399999856948853,-21.540000915527344,-0.010986328125,-0.09136962890625,1.0916748046875,36.22999954223633,0.0,13.0,3.3119354248046875,-1.0009918212890625,Closing,0.0,0.0,3.0,0.0,0.0,0.0,0.0,0.0,
1.7105829999999842,0.0,0.0,46862.0,0.375,885.0,840.0,0.0,0.25,0.8312987430000001,4.90019136640944,-0.0012207030000004337,-49568.0,0.625,-877.5,-840.0,0.0,0.25,0.5175780720000001,4.93150549289608,-0.0012207029999995456,21109.0,2.25,915.0,840.0,0.0,0.125,3.336181299,4.908287397905986,0.004882811999999959,-51900.0,1.25,-870.0,-840.0,0.0,0.25,1.6333006140000002,4.925772997898526,0.0,0.25999999046325684,0.4699999988079071,-21.59000015258789,0.03656005859375,-0.0540771484375,0.81378173828125,36.22999954223633,0.0,48.0,3.3112030029296875,-1.002349853515625,Closing,0.0,0.0,3.0,0.0,0.0,0.0,0.0,0.0,
1.7802820000000066,0.0,0.0,46862.0,0.375,885.0,840.0,0.0,0.25,0.825195228,4.899506342001131,0.0012207030000004337,-49709.0,0.625,-877.5,-840.0,0.0,0.25,0.5163573690000001,4.93081609091568,0.0,21109.0,2.25,900.0,840.0,0.0,0.125,3.342284814,4.907601241709392,0.0,-52039.0,1.25,-870.0,-840.0,0.0,0.25,1.618652178,4.925084397294786,0.0,0.25,0.38999998569488525,-21.670000076293945,0.0096435546875,-0.1134033203125,0.8883056640625,36.150001525878906,0.0,46.0,3.3102874755859375,-1.0031280517578125,Closing,0.0,0.0,3.0,0.0,0.0,0.0,0.0,0.0,
1.8457299999999814,0.0,0.0,47003.0,0.375,870.0,840.0,0.0,0.25,0.811767495,4.898410287268634,0.0,-49709.0,0.625,-862.5,-840.0,0.0,0.25,0.5175780720000001,4.92971303196764,0.0,21252.0,2.25,885.0,840.0,0.0,0.125,3.336181299,4.906503376089732,0.0,-52039.0,1.0,-885.0,-840.0,0.0,0.25,1.621093584,4.923982620567745,0.0,0.20000000298023224,0.17000000178813934,-21.8700008392334,0.065185546875,0.05340576171875,0.94189453125,36.150001525878906,0.0,39.0,3.3075408935546875,-1.004364013671875,Closing,0.0,0.0,3.0,0.0,0.0,0.0,0.0,0.0,
1.9170310000000172,0.0,0.0,47141.0,0.375,862.5,840.0,0.0,0.25,0.812988198,4.895670137371386,-0.0012207029999995456,-49846.0,0.625,-855.0,-840.0,0.0,0.25,0.5163573690000001,4.92695537144804,0.0,21389.0,2.375,870.0,840.0,0.0,0.125,3.3227535660000003,4.903758698952993,-0.004882811999999959,-52180.0,1.25,-862.5,-840.0,0.0,0.25,1.614990069,4.921228165615929,-0.009765623999999917,0.20999999344348907,0.1599999964237213,-21.979999542236328,0.0125732421875,0.01422119140625,1.05145263671875,36.150001525878906,0.0,5.0,3.3054351806640625,-1.0050506591796875,Closing,0.0,0.0,3.0,0.0,0.0,0.0,0.0,0.0,
1.9815810000000056,0.0,0.0,47141.0,0.375,862.5,840.0,0.0,0.25,0.812988198,4.893615038014454,0.0012207029999995456,-49846.0,0.875,-840.0,-840.0,0.0,0.25,0.5175780720000001,4.92488713920784,-0.0012207029999995456,21389.0,2.375,840.0,840.0,0.0,0.0,3.3154293480000003,4.901700204188029,-0.014648435999999876,-52180.0,1.375,-840.0,-840.0,0.0,0.25,1.6101072570000001,4.919162337536282,-0.004882811999999959,0.23999999463558197,0.07000000029802322,-22.170000076293945,0.00408935546875,-0.0570068359375,1.0001220703125,36.150001525878906,0.0,25.0,3.302459716796875,-1.0065155029296875,Closing,0.0,0.0,3.0,0.0,0.0,0.0,0.0,0.0,
2.051146000000008,0.0,0.0,47278.0,0.375,847.5,840.0,0.0,0.25,0.8178710100000001,4.891559938657522,-0.0012207029999995456,-49978.0,1.0,-802.5,-840.0,0.0,0.25,0.5175780720000001,4.92281890696764,0.0,21524.0,2.625,840.0,840.0,0.0,0.0,3.3166500510000003,4.899641709423065,-0.003662108999999525,-52312.0,2.0,-787.5,-840.0,0.0,0.25,1.6101072570000001,4.917096509456634,0.0,0.23999999463558197,-0.05999999865889549,-22.5,0.07342529296875,-0.03240966796875,0.8966064453125,36.150001525878906,0.0,82.0,3.297332763671875,-1.0096588134765625,Closing,0.0,0.0,3.0,0.0,0.0,0.0,0.0,0.0,
2.122195999999996,0.0,0.0,47278.0,0.375,847.5,840.0,0.0,0.25,0.812988198,4.887038709619469,0.0012207029999995456,-50105.0,1.125,-787.5,-840.0,0.0,0.25,0.5175780720000001,4.9182687855196,0.0012207029999995456,21524.0,2.5,840.0,840.0,0.0,0.0,3.3093258330000004,4.895113010470073,-0.0012207030000004337,-52435.0,2.25,-772.5,-840.0,0.0,0.25,1.612548663,4.912551677174038,0.0,0.27000001072883606,-0.07000000029802322,-22.760000228881836,-0.06475830078125,-0.033203125,1.0360107421875,36.150001525878906,0.0,-43.0,3.296417236328125,-1.0123291015625,Closing,0.0,0.0,3.0,0.0,0.0,0.0,0.0,0.0,
2.1893429999999934,0.0,0.0,47415.0,0.375,855.0,840.0,0.0,0.25,0.8142089010000001,4.883476525205851,0.0,-50105.0,1.5,-787.5,-840.0,0.0,0.25,0.498046824,4.91468383736372,0.0,21658.0,2.5,832.5,840.0,0.0,0.125,3.3166500510000003,4.891544940662384,0.0,-52435.0,2.25,-765.0,-840.0,0.0,0.25,1.6113279600000001,4.908970896244049,0.0,0.2800000011920929,-0.15000000596046448,-23.139999389648438,-0.05426025390625,0.04534912109375,0.990966796875,36.150001525878906,0.0,-63.0,3.295623779296875,-1.0130462646484375,Closing,0.0,0.0,3.0,0.0,0.0,0.0,0.0,0.0,
2.2723950000000186,0.0,0.0,47550.0,0.375,847.5,840.0,0.0,0.25,0.8154296040000001,4.878270271759489,0.0,-50232.0,1.5,-795.0,-840.0,0.0,0.25,0.47851557600000005,4.90944431393528,-0.02075195100000027,21793.0,2.5,840.0,840.0,0.0,0.125,3.3178707540000003,4.886330085512797,0.0,-52561.0,2.625,-802.5,-840.0,0.0,0.25,1.6064451480000002,4.9037374633577135,0.0,0.27000001072883606,-0.20000000298023224,-23.299999237060547,0.0504150390625,0.03106689453125,1.0076904296875,36.119998931884766,0.0,39.0,3.2950897216796875,-1.0125885009765625,Closing,0.0,0.0,3.0,0.0,0.0,0.0,0.0,0.0,
2.347657999999996,0.0,0.0,47550.0,0.375,840.0,840.0000000000001,0.0,0.25,0.798339762,4.876078162294494,-0.004882811999999959,-50232.0,1.5,-802.5,-840.0000000000001,0.0,0.25,0.46752924900000004,4.9072381960391995,-0.019531247999999835,21793.0,2.5,847.5,840.0000000000001,0.0,0.125,3.3166500510000003,4.8841343542734785,0.0,-52689.0,2.625,-787.5,-840.0000000000001,0.0,0.25,1.6015623360000002,4.901533909903632,-0.004882811999999959,0.25999999046325684,-0.2199999988079071,-23.40999984741211,-0.0174560546875,0.06585693359375,1.0421142578125,36.119998931884766,0.0,-36.0,3.2953948974609375,-1.0122528076171875,Closing,0.0,0.0,3.0,0.0,0.0,0.0,0.0,0.0,
2.4065679999999703,0.0,0.0,47686.0,0.375,840.0,840.0,0.0,0.25,0.784912029,4.874571077237808,-0.01342773300000033,-50363.0,1.5,-817.5,-840.0,0.0,0.25,0.468749952,4.90572148012352,-0.008544920999999484,21926.0,2.5,840.0,840.0,0.0,0.125,3.3166500510000003,4.8826247792307536,0.0,-52689.0,2.625,-787.5,-840.0,0.0,0.25,1.596679524,4.90001895705329,-0.004882811999999959,0.23000000417232513,-0.23999999463558197,-23.479999542236328,0.02117919921875,0.03424072265625,1.02008056640625,36.119998931884766,0.0,11.0,3.295623779296875,-1.011199951171875,Closing,0.0,0.0,3.0,0.0,0.0,0.0,0.0,0.0,
2.4655650000000024,0.0,0.0,47686.0,0.375,847.5,840.0,0.0,0.25,0.773925702,4.873612032613373,-0.01586913899999942,-50495.0,1.375,-825.0,-840.0,0.0,0.125,0.468749952,4.90475630683136,0.0,21926.0,2.625,825.0,840.0,0.0,0.125,3.3154293480000003,4.88166415008545,0.0,-52817.0,2.75,-817.5,-840.0,0.0,0.25,1.596679524,4.899054905700684,-0.004882811999999959,0.2199999988079071,-0.20999999344348907,-23.510000228881836,0.02081298828125,0.0474853515625,1.1331787109375,36.119998931884766,0.0,5.0,3.29644775390625,-1.009063720703125,Closing,0.0,0.0,3.0,0.0,0.0,0.0,0.0,0.0,
2.540820999999996,0.0,0.0,47821.0,0.375,840.0,840.0,0.0,0.25,0.7775878110000001,4.873201002289184,0.0,-50495.0,1.375,-832.5,-840.0,0.0,0.125,0.469970655,4.90434264986372,0.0,22061.0,2.625,832.5,840.0,0.0,0.125,3.3166500510000003,4.881252440662384,0.0,-52817.0,2.625,-832.5,-840.0,0.0,0.25,1.596679524,4.898641729577382,0.0,0.25,-0.23000000417232513,-23.579999923706055,6.103515625E-5,-0.10552978515625,1.1099853515625,36.119998931884766,0.0,48.0,3.2981109619140625,-1.007415771484375,Closing,0.0,0.0,3.0,0.0,0.0,0.0,0.0,0.0,
2.612011999999988,0.0,0.0,47955.0,0.375,840.0,840.0,0.0,0.25,0.7775878110000001,4.87224195766475,-0.0012207029999995456,-50631.0,1.25,-847.5,-840.0,0.0,0.125,0.468749952,4.90337747657156,0.0,22061.0,2.625,825.0,840.0,0.0,0.125,3.3178707540000003,4.88029181151708,0.0,-52954.0,2.625,-832.5,-840.0,0.0,0.25,1.595458821,4.897677678224776,0.0,0.2800000011920929,-0.25999999046325684,-23.559999465942383,-0.05181884765625,-0.01751708984375,0.99981689453125,36.119998931884766,0.0,-34.0,3.299896240234375,-1.00677490234375,Closing,0.0,0.0,3.0,0.0,0.0,0.0,0.0,0.0,
2.707116999999969,0.0,0.0,47955.0,0.375,832.5,840.0,0.0,0.25,0.773925702,4.872652987988938,0.0,-50631.0,1.125,-847.5,-840.0,0.0,0.125,0.468749952,4.9037911335392,-0.0012207030000004337,22192.0,2.625,825.0,840.0,0.0,0.125,3.3166500510000003,4.880703520940145,0.0,-52954.0,2.5,-840.0,-840.0,0.0,0.25,1.591796712,4.898090854348077,0.0,0.20000000298023224,-0.33000001311302185,-23.520000457763672,-0.017333984375,0.05133056640625,1.222900390625,36.119998931884766,0.0,-28.0,3.300872802734375,-1.005767822265625,Closing,0.0,0.0,3.0,0.0,0.0,0.0,0.0,0.0,
2.763361999999965,0.0,0.0,48089.0,0.375,825.0,840.0,0.0,0.25,0.7751464050000001,4.873063992181121,0.0012207029999995456,-50769.0,1.125,-862.5,-840.0,0.0,0.125,0.469970655,4.90420476420784,0.0012207030000004337,22328.0,2.625,840.0,840.0,0.0,0.125,3.3154293480000003,4.8811152041880295,0.0,-53091.0,2.625,-840.0,-840.0,0.0,0.25,1.597900227,4.898504004202949,-0.004882811999999959,0.17000000178813934,-0.30000001192092896,-23.489999771118164,-0.03802490234375,0.05194091796875,0.980712890625,36.08000183105469,0.0,-49.0,3.30133056640625,-1.0049591064453125,Closing,0.0,0.0,3.0,0.0,0.0,0.0,0.0,0.0,
2.8475100000000095,0.0,0.0,48089.0,0.125,765.0,0.0,0.0,0.25,0.773925702,0.01,0.0,-50881.0,0.125,-720.0,-0.0,0.0,0.25,0.46386714,0.01,0.0,22328.0,0.75,825.0,0.0,0.0,0.125,3.331298487,0.01,0.0,-53220.0,0.625,-802.5,-0.0,0.0,0.25,1.591796712,0.01,0.0,0.33000001311302185,-0.4300000071525574,-23.450000762939453,-0.20263671875,-0.1668701171875,1.09503173828125,36.08000183105469,0.0,-109.0,3.3012237548828125,-1.0042572021484375,Closing,0.0,0.0,3.0,0.0,0.0,0.0,0.0,0.0,
2.9205869999999994,0.0,0.0,48187.0,0.0,570.0,0.0,0.0,0.25,0.7788085140000001,0.01,-0.0012207029999995456,-50881.0,0.125,-600.0,-0.0,0.0,0.25,0.468749952,0.01,0.0,22434.0,0.375,600.0,0.0,0.0,0.0,3.349609032,0.01,0.014648435999999876,-53220.0,0.125,-600.0,-0.0,0.0,0.25,1.600341633,0.01,0.0,0.33000001311302185,-0.9200000166893005,-23.459999084472656,-0.08135986328125,0.0224609375,0.88214111328125,36.08000183105469,0.0,-68.0,3.29833984375,-1.0048370361328125,Closing,0.0,0.0,3.0,0.0,0.0,0.0,0.0,0.0,
2.984170999999973,0.0,0.0,48281.0,0.375,585.0,0.0,0.0,0.25,0.795898356,0.01,0.0,-50981.0,0.625,-607.5,-0.0,0.0,0.25,0.47851557600000005,0.01,0.0,22491.0,0.375,337.5,0.0,0.0,0.0,3.348388329,0.01,0.0,-53309.0,0.0,-585.0,-0.0,0.0,0.25,1.6113279600000001,0.01,0.0,0.3100000023841858,-1.5399999618530273,-23.34000015258789,-0.18646240234375,0.04132080078125,0.95074462890625,36.08000183105469,0.0,-161.0,3.2867889404296875,-1.007476806640625,Closing,0.0,0.0,3.0,0.0,0.0,0.0,0.0,0.0,
3.0637609999999986,0.0,0.0,48281.0,0.75,450.0,0.0,0.0,0.125,0.799560465,0.01,0.01342773300000033,-50981.0,1.0,-427.5,-0.0,0.0,0.25,0.47851557600000005,0.01,0.009765623999999917,22491.0,0.25,360.0,0.0,0.0,0.0,3.350829735,0.01,0.0,-53375.0,0.25,-480.0,-0.0,0.0,0.25,1.6113279600000001,0.01,0.009765623999999917,0.2800000011920929,-2.0899999141693115,-23.329999923706055,-0.21112060546875,-0.01812744140625,0.91339111328125,36.08000183105469,0.0,-154.0,3.270843505859375,-1.0123138427734375,Closing,0.0,0.0,3.0,0.0,0.0,0.0,0.0,0.0,
3.1311659999999684,0.0,0.0,48332.0,0.625,322.5,0.0,0.0,0.125,0.799560465,0.01,0.003662108999999525,-51040.0,0.875,-300.0,-0.0,0.0,0.25,0.47851557600000005,0.01,0.0,22515.0,0.375,165.0,0.0,0.0,0.0,3.349609032,0.01,0.0,-53375.0,0.25,-330.0,-0.0,0.0,0.25,1.6101072570000001,0.01,0.0,0.28999999165534973,-2.4700000286102295,-23.260000228881836,-0.17791748046875,-0.0264892578125,0.94793701171875,36.08000183105469,0.0,-113.0,3.254302978515625,-1.0181732177734375,Closing,0.0,0.0,3.0,0.0,0.0,0.0,0.0,0.0,
3.195543000000005,0.0,0.0,48332.0,0.375,150.0,0.0,0.0,0.125,0.799560465,0.01,0.0012207030000004337,-51061.0,0.625,-172.5,-0.0,0.0,0.25,0.47851557600000005,0.01,0.0,22515.0,0.375,142.5,0.0,0.0,0.0,3.349609032,0.01,0.0,-53400.0,0.125,-150.0,-0.0,0.0,0.25,1.6113279600000001,0.01,0.0,0.3100000023841858,-2.859999895095825,-23.290000915527344,-0.1485595703125,0.0439453125,1.03424072265625,36.08000183105469,0.0,-103.0,3.2301483154296875,-1.02691650390625,Closing,0.0,0.0,3.0,0.0,0.0,0.0,0.0,0.0,
3.271414999999979,0.0,0.0,48345.0,0.125,52.5,0.0,0.0,0.125,0.795898356,0.01,0.0012207029999995456,-51061.0,0.25,-30.0,-0.0,0.0,0.25,0.483398388,0.01,-0.0012207030000004337,22536.0,0.125,112.5,0.0,0.0,0.0,3.350829735,0.01,-0.0012207029999995456,-53400.0,0.125,-37.5,-0.0,0.0,0.25,1.6113279600000001,0.01,0.0,0.28999999165534973,-2.9800000190734863,-23.280000686645508,-0.03424072265625,0.01239013671875,1.02423095703125,36.060001373291016,0.0,14.0,3.2089691162109375,-1.0325927734375,Closing,0.0,0.0,3.0,0.0,0.0,0.0,0.0,0.0,
3.37194299999997,0.0,0.0,48341.0,0.125,-22.5,0.0,0.0,0.125,0.799560465,0.01,-0.0012207029999995456,-51061.0,0.0,0.0,-0.0,0.0,0.25,0.4882812,0.01,0.004882811999999959,22538.0,0.375,7.5,0.0,0.0,0.0,3.348388329,0.01,0.0012207029999995456,-53401.0,0.125,0.0,-0.0,0.0,0.25,1.6064451480000002,0.01,0.0,0.28999999165534973,-2.7799999713897705,-23.229999542236328,0.0362548828125,0.00970458984375,1.00299072265625,36.060001373291016,0.0,76.0,3.210052490234375,-1.0323333740234375,Closing,0.0,0.0,3.0,0.0,0.0,0.0,0.0,0.0,
3.4299290000000036,0.0,0.0,48341.0,0.125,-15.0,420.0,0.0,1.75,0.8044432770000001,0.5498168668524888,0.0,-51061.0,0.125,0.0,-420.0,0.0,7.125,0.589599549,1.9285545897722227,0.006103515000000392,22538.0,1.125,0.0,420.0,0.0,1.375,3.277587555,4.389674732977289,0.0,-53406.0,0.375,0.0,-420.0,0.0,7.75,1.339111191,3.0316872062785585,0.0,0.25999999046325684,-2.5299999713897705,-23.31999969482422,0.0540771484375,0.081298828125,0.95916748046875,36.060001373291016,0.0,58.0,3.2132415771484375,-1.0308837890625,Closing,0.0,0.0,3.0,0.0,0.0,0.0,0.0,0.0,
3.5096319999999834,0.0,0.0,48345.0,0.125,30.0,420.0,0.0,1.125,1.1596678500000002,0.5498168668524888,-4.786987343,-51066.0,0.125,-82.5,-420.0,0.0,1.25,1.203613158,1.9285545897722227,0.31372067099999956,22539.0,2.25,0.0,420.0,0.0,0.625,2.9443356360000004,4.389674732977289,-0.1794433409999998,-53406.0,1.5,-75.0,-420.0,0.0,1.875,0.7910155440000001,3.0316872062785585,-0.3393554339999998,0.28999999165534973,-2.2300000190734863,-23.219999313354492,0.05682373046875,-0.02752685546875,1.0157470703125,36.060001373291016,0.0,101.0,3.2192230224609375,-1.0273895263671875,Closing,0.0,0.0,3.0,0.0,0.0,0.0,0.0,0.0,
3.5818630000000122,0.0,0.0,48345.0,0.375,82.5,420.0,0.0,0.625,1.357421736,0.5498168668524888,0.28198239300000005,-51096.0,0.125,-187.5,-420.0,0.0,1.25,1.77001935,1.9285545897722227,0.5505370530000002,22539.0,3.625,7.5,420.0,0.0,0.25,2.7880856520000004,4.389674732977289,-0.27343747199999946,-53411.0,2.375,-22.5,-420.0,0.0,2.125,0.346679652,3.0316872062785585,-0.5163573689999996,0.23999999463558197,-2.059999942779541,-23.3799991607666,0.0341796875,-0.0203857421875,1.00152587890625,36.060001373291016,0.0,74.0,3.2260284423828125,-1.02471923828125,Closing,0.0,0.0,3.0,0.0,0.0,0.0,0.0,0.0,
3.633493000000017,0.0,0.0,48367.0,0.375,150.0,420.0,0.0,0.125,1.386718608,0.5498168668524888,0.0,-51096.0,0.875,-112.5,-420.0,0.0,0.5,2.309570076,1.9285545897722227,0.0,22540.0,4.75,7.5,420.0,0.0,0.0,2.769775107,4.389674732977289,0.0,-53421.0,3.375,-15.0,-420.0,0.0,0.875,4.781493651,3.0316872062785585,0.0,0.1899999976158142,-1.9299999475479126,-24.229999542236328,-0.056640625,0.02435302734375,0.982666015625,36.060001373291016,0.0,-30.0,3.236236572265625,-1.0245513916015625,Closing,0.0,0.0,3.0,0.0,0.0,0.0,0.0,0.0,
3.724926999999967,0.0,0.0,48391.0,0.75,157.5,420.0,0.0,0.25,1.385497905,0.5498168668524888,0.020751951000000046,-51115.0,1.25,-127.5,-420.0,0.0,0.5,2.57568333,1.9285545897722227,0.5517577560000002,22569.0,5.25,165.0,420.0,0.0,0.0,2.706298551,4.389674732977289,0.0,-53421.0,3.125,-112.5,-420.0,0.0,0.875,4.530028833,3.0316872062785585,0.0,0.30000001192092896,-2.0999999046325684,-25.6200008392334,-0.06329345703125,0.05621337890625,0.93170166015625,36.060001373291016,0.0,-48.0,3.245330810546875,-1.0244598388671875,Closing,0.0,0.0,3.0,0.0,0.0,0.0,0.0,0.0,
3.802755999999994,0.0,0.0,48391.0,0.75,202.5,420.0,0.0,0.25,1.385497905,0.5498168668524888,0.0012207029999999897,-51156.0,1.25,-240.0,-420.0,0.0,0.25,2.604980202,1.9285545897722227,0.22949216399999983,22569.0,4.5,247.5,420.0,0.0,0.0,2.73437472,4.389674732977289,-0.0341796840000006,-53457.0,3.375,-202.5,-420.0,0.0,0.25,4.484862822,3.0316872062785585,-0.22949216400000072,0.4399999976158142,-2.2300000190734863,-27.239999771118164,-0.08209228515625,0.06439208984375,1.07733154296875,36.119998931884766,0.0,-61.0,3.2510833740234375,-1.0238494873046875,Closing,0.0,0.0,3.0,0.0,0.0,0.0,0.0,0.0,
3.8668989999999757,0.0,0.0,48431.0,0.75,270.0,420.0,0.0,0.25,1.386718608,0.5498168668524888,-0.0012207029999999897,-51156.0,0.75,-337.5,-420.0,0.0,0.25,2.601318093,1.9285545897722227,0.031738278000000175,22609.0,5.25,240.0,420.0,0.0,0.125,2.7453610470000003,4.389674732977289,0.0,-53457.0,2.5,-345.0,-420.0,0.0,0.375,4.510497585,3.0316872062785585,-0.04516601099999917,0.4399999976158142,-2.109999895095825,-29.760000228881836,-0.03399658203125,0.045654296875,1.0504150390625,36.119998931884766,0.0,-14.0,3.2581024169921875,-1.0233917236328125,Closing,0.0,0.0,3.0,0.0,0.0,0.0,0.0,0.0,
3.9408640000000013,0.0,0.0,48482.0,0.75,307.5,420.0,0.0,0.25,1.385497905,0.5498168668524888,0.0,-51216.0,0.5,-375.0,-420.0,0.0,0.25,2.565917706,1.9285545897722227,0.0,22629.0,6.0,157.5,420.0,0.0,0.0,2.7502438590000002,4.389674732977289,0.0,-53518.0,2.25,-390.0,-420.0,0.0,0.25,4.581298359,3.0316872062785585,0.0,0.5299999713897705,-1.909999966621399,-32.529998779296875,0.01080322265625,-0.071533203125,1.01080322265625,36.119998931884766,0.0,81.0,3.266143798828125,-1.0223236083984375,Closing,0.0,0.0,3.0,0.0,0.0,0.0,0.0,0.0,
4.0131900000000025,0.0,0.0,48482.0,0.75,322.5,420.0,0.0,0.25,1.386718608,0.5498168668524888,0.0,-51282.0,0.375,-397.5,-420.0,0.0,0.25,2.4841306050000003,1.9285545897722227,-0.037841793000000123,22629.0,8.125,142.5,420.0,0.0,0.0,2.757568077,4.389674732977289,0.0,-53591.0,2.0,-427.5,-420.0,0.0,0.375,4.654540539,3.0316872062785585,0.0,0.5,-1.7899999618530273,-36.060001373291016,0.0791015625,0.013916015625,1.0384521484375,36.119998931884766,0.0,87.0,3.2777862548828125,-1.0218658447265625,Closing,0.0,0.0,3.0,0.0,0.0,0.0,0.0,0.0,
4.103010999999999,0.0,0.0,48538.0,0.75,345.0,420.0,0.0,0.25,1.385497905,0.5498168668524888,-0.0012207029999999897,-51282.0,0.375,-405.0,-420.0,0.0,0.25,2.4353024850000002,1.9285545897722227,-0.08789061600000014,22662.0,8.125,180.0,420.0,0.0,0.0,2.755126671,4.389674732977289,0.004882811999999959,-53591.0,1.625,-457.5,-420.0,0.0,0.25,4.689940926,3.0316872062785585,0.0805663980000002,0.5899999737739563,-1.4800000190734863,-38.630001068115234,0.0040283203125,0.01043701171875,1.079833984375,36.119998931884766,0.0,25.0,3.2867279052734375,-1.0209503173828125,Closing,0.0,0.0,3.0,0.0,0.0,0.0,0.0,0.0,
4.164801999999967,0.0,0.0,48538.0,0.5,382.5,420.0,0.0,0.25,1.386718608,0.5498168668524888,0.0024414059999999793,-51350.0,0.375,-420.0,-420.0,0.0,0.25,2.391357177,1.9285545897722227,-0.0476074169999996,22662.0,7.75,330.0,420.0,0.0,0.0,2.760009483,4.389674732977289,0.004882811999999959,-53669.0,1.25,-480.0,-420.0,0.0,0.125,4.698485847000001,3.0316872062785585,0.028076169000000206,0.6600000262260437,-1.3300000429153442,-41.43000030517578,0.018310546875,0.00531005859375,0.99835205078125,36.119998931884766,0.0,35.0,3.296417236328125,-1.0192413330078125,Closing,0.0,0.0,3.0,0.0,0.0,0.0,0.0,0.0,
4.2328740000000105,0.0,0.0,48604.0,0.375,442.5,420.0,0.0,0.25,1.385497905,0.5498168668524888,0.0,-51350.0,0.25,-442.5,-420.0,0.0,0.25,2.357177493,1.9285545897722227,0.0,22741.0,5.125,517.5,420.0,0.0,0.0,2.75878878,4.389674732977289,0.0,-53669.0,1.0,-495.0,-420.0,0.0,0.25,4.678954599,3.0316872062785585,0.0,0.8299999833106995,-1.0800000429153442,-46.779998779296875,0.01177978515625,0.024658203125,1.03680419921875,36.119998931884766,0.0,14.0,3.3013916015625,-1.01458740234375,Closing,0.0,0.0,3.0,0.0,0.0,0.0,0.0,0.0,
4.324197999999975,0.0,0.0,48683.0,0.125,495.0,420.0,0.0,0.25,1.386718608,0.5498168668524888,0.0012207029999999897,-51422.0,0.125,-457.5,-420.0,0.0,0.25,2.366943117,1.9285545897722227,-0.024414060000000237,22797.0,5.25,345.0,420.0,0.0,0.0,2.75878878,4.389674732977289,0.0,-53748.0,0.75,-480.0,-420.0,0.0,0.25,4.670409678,3.0316872062785585,0.0,0.8299999833106995,-0.9700000286102295,-51.560001373291016,-0.01776123046875,-0.007080078125,1.0042724609375,36.13999938964844,0.0,16.0,3.3012847900390625,-1.0130615234375,Closing,0.0,0.0,3.0,0.0,0.0,0.0,0.0,0.0,
4.4317870000000115,0.0,0.0,48758.0,0.125,457.5,420.0,0.0,0.25,1.386718608,0.5498168668524888,0.0,-51494.0,0.125,-427.5,-420.0,0.0,0.25,2.401122801,1.9285545897722227,0.0,22863.0,7.125,442.5,420.0,0.0,0.0,2.75878878,4.389674732977289,0.0,-53828.0,0.625,-495.0,-420.0,0.0,0.125,4.664306163,3.0316872062785585,0.0,0.9100000262260437,-0.800000011920929,-59.099998474121094,0.0052490234375,-0.02777099609375,0.98876953125,36.13999938964844,0.0,47.0,3.3014678955078125,-1.01336669921875,Closing,0.0,0.0,3.0,0.0,0.0,0.0,0.0,0.0,
4.53098999999999,0.0,0.0,48758.0,0.125,472.5,420.0,0.0,0.25,1.386718608,0.5498168668524888,0.0024414059999999793,-51570.0,0.125,-450.0,-420.0,0.0,0.25,2.414550534,1.9285545897722227,0.035400387000000144,22863.0,5.0,562.5,420.0,0.0,0.0,2.760009483,4.389674732977289,0.0,-53910.0,0.625,-510.0,-420.0,0.0,0.125,4.664306163,3.0316872062785585,0.0012207029999995456,0.9200000166893005,-0.7300000190734863,-61.68000030517578,-0.081298828125,0.0147705078125,0.972412109375,36.13999938964844,0.0,-31.0,3.301666259765625,-1.0134124755859375,Closing,0.0,0.0,3.0,0.0,0.0,0.0,0.0,0.0,
4.593765000000014,0.0,0.0,48841.0,0.0,525.0,420.0,0.0,0.25,1.385497905,0.5498168668524888,0.0,-51570.0,0.125,-510.0,-420.0,0.0,0.125,2.418212643,1.9285545897722227,0.0,22955.0,4.5,585.0,420.0,0.0,0.0,2.760009483,4.389674732977289,0.0,-53910.0,0.375,-555.0,-420.0,0.0,0.125,4.6630854600000005,3.0316872062785585,0.0,0.8999999761581421,-0.6800000071525574,-65.94000244140625,-0.00726318359375,-0.0147705078125,1.03216552734375,36.13999938964844,0.0,30.0,3.301727294921875,-1.01422119140625,Closing,0.0,0.0,3.0,0.0,0.0,0.0,0.0,0.0,
4.662831000000006,0.0,0.0,48924.0,0.125,525.0,420.0,0.0,0.25,1.385497905,0.5498168668524888,0.0,-51652.0,0.0,-502.5,-420.0,0.0,0.125,2.421874752,1.9285545897722227,0.0012207029999999897,22955.0,3.875,592.5,420.0,0.0,0.0,2.760009483,4.389674732977289,0.0,-53998.0,0.375,-540.0,-420.0,0.0,0.125,4.664306163,3.0316872062785585,0.0,0.8500000238418579,-0.5699999928474426,-70.0199966430664,-0.07574462890625,0.03729248046875,1.015625,36.13999938964844,0.0,-43.0,3.3023529052734375,-1.0144195556640625,Closing,0.0,0.0,3.0,0.0,0.0,0.0,0.0,0.0,
4.729354999999981,0.0,0.0,48924.0,0.125,495.0,0.0,0.0,2.125,1.2670897140000001,0.01,0.0,-51652.0,0.0,-487.5,-0.0,0.0,9.25,2.250976332,0.01,0.0,23047.0,1.5,540.0,0.0,0.0,2.375,2.9565426660000003,0.01,0.0,-54061.0,0.125,-450.0,-0.0,0.0,7.25,4.921874496,0.01,0.0,0.7900000214576721,-0.6000000238418579,-73.80000305175781,0.03961181640625,0.03863525390625,0.98431396484375,36.13999938964844,0.0,-9.0,3.3034515380859375,-1.0153350830078125,Closing,0.0,0.0,3.0,0.0,0.0,0.0,0.0,0.0,
4.81022100000002,0.0,0.0,48993.0,0.125,420.0,0.0,0.0,0.625,0.942382716,0.01,-0.16601560799999993,-51724.0,0.25,-360.0,-0.0,0.0,1.125,1.7358396660000002,0.01,-0.20141599499999963,23116.0,0.75,412.5,0.0,0.0,0.625,3.2739254460000002,0.01,0.20141599499999963,-54061.0,0.125,-360.0,-0.0,0.0,1.5,0.513915963,0.01,0.25146481800000053,0.75,-0.1599999964237213,-76.5,0.12347412109375,-0.01361083984375,0.8848876953125,36.150001525878906,0.0,54.0,3.305694580078125,-1.0142669677734375,Closing,0.0,0.0,3.0,0.0,0.0,0.0,0.0,0.0,
4.887638999999966,0.0,0.0,48993.0,0.125,315.0,0.0,0.0,0.375,0.8154296040000001,0.01,-0.3039550470000001,-51741.0,0.0,-165.0,-0.0,0.0,1.5,1.1853026130000002,0.01,-0.5432128350000003,23116.0,1.25,262.5,0.0,0.0,0.25,3.398437152,0.01,0.0,-54102.0,0.125,-240.0,-0.0,0.0,1.625,1.093749888,0.01,0.0,0.800000011920929,-0.3100000023841858,-77.29000091552734,-0.1195068359375,0.0059814453125,0.95526123046875,36.150001525878906,0.0,-17.0,3.308807373046875,-1.0115509033203125,Closing,0.0,0.0,3.0,0.0,0.0,0.0,0.0,0.0,
4.9618489999999875,0.0,0.0,49031.0,0.125,187.5,0.0,0.0,0.25,0.7751464050000001,0.01,4.808959997,-51741.0,0.0,-7.5,-0.0,0.0,1.5,0.704345631,0.01,-0.5651854889999997,23141.0,1.625,142.5,0.0,0.0,0.125,3.403319964,0.01,-4.834198839,-54102.0,0.125,-112.5,-0.0,0.0,1.5,1.533202968,0.01,0.5456542410000003,0.7200000286102295,-0.5400000214576721,-77.37999725341797,-0.08868408203125,-0.03369140625,1.01953125,36.150001525878906,0.0,28.0,3.31103515625,-1.0116119384765625,Closing,0.0,0.0,3.0,0.0,0.0,0.0,0.0,0.0,
5.025631999999983,0.0,0.0,49037.0,0.125,45.0,0.0,0.0,0.25,0.771484296,0.01,-0.01831054500000029,-51741.0,0.0,0.0,-0.0,0.0,0.5,0.386962851,0.01,-0.469970655,23141.0,1.875,37.5,0.0,0.0,0.125,3.385009419,0.01,0.0,-54118.0,0.125,-67.5,-0.0,0.0,0.5,1.800536925,0.01,0.0,0.6700000166893005,-0.5899999737739563,-77.27999877929688,0.025390625,0.020263671875,0.9578857421875,36.150001525878906,0.0,0.0,3.31439208984375,-1.013031005859375,Closing,0.0,0.0,3.0,0.0,0.0,0.0,0.0,0.0,
5.111201000000001,0.0,0.0,49037.0,0.0,15.0,8.4,0.0,0.25,0.7897948410000001,0.01,0.003662109000000413,-51741.0,0.0,0.0,-8.4,0.0,0.25,0.357665979,0.01,-0.26733395699999996,23145.0,2.25,7.5,8.4,0.0,0.125,3.3740230920000003,0.01,-0.019531247999999835,-54118.0,0.125,-37.5,-8.4,0.0,0.375,1.800536925,0.01,-4.727287133,0.6600000262260437,-0.5600000023841858,-77.29000091552734,-0.01275634765625,-0.00604248046875,1.00811767578125,36.150001525878906,0.0,16.0,3.3158111572265625,-1.012603759765625,Closing,0.0,0.0,3.0,0.0,0.0,0.0,0.0,0.0,
5.183591000000015,0.0,0.0,49039.0,0.125,15.0,8.4,0.0,0.25,0.7897948410000001,0.01,0.009765623999999917,-51741.0,0.0,0.0,-8.4,0.0,0.25,0.416259723,0.01,-0.01342773300000033,23149.0,2.5,22.5,8.4,0.0,0.0,3.3740230920000003,0.01,-0.010986326999999907,-54121.0,0.125,-7.5,-8.4,0.0,0.25,1.7126463090000001,0.01,-0.009765623999999917,0.6399999856948853,-0.5699999928474426,-77.30000305175781,-0.0184326171875,0.0023193359375,1.01434326171875,36.150001525878906,0.0,7.0,3.315948486328125,-1.012725830078125,Closing,0.0,0.0,3.0,0.0,0.0,0.0,0.0,0.0,
5.2335860000000105,0.0,0.0,49039.0,0.125,7.5,8.4,0.0,0.25,0.795898356,0.01,0.0,-51742.0,0.0,0.0,-8.4,0.0,0.25,0.43945308000000005,0.01,0.05737304099999996,23149.0,2.5,7.5,8.4,0.0,0.0,3.3740230920000003,0.01,0.0,-54122.0,0.375,0.0,-8.4,0.0,0.25,1.669921704,0.01,0.0,0.6299999952316284,-0.6100000143051147,-77.2699966430664,-0.02252197265625,-0.0030517578125,1.01202392578125,36.150001525878906,0.0,11.0,3.315948486328125,-1.012725830078125,Closing,0.0,0.0,3.0,0.0,0.0,0.0,0.0,0.0,
5.314994000000006,0.0,0.0,49040.0,0.125,0.0,8.4,0.0,0.125,0.7922362470000001,0.01,0.004882811999999959,-51742.0,0.0,0.0,-8.4,0.0,0.25,0.456542922,0.01,0.03906249599999967,23150.0,2.375,7.5,8.4,0.0,0.0,3.3740230920000003,0.01,0.0,-54122.0,0.125,-22.5,-8.4,0.0,0.25,1.639404129,0.01,-0.04394530800000007,0.6100000143051147,-0.6299999952316284,-77.2699966430664,-0.0098876953125,0.0130615234375,1.01043701171875,36.150001525878906,0.0,-1.0,3.315948486328125,-1.012725830078125,Closing,0.0,0.0,3.0,0.0,0.0,0.0,0.0,0.0,
5.393446999999986,0.0,0.0,49041.0,0.0,7.5,0.0,0.0,0.125,0.794677653,0.01,0.0,-51742.0,0.0,0.0,-0.0,0.0,0.25,0.468749952,0.01,0.0,23150.0,2.5,0.0,0.0,0.0,0.0,3.3752437950000003,0.01,0.0,-54127.0,0.125,-22.5,-0.0,0.0,0.125,1.639404129,0.01,0.0,0.5899999737739563,-0.6200000047683716,-77.2699966430664,-0.00933837890625,-0.00250244140625,1.0167236328125,36.150001525878906,0.0,13.0,3.315948486328125,-1.012725830078125,Closing,0.0,0.0,3.0,0.0,0.0,0.0,0.0,0.0,
5.508588999999978,0.0,0.0,49046.0,0.125,7.5,420.0,0.0,0.125,0.794677653,0.01,0.0,-51743.0,0.375,-15.0,-420.0,0.0,0.25,0.49316401200000004,0.01,0.02441406000000068,23151.0,5.0,0.0,420.0,0.0,0.0,3.3703609830000003,0.01,-0.0012207029999999897,-54127.0,0.75,-22.5,-420.0,0.0,0.125,1.6308592080000002,0.01,0.0,0.5699999928474426,-0.5699999928474426,-77.27999877929688,0.0245361328125,0.0067138671875,1.05584716796875,36.150001525878906,0.0,11.0,3.3160400390625,-1.01251220703125,Closing,0.0,0.0,3.0,0.0,0.0,0.0,0.0,0.0,
5.657160999999964,0.0,0.0,49077.0,0.125,202.5,433.99691499659593,0.0,0.125,0.7897948410000001,0.19990668299535622,0.0,-51776.0,1.0,-180.0,-433.99691499659593,0.0,0.25,0.520019478,0.20118416436062547,0.028076168999999318,23164.0,8.25,60.0,433.99691499659593,0.0,0.0,3.3740230920000003,0.20023696617837533,-0.0012207029999999897,-54150.0,1.25,-82.5,-433.99691499659593,0.0,0.25,1.645507644,0.20095030327754532,0.0,0.5699999928474426,-0.15000000596046448,-77.30999755859375,0.05584716796875,-0.01788330078125,1.0631103515625,36.150001525878906,0.0,40.0,3.3188018798828125,-1.003875732421875,Closing,0.0,0.0,3.0,0.0,0.0,0.0,0.0,0.0,
5.769527999999991,0.0,0.0,49104.0,0.75,165.0,435.66151586552843,0.0,0.375,0.9228514680000001,0.21112141543098661,-4.874877959,-51802.0,1.875,-172.5,-435.66151586552843,0.0,0.25,0.6726073530000001,0.21247056329328504,0.08300780400000018,23195.0,9.25,165.0,435.66151586552843,0.0,0.25,3.4753414410000003,0.21147022744690938,0.05004882300000002,-54172.0,2.125,-202.5,-435.66151586552843,0.0,0.375,1.746825993,0.2122235826414413,0.04394530800000007,0.6299999952316284,0.1599999964237213,-77.26000213623047,0.0845947265625,0.04156494140625,1.0714111328125,36.150001525878906,0.0,-11.0,3.3217926025390625,-0.9919281005859375,Closing,0.0,0.0,3.0,0.0,0.0,0.0,0.0,0.0,
5.9101979999999745,0.0,0.0,49152.0,0.5,300.0,432.4215651421655,0.0,0.375,1.0815428580000002,0.1886079175616436,0.16723631100000003,-51847.0,1.625,-315.0,-432.4215651421655,0.0,0.25,0.8178710100000001,0.18981319542638028,0.16845701400000035,23247.0,8.125,345.0,432.4215651421655,0.0,0.125,3.5815426020000003,0.18891953307354878,0.1159667849999999,-54216.0,1.875,-300.0,-432.4215651421655,0.0,0.375,1.885986135,0.18959255221817156,0.13305662699999998,0.8999999761581421,0.49000000953674316,-77.5199966430664,0.02093505859375,0.08343505859375,0.94964599609375,36.20000076293945,0.0,-63.0,3.3218994140625,-0.9689178466796875,Closing,0.0,0.0,3.0,0.0,0.0,0.0,0.0,0.0,
6.040156000000017,0.0,0.0,49217.0,0.125,427.5,432.4215651421655,0.0,0.25,1.105956918,0.1886079175616436,0.08666991299999993,-51905.0,1.125,-412.5,-432.4215651421655,0.0,0.25,0.8288573370000001,0.18981319542638028,0.0,23316.0,6.5,450.0,432.4215651421655,0.0,0.125,3.5705562750000004,0.18891953307354878,0.0,-54330.0,1.625,-390.0,-432.4215651421655,0.0,0.25,1.937255661,0.18959255221817156,0.0,1.059999942779541,0.6000000238418579,-78.01000213623047,0.0306396484375,0.07275390625,0.90771484375,36.20000076293945,0.0,-50.0,3.31695556640625,-0.9476776123046875,Closing,0.0,0.0,3.0,0.0,0.0,0.0,0.0,0.0,
6.1724259999999775,0.0,0.0,49290.0,0.125,442.5,435.66151586552843,0.0,0.25,1.0571287980000001,0.21112141543098661,-0.04272460499999986,-51975.0,1.0,-427.5,-435.66151586552843,0.0,0.25,0.761718672,0.21247056329328504,-0.024414059999999793,23399.0,5.25,525.0,435.66151586552843,0.0,0.0,3.547362918,0.21147022744690938,-0.024414060000000237,-54330.0,1.375,-420.0,-435.66151586552843,0.0,0.25,1.8664548870000002,0.2122235826414413,-0.007324217999999938,0.9599999785423279,0.6499999761581421,-78.56999969482422,0.03033447265625,0.00335693359375,1.03302001953125,36.20000076293945,0.0,17.0,3.313201904296875,-0.946807861328125,Closing,0.0,0.0,3.0,0.0,0.0,0.0,0.0,0.0,
6.316410999999964,0.0,0.0,49359.0,0.125,472.5,429.5424908041695,0.0,0.25,1.020507708,0.16577361498556697,-0.04882812000000003,-52047.0,0.5,-472.5,-429.5424908041695,0.0,0.25,0.682372977,0.16683297278603781,-0.09765624000000006,23486.0,4.75,532.5,429.5424908041695,0.0,0.0,3.547362918,0.1660475039641525,-0.009765623999999917,-54476.0,1.25,-420.0,-429.5424908041695,0.0,0.25,1.7858884890000002,0.1666390423152514,-0.09765624000000006,0.7799999713897705,0.6200000047683716,-78.94999694824219,-0.003662109375,-0.001953125,1.0223388671875,36.20000076293945,0.0,12.0,3.314056396484375,-0.9462432861328125,Closing,0.0,0.0,3.0,0.0,0.0,0.0,0.0,0.0,
6.439523999999976,0.0,0.0,49442.0,0.125,502.5,425.9162806985224,0.0,0.25,0.9838866180000001,0.13099254219210868,0.0,-52201.0,0.25,-472.5,-425.9162806985224,0.0,0.25,0.6713866500000001,0.13182963542547274,0.0,23571.0,3.875,532.5,425.9162806985224,0.0,0.125,3.5290523730000003,0.13120896634131024,0.0,-54559.0,0.625,-525.0,-425.9162806985224,0.0,0.25,1.781005677,0.13167639363618658,0.0,0.6499999761581421,0.47999998927116394,-79.06999969482422,-0.04571533203125,0.03424072265625,1.0189208984375,36.18000030517578,0.0,-32.0,3.3148345947265625,-0.9474029541015625,Closing,0.0,0.0,3.0,0.0,0.0,0.0,0.0,0.0,
6.573233000000007,0.0,0.0,49524.0,0.375,510.0,420.19691087185544,0.0,0.25,0.9582518550000001,0.02403287237242459,-0.029296871999999974,-52277.0,0.25,-480.0,-420.19691087185544,0.0,0.25,0.662841729,0.024186451763316588,0.0,23658.0,3.125,540.0,420.19691087185544,0.0,0.125,3.4704586290000004,0.024072579166941513,-0.04394530800000007,-54638.0,0.625,-487.5,-420.19691087185544,0.0,0.25,1.771240053,0.024158336877519233,0.0,0.5600000023841858,0.36000001430511475,-79.2699966430664,-0.02850341796875,-0.0057373046875,1.03106689453125,36.18000030517578,0.0,9.0,3.3156280517578125,-0.9487457275390625,Closing,0.0,0.0,3.0,0.0,0.0,0.0,0.0,0.0,
6.714038,0.0,0.0,49687.0,0.125,495.0,420.4429197751611,0.0,0.25,0.78124992,4.896215757744391,-0.0927734280000001,-52348.0,0.25,-435.0,-420.4429197751611,0.0,0.25,0.509033151,4.927504478547194,-0.09399413099999965,23825.0,2.875,510.0,420.4429197751611,0.0,0.125,3.336181299,4.904305220792776,-0.104980458,-54714.0,0.75,-435.0,-420.4429197751611,0.0,0.25,1.616210772,4.921776634420408,-0.08789061599999992,0.27000001072883606,0.18000000715255737,-79.61000061035156,-0.0086669921875,-0.038330078125,0.96453857421875,36.18000030517578,0.0,40.0,3.317413330078125,-0.95098876953125,Closing,0.0,0.0,3.0,0.0,0.0,0.0,0.0,0.0,
6.8483399999999675,0.0,0.0,49762.0,0.375,465.0,420.7870906111546,0.0,0.125,0.760497969,4.884230223231326,4.83459476,-52417.0,0.375,-427.5,-420.7870906111546,0.0,0.125,0.43945308000000005,4.91544235181238,-0.10375975499999956,23901.0,2.875,480.0,420.7870906111546,0.0,0.0,3.286132476,4.89229988393779,0.0,-54775.0,0.625,-472.5,-420.7870906111546,0.0,0.125,1.549072107,4.909728528978131,0.0,0.07999999821186066,0.019999999552965164,-79.81999969482422,0.0142822265625,-0.030029296875,1.0570068359375,36.13999938964844,0.0,33.0,3.322418212890625,-0.953216552734375,Closing,0.0,0.0,3.0,0.0,0.0,0.0,0.0,0.0,
6.970353999999992,0.0,0.0,49832.0,0.375,435.0,423.9696204936888,0.0,0.125,0.761718672,4.824746445161359,-0.019531247999999835,-52489.0,0.25,-442.5,-423.9696204936888,0.0,0.25,0.435790971,4.855578449291936,-0.03906249600000056,23974.0,3.125,450.0,423.9696204936888,0.0,0.125,3.276366852,4.832717827554839,0.0,-54852.0,0.625,-397.5,-423.9696204936888,0.0,0.25,1.544189295,4.849934213629845,0.0,0.09000000357627869,-0.10999999940395355,-80.05999755859375,-0.0316162109375,-0.03802490234375,1.0836181640625,36.13999938964844,0.0,34.0,3.3229522705078125,-0.95404052734375,Closing,0.0,0.0,3.0,0.0,0.0,0.0,0.0,0.0,
7.110730999999971,0.0,0.0,49901.0,0.375,427.5,427.0315920690178,0.0,0.25,0.728759691,4.789599983969735,0.0,-52558.0,0.25,-412.5,-427.0315920690178,0.0,0.25,0.43457026800000004,4.820207388559393,0.0,24044.0,3.0,435.0,427.0315920690178,0.0,0.125,3.248290683,4.797513297843942,-0.021972653999999814,-54917.0,0.75,-427.5,-427.0315920690178,0.0,0.25,1.542968592,4.814604269028877,0.0,0.05999999865889549,-0.14000000059604645,-80.22000122070312,-0.03338623046875,0.05035400390625,1.0433349609375,36.13999938964844,0.0,-53.0,3.323486328125,-0.956451416015625,Closing,0.0,0.0,3.0,0.0,0.0,0.0,0.0,0.0,
7.2458829999999725,0.0,0.0,49967.0,0.375,412.5,430.9364451129221,0.0,0.25,0.690917898,4.755022096236761,-0.03662108999999969,-52627.0,0.25,-420.0,-430.9364451129221,0.0,0.25,0.386962851,4.785408534690783,-0.024414059999999793,24113.0,2.875,427.5,430.9364451129221,0.0,0.125,3.2214352170000002,4.762878280981259,-0.035400387000000144,-54982.0,1.0,-405.0,-430.9364451129221,0.0,0.25,1.496581878,4.77984586614547,-0.019531248000000723,0.0,-0.18000000715255737,-80.3499984741211,-0.00152587890625,0.0174560546875,1.05023193359375,36.13999938964844,0.0,-16.0,3.3232421875,-0.9574432373046875,Closing,0.0,0.0,3.0,0.0,0.0,0.0,0.0,0.0,
7.369500999999989,0.0,0.0,50032.0,0.0,397.5,432.4215651421655,0.0,0.25,0.655517511,4.743643082438357,-0.035400387000000144,-52692.0,0.375,-405.0,-432.4215651421655,0.0,0.25,0.324706998,4.77395680457362,-0.06225585299999992,24182.0,3.0,420.0,432.4215651421655,0.0,0.125,3.177489909,4.751480466926451,-0.024414059999999793,-55039.0,1.0,-382.5,-432.4215651421655,0.0,0.25,1.442870946,4.768407447781828,-0.052490229,-0.07999999821186066,-0.23000000417232513,-80.37000274658203,-0.01251220703125,0.0286865234375,1.1142578125,36.15999984741211,0.0,-31.0,3.3234100341796875,-0.9590301513671875,Closing,0.0,0.0,3.0,0.0,0.0,0.0,0.0,0.0,
7.51313400000002,0.0,0.0,50097.0,0.0,405.0,433.99691499659593,0.0,0.25,0.631103451,4.732344317004644,-0.028076169000000206,-52821.0,0.5,-397.5,-433.99691499659593,0.0,0.125,0.324706998,4.762585835639374,-0.028076169000000206,24251.0,3.25,427.5,433.99691499659593,0.0,0.125,3.1567379580000003,4.7401630338216245,-0.03906249600000056,-55174.0,1.25,-412.5,-433.99691499659593,0.0,0.125,1.431884619,4.757049696722454,-0.03906249599999967,-0.10000000149011612,-0.2199999988079071,-80.44999694824219,0.00152587890625,0.053955078125,1.02001953125,36.15999984741211,0.0,-54.0,3.3240814208984375,-0.9597625732421875,Closing,0.0,0.0,3.0,0.0,0.0,0.0,0.0,0.0,
7.642445000000007,0.0,0.0,50161.0,0.0,412.5,435.66151586552843,0.0,0.25,0.6347655600000001,4.721129584569014,0.0,-52887.0,0.625,-405.0,-435.66151586552843,0.0,0.125,0.313720671,4.751299436706716,0.0,24320.0,3.125,427.5,435.66151586552843,0.0,0.125,3.1567379580000003,4.728929772553091,0.0,-55240.0,1.0,-412.5,-435.66151586552843,0.0,0.25,1.437988134,4.745776417358559,0.0,-0.12999999523162842,-0.20999999344348907,-80.5,0.01702880859375,-0.00921630859375,1.0220947265625,36.15999984741211,0.0,10.0,3.323699951171875,-0.9600372314453125,Closing,0.0,0.0,3.0,0.0,0.0,0.0,0.0,0.0,
7.774686999999976,0.0,0.0,50294.0,0.125,412.5,435.66151586552843,0.0,0.25,0.631103451,4.721129584569014,0.0,-52955.0,0.5,-420.0,-435.66151586552843,0.0,0.125,0.314941374,4.751299436706716,-0.004882812000000847,24459.0,3.0,427.5,435.66151586552843,0.0,0.125,3.1567379580000003,4.728929772553091,0.0,-55307.0,1.25,-435.0,-435.66151586552843,0.0,0.25,1.437988134,4.745776417358559,0.0,-0.09000000357627869,-0.20000000298023224,-80.47000122070312,0.0079345703125,0.02130126953125,1.0428466796875,36.15999984741211,0.0,-20.0,3.3238525390625,-0.9605712890625,Closing,0.0,0.0,3.0,0.0,0.0,0.0,0.0,0.0,
7.91713400000002,0.0,0.0,50362.0,0.125,427.5,435.66151586552843,0.0,0.25,0.631103451,4.721129584569014,0.0,-53025.0,0.625,-427.5,-435.66151586552843,0.0,0.125,0.319824186,4.751299436706716,0.0,24531.0,3.0,442.5,435.66151586552843,0.0,0.125,3.1555172550000004,4.728929772553091,0.0,-55374.0,1.25,-420.0,-435.66151586552843,0.0,0.25,1.437988134,4.745776417358559,0.0,-0.10000000149011612,-0.20000000298023224,-80.54000091552734,-0.01556396484375,-0.00286865234375,0.9288330078125,36.150001525878906,0.0,0.0,3.3235931396484375,-0.9593505859375,Closing,0.0,0.0,3.0,0.0,0.0,0.0,0.0,0.0,
8.045935999999987,0.0,0.0,50431.0,0.125,435.0,435.66151586552843,0.0,0.25,0.631103451,4.721129584569014,0.0,-53094.0,0.5,-427.5,-435.66151586552843,0.0,0.125,0.318603483,4.751299436706716,0.0,24603.0,2.75,442.5,435.66151586552843,0.0,0.125,3.1567379580000003,4.728929772553091,0.0,-55441.0,1.0,-420.0,-435.66151586552843,0.0,0.25,1.437988134,4.745776417358559,0.0,-0.03999999910593033,-0.2199999988079071,-80.55999755859375,-0.00494384765625,-0.0206298828125,1.01318359375,36.150001525878906,0.0,19.0,3.322357177734375,-0.957275390625,Closing,0.0,0.0,3.0,0.0,0.0,0.0,0.0,0.0,
8.177076000000001,0.0,0.0,50501.0,0.125,435.0,433.99691499659593,0.0,0.125,0.6323241540000001,4.732344317004644,0.0012207030000004337,-53164.0,0.5,-435.0,-433.99691499659593,0.0,0.125,0.319824186,4.762585835639374,0.0,24675.0,2.75,450.0,433.99691499659593,0.0,0.0,3.1567379580000003,4.7401630338216245,0.0,-55514.0,1.25,-367.5,-433.99691499659593,0.0,0.25,1.436767431,4.757049696722454,0.0,0.0,-0.28999999165534973,-80.55000305175781,-0.0465087890625,-0.0064697265625,0.96112060546875,36.150001525878906,0.0,0.0,3.322052001953125,-0.95574951171875,Closing,0.0,0.0,3.0,0.0,0.0,0.0,0.0,0.0,
8.30899199999997,0.0,0.0,50570.0,0.125,427.5,433.99691499659593,0.0,0.125,0.6323241540000001,4.732344317004644,-0.0012207030000004337,-53234.0,0.5,-435.0,-433.99691499659593,0.0,0.125,0.319824186,4.762585835639374,0.0,24749.0,2.5,457.5,433.99691499659593,0.0,0.0,3.1567379580000003,4.7401630338216245,0.0,-55591.0,1.0,-480.0,-433.99691499659593,0.0,0.25,1.436767431,4.757049696722454,0.0,0.0,-0.3199999928474426,-80.56999969482422,-0.026123046875,0.01611328125,0.97845458984375,36.150001525878906,0.0,-19.0,3.320953369140625,-0.9551849365234375,Closing,0.0,0.0,3.0,0.0,0.0,0.0,0.0,0.0,
8.447800999999977,0.0,0.0,50640.0,0.0,435.0,432.4215651421655,0.0,0.125,0.631103451,4.743643082438357,0.0,-53304.0,0.5,-427.5,-432.4215651421655,0.0,0.0,0.324706998,4.77395680457362,0.0,24822.0,2.5,450.0,432.4215651421655,0.0,0.0,3.1567379580000003,4.751480466926451,0.0,-55728.0,1.0,-435.0,-432.4215651421655,0.0,0.125,1.436767431,4.768407447781828,0.0,0.0,-0.3100000023841858,-80.63999938964844,-0.029296875,0.0048828125,1.0767822265625,36.13999938964844,0.0,-8.0,3.320281982421875,-0.9544677734375,Closing,0.0,0.0,3.0,0.0,0.0,0.0,0.0,0.0,
8.573225999999966,0.0,0.0,50709.0,0.0,427.5,432.4215651421655,0.0,0.125,0.631103451,4.743643082438357,0.0,-53373.0,0.5,-427.5,-432.4215651421655,0.0,0.0,0.318603483,4.77395680457362,0.0012207029999995456,24892.0,2.375,435.0,432.4215651421655,0.0,0.0,3.1628414730000003,4.751480466926451,0.0,-55728.0,1.0,-420.0,-432.4215651421655,0.0,0.125,1.437988134,4.768407447781828,-0.0012207030000004337,0.019999999552965164,-0.3700000047683716,-80.70999908447266,-0.03753662109375,-0.00506591796875,0.878662109375,36.13999938964844,0.0,0.0,3.3193817138671875,-0.95477294921875,Closing,0.0,0.0,3.0,0.0,0.0,0.0,0.0,0.0,
8.712299999999988,0.0,0.0,50777.0,0.125,412.5,429.54249080416946,0.0,0.125,0.6323241540000001,4.766477385014434,0.0012207030000004337,-53441.0,0.625,-427.5,-429.54249080416946,0.0,0.0,0.319824186,4.796937027213962,0.0,24962.0,2.5,435.0,429.54249080416946,0.0,0.0,3.14941374,4.774352496035848,0.0012207030000004337,-55857.0,1.25,-390.0,-429.54249080416946,0.0,0.125,1.437988134,4.7913609576847485,0.0,0.07000000029802322,-0.3700000047683716,-80.7300033569336,-0.0191650390625,-6.103515625E-4,1.04595947265625,36.13999938964844,0.0,0.0,3.319244384765625,-0.955230712890625,Closing,0.0,0.0,3.0,0.0,0.0,0.0,0.0,0.0,
8.83466399999999,0.0,0.0,50844.0,0.125,412.5,429.54249080416946,0.0,0.125,0.623779233,4.766477385014434,0.0,-53508.0,0.75,-420.0,-429.54249080416946,0.0,0.125,0.318603483,4.796937027213962,0.0,25032.0,2.5,427.5,429.54249080416946,0.0,0.0,3.1628414730000003,4.774352496035848,0.0,-55925.0,1.25,-450.0,-429.54249080416946,0.0,0.125,1.437988134,4.7913609576847485,0.0,0.05999999865889549,-0.38999998569488525,-80.8499984741211,-0.01727294921875,0.07666015625,1.0693359375,36.13999938964844,0.0,-76.0,3.319122314453125,-0.955322265625,Closing,0.0,0.0,3.0,0.0,0.0,0.0,0.0,0.0,
8.969864000000001,0.0,0.0,50911.0,0.125,420.0,428.24059247000696,0.0,0.125,0.631103451,4.778004792092225,-0.0012207030000004337,-53643.0,0.75,-412.5,-428.24059247000696,0.0,0.125,0.318603483,4.808538098901216,0.0012207029999995456,25101.0,2.5,427.5,428.24059247000696,0.0,0.0,3.1567379580000003,4.785898948543459,-0.0012207030000004337,-55995.0,1.25,-420.0,-428.24059247000696,0.0,0.25,1.437988134,4.802948544020418,0.0,0.07000000029802322,-0.36000001430511475,-81.0,-0.01788330078125,0.029541015625,0.99755859375,36.15999984741211,0.0,-21.0,3.3195648193359375,-0.955047607421875,Closing,0.0,0.0,3.0,0.0,0.0,0.0,0.0,0.0,
9.110745999999985,0.0,0.0,50980.0,0.125,427.5,428.24059247000696,0.0,0.125,0.631103451,4.778004792092225,0.0024414059999999793,-53711.0,0.75,-420.0,-428.24059247000696,0.0,0.25,0.318603483,4.808538098901216,-0.0012207029999995456,25170.0,2.375,442.5,428.24059247000696,0.0,0.0,3.1677242850000003,4.785898948543459,0.0,-56066.0,1.375,-457.5,-428.24059247000696,0.0,0.25,1.437988134,4.802948544020418,0.0,0.05999999865889549,-0.33000001311302185,-81.13999938964844,0.0028076171875,-0.03997802734375,1.00439453125,36.15999984741211,0.0,41.0,3.3213958740234375,-0.9531097412109375,Closing,0.0,0.0,3.0,0.0,0.0,0.0,0.0,0.0,
9.24592200000002,0.0,0.0,51116.0,0.125,427.5,427.0315920690178,0.0,0.25,0.6323241540000001,4.789599983969735,0.0,-53779.0,0.75,-420.0,-427.0315920690178,0.0,0.25,0.318603483,4.820207388559393,0.0,25310.0,2.375,435.0,427.0315920690178,0.0,0.0,3.171386394,4.797513297843942,0.014648435999999876,-56135.0,1.25,-457.5,-427.0315920690178,0.0,0.25,1.437988134,4.814604269028877,0.0012207030000004337,0.18000000715255737,-0.46000000834465027,-81.13999938964844,0.025390625,0.00689697265625,0.95257568359375,36.15999984741211,0.0,1.0,3.323638916015625,-0.9521331787109375,Closing,0.0,0.0,3.0,0.0,0.0,0.0,0.0,0.0,
9.323735999999975,0.0,0.0,51116.0,0.125,427.5,425.9162806985224,0.0,0.25,0.629882748,4.801258457807891,-0.006103514999999504,-53850.0,0.5,-435.0,-425.9162806985224,0.0,0.25,0.33081051300000003,4.831940364574527,0.0,25310.0,2.25,442.5,425.9162806985224,0.0,0.0,3.176269206,4.809191033658689,0.0024414059999999793,-56204.0,1.0,-435.0,-425.9162806985224,0.0,0.25,1.4465330550000002,4.826323606363813,-0.0012207030000004337,0.17000000178813934,-0.4099999964237213,-81.13999938964844,-0.03179931640625,-0.02984619140625,0.94561767578125,36.15999984741211,0.0,28.0,3.32373046875,-0.9515838623046875,Closing,0.0,0.0,3.0,0.0,0.0,0.0,0.0,0.0,
9.444521999999997,0.0,0.0,51255.0,0.0,420.0,425.9162806985224,0.0,0.25,0.649413996,4.801258457807891,0.0,-53917.0,0.75,-412.5,-425.9162806985224,0.0,0.125,0.367431603,4.831940364574527,0.0,25452.0,2.25,420.0,425.9162806985224,0.0,0.0,3.190917642,4.809191033658689,0.0,-56271.0,1.0,-427.5,-425.9162806985224,0.0,0.25,1.491699066,4.826323606363813,0.0,0.14000000059604645,-0.4099999964237213,-81.23999786376953,-0.03057861328125,-0.01531982421875,1.19024658203125,36.099998474121094,0.0,14.0,3.3235015869140625,-0.9540557861328125,Closing,0.0,0.0,3.0,0.0,0.0,0.0,0.0,0.0,
9.64170000000001,0.0,0.0,51321.0,0.125,412.5,425.9162806985224,0.0,0.125,0.706787037,4.801258457807891,0.035400387000000144,-53985.0,0.75,-405.0,-425.9162806985224,0.0,0.0,0.372314415,4.831940364574527,0.019531247999999835,25521.0,2.125,435.0,425.9162806985224,0.0,0.0,3.194579751,4.809191033658689,0.0,-56339.0,1.0,-412.5,-425.9162806985224,0.0,0.125,1.5051267990000001,4.826323606363813,0.0,0.1899999976158142,-0.3700000047683716,-81.29000091552734,-0.0238037109375,-0.00238037109375,1.1478271484375,36.099998474121094,0.0,3.0,3.32318115234375,-0.954132080078125,Closing,0.0,0.0,3.0,0.0,0.0,0.0,0.0,0.0,
9.76990399999998,0.0,0.0,51388.0,0.125,420.0,0.0,0.0,0.125,0.688476492,0.01,0.01831054500000029,-54052.0,0.5,-420.0,-0.0,0.0,0.0,0.373535118,0.01,0.004882811999999959,25592.0,1.25,427.5,0.0,0.0,0.0,3.187255533,0.01,0.0,-56402.0,0.75,-397.5,-0.0,0.0,0.125,1.5051267990000001,0.01,0.004882811999999959,0.20999999344348907,-0.4300000071525574,-81.33999633789062,-0.043701171875,0.075439453125,0.960693359375,36.099998474121094,0.0,-76.0,3.3231048583984375,-0.954315185546875,Closing,0.0,0.0,3.0,0.0,0.0,0.0,0.0,0.0,
