Time,ClimberA1,ClimberA2,FRpos,FRCurrent,FRspeed,FRsetpoint,FRApos,FRACurrent,FREncpos,FREncSetpoint,FREncSpeed,FLpos,FLCurrent,FLspeed,FLsetpoint,FLApos,FLACurrent,FLEncpos,FLEncSetpoint,FLEncSpeed,BRpos,BRCurrent,BRspeed,BRsetpoint,BRApos,BRACurrent,BREncpos,BREncSetpoint,BREncSpeed,BLpos,BLCurrent,BLspeed,BLsetpoint,BLApos,BLACurrent,BLEncpos,BLEncSetpoint,BLEncSpeed,navx_Pitch,navx_Roll,navx_Yaw,navx_XAcc,navx_YAcc,navx_ZAcc,navx_Temp,navx_Bar,navx_Alt,navx_XDis,navx_YDis,GearPlacerState,ShootOutputV,ShootOutputCurrent,ShootEncPos,ShootEncVelocity,ShootSpeed,ShootSetpoint,CarouselSetpoint,CarouselCurrent,
0.14035499999998138,0.0,0.0,96844.0,0.0,0.0,0.0,0.0,0.25,0.812988198,0.01,0.0,-122165.0,0.0,0.0,0.0,0.0,0.125,0.49316401200000004,0.01,0.0,5519.0,0.0,0.0,0.0,0.0,0.125,3.38134731,0.01,0.0,-23152.0,0.125,0.0,0.0,0.0,0.25,1.6064451480000002,0.01,0.0,0.029999999329447746,-0.8100000023841858,-38.15999984741211,-0.0142822265625,0.00177001953125,1.016357421875,36.459999084472656,0.0,0.0,0.6432342529296875,-0.2881622314453125,Closing,0.0,0.0,3.0,0.0,0.0,0.0,0.0,0.0,
0.23925599999999395,0.0,0.0,96844.0,5.75,202.5,1260.0,0.0,0.25,0.798339762,0.01,0.0,-122207.0,8.0,-210.0,-1260.0,0.0,0.125,0.49316401200000004,0.01,0.0,5519.0,8.5,52.5,1260.0,0.0,0.125,3.342284814,0.01,0.0,-23182.0,6.625,-195.0,-1260.0,0.0,0.25,1.627197099,0.01,0.0,0.10000000149011612,0.10000000149011612,-38.189998626708984,0.3262939453125,-0.253662109375,0.62542724609375,36.459999084472656,0.0,413.0,0.646270751953125,-0.2866363525390625,Closing,0.0,0.0,3.0,0.0,0.0,0.0,0.0,0.0,
0.3441199999999953,0.0,0.0,96894.0,8.375,292.5,1260.0,0.0,0.25,0.794677653,4.931839995807818,-0.01831054500000029,-122268.0,11.125,-337.5,-1260.0,0.0,0.125,0.49316401200000004,4.96335636933136,0.0,5537.0,12.125,270.0,1260.0,0.0,0.0,3.347167626,4.939988316752116,0.0,-23230.0,8.875,-322.5,-1260.0,0.0,0.125,1.624755693,4.957586850145128,0.0,0.05000000074505806,0.6700000166893005,-38.189998626708984,0.20111083984375,0.05438232421875,1.202392578125,36.459999084472656,0.0,114.0,0.657745361328125,-0.2826385498046875,Closing,0.0,0.0,3.0,0.0,0.0,0.0,0.0,0.0,
0.4489189999999944,0.0,0.0,96969.0,10.375,585.0,1260.0,0.0,0.125,0.7910155440000001,4.931839995807818,-0.0024414059999999793,-122268.0,12.375,-667.5,-1260.0,0.0,0.125,0.49316401200000004,4.96335636933136,0.0,5596.0,14.125,412.5,1260.0,0.0,0.0,3.348388329,4.939988316752116,0.0,-23338.0,9.625,-630.0,-1260.0,0.0,0.25,1.625976396,4.957586850145128,0.0,0.07999999821186066,1.7599999904632568,-38.130001068115234,0.206298828125,-0.02496337890625,0.869384765625,36.41999816894531,0.0,157.0,0.679779052734375,-0.270416259765625,Closing,0.0,0.0,3.0,0.0,0.0,0.0,0.0,0.125,
0.5515900000000256,0.0,0.0,97102.0,8.125,907.5,1260.0,0.0,0.25,0.794677653,0.01,0.0,-122393.0,9.375,-960.0,-1260.0,0.0,0.125,0.5419921320000001,0.01,0.0,5674.0,17.125,547.5,1260.0,0.0,0.0,3.347167626,0.01,0.0,-23338.0,7.75,-900.0,-1260.0,0.0,0.125,1.617431475,0.01,0.0,0.14000000059604645,2.3299999237060547,-38.150001525878906,0.23358154296875,-0.05084228515625,0.76190185546875,36.41999816894531,0.0,191.0,0.710601806640625,-0.252838134765625,Closing,0.0,0.0,3.0,0.0,0.0,0.0,0.0,0.0,
0.6544780000000028,0.0,0.0,97284.0,5.875,1140.0,1260.0000000000002,0.0,0.25,0.798339762,0.01,0.0,-122568.0,6.5,-1177.5,-1260.0000000000002,0.0,0.25,0.599365173,0.01,0.0,5796.0,17.0,817.5,1260.0000000000002,0.0,0.0,3.348388329,0.01,0.0,-23494.0,5.75,-1117.5,-1260.0000000000002,0.0,0.125,1.627197099,0.01,0.0,0.30000001192092896,2.700000047683716,-38.470001220703125,0.10955810546875,0.04779052734375,1.2608642578125,36.41999816894531,0.0,13.0,0.7464141845703125,-0.231231689453125,Closing,0.0,0.0,3.0,0.0,0.0,0.0,0.0,0.125,
0.7636639999999898,0.0,0.0,97502.0,3.5,1357.5,1260.0000000000002,0.0,0.25,0.794677653,4.928003765046067,0.0,-122769.0,4.75,-1282.5,-1260.0000000000002,0.0,0.25,0.589599549,4.95949562356472,0.0,5955.0,16.125,1005.0,1260.0000000000002,0.0,0.0,3.347167626,4.936145747820537,0.0,-23684.0,4.5,-1252.5,-1260.0000000000002,0.0,0.125,1.6369627230000001,4.953730592197842,0.0,0.38999998569488525,2.880000114440918,-39.38999938964844,-0.02783203125,0.1815185546875,0.9193115234375,36.41999816894531,0.0,-168.0,0.789215087890625,-0.2047271728515625,Closing,0.0,0.0,3.0,0.0,0.0,0.0,0.0,0.0,
0.8694349999999976,0.0,0.0,97735.0,1.625,1447.5,1260.0,0.0,0.25,0.8007811680000001,4.915399148688349,0.0,-122987.0,3.25,-1365.0,-1260.0,0.0,0.25,0.532226508,4.94681045881176,0.0,6170.0,13.125,1320.0,1260.0,0.0,0.0,3.347167626,4.923520306282044,0.0,-23896.0,3.75,-1342.5,-1260.0,0.0,0.25,1.625976396,4.941060172971089,0.0,0.3499999940395355,2.9100000858306885,-40.20000076293945,0.02227783203125,0.05047607421875,0.911865234375,36.41999816894531,0.0,-47.0,0.8252716064453125,-0.1787261962890625,Closing,0.0,0.0,3.0,0.0,0.0,0.0,0.0,0.0,
0.9739639999999781,0.0,0.0,97972.0,0.875,1462.5,1260.0,0.0,0.25,0.7885741380000001,4.904301565123304,0.0,-123210.0,2.125,-1402.5,-1260.0,0.0,0.25,0.49438471500000003,4.93564195737648,0.0,6400.0,9.0,1455.0,1260.0,0.0,0.125,3.347167626,4.912404387435913,0.0,-24118.0,2.5,-1402.5,-1260.0,0.0,0.25,1.625976396,4.929904654057821,0.0,0.23000000417232513,2.759999990463257,-40.619998931884766,0.135986328125,0.071533203125,1.15826416015625,36.33000183105469,0.0,17.0,0.86065673828125,-0.1533966064453125,Closing,0.0,0.0,3.0,0.0,0.0,0.0,0.0,0.0,
1.0810069999999832,0.0,0.0,97972.0,0.5,1462.5,1260.0,0.0,0.25,0.7897948410000001,4.898547297376696,0.0,-123443.0,1.125,-1455.0,-1260.0,0.0,0.125,0.483398388,4.92985091762352,0.0,6400.0,8.0,1455.0,1260.0,0.0,0.125,3.348388329,4.906640612564087,0.0,-24352.0,1.25,-1470.0,-1260.0,0.0,0.25,1.616210772,4.924120345942179,0.0,0.33000001311302185,2.700000047683716,-40.599998474121094,0.11566162109375,-0.16510009765625,0.87396240234375,36.33000183105469,0.0,167.0,0.8937225341796875,-0.128936767578125,Closing,0.0,0.0,3.0,0.0,0.0,0.0,0.0,0.0,
1.1891570000000065,0.0,0.0,98202.0,0.5,1417.5,1260.0,0.0,0.25,0.7922362470000001,4.898821317592822,0.0,-123665.0,0.875,-1395.0,-1260.0,0.0,0.125,0.483398388,4.93012668893528,0.0,6633.0,7.625,1372.5,1260.0,0.0,0.125,3.338622705,4.906915085512797,0.0,-24585.0,1.0,-1455.0,-1260.0,0.0,0.25,1.624755693,4.924395796691047,0.0,0.3400000035762787,2.380000114440918,-40.56999969482422,-0.13641357421875,-0.020751953125,1.2430419921875,36.33000183105469,0.0,-124.0,0.9249267578125,-0.1059417724609375,Closing,0.0,0.0,3.0,0.0,0.0,0.0,0.0,0.0,
1.294722999999998,0.0,0.0,98425.0,0.375,1395.0,1260.0000000000002,0.0,0.25,0.808105386,4.899232321785005,0.004882811999999959,-123902.0,0.25,-1477.5,-1260.0000000000002,0.0,0.125,0.483398388,4.93054031960392,0.0012207030000004337,6855.0,6.875,1440.0,1260.0000000000002,0.0,0.125,3.348388329,4.907326768760681,0.0,-24813.0,0.75,-1410.0,-1260.0000000000002,0.0,0.25,1.625976396,4.924808946545919,0.0,0.3199999928474426,2.1700000762939453,-40.66999816894531,-0.05316162109375,-0.11688232421875,0.96246337890625,36.33000183105469,0.0,11.0,0.9480438232421875,-0.0887908935546875,Closing,0.0,0.0,3.0,0.0,0.0,0.0,0.0,0.0,
1.400859999999986,0.0,0.0,98658.0,0.375,1447.5,1260.0,0.0,0.25,0.8056639800000001,4.897177196296067,0.0,-123902.0,0.125,-1402.5,-1260.0,0.0,0.125,0.483398388,4.928472061064721,0.0,7087.0,6.0,1410.0,1260.0,0.0,0.125,3.348388329,4.905268247820537,0.0,-25039.0,0.625,-1440.0,-1260.0,0.0,0.25,1.624755693,4.922743092197842,0.0,0.3499999940395355,1.6100000143051147,-40.90999984741211,0.05975341796875,0.02001953125,1.15118408203125,36.33000183105469,0.0,12.0,0.9738616943359375,-0.071441650390625,Closing,0.0,0.0,3.0,0.0,0.0,0.0,0.0,0.0,
1.5085559999999822,0.0,0.0,98887.0,0.375,1417.5,1260.0,0.0,0.25,0.797119059,4.894574082638889,0.0,-124125.0,0.125,-1372.5,-1260.0,0.0,0.125,0.483398388,4.9258523125,0.0,7316.0,5.125,1440.0,1260.0,0.0,0.125,3.342284814,4.902660833333334,0.0,-25039.0,0.625,-1365.0,-1260.0,0.0,0.25,1.616210772,4.920126388888889,0.0,0.3700000047683716,1.2799999713897705,-41.2400016784668,-0.014892578125,0.0126953125,1.0318603515625,36.209999084472656,0.0,-32.0,0.9942169189453125,-0.0576934814453125,Closing,0.0,0.0,3.0,0.0,0.0,0.0,0.0,0.0,
1.6139539999999688,0.0,0.0,99109.0,0.375,1380.0,1260.0,0.0,0.25,0.8044432770000001,4.89005282746883,0.0,-124342.0,0.125,-1327.5,-1260.0,0.0,0.125,0.483398388,4.9213021647529605,0.0,7543.0,4.625,1402.5,1260.0,0.0,0.125,3.333739893,4.89813210820516,0.0,-25255.0,0.625,-1312.5,-1260.0,0.0,0.25,1.597900227,4.915581530337864,0.0,0.3499999940395355,0.9700000286102295,-41.52000045776367,0.0247802734375,0.20635986328125,1.3974609375,36.209999084472656,0.0,-130.0,1.005584716796875,-0.0487823486328125,Closing,0.0,0.0,3.0,0.0,0.0,0.0,0.0,0.0,
1.7182810000000173,0.0,0.0,99325.0,0.375,1350.0,1260.0,0.0,0.25,0.8032225740000001,4.886216648971091,0.0,-124553.0,0.25,-1290.0,-1260.0,0.0,0.125,0.484619091,4.91744147158432,0.0,7764.0,4.375,1380.0,1260.0,0.0,0.125,3.33251919,4.894289591623942,0.0,-25467.0,0.625,-1320.0,-1260.0,0.0,0.25,1.6064451480000002,4.911725324927436,0.0,0.3400000035762787,0.7200000286102295,-41.83000183105469,-0.02923583984375,-0.04736328125,0.564697265625,36.209999084472656,0.0,6.0,1.01544189453125,-0.037750244140625,Closing,0.0,0.0,3.0,0.0,0.0,0.0,0.0,0.0,
1.8224319999999716,0.0,0.0,99529.0,0.5,1282.5,1260.0,0.0,0.25,0.8044432770000001,4.881969414017158,0.0,-124756.0,0.25,-1260.0,-1260.0,0.0,0.25,0.484619091,4.91316709514904,0.0,7976.0,4.75,1320.0,1260.0,0.0,0.125,3.334960596,4.890035339444479,0.0,-25673.0,0.75,-1267.5,-1260.0,0.0,0.25,1.6052244450000002,4.907455917125278,0.0,0.3499999940395355,0.5,-42.09000015258789,-0.0662841796875,-0.076416015625,0.9718017578125,36.209999084472656,0.0,0.0,1.023834228515625,-0.0297698974609375,Closing,0.0,0.0,3.0,0.0,0.0,0.0,0.0,0.0,
1.9274789999999922,0.0,0.0,99529.0,2.375,1110.0,0.0,0.0,0.25,0.758056563,0.01,0.0,-124940.0,3.0,-1110.0,-0.0,0.0,0.25,0.483398388,0.01,0.0,8142.0,0.125,1147.5,0.0,0.0,0.0,3.3728023890000003,0.01,0.0,-25855.0,0.75,-1110.0,-0.0,0.0,0.25,1.5771482760000002,0.01,0.0,0.49000000953674316,-0.33000001311302185,-42.31999969482422,-0.6207275390625,-0.06072998046875,1.06903076171875,36.22999954223633,0.0,-407.0,1.031097412109375,-0.0280609130859375,Closing,0.0,0.0,3.0,0.0,0.0,0.0,0.0,0.125,
2.031841000000015,0.0,0.0,99695.0,3.25,847.5,0.0,0.0,0.25,0.8032225740000001,0.01,0.0,-125057.0,4.25,-750.0,-0.0,0.0,0.25,0.47851557600000005,0.01,0.0,8142.0,0.125,750.0,0.0,0.0,0.0,3.3728023890000003,0.01,0.0,-25987.0,1.375,-810.0,-0.0,0.0,0.25,1.568603355,0.01,0.0,0.49000000953674316,-1.9500000476837158,-42.34000015258789,-0.4869384765625,-0.0115966796875,1.0975341796875,36.22999954223633,0.0,-317.0,1.0237579345703125,-0.04205322265625,Closing,0.0,0.0,3.0,0.0,0.0,0.0,0.0,0.0,
2.133963999999978,0.0,0.0,99790.0,2.875,457.5,0.0,0.0,0.25,0.8044432770000001,0.01,0.0,-125108.0,2.875,-375.0,-0.0,0.0,0.25,0.47363276400000004,0.01,0.0,8246.0,0.125,495.0,0.0,0.0,0.0,3.3679195770000003,0.01,0.0,-26047.0,1.0,-420.0,-0.0,0.0,0.25,1.595458821,0.01,0.0,0.4399999976158142,-3.0399999618530273,-42.380001068115234,-0.2470703125,0.013916015625,0.93798828125,36.22999954223633,0.0,-149.0,1.0018463134765625,-0.0707244873046875,Closing,0.0,0.0,3.0,0.0,0.0,0.0,0.0,0.0,
2.234713999999978,0.0,0.0,99823.0,1.375,135.0,0.0,0.0,0.25,0.8044432770000001,0.01,0.0,-125108.0,1.75,-150.0,-0.0,0.0,0.25,0.484619091,0.01,0.0,8289.0,0.375,127.5,0.0,0.0,0.0,3.3691402800000003,0.01,0.0,-26047.0,0.625,-120.0,-0.0,0.0,0.25,1.6052244450000002,0.01,0.0,0.4099999964237213,-3.6500000953674316,-42.33000183105469,-0.05950927734375,0.0225830078125,1.05633544921875,36.22999954223633,0.0,-4.0,0.9703826904296875,-0.1082763671875,Closing,0.0,0.0,3.0,0.0,0.0,0.0,0.0,0.125,
2.342976000000024,0.0,0.0,99820.0,0.375,-22.5,0.0,0.0,0.25,0.8044432770000001,0.01,0.0,-125115.0,0.625,15.0,-0.0,0.0,0.25,0.483398388,0.01,0.0,8292.0,0.5,15.0,0.0,0.0,0.0,3.3630367650000004,0.01,0.0,-26057.0,0.375,0.0,-0.0,0.0,0.25,1.597900227,0.01,0.0,0.4099999964237213,-3.509999990463257,-42.279998779296875,-0.00433349609375,0.0067138671875,1.06280517578125,36.22999954223633,0.0,45.0,0.9415130615234375,-0.1416473388671875,Closing,0.0,0.0,3.0,0.0,0.0,0.0,0.0,0.0,
2.4525380000000006,0.0,0.0,99810.0,0.375,-60.0,0.0,0.0,0.25,0.8032225740000001,0.01,-0.0012207030000004337,-125110.0,0.5,7.5,-0.0,0.0,0.25,0.47851557600000005,0.01,0.0,8296.0,0.5,22.5,0.0,0.0,0.0,3.348388329,0.01,0.0,-26057.0,0.375,0.0,-0.0,0.0,0.25,1.6040037420000002,0.01,0.0,0.4300000071525574,-3.180000066757202,-42.33000183105469,0.0260009765625,-0.00164794921875,0.98760986328125,36.15999984741211,0.0,65.0,0.905975341796875,-0.1828765869140625,Closing,0.0,0.0,3.0,0.0,0.0,0.0,0.0,0.125,
2.5553310000000056,0.0,0.0,99806.0,0.125,-15.0,420.0,0.0,2.25,0.917968656,0.5498168668524888,0.0,-125103.0,0.0,45.0,-420.0,0.0,8.25,0.638427669,1.9285545897722227,0.0,8296.0,2.375,7.5,420.0,0.0,1.875,3.1665035820000003,4.389674732977289,0.0,-26057.0,0.375,0.0,-420.0,0.0,7.625,1.3476561120000001,3.0316872062785585,0.0,0.3700000047683716,-2.740000009536743,-42.349998474121094,-0.08758544921875,0.06585693359375,1.013427734375,36.15999984741211,0.0,-68.0,0.8794097900390625,-0.2149810791015625,Closing,0.0,0.0,3.0,0.0,0.0,0.0,0.0,0.0,
2.660957999999984,0.0,0.0,99817.0,0.125,45.0,420.0,0.0,0.75,1.3195799430000001,0.5498168668524888,0.0,-125113.0,0.125,-105.0,-420.0,0.0,1.5,1.441650243,1.9285545897722227,0.0,8309.0,3.5,60.0,420.0,0.0,0.375,2.8039547910000002,4.389674732977289,0.0,-26057.0,1.0,0.0,-420.0,0.0,1.875,0.5554198650000001,3.0316872062785585,0.0,0.3400000035762787,-2.4000000953674316,-42.36000061035156,0.0050048828125,-0.00946044921875,1.03253173828125,36.15999984741211,0.0,46.0,0.8547515869140625,-0.242279052734375,Closing,0.0,0.0,3.0,0.0,0.0,0.0,0.0,0.0,
2.7673570000000183,0.0,0.0,99817.0,0.375,112.5,420.0,0.0,0.375,1.492919769,0.5498168668524888,0.0,-125145.0,0.125,-195.0,-420.0,0.0,1.5,2.2180173510000003,1.9285545897722227,0.0,8335.0,4.0,135.0,420.0,0.0,0.125,2.6867673030000003,4.389674732977289,0.0,-26057.0,1.875,0.0,-420.0,0.0,1.5,4.786376463,3.0316872062785585,0.0,0.28999999165534973,-2.309999942779541,-42.790000915527344,-0.08258056640625,-0.025390625,1.06121826171875,36.15999984741211,0.0,-8.0,0.8365478515625,-0.2648773193359375,Closing,0.0,0.0,3.0,0.0,0.0,0.0,0.0,0.0,
2.867683000000019,0.0,0.0,99843.0,0.75,142.5,420.0,0.0,0.375,1.467285006,0.5498168668524888,0.0,-125172.0,0.5,-157.5,-420.0,0.0,0.5,2.7893063550000003,1.9285545897722227,0.0,8335.0,5.125,157.5,420.0,0.0,0.125,2.6916501150000003,4.389674732977289,0.0,-26072.0,2.125,-90.0,-420.0,0.0,0.25,4.403075721,3.0316872062785585,0.0,0.41999998688697815,-2.490000009536743,-44.22999954223633,-0.10003662109375,0.11474609375,1.03704833984375,36.15999984741211,0.0,-113.0,0.812255859375,-0.2889862060546875,Closing,0.0,0.0,3.0,0.0,0.0,0.0,0.0,0.0,
2.9746969999999857,0.0,0.0,99858.0,1.125,180.0,420.0,0.0,0.375,1.36718736,0.5498168668524888,0.0,-125211.0,0.75,-240.0,-420.0,0.0,1.125,2.822265336,1.9285545897722227,0.0,8359.0,7.5,105.0,420.0,0.0,0.125,2.7465817500000003,4.389674732977289,0.0,-26109.0,2.0,-217.5,-420.0,0.0,0.375,4.4458003260000005,3.0316872062785585,0.0,0.5099999904632568,-2.390000104904175,-45.88999938964844,-0.0242919921875,0.01312255859375,1.03790283203125,36.18000030517578,0.0,10.0,0.7918243408203125,-0.2888031005859375,Closing,0.0,0.0,3.0,0.0,0.0,0.0,0.0,0.0,
3.083478999999992,0.0,0.0,99892.0,1.625,135.0,420.0,0.0,0.25,1.352538924,0.5498168668524888,0.0,-125211.0,1.375,-195.0,-420.0,0.0,0.875,2.576904033,1.9285545897722227,0.0,8377.0,9.0,135.0,420.0,0.0,0.0,2.772216513,4.389674732977289,0.0,-26147.0,2.25,-240.0,-420.0,0.0,0.375,4.61425734,3.0316872062785585,0.0,0.44999998807907104,-2.140000104904175,-48.0,0.00872802734375,0.05511474609375,1.0443115234375,36.18000030517578,0.0,-2.0,0.768341064453125,-0.2884979248046875,Closing,0.0,0.0,3.0,0.0,0.0,0.0,0.0,0.0,
3.1879600000000208,0.0,0.0,99914.0,2.625,172.5,420.0,0.0,0.25,1.337890488,0.5498168668524888,0.0,-125242.0,2.125,-217.5,-420.0,0.0,0.25,2.4304196730000003,1.9285545897722227,0.0,8397.0,10.375,127.5,420.0,0.0,0.0,2.760009483,4.389674732977289,0.0,-26147.0,2.5,-270.0,-420.0,0.0,0.25,4.727782719,3.0316872062785585,0.0,0.6000000238418579,-1.7999999523162842,-50.310001373291016,0.03289794921875,0.02130126953125,1.13372802734375,36.18000030517578,0.0,36.0,0.769256591796875,-0.2854156494140625,Closing,0.0,0.0,3.0,0.0,0.0,0.0,0.0,0.0,
3.2995019999999786,0.0,0.0,99964.0,1.875,330.0,420.0,0.0,0.25,1.337890488,0.5498168668524888,0.0,-125286.0,1.625,-345.0,-420.0,0.0,0.0,2.357177493,1.9285545897722227,0.0,8444.0,8.625,307.5,420.0,0.0,0.0,2.768554404,4.389674732977289,0.0,-26194.0,2.375,-360.0,-420.0,0.0,0.25,4.7131342830000005,3.0316872062785585,0.0,0.6200000047683716,-1.5099999904632568,-54.369998931884766,0.02447509765625,0.0184326171875,1.00555419921875,36.18000030517578,0.0,23.0,0.772979736328125,-0.27911376953125,Closing,0.0,0.0,3.0,0.0,0.0,0.0,0.0,0.0,
3.404262999999977,0.0,0.0,100042.0,0.875,480.0,420.0,0.0,0.25,1.3415525970000002,0.5498168668524888,0.0,-125350.0,0.875,-435.0,-420.0,0.0,0.25,2.347411869,1.9285545897722227,0.0,8479.0,9.125,232.5,420.0,0.0,0.0,2.766112998,4.389674732977289,0.0,-26263.0,1.375,-472.5,-420.0,0.0,0.25,4.682616708,3.0316872062785585,0.0,0.8100000023841858,-1.1399999856948853,-60.7599983215332,-0.02655029296875,-0.01495361328125,1.12890625,36.18000030517578,0.0,25.0,0.7785797119140625,-0.272857666015625,Closing,0.0,0.0,3.0,0.0,0.0,0.0,0.0,0.125,
3.5111610000000217,0.0,0.0,100136.0,0.375,585.0,420.0,0.0,0.25,1.337890488,0.5498168668524888,0.0,-125432.0,0.25,-532.5,-420.0,0.0,0.25,2.352294681,1.9285545897722227,0.0,8543.0,8.625,397.5,420.0,0.0,0.0,2.764892295,4.389674732977289,0.0,-26347.0,0.75,-555.0,-420.0,0.0,0.25,4.647216321,3.0316872062785585,0.0,0.9200000166893005,-0.9599999785423279,-67.47000122070312,0.03936767578125,0.03582763671875,0.9727783203125,36.220001220703125,0.0,2.0,0.784576416015625,-0.2728118896484375,Closing,0.0,0.0,3.0,0.0,0.0,0.0,0.0,0.0,
3.6139830000000073,0.0,0.0,100230.0,0.375,555.0,420.0,0.0,0.25,1.339111191,0.5498168668524888,0.0,-125515.0,0.25,-502.5,-420.0,0.0,0.25,2.406005613,1.9285545897722227,0.0,8624.0,7.25,487.5,420.0,0.0,0.0,2.755126671,4.389674732977289,0.0,-26440.0,0.375,-592.5,-420.0,0.0,0.125,4.62646437,3.0316872062785585,0.0,0.9599999785423279,-0.8299999833106995,-74.5999984741211,0.00286865234375,0.0892333984375,0.9139404296875,36.220001220703125,0.0,-66.0,0.790283203125,-0.273162841796875,Closing,0.0,0.0,3.0,0.0,0.0,0.0,0.0,0.125,
3.723060999999987,0.0,0.0,100230.0,0.375,645.0,420.0,0.0,0.25,1.337890488,0.5498168668524888,0.0,-125609.0,0.125,-585.0,-420.0,0.0,0.125,2.4255368610000003,1.9285545897722227,0.0,8624.0,5.75,630.0,420.0,0.0,0.0,2.764892295,4.389674732977289,0.0,-26531.0,0.375,-547.5,-420.0,0.0,0.25,4.616698746,3.0316872062785585,0.0,0.9900000095367432,-0.7699999809265137,-81.66000366210938,-0.034423828125,-0.0460205078125,1.0167236328125,36.220001220703125,0.0,60.0,0.792449951171875,-0.27410888671875,Closing,0.0,0.0,3.0,0.0,0.0,0.0,0.0,0.0,
3.827427000000025,0.0,0.0,100332.0,0.375,607.5,420.0,0.0,0.25,1.337890488,0.5498168668524888,0.0,-125702.0,0.0,-585.0,-420.0,0.0,0.125,2.4255368610000003,1.9285545897722227,0.0,8731.0,4.0,675.0,420.0,0.0,0.0,2.766112998,4.389674732977289,0.0,-26626.0,0.375,-600.0,-420.0,0.0,0.25,4.631347182,3.0316872062785585,0.0,0.949999988079071,-0.6399999856948853,-88.19000244140625,-0.0142822265625,-0.00823974609375,1.01318359375,36.220001220703125,0.0,25.0,0.7955169677734375,-0.2752532958984375,Closing,0.0,0.0,3.0,0.0,0.0,0.0,0.0,0.0,
3.932320000000007,0.0,0.0,100423.0,0.375,532.5,420.0,0.0,0.25,1.339111191,0.5498168668524888,0.0,-125784.0,0.0,-532.5,-420.0,0.0,0.125,2.4267575640000003,1.9285545897722227,0.0,8834.0,3.75,585.0,420.0,0.0,0.0,2.766112998,4.389674732977289,0.0,-26713.0,0.375,-540.0,-420.0,0.0,0.25,4.650878430000001,3.0316872062785585,0.0,0.8700000047683716,-0.49000000953674316,-93.97000122070312,-0.009033203125,0.01385498046875,1.04827880859375,36.220001220703125,0.0,2.0,0.7994537353515625,-0.275115966796875,Closing,0.0,0.0,3.0,0.0,0.0,0.0,0.0,0.0,
4.041570000000007,0.0,0.0,100500.0,0.125,450.0,0.0,0.0,1.875,1.0986327,0.01,0.0,-125784.0,0.25,-442.5,-0.0,0.0,3.0,2.05078104,0.01,0.0,8923.0,1.375,510.0,0.0,0.0,1.5,3.1005856200000004,0.01,0.0,-26787.0,0.25,-472.5,-0.0,0.0,7.125,0.19409177700000002,0.01,0.0,0.9300000071525574,-0.46000000834465027,-98.2699966430664,0.034423828125,0.0164794921875,0.9970703125,36.25,0.0,-6.0,0.7994537353515625,-0.275115966796875,Closing,0.0,0.0,3.0,0.0,0.0,0.0,0.0,0.0,
4.150678000000014,0.0,0.0,100557.0,0.375,322.5,0.0,0.0,0.375,0.8557128030000001,0.01,0.0,-125840.0,0.125,-180.0,-0.0,0.0,1.75,1.273193229,0.01,0.0,8979.0,1.5,270.0,0.0,0.0,0.375,3.5314937790000003,0.01,0.3588866820000005,-26787.0,0.25,-255.0,-0.0,0.0,1.625,1.024169817,0.01,0.0,0.8199999928474426,-0.17000000178813934,-100.94999694824219,-0.1416015625,0.0240478515625,1.0279541015625,36.25,0.0,17.0,0.7988433837890625,-0.2709503173828125,Closing,0.0,0.0,3.0,0.0,0.0,0.0,0.0,0.0,
4.25386599999998,0.0,0.0,100571.0,0.125,60.0,0.0,0.0,0.25,0.7360839090000001,0.01,0.0,-125845.0,0.0,0.0,-0.0,0.0,0.875,0.496826121,0.01,0.0,8992.0,3.0,37.5,0.0,0.0,0.5,3.5803218990000003,0.01,0.0,-26812.0,0.125,-90.0,-0.0,0.0,0.875,1.751708805,0.01,0.0,0.800000011920929,-0.5199999809265137,-100.9800033569336,-0.04058837890625,0.00848388671875,0.98492431640625,36.25,0.0,11.0,0.8000640869140625,-0.2700347900390625,Closing,0.0,0.0,3.0,0.0,0.0,0.0,0.0,0.125,
4.369515000000014,0.0,0.0,100572.0,0.125,0.0,0.0,0.0,0.375,0.7653807810000001,0.01,0.0,-125845.0,0.0,0.0,-0.0,0.0,0.75,0.19775388600000002,0.01,0.0,8993.0,3.125,7.5,0.0,0.0,0.25,3.444823866,0.01,0.0,-26820.0,0.125,-22.5,-0.0,0.0,1.0,1.962890424,0.01,0.0,0.7400000095367432,-0.44999998807907104,-100.93000030517578,-0.00421142578125,0.02166748046875,1.06298828125,36.25,0.0,-8.0,0.8022613525390625,-0.2700042724609375,Closing,0.0,0.0,3.0,0.0,0.0,0.0,0.0,0.125,
4.475782000000007,0.0,0.0,100573.0,0.125,0.0,8.4,0.0,0.25,0.8032225740000001,0.01,0.0,-125845.0,0.0,0.0,-8.4,0.0,0.5,0.324706998,0.01,0.0,8996.0,3.125,22.5,8.4,0.0,0.125,3.350829735,0.01,0.0,-26824.0,0.125,-7.5,-8.4,0.0,0.5,1.776122865,0.01,0.0,0.6800000071525574,-0.44999998807907104,-100.83000183105469,-0.020263671875,0.019287109375,1.062744140625,36.2599983215332,0.0,-4.0,0.802734375,-0.2700042724609375,Closing,0.0,0.0,3.0,0.0,0.0,0.0,0.0,0.125,
4.589489999999991,0.0,0.0,100575.0,0.125,7.5,8.4,0.0,0.25,0.812988198,0.01,0.0,-125845.0,0.0,0.0,-8.4,0.0,0.25,0.49194330900000005,0.01,0.0,8999.0,3.125,15.0,8.4,0.0,0.0,3.342284814,0.01,0.0,-26824.0,0.25,0.0,-8.4,0.0,0.25,1.616210772,0.01,0.0,0.6600000262260437,-0.5099999904632568,-100.80000305175781,-0.02490234375,-0.00445556640625,0.99908447265625,36.2599983215332,0.0,18.0,0.8028717041015625,-0.2703094482421875,Closing,0.0,0.0,3.0,0.0,0.0,0.0,0.0,0.125,
4.708196999999986,0.0,0.0,100575.0,0.125,0.0,0.0,0.0,0.25,0.812988198,0.01,0.0,-125845.0,0.0,0.0,-0.0,0.0,0.125,0.531005805,0.01,0.0,9000.0,3.5,0.0,0.0,0.0,0.0,3.354491844,0.01,0.0,-26824.0,0.25,0.0,-0.0,0.0,0.25,1.616210772,0.01,0.0,0.6299999952316284,-0.5400000214576721,-100.81999969482422,-0.0037841796875,-7.32421875E-4,1.0230712890625,36.2599983215332,0.0,10.0,0.8028717041015625,-0.2703094482421875,Closing,0.0,0.0,3.0,0.0,0.0,0.0,0.0,0.125,
4.904815000000002,0.0,0.0,100618.0,1.875,285.0,840.0,0.0,0.125,0.8142089010000001,0.01,0.0,-125877.0,4.375,-255.0,-840.0,0.0,0.125,0.565185489,0.01,0.0,9014.0,18.25,97.5,840.0,0.0,0.0,3.3105465360000004,0.01,0.0,-26849.0,3.375,-255.0,-840.0,0.0,0.125,1.624755693,0.01,0.0,0.6399999856948853,0.20999999344348907,-100.80999755859375,0.11517333984375,0.06292724609375,1.09564208984375,36.2599983215332,0.0,-70.0,0.799560546875,-0.2625732421875,Closing,0.0,0.0,3.0,0.0,0.0,0.0,0.0,0.0,
5.1014029999999915,0.0,0.0,100678.0,3.25,525.0,924.3914298742715,0.0,0.5,0.565185489,4.594215514558043,0.0,-126000.0,7.375,-472.5,-924.3914298742715,0.0,0.5,0.295410126,4.6235743364840465,0.0,9068.0,19.5,495.0,924.3914298742715,0.0,0.25,3.1628414730000003,4.601806016790823,0.0,-26957.0,5.375,-412.5,-924.3914298742715,0.0,0.5,1.312255725,4.618199787719395,0.0,0.17000000178813934,1.5299999713897705,-101.58999633789062,0.06121826171875,-0.16717529296875,0.9864501953125,36.2599983215332,0.0,159.0,0.7880401611328125,-0.2206573486328125,Closing,0.0,0.0,3.0,0.0,0.0,0.0,0.0,0.0,
5.293118000000017,0.0,0.0,100913.0,1.125,810.0,841.3837144440346,0.0,0.5,0.5822753310000001,4.88722472471124,0.0,-126115.0,4.0,-795.0,-841.3837144440346,0.0,0.25,0.253906224,4.918455989320072,0.0,9283.0,15.25,757.5,841.3837144440346,0.0,0.25,3.201903969,4.895299332893523,0.0,-27066.0,3.125,-817.5,-841.3837144440346,0.0,0.375,1.4465330550000002,4.9127386633645225,0.0,-0.6000000238418579,1.840000033378601,-102.25,0.06707763671875,0.125244140625,1.04669189453125,36.2599983215332,0.0,-140.0,0.798492431640625,-0.1552734375,Closing,0.0,0.0,3.0,0.0,0.0,0.0,0.0,0.0,
5.504684000000008,0.0,0.0,101197.0,0.5,922.5,841.9918284054559,0.0,0.25,0.832519446,4.878245502263417,0.0,-126413.0,1.5,-937.5,-841.9918284054559,0.0,0.25,0.576171816,4.909419386152505,0.0,9569.0,11.625,915.0,841.9918284054559,0.0,0.0,3.3190914570000003,4.886305275092891,0.0,-27353.0,1.875,-900.0,-841.9918284054559,0.0,0.125,1.905517383,4.903712564551565,0.0,0.9200000166893005,1.9700000286102295,-102.06999969482422,-0.07110595703125,-0.044189453125,1.28857421875,36.27000045776367,0.0,87.0,0.777923583984375,-0.129669189453125,Closing,0.0,0.0,3.0,0.0,0.0,0.0,0.0,0.0,
5.70379800000001,0.0,0.0,101344.0,0.375,900.0,847.9392409873776,0.0,0.25,0.799560465,4.824746445161359,0.0,-126705.0,1.5,-892.5,-847.9392409873776,0.0,0.25,0.5029296360000001,4.855578449291936,0.0,9721.0,10.25,945.0,847.9392409873776,0.0,0.125,3.305663724,4.832717827554839,0.0,-27621.0,2.5,-855.0,-847.9392409873776,0.0,0.5,1.5869139,4.849934213629845,0.0,0.7200000286102295,1.5099999904632568,-102.62999725341797,0.13189697265625,-0.215087890625,0.82891845703125,36.27000045776367,0.0,196.0,0.7492218017578125,-0.14666748046875,Closing,0.0,0.0,3.0,0.0,0.0,0.0,0.0,0.0,
5.905737000000022,0.0,0.0,101630.0,0.375,915.0,840.8858395503222,0.0,0.125,0.731201097,4.896215757744391,0.0,-126846.0,1.75,-855.0,-840.8858395503222,0.0,0.25,0.339355434,4.927504478547194,0.0,10039.0,7.375,1027.5,840.8858395503222,0.0,0.0,3.250732089,4.904305220792776,0.0,-27775.0,1.25,-877.5,-840.8858395503222,0.0,0.25,1.4465330550000002,4.921776634420408,0.0,-0.15000000596046448,1.4299999475479126,-104.11000061035156,-0.0523681640625,0.0550537109375,1.143310546875,36.27000045776367,0.0,-36.0,0.7401123046875,-0.164581298828125,Closing,0.0,0.0,3.0,0.0,0.0,0.0,0.0,0.0,
6.094695000000007,0.0,0.0,101930.0,0.125,915.0,849.3100207450109,0.0,0.25,0.717773364,4.81591342094792,0.0,-127129.0,1.125,-915.0,-849.3100207450109,0.0,0.25,0.363769494,4.846688978622267,0.0,10353.0,6.625,960.0,849.3100207450109,0.0,0.125,3.249511386,4.823870209535383,0.0,-28062.0,1.0,-930.0,-849.3100207450109,0.0,0.25,1.5820310880000001,4.841055076284598,0.0,0.20999999344348907,1.1799999475479126,-104.41999816894531,-0.05859375,0.068359375,1.08221435546875,36.20000076293945,0.0,-42.0,0.7333221435546875,-0.1761474609375,Closing,0.0,0.0,3.0,0.0,0.0,0.0,0.0,0.0,
6.2971699999999835,0.0,0.0,102073.0,0.125,900.0,868.8094741389023,0.0,0.375,0.642089778,4.729532612180031,0.0,-127425.0,0.75,-915.0,-868.8094741389023,0.0,0.25,0.363769494,4.759756162928625,0.0,10506.0,6.0,952.5,868.8094741389023,0.0,0.125,3.183593424,4.737346683535414,0.0,-28354.0,1.0,-900.0,-868.8094741389023,0.0,0.5,1.4477537580000002,4.75422331328811,0.0,0.03999999910593033,0.9700000286102295,-103.79000091552734,-0.05950927734375,-0.09063720703125,0.86572265625,36.20000076293945,0.0,106.0,0.7300872802734375,-0.18182373046875,Closing,0.0,0.0,3.0,0.0,0.0,0.0,0.0,0.0,
6.4887249999999765,0.0,0.0,102370.0,0.375,930.0,891.6461022021382,0.0,0.375,0.578613222,4.663764957483106,0.0,-127570.0,0.625,-915.0,-891.6461022021382,0.0,0.25,0.261230442,4.693568227368379,0.0,10817.0,5.0,975.0,891.6461022021382,0.0,0.125,3.07617156,4.671470368387484,0.0,-28508.0,0.75,-892.5,-891.6461022021382,0.0,0.25,1.303710804,4.688112316100953,0.0,-0.47999998927116394,0.6100000143051147,-104.5,-0.01068115234375,-0.13555908203125,0.8900146484375,36.15999984741211,0.0,129.0,0.744171142578125,-0.1920928955078125,Closing,0.0,0.0,3.0,0.0,0.0,0.0,0.0,0.0,
6.6892640000000245,0.0,0.0,102520.0,0.375,937.5,898.3010257270477,0.0,0.25,0.54931635,4.647880350941232,0.0,-127850.0,1.25,-855.0,-898.3010257270477,0.0,0.0,0.18310545,4.677582112019757,0.0,11132.0,4.125,982.5,898.3010257270477,0.0,0.0,3.032226252,4.655559517508347,0.0,-28791.0,1.0,-862.5,-898.3010257270477,0.0,0.25,1.303710804,4.6721447833791565,0.0,-0.3499999940395355,0.23999999463558197,-105.83000183105469,-0.0638427734375,0.05242919921875,1.00909423828125,36.15999984741211,0.0,-37.0,0.7564544677734375,-0.2137298583984375,Closing,0.0,0.0,3.0,0.0,0.0,0.0,0.0,0.0,
6.894081000000005,0.0,0.0,102811.0,0.375,915.0,901.7648806862366,0.0,0.25,0.54931635,4.640027573869244,0.0,-127990.0,1.5,-855.0,-901.7648806862366,0.0,0.25,0.190429668,4.669679152651586,0.0,11289.0,3.875,960.0,901.7648806862366,0.0,0.0,3.035888361,4.647693766181732,0.0,-28930.0,1.25,-862.5,-901.7648806862366,0.0,0.25,1.303710804,4.6642510105920625,0.0,-0.23000000417232513,0.10000000149011612,-106.56999969482422,-0.03448486328125,0.0574951171875,1.25762939453125,36.15999984741211,0.0,-49.0,0.75457763671875,-0.24139404296875,Closing,0.0,0.0,3.0,0.0,0.0,0.0,0.0,0.0,
7.099737000000022,0.0,0.0,103077.0,1.25,802.5,0.0,0.0,0.625,0.675048759,0.01,0.0,-128248.0,0.0,-712.5,-0.0,0.0,1.0,0.261230442,0.01,0.0,11567.0,0.5,832.5,0.0,0.0,0.375,3.2104488900000003,0.01,0.0,-29201.0,0.125,-750.0,-0.0,0.0,0.375,1.4477537580000002,0.01,0.0,0.019999999552965164,-0.38999998569488525,-106.91000366210938,-0.04571533203125,0.17138671875,1.03570556640625,36.16999816894531,0.0,-152.0,0.7519378662109375,-0.279052734375,Closing,0.0,0.0,3.0,0.0,0.0,0.0,0.0,0.0,
7.204712999999989,0.0,0.0,103077.0,0.125,660.0,420.0,0.0,0.375,0.808105386,4.930058838270993,0.0,-128356.0,0.0,-682.5,-420.0,0.0,0.5,0.498046824,4.961563829505921,0.0,11567.0,0.375,667.5,420.0,0.0,0.125,3.3776852010000002,4.938204216410319,0.0,-29309.0,0.125,-705.0,-420.0,0.0,0.375,1.6296385050000002,4.95579639400906,0.0,0.8999999761581421,-0.6399999856948853,-106.7300033569336,-0.11041259765625,0.115478515625,0.86676025390625,36.16999816894531,0.0,-68.0,0.7472381591796875,-0.310882568359375,Closing,0.0,0.0,3.0,0.0,0.0,0.0,0.0,0.0,
7.309782000000006,0.0,0.0,103174.0,0.125,555.0,420.0,0.0,0.25,0.876464754,0.01,0.13671873600000062,-128441.0,0.0,-547.5,-420.0,0.0,0.0,0.6481932930000001,0.01,0.0,11675.0,0.5,592.5,420.0,0.0,0.125,3.438720351,0.01,-4.771942986,-29397.0,0.375,-555.0,-420.0,0.0,0.125,1.7651365380000001,0.01,0.0,1.190000057220459,-1.25,-106.66999816894531,-0.4691162109375,0.032470703125,1.16009521484375,36.16999816894531,0.0,119.0,0.7399139404296875,-0.3450164794921875,Closing,0.0,0.0,3.0,0.0,0.0,0.0,0.0,0.0,
7.413574000000023,0.0,0.0,103248.0,0.125,277.5,420.0,0.0,0.25,0.875244051,0.01,-4.876098662,-128441.0,0.375,-255.0,-420.0,0.0,0.25,0.6481932930000001,0.01,0.0,11751.0,2.5,210.0,420.0,0.0,0.125,3.4301754300000002,0.01,0.0,-29433.0,0.625,-232.5,-420.0,0.0,0.25,1.751708805,0.01,0.0,0.6700000166893005,-2.5999999046325684,-106.73999786376953,0.11590576171875,-0.197021484375,0.9044189453125,36.16999816894531,0.0,153.0,0.738067626953125,-0.4033660888671875,Closing,0.0,0.0,3.0,0.0,0.0,0.0,0.0,0.0,
7.517076000000001,0.0,0.0,103257.0,0.75,0.0,420.0,0.0,0.25,0.8544921000000001,0.01,0.0,-128474.0,3.5,-82.5,-420.0,0.0,0.25,0.6188964210000001,0.01,-0.014648435999999876,11759.0,5.875,0.0,420.0,0.0,0.125,3.4216305090000003,0.01,0.0,-29434.0,2.25,-37.5,-420.0,0.0,0.5,1.702880685,0.01,0.0,0.8700000047683716,-2.309999942779541,-106.5999984741211,0.09161376953125,0.0528564453125,1.07489013671875,36.16999816894531,0.0,-73.0,0.739990234375,-0.4640350341796875,Closing,0.0,0.0,3.0,0.0,0.0,0.0,0.0,0.0,
7.6253869999999875,0.0,0.0,103260.0,1.5,30.0,420.0,0.0,0.25,0.848388585,0.01,0.0,-128478.0,5.125,-15.0,-420.0,0.0,0.25,0.570068301,0.01,0.0,11760.0,7.625,7.5,420.0,0.0,0.125,3.382568013,0.01,0.0,-29434.0,4.375,-22.5,-420.0,0.0,0.25,1.668701001,0.01,0.0,0.7300000190734863,-2.0399999618530273,-106.63999938964844,-0.021728515625,0.02593994140625,0.9830322265625,36.15999984741211,0.0,-16.0,0.7390899658203125,-0.526611328125,Closing,0.0,0.0,3.0,0.0,0.0,0.0,0.0,0.125,
7.728864999999991,0.0,0.0,103267.0,3.0,37.5,420.0,0.0,0.25,0.845947179,0.01,0.0,-128485.0,7.875,-37.5,-420.0,0.0,0.25,0.5676268950000001,0.01,0.0,11764.0,11.375,15.0,420.0,0.0,0.125,3.3679195770000003,0.01,0.0,-29441.0,6.0,-30.0,-420.0,0.0,0.25,1.6638181890000001,0.01,0.0,0.699999988079071,-1.909999966621399,-106.6500015258789,0.005859375,0.00347900390625,0.9609375,36.15999984741211,0.0,-2.0,0.739288330078125,-0.54913330078125,Closing,0.0,0.0,3.0,0.0,0.0,0.0,0.0,0.0,
7.832739000000001,0.0,0.0,103273.0,3.75,30.0,420.0,0.0,0.25,0.847167882,0.01,0.0,-128490.0,10.875,-37.5,-420.0,0.0,0.25,0.5664061920000001,0.01,0.0,11768.0,15.5,22.5,420.0,0.0,0.0,3.3666988740000003,0.01,0.0,-29443.0,8.0,-30.0,-420.0,0.0,0.25,1.6638181890000001,0.01,0.0,0.6299999952316284,-1.7599999904632568,-106.69999694824219,0.01904296875,0.006103515625,1.06927490234375,36.15999984741211,0.0,-9.0,0.7392425537109375,-0.547119140625,Closing,0.0,0.0,3.0,0.0,0.0,0.0,0.0,0.0,
7.934804999999993,0.0,0.0,103286.0,5.125,60.0,420.0,0.0,0.25,0.847167882,0.01,0.0,-128504.0,12.875,-97.5,-420.0,0.0,0.25,0.565185489,0.01,0.0,11776.0,19.375,45.0,420.0,0.0,0.0,3.338622705,0.01,0.0,-29454.0,12.25,-67.5,-420.0,0.0,0.25,1.665038892,0.01,0.0,0.6399999856948853,-1.4299999475479126,-106.63999938964844,0.0263671875,-0.03021240234375,0.921875,36.15999984741211,0.0,24.0,0.73809814453125,-0.5411376953125,Closing,0.0,0.0,3.0,0.0,0.0,0.0,0.0,0.0,
8.03750900000002,0.0,0.0,103286.0,6.0,120.0,420.0,0.0,0.25,0.8435057730000001,0.01,0.0,-128523.0,14.875,-120.0,-420.0,0.0,0.25,0.565185489,0.01,0.0,11776.0,20.5,60.0,420.0,0.0,0.0,3.338622705,0.01,0.0,-29467.0,14.25,-82.5,-420.0,0.0,0.25,1.665038892,0.01,0.0,0.6000000238418579,-1.3700000047683716,-106.80000305175781,-0.0098876953125,-0.006591796875,1.0098876953125,36.15999984741211,0.0,12.0,0.73724365234375,-0.5364227294921875,Closing,0.0,0.0,3.0,0.0,0.0,0.0,0.0,0.0,
8.139112000000022,0.0,0.0,103304.0,9.25,90.0,420.0,0.0,0.25,0.8557128030000001,4.931565923327679,0.0,-128538.0,17.625,-97.5,-420.0,0.0,0.25,0.5664061920000001,4.9630805454216,0.0,11786.0,25.375,60.0,420.0,0.0,0.0,3.3276363780000002,4.939713791453044,0.0,-29478.0,14.625,-60.0,-420.0,0.0,0.25,1.6638181890000001,4.957311346859402,0.0,0.5400000214576721,-1.4600000381469727,-106.9000015258789,-0.0224609375,0.00274658203125,1.05072021484375,36.16999816894531,0.0,5.0,0.7379302978515625,-0.536895751953125,Closing,0.0,0.0,3.0,0.0,0.0,0.0,0.0,0.125,
8.252737000000023,0.0,0.0,103314.0,11.375,22.5,420.0,0.0,0.25,0.859374912,4.930195874511062,0.0,-128549.0,22.125,-75.0,-420.0,0.0,0.25,0.5664061920000001,4.9617017414608,0.0,11796.0,32.5,30.0,420.0,0.0,0.0,3.338622705,4.938341479059855,0.0,-29483.0,20.75,-22.5,-420.0,0.0,0.25,1.6638181890000001,4.9559341456519235,0.0,0.4699999988079071,-1.399999976158142,-106.88999938964844,-0.00775146484375,0.0211181640625,1.043212890625,36.16999816894531,0.0,-17.0,0.7385101318359375,-0.537078857421875,Closing,0.0,0.0,3.0,0.0,0.0,0.0,0.0,0.0,
8.360994000000007,0.0,0.0,103321.0,14.125,67.5,420.0,0.0,0.25,0.8300780400000001,4.930332910751131,0.0,-128549.0,26.375,-45.0,-420.0,0.0,0.25,0.5664061920000001,4.96183965341568,0.0,11802.0,36.625,37.5,420.0,0.0,0.0,3.338622705,4.938478741709392,0.0,-29490.0,24.75,-22.5,-420.0,0.0,0.25,1.6638181890000001,4.956071897294787,0.0,0.49000000953674316,-1.159999966621399,-107.04000091552734,0.04510498046875,0.0238037109375,1.02398681640625,36.16999816894531,0.0,-33.0,0.7382049560546875,-0.5344085693359375,Closing,0.0,0.0,3.0,0.0,0.0,0.0,0.0,0.0,
8.46901000000001,0.0,0.0,103340.0,12.375,150.0,420.0,0.0,0.25,0.826415931,4.928277785262193,-0.014648436000000098,-128565.0,26.375,-172.5,-420.0,0.0,0.25,0.565185489,4.95977139487648,0.0,11813.0,37.875,97.5,420.0,0.0,0.0,3.338622705,4.9364202207692465,0.0,-29490.0,30.75,-52.5,-420.0,0.0,0.25,1.6638181890000001,4.95400604294671,0.0,0.6200000047683716,-1.0299999713897705,-107.48999786376953,-0.07257080078125,0.0941162109375,0.9744873046875,36.16999816894531,0.0,-63.0,0.7370452880859375,-0.5293426513671875,Closing,0.0,0.0,3.0,0.0,0.0,0.0,0.0,0.0,
8.56974900000001,0.0,0.0,103393.0,11.0,322.5,420.0,0.0,0.25,0.8276366340000001,4.922112513323403,0.0012207030000001007,-128607.0,24.375,-277.5,-420.0,0.0,0.25,0.565185489,4.9535667244548796,0.0012207029999995456,11841.0,38.75,187.5,420.0,0.0,0.0,3.338622705,4.9302447626495365,0.0,-29497.0,33.75,-60.0,-420.0,0.0,0.25,1.6638181890000001,4.947808584976197,0.0,0.3400000035762787,-0.18000000715255737,-108.43000030517578,0.401611328125,-0.01995849609375,0.87847900390625,36.189998626708984,0.0,-103.0,0.7363433837890625,-0.520660400390625,Closing,0.0,0.0,3.0,0.0,0.0,0.0,0.0,0.0,
8.672882999999972,0.0,0.0,103466.0,4.625,427.5,0.0,0.0,0.25,0.825195228,0.01,0.0,-128666.0,11.5,-502.5,-0.0,0.0,0.25,0.5664061920000001,0.01,0.0,11891.0,23.125,315.0,0.0,0.0,0.0,3.333739893,0.01,0.0,-29532.0,15.125,-465.0,-0.0,0.0,0.25,1.6638181890000001,0.01,0.0,0.44999998807907104,0.6700000166893005,-108.36000061035156,0.10845947265625,-0.13775634765625,0.8677978515625,36.189998626708984,0.0,106.0,0.73187255859375,-0.49932861328125,Closing,0.0,0.0,3.0,0.0,0.0,0.0,0.0,0.0,
8.77760599999997,0.0,0.0,103565.0,1.75,630.0,0.0,0.0,0.25,0.8288573370000001,0.01,0.0,-128765.0,5.75,-585.0,-0.0,0.0,0.25,0.5664061920000001,0.01,0.0,11961.0,17.125,420.0,0.0,0.0,0.0,3.334960596,0.01,0.0,-29626.0,9.25,-547.5,-0.0,0.0,0.25,1.666259595,0.01,0.0,0.5799999833106995,0.28999999165534973,-108.95999908447266,-0.55645751953125,-0.03271484375,1.21539306640625,36.189998626708984,0.0,225.0,0.7227325439453125,-0.4703369140625,Closing,0.0,0.0,3.0,0.0,0.0,0.0,0.0,0.0,
8.88662699999998,0.0,0.0,103565.0,6.875,217.5,420.0,0.0,5.5,1.119384651,2.4661255000000026,0.0,-128823.0,13.5,-352.5,-420.0,0.0,6.625,0.701904225,2.4818850000000023,0.0,11997.0,29.5,322.5,420.0,0.0,4.75,3.0090328950000003,2.470199999999998,0.0,-29683.0,18.25,-270.0,-420.0,0.0,6.0,1.992187296,2.4789999999999974,0.0,0.3100000023841858,-1.6799999475479126,-107.95999908447266,-0.06201171875,-0.1671142578125,1.172119140625,36.189998626708984,0.0,173.0,0.7258148193359375,-0.4653472900390625,Closing,0.0,0.0,3.0,0.0,0.0,0.0,0.0,0.0,
8.990995999999985,0.0,0.0,103569.0,13.0,-15.0,420.0,0.0,1.75,1.6894529520000001,2.4661255000000026,0.0,-128842.0,18.5,-105.0,-420.0,0.0,1.0,1.361083845,2.4818850000000023,0.0,11997.0,37.0,45.0,420.0,0.0,1.0,2.391357177,2.470199999999998,0.0,-29698.0,28.625,-82.5,-420.0,0.0,2.375,2.556152082,2.4789999999999974,0.0,0.4699999988079071,-1.2699999809265137,-107.97000122070312,0.00274658203125,0.11279296875,0.92718505859375,36.189998626708984,0.0,-107.0,0.72979736328125,-0.465545654296875,Closing,0.0,0.0,3.0,0.0,0.0,0.0,0.0,0.125,
9.094135000000009,0.0,0.0,103570.0,16.0,60.0,420.0,0.0,2.25,2.2155759450000003,2.4661255000000026,0.0,-128894.0,16.875,-285.0,-420.0,0.0,1.0,1.9970701080000002,2.4818850000000023,0.0,12006.0,43.375,67.5,420.0,0.0,0.875,1.7919920040000001,2.470199999999998,0.0,-29730.0,25.125,-195.0,-420.0,0.0,2.125,3.1018063230000004,2.4789999999999974,0.0,0.8999999761581421,-1.3600000143051147,-107.69000244140625,-0.01202392578125,0.15557861328125,1.03338623046875,36.189998626708984,0.0,-136.0,0.72796630859375,-0.46661376953125,Closing,0.0,0.0,3.0,0.0,0.0,0.0,0.0,0.125,
9.197070999999996,0.0,0.0,103594.0,14.375,172.5,420.0,0.0,2.75,2.755126671,2.4661255000000026,0.0,-128894.0,15.0,-427.5,-420.0,0.0,0.75,2.662353243,2.4818850000000023,0.0,12018.0,39.375,150.0,420.0,0.0,0.5,1.1621092560000001,2.470199999999998,0.0,-29791.0,23.625,-307.5,-420.0,0.0,1.5,3.706054308,2.4789999999999974,0.0,1.2300000190734863,-1.899999976158142,-107.62999725341797,-0.32098388671875,0.04046630859375,0.8031005859375,36.189998626708984,0.0,67.0,0.7219390869140625,-0.47369384765625,Closing,0.0,0.0,3.0,0.0,0.0,0.0,0.0,0.0,
9.306340000000025,0.0,0.0,103653.0,11.875,412.5,420.0,0.0,0.875,3.135986007,2.4661255000000026,0.0,-128971.0,11.375,-577.5,-420.0,0.0,0.25,3.073730154,2.4818850000000023,0.0,12064.0,31.375,330.0,420.0,0.0,0.25,0.9106444380000001,2.470199999999998,0.0,-29791.0,19.125,-510.0,-420.0,0.0,0.375,4.106444892,2.4789999999999974,0.0,0.5099999904632568,-3.440000057220459,-107.94000244140625,-0.427490234375,-0.1651611328125,0.70452880859375,36.189998626708984,0.0,281.0,0.7217254638671875,-0.49676513671875,Closing,0.0,0.0,3.0,0.0,0.0,0.0,0.0,0.125,
9.410977000000013,0.0,0.0,103774.0,5.625,795.0,420.0,0.0,0.75,3.44238246,2.4661255000000026,0.3869628510000003,-129082.0,6.25,-772.5,-420.0,0.0,0.25,3.121337571,2.4818850000000023,0.0,12153.0,24.125,645.0,420.0,0.0,0.125,0.783691326,2.470199999999998,0.0,-29897.0,10.25,-832.5,-420.0,0.0,0.375,4.447021029,2.4789999999999974,0.0,-0.5299999713897705,-4.150000095367432,-107.19999694824219,0.01593017578125,-0.21282958984375,1.074951171875,36.189998626708984,0.0,165.0,0.734954833984375,-0.5117340087890625,Closing,0.0,0.0,3.0,0.0,0.0,0.0,0.0,0.0,
9.519879000000016,0.0,0.0,103954.0,0.875,1102.5,420.0,0.0,0.375,3.4741207380000003,2.4661255000000026,0.0,-129230.0,2.125,-952.5,-420.0,0.0,0.25,3.122558274,2.4818850000000023,0.0,12313.0,14.5,1005.0,420.0,0.0,0.125,0.782470623,2.470199999999998,0.0,-30039.0,6.5,-900.0,-420.0,0.0,1.5,4.466552277,2.4789999999999974,0.0,-0.9300000071525574,-4.130000114440918,-105.63999938964844,0.18853759765625,0.0496826171875,0.94378662109375,36.189998626708984,0.0,-132.0,0.760772705078125,-0.5071563720703125,Closing,0.0,0.0,3.0,0.0,0.0,0.0,0.0,0.0,
9.630320999999997,0.0,0.0,104112.0,0.125,1050.0,420.0,0.0,0.375,3.3691402800000003,2.4661255000000026,0.0,-129372.0,0.75,-840.0,-420.0,0.0,0.25,3.038329767,2.4818850000000023,0.0,12500.0,8.125,1170.0,420.0,0.0,0.125,0.787353435,2.470199999999998,0.0,-30188.0,3.75,-930.0,-420.0,0.0,0.5,4.17480426,2.4789999999999974,0.0,-0.33000001311302185,-3.7100000381469727,-104.80999755859375,-0.0653076171875,0.24261474609375,0.92681884765625,36.20000076293945,0.0,-238.0,0.7774200439453125,-0.4968719482421875,Closing,0.0,0.0,3.0,0.0,0.0,0.0,0.0,0.0,
9.733553000000015,0.0,0.0,104276.0,0.125,1005.0,420.0,0.0,0.25,3.2641598220000003,2.4661255000000026,0.0,-129519.0,0.0,-945.0,-420.0,0.0,0.25,2.9565426660000003,2.4818850000000023,0.0,12673.0,5.0,1080.0,420.0,0.0,0.125,0.7885741380000001,2.470199999999998,0.0,-30339.0,1.875,-937.5,-420.0,0.0,0.25,4.016112870000001,2.4789999999999974,0.0,0.49000000953674316,-3.4000000953674316,-104.29000091552734,0.0162353515625,0.0269775390625,0.968505859375,36.20000076293945,0.0,-36.0,0.779541015625,-0.48553466796875,Closing,0.0,0.0,3.0,0.0,0.0,0.0,0.0,0.125,
9.843815000000003,0.0,0.0,104276.0,0.125,997.5,420.0,0.0,0.25,3.239745762,2.4661255000000026,0.0,-129661.0,0.0,-892.5,-420.0,0.0,0.25,2.918700873,2.4818850000000023,0.0,12673.0,2.875,1050.0,420.0,0.0,0.125,0.798339762,2.470199999999998,0.0,-30483.0,0.75,-900.0,-420.0,0.0,0.375,3.9953609190000003,2.4789999999999974,0.0,0.5899999737739563,-2.9800000190734863,-103.48999786376953,0.02850341796875,-0.02227783203125,0.9759521484375,36.20000076293945,0.0,12.0,0.773834228515625,-0.4702301025390625,Closing,0.0,0.0,3.0,0.0,0.0,0.0,0.0,0.0,
9.947499000000011,0.0,0.0,104434.0,0.125,960.0,420.0,0.0,0.25,3.239745762,2.4661255000000026,0.0,-129791.0,0.0,-825.0,-420.0,0.0,0.25,2.9040524370000003,2.4818850000000023,0.0,12835.0,1.875,945.0,420.0,0.0,0.125,0.8032225740000001,2.470199999999998,0.0,-30613.0,0.375,-817.5,-420.0,0.0,0.25,4.044189039,2.4789999999999974,0.0,0.5600000023841858,-2.490000009536743,-103.01000213623047,0.056884765625,-0.12921142578125,1.04595947265625,36.20000076293945,0.0,112.0,0.7657470703125,-0.447418212890625,Closing,0.0,0.0,3.0,0.0,0.0,0.0,0.0,0.0,
10.047843999999984,0.0,0.0,104574.0,0.125,787.5,420.0,0.0,0.25,3.238525059,2.4661255000000026,0.0,-129791.0,0.0,-787.5,-420.0,0.0,0.25,2.922362982,2.4818850000000023,0.0,12978.0,1.125,840.0,420.0,0.0,0.125,0.8032225740000001,2.470199999999998,0.0,-30727.0,0.375,-697.5,-420.0,0.0,0.25,4.093017159,2.4789999999999974,0.0,0.5,-2.180000066757202,-102.86000061035156,0.109375,-0.0107421875,0.92578125,36.20000076293945,0.0,-13.0,0.760040283203125,-0.4221649169921875,Closing,0.0,0.0,3.0,0.0,0.0,0.0,0.0,0.0,
10.149849999999976,0.0,0.0,104676.0,2.25,615.0,0.0,0.0,6.0,2.830810257,0.01,0.0,-129915.0,2.25,-630.0,-0.0,0.0,9.25,2.650146213,0.01,0.0,13080.0,0.375,450.0,0.0,0.0,5.75,0.399169881,0.01,0.0,-30727.0,0.25,-675.0,-0.0,0.0,6.5,3.6303707220000003,0.01,0.0,0.3400000035762787,-1.190000057220459,-102.9800033569336,0.23980712890625,0.2652587890625,0.84893798828125,36.15999984741211,0.0,-311.0,0.7593841552734375,-0.38232421875,Closing,0.0,0.0,3.0,0.0,0.0,0.0,0.0,0.125,
10.25277899999998,0.0,0.0,104734.0,2.125,345.0,0.0,0.0,1.0,2.056884555,0.01,0.0,-129987.0,1.375,-285.0,-0.0,0.0,1.5,1.885986135,0.01,0.0,13139.0,0.5,405.0,0.0,0.0,1.875,4.636229994000001,0.01,0.0,-30819.0,0.25,-262.5,-0.0,0.0,1.5,2.861327832,0.01,0.0,0.6100000143051147,0.5299999713897705,-102.98999786376953,0.21527099609375,-0.06134033203125,1.0672607421875,36.15999984741211,0.0,24.0,0.746978759765625,-0.324127197265625,Closing,0.0,0.0,3.0,0.0,0.0,0.0,0.0,0.0,
10.356215000000025,0.0,0.0,104756.0,1.5,142.5,0.0,0.0,2.125,1.339111191,0.01,0.0,-130000.0,0.5,-37.5,-0.0,0.0,1.75,1.1328123840000002,0.01,0.0,13175.0,0.5,202.5,0.0,0.0,1.5,3.8916011640000003,0.01,0.0,-30838.0,0.375,-30.0,-0.0,0.0,1.875,2.092284942,0.01,0.0,0.10999999940395355,0.5099999904632568,-103.12999725341797,0.021728515625,-0.07122802734375,1.10247802734375,36.15999984741211,0.0,68.0,0.7352752685546875,-0.2552032470703125,Closing,0.0,0.0,3.0,0.0,0.0,0.0,0.0,0.125,
10.46657899999997,0.0,0.0,104759.0,1.0,37.5,0.0,0.0,0.5,0.8569335060000001,0.01,0.0,-129998.0,0.25,15.0,-0.0,0.0,0.25,0.5688475980000001,0.01,0.0,13185.0,1.125,60.0,0.0,0.0,0.375,3.3618160620000004,0.01,0.0,-30838.0,0.375,0.0,-0.0,0.0,1.0,1.402587747,0.01,0.0,0.05999999865889549,0.4300000071525574,-103.06999969482422,0.00146484375,0.014404296875,0.9686279296875,36.15999984741211,0.0,-11.0,0.72650146484375,-0.186676025390625,Closing,0.0,0.0,3.0,0.0,0.0,0.0,0.0,0.0,
10.57152000000002,0.0,0.0,104759.0,0.75,-15.0,0.0,0.0,0.5,0.601806579,0.01,4.4512940180000005,-129998.0,0.25,0.0,-0.0,0.0,0.125,0.12939451800000001,0.01,-0.5810546280000004,13186.0,1.25,7.5,0.0,0.0,0.25,3.081054372,0.01,0.0,-30838.0,0.375,0.0,-0.0,0.0,1.375,1.2890623680000002,0.01,0.0,0.10999999940395355,0.4000000059604645,-102.8499984741211,0.02386474609375,0.01483154296875,1.02947998046875,36.15999984741211,0.0,-16.0,0.716766357421875,-0.14788818359375,Closing,0.0,0.0,3.0,0.0,0.0,0.0,0.0,0.0,
10.674311999999976,0.0,0.0,104756.0,1.0,-7.5,0.0,0.0,0.5,0.6469725900000001,0.01,-0.21484372799999996,-129992.0,0.125,37.5,-0.0,0.0,1.0,0.13549803300000002,0.01,-0.3955077720000002,13186.0,1.375,0.0,0.0,0.0,0.375,3.144530928,0.01,-0.25756833300000004,-30843.0,0.375,-22.5,-0.0,0.0,0.375,1.444091649,0.01,0.0,0.10000000149011612,0.4099999964237213,-102.8499984741211,-0.00543212890625,0.0098876953125,1.0316162109375,36.13999938964844,0.0,-4.0,0.7127685546875,-0.1478118896484375,Closing,0.0,0.0,3.0,0.0,0.0,0.0,0.0,0.125,
10.772151000000013,0.0,0.0,104755.0,1.0,-7.5,0.0,0.0,0.375,0.7897948410000001,0.01,0.0,-129991.0,0.25,7.5,-0.0,0.0,0.5,0.391845663,0.01,0.0,13186.0,1.5,0.0,0.0,0.0,0.125,3.3251949720000002,0.01,0.0,-30845.0,0.375,-15.0,-0.0,0.0,0.375,1.669921704,0.01,0.0,0.10999999940395355,0.3499999940395355,-102.8499984741211,-0.0286865234375,0.015869140625,1.00457763671875,36.13999938964844,0.0,-5.0,0.7123870849609375,-0.148040771484375,Closing,0.0,0.0,3.0,0.0,0.0,0.0,0.0,0.0,
10.885358000000007,0.0,0.0,104755.0,1.125,0.0,0.0,0.0,0.25,0.847167882,0.01,0.0,-129991.0,0.25,0.0,-0.0,0.0,0.5,0.599365173,0.01,0.0,13186.0,1.5,0.0,0.0,0.0,0.125,3.402099261,0.01,0.0,-30846.0,0.375,-7.5,-0.0,0.0,0.25,1.693115061,0.01,0.0,0.10000000149011612,0.23999999463558197,-102.9000015258789,0.00189208984375,-0.00262451171875,1.021240234375,36.13999938964844,0.0,4.0,0.7123870849609375,-0.1492156982421875,Closing,0.0,0.0,3.0,0.0,0.0,0.0,0.0,0.125,
10.991701,0.0,0.0,104755.0,1.125,0.0,0.0,0.0,0.25,0.8410643670000001,0.01,0.0,-129991.0,0.25,0.0,-0.0,0.0,0.25,0.590820252,0.01,0.0,13186.0,1.5,0.0,0.0,0.0,0.125,3.387450825,0.01,0.0,-30846.0,0.375,0.0,-0.0,0.0,0.25,1.650390456,0.01,0.0,0.10000000149011612,0.20999999344348907,-102.91000366210938,-0.0035400390625,-0.00396728515625,1.0206298828125,36.13999938964844,0.0,7.0,0.7124176025390625,-0.1492156982421875,Closing,0.0,0.0,3.0,0.0,0.0,0.0,0.0,0.125,
11.09575900000002,0.0,0.0,104755.0,1.125,0.0,0.0,0.0,0.25,0.847167882,0.01,0.0,-129991.0,0.25,0.0,-0.0,0.0,0.25,0.545654241,0.01,0.0,13186.0,1.375,0.0,0.0,0.0,0.125,3.3776852010000002,0.01,0.0,-30846.0,0.375,0.0,-0.0,0.0,0.25,1.639404129,0.01,0.0,0.10999999940395355,0.15000000596046448,-102.91000366210938,-0.0020751953125,-4.2724609375E-4,1.0294189453125,36.13999938964844,0.0,3.0,0.7124176025390625,-0.149383544921875,Closing,0.0,0.0,3.0,0.0,0.0,0.0,0.0,0.0,
11.196901000000013,0.0,0.0,104755.0,1.125,0.0,0.0,0.0,0.25,0.847167882,0.01,0.0,-129991.0,0.25,0.0,-0.0,0.0,0.125,0.53710932,0.01,0.0,13186.0,1.5,0.0,0.0,0.0,0.125,3.3776852010000002,0.01,0.0,-30846.0,0.375,0.0,-0.0,0.0,0.125,1.639404129,0.01,0.0,0.10999999940395355,0.10999999940395355,-102.91000366210938,-0.01025390625,0.0047607421875,1.01702880859375,36.18000030517578,0.0,0.0,0.7124176025390625,-0.149383544921875,Closing,0.0,0.0,3.0,0.0,0.0,0.0,0.0,0.0,
11.297457999999985,0.0,0.0,104755.0,1.125,0.0,0.0,0.0,0.25,0.8435057730000001,0.01,0.0,-129991.0,0.25,0.0,-0.0,0.0,0.125,0.531005805,0.01,0.0,13186.0,1.5,0.0,0.0,0.0,0.125,3.3776852010000002,0.01,0.0,-30846.0,0.375,0.0,-0.0,0.0,0.125,1.641845535,0.01,0.0,0.10999999940395355,0.07000000029802322,-102.91000366210938,-0.00634765625,0.00439453125,1.02178955078125,36.18000030517578,0.0,0.0,0.7124176025390625,-0.149383544921875,Closing,0.0,0.0,3.0,0.0,0.0,0.0,0.0,0.0,
11.40261499999999,0.0,0.0,104755.0,1.125,0.0,0.0,0.0,0.25,0.847167882,0.01,0.0,-129991.0,0.25,0.0,-0.0,0.0,0.125,0.53710932,0.01,0.0,13186.0,1.5,0.0,0.0,0.0,0.125,3.3789059040000002,0.01,0.0,-30846.0,0.375,0.0,-0.0,0.0,0.125,1.624755693,0.01,0.0,0.10999999940395355,0.03999999910593033,-102.91999816894531,-0.00958251953125,0.00250244140625,1.02001953125,36.18000030517578,0.0,1.0,0.7124176025390625,-0.149383544921875,Closing,0.0,0.0,3.0,0.0,0.0,0.0,0.0,0.125,
11.508069000000019,0.0,0.0,104755.0,1.125,0.0,0.0,0.0,0.25,0.847167882,0.01,0.0,-129991.0,0.25,0.0,-0.0,0.0,0.125,0.53710932,0.01,0.0,13186.0,1.5,0.0,0.0,0.0,0.125,3.3776852010000002,0.01,0.0,-30846.0,0.375,0.0,-0.0,0.0,0.125,1.640624832,0.01,0.0,0.10999999940395355,0.0,-102.91000366210938,-0.0113525390625,-0.001708984375,1.02337646484375,36.18000030517578,0.0,6.0,0.7124176025390625,-0.149383544921875,Closing,0.0,0.0,3.0,0.0,0.0,0.0,0.0,0.125,
11.614338999999978,0.0,0.0,104755.0,1.125,0.0,0.0,0.0,0.25,0.848388585,0.01,0.0,-129991.0,0.25,0.0,-0.0,0.0,0.125,0.53710932,0.01,0.0,13186.0,1.5,0.0,0.0,0.0,0.125,3.3776852010000002,0.01,0.0,-30846.0,0.375,0.0,-0.0,0.0,0.125,1.639404129,0.01,0.0,0.10000000149011612,-0.029999999329447746,-102.91000366210938,-0.00738525390625,0.00537109375,1.0159912109375,36.18000030517578,0.0,-1.0,0.7124176025390625,-0.149383544921875,Closing,0.0,0.0,3.0,0.0,0.0,0.0,0.0,0.125,
11.723228999999993,0.0,0.0,104755.0,1.125,0.0,0.0,0.0,0.25,0.847167882,0.01,0.0,-129991.0,0.25,0.0,-0.0,0.0,0.125,0.538330023,0.01,0.0,13186.0,1.5,0.0,0.0,0.0,0.125,3.3764644980000003,0.01,0.0,-30846.0,0.375,0.0,-0.0,0.0,0.125,1.639404129,0.01,0.0,0.10000000149011612,-0.05999999865889549,-102.91999816894531,-0.00494384765625,6.7138671875E-4,1.0167236328125,36.13999938964844,0.0,2.0,0.7124176025390625,-0.149383544921875,Closing,0.0,0.0,3.0,0.0,0.0,0.0,0.0,0.0,
11.832215000000026,0.0,0.0,104755.0,1.125,0.0,0.0,0.0,0.25,0.847167882,0.01,0.0,-129991.0,0.25,0.0,-0.0,0.0,0.125,0.535888617,0.01,0.0,13186.0,1.5,0.0,0.0,0.0,0.125,3.3776852010000002,0.01,0.0,-30846.0,0.375,0.0,-0.0,0.0,0.125,1.639404129,0.01,0.0,0.10000000149011612,-0.09000000357627869,-102.91999816894531,-0.01025390625,0.002685546875,1.02166748046875,36.13999938964844,0.0,1.0,0.7124176025390625,-0.149383544921875,Closing,0.0,0.0,3.0,0.0,0.0,0.0,0.0,0.0,
11.942343999999983,0.0,0.0,104755.0,1.125,0.0,0.0,0.0,0.25,0.847167882,0.01,0.0,-129991.0,0.25,0.0,-0.0,0.0,0.125,0.53710932,0.01,0.0,13186.0,1.5,0.0,0.0,0.0,0.125,3.3776852010000002,0.01,0.0,-30846.0,0.375,0.0,-0.0,0.0,0.125,1.639404129,0.01,0.0,0.10000000149011612,-0.11999999731779099,-102.93000030517578,-0.0093994140625,-0.00177001953125,1.01971435546875,36.13999938964844,0.0,5.0,0.7124176025390625,-0.149383544921875,Closing,0.0,0.0,3.0,0.0,0.0,0.0,0.0,0.0,
12.049728999999992,0.0,0.0,104755.0,1.125,0.0,0.0,0.0,0.25,0.847167882,0.01,0.0,-129991.0,0.25,0.0,-0.0,0.0,0.125,0.539550726,0.01,0.0,13186.0,1.5,0.0,0.0,0.0,0.125,3.3776852010000002,0.01,0.0,-30846.0,0.375,0.0,-0.0,0.0,0.125,1.639404129,0.01,0.0,0.10999999940395355,-0.14000000059604645,-102.93000030517578,-0.00860595703125,0.0032958984375,1.021484375,36.13999938964844,0.0,0.0,0.7124176025390625,-0.149383544921875,Closing,0.0,0.0,3.0,0.0,0.0,0.0,0.0,0.0,
12.155802000000024,0.0,0.0,104755.0,1.125,0.0,0.0,0.0,0.25,0.8544921000000001,0.01,0.0,-129991.0,0.25,0.0,-0.0,0.0,0.125,0.535888617,0.01,0.0,13186.0,1.5,0.0,0.0,0.0,0.125,3.3789059040000002,0.01,0.0,-30846.0,0.375,0.0,-0.0,0.0,0.125,1.640624832,0.01,0.0,0.10999999940395355,-0.1599999964237213,-102.93000030517578,-0.005859375,0.006103515625,1.014404296875,36.15999984741211,0.0,-3.0,0.7124176025390625,-0.149383544921875,Closing,0.0,0.0,3.0,0.0,0.0,0.0,0.0,0.0,
12.271124000000011,0.0,0.0,104755.0,1.125,0.0,0.0,0.0,0.25,0.845947179,0.01,0.0,-129991.0,0.25,0.0,-0.0,0.0,0.125,0.53710932,0.01,0.0,13186.0,1.5,0.0,0.0,0.0,0.125,3.3776852010000002,0.01,0.0,-30846.0,0.375,0.0,-0.0,0.0,0.125,1.640624832,0.01,0.0,0.10999999940395355,-0.18000000715255737,-102.94000244140625,-0.00787353515625,0.00177001953125,1.01947021484375,36.15999984741211,0.0,1.0,0.7124176025390625,-0.149383544921875,Closing,0.0,0.0,3.0,0.0,0.0,0.0,0.0,0.125,
12.385063000000024,0.0,0.0,104755.0,1.125,0.0,0.0,0.0,0.25,0.8447264760000001,0.01,0.0,-129991.0,0.25,0.0,-0.0,0.0,0.125,0.53710932,0.01,0.0,13186.0,1.5,0.0,0.0,0.0,0.125,3.3776852010000002,0.01,0.0,-30846.0,0.375,0.0,-0.0,0.0,0.125,1.640624832,0.01,0.0,0.10999999940395355,-0.20000000298023224,-102.94000244140625,-0.01025390625,6.7138671875E-4,1.02447509765625,36.15999984741211,0.0,2.0,0.7124176025390625,-0.149383544921875,Closing,0.0,0.0,3.0,0.0,0.0,0.0,0.0,0.0,
12.492241999999969,0.0,0.0,104755.0,1.125,0.0,0.0,0.0,0.25,0.847167882,0.01,0.0,-129991.0,0.25,0.0,-0.0,0.0,0.125,0.53710932,0.01,0.0,13186.0,1.5,0.0,0.0,0.0,0.125,3.3776852010000002,0.01,0.0,-30846.0,0.375,0.0,-0.0,0.0,0.125,1.639404129,0.01,0.0,0.10999999940395355,-0.2199999988079071,-102.94000244140625,-0.009765625,0.001953125,1.01837158203125,36.15999984741211,0.0,1.0,0.7124176025390625,-0.149383544921875,Closing,0.0,0.0,3.0,0.0,0.0,0.0,0.0,0.0,
12.600771000000007,0.0,0.0,104755.0,1.125,0.0,0.0,0.0,0.25,0.845947179,0.01,0.0,-129991.0,0.25,0.0,-0.0,0.0,0.125,0.53710932,0.01,0.0,13186.0,1.5,0.0,0.0,0.0,0.125,3.3776852010000002,0.01,0.0,-30846.0,0.375,0.0,-0.0,0.0,0.125,1.639404129,0.01,0.0,0.10999999940395355,-0.23000000417232513,-102.94000244140625,-0.00482177734375,-0.00146484375,1.0191650390625,36.15999984741211,0.0,3.0,0.7124176025390625,-0.149383544921875,Closing,0.0,0.0,3.0,0.0,0.0,0.0,0.0,0.0,
12.710592999999994,0.0,0.0,104755.0,1.125,0.0,0.0,0.0,0.25,0.847167882,0.01,0.0,-129991.0,0.25,0.0,-0.0,0.0,0.125,0.53710932,0.01,0.0,13186.0,1.5,0.0,0.0,0.0,0.125,3.3776852010000002,0.01,0.0,-30846.0,0.375,0.0,-0.0,0.0,0.125,1.640624832,0.01,0.0,0.10999999940395355,-0.25,-102.94999694824219,-0.0042724609375,0.00152587890625,1.017822265625,36.16999816894531,0.0,0.0,0.7124176025390625,-0.149383544921875,Closing,0.0,0.0,3.0,0.0,0.0,0.0,0.0,0.0,
12.827653999999981,0.0,0.0,104755.0,1.125,0.0,0.0,0.0,0.25,0.845947179,0.01,0.0,-129991.0,0.25,0.0,-0.0,0.0,0.125,0.539550726,0.01,0.0,13186.0,1.5,0.0,0.0,0.0,0.125,3.3776852010000002,0.01,0.0,-30846.0,0.375,0.0,-0.0,0.0,0.125,1.640624832,0.01,0.0,0.10999999940395355,-0.27000001072883606,-102.94999694824219,-0.0072021484375,-6.103515625E-4,1.022216796875,36.16999816894531,0.0,3.0,0.7124176025390625,-0.149383544921875,Closing,0.0,0.0,3.0,0.0,0.0,0.0,0.0,0.0,
12.935800999999978,0.0,0.0,104755.0,1.125,0.0,0.0,0.0,0.25,0.847167882,0.01,0.0,-129991.0,0.25,0.0,-0.0,0.0,0.125,0.53710932,0.01,0.0,13186.0,1.5,0.0,0.0,0.0,0.125,3.3776852010000002,0.01,0.0,-30846.0,0.375,0.0,-0.0,0.0,0.125,1.639404129,0.01,0.0,0.10999999940395355,-0.2800000011920929,-102.95999908447266,-0.009765625,0.0025634765625,1.0150146484375,36.16999816894531,0.0,0.0,0.7124176025390625,-0.149383544921875,Closing,0.0,0.0,3.0,0.0,0.0,0.0,0.0,0.0,
13.04822999999998,0.0,0.0,104755.0,1.125,0.0,0.0,0.0,0.25,0.847167882,0.01,0.0,-129991.0,0.25,0.0,-0.0,0.0,0.125,0.53710932,0.01,0.0,13186.0,1.5,0.0,0.0,0.0,0.125,3.3764644980000003,0.01,0.0,-30846.0,0.375,0.0,-0.0,0.0,0.125,1.640624832,0.01,0.0,0.10999999940395355,-0.28999999165534973,-102.95999908447266,-0.0064697265625,-1.220703125E-4,1.01708984375,36.16999816894531,0.0,2.0,0.7124176025390625,-0.149383544921875,Closing,0.0,0.0,3.0,0.0,0.0,0.0,0.0,0.0,
13.155858999999996,0.0,0.0,104755.0,0.375,0.0,0.0,0.0,0.25,0.847167882,0.01,0.0,-129991.0,0.25,0.0,-0.0,0.0,0.0,0.53710932,0.01,0.0,13186.0,0.75,0.0,0.0,0.0,0.125,3.3776852010000002,0.01,0.0,-30846.0,0.375,0.0,-0.0,0.0,0.125,1.639404129,0.01,0.0,0.10999999940395355,-0.30000001192092896,-102.95999908447266,-0.00689697265625,0.0018310546875,1.01611328125,36.189998626708984,0.0,0.0,0.7124176025390625,-0.149383544921875,Closing,0.0,0.0,3.0,0.0,0.0,0.0,0.0,0.0,
