Time,ClimberA1,ClimberA2,FRpos,FRCurrent,FRspeed,FRsetpoint,FRApos,FRACurrent,FREncpos,FREncSetpoint,FREncSpeed,FLpos,FLCurrent,FLspeed,FLsetpoint,FLApos,FLACurrent,FLEncpos,FLEncSetpoint,FLEncSpeed,BRpos,BRCurrent,BRspeed,BRsetpoint,BRApos,BRACurrent,BREncpos,BREncSetpoint,BREncSpeed,BLpos,BLCurrent,BLspeed,BLsetpoint,BLApos,BLACurrent,BLEncpos,BLEncSetpoint,BLEncSpeed,navx_Pitch,navx_Roll,navx_Yaw,navx_XAcc,navx_YAcc,navx_ZAcc,navx_Temp,navx_Bar,navx_Alt,navx_XDis,navx_YDis,GearPlacerState,ShootOutputV,ShootOutputCurrent,ShootEncPos,ShootEncVelocity,ShootSpeed,ShootSetpoint,CarouselSetpoint,CarouselCurrent,
0.24986499999999068,0.0,0.0,13001.0,3.0,322.5,694.4823846983091,0.0,0.25,4.860839346000001,4.209019612982328,0.0,-15735.0,4.5,-352.5,-694.4823846983091,0.0,0.25,4.6008296070000005,4.235916883454084,0.0,41.0,7.25,165.0,694.4823846983091,0.0,0.125,2.401122801,4.215973699630836,0.0,-10816.0,3.125,-330.0,-694.4823846983091,0.0,0.25,0.758056563,4.230992956596568,0.0,-1.1399999856948853,0.4000000059604645,-89.29000091552734,0.01348876953125,-0.1964111328125,1.04266357421875,32.52000045776367,0.0,175.0,-0.2035064697265625,0.1278228759765625,Closing,0.0,0.0,1.0,0.0,0.0,0.0,0.0,0.0,
0.3803079999999609,0.0,0.0,13071.0,0.0,352.5,0.0,0.0,2.625,0.438232377,0.01,0.0,-15803.0,0.0,-360.0,-0.0,0.0,1.75,0.102539052,0.01,0.0,94.0,0.5,315.0,0.0,0.0,3.125,2.9443356360000004,0.01,0.0,-10882.0,0.125,-352.5,-0.0,0.0,1.0,1.361083845,0.01,0.0,-1.0800000429153442,0.10000000149011612,-88.9800033569336,0.03240966796875,0.37664794921875,1.1962890625,32.52000045776367,0.0,-395.0,-0.1729583740234375,0.12725830078125,Closing,0.0,0.0,1.0,0.0,0.0,0.0,0.0,0.0,
0.5117079999998677,0.0,0.0,13109.0,0.0,240.0,0.0,0.0,0.5,1.06201161,0.01,0.0,-15864.0,0.0,-405.0,-0.0,0.0,0.5,0.798339762,0.01,0.0,104.0,1.125,67.5,0.0,0.0,0.125,3.591308226,0.01,0.0,-10942.0,0.0,-352.5,-0.0,0.0,0.25,1.961669721,0.01,0.0,0.6700000166893005,0.10000000149011612,-89.19999694824219,-0.13946533203125,0.14697265625,1.05413818359375,32.52000045776367,0.0,-136.0,-0.166717529296875,0.125885009765625,Closing,0.0,0.0,1.0,0.0,0.0,0.0,0.0,0.0,
0.644253000000026,0.0,0.0,13138.0,0.0,157.5,0.0,0.0,0.25,1.042480362,0.01,0.0,-15903.0,0.0,-172.5,-0.0,0.0,0.25,0.8825682690000001,0.01,0.0,112.0,1.375,67.5,0.0,0.0,0.125,3.5839840080000003,0.01,0.0,-10977.0,0.0,-165.0,-0.0,0.0,0.25,1.800536925,0.01,0.0,0.5699999928474426,-0.2800000011920929,-89.27999877929688,-0.0498046875,0.00616455078125,0.952392578125,32.459999084472656,0.0,2.0,-0.171783447265625,0.1169586181640625,Closing,0.0,0.0,1.0,0.0,0.0,0.0,0.0,0.0,
0.7782419999998529,0.0,0.0,13163.0,0.0,135.0,0.0,0.0,0.25,0.852050694,0.01,0.0,-15922.0,0.0,-82.5,-0.0,0.0,0.25,0.550537053,0.01,0.0,136.0,0.875,135.0,0.0,0.0,0.125,3.386230122,0.01,0.0,-10998.0,0.0,-82.5,-0.0,0.0,0.25,1.596679524,0.01,0.0,0.3499999940395355,-0.49000000953674316,-89.44999694824219,-0.06341552734375,-0.00103759765625,1.0489501953125,32.459999084472656,0.0,7.0,-0.1710357666015625,0.1126708984375,Closing,0.0,0.0,1.0,0.0,0.0,0.0,0.0,0.0,
0.9118070000000298,0.0,0.0,13179.0,0.0,52.5,0.0,0.0,0.25,0.7763671080000001,0.01,0.0,-15933.0,0.0,-22.5,-0.0,0.0,0.125,0.31005856200000004,0.01,0.0,150.0,0.875,60.0,0.0,0.0,0.125,3.299560209,0.01,0.0,-11013.0,0.0,-37.5,-0.0,0.0,0.125,1.536865077,0.01,0.0,0.28999999165534973,-0.7099999785423279,-89.4800033569336,-0.055419921875,-0.02264404296875,1.0205078125,32.459999084472656,0.0,27.0,-0.1693572998046875,0.1088409423828125,Closing,0.0,0.0,1.0,0.0,0.0,0.0,0.0,0.0,
1.0449509999998845,0.0,0.0,13184.0,0.0,0.0,0.0,0.0,0.125,0.79345695,0.01,0.0,-15935.0,0.0,0.0,-0.0,0.0,0.25,0.416259723,0.01,0.0,153.0,1.25,0.0,0.0,0.0,0.0,3.3190914570000003,0.01,0.0,-11014.0,0.125,0.0,-0.0,0.0,0.125,1.6101072570000001,0.01,0.0,0.28999999165534973,-0.699999988079071,-89.48999786376953,0.00152587890625,-0.01812744140625,1.02691650390625,32.459999084472656,0.0,23.0,-0.169281005859375,0.1027069091796875,Closing,0.0,0.0,1.0,0.0,0.0,0.0,0.0,0.0,
1.178649999999907,0.0,0.0,13184.0,0.0,0.0,0.0,0.0,0.125,0.8032225740000001,0.01,0.0,-15935.0,0.0,0.0,-0.0,0.0,0.25,0.5029296360000001,0.01,0.0,153.0,1.375,0.0,0.0,0.0,0.0,3.333739893,0.01,0.0,-11014.0,0.125,0.0,-0.0,0.0,0.25,1.619872881,0.01,0.0,0.2800000011920929,-0.6899999976158142,-89.47000122070312,-0.00811767578125,0.0037841796875,1.03173828125,32.5,0.0,1.0,-0.169158935546875,0.1027069091796875,Closing,0.0,0.0,1.0,0.0,0.0,0.0,0.0,0.0,
1.317628000000026,0.0,0.0,13184.0,0.0,0.0,0.0,0.0,0.125,0.8166503070000001,0.01,0.0,-15936.0,0.0,-7.5,-0.0,0.0,0.0,0.5419921320000001,0.01,0.0,153.0,1.375,0.0,0.0,0.0,0.0,3.337402002,0.01,0.0,-11014.0,0.125,0.0,-0.0,0.0,0.125,1.619872881,0.01,0.0,0.25999999046325684,-0.6600000262260437,-89.45999908447266,-0.01171875,-0.00299072265625,1.0245361328125,32.5,0.0,7.0,-0.169158935546875,0.1027069091796875,Closing,0.0,0.0,1.0,0.0,0.0,0.0,0.0,0.0,
1.4398640000000595,0.0,0.0,13184.0,0.0,0.0,0.0,0.0,0.125,0.8032225740000001,0.01,0.0,-15936.0,0.0,0.0,-0.0,0.0,0.0,0.5419921320000001,0.01,0.0,153.0,1.375,0.0,0.0,0.0,0.0,3.337402002,0.01,0.0,-11014.0,0.125,0.0,-0.0,0.0,0.125,1.619872881,0.01,0.0,0.25,-0.6399999856948853,-89.44999694824219,-0.0115966796875,7.9345703125E-4,1.01617431640625,32.5,0.0,3.0,-0.169158935546875,0.1027069091796875,Closing,0.0,0.0,1.0,0.0,0.0,0.0,0.0,0.0,
1.5771729999999515,0.0,0.0,13184.0,0.0,0.0,0.0,0.0,0.125,0.8044432770000001,0.01,0.0,-15936.0,0.0,0.0,-0.0,0.0,0.125,0.5407714290000001,0.01,0.0,153.0,1.375,0.0,0.0,0.0,0.0,3.337402002,0.01,0.0,-11014.0,0.125,0.0,-0.0,0.0,0.125,1.619872881,0.01,0.0,0.23999999463558197,-0.6299999952316284,-89.44000244140625,-0.00732421875,-0.00164794921875,1.01654052734375,32.5,0.0,6.0,-0.169158935546875,0.1027069091796875,Closing,0.0,0.0,1.0,0.0,0.0,0.0,0.0,0.0,
1.7132069999999366,0.0,0.0,13184.0,0.0,0.0,0.0,0.0,0.125,0.8044432770000001,0.01,0.0,-15936.0,0.0,0.0,-0.0,0.0,0.125,0.5419921320000001,0.01,0.0,153.0,1.375,0.0,0.0,0.0,0.0,3.337402002,0.01,0.0,-11014.0,0.125,0.0,-0.0,0.0,0.125,1.618652178,0.01,0.0,0.23000000417232513,-0.6100000143051147,-89.43000030517578,-0.0091552734375,0.0025634765625,1.02471923828125,32.459999084472656,0.0,1.0,-0.169158935546875,0.1027069091796875,Closing,0.0,0.0,1.0,0.0,0.0,0.0,0.0,0.0,
1.8459409999998753,0.0,0.0,13184.0,0.0,0.0,0.0,0.0,0.125,0.8044432770000001,0.01,0.0,-15936.0,0.0,0.0,-0.0,0.0,0.125,0.5419921320000001,0.01,0.0,153.0,1.375,0.0,0.0,0.0,0.0,3.338622705,0.01,0.0,-11014.0,0.125,0.0,-0.0,0.0,0.125,1.621093584,0.01,0.0,0.2199999988079071,-0.6000000238418579,-89.41999816894531,-0.0074462890625,0.00335693359375,1.02252197265625,32.459999084472656,0.0,0.0,-0.169158935546875,0.1027069091796875,Closing,0.0,0.0,1.0,0.0,0.0,0.0,0.0,0.0,
1.9806929999999703,0.0,0.0,13184.0,0.0,0.0,0.0,0.0,0.125,0.8044432770000001,0.01,0.0,-15936.0,0.0,0.0,-0.0,0.0,0.0,0.5419921320000001,0.01,0.0,153.0,1.375,0.0,0.0,0.0,0.0,3.338622705,0.01,0.0,-11014.0,0.125,0.0,-0.0,0.0,0.125,1.619872881,0.01,0.0,0.2199999988079071,-0.5899999737739563,-89.41000366210938,-0.010009765625,6.7138671875E-4,1.01788330078125,32.459999084472656,0.0,3.0,-0.169158935546875,0.1027069091796875,Closing,0.0,0.0,1.0,0.0,0.0,0.0,0.0,0.0,
2.104375,0.0,0.0,13184.0,0.0,0.0,0.0,0.0,0.125,0.8032225740000001,0.01,0.0,-15936.0,0.0,0.0,-0.0,0.0,0.0,0.5407714290000001,0.01,0.0,153.0,1.375,0.0,0.0,0.0,0.0,3.338622705,0.01,0.0,-11014.0,0.125,0.0,-0.0,0.0,0.125,1.619872881,0.01,0.0,0.20999999344348907,-0.5699999928474426,-89.4000015258789,-0.00726318359375,-8.544921875E-4,1.0206298828125,32.459999084472656,0.0,4.0,-0.169158935546875,0.1027069091796875,Closing,0.0,0.0,1.0,0.0,0.0,0.0,0.0,0.0,
2.247534999999916,0.0,0.0,13184.0,0.0,0.0,0.0,0.0,0.125,0.8044432770000001,0.01,0.0,-15936.0,0.0,0.0,-0.0,0.0,0.0,0.5419921320000001,0.01,0.0,153.0,1.375,0.0,0.0,0.0,0.0,3.338622705,0.01,0.0,-11014.0,0.125,0.0,-0.0,0.0,0.125,1.619872881,0.01,0.0,0.20000000298023224,-0.5600000023841858,-89.38999938964844,-0.01025390625,0.0015869140625,1.0206298828125,32.5,0.0,2.0,-0.169158935546875,0.1027069091796875,Closing,0.0,0.0,1.0,0.0,0.0,0.0,0.0,0.0,
2.380685999999987,0.0,0.0,13184.0,0.0,0.0,0.0,0.0,0.125,0.8032225740000001,0.01,0.0,-15936.0,0.0,0.0,-0.0,0.0,0.0,0.5407714290000001,0.01,0.0,153.0,1.375,0.0,0.0,0.0,0.0,3.347167626,0.01,0.0,-11014.0,0.125,0.0,-0.0,0.0,0.125,1.619872881,0.01,0.0,0.1899999976158142,-0.550000011920929,-89.37999725341797,-0.00970458984375,0.00439453125,1.0174560546875,32.5,0.0,0.0,-0.169158935546875,0.1027069091796875,Closing,0.0,0.0,1.0,0.0,0.0,0.0,0.0,0.0,
2.5125439999999943,0.0,0.0,13184.0,0.0,0.0,0.0,0.0,0.125,0.8032225740000001,0.01,0.0,-15936.0,0.0,0.0,-0.0,0.0,0.0,0.5419921320000001,0.01,0.0,153.0,1.375,0.0,0.0,0.0,0.0,3.337402002,0.01,0.0,-11014.0,0.125,0.0,-0.0,0.0,0.125,1.618652178,0.01,0.0,0.1899999976158142,-0.550000011920929,-89.37000274658203,-0.009765625,0.00128173828125,1.02252197265625,32.5,0.0,2.0,-0.169158935546875,0.1027069091796875,Closing,0.0,0.0,1.0,0.0,0.0,0.0,0.0,0.0,
2.645149999999907,0.0,0.0,13184.0,0.0,0.0,0.0,0.0,0.125,0.8044432770000001,0.01,0.0,-15936.0,0.0,0.0,-0.0,0.0,0.125,0.5419921320000001,0.01,0.0,153.0,1.375,0.0,0.0,0.0,0.0,3.337402002,0.01,0.0,-11014.0,0.125,0.0,-0.0,0.0,0.125,1.619872881,0.01,0.0,0.18000000715255737,-0.5400000214576721,-89.36000061035156,-0.0098876953125,0.0032958984375,1.02117919921875,32.5,0.0,0.0,-0.169158935546875,0.1027069091796875,Closing,0.0,0.0,1.0,0.0,0.0,0.0,0.0,0.0,
2.780273999999976,0.0,0.0,13184.0,0.0,0.0,0.0,0.0,0.125,0.8044432770000001,0.01,0.0,-15936.0,0.0,0.0,-0.0,0.0,0.125,0.5419921320000001,0.01,0.0,153.0,1.375,0.0,0.0,0.0,0.0,3.338622705,0.01,0.0,-11014.0,0.125,0.0,-0.0,0.0,0.125,1.619872881,0.01,0.0,0.18000000715255737,-0.5199999809265137,-89.3499984741211,-0.0108642578125,0.003173828125,1.023193359375,32.470001220703125,0.0,0.0,-0.169158935546875,0.1027069091796875,Closing,0.0,0.0,1.0,0.0,0.0,0.0,0.0,0.0,
2.912905999999959,0.0,0.0,13184.0,0.0,0.0,0.0,0.0,0.125,0.8044432770000001,0.01,0.0,-15936.0,0.0,0.0,-0.0,0.0,0.125,0.5419921320000001,0.01,0.0,153.0,1.375,0.0,0.0,0.0,0.0,3.338622705,0.01,0.0,-11014.0,0.125,0.0,-0.0,0.0,0.125,1.619872881,0.01,0.0,0.18000000715255737,-0.5199999809265137,-89.33999633789062,-0.00872802734375,0.00115966796875,1.01287841796875,32.470001220703125,0.0,2.0,-0.169158935546875,0.1027069091796875,Closing,0.0,0.0,1.0,0.0,0.0,0.0,0.0,0.0,
3.037155999999959,0.0,0.0,13184.0,0.0,0.0,0.0,0.0,0.125,0.8044432770000001,0.01,0.0,-15936.0,0.0,0.0,-0.0,0.0,0.125,0.5419921320000001,0.01,0.0,153.0,1.375,0.0,0.0,0.0,0.0,3.338622705,0.01,0.0,-11014.0,0.125,0.0,-0.0,0.0,0.125,1.619872881,0.01,0.0,0.18000000715255737,-0.5199999809265137,-89.33000183105469,-0.00970458984375,0.00323486328125,1.0230712890625,32.470001220703125,0.0,0.0,-0.169158935546875,0.1027069091796875,Closing,0.0,0.0,1.0,0.0,0.0,0.0,0.0,0.0,
3.178997999999905,0.0,0.0,13184.0,0.0,0.0,0.0,0.0,0.125,0.8044432770000001,0.01,0.0,-15936.0,0.0,0.0,-0.0,0.0,0.125,0.5419921320000001,0.01,0.0,153.0,1.375,0.0,0.0,0.0,0.0,3.337402002,0.01,0.0,-11014.0,0.125,0.0,-0.0,0.0,0.125,1.619872881,0.01,0.0,0.17000000178813934,-0.5099999904632568,-89.31999969482422,-0.0101318359375,0.00335693359375,1.021240234375,32.470001220703125,0.0,0.0,-0.169158935546875,0.1027069091796875,Closing,0.0,0.0,1.0,0.0,0.0,0.0,0.0,0.0,
3.3017049999998416,0.0,0.0,13184.0,0.0,0.0,0.0,0.0,0.125,0.8044432770000001,0.01,0.0,-15936.0,0.0,0.0,-0.0,0.0,0.125,0.5407714290000001,0.01,0.0,153.0,1.375,0.0,0.0,0.0,0.0,3.338622705,0.01,0.0,-11014.0,0.125,0.0,-0.0,0.0,0.125,1.619872881,0.01,0.0,0.17000000178813934,-0.5099999904632568,-89.30999755859375,-0.0078125,0.0028076171875,1.02496337890625,32.52000045776367,0.0,0.0,-0.169158935546875,0.1027069091796875,Closing,0.0,0.0,1.0,0.0,0.0,0.0,0.0,0.0,
3.4439350000000557,0.0,0.0,13184.0,0.0,0.0,0.0,0.0,0.125,0.8044432770000001,0.01,0.0,-15936.0,0.0,0.0,-0.0,0.0,0.125,0.535888617,0.01,0.0,153.0,1.375,0.0,0.0,0.0,0.0,3.337402002,0.01,0.0,-11014.0,0.125,0.0,-0.0,0.0,0.125,1.619872881,0.01,0.0,0.1599999964237213,-0.5,-89.30000305175781,-0.00732421875,0.00244140625,1.02392578125,32.52000045776367,0.0,0.0,-0.169158935546875,0.1027069091796875,Closing,0.0,0.0,1.0,0.0,0.0,0.0,0.0,0.0,
3.5713829999999143,0.0,0.0,13184.0,0.0,0.0,0.0,0.0,0.125,0.8044432770000001,0.01,0.0,-15936.0,0.0,0.0,-0.0,0.0,0.125,0.5419921320000001,0.01,0.0,153.0,1.375,0.0,0.0,0.0,0.0,3.338622705,0.01,0.0,-11014.0,0.125,0.0,-0.0,0.0,0.125,1.619872881,0.01,0.0,0.1599999964237213,-0.5,-89.29000091552734,-0.0072021484375,0.003662109375,1.01812744140625,32.52000045776367,0.0,0.0,-0.169158935546875,0.1027069091796875,Closing,0.0,0.0,1.0,0.0,0.0,0.0,0.0,0.0,
3.7113619999999647,0.0,0.0,13184.0,0.0,0.0,0.0,0.0,0.125,0.8044432770000001,0.01,0.0,-15936.0,0.0,0.0,-0.0,0.0,0.0,0.5407714290000001,0.01,0.0,153.0,1.5,0.0,0.0,0.0,0.0,3.338622705,0.01,0.0,-11014.0,0.125,0.0,-0.0,0.0,0.125,1.621093584,0.01,0.0,0.1599999964237213,-0.5,-89.27999877929688,-0.0062255859375,0.00323486328125,1.02557373046875,32.47999954223633,0.0,0.0,-0.169158935546875,0.1027069091796875,Closing,0.0,0.0,1.0,0.0,0.0,0.0,0.0,0.0,
3.846937999999849,0.0,0.0,13184.0,0.0,0.0,0.0,0.0,0.125,0.8032225740000001,0.01,0.0,-15936.0,0.0,0.0,-0.0,0.0,0.0,0.5407714290000001,0.01,0.0,153.0,1.5,0.0,0.0,0.0,0.0,3.337402002,0.01,0.0,-11014.0,0.125,0.0,-0.0,0.0,0.125,1.619872881,0.01,0.0,0.15000000596046448,-0.49000000953674316,-89.2699966430664,-0.0072021484375,0.00372314453125,1.0245361328125,32.47999954223633,0.0,0.0,-0.169158935546875,0.1027069091796875,Closing,0.0,0.0,1.0,0.0,0.0,0.0,0.0,0.0,
3.9804549999998415,0.0,0.0,13184.0,0.0,0.0,0.0,0.0,0.125,0.8044432770000001,0.01,0.0,-15936.0,0.0,0.0,-0.0,0.0,0.125,0.5419921320000001,0.01,0.0,153.0,1.375,0.0,0.0,0.0,0.0,3.338622705,0.01,0.0,-11014.0,0.125,0.0,-0.0,0.0,0.125,1.619872881,0.01,0.0,0.1599999964237213,-0.49000000953674316,-89.25,-0.00439453125,4.8828125E-4,1.0211181640625,32.47999954223633,0.0,2.0,-0.169158935546875,0.1027069091796875,Closing,0.0,0.0,1.0,0.0,0.0,0.0,0.0,0.0,
4.100337000000057,0.0,0.0,13184.0,0.0,0.0,0.0,0.0,0.125,0.8032225740000001,0.01,0.0,-15936.0,0.0,0.0,-0.0,0.0,0.0,0.539550726,0.01,0.0,153.0,1.375,0.0,0.0,0.0,0.0,3.34472622,0.01,0.0,-11014.0,0.125,0.0,-0.0,0.0,0.125,1.619872881,0.01,0.0,0.1599999964237213,-0.47999998927116394,-89.25,-0.006591796875,0.00311279296875,1.0245361328125,32.47999954223633,0.0,0.0,-0.169158935546875,0.1027069091796875,Closing,0.0,0.0,1.0,0.0,0.0,0.0,0.0,0.0,
4.245523999999976,0.0,0.0,13184.0,0.0,0.0,0.0,0.0,0.125,0.8044432770000001,0.01,0.0,-15936.0,0.0,0.0,-0.0,0.0,0.125,0.5419921320000001,0.01,0.0,153.0,1.5,0.0,0.0,0.0,0.0,3.337402002,0.01,0.0,-11014.0,0.125,0.0,-0.0,0.0,0.125,1.619872881,0.01,0.0,0.1599999964237213,-0.47999998927116394,-89.2300033569336,-0.00531005859375,0.00506591796875,1.02081298828125,32.5,0.0,-2.0,-0.169158935546875,0.1027069091796875,Closing,0.0,0.0,1.0,0.0,0.0,0.0,0.0,0.0,
4.381298999999883,0.0,0.0,13184.0,0.0,0.0,0.0,0.0,0.125,0.8044432770000001,0.01,0.0,-15936.0,0.0,0.0,-0.0,0.0,0.125,0.5419921320000001,0.01,0.0,153.0,1.5,0.0,0.0,0.0,0.0,3.338622705,0.01,0.0,-11014.0,0.125,0.0,-0.0,0.0,0.125,1.619872881,0.01,0.0,0.1599999964237213,-0.47999998927116394,-89.22000122070312,-0.00872802734375,0.00341796875,1.02227783203125,32.5,0.0,0.0,-0.169158935546875,0.1027069091796875,Closing,0.0,0.0,1.0,0.0,0.0,0.0,0.0,0.0,
4.499936999999918,0.0,0.0,13184.0,0.0,0.0,0.0,0.0,0.125,0.8032225740000001,0.01,0.0,-15936.0,0.0,0.0,-0.0,0.0,0.0,0.5419921320000001,0.01,0.0,153.0,1.375,0.0,0.0,0.0,0.0,3.338622705,0.01,0.0,-11014.0,0.125,0.0,-0.0,0.0,0.125,1.618652178,0.01,0.0,0.1599999964237213,-0.47999998927116394,-89.20999908447266,-0.00750732421875,0.002685546875,1.029052734375,32.5,0.0,0.0,-0.169158935546875,0.1027069091796875,Closing,0.0,0.0,1.0,0.0,0.0,0.0,0.0,0.0,
4.64496399999992,0.0,0.0,13184.0,0.0,0.0,0.0,0.0,0.125,0.8032225740000001,0.01,0.0,-15936.0,0.0,0.0,-0.0,0.0,0.125,0.5419921320000001,0.01,0.0,153.0,1.375,0.0,0.0,0.0,0.0,3.338622705,0.01,0.0,-11014.0,0.125,0.0,-0.0,0.0,0.125,1.619872881,0.01,0.0,0.1599999964237213,-0.47999998927116394,-89.19999694824219,-0.008056640625,0.00531005859375,1.02294921875,32.5,0.0,-2.0,-0.169158935546875,0.1027069091796875,Closing,0.0,0.0,1.0,0.0,0.0,0.0,0.0,0.0,
4.781229999999981,0.0,0.0,13184.0,0.0,0.0,0.0,0.0,0.125,0.8032225740000001,0.01,0.0,-15936.0,0.0,0.0,-0.0,0.0,0.125,0.5419921320000001,0.01,0.0,153.0,1.5,0.0,0.0,0.0,0.0,3.339843408,0.01,0.0,-11014.0,0.125,0.0,-0.0,0.0,0.125,1.619872881,0.01,0.0,0.15000000596046448,-0.47999998927116394,-89.19000244140625,-0.009033203125,0.0042724609375,1.01885986328125,32.5099983215332,0.0,-1.0,-0.169158935546875,0.1027069091796875,Closing,0.0,0.0,1.0,0.0,0.0,0.0,0.0,0.0,
4.901418999999994,0.0,0.0,13184.0,0.0,0.0,0.0,0.0,0.125,0.8044432770000001,0.01,0.0,-15936.0,0.0,0.0,-0.0,0.0,0.125,0.5419921320000001,0.01,0.0,153.0,1.5,0.0,0.0,0.0,0.0,3.336181299,0.01,0.0,-11014.0,0.125,0.0,-0.0,0.0,0.125,1.619872881,0.01,0.0,0.15000000596046448,-0.47999998927116394,-89.18000030517578,-0.0064697265625,0.00152587890625,1.02239990234375,32.5099983215332,0.0,1.0,-0.169158935546875,0.1027069091796875,Closing,0.0,0.0,1.0,0.0,0.0,0.0,0.0,0.0,
5.0466180000000165,0.0,0.0,13184.0,0.0,0.0,0.0,0.0,0.125,0.8044432770000001,0.01,0.0,-15936.0,0.0,0.0,-0.0,0.0,0.125,0.5419921320000001,0.01,0.0,153.0,1.375,0.0,0.0,0.0,0.0,3.337402002,0.01,0.0,-11014.0,0.125,0.0,-0.0,0.0,0.125,1.619872881,0.01,0.0,0.15000000596046448,-0.47999998927116394,-89.16999816894531,-0.00897216796875,0.00341796875,1.02557373046875,32.5099983215332,0.0,0.0,-0.169158935546875,0.1027069091796875,Closing,0.0,0.0,1.0,0.0,0.0,0.0,0.0,0.0,
5.172429999999935,0.0,0.0,13184.0,0.0,0.0,0.0,0.0,0.125,0.8032225740000001,0.01,0.0,-15936.0,0.0,0.0,-0.0,0.0,0.125,0.5419921320000001,0.01,0.0,153.0,1.375,0.0,0.0,0.0,0.0,3.333739893,0.01,0.0,-11014.0,0.125,0.0,-0.0,0.0,0.125,1.619872881,0.01,0.0,0.1599999964237213,-0.4699999988079071,-89.16000366210938,-0.01055908203125,0.003662109375,1.0230712890625,32.5099983215332,0.0,0.0,-0.169158935546875,0.1027069091796875,Closing,0.0,0.0,1.0,0.0,0.0,0.0,0.0,0.0,
5.3030019999998625,0.0,0.0,13184.0,0.0,0.0,0.0,0.0,0.125,0.8044432770000001,0.01,0.0,-15936.0,0.0,0.0,-0.0,0.0,0.125,0.5419921320000001,0.01,0.0,153.0,1.5,0.0,0.0,0.0,0.0,3.337402002,0.01,0.0,-11014.0,0.125,0.0,-0.0,0.0,0.125,1.619872881,0.01,0.0,0.1599999964237213,-0.4699999988079071,-89.1500015258789,-0.0093994140625,0.004150390625,1.0244140625,32.540000915527344,0.0,-1.0,-0.169158935546875,0.1027069091796875,Closing,0.0,0.0,1.0,0.0,0.0,0.0,0.0,0.0,
5.446558999999892,0.0,0.0,13184.0,0.0,0.0,0.0,0.0,0.125,0.8032225740000001,0.01,0.0,-15936.0,0.0,0.0,-0.0,0.0,0.0,0.5419921320000001,0.01,0.0,153.0,1.375,0.0,0.0,0.0,0.0,3.334960596,0.01,0.0,-11014.0,0.125,0.0,-0.0,0.0,0.125,1.619872881,0.01,0.0,0.15000000596046448,-0.47999998927116394,-89.13999938964844,-0.0086669921875,0.001220703125,1.02325439453125,32.540000915527344,0.0,1.0,-0.169158935546875,0.1027069091796875,Closing,0.0,0.0,1.0,0.0,0.0,0.0,0.0,0.0,
5.579358999999939,0.0,0.0,13184.0,0.0,0.0,0.0,0.0,0.125,0.8044432770000001,0.01,0.0,-15936.0,0.0,0.0,-0.0,0.0,0.125,0.5419921320000001,0.01,0.0,153.0,1.5,0.0,0.0,0.0,0.0,3.337402002,0.01,0.0,-11014.0,0.125,0.0,-0.0,0.0,0.125,1.619872881,0.01,0.0,0.15000000596046448,-0.4699999988079071,-89.12999725341797,-0.00872802734375,0.0023193359375,1.0262451171875,32.540000915527344,0.0,0.0,-0.169158935546875,0.1027069091796875,Closing,0.0,0.0,1.0,0.0,0.0,0.0,0.0,0.0,
5.712469999999972,0.0,0.0,13184.0,0.0,0.0,0.0,0.0,0.125,0.8032225740000001,0.01,0.0,-15936.0,0.0,0.0,-0.0,0.0,0.0,0.5407714290000001,0.01,0.0,153.0,1.375,0.0,0.0,0.0,0.0,3.337402002,0.01,0.0,-11014.0,0.125,0.0,-0.0,0.0,0.125,1.619872881,0.01,0.0,0.15000000596046448,-0.47999998927116394,-89.12000274658203,-0.00860595703125,0.00421142578125,1.0196533203125,32.540000915527344,0.0,-1.0,-0.169158935546875,0.1027069091796875,Closing,0.0,0.0,1.0,0.0,0.0,0.0,0.0,0.0,
5.846041999999899,0.0,0.0,13184.0,0.0,0.0,0.0,0.0,0.125,0.8044432770000001,0.01,0.0,-15936.0,0.0,0.0,-0.0,0.0,0.125,0.5419921320000001,0.01,0.0,153.0,1.5,0.0,0.0,0.0,0.0,3.337402002,0.01,0.0,-11014.0,0.125,0.0,-0.0,0.0,0.125,1.619872881,0.01,0.0,0.15000000596046448,-0.47999998927116394,-89.11000061035156,-0.0081787109375,0.00579833984375,1.025634765625,32.540000915527344,0.0,-2.0,-0.169158935546875,0.1027069091796875,Closing,0.0,0.0,1.0,0.0,0.0,0.0,0.0,0.0,
5.974097000000067,0.0,0.0,13184.0,0.0,0.0,0.0,0.0,0.125,0.8044432770000001,0.01,0.0,-15936.0,0.0,0.0,-0.0,0.0,0.125,0.5419921320000001,0.01,0.0,153.0,1.375,0.0,0.0,0.0,0.0,3.337402002,0.01,0.0,-11014.0,0.125,0.0,-0.0,0.0,0.125,1.6308592080000002,0.01,0.0,0.15000000596046448,-0.47999998927116394,-89.0999984741211,-0.0086669921875,0.00311279296875,1.02117919921875,32.540000915527344,0.0,0.0,-0.169158935546875,0.1027069091796875,Closing,0.0,0.0,1.0,0.0,0.0,0.0,0.0,0.0,
6.113976000000024,0.0,0.0,13184.0,0.0,0.0,0.0,0.0,0.125,0.8044432770000001,0.01,0.0,-15936.0,0.0,0.0,-0.0,0.0,0.0,0.5407714290000001,0.01,0.0,153.0,1.5,0.0,0.0,0.0,0.0,3.338622705,0.01,0.0,-11014.0,0.125,0.0,-0.0,0.0,0.125,1.619872881,0.01,0.0,0.15000000596046448,-0.47999998927116394,-89.08999633789062,-0.00665283203125,0.00299072265625,1.01788330078125,32.540000915527344,0.0,0.0,-0.169158935546875,0.1027069091796875,Closing,0.0,0.0,1.0,0.0,0.0,0.0,0.0,0.0,
6.236761999999872,0.0,0.0,13184.0,0.0,0.0,0.0,0.0,0.125,0.8044432770000001,0.01,0.0,-15936.0,0.0,0.0,-0.0,0.0,0.0,0.5419921320000001,0.01,0.0,153.0,1.5,0.0,0.0,0.0,0.0,3.337402002,0.01,0.0,-11014.0,0.125,0.0,-0.0,0.0,0.125,1.621093584,0.01,0.0,0.1599999964237213,-0.4699999988079071,-89.08000183105469,-0.005126953125,0.0023193359375,1.0234375,32.540000915527344,0.0,0.0,-0.169158935546875,0.1027069091796875,Closing,0.0,0.0,1.0,0.0,0.0,0.0,0.0,0.0,
6.371091999999946,0.0,0.0,13184.0,0.0,0.0,0.0,0.0,0.125,0.8044432770000001,0.01,0.0,-15936.0,0.0,0.0,-0.0,0.0,0.0,0.5419921320000001,0.01,0.0,153.0,1.5,0.0,0.0,0.0,0.0,3.338622705,0.01,0.0,-11014.0,0.125,0.0,-0.0,0.0,0.125,1.619872881,0.01,0.0,0.15000000596046448,-0.47999998927116394,-89.06999969482422,-0.00787353515625,0.00372314453125,1.0228271484375,32.540000915527344,0.0,0.0,-0.169158935546875,0.1027069091796875,Closing,0.0,0.0,1.0,0.0,0.0,0.0,0.0,0.0,
6.512915000000037,0.0,0.0,13184.0,0.0,0.0,0.0,0.0,0.125,0.8044432770000001,0.01,0.0,-15936.0,0.0,0.0,-0.0,0.0,0.125,0.5407714290000001,0.01,0.0,153.0,1.5,0.0,0.0,0.0,0.0,3.337402002,0.01,0.0,-11014.0,0.125,0.0,-0.0,0.0,0.125,1.619872881,0.01,0.0,0.15000000596046448,-0.47999998927116394,-89.05999755859375,-0.008056640625,1.220703125E-4,1.02557373046875,32.540000915527344,0.0,2.0,-0.169158935546875,0.1027069091796875,Closing,0.0,0.0,1.0,0.0,0.0,0.0,0.0,0.0,
6.645095999999903,0.0,0.0,13184.0,0.0,0.0,0.0,0.0,0.125,0.8044432770000001,0.01,0.0,-15936.0,0.0,0.0,-0.0,0.0,0.0,0.5419921320000001,0.01,0.0,153.0,1.375,0.0,0.0,0.0,0.0,3.338622705,0.01,0.0,-11014.0,0.125,0.0,-0.0,0.0,0.125,1.619872881,0.01,0.0,0.15000000596046448,-0.47999998927116394,-89.05000305175781,-0.0086669921875,0.00372314453125,1.02130126953125,32.540000915527344,0.0,0.0,-0.169158935546875,0.1027069091796875,Closing,0.0,0.0,1.0,0.0,0.0,0.0,0.0,0.0,
6.771641000000061,0.0,0.0,13184.0,0.0,0.0,0.0,0.0,0.125,0.8044432770000001,0.01,0.0,-15936.0,0.0,0.0,-0.0,0.0,0.125,0.5419921320000001,0.01,0.0,153.0,1.375,0.0,0.0,0.0,0.0,3.337402002,0.01,0.0,-11014.0,0.125,0.0,-0.0,0.0,0.125,1.621093584,0.01,0.0,0.15000000596046448,-0.47999998927116394,-89.04000091552734,-0.00799560546875,0.0035400390625,1.02008056640625,32.54999923706055,0.0,0.0,-0.169158935546875,0.1027069091796875,Closing,0.0,0.0,1.0,0.0,0.0,0.0,0.0,0.0,
6.901929999999934,0.0,0.0,13184.0,0.0,0.0,0.0,0.0,0.125,0.8032225740000001,0.01,0.0,-15936.0,0.0,0.0,-0.0,0.0,0.125,0.5419921320000001,0.01,0.0,153.0,1.375,0.0,0.0,0.0,0.0,3.338622705,0.01,0.0,-11014.0,0.125,0.0,-0.0,0.0,0.125,1.619872881,0.01,0.0,0.15000000596046448,-0.47999998927116394,-89.02999877929688,-0.0068359375,0.003662109375,1.02496337890625,32.54999923706055,0.0,0.0,-0.169158935546875,0.1027069091796875,Closing,0.0,0.0,1.0,0.0,0.0,0.0,0.0,0.0,
7.044180999999866,0.0,0.0,13184.0,0.0,0.0,0.0,0.0,0.125,0.8032225740000001,0.01,0.0,-15936.0,0.0,0.0,-0.0,0.0,0.125,0.5419921320000001,0.01,0.0,153.0,1.375,0.0,0.0,0.0,0.0,3.338622705,0.01,0.0,-11014.0,0.125,0.0,-0.0,0.0,0.125,1.619872881,0.01,0.0,0.1599999964237213,-0.4699999988079071,-89.0199966430664,-0.00836181640625,0.00482177734375,1.02093505859375,32.54999923706055,0.0,-1.0,-0.169158935546875,0.1027069091796875,Closing,0.0,0.0,1.0,0.0,0.0,0.0,0.0,0.0,
7.1724799999999815,0.0,0.0,13184.0,0.0,0.0,0.0,0.0,0.125,0.8032225740000001,0.01,0.0,-15936.0,0.0,0.0,-0.0,0.0,0.125,0.5419921320000001,0.01,0.0,153.0,1.375,0.0,0.0,0.0,0.0,3.337402002,0.01,0.0,-11014.0,0.125,0.0,-0.0,0.0,0.125,1.619872881,0.01,0.0,0.15000000596046448,-0.4699999988079071,-89.01000213623047,-0.00897216796875,2.44140625E-4,1.022216796875,32.54999923706055,0.0,2.0,-0.169158935546875,0.1027069091796875,Closing,0.0,0.0,1.0,0.0,0.0,0.0,0.0,0.0,
7.310929999999935,0.0,0.0,13184.0,0.0,0.0,0.0,0.0,0.125,0.8044432770000001,0.01,0.0,-15936.0,0.0,0.0,-0.0,0.0,0.125,0.5419921320000001,0.01,0.0,153.0,1.375,0.0,0.0,0.0,0.0,3.337402002,0.01,0.0,-11014.0,0.125,0.0,-0.0,0.0,0.125,1.619872881,0.01,0.0,0.15000000596046448,-0.4699999988079071,-89.0,-0.00982666015625,0.00244140625,1.021728515625,32.529998779296875,0.0,0.0,-0.169158935546875,0.1027069091796875,Closing,0.0,0.0,1.0,0.0,0.0,0.0,0.0,0.0,
7.443503000000026,0.0,0.0,13184.0,0.0,0.0,0.0,0.0,0.125,0.8032225740000001,0.01,0.0,-15936.0,0.0,0.0,-0.0,0.0,0.125,0.5407714290000001,0.01,0.0,153.0,1.5,0.0,0.0,0.0,0.0,3.337402002,0.01,0.0,-11014.0,0.125,0.0,-0.0,0.0,0.125,1.619872881,0.01,0.0,0.15000000596046448,-0.4699999988079071,-88.98999786376953,-0.005859375,0.00225830078125,1.02191162109375,32.529998779296875,0.0,0.0,-0.169158935546875,0.1027069091796875,Closing,0.0,0.0,1.0,0.0,0.0,0.0,0.0,0.0,
7.580689000000013,0.0,0.0,13184.0,0.0,0.0,0.0,0.0,0.125,0.8044432770000001,0.01,0.0,-15936.0,0.0,0.0,-0.0,0.0,0.125,0.5407714290000001,0.01,0.0,153.0,1.375,0.0,0.0,0.0,0.0,3.337402002,0.01,0.0,-11014.0,0.125,0.0,-0.0,0.0,0.125,1.619872881,0.01,0.0,0.15000000596046448,-0.4699999988079071,-88.9800033569336,-0.0084228515625,0.00115966796875,1.0225830078125,32.529998779296875,0.0,1.0,-0.169158935546875,0.1027069091796875,Closing,0.0,0.0,1.0,0.0,0.0,0.0,0.0,0.0,
7.700047999999952,0.0,0.0,13184.0,0.0,0.0,0.0,0.0,0.125,0.8044432770000001,0.01,0.0,-15936.0,0.0,0.0,-0.0,0.0,0.125,0.5419921320000001,0.01,0.0,153.0,1.375,0.0,0.0,0.0,0.0,3.338622705,0.01,0.0,-11014.0,0.125,0.0,-0.0,0.0,0.125,1.619872881,0.01,0.0,0.15000000596046448,-0.4699999988079071,-88.97000122070312,-0.00982666015625,0.00439453125,1.02569580078125,32.529998779296875,0.0,-1.0,-0.169158935546875,0.1027069091796875,Closing,0.0,0.0,1.0,0.0,0.0,0.0,0.0,0.0,
7.83840699999989,0.0,0.0,13184.0,0.0,0.0,0.0,0.0,0.125,0.8032225740000001,0.01,0.0,-15936.0,0.0,0.0,-0.0,0.0,0.0,0.5419921320000001,0.01,0.0,153.0,1.5,0.0,0.0,0.0,0.0,3.338622705,0.01,0.0,-11014.0,0.125,0.0,-0.0,0.0,0.125,1.619872881,0.01,0.0,0.15000000596046448,-0.4699999988079071,-88.95999908447266,-0.00823974609375,0.0018310546875,1.0201416015625,32.52000045776367,0.0,1.0,-0.169158935546875,0.1027069091796875,Closing,0.0,0.0,1.0,0.0,0.0,0.0,0.0,0.0,
7.981233999999938,0.0,0.0,13184.0,0.0,0.0,0.0,0.0,0.125,0.8044432770000001,0.01,0.0,-15936.0,0.0,0.0,-0.0,0.0,0.125,0.5419921320000001,0.01,0.0,153.0,1.375,0.0,0.0,0.0,0.0,3.338622705,0.01,0.0,-11014.0,0.125,0.0,-0.0,0.0,0.125,1.621093584,0.01,0.0,0.1599999964237213,-0.4699999988079071,-88.94999694824219,-0.0069580078125,0.00225830078125,1.0225830078125,32.52000045776367,0.0,0.0,-0.169158935546875,0.1027069091796875,Closing,0.0,0.0,1.0,0.0,0.0,0.0,0.0,0.0,
8.100439999999944,0.0,0.0,13184.0,0.0,0.0,0.0,0.0,0.125,0.8044432770000001,0.01,0.0,-15936.0,0.0,0.0,-0.0,0.0,0.125,0.5419921320000001,0.01,0.0,153.0,1.375,0.0,0.0,0.0,0.0,3.338622705,0.01,0.0,-11014.0,0.125,0.0,-0.0,0.0,0.125,1.621093584,0.01,0.0,0.1599999964237213,-0.4699999988079071,-88.94000244140625,-0.00848388671875,0.002197265625,1.02392578125,32.52000045776367,0.0,0.0,-0.169158935546875,0.1027069091796875,Closing,0.0,0.0,1.0,0.0,0.0,0.0,0.0,0.0,
8.244084000000031,0.0,0.0,13184.0,0.0,0.0,0.0,0.0,0.125,0.8044432770000001,0.01,0.0,-15936.0,0.0,0.0,-0.0,0.0,0.125,0.5419921320000001,0.01,0.0,153.0,1.375,0.0,0.0,0.0,0.0,3.337402002,0.01,0.0,-11014.0,0.125,0.0,-0.0,0.0,0.125,1.619872881,0.01,0.0,0.1599999964237213,-0.4699999988079071,-88.93000030517578,-0.01019287109375,0.0028076171875,1.02191162109375,32.52000045776367,0.0,0.0,-0.169158935546875,0.1027069091796875,Closing,0.0,0.0,1.0,0.0,0.0,0.0,0.0,0.0,
8.379987999999896,0.0,0.0,13184.0,0.0,0.0,0.0,0.0,0.125,0.8032225740000001,0.01,0.0,-15936.0,0.0,0.0,-0.0,0.0,0.125,0.5407714290000001,0.01,0.0,153.0,1.375,0.0,0.0,0.0,0.0,3.338622705,0.01,0.0,-11014.0,0.125,0.0,-0.0,0.0,0.125,1.619872881,0.01,0.0,0.1599999964237213,-0.4699999988079071,-88.93000030517578,-0.00848388671875,0.0015869140625,1.0205078125,32.54999923706055,0.0,1.0,-0.169158935546875,0.1027069091796875,Closing,0.0,0.0,1.0,0.0,0.0,0.0,0.0,0.0,
8.506449000000023,0.0,0.0,13184.0,0.0,0.0,0.0,0.0,0.125,0.8044432770000001,0.01,0.0,-15936.0,0.0,0.0,-0.0,0.0,0.0,0.5419921320000001,0.01,0.0,153.0,1.375,0.0,0.0,0.0,0.0,3.338622705,0.01,0.0,-11014.0,0.125,0.0,-0.0,0.0,0.125,1.619872881,0.01,0.0,0.1599999964237213,-0.4699999988079071,-88.93000030517578,-0.00885009765625,0.00482177734375,1.02508544921875,32.54999923706055,0.0,-1.0,-0.169158935546875,0.1027069091796875,Closing,0.0,0.0,1.0,0.0,0.0,0.0,0.0,0.0,
8.645685999999987,0.0,0.0,13184.0,0.0,0.0,0.0,0.0,0.125,0.8044432770000001,0.01,0.0,-15936.0,0.0,0.0,-0.0,0.0,0.0,0.5419921320000001,0.01,0.0,153.0,1.5,0.0,0.0,0.0,0.0,3.338622705,0.01,0.0,-11014.0,0.125,0.0,-0.0,0.0,0.125,1.619872881,0.01,0.0,0.1599999964237213,-0.46000000834465027,-88.93000030517578,-0.0103759765625,0.00250244140625,1.02447509765625,32.54999923706055,0.0,0.0,-0.169158935546875,0.1027069091796875,Closing,0.0,0.0,1.0,0.0,0.0,0.0,0.0,0.0,
8.769273999999976,0.0,0.0,13184.0,0.0,0.0,0.0,0.0,0.125,0.8044432770000001,0.01,0.0,-15936.0,0.0,0.0,-0.0,0.0,0.0,0.5419921320000001,0.01,0.0,153.0,1.375,0.0,0.0,0.0,0.0,3.338622705,0.01,0.0,-11014.0,0.125,0.0,-0.0,0.0,0.125,1.619872881,0.01,0.0,0.1599999964237213,-0.46000000834465027,-88.93000030517578,-0.0067138671875,0.00494384765625,1.0235595703125,32.54999923706055,0.0,-1.0,-0.169158935546875,0.1027069091796875,Closing,0.0,0.0,1.0,0.0,0.0,0.0,0.0,0.0,
8.913793999999994,0.0,0.0,13184.0,0.0,0.0,0.0,0.0,0.125,0.8044432770000001,0.01,0.0,-15936.0,0.0,0.0,-0.0,0.0,0.125,0.5407714290000001,0.01,0.0,153.0,1.375,0.0,0.0,0.0,0.0,3.337402002,0.01,0.0,-11014.0,0.125,0.0,-0.0,0.0,0.125,1.619872881,0.01,0.0,0.1599999964237213,-0.46000000834465027,-88.93000030517578,-0.00579833984375,0.0042724609375,1.027099609375,32.560001373291016,0.0,-1.0,-0.169158935546875,0.1027069091796875,Closing,0.0,0.0,1.0,0.0,0.0,0.0,0.0,0.0,
9.036418999999995,0.0,0.0,13184.0,0.0,0.0,0.0,0.0,0.125,0.799560465,0.01,0.0,-15936.0,0.0,0.0,-0.0,0.0,0.125,0.5419921320000001,0.01,0.0,153.0,1.375,0.0,0.0,0.0,0.0,3.337402002,0.01,0.0,-11014.0,0.125,0.0,-0.0,0.0,0.125,1.619872881,0.01,0.0,0.15000000596046448,-0.46000000834465027,-88.93000030517578,-0.00885009765625,0.0025634765625,1.02130126953125,32.560001373291016,0.0,0.0,-0.169158935546875,0.1027069091796875,Closing,0.0,0.0,1.0,0.0,0.0,0.0,0.0,0.0,
9.179564999999943,0.0,0.0,13184.0,0.0,0.0,0.0,0.0,0.125,0.8044432770000001,0.01,0.0,-15936.0,0.0,0.0,-0.0,0.0,0.125,0.5419921320000001,0.01,0.0,153.0,1.375,0.0,0.0,0.0,0.0,3.337402002,0.01,0.0,-11014.0,0.125,0.0,-0.0,0.0,0.125,1.619872881,0.01,0.0,0.15000000596046448,-0.46000000834465027,-88.93000030517578,-0.009765625,0.0057373046875,1.0205078125,32.560001373291016,0.0,-2.0,-0.169158935546875,0.1027069091796875,Closing,0.0,0.0,1.0,0.0,0.0,0.0,0.0,0.0,
9.301920999999856,0.0,0.0,13184.0,0.0,0.0,0.0,0.0,0.125,0.8044432770000001,0.01,0.0,-15936.0,0.0,0.0,-0.0,0.0,0.0,0.5419921320000001,0.01,0.0,153.0,1.375,0.0,0.0,0.0,0.0,3.338622705,0.01,0.0,-11014.0,0.125,0.0,-0.0,0.0,0.125,1.619872881,0.01,0.0,0.1599999964237213,-0.44999998807907104,-88.93000030517578,-0.00762939453125,0.0035400390625,1.0242919921875,32.560001373291016,0.0,0.0,-0.169158935546875,0.1027069091796875,Closing,0.0,0.0,1.0,0.0,0.0,0.0,0.0,0.0,
9.44740699999989,0.0,0.0,13184.0,0.0,0.0,0.0,0.0,0.125,0.8044432770000001,0.01,0.0,-15936.0,0.0,0.0,-0.0,0.0,0.125,0.5419921320000001,0.01,0.0,153.0,1.375,0.0,0.0,0.0,0.0,3.338622705,0.01,0.0,-11014.0,0.125,0.0,-0.0,0.0,0.125,1.619872881,0.01,0.0,0.1599999964237213,-0.44999998807907104,-88.93000030517578,-0.00640869140625,0.00213623046875,1.022705078125,32.540000915527344,0.0,0.0,-0.169158935546875,0.1027069091796875,Closing,0.0,0.0,1.0,0.0,0.0,0.0,0.0,0.0,
9.579222999999999,0.0,0.0,13184.0,0.0,0.0,0.0,0.0,0.125,0.8032225740000001,0.01,0.0,-15936.0,0.0,0.0,-0.0,0.0,0.0,0.5419921320000001,0.01,0.0,153.0,1.375,0.0,0.0,0.0,0.0,3.338622705,0.01,0.0,-11014.0,0.125,0.0,-0.0,0.0,0.125,1.619872881,0.01,0.0,0.15000000596046448,-0.44999998807907104,-88.93000030517578,-0.00732421875,0.001220703125,1.02142333984375,32.540000915527344,0.0,1.0,-0.169158935546875,0.1027069091796875,Closing,0.0,0.0,1.0,0.0,0.0,0.0,0.0,0.0,
9.705472999999998,0.0,0.0,13184.0,0.0,0.0,0.0,0.0,0.125,0.8032225740000001,0.01,0.0,-15936.0,0.0,0.0,-0.0,0.0,0.125,0.5419921320000001,0.01,0.0,153.0,1.375,0.0,0.0,0.0,0.0,3.338622705,0.01,0.0,-11014.0,0.125,0.0,-0.0,0.0,0.125,1.619872881,0.01,0.0,0.14000000059604645,-0.44999998807907104,-88.93000030517578,-0.00677490234375,0.001220703125,1.02545166015625,32.540000915527344,0.0,1.0,-0.169158935546875,0.1027069091796875,Closing,0.0,0.0,1.0,0.0,0.0,0.0,0.0,0.0,
9.844454999999842,0.0,0.0,13184.0,0.0,0.0,0.0,0.0,0.125,0.8044432770000001,0.01,0.0,-15936.0,0.0,0.0,-0.0,0.0,0.125,0.5407714290000001,0.01,0.0,153.0,1.375,0.0,0.0,0.0,0.0,3.337402002,0.01,0.0,-11014.0,0.125,0.0,-0.0,0.0,0.125,1.619872881,0.01,0.0,0.14000000059604645,-0.4399999976158142,-88.93000030517578,-0.00775146484375,0.00543212890625,1.02252197265625,32.560001373291016,0.0,-2.0,-0.169158935546875,0.1027069091796875,Closing,0.0,0.0,1.0,0.0,0.0,0.0,0.0,0.0,
9.97917699999991,0.0,0.0,13184.0,0.0,0.0,0.0,0.0,0.125,0.8032225740000001,0.01,0.0,-15936.0,0.0,0.0,-0.0,0.0,0.125,0.5407714290000001,0.01,0.0,153.0,1.375,0.0,0.0,0.0,0.0,3.339843408,0.01,0.0,-11014.0,0.125,0.0,-0.0,0.0,0.125,1.619872881,0.01,0.0,0.14000000059604645,-0.44999998807907104,-88.93000030517578,-0.0078125,0.0032958984375,1.0205078125,32.560001373291016,0.0,0.0,-0.169158935546875,0.1027069091796875,Closing,0.0,0.0,1.0,0.0,0.0,0.0,0.0,0.0,
10.117878999999958,0.0,0.0,13184.0,0.0,0.0,0.0,0.0,0.125,0.798339762,0.01,0.0,-15936.0,0.0,0.0,-0.0,0.0,0.125,0.5407714290000001,0.01,0.0,153.0,1.375,0.0,0.0,0.0,0.0,3.337402002,0.01,0.0,-11014.0,0.125,0.0,-0.0,0.0,0.125,1.621093584,0.01,0.0,0.14000000059604645,-0.44999998807907104,-88.93000030517578,-0.0067138671875,0.00299072265625,1.02508544921875,32.560001373291016,0.0,0.0,-0.169158935546875,0.1027069091796875,Closing,0.0,0.0,1.0,0.0,0.0,0.0,0.0,0.0,
10.234777999999933,0.0,0.0,13184.0,0.0,0.0,0.0,0.0,0.125,0.8032225740000001,0.01,0.0,-15936.0,0.0,0.0,-0.0,0.0,0.125,0.5419921320000001,0.01,0.0,153.0,1.375,0.0,0.0,0.0,0.0,3.347167626,0.01,0.0,-11014.0,0.125,0.0,-0.0,0.0,0.125,1.619872881,0.01,0.0,0.14000000059604645,-0.44999998807907104,-88.93000030517578,-0.009033203125,0.00396728515625,1.0191650390625,32.560001373291016,0.0,-1.0,-0.169158935546875,0.1027069091796875,Closing,0.0,0.0,1.0,0.0,0.0,0.0,0.0,0.0,
10.374172000000021,0.0,0.0,13184.0,0.0,0.0,0.0,0.0,0.125,0.8044432770000001,0.01,0.0,-15936.0,0.0,0.0,-0.0,0.0,0.125,0.5419921320000001,0.01,0.0,153.0,1.375,0.0,0.0,0.0,0.0,3.338622705,0.01,0.0,-11014.0,0.125,0.0,-0.0,0.0,0.125,1.619872881,0.01,0.0,0.14000000059604645,-0.44999998807907104,-88.93000030517578,-0.00665283203125,0.00115966796875,1.0164794921875,32.56999969482422,0.0,1.0,-0.169158935546875,0.1027069091796875,Closing,0.0,0.0,1.0,0.0,0.0,0.0,0.0,0.0,
10.511371000000043,0.0,0.0,13184.0,0.0,0.0,0.0,0.0,0.125,0.8044432770000001,0.01,0.0,-15936.0,0.0,0.0,-0.0,0.0,0.125,0.5419921320000001,0.01,0.0,153.0,1.375,0.0,0.0,0.0,0.0,3.337402002,0.01,0.0,-11014.0,0.125,0.0,-0.0,0.0,0.125,1.619872881,0.01,0.0,0.14000000059604645,-0.44999998807907104,-88.93000030517578,-0.00958251953125,0.0032958984375,1.02435302734375,32.56999969482422,0.0,0.0,-0.169158935546875,0.1027069091796875,Closing,0.0,0.0,1.0,0.0,0.0,0.0,0.0,0.0,
10.64834999999986,0.0,0.0,13184.0,0.0,0.0,0.0,0.0,0.125,0.8044432770000001,0.01,0.0,-15936.0,0.0,0.0,-0.0,0.0,0.125,0.5407714290000001,0.01,0.0,153.0,1.375,0.0,0.0,0.0,0.0,3.337402002,0.01,0.0,-11014.0,0.125,0.0,-0.0,0.0,0.125,1.619872881,0.01,0.0,0.14000000059604645,-0.44999998807907104,-88.93000030517578,-0.00750732421875,1.8310546875E-4,1.019287109375,32.56999969482422,0.0,2.0,-0.169158935546875,0.1027069091796875,Closing,0.0,0.0,1.0,0.0,0.0,0.0,0.0,0.0,
10.778591999999946,0.0,0.0,13184.0,0.0,0.0,0.0,0.0,0.125,0.8044432770000001,0.01,0.0,-15936.0,0.0,0.0,-0.0,0.0,0.125,0.5419921320000001,0.01,0.0,153.0,1.375,0.0,0.0,0.0,0.0,3.338622705,0.01,0.0,-11014.0,0.125,0.0,-0.0,0.0,0.125,1.619872881,0.01,0.0,0.14000000059604645,-0.44999998807907104,-88.93000030517578,-0.00640869140625,0.00335693359375,1.0235595703125,32.56999969482422,0.0,0.0,-0.169158935546875,0.1027069091796875,Closing,0.0,0.0,1.0,0.0,0.0,0.0,0.0,0.0,
10.910673999999883,0.0,0.0,13184.0,0.0,0.0,0.0,0.0,0.125,0.8044432770000001,0.01,0.0,-15936.0,0.0,0.0,-0.0,0.0,0.0,0.5419921320000001,0.01,0.0,153.0,1.375,0.0,0.0,0.0,0.0,3.338622705,0.01,0.0,-11014.0,0.125,0.0,-0.0,0.0,0.125,1.619872881,0.01,0.0,0.12999999523162842,-0.46000000834465027,-88.93000030517578,-0.00970458984375,0.0018310546875,1.02203369140625,32.54999923706055,0.0,0.0,-0.169158935546875,0.1027069091796875,Closing,0.0,0.0,1.0,0.0,0.0,0.0,0.0,0.0,
11.04659999999986,0.0,0.0,13184.0,0.0,0.0,0.0,0.0,0.125,0.8044432770000001,0.01,0.0,-15936.0,0.0,0.0,-0.0,0.0,0.0,0.5419921320000001,0.01,0.0,153.0,1.375,0.0,0.0,0.0,0.0,3.338622705,0.01,0.0,-11014.0,0.125,0.0,-0.0,0.0,0.125,1.619872881,0.01,0.0,0.14000000059604645,-0.44999998807907104,-88.93000030517578,-0.00628662109375,0.0013427734375,1.0189208984375,32.54999923706055,0.0,1.0,-0.169158935546875,0.1027069091796875,Closing,0.0,0.0,1.0,0.0,0.0,0.0,0.0,0.0,
11.178371999999975,0.0,0.0,13184.0,0.0,0.0,0.0,0.0,0.125,0.8032225740000001,0.01,0.0,-15936.0,0.0,0.0,-0.0,0.0,0.125,0.5419921320000001,0.01,0.0,153.0,1.375,0.0,0.0,0.0,0.0,3.338622705,0.01,0.0,-11014.0,0.125,0.0,-0.0,0.0,0.125,1.621093584,0.01,0.0,0.14000000059604645,-0.44999998807907104,-88.94000244140625,-0.009033203125,6.103515625E-5,1.02093505859375,32.54999923706055,0.0,2.0,-0.169158935546875,0.1027069091796875,Closing,0.0,0.0,1.0,0.0,0.0,0.0,0.0,0.0,
11.312102999999887,0.0,0.0,13184.0,0.0,0.0,0.0,0.0,0.125,0.8044432770000001,0.01,0.0,-15936.0,0.0,0.0,-0.0,0.0,0.0,0.5407714290000001,0.01,0.0,153.0,1.375,0.0,0.0,0.0,0.0,3.337402002,0.01,0.0,-11014.0,0.125,0.0,-0.0,0.0,0.125,1.619872881,0.01,0.0,0.14000000059604645,-0.44999998807907104,-88.94000244140625,-0.008544921875,0.0047607421875,1.0174560546875,32.54999923706055,0.0,-2.0,-0.169158935546875,0.1027069091796875,Closing,0.0,0.0,1.0,0.0,0.0,0.0,0.0,0.0,
11.447962000000057,0.0,0.0,13184.0,0.0,0.0,0.0,0.0,0.125,0.8044432770000001,0.01,0.0,-15936.0,0.0,0.0,-0.0,0.0,0.0,0.5419921320000001,0.01,0.0,153.0,1.375,0.0,0.0,0.0,0.0,3.338622705,0.01,0.0,-11014.0,0.125,0.0,-0.0,0.0,0.125,1.619872881,0.01,0.0,0.14000000059604645,-0.44999998807907104,-88.94000244140625,-0.01019287109375,4.2724609375E-4,1.023193359375,32.58000183105469,0.0,2.0,-0.169158935546875,0.1027069091796875,Closing,0.0,0.0,1.0,0.0,0.0,0.0,0.0,0.0,
11.57410999999987,0.0,0.0,13184.0,0.0,0.0,0.0,0.0,0.125,0.8044432770000001,0.01,0.0,-15936.0,0.0,0.0,-0.0,0.0,0.0,0.5419921320000001,0.01,0.0,153.0,1.375,0.0,0.0,0.0,0.0,3.338622705,0.01,0.0,-11014.0,0.125,0.0,-0.0,0.0,0.125,1.619872881,0.01,0.0,0.14000000059604645,-0.44999998807907104,-88.94000244140625,-0.00531005859375,0.00531005859375,1.01812744140625,32.58000183105469,0.0,-2.0,-0.169158935546875,0.1027069091796875,Closing,0.0,0.0,1.0,0.0,0.0,0.0,0.0,0.0,
11.711844999999972,0.0,0.0,13184.0,0.0,0.0,0.0,0.0,0.125,0.8032225740000001,0.01,0.0,-15936.0,0.0,0.0,-0.0,0.0,0.125,0.550537053,0.01,0.0,153.0,1.375,0.0,0.0,0.0,0.0,3.338622705,0.01,0.0,-11014.0,0.125,0.0,-0.0,0.0,0.125,1.619872881,0.01,0.0,0.14000000059604645,-0.44999998807907104,-88.94000244140625,-0.0028076171875,0.00543212890625,1.02886962890625,32.58000183105469,0.0,-2.0,-0.169158935546875,0.1027069091796875,Closing,0.0,0.0,1.0,0.0,0.0,0.0,0.0,0.0,
11.837141000000061,0.0,0.0,13184.0,0.0,0.0,0.0,0.0,0.125,0.8044432770000001,0.01,0.0,-15936.0,0.0,0.0,-0.0,0.0,0.125,0.5419921320000001,0.01,0.0,153.0,1.375,0.0,0.0,0.0,0.0,3.337402002,0.01,0.0,-11014.0,0.125,0.0,-0.0,0.0,0.125,1.619872881,0.01,0.0,0.12999999523162842,-0.44999998807907104,-88.94000244140625,-0.00653076171875,0.001220703125,1.026611328125,32.54999923706055,0.0,1.0,-0.169158935546875,0.1027069091796875,Closing,0.0,0.0,1.0,0.0,0.0,0.0,0.0,0.0,
11.970993999999948,0.0,0.0,13184.0,0.0,0.0,0.0,0.0,0.125,0.8032225740000001,0.01,0.0,-15936.0,0.0,0.0,-0.0,0.0,0.125,0.5419921320000001,0.01,0.0,153.0,1.375,0.0,0.0,0.0,0.0,3.333739893,0.01,0.0,-11014.0,0.125,0.0,-0.0,0.0,0.125,1.619872881,0.01,0.0,0.14000000059604645,-0.44999998807907104,-88.94999694824219,-0.00439453125,0.00567626953125,1.02606201171875,32.54999923706055,0.0,-2.0,-0.169158935546875,0.1027069091796875,Closing,0.0,0.0,1.0,0.0,0.0,0.0,0.0,0.0,
12.104435000000056,0.0,0.0,13184.0,0.0,0.0,0.0,0.0,0.125,0.8044432770000001,0.01,0.0,-15936.0,0.0,0.0,-0.0,0.0,0.125,0.5419921320000001,0.01,0.0,153.0,1.375,0.0,0.0,0.0,0.0,3.338622705,0.01,0.0,-11014.0,0.125,0.0,-0.0,0.0,0.125,1.619872881,0.01,0.0,0.14000000059604645,-0.44999998807907104,-88.94999694824219,-0.00732421875,0.001220703125,1.02227783203125,32.54999923706055,0.0,1.0,-0.169158935546875,0.1027069091796875,Closing,0.0,0.0,1.0,0.0,0.0,0.0,0.0,0.0,
12.238685000000055,0.0,0.0,13184.0,0.0,0.0,0.0,0.0,0.125,0.8044432770000001,0.01,0.0,-15936.0,0.0,0.0,-0.0,0.0,0.125,0.5407714290000001,0.01,0.0,153.0,1.375,0.0,0.0,0.0,0.0,3.338622705,0.01,0.0,-11014.0,0.125,0.0,-0.0,0.0,0.125,1.619872881,0.01,0.0,0.12999999523162842,-0.44999998807907104,-88.94999694824219,-0.0091552734375,0.00396728515625,1.02227783203125,32.54999923706055,0.0,-1.0,-0.169158935546875,0.1027069091796875,Closing,0.0,0.0,1.0,0.0,0.0,0.0,0.0,0.0,
12.368520000000018,0.0,0.0,13184.0,0.0,0.0,0.0,0.0,0.125,0.8032225740000001,0.01,0.0,-15936.0,0.0,0.0,-0.0,0.0,0.125,0.5407714290000001,0.01,0.0,153.0,1.375,0.0,0.0,0.0,0.0,3.338622705,0.01,0.0,-11014.0,0.125,0.0,-0.0,0.0,0.125,1.619872881,0.01,0.0,0.14000000059604645,-0.44999998807907104,-88.94999694824219,-0.00823974609375,0.00482177734375,1.0208740234375,32.540000915527344,0.0,-2.0,-0.169158935546875,0.1027069091796875,Closing,0.0,0.0,1.0,0.0,0.0,0.0,0.0,0.0,
12.512787000000012,0.0,0.0,13184.0,0.0,0.0,0.0,0.0,0.125,0.8044432770000001,0.01,0.0,-15936.0,0.0,0.0,-0.0,0.0,0.125,0.5419921320000001,0.01,0.0,153.0,1.375,0.0,0.0,0.0,0.0,3.338622705,0.01,0.0,-11014.0,0.125,0.0,-0.0,0.0,0.125,1.619872881,0.01,0.0,0.14000000059604645,-0.44999998807907104,-88.94999694824219,-0.00885009765625,0.0029296875,1.02032470703125,32.540000915527344,0.0,0.0,-0.169158935546875,0.1027069091796875,Closing,0.0,0.0,1.0,0.0,0.0,0.0,0.0,0.0,
12.648060999999988,0.0,0.0,13184.0,0.0,0.0,0.0,0.0,0.125,0.8020018710000001,0.01,0.0,-15936.0,0.0,0.0,-0.0,0.0,0.125,0.5419921320000001,0.01,0.0,153.0,1.375,0.0,0.0,0.0,0.0,3.338622705,0.01,0.0,-11014.0,0.125,0.0,-0.0,0.0,0.125,1.621093584,0.01,0.0,0.14000000059604645,-0.44999998807907104,-88.94999694824219,-0.00860595703125,6.103515625E-4,1.023681640625,32.540000915527344,0.0,1.0,-0.169158935546875,0.1027069091796875,Closing,0.0,0.0,1.0,0.0,0.0,0.0,0.0,0.0,
12.779942999999971,0.0,0.0,13184.0,0.0,0.0,0.0,0.0,0.125,0.8044432770000001,0.01,0.0,-15936.0,0.0,0.0,-0.0,0.0,0.125,0.5407714290000001,0.01,0.0,153.0,1.375,0.0,0.0,0.0,0.0,3.338622705,0.01,0.0,-11014.0,0.125,0.0,-0.0,0.0,0.125,1.621093584,0.01,0.0,0.14000000059604645,-0.44999998807907104,-88.95999908447266,-0.0079345703125,0.00323486328125,1.0216064453125,32.540000915527344,0.0,0.0,-0.169158935546875,0.1027069091796875,Closing,0.0,0.0,1.0,0.0,0.0,0.0,0.0,0.0,
12.909808999999893,0.0,0.0,13184.0,0.0,0.0,0.0,0.0,0.125,0.8044432770000001,0.01,0.0,-15936.0,0.0,0.0,-0.0,0.0,0.125,0.5407714290000001,0.01,0.0,153.0,1.375,0.0,0.0,0.0,0.0,3.337402002,0.01,0.0,-11014.0,0.125,0.0,-0.0,0.0,0.125,1.619872881,0.01,0.0,0.14000000059604645,-0.44999998807907104,-88.94999694824219,-0.0081787109375,0.004150390625,1.01824951171875,32.54999923706055,0.0,-1.0,-0.169158935546875,0.1027069091796875,Closing,0.0,0.0,1.0,0.0,0.0,0.0,0.0,0.0,
13.04811400000006,0.0,0.0,13184.0,0.0,0.0,0.0,0.0,0.125,0.8044432770000001,0.01,0.0,-15936.0,0.0,0.0,-0.0,0.0,0.0,0.5419921320000001,0.01,0.0,153.0,1.375,0.0,0.0,0.0,0.0,3.338622705,0.01,0.0,-11014.0,0.125,0.0,-0.0,0.0,0.125,1.619872881,0.01,0.0,0.14000000059604645,-0.44999998807907104,-88.94999694824219,-0.0074462890625,0.00439453125,1.02294921875,32.54999923706055,0.0,-1.0,-0.169158935546875,0.1027069091796875,Closing,0.0,0.0,1.0,0.0,0.0,0.0,0.0,0.0,
13.182182999999961,0.0,0.0,13184.0,0.0,0.0,0.0,0.0,0.125,0.8044432770000001,0.01,0.0,-15936.0,0.0,0.0,-0.0,0.0,0.125,0.5419921320000001,0.01,0.0,153.0,1.375,0.0,0.0,0.0,0.0,3.338622705,0.01,0.0,-11014.0,0.125,0.0,-0.0,0.0,0.125,1.619872881,0.01,0.0,0.14000000059604645,-0.44999998807907104,-88.94999694824219,-0.0050048828125,0.0029296875,1.0185546875,32.54999923706055,0.0,0.0,-0.169158935546875,0.1027069091796875,Closing,0.0,0.0,1.0,0.0,0.0,0.0,0.0,0.0,
13.313381999999983,0.0,0.0,13184.0,0.0,0.0,0.0,0.0,0.125,0.8044432770000001,0.01,0.0,-15936.0,0.0,0.0,-0.0,0.0,0.125,0.5407714290000001,0.01,0.0,153.0,1.375,0.0,0.0,0.0,0.0,3.338622705,0.01,0.0,-11014.0,0.125,0.0,-0.0,0.0,0.125,1.621093584,0.01,0.0,0.14000000059604645,-0.4399999976158142,-88.94999694824219,-0.01031494140625,0.00274658203125,1.023193359375,32.54999923706055,0.0,0.0,-0.169158935546875,0.1027069091796875,Closing,0.0,0.0,1.0,0.0,0.0,0.0,0.0,0.0,
13.442398999999975,0.0,0.0,13184.0,0.0,0.0,0.0,0.0,0.125,0.8044432770000001,0.01,0.0,-15936.0,0.0,0.0,-0.0,0.0,0.125,0.5407714290000001,0.01,0.0,153.0,1.375,0.0,0.0,0.0,0.0,3.338622705,0.01,0.0,-11014.0,0.125,0.0,-0.0,0.0,0.125,1.619872881,0.01,0.0,0.14000000059604645,-0.44999998807907104,-88.94999694824219,-0.0076904296875,0.00146484375,1.02362060546875,32.58000183105469,0.0,1.0,-0.169158935546875,0.1027069091796875,Closing,0.0,0.0,1.0,0.0,0.0,0.0,0.0,0.0,
13.580179000000003,0.0,0.0,13184.0,0.0,0.0,0.0,0.0,0.125,0.8044432770000001,0.01,0.0,-15936.0,0.0,0.0,-0.0,0.0,0.0,0.5419921320000001,0.01,0.0,153.0,1.375,0.0,0.0,0.0,0.0,3.337402002,0.01,0.0,-11014.0,0.125,0.0,-0.0,0.0,0.125,1.619872881,0.01,0.0,0.12999999523162842,-0.44999998807907104,-88.95999908447266,-0.0078125,0.00347900390625,1.02093505859375,32.58000183105469,0.0,0.0,-0.169158935546875,0.1027069091796875,Closing,0.0,0.0,1.0,0.0,0.0,0.0,0.0,0.0,
13.70535899999994,0.0,0.0,13184.0,0.0,0.0,0.0,0.0,0.125,0.8032225740000001,0.01,0.0,-15936.0,0.0,0.0,-0.0,0.0,0.125,0.5419921320000001,0.01,0.0,153.0,1.375,0.0,0.0,0.0,0.0,3.337402002,0.01,0.0,-11014.0,0.125,0.0,-0.0,0.0,0.125,1.621093584,0.01,0.0,0.12999999523162842,-0.44999998807907104,-88.95999908447266,-0.00909423828125,0.00323486328125,1.018798828125,32.58000183105469,0.0,0.0,-0.169158935546875,0.1027069091796875,Closing,0.0,0.0,1.0,0.0,0.0,0.0,0.0,0.0,
13.846756000000052,0.0,0.0,13184.0,0.0,0.0,0.0,0.0,0.125,0.8032225740000001,0.01,0.0,-15936.0,0.0,0.0,-0.0,0.0,0.125,0.5419921320000001,0.01,0.0,153.0,1.375,0.0,0.0,0.0,0.0,3.338622705,0.01,0.0,-11014.0,0.125,0.0,-0.0,0.0,0.125,1.619872881,0.01,0.0,0.14000000059604645,-0.44999998807907104,-88.95999908447266,-0.012451171875,7.9345703125E-4,1.01910400390625,32.58000183105469,0.0,1.0,-0.169158935546875,0.1027069091796875,Closing,0.0,0.0,1.0,0.0,0.0,0.0,0.0,0.0,
13.969337999999988,0.0,0.0,13184.0,0.0,0.0,0.0,0.0,0.125,0.8044432770000001,0.01,0.0,-15936.0,0.0,0.0,-0.0,0.0,0.125,0.5419921320000001,0.01,0.0,153.0,1.375,0.0,0.0,0.0,0.0,3.338622705,0.01,0.0,-11014.0,0.125,0.0,-0.0,0.0,0.125,1.619872881,0.01,0.0,0.15000000596046448,-0.44999998807907104,-88.95999908447266,-0.00811767578125,0.00244140625,1.0223388671875,32.54999923706055,0.0,0.0,-0.169158935546875,0.1027069091796875,Closing,0.0,0.0,1.0,0.0,0.0,0.0,0.0,0.0,
14.104450999999884,0.0,0.0,13184.0,0.0,0.0,0.0,0.0,0.125,0.8032225740000001,0.01,0.0,-15936.0,0.0,0.0,-0.0,0.0,0.125,0.5419921320000001,0.01,0.0,153.0,1.375,0.0,0.0,0.0,0.0,3.338622705,0.01,0.0,-11014.0,0.125,0.0,-0.0,0.0,0.125,1.619872881,0.01,0.0,0.15000000596046448,-0.44999998807907104,-88.95999908447266,-0.009033203125,0.0023193359375,1.029052734375,32.54999923706055,0.0,0.0,-0.169158935546875,0.1027069091796875,Closing,0.0,0.0,1.0,0.0,0.0,0.0,0.0,0.0,
14.24634899999993,0.0,0.0,13184.0,0.0,0.0,0.0,0.0,0.125,0.8044432770000001,0.01,0.0,-15936.0,0.0,0.0,-0.0,0.0,0.125,0.5407714290000001,0.01,0.0,153.0,1.375,0.0,0.0,0.0,0.0,3.338622705,0.01,0.0,-11014.0,0.125,0.0,-0.0,0.0,0.125,1.619872881,0.01,0.0,0.15000000596046448,-0.44999998807907104,-88.95999908447266,-0.00994873046875,0.0013427734375,1.02880859375,32.54999923706055,0.0,1.0,-0.169158935546875,0.1027069091796875,Closing,0.0,0.0,1.0,0.0,0.0,0.0,0.0,0.0,
14.381636999999872,0.0,0.0,13184.0,0.0,0.0,0.0,0.0,0.125,0.8044432770000001,0.01,0.0,-15936.0,0.0,0.0,-0.0,0.0,0.125,0.5419921320000001,0.01,0.0,153.0,1.375,0.0,0.0,0.0,0.0,3.343505517,0.01,0.0,-11014.0,0.125,0.0,-0.0,0.0,0.125,1.619872881,0.01,0.0,0.14000000059604645,-0.44999998807907104,-88.95999908447266,-0.0054931640625,0.00213623046875,1.018310546875,32.54999923706055,0.0,0.0,-0.169158935546875,0.1027069091796875,Closing,0.0,0.0,1.0,0.0,0.0,0.0,0.0,0.0,
14.505128999999958,0.0,0.0,13184.0,0.0,0.0,0.0,0.0,0.125,0.8032225740000001,0.01,0.0,-15936.0,0.0,0.0,-0.0,0.0,0.125,0.5419921320000001,0.01,0.0,153.0,1.375,0.0,0.0,0.0,0.0,3.338622705,0.01,0.0,-11014.0,0.125,0.0,-0.0,0.0,0.125,1.619872881,0.01,0.0,0.14000000059604645,-0.44999998807907104,-88.95999908447266,-0.00909423828125,0.005615234375,1.02154541015625,32.599998474121094,0.0,-2.0,-0.169158935546875,0.1027069091796875,Closing,0.0,0.0,1.0,0.0,0.0,0.0,0.0,0.0,
14.647297999999951,0.0,0.0,13184.0,0.0,0.0,0.0,0.0,0.125,0.8044432770000001,0.01,0.0,-15936.0,0.0,0.0,-0.0,0.0,0.125,0.539550726,0.01,0.0,153.0,1.375,0.0,0.0,0.0,0.0,3.337402002,0.01,0.0,-11014.0,0.125,0.0,-0.0,0.0,0.125,1.619872881,0.01,0.0,0.14000000059604645,-0.44999998807907104,-88.95999908447266,-0.0078125,0.0023193359375,1.0240478515625,32.599998474121094,0.0,0.0,-0.169158935546875,0.1027069091796875,Closing,0.0,0.0,1.0,0.0,0.0,0.0,0.0,0.0,
14.782817000000039,0.0,0.0,13184.0,0.0,0.0,0.0,0.0,0.125,0.8044432770000001,0.01,0.0,-15936.0,0.0,0.0,-0.0,0.0,0.125,0.5407714290000001,0.01,0.0,153.0,1.375,0.0,0.0,0.0,0.0,3.337402002,0.01,0.0,-11014.0,0.125,0.0,-0.0,0.0,0.125,1.619872881,0.01,0.0,0.15000000596046448,-0.44999998807907104,-88.95999908447266,-0.00592041015625,0.00244140625,1.0234375,32.599998474121094,0.0,0.0,-0.169158935546875,0.1027069091796875,Closing,0.0,0.0,1.0,0.0,0.0,0.0,0.0,0.0,
14.904746999999974,0.0,0.0,13184.0,0.0,0.0,0.0,0.0,0.125,0.8044432770000001,0.01,0.0,-15936.0,0.0,0.0,-0.0,0.0,0.0,0.5419921320000001,0.01,0.0,153.0,1.375,0.0,0.0,0.0,0.0,3.338622705,0.01,0.0,-11014.0,0.125,0.0,-0.0,0.0,0.125,1.619872881,0.01,0.0,0.15000000596046448,-0.44999998807907104,-88.95999908447266,-0.00799560546875,0.00244140625,1.0220947265625,32.599998474121094,0.0,0.0,-0.169158935546875,0.1027069091796875,Closing,0.0,0.0,1.0,0.0,0.0,0.0,0.0,0.0,
15.045831000000005,0.0,0.0,13184.0,0.0,0.0,0.0,0.0,0.125,0.8044432770000001,0.01,0.0,-15936.0,0.0,0.0,-0.0,0.0,0.125,0.5419921320000001,0.01,0.0,153.0,1.375,0.0,0.0,0.0,0.0,3.338622705,0.01,0.0,-11014.0,0.125,0.0,-0.0,0.0,0.125,1.619872881,0.01,0.0,0.15000000596046448,-0.44999998807907104,-88.95999908447266,-0.00762939453125,3.0517578125E-4,1.02227783203125,32.58000183105469,0.0,2.0,-0.169158935546875,0.1027069091796875,Closing,0.0,0.0,1.0,0.0,0.0,0.0,0.0,0.0,
15.180510000000009,0.0,0.0,13184.0,0.0,0.0,0.0,0.0,0.125,0.8044432770000001,0.01,0.0,-15936.0,0.0,0.0,-0.0,0.0,0.0,0.544433538,0.01,0.0,153.0,1.375,0.0,0.0,0.0,0.0,3.338622705,0.01,0.0,-11014.0,0.125,0.0,-0.0,0.0,0.125,1.619872881,0.01,0.0,0.15000000596046448,-0.44999998807907104,-88.95999908447266,-0.00787353515625,0.0045166015625,1.02593994140625,32.58000183105469,0.0,-1.0,-0.169158935546875,0.1027069091796875,Closing,0.0,0.0,1.0,0.0,0.0,0.0,0.0,0.0,
15.311125,0.0,0.0,13184.0,0.0,0.0,0.0,0.0,0.125,0.8032225740000001,0.01,0.0,-15936.0,0.0,0.0,-0.0,0.0,0.0,0.5419921320000001,0.01,0.0,153.0,1.375,0.0,0.0,0.0,0.0,3.338622705,0.01,0.0,-11014.0,0.125,0.0,-0.0,0.0,0.125,1.619872881,0.01,0.0,0.15000000596046448,-0.4399999976158142,-88.95999908447266,-0.0052490234375,0.002197265625,1.0247802734375,32.58000183105469,0.0,0.0,-0.169158935546875,0.1027069091796875,Closing,0.0,0.0,1.0,0.0,0.0,0.0,0.0,0.0,
15.446791999999899,0.0,0.0,13184.0,0.0,0.0,0.0,0.0,0.125,0.8032225740000001,0.01,0.0,-15936.0,0.0,0.0,-0.0,0.0,0.125,0.5419921320000001,0.01,0.0,153.0,1.375,0.0,0.0,0.0,0.0,3.337402002,0.01,0.0,-11014.0,0.125,0.0,-0.0,0.0,0.125,1.619872881,0.01,0.0,0.15000000596046448,-0.44999998807907104,-88.95999908447266,-0.00921630859375,0.00250244140625,1.02056884765625,32.58000183105469,0.0,0.0,-0.169158935546875,0.1027069091796875,Closing,0.0,0.0,1.0,0.0,0.0,0.0,0.0,0.0,
15.58195399999991,0.0,0.0,13184.0,0.0,0.0,0.0,0.0,0.125,0.8044432770000001,0.01,0.0,-15936.0,0.0,0.0,-0.0,0.0,0.125,0.5419921320000001,0.01,0.0,153.0,1.375,0.0,0.0,0.0,0.0,3.338622705,0.01,0.0,-11014.0,0.125,0.0,-0.0,0.0,0.125,1.621093584,0.01,0.0,0.14000000059604645,-0.44999998807907104,-88.95999908447266,-0.00897216796875,0.0010986328125,1.01922607421875,32.56999969482422,0.0,1.0,-0.169158935546875,0.1027069091796875,Closing,0.0,0.0,1.0,0.0,0.0,0.0,0.0,0.0,
15.713852999999887,0.0,0.0,13184.0,0.0,0.0,0.0,0.0,0.125,0.8044432770000001,0.01,0.0,-15936.0,0.0,0.0,-0.0,0.0,0.125,0.5419921320000001,0.01,0.0,153.0,1.375,0.0,0.0,0.0,0.0,3.338622705,0.01,0.0,-11014.0,0.125,0.0,-0.0,0.0,0.125,1.619872881,0.01,0.0,0.14000000059604645,-0.44999998807907104,-88.95999908447266,-0.00921630859375,0.0052490234375,1.0213623046875,32.56999969482422,0.0,-2.0,-0.169158935546875,0.1027069091796875,Closing,0.0,0.0,1.0,0.0,0.0,0.0,0.0,0.0,
15.78948900000006,0.0,0.0,13184.0,0.0,0.0,0.0,0.0,0.125,0.8044432770000001,0.01,0.0,-15936.0,0.0,0.0,-0.0,0.0,0.0,0.5419921320000001,0.01,0.0,153.0,1.375,0.0,0.0,0.0,0.0,3.337402002,0.01,0.0,-11014.0,0.125,0.0,-0.0,0.0,0.125,1.619872881,0.01,0.0,0.14000000059604645,-0.44999998807907104,-88.95999908447266,-0.01025390625,-2.44140625E-4,1.0225830078125,32.56999969482422,0.0,2.0,-0.169158935546875,0.1027069091796875,Closing,0.0,0.0,1.0,0.0,0.0,0.0,0.0,0.0,
15.863142999999924,0.0,0.0,13184.0,0.0,0.0,0.0,0.0,0.125,0.8044432770000001,0.01,0.0,-15936.0,0.0,0.0,-0.0,0.0,0.125,0.5419921320000001,0.01,0.0,153.0,1.375,0.0,0.0,0.0,0.0,3.337402002,0.01,0.0,-11014.0,0.125,0.0,-0.0,0.0,0.125,1.619872881,0.01,-0.0012207030000004337,0.15000000596046448,-0.44999998807907104,-88.95999908447266,-0.00579833984375,9.1552734375E-4,1.02166748046875,32.56999969482422,0.0,1.0,-0.169158935546875,0.1027069091796875,Closing,0.0,0.0,1.0,0.0,0.0,0.0,0.0,0.0,
15.93726099999994,0.0,0.0,13184.0,0.0,0.0,0.0,0.0,0.125,0.8032225740000001,0.01,0.0,-15936.0,0.0,0.0,-0.0,0.0,0.125,0.5419921320000001,0.01,0.0,153.0,1.375,0.0,0.0,0.0,0.0,3.338622705,0.01,0.0,-11014.0,0.125,0.0,-0.0,0.0,0.125,1.619872881,0.01,0.0,0.14000000059604645,-0.44999998807907104,-88.95999908447266,-0.00823974609375,0.00567626953125,1.0206298828125,32.56999969482422,0.0,-3.0,-0.169158935546875,0.1027069091796875,Closing,0.0,0.0,1.0,0.0,0.0,0.0,0.0,0.0,
16.009874000000067,0.0,0.0,13184.0,0.0,0.0,0.0,0.0,0.125,0.8044432770000001,0.01,0.0,-15936.0,0.0,0.0,-0.0,0.0,0.125,0.5407714290000001,0.01,0.0,153.0,1.375,0.0,0.0,0.0,0.0,3.337402002,0.01,0.0,-11014.0,0.125,0.0,-0.0,0.0,0.125,1.619872881,0.01,0.0,0.15000000596046448,-0.4399999976158142,-88.95999908447266,-0.0078125,0.0023193359375,1.02215576171875,32.56999969482422,0.0,0.0,-0.169158935546875,0.1027069091796875,Closing,0.0,0.0,1.0,0.0,0.0,0.0,0.0,0.0,
16.180152000000003,0.0,0.0,13184.0,0.0,0.0,0.0,0.0,0.125,0.8032225740000001,0.01,0.0,-15936.0,0.0,0.0,-0.0,0.0,0.0,0.5407714290000001,0.01,0.0,153.0,1.375,0.0,0.0,0.0,0.0,3.338622705,0.01,0.0,-11014.0,0.125,0.0,-0.0,0.0,0.125,1.619872881,0.01,0.0,0.15000000596046448,-0.4399999976158142,-88.95999908447266,-0.009765625,0.00384521484375,1.02685546875,32.56999969482422,0.0,-1.0,-0.169158935546875,0.1027069091796875,Closing,0.0,0.0,1.0,0.0,0.0,0.0,0.0,0.0,
16.267831000000005,0.0,0.0,13184.0,0.0,0.0,0.0,0.0,0.125,0.8044432770000001,0.01,0.0,-15936.0,0.0,0.0,-0.0,0.0,0.125,0.5419921320000001,0.01,0.0,153.0,1.375,0.0,0.0,0.0,0.0,3.337402002,0.01,0.0,-11014.0,0.125,0.0,-0.0,0.0,0.125,1.619872881,0.01,0.0,0.15000000596046448,-0.4399999976158142,-88.95999908447266,-0.00823974609375,0.00469970703125,1.02301025390625,32.56999969482422,0.0,-1.0,-0.169158935546875,0.1027069091796875,Closing,0.0,0.0,1.0,0.0,0.0,0.0,0.0,0.0,
16.351879999999888,0.0,0.0,13184.0,0.0,0.0,0.0,0.0,0.125,0.8044432770000001,0.01,0.0,-15936.0,0.0,0.0,-0.0,0.0,0.125,0.5419921320000001,0.01,0.0,153.0,1.375,0.0,0.0,0.0,0.0,3.338622705,0.01,0.0,-11014.0,0.125,0.0,-0.0,0.0,0.125,1.619872881,0.01,0.0,0.15000000596046448,-0.4399999976158142,-88.95999908447266,-0.0084228515625,0.00628662109375,1.02740478515625,32.56999969482422,0.0,-3.0,-0.169158935546875,0.1027069091796875,Closing,0.0,0.0,1.0,0.0,0.0,0.0,0.0,0.0,
16.42222499999986,0.0,0.0,13184.0,0.0,0.0,0.0,0.0,0.125,0.8032225740000001,0.01,0.0,-15936.0,0.0,0.0,-0.0,0.0,0.125,0.53710932,0.01,0.0,153.0,1.375,0.0,0.0,0.0,0.0,3.339843408,0.01,0.0,-11014.0,0.125,0.0,-0.0,0.0,0.125,1.619872881,0.01,0.0,0.1599999964237213,-0.4399999976158142,-88.97000122070312,-0.00860595703125,0.00225830078125,1.02581787109375,32.56999969482422,0.0,0.0,-0.169158935546875,0.1027069091796875,Closing,0.0,0.0,1.0,0.0,0.0,0.0,0.0,0.0,
16.528197999999858,0.0,0.0,13184.0,0.0,0.0,0.0,0.0,0.125,0.8032225740000001,0.01,0.0,-15936.0,0.0,0.0,-0.0,0.0,0.0,0.5407714290000001,0.01,0.0,153.0,1.375,0.0,0.0,0.0,0.0,3.337402002,0.01,0.0,-11014.0,0.125,0.0,-0.0,0.0,0.125,1.619872881,0.01,0.0,0.1599999964237213,-0.4399999976158142,-88.97000122070312,-0.00653076171875,0.003173828125,1.02117919921875,32.560001373291016,0.0,0.0,-0.169158935546875,0.1027069091796875,Closing,0.0,0.0,1.0,0.0,0.0,0.0,0.0,0.0,
16.602986999999963,0.0,0.0,13184.0,0.0,0.0,0.0,0.0,0.125,0.8044432770000001,0.01,0.0,-15936.0,0.0,0.0,-0.0,0.0,0.0,0.5419921320000001,0.01,0.0,153.0,1.375,0.0,0.0,0.0,0.0,3.337402002,0.01,0.0,-11014.0,0.125,0.0,-0.0,0.0,0.125,1.619872881,0.01,0.0,0.1599999964237213,-0.4399999976158142,-88.97000122070312,-0.00775146484375,0.0028076171875,1.02020263671875,32.560001373291016,0.0,0.0,-0.169158935546875,0.1027069091796875,Closing,0.0,0.0,1.0,0.0,0.0,0.0,0.0,0.0,
16.689570999999997,0.0,0.0,13184.0,0.0,0.0,0.0,0.0,0.125,0.8044432770000001,0.01,0.0,-15936.0,0.0,0.0,-0.0,0.0,0.125,0.5407714290000001,0.01,0.0,153.0,1.375,0.0,0.0,0.0,0.0,3.337402002,0.01,0.0,-11014.0,0.125,0.0,-0.0,0.0,0.125,1.619872881,0.01,0.0,0.15000000596046448,-0.44999998807907104,-88.97000122070312,-0.00750732421875,0.0052490234375,1.0167236328125,32.560001373291016,0.0,-2.0,-0.169158935546875,0.1027069091796875,Closing,0.0,0.0,1.0,0.0,0.0,0.0,0.0,0.0,
16.779962000000058,0.0,0.0,13184.0,0.0,0.0,0.0,0.0,0.125,0.806884683,0.01,0.0,-15936.0,0.0,0.0,-0.0,0.0,0.125,0.5419921320000001,0.01,0.0,153.0,1.375,0.0,0.0,0.0,0.0,3.337402002,0.01,0.0,-11014.0,0.125,0.0,-0.0,0.0,0.125,1.621093584,0.01,0.0,0.15000000596046448,-0.44999998807907104,-88.97000122070312,-0.01031494140625,0.0035400390625,1.0238037109375,32.560001373291016,0.0,0.0,-0.169158935546875,0.1027069091796875,Closing,0.0,0.0,1.0,0.0,0.0,0.0,0.0,0.0,
