Time,ClimberA1,ClimberA2,FRpos,FRCurrent,FRspeed,FRsetpoint,FRApos,FRACurrent,FREncpos,FREncSetpoint,FREncSpeed,FLpos,FLCurrent,FLspeed,FLsetpoint,FLApos,FLACurrent,FLEncpos,FLEncSetpoint,FLEncSpeed,BRpos,BRCurrent,BRspeed,BRsetpoint,BRApos,BRACurrent,BREncpos,BREncSetpoint,BREncSpeed,BLpos,BLCurrent,BLspeed,BLsetpoint,BLApos,BLACurrent,BLEncpos,BLEncSetpoint,BLEncSpeed,navx_Pitch,navx_Roll,navx_Yaw,navx_XAcc,navx_YAcc,navx_ZAcc,navx_Temp,navx_Bar,navx_Alt,navx_XDis,navx_YDis,GearPlacerState,ShootOutputV,ShootOutputCurrent,ShootEncPos,ShootEncVelocity,ShootSpeed,ShootSetpoint,CarouselSetpoint,CarouselCurrent,
0.17016099999996367,0.0,0.0,-306.0,0.0,0.0,-115.74803106486797,0.0,0.0,1.3476561120000001,0.5498168668524864,0.0,-313.0,0.0,0.0,-115.74803106486797,0.0,0.0,4.947509259,4.41043958977222,0.0,-262.0,0.0,0.0,-115.74803106486797,0.0,0.0,2.830810257,4.389674732977291,0.0,-287.0,0.0,0.0,-115.74803106486797,0.0,0.125,2.192382588,0.5526872062785609,0.0,0.20000000298023224,-0.5099999904632568,19.3700008392334,0.013671875,0.04730224609375,0.99884033203125,29.389999389648438,0.0,35.0,-0.0838470458984375,-0.0413970947265625,Closing,0.0,0.0,0.0,0.0,0.0,0.0,0.0,0.0,
0.22604000000003727,0.0,0.0,-306.0,0.0,0.0,-115.74803106486797,0.0,0.0,1.3476561120000001,0.5498168668524864,0.0,-313.0,0.0,0.0,-115.74803106486797,0.0,0.0,4.949950665,4.41043958977222,0.0,-262.0,0.0,0.0,-115.74803106486797,0.0,0.125,2.83203096,4.389674732977291,0.0,-287.0,0.125,0.0,-115.74803106486797,0.0,0.125,2.191161885,0.5526872062785609,0.0,0.1899999976158142,-0.5199999809265137,19.3700008392334,0.01702880859375,0.03253173828125,1.01312255859375,29.389999389648438,0.0,34.0,-0.08209228515625,-0.03997802734375,Closing,0.0,0.0,0.0,0.0,0.0,0.0,0.0,0.0,
0.25531299999996554,0.0,0.0,-306.0,0.0,0.0,-115.74803106486797,0.0,0.0,1.3476561120000001,0.5498168668524864,0.0,-313.0,0.0,0.0,-115.74803106486797,0.0,0.0,4.947509259,4.41043958977222,0.0,-262.0,0.0,0.0,-115.74803106486797,0.0,0.125,2.83203096,4.389674732977291,0.0,-287.0,0.0,0.0,-115.74803106486797,0.0,0.125,2.191161885,0.5526872062785609,0.0,0.1899999976158142,-0.5199999809265137,19.3700008392334,0.01513671875,0.03564453125,1.0115966796875,29.389999389648438,0.0,33.0,-0.0807037353515625,-0.039947509765625,Closing,0.0,0.0,0.0,0.0,0.0,0.0,0.0,0.0,
0.29348699999996464,0.0,0.0,-306.0,0.0,0.0,-115.74803106486797,0.0,0.0,1.3476561120000001,0.5498168668524864,0.0,-313.0,0.0,0.0,-115.74803106486797,0.0,0.0,4.948729962000001,4.41043958977222,0.0,-262.0,0.0,0.0,-115.74803106486797,0.0,0.0,2.83203096,4.389674732977291,0.0,-287.0,0.0,0.0,-115.74803106486797,0.0,0.125,2.1972654,0.5526872062785609,0.0,0.20000000298023224,-0.5099999904632568,19.3700008392334,-0.00408935546875,0.01617431640625,1.014404296875,29.389999389648438,0.0,8.0,-0.07916259765625,-0.039825439453125,Closing,0.0,0.0,0.0,0.0,0.0,0.0,0.0,0.0,
0.3318730000000214,0.0,0.0,-306.0,0.0,0.0,-115.74803106486797,0.0,0.0,1.3476561120000001,0.5498168668524864,0.0,-313.0,0.0,0.0,-115.74803106486797,0.0,0.0,4.949950665,4.41043958977222,0.0,-262.0,0.0,0.0,-115.74803106486797,0.0,0.0,2.834472366,4.389674732977291,0.0,-287.0,0.125,0.0,-115.74803106486797,0.0,0.125,2.192382588,0.5526872062785609,0.0,0.20999999344348907,-0.5099999904632568,19.3700008392334,-0.0177001953125,0.00494384765625,1.02740478515625,29.389999389648438,0.0,-7.0,-0.07916259765625,-0.039825439453125,Closing,0.0,0.0,0.0,0.0,0.0,0.0,0.0,0.0,
0.36726699999999257,0.0,0.0,-306.0,0.0,0.0,-115.74803106486797,0.0,0.0,1.3427733000000002,0.5498168668524864,0.0,-313.0,0.0,0.0,-115.74803106486797,0.0,0.0,4.947509259,4.41043958977222,0.0,-262.0,0.0,0.0,-115.74803106486797,0.0,0.125,2.830810257,4.389674732977291,0.0,-287.0,0.125,0.0,-115.74803106486797,0.0,0.125,2.191161885,0.5526872062785609,0.0,0.20999999344348907,-0.5,19.3700008392334,-0.03009033203125,-0.02117919921875,1.02349853515625,29.389999389648438,0.0,-28.0,-0.079193115234375,-0.039825439453125,Closing,0.0,0.0,0.0,0.0,0.0,0.0,0.0,0.0,
0.396079000000027,0.0,0.0,-306.0,0.0,0.0,-115.74803106486797,0.0,0.0,1.3476561120000001,0.5498168668524864,0.0,-313.0,0.0,0.0,-115.74803106486797,0.0,0.0,4.949950665,4.41043958977222,0.0,-262.0,0.0,0.0,-115.74803106486797,0.0,0.125,2.83203096,4.389674732977291,0.0,-287.0,0.125,0.0,-115.74803106486797,0.0,0.125,2.192382588,0.5526872062785609,0.0,0.2199999988079071,-0.49000000953674316,19.3799991607666,-0.0361328125,-0.0264892578125,1.037353515625,29.389999389648438,0.0,-35.0,-0.079559326171875,-0.039825439453125,Closing,0.0,0.0,0.0,0.0,0.0,0.0,0.0,0.0,
0.4339930000000168,0.0,0.0,-306.0,0.0,0.0,-115.74803106486797,0.0,0.0,1.336669785,0.5498168668524864,0.0,-313.0,0.0,0.0,-115.74803106486797,0.0,0.0,4.949950665,4.41043958977222,0.0,-262.0,0.0,0.0,-115.74803106486797,0.0,0.125,2.830810257,4.389674732977291,0.0,-287.0,0.125,0.0,-115.74803106486797,0.0,0.125,2.192382588,0.5526872062785609,0.0,0.2199999988079071,-0.49000000953674316,19.3799991607666,-0.0496826171875,-0.0313720703125,1.014892578125,29.389999389648438,0.0,-50.0,-0.0800628662109375,-0.0399017333984375,Closing,0.0,0.0,0.0,0.0,0.0,0.0,0.0,0.0,
0.4718120000000345,0.0,0.0,-306.0,0.0,0.0,-115.74803106486797,0.0,0.0,1.3464354090000001,0.5498168668524864,0.0,-314.0,0.125,-7.5,-115.74803106486797,0.0,0.0,4.949950665,4.41043958977222,0.0,-262.0,0.0,0.0,-115.74803106486797,0.0,0.125,2.830810257,4.389674732977291,0.0,-287.0,0.125,0.0,-115.74803106486797,0.0,0.125,2.191161885,0.5526872062785609,0.0,0.20999999344348907,-0.5099999904632568,19.3799991607666,-0.0484619140625,-0.03387451171875,1.02862548828125,29.3799991607666,0.0,-49.0,-0.080841064453125,-0.0400848388671875,Closing,0.0,0.0,0.0,0.0,0.0,0.0,0.0,0.0,
0.5048469999999506,0.0,0.0,-306.0,0.0,0.0,-115.74803106486797,0.0,0.0,1.3476561120000001,0.5498168668524864,0.0,-314.0,0.125,0.0,-115.74803106486797,0.0,0.0,4.947509259,4.41043958977222,0.0,-262.0,0.0,0.0,-115.74803106486797,0.0,0.125,2.830810257,4.389674732977291,0.0,-287.0,0.125,0.0,-115.74803106486797,0.0,0.125,2.192382588,0.5526872062785609,0.0,0.20000000298023224,-0.5099999904632568,19.389999389648438,-0.03936767578125,-0.04376220703125,1.02532958984375,29.3799991607666,0.0,-44.0,-0.0824737548828125,-0.0406341552734375,Closing,0.0,0.0,0.0,0.0,0.0,0.0,0.0,0.0,
0.5435250000000232,0.0,0.0,-306.0,0.0,0.0,-115.74803106486797,0.0,0.0,1.3476561120000001,0.5498168668524864,0.0012207029999999897,-314.0,0.125,0.0,-115.74803106486797,0.0,0.0,4.948729962000001,4.41043958977222,0.0,-262.0,0.0,0.0,-115.74803106486797,0.0,0.125,2.83203096,4.389674732977291,0.0,-287.0,0.125,0.0,-115.74803106486797,0.0,0.125,2.192382588,0.5526872062785609,0.0,0.20999999344348907,-0.5099999904632568,19.389999389648438,-0.04034423828125,-0.04022216796875,1.0322265625,29.3799991607666,0.0,-43.0,-0.0838623046875,-0.0412139892578125,Closing,0.0,0.0,0.0,0.0,0.0,0.0,0.0,0.0,
0.5764660000000149,0.0,0.0,-307.0,0.0,0.0,-115.74803106486797,0.0,0.0,1.3476561120000001,0.5498168668524864,-0.0024414059999999793,-315.0,0.25,0.0,-115.74803106486797,0.0,0.0,4.947509259,4.41043958977222,0.0,-262.0,0.0,0.0,-115.74803106486797,0.0,0.125,2.83203096,4.389674732977291,0.0,-287.0,0.125,0.0,-115.74803106486797,0.0,0.125,2.192382588,0.5526872062785609,0.0,0.20999999344348907,-0.5,19.40999984741211,-0.03179931640625,-0.0408935546875,1.040283203125,29.3799991607666,0.0,-36.0,-0.0863494873046875,-0.04241943359375,Closing,0.0,0.0,0.0,0.0,0.0,0.0,0.0,0.0,
0.623121999999974,0.0,0.0,-307.0,0.125,0.0,-115.74803106486797,0.0,0.0,1.3476561120000001,0.5498168668524864,0.0,-315.0,0.25,0.0,-115.74803106486797,0.0,0.0,4.951171368000001,4.41043958977222,0.0,-262.0,0.0,0.0,-115.74803106486797,0.0,0.125,2.830810257,4.389674732977291,0.0,-287.0,0.125,0.0,-115.74803106486797,0.0,0.125,2.192382588,0.5526872062785609,0.0,0.20999999344348907,-0.49000000953674316,19.40999984741211,-0.021240234375,-0.02459716796875,1.0489501953125,29.3799991607666,0.0,-20.0,-0.0891876220703125,-0.043975830078125,Closing,0.0,0.0,0.0,0.0,0.0,0.0,0.0,0.0,
0.652295999999973,0.0,0.0,-307.0,0.125,0.0,-115.74803106486797,0.0,0.0,1.3476561120000001,0.5498168668524864,0.0,-315.0,0.375,-15.0,-115.74803106486797,0.0,0.0,4.949950665,4.41043958977222,0.0,-262.0,0.0,0.0,-115.74803106486797,0.0,0.125,2.83203096,4.389674732977291,0.0,-287.0,0.125,0.0,-115.74803106486797,0.0,0.125,2.191161885,0.5526872062785609,0.0,0.2199999988079071,-0.49000000953674316,19.420000076293945,-0.0064697265625,-0.039794921875,1.034912109375,29.3799991607666,0.0,-12.0,-0.091217041015625,-0.04522705078125,Closing,0.0,0.0,0.0,0.0,0.0,0.0,0.0,0.0,
0.6904250000000466,0.0,0.0,-307.0,0.125,0.0,-115.74803106486797,0.0,0.0,1.335449082,0.5498168668524864,0.0,-315.0,0.5,-15.0,-115.74803106486797,0.0,0.0,4.947509259,4.41043958977222,0.0,-262.0,0.125,0.0,-115.74803106486797,0.0,0.125,2.83203096,4.389674732977291,0.0,-287.0,0.125,0.0,-115.74803106486797,0.0,0.125,2.192382588,0.5526872062785609,0.0,0.2199999988079071,-0.49000000953674316,19.43000030517578,-0.01751708984375,-0.01361083984375,1.0606689453125,29.3799991607666,0.0,-13.0,-0.091217041015625,-0.045928955078125,Closing,0.0,0.0,0.0,0.0,0.0,0.0,0.0,0.0,
0.7298549999999814,0.0,0.0,-308.0,0.125,0.0,-115.74803106486797,0.0,0.0,1.3488768150000001,0.5498168668524864,0.0012207029999999897,-318.0,0.625,-15.0,-115.74803106486797,0.0,0.0,4.951171368000001,4.41043958977222,0.0,-262.0,0.0,0.0,-115.74803106486797,0.0,0.125,2.83203096,4.389674732977291,0.0,-287.0,0.125,0.0,-115.74803106486797,0.0,0.125,2.191161885,0.5526872062785609,0.0,0.20999999344348907,-0.49000000953674316,19.469999313354492,-0.015869140625,-0.0087890625,1.0555419921875,29.3799991607666,0.0,-10.0,-0.091278076171875,-0.0461273193359375,Closing,0.0,0.0,0.0,0.0,0.0,0.0,0.0,0.0,
0.7632700000000187,0.0,0.0,-308.0,0.125,-7.5,-115.74803106486797,0.0,0.0,1.3476561120000001,0.5498168668524864,0.0,-318.0,0.75,-15.0,-115.74803106486797,0.0,0.0,4.949950665,4.41043958977222,0.0,-262.0,0.0,0.0,-115.74803106486797,0.0,0.125,2.830810257,4.389674732977291,0.0,-287.0,0.125,0.0,-115.74803106486797,0.0,0.125,2.192382588,0.5526872062785609,0.0,0.2199999988079071,-0.5099999904632568,19.520000457763672,-0.01263427734375,-0.01123046875,1.0491943359375,29.3799991607666,0.0,-8.0,-0.0913238525390625,-0.0461273193359375,Closing,0.0,0.0,0.0,0.0,0.0,0.0,0.0,0.0,
0.7962829999999376,0.0,0.0,-308.0,0.125,-15.0,-115.74803106486797,0.0,0.0,1.3488768150000001,0.5498168668524864,0.0,-318.0,0.875,-7.5,-115.74803106486797,0.0,0.0,4.951171368000001,4.41043958977222,0.0,-262.0,0.125,0.0,-115.74803106486797,0.0,0.125,2.830810257,4.389674732977291,0.0,-287.0,0.125,0.0,-115.74803106486797,0.0,0.125,2.192382588,0.5526872062785609,0.0,0.2199999988079071,-0.5199999809265137,19.579999923706055,-0.01300048828125,-0.01971435546875,1.06939697265625,29.3799991607666,0.0,-10.0,-0.0913238525390625,-0.046295166015625,Closing,0.0,0.0,0.0,0.0,0.0,0.0,0.0,0.0,
0.8336099999999861,0.0,0.0,-310.0,0.375,-15.0,-115.74803106486797,0.0,0.0,1.336669785,0.5498168668524864,-0.0012207029999999897,-319.0,0.75,-7.5,-115.74803106486797,0.0,0.0,4.951171368000001,4.41043958977222,0.0,-262.0,0.125,0.0,-115.74803106486797,0.0,0.125,2.830810257,4.389674732977291,0.0,-287.0,0.125,0.0,-115.74803106486797,0.0,0.125,2.191161885,0.5526872062785609,0.0,0.20000000298023224,-0.5099999904632568,19.59000015258789,0.0029296875,-0.0372314453125,1.01806640625,29.3799991607666,0.0,-2.0,-0.0913238525390625,-0.04656982421875,Closing,0.0,0.0,0.0,0.0,0.0,0.0,0.0,0.0,
0.8710019999999786,0.0,0.0,-310.0,0.625,-7.5,-115.74803106486797,0.0,0.0,1.3476561120000001,0.5498168668524864,0.0,-319.0,0.75,-7.5,-115.74803106486797,0.0,0.0,4.948729962000001,4.41043958977222,0.0,-262.0,0.125,0.0,-115.74803106486797,0.0,0.125,2.830810257,4.389674732977291,0.0,-287.0,0.375,0.0,-115.74803106486797,0.0,0.125,2.192382588,0.5526872062785609,0.0,0.1899999976158142,-0.5199999809265137,19.600000381469727,-0.00408935546875,-0.01544189453125,1.039794921875,29.3799991607666,0.0,-1.0,-0.0913238525390625,-0.0469970703125,Closing,0.0,0.0,0.0,0.0,0.0,0.0,0.0,0.0,
0.9031439999999711,0.0,0.0,-310.0,0.625,-15.0,-115.74803106486797,0.0,0.0,1.356201033,0.5498168668524864,0.0,-319.0,0.75,-7.5,-115.74803106486797,0.0,0.0,4.947509259,4.41043958977222,0.0,-262.0,0.125,0.0,-115.74803106486797,0.0,0.125,2.830810257,4.389674732977291,0.0,-287.0,0.125,0.0,-115.74803106486797,0.0,0.125,2.192382588,0.5526872062785609,0.0,0.18000000715255737,-0.5199999809265137,19.600000381469727,-0.0172119140625,0.0013427734375,1.05096435546875,29.3799991607666,0.0,-7.0,-0.0913238525390625,-0.0469970703125,Closing,0.0,0.0,0.0,0.0,0.0,0.0,0.0,0.0,
0.9447770000000019,0.0,0.0,-313.0,0.625,-15.0,-115.74803106486797,0.0,0.0,1.37939439,0.5498168668524864,0.0,-320.0,0.75,0.0,-115.74803106486797,0.0,0.0,4.951171368000001,4.41043958977222,0.0,-262.0,0.125,0.0,-115.74803106486797,0.0,0.125,2.830810257,4.389674732977291,0.0,-287.0,0.375,0.0,-115.74803106486797,0.0,0.125,2.192382588,0.5526872062785609,0.0,0.18000000715255737,-0.5400000214576721,19.6200008392334,-8.544921875E-4,0.01629638671875,1.06268310546875,29.389999389648438,0.0,13.0,-0.0912628173828125,-0.04705810546875,Closing,0.0,0.0,0.0,0.0,0.0,0.0,0.0,0.0,
0.9844880000000121,0.0,0.0,-313.0,0.75,-15.0,-115.74803106486797,0.0,0.0,1.3476561120000001,0.5498168668524864,0.0012207029999999897,-320.0,0.875,0.0,-115.74803106486797,0.0,0.0,4.949950665,4.41043958977222,0.0,-262.0,0.125,0.0,-115.74803106486797,0.0,0.125,2.830810257,4.389674732977291,0.0,-287.0,0.375,0.0,-115.74803106486797,0.0,0.125,2.193603291,0.5526872062785609,0.0,0.17000000178813934,-0.5199999809265137,19.6299991607666,0.0106201171875,0.0057373046875,1.0130615234375,29.389999389648438,0.0,19.0,-0.0911102294921875,-0.047088623046875,Closing,0.0,0.0,0.0,0.0,0.0,0.0,0.0,0.0,
1.0171230000000213,0.0,0.0,-313.0,1.0,-7.5,-115.74803106486797,0.0,0.0,1.3476561120000001,0.5498168668524864,0.0,-320.0,0.875,0.0,-115.74803106486797,0.0,0.0,4.951171368000001,4.41043958977222,0.0,-262.0,0.125,0.0,-115.74803106486797,0.0,0.125,2.828368851,4.389674732977291,0.0,-287.0,0.375,0.0,-115.74803106486797,0.0,0.125,2.192382588,0.5526872062785609,0.0,0.1599999964237213,-0.5099999904632568,19.639999389648438,0.01007080078125,-0.00872802734375,0.99853515625,29.389999389648438,0.0,14.0,-0.0906982421875,-0.047088623046875,Closing,0.0,0.0,0.0,0.0,0.0,0.0,0.0,0.0,
1.054890999999945,0.0,0.0,-314.0,1.375,0.0,-115.74803106486797,0.0,0.0,1.339111191,0.5498168668524864,0.0,-320.0,0.875,0.0,-115.74803106486797,0.0,0.0,4.948729962000001,4.41043958977222,0.0,-263.0,0.125,-7.5,-115.74803106486797,0.0,0.125,2.83203096,4.389674732977291,0.0,-287.0,0.375,0.0,-115.74803106486797,0.0,0.125,2.199706806,0.5526872062785609,0.0,0.17000000178813934,-0.5199999809265137,19.649999618530273,-0.00604248046875,0.0152587890625,1.0341796875,29.389999389648438,0.0,7.0,-0.0906982421875,-0.047088623046875,Closing,0.0,0.0,0.0,0.0,0.0,0.0,0.0,0.0,
1.0923610000000334,0.0,0.0,-314.0,1.5,0.0,-115.74803106486797,0.0,0.0,1.3476561120000001,0.5498168668524864,0.0,-320.0,1.375,0.0,-115.74803106486797,0.0,0.0,4.951171368000001,4.41043958977222,0.0,-263.0,0.125,0.0,-115.74803106486797,0.0,0.125,2.830810257,4.389674732977291,0.0,-287.0,0.375,0.0,-115.74803106486797,0.0,0.125,2.192382588,0.5526872062785609,0.0,0.17000000178813934,-0.5099999904632568,19.65999984741211,0.017822265625,-0.00274658203125,1.03350830078125,29.389999389648438,0.0,23.0,-0.0906219482421875,-0.047027587890625,Closing,0.0,0.0,0.0,0.0,0.0,0.0,0.0,0.0,
1.1294299999999349,0.0,0.0,-314.0,1.625,-7.5,-115.74803106486797,0.0,0.0,1.3464354090000001,0.5498168668524864,-0.0012207029999999897,-320.0,1.875,-7.5,-115.74803106486797,0.0,0.0,4.951171368000001,4.41043958977222,0.0,-263.0,0.125,0.0,-115.74803106486797,0.0,0.125,2.830810257,4.389674732977291,0.0,-287.0,0.375,0.0,-115.74803106486797,0.0,0.125,2.191161885,0.5526872062785609,0.0,0.14000000059604645,-0.47999998927116394,19.739999771118164,-0.02496337890625,-0.00262451171875,1.02484130859375,29.389999389648438,0.0,-17.0,-0.0903167724609375,-0.0470123291015625,Closing,0.0,0.0,0.0,0.0,0.0,0.0,0.0,0.0,
1.1676110000000335,0.0,0.0,-314.0,1.625,-7.5,-115.74803106486797,0.0,0.0,1.3476561120000001,0.5498168668524864,0.0,-320.0,2.125,-22.5,-115.74803106486797,0.0,0.0,4.949950665,4.41043958977222,0.0,-263.0,0.125,0.0,-115.74803106486797,0.0,0.125,2.830810257,4.389674732977291,0.0,-289.0,0.125,0.0,-115.74803106486797,0.0,0.125,2.192382588,0.5526872062785609,0.0,0.1599999964237213,-0.5299999713897705,19.8799991607666,-0.0247802734375,0.0072021484375,1.02252197265625,29.389999389648438,0.0,-12.0,-0.090423583984375,-0.0469207763671875,Closing,0.0,0.0,0.0,0.0,0.0,0.0,0.0,0.0,
1.2017879999999423,0.0,0.0,-318.0,1.625,-22.5,-115.74803106486797,0.0,0.0,1.3476561120000001,0.5498168668524864,0.0012207029999999897,-326.0,2.0,-30.0,-115.74803106486797,0.0,0.0,4.948729962000001,4.41043958977222,0.0,-263.0,0.125,0.0,-115.74803106486797,0.0,0.125,2.83203096,4.389674732977291,0.0,-289.0,0.125,-7.5,-115.74803106486797,0.0,0.125,2.192382588,0.5526872062785609,0.0,0.18000000715255737,-0.5699999928474426,19.989999771118164,-0.00927734375,-0.017578125,1.0516357421875,29.389999389648438,0.0,-6.0,-0.0904998779296875,-0.0469207763671875,Closing,0.0,0.0,0.0,0.0,0.0,0.0,0.0,0.0,
1.245966000000015,0.0,0.0,-318.0,1.625,-30.0,-115.74803106486797,0.0,0.0,1.3452147060000001,0.5498168668524864,0.0,-326.0,2.0,-22.5,-115.74803106486797,0.0,0.0,4.948729962000001,4.41043958977222,0.0,-263.0,0.125,0.0,-115.74803106486797,0.0,0.125,2.83203096,4.389674732977291,0.0,-289.0,0.625,-22.5,-115.74803106486797,0.0,0.125,2.192382588,0.5526872062785609,0.0,0.1599999964237213,-0.550000011920929,20.1200008392334,0.0084228515625,-0.02252197265625,1.00592041015625,29.389999389648438,0.0,8.0,-0.0904998779296875,-0.047119140625,Closing,0.0,0.0,0.0,0.0,0.0,0.0,0.0,0.0,
1.2835629999999656,0.0,0.0,-318.0,1.75,-37.5,-115.74803106486797,0.0,0.0,1.340331894,0.5498168668524864,0.0,-326.0,2.125,-22.5,-115.74803106486797,0.0,0.0,4.949950665,4.41043958977222,0.0,-263.0,0.125,-15.0,-115.74803106486797,0.0,0.125,2.83203096,4.389674732977291,0.0,-306.0,0.625,-82.5,-115.74803106486797,0.0,0.125,2.189941182,0.5526872062785609,0.0,0.12999999523162842,-0.5199999809265137,20.229999542236328,-0.0126953125,-0.02685546875,1.0242919921875,29.389999389648438,0.0,-13.0,-0.0904541015625,-0.0475006103515625,Closing,0.0,0.0,0.0,0.0,0.0,0.0,0.0,0.0,
1.3149420000000391,0.0,0.0,-323.0,1.875,-30.0,-115.74803106486797,0.0,0.0,1.3476561120000001,0.5498168668524864,0.0,-332.0,2.375,-37.5,-115.74803106486797,0.0,0.0,4.952392071,4.41043958977222,0.0,-270.0,0.375,-60.0,-115.74803106486797,0.0,0.125,2.830810257,4.389674732977291,0.0,-306.0,0.375,-120.0,-115.74803106486797,0.0,0.125,2.189941182,0.5526872062785609,0.0,0.14000000059604645,-0.5099999904632568,20.43000030517578,-0.0157470703125,-0.00653076171875,1.0625,29.389999389648438,0.0,-9.0,-0.09033203125,-0.0480804443359375,Closing,0.0,0.0,0.0,0.0,0.0,0.0,0.0,0.0,
1.3544229999999515,0.0,0.0,-323.0,1.75,-37.5,-115.74803106486797,0.0,0.0,1.3464354090000001,0.5498168668524864,0.0,-332.0,2.75,-45.0,-115.74803106486797,0.0,0.0,4.949950665,4.41043958977222,0.0,-270.0,0.375,-90.0,-115.74803106486797,0.0,0.125,2.83203096,4.389674732977291,0.0,-306.0,0.375,-112.5,-115.74803106486797,0.0,0.125,2.192382588,0.5526872062785609,0.0,0.1599999964237213,-0.5,20.579999923706055,-0.07666015625,-0.03729248046875,1.0726318359375,29.389999389648438,0.0,-77.0,-0.090301513671875,-0.0481719970703125,Closing,0.0,0.0,0.0,0.0,0.0,0.0,0.0,0.0,
1.3908319999999366,0.0,0.0,-323.0,1.75,-45.0,-115.74803106486797,0.0,0.0,1.353759627,0.5498168668524864,0.0,-332.0,2.75,-60.0,-115.74803106486797,0.0,0.0,4.951171368000001,4.41043958977222,0.0,-270.0,0.125,-172.5,-115.74803106486797,0.0,0.125,2.830810257,4.389674732977291,0.0,-306.0,0.625,-52.5,-115.74803106486797,0.0,0.125,2.192382588,0.5526872062785609,0.0,0.18000000715255737,-0.5899999737739563,20.799999237060547,-0.02789306640625,-0.00811767578125,1.07366943359375,29.389999389648438,0.0,-19.0,-0.0905303955078125,-0.0482330322265625,Closing,0.0,0.0,0.0,0.0,0.0,0.0,0.0,0.0,
1.4315470000000206,0.0,0.0,-334.0,1.75,-60.0,-115.74803106486797,0.0,0.0,1.3476561120000001,0.5498168668524864,0.0,-343.0,2.75,-67.5,-115.74803106486797,0.0,0.0,4.947509259,4.41043958977222,0.0,-301.0,0.125,-202.5,-115.74803106486797,0.0,0.0,2.83203096,4.389674732977291,0.0,-308.0,0.625,-7.5,-115.74803106486797,0.0,0.125,2.191161885,0.5526872062785609,0.0012207029999999897,0.1899999976158142,-0.5699999928474426,21.229999542236328,-0.01068115234375,-0.0574951171875,1.09307861328125,29.389999389648438,0.0,-21.0,-0.091217041015625,-0.0482940673828125,Closing,0.0,0.0,0.0,0.0,0.0,0.0,0.0,0.0,
1.4649619999999413,0.0,0.0,-334.0,1.75,-67.5,-115.74803106486797,0.0,0.0,1.3476561120000001,0.5498168668524864,0.0,-343.0,2.5,-82.5,-115.74803106486797,0.0,0.0,4.948729962000001,4.41043958977222,0.0,-301.0,0.125,-135.0,-115.74803106486797,0.0,0.0,2.83203096,4.389674732977291,0.0,-308.0,0.375,0.0,-115.74803106486797,0.0,0.125,2.192382588,0.5526872062785609,0.0,0.15000000596046448,-0.5799999833106995,21.719999313354492,-0.0379638671875,-0.07763671875,0.9942626953125,29.420000076293945,0.0,-55.0,-0.0924072265625,-0.04888916015625,Closing,0.0,0.0,0.0,0.0,0.0,0.0,0.0,0.0,
1.503908999999985,0.0,0.0,-334.0,1.875,-97.5,-115.74803106486797,0.0,0.0,1.350097518,0.5498168668524864,0.0,-343.0,2.625,-90.0,-115.74803106486797,0.0,0.0,4.947509259,4.41043958977222,0.0,-301.0,0.125,-97.5,-115.74803106486797,0.0,0.125,2.83203096,4.389674732977291,0.0,-308.0,0.75,-37.5,-115.74803106486797,0.0,0.125,2.192382588,0.5526872062785609,0.0,0.12999999523162842,-0.5699999928474426,22.06999969482422,-0.00360107421875,-0.0321044921875,1.0675048828125,29.420000076293945,0.0,-6.0,-0.0935211181640625,-0.0496063232421875,Closing,0.0,0.0,0.0,0.0,0.0,0.0,0.0,0.0,
1.5356750000000465,0.0,0.0,-334.0,1.625,-120.0,-115.74803106486797,0.0,0.0,1.3476561120000001,0.5498168668524864,0.0012207029999999897,-362.0,2.5,-105.0,-115.74803106486797,0.0,0.0,4.949950665,4.41043958977222,0.0,-318.0,0.125,-82.5,-115.74803106486797,0.0,0.125,2.830810257,4.389674732977291,0.0,-329.0,1.0,-75.0,-115.74803106486797,0.0,0.125,2.192382588,0.5526872062785609,0.0,0.14000000059604645,-0.5899999737739563,22.469999313354492,-0.06402587890625,0.02520751953125,1.04522705078125,29.420000076293945,0.0,-40.0,-0.0948028564453125,-0.0504302978515625,Closing,0.0,0.0,0.0,0.0,0.0,0.0,0.0,0.0,
1.5737339999999385,0.0,0.0,-354.0,1.375,-120.0,-115.74803106486797,0.0,0.0,1.3476561120000001,0.5498168668524864,0.0,-362.0,1.875,-120.0,-115.74803106486797,0.0,0.0,4.948729962000001,4.41043958977222,0.0,-318.0,0.375,-120.0,-115.74803106486797,0.0,0.125,2.829589554,4.389674732977291,0.0,-329.0,0.375,-180.0,-115.74803106486797,0.0,0.125,2.191161885,0.5526872062785609,0.0,0.1899999976158142,-0.6100000143051147,22.8799991607666,-0.02642822265625,-0.01123046875,0.99542236328125,29.420000076293945,0.0,-20.0,-0.0962677001953125,-0.051239013671875,Closing,0.0,0.0,0.0,0.0,0.0,0.0,0.0,0.0,
1.6072730000000448,0.0,0.0,-354.0,1.0,-120.0,-115.74803106486797,0.0,0.0,1.3476561120000001,0.5498168668524864,0.0,-362.0,1.625,-120.0,-115.74803106486797,0.0,0.0,4.948729962000001,4.41043958977222,0.0,-318.0,0.125,-142.5,-115.74803106486797,0.0,0.125,2.83203096,4.389674732977291,0.0,-329.0,0.125,-247.5,-115.74803106486797,0.0,0.125,2.192382588,0.5526872062785609,0.0,0.1899999976158142,-0.6100000143051147,23.290000915527344,-0.04278564453125,-0.01739501953125,1.073486328125,29.420000076293945,0.0,-36.0,-0.09783935546875,-0.052032470703125,Closing,0.0,0.0,0.0,0.0,0.0,0.0,0.0,0.0,
1.6434030000000495,0.0,0.0,-354.0,0.75,-120.0,-115.74803106486797,0.0,0.0,1.3476561120000001,0.5498168668524864,-0.0012207029999999897,-362.0,1.625,-120.0,-115.74803106486797,0.0,0.0,4.948729962000001,4.41043958977222,0.0,-318.0,0.125,-150.0,-115.74803106486797,0.0,0.125,2.830810257,4.389674732977291,0.0,-361.0,0.375,-240.0,-115.74803106486797,0.0,0.125,2.188720479,0.5526872062785609,0.0,0.15000000596046448,-0.6000000238418579,23.920000076293945,-0.05059814453125,-0.0447998046875,0.99749755859375,29.420000076293945,0.0,-55.0,-0.100494384765625,-0.05352783203125,Closing,0.0,0.0,0.0,0.0,0.0,0.0,0.0,0.0,
1.6820969999999507,0.0,0.0,-374.0,0.625,-120.0,-115.74803106486797,0.0,0.0,1.3476561120000001,0.5498168668524864,0.0,-383.0,1.75,-135.0,-115.74803106486797,0.0,0.0,4.952392071,4.41043958977222,0.0,-340.0,0.125,-135.0,-115.74803106486797,0.0,0.125,2.83203096,4.389674732977291,0.0,-361.0,0.375,-180.0,-115.74803106486797,0.0,0.125,2.191161885,0.5526872062785609,0.0,0.12999999523162842,-0.5799999833106995,24.34000015258789,-0.0047607421875,-0.03717041015625,1.06170654296875,29.420000076293945,0.0,-10.0,-0.101470947265625,-0.0547637939453125,Closing,0.0,0.0,0.0,0.0,0.0,0.0,0.0,0.0,
1.7118850000000092,0.0,0.0,-374.0,0.75,-127.5,-115.74803106486797,0.0,0.0,1.3476561120000001,0.5498168668524864,0.0,-383.0,1.75,-135.0,-115.74803106486797,0.0,0.0,4.947509259,4.41043958977222,0.0,-340.0,0.125,-112.5,-115.74803106486797,0.0,0.125,2.830810257,4.389674732977291,0.0,-361.0,0.375,-120.0,-115.74803106486797,0.0,0.125,2.192382588,0.5526872062785609,0.0,0.12999999523162842,-0.6000000238418579,24.760000228881836,0.00335693359375,0.07061767578125,0.973388671875,29.420000076293945,0.0,41.0,-0.1014556884765625,-0.0559844970703125,Closing,0.0,0.0,0.0,0.0,0.0,0.0,0.0,0.0,
1.749201000000001,0.0,0.0,-374.0,1.0,-135.0,-115.74803106486797,0.0,0.0,1.352538924,0.5498168668524864,0.0012207029999999897,-383.0,1.625,-150.0,-115.74803106486797,0.0,0.0,4.947509259,4.41043958977222,0.0,-340.0,0.125,-90.0,-115.74803106486797,0.0,0.125,2.830810257,4.389674732977291,0.0,-361.0,0.375,-90.0,-115.74803106486797,0.0,0.125,2.192382588,0.5526872062785609,0.0,0.1899999976158142,-0.6299999952316284,25.389999389648438,-0.01483154296875,0.0316162109375,1.07208251953125,29.420000076293945,0.0,9.0,-0.101348876953125,-0.057403564453125,Closing,0.0,0.0,0.0,0.0,0.0,0.0,0.0,0.0,
1.788283999999985,0.0,0.0,-397.0,1.0,-135.0,-115.74803106486797,0.0,0.0,1.3476561120000001,0.5498168668524864,0.0,-407.0,1.625,-142.5,-115.74803106486797,0.0,0.0,4.949950665,4.41043958977222,0.0,-358.0,0.125,-97.5,-115.74803106486797,0.0,0.125,2.830810257,4.389674732977291,0.0,-366.0,0.625,-37.5,-115.74803106486797,0.0,0.125,2.192382588,0.5526872062785609,0.0,0.1899999976158142,-0.6399999856948853,25.81999969482422,0.0147705078125,0.03851318359375,0.994384765625,29.420000076293945,0.0,38.0,-0.10125732421875,-0.05816650390625,Closing,0.0,0.0,0.0,0.0,0.0,0.0,0.0,0.0,
1.8197870000000111,0.0,0.0,-397.0,1.0,-135.0,-115.74803106486797,0.0,0.0,1.3476561120000001,0.5498168668524864,0.0,-407.0,1.625,-142.5,-115.74803106486797,0.0,0.0,4.948729962000001,4.41043958977222,0.0,-358.0,0.125,-157.5,-115.74803106486797,0.0,0.125,2.829589554,4.389674732977291,0.0,-366.0,0.625,-22.5,-115.74803106486797,0.0,0.125,2.192382588,0.5526872062785609,0.0,0.14000000059604645,-0.6499999761581421,26.459999084472656,0.032470703125,0.046875,1.00921630859375,29.420000076293945,0.0,59.0,-0.1009063720703125,-0.0591583251953125,Closing,0.0,0.0,0.0,0.0,0.0,0.0,0.0,0.0,
1.8540979999999982,0.0,0.0,-397.0,0.75,-135.0,-115.74803106486797,0.0,0.0,1.3476561120000001,0.5498168668524864,0.0,-407.0,1.625,-142.5,-115.74803106486797,0.0,0.0,4.948729962000001,4.41043958977222,0.0,-358.0,0.125,-180.0,-115.74803106486797,0.0,0.125,2.830810257,4.389674732977291,0.0,-366.0,0.625,-60.0,-115.74803106486797,0.0,0.125,2.191161885,0.5526872062785609,0.0,0.17000000178813934,-0.6299999952316284,26.899999618530273,0.017822265625,0.03277587890625,0.9810791015625,29.420000076293945,0.0,39.0,-0.1003265380859375,-0.0597076416015625,Closing,0.0,0.0,0.0,0.0,0.0,0.0,0.0,0.0,
1.8920520000000252,0.0,0.0,-397.0,0.75,-135.0,-115.74803106486797,0.0,0.0,1.3476561120000001,0.5498168668524864,0.0,-430.0,1.5,-142.5,-115.74803106486797,0.0,0.0,4.948729962000001,4.41043958977222,0.0,-383.0,0.125,-180.0,-115.74803106486797,0.0,0.125,2.823486039,4.389674732977291,0.0,-390.0,0.375,-142.5,-115.74803106486797,0.0,0.125,2.192382588,0.5526872062785609,0.0012207029999999897,0.1599999964237213,-0.6000000238418579,27.34000015258789,0.03448486328125,0.03826904296875,1.004638671875,29.420000076293945,0.0,56.0,-0.0995025634765625,-0.0597076416015625,Closing,0.0,0.0,0.0,0.0,0.0,0.0,0.0,0.0,
1.928616000000038,0.0,0.0,-419.0,1.0,-135.0,-115.74803106486797,0.0,0.0,1.356201033,0.5498168668524864,0.0,-430.0,1.5,-150.0,-115.74803106486797,0.0,0.0,4.949950665,4.41043958977222,0.0,-383.0,0.125,-127.5,-115.74803106486797,0.0,0.125,2.830810257,4.389674732977291,0.0,-390.0,0.375,-150.0,-115.74803106486797,0.0,0.125,2.192382588,0.5526872062785609,0.0,0.15000000596046448,-0.6299999952316284,28.030000686645508,0.0145263671875,0.00653076171875,0.96533203125,29.420000076293945,0.0,24.0,-0.0978240966796875,-0.0594482421875,Closing,0.0,0.0,0.0,0.0,0.0,0.0,0.0,0.0,
1.960310999999987,0.0,0.0,-419.0,1.0,-142.5,-115.74803106486797,0.0,0.0,1.3476561120000001,0.5498168668524864,0.0,-430.0,1.5,-150.0,-115.74803106486797,0.0,0.0,4.949950665,4.41043958977222,0.0,-383.0,0.125,-112.5,-115.74803106486797,0.0,0.125,2.830810257,4.389674732977291,0.0,-390.0,0.625,-97.5,-115.74803106486797,0.0,0.125,2.191161885,0.5526872062785609,0.0,0.15000000596046448,-0.6499999761581421,28.459999084472656,-3.0517578125E-4,0.11602783203125,1.0635986328125,29.420000076293945,0.0,64.0,-0.09649658203125,-0.0590972900390625,Closing,0.0,0.0,0.0,0.0,0.0,0.0,0.0,0.0,
1.9949409999999916,0.0,0.0,-419.0,1.0,-142.5,-115.74803106486797,0.0,0.0,1.353759627,0.5498168668524864,0.0,-430.0,1.25,-142.5,-115.74803106486797,0.0,0.0,4.948729962000001,4.41043958977222,0.0,-383.0,0.125,-135.0,-115.74803106486797,0.0,0.125,2.830810257,4.389674732977291,0.0,-390.0,0.625,-97.5,-115.74803106486797,0.0,0.125,2.192382588,0.5526872062785609,0.0,0.18000000715255737,-0.6600000262260437,28.889999389648438,-0.0045166015625,0.068359375,1.03985595703125,29.40999984741211,0.0,38.0,-0.094940185546875,-0.05841064453125,Closing,0.0,0.0,0.0,0.0,0.0,0.0,0.0,0.0,
2.0318599999999862,0.0,0.0,-442.0,0.625,-142.5,-115.74803106486797,0.0,0.0,1.3476561120000001,0.5498168668524864,0.0012207029999999897,-452.0,1.125,-135.0,-115.74803106486797,0.0,0.0,4.947509259,4.41043958977222,0.0,-409.0,0.125,-172.5,-115.74803106486797,0.0,0.125,2.825927445,4.389674732977291,0.0,-414.0,0.375,-157.5,-115.74803106486797,0.0,0.125,2.192382588,0.5526872062785609,0.0,0.1899999976158142,-0.6399999856948853,29.510000228881836,0.00665283203125,-0.00262451171875,1.0257568359375,29.40999984741211,0.0,12.0,-0.092132568359375,-0.0579986572265625,Closing,0.0,0.0,0.0,0.0,0.0,0.0,0.0,0.0,
2.0656799999999347,0.0,0.0,-442.0,0.375,-135.0,-115.74803106486797,0.0,0.0,1.3476561120000001,0.5498168668524864,0.0,-452.0,1.375,-127.5,-115.74803106486797,0.0,0.0,4.947509259,4.41043958977222,0.0,-409.0,0.125,-172.5,-115.74803106486797,0.0,0.125,2.828368851,4.389674732977291,0.0,-414.0,0.125,-195.0,-115.74803106486797,0.0,0.125,2.192382588,0.5526872062785609,0.0,0.17000000178813934,-0.6000000238418579,29.93000030517578,0.01483154296875,0.005615234375,1.01397705078125,29.40999984741211,0.0,23.0,-0.09002685546875,-0.0580596923828125,Closing,0.0,0.0,0.0,0.0,0.0,0.0,0.0,0.0,
2.098429000000004,0.0,0.0,-442.0,0.375,-127.5,-115.74803106486797,0.0,0.0,1.3464354090000001,0.5498168668524864,0.0,-452.0,1.5,-135.0,-115.74803106486797,0.0,0.0,4.948729962000001,4.41043958977222,0.0,-409.0,0.125,-142.5,-115.74803106486797,0.0,0.125,2.830810257,4.389674732977291,0.0,-414.0,0.125,-217.5,-115.74803106486797,0.0,0.125,2.192382588,0.5526872062785609,0.0,0.14000000059604645,-0.5899999737739563,30.34000015258789,0.02313232421875,0.0059814453125,1.03570556640625,29.40999984741211,0.0,30.0,-0.08782958984375,-0.058258056640625,Closing,0.0,0.0,0.0,0.0,0.0,0.0,0.0,0.0,
2.133371999999974,0.0,0.0,-442.0,0.625,-120.0,-115.74803106486797,0.0,0.0,1.3488768150000001,0.5498168668524864,-0.0012207029999999897,-476.0,1.375,-135.0,-115.74803106486797,0.0,0.0,4.948729962000001,4.41043958977222,0.0,-423.0,0.125,-120.0,-115.74803106486797,0.0,0.125,2.830810257,4.389674732977291,0.0,-443.0,0.125,-210.0,-115.74803106486797,0.0,0.125,2.192382588,0.5526872062785609,0.0,0.15000000596046448,-0.6000000238418579,30.75,-0.0477294921875,-0.0054931640625,1.05291748046875,29.40999984741211,0.0,-35.0,-0.085662841796875,-0.0583953857421875,Closing,0.0,0.0,0.0,0.0,0.0,0.0,0.0,0.0,
2.169932999999961,0.0,0.0,-462.0,0.75,-120.0,-115.74803106486797,0.0,0.0,1.351318221,0.5498168668524864,0.0,-476.0,1.25,-142.5,-115.74803106486797,0.0,0.0,4.951171368000001,4.41043958977222,0.0,-423.0,0.125,-67.5,-115.74803106486797,0.0,0.125,2.83203096,4.389674732977291,0.0,-443.0,0.375,-157.5,-115.74803106486797,0.0,0.125,2.192382588,0.5526872062785609,0.0,0.1599999964237213,-0.6399999856948853,31.350000381469727,-0.045654296875,-0.00445556640625,1.107421875,29.40999984741211,0.0,-32.0,-0.082611083984375,-0.0584259033203125,Closing,0.0,0.0,0.0,0.0,0.0,0.0,0.0,0.0,
2.2027630000000356,0.0,0.0,-462.0,0.75,-127.5,-115.74803106486797,0.0,0.0,1.3476561120000001,0.5498168668524864,0.0024414059999999793,-476.0,1.25,-142.5,-115.74803106486797,0.0,0.0,4.949950665,4.41043958977222,0.0,-423.0,0.125,-30.0,-115.74803106486797,0.0,0.125,2.83203096,4.389674732977291,0.0,-443.0,0.375,-105.0,-115.74803106486797,0.0,0.125,2.192382588,0.5526872062785609,0.0,0.1599999964237213,-0.6499999761581421,31.760000228881836,-0.01171875,-0.030517578125,1.04217529296875,29.40999984741211,0.0,-17.0,-0.080780029296875,-0.0584564208984375,Closing,0.0,0.0,0.0,0.0,0.0,0.0,0.0,0.0,
2.2347330000000074,0.0,0.0,-462.0,0.75,-127.5,-115.74803106486797,0.0,0.0,1.3488768150000001,0.5498168668524864,-0.0012207029999999897,-476.0,1.125,-135.0,-115.74803106486797,0.0,0.0,4.949950665,4.41043958977222,0.0,-423.0,0.125,-22.5,-115.74803106486797,0.0,0.125,2.830810257,4.389674732977291,0.0,-443.0,0.375,-75.0,-115.74803106486797,0.0,0.125,2.192382588,0.5526872062785609,0.0,0.1599999964237213,-0.6499999761581421,32.18000030517578,-0.0150146484375,-0.05108642578125,1.08050537109375,29.40999984741211,0.0,-31.0,-0.07904052734375,-0.05865478515625,Closing,0.0,0.0,0.0,0.0,0.0,0.0,0.0,0.0,
2.2710100000000093,0.0,0.0,-483.0,0.75,-127.5,-115.74803106486797,0.0,0.0,1.3476561120000001,0.5498168668524864,0.0,-499.0,1.5,-135.0,-115.74803106486797,0.0,0.0,4.948729962000001,4.41043958977222,0.0,-430.0,0.125,-60.0,-115.74803106486797,0.0,0.125,2.824706742,4.389674732977291,0.0,-448.0,0.625,-37.5,-115.74803106486797,0.0,0.125,2.191161885,0.5526872062785609,0.0,0.15000000596046448,-0.5899999737739563,32.939998626708984,-0.02197265625,-0.03424072265625,0.9722900390625,29.40999984741211,0.0,-29.0,-0.0760040283203125,-0.0597076416015625,Closing,0.0,0.0,0.0,0.0,0.0,0.0,0.0,0.0,
2.312310999999987,0.0,0.0,-483.0,0.625,-120.0,196.875,0.0,0.0,1.3476561120000001,0.5498168668524888,0.0,-499.0,1.375,-135.0,196.875,0.0,0.0,4.949950665,4.410439589772222,0.0,-430.0,0.125,-105.0,196.875,0.0,0.125,2.830810257,4.389674732977289,0.0,-448.0,0.375,-60.0,196.875,0.0,0.125,2.191161885,0.5526872062785588,0.0,0.14000000059604645,-0.5799999833106995,33.33000183105469,-0.05548095703125,0.00250244140625,1.0330810546875,29.40999984741211,0.0,-37.0,-0.074737548828125,-0.060455322265625,Closing,0.0,0.0,0.0,0.0,0.0,0.0,0.0,0.0,
2.348594000000041,0.0,0.0,-483.0,0.125,-120.0,1509.375,0.0,0.0,1.3476561120000001,0.5498168668524888,0.0,-499.0,1.0,-135.0,1509.375,0.0,0.0,4.949950665,4.410439589772222,0.0,-430.0,0.75,-217.5,1509.375,0.0,0.0,2.830810257,4.389674732977289,0.0,-448.0,0.125,-112.5,1509.375,0.0,0.125,2.192382588,0.5526872062785588,0.0,0.20999999344348907,-0.6499999761581421,33.709999084472656,-0.06982421875,0.01904296875,1.013916015625,29.40999984741211,0.0,-39.0,-0.073699951171875,-0.06103515625,Closing,0.0,0.0,0.0,0.0,0.0,0.0,0.0,0.0,
2.3858959999999496,0.0,0.0,-464.0,3.875,-37.5,2100.0,0.0,0.0,1.329345567,0.5498168668524888,0.0,-479.0,3.0,-30.0,2100.0,0.0,0.0,4.949950665,4.410439589772222,0.0,-457.0,1.875,-232.5,2100.0,0.0,0.0,2.83203096,4.389674732977289,0.0,-464.0,1.5,-90.0,2100.0,0.0,0.125,2.176513449,0.5526872062785588,0.0,0.2800000011920929,-0.8700000047683716,34.02000045776367,0.3812255859375,0.15301513671875,0.68865966796875,29.40999984741211,0.0,408.0,-0.0725860595703125,-0.0610504150390625,Closing,0.0,0.0,0.0,0.0,0.0,0.0,0.0,0.0,
2.416304000000004,0.0,0.0,-464.0,9.125,157.5,820.3125000000001,0.0,0.0,1.33056627,0.5498168668524888,0.0,-479.0,15.5,195.0,820.3125000000001,0.0,0.0,4.946288556,4.410439589772222,0.0,-457.0,7.75,-37.5,820.3125000000001,0.0,0.125,2.834472366,4.389674732977289,0.0,-464.0,8.25,-30.0,820.3125000000001,0.0,0.125,2.145995874,0.5526872062785588,0.0,0.17000000178813934,-0.699999988079071,33.380001068115234,-0.04351806640625,0.3543701171875,1.06927490234375,29.40999984741211,0.0,167.0,-0.071380615234375,-0.06097412109375,Closing,0.0,0.0,0.0,0.0,0.0,0.0,0.0,0.0,
2.453152000000002,0.0,0.0,-464.0,3.25,255.0,0.0,0.0,0.125,1.33056627,0.5498168668524888,0.0,-479.0,8.375,330.0,0.0,0.0,0.0,4.9157709810000005,4.410439589772222,-0.012207030000000785,-457.0,5.0,240.0,0.0,0.0,0.125,2.825927445,4.389674732977289,-0.003662108999999525,-464.0,4.125,82.5,0.0,0.0,0.125,2.138671656,0.5526872062785588,-0.035400387000000144,0.14000000059604645,-0.550000011920929,31.81999969482422,-0.0450439453125,0.04107666015625,1.49847412109375,29.40999984741211,0.0,-6.0,-0.069244384765625,-0.06085205078125,Closing,0.0,0.0,0.0,0.0,0.0,0.0,0.0,0.0,
2.4923730000000215,0.0,0.0,-464.0,0.25,240.0,-115.74803106486797,0.0,0.125,1.328124864,0.5498168668524864,0.0,-450.0,1.125,322.5,-115.74803106486797,0.0,0.0,4.914550278,4.41043958977222,-0.026855465999999772,-406.0,0.625,322.5,-115.74803106486797,0.0,0.125,2.825927445,4.389674732977291,0.0,-448.0,0.125,97.5,-115.74803106486797,0.0,0.125,2.138671656,0.5526872062785609,-0.009765623999999917,0.12999999523162842,-0.41999998688697815,30.8799991607666,0.157470703125,0.02703857421875,0.64495849609375,29.3799991607666,0.0,152.0,-0.0677947998046875,-0.061370849609375,Closing,0.0,0.0,0.0,0.0,0.0,0.0,0.0,0.0,
2.5308850000000094,0.0,0.0,-446.0,0.0,127.5,-115.74803106486797,0.0,0.125,1.328124864,0.5498168668524864,0.0,-450.0,0.0,180.0,-115.74803106486797,0.0,0.0,4.909667466,4.41043958977222,0.0,-406.0,0.0,277.5,-115.74803106486797,0.0,0.125,2.811279009,4.389674732977291,0.0,-448.0,0.125,90.0,-115.74803106486797,0.0,0.125,2.138671656,0.5526872062785609,0.0,0.18000000715255737,-0.5600000023841858,30.06999969482422,-0.10247802734375,-0.0528564453125,1.11016845703125,29.3799991607666,0.0,-107.0,-0.0661468505859375,-0.06195068359375,Closing,0.0,0.0,0.0,0.0,0.0,0.0,0.0,0.0,
2.560197999999975,0.0,0.0,-446.0,0.0,97.5,-115.74803106486797,0.0,0.125,1.334228379,0.5498168668524864,0.0,-450.0,0.125,60.0,-115.74803106486797,0.0,0.0,4.910888169000001,4.41043958977222,0.0,-406.0,0.125,127.5,-115.74803106486797,0.0,0.0,2.825927445,4.389674732977291,0.0,-448.0,0.125,112.5,-115.74803106486797,0.0,0.125,2.138671656,0.5526872062785609,0.0,0.20999999344348907,-0.5600000023841858,29.260000228881836,-0.089111328125,-0.151123046875,0.95947265625,29.3799991607666,0.0,-145.0,-0.06439208984375,-0.0628662109375,Closing,0.0,0.0,0.0,0.0,0.0,0.0,0.0,0.0,
2.5938760000000474,0.0,0.0,-446.0,0.0,97.5,-115.74803106486797,0.0,0.125,1.333007676,0.5498168668524864,0.004882811999999959,-450.0,0.125,37.5,-115.74803106486797,0.0,0.0,4.909667466,4.41043958977222,0.0,-406.0,0.0,75.0,-115.74803106486797,0.0,0.0,2.806396197,4.389674732977291,0.009765623999999917,-448.0,0.125,142.5,-115.74803106486797,0.0,0.125,2.13623025,0.5526872062785609,0.0012207029999999897,0.1899999976158142,-0.6399999856948853,29.1200008392334,-0.0364990234375,-0.0924072265625,1.0914306640625,29.3799991607666,0.0,-67.0,-0.063995361328125,-0.0632781982421875,Closing,0.0,0.0,0.0,0.0,0.0,0.0,0.0,0.0,
2.6299499999999534,0.0,0.0,-433.0,0.0,97.5,-115.74803106486797,0.0,0.125,1.333007676,0.5498168668524864,0.0,-443.0,0.125,52.5,-115.74803106486797,0.0,0.0,4.909667466,4.41043958977222,0.0,-402.0,0.125,22.5,-115.74803106486797,0.0,0.125,2.812499712,4.389674732977291,-0.01586913900000031,-425.0,0.125,142.5,-115.74803106486797,0.0,0.125,2.138671656,0.5526872062785609,0.0,0.1599999964237213,-0.6000000238418579,29.030000686645508,-0.06036376953125,-0.0513916015625,0.9637451171875,29.3799991607666,0.0,-70.0,-0.063446044921875,-0.0648956298828125,Closing,0.0,0.0,0.0,0.0,0.0,0.0,0.0,0.0,
2.6597870000000112,0.0,0.0,-433.0,0.0,82.5,-115.74803106486797,0.0,0.125,1.326904161,0.5498168668524864,0.0,-443.0,0.125,60.0,-115.74803106486797,0.0,0.0,4.909667466,4.41043958977222,0.0,-402.0,0.0,15.0,-115.74803106486797,0.0,0.0,2.812499712,4.389674732977291,0.0,-425.0,0.125,67.5,-115.74803106486797,0.0,0.125,2.138671656,0.5526872062785609,0.0,0.12999999523162842,-0.6399999856948853,29.15999984741211,-0.02587890625,-0.00640869140625,1.0107421875,29.3799991607666,0.0,-16.0,-0.0634765625,-0.0661773681640625,Closing,0.0,0.0,0.0,0.0,0.0,0.0,0.0,0.0,
2.695548999999999,0.0,0.0,-433.0,0.0,15.0,-115.74803106486797,0.0,0.125,1.3220213490000001,0.5498168668524864,-0.0012207029999999897,-443.0,0.125,37.5,-115.74803106486797,0.0,0.0,4.912108872,4.41043958977222,0.0,-402.0,0.0,7.5,-115.74803106486797,0.0,0.0,2.812499712,4.389674732977291,0.0,-425.0,0.125,30.0,-115.74803106486797,0.0,0.125,2.135009547,0.5526872062785609,-0.0012207029999999897,0.11999999731779099,-0.6000000238418579,29.329999923706055,-0.00335693359375,-0.02276611328125,1.07977294921875,29.3799991607666,0.0,-5.0,-0.06353759765625,-0.066192626953125,Closing,0.0,0.0,0.0,0.0,0.0,0.0,0.0,0.0,
2.731179999999935,0.0,0.0,-433.0,0.0,-7.5,-115.74803106486797,0.0,0.125,1.3427733000000002,0.5498168668524864,0.0024414059999999793,-443.0,0.0,0.0,-115.74803106486797,0.0,0.0,4.912108872,4.41043958977222,0.0,-403.0,0.0,0.0,-115.74803106486797,0.0,0.0,2.811279009,4.389674732977291,0.0,-425.0,0.125,0.0,-115.74803106486797,0.0,0.125,2.138671656,0.5526872062785609,0.0012207029999999897,0.12999999523162842,-0.6000000238418579,29.579999923706055,-0.01910400390625,0.00994873046875,1.00164794921875,29.3799991607666,0.0,-3.0,-0.063629150390625,-0.0662841796875,Closing,0.0,0.0,0.0,0.0,0.0,0.0,0.0,0.0,
2.7619590000000316,0.0,0.0,-437.0,0.0,-22.5,-115.74803106486797,0.0,0.125,1.334228379,0.5498168668524864,0.0,-443.0,0.0,0.0,-115.74803106486797,0.0,0.0,4.912108872,4.41043958977222,0.0,-403.0,0.0,0.0,-115.74803106486797,0.0,0.0,2.812499712,4.389674732977291,0.0,-425.0,0.125,0.0,-115.74803106486797,0.0,0.125,2.138671656,0.5526872062785609,0.0,0.15000000596046448,-0.5699999928474426,29.719999313354492,-0.026611328125,6.103515625E-5,1.05810546875,29.3799991607666,0.0,-15.0,-0.063690185546875,-0.0662841796875,Closing,0.0,0.0,0.0,0.0,0.0,0.0,0.0,0.0,
2.794136999999988,0.0,0.0,-437.0,0.0,-30.0,-115.74803106486797,0.0,0.125,1.333007676,0.5498168668524864,-0.0012207029999999897,-443.0,0.0,0.0,-115.74803106486797,0.0,0.0,4.910888169000001,4.41043958977222,0.0,-403.0,0.0,0.0,-115.74803106486797,0.0,0.0,2.812499712,4.389674732977291,0.0,-425.0,0.125,0.0,-115.74803106486797,0.0,0.125,2.138671656,0.5526872062785609,0.0012207029999999897,0.15000000596046448,-0.5899999737739563,29.829999923706055,-0.03265380859375,4.8828125E-4,0.983642578125,29.3799991607666,0.0,-20.0,-0.0637054443359375,-0.0662841796875,Closing,0.0,0.0,0.0,0.0,0.0,0.0,0.0,0.0,
2.82948199999996,0.0,0.0,-437.0,0.0,-30.0,-115.74803106486797,0.0,0.125,1.334228379,0.5498168668524864,0.0,-443.0,0.0,-7.5,-115.74803106486797,0.0,0.0,4.909667466,4.41043958977222,0.0,-403.0,0.125,0.0,-115.74803106486797,0.0,0.0,2.812499712,4.389674732977291,0.0,-425.0,0.125,0.0,-115.74803106486797,0.0,0.125,2.139892359,0.5526872062785609,0.0,0.15000000596046448,-0.6000000238418579,29.8799991607666,-0.02093505859375,0.0155029296875,0.9698486328125,29.3799991607666,0.0,-2.0,-0.0637359619140625,-0.0662841796875,Closing,0.0,0.0,0.0,0.0,0.0,0.0,0.0,0.0,
2.856929999999935,0.0,0.0,-443.0,0.0,-30.0,-115.74803106486797,0.0,0.125,1.334228379,0.5498168668524864,0.0,-453.0,0.125,-37.5,-115.74803106486797,0.0,0.0,4.913329575000001,4.41043958977222,0.0,-403.0,0.125,0.0,-115.74803106486797,0.0,0.0,2.811279009,4.389674732977291,0.0,-425.0,0.125,0.0,-115.74803106486797,0.0,0.125,2.138671656,0.5526872062785609,0.0,0.12999999523162842,-0.5799999833106995,29.979999542236328,0.00811767578125,0.0010986328125,1.023193359375,29.3799991607666,0.0,15.0,-0.0637969970703125,-0.0663604736328125,Closing,0.0,0.0,0.0,0.0,0.0,0.0,0.0,0.0,
2.8913540000000504,0.0,0.0,-443.0,0.0,-30.0,-115.74803106486797,0.0,0.125,1.333007676,0.5498168668524864,0.0012207029999999897,-453.0,0.25,-60.0,-115.74803106486797,0.0,0.0,4.9206537930000005,4.41043958977222,0.004882811999999959,-403.0,0.125,0.0,-115.74803106486797,0.0,0.0,2.824706742,4.389674732977291,0.0,-425.0,0.125,0.0,-115.74803106486797,0.0,0.125,2.138671656,0.5526872062785609,0.0,0.12999999523162842,-0.5799999833106995,30.010000228881836,0.01910400390625,0.03607177734375,1.005126953125,29.3799991607666,0.0,42.0,-0.063751220703125,-0.06640625,Closing,0.0,0.0,0.0,0.0,0.0,0.0,0.0,0.0,
2.9219960000000427,0.0,0.0,-443.0,0.0,-15.0,-115.74803106486797,0.0,0.125,1.334228379,0.5498168668524864,0.0,-453.0,0.375,-67.5,-115.74803106486797,0.0,0.0,4.91943309,4.41043958977222,0.0,-403.0,0.125,-7.5,-115.74803106486797,0.0,0.0,2.811279009,4.389674732977291,0.0,-425.0,0.125,0.0,-115.74803106486797,0.0,0.125,2.138671656,0.5526872062785609,0.0,0.15000000596046448,-0.5699999928474426,30.079999923706055,0.0262451171875,0.05535888671875,1.03802490234375,29.3799991607666,0.0,57.0,-0.0632171630859375,-0.06634521484375,Closing,0.0,0.0,0.0,0.0,0.0,0.0,0.0,0.0,
2.9548859999999406,0.0,0.0,-443.0,0.0,-7.5,-115.74803106486797,0.0,0.125,1.334228379,0.5498168668524864,0.0,-453.0,0.5,-37.5,-115.74803106486797,0.0,0.0,4.9182123870000005,4.41043958977222,0.0,-403.0,0.0,-22.5,-115.74803106486797,0.0,0.0,2.812499712,4.389674732977291,0.0,-425.0,0.125,0.0,-115.74803106486797,0.0,0.125,2.138671656,0.5526872062785609,0.0,0.1599999964237213,-0.5699999928474426,30.110000610351562,0.01507568359375,0.06268310546875,0.98101806640625,29.3799991607666,0.0,51.0,-0.0624847412109375,-0.0660858154296875,Closing,0.0,0.0,0.0,0.0,0.0,0.0,0.0,0.0,
2.9903560000000287,0.0,0.0,-444.0,0.0,-7.5,-115.74803106486797,0.0,0.125,1.335449082,0.5498168668524864,0.0012207029999999897,-456.0,0.5,-22.5,-115.74803106486797,0.0,0.0,4.9230951990000005,4.41043958977222,0.0012207029999995456,-408.0,0.0,-30.0,-115.74803106486797,0.0,0.0,2.811279009,4.389674732977291,0.0,-425.0,0.125,0.0,-115.74803106486797,0.0,0.125,2.138671656,0.5526872062785609,-0.0012207029999999897,0.17000000178813934,-0.5600000023841858,30.139999389648438,0.0234375,0.0230712890625,1.03564453125,29.3799991607666,0.0,39.0,-0.061492919921875,-0.065673828125,Closing,0.0,0.0,0.0,0.0,0.0,0.0,0.0,0.0,
3.026625,0.0,0.0,-444.0,0.0,-7.5,-115.74803106486797,0.0,0.125,1.334228379,0.5498168668524864,0.0,-456.0,0.875,-15.0,-115.74803106486797,0.0,0.0,4.924315902,4.41043958977222,0.0,-408.0,0.0,-22.5,-115.74803106486797,0.0,0.0,2.812499712,4.389674732977291,0.0,-425.0,0.125,0.0,-115.74803106486797,0.0,0.125,2.138671656,0.5526872062785609,0.0,0.12999999523162842,-0.550000011920929,30.200000762939453,0.01324462890625,0.0181884765625,1.0003662109375,29.3799991607666,0.0,27.0,-0.0596466064453125,-0.065673828125,Closing,0.0,0.0,0.0,0.0,0.0,0.0,0.0,0.0,
3.0556319999999833,0.0,0.0,-444.0,0.125,-7.5,-115.74803106486797,0.0,0.125,1.329345567,0.5498168668524864,0.0024414059999999793,-456.0,1.0,-22.5,-115.74803106486797,0.0,0.0,4.930419417,4.41043958977222,0.0,-408.0,0.125,-15.0,-115.74803106486797,0.0,0.0,2.811279009,4.389674732977291,0.0,-425.0,0.125,0.0,-115.74803106486797,0.0,0.125,2.14843728,0.5526872062785609,0.0,0.12999999523162842,-0.5699999928474426,30.270000457763672,-4.8828125E-4,0.04058837890625,1.0615234375,29.3799991607666,0.0,28.0,-0.0582275390625,-0.065643310546875,Closing,0.0,0.0,0.0,0.0,0.0,0.0,0.0,0.0,
3.089648000000045,0.0,0.0,-444.0,0.125,-15.0,-115.74803106486797,0.0,0.125,1.334228379,0.5498168668524864,-0.0012207029999999897,-456.0,1.0,-22.5,-115.74803106486797,0.0,0.0,4.934081526,4.41043958977222,0.004882811999999959,-408.0,0.125,0.0,-115.74803106486797,0.0,0.0,2.812499712,4.389674732977291,0.0,-425.0,0.125,0.0,-115.74803106486797,0.0,0.125,2.138671656,0.5526872062785609,0.0,0.15000000596046448,-0.5799999833106995,30.3700008392334,-0.01202392578125,0.0035400390625,1.02947998046875,29.3799991607666,0.0,0.0,-0.0566558837890625,-0.06549072265625,Closing,0.0,0.0,0.0,0.0,0.0,0.0,0.0,0.0,
3.1227029999999796,0.0,0.0,-449.0,0.125,-22.5,-115.74803106486797,0.0,0.125,1.329345567,0.5498168668524864,0.0,-461.0,1.0,-30.0,-115.74803106486797,0.0,0.0,4.934081526,4.41043958977222,0.0,-408.0,0.125,0.0,-115.74803106486797,0.0,0.0,2.811279009,4.389674732977291,0.0,-425.0,0.125,0.0,-115.74803106486797,0.0,0.125,2.138671656,0.5526872062785609,0.0,0.17000000178813934,-0.5899999737739563,30.489999771118164,-3.0517578125E-4,-0.01861572265625,1.018310546875,29.3799991607666,0.0,-2.0,-0.0566558837890625,-0.0655059814453125,Closing,0.0,0.0,0.0,0.0,0.0,0.0,0.0,0.0,
3.1534520000000485,0.0,0.0,-449.0,0.0,-30.0,-115.74803106486797,0.0,0.125,1.334228379,0.5498168668524864,-0.0024414059999999793,-461.0,1.0,-30.0,-115.74803106486797,0.0,0.0,4.934081526,4.41043958977222,0.0,-408.0,0.125,0.0,-115.74803106486797,0.0,0.0,2.811279009,4.389674732977291,0.0,-425.0,0.125,0.0,-115.74803106486797,0.0,0.125,2.138671656,0.5526872062785609,0.0,0.1899999976158142,-0.5899999737739563,30.6299991607666,-0.01336669921875,-0.01513671875,1.05853271484375,29.3799991607666,0.0,-11.0,-0.0566558837890625,-0.0656280517578125,Closing,0.0,0.0,0.0,0.0,0.0,0.0,0.0,0.0,
3.1898499999999768,0.0,0.0,-449.0,0.125,-30.0,-115.74803106486797,0.0,0.125,1.3732908750000001,0.5498168668524864,0.0024414059999999793,-461.0,0.875,-30.0,-115.74803106486797,0.0,0.0,4.937743635,4.41043958977222,0.0,-408.0,0.125,0.0,-115.74803106486797,0.0,0.0,2.816161821,4.389674732977291,0.004882811999999959,-425.0,0.125,0.0,-115.74803106486797,0.0,0.125,2.13623025,0.5526872062785609,0.0,0.18000000715255737,-0.550000011920929,30.829999923706055,-0.0050048828125,-0.05047607421875,1.07476806640625,29.3799991607666,0.0,-22.0,-0.056671142578125,-0.0657501220703125,Closing,0.0,0.0,0.0,0.0,0.0,0.0,0.0,0.0,
3.222167999999947,0.0,0.0,-455.0,0.125,-30.0,-115.74803106486797,0.0,0.125,1.334228379,0.5498168668524864,0.0,-467.0,0.75,-30.0,-115.74803106486797,0.0,0.0,4.937743635,4.41043958977222,0.0,-408.0,0.125,0.0,-115.74803106486797,0.0,0.125,2.816161821,4.389674732977291,0.0,-429.0,0.125,0.0,-115.74803106486797,0.0,0.125,2.143554468,0.5526872062785609,0.0,0.1599999964237213,-0.550000011920929,30.950000762939453,-0.0579833984375,-0.0347900390625,1.0279541015625,29.3799991607666,0.0,-60.0,-0.056854248046875,-0.0660552978515625,Closing,0.0,0.0,0.0,0.0,0.0,0.0,0.0,0.0,
3.2532149999999675,0.0,0.0,-455.0,0.125,-37.5,-115.74803106486797,0.0,0.125,1.337890488,0.5498168668524864,0.0,-467.0,0.625,-37.5,-115.74803106486797,0.0,0.0,4.940185041,4.41043958977222,0.0,-408.0,0.125,0.0,-115.74803106486797,0.0,0.125,2.814941118,4.389674732977291,0.0,-429.0,0.375,-45.0,-115.74803106486797,0.0,0.125,2.14843728,0.5526872062785609,0.0,0.15000000596046448,-0.5699999928474426,31.059999465942383,-0.04290771484375,-0.06329345703125,1.02972412109375,29.3799991607666,0.0,-62.0,-0.057373046875,-0.0664825439453125,Closing,0.0,0.0,0.0,0.0,0.0,0.0,0.0,0.0,
3.2896720000000204,0.0,0.0,-455.0,0.375,-45.0,1099.21875,0.0,0.125,1.339111191,0.5498168668524888,0.004882811999999959,-467.0,0.625,-37.5,1099.21875,0.0,0.0,4.938964338,4.410439589772222,0.0,-408.0,0.125,-7.5,1099.21875,0.0,0.125,2.821044633,4.389674732977289,0.0,-429.0,0.125,-120.0,1099.21875,0.0,0.125,2.14843728,0.5526872062785588,0.004882811999999959,0.14000000059604645,-0.550000011920929,31.190000534057617,-0.04443359375,-0.03961181640625,0.970458984375,29.3799991607666,0.0,-51.0,-0.0582427978515625,-0.0670623779296875,Closing,0.0,0.0,0.0,0.0,0.0,0.0,0.0,0.0,
3.3208610000000336,0.0,0.0,-455.0,3.125,-15.0,1886.7187500000002,0.0,0.125,1.337890488,0.5498168668524888,0.0,-435.0,2.25,-7.5,1886.7187500000002,0.0,0.0,4.932860823,4.410439589772222,0.0,-412.0,1.875,-22.5,1886.7187500000002,0.0,0.125,2.821044633,4.389674732977289,0.0,-435.0,1.625,-142.5,1886.7187500000002,0.0,0.125,2.14843728,0.5526872062785588,0.0,0.1899999976158142,-0.550000011920929,31.3700008392334,-0.06463623046875,9.765625E-4,0.9876708984375,29.3799991607666,0.0,-48.0,-0.0601959228515625,-0.0678558349609375,Closing,0.0,0.0,0.0,0.0,0.0,0.0,0.0,0.0,
3.367829999999958,0.0,0.0,-426.0,9.75,165.0,2100.0,0.0,0.125,1.33056627,0.5498168668524888,0.0,-435.0,12.25,180.0,2100.0,0.0,0.0,4.93164012,4.410439589772222,0.0,-412.0,8.375,-22.5,2100.0,0.0,0.125,2.8076169,4.389674732977289,0.0,-435.0,8.125,-22.5,2100.0,0.0,0.125,2.128906032,0.5526872062785588,0.0,0.5,-0.5099999904632568,31.309999465942383,-0.02008056640625,0.00311279296875,1.3802490234375,29.3799991607666,0.0,-11.0,-0.061920166015625,-0.0672607421875,Closing,0.0,0.0,0.0,0.0,0.0,0.0,0.0,0.0,
3.400792000000016,0.0,0.0,-426.0,13.25,270.0,2100.0,0.0,0.125,1.33056627,0.5498168668524888,0.0024414059999999793,-435.0,22.25,397.5,2100.0,0.0,0.0,4.885253406,4.410439589772222,-0.004882811999999959,-412.0,17.125,30.0,2100.0,0.0,0.125,2.7978512760000003,4.389674732977289,0.0,-435.0,17.5,232.5,2100.0,0.0,0.125,2.128906032,0.5526872062785588,0.0,0.3799999952316284,-0.550000011920929,29.719999313354492,0.11846923828125,0.11016845703125,0.80816650390625,29.3799991607666,0.0,161.0,-0.0655364990234375,-0.0659942626953125,Closing,0.0,0.0,0.0,0.0,0.0,0.0,0.0,0.0,
3.4352709999999496,0.0,0.0,-426.0,15.875,427.5,2100.0,0.0,0.125,1.329345567,0.5498168668524888,-0.0012207029999999897,-435.0,22.125,480.0,2100.0,0.0,0.0,4.8706049700000005,4.410439589772222,-0.05371093200000043,-412.0,19.625,82.5,2100.0,0.0,0.0,2.7966305730000003,4.389674732977289,-0.009765623999999917,-435.0,19.375,352.5,2100.0,0.0,0.125,2.128906032,0.5526872062785588,0.0,0.49000000953674316,-0.4399999976158142,27.8700008392334,-0.138427734375,0.218017578125,1.21759033203125,29.3799991607666,0.0,-16.0,-0.0675811767578125,-0.0650634765625,Closing,0.0,0.0,0.0,0.0,0.0,0.0,0.0,0.0,
3.470396999999997,0.0,0.0,-329.0,14.25,570.0,1542.1875,0.0,0.125,1.33056627,0.5498168668524888,0.0,-331.0,20.375,630.0,1542.1875,0.0,0.0,4.869384267,4.410439589772222,0.0,-348.0,21.0,307.5,1542.1875,0.0,0.0,2.7978512760000003,4.389674732977289,0.0,-338.0,16.5,555.0,1542.1875,0.0,0.125,2.128906032,0.5526872062785588,0.0,0.5199999809265137,-0.3499999940395355,25.510000228881836,0.14727783203125,0.21551513671875,0.808837890625,29.3799991607666,0.0,227.0,-0.0674285888671875,-0.06378173828125,Closing,0.0,0.0,0.0,0.0,0.0,0.0,0.0,0.0,
3.5067360000000334,0.0,0.0,-329.0,10.625,675.0,229.6875,0.0,0.125,1.333007676,0.5498168668524888,-0.0012207029999999897,-331.0,17.375,870.0,229.6875,0.0,0.0,4.855956534000001,4.410439589772222,0.0,-348.0,11.75,645.0,229.6875,0.0,0.0,2.7978512760000003,4.389674732977289,0.0,-338.0,7.875,742.5,229.6875,0.0,0.125,2.128906032,0.5526872062785588,0.0,0.6299999952316284,-0.23000000417232513,20.950000762939453,-0.06072998046875,0.02410888671875,0.9638671875,29.399999618530273,0.0,-48.0,-0.0668792724609375,-0.0606689453125,Closing,0.0,0.0,0.0,0.0,0.0,0.0,0.0,0.0,
3.5404320000000298,0.0,0.0,-329.0,2.125,877.5,0.0,0.0,0.125,1.328124864,0.5498168668524888,0.0,-331.0,4.875,952.5,0.0,0.0,0.0,4.855956534000001,4.410439589772222,0.0,-348.0,5.375,810.0,0.0,0.0,0.0,2.7978512760000003,4.389674732977289,0.0,-338.0,3.375,825.0,0.0,0.0,0.125,2.130126735,0.5526872062785588,0.0,0.6200000047683716,-0.20999999344348907,17.649999618530273,-0.16009521484375,-0.1483154296875,1.0223388671875,29.399999618530273,0.0,-197.0,-0.0667724609375,-0.05841064453125,Closing,0.0,0.0,0.0,0.0,0.0,0.0,0.0,0.0,
3.5714100000000326,0.0,0.0,-329.0,0.0,877.5,0.0,0.0,0.125,1.329345567,0.5498168668524888,0.0,-191.0,0.0,907.5,0.0,0.0,0.0,4.855956534000001,4.410439589772222,-0.014648435999999876,-208.0,0.0,945.0,0.0,0.0,0.0,2.8076169,4.389674732977289,0.0,-213.0,0.0,817.5,0.0,0.0,0.125,2.130126735,0.5526872062785588,0.0,0.5699999928474426,-0.1899999976158142,14.460000038146973,0.29052734375,-0.0467529296875,0.91229248046875,29.399999618530273,0.0,270.0,-0.067047119140625,-0.0562896728515625,Closing,0.0,0.0,0.0,0.0,0.0,0.0,0.0,0.0,
3.605670000000042,0.0,0.0,-195.0,0.0,840.0,0.0,0.0,0.125,1.329345567,0.5498168668524888,0.0,-191.0,0.0,855.0,0.0,0.0,0.0,4.851073722000001,4.410439589772222,-0.014648435999999876,-208.0,0.0,900.0,0.0,0.0,0.0,2.821044633,4.389674732977289,0.008544920999999484,-213.0,0.0,757.5,0.0,0.0,0.125,2.130126735,0.5526872062785588,0.0,0.6200000047683716,-0.10000000149011612,11.619999885559082,-0.0460205078125,0.13409423828125,1.1429443359375,29.399999618530273,0.0,-18.0,-0.0670318603515625,-0.0545806884765625,Closing,0.0,0.0,0.0,0.0,0.0,0.0,0.0,0.0,
3.6356920000000392,0.0,0.0,-195.0,0.0,840.0,0.0,0.0,0.125,1.331786973,0.5498168668524888,0.0012207029999999897,-191.0,0.0,840.0,0.0,0.0,0.0,4.854735831,4.410439589772222,-0.0012207030000004337,-208.0,0.0,720.0,0.0,0.0,0.0,2.816161821,4.389674732977289,0.008544920999999484,-213.0,0.0,765.0,0.0,0.0,0.125,2.128906032,0.5526872062785588,0.0,0.5600000023841858,-0.18000000715255737,8.949999809265137,-0.055419921875,0.03179931640625,1.16314697265625,29.399999618530273,0.0,-47.0,-0.067108154296875,-0.0527801513671875,Closing,0.0,0.0,0.0,0.0,0.0,0.0,0.0,0.0,
3.670719000000041,0.0,0.0,-195.0,0.0,870.0,0.0,0.0,0.125,1.329345567,0.5498168668524888,0.0,-191.0,0.0,900.0,0.0,0.0,0.0,4.855956534000001,4.410439589772222,0.0012207030000004337,-208.0,0.0,630.0,0.0,0.0,0.125,2.811279009,4.389674732977289,0.010986327000000351,-213.0,0.0,780.0,0.0,0.0,0.125,2.128906032,0.5526872062785588,0.0,0.550000011920929,0.11999999731779099,5.159999847412109,0.0230712890625,-0.01190185546875,0.81207275390625,29.399999618530273,0.0,19.0,-0.0667877197265625,-0.0496978759765625,Closing,0.0,0.0,0.0,0.0,0.0,0.0,0.0,0.0,
3.707216999999946,0.0,0.0,-56.0,0.0,885.0,0.0,0.0,0.125,1.329345567,0.5498168668524888,0.0,-58.0,0.0,877.5,0.0,0.0,0.0,4.860839346000001,4.410439589772222,0.004882811999999959,-101.0,0.0,652.5,0.0,0.0,0.125,2.811279009,4.389674732977289,-0.004882811999999959,-86.0,0.0,750.0,0.0,0.0,0.125,2.128906032,0.5526872062785588,0.0,0.4300000071525574,-0.07999999821186066,2.880000114440918,-0.07635498046875,-0.14544677734375,1.11358642578125,29.399999618530273,0.0,-82.0,-0.0663909912109375,-0.0480194091796875,Closing,0.0,0.0,0.0,0.0,0.0,0.0,0.0,0.0,
3.7406480000000446,0.0,0.0,-56.0,0.0,847.5,0.0,0.0,0.125,1.328124864,0.5498168668524888,-0.0012207029999999897,-58.0,0.0,742.5,0.0,0.0,0.0,4.859618643,4.410439589772222,0.004882811999999959,-101.0,0.0,705.0,0.0,0.0,0.0,2.816161821,4.389674732977289,-0.004882811999999959,-86.0,0.0,705.0,0.0,0.0,0.125,2.130126735,0.5526872062785588,0.0,0.2800000011920929,0.07000000029802322,0.7400000095367432,-0.07427978515625,-0.05889892578125,0.85052490234375,29.399999618530273,0.0,-76.0,-0.06634521484375,-0.047027587890625,Closing,0.0,0.0,0.0,0.0,0.0,0.0,0.0,0.0,
3.7765969999999505,0.0,0.0,-56.0,0.0,757.5,0.0,0.0,0.125,1.329345567,0.5498168668524888,0.0,-58.0,0.0,667.5,0.0,0.0,0.0,4.866942861,4.410439589772222,0.0,-101.0,0.0,682.5,0.0,0.0,0.0,2.816161821,4.389674732977289,0.0,-86.0,0.0,622.5,0.0,0.0,0.125,2.130126735,0.5526872062785588,0.0,0.2800000011920929,-0.019999999552965164,-2.140000104904175,-0.0657958984375,-0.02978515625,1.15826416015625,29.399999618530273,0.0,-63.0,-0.0660247802734375,-0.0458831787109375,Closing,0.0,0.0,0.0,0.0,0.0,0.0,0.0,0.0,
3.8092979999999517,0.0,0.0,-56.0,0.0,697.5,0.0,0.0,0.125,1.329345567,0.5498168668524888,0.0012207029999999897,39.0,0.0,645.0,0.0,0.0,0.0,4.866942861,4.410439589772222,0.004882811999999959,-3.0,0.0,660.0,0.0,0.0,0.0,2.816161821,4.389674732977289,0.004882811999999959,0.0,0.0,600.0,0.0,0.0,0.125,2.130126735,0.5526872062785588,0.0,0.23999999463558197,0.0,-3.859999895095825,-0.10028076171875,-0.03924560546875,0.991943359375,29.399999618530273,0.0,-97.0,-0.0659942626953125,-0.045379638671875,Closing,0.0,0.0,0.0,0.0,0.0,0.0,0.0,0.0,
