Time,ClimberA1,ClimberA2,FRpos,FRCurrent,FRspeed,FRsetpoint,FRApos,FRACurrent,FREncpos,FREncSetpoint,FREncSpeed,FLpos,FLCurrent,FLspeed,FLsetpoint,FLApos,FLACurrent,FLEncpos,FLEncSetpoint,FLEncSpeed,BRpos,BRCurrent,BRspeed,BRsetpoint,BRApos,BRACurrent,BREncpos,BREncSetpoint,BREncSpeed,BLpos,BLCurrent,BLspeed,BLsetpoint,BLApos,BLACurrent,BLEncpos,BLEncSetpoint,BLEncSpeed,navx_Pitch,navx_Roll,navx_Yaw,navx_XAcc,navx_YAcc,navx_ZAcc,navx_Temp,navx_Bar,navx_Alt,navx_XDis,navx_YDis,GearPlacerState,ShootOutputV,ShootOutputCurrent,ShootEncPos,ShootEncVelocity,ShootSpeed,ShootSetpoint,CarouselSetpoint,CarouselCurrent,
0.5389270000000006,0.0,0.0,87062.0,0.0,0.0,0.0,0.0,0.25,0.808105386,0.01,0.0,-156527.0,0.0,0.0,0.0,0.0,0.125,0.49316401200000004,0.01,0.0,13262.0,0.0,0.0,0.0,0.0,0.125,3.387450825,0.01,0.0,-31396.0,0.125,0.0,0.0,0.0,0.5,1.671142407,0.01,0.0,0.4699999988079071,-0.7699999809265137,-106.91999816894531,-0.0123291015625,0.00640869140625,1.01824951171875,36.79999923706055,0.0,1.0,1.700775146484375,-1.8180389404296875,Waiting,0.0,0.0,3.0,0.0,0.0,0.0,0.0,0.0,
0.7444820000000009,0.0,0.0,87062.0,0.0,0.0,420.0,0.0,0.25,0.806884683,0.01,0.0,-156527.0,0.0,0.0,-420.0,0.0,0.125,0.49316401200000004,0.01,0.0,13262.0,0.0,0.0,420.0,0.0,0.125,3.387450825,0.01,0.0,-31396.0,0.375,0.0,-420.0,0.0,0.25,1.671142407,0.01,0.0,0.46000000834465027,-0.7799999713897705,-106.91999816894531,-0.0145263671875,0.0081787109375,1.02032470703125,36.81999969482422,0.0,0.0,1.700775146484375,-1.8180389404296875,Waiting,0.0,0.0,3.0,0.0,0.0,0.0,0.0,0.0,
0.7705899999999992,0.0,0.0,87062.0,0.125,0.0,420.0,0.0,0.25,0.8032225740000001,0.01,0.0,-156528.0,0.25,0.0,-420.0,0.0,0.125,0.4882812,0.01,0.0,13262.0,0.5,0.0,420.0,0.0,0.125,3.387450825,0.01,0.0,-31396.0,0.375,0.0,-420.0,0.0,0.25,1.665038892,0.01,-0.0012207029999999897,0.4699999988079071,-0.7699999809265137,-106.93000030517578,-0.003662109375,0.0072021484375,1.0238037109375,36.81999969482422,0.0,-1.0,1.700775146484375,-1.8180389404296875,Waiting,0.0,0.0,3.0,0.0,0.0,0.0,0.0,0.0,
0.8186770000000005,0.0,0.0,87062.0,0.375,15.0,NaN,0.0,0.125,0.8032225740000001,NaN,0.0,-156528.0,0.625,0.0,NaN,0.0,0.125,0.49316401200000004,NaN,0.0,13264.0,1.125,7.5,NaN,0.0,0.125,3.387450825,NaN,0.0,-31396.0,0.75,0.0,NaN,0.0,0.25,1.669921704,NaN,0.0,0.46000000834465027,-0.7300000190734863,-106.93000030517578,0.008544921875,0.01531982421875,1.0186767578125,36.81999969482422,0.0,-12.0,1.700775146484375,-1.8180389404296875,Waiting,0.0,0.0,3.0,0.0,0.0,0.0,0.0,0.0,
0.849911000000001,0.0,0.0,87065.0,0.375,15.0,NaN,0.0,0.125,0.8020018710000001,NaN,-0.006103515000000392,-156528.0,0.375,-7.5,NaN,0.0,0.0,0.49316401200000004,NaN,0.0,13264.0,0.375,7.5,NaN,0.0,0.0,3.386230122,NaN,0.0,-31396.0,0.375,0.0,NaN,0.0,0.125,1.671142407,NaN,0.0,0.46000000834465027,-0.75,-106.93000030517578,-0.0457763671875,0.00567626953125,1.02154541015625,36.81999969482422,0.0,11.0,1.700775146484375,-1.818115234375,Waiting,0.0,0.0,3.0,0.0,0.0,0.0,0.0,0.0,
0.9033920000000007,0.0,0.0,87065.0,0.125,7.5,NaN,0.0,0.125,0.8032225740000001,NaN,0.0012207030000004337,-156529.0,0.0,-7.5,NaN,0.0,0.0,0.49316401200000004,NaN,0.0,13264.0,0.125,7.5,NaN,0.0,0.0,3.387450825,NaN,0.0,-31396.0,0.25,0.0,NaN,0.0,0.125,1.679687328,NaN,0.0012207029999999897,0.46000000834465027,-0.7799999713897705,-106.9000015258789,-0.03173828125,0.02001953125,1.01983642578125,36.81999969482422,0.0,-6.0,1.700775146484375,-1.8184814453125,Waiting,0.0,0.0,3.0,0.0,0.0,0.0,0.0,0.0,
0.9727239999999993,0.0,0.0,87065.0,0.125,0.0,NaN,0.0,0.25,0.8032225740000001,NaN,0.0,-156529.0,0.0,0.0,NaN,0.0,0.0,0.49316401200000004,NaN,0.0,13264.0,0.125,0.0,NaN,0.0,0.0,3.387450825,NaN,0.0,-31396.0,0.25,0.0,NaN,0.0,0.125,1.700439279,NaN,0.019531248000000057,0.46000000834465027,-0.800000011920929,-106.93000030517578,-0.00543212890625,0.00421142578125,1.01116943359375,36.81999969482422,0.0,2.0,1.700775146484375,-1.818817138671875,Waiting,0.0,0.0,3.0,0.0,0.0,0.0,0.0,0.0,
1.0116619999999994,0.0,0.0,87065.0,0.125,0.0,NaN,0.0,0.25,0.8032225740000001,NaN,0.0,-156529.0,0.0,0.0,NaN,0.0,0.0,0.49438471500000003,NaN,0.0,13264.0,0.125,0.0,NaN,0.0,0.0,3.387450825,NaN,0.0,-31396.0,0.25,0.0,NaN,0.0,0.125,1.705322091,NaN,0.019531248000000057,0.46000000834465027,-0.7699999809265137,-106.93000030517578,-0.00689697265625,0.0101318359375,1.039794921875,36.81999969482422,0.0,-3.0,1.700775146484375,-1.818817138671875,Waiting,0.0,0.0,3.0,0.0,0.0,0.0,0.0,0.0,
1.0468280000000005,0.0,0.0,87065.0,0.125,0.0,NaN,0.0,0.125,0.8020018710000001,NaN,0.0,-156529.0,0.0,0.0,NaN,0.0,0.0,0.49316401200000004,NaN,0.0012207030000004337,13264.0,0.125,0.0,NaN,0.0,0.0,3.387450825,NaN,0.0,-31396.0,0.25,0.0,NaN,0.0,0.125,1.704101388,NaN,0.004882811999999959,0.46000000834465027,-0.7599999904632568,-106.91000366210938,-0.0106201171875,0.01190185546875,1.0074462890625,36.81999969482422,0.0,-4.0,1.700775146484375,-1.818817138671875,Waiting,0.0,0.0,3.0,0.0,0.0,0.0,0.0,0.0,
1.086781,0.0,0.0,87065.0,0.125,0.0,NaN,0.0,0.125,0.8032225740000001,NaN,0.0,-156529.0,0.0,0.0,NaN,0.0,0.0,0.49316401200000004,NaN,0.0,13264.0,0.125,0.0,NaN,0.0,0.0,3.387450825,NaN,0.0,-31396.0,0.25,0.0,NaN,0.0,0.125,1.705322091,NaN,0.004882811999999959,0.4699999988079071,-0.7699999809265137,-106.91999816894531,-0.02642822265625,0.00341796875,1.01971435546875,36.81999969482422,0.0,8.0,1.700775146484375,-1.818817138671875,Waiting,0.0,0.0,3.0,0.0,0.0,0.0,0.0,0.0,
1.1164559999999992,0.0,0.0,87065.0,0.125,0.0,NaN,0.0,0.25,0.8032225740000001,NaN,0.0,-156529.0,0.0,0.0,NaN,0.0,0.0,0.49316401200000004,NaN,0.0,13264.0,0.125,0.0,NaN,0.0,0.0,3.387450825,NaN,0.0,-31396.0,0.25,0.0,NaN,0.0,0.125,1.705322091,NaN,0.0,0.46000000834465027,-0.7900000214576721,-106.93000030517578,-0.01690673828125,0.0054931640625,1.0220947265625,36.81999969482422,0.0,3.0,1.700775146484375,-1.818817138671875,Waiting,0.0,0.0,3.0,0.0,0.0,0.0,0.0,0.0,
1.1714829999999992,0.0,0.0,87065.0,0.125,0.0,NaN,0.0,0.25,0.8020018710000001,NaN,0.0,-156529.0,0.0,0.0,NaN,0.0,0.0,0.49316401200000004,NaN,0.0,13264.0,0.125,0.0,NaN,0.0,0.0,3.386230122,NaN,0.0012207029999999897,-31396.0,0.25,0.0,NaN,0.0,0.125,1.705322091,NaN,0.0,0.46000000834465027,-0.7699999809265137,-106.91999816894531,-0.00299072265625,0.0147705078125,1.0164794921875,36.81999969482422,0.0,-9.0,1.700775146484375,-1.818817138671875,Waiting,0.0,0.0,3.0,0.0,0.0,0.0,0.0,0.0,
1.2163280000000005,0.0,0.0,87065.0,0.125,0.0,NaN,0.0,0.25,0.8032225740000001,NaN,0.0,-156529.0,0.0,0.0,NaN,0.0,0.0,0.49316401200000004,NaN,0.0,13264.0,0.125,0.0,NaN,0.0,0.0,3.387450825,NaN,0.0012207029999999897,-31396.0,0.25,0.0,NaN,0.0,0.125,1.705322091,NaN,0.0,0.46000000834465027,-0.7599999904632568,-106.93000030517578,-0.0091552734375,0.00616455078125,1.0255126953125,36.83000183105469,0.0,0.0,1.700775146484375,-1.818817138671875,Waiting,0.0,0.0,3.0,0.0,0.0,0.0,0.0,0.0,
1.2517210000000005,0.0,0.0,87065.0,0.125,0.0,NaN,0.0,0.25,0.8032225740000001,NaN,0.0,-156529.0,0.0,0.0,NaN,0.0,0.0,0.49316401200000004,NaN,-0.0012207030000004337,13264.0,0.125,0.0,NaN,0.0,0.0,3.387450825,NaN,0.0,-31396.0,0.25,0.0,NaN,0.0,0.125,1.705322091,NaN,0.0012207029999999897,0.46000000834465027,-0.7699999809265137,-106.91999816894531,-0.01605224609375,0.00408935546875,1.02301025390625,36.83000183105469,0.0,4.0,1.700775146484375,-1.818817138671875,Waiting,0.0,0.0,3.0,0.0,0.0,0.0,0.0,0.0,
1.3147619999999998,0.0,0.0,87065.0,0.125,0.0,NaN,0.0,0.25,0.8032225740000001,NaN,0.0,-156529.0,0.0,0.0,NaN,0.0,0.0,0.49316401200000004,NaN,0.0012207030000004337,13264.0,0.125,0.0,NaN,0.0,0.0,3.387450825,NaN,0.0,-31396.0,0.25,0.0,NaN,0.0,0.125,1.705322091,NaN,-0.0012207029999999897,0.46000000834465027,-0.7799999713897705,-106.91999816894531,-0.0135498046875,0.012451171875,1.0220947265625,36.83000183105469,0.0,-4.0,1.700775146484375,-1.818817138671875,Waiting,0.0,0.0,3.0,0.0,0.0,0.0,0.0,0.125,
1.3671060000000006,0.0,0.0,87065.0,0.125,0.0,NaN,0.0,0.25,0.8032225740000001,NaN,0.0,-156529.0,0.0,0.0,NaN,0.0,0.0,0.49316401200000004,NaN,0.0012207030000004337,13264.0,0.125,0.0,NaN,0.0,0.0,3.385009419,NaN,0.0,-31396.0,0.25,0.0,NaN,0.0,0.125,1.705322091,NaN,-0.0012207029999999897,0.4699999988079071,-0.7699999809265137,-106.93000030517578,-0.01214599609375,0.00433349609375,1.0225830078125,36.83000183105469,0.0,3.0,1.700775146484375,-1.818817138671875,Waiting,0.0,0.0,3.0,0.0,0.0,0.0,0.0,0.0,
1.4198489999999993,0.0,0.0,87065.0,0.125,0.0,NaN,0.0,0.25,0.8032225740000001,NaN,0.0,-156529.0,0.0,0.0,NaN,0.0,0.0,0.49316401200000004,NaN,-0.0012207030000004337,13264.0,0.125,0.0,NaN,0.0,0.0,3.387450825,NaN,0.0,-31396.0,0.25,0.0,NaN,0.0,0.125,1.705322091,NaN,0.0,0.44999998807907104,-0.7599999904632568,-106.91999816894531,-0.0115966796875,0.0059814453125,1.02227783203125,36.83000183105469,0.0,1.0,1.700775146484375,-1.818817138671875,Waiting,0.0,0.0,3.0,0.0,0.0,0.0,0.0,0.0,
1.4679149999999999,0.0,0.0,87065.0,0.125,0.0,NaN,0.0,0.25,0.8020018710000001,NaN,0.0,-156529.0,0.0,0.0,NaN,0.0,0.0,0.49316401200000004,NaN,0.0012207030000004337,13264.0,0.125,0.0,NaN,0.0,0.0,3.387450825,NaN,0.0,-31396.0,0.25,0.0,NaN,0.0,0.125,1.705322091,NaN,0.0,0.46000000834465027,-0.7699999809265137,-106.93000030517578,-0.0167236328125,0.00897216796875,1.01776123046875,36.83000183105469,0.0,0.0,1.700775146484375,-1.818817138671875,Waiting,0.0,0.0,3.0,0.0,0.0,0.0,0.0,0.0,
1.5267560000000002,0.0,0.0,87065.0,0.125,0.0,NaN,0.0,0.25,0.8044432770000001,NaN,0.0,-156529.0,0.0,0.0,NaN,0.0,0.0,0.49316401200000004,NaN,-0.0012207030000004337,13264.0,0.125,0.0,NaN,0.0,0.0,3.387450825,NaN,0.0012207029999999897,-31396.0,0.25,0.0,NaN,0.0,0.125,1.705322091,NaN,0.0,0.46000000834465027,-0.7699999809265137,-106.93000030517578,-0.0089111328125,0.00396728515625,1.02337646484375,36.83000183105469,0.0,2.0,1.700775146484375,-1.818817138671875,Waiting,0.0,0.0,3.0,0.0,0.0,0.0,0.0,0.0,
1.5686950000000006,0.0,0.0,87065.0,0.125,0.0,NaN,0.0,0.25,0.8007811680000001,NaN,0.0,-156529.0,0.0,0.0,NaN,0.0,0.0,0.49316401200000004,NaN,0.0012207030000004337,13264.0,0.125,0.0,NaN,0.0,0.0,3.387450825,NaN,0.0012207029999999897,-31396.0,0.25,0.0,NaN,0.0,0.125,1.705322091,NaN,0.0,0.46000000834465027,-0.7599999904632568,-106.93000030517578,-0.01025390625,0.01361083984375,1.02862548828125,36.83000183105469,0.0,-5.0,1.700775146484375,-1.818817138671875,Waiting,0.0,0.0,3.0,0.0,0.0,0.0,0.0,0.0,
1.6291660000000001,0.0,0.0,87065.0,0.125,0.0,NaN,0.0,0.25,0.8032225740000001,NaN,0.0,-156529.0,0.0,0.0,NaN,0.0,0.0,0.49316401200000004,NaN,-0.0012207030000004337,13264.0,0.125,0.0,NaN,0.0,0.0,3.387450825,NaN,0.0012207029999999897,-31396.0,0.25,0.0,NaN,0.0,0.125,1.705322091,NaN,0.0,0.46000000834465027,-0.7699999809265137,-106.93000030517578,-0.01556396484375,0.00555419921875,1.0169677734375,36.83000183105469,0.0,3.0,1.700775146484375,-1.818817138671875,Waiting,0.0,0.0,3.0,0.0,0.0,0.0,0.0,0.0,
1.6806750000000001,0.0,0.0,87065.0,0.125,0.0,NaN,0.0,0.25,0.8032225740000001,NaN,0.0,-156529.0,0.0,0.0,NaN,0.0,0.0,0.49316401200000004,NaN,0.0,13264.0,0.125,0.0,NaN,0.0,0.0,3.387450825,NaN,-0.0012207029999999897,-31396.0,0.25,0.0,NaN,0.0,0.125,1.705322091,NaN,0.0,0.44999998807907104,-0.7599999904632568,-106.93000030517578,-0.0111083984375,0.0084228515625,1.02203369140625,36.83000183105469,0.0,0.0,1.700775146484375,-1.818817138671875,Waiting,0.0,0.0,3.0,0.0,0.0,0.0,0.0,0.0,
1.7094990000000008,0.0,0.0,87065.0,0.125,0.0,NaN,0.0,0.125,0.8032225740000001,NaN,0.0,-156529.0,0.0,0.0,NaN,0.0,0.0,0.49316401200000004,NaN,0.0,13264.0,0.125,0.0,NaN,0.0,0.0,3.387450825,NaN,-0.0012207029999999897,-31396.0,0.25,0.0,NaN,0.0,0.125,1.705322091,NaN,0.0,0.46000000834465027,-0.7599999904632568,-106.93000030517578,-0.0098876953125,0.01123046875,1.0186767578125,36.81999969482422,0.0,-3.0,1.700775146484375,-1.818817138671875,Waiting,0.0,0.0,3.0,0.0,0.0,0.0,0.0,0.0,
1.7614929999999995,0.0,0.0,87065.0,0.125,0.0,NaN,0.0,0.25,0.8044432770000001,NaN,0.0,-156529.0,0.0,0.0,NaN,0.0,0.0,0.49316401200000004,NaN,0.0012207030000004337,13264.0,0.125,0.0,NaN,0.0,0.0,3.387450825,NaN,0.0,-31396.0,0.25,0.0,NaN,0.0,0.125,1.705322091,NaN,0.0,0.46000000834465027,-0.7599999904632568,-106.93000030517578,-0.0162353515625,0.00518798828125,1.013427734375,36.81999969482422,0.0,3.0,1.700775146484375,-1.818817138671875,Waiting,0.0,0.0,3.0,0.0,0.0,0.0,0.0,0.0,
1.81471,0.0,0.0,87065.0,0.125,0.0,NaN,0.0,0.25,0.8020018710000001,NaN,0.0,-156529.0,0.0,0.0,NaN,0.0,0.0,0.49316401200000004,NaN,-0.0012207030000004337,13264.0,0.125,0.0,NaN,0.0,0.0,3.387450825,NaN,0.0,-31396.0,0.25,0.0,NaN,0.0,0.125,1.705322091,NaN,0.0,0.46000000834465027,-0.7699999809265137,-106.93000030517578,-0.01373291015625,0.0086669921875,1.02227783203125,36.81999969482422,0.0,0.0,1.700775146484375,-1.818817138671875,Waiting,0.0,0.0,3.0,0.0,0.0,0.0,0.0,0.0,
1.8329440000000004,0.0,0.0,87065.0,0.125,0.0,NaN,0.0,0.25,0.8020018710000001,NaN,0.0,-156529.0,0.0,0.0,NaN,0.0,0.0,0.49316401200000004,NaN,0.0012207030000004337,13264.0,0.125,0.0,NaN,0.0,0.0,3.386230122,NaN,0.0,-31396.0,0.25,0.0,NaN,0.0,0.125,1.705322091,NaN,0.0,0.4699999988079071,-0.7599999904632568,-106.93000030517578,-0.01312255859375,0.0108642578125,1.01922607421875,36.81999969482422,0.0,-2.0,1.700775146484375,-1.818817138671875,Waiting,0.0,0.0,3.0,0.0,0.0,0.0,0.0,0.0,
1.879066,0.0,0.0,87065.0,0.125,0.0,NaN,0.0,0.25,0.8032225740000001,NaN,0.0,-156529.0,0.0,0.0,NaN,0.0,0.0,0.49316401200000004,NaN,0.0012207030000004337,13264.0,0.125,0.0,NaN,0.0,0.0,3.387450825,NaN,0.0012207029999999897,-31396.0,0.25,0.0,NaN,0.0,0.125,1.704101388,NaN,0.0,0.46000000834465027,-0.7599999904632568,-106.93000030517578,-0.01055908203125,0.00616455078125,1.01348876953125,36.81999969482422,0.0,1.0,1.700775146484375,-1.818817138671875,Waiting,0.0,0.0,3.0,0.0,0.0,0.0,0.0,0.0,
1.925148,0.0,0.0,87065.0,0.125,0.0,NaN,0.0,0.25,0.8032225740000001,NaN,0.0,-156529.0,0.0,0.0,NaN,0.0,0.0,0.49316401200000004,NaN,-0.0012207030000004337,13264.0,0.125,0.0,NaN,0.0,0.0,3.387450825,NaN,0.0012207029999999897,-31396.0,0.25,0.0,NaN,0.0,0.125,1.705322091,NaN,0.0,0.46000000834465027,-0.7599999904632568,-106.93000030517578,-0.01947021484375,0.01007080078125,1.0185546875,36.81999969482422,0.0,0.0,1.700775146484375,-1.818817138671875,Waiting,0.0,0.0,3.0,0.0,0.0,0.0,0.0,0.125,
1.9695389999999997,0.0,0.0,87065.0,0.125,0.0,NaN,0.0,0.25,0.8032225740000001,NaN,0.0,-156529.0,0.0,0.0,NaN,0.0,0.0,0.49194330900000005,NaN,0.0,13264.0,0.125,0.0,NaN,0.0,0.0,3.387450825,NaN,-0.0012207029999999897,-31396.0,0.25,0.0,NaN,0.0,0.125,1.705322091,NaN,0.0,0.4699999988079071,-0.7599999904632568,-106.93000030517578,-0.01531982421875,0.01190185546875,1.01922607421875,36.81999969482422,0.0,-2.0,1.700775146484375,-1.818817138671875,Waiting,0.0,0.0,3.0,0.0,0.0,0.0,0.0,0.125,
2.0169039999999994,0.0,0.0,87065.0,0.125,0.0,NaN,0.0,0.125,0.8032225740000001,NaN,0.0,-156529.0,0.0,0.0,NaN,0.0,0.0,0.49316401200000004,NaN,0.0,13264.0,0.125,0.0,NaN,0.0,0.0,3.387450825,NaN,0.0012207029999999897,-31396.0,0.25,0.0,NaN,0.0,0.125,1.704101388,NaN,0.0,0.4699999988079071,-0.7599999904632568,-106.93000030517578,-0.0125732421875,0.00390625,1.01806640625,36.81999969482422,0.0,4.0,1.700775146484375,-1.818817138671875,Waiting,0.0,0.0,3.0,0.0,0.0,0.0,0.0,0.0,
2.0342560000000005,0.0,0.0,87065.0,0.125,0.0,NaN,0.0,0.125,0.8007811680000001,NaN,0.0,-156529.0,0.0,0.0,NaN,0.0,0.0,0.49438471500000003,NaN,0.0,13264.0,0.125,0.0,NaN,0.0,0.0,3.387450825,NaN,0.0,-31396.0,0.25,0.0,NaN,0.0,0.125,1.705322091,NaN,0.0012207029999999897,0.4699999988079071,-0.7599999904632568,-106.93000030517578,-0.0123291015625,0.01025390625,1.0196533203125,36.81999969482422,0.0,-2.0,1.700775146484375,-1.818817138671875,Waiting,0.0,0.0,3.0,0.0,0.0,0.0,0.0,0.0,
2.085339999999999,0.0,0.0,87065.0,0.125,0.0,NaN,0.0,0.25,0.8032225740000001,NaN,0.0,-156529.0,0.0,0.0,NaN,0.0,0.0,0.49316401200000004,NaN,0.0012207030000004337,13264.0,0.125,0.0,NaN,0.0,0.0,3.387450825,NaN,0.0,-31396.0,0.25,0.0,NaN,0.0,0.125,1.705322091,NaN,-0.0012207029999999897,0.4699999988079071,-0.7599999904632568,-106.93000030517578,-0.0130615234375,0.009521484375,1.02001953125,36.81999969482422,0.0,-1.0,1.700775146484375,-1.818817138671875,Waiting,0.0,0.0,3.0,0.0,0.0,0.0,0.0,0.0,
2.1066680000000004,0.0,0.0,87065.0,0.125,0.0,NaN,0.0,0.25,0.8020018710000001,NaN,0.0,-156529.0,0.0,0.0,NaN,0.0,0.0,0.49316401200000004,NaN,0.0012207030000004337,13264.0,0.125,0.0,NaN,0.0,0.0,3.387450825,NaN,0.0,-31396.0,0.25,0.0,NaN,0.0,0.125,1.705322091,NaN,-0.0012207029999999897,0.4699999988079071,-0.7599999904632568,-106.93000030517578,-0.01641845703125,0.00653076171875,1.02191162109375,36.81999969482422,0.0,2.0,1.700775146484375,-1.818817138671875,Waiting,0.0,0.0,3.0,0.0,0.0,0.0,0.0,0.0,
2.1320199999999994,0.0,0.0,87065.0,0.125,0.0,NaN,0.0,0.125,0.8032225740000001,NaN,0.0,-156529.0,0.0,0.0,NaN,0.0,0.0,0.49316401200000004,NaN,-0.0012207030000004337,13264.0,0.125,0.0,NaN,0.0,0.0,3.387450825,NaN,-0.0012207029999999897,-31396.0,0.25,0.0,NaN,0.0,0.125,1.705322091,NaN,0.0012207029999999897,0.4699999988079071,-0.7599999904632568,-106.93000030517578,-0.01336669921875,0.00592041015625,1.02099609375,36.81999969482422,0.0,2.0,1.700775146484375,-1.818817138671875,Waiting,0.0,0.0,3.0,0.0,0.0,0.0,0.0,0.125,
2.1698370000000002,0.0,0.0,87065.0,0.125,0.0,NaN,0.0,0.125,0.8020018710000001,NaN,0.0,-156529.0,0.0,0.0,NaN,0.0,0.0,0.49316401200000004,NaN,-0.0012207030000004337,13264.0,0.125,0.0,NaN,0.0,0.0,3.387450825,NaN,-0.0012207029999999897,-31396.0,0.25,0.0,NaN,0.0,0.125,1.705322091,NaN,0.0012207029999999897,0.4699999988079071,-0.7599999904632568,-106.93000030517578,-0.01165771484375,0.00750732421875,1.0272216796875,36.81999969482422,0.0,0.0,1.700775146484375,-1.818817138671875,Waiting,0.0,0.0,3.0,0.0,0.0,0.0,0.0,0.125,
2.2146099999999995,0.0,0.0,87065.0,0.125,0.0,NaN,0.0,0.25,0.8020018710000001,NaN,0.0,-156529.0,0.0,0.0,NaN,0.0,0.0,0.49316401200000004,NaN,0.0012207030000004337,13264.0,0.125,0.0,NaN,0.0,0.0,3.386230122,NaN,0.0,-31396.0,0.25,0.0,NaN,0.0,0.25,1.705322091,NaN,-0.0012207029999999897,0.47999998927116394,-0.7599999904632568,-106.93000030517578,-0.014404296875,0.00860595703125,1.0201416015625,36.81999969482422,0.0,0.0,1.700775146484375,-1.818817138671875,Waiting,0.0,0.0,3.0,0.0,0.0,0.0,0.0,0.0,
2.2458949999999995,0.0,0.0,87065.0,0.125,0.0,NaN,0.0,0.25,0.8020018710000001,NaN,0.0,-156529.0,0.0,0.0,NaN,0.0,0.0,0.49316401200000004,NaN,0.0,13264.0,0.125,0.0,NaN,0.0,0.0,3.387450825,NaN,0.0,-31396.0,0.25,0.0,NaN,0.0,0.125,1.705322091,NaN,0.0,0.47999998927116394,-0.7599999904632568,-106.93000030517578,-0.01324462890625,0.006591796875,1.026123046875,36.81999969482422,0.0,1.0,1.700775146484375,-1.818817138671875,Waiting,0.0,0.0,3.0,0.0,0.0,0.0,0.0,0.0,
2.2712689999999993,0.0,0.0,87065.0,0.125,0.0,NaN,0.0,0.25,0.8032225740000001,NaN,0.0,-156529.0,0.0,0.0,NaN,0.0,0.0,0.49316401200000004,NaN,0.0,13264.0,0.125,0.0,NaN,0.0,0.0,3.387450825,NaN,0.0012207029999999897,-31396.0,0.25,0.0,NaN,0.0,0.125,1.705322091,NaN,0.0,0.4699999988079071,-0.7599999904632568,-106.93000030517578,-0.01629638671875,0.00714111328125,1.0252685546875,36.81999969482422,0.0,2.0,1.700775146484375,-1.818817138671875,Waiting,0.0,0.0,3.0,0.0,0.0,0.0,0.0,0.0,
2.306330000000001,0.0,0.0,87065.0,0.125,0.0,NaN,0.0,0.25,0.8032225740000001,NaN,0.0,-156529.0,0.0,0.0,NaN,0.0,0.0,0.495605418,NaN,-0.0012207030000004337,13264.0,0.125,0.0,NaN,0.0,0.0,3.387450825,NaN,0.0012207029999999897,-31396.0,0.125,0.0,NaN,0.0,0.125,1.705322091,NaN,0.0,0.4699999988079071,-0.7599999904632568,-106.93000030517578,-0.0137939453125,0.00885009765625,1.02020263671875,36.81999969482422,0.0,0.0,1.700775146484375,-1.818817138671875,Waiting,0.0,0.0,3.0,0.0,0.0,0.0,0.0,0.0,
2.326286000000001,0.0,0.0,87065.0,0.125,0.0,NaN,0.0,0.25,0.8032225740000001,NaN,0.0,-156529.0,0.0,0.0,NaN,0.0,0.0,0.49316401200000004,NaN,-0.0012207030000004337,13264.0,0.125,0.0,NaN,0.0,0.0,3.386230122,NaN,-0.0012207029999999897,-31396.0,0.125,0.0,NaN,0.0,0.125,1.704101388,NaN,0.0,0.4699999988079071,-0.7599999904632568,-106.93000030517578,-0.01153564453125,0.01165771484375,1.0208740234375,36.81999969482422,0.0,-3.0,1.700775146484375,-1.818817138671875,Waiting,0.0,0.0,3.0,0.0,0.0,0.0,0.0,0.0,
2.359289,0.0,0.0,87065.0,0.125,0.0,NaN,0.0,0.125,0.8020018710000001,NaN,0.0,-156529.0,0.0,0.0,NaN,0.0,0.0,0.49316401200000004,NaN,0.0,13264.0,0.125,0.0,NaN,0.0,0.0,3.387450825,NaN,-0.0012207029999999897,-31396.0,0.125,0.0,NaN,0.0,0.125,1.705322091,NaN,0.0,0.4699999988079071,-0.7599999904632568,-106.93000030517578,-0.01373291015625,0.0084228515625,1.0152587890625,36.81999969482422,0.0,0.0,1.700775146484375,-1.818817138671875,Waiting,0.0,0.0,3.0,0.0,0.0,0.0,0.0,0.0,
2.388835,0.0,0.0,87065.0,0.125,0.0,NaN,0.0,0.125,0.8032225740000001,NaN,0.0,-156529.0,0.0,0.0,NaN,0.0,0.0,0.49316401200000004,NaN,0.0,13264.0,0.125,0.0,NaN,0.0,0.0,3.387450825,NaN,0.0,-31396.0,0.25,0.0,NaN,0.0,0.125,1.705322091,NaN,0.0012207029999999897,0.4699999988079071,-0.7599999904632568,-106.93000030517578,-0.0135498046875,0.008544921875,1.0191650390625,36.81999969482422,0.0,0.0,1.700775146484375,-1.818817138671875,Waiting,0.0,0.0,3.0,0.0,0.0,0.0,0.0,0.0,
2.432972000000001,0.0,0.0,87065.0,0.125,0.0,NaN,0.0,0.25,0.8032225740000001,NaN,0.0,-156529.0,0.0,0.0,NaN,0.0,0.0,0.49316401200000004,NaN,0.0012207030000004337,13264.0,0.125,0.0,NaN,0.0,0.0,3.387450825,NaN,0.0,-31396.0,0.25,0.0,NaN,0.0,0.125,1.7065427940000002,NaN,-0.0012207029999999897,0.4699999988079071,-0.7599999904632568,-106.93000030517578,-0.01470947265625,0.0079345703125,1.01385498046875,36.81999969482422,0.0,0.0,1.700775146484375,-1.818817138671875,Waiting,0.0,0.0,3.0,0.0,0.0,0.0,0.0,0.0,
2.4630960000000006,0.0,0.0,87065.0,0.125,0.0,NaN,0.0,0.25,0.8032225740000001,NaN,0.0,-156529.0,0.0,0.0,NaN,0.0,0.0,0.49316401200000004,NaN,0.0012207030000004337,13264.0,0.125,0.0,NaN,0.0,0.0,3.387450825,NaN,0.0,-31396.0,0.25,0.0,NaN,0.0,0.125,1.705322091,NaN,-0.0012207029999999897,0.4699999988079071,-0.7599999904632568,-106.93000030517578,-0.01104736328125,0.0096435546875,1.02154541015625,36.81999969482422,0.0,-1.0,1.700775146484375,-1.818817138671875,Waiting,0.0,0.0,3.0,0.0,0.0,0.0,0.0,0.0,
2.4916310000000004,0.0,0.0,87065.0,0.125,0.0,NaN,0.0,0.25,0.8032225740000001,NaN,0.0,-156529.0,0.0,0.0,NaN,0.0,0.0,0.49316401200000004,NaN,0.0,13264.0,0.125,0.0,NaN,0.0,0.0,3.386230122,NaN,0.0,-31396.0,0.25,0.0,NaN,0.0,0.125,1.705322091,NaN,0.0,0.4699999988079071,-0.7599999904632568,-106.93000030517578,-0.01202392578125,0.0059814453125,1.0152587890625,36.81999969482422,0.0,1.0,1.700775146484375,-1.818817138671875,Waiting,0.0,0.0,3.0,0.0,0.0,0.0,0.0,0.0,
2.523938000000001,0.0,0.0,87065.0,0.125,0.0,NaN,0.0,0.25,0.8032225740000001,NaN,0.0,-156529.0,0.0,0.0,NaN,0.0,0.0,0.49316401200000004,NaN,0.0,13264.0,0.125,0.0,NaN,0.0,0.0,3.387450825,NaN,0.0,-31396.0,0.25,0.0,NaN,0.0,0.125,1.704101388,NaN,0.0,0.4699999988079071,-0.7599999904632568,-106.93000030517578,-0.01568603515625,0.00823974609375,1.0189208984375,36.81999969482422,0.0,0.0,1.700775146484375,-1.818817138671875,Waiting,0.0,0.0,3.0,0.0,0.0,0.0,0.0,0.0,
2.564977,0.0,0.0,87065.0,0.125,0.0,NaN,0.0,0.25,0.8020018710000001,NaN,0.0,-156529.0,0.0,0.0,NaN,0.0,0.0,0.49316401200000004,NaN,-0.0012207030000004337,13264.0,0.125,0.0,NaN,0.0,0.0,3.387450825,NaN,0.0,-31396.0,0.25,0.0,NaN,0.0,0.125,1.705322091,NaN,0.0,0.4699999988079071,-0.75,-106.93000030517578,-0.0145263671875,0.0091552734375,1.01788330078125,36.81999969482422,0.0,0.0,1.700775146484375,-1.818817138671875,Waiting,0.0,0.0,3.0,0.0,0.0,0.0,0.0,0.0,
2.5857079999999995,0.0,0.0,87065.0,0.125,0.0,NaN,0.0,0.25,0.8032225740000001,NaN,0.0,-156529.0,0.0,0.0,NaN,0.0,0.0,0.49316401200000004,NaN,0.0012207030000004337,13264.0,0.125,0.0,NaN,0.0,0.0,3.387450825,NaN,0.0,-31396.0,0.25,0.0,NaN,0.0,0.125,1.704101388,NaN,0.0,0.4699999988079071,-0.7599999904632568,-106.93000030517578,-0.01239013671875,0.00848388671875,1.02032470703125,36.81999969482422,0.0,0.0,1.700775146484375,-1.818817138671875,Waiting,0.0,0.0,3.0,0.0,0.0,0.0,0.0,0.0,
2.629723999999999,0.0,0.0,87065.0,0.125,0.0,NaN,0.0,0.25,0.8020018710000001,NaN,0.0,-156529.0,0.0,0.0,NaN,0.0,0.0,0.49316401200000004,NaN,0.0012207030000004337,13264.0,0.125,0.0,NaN,0.0,0.0,3.387450825,NaN,0.0,-31396.0,0.25,0.0,NaN,0.0,0.25,1.705322091,NaN,0.0,0.4699999988079071,-0.75,-106.93000030517578,-0.00946044921875,0.00823974609375,1.02105712890625,36.81999969482422,0.0,-1.0,1.700775146484375,-1.818817138671875,Waiting,0.0,0.0,3.0,0.0,0.0,0.0,0.0,0.0,
2.656576,0.0,0.0,87065.0,0.125,0.0,NaN,0.0,0.25,0.8020018710000001,NaN,0.0,-156529.0,0.0,0.0,NaN,0.0,0.0,0.49316401200000004,NaN,0.0,13264.0,0.125,0.0,NaN,0.0,0.0,3.387450825,NaN,0.0,-31396.0,0.25,0.0,NaN,0.0,0.125,1.705322091,NaN,0.0,0.4699999988079071,-0.75,-106.93000030517578,-0.01251220703125,0.009521484375,1.0166015625,36.81999969482422,0.0,-1.0,1.700775146484375,-1.818817138671875,Waiting,0.0,0.0,3.0,0.0,0.0,0.0,0.0,0.0,
2.7051590000000005,0.0,0.0,87065.0,0.125,0.0,NaN,0.0,0.25,0.8032225740000001,NaN,0.0,-156529.0,0.0,0.0,NaN,0.0,0.0,0.49316401200000004,NaN,0.0,13264.0,0.125,0.0,NaN,0.0,0.0,3.386230122,NaN,0.0,-31396.0,0.25,0.0,NaN,0.0,0.125,1.705322091,NaN,0.0,0.4699999988079071,-0.75,-106.93000030517578,-0.012939453125,0.01092529296875,1.01849365234375,36.81999969482422,0.0,-2.0,1.700775146484375,-1.818817138671875,Waiting,0.0,0.0,3.0,0.0,0.0,0.0,0.0,0.0,
2.728601,0.0,0.0,87065.0,0.125,0.0,NaN,0.0,0.25,0.8032225740000001,NaN,0.0,-156529.0,0.0,0.0,NaN,0.0,0.0,0.49316401200000004,NaN,0.0,13264.0,0.125,0.0,NaN,0.0,0.0,3.387450825,NaN,0.0,-31396.0,0.25,0.0,NaN,0.0,0.125,1.704101388,NaN,0.0,0.4699999988079071,-0.75,-106.93000030517578,-0.012451171875,0.00946044921875,1.021240234375,36.810001373291016,0.0,-1.0,1.700775146484375,-1.818817138671875,Waiting,0.0,0.0,3.0,0.0,0.0,0.0,0.0,0.0,
2.768080999999999,0.0,0.0,87065.0,0.125,0.0,NaN,0.0,0.125,0.8007811680000001,NaN,0.0,-156529.0,0.0,0.0,NaN,0.0,0.0,0.49316401200000004,NaN,0.0,13264.0,0.125,0.0,NaN,0.0,0.0,3.386230122,NaN,0.0,-31396.0,0.25,0.0,NaN,0.0,0.125,1.704101388,NaN,0.0,0.4699999988079071,-0.75,-106.93000030517578,-0.0150146484375,0.0093994140625,1.011474609375,36.810001373291016,0.0,0.0,1.700775146484375,-1.818817138671875,Waiting,0.0,0.0,3.0,0.0,0.0,0.0,0.0,0.0,
2.8408219999999993,0.0,0.0,87065.0,0.125,0.0,NaN,0.0,0.25,0.8032225740000001,NaN,0.0,-156529.0,0.0,0.0,NaN,0.0,0.0,0.49316401200000004,NaN,0.0,13264.0,0.125,0.0,NaN,0.0,0.0,3.387450825,NaN,0.0,-31396.0,0.25,0.0,NaN,0.0,0.125,1.705322091,NaN,0.0,0.4699999988079071,-0.75,-106.93000030517578,-0.013671875,0.0059814453125,1.02069091796875,36.810001373291016,0.0,2.0,1.700775146484375,-1.818817138671875,Waiting,0.0,0.0,3.0,0.0,0.0,0.0,0.0,0.0,
2.8806819999999997,0.0,0.0,87065.0,0.125,0.0,NaN,0.0,0.25,0.8032225740000001,NaN,0.0,-156529.0,0.0,0.0,NaN,0.0,0.0,0.49316401200000004,NaN,0.0,13264.0,0.125,0.0,NaN,0.0,0.0,3.387450825,NaN,0.0,-31396.0,0.25,0.0,NaN,0.0,0.125,1.705322091,NaN,0.0,0.4699999988079071,-0.75,-106.93000030517578,-0.0150146484375,0.0072021484375,1.02178955078125,36.810001373291016,0.0,1.0,1.700775146484375,-1.818817138671875,Waiting,0.0,0.0,3.0,0.0,0.0,0.0,0.0,0.0,
2.9071610000000008,0.0,0.0,87065.0,0.125,0.0,NaN,0.0,0.25,0.8020018710000001,NaN,0.0,-156529.0,0.0,0.0,NaN,0.0,0.0,0.49316401200000004,NaN,0.0,13264.0,0.125,0.0,NaN,0.0,0.0,3.387450825,NaN,0.0012207029999999897,-31396.0,0.25,0.0,NaN,0.0,0.125,1.705322091,NaN,0.0,0.4699999988079071,-0.75,-106.93000030517578,-0.01531982421875,0.0087890625,1.01708984375,36.810001373291016,0.0,0.0,1.700775146484375,-1.818817138671875,Waiting,0.0,0.0,3.0,0.0,0.0,0.0,0.0,0.0,
2.962844,0.0,0.0,87065.0,0.125,0.0,NaN,0.0,0.25,0.808105386,NaN,0.0,-156529.0,0.0,0.0,NaN,0.0,0.0,0.49316401200000004,NaN,0.0,13264.0,0.125,0.0,NaN,0.0,0.0,3.387450825,NaN,-0.0012207029999999897,-31396.0,0.25,0.0,NaN,0.0,0.125,1.705322091,NaN,0.0,0.4699999988079071,-0.75,-106.93000030517578,-0.01336669921875,0.0068359375,1.02276611328125,36.810001373291016,0.0,1.0,1.700775146484375,-1.818817138671875,Waiting,0.0,0.0,3.0,0.0,0.0,0.0,0.0,0.0,
2.999920000000001,0.0,0.0,87065.0,0.125,0.0,NaN,0.0,0.125,0.8020018710000001,NaN,0.0,-156529.0,0.0,0.0,NaN,0.0,0.0,0.49316401200000004,NaN,-0.0012207030000004337,13264.0,0.125,0.0,NaN,0.0,0.0,3.387450825,NaN,0.0,-31396.0,0.25,0.0,NaN,0.0,0.125,1.705322091,NaN,0.0,0.4699999988079071,-0.75,-106.93000030517578,-0.0167236328125,0.00677490234375,1.01763916015625,36.810001373291016,0.0,2.0,1.700775146484375,-1.818817138671875,Waiting,0.0,0.0,3.0,0.0,0.0,0.0,0.0,0.0,
3.0296240000000005,0.0,0.0,87065.0,0.125,0.0,NaN,0.0,0.125,0.8032225740000001,NaN,0.0,-156529.0,0.0,0.0,NaN,0.0,0.0,0.49316401200000004,NaN,-0.0012207030000004337,13264.0,0.125,0.0,NaN,0.0,0.0,3.387450825,NaN,0.0,-31396.0,0.25,0.0,NaN,0.0,0.125,1.705322091,NaN,0.0,0.4699999988079071,-0.75,-106.93000030517578,-0.0159912109375,0.01031494140625,1.01873779296875,36.810001373291016,0.0,-1.0,1.700775146484375,-1.818817138671875,Waiting,0.0,0.0,3.0,0.0,0.0,0.0,0.0,0.0,
3.064254,0.0,0.0,87065.0,0.125,0.0,NaN,0.0,0.25,0.8032225740000001,NaN,0.0,-156529.0,0.0,0.0,NaN,0.0,0.0,0.49316401200000004,NaN,0.0,13264.0,0.125,0.0,NaN,0.0,0.0,3.386230122,NaN,0.0,-31396.0,0.25,0.0,NaN,0.0,0.125,1.705322091,NaN,0.0,0.4699999988079071,-0.75,-106.93000030517578,-0.0137939453125,0.01007080078125,1.0157470703125,36.810001373291016,0.0,-1.0,1.700775146484375,-1.818817138671875,Waiting,0.0,0.0,3.0,0.0,0.0,0.0,0.0,0.0,
3.101298,0.0,0.0,87065.0,0.125,0.0,NaN,0.0,0.25,0.8020018710000001,NaN,0.0,-156529.0,0.0,0.0,NaN,0.0,0.0,0.49438471500000003,NaN,0.0,13264.0,0.125,0.0,NaN,0.0,0.0,3.387450825,NaN,0.0012207029999999897,-31396.0,0.25,0.0,NaN,0.0,0.125,1.705322091,NaN,0.0,0.4699999988079071,-0.75,-106.93000030517578,-0.01458740234375,0.00909423828125,1.019775390625,36.810001373291016,0.0,0.0,1.700775146484375,-1.818817138671875,Waiting,0.0,0.0,3.0,0.0,0.0,0.0,0.0,0.0,
3.1400230000000002,0.0,0.0,87065.0,0.125,0.0,NaN,0.0,0.25,0.8032225740000001,NaN,0.0,-156529.0,0.0,0.0,NaN,0.0,0.0,0.49316401200000004,NaN,0.0,13264.0,0.125,0.0,NaN,0.0,0.0,3.387450825,NaN,-0.0012207029999999897,-31396.0,0.25,0.0,NaN,0.0,0.125,1.705322091,NaN,0.0012207029999999897,0.4699999988079071,-0.75,-106.93000030517578,-0.01348876953125,0.01165771484375,1.0140380859375,36.810001373291016,0.0,-3.0,1.700775146484375,-1.818817138671875,Waiting,0.0,0.0,3.0,0.0,0.0,0.0,0.0,0.0,
3.1689119999999993,0.0,0.0,87065.0,0.125,0.0,NaN,0.0,0.25,0.8020018710000001,NaN,0.0,-156529.0,0.0,0.0,NaN,0.0,0.0,0.49316401200000004,NaN,0.0,13264.0,0.125,0.0,NaN,0.0,0.0,3.387450825,NaN,-0.0012207029999999897,-31396.0,0.25,0.0,NaN,0.0,0.125,1.704101388,NaN,0.0012207029999999897,0.4699999988079071,-0.75,-106.93000030517578,-0.01409912109375,0.00933837890625,1.02081298828125,36.810001373291016,0.0,0.0,1.700775146484375,-1.818817138671875,Waiting,0.0,0.0,3.0,0.0,0.0,0.0,0.0,0.0,
3.2196259999999994,0.0,0.0,87065.0,0.125,0.0,NaN,0.0,0.25,0.8032225740000001,NaN,0.0,-156529.0,0.0,0.0,NaN,0.0,0.0,0.49316401200000004,NaN,0.0012207030000004337,13264.0,0.125,0.0,NaN,0.0,0.0,3.386230122,NaN,0.0,-31396.0,0.25,0.0,NaN,0.0,0.125,1.705322091,NaN,-0.0012207029999999897,0.4699999988079071,-0.75,-106.93000030517578,-0.01373291015625,0.00811767578125,1.01983642578125,36.810001373291016,0.0,0.0,1.700775146484375,-1.818817138671875,Waiting,0.0,0.0,3.0,0.0,0.0,0.0,0.0,0.0,
3.2426230000000005,0.0,0.0,87065.0,0.125,0.0,NaN,0.0,0.25,0.8020018710000001,NaN,0.0,-156529.0,0.0,0.0,NaN,0.0,0.0,0.49316401200000004,NaN,0.0012207030000004337,13264.0,0.125,0.0,NaN,0.0,0.0,3.387450825,NaN,0.0,-31396.0,0.25,0.0,NaN,0.0,0.125,1.705322091,NaN,0.0,0.4699999988079071,-0.75,-106.93000030517578,-0.0133056640625,0.00665283203125,1.02130126953125,36.83000183105469,0.0,1.0,1.700775146484375,-1.818817138671875,Waiting,0.0,0.0,3.0,0.0,0.0,0.0,0.0,0.0,
3.270452,0.0,0.0,87065.0,0.125,0.0,NaN,0.0,0.125,0.8032225740000001,NaN,0.0,-156529.0,0.0,0.0,NaN,0.0,0.0,0.49316401200000004,NaN,0.0,13264.0,0.125,0.0,NaN,0.0,0.0,3.387450825,NaN,0.0,-31396.0,0.25,0.0,NaN,0.0,0.125,1.705322091,NaN,0.0,0.4699999988079071,-0.75,-106.93000030517578,-0.0130615234375,0.01031494140625,1.01898193359375,36.83000183105469,0.0,-1.0,1.700775146484375,-1.818817138671875,Waiting,0.0,0.0,3.0,0.0,0.0,0.0,0.0,0.0,
3.3067699999999993,0.0,0.0,87065.0,0.125,0.0,NaN,0.0,0.25,0.8032225740000001,NaN,0.0,-156529.0,0.0,0.0,NaN,0.0,0.0,0.49316401200000004,NaN,0.0,13264.0,0.125,0.0,NaN,0.0,0.0,3.386230122,NaN,0.0,-31396.0,0.25,0.0,NaN,0.0,0.125,1.705322091,NaN,0.0,0.4699999988079071,-0.75,-106.93000030517578,-0.0174560546875,0.0089111328125,1.01605224609375,36.83000183105469,0.0,0.0,1.700775146484375,-1.818817138671875,Waiting,0.0,0.0,3.0,0.0,0.0,0.0,0.0,0.0,
3.3551539999999997,0.0,0.0,87065.0,0.125,0.0,NaN,0.0,0.25,0.8032225740000001,NaN,0.0,-156529.0,0.0,0.0,NaN,0.0,0.0,0.49316401200000004,NaN,0.0,13264.0,0.125,0.0,NaN,0.0,0.0,3.385009419,NaN,0.0,-31396.0,0.25,0.0,NaN,0.0,0.125,1.705322091,NaN,0.0,0.4699999988079071,-0.75,-106.93000030517578,-0.01275634765625,0.00885009765625,1.01806640625,36.83000183105469,0.0,0.0,1.700775146484375,-1.818817138671875,Waiting,0.0,0.0,3.0,0.0,0.0,0.0,0.0,0.125,
3.3758779999999997,0.0,0.0,87065.0,0.125,0.0,NaN,0.0,0.25,0.8020018710000001,NaN,0.0,-156529.0,0.0,0.0,NaN,0.0,0.0,0.49316401200000004,NaN,0.0,13264.0,0.125,0.0,NaN,0.0,0.0,3.387450825,NaN,0.0,-31396.0,0.25,0.0,NaN,0.0,0.125,1.705322091,NaN,0.0012207029999999897,0.4699999988079071,-0.7599999904632568,-106.93000030517578,-0.01129150390625,0.0072021484375,1.0146484375,36.83000183105469,0.0,0.0,1.700775146484375,-1.818817138671875,Waiting,0.0,0.0,3.0,0.0,0.0,0.0,0.0,0.0,
3.420978,0.0,0.0,87065.0,0.125,0.0,NaN,0.0,0.25,0.8020018710000001,NaN,0.0,-156529.0,0.0,0.0,NaN,0.0,0.0,0.49316401200000004,NaN,0.0,13264.0,0.125,0.0,NaN,0.0,0.0,3.387450825,NaN,0.0,-31396.0,0.25,0.0,NaN,0.0,0.125,1.705322091,NaN,0.0012207029999999897,0.4699999988079071,-0.7599999904632568,-106.93000030517578,-0.01495361328125,0.00823974609375,1.0174560546875,36.83000183105469,0.0,0.0,1.700775146484375,-1.818817138671875,Waiting,0.0,0.0,3.0,0.0,0.0,0.0,0.0,0.0,
3.44238,0.0,0.0,87065.0,0.125,0.0,NaN,0.0,0.25,0.8032225740000001,NaN,0.0,-156529.0,0.0,0.0,NaN,0.0,0.0,0.49316401200000004,NaN,0.0,13264.0,0.125,0.0,NaN,0.0,0.0,3.386230122,NaN,0.0,-31396.0,0.25,0.0,NaN,0.0,0.125,1.705322091,NaN,-0.0012207029999999897,0.4699999988079071,-0.7599999904632568,-106.93000030517578,-0.0140380859375,0.008544921875,1.01873779296875,36.83000183105469,0.0,0.0,1.700775146484375,-1.818817138671875,Waiting,0.0,0.0,3.0,0.0,0.0,0.0,0.0,0.0,
3.4866490000000003,0.0,0.0,87065.0,0.125,0.0,NaN,0.0,0.125,0.8020018710000001,NaN,0.0,-156529.0,0.0,0.0,NaN,0.0,0.0,0.49316401200000004,NaN,-0.0012207030000004337,13264.0,0.125,0.0,NaN,0.0,0.0,3.387450825,NaN,0.0,-31396.0,0.25,0.0,NaN,0.0,0.125,1.705322091,NaN,-0.0012207029999999897,0.4699999988079071,-0.7599999904632568,-106.93000030517578,-0.0126953125,0.0054931640625,1.0159912109375,36.83000183105469,0.0,2.0,1.700775146484375,-1.818817138671875,Waiting,0.0,0.0,3.0,0.0,0.0,0.0,0.0,0.0,
3.5104080000000004,0.0,0.0,87065.0,0.125,0.0,NaN,0.0,0.125,0.8020018710000001,NaN,0.0,-156529.0,0.0,0.0,NaN,0.0,0.0,0.49316401200000004,NaN,0.0012207030000004337,13264.0,0.125,0.0,NaN,0.0,0.0,3.386230122,NaN,0.0,-31396.0,0.25,0.0,NaN,0.0,0.125,1.704101388,NaN,0.0,0.4699999988079071,-0.7599999904632568,-106.93000030517578,-0.01519775390625,0.01007080078125,1.0189208984375,36.83000183105469,0.0,-1.0,1.700775146484375,-1.818817138671875,Waiting,0.0,0.0,3.0,0.0,0.0,0.0,0.0,0.0,
3.5615260000000006,0.0,0.0,87065.0,0.125,0.0,NaN,0.0,0.25,0.8032225740000001,NaN,0.0,-156529.0,0.0,0.0,NaN,0.0,0.0,0.49316401200000004,NaN,0.0,13264.0,0.125,0.0,NaN,0.0,0.0,3.387450825,NaN,0.0,-31396.0,0.25,0.0,NaN,0.0,0.125,1.705322091,NaN,0.0,0.4699999988079071,-0.7599999904632568,-106.93000030517578,-0.01336669921875,0.008056640625,1.01837158203125,36.83000183105469,0.0,0.0,1.700775146484375,-1.818817138671875,Waiting,0.0,0.0,3.0,0.0,0.0,0.0,0.0,0.0,
3.582247,0.0,0.0,87065.0,0.125,0.0,NaN,0.0,0.25,0.8032225740000001,NaN,0.0,-156529.0,0.0,0.0,NaN,0.0,0.0,0.49316401200000004,NaN,0.0,13264.0,0.125,0.0,NaN,0.0,0.0,3.387450825,NaN,0.0,-31396.0,0.25,0.0,NaN,0.0,0.125,1.705322091,NaN,0.0,0.4699999988079071,-0.75,-106.93000030517578,-0.013916015625,0.0057373046875,1.01971435546875,36.83000183105469,0.0,2.0,1.700775146484375,-1.818817138671875,Waiting,0.0,0.0,3.0,0.0,0.0,0.0,0.0,0.0,
3.625848999999999,0.0,0.0,87065.0,0.125,0.0,NaN,0.0,0.25,0.8020018710000001,NaN,0.0,-156529.0,0.0,0.0,NaN,0.0,0.0,0.49316401200000004,NaN,0.0,13264.0,0.125,0.0,NaN,0.0,0.0,3.387450825,NaN,0.0,-31396.0,0.25,0.0,NaN,0.0,0.125,1.705322091,NaN,0.0,0.4699999988079071,-0.75,-106.93000030517578,-0.0152587890625,0.0078125,1.01824951171875,36.83000183105469,0.0,1.0,1.700775146484375,-1.818817138671875,Waiting,0.0,0.0,3.0,0.0,0.0,0.0,0.0,0.0,
3.6449280000000006,0.0,0.0,87065.0,0.125,0.0,NaN,0.0,0.25,0.8020018710000001,NaN,0.0,-156529.0,0.0,0.0,NaN,0.0,0.0,0.49316401200000004,NaN,-0.0012207030000004337,13264.0,0.125,0.0,NaN,0.0,0.0,3.387450825,NaN,0.0,-31396.0,0.25,0.0,NaN,0.0,0.125,1.705322091,NaN,0.0012207029999999897,0.4699999988079071,-0.75,-106.94000244140625,-0.0152587890625,0.00701904296875,1.022216796875,36.83000183105469,0.0,1.0,1.700775146484375,-1.818817138671875,Waiting,0.0,0.0,3.0,0.0,0.0,0.0,0.0,0.0,
3.69528,0.0,0.0,87065.0,0.125,0.0,NaN,0.0,0.25,0.8020018710000001,NaN,0.0,-156529.0,0.0,0.0,NaN,0.0,0.0,0.49316401200000004,NaN,0.0,13264.0,0.125,0.0,NaN,0.0,0.0,3.387450825,NaN,0.0012207029999999897,-31396.0,0.25,0.0,NaN,0.0,0.125,1.705322091,NaN,-0.0012207029999999897,0.4699999988079071,-0.7599999904632568,-106.94000244140625,-0.01580810546875,0.00604248046875,1.01953125,36.83000183105469,0.0,3.0,1.700775146484375,-1.818817138671875,Waiting,0.0,0.0,3.0,0.0,0.0,0.0,0.0,0.0,
3.731464000000001,0.0,0.0,87065.0,0.125,0.0,NaN,0.0,0.25,0.8032225740000001,NaN,0.0,-156529.0,0.0,0.0,NaN,0.0,0.0,0.49316401200000004,NaN,0.0,13264.0,0.125,0.0,NaN,0.0,0.0,3.387450825,NaN,0.0012207029999999897,-31396.0,0.25,0.0,NaN,0.0,0.125,1.705322091,NaN,0.0,0.4699999988079071,-0.7599999904632568,-106.94000244140625,-0.015380859375,0.0087890625,1.0206298828125,36.83000183105469,0.0,0.0,1.700775146484375,-1.818817138671875,Waiting,0.0,0.0,3.0,0.0,0.0,0.0,0.0,0.125,
3.767679000000001,0.0,0.0,87065.0,0.125,0.0,NaN,0.0,0.25,0.8032225740000001,NaN,0.0,-156529.0,0.0,0.0,NaN,0.0,0.0,0.4882812,NaN,0.0012207030000004337,13264.0,0.125,0.0,NaN,0.0,0.0,3.387450825,NaN,0.0,-31396.0,0.25,0.0,NaN,0.0,0.125,1.7126463090000001,NaN,0.0,0.4699999988079071,-0.7599999904632568,-106.94000244140625,-0.01300048828125,0.007568359375,1.01727294921875,36.83000183105469,0.0,0.0,1.700775146484375,-1.818817138671875,Waiting,0.0,0.0,3.0,0.0,0.0,0.0,0.0,0.0,
3.7876989999999995,0.0,0.0,87065.0,0.125,0.0,NaN,0.0,0.25,0.8032225740000001,NaN,0.0,-156529.0,0.0,0.0,NaN,0.0,0.0,0.49316401200000004,NaN,0.0012207030000004337,13264.0,0.125,0.0,NaN,0.0,0.0,3.387450825,NaN,-0.0012207029999999897,-31396.0,0.25,0.0,NaN,0.0,0.125,1.705322091,NaN,0.0,0.4699999988079071,-0.7599999904632568,-106.94000244140625,-0.01416015625,0.0098876953125,1.0194091796875,36.83000183105469,0.0,-1.0,1.700775146484375,-1.818817138671875,Waiting,0.0,0.0,3.0,0.0,0.0,0.0,0.0,0.0,
3.828420999999999,0.0,0.0,87065.0,0.125,0.0,NaN,0.0,0.125,0.8020018710000001,NaN,0.0,-156529.0,0.0,0.0,NaN,0.0,0.0,0.49316401200000004,NaN,0.0,13264.0,0.125,0.0,NaN,0.0,0.0,3.387450825,NaN,-0.0012207029999999897,-31396.0,0.25,0.0,NaN,0.0,0.125,1.705322091,NaN,0.0,0.4699999988079071,-0.7599999904632568,-106.94000244140625,-0.01556396484375,0.00946044921875,1.01947021484375,36.83000183105469,0.0,0.0,1.700775146484375,-1.818817138671875,Waiting,0.0,0.0,3.0,0.0,0.0,0.0,0.0,0.0,
3.8459839999999996,0.0,0.0,87065.0,0.125,0.0,NaN,0.0,0.125,0.8020018710000001,NaN,0.0,-156529.0,0.0,0.0,NaN,0.0,0.0,0.49316401200000004,NaN,0.0,13264.0,0.125,0.0,NaN,0.0,0.0,3.386230122,NaN,0.0,-31396.0,0.25,0.0,NaN,0.0,0.125,1.705322091,NaN,0.0,0.4699999988079071,-0.7599999904632568,-106.94000244140625,-0.01556396484375,0.00750732421875,1.0164794921875,36.83000183105469,0.0,1.0,1.700775146484375,-1.818817138671875,Waiting,0.0,0.0,3.0,0.0,0.0,0.0,0.0,0.0,
3.8911320000000007,0.0,0.0,87065.0,0.125,0.0,NaN,0.0,0.125,0.8032225740000001,NaN,0.0,-156529.0,0.0,0.0,NaN,0.0,0.0,0.49194330900000005,NaN,0.0,13264.0,0.125,0.0,NaN,0.0,0.0,3.387450825,NaN,0.0,-31396.0,0.25,0.0,NaN,0.0,0.125,1.7065427940000002,NaN,0.0,0.4699999988079071,-0.7599999904632568,-106.93000030517578,-0.01568603515625,0.01031494140625,1.01898193359375,36.83000183105469,0.0,-1.0,1.700775146484375,-1.818817138671875,Waiting,0.0,0.0,3.0,0.0,0.0,0.0,0.0,0.0,
3.9198020000000007,0.0,0.0,87065.0,0.125,0.0,NaN,0.0,0.25,0.8032225740000001,NaN,0.0,-156529.0,0.0,0.0,NaN,0.0,0.0,0.49316401200000004,NaN,-0.0012207030000004337,13264.0,0.125,0.0,NaN,0.0,0.0,3.387450825,NaN,0.0,-31396.0,0.25,0.0,NaN,0.0,0.125,1.705322091,NaN,0.0012207029999999897,0.4699999988079071,-0.7599999904632568,-106.93000030517578,-0.0169677734375,0.00762939453125,1.0225830078125,36.83000183105469,0.0,1.0,1.700775146484375,-1.818817138671875,Waiting,0.0,0.0,3.0,0.0,0.0,0.0,0.0,0.0,
3.9668830000000006,0.0,0.0,87065.0,0.125,0.0,NaN,0.0,0.25,0.8032225740000001,NaN,0.0,-156529.0,0.0,0.0,NaN,0.0,0.0,0.49316401200000004,NaN,0.0,13264.0,0.125,0.0,NaN,0.0,0.0,3.387450825,NaN,0.0,-31396.0,0.25,0.0,NaN,0.0,0.125,1.705322091,NaN,0.0012207029999999897,0.4699999988079071,-0.7599999904632568,-106.94000244140625,-0.0133056640625,0.00872802734375,1.01885986328125,36.83000183105469,0.0,0.0,1.700775146484375,-1.818817138671875,Waiting,0.0,0.0,3.0,0.0,0.0,0.0,0.0,0.0,
3.999988,0.0,0.0,87065.0,0.125,0.0,NaN,0.0,0.25,0.8032225740000001,NaN,0.0,-156529.0,0.0,0.0,NaN,0.0,0.0,0.49194330900000005,NaN,0.0012207030000004337,13264.0,0.125,0.0,NaN,0.0,0.0,3.387450825,NaN,0.0,-31396.0,0.25,0.0,NaN,0.0,0.125,1.705322091,NaN,-0.0012207029999999897,0.4699999988079071,-0.7599999904632568,-106.94000244140625,-0.01275634765625,0.009765625,1.01641845703125,36.83000183105469,0.0,-1.0,1.700775146484375,-1.818817138671875,Waiting,0.0,0.0,3.0,0.0,0.0,0.0,0.0,0.0,
4.037634000000001,0.0,0.0,87065.0,0.125,0.0,NaN,0.0,0.25,0.8032225740000001,NaN,0.0,-156529.0,0.0,0.0,NaN,0.0,0.0,0.49438471500000003,NaN,0.0012207030000004337,13264.0,0.125,0.0,NaN,0.0,0.0,3.386230122,NaN,0.0,-31396.0,0.25,0.0,NaN,0.0,0.125,1.705322091,NaN,0.0,0.47999998927116394,-0.7699999809265137,-106.94000244140625,-0.015380859375,0.006103515625,1.018798828125,36.83000183105469,0.0,2.0,1.700775146484375,-1.818817138671875,Waiting,0.0,0.0,3.0,0.0,0.0,0.0,0.0,0.125,
4.069355000000001,0.0,0.0,87065.0,0.125,0.0,NaN,0.0,0.25,0.8044432770000001,NaN,0.0,-156529.0,0.0,0.0,NaN,0.0,0.0,0.49194330900000005,NaN,-0.0012207030000004337,13264.0,0.125,0.0,NaN,0.0,0.0,3.388671528,NaN,0.0012207029999999897,-31396.0,0.125,0.0,NaN,0.0,0.125,1.705322091,NaN,0.0,0.4699999988079071,-0.7599999904632568,-106.94000244140625,-0.01416015625,0.0037841796875,1.01776123046875,36.83000183105469,0.0,4.0,1.700775146484375,-1.818817138671875,Waiting,0.0,0.0,3.0,0.0,0.0,0.0,0.0,0.0,
4.110431999999999,0.0,0.0,87065.0,0.125,0.0,NaN,0.0,0.25,0.8032225740000001,NaN,0.0,-156529.0,0.0,0.0,NaN,0.0,0.0,0.49316401200000004,NaN,0.0,13264.0,0.125,0.0,NaN,0.0,0.0,3.387450825,NaN,-0.0012207029999999897,-31396.0,0.125,0.0,NaN,0.0,0.125,1.7065427940000002,NaN,0.0,0.4699999988079071,-0.7599999904632568,-106.94000244140625,-0.0140380859375,0.00982666015625,1.0181884765625,36.83000183105469,0.0,-1.0,1.700775146484375,-1.818817138671875,Waiting,0.0,0.0,3.0,0.0,0.0,0.0,0.0,0.0,
4.157547999999999,0.0,0.0,87065.0,0.125,0.0,NaN,0.0,0.25,0.799560465,NaN,0.0,-156529.0,0.0,0.0,NaN,0.0,0.0,0.49316401200000004,NaN,0.0012207030000004337,13264.0,0.125,0.0,NaN,0.0,0.0,3.387450825,NaN,0.0012207029999999897,-31396.0,0.25,0.0,NaN,0.0,0.125,1.705322091,NaN,0.0,0.4699999988079071,-0.7599999904632568,-106.94000244140625,-0.01507568359375,0.0084228515625,1.02093505859375,36.83000183105469,0.0,0.0,1.700775146484375,-1.818817138671875,Waiting,0.0,0.0,3.0,0.0,0.0,0.0,0.0,0.0,
4.182381,0.0,0.0,87065.0,0.125,0.0,NaN,0.0,0.25,0.8020018710000001,NaN,0.0,-156529.0,0.0,0.0,NaN,0.0,0.0,0.49316401200000004,NaN,0.0012207030000004337,13264.0,0.125,0.0,NaN,0.0,0.0,3.387450825,NaN,0.0012207029999999897,-31396.0,0.25,0.0,NaN,0.0,0.125,1.705322091,NaN,0.0,0.4699999988079071,-0.7599999904632568,-106.94000244140625,-0.013427734375,0.00640869140625,1.01641845703125,36.83000183105469,0.0,1.0,1.700775146484375,-1.818817138671875,Waiting,0.0,0.0,3.0,0.0,0.0,0.0,0.0,0.0,
4.208623,0.0,0.0,87065.0,0.125,0.0,NaN,0.0,0.25,0.8044432770000001,NaN,0.0,-156529.0,0.0,0.0,NaN,0.0,0.0,0.49316401200000004,NaN,-0.0012207030000004337,13264.0,0.125,0.0,NaN,0.0,0.0,3.382568013,NaN,-0.0012207029999999897,-31396.0,0.25,0.0,NaN,0.0,0.125,1.705322091,NaN,0.0,0.4699999988079071,-0.7599999904632568,-106.94000244140625,-0.016357421875,0.01165771484375,1.0218505859375,36.83000183105469,0.0,-2.0,1.700775146484375,-1.818817138671875,Waiting,0.0,0.0,3.0,0.0,0.0,0.0,0.0,0.0,
4.241779999999999,0.0,0.0,87065.0,0.125,0.0,NaN,0.0,0.25,0.8020018710000001,NaN,0.0,-156529.0,0.0,0.0,NaN,0.0,0.0,0.49438471500000003,NaN,-0.0012207030000004337,13264.0,0.125,0.0,NaN,0.0,0.0,3.386230122,NaN,-0.0012207029999999897,-31396.0,0.25,0.0,NaN,0.0,0.125,1.705322091,NaN,0.0,0.4699999988079071,-0.7599999904632568,-106.94000244140625,-0.01397705078125,0.005859375,1.020263671875,36.83000183105469,0.0,2.0,1.700775146484375,-1.818817138671875,Waiting,0.0,0.0,3.0,0.0,0.0,0.0,0.0,0.0,
4.286084,0.0,0.0,87065.0,0.125,0.0,NaN,0.0,0.25,0.8020018710000001,NaN,0.0,-156529.0,0.0,0.0,NaN,0.0,0.0,0.49438471500000003,NaN,0.0012207030000004337,13264.0,0.125,0.0,NaN,0.0,0.0,3.387450825,NaN,0.0,-31396.0,0.25,0.0,NaN,0.0,0.125,1.705322091,NaN,0.0012207029999999897,0.4699999988079071,-0.7599999904632568,-106.93000030517578,-0.01361083984375,0.0086669921875,1.01611328125,36.849998474121094,0.0,0.0,1.700775146484375,-1.818817138671875,Waiting,0.0,0.0,3.0,0.0,0.0,0.0,0.0,0.0,
4.310352,0.0,0.0,87065.0,0.125,0.0,NaN,0.0,0.25,0.8032225740000001,NaN,0.0,-156529.0,0.0,0.0,NaN,0.0,0.0,0.49194330900000005,NaN,-0.0012207030000004337,13264.0,0.125,0.0,NaN,0.0,0.0,3.387450825,NaN,0.0,-31396.0,0.25,0.0,NaN,0.0,0.125,1.705322091,NaN,-0.0012207029999999897,0.4699999988079071,-0.7599999904632568,-106.93000030517578,-0.01416015625,0.0123291015625,1.0179443359375,36.849998474121094,0.0,-3.0,1.700775146484375,-1.818817138671875,Waiting,0.0,0.0,3.0,0.0,0.0,0.0,0.0,0.0,
4.364965999999999,0.0,0.0,87065.0,0.125,0.0,NaN,0.0,0.25,0.8020018710000001,NaN,0.0,-156529.0,0.0,0.0,NaN,0.0,0.0,0.49316401200000004,NaN,0.0,13264.0,0.125,0.0,NaN,0.0,0.0,3.387450825,NaN,0.0012207029999999897,-31396.0,0.25,0.0,NaN,0.0,0.125,1.705322091,NaN,0.0012207029999999897,0.4699999988079071,-0.7599999904632568,-106.94000244140625,-0.01513671875,0.00836181640625,1.01715087890625,36.849998474121094,0.0,0.0,1.700775146484375,-1.818817138671875,Waiting,0.0,0.0,3.0,0.0,0.0,0.0,0.0,0.0,
4.386054000000001,0.0,0.0,87065.0,0.125,0.0,NaN,0.0,0.125,0.8020018710000001,NaN,0.0,-156529.0,0.0,0.0,NaN,0.0,0.0,0.49438471500000003,NaN,0.0,13264.0,0.125,0.0,NaN,0.0,0.0,3.387450825,NaN,0.0012207029999999897,-31396.0,0.25,0.0,NaN,0.0,0.125,1.705322091,NaN,0.0012207029999999897,0.4699999988079071,-0.7599999904632568,-106.94000244140625,-0.01580810546875,0.00860595703125,1.02410888671875,36.849998474121094,0.0,0.0,1.700775146484375,-1.818817138671875,Waiting,0.0,0.0,3.0,0.0,0.0,0.0,0.0,0.0,
4.418429999999999,0.0,0.0,87065.0,0.125,0.0,NaN,0.0,0.125,0.8020018710000001,NaN,0.0,-156529.0,0.0,0.0,NaN,0.0,0.0,0.49316401200000004,NaN,0.0,13264.0,0.125,0.0,NaN,0.0,0.0,3.386230122,NaN,-0.0012207029999999897,-31396.0,0.25,0.0,NaN,0.0,0.125,1.704101388,NaN,-0.0012207029999999897,0.47999998927116394,-0.7699999809265137,-106.94000244140625,-0.016357421875,0.0069580078125,1.013916015625,36.849998474121094,0.0,2.0,1.700775146484375,-1.818817138671875,Waiting,0.0,0.0,3.0,0.0,0.0,0.0,0.0,0.0,
4.4472879999999995,0.0,0.0,87065.0,0.125,0.0,NaN,0.0,0.25,0.8020018710000001,NaN,0.0,-156529.0,0.0,0.0,NaN,0.0,0.0,0.49316401200000004,NaN,0.0012207030000004337,13264.0,0.125,0.0,NaN,0.0,0.0,3.387450825,NaN,0.0,-31396.0,0.25,0.0,NaN,0.0,0.125,1.704101388,NaN,0.0,0.47999998927116394,-0.7699999809265137,-106.93000030517578,-0.0128173828125,0.00555419921875,1.0137939453125,36.849998474121094,0.0,2.0,1.700775146484375,-1.818817138671875,Waiting,0.0,0.0,3.0,0.0,0.0,0.0,0.0,0.125,
4.487929000000001,0.0,0.0,87065.0,0.125,0.0,NaN,0.0,0.125,0.8020018710000001,NaN,0.0,-156529.0,0.0,0.0,NaN,0.0,0.0,0.49316401200000004,NaN,0.0012207030000004337,13264.0,0.125,0.0,NaN,0.0,0.0,3.387450825,NaN,0.0,-31396.0,0.25,0.0,NaN,0.0,0.125,1.705322091,NaN,0.0,0.4699999988079071,-0.7699999809265137,-106.93000030517578,-0.01434326171875,0.00762939453125,1.0220947265625,36.849998474121094,0.0,0.0,1.700775146484375,-1.818817138671875,Waiting,0.0,0.0,3.0,0.0,0.0,0.0,0.0,0.0,
4.511693,0.0,0.0,87065.0,0.125,0.0,NaN,0.0,0.125,0.8032225740000001,NaN,0.0,-156529.0,0.0,0.0,NaN,0.0,0.0,0.49316401200000004,NaN,0.0,13264.0,0.125,0.0,NaN,0.0,0.0,3.387450825,NaN,0.0,-31396.0,0.25,0.0,NaN,0.0,0.125,1.705322091,NaN,0.0,0.4699999988079071,-0.7699999809265137,-106.93000030517578,-0.01239013671875,0.0048828125,1.01666259765625,36.849998474121094,0.0,2.0,1.700775146484375,-1.818817138671875,Waiting,0.0,0.0,3.0,0.0,0.0,0.0,0.0,0.0,
4.558527000000001,0.0,0.0,87065.0,0.125,0.0,NaN,0.0,0.25,0.8032225740000001,NaN,0.0,-156529.0,0.0,0.0,NaN,0.0,0.0,0.49316401200000004,NaN,0.0,13264.0,0.125,0.0,NaN,0.0,0.0,3.387450825,NaN,0.0012207029999999897,-31396.0,0.25,0.0,NaN,0.0,0.125,1.705322091,NaN,0.0,0.4699999988079071,-0.7699999809265137,-106.93000030517578,-0.0137939453125,0.0103759765625,1.01678466796875,36.849998474121094,0.0,-1.0,1.700775146484375,-1.818817138671875,Waiting,0.0,0.0,3.0,0.0,0.0,0.0,0.0,0.0,
4.582237,0.0,0.0,87065.0,0.125,0.0,NaN,0.0,0.25,0.8032225740000001,NaN,0.0,-156529.0,0.0,0.0,NaN,0.0,0.0,0.49316401200000004,NaN,0.0,13264.0,0.125,0.0,NaN,0.0,0.0,3.387450825,NaN,0.0012207029999999897,-31396.0,0.25,0.0,NaN,0.0,0.125,1.705322091,NaN,0.0,0.4699999988079071,-0.7699999809265137,-106.93000030517578,-0.01416015625,0.00836181640625,1.01519775390625,36.849998474121094,0.0,0.0,1.700775146484375,-1.818817138671875,Waiting,0.0,0.0,3.0,0.0,0.0,0.0,0.0,0.0,
4.629791,0.0,0.0,87065.0,0.125,0.0,NaN,0.0,0.125,0.8020018710000001,NaN,0.0,-156529.0,0.0,0.0,NaN,0.0,0.0,0.49316401200000004,NaN,0.0,13264.0,0.125,0.0,NaN,0.0,0.0,3.387450825,NaN,-0.0012207029999999897,-31396.0,0.25,0.0,NaN,0.0,0.125,1.705322091,NaN,0.0,0.4699999988079071,-0.7699999809265137,-106.94000244140625,-0.0106201171875,0.00762939453125,1.0220947265625,36.849998474121094,0.0,0.0,1.700775146484375,-1.818817138671875,Waiting,0.0,0.0,3.0,0.0,0.0,0.0,0.0,0.0,
4.64736,0.0,0.0,87065.0,0.125,0.0,NaN,0.0,0.125,0.8032225740000001,NaN,0.0,-156529.0,0.0,0.0,NaN,0.0,0.0,0.49316401200000004,NaN,0.0,13264.0,0.125,0.0,NaN,0.0,0.0,3.387450825,NaN,0.0,-31396.0,0.25,0.0,NaN,0.0,0.125,1.704101388,NaN,0.0012207029999999897,0.4699999988079071,-0.7699999809265137,-106.94000244140625,-0.01373291015625,0.01123046875,1.01849365234375,36.849998474121094,0.0,-2.0,1.700775146484375,-1.818817138671875,Waiting,0.0,0.0,3.0,0.0,0.0,0.0,0.0,0.0,
4.6918180000000005,0.0,0.0,87065.0,0.125,0.0,NaN,0.0,0.25,0.8032225740000001,NaN,0.0,-156529.0,0.0,0.0,NaN,0.0,0.0,0.49316401200000004,NaN,-0.0012207030000004337,13264.0,0.125,0.0,NaN,0.0,0.0,3.387450825,NaN,0.0,-31396.0,0.25,0.0,NaN,0.0,0.125,1.705322091,NaN,-0.0012207029999999897,0.4699999988079071,-0.7699999809265137,-106.94000244140625,-0.01318359375,0.00787353515625,1.01318359375,36.849998474121094,0.0,0.0,1.700775146484375,-1.818817138671875,Waiting,0.0,0.0,3.0,0.0,0.0,0.0,0.0,0.125,
4.719196000000001,0.0,0.0,87065.0,0.125,0.0,NaN,0.0,0.25,0.8032225740000001,NaN,0.0,-156529.0,0.0,0.0,NaN,0.0,0.0,0.49438471500000003,NaN,0.0012207030000004337,13264.0,0.125,0.0,NaN,0.0,0.0,3.386230122,NaN,0.0,-31396.0,0.25,0.0,NaN,0.0,0.125,1.705322091,NaN,-0.0012207029999999897,0.4699999988079071,-0.7699999809265137,-106.94000244140625,-0.0128173828125,0.0074462890625,1.01885986328125,36.849998474121094,0.0,0.0,1.700775146484375,-1.818817138671875,Waiting,0.0,0.0,3.0,0.0,0.0,0.0,0.0,0.0,
4.760363,0.0,0.0,87065.0,0.125,0.0,NaN,0.0,0.25,0.8020018710000001,NaN,0.0,-156529.0,0.0,0.0,NaN,0.0,0.0,0.49438471500000003,NaN,-0.0012207030000004337,13264.0,0.125,0.0,NaN,0.0,0.0,3.387450825,NaN,0.0,-31396.0,0.25,0.0,NaN,0.0,0.125,1.705322091,NaN,0.0,0.4699999988079071,-0.7699999809265137,-106.94000244140625,-0.01116943359375,0.00860595703125,1.02459716796875,36.849998474121094,0.0,0.0,1.700775146484375,-1.818817138671875,Waiting,0.0,0.0,3.0,0.0,0.0,0.0,0.0,0.0,
4.781853,0.0,0.0,87065.0,0.125,0.0,NaN,0.0,0.25,0.8020018710000001,NaN,0.0,-156529.0,0.0,0.0,NaN,0.0,0.0,0.49438471500000003,NaN,-0.0012207030000004337,13264.0,0.125,0.0,NaN,0.0,0.0,3.387450825,NaN,0.0,-31396.0,0.25,0.0,NaN,0.0,0.125,1.705322091,NaN,0.0,0.4699999988079071,-0.7699999809265137,-106.94000244140625,-0.01470947265625,0.00360107421875,1.02001953125,36.84000015258789,0.0,4.0,1.700775146484375,-1.818817138671875,Waiting,0.0,0.0,3.0,0.0,0.0,0.0,0.0,0.0,
4.879187000000001,0.0,0.0,87065.0,0.125,0.0,NaN,0.0,0.25,0.8032225740000001,NaN,0.0,-156529.0,0.0,0.0,NaN,0.0,0.0,0.49316401200000004,NaN,0.0,13264.0,0.125,0.0,NaN,0.0,0.0,3.387450825,NaN,0.0,-31396.0,0.25,0.0,NaN,0.0,0.125,1.704101388,NaN,0.0012207029999999897,0.4699999988079071,-0.7699999809265137,-106.94000244140625,-0.0145263671875,0.009033203125,1.0189208984375,36.84000015258789,0.0,0.0,1.700775146484375,-1.818817138671875,Waiting,0.0,0.0,3.0,0.0,0.0,0.0,0.0,0.0,
4.897065,0.0,0.0,87065.0,0.125,0.0,NaN,0.0,0.25,0.8032225740000001,NaN,0.0,-156529.0,0.0,0.0,NaN,0.0,0.0,0.49316401200000004,NaN,-0.0012207030000004337,13264.0,0.125,0.0,NaN,0.0,0.0,3.387450825,NaN,0.0012207029999999897,-31396.0,0.25,0.0,NaN,0.0,0.125,1.705322091,NaN,-0.0012207029999999897,0.4699999988079071,-0.7699999809265137,-106.94000244140625,-0.01556396484375,0.01007080078125,1.0191650390625,36.84000015258789,0.0,-1.0,1.700775146484375,-1.818817138671875,Waiting,0.0,0.0,3.0,0.0,0.0,0.0,0.0,0.125,
4.925491000000001,0.0,0.0,87065.0,0.125,0.0,NaN,0.0,0.25,0.8020018710000001,NaN,0.0,-156529.0,0.0,0.0,NaN,0.0,0.0,0.49438471500000003,NaN,-0.0012207030000004337,13264.0,0.125,0.0,NaN,0.0,0.0,3.387450825,NaN,0.0012207029999999897,-31396.0,0.25,0.0,NaN,0.0,0.125,1.705322091,NaN,-0.0012207029999999897,0.4699999988079071,-0.7699999809265137,-106.94000244140625,-0.0126953125,0.009765625,1.01776123046875,36.84000015258789,0.0,-1.0,1.700775146484375,-1.818817138671875,Waiting,0.0,0.0,3.0,0.0,0.0,0.0,0.0,0.125,
4.967399,0.0,0.0,87065.0,0.125,0.0,NaN,0.0,0.25,0.8020018710000001,NaN,0.0,-156529.0,0.0,0.0,NaN,0.0,0.0,0.49316401200000004,NaN,0.0012207030000004337,13264.0,0.125,0.0,NaN,0.0,0.0,3.386230122,NaN,-0.0012207029999999897,-31396.0,0.25,0.0,NaN,0.0,0.125,1.704101388,NaN,0.0,0.4699999988079071,-0.7599999904632568,-106.94000244140625,-0.01300048828125,0.00860595703125,1.01556396484375,36.84000015258789,0.0,0.0,1.700775146484375,-1.818817138671875,Waiting,0.0,0.0,3.0,0.0,0.0,0.0,0.0,0.125,
4.987887,0.0,0.0,87065.0,0.125,0.0,NaN,0.0,0.25,0.8032225740000001,NaN,0.0,-156529.0,0.0,0.0,NaN,0.0,0.0,0.49316401200000004,NaN,0.0012207030000004337,13264.0,0.125,0.0,NaN,0.0,0.0,3.387450825,NaN,-0.0012207029999999897,-31396.0,0.25,0.0,NaN,0.0,0.125,1.705322091,NaN,0.0,0.4699999988079071,-0.7599999904632568,-106.94000244140625,-0.0147705078125,0.01080322265625,1.018310546875,36.84000015258789,0.0,-1.0,1.700775146484375,-1.818817138671875,Waiting,0.0,0.0,3.0,0.0,0.0,0.0,0.0,0.0,
5.01997,0.0,0.0,87065.0,0.125,0.0,NaN,0.0,0.25,0.8032225740000001,NaN,0.0,-156529.0,0.0,0.0,NaN,0.0,0.0,0.49316401200000004,NaN,-0.0012207030000004337,13264.0,0.125,0.0,NaN,0.0,0.0,3.387450825,NaN,0.0,-31396.0,0.25,0.0,NaN,0.0,0.125,1.704101388,NaN,0.0,0.4699999988079071,-0.7599999904632568,-106.94000244140625,-0.01239013671875,0.0059814453125,1.017822265625,36.84000015258789,0.0,1.0,1.700775146484375,-1.818817138671875,Waiting,0.0,0.0,3.0,0.0,0.0,0.0,0.0,0.0,
5.042543,0.0,0.0,87065.0,0.125,0.0,NaN,0.0,0.25,0.8032225740000001,NaN,0.0,-156529.0,0.0,0.0,NaN,0.0,0.0,0.49438471500000003,NaN,-0.0012207030000004337,13264.0,0.125,0.0,NaN,0.0,0.0,3.394775043,NaN,0.0,-31396.0,0.25,0.0,NaN,0.0,0.125,1.705322091,NaN,0.0,0.4699999988079071,-0.7699999809265137,-106.94000244140625,-0.01513671875,0.00787353515625,1.0159912109375,36.84000015258789,0.0,0.0,1.700775146484375,-1.818817138671875,Waiting,0.0,0.0,3.0,0.0,0.0,0.0,0.0,0.0,
5.0876220000000005,0.0,0.0,87065.0,0.125,0.0,NaN,0.0,0.25,0.8032225740000001,NaN,0.0,-156529.0,0.0,0.0,NaN,0.0,0.0,0.49316401200000004,NaN,0.0,13264.0,0.125,0.0,NaN,0.0,0.0,3.387450825,NaN,0.0,-31396.0,0.25,0.0,NaN,0.0,0.125,1.705322091,NaN,0.0,0.4699999988079071,-0.7699999809265137,-106.94000244140625,-0.01483154296875,0.0078125,1.02099609375,36.84000015258789,0.0,0.0,1.700775146484375,-1.818817138671875,Waiting,0.0,0.0,3.0,0.0,0.0,0.0,0.0,0.0,
5.113830000000001,0.0,0.0,87065.0,0.125,0.0,NaN,0.0,0.25,0.8032225740000001,NaN,0.0,-156529.0,0.0,0.0,NaN,0.0,0.0,0.49316401200000004,NaN,0.0012207030000004337,13264.0,0.125,0.0,NaN,0.0,0.0,3.387450825,NaN,0.0,-31396.0,0.25,0.0,NaN,0.0,0.125,1.705322091,NaN,0.0,0.4699999988079071,-0.7699999809265137,-106.93000030517578,-0.0159912109375,0.00897216796875,1.018310546875,36.84000015258789,0.0,0.0,1.700775146484375,-1.818817138671875,Waiting,0.0,0.0,3.0,0.0,0.0,0.0,0.0,0.0,
5.147344,0.0,0.0,87065.0,0.125,0.0,NaN,0.0,0.25,0.8032225740000001,NaN,0.0,-156529.0,0.0,0.0,NaN,0.0,0.0,0.49316401200000004,NaN,0.0,13264.0,0.125,0.0,NaN,0.0,0.0,3.387450825,NaN,0.0,-31396.0,0.25,0.0,NaN,0.0,0.125,1.704101388,NaN,0.0,0.4699999988079071,-0.7699999809265137,-106.94000244140625,-0.01312255859375,0.0086669921875,1.0164794921875,36.84000015258789,0.0,0.0,1.700775146484375,-1.818817138671875,Waiting,0.0,0.0,3.0,0.0,0.0,0.0,0.0,0.0,
5.178008000000001,0.0,0.0,87065.0,0.125,0.0,NaN,0.0,0.25,0.8032225740000001,NaN,0.0,-156529.0,0.0,0.0,NaN,0.0,0.0,0.49316401200000004,NaN,0.0,13264.0,0.125,0.0,NaN,0.0,0.0,3.387450825,NaN,0.0,-31396.0,0.25,0.0,NaN,0.0,0.125,1.705322091,NaN,0.0,0.4699999988079071,-0.7699999809265137,-106.94000244140625,-0.01470947265625,0.01080322265625,1.0206298828125,36.84000015258789,0.0,-2.0,1.700775146484375,-1.818817138671875,Waiting,0.0,0.0,3.0,0.0,0.0,0.0,0.0,0.0,
5.223549,0.0,0.0,87065.0,0.125,0.0,NaN,0.0,0.125,0.8020018710000001,NaN,0.0,-156529.0,0.0,0.0,NaN,0.0,0.0,0.49316401200000004,NaN,-0.0012207030000004337,13264.0,0.125,0.0,NaN,0.0,0.0,3.387450825,NaN,0.0,-31396.0,0.25,0.0,NaN,0.0,0.125,1.704101388,NaN,0.0,0.46000000834465027,-0.7799999713897705,-106.94000244140625,-0.01318359375,0.00897216796875,1.0196533203125,36.84000015258789,0.0,0.0,1.700775146484375,-1.818817138671875,Waiting,0.0,0.0,3.0,0.0,0.0,0.0,0.0,0.125,
5.244865000000001,0.0,0.0,87065.0,0.125,0.0,NaN,0.0,0.125,0.8032225740000001,NaN,0.0,-156529.0,0.0,0.0,NaN,0.0,0.0,0.49316401200000004,NaN,-0.0012207030000004337,13264.0,0.125,0.0,NaN,0.0,0.0,3.387450825,NaN,0.0,-31396.0,0.25,0.0,NaN,0.0,0.125,1.705322091,NaN,0.0,0.4699999988079071,-0.7699999809265137,-106.94000244140625,-0.0157470703125,0.00567626953125,1.02239990234375,36.84000015258789,0.0,3.0,1.700775146484375,-1.818817138671875,Waiting,0.0,0.0,3.0,0.0,0.0,0.0,0.0,0.0,
5.277031,0.0,0.0,87065.0,0.125,0.0,NaN,0.0,0.125,0.8020018710000001,NaN,0.0,-156529.0,0.0,0.0,NaN,0.0,0.0,0.49316401200000004,NaN,0.0012207030000004337,13264.0,0.125,0.0,NaN,0.0,0.0,3.387450825,NaN,0.0,-31396.0,0.25,0.0,NaN,0.0,0.125,1.705322091,NaN,0.0,0.4699999988079071,-0.7699999809265137,-106.94000244140625,-0.01416015625,0.00958251953125,1.017333984375,36.810001373291016,0.0,-1.0,1.700775146484375,-1.818817138671875,Waiting,0.0,0.0,3.0,0.0,0.0,0.0,0.0,0.0,
5.304232000000001,0.0,0.0,87065.0,0.125,0.0,NaN,0.0,0.25,0.8032225740000001,NaN,0.0,-156529.0,0.0,0.0,NaN,0.0,0.0,0.49316401200000004,NaN,0.0,13264.0,0.125,0.0,NaN,0.0,0.0,3.387450825,NaN,0.0,-31396.0,0.25,0.0,NaN,0.0,0.125,1.705322091,NaN,0.0,0.4699999988079071,-0.7699999809265137,-106.94000244140625,-0.01324462890625,0.005126953125,1.01641845703125,36.810001373291016,0.0,2.0,1.700775146484375,-1.818817138671875,Waiting,0.0,0.0,3.0,0.0,0.0,0.0,0.0,0.0,
