Time,ClimberA1,ClimberA2,FRpos,FRCurrent,FRspeed,FRsetpoint,FRApos,FRACurrent,FREncpos,FREncSetpoint,FREncSpeed,FLpos,FLCurrent,FLspeed,FLsetpoint,FLApos,FLACurrent,FLEncpos,FLEncSetpoint,FLEncSpeed,BRpos,BRCurrent,BRspeed,BRsetpoint,BRApos,BRACurrent,BREncpos,BREncSetpoint,BREncSpeed,BLpos,BLCurrent,BLspeed,BLsetpoint,BLApos,BLACurrent,BLEncpos,BLEncSetpoint,BLEncSpeed,navx_Pitch,navx_Roll,navx_Yaw,navx_XAcc,navx_YAcc,navx_ZAcc,navx_Temp,navx_Bar,navx_Alt,navx_XDis,navx_YDis,GearPlacerState,ShootOutputV,ShootOutputCurrent,ShootEncPos,ShootEncVelocity,ShootSpeed,ShootSetpoint,CarouselSetpoint,CarouselCurrent,
0.11469499999999243,0.0,0.0,91318.0,0.0,0.0,0.0,0.0,0.25,0.8032225740000001,0.01,0.0,-157687.0,0.0,0.0,-0.0,0.0,0.125,0.527343696,0.01,0.0,18258.0,0.0,0.0,0.0,0.0,0.0,3.338622705,0.01,0.0,-32533.0,0.125,0.0,-0.0,0.0,0.25,1.651611159,0.01,0.0,0.2800000011920929,-0.3400000035762787,-104.05000305175781,-0.00726318359375,0.00714111328125,1.02105712890625,36.68000030517578,0.0,-1.0,2.489471435546875,-2.46661376953125,Closing,0.0,0.0,3.0,0.0,0.0,0.0,0.0,0.0,
0.16949499999999534,0.0,0.0,91318.0,0.0,0.0,0.0,0.0,0.25,0.8032225740000001,0.01,0.0,-157687.0,0.0,0.0,-0.0,0.0,0.125,0.527343696,0.01,0.0,18258.0,0.0,0.0,0.0,0.0,0.0,3.338622705,0.01,0.0,-32533.0,0.125,0.0,-0.0,0.0,0.25,1.652831862,0.01,0.0,0.2800000011920929,-0.3400000035762787,-104.05000305175781,-0.0054931640625,0.0040283203125,1.013427734375,36.66999816894531,0.0,0.0,2.489471435546875,-2.46661376953125,Closing,0.0,0.0,3.0,0.0,0.0,0.0,0.0,0.125,
0.2284719999999943,0.0,0.0,91318.0,0.0,0.0,0.0,0.0,0.25,0.8020018710000001,0.01,-0.0024414059999999793,-157687.0,0.0,0.0,-0.0,0.0,0.125,0.5285643990000001,0.01,0.0,18258.0,0.0,0.0,0.0,0.0,0.0,3.339843408,0.01,-0.0012207030000004337,-32533.0,0.0,0.0,-0.0,0.0,0.25,1.651611159,0.01,0.0,0.3199999928474426,-0.3199999928474426,-104.05999755859375,-0.12841796875,0.00360107421875,1.04827880859375,36.66999816894531,0.0,32.0,2.489593505859375,-2.4662322998046875,Closing,0.0,0.0,3.0,0.0,0.0,0.0,0.0,0.0,
0.2823709999999992,0.0,0.0,91318.0,0.0,0.0,0.0,0.0,0.25,0.808105386,0.01,0.0,-157687.0,0.0,0.0,-0.0,0.0,0.125,0.527343696,0.01,0.0012207029999995456,18258.0,0.0,0.0,0.0,0.0,0.0,3.338622705,0.01,0.0012207030000004337,-32533.0,0.125,0.0,-0.0,0.0,0.25,1.651611159,0.01,0.0,0.30000001192092896,-0.3799999952316284,-104.05000305175781,-0.05499267578125,0.0567626953125,1.1470947265625,36.66999816894531,0.0,-37.0,2.490020751953125,-2.46630859375,Closing,0.0,0.0,3.0,0.0,0.0,0.0,0.0,0.0,
0.33504799999999524,0.0,0.0,91318.0,0.0,0.0,0.0,0.0,0.25,0.8032225740000001,0.01,0.0012207029999995456,-157687.0,0.0,0.0,-0.0,0.0,0.125,0.527343696,0.01,-0.0012207029999995456,18258.0,0.0,0.0,0.0,0.0,0.0,3.338622705,0.01,0.0,-32533.0,0.125,0.0,-0.0,0.0,0.25,1.651611159,0.01,0.0,0.3400000035762787,-0.38999998569488525,-104.05000305175781,-0.07403564453125,-0.014892578125,1.23797607421875,36.66999816894531,0.0,37.0,2.4904632568359375,-2.4664306640625,Closing,0.0,0.0,3.0,0.0,0.0,0.0,0.0,0.0,
0.3923040000000037,0.0,0.0,91318.0,0.0,0.0,0.0,0.0,0.125,0.806884683,0.01,0.0,-157687.0,0.0,0.0,-0.0,0.0,0.125,0.527343696,0.01,0.0,18258.0,0.0,0.0,0.0,0.0,0.0,3.339843408,0.01,-0.0012207030000004337,-32533.0,0.125,0.0,-0.0,0.0,0.25,1.651611159,0.01,0.0,0.3199999928474426,-0.4000000059604645,-104.05000305175781,-0.060302734375,0.03253173828125,1.1339111328125,36.66999816894531,0.0,-12.0,2.49078369140625,-2.466888427734375,Closing,0.0,0.0,3.0,0.0,0.0,0.0,0.0,0.125,
0.4491189999999915,0.0,0.0,91318.0,0.0,0.0,0.0,0.0,0.125,0.8032225740000001,0.01,0.0,-157687.0,0.0,0.0,-0.0,0.0,0.125,0.527343696,0.01,0.0,18258.0,0.0,0.0,0.0,0.0,0.0,3.338622705,0.01,0.0,-32533.0,0.125,0.0,-0.0,0.0,0.25,1.651611159,0.01,0.0,0.30000001192092896,-0.3499999940395355,-104.05000305175781,-0.02294921875,0.01788330078125,1.02374267578125,36.66999816894531,0.0,-7.0,2.490753173828125,-2.46722412109375,Closing,0.0,0.0,3.0,0.0,0.0,0.0,0.0,0.125,
0.5039860000000044,0.0,0.0,91318.0,0.0,0.0,0.0,0.0,0.25,0.808105386,0.01,0.0012207030000004337,-157687.0,0.0,0.0,-0.0,0.0,0.125,0.5285643990000001,0.01,0.0,18258.0,0.0,0.0,0.0,0.0,0.0,3.338622705,0.01,0.0012207030000004337,-32533.0,0.0,0.0,-0.0,0.0,0.25,1.651611159,0.01,0.0,0.33000001311302185,-0.3700000047683716,-104.05999755859375,-0.0548095703125,-0.01422119140625,1.11248779296875,36.66999816894531,0.0,31.0,2.4905853271484375,-2.467437744140625,Closing,0.0,0.0,3.0,0.0,0.0,0.0,0.0,0.0,
0.5566729999999952,0.0,0.0,91318.0,0.0,0.0,0.0,0.0,0.125,0.8032225740000001,0.01,-0.0024414059999999793,-157687.0,0.0,0.0,-0.0,0.0,0.125,0.527343696,0.01,0.0012207029999995456,18258.0,0.0,0.0,0.0,0.0,0.0,3.338622705,0.01,0.0,-32533.0,0.0,0.0,-0.0,0.0,0.25,1.651611159,0.01,0.0,0.3199999928474426,-0.3499999940395355,-104.05000305175781,-0.00140380859375,-0.018310546875,1.03271484375,36.66999816894531,0.0,22.0,2.490478515625,-2.46759033203125,Closing,0.0,0.0,3.0,0.0,0.0,0.0,0.0,0.125,
0.6145639999999984,0.0,0.0,91318.0,0.0,0.0,0.0,0.0,0.125,0.8020018710000001,0.01,0.0,-157687.0,0.0,0.0,-0.0,0.0,0.125,0.526122993,0.01,-0.0012207029999995456,18258.0,0.0,0.0,0.0,0.0,0.0,3.338622705,0.01,0.0,-32533.0,0.125,0.0,-0.0,0.0,0.25,1.652831862,0.01,0.0,0.3199999928474426,-0.3700000047683716,-104.05000305175781,-0.01446533203125,0.01116943359375,1.0869140625,36.66999816894531,0.0,-3.0,2.4904937744140625,-2.46759033203125,Closing,0.0,0.0,3.0,0.0,0.0,0.0,0.0,0.0,
0.6697719999999973,0.0,0.0,91318.0,0.0,0.0,0.0,0.0,0.125,0.8032225740000001,0.01,0.0024414059999999793,-157687.0,0.0,0.0,-0.0,0.0,0.125,0.527343696,0.01,0.0,18258.0,0.0,0.0,0.0,0.0,0.0,3.339843408,0.01,0.0,-32533.0,0.125,0.0,-0.0,0.0,0.25,1.651611159,0.01,0.0,0.3100000023841858,-0.36000001430511475,-104.05000305175781,0.02459716796875,0.01007080078125,1.03363037109375,36.66999816894531,0.0,-11.0,2.4906005859375,-2.4675750732421875,Closing,0.0,0.0,3.0,0.0,0.0,0.0,0.0,0.125,
0.7272700000000041,0.0,0.0,91318.0,0.0,0.0,0.0,0.0,0.25,0.8032225740000001,0.01,0.0,-157687.0,0.0,0.0,-0.0,0.0,0.125,0.527343696,0.01,0.0,18258.0,0.0,0.0,0.0,0.0,0.0,3.338622705,0.01,0.0,-32533.0,0.125,0.0,-0.0,0.0,0.25,1.651611159,0.01,0.0,0.30000001192092896,-0.3499999940395355,-104.05000305175781,0.01971435546875,0.01043701171875,0.98468017578125,36.66999816894531,0.0,-11.0,2.4906005859375,-2.4674835205078125,Closing,0.0,0.0,3.0,0.0,0.0,0.0,0.0,0.0,
0.7802119999999996,0.0,0.0,91318.0,0.0,0.0,0.0,0.0,0.25,0.8032225740000001,0.01,-0.0024414059999999793,-157687.0,0.0,0.0,-0.0,0.0,0.125,0.527343696,0.01,0.0012207029999995456,18258.0,0.0,0.0,0.0,0.0,0.0,3.338622705,0.01,0.0,-32533.0,0.0,0.0,-0.0,0.0,0.25,1.651611159,0.01,0.0,0.3100000023841858,-0.3499999940395355,-104.05999755859375,-0.0260009765625,-0.00921630859375,1.0103759765625,36.66999816894531,0.0,19.0,2.490753173828125,-2.4674224853515625,Closing,0.0,0.0,3.0,0.0,0.0,0.0,0.0,0.0,
0.8341520000000019,0.0,0.0,91318.0,0.0,0.0,0.0,0.0,0.25,0.806884683,0.01,0.0,-157687.0,0.0,0.0,-0.0,0.0,0.125,0.527343696,0.01,0.0,18258.0,0.0,0.0,0.0,0.0,0.0,3.339843408,0.01,0.0,-32533.0,0.125,0.0,-0.0,0.0,0.25,1.651611159,0.01,0.0,0.3100000023841858,-0.36000001430511475,-104.05999755859375,-0.00518798828125,-0.01458740234375,0.985595703125,36.66999816894531,0.0,19.0,2.4909515380859375,-2.4674224853515625,Closing,0.0,0.0,3.0,0.0,0.0,0.0,0.0,0.125,
0.8898969999999972,0.0,0.0,91318.0,0.0,0.0,0.0,0.0,0.125,0.8032225740000001,0.01,0.0,-157687.0,0.0,0.0,-0.0,0.0,0.125,0.527343696,0.01,-0.0012207029999995456,18258.0,0.0,0.0,0.0,0.0,0.0,3.338622705,0.01,-0.0012207030000004337,-32533.0,0.125,0.0,-0.0,0.0,0.25,1.651611159,0.01,0.0,0.30000001192092896,-0.3499999940395355,-104.05999755859375,3.662109375E-4,0.0084228515625,0.9884033203125,36.66999816894531,0.0,-4.0,2.4912567138671875,-2.467254638671875,Closing,0.0,0.0,3.0,0.0,0.0,0.0,0.0,0.0,
0.9464140000000043,0.0,0.0,91318.0,0.0,0.0,0.0,0.0,0.25,0.806884683,0.01,0.0,-157687.0,0.0,0.0,-0.0,0.0,0.125,0.527343696,0.01,0.0,18258.0,0.0,0.0,0.0,0.0,0.0,3.338622705,0.01,0.0012207030000004337,-32533.0,0.0,0.0,-0.0,0.0,0.25,1.651611159,0.01,0.0,0.30000001192092896,-0.3499999940395355,-104.05000305175781,0.00494384765625,0.05059814453125,1.034423828125,36.66999816894531,0.0,-46.0,2.491119384765625,-2.467254638671875,Closing,0.0,0.0,3.0,0.0,0.0,0.0,0.0,0.0,
0.997923999999999,0.0,0.0,91318.0,0.0,0.0,0.0,0.0,0.125,0.8032225740000001,0.01,0.0,-157687.0,0.0,0.0,-0.0,0.0,0.125,0.527343696,0.01,0.0012207029999995456,18258.0,0.0,0.0,0.0,0.0,0.0,3.338622705,0.01,0.0,-32533.0,0.125,0.0,-0.0,0.0,0.25,1.651611159,0.01,0.0,0.3100000023841858,-0.3499999940395355,-104.05999755859375,-0.01092529296875,0.0147705078125,1.01422119140625,36.66999816894531,0.0,-7.0,2.490966796875,-2.4672088623046875,Closing,0.0,0.0,3.0,0.0,0.0,0.0,0.0,0.0,
1.053872000000003,0.0,0.0,91318.0,0.0,0.0,0.0,0.0,0.125,0.808105386,0.01,0.0012207029999995456,-157687.0,0.0,0.0,-0.0,0.0,0.125,0.527343696,0.01,0.0,18258.0,0.0,0.0,0.0,0.0,0.0,3.338622705,0.01,0.0,-32533.0,0.125,0.0,-0.0,0.0,0.25,1.651611159,0.01,0.0,0.3100000023841858,-0.3499999940395355,-104.05999755859375,-0.0198974609375,-0.021484375,0.98736572265625,36.66999816894531,0.0,29.0,2.491058349609375,-2.4672698974609375,Closing,0.0,0.0,3.0,0.0,0.0,0.0,0.0,0.0,
1.1095099999999947,0.0,0.0,91318.0,0.0,0.0,0.0,0.0,0.125,0.808105386,0.01,-0.0012207029999995456,-157687.0,0.0,0.0,-0.0,0.0,0.125,0.527343696,0.01,-0.0012207029999995456,18258.0,0.0,0.0,0.0,0.0,0.0,3.338622705,0.01,0.0,-32533.0,0.125,0.0,-0.0,0.0,0.25,1.651611159,0.01,0.0,0.3100000023841858,-0.3400000035762787,-104.05999755859375,-0.01593017578125,-0.0093994140625,1.02618408203125,36.66999816894531,0.0,16.0,2.491729736328125,-2.4672698974609375,Closing,0.0,0.0,3.0,0.0,0.0,0.0,0.0,0.125,
1.1712649999999993,0.0,0.0,91318.0,0.0,0.0,0.0,0.0,0.125,0.8032225740000001,0.01,0.0012207029999995456,-157687.0,0.0,0.0,-0.0,0.0,0.125,0.527343696,0.01,0.0,18258.0,0.0,0.0,0.0,0.0,0.0,3.338622705,0.01,0.0,-32533.0,0.125,0.0,-0.0,0.0,0.25,1.651611159,0.01,0.0,0.3100000023841858,-0.3400000035762787,-104.05999755859375,0.0103759765625,0.03466796875,0.98834228515625,36.709999084472656,0.0,-32.0,2.49188232421875,-2.467193603515625,Closing,0.0,0.0,3.0,0.0,0.0,0.0,0.0,0.0,
1.2291419999999926,0.0,0.0,91318.0,0.0,0.0,0.0,0.0,0.25,0.8032225740000001,0.01,0.0,-157687.0,0.0,0.0,-0.0,0.0,0.125,0.527343696,0.01,0.0012207029999995456,18258.0,0.0,0.0,0.0,0.0,0.0,3.338622705,0.01,0.0,-32533.0,0.125,0.0,-0.0,0.0,0.25,1.651611159,0.01,0.0,0.3100000023841858,-0.3499999940395355,-104.05999755859375,0.00494384765625,0.02178955078125,1.02392578125,36.709999084472656,0.0,-18.0,2.4913177490234375,-2.467132568359375,Closing,0.0,0.0,3.0,0.0,0.0,0.0,0.0,0.0,
1.2847439999999914,0.0,0.0,91318.0,0.0,0.0,0.0,0.0,0.25,0.8032225740000001,0.01,0.0,-157687.0,0.0,0.0,-0.0,0.0,0.125,0.527343696,0.01,0.0,18258.0,0.0,0.0,0.0,0.0,0.0,3.339843408,0.01,0.0,-32533.0,0.125,0.0,-0.0,0.0,0.25,1.651611159,0.01,0.0,0.3100000023841858,-0.3400000035762787,-104.05999755859375,-0.03570556640625,-0.0142822265625,0.97271728515625,36.709999084472656,0.0,26.0,2.491363525390625,-2.4672088623046875,Closing,0.0,0.0,3.0,0.0,0.0,0.0,0.0,0.0,
1.347725999999995,0.0,0.0,91318.0,0.0,0.0,0.0,0.0,0.125,0.8020018710000001,0.01,-0.0012207029999995456,-157687.0,0.0,0.0,-0.0,0.0,0.125,0.527343696,0.01,-0.0012207029999995456,18258.0,0.0,0.0,0.0,0.0,0.0,3.338622705,0.01,0.0,-32533.0,0.0,0.0,-0.0,0.0,0.25,1.651611159,0.01,0.0,0.3199999928474426,-0.33000001311302185,-104.05999755859375,-0.01690673828125,-0.01153564453125,1.0244140625,36.709999084472656,0.0,19.0,2.4919586181640625,-2.46728515625,Closing,0.0,0.0,3.0,0.0,0.0,0.0,0.0,0.125,
1.401895000000004,0.0,0.0,91318.0,0.0,0.0,0.0,0.0,0.25,0.8032225740000001,0.01,0.0012207029999995456,-157687.0,0.0,0.0,-0.0,0.0,0.125,0.527343696,0.01,0.0,18258.0,0.0,0.0,0.0,0.0,0.0,3.339843408,0.01,0.0,-32533.0,0.125,0.0,-0.0,0.0,0.25,1.651611159,0.01,0.0,0.3100000023841858,-0.3499999940395355,-104.05999755859375,0.0238037109375,0.033935546875,1.0157470703125,36.709999084472656,0.0,-34.0,2.492156982421875,-2.46722412109375,Closing,0.0,0.0,3.0,0.0,0.0,0.0,0.0,0.0,
1.4560849999999919,0.0,0.0,91318.0,0.0,0.0,0.0,0.0,0.25,0.8020018710000001,0.01,-0.0012207029999995456,-157687.0,0.0,0.0,-0.0,0.0,0.125,0.527343696,0.01,0.0,18258.0,0.0,0.0,0.0,0.0,0.0,3.338622705,0.01,0.0,-32533.0,0.125,0.0,-0.0,0.0,0.25,1.652831862,0.01,0.0,0.30000001192092896,-0.3400000035762787,-104.05999755859375,0.0069580078125,0.046142578125,1.043212890625,36.709999084472656,0.0,-42.0,2.49188232421875,-2.4671478271484375,Closing,0.0,0.0,3.0,0.0,0.0,0.0,0.0,0.0,
1.5157149999999966,0.0,0.0,91318.0,0.0,0.0,0.0,0.0,0.25,0.8032225740000001,0.01,0.0024414059999999793,-157687.0,0.0,0.0,-0.0,0.0,0.125,0.527343696,0.01,0.0,18258.0,0.0,0.0,0.0,0.0,0.0,3.338622705,0.01,0.0,-32533.0,0.125,0.0,-0.0,0.0,0.25,1.652831862,0.01,0.0,0.30000001192092896,-0.3400000035762787,-104.05999755859375,0.003173828125,0.0218505859375,1.01092529296875,36.709999084472656,0.0,-18.0,2.49151611328125,-2.4671478271484375,Closing,0.0,0.0,3.0,0.0,0.0,0.0,0.0,0.125,
1.5725479999999952,0.0,0.0,91318.0,0.0,0.0,0.0,0.0,0.25,0.8032225740000001,0.01,0.0,-157687.0,0.0,0.0,-0.0,0.0,0.125,0.527343696,0.01,0.0,18258.0,0.0,0.0,0.0,0.0,0.0,3.338622705,0.01,0.0,-32533.0,0.0,0.0,-0.0,0.0,0.25,1.651611159,0.01,0.0,0.3100000023841858,-0.3400000035762787,-104.05999755859375,-0.02197265625,-0.02581787109375,1.02496337890625,36.709999084472656,0.0,34.0,2.49169921875,-2.4673309326171875,Closing,0.0,0.0,3.0,0.0,0.0,0.0,0.0,0.0,
1.627952999999994,0.0,0.0,91318.0,0.0,0.0,0.0,0.0,0.25,0.8032225740000001,0.01,0.0,-157687.0,0.0,0.0,-0.0,0.0,0.125,0.527343696,0.01,0.0,18258.0,0.0,0.0,0.0,0.0,0.0,3.338622705,0.01,0.0,-32533.0,0.125,0.0,-0.0,0.0,0.25,1.651611159,0.01,0.0,0.3100000023841858,-0.3400000035762787,-104.05999755859375,-0.00274658203125,-0.00592041015625,1.03948974609375,36.709999084472656,0.0,10.0,2.4920654296875,-2.4673309326171875,Closing,0.0,0.0,3.0,0.0,0.0,0.0,0.0,0.125,
1.6790069999999977,0.0,0.0,91318.0,0.0,0.0,0.0,0.0,0.25,0.8032225740000001,0.01,0.0,-157687.0,0.0,0.0,-0.0,0.0,0.125,0.527343696,0.01,0.0,18258.0,0.0,0.0,0.0,0.0,0.0,3.338622705,0.01,0.0012207030000004337,-32533.0,0.125,0.0,-0.0,0.0,0.25,1.651611159,0.01,0.0,0.3100000023841858,-0.3400000035762787,-104.05999755859375,-0.00775146484375,0.019287109375,1.01739501953125,36.70000076293945,0.0,-12.0,2.4918975830078125,-2.467193603515625,Closing,0.0,0.0,3.0,0.0,0.0,0.0,0.0,0.0,
1.733398000000001,0.0,0.0,91318.0,0.0,0.0,0.0,0.0,0.25,0.8032225740000001,0.01,0.0,-157687.0,0.0,0.0,-0.0,0.0,0.125,0.526122993,0.01,0.0,18258.0,0.0,0.0,0.0,0.0,0.0,3.339843408,0.01,-0.0012207030000004337,-32533.0,0.125,0.0,-0.0,0.0,0.25,1.651611159,0.01,0.0,0.3100000023841858,-0.3499999940395355,-104.05999755859375,0.016357421875,0.01214599609375,0.9949951171875,36.70000076293945,0.0,-11.0,2.4914398193359375,-2.4671783447265625,Closing,0.0,0.0,3.0,0.0,0.0,0.0,0.0,0.125,
1.788899000000005,0.0,0.0,91318.0,0.0,0.0,0.0,0.0,0.25,0.8020018710000001,0.01,0.0,-157687.0,0.0,0.0,-0.0,0.0,0.125,0.527343696,0.01,0.0,18258.0,0.0,0.0,0.0,0.0,0.0,3.338622705,0.01,0.0,-32533.0,0.125,0.0,-0.0,0.0,0.25,1.652831862,0.01,0.0,0.3100000023841858,-0.3400000035762787,-104.05999755859375,-0.03106689453125,-0.017578125,0.97637939453125,36.70000076293945,0.0,28.0,2.4914703369140625,-2.4671630859375,Closing,0.0,0.0,3.0,0.0,0.0,0.0,0.0,0.125,
1.845301999999996,0.0,0.0,91318.0,0.0,0.0,0.0,0.0,0.25,0.8032225740000001,0.01,-0.0012207029999995456,-157687.0,0.0,0.0,-0.0,0.0,0.125,0.527343696,0.01,0.0,18258.0,0.0,0.0,0.0,0.0,0.0,3.338622705,0.01,0.0012207030000004337,-32533.0,0.125,0.0,-0.0,0.0,0.25,1.651611159,0.01,0.0,0.3100000023841858,-0.3400000035762787,-104.05999755859375,-0.00811767578125,-0.0067138671875,1.02349853515625,36.70000076293945,0.0,12.0,2.4920196533203125,-2.4672088623046875,Closing,0.0,0.0,3.0,0.0,0.0,0.0,0.0,0.0,
1.8967839999999996,0.0,0.0,91318.0,0.0,0.0,0.0,0.0,0.25,0.806884683,0.01,0.0,-157687.0,0.0,0.0,-0.0,0.0,0.125,0.527343696,0.01,0.0,18258.0,0.0,0.0,0.0,0.0,0.0,3.338622705,0.01,0.0,-32533.0,0.125,0.0,-0.0,0.0,0.25,1.651611159,0.01,0.0,0.3100000023841858,-0.3400000035762787,-104.05999755859375,0.00115966796875,0.01446533203125,0.9970703125,36.70000076293945,0.0,-10.0,2.491912841796875,-2.4670867919921875,Closing,0.0,0.0,3.0,0.0,0.0,0.0,0.0,0.0,
1.9530010000000038,0.0,0.0,91318.0,0.0,0.0,0.0,0.0,0.25,0.806884683,0.01,0.0,-157687.0,0.0,0.0,-0.0,0.0,0.125,0.527343696,0.01,0.0,18258.0,0.0,0.0,0.0,0.0,0.0,3.338622705,0.01,-0.0012207030000004337,-32533.0,0.125,0.0,-0.0,0.0,0.25,1.652831862,0.01,0.0,0.30000001192092896,-0.3400000035762787,-104.05999755859375,-0.00408935546875,0.017333984375,1.0235595703125,36.70000076293945,0.0,-12.0,2.4915313720703125,-2.4670867919921875,Closing,0.0,0.0,3.0,0.0,0.0,0.0,0.0,0.0,
2.009358999999997,0.0,0.0,91318.0,0.0,0.0,0.0,0.0,0.25,0.8032225740000001,0.01,0.003662108999999525,-157687.0,0.0,0.0,-0.0,0.0,0.125,0.527343696,0.01,0.0,18258.0,0.0,0.0,0.0,0.0,0.0,3.338622705,0.01,0.0,-32533.0,0.0,0.0,-0.0,0.0,0.25,1.652831862,0.01,0.0,0.3100000023841858,-0.3400000035762787,-104.05999755859375,-0.037109375,-0.0159912109375,0.9847412109375,36.70000076293945,0.0,28.0,2.491546630859375,-2.46710205078125,Closing,0.0,0.0,3.0,0.0,0.0,0.0,0.0,0.125,
2.0661419999999926,0.0,0.0,91318.0,0.0,0.0,0.0,0.0,0.25,0.8032225740000001,0.01,-0.003662108999999525,-157687.0,0.0,0.0,-0.0,0.0,0.125,0.527343696,0.01,0.0,18258.0,0.0,0.0,0.0,0.0,0.0,3.338622705,0.01,0.0012207030000004337,-32533.0,0.0,0.0,-0.0,0.0,0.25,1.651611159,0.01,0.0,0.3100000023841858,-0.3400000035762787,-104.05999755859375,-0.009765625,-0.01409912109375,1.0245361328125,36.70000076293945,0.0,19.0,2.4920501708984375,-2.467254638671875,Closing,0.0,0.0,3.0,0.0,0.0,0.0,0.0,0.125,
2.1191809999999967,0.0,0.0,91318.0,0.0,0.0,0.0,0.0,0.25,0.8020018710000001,0.01,0.0,-157687.0,0.0,0.0,-0.0,0.0,0.125,0.527343696,0.01,0.0,18258.0,0.0,0.0,0.0,0.0,0.0,3.338622705,0.01,-0.0012207030000004337,-32533.0,0.0,0.0,-0.0,0.0,0.25,1.651611159,0.01,0.0,0.30000001192092896,-0.33000001311302185,-104.05999755859375,0.0059814453125,0.02099609375,0.99163818359375,36.70000076293945,0.0,-18.0,2.4919586181640625,-2.46710205078125,Closing,0.0,0.0,3.0,0.0,0.0,0.0,0.0,0.0,
2.1759900000000054,0.0,0.0,91318.0,0.125,0.0,-238.1102353334427,0.0,0.125,0.806884683,4.932250999999998,0.0,-157687.0,0.25,0.0,238.1102353334427,0.0,0.125,0.52490229,4.963769999999998,0.0,18257.0,0.125,0.0,-238.1102353334427,0.0,0.0,3.338622705,0.01,0.0,-32533.0,0.375,0.0,238.1102353334427,0.0,0.25,1.651611159,0.01,0.0,0.30000001192092896,-0.3400000035762787,-104.05999755859375,-0.0035400390625,0.0079345703125,0.98895263671875,36.689998626708984,0.0,-3.0,2.4914398193359375,-2.46710205078125,Closing,0.0,0.0,3.0,0.0,0.0,0.0,0.0,0.0,
2.234923999999999,0.0,0.0,91318.0,0.125,0.0,-496.06298089027405,0.0,0.125,0.8044432770000001,4.932250999999998,0.0,-157687.0,0.75,0.0,496.06298089027405,0.0,0.125,0.527343696,4.963769999999998,0.0,18257.0,0.375,-15.0,-496.06298089027405,0.0,0.0,3.338622705,0.01,0.0,-32533.0,0.875,0.0,496.06298089027405,0.0,0.25,1.646728347,0.01,0.0,0.30000001192092896,-0.36000001430511475,-104.05000305175781,-0.0806884765625,0.01519775390625,1.01568603515625,36.689998626708984,0.0,8.0,2.49151611328125,-2.467315673828125,Closing,0.0,0.0,3.0,0.0,0.0,0.0,0.0,0.125,
2.2901870000000053,0.0,0.0,91318.0,0.75,-15.0,-505.9842360019683,0.0,0.125,0.806884683,4.932250999999998,0.0,-157682.0,2.25,30.0,505.9842360019683,0.0,0.125,0.527343696,4.963769999999998,0.0,18236.0,0.875,-82.5,-505.9842360019683,0.0,0.0,3.331298487,0.01,0.0,-32533.0,1.875,0.0,505.9842360019683,0.0,0.25,1.6369627230000001,0.01,0.0,0.3100000023841858,-0.44999998807907104,-104.05999755859375,-0.07122802734375,-0.00494384765625,1.02978515625,36.689998626708984,0.0,25.0,2.4919891357421875,-2.4682159423828125,Closing,0.0,0.0,3.0,0.0,0.0,0.0,0.0,0.125,
2.3467309999999997,0.0,0.0,91309.0,1.0,-52.5,-416.69290244579315,0.0,0.125,0.8032225740000001,4.932250999999998,0.0,-157682.0,2.375,37.5,416.69290244579315,0.0,0.125,0.527343696,4.963769999999998,0.0,18236.0,1.25,-157.5,-416.69290244579315,0.0,0.0,3.334960596,0.01,0.0,-32533.0,2.25,0.0,416.69290244579315,0.0,0.125,1.6320799110000002,0.01,0.0,0.30000001192092896,-0.6100000143051147,-103.94000244140625,0.03155517578125,0.02923583984375,1.0277099609375,36.689998626708984,0.0,-33.0,2.49273681640625,-2.4703826904296875,Closing,0.0,0.0,3.0,0.0,0.0,0.0,0.0,0.0,
2.3989639999999928,0.0,0.0,91309.0,1.25,-75.0,-377.00788199901575,0.0,0.125,0.806884683,4.932250999999998,0.0,-157674.0,2.125,45.0,377.00788199901575,0.0,0.125,0.527343696,4.963769999999998,0.0,18236.0,0.625,-127.5,-377.00788199901575,0.0,0.0,3.34472622,0.01,0.0,-32533.0,2.375,0.0,377.00788199901575,0.0,0.125,1.625976396,0.01,0.0,0.28999999165534973,-0.6100000143051147,-103.91000366210938,-0.037109375,-0.01544189453125,0.940185546875,36.689998626708984,0.0,26.0,2.493072509765625,-2.472869873046875,Closing,0.0,0.0,3.0,0.0,0.0,0.0,0.0,0.0,
2.4544679999999937,0.0,0.0,91293.0,1.375,-97.5,-377.00788199901575,0.0,0.25,0.8032225740000001,4.932250999999998,0.0,-157674.0,2.25,82.5,377.00788199901575,0.0,0.125,0.522460884,4.963769999999998,0.0,18220.0,1.75,-82.5,-377.00788199901575,0.0,0.0,3.338622705,0.01,0.0,-32533.0,2.0,90.0,377.00788199901575,0.0,0.125,1.627197099,0.01,0.0,0.3100000023841858,-0.6600000262260437,-103.94000244140625,-0.03125,0.01318359375,1.0172119140625,36.689998626708984,0.0,-2.0,2.4933013916015625,-2.47515869140625,Closing,0.0,0.0,3.0,0.0,0.0,0.0,0.0,0.0,
2.509671000000002,0.0,0.0,91293.0,1.375,-97.5,-377.00788199901575,0.0,0.25,0.808105386,4.932250999999998,0.0,-157654.0,3.375,120.0,377.00788199901575,0.0,0.125,0.522460884,4.963769999999998,0.0,18220.0,1.75,-82.5,-377.00788199901575,0.0,0.0,3.348388329,0.01,0.0,-32506.0,1.875,180.0,377.00788199901575,0.0,0.125,1.6088865540000001,0.01,0.0,0.30000001192092896,-0.7699999809265137,-103.97000122070312,-0.01416015625,0.0198974609375,1.06744384765625,36.689998626708984,0.0,-13.0,2.4934234619140625,-2.47882080078125,Closing,0.0,0.0,3.0,0.0,0.0,0.0,0.0,0.0,
2.5734309999999967,0.0,0.0,91268.0,1.875,-120.0,-515.9055286645889,0.0,0.125,0.794677653,4.932250999999998,0.0,-157654.0,4.375,142.5,515.9055286645889,0.0,0.125,0.498046824,4.963769999999998,-0.008544921000000372,18206.0,2.375,-90.0,-515.9055286645889,0.0,0.0,3.353271141,0.01,0.0,-32506.0,2.375,157.5,515.9055286645889,0.0,0.25,1.6076658510000001,0.01,0.0,0.3100000023841858,-0.8999999761581421,-103.97000122070312,-0.1202392578125,0.0089111328125,0.94830322265625,36.689998626708984,0.0,21.0,2.4934539794921875,-2.4835662841796875,Closing,0.0,0.0,3.0,0.0,0.0,0.0,0.0,0.0,
2.629798999999999,0.0,0.0,91268.0,2.625,-180.0,-545.6692939996719,0.0,0.25,0.8044432770000001,4.932250999999998,0.0,-157618.0,5.375,195.0,545.6692939996719,0.0,0.0,0.498046824,4.963769999999998,0.0,18206.0,3.0,-127.5,-545.6692939996719,0.0,0.0,3.352050438,0.01,0.0,-32478.0,2.875,180.0,545.6692939996719,0.0,0.25,1.594238118,0.01,0.0,0.28999999165534973,-1.1299999952316284,-103.94999694824219,-0.03826904296875,0.0859375,0.9176025390625,36.689998626708984,0.0,-73.0,2.49365234375,-2.4899139404296875,Closing,0.0,0.0,3.0,0.0,0.0,0.0,0.0,0.125,
2.6902599999999945,0.0,0.0,91223.0,3.5,-247.5,-555.5905491113663,0.0,0.25,0.8032225740000001,4.932250999999998,0.0,-157618.0,5.75,255.0,555.5905491113663,0.0,0.0,0.468749952,4.963769999999998,0.0,18176.0,3.625,-202.5,-555.5905491113663,0.0,0.0,3.359374656,0.01,0.0,-32478.0,3.625,255.0,555.5905491113663,0.0,0.25,1.589355306,0.01,0.0,0.2800000011920929,-1.309999942779541,-103.93000030517578,-0.20941162109375,0.112548828125,0.921875,36.689998626708984,0.0,-59.0,2.49346923828125,-2.495758056640625,Closing,0.0,0.0,3.0,0.0,0.0,0.0,0.0,0.125,
2.747895000000004,0.0,0.0,91223.0,3.375,-322.5,-585.3543144464493,0.0,0.25,0.808105386,4.932250999999998,0.0,-157558.0,5.625,345.0,585.3543144464493,0.0,0.25,0.458984328,4.963769999999998,0.0,18176.0,3.75,-285.0,-585.3543144464493,0.0,0.0,3.3642574680000004,0.01,0.0,-32424.0,3.375,352.5,585.3543144464493,0.0,0.25,1.590576009,0.01,0.0,0.3199999928474426,-1.5299999713897705,-103.94999694824219,-0.05670166015625,0.04888916015625,1.03582763671875,36.650001525878906,0.0,-34.0,2.493377685546875,-2.5062255859375,Closing,0.0,0.0,3.0,0.0,0.0,0.0,0.0,0.125,
2.8018500000000057,0.0,0.0,91155.0,3.125,-375.0,-625.0393724441528,0.0,0.25,0.8032225740000001,4.932250999999998,0.0,-157558.0,5.5,405.0,625.0393724441528,0.0,0.25,0.45410151600000004,4.963769999999998,0.0,18118.0,3.625,-345.0,-625.0393724441528,0.0,0.0,3.3679195770000003,0.01,0.0,-32424.0,3.5,390.0,625.0393724441528,0.0,0.25,1.589355306,0.01,0.0,0.3199999928474426,-1.7000000476837158,-103.97000122070312,-0.18707275390625,-0.00115966796875,0.81195068359375,36.650001525878906,0.0,44.0,2.4930572509765625,-2.5184783935546875,Closing,0.0,0.0,3.0,0.0,0.0,0.0,0.0,0.125,
2.855455000000002,0.0,0.0,91155.0,3.5,-457.5,-625.0393724441528,0.0,0.25,0.7885741380000001,4.932250999999998,0.0,-157558.0,5.25,487.5,625.0393724441528,0.0,0.25,0.45410151600000004,4.963769999999998,0.0,18118.0,3.875,-382.5,-625.0393724441528,0.0,0.0,3.3715816860000003,0.01,0.0,-32347.0,3.5,457.5,625.0393724441528,0.0,0.25,1.589355306,0.01,0.0,0.36000001430511475,-2.0399999618530273,-103.9800033569336,-0.09661865234375,-0.0421142578125,0.88482666015625,36.650001525878906,0.0,62.0,2.4931182861328125,-2.53271484375,Closing,0.0,0.0,3.0,0.0,0.0,0.0,0.0,0.0,
2.914923999999999,0.0,0.0,91155.0,3.0,-532.5,-634.9606275558472,0.0,0.125,0.8032225740000001,4.932250999999998,-0.02075195100000027,-157473.0,4.5,555.0,634.9606275558472,0.0,0.25,0.45166011,4.963769999999998,0.0,18055.0,4.0,-405.0,-634.9606275558472,0.0,0.0,3.3630367650000004,0.01,0.0,-32347.0,3.125,547.5,634.9606275558472,0.0,0.25,1.5869139,0.01,0.0,0.3400000035762787,-2.140000104904175,-103.9800033569336,-0.07177734375,0.05767822265625,1.29754638671875,36.650001525878906,0.0,-42.0,2.4940643310546875,-2.5479278564453125,Closing,0.0,0.0,3.0,0.0,0.0,0.0,0.0,0.0,
2.972929999999993,0.0,0.0,91065.0,2.875,-570.0,-634.9606275558472,0.0,0.25,0.808105386,4.932250999999998,0.0,-157473.0,4.125,592.5,634.9606275558472,0.0,0.25,0.45410151600000004,4.963769999999998,0.0,18055.0,4.375,-457.5,-634.9606275558472,0.0,0.0,3.3728023890000003,0.01,0.0,-32253.0,3.0,577.5,634.9606275558472,0.0,0.25,1.589355306,0.01,0.0,0.3700000047683716,-2.069999933242798,-104.05999755859375,-0.05401611328125,-0.009765625,0.6607666015625,36.650001525878906,0.0,20.0,2.4944915771484375,-2.559722900390625,Closing,0.0,0.0,3.0,0.0,0.0,0.0,0.0,0.0,
3.030332999999999,0.0,0.0,91065.0,2.75,-600.0,-634.9606275558472,0.0,0.25,0.806884683,4.932250999999998,0.0,-157372.0,3.375,637.5,634.9606275558472,0.0,0.25,0.45532221900000003,4.963769999999998,0.0,17962.0,3.75,-547.5,-634.9606275558472,0.0,0.0,3.3728023890000003,0.01,0.0,-32253.0,2.75,600.0,634.9606275558472,0.0,0.25,1.589355306,0.01,0.0,0.3199999928474426,-2.130000114440918,-104.12000274658203,-0.08428955078125,-0.014404296875,0.80548095703125,36.650001525878906,0.0,31.0,2.495147705078125,-2.576446533203125,Closing,0.0,0.0,3.0,0.0,0.0,0.0,0.0,0.0,
3.088187999999995,0.0,0.0,90962.0,2.5,-645.0,-644.8818826675414,0.0,0.25,0.797119059,4.932250999999998,0.0,-157372.0,3.0,675.0,644.8818826675414,0.0,0.25,0.45532221900000003,4.963769999999998,0.0,17962.0,3.125,-645.0,-644.8818826675414,0.0,0.0,3.3728023890000003,0.01,0.0,-32148.0,2.5,660.0,644.8818826675414,0.0,0.25,1.5795896820000002,0.01,0.0,0.36000001430511475,-2.1600000858306885,-104.11000061035156,-0.118896484375,-0.0078125,1.14056396484375,36.650001525878906,0.0,33.0,2.49676513671875,-2.5948638916015625,Closing,0.0,0.0,3.0,0.0,0.0,0.0,0.0,0.0,
3.145775999999998,0.0,0.0,90962.0,2.0,-675.0,-664.7243928909302,0.0,0.25,0.798339762,4.932250999999998,0.0,-157259.0,2.625,705.0,664.7243928909302,0.0,0.25,0.45410151600000004,4.963769999999998,0.0,17851.0,2.875,-682.5,-664.7243928909302,0.0,0.0,3.3715816860000003,0.01,0.0,-32148.0,2.625,667.5,664.7243928909302,0.0,0.25,1.589355306,0.01,0.0,0.4300000071525574,-2.2100000381469727,-104.12000274658203,1.8310546875E-4,-0.02001953125,1.1697998046875,36.650001525878906,0.0,16.0,2.4992218017578125,-2.6144866943359375,Closing,0.0,0.0,3.0,0.0,0.0,0.0,0.0,0.0,
3.201929999999993,0.0,0.0,90850.0,1.875,-705.0,-684.5669031143188,0.0,0.125,0.79345695,4.932250999999998,0.0,-157259.0,2.5,720.0,684.5669031143188,0.0,0.25,0.45410151600000004,4.963769999999998,0.0,17851.0,2.875,-705.0,-684.5669031143188,0.0,0.0,3.3728023890000003,0.01,0.0,-32033.0,2.625,675.0,684.5669031143188,0.0,0.25,1.589355306,0.01,0.0,0.41999998688697815,-2.190000057220459,-104.1500015258789,-0.05633544921875,0.12103271484375,1.03741455078125,36.650001525878906,0.0,-105.0,2.49981689453125,-2.633514404296875,Closing,0.0,0.0,3.0,0.0,0.0,0.0,0.0,0.0,
3.260846000000005,0.0,0.0,90850.0,1.875,-712.5,-724.2519986629486,0.0,0.125,0.79345695,4.932250999999998,0.0,-157142.0,2.5,727.5,724.2519986629486,0.0,0.25,0.45532221900000003,4.963769999999998,0.0,17736.0,2.75,-720.0,-724.2519986629486,0.0,0.0,3.3679195770000003,0.01,0.0,-32033.0,2.5,712.5,724.2519986629486,0.0,0.25,1.589355306,0.01,0.0,0.46000000834465027,-2.109999895095825,-104.22000122070312,-0.05511474609375,-0.0565185546875,1.005859375,36.650001525878906,0.0,67.0,2.499176025390625,-2.6526336669921875,Closing,0.0,0.0,3.0,0.0,0.0,0.0,0.0,0.125,
3.315906999999992,0.0,0.0,90735.0,2.0,-720.0,-734.173253774643,0.0,0.25,0.79345695,4.932250999999998,-0.0012207030000004337,-157142.0,2.375,750.0,734.173253774643,0.0,0.25,0.45410151600000004,4.963769999999998,0.0,17736.0,3.0,-720.0,-734.173253774643,0.0,0.0,3.3679195770000003,0.01,0.0,-32033.0,2.625,735.0,734.173253774643,0.0,0.25,1.593017415,0.01,0.0,0.41999998688697815,-2.190000057220459,-104.27999877929688,0.0325927734375,0.02813720703125,1.23602294921875,36.650001525878906,0.0,-38.0,2.4992828369140625,-2.66693115234375,Closing,0.0,0.0,3.0,0.0,0.0,0.0,0.0,0.0,
3.3732350000000006,0.0,0.0,90735.0,1.875,-735.0,-734.173253774643,0.0,0.25,0.794677653,4.932250999999998,0.0,-157019.0,2.125,765.0,734.173253774643,0.0,0.25,0.45288081300000005,4.963769999999998,0.0012207029999995456,17616.0,2.75,-727.5,-734.173253774643,0.0,0.0,3.3679195770000003,0.01,0.0012207029999999897,-31916.0,2.625,742.5,734.173253774643,0.0,0.25,1.59912093,0.01,0.0,0.4000000059604645,-2.109999895095825,-104.3499984741211,-0.00689697265625,0.06927490234375,1.15875244140625,36.650001525878906,0.0,-68.0,2.49884033203125,-2.68585205078125,Closing,0.0,0.0,3.0,0.0,0.0,0.0,0.0,0.125,
3.4336499999999943,0.0,0.0,90616.0,2.0,-742.5,-763.937019109726,0.0,0.25,0.79345695,4.932250999999998,0.0,-156894.0,2.125,780.0,763.937019109726,0.0,0.25,0.46142573400000003,4.963769999999998,0.0,17616.0,2.625,-772.5,-763.937019109726,0.0,0.0,3.3679195770000003,0.01,0.0,-31792.0,2.375,772.5,763.937019109726,0.0,0.25,1.593017415,0.01,0.0,0.4000000059604645,-2.0299999713897705,-104.55999755859375,0.0035400390625,-0.01953125,1.12945556640625,36.650001525878906,0.0,15.0,2.4981842041015625,-2.7222900390625,Closing,0.0,0.0,3.0,0.0,0.0,0.0,0.0,0.0,
3.5510209999999933,0.0,0.0,90492.0,1.625,-787.5,-793.700784444809,0.0,0.25,0.799560465,4.932250999999998,0.0,-156764.0,2.125,802.5,793.700784444809,0.0,0.25,0.47851557600000005,4.963769999999998,0.0,17492.0,2.75,-780.0,-793.700784444809,0.0,0.0,3.3630367650000004,0.01,0.0,-31668.0,2.5,780.0,793.700784444809,0.0,0.25,1.59912093,0.01,0.0,0.33000001311302185,-1.9500000476837158,-104.54000091552734,-0.0072021484375,0.05914306640625,0.78936767578125,36.650001525878906,0.0,-57.0,2.4987945556640625,-2.756561279296875,Closing,0.0,0.0,3.0,0.0,0.0,0.0,0.0,0.0,
3.6849389999999986,0.0,0.0,90362.0,1.875,-817.5,-863.1495702266693,0.0,0.25,0.809326089,4.932250999999998,0.0,-156764.0,2.375,810.0,863.1495702266693,0.0,0.25,0.477294873,4.963769999999998,0.0,17365.0,2.75,-817.5,-863.1495702266693,0.0,0.0,3.3679195770000003,0.01,0.0,-31542.0,2.875,772.5,863.1495702266693,0.0,0.25,1.593017415,0.01,0.0,0.3499999940395355,-1.9500000476837158,-104.37000274658203,-0.10479736328125,-0.0740966796875,0.880126953125,36.650001525878906,0.0,95.0,2.49896240234375,-2.760833740234375,Closing,0.0,0.0,3.0,0.0,0.0,0.0,0.0,0.0,
3.7662360000000046,0.0,0.0,90225.0,2.0,-847.5,-922.6771759986877,0.0,0.25,0.806884683,4.932250999999998,0.0,-156634.0,2.875,825.0,922.6771759986877,0.0,0.25,0.477294873,4.963769999999998,0.0,17230.0,3.25,-847.5,-922.6771759986877,0.0,0.0,3.3630367650000004,0.01,0.0,-31542.0,3.25,810.0,922.6771759986877,0.0,0.25,1.593017415,0.01,0.0,0.3700000047683716,-1.9700000286102295,-104.22000122070312,-0.00823974609375,0.0123291015625,0.9989013671875,36.619998931884766,0.0,-12.0,2.4998779296875,-2.7613067626953125,Closing,0.0,0.0,3.0,0.0,0.0,0.0,0.0,0.0,
3.8466670000000014,0.0,0.0,90225.0,2.25,-870.0,-952.4409413337708,0.0,0.125,0.806884683,4.932250999999998,0.0,-156495.0,2.875,870.0,952.4409413337708,0.0,0.25,0.47851557600000005,4.963769999999998,0.0,17092.0,3.375,-862.5,-952.4409413337708,0.0,0.0,3.3630367650000004,0.01,0.0,-31408.0,3.375,847.5,952.4409413337708,0.0,0.25,1.591796712,0.01,0.0,0.3700000047683716,-1.9299999475479126,-104.16000366210938,-0.03411865234375,0.0118408203125,1.010498046875,36.619998931884766,0.0,-5.0,2.4999237060546875,-2.7613525390625,Closing,0.0,0.0,3.0,0.0,0.0,0.0,0.0,0.0,
3.9283099999999975,0.0,0.0,90083.0,2.25,-892.5,-952.4409413337708,0.0,0.25,0.806884683,4.932250999999998,0.0,-156351.0,3.0,892.5,952.4409413337708,0.0,0.25,0.48706049700000004,4.963769999999998,0.0,17092.0,3.375,-892.5,-952.4409413337708,0.0,0.0,3.3618160620000004,0.01,0.0,-31270.0,3.375,862.5,952.4409413337708,0.0,0.25,1.593017415,0.01,0.0,0.36000001430511475,-2.009999990463257,-104.11000061035156,-0.00634765625,-0.0308837890625,1.139404296875,36.619998931884766,0.0,28.0,2.5001220703125,-2.7616424560546875,Closing,0.0,0.0,3.0,0.0,0.0,0.0,0.0,0.0,
4.003747999999993,0.0,0.0,89935.0,1.875,-922.5,-972.2834515571594,0.0,0.25,0.806884683,4.932250999999998,0.0,-156351.0,3.0,900.0,972.2834515571594,0.0,0.25,0.47851557600000005,4.963769999999998,0.0,16944.0,3.25,-922.5,-972.2834515571594,0.0,0.0,3.3679195770000003,0.01,0.0,-31270.0,3.375,907.5,972.2834515571594,0.0,0.25,1.59912093,0.01,0.0,0.3400000035762787,-2.0399999618530273,-104.08000183105469,-7.9345703125E-4,0.0191650390625,1.01837158203125,36.619998931884766,0.0,-21.0,2.5005645751953125,-2.7627716064453125,Closing,0.0,0.0,3.0,0.0,0.0,0.0,0.0,0.0,
4.076168000000005,0.0,0.0,89783.0,2.0,-937.5,-972.2834515571594,0.0,0.25,0.7885741380000001,4.932250999999998,0.0,-156198.0,2.625,975.0,972.2834515571594,0.0,0.25,0.47851557600000005,4.963769999999998,0.0,16790.0,3.0,-967.5,-972.2834515571594,0.0,0.0,3.3715816860000003,0.01,0.0,-31120.0,3.125,945.0,972.2834515571594,0.0,0.25,1.585693197,0.01,0.0,0.38999998569488525,-2.049999952316284,-104.26000213623047,-7.9345703125E-4,-0.00299072265625,0.95721435546875,36.619998931884766,0.0,1.0,2.5019989013671875,-2.7649993896484375,Closing,0.0,0.0,3.0,0.0,0.0,0.0,0.0,0.0,
4.246259999999995,0.0,0.0,89625.0,1.875,-997.5,-972.2834515571594,0.0,0.25,0.8044432770000001,4.932250999999998,0.0,-155880.0,2.25,1005.0,972.2834515571594,0.0,0.25,0.47851557600000005,4.963769999999998,0.0,16633.0,2.75,-975.0,-972.2834515571594,0.0,0.0,3.3679195770000003,0.01,0.0,-30807.0,2.875,982.5,972.2834515571594,0.0,0.25,1.597900227,0.01,0.0,0.33000001311302185,-1.940000057220459,-104.44999694824219,-0.008544921875,0.02984619140625,0.73602294921875,36.58000183105469,0.0,-28.0,2.505218505859375,-2.7642669677734375,Closing,0.0,0.0,3.0,0.0,0.0,0.0,0.0,0.0,
4.424017999999997,0.0,0.0,89306.0,1.625,-997.5,-982.2047066688536,0.0,0.25,0.79345695,4.932250999999998,0.0,-155718.0,1.875,1012.5,982.2047066688536,0.0,0.25,0.47851557600000005,4.963769999999998,0.0,16317.0,2.625,-997.5,-982.2047066688536,0.0,0.0,3.3630367650000004,0.01,0.0,-30482.0,2.375,1005.0,982.2047066688536,0.0,0.25,1.59912093,0.01,0.0,0.38999998569488525,-1.8300000429153442,-104.61000061035156,-0.02960205078125,-0.057861328125,0.861328125,36.58000183105469,0.0,62.0,2.5067138671875,-2.763031005859375,Closing,0.0,0.0,3.0,0.0,0.0,0.0,0.0,0.0,
4.592614000000001,0.0,0.0,89144.0,1.25,-1012.5,-982.2047066688536,0.0,0.25,0.780029217,4.932250999999998,0.0,-155556.0,1.625,1012.5,982.2047066688536,0.0,0.25,0.47851557600000005,4.963769999999998,0.0,16154.0,2.375,-1005.0,-982.2047066688536,0.0,0.0,3.348388329,0.01,0.0,-30320.0,2.375,1012.5,982.2047066688536,0.0,0.25,1.594238118,0.01,0.0,0.4300000071525574,-1.7200000286102295,-104.63999938964844,0.05426025390625,-0.05133056640625,0.81182861328125,36.58000183105469,0.0,35.0,2.50830078125,-2.7611846923828125,Closing,0.0,0.0,3.0,0.0,0.0,0.0,0.0,0.0,
4.735744999999995,0.0,0.0,88981.0,1.25,-1012.5,-982.2047066688536,0.0,0.25,0.798339762,4.932250999999998,0.0,-155232.0,1.5,1005.0,982.2047066688536,0.0,0.25,0.47851557600000005,4.963769999999998,0.0,15832.0,2.125,-1005.0,-982.2047066688536,0.0,0.0,3.338622705,0.01,0.0,-30159.0,2.375,997.5,982.2047066688536,0.0,0.25,1.593017415,0.01,0.0,0.4099999964237213,-1.7300000190734863,-104.48999786376953,-0.06170654296875,0.080810546875,1.00933837890625,36.54999923706055,0.0,-63.0,2.5096588134765625,-2.756622314453125,Closing,0.0,0.0,3.0,0.0,0.0,0.0,0.0,0.0,
4.878096999999994,0.0,0.0,88818.0,1.0,-1012.5,-992.1259617805481,0.0,0.25,0.79345695,4.932250999999998,0.008544921000000372,-155232.0,1.5,1005.0,992.1259617805481,0.0,0.25,0.47973627900000004,4.963769999999998,0.0,15832.0,2.125,-990.0,-992.1259617805481,0.0,0.0,3.348388329,0.01,0.0,-30002.0,2.625,982.5,992.1259617805481,0.0,0.25,1.59912093,0.01,0.0,0.4000000059604645,-1.6699999570846558,-104.41000366210938,-0.11993408203125,0.0355224609375,1.1107177734375,36.54999923706055,0.0,-5.0,2.5101165771484375,-2.754913330078125,Closing,0.0,0.0,3.0,0.0,0.0,0.0,0.0,0.125,
4.949153999999995,0.0,0.0,88818.0,1.25,-1012.5,-1002.0472168922424,0.0,0.125,0.8032225740000001,4.932250999999998,0.0,-155070.0,1.5,1005.0,1002.0472168922424,0.0,0.25,0.47851557600000005,4.963769999999998,0.0,15673.0,2.375,-997.5,-1002.0472168922424,0.0,0.0,3.343505517,0.01,0.0,-30002.0,2.75,975.0,1002.0472168922424,0.0,0.25,1.597900227,0.01,0.0,0.46000000834465027,-1.5499999523162842,-104.37000274658203,-0.0406494140625,-0.04949951171875,1.3468017578125,36.54999923706055,0.0,59.0,2.510894775390625,-2.7544403076171875,Closing,0.0,0.0,3.0,0.0,0.0,0.0,0.0,0.125,
5.004740999999995,0.0,0.0,88658.0,1.25,-997.5,-1002.0472168922424,0.0,0.25,0.79345695,4.932250999999998,0.0,-155070.0,1.5,997.5,1002.0472168922424,0.0,0.25,0.47851557600000005,4.963769999999998,0.0,15673.0,2.375,-997.5,-1002.0472168922424,0.0,0.0,3.343505517,0.01,0.0,-29842.0,2.625,997.5,1002.0472168922424,0.0,0.25,1.594238118,0.01,0.0,0.3700000047683716,-1.590000033378601,-104.3499984741211,-0.08441162109375,0.1170654296875,1.1717529296875,36.54999923706055,0.0,-93.0,2.5125579833984375,-2.7540740966796875,Closing,0.0,0.0,3.0,0.0,0.0,0.0,0.0,0.125,
5.058952000000005,0.0,0.0,88658.0,1.25,-982.5,-1002.0472168922424,0.0,0.25,0.79345695,4.932250999999998,0.0,-154911.0,1.625,997.5,1002.0472168922424,0.0,0.25,0.47851557600000005,4.963769999999998,0.0,15513.0,2.625,-990.0,-1002.0472168922424,0.0,0.0,3.342284814,0.01,0.0,-29842.0,2.625,1005.0,1002.0472168922424,0.0,0.25,1.59912093,0.01,0.0,0.3499999940395355,-1.559999942779541,-104.30999755859375,-0.05426025390625,0.0467529296875,0.9827880859375,36.54999923706055,0.0,-32.0,2.51483154296875,-2.75347900390625,Closing,0.0,0.0,3.0,0.0,0.0,0.0,0.0,0.125,
5.111773000000001,0.0,0.0,88500.0,1.375,-990.0,-1002.0472168922424,0.0,0.25,0.79345695,4.932250999999998,0.0,-154911.0,1.5,1005.0,1002.0472168922424,0.0,0.25,0.47973627900000004,4.963769999999998,0.0,15513.0,2.375,-997.5,-1002.0472168922424,0.0,0.0,3.343505517,0.01,0.0,-29842.0,2.625,997.5,1002.0472168922424,0.0,0.25,1.59912093,0.01,0.0,0.4000000059604645,-1.5299999713897705,-104.30000305175781,-0.07135009765625,-0.0205078125,1.1004638671875,36.54999923706055,0.0,37.0,2.5173797607421875,-2.7530670166015625,Closing,0.0,0.0,3.0,0.0,0.0,0.0,0.0,0.0,
5.169251000000004,0.0,0.0,88500.0,1.625,-982.5,-1002.0472168922424,0.0,0.125,0.79345695,4.932250999999998,0.0,-154750.0,1.5,1005.0,1002.0472168922424,0.0,0.25,0.47851557600000005,4.963769999999998,0.0,15513.0,2.125,-1020.0,-1002.0472168922424,0.0,0.0,3.350829735,0.01,0.0,-29682.0,2.375,997.5,1002.0472168922424,0.0,0.25,1.59912093,0.01,0.0,0.4300000071525574,-1.5299999713897705,-104.3499984741211,-0.05328369140625,0.04669189453125,1.28240966796875,36.54999923706055,0.0,-31.0,2.51922607421875,-2.7524566650390625,Closing,0.0,0.0,3.0,0.0,0.0,0.0,0.0,0.125,
5.231467999999993,0.0,0.0,88343.0,1.375,-975.0,-1002.0472168922424,0.0,0.25,0.79345695,4.932250999999998,0.0,-154750.0,1.5,1005.0,1002.0472168922424,0.0,0.25,0.47851557600000005,4.963769999999998,0.0,15349.0,2.375,-1012.5,-1002.0472168922424,0.0,0.0,3.34472622,0.01,0.0,-29682.0,2.25,1020.0,1002.0472168922424,0.0,0.25,1.591796712,0.01,0.0,0.44999998807907104,-1.4800000190734863,-104.43000030517578,6.103515625E-4,0.04119873046875,1.11846923828125,36.54999923706055,0.0,-38.0,2.5216522216796875,-2.752166748046875,Closing,0.0,0.0,3.0,0.0,0.0,0.0,0.0,0.125,
5.289902000000001,0.0,0.0,88343.0,1.375,-975.0,-902.8346657752991,0.0,0.25,0.79345695,4.932250999999998,0.0,-154587.0,1.25,1012.5,902.8346657752991,0.0,0.25,0.48095698200000003,4.963769999999998,0.0,15190.0,1.875,-997.5,-902.8346657752991,0.0,0.0,3.348388329,0.01,0.0,-29519.0,2.0,1005.0,902.8346657752991,0.0,0.25,1.594238118,0.01,0.0,0.4300000071525574,-1.399999976158142,-104.44999694824219,-0.05145263671875,0.0042724609375,1.10089111328125,36.54999923706055,0.0,10.0,2.5238037109375,-2.751739501953125,Closing,0.0,0.0,3.0,0.0,0.0,0.0,0.0,0.125,
5.348740999999994,0.0,0.0,88189.0,0.75,-960.0,-823.464549779892,0.0,0.25,0.79345695,4.932250999999998,0.0,-154587.0,0.75,990.0,823.464549779892,0.0,0.25,0.47851557600000005,4.963769999999998,0.0,15190.0,1.25,-997.5,-823.464549779892,0.0,0.0,3.343505517,0.01,0.0,-29519.0,1.5,967.5,823.464549779892,0.0,0.25,1.597900227,0.01,0.0,0.41999998688697815,-1.2699999809265137,-104.47000122070312,0.0469970703125,-0.0540771484375,1.1434326171875,36.54999923706055,0.0,42.0,2.5256500244140625,-2.7506561279296875,Closing,0.0,0.0,3.0,0.0,0.0,0.0,0.0,0.0,
5.409850999999995,0.0,0.0,88189.0,0.375,-937.5,-587.4145973059378,0.0,0.375,0.783691326,4.746827967951364,0.0,-154438.0,1.0,930.0,907.7128440157273,0.0,0.25,0.468749952,4.843666819581098,0.0,15038.0,0.625,-990.0,-587.4145973059378,0.0,0.125,3.347167626,0.1857293855347347,0.0,-29366.0,1.625,945.0,907.7128440157273,0.0,0.375,1.6027830390000002,0.11996356972964414,0.0,0.4399999976158142,-1.1399999856948853,-104.58000183105469,0.0594482421875,-0.1082763671875,1.103759765625,36.54999923706055,0.0,92.0,2.527679443359375,-2.7484893798828125,Closing,0.0,0.0,3.0,0.0,0.0,0.0,0.0,0.0,
5.468296999999992,0.0,0.0,88049.0,0.125,-847.5,-499.0225012403127,0.0,0.625,0.715331958,4.532628339270381,0.0,-154438.0,1.375,915.0,1041.5541607225898,0.0,0.25,0.429687456,4.777578676862178,0.0,15038.0,0.375,-907.5,-499.0225012403127,0.0,0.5,3.460693005,0.40028291201494287,0.0,-29366.0,2.0,945.0,1041.5541607225898,0.0,0.375,1.666259595,0.18597489007696236,0.0,0.3799999952316284,-0.9399999976158142,-104.79000091552734,0.02764892578125,0.097900390625,0.95843505859375,36.54999923706055,0.0,-99.0,2.5298309326171875,-2.7449798583984375,Closing,0.0,0.0,3.0,0.0,0.0,0.0,0.0,0.0,
5.533103999999992,0.0,0.0,88049.0,0.125,-757.5,-484.9798811413285,0.0,0.375,0.5017089330000001,4.499951613518333,0.0,-154275.0,1.5,997.5,1046.618107168569,0.0,0.25,0.371093712,4.770279741619966,0.0,14923.0,0.375,-780.0,-484.9798811413285,0.0,0.375,3.6267086130000004,0.433013625821968,0.0,-29209.0,2.75,982.5,1046.618107168569,0.0,0.375,1.749267399,0.19326534086958252,0.0,0.4300000071525574,-0.8299999833106995,-105.37000274658203,0.0035400390625,-0.024658203125,1.11956787109375,36.54999923706055,0.0,26.0,2.5311431884765625,-2.739990234375,Closing,0.0,0.0,3.0,0.0,0.0,0.0,0.0,0.0,
5.591486000000004,0.0,0.0,87945.0,0.125,-652.5,-475.68913865803296,0.0,0.375,0.367431603,4.448510283467543,0.0,-154275.0,1.5,1042.5,1076.1820471185413,0.0,0.25,0.321044889,4.759683452844922,0.0,14923.0,0.375,-660.0,-475.68913865803296,0.0,0.25,3.752441022,0.4845399465592784,0.0,-29209.0,2.625,997.5,1076.1820471185413,0.0,0.25,1.8115232520000002,0.2038493122757248,0.0,0.3499999940395355,-0.44999998807907104,-107.08999633789062,0.03411865234375,-0.029296875,1.37762451171875,36.54999923706055,0.0,22.0,2.5322113037109375,-2.7329254150390625,Closing,0.0,0.0,3.0,0.0,0.0,0.0,0.0,0.125,
5.649930999999997,0.0,0.0,87945.0,0.125,-607.5,-460.8705384038675,0.0,0.25,0.300292938,4.384579034586827,0.0,-154112.0,1.5,1020.0,1096.3732809946052,0.0,0.125,0.295410126,4.747741537150784,0.0,14831.0,0.375,-577.5,-460.8705384038675,0.0,0.25,3.8500972620000002,0.5485768218055487,0.0,-29046.0,2.625,1050.0,1096.3732809946052,0.0,0.25,1.8444822330000001,0.21577734641339383,0.0,0.23000000417232513,-0.1899999976158142,-109.6500015258789,-0.04656982421875,-0.0853271484375,1.1015625,36.54999923706055,0.0,99.0,2.5341796875,-2.7235107421875,Closing,0.0,0.0,3.0,0.0,0.0,0.0,0.0,0.125,
5.710853000000003,0.0,0.0,87856.0,0.375,-517.5,-445.84678921417384,0.0,0.25,0.25146481800000003,4.362131524414017,0.0,-154112.0,1.375,1110.0,1077.2813520508328,0.0,0.0,0.291748017,4.7438118836086165,0.0,14831.0,0.375,-585.0,-445.84678921417384,0.0,0.125,3.9001460850000003,0.5710614194583754,0.0,-28875.0,2.375,1080.0,1077.2813520508328,0.0,0.125,1.8444822330000001,0.21970243203623033,0.0,0.009999999776482582,-0.05999999865889549,-112.30999755859375,0.002685546875,-0.01971435546875,0.88629150390625,36.54999923706055,0.0,17.0,2.5377197265625,-2.7131195068359375,Closing,0.0,0.0,3.0,0.0,0.0,0.0,0.0,0.0,
5.7773199999999925,0.0,0.0,87856.0,0.375,-450.0,-431.2128432229677,0.0,0.25,0.241699194,4.338139667603973,-0.04394530799999963,-153936.0,1.375,1087.5,1058.2170392211588,0.0,0.0,0.29052731400000004,4.739740536907648,0.0,14747.0,0.375,-562.5,-431.2128432229677,0.0,0.0,3.927001551,0.5950929152975654,0.0,-28875.0,2.625,1042.5,1058.2170392211588,0.0,0.125,1.849365045,0.22376904611049236,0.0,-0.1899999976158142,0.20000000298023224,-115.4800033569336,0.10162353515625,-0.01641845703125,0.8193359375,36.54999923706055,0.0,-30.0,2.5427398681640625,-2.698516845703125,Closing,0.0,0.0,3.0,0.0,0.0,0.0,0.0,0.0,
5.836539999999993,0.0,0.0,87795.0,0.75,-375.0,-417.0097400447789,0.0,0.25,0.23193357,4.312488154737783,0.0,-153936.0,1.875,997.5,1039.1818624011157,0.0,0.0,0.29052731400000004,4.735519921164549,0.0,14747.0,0.625,-427.5,-417.0097400447789,0.0,0.0,3.9331050660000004,0.6207868092547314,0.0,-28718.0,3.0,997.5,1039.1818624011157,0.0,0.125,1.8420408270000002,0.22798475571313084,0.0,-0.20000000298023224,0.27000001072883606,-117.94999694824219,0.0465087890625,-0.02001953125,0.97088623046875,36.54999923706055,0.0,-5.0,2.5464324951171875,-2.685577392578125,Closing,0.0,0.0,3.0,0.0,0.0,0.0,0.0,0.125,
5.894876999999993,0.0,0.0,87795.0,0.75,-360.0,-383.69745467797435,0.0,0.25,0.228271461,4.2403291952419515,0.0,-153781.0,2.25,960.0,991.732394026628,0.0,0.125,0.29052731400000004,4.724260690652539,0.0,14687.0,0.875,-367.5,-383.69745467797435,0.0,0.0,3.9428706900000003,0.6930649888309953,0.0,-28718.0,3.25,945.0,991.732394026628,0.0,0.125,1.8444822330000001,0.23923089823757226,0.0,-0.23000000417232513,0.25,-119.72000122070312,-0.00286865234375,-0.01116943359375,0.99163818359375,36.54999923706055,0.0,57.0,2.550384521484375,-2.6822509765625,Closing,0.0,0.0,3.0,0.0,0.0,0.0,0.0,0.125,
5.953760999999998,0.0,0.0,87741.0,0.75,-330.0,-342.3195654429775,0.0,0.5,0.17089842,4.060698602343474,0.0,-153781.0,2.375,922.5,931.5953734489207,0.0,0.25,0.29052731400000004,4.698779245057374,0.0,14687.0,0.875,-375.0,-342.3195654429775,0.0,0.25,3.9929195130000004,0.8729923650240632,0.0,-28718.0,3.125,900.0,931.5953734489207,0.0,0.25,1.8444822330000001,0.26468272361643247,0.0,-0.30000001192092896,0.20999999344348907,-122.05999755859375,0.07794189453125,-0.02716064453125,0.922607421875,36.54999923706055,0.0,-20.0,2.55364990234375,-2.682281494140625,Closing,0.0,0.0,3.0,0.0,0.0,0.0,0.0,0.125,
6.014656000000003,0.0,0.0,87741.0,1.25,-322.5,-405.00552251747735,0.0,3.625,4.932860823,3.140404319671277,0.0,-153638.0,1.625,885.0,555.3308938456014,0.0,0.25,0.266113254,4.501610336468943,0.0,14630.0,0.875,-367.5,-405.00552251747735,0.0,2.125,4.196776914,1.7948071457628623,0.0,-28575.0,2.125,892.5,555.3308938456014,0.0,0.625,1.874999808,0.46162243854710905,0.0,-0.3100000023841858,0.2199999988079071,-124.45999908447266,-0.01690673828125,0.00360107421875,1.0211181640625,36.54999923706055,0.0,4.0,2.555755615234375,-2.6821746826171875,Closing,0.0,0.0,3.0,0.0,0.0,0.0,0.0,0.125,
6.072850999999995,0.0,0.0,87688.0,1.875,-330.0,-475.78125,0.0,4.875,4.506835476,3.0159423668524887,0.0,-153638.0,0.625,787.5,475.78125,0.0,0.5,0.18432615300000002,4.410439589772222,0.0,14630.0,1.25,-360.0,-475.78125,0.0,3.5,4.617919449,1.9194747329772885,0.0,-28575.0,0.75,825.0,475.78125,0.0,0.625,1.979980266,0.5526872062785588,0.0,-0.3400000035762787,0.3400000035762787,-126.94999694824219,0.120849609375,-0.06231689453125,1.091064453125,36.54999923706055,0.0,-24.0,2.5557861328125,-2.68194580078125,Closing,0.0,0.0,3.0,0.0,0.0,0.0,0.0,0.0,
6.134009999999995,0.0,0.0,87688.0,2.75,-277.5,-475.78125,0.0,1.25,4.047851148,3.0159423668524887,0.0,-153524.0,0.25,697.5,475.78125,0.0,0.25,0.08544921,4.410439589772222,0.0,14566.0,1.875,-382.5,-475.78125,0.0,1.25,0.137939439,1.9194747329772885,0.0,-28452.0,0.75,712.5,475.78125,0.0,0.375,2.094726348,0.5526872062785588,0.0,-0.5299999713897705,0.8700000047683716,-130.5399932861328,0.22900390625,0.02667236328125,1.0999755859375,36.54999923706055,0.0,-166.0,2.554595947265625,-2.6773681640625,Closing,0.0,0.0,3.0,0.0,0.0,0.0,0.0,0.125,
6.194273000000001,0.0,0.0,87647.0,2.75,-247.5,-344.53125,0.0,0.5,3.702392199,3.0159423668524887,0.0,-153524.0,0.25,772.5,344.53125,0.0,0.25,4.921874496,4.410439589772222,0.0,14566.0,1.25,-405.0,-344.53125,0.0,0.5,0.48706049700000004,1.9194747329772885,0.0,-28342.0,0.5,697.5,344.53125,0.0,0.375,2.1655271220000003,0.5526872062785588,0.0,-0.6299999952316284,1.399999976158142,-133.7100067138672,0.27801513671875,0.0289306640625,0.8505859375,36.54999923706055,0.0,-205.0,2.550262451171875,-2.670135498046875,Closing,0.0,0.0,3.0,0.0,0.0,0.0,0.0,0.125,
6.260202000000005,0.0,0.0,87647.0,2.125,-345.0,-328.125,0.0,0.375,3.6340328310000003,3.0159423668524887,0.0,-153411.0,0.25,682.5,328.125,0.0,0.0,4.8632807520000005,4.410439589772222,0.0,14499.0,0.875,-412.5,-328.125,0.0,0.25,0.548095647,1.9194747329772885,0.0,-28342.0,0.375,652.5,328.125,0.0,0.25,2.189941182,0.5526872062785588,0.0,-0.6499999761581421,1.850000023841858,-136.67999267578125,0.12030029296875,0.07464599609375,0.793701171875,36.540000915527344,0.0,-126.0,2.541778564453125,-2.6605682373046875,Closing,0.0,0.0,3.0,0.0,0.0,0.0,0.0,0.0,
6.325702000000005,0.0,0.0,87583.0,1.25,-412.5,-328.125,0.0,0.375,3.6877437630000003,3.0159423668524887,0.0,-153411.0,0.125,487.5,328.125,0.0,0.25,4.825438959,4.410439589772222,0.0,14499.0,0.625,-420.0,-328.125,0.0,0.25,0.50048823,1.9194747329772885,0.0,-28275.0,0.5,480.0,328.125,0.0,0.25,2.189941182,0.5526872062785588,0.0,-0.7099999785423279,2.0199999809265137,-139.02000427246094,0.039794921875,-0.03607177734375,1.042236328125,36.540000915527344,0.0,12.0,2.5335845947265625,-2.6527252197265625,Closing,0.0,0.0,3.0,0.0,0.0,0.0,0.0,0.125,
6.389034,0.0,0.0,87583.0,1.0,-442.5,-328.125,0.0,0.375,3.770751567,3.0159423668524887,0.0,-153356.0,0.75,300.0,328.125,0.0,0.25,4.825438959,4.410439589772222,0.0,14436.0,0.625,-397.5,-328.125,0.0,0.25,0.41381831700000005,1.9194747329772885,0.0,-28275.0,1.5,322.5,328.125,0.0,0.25,2.188720479,0.5526872062785588,0.0,-0.7699999809265137,1.8300000429153442,-140.74000549316406,-0.10797119140625,-0.02191162109375,1.0142822265625,36.540000915527344,0.0,113.0,2.5342254638671875,-2.6533355712890625,Closing,0.0,0.0,3.0,0.0,0.0,0.0,0.0,0.125,
6.44725,0.0,0.0,87519.0,1.25,-382.5,-328.125,0.0,0.375,3.8342281230000004,3.0159423668524887,0.0,-153356.0,1.75,180.0,328.125,0.0,0.25,4.825438959,4.410439589772222,0.0,14436.0,0.875,-315.0,-328.125,0.0,0.125,0.35034176100000003,1.9194747329772885,0.0,-28241.0,2.375,210.0,328.125,0.0,0.25,2.188720479,0.5526872062785588,0.0,-0.7900000214576721,1.409999966621399,-142.0500030517578,-0.11614990234375,0.057373046875,0.90924072265625,36.540000915527344,0.0,66.0,2.53704833984375,-2.65582275390625,Closing,0.0,0.0,3.0,0.0,0.0,0.0,0.0,0.0,
6.5043940000000005,0.0,0.0,87519.0,2.5,-262.5,-492.18749999999994,0.0,0.25,3.8330074200000004,3.0159423668524887,0.0,-153326.0,2.375,225.0,492.18749999999994,0.0,0.25,4.825438959,4.410439589772222,0.0,14399.0,2.125,-232.5,-492.18749999999994,0.0,0.125,0.33081051300000003,1.9194747329772885,0.0,-28241.0,3.125,225.0,492.18749999999994,0.0,0.25,2.189941182,0.5526872062785588,0.0,-0.6800000071525574,1.1399999856948853,-143.22999572753906,0.0076904296875,-0.02978515625,0.89447021484375,36.540000915527344,0.0,19.0,2.5412750244140625,-2.6609039306640625,Closing,0.0,0.0,3.0,0.0,0.0,0.0,0.0,0.0,
6.561216,0.0,0.0,87482.0,3.875,-232.5,-508.59375,0.0,0.25,3.85742148,3.0159423668524887,0.0,-153326.0,2.5,412.5,508.59375,0.0,0.25,4.854735831,4.410439589772222,0.0,14399.0,2.875,-217.5,-508.59375,0.0,0.0,0.324706998,1.9194747329772885,0.0,-28199.0,4.25,255.0,508.59375,0.0,0.25,2.189941182,0.5526872062785588,0.0,-0.6600000262260437,1.159999966621399,-144.82000732421875,0.10650634765625,-0.03070068359375,1.0811767578125,36.540000915527344,0.0,-58.0,2.5458526611328125,-2.6667938232421875,Closing,0.0,0.0,3.0,0.0,0.0,0.0,0.0,0.0,
6.621949999999997,0.0,0.0,87482.0,4.0,-292.5,-508.59375,0.0,0.25,3.862304292,3.0159423668524887,0.0,-153259.0,2.125,412.5,508.59375,0.0,0.25,4.871825673,4.410439589772222,0.0,14348.0,3.75,-277.5,-508.59375,0.0,0.0,0.324706998,1.9194747329772885,0.0,-28199.0,3.625,270.0,508.59375,0.0,0.25,2.189941182,0.5526872062785588,0.0,-0.7300000190734863,1.25,-147.07000732421875,-0.0408935546875,0.065185546875,1.15118408203125,36.540000915527344,0.0,11.0,2.5503997802734375,-2.6719970703125,Closing,0.0,0.0,3.0,0.0,0.0,0.0,0.0,0.0,
6.6794229999999954,0.0,0.0,87417.0,3.25,-412.5,-508.59375,0.0,0.375,3.867187104,3.0159423668524887,0.0,-153259.0,2.125,367.5,508.59375,0.0,0.25,4.887694812,4.410439589772222,0.0,14348.0,2.5,-397.5,-508.59375,0.0,0.0,0.324706998,1.9194747329772885,0.0,-28132.0,3.625,360.0,508.59375,0.0,0.25,2.189941182,0.5526872062785588,0.0,-0.7400000095367432,1.090000033378601,-149.8699951171875,-0.11163330078125,0.05206298828125,1.1790771484375,36.540000915527344,0.0,82.0,2.5556182861328125,-2.6781005859375,Closing,0.0,0.0,3.0,0.0,0.0,0.0,0.0,0.0,
6.748119999999996,0.0,0.0,87417.0,2.75,-487.5,-508.59375,0.0,0.25,3.862304292,3.0159423668524887,0.0,-153188.0,1.875,457.5,508.59375,0.0,0.25,4.887694812,4.410439589772222,0.0,14269.0,2.375,-480.0,-508.59375,0.0,0.0,0.324706998,1.9194747329772885,0.0,-28132.0,3.25,442.5,508.59375,0.0,0.25,2.188720479,0.5526872062785588,0.0,-0.6899999976158142,0.9200000166893005,-153.02000427246094,0.03460693359375,0.06488037109375,1.0118408203125,36.540000915527344,0.0,-51.0,2.5616455078125,-2.6858062744140625,Closing,0.0,0.0,3.0,0.0,0.0,0.0,0.0,0.0,
6.805421000000002,0.0,0.0,87332.0,2.375,-532.5,-508.59375,0.0,0.25,3.859862886,3.0159423668524887,0.0,-153188.0,1.5,525.0,508.59375,0.0,0.25,4.887694812,4.410439589772222,0.0,14269.0,1.75,-510.0,-508.59375,0.0,0.0,0.324706998,1.9194747329772885,0.0,-28053.0,2.875,495.0,508.59375,0.0,0.25,2.189941182,0.5526872062785588,0.0,-0.7300000190734863,0.9800000190734863,-156.35000610351562,-0.015869140625,0.0390625,0.9986572265625,36.52000045776367,0.0,9.0,2.56768798828125,-2.6938934326171875,Closing,0.0,0.0,3.0,0.0,0.0,0.0,0.0,0.0,
6.865944000000003,0.0,0.0,87332.0,2.0,-562.5,-508.59375,0.0,0.25,3.862304292,3.0159423668524887,0.0,-153102.0,1.25,525.0,508.59375,0.0,0.25,4.887694812,4.410439589772222,0.0,14181.0,1.75,-540.0,-508.59375,0.0,0.0,0.325927701,1.9194747329772885,0.0,-28053.0,2.5,532.5,508.59375,0.0,0.25,2.188720479,0.5526872062785588,0.0,-0.7300000190734863,0.8899999856948853,-159.75999450683594,-0.01776123046875,-0.01416015625,1.006591796875,36.52000045776367,0.0,31.0,2.5743865966796875,-2.702545166015625,Closing,0.0,0.0,3.0,0.0,0.0,0.0,0.0,0.0,
6.926922999999995,0.0,0.0,87241.0,1.625,-570.0,-508.59375,0.0,0.375,3.862304292,3.0159423668524887,0.0,-153102.0,1.125,532.5,508.59375,0.0,0.25,4.888915515,4.410439589772222,0.0,14181.0,1.0,-562.5,-508.59375,0.0,0.0,0.319824186,1.9194747329772885,0.0,-27963.0,2.375,547.5,508.59375,0.0,0.25,2.188720479,0.5526872062785588,0.0,-0.6700000166893005,0.800000011920929,-164.1300048828125,0.011962890625,-0.00909423828125,0.914794921875,36.52000045776367,0.0,0.0,2.58392333984375,-2.7148284912109375,Closing,0.0,0.0,3.0,0.0,0.0,0.0,0.0,0.0,
6.990282999999996,0.0,0.0,87241.0,1.375,-570.0,-508.59375,0.0,0.375,3.861083589,3.0159423668524887,0.0,-153013.0,0.875,570.0,508.59375,0.0,0.25,4.893798327,4.410439589772222,0.0,14091.0,1.0,-562.5,-508.59375,0.0,0.0,0.311279265,1.9194747329772885,0.0,-27963.0,2.25,540.0,508.59375,0.0,0.25,2.189941182,0.5526872062785588,0.0,-0.6700000166893005,0.6899999976158142,-167.66000366210938,-0.01226806640625,0.00860595703125,1.1614990234375,36.52000045776367,0.0,20.0,2.5918731689453125,-2.725799560546875,Closing,0.0,0.0,3.0,0.0,0.0,0.0,0.0,0.0,
7.055536999999997,0.0,0.0,87149.0,1.25,-570.0,-508.59375,0.0,0.375,3.852538668,3.0159423668524887,0.0,-153013.0,0.75,577.5,508.59375,0.0,0.25,4.887694812,4.410439589772222,0.0,14091.0,1.0,-562.5,-508.59375,0.0,0.0,0.31616207700000004,1.9194747329772885,0.0,-27875.0,2.375,540.0,508.59375,0.0,0.25,2.189941182,0.5526872062785588,0.0,-0.7300000190734863,0.5899999737739563,-171.16000366210938,0.00518798828125,0.04315185546875,1.106201171875,36.52000045776367,0.0,-2.0,2.6001129150390625,-2.731536865234375,Closing,0.0,0.0,3.0,0.0,0.0,0.0,0.0,0.0,
7.113399999999994,0.0,0.0,87149.0,1.25,-570.0,-508.59375,0.0,0.25,3.858642183,3.0159423668524887,0.0,-152921.0,0.75,555.0,508.59375,0.0,0.25,4.888915515,4.410439589772222,0.0,14000.0,0.875,-570.0,-508.59375,0.0,0.0,0.314941374,1.9194747329772885,0.0,-27875.0,2.125,547.5,508.59375,0.0,0.25,2.191161885,0.5526872062785588,0.0,-0.6600000262260437,0.5199999809265137,-174.67999267578125,-0.00848388671875,0.03839111328125,1.1229248046875,36.52000045776367,0.0,13.0,2.6063385009765625,-2.7319488525390625,Closing,0.0,0.0,3.0,0.0,0.0,0.0,0.0,0.0,
7.169168000000005,0.0,0.0,87057.0,1.25,-570.0,-508.59375,0.0,0.25,3.85742148,3.0159423668524887,0.0,-152921.0,0.75,547.5,508.59375,0.0,0.25,4.888915515,4.410439589772222,0.0,14000.0,0.875,-562.5,-508.59375,0.0,0.0,0.314941374,1.9194747329772885,0.0,-27789.0,2.125,547.5,508.59375,0.0,0.25,2.191161885,0.5526872062785588,0.0,-0.6600000262260437,0.47999998927116394,-177.2899932861328,0.04913330078125,-0.01409912109375,1.06085205078125,36.52000045776367,0.0,-40.0,2.6064910888671875,-2.7327117919921875,Closing,0.0,0.0,3.0,0.0,0.0,0.0,0.0,0.0,
7.228830000000002,0.0,0.0,87057.0,1.0,-562.5,-508.59375,0.0,0.25,3.856200777,3.0159423668524887,0.0,-152833.0,0.75,547.5,508.59375,0.0,0.125,4.886474109,4.410439589772222,0.0,13912.0,0.875,-547.5,-508.59375,0.0,0.0,0.314941374,1.9194747329772885,0.0,-27789.0,2.125,547.5,508.59375,0.0,0.25,2.189941182,0.5526872062785588,0.0,-0.6800000071525574,0.4000000059604645,179.27000427246094,-0.0523681640625,0.01800537109375,1.15472412109375,36.52000045776367,0.0,60.0,2.606964111328125,-2.7340087890625,Closing,0.0,0.0,3.0,0.0,0.0,0.0,0.0,0.125,
7.291326000000001,0.0,0.0,86968.0,0.25,-540.0,0.0,0.0,0.25,3.853759371,3.0159423668524887,0.0,-152833.0,0.25,525.0,0.0,0.0,0.25,4.893798327,4.410439589772222,0.0,13912.0,0.25,-532.5,0.0,0.0,0.0,0.306396453,1.9194747329772885,0.0,-27713.0,0.625,517.5,0.0,0.0,0.25,2.189941182,0.5526872062785588,0.0,-0.6499999761581421,0.3100000023841858,175.10000610351562,0.0238037109375,-0.058349609375,0.99224853515625,36.529998779296875,0.0,-22.0,2.6086273193359375,-2.73583984375,Closing,0.0,0.0,3.0,0.0,0.0,0.0,0.0,0.125,
