Time,ClimberA1,ClimberA2,FRpos,FRCurrent,FRspeed,FRsetpoint,FRApos,FRACurrent,FREncpos,FREncSetpoint,FREncSpeed,FLpos,FLCurrent,FLspeed,FLsetpoint,FLApos,FLACurrent,FLEncpos,FLEncSetpoint,FLEncSpeed,BRpos,BRCurrent,BRspeed,BRsetpoint,BRApos,BRACurrent,BREncpos,BREncSetpoint,BREncSpeed,BLpos,BLCurrent,BLspeed,BLsetpoint,BLApos,BLACurrent,BLEncpos,BLEncSetpoint,BLEncSpeed,navx_Pitch,navx_Roll,navx_Yaw,navx_XAcc,navx_YAcc,navx_ZAcc,navx_Temp,navx_Bar,navx_Alt,navx_XDis,navx_YDis,GearPlacerState,ShootOutputV,ShootOutputCurrent,ShootEncPos,ShootEncVelocity,ShootSpeed,ShootSetpoint,CarouselSetpoint,CarouselCurrent,
0.15630599999999686,0.0,0.0,81919.0,0.0,0.0,NaN,0.0,0.25,0.241699194,NaN,0.0,-149583.0,0.0,0.0,NaN,0.0,0.0,4.877929188,NaN,0.0,11727.0,0.0,0.0,NaN,0.0,0.0,2.7880856520000004,NaN,0.0,-21811.0,0.125,0.0,NaN,0.0,0.125,0.991210836,NaN,0.0,0.3799999952316284,-0.6399999856948853,-94.36000061035156,-0.01104736328125,0.006591796875,1.02093505859375,36.650001525878906,0.0,0.0,1.605926513671875,-1.8795318603515625,Closing,0.0,0.0,3.0,0.0,0.0,0.0,0.0,0.125,
0.31684699999999427,0.0,0.0,81919.0,0.0,0.0,0.0,0.0,2.5,0.37475582100000004,0.01,0.0,-149583.0,0.0,0.0,-0.0,0.0,2.875,0.020751951,0.01,0.0,11727.0,0.0,0.0,0.0,0.0,2.125,2.924804388,0.01,0.0,-21812.0,0.125,0.0,-0.0,0.0,3.375,1.207275267,0.01,0.0,0.38999998569488525,-0.6399999856948853,-94.36000061035156,-0.01934814453125,-0.034912109375,1.02642822265625,36.650001525878906,0.0,42.0,1.605865478515625,-1.8795318603515625,Closing,0.0,0.0,3.0,0.0,0.0,0.0,0.0,0.0,
0.4801940000000031,0.0,0.0,81919.0,0.0,0.0,0.0,0.0,1.0,0.937499904,0.01,0.0,-149588.0,0.0,-30.0,-0.0,0.0,0.75,0.682372977,0.01,0.0,11726.0,0.0,0.0,0.0,0.0,1.0,3.4692379260000004,0.01,0.0,-21820.0,0.125,-30.0,-0.0,0.0,1.0,1.826171688,0.01,0.0,0.3799999952316284,-0.6499999761581421,-94.37999725341797,0.0037841796875,-0.0142822265625,0.9906005859375,36.59000015258789,0.0,19.0,1.605865478515625,-1.8796844482421875,Closing,0.0,0.0,3.0,0.0,0.0,0.0,0.0,0.0,
0.6384199999999982,0.0,0.0,81936.0,1.5,120.0,551.25,0.0,2.125,1.756591617,1.2330627500000013,0.0,-149613.0,0.75,-247.5,-551.25,0.0,1.5,1.6369627230000001,1.2409425000000012,0.0,11724.0,2.0,0.0,551.25,0.0,2.125,4.326171432000001,1.2351000000000012,0.0,-21835.0,0.75,-217.5,-551.25,0.0,1.625,2.757568077,1.2395000000000012,0.0,0.49000000953674316,-0.4000000059604645,-94.4800033569336,0.00909423828125,0.05816650390625,1.047607421875,36.59000015258789,0.0,-50.0,1.60552978515625,-1.878173828125,Closing,0.0,0.0,3.0,0.0,0.0,0.0,0.0,0.125,
0.7871870000000054,0.0,0.0,81952.0,4.125,112.5,649.6875,0.0,0.5,2.2668454710000003,1.2330627500000013,0.0,-149642.0,3.875,-142.5,-649.6875,0.0,0.5,2.0129392470000003,1.2409425000000012,0.0,11728.0,5.375,15.0,649.6875,0.0,0.25,4.859618643,1.2351000000000012,0.0,-21887.0,2.875,-120.0,-649.6875,0.0,0.375,3.120116868,1.2395000000000012,0.0,1.0199999809265137,-0.8199999928474426,-94.73999786376953,-0.0177001953125,0.16162109375,1.0242919921875,36.59000015258789,0.0,-142.0,1.596282958984375,-1.87957763671875,Closing,0.0,0.0,3.0,0.0,0.0,0.0,0.0,0.125,
0.959979999999996,0.0,0.0,81970.0,0.0,30.0,0.0,0.0,0.375,2.150878686,1.2330627500000013,0.0,-149674.0,0.0,-45.0,0.0,0.0,0.25,1.900634571,1.2409425000000012,0.0,11733.0,0.0,30.0,0.0,0.0,0.25,4.729003422,1.2351000000000012,0.0,-21896.0,0.125,-45.0,0.0,0.0,0.5,2.9577633690000003,1.2395000000000012,0.0,0.7699999809265137,-0.7400000095367432,-94.81999969482422,0.05126953125,-0.01318359375,1.10601806640625,36.59000015258789,0.0,22.0,1.583038330078125,-1.8795318603515625,Closing,0.0,0.0,3.0,0.0,0.0,0.0,0.0,0.125,
1.106467000000004,0.0,0.0,81983.0,0.0,75.0,0.0,0.0,0.375,2.0690915850000002,1.2330627500000013,0.0,-149688.0,0.0,-60.0,0.0,0.0,0.25,1.74560529,1.2409425000000012,0.0,11755.0,0.0,105.0,0.0,0.0,0.25,4.57763625,1.2351000000000012,0.0,-21910.0,0.125,-52.5,0.0,0.0,0.5,2.8564450200000002,1.2395000000000012,0.0,0.25999999046325684,-0.6000000238418579,-94.83999633789062,-0.01263427734375,-0.05908203125,1.10736083984375,36.61000061035156,0.0,64.0,1.580169677734375,-1.876922607421875,Closing,0.0,0.0,3.0,0.0,0.0,0.0,0.0,0.125,
1.2438889999999956,0.0,0.0,82014.0,0.5,127.5,393.75,0.0,0.25,2.0581052580000003,1.2330627500000013,0.0,-149697.0,0.375,-142.5,-393.75,0.0,0.0,1.7419431810000001,1.2409425000000012,0.0,11756.0,0.75,15.0,393.75,0.0,0.0,4.560546408,1.2351000000000012,0.0,-21911.0,0.75,-22.5,-393.75,0.0,0.25,2.869872753,1.2395000000000012,0.0,0.25,-0.5600000023841858,-94.87000274658203,-0.01800537109375,0.044189453125,1.026123046875,36.61000061035156,0.0,-38.0,1.5811767578125,-1.8767547607421875,Closing,0.0,0.0,3.0,0.0,0.0,0.0,0.0,0.125,
1.4200639999999984,0.0,0.0,82019.0,3.125,67.5,610.3124999999999,0.0,0.25,2.0581052580000003,1.2330627500000013,0.0,-149711.0,4.5,-60.0,-610.3124999999999,0.0,0.0,1.7407224780000001,1.2409425000000012,0.0,11783.0,2.375,120.0,610.3124999999999,0.0,0.0,4.556884299,1.2351000000000012,0.0,-21946.0,3.125,-195.0,-610.3124999999999,0.0,0.125,2.871093456,1.2395000000000012,0.0,0.8199999928474426,-0.6100000143051147,-94.86000061035156,-0.01812744140625,0.09716796875,1.09393310546875,36.61000061035156,0.0,-80.0,1.575958251953125,-1.8780517578125,Closing,0.0,0.0,3.0,0.0,0.0,0.0,0.0,0.125,
1.5649079999999957,0.0,0.0,82049.0,3.75,285.0,610.3124999999999,0.0,0.25,2.044677525,1.2330627500000013,0.0,-149773.0,5.5,-270.0,-610.3124999999999,0.0,0.0,1.7407224780000001,1.2409425000000012,0.0,11845.0,4.0,270.0,610.3124999999999,0.0,0.0,4.520263209,1.2351000000000012,0.0,-21982.0,4.125,-277.5,-610.3124999999999,0.0,0.125,2.871093456,1.2395000000000012,0.0,1.4700000286102295,-0.550000011920929,-94.98999786376953,-0.006591796875,0.09954833984375,1.008544921875,36.619998931884766,0.0,-73.0,1.5576629638671875,-1.8778533935546875,Closing,0.0,0.0,3.0,0.0,0.0,0.0,0.0,0.125,
1.725149000000005,0.0,0.0,82183.0,2.875,510.0,610.3124999999999,0.0,0.25,2.044677525,1.2330627500000013,0.0,-149843.0,4.0,-510.0,-610.3124999999999,0.0,0.0,1.7370603690000002,1.2409425000000012,0.0,11884.0,5.625,202.5,610.3124999999999,0.0,0.125,4.539794457,1.2351000000000012,0.0,-22042.0,3.5,-472.5,-610.3124999999999,0.0,0.125,2.871093456,1.2395000000000012,0.0,2.0299999713897705,-0.44999998807907104,-95.4000015258789,-0.019775390625,0.0743408203125,1.07147216796875,36.619998931884766,0.0,-34.0,1.52154541015625,-1.8778533935546875,Closing,0.0,0.0,3.0,0.0,0.0,0.0,0.0,0.125,
1.9021689999999944,0.0,0.0,82283.0,2.125,652.5,630.0,0.0,0.25,2.042236119,1.2330627500000013,0.0,-150043.0,2.875,-645.0,-630.0,0.0,0.125,1.7358396660000002,1.2409425000000012,0.0,11928.0,7.625,330.0,630.0,0.0,0.0,4.549560081,1.2351000000000012,0.0,-22229.0,2.75,-630.0,-630.0,0.0,0.25,2.873534862,1.2395000000000012,0.0,2.2200000286102295,-0.44999998807907104,-95.62000274658203,0.0858154296875,0.08892822265625,0.9986572265625,36.619998931884766,0.0,-59.0,1.4882354736328125,-1.8770904541015625,Closing,0.0,0.0,3.0,0.0,0.0,0.0,0.0,0.0,
2.041508999999991,0.0,0.0,82396.0,1.25,720.0,630.0,0.0,0.25,2.047118931,1.2330627500000013,0.0,-150164.0,1.5,-742.5,-630.0,0.0,0.125,1.7321775570000002,1.2409425000000012,0.0,11996.0,6.75,592.5,630.0,0.0,0.0,4.5507807840000005,1.2351000000000012,0.0,-22347.0,1.625,-727.5,-630.0,0.0,0.25,2.871093456,1.2395000000000012,0.0,2.25,-0.30000001192092896,-95.80999755859375,0.00738525390625,0.04083251953125,1.02349853515625,36.61000061035156,0.0,-1.0,1.4540863037109375,-1.8744659423828125,Closing,0.0,0.0,3.0,0.0,0.0,0.0,0.0,0.125,
2.180758999999991,0.0,0.0,82518.0,0.5,795.0,630.0,0.0,0.25,2.039794713,1.2330627500000013,0.0,-150287.0,0.75,-772.5,-630.0,0.0,0.125,1.7126463090000001,1.2409425000000012,0.0,12223.0,4.5,772.5,630.0,0.0,0.0,4.549560081,1.2351000000000012,0.0,-22468.0,0.75,-787.5,-630.0,0.0,0.125,2.884521189,1.2395000000000012,0.0,2.109999895095825,-0.3100000023841858,-96.0199966430664,0.07342529296875,0.05230712890625,0.55633544921875,36.61000061035156,0.0,-39.0,1.4549713134765625,-1.873779296875,Closing,0.0,0.0,3.0,0.0,0.0,0.0,0.0,0.125,
2.3263440000000117,0.0,0.0,82772.0,0.375,795.0,669.375,0.0,0.25,2.039794713,1.2330627500000013,0.0,-150413.0,0.375,-780.0,-669.375,0.0,0.25,1.702880685,1.2409425000000012,0.0,12345.0,3.75,757.5,669.375,0.0,0.0,4.554442893,1.2351000000000012,0.0,-22715.0,0.625,-765.0,-669.375,0.0,0.25,2.861327832,1.2395000000000012,0.0,1.8899999856948853,-0.4000000059604645,-96.11000061035156,-0.0052490234375,-0.0252685546875,1.14013671875,36.61000061035156,0.0,62.0,1.464996337890625,-1.8739776611328125,Closing,0.0,0.0,3.0,0.0,0.0,0.0,0.0,0.125,
2.5210020000000077,0.0,0.0,82892.0,0.375,727.5,669.375,0.0,0.25,2.039794713,1.2330627500000013,0.0,-150653.0,0.375,-727.5,-669.375,0.0,0.25,1.7126463090000001,1.2409425000000012,0.0,12593.0,3.25,780.0,669.375,0.0,0.0,4.549560081,1.2351000000000012,0.0,-22834.0,0.625,-735.0,-669.375,0.0,0.125,2.861327832,1.2395000000000012,0.0,1.649999976158142,-0.4699999988079071,-96.0999984741211,-0.0291748046875,0.01348876953125,1.03289794921875,36.599998474121094,0.0,18.0,1.481781005859375,-1.873046875,Closing,0.0,0.0,3.0,0.0,0.0,0.0,0.0,0.125,
2.696190999999992,0.0,0.0,83108.0,0.0,607.5,0.0,0.0,0.25,2.039794713,1.2330627500000013,0.0,-150759.0,0.0,-652.5,0.0,0.0,0.25,1.7126463090000001,1.2409425000000012,0.0,12689.0,0.0,450.0,0.0,0.0,0.0,4.572753438,1.2351000000000012,0.0,-22944.0,0.125,-637.5,0.0,0.0,0.25,2.860107129,1.2395000000000012,0.0,1.090000033378601,-0.5099999904632568,-96.20999908447266,0.02935791015625,-0.1434326171875,1.10821533203125,36.599998474121094,0.0,159.0,1.5071868896484375,-1.8722686767578125,Closing,0.0,0.0,3.0,0.0,0.0,0.0,0.0,0.125,
2.8533070000000005,0.0,0.0,83202.0,0.0,547.5,0.0,0.0,0.25,2.039794713,1.2330627500000013,0.0,-150944.0,0.0,-532.5,0.0,0.0,0.25,1.7077634970000002,1.2409425000000012,0.0,12761.0,0.0,495.0,0.0,0.0,0.0,4.559325705,1.2351000000000012,0.0,-23129.0,0.125,-532.5,0.0,0.0,0.125,2.8515622080000003,1.2395000000000012,0.0,0.4099999964237213,-0.4300000071525574,-96.12999725341797,0.01824951171875,-0.1085205078125,0.92462158203125,36.599998474121094,0.0,111.0,1.5498046875,-1.8692626953125,Closing,0.0,0.0,3.0,0.0,0.0,0.0,0.0,0.125,
3.029203999999998,0.0,0.0,83276.0,0.0,360.0,0.0,0.0,0.25,2.039794713,1.2330627500000013,0.0,-151007.0,0.0,-375.0,0.0,0.0,0.25,1.7077634970000002,1.2409425000000012,0.0,12893.0,0.0,367.5,0.0,0.0,0.0,4.559325705,1.2351000000000012,0.0,-23195.0,0.125,-367.5,0.0,0.0,0.25,2.828368851,1.2395000000000012,0.0,-0.14000000059604645,-0.4699999988079071,-96.05999755859375,-0.0128173828125,-0.03240966796875,0.97509765625,36.599998474121094,0.0,30.0,1.604583740234375,-1.8692169189453125,Closing,0.0,0.0,3.0,0.0,0.0,0.0,0.0,0.125,
3.181478999999992,0.0,0.0,83367.0,0.0,225.0,0.0,0.0,0.25,2.039794713,1.2330627500000013,0.0,-151052.0,0.0,-210.0,0.0,0.0,0.25,1.7077634970000002,1.2409425000000012,0.0,12932.0,0.0,202.5,0.0,0.0,0.0,4.559325705,1.2351000000000012,0.0,-23242.0,0.125,-202.5,0.0,0.0,0.25,2.828368851,1.2395000000000012,0.0,-0.5899999737739563,-0.5299999713897705,-95.97000122070312,-0.01422119140625,-0.0931396484375,1.0235595703125,36.599998474121094,0.0,82.0,1.6640472412109375,-1.8690948486328125,Closing,0.0,0.0,3.0,0.0,0.0,0.0,0.0,0.0,
3.339877999999997,0.0,0.0,83419.0,7.875,360.0,1417.4999999999998,0.0,0.25,2.039794713,1.2330627500000013,0.0,-151147.0,9.875,-420.0,-1417.4999999999998,0.0,0.25,1.727294745,1.2409425000000012,0.0,12982.0,10.875,187.5,1417.4999999999998,0.0,0.0,4.559325705,1.2351000000000012,0.0,-23326.0,8.25,-382.5,-1417.4999999999998,0.0,0.25,2.875976268,1.2395000000000012,0.0,0.36000001430511475,-0.550000011920929,-95.9800033569336,0.0015869140625,0.13385009765625,0.951416015625,36.599998474121094,0.0,-128.0,1.736907958984375,-1.86761474609375,Closing,0.0,0.0,3.0,0.0,0.0,0.0,0.0,0.125,
3.525502999999997,0.0,0.0,83519.0,0.0,307.5,0.0,0.0,0.25,2.039794713,1.2330627500000013,0.0,-151190.0,0.0,-307.5,0.0,0.0,0.125,1.727294745,1.2409425000000012,0.0,12993.0,0.0,60.0,0.0,0.0,0.0,4.564208517,1.2351000000000012,0.0,-23387.0,0.125,-255.0,0.0,0.0,0.25,2.828368851,1.2395000000000012,0.0,0.3499999940395355,-0.5400000214576721,-96.05999755859375,-0.00628662109375,-0.0599365234375,1.22711181640625,36.599998474121094,0.0,66.0,1.783416748046875,-1.869873046875,Closing,0.0,0.0,3.0,0.0,0.0,0.0,0.0,0.125,
3.685247000000003,0.0,0.0,83567.0,0.0,262.5,0.0,0.0,0.25,2.039794713,1.2330627500000013,0.0,-151256.0,0.0,-277.5,0.0,0.0,0.125,1.727294745,1.2409425000000012,0.0,13019.0,0.0,202.5,0.0,0.0,0.0,4.559325705,1.2351000000000012,0.0,-23486.0,0.125,-307.5,0.0,0.0,0.25,2.818603227,1.2395000000000012,0.0,-0.15000000596046448,-0.5,-95.93000030517578,0.03424072265625,-0.0384521484375,0.9793701171875,36.540000915527344,0.0,31.0,1.8361968994140625,-1.8695068359375,Closing,0.0,0.0,3.0,0.0,0.0,0.0,0.0,0.125,
3.840045000000013,0.0,0.0,83602.0,0.0,157.5,0.0,0.0,0.25,2.039794713,1.2330627500000013,0.0,-151324.0,0.0,-157.5,0.0,0.0,0.125,1.723632636,1.2409425000000012,0.0,13054.0,0.0,172.5,0.0,0.0,0.0,4.559325705,1.2351000000000012,0.0,-23513.0,0.125,-172.5,0.0,0.0,0.25,2.818603227,1.2395000000000012,0.0,-0.5899999737739563,-0.5600000023841858,-95.86000061035156,-0.0042724609375,-0.07232666015625,1.03662109375,36.540000915527344,0.0,60.0,1.8985595703125,-1.869171142578125,Closing,0.0,0.0,3.0,0.0,0.0,0.0,0.0,0.0,
3.9816410000000033,0.0,0.0,83625.0,16.75,397.5,1978.0372384003467,0.0,0.375,2.0593259610000003,1.3675881820777314,0.0,-151396.0,20.0,-495.0,-1978.0372384003467,0.0,0.25,1.755370914,1.3763276018499424,0.0,13179.0,16.0,622.5,1978.0372384003467,0.0,0.25,4.598388201000001,1.3698476932209702,0.0,-23563.0,17.875,-405.0,-1978.0372384003467,0.0,0.25,2.962646181,1.3747277271050058,0.0,0.6800000071525574,-0.7200000286102295,-95.9000015258789,-0.12030029296875,0.2847900390625,1.57611083984375,36.540000915527344,0.0,-254.0,1.9548492431640625,-1.8698883056640625,Closing,0.0,0.0,3.0,0.0,0.0,0.0,0.0,0.0,
4.124956999999995,0.0,0.0,83827.0,12.875,735.0,1404.6065442684908,0.0,0.625,2.103271269,1.4348878735986315,0.0,-151501.0,14.375,-765.0,-1404.6065442684908,0.0,0.25,1.9250486310000001,1.4440573645446426,0.0,13267.0,13.125,562.5,1404.6065442684908,0.0,0.125,4.744872561,1.4372585764038932,0.0,-23650.0,11.75,-787.5,-1404.6065442684908,0.0,0.25,3.129882492,1.4423787591714239,0.0,2.25,-1.100000023841858,-96.5199966430664,-0.1829833984375,0.0738525390625,1.045166015625,36.47999954223633,0.0,-13.0,1.973724365234375,-1.8807830810546875,Closing,0.0,0.0,3.0,0.0,0.0,0.0,0.0,0.125,
4.300522999999987,0.0,0.0,83968.0,0.0,847.5,0.0,0.0,0.25,2.252197035,1.4348878735986315,0.0,-151818.0,0.0,-900.0,0.0,0.0,0.125,2.054443149,1.4440573645446426,0.0,13366.0,0.0,525.0,0.0,0.0,0.0,4.8107905230000005,1.4372585764038932,0.0,-23926.0,0.125,-780.0,0.0,0.0,0.25,3.073730154,1.4423787591714239,0.0,2.0,-1.600000023841858,-98.19999694824219,0.05743408203125,-0.33282470703125,1.3924560546875,36.47999954223633,0.0,363.0,1.98333740234375,-1.905029296875,Closing,0.0,0.0,3.0,0.0,0.0,0.0,0.0,0.125,
4.4549929999999875,0.0,0.0,84118.0,0.0,795.0,0.0,0.0,0.25,2.2766110950000003,1.4348878735986315,0.0,-151946.0,0.0,-780.0,0.0,0.0,0.25,2.044677525,1.4440573645446426,0.0,13568.0,0.0,727.5,0.0,0.0,0.125,4.812011226,1.4372585764038932,0.0,-24060.0,0.125,-802.5,0.0,0.0,0.125,3.0639645300000002,1.4423787591714239,0.0,1.1799999475479126,-1.3799999952316284,-98.23999786376953,0.04254150390625,-0.0562744140625,1.08856201171875,36.47999954223633,0.0,68.0,2.01025390625,-1.9237518310546875,Closing,0.0,0.0,3.0,0.0,0.0,0.0,0.0,0.125,
4.598981,0.0,0.0,84239.0,0.625,517.5,377.00788199901575,0.0,1.375,2.927245794,2.4661254999999977,0.0,-152042.0,1.125,-570.0,-377.00788199901575,0.0,2.125,2.5817868450000003,2.481884999999998,0.0,13652.0,0.875,570.0,377.00788199901575,0.0,1.625,0.552978459,2.4702000000000024,0.0,-24164.0,0.875,-577.5,-377.00788199901575,0.0,1.5,3.6853023570000003,2.4790000000000023,0.0,-0.20999999344348907,-1.1399999856948853,-98.01000213623047,-0.03729248046875,-0.32147216796875,1.06390380859375,36.529998779296875,0.0,316.0,2.0507659912109375,-1.9326171875,Closing,0.0,0.0,3.0,0.0,0.0,0.0,0.0,0.125,
4.741760999999999,0.0,0.0,84333.0,0.0,150.0,0.0,0.0,0.625,3.6206050980000004,2.4661254999999977,0.0,-152093.0,0.0,-195.0,0.0,0.0,0.5,3.334960596,2.481884999999998,0.0,13680.0,0.0,127.5,0.0,0.0,0.375,1.254882684,2.4702000000000024,0.0,-24226.0,0.125,-195.0,0.0,0.0,0.75,4.456786653,2.4790000000000023,0.0,-1.2100000381469727,-0.7699999809265137,-97.44999694824219,0.04901123046875,0.111572265625,1.02874755859375,36.529998779296875,0.0,-140.0,2.1340484619140625,-1.9330596923828125,Closing,0.0,0.0,3.0,0.0,0.0,0.0,0.0,0.125,
4.900725000000006,0.0,0.0,84339.0,0.0,15.0,0.0,0.0,0.375,3.450927381,2.4661254999999977,0.0,-152114.0,0.0,-37.5,0.0,0.0,0.25,3.28369107,2.481884999999998,0.0,13689.0,0.0,22.5,0.0,0.0,0.25,1.048583877,2.4702000000000024,0.0,-24256.0,0.125,-37.5,0.0,0.0,0.5,4.2956538570000005,2.4790000000000023,0.0,-1.0099999904632568,-0.28999999165534973,-97.62000274658203,0.00238037109375,0.03924560546875,1.03570556640625,36.529998779296875,0.0,-58.0,2.1709136962890625,-1.92333984375,Closing,0.0,0.0,3.0,0.0,0.0,0.0,0.0,0.125,
5.045589999999996,0.0,0.0,84339.0,0.0,0.0,0.0,0.0,0.375,3.228759435,2.4661254999999977,0.0,-152114.0,0.0,0.0,0.0,0.0,0.5,2.878417674,2.481884999999998,0.0,13691.0,0.0,0.0,0.0,0.0,0.25,0.783691326,2.4702000000000024,0.0,-24255.0,0.125,0.0,0.0,0.0,0.5,3.974608968,2.4790000000000023,0.0,-0.8100000023841858,-0.4300000071525574,-97.68000030517578,-0.03826904296875,0.025146484375,1.02301025390625,36.52000045776367,0.0,-35.0,2.1676483154296875,-1.92401123046875,Closing,0.0,0.0,3.0,0.0,0.0,0.0,0.0,0.125,
5.238507000000013,0.0,0.0,84357.0,0.5,135.0,416.69290244579315,0.0,0.25,3.229980138,2.4661254999999977,0.0,-152116.0,1.0,-90.0,-416.69290244579315,0.0,0.25,2.874755565,2.481884999999998,0.0,13698.0,0.875,150.0,416.69290244579315,0.0,0.0,0.8154296040000001,2.4702000000000024,0.0,-24267.0,0.75,-67.5,-416.69290244579315,0.0,0.375,4.0356441180000004,2.4790000000000023,0.0,-0.6700000166893005,-0.6899999976158142,-97.69999694824219,-0.0482177734375,0.00457763671875,1.014892578125,36.52000045776367,0.0,-11.0,2.1653594970703125,-1.9291534423828125,Closing,0.0,0.0,3.0,0.0,0.0,0.0,0.0,0.125,
5.4028189999999885,0.0,0.0,84414.0,6.75,195.0,952.4409413337708,0.0,0.25,3.23486295,2.4661254999999977,0.0,-152157.0,10.125,-225.0,-952.4409413337708,0.0,0.25,3.02734344,2.481884999999998,0.0,13752.0,7.25,210.0,952.4409413337708,0.0,0.125,0.8312987430000001,2.4702000000000024,0.0,-24290.0,7.5,-247.5,-952.4409413337708,0.0,0.25,4.145507388,2.4790000000000023,0.0,-0.5199999809265137,-1.7200000286102295,-97.6500015258789,-0.267822265625,-0.01318359375,1.08233642578125,36.52000045776367,0.0,34.0,2.1628265380859375,-1.9516143798828125,Closing,0.0,0.0,3.0,0.0,0.0,0.0,0.0,0.125,
5.58483600000001,0.0,0.0,84504.0,6.875,592.5,972.2834515571594,0.0,0.25,3.238525059,2.4661254999999977,0.0,-152230.0,9.625,-592.5,-972.2834515571594,0.0,0.25,3.072509451,2.481884999999998,0.0,13822.0,7.75,472.5,972.2834515571594,0.0,0.0,0.8410643670000001,2.4702000000000024,0.0,-24459.0,7.25,-630.0,-972.2834515571594,0.0,0.25,4.160155824,2.4790000000000023,0.0,-0.5400000214576721,-2.859999895095825,-97.51000213623047,-0.1068115234375,0.15081787109375,1.070556640625,36.47999954223633,0.0,-152.0,2.167999267578125,-2.00482177734375,Closing,0.0,0.0,3.0,0.0,0.0,0.0,0.0,0.125,
5.771375,0.0,0.0,84739.0,1.125,750.0,436.53545022010803,0.0,0.25,3.238525059,2.4661254999999977,0.0,-152454.0,2.625,-615.0,-436.53545022010803,0.0,0.25,3.0090328950000003,2.481884999999998,0.0,13959.0,5.75,472.5,436.53545022010803,0.0,0.0,0.8410643670000001,2.4702000000000024,0.0,-24568.0,2.5,-592.5,-436.53545022010803,0.0,0.25,4.127196843,2.4790000000000023,0.0,-0.3499999940395355,-1.6699999570846558,-96.05999755859375,0.11737060546875,0.01788330078125,1.17462158203125,36.47999954223633,0.0,-40.0,2.1685028076171875,-2.056610107421875,Closing,0.0,0.0,3.0,0.0,0.0,0.0,0.0,0.0,
5.942467000000004,0.0,0.0,84772.0,0.0,67.5,0.0,0.0,0.25,3.239745762,2.4661254999999977,0.0,-152516.0,0.0,-45.0,0.0,0.0,0.125,2.976073914,2.481884999999998,0.0,13986.0,0.0,45.0,0.0,0.0,0.0,0.850829991,2.4702000000000024,0.0,-24644.0,0.125,-45.0,0.0,0.0,0.25,4.111327704,2.4790000000000023,0.0,-0.07999999821186066,0.5899999737739563,-96.01000213623047,0.19146728515625,-0.00421142578125,1.03741455078125,36.47999954223633,0.0,-16.0,2.1576995849609375,-2.0632476806640625,Closing,0.0,0.0,3.0,0.0,0.0,0.0,0.0,0.125,
6.114451000000001,0.0,0.0,84766.0,0.0,-180.0,0.0,0.0,0.25,3.238525059,2.4661254999999977,0.0,-152501.0,0.0,90.0,0.0,0.0,0.125,2.974853211,2.481884999999998,0.0,13969.0,0.0,-105.0,0.0,0.0,0.0,0.850829991,2.4702000000000024,0.0,-24629.0,0.125,165.0,0.0,0.0,0.125,4.107665595,2.4790000000000023,0.0,-0.05000000074505806,0.5,-96.19999694824219,-0.12384033203125,-0.05731201171875,0.9859619140625,36.45000076293945,0.0,70.0,2.156219482421875,-2.04339599609375,Closing,0.0,0.0,3.0,0.0,0.0,0.0,0.0,0.125,
6.296348999999988,0.0,0.0,84717.0,0.0,-82.5,0.0,0.0,0.25,3.251952792,2.4661254999999977,0.0,-152480.0,0.0,90.0,0.0,0.0,0.125,2.974853211,2.481884999999998,0.0,13954.0,0.0,-75.0,0.0,0.0,0.0,0.849609288,2.4702000000000024,0.0,-24605.0,0.125,82.5,0.0,0.0,0.125,4.108886298,2.4790000000000023,0.0,0.0,-0.18000000715255737,-96.19999694824219,-0.096923828125,-0.01385498046875,1.03857421875,36.45000076293945,0.0,23.0,2.157745361328125,-2.0376739501953125,Closing,0.0,0.0,3.0,0.0,0.0,0.0,0.0,0.125,
6.453252000000008,0.0,0.0,84715.0,0.0,0.0,0.0,0.0,0.25,3.251952792,2.4661254999999977,0.0,-152475.0,0.0,0.0,0.0,0.0,0.125,2.976073914,2.481884999999998,0.0,13952.0,0.0,0.0,0.0,0.0,0.0,0.850829991,2.4702000000000024,0.0,-24598.0,0.125,0.0,0.0,0.0,0.25,4.106444892,2.4790000000000023,0.0,0.03999999910593033,-0.25,-96.13999938964844,0.02001953125,-0.01702880859375,1.00396728515625,36.45000076293945,0.0,15.0,2.1575927734375,-2.0410614013671875,Closing,0.0,0.0,3.0,0.0,0.0,0.0,0.0,0.125,
6.647736999999994,0.0,0.0,84715.0,0.0,0.0,0.0,0.0,0.25,3.253173495,2.4661254999999977,0.0,-152475.0,0.0,0.0,0.0,0.0,0.125,2.974853211,2.481884999999998,0.0,13952.0,0.0,0.0,0.0,0.0,0.0,0.850829991,2.4702000000000024,0.0,-24598.0,0.125,0.0,0.0,0.0,0.125,4.106444892,2.4790000000000023,0.0,0.10000000149011612,-0.2800000011920929,-96.16999816894531,-0.0330810546875,0.0013427734375,1.024169921875,36.45000076293945,0.0,3.0,2.157440185546875,-2.0410614013671875,Closing,0.0,0.0,3.0,0.0,0.0,0.0,0.0,0.0,
6.833231999999989,0.0,0.0,84715.0,0.0,0.0,0.0,0.0,0.25,3.253173495,2.4661254999999977,0.0,-152475.0,0.0,0.0,0.0,0.0,0.125,2.976073914,2.481884999999998,0.0,13952.0,0.0,0.0,0.0,0.0,0.0,0.849609288,2.4702000000000024,0.0,-24598.0,0.125,0.0,0.0,0.0,0.125,4.107665595,2.4790000000000023,0.0,0.15000000596046448,-0.3199999928474426,-96.13999938964844,-0.0023193359375,0.00225830078125,1.02166748046875,36.45000076293945,0.0,0.0,2.157440185546875,-2.0415802001953125,Closing,0.0,0.0,3.0,0.0,0.0,0.0,0.0,0.125,
6.986475000000006,0.0,0.0,84715.0,0.0,0.0,0.0,0.0,0.25,3.253173495,2.4661254999999977,0.0,-152475.0,0.0,0.0,0.0,0.0,0.125,2.976073914,2.481884999999998,0.0,13952.0,0.0,0.0,0.0,0.0,0.0,0.849609288,2.4702000000000024,0.0,-24598.0,0.125,0.0,0.0,0.0,0.125,4.108886298,2.4790000000000023,0.0,0.18000000715255737,-0.36000001430511475,-96.13999938964844,-0.012451171875,0.005859375,1.0247802734375,36.45000076293945,0.0,-1.0,2.157440185546875,-2.0415802001953125,Closing,0.0,0.0,3.0,0.0,0.0,0.0,0.0,0.125,
7.156823000000004,0.0,0.0,84715.0,0.0,0.0,0.0,0.0,0.25,3.253173495,2.4661254999999977,0.0,-152475.0,0.0,0.0,0.0,0.0,0.125,2.974853211,2.481884999999998,0.0,13952.0,0.0,0.0,0.0,0.0,0.0,0.850829991,2.4702000000000024,0.0,-24598.0,0.125,0.0,0.0,0.0,0.125,4.107665595,2.4790000000000023,0.0,0.2199999988079071,-0.3700000047683716,-96.13999938964844,-0.01544189453125,0.00616455078125,1.020751953125,36.47999954223633,0.0,-1.0,2.157440185546875,-2.0415802001953125,Closing,0.0,0.0,3.0,0.0,0.0,0.0,0.0,0.125,
7.306638000000007,0.0,0.0,84715.0,0.0,0.0,0.0,0.0,0.25,3.251952792,2.4661254999999977,0.0,-152475.0,0.0,0.0,0.0,0.0,0.125,2.976073914,2.481884999999998,0.0,13952.0,0.0,0.0,0.0,0.0,0.0,0.849609288,2.4702000000000024,0.0,-24598.0,0.125,0.0,0.0,0.0,0.125,4.107665595,2.4790000000000023,0.0,0.25,-0.38999998569488525,-96.13999938964844,-0.00970458984375,0.0079345703125,1.02520751953125,36.47999954223633,0.0,-3.0,2.157440185546875,-2.0415802001953125,Closing,0.0,0.0,3.0,0.0,0.0,0.0,0.0,0.0,
7.465943999999989,0.0,0.0,84715.0,0.0,0.0,0.0,0.0,0.25,3.251952792,2.4661254999999977,0.0,-152475.0,0.0,0.0,0.0,0.0,0.125,2.976073914,2.481884999999998,0.0,13952.0,0.0,0.0,0.0,0.0,0.0,0.849609288,2.4702000000000024,0.0,-24598.0,0.125,0.0,0.0,0.0,0.25,4.107665595,2.4790000000000023,0.0,0.27000001072883606,-0.41999998688697815,-96.13999938964844,-0.009521484375,0.0078125,1.01708984375,36.47999954223633,0.0,-2.0,2.157440185546875,-2.0415802001953125,Closing,0.0,0.0,3.0,0.0,0.0,0.0,0.0,0.125,
7.6246590000000145,0.0,0.0,84715.0,0.0,0.0,0.0,0.0,0.25,3.251952792,2.4661254999999977,0.0,-152475.0,0.0,0.0,0.0,0.0,0.125,2.974853211,2.481884999999998,0.0,13952.0,0.0,0.0,0.0,0.0,0.0,0.849609288,2.4702000000000024,0.0,-24598.0,0.125,0.0,0.0,0.0,0.125,4.107665595,2.4790000000000023,0.0,0.28999999165534973,-0.4399999976158142,-96.13999938964844,-0.01129150390625,0.0067138671875,1.01605224609375,36.5,0.0,-1.0,2.157440185546875,-2.0415802001953125,Closing,0.0,0.0,3.0,0.0,0.0,0.0,0.0,0.125,
7.784834999999992,0.0,0.0,84715.0,0.0,0.0,0.0,0.0,0.125,3.253173495,2.4661254999999977,0.0,-152475.0,0.0,0.0,0.0,0.0,0.125,2.974853211,2.481884999999998,0.0,13952.0,0.0,0.0,0.0,0.0,0.0,0.850829991,2.4702000000000024,0.0,-24598.0,0.125,0.0,0.0,0.0,0.125,4.107665595,2.4790000000000023,0.0,0.3100000023841858,-0.44999998807907104,-96.13999938964844,-0.008056640625,0.0086669921875,1.01849365234375,36.5,0.0,-3.0,2.157440185546875,-2.0415802001953125,Closing,0.0,0.0,3.0,0.0,0.0,0.0,0.0,0.125,
7.9459280000000145,0.0,0.0,84715.0,0.0,0.0,0.0,0.0,0.25,3.253173495,2.4661254999999977,0.0,-152475.0,0.0,0.0,0.0,0.0,0.125,2.976073914,2.481884999999998,0.0,13952.0,0.0,0.0,0.0,0.0,0.0,0.850829991,2.4702000000000024,0.0,-24598.0,0.125,0.0,0.0,0.0,0.125,4.107665595,2.4790000000000023,0.0,0.33000001311302185,-0.46000000834465027,-96.13999938964844,-0.01202392578125,0.006591796875,1.0113525390625,36.5,0.0,0.0,2.157440185546875,-2.0415802001953125,Closing,0.0,0.0,3.0,0.0,0.0,0.0,0.0,0.0,
8.095565999999991,0.0,0.0,84715.0,0.0,0.0,0.0,0.0,0.25,3.253173495,2.4661254999999977,0.0,-152475.0,0.0,0.0,0.0,0.0,0.125,2.977294617,2.481884999999998,0.0,13952.0,0.0,0.0,0.0,0.0,0.0,0.850829991,2.4702000000000024,0.0,-24598.0,0.125,0.0,0.0,0.0,0.125,4.106444892,2.4790000000000023,0.0,0.3400000035762787,-0.47999998927116394,-96.13999938964844,-0.00958251953125,0.004150390625,1.01678466796875,36.5,0.0,2.0,2.157440185546875,-2.0415802001953125,Closing,0.0,0.0,3.0,0.0,0.0,0.0,0.0,0.125,
8.245910999999992,0.0,0.0,84715.0,0.0,0.0,0.0,0.0,0.25,3.253173495,2.4661254999999977,0.0,-152475.0,0.0,0.0,0.0,0.0,0.125,2.976073914,2.481884999999998,0.0,13952.0,0.0,0.0,0.0,0.0,0.0,0.849609288,2.4702000000000024,0.0,-24598.0,0.125,0.0,0.0,0.0,0.125,4.107665595,2.4790000000000023,0.0,0.36000001430511475,-0.47999998927116394,-96.13999938964844,-0.00994873046875,0.00506591796875,1.0181884765625,36.540000915527344,0.0,1.0,2.157440185546875,-2.0415802001953125,Closing,0.0,0.0,3.0,0.0,0.0,0.0,0.0,0.125,
8.387315000000003,0.0,0.0,84715.0,0.0,0.0,0.0,0.0,0.125,3.251952792,2.4661254999999977,0.0,-152475.0,0.0,0.0,0.0,0.0,0.125,2.974853211,2.481884999999998,0.0,13952.0,0.0,0.0,0.0,0.0,0.0,0.850829991,2.4702000000000024,0.0,-24598.0,0.125,0.0,0.0,0.0,0.125,4.107665595,2.4790000000000023,0.0,0.3700000047683716,-0.49000000953674316,-96.13999938964844,-0.00921630859375,0.00811767578125,1.0162353515625,36.540000915527344,0.0,-1.0,2.157440185546875,-2.0415802001953125,Closing,0.0,0.0,3.0,0.0,0.0,0.0,0.0,0.125,
8.563578000000009,0.0,0.0,84715.0,0.0,0.0,0.0,0.0,0.125,3.253173495,2.4661254999999977,0.0,-152475.0,0.0,0.0,0.0,0.0,0.125,2.974853211,2.481884999999998,0.0,13952.0,0.0,0.0,0.0,0.0,0.0,0.850829991,2.4702000000000024,0.0,-24598.0,0.125,0.0,0.0,0.0,0.25,4.107665595,2.4790000000000023,0.0,0.3799999952316284,-0.5,-96.13999938964844,-0.0113525390625,0.0069580078125,1.01708984375,36.540000915527344,0.0,0.0,2.157440185546875,-2.0415802001953125,Closing,0.0,0.0,3.0,0.0,0.0,0.0,0.0,0.125,
8.726255999999994,0.0,0.0,84715.0,0.0,0.0,0.0,0.0,0.25,3.253173495,2.4661254999999977,0.0,-152475.0,0.0,0.0,0.0,0.0,0.125,2.976073914,2.481884999999998,0.0,13952.0,0.0,0.0,0.0,0.0,0.0,0.850829991,2.4702000000000024,0.0,-24598.0,0.125,0.0,0.0,0.0,0.125,4.107665595,2.4790000000000023,0.0,0.3799999952316284,-0.5,-96.1500015258789,-0.0111083984375,0.0067138671875,1.01837158203125,36.540000915527344,0.0,0.0,2.157440185546875,-2.0415802001953125,Closing,0.0,0.0,3.0,0.0,0.0,0.0,0.0,0.0,
8.907223999999987,0.0,0.0,84715.0,0.0,0.0,0.0,0.0,0.25,3.253173495,2.4661254999999977,0.0,-152475.0,0.0,0.0,0.0,0.0,0.125,2.974853211,2.481884999999998,0.0,13952.0,0.0,0.0,0.0,0.0,0.0,0.849609288,2.4702000000000024,0.0,-24598.0,0.125,0.0,0.0,0.0,0.125,4.107665595,2.4790000000000023,0.0,0.38999998569488525,-0.5099999904632568,-96.1500015258789,-0.00897216796875,0.00714111328125,1.0225830078125,36.540000915527344,0.0,0.0,2.157440185546875,-2.0415802001953125,Closing,0.0,0.0,3.0,0.0,0.0,0.0,0.0,0.125,
9.05504800000001,0.0,0.0,84715.0,0.0,0.0,0.0,0.0,0.25,3.253173495,2.4661254999999977,0.0,-152475.0,0.0,0.0,0.0,0.0,0.125,2.976073914,2.481884999999998,0.0,13952.0,0.0,0.0,0.0,0.0,0.0,0.849609288,2.4702000000000024,0.0,-24598.0,0.125,0.0,0.0,0.0,0.125,4.106444892,2.4790000000000023,0.0,0.38999998569488525,-0.5199999809265137,-96.1500015258789,-0.00994873046875,0.00775146484375,1.01910400390625,36.540000915527344,0.0,0.0,2.157440185546875,-2.0415802001953125,Closing,0.0,0.0,3.0,0.0,0.0,0.0,0.0,0.0,
9.227015000000014,0.0,0.0,84715.0,0.0,0.0,0.0,0.0,0.25,3.251952792,2.4661254999999977,0.0,-152475.0,0.0,0.0,0.0,0.0,0.125,2.974853211,2.481884999999998,0.0,13952.0,0.0,0.0,0.0,0.0,0.0,0.850829991,2.4702000000000024,0.0,-24598.0,0.125,0.0,0.0,0.0,0.25,4.108886298,2.4790000000000023,0.0,0.4000000059604645,-0.5299999713897705,-96.1500015258789,-0.01287841796875,0.00537109375,1.01641845703125,36.529998779296875,0.0,2.0,2.157440185546875,-2.0415802001953125,Closing,0.0,0.0,3.0,0.0,0.0,0.0,0.0,0.125,
9.398247999999992,0.0,0.0,84715.0,0.0,0.0,0.0,0.0,0.25,3.253173495,2.4661254999999977,0.0,-152475.0,0.0,0.0,0.0,0.0,0.125,2.976073914,2.481884999999998,0.0,13952.0,0.0,0.0,0.0,0.0,0.0,0.849609288,2.4702000000000024,0.0,-24598.0,0.125,0.0,0.0,0.0,0.125,4.106444892,2.4790000000000023,0.0,0.4099999964237213,-0.5400000214576721,-96.1500015258789,-0.007568359375,0.00640869140625,1.01971435546875,36.529998779296875,0.0,0.0,2.157440185546875,-2.0415802001953125,Closing,0.0,0.0,3.0,0.0,0.0,0.0,0.0,0.125,
9.56824900000001,0.0,0.0,84715.0,0.0,0.0,0.0,0.0,0.25,3.253173495,2.4661254999999977,0.0,-152475.0,0.0,0.0,0.0,0.0,0.125,2.974853211,2.481884999999998,0.0,13952.0,0.0,0.0,0.0,0.0,0.0,0.850829991,2.4702000000000024,0.0,-24598.0,0.125,0.0,0.0,0.0,0.125,4.106444892,2.4790000000000023,0.0,0.41999998688697815,-0.5400000214576721,-96.1500015258789,-0.01177978515625,0.0078125,1.01739501953125,36.529998779296875,0.0,0.0,2.157440185546875,-2.0415802001953125,Closing,0.0,0.0,3.0,0.0,0.0,0.0,0.0,0.125,
9.737736000000005,0.0,0.0,84711.0,1.625,-157.5,-694.4881582260131,0.0,6.125,2.8942868130000003,1.2330627499999984,0.0,-152447.0,2.75,202.5,694.4881582260131,0.0,9.25,2.60009739,1.2409424999999985,0.0,13952.0,2.75,-15.0,-694.4881582260131,0.0,6.25,0.521240181,1.2350999999999985,0.0,-24604.0,2.25,-45.0,-694.4881582260131,0.0,6.75,4.490966337000001,3.7184999999999984,0.0,0.5600000023841858,-0.3199999928474426,-96.27999877929688,-0.0225830078125,0.0262451171875,1.012451171875,36.5099983215332,0.0,-14.0,2.1564483642578125,-2.0420074462890625,Closing,0.0,0.0,3.0,0.0,0.0,0.0,0.0,0.125,
9.890945000000007,0.0,0.0,84686.0,7.625,-67.5,-912.7559208869933,0.0,1.125,2.020263465,1.2330627499999984,0.0,-152431.0,8.875,97.5,912.7559208869933,0.0,2.0,1.7419431810000001,1.2409424999999985,0.0,13935.0,8.875,-60.0,-912.7559208869933,0.0,1.25,4.545897972000001,1.2350999999999985,0.0,-24620.0,6.625,-142.5,-912.7559208869933,0.0,1.375,0.523681587,3.7184999999999984,0.0,-0.17000000178813934,-0.5199999809265137,-97.31999969482422,-0.030029296875,-0.12005615234375,1.12396240234375,36.5099983215332,0.0,118.0,2.163055419921875,-2.042877197265625,Closing,0.0,0.0,3.0,0.0,0.0,0.0,0.0,0.0,
10.00693299999999,0.0,0.0,84594.0,8.625,-330.0,-912.7559208869933,0.0,0.375,1.7846677860000002,1.2330627499999984,0.0,-152378.0,10.75,427.5,912.7559208869933,0.0,0.25,1.48925766,1.2409424999999985,0.0,13900.0,14.375,-270.0,-912.7559208869933,0.0,0.0,4.265136282,1.2350999999999985,0.0,-24675.0,9.5,-375.0,-912.7559208869933,0.0,0.5,0.755615157,3.7184999999999984,0.0,-1.149999976158142,-0.9700000286102295,-96.31999969482422,0.09674072265625,-0.04949951171875,0.97271728515625,36.5099983215332,0.0,17.0,2.194244384765625,-2.047210693359375,Closing,0.0,0.0,3.0,0.0,0.0,0.0,0.0,0.125,
10.162258000000001,0.0,0.0,84484.0,1.375,-667.5,-377.00788199901575,0.0,0.75,1.881103323,1.2330627499999984,0.0,-152278.0,3.25,585.0,377.00788199901575,0.0,0.5,1.5588377310000001,1.2409424999999985,0.0,13826.0,6.5,-480.0,-377.00788199901575,0.0,0.25,4.486083525000001,1.2350999999999985,0.0,-24804.0,5.0,-405.0,-377.00788199901575,0.0,0.625,0.47485346700000003,3.7184999999999984,0.0,-0.9300000071525574,-0.7900000214576721,-93.83999633789062,-0.0350341796875,0.0543212890625,1.15692138671875,36.5099983215332,0.0,-71.0,2.23480224609375,-2.0498199462890625,Closing,0.0,0.0,3.0,0.0,0.0,0.0,0.0,0.125,
10.307271999999998,0.0,0.0,84406.0,0.0,-262.5,0.0,0.0,0.375,2.091064239,1.2330627499999984,0.0,-152138.0,0.0,315.0,0.0,0.0,0.25,1.807861143,1.2409424999999985,0.0,13698.0,0.0,-285.0,0.0,0.0,0.125,4.714354986,1.2350999999999985,0.0,-24857.0,0.125,-360.0,0.0,0.0,0.25,0.23315427300000002,3.7184999999999984,0.0,-0.2199999988079071,-0.5400000214576721,-93.88999938964844,0.0743408203125,0.00701904296875,0.81341552734375,36.5099983215332,0.0,-15.0,2.26629638671875,-2.050201416015625,Closing,0.0,0.0,3.0,0.0,0.0,0.0,0.0,0.125,
10.499690000000003,0.0,0.0,84291.0,3.0,-412.5,-1150.86611866951,0.0,0.25,2.1618650130000003,1.2330627499999984,0.0,-152087.0,5.875,427.5,1150.86611866951,0.0,0.25,1.8737791050000001,1.2409424999999985,0.0,13644.0,3.875,-330.0,-1150.86611866951,0.0,0.125,4.641112806000001,1.2350999999999985,0.0,-24914.0,3.125,-420.0,-1150.86611866951,0.0,0.375,0.23071286700000002,3.7184999999999984,0.0,-0.10999999940395355,-0.5199999809265137,-94.55000305175781,-0.04547119140625,0.0704345703125,1.17474365234375,36.5099983215332,0.0,-69.0,2.28466796875,-2.0483856201171875,Closing,0.0,0.0,3.0,0.0,0.0,0.0,0.0,0.125,
10.663122999999992,0.0,0.0,84231.0,7.75,-465.0,-1170.7086288928986,0.0,0.375,2.137450953,1.2330627499999984,0.0,-151944.0,11.625,510.0,1170.7086288928986,0.0,0.25,1.8676755900000002,1.2409424999999985,0.0,13506.0,8.75,-487.5,-1170.7086288928986,0.0,0.125,4.586181171000001,1.2350999999999985,0.0,-25067.0,6.75,-562.5,-1170.7086288928986,0.0,0.375,0.47973627900000004,3.7184999999999984,0.0,-1.0199999809265137,-0.3799999952316284,-95.2699966430664,0.02142333984375,-0.2208251953125,1.050048828125,36.4900016784668,0.0,198.0,2.3131561279296875,-2.0455322265625,Closing,0.0,0.0,3.0,0.0,0.0,0.0,0.0,0.125,
10.84276800000001,0.0,0.0,84047.0,0.0,-502.5,0.0,0.0,0.375,2.054443149,1.2330627499999984,0.0,-151855.0,0.0,547.5,0.0,0.0,0.25,1.746825993,1.2409424999999985,0.0,13444.0,0.0,-292.5,0.0,0.0,0.0,4.573974141,1.2350999999999985,0.0,-25168.0,0.125,-502.5,0.0,0.0,0.5,0.527343696,3.7184999999999984,0.0,-0.7300000190734863,-0.4000000059604645,-94.8499984741211,-0.0478515625,0.13427734375,0.99847412109375,36.4900016784668,0.0,-143.0,2.3551177978515625,-2.03839111328125,Closing,0.0,0.0,3.0,0.0,0.0,0.0,0.0,0.125,
11.016611000000005,0.0,0.0,83959.0,0.0,-472.5,0.0,0.0,0.25,2.025146277,1.2330627499999984,0.0,-151674.0,0.0,487.5,0.0,0.0,0.0,1.7089842000000002,1.2409424999999985,0.0,13386.0,0.0,-307.5,0.0,0.0,0.0,4.554442893,1.2350999999999985,0.0,-25323.0,0.125,-457.5,0.0,0.0,0.5,0.36987300900000003,3.7184999999999984,0.0,0.0,-0.6100000143051147,-94.25,-0.02734375,0.0966796875,0.86761474609375,36.4900016784668,0.0,-94.0,2.3838043212890625,-2.03814697265625,Closing,0.0,0.0,3.0,0.0,0.0,0.0,0.0,0.0,
11.180910000000004,0.0,0.0,83886.0,2.625,-577.5,-1269.9212551116943,0.0,0.25,2.019042762,1.2330627499999984,0.0,-151586.0,3.875,570.0,1269.9212551116943,0.0,0.25,1.694335764,1.2409424999999985,0.0,13260.0,4.125,-435.0,-1269.9212551116943,0.0,0.0,4.572753438,1.2350999999999985,0.0,-25408.0,3.125,-547.5,-1269.9212551116943,0.0,0.125,0.311279265,3.7184999999999984,0.0,-0.05999999865889549,-0.75,-94.3499984741211,0.016845703125,-0.08319091796875,1.21038818359375,36.4900016784668,0.0,79.0,2.398162841796875,-2.0378570556640625,Closing,0.0,0.0,3.0,0.0,0.0,0.0,0.0,0.0,
11.34558600000001,0.0,0.0,83755.0,0.0,-240.0,0.0,0.0,0.25,2.025146277,1.2330627499999984,0.0,-151522.0,0.0,262.5,0.0,0.0,0.25,1.704101388,1.2409424999999985,0.0,13206.0,0.0,-270.0,0.0,0.0,0.0,4.569091329,1.2350999999999985,0.0,-25476.0,0.125,-322.5,0.0,0.0,0.25,0.34912105800000004,3.7184999999999984,0.0,0.20999999344348907,-0.6299999952316284,-94.75,-0.0032958984375,0.16192626953125,1.0142822265625,36.5099983215332,0.0,-158.0,2.41876220703125,-2.031494140625,Closing,0.0,0.0,3.0,0.0,0.0,0.0,0.0,0.0,
11.500489000000002,0.0,0.0,83698.0,0.0,-225.0,0.0,0.0,0.125,2.019042762,1.2330627499999984,0.0,-151428.0,0.0,255.0,0.0,0.0,0.25,1.7419431810000001,1.2409424999999985,0.0,13151.0,0.0,-172.5,0.0,0.0,0.0,4.573974141,1.2350999999999985,0.0,-25578.0,0.125,-217.5,0.0,0.0,0.25,0.38818355400000004,3.7184999999999984,0.0,0.7799999713897705,-0.6299999952316284,-94.83999633789062,0.025390625,-0.00732421875,1.13421630859375,36.5099983215332,0.0,19.0,2.427703857421875,-2.03021240234375,Closing,0.0,0.0,3.0,0.0,0.0,0.0,0.0,0.125,
11.657842999999993,0.0,0.0,83643.0,0.0,-127.5,0.0,0.0,0.25,2.025146277,1.2330627499999984,0.0,-151404.0,0.0,127.5,0.0,0.0,0.125,1.750488102,1.2409424999999985,0.0,13111.0,0.0,-97.5,0.0,0.0,0.0,4.573974141,1.2350999999999985,0.0,-25604.0,0.125,-127.5,0.0,0.0,0.25,0.38818355400000004,3.7184999999999984,0.0,1.2400000095367432,-0.6200000047683716,-94.91000366210938,-0.018310546875,0.089599609375,1.07861328125,36.5099983215332,0.0,-65.0,2.4307403564453125,-2.0301971435546875,Closing,0.0,0.0,3.0,0.0,0.0,0.0,0.0,0.125,
11.83854800000001,0.0,0.0,83641.0,0.0,-7.5,0.0,0.0,0.25,2.019042762,1.2330627499999984,0.0,-151396.0,0.0,15.0,0.0,0.0,0.0,1.750488102,1.2409424999999985,0.0,13111.0,0.0,0.0,0.0,0.0,0.0,4.573974141,1.2350999999999985,0.0,-25615.0,0.125,-7.5,0.0,0.0,0.25,0.38818355400000004,3.7184999999999984,0.0,1.440000057220459,-0.6200000047683716,-94.9000015258789,-0.005859375,-0.01385498046875,1.01971435546875,36.5,0.0,39.0,2.4276885986328125,-2.0301971435546875,Closing,0.0,0.0,3.0,0.0,0.0,0.0,0.0,0.125,
11.97662400000001,0.0,0.0,83641.0,0.0,0.0,0.0,0.0,0.25,2.025146277,1.2330627499999984,0.0,-151396.0,0.0,0.0,0.0,0.0,0.0,1.751708805,1.2409424999999985,0.0,13111.0,0.0,0.0,0.0,0.0,0.0,4.573974141,1.2350999999999985,0.0,-25615.0,0.125,0.0,0.0,0.0,0.125,0.38818355400000004,3.7184999999999984,0.0,1.2100000381469727,-0.6299999952316284,-94.9000015258789,-0.0068359375,-0.012451171875,1.0181884765625,36.5,0.0,33.0,2.431121826171875,-2.0301971435546875,Closing,0.0,0.0,3.0,0.0,0.0,0.0,0.0,0.125,
12.130091000000014,0.0,0.0,83641.0,0.0,0.0,0.0,0.0,0.25,2.025146277,1.2330627499999984,0.0,-151396.0,0.0,0.0,0.0,0.0,0.0,1.751708805,1.2409424999999985,0.0,13111.0,0.0,0.0,0.0,0.0,0.0,4.573974141,1.2350999999999985,0.0,-25615.0,0.125,0.0,0.0,0.0,0.125,0.38818355400000004,3.7184999999999984,0.0,1.090000033378601,-0.6200000047683716,-94.91000366210938,-0.00872802734375,0.01513671875,1.02484130859375,36.5,0.0,4.0,2.43463134765625,-2.0301971435546875,Closing,0.0,0.0,3.0,0.0,0.0,0.0,0.0,0.125,
12.309288,0.0,0.0,83641.0,0.0,0.0,0.0,0.0,0.25,2.025146277,1.2330627499999984,0.0,-151396.0,0.0,0.0,0.0,0.0,0.0,1.751708805,1.2409424999999985,0.0,13111.0,0.0,0.0,0.0,0.0,0.0,4.573974141,1.2350999999999985,0.0,-25615.0,0.125,0.0,0.0,0.0,0.125,0.38818355400000004,3.7184999999999984,0.0,1.0199999809265137,-0.6000000238418579,-94.91999816894531,-0.0068359375,-3.0517578125E-4,1.0224609375,36.529998779296875,0.0,18.0,2.43463134765625,-2.0301971435546875,Closing,0.0,0.0,3.0,0.0,0.0,0.0,0.0,0.125,
12.492902000000003,0.0,0.0,83641.0,0.0,0.0,0.0,0.0,0.25,2.025146277,1.2330627499999984,0.0,-151396.0,0.0,0.0,0.0,0.0,0.0,1.750488102,1.2409424999999985,0.0,13111.0,0.0,0.0,0.0,0.0,0.0,4.573974141,1.2350999999999985,0.0,-25615.0,0.125,0.0,0.0,0.0,0.125,0.38818355400000004,3.7184999999999984,0.0,0.9399999976158142,-0.6000000238418579,-94.91999816894531,-0.01055908203125,0.0086669921875,1.01727294921875,36.529998779296875,0.0,8.0,2.43463134765625,-2.0301971435546875,Closing,0.0,0.0,3.0,0.0,0.0,0.0,0.0,0.125,
12.635564000000013,0.0,0.0,83641.0,0.0,0.0,0.0,0.0,0.25,2.025146277,1.2330627499999984,0.0,-151396.0,0.0,0.0,0.0,0.0,0.0,1.750488102,1.2409424999999985,0.0,13111.0,0.0,0.0,0.0,0.0,0.0,4.572753438,1.2350999999999985,0.0,-25615.0,0.125,0.0,0.0,0.0,0.125,0.38940425700000003,3.7184999999999984,0.0,0.8799999952316284,-0.6000000238418579,-94.91999816894531,-0.01287841796875,0.003662109375,1.0205078125,36.529998779296875,0.0,12.0,2.43463134765625,-2.0301971435546875,Closing,0.0,0.0,3.0,0.0,0.0,0.0,0.0,0.125,
12.777973999999988,0.0,0.0,83641.0,0.0,0.0,0.0,0.0,0.25,2.025146277,1.2330627499999984,0.0,-151396.0,0.0,0.0,0.0,0.0,0.0,1.750488102,1.2409424999999985,0.0,13111.0,0.0,0.0,0.0,0.0,0.0,4.572753438,1.2350999999999985,0.0,-25615.0,0.125,0.0,0.0,0.0,0.125,0.38940425700000003,3.7184999999999984,0.0,0.8199999928474426,-0.6100000143051147,-94.91999816894531,-0.0086669921875,0.0101318359375,1.02130126953125,36.5099983215332,0.0,4.0,2.43463134765625,-2.0301971435546875,Closing,0.0,0.0,3.0,0.0,0.0,0.0,0.0,0.125,
12.958747000000002,0.0,0.0,83641.0,0.0,0.0,0.0,0.0,0.25,2.025146277,1.2330627499999984,0.0,-151396.0,0.0,0.0,0.0,0.0,0.0,1.751708805,1.2409424999999985,0.0,13111.0,0.0,0.0,0.0,0.0,0.0,4.573974141,1.2350999999999985,0.0,-25615.0,0.125,0.0,0.0,0.0,0.25,0.38818355400000004,3.7184999999999984,0.0,0.7599999904632568,-0.6000000238418579,-94.91000366210938,-0.0084228515625,0.00390625,1.01959228515625,36.5099983215332,0.0,9.0,2.43463134765625,-2.0301971435546875,Closing,0.0,0.0,3.0,0.0,0.0,0.0,0.0,0.125,
13.114415000000008,0.0,0.0,83641.0,0.0,0.0,0.0,0.0,0.25,2.025146277,1.2330627499999984,0.0,-151396.0,0.0,0.0,0.0,0.0,0.0,1.751708805,1.2409424999999985,0.0,13111.0,0.0,0.0,0.0,0.0,0.0,4.573974141,1.2350999999999985,0.0,-25615.0,0.125,0.0,0.0,0.0,0.125,0.38818355400000004,3.7184999999999984,0.0,0.7200000286102295,-0.6000000238418579,-94.91000366210938,-0.01043701171875,0.0069580078125,1.017333984375,36.5099983215332,0.0,5.0,2.43463134765625,-2.0301971435546875,Closing,0.0,0.0,3.0,0.0,0.0,0.0,0.0,0.125,
13.276157999999995,0.0,0.0,83641.0,0.0,0.0,0.0,0.0,0.25,2.025146277,1.2330627499999984,0.0,-151396.0,0.0,0.0,0.0,0.0,0.0,1.751708805,1.2409424999999985,0.0,13111.0,0.0,0.0,0.0,0.0,0.0,4.573974141,1.2350999999999985,0.0,-25615.0,0.125,0.0,0.0,0.0,0.125,0.38818355400000004,3.7184999999999984,0.0,0.6800000071525574,-0.6000000238418579,-94.91000366210938,-0.0107421875,0.00616455078125,1.02227783203125,36.540000915527344,0.0,6.0,2.43463134765625,-2.0301971435546875,Closing,0.0,0.0,3.0,0.0,0.0,0.0,0.0,0.125,
13.440458000000014,0.0,0.0,83641.0,0.0,0.0,0.0,0.0,0.25,2.020263465,1.2330627499999984,0.0,-151396.0,0.0,0.0,0.0,0.0,0.0,1.750488102,1.2409424999999985,0.0,13111.0,0.0,0.0,0.0,0.0,0.0,4.573974141,1.2350999999999985,0.0,-25615.0,0.125,0.0,0.0,0.0,0.125,0.38818355400000004,3.7184999999999984,0.0,0.6499999761581421,-0.6000000238418579,-94.91000366210938,-0.00836181640625,0.00732421875,1.01947021484375,36.540000915527344,0.0,4.0,2.43463134765625,-2.0301971435546875,Closing,0.0,0.0,3.0,0.0,0.0,0.0,0.0,0.125,
13.578758999999991,0.0,0.0,83641.0,0.0,0.0,0.0,0.0,0.25,2.023925574,1.2330627499999984,0.0,-151396.0,0.0,0.0,0.0,0.0,0.0,1.750488102,1.2409424999999985,0.0,13111.0,0.0,0.0,0.0,0.0,0.0,4.573974141,1.2350999999999985,0.0,-25615.0,0.125,0.0,0.0,0.0,0.125,0.38818355400000004,3.7184999999999984,0.0,0.6299999952316284,-0.6000000238418579,-94.91000366210938,-0.01116943359375,0.00726318359375,1.01995849609375,36.540000915527344,0.0,4.0,2.43463134765625,-2.0301971435546875,Closing,0.0,0.0,3.0,0.0,0.0,0.0,0.0,0.125,
13.739269999999989,0.0,0.0,83641.0,0.0,0.0,0.0,0.0,0.25,2.025146277,1.2330627499999984,0.0,-151396.0,0.0,0.0,0.0,0.0,0.0,1.751708805,1.2409424999999985,0.0,13111.0,0.0,0.0,0.0,0.0,0.0,4.572753438,1.2350999999999985,0.0,-25615.0,0.125,0.0,0.0,0.0,0.125,0.38818355400000004,3.7184999999999984,0.0,0.6000000238418579,-0.5899999737739563,-94.9000015258789,-0.01092529296875,0.00689697265625,1.0146484375,36.540000915527344,0.0,3.0,2.43463134765625,-2.0301971435546875,Closing,0.0,0.0,3.0,0.0,0.0,0.0,0.0,0.125,
13.902184000000009,0.0,0.0,83641.0,0.0,0.0,0.0,0.0,0.25,2.025146277,1.2330627499999984,0.0,-151396.0,0.0,0.0,0.0,0.0,0.0,1.750488102,1.2409424999999985,0.0,13111.0,0.0,0.0,0.0,0.0,0.0,4.572753438,1.2350999999999985,0.0,-25615.0,0.125,0.0,0.0,0.0,0.125,0.38818355400000004,3.7184999999999984,0.0,0.5799999833106995,-0.6000000238418579,-94.9000015258789,-0.011474609375,0.00567626953125,1.02337646484375,36.5099983215332,0.0,4.0,2.43463134765625,-2.0301971435546875,Closing,0.0,0.0,3.0,0.0,0.0,0.0,0.0,0.125,
14.044986000000005,0.0,0.0,83641.0,0.0,0.0,0.0,0.0,0.125,2.025146277,1.2330627499999984,0.0,-151396.0,0.0,0.0,0.0,0.0,0.0,1.750488102,1.2409424999999985,0.0,13111.0,0.0,0.0,0.0,0.0,0.0,4.572753438,1.2350999999999985,0.0,-25615.0,0.125,0.0,0.0,0.0,0.125,0.38818355400000004,3.7184999999999984,0.0,0.5600000023841858,-0.6000000238418579,-94.91000366210938,-0.0115966796875,0.007568359375,1.0225830078125,36.5099983215332,0.0,2.0,2.43463134765625,-2.0301971435546875,Closing,0.0,0.0,3.0,0.0,0.0,0.0,0.0,0.125,
14.22164499999999,0.0,0.0,83641.0,0.0,0.0,0.0,0.0,0.25,2.025146277,1.2330627499999984,0.0,-151396.0,0.0,0.0,0.0,0.0,0.0,1.750488102,1.2409424999999985,0.0,13111.0,0.0,0.0,0.0,0.0,0.0,4.572753438,1.2350999999999985,0.0,-25615.0,0.125,0.0,0.0,0.0,0.125,0.38818355400000004,3.7184999999999984,0.0,0.5400000214576721,-0.6100000143051147,-94.91000366210938,-0.00738525390625,0.00653076171875,1.0194091796875,36.5099983215332,0.0,2.0,2.43463134765625,-2.0301971435546875,Closing,0.0,0.0,3.0,0.0,0.0,0.0,0.0,0.125,
14.38125099999999,0.0,0.0,83641.0,0.0,0.0,0.0,0.0,0.25,2.023925574,1.2330627499999984,0.0,-151396.0,0.0,0.0,0.0,0.0,0.0,1.750488102,1.2409424999999985,0.0,13111.0,0.0,0.0,0.0,0.0,0.0,4.573974141,1.2350999999999985,0.0,-25615.0,0.125,0.0,0.0,0.0,0.125,0.38940425700000003,3.7184999999999984,0.0,0.5299999713897705,-0.6100000143051147,-94.91000366210938,-0.011474609375,0.00787353515625,1.01495361328125,36.529998779296875,0.0,1.0,2.43463134765625,-2.0301971435546875,Closing,0.0,0.0,3.0,0.0,0.0,0.0,0.0,0.0,
14.521190999999991,0.0,0.0,83641.0,0.0,0.0,0.0,0.0,0.25,2.025146277,1.2330627499999984,0.0,-151396.0,0.0,0.0,0.0,0.0,0.0,1.750488102,1.2409424999999985,0.0,13111.0,0.0,0.0,0.0,0.0,0.0,4.572753438,1.2350999999999985,0.0,-25615.0,0.125,0.0,0.0,0.0,0.125,0.38818355400000004,3.7184999999999984,0.0,0.5099999904632568,-0.6100000143051147,-94.91000366210938,-0.0096435546875,0.00433349609375,1.02056884765625,36.529998779296875,0.0,4.0,2.43463134765625,-2.0301971435546875,Closing,0.0,0.0,3.0,0.0,0.0,0.0,0.0,0.125,
14.680450000000011,0.0,0.0,83641.0,0.0,0.0,0.0,0.0,0.25,2.020263465,1.2330627499999984,0.0,-151396.0,0.0,0.0,0.0,0.0,0.0,1.751708805,1.2409424999999985,0.0,13111.0,0.0,0.0,0.0,0.0,0.0,4.572753438,1.2350999999999985,0.0,-25615.0,0.125,0.0,0.0,0.0,0.125,0.38818355400000004,3.7184999999999984,0.0,0.49000000953674316,-0.6100000143051147,-94.91000366210938,-0.00872802734375,0.0072021484375,1.02587890625,36.529998779296875,0.0,1.0,2.43463134765625,-2.0301971435546875,Closing,0.0,0.0,3.0,0.0,0.0,0.0,0.0,0.0,
14.836815000000003,0.0,0.0,83641.0,0.0,0.0,0.0,0.0,0.25,2.025146277,1.2330627499999984,0.0,-151396.0,0.0,0.0,0.0,0.0,0.0,1.750488102,1.2409424999999985,0.0,13111.0,0.0,0.0,0.0,0.0,0.0,4.573974141,1.2350999999999985,0.0,-25615.0,0.125,0.0,0.0,0.0,0.25,0.38818355400000004,3.7184999999999984,0.0,0.47999998927116394,-0.6000000238418579,-94.91999816894531,-0.010986328125,0.005615234375,1.01849365234375,36.52000045776367,0.0,3.0,2.43463134765625,-2.0301971435546875,Closing,0.0,0.0,3.0,0.0,0.0,0.0,0.0,0.0,
14.976663999999989,0.0,0.0,83641.0,0.0,0.0,0.0,0.0,0.25,2.025146277,1.2330627499999984,0.0,-151396.0,0.0,0.0,0.0,0.0,0.0,1.751708805,1.2409424999999985,0.0,13111.0,0.0,0.0,0.0,0.0,0.0,4.572753438,1.2350999999999985,0.0,-25615.0,0.125,0.0,0.0,0.0,0.125,0.38818355400000004,3.7184999999999984,0.0,0.4699999988079071,-0.6000000238418579,-94.91000366210938,-0.01202392578125,0.00506591796875,1.02105712890625,36.52000045776367,0.0,3.0,2.43463134765625,-2.0301971435546875,Closing,0.0,0.0,3.0,0.0,0.0,0.0,0.0,0.0,
15.118772999999987,0.0,0.0,83641.0,0.0,0.0,0.0,0.0,0.25,2.023925574,1.2330627499999984,0.0,-151396.0,0.0,0.0,0.0,0.0,0.0,1.750488102,1.2409424999999985,0.0,13111.0,0.0,0.0,0.0,0.0,0.0,4.571532735,1.2350999999999985,0.0,-25615.0,0.125,0.0,0.0,0.0,0.125,0.38818355400000004,3.7184999999999984,0.0,0.46000000834465027,-0.5899999737739563,-94.91000366210938,-0.0091552734375,0.0078125,1.0201416015625,36.52000045776367,0.0,0.0,2.43463134765625,-2.0301971435546875,Closing,0.0,0.0,3.0,0.0,0.0,0.0,0.0,0.0,
15.300296000000001,0.0,0.0,83641.0,0.0,0.0,0.0,0.0,0.25,2.025146277,1.2330627499999984,0.0,-151396.0,0.0,0.0,0.0,0.0,0.0,1.750488102,1.2409424999999985,0.0,13111.0,0.0,0.0,0.0,0.0,0.0,4.575194844,1.2350999999999985,0.0,-25615.0,0.125,0.0,0.0,0.0,0.125,0.38818355400000004,3.7184999999999984,0.0,0.44999998807907104,-0.5899999737739563,-94.91999816894531,-0.009033203125,0.005615234375,1.01300048828125,36.540000915527344,0.0,2.0,2.43463134765625,-2.0301971435546875,Closing,0.0,0.0,3.0,0.0,0.0,0.0,0.0,0.125,
15.451037000000012,0.0,0.0,83641.0,0.0,0.0,0.0,0.0,0.25,2.023925574,1.2330627499999984,0.0,-151396.0,0.0,0.0,0.0,0.0,0.0,1.751708805,1.2409424999999985,0.0,13111.0,0.0,0.0,0.0,0.0,0.0,4.573974141,1.2350999999999985,0.0,-25615.0,0.125,0.0,0.0,0.0,0.125,0.38818355400000004,3.7184999999999984,0.0,0.44999998807907104,-0.5899999737739563,-94.91000366210938,-0.00897216796875,0.0086669921875,1.02484130859375,36.540000915527344,0.0,0.0,2.43463134765625,-2.0301971435546875,Closing,0.0,0.0,3.0,0.0,0.0,0.0,0.0,0.0,
15.621722999999998,0.0,0.0,83641.0,0.0,0.0,0.0,0.0,0.25,2.025146277,1.2330627499999984,0.0,-151396.0,0.0,0.0,0.0,0.0,0.0,1.750488102,1.2409424999999985,0.0,13111.0,0.0,0.0,0.0,0.0,0.0,4.572753438,1.2350999999999985,0.0,-25615.0,0.125,0.0,0.0,0.0,0.125,0.38818355400000004,3.7184999999999984,0.0,0.4399999976158142,-0.5799999833106995,-94.91000366210938,-0.009521484375,0.00555419921875,1.02008056640625,36.540000915527344,0.0,2.0,2.43463134765625,-2.0301971435546875,Closing,0.0,0.0,3.0,0.0,0.0,0.0,0.0,0.125,
15.755986000000004,0.0,0.0,83641.0,0.0,0.0,0.0,0.0,0.25,2.025146277,1.2330627499999984,0.0,-151396.0,0.0,0.0,0.0,0.0,0.0,1.751708805,1.2409424999999985,0.0,13111.0,0.0,0.0,0.0,0.0,0.0,4.573974141,1.2350999999999985,0.0,-25615.0,0.125,0.0,0.0,0.0,0.125,0.38818355400000004,3.7184999999999984,0.0,0.4300000071525574,-0.5899999737739563,-94.91000366210938,-0.0087890625,0.0050048828125,1.01959228515625,36.540000915527344,0.0,2.0,2.43463134765625,-2.0301971435546875,Closing,0.0,0.0,3.0,0.0,0.0,0.0,0.0,0.125,
15.898867999999988,0.0,0.0,83641.0,0.0,0.0,0.0,0.0,0.25,2.025146277,1.2330627499999984,0.0,-151396.0,0.0,0.0,0.0,0.0,0.0,1.751708805,1.2409424999999985,0.0,13111.0,0.0,0.0,0.0,0.0,0.0,4.573974141,1.2350999999999985,0.0,-25615.0,0.125,0.0,0.0,0.0,0.25,0.38940425700000003,3.7184999999999984,0.0,0.4300000071525574,-0.5799999833106995,-94.91000366210938,-0.00921630859375,0.0078125,1.01727294921875,36.54999923706055,0.0,0.0,2.43463134765625,-2.0301971435546875,Closing,0.0,0.0,3.0,0.0,0.0,0.0,0.0,0.125,
16.031421,0.0,0.0,83641.0,0.0,0.0,0.0,0.0,0.25,2.020263465,1.2330627499999984,0.0,-151396.0,0.0,0.0,0.0,0.0,0.0,1.750488102,1.2409424999999985,0.0,13111.0,0.0,0.0,0.0,0.0,0.0,4.572753438,1.2350999999999985,0.0,-25615.0,0.125,0.0,0.0,0.0,0.125,0.38818355400000004,3.7184999999999984,0.0,0.4300000071525574,-0.5799999833106995,-94.91000366210938,-0.009033203125,0.0050048828125,1.0225830078125,36.54999923706055,0.0,2.0,2.43463134765625,-2.0301971435546875,Closing,0.0,0.0,3.0,0.0,0.0,0.0,0.0,0.125,
16.158910000000002,0.0,0.0,83641.0,0.0,0.0,0.0,0.0,0.25,2.025146277,1.2330627499999984,0.0,-151396.0,0.0,0.0,0.0,0.0,0.0,1.751708805,1.2409424999999985,0.0,13111.0,0.0,0.0,0.0,0.0,0.0,4.573974141,1.2350999999999985,0.0,-25615.0,0.125,0.0,0.0,0.0,0.125,0.38818355400000004,3.7184999999999984,0.0,0.4300000071525574,-0.5699999928474426,-94.91000366210938,-0.0101318359375,0.00994873046875,1.0157470703125,36.54999923706055,0.0,-2.0,2.43463134765625,-2.0301971435546875,Closing,0.0,0.0,3.0,0.0,0.0,0.0,0.0,0.0,
16.318617999999987,0.0,0.0,83641.0,0.0,0.0,0.0,0.0,0.25,2.020263465,1.2330627499999984,0.0,-151396.0,0.0,0.0,0.0,0.0,0.0,1.750488102,1.2409424999999985,0.0,13111.0,0.0,0.0,0.0,0.0,0.0,4.575194844,1.2350999999999985,0.0,-25615.0,0.125,0.0,0.0,0.0,0.125,0.38940425700000003,3.7184999999999984,0.0,0.4300000071525574,-0.5699999928474426,-94.91000366210938,-0.010009765625,0.00689697265625,1.01751708984375,36.56999969482422,0.0,0.0,2.43463134765625,-2.0301971435546875,Closing,0.0,0.0,3.0,0.0,0.0,0.0,0.0,0.125,
16.472562999999994,0.0,0.0,83641.0,0.0,0.0,0.0,0.0,0.25,2.025146277,1.2330627499999984,0.0,-151396.0,0.0,0.0,0.0,0.0,0.0,1.751708805,1.2409424999999985,0.0,13111.0,0.0,0.0,0.0,0.0,0.0,4.573974141,1.2350999999999985,0.0,-25615.0,0.125,0.0,0.0,0.0,0.125,0.38818355400000004,3.7184999999999984,0.0,0.41999998688697815,-0.5699999928474426,-94.91999816894531,-0.01025390625,0.0064697265625,1.0191650390625,36.56999969482422,0.0,1.0,2.43463134765625,-2.0301971435546875,Closing,0.0,0.0,3.0,0.0,0.0,0.0,0.0,0.125,
16.641429000000002,0.0,0.0,83641.0,0.0,0.0,0.0,0.0,0.25,2.023925574,1.2330627499999984,0.0,-151396.0,0.0,0.0,0.0,0.0,0.0,1.751708805,1.2409424999999985,0.0,13111.0,0.0,0.0,0.0,0.0,0.0,4.573974141,1.2350999999999985,0.0,-25615.0,0.125,0.0,0.0,0.0,0.25,0.38940425700000003,3.7184999999999984,0.0,0.41999998688697815,-0.5600000023841858,-94.91999816894531,-0.01324462890625,0.0052490234375,1.01611328125,36.56999969482422,0.0,2.0,2.43463134765625,-2.0301971435546875,Closing,0.0,0.0,3.0,0.0,0.0,0.0,0.0,0.0,
16.823823999999995,0.0,0.0,83641.0,0.0,0.0,0.0,0.0,0.25,2.025146277,1.2330627499999984,0.0,-151396.0,0.0,0.0,0.0,0.0,0.0,1.751708805,1.2409424999999985,0.0,13111.0,0.0,0.0,0.0,0.0,0.0,4.572753438,1.2350999999999985,0.0,-25615.0,0.125,0.0,0.0,0.0,0.125,0.38818355400000004,3.7184999999999984,0.0,0.4099999964237213,-0.5600000023841858,-94.91999816894531,-0.01190185546875,0.00738525390625,1.0167236328125,36.560001373291016,0.0,0.0,2.43463134765625,-2.0301971435546875,Closing,0.0,0.0,3.0,0.0,0.0,0.0,0.0,0.125,
16.97036600000001,0.0,0.0,83641.0,0.0,0.0,0.0,0.0,0.25,2.020263465,1.2330627499999984,0.0,-151396.0,0.0,0.0,0.0,0.0,0.0,1.750488102,1.2409424999999985,0.0,13111.0,0.0,0.0,0.0,0.0,0.0,4.572753438,1.2350999999999985,0.0,-25615.0,0.125,0.0,0.0,0.0,0.125,0.38818355400000004,3.7184999999999984,0.0,0.4099999964237213,-0.5600000023841858,-94.91999816894531,-0.00885009765625,0.00567626953125,1.01898193359375,36.560001373291016,0.0,1.0,2.43463134765625,-2.0301971435546875,Closing,0.0,0.0,3.0,0.0,0.0,0.0,0.0,0.0,
17.142462,0.0,0.0,83641.0,0.0,0.0,0.0,0.0,0.25,2.025146277,1.2330627499999984,0.0,-151396.0,0.0,0.0,0.0,0.0,0.0,1.750488102,1.2409424999999985,0.0,13111.0,0.0,0.0,0.0,0.0,0.0,4.571532735,1.2350999999999985,0.0,-25615.0,0.125,0.0,0.0,0.0,0.25,0.38818355400000004,3.7184999999999984,0.0,0.4099999964237213,-0.5600000023841858,-94.91999816894531,-0.00982666015625,0.0076904296875,1.01458740234375,36.560001373291016,0.0,0.0,2.43463134765625,-2.0301971435546875,Closing,0.0,0.0,3.0,0.0,0.0,0.0,0.0,0.0,
17.31671299999999,0.0,0.0,83641.0,0.0,0.0,0.0,0.0,0.25,2.019042762,1.2330627499999984,0.0,-151396.0,0.0,0.0,0.0,0.0,0.0,1.751708805,1.2409424999999985,0.0,13111.0,0.0,0.0,0.0,0.0,0.0,4.573974141,1.2350999999999985,0.0,-25615.0,0.125,0.0,0.0,0.0,0.125,0.38818355400000004,3.7184999999999984,0.0,0.4000000059604645,-0.5699999928474426,-94.93000030517578,-0.00799560546875,0.0042724609375,1.02130126953125,36.58000183105469,0.0,2.0,2.43463134765625,-2.0301971435546875,Closing,0.0,0.0,3.0,0.0,0.0,0.0,0.0,0.125,
17.48482699999999,0.0,0.0,83641.0,0.0,0.0,0.0,0.0,0.25,2.019042762,1.2330627499999984,0.0,-151396.0,0.0,0.0,0.0,0.0,0.0,1.750488102,1.2409424999999985,0.0,13111.0,0.0,0.0,0.0,0.0,0.0,4.575194844,1.2350999999999985,0.0,-25615.0,0.125,0.0,0.0,0.0,0.125,0.38940425700000003,3.7184999999999984,0.0,0.4000000059604645,-0.5799999833106995,-94.93000030517578,-0.00982666015625,0.0045166015625,1.01910400390625,36.58000183105469,0.0,2.0,2.43463134765625,-2.0301971435546875,Closing,0.0,0.0,3.0,0.0,0.0,0.0,0.0,0.125,
17.645777999999993,0.0,0.0,83641.0,0.0,0.0,0.0,0.0,0.25,2.025146277,1.2330627499999984,0.0,-151396.0,0.0,0.0,0.0,0.0,0.0,1.750488102,1.2409424999999985,0.0,13111.0,0.0,0.0,0.0,0.0,0.0,4.573974141,1.2350999999999985,0.0,-25615.0,0.125,0.0,0.0,0.0,0.125,0.38818355400000004,3.7184999999999984,0.0,0.4000000059604645,-0.5699999928474426,-94.93000030517578,-0.00762939453125,0.008544921875,1.0174560546875,36.58000183105469,0.0,-1.0,2.43463134765625,-2.0301971435546875,Closing,0.0,0.0,3.0,0.0,0.0,0.0,0.0,0.125,
17.815913000000002,0.0,0.0,83641.0,0.0,0.0,0.0,0.0,0.125,2.025146277,1.2330627499999984,0.0,-151396.0,0.0,0.0,0.0,0.0,0.0,1.750488102,1.2409424999999985,0.0,13111.0,0.0,0.0,0.0,0.0,0.0,4.572753438,1.2350999999999985,0.0,-25615.0,0.125,0.0,0.0,0.0,0.125,0.38818355400000004,3.7184999999999984,0.0,0.4000000059604645,-0.5699999928474426,-94.93000030517578,-0.00933837890625,0.00732421875,1.02545166015625,36.58000183105469,0.0,0.0,2.43463134765625,-2.0301971435546875,Closing,0.0,0.0,3.0,0.0,0.0,0.0,0.0,0.125,
17.965135999999998,0.0,0.0,83641.0,0.0,0.0,0.0,0.0,0.25,2.019042762,1.2330627499999984,0.0,-151396.0,0.0,0.0,0.0,0.0,0.0,1.750488102,1.2409424999999985,0.0,13111.0,0.0,0.0,0.0,0.0,0.0,4.573974141,1.2350999999999985,0.0,-25615.0,0.125,0.0,0.0,0.0,0.125,0.38818355400000004,3.7184999999999984,0.0,0.4000000059604645,-0.5600000023841858,-94.93000030517578,-0.0089111328125,0.005126953125,1.01922607421875,36.58000183105469,0.0,1.0,2.43463134765625,-2.0301971435546875,Closing,0.0,0.0,3.0,0.0,0.0,0.0,0.0,0.125,
18.111888000000008,0.0,0.0,83641.0,0.0,0.0,0.0,0.0,0.25,2.025146277,1.2330627499999984,0.0,-151396.0,0.0,0.0,0.0,0.0,0.0,1.751708805,1.2409424999999985,0.0,13111.0,0.0,0.0,0.0,0.0,0.0,4.573974141,1.2350999999999985,0.0,-25615.0,0.125,0.0,0.0,0.0,0.125,0.38818355400000004,3.7184999999999984,0.0,0.38999998569488525,-0.5699999928474426,-94.93000030517578,-0.00750732421875,0.00494384765625,1.01605224609375,36.58000183105469,0.0,1.0,2.43463134765625,-2.0301971435546875,Closing,0.0,0.0,3.0,0.0,0.0,0.0,0.0,0.125,
18.293619000000007,0.0,0.0,83641.0,0.0,0.0,0.0,0.0,0.25,2.025146277,1.2330627499999984,0.0,-151396.0,0.0,0.0,0.0,0.0,0.0,1.751708805,1.2409424999999985,0.0,13111.0,0.0,0.0,0.0,0.0,0.0,4.573974141,1.2350999999999985,0.0,-25615.0,0.125,0.0,0.0,0.0,0.125,0.38818355400000004,3.7184999999999984,0.0,0.38999998569488525,-0.5699999928474426,-94.94000244140625,-0.011474609375,0.00823974609375,1.015380859375,36.58000183105469,0.0,-1.0,2.43463134765625,-2.0301971435546875,Closing,0.0,0.0,3.0,0.0,0.0,0.0,0.0,0.125,
