Time,ClimberA1,ClimberA2,FRpos,FRCurrent,FRspeed,FRsetpoint,FRApos,FRACurrent,FREncpos,FREncSetpoint,FREncSpeed,FLpos,FLCurrent,FLspeed,FLsetpoint,FLApos,FLACurrent,FLEncpos,FLEncSetpoint,FLEncSpeed,BRpos,BRCurrent,BRspeed,BRsetpoint,BRApos,BRACurrent,BREncpos,BREncSetpoint,BREncSpeed,BLpos,BLCurrent,BLspeed,BLsetpoint,BLApos,BLACurrent,BLEncpos,BLEncSetpoint,BLEncSpeed,navx_Pitch,navx_Roll,navx_Yaw,navx_XAcc,navx_YAcc,navx_ZAcc,navx_Temp,navx_Bar,navx_Alt,navx_XDis,navx_YDis,GearPlacerState,ShootOutputV,ShootOutputCurrent,ShootEncPos,ShootEncVelocity,ShootSpeed,ShootSetpoint,CarouselSetpoint,CarouselCurrent,
0.15769499999999242,0.0,0.0,92583.0,0.0,0.0,0.0,0.0,0.25,0.845947179,0.01,0.0,-108764.0,0.0,0.0,0.0,0.0,0.125,0.53710932,0.01,0.0,1771.0,0.0,0.0,0.0,0.0,0.125,3.3776852010000002,0.01,0.0,-16749.0,0.125,0.0,0.0,0.0,0.25,1.5820310880000001,0.01,0.0,0.05000000074505806,-0.7699999809265137,-36.25,-0.0137939453125,0.0020751953125,1.0169677734375,36.400001525878906,0.0,0.0,0.9888916015625,-0.4679412841796875,Closing,0.0,0.0,3.0,0.0,0.0,0.0,0.0,0.0,
0.2130179999999964,0.0,0.0,92583.0,0.875,0.0,840.0,0.0,0.25,0.8422850700000001,0.01,0.0,-108764.0,0.875,0.0,-840.0,0.0,0.125,0.5432128350000001,0.01,0.0,1771.0,1.75,7.5,840.0,0.0,0.125,3.3789059040000002,0.01,0.0,-16749.0,1.0,-7.5,-840.0,0.0,0.25,1.5795896820000002,0.01,0.0,0.05999999865889549,-0.7400000095367432,-36.25,0.04766845703125,-0.0870361328125,0.989013671875,36.400001525878906,0.0,100.0,0.9889678955078125,-0.4678955078125,Closing,0.0,0.0,3.0,0.0,0.0,0.0,0.0,0.0,
0.26727999999999885,0.0,0.0,92608.0,2.5,165.0,840.0,0.0,0.25,0.8142089010000001,0.01,-0.003662108999999969,-108764.0,4.875,-45.0,-840.0,0.0,0.125,0.53710932,0.01,0.0,1792.0,2.5,255.0,840.0,0.0,0.125,3.3789059040000002,0.01,0.0012207029999999897,-16749.0,2.5,-97.5,-840.0,0.0,0.25,1.5869139,0.01,0.0,0.029999999329447746,-0.3799999952316284,-36.279998779296875,0.156494140625,0.00225830078125,1.0052490234375,36.400001525878906,0.0,130.0,0.9899139404296875,-0.4669036865234375,Closing,0.0,0.0,3.0,0.0,0.0,0.0,0.0,0.0,
0.32263000000000464,0.0,0.0,92608.0,3.375,255.0,840.0000000000001,0.0,0.25,0.8154296040000001,4.931839995807818,4.902954127999999,-108784.0,6.125,-82.5,-840.0000000000001,0.0,0.125,0.538330023,4.96335636933136,0.0012207029999995456,1792.0,2.625,435.0,840.0000000000001,0.0,0.125,3.3776852010000002,4.939988316752116,-0.0012207029999999897,-16783.0,4.25,-225.0,-840.0000000000001,0.0,0.25,1.616210772,4.957586850145128,0.004882811999999959,0.10999999940395355,-0.12999999523162842,-36.369998931884766,0.01654052734375,-0.08587646484375,1.2171630859375,36.400001525878906,0.0,67.0,0.993927001953125,-0.4638214111328125,Closing,0.0,0.0,3.0,0.0,0.0,0.0,0.0,0.0,
0.3741459999999934,0.0,0.0,92639.0,3.75,202.5,840.0,0.0,0.25,0.811767495,4.930606930967257,-0.0012207029999995456,-108784.0,7.625,-172.5,-840.0,0.0,0.25,0.535888617,4.96211542472744,-0.0012207029999995456,1858.0,2.25,367.5,840.0,0.0,0.125,3.3776852010000002,4.938753214658101,0.0,-16783.0,3.875,-195.0,-840.0,0.0,0.25,1.645507644,4.9563473480436535,0.028076169000000206,0.10999999940395355,0.17000000178813934,-36.34000015258789,0.115478515625,0.05487060546875,1.22186279296875,36.400001525878906,0.0,58.0,1.000152587890625,-0.4598236083984375,Closing,0.0,0.0,3.0,0.0,0.0,0.0,0.0,0.0,
0.4293479999999981,0.0,0.0,92639.0,5.25,262.5,839.9999999999999,0.0,0.125,0.8142089010000001,4.931017935159439,0.0,-108840.0,8.125,-307.5,-839.9999999999999,0.0,0.25,0.53710932,4.96252905539608,0.0012207029999995456,1858.0,3.375,277.5,839.9999999999999,0.0,0.125,3.3776852010000002,4.939164897905986,0.0,-16829.0,5.375,-262.5,-839.9999999999999,0.0,0.125,1.645507644,4.956760497898526,-4.928703128,0.12999999523162842,0.5,-36.290000915527344,0.05877685546875,0.02862548828125,1.127197265625,36.400001525878906,0.0,24.0,1.0059967041015625,-0.4551849365234375,Closing,0.0,0.0,3.0,0.0,0.0,0.0,0.0,0.0,
0.48380199999999607,0.0,0.0,92700.0,5.25,330.0,840.0000000000001,0.0,0.25,0.8178710100000001,4.931702959567748,0.0,-108840.0,7.625,-390.0,-840.0000000000001,0.0,0.25,0.53710932,4.96321845737648,-0.0012207029999995456,1911.0,4.625,315.0,840.0000000000001,0.0,0.125,3.3776852010000002,4.93985105410258,0.0,-16829.0,5.0,-375.0,-840.0000000000001,0.0,0.25,1.645507644,4.9574490985022654,0.0,0.10999999940395355,0.8199999928474426,-36.310001373291016,0.11529541015625,0.01446533203125,0.98016357421875,36.400001525878906,0.0,74.0,1.0154571533203125,-0.44769287109375,Closing,0.0,0.0,3.0,0.0,0.0,0.0,0.0,0.0,
0.5344529999999941,0.0,0.0,92700.0,5.0,465.0,840.0,0.0,0.25,0.8142089010000001,4.931428939351623,0.0012207029999995456,-108840.0,7.0,-502.5,-840.0,0.0,0.25,0.53710932,4.9629426860647206,0.0,1911.0,4.625,435.0,840.0,0.0,0.125,3.3776852010000002,4.93957658115387,0.0012207029999999897,-16910.0,5.125,-442.5,-840.0,0.0,0.25,1.645507644,4.957173647753398,0.0,0.10000000149011612,1.0800000429153442,-36.34000015258789,0.01226806640625,-0.00982666015625,0.96673583984375,36.400001525878906,0.0,2.0,1.026702880859375,-0.438812255859375,Closing,0.0,0.0,3.0,0.0,0.0,0.0,0.0,0.0,
0.5912589999999909,0.0,0.0,92796.0,4.875,547.5,839.9999999999999,0.0,0.25,0.812988198,4.931017935159439,0.0,-108930.0,6.5,-577.5,-839.9999999999999,0.0,0.25,0.53710932,4.96252905539608,0.0,1975.0,4.875,412.5,839.9999999999999,0.0,0.125,3.3776852010000002,4.939164897905986,-0.0012207029999999897,-16910.0,4.375,-555.0,-839.9999999999999,0.0,0.25,1.644286941,4.956760497898526,0.0,0.1599999964237213,1.1799999475479126,-36.34000015258789,0.121337890625,0.0379638671875,1.21832275390625,36.400001525878906,0.0,56.0,1.0361480712890625,-0.43145751953125,Closing,0.0,0.0,3.0,0.0,0.0,0.0,0.0,0.0,
0.647176999999996,0.0,0.0,92796.0,4.25,637.5,840.0,0.0,0.25,0.826415931,4.931154919135497,0.0,-108930.0,5.625,-682.5,-840.0,0.0,0.25,0.532226508,4.96266691475296,0.0,1975.0,6.0,375.0,840.0,0.0,0.125,3.3776852010000002,4.93930210820516,0.0,-16910.0,4.125,-622.5,-840.0,0.0,0.25,1.6540525650000002,4.95689819700453,0.0,0.23000000417232513,1.399999976158142,-36.349998474121094,-0.0113525390625,-0.011474609375,1.02777099609375,36.400001525878906,0.0,-20.0,1.0503387451171875,-0.420135498046875,Closing,0.0,0.0,3.0,0.0,0.0,0.0,0.0,0.0,
0.7050800000000017,0.0,0.0,92796.0,3.625,720.0,840.0,0.0,0.25,0.812988198,4.930880951183383,-0.0012207029999995456,-109051.0,4.75,-772.5,-840.0,0.0,0.25,0.53710932,4.9623911960392,0.0,2074.0,6.5,495.0,840.0,0.0,0.125,3.3776852010000002,4.939027687606812,0.0,-17019.0,3.75,-705.0,-840.0,0.0,0.25,1.644286941,4.956622798792521,0.0,0.2199999988079071,1.5399999618530273,-36.38999938964844,0.10528564453125,0.09234619140625,0.82177734375,36.400001525878906,0.0,14.0,1.06524658203125,-0.4082489013671875,Closing,0.0,0.0,3.0,0.0,0.0,0.0,0.0,0.0,
0.757546000000002,0.0,0.0,92917.0,3.375,772.5,840.0,0.0,0.25,0.811767495,4.930332910751131,0.0012207029999995456,-109051.0,4.0,-817.5,-840.0,0.0,0.25,0.535888617,4.96183965341568,0.0012207029999995456,2074.0,5.25,727.5,840.0,0.0,0.125,3.3789059040000002,4.938478741709392,0.0,-17019.0,3.25,-772.5,-840.0,0.0,0.25,1.645507644,4.956071897294787,0.0,0.3100000023841858,1.6100000143051147,-36.41999816894531,-0.0106201171875,-0.02362060546875,1.14471435546875,36.400001525878906,0.0,-16.0,1.0767822265625,-0.39849853515625,Closing,0.0,0.0,3.0,0.0,0.0,0.0,0.0,0.0,
0.8112339999999968,0.0,0.0,92917.0,2.875,840.0,840.0,0.0,0.25,0.822753822,4.929784870318879,0.0,-109192.0,3.25,-877.5,-840.0,0.0,0.25,0.532226508,4.96128811079216,0.0,2074.0,4.375,787.5,840.0,0.0,0.125,3.3776852010000002,4.9379297958119714,0.0,-17150.0,3.125,-817.5,-840.0,0.0,0.25,1.649169753,4.955520995797051,0.0,0.28999999165534973,1.6299999952316284,-36.400001525878906,0.00372314453125,0.05999755859375,1.096923828125,36.400001525878906,0.0,-54.0,1.0764312744140625,-0.385101318359375,Closing,0.0,0.0,3.0,0.0,0.0,0.0,0.0,0.0,
0.8678600000000006,0.0,0.0,93058.0,2.625,877.5,840.0,0.0,0.25,0.8288573370000001,4.930195874511062,-4.927368188,-109192.0,2.875,-907.5,-840.0,0.0,0.25,0.5407714290000001,4.9617017414608,-0.003662109000000413,2206.0,3.875,817.5,840.0,0.0,0.125,3.3776852010000002,4.938341479059855,-0.0012207029999999897,-17150.0,2.5,-885.0,-840.0,0.0,0.25,1.650390456,4.9559341456519235,0.004882811999999959,0.3499999940395355,1.5700000524520874,-36.369998931884766,0.02276611328125,-0.0457763671875,1.08929443359375,36.400001525878906,0.0,25.0,1.0759429931640625,-0.3749237060546875,Closing,0.0,0.0,3.0,0.0,0.0,0.0,0.0,0.0,
0.9243819999999978,0.0,0.0,93058.0,2.375,892.5,840.0,0.0,0.125,0.826415931,4.930606930967257,0.003662108999999969,-109343.0,2.25,-930.0,-840.0,0.0,0.25,0.532226508,4.96211542472744,-0.0012207029999995456,2206.0,3.625,817.5,840.0,0.0,0.125,3.3691402800000003,4.938753214658101,0.0,-17298.0,1.875,-922.5,-840.0,0.0,0.25,1.650390456,4.9563473480436535,0.0,0.41999998688697815,1.5199999809265137,-36.349998474121094,-0.13238525390625,-0.09539794921875,1.2816162109375,36.400001525878906,0.0,-71.0,1.0755615234375,-0.36114501953125,Closing,0.0,0.0,3.0,0.0,0.0,0.0,0.0,0.0,
0.976775999999998,0.0,0.0,93204.0,1.875,922.5,840.0,0.0,0.25,0.8276366340000001,4.930880951183383,0.0,-109343.0,1.875,-945.0,-840.0,0.0,0.25,0.532226508,4.9623911960392,0.0012207029999995456,2329.0,3.875,742.5,840.0,0.0,0.125,3.3789059040000002,4.939027687606812,0.0,-17298.0,1.625,-922.5,-840.0,0.0,0.25,1.649169753,4.956622798792521,0.0,0.3400000035762787,1.4800000190734863,-36.369998931884766,0.02447509765625,0.0106201171875,0.944580078125,36.400001525878906,0.0,-25.0,1.075439453125,-0.3479156494140625,Closing,0.0,0.0,3.0,0.0,0.0,0.0,0.0,0.0,
1.0334719999999944,0.0,0.0,93204.0,1.5,945.0,840.0,0.0,0.25,0.8276366340000001,4.930606930967257,0.0012207030000001007,-109493.0,1.75,-945.0,-840.0,0.0,0.25,0.532226508,4.96211542472744,-0.0012207029999995456,2329.0,4.375,712.5,840.0,0.0,0.125,3.3776852010000002,4.938753214658101,0.0012207029999999897,-17447.0,1.375,-930.0,-840.0,0.0,0.25,1.649169753,4.9563473480436535,0.0,0.4300000071525574,1.5,-36.40999984741211,0.00238037109375,-0.01885986328125,1.12969970703125,36.310001373291016,0.0,-5.0,1.0752410888671875,-0.337738037109375,Closing,0.0,0.0,3.0,0.0,0.0,0.0,0.0,0.0,
1.08875,0.0,0.0,93359.0,1.125,967.5,840.0,0.0,0.125,0.8276366340000001,4.930058890535006,-0.0012207030000001007,-109493.0,1.5,-937.5,-840.0,0.0,0.25,0.52490229,4.96156388210392,0.0012207029999995456,2434.0,5.25,645.0,840.0,0.0,0.125,3.3789059040000002,4.938204268760681,0.0,-17447.0,1.0,-945.0,-840.0,0.0,0.25,1.649169753,4.955796446545919,0.0012207029999999897,0.49000000953674316,1.5299999713897705,-36.459999084472656,0.03448486328125,0.03851318359375,1.16632080078125,36.310001373291016,0.0,-14.0,1.0745849609375,-0.3246307373046875,Closing,0.0,0.0,3.0,0.0,0.0,0.0,0.0,0.0,
1.1437409999999946,0.0,0.0,93359.0,0.875,952.5,840.0,0.0,0.25,0.8276366340000001,4.929373866126697,0.0,-109493.0,1.125,-952.5,-840.0,0.0,0.25,0.532226508,4.96087448012352,0.0,2434.0,6.125,577.5,840.0,0.0,0.125,3.3764644980000003,4.937518112564087,-0.0012207029999999897,-17600.0,1.0,-952.5,-840.0,0.0,0.25,1.650390456,4.955107845942179,-0.0012207029999999897,0.5400000214576721,1.5399999618530273,-36.5,0.05218505859375,0.047119140625,0.925537109375,36.310001373291016,0.0,0.0,1.0737762451171875,-0.314849853515625,Closing,0.0,0.0,3.0,0.0,0.0,0.0,0.0,0.0,
1.197601999999999,0.0,0.0,93513.0,0.875,952.5,840.0,0.0,0.25,0.823974525,4.928688841718388,0.0012207030000001007,-109648.0,1.0,-967.5,-840.0,0.0,0.25,0.533447211,4.96018507814312,-0.0012207029999995456,2504.0,8.125,465.0,840.0,0.0,0.125,3.3776852010000002,4.9368319563674925,0.0,-17600.0,0.75,-945.0,-840.0,0.0,0.25,1.650390456,4.95441924533844,0.0,0.5600000023841858,1.4600000381469727,-36.560001373291016,0.01214599609375,0.0810546875,0.82818603515625,36.310001373291016,0.0,-50.0,1.0725250244140625,-0.301788330078125,Closing,0.0,0.0,3.0,0.0,0.0,0.0,0.0,0.0,
1.2512739999999902,0.0,0.0,93513.0,0.5,975.0,840.0,0.0,0.25,0.825195228,4.928003765046067,0.0,-109648.0,0.75,-967.5,-840.0,0.0,0.25,0.532226508,4.95949562356472,0.0012207029999995456,2504.0,9.875,330.0,840.0,0.0,0.125,3.3776852010000002,4.936145747820537,0.0012207029999999897,-17752.0,0.75,-952.5,-840.0,0.0,0.25,1.6613767830000001,4.953730592197842,0.0,0.5799999833106995,1.4900000095367432,-36.65999984741211,0.00628662109375,0.06292724609375,1.05596923828125,36.310001373291016,0.0,-48.0,1.0712738037109375,-0.288970947265625,Closing,0.0,0.0,3.0,0.0,0.0,0.0,0.0,0.0,
1.3097409999999945,0.0,0.0,93513.0,0.5,982.5,840.0,0.0,0.25,0.825195228,4.92663371622945,0.0,-109800.0,0.75,-945.0,-840.0,0.0,0.25,0.532226508,4.95811681960392,0.0,2565.0,13.5,337.5,840.0,0.0,0.125,3.3715816860000003,4.934773435427348,0.0,-17752.0,0.75,-930.0,-840.0,0.0,0.25,1.650390456,4.952353390990363,0.0,0.6000000238418579,1.5,-36.779998779296875,0.03009033203125,-0.0201416015625,0.79241943359375,36.310001373291016,0.0,24.0,1.0704193115234375,-0.2825775146484375,Closing,0.0,0.0,3.0,0.0,0.0,0.0,0.0,0.0,
1.364058999999994,0.0,0.0,93670.0,0.375,975.0,840.0,0.0,0.25,0.8288573370000001,4.924989647196706,0.0012207030000001007,-109800.0,0.75,-900.0,-840.0,0.0,0.25,0.532226508,4.95646224433136,-0.0012207029999995456,2565.0,15.375,420.0,840.0,0.0,0.125,3.3728023890000003,4.933126650085449,-0.004882811999999959,-17752.0,0.75,-885.0,-840.0,0.0,0.25,1.650390456,4.9507007390340165,0.0,0.5899999737739563,1.4900000095367432,-36.95000076293945,0.04180908203125,-0.0372314453125,0.94110107421875,36.310001373291016,0.0,42.0,1.0692138671875,-0.28277587890625,Closing,0.0,0.0,3.0,0.0,0.0,0.0,0.0,0.125,
1.4249989999999961,0.0,0.0,93670.0,0.375,937.5,840.0,0.0,0.25,0.8276366340000001,4.92211246105939,-0.0012207030000001007,-109946.0,0.5,-915.0,-840.0,0.0,0.25,0.52490229,4.95356667185688,0.0012207029999995456,2673.0,15.5,585.0,840.0,0.0,0.125,3.3728023890000003,4.930244710299174,0.0,-17898.0,0.625,-960.0,-840.0,0.0,0.25,1.649169753,4.947808532439338,0.0,0.6200000047683716,1.590000033378601,-37.150001525878906,0.03302001953125,0.03192138671875,1.250244140625,36.310001373291016,0.0,-12.0,1.068084716796875,-0.2826080322265625,Closing,0.0,0.0,3.0,0.0,0.0,0.0,0.0,0.0,
1.4814250000000029,0.0,0.0,93821.0,0.375,960.0,840.0,0.0,0.25,0.826415931,4.919920351594396,0.0,-109946.0,0.25,-1005.0,-840.0,0.0,0.25,0.531005805,4.9513605539608,-0.0012207029999995456,2673.0,13.125,832.5,840.0,0.0,0.125,3.3728023890000003,4.928048979059855,-0.0012207029999999897,-17898.0,0.375,-1027.5,-840.0,0.0,0.25,1.645507644,4.945604978985257,0.0,0.6299999952316284,1.4500000476837158,-37.36000061035156,0.11187744140625,-0.00372314453125,1.0648193359375,36.310001373291016,0.0,76.0,1.0677337646484375,-0.2821502685546875,Closing,0.0,0.0,3.0,0.0,0.0,0.0,0.0,0.0,
1.5327709999999934,0.0,0.0,93821.0,0.375,1027.5,840.0,0.0,0.25,0.823974525,4.917043217721091,0.0,-110110.0,0.125,-1020.0,-840.0,0.0,0.25,0.527343696,4.94846503408432,0.0012207029999995456,2821.0,11.375,892.5,840.0,0.0,0.125,3.3715816860000003,4.925167091623942,0.0,-18065.0,0.375,-1042.5,-840.0,0.0,0.25,1.6345213170000001,4.942712824927436,-0.004882811999999959,0.6000000238418579,1.3300000429153442,-37.59000015258789,0.0230712890625,-0.00439453125,1.11083984375,36.2599983215332,0.0,7.0,1.0672760009765625,-0.2823028564453125,Closing,0.0,0.0,3.0,0.0,0.0,0.0,0.0,0.0,
1.5889860000000045,0.0,0.0,93994.0,0.375,1080.0,840.0,0.0,0.25,0.8276366340000001,4.913892063631662,0.0,-110110.0,0.0,-1020.0,-840.0,0.0,0.25,0.526122993,4.94529374289608,-0.006103514999999504,2821.0,10.0,967.5,840.0,0.0,0.125,3.3666988740000003,4.922010731239319,0.0,-18065.0,0.375,-1027.5,-840.0,0.0,0.25,1.6345213170000001,4.939545220120748,-0.009765623999999917,0.6100000143051147,1.2999999523162842,-37.7400016784668,0.0421142578125,0.03912353515625,1.05499267578125,36.2599983215332,0.0,-2.0,1.066650390625,-0.283172607421875,Closing,0.0,0.0,3.0,0.0,0.0,0.0,0.0,0.0,
1.6437050000000017,0.0,0.0,93994.0,0.125,1065.0,840.0000000000001,0.0,0.25,0.819091713,4.911151913734415,0.0,-110274.0,0.0,-1020.0,-840.0000000000001,0.0,0.25,0.5175780720000001,4.94253608237648,-0.003662109000000413,2821.0,8.875,1050.0,840.0000000000001,0.0,0.125,3.354491844,4.91926605410258,-0.004882811999999959,-18228.0,0.375,-1012.5,-840.0000000000001,0.0,0.25,1.639404129,4.936790765168932,4.953117188,0.5299999713897705,1.0800000429153442,-37.93000030517578,-0.01861572265625,0.0247802734375,0.93927001953125,36.2599983215332,0.0,-38.0,1.066558837890625,-0.285614013671875,Closing,0.0,0.0,3.0,0.0,0.0,0.0,0.0,0.0,
1.6925080000000017,0.0,0.0,94161.0,0.375,1035.0,840.0,0.0,0.25,0.820312416,4.909233824485546,0.0,-110274.0,0.0,-1012.5,-840.0,0.0,0.25,0.5163573690000001,4.94060573579216,-0.006103514999999504,2994.0,7.375,1072.5,840.0,0.0,0.125,3.347167626,4.917344795811971,4.92819297,-18228.0,0.375,-1005.0,-840.0,0.0,0.25,1.6296385050000002,4.934862662463718,-4.956779297,0.5099999904632568,1.0,-38.09000015258789,-0.122802734375,0.03662109375,0.7850341796875,36.2599983215332,0.0,-125.0,1.0660247802734375,-0.2883758544921875,Closing,0.0,0.0,3.0,0.0,0.0,0.0,0.0,0.0,
1.7479649999999964,0.0,0.0,94161.0,0.375,1027.5,840.0,0.0,0.25,0.8288573370000001,4.906082670396116,0.0,-110428.0,0.0,-982.5,-840.0,0.0,0.25,0.513915963,4.9374344446039204,0.0012207029999995456,2994.0,7.0,1042.5,840.0,0.0,0.125,3.347167626,4.914188435427348,-0.007324217999999938,-18383.0,0.375,-975.0,-840.0,0.0,0.25,1.6296385050000002,4.93169505765703,4.956779297,0.5,0.75,-38.36000061035156,-0.0390625,-0.10931396484375,0.95343017578125,36.2599983215332,0.0,32.0,1.06414794921875,-0.2929229736328125,Closing,0.0,0.0,3.0,0.0,0.0,0.0,0.0,0.0,
1.8086079999999929,0.0,0.0,94321.0,0.375,1005.0,840.0,0.0,0.25,0.8300780400000001,4.903342520498869,0.0,-110428.0,0.0,-945.0,-840.0,0.0,0.25,0.513915963,4.93467678408432,-0.004882811999999959,3154.0,7.125,997.5,840.0,0.0,0.125,3.348388329,4.911443758290609,0.0,-18383.0,0.375,-945.0,-840.0,0.0,0.25,1.624755693,4.928940602705214,-0.004882811999999959,0.4699999988079071,0.6399999856948853,-38.599998474121094,0.003662109375,-0.085205078125,0.9461669921875,36.2599983215332,0.0,52.0,1.061492919921875,-0.29852294921875,Closing,0.0,0.0,3.0,0.0,0.0,0.0,0.0,0.0,
1.8676189999999915,0.0,0.0,94321.0,0.375,975.0,840.0,0.0,0.25,0.8276366340000001,4.899369305761062,0.0012207030000001007,-110573.0,0.0,-915.0,-840.0,0.0,0.25,0.511474557,4.9306781789608,-0.0012207030000004337,3154.0,7.0,997.5,840.0,0.0,0.125,3.347167626,4.907463979059855,0.0,-18531.0,0.375,-922.5,-840.0,0.0,0.25,1.624755693,4.924946645651923,0.0,0.38999998569488525,0.5099999904632568,-38.86000061035156,-0.03594970703125,0.0389404296875,0.93255615234375,36.2599983215332,0.0,-54.0,1.0606689453125,-0.305328369140625,Closing,0.0,0.0,3.0,0.0,0.0,0.0,0.0,0.0,
1.9269780000000027,0.0,0.0,94474.0,0.375,952.5,840.0,0.0,0.25,0.8276366340000001,4.895944131455506,-0.0012207030000001007,-110573.0,0.0,-892.5,-840.0,0.0,0.25,0.51269526,4.9272311164608,0.0012207030000004337,3311.0,6.625,982.5,840.0,0.0,0.125,3.347167626,4.904033145726522,0.0,-18531.0,0.375,-885.0,-840.0,0.0,0.25,1.624755693,4.921503590096368,0.0,0.49000000953674316,0.3100000023841858,-39.09000015258789,-0.04742431640625,-0.03173828125,1.1124267578125,36.2599983215332,0.0,-15.0,1.0597686767578125,-0.312774658203125,Closing,0.0,0.0,3.0,0.0,0.0,0.0,0.0,0.0,
1.9855219999999971,0.0,0.0,94474.0,0.125,930.0,840.0,0.0,0.25,0.822753822,4.892381973173894,0.0,-110710.0,0.125,-862.5,-840.0,0.0,0.25,0.51269526,4.92364619460392,0.0,3311.0,6.5,952.5,840.0,0.0,0.125,3.347167626,4.900465102094015,0.0,-18667.0,0.375,-862.5,-840.0,0.0,0.25,1.625976396,4.9179228354348075,0.0,0.4099999964237213,0.20000000298023224,-39.36000061035156,-0.056640625,0.02813720703125,1.329833984375,36.2599983215332,0.0,-59.0,1.0587158203125,-0.321533203125,Closing,0.0,0.0,3.0,0.0,0.0,0.0,0.0,0.0,
2.044937999999995,0.0,0.0,94618.0,0.125,900.0,840.0,0.0,0.25,0.812988198,4.889641823276647,-0.003662108999999969,-110710.0,0.125,-832.5,-840.0,0.0,0.25,0.5041503390000001,4.9208885340843205,0.0,3463.0,6.625,945.0,840.0,0.0,0.125,3.339843408,4.897720424957275,0.0,-18667.0,0.375,-832.5,-840.0,0.0,0.25,1.6113279600000001,4.915168380482991,0.0,0.4300000071525574,0.10999999940395355,-39.61000061035156,-0.061767578125,-0.0384521484375,1.0035400390625,36.25,0.0,-19.0,1.0572662353515625,-0.331268310546875,Closing,0.0,0.0,3.0,0.0,0.0,0.0,0.0,0.0,
2.103322,0.0,0.0,94618.0,0.375,885.0,840.0,0.0,0.25,0.8032225740000001,4.886216648971091,4.9188232670000005,-110710.0,0.125,-817.5,-840.0,0.0,0.25,0.49316401200000004,4.91744147158432,-0.01342773300000033,3463.0,6.625,922.5,840.0,0.0,0.125,3.333739893,4.894289591623942,-0.009765623999999917,-18799.0,0.375,-825.0,-840.0,0.0,0.25,1.600341633,4.911725324927436,-0.014648435999999876,0.3799999952316284,-0.05999999865889549,-39.790000915527344,0.02679443359375,-0.0623779296875,0.93365478515625,36.25,0.0,65.0,1.0549774169921875,-0.3414154052734375,Closing,0.0,0.0,3.0,0.0,0.0,0.0,0.0,0.0,
2.1566659999999973,0.0,0.0,94756.0,0.375,862.5,840.0,0.0,0.25,0.799560465,4.88375051928997,-0.006103515000000392,-110841.0,0.125,-810.0,-840.0,0.0,0.25,0.4882812,4.91495958237648,0.0,3606.0,6.75,892.5,840.0,0.0,0.125,3.341064111,4.8918193874359135,0.0,-18799.0,0.375,-817.5,-840.0,0.0,0.25,1.6015623360000002,4.909246320724487,0.0,0.3499999940395355,-0.18000000715255737,-39.959999084472656,-0.0885009765625,0.00543212890625,1.00958251953125,36.25,0.0,-64.0,1.052459716796875,-0.3520965576171875,Closing,0.0,0.0,3.0,0.0,0.0,0.0,0.0,0.0,
2.224698999999993,0.0,0.0,94756.0,0.375,847.5,840.0,0.0,0.25,0.799560465,4.88073640144061,-0.003662109000000413,-110969.0,0.125,-802.5,-840.0,0.0,0.25,0.4882812,4.9119262031431195,-0.0024414059999999793,3606.0,6.875,870.0,840.0,0.0,0.125,3.334960596,4.888800289700826,-0.0012207030000004337,-18926.0,0.375,-787.5,-840.0,0.0,0.25,1.6015623360000002,4.906216467560662,0.0,0.3499999940395355,-0.25999999046325684,-40.119998931884766,0.0859375,0.10870361328125,1.02093505859375,36.25,0.0,3.0,1.049285888671875,-0.363037109375,Closing,0.0,0.0,3.0,0.0,0.0,0.0,0.0,0.0,
2.2824309999999968,0.0,0.0,94889.0,0.375,832.5,840.0,0.0,0.25,0.809326089,4.879229316383924,0.0,-110969.0,0.25,-795.0,-840.0,0.0,0.25,0.48095698200000003,4.91040948722744,0.0,3744.0,7.0,862.5,840.0,0.0,0.125,3.334960596,4.887290714658102,0.0012207030000004337,-18926.0,0.375,-772.5,-840.0,0.0,0.25,1.6015623360000002,4.904701514710321,0.0,0.38999998569488525,-0.25999999046325684,-40.22999954223633,-0.0142822265625,-0.0296630859375,0.986083984375,36.25,0.0,16.0,1.04656982421875,-0.37109375,Closing,0.0,0.0,3.0,0.0,0.0,0.0,0.0,0.0,
2.3423699999999954,0.0,0.0,94889.0,0.375,817.5,840.0,0.0,0.25,0.798339762,4.877722231327237,-0.0012207029999995456,-110969.0,0.25,-787.5,-840.0,0.0,0.25,0.4882812,4.90889277131176,0.0,3744.0,7.0,855.0,840.0,0.0,0.125,3.3251949720000002,4.885781139615377,-0.0012207030000004337,-19052.0,0.375,-780.0,-840.0,0.0,0.25,1.6015623360000002,4.903186561859979,0.0,0.41999998688697815,-0.25999999046325684,-40.38999938964844,-0.03741455078125,0.0277099609375,0.9581298828125,36.25,0.0,-38.0,1.0427093505859375,-0.376556396484375,Closing,0.0,0.0,3.0,0.0,0.0,0.0,0.0,0.125,
2.4011579999999957,0.0,0.0,95020.0,0.375,817.5,840.0,0.0,0.25,0.799560465,4.875530121862242,0.0,-111096.0,0.375,-780.0,-840.0,0.0,0.25,0.4882812,4.90668665341568,0.0,3881.0,7.0,855.0,840.0,0.0,0.125,3.3190914570000003,4.883585408376058,-0.008544920999999484,-19052.0,0.375,-787.5,-840.0,0.0,0.25,1.6040037420000002,4.900983008405897,0.0012207029999995456,0.4099999964237213,-0.3199999928474426,-40.59000015258789,-0.01873779296875,-0.0474853515625,0.76324462890625,36.25,0.0,23.0,1.03875732421875,-0.3769989013671875,Closing,0.0,0.0,3.0,0.0,0.0,0.0,0.0,0.125,
2.4637839999999995,0.0,0.0,95020.0,0.375,817.5,840.0,0.0,0.25,0.794677653,4.872789971964996,0.0,-111096.0,0.375,-780.0,-840.0,0.0,0.25,0.4882812,4.90392899289608,0.0,3881.0,7.0,847.5,840.0,0.0,0.125,3.3154293480000003,4.880840731239319,-0.004882811999999959,-19177.0,0.625,-787.5,-840.0,0.0,0.25,1.589355306,4.898228553454081,0.0,0.44999998807907104,-0.30000001192092896,-40.7599983215332,0.00927734375,0.00775146484375,0.86224365234375,36.25,0.0,9.0,1.0348968505859375,-0.377532958984375,Closing,0.0,0.0,3.0,0.0,0.0,0.0,0.0,0.0,
2.524201000000001,0.0,0.0,95149.0,0.375,802.5,840.0,0.0,0.25,0.8166503070000001,4.869912838091691,-0.008544921000000372,-111221.0,0.5,-772.5,-840.0,0.0,0.25,0.4882812,4.9010334730196,0.0,4016.0,7.0,840.0,840.0,0.0,0.125,3.3142086450000003,4.877958843803406,-0.004882811999999959,-19177.0,0.625,-772.5,-840.0,0.0,0.25,1.6040037420000002,4.89533639939626,-0.009765623999999917,0.47999998927116394,-0.30000001192092896,-40.91999816894531,-0.09051513671875,4.2724609375E-4,1.05908203125,36.25,0.0,-58.0,1.030853271484375,-0.3775634765625,Closing,0.0,0.0,3.0,0.0,0.0,0.0,0.0,0.0,
2.581111999999994,0.0,0.0,95149.0,0.375,795.0,840.0,0.0,0.25,0.79345695,4.868268769058949,-0.0012207029999995456,-111221.0,0.5,-765.0,-840.0,0.0,0.25,0.4882812,4.89937889774704,0.0012207030000004337,4016.0,7.375,832.5,840.0,0.0,0.125,3.3142086450000003,4.876312058461507,0.0,-19301.0,0.625,-765.0,-840.0,0.0,0.25,1.591796712,4.893683747439915,0.0,0.4399999976158142,-0.3499999940395355,-41.09000015258789,0.00384521484375,0.04791259765625,1.1971435546875,36.220001220703125,0.0,-16.0,1.027862548828125,-0.3782196044921875,Closing,0.0,0.0,3.0,0.0,0.0,0.0,0.0,0.0,
2.6392090000000024,0.0,0.0,95276.0,0.5,795.0,840.0,0.0,0.25,0.795898356,4.865939623353884,0.0012207029999995456,-111344.0,0.625,-780.0,-840.0,0.0,0.25,0.490722606,4.89703486789608,0.0,4149.0,7.625,825.0,840.0,0.0,0.125,3.3154293480000003,4.873979064572652,0.0,-19301.0,0.625,-780.0,-840.0,0.0,0.25,1.591796712,4.89134244234297,-0.0012207029999995456,0.4099999964237213,-0.3700000047683716,-41.20000076293945,-0.041259765625,0.019287109375,1.040283203125,36.220001220703125,0.0,-33.0,1.0279083251953125,-0.3792724609375,Closing,0.0,0.0,3.0,0.0,0.0,0.0,0.0,0.0,
2.7042289999999922,0.0,0.0,95276.0,0.375,780.0,0.0,0.0,0.25,0.7910155440000001,0.01,-0.0024414059999999793,-111344.0,0.375,-765.0,-0.0,0.0,0.25,0.484619091,0.01,0.0,4149.0,3.375,810.0,0.0,0.0,0.0,3.3239742690000003,0.01,-0.0012207030000004337,-19420.0,0.25,-780.0,-0.0,0.0,0.25,1.596679524,0.01,0.0,0.46000000834465027,-0.38999998569488525,-41.29999923706055,-0.0693359375,0.00494384765625,0.85455322265625,36.220001220703125,0.0,-46.0,1.02789306640625,-0.3807220458984375,Closing,0.0,0.0,3.0,0.0,0.0,0.0,0.0,0.0,
2.7665979999999983,0.0,0.0,95386.0,1.0,690.0,0.0,0.0,0.25,0.7897948410000001,0.01,0.0024414059999999793,-111461.0,0.5,-682.5,-0.0,0.0,0.25,0.483398388,0.01,-0.004882811999999959,4265.0,0.5,720.0,0.0,0.0,0.0,3.334960596,0.01,0.0,-19420.0,0.25,-675.0,-0.0,0.0,0.25,1.6015623360000002,0.01,0.0,0.49000000953674316,-0.9100000262260437,-41.369998931884766,-0.18988037109375,-0.04681396484375,1.1695556640625,36.220001220703125,0.0,-90.0,1.0266265869140625,-0.3838958740234375,Closing,0.0,0.0,3.0,0.0,0.0,0.0,0.0,0.0,
2.824902000000002,0.0,0.0,95386.0,1.25,592.5,0.0,0.0,0.25,0.7897948410000001,0.01,0.0,-111461.0,0.875,-592.5,-0.0,0.0,0.25,0.484619091,0.01,0.0,4265.0,0.375,645.0,0.0,0.0,0.0,3.339843408,0.01,0.009765623999999917,-19511.0,0.375,-585.0,-0.0,0.0,0.25,1.6064451480000002,0.01,0.004882811999999959,0.5099999904632568,-1.309999942779541,-41.349998474121094,-0.2850341796875,0.032470703125,1.2587890625,36.220001220703125,0.0,-206.0,1.022918701171875,-0.389617919921875,Closing,0.0,0.0,3.0,0.0,0.0,0.0,0.0,0.0,
2.8813479999999982,0.0,0.0,95461.0,1.5,517.5,0.0,0.0,0.25,0.7897948410000001,0.01,0.0,-111550.0,1.0,-510.0,-0.0,0.0,0.25,0.483398388,0.01,0.0,4349.0,0.375,547.5,0.0,0.0,0.0,3.343505517,0.01,0.004882811999999959,-19511.0,0.625,-502.5,-0.0,0.0,0.25,1.6064451480000002,0.01,0.004882811999999959,0.4699999988079071,-1.7400000095367432,-41.380001068115234,-0.22784423828125,0.00970458984375,1.08306884765625,36.220001220703125,0.0,-146.0,1.016082763671875,-0.397613525390625,Closing,0.0,0.0,3.0,0.0,0.0,0.0,0.0,0.0,
2.9349649999999965,0.0,0.0,95461.0,1.5,390.0,0.0,0.0,0.25,0.780029217,0.01,0.0,-111550.0,1.0,-382.5,-0.0,0.0,0.25,0.498046824,0.01,0.0,4349.0,0.5,397.5,0.0,0.0,0.0,3.34472622,0.01,0.004882811999999959,-19566.0,0.5,-375.0,-0.0,0.0,0.25,1.6064451480000002,0.01,0.0,0.4699999988079071,-2.130000114440918,-41.34000015258789,-0.17572021484375,0.047119140625,1.035400390625,36.220001220703125,0.0,-128.0,1.0064544677734375,-0.40802001953125,Closing,0.0,0.0,3.0,0.0,0.0,0.0,0.0,0.0,
2.994604999999996,0.0,0.0,95496.0,1.25,255.0,0.0,0.0,0.25,0.7910155440000001,0.01,-0.0012207029999995456,-111599.0,0.875,-262.5,-0.0,0.0,0.25,0.48095698200000003,0.01,0.0,4390.0,0.75,255.0,0.0,0.0,0.0,3.338622705,0.01,-0.0012207030000004337,-19566.0,0.5,-240.0,-0.0,0.0,0.25,1.6064451480000002,0.01,0.0,0.47999998927116394,-2.4700000286102295,-41.34000015258789,-0.1719970703125,-0.0228271484375,0.944091796875,36.220001220703125,0.0,-78.0,0.994476318359375,-0.4203643798828125,Closing,0.0,0.0,3.0,0.0,0.0,0.0,0.0,0.0,
3.0530559999999967,0.0,0.0,95496.0,0.75,135.0,0.0,0.0,0.25,0.7910155440000001,0.01,0.0012207029999995456,-111599.0,0.625,-142.5,-0.0,0.0,0.25,0.482177685,0.01,0.0,4390.0,1.125,142.5,0.0,0.0,0.0,3.341064111,0.01,0.0,-19582.0,0.5,-150.0,-0.0,0.0,0.25,1.6064451480000002,0.01,0.0012207029999995456,0.46000000834465027,-2.7100000381469727,-41.380001068115234,-0.1383056640625,0.006591796875,1.03277587890625,36.220001220703125,0.0,-65.0,0.980712890625,-0.4345245361328125,Closing,0.0,0.0,3.0,0.0,0.0,0.0,0.0,0.0,
3.117100999999995,0.0,0.0,95502.0,0.75,75.0,0.0,0.0,0.25,0.787353435,0.01,0.0,-111613.0,0.5,-67.5,-0.0,0.0,0.25,0.482177685,0.01,0.0,4400.0,1.375,75.0,0.0,0.0,0.0,3.337402002,0.01,0.0,-19582.0,0.25,-52.5,-0.0,0.0,0.25,1.6052244450000002,0.01,0.0,0.47999998927116394,-2.8299999237060547,-41.36000061035156,-0.0245361328125,0.01214599609375,1.0394287109375,36.220001220703125,0.0,17.0,0.96588134765625,-0.4496612548828125,Closing,0.0,0.0,3.0,0.0,0.0,0.0,0.0,0.125,
3.1710929999999933,0.0,0.0,95502.0,0.375,7.5,0.0,0.0,0.25,0.7897948410000001,0.01,-0.0012207029999995456,-111613.0,0.375,-7.5,-0.0,0.0,0.25,0.484619091,0.01,0.0,4400.0,2.125,15.0,0.0,0.0,0.0,3.338622705,0.01,0.0,-19582.0,0.25,0.0,-0.0,0.0,0.25,1.6052244450000002,0.01,-0.0012207029999995456,0.46000000834465027,-2.6600000858306885,-41.369998931884766,0.02716064453125,-0.00274658203125,0.99798583984375,36.220001220703125,0.0,62.0,0.9514312744140625,-0.464447021484375,Closing,0.0,0.0,3.0,0.0,0.0,0.0,0.0,0.0,
3.2332909999999973,0.0,0.0,95502.0,0.375,0.0,0.0,0.0,0.25,0.7910155440000001,0.01,0.0012207029999995456,-111613.0,0.25,0.0,-0.0,0.0,0.25,0.483398388,0.01,0.0,4400.0,2.375,0.0,0.0,0.0,0.0,3.338622705,0.01,0.0,-19582.0,0.25,0.0,-0.0,0.0,0.25,1.595458821,0.01,0.0,0.41999998688697815,-2.5199999809265137,-41.38999938964844,-0.01641845703125,0.0072021484375,0.989501953125,36.220001220703125,0.0,20.0,0.93817138671875,-0.4783782958984375,Closing,0.0,0.0,3.0,0.0,0.0,0.0,0.0,0.0,
3.289974999999991,0.0,0.0,95502.0,0.125,0.0,420.0,0.0,0.75,0.794677653,0.5498168668524888,0.0,-111613.0,0.125,0.0,-420.0,0.0,5.25,0.49316401200000004,1.9285545897722227,0.0,4400.0,4.125,0.0,420.0,0.0,1.375,3.300780912,4.389674732977289,0.0,-19587.0,0.375,-15.0,-420.0,0.0,6.25,1.495361175,3.0316872062785585,0.0,0.4399999976158142,-2.430000066757202,-41.34000015258789,0.04296875,-0.0123291015625,1.01446533203125,36.220001220703125,0.0,77.0,0.9351348876953125,-0.4782257080078125,Closing,0.0,0.0,3.0,0.0,0.0,0.0,0.0,0.0,
3.348292000000001,0.0,0.0,95503.0,0.125,7.5,420.0,0.0,2.25,1.019287005,0.5498168668524888,-4.900512721999999,-111615.0,0.125,-30.0,-420.0,0.0,4.75,0.8825682690000001,1.9285545897722227,0.019531247999999835,4405.0,5.625,7.5,420.0,0.0,1.25,3.081054372,4.389674732977289,-0.05493163499999998,-19587.0,0.375,-45.0,-420.0,0.0,3.0,1.0595702040000001,3.0316872062785585,-0.11840819100000033,0.4300000071525574,-2.25,-41.380001068115234,0.06439208984375,-0.04425048828125,0.9771728515625,36.220001220703125,0.0,111.0,0.93548583984375,-0.47705078125,Closing,0.0,0.0,3.0,0.0,0.0,0.0,0.0,0.0,
3.4081499999999942,0.0,0.0,95503.0,0.125,7.5,420.0,0.0,0.75,1.20849597,0.5498168668524888,0.247802709,-111615.0,0.125,-75.0,-420.0,0.0,1.25,1.3415525970000002,1.9285545897722227,0.4577636250000001,4405.0,5.625,52.5,420.0,0.0,0.25,2.926025091,4.389674732977289,-0.2319335699999998,-19587.0,0.625,-60.0,-420.0,0.0,1.75,0.665283135,3.0316872062785585,-0.43945307999999983,0.4099999964237213,-2.0399999618530273,-41.41999816894531,0.072998046875,0.0390625,0.9552001953125,36.220001220703125,0.0,58.0,0.9372711181640625,-0.474639892578125,Closing,0.0,0.0,3.0,0.0,0.0,0.0,0.0,0.0,
3.4682069999999947,0.0,0.0,95503.0,0.125,60.0,420.0,0.0,0.5,1.340331894,0.5498168668524888,0.0,-111638.0,0.25,-142.5,-420.0,0.0,1.5,1.7944334100000001,1.9285545897722227,0.0,4426.0,6.125,112.5,420.0,0.0,0.25,2.823486039,4.389674732977289,-0.14404295399999967,-19593.0,0.75,-30.0,-420.0,0.0,1.75,0.22094724300000002,3.0316872062785585,-0.4357909710000003,0.38999998569488525,-1.8799999952316284,-41.70000076293945,-0.0025634765625,0.01751708984375,1.04962158203125,36.220001220703125,0.0,17.0,0.940399169921875,-0.471221923828125,Closing,0.0,0.0,3.0,0.0,0.0,0.0,0.0,0.0,
3.524145000000004,0.0,0.0,95521.0,0.125,142.5,420.0,0.0,0.5,1.411132668,0.5498168668524888,0.18554685599999998,-111638.0,0.375,-157.5,-420.0,0.0,1.5,2.2265622720000002,1.9285545897722227,0.43945307999999983,4426.0,6.375,180.0,420.0,0.0,0.0,2.769775107,4.389674732977289,-0.09399413100000054,-19593.0,1.25,-67.5,-420.0,0.0,1.75,4.754638185,3.0316872062785585,-0.419921832,0.28999999165534973,-1.8600000143051147,-42.16999816894531,0.00396728515625,-0.11676025390625,1.03533935546875,36.220001220703125,0.0,109.0,0.9437103271484375,-0.4688720703125,Closing,0.0,0.0,3.0,0.0,0.0,0.0,0.0,0.0,
3.577161999999997,0.0,0.0,95521.0,0.125,165.0,420.0,0.0,0.25,1.413574074,0.5498168668524888,0.05126952600000001,-111669.0,0.375,-180.0,-420.0,0.0,0.5,2.524413804,1.9285545897722227,0.41381831700000005,4426.0,6.125,232.5,420.0,0.0,0.0,2.714843472,4.389674732977289,-0.04394530799999963,-19609.0,1.625,-105.0,-420.0,0.0,1.0,4.460448762,3.0316872062785585,-0.39501218599999977,0.33000001311302185,-1.9500000476837158,-43.15999984741211,-0.13671875,0.085693359375,1.06097412109375,36.2400016784668,0.0,-127.0,0.948394775390625,-0.4670562744140625,Closing,0.0,0.0,3.0,0.0,0.0,0.0,0.0,0.0,
3.628997000000003,0.0,0.0,95550.0,0.375,172.5,420.0,0.0,0.25,1.41601548,0.5498168668524888,0.0,-111669.0,0.625,-202.5,-420.0,0.0,0.5,2.604980202,1.9285545897722227,0.2746581749999999,4469.0,6.375,270.0,420.0,0.0,0.0,2.725829799,4.389674732977289,-0.04272460500000008,-19609.0,1.25,-105.0,-420.0,0.0,0.25,4.417724157,3.0316872062785585,-0.28930661099999977,0.49000000953674316,-2.0899999141693115,-44.040000915527344,-0.098876953125,0.09857177734375,1.0054931640625,36.2400016784668,0.0,-107.0,0.950408935546875,-0.466949462890625,Closing,0.0,0.0,3.0,0.0,0.0,0.0,0.0,0.0,
3.6834759999999953,0.0,0.0,95550.0,0.375,195.0,420.0,0.0,0.25,1.39160142,0.5498168668524888,-0.0012207029999999897,-111704.0,0.75,-210.0,-420.0,0.0,0.25,2.5891110630000003,1.9285545897722227,0.0634765559999999,4469.0,6.625,247.5,420.0,0.0,0.125,2.7368161260000003,4.389674732977289,-0.0012207030000004337,-19639.0,1.375,-180.0,-420.0,0.0,0.625,4.4433589200000005,3.0316872062785585,-0.05371093200000043,0.6200000047683716,-2.1700000762939453,-45.400001525878906,-0.0211181640625,0.021728515625,0.96826171875,36.2400016784668,0.0,2.0,0.95172119140625,-0.4667510986328125,Closing,0.0,0.0,3.0,0.0,0.0,0.0,0.0,0.125,
3.734797999999995,0.0,0.0,95591.0,0.375,255.0,420.0,0.0,0.25,1.3757322810000001,0.5498168668524888,-0.023193357000000026,-111704.0,0.875,-255.0,-420.0,0.0,0.25,2.5854489540000003,1.9285545897722227,-0.028076168999999762,4502.0,7.5,187.5,420.0,0.0,0.125,2.7453610470000003,4.389674732977289,0.010986327000000351,-19639.0,1.875,-247.5,-420.0,0.0,0.375,4.514159694,3.0316872062785585,0.028076169000000206,0.5400000214576721,-2.069999933242798,-46.880001068115234,0.01971435546875,-0.0323486328125,0.9488525390625,36.2400016784668,0.0,67.0,0.953460693359375,-0.4670257568359375,Closing,0.0,0.0,3.0,0.0,0.0,0.0,0.0,0.0,
3.7895629999999945,0.0,0.0,95591.0,0.375,300.0,420.0,0.0,0.25,1.383056499,0.5498168668524888,-0.014648435999999876,-111751.0,0.75,-285.0,-420.0,0.0,0.25,2.562255597,1.9285545897722227,0.0012207029999999897,4502.0,8.875,187.5,420.0,0.0,0.0,2.7514645620000002,4.389674732977289,0.009765623999999917,-19686.0,1.375,-285.0,-420.0,0.0,0.375,4.592284686,3.0316872062785585,0.07446288299999981,0.5299999713897705,-1.9800000190734863,-47.650001525878906,0.04345703125,0.0238037109375,1.09564208984375,36.2400016784668,0.0,44.0,0.954833984375,-0.4671478271484375,Closing,0.0,0.0,3.0,0.0,0.0,0.0,0.0,0.0,
3.8449149999999936,0.0,0.0,95636.0,0.375,285.0,420.0,0.0,0.25,1.376952984,0.5498168668524888,0.0,-111751.0,0.75,-285.0,-420.0,0.0,0.25,2.507323962,1.9285545897722227,-0.032958981000000165,4539.0,8.875,232.5,420.0,0.0,0.0,2.7502438590000002,4.389674732977289,0.004882811999999959,-19686.0,1.375,-315.0,-420.0,0.0,0.375,4.641112806000001,3.0316872062785585,0.08178710100000064,0.550000011920929,-1.8300000429153442,-49.29999923706055,0.010009765625,-0.03472900390625,1.0086669921875,36.2400016784668,0.0,61.0,0.95819091796875,-0.466644287109375,Closing,0.0,0.0,3.0,0.0,0.0,0.0,0.0,0.0,
3.898796999999991,0.0,0.0,95636.0,0.5,262.5,420.0,0.0,0.25,1.3757322810000001,0.5498168668524888,-0.0012207029999999897,-111751.0,1.0,-300.0,-420.0,0.0,0.25,2.4841306050000003,1.9285545897722227,-0.04516601100000006,4539.0,9.25,277.5,420.0,0.0,0.125,2.7514645620000002,4.389674732977289,0.0,-19743.0,1.25,-330.0,-420.0,0.0,0.125,4.6630854600000005,3.0316872062785585,0.04394530799999963,0.5600000023841858,-1.6699999570846558,-51.20000076293945,-0.02069091796875,-0.0225830078125,0.994384765625,36.2400016784668,0.0,30.0,0.9625244140625,-0.4658203125,Closing,0.0,0.0,3.0,0.0,0.0,0.0,0.0,0.0,
3.9516900000000024,0.0,0.0,95687.0,0.375,300.0,420.0,0.0,0.25,1.378173687,0.5498168668524888,0.0,-111800.0,1.0,-315.0,-420.0,0.0,0.25,2.454833733,1.9285545897722227,-0.034179684000000154,4595.0,8.625,345.0,420.0,0.0,0.0,2.7514645620000002,4.389674732977289,0.0,-19743.0,1.25,-352.5,-420.0,0.0,0.125,4.649657727,3.0316872062785585,0.014648435999999876,0.6000000238418579,-1.4900000095367432,-53.380001068115234,0.0126953125,0.013671875,1.011962890625,36.2400016784668,0.0,20.0,0.967803955078125,-0.46551513671875,Closing,0.0,0.0,3.0,0.0,0.0,0.0,0.0,0.0,
4.018107000000003,0.0,0.0,95687.0,0.5,345.0,420.0,0.0,0.25,1.3732908750000001,0.5498168668524888,0.0,-111861.0,0.875,-360.0,-420.0,0.0,0.25,2.4255368610000003,1.9285545897722227,-0.019531247999999835,4595.0,8.0,330.0,420.0,0.0,0.0,2.7502438590000002,4.389674732977289,0.0,-19806.0,1.25,-382.5,-420.0,0.0,0.125,4.6557612420000005,3.0316872062785585,0.0,0.6899999976158142,-1.409999966621399,-56.38999938964844,0.028076171875,0.03173828125,1.02178955078125,36.2400016784668,0.0,13.0,0.9743804931640625,-0.4650726318359375,Closing,0.0,0.0,3.0,0.0,0.0,0.0,0.0,0.125,
4.085902000000002,0.0,0.0,95747.0,0.375,367.5,420.0,0.0,0.25,1.378173687,0.5498168668524888,0.0012207029999999897,-111861.0,0.75,-397.5,-420.0,0.0,0.125,2.386474365,1.9285545897722227,-0.032958981000000165,4639.0,8.5,277.5,420.0,0.0,0.0,2.756347374,4.389674732977289,0.0,-19806.0,1.0,-427.5,-420.0,0.0,0.125,4.6557612420000005,3.0316872062785585,-0.0012207029999995456,0.7599999904632568,-1.3200000524520874,-58.38999938964844,0.02203369140625,0.00341796875,1.0269775390625,36.27000045776367,0.0,32.0,0.975677490234375,-0.464569091796875,Closing,0.0,0.0,3.0,0.0,0.0,0.0,0.0,0.0,
4.140088000000003,0.0,0.0,95747.0,0.375,397.5,420.0,0.0,0.25,1.376952984,0.5498168668524888,0.0,-111861.0,0.625,-427.5,-420.0,0.0,0.25,2.3767087410000003,1.9285545897722227,-0.0354003869999997,4639.0,9.5,270.0,420.0,0.0,0.0,2.755126671,4.389674732977289,0.004882811999999959,-19881.0,0.75,-457.5,-420.0,0.0,0.125,4.6557612420000005,3.0316872062785585,-0.0024414059999999793,0.8100000023841858,-1.190000057220459,-61.290000915527344,0.025634765625,0.0552978515625,1.1807861328125,36.27000045776367,0.0,-9.0,0.9759979248046875,-0.4632110595703125,Closing,0.0,0.0,3.0,0.0,0.0,0.0,0.0,0.0,
4.1928059999999965,0.0,0.0,95816.0,0.375,420.0,420.0,0.0,0.25,1.3745115780000001,0.5498168668524888,-0.0012207029999999897,-111933.0,0.5,-457.5,-420.0,0.0,0.25,2.366943117,1.9285545897722227,-0.008544920999999928,4688.0,9.375,300.0,420.0,0.0,0.0,2.755126671,4.389674732977289,0.0024414059999999793,-19881.0,0.625,-465.0,-420.0,0.0,0.125,4.6557612420000005,3.0316872062785585,0.003662108999999525,0.8399999737739563,-1.0399999618530273,-64.44000244140625,-0.004638671875,0.0303955078125,1.1427001953125,36.27000045776367,0.0,-5.0,0.976226806640625,-0.461273193359375,Closing,0.0,0.0,3.0,0.0,0.0,0.0,0.0,0.125,
4.249005000000005,0.0,0.0,95816.0,0.375,427.5,420.0,0.0,0.25,1.376952984,0.5498168668524888,0.0,-111933.0,0.375,-465.0,-420.0,0.0,0.25,2.366943117,1.9285545897722227,-0.009765624000000361,4688.0,9.25,337.5,420.0,0.0,0.0,2.760009483,4.389674732977289,0.0024414059999999793,-19881.0,0.625,-487.5,-420.0,0.0,0.125,4.654540539,3.0316872062785585,0.0,0.8500000238418579,-1.0,-66.95999908447266,-0.0303955078125,-0.053955078125,0.97515869140625,36.27000045776367,0.0,57.0,0.976715087890625,-0.459869384765625,Closing,0.0,0.0,3.0,0.0,0.0,0.0,0.0,0.0,
4.304097999999998,0.0,0.0,95816.0,0.125,457.5,420.0,0.0,0.125,1.378173687,0.5498168668524888,0.0,-112009.0,0.25,-465.0,-420.0,0.0,0.25,2.386474365,1.9285545897722227,0.004882812000000403,4756.0,8.75,397.5,420.0,0.0,0.0,2.760009483,4.389674732977289,0.0,-19962.0,0.625,-517.5,-420.0,0.0,0.125,4.650878430000001,3.0316872062785585,0.0,0.8700000047683716,-0.9300000071525574,-70.44000244140625,0.00341796875,-0.02642822265625,1.117431640625,36.27000045776367,0.0,48.0,0.97796630859375,-0.458709716796875,Closing,0.0,0.0,3.0,0.0,0.0,0.0,0.0,0.0,
4.355460999999996,0.0,0.0,95898.0,0.125,517.5,420.0,0.0,0.25,1.376952984,0.5498168668524888,0.0,-112009.0,0.375,-472.5,-420.0,0.0,0.25,2.401122801,1.9285545897722227,0.014648435999999876,4756.0,8.125,442.5,420.0,0.0,0.0,2.760009483,4.389674732977289,0.0,-19962.0,0.375,-525.0,-420.0,0.0,0.125,4.6557612420000005,3.0316872062785585,-0.004882811999999959,0.8399999737739563,-0.9100000262260437,-74.06999969482422,0.02801513671875,0.00750732421875,1.0924072265625,36.27000045776367,0.0,20.0,0.9787445068359375,-0.4587860107421875,Closing,0.0,0.0,3.0,0.0,0.0,0.0,0.0,0.0,
4.409868000000002,0.0,0.0,95898.0,0.375,577.5,420.0,0.0,0.25,1.3732908750000001,0.5498168668524888,0.0,-112086.0,0.25,-465.0,-420.0,0.0,0.25,2.407226316,1.9285545897722227,0.014648435999999876,4756.0,7.5,480.0,420.0,0.0,0.0,2.760009483,4.389674732977289,0.0,-20046.0,0.375,-517.5,-420.0,0.0,0.125,4.654540539,3.0316872062785585,0.004882811999999959,0.8500000238418579,-0.7599999904632568,-76.80999755859375,-0.05560302734375,-0.04608154296875,0.89471435546875,36.27000045776367,0.0,47.0,0.9788970947265625,-0.4586181640625,Closing,0.0,0.0,3.0,0.0,0.0,0.0,0.0,0.0,
4.467618999999991,0.0,0.0,95990.0,0.375,577.5,420.0,0.0,0.125,1.3745115780000001,0.5498168668524888,-0.004882811999999959,-112086.0,0.125,-525.0,-420.0,0.0,0.25,2.406005613,1.9285545897722227,0.004882811999999959,4836.0,6.875,502.5,420.0,0.0,0.0,2.760009483,4.389674732977289,0.0,-20046.0,0.375,-495.0,-420.0,0.0,0.125,4.6533198360000005,3.0316872062785585,0.0,0.8500000238418579,-0.7300000190734863,-80.45999908447266,-2.44140625E-4,-0.08636474609375,1.0146484375,36.27000045776367,0.0,102.0,0.9797515869140625,-0.458587646484375,Closing,0.0,0.0,3.0,0.0,0.0,0.0,0.0,0.0,
4.520925999999992,0.0,0.0,95990.0,0.375,577.5,420.0,0.0,0.125,1.3720701720000001,0.5498168668524888,0.0,-112174.0,0.125,-547.5,-420.0,0.0,0.25,2.407226316,1.9285545897722227,0.0,4836.0,6.5,532.5,420.0,0.0,0.0,2.760009483,4.389674732977289,0.0012207029999995456,-20129.0,0.375,-517.5,-420.0,0.0,0.125,4.654540539,3.0316872062785585,0.0,0.8500000238418579,-0.6299999952316284,-84.05000305175781,-0.0281982421875,-0.05780029296875,1.0875244140625,36.27000045776367,0.0,71.0,0.9817352294921875,-0.458709716796875,Closing,0.0,0.0,3.0,0.0,0.0,0.0,0.0,0.0,
4.576516000000003,0.0,0.0,96083.0,0.25,570.0,420.0,0.0,0.25,1.3696287660000002,0.5498168668524888,0.0012207029999999897,-112174.0,0.125,-532.5,-420.0,0.0,0.25,2.406005613,1.9285545897722227,0.0,4931.0,5.75,607.5,420.0,0.0,0.0,2.760009483,4.389674732977289,0.0,-20129.0,0.375,-555.0,-420.0,0.0,0.125,4.656981945,3.0316872062785585,0.0,0.8600000143051147,-0.550000011920929,-87.54000091552734,-0.02001953125,-0.043212890625,0.92340087890625,36.27000045776367,0.0,56.0,0.9845428466796875,-0.458526611328125,Closing,0.0,0.0,3.0,0.0,0.0,0.0,0.0,0.0,
4.632425999999993,0.0,0.0,96083.0,0.375,547.5,0.0,0.0,0.25,1.3720701720000001,0.01,-0.0012207029999999897,-112256.0,0.0,-517.5,-0.0,0.0,0.25,2.407226316,0.01,0.0,4931.0,2.875,607.5,0.0,0.0,0.0,2.766112998,0.01,0.0,-20215.0,0.125,-547.5,-0.0,0.0,1.0,4.6557612420000005,0.01,0.0,0.8100000023841858,-0.550000011920929,-90.02999877929688,-0.08935546875,0.0302734375,1.0487060546875,36.27000045776367,0.0,-15.0,0.9870452880859375,-0.4587554931640625,Closing,0.0,0.0,3.0,0.0,0.0,0.0,0.0,0.0,
4.686873999999996,0.0,0.0,96160.0,0.375,495.0,0.0,0.0,2.0,1.202392455,0.01,0.0,-112256.0,0.125,-502.5,-0.0,0.0,9.25,2.188720479,0.01,-0.0012207029999999897,5022.0,1.625,562.5,0.0,0.0,2.625,2.988280944,0.01,0.017089841999999855,-20215.0,0.25,-502.5,-0.0,0.0,7.375,0.045166011000000006,0.01,0.008544921000000372,0.7900000214576721,-0.5899999737739563,-92.91999816894531,0.0147705078125,-0.04290771484375,1.22210693359375,36.27000045776367,0.0,58.0,0.990875244140625,-0.4601287841796875,Closing,0.0,0.0,3.0,0.0,0.0,0.0,0.0,0.125,
4.743292000000001,0.0,0.0,96160.0,0.625,420.0,0.0,0.0,0.625,0.963134667,0.01,-0.18920896500000017,-112256.0,0.375,-367.5,-0.0,0.0,1.5,1.7602537260000002,0.01,-0.24291989699999972,5022.0,1.5,427.5,0.0,0.0,0.625,3.242187168,0.01,0.22094724300000035,-20279.0,0.375,-420.0,-0.0,0.0,1.375,0.48583979400000005,0.01,0.3522875809999997,0.7200000286102295,-0.27000001072883606,-94.98999786376953,0.17547607421875,0.04266357421875,1.02117919921875,36.27000045776367,0.0,-45.0,0.991912841796875,-0.4600677490234375,Closing,0.0,0.0,3.0,0.0,0.0,0.0,0.0,0.125,
4.797406999999992,0.0,0.0,96210.0,0.625,337.5,0.0,0.0,0.25,0.821533119,0.01,-0.23193356999999992,-112300.0,0.125,-165.0,-0.0,0.0,1.5,1.326904161,0.01,-0.4223632380000004,5065.0,1.75,270.0,0.0,0.0,0.25,3.3776852010000002,0.01,0.2502441150000001,-20279.0,0.25,-315.0,-0.0,0.0,1.625,0.916747953,0.01,0.43457026799999987,0.7699999809265137,-0.20000000298023224,-95.79000091552734,-0.10260009765625,0.033935546875,1.040771484375,36.27000045776367,0.0,-9.0,0.991607666015625,-0.4575958251953125,Closing,0.0,0.0,3.0,0.0,0.0,0.0,0.0,0.0,
4.852642999999996,0.0,0.0,96210.0,0.625,247.5,0.0,0.0,0.125,0.799560465,0.01,4.799194373,-112300.0,0.0,-52.5,-0.0,0.0,1.5,0.9838866180000001,0.01,-0.4418944859999998,5065.0,2.125,180.0,0.0,0.0,0.125,3.397216449,0.01,-4.812226185,-20299.0,0.125,-150.0,-0.0,0.0,1.5,1.2890623680000002,0.01,0.419921832,0.7599999904632568,-0.4000000059604645,-95.94999694824219,-0.1060791015625,0.03375244140625,1.00506591796875,36.27000045776367,0.0,-9.0,0.99139404296875,-0.456573486328125,Closing,0.0,0.0,3.0,0.0,0.0,0.0,0.0,0.0,
4.909281999999992,0.0,0.0,96224.0,0.375,127.5,0.0,0.0,0.25,0.799560465,0.01,-0.017089842000000743,-112300.0,0.0,0.0,-0.0,0.0,0.875,0.6726073530000001,0.01,-0.3918456629999998,5077.0,2.75,82.5,0.0,0.0,0.125,3.394775043,0.01,0.019531247999999835,-20299.0,0.125,-97.5,-0.0,0.0,0.625,1.5576170280000001,0.01,0.41870112899999956,0.7400000095367432,-0.5400000214576721,-96.08000183105469,-0.09320068359375,0.01153564453125,0.99835205078125,36.27000045776367,0.0,10.0,0.9914703369140625,-0.45660400390625,Closing,0.0,0.0,3.0,0.0,0.0,0.0,0.0,0.0,
4.967669999999998,0.0,0.0,96224.0,0.125,67.5,8.4,0.0,0.25,0.799560465,4.930469842463176,-0.0012207029999995456,-112300.0,0.0,0.0,-8.4,0.0,0.25,0.5676268950000001,4.961977460174561,-0.25512692700000006,5077.0,3.25,45.0,8.4,0.0,0.125,3.387450825,4.9386158996582035,-0.004882811999999959,-20299.0,0.125,-52.5,-8.4,0.0,0.375,1.6308592080000002,4.956209543863932,0.23437497600000068,0.6800000071525574,-0.6700000166893005,-96.11000061035156,-0.0311279296875,-0.004638671875,0.9952392578125,36.27000045776367,0.0,18.0,0.99151611328125,-0.4578857421875,Closing,0.0,0.0,3.0,0.0,0.0,0.0,0.0,0.0,
5.019865999999994,0.0,0.0,96224.0,0.125,15.0,8.4,0.0,0.25,0.8007811680000001,4.930058838270993,0.0012207029999995456,-112300.0,0.0,0.0,-8.4,0.0,0.25,0.5566405680000001,4.961563829505921,-0.08544921000000016,5078.0,3.875,7.5,8.4,0.0,0.125,3.38134731,4.938204216410319,-0.003662108999999969,-20303.0,0.125,-7.5,-8.4,0.0,0.25,1.6296385050000002,4.95579639400906,0.0646972589999999,0.6800000071525574,-0.6600000262260437,-96.06999969482422,0.01019287109375,0.0205078125,1.02056884765625,36.27000045776367,0.0,-10.0,0.9917144775390625,-0.4582977294921875,Closing,0.0,0.0,3.0,0.0,0.0,0.0,0.0,0.125,
5.075394,0.0,0.0,96225.0,0.125,0.0,8.4,0.0,0.25,0.799560465,4.930606878703244,0.0,-112300.0,0.0,0.0,-8.4,0.0,0.25,0.5566405680000001,4.96211537212944,-0.009765623999999917,5078.0,4.0,0.0,8.4,0.0,0.125,3.3679195770000003,4.93875316230774,-0.010986326999999907,-20303.0,0.125,0.0,-8.4,0.0,0.125,1.6320799110000002,4.956347295506795,0.0,0.6600000262260437,-0.6399999856948853,-96.08999633789062,-0.02056884765625,-0.01025390625,1.002685546875,36.27000045776367,0.0,22.0,0.9917449951171875,-0.4581756591796875,Closing,0.0,0.0,3.0,0.0,0.0,0.0,0.0,0.0,
5.128406999999992,0.0,0.0,96225.0,0.125,0.0,8.4,0.0,0.125,0.799560465,4.930332910751131,0.0,-112300.0,0.0,0.0,-8.4,0.0,0.25,0.5566405680000001,4.96183965341568,0.0,5078.0,4.25,0.0,8.4,0.0,0.125,3.3679195770000003,4.938478741709392,-0.008544920999999928,-20303.0,0.125,0.0,-8.4,0.0,0.125,1.616210772,4.956071897294787,0.0,0.6399999856948853,-0.6700000166893005,-96.08000183105469,-0.01165771484375,0.01318359375,1.0125732421875,36.29999923706055,0.0,-1.0,0.9918670654296875,-0.4581756591796875,Closing,0.0,0.0,3.0,0.0,0.0,0.0,0.0,0.0,
5.184357000000004,0.0,0.0,96225.0,0.125,0.0,8.4,0.0,0.25,0.799560465,4.930469842463176,0.0,-112300.0,0.0,0.0,-8.4,0.0,0.25,0.5566405680000001,4.961977460174561,0.0,5078.0,4.5,0.0,8.4,0.0,0.125,3.3679195770000003,4.9386158996582035,-0.0012207029999999897,-20303.0,0.125,0.0,-8.4,0.0,0.125,1.6015623360000002,4.956209543863932,-0.014648435999999876,0.6399999856948853,-0.6600000262260437,-96.08999633789062,-0.0062255859375,0.00189208984375,1.01153564453125,36.29999923706055,0.0,8.0,0.9918670654296875,-0.4581756591796875,Closing,0.0,0.0,3.0,0.0,0.0,0.0,0.0,0.0,
5.241051999999996,0.0,0.0,96225.0,0.125,0.0,0.0,0.0,0.25,0.799560465,0.01,0.0,-112300.0,0.0,0.0,-0.0,0.0,0.25,0.5566405680000001,0.01,0.0,5078.0,4.5,0.0,0.0,0.0,0.125,3.3666988740000003,0.01,0.0,-20303.0,0.125,0.0,-0.0,0.0,0.25,1.596679524,0.01,-0.014648435999999876,0.6200000047683716,-0.6499999761581421,-96.08000183105469,-0.01470947265625,0.01708984375,1.03656005859375,36.29999923706055,0.0,-5.0,0.9918670654296875,-0.4581756591796875,Closing,0.0,0.0,3.0,0.0,0.0,0.0,0.0,0.0,
5.300891000000004,0.0,0.0,96225.0,0.125,0.0,630.0,0.0,0.25,0.798339762,0.01,0.0,-112300.0,0.5,0.0,-630.0,0.0,0.25,0.560302677,0.01,0.0,5078.0,7.125,0.0,630.0,0.0,0.0,3.3691402800000003,0.01,0.0,-20303.0,0.75,-7.5,-630.0,0.0,0.25,1.596679524,0.01,-0.004882811999999959,0.6299999952316284,-0.6499999761581421,-96.08999633789062,0.05877685546875,0.033203125,1.03314208984375,36.29999923706055,0.0,-29.0,0.991851806640625,-0.4581298828125,Closing,0.0,0.0,3.0,0.0,0.0,0.0,0.0,0.0,
5.351222999999998,0.0,0.0,96225.0,0.125,97.5,NaN,0.0,0.125,0.799560465,NaN,0.0012207029999995456,-112324.0,0.25,-172.5,NaN,0.0,0.0,0.5554198650000001,NaN,0.0,5078.0,6.875,0.0,NaN,0.0,0.0,3.3666988740000003,NaN,0.0,-20329.0,0.125,-172.5,NaN,0.0,0.125,1.596679524,NaN,0.0,0.6000000238418579,-0.3700000047683716,-96.11000061035156,-0.03338623046875,0.00714111328125,1.09735107421875,36.29999923706055,0.0,7.0,0.9922027587890625,-0.4553680419921875,Closing,0.0,0.0,3.0,0.0,0.0,0.0,0.0,0.0,
5.5126229999999925,0.0,0.0,96247.0,0.125,7.5,NaN,0.0,0.125,0.799560465,NaN,-0.0012207029999995456,-112323.0,0.0,0.0,NaN,0.0,0.0,0.5566405680000001,NaN,0.0,5086.0,4.375,52.5,NaN,0.0,0.0,3.3691402800000003,NaN,0.0,-20325.0,0.25,0.0,NaN,0.0,0.125,1.596679524,NaN,0.0,0.5600000023841858,-0.4699999988079071,-96.20999908447266,-0.0379638671875,0.00115966796875,1.03131103515625,36.29999923706055,0.0,12.0,0.993743896484375,-0.4487152099609375,Closing,0.0,0.0,3.0,0.0,0.0,0.0,0.0,0.0,
5.647669999999998,0.0,0.0,96255.0,0.125,45.0,635.9544307405332,0.0,0.125,0.799560465,0.10750455483864148,0.0012207029999995456,-112323.0,0.875,0.0,-635.9544307405332,0.0,0.0,0.551757756,0.10819155070806481,0.0,5093.0,11.5,52.5,635.9544307405332,0.0,0.0,3.3679195770000003,0.10768217244516233,0.0,-20327.0,1.25,-90.0,-635.9544307405332,0.0,0.125,1.625976396,0.10806578637015521,0.0,0.550000011920929,-0.44999998807907104,-96.37000274658203,0.11962890625,-0.1151123046875,1.05291748046875,36.31999969482422,0.0,110.0,0.99432373046875,-0.4450531005859375,Closing,0.0,0.0,3.0,0.0,0.0,0.0,0.0,0.0,
5.795046000000002,0.0,0.0,96296.0,0.75,232.5,635.9544307405332,0.0,0.375,0.8679198330000001,0.10750455483864148,0.008544921000000372,-112357.0,3.125,-172.5,-635.9544307405332,0.0,0.25,0.571289004,0.10819155070806481,-0.004882811999999959,5112.0,16.5,165.0,635.9544307405332,0.0,0.125,3.392333637,0.10768217244516233,0.009765623999999917,-20390.0,3.25,-180.0,-635.9544307405332,0.0,0.375,1.7077634970000002,0.10806578637015521,-4.914054692000001,0.5600000023841858,0.1899999976158142,-96.4000015258789,0.107177734375,-0.00860595703125,0.99871826171875,36.31999969482422,0.0,6.0,0.9966583251953125,-0.434967041015625,Closing,0.0,0.0,3.0,0.0,0.0,0.0,0.0,0.0,
5.913385999999998,0.0,0.0,96341.0,1.125,315.0,635.9544307405332,0.0,0.125,0.9228514680000001,0.10750455483864148,-4.843139680999999,-112392.0,4.0,-322.5,-635.9544307405332,0.0,0.125,0.614013609,0.10819155070806481,0.037841793000000123,5156.0,17.75,322.5,635.9544307405332,0.0,0.125,3.395995746,0.10768217244516233,0.0,-20446.0,3.0,-330.0,-635.9544307405332,0.0,0.125,1.7651365380000001,0.10806578637015521,0.0,0.7699999809265137,0.800000011920929,-96.58999633789062,0.0623779296875,-0.01104736328125,0.99249267578125,36.31999969482422,0.0,18.0,0.9934539794921875,-0.4133453369140625,Closing,0.0,0.0,3.0,0.0,0.0,0.0,0.0,0.0,
6.047951000000001,0.0,0.0,96417.0,0.5,525.0,633.6087496760249,0.0,0.125,0.9338377950000001,0.08382130912222756,0.03540038700000003,-112457.0,3.375,-480.0,-633.6087496760249,0.0,0.125,0.6103515,0.08435695985091583,0.023193357000000248,5229.0,14.25,495.0,633.6087496760249,0.0,0.125,3.400878558,0.08395979758277773,0.009765623999999917,-20446.0,2.875,-480.0,-633.6087496760249,0.0,0.25,1.804199034,0.08425890138762286,0.03295898099999994,0.800000011920929,1.0700000524520874,-96.98999786376953,0.1153564453125,0.07763671875,1.04986572265625,36.31999969482422,0.0,-74.0,0.99090576171875,-0.393524169921875,Closing,0.0,0.0,3.0,0.0,0.0,0.0,0.0,0.125,
6.190353000000003,0.0,0.0,96512.0,0.375,607.5,633.6087496760249,0.0,0.25,0.9326170920000001,0.08382130912222756,0.0,-112646.0,2.375,-615.0,-633.6087496760249,0.0,0.125,0.614013609,0.08435695985091583,0.0,5317.0,13.25,570.0,633.6087496760249,0.0,0.0,3.400878558,0.08395979758277773,0.0,-20622.0,2.25,-607.5,-633.6087496760249,0.0,0.25,1.7614744290000002,0.08425890138762286,0.014648436000000098,0.7699999809265137,1.2999999523162842,-97.62999725341797,0.05572509765625,0.0565185546875,0.99688720703125,36.27000045776367,0.0,-47.0,0.989959716796875,-0.3820953369140625,Closing,0.0,0.0,3.0,0.0,0.0,0.0,0.0,0.0,
6.327940999999992,0.0,0.0,96610.0,0.375,712.5,632.6533324827765,0.0,0.25,0.9313963890000001,0.07191924801325907,0.0,-112758.0,1.25,-705.0,-632.6533324827765,0.0,0.25,0.614013609,0.07237883994767803,0.0,5535.0,10.5,727.5,632.6533324827765,0.0,0.0,3.4143062910000004,0.07203807204554373,0.0,-20727.0,1.0,-675.0,-632.6533324827765,0.0,0.25,1.704101388,0.07229470512545659,0.0,0.7099999785423279,1.3899999856948853,-98.44000244140625,0.13104248046875,0.04754638671875,1.09674072265625,36.27000045776367,0.0,-48.0,0.9875335693359375,-0.3803863525390625,Closing,0.0,0.0,3.0,0.0,0.0,0.0,0.0,0.0,
6.451694000000003,0.0,0.0,96733.0,0.375,810.0,630.0738545577539,0.0,0.25,0.913085844,0.01201925261142284,-0.006103515000000059,-112873.0,0.875,-720.0,-630.0738545577539,0.0,0.25,0.603027282,0.012096060304920076,-0.0012207029999995456,5668.0,8.125,817.5,630.0738545577539,0.0,0.125,3.402099261,0.01203911066194186,-0.0012207029999999897,-20845.0,0.75,-727.5,-630.0738545577539,0.0,0.25,1.6882322490000001,0.012081999567222845,0.0,0.6100000143051147,1.309999942779541,-99.3499984741211,-0.01959228515625,0.09259033203125,0.8709716796875,36.27000045776367,0.0,-75.0,0.9859619140625,-0.3811187744140625,Closing,0.0,0.0,3.0,0.0,0.0,0.0,0.0,0.0,
6.590277000000002,0.0,0.0,96995.0,0.375,810.0,633.6087496760249,0.0,0.375,0.826415931,4.848429690877773,-0.06469725900000001,-112991.0,0.625,-727.5,-633.6087496760249,0.0,0.25,0.527343696,4.8794130401490845,-0.051269526000000454,5796.0,7.0,795.0,633.6087496760249,0.0,0.125,3.382568013,4.856440202417223,-0.009765623999999917,-20963.0,0.625,-742.5,-633.6087496760249,0.0,0.25,1.639404129,4.873741098612378,-0.029296871999999974,0.5400000214576721,1.1699999570846558,-99.76000213623047,-0.09332275390625,-0.09539794921875,1.16387939453125,36.27000045776367,0.0,124.0,0.9853057861328125,-0.383758544921875,Closing,0.0,0.0,3.0,0.0,0.0,0.0,0.0,0.0,
6.725224000000002,0.0,0.0,97117.0,0.125,772.5,644.3137362062541,0.0,0.375,0.717773364,4.766477385014434,4.83459476,-113103.0,0.625,-697.5,-644.3137362062541,0.0,0.25,0.397949178,4.796937027213962,0.0,5930.0,5.625,825.0,644.3137362062541,0.0,0.125,3.2568356040000004,4.774352496035848,0.0,-21080.0,0.375,-727.5,-644.3137362062541,0.0,0.25,1.510009611,4.7913609576847485,0.0,0.11999999731779099,0.8299999833106995,-99.97000122070312,-0.0777587890625,-0.0423583984375,1.04833984375,36.25,0.0,60.0,0.9906768798828125,-0.3922271728515625,Closing,0.0,0.0,3.0,0.0,0.0,0.0,0.0,0.0,
6.849817999999999,0.0,0.0,97236.0,0.125,742.5,656.1215232050314,0.0,0.375,0.616455015,4.7100024765632575,-0.10742186399999998,-113216.0,0.375,-712.5,-656.1215232050314,0.0,0.25,0.30517575,4.740101222158078,-0.10864256699999952,6057.0,5.0,795.0,656.1215232050314,0.0,0.125,3.129882492,4.717784280486358,-0.13427733000000064,-21197.0,0.375,-705.0,-656.1215232050314,0.0,0.25,1.408691262,4.7345912198711355,-0.12084959700000031,-0.1899999976158142,0.5899999737739563,-100.11000061035156,-0.006591796875,-0.11834716796875,1.1512451171875,36.25,0.0,115.0,1.00103759765625,-0.401611328125,Closing,0.0,0.0,3.0,0.0,0.0,0.0,0.0,0.0,
6.981985000000001,0.0,0.0,97349.0,0.375,705.0,693.2935724057036,0.0,0.375,0.57373041,4.594215514558043,-0.07080077400000029,-113328.0,0.5,-675.0,-693.2935724057036,0.0,0.25,0.266113254,4.6235743364840465,-0.06347655600000035,6182.0,4.875,765.0,693.2935724057036,0.0,0.125,3.083495778,4.601806016790823,-0.08789061599999926,-21306.0,0.625,-675.0,-693.2935724057036,0.0,0.25,1.363525251,4.618199787719395,-0.06713866499999988,-0.2800000011920929,0.3700000047683716,-100.3499984741211,-0.0474853515625,-0.05621337890625,0.96832275390625,36.25,0.0,60.0,1.005767822265625,-0.404144287109375,Closing,0.0,0.0,3.0,0.0,0.0,0.0,0.0,0.0,
7.1114429999999995,0.0,0.0,97458.0,0.375,675.0,701.5665969813557,0.0,0.25,0.4882812,4.5745962991910165,-0.06835936799999942,-113440.0,0.5,-705.0,-701.5665969813557,0.0,0.25,0.181884747,4.603829746709036,-0.07202147699999983,6300.0,5.0,727.5,701.5665969813557,0.0,0.125,3.0078121920000003,4.5821543868151275,-0.06347655600000035,-21413.0,0.625,-675.0,-701.5665969813557,0.0,0.25,1.286620962,4.598478149508016,0.0,-0.5,0.10000000149011612,-100.68000030517578,-0.05718994140625,0.0020751953125,1.1138916015625,36.189998626708984,0.0,0.0,1.004119873046875,-0.412445068359375,Closing,0.0,0.0,3.0,0.0,0.0,0.0,0.0,0.0,
