Time,ClimberA1,ClimberA2,FRpos,FRCurrent,FRspeed,FRsetpoint,FRApos,FRACurrent,FREncpos,FREncSetpoint,FREncSpeed,FLpos,FLCurrent,FLspeed,FLsetpoint,FLApos,FLACurrent,FLEncpos,FLEncSetpoint,FLEncSpeed,BRpos,BRCurrent,BRspeed,BRsetpoint,BRApos,BRACurrent,BREncpos,BREncSetpoint,BREncSpeed,BLpos,BLCurrent,BLspeed,BLsetpoint,BLApos,BLACurrent,BLEncpos,BLEncSetpoint,BLEncSpeed,navx_Pitch,navx_Roll,navx_Yaw,navx_XAcc,navx_YAcc,navx_ZAcc,navx_Temp,navx_Bar,navx_Alt,navx_XDis,navx_YDis,GearPlacerState,ShootOutputV,ShootOutputCurrent,ShootEncPos,ShootEncVelocity,ShootSpeed,ShootSetpoint,CarouselSetpoint,CarouselCurrent,
0.14355199999999604,0.0,0.0,88531.0,0.0,0.0,0.0,0.0,0.25,0.8166503070000001,0.01,0.0,-154787.0,0.0,0.0,-0.0,0.0,0.25,0.4882812,0.01,0.0,16455.0,0.0,0.0,0.0,0.0,0.0,3.353271141,0.01,0.0,-28995.0,0.125,0.0,-0.0,0.0,0.125,1.617431475,0.01,0.0,0.30000001192092896,-0.28999999165534973,-98.52999877929688,-0.0042724609375,0.0068359375,1.0196533203125,36.599998474121094,0.0,-1.0,2.2402496337890625,-2.094482421875,Closing,0.0,0.0,3.0,0.0,0.0,0.0,0.0,0.125,
0.22455000000001746,0.0,0.0,88531.0,0.0,0.0,0.0,0.0,0.25,0.8154296040000001,0.01,0.0012207030000004337,-154787.0,0.0,0.0,-0.0,0.0,0.25,0.4882812,0.01,0.0,16455.0,0.0,0.0,0.0,0.0,0.0,3.352050438,0.01,0.0,-28995.0,0.125,0.0,-0.0,0.0,0.125,1.618652178,0.01,0.0,0.30000001192092896,-0.28999999165534973,-98.52999877929688,-0.00634765625,0.004638671875,1.017578125,36.599998474121094,0.0,0.0,2.2402496337890625,-2.094482421875,Closing,0.0,0.0,3.0,0.0,0.0,0.0,0.0,0.125,
0.30568600000001606,0.0,0.0,88531.0,0.0,0.0,0.0,0.0,0.25,0.811767495,0.01,0.0,-154787.0,0.0,0.0,-0.0,0.0,0.25,0.4882812,0.01,0.0,16455.0,0.0,0.0,0.0,0.0,0.0,3.352050438,0.01,0.0,-28995.0,0.125,0.0,-0.0,0.0,0.125,1.617431475,0.01,0.0,0.30000001192092896,-0.28999999165534973,-98.54000091552734,-0.0052490234375,0.00445556640625,1.0181884765625,36.599998474121094,0.0,0.0,2.2402496337890625,-2.094482421875,Closing,0.0,0.0,3.0,0.0,0.0,0.0,0.0,0.125,
0.38010800000000744,0.0,0.0,88531.0,0.0,0.0,0.0,0.0,0.125,0.8166503070000001,0.01,0.0,-154787.0,0.0,0.0,-0.0,0.0,0.25,0.4882812,0.01,0.0,16455.0,0.0,0.0,0.0,0.0,0.0,3.353271141,0.01,0.0,-28995.0,0.125,0.0,-0.0,0.0,0.125,1.618652178,0.01,0.0,0.30000001192092896,-0.28999999165534973,-98.54000091552734,-0.00579833984375,0.005126953125,1.015625,36.599998474121094,0.0,0.0,2.2402496337890625,-2.094482421875,Closing,0.0,0.0,3.0,0.0,0.0,0.0,0.0,0.0,
0.4616350000000093,0.0,0.0,88531.0,0.0,0.0,0.0,0.0,0.25,0.8178710100000001,0.01,0.0012207030000004337,-154787.0,0.0,0.0,-0.0,0.0,0.25,0.4882812,0.01,0.0,16455.0,0.0,0.0,0.0,0.0,0.0,3.353271141,0.01,0.0,-28995.0,0.125,0.0,-0.0,0.0,0.125,1.617431475,0.01,0.0,0.30000001192092896,-0.28999999165534973,-98.54000091552734,-0.00738525390625,0.00543212890625,1.02117919921875,36.599998474121094,0.0,0.0,2.2402496337890625,-2.094482421875,Closing,0.0,0.0,3.0,0.0,0.0,0.0,0.0,0.125,
0.5363540000000212,0.0,0.0,88531.0,0.125,0.0,-138.89763727784157,0.0,0.25,0.811767495,4.932250999999998,0.0,-154787.0,0.0,0.0,138.89763727784157,0.0,0.125,0.4882812,4.963769999999998,0.0,16455.0,0.125,0.0,-138.89763727784157,0.0,0.0,3.353271141,0.01,0.0,-28995.0,0.25,0.0,138.89763727784157,0.0,0.125,1.618652178,0.01,0.0,0.3100000023841858,-0.30000001192092896,-98.54000091552734,-0.01239013671875,0.00445556640625,1.0167236328125,36.599998474121094,0.0,2.0,2.2402496337890625,-2.094482421875,Closing,0.0,0.0,3.0,0.0,0.0,0.0,0.0,0.125,
0.61744200000001,0.0,0.0,88527.0,3.125,-45.0,-1031.8110573291779,0.0,0.25,0.836181555,4.932250999999998,0.0,-154787.0,2.5,37.5,1031.8110573291779,0.0,0.125,0.490722606,4.963769999999998,0.0,16455.0,3.0,-7.5,-1031.8110573291779,0.0,0.0,3.3642574680000004,0.01,0.0,-28995.0,3.0,30.0,1031.8110573291779,0.0,0.125,1.617431475,0.01,0.0,0.3199999928474426,-0.3700000047683716,-98.52999877929688,-0.74310302734375,0.0784912109375,0.99591064453125,36.56999969482422,0.0,37.0,2.2402801513671875,-2.094970703125,Closing,0.0,0.0,3.0,0.0,0.0,0.0,0.0,0.125,
0.7003550000000105,0.0,0.0,88495.0,3.0,-157.5,-694.4881582260131,0.0,0.25,0.836181555,4.932250999999998,0.0,-154756.0,4.625,232.5,694.4881582260131,0.0,0.125,0.48706049700000004,4.963769999999998,0.0,16443.0,5.0,-60.0,-694.4881582260131,0.0,0.0,3.3789059040000002,0.01,0.0,-28979.0,4.625,165.0,694.4881582260131,0.0,0.125,1.618652178,0.01,0.0,0.33000001311302185,-1.1100000143051147,-98.5199966430664,-0.13372802734375,-0.031494140625,1.0128173828125,36.56999969482422,0.0,53.0,2.240081787109375,-2.1036376953125,Closing,0.0,0.0,3.0,0.0,0.0,0.0,0.0,0.0,
0.7817400000000198,0.0,0.0,88495.0,0.0,-187.5,0.0,0.0,0.25,0.836181555,4.932250999999998,0.0,-154731.0,1.0,180.0,0.0,0.0,0.125,0.4882812,4.963769999999998,0.0,16443.0,0.25,-120.0,0.0,0.0,0.0,3.3666988740000003,0.01,0.0,-28951.0,0.375,165.0,0.0,0.0,0.125,1.617431475,0.01,0.0,0.30000001192092896,-1.0800000429153442,-98.5199966430664,0.0050048828125,0.0196533203125,1.04754638671875,36.56999969482422,0.0,-17.0,2.239898681640625,-2.1154327392578125,Closing,0.0,0.0,3.0,0.0,0.0,0.0,0.0,0.125,
0.8656120000000228,0.0,0.0,88484.0,0.0,-52.5,0.0,0.0,0.25,0.821533119,4.932250999999998,0.0,-154731.0,0.0,60.0,0.0,0.0,0.125,0.4882812,4.963769999999998,0.0,16428.0,0.0,-37.5,0.0,0.0,0.0,3.358153953,0.01,-0.0012207029999999897,-28951.0,0.125,82.5,0.0,0.0,0.125,1.618652178,0.01,0.0,0.3799999952316284,-0.6800000071525574,-98.61000061035156,0.08599853515625,0.01605224609375,1.04754638671875,36.56999969482422,0.0,-23.0,2.23907470703125,-2.122283935546875,Closing,0.0,0.0,3.0,0.0,0.0,0.0,0.0,0.125,
0.9458790000000153,0.0,0.0,88462.0,0.0,-127.5,0.0,0.0,0.25,0.821533119,4.932250999999998,0.0,-154711.0,0.0,150.0,0.0,0.0,0.125,0.4882812,4.963769999999998,0.0,16426.0,0.0,-7.5,0.0,0.0,0.0,3.358153953,0.01,0.0,-28930.0,0.125,142.5,0.0,0.0,0.125,1.622314287,0.01,0.0,0.33000001311302185,-0.4300000071525574,-98.5999984741211,0.03076171875,0.015380859375,0.98065185546875,36.56999969482422,0.0,-15.0,2.238616943359375,-2.1252899169921875,Closing,0.0,0.0,3.0,0.0,0.0,0.0,0.0,0.0,
1.0250830000000133,0.0,0.0,88462.0,0.125,-90.0,-357.16537177562714,0.0,0.25,0.821533119,4.932250999999998,0.0,-154701.0,0.25,67.5,357.16537177562714,0.0,0.125,0.4882812,4.963769999999998,0.0,16426.0,0.375,-15.0,-357.16537177562714,0.0,0.0,3.3691402800000003,0.01,0.0,-28921.0,0.375,60.0,357.16537177562714,0.0,0.125,1.627197099,0.01,0.0,0.3700000047683716,-0.23999999463558197,-98.54000091552734,0.0406494140625,0.01177978515625,1.04248046875,36.56999969482422,0.0,-11.0,2.23822021484375,-2.1254425048828125,Closing,0.0,0.0,3.0,0.0,0.0,0.0,0.0,0.125,
1.1071359999999986,0.0,0.0,88448.0,0.75,-105.0,-754.0157639980315,0.0,0.25,0.820312416,4.932250999999998,0.0,-154701.0,2.25,157.5,754.0157639980315,0.0,0.125,0.4882812,4.963769999999998,0.0,16420.0,1.75,-45.0,-754.0157639980315,0.0,0.0,3.3715816860000003,0.01,0.0,-28921.0,1.5,75.0,754.0157639980315,0.0,0.125,1.6284178020000002,0.01,0.0,0.30000001192092896,-0.20000000298023224,-98.5999984741211,-0.1142578125,0.0535888671875,0.91241455078125,36.56999969482422,0.0,-31.0,2.2382049560546875,-2.124053955078125,Closing,0.0,0.0,3.0,0.0,0.0,0.0,0.0,0.125,
1.1806450000000186,0.0,0.0,88415.0,2.875,-202.5,-813.5432946681976,0.0,0.25,0.834960852,4.932250999999998,0.0,-154669.0,4.375,217.5,813.5432946681976,0.0,0.125,0.4882812,4.963769999999998,0.0,16406.0,4.0,-82.5,-813.5432946681976,0.0,0.0,3.3728023890000003,0.01,0.0,-28893.0,3.875,217.5,813.5432946681976,0.0,0.125,1.622314287,0.01,0.0,0.30000001192092896,-0.699999988079071,-98.61000061035156,-0.16204833984375,1.220703125E-4,1.093994140625,36.56999969482422,0.0,27.0,2.2399139404296875,-2.1261138916015625,Closing,0.0,0.0,3.0,0.0,0.0,0.0,0.0,0.0,
1.2637920000000158,0.0,0.0,88415.0,3.5,-180.0,-813.5432946681976,0.0,0.25,0.833740149,4.932250999999998,0.0,-154634.0,6.25,180.0,813.5432946681976,0.0,0.125,0.489501903,4.963769999999998,0.0,16406.0,5.5,-180.0,-813.5432946681976,0.0,0.0,3.3728023890000003,0.01,0.0,-28862.0,5.25,202.5,813.5432946681976,0.0,0.125,1.617431475,0.01,0.0,0.3100000023841858,-1.190000057220459,-98.58000183105469,-0.1346435546875,0.0528564453125,1.09814453125,36.56999969482422,0.0,-29.0,2.2434234619140625,-2.1343231201171875,Closing,0.0,0.0,3.0,0.0,0.0,0.0,0.0,0.125,
1.3443550000000104,0.0,0.0,88365.0,4.25,-352.5,-813.5432946681976,0.0,0.25,0.836181555,4.932250999999998,0.0,-154634.0,7.0,352.5,813.5432946681976,0.0,0.125,0.4882812,4.963769999999998,0.0,16365.0,6.875,-300.0,-813.5432946681976,0.0,0.0,3.3776852010000002,0.01,0.0,-28796.0,5.125,367.5,813.5432946681976,0.0,0.25,1.617431475,0.01,0.0,0.2800000011920929,-1.6799999475479126,-98.66000366210938,-0.1453857421875,-0.03973388671875,1.09796142578125,36.56999969482422,0.0,61.0,2.2476806640625,-2.1461334228515625,Closing,0.0,0.0,3.0,0.0,0.0,0.0,0.0,0.0,
1.4296610000000218,0.0,0.0,88296.0,0.875,-465.0,0.0,0.0,0.25,0.8166503070000001,4.932250999999998,0.0,-154559.0,1.75,450.0,0.0,0.0,0.125,0.48706049700000004,4.963769999999998,0.0,16306.0,1.0,-360.0,0.0,0.0,0.125,3.3728023890000003,0.01,0.0,-28796.0,0.625,457.5,0.0,0.0,0.125,1.622314287,0.01,0.0,0.3799999952316284,-1.9700000286102295,-98.56999969482422,0.08270263671875,-0.06890869140625,1.03521728515625,36.56999969482422,0.0,57.0,2.2538299560546875,-2.1655120849609375,Closing,0.0,0.0,3.0,0.0,0.0,0.0,0.0,0.125,
1.5106199999999954,0.0,0.0,88296.0,0.0,-292.5,0.0,0.0,0.25,0.8166503070000001,4.932250999999998,4.9237060790000005,-154504.0,0.0,322.5,0.0,0.0,0.125,0.5029296360000001,4.963769999999998,0.0012207030000004337,16306.0,0.0,-202.5,0.0,0.0,0.0,3.358153953,0.01,-0.004882811999999959,-28734.0,0.125,352.5,0.0,0.0,0.125,1.622314287,0.01,0.003662108999999525,0.28999999165534973,-1.3700000047683716,-98.66999816894531,0.10394287109375,0.1009521484375,1.24072265625,36.56999969482422,0.0,-113.0,2.25811767578125,-2.1796875,Closing,0.0,0.0,3.0,0.0,0.0,0.0,0.0,0.125,
1.588820000000007,0.0,0.0,88241.0,0.0,-375.0,0.0,0.0,0.25,0.8166503070000001,4.932250999999998,0.0,-154504.0,0.0,382.5,0.0,0.0,0.0,0.5029296360000001,4.963769999999998,0.0,16280.0,0.0,-172.5,0.0,0.0,0.0,3.35693325,0.01,0.0,-28680.0,0.125,360.0,0.0,0.0,0.125,1.622314287,0.01,0.0,0.23000000417232513,-0.9800000190734863,-98.66999816894531,0.00262451171875,0.0250244140625,1.04071044921875,36.56999969482422,0.0,-23.0,2.2627105712890625,-2.192230224609375,Closing,0.0,0.0,3.0,0.0,0.0,0.0,0.0,0.125,
1.6709220000000204,0.0,0.0,88194.0,0.0,-315.0,-317.4803137779236,0.0,0.25,0.8178710100000001,4.932250999999998,0.0,-154456.0,0.0,285.0,317.4803137779236,0.0,0.0,0.507812448,4.963769999999998,0.0,16251.0,0.125,-180.0,-317.4803137779236,0.0,0.0,3.35693325,0.01,0.0,-28680.0,0.125,255.0,317.4803137779236,0.0,0.25,1.617431475,0.01,0.0,0.27000001072883606,-0.6700000166893005,-98.58999633789062,0.06622314453125,0.00604248046875,0.99810791015625,36.560001373291016,0.0,-12.0,2.26318359375,-2.199737548828125,Closing,0.0,0.0,3.0,0.0,0.0,0.0,0.0,0.125,
1.7521710000000021,0.0,0.0,88194.0,0.625,-217.5,-892.9134106636047,0.0,0.25,0.8166503070000001,4.932250999999998,0.0,-154412.0,0.75,247.5,892.9134106636047,0.0,0.0,0.5029296360000001,4.963769999999998,0.0,16251.0,0.875,-172.5,-892.9134106636047,0.0,0.0,3.35693325,0.01,0.0,-28645.0,1.125,217.5,892.9134106636047,0.0,0.125,1.617431475,0.01,0.0,0.25999999046325684,-0.41999998688697815,-98.66000366210938,0.01885986328125,0.0313720703125,1.13226318359375,36.560001373291016,0.0,-30.0,2.2630767822265625,-2.205841064453125,Closing,0.0,0.0,3.0,0.0,0.0,0.0,0.0,0.125,
1.8307920000000157,0.0,0.0,88141.0,2.375,-367.5,-992.1259617805481,0.0,0.125,0.836181555,4.932250999999998,0.0,-154412.0,3.0,382.5,992.1259617805481,0.0,0.0,0.4882812,4.963769999999998,0.0,16218.0,3.5,-255.0,-992.1259617805481,0.0,0.0,3.382568013,0.01,0.0,-28591.0,2.5,352.5,992.1259617805481,0.0,0.125,1.618652178,0.01,0.0,0.23999999463558197,-0.7400000095367432,-98.5999984741211,-0.14605712890625,0.0452880859375,0.84344482421875,36.560001373291016,0.0,-20.0,2.2626800537109375,-2.2111968994140625,Closing,0.0,0.0,3.0,0.0,0.0,0.0,0.0,0.0,
1.9134140000000188,0.0,0.0,88094.0,3.625,-300.0,-1091.3385879993439,0.0,0.25,0.8142089010000001,4.932250999999998,0.0,-154358.0,6.25,285.0,1091.3385879993439,0.0,0.125,0.489501903,4.963769999999998,0.0,16189.0,7.0,-150.0,-1091.3385879993439,0.0,0.125,3.386230122,0.01,0.0,-28591.0,5.5,285.0,1091.3385879993439,0.0,0.125,1.617431475,0.01,0.0,0.2199999988079071,-1.2599999904632568,-98.61000061035156,-0.11126708984375,0.04541015625,1.1072998046875,36.560001373291016,0.0,-27.0,2.262420654296875,-2.2224273681640625,Closing,0.0,0.0,3.0,0.0,0.0,0.0,0.0,0.125,
1.993255999999994,0.0,0.0,88094.0,5.5,-412.5,-1091.3385879993439,0.0,0.25,0.836181555,4.932250999999998,0.0,-154287.0,8.5,435.0,1091.3385879993439,0.0,0.125,0.4882812,4.963769999999998,0.0,16127.0,10.25,-262.5,-1091.3385879993439,0.0,0.125,3.387450825,0.01,0.0,-28525.0,7.125,442.5,1091.3385879993439,0.0,0.25,1.617431475,0.01,0.0,0.23999999463558197,-1.809999942779541,-98.62000274658203,-0.09918212890625,0.06439208984375,0.9954833984375,36.560001373291016,0.0,-49.0,2.2632904052734375,-2.2370758056640625,Closing,0.0,0.0,3.0,0.0,0.0,0.0,0.0,0.0,
2.0724710000000197,0.0,0.0,88007.0,5.625,-592.5,-1091.3385879993439,0.0,0.25,0.836181555,4.932250999999998,0.0,-154287.0,8.25,622.5,1091.3385879993439,0.0,0.125,0.4882812,4.963769999999998,0.0,16127.0,9.75,-517.5,-1091.3385879993439,0.0,0.125,3.387450825,0.01,0.0,-28425.0,7.125,570.0,1091.3385879993439,0.0,0.125,1.617431475,0.01,0.0,0.27000001072883606,-2.2799999713897705,-98.55999755859375,-0.1968994140625,0.013671875,0.9638671875,36.560001373291016,0.0,14.0,2.265106201171875,-2.25634765625,Closing,0.0,0.0,3.0,0.0,0.0,0.0,0.0,0.125,
2.1547600000000093,0.0,0.0,87880.0,5.0,-765.0,-1091.3385879993439,0.0,0.25,0.8410643670000001,4.932250999999998,0.0,-154172.0,7.125,817.5,1091.3385879993439,0.0,0.125,0.4882812,4.963769999999998,0.0,16027.0,9.75,-675.0,-1091.3385879993439,0.0,0.125,3.387450825,0.01,0.0,-28425.0,6.625,780.0,1091.3385879993439,0.0,0.125,1.619872881,0.01,0.0,0.33000001311302185,-2.680000066757202,-98.58999633789062,-0.1563720703125,-0.00457763671875,0.87860107421875,36.52000045776367,0.0,26.0,2.2676849365234375,-2.284332275390625,Closing,0.0,0.0,3.0,0.0,0.0,0.0,0.0,0.125,
2.236510999999999,0.0,0.0,87880.0,1.375,-870.0,-198.42519611120224,0.0,0.25,0.821533119,4.932250999999998,0.0,-154030.0,1.125,877.5,198.42519611120224,0.0,0.125,0.4882812,4.963769999999998,0.0,15882.0,1.0,-900.0,-198.42519611120224,0.0,0.125,3.382568013,0.01,0.0,-28283.0,0.75,855.0,198.42519611120224,0.0,0.125,1.618652178,0.01,0.0,0.27000001072883606,-2.7200000286102295,-98.63999938964844,0.06024169921875,0.00628662109375,1.08245849609375,36.52000045776367,0.0,-17.0,2.26953125,-2.3152618408203125,Closing,0.0,0.0,3.0,0.0,0.0,0.0,0.0,0.0,
2.3281810000000114,0.0,0.0,87753.0,0.0,-712.5,0.0,0.0,0.25,0.821533119,4.932250999999998,-0.013427732999999997,-153909.0,0.0,720.0,0.0,0.0,0.125,0.4882812,4.963769999999998,0.0,15882.0,0.0,-832.5,0.0,0.0,0.125,3.353271141,0.01,0.0,-28159.0,0.125,757.5,0.0,0.0,0.125,1.617431475,0.01,0.0,0.25,-2.190000057220459,-98.70999908447266,-0.01190185546875,-0.05322265625,0.84490966796875,36.52000045776367,0.0,53.0,2.2706146240234375,-2.33978271484375,Closing,0.0,0.0,3.0,0.0,0.0,0.0,0.0,0.125,
2.4091180000000167,0.0,0.0,87628.0,0.0,-787.5,0.0,0.0,0.25,0.821533119,4.932250999999998,0.0,-153909.0,0.0,817.5,0.0,0.0,0.125,0.4882812,4.963769999999998,0.0,15772.0,0.0,-645.0,0.0,0.0,0.0,3.353271141,0.01,4.909882424999999,-28159.0,0.125,817.5,0.0,0.0,0.125,1.622314287,0.01,0.0,0.25999999046325684,-1.7999999523162842,-98.75,0.1234130859375,0.0032958984375,0.698974609375,36.52000045776367,0.0,-22.0,2.2717437744140625,-2.3521270751953125,Closing,0.0,0.0,3.0,0.0,0.0,0.0,0.0,0.125,
2.4875899999999964,0.0,0.0,87628.0,0.0,-735.0,0.0,0.0,0.25,0.821533119,4.932250999999998,0.0,-153790.0,0.0,735.0,0.0,0.0,0.125,0.49316401200000004,4.963769999999998,0.0,15670.0,0.0,-615.0,0.0,0.0,0.0,3.353271141,0.01,0.0,-28045.0,0.125,720.0,0.0,0.0,0.125,1.617431475,0.01,0.0,0.2199999988079071,-1.5299999713897705,-98.62999725341797,0.06719970703125,0.10064697265625,0.92572021484375,36.52000045776367,0.0,-109.0,2.2736968994140625,-2.364471435546875,Closing,0.0,0.0,3.0,0.0,0.0,0.0,0.0,0.125,
2.568005999999994,0.0,0.0,87516.0,1.25,-630.0,-178.58268588781357,0.0,0.25,0.821533119,4.932250999999998,0.0,-153705.0,1.0,622.5,178.58268588781357,0.0,0.125,0.507812448,4.963769999999998,0.0,15670.0,1.25,-630.0,-178.58268588781357,0.0,0.0,3.352050438,0.01,0.0,-27951.0,1.125,600.0,178.58268588781357,0.0,0.125,1.6113279600000001,0.01,0.0,0.20999999344348907,-0.7200000286102295,-98.44000244140625,0.26470947265625,-0.02001953125,0.7706298828125,36.52000045776367,0.0,-17.0,2.2743377685546875,-2.3746490478515625,Closing,0.0,0.0,3.0,0.0,0.0,0.0,0.0,0.125,
2.654546000000002,0.0,0.0,87448.0,0.375,-397.5,-833.3858048915863,0.0,0.25,0.8142089010000001,4.932250999999998,0.0,-153705.0,0.25,382.5,833.3858048915863,0.0,0.0,0.506591745,4.963769999999998,0.0,15583.0,0.125,-427.5,-833.3858048915863,0.0,0.0,3.358153953,0.01,0.0,-27951.0,0.625,412.5,833.3858048915863,0.0,0.125,1.618652178,0.01,0.0,0.25999999046325684,-0.07000000029802322,-98.45999908447266,0.05645751953125,-0.0079345703125,1.02874755859375,36.5099983215332,0.0,4.0,2.273345947265625,-2.374053955078125,Closing,0.0,0.0,3.0,0.0,0.0,0.0,0.0,0.0,
2.7353110000000163,0.0,0.0,87448.0,0.125,-315.0,-932.5984311103821,0.0,0.25,0.821533119,4.932250999999998,0.0,-153652.0,0.875,315.0,932.5984311103821,0.0,0.0,0.49316401200000004,4.963769999999998,0.0,15536.0,0.375,-307.5,-932.5984311103821,0.0,0.0,3.353271141,0.01,0.0,-27898.0,1.125,285.0,932.5984311103821,0.0,0.125,1.6088865540000001,0.01,0.0,0.23999999463558197,-0.009999999776482582,-98.33000183105469,0.00372314453125,0.0321044921875,1.1207275390625,36.5099983215332,0.0,-27.0,2.2734222412109375,-2.3707733154296875,Closing,0.0,0.0,3.0,0.0,0.0,0.0,0.0,0.125,
2.816298999999999,0.0,0.0,87398.0,1.25,-375.0,-952.4409413337708,0.0,0.25,0.836181555,4.932250999999998,0.0,-153594.0,2.25,390.0,952.4409413337708,0.0,0.125,0.49926752700000004,4.963769999999998,0.0,15536.0,1.5,-352.5,-952.4409413337708,0.0,0.0,3.3642574680000004,0.01,0.0,-27840.0,2.25,352.5,952.4409413337708,0.0,0.125,1.617431475,0.01,0.0,0.27000001072883606,-0.10999999940395355,-98.33999633789062,-0.00439453125,0.10186767578125,1.07183837890625,36.5099983215332,0.0,-95.0,2.27374267578125,-2.3665008544921875,Closing,0.0,0.0,3.0,0.0,0.0,0.0,0.0,0.125,
2.902380000000005,0.0,0.0,87342.0,2.25,-337.5,-972.2834515571594,0.0,0.25,0.836181555,4.932250999999998,0.0,-153594.0,4.625,285.0,972.2834515571594,0.0,0.125,0.49438471500000003,4.963769999999998,0.0,15483.0,3.25,-285.0,-972.2834515571594,0.0,0.0,3.3679195770000003,0.01,0.0,-27840.0,4.375,300.0,972.2834515571594,0.0,0.125,1.617431475,0.01,0.0,0.25,-0.36000001430511475,-98.33000183105469,-0.204833984375,-0.08209228515625,0.89056396484375,36.5099983215332,0.0,114.0,2.2743988037109375,-2.3655242919921875,Closing,0.0,0.0,3.0,0.0,0.0,0.0,0.0,0.0,
2.9772630000000064,0.0,0.0,87342.0,4.125,-345.0,-972.2834515571594,0.0,0.25,0.865478427,4.932250999999998,0.0,-153540.0,7.0,360.0,972.2834515571594,0.0,0.125,0.49316401200000004,4.963769999999998,0.0,15435.0,4.875,-292.5,-972.2834515571594,0.0,0.0,3.382568013,0.01,0.0,-27795.0,6.125,360.0,972.2834515571594,0.0,0.125,1.617431475,0.01,0.0,0.25999999046325684,-0.8600000143051147,-98.33999633789062,-0.16217041015625,0.02850341796875,1.02691650390625,36.5099983215332,0.0,-2.0,2.2773284912109375,-2.369537353515625,Closing,0.0,0.0,3.0,0.0,0.0,0.0,0.0,0.125,
3.0625420000000156,0.0,0.0,87277.0,4.5,-472.5,-972.2834515571594,0.0,0.25,0.836181555,4.932250999999998,0.0,-153459.0,7.875,487.5,972.2834515571594,0.0,0.125,0.49316401200000004,4.963769999999998,0.0,15435.0,5.875,-450.0,-972.2834515571594,0.0,0.125,3.385009419,0.01,0.0,-27717.0,6.625,502.5,972.2834515571594,0.0,0.125,1.618652178,0.01,0.0,0.2199999988079071,-1.2400000095367432,-98.27999877929688,-0.17877197265625,0.07867431640625,0.83563232421875,36.5099983215332,0.0,-51.0,2.2809600830078125,-2.3777923583984375,Closing,0.0,0.0,3.0,0.0,0.0,0.0,0.0,0.125,
3.1419230000000096,0.0,0.0,87179.0,4.375,-622.5,-972.2834515571594,0.0,0.25,0.836181555,4.932250999999998,0.0,-153459.0,7.5,637.5,972.2834515571594,0.0,0.125,0.49316401200000004,4.963769999999998,0.0,15351.0,5.375,-622.5,-972.2834515571594,0.0,0.125,3.387450825,0.01,0.0,-27717.0,6.25,645.0,972.2834515571594,0.0,0.125,1.618652178,0.01,0.0,0.25999999046325684,-1.6299999952316284,-98.26000213623047,-0.06402587890625,5.4931640625E-4,0.866943359375,36.5099983215332,0.0,9.0,2.284912109375,-2.3897857666015625,Closing,0.0,0.0,3.0,0.0,0.0,0.0,0.0,0.125,
3.2253440000000118,0.0,0.0,87053.0,4.0,-757.5,-972.2834515571594,0.0,0.25,0.8300780400000001,4.932250999999998,0.0,-153342.0,6.625,757.5,972.2834515571594,0.0,0.125,0.49316401200000004,4.963769999999998,0.0,15230.0,4.875,-735.0,-972.2834515571594,0.0,0.125,3.387450825,0.01,0.0,-27607.0,5.625,757.5,972.2834515571594,0.0,0.125,1.618652178,0.01,0.0,0.23999999463558197,-2.059999942779541,-98.33999633789062,-0.011474609375,-0.09136962890625,1.150146484375,36.4900016784668,0.0,90.0,2.2904205322265625,-2.4083709716796875,Closing,0.0,0.0,3.0,0.0,0.0,0.0,0.0,0.125,
3.3065720000000147,0.0,0.0,87053.0,3.5,-862.5,-972.2834515571594,0.0,0.25,0.836181555,4.932250999999998,0.0,-153197.0,5.75,885.0,972.2834515571594,0.0,0.125,0.49316401200000004,4.963769999999998,0.0,15230.0,4.375,-832.5,-972.2834515571594,0.0,0.125,3.387450825,0.01,0.0,-27465.0,4.75,892.5,972.2834515571594,0.0,0.25,1.617431475,0.01,0.0,0.3199999928474426,-2.2100000381469727,-98.43000030517578,-0.09002685546875,-0.08258056640625,0.8558349609375,36.4900016784668,0.0,94.0,2.295318603515625,-2.4260406494140625,Closing,0.0,0.0,3.0,0.0,0.0,0.0,0.0,0.0,
3.387960000000021,0.0,0.0,86904.0,3.125,-945.0,-972.2834515571594,0.0,0.25,0.826415931,4.932250999999998,0.0,-153197.0,4.75,975.0,972.2834515571594,0.0,0.125,0.4882812,4.963769999999998,0.0,15087.0,3.75,-937.5,-972.2834515571594,0.0,0.125,3.387450825,0.01,0.0,-27307.0,3.75,967.5,972.2834515571594,0.0,0.125,1.617431475,0.01,0.0,0.3499999940395355,-2.309999942779541,-98.55999755859375,-0.124755859375,0.0909423828125,1.12640380859375,36.4900016784668,0.0,-71.0,2.3008575439453125,-2.448974609375,Closing,0.0,0.0,3.0,0.0,0.0,0.0,0.0,0.0,
3.467972000000009,0.0,0.0,86742.0,2.5,-990.0,-972.2834515571594,0.0,0.25,0.839843664,4.932250999999998,0.0,-153034.0,3.875,1027.5,972.2834515571594,0.0,0.125,0.49194330900000005,4.963769999999998,0.0,14931.0,3.5,-967.5,-972.2834515571594,0.0,0.125,3.3801266070000002,0.01,0.0,-27307.0,3.375,1012.5,972.2834515571594,0.0,0.125,1.618652178,0.01,0.0,0.33000001311302185,-2.3299999237060547,-98.6500015258789,-0.0399169921875,-0.0469970703125,1.0848388671875,36.4900016784668,0.0,52.0,2.3047332763671875,-2.4683685302734375,Closing,0.0,0.0,3.0,0.0,0.0,0.0,0.0,0.0,
3.550125,0.0,0.0,86742.0,1.875,-1035.0,-972.2834515571594,0.0,0.25,0.832519446,4.932250999999998,0.0,-152864.0,3.125,1050.0,972.2834515571594,0.0,0.125,0.4882812,4.963769999999998,0.0,14931.0,3.375,-982.5,-972.2834515571594,0.0,0.125,3.3776852010000002,0.01,0.0,-27140.0,3.0,1050.0,972.2834515571594,0.0,0.125,1.617431475,0.01,0.0,0.36000001430511475,-2.299999952316284,-98.7300033569336,-0.0673828125,-0.012451171875,1.01544189453125,36.4900016784668,0.0,22.0,2.3055572509765625,-2.491241455078125,Closing,0.0,0.0,3.0,0.0,0.0,0.0,0.0,0.0,
3.6301300000000047,0.0,0.0,86575.0,1.375,-1042.5,-972.2834515571594,0.0,0.25,0.821533119,4.932250999999998,0.0,-152864.0,2.625,1087.5,972.2834515571594,0.0,0.125,0.49194330900000005,4.963769999999998,0.0,14772.0,3.25,-1005.0,-972.2834515571594,0.0,0.125,3.3752437950000003,0.01,0.0,-26969.0,2.625,1065.0,972.2834515571594,0.0,0.125,1.619872881,0.01,0.0,0.3799999952316284,-2.190000057220459,-98.81999969482422,-0.04681396484375,0.02813720703125,0.7469482421875,36.4900016784668,0.0,-20.0,2.30548095703125,-2.50244140625,Closing,0.0,0.0,3.0,0.0,0.0,0.0,0.0,0.0,
3.7114919999999985,0.0,0.0,86406.0,1.25,-1050.0,-972.2834515571594,0.0,0.25,0.821533119,4.932250999999998,0.0,-152691.0,2.25,1072.5,972.2834515571594,0.0,0.125,0.49316401200000004,4.963769999999998,0.0,14607.0,2.625,-1035.0,-972.2834515571594,0.0,0.125,3.3715816860000003,0.01,0.0,-26969.0,2.0,1080.0,972.2834515571594,0.0,0.125,1.618652178,0.01,0.0,0.3499999940395355,-2.130000114440918,-98.83000183105469,-0.013916015625,0.15960693359375,1.16595458984375,36.470001220703125,0.0,-155.0,2.305572509765625,-2.500946044921875,Closing,0.0,0.0,3.0,0.0,0.0,0.0,0.0,0.125,
3.791453999999998,0.0,0.0,86406.0,1.0,-1065.0,-972.2834515571594,0.0,0.125,0.820312416,4.932250999999998,0.0,-152517.0,1.875,1087.5,972.2834515571594,0.0,0.125,0.4882812,4.963769999999998,0.0,14438.0,2.125,-1050.0,-972.2834515571594,0.0,0.0,3.3728023890000003,0.01,0.0,-26797.0,1.875,1065.0,972.2834515571594,0.0,0.125,1.618652178,0.01,0.0,0.44999998807907104,-2.009999990463257,-98.87000274658203,-0.02813720703125,0.05987548828125,0.95379638671875,36.470001220703125,0.0,-52.0,2.3063201904296875,-2.4988250732421875,Closing,0.0,0.0,3.0,0.0,0.0,0.0,0.0,0.125,
3.872823000000004,0.0,0.0,86236.0,0.75,-1057.5,-972.2834515571594,0.0,0.25,0.822753822,4.932250999999998,0.0,-152348.0,1.625,1065.0,972.2834515571594,0.0,0.125,0.49316401200000004,4.963769999999998,0.0,14438.0,1.875,-1035.0,-972.2834515571594,0.0,0.0,3.358153953,0.01,0.0,-26626.0,1.625,1065.0,972.2834515571594,0.0,0.125,1.618652178,0.01,0.0,0.4699999988079071,-1.850000023841858,-98.9000015258789,0.0057373046875,0.04718017578125,0.90191650390625,36.470001220703125,0.0,-44.0,2.305755615234375,-2.4952545166015625,Closing,0.0,0.0,3.0,0.0,0.0,0.0,0.0,0.0,
3.96675,0.0,0.0,86064.0,0.625,-1065.0,-972.2834515571594,0.0,0.25,0.821533119,4.932250999999998,0.0,-152348.0,1.5,1050.0,972.2834515571594,0.0,0.125,0.49316401200000004,4.963769999999998,0.0,14274.0,1.875,-1012.5,-972.2834515571594,0.0,0.0,3.358153953,0.01,0.0,-26626.0,1.625,1035.0,972.2834515571594,0.0,0.125,1.617431475,0.01,0.0,0.44999998807907104,-1.7899999618530273,-98.80000305175781,-0.09869384765625,-0.00732421875,1.05859375,36.470001220703125,0.0,25.0,2.3054351806640625,-2.488739013671875,Closing,0.0,0.0,3.0,0.0,0.0,0.0,0.0,0.125,
4.051425000000018,0.0,0.0,86064.0,0.625,-1057.5,-972.2834515571594,0.0,0.25,0.822753822,4.932250999999998,0.0,-152180.0,1.5,1042.5,972.2834515571594,0.0,0.125,0.49316401200000004,4.963769999999998,0.0,14116.0,2.125,-982.5,-972.2834515571594,0.0,0.0,3.358153953,0.01,0.0,-26462.0,1.625,1020.0,972.2834515571594,0.0,0.125,1.617431475,0.01,0.0,0.5099999904632568,-1.600000023841858,-98.66999816894531,-0.04388427734375,-0.0361328125,1.21826171875,36.470001220703125,0.0,47.0,2.30621337890625,-2.481201171875,Closing,0.0,0.0,3.0,0.0,0.0,0.0,0.0,0.0,
4.131042000000016,0.0,0.0,85897.0,0.625,-1035.0,-972.2834515571594,0.0,0.25,0.821533119,4.932250999999998,0.0,-152015.0,1.375,1027.5,972.2834515571594,0.0,0.125,0.48706049700000004,4.963769999999998,0.0,14116.0,2.375,-967.5,-972.2834515571594,0.0,0.0,3.358153953,0.01,0.0,-26299.0,1.5,1020.0,972.2834515571594,0.0,0.125,1.617431475,0.01,0.0,0.4699999988079071,-1.409999966621399,-98.63999938964844,0.06048583984375,0.0775146484375,0.97283935546875,36.470001220703125,0.0,-81.0,2.3077392578125,-2.4723968505859375,Closing,0.0,0.0,3.0,0.0,0.0,0.0,0.0,0.125,
4.214847999999998,0.0,0.0,85736.0,0.625,-997.5,-972.2834515571594,0.0,0.25,0.821533119,4.932250999999998,0.0,-152015.0,1.375,1020.0,972.2834515571594,0.0,0.125,0.49316401200000004,4.963769999999998,0.0,13961.0,2.625,-960.0,-972.2834515571594,0.0,0.0,3.35693325,0.01,0.0,-26299.0,1.5,997.5,972.2834515571594,0.0,0.125,1.617431475,0.01,0.0,0.46000000834465027,-1.3300000429153442,-98.62999725341797,0.01141357421875,-0.0452880859375,0.97906494140625,36.470001220703125,0.0,47.0,2.3080291748046875,-2.4636383056640625,Closing,0.0,0.0,3.0,0.0,0.0,0.0,0.0,0.125,
4.306562000000006,0.0,0.0,85579.0,0.625,-982.5,-972.2834515571594,0.0,0.25,0.821533119,4.932250999999998,0.0,-151854.0,1.375,997.5,972.2834515571594,0.0,0.125,0.4882812,4.963769999999998,0.0,13804.0,2.625,-990.0,-972.2834515571594,0.0,0.0,3.3630367650000004,0.01,0.0,-26139.0,1.5,997.5,972.2834515571594,0.0,0.25,1.617431475,0.01,0.0,0.41999998688697815,-1.2400000095367432,-98.55999755859375,-0.02978515625,-0.09393310546875,1.15411376953125,36.470001220703125,0.0,102.0,2.3081512451171875,-2.4515838623046875,Closing,0.0,0.0,3.0,0.0,0.0,0.0,0.0,0.125,
4.3898010000000065,0.0,0.0,85579.0,0.625,-960.0,-972.2834515571594,0.0,0.25,0.821533119,4.932250999999998,0.0,-151694.0,1.375,997.5,972.2834515571594,0.0,0.125,0.4882812,4.963769999999998,0.0,13644.0,2.125,-1012.5,-972.2834515571594,0.0,0.0,3.3679195770000003,0.01,0.0,-25981.0,1.5,982.5,972.2834515571594,0.0,0.125,1.618652178,0.01,0.0,0.3199999928474426,-1.1699999570846558,-98.6500015258789,-0.00335693359375,-0.09674072265625,0.9932861328125,36.470001220703125,0.0,98.0,2.30914306640625,-2.4381256103515625,Closing,0.0,0.0,3.0,0.0,0.0,0.0,0.0,0.125,
4.4739049999999985,0.0,0.0,85425.0,0.75,-952.5,-972.2834515571594,0.0,0.25,0.821533119,4.932250999999998,0.0,-151537.0,1.375,982.5,972.2834515571594,0.0,0.125,0.4882812,4.963769999999998,0.0,13644.0,2.125,-975.0,-972.2834515571594,0.0,0.0,3.3764644980000003,0.01,0.0,-25822.0,1.5,990.0,972.2834515571594,0.0,0.125,1.617431475,0.01,0.0,0.25999999046325684,-1.1200000047683716,-98.70999908447266,0.0167236328125,-0.022705078125,0.9844970703125,36.470001220703125,0.0,21.0,2.309661865234375,-2.423309326171875,Closing,0.0,0.0,3.0,0.0,0.0,0.0,0.0,0.125,
4.569271999999997,0.0,0.0,85275.0,1.0,-937.5,-972.2834515571594,0.0,0.25,0.821533119,4.932250999999998,0.0,-151537.0,1.5,967.5,972.2834515571594,0.0,0.125,0.4882812,4.963769999999998,0.0,13486.0,2.125,-982.5,-972.2834515571594,0.0,0.0,3.387450825,0.01,0.0,-25822.0,1.625,952.5,972.2834515571594,0.0,0.125,1.622314287,0.01,0.0,0.30000001192092896,-0.9599999785423279,-98.80999755859375,0.0458984375,0.066162109375,0.84503173828125,36.470001220703125,0.0,-70.0,2.3095855712890625,-2.4083404541015625,Closing,0.0,0.0,3.0,0.0,0.0,0.0,0.0,0.0,
4.654468000000023,0.0,0.0,85275.0,1.25,-915.0,-972.2834515571594,0.0,0.25,0.820312416,4.932250999999998,0.0,-151382.0,1.5,960.0,972.2834515571594,0.0,0.125,0.489501903,4.963769999999998,0.0,13334.0,2.625,-945.0,-972.2834515571594,0.0,0.125,3.387450825,0.01,0.0,-25670.0,1.875,945.0,972.2834515571594,0.0,0.125,1.617431475,0.01,0.0,0.3199999928474426,-0.9599999785423279,-99.12000274658203,-0.1002197265625,0.013916015625,1.10113525390625,36.470001220703125,0.0,5.0,2.3097686767578125,-2.3931121826171875,Closing,0.0,0.0,3.0,0.0,0.0,0.0,0.0,0.125,
4.739893000000011,0.0,0.0,85131.0,0.375,-862.5,-158.7401568889618,0.0,0.25,0.821533119,4.932250999999998,0.0,-151250.0,0.375,877.5,158.7401568889618,0.0,0.125,0.48095698200000003,4.963769999999998,0.0,13334.0,0.125,-870.0,-158.7401568889618,0.0,0.125,3.3776852010000002,0.01,0.0,-25528.0,0.5,832.5,158.7401568889618,0.0,0.125,1.624755693,0.01,0.0,0.20999999344348907,-0.8600000143051147,-99.30000305175781,0.27191162109375,-0.05279541015625,0.61932373046875,36.45000076293945,0.0,8.0,2.31011962890625,-2.3797454833984375,Closing,0.0,0.0,3.0,0.0,0.0,0.0,0.0,0.0,
4.830501000000019,0.0,0.0,85025.0,0.0,-630.0,0.0,0.0,0.25,0.821533119,4.932250999999998,0.0,-151250.0,0.0,667.5,0.0,0.0,0.125,0.49316401200000004,4.963769999999998,0.0,13215.0,0.0,-592.5,0.0,0.0,0.0,3.358153953,0.01,0.0,-25414.0,0.125,712.5,0.0,0.0,0.125,1.622314287,0.01,0.0,0.25,-0.1899999976158142,-99.43000030517578,0.1563720703125,-0.001708984375,0.787353515625,36.45000076293945,0.0,-20.0,2.309539794921875,-2.357452392578125,Closing,0.0,0.0,3.0,0.0,0.0,0.0,0.0,0.0,
4.913603000000003,0.0,0.0,84912.0,0.0,-742.5,0.0,0.0,0.25,0.821533119,4.932250999999998,0.0012207029999999897,-151133.0,0.0,735.0,0.0,0.0,0.125,0.49316401200000004,4.963769999999998,0.0,13109.0,0.0,-682.5,0.0,0.0,0.0,3.358153953,0.01,4.925751564,-25414.0,0.125,705.0,0.0,0.0,0.125,1.62353499,0.01,4.937248049,0.3400000035762787,0.03999999910593033,-99.43000030517578,0.13018798828125,-0.01318359375,1.2633056640625,36.45000076293945,0.0,0.0,2.30609130859375,-2.3517913818359375,Closing,0.0,0.0,3.0,0.0,0.0,0.0,0.0,0.125,
4.992668000000005,0.0,0.0,84912.0,0.0,-570.0,0.0,0.0,0.25,0.821533119,4.932250999999998,0.0,-151033.0,0.0,615.0,0.0,0.0,0.125,0.4882812,4.963769999999998,0.0,13019.0,0.0,-592.5,0.0,0.0,0.0,3.359374656,0.01,0.0,-25310.0,0.125,600.0,0.0,0.0,0.125,1.62353499,0.01,0.0,0.25999999046325684,0.3400000035762787,-99.41999816894531,0.07464599609375,0.01495361328125,1.03900146484375,36.45000076293945,0.0,-21.0,2.303253173828125,-2.3453826904296875,Closing,0.0,0.0,3.0,0.0,0.0,0.0,0.0,0.0,
5.080747000000003,0.0,0.0,84823.0,0.0,-495.0,0.0,0.0,0.25,0.821533119,4.932250999999998,0.0,-150956.0,0.0,517.5,0.0,0.0,0.125,0.49438471500000003,4.963769999999998,0.0,13019.0,0.0,-487.5,0.0,0.0,0.0,3.358153953,0.01,0.0,-25234.0,0.125,487.5,0.0,0.0,0.125,1.622314287,0.01,0.0,0.28999999165534973,0.6600000262260437,-99.41000366210938,0.05780029296875,-0.03070068359375,1.003662109375,36.45000076293945,0.0,27.0,2.302886962890625,-2.3356475830078125,Closing,0.0,0.0,3.0,0.0,0.0,0.0,0.0,0.125,
5.170124000000011,0.0,0.0,84758.0,0.125,-397.5,-734.173253774643,0.0,0.25,0.820312416,4.932250999999998,0.0,-150956.0,0.125,397.5,734.173253774643,0.0,0.125,0.489501903,4.963769999999998,0.0,12951.0,0.125,-322.5,-734.173253774643,0.0,0.0,3.358153953,0.01,0.0,-25234.0,0.375,382.5,734.173253774643,0.0,0.125,1.621093584,0.01,0.0,0.25999999046325684,0.8500000238418579,-99.47000122070312,0.0394287109375,0.0130615234375,1.028076171875,36.43000030517578,0.0,-12.0,2.3028411865234375,-2.322906494140625,Closing,0.0,0.0,3.0,0.0,0.0,0.0,0.0,0.125,
5.266108999999997,0.0,0.0,84682.0,1.375,-375.0,-1230.236234664917,0.0,0.25,0.826415931,4.932250999999998,0.0,-150898.0,2.875,420.0,1230.236234664917,0.0,0.125,0.49316401200000004,4.963769999999998,0.0,12901.0,3.0,-337.5,-1230.236234664917,0.0,0.0,3.3776852010000002,0.01,0.0,-25174.0,2.25,405.0,1230.236234664917,0.0,0.125,1.617431475,0.01,0.0,0.23000000417232513,0.8500000238418579,-99.45999908447266,-0.31317138671875,-0.0526123046875,1.0108642578125,36.43000030517578,0.0,110.0,2.30279541015625,-2.31591796875,Closing,0.0,0.0,3.0,0.0,0.0,0.0,0.0,0.125,
5.348868000000016,0.0,0.0,84682.0,3.75,-502.5,-1230.236234664917,0.0,0.25,0.839843664,4.932250999999998,0.0,-150814.0,6.0,510.0,1230.236234664917,0.0,0.125,0.4882812,4.963769999999998,0.0,12901.0,6.0,-352.5,-1230.236234664917,0.0,0.125,3.387450825,0.01,0.0,-25097.0,5.125,502.5,1230.236234664917,0.0,0.125,1.617431475,0.01,0.0,0.17000000178813934,0.11999999731779099,-99.47000122070312,-0.26849365234375,0.045654296875,1.15325927734375,36.43000030517578,0.0,3.0,2.30450439453125,-2.3242034912109375,Closing,0.0,0.0,3.0,0.0,0.0,0.0,0.0,0.0,
5.4326579999999955,0.0,0.0,84611.0,3.75,-465.0,-972.2834515571594,0.0,0.25,0.8410643670000001,4.932250999999998,0.0,-150814.0,6.375,502.5,972.2834515571594,0.0,0.125,0.489501903,4.963769999999998,0.0,12841.0,6.375,-307.5,-972.2834515571594,0.0,0.125,3.387450825,0.01,0.0,-25012.0,4.625,495.0,972.2834515571594,0.0,0.125,1.617431475,0.01,0.0,0.12999999523162842,-0.4099999964237213,-99.47000122070312,-0.20489501953125,-0.0091552734375,0.937255859375,36.43000030517578,0.0,43.0,2.305145263671875,-2.340240478515625,Closing,0.0,0.0,3.0,0.0,0.0,0.0,0.0,0.125,
5.51919200000001,0.0,0.0,84518.0,1.5,-585.0,-297.63780355453486,0.0,0.25,0.826415931,4.932250999999998,0.0,-150723.0,1.625,600.0,297.63780355453486,0.0,0.125,0.4882812,4.963769999999998,0.0,12779.0,1.875,-472.5,-297.63780355453486,0.0,0.125,3.38134731,0.01,0.0,-25012.0,1.375,577.5,297.63780355453486,0.0,0.125,1.627197099,0.01,0.0,0.14000000059604645,-0.5899999737739563,-99.44999694824219,-0.00927734375,-0.01654052734375,1.200927734375,36.43000030517578,0.0,18.0,2.305816650390625,-2.35791015625,Closing,0.0,0.0,3.0,0.0,0.0,0.0,0.0,0.0,
5.605587,0.0,0.0,84518.0,0.0,-532.5,0.0,0.0,0.25,0.8276366340000001,4.932250999999998,0.0,-150638.0,0.125,495.0,0.0,0.0,0.125,0.4882812,4.963769999999998,0.0,12695.0,0.0,-570.0,0.0,0.0,0.125,3.3679195770000003,0.01,0.0,-24932.0,0.125,457.5,0.0,0.0,0.125,1.627197099,0.01,0.0,0.12999999523162842,-0.2800000011920929,-99.45999908447266,0.1329345703125,-0.02044677734375,0.962890625,36.43000030517578,0.0,0.0,2.3065643310546875,-2.3770751953125,Closing,0.0,0.0,3.0,0.0,0.0,0.0,0.0,0.125,
5.683909000000014,0.0,0.0,84447.0,0.0,-427.5,0.0,0.0,0.25,0.825195228,4.932250999999998,0.0,-150638.0,0.0,487.5,0.0,0.0,0.125,0.4882812,4.963769999999998,0.0012207030000004337,12695.0,0.0,-270.0,0.0,0.0,0.0,3.35693325,0.01,-0.014648435999999876,-24848.0,0.125,540.0,0.0,0.0,0.125,1.622314287,0.01,0.0,0.25999999046325684,0.10999999940395355,-99.66000366210938,0.10931396484375,-0.02032470703125,0.73309326171875,36.43000030517578,0.0,5.0,2.304840087890625,-2.3886871337890625,Closing,0.0,0.0,3.0,0.0,0.0,0.0,0.0,0.125,
5.767681000000011,0.0,0.0,84373.0,0.0,-457.5,0.0,0.0,0.25,0.826415931,4.932250999999998,0.0,-150561.0,0.0,442.5,0.0,0.0,0.125,0.5029296360000001,4.963769999999998,0.0,12658.0,0.0,-240.0,0.0,0.0,0.0,3.359374656,0.01,4.9306343759999995,-24848.0,0.125,450.0,0.0,0.0,0.125,1.6320799110000002,0.01,-0.004882811999999959,0.23000000417232513,0.2800000011920929,-99.61000061035156,0.03375244140625,-0.03240966796875,1.0606689453125,36.43000030517578,0.0,31.0,2.3034820556640625,-2.3972015380859375,Closing,0.0,0.0,3.0,0.0,0.0,0.0,0.0,0.125,
5.844588000000018,0.0,0.0,84373.0,0.0,-367.5,0.0,0.0,0.25,0.826415931,4.932250999999998,0.0,-150503.0,0.0,352.5,0.0,0.0,0.0,0.507812448,4.963769999999998,0.0,12609.0,0.0,-292.5,0.0,0.0,0.0,3.358153953,0.01,0.0,-24784.0,0.125,345.0,0.0,0.0,0.125,1.627197099,0.01,0.0,0.30000001192092896,0.6700000166893005,-99.47000122070312,0.13238525390625,0.02294921875,0.96868896484375,36.43000030517578,0.0,-37.0,2.3026123046875,-2.4042205810546875,Closing,0.0,0.0,3.0,0.0,0.0,0.0,0.0,0.125,
5.927804000000004,0.0,0.0,84320.0,0.0,-262.5,0.0,0.0,0.25,0.836181555,4.932250999999998,0.0,-150466.0,0.0,262.5,0.0,0.0,0.0,0.507812448,4.963769999999998,0.004882811999999959,12609.0,0.0,-285.0,0.0,0.0,0.0,3.35693325,0.01,0.0,-24745.0,0.125,255.0,0.0,0.0,0.125,1.6320799110000002,0.01,4.953117188,0.33000001311302185,0.8600000143051147,-99.44999694824219,0.06787109375,-0.00286865234375,1.09429931640625,36.43000030517578,0.0,0.0,2.3011322021484375,-2.40716552734375,Closing,0.0,0.0,3.0,0.0,0.0,0.0,0.0,0.125,
6.009608999999997,0.0,0.0,84292.0,0.0,-187.5,0.0,0.0,0.25,0.836181555,4.932250999999998,0.0,-150466.0,0.0,180.0,0.0,0.0,0.0,0.507812448,4.963769999999998,0.0,12577.0,0.0,-157.5,0.0,0.0,0.0,3.358153953,0.01,0.0,-24745.0,0.125,157.5,0.0,0.0,0.125,1.641845535,0.01,0.0,0.3799999952316284,1.149999976158142,-99.47000122070312,0.093994140625,0.01641845703125,0.987548828125,36.43000030517578,0.0,-21.0,2.30059814453125,-2.408050537109375,Closing,0.0,0.0,3.0,0.0,0.0,0.0,0.0,0.125,
6.088585000000021,0.0,0.0,84292.0,0.0,-82.5,0.0,0.0,0.25,0.836181555,4.932250999999998,0.0,-150451.0,0.0,75.0,0.0,0.0,0.0,0.507812448,4.963769999999998,0.0,12573.0,0.0,-30.0,0.0,0.0,0.0,3.358153953,0.01,0.0,-24728.0,0.125,60.0,0.0,0.0,0.125,1.646728347,0.01,0.0,0.36000001430511475,1.2999999523162842,-99.43000030517578,0.077880859375,0.01214599609375,1.04449462890625,36.43000030517578,0.0,-14.0,2.30023193359375,-2.406341552734375,Closing,0.0,0.0,3.0,0.0,0.0,0.0,0.0,0.125,
6.170248000000021,0.0,0.0,84286.0,0.0,-7.5,0.0,0.0,0.25,0.836181555,4.932250999999998,0.0,-150450.0,0.0,7.5,0.0,0.0,0.0,0.507812448,4.963769999999998,0.0012207030000004337,12573.0,0.0,-7.5,0.0,0.0,0.0,3.358153953,0.01,0.0,-24728.0,0.125,0.0,0.0,0.0,0.25,1.646728347,0.01,0.003662108999999969,0.38999998569488525,1.2999999523162842,-99.4800033569336,-0.0123291015625,0.0081787109375,1.0418701171875,36.43000030517578,0.0,5.0,2.3003082275390625,-2.4037017822265625,Closing,0.0,0.0,3.0,0.0,0.0,0.0,0.0,0.0,
6.248031000000017,0.0,0.0,84286.0,0.0,0.0,0.0,0.0,0.25,0.836181555,4.932250999999998,0.0,-150450.0,0.0,0.0,0.0,0.0,0.0,0.507812448,4.963769999999998,0.0,12573.0,0.0,0.0,0.0,0.0,0.0,3.358153953,0.01,0.0,-24728.0,0.125,0.0,0.0,0.0,0.25,1.64794905,0.01,0.0,0.3700000047683716,1.1399999856948853,-99.47000122070312,-0.02593994140625,0.0037841796875,1.0206298828125,36.43000030517578,0.0,10.0,2.3004608154296875,-2.40234375,Closing,0.0,0.0,3.0,0.0,0.0,0.0,0.0,0.125,
6.327760999999999,0.0,0.0,84286.0,0.0,0.0,0.0,0.0,0.25,0.836181555,4.932250999999998,0.0,-150450.0,0.0,0.0,0.0,0.0,0.0,0.506591745,4.963769999999998,0.0,12573.0,0.0,0.0,0.0,0.0,0.0,3.358153953,0.01,0.0,-24728.0,0.125,0.0,0.0,0.0,0.25,1.646728347,0.01,0.0,0.3799999952316284,0.9700000286102295,-99.4800033569336,-0.0284423828125,0.01922607421875,1.029052734375,36.43000030517578,0.0,-4.0,2.3004608154296875,-2.4026336669921875,Closing,0.0,0.0,3.0,0.0,0.0,0.0,0.0,0.0,
6.410399999999994,0.0,0.0,84286.0,0.0,0.0,0.0,0.0,0.25,0.836181555,4.932250999999998,0.0,-150450.0,0.0,0.0,0.0,0.0,0.0,0.507812448,4.963769999999998,0.0,12573.0,0.0,0.0,0.0,0.0,0.0,3.35693325,0.01,0.0,-24728.0,0.125,0.0,0.0,0.0,0.25,1.646728347,0.01,0.0,0.3700000047683716,0.800000011920929,-99.4800033569336,-0.0208740234375,1.8310546875E-4,1.010009765625,36.43000030517578,0.0,12.0,2.3004608154296875,-2.4050750732421875,Closing,0.0,0.0,3.0,0.0,0.0,0.0,0.0,0.125,
6.499078000000009,0.0,0.0,84286.0,0.0,0.0,0.0,0.0,0.25,0.836181555,4.932250999999998,0.0,-150450.0,0.0,0.0,0.0,0.0,0.0,0.507812448,4.963769999999998,0.0,12573.0,0.0,0.0,0.0,0.0,0.0,3.358153953,0.01,0.0,-24728.0,0.125,0.0,0.0,0.0,0.25,1.646728347,0.01,0.0,0.38999998569488525,0.7099999785423279,-99.47000122070312,-0.007080078125,0.00927734375,1.01873779296875,36.43000030517578,0.0,0.0,2.3004608154296875,-2.4083251953125,Closing,0.0,0.0,3.0,0.0,0.0,0.0,0.0,0.125,
6.586201000000001,0.0,0.0,84286.0,0.0,0.0,0.0,0.0,0.25,0.836181555,4.932250999999998,0.0,-150450.0,0.0,0.0,0.0,0.0,0.0,0.509033151,4.963769999999998,0.0,12573.0,0.0,0.0,0.0,0.0,0.0,3.358153953,0.01,0.0,-24728.0,0.125,0.0,0.0,0.0,0.25,1.646728347,0.01,0.0,0.3799999952316284,0.6399999856948853,-99.4800033569336,-0.00665283203125,0.0078125,1.02227783203125,36.43000030517578,0.0,2.0,2.3004608154296875,-2.4084014892578125,Closing,0.0,0.0,3.0,0.0,0.0,0.0,0.0,0.125,
6.667130999999994,0.0,0.0,84286.0,0.0,0.0,0.0,0.0,0.25,0.836181555,4.932250999999998,0.0,-150450.0,0.0,0.0,0.0,0.0,0.0,0.507812448,4.963769999999998,0.0012207030000004337,12573.0,0.0,0.0,0.0,0.0,0.0,3.358153953,0.01,0.0,-24728.0,0.125,0.0,0.0,0.0,0.25,1.646728347,0.01,0.0,0.3799999952316284,0.5699999928474426,-99.47000122070312,-0.01434326171875,0.00640869140625,1.0206298828125,36.43000030517578,0.0,4.0,2.3004608154296875,-2.4091033935546875,Closing,0.0,0.0,3.0,0.0,0.0,0.0,0.0,0.0,
6.747210000000021,0.0,0.0,84286.0,0.125,0.0,216.5625,0.0,0.25,0.836181555,0.01,0.0,-150450.0,0.0,0.0,-216.5625,0.0,0.0,0.509033151,0.01,0.0,12573.0,0.375,0.0,216.5625,0.0,0.0,3.359374656,0.01,0.0,-24728.0,0.375,0.0,-216.5625,0.0,0.25,1.6357420200000001,0.01,0.0,0.38999998569488525,0.4699999988079071,-99.4800033569336,-0.01519775390625,0.00909423828125,1.01422119140625,36.400001525878906,0.0,1.0,2.3004608154296875,-2.4110870361328125,Closing,0.0,0.0,3.0,0.0,0.0,0.0,0.0,0.125,
6.829404999999999,0.0,0.0,84303.0,2.75,37.5,1102.5,0.0,0.25,0.823974525,0.01,0.0,-150450.0,4.375,-45.0,-1102.5,0.0,0.0,0.506591745,0.01,0.0,12585.0,4.875,60.0,1102.5,0.0,0.0,3.352050438,0.01,0.0,-24728.0,5.125,-45.0,-1102.5,0.0,0.25,1.667480298,0.01,0.0,0.550000011920929,0.8100000023841858,-99.47000122070312,0.04412841796875,-0.005126953125,1.2525634765625,36.400001525878906,0.0,12.0,2.300079345703125,-2.413055419921875,Closing,0.0,0.0,3.0,0.0,0.0,0.0,0.0,0.125,
6.909812999999994,0.0,0.0,84303.0,1.75,150.0,295.3125,0.0,0.125,0.8178710100000001,0.01,0.0,-150479.0,1.625,-172.5,-295.3125,0.0,0.0,0.510253854,0.01,0.0,12585.0,1.625,165.0,295.3125,0.0,0.0,3.354491844,0.01,0.0,-24750.0,1.75,-150.0,-295.3125,0.0,0.25,1.666259595,0.01,0.0,0.47999998927116394,0.9900000095367432,-99.44000244140625,-0.06268310546875,0.07708740234375,1.0546875,36.400001525878906,0.0,-53.0,2.298980712890625,-2.4122772216796875,Closing,0.0,0.0,3.0,0.0,0.0,0.0,0.0,0.125,
6.987453999999998,0.0,0.0,84328.0,0.0,150.0,0.0,0.0,0.25,0.8166503070000001,0.01,0.0,-150479.0,0.0,-135.0,0.0,0.0,0.0,0.51269526,0.01,0.0012207029999995456,12605.0,0.0,82.5,0.0,0.0,0.0,3.353271141,0.01,0.0,-24769.0,0.25,-142.5,0.0,0.0,0.25,1.666259595,0.01,0.0,0.4699999988079071,0.8100000023841858,-99.41000366210938,-0.08001708984375,-0.0164794921875,1.182861328125,36.400001525878906,0.0,41.0,2.2976226806640625,-2.4123992919921875,Closing,0.0,0.0,3.0,0.0,0.0,0.0,0.0,0.125,
7.069372000000003,0.0,0.0,84330.0,0.0,30.0,0.0,0.0,0.25,0.8166503070000001,0.01,0.0,-150491.0,0.0,-15.0,0.0,0.0,0.0,0.507812448,0.01,0.0,12610.0,0.0,30.0,0.0,0.0,0.0,3.3630367650000004,0.01,0.0,-24769.0,0.125,-45.0,0.0,0.0,0.25,1.666259595,0.01,0.0,0.4399999976158142,0.550000011920929,-99.43000030517578,-0.1318359375,-0.05853271484375,1.02899169921875,36.400001525878906,0.0,88.0,2.2974395751953125,-2.4144134521484375,Closing,0.0,0.0,3.0,0.0,0.0,0.0,0.0,0.125,
7.147029999999999,0.0,0.0,84330.0,0.0,67.5,0.0,0.0,0.25,0.8166503070000001,0.01,0.0,-150506.0,0.0,-90.0,0.0,0.0,0.125,0.507812448,0.01,0.0,12610.0,0.0,15.0,0.0,0.0,0.0,3.3642574680000004,0.01,0.0,-24780.0,0.125,-75.0,0.0,0.0,0.25,1.671142407,0.01,0.0,0.4300000071525574,0.18000000715255737,-99.36000061035156,-0.09686279296875,-0.0091552734375,0.9990234375,36.400001525878906,0.0,32.0,2.297943115234375,-2.4203948974609375,Closing,0.0,0.0,3.0,0.0,0.0,0.0,0.0,0.125,
7.229243000000017,0.0,0.0,84343.0,0.0,67.5,0.0,0.0,0.25,0.8178710100000001,0.01,0.0,-150506.0,0.0,-60.0,0.0,0.0,0.0,0.507812448,0.01,0.0012207030000004337,12615.0,0.0,30.0,0.0,0.0,0.0,3.3618160620000004,0.01,-0.0012207029999999897,-24785.0,0.125,-52.5,0.0,0.0,0.25,1.671142407,0.01,0.003662108999999969,0.4000000059604645,-0.07000000029802322,-99.4000015258789,-0.0623779296875,0.0247802734375,0.946044921875,36.400001525878906,0.0,-7.0,2.2991485595703125,-2.4281463623046875,Closing,0.0,0.0,3.0,0.0,0.0,0.0,0.0,0.125,
7.310722000000009,0.0,0.0,84343.0,0.0,7.5,0.0,0.0,0.25,0.8166503070000001,0.01,0.0,-150509.0,0.0,0.0,0.0,0.0,0.0,0.507812448,0.01,0.0,12616.0,0.0,0.0,0.0,0.0,0.0,3.3630367650000004,0.01,0.0,-24785.0,0.125,0.0,0.0,0.0,0.25,1.671142407,0.01,0.0,0.4000000059604645,-0.18000000715255737,-99.37000274658203,-0.0103759765625,-0.00177001953125,1.0130615234375,36.400001525878906,0.0,9.0,2.2991485595703125,-2.4358062744140625,Closing,0.0,0.0,3.0,0.0,0.0,0.0,0.0,0.125,
7.387709000000003,0.0,0.0,84343.0,0.0,0.0,0.0,0.0,0.25,0.820312416,0.01,0.0,-150509.0,0.0,0.0,0.0,0.0,0.0,0.507812448,0.01,0.0,12616.0,0.0,0.0,0.0,0.0,0.0,3.3630367650000004,0.01,0.0,-24785.0,0.125,0.0,0.0,0.0,0.25,1.671142407,0.01,0.0,0.4099999964237213,-0.15000000596046448,-99.37999725341797,0.008544921875,0.01568603515625,1.02825927734375,36.400001525878906,0.0,-9.0,2.299224853515625,-2.4358062744140625,Closing,0.0,0.0,3.0,0.0,0.0,0.0,0.0,0.125,
7.468445999999997,0.0,0.0,84343.0,0.0,0.0,0.0,0.0,0.25,0.8166503070000001,0.01,0.0,-150509.0,0.0,0.0,0.0,0.0,0.125,0.507812448,0.01,-0.0012207030000004337,12616.0,0.0,0.0,0.0,0.0,0.0,3.3642574680000004,0.01,0.0,-24785.0,0.125,0.0,0.0,0.0,0.25,1.671142407,0.01,-0.0024414059999999793,0.4099999964237213,-0.12999999523162842,-99.37999725341797,0.00286865234375,0.00439453125,1.0203857421875,36.400001525878906,0.0,2.0,2.299224853515625,-2.4358062744140625,Closing,0.0,0.0,3.0,0.0,0.0,0.0,0.0,0.125,
7.549455000000016,0.0,0.0,84343.0,0.0,0.0,0.0,0.0,0.25,0.8166503070000001,0.01,0.0,-150509.0,0.0,0.0,0.0,0.0,0.125,0.507812448,0.01,0.0,12616.0,0.0,0.0,0.0,0.0,0.0,3.3630367650000004,0.01,0.0,-24785.0,0.125,0.0,0.0,0.0,0.25,1.671142407,0.01,0.0,0.4099999964237213,-0.11999999731779099,-99.38999938964844,-0.0135498046875,0.01177978515625,1.03240966796875,36.400001525878906,0.0,-2.0,2.299224853515625,-2.4358062744140625,Closing,0.0,0.0,3.0,0.0,0.0,0.0,0.0,0.125,
7.631402000000002,0.0,0.0,84343.0,0.0,0.0,0.0,0.0,0.25,0.8166503070000001,0.01,0.0,-150509.0,0.0,0.0,0.0,0.0,0.0,0.507812448,0.01,0.0012207030000004337,12616.0,0.0,0.0,0.0,0.0,0.0,3.3642574680000004,0.01,0.0,-24785.0,0.125,0.0,0.0,0.0,0.25,1.671142407,0.01,0.0,0.4000000059604645,-0.1599999964237213,-99.38999938964844,-0.01806640625,0.00250244140625,1.036865234375,36.400001525878906,0.0,7.0,2.299224853515625,-2.4358062744140625,Closing,0.0,0.0,3.0,0.0,0.0,0.0,0.0,0.125,
7.711463000000018,0.0,0.0,84343.0,0.0,0.0,0.0,0.0,0.25,0.8178710100000001,0.01,0.0,-150509.0,0.0,0.0,0.0,0.0,0.125,0.507812448,0.01,-0.0012207030000004337,12616.0,0.0,0.0,0.0,0.0,0.0,3.3630367650000004,0.01,0.0,-24785.0,0.125,0.0,0.0,0.0,0.25,1.671142407,0.01,0.0,0.4000000059604645,-0.23999999463558197,-99.38999938964844,-0.01220703125,0.0030517578125,1.00823974609375,36.400001525878906,0.0,5.0,2.299224853515625,-2.4358062744140625,Closing,0.0,0.0,3.0,0.0,0.0,0.0,0.0,0.0,
7.807809999999997,0.0,0.0,84332.0,1.625,-37.5,-777.1653592586516,0.0,0.375,0.8312987430000001,0.5498168668524864,0.0,-150509.0,1.875,-82.5,-777.1653592586516,0.0,2.625,0.419921832,4.41043958977222,0.0,12616.0,2.25,0.0,-777.1653592586516,0.0,2.0,3.232421544,4.389674732977291,0.0,-24785.0,1.25,-82.5,-777.1653592586516,0.0,1.875,1.8127439550000002,0.552687206278561,0.0,0.36000001430511475,-0.3499999940395355,-99.36000061035156,-0.16412353515625,-0.00225830078125,0.87908935546875,36.400001525878906,0.0,-28.0,2.2992401123046875,-2.4361724853515625,Closing,0.0,0.0,3.0,0.0,0.0,0.0,0.0,0.125,
7.888727000000014,0.0,0.0,84332.0,0.25,-67.5,0.0,0.0,1.0,1.1071776210000002,0.5498168668524864,0.0,-150534.0,0.5,-135.0,0.0,0.0,0.5,0.10864256700000001,4.41043958977222,-0.1110839729999995,12616.0,0.625,-7.5,0.0,0.0,0.625,2.9296872,4.389674732977291,4.790253531,-24810.0,0.875,-172.5,0.0,0.0,0.75,2.073974397,0.552687206278561,0.15136717200000005,0.4099999964237213,-0.20999999344348907,-98.80000305175781,-0.02825927734375,0.02545166015625,0.85552978515625,36.400001525878906,0.0,-15.0,2.2988433837890625,-2.4348907470703125,Closing,0.0,0.0,3.0,0.0,0.0,0.0,0.0,0.0,
7.969524000000005,0.0,0.0,84330.0,0.0,0.0,0.0,0.0,0.875,1.3952635290000002,0.5498168668524864,0.290527314,-150531.0,0.0,15.0,0.0,0.0,0.5,4.8156733350000005,4.41043958977222,-0.29541012600000016,12616.0,0.0,15.0,0.0,0.0,0.25,2.808837603,4.389674732977291,0.0,-24812.0,0.125,-15.0,0.0,0.0,0.875,2.237548599,0.552687206278561,0.2526855210000001,0.4300000071525574,-0.20999999344348907,-98.94000244140625,-0.03582763671875,-0.009521484375,0.99481201171875,36.400001525878906,0.0,21.0,2.2985076904296875,-2.4325714111328125,Closing,0.0,0.0,3.0,0.0,0.0,0.0,0.0,0.125,
8.049144,0.0,0.0,84330.0,0.0,0.0,0.0,0.0,0.5,1.4245604010000001,0.5498168668524864,0.0,-150531.0,0.0,0.0,0.0,0.0,0.25,4.812011226,4.41043958977222,0.0,12620.0,0.0,22.5,0.0,0.0,0.0,2.7893063550000003,4.389674732977291,0.0,-24812.0,0.125,0.0,0.0,0.0,0.25,2.20947243,0.552687206278561,0.0,0.4000000059604645,-0.33000001311302185,-98.95999908447266,-0.0343017578125,0.03582763671875,1.01776123046875,36.400001525878906,0.0,-23.0,2.2986602783203125,-2.4316558837890625,Closing,0.0,0.0,3.0,0.0,0.0,0.0,0.0,0.0,
8.129842000000004,0.0,0.0,84330.0,0.0,0.0,0.0,0.0,0.25,1.390380717,0.5498168668524864,0.012207030000000119,-150531.0,0.0,0.0,0.0,0.0,0.25,4.869384267,4.41043958977222,0.012207029999999897,12620.0,0.0,0.0,0.0,0.0,0.0,2.7893063550000003,4.389674732977291,-0.01831054500000029,-24812.0,0.125,0.0,0.0,0.0,0.25,2.16064431,0.552687206278561,-0.029296872000000196,0.41999998688697815,-0.3499999940395355,-98.87000274658203,0.00457763671875,0.00128173828125,0.97930908203125,36.400001525878906,0.0,4.0,2.29864501953125,-2.4314117431640625,Closing,0.0,0.0,3.0,0.0,0.0,0.0,0.0,0.125,
8.207637000000018,0.0,0.0,84330.0,0.0,0.0,0.0,0.0,0.25,1.380615093,0.5498168668524864,0.0,-150531.0,0.0,0.0,0.0,0.0,0.375,4.877929188,4.41043958977222,0.0,12620.0,0.0,0.0,0.0,0.0,0.0,2.7880856520000004,4.389674732977291,0.0,-24812.0,0.125,0.0,0.0,0.0,0.125,2.127685329,0.552687206278561,0.0,0.4000000059604645,-0.3499999940395355,-98.9000015258789,-0.02008056640625,0.0145263671875,1.02972412109375,36.400001525878906,0.0,-5.0,2.29864501953125,-2.4314117431640625,Closing,0.0,0.0,3.0,0.0,0.0,0.0,0.0,0.125,
8.289478000000003,0.0,0.0,84328.0,0.375,0.0,-496.06300592422485,0.0,0.25,1.380615093,0.5498168668524864,0.0,-150531.0,0.375,0.0,-496.06300592422485,0.0,0.25,4.897460436,4.41043958977222,0.0,12620.0,0.375,0.0,-496.06300592422485,0.0,0.0,2.7893063550000003,4.389674732977291,0.0,-24812.0,0.625,-7.5,-496.06300592422485,0.0,0.25,2.122802517,0.552687206278561,0.0,0.41999998688697815,-0.38999998569488525,-98.91999816894531,-0.0452880859375,-0.0257568359375,1.03277587890625,36.439998626708984,0.0,38.0,2.2986602783203125,-2.431640625,Closing,0.0,0.0,3.0,0.0,0.0,0.0,0.0,0.0,
8.369470000000002,0.0,0.0,84328.0,0.125,-30.0,-165.35433009266853,0.0,0.25,1.378173687,0.5498168668524864,0.0,-150538.0,0.75,-45.0,-165.35433009266853,0.0,0.25,4.904784654,4.41043958977222,0.0,12618.0,0.375,0.0,-165.35433009266853,0.0,0.0,2.7893063550000003,4.389674732977291,0.0,-24818.0,0.625,-37.5,-165.35433009266853,0.0,0.25,2.122802517,0.552687206278561,0.0,0.38999998569488525,-0.38999998569488525,-98.56999969482422,-0.00286865234375,0.0098876953125,1.017578125,36.439998626708984,0.0,-3.0,2.299102783203125,-2.4322662353515625,Closing,0.0,0.0,3.0,0.0,0.0,0.0,0.0,0.0,
8.448852000000013,0.0,0.0,84325.0,0.0,0.0,0.0,0.0,0.25,1.380615093,0.5498168668524864,0.0,-150539.0,0.125,-15.0,0.0,0.0,0.125,4.904784654,4.41043958977222,0.0,12618.0,0.0,-15.0,0.0,0.0,0.0,2.7893063550000003,4.389674732977291,0.0,-24819.0,0.125,-7.5,0.0,0.0,0.25,2.1215818140000002,0.552687206278561,0.0,0.4099999964237213,-0.4399999976158142,-98.41000366210938,-0.01910400390625,-0.0166015625,1.02496337890625,36.439998626708984,0.0,25.0,2.2993927001953125,-2.4334259033203125,Closing,0.0,0.0,3.0,0.0,0.0,0.0,0.0,0.125,
8.529945000000007,0.0,0.0,84325.0,0.0,0.0,0.0,0.0,0.25,1.380615093,0.5498168668524864,0.0,-150539.0,0.0,0.0,0.0,0.0,0.125,4.902343248,4.41043958977222,0.0024414059999999793,12617.0,0.0,0.0,0.0,0.0,0.0,2.7880856520000004,4.389674732977291,0.0,-24819.0,0.125,0.0,0.0,0.0,0.25,2.122802517,0.552687206278561,0.0,0.4099999964237213,-0.4399999976158142,-98.5,-0.014404296875,0.00787353515625,1.00433349609375,36.439998626708984,0.0,0.0,2.2995452880859375,-2.4334259033203125,Closing,0.0,0.0,3.0,0.0,0.0,0.0,0.0,0.125,
8.61472200000001,0.0,0.0,84325.0,0.125,0.0,-281.1023533344269,0.0,0.25,1.380615093,0.5498168668524864,0.0,-150539.0,0.125,0.0,-281.1023533344269,0.0,0.125,4.90722606,4.41043958977222,0.0,12617.0,0.125,0.0,-281.1023533344269,0.0,0.0,2.7880856520000004,4.389674732977291,0.0,-24819.0,0.375,0.0,-281.1023533344269,0.0,0.25,2.122802517,0.552687206278561,0.0,0.4099999964237213,-0.46000000834465027,-98.4800033569336,-0.01171875,0.0076904296875,1.01812744140625,36.439998626708984,0.0,0.0,2.2995452880859375,-2.4334259033203125,Closing,0.0,0.0,3.0,0.0,0.0,0.0,0.0,0.125,
8.693718000000022,0.0,0.0,84325.0,0.125,0.0,-297.6378098130226,0.0,0.25,1.378173687,0.5498168668524864,0.0,-150539.0,0.5,0.0,-297.6378098130226,0.0,0.125,4.906005357000001,4.41043958977222,0.0,12617.0,0.375,0.0,-297.6378098130226,0.0,0.0,2.780761434,4.389674732977291,0.0,-24819.0,0.625,0.0,-297.6378098130226,0.0,0.25,2.122802517,0.552687206278561,0.0,0.4000000059604645,-0.47999998927116394,-98.47000122070312,-0.02203369140625,0.01165771484375,1.02899169921875,36.439998626708984,0.0,-2.0,2.2995452880859375,-2.4334259033203125,Closing,0.0,0.0,3.0,0.0,0.0,0.0,0.0,0.125,
8.77592200000002,0.0,0.0,84322.0,0.0,-15.0,0.0,0.0,0.25,1.380615093,0.5498168668524864,-0.0012207029999999897,-150539.0,0.25,-7.5,0.0,0.0,0.125,4.90722606,4.41043958977222,0.0,12616.0,0.125,0.0,0.0,0.0,0.0,2.7893063550000003,4.389674732977291,0.0,-24819.0,0.125,0.0,0.0,0.0,0.25,2.122802517,0.552687206278561,0.0012207029999999897,0.4099999964237213,-0.49000000953674316,-98.41999816894531,-0.01904296875,0.017333984375,1.030029296875,36.41999816894531,0.0,-8.0,2.2995452880859375,-2.4334259033203125,Closing,0.0,0.0,3.0,0.0,0.0,0.0,0.0,0.125,
8.85597100000002,0.0,0.0,84322.0,0.0,0.0,0.0,0.0,0.25,1.37939439,0.5498168668524864,0.0,-150541.0,0.0,0.0,0.0,0.0,0.125,4.90722606,4.41043958977222,0.0,12616.0,0.0,0.0,0.0,0.0,0.0,2.7893063550000003,4.389674732977291,0.0,-24819.0,0.125,0.0,0.0,0.0,0.25,2.122802517,0.552687206278561,0.0,0.4099999964237213,-0.5,-98.45999908447266,-0.0162353515625,-0.00311279296875,1.0189208984375,36.41999816894531,0.0,8.0,2.2995452880859375,-2.4334259033203125,Closing,0.0,0.0,3.0,0.0,0.0,0.0,0.0,0.125,
8.934548999999999,0.0,0.0,84322.0,0.0,0.0,0.0,0.0,0.25,1.380615093,0.5498168668524864,0.0,-150540.0,0.0,0.0,0.0,0.0,0.125,4.908446763000001,4.41043958977222,0.0,12616.0,0.0,0.0,0.0,0.0,0.0,2.7893063550000003,4.389674732977291,0.0,-24819.0,0.125,0.0,0.0,0.0,0.25,2.122802517,0.552687206278561,-0.0012207029999999897,0.4099999964237213,-0.5099999904632568,-98.44999694824219,-0.017333984375,0.00762939453125,1.02130126953125,36.41999816894531,0.0,0.0,2.2995452880859375,-2.4334259033203125,Closing,0.0,0.0,3.0,0.0,0.0,0.0,0.0,0.125,
9.02404800000001,0.0,0.0,84322.0,0.0,0.0,0.0,0.0,0.25,1.380615093,0.5498168668524864,-0.0012207029999999897,-150540.0,0.0,0.0,0.0,0.0,0.125,4.908446763000001,4.41043958977222,0.0,12616.0,0.0,0.0,0.0,0.0,0.0,2.7880856520000004,4.389674732977291,0.0,-24819.0,0.125,0.0,0.0,0.0,0.25,2.122802517,0.552687206278561,0.0012207029999999897,0.4000000059604645,-0.5199999809265137,-98.44999694824219,-0.01263427734375,0.00732421875,1.02386474609375,36.41999816894531,0.0,0.0,2.2995452880859375,-2.4334259033203125,Closing,0.0,0.0,3.0,0.0,0.0,0.0,0.0,0.125,
9.109597999999998,0.0,0.0,84322.0,0.375,0.0,-462.9921242594719,0.0,0.125,1.380615093,0.5498168668524864,0.0,-150540.0,1.0,-7.5,-462.9921242594719,0.0,0.125,4.908446763000001,4.41043958977222,0.0,12616.0,0.625,0.0,-462.9921242594719,0.0,0.0,2.7893063550000003,4.389674732977291,0.0,-24819.0,0.625,0.0,-462.9921242594719,0.0,0.25,2.122802517,0.5526872062785609,0.0,0.4000000059604645,-0.5299999713897705,-98.41999816894531,-0.01300048828125,-0.01031494140625,1.0091552734375,36.41999816894531,0.0,17.0,2.2995452880859375,-2.4334259033203125,Closing,0.0,0.0,3.0,0.0,0.0,0.0,0.0,0.125,
9.189678000000015,0.0,0.0,84322.0,0.625,-15.0,-314.17323499917984,0.0,0.25,1.384277202,0.5498168668524864,0.0,-150544.0,1.125,-15.0,-314.17323499917984,0.0,0.125,4.904784654,4.41043958977222,0.0,12616.0,0.625,0.0,-314.17323499917984,0.0,0.0,2.7880856520000004,4.389674732977291,0.0,-24822.0,1.0,-22.5,-314.17323499917984,0.0,0.25,2.122802517,0.552687206278561,0.0,0.38999998569488525,-0.5400000214576721,-98.2300033569336,-0.01385498046875,-0.005859375,1.0302734375,36.41999816894531,0.0,13.0,2.2995452880859375,-2.4334259033203125,Closing,0.0,0.0,3.0,0.0,0.0,0.0,0.0,0.0,
9.271953000000009,0.0,0.0,84318.0,0.0,-15.0,0.0,0.0,0.25,1.380615093,0.5498168668524864,0.0012207029999999897,-150544.0,0.375,-22.5,0.0,0.0,0.125,4.90722606,4.41043958977222,0.0,12614.0,0.125,-15.0,0.0,0.0,0.0,2.7880856520000004,4.389674732977291,0.0,-24825.0,0.25,-30.0,0.0,0.0,0.25,2.132568141,0.552687206278561,0.004882811999999959,0.4099999964237213,-0.5799999833106995,-98.05999755859375,-0.02935791015625,0.02740478515625,1.01702880859375,36.41999816894531,0.0,-17.0,2.2995452880859375,-2.4334564208984375,Closing,0.0,0.0,3.0,0.0,0.0,0.0,0.0,0.0,
9.34956700000001,0.0,0.0,84318.0,0.0,0.0,0.0,0.0,0.25,1.381835796,0.5498168668524864,0.0,-150546.0,0.0,0.0,0.0,0.0,0.125,4.908446763000001,4.41043958977222,0.0,12612.0,0.0,-7.5,0.0,0.0,0.0,2.7880856520000004,4.389674732977291,0.0,-24825.0,0.125,7.5,0.0,0.0,0.25,2.131347438,0.552687206278561,0.0,0.38999998569488525,-0.5899999737739563,-98.12000274658203,-0.0244140625,6.7138671875E-4,1.05279541015625,36.45000076293945,0.0,8.0,2.2995452880859375,-2.4335479736328125,Closing,0.0,0.0,3.0,0.0,0.0,0.0,0.0,0.125,
