Time,ClimberA1,ClimberA2,FRpos,FRCurrent,FRspeed,FRsetpoint,FRApos,FRACurrent,FREncpos,FREncSetpoint,FREncSpeed,FLpos,FLCurrent,FLspeed,FLsetpoint,FLApos,FLACurrent,FLEncpos,FLEncSetpoint,FLEncSpeed,BRpos,BRCurrent,BRspeed,BRsetpoint,BRApos,BRACurrent,BREncpos,BREncSetpoint,BREncSpeed,BLpos,BLCurrent,BLspeed,BLsetpoint,BLApos,BLACurrent,BLEncpos,BLEncSetpoint,BLEncSpeed,navx_Pitch,navx_Roll,navx_Yaw,navx_XAcc,navx_YAcc,navx_ZAcc,navx_Temp,navx_Bar,navx_Alt,navx_XDis,navx_YDis,GearPlacerState,ShootOutputV,ShootOutputCurrent,ShootEncPos,ShootEncVelocity,ShootSpeed,ShootSetpoint,CarouselSetpoint,CarouselCurrent,
0.5631890000000003,0.0,0.0,87067.0,0.0,0.0,0.0,0.0,0.25,0.8020018710000001,0.01,0.0,-156531.0,0.0,0.0,0.0,0.0,0.125,0.49316401200000004,0.01,0.0,13265.0,0.0,0.0,0.0,0.0,0.125,3.387450825,0.01,0.0,-31396.0,0.125,0.0,0.0,0.0,0.25,1.6845701400000002,0.01,0.0,0.49000000953674316,-0.7200000286102295,-107.3499984741211,-0.01287841796875,0.0087890625,1.01641845703125,36.81999969482422,0.0,0.0,1.7010345458984375,-1.8183135986328125,Waiting,0.0,0.0,3.0,0.0,0.0,0.0,0.0,0.0,
0.6855770000000002,0.0,0.0,87067.0,0.0,0.0,420.0,0.0,0.125,0.8032225740000001,0.01,0.0,-156531.0,0.0,0.0,-420.0,0.0,0.125,0.49316401200000004,0.01,0.0,13265.0,0.0,0.0,420.0,0.0,0.125,3.387450825,0.01,0.0,-31396.0,0.125,0.0,-420.0,0.0,0.25,1.6845701400000002,0.01,0.0,0.49000000953674316,-0.7200000286102295,-107.3499984741211,-0.01416015625,0.0076904296875,1.014892578125,36.81999969482422,0.0,1.0,1.7010345458984375,-1.8183135986328125,Waiting,0.0,0.0,3.0,0.0,0.0,0.0,0.0,0.0,
0.8516279999999997,0.0,0.0,87071.0,1.5,15.0,NaN,0.0,0.25,0.8007811680000001,NaN,0.0,-156534.0,2.125,-22.5,NaN,0.0,0.125,0.49316401200000004,NaN,-0.0012207030000004337,13267.0,1.875,15.0,NaN,0.0,0.0,3.3715816860000003,NaN,-0.006103514999999948,-31396.0,1.25,-37.5,NaN,0.0,0.125,1.6857908430000001,NaN,0.0,0.5,-0.6000000238418579,-107.33999633789062,0.0245361328125,0.01239013671875,1.01507568359375,36.83000183105469,0.0,-13.0,1.700927734375,-1.81805419921875,Waiting,0.0,0.0,3.0,0.0,0.0,0.0,0.0,0.0,
0.9255689999999995,0.0,0.0,87071.0,0.5,22.5,449.7228150222785,0.0,0.25,0.8032225740000001,4.645256047916777,0.0,-156538.0,0.375,-22.5,-449.7228150222785,0.0,0.0,0.49194330900000005,4.674941038679471,0.0,13267.0,0.75,7.5,449.7228150222785,0.0,0.0,3.382568013,4.652930878645074,0.0,-31419.0,0.375,-142.5,-449.7228150222785,0.0,0.125,1.6857908430000001,4.6695067800830445,0.0,0.49000000953674316,-0.7099999785423279,-107.2699966430664,-0.037353515625,0.02252197265625,1.05877685546875,36.83000183105469,0.0,-5.0,1.700927734375,-1.81793212890625,Waiting,0.0,0.0,3.0,0.0,0.0,0.0,0.0,0.125,
0.9897039999999997,0.0,0.0,87074.0,1.75,15.0,449.7228150222785,0.0,0.25,0.8032225740000001,4.645256047916777,-0.0012207030000004337,-156538.0,3.5,-30.0,-449.7228150222785,0.0,0.0,0.49316401200000004,4.674941038679471,0.0012207030000004337,13269.0,2.625,7.5,449.7228150222785,0.0,0.0,3.3679195770000003,4.652930878645074,-0.012207029999999897,-31427.0,1.625,-45.0,-449.7228150222785,0.0,0.125,1.6857908430000001,4.6695067800830445,0.0,0.49000000953674316,-0.5400000214576721,-107.29000091552734,0.07763671875,-0.03814697265625,1.06610107421875,36.83000183105469,0.0,19.0,1.700897216796875,-1.817108154296875,Waiting,0.0,0.0,3.0,0.0,0.0,0.0,0.0,0.0,
1.1262349999999997,0.0,0.0,87089.0,2.75,97.5,449.7228150222785,0.0,0.375,0.615234312,4.645256047916777,0.0,-156547.0,4.25,-90.0,-449.7228150222785,0.0,0.5,0.314941374,4.674941038679471,0.0,13273.0,3.875,82.5,449.7228150222785,0.0,0.25,3.1604000670000003,4.652930878645074,0.0,-31445.0,2.375,-105.0,-449.7228150222785,0.0,0.625,1.406249856,4.6695067800830445,0.0,0.5,-0.18000000715255737,-107.16000366210938,0.08843994140625,-0.02490234375,1.0595703125,36.83000183105469,0.0,5.0,1.700408935546875,-1.81182861328125,Waiting,0.0,0.0,3.0,0.0,0.0,0.0,0.0,0.125,
1.18913,0.0,0.0,87089.0,2.875,195.0,445.28637594424845,0.0,0.375,0.5041503390000001,4.666435188907449,-0.14770506300000008,-156570.0,4.625,-165.0,-445.28637594424845,0.0,0.25,0.21728513400000002,4.696255522608871,-0.1416015479999997,13305.0,3.625,180.0,445.28637594424845,0.0,0.25,3.033446955,4.674145011532941,4.779267204,-31445.0,3.0,-157.5,-445.28637594424845,0.0,0.5,1.276855338,4.690796487567873,4.740714865999999,0.20999999344348907,0.05999999865889549,-107.16000366210938,0.099365234375,-0.1182861328125,1.0130615234375,36.83000183105469,0.0,87.0,1.70074462890625,-1.803924560546875,Waiting,0.0,0.0,3.0,0.0,0.0,0.0,0.0,0.0,
1.250991,0.0,0.0,87128.0,2.5,262.5,452.0619649519854,0.0,0.125,0.47485346700000003,4.634826154440559,-0.05004882300000002,-156570.0,4.5,-240.0,-452.0619649519854,0.0,0.0,0.191650371,4.664444494132074,-0.04760741700000004,13305.0,3.5,262.5,452.0619649519854,0.0,0.0,2.988280944,4.642483753036522,-0.06835936800000031,-31486.0,2.5,-225.0,-452.0619649519854,0.0,0.25,1.2683104170000001,4.659022436959574,-0.051269526000000454,0.0,0.1599999964237213,-107.18000030517578,0.06146240234375,-0.07989501953125,1.04876708984375,36.79999923706055,0.0,59.0,1.7028961181640625,-1.7950897216796875,Waiting,0.0,0.0,3.0,0.0,0.0,0.0,0.0,0.125,
1.3226999999999998,0.0,0.0,87128.0,2.5,315.0,443.19150787921245,0.0,0.25,0.46142573400000003,4.677179849637432,0.0,-156616.0,3.875,-337.5,-443.19150787921245,0.0,0.125,0.189208965,4.707068845895068,0.0,13357.0,3.0,322.5,443.19150787921245,0.0,0.0,2.973632508,4.684907424449561,0.0,-31486.0,2.625,-337.5,-443.19150787921245,0.0,0.25,1.286620962,4.70159724119928,0.0,-0.05000000074505806,0.3100000023841858,-107.19999694824219,0.09283447265625,-0.04229736328125,1.00360107421875,36.79999923706055,0.0,13.0,1.70550537109375,-1.78448486328125,Waiting,0.0,0.0,3.0,0.0,0.0,0.0,0.0,0.0,
1.3924020000000001,0.0,0.0,87187.0,2.125,405.0,449.7228150222785,0.0,0.375,0.46386714,4.645256047916777,-0.01342773300000033,-156683.0,3.25,-405.0,-449.7228150222785,0.0,0.25,0.19409177700000002,4.674941038679471,0.0012207029999995456,13357.0,2.625,390.0,449.7228150222785,0.0,0.125,3.0029293800000003,4.652930878645074,-0.025634763000000227,-31549.0,2.125,-397.5,-449.7228150222785,0.0,0.25,1.3159178340000002,4.6695067800830445,0.02075195100000027,-0.10000000149011612,0.4399999976158142,-107.22000122070312,0.0330810546875,0.00408935546875,1.06488037109375,36.79999923706055,0.0,-13.0,1.705352783203125,-1.7693023681640625,Waiting,0.0,0.0,3.0,0.0,0.0,0.0,0.0,0.0,
1.4520329999999995,0.0,0.0,87260.0,2.0,442.5,447.46387843042703,0.0,0.375,0.49194330900000005,4.655793124164234,0.024414059999999793,-156683.0,2.625,-457.5,-447.46387843042703,0.0,0.25,0.20751951000000002,4.685545450937655,0.014648435999999876,13423.0,2.5,420.0,447.46387843042703,0.0,0.0,3.041991876,4.663485364110825,0.04272460500000008,-31549.0,1.625,-442.5,-447.46387843042703,0.0,0.25,1.3452147060000001,4.680098865529405,0.029296871999999752,-0.09000000357627869,0.49000000953674316,-107.13999938964844,0.0347900390625,-0.0078125,1.11627197265625,36.79999923706055,0.0,-1.0,1.7052459716796875,-1.7565765380859375,Waiting,0.0,0.0,3.0,0.0,0.0,0.0,0.0,0.0,
1.53016,0.0,0.0,87260.0,1.875,480.0,445.28637594424845,0.0,0.25,0.505371042,4.666435188907449,0.0,-156766.0,2.0,-510.0,-445.28637594424845,0.0,0.125,0.20751951000000002,4.696255522608871,0.0,13476.0,2.25,420.0,445.28637594424845,0.0,0.0,3.0529782030000003,4.674145011532941,0.0,-31626.0,1.25,-495.0,-445.28637594424845,0.0,0.125,1.3488768150000001,4.690796487567873,0.0,-0.07000000029802322,0.5799999833106995,-107.02999877929688,-0.00628662109375,0.0233154296875,1.039306640625,36.79999923706055,0.0,-18.0,1.704742431640625,-1.739776611328125,Waiting,0.0,0.0,3.0,0.0,0.0,0.0,0.0,0.0,
1.5919449999999997,0.0,0.0,87341.0,1.5,502.5,445.28637594424845,0.0,0.25,0.513915963,4.666435188907449,0.019531247999999835,-156766.0,1.5,-540.0,-445.28637594424845,0.0,0.25,0.20751951000000002,4.696255522608871,0.006103514999999504,13476.0,3.375,172.5,445.28637594424845,0.0,0.0,3.0566403120000003,4.674145011532941,0.009765623999999917,-31711.0,0.75,-517.5,-445.28637594424845,0.0,0.125,1.3488768150000001,4.690796487567873,0.0,-0.029999999329447746,0.5899999737739563,-106.91999816894531,0.01025390625,0.049560546875,0.96710205078125,36.79999923706055,0.0,-48.0,1.7047576904296875,-1.7261505126953125,Waiting,0.0,0.0,3.0,0.0,0.0,0.0,0.0,0.0,
1.657362,0.0,0.0,87341.0,1.125,532.5,443.19150787921245,0.0,0.25,0.513915963,4.677179849637432,0.0012207029999995456,-156854.0,1.125,-555.0,-443.19150787921245,0.0,0.25,0.20751951000000002,4.707068845895068,0.0,13519.0,4.625,217.5,443.19150787921245,0.0,0.0,3.0566403120000003,4.684907424449561,0.0,-31711.0,0.75,-540.0,-443.19150787921245,0.0,0.125,1.3452147060000001,4.70159724119928,0.0,-0.029999999329447746,0.5799999833106995,-106.93000030517578,-0.018798828125,0.08154296875,0.96270751953125,36.79999923706055,0.0,-70.0,1.704986572265625,-1.7261810302734375,Waiting,0.0,0.0,3.0,0.0,0.0,0.0,0.0,0.0,
1.7291660000000002,0.0,0.0,87430.0,0.75,555.0,439.2543575481068,0.0,0.25,0.5151366660000001,4.698966387762507,0.0,-156854.0,0.875,-555.0,-439.2543575481068,0.0,0.25,0.21362302500000002,4.728994608462525,0.0,13519.0,3.75,487.5,439.2543575481068,0.0,0.0,3.0615231240000003,4.706729958005359,0.0,-31795.0,0.625,-517.5,-439.2543575481068,0.0,0.125,1.3476561120000001,4.723497516757868,0.0,0.019999999552965164,0.46000000834465027,-106.91999816894531,0.02947998046875,-0.039306640625,0.9853515625,36.79999923706055,0.0,31.0,1.704833984375,-1.726837158203125,Waiting,0.0,0.0,3.0,0.0,0.0,0.0,0.0,0.0,
1.793156,0.0,0.0,87430.0,0.75,540.0,435.66151586552843,0.0,0.25,0.522460884,4.721129584569014,-0.0024414059999999793,-156943.0,0.625,-547.5,-435.66151586552843,0.0,0.25,0.22705075800000002,4.751299436706716,0.0,13608.0,2.375,555.0,435.66151586552843,0.0,0.0,3.0566403120000003,4.728929772553091,0.0,-31795.0,0.625,-517.5,-435.66151586552843,0.0,0.25,1.3488768150000001,4.745776417358559,0.0,0.029999999329447746,0.5199999809265137,-106.77999877929688,-0.00146484375,0.03717041015625,1.03521728515625,36.810001373291016,0.0,-31.0,1.7044525146484375,-1.727325439453125,Waiting,0.0,0.0,3.0,0.0,0.0,0.0,0.0,0.0,
1.8541989999999997,0.0,0.0,87517.0,0.5,540.0,435.66151586552843,0.0,0.25,0.544433538,4.721129584569014,0.024414059999999793,-157033.0,0.375,-562.5,-435.66151586552843,0.0,0.25,0.25634763,4.751299436706716,0.01831054500000029,13608.0,2.125,540.0,435.66151586552843,0.0,0.0,3.079833669,4.728929772553091,0.01342773300000033,-31882.0,0.375,-540.0,-435.66151586552843,0.0,0.25,1.363525251,4.745776417358559,0.009765623999999917,0.09000000357627869,0.44999998807907104,-106.7300033569336,-0.02239990234375,0.00543212890625,1.11187744140625,36.810001373291016,0.0,5.0,1.7039794921875,-1.7284698486328125,Waiting,0.0,0.0,3.0,0.0,0.0,0.0,0.0,0.125,
1.9295559999999996,0.0,0.0,87605.0,0.5,547.5,433.99691499659593,0.0,0.25,0.5822753310000001,4.732344317004644,0.0,-157033.0,0.375,-555.0,-433.99691499659593,0.0,0.25,0.281982393,4.762585835639374,0.0,13697.0,2.0,547.5,433.99691499659593,0.0,0.0,3.1091305410000003,4.7401630338216245,0.0,-31882.0,0.375,-577.5,-433.99691499659593,0.0,0.25,1.381835796,4.757049696722454,0.0,0.1899999976158142,0.3400000035762787,-106.7699966430664,-0.05657958984375,0.079833984375,1.1568603515625,36.810001373291016,0.0,-54.0,1.703216552734375,-1.73077392578125,Waiting,0.0,0.0,3.0,0.0,0.0,0.0,0.0,0.0,
2.0015379999999996,0.0,0.0,87605.0,0.375,532.5,430.9364451129221,0.0,0.25,0.5957030640000001,4.755022096236761,0.023193357000000248,-157119.0,0.25,-532.5,-430.9364451129221,0.0,0.25,0.29663082900000004,4.785408534690783,0.0183105449999994,13727.0,2.625,277.5,430.9364451129221,0.0,0.0,3.133544601,4.762878280981259,0.024414059999999793,-31969.0,0.375,-517.5,-430.9364451129221,0.0,0.25,1.411132668,4.77984586614547,0.019531247999999835,0.27000001072883606,0.20000000298023224,-106.80000305175781,-0.0155029296875,0.05712890625,1.08184814453125,36.810001373291016,0.0,-44.0,1.7030029296875,-1.7346649169921875,Waiting,0.0,0.0,3.0,0.0,0.0,0.0,0.0,0.0,
2.121814,0.0,0.0,87689.0,0.375,525.0,430.9364451129221,0.0,0.25,0.603027282,4.755022096236761,0.0,-157195.0,0.375,-480.0,-430.9364451129221,0.0,0.25,0.319824186,4.785408534690783,0.0,13727.0,4.75,292.5,430.9364451129221,0.0,0.0,3.139648116,4.762878280981259,0.0,-32045.0,0.375,-472.5,-430.9364451129221,0.0,0.25,1.435546728,4.77984586614547,0.0,0.3100000023841858,0.14000000059604645,-106.93000030517578,-0.00555419921875,0.00933837890625,1.12042236328125,36.810001373291016,0.0,0.0,1.7026824951171875,-1.740509033203125,Waiting,0.0,0.0,3.0,0.0,0.0,0.0,0.0,0.0,
2.190742,0.0,0.0,87769.0,0.375,495.0,428.24059247000696,0.0,0.125,0.616455015,4.778004792092225,0.01831054500000029,-157195.0,0.25,-472.5,-428.24059247000696,0.0,0.125,0.32958981000000004,4.808538098901216,0.030517575000000186,13796.0,3.625,502.5,428.24059247000696,0.0,0.0,3.144530928,4.785898948543459,0.014648435999999876,-32125.0,0.375,-495.0,-428.24059247000696,0.0,0.125,1.444091649,4.802948544020418,0.04272460500000008,0.3100000023841858,0.07999999821186066,-106.94000244140625,-0.02874755859375,0.01275634765625,1.10662841796875,36.810001373291016,0.0,2.0,1.702972412109375,-1.740875244140625,Waiting,0.0,0.0,3.0,0.0,0.0,0.0,0.0,0.0,
2.2492299999999994,0.0,0.0,87769.0,0.375,487.5,427.0315920690178,0.0,0.25,0.628662045,4.789599983969735,0.006103514999999504,-157273.0,0.25,-480.0,-427.0315920690178,0.0,0.125,0.33081051300000003,4.820207388559393,0.01342773300000033,13881.0,2.875,532.5,427.0315920690178,0.0,0.0,3.148193037,4.797513297843942,0.0,-32125.0,0.375,-510.0,-427.0315920690178,0.0,0.25,1.4489744610000002,4.814604269028877,0.004882811999999959,0.3499999940395355,0.0,-106.91000366210938,-0.06475830078125,-0.03045654296875,1.0889892578125,36.810001373291016,0.0,54.0,1.703216552734375,-1.74188232421875,Waiting,0.0,0.0,3.0,0.0,0.0,0.0,0.0,0.0,
2.329713,0.0,0.0,87848.0,0.125,487.5,428.24059247000696,0.0,0.25,0.649413996,4.778004792092225,0.0,-157273.0,0.25,-480.0,-428.24059247000696,0.0,0.25,0.32958981000000004,4.808538098901216,-0.0012207029999995456,13881.0,2.5,525.0,428.24059247000696,0.0,0.0,3.1689449880000002,4.785898948543459,0.01586913900000031,-32205.0,0.375,-495.0,-428.24059247000696,0.0,0.25,1.462402194,4.802948544020418,0.0,0.38999998569488525,-0.019999999552965164,-107.02999877929688,-0.0184326171875,0.021240234375,0.938720703125,36.7599983215332,0.0,-8.0,1.703643798828125,-1.7424468994140625,Waiting,0.0,0.0,3.0,0.0,0.0,0.0,0.0,0.125,
2.3916109999999997,0.0,0.0,87848.0,0.375,472.5,428.24059247000696,0.0,0.125,0.6579589170000001,4.778004792092225,0.025634763000000227,-157350.0,0.25,-472.5,-428.24059247000696,0.0,0.125,0.328369107,4.808538098901216,0.0,13965.0,2.375,525.0,428.24059247000696,0.0,0.0,3.172607097,4.785898948543459,0.0,-32205.0,0.375,-472.5,-428.24059247000696,0.0,0.125,1.4489744610000002,4.802948544020418,0.004882811999999959,0.4099999964237213,-0.11999999731779099,-107.16999816894531,-0.03289794921875,-0.009521484375,0.99774169921875,36.7599983215332,0.0,25.0,1.7042999267578125,-1.743743896484375,Waiting,0.0,0.0,3.0,0.0,0.0,0.0,0.0,0.0,
2.452094,0.0,0.0,87922.0,0.375,457.5,427.0315920690178,0.0,0.25,0.664062432,4.789599983969735,0.013427732999999442,-157350.0,0.25,-465.0,-427.0315920690178,0.0,0.125,0.334472622,4.820207388559393,0.003662109000000413,13965.0,2.25,495.0,427.0315920690178,0.0,0.0,3.1738278,4.797513297843942,0.0,-32281.0,0.375,-472.5,-427.0315920690178,0.0,0.125,1.4453123520000002,4.814604269028877,-0.004882811999999959,0.3799999952316284,-0.20999999344348907,-107.25,-0.030029296875,0.0384521484375,1.02191162109375,36.7599983215332,0.0,-22.0,1.7050323486328125,-1.745635986328125,Waiting,0.0,0.0,3.0,0.0,0.0,0.0,0.0,0.0,
2.5258409999999993,0.0,0.0,87922.0,0.375,457.5,425.9162806985224,0.0,0.25,0.665283135,4.801258457807891,0.0,-157423.0,0.25,-435.0,-425.9162806985224,0.0,0.25,0.334472622,4.831940364574527,0.0,14043.0,2.375,472.5,425.9162806985224,0.0,0.0,3.1738278,4.809191033658689,0.0,-32281.0,0.375,-450.0,-425.9162806985224,0.0,0.25,1.4453123520000002,4.826323606363813,0.0,0.4000000059604645,-0.25,-107.3499984741211,-0.02923583984375,0.01824951171875,0.98358154296875,36.7599983215332,0.0,-3.0,1.7054595947265625,-1.7480926513671875,Waiting,0.0,0.0,3.0,0.0,0.0,0.0,0.0,0.0,
2.589924,0.0,0.0,87996.0,0.125,450.0,425.9162806985224,0.0,0.125,0.662841729,4.801258457807891,0.0024414059999999793,-157492.0,0.25,-427.5,-425.9162806985224,0.0,0.25,0.334472622,4.831940364574527,0.0012207029999995456,14043.0,2.25,457.5,425.9162806985224,0.0,0.0,3.1738278,4.809191033658689,0.0,-32351.0,0.375,-435.0,-425.9162806985224,0.0,0.25,1.4538572730000001,4.826323606363813,-0.004882811999999959,0.41999998688697815,-0.36000001430511475,-107.51000213623047,-0.05126953125,0.01495361328125,0.9305419921875,36.7599983215332,0.0,5.0,1.7054595947265625,-1.7517547607421875,Waiting,0.0,0.0,3.0,0.0,0.0,0.0,0.0,0.125,
2.6566639999999997,0.0,0.0,88067.0,0.375,442.5,425.9162806985224,0.0,0.25,0.665283135,4.801258457807891,0.0,-157492.0,0.25,-420.0,-425.9162806985224,0.0,0.25,0.35034176100000003,4.831940364574527,0.009765623999999917,14116.0,2.625,450.0,425.9162806985224,0.0,0.0,3.1738278,4.809191033658689,0.0,-32351.0,0.375,-405.0,-425.9162806985224,0.0,0.25,1.461181491,4.826323606363813,0.003662109000000413,0.44999998807907104,-0.41999998688697815,-107.58999633789062,-0.03350830078125,0.00750732421875,1.05401611328125,36.7599983215332,0.0,8.0,1.7049713134765625,-1.7533721923828125,Waiting,0.0,0.0,3.0,0.0,0.0,0.0,0.0,0.0,
2.7280469999999997,0.0,0.0,88067.0,0.375,435.0,427.0315920690178,0.0,0.125,0.664062432,4.789599983969735,0.0,-157559.0,0.25,-420.0,-427.0315920690178,0.0,0.25,0.347900355,4.820207388559393,0.0,14116.0,2.25,435.0,427.0315920690178,0.0,0.0,3.177489909,4.797513297843942,0.0,-32416.0,0.375,-412.5,-427.0315920690178,0.0,0.25,1.458740085,4.814604269028877,0.0,0.4300000071525574,-0.4300000071525574,-107.69000244140625,-0.040771484375,-0.01373291015625,0.9278564453125,36.7599983215332,0.0,30.0,1.7045745849609375,-1.753387451171875,Waiting,0.0,0.0,3.0,0.0,0.0,0.0,0.0,0.0,
2.797338,0.0,0.0,88136.0,0.375,427.5,427.0315920690178,0.0,0.25,0.662841729,4.789599983969735,0.0,-157559.0,0.375,-397.5,-427.0315920690178,0.0,0.125,0.34912105800000004,4.820207388559393,0.004882811999999959,14185.0,2.625,427.5,427.0315920690178,0.0,0.0,3.178710612,4.797513297843942,0.0,-32416.0,0.375,-390.0,-427.0315920690178,0.0,0.125,1.458740085,4.814604269028877,0.006103514999999504,0.4399999976158142,-0.49000000953674316,-107.79000091552734,-0.02496337890625,-0.00811767578125,0.92144775390625,36.72999954223633,0.0,19.0,1.704315185546875,-1.7538299560546875,Waiting,0.0,0.0,3.0,0.0,0.0,0.0,0.0,0.0,
2.8506269999999994,0.0,0.0,88136.0,0.375,427.5,427.0315920690178,0.0,0.25,0.664062432,4.789599983969735,0.0012207030000004337,-157623.0,0.375,-405.0,-427.0315920690178,0.0,0.125,0.34912105800000004,4.820207388559393,0.0,14251.0,2.5,412.5,427.0315920690178,0.0,0.0,3.177489909,4.797513297843942,0.0,-32479.0,0.375,-390.0,-427.0315920690178,0.0,0.125,1.458740085,4.814604269028877,0.0,0.41999998688697815,-0.5299999713897705,-107.88999938964844,-0.00677490234375,0.01129150390625,0.99432373046875,36.72999954223633,0.0,-4.0,1.7046356201171875,-1.754852294921875,Waiting,0.0,0.0,3.0,0.0,0.0,0.0,0.0,0.0,
2.9322209999999997,0.0,0.0,88204.0,0.375,420.0,427.0315920690178,0.0,0.125,0.662841729,4.789599983969735,0.0,-157623.0,0.375,-420.0,-427.0315920690178,0.0,0.125,0.34912105800000004,4.820207388559393,0.0,14251.0,3.0,405.0,427.0315920690178,0.0,0.0,3.178710612,4.797513297843942,0.0,-32541.0,0.375,-390.0,-427.0315920690178,0.0,0.125,1.461181491,4.814604269028877,0.0,0.41999998688697815,-0.5600000023841858,-107.94999694824219,-0.01220703125,-0.00372314453125,1.036865234375,36.72999954223633,0.0,11.0,1.705169677734375,-1.7557525634765625,Waiting,0.0,0.0,3.0,0.0,0.0,0.0,0.0,0.0,
2.951492,0.0,0.0,88204.0,0.375,420.0,427.0315920690178,0.0,0.125,0.677490165,4.789599983969735,0.0,-157691.0,0.375,-420.0,-427.0315920690178,0.0,0.125,0.35400387,4.820207388559393,0.0,14251.0,3.0,405.0,427.0315920690178,0.0,0.0,3.178710612,4.797513297843942,0.0,-32541.0,0.375,-375.0,-427.0315920690178,0.0,0.125,1.458740085,4.814604269028877,-0.0012207029999995456,0.4099999964237213,-0.5600000023841858,-108.04000091552734,-0.01190185546875,0.01214599609375,0.99169921875,36.72999954223633,0.0,-4.0,1.705535888671875,-1.7557525634765625,Waiting,0.0,0.0,3.0,0.0,0.0,0.0,0.0,0.0,
3.0491390000000003,0.0,0.0,88273.0,0.375,427.5,NaN,0.0,0.25,0.6604003230000001,NaN,0.0,-157691.0,0.375,-405.0,NaN,0.0,0.125,0.34912105800000004,NaN,0.0,14316.0,2.375,397.5,NaN,0.0,0.0,3.178710612,NaN,0.0,-32602.0,0.625,-375.0,NaN,0.0,0.125,1.459960788,NaN,0.0,0.4000000059604645,-0.6100000143051147,-108.13999938964844,-0.040283203125,0.00811767578125,1.0374755859375,36.72999954223633,0.0,8.0,1.7057037353515625,-1.7557220458984375,Waiting,0.0,0.0,3.0,0.0,0.0,0.0,0.0,0.0,
3.1323769999999995,0.0,0.0,88310.0,0.125,352.5,NaN,0.0,0.25,0.664062432,NaN,0.0,-157756.0,0.0,-300.0,NaN,0.0,0.0,0.347900355,NaN,0.0,14376.0,0.5,360.0,NaN,0.0,0.0,3.175048503,NaN,0.0,-32602.0,0.25,-322.5,NaN,0.0,0.125,1.4453123520000002,NaN,0.0,0.4099999964237213,-0.7300000190734863,-108.20999908447266,-0.12164306640625,0.08074951171875,0.914794921875,36.72999954223633,0.0,-40.0,1.70611572265625,-1.7566070556640625,Waiting,0.0,0.0,3.0,0.0,0.0,0.0,0.0,0.0,
3.189331,0.0,0.0,88310.0,0.125,172.5,428.24059247000696,0.0,0.25,0.664062432,4.778004792092225,0.0,-157792.0,0.0,-217.5,-428.24059247000696,0.0,0.0,0.34912105800000004,4.808538098901216,0.0,14376.0,0.5,330.0,428.24059247000696,0.0,0.0,3.178710612,4.785898948543459,0.0,-32650.0,0.25,-300.0,-428.24059247000696,0.0,0.125,1.444091649,4.802948544020418,-0.008544921000000372,0.4099999964237213,-0.9700000286102295,-108.29000091552734,-0.0618896484375,0.05072021484375,0.8818359375,36.72999954223633,0.0,11.0,1.70648193359375,-1.7593841552734375,Waiting,0.0,0.0,3.0,0.0,0.0,0.0,0.0,0.0,
3.254035,0.0,0.0,88366.0,0.375,285.0,428.24059247000696,0.0,0.25,0.6616210260000001,4.778004792092225,0.0012207030000004337,-157792.0,0.375,-285.0,-428.24059247000696,0.0,0.0,0.347900355,4.808538098901216,0.0,14425.0,2.375,300.0,428.24059247000696,0.0,0.0,3.178710612,4.785898948543459,0.0,-32650.0,0.375,-285.0,-428.24059247000696,0.0,0.125,1.458740085,4.802948544020418,0.008544921000000372,0.4099999964237213,-1.0399999618530273,-108.3499984741211,-0.02349853515625,0.06317138671875,0.96221923828125,36.72999954223633,0.0,-51.0,1.70660400390625,-1.7629547119140625,Waiting,0.0,0.0,3.0,0.0,0.0,0.0,0.0,0.0,
3.3302930000000006,0.0,0.0,88366.0,0.125,360.0,428.24059247000696,0.0,0.125,0.664062432,4.778004792092225,0.0,-157842.0,0.375,-315.0,-428.24059247000696,0.0,0.0,0.347900355,4.808538098901216,0.0,14472.0,2.625,292.5,428.24059247000696,0.0,0.0,3.178710612,4.785898948543459,0.0,-32695.0,0.625,-285.0,-428.24059247000696,0.0,0.125,1.458740085,4.802948544020418,0.0,0.4300000071525574,-0.9800000190734863,-108.43000030517578,-0.0128173828125,-5.4931640625E-4,0.97216796875,36.709999084472656,0.0,6.0,1.7063446044921875,-1.763916015625,Waiting,0.0,0.0,3.0,0.0,0.0,0.0,0.0,0.125,
3.3918900000000005,0.0,0.0,88421.0,0.375,337.5,428.24059247000696,0.0,0.25,0.664062432,4.778004792092225,0.0,-157842.0,0.375,-352.5,-428.24059247000696,0.0,0.0,0.347900355,4.808538098901216,0.0,14472.0,3.0,270.0,428.24059247000696,0.0,0.0,3.178710612,4.785898948543459,0.0012207030000004337,-32695.0,0.625,-277.5,-428.24059247000696,0.0,0.125,1.458740085,4.802948544020418,0.006103514999999504,0.4300000071525574,-0.9100000262260437,-108.44999694824219,0.0137939453125,0.0025634765625,0.97930908203125,36.709999084472656,0.0,-4.0,1.7062835693359375,-1.763641357421875,Waiting,0.0,0.0,3.0,0.0,0.0,0.0,0.0,0.0,
3.454633999999999,0.0,0.0,88421.0,0.5,277.5,429.54249080416946,0.0,0.25,0.662841729,4.766477385014434,0.0,-157890.0,0.625,-292.5,-429.54249080416946,0.0,0.0,0.347900355,4.796937027213962,0.0,14516.0,3.75,270.0,429.54249080416946,0.0,0.0,3.178710612,4.774352496035848,0.0012207030000004337,-32746.0,0.625,-345.0,-429.54249080416946,0.0,0.125,1.458740085,4.7913609576847485,0.0,0.4399999976158142,-0.8600000143051147,-108.5,-0.00592041015625,-0.02215576171875,0.91595458984375,36.709999084472656,0.0,25.0,1.706268310546875,-1.7629547119140625,Waiting,0.0,0.0,3.0,0.0,0.0,0.0,0.0,0.125,
3.5289379999999992,0.0,0.0,88465.0,0.75,277.5,429.54249080416946,0.0,0.125,0.664062432,4.766477385014434,0.0,-157890.0,1.125,-277.5,-429.54249080416946,0.0,0.125,0.35034176100000003,4.796937027213962,0.0012207029999995456,14516.0,4.125,285.0,429.54249080416946,0.0,0.0,3.179931315,4.774352496035848,-0.0012207030000004337,-32788.0,0.75,-262.5,-429.54249080416946,0.0,0.125,1.458740085,4.7913609576847485,-0.0012207029999995456,0.4000000059604645,-0.75,-108.55000305175781,0.0401611328125,-0.0218505859375,1.0518798828125,36.709999084472656,0.0,10.0,1.7061309814453125,-1.7611541748046875,Waiting,0.0,0.0,3.0,0.0,0.0,0.0,0.0,0.0,
3.592638,0.0,0.0,88465.0,0.75,315.0,428.24059247000696,0.0,0.25,0.662841729,4.778004792092225,0.0,-157937.0,1.125,-300.0,-428.24059247000696,0.0,0.125,0.34912105800000004,4.808538098901216,0.0,14568.0,4.0,315.0,428.24059247000696,0.0,0.0,3.177489909,4.785898948543459,0.0,-32788.0,0.75,-292.5,-428.24059247000696,0.0,0.125,1.458740085,4.802948544020418,0.0,0.3799999952316284,-0.6499999761581421,-108.61000061035156,0.033447265625,-0.03460693359375,0.98321533203125,36.709999084472656,0.0,24.0,1.706024169921875,-1.7587127685546875,Waiting,0.0,0.0,3.0,0.0,0.0,0.0,0.0,0.0,
3.6491050000000005,0.0,0.0,88517.0,0.75,322.5,428.24059247000696,0.0,0.25,0.664062432,4.778004792092225,0.0012207030000004337,-157937.0,1.25,-315.0,-428.24059247000696,0.0,0.0,0.34912105800000004,4.808538098901216,-0.0012207029999995456,14568.0,4.125,345.0,428.24059247000696,0.0,0.0,3.178710612,4.785898948543459,-0.0012207030000004337,-32847.0,1.0,-375.0,-428.24059247000696,0.0,0.125,1.458740085,4.802948544020418,0.0012207029999995456,0.36000001430511475,-0.550000011920929,-108.63999938964844,0.01702880859375,-0.011962890625,1.02984619140625,36.709999084472656,0.0,8.0,1.7058868408203125,-1.7570953369140625,Waiting,0.0,0.0,3.0,0.0,0.0,0.0,0.0,0.0,
3.728558,0.0,0.0,88577.0,0.875,352.5,429.54249080416946,0.0,0.25,0.662841729,4.766477385014434,0.0,-157992.0,1.125,-352.5,-429.54249080416946,0.0,0.0,0.34912105800000004,4.796937027213962,0.0,14626.0,4.0,360.0,429.54249080416946,0.0,0.0,3.178710612,4.774352496035848,0.0,-32847.0,0.625,-337.5,-429.54249080416946,0.0,0.125,1.458740085,4.7913609576847485,0.0,0.38999998569488525,-0.5099999904632568,-108.70999908447266,0.00579833984375,-0.03265380859375,1.014404296875,36.709999084472656,0.0,32.0,1.7058563232421875,-1.75640869140625,Waiting,0.0,0.0,3.0,0.0,0.0,0.0,0.0,0.0,
3.7935860000000003,0.0,0.0,88577.0,0.75,375.0,429.54249080416946,0.0,0.25,0.664062432,4.766477385014434,0.0,-158051.0,1.125,-360.0,-429.54249080416946,0.0,0.125,0.347900355,4.796937027213962,0.0,14626.0,3.75,390.0,429.54249080416946,0.0,0.0,3.178710612,4.774352496035848,0.0,-32908.0,0.75,-382.5,-429.54249080416946,0.0,0.125,1.458740085,4.7913609576847485,0.0,0.3700000047683716,-0.47999998927116394,-108.7699966430664,-0.0086669921875,0.03167724609375,0.98516845703125,36.720001220703125,0.0,-23.0,1.7058868408203125,-1.7553558349609375,Waiting,0.0,0.0,3.0,0.0,0.0,0.0,0.0,0.0,
3.857035999999999,0.0,0.0,88642.0,0.75,390.0,429.54249080416946,0.0,0.25,0.662841729,4.766477385014434,0.0,-158051.0,1.25,-375.0,-429.54249080416946,0.0,0.125,0.347900355,4.796937027213962,0.0,14691.0,3.75,412.5,429.54249080416946,0.0,0.0,3.178710612,4.774352496035848,0.0,-32908.0,0.75,-382.5,-429.54249080416946,0.0,0.125,1.458740085,4.7913609576847485,0.0,0.3700000047683716,-0.4000000059604645,-108.83000183105469,0.04559326171875,-0.0341796875,0.9451904296875,36.720001220703125,0.0,21.0,1.705718994140625,-1.7537689208984375,Waiting,0.0,0.0,3.0,0.0,0.0,0.0,0.0,0.0,
3.9254309999999997,0.0,0.0,88642.0,0.5,427.5,429.54249080416946,0.0,0.25,0.664062432,4.766477385014434,-0.0012207030000004337,-158116.0,1.125,-405.0,-429.54249080416946,0.0,0.125,0.347900355,4.796937027213962,0.0,14691.0,3.375,427.5,429.54249080416946,0.0,0.0,3.178710612,4.774352496035848,0.0,-32972.0,0.75,-405.0,-429.54249080416946,0.0,0.125,1.459960788,4.7913609576847485,0.0,0.3499999940395355,-0.28999999165534973,-108.86000061035156,-9.765625E-4,0.057373046875,0.92022705078125,36.720001220703125,0.0,-50.0,1.7053985595703125,-1.751708984375,Waiting,0.0,0.0,3.0,0.0,0.0,0.0,0.0,0.0,
3.9918540000000005,0.0,0.0,88713.0,0.5,435.0,429.54249080416946,0.0,0.25,0.664062432,4.766477385014434,0.0,-158116.0,1.125,-420.0,-429.54249080416946,0.0,0.125,0.347900355,4.796937027213962,0.0,14762.0,3.5,450.0,429.54249080416946,0.0,0.0,3.177489909,4.774352496035848,0.0,-32972.0,0.625,-427.5,-429.54249080416946,0.0,0.125,1.458740085,4.7913609576847485,0.0,0.33000001311302185,-0.25999999046325684,-108.91999816894531,-0.00634765625,-0.06439208984375,1.00030517578125,36.720001220703125,0.0,67.0,1.7048492431640625,-1.7488861083984375,Waiting,0.0,0.0,3.0,0.0,0.0,0.0,0.0,0.0,
4.067891,0.0,0.0,88713.0,0.375,457.5,429.54249080416946,0.0,0.25,0.664062432,4.766477385014434,0.0024414059999999793,-158187.0,0.875,-435.0,-429.54249080416946,0.0,0.125,0.34912105800000004,4.796937027213962,0.0,14837.0,3.0,465.0,429.54249080416946,0.0,0.0,3.178710612,4.774352496035848,0.0,-33042.0,0.625,-442.5,-429.54249080416946,0.0,0.125,1.455077976,4.7913609576847485,0.0,0.3400000035762787,-0.25999999046325684,-109.04000091552734,-0.02276611328125,0.006591796875,0.99462890625,36.720001220703125,0.0,5.0,1.7044830322265625,-1.747711181640625,Waiting,0.0,0.0,3.0,0.0,0.0,0.0,0.0,0.0,
4.129446999999999,0.0,0.0,88786.0,0.375,457.5,429.54249080416946,0.0,0.25,0.662841729,4.766477385014434,0.0,-158187.0,0.875,-450.0,-429.54249080416946,0.0,0.125,0.34912105800000004,4.796937027213962,0.0,14837.0,2.875,472.5,429.54249080416946,0.0,0.0,3.178710612,4.774352496035848,-0.0012207030000004337,-33107.0,0.75,-420.0,-429.54249080416946,0.0,0.125,1.458740085,4.7913609576847485,-0.0012207029999995456,0.30000001192092896,-0.2800000011920929,-109.11000061035156,-0.01055908203125,-0.00732421875,0.99688720703125,36.720001220703125,0.0,13.0,1.704437255859375,-1.747711181640625,Waiting,0.0,0.0,3.0,0.0,0.0,0.0,0.0,0.0,
4.193871,0.0,0.0,88786.0,0.375,472.5,429.54249080416946,0.0,0.25,0.664062432,4.766477385014434,-0.0012207030000004337,-158260.0,0.75,-457.5,-429.54249080416946,0.0,0.125,0.347900355,4.796937027213962,0.0,14915.0,2.5,480.0,429.54249080416946,0.0,0.0,3.178710612,4.774352496035848,0.0,-33107.0,0.75,-390.0,-429.54249080416946,0.0,0.125,1.458740085,4.7913609576847485,0.0,0.33000001311302185,-0.3100000023841858,-109.19000244140625,-0.0128173828125,0.0447998046875,1.08453369140625,36.720001220703125,0.0,-34.0,1.70440673828125,-1.747894287109375,Waiting,0.0,0.0,3.0,0.0,0.0,0.0,0.0,0.0,
4.257059,0.0,0.0,88863.0,0.375,465.0,428.24059247000696,0.0,0.25,0.662841729,4.778004792092225,-0.0012207029999995456,-158334.0,0.625,-457.5,-428.24059247000696,0.0,0.125,0.35034176100000003,4.808538098901216,0.0,14915.0,2.375,480.0,428.24059247000696,0.0,0.0,3.183593424,4.785898948543459,0.0,-33179.0,0.75,-450.0,-428.24059247000696,0.0,0.125,1.457519382,4.802948544020418,0.0,0.33000001311302185,-0.3100000023841858,-109.23999786376953,0.012939453125,0.023193359375,0.94183349609375,36.720001220703125,0.0,-22.0,1.7042236328125,-1.7482452392578125,Waiting,0.0,0.0,3.0,0.0,0.0,0.0,0.0,0.125,
4.3272699999999995,0.0,0.0,88939.0,0.125,465.0,429.54249080416946,0.0,0.25,0.664062432,4.766477385014434,0.0,-158334.0,0.625,-465.0,-429.54249080416946,0.0,0.0,0.346679652,4.796937027213962,0.0,14992.0,2.375,480.0,429.54249080416946,0.0,0.0,3.177489909,4.774352496035848,0.0,-33179.0,0.625,-420.0,-429.54249080416946,0.0,0.125,1.458740085,4.7913609576847485,0.0,0.33000001311302185,-0.30000001192092896,-109.30999755859375,-0.00439453125,0.0169677734375,1.057373046875,36.709999084472656,0.0,-10.0,1.7042236328125,-1.7481536865234375,Waiting,0.0,0.0,3.0,0.0,0.0,0.0,0.0,0.0,
4.391740999999999,0.0,0.0,88939.0,0.375,472.5,429.54249080416946,0.0,0.25,0.662841729,4.766477385014434,0.0,-158407.0,0.625,-450.0,-429.54249080416946,0.0,0.125,0.34912105800000004,4.796937027213962,0.0,14992.0,2.125,487.5,429.54249080416946,0.0,0.0,3.176269206,4.774352496035848,0.0,-33251.0,0.75,-457.5,-429.54249080416946,0.0,0.125,1.457519382,4.7913609576847485,0.0,0.3799999952316284,-0.3199999928474426,-109.48999786376953,-0.04754638671875,0.01116943359375,0.95074462890625,36.709999084472656,0.0,9.0,1.70416259765625,-1.7481689453125,Waiting,0.0,0.0,3.0,0.0,0.0,0.0,0.0,0.0,
4.453927,0.0,0.0,89011.0,0.125,465.0,429.54249080416946,0.0,0.25,0.662841729,4.766477385014434,0.0,-158407.0,0.625,-450.0,-429.54249080416946,0.0,0.125,0.34912105800000004,4.796937027213962,0.0,15069.0,2.25,472.5,429.54249080416946,0.0,0.0,3.177489909,4.774352496035848,0.0,-33251.0,0.625,-412.5,-429.54249080416946,0.0,0.125,1.458740085,4.7913609576847485,0.0,0.3799999952316284,-0.33000001311302185,-109.58000183105469,-0.0191650390625,-0.024658203125,0.96905517578125,36.709999084472656,0.0,33.0,1.7039642333984375,-1.7485504150390625,Waiting,0.0,0.0,3.0,0.0,0.0,0.0,0.0,0.0,
4.528236,0.0,0.0,89011.0,0.375,442.5,429.54249080416946,0.0,0.25,0.664062432,4.766477385014434,-0.0012207030000004337,-158477.0,0.625,-435.0,-429.54249080416946,0.0,0.125,0.364990197,4.796937027213962,0.0,15143.0,2.125,465.0,429.54249080416946,0.0,0.0,3.178710612,4.774352496035848,0.0,-33320.0,0.625,-450.0,-429.54249080416946,0.0,0.125,1.458740085,4.7913609576847485,0.0,0.3700000047683716,-0.33000001311302185,-109.69000244140625,-0.02691650390625,0.0218505859375,1.1312255859375,36.709999084472656,0.0,-19.0,1.7039337158203125,-1.7483978271484375,Waiting,0.0,0.0,3.0,0.0,0.0,0.0,0.0,0.0,
4.595751999999999,0.0,0.0,89084.0,0.375,450.0,429.54249080416946,0.0,0.25,0.664062432,4.766477385014434,0.0,-158477.0,0.625,-435.0,-429.54249080416946,0.0,0.125,0.34912105800000004,4.796937027213962,0.0,15143.0,2.25,457.5,429.54249080416946,0.0,0.0,3.178710612,4.774352496035848,0.0012207030000004337,-33398.0,0.625,-487.5,-429.54249080416946,0.0,0.125,1.459960788,4.7913609576847485,0.0,0.3700000047683716,-0.3799999952316284,-109.8499984741211,-0.038818359375,0.00531005859375,1.14599609375,36.709999084472656,0.0,12.0,1.70391845703125,-1.748443603515625,Waiting,0.0,0.0,3.0,0.0,0.0,0.0,0.0,0.0,
4.653131,0.0,0.0,89084.0,0.375,442.5,428.24059247000696,0.0,0.25,0.664062432,4.778004792092225,0.0012207030000004337,-158546.0,0.75,-427.5,-428.24059247000696,0.0,0.125,0.34912105800000004,4.808538098901216,0.0,15218.0,2.0,465.0,428.24059247000696,0.0,0.0,3.178710612,4.785898948543459,0.0,-33398.0,0.625,-465.0,-428.24059247000696,0.0,0.125,1.458740085,4.802948544020418,0.0,0.3799999952316284,-0.41999998688697815,-109.9800033569336,-0.03985595703125,0.06158447265625,1.05975341796875,36.709999084472656,0.0,-40.0,1.7038726806640625,-1.7485504150390625,Waiting,0.0,0.0,3.0,0.0,0.0,0.0,0.0,0.0,
4.721651999999999,0.0,0.0,89154.0,0.375,435.0,429.54249080416946,0.0,0.25,0.664062432,4.766477385014434,0.0,-158546.0,0.75,-420.0,-429.54249080416946,0.0,0.0,0.347900355,4.796937027213962,0.0,15218.0,2.25,457.5,429.54249080416946,0.0,0.0,3.178710612,4.774352496035848,-0.0012207030000004337,-33463.0,0.625,-412.5,-429.54249080416946,0.0,0.125,1.457519382,4.7913609576847485,0.0,0.38999998569488525,-0.44999998807907104,-110.02999877929688,-0.01385498046875,-0.0203857421875,1.0975341796875,36.709999084472656,0.0,27.0,1.703765869140625,-1.7489166259765625,Waiting,0.0,0.0,3.0,0.0,0.0,0.0,0.0,0.0,
4.792175,0.0,0.0,89154.0,0.375,435.0,429.54249080416946,0.0,0.25,0.6604003230000001,4.766477385014434,0.0,-158616.0,0.75,-427.5,-429.54249080416946,0.0,0.125,0.347900355,4.796937027213962,0.0,15290.0,2.0,442.5,429.54249080416946,0.0,0.0,3.178710612,4.774352496035848,0.0,-33463.0,0.625,-450.0,-429.54249080416946,0.0,0.125,1.458740085,4.7913609576847485,0.0,0.36000001430511475,-0.41999998688697815,-110.0999984741211,-0.00140380859375,0.04754638671875,0.95233154296875,36.709999084472656,0.0,-40.0,1.7043609619140625,-1.749359130859375,Waiting,0.0,0.0,3.0,0.0,0.0,0.0,0.0,0.0,
4.854506000000001,0.0,0.0,89225.0,0.375,435.0,430.9364451129221,0.0,0.25,0.664062432,4.755022096236761,0.0012207030000004337,-158616.0,0.75,-420.0,-430.9364451129221,0.0,0.125,0.34912105800000004,4.785408534690783,0.0,15290.0,2.125,442.5,430.9364451129221,0.0,0.0,3.178710612,4.762878280981259,0.0,-33535.0,0.625,-442.5,-430.9364451129221,0.0,0.125,1.458740085,4.77984586614547,0.0,0.41999998688697815,-0.41999998688697815,-110.18000030517578,0.02679443359375,-0.03021240234375,1.07470703125,36.7400016784668,0.0,23.0,1.7047271728515625,-1.749420166015625,Waiting,0.0,0.0,3.0,0.0,0.0,0.0,0.0,0.0,
4.9214720000000005,0.0,0.0,89225.0,0.375,435.0,429.54249080416946,0.0,0.25,0.664062432,4.766477385014434,-0.0012207029999995456,-158684.0,0.75,-427.5,-429.54249080416946,0.0,0.125,0.338134731,4.796937027213962,0.0,15362.0,2.0,442.5,429.54249080416946,0.0,0.0,3.178710612,4.774352496035848,-0.0012207030000004337,-33535.0,0.625,-420.0,-429.54249080416946,0.0,0.25,1.458740085,4.7913609576847485,0.0012207029999995456,0.4300000071525574,-0.4699999988079071,-110.25,-0.03411865234375,0.007568359375,1.01446533203125,36.7400016784668,0.0,8.0,1.704925537109375,-1.7496490478515625,Waiting,0.0,0.0,3.0,0.0,0.0,0.0,0.0,0.0,
4.992168,0.0,0.0,89295.0,0.375,435.0,430.9364451129221,0.0,0.25,0.664062432,4.755022096236761,0.0,-158753.0,0.75,-420.0,-430.9364451129221,0.0,0.125,0.34912105800000004,4.785408534690783,0.0,15362.0,2.125,442.5,430.9364451129221,0.0,0.0,3.178710612,4.762878280981259,0.0,-33604.0,0.625,-427.5,-430.9364451129221,0.0,0.125,1.458740085,4.77984586614547,0.0,0.44999998807907104,-0.46000000834465027,-110.31999969482422,0.00341796875,0.0235595703125,1.07989501953125,36.7400016784668,0.0,-18.0,1.704803466796875,-1.7501220703125,Waiting,0.0,0.0,3.0,0.0,0.0,0.0,0.0,0.0,
5.053401999999999,0.0,0.0,89365.0,0.375,435.0,429.54249080416946,0.0,0.25,0.662841729,4.766477385014434,0.0024414059999999793,-158753.0,0.75,-427.5,-429.54249080416946,0.0,0.125,0.347900355,4.796937027213962,0.0,15433.0,2.0,442.5,429.54249080416946,0.0,0.0,3.178710612,4.774352496035848,0.0,-33604.0,0.625,-420.0,-429.54249080416946,0.0,0.25,1.458740085,4.7913609576847485,0.0,0.4399999976158142,-0.46000000834465027,-110.37000274658203,-0.046630859375,0.03411865234375,0.939208984375,36.7400016784668,0.0,-11.0,1.704742431640625,-1.7504730224609375,Waiting,0.0,0.0,3.0,0.0,0.0,0.0,0.0,0.125,
5.119678999999999,0.0,0.0,89365.0,0.375,435.0,429.54249080416946,0.0,0.25,0.664062432,4.766477385014434,0.0,-158821.0,0.75,-427.5,-429.54249080416946,0.0,0.125,0.34912105800000004,4.796937027213962,0.0,15433.0,2.125,435.0,429.54249080416946,0.0,0.0,3.178710612,4.774352496035848,0.0,-33670.0,0.625,-405.0,-429.54249080416946,0.0,0.125,1.459960788,4.7913609576847485,0.0012207029999995456,0.44999998807907104,-0.49000000953674316,-110.44000244140625,0.0042724609375,0.00994873046875,1.0042724609375,36.7400016784668,0.0,-6.0,1.704742431640625,-1.7509765625,Waiting,0.0,0.0,3.0,0.0,0.0,0.0,0.0,0.0,
5.193058,0.0,0.0,89435.0,0.375,427.5,429.54249080416946,0.0,0.25,0.664062432,4.766477385014434,0.0,-158821.0,0.875,-412.5,-429.54249080416946,0.0,0.125,0.34912105800000004,4.796937027213962,0.0,15504.0,2.0,442.5,429.54249080416946,0.0,0.0,3.178710612,4.774352496035848,-0.0012207030000004337,-33735.0,0.75,-405.0,-429.54249080416946,0.0,0.125,1.458740085,4.7913609576847485,0.0,0.4399999976158142,-0.5,-110.55999755859375,-0.06207275390625,0.01922607421875,1.02557373046875,36.7400016784668,0.0,8.0,1.704925537109375,-1.7521209716796875,Waiting,0.0,0.0,3.0,0.0,0.0,0.0,0.0,0.125,
5.254561000000001,0.0,0.0,89435.0,0.375,427.5,430.9364451129221,0.0,0.25,0.664062432,4.755022096236761,0.0,-158887.0,0.875,-412.5,-430.9364451129221,0.0,0.125,0.34912105800000004,4.785408534690783,0.0,15574.0,2.125,435.0,430.9364451129221,0.0,0.0,3.178710612,4.762878280981259,0.0,-33735.0,0.75,-390.0,-430.9364451129221,0.0,0.125,1.458740085,4.77984586614547,0.0,0.44999998807907104,-0.5199999809265137,-110.62000274658203,0.021240234375,0.0433349609375,1.0745849609375,36.7400016784668,0.0,-43.0,1.704986572265625,-1.7525482177734375,Waiting,0.0,0.0,3.0,0.0,0.0,0.0,0.0,0.0,
5.324451,0.0,0.0,89504.0,0.375,427.5,429.54249080416946,0.0,0.25,0.664062432,4.766477385014434,-0.0012207030000004337,-158887.0,0.875,-420.0,-429.54249080416946,0.0,0.125,0.347900355,4.796937027213962,0.0,15574.0,2.0,427.5,429.54249080416946,0.0,0.0,3.178710612,4.774352496035848,0.0012207030000004337,-33801.0,0.75,-405.0,-429.54249080416946,0.0,0.125,1.458740085,4.7913609576847485,0.0,0.4300000071525574,-0.47999998927116394,-110.62000274658203,-0.051025390625,0.0120849609375,1.0274658203125,36.720001220703125,0.0,10.0,1.7049713134765625,-1.7528076171875,Waiting,0.0,0.0,3.0,0.0,0.0,0.0,0.0,0.0,
5.393258999999999,0.0,0.0,89504.0,0.375,427.5,429.54249080416946,0.0,0.25,0.662841729,4.766477385014434,0.0,-158954.0,1.0,-412.5,-429.54249080416946,0.0,0.125,0.34912105800000004,4.796937027213962,0.0,15642.0,2.125,427.5,429.54249080416946,0.0,0.0,3.178710612,4.774352496035848,-0.0012207030000004337,-33801.0,0.75,-420.0,-429.54249080416946,0.0,0.125,1.458740085,4.7913609576847485,0.0,0.4699999988079071,-0.47999998927116394,-110.62000274658203,-0.028076171875,0.02178955078125,0.96044921875,36.720001220703125,0.0,-5.0,1.7049713134765625,-1.7529296875,Waiting,0.0,0.0,3.0,0.0,0.0,0.0,0.0,0.0,
5.453689,0.0,0.0,89573.0,0.375,427.5,429.54249080416946,0.0,0.25,0.664062432,4.766477385014434,0.0,-158954.0,1.0,-420.0,-429.54249080416946,0.0,0.125,0.347900355,4.796937027213962,0.0,15642.0,2.0,427.5,429.54249080416946,0.0,0.0,3.176269206,4.774352496035848,0.0,-33870.0,0.75,-420.0,-429.54249080416946,0.0,0.125,1.458740085,4.7913609576847485,0.0,0.47999998927116394,-0.4699999988079071,-110.62999725341797,-0.00531005859375,0.01361083984375,1.0030517578125,36.720001220703125,0.0,-5.0,1.7048187255859375,-1.7532196044921875,Waiting,0.0,0.0,3.0,0.0,0.0,0.0,0.0,0.0,
5.523767,0.0,0.0,89573.0,0.375,427.5,428.24059247000696,0.0,0.25,0.664062432,4.778004792092225,0.0012207030000004337,-159021.0,1.0,-412.5,-428.24059247000696,0.0,0.125,0.34912105800000004,4.808538098901216,0.0,15712.0,2.0,435.0,428.24059247000696,0.0,0.0,3.178710612,4.785898948543459,0.0,-33870.0,0.75,-412.5,-428.24059247000696,0.0,0.125,1.459960788,4.802948544020418,0.0,0.4699999988079071,-0.4699999988079071,-110.68000030517578,-0.02508544921875,-0.01885986328125,0.99285888671875,36.720001220703125,0.0,31.0,1.7049407958984375,-1.753448486328125,Waiting,0.0,0.0,3.0,0.0,0.0,0.0,0.0,0.0,
5.592649000000001,0.0,0.0,89641.0,0.375,427.5,427.0315920690178,0.0,0.25,0.655517511,4.789599983969735,0.0,-159090.0,1.0,-420.0,-427.0315920690178,0.0,0.0,0.34912105800000004,4.820207388559393,0.0,15712.0,1.875,435.0,427.0315920690178,0.0,0.0,3.177489909,4.797513297843942,0.0,-33936.0,0.75,-420.0,-427.0315920690178,0.0,0.125,1.4526365700000001,4.814604269028877,0.0,0.49000000953674316,-0.47999998927116394,-110.69000244140625,-0.034423828125,-0.00396728515625,1.03790283203125,36.720001220703125,0.0,21.0,1.7049560546875,-1.753448486328125,Waiting,0.0,0.0,3.0,0.0,0.0,0.0,0.0,0.125,
5.652274,0.0,0.0,89710.0,0.375,427.5,427.0315920690178,0.0,0.25,0.665283135,4.789599983969735,-0.0012207030000004337,-159090.0,1.0,-420.0,-427.0315920690178,0.0,0.125,0.34912105800000004,4.820207388559393,0.0,15781.0,2.0,427.5,427.0315920690178,0.0,0.0,3.178710612,4.797513297843942,0.0,-33936.0,0.75,-427.5,-427.0315920690178,0.0,0.125,1.4514158670000001,4.814604269028877,-0.0012207029999995456,0.46000000834465027,-0.5099999904632568,-110.69999694824219,0.0545654296875,0.00433349609375,1.07568359375,36.720001220703125,0.0,-18.0,1.7052459716796875,-1.753265380859375,Waiting,0.0,0.0,3.0,0.0,0.0,0.0,0.0,0.0,
5.676865999999999,0.0,0.0,89710.0,0.375,427.5,427.0315920690178,0.0,0.25,0.665283135,4.789599983969735,0.0012207030000004337,-159090.0,0.875,-412.5,-427.0315920690178,0.0,0.125,0.34912105800000004,4.820207388559393,0.0,15781.0,2.0,435.0,427.0315920690178,0.0,0.0,3.178710612,4.797513297843942,0.0,-34003.0,0.75,-420.0,-427.0315920690178,0.0,0.125,1.458740085,4.814604269028877,0.0012207029999995456,0.44999998807907104,-0.49000000953674316,-110.72000122070312,-0.002197265625,0.017822265625,0.94635009765625,36.720001220703125,0.0,-11.0,1.7054595947265625,-1.7530059814453125,Waiting,0.0,0.0,3.0,0.0,0.0,0.0,0.0,0.0,
5.710227,0.0,0.0,89710.0,0.375,420.0,NaN,0.0,0.25,0.665283135,NaN,0.0012207030000004337,-159157.0,0.875,-412.5,NaN,0.0,0.125,0.344238246,NaN,0.0,15781.0,2.0,435.0,NaN,0.0,0.0,3.178710612,NaN,0.0,-34003.0,0.625,-420.0,NaN,0.0,0.125,1.458740085,NaN,0.0012207029999995456,0.46000000834465027,-0.49000000953674316,-110.7300033569336,-0.0189208984375,0.00482177734375,1.0780029296875,36.720001220703125,0.0,7.0,1.705596923828125,-1.752655029296875,Waiting,0.0,0.0,3.0,0.0,0.0,0.0,0.0,0.0,
5.79594,0.0,0.0,89758.0,0.125,330.0,NaN,0.0,0.25,0.664062432,NaN,0.0,-159157.0,0.0,-322.5,NaN,0.0,0.0,0.34912105800000004,NaN,0.0,15850.0,0.375,397.5,NaN,0.0,0.0,3.197021157,NaN,0.013427732999999442,-34003.0,0.375,-352.5,NaN,0.0,0.125,1.458740085,NaN,0.0,0.49000000953674316,-0.6499999761581421,-110.66000366210938,-0.29705810546875,0.16558837890625,0.9744873046875,36.720001220703125,0.0,-46.0,1.7058258056640625,-1.752716064453125,Waiting,0.0,0.0,3.0,0.0,0.0,0.0,0.0,0.0,
5.851953000000001,0.0,0.0,89758.0,0.0,285.0,425.9162806985224,0.0,0.25,0.664062432,4.801258457807891,-0.0012207030000004337,-159200.0,0.0,-240.0,-425.9162806985224,0.0,0.0,0.34912105800000004,4.831940364574527,0.0,15893.0,0.375,307.5,425.9162806985224,0.0,0.0,3.2080074840000004,4.809191033658689,0.0,-34045.0,0.375,-232.5,-425.9162806985224,0.0,0.125,1.463622897,4.826323606363813,0.0012207029999995456,0.5899999737739563,-0.8600000143051147,-110.68000030517578,-0.058349609375,0.0185546875,1.04925537109375,36.709999084472656,0.0,7.0,1.706329345703125,-1.756500244140625,Waiting,0.0,0.0,3.0,0.0,0.0,0.0,0.0,0.0,
5.924002,0.0,0.0,89815.0,0.125,337.5,425.9162806985224,0.0,0.25,0.664062432,4.801258457807891,0.0,-159200.0,0.5,-345.0,-425.9162806985224,0.0,0.0,0.347900355,4.831940364574527,0.0,15893.0,1.5,255.0,425.9162806985224,0.0,0.0,3.194579751,4.809191033658689,0.009765623999999917,-34110.0,0.375,-367.5,-425.9162806985224,0.0,0.125,1.463622897,4.826323606363813,0.0,0.5899999737739563,-1.0,-110.6500015258789,0.007080078125,-0.0140380859375,1.0760498046875,36.709999084472656,0.0,14.0,1.7064208984375,-1.76104736328125,Waiting,0.0,0.0,3.0,0.0,0.0,0.0,0.0,0.0,
5.993918999999999,0.0,0.0,89815.0,0.125,315.0,425.9162806985224,0.0,0.25,0.664062432,4.801258457807891,0.0,-159258.0,0.375,-397.5,-425.9162806985224,0.0,0.125,0.34912105800000004,4.831940364574527,0.0,15940.0,2.25,292.5,425.9162806985224,0.0,0.0,3.187255533,4.809191033658689,-0.014648436000000764,-34110.0,0.375,-412.5,-425.9162806985224,0.0,0.25,1.456298679,4.826323606363813,0.0,0.5799999833106995,-0.9800000190734863,-110.69999694824219,-0.036376953125,0.0072021484375,1.0753173828125,36.709999084472656,0.0,9.0,1.7064666748046875,-1.7657318115234375,Waiting,0.0,0.0,3.0,0.0,0.0,0.0,0.0,0.0,
6.063846000000001,0.0,0.0,89863.0,0.125,285.0,423.9696204936888,0.0,0.25,0.664062432,4.824746445161359,0.0,-159310.0,0.5,-360.0,-423.9696204936888,0.0,0.125,0.34912105800000004,4.855578449291936,0.0,15940.0,2.375,270.0,423.9696204936888,0.0,0.0,3.183593424,4.832717827554839,0.0,-34157.0,0.625,-300.0,-423.9696204936888,0.0,0.25,1.463622897,4.849934213629845,0.0,0.5299999713897705,-1.0,-110.69999694824219,-0.02398681640625,-0.00689697265625,1.07666015625,36.709999084472656,0.0,17.0,1.7069091796875,-1.7711944580078125,Waiting,0.0,0.0,3.0,0.0,0.0,0.0,0.0,0.0,
6.136080999999999,0.0,0.0,89919.0,0.375,315.0,425.9162806985224,0.0,0.25,0.643310481,4.801258457807891,0.0,-159310.0,1.125,-285.0,-425.9162806985224,0.0,0.25,0.35400387,4.831940364574527,0.0,15981.0,2.875,255.0,425.9162806985224,0.0,0.0,3.183593424,4.809191033658689,-0.0012207030000004337,-34157.0,0.75,-307.5,-425.9162806985224,0.0,0.25,1.463622897,4.826323606363813,0.0,0.49000000953674316,-0.8799999952316284,-110.70999908447266,0.01715087890625,0.02740478515625,0.97454833984375,36.709999084472656,0.0,-29.0,1.706878662109375,-1.7762298583984375,Waiting,0.0,0.0,3.0,0.0,0.0,0.0,0.0,0.0,
6.194319,0.0,0.0,89919.0,0.375,367.5,423.9696204936888,0.0,0.125,0.664062432,4.824746445161359,0.0,-159359.0,1.25,-300.0,-423.9696204936888,0.0,0.125,0.37475582100000004,4.855578449291936,0.009765623999999917,15981.0,3.25,270.0,423.9696204936888,0.0,0.0,3.192138345,4.832717827554839,0.004882811999999959,-34208.0,1.0,-315.0,-423.9696204936888,0.0,0.125,1.4782713330000001,4.849934213629845,0.008544921000000372,0.49000000953674316,-0.8199999928474426,-110.7300033569336,0.01995849609375,0.02044677734375,0.9737548828125,36.709999084472656,0.0,-23.0,1.706756591796875,-1.779266357421875,Waiting,0.0,0.0,3.0,0.0,0.0,0.0,0.0,0.0,
6.212647,0.0,0.0,89919.0,0.375,375.0,424.8953961344487,0.0,0.125,0.664062432,4.812975549907741,0.0,-159359.0,1.25,-300.0,-424.8953961344487,0.0,0.125,0.36254879100000004,4.84373233344482,0.009765623999999917,16012.0,3.125,255.0,424.8953961344487,0.0,0.0,3.193359048,4.82092748458345,0.004882811999999959,-34208.0,1.0,-315.0,-424.8953961344487,0.0,0.125,1.490478363,4.838101867979261,0.008544921000000372,0.47999998927116394,-0.8100000023841858,-110.73999786376953,-0.0478515625,0.0223388671875,1.00555419921875,36.709999084472656,0.0,-1.0,1.70672607421875,-1.779998779296875,Waiting,0.0,0.0,3.0,0.0,0.0,0.0,0.0,0.0,
6.232689,0.0,0.0,89919.0,0.375,367.5,424.8953961344487,0.0,0.125,0.662841729,4.812975549907741,0.0,-159359.0,1.25,-307.5,-424.8953961344487,0.0,0.125,0.363769494,4.84373233344482,0.009765623999999917,16012.0,3.25,225.0,424.8953961344487,0.0,0.0,3.188476236,4.82092748458345,0.006103515000000392,-34208.0,1.0,-300.0,-424.8953961344487,0.0,0.125,1.483154145,4.838101867979261,0.010986326999999463,0.4699999988079071,-0.8299999833106995,-110.75,-0.0531005859375,0.03277587890625,1.0262451171875,36.709999084472656,0.0,-9.0,1.706695556640625,-1.780792236328125,Waiting,0.0,0.0,3.0,0.0,0.0,0.0,0.0,0.0,
6.260161999999999,0.0,0.0,89974.0,0.375,360.0,NaN,0.0,0.25,0.664062432,NaN,0.0,-159359.0,1.375,-307.5,NaN,0.0,0.125,0.363769494,NaN,0.0,16012.0,3.5,187.5,NaN,0.0,0.0,3.201903969,NaN,0.006103515000000392,-34208.0,1.0,-285.0,NaN,0.0,0.125,1.483154145,NaN,0.010986326999999463,0.4699999988079071,-0.7699999809265137,-110.73999786376953,0.06866455078125,0.00140380859375,1.013671875,36.709999084472656,0.0,-22.0,1.7066650390625,-1.78228759765625,Waiting,0.0,0.0,3.0,0.0,0.0,0.0,0.0,0.0,
6.327088999999999,0.0,0.0,89974.0,0.125,232.5,NaN,0.0,0.25,0.662841729,NaN,0.0,-159399.0,0.125,-247.5,NaN,0.0,0.0,0.36254879100000004,NaN,0.0,16058.0,1.25,255.0,NaN,0.0,0.0,3.19824186,NaN,-0.0012207030000004337,-34255.0,0.375,-277.5,NaN,0.0,0.125,1.483154145,NaN,0.0012207029999995456,0.49000000953674316,-0.7699999809265137,-110.79000091552734,-0.05853271484375,0.041015625,1.096923828125,36.709999084472656,0.0,-14.0,1.7065277099609375,-1.7849884033203125,Waiting,0.0,0.0,3.0,0.0,0.0,0.0,0.0,0.125,
6.387659,0.0,0.0,90001.0,0.125,142.5,NaN,0.0,0.25,0.668945244,NaN,0.0,-159399.0,0.125,-127.5,NaN,0.0,0.0,0.36254879100000004,NaN,0.0,16058.0,0.875,262.5,NaN,0.0,0.0,3.2031246720000004,NaN,0.0,-34255.0,0.375,-187.5,NaN,0.0,0.125,1.483154145,NaN,0.0,0.46000000834465027,-0.9200000166893005,-110.7699966430664,-0.05560302734375,7.32421875E-4,0.88165283203125,36.720001220703125,0.0,20.0,1.7066802978515625,-1.789215087890625,Waiting,0.0,0.0,3.0,0.0,0.0,0.0,0.0,0.0,
6.4590309999999995,0.0,0.0,90001.0,0.0,262.5,423.139578035428,0.0,0.125,0.664062432,4.836566187440436,0.003662109000000413,-159432.0,0.0,-225.0,-423.139578035428,0.0,0.0,0.363769494,4.867473724315979,0.0,16086.0,0.75,210.0,423.139578035428,0.0,0.0,3.2080074840000004,4.844557098256096,0.0,-34280.0,0.375,-157.5,-423.139578035428,0.0,0.125,1.484374848,4.861815661313603,0.0,0.49000000953674316,-1.0800000429153442,-110.81999969482422,-0.09033203125,-0.00347900390625,1.0469970703125,36.720001220703125,0.0,36.0,1.7067718505859375,-1.794677734375,Waiting,0.0,0.0,3.0,0.0,0.0,0.0,0.0,0.0,
6.5157560000000005,0.0,0.0,90041.0,0.125,232.5,423.139578035428,0.0,0.25,0.664062432,4.836566187440436,-0.0024414059999999793,-159432.0,0.625,-262.5,-423.139578035428,0.0,0.0,0.36254879100000004,4.867473724315979,0.0,16086.0,3.25,82.5,423.139578035428,0.0,0.0,3.199462563,4.844557098256096,0.009765624000000805,-34324.0,0.75,-232.5,-423.139578035428,0.0,0.125,1.483154145,4.861815661313603,0.0,0.47999998927116394,-1.059999942779541,-110.83999633789062,-0.00811767578125,-0.03814697265625,0.9210205078125,36.720001220703125,0.0,39.0,1.7068328857421875,-1.7985687255859375,Waiting,0.0,0.0,3.0,0.0,0.0,0.0,0.0,0.0,
6.591727,0.0,0.0,90041.0,0.375,292.5,422.40583311735,0.0,0.25,0.6726073530000001,4.848429690877773,0.0,-159486.0,0.75,-360.0,-422.40583311735,0.0,0.25,0.36254879100000004,4.8794130401490845,0.0,16104.0,5.0,82.5,422.40583311735,0.0,0.0,3.2031246720000004,4.856440202417223,0.0012207030000004337,-34324.0,0.625,-322.5,-422.40583311735,0.0,0.25,1.488036957,4.873741098612378,-0.0012207029999995456,0.44999998807907104,-0.9700000286102295,-110.88999938964844,0.0228271484375,0.0052490234375,1.064208984375,36.720001220703125,0.0,-11.0,1.70703125,-1.8043212890625,Waiting,0.0,0.0,3.0,0.0,0.0,0.0,0.0,0.0,
6.654012,0.0,0.0,90093.0,0.125,315.0,421.768888321851,0.0,0.25,0.693359304,4.860331751986741,0.004882811999999959,-159486.0,0.875,-247.5,-421.768888321851,0.0,0.25,0.38208003900000004,4.891391160052322,0.0,16104.0,5.5,202.5,421.768888321851,0.0,0.0,3.2080074840000004,4.8683619279544565,0.0,-34369.0,1.0,-307.5,-421.768888321851,0.0,0.25,1.518554532,4.885705294874543,0.0,0.46000000834465027,-0.8700000047683716,-110.9000015258789,-0.0135498046875,0.02362060546875,1.0108642578125,36.720001220703125,0.0,-15.0,1.706817626953125,-1.80816650390625,Waiting,0.0,0.0,3.0,0.0,0.0,0.0,0.0,0.0,
6.723447999999999,0.0,0.0,90093.0,0.375,300.0,422.40583311735,0.0,0.25,0.706787037,4.848429690877773,0.02075195100000027,-159524.0,1.625,-270.0,-422.40583311735,0.0,0.25,0.406494099,4.8794130401490845,0.014648435999999876,16147.0,4.875,270.0,422.40583311735,0.0,0.125,3.2226559200000002,4.856440202417223,0.008544921000000372,-34369.0,1.25,-225.0,-422.40583311735,0.0,0.25,1.514892423,4.873741098612378,0.019531247999999835,0.4300000071525574,-0.7200000286102295,-110.95999908447266,0.03594970703125,-0.00311279296875,1.02056884765625,36.720001220703125,0.0,-7.0,1.706512451171875,-1.812103271484375,Waiting,0.0,0.0,3.0,0.0,0.0,0.0,0.0,0.0,
6.787521,0.0,0.0,90140.0,0.5,292.5,422.40583311735,0.0,0.125,0.7104491460000001,4.848429690877773,0.0,-159572.0,1.75,-292.5,-422.40583311735,0.0,0.125,0.42114253500000004,4.8794130401490845,0.01831054500000029,16147.0,4.5,285.0,422.40583311735,0.0,0.0,3.236083653,4.856440202417223,0.0183105449999994,-34420.0,1.375,-315.0,-422.40583311735,0.0,0.25,1.536865077,4.873741098612378,0.019531248000000723,0.41999998688697815,-0.6200000047683716,-111.01000213623047,0.05718994140625,0.061767578125,1.0291748046875,36.720001220703125,0.0,-75.0,1.70611572265625,-1.81427001953125,Waiting,0.0,0.0,3.0,0.0,0.0,0.0,0.0,0.0,
6.855069,0.0,0.0,90193.0,0.375,322.5,421.768888321851,0.0,0.25,0.7116698490000001,4.860331751986741,0.004882811999999959,-159572.0,1.75,-307.5,-421.768888321851,0.0,0.0,0.42114253500000004,4.891391160052322,0.0,16198.0,5.125,330.0,421.768888321851,0.0,0.0,3.236083653,4.8683619279544565,0.0,-34420.0,1.375,-330.0,-421.768888321851,0.0,0.125,1.535644374,4.885705294874543,0.0,0.41999998688697815,-0.47999998927116394,-111.02999877929688,0.03277587890625,0.01715087890625,1.00244140625,36.720001220703125,0.0,-23.0,1.70458984375,-1.8155059814453125,Waiting,0.0,0.0,3.0,0.0,0.0,0.0,0.0,0.0,
6.924422,0.0,0.0,90193.0,0.5,345.0,422.40583311735,0.0,0.25,0.7116698490000001,4.848429690877773,-0.0012207030000004337,-159629.0,1.625,-345.0,-422.40583311735,0.0,0.125,0.42114253500000004,4.8794130401490845,0.004882811999999959,16198.0,4.625,367.5,422.40583311735,0.0,0.0,3.236083653,4.856440202417223,0.0012207030000004337,-34469.0,1.375,-292.5,-422.40583311735,0.0,0.125,1.535644374,4.873741098612378,-0.0012207030000004337,0.3799999952316284,-0.3700000047683716,-111.11000061035156,0.02850341796875,0.00335693359375,0.9993896484375,36.720001220703125,0.0,-9.0,1.703369140625,-1.815460205078125,Waiting,0.0,0.0,3.0,0.0,0.0,0.0,0.0,0.0,
6.990111,0.0,0.0,90254.0,0.375,375.0,422.40583311735,0.0,0.25,0.7116698490000001,4.848429690877773,0.0,-159629.0,1.625,-367.5,-422.40583311735,0.0,0.0,0.42236323800000003,4.8794130401490845,0.0,16260.0,4.875,367.5,422.40583311735,0.0,0.0,3.237304356,4.856440202417223,0.0,-34469.0,1.875,-292.5,-422.40583311735,0.0,0.125,1.535644374,4.873741098612378,0.0,0.3799999952316284,-0.3100000023841858,-111.12999725341797,-0.01763916015625,0.08001708984375,1.03912353515625,36.720001220703125,0.0,-63.0,1.703216552734375,-1.8147125244140625,Waiting,0.0,0.0,3.0,0.0,0.0,0.0,0.0,0.0,
7.058241999999999,0.0,0.0,90254.0,0.375,397.5,421.768888321851,0.0,0.25,0.7116698490000001,4.860331751986741,0.0012207030000004337,-159693.0,1.375,-405.0,-421.768888321851,0.0,0.0,0.419921832,4.891391160052322,0.0,16279.0,6.0,127.5,421.768888321851,0.0,0.0,3.236083653,4.8683619279544565,0.0,-34535.0,1.625,-442.5,-421.768888321851,0.0,0.125,1.535644374,4.885705294874543,0.0,0.3799999952316284,-0.18000000715255737,-111.20999908447266,0.02325439453125,0.00958251953125,1.0478515625,36.720001220703125,0.0,-11.0,1.7027435302734375,-1.81329345703125,Waiting,0.0,0.0,3.0,0.0,0.0,0.0,0.0,0.0,
7.124299,0.0,0.0,90320.0,0.375,412.5,422.40583311735,0.0,0.25,0.7116698490000001,4.848429690877773,0.0012207030000004337,-159693.0,1.25,-420.0,-422.40583311735,0.0,0.125,0.42114253500000004,4.8794130401490845,0.0,16279.0,9.0,90.0,422.40583311735,0.0,0.0,3.237304356,4.856440202417223,0.0,-34581.0,1.875,-285.0,-422.40583311735,0.0,0.125,1.533202968,4.873741098612378,0.0,0.3799999952316284,-0.14000000059604645,-111.36000061035156,0.035888671875,-0.03582763671875,0.89166259765625,36.720001220703125,0.0,24.0,1.70269775390625,-1.811737060546875,Waiting,0.0,0.0,3.0,0.0,0.0,0.0,0.0,0.0,
7.187035000000001,0.0,0.0,90320.0,0.375,435.0,422.40583311735,0.0,0.25,0.7116698490000001,4.848429690877773,0.0,-159761.0,1.0,-427.5,-422.40583311735,0.0,0.0,0.419921832,4.8794130401490845,0.0,16330.0,8.5,300.0,422.40583311735,0.0,0.0,3.236083653,4.856440202417223,0.0,-34581.0,1.875,-397.5,-422.40583311735,0.0,0.125,1.535644374,4.873741098612378,0.0,0.4099999964237213,-0.019999999552965164,-111.4800033569336,0.0677490234375,0.01519775390625,1.0494384765625,36.720001220703125,0.0,-32.0,1.702423095703125,-1.8094024658203125,Waiting,0.0,0.0,3.0,0.0,0.0,0.0,0.0,0.0,
7.257664,0.0,0.0,90390.0,0.375,427.5,421.768888321851,0.0,0.25,0.709228443,4.860331751986741,0.0,-159836.0,0.875,-465.0,-421.768888321851,0.0,0.0,0.42846675300000003,4.891391160052322,0.0,16330.0,6.75,480.0,421.768888321851,0.0,0.0,3.237304356,4.8683619279544565,0.0,-34654.0,1.375,-427.5,-421.768888321851,0.0,0.125,1.536865077,4.885705294874543,0.0,0.4000000059604645,-0.019999999552965164,-111.62000274658203,-0.037109375,-0.01031494140625,0.97930908203125,36.720001220703125,0.0,29.0,1.70159912109375,-1.8057098388671875,Waiting,0.0,0.0,3.0,0.0,0.0,0.0,0.0,0.125,
7.330266000000001,0.0,0.0,90460.0,0.125,427.5,422.40583311735,0.0,0.25,0.7116698490000001,4.848429690877773,0.0012207030000004337,-159836.0,0.625,-472.5,-422.40583311735,0.0,0.125,0.42114253500000004,4.8794130401490845,-0.0012207030000004337,16409.0,5.25,495.0,422.40583311735,0.0,0.0,3.237304356,4.856440202417223,0.0,-34654.0,1.25,-472.5,-422.40583311735,0.0,0.125,1.535644374,4.873741098612378,0.0012207030000004337,0.3700000047683716,-0.07000000029802322,-111.7300033569336,-0.00958251953125,0.02069091796875,1.04290771484375,36.720001220703125,0.0,-9.0,1.701385498046875,-1.802032470703125,Waiting,0.0,0.0,3.0,0.0,0.0,0.0,0.0,0.0,
