Time,ClimberA1,ClimberA2,FRpos,FRCurrent,FRspeed,FRsetpoint,FRApos,FRACurrent,FREncpos,FREncSetpoint,FREncSpeed,FLpos,FLCurrent,FLspeed,FLsetpoint,FLApos,FLACurrent,FLEncpos,FLEncSetpoint,FLEncSpeed,BRpos,BRCurrent,BRspeed,BRsetpoint,BRApos,BRACurrent,BREncpos,BREncSetpoint,BREncSpeed,BLpos,BLCurrent,BLspeed,BLsetpoint,BLApos,BLACurrent,BLEncpos,BLEncSetpoint,BLEncSpeed,navx_Pitch,navx_Roll,navx_Yaw,navx_XAcc,navx_YAcc,navx_ZAcc,navx_Temp,navx_Bar,navx_Alt,navx_XDis,navx_YDis,GearPlacerState,ShootOutputV,ShootOutputCurrent,ShootEncPos,ShootEncVelocity,ShootSpeed,ShootSetpoint,CarouselSetpoint,CarouselCurrent,
0.4436710000000021,0.0,0.0,16487.0,0.0,0.0,0.0,0.0,0.125,1.365966657,0.01,0.0,-18215.0,0.0,0.0,0.0,0.0,0.125,2.415771237,0.01,0.0,-4219.0,0.0,0.0,0.0,0.0,0.0,2.779540731,0.01,0.0,-20081.0,0.0,0.0,0.0,0.0,0.125,4.628905776,0.01,0.0,0.14000000059604645,-0.6399999856948853,3.3499999046325684,-0.0118408203125,0.00299072265625,1.02203369140625,33.349998474121094,0.0,0.0,4.12677001953125,-0.811065673828125,Waiting,0.0,0.0,1.0,0.0,0.0,0.0,0.0,0.0,
0.6554400000000024,0.0,0.0,16487.0,0.0,0.0,0.0,0.0,1.0,1.0864256700000001,0.01,0.0,-18213.0,0.0,7.5,-0.0,0.0,2.625,1.7895505980000002,0.01,0.0,-4219.0,0.0,-7.5,0.0,0.0,1.375,3.1530758490000004,0.01,0.0,-20081.0,0.0,0.0,-0.0,0.0,2.0,0.31616207700000004,0.01,0.0,0.20000000298023224,-0.7400000095367432,3.2799999713897705,-0.0496826171875,0.06634521484375,1.13006591796875,33.349998474121094,0.0,-31.0,4.1267547607421875,-0.8108978271484375,Closing,0.0,0.0,1.0,0.0,0.0,0.0,0.0,0.0,
0.7869550000000017,0.0,0.0,16487.0,0.0,0.0,0.0,0.0,0.25,0.7226561760000001,0.01,0.0,-18212.0,0.0,0.0,-0.0,0.0,1.5,0.8532713970000001,0.01,0.0,-4236.0,0.125,-75.0,0.0,0.0,0.25,3.487548471,0.01,0.0,-20095.0,0.125,-90.0,-0.0,0.0,1.5,1.275634635,0.01,0.0,0.15000000596046448,-0.7200000286102295,3.3399999141693115,0.01312255859375,-0.0064697265625,1.000732421875,33.349998474121094,0.0,25.0,4.1264801025390625,-0.8101654052734375,Closing,0.0,0.0,1.0,0.0,0.0,0.0,0.0,0.0,
0.8144000000000015,0.0,0.0,16487.0,0.0,0.0,0.0,0.0,0.375,0.689697195,0.01,4.600219784,-18212.0,0.0,0.0,-0.0,0.0,1.5,0.589599549,0.01,-0.9887694300000005,-4236.0,0.125,-67.5,0.0,0.0,0.375,3.5156246400000004,0.01,-4.620575814,-20095.0,0.125,-90.0,-0.0,0.0,1.5,1.533202968,0.01,1.007079975,0.15000000596046448,-0.6700000166893005,3.5399999618530273,0.0086669921875,1.220703125E-4,1.0504150390625,33.349998474121094,0.0,20.0,4.1265869140625,-0.810028076171875,Closing,0.0,0.0,1.0,0.0,0.0,0.0,0.0,0.0,
0.8573249999999971,0.0,0.0,16487.0,0.0,0.0,0.0,0.0,0.375,0.6982421160000001,0.01,-0.026855465999999772,-18207.0,0.0,22.5,-0.0,0.0,0.5,0.49194330900000005,0.01,-0.20751951000000002,-4236.0,0.125,-37.5,0.0,0.0,0.25,3.487548471,0.01,0.01953124800000028,-20106.0,0.125,-75.0,-0.0,0.0,0.625,1.639404129,0.01,0.2160644310000004,0.11999999731779099,-0.6299999952316284,3.5799999237060547,0.0052490234375,-0.02423095703125,0.98333740234375,33.31999969482422,0.0,14.0,4.1268768310546875,-0.8100738525390625,Closing,0.0,0.0,1.0,0.0,0.0,0.0,0.0,0.0,
0.9080780000000014,0.0,0.0,16486.0,0.0,-7.5,0.0,0.0,0.25,0.7629393750000001,0.01,0.048828119999999586,-18207.0,0.0,22.5,-0.0,0.0,0.25,0.47851557600000005,0.01,-0.06713866499999988,-4237.0,0.125,-7.5,0.0,0.0,0.125,3.410644182,0.01,-0.05371093200000043,-20106.0,0.125,-30.0,-0.0,0.0,0.25,1.649169753,0.01,-4.876212899,0.10000000149011612,-0.5899999737739563,3.490000009536743,-0.00732421875,0.01458740234375,0.97796630859375,33.31999969482422,0.0,3.0,4.127410888671875,-0.8102264404296875,Closing,0.0,0.0,1.0,0.0,0.0,0.0,0.0,0.0,
0.963563000000002,0.0,0.0,16486.0,0.0,0.0,0.0,0.0,0.375,0.8056639800000001,0.01,0.05737304099999996,-18207.0,0.0,7.5,-0.0,0.0,0.0,0.49438471500000003,0.01,0.006103515000000392,-4237.0,0.125,0.0,0.0,0.0,0.125,3.402099261,0.01,-0.06225585299999992,-20106.0,0.125,0.0,-0.0,0.0,0.25,1.6296385050000002,0.01,-0.004882811999999959,0.12999999523162842,-0.5899999737739563,3.490000009536743,-0.0272216796875,0.01983642578125,1.02618408203125,33.31999969482422,0.0,-15.0,4.127410888671875,-0.8102264404296875,Closing,0.0,0.0,1.0,0.0,0.0,0.0,0.0,0.0,
0.9898349999999991,0.0,0.0,16486.0,0.0,0.0,0.0,0.0,0.25,0.822753822,0.01,0.05737304099999996,-18207.0,0.0,0.0,-0.0,0.0,0.0,0.498046824,0.01,0.006103515000000392,-4237.0,0.125,0.0,0.0,0.0,0.125,3.391112934,0.01,-0.06225585299999992,-20106.0,0.125,0.0,-0.0,0.0,0.25,1.6101072570000001,0.01,-0.004882811999999959,0.14000000059604645,-0.6100000143051147,3.490000009536743,-0.02239990234375,0.0111083984375,1.02813720703125,33.31999969482422,0.0,-10.0,4.127410888671875,-0.8102264404296875,Closing,0.0,0.0,1.0,0.0,0.0,0.0,0.0,0.0,
1.016701000000001,0.0,0.0,16486.0,0.0,0.0,0.0,0.0,0.25,0.8276366340000001,0.01,-4.895629909999999,-18207.0,0.0,0.0,-0.0,0.0,0.0,0.51269526,0.01,0.019531247999999835,-4237.0,0.125,0.0,0.0,0.0,0.125,3.386230122,0.01,-0.009765623999999917,-20106.0,0.125,0.0,-0.0,0.0,0.25,1.5783689790000002,0.01,4.9238203160000005,0.12999999523162842,-0.6399999856948853,3.5,-0.02734375,-0.01031494140625,1.03009033203125,33.31999969482422,0.0,-16.0,4.127410888671875,-0.8102264404296875,Closing,0.0,0.0,1.0,0.0,0.0,0.0,0.0,0.0,
1.0712649999999995,0.0,0.0,16486.0,0.0,0.0,0.0,0.0,0.125,0.8276366340000001,0.01,0.004882811999999959,-18207.0,0.0,0.0,-0.0,0.0,0.0,0.5175780720000001,0.01,0.01342773300000033,-4237.0,0.125,0.0,0.0,0.0,0.125,3.386230122,0.01,-0.004882811999999959,-20106.0,0.125,0.0,-0.0,0.0,0.25,1.56249984,0.01,-0.03906249600000056,0.11999999731779099,-0.6499999761581421,3.490000009536743,-0.01904296875,0.00927734375,1.0054931640625,33.31999969482422,0.0,-7.0,4.127410888671875,-0.8102264404296875,Closing,0.0,0.0,1.0,0.0,0.0,0.0,0.0,0.0,
1.103110999999997,0.0,0.0,16486.0,0.0,0.0,0.0,0.0,0.125,0.8276366340000001,0.01,0.004882811999999959,-18207.0,0.0,0.0,-0.0,0.0,0.0,0.518798775,0.01,0.01342773300000033,-4237.0,0.125,0.0,0.0,0.0,0.125,3.386230122,0.01,-0.004882811999999959,-20106.0,0.125,0.0,-0.0,0.0,0.25,1.566161949,0.01,-0.009765623999999917,0.14000000059604645,-0.6499999761581421,3.490000009536743,-0.00836181640625,0.0133056640625,1.03289794921875,33.31999969482422,0.0,4.0,4.127410888671875,-0.8102264404296875,Closing,0.0,0.0,1.0,0.0,0.0,0.0,0.0,0.0,
1.1390109999999987,0.0,0.0,16486.0,0.0,0.0,0.0,0.0,0.125,0.832519446,0.01,0.00366210900000008,-18207.0,0.0,0.0,-0.0,0.0,0.0,0.5163573690000001,0.01,0.0,-4237.0,0.125,0.0,0.0,0.0,0.125,3.385009419,0.01,0.0,-20106.0,0.125,0.0,-0.0,0.0,0.25,1.567382652,0.01,-0.009765623999999917,0.14000000059604645,-0.6499999761581421,3.490000009536743,-0.0087890625,0.00177001953125,1.0223388671875,33.31999969482422,0.0,2.0,4.127410888671875,-0.8102264404296875,Closing,0.0,0.0,1.0,0.0,0.0,0.0,0.0,0.0,
1.2494969999999959,0.0,0.0,16486.0,0.0,0.0,0.0,0.0,0.125,0.832519446,0.01,-0.0012207029999999897,-18207.0,0.0,0.0,-0.0,0.0,0.0,0.5175780720000001,0.01,0.0,-4237.0,0.125,0.0,0.0,0.0,0.125,3.386230122,0.01,0.0,-20106.0,0.125,0.0,-0.0,0.0,0.25,1.5771482760000002,0.01,0.004882811999999959,0.14000000059604645,-0.6399999856948853,3.490000009536743,-0.010986328125,0.00262451171875,1.02484130859375,33.31999969482422,0.0,0.0,4.127410888671875,-0.8102264404296875,Closing,0.0,0.0,1.0,0.0,0.0,0.0,0.0,0.0,
1.2750539999999964,0.0,0.0,16486.0,0.0,0.0,0.0,0.0,0.125,0.832519446,0.01,0.0,-18207.0,0.0,0.0,-0.0,0.0,0.0,0.5175780720000001,0.01,0.0,-4237.0,0.125,0.0,0.0,0.0,0.125,3.386230122,0.01,0.0,-20106.0,0.125,0.0,-0.0,0.0,0.25,1.5771482760000002,0.01,0.004882812000000847,0.12999999523162842,-0.6499999761581421,3.490000009536743,-0.01129150390625,0.00537109375,1.02423095703125,33.31999969482422,0.0,0.0,4.127410888671875,-0.8102264404296875,Closing,0.0,0.0,1.0,0.0,0.0,0.0,0.0,0.0,
1.384300000000003,0.0,0.0,16486.0,0.0,0.0,0.0,0.0,0.125,0.8312987430000001,0.01,0.0,-18207.0,0.0,0.0,-0.0,0.0,0.0,0.518798775,0.01,0.0,-4237.0,0.125,0.0,0.0,0.0,0.125,3.386230122,0.01,0.0,-20106.0,0.125,0.0,-0.0,0.0,0.25,1.5771482760000002,0.01,0.0,0.14000000059604645,-0.6499999761581421,3.490000009536743,-0.01043701171875,0.002685546875,1.02764892578125,33.33000183105469,0.0,1.0,4.127410888671875,-0.8102264404296875,Closing,0.0,0.0,1.0,0.0,0.0,0.0,0.0,0.0,
1.411262999999999,0.0,0.0,16486.0,0.0,0.0,0.0,0.0,0.125,0.832519446,0.01,0.0,-18207.0,0.0,0.0,-0.0,0.0,0.0,0.5175780720000001,0.01,0.0,-4237.0,0.125,0.0,0.0,0.0,0.125,3.386230122,0.01,0.0,-20106.0,0.125,0.0,-0.0,0.0,0.25,1.5771482760000002,0.01,0.0,0.12999999523162842,-0.6499999761581421,3.490000009536743,-0.01031494140625,0.00140380859375,1.0277099609375,33.33000183105469,0.0,1.0,4.127410888671875,-0.8102264404296875,Closing,0.0,0.0,1.0,0.0,0.0,0.0,0.0,0.0,
1.4622710000000005,0.0,0.0,16486.0,0.0,0.0,0.0,0.0,0.125,0.832519446,0.01,0.0,-18207.0,0.0,0.0,-0.0,0.0,0.0,0.5175780720000001,0.01,0.0,-4237.0,0.125,0.0,0.0,0.0,0.125,3.386230122,0.01,0.0,-20106.0,0.125,0.0,-0.0,0.0,0.25,1.5771482760000002,0.01,0.0,0.12999999523162842,-0.6499999761581421,3.490000009536743,-0.01220703125,0.00701904296875,1.0233154296875,33.33000183105469,0.0,0.0,4.127410888671875,-0.8102264404296875,Closing,0.0,0.0,1.0,0.0,0.0,0.0,0.0,0.0,
1.487989999999998,0.0,0.0,16486.0,0.0,0.0,1328.90625,0.0,0.125,0.8276366340000001,0.5498168668524888,-0.0024414059999999793,-18207.0,0.0,0.0,1328.90625,0.0,0.0,0.5175780720000001,4.410439589772222,0.0,-4237.0,0.125,0.0,1328.90625,0.0,0.125,3.386230122,4.389674732977289,0.0,-20106.0,0.125,0.0,1328.90625,0.0,0.25,1.5771482760000002,0.5526872062785588,0.0,0.12999999523162842,-0.6499999761581421,3.5,-0.01373291015625,0.0030517578125,1.02288818359375,33.33000183105469,0.0,-1.0,4.127410888671875,-0.8102264404296875,Closing,0.0,0.0,1.0,0.0,0.0,0.0,0.0,0.0,
1.5214089999999996,0.0,0.0,16486.0,1.625,0.0,2100.0,0.0,0.125,0.8544921000000001,0.5498168668524888,0.0,-18207.0,4.0,15.0,2100.0,0.0,0.5,0.507812448,4.410439589772222,0.0,-4237.0,9.125,0.0,2100.0,0.0,1.125,3.338622705,4.389674732977289,0.0,-20106.0,12.125,30.0,2100.0,0.0,1.25,1.600341633,0.5526872062785588,0.0,0.15000000596046448,-0.5600000023841858,3.369999885559082,-0.13555908203125,0.009033203125,1.11865234375,33.33000183105469,0.0,-123.0,4.1276092529296875,-0.810150146484375,Closing,0.0,0.0,1.0,0.0,0.0,0.0,0.0,0.0,
1.5861889999999985,0.0,0.0,16486.0,19.875,127.5,2100.0,0.0,1.75,0.9570311520000001,0.5498168668524888,0.0,-18157.0,29.875,292.5,2100.0,0.0,2.0,0.334472622,4.410439589772222,0.0,-4237.0,26.5,37.5,2100.0,0.0,1.5,3.177489909,4.389674732977289,0.0,-20065.0,25.25,157.5,2100.0,0.0,2.5,1.774902162,0.5526872062785588,0.0,0.019999999552965164,-0.699999988079071,2.3399999141693115,0.05401611328125,0.086181640625,0.80621337890625,33.33000183105469,0.0,67.0,4.1278076171875,-0.80987548828125,Closing,0.0,0.0,1.0,0.0,0.0,0.0,0.0,0.0,
1.6083899999999993,0.0,0.0,16526.0,23.75,180.0,1214.0625,0.0,0.875,1.024169817,0.5498168668524888,0.12939451800000001,-18157.0,35.75,345.0,1214.0625,0.0,0.5,0.266113254,4.410439589772222,0.0,-4237.0,35.625,90.0,1214.0625,0.0,0.625,3.1140133530000003,4.389674732977289,0.0,-20065.0,25.625,337.5,1214.0625,0.0,0.75,1.9140623040000002,0.5526872062785588,0.0,0.23000000417232513,-0.6700000166893005,1.1799999475479126,0.054931640625,-0.0238037109375,1.042724609375,33.33000183105469,0.0,66.0,4.128448486328125,-0.808990478515625,Closing,0.0,0.0,1.0,0.0,0.0,0.0,0.0,0.0,
1.6588459999999978,0.0,0.0,16526.0,14.0,345.0,0.0,0.0,0.625,1.177978395,0.5498168668524888,0.0,-18157.0,18.0,307.5,0.0,0.0,0.25,0.131835924,4.410439589772222,-0.11108397300000039,-4213.0,27.25,142.5,0.0,0.0,0.75,3.0078121920000003,4.389674732977289,-0.10009764600000004,-20065.0,15.5,442.5,0.0,0.0,0.625,2.03857401,0.5526872062785588,0.15380857800000003,0.23999999463558197,-0.7200000286102295,0.3199999928474426,0.10919189453125,0.0728759765625,1.0517578125,33.33000183105469,0.0,122.0,4.1289520263671875,-0.808563232421875,Closing,0.0,0.0,1.0,0.0,0.0,0.0,0.0,0.0,
1.687811999999998,0.0,0.0,16526.0,4.125,352.5,0.0,0.0,0.5,1.2902830710000002,0.5498168668524888,0.12573240899999993,-18122.0,3.875,262.5,0.0,0.0,0.25,0.042724605,4.410439589772222,-0.08422850699999973,-4213.0,5.875,142.5,0.0,0.0,0.625,2.9296872,4.389674732977289,-0.07202147699999983,-20023.0,3.125,345.0,0.0,0.0,0.375,2.158202904,0.5526872062785588,0.11108397299999995,0.1899999976158142,-0.6399999856948853,-1.1399999856948853,-0.0413818359375,-0.10986328125,1.005615234375,33.33000183105469,0.0,-27.0,4.1309051513671875,-0.8079681396484375,Closing,0.0,0.0,1.0,0.0,0.0,0.0,0.0,0.0,
1.730421000000002,0.0,0.0,16562.0,0.0,300.0,0.0,0.0,0.375,1.337890488,0.5498168668524888,0.10864256700000019,-18122.0,0.0,210.0,0.0,0.0,0.25,0.020751951,4.410439589772222,-0.08422850699999973,-4213.0,0.0,112.5,0.0,0.0,0.375,2.9016110310000003,4.389674732977289,-0.07202147699999983,-20023.0,0.0,142.5,0.0,0.0,0.25,2.200927509,0.5526872062785588,0.11108397299999995,0.09000000357627869,-0.550000011920929,-1.440000057220459,0.08905029296875,-0.03253173828125,0.8828125,33.33000183105469,0.0,98.0,4.1319732666015625,-0.8084259033203125,Closing,0.0,0.0,1.0,0.0,0.0,0.0,0.0,0.0,
1.788599000000002,0.0,0.0,16562.0,0.0,45.0,0.0,0.0,0.25,1.3952635290000002,0.5498168668524888,0.10375975500000001,-18122.0,0.0,37.5,0.0,0.0,0.25,4.946288556,4.410439589772222,-0.0805663980000002,-4202.0,0.0,37.5,0.0,0.0,0.25,2.866210644,4.389674732977289,-0.0744628830000007,-20023.0,0.0,7.5,0.0,0.0,0.125,2.231445084,0.5526872062785588,0.1171874879999999,0.019999999552965164,-0.5600000023841858,-1.3899999856948853,-0.00421142578125,0.02276611328125,1.13134765625,33.33000183105469,0.0,6.0,4.133331298828125,-0.8096771240234375,Closing,0.0,0.0,1.0,0.0,0.0,0.0,0.0,0.0,
1.8126359999999986,0.0,0.0,16562.0,0.0,0.0,0.0,0.0,0.25,1.406249856,0.5498168668524888,0.10375975500000001,-18122.0,0.0,15.0,0.0,0.0,0.25,4.942626447,4.410439589772222,4.908446763,-4202.0,0.0,7.5,0.0,0.0,0.125,2.867431347,4.389674732977289,-0.058593743999999504,-20023.0,0.0,0.0,0.0,0.0,0.25,2.231445084,0.5526872062785588,0.07080077400000029,0.03999999910593033,-0.5600000023841858,-1.0700000524520874,-0.059326171875,0.025390625,1.06646728515625,33.33000183105469,0.0,-49.0,4.1333160400390625,-0.810821533203125,Closing,0.0,0.0,1.0,0.0,0.0,0.0,0.0,0.0,
1.8730509999999996,0.0,0.0,16562.0,0.0,0.0,0.0,0.0,0.25,1.4013670440000001,0.5498168668524888,0.004882811999999959,-18121.0,0.0,0.0,0.0,0.0,0.25,4.945067853,4.410439589772222,0.0,-4202.0,0.0,0.0,0.0,0.0,0.125,2.867431347,4.389674732977289,0.0,-20023.0,0.0,0.0,0.0,0.0,0.125,2.2155759450000003,0.5526872062785588,0.0,0.10000000149011612,-0.5899999737739563,-0.699999988079071,-0.04779052734375,-0.0072021484375,1.01763916015625,33.33000183105469,0.0,-37.0,4.1330718994140625,-0.81158447265625,Closing,0.0,0.0,1.0,0.0,0.0,0.0,0.0,0.0,
1.9182439999999987,0.0,0.0,16562.0,0.0,0.0,0.0,0.0,0.25,1.386718608,0.5498168668524888,-0.009765623999999917,-18121.0,0.0,0.0,0.0,0.0,0.25,4.94384715,4.410439589772222,0.0,-4202.0,0.0,0.0,0.0,0.0,0.125,2.867431347,4.389674732977289,0.0012207029999995456,-20023.0,0.0,0.0,0.0,0.0,0.125,2.192382588,0.5526872062785588,-0.0170898420000003,0.07000000029802322,-0.6200000047683716,-0.4099999964237213,-0.01312255859375,0.00238037109375,1.06964111328125,33.33000183105469,0.0,-1.0,4.132781982421875,-0.81158447265625,Closing,0.0,0.0,1.0,0.0,0.0,0.0,0.0,0.0,
1.9480349999999962,0.0,0.0,16562.0,0.0,0.0,262.5,0.0,0.25,1.381835796,0.5498168668524888,-0.00976562400000014,-18121.0,0.0,0.0,262.5,0.0,0.25,4.946288556,4.410439589772222,0.0,-4202.0,0.125,0.0,262.5,0.0,0.125,2.867431347,4.389674732977289,-0.0012207029999995456,-20023.0,0.0,0.0,262.5,0.0,0.25,2.187499776,0.5526872062785588,-0.020751950999999824,0.05999999865889549,-0.6100000143051147,-0.3700000047683716,0.02880859375,-0.002197265625,1.0191650390625,33.33000183105469,0.0,39.0,4.1328125,-0.81158447265625,Closing,0.0,0.0,1.0,0.0,0.0,0.0,0.0,0.0,
1.981515999999996,0.0,0.0,16562.0,0.125,0.0,1558.59375,0.0,0.125,1.376952984,0.5498168668524888,0.0,-18121.0,1.5,0.0,1558.59375,0.0,0.25,4.948729962000001,4.410439589772222,0.0,-4202.0,0.125,0.0,1558.59375,0.0,0.125,2.867431347,4.389674732977289,0.0,-20023.0,1.125,0.0,1558.59375,0.0,0.25,2.1740720430000002,0.5526872062785588,0.0,0.09000000357627869,-0.5600000023841858,-0.46000000834465027,0.00457763671875,0.041015625,1.04339599609375,33.33000183105469,0.0,14.0,4.133148193359375,-0.811553955078125,Closing,0.0,0.0,1.0,0.0,0.0,0.0,0.0,0.0,
2.0074029999999983,0.0,0.0,16562.0,3.625,0.0,2100.0,0.0,0.125,1.386718608,0.5498168668524888,-0.004882811999999959,-18121.0,7.125,15.0,2100.0,0.0,0.25,4.94384715,4.410439589772222,0.0,-4202.0,3.75,0.0,2100.0,0.0,0.125,2.863769238,4.389674732977289,-0.003662108999999525,-20023.0,5.375,7.5,2100.0,0.0,0.125,2.1728513400000002,0.5526872062785588,-0.009765623999999917,0.15000000596046448,-0.5699999928474426,-0.5299999713897705,0.0545654296875,-0.02294921875,1.139892578125,33.33000183105469,0.0,66.0,4.133331298828125,-0.8115081787109375,Closing,0.0,0.0,1.0,0.0,0.0,0.0,0.0,0.0,
2.0535429999999977,0.0,0.0,16562.0,21.0,127.5,2100.0,0.0,0.125,1.376952984,0.5498168668524888,-0.0012207029999999897,-18121.0,27.25,142.5,2100.0,0.0,0.25,4.94384715,4.410439589772222,0.0,-4202.0,23.5,15.0,2100.0,0.0,0.125,2.823486039,4.389674732977289,-0.008544921000000372,-20023.0,24.125,187.5,2100.0,0.0,0.125,2.180175558,0.5526872062785588,0.0,0.3100000023841858,-0.6100000143051147,-2.4700000286102295,0.102783203125,0.1087646484375,1.0799560546875,33.33000183105469,0.0,109.0,4.133453369140625,-0.811553955078125,Closing,0.0,0.0,1.0,0.0,0.0,0.0,0.0,0.0,
2.081027000000002,0.0,0.0,16618.0,23.125,210.0,0.0,0.0,0.125,1.376952984,0.5498168668524888,0.0,-18062.0,33.0,360.0,0.0,0.0,0.25,4.94384715,4.410439589772222,0.0,-4202.0,20.125,52.5,0.0,0.0,0.125,2.8039547910000002,4.389674732977289,0.0,-19975.0,17.125,405.0,0.0,0.0,0.125,2.159423607,0.5526872062785588,0.0,0.3400000035762787,-0.49000000953674316,-4.380000114440918,0.0340576171875,0.0181884765625,1.16192626953125,33.33000183105469,0.0,29.0,4.134429931640625,-0.8111572265625,Closing,0.0,0.0,1.0,0.0,0.0,0.0,0.0,0.0,
2.1280769999999976,0.0,0.0,16618.0,10.375,427.5,0.0,0.0,0.125,1.376952984,0.5498168668524888,0.0,-18062.0,11.375,540.0,0.0,0.0,0.125,4.893798327,4.410439589772222,-0.01586913899999942,-4186.0,11.0,82.5,0.0,0.0,0.0,2.7978512760000003,4.389674732977289,-0.053710931999999545,-19975.0,9.25,472.5,0.0,0.0,0.125,2.158202904,0.5526872062785588,-0.009765624000000361,0.3400000035762787,-0.41999998688697815,-6.71999979019165,0.11151123046875,-0.121826171875,1.26678466796875,33.33000183105469,0.0,-49.0,4.1354827880859375,-0.81134033203125,Closing,0.0,0.0,1.0,0.0,0.0,0.0,0.0,0.0,
2.148640999999996,0.0,0.0,16618.0,3.25,487.5,0.0,0.0,0.125,1.376952984,0.5498168668524888,0.0,-18062.0,0.625,525.0,0.0,0.0,0.125,4.892577624,4.410439589772222,-0.01586913899999942,-4186.0,1.75,105.0,0.0,0.0,0.0,2.814941118,4.389674732977289,-0.053710931999999545,-19975.0,1.125,480.0,0.0,0.0,0.125,2.158202904,0.5526872062785588,-0.009765624000000361,0.33000001311302185,-0.30000001192092896,-8.899999618530273,-0.24090576171875,4.2724609375E-4,1.19879150390625,33.33000183105469,0.0,-230.0,4.1358489990234375,-0.8115234375,Closing,0.0,0.0,1.0,0.0,0.0,0.0,0.0,0.0,
2.1759519999999974,0.0,0.0,16618.0,0.0,472.5,0.0,0.0,0.125,1.376952984,0.5498168668524888,0.0,-17978.0,0.0,495.0,0.0,0.0,0.125,4.847411613,4.410439589772222,-0.043945308000000516,-4186.0,0.0,165.0,0.0,0.0,0.125,2.810058306,4.389674732977289,0.01586913899999942,-19895.0,0.0,457.5,0.0,0.0,0.125,2.159423607,0.5526872062785588,0.0,0.1899999976158142,-0.3400000035762787,-10.619999885559082,-0.06610107421875,0.0831298828125,0.521728515625,33.33000183105469,0.0,-76.0,4.1361083984375,-0.8119049072265625,Closing,0.0,0.0,1.0,0.0,0.0,0.0,0.0,0.0,
2.207214,0.0,0.0,16697.0,0.0,457.5,0.0,0.0,0.125,1.3757322810000001,0.5498168668524888,0.0,-17978.0,0.0,480.0,0.0,0.0,0.25,4.843749504,4.410439589772222,-0.043945308000000516,-4186.0,0.0,240.0,0.0,0.0,0.125,2.805175494,4.389674732977289,0.01586913899999942,-19895.0,0.0,457.5,0.0,0.0,0.125,2.158202904,0.5526872062785588,0.0,0.25,-0.5699999928474426,-12.289999961853027,-0.1192626953125,-0.08880615234375,1.18817138671875,33.33000183105469,0.0,-84.0,4.1360321044921875,-0.8119964599609375,Closing,0.0,0.0,1.0,0.0,0.0,0.0,0.0,0.0,
2.2342379999999977,0.0,0.0,16697.0,0.0,472.5,0.0,0.0,0.125,1.376952984,0.5498168668524888,0.0,-17978.0,0.0,502.5,0.0,0.0,0.25,4.836425286,4.410439589772222,-0.03662108999999969,-4117.0,0.0,427.5,0.0,0.0,0.0,2.7954098700000003,4.389674732977289,-0.008544920999999484,-19895.0,0.0,465.0,0.0,0.0,0.125,2.158202904,0.5526872062785588,0.0,0.2800000011920929,-0.18000000715255737,-13.869999885559082,0.127197265625,-0.1168212890625,0.66741943359375,33.33000183105469,0.0,154.0,4.135955810546875,-0.8116607666015625,Closing,0.0,0.0,1.0,0.0,0.0,0.0,0.0,0.0,
2.269527000000002,0.0,0.0,16697.0,0.0,562.5,0.0,0.0,0.125,1.376952984,0.5498168668524888,0.0,-17978.0,0.0,517.5,0.0,0.0,0.25,4.842528801,4.410439589772222,-0.007324217999999938,-4117.0,0.0,472.5,0.0,0.0,0.0,2.7941891670000003,4.389674732977289,-0.014648435999999876,-19895.0,0.0,502.5,0.0,0.0,0.125,2.159423607,0.5526872062785588,0.0,0.33000001311302185,-0.3100000023841858,-15.25,-0.09906005859375,-0.02392578125,1.24566650390625,33.33000183105469,0.0,-80.0,4.1363983154296875,-0.8113861083984375,Closing,0.0,0.0,1.0,0.0,0.0,0.0,0.0,0.0,
2.304425000000003,0.0,0.0,16697.0,0.0,517.5,0.0,0.0,0.125,1.376952984,0.5498168668524888,0.0,-17912.0,0.0,472.5,0.0,0.0,0.0,4.855956534000001,4.410439589772222,-0.007324217999999938,-4117.0,0.0,352.5,0.0,0.0,0.0,2.7990719790000003,4.389674732977289,0.0,-19834.0,0.0,435.0,0.0,0.0,0.125,2.158202904,0.5526872062785588,0.0,0.2800000011920929,-0.2199999988079071,-17.059999465942383,-0.091552734375,0.20166015625,1.16815185546875,33.33000183105469,0.0,-140.0,4.136688232421875,-0.8109893798828125,Closing,0.0,0.0,1.0,0.0,0.0,0.0,0.0,0.0,
2.3344649999999967,0.0,0.0,16764.0,0.0,442.5,0.0,0.0,0.125,1.376952984,0.5498168668524888,0.0,-17912.0,0.0,390.0,0.0,0.0,0.0,4.866942861,4.410439589772222,0.006103515000000392,-4117.0,0.0,240.0,0.0,0.0,0.0,2.8039547910000002,4.389674732977289,0.0,-19834.0,0.0,382.5,0.0,0.0,0.125,2.158202904,0.5526872062785588,0.0,0.25999999046325684,-0.3100000023841858,-17.989999771118164,0.0205078125,-0.0501708984375,0.9302978515625,33.33000183105469,0.0,41.0,4.1364593505859375,-0.810699462890625,Closing,0.0,0.0,1.0,0.0,0.0,0.0,0.0,0.0,
2.4499289999999965,0.0,0.0,16800.0,0.0,270.0,0.0,0.0,0.125,1.376952984,0.5498168668524888,0.0,-17880.0,0.0,210.0,0.0,0.0,0.0,4.891356921,4.410439589772222,0.0,-4086.0,0.0,315.0,0.0,0.0,0.0,2.8039547910000002,4.389674732977289,0.0,-19799.0,0.0,202.5,0.0,0.0,0.125,2.159423607,0.5526872062785588,0.0,0.12999999523162842,-0.44999998807907104,-19.829999923706055,-0.04119873046875,-0.009765625,1.06805419921875,33.33000183105469,0.0,-26.0,4.13519287109375,-0.811431884765625,Closing,0.0,0.0,1.0,0.0,0.0,0.0,0.0,0.0,
2.514601999999999,0.0,0.0,16800.0,0.0,82.5,0.0,0.0,0.125,1.376952984,0.5498168668524888,0.0,-17880.0,0.0,97.5,0.0,0.0,0.0,4.896239733000001,4.410439589772222,0.0,-4054.0,0.0,105.0,0.0,0.0,0.0,2.8039547910000002,4.389674732977289,0.0,-19799.0,0.0,82.5,0.0,0.0,0.125,2.158202904,0.5526872062785588,0.0,0.14000000059604645,-0.49000000953674316,-19.989999771118164,-0.002685546875,0.00885009765625,0.9832763671875,33.33000183105469,0.0,3.0,4.133697509765625,-0.8118896484375,Closing,0.0,0.0,1.0,0.0,0.0,0.0,0.0,0.0,
2.5857940000000017,0.0,0.0,16803.0,0.0,15.0,0.0,0.0,0.125,1.376952984,0.5498168668524888,0.0,-17876.0,0.0,15.0,0.0,0.0,0.125,4.897460436,4.410439589772222,0.004882812000000847,-4054.0,0.0,7.5,0.0,0.0,0.0,2.8039547910000002,4.389674732977289,0.0,-19794.0,0.0,15.0,0.0,0.0,0.125,2.158202904,0.5526872062785588,0.0,0.10999999940395355,-0.47999998927116394,-19.690000534057617,-0.00762939453125,-0.0103759765625,1.02593994140625,33.33000183105469,0.0,5.0,4.133697509765625,-0.81207275390625,Closing,0.0,0.0,1.0,0.0,0.0,0.0,0.0,0.0,
2.6510460000000022,0.0,0.0,16803.0,0.0,0.0,0.0,0.0,0.125,1.376952984,0.5498168668524888,0.0,-17876.0,0.0,0.0,0.0,0.0,0.125,4.896239733000001,4.410439589772222,0.0,-4054.0,0.0,0.0,0.0,0.0,0.0,2.805175494,4.389674732977289,0.0,-19794.0,0.0,0.0,0.0,0.0,0.125,2.159423607,0.5526872062785588,0.0,0.10000000149011612,-0.47999998927116394,-19.420000076293945,-0.00994873046875,0.00958251953125,1.00836181640625,33.33000183105469,0.0,-3.0,4.133697509765625,-0.8121490478515625,Closing,0.0,0.0,1.0,0.0,0.0,0.0,0.0,0.0,
2.717618000000002,0.0,0.0,16803.0,0.0,0.0,-158.74015688896176,0.0,0.125,1.376952984,4.667005493415538,0.0,-17876.0,0.0,0.0,158.74015688896176,0.0,0.125,4.897460436,4.696829471584323,0.0,-4056.0,0.125,-7.5,-158.74015688896176,0.0,0.0,2.8039547910000002,4.674716258290611,0.0,-19794.0,0.125,0.0,158.74015688896176,0.0,0.125,2.159423607,4.6913697693718825,0.0,0.12999999523162842,-0.49000000953674316,-19.229999542236328,-0.01544189453125,0.01739501953125,0.99078369140625,33.33000183105469,0.0,-11.0,4.133697509765625,-0.8121490478515625,Closing,0.0,0.0,1.0,0.0,0.0,0.0,0.0,0.0,
2.7746319999999978,0.0,0.0,16803.0,0.0,0.0,0.0,0.0,5.25,1.158447147,4.667005493415538,0.0,-17876.0,0.0,0.0,0.0,0.0,0.75,0.042724605,4.696829471584323,0.0,-4056.0,0.0,-22.5,0.0,0.0,0.5,2.8955075160000003,4.674716258290611,0.0,-19793.0,0.0,0.0,0.0,0.0,5.25,1.8994138680000001,4.6913697693718825,0.0,0.11999999731779099,-0.5199999809265137,-19.209999084472656,0.03546142578125,-0.0174560546875,1.0340576171875,33.33000183105469,0.0,48.0,4.1336517333984375,-0.8122406005859375,Closing,0.0,0.0,1.0,0.0,0.0,0.0,0.0,0.0,
2.8516990000000004,0.0,0.0,16803.0,0.0,0.0,0.0,0.0,0.875,0.70800774,4.667005493415538,-0.25390622400000007,-17876.0,0.0,0.0,0.0,0.0,0.25,0.189208965,4.696829471584323,-4.843749504000001,-4058.0,0.0,-7.5,0.0,0.0,0.25,3.017577816,4.674716258290611,0.09765624000000006,-19793.0,0.0,0.0,0.0,0.0,0.875,1.437988134,4.6913697693718825,-0.25146481799999987,0.15000000596046448,-0.5400000214576721,-19.15999984741211,-0.00909423828125,-0.02069091796875,1.00970458984375,33.33000183105469,0.0,8.0,4.1344757080078125,-0.8128509521484375,Closing,0.0,0.0,1.0,0.0,0.0,0.0,0.0,0.0,
2.9147090000000024,0.0,0.0,16803.0,0.0,0.0,0.0,0.0,0.5,0.510253854,4.667005493415538,4.470825265999999,-17876.0,0.0,0.0,0.0,0.0,0.25,0.266113254,4.696829471584323,0.14404295399999967,-4058.0,0.0,0.0,0.0,0.0,0.125,3.045653985,4.674716258290611,0.0,-19793.0,0.0,0.0,0.0,0.0,0.125,1.312255725,4.6913697693718825,0.0,0.11999999731779099,-0.5,-19.079999923706055,9.1552734375E-4,0.00390625,1.00445556640625,33.33000183105469,0.0,8.0,4.1348876953125,-0.81329345703125,Closing,0.0,0.0,1.0,0.0,0.0,0.0,0.0,0.0,
3.051167999999998,0.0,0.0,16796.0,2.25,-30.0,-714.3307435512543,0.0,0.25,0.5163573690000001,4.671115718261409,0.0,-17859.0,3.375,105.0,714.3307435512543,0.0,0.0,0.266113254,4.700965962363722,0.0,-4059.0,1.5,-7.5,-714.3307435512543,0.0,0.0,3.0505367970000004,4.6788332739957195,0.0,-19786.0,1.75,45.0,714.3307435512543,0.0,0.375,1.351318221,4.695501451799607,0.0,0.25,-0.6700000166893005,-19.09000015258789,-0.15509033203125,0.0484619140625,0.96875,33.33000183105469,0.0,-150.0,4.134246826171875,-0.8131866455078125,Closing,0.0,0.0,1.0,0.0,0.0,0.0,0.0,0.0,
3.1150610000000016,0.0,0.0,16796.0,2.25,-82.5,-496.062980890274,0.0,0.25,0.538330023,4.67070468793722,0.0,-17859.0,3.0,135.0,496.062980890274,0.0,0.0,0.25146481800000003,4.700552305396083,0.0,-4067.0,2.875,-60.0,-496.062980890274,0.0,0.0,3.0566403120000003,4.678421564572655,0.0,-19786.0,1.75,202.5,496.062980890274,0.0,0.125,1.385497905,4.695088275676306,0.0,0.3499999940395355,-0.9800000190734863,-19.0,-0.03424072265625,-0.00628662109375,0.8619384765625,33.33000183105469,0.0,-14.0,4.1294097900390625,-0.8125457763671875,Closing,0.0,0.0,1.0,0.0,0.0,0.0,0.0,0.0,
3.1831560000000025,0.0,0.0,16771.0,1.875,-142.5,-456.3779604434967,0.0,0.25,0.535888617,4.671937752777781,0.0,-17840.0,2.75,127.5,456.3779604434967,0.0,0.0,0.25146481800000003,4.701793250000003,0.0,-4091.0,2.375,-127.5,-456.3779604434967,0.0,0.0,3.0603024210000003,4.67965666666667,0.0,-19754.0,1.5,172.5,456.3779604434967,0.0,0.125,1.3415525970000002,4.696327777777781,0.0,0.4300000071525574,-1.1799999475479126,-18.979999542236328,-0.06365966796875,0.0303955078125,1.04541015625,33.33000183105469,0.0,-46.0,4.12249755859375,-0.8126068115234375,Closing,0.0,0.0,1.0,0.0,0.0,0.0,0.0,0.0,
3.2423700000000024,0.0,0.0,16771.0,1.875,-195.0,-456.3779604434966,0.0,0.125,0.531005805,4.672211772993907,0.0,-17840.0,2.75,202.5,456.3779604434966,0.0,0.0,0.25146481800000003,4.702069021311763,0.0,-4091.0,2.375,-202.5,-456.3779604434966,0.0,0.0,3.077392263,4.67993113961538,0.0,-19754.0,1.75,195.0,456.3779604434966,0.0,0.25,1.3171385370000002,4.696603228526648,0.0,0.5,-1.3300000429153442,-19.0,-0.093017578125,0.06512451171875,1.06640625,33.33000183105469,0.0,-82.0,4.1154327392578125,-0.812469482421875,Closing,0.0,0.0,1.0,0.0,0.0,0.0,0.0,0.0,
3.3158680000000023,0.0,0.0,16730.0,1.875,-277.5,-436.53545022010803,0.0,0.125,0.534667914,4.67193775277778,0.0,-17800.0,3.0,262.5,436.53545022010803,0.0,0.0,0.25146481800000003,4.701793250000002,0.0,-4128.0,2.125,-217.5,-436.53545022010803,0.0,0.0,3.095702808,4.679656666666669,0.0,-19714.0,1.5,262.5,436.53545022010803,0.0,0.25,1.3183592400000002,4.69632777777778,0.0,0.5199999809265137,-1.4900000095367432,-18.93000030517578,-0.07867431640625,0.01641845703125,1.0401611328125,33.33000183105469,0.0,-50.0,4.1046600341796875,-0.8121490478515625,Closing,0.0,0.0,1.0,0.0,0.0,0.0,0.0,0.0,
3.3685650000000025,0.0,0.0,16730.0,1.75,-315.0,-436.5354502201081,0.0,0.125,0.53710932,4.672896797402216,0.0,-17800.0,2.75,307.5,436.5354502201081,0.0,0.0,0.25146481800000003,4.702758423292163,0.0,-4128.0,2.5,-270.0,-436.5354502201081,0.0,0.0,3.095702808,4.680617295811975,0.0,-19664.0,1.5,307.5,436.5354502201081,0.0,0.25,1.3220213490000001,4.697291829130387,0.0,0.5600000023841858,-1.5800000429153442,-18.8799991607666,-0.1151123046875,0.03631591796875,1.02862548828125,33.33000183105469,0.0,-90.0,4.0949554443359375,-0.8121490478515625,Closing,0.0,0.0,1.0,0.0,0.0,0.0,0.0,0.0,
3.450966,0.0,0.0,16673.0,1.375,-367.5,-416.69290244579315,0.0,0.125,0.534667914,4.673581847942531,0.0,-17747.0,2.375,352.5,416.69290244579315,0.0,0.0,0.25146481800000003,4.703447851571563,0.0,-4188.0,2.0,-367.5,-416.69290244579315,0.0,0.0,3.087157887,4.681303478183749,0.0,-19664.0,1.625,337.5,416.69290244579315,0.0,0.25,1.3183592400000002,4.697980456002556,0.0,0.5699999928474426,-1.6399999856948853,-18.75,-0.0380859375,-0.01251220703125,1.0010986328125,33.290000915527344,0.0,-1.0,4.081512451171875,-0.8123931884765625,Closing,0.0,0.0,1.0,0.0,0.0,0.0,0.0,0.0,
3.505063000000002,0.0,0.0,16673.0,0.25,-390.0,0.0,0.0,0.125,0.534667914,4.673581847942531,-0.0012207029999995456,-17693.0,1.5,375.0,0.0,0.0,0.0,0.25146481800000003,4.703447851571563,-0.0012207029999995456,-4188.0,0.375,-382.5,0.0,0.0,0.0,3.071288748,4.681303478183749,0.0,-19610.0,0.25,345.0,0.0,0.0,0.25,1.3208006460000001,4.697980456002556,0.0,0.550000011920929,-1.6200000047683716,-18.729999542236328,0.04522705078125,-0.0281982421875,0.967529296875,33.290000915527344,0.0,80.0,4.0707855224609375,-0.812347412109375,Closing,0.0,0.0,1.0,0.0,0.0,0.0,0.0,0.0,
3.5832900000000008,0.0,0.0,16619.0,0.0,-180.0,0.0,0.0,0.125,0.520019478,4.673581847942531,-0.006103515000000392,-17693.0,0.0,195.0,0.0,0.0,0.0,0.250244115,4.703447851571563,0.0,-4222.0,0.0,-180.0,0.0,0.0,0.0,3.066405936,4.681303478183749,-0.029296871999999752,-19610.0,0.0,232.5,0.0,0.0,0.25,1.3220213490000001,4.697980456002556,-0.0012207029999995456,0.33000001311302185,-1.1200000047683716,-18.670000076293945,0.06842041015625,-0.10772705078125,0.76568603515625,33.290000915527344,0.0,115.0,4.0618743896484375,-0.8119659423828125,Closing,0.0,0.0,1.0,0.0,0.0,0.0,0.0,0.0,
3.6518870000000025,0.0,0.0,16584.0,0.0,-217.5,0.0,0.0,0.25,0.520019478,4.673581847942531,-0.009765623999999917,-17661.0,0.0,210.0,0.0,0.0,0.0,0.25146481800000003,4.703447851571563,0.0,-4222.0,0.0,-270.0,0.0,0.0,0.0,3.066405936,4.681303478183749,0.0,-19577.0,0.0,240.0,0.0,0.0,0.25,1.3171385370000002,4.697980456002556,0.0,0.27000001072883606,-0.9599999785423279,-18.670000076293945,0.0977783203125,-0.0140380859375,0.98590087890625,33.290000915527344,0.0,114.0,4.0557708740234375,-0.811431884765625,Closing,0.0,0.0,1.0,0.0,0.0,0.0,0.0,0.0,
3.714985999999997,0.0,0.0,16584.0,0.0,-247.5,0.0,0.0,0.25,0.521240181,4.673581847942531,0.0,-17661.0,0.0,217.5,0.0,0.0,0.0,0.25146481800000003,4.703447851571563,0.0,-4270.0,0.0,-247.5,0.0,0.0,0.0,3.066405936,4.681303478183749,0.0,-19577.0,0.0,225.0,0.0,0.0,0.25,1.3183592400000002,4.697980456002556,0.0,0.1599999964237213,-0.6399999856948853,-18.510000228881836,0.10797119140625,-0.01519775390625,0.99212646484375,33.290000915527344,0.0,118.0,4.0513458251953125,-0.8110809326171875,Closing,0.0,0.0,1.0,0.0,0.0,0.0,0.0,0.0,
3.7690369999999964,0.0,0.0,16558.0,0.0,-157.5,0.0,0.0,0.25,0.521240181,4.673581847942531,0.0,-17636.0,0.0,150.0,0.0,0.0,0.0,0.250244115,4.703447851571563,0.0,-4270.0,0.0,-127.5,0.0,0.0,0.0,3.066405936,4.681303478183749,0.0,-19548.0,0.0,150.0,0.0,0.0,0.25,1.3183592400000002,4.697980456002556,0.0,0.05000000074505806,-0.3799999952316284,-18.579999923706055,0.08282470703125,-0.02911376953125,1.07989501953125,33.290000915527344,0.0,94.0,4.05023193359375,-0.8108978271484375,Closing,0.0,0.0,1.0,0.0,0.0,0.0,0.0,0.0,
3.8504020000000017,0.0,0.0,16558.0,0.0,-90.0,-231.49606212973595,0.0,3.25,0.5541991620000001,0.5498168668524864,0.0,-17636.0,0.375,82.5,-231.49606212973595,0.0,0.25,0.24291989700000002,4.41043958977222,0.0,-4287.0,0.125,-82.5,-231.49606212973595,0.0,0.25,3.0566403120000003,4.389674732977291,0.0,-19548.0,0.125,75.0,-231.49606212973595,0.0,3.75,1.4001463410000001,0.5526872062785609,0.0,-0.009999999776482582,-0.23000000417232513,-18.56999969482422,0.1097412109375,-0.01971435546875,0.9822998046875,33.290000915527344,0.0,114.0,4.0510711669921875,-0.8108978271484375,Closing,0.0,0.0,1.0,0.0,0.0,0.0,0.0,0.0,
3.9156759999999995,0.0,0.0,16550.0,0.125,-52.5,-512.5984311103821,0.0,2.375,0.9753416970000001,0.5498168668524864,0.0,-17631.0,1.625,0.0,-512.5984311103821,0.0,0.25,0.19775388600000002,4.41043958977222,0.0,-4295.0,0.375,-45.0,-512.5984311103821,0.0,0.25,2.9443356360000004,4.389674732977291,0.0,-19541.0,0.75,-7.5,-512.5984311103821,0.0,1.25,1.881103323,0.552687206278561,0.0,-0.12999999523162842,0.0,-18.3700008392334,0.01202392578125,0.00286865234375,1.0528564453125,33.290000915527344,0.0,9.0,4.0556640625,-0.8112030029296875,Closing,0.0,0.0,1.0,0.0,0.0,0.0,0.0,0.0,
3.981233,0.0,0.0,16550.0,0.625,-172.5,-578.740131855011,0.0,1.25,1.3476561120000001,0.5498168668524864,0.0,-17631.0,2.875,-82.5,-578.740131855011,0.0,0.25,0.06958007100000001,4.41043958977222,0.0,-4295.0,1.25,-112.5,-578.740131855011,0.0,0.25,2.8479000990000003,4.389674732977291,0.0,-19568.0,1.875,-120.0,-578.740131855011,0.0,1.375,2.236327896,0.552687206278561,0.0,-0.09000000357627869,-0.09000000357627869,-17.940000534057617,-0.02685546875,0.0284423828125,1.02825927734375,33.290000915527344,0.0,-33.0,4.0592041015625,-0.81109619140625,Closing,0.0,0.0,1.0,0.0,0.0,0.0,0.0,0.0,
4.052673999999999,0.0,0.0,16517.0,1.375,-187.5,-578.740131855011,0.0,0.375,1.5014646900000002,0.5498168668524864,0.0,-17650.0,3.625,-150.0,-578.740131855011,0.0,0.0,4.930419417,4.41043958977222,0.0,-4322.0,2.25,-150.0,-578.740131855011,0.0,0.125,2.7905270580000003,4.389674732977291,0.0,-19568.0,1.875,-217.5,-578.740131855011,0.0,0.25,2.352294681,0.552687206278561,0.0,0.0,-0.4300000071525574,-16.469999313354492,-0.10394287109375,-0.00775146484375,1.006591796875,33.290000915527344,0.0,-90.0,4.0609893798828125,-0.8110809326171875,Closing,0.0,0.0,1.0,0.0,0.0,0.0,0.0,0.0,
4.106890999999996,0.0,0.0,16517.0,0.25,-217.5,0.0,0.0,0.25,1.4978025810000002,0.5498168668524864,0.130615221,-17681.0,2.0,-210.0,0.0,0.0,0.0,4.906005357000001,4.41043958977222,4.864501455,-4322.0,0.625,-127.5,0.0,0.0,0.0,2.7893063550000003,4.389674732977291,-0.04516601100000006,-19605.0,0.25,-232.5,0.0,0.0,0.25,2.347411869,0.552687206278561,0.0,0.07999999821186066,-0.5099999904632568,-14.710000038146973,0.01318359375,-0.0806884765625,1.163330078125,33.290000915527344,0.0,43.0,4.0608673095703125,-0.8112335205078125,Closing,0.0,0.0,1.0,0.0,0.0,0.0,0.0,0.0,
4.1825800000000015,0.0,0.0,16481.0,0.0,-157.5,0.0,0.0,0.25,1.434326025,0.5498168668524864,-0.013427733000000108,-17681.0,0.0,-67.5,0.0,0.0,0.0,4.906005357000001,4.41043958977222,-0.017089841999999855,-4339.0,0.0,-97.5,0.0,0.0,0.0,2.785644246,4.389674732977291,-0.01342773300000033,-19605.0,0.0,-105.0,0.0,0.0,0.25,2.254638441,0.552687206278561,-0.008544920999999928,0.05999999865889549,-0.46000000834465027,-13.25,0.00787353515625,-0.05133056640625,1.06427001953125,33.290000915527344,0.0,39.0,4.061676025390625,-0.8112945556640625,Closing,0.0,0.0,1.0,0.0,0.0,0.0,0.0,0.0,
4.240845000000001,0.0,0.0,16475.0,0.0,-37.5,0.0,0.0,0.25,1.3964842320000002,0.5498168668524864,-0.05859374399999995,-17687.0,0.0,-30.0,0.0,0.0,0.125,4.90722606,4.41043958977222,0.0,-4339.0,0.0,-30.0,0.0,0.0,0.0,2.780761434,4.389674732977291,-0.003662108999999525,-19615.0,0.0,-67.5,0.0,0.0,0.25,2.1972654,0.552687206278561,-0.08789061600000014,-0.029999999329447746,-0.41999998688697815,-12.539999961853027,-0.01800537109375,-0.06121826171875,0.99102783203125,33.290000915527344,0.0,2.0,4.062896728515625,-0.811798095703125,Closing,0.0,0.0,1.0,0.0,0.0,0.0,0.0,0.0,
4.319942999999999,0.0,0.0,16475.0,0.0,-22.5,0.0,0.0,0.25,1.386718608,0.5498168668524864,0.0,-17687.0,0.0,-52.5,0.0,0.0,0.125,4.90722606,4.41043958977222,0.0,-4349.0,0.0,-60.0,0.0,0.0,0.0,2.780761434,4.389674732977291,0.0,-19615.0,0.0,-22.5,0.0,0.0,0.25,2.187499776,0.552687206278561,0.0,0.0,-0.4300000071525574,-12.710000038146973,0.00274658203125,0.0257568359375,1.029541015625,33.290000915527344,0.0,4.0,4.0632171630859375,-0.8117523193359375,Closing,0.0,0.0,1.0,0.0,0.0,0.0,0.0,0.0,
4.383781999999999,0.0,0.0,16475.0,0.0,0.0,0.0,0.0,0.25,1.385497905,0.5498168668524864,-0.004882811999999959,-17689.0,0.0,0.0,0.0,0.0,0.125,4.904784654,4.41043958977222,0.0,-4349.0,0.0,-7.5,0.0,0.0,0.0,2.779540731,4.389674732977291,0.0,-19616.0,0.0,0.0,0.0,0.0,0.25,2.1972654,0.552687206278561,-0.007324217999999938,0.019999999552965164,-0.4300000071525574,-13.039999961853027,-0.0166015625,0.00640869140625,1.0301513671875,33.290000915527344,0.0,-9.0,4.0632171630859375,-0.811492919921875,Closing,0.0,0.0,1.0,0.0,0.0,0.0,0.0,0.0,
4.454349000000002,0.0,0.0,16475.0,0.0,0.0,0.0,0.0,0.25,1.385497905,0.5498168668524864,0.0,-17689.0,0.0,0.0,0.0,0.0,0.125,4.908446763000001,4.41043958977222,0.0,-4349.0,0.0,0.0,0.0,0.0,0.0,2.784423543,4.389674732977291,0.0,-19616.0,0.0,0.0,0.0,0.0,0.25,2.196044697,0.552687206278561,0.009765623999999917,0.0,-0.46000000834465027,-13.390000343322754,-0.01751708984375,0.00360107421875,1.02886962890625,33.27000045776367,0.0,-9.0,4.0632171630859375,-0.811492919921875,Closing,0.0,0.0,1.0,0.0,0.0,0.0,0.0,0.0,
4.519568999999996,0.0,0.0,16475.0,0.0,0.0,0.0,0.0,0.25,1.385497905,0.5498168668524864,0.0,-17689.0,0.0,0.0,0.0,0.0,0.125,4.904784654,4.41043958977222,0.0,-4349.0,0.0,0.0,0.0,0.0,0.0,2.784423543,4.389674732977291,0.0,-19616.0,0.0,0.0,0.0,0.0,0.25,2.1972654,0.552687206278561,0.0,0.0,-0.4699999988079071,-13.569999694824219,-0.01513671875,0.015625,1.01507568359375,33.27000045776367,0.0,-10.0,4.0632171630859375,-0.811492919921875,Closing,0.0,0.0,1.0,0.0,0.0,0.0,0.0,0.0,
4.572887000000002,0.0,0.0,16475.0,0.0,0.0,0.0,0.0,0.25,1.386718608,0.5498168668524864,0.0,-17689.0,0.0,0.0,0.0,0.0,0.125,4.904784654,4.41043958977222,0.0,-4349.0,0.0,0.0,0.0,0.0,0.0,2.784423543,4.389674732977291,0.0,-19616.0,0.0,0.0,0.0,0.0,0.25,2.1972654,0.552687206278561,0.0,0.009999999776482582,-0.4699999988079071,-13.630000114440918,-0.01666259765625,0.0035400390625,1.0147705078125,33.27000045776367,0.0,-8.0,4.0632171630859375,-0.811492919921875,Closing,0.0,0.0,1.0,0.0,0.0,0.0,0.0,0.0,
4.651934999999997,0.0,0.0,16475.0,0.0,0.0,0.0,0.0,0.25,1.386718608,0.5498168668524864,0.0,-17689.0,0.0,0.0,0.0,0.0,0.125,4.90722606,4.41043958977222,0.0,-4349.0,0.0,0.0,0.0,0.0,0.0,2.784423543,4.389674732977291,0.0,-19616.0,0.0,0.0,0.0,0.0,0.25,2.1972654,0.552687206278561,0.0,0.009999999776482582,-0.49000000953674316,-13.579999923706055,-0.01593017578125,0.00457763671875,1.01904296875,33.27000045776367,0.0,-7.0,4.0632171630859375,-0.811492919921875,Closing,0.0,0.0,1.0,0.0,0.0,0.0,0.0,0.0,
4.719805,0.0,0.0,16475.0,0.0,0.0,0.0,0.0,0.25,1.385497905,0.5498168668524864,0.0,-17689.0,0.0,0.0,0.0,0.0,0.125,4.90722606,4.41043958977222,0.0,-4349.0,0.0,0.0,0.0,0.0,0.0,2.784423543,4.389674732977291,0.0,-19616.0,0.0,0.0,0.0,0.0,0.25,2.1972654,0.552687206278561,0.0,0.019999999552965164,-0.5,-13.569999694824219,-0.01190185546875,0.00244140625,1.024169921875,33.27000045776367,0.0,-3.0,4.0632171630859375,-0.811492919921875,Closing,0.0,0.0,1.0,0.0,0.0,0.0,0.0,0.0,
4.785301,0.0,0.0,16475.0,0.125,-7.5,-436.53545022010803,0.0,0.25,1.383056499,4.932250999999998,0.0,-17689.0,0.375,0.0,436.53545022010803,0.0,0.25,4.909667466,4.963769999999998,0.0,-4349.0,0.375,0.0,-436.53545022010803,0.0,1.25,2.784423543,0.01,0.0,-19616.0,0.5,0.0,436.53545022010803,0.0,0.625,2.189941182,0.01,0.0,0.019999999552965164,-0.5099999904632568,-13.579999923706055,-0.01153564453125,0.01031494140625,1.0152587890625,33.27000045776367,0.0,-4.0,4.0632171630859375,-0.811492919921875,Closing,0.0,0.0,1.0,0.0,0.0,0.0,0.0,0.0,
4.843167000000001,0.0,0.0,16460.0,3.0,-97.5,-972.2834515571594,0.0,2.5,1.204833861,4.932250999999998,0.0,-17672.0,2.75,97.5,972.2834515571594,0.0,2.875,0.130615221,4.963769999999998,0.0,-4349.0,3.625,-15.0,-972.2834515571594,0.0,1.25,3.0529782030000003,0.01,0.0,-19609.0,2.625,67.5,972.2834515571594,0.0,2.5,1.92871074,0.01,0.0,0.029999999329447746,-0.6299999952316284,-13.5600004196167,-0.13641357421875,-0.0235595703125,1.05181884765625,33.27000045776367,0.0,-115.0,4.062713623046875,-0.811309814453125,Closing,0.0,0.0,1.0,0.0,0.0,0.0,0.0,0.0,
4.9165849999999995,0.0,0.0,16460.0,5.875,-97.5,-972.2834515571594,0.0,0.75,0.980224509,4.932250999999998,0.0,-17672.0,9.75,105.0,972.2834515571594,0.0,0.5,0.344238246,4.963769999999998,0.0,-4358.0,8.0,-75.0,-972.2834515571594,0.0,0.25,3.284911773,0.01,0.0,-19609.0,5.125,172.5,972.2834515571594,0.0,0.25,1.69677717,0.01,0.0,-0.009999999776482582,-1.100000023841858,-13.529999732971191,-0.14788818359375,-0.01971435546875,1.04443359375,33.27000045776367,0.0,-119.0,4.0583953857421875,-0.81158447265625,Closing,0.0,0.0,1.0,0.0,0.0,0.0,0.0,0.0,
4.983063999999999,0.0,0.0,16435.0,8.125,-142.5,-972.2834515571594,0.0,0.625,0.8410643670000001,4.932250999999998,0.0,-17651.0,13.875,157.5,972.2834515571594,0.0,0.75,0.47851557600000005,4.963769999999998,0.0,-4400.0,9.0,-187.5,-972.2834515571594,0.0,0.25,3.4143062910000004,0.01,0.0,-19576.0,6.75,187.5,972.2834515571594,0.0,0.25,1.5576170280000001,0.01,0.0,-0.03999999910593033,-1.7400000095367432,-13.489999771118164,-0.31134033203125,-0.00164794921875,0.98553466796875,33.29999923706055,0.0,-273.0,4.0491180419921875,-0.81353759765625,Closing,0.0,0.0,1.0,0.0,0.0,0.0,0.0,0.0,
5.051349000000002,0.0,0.0,16435.0,9.25,-285.0,-972.2834515571594,0.0,0.125,0.7897948410000001,4.932250999999998,0.0,-17651.0,14.125,345.0,972.2834515571594,0.0,0.125,0.5175780720000001,4.963769999999998,0.0,-4400.0,8.25,-322.5,-972.2834515571594,0.0,0.25,3.4826656590000002,0.01,0.0,-19576.0,6.75,345.0,972.2834515571594,0.0,0.25,1.456298679,0.01,0.0,0.019999999552965164,-2.3399999141693115,-13.569999694824219,-0.22235107421875,-0.039306640625,1.0399169921875,33.29999923706055,0.0,-165.0,4.036285400390625,-0.816619873046875,Closing,0.0,0.0,1.0,0.0,0.0,0.0,0.0,0.0,
5.118546000000002,0.0,0.0,16361.0,7.625,-547.5,-972.2834515571594,0.0,0.125,0.7897948410000001,4.932250999999998,0.0,-17574.0,12.25,555.0,972.2834515571594,0.0,0.125,0.5175780720000001,4.963769999999998,0.0,-4470.0,9.125,-427.5,-972.2834515571594,0.0,0.125,3.463134411,0.01,0.0,-19503.0,6.375,562.5,972.2834515571594,0.0,0.25,1.510009611,0.01,0.0,0.07999999821186066,-2.799999952316284,-13.40999984741211,-0.23944091796875,0.0904541015625,0.9573974609375,33.29999923706055,0.0,-207.0,4.0145111083984375,-0.8188018798828125,Closing,0.0,0.0,1.0,0.0,0.0,0.0,0.0,0.0,
5.172578999999998,0.0,0.0,16361.0,5.75,-675.0,-674.6456480026245,0.0,0.125,0.7897948410000001,4.932250999999998,0.0,-17574.0,8.5,697.5,674.6456480026245,0.0,0.125,0.52490229,4.963769999999998,0.0,-4470.0,8.0,-495.0,-674.6456480026245,0.0,0.125,3.433837539,0.01,0.0,-19395.0,4.875,637.5,674.6456480026245,0.0,0.25,1.5844724940000001,0.01,0.0,0.03999999910593033,-3.0199999809265137,-13.270000457763672,-0.06671142578125,0.02203369140625,0.93829345703125,33.29999923706055,0.0,-21.0,4.0043182373046875,-0.8197021484375,Closing,0.0,0.0,1.0,0.0,0.0,0.0,0.0,0.0,
5.253728999999999,0.0,0.0,16236.0,1.625,-787.5,-407.79152521573195,0.0,0.25,0.795898356,0.16534577059278827,0.0,-17454.0,2.75,772.5,214.1971659632047,0.0,0.25,0.539550726,0.32342058550592245,0.0,-4579.0,3.375,-667.5,-407.79152521573195,0.0,0.25,3.3715816860000003,4.774781047307485,0.0,-19395.0,1.125,690.0,214.1971659632047,0.0,0.625,1.624755693,4.634955365994323,0.0,-0.009999999776482582,-2.9800000190734863,-13.239999771118164,0.05462646484375,0.0103759765625,1.048583984375,33.29999923706055,0.0,103.0,4.00457763671875,-0.82147216796875,Closing,0.0,0.0,1.0,0.0,0.0,0.0,0.0,0.0,
5.312275000000001,0.0,0.0,16236.0,10.5,-817.5,-2100.0,0.0,1.0,0.9326170920000001,0.5498168668524864,0.0,-17385.0,7.0,660.0,-2100.0,0.0,4.5,0.6188964210000001,4.41043958977222,0.0,-4579.0,11.5,-780.0,-2100.0,0.0,1.0,3.2080074840000004,4.389674732977291,0.0,-19311.0,13.625,562.5,-2100.0,0.0,2.625,1.6296385050000002,0.552687206278561,0.0,-0.11999999731779099,-2.5399999618530273,-12.930000305175781,0.08404541015625,0.02789306640625,0.9932861328125,33.29999923706055,0.0,118.0,4.0062103271484375,-0.8231048583984375,Closing,0.0,0.0,1.0,0.0,0.0,0.0,0.0,0.0,
5.383858,0.0,0.0,16096.0,9.625,-952.5,131.25,0.0,0.625,1.229247921,0.5498168668524888,0.0,-17385.0,4.0,-112.5,131.25,0.0,0.875,0.372314415,4.410439589772222,0.0,-4718.0,10.0,-870.0,131.25,0.0,0.75,2.921142279,4.389674732977289,0.0,-19311.0,12.375,412.5,131.25,0.0,1.0,1.8994138680000001,0.5526872062785588,0.0,-0.47999998927116394,-2.130000114440918,-10.869999885559082,0.2364501953125,-0.201416015625,0.7391357421875,33.29999923706055,0.0,295.0,4.011627197265625,-0.8259735107421875,Closing,0.0,0.0,1.0,0.0,0.0,0.0,0.0,0.0,
5.452873999999996,0.0,0.0,15985.0,0.0,-750.0,0.0,0.0,0.25,1.435546728,0.5498168668524888,0.28320309599999993,-17362.0,0.125,187.5,0.0,0.0,0.875,0.039062496,4.410439589772222,-0.26123044200000045,-4718.0,0.0,-630.0,0.0,0.0,0.125,2.761230186,4.389674732977289,-0.2746581749999999,-19240.0,0.0,465.0,0.0,0.0,0.75,2.1630857160000003,0.5526872062785588,0.2709960659999999,-0.33000001311302185,-0.5899999737739563,-9.149999618530273,0.61004638671875,0.02777099609375,0.8812255859375,33.290000915527344,0.0,606.0,4.0275115966796875,-0.82733154296875,Closing,0.0,0.0,1.0,0.0,0.0,0.0,0.0,0.0,
5.517818999999996,0.0,0.0,15985.0,0.0,-525.0,0.0,0.0,0.25,1.4733885210000002,0.5498168668524888,0.19409177700000013,-17362.0,0.0,337.5,0.0,0.0,4.75,4.6557612420000005,4.410439589772222,1.0205077080000002,-4778.0,0.0,-127.5,0.0,0.0,0.0,2.756347374,4.389674732977289,0.0,-19240.0,0.0,22.5,0.0,0.0,0.125,2.241210708,0.5526872062785588,0.0,-0.05000000074505806,0.6600000262260437,-8.979999542236328,0.1798095703125,0.0498046875,1.136474609375,33.290000915527344,0.0,156.0,4.053466796875,-0.8250579833984375,Closing,0.0,0.0,1.0,0.0,0.0,0.0,0.0,0.0,
5.584523000000001,0.0,0.0,15963.0,0.0,-90.0,0.0,0.0,0.25,1.444091649,0.5498168668524888,0.023193356999999803,-17354.0,0.0,22.5,0.0,0.0,1.75,4.154052309,4.410439589772222,3.2238766230000007,-4778.0,0.0,0.0,0.0,0.0,0.0,2.7416989380000003,4.389674732977289,0.0,-19241.0,0.0,0.0,0.0,0.0,0.25,2.241210708,0.5526872062785588,0.07690428899999979,0.1599999964237213,0.46000000834465027,-9.079999923706055,-0.30877685546875,0.0811767578125,0.95208740234375,33.290000915527344,0.0,-324.0,4.0818939208984375,-0.82080078125,Closing,0.0,0.0,1.0,0.0,0.0,0.0,0.0,0.0,
5.653303999999997,0.0,0.0,15963.0,0.0,172.5,0.0,0.0,0.25,1.4013670440000001,0.5498168668524888,-0.03173827799999995,-17354.0,0.0,22.5,0.0,0.0,4.25,4.232177301,4.410439589772222,-0.47119135800000045,-4778.0,0.0,0.0,0.0,0.0,0.0,2.7465817500000003,4.389674732977289,-0.013427732999999442,-19241.0,0.0,0.0,0.0,0.0,0.25,2.2253415690000002,0.5526872062785588,0.0,0.10000000149011612,-0.15000000596046448,-9.420000076293945,-0.00323486328125,-0.1033935546875,1.0811767578125,33.290000915527344,0.0,16.0,4.11041259765625,-0.8157501220703125,Closing,0.0,0.0,1.0,0.0,0.0,0.0,0.0,0.0,
5.714697,0.0,0.0,15973.0,0.0,30.0,0.0,0.0,0.25,1.381835796,0.5498168668524888,-0.04272460499999986,-17350.0,0.0,7.5,0.0,0.0,3.375,4.57763625,4.410439589772222,0.10620116100000043,-4778.0,0.0,0.0,0.0,0.0,0.0,2.761230186,4.389674732977289,0.003662108999999525,-19242.0,0.0,0.0,0.0,0.0,0.25,2.211913836,0.5526872062785588,-0.014648435999999876,-0.30000001192092896,-0.05000000074505806,-9.539999961853027,0.02020263671875,-0.0709228515625,0.99884033203125,33.290000915527344,0.0,31.0,4.138427734375,-0.8150634765625,Closing,0.0,0.0,1.0,0.0,0.0,0.0,0.0,0.0,
5.735627999999997,0.0,0.0,15973.0,0.0,7.5,0.0,0.0,0.25,1.381835796,0.5498168668524888,0.0,-17350.0,0.0,0.0,0.0,0.0,1.0,4.704589362,4.410439589772222,0.0,-4778.0,0.0,0.0,0.0,0.0,0.0,2.761230186,4.389674732977289,0.0,-19242.0,0.0,0.0,0.0,0.0,0.25,2.207031024,0.5526872062785588,0.0,-0.2800000011920929,-0.07000000029802322,-9.510000228881836,-0.02569580078125,0.07373046875,1.14385986328125,33.290000915527344,0.0,-37.0,4.144195556640625,-0.8153228759765625,Closing,0.0,0.0,1.0,0.0,0.0,0.0,0.0,0.0,
5.755690000000002,0.0,0.0,15973.0,0.0,0.0,-264.56692814826965,0.0,0.25,1.381835796,0.5498168668524864,-0.015869139000000088,-17350.0,0.0,-7.5,-264.56692814826965,0.0,1.0,0.014648436,4.41043958977222,0.0,-4778.0,0.125,0.0,-264.56692814826965,0.0,0.0,2.769775107,4.389674732977291,0.0,-19242.0,0.125,0.0,-264.56692814826965,0.0,0.25,2.202148212,0.552687206278561,0.0,-0.07999999821186066,-0.12999999523162842,-9.390000343322754,-0.0245361328125,0.1192626953125,0.90753173828125,33.290000915527344,0.0,-41.0,4.1610260009765625,-0.815093994140625,Closing,0.0,0.0,1.0,0.0,0.0,0.0,0.0,0.0,
5.8505720000000005,0.0,0.0,15973.0,3.625,-22.5,-1306.299215555191,0.0,0.125,1.385497905,0.5498168668524864,0.0,-17357.0,4.75,-157.5,-1306.299215555191,0.0,0.25,0.14160154800000002,4.41043958977222,0.0,-4788.0,4.25,-22.5,-1306.299215555191,0.0,0.0,2.822265336,4.389674732977291,0.0,-19242.0,4.0,-52.5,-1306.299215555191,0.0,0.25,2.2265622720000002,0.552687206278561,0.0,0.12999999523162842,-0.2199999988079071,-8.859999656677246,-0.05548095703125,0.34442138671875,1.01904296875,33.290000915527344,0.0,-103.0,4.18756103515625,-0.8124237060546875,Closing,0.0,0.0,1.0,0.0,0.0,0.0,0.0,0.0,
5.914544000000002,0.0,0.0,15924.0,7.25,-187.5,-876.3779729604721,0.0,0.25,1.385497905,0.5498168668524864,0.0,-17420.0,8.125,-375.0,-876.3779729604721,0.0,0.25,0.1220703,4.41043958977222,0.0,-4788.0,5.125,-262.5,-876.3779729604721,0.0,0.0,2.814941118,4.389674732977291,0.0,-19298.0,6.75,-307.5,-876.3779729604721,0.0,0.25,2.2265622720000002,0.552687206278561,0.0,0.1599999964237213,-0.2199999988079071,-6.630000114440918,0.0257568359375,-0.03424072265625,1.0074462890625,33.290000915527344,0.0,33.0,4.20660400390625,-0.8094329833984375,Closing,0.0,0.0,1.0,0.0,0.0,0.0,0.0,0.0,
5.983830000000002,0.0,0.0,15924.0,0.625,-337.5,0.0,0.0,0.25,1.385497905,0.5498168668524864,0.0,-17420.0,1.375,-382.5,0.0,0.0,0.25,0.107421864,4.41043958977222,-0.014648435999999876,-4835.0,0.75,-240.0,0.0,0.0,0.0,2.814941118,4.389674732977291,0.003662108999999525,-19298.0,0.75,-397.5,0.0,0.0,0.125,2.211913836,0.552687206278561,0.0012207029999999897,0.28999999165534973,-0.23999999463558197,-3.7799999713897705,-0.06048583984375,-0.0848388671875,0.9862060546875,33.279998779296875,0.0,-50.0,4.2159881591796875,-0.8053436279296875,Closing,0.0,0.0,1.0,0.0,0.0,0.0,0.0,0.0,
6.049180000000001,0.0,0.0,15894.0,0.0,-195.0,0.0,0.0,0.25,1.36718736,0.5498168668524864,-0.0012207029999999897,-17461.0,0.0,-240.0,0.0,0.0,0.25,0.032958981,4.41043958977222,-0.024414059999999793,-4835.0,0.0,-195.0,0.0,0.0,0.125,2.813720415,4.389674732977291,0.0012207030000004337,-19346.0,0.0,-262.5,0.0,0.0,0.25,2.1972654,0.552687206278561,-0.01464843600000032,0.1599999964237213,-0.3199999928474426,-0.9599999785423279,-0.0035400390625,-0.01739501953125,0.79681396484375,33.279998779296875,0.0,1.0,4.21539306640625,-0.8008575439453125,Closing,0.0,0.0,1.0,0.0,0.0,0.0,0.0,0.0,
6.083472999999998,0.0,0.0,15894.0,0.0,-157.5,0.0,0.0,0.125,1.36718736,0.5498168668524864,-0.018310545000000067,-17461.0,0.0,-270.0,0.0,0.0,0.0,4.934081526,4.41043958977222,-0.07812499200000023,-4875.0,0.0,-277.5,0.0,0.0,0.125,2.814941118,4.389674732977291,0.0,-19346.0,0.0,-262.5,0.0,0.0,0.125,2.1972654,0.552687206278561,-0.013427732999999886,0.12999999523162842,-0.38999998569488525,0.10000000149011612,-0.090087890625,-0.0152587890625,1.14666748046875,33.279998779296875,0.0,-82.0,4.2151031494140625,-0.7993011474609375,Closing,0.0,0.0,1.0,0.0,0.0,0.0,0.0,0.0,
6.128972000000002,0.0,0.0,15894.0,0.0,-217.5,0.0,0.0,0.125,1.36718736,0.5498168668524864,0.0,-17461.0,0.0,-292.5,0.0,0.0,0.0,4.9255366050000005,4.41043958977222,4.906005357000001,-4875.0,0.0,-322.5,0.0,0.0,0.125,2.813720415,4.389674732977291,0.0,-19346.0,0.0,-255.0,0.0,0.0,0.125,2.1972654,0.552687206278561,0.0,0.10000000149011612,-0.4000000059604645,0.6600000262260437,-0.01458740234375,0.047607421875,0.8031005859375,33.279998779296875,0.0,-8.0,4.2146453857421875,-0.79925537109375,Closing,0.0,0.0,1.0,0.0,0.0,0.0,0.0,0.0,
6.151858,0.0,0.0,15894.0,0.0,-217.5,0.0,0.0,0.125,1.36718736,0.5498168668524864,0.0,-17491.0,0.0,-202.5,0.0,0.0,0.0,4.91943309,4.41043958977222,4.906005357000001,-4875.0,0.0,-285.0,0.0,0.0,0.125,2.808837603,4.389674732977291,0.0,-19382.0,0.0,-225.0,0.0,0.0,0.25,2.1972654,0.552687206278561,0.0,0.17000000178813934,-0.46000000834465027,1.059999942779541,-0.04638671875,-0.08197021484375,1.124755859375,33.279998779296875,0.0,-38.0,4.2140350341796875,-0.7989349365234375,Closing,0.0,0.0,1.0,0.0,0.0,0.0,0.0,0.0,
6.194205000000002,0.0,0.0,15862.0,0.0,-157.5,0.0,0.0,0.125,1.36718736,0.5498168668524864,0.0,-17491.0,0.0,-135.0,0.0,0.0,0.125,4.921874496,4.41043958977222,-0.009765623999999917,-4899.0,0.0,-210.0,0.0,0.0,0.125,2.810058306,4.389674732977291,0.0,-19382.0,0.0,-127.5,0.0,0.0,0.25,2.1972654,0.552687206278561,0.0,0.14000000059604645,-0.49000000953674316,1.2999999523162842,-0.0076904296875,0.0206298828125,0.918212890625,33.279998779296875,0.0,0.0,4.21337890625,-0.798675537109375,Closing,0.0,0.0,1.0,0.0,0.0,0.0,0.0,0.0,
6.212932,0.0,0.0,15862.0,0.0,-120.0,0.0,0.0,0.125,1.36718736,0.5498168668524864,0.0,-17491.0,0.0,-82.5,0.0,0.0,0.0,4.921874496,4.41043958977222,-0.009765623999999917,-4899.0,0.0,-127.5,0.0,0.0,0.125,2.8039547910000002,4.389674732977291,0.0,-19382.0,0.0,-105.0,0.0,0.0,0.25,2.1972654,0.552687206278561,0.0,0.14000000059604645,-0.49000000953674316,1.3799999952316284,4.8828125E-4,-0.0244140625,1.0018310546875,33.279998779296875,0.0,8.0,4.2130584716796875,-0.7985382080078125,Closing,0.0,0.0,1.0,0.0,0.0,0.0,0.0,0.0,
6.2469629999999965,0.0,0.0,15862.0,0.0,-90.0,0.0,0.0,0.125,1.36718736,0.5498168668524864,0.0,-17491.0,0.0,-60.0,0.0,0.0,0.0,4.9206537930000005,4.41043958977222,0.0,-4899.0,0.0,-67.5,0.0,0.0,0.0,2.7990719790000003,4.389674732977291,-0.009765623999999917,-19382.0,0.0,-75.0,0.0,0.0,0.25,2.1972654,0.552687206278561,-0.0012207029999999897,0.14000000059604645,-0.4099999964237213,1.4199999570846558,0.049072265625,-0.02593994140625,1.05426025390625,33.279998779296875,0.0,55.0,4.212554931640625,-0.79833984375,Closing,0.0,0.0,1.0,0.0,0.0,0.0,0.0,0.0,
6.268317999999999,0.0,0.0,15862.0,0.0,-67.5,0.0,0.0,0.125,1.365966657,0.5498168668524864,0.0,-17498.0,0.0,-52.5,0.0,0.0,0.0,4.9206537930000005,4.41043958977222,0.0,-4899.0,0.0,-22.5,0.0,0.0,0.0,2.7990719790000003,4.389674732977291,-0.009765623999999917,-19386.0,0.0,-45.0,0.0,0.0,0.25,2.1972654,0.552687206278561,-0.0012207029999999897,0.11999999731779099,-0.3799999952316284,1.340000033378601,0.004638671875,-0.003662109375,1.001708984375,33.279998779296875,0.0,11.0,4.212310791015625,-0.7981719970703125,Closing,0.0,0.0,1.0,0.0,0.0,0.0,0.0,0.0,
6.313754000000001,0.0,0.0,15858.0,0.0,-22.5,0.0,0.0,0.125,1.365966657,0.5498168668524864,0.0,-17498.0,0.0,-15.0,0.0,0.0,0.0,4.9206537930000005,4.41043958977222,0.0,-4899.0,0.0,0.0,0.0,0.0,0.0,2.7990719790000003,4.389674732977291,-0.004882811999999959,-19386.0,0.0,-7.5,0.0,0.0,0.25,2.1972654,0.552687206278561,0.0,0.14000000059604645,-0.3499999940395355,1.1299999952316284,-0.04058837890625,0.00396728515625,1.09417724609375,33.279998779296875,0.0,-33.0,4.2120819091796875,-0.7982177734375,Closing,0.0,0.0,1.0,0.0,0.0,0.0,0.0,0.0,
6.337870000000002,0.0,0.0,15858.0,0.0,0.0,0.0,0.0,0.125,1.36718736,0.5498168668524864,0.0,-17498.0,0.0,0.0,0.0,0.0,0.0,4.9206537930000005,4.41043958977222,0.0,-4899.0,0.0,0.0,0.0,0.0,0.0,2.8002926820000003,4.389674732977291,0.0,-19386.0,0.0,0.0,0.0,0.0,0.25,2.1972654,0.552687206278561,0.0,0.12999999523162842,-0.38999998569488525,0.9900000095367432,-0.0430908203125,-0.0089111328125,0.972900390625,33.279998779296875,0.0,-36.0,4.2117919921875,-0.798248291015625,Closing,0.0,0.0,1.0,0.0,0.0,0.0,0.0,0.0,
6.3838969999999975,0.0,0.0,15858.0,0.0,0.0,0.0,0.0,0.125,1.365966657,0.5498168668524864,0.0,-17498.0,0.0,0.0,0.0,0.0,0.0,4.9206537930000005,4.41043958977222,0.0,-4899.0,0.0,0.0,0.0,0.0,0.0,2.7990719790000003,4.389674732977291,0.0,-19386.0,0.0,0.0,0.0,0.0,0.25,2.1972654,0.552687206278561,0.0,0.12999999523162842,-0.4399999976158142,0.8199999928474426,-0.0341796875,-0.00469970703125,1.04632568359375,33.279998779296875,0.0,-26.0,4.211029052734375,-0.798248291015625,Closing,0.0,0.0,1.0,0.0,0.0,0.0,0.0,0.0,
6.404642,0.0,0.0,15858.0,0.0,0.0,0.0,0.0,0.125,1.36718736,0.5498168668524864,0.0,-17498.0,0.0,0.0,0.0,0.0,0.0,4.9206537930000005,4.41043958977222,0.0,-4899.0,0.0,0.0,0.0,0.0,0.0,2.7990719790000003,4.389674732977291,0.0,-19386.0,0.0,0.0,0.0,0.0,0.25,2.1972654,0.552687206278561,0.0,0.11999999731779099,-0.46000000834465027,0.7699999809265137,-0.01507568359375,-0.0029296875,1.0404052734375,33.279998779296875,0.0,-6.0,4.2107086181640625,-0.798248291015625,Closing,0.0,0.0,1.0,0.0,0.0,0.0,0.0,0.0,
6.452777999999999,0.0,0.0,15858.0,0.0,0.0,0.0,0.0,0.125,1.365966657,0.5498168668524864,0.0,-17498.0,0.0,0.0,0.0,0.0,0.0,4.921874496,4.41043958977222,0.0,-4899.0,0.0,0.0,0.0,0.0,0.0,2.7990719790000003,4.389674732977291,0.0,-19386.0,0.0,0.0,0.0,0.0,0.25,2.1972654,0.552687206278561,0.0012207029999999897,0.10999999940395355,-0.4399999976158142,0.6800000071525574,0.0135498046875,0.00701904296875,1.0382080078125,33.279998779296875,0.0,21.0,4.210723876953125,-0.798248291015625,Closing,0.0,0.0,1.0,0.0,0.0,0.0,0.0,0.0,
6.4743929999999965,0.0,0.0,15858.0,0.0,0.0,0.0,0.0,0.125,1.365966657,0.5498168668524864,0.0,-17498.0,0.0,0.0,0.0,0.0,0.0,4.921874496,4.41043958977222,-0.0012207030000004337,-4899.0,0.0,0.0,0.0,0.0,0.0,2.8002926820000003,4.389674732977291,0.0,-19386.0,0.0,0.0,0.0,0.0,0.25,2.196044697,0.552687206278561,-0.0012207029999999897,0.10999999940395355,-0.41999998688697815,0.6499999761581421,-0.00909423828125,0.0054931640625,1.00543212890625,33.29999923706055,0.0,-1.0,4.2108612060546875,-0.798248291015625,Closing,0.0,0.0,1.0,0.0,0.0,0.0,0.0,0.0,
6.523385000000002,0.0,0.0,15858.0,0.0,0.0,0.0,0.0,0.125,1.36718736,0.5498168668524864,0.0,-17498.0,0.0,0.0,0.0,0.0,0.0,4.9206537930000005,4.41043958977222,0.0012207030000004337,-4899.0,0.0,0.0,0.0,0.0,0.0,2.8002926820000003,4.389674732977291,0.0,-19386.0,0.0,0.0,0.0,0.0,0.25,2.1972654,0.552687206278561,0.0012207029999999897,0.11999999731779099,-0.41999998688697815,0.6700000166893005,-0.01873779296875,-3.662109375E-4,1.0289306640625,33.29999923706055,0.0,-11.0,4.2108612060546875,-0.798248291015625,Closing,0.0,0.0,1.0,0.0,0.0,0.0,0.0,0.0,
