Time,ClimberA1,ClimberA2,FRpos,FRCurrent,FRspeed,FRsetpoint,FRApos,FRACurrent,FREncpos,FREncSetpoint,FREncSpeed,FLpos,FLCurrent,FLspeed,FLsetpoint,FLApos,FLACurrent,FLEncpos,FLEncSetpoint,FLEncSpeed,BRpos,BRCurrent,BRspeed,BRsetpoint,BRApos,BRACurrent,BREncpos,BREncSetpoint,BREncSpeed,BLpos,BLCurrent,BLspeed,BLsetpoint,BLApos,BLACurrent,BLEncpos,BLEncSetpoint,BLEncSpeed,navx_Pitch,navx_Roll,navx_Yaw,navx_XAcc,navx_YAcc,navx_ZAcc,navx_Temp,navx_Bar,navx_Alt,navx_XDis,navx_YDis,GearPlacerState,ShootOutputV,ShootOutputCurrent,ShootEncPos,ShootEncVelocity,ShootSpeed,ShootSetpoint,CarouselSetpoint,CarouselCurrent,
0.26592499999999925,0.0,0.0,18630.0,0.0,0.0,0.0,0.0,0.125,0.798339762,0.01,0.0,-23645.0,0.0,0.0,0.0,0.0,0.125,0.49316401200000004,0.01,0.0,-2517.0,0.0,0.0,0.0,0.0,0.0,3.3666988740000003,0.01,0.0,-25257.0,0.0,0.0,0.0,0.0,0.125,1.6101072570000001,0.01,0.0,0.36000001430511475,-0.5600000023841858,-67.72000122070312,-0.0115966796875,0.0078125,1.0184326171875,35.65999984741211,0.0,-1.0,3.5355987548828125,-0.8732757568359375,Waiting,0.0,0.0,3.0,0.0,0.0,0.0,0.0,0.0,
0.3503579999999993,0.0,0.0,18630.0,0.0,0.0,0.0,0.0,0.125,0.798339762,0.01,4.920590762,-23645.0,0.0,0.0,-0.0,0.0,0.125,0.49438471500000003,0.01,-0.013065987999999251,-2517.0,0.0,0.0,0.0,0.0,0.0,3.3642574680000004,0.01,0.014257468000000273,-25257.0,0.0,0.0,-0.0,0.0,0.25,1.6101072570000001,0.01,4.948107257,0.36000001430511475,-0.5600000023841858,-67.7300033569336,-0.0089111328125,0.00482177734375,1.02276611328125,35.65999984741211,0.0,1.0,3.5355987548828125,-0.8732757568359375,Closing,0.0,0.0,3.0,0.0,0.0,0.0,0.0,0.0,
0.39278399999999963,0.0,0.0,18630.0,0.0,0.0,-138.89763727784157,0.0,0.125,0.799560465,4.00430273114656,0.0,-23645.0,0.0,0.0,138.89763727784157,0.0,0.125,0.49316401200000004,4.029891781213763,0.0,-2517.0,0.125,0.0,-138.89763727784157,0.0,0.0,3.3703609830000003,4.010918587265017,0.0,-25257.0,0.125,0.0,138.89763727784157,0.0,5.25,1.596679524,4.025207342656456,0.0,0.36000001430511475,-0.5600000023841858,-67.72000122070312,-0.0101318359375,0.00665283203125,1.023193359375,35.65999984741211,0.0,0.0,3.5355987548828125,-0.8732757568359375,Closing,0.0,0.0,3.0,0.0,0.0,0.0,0.0,0.0,
0.5039349999999995,0.0,0.0,18630.0,0.125,7.5,-188.50394099950788,0.0,1.5,0.156249984,4.004439767386629,0.0,-23645.0,0.125,7.5,188.50394099950788,0.0,0.875,4.7656245120000005,4.030029693168642,0.0,-2517.0,0.125,0.0,-188.50394099950788,0.0,1.625,2.6977536300000002,4.011055849914554,0.0,-25257.0,0.125,0.0,188.50394099950788,0.0,1.375,0.917968656,4.025345094299318,0.0,0.4000000059604645,-0.6299999952316284,-67.69000244140625,-0.0286865234375,0.01934814453125,0.95074462890625,35.65999984741211,0.0,-18.0,3.5355377197265625,-0.8737640380859375,Closing,0.0,0.0,3.0,0.0,0.0,0.0,0.0,0.0,
0.5608089999999993,0.0,0.0,18633.0,0.125,15.0,-188.5039409995079,0.0,1.25,4.72412061,4.004850771578813,0.0,-23639.0,0.125,45.0,188.5039409995079,0.0,0.875,4.389647988,4.030443323837282,0.0,-2517.0,0.125,0.0,-188.5039409995079,0.0,0.75,2.3205564030000003,4.011467533162437,0.0,-25256.0,0.375,22.5,188.5039409995079,0.0,0.875,0.5932616580000001,4.025758244154191,0.0,0.4699999988079071,-0.6600000262260437,-67.56999969482422,0.00555419921875,0.02392578125,0.92706298828125,35.65999984741211,0.0,-8.0,3.5346527099609375,-0.8737945556640625,Closing,0.0,0.0,3.0,0.0,0.0,0.0,0.0,0.0,
0.7009160000000002,0.0,0.0,18628.0,1.0,-30.0,-435.64098479051705,0.0,6.125,4.914550278,0.1394482558424214,0.0,-23625.0,0.0,67.5,-265.32944989704947,0.0,8.0,4.587401874,4.7312144414348065,0.0,-2526.0,2.875,-52.5,-657.5620675658631,0.0,1.25,2.3742673350000003,4.2638240651417965,0.0,-25244.0,1.125,142.5,559.4680706304086,0.0,2.5,0.300292938,3.3467717672610346,0.0,0.6100000143051147,-0.6200000047683716,-67.48999786376953,-0.03656005859375,0.1090087890625,1.0123291015625,35.650001525878906,0.0,-100.0,3.534271240234375,-0.8732452392578125,Closing,0.0,0.0,3.0,0.0,0.0,0.0,0.0,0.0,
0.7743109999999997,0.0,0.0,18628.0,2.875,-135.0,-740.775868629632,0.0,1.5,0.5432128350000001,0.31589315645285,0.0,-23638.0,0.75,-52.5,-583.9699343814013,0.0,0.5,0.147705063,4.553034093757484,0.0,-2526.0,5.875,-82.5,-985.4397639587733,0.0,0.25,2.5854489540000003,4.3058686561625175,0.0,-25207.0,2.5,210.0,873.7067729556383,0.0,0.625,4.94384715,3.2302056600279356,0.0,0.8100000023841858,-0.7400000095367432,-67.2300033569336,-0.04241943359375,0.16552734375,1.2127685546875,35.650001525878906,0.0,-146.0,3.531341552734375,-0.8723907470703125,Closing,0.0,0.0,3.0,0.0,0.0,0.0,0.0,0.0,
0.842031,0.0,0.0,18599.0,4.25,-225.0,-869.7690916351638,0.0,1.625,1.052245986,0.35094951175001793,0.0,-23638.0,2.25,-82.5,-713.5272568737647,0.0,0.5,0.35400387,4.52526588075961,0.0,-2534.0,11.25,-37.5,-1117.6822444730271,0.0,0.125,2.775878622,4.316867493237468,0.0,-25207.0,4.375,247.5,1000.9178153815652,0.0,0.5,4.746093264000001,3.2049358028293384,0.0,0.800000011920929,-0.800000011920929,-65.83999633789062,-0.04095458984375,-0.05865478515625,0.922119140625,35.650001525878906,0.0,53.0,3.5273895263671875,-0.8722991943359375,Closing,0.0,0.0,3.0,0.0,0.0,0.0,0.0,0.0,
0.9077289999999993,0.0,0.0,18531.0,5.875,-337.5,-1116.4616348103514,0.0,0.5,1.351318221,0.3945578253840064,0.0,-23664.0,4.25,-142.5,-957.0140411342447,0.0,0.5,0.391845663,4.4923016011782755,0.0,-2534.0,16.375,-90.0,-1366.6695534099051,0.0,0.125,2.88085908,4.332672658844002,0.0,-25148.0,6.875,352.5,1239.8286015180988,0.0,0.25,4.693603035000001,3.172051920248963,0.0,0.6299999952316284,-0.9599999785423279,-63.25,0.01263427734375,-0.00811767578125,1.08782958984375,35.650001525878906,0.0,31.0,3.5249176025390625,-0.8732757568359375,Closing,0.0,0.0,3.0,0.0,0.0,0.0,0.0,0.0,
0.958174,0.0,0.0,18531.0,7.5,-540.0,-1175.433123976693,0.0,0.375,1.39160142,0.4006658804006796,0.0,-23664.0,5.875,-367.5,-1001.2408968290836,0.0,0.25,0.31005856200000004,4.481229869903935,0.0,-2573.0,22.625,-270.0,-1419.7793909039126,0.0,0.125,2.877196971,4.340021315114039,0.0,-25148.0,9.0,517.5,1279.302084488642,0.0,0.25,4.716796392,3.1693130847554345,0.0,0.4399999976158142,-0.9700000286102295,-59.2599983215332,0.01470947265625,-0.086669921875,1.22509765625,35.650001525878906,0.0,100.0,3.5234527587890625,-0.8746185302734375,Closing,0.0,0.0,3.0,0.0,0.0,0.0,0.0,0.0,
1.0360649999999996,0.0,0.0,18407.0,7.0,-720.0,-1191.3200945301546,0.0,0.375,1.352538924,0.4005746715930755,0.0,-23760.0,4.125,-600.0,-994.3139757289582,0.0,0.25,0.16479490500000002,4.469909010223548,0.0,-2643.0,27.5,-420.0,-1424.6391016635284,0.0,0.25,2.857665723,4.348384033872396,0.0,-25032.0,7.875,772.5,1264.5209704418728,0.0,0.25,4.737548343,3.1729271100336742,0.0,0.4699999988079071,-0.9599999785423279,-54.209999084472656,-0.257080078125,-0.047607421875,1.2042236328125,35.650001525878906,0.0,-91.0,3.5223541259765625,-0.8739166259765625,Closing,0.0,0.0,3.0,0.0,0.0,0.0,0.0,0.0,
1.1054759999999997,0.0,0.0,18407.0,5.875,-907.5,-1216.948562490613,0.0,0.375,1.2915037740000002,0.4019431511541654,0.0,-23760.0,2.625,-780.0,-985.7250331050471,0.0,0.25,0.052490229,4.450567514122718,0.0,-2643.0,30.75,-442.5,-1430.5953346172516,0.0,0.125,2.8527829110000003,4.3621617297033115,0.0,-25032.0,6.5,945.0,1239.8762230846362,0.0,0.25,4.726562016,3.1775521082437628,0.0,0.3499999940395355,-1.2400000095367432,-46.4900016784668,0.03533935546875,0.0606689453125,1.16363525390625,35.68000030517578,0.0,2.0,3.51904296875,-0.87493896484375,Closing,0.0,0.0,3.0,0.0,0.0,0.0,0.0,0.0,
1.1719309999999996,0.0,0.0,18235.0,4.5,-1087.5,-1241.6126930875812,0.0,0.25,1.2414549510000001,0.40497805996402964,0.0,-23906.0,0.875,-945.0,-980.6276077846616,0.0,0.25,4.948729962000001,4.430804084531749,0.0,-2774.0,34.0,-615.0,-1434.0942602106475,0.0,0.125,2.8479000990000003,4.375815955877871,0.0,-24867.0,4.625,1102.5,1215.1768483156663,0.0,0.25,4.801024899000001,3.180487191493355,0.0,0.17000000178813934,-1.559999942779541,-39.15999984741211,-0.19189453125,-0.141357421875,1.20501708984375,35.68000030517578,0.0,-31.0,3.5146942138671875,-0.876861572265625,Closing,0.0,0.0,3.0,0.0,0.0,0.0,0.0,0.0,
1.239848,0.0,0.0,18235.0,1.125,-1275.0,-228.1889802217483,0.0,0.25,1.210937376,4.3957316988683415,0.0,-24042.0,0.75,-982.5,228.1889802217483,0.0,0.25,4.930419417,4.423822132103923,0.0,-2774.0,10.25,-1200.0,-228.1889802217483,0.0,0.125,2.833251663,4.4029942687606844,0.0,-24683.0,0.5,1192.5,-228.1889802217483,0.0,0.25,4.840087395,1.9396797798792549,0.0,0.18000000715255737,-1.9700000286102295,-26.790000915527344,-0.2718505859375,-0.0164794921875,0.79473876953125,35.68000030517578,0.0,-209.0,3.5044097900390625,-0.8802490234375,Closing,0.0,0.0,3.0,0.0,0.0,0.0,0.0,0.0,
1.3665569999999998,0.0,0.0,18043.0,0.0,-1065.0,-386.92913711071014,0.0,0.5,0.510253854,4.592336709233631,0.0,-24129.0,5.5,-592.5,386.92913711071014,0.0,0.25,4.940185041,4.621683524863723,0.0,-2972.0,2.125,-1282.5,-386.92913711071014,0.0,0.125,2.9052731400000003,4.599924107329054,0.0,-24554.0,1.5,922.5,-386.92913711071014,0.0,1.25,3.975829671,2.13731117402183,0.0,0.47999998927116394,-1.9600000381469727,-14.220000267028809,0.10418701171875,-0.0755615234375,0.86297607421875,35.68000030517578,0.0,149.0,3.4850006103515625,-0.876953125,Closing,0.0,0.0,3.0,0.0,0.0,0.0,0.0,0.0,
1.401044,0.0,0.0,17891.0,0.0,-960.0,-515.9055286645889,0.0,1.125,0.314941374,4.737427081841522,0.0,-24129.0,5.625,-412.5,515.9055286645889,0.0,0.25,4.949950665,4.767701081318143,0.0,-3162.0,1.875,-1290.0,-515.9055286645889,0.0,0.125,2.9479977450000003,4.745254196335478,0.0,-24554.0,1.375,690.0,-515.9055286645889,0.0,1.0,3.696288684,2.2831589963224226,0.0,0.5600000023841858,-1.9800000190734863,-12.829999923706055,-0.0267333984375,0.05706787109375,1.2861328125,35.68000030517578,0.0,7.0,3.480865478515625,-0.874420166015625,Closing,0.0,0.0,3.0,0.0,0.0,0.0,0.0,0.0,
1.4468269999999994,0.0,0.0,17891.0,0.0,-682.5,-515.9055286645889,0.0,1.125,0.311279265,4.756471055684172,0.0,-24129.0,4.625,-150.0,515.9055286645889,0.0,0.5,0.107421864,4.786866753551963,0.0,-3162.0,3.0,-1132.5,-515.9055286645889,0.0,0.125,2.9956051620000004,4.764329634380344,0.0,-24554.0,0.75,270.0,-515.9055286645889,0.0,0.5,3.648681267,2.3023023899396287,0.0,0.44999998807907104,-1.8200000524520874,-12.40999984741211,0.05584716796875,-0.11517333984375,0.81585693359375,35.68000030517578,0.0,105.0,3.4751739501953125,-0.870452880859375,Closing,0.0,0.0,3.0,0.0,0.0,0.0,0.0,0.0,
1.4877299999999996,0.0,0.0,17891.0,0.125,-472.5,-515.9055286645889,0.0,0.625,0.42236323800000003,4.762225349562785,0.0,-24087.0,2.25,150.0,515.9055286645889,0.0,0.25,0.23681638200000002,4.792657819603923,0.0,-3162.0,6.0,-667.5,-515.9055286645889,0.0,0.125,3.084716481,4.77009343542735,0.0,-24580.0,0.375,-165.0,-515.9055286645889,0.0,0.625,3.662109,2.308086724323699,0.0,0.41999998688697815,-1.850000023841858,-13.079999923706055,-0.00701904296875,-0.072509765625,1.04058837890625,35.68000030517578,0.0,44.0,3.469940185546875,-0.8671112060546875,Closing,0.0,0.0,3.0,0.0,0.0,0.0,0.0,0.0,
1.5327069999999994,0.0,0.0,17821.0,0.375,-442.5,-515.9055286645889,0.0,0.5,0.50048823,4.7530458813786165,0.104980458,-24087.0,1.0,367.5,515.9055286645889,0.0,0.25,0.31738278000000003,4.7834196910519635,0.0,-3229.0,8.5,-435.0,-515.9055286645889,0.0,0.125,3.1518551460000004,4.76089880104701,0.0,-24580.0,0.125,-255.0,-515.9055286645889,0.0,0.375,3.7902828150000003,2.298859334384073,0.0,0.23999999463558197,-1.9199999570846558,-13.170000076293945,-0.1336669921875,-0.1435546875,1.13494873046875,35.68000030517578,0.0,-59.0,3.4633941650390625,-0.8637847900390625,Closing,0.0,0.0,3.0,0.0,0.0,0.0,0.0,0.0,
1.61359,0.0,0.0,17821.0,0.375,-532.5,-515.9055286645889,0.0,0.25,0.629882748,4.754004926003051,0.0,-24039.0,0.75,300.0,515.9055286645889,0.0,0.25,0.373535118,4.784384864344124,0.0,-3229.0,10.75,-315.0,-515.9055286645889,0.0,0.125,3.182372721,4.761859430192315,0.0,-24636.0,0.125,-345.0,-515.9055286645889,0.0,0.375,3.8940425700000003,2.2998233857366803,0.0,0.11999999731779099,-2.059999942779541,-12.489999771118164,-0.064453125,-0.0439453125,0.88043212890625,35.63999938964844,0.0,-21.0,3.4560546875,-0.8628082275390625,Closing,0.0,0.0,3.0,0.0,0.0,0.0,0.0,0.0,
1.6500999999999995,0.0,0.0,17742.0,0.375,-510.0,-525.8267837762833,0.0,0.25,0.637206966,4.761129294830289,0.0,-24039.0,0.875,277.5,525.8267837762833,0.0,0.25,0.37841793,4.791554760655883,0.0,-3289.0,11.875,-345.0,-525.8267837762833,0.0,0.0,3.187255533,4.768995569807692,0.0,-24636.0,0.125,-382.5,-525.8267837762833,0.0,0.375,3.923339442,2.306984947596659,0.0,0.07999999821186066,-2.130000114440918,-12.199999809265137,-0.0216064453125,0.044189453125,1.22991943359375,35.63999938964844,0.0,14.0,3.4524383544921875,-0.8625946044921875,Closing,0.0,0.0,3.0,0.0,0.0,0.0,0.0,0.0,
1.6751660000000002,0.0,0.0,17742.0,0.375,-442.5,-525.8267837762833,0.0,0.125,0.635986263,4.7651024965020925,0.0,-24039.0,1.125,330.0,525.8267837762833,0.0,0.25,0.37841793,4.795553352629903,0.004882811999999959,-3289.0,12.25,-367.5,-525.8267837762833,0.0,0.0,3.187255533,4.772975335950854,0.004882811999999959,-24636.0,0.125,-375.0,-525.8267837762833,0.0,0.25,3.927001551,2.3109788915157345,0.025634762999999783,0.029999999329447746,-2.109999895095825,-12.020000457763672,-0.038330078125,-0.01025390625,0.951416015625,35.63999938964844,0.0,0.0,3.4488677978515625,-0.862274169921875,Closing,0.0,0.0,3.0,0.0,0.0,0.0,0.0,0.0,
1.7267509999999993,0.0,0.0,17742.0,0.375,-435.0,-525.8267837762833,0.0,0.125,0.638427669,4.768253650591522,-0.0012207030000004337,-23971.0,0.875,397.5,525.8267837762833,0.0,0.25,0.37841793,4.798724643818143,0.0,-3289.0,12.25,-442.5,-525.8267837762833,0.0,0.0,3.199462563,4.776131696335478,0.014648435999999876,-24703.0,0.125,-405.0,-525.8267837762833,0.0,0.125,3.927001551,2.3141464963224223,0.003662108999999969,0.07000000029802322,-2.1500000953674316,-11.90999984741211,-0.02490234375,-0.00823974609375,1.10107421875,35.63999938964844,0.0,18.0,3.4433441162109375,-0.861968994140625,Closing,0.0,0.0,3.0,0.0,0.0,0.0,0.0,0.0,
1.7727829999999996,0.0,0.0,17659.0,0.625,-510.0,-525.8267837762833,0.0,0.125,0.6469725900000001,4.769760735648209,0.009765624000000805,-23971.0,0.75,427.5,525.8267837762833,0.0,0.25,0.37841793,4.800241359733823,0.0,-3365.0,12.0,-465.0,-525.8267837762833,0.0,0.125,3.2055660780000004,4.777641271378203,0.0,-24703.0,0.125,-457.5,-525.8267837762833,0.0,0.125,3.927001551,2.3156614491727643,0.0,0.10999999940395355,-2.190000057220459,-11.710000038146973,-0.02978515625,0.07720947265625,1.1409912109375,35.63999938964844,0.0,-1.0,3.4337158203125,-0.8615570068359375,Closing,0.0,0.0,3.0,0.0,0.0,0.0,0.0,0.0,
1.813116,0.0,0.0,17659.0,0.375,-540.0,-525.8267837762833,0.0,0.125,0.655517511,4.771815835005141,0.0012207029999995456,-23971.0,0.75,457.5,525.8267837762833,0.0,0.25,0.36865230600000004,4.802309591974023,-0.004882811999999959,-3365.0,11.375,-465.0,-525.8267837762833,0.0,0.0,3.2055660780000004,4.779699766143167,0.004882811999999959,-24703.0,0.125,-465.0,-525.8267837762833,0.0,0.125,3.922118739,2.317727277252412,0.0,0.12999999523162842,-2.200000047683716,-11.600000381469727,-0.02484130859375,-0.0260009765625,0.98291015625,35.63999938964844,0.0,18.0,3.4299468994140625,-0.86114501953125,Closing,0.0,0.0,3.0,0.0,0.0,0.0,0.0,0.0,
1.8535879999999998,0.0,0.0,17659.0,0.375,-532.5,-525.8267837762833,0.0,0.125,0.6457518870000001,4.7733229069958245,0.0,-23893.0,0.625,480.0,525.8267837762833,0.0,0.25,0.36865230600000004,4.803826294740203,0.0,-3365.0,11.875,-420.0,-525.8267837762833,0.0,0.125,3.2055660780000004,4.7812093280983,0.0,-24779.0,0.125,-480.0,-525.8267837762833,0.0,0.125,3.927001551,2.319242216968539,0.0,0.12999999523162842,-2.259999990463257,-11.479999542236328,0.002197265625,0.03192138671875,1.02239990234375,35.63999938964844,0.0,35.0,3.4261932373046875,-0.860595703125,Closing,0.0,0.0,3.0,0.0,0.0,0.0,0.0,0.0,
1.8911849999999994,0.0,0.0,17574.0,0.375,-532.5,-525.8267837762833,0.0,0.125,0.6457518870000001,4.7757890366769455,0.0,-23893.0,0.625,487.5,525.8267837762833,0.0,0.125,0.36987300900000003,4.806308183948043,0.0,-3422.0,12.375,-360.0,-525.8267837762833,0.0,0.0,3.2104488900000003,4.783679532286329,0.0,-24779.0,0.125,-495.0,-525.8267837762833,0.0,0.125,3.927001551,2.321721221171488,0.0,0.17000000178813934,-2.2300000190734863,-11.319999694824219,-0.0345458984375,0.06341552734375,1.01568603515625,35.63999938964844,0.0,-6.0,3.4207611083984375,-0.8593292236328125,Closing,0.0,0.0,3.0,0.0,0.0,0.0,0.0,0.0,
1.9347569999999996,0.0,0.0,17574.0,0.375,-547.5,-525.8267837762833,0.0,0.125,0.6481932930000001,4.777707138991817,0.0,-23893.0,0.625,487.5,525.8267837762833,0.0,0.125,0.371093712,4.808238543681862,0.0,-3422.0,13.5,-382.5,-525.8267837762833,0.0,0.0,3.2104488900000003,4.785600803664528,0.0,-24779.0,0.125,-517.5,-525.8267837762833,0.0,0.125,3.928222254,2.3236493370109157,0.0,0.1599999964237213,-2.309999942779541,-11.119999885559082,-0.04571533203125,0.01324462890625,1.12890625,35.63999938964844,0.0,-2.0,3.415191650390625,-0.857696533203125,Closing,0.0,0.0,3.0,0.0,0.0,0.0,0.0,0.0,
1.9724299999999995,0.0,0.0,17574.0,0.125,-562.5,-545.6692939996718,0.0,0.125,0.6457518870000001,4.779899248456813,0.0,-23810.0,0.5,510.0,545.6692939996718,0.0,0.125,0.367431603,4.810444661577943,0.0012207030000004337,-3422.0,13.375,-435.0,-545.6692939996718,0.0,0.0,3.2116695930000003,4.787796534903848,0.0012207029999995456,-24867.0,0.125,-532.5,-545.6692939996718,0.0,0.125,3.928222254,2.3258528904649975,0.0012207029999999897,0.20000000298023224,-2.359999895095825,-11.069999694824219,-0.0032958984375,0.0391845703125,1.13055419921875,35.63999938964844,0.0,35.0,3.4152069091796875,-0.8572998046875,Closing,0.0,0.0,3.0,0.0,0.0,0.0,0.0,0.0,
1.996875,0.0,0.0,17481.0,0.125,-570.0,-545.6692939996719,0.0,0.125,0.6469725900000001,4.780584285931124,0.0,-23810.0,0.5,517.5,545.6692939996719,0.0,0.125,0.36865230600000004,4.811134076707843,0.0,-3518.0,12.125,-562.5,-545.6692939996719,0.0,0.0,3.2104488900000003,4.7884827041880325,0.0,-24867.0,0.125,-555.0,-545.6692939996719,0.0,0.125,3.927001551,2.3265415042029516,0.0,0.1899999976158142,-2.3399999141693115,-10.970000267028809,-0.0255126953125,0.05487060546875,0.86431884765625,35.63999938964844,0.0,0.0,3.4152984619140625,-0.8565216064453125,Closing,0.0,0.0,3.0,0.0,0.0,0.0,0.0,0.0,
2.0421099999999996,0.0,0.0,17481.0,0.125,-592.5,-555.5905491113663,0.0,0.125,0.650634699,4.782776395396119,0.0,-23810.0,0.625,525.0,555.5905491113663,0.0,0.125,0.36865230600000004,4.8133401946039225,0.0,-3518.0,10.875,-607.5,-555.5905491113663,0.0,0.0,3.2177731080000003,4.79067843542735,0.0,-24867.0,0.125,-562.5,-555.5905491113663,0.0,0.125,3.928222254,2.328745057657032,0.0,0.20999999344348907,-2.309999942779541,-10.800000190734863,0.03094482421875,0.07049560546875,0.95343017578125,35.63999938964844,0.0,55.0,3.415313720703125,-0.8553619384765625,Closing,0.0,0.0,3.0,0.0,0.0,0.0,0.0,0.0,
2.069076,0.0,0.0,17481.0,0.125,-592.5,-555.5905491113663,0.0,0.125,0.643310481,4.784283467386802,0.0,-23810.0,0.625,525.0,555.5905491113663,0.0,0.125,0.363769494,4.814856897370103,-0.0012207030000004337,-3518.0,10.5,-585.0,-555.5905491113663,0.0,0.0,3.2165524050000003,4.792187997382485,0.004882811999999959,-24867.0,0.125,-570.0,-555.5905491113663,0.0,0.25,3.91845663,2.33025999737316,0.0,0.23000000417232513,-2.3299999237060547,-10.75,-0.0303955078125,0.001220703125,0.9654541015625,35.63999938964844,0.0,9.0,3.4153900146484375,-0.8549041748046875,Closing,0.0,0.0,3.0,0.0,0.0,0.0,0.0,0.0,
2.114115,0.0,0.0,17388.0,0.125,-577.5,-555.5905491113663,0.0,0.125,0.656738214,4.785790552443489,0.0,-23725.0,0.625,532.5,555.5905491113663,0.0,0.125,0.36865230600000004,4.816373613285783,0.0,-3518.0,11.0,-525.0,-555.5905491113663,0.0,0.0,3.2092281870000003,4.793697572425209,0.0,-24959.0,0.125,-577.5,-555.5905491113663,0.0,0.25,3.927001551,2.331774950223501,0.0,0.2800000011920929,-2.2699999809265137,-10.59000015258789,-0.0245361328125,-0.02264404296875,0.94842529296875,35.63999938964844,0.0,17.0,3.4154815673828125,-0.853118896484375,Closing,0.0,0.0,3.0,0.0,0.0,0.0,0.0,0.0,
2.1336880000000003,0.0,0.0,17388.0,0.125,-577.5,-555.5905491113663,0.0,0.125,0.650634699,4.787160614326108,0.0,-23725.0,0.625,532.5,555.5905491113663,0.0,0.125,0.36987300900000003,4.817752430396083,0.0,-3593.0,11.125,-495.0,-555.5905491113663,0.0,0.0,3.2153317020000003,4.7950698979059885,0.0,-24959.0,0.125,-585.0,-555.5905491113663,0.0,0.25,3.927001551,2.3331521645651945,0.0,0.25,-2.319999933242798,-10.470000267028809,-0.018798828125,0.05816650390625,1.05047607421875,35.61000061035156,0.0,13.0,3.41558837890625,-0.851715087890625,Closing,0.0,0.0,3.0,0.0,0.0,0.0,0.0,0.0,
2.1817389999999994,0.0,0.0,17388.0,0.125,-585.0,-555.5905491113663,0.0,0.125,0.650634699,4.78962674400723,0.0012207029999995456,-23725.0,0.5,547.5,555.5905491113663,0.0,0.0,0.36865230600000004,4.820234319603923,0.0,-3593.0,12.0,-442.5,-555.5905491113663,0.0,0.0,3.2153317020000003,4.797540102094017,0.0,-24959.0,0.125,-585.0,-555.5905491113663,0.0,0.25,3.928222254,2.3356311687681437,0.0012207029999999897,0.28999999165534973,-2.240000009536743,-10.279999732971191,-0.0245361328125,-0.03289794921875,1.01483154296875,35.61000061035156,0.0,21.0,3.4157867431640625,-0.8494110107421875,Closing,0.0,0.0,3.0,0.0,0.0,0.0,0.0,0.0,
2.2348769999999996,0.0,0.0,17288.0,0.125,-607.5,-555.5905491113663,0.0,0.125,0.650634699,4.791407836214039,0.0,-23631.0,0.375,577.5,555.5905491113663,0.0,0.0,0.36865230600000004,4.822026793681863,0.0,-3593.0,12.875,-450.0,-555.5905491113663,0.0,0.0,3.2165524050000003,4.799324136997861,0.0,-25055.0,0.125,-607.5,-555.5905491113663,0.0,0.25,3.929442957,2.337421559233138,0.0,0.3100000023841858,-2.2300000190734863,-10.0600004196167,-0.05084228515625,-0.0391845703125,0.90386962890625,35.61000061035156,0.0,-7.0,3.416046142578125,-0.8470306396484375,Closing,0.0,0.0,3.0,0.0,0.0,0.0,0.0,0.0,
2.2631499999999996,0.0,0.0,17288.0,0.125,-637.5,-555.5905491113663,0.0,0.125,0.649413996,4.795381037885844,0.0,-23631.0,0.25,607.5,555.5905491113663,0.0,0.0,0.36865230600000004,4.826025385655883,0.0,-3676.0,13.125,-480.0,-555.5905491113663,0.0,0.0,3.2165524050000003,4.803303903141025,0.0,-25055.0,0.125,-607.5,-555.5905491113663,0.0,0.25,3.927001551,2.341415503152214,0.0,0.28999999165534973,-2.2100000381469727,-9.920000076293945,-0.04791259765625,0.0455322265625,0.9884033203125,35.61000061035156,0.0,-16.0,3.4161376953125,-0.8453369140625,Closing,0.0,0.0,3.0,0.0,0.0,0.0,0.0,0.0,
2.308643,0.0,0.0,17288.0,0.125,-660.0,-555.5905491113663,0.0,0.125,0.649413996,4.797299127134713,0.0,-23631.0,0.25,615.0,555.5905491113663,0.0,0.0,0.371093712,4.827955732240203,0.0,-3676.0,12.375,-562.5,-555.5905491113663,0.0,0.0,3.2153317020000003,4.8052251614316335,0.0,-25055.0,0.125,-622.5,-555.5905491113663,0.0,0.25,3.927001551,2.343343605857428,0.0,0.30000001192092896,-2.2100000381469727,-9.739999771118164,-0.0634765625,0.0272216796875,1.1837158203125,35.61000061035156,0.0,-20.0,3.4161529541015625,-0.84246826171875,Closing,0.0,0.0,3.0,0.0,0.0,0.0,0.0,0.0,
2.330607,0.0,0.0,17288.0,0.125,-667.5,-555.5905491113663,0.0,0.125,0.650634699,4.798806212191399,0.0,-23532.0,0.125,615.0,555.5905491113663,0.0,0.0,0.36865230600000004,4.829472448155882,0.0,-3676.0,12.0,-600.0,-555.5905491113663,0.0,0.0,3.2165524050000003,4.806734736474358,0.0,-25158.0,0.125,-630.0,-555.5905491113663,0.0,0.25,3.925780848,2.3448585587077693,0.0,0.28999999165534973,-2.1600000858306885,-9.619999885559082,-0.027099609375,-0.03680419921875,0.932373046875,35.61000061035156,0.0,14.0,3.4161224365234375,-0.8424835205078125,Closing,0.0,0.0,3.0,0.0,0.0,0.0,0.0,0.0,
2.373455,0.0,0.0,17179.0,0.125,-675.0,-555.5905491113663,0.0,0.125,0.650634699,4.801135331764457,-0.0012207029999995456,-23532.0,0.125,622.5,555.5905491113663,0.0,0.0,0.36254879100000004,4.831816451707843,0.0012207030000004337,-3773.0,11.0,-615.0,-555.5905491113663,0.0,0.0,3.2153317020000003,4.809067704188031,0.0,-25158.0,0.125,-645.0,-555.5905491113663,0.0,0.25,3.927001551,2.347199837536284,0.0,0.2800000011920929,-2.180000066757202,-9.520000457763672,-0.0487060546875,0.04022216796875,1.03387451171875,35.61000061035156,0.0,-15.0,3.4161224365234375,-0.8426666259765625,Closing,0.0,0.0,3.0,0.0,0.0,0.0,0.0,0.0,
2.400285,0.0,0.0,17179.0,0.125,-667.5,-555.5905491113663,0.0,0.25,0.650634699,4.801820356172766,0.0,-23532.0,0.125,630.0,555.5905491113663,0.0,0.0,0.36865230600000004,4.832505853688243,0.0,-3773.0,11.0,-600.0,-555.5905491113663,0.0,0.0,3.2153317020000003,4.809753860384626,0.0,-25158.0,0.125,-652.5,-555.5905491113663,0.0,0.25,3.927001551,2.347888438140024,0.0,0.25,-2.119999885559082,-9.380000114440918,0.02978515625,0.03759765625,0.9613037109375,35.61000061035156,0.0,59.0,3.4160919189453125,-0.842620849609375,Closing,0.0,0.0,3.0,0.0,0.0,0.0,0.0,0.0,
2.4433559999999996,0.0,0.0,17179.0,0.0,-667.5,-555.5905491113663,0.0,0.25,0.650634699,4.803738458487638,0.0,-23428.0,0.125,637.5,555.5905491113663,0.0,0.0,0.367431603,4.834436213422062,0.0,-3773.0,10.75,-622.5,-555.5905491113663,0.0,0.0,3.2153317020000003,4.811675131762825,0.0,-25264.0,0.125,-652.5,-555.5905491113663,0.0,0.25,3.925780848,2.349816553979452,0.0,0.23999999463558197,-2.0999999046325684,-9.279999732971191,-0.0843505859375,0.10821533203125,0.947021484375,35.61000061035156,0.0,-65.0,3.4162445068359375,-0.8425140380859375,Closing,0.0,0.0,3.0,0.0,0.0,0.0,0.0,0.0,
2.4692389999999995,0.0,0.0,17072.0,0.0,-667.5,-555.5905491113663,0.0,0.25,0.651855402,4.805108533436261,0.0,-23428.0,0.125,645.0,555.5905491113663,0.0,0.125,0.36865230600000004,4.835815043681863,0.0012207030000004337,-3773.0,10.375,-637.5,-555.5905491113663,0.0,0.0,3.2141109990000003,4.8130474703311945,0.0,-25264.0,0.125,-652.5,-555.5905491113663,0.0,0.25,3.927001551,2.3511937814553603,0.0,0.23999999463558197,-2.119999885559082,-9.229999542236328,-0.06048583984375,0.06268310546875,0.93084716796875,35.61000061035156,0.0,-35.0,3.416259765625,-0.84234619140625,Closing,0.0,0.0,3.0,0.0,0.0,0.0,0.0,0.0,
2.491834,0.0,0.0,17072.0,0.0,-667.5,-555.5905491113663,0.0,0.25,0.650634699,4.806478595318882,0.0,-23428.0,0.25,645.0,555.5905491113663,0.0,0.125,0.36865230600000004,4.837193860792163,0.0,-3882.0,10.0,-660.0,-555.5905491113663,0.0,0.0,3.2153317020000003,4.8144197958119745,0.0,-25264.0,0.0,-652.5,-555.5905491113663,0.0,0.25,3.931884363,2.352570995797054,0.0,0.2800000011920929,-2.009999990463257,-9.119999885559082,0.01953125,0.11737060546875,1.09918212890625,35.61000061035156,0.0,39.0,3.4163360595703125,-0.84173583984375,Closing,0.0,0.0,3.0,0.0,0.0,0.0,0.0,0.0,
2.525009,0.0,0.0,17072.0,0.0,-675.0,-555.5905491113663,0.0,0.25,0.650634699,4.807985680375569,0.0,-23428.0,0.25,645.0,555.5905491113663,0.0,0.125,0.36865230600000004,4.838710576707843,0.0012207030000004337,-3882.0,9.5,-675.0,-555.5905491113663,0.0,0.0,3.2153317020000003,4.815929370854699,0.0,-25264.0,0.0,-652.5,-555.5905491113663,0.0,0.25,3.9367671750000004,2.3540859486473957,-0.0012207029999999897,0.2800000011920929,-1.9700000286102295,-9.029999732971191,-0.06689453125,0.0206298828125,0.81524658203125,35.61000061035156,0.0,-40.0,3.4164276123046875,-0.8411102294921875,Closing,0.0,0.0,3.0,0.0,0.0,0.0,0.0,0.0,
2.568344,0.0,0.0,17072.0,0.0,-682.5,-565.5118042230605,0.0,0.25,0.6481932930000001,4.808533707741817,0.0,-23325.0,0.25,645.0,565.5118042230605,0.0,0.125,0.3662109,4.839262106181862,0.0,-3882.0,8.5,-735.0,-565.5118042230605,0.0,0.0,3.2153317020000003,4.816478303664528,0.0,-25369.0,0.0,-652.5,-565.5118042230605,0.0,0.25,3.9367671750000004,2.354636837010916,0.0,0.3100000023841858,-1.8899999856948853,-8.890000343322754,0.00494384765625,-0.0338134765625,1.11358642578125,35.61000061035156,0.0,47.0,3.41656494140625,-0.8409271240234375,Closing,0.0,0.0,3.0,0.0,0.0,0.0,0.0,0.0,
2.590113,0.0,0.0,16962.0,0.0,-675.0,-595.2756071090697,0.0,0.25,0.651855402,4.8104517969906855,-0.002441405999999091,-23325.0,0.25,645.0,595.2756071090697,0.0,0.125,0.36865230600000004,4.841192452766182,0.0012207030000004337,-3882.0,8.125,-750.0,-595.2756071090697,0.0,0.0,3.2153317020000003,4.818399561955137,-0.0012207029999995456,-25369.0,0.0,-652.5,-595.2756071090697,0.0,0.25,3.9367671750000004,2.3565649397161295,0.0,0.25999999046325684,-1.8200000524520874,-8.819999694824219,0.001220703125,0.01116943359375,0.80194091796875,35.61000061035156,0.0,25.0,3.4168701171875,-0.8408660888671875,Closing,0.0,0.0,3.0,0.0,0.0,0.0,0.0,0.0,
2.640576,0.0,0.0,16962.0,0.0,-675.0,-625.0393724441528,0.0,0.25,0.650634699,4.811410854681124,0.0,-23325.0,0.125,630.0,625.0393724441528,0.0,0.125,0.371093712,4.8421576392078425,0.0,-4005.0,7.875,-735.0,-625.0393724441528,0.0,0.0,3.2153317020000003,4.8193602041880315,0.0,-25470.0,0.125,-637.5,-625.0393724441528,0.0,0.25,3.9416499870000004,2.357529004202951,0.0,0.23999999463558197,-1.7200000286102295,-8.569999694824219,-0.052001953125,0.0357666015625,1.170654296875,35.61000061035156,0.0,-22.0,3.4199066162109375,-0.8416595458984375,Closing,0.0,0.0,3.0,0.0,0.0,0.0,0.0,0.0,
2.7455520000000004,0.0,0.0,16857.0,0.0,-645.0,-654.8031377792358,0.0,0.25,0.650634699,4.81606909382724,0.0,-23225.0,0.125,607.5,654.8031377792358,0.0,0.125,0.36865230600000004,4.846845646311762,0.0,-4119.0,8.125,-712.5,-654.8031377792358,0.0,0.0,3.2153317020000003,4.82402613961538,0.0,-25470.0,0.125,-600.0,-654.8031377792358,0.0,0.25,3.9514156110000003,2.362211561859981,0.0,0.20000000298023224,-1.5,-8.359999656677246,0.04010009765625,0.03240966796875,0.8365478515625,35.61000061035156,0.0,57.0,3.4237213134765625,-0.8421783447265625,Closing,0.0,0.0,3.0,0.0,0.0,0.0,0.0,0.0,
2.8026889999999995,0.0,0.0,16857.0,0.125,-637.5,-725.881063493983,0.0,0.25,0.650634699,0.025686107496658044,0.0,-23128.0,0.25,607.5,725.881063493983,0.0,0.25,0.36865230600000004,0.025850251702252438,0.0,-4119.0,8.5,-720.0,-725.881063493983,0.0,0.0,3.2153317020000003,0.025728545744425697,0.0,-25565.0,0.125,-592.5,-725.881063493983,0.0,0.375,3.977050374,2.5048202027772777,0.0,0.23000000417232513,-1.4600000381469727,-8.229999542236328,0.0311279296875,-0.017822265625,0.86932373046875,35.61000061035156,0.0,55.0,3.427825927734375,-0.842437744140625,Closing,0.0,0.0,3.0,0.0,0.0,0.0,0.0,0.0,
2.8495289999999995,0.0,0.0,16754.0,0.125,-637.5,-790.7810741310168,0.0,0.375,0.6738280560000001,0.21154613590412133,0.0,-23128.0,0.25,607.5,790.7810741310168,0.0,0.25,0.391845663,0.212897997895241,0.0024414059999999793,-4234.0,8.875,-720.0,-790.7810741310168,0.0,0.125,3.2165524050000003,0.21189564963760382,-0.0012207029999995456,-25565.0,0.125,-592.5,-790.7810741310168,0.0,0.375,4.010009355,2.6916505203836207,0.0,0.2199999988079071,-1.4500000476837158,-8.170000076293945,-0.0135498046875,0.02203369140625,1.1121826171875,35.61000061035156,0.0,12.0,3.428985595703125,-0.842437744140625,Closing,0.0,0.0,3.0,0.0,0.0,0.0,0.0,0.0,
2.872301,0.0,0.0,16754.0,0.125,-637.5,-834.5661150353054,0.0,0.5,0.7226561760000001,0.27706945236962904,0.04150390200000054,-23128.0,0.375,607.5,834.5661150353054,0.0,0.25,0.42114253500000004,0.27884003380784833,0.03417968399999971,-4234.0,9.375,-712.5,-834.5661150353054,0.0,0.125,3.23486295,0.2775272228617148,0.004882811999999959,-25565.0,0.125,-600.0,-834.5661150353054,0.0,0.625,4.093017159,2.7575159037625254,0.03784179300000057,0.17000000178813934,-1.409999966621399,-8.100000381469727,-0.0247802734375,-0.07879638671875,1.03057861328125,35.61000061035156,0.0,12.0,3.428985595703125,-0.842498779296875,Closing,0.0,0.0,3.0,0.0,0.0,0.0,0.0,0.0,
2.9147969999999996,0.0,0.0,16754.0,0.125,-645.0,-886.0523954980262,0.0,0.75,0.8276366340000001,0.3554774057827708,0.0,-23128.0,0.75,622.5,886.0523954980262,0.0,0.5,0.5419921320000001,0.3577490445036849,0.0,-4234.0,10.0,-705.0,-886.0523954980262,0.0,0.5,3.354491844,0.35606472086055657,0.0,-25663.0,0.125,-600.0,-886.0523954980262,0.0,0.375,4.191894102,2.836333188816015,0.0,0.0,-1.4900000095367432,-8.020000457763672,0.00177001953125,-0.1712646484375,1.052978515625,35.61000061035156,0.0,52.0,3.42901611328125,-0.8430938720703125,Closing,0.0,0.0,3.0,0.0,0.0,0.0,0.0,0.0,
2.969676,0.0,0.0,16647.0,0.125,-660.0,-914.748787904169,0.0,0.375,0.9875487270000001,0.392543154697541,0.0,-23024.0,0.875,652.5,914.748787904169,0.0,0.25,0.682372977,0.3950516579535415,0.0,-4348.0,11.625,-705.0,-914.748787904169,0.0,0.25,3.489989877,0.39319170931644226,0.0,-25663.0,0.125,-600.0,-914.748787904169,0.0,0.375,4.298095263,2.8735924408531535,0.0,-0.28999999165534973,-1.4700000286102295,-7.820000171661377,-0.01812744140625,-0.2369384765625,1.02227783203125,35.61000061035156,0.0,39.0,3.4297027587890625,-0.8455047607421875,Closing,0.0,0.0,3.0,0.0,0.0,0.0,0.0,0.0,
2.9892380000000003,0.0,0.0,16647.0,0.125,-675.0,-920.7014851839415,0.0,0.375,1.01318349,0.40262046578192395,0.11108397299999995,-23024.0,1.125,675.0,920.7014851839415,0.0,0.25,0.728759691,0.40519336697064695,0.12084959699999942,-4348.0,12.125,-712.5,-920.7014851839415,0.0,0.25,3.547362918,0.4032856700011855,0.1269531119999998,-25663.0,0.125,-600.0,-920.7014851839415,0.0,0.375,4.3383784620000005,2.8837223609152853,0.10620116100000043,-0.6100000143051147,-1.350000023841858,-7.639999866485596,-0.026123046875,-0.1910400390625,1.02630615234375,35.61000061035156,0.0,22.0,3.4304351806640625,-0.8486175537109375,Closing,0.0,0.0,3.0,0.0,0.0,0.0,0.0,0.0,
3.033499999999999,0.0,0.0,16647.0,0.125,-712.5,-920.7014851839414,0.0,0.375,1.114501839,0.4038535306224844,0.05004882300000002,-23024.0,1.5,705.0,920.7014851839414,0.0,0.25,0.8532713970000001,0.40643431157456694,0.0,-4348.0,12.625,-727.5,-920.7014851839414,0.0,0.25,3.6743160300000004,0.40452077209519993,0.0,-25757.0,0.375,-585.0,-920.7014851839414,0.0,0.375,4.426269078,2.88496186301676,0.05004882300000002,-0.8899999856948853,-1.399999976158142,-7.360000133514404,-0.07391357421875,-0.16717529296875,0.93389892578125,35.61000061035156,0.0,-31.0,3.431793212890625,-0.855224609375,Closing,0.0,0.0,3.0,0.0,0.0,0.0,0.0,0.0,
3.0570430000000006,0.0,0.0,16647.0,0.125,-750.0,-926.7221629343215,0.0,0.375,1.157226444,0.41439115023697776,0.08911131900000013,-22916.0,1.875,675.0,926.7221629343215,0.0,0.25,0.8923338930000001,0.4170392706721136,0.0,-4348.0,12.75,-735.0,-926.7221629343215,0.0,0.25,3.715819932,0.4150758018257313,0.0,-25757.0,0.375,-585.0,-926.7221629343215,0.0,0.25,4.464110871,2.8955544946668237,0.0805663980000002,-0.9800000190734863,-1.399999976158142,-7.269999980926514,-0.01934814453125,-0.13385009765625,1.11944580078125,35.61000061035156,0.0,22.0,3.4322967529296875,-0.857818603515625,Closing,0.0,0.0,3.0,0.0,0.0,0.0,0.0,0.0,
3.0838630000000005,0.0,0.0,16524.0,0.125,-765.0,-934.601647157986,0.0,0.375,1.192626831,0.4114981540479696,0.03540038699999992,-22916.0,2.125,652.5,934.601647157986,0.0,0.25,0.9069823290000001,0.4141277871135694,0.030517575000000186,-4348.0,13.25,-735.0,-934.601647157986,0.0,0.125,3.7268062590000004,0.4121780258666051,0.03784179299999968,-25757.0,0.375,-592.5,-934.601647157986,0.0,0.25,4.488524931000001,2.8926463954834887,0.03295898099999928,-1.1299999952316284,-1.2799999713897705,-7.130000114440918,-0.03253173828125,-0.18377685546875,1.08197021484375,35.61000061035156,0.0,11.0,3.4334564208984375,-0.8634185791015625,Closing,0.0,0.0,3.0,0.0,0.0,0.0,0.0,0.0,
3.1185569999999996,0.0,0.0,16524.0,0.125,-780.0,-934.6016471579859,0.0,0.375,1.231689327,0.41245719867240493,0.0,-22916.0,2.375,645.0,934.6016471579859,0.0,0.25,0.9216307650000001,0.41509296040573024,0.0,-4463.0,13.875,-712.5,-934.6016471579859,0.0,0.125,3.767089458,0.41313865501191027,0.0,-25757.0,0.375,-615.0,-934.6016471579859,0.0,0.25,4.527587427,2.893610446836096,0.0,-1.309999942779541,-1.409999966621399,-7.010000228881836,-0.0128173828125,-0.1431884765625,0.8323974609375,35.61000061035156,0.0,22.0,3.4348602294921875,-0.8695831298828125,Closing,0.0,0.0,3.0,0.0,0.0,0.0,0.0,0.0,
3.1391310000000003,0.0,0.0,16524.0,0.375,-787.5,-934.601647157986,0.0,0.125,1.236572139,0.41478631824546297,0.03662108999999991,-22916.0,2.5,652.5,934.601647157986,0.0,0.125,0.926513577,0.41743696395769025,0.010986326999999463,-4463.0,14.5,-697.5,-934.601647157986,0.0,0.125,3.767089458,0.41547162272558413,0.023193356999999803,-25757.0,0.375,-630.0,-934.601647157986,0.0,0.25,4.537353051,2.895951725664611,0.0,-1.4199999570846558,-1.3700000047683716,-6.920000076293945,-0.05279541015625,0.0484619140625,1.0811767578125,35.59000015258789,0.0,-35.0,3.4362640380859375,-0.8761749267578125,Closing,0.0,0.0,3.0,0.0,0.0,0.0,0.0,0.0,
3.166631,0.0,0.0,16524.0,0.375,-802.5,-934.601647157986,0.0,0.125,1.235351436,0.41533434561171173,-0.0012207029999999897,-22798.0,2.875,712.5,934.601647157986,0.0,0.0,0.925292874,0.41798849343171024,0.003662109000000413,-4463.0,15.0,-697.5,-934.601647157986,0.0,0.0,3.768310161,0.4160205555354139,0.0,-25865.0,0.375,-652.5,-934.601647157986,0.0,0.125,4.542235863,2.8965026140281314,0.010986327000000351,-1.4600000381469727,-1.440000057220459,-6.829999923706055,-0.04364013671875,-0.1187744140625,1.06927490234375,35.59000015258789,0.0,-5.0,3.4374542236328125,-0.8829345703125,Closing,0.0,0.0,3.0,0.0,0.0,0.0,0.0,0.0,
3.1923399999999993,0.0,0.0,16394.0,0.375,-802.5,-934.601647157986,0.0,0.125,1.235351436,0.4165674104522714,-0.0012207029999999897,-22798.0,2.875,735.0,934.601647157986,0.0,0.0,0.925292874,0.41922943803562945,0.0,-4463.0,15.25,-727.5,-934.601647157986,0.0,0.0,3.767089458,0.41725565762942757,0.0,-25865.0,0.375,-675.0,-934.601647157986,0.0,0.125,4.543456566000001,2.897742116129605,0.0,-1.4800000190734863,-1.5199999809265137,-6.800000190734863,-0.10235595703125,0.01385498046875,1.03131103515625,35.59000015258789,0.0,-79.0,3.43798828125,-0.88641357421875,Closing,0.0,0.0,3.0,0.0,0.0,0.0,0.0,0.0,
3.2255549999999995,0.0,0.0,16394.0,0.375,-810.0,-934.6016471579859,0.0,0.125,1.236572139,0.41738945150164536,0.0012207029999999897,-22798.0,2.875,750.0,934.6016471579859,0.0,0.0,0.925292874,0.42005673224666024,0.0,-4597.0,14.625,-832.5,-934.6016471579859,0.0,0.0,3.768310161,0.4180790568441729,0.0,-25865.0,0.375,-727.5,-934.6016471579859,0.0,0.25,4.543456566000001,2.898568448674886,0.0,-1.5399999618530273,-1.5800000429153442,-6.739999771118164,-0.0465087890625,0.06622314453125,1.0440673828125,35.59000015258789,0.0,-28.0,3.4390106201171875,-0.89349365234375,Closing,0.0,0.0,3.0,0.0,0.0,0.0,0.0,0.0,
3.254461,0.0,0.0,16394.0,0.375,-810.0,-942.5196937322618,0.0,0.125,1.235351436,0.41293759918320677,0.0,-22798.0,2.625,780.0,942.5196937322618,0.0,0.0,0.925292874,0.41557643086242496,0.0,-4597.0,14.0,-870.0,-942.5196937322618,0.0,0.0,3.765868755,0.4136198492340951,0.0,-25865.0,0.375,-750.0,-942.5196937322618,0.0,0.25,4.542235863,2.8940933552956527,0.0,-1.4900000095367432,-1.6299999952316284,-6.71999979019165,-0.06640625,-0.08197021484375,1.17559814453125,35.59000015258789,0.0,-26.0,3.439849853515625,-0.90057373046875,Closing,0.0,0.0,3.0,0.0,0.0,0.0,0.0,0.0,
3.3053450000000004,0.0,0.0,16259.0,0.375,-825.0,-950.4753389130487,0.0,0.125,1.235351436,0.4082952362376602,0.0,-22665.0,2.5,825.0,950.4753389130487,0.0,0.0,0.9228514680000001,0.4109044014141637,0.0,-4597.0,12.875,-900.0,-950.4753389130487,0.0,0.0,3.77197227,0.40896981623776574,0.0,-25994.0,0.375,-810.0,-950.4753389130487,0.0,0.25,4.539794457,2.8894267567214884,0.0,-1.5,-1.649999976158142,-6.699999809265137,-0.0335693359375,-0.03094482421875,0.93145751953125,35.59000015258789,0.0,-5.0,3.440826416015625,-0.9111480712890625,Closing,0.0,0.0,3.0,0.0,0.0,0.0,0.0,0.0,
3.3280179999999993,0.0,0.0,16259.0,0.375,-832.5,-950.4753389130487,0.0,0.125,1.236572139,0.4085692499207845,0.0,-22665.0,2.5,840.0,950.4753389130487,0.0,0.125,0.925292874,0.4111801661511737,-0.0012207030000004337,-4747.0,12.625,-907.5,-950.4753389130487,0.0,0.0,3.77197227,0.4092442826426806,0.003662108999999969,-25994.0,0.375,-825.0,-950.4753389130487,0.0,0.25,4.537353051,2.8897022009032485,0.0,-1.4700000286102295,-1.7799999713897705,-6.679999828338623,-0.06201171875,-0.07879638671875,1.247314453125,35.59000015258789,0.0,-17.0,3.44140625,-0.9180450439453125,Closing,0.0,0.0,3.0,0.0,0.0,0.0,0.0,0.0,
3.378238,0.0,0.0,16259.0,0.375,-877.5,-958.4676464526991,0.0,0.125,1.2426756540000001,0.4038716880829351,0.0,-22665.0,2.125,892.5,958.4676464526991,0.0,0.125,0.925292874,0.4064525850682439,0.0,-4747.0,12.25,-952.5,-958.4676464526991,0.0,0.125,3.7817378940000004,0.40453895955516717,0.0,-25994.0,0.375,-840.0,-958.4676464526991,0.0,0.25,4.542235863,2.884980115268909,0.0,-1.5399999618530273,-1.7200000286102295,-6.630000114440918,-0.0589599609375,-0.099365234375,0.9798583984375,35.59000015258789,0.0,-20.0,3.4418487548828125,-0.9287109375,Closing,0.0,0.0,3.0,0.0,0.0,0.0,0.0,0.0,
3.447967,0.0,0.0,16107.0,0.375,-937.5,-1015.3671248208689,0.0,0.25,1.2414549510000001,0.3728691422404139,0.0,-22517.0,2.125,937.5,1015.3671248208689,0.0,0.25,0.926513577,0.3752519209137368,0.0,-4909.0,12.0,-997.5,-1015.3671248208689,0.0,0.125,3.7866207060000003,0.37348519171561645,0.0,-26133.0,0.375,-877.5,-1015.3671248208689,0.0,0.25,4.537353051,2.8538157194814233,0.0,-1.5199999809265137,-1.8899999856948853,-6.510000228881836,-0.16485595703125,0.0072021484375,1.19390869140625,35.59000015258789,0.0,-129.0,3.441558837890625,-0.9468994140625,Closing,0.0,0.0,3.0,0.0,0.0,0.0,0.0,0.0,
3.4718020000000007,0.0,0.0,16107.0,0.375,-952.5,-1033.8124247349224,0.0,0.25,1.2414549510000001,0.2781372234136035,-0.003662109000000191,-22517.0,2.125,952.5,1033.8124247349224,0.0,0.25,0.925292874,0.2799146283236077,0.0012207030000004337,-4909.0,11.75,-1005.0,-1033.8124247349224,0.0,0.125,3.7866207060000003,0.2785967580629142,0.004882811999999959,-26133.0,0.375,-915.0,-1033.8124247349224,0.0,0.25,4.519042506,2.758589249144994,-0.009765623999999917,-1.5700000524520874,-1.8899999856948853,-6.489999771118164,-0.0452880859375,0.09808349609375,0.9097900390625,35.59000015258789,0.0,-28.0,3.4413604736328125,-0.950531005859375,Closing,0.0,0.0,3.0,0.0,0.0,0.0,0.0,0.0,
3.510982999999999,0.0,0.0,16107.0,0.375,-975.0,-1039.2726792384253,0.0,0.25,1.225585812,0.19446881169012206,0.0,-22517.0,2.0,975.0,1039.2726792384253,0.0,0.25,0.916747953,0.19571154294521448,0.0,-4909.0,11.75,-1027.5,-1039.2726792384253,0.0,0.125,3.7866207060000003,0.19479011049394668,0.0,-26133.0,0.375,-937.5,-1039.2726792384253,0.0,0.25,4.499511258,2.6744840433626806,0.0,-1.5,-1.940000057220459,-6.46999979019165,0.0426025390625,-0.0869140625,1.04461669921875,35.59000015258789,0.0,84.0,3.440216064453125,-0.9647369384765625,Closing,0.0,0.0,3.0,0.0,0.0,0.0,0.0,0.0,
3.531745,0.0,0.0,16107.0,0.375,-982.5,-1029.136433017568,0.0,0.25,1.201171752,0.17350073975086985,-0.013427732999999886,-22355.0,1.875,990.0,1029.136433017568,0.0,0.25,0.9069823290000001,0.17460947688047004,-0.013427732999999442,-4909.0,11.5,-1035.0,-1029.136433017568,0.0,0.125,3.7792964880000004,0.17378739538300006,0.0,-26287.0,0.375,-952.5,-1029.136433017568,0.0,0.25,4.475097198,2.6534065068231145,-0.024414059999999793,-1.4800000190734863,-1.940000057220459,-6.460000038146973,-0.02215576171875,0.02667236328125,0.97357177734375,35.59000015258789,0.0,5.0,3.4399261474609375,-0.96826171875,Closing,0.0,0.0,3.0,0.0,0.0,0.0,0.0,0.0,
3.5751999999999997,0.0,0.0,15947.0,0.125,-997.5,-1025.927335381647,0.0,0.375,1.129150275,0.16660273661008312,-0.035400387000000144,-22355.0,1.625,1012.5,1025.927335381647,0.0,0.25,0.859374912,0.1676673928198367,0.0,-5079.0,11.0,-1050.0,-1025.927335381647,0.0,0.375,3.702392199,0.16687799545247287,0.0,-26287.0,0.375,-967.5,-1025.927335381647,0.0,0.25,4.421386266,2.6464724924000813,-0.023193357000000248,-1.399999976158142,-2.0299999713897705,-6.429999828338623,-0.08734130859375,0.11669921875,1.0145263671875,35.59000015258789,0.0,-66.0,3.4386444091796875,-0.9778900146484375,Closing,0.0,0.0,3.0,0.0,0.0,0.0,0.0,0.0,
3.5955459999999992,0.0,0.0,15947.0,0.125,-997.5,-1035.3346672037173,0.0,0.375,1.096191294,0.16447617134300593,0.0,-22355.0,1.625,1027.5,1035.3346672037173,0.0,0.25,0.8288573370000001,0.16552723797456223,-0.04272460500000008,-5079.0,11.0,-1057.5,-1035.3346672037173,0.0,0.25,3.654784782,0.16474791670233055,0.0,-26287.0,0.375,-967.5,-1035.3346672037173,0.0,0.25,4.35790971,2.6443348253198433,0.0,-1.1799999475479126,-2.1500000953674316,-6.409999847412109,-0.11181640625,0.13372802734375,1.00555419921875,35.59000015258789,0.0,-90.0,3.43731689453125,-0.9832763671875,Closing,0.0,0.0,3.0,0.0,0.0,0.0,0.0,0.0,
3.6436040000000003,0.0,0.0,15947.0,0.375,-1005.0,-1035.3346672037173,0.0,0.25,1.03759755,0.16488718860119175,-0.05859374400000017,-22188.0,1.5,1042.5,1035.3346672037173,0.0,0.25,0.783691326,0.16594088179270225,-0.052490229,-5079.0,10.625,-1095.0,-1035.3346672037173,0.0,0.25,3.605956662,0.1651596130378052,-0.05737304099999996,-26444.0,0.375,-975.0,-1035.3346672037173,0.0,0.25,4.315185105,2.64474798830893,0.0,-0.9599999785423279,-2.2100000381469727,-6.389999866485596,-0.10345458984375,0.101318359375,1.04986572265625,35.59000015258789,0.0,-75.0,3.4356842041015625,-0.9879608154296875,Closing,0.0,0.0,3.0,0.0,0.0,0.0,0.0,0.0,
3.67063,0.0,0.0,15787.0,0.375,-997.5,-1044.7515069864035,0.0,0.25,1.018066302,0.16280387672680222,-0.020751950999999824,-22188.0,1.5,1042.5,1044.7515069864035,0.0,0.25,0.745849533,0.1638442567460981,0.0,-5079.0,10.25,-1110.0,-1044.7515069864035,0.0,0.125,3.5815426020000003,0.16307285914303504,0.0,-26444.0,0.375,-982.5,-1044.7515069864035,0.0,0.25,4.274901906,2.6426538004273272,-0.03906249600000056,-0.5400000214576721,-2.319999933242798,-6.340000152587891,-0.05572509765625,0.17132568359375,0.84228515625,35.56999969482422,0.0,-41.0,3.43133544921875,-0.993927001953125,Closing,0.0,0.0,3.0,0.0,0.0,0.0,0.0,0.0,
3.715781,0.0,0.0,15787.0,0.375,-997.5,-1041.685016535952,0.0,0.25,0.994872945,0.1566629788666092,-0.030517574999999963,-22188.0,1.625,1027.5,1041.685016535952,0.0,0.25,0.667724541,0.15766411616292617,0.0,-5258.0,9.75,-1117.5,-1041.685016535952,0.0,0.125,3.563232057,0.15692181537245287,0.0,-26444.0,0.375,-982.5,-1041.685016535952,0.0,0.25,4.255370658,2.636480843781196,-0.04394530799999963,-0.4000000059604645,-2.380000114440918,-6.269999980926514,-0.08843994140625,0.17169189453125,0.879150390625,35.56999969482422,0.0,-70.0,3.4301300048828125,-0.9948577880859375,Closing,0.0,0.0,3.0,0.0,0.0,0.0,0.0,0.0,
3.7357,0.0,0.0,15787.0,0.375,-997.5,-1041.6850165359517,0.0,0.25,0.996093648,0.1572110062328572,-0.010986327000000129,-22188.0,1.625,1027.5,1041.6850165359517,0.0,0.25,0.662841729,0.15821564563694537,-0.03173827799999973,-5258.0,9.375,-1117.5,-1041.6850165359517,0.0,0.125,3.558349245,0.15747074818228182,-0.009765623999999917,-26444.0,0.375,-975.0,-1041.6850165359517,0.0,0.25,4.241942925,2.6370317321447154,-0.014648435999999876,-0.28999999165534973,-2.3399999141693115,-6.199999809265137,0.0244140625,0.11590576171875,0.99017333984375,35.56999969482422,0.0,51.0,3.4275970458984375,-0.9964599609375,Closing,0.0,0.0,3.0,0.0,0.0,0.0,0.0,0.0,
3.7758339999999997,0.0,0.0,15787.0,0.375,-1012.5,-1041.685016535952,0.0,0.25,0.9753416970000001,0.1581700573902933,-0.008544920999999928,-22023.0,1.625,1027.5,1041.685016535952,0.0,0.25,0.643310481,0.15918082550385537,0.0,-5258.0,9.25,-1132.5,-1041.685016535952,0.0,0.125,3.55224573,0.15843138387138145,0.0,-26599.0,0.375,-967.5,-1041.685016535952,0.0,0.125,4.227294489,2.6379957900644304,-0.014648435999999876,-0.20999999344348907,-2.4000000953674316,-6.170000076293945,-0.02294921875,0.17742919921875,1.01800537109375,35.56999969482422,0.0,0.0,3.4250335693359375,-0.997650146484375,Closing,0.0,0.0,3.0,0.0,0.0,0.0,0.0,0.0,
3.794891999999999,0.0,0.0,15622.0,0.375,-1020.0,-1041.685016535952,0.0,0.25,0.9704588850000001,0.1585810746484791,-0.010986327000000018,-22023.0,1.625,1027.5,1041.685016535952,0.0,0.0,0.635986263,0.1595944693219954,-0.019531247999999835,-5258.0,9.0,-1140.0,-1041.685016535952,0.0,0.125,3.551025027,0.15884308020685609,-0.004882811999999959,-26599.0,0.375,-960.0,-1041.685016535952,0.0,0.25,4.223632380000001,2.6384089530535166,0.0,-0.1599999964237213,-2.299999952316284,-6.170000076293945,-0.03546142578125,0.02081298828125,0.68994140625,35.56999969482422,0.0,-10.0,3.423736572265625,-0.9986724853515625,Closing,0.0,0.0,3.0,0.0,0.0,0.0,0.0,0.0,
3.840586,0.0,0.0,15622.0,0.125,-1042.5,-1025.1114830425272,0.0,0.125,0.965576073,0.1151436310494778,-0.007324218000000049,-22023.0,1.5,1042.5,1025.1114830425272,0.0,0.25,0.627441342,0.11587944358356181,-0.004882811999999959,-5442.0,8.5,-1147.5,-1025.1114830425272,0.0,0.125,3.548583621,0.11533386983688382,-0.004882811999999959,-26599.0,0.375,-975.0,-1025.1114830425272,0.0,0.25,4.202880429,2.5947447426627943,0.0,-0.10000000149011612,-2.369999885559082,-6.179999828338623,0.006103515625,0.026123046875,1.3780517578125,35.56999969482422,0.0,59.0,3.4237823486328125,-0.998931884765625,Closing,0.0,0.0,3.0,0.0,0.0,0.0,0.0,0.0,
3.8656500000000005,0.0,0.0,15622.0,0.125,-1050.0,-1001.801615930192,0.0,0.25,0.965576073,0.024518914550015956,0.0,-22023.0,1.5,1050.0,1001.801615930192,0.0,0.25,0.6323241540000001,0.024675599939243297,0.0,-5442.0,8.5,-1140.0,-1001.801615930192,0.0,0.125,3.547362918,0.024559424377003283,0.0,-26599.0,0.375,-982.5,-1001.801615930192,0.0,0.125,4.197997617,2.503646916456397,-0.019531247999999835,-0.10000000149011612,-2.2699999809265137,-6.199999809265137,-0.0196533203125,-0.0057373046875,1.05059814453125,35.56999969482422,0.0,22.0,3.4238739013671875,-0.998992919921875,Closing,0.0,0.0,3.0,0.0,0.0,0.0,0.0,0.0,
3.8902509999999992,0.0,0.0,15622.0,0.125,-1042.5,-992.125961780548,0.0,0.25,0.96435537,4.8471696697273625,-0.0012207029999999897,-21855.0,1.5,1050.0,992.125961780548,0.0,0.25,0.614013609,4.8781449669740224,-0.006103514999999504,-5442.0,8.0,-1125.0,-992.125961780548,0.0,0.125,3.5241695610000003,4.855178099476499,0.0,-26761.0,0.375,-1012.5,-992.125961780548,0.0,0.125,4.194335508,2.3934744994746335,0.0,-0.11999999731779099,-2.2799999713897705,-6.230000019073486,0.0439453125,0.02215576171875,0.9488525390625,35.56999969482422,0.0,78.0,3.4239654541015625,-0.9987945556640625,Closing,0.0,0.0,3.0,0.0,0.0,0.0,0.0,0.0,
3.9271339999999992,0.0,0.0,15457.0,0.125,-1027.5,-992.1259617805481,0.0,0.375,0.955810449,4.846895656044238,-0.0024414059999999793,-21855.0,1.25,1042.5,992.1259617805481,0.0,0.25,0.590820252,4.877869202237013,-0.01831054500000029,-5621.0,7.875,-1117.5,-992.1259617805481,0.0,0.25,3.489989877,4.854903633071585,-0.03051757499999974,-26761.0,0.375,-1020.0,-992.1259617805481,0.0,0.25,4.1882319930000005,2.393199055292874,-0.004882811999999959,-0.07000000029802322,-2.2799999713897705,-6.21999979019165,-0.082763671875,0.15338134765625,1.343994140625,35.56999969482422,0.0,-45.0,3.4243621826171875,-0.998260498046875,Closing,0.0,0.0,3.0,0.0,0.0,0.0,0.0,0.0,
3.947308,0.0,0.0,15457.0,0.125,-1020.0,-992.1259617805481,0.0,0.375,0.943603419,4.847032666152302,0.0,-21855.0,1.125,1042.5,992.1259617805481,0.0,0.25,0.5822753310000001,4.878007087892893,-0.017089841999999855,-5621.0,7.625,-1117.5,-992.1259617805481,0.0,0.25,3.444823866,4.85504086954594,-0.026855466000000217,-26761.0,0.375,-1020.0,-992.1259617805481,0.0,0.25,4.1833491810000005,2.393336780667308,0.0,-0.05000000074505806,-2.180000066757202,-6.199999809265137,0.0692138671875,0.13421630859375,0.94305419921875,35.56999969482422,0.0,89.0,3.424835205078125,-0.9976043701171875,Closing,0.0,0.0,3.0,0.0,0.0,0.0,0.0,0.0,
3.972471999999999,0.0,0.0,15457.0,0.125,-1005.0,-912.7559208869934,0.0,0.375,0.8813475660000001,4.847306679835425,-0.04882812000000003,-21855.0,1.0,1042.5,912.7559208869934,0.0,0.25,0.576171816,4.878282852629902,-0.007324217999999938,-5621.0,7.375,-1110.0,-912.7559208869934,0.0,0.375,3.388671528,4.855315335950854,-0.05981444699999994,-26761.0,0.375,-1005.0,-912.7559208869934,0.0,0.25,4.166259339,2.3936122248490674,-0.003662109000000413,0.03999999910593033,-2.2100000381469727,-6.179999828338623,-0.02838134765625,0.14447021484375,1.2596435546875,35.56999969482422,0.0,4.0,3.4251861572265625,-0.9970703125,Closing,0.0,0.0,3.0,0.0,0.0,0.0,0.0,0.0,
4.00888,0.0,0.0,15457.0,0.125,-990.0,-873.0709004402161,0.0,0.25,0.819091713,4.847991710776736,0.0,-21688.0,0.75,1050.0,873.0709004402161,0.0,0.25,0.5407714290000001,4.878972261185052,0.0,-5621.0,7.0,-1117.5,-873.0709004402161,0.0,0.25,3.34472622,4.856001498691244,0.0,-26922.0,0.375,-1005.0,-873.0709004402161,0.0,0.25,4.112548407,2.394300832019914,0.0,0.15000000596046448,-2.0299999713897705,-6.090000152587891,-0.03289794921875,0.06951904296875,0.80633544921875,35.56999969482422,0.0,-11.0,3.42626953125,-0.994476318359375,Closing,0.0,0.0,3.0,0.0,0.0,0.0,0.0,0.0,
4.034578000000001,0.0,0.0,15297.0,0.125,-990.0,-744.0945088863373,0.0,0.25,0.7653807810000001,4.84881375182611,4.874877959,-21688.0,0.75,1042.5,744.0945088863373,0.0,0.25,0.49926752700000004,4.879799555396083,-0.04272460500000008,-5621.0,5.75,-1117.5,-744.0945088863373,0.0,0.125,3.306884427,4.856824897905989,4.884247662,-26922.0,0.125,-997.5,-744.0945088863373,0.0,0.25,4.082030832,2.3951271645651953,-0.051269525999999566,0.23999999463558197,-2.069999933242798,-6.059999942779541,0.01513671875,0.1475830078125,0.9344482421875,35.56999969482422,0.0,33.0,3.42669677734375,-0.9933319091796875,Closing,0.0,0.0,3.0,0.0,0.0,0.0,0.0,0.0,
4.065451,0.0,0.0,15297.0,0.0,-1005.0,-714.3307435512543,0.0,0.25,0.7507323450000001,4.849909806558606,-0.030517575000000186,-21688.0,0.5,1027.5,714.3307435512543,0.0,0.25,0.46386714,4.880902614344122,0.0,-5799.0,5.0,-1110.0,-714.3307435512543,0.0,0.125,3.277587555,4.8579227635256474,0.0,-26922.0,0.125,-990.0,-714.3307435512543,0.0,0.25,4.029540603,2.396228941292235,-0.032958981000000165,0.6600000262260437,-1.8899999856948853,-5.900000095367432,0.1114501953125,0.16326904296875,0.9620361328125,35.56999969482422,0.0,126.0,3.4293365478515625,-0.986328125,Closing,0.0,0.0,3.0,0.0,0.0,0.0,0.0,0.0,
4.112336,0.0,0.0,15297.0,0.0,-1005.0,-634.9606275558473,0.0,0.25,0.7324218,4.851416885082292,-0.035400387000000144,-21688.0,0.375,922.5,634.9606275558473,0.0,0.25,0.430908159,4.8824193236850535,0.0,-5799.0,3.625,-1080.0,-634.9606275558473,0.0,0.125,3.289794585,4.859432332024578,0.0,-26922.0,0.125,-982.5,-634.9606275558473,0.0,0.25,4.014892167,2.39774388757547,-0.048828119999999586,0.7599999904632568,-1.8600000143051147,-5.869999885559082,0.05059814453125,0.13458251953125,1.16015625,35.56999969482422,0.0,75.0,3.4303131103515625,-0.9839935302734375,Closing,0.0,0.0,3.0,0.0,0.0,0.0,0.0,0.0,
4.131829999999999,0.0,0.0,15297.0,0.0,-997.5,-634.9606275558472,0.0,0.25,0.7226561760000001,4.8522389261316645,-0.007324217999999938,-21553.0,0.375,870.0,634.9606275558472,0.0,0.125,0.405273396,4.8832466178960825,-0.02075195100000027,-5799.0,3.375,-1065.0,-634.9606275558472,0.0,0.0,3.277587555,4.860255731239321,0.0,-27077.0,0.125,-975.0,-634.9606275558472,0.0,0.25,3.981933186,2.3985702201207504,0.0,0.8700000047683716,-1.5800000429153442,-5.789999961853027,0.0672607421875,0.0858154296875,0.9263916015625,35.56999969482422,0.0,85.0,3.4339447021484375,-0.976318359375,Closing,0.0,0.0,3.0,0.0,0.0,0.0,0.0,0.0,
4.1763509999999995,0.0,0.0,15140.0,0.0,-967.5,-456.3779604434966,0.0,0.125,0.717773364,4.853197977289101,-0.007324217999999938,-21553.0,0.25,810.0,456.3779604434966,0.0,0.0,0.37841793,4.884211797762993,-0.01586913900000031,-5963.0,2.875,-1042.5,-456.3779604434966,0.0,0.0,3.2727047430000002,4.861216366928422,0.0,-27077.0,0.125,-937.5,-456.3779604434966,0.0,0.125,3.9514156110000003,2.399534278040465,-0.043945308000000516,0.8999999761581421,-1.5199999809265137,-5.75,0.01947021484375,0.018798828125,1.04266357421875,35.560001373291016,0.0,46.0,3.43695068359375,-0.9710845947265625,Closing,0.0,0.0,3.0,0.0,0.0,0.0,0.0,0.0,
4.196422999999999,0.0,0.0,15140.0,0.0,-945.0,-218.26772511005402,0.0,0.125,0.70800774,4.853471990972226,0.0,-21553.0,0.25,817.5,218.26772511005402,0.0,0.0,0.373535118,4.884487562500003,-0.017089841999999855,-5963.0,2.375,-1027.5,-218.26772511005402,0.0,0.0,3.2727047430000002,4.861490833333336,0.0,-27077.0,0.125,-915.0,-218.26772511005402,0.0,0.125,3.907470303,2.399809722222225,0.0,0.8700000047683716,-1.3899999856948853,-5.730000019073486,0.0888671875,0.00994873046875,0.9437255859375,35.560001373291016,0.0,111.0,3.4385833740234375,-0.9710845947265625,Closing,0.0,0.0,3.0,0.0,0.0,0.0,0.0,0.0,
4.230391999999999,0.0,0.0,15140.0,0.0,-922.5,-69.44881863892078,0.0,0.125,0.703124928,4.854020018338474,-0.009765623999999917,-21553.0,0.125,832.5,69.44881863892078,0.0,0.25,0.373535118,4.885039091974023,-0.013427732999999442,-5963.0,1.0,-975.0,-69.44881863892078,0.0,0.0,3.2678219310000003,4.862039766143166,0.0,-27077.0,0.125,-877.5,-69.44881863892078,0.0,0.25,3.917235927,2.400360610585745,-0.04272460500000008,0.9399999976158142,-1.2599999904632568,-5.699999809265137,0.16748046875,0.10003662109375,1.16278076171875,35.560001373291016,0.0,184.0,3.442413330078125,-0.9708709716796875,Closing,0.0,0.0,3.0,0.0,0.0,0.0,0.0,0.0,
4.259829999999999,0.0,0.0,15008.0,0.0,-877.5,0.0,0.0,0.25,0.7128905520000001,4.854020018338474,-0.0012207029999995456,-21414.0,0.0,855.0,0.0,0.0,0.25,0.363769494,4.885039091974023,0.003662108999999525,-5963.0,0.375,-937.5,0.0,0.0,0.0,3.2690426340000003,4.862039766143166,-0.009765623999999917,-27214.0,0.375,-855.0,0.0,0.0,0.25,3.9331050660000004,2.400360610585745,0.009765623999999917,0.949999988079071,-0.800000011920929,-5.679999828338623,0.98114013671875,-0.19000244140625,0.89532470703125,35.560001373291016,0.0,1008.0,3.4476165771484375,-0.970458984375,Closing,0.0,0.0,3.0,0.0,0.0,0.0,0.0,0.0,
4.291372,0.0,0.0,15008.0,0.0,-840.0,0.0,0.0,0.25,0.717773364,4.854020018338474,-0.0012207029999995456,-21414.0,0.0,840.0,0.0,0.0,0.25,0.319824186,4.885039091974023,0.003662108999999525,-6066.0,0.0,-772.5,0.0,0.0,0.0,3.2702633370000003,4.862039766143166,-0.009765623999999917,-27214.0,0.25,-742.5,0.0,0.0,0.25,3.961181235,2.400360610585745,0.014648435999999876,0.6399999856948853,2.630000114440918,-6.21999979019165,1.08880615234375,0.207275390625,1.0718994140625,35.560001373291016,0.0,1011.0,3.470001220703125,-0.96990966796875,Closing,0.0,0.0,3.0,0.0,0.0,0.0,0.0,0.0,
4.326257999999999,0.0,0.0,15008.0,0.0,-697.5,0.0,0.0,0.125,0.715331958,4.854020018338474,0.019531247999999835,-21414.0,0.0,735.0,0.0,0.0,0.25,0.324706998,4.885039091974023,-0.023193357000000248,-6066.0,0.0,-615.0,0.0,0.0,0.0,3.2678219310000003,4.862039766143166,0.006103515000000392,-27214.0,0.125,-630.0,0.0,0.0,0.25,3.970946859,2.400360610585745,0.014648435999999876,0.5899999737739563,3.0999999046325684,-6.360000133514404,0.45611572265625,-0.0455322265625,0.60382080078125,35.560001373291016,0.0,425.0,3.4806365966796875,-0.9692535400390625,Closing,0.0,0.0,3.0,0.0,0.0,0.0,0.0,0.0,
4.349475999999999,0.0,0.0,15008.0,0.0,-555.0,0.0,0.0,0.125,0.70800774,4.854020018338474,-0.004882811999999959,-21414.0,0.0,585.0,0.0,0.0,0.25,0.339355434,4.885039091974023,-0.023193357000000248,-6066.0,0.0,-405.0,0.0,0.0,0.0,3.2641598220000003,4.862039766143166,0.006103515000000392,-27214.0,0.0,-300.0,0.0,0.0,0.25,4.010009355,2.400360610585745,0.03906249600000011,0.25999999046325684,2.4700000286102295,-6.550000190734863,-0.56427001953125,-0.083251953125,1.9559326171875,35.560001373291016,0.0,-633.0,3.5126800537109375,-0.9690704345703125,Closing,0.0,0.0,3.0,0.0,0.0,0.0,0.0,0.0,
4.388382999999999,0.0,0.0,15048.0,0.0,-22.5,0.0,0.0,0.125,0.716552661,4.854020018338474,-0.004882811999999959,-21394.0,0.0,120.0,0.0,0.0,0.25,0.35400387,4.885039091974023,-0.030517574999999297,-6066.0,0.0,22.5,0.0,0.0,0.0,3.2690426340000003,4.862039766143166,-0.0024414059999999793,-27225.0,0.0,-97.5,0.0,0.0,0.375,4.019774979,2.400360610585745,0.03906249600000011,0.1599999964237213,2.680000066757202,-6.570000171661377,-0.0435791015625,-0.11163330078125,0.8973388671875,35.560001373291016,0.0,-71.0,3.5225982666015625,-0.9695281982421875,Closing,0.0,0.0,3.0,0.0,0.0,0.0,0.0,0.0,
4.449915,0.0,0.0,15048.0,0.0,517.5,0.0,0.0,0.125,0.70800774,4.854020018338474,0.0012207029999995456,-21394.0,0.0,-367.5,0.0,0.0,0.25,0.406494099,4.885039091974023,0.01586913899999942,-6022.0,0.0,285.0,0.0,0.0,0.0,3.2690426340000003,4.862039766143166,0.0024414059999999793,-27225.0,0.0,337.5,0.0,0.0,0.125,4.0332027120000005,2.400360610585745,0.01586913900000031,0.28999999165534973,2.3399999141693115,-6.320000171661377,0.0498046875,0.13604736328125,0.79241943359375,35.560001373291016,0.0,2.0,3.57000732421875,-0.9722747802734375,Closing,0.0,0.0,3.0,0.0,0.0,0.0,0.0,0.0,
