Time,ClimberA1,ClimberA2,FRpos,FRCurrent,FRspeed,FRsetpoint,FRApos,FRACurrent,FREncpos,FREncSetpoint,FREncSpeed,FLpos,FLCurrent,FLspeed,FLsetpoint,FLApos,FLACurrent,FLEncpos,FLEncSetpoint,FLEncSpeed,BRpos,BRCurrent,BRspeed,BRsetpoint,BRApos,BRACurrent,BREncpos,BREncSetpoint,BREncSpeed,BLpos,BLCurrent,BLspeed,BLsetpoint,BLApos,BLACurrent,BLEncpos,BLEncSetpoint,BLEncSpeed,navx_Pitch,navx_Roll,navx_Yaw,navx_XAcc,navx_YAcc,navx_ZAcc,navx_Temp,navx_Bar,navx_Alt,navx_XDis,navx_YDis,GearPlacerState,ShootOutputV,ShootOutputCurrent,ShootEncPos,ShootEncVelocity,ShootSpeed,ShootSetpoint,CarouselSetpoint,CarouselCurrent,
0.15011800000001677,0.0,0.0,99102.0,0.0,0.0,0.0,0.0,0.25,0.808105386,0.01,0.0,-169081.0,0.0,0.0,-0.0,0.0,0.125,0.532226508,0.01,0.0,26111.0,0.0,0.0,0.0,0.0,0.0,3.337402002,0.01,0.0,-40742.0,0.125,0.0,-0.0,0.0,0.125,1.641845535,0.01,0.0,-0.07000000029802322,-0.3400000035762787,-161.88999938964844,-0.00750732421875,-0.00152587890625,1.017333984375,37.029998779296875,0.0,1.0,0.541900634765625,-2.216217041015625,Closing,0.0,0.0,3.0,0.0,0.0,0.0,0.0,0.0,
0.27830300000007263,0.0,0.0,99102.0,0.0,0.0,0.0,0.0,0.25,0.806884683,0.01,0.0,-169081.0,0.0,0.0,-0.0,0.0,0.125,0.531005805,0.01,0.0,26111.0,0.0,0.0,0.0,0.0,0.0,3.338622705,0.01,0.0,-40742.0,0.125,0.0,-0.0,0.0,0.125,1.643066238,0.01,0.0,-0.07000000029802322,-0.3400000035762787,-161.88999938964844,-0.00616455078125,-0.0020751953125,1.01568603515625,37.0099983215332,0.0,0.0,0.541900634765625,-2.216217041015625,Closing,0.0,0.0,3.0,0.0,0.0,0.0,0.0,0.0,
0.4104070000001229,0.0,0.0,99102.0,0.0,0.0,0.0,0.0,0.125,0.808105386,0.01,0.0,-169081.0,0.0,0.0,-0.0,0.0,0.125,0.532226508,0.01,0.0,26111.0,0.0,0.0,0.0,0.0,0.0,3.337402002,0.01,0.0,-40742.0,0.125,0.0,-0.0,0.0,0.125,1.641845535,0.01,0.0,-0.07000000029802322,-0.33000001311302185,-161.89999389648438,-0.0030517578125,-0.00299072265625,1.02313232421875,37.0099983215332,0.0,-2.0,0.541900634765625,-2.216217041015625,Closing,0.0,0.0,3.0,0.0,0.0,0.0,0.0,0.0,
0.532374000000069,0.0,0.0,99102.0,0.0,0.0,0.0,0.0,0.25,0.806884683,0.01,0.0,-169081.0,0.0,0.0,-0.0,0.0,0.125,0.532226508,0.01,0.0,26111.0,0.0,0.0,0.0,0.0,0.0,3.337402002,0.01,0.0,-40742.0,0.125,0.0,-0.0,0.0,0.125,1.643066238,0.01,0.0,-0.07000000029802322,-0.3400000035762787,-161.89999389648438,-0.0086669921875,-0.001953125,1.0234375,37.0099983215332,0.0,2.0,0.541900634765625,-2.216217041015625,Closing,0.0,0.0,3.0,0.0,0.0,0.0,0.0,0.0,
0.660935999999987,0.0,0.0,99102.0,0.0,0.0,0.0,0.0,0.25,0.806884683,0.01,0.0,-169081.0,0.0,0.0,-0.0,0.0,0.125,0.532226508,0.01,0.0,26111.0,0.0,0.0,0.0,0.0,0.0,3.338622705,0.01,0.0,-40742.0,0.125,0.0,-0.0,0.0,0.125,1.641845535,0.01,0.0,-0.07999999821186066,-0.33000001311302185,-161.89999389648438,-0.00439453125,-0.0020751953125,1.0164794921875,37.0099983215332,0.0,-1.0,0.541900634765625,-2.216217041015625,Closing,0.0,0.0,3.0,0.0,0.0,0.0,0.0,0.125,
0.7839569999999366,0.0,0.0,99102.0,0.0,0.0,0.0,0.0,0.25,0.806884683,0.01,0.0,-169081.0,0.0,0.0,-0.0,0.0,0.125,0.532226508,0.01,0.0,26111.0,0.0,0.0,0.0,0.0,0.0,3.338622705,0.01,0.0,-40742.0,0.125,0.0,-0.0,0.0,0.125,1.641845535,0.01,0.0,-0.07999999821186066,-0.3400000035762787,-161.89999389648438,-0.00616455078125,-0.00238037109375,1.0198974609375,37.040000915527344,0.0,0.0,0.541900634765625,-2.216217041015625,Closing,0.0,0.0,3.0,0.0,0.0,0.0,0.0,0.0,
0.9103260000001173,0.0,0.0,99102.0,0.0,0.0,0.0,0.0,0.25,0.808105386,0.01,0.0,-169081.0,0.0,0.0,-0.0,0.0,0.125,0.533447211,0.01,0.0,26111.0,0.0,0.0,0.0,0.0,0.0,3.338622705,0.01,0.0,-40742.0,0.125,0.0,-0.0,0.0,0.125,1.641845535,0.01,0.0,-0.07000000029802322,-0.33000001311302185,-161.89999389648438,-0.0032958984375,-0.00152587890625,1.0240478515625,37.040000915527344,0.0,-2.0,0.541900634765625,-2.216217041015625,Closing,0.0,0.0,3.0,0.0,0.0,0.0,0.0,0.0,
1.0294320000000299,0.0,0.0,99102.0,0.0,0.0,0.0,0.0,0.25,0.808105386,0.01,0.0,-169081.0,0.0,0.0,-0.0,0.0,0.125,0.532226508,0.01,0.0,26111.0,0.0,0.0,0.0,0.0,0.0,3.338622705,0.01,0.0,-40742.0,0.125,0.0,-0.0,0.0,0.125,1.641845535,0.01,0.0,-0.07000000029802322,-0.3199999928474426,-161.89999389648438,-0.0068359375,-2.44140625E-4,1.02099609375,37.040000915527344,0.0,0.0,0.541900634765625,-2.216217041015625,Closing,0.0,0.0,3.0,0.0,0.0,0.0,0.0,0.0,
1.158466999999946,0.0,0.0,99102.0,0.0,0.0,0.0,0.0,0.25,0.806884683,0.01,0.0,-169081.0,0.0,0.0,-0.0,0.0,0.125,0.532226508,0.01,0.0,26111.0,0.0,0.0,0.0,0.0,0.0,3.338622705,0.01,0.0,-40742.0,0.125,0.0,-0.0,0.0,0.125,1.641845535,0.01,0.0,-0.07999999821186066,-0.33000001311302185,-161.89999389648438,-0.006591796875,-0.00213623046875,1.01654052734375,37.040000915527344,0.0,0.0,0.541900634765625,-2.216217041015625,Closing,0.0,0.0,3.0,0.0,0.0,0.0,0.0,0.0,
1.291185999999987,0.0,0.0,99102.0,0.0,0.0,0.0,0.0,0.25,0.808105386,0.01,0.0,-169081.0,0.0,0.0,-0.0,0.0,0.125,0.532226508,0.01,0.0,26111.0,0.0,0.0,0.0,0.0,0.0,3.338622705,0.01,0.0,-40742.0,0.125,0.0,-0.0,0.0,0.125,1.641845535,0.01,0.0,-0.07999999821186066,-0.33000001311302185,-161.89999389648438,-0.007568359375,-0.00555419921875,1.01641845703125,37.02000045776367,0.0,2.0,0.541900634765625,-2.216217041015625,Closing,0.0,0.0,3.0,0.0,0.0,0.0,0.0,0.0,
1.4245109999999404,0.0,0.0,99102.0,0.0,0.0,0.0,0.0,0.25,0.806884683,0.01,0.0,-169081.0,0.0,0.0,-0.0,0.0,0.125,0.532226508,0.01,0.0,26111.0,0.0,0.0,0.0,0.0,0.0,3.338622705,0.01,0.0,-40742.0,0.125,0.0,-0.0,0.0,0.125,1.641845535,0.01,0.0,-0.07999999821186066,-0.33000001311302185,-161.89999389648438,-0.00567626953125,-0.0010986328125,1.02191162109375,37.02000045776367,0.0,0.0,0.541900634765625,-2.216217041015625,Closing,0.0,0.0,3.0,0.0,0.0,0.0,0.0,0.125,
1.5513789999999572,0.0,0.0,99102.0,0.0,0.0,0.0,0.0,0.25,0.806884683,0.01,0.0,-169081.0,0.0,0.0,-0.0,0.0,0.125,0.532226508,0.01,0.0,26111.0,0.0,0.0,0.0,0.0,0.0,3.338622705,0.01,0.0,-40742.0,0.125,0.0,-0.0,0.0,0.125,1.643066238,0.01,0.0,-0.07999999821186066,-0.33000001311302185,-161.89999389648438,-0.00677490234375,4.2724609375E-4,1.01654052734375,37.02000045776367,0.0,0.0,0.541900634765625,-2.216217041015625,Closing,0.0,0.0,3.0,0.0,0.0,0.0,0.0,0.0,
1.6777679999999235,0.0,0.0,99102.0,0.0,0.0,0.0,0.0,0.25,0.808105386,0.01,0.0,-169081.0,0.0,0.0,-0.0,0.0,0.125,0.532226508,0.01,0.0,26111.0,0.0,0.0,0.0,0.0,0.0,3.338622705,0.01,0.0,-40742.0,0.125,0.0,-0.0,0.0,0.125,1.641845535,0.01,0.0,-0.09000000357627869,-0.33000001311302185,-161.89999389648438,-0.0064697265625,-0.00146484375,1.017333984375,37.02000045776367,0.0,0.0,0.541900634765625,-2.216217041015625,Closing,0.0,0.0,3.0,0.0,0.0,0.0,0.0,0.0,
1.8024150000000372,0.0,0.0,99102.0,0.0,0.0,0.0,0.0,0.25,0.808105386,0.01,0.0,-169081.0,0.0,0.0,-0.0,0.0,0.125,0.532226508,0.01,0.0,26111.0,0.0,0.0,0.0,0.0,0.0,3.338622705,0.01,0.0,-40742.0,0.125,0.0,-0.0,0.0,0.125,1.643066238,0.01,0.0,-0.07999999821186066,-0.3199999928474426,-161.89999389648438,-0.0040283203125,-0.00238037109375,1.01806640625,37.040000915527344,0.0,-1.0,0.541900634765625,-2.216217041015625,Closing,0.0,0.0,3.0,0.0,0.0,0.0,0.0,0.125,
1.9323000000000465,0.0,0.0,99102.0,0.0,0.0,0.0,0.0,0.125,0.806884683,0.01,0.0,-169081.0,0.0,0.0,-0.0,0.0,0.125,0.532226508,0.01,0.0,26111.0,0.0,0.0,0.0,0.0,0.0,3.338622705,0.01,0.0,-40742.0,0.125,0.0,-0.0,0.0,0.125,1.643066238,0.01,0.0,-0.09000000357627869,-0.3199999928474426,-161.89999389648438,-0.00732421875,-0.0025634765625,1.02374267578125,37.040000915527344,0.0,1.0,0.541900634765625,-2.216217041015625,Closing,0.0,0.0,3.0,0.0,0.0,0.0,0.0,0.0,
2.058912000000011,0.0,0.0,99102.0,0.0,0.0,0.0,0.0,0.125,0.806884683,0.01,0.0,-169081.0,0.0,0.0,-0.0,0.0,0.125,0.532226508,0.01,0.0,26111.0,0.0,0.0,0.0,0.0,0.0,3.338622705,0.01,0.0,-40742.0,0.125,0.0,-0.0,0.0,0.125,1.641845535,0.01,0.0,-0.09000000357627869,-0.33000001311302185,-161.89999389648438,-0.0042724609375,-0.00262451171875,1.017578125,37.040000915527344,0.0,-1.0,0.541900634765625,-2.216217041015625,Closing,0.0,0.0,3.0,0.0,0.0,0.0,0.0,0.0,
2.1890530000000727,0.0,0.0,99102.0,0.0,0.0,0.0,0.0,0.25,0.808105386,0.01,0.0,-169081.0,0.0,0.0,-0.0,0.0,0.125,0.532226508,0.01,0.0,26111.0,0.0,0.0,0.0,0.0,0.0,3.338622705,0.01,0.0,-40742.0,0.125,0.0,-0.0,0.0,0.125,1.641845535,0.01,0.0,-0.07999999821186066,-0.33000001311302185,-161.89999389648438,-0.0069580078125,-0.00372314453125,1.018310546875,37.040000915527344,0.0,1.0,0.541900634765625,-2.216217041015625,Closing,0.0,0.0,3.0,0.0,0.0,0.0,0.0,0.0,
2.328881000000052,0.0,0.0,99102.0,0.0,0.0,0.0,0.0,0.25,0.808105386,0.01,0.0,-169081.0,0.0,0.0,-0.0,0.0,0.125,0.532226508,0.01,0.0,26111.0,0.0,0.0,0.0,0.0,0.0,3.338622705,0.01,0.0,-40742.0,0.125,0.0,-0.0,0.0,0.125,1.641845535,0.01,0.0,-0.09000000357627869,-0.3199999928474426,-161.89999389648438,-0.00555419921875,-4.8828125E-4,1.0191650390625,37.029998779296875,0.0,0.0,0.541900634765625,-2.216217041015625,Closing,0.0,0.0,3.0,0.0,0.0,0.0,0.0,0.0,
2.4551319999999834,0.0,0.0,99102.0,0.0,0.0,0.0,0.0,0.125,0.806884683,0.01,0.0,-169081.0,0.0,0.0,-0.0,0.0,0.125,0.532226508,0.01,0.0,26111.0,0.0,0.0,0.0,0.0,0.0,3.338622705,0.01,0.0,-40742.0,0.125,0.0,-0.0,0.0,0.125,1.643066238,0.01,0.0,-0.09000000357627869,-0.3199999928474426,-161.89999389648438,-0.00787353515625,-0.003662109375,1.0198974609375,37.029998779296875,0.0,2.0,0.541900634765625,-2.216217041015625,Closing,0.0,0.0,3.0,0.0,0.0,0.0,0.0,0.125,
2.5827720000001135,0.0,0.0,99102.0,0.0,0.0,0.0,0.0,0.25,0.806884683,0.01,0.0,-169081.0,0.0,0.0,-0.0,0.0,0.125,0.532226508,0.01,0.0,26111.0,0.0,0.0,0.0,0.0,0.0,3.338622705,0.01,0.0,-40742.0,0.125,0.0,-0.0,0.0,0.125,1.640624832,0.01,0.0,-0.09000000357627869,-0.3199999928474426,-161.89999389648438,-0.00677490234375,-1.8310546875E-4,1.0218505859375,37.029998779296875,0.0,0.0,0.541900634765625,-2.216217041015625,Closing,0.0,0.0,3.0,0.0,0.0,0.0,0.0,0.125,
2.7162369999999645,0.0,0.0,99102.0,0.0,0.0,0.0,0.0,0.25,0.808105386,0.01,0.0,-169081.0,0.0,0.0,-0.0,0.0,0.125,0.532226508,0.01,0.0,26111.0,0.0,0.0,0.0,0.0,0.0,3.337402002,0.01,0.0,-40742.0,0.125,0.0,-0.0,0.0,0.125,1.641845535,0.01,0.0,-0.10000000149011612,-0.3199999928474426,-161.89999389648438,-0.00604248046875,-0.00250244140625,1.01727294921875,37.029998779296875,0.0,0.0,0.541900634765625,-2.216217041015625,Closing,0.0,0.0,3.0,0.0,0.0,0.0,0.0,0.125,
2.851493999999948,0.0,0.0,99102.0,0.0,0.0,0.0,0.0,0.25,0.806884683,0.01,0.0,-169081.0,0.0,0.0,-0.0,0.0,0.125,0.532226508,0.01,0.0,26111.0,0.0,0.0,0.0,0.0,0.0,3.339843408,0.01,0.0,-40742.0,0.125,0.0,-0.0,0.0,0.125,1.641845535,0.01,0.0,-0.09000000357627869,-0.3100000023841858,-161.89999389648438,-0.00677490234375,-0.00164794921875,1.01763916015625,37.060001373291016,0.0,1.0,0.541900634765625,-2.216217041015625,Closing,0.0,0.0,3.0,0.0,0.0,0.0,0.0,0.125,
2.9867790000000967,0.0,0.0,99102.0,0.0,0.0,0.0,0.0,0.25,0.808105386,0.01,0.0,-169081.0,0.0,0.0,-0.0,0.0,0.125,0.532226508,0.01,0.0,26111.0,0.0,0.0,0.0,0.0,0.0,3.338622705,0.01,0.0,-40742.0,0.125,0.0,-0.0,0.0,0.125,1.643066238,0.01,0.0,-0.09000000357627869,-0.3100000023841858,-161.89999389648438,-0.00506591796875,-0.00146484375,1.01470947265625,37.060001373291016,0.0,0.0,0.541900634765625,-2.216217041015625,Closing,0.0,0.0,3.0,0.0,0.0,0.0,0.0,0.0,
3.1231769999999086,0.0,0.0,99102.0,0.0,0.0,0.0,0.0,0.25,0.808105386,0.01,0.0,-169081.0,0.0,0.0,-0.0,0.0,0.125,0.532226508,0.01,0.0,26111.0,0.0,0.0,0.0,0.0,0.0,3.338622705,0.01,0.0,-40742.0,0.125,0.0,-0.0,0.0,0.125,1.643066238,0.01,0.0,-0.09000000357627869,-0.3100000023841858,-161.89999389648438,-0.0093994140625,-0.00164794921875,1.02020263671875,37.060001373291016,0.0,3.0,0.541900634765625,-2.216217041015625,Closing,0.0,0.0,3.0,0.0,0.0,0.0,0.0,0.0,
3.25628600000008,0.0,0.0,99102.0,0.0,0.0,0.0,0.0,0.25,0.808105386,0.01,0.0,-169081.0,0.0,0.0,-0.0,0.0,0.125,0.532226508,0.01,0.0,26111.0,0.0,0.0,0.0,0.0,0.0,3.338622705,0.01,0.0,-40742.0,0.125,0.0,-0.0,0.0,0.125,1.643066238,0.01,0.0,-0.09000000357627869,-0.3100000023841858,-161.89999389648438,-0.00390625,-0.0020751953125,1.0191650390625,37.04999923706055,0.0,-1.0,0.541900634765625,-2.216217041015625,Closing,0.0,0.0,3.0,0.0,0.0,0.0,0.0,0.125,
3.3984070000001227,0.0,0.0,99102.0,0.0,0.0,0.0,0.0,0.25,0.806884683,0.01,0.0,-169081.0,0.0,0.0,-0.0,0.0,0.125,0.532226508,0.01,0.0,26111.0,0.0,0.0,0.0,0.0,0.0,3.339843408,0.01,0.0,-40742.0,0.125,0.0,-0.0,0.0,0.125,1.641845535,0.01,0.0,-0.09000000357627869,-0.3100000023841858,-161.89999389648438,-0.00579833984375,-0.003662109375,1.0223388671875,37.04999923706055,0.0,0.0,0.541900634765625,-2.216217041015625,Closing,0.0,0.0,3.0,0.0,0.0,0.0,0.0,0.0,
3.5378619999999645,0.0,0.0,99102.0,0.0,0.0,0.0,0.0,0.25,0.808105386,0.01,0.0,-169081.0,0.0,0.0,-0.0,0.0,0.125,0.533447211,0.01,0.0,26111.0,0.0,0.0,0.0,0.0,0.0,3.338622705,0.01,0.0,-40742.0,0.125,0.0,-0.0,0.0,0.125,1.641845535,0.01,0.0,-0.09000000357627869,-0.3100000023841858,-161.89999389648438,-0.0089111328125,-0.003173828125,1.018310546875,37.04999923706055,0.0,3.0,0.541900634765625,-2.216217041015625,Closing,0.0,0.0,3.0,0.0,0.0,0.0,0.0,0.125,
3.6733999999999067,0.0,0.0,99102.0,0.0,0.0,0.0,0.0,0.25,0.806884683,0.01,0.0,-169081.0,0.0,0.0,-0.0,0.0,0.125,0.531005805,0.01,0.0,26111.0,0.0,0.0,0.0,0.0,0.0,3.338622705,0.01,0.0,-40742.0,0.125,0.0,-0.0,0.0,0.125,1.641845535,0.01,0.0,-0.09000000357627869,-0.3100000023841858,-161.89999389648438,-0.006103515625,-4.8828125E-4,1.01739501953125,37.04999923706055,0.0,0.0,0.541900634765625,-2.216217041015625,Closing,0.0,0.0,3.0,0.0,0.0,0.0,0.0,0.125,
3.8055879999999886,0.0,0.0,99102.0,0.0,0.0,0.0,0.0,0.25,0.808105386,0.01,0.0,-169081.0,0.0,0.0,-0.0,0.0,0.125,0.532226508,0.01,0.0,26111.0,0.0,0.0,0.0,0.0,0.0,3.338622705,0.01,0.0,-40742.0,0.125,0.0,-0.0,0.0,0.125,1.643066238,0.01,0.0,-0.09000000357627869,-0.3100000023841858,-161.89999389648438,-0.004150390625,-0.00323486328125,1.0164794921875,37.08000183105469,0.0,0.0,0.541900634765625,-2.216217041015625,Closing,0.0,0.0,3.0,0.0,0.0,0.0,0.0,0.125,
3.9367879999999422,0.0,0.0,99102.0,0.0,0.0,0.0,0.0,0.25,0.806884683,0.01,0.0,-169081.0,0.0,0.0,-0.0,0.0,0.125,0.532226508,0.01,0.0,26111.0,0.0,0.0,0.0,0.0,0.0,3.338622705,0.01,0.0,-40742.0,0.125,0.0,-0.0,0.0,0.125,1.641845535,0.01,0.0,-0.09000000357627869,-0.3100000023841858,-161.89999389648438,-0.0087890625,-7.32421875E-4,1.01593017578125,37.08000183105469,0.0,2.0,0.541900634765625,-2.216217041015625,Closing,0.0,0.0,3.0,0.0,0.0,0.0,0.0,0.0,
4.073182999999961,0.0,0.0,99102.0,0.0,0.0,0.0,0.0,0.25,0.806884683,0.01,0.0,-169081.0,0.0,0.0,-0.0,0.0,0.125,0.532226508,0.01,0.0,26111.0,0.0,0.0,0.0,0.0,0.0,3.338622705,0.01,0.0,-40742.0,0.125,0.0,-0.0,0.0,0.125,1.641845535,0.01,0.0,-0.09000000357627869,-0.3100000023841858,-161.89999389648438,-0.0035400390625,-0.0015869140625,1.0206298828125,37.08000183105469,0.0,-2.0,0.541900634765625,-2.216217041015625,Closing,0.0,0.0,3.0,0.0,0.0,0.0,0.0,0.0,
4.203462000000058,0.0,0.0,99102.0,0.0,0.0,0.0,0.0,0.25,0.806884683,0.01,0.0,-169081.0,0.0,0.0,-0.0,0.0,0.125,0.532226508,0.01,0.0,26111.0,0.0,0.0,0.0,0.0,0.0,3.338622705,0.01,0.0,-40742.0,0.125,0.0,-0.0,0.0,0.125,1.641845535,0.01,0.0,-0.09000000357627869,-0.3100000023841858,-161.89999389648438,-0.00640869140625,-0.00146484375,1.01715087890625,37.08000183105469,0.0,0.0,0.541900634765625,-2.216217041015625,Closing,0.0,0.0,3.0,0.0,0.0,0.0,0.0,0.125,
4.339407000000123,0.0,0.0,99102.0,0.0,0.0,0.0,0.0,0.25,0.808105386,0.01,0.0,-169081.0,0.0,0.0,-0.0,0.0,0.125,0.532226508,0.01,0.0,26111.0,0.0,0.0,0.0,0.0,0.0,3.338622705,0.01,0.0,-40742.0,0.125,0.0,-0.0,0.0,0.125,1.641845535,0.01,0.0,-0.10000000149011612,-0.3100000023841858,-161.88999938964844,-0.00384521484375,-0.00189208984375,1.01751708984375,37.06999969482422,0.0,-1.0,0.541900634765625,-2.216217041015625,Closing,0.0,0.0,3.0,0.0,0.0,0.0,0.0,0.125,
4.471209999999963,0.0,0.0,99102.0,0.0,0.0,0.0,0.0,0.25,0.808105386,0.01,0.0,-169081.0,0.0,0.0,-0.0,0.0,0.125,0.532226508,0.01,0.0,26111.0,0.0,0.0,0.0,0.0,0.0,3.338622705,0.01,0.0,-40742.0,0.125,0.0,-0.0,0.0,0.25,1.641845535,0.01,0.0,-0.09000000357627869,-0.3100000023841858,-161.88999938964844,-0.00469970703125,-0.003173828125,1.01690673828125,37.06999969482422,0.0,0.0,0.541900634765625,-2.216217041015625,Closing,0.0,0.0,3.0,0.0,0.0,0.0,0.0,0.125,
4.592611999999964,0.0,0.0,99102.0,0.0,0.0,0.0,0.0,0.25,0.806884683,0.01,0.0,-169081.0,0.0,0.0,-0.0,0.0,0.125,0.532226508,0.01,0.0,26111.0,0.0,0.0,0.0,0.0,0.0,3.338622705,0.01,0.0,-40742.0,0.125,0.0,-0.0,0.0,0.125,1.641845535,0.01,0.0,-0.10000000149011612,-0.3100000023841858,-161.88999938964844,-0.005126953125,6.7138671875E-4,1.02313232421875,37.06999969482422,0.0,-1.0,0.541900634765625,-2.216217041015625,Closing,0.0,0.0,3.0,0.0,0.0,0.0,0.0,0.125,
4.72795299999998,0.0,0.0,99102.0,0.0,0.0,0.0,0.0,0.25,0.808105386,0.01,0.0,-169081.0,0.0,0.0,-0.0,0.0,0.125,0.533447211,0.01,0.0,26111.0,0.0,0.0,0.0,0.0,0.0,3.339843408,0.01,0.0,-40742.0,0.125,0.0,-0.0,0.0,0.125,1.641845535,0.01,0.0,-0.10000000149011612,-0.3100000023841858,-161.88999938964844,-0.00457763671875,-0.00299072265625,1.01458740234375,37.06999969482422,0.0,0.0,0.541900634765625,-2.216217041015625,Closing,0.0,0.0,3.0,0.0,0.0,0.0,0.0,0.125,
4.849409999999916,0.0,0.0,99102.0,0.0,0.0,0.0,0.0,0.25,0.806884683,0.01,0.0,-169081.0,0.0,0.0,-0.0,0.0,0.125,0.532226508,0.01,0.0,26111.0,0.0,0.0,0.0,0.0,0.0,3.338622705,0.01,0.0,-40742.0,0.125,0.0,-0.0,0.0,0.125,1.640624832,0.01,0.0,-0.10000000149011612,-0.3100000023841858,-161.88999938964844,-0.00555419921875,-0.00201416015625,1.02142333984375,37.08000183105469,0.0,0.0,0.541900634765625,-2.216217041015625,Closing,0.0,0.0,3.0,0.0,0.0,0.0,0.0,0.0,
4.974664000000106,0.0,0.0,99102.0,0.0,0.0,0.0,0.0,0.25,0.806884683,0.01,0.0,-169081.0,0.0,0.0,-0.0,0.0,0.125,0.532226508,0.01,0.0,26111.0,0.0,0.0,0.0,0.0,0.0,3.338622705,0.01,0.0,-40742.0,0.125,0.0,-0.0,0.0,0.125,1.641845535,0.01,0.0,-0.10000000149011612,-0.3100000023841858,-161.88999938964844,-0.0072021484375,-0.0025634765625,1.01837158203125,37.08000183105469,0.0,1.0,0.541900634765625,-2.216217041015625,Closing,0.0,0.0,3.0,0.0,0.0,0.0,0.0,0.125,
5.1024869999999645,0.0,0.0,99102.0,0.0,0.0,0.0,0.0,0.25,0.808105386,0.01,0.0,-169081.0,0.0,0.0,-0.0,0.0,0.125,0.532226508,0.01,0.0,26111.0,0.0,0.0,0.0,0.0,0.0,3.338622705,0.01,0.0,-40742.0,0.125,0.0,-0.0,0.0,0.125,1.643066238,0.01,0.0,-0.09000000357627869,-0.3199999928474426,-161.8800048828125,-0.0096435546875,-0.0023193359375,1.024169921875,37.08000183105469,0.0,3.0,0.541900634765625,-2.216217041015625,Closing,0.0,0.0,3.0,0.0,0.0,0.0,0.0,0.125,
5.233500999999931,0.0,0.0,99102.0,0.0,0.0,0.0,0.0,0.25,0.808105386,0.01,0.0,-169081.0,0.0,0.0,-0.0,0.0,0.125,0.532226508,0.01,0.0,26111.0,0.0,0.0,0.0,0.0,0.0,3.338622705,0.01,0.0,-40742.0,0.125,0.0,-0.0,0.0,0.125,1.641845535,0.01,0.0,-0.10000000149011612,-0.3100000023841858,-161.8800048828125,-0.0079345703125,-0.001220703125,1.0247802734375,37.08000183105469,0.0,1.0,0.541900634765625,-2.216217041015625,Closing,0.0,0.0,3.0,0.0,0.0,0.0,0.0,0.0,
5.356753999999957,0.0,0.0,99102.0,0.0,0.0,0.0,0.0,0.25,0.806884683,0.01,0.0,-169081.0,0.0,0.0,-0.0,0.0,0.125,0.532226508,0.01,0.0,26111.0,0.0,0.0,0.0,0.0,0.0,3.338622705,0.01,0.0,-40742.0,0.125,0.0,-0.0,0.0,0.25,1.641845535,0.01,0.0,-0.10000000149011612,-0.3199999928474426,-161.8800048828125,-0.00604248046875,-0.00103759765625,1.01171875,37.08000183105469,0.0,0.0,0.541900634765625,-2.216217041015625,Closing,0.0,0.0,3.0,0.0,0.0,0.0,0.0,0.0,
5.489728000000119,0.0,0.0,99102.0,0.0,0.0,0.0,0.0,0.25,0.808105386,0.01,0.0,-169081.0,0.0,0.0,-0.0,0.0,0.125,0.532226508,0.01,0.0,26111.0,0.0,0.0,0.0,0.0,0.0,3.338622705,0.01,0.0,-40742.0,0.125,0.0,-0.0,0.0,0.125,1.641845535,0.01,0.0,-0.10000000149011612,-0.3100000023841858,-161.8800048828125,-0.00811767578125,-0.0030517578125,1.01513671875,37.08000183105469,0.0,2.0,0.541900634765625,-2.216217041015625,Closing,0.0,0.0,3.0,0.0,0.0,0.0,0.0,0.0,
5.611408000000054,0.0,0.0,99102.0,0.0,0.0,0.0,0.0,0.25,0.808105386,0.01,0.0,-169081.0,0.0,0.0,-0.0,0.0,0.125,0.532226508,0.01,0.0,26111.0,0.0,0.0,0.0,0.0,0.0,3.338622705,0.01,0.0,-40742.0,0.125,0.0,-0.0,0.0,0.125,1.641845535,0.01,0.0,-0.10999999940395355,-0.30000001192092896,-161.8800048828125,-0.00555419921875,4.8828125E-4,1.017333984375,37.08000183105469,0.0,0.0,0.541900634765625,-2.216217041015625,Closing,0.0,0.0,3.0,0.0,0.0,0.0,0.0,0.0,
5.746300000000047,0.0,0.0,99102.0,0.0,0.0,0.0,0.0,0.25,0.808105386,0.01,0.0,-169081.0,0.0,0.0,-0.0,0.0,0.125,0.532226508,0.01,0.0,26111.0,0.0,0.0,0.0,0.0,0.0,3.338622705,0.01,0.0,-40742.0,0.125,0.0,-0.0,0.0,0.125,1.641845535,0.01,0.0,-0.10000000149011612,-0.30000001192092896,-161.8800048828125,-0.00531005859375,-0.00103759765625,1.0174560546875,37.08000183105469,0.0,0.0,0.541900634765625,-2.216217041015625,Closing,0.0,0.0,3.0,0.0,0.0,0.0,0.0,0.0,
5.872946999999927,0.0,0.0,99102.0,0.0,0.0,0.0,0.0,0.25,0.808105386,0.01,0.0,-169081.0,0.0,0.0,-0.0,0.0,0.125,0.533447211,0.01,0.0,26111.0,0.0,0.0,0.0,0.0,0.0,3.337402002,0.01,0.0,-40742.0,0.125,0.0,-0.0,0.0,0.125,1.641845535,0.01,0.0,-0.09000000357627869,-0.3100000023841858,-161.8699951171875,-0.00518798828125,9.1552734375E-4,1.02099609375,37.11000061035156,0.0,-1.0,0.541900634765625,-2.216217041015625,Closing,0.0,0.0,3.0,0.0,0.0,0.0,0.0,0.125,
5.994675999999978,0.0,0.0,99102.0,0.0,0.0,0.0,0.0,0.25,0.808105386,0.01,0.0,-169081.0,0.0,0.0,-0.0,0.0,0.125,0.531005805,0.01,0.0,26111.0,0.0,0.0,0.0,0.0,0.0,3.338622705,0.01,0.0,-40742.0,0.125,0.0,-0.0,0.0,0.25,1.641845535,0.01,0.0,-0.09000000357627869,-0.30000001192092896,-161.8699951171875,-0.00384521484375,0.00115966796875,1.01824951171875,37.11000061035156,0.0,-2.0,0.541900634765625,-2.216217041015625,Closing,0.0,0.0,3.0,0.0,0.0,0.0,0.0,0.125,
6.1242860000000805,0.0,0.0,99102.0,0.0,0.0,0.0,0.0,0.25,0.808105386,0.01,0.0,-169081.0,0.0,0.0,-0.0,0.0,0.125,0.532226508,0.01,0.0,26111.0,0.0,0.0,0.0,0.0,0.0,3.338622705,0.01,0.0,-40742.0,0.125,0.0,-0.0,0.0,0.125,1.641845535,0.01,0.0,-0.09000000357627869,-0.30000001192092896,-161.8699951171875,-0.00689697265625,-0.001953125,1.0159912109375,37.11000061035156,0.0,1.0,0.541900634765625,-2.216217041015625,Closing,0.0,0.0,3.0,0.0,0.0,0.0,0.0,0.125,
6.249695000000065,0.0,0.0,99102.0,0.375,22.5,374.0625,0.0,0.25,0.811767495,0.01,0.0,-169085.0,0.25,-45.0,-374.0625,0.0,0.125,0.532226508,0.01,0.0,26114.0,0.875,15.0,374.0625,0.0,0.0,3.337402002,0.01,0.0,-40743.0,0.375,-30.0,-374.0625,0.0,0.125,1.641845535,0.01,0.0,-0.09000000357627869,-0.25999999046325684,-161.88999938964844,0.018310546875,-0.0286865234375,1.01690673828125,37.11000061035156,0.0,-13.0,0.541839599609375,-2.2162017822265625,Closing,0.0,0.0,3.0,0.0,0.0,0.0,0.0,0.0,
6.3766180000000166,0.0,0.0,99112.0,0.875,15.0,315.0,0.0,0.25,0.806884683,0.01,0.0,-169095.0,0.75,-22.5,-315.0,0.0,0.125,0.535888617,0.01,0.0,26114.0,1.625,0.0,315.0,0.0,0.0,3.338622705,0.01,0.0,-40755.0,0.625,-45.0,-315.0,0.0,0.125,1.641845535,0.01,0.0,-0.07999999821186066,-0.25,-161.88999938964844,-0.00665283203125,-0.00701904296875,1.0194091796875,37.09000015258789,0.0,3.0,0.541839599609375,-2.215789794921875,Closing,0.0,0.0,3.0,0.0,0.0,0.0,0.0,0.125,
6.508027999999933,0.0,0.0,99111.0,0.0,0.0,0.0,0.0,0.25,0.806884683,0.01,0.0,-169097.0,0.0,-7.5,0.0,0.0,0.125,0.53710932,0.01,0.0,26114.0,0.0,0.0,0.0,0.0,0.0,3.338622705,0.01,0.0,-40759.0,0.0,-15.0,0.0,0.0,0.125,1.641845535,0.01,0.0,-0.07999999821186066,-0.36000001430511475,-161.85000610351562,-0.01409912109375,-0.002685546875,1.0189208984375,37.09000015258789,0.0,7.0,0.54248046875,-2.2157135009765625,Closing,0.0,0.0,3.0,0.0,0.0,0.0,0.0,0.125,
6.6368689999999475,0.0,0.0,99110.0,0.0,0.0,0.0,0.0,0.25,0.808105386,0.01,0.0,-169097.0,0.0,0.0,0.0,0.0,0.125,0.53710932,0.01,0.0,26113.0,0.0,-7.5,0.0,0.0,0.0,3.337402002,0.01,0.0,-40758.0,0.125,0.0,0.0,0.0,0.125,1.641845535,0.01,0.0,-0.07000000029802322,-0.28999999165534973,-161.85000610351562,0.0,-0.00140380859375,1.014892578125,37.09000015258789,0.0,-5.0,0.5423583984375,-2.2157135009765625,Closing,0.0,0.0,3.0,0.0,0.0,0.0,0.0,0.0,
6.7567800000000275,0.0,0.0,99110.0,0.0,0.0,0.0,0.0,0.25,0.808105386,0.01,0.0,-169097.0,0.0,0.0,0.0,0.0,0.125,0.535888617,0.01,0.0,26113.0,0.0,0.0,0.0,0.0,0.0,3.338622705,0.01,0.0,-40758.0,0.125,0.0,0.0,0.0,0.125,1.640624832,0.01,0.0,-0.07000000029802322,-0.3100000023841858,-161.85000610351562,-0.00244140625,-0.00115966796875,1.0291748046875,37.09000015258789,0.0,-3.0,0.5423583984375,-2.2157135009765625,Closing,0.0,0.0,3.0,0.0,0.0,0.0,0.0,0.0,
6.895060000000056,0.0,0.0,99110.0,0.375,0.0,265.78125,0.0,0.25,0.806884683,0.01,0.0,-169097.0,0.25,0.0,-265.78125,0.0,0.125,0.53710932,0.01,0.0,26113.0,0.375,0.0,265.78125,0.0,0.0,3.338622705,0.01,0.0,-40758.0,0.375,0.0,-265.78125,0.0,0.125,1.641845535,0.01,0.0,-0.07999999821186066,-0.3100000023841858,-161.85000610351562,-0.00439453125,0.0040283203125,1.019775390625,37.06999969482422,0.0,-2.0,0.5423583984375,-2.2157135009765625,Closing,0.0,0.0,3.0,0.0,0.0,0.0,0.0,0.125,
7.025499000000069,0.0,0.0,99110.0,0.5,0.0,265.78125,0.0,0.25,0.806884683,0.01,0.0,-169097.0,0.75,0.0,-265.78125,0.0,0.125,0.53710932,0.01,0.0,26113.0,0.75,0.0,265.78125,0.0,0.0,3.349609032,0.01,0.0,-40758.0,0.75,0.0,-265.78125,0.0,0.125,1.641845535,0.01,0.0,-0.07999999821186066,-0.28999999165534973,-161.85000610351562,-0.00201416015625,3.0517578125E-4,1.012451171875,37.06999969482422,0.0,-3.0,0.5423583984375,-2.2157135009765625,Closing,0.0,0.0,3.0,0.0,0.0,0.0,0.0,0.125,
7.153820000000065,0.0,0.0,99111.0,0.0,0.0,0.0,0.0,0.125,0.808105386,0.01,0.0,-169097.0,0.0,0.0,0.0,0.0,0.125,0.53710932,0.01,0.0,26113.0,0.0,0.0,0.0,0.0,0.0,3.338622705,0.01,0.0,-40758.0,0.125,0.0,0.0,0.0,0.125,1.643066238,0.01,0.0,-0.07999999821186066,-0.33000001311302185,-161.85000610351562,-0.00543212890625,0.00189208984375,1.02752685546875,37.06999969482422,0.0,-1.0,0.5425567626953125,-2.2157135009765625,Closing,0.0,0.0,3.0,0.0,0.0,0.0,0.0,0.0,
7.287453999999911,0.0,0.0,99110.0,0.0,0.0,0.0,0.0,0.25,0.806884683,0.01,0.0,-169097.0,0.0,0.0,0.0,0.0,0.125,0.53710932,0.01,0.0,26113.0,0.0,0.0,0.0,0.0,0.0,3.338622705,0.01,0.0,-40758.0,0.125,0.0,0.0,0.0,0.125,1.641845535,0.01,0.0,-0.09000000357627869,-0.3100000023841858,-161.85000610351562,-0.013671875,-0.00286865234375,1.0184326171875,37.06999969482422,0.0,8.0,0.5425567626953125,-2.2157135009765625,Closing,0.0,0.0,3.0,0.0,0.0,0.0,0.0,0.0,
7.412645000000019,0.0,0.0,99110.0,0.5,0.0,344.53125,0.0,0.25,0.8142089010000001,0.01,0.0,-169097.0,0.5,0.0,-344.53125,0.0,0.125,0.53710932,0.01,0.0,26113.0,0.5,0.0,344.53125,0.0,0.0,3.338622705,0.01,0.0,-40758.0,0.625,0.0,-344.53125,0.0,0.125,1.641845535,0.01,0.0,-0.09000000357627869,-0.30000001192092896,-161.86000061035156,-0.00341796875,-0.00103759765625,1.01568603515625,37.060001373291016,0.0,0.0,0.5425567626953125,-2.2157135009765625,Closing,0.0,0.0,3.0,0.0,0.0,0.0,0.0,0.125,
7.542252000000095,0.0,0.0,99110.0,0.875,7.5,305.15624999999994,0.0,0.25,0.811767495,0.01,0.0,-169098.0,1.125,-7.5,-305.15624999999994,0.0,0.125,0.535888617,0.01,0.0,26113.0,0.875,0.0,305.15624999999994,0.0,0.0,3.336181299,0.01,0.0,-40759.0,1.0,-7.5,-305.15624999999994,0.0,0.125,1.641845535,0.01,0.0,-0.09000000357627869,-0.2800000011920929,-161.86000061035156,0.001708984375,0.003173828125,1.01910400390625,37.060001373291016,0.0,-8.0,0.5425567626953125,-2.2157135009765625,Closing,0.0,0.0,3.0,0.0,0.0,0.0,0.0,0.125,
7.674918999999995,0.0,0.0,99112.0,0.0,0.0,0.0,0.0,0.125,0.808105386,0.01,0.0,-169097.0,0.0,7.5,0.0,0.0,0.125,0.53710932,0.01,0.0,26112.0,0.0,-7.5,0.0,0.0,0.0,3.337402002,0.01,0.0,-40760.0,0.125,0.0,0.0,0.0,0.25,1.640624832,0.01,0.0,-0.09000000357627869,-0.3799999952316284,-161.8699951171875,-0.01092529296875,-0.00665283203125,1.01763916015625,37.060001373291016,0.0,5.0,0.5426788330078125,-2.21588134765625,Closing,0.0,0.0,3.0,0.0,0.0,0.0,0.0,0.125,
7.795414000000106,0.0,0.0,99111.0,0.0,-7.5,0.0,0.0,0.25,0.806884683,0.01,0.0,-169097.0,0.0,0.0,0.0,0.0,0.125,0.53710932,0.01,0.0,26112.0,0.0,0.0,0.0,0.0,0.0,3.338622705,0.01,0.0,-40759.0,0.125,0.0,0.0,0.0,0.125,1.641845535,0.01,0.0,-0.09000000357627869,-0.3199999928474426,-161.86000061035156,0.0062255859375,-7.32421875E-4,1.040283203125,37.060001373291016,0.0,-11.0,0.542572021484375,-2.21588134765625,Closing,0.0,0.0,3.0,0.0,0.0,0.0,0.0,0.0,
7.91948900000006,0.0,0.0,99110.0,0.0,0.0,0.0,0.0,0.25,0.808105386,0.01,0.0,-169097.0,0.0,0.0,0.0,0.0,0.125,0.53710932,0.01,0.0,26112.0,0.0,0.0,0.0,0.0,0.0,3.338622705,0.01,0.0,-40759.0,0.125,0.0,0.0,0.0,0.125,1.641845535,0.01,0.0,-0.09000000357627869,-0.33000001311302185,-161.86000061035156,0.0035400390625,7.9345703125E-4,1.02239990234375,37.08000183105469,0.0,-9.0,0.542572021484375,-2.21588134765625,Closing,0.0,0.0,3.0,0.0,0.0,0.0,0.0,0.125,
8.049679999999935,0.0,0.0,99110.0,0.75,0.0,442.96875,0.0,0.25,0.806884683,0.01,0.0,-169098.0,1.0,-7.5,-442.96875,0.0,0.125,0.535888617,0.01,0.0,26112.0,0.875,0.0,442.96875,0.0,0.0,3.336181299,0.01,0.0,-40759.0,1.0,0.0,-442.96875,0.0,0.125,1.641845535,0.01,0.0,-0.07999999821186066,-0.27000001072883606,-161.86000061035156,0.006591796875,0.00457763671875,1.01519775390625,37.08000183105469,0.0,-12.0,0.542572021484375,-2.21588134765625,Closing,0.0,0.0,3.0,0.0,0.0,0.0,0.0,0.0,
8.176946999999927,0.0,0.0,99123.0,2.25,52.5,541.40625,0.0,0.25,0.7897948410000001,0.01,0.0,-169103.0,3.625,-37.5,-541.40625,0.0,0.125,0.535888617,0.01,0.0,26117.0,3.375,30.0,541.40625,0.0,0.0,3.3142086450000003,0.01,0.0,-40762.0,2.625,-37.5,-541.40625,0.0,0.125,1.641845535,0.01,0.0,-0.07000000029802322,0.0,-161.92999267578125,0.04571533203125,0.0048828125,0.9969482421875,37.08000183105469,0.0,-45.0,0.5403900146484375,-2.2156982421875,Closing,0.0,0.0,3.0,0.0,0.0,0.0,0.0,0.125,
8.30756700000004,0.0,0.0,99126.0,0.0,7.5,0.0,0.0,0.25,0.806884683,0.01,0.0,-169113.0,0.0,-37.5,0.0,0.0,0.125,0.5419921320000001,0.01,0.0,26122.0,0.0,22.5,0.0,0.0,0.0,3.3142086450000003,0.01,0.0,-40776.0,0.125,-45.0,0.0,0.0,0.125,1.641845535,0.01,0.0,-0.07000000029802322,-0.11999999731779099,-161.85000610351562,-0.06451416015625,0.025390625,0.987060546875,37.08000183105469,0.0,50.0,0.5345611572265625,-2.216766357421875,Closing,0.0,0.0,3.0,0.0,0.0,0.0,0.0,0.125,
8.437485000000102,0.0,0.0,99126.0,0.0,0.0,0.0,0.0,0.25,0.806884683,0.01,0.0,-169113.0,0.0,0.0,0.0,0.0,0.125,0.5419921320000001,0.01,0.0,26122.0,0.0,0.0,0.0,0.0,0.0,3.3276363780000002,0.01,0.0,-40776.0,0.0,0.0,0.0,0.0,0.125,1.6369627230000001,0.01,0.0,-0.05000000074505806,-0.46000000834465027,-161.9199981689453,-0.040771484375,0.00396728515625,1.00726318359375,37.08000183105469,0.0,29.0,0.533782958984375,-2.22052001953125,Closing,0.0,0.0,3.0,0.0,0.0,0.0,0.0,0.125,
8.567938000000082,0.0,0.0,99143.0,1.375,112.5,541.40625,0.0,0.25,0.795898356,0.01,0.0,-169114.0,1.75,-105.0,-541.40625,0.0,0.125,0.5419921320000001,0.01,0.0,26133.0,1.625,127.5,541.40625,0.0,0.0,3.330077784,0.01,0.0,-40776.0,1.375,-82.5,-541.40625,0.0,0.125,1.641845535,0.01,0.0,-0.14000000059604645,-0.14000000059604645,-161.9199981689453,0.0465087890625,-0.030517578125,0.87432861328125,37.08000183105469,0.0,-37.0,0.53399658203125,-2.220001220703125,Closing,0.0,0.0,3.0,0.0,0.0,0.0,0.0,0.125,
8.696395000000019,0.0,0.0,99151.0,2.375,60.0,561.0937499999999,0.0,0.25,0.798339762,0.01,0.0,-169131.0,3.625,-82.5,-561.0937499999999,0.0,0.125,0.5566405680000001,0.01,0.0,26143.0,2.25,37.5,561.0937499999999,0.0,0.0,3.328857081,0.01,0.0,-40790.0,2.5,-60.0,-561.0937499999999,0.0,0.125,1.641845535,0.01,0.0,-0.11999999731779099,0.03999999910593033,-161.86000061035156,0.13140869140625,-0.01416015625,0.86358642578125,37.08000183105469,0.0,-120.0,0.532135009765625,-2.2196502685546875,Closing,0.0,0.0,3.0,0.0,0.0,0.0,0.0,0.125,
8.82770399999991,0.0,0.0,99163.0,0.0,60.0,0.0,0.0,0.25,0.79345695,0.01,0.0,-169151.0,0.0,-37.5,0.0,0.0,0.25,0.53710932,0.01,0.0,26157.0,0.0,30.0,0.0,0.0,0.0,3.328857081,0.01,0.0,-40811.0,0.125,-30.0,0.0,0.0,0.25,1.627197099,0.01,0.0,-0.12999999523162842,-0.019999999552965164,-162.0399932861328,-0.08929443359375,-0.04608154296875,1.076904296875,37.08000183105469,0.0,97.0,0.528106689453125,-2.218017578125,Closing,0.0,0.0,3.0,0.0,0.0,0.0,0.0,0.125,
8.950611000000034,0.0,0.0,99163.0,0.0,7.5,0.0,0.0,0.25,0.79345695,0.01,0.0,-169152.0,0.0,0.0,0.0,0.0,0.125,0.535888617,0.01,0.0,26158.0,0.0,37.5,0.0,0.0,0.0,3.328857081,0.01,0.0,-40815.0,0.125,-22.5,0.0,0.0,0.125,1.622314287,0.01,0.0,-0.11999999731779099,-0.4399999976158142,-161.97000122070312,-0.05096435546875,0.0125732421875,1.00518798828125,37.029998779296875,0.0,36.0,0.5312652587890625,-2.2195587158203125,Closing,0.0,0.0,3.0,0.0,0.0,0.0,0.0,0.125,
9.088245000000112,0.0,0.0,99166.0,0.0,0.0,0.0,0.0,0.25,0.79345695,0.01,0.0,-169152.0,0.0,0.0,0.0,0.0,0.125,0.53710932,0.01,0.0,26163.0,0.0,0.0,0.0,0.0,0.0,3.330077784,0.01,0.0,-40815.0,0.125,0.0,0.0,0.0,0.125,1.622314287,0.01,0.0,-0.10999999940395355,-0.5600000023841858,-161.97999572753906,-6.7138671875E-4,-0.00775146484375,1.007568359375,37.029998779296875,0.0,-7.0,0.534759521484375,-2.2214813232421875,Closing,0.0,0.0,3.0,0.0,0.0,0.0,0.0,0.125,
9.210965000000083,0.0,0.0,99170.0,1.25,150.0,639.84375,0.0,0.25,0.8007811680000001,0.01,0.0,-169173.0,1.5,-127.5,-639.84375,0.0,0.125,0.53710932,0.01,0.0,26163.0,2.0,60.0,639.84375,0.0,0.0,3.3276363780000002,0.01,0.0,-40833.0,1.0,-112.5,-639.84375,0.0,0.125,1.627197099,0.01,0.0,-0.15000000596046448,-0.12999999523162842,-161.97000122070312,0.1168212890625,0.09918212890625,0.89825439453125,37.029998779296875,0.0,-144.0,0.533203125,-2.2211151123046875,Closing,0.0,0.0,3.0,0.0,0.0,0.0,0.0,0.0,
9.342706000000005,0.0,0.0,99194.0,2.5,105.0,570.9375,0.0,0.25,0.79345695,0.01,0.0,-169190.0,3.125,-90.0,-570.9375,0.0,0.125,0.544433538,0.01,0.0,26180.0,3.25,75.0,570.9375,0.0,0.0,3.328857081,0.01,0.0,-40845.0,2.75,-97.5,-570.9375,0.0,0.125,1.652831862,0.01,0.0,-0.15000000596046448,0.2199999988079071,-162.02000427246094,0.095703125,0.00537109375,1.03582763671875,37.029998779296875,0.0,-89.0,0.52142333984375,-2.2181396484375,Closing,0.0,0.0,3.0,0.0,0.0,0.0,0.0,0.125,
9.468701000000117,0.0,0.0,99220.0,1.5,210.0,315.0,0.0,0.25,0.79345695,0.01,0.0,-169224.0,2.0,-217.5,-315.0,0.0,0.125,0.53710932,0.01,0.0,26222.0,2.0,142.5,315.0,0.0,0.0,3.3251949720000002,0.01,0.0,-40878.0,1.875,-202.5,-315.0,0.0,0.25,1.6284178020000002,0.01,0.0,-0.12999999523162842,0.4099999964237213,-162.16000366210938,0.0146484375,-0.0059814453125,1.00628662109375,37.06999969482422,0.0,-5.0,0.517303466796875,-2.2134246826171875,Closing,0.0,0.0,3.0,0.0,0.0,0.0,0.0,0.125,
9.597157000000124,0.0,0.0,99259.0,0.0,142.5,0.0,0.0,0.25,0.79345695,0.01,0.0,-169243.0,0.0,-67.5,0.0,0.0,0.125,0.53710932,0.01,0.0,26242.0,0.0,135.0,0.0,0.0,0.0,3.328857081,0.01,0.0,-40906.0,0.125,-127.5,0.0,0.0,0.125,1.589355306,0.01,0.0,-0.14000000059604645,0.11999999731779099,-162.30999755859375,-0.09393310546875,-0.04217529296875,0.9798583984375,37.06999969482422,0.0,103.0,0.517364501953125,-2.21453857421875,Closing,0.0,0.0,3.0,0.0,0.0,0.0,0.0,0.125,
9.731753999999958,0.0,0.0,99293.0,0.0,142.5,0.0,0.0,0.25,0.79345695,0.01,0.0,-169263.0,0.0,-135.0,0.0,0.0,0.125,0.53710932,0.01,0.0,26245.0,0.0,15.0,0.0,0.0,0.0,3.328857081,0.01,0.0,-40920.0,0.125,-112.5,0.0,0.0,0.25,1.593017415,0.01,0.0,-0.12999999523162842,-0.3499999940395355,-162.44000244140625,-0.087890625,-0.01483154296875,0.9395751953125,37.06999969482422,0.0,82.0,0.5232086181640625,-2.219024658203125,Closing,0.0,0.0,3.0,0.0,0.0,0.0,0.0,0.125,
9.856316000000108,0.0,0.0,99295.0,0.125,30.0,157.5,0.0,0.25,0.79345695,0.01,0.0,-169269.0,0.0,-15.0,-157.5,0.0,0.125,0.53710932,0.01,0.0,26248.0,0.375,22.5,157.5,0.0,0.0,3.330077784,0.01,0.0,-40930.0,0.375,-22.5,-157.5,0.0,0.25,1.59912093,0.01,0.0,-0.10000000149011612,-0.7099999785423279,-162.42999267578125,-0.0313720703125,-0.0118408203125,1.001220703125,37.06999969482422,0.0,21.0,0.5364990234375,-2.2270660400390625,Closing,0.0,0.0,3.0,0.0,0.0,0.0,0.0,0.125,
9.988878000000026,0.0,0.0,99319.0,2.625,180.0,777.65625,0.0,0.25,0.7922362470000001,0.01,0.0,-169287.0,4.375,-210.0,-777.65625,0.0,0.125,0.53710932,0.01,0.0,26272.0,2.875,172.5,777.65625,0.0,0.0,3.328857081,0.01,0.0,-40938.0,2.25,-172.5,-777.65625,0.0,0.25,1.612548663,0.01,0.0,-0.09000000357627869,-0.25999999046325684,-162.36000061035156,0.08270263671875,-0.0802001953125,1.05316162109375,37.04999923706055,0.0,-59.0,0.536376953125,-2.2271575927734375,Closing,0.0,0.0,3.0,0.0,0.0,0.0,0.0,0.0,
10.122674000000115,0.0,0.0,99337.0,0.375,112.5,88.59374999999999,0.0,0.25,0.79345695,0.01,0.0,-169307.0,0.375,-105.0,-88.59374999999999,0.0,0.125,0.538330023,0.01,0.0,26294.0,0.375,60.0,88.59374999999999,0.0,0.0,3.3227535660000003,0.01,0.0,-40982.0,0.375,-97.5,-88.59374999999999,0.0,0.125,1.6027830390000002,0.01,0.0,-0.10000000149011612,-0.23999999463558197,-162.47999572753906,-0.03326416015625,0.0413818359375,0.96197509765625,37.04999923706055,0.0,14.0,0.52178955078125,-2.2238006591796875,Closing,0.0,0.0,3.0,0.0,0.0,0.0,0.0,0.125,
10.27030700000003,0.0,0.0,99352.0,0.0,22.5,0.0,0.0,0.25,0.79345695,0.01,0.0,-169327.0,0.0,-30.0,0.0,0.0,0.125,0.53710932,0.01,0.0,26305.0,0.0,30.0,0.0,0.0,0.0,3.328857081,0.01,0.0,-40986.0,0.125,-22.5,0.0,0.0,0.25,1.594238118,0.01,0.0,-0.09000000357627869,-0.44999998807907104,-162.55999755859375,-0.046875,0.00927734375,0.98736572265625,37.04999923706055,0.0,34.0,0.5121307373046875,-2.2231903076171875,Closing,0.0,0.0,3.0,0.0,0.0,0.0,0.0,0.125,
10.408101000000023,0.0,0.0,99352.0,0.0,0.0,0.0,0.0,0.25,0.794677653,0.01,0.0,-169327.0,0.0,0.0,0.0,0.0,0.125,0.53710932,0.01,0.0,26305.0,0.0,0.0,0.0,0.0,0.0,3.328857081,0.01,0.0,-40986.0,0.125,0.0,0.0,0.0,0.25,1.594238118,0.01,0.0,-0.09000000357627869,-0.7099999785423279,-162.58999633789062,-0.0418701171875,0.00146484375,1.048095703125,37.029998779296875,0.0,26.0,0.507720947265625,-2.2234039306640625,Closing,0.0,0.0,3.0,0.0,0.0,0.0,0.0,0.0,
10.541881000000052,0.0,0.0,99352.0,0.0,0.0,0.0,0.0,0.25,0.79345695,0.01,0.0,-169327.0,0.0,0.0,0.0,0.0,0.125,0.53710932,0.01,0.0,26305.0,0.0,0.0,0.0,0.0,0.0,3.328857081,0.01,0.0,-40986.0,0.125,0.0,0.0,0.0,0.25,1.594238118,0.01,0.0,-0.09000000357627869,-0.7300000190734863,-162.55999755859375,-0.005859375,-0.00604248046875,1.01385498046875,37.029998779296875,0.0,-5.0,0.5070037841796875,-2.2234039306640625,Closing,0.0,0.0,3.0,0.0,0.0,0.0,0.0,0.125,
10.67301099999994,0.0,0.0,99352.0,0.0,0.0,0.0,0.0,0.25,0.794677653,0.01,0.0,-169327.0,0.0,0.0,0.0,0.0,0.125,0.53710932,0.01,0.0,26305.0,0.0,0.0,0.0,0.0,0.0,3.328857081,0.01,0.0,-40986.0,0.125,0.0,0.0,0.0,0.25,1.594238118,0.01,0.0,-0.09000000357627869,-0.6399999856948853,-162.5399932861328,0.0078125,-0.0093994140625,1.02667236328125,37.029998779296875,0.0,-16.0,0.506866455078125,-2.2234039306640625,Closing,0.0,0.0,3.0,0.0,0.0,0.0,0.0,0.125,
10.814647000000114,0.0,0.0,99367.0,1.125,97.5,531.5625,0.0,0.25,0.7897948410000001,0.01,0.0,-169337.0,1.375,-82.5,-531.5625,0.0,0.125,0.53710932,0.01,0.0,26307.0,1.625,15.0,531.5625,0.0,0.0,3.328857081,0.01,0.0,-40989.0,1.0,-52.5,-531.5625,0.0,0.375,1.593017415,0.01,0.0,-0.07999999821186066,-0.3400000035762787,-162.55999755859375,-0.02557373046875,0.03350830078125,1.02960205078125,37.029998779296875,0.0,7.0,0.505035400390625,-2.2224578857421875,Closing,0.0,0.0,3.0,0.0,0.0,0.0,0.0,0.125,
10.952006000000052,0.0,0.0,99380.0,0.875,82.5,295.3125,0.0,0.25,0.79345695,0.01,0.0,-169346.0,1.0,-75.0,-295.3125,0.0,0.125,0.538330023,0.01,0.0,26318.0,1.375,75.0,295.3125,0.0,0.0,3.328857081,0.01,0.0,-41000.0,1.25,-90.0,-295.3125,0.0,0.25,1.59912093,0.01,0.0,-0.07999999821186066,-0.2199999988079071,-162.60000610351562,0.0277099609375,-0.02813720703125,1.01104736328125,37.04999923706055,0.0,-22.0,0.5012054443359375,-2.220458984375,Closing,0.0,0.0,3.0,0.0,0.0,0.0,0.0,0.125,
11.092604999999981,0.0,0.0,99389.0,0.0,45.0,0.0,0.0,0.25,0.79345695,0.01,0.0,-169362.0,0.0,-37.5,0.0,0.0,0.125,0.53710932,0.01,0.0,26331.0,0.0,30.0,0.0,0.0,0.0,3.3276363780000002,0.01,0.0,-41017.0,0.125,-15.0,0.0,0.0,0.25,1.597900227,0.01,0.0,-0.05999999865889549,-0.3499999940395355,-162.72000122070312,-0.05426025390625,-0.0089111328125,0.95458984375,37.04999923706055,0.0,48.0,0.50103759765625,-2.220794677734375,Closing,0.0,0.0,3.0,0.0,0.0,0.0,0.0,0.0,
11.220992000000086,0.0,0.0,99389.0,0.0,0.0,0.0,0.0,0.25,0.79345695,0.01,0.0,-169362.0,0.0,0.0,0.0,0.0,0.125,0.53710932,0.01,0.0,26331.0,0.0,0.0,0.0,0.0,0.0,3.330077784,0.01,0.0,-41018.0,0.125,0.0,0.0,0.0,0.25,1.59912093,0.01,0.0,-0.07000000029802322,-0.6200000047683716,-162.6999969482422,-0.03460693359375,-6.7138671875E-4,0.99066162109375,37.04999923706055,0.0,22.0,0.5064239501953125,-2.2209320068359375,Closing,0.0,0.0,3.0,0.0,0.0,0.0,0.0,0.125,
11.370804000000003,0.0,0.0,99395.0,2.375,135.0,787.5,0.0,0.25,0.79345695,0.01,0.0,-169382.0,4.625,-142.5,-787.5,0.0,0.125,0.53710932,0.01,0.0,26331.0,2.625,127.5,787.5,0.0,0.0,3.328857081,0.01,0.0,-41035.0,2.75,-127.5,-787.5,0.0,0.25,1.622314287,0.01,0.0,-0.029999999329447746,-0.2199999988079071,-162.6199951171875,0.10223388671875,0.0028076171875,1.055419921875,37.04999923706055,0.0,-102.0,0.505584716796875,-2.2207794189453125,Closing,0.0,0.0,3.0,0.0,0.0,0.0,0.0,0.125,
11.51093299999996,0.0,0.0,99418.0,0.75,150.0,196.875,0.0,0.25,0.8007811680000001,0.01,0.0,-169402.0,0.875,-120.0,-196.875,0.0,0.125,0.53710932,0.01,0.0,26377.0,0.75,105.0,196.875,0.0,0.0,3.328857081,0.01,0.0,-41054.0,0.625,-127.5,-196.875,0.0,0.25,1.59912093,0.01,0.0,-0.019999999552965164,-0.029999999329447746,-162.77999877929688,-0.03875732421875,-0.03094482421875,0.866455078125,37.029998779296875,0.0,45.0,0.499908447265625,-2.2195587158203125,Closing,0.0,0.0,3.0,0.0,0.0,0.0,0.0,0.0,
11.651780000000027,0.0,0.0,99443.0,0.0,67.5,0.0,0.0,0.25,0.79345695,0.01,0.0,-169418.0,0.0,-67.5,0.0,0.0,0.125,0.53710932,0.01,0.0,26385.0,0.0,52.5,0.0,0.0,0.0,3.328857081,0.01,0.0,-41072.0,0.0,-52.5,0.0,0.0,0.25,1.59912093,0.01,0.0,-0.019999999552965164,-0.23999999463558197,-162.88999938964844,-0.061767578125,-0.00909423828125,1.03192138671875,37.029998779296875,0.0,57.0,0.50286865234375,-2.2197113037109375,Closing,0.0,0.0,3.0,0.0,0.0,0.0,0.0,0.125,
11.779682999999961,0.0,0.0,99451.0,0.0,0.0,0.0,0.0,0.25,0.7922362470000001,0.01,0.0,-169418.0,0.0,0.0,0.0,0.0,0.125,0.53710932,0.01,0.0,26385.0,0.0,0.0,0.0,0.0,0.0,3.330077784,0.01,0.0,-41072.0,0.125,-15.0,0.0,0.0,0.25,1.59912093,0.01,0.0,0.0,-0.6100000143051147,-162.9199981689453,-0.090576171875,-0.01177978515625,1.01593017578125,37.029998779296875,0.0,79.0,0.5104827880859375,-2.2210540771484375,Closing,0.0,0.0,3.0,0.0,0.0,0.0,0.0,0.0,
11.907806000000098,0.0,0.0,99451.0,0.0,0.0,0.0,0.0,0.25,0.79345695,0.01,0.0,-169418.0,0.0,0.0,0.0,0.0,0.125,0.53710932,0.01,0.0,26385.0,0.0,0.0,0.0,0.0,0.0,3.328857081,0.01,0.0,-41075.0,0.125,0.0,0.0,0.0,0.25,1.59912093,0.01,0.0,-0.019999999552965164,-0.7300000190734863,-162.91000366210938,0.0025634765625,-0.00396728515625,1.01556396484375,37.029998779296875,0.0,-13.0,0.519866943359375,-2.2212066650390625,Closing,0.0,0.0,3.0,0.0,0.0,0.0,0.0,0.0,
12.040654000000098,0.0,0.0,99451.0,0.0,0.0,0.0,0.0,0.25,0.7885741380000001,0.01,0.0,-169418.0,0.0,0.0,0.0,0.0,0.125,0.538330023,0.01,0.0,26385.0,0.0,0.0,0.0,0.0,0.0,3.330077784,0.01,0.0,-41075.0,0.125,0.0,0.0,0.0,0.25,1.597900227,0.01,0.0,-0.029999999329447746,-0.6100000143051147,-162.8800048828125,0.0118408203125,0.0,1.0269775390625,37.040000915527344,0.0,-22.0,0.51934814453125,-2.2212066650390625,Closing,0.0,0.0,3.0,0.0,0.0,0.0,0.0,0.125,
12.170149999999907,0.0,0.0,99468.0,1.5,120.0,639.84375,0.0,0.125,0.7922362470000001,0.01,0.0,-169421.0,2.125,-127.5,-639.84375,0.0,0.125,0.5419921320000001,0.01,0.0,26397.0,1.875,112.5,639.84375,0.0,0.0,3.337402002,0.01,0.0,-41075.0,2.0,-112.5,-639.84375,0.0,0.25,1.612548663,0.01,0.0,0.0,-0.20999999344348907,-162.86000061035156,0.05780029296875,-0.0810546875,0.9002685546875,37.040000915527344,0.0,-34.0,0.5162506103515625,-2.22113037109375,Closing,0.0,0.0,3.0,0.0,0.0,0.0,0.0,0.0,
12.298032000000124,0.0,0.0,99479.0,0.5,82.5,196.875,0.0,0.25,0.79345695,0.01,0.0,-169442.0,0.625,-82.5,-196.875,0.0,0.125,0.544433538,0.01,0.0,26409.0,0.5,37.5,196.875,0.0,0.0,3.328857081,0.01,0.0,-41100.0,0.625,-30.0,-196.875,0.0,0.125,1.59912093,0.01,0.0,0.0,-0.27000001072883606,-162.9199981689453,-0.031005859375,-0.0283203125,1.04400634765625,37.040000915527344,0.0,33.0,0.51519775390625,-2.2213592529296875,Closing,0.0,0.0,3.0,0.0,0.0,0.0,0.0,0.0,
12.43150500000012,0.0,0.0,99489.0,0.0,30.0,0.0,0.0,0.25,0.79345695,0.01,0.0,-169456.0,0.0,-7.5,0.0,0.0,0.125,0.5419921320000001,0.01,0.0,26413.0,0.0,7.5,0.0,0.0,0.0,3.328857081,0.01,0.0,-41104.0,0.125,-30.0,0.0,0.0,0.25,1.597900227,0.01,0.0,0.019999999552965164,-0.49000000953674316,-162.97999572753906,-0.05926513671875,0.00103759765625,1.0206298828125,37.040000915527344,0.0,48.0,0.5190887451171875,-2.223052978515625,Closing,0.0,0.0,3.0,0.0,0.0,0.0,0.0,0.125,
12.560053000000073,0.0,0.0,99489.0,0.0,0.0,0.0,0.0,0.25,0.79345695,0.01,0.0,-169456.0,0.0,0.0,0.0,0.0,0.125,0.5419921320000001,0.01,0.0,26413.0,0.0,0.0,0.0,0.0,0.0,3.330077784,0.01,0.0,-41104.0,0.125,0.0,0.0,0.0,0.25,1.59912093,0.01,0.0,0.019999999552965164,-0.6600000262260437,-162.97000122070312,-0.02606201171875,-0.00830078125,1.03167724609375,37.040000915527344,0.0,16.0,0.5240631103515625,-2.223052978515625,Closing,0.0,0.0,3.0,0.0,0.0,0.0,0.0,0.125,
12.691490999999921,0.0,0.0,99489.0,0.5,7.5,364.21875,0.0,0.25,0.79345695,0.01,0.0,-169458.0,0.875,-15.0,-364.21875,0.0,0.125,0.5419921320000001,0.01,0.0,26413.0,0.75,15.0,364.21875,0.0,0.0,3.3276363780000002,0.01,0.0,-41110.0,0.375,-45.0,-364.21875,0.0,0.25,1.59912093,0.01,0.0,0.0,-0.5099999904632568,-162.97000122070312,0.0716552734375,-0.01666259765625,1.0546875,37.040000915527344,0.0,-72.0,0.52313232421875,-2.2229766845703125,Closing,0.0,0.0,3.0,0.0,0.0,0.0,0.0,0.0,
12.813561999999918,0.0,0.0,99494.0,2.0,45.0,551.25,0.0,0.25,0.79345695,0.01,0.0,-169469.0,3.5,-60.0,-551.25,0.0,0.125,0.5419921320000001,0.01,0.0,26416.0,2.25,37.5,551.25,0.0,0.0,3.3264156750000002,0.01,0.0,-41122.0,2.0,-67.5,-551.25,0.0,0.25,1.597900227,0.01,0.0,0.0,-0.17000000178813934,-162.9199981689453,0.077392578125,0.005615234375,0.958251953125,37.040000915527344,0.0,-78.0,0.517303466796875,-2.2222747802734375,Closing,0.0,0.0,3.0,0.0,0.0,0.0,0.0,0.125,
12.942131000000051,0.0,0.0,99510.0,2.625,172.5,551.25,0.0,0.25,0.79345695,0.01,0.0,-169495.0,4.5,-157.5,-551.25,0.0,0.125,0.5432128350000001,0.01,0.0,26428.0,4.25,120.0,551.25,0.0,0.0,3.330077784,0.01,0.0,-41146.0,2.625,-150.0,-551.25,0.0,0.25,1.612548663,0.01,0.0,0.009999999776482582,0.3499999940395355,-163.13999938964844,0.12225341796875,0.02349853515625,0.970703125,37.08000183105469,0.0,-117.0,0.502288818359375,-2.2209014892578125,Closing,0.0,0.0,3.0,0.0,0.0,0.0,0.0,0.125,
13.067385000000009,0.0,0.0,99550.0,1.875,292.5,413.4375,0.0,0.25,0.7922362470000001,0.01,0.0,-169543.0,3.125,-307.5,-413.4375,0.0,0.125,0.5419921320000001,0.01,0.0,26452.0,2.625,292.5,413.4375,0.0,0.0,3.328857081,0.01,0.0,-41191.0,2.0,-292.5,-413.4375,0.0,0.125,1.612548663,0.01,0.0,0.009999999776482582,0.5699999928474426,-163.16000366210938,0.0616455078125,0.0128173828125,1.00091552734375,37.08000183105469,0.0,-53.0,0.485015869140625,-2.220184326171875,Closing,0.0,0.0,3.0,0.0,0.0,0.0,0.0,0.0,
13.195091999999946,0.0,0.0,99608.0,0.0,270.0,0.0,0.0,0.25,0.79345695,0.01,0.0,-169573.0,0.0,-157.5,0.0,0.0,0.125,0.5419921320000001,0.01,0.0,26521.0,0.0,150.0,0.0,0.0,0.0,3.338622705,0.01,0.0,-41228.0,0.125,-165.0,0.0,0.0,0.125,1.59912093,0.01,0.0,0.05000000074505806,0.28999999165534973,-163.4199981689453,-0.11187744140625,0.00445556640625,0.94219970703125,37.08000183105469,0.0,110.0,0.461090087890625,-2.221221923828125,Closing,0.0,0.0,3.0,0.0,0.0,0.0,0.0,0.0,
13.323212000000058,0.0,0.0,99669.0,0.0,240.0,0.0,0.0,0.25,0.79345695,0.01,0.0,-169612.0,0.0,-217.5,0.0,0.0,0.125,0.5419921320000001,0.01,0.0,26543.0,0.0,142.5,0.0,0.0,0.0,3.328857081,0.01,0.0,-41265.0,0.125,-202.5,0.0,0.0,0.25,1.597900227,0.01,0.0,0.07999999821186066,-0.1599999964237213,-163.57000732421875,-0.11358642578125,-0.0106201171875,1.0753173828125,37.08000183105469,0.0,109.0,0.44384765625,-2.2267913818359375,Closing,0.0,0.0,3.0,0.0,0.0,0.0,0.0,0.0,
13.456225000000092,0.0,0.0,99684.0,0.0,112.5,0.0,0.0,0.25,0.794677653,0.01,0.0,-169633.0,0.0,-75.0,0.0,0.0,0.125,0.5419921320000001,0.01,0.0,26547.0,0.0,22.5,0.0,0.0,0.0,3.328857081,0.01,0.0,-41288.0,0.125,-97.5,0.0,0.0,0.25,1.597900227,0.01,0.0,0.05000000074505806,-0.6600000262260437,-163.5500030517578,-0.0814208984375,0.0089111328125,0.9725341796875,37.040000915527344,0.0,65.0,0.436431884765625,-2.232025146484375,Closing,0.0,0.0,3.0,0.0,0.0,0.0,0.0,0.125,
13.59321399999992,0.0,0.0,99687.0,0.125,22.5,118.12499999999999,0.0,0.25,0.794677653,0.01,0.0,-169636.0,0.0,0.0,-118.12499999999999,0.0,0.125,0.5419921320000001,0.01,0.0,26547.0,0.125,0.0,118.12499999999999,0.0,0.0,3.328857081,0.01,0.0,-41294.0,0.25,-7.5,-118.12499999999999,0.0,0.25,1.59912093,0.01,0.0,0.05000000074505806,-0.8700000047683716,-163.5399932861328,-0.00982666015625,-0.00823974609375,1.00927734375,37.040000915527344,0.0,-2.0,0.4361419677734375,-2.2322540283203125,Closing,0.0,0.0,3.0,0.0,0.0,0.0,0.0,0.125,
13.714601000000025,0.0,0.0,99687.0,0.125,0.0,167.34375,0.0,0.25,0.79345695,0.01,0.0,-169637.0,0.125,-37.5,-167.34375,0.0,0.125,0.5419921320000001,0.01,0.0,26547.0,0.375,0.0,167.34375,0.0,0.0,3.328857081,0.01,0.0,-41294.0,0.375,-7.5,-167.34375,0.0,0.25,1.59912093,0.01,0.0,0.05000000074505806,-0.7699999809265137,-163.52000427246094,0.01129150390625,-0.00213623046875,0.99871826171875,37.040000915527344,0.0,-22.0,0.43597412109375,-2.2322540283203125,Closing,0.0,0.0,3.0,0.0,0.0,0.0,0.0,0.125,
13.849398999999975,0.0,0.0,99688.0,0.0,0.0,0.0,0.0,0.25,0.79345695,0.01,0.0,-169649.0,0.0,-30.0,0.0,0.0,0.125,0.5419921320000001,0.01,0.0,26547.0,0.0,0.0,0.0,0.0,0.0,3.328857081,0.01,0.0,-41297.0,0.125,0.0,0.0,0.0,0.25,1.597900227,0.01,0.0,0.03999999910593033,-0.6200000047683716,-163.49000549316406,0.001220703125,-0.00445556640625,1.01641845703125,37.040000915527344,0.0,-10.0,0.4337310791015625,-2.2322540283203125,Closing,0.0,0.0,3.0,0.0,0.0,0.0,0.0,0.0,
13.97422999999998,0.0,0.0,99688.0,0.0,0.0,0.0,0.0,0.25,0.794677653,0.01,0.0,-169649.0,0.0,0.0,0.0,0.0,0.125,0.5419921320000001,0.01,0.0,26547.0,0.0,0.0,0.0,0.0,0.0,3.328857081,0.01,0.0,-41297.0,0.125,0.0,0.0,0.0,0.25,1.59912093,0.01,0.0,0.03999999910593033,-0.6200000047683716,-163.50999450683594,-0.0194091796875,-0.00244140625,1.02545166015625,37.029998779296875,0.0,8.0,0.4337310791015625,-2.2322540283203125,Closing,0.0,0.0,3.0,0.0,0.0,0.0,0.0,0.125,
14.103019000000087,0.0,0.0,99688.0,0.0,0.0,0.0,0.0,0.25,0.794677653,0.01,0.0,-169649.0,0.0,0.0,0.0,0.0,0.125,0.5419921320000001,0.01,0.0,26547.0,0.0,0.0,0.0,0.0,0.0,3.328857081,0.01,0.0,-41297.0,0.125,0.0,0.0,0.0,0.25,1.59912093,0.01,0.0,0.029999999329447746,-0.6200000047683716,-163.52000427246094,-0.00469970703125,0.00433349609375,1.02191162109375,37.029998779296875,0.0,-7.0,0.4337310791015625,-2.2322540283203125,Closing,0.0,0.0,3.0,0.0,0.0,0.0,0.0,0.0,
14.228472000000068,0.0,0.0,99688.0,0.0,0.0,0.0,0.0,0.25,0.79345695,0.01,0.0,-169649.0,0.0,0.0,0.0,0.0,0.125,0.5419921320000001,0.01,0.0,26547.0,0.0,0.0,0.0,0.0,0.0,3.328857081,0.01,0.0,-41297.0,0.125,0.0,0.0,0.0,0.375,1.59912093,0.01,0.0,0.019999999552965164,-0.5699999928474426,-163.50999450683594,-0.0064697265625,0.00103759765625,1.01947021484375,37.029998779296875,0.0,-3.0,0.4337310791015625,-2.2322540283203125,Closing,0.0,0.0,3.0,0.0,0.0,0.0,0.0,0.125,
14.355149999999908,0.0,0.0,99688.0,0.125,0.0,-188.50394099950788,0.0,0.25,0.79345695,4.932250999999998,0.0,-169648.0,0.25,0.0,188.50394099950788,0.0,0.25,0.5419921320000001,4.963769999999998,0.0,26547.0,0.125,0.0,-188.50394099950788,0.0,0.0,3.328857081,0.01,0.0,-41294.0,0.125,15.0,188.50394099950788,0.0,0.25,1.59912093,0.01,0.0,0.019999999552965164,-0.5600000023841858,-163.5,-0.00885009765625,-3.0517578125E-4,1.01806640625,37.029998779296875,0.0,0.0,0.4337310791015625,-2.2322540283203125,Closing,0.0,0.0,3.0,0.0,0.0,0.0,0.0,0.125,
14.4789439999999,0.0,0.0,99683.0,0.375,-82.5,-357.16537177562714,0.0,0.25,0.79345695,4.932250999999998,0.0,-169624.0,0.75,142.5,357.16537177562714,0.0,0.25,0.5407714290000001,4.963769999999998,0.0,26544.0,0.625,-52.5,-357.16537177562714,0.0,0.0,3.330077784,0.01,0.0,-41283.0,0.75,60.0,357.16537177562714,0.0,0.375,1.59912093,0.01,0.0,0.029999999329447746,-0.6499999761581421,-163.5,3.0517578125E-4,-0.02362060546875,1.00091552734375,37.02000045776367,0.0,-4.0,0.4340972900390625,-2.2324066162109375,Closing,0.0,0.0,3.0,0.0,0.0,0.0,0.0,0.125,
14.60932799999998,0.0,0.0,99670.0,0.75,-45.0,-367.0866268873215,0.0,0.25,0.79345695,4.932250999999998,0.0,-169615.0,1.75,45.0,367.0866268873215,0.0,0.25,0.5432128350000001,4.963769999999998,0.0,26536.0,1.5,0.0,-367.0866268873215,0.0,0.0,3.338622705,0.01,0.0,-41276.0,1.125,45.0,367.0866268873215,0.0,0.25,1.59912093,0.01,0.0,0.0,-0.7900000214576721,-163.47000122070312,-0.06787109375,-0.03253173828125,1.0311279296875,37.02000045776367,0.0,60.0,0.4370269775390625,-2.23260498046875,Closing,0.0,0.0,3.0,0.0,0.0,0.0,0.0,0.125,
14.734527000000002,0.0,0.0,99656.0,1.25,-127.5,-367.0866268873215,0.0,0.25,0.812988198,4.932250999999998,0.0,-169595.0,2.5,127.5,367.0866268873215,0.0,0.25,0.535888617,4.963769999999998,0.0,26535.0,2.125,-22.5,-367.0866268873215,0.0,0.0,3.358153953,0.01,0.0,-41256.0,2.0,120.0,367.0866268873215,0.0,0.25,1.6027830390000002,0.01,0.0,0.0,-1.090000033378601,-163.41000366210938,-0.059326171875,0.00439453125,1.0604248046875,37.02000045776367,0.0,36.0,0.44427490234375,-2.2335357666015625,Closing,0.0,0.0,3.0,0.0,0.0,0.0,0.0,0.125,
14.869726999999955,0.0,0.0,99628.0,1.625,-225.0,-367.0866268873215,0.0,0.25,0.808105386,4.932250999999998,0.0,-169561.0,2.5,217.5,367.0866268873215,0.0,0.25,0.527343696,4.963769999999998,0.0,26482.0,1.875,-232.5,-367.0866268873215,0.0,0.0,3.352050438,0.01,0.0,-41226.0,1.875,210.0,367.0866268873215,0.0,0.25,1.6076658510000001,0.01,0.0,0.009999999776482582,-1.350000023841858,-163.24000549316406,-0.03363037109375,0.0357666015625,0.976806640625,37.02000045776367,0.0,0.0,0.4564666748046875,-2.236053466796875,Closing,0.0,0.0,3.0,0.0,0.0,0.0,0.0,0.0,
15.000669999999925,0.0,0.0,99587.0,1.625,-285.0,-367.0866268873215,0.0,0.25,0.808105386,4.932250999999998,0.0,-169511.0,2.375,315.0,367.0866268873215,0.0,0.125,0.522460884,4.963769999999998,0.0,26456.0,2.5,-172.5,-367.0866268873215,0.0,0.0,3.3630367650000004,0.01,0.0,-41180.0,1.875,307.5,367.0866268873215,0.0,0.25,1.646728347,0.01,0.0,0.009999999776482582,-1.4600000381469727,-163.27999877929688,-0.03656005859375,0.008544921875,1.05535888671875,37.060001373291016,0.0,6.0,0.4678955078125,-2.2389068603515625,Closing,0.0,0.0,3.0,0.0,0.0,0.0,0.0,0.125,
15.12993200000003,0.0,0.0,99486.0,0.125,-315.0,-119.05511766672134,0.0,0.25,0.8056639800000001,4.932250999999998,0.0,-169458.0,0.5,330.0,119.05511766672134,0.0,0.125,0.522460884,4.963769999999998,0.0,26402.0,0.625,-322.5,-119.05511766672134,0.0,0.0,3.3630367650000004,0.01,0.0,-41128.0,0.5,307.5,119.05511766672134,0.0,0.25,1.666259595,0.01,0.0,0.0,-1.3700000047683716,-163.25,0.02099609375,0.006591796875,0.8907470703125,37.060001373291016,0.0,-42.0,0.4832611083984375,-2.2402191162109375,Closing,0.0,0.0,3.0,0.0,0.0,0.0,0.0,0.125,
15.259003999999956,0.0,0.0,99459.0,0.0,-195.0,0.0,0.0,0.25,0.808105386,4.932250999999998,0.0,-169420.0,0.0,202.5,0.0,0.0,0.125,0.522460884,4.963769999999998,0.0,26389.0,0.0,-67.5,0.0,0.0,0.0,3.3630367650000004,0.01,0.0,-41083.0,0.125,225.0,0.0,0.0,0.25,1.67236311,0.01,0.0,-0.05000000074505806,-0.8799999952316284,-163.3699951171875,0.209228515625,-0.02777099609375,0.9912109375,37.060001373291016,0.0,-207.0,0.492950439453125,-2.2388763427734375,Closing,0.0,0.0,3.0,0.0,0.0,0.0,0.0,0.125,
15.390807000000029,0.0,0.0,99431.0,0.0,-172.5,0.0,0.0,0.25,0.808105386,4.932250999999998,0.0,-169383.0,0.0,157.5,0.0,0.0,0.125,0.522460884,4.963769999999998,0.0,26349.0,0.0,-240.0,0.0,0.0,0.0,3.3630367650000004,0.01,0.0,-41048.0,0.125,172.5,0.0,0.0,0.25,1.6564939710000002,0.01,0.0,-0.019999999552965164,-0.47999998927116394,-163.47000122070312,0.03057861328125,0.00482177734375,1.246826171875,37.060001373291016,0.0,-40.0,0.4923553466796875,-2.237091064453125,Closing,0.0,0.0,3.0,0.0,0.0,0.0,0.0,0.0,
15.516392999999924,0.0,0.0,99418.0,0.0,-75.0,0.0,0.0,0.25,0.806884683,4.932250999999998,0.0,-169363.0,0.0,67.5,0.0,0.0,0.125,0.527343696,4.963769999999998,0.0,26349.0,0.0,0.0,0.0,0.0,0.0,3.3618160620000004,0.01,0.0,-41029.0,0.125,67.5,0.0,0.0,0.25,1.652831862,0.01,0.0,-0.009999999776482582,-0.09000000357627869,-163.52000427246094,0.05657958984375,-0.0087890625,0.93896484375,37.02000045776367,0.0,-53.0,0.4842987060546875,-2.234405517578125,Closing,0.0,0.0,3.0,0.0,0.0,0.0,0.0,0.125,
15.65492200000002,0.0,0.0,99418.0,0.0,0.0,0.0,0.0,0.25,0.808105386,4.932250999999998,0.0,-169360.0,0.0,0.0,0.0,0.0,0.125,0.527343696,4.963769999999998,0.0,26349.0,0.0,0.0,0.0,0.0,0.0,3.3618160620000004,0.01,0.0,-41024.0,0.125,0.0,0.0,0.0,0.25,1.651611159,0.01,0.0,-0.019999999552965164,0.0,-163.50999450683594,-0.0169677734375,-0.00946044921875,0.993896484375,37.02000045776367,0.0,18.0,0.4754180908203125,-2.2334747314453125,Closing,0.0,0.0,3.0,0.0,0.0,0.0,0.0,0.125,
15.776577000000048,0.0,0.0,99418.0,0.0,0.0,0.0,0.0,0.25,0.806884683,4.932250999999998,0.0,-169360.0,0.0,0.0,0.0,0.0,0.125,0.527343696,4.963769999999998,0.0,26349.0,0.0,0.0,0.0,0.0,0.0,3.3630367650000004,0.01,0.0,-41024.0,0.125,0.0,0.0,0.0,0.25,1.651611159,0.01,0.0,-0.019999999552965164,-0.11999999731779099,-163.5500030517578,-0.0372314453125,-0.00323486328125,1.051513671875,37.02000045776367,0.0,34.0,0.4765625,-2.2334747314453125,Closing,0.0,0.0,3.0,0.0,0.0,0.0,0.0,0.0,
15.909774999999907,0.0,0.0,99418.0,0.0,0.0,0.0,0.0,0.25,0.808105386,4.932250999999998,0.0,-169360.0,0.0,0.0,0.0,0.0,0.125,0.527343696,4.963769999999998,0.0,26349.0,0.0,0.0,0.0,0.0,0.0,3.3630367650000004,0.01,0.0,-41024.0,0.125,0.0,0.0,0.0,0.375,1.651611159,0.01,0.0,-0.019999999552965164,-0.18000000715255737,-163.52999877929688,-4.8828125E-4,0.003173828125,1.03387451171875,37.02000045776367,0.0,-3.0,0.4771881103515625,-2.2334747314453125,Closing,0.0,0.0,3.0,0.0,0.0,0.0,0.0,0.0,
16.031736999999964,0.0,0.0,99418.0,0.0,0.0,0.0,0.0,0.25,0.806884683,4.932250999999998,0.0,-169360.0,0.0,0.0,0.0,0.0,0.125,0.527343696,4.963769999999998,0.0,26349.0,0.0,0.0,0.0,0.0,0.0,3.3618160620000004,0.01,0.0,-41024.0,0.125,0.0,0.0,0.0,0.25,1.651611159,0.01,0.0,-0.03999999910593033,-0.17000000178813934,-163.5399932861328,0.0,0.00201416015625,1.02935791015625,37.02000045776367,0.0,-3.0,0.4771881103515625,-2.2334747314453125,Closing,0.0,0.0,3.0,0.0,0.0,0.0,0.0,0.125,
16.15964400000009,0.0,0.0,99418.0,0.0,0.0,0.0,0.0,0.25,0.808105386,4.932250999999998,0.0,-169360.0,0.0,0.0,0.0,0.0,0.125,0.5285643990000001,4.963769999999998,0.0,26349.0,0.0,0.0,0.0,0.0,0.0,3.3630367650000004,0.01,0.0,-41024.0,0.125,0.0,0.0,0.0,0.25,1.651611159,0.01,0.0,-0.03999999910593033,-0.1899999976158142,-163.5399932861328,-0.01312255859375,-0.00225830078125,1.01776123046875,37.02000045776367,0.0,9.0,0.4771881103515625,-2.2334747314453125,Closing,0.0,0.0,3.0,0.0,0.0,0.0,0.0,0.125,
16.28990299999993,0.0,0.0,99418.0,0.0,0.0,0.0,0.0,0.25,0.806884683,4.932250999999998,0.0,-169360.0,0.0,0.0,0.0,0.0,0.125,0.527343696,4.963769999999998,0.0,26349.0,0.0,0.0,0.0,0.0,0.0,3.3630367650000004,0.01,0.0,-41024.0,0.125,0.0,0.0,0.0,0.25,1.651611159,0.01,0.0,-0.03999999910593033,-0.20999999344348907,-163.52999877929688,-0.00360107421875,-0.00128173828125,1.0189208984375,37.02000045776367,0.0,0.0,0.4771881103515625,-2.2334747314453125,Closing,0.0,0.0,3.0,0.0,0.0,0.0,0.0,0.0,
16.418024999999908,0.0,0.0,99418.0,0.0,0.0,0.0,0.0,0.25,0.806884683,4.932250999999998,0.0,-169360.0,0.0,0.0,0.0,0.0,0.125,0.527343696,4.963769999999998,0.0,26349.0,0.0,0.0,0.0,0.0,0.0,3.3630367650000004,0.01,0.0,-41024.0,0.125,0.0,0.0,0.0,0.25,1.651611159,0.01,0.0,-0.03999999910593033,-0.23000000417232513,-163.52999877929688,-0.009521484375,-7.32421875E-4,1.02606201171875,37.02000045776367,0.0,5.0,0.4771881103515625,-2.2334747314453125,Closing,0.0,0.0,3.0,0.0,0.0,0.0,0.0,0.125,
16.551983999999937,0.0,0.0,99418.0,0.0,0.0,0.0,0.0,0.25,0.808105386,4.932250999999998,0.0,-169360.0,0.0,0.0,0.0,0.0,0.125,0.5285643990000001,4.963769999999998,0.0,26349.0,0.0,0.0,0.0,0.0,0.0,3.3618160620000004,0.01,0.0,-41024.0,0.125,0.0,0.0,0.0,0.375,1.651611159,0.01,0.0,-0.05000000074505806,-0.25,-163.52999877929688,-0.00274658203125,-0.0020751953125,1.01751708984375,37.0099983215332,0.0,-1.0,0.4771881103515625,-2.2334747314453125,Closing,0.0,0.0,3.0,0.0,0.0,0.0,0.0,0.0,
