Time,ClimberA1,ClimberA2,FRpos,FRCurrent,FRspeed,FRsetpoint,FRApos,FRACurrent,FREncpos,FREncSetpoint,FREncSpeed,FLpos,FLCurrent,FLspeed,FLsetpoint,FLApos,FLACurrent,FLEncpos,FLEncSetpoint,FLEncSpeed,BRpos,BRCurrent,BRspeed,BRsetpoint,BRApos,BRACurrent,BREncpos,BREncSetpoint,BREncSpeed,BLpos,BLCurrent,BLspeed,BLsetpoint,BLApos,BLACurrent,BLEncpos,BLEncSetpoint,BLEncSpeed,navx_Pitch,navx_Roll,navx_Yaw,navx_XAcc,navx_YAcc,navx_ZAcc,navx_Temp,navx_Bar,navx_Alt,navx_XDis,navx_YDis,GearPlacerState,ShootOutputV,ShootOutputCurrent,ShootEncPos,ShootEncVelocity,ShootSpeed,ShootSetpoint,CarouselSetpoint,CarouselCurrent,
0.17350899999999092,0.0,0.0,108244.0,0.0,0.0,0.0,0.0,0.125,0.8410643670000001,0.01,0.0,-152314.0,0.0,0.0,-0.0,0.0,0.125,0.531005805,0.01,0.0,15230.0,0.0,0.0,0.0,0.0,0.0,3.353271141,0.01,0.0,-52348.0,0.125,0.0,-0.0,0.0,0.25,1.6857908430000001,0.01,0.0,0.1899999976158142,-0.4300000071525574,-99.86000061035156,-0.00872802734375,0.003173828125,1.015625,36.310001373291016,0.0,0.0,0.5501556396484375,-0.939971923828125,Closing,0.0,0.0,3.0,0.0,0.0,0.0,0.0,0.0,
0.22018899999998393,0.0,0.0,108244.0,0.0,0.0,0.0,0.0,0.25,0.839843664,0.01,0.0,-152314.0,0.0,0.0,-0.0,0.0,0.125,0.5297851020000001,0.01,0.0012207029999995456,15230.0,0.0,0.0,0.0,0.0,0.0,3.352050438,0.01,0.0,-52348.0,0.125,0.0,-0.0,0.0,0.25,1.6870115460000001,0.01,-0.0024414059999999793,0.1899999976158142,-0.4300000071525574,-99.86000061035156,-0.0103759765625,0.00408935546875,1.02032470703125,36.310001373291016,0.0,0.0,0.5501556396484375,-0.939971923828125,Closing,0.0,0.0,3.0,0.0,0.0,0.0,0.0,0.0,
0.2615989999999874,0.0,0.0,108244.0,0.0,0.0,0.0,0.0,0.25,0.8410643670000001,0.01,0.0,-152314.0,0.0,0.0,-0.0,0.0,0.125,0.532226508,0.01,0.0,15230.0,0.0,0.0,0.0,0.0,0.0,3.353271141,0.01,0.0,-52348.0,0.125,0.0,-0.0,0.0,0.25,1.6809080310000002,0.01,0.0,0.20999999344348907,-0.4000000059604645,-99.86000061035156,0.0264892578125,0.03411865234375,0.96038818359375,36.310001373291016,0.0,-35.0,0.5501861572265625,-0.9398651123046875,Closing,0.0,0.0,3.0,0.0,0.0,0.0,0.0,0.0,
0.32914299999998187,0.0,0.0,108244.0,0.0,0.0,0.0,0.0,0.25,0.839843664,0.01,0.0012207030000001007,-152314.0,0.0,0.0,-0.0,0.0,0.125,0.532226508,0.01,0.0,15230.0,0.0,0.0,0.0,0.0,0.0,3.352050438,0.01,0.0,-52348.0,0.125,0.0,-0.0,0.0,0.25,1.6833494370000002,0.01,0.0,0.12999999523162842,-0.38999998569488525,-99.86000061035156,0.08221435546875,-0.07257080078125,0.7576904296875,36.31999969482422,0.0,58.0,0.55126953125,-0.9398193359375,Closing,0.0,0.0,3.0,0.0,0.0,0.0,0.0,0.0,
0.3758929999999818,0.0,0.0,108244.0,0.0,0.0,0.0,0.0,0.125,0.8410643670000001,0.01,-0.0012207030000001007,-152314.0,0.0,0.0,-0.0,0.0,0.125,0.5297851020000001,0.01,0.0,15230.0,0.0,0.0,0.0,0.0,0.0,3.353271141,0.01,0.0,-52348.0,0.125,0.0,-0.0,0.0,0.25,1.6857908430000001,0.01,0.0012207029999999897,0.10999999940395355,-0.41999998688697815,-99.8499984741211,0.06298828125,-0.0172119140625,0.9130859375,36.31999969482422,0.0,6.0,0.5529327392578125,-0.939727783203125,Closing,0.0,0.0,3.0,0.0,0.0,0.0,0.0,0.0,
0.41514499999998955,0.0,0.0,108244.0,0.0,0.0,0.0,0.0,0.125,0.8447264760000001,0.01,0.0,-152314.0,0.0,0.0,-0.0,0.0,0.125,0.532226508,0.01,0.0,15230.0,0.0,0.0,0.0,0.0,0.0,3.353271141,0.01,0.0,-52348.0,0.125,0.0,-0.0,0.0,0.25,1.6809080310000002,0.01,0.0,0.1599999964237213,-0.5099999904632568,-99.87000274658203,-0.0302734375,0.060302734375,1.153564453125,36.31999969482422,0.0,-52.0,0.5549163818359375,-0.94000244140625,Closing,0.0,0.0,3.0,0.0,0.0,0.0,0.0,0.0,
0.4558390000000072,0.0,0.0,108244.0,0.0,0.0,0.0,0.0,0.25,0.8410643670000001,0.01,0.0,-152314.0,0.0,0.0,-0.0,0.0,0.125,0.532226508,0.01,0.0,15230.0,0.125,0.0,0.0,0.0,0.0,3.352050438,0.01,0.0,-52348.0,0.125,0.0,-0.0,0.0,0.25,1.6857908430000001,0.01,-0.0012207029999999897,0.1599999964237213,-0.44999998807907104,-99.86000061035156,-0.0589599609375,-0.07470703125,1.040771484375,36.31999969482422,0.0,85.0,0.556854248046875,-0.940582275390625,Closing,0.0,0.0,3.0,0.0,0.0,0.0,0.0,0.0,
0.5028359999999812,0.0,0.0,108244.0,0.0,0.0,0.0,0.0,0.25,0.839843664,0.01,0.0,-152314.0,0.0,0.0,-0.0,0.0,0.125,0.532226508,0.01,0.0,15230.0,0.0,0.0,0.0,0.0,0.0,3.352050438,0.01,0.0,-52348.0,0.125,0.0,-0.0,0.0,0.25,1.6857908430000001,0.01,-0.0012207029999999897,0.17000000178813934,-0.38999998569488525,-99.86000061035156,0.0010986328125,-0.0263671875,0.99591064453125,36.31999969482422,0.0,27.0,0.55902099609375,-0.941253662109375,Closing,0.0,0.0,3.0,0.0,0.0,0.0,0.0,0.0,
0.5459689999999827,0.0,0.0,108244.0,0.0,0.0,0.0,0.0,0.25,0.8410643670000001,0.01,0.0,-152314.0,0.0,0.0,-0.0,0.0,0.125,0.533447211,0.01,0.0,15230.0,0.0,0.0,0.0,0.0,0.0,3.353271141,0.01,0.0,-52348.0,0.125,0.0,-0.0,0.0,0.25,1.6857908430000001,0.01,0.0012207029999999897,0.18000000715255737,-0.41999998688697815,-99.86000061035156,0.003662109375,0.04547119140625,1.09490966796875,36.31999969482422,0.0,-43.0,0.5614166259765625,-0.941680908203125,Closing,0.0,0.0,3.0,0.0,0.0,0.0,0.0,0.0,
0.5877699999999895,0.0,0.0,108244.0,0.0,0.0,0.0,0.0,0.125,0.8410643670000001,0.01,0.0,-152314.0,0.0,0.0,-0.0,0.0,0.125,0.532226508,0.01,0.0,15230.0,0.0,0.0,0.0,0.0,0.0,3.352050438,0.01,0.0,-52348.0,0.125,0.0,-0.0,0.0,0.25,1.6809080310000002,0.01,0.0012207029999999897,0.1599999964237213,-0.41999998688697815,-99.86000061035156,0.0306396484375,-0.052978515625,0.93536376953125,36.31999969482422,0.0,48.0,0.562957763671875,-0.9416656494140625,Closing,0.0,0.0,3.0,0.0,0.0,0.0,0.0,0.0,
0.6290449999999838,0.0,0.0,108244.0,0.0,0.0,0.0,0.0,0.25,0.8410643670000001,0.01,0.0,-152314.0,0.0,0.0,-0.0,0.0,0.125,0.533447211,0.01,0.0,15230.0,0.0,0.0,0.0,0.0,0.0,3.353271141,0.01,0.0,-52348.0,0.125,0.0,-0.0,0.0,0.25,1.6870115460000001,0.01,0.0,0.17000000178813934,-0.38999998569488525,-99.86000061035156,-0.02294921875,0.05413818359375,0.9837646484375,36.31999969482422,0.0,-47.0,0.5653076171875,-0.941497802734375,Closing,0.0,0.0,3.0,0.0,0.0,0.0,0.0,0.0,
0.6667859999999928,0.0,0.0,108244.0,0.0,0.0,0.0,0.0,0.25,0.8410643670000001,0.01,0.0,-152314.0,0.0,0.0,-0.0,0.0,0.125,0.532226508,0.01,0.0,15230.0,0.125,0.0,0.0,0.0,0.0,3.353271141,0.01,0.0,-52348.0,0.125,0.0,-0.0,0.0,0.25,1.6857908430000001,0.01,0.0,0.18000000715255737,-0.4300000071525574,-99.86000061035156,-0.0142822265625,-0.00146484375,0.9970703125,36.31999969482422,0.0,5.0,0.5660247802734375,-0.94146728515625,Closing,0.0,0.0,3.0,0.0,0.0,0.0,0.0,0.0,
0.7087729999999864,0.0,0.0,108244.0,0.0,0.0,0.0,0.0,0.25,0.8410643670000001,0.01,0.0,-152314.0,0.0,0.0,-0.0,0.0,0.125,0.532226508,0.01,0.0,15230.0,0.0,0.0,0.0,0.0,0.0,3.353271141,0.01,0.0,-52348.0,0.125,0.0,-0.0,0.0,0.25,1.6870115460000001,0.01,-0.0012207029999999897,0.17000000178813934,-0.44999998807907104,-99.86000061035156,-1.8310546875E-4,9.765625E-4,1.06231689453125,36.31999969482422,0.0,0.0,0.565948486328125,-0.9414825439453125,Closing,0.0,0.0,3.0,0.0,0.0,0.0,0.0,0.0,
0.7508279999999795,0.0,0.0,108244.0,0.0,0.0,0.0,0.0,0.25,0.839843664,0.01,0.0,-152314.0,0.125,0.0,-0.0,0.0,0.125,0.531005805,0.01,0.0,15230.0,0.0,0.0,0.0,0.0,0.0,3.352050438,0.01,0.0,-52348.0,0.125,0.0,-0.0,0.0,0.25,1.6857908430000001,0.01,0.0024414059999999793,0.17000000178813934,-0.4399999976158142,-99.86000061035156,-0.03240966796875,-0.00146484375,1.08184814453125,36.31999969482422,0.0,8.0,0.565948486328125,-0.9413909912109375,Closing,0.0,0.0,3.0,0.0,0.0,0.0,0.0,0.0,
0.7925460000000021,0.0,0.0,108244.0,0.0,0.0,0.0,0.0,0.25,0.8410643670000001,0.01,0.0,-152314.0,0.0,0.0,-0.0,0.0,0.125,0.532226508,0.01,0.0,15230.0,0.0,0.0,0.0,0.0,0.0,3.353271141,0.01,0.0,-52348.0,0.125,0.0,-0.0,0.0,0.25,1.6809080310000002,0.01,0.0,0.17000000178813934,-0.4300000071525574,-99.87000274658203,-0.0018310546875,-0.0054931640625,1.0555419921875,36.31999969482422,0.0,7.0,0.565948486328125,-0.9412994384765625,Closing,0.0,0.0,3.0,0.0,0.0,0.0,0.0,0.0,
0.8357329999999783,0.0,0.0,108244.0,0.0,0.0,0.0,0.0,0.125,0.8410643670000001,0.01,0.0012207030000001007,-152314.0,0.0,0.0,-0.0,0.0,0.125,0.532226508,0.01,0.0,15230.0,0.0,0.0,0.0,0.0,0.0,3.352050438,0.01,0.0,-52348.0,0.125,0.0,-0.0,0.0,0.25,1.6857908430000001,0.01,0.0,0.1599999964237213,-0.4300000071525574,-99.86000061035156,-0.00372314453125,0.016357421875,0.99578857421875,36.31999969482422,0.0,-13.0,0.565948486328125,-0.941253662109375,Closing,0.0,0.0,3.0,0.0,0.0,0.0,0.0,0.0,
0.8788269999999903,0.0,0.0,108244.0,0.0,0.0,0.0,0.0,0.25,0.8410643670000001,0.01,-0.0012207030000001007,-152314.0,0.0,0.0,-0.0,0.0,0.125,0.532226508,0.01,0.0,15230.0,0.0,0.0,0.0,0.0,0.0,3.353271141,0.01,0.0,-52348.0,0.125,0.0,-0.0,0.0,0.25,1.6809080310000002,0.01,-0.0024414059999999793,0.17000000178813934,-0.4300000071525574,-99.87000274658203,0.0052490234375,0.00286865234375,0.96832275390625,36.31999969482422,0.0,-2.0,0.565948486328125,-0.941253662109375,Closing,0.0,0.0,3.0,0.0,0.0,0.0,0.0,0.0,
0.916103999999992,0.0,0.0,108244.0,0.0,0.0,0.0,0.0,0.25,0.8410643670000001,0.01,0.0,-152314.0,0.0,0.0,-0.0,0.0,0.125,0.532226508,0.01,0.0,15230.0,0.0,0.0,0.0,0.0,0.0,3.352050438,0.01,0.0,-52348.0,0.125,0.0,-0.0,0.0,0.25,1.6857908430000001,0.01,0.0012207029999999897,0.17000000178813934,-0.4300000071525574,-99.86000061035156,-0.0089111328125,3.662109375E-4,1.0155029296875,36.31999969482422,0.0,2.0,0.565948486328125,-0.941253662109375,Closing,0.0,0.0,3.0,0.0,0.0,0.0,0.0,0.0,
0.9610050000000047,0.0,0.0,108244.0,0.0,0.0,0.0,0.0,0.25,0.8410643670000001,0.01,0.0,-152314.0,0.0,0.0,-0.0,0.0,0.125,0.532226508,0.01,0.0,15230.0,0.0,0.0,0.0,0.0,0.0,3.353271141,0.01,0.0,-52348.0,0.125,0.0,-0.0,0.0,0.25,1.6857908430000001,0.01,0.0,0.18000000715255737,-0.4399999976158142,-99.87000274658203,-0.01287841796875,0.00286865234375,1.0357666015625,36.31999969482422,0.0,1.0,0.565948486328125,-0.941253662109375,Closing,0.0,0.0,3.0,0.0,0.0,0.0,0.0,0.0,
1.0015969999999796,0.0,0.0,108244.0,0.0,0.0,0.0,0.0,0.25,0.8410643670000001,0.01,0.0,-152314.0,0.0,0.0,-0.0,0.0,0.125,0.532226508,0.01,0.0,15230.0,0.0,0.0,0.0,0.0,0.0,3.352050438,0.01,0.0,-52348.0,0.125,0.0,-0.0,0.0,0.25,1.6845701400000002,0.01,0.0012207029999999897,0.17000000178813934,-0.4399999976158142,-99.87000274658203,-0.01531982421875,0.00616455078125,1.026123046875,36.31999969482422,0.0,-1.0,0.565948486328125,-0.941253662109375,Closing,0.0,0.0,3.0,0.0,0.0,0.0,0.0,0.0,
1.048441999999981,0.0,0.0,108244.0,0.0,0.0,0.0,0.0,0.25,0.8410643670000001,0.01,0.0,-152314.0,0.0,0.0,-0.0,0.0,0.125,0.532226508,0.01,0.0,15230.0,0.0,0.0,0.0,0.0,0.0,3.350829735,0.01,0.0,-52348.0,0.125,0.0,-0.0,0.0,0.25,1.6809080310000002,0.01,0.0012207029999999897,0.18000000715255737,-0.4300000071525574,-99.87000274658203,-0.01116943359375,0.00421142578125,1.03790283203125,36.31999969482422,0.0,0.0,0.565948486328125,-0.941253662109375,Closing,0.0,0.0,3.0,0.0,0.0,0.0,0.0,0.0,
1.0900139999999956,0.0,0.0,108244.0,0.0,0.0,0.0,0.0,0.125,0.839843664,0.01,0.0012207030000001007,-152314.0,0.125,0.0,-0.0,0.0,0.125,0.532226508,0.01,0.0,15230.0,0.0,0.0,0.0,0.0,0.0,3.353271141,0.01,0.0,-52348.0,0.125,0.0,-0.0,0.0,0.25,1.6809080310000002,0.01,0.0012207029999999897,0.17000000178813934,-0.4399999976158142,-99.86000061035156,-0.00262451171875,0.00653076171875,1.00189208984375,36.31999969482422,0.0,-4.0,0.565948486328125,-0.941253662109375,Closing,0.0,0.0,3.0,0.0,0.0,0.0,0.0,0.0,
1.1324100000000035,0.0,0.0,108244.0,0.0,0.0,0.0,0.0,0.125,0.839843664,0.01,-0.0012207030000001007,-152314.0,0.0,0.0,-0.0,0.0,0.125,0.532226508,0.01,0.0,15230.0,0.0,0.0,0.0,0.0,0.0,3.353271141,0.01,0.0,-52348.0,0.125,0.0,-0.0,0.0,0.25,1.6857908430000001,0.01,-0.0024414059999999793,0.18000000715255737,-0.4300000071525574,-99.86000061035156,-0.01068115234375,0.00128173828125,1.01153564453125,36.31999969482422,0.0,2.0,0.565948486328125,-0.941253662109375,Closing,0.0,0.0,3.0,0.0,0.0,0.0,0.0,0.0,
1.1724890000000014,0.0,0.0,108244.0,0.0,0.0,0.0,0.0,0.25,0.8410643670000001,0.01,0.0,-152314.0,0.0,0.0,-0.0,0.0,0.125,0.532226508,0.01,0.0,15230.0,0.0,0.0,0.0,0.0,0.0,3.353271141,0.01,0.0,-52348.0,0.125,0.0,-0.0,0.0,0.25,1.6857908430000001,0.01,0.0,0.17000000178813934,-0.4399999976158142,-99.86000061035156,-0.0076904296875,0.00604248046875,1.008056640625,36.31999969482422,0.0,-2.0,0.565948486328125,-0.941253662109375,Closing,0.0,0.0,3.0,0.0,0.0,0.0,0.0,0.0,
1.2135190000000002,0.0,0.0,108244.0,0.0,0.0,0.0,0.0,0.25,0.8410643670000001,0.01,0.0,-152314.0,0.0,0.0,-0.0,0.0,0.125,0.532226508,0.01,0.0,15230.0,0.0,0.0,0.0,0.0,0.0,3.352050438,0.01,0.0,-52348.0,0.125,0.0,-0.0,0.0,0.25,1.6857908430000001,0.01,0.0,0.18000000715255737,-0.4300000071525574,-99.87000274658203,-0.0028076171875,3.0517578125E-4,1.0198974609375,36.31999969482422,0.0,2.0,0.565948486328125,-0.941253662109375,Closing,0.0,0.0,3.0,0.0,0.0,0.0,0.0,0.0,
1.2580359999999928,0.0,0.0,108244.0,0.0,0.0,0.0,0.0,0.25,0.8410643670000001,0.01,0.0012207030000001007,-152314.0,0.0,0.0,-0.0,0.0,0.125,0.532226508,0.01,-0.0012207029999995456,15230.0,0.0,0.0,0.0,0.0,0.0,3.352050438,0.01,0.0,-52348.0,0.125,0.0,-0.0,0.0,0.25,1.6857908430000001,0.01,0.0,0.18000000715255737,-0.4300000071525574,-99.86000061035156,-0.010009765625,0.0040283203125,1.02734375,36.31999969482422,0.0,0.0,0.565948486328125,-0.941253662109375,Closing,0.0,0.0,3.0,0.0,0.0,0.0,0.0,0.0,
1.3049989999999816,0.0,0.0,108244.0,0.0,0.0,0.0,0.0,0.25,0.8410643670000001,0.01,-0.0012207030000001007,-152314.0,0.0,0.0,-0.0,0.0,0.125,0.532226508,0.01,0.0,15230.0,0.125,0.0,0.0,0.0,0.0,3.352050438,0.01,0.0,-52348.0,0.125,0.0,-0.0,0.0,0.25,1.6857908430000001,0.01,0.0,0.18000000715255737,-0.4300000071525574,-99.87000274658203,-0.010498046875,0.00164794921875,1.02471923828125,36.31999969482422,0.0,2.0,0.565948486328125,-0.941253662109375,Closing,0.0,0.0,3.0,0.0,0.0,0.0,0.0,0.0,
1.348331999999995,0.0,0.0,108244.0,0.0,0.0,0.0,0.0,0.25,0.8410643670000001,0.01,0.0012207030000001007,-152314.0,0.0,0.0,-0.0,0.0,0.125,0.532226508,0.01,0.0012207029999995456,15230.0,0.0,0.0,0.0,0.0,0.0,3.353271141,0.01,0.0,-52348.0,0.125,0.0,-0.0,0.0,0.25,1.6857908430000001,0.01,-0.0012207029999999897,0.18000000715255737,-0.4300000071525574,-99.87000274658203,-0.00518798828125,0.00543212890625,1.01739501953125,36.279998779296875,0.0,-2.0,0.565948486328125,-0.941253662109375,Closing,0.0,0.0,3.0,0.0,0.0,0.0,0.0,0.0,
1.4001779999999853,0.0,0.0,108244.0,0.0,0.0,0.0,0.0,0.25,0.8410643670000001,0.01,0.0,-152314.0,0.0,0.0,-0.0,0.0,0.125,0.532226508,0.01,0.0,15230.0,0.0,0.0,0.0,0.0,0.0,3.352050438,0.01,0.0,-52348.0,0.125,0.0,-0.0,0.0,0.25,1.6809080310000002,0.01,0.0024414059999999793,0.18000000715255737,-0.4300000071525574,-99.87000274658203,-0.0068359375,0.001953125,1.026123046875,36.279998779296875,0.0,1.0,0.565948486328125,-0.941253662109375,Closing,0.0,0.0,3.0,0.0,0.0,0.0,0.0,0.0,
1.4455989999999874,0.0,0.0,108244.0,0.0,0.0,0.0,0.0,0.25,0.8410643670000001,0.01,0.0,-152314.0,0.0,0.0,-0.0,0.0,0.125,0.532226508,0.01,0.0,15230.0,0.0,0.0,0.0,0.0,0.0,3.353271141,0.01,0.0,-52348.0,0.125,0.0,-0.0,0.0,0.25,1.6857908430000001,0.01,0.0024414059999999793,0.1899999976158142,-0.4300000071525574,-99.87000274658203,-0.0111083984375,0.0048828125,1.02130126953125,36.279998779296875,0.0,0.0,0.565948486328125,-0.941253662109375,Closing,0.0,0.0,3.0,0.0,0.0,0.0,0.0,0.0,
1.4882019999999903,0.0,0.0,108244.0,0.0,0.0,0.0,0.0,0.25,0.8410643670000001,0.01,-0.0012207030000001007,-152314.0,0.0,0.0,-0.0,0.0,0.125,0.532226508,0.01,-0.0012207029999995456,15230.0,0.0,0.0,0.0,0.0,0.0,3.353271141,0.01,0.0,-52348.0,0.125,0.0,-0.0,0.0,0.25,1.6857908430000001,0.01,-0.0012207029999999897,0.1899999976158142,-0.4300000071525574,-99.87000274658203,-0.00701904296875,0.00555419921875,1.02117919921875,36.279998779296875,0.0,-2.0,0.565948486328125,-0.941253662109375,Closing,0.0,0.0,3.0,0.0,0.0,0.0,0.0,0.0,
1.5298859999999985,0.0,0.0,108244.0,0.0,0.0,0.0,0.0,0.25,0.8410643670000001,0.01,0.0,-152314.0,0.0,0.0,-0.0,0.0,0.125,0.532226508,0.01,0.0012207029999995456,15230.0,0.125,0.0,0.0,0.0,0.0,3.352050438,0.01,0.0,-52348.0,0.125,0.0,-0.0,0.0,0.25,1.6857908430000001,0.01,-0.0012207029999999897,0.1899999976158142,-0.4300000071525574,-99.86000061035156,-0.01171875,0.00164794921875,1.02203369140625,36.279998779296875,0.0,2.0,0.565948486328125,-0.941253662109375,Closing,0.0,0.0,3.0,0.0,0.0,0.0,0.0,0.0,
1.5680529999999853,0.0,0.0,108244.0,0.0,0.0,0.0,0.0,0.125,0.8410643670000001,0.01,0.0012207030000001007,-152314.0,0.0,0.0,-0.0,0.0,0.125,0.532226508,0.01,-0.0012207029999995456,15230.0,0.0,0.0,0.0,0.0,0.0,3.352050438,0.01,0.0,-52348.0,0.125,0.0,-0.0,0.0,0.25,1.6809080310000002,0.01,0.0024414059999999793,0.1899999976158142,-0.4300000071525574,-99.86000061035156,-0.00286865234375,0.0072021484375,1.015869140625,36.279998779296875,0.0,-4.0,0.565948486328125,-0.941253662109375,Closing,0.0,0.0,3.0,0.0,0.0,0.0,0.0,0.0,
1.6105529999999852,0.0,0.0,108244.0,0.0,0.0,0.0,0.0,0.125,0.8410643670000001,0.01,0.0,-152314.0,0.0,0.0,-0.0,0.0,0.125,0.533447211,0.01,0.0012207029999995456,15230.0,0.0,0.0,0.0,0.0,0.0,3.352050438,0.01,0.0,-52348.0,0.125,0.0,-0.0,0.0,0.25,1.6857908430000001,0.01,-0.0024414059999999793,0.1899999976158142,-0.4300000071525574,-99.86000061035156,-0.01068115234375,0.002685546875,1.01715087890625,36.279998779296875,0.0,1.0,0.565948486328125,-0.941253662109375,Closing,0.0,0.0,3.0,0.0,0.0,0.0,0.0,0.125,
1.6523610000000044,0.0,0.0,108244.0,0.0,0.0,0.0,0.0,0.125,0.8410643670000001,0.01,-0.0012207030000001007,-152314.0,0.0,0.0,-0.0,0.0,0.125,0.532226508,0.01,0.0,15230.0,0.125,0.0,0.0,0.0,0.0,3.352050438,0.01,0.0,-52348.0,0.125,0.0,-0.0,0.0,0.25,1.6857908430000001,0.01,0.0,0.1899999976158142,-0.4300000071525574,-99.86000061035156,-0.00689697265625,0.00390625,1.01995849609375,36.279998779296875,0.0,0.0,0.565948486328125,-0.941253662109375,Closing,0.0,0.0,3.0,0.0,0.0,0.0,0.0,0.0,
1.6950139999999956,0.0,0.0,108244.0,0.0,0.0,0.0,0.0,0.25,0.8410643670000001,0.01,-0.0012207030000001007,-152314.0,0.0,0.0,-0.0,0.0,0.125,0.532226508,0.01,-0.0012207029999995456,15230.0,0.0,0.0,0.0,0.0,0.0,3.352050438,0.01,0.0,-52348.0,0.125,0.0,-0.0,0.0,0.25,1.6857908430000001,0.01,0.0024414059999999793,0.1899999976158142,-0.4300000071525574,-99.86000061035156,-0.0103759765625,0.0028076171875,1.0223388671875,36.279998779296875,0.0,1.0,0.565948486328125,-0.941253662109375,Closing,0.0,0.0,3.0,0.0,0.0,0.0,0.0,0.0,
1.739103999999992,0.0,0.0,108244.0,0.0,0.0,0.0,0.0,0.125,0.8410643670000001,0.01,0.0012207030000001007,-152314.0,0.0,0.0,-0.0,0.0,0.125,0.532226508,0.01,-0.0012207029999995456,15230.0,0.125,0.0,0.0,0.0,0.0,3.352050438,0.01,0.0,-52348.0,0.125,0.0,-0.0,0.0,0.25,1.6809080310000002,0.01,0.0024414059999999793,0.1899999976158142,-0.4300000071525574,-99.86000061035156,-0.0079345703125,0.0032958984375,1.0218505859375,36.279998779296875,0.0,0.0,0.565948486328125,-0.941253662109375,Closing,0.0,0.0,3.0,0.0,0.0,0.0,0.0,0.0,
1.782875,0.0,0.0,108244.0,0.0,0.0,0.0,0.0,0.125,0.839843664,0.01,-0.0012207030000001007,-152314.0,0.0,0.0,-0.0,0.0,0.125,0.532226508,0.01,0.0,15230.0,0.0,0.0,0.0,0.0,0.0,3.353271141,0.01,0.0,-52348.0,0.125,0.0,-0.0,0.0,0.25,1.6857908430000001,0.01,-0.0012207029999999897,0.1899999976158142,-0.4300000071525574,-99.86000061035156,-0.00836181640625,0.0048828125,1.0145263671875,36.279998779296875,0.0,-1.0,0.565948486328125,-0.941253662109375,Closing,0.0,0.0,3.0,0.0,0.0,0.0,0.0,0.0,
1.8235019999999786,0.0,0.0,108244.0,0.0,0.0,0.0,0.0,0.25,0.8410643670000001,0.01,0.0012207030000001007,-152314.0,0.0,0.0,-0.0,0.0,0.125,0.532226508,0.01,0.0,15230.0,0.125,0.0,0.0,0.0,0.0,3.352050438,0.01,0.0,-52348.0,0.125,0.0,-0.0,0.0,0.25,1.6857908430000001,0.01,-0.0012207029999999897,0.1899999976158142,-0.4300000071525574,-99.86000061035156,-0.0069580078125,0.00213623046875,1.0267333984375,36.279998779296875,0.0,1.0,0.565948486328125,-0.941253662109375,Closing,0.0,0.0,3.0,0.0,0.0,0.0,0.0,0.0,
1.8672239999999873,0.0,0.0,108244.0,0.0,0.0,0.0,0.0,0.25,0.8410643670000001,0.01,-0.0012207030000001007,-152314.0,0.0,0.0,-0.0,0.0,0.125,0.532226508,0.01,0.0012207029999995456,15230.0,0.0,0.0,0.0,0.0,0.0,3.353271141,0.01,0.0,-52348.0,0.125,0.0,-0.0,0.0,0.25,1.6809080310000002,0.01,0.0,0.1899999976158142,-0.4300000071525574,-99.86000061035156,-0.0103759765625,0.00457763671875,1.023681640625,36.2599983215332,0.0,0.0,0.565948486328125,-0.941253662109375,Closing,0.0,0.0,3.0,0.0,0.0,0.0,0.0,0.0,
1.9089260000000068,0.0,0.0,108244.0,0.0,0.0,0.0,0.0,0.25,0.8410643670000001,0.01,0.0012207030000001007,-152314.0,0.125,0.0,-0.0,0.0,0.125,0.532226508,0.01,-0.0012207029999995456,15230.0,0.0,0.0,0.0,0.0,0.0,3.352050438,0.01,0.0,-52348.0,0.125,0.0,-0.0,0.0,0.25,1.6845701400000002,0.01,0.0012207029999999897,0.1899999976158142,-0.41999998688697815,-99.86000061035156,-0.00982666015625,0.00628662109375,1.0196533203125,36.2599983215332,0.0,-2.0,0.565948486328125,-0.941253662109375,Closing,0.0,0.0,3.0,0.0,0.0,0.0,0.0,0.0,
1.9515069999999832,0.0,0.0,108244.0,0.0,0.0,0.0,0.0,0.25,0.839843664,0.01,0.0012207030000001007,-152314.0,0.0,0.0,-0.0,0.0,0.125,0.532226508,0.01,0.0012207029999995456,15230.0,0.0,0.0,0.0,0.0,0.0,3.352050438,0.01,0.0,-52348.0,0.125,0.0,-0.0,0.0,0.25,1.6857908430000001,0.01,0.0012207029999999897,0.1899999976158142,-0.41999998688697815,-99.86000061035156,-0.00885009765625,0.005126953125,1.01434326171875,36.2599983215332,0.0,-1.0,0.565948486328125,-0.941253662109375,Closing,0.0,0.0,3.0,0.0,0.0,0.0,0.0,0.0,
1.9942090000000026,0.0,0.0,108244.0,0.0,0.0,0.0,0.0,0.25,0.8410643670000001,0.01,0.0,-152314.0,0.0,0.0,-0.0,0.0,0.125,0.532226508,0.01,0.0012207029999995456,15230.0,0.0,0.0,0.0,0.0,0.0,3.352050438,0.01,0.0,-52348.0,0.125,0.0,-0.0,0.0,0.25,1.6857908430000001,0.01,-0.0024414059999999793,0.20000000298023224,-0.4300000071525574,-99.86000061035156,-0.00677490234375,6.103515625E-4,1.02105712890625,36.2599983215332,0.0,2.0,0.565948486328125,-0.941253662109375,Closing,0.0,0.0,3.0,0.0,0.0,0.0,0.0,0.0,
2.0371490000000048,0.0,0.0,108244.0,0.0,0.0,0.0,0.0,0.25,0.8410643670000001,0.01,0.0,-152314.0,0.0,0.0,-0.0,0.0,0.125,0.532226508,0.01,0.0,15230.0,0.0,0.0,0.0,0.0,0.0,3.353271141,0.01,0.0,-52348.0,0.125,0.0,-0.0,0.0,0.25,1.6857908430000001,0.01,-0.0024414059999999793,0.1899999976158142,-0.41999998688697815,-99.86000061035156,-0.00665283203125,0.004638671875,1.02374267578125,36.2599983215332,0.0,-1.0,0.565948486328125,-0.941253662109375,Closing,0.0,0.0,3.0,0.0,0.0,0.0,0.0,0.0,
2.0796199999999954,0.0,0.0,108244.0,0.0,0.0,0.0,0.0,0.125,0.8410643670000001,0.01,0.0,-152314.0,0.125,0.0,-0.0,0.0,0.125,0.532226508,0.01,-0.0012207029999995456,15230.0,0.0,0.0,0.0,0.0,0.0,3.352050438,0.01,0.0,-52348.0,0.125,0.0,-0.0,0.0,0.25,1.6857908430000001,0.01,0.003662108999999969,0.20000000298023224,-0.4300000071525574,-99.86000061035156,-0.01068115234375,0.00164794921875,1.0172119140625,36.2599983215332,0.0,2.0,0.565948486328125,-0.941253662109375,Closing,0.0,0.0,3.0,0.0,0.0,0.0,0.0,0.0,
2.120612999999983,0.0,0.0,108244.0,0.0,0.0,0.0,0.0,0.125,0.8410643670000001,0.01,-0.0012207030000001007,-152314.0,0.0,0.0,-0.0,0.0,0.125,0.532226508,0.01,0.0012207029999995456,15230.0,0.0,0.0,0.0,0.0,0.0,3.352050438,0.01,0.0,-52348.0,0.125,0.0,-0.0,0.0,0.25,1.6809080310000002,0.01,0.0,0.1899999976158142,-0.4300000071525574,-99.86000061035156,-0.00714111328125,0.0042724609375,1.013916015625,36.2599983215332,0.0,0.0,0.565948486328125,-0.941253662109375,Closing,0.0,0.0,3.0,0.0,0.0,0.0,0.0,0.0,
2.167225999999995,0.0,0.0,108244.0,0.0,0.0,0.0,0.0,0.25,0.8410643670000001,0.01,0.0012207030000001007,-152314.0,0.0,0.0,-0.0,0.0,0.125,0.532226508,0.01,0.0,15230.0,0.0,0.0,0.0,0.0,0.0,3.353271141,0.01,0.0,-52348.0,0.125,0.0,-0.0,0.0,0.25,1.6809080310000002,0.01,-0.0012207029999999897,0.1899999976158142,-0.4300000071525574,-99.86000061035156,-0.0074462890625,0.005859375,1.01947021484375,36.2599983215332,0.0,-2.0,0.565948486328125,-0.941253662109375,Closing,0.0,0.0,3.0,0.0,0.0,0.0,0.0,0.0,
2.2095849999999917,0.0,0.0,108244.0,0.0,0.0,0.0,0.0,0.25,0.8410643670000001,0.01,-0.0012207030000001007,-152314.0,0.0,0.0,-0.0,0.0,0.125,0.532226508,0.01,0.0,15230.0,0.0,0.0,0.0,0.0,0.0,3.352050438,0.01,0.0,-52348.0,0.125,0.0,-0.0,0.0,0.25,1.6857908430000001,0.01,-0.0012207029999999897,0.1899999976158142,-0.4300000071525574,-99.86000061035156,-0.00775146484375,8.544921875E-4,1.0172119140625,36.2599983215332,0.0,2.0,0.565948486328125,-0.941253662109375,Closing,0.0,0.0,3.0,0.0,0.0,0.0,0.0,0.0,
2.2505719999999854,0.0,0.0,108244.0,0.0,0.0,0.0,0.0,0.25,0.838622961,0.01,-0.0012207030000001007,-152314.0,0.0,0.0,-0.0,0.0,0.125,0.531005805,0.01,0.0,15230.0,0.0,0.0,0.0,0.0,0.0,3.352050438,0.01,0.0,-52348.0,0.125,0.0,-0.0,0.0,0.25,1.6857908430000001,0.01,0.0,0.1899999976158142,-0.4300000071525574,-99.86000061035156,-0.006591796875,0.00531005859375,1.02215576171875,36.2599983215332,0.0,-2.0,0.565948486328125,-0.941253662109375,Closing,0.0,0.0,3.0,0.0,0.0,0.0,0.0,0.0,
2.2941849999999975,0.0,0.0,108244.0,0.0,0.0,0.0,0.0,0.25,0.8410643670000001,0.01,0.0,-152314.0,0.0,0.0,-0.0,0.0,0.125,0.532226508,0.01,0.0,15230.0,0.0,0.0,0.0,0.0,0.0,3.353271141,0.01,0.0,-52348.0,0.125,0.0,-0.0,0.0,0.25,1.6809080310000002,0.01,0.0,0.1899999976158142,-0.4300000071525574,-99.86000061035156,-0.0064697265625,0.00531005859375,1.01739501953125,36.2599983215332,0.0,-2.0,0.565948486328125,-0.941253662109375,Closing,0.0,0.0,3.0,0.0,0.0,0.0,0.0,0.0,
2.3372060000000054,0.0,0.0,108244.0,0.0,0.0,0.0,0.0,0.25,0.8410643670000001,0.01,0.0012207030000001007,-152314.0,0.0,0.0,-0.0,0.0,0.125,0.532226508,0.01,0.0,15230.0,0.0,0.0,0.0,0.0,0.0,3.353271141,0.01,0.0,-52348.0,0.125,0.0,-0.0,0.0,0.25,1.6857908430000001,0.01,0.0,0.1899999976158142,-0.41999998688697815,-99.86000061035156,-0.0069580078125,0.00567626953125,1.01873779296875,36.2599983215332,0.0,-2.0,0.565948486328125,-0.941253662109375,Closing,0.0,0.0,3.0,0.0,0.0,0.0,0.0,0.0,
2.3760029999999968,0.0,0.0,108244.0,0.0,0.0,0.0,0.0,0.25,0.8410643670000001,0.01,-0.0012207030000001007,-152314.0,0.0,0.0,-0.0,0.0,0.125,0.532226508,0.01,0.0,15230.0,0.125,0.0,0.0,0.0,0.0,3.352050438,0.01,0.0,-52348.0,0.125,0.0,-0.0,0.0,0.25,1.6857908430000001,0.01,0.0,0.1899999976158142,-0.4300000071525574,-99.86000061035156,-0.00518798828125,0.00543212890625,1.0218505859375,36.29999923706055,0.0,-2.0,0.565948486328125,-0.941253662109375,Closing,0.0,0.0,3.0,0.0,0.0,0.0,0.0,0.0,
2.418649999999994,0.0,0.0,108244.0,0.0,0.0,0.0,0.0,0.25,0.8410643670000001,0.01,0.0,-152314.0,0.0,0.0,-0.0,0.0,0.125,0.532226508,0.01,0.0,15230.0,0.0,0.0,0.0,0.0,0.0,3.353271141,0.01,0.0,-52348.0,0.125,0.0,-0.0,0.0,0.25,1.6809080310000002,0.01,0.0,0.1899999976158142,-0.4300000071525574,-99.86000061035156,-0.00567626953125,0.002197265625,1.02447509765625,36.29999923706055,0.0,0.0,0.565948486328125,-0.941253662109375,Closing,0.0,0.0,3.0,0.0,0.0,0.0,0.0,0.0,
2.459826000000001,0.0,0.0,108244.0,0.0,0.0,0.0,0.0,0.125,0.839843664,0.01,0.0,-152314.0,0.0,0.0,-0.0,0.0,0.125,0.532226508,0.01,-0.0012207029999995456,15230.0,0.0,0.0,0.0,0.0,0.0,3.352050438,0.01,0.0,-52348.0,0.125,0.0,-0.0,0.0,0.25,1.6857908430000001,0.01,0.0012207029999999897,0.1899999976158142,-0.4300000071525574,-99.86000061035156,-0.010498046875,0.00518798828125,1.02020263671875,36.29999923706055,0.0,-1.0,0.565948486328125,-0.941253662109375,Closing,0.0,0.0,3.0,0.0,0.0,0.0,0.0,0.0,
2.506182000000001,0.0,0.0,108244.0,0.0,0.0,0.0,0.0,0.125,0.8410643670000001,0.01,0.0012207030000001007,-152314.0,0.0,0.0,-0.0,0.0,0.125,0.532226508,0.01,0.0,15230.0,0.0,0.0,0.0,0.0,0.0,3.353271141,0.01,0.0,-52348.0,0.125,0.0,-0.0,0.0,0.25,1.6809080310000002,0.01,0.0,0.1899999976158142,-0.4300000071525574,-99.86000061035156,-0.0087890625,0.00244140625,1.017822265625,36.29999923706055,0.0,1.0,0.565948486328125,-0.941253662109375,Closing,0.0,0.0,3.0,0.0,0.0,0.0,0.0,0.0,
2.552274999999994,0.0,0.0,108244.0,0.0,0.0,0.0,0.0,0.25,0.8410643670000001,0.01,0.0012207030000001007,-152314.0,0.0,0.0,-0.0,0.0,0.125,0.532226508,0.01,0.0,15230.0,0.0,0.0,0.0,0.0,0.0,3.353271141,0.01,0.0,-52348.0,0.125,0.0,-0.0,0.0,0.25,1.6857908430000001,0.01,0.0,0.1899999976158142,-0.4300000071525574,-99.86000061035156,-0.0074462890625,0.004638671875,1.01800537109375,36.29999923706055,0.0,-1.0,0.565948486328125,-0.941253662109375,Closing,0.0,0.0,3.0,0.0,0.0,0.0,0.0,0.0,
2.5940650000000023,0.0,0.0,108244.0,0.0,0.0,0.0,0.0,0.25,0.8410643670000001,0.01,-0.0012207030000001007,-152314.0,0.0,0.0,-0.0,0.0,0.125,0.532226508,0.01,0.0,15230.0,0.0,0.0,0.0,0.0,0.0,3.352050438,0.01,0.0,-52348.0,0.125,0.0,-0.0,0.0,0.25,1.6809080310000002,0.01,0.0,0.18000000715255737,-0.4300000071525574,-99.86000061035156,-0.00775146484375,0.0020751953125,1.020263671875,36.29999923706055,0.0,1.0,0.565948486328125,-0.941253662109375,Closing,0.0,0.0,3.0,0.0,0.0,0.0,0.0,0.0,
2.636138000000006,0.0,0.0,108244.0,0.0,0.0,0.0,0.0,0.25,0.8410643670000001,0.01,0.0,-152314.0,0.0,0.0,-0.0,0.0,0.125,0.533447211,0.01,0.0012207029999995456,15230.0,0.0,0.0,0.0,0.0,0.0,3.353271141,0.01,0.0,-52348.0,0.125,0.0,-0.0,0.0,0.25,1.6857908430000001,0.01,0.0,0.18000000715255737,-0.4300000071525574,-99.86000061035156,-0.00592041015625,0.001220703125,1.02117919921875,36.29999923706055,0.0,1.0,0.565948486328125,-0.941253662109375,Closing,0.0,0.0,3.0,0.0,0.0,0.0,0.0,0.0,
2.6776030000000026,0.0,0.0,108244.0,0.0,0.0,0.0,0.0,0.25,0.8410643670000001,0.01,0.0,-152314.0,0.0,0.0,-0.0,0.0,0.125,0.532226508,0.01,0.0,15230.0,0.0,0.0,0.0,0.0,0.0,3.352050438,0.01,0.0,-52348.0,0.125,0.0,-0.0,0.0,0.25,1.6809080310000002,0.01,0.0,0.18000000715255737,-0.4300000071525574,-99.86000061035156,-0.00701904296875,0.0047607421875,1.015625,36.29999923706055,0.0,-1.0,0.565948486328125,-0.941253662109375,Closing,0.0,0.0,3.0,0.0,0.0,0.0,0.0,0.0,
2.7184899999999907,0.0,0.0,108244.0,0.0,0.0,0.0,0.0,0.25,0.8422850700000001,0.01,0.0,-152314.0,0.0,0.0,-0.0,0.0,0.125,0.532226508,0.01,-0.0012207029999995456,15230.0,0.0,0.0,0.0,0.0,0.0,3.352050438,0.01,0.0,-52348.0,0.125,0.0,-0.0,0.0,0.25,1.6809080310000002,0.01,0.0,0.18000000715255737,-0.4300000071525574,-99.86000061035156,-0.007568359375,0.001708984375,1.021484375,36.29999923706055,0.0,1.0,0.565948486328125,-0.941253662109375,Closing,0.0,0.0,3.0,0.0,0.0,0.0,0.0,0.0,
2.7643040000000036,0.0,0.0,108244.0,0.0,0.0,0.0,0.0,0.25,0.8410643670000001,0.01,0.0,-152314.0,0.0,0.0,-0.0,0.0,0.125,0.532226508,0.01,0.0012207029999995456,15230.0,0.0,0.0,0.0,0.0,0.0,3.352050438,0.01,0.0,-52348.0,0.125,0.0,-0.0,0.0,0.25,1.6857908430000001,0.01,-0.0012207029999999897,0.1899999976158142,-0.4300000071525574,-99.86000061035156,0.01043701171875,0.00909423828125,1.02276611328125,36.29999923706055,0.0,-8.0,0.565948486328125,-0.941253662109375,Closing,0.0,0.0,3.0,0.0,0.0,0.0,0.0,0.0,
2.8079379999999947,0.0,0.0,108244.0,0.0,0.0,0.0,0.0,0.25,0.8410643670000001,0.01,0.0,-152314.0,0.0,0.0,-0.0,0.0,0.125,0.532226508,0.01,0.0,15230.0,0.0,0.0,0.0,0.0,0.0,3.352050438,0.01,0.0,-52348.0,0.125,0.0,-0.0,0.0,0.25,1.6809080310000002,0.01,0.0012207029999999897,0.18000000715255737,-0.4300000071525574,-99.86000061035156,-0.0177001953125,0.01708984375,1.01971435546875,36.29999923706055,0.0,-11.0,0.565948486328125,-0.941253662109375,Closing,0.0,0.0,3.0,0.0,0.0,0.0,0.0,0.0,
2.851502999999997,0.0,0.0,108244.0,0.0,0.0,0.0,0.0,0.25,0.8410643670000001,0.01,0.0,-152314.0,0.0,0.0,-0.0,0.0,0.125,0.532226508,0.01,0.0,15230.0,0.0,0.0,0.0,0.0,0.0,3.352050438,0.01,0.0,-52348.0,0.125,0.0,-0.0,0.0,0.25,1.6857908430000001,0.01,-0.0012207029999999897,0.18000000715255737,-0.4300000071525574,-99.8499984741211,-0.00128173828125,-0.010498046875,0.97406005859375,36.29999923706055,0.0,12.0,0.565948486328125,-0.941253662109375,Closing,0.0,0.0,3.0,0.0,0.0,0.0,0.0,0.0,
2.8922639999999955,0.0,0.0,108244.0,0.0,0.0,0.0,0.0,0.125,0.8410643670000001,0.01,0.0012207030000001007,-152314.0,0.125,0.0,-0.0,0.0,0.125,0.532226508,0.01,0.0,15230.0,0.0,0.0,0.0,0.0,0.0,3.352050438,0.01,0.0,-52348.0,0.125,0.0,-0.0,0.0,0.25,1.6857908430000001,0.01,-0.0012207029999999897,0.18000000715255737,-0.4099999964237213,-99.8499984741211,-6.103515625E-5,0.00238037109375,1.0147705078125,36.310001373291016,0.0,0.0,0.565948486328125,-0.941253662109375,Closing,0.0,0.0,3.0,0.0,0.0,0.0,0.0,0.0,
2.9331059999999995,0.0,0.0,108244.0,0.0,0.0,0.0,0.0,0.125,0.8410643670000001,0.01,-0.0012207030000001007,-152314.0,0.0,0.0,-0.0,0.0,0.125,0.532226508,0.01,0.0,15230.0,0.0,0.0,0.0,0.0,0.0,3.350829735,0.01,0.0,-52348.0,0.125,0.0,-0.0,0.0,0.25,1.6857908430000001,0.01,0.0012207029999999897,0.18000000715255737,-0.4399999976158142,-99.8499984741211,-0.013916015625,0.065673828125,1.0150146484375,36.310001373291016,0.0,-60.0,0.5659637451171875,-0.9413604736328125,Closing,0.0,0.0,3.0,0.0,0.0,0.0,0.0,0.0,
2.972801999999996,0.0,0.0,108244.0,0.0,0.0,0.0,0.0,0.25,0.8410643670000001,0.01,0.0,-152314.0,0.0,0.0,-0.0,0.0,0.125,0.532226508,0.01,0.0,15230.0,0.0,0.0,0.0,0.0,0.0,3.352050438,0.01,0.0,-52348.0,0.125,0.0,-0.0,0.0,0.25,1.6857908430000001,0.01,-0.0012207029999999897,0.1899999976158142,-0.41999998688697815,-99.8499984741211,-0.02117919921875,-0.02838134765625,0.91619873046875,36.310001373291016,0.0,33.0,0.56573486328125,-0.941558837890625,Closing,0.0,0.0,3.0,0.0,0.0,0.0,0.0,0.0,
3.0144829999999785,0.0,0.0,108244.0,0.0,0.0,0.0,0.0,0.25,0.8410643670000001,0.01,0.0012207030000001007,-152314.0,0.0,0.0,-0.0,0.0,0.125,0.532226508,0.01,0.0,15230.0,0.0,0.0,0.0,0.0,0.0,3.353271141,0.01,0.0,-52348.0,0.125,0.0,-0.0,0.0,0.25,1.6809080310000002,0.01,0.0,0.1899999976158142,-0.41999998688697815,-99.8499984741211,-0.00677490234375,0.01263427734375,1.0657958984375,36.310001373291016,0.0,-9.0,0.565673828125,-0.94158935546875,Closing,0.0,0.0,3.0,0.0,0.0,0.0,0.0,0.0,
3.0639679999999934,0.0,0.0,108244.0,0.0,0.0,0.0,0.0,0.25,0.839843664,0.01,-0.0012207030000001007,-152314.0,0.0,0.0,-0.0,0.0,0.125,0.532226508,0.01,-0.0012207029999995456,15230.0,0.0,0.0,0.0,0.0,0.0,3.352050438,0.01,0.0,-52348.0,0.125,0.0,-0.0,0.0,0.25,1.6809080310000002,0.01,0.0,0.1899999976158142,-0.4300000071525574,-99.8499984741211,1.8310546875E-4,-0.01568603515625,1.0377197265625,36.310001373291016,0.0,17.0,0.5656890869140625,-0.941619873046875,Closing,0.0,0.0,3.0,0.0,0.0,0.0,0.0,0.0,
3.1093519999999844,0.0,0.0,108244.0,0.0,0.0,0.0,0.0,0.25,0.8410643670000001,0.01,0.0,-152314.0,0.0,0.0,-0.0,0.0,0.125,0.531005805,0.01,0.0012207029999995456,15230.0,0.0,0.0,0.0,0.0,0.0,3.352050438,0.01,0.0,-52348.0,0.125,0.0,-0.0,0.0,0.25,1.6857908430000001,0.01,-0.0024414059999999793,0.18000000715255737,-0.41999998688697815,-99.8499984741211,-0.06719970703125,-0.01214599609375,1.080322265625,36.310001373291016,0.0,25.0,0.565704345703125,-0.9415740966796875,Closing,0.0,0.0,3.0,0.0,0.0,0.0,0.0,0.0,
3.1511630000000004,0.0,0.0,108244.0,0.0,0.0,0.0,0.0,0.25,0.8410643670000001,0.01,0.0,-152314.0,0.0,0.0,-0.0,0.0,0.125,0.532226508,0.01,0.0,15230.0,0.0,0.0,0.0,0.0,0.0,3.352050438,0.01,0.0,-52348.0,0.125,0.0,-0.0,0.0,0.25,1.6821287340000002,0.01,0.003662108999999969,0.18000000715255737,-0.4399999976158142,-99.8499984741211,-0.02471923828125,0.02227783203125,1.0926513671875,36.310001373291016,0.0,-15.0,0.5659942626953125,-0.9416046142578125,Closing,0.0,0.0,3.0,0.0,0.0,0.0,0.0,0.0,
3.1956019999999845,0.0,0.0,108244.0,0.0,0.0,0.0,0.0,0.125,0.8410643670000001,0.01,0.0012207030000001007,-152314.0,0.0,0.0,-0.0,0.0,0.125,0.532226508,0.01,-0.0012207029999995456,15230.0,0.0,0.0,0.0,0.0,0.0,3.352050438,0.01,0.0,-52348.0,0.125,0.0,-0.0,0.0,0.25,1.6857908430000001,0.01,-0.0024414059999999793,0.1899999976158142,-0.4399999976158142,-99.83999633789062,0.01171875,-0.0076904296875,0.978759765625,36.310001373291016,0.0,7.0,0.566314697265625,-0.941558837890625,Closing,0.0,0.0,3.0,0.0,0.0,0.0,0.0,0.0,
3.247136999999988,0.0,0.0,108244.0,0.0,0.0,0.0,0.0,0.125,0.8410643670000001,0.01,-0.0012207030000001007,-152314.0,0.0,0.0,-0.0,0.0,0.125,0.532226508,0.01,-0.0012207029999995456,15230.0,0.0,0.0,0.0,0.0,0.0,3.353271141,0.01,0.0,-52348.0,0.125,0.0,-0.0,0.0,0.25,1.6857908430000001,0.01,0.003662108999999969,0.2199999988079071,-0.4099999964237213,-99.83999633789062,-0.02838134765625,-0.06689453125,1.05401611328125,36.310001373291016,0.0,73.0,0.56646728515625,-0.9412994384765625,Closing,0.0,0.0,3.0,0.0,0.0,0.0,0.0,0.0,
3.293668000000005,0.0,0.0,108244.0,0.0,0.0,0.0,0.0,0.25,0.8410643670000001,0.01,0.0,-152314.0,0.0,0.0,-0.0,0.0,0.125,0.532226508,0.01,0.0,15230.0,0.0,0.0,0.0,0.0,0.0,3.352050438,0.01,0.0,-52348.0,0.125,0.0,-0.0,0.0,0.25,1.679687328,0.01,-0.003662108999999969,0.23000000417232513,-0.3799999952316284,-99.8499984741211,-0.0189208984375,-0.02178955078125,1.151123046875,36.310001373291016,0.0,28.0,0.5673675537109375,-0.9413299560546875,Closing,0.0,0.0,3.0,0.0,0.0,0.0,0.0,0.0,
3.342005999999994,0.0,0.0,108244.0,0.0,0.0,0.0,0.0,0.25,0.8410643670000001,0.01,0.0,-152314.0,0.0,0.0,-0.0,0.0,0.125,0.532226508,0.01,0.0012207029999995456,15230.0,0.0,0.0,0.0,0.0,0.0,3.352050438,0.01,0.0,-52348.0,0.125,0.0,-0.0,0.0,0.25,1.6857908430000001,0.01,-0.003662108999999969,0.15000000596046448,-0.33000001311302185,-99.83999633789062,-0.12554931640625,-0.18804931640625,1.146728515625,36.310001373291016,0.0,208.0,0.56866455078125,-0.94171142578125,Closing,0.0,0.0,3.0,0.0,0.0,0.0,0.0,0.0,
3.38934699999998,0.0,0.0,108244.0,0.0,0.0,0.0,0.0,0.125,0.8410643670000001,0.01,0.0012207030000001007,-152314.0,0.0,0.0,-0.0,0.0,0.125,0.532226508,0.01,-0.0012207029999995456,15230.0,0.0,0.0,0.0,0.0,0.0,3.352050438,0.01,0.0,-52348.0,0.125,0.0,-0.0,0.0,0.25,1.6833494370000002,0.01,-0.0024414060000002014,0.14000000059604645,-0.38999998569488525,-99.8499984741211,0.01751708984375,-0.013671875,1.118896484375,36.25,0.0,11.0,0.57318115234375,-0.942596435546875,Closing,0.0,0.0,3.0,0.0,0.0,0.0,0.0,0.0,
3.43330799999999,0.0,0.0,108244.0,0.0,0.0,0.0,0.0,0.125,0.8422850700000001,0.01,-0.0012207030000001007,-152314.0,0.0,0.0,-0.0,0.0,0.125,0.532226508,0.01,0.0012207029999995456,15230.0,0.0,0.0,0.0,0.0,0.0,3.352050438,0.01,0.0,-52348.0,0.125,0.0,-0.0,0.0,0.25,1.6809080310000002,0.01,0.0024414060000002014,0.10999999940395355,-0.3499999940395355,-99.83999633789062,0.0487060546875,-0.07720947265625,0.84613037109375,36.25,0.0,68.0,0.5756378173828125,-0.943145751953125,Closing,0.0,0.0,3.0,0.0,0.0,0.0,0.0,0.0,
3.4734799999999812,0.0,0.0,108244.0,0.0,0.0,0.0,0.0,0.25,0.8410643670000001,0.01,0.0012207030000001007,-152314.0,0.0,0.0,-0.0,0.0,0.125,0.532226508,0.01,-0.0012207029999995456,15230.0,0.125,0.0,0.0,0.0,0.0,3.352050438,0.01,0.0,-52348.0,0.125,0.0,-0.0,0.0,0.25,1.6809080310000002,0.01,0.0,0.14000000059604645,-0.36000001430511475,-99.83000183105469,-0.01953125,0.0574951171875,1.10577392578125,36.25,0.0,-51.0,0.576904296875,-0.94378662109375,Closing,0.0,0.0,3.0,0.0,0.0,0.0,0.0,0.0,
3.517820000000007,0.0,0.0,108244.0,0.0,0.0,0.0,0.0,0.125,0.8410643670000001,0.01,-0.0012207030000001007,-152314.0,0.0,0.0,-0.0,0.0,0.125,0.532226508,0.01,0.0012207029999995456,15230.0,0.0,0.0,0.0,0.0,0.0,3.352050438,0.01,0.0,-52348.0,0.125,0.0,-0.0,0.0,0.25,1.6809080310000002,0.01,0.0012207029999999897,0.15000000596046448,-0.38999998569488525,-99.83999633789062,-0.04364013671875,0.021240234375,1.0648193359375,36.25,0.0,-11.0,0.57666015625,-0.9444732666015625,Closing,0.0,0.0,3.0,0.0,0.0,0.0,0.0,0.0,
3.5677209999999904,0.0,0.0,108244.0,0.0,0.0,0.0,0.0,0.125,0.8410643670000001,0.01,0.0,-152314.0,0.0,0.0,-0.0,0.0,0.125,0.532226508,0.01,0.0,15230.0,0.125,0.0,0.0,0.0,0.0,3.352050438,0.01,0.0,-52348.0,0.125,0.0,-0.0,0.0,0.25,1.6857908430000001,0.01,0.0,0.1599999964237213,-0.3799999952316284,-99.8499984741211,-0.0352783203125,0.0186767578125,1.147705078125,36.25,0.0,-10.0,0.5763397216796875,-0.945281982421875,Closing,0.0,0.0,3.0,0.0,0.0,0.0,0.0,0.0,
3.6123969999999974,0.0,0.0,108244.0,0.0,0.0,0.0,0.0,0.25,0.8410643670000001,0.01,0.0,-152314.0,0.0,0.0,-0.0,0.0,0.125,0.532226508,0.01,0.0,15230.0,0.0,0.0,0.0,0.0,0.0,3.353271141,0.01,0.0,-52348.0,0.125,0.0,-0.0,0.0,0.25,1.6809080310000002,0.01,0.0,0.14000000059604645,-0.36000001430511475,-99.83000183105469,-0.010986328125,0.00372314453125,0.9881591796875,36.25,0.0,0.0,0.576263427734375,-0.9458770751953125,Closing,0.0,0.0,3.0,0.0,0.0,0.0,0.0,0.0,
3.654877999999997,0.0,0.0,108244.0,0.0,0.0,0.0,0.0,0.25,0.8422850700000001,0.01,0.0012207030000001007,-152314.0,0.0,0.0,-0.0,0.0,0.125,0.532226508,0.01,-0.0012207029999995456,15230.0,0.0,0.0,0.0,0.0,0.0,3.353271141,0.01,0.0,-52348.0,0.125,0.0,-0.0,0.0,0.25,1.6809080310000002,0.01,-0.0012207029999999897,0.1599999964237213,-0.3499999940395355,-99.83999633789062,0.01165771484375,0.001708984375,0.94622802734375,36.25,0.0,-2.0,0.576202392578125,-0.9458770751953125,Closing,0.0,0.0,3.0,0.0,0.0,0.0,0.0,0.0,
3.704858999999997,0.0,0.0,108244.0,0.0,0.0,0.0,0.0,0.25,0.8410643670000001,0.01,-0.0012207030000001007,-152314.0,0.0,0.0,-0.0,0.0,0.125,0.532226508,0.01,0.0012207029999995456,15230.0,0.0,0.0,0.0,0.0,0.0,3.353271141,0.01,0.0,-52348.0,0.125,0.0,-0.0,0.0,0.25,1.6857908430000001,0.01,0.0,0.1599999964237213,-0.36000001430511475,-99.83999633789062,-0.0072021484375,-0.0159912109375,0.99749755859375,36.25,0.0,18.0,0.5761566162109375,-0.9458770751953125,Closing,0.0,0.0,3.0,0.0,0.0,0.0,0.0,0.0,
3.7542179999999936,0.0,0.0,108244.0,0.0,0.0,0.0,0.0,0.25,0.8422850700000001,0.01,0.0012207030000001007,-152314.0,0.0,0.0,-0.0,0.0,0.125,0.532226508,0.01,-0.0012207029999995456,15230.0,0.0,0.0,0.0,0.0,0.0,3.352050438,0.01,0.0,-52348.0,0.125,0.0,-0.0,0.0,0.25,1.6857908430000001,0.01,0.0012207029999999897,0.15000000596046448,-0.3799999952316284,-99.83999633789062,-0.0057373046875,0.0115966796875,0.994140625,36.25,0.0,-8.0,0.5761566162109375,-0.9459381103515625,Closing,0.0,0.0,3.0,0.0,0.0,0.0,0.0,0.0,
3.8007299999999815,0.0,0.0,108244.0,0.0,0.0,0.0,0.0,0.25,0.8410643670000001,0.01,0.0012207030000001007,-152314.0,0.0,0.0,-0.0,0.0,0.125,0.532226508,0.01,0.0012207029999995456,15230.0,0.0,0.0,0.0,0.0,0.0,3.352050438,0.01,0.0,-52348.0,0.125,0.0,-0.0,0.0,0.25,1.6821287340000002,0.01,0.0,0.17000000178813934,-0.38999998569488525,-99.83999633789062,0.01385498046875,0.001708984375,1.0072021484375,36.25,0.0,-2.0,0.5761566162109375,-0.9459686279296875,Closing,0.0,0.0,3.0,0.0,0.0,0.0,0.0,0.0,
3.849286999999982,0.0,0.0,108244.0,0.0,0.0,0.0,0.0,0.25,0.8410643670000001,0.01,-0.0012207030000001007,-152314.0,0.0,0.0,-0.0,0.0,0.125,0.532226508,0.01,0.0012207029999995456,15230.0,0.0,0.0,0.0,0.0,0.0,3.352050438,0.01,0.0,-52348.0,0.125,0.0,-0.0,0.0,0.25,1.6809080310000002,0.01,0.0,0.15000000596046448,-0.3799999952316284,-99.83999633789062,-0.016357421875,0.00140380859375,1.06768798828125,36.25,0.0,2.0,0.5761566162109375,-0.945892333984375,Closing,0.0,0.0,3.0,0.0,0.0,0.0,0.0,0.0,
3.8935559999999825,0.0,0.0,108244.0,0.0,0.0,0.0,0.0,0.25,0.8410643670000001,0.01,0.0,-152314.0,0.0,0.0,-0.0,0.0,0.125,0.532226508,0.01,0.0,15230.0,0.0,0.0,0.0,0.0,0.0,3.353271141,0.01,0.0,-52348.0,0.125,0.0,-0.0,0.0,0.25,1.6857908430000001,0.01,0.0,0.15000000596046448,-0.38999998569488525,-99.83999633789062,-0.0213623046875,0.01788330078125,1.04534912109375,36.290000915527344,0.0,-12.0,0.5761566162109375,-0.945892333984375,Closing,0.0,0.0,3.0,0.0,0.0,0.0,0.0,0.0,
3.9431479999999866,0.0,0.0,108244.0,0.0,0.0,0.0,0.0,0.25,0.8410643670000001,0.01,0.0,-152314.0,0.0,0.0,-0.0,0.0,0.125,0.532226508,0.01,0.0,15230.0,0.0,0.0,0.0,0.0,0.0,3.353271141,0.01,0.0,-52348.0,0.125,0.0,-0.0,0.0,0.25,1.6809080310000002,0.01,-0.0024414059999999793,0.1599999964237213,-0.4000000059604645,-99.83999633789062,-0.00628662109375,0.00323486328125,1.007080078125,36.290000915527344,0.0,0.0,0.5761566162109375,-0.945892333984375,Closing,0.0,0.0,3.0,0.0,0.0,0.0,0.0,0.0,
3.9861669999999867,0.0,0.0,108244.0,0.0,0.0,0.0,0.0,0.25,0.8410643670000001,0.01,0.0,-152314.0,0.0,0.0,-0.0,0.0,0.125,0.532226508,0.01,-0.0012207029999995456,15230.0,0.0,0.0,0.0,0.0,0.0,3.353271141,0.01,0.0,-52348.0,0.125,0.0,-0.0,0.0,0.25,1.6857908430000001,0.01,0.0024414059999999793,0.15000000596046448,-0.3799999952316284,-99.83999633789062,-9.1552734375E-4,-3.0517578125E-4,1.0113525390625,36.290000915527344,0.0,1.0,0.5761566162109375,-0.945892333984375,Closing,0.0,0.0,3.0,0.0,0.0,0.0,0.0,0.125,
4.028296000000002,0.0,0.0,108244.0,0.0,0.0,0.0,0.0,0.25,0.8410643670000001,0.01,0.0012207030000001007,-152314.0,0.0,0.0,-0.0,0.0,0.125,0.532226508,0.01,0.0,15230.0,0.0,0.0,0.0,0.0,0.0,3.352050438,0.01,0.0,-52348.0,0.125,0.0,-0.0,0.0,0.25,1.6833494370000002,0.01,0.0012207029999999897,0.15000000596046448,-0.3799999952316284,-99.83999633789062,-0.01300048828125,0.005126953125,1.00128173828125,36.290000915527344,0.0,-1.0,0.5761566162109375,-0.945892333984375,Closing,0.0,0.0,3.0,0.0,0.0,0.0,0.0,0.0,
4.074269,0.0,0.0,108244.0,0.0,0.0,0.0,0.0,0.25,0.8410643670000001,0.01,0.0,-152314.0,0.0,0.0,-0.0,0.0,0.125,0.532226508,0.01,0.0012207029999995456,15230.0,0.0,0.0,0.0,0.0,0.0,3.352050438,0.01,0.0,-52348.0,0.125,0.0,-0.0,0.0,0.25,1.6857908430000001,0.01,-0.0024414059999999793,0.1599999964237213,-0.4000000059604645,-99.83999633789062,-0.01300048828125,-0.0118408203125,1.01483154296875,36.290000915527344,0.0,15.0,0.5761566162109375,-0.945892333984375,Closing,0.0,0.0,3.0,0.0,0.0,0.0,0.0,0.0,
4.122741999999999,0.0,0.0,108244.0,0.0,0.0,0.0,0.0,0.25,0.8410643670000001,0.01,-0.0012207030000001007,-152314.0,0.0,0.0,-0.0,0.0,0.125,0.532226508,0.01,0.0,15230.0,0.0,0.0,0.0,0.0,0.0,3.353271141,0.01,0.0,-52348.0,0.125,0.0,-0.0,0.0,0.25,1.6857908430000001,0.01,0.0,0.14000000059604645,-0.4000000059604645,-99.83999633789062,-0.00244140625,0.00189208984375,1.02569580078125,36.290000915527344,0.0,0.0,0.5761566162109375,-0.945892333984375,Closing,0.0,0.0,3.0,0.0,0.0,0.0,0.0,0.0,
4.16826999999999,0.0,0.0,108244.0,0.0,0.0,0.0,0.0,0.25,0.8410643670000001,0.01,0.0012207030000001007,-152314.0,0.0,0.0,-0.0,0.0,0.125,0.532226508,0.01,0.0,15230.0,0.0,0.0,0.0,0.0,0.0,3.352050438,0.01,0.0,-52348.0,0.125,0.0,-0.0,0.0,0.25,1.6870115460000001,0.01,0.0012207029999999897,0.15000000596046448,-0.4000000059604645,-99.83999633789062,-0.009765625,0.0111083984375,1.02001953125,36.290000915527344,0.0,-7.0,0.5761566162109375,-0.945892333984375,Closing,0.0,0.0,3.0,0.0,0.0,0.0,0.0,0.0,
4.212198000000004,0.0,0.0,108244.0,0.0,0.0,0.0,0.0,0.25,0.8435057730000001,0.01,0.0,-152314.0,0.0,0.0,-0.0,0.0,0.125,0.532226508,0.01,0.0,15230.0,0.0,0.0,0.0,0.0,0.0,3.352050438,0.01,0.0,-52348.0,0.125,0.0,-0.0,0.0,0.25,1.6857908430000001,0.01,0.0,0.1599999964237213,-0.4099999964237213,-99.83999633789062,-0.009765625,-6.103515625E-4,1.01654052734375,36.290000915527344,0.0,3.0,0.5761566162109375,-0.945892333984375,Closing,0.0,0.0,3.0,0.0,0.0,0.0,0.0,0.0,
4.253576000000001,0.0,0.0,108244.0,0.0,0.0,0.0,0.0,0.25,0.8410643670000001,0.01,0.0,-152314.0,0.0,0.0,-0.0,0.0,0.125,0.534667914,0.01,0.0,15230.0,0.0,0.0,0.0,0.0,0.0,3.352050438,0.01,0.0,-52348.0,0.125,0.0,-0.0,0.0,0.25,1.6857908430000001,0.01,0.0012207029999999897,0.15000000596046448,-0.4099999964237213,-99.83999633789062,-0.0076904296875,0.00164794921875,1.01287841796875,36.290000915527344,0.0,1.0,0.5761566162109375,-0.945892333984375,Closing,0.0,0.0,3.0,0.0,0.0,0.0,0.0,0.0,
4.305710999999981,0.0,0.0,108244.0,0.0,0.0,0.0,0.0,0.25,0.8410643670000001,0.01,0.0,-152314.0,0.0,0.0,-0.0,0.0,0.125,0.534667914,0.01,0.0,15230.0,0.0,0.0,0.0,0.0,0.0,3.352050438,0.01,0.0,-52348.0,0.125,0.0,-0.0,0.0,0.25,1.6857908430000001,0.01,0.0012207029999999897,0.15000000596046448,-0.4099999964237213,-99.83999633789062,-0.0062255859375,0.0032958984375,1.02069091796875,36.290000915527344,0.0,0.0,0.5761566162109375,-0.945892333984375,Closing,0.0,0.0,3.0,0.0,0.0,0.0,0.0,0.0,
4.350152000000002,0.0,0.0,108244.0,0.0,0.0,0.0,0.0,0.25,0.8410643670000001,0.01,0.0,-152314.0,0.0,0.0,-0.0,0.0,0.125,0.532226508,0.01,0.0,15230.0,0.0,0.0,0.0,0.0,0.0,3.348388329,0.01,0.0,-52348.0,0.125,0.0,-0.0,0.0,0.25,1.6857908430000001,0.01,-0.0024414059999999793,0.15000000596046448,-0.4099999964237213,-99.83999633789062,-0.00665283203125,6.103515625E-5,1.0152587890625,36.290000915527344,0.0,2.0,0.5761566162109375,-0.945892333984375,Closing,0.0,0.0,3.0,0.0,0.0,0.0,0.0,0.0,
4.3935559999999825,0.0,0.0,108244.0,0.0,0.0,0.0,0.0,0.25,0.8422850700000001,0.01,0.0,-152314.0,0.0,0.0,-0.0,0.0,0.125,0.532226508,0.01,0.0,15230.0,0.0,0.0,0.0,0.0,0.0,3.352050438,0.01,0.0,-52348.0,0.125,0.0,-0.0,0.0,0.25,1.6809080310000002,0.01,-0.0024414059999999793,0.15000000596046448,-0.4099999964237213,-99.83999633789062,-0.0126953125,0.0069580078125,1.02587890625,36.290000915527344,0.0,-3.0,0.5761566162109375,-0.945892333984375,Closing,0.0,0.0,3.0,0.0,0.0,0.0,0.0,0.0,
4.436410000000003,0.0,0.0,108244.0,0.0,0.0,0.0,0.0,0.125,0.8410643670000001,0.01,-0.0012207030000001007,-152314.0,0.0,0.0,-0.0,0.0,0.125,0.532226508,0.01,0.0,15230.0,0.125,0.0,0.0,0.0,0.0,3.353271141,0.01,0.0,-52348.0,0.125,0.0,-0.0,0.0,0.25,1.6857908430000001,0.01,-0.0012207029999999897,0.15000000596046448,-0.4099999964237213,-99.83999633789062,-0.0078125,0.00347900390625,1.019775390625,36.31999969482422,0.0,0.0,0.5761566162109375,-0.945892333984375,Closing,0.0,0.0,3.0,0.0,0.0,0.0,0.0,0.0,
4.477962,0.0,0.0,108244.0,0.0,0.0,0.0,0.0,0.125,0.839843664,0.01,0.0,-152314.0,0.0,0.0,-0.0,0.0,0.125,0.532226508,0.01,0.0,15230.0,0.0,0.0,0.0,0.0,0.0,3.353271141,0.01,0.0,-52348.0,0.125,0.0,-0.0,0.0,0.25,1.6870115460000001,0.01,0.0024414059999999793,0.15000000596046448,-0.4099999964237213,-99.83999633789062,-0.00677490234375,0.00311279296875,1.019775390625,36.31999969482422,0.0,0.0,0.5761566162109375,-0.945892333984375,Closing,0.0,0.0,3.0,0.0,0.0,0.0,0.0,0.0,
4.526324999999982,0.0,0.0,108244.0,0.0,0.0,0.0,0.0,0.25,0.8410643670000001,0.01,0.0012207030000001007,-152314.0,0.0,0.0,-0.0,0.0,0.125,0.532226508,0.01,0.0,15230.0,0.0,0.0,0.0,0.0,0.0,3.352050438,0.01,0.0,-52348.0,0.125,0.0,-0.0,0.0,0.25,1.6845701400000002,0.01,-0.0012207029999999897,0.15000000596046448,-0.41999998688697815,-99.83999633789062,-0.00933837890625,0.0059814453125,1.01702880859375,36.31999969482422,0.0,-2.0,0.5761566162109375,-0.945892333984375,Closing,0.0,0.0,3.0,0.0,0.0,0.0,0.0,0.0,
4.568718999999983,0.0,0.0,108244.0,0.0,0.0,0.0,0.0,0.25,0.8410643670000001,0.01,-0.0012207030000001007,-152314.0,0.0,0.0,-0.0,0.0,0.125,0.533447211,0.01,-0.0012207029999995456,15230.0,0.0,0.0,0.0,0.0,0.0,3.353271141,0.01,0.0,-52348.0,0.125,0.0,-0.0,0.0,0.25,1.6809080310000002,0.01,0.0024414059999999793,0.15000000596046448,-0.41999998688697815,-99.83999633789062,-0.0047607421875,0.002685546875,1.01910400390625,36.31999969482422,0.0,0.0,0.5761566162109375,-0.945892333984375,Closing,0.0,0.0,3.0,0.0,0.0,0.0,0.0,0.0,
4.613006999999984,0.0,0.0,108244.0,0.0,0.0,0.0,0.0,0.25,0.8410643670000001,0.01,0.0012207030000001007,-152314.0,0.0,0.0,-0.0,0.0,0.125,0.532226508,0.01,0.0012207029999995456,15230.0,0.0,0.0,0.0,0.0,0.0,3.352050438,0.01,0.0,-52348.0,0.125,0.0,-0.0,0.0,0.25,1.6857908430000001,0.01,-0.003662108999999969,0.15000000596046448,-0.41999998688697815,-99.83999633789062,-0.00982666015625,0.00390625,1.01995849609375,36.31999969482422,0.0,0.0,0.5761566162109375,-0.945892333984375,Closing,0.0,0.0,3.0,0.0,0.0,0.0,0.0,0.0,
4.656850000000006,0.0,0.0,108244.0,0.0,0.0,0.0,0.0,0.25,0.8410643670000001,0.01,0.0,-152314.0,0.0,0.0,-0.0,0.0,0.125,0.532226508,0.01,0.0,15230.0,0.125,0.0,0.0,0.0,0.0,3.352050438,0.01,0.0,-52348.0,0.125,0.0,-0.0,0.0,0.25,1.6857908430000001,0.01,0.0012207029999999897,0.15000000596046448,-0.41999998688697815,-99.83999633789062,-0.00555419921875,0.00213623046875,1.02099609375,36.31999969482422,0.0,0.0,0.5761566162109375,-0.945892333984375,Closing,0.0,0.0,3.0,0.0,0.0,0.0,0.0,0.125,
4.704927999999986,0.0,0.0,108244.0,0.0,0.0,0.0,0.0,0.25,0.8410643670000001,0.01,0.0,-152314.0,0.0,0.0,-0.0,0.0,0.125,0.532226508,0.01,0.0,15230.0,0.0,0.0,0.0,0.0,0.0,3.352050438,0.01,0.0,-52348.0,0.125,0.0,-0.0,0.0,0.25,1.6857908430000001,0.01,0.0024414059999999793,0.15000000596046448,-0.41999998688697815,-99.83999633789062,-0.007080078125,0.001220703125,1.0245361328125,36.31999969482422,0.0,1.0,0.5761566162109375,-0.945892333984375,Closing,0.0,0.0,3.0,0.0,0.0,0.0,0.0,0.125,
4.74861599999998,0.0,0.0,108244.0,0.0,0.0,0.0,0.0,0.25,0.8410643670000001,0.01,0.0,-152314.0,0.0,0.0,-0.0,0.0,0.125,0.532226508,0.01,0.0,15230.0,0.0,0.0,0.0,0.0,0.0,3.352050438,0.01,0.0,-52348.0,0.125,0.0,-0.0,0.0,0.25,1.6857908430000001,0.01,0.0024414059999999793,0.15000000596046448,-0.4300000071525574,-99.83999633789062,-0.0064697265625,0.00262451171875,1.021728515625,36.31999969482422,0.0,0.0,0.5761566162109375,-0.945892333984375,Closing,0.0,0.0,3.0,0.0,0.0,0.0,0.0,0.125,
4.789543999999994,0.0,0.0,108244.0,0.0,0.0,0.0,0.0,0.25,0.8410643670000001,0.01,0.0,-152314.0,0.0,0.0,-0.0,0.0,0.125,0.532226508,0.01,0.0,15230.0,0.0,0.0,0.0,0.0,0.0,3.352050438,0.01,0.0,-52348.0,0.125,0.0,-0.0,0.0,0.25,1.6857908430000001,0.01,-0.0012207029999999897,0.15000000596046448,-0.4300000071525574,-99.83999633789062,-0.00665283203125,0.0093994140625,1.01019287109375,36.31999969482422,0.0,-6.0,0.5761566162109375,-0.945892333984375,Closing,0.0,0.0,3.0,0.0,0.0,0.0,0.0,0.125,
4.8268279999999795,0.0,0.0,108244.0,0.0,0.0,0.0,0.0,0.25,0.839843664,0.01,0.0,-152314.0,0.0,0.0,-0.0,0.0,0.125,0.532226508,0.01,0.0,15230.0,0.0,0.0,0.0,0.0,0.0,3.352050438,0.01,0.0,-52348.0,0.125,0.0,-0.0,0.0,0.25,1.6821287340000002,0.01,-0.0024414059999999793,0.15000000596046448,-0.4300000071525574,-99.83999633789062,-0.00811767578125,0.00225830078125,1.01824951171875,36.31999969482422,0.0,0.0,0.5761566162109375,-0.945892333984375,Closing,0.0,0.0,3.0,0.0,0.0,0.0,0.0,0.125,
4.8669739999999875,0.0,0.0,108244.0,0.0,0.0,0.0,0.0,0.125,0.8410643670000001,0.01,0.0,-152314.0,0.0,0.0,-0.0,0.0,0.125,0.532226508,0.01,0.0,15230.0,0.0,0.0,0.0,0.0,0.0,3.350829735,0.01,0.0,-52348.0,0.125,0.0,-0.0,0.0,0.25,1.6857908430000001,0.01,0.003662108999999969,0.15000000596046448,-0.4300000071525574,-99.83999633789062,-0.00689697265625,0.0,1.017578125,36.31999969482422,0.0,2.0,0.5761566162109375,-0.945892333984375,Closing,0.0,0.0,3.0,0.0,0.0,0.0,0.0,0.125,
4.90903899999999,0.0,0.0,108244.0,0.0,0.0,0.0,0.0,0.25,0.8410643670000001,0.01,0.0,-152314.0,0.0,0.0,-0.0,0.0,0.125,0.532226508,0.01,0.0,15230.0,0.0,0.0,0.0,0.0,0.0,3.353271141,0.01,0.0,-52348.0,0.125,0.0,-0.0,0.0,0.25,1.6857908430000001,0.01,-0.0012207029999999897,0.15000000596046448,-0.4300000071525574,-99.83999633789062,-0.00958251953125,0.00543212890625,1.02001953125,36.31999969482422,0.0,-2.0,0.5761566162109375,-0.945892333984375,Closing,0.0,0.0,3.0,0.0,0.0,0.0,0.0,0.125,
4.952644,0.0,0.0,108244.0,0.0,0.0,0.0,0.0,0.25,0.8410643670000001,0.01,-0.0012207030000001007,-152314.0,0.0,0.0,-0.0,0.0,0.125,0.533447211,0.01,0.0,15230.0,0.0,0.0,0.0,0.0,0.0,3.353271141,0.01,0.0,-52348.0,0.125,0.0,-0.0,0.0,0.25,1.6857908430000001,0.01,-0.0012207029999999897,0.15000000596046448,-0.4300000071525574,-99.83999633789062,-0.007568359375,0.00177001953125,1.021240234375,36.279998779296875,0.0,0.0,0.5761566162109375,-0.945892333984375,Closing,0.0,0.0,3.0,0.0,0.0,0.0,0.0,0.0,
4.993049999999989,0.0,0.0,108244.0,0.0,0.0,0.0,0.0,0.25,0.8410643670000001,0.01,0.0012207030000001007,-152314.0,0.0,0.0,-0.0,0.0,0.125,0.531005805,0.01,0.0,15230.0,0.0,0.0,0.0,0.0,0.0,3.353271141,0.01,0.0,-52348.0,0.125,0.0,-0.0,0.0,0.25,1.6857908430000001,0.01,-0.0012207029999999897,0.15000000596046448,-0.4300000071525574,-99.83999633789062,-0.00927734375,0.00164794921875,1.0185546875,36.279998779296875,0.0,1.0,0.5761566162109375,-0.945892333984375,Closing,0.0,0.0,3.0,0.0,0.0,0.0,0.0,0.0,
5.03607699999999,0.0,0.0,108244.0,0.0,0.0,0.0,0.0,0.25,0.8410643670000001,0.01,0.0,-152314.0,0.0,0.0,-0.0,0.0,0.125,0.532226508,0.01,0.0,15230.0,0.0,0.0,0.0,0.0,0.0,3.352050438,0.01,0.0,-52348.0,0.125,0.0,-0.0,0.0,0.25,1.6857908430000001,0.01,-0.0012207029999999897,0.15000000596046448,-0.4300000071525574,-99.83999633789062,-0.00372314453125,0.00543212890625,1.023681640625,36.279998779296875,0.0,-3.0,0.5761566162109375,-0.945892333984375,Closing,0.0,0.0,3.0,0.0,0.0,0.0,0.0,0.0,
5.075313999999984,0.0,0.0,108244.0,0.0,0.0,0.0,0.0,0.125,0.8410643670000001,0.01,0.0,-152314.0,0.0,0.0,-0.0,0.0,0.125,0.532226508,0.01,0.0,15230.0,0.0,0.0,0.0,0.0,0.0,3.353271141,0.01,0.0,-52348.0,0.125,0.0,-0.0,0.0,0.25,1.6821287340000002,0.01,0.0024414059999999793,0.15000000596046448,-0.4300000071525574,-99.83999633789062,-0.011962890625,6.103515625E-5,1.01422119140625,36.279998779296875,0.0,3.0,0.5761566162109375,-0.945892333984375,Closing,0.0,0.0,3.0,0.0,0.0,0.0,0.0,0.0,
5.121611000000004,0.0,0.0,108244.0,0.0,0.0,0.0,0.0,0.125,0.8410643670000001,0.01,-0.0012207030000001007,-152314.0,0.0,0.0,-0.0,0.0,0.125,0.532226508,0.01,0.0,15230.0,0.0,0.0,0.0,0.0,0.0,3.352050438,0.01,0.0,-52348.0,0.125,0.0,-0.0,0.0,0.25,1.6809080310000002,0.01,-0.0024414059999999793,0.15000000596046448,-0.4300000071525574,-99.83999633789062,-0.007568359375,0.0020751953125,1.02081298828125,36.279998779296875,0.0,0.0,0.5761566162109375,-0.945892333984375,Closing,0.0,0.0,3.0,0.0,0.0,0.0,0.0,0.0,
5.167527999999991,0.0,0.0,108244.0,0.0,0.0,0.0,0.0,0.25,0.8422850700000001,0.01,0.0012207030000001007,-152314.0,0.0,0.0,-0.0,0.0,0.125,0.532226508,0.01,-0.0012207029999995456,15230.0,0.125,0.0,0.0,0.0,0.0,3.352050438,0.01,0.0,-52348.0,0.125,0.0,-0.0,0.0,0.25,1.6857908430000001,0.01,-0.0012207029999999897,0.15000000596046448,-0.4300000071525574,-99.8499984741211,-0.00677490234375,0.001708984375,1.0198974609375,36.279998779296875,0.0,0.0,0.5761566162109375,-0.945892333984375,Closing,0.0,0.0,3.0,0.0,0.0,0.0,0.0,0.0,
5.21002899999998,0.0,0.0,108244.0,0.0,0.0,0.0,0.0,0.25,0.8410643670000001,0.01,0.0,-152314.0,0.125,0.0,-0.0,0.0,0.125,0.532226508,0.01,0.0012207029999995456,15230.0,0.125,0.0,0.0,0.0,0.0,3.353271141,0.01,0.0,-52348.0,0.125,0.0,-0.0,0.0,0.25,1.6857908430000001,0.01,0.0012207029999999897,0.15000000596046448,-0.4300000071525574,-99.8499984741211,-0.00927734375,8.544921875E-4,1.02032470703125,36.279998779296875,0.0,2.0,0.5761566162109375,-0.945892333984375,Closing,0.0,0.0,3.0,0.0,0.0,0.0,0.0,0.0,
5.252429999999993,0.0,0.0,108244.0,0.0,0.0,0.0,0.0,0.25,0.8422850700000001,0.01,0.0,-152314.0,0.0,0.0,-0.0,0.0,0.125,0.532226508,0.01,0.0012207029999995456,15230.0,0.0,0.0,0.0,0.0,0.0,3.352050438,0.01,0.0,-52348.0,0.125,0.0,-0.0,0.0,0.25,1.6857908430000001,0.01,0.0024414059999999793,0.15000000596046448,-0.4300000071525574,-99.8499984741211,-0.00628662109375,0.0047607421875,1.01788330078125,36.279998779296875,0.0,-2.0,0.5761566162109375,-0.945892333984375,Closing,0.0,0.0,3.0,0.0,0.0,0.0,0.0,0.0,
5.294570999999996,0.0,0.0,108244.0,0.0,0.0,0.0,0.0,0.25,0.8410643670000001,0.01,0.0,-152314.0,0.0,0.0,-0.0,0.0,0.125,0.533447211,0.01,0.0,15230.0,0.125,0.0,0.0,0.0,0.0,3.352050438,0.01,0.0,-52348.0,0.125,0.0,-0.0,0.0,0.25,1.6809080310000002,0.01,0.0024414059999999793,0.15000000596046448,-0.4300000071525574,-99.8499984741211,-0.0087890625,0.00787353515625,1.02410888671875,36.279998779296875,0.0,-4.0,0.5761566162109375,-0.945892333984375,Closing,0.0,0.0,3.0,0.0,0.0,0.0,0.0,0.0,
5.344051999999996,0.0,0.0,108244.0,0.0,0.0,0.0,0.0,0.25,0.8410643670000001,0.01,0.0,-152314.0,0.0,0.0,-0.0,0.0,0.125,0.532226508,0.01,0.0,15230.0,0.125,0.0,0.0,0.0,0.0,3.353271141,0.01,0.0,-52348.0,0.125,0.0,-0.0,0.0,0.25,1.6857908430000001,0.01,0.0,0.15000000596046448,-0.4300000071525574,-99.8499984741211,-0.00811767578125,0.00384521484375,1.01934814453125,36.279998779296875,0.0,0.0,0.5761566162109375,-0.945892333984375,Closing,0.0,0.0,3.0,0.0,0.0,0.0,0.0,0.0,
5.381965999999986,0.0,0.0,108244.0,0.0,0.0,0.0,0.0,0.25,0.839843664,0.01,0.0,-152314.0,0.0,0.0,-0.0,0.0,0.125,0.532226508,0.01,0.0,15230.0,0.0,0.0,0.0,0.0,0.0,3.352050438,0.01,0.0,-52348.0,0.125,0.0,-0.0,0.0,0.25,1.6809080310000002,0.01,-0.0012207029999999897,0.15000000596046448,-0.4300000071525574,-99.8499984741211,-0.00701904296875,0.00189208984375,1.01385498046875,36.279998779296875,0.0,0.0,0.5761566162109375,-0.945892333984375,Closing,0.0,0.0,3.0,0.0,0.0,0.0,0.0,0.0,
5.426832999999984,0.0,0.0,108244.0,0.0,0.0,0.0,0.0,0.25,0.8422850700000001,0.01,-0.0012207030000001007,-152314.0,0.0,0.0,-0.0,0.0,0.125,0.532226508,0.01,-0.0012207029999995456,15230.0,0.0,0.0,0.0,0.0,0.0,3.352050438,0.01,0.0,-52348.0,0.125,0.0,-0.0,0.0,0.25,1.6809080310000002,0.01,0.0,0.15000000596046448,-0.4300000071525574,-99.8499984741211,-0.00872802734375,0.004638671875,1.0140380859375,36.2599983215332,0.0,-1.0,0.5761566162109375,-0.945892333984375,Closing,0.0,0.0,3.0,0.0,0.0,0.0,0.0,0.0,
