Time,ClimberA1,ClimberA2,FRpos,FRCurrent,FRspeed,FRsetpoint,FRApos,FRACurrent,FREncpos,FREncSetpoint,FREncSpeed,FLpos,FLCurrent,FLspeed,FLsetpoint,FLApos,FLACurrent,FLEncpos,FLEncSetpoint,FLEncSpeed,BRpos,BRCurrent,BRspeed,BRsetpoint,BRApos,BRACurrent,BREncpos,BREncSetpoint,BREncSpeed,BLpos,BLCurrent,BLspeed,BLsetpoint,BLApos,BLACurrent,BLEncpos,BLEncSetpoint,BLEncSpeed,navx_Pitch,navx_Roll,navx_Yaw,navx_XAcc,navx_YAcc,navx_ZAcc,navx_Temp,navx_Bar,navx_Alt,navx_XDis,navx_YDis,GearPlacerState,ShootOutputV,ShootOutputCurrent,ShootEncPos,ShootEncVelocity,ShootSpeed,ShootSetpoint,CarouselSetpoint,CarouselCurrent,
0.20666599999996835,0.0,0.0,82922.0,0.0,0.0,0.0,0.0,0.25,0.7885741380000001,0.01,0.0,-152241.0,0.0,0.0,0.0,0.0,0.125,0.527343696,0.01,0.0,8162.0,0.0,0.0,0.0,0.0,0.125,3.386230122,0.01,0.0,-27436.0,0.125,0.0,0.0,0.0,0.25,1.646728347,0.01,0.0,0.46000000834465027,-0.7799999713897705,-102.19999694824219,-0.01556396484375,0.0068359375,1.01458740234375,36.689998626708984,0.0,1.0,2.15380859375,-2.36175537109375,Closing,0.0,0.0,3.0,0.0,0.0,0.0,0.0,0.0,
0.4704550000000163,0.0,0.0,82944.0,0.75,142.5,420.0,0.0,0.25,0.7910155440000001,0.01,0.0,-152255.0,1.125,-150.0,-420.0,0.0,0.125,0.532226508,0.01,0.0,8165.0,1.375,22.5,420.0,0.0,0.125,3.387450825,0.01,0.0,-27457.0,0.75,-127.5,-420.0,0.0,0.25,1.646728347,0.01,0.0,0.44999998807907104,-0.6000000238418579,-102.18000030517578,-0.02325439453125,-4.2724609375E-4,0.9024658203125,36.68000030517578,0.0,10.0,2.1530609130859375,-2.361480712890625,Closing,0.0,0.0,3.0,0.0,0.0,0.0,0.0,0.0,
0.6776630000000005,0.0,0.0,82952.0,2.0,67.5,420.049236371836,0.0,0.25,0.7885741380000001,4.920231747388577,0.0,-152278.0,3.375,-67.5,-420.049236371836,0.0,0.25,0.5566405680000001,4.9516739396950795,0.0,8181.0,2.625,75.0,420.049236371836,0.0,0.125,3.3703609830000003,4.928360889338058,0.0,-27467.0,1.875,-75.0,-420.049236371836,0.0,0.25,1.6613767830000001,4.945918000432777,0.0,0.47999998927116394,-0.4399999976158142,-102.18000030517578,0.04461669921875,0.0177001953125,1.063720703125,36.68000030517578,0.0,-19.0,2.1522674560546875,-2.359893798828125,Closing,0.0,0.0,3.0,0.0,0.0,0.0,0.0,0.0,
0.8763669999999693,0.0,0.0,82997.0,2.625,210.0,454.4800896783736,0.0,0.375,0.6091307970000001,4.624505442297681,0.0,-152341.0,4.625,-217.5,-454.4800896783736,0.0,0.5,0.333251919,4.654057828629151,0.0,8199.0,4.0,195.0,454.4800896783736,0.0,0.25,3.129882492,4.632145989149268,0.0,-27522.0,2.75,-225.0,-454.4800896783736,0.0,0.5,1.411132668,4.648647845154657,0.0,0.46000000834465027,0.14000000059604645,-102.19000244140625,0.0640869140625,-0.0074462890625,1.0582275390625,36.68000030517578,0.0,2.0,2.1494293212890625,-2.3464202880859375,Closing,0.0,0.0,3.0,0.0,0.0,0.0,0.0,0.0,
1.0699409999999916,0.0,0.0,83053.0,2.0,412.5,452.0619649519854,0.0,0.125,0.371093712,4.634826154440559,0.0,-152400.0,3.5,-405.0,-452.0619649519854,0.0,0.0,4.8730463760000005,4.664444494132074,0.0,8301.0,3.125,352.5,452.0619649519854,0.0,0.0,2.857665723,4.642483753036522,0.0,-27577.0,2.5,-390.0,-452.0619649519854,0.0,0.125,1.0571287980000001,4.659022436959574,0.0,-0.3199999928474426,0.2800000011920929,-102.30000305175781,0.04071044921875,-0.10357666015625,1.01007080078125,36.689998626708984,0.0,87.0,2.159942626953125,-2.31787109375,Closing,0.0,0.0,3.0,0.0,0.0,0.0,0.0,0.125,
1.2726809999999824,0.0,0.0,83204.0,0.875,532.5,454.4800896783736,0.0,0.375,0.44067378300000004,4.624505442297681,0.0,-152550.0,2.25,-510.0,-454.4800896783736,0.0,0.25,0.107421864,4.654057828629151,0.0,8462.0,2.25,510.0,454.4800896783736,0.0,0.125,2.983398132,4.632145989149268,0.0,-27726.0,1.25,-525.0,-454.4800896783736,0.0,0.375,1.2170408910000001,4.648647845154657,0.0,-0.28999999165534973,0.4300000071525574,-103.16999816894531,0.06268310546875,0.056640625,0.98138427734375,36.689998626708984,0.0,-72.0,2.1783294677734375,-2.3106536865234375,Closing,0.0,0.0,3.0,0.0,0.0,0.0,0.0,0.125,
1.4784130000000004,0.0,0.0,83374.0,0.5,502.5,423.139578035428,0.0,0.625,0.885009675,0.09568481255956446,0.0,-152733.0,0.625,-577.5,-423.139578035428,0.0,0.5,0.682372977,0.0962962756840212,0.0,8544.0,1.75,487.5,423.139578035428,0.0,0.375,3.4643551140000004,0.09584290174390399,0.0,-27906.0,0.625,-555.0,-423.139578035428,0.0,0.625,1.80664044,0.09618433868639704,0.0,0.699999988079071,0.3400000035762787,-103.02999877929688,-0.09100341796875,0.2156982421875,1.18084716796875,36.619998931884766,0.0,-173.0,2.18035888671875,-2.3118133544921875,Closing,0.0,0.0,3.0,0.0,0.0,0.0,0.0,0.0,
1.6743310000000056,0.0,0.0,83527.0,0.75,480.0,454.4800896783736,0.0,0.625,0.821533119,4.624505442297681,0.0,-152815.0,1.125,-472.5,-454.4800896783736,0.0,0.5,0.623779233,4.654057828629151,0.0,8697.0,1.5,495.0,454.4800896783736,0.0,0.5,3.353271141,4.632145989149268,0.0,-27989.0,0.75,-450.0,-454.4800896783736,0.0,0.625,1.690673655,4.648647845154657,0.0,1.2400000095367432,-0.12999999523162842,-103.1500015258789,-0.01617431640625,-0.2166748046875,0.9693603515625,36.619998931884766,0.0,234.0,2.1530609130859375,-2.3305206298828125,Closing,0.0,0.0,3.0,0.0,0.0,0.0,0.0,0.0,
1.8791240000000107,0.0,0.0,83596.0,1.125,420.0,449.7228150222785,0.0,0.375,0.325927701,4.645256047916777,0.0,-152948.0,1.875,-412.5,-449.7228150222785,0.0,0.25,4.927978011,4.674941038679471,0.0,8843.0,2.125,412.5,449.7228150222785,0.0,0.125,2.8454586930000003,4.652930878645074,0.0,-28118.0,1.25,-382.5,-449.7228150222785,0.0,0.5,1.066894422,4.6695067800830445,0.0,-0.15000000596046448,-0.3700000047683716,-102.91000366210938,-0.02032470703125,-0.042236328125,0.9228515625,36.619998931884766,0.0,41.0,2.1554718017578125,-2.3368377685546875,Closing,0.0,0.0,3.0,0.0,0.0,0.0,0.0,0.125,
2.078898999999976,0.0,0.0,83734.0,0.875,435.0,441.18045136209577,0.0,0.375,0.456542922,4.688024513802235,0.0,-153085.0,1.5,-442.5,-441.18045136209577,0.0,0.5,0.057373041,4.717982811676883,0.0,8990.0,1.5,457.5,441.18045136209577,0.0,0.25,2.994384459,4.695770006025355,0.0,-28258.0,1.0,-472.5,-441.18045136209577,0.0,0.375,1.251220575,4.712498520337161,0.0,-0.25,-0.3499999940395355,-103.51000213623047,0.02996826171875,0.144775390625,0.9803466796875,36.599998474121094,0.0,-153.0,2.1769866943359375,-2.3367462158203125,Closing,0.0,0.0,3.0,0.0,0.0,0.0,0.0,0.125,
2.335201000000001,0.0,0.0,83874.0,0.875,457.5,462.19571493713573,0.0,0.375,0.639648372,4.594215514558043,0.0,-153243.0,1.125,-480.0,-462.19571493713573,0.0,0.25,0.445556595,4.6235743364840465,0.0,9134.0,1.875,450.0,462.19571493713573,0.0,0.125,3.1689449880000002,4.601806016790823,0.0,-28409.0,1.0,-465.0,-462.19571493713573,0.0,0.5,1.5039060960000001,4.618199787719395,0.0,0.6299999952316284,-0.10999999940395355,-103.37000274658203,-0.0440673828125,-0.060302734375,1.0631103515625,36.599998474121094,0.0,79.0,2.1730194091796875,-2.3357086181640625,Closing,0.0,0.0,3.0,0.0,0.0,0.0,0.0,0.0,
2.54081799999997,0.0,0.0,84026.0,0.75,480.0,449.7228150222785,0.0,0.375,0.523681587,4.645256047916777,0.0,-153387.0,1.375,-442.5,-449.7228150222785,0.0,0.25,0.212402322,4.674941038679471,0.0,9212.0,1.5,487.5,449.7228150222785,0.0,0.125,3.023681331,4.652930878645074,0.0,-28551.0,1.0,-435.0,-449.7228150222785,0.0,0.5,1.2683104170000001,4.6695067800830445,0.0,0.1899999976158142,-0.27000001072883606,-103.7300033569336,-0.05743408203125,0.002197265625,0.8599853515625,36.56999969482422,0.0,13.0,2.1699066162109375,-2.3357086181640625,Closing,0.0,0.0,3.0,0.0,0.0,0.0,0.0,0.125,
2.8105619999999765,0.0,0.0,84180.0,0.5,480.0,443.19150787921245,0.0,0.25,0.48583979400000005,4.677179849637432,0.0,-153531.0,1.25,-442.5,-443.19150787921245,0.0,0.25,0.14160154800000002,4.707068845895068,0.0,9369.0,1.125,487.5,443.19150787921245,0.0,0.125,3.0029293800000003,4.684907424449561,0.0,-28697.0,1.0,-450.0,-443.19150787921245,0.0,0.25,1.2414549510000001,4.70159724119928,0.0,0.07000000029802322,-0.28999999165534973,-104.44999694824219,0.012939453125,-0.00592041015625,0.9527587890625,36.56999969482422,0.0,2.0,2.1741485595703125,-2.3365936279296875,Closing,0.0,0.0,3.0,0.0,0.0,0.0,0.0,0.125,
3.0106419999999927,0.0,0.0,84330.0,0.5,472.5,443.19150787921245,0.0,0.25,0.544433538,4.677179849637432,0.0,-153606.0,1.0,-472.5,-443.19150787921245,0.0,0.25,0.324706998,4.707068845895068,0.0,9522.0,1.125,465.0,443.19150787921245,0.0,0.0,3.089599293,4.684907424449561,0.0,-28846.0,0.75,-465.0,-443.19150787921245,0.0,0.25,1.4257811040000001,4.70159724119928,0.0,0.3700000047683716,-0.27000001072883606,-104.66000366210938,-4.8828125E-4,-0.04730224609375,0.9886474609375,36.52000045776367,0.0,50.0,2.1707305908203125,-2.336639404296875,Closing,0.0,0.0,3.0,0.0,0.0,0.0,0.0,0.125,
3.2098240000000224,0.0,0.0,84403.0,0.5,427.5,445.28637594424845,0.0,0.25,0.552978459,4.666435188907449,0.0,-153757.0,0.875,-472.5,-445.28637594424845,0.0,0.25,0.314941374,4.696255522608871,0.0,9665.0,1.375,435.0,445.28637594424845,0.0,0.125,3.1115719470000003,4.674145011532941,0.0,-28920.0,0.75,-450.0,-445.28637594424845,0.0,0.25,1.406249856,4.690796487567873,0.0,0.4099999964237213,-0.4099999964237213,-104.33000183105469,-0.025146484375,-0.0245361328125,1.0767822265625,36.52000045776367,0.0,35.0,2.170501708984375,-2.337554931640625,Closing,0.0,0.0,3.0,0.0,0.0,0.0,0.0,0.125,
3.413228000000003,0.0,0.0,84543.0,0.5,442.5,445.28637594424845,0.0,0.125,0.562744083,4.666435188907449,0.0,-153899.0,1.125,-435.0,-445.28637594424845,0.0,0.25,0.25634763,4.696255522608871,0.0,9736.0,1.125,450.0,445.28637594424845,0.0,0.125,3.118896165,4.674145011532941,0.0,-29064.0,1.0,-435.0,-445.28637594424845,0.0,0.25,1.362304548,4.690796487567873,0.0,0.3700000047683716,-0.4300000071525574,-104.37000274658203,-0.058349609375,0.00506591796875,1.0557861328125,36.52000045776367,0.0,14.0,2.17132568359375,-2.3388214111328125,Closing,0.0,0.0,3.0,0.0,0.0,0.0,0.0,0.0,
3.610228000000003,0.0,0.0,84685.0,0.5,442.5,443.19150787921245,0.0,0.125,0.5688475980000001,4.677179849637432,0.0,-153967.0,1.125,-420.0,-443.19150787921245,0.0,0.125,0.205078104,4.707068845895068,0.0,9877.0,1.375,427.5,443.19150787921245,0.0,0.125,3.1091305410000003,4.684907424449561,0.0,-29132.0,1.0,-427.5,-443.19150787921245,0.0,0.125,1.363525251,4.70159724119928,0.0,0.36000001430511475,-0.4000000059604645,-104.44999694824219,0.0147705078125,0.01019287109375,1.11968994140625,36.529998779296875,0.0,-8.0,2.171417236328125,-2.3405609130859375,Closing,0.0,0.0,3.0,0.0,0.0,0.0,0.0,0.125,
3.807643999999971,0.0,0.0,84756.0,0.5,457.5,435.66151586552843,0.0,0.25,0.565185489,4.721129584569014,0.0,-154108.0,1.125,-435.0,-435.66151586552843,0.0,0.25,0.25634763,4.751299436706716,0.0,10018.0,1.375,442.5,435.66151586552843,0.0,0.0,3.1091305410000003,4.728929772553091,0.0,-29273.0,1.0,-435.0,-435.66151586552843,0.0,0.25,1.386718608,4.745776417358559,0.0,0.3499999940395355,-0.41999998688697815,-104.56999969482422,-0.0491943359375,0.04498291015625,1.02777099609375,36.529998779296875,0.0,-26.0,2.171295166015625,-2.3404998779296875,Closing,0.0,0.0,3.0,0.0,0.0,0.0,0.0,0.0,
4.01325099999999,0.0,0.0,84905.0,0.375,450.0,432.4215651421655,0.0,0.25,0.577392519,4.743643082438357,0.0,-154253.0,0.875,-442.5,-432.4215651421655,0.0,0.125,0.32958981000000004,4.77395680457362,0.0,10089.0,1.375,457.5,432.4215651421655,0.0,0.0,3.1164547590000002,4.751480466926451,0.0,-29414.0,1.0,-427.5,-432.4215651421655,0.0,0.25,1.41601548,4.768407447781828,0.0,0.4399999976158142,-0.44999998807907104,-104.66999816894531,-0.01507568359375,0.0096435546875,1.00244140625,36.529998779296875,0.0,0.0,2.17010498046875,-2.340545654296875,Closing,0.0,0.0,3.0,0.0,0.0,0.0,0.0,0.125,
4.213951000000001,0.0,0.0,85050.0,0.5,450.0,430.9364451129221,0.0,0.25,0.616455015,4.755022096236761,0.0,-154393.0,1.0,-442.5,-430.9364451129221,0.0,0.0,0.328369107,4.785408534690783,0.0,10234.0,1.125,442.5,430.9364451129221,0.0,0.0,3.14941374,4.762878280981259,0.0,-29553.0,1.0,-427.5,-430.9364451129221,0.0,0.25,1.41601548,4.77984586614547,0.0,0.41999998688697815,-0.47999998927116394,-104.93000030517578,0.00970458984375,-0.02142333984375,1.00738525390625,36.5099983215332,0.0,23.0,2.169647216796875,-2.3418426513671875,Closing,0.0,0.0,3.0,0.0,0.0,0.0,0.0,0.0,
4.479033999999985,0.0,0.0,85194.0,0.375,442.5,429.54249080416946,0.0,0.25,0.6726073530000001,4.766477385014434,0.0,-154529.0,1.125,-412.5,-429.54249080416946,0.0,0.125,0.32958981000000004,4.796937027213962,0.0,10378.0,0.875,442.5,429.54249080416946,0.0,0.0,3.172607097,4.774352496035848,0.0,-29690.0,1.0,-420.0,-429.54249080416946,0.0,0.25,1.418456886,4.7913609576847485,0.0,0.5099999904632568,-0.47999998927116394,-105.41000366210938,-0.009033203125,-0.00433349609375,1.072265625,36.5099983215332,0.0,13.0,2.1694793701171875,-2.34228515625,Closing,0.0,0.0,3.0,0.0,0.0,0.0,0.0,0.125,
4.678534999999974,0.0,0.0,85335.0,0.375,435.0,428.24059247000696,0.0,0.125,0.6738280560000001,4.778004792092225,0.0,-154595.0,1.125,-420.0,-428.24059247000696,0.0,0.125,0.32958981000000004,4.808538098901216,0.0,10519.0,0.875,435.0,428.24059247000696,0.0,0.0,3.183593424,4.785898948543459,0.0,-29824.0,1.0,-412.5,-428.24059247000696,0.0,0.25,1.458740085,4.802948544020418,0.0,0.4699999988079071,-0.5299999713897705,-105.81999969482422,0.0013427734375,0.02935791015625,1.0213623046875,36.52000045776367,0.0,-23.0,2.16973876953125,-2.3426513671875,Closing,0.0,0.0,3.0,0.0,0.0,0.0,0.0,0.125,
4.877223999999988,0.0,0.0,85406.0,0.375,435.0,428.24059247000696,0.0,0.25,0.668945244,4.778004792092225,0.0,-154730.0,1.125,-412.5,-428.24059247000696,0.0,0.125,0.334472622,4.808538098901216,0.0,10658.0,0.875,427.5,428.24059247000696,0.0,0.0,3.183593424,4.785898948543459,0.0,-29887.0,1.25,-405.0,-428.24059247000696,0.0,0.125,1.485595551,4.802948544020418,0.0,0.4699999988079071,-0.5699999928474426,-106.01000213623047,-0.02569580078125,-0.00439453125,1.03436279296875,36.52000045776367,0.0,16.0,2.1701507568359375,-2.34283447265625,Closing,0.0,0.0,3.0,0.0,0.0,0.0,0.0,0.125,
5.080458999999974,0.0,0.0,85676.0,0.375,420.0,428.24059247000696,0.0,0.25,0.6738280560000001,4.778004792092225,0.0,-155005.0,1.125,-427.5,-428.24059247000696,0.0,0.125,0.32958981000000004,4.808538098901216,0.0,10860.0,1.125,427.5,428.24059247000696,0.0,0.0,3.2080074840000004,4.785898948543459,0.0,-30161.0,1.25,-435.0,-428.24059247000696,0.0,0.125,1.4782713330000001,4.802948544020418,0.0,0.4699999988079071,-0.47999998927116394,-105.77999877929688,-0.0120849609375,0.0269775390625,1.08819580078125,36.5099983215332,0.0,-16.0,2.1702728271484375,-2.3437347412109375,Closing,0.0,0.0,3.0,0.0,0.0,0.0,0.0,0.125,
5.5418979999999864,0.0,0.0,85877.0,0.5,420.0,429.54249080416946,0.0,0.25,0.6738280560000001,4.766477385014434,0.0,-155146.0,1.125,-427.5,-429.54249080416946,0.0,0.125,0.32958981000000004,4.796937027213962,0.0,11066.0,1.125,427.5,429.54249080416946,0.0,0.125,3.2080074840000004,4.774352496035848,0.0,-30372.0,1.0,-435.0,-429.54249080416946,0.0,0.25,1.4782713330000001,4.7913609576847485,0.0,0.3799999952316284,-0.5400000214576721,-105.52999877929688,0.014892578125,-9.1552734375E-4,1.00811767578125,36.4900016784668,0.0,0.0,2.17059326171875,-2.3440093994140625,Closing,0.0,0.0,3.0,0.0,0.0,0.0,0.0,0.0,
5.891786000000022,0.0,0.0,86151.0,0.375,427.5,425.9162806985224,0.0,0.125,0.6738280560000001,4.801258457807891,0.0,-155420.0,1.125,-412.5,-425.9162806985224,0.0,0.25,0.411376911,4.831940364574527,0.0,11343.0,0.875,442.5,425.9162806985224,0.0,0.0,3.2067867810000004,4.809191033658689,0.0,-30640.0,1.25,-405.0,-425.9162806985224,0.0,0.125,1.4782713330000001,4.826323606363813,0.0,0.4000000059604645,-0.5600000023841858,-105.7300033569336,0.0018310546875,0.01629638671875,1.0166015625,36.4900016784668,0.0,-11.0,2.17138671875,-2.345123291015625,Closing,0.0,0.0,3.0,0.0,0.0,0.0,0.0,0.125,
6.393055999999982,0.0,0.0,86353.0,0.5,405.0,421.2291827664158,0.0,0.25,0.7641600780000001,4.872267062553982,0.0,-155686.0,1.125,-435.0,-421.2291827664158,0.0,0.125,0.449218704,4.903402741890788,0.0,11618.0,0.875,405.0,421.2291827664158,0.0,0.125,3.328857081,4.880316957884279,0.0,-30837.0,1.25,-412.5,-421.2291827664158,0.0,0.25,1.6284178020000002,4.897702914175017,0.0,0.44999998807907104,-0.550000011920929,-106.18000030517578,0.0194091796875,0.0396728515625,1.03973388671875,36.47999954223633,0.0,-38.0,2.170440673828125,-2.3452606201171875,Closing,0.0,0.0,3.0,0.0,0.0,0.0,0.0,0.0,
6.822924999999988,0.0,0.0,86550.0,0.5,397.5,420.19691087185544,0.0,0.25,0.819091713,4.908218127627576,0.0,-155893.0,1.125,-427.5,-420.19691087185544,0.0,0.25,0.450439407,4.939583548236683,0.0,11748.0,1.125,397.5,420.19691087185544,0.0,0.125,3.3679195770000003,4.916327420833059,0.0,-31040.0,1.375,-412.5,-420.19691087185544,0.0,0.25,1.6320799110000002,4.933841663122481,0.0,0.5,-0.5699999928474426,-105.7300033569336,-0.00634765625,-0.01171875,1.04742431640625,36.47999954223633,0.0,19.0,2.1698150634765625,-2.3454132080078125,Closing,0.0,0.0,3.0,0.0,0.0,0.0,0.0,0.125,
7.09225900000002,0.0,0.0,86678.0,0.75,405.0,420.19691087185544,0.0,0.25,0.806884683,4.908218127627576,0.0,-156028.0,1.125,-420.0,-420.19691087185544,0.0,0.25,0.449218704,4.939583548236683,0.0,11878.0,1.125,405.0,420.19691087185544,0.0,0.125,3.345946923,4.916327420833059,0.0,-31172.0,1.375,-405.0,-420.19691087185544,0.0,0.25,1.616210772,4.933841663122481,0.0,0.44999998807907104,-0.49000000953674316,-105.56999969482422,0.00579833984375,0.04217529296875,1.03265380859375,36.470001220703125,0.0,-36.0,2.1717987060546875,-2.3450469970703125,Closing,0.0,0.0,3.0,0.0,0.0,0.0,0.0,0.0,
7.344223999999987,0.0,0.0,86807.0,0.75,405.0,420.049236371836,0.0,0.25,0.798339762,0.01201925261142284,0.0,-156164.0,1.125,-420.0,-420.049236371836,0.0,0.25,0.498046824,0.012096060304920076,0.0,12007.0,1.5,405.0,420.049236371836,0.0,0.0,3.343505517,0.01203911066194186,0.0,-31310.0,1.625,-427.5,-420.049236371836,0.0,0.25,1.6076658510000001,0.012081999567222845,0.0,0.38999998569488525,-0.41999998688697815,-105.29000091552734,0.01654052734375,0.009521484375,1.01019287109375,36.470001220703125,0.0,-8.0,2.1717681884765625,-2.3447113037109375,Closing,0.0,0.0,3.0,0.0,0.0,0.0,0.0,0.0,
7.611262999999977,0.0,0.0,86942.0,0.5,442.5,420.19691087185544,0.0,0.25,0.8032225740000001,0.02403287237242459,0.0,-156304.0,0.875,-435.0,-420.19691087185544,0.0,0.0,0.5664061920000001,0.024186451763316588,0.0,12214.0,1.375,435.0,420.19691087185544,0.0,0.0,3.343505517,0.024072579166941513,0.0,-31445.0,1.625,-435.0,-420.19691087185544,0.0,0.25,1.622314287,0.024158336877519233,0.0,0.4099999964237213,-0.36000001430511475,-105.3499984741211,-0.03265380859375,0.004150390625,1.01007080078125,36.5099983215332,0.0,9.0,2.1711883544921875,-2.3438568115234375,Closing,0.0,0.0,3.0,0.0,0.0,0.0,0.0,0.125,
7.812741999999969,0.0,0.0,87083.0,0.5,427.5,420.7870906111546,0.0,0.25,0.832519446,0.04802077676867344,0.0,-156444.0,0.875,-435.0,-420.7870906111546,0.0,0.125,0.572509707,0.04832764818762024,0.0,12286.0,1.125,435.0,420.7870906111546,0.0,0.0,3.358153953,0.04810011606221059,0.0,-31585.0,1.375,-427.5,-420.7870906111546,0.0,0.25,1.671142407,0.04827147102186869,0.0,0.44999998807907104,-0.41999998688697815,-105.47000122070312,-0.02886962890625,0.0394287109375,1.100341796875,36.5099983215332,0.0,-24.0,2.1708831787109375,-2.343963623046875,Closing,0.0,0.0,3.0,0.0,0.0,0.0,0.0,0.0,
8.070096000000019,0.0,0.0,87221.0,0.5,427.5,421.768888321851,0.0,0.25,0.860595615,0.07191924801325907,0.0,-156581.0,0.875,-420.0,-421.768888321851,0.0,0.125,0.5664061920000001,0.07237883994767803,0.0,12426.0,1.125,427.5,421.768888321851,0.0,0.0,3.4118648850000004,0.07203807204554373,0.0,-31722.0,1.625,-420.0,-421.768888321851,0.0,0.125,1.705322091,0.07229470512545659,0.0,0.4699999988079071,-0.46000000834465027,-105.51000213623047,-0.05218505859375,0.0172119140625,0.90899658203125,36.5099983215332,0.0,2.0,2.17034912109375,-2.3446807861328125,Closing,0.0,0.0,3.0,0.0,0.0,0.0,0.0,0.0,
8.280371999999973,0.0,0.0,87354.0,0.75,405.0,421.2291827664158,0.0,0.25,0.875244051,0.059983937446018626,0.0,-156648.0,1.125,-405.0,-421.2291827664158,0.0,0.0,0.5664061920000001,0.060367258109212986,0.0,12559.0,1.5,397.5,421.2291827664158,0.0,0.0,3.4204098060000003,0.060083042115721685,0.0,-31850.0,1.75,-532.5,-421.2291827664158,0.0,0.25,1.705322091,0.06029708582498342,0.0,0.41999998688697815,-0.5,-105.4800033569336,-0.00970458984375,-8.544921875E-4,1.01483154296875,36.45000076293945,0.0,8.0,2.17071533203125,-2.3451690673828125,Closing,0.0,0.0,3.0,0.0,0.0,0.0,0.0,0.125,
8.532847999999998,0.0,0.0,87481.0,0.75,397.5,420.7870906111546,0.0,0.25,0.874023348,0.04802077676867344,0.0,-156778.0,1.125,-412.5,-420.7870906111546,0.0,0.125,0.5664061920000001,0.04832764818762024,0.0,12688.0,1.5,405.0,420.7870906111546,0.0,0.125,3.4252926180000003,0.04810011606221059,0.0,-31986.0,1.625,-412.5,-420.7870906111546,0.0,0.25,1.705322091,0.04827147102186869,0.0,0.3799999952316284,-0.5099999904632568,-105.33000183105469,-0.01593017578125,0.02874755859375,0.96173095703125,36.45000076293945,0.0,-19.0,2.1702117919921875,-2.34490966796875,Closing,0.0,0.0,3.0,0.0,0.0,0.0,0.0,0.0,
8.745225999999967,0.0,0.0,87614.0,0.75,412.5,420.19691087185544,0.0,0.25,0.874023348,0.02403287237242459,0.0,-156914.0,1.125,-427.5,-420.19691087185544,0.0,0.25,0.565185489,0.024186451763316588,0.0,12820.0,1.5,412.5,420.19691087185544,0.0,0.125,3.4252926180000003,0.024072579166941513,0.0,-32053.0,1.375,-427.5,-420.19691087185544,0.0,0.25,1.6809080310000002,0.024158336877519233,0.0,0.36000001430511475,-0.46000000834465027,-105.20999908447266,-0.0042724609375,0.014892578125,1.04278564453125,36.470001220703125,0.0,-9.0,2.1699981689453125,-2.3437957763671875,Closing,0.0,0.0,3.0,0.0,0.0,0.0,0.0,0.125,
8.942388999999967,0.0,0.0,87681.0,0.875,420.0,420.0,0.0,0.25,0.8544921000000001,0.01,0.0,-157049.0,1.125,-412.5,-420.0,0.0,0.25,0.551757756,0.01,0.0,12957.0,1.375,427.5,420.0,0.0,0.125,3.382568013,0.01,0.0,-32190.0,1.625,-412.5,-420.0,0.0,0.25,1.645507644,0.01,0.0,0.25,-0.49000000953674316,-105.25,-0.01324462890625,0.01239013671875,1.0484619140625,36.470001220703125,0.0,-6.0,2.1702117919921875,-2.343353271484375,Closing,0.0,0.0,3.0,0.0,0.0,0.0,0.0,0.0,
9.145502999999968,0.0,0.0,87818.0,0.75,427.5,420.049236371836,0.0,0.25,0.8154296040000001,4.920231747388577,0.0,-157115.0,1.125,-412.5,-420.049236371836,0.0,0.25,0.51269526,4.9516739396950795,0.0,13027.0,1.375,427.5,420.049236371836,0.0,0.125,3.338622705,4.928360889338058,0.0,-32322.0,1.375,-420.0,-420.049236371836,0.0,0.25,1.627197099,4.945918000432777,0.0,0.1899999976158142,-0.3799999952316284,-105.44000244140625,-0.00927734375,0.0216064453125,1.0059814453125,36.45000076293945,0.0,-16.0,2.17041015625,-2.3426971435546875,Closing,0.0,0.0,3.0,0.0,0.0,0.0,0.0,0.0,
9.343309000000009,0.0,0.0,87960.0,0.5,442.5,420.19691087185544,0.0,0.25,0.783691326,4.908218127627576,0.0,-157254.0,0.875,-435.0,-420.19691087185544,0.0,0.125,0.498046824,4.939583548236683,0.0,13167.0,1.375,442.5,420.19691087185544,0.0,0.0,3.33251919,4.916327420833059,0.0,-32464.0,1.375,-442.5,-420.19691087185544,0.0,0.25,1.6308592080000002,4.933841663122481,0.0,0.11999999731779099,-0.3499999940395355,-105.5,0.0198974609375,-0.0216064453125,0.87872314453125,36.45000076293945,0.0,15.0,2.1710357666015625,-2.3402862548828125,Closing,0.0,0.0,3.0,0.0,0.0,0.0,0.0,0.0,
9.611119000000006,0.0,0.0,88099.0,0.75,427.5,421.2291827664158,0.0,0.25,0.7885741380000001,4.872267062553982,0.0,-157390.0,0.875,-420.0,-421.2291827664158,0.0,0.25,0.47851557600000005,4.903402741890788,0.0,13304.0,1.375,420.0,421.2291827664158,0.0,0.125,3.3251949720000002,4.880316957884279,0.0,-32530.0,1.375,-412.5,-421.2291827664158,0.0,0.25,1.594238118,4.897702914175017,0.0,0.20000000298023224,-0.33000001311302185,-105.55000305175781,-0.03125,0.0440673828125,0.99169921875,36.45000076293945,0.0,-32.0,2.1704864501953125,-2.3401947021484375,Closing,0.0,0.0,3.0,0.0,0.0,0.0,0.0,0.0,
9.807775000000023,0.0,0.0,88235.0,0.75,412.5,421.768888321851,0.0,0.25,0.773925702,4.860331751986741,0.0,-157524.0,1.0,-412.5,-421.768888321851,0.0,0.25,0.450439407,4.891391160052322,0.0,13441.0,1.125,427.5,421.768888321851,0.0,0.125,3.289794585,4.8683619279544565,0.0,-32666.0,1.375,-420.0,-421.768888321851,0.0,0.25,1.5576170280000001,4.885705294874543,0.0,0.17000000178813934,-0.3700000047683716,-105.69999694824219,0.014404296875,0.01080322265625,1.04632568359375,36.5,0.0,-13.0,2.1721038818359375,-2.3404388427734375,Closing,0.0,0.0,3.0,0.0,0.0,0.0,0.0,0.125,
10.007316999999981,0.0,0.0,88300.0,0.75,405.0,421.768888321851,0.0,0.125,0.74462883,4.860331751986741,0.0,-157656.0,1.125,-412.5,-421.768888321851,0.0,0.125,0.445556595,4.891391160052322,0.0,13510.0,1.375,405.0,421.768888321851,0.0,0.0,3.2690426340000003,4.8683619279544565,0.0,-32796.0,1.375,-405.0,-421.768888321851,0.0,0.125,1.560058434,4.885705294874543,0.0,0.14000000059604645,-0.550000011920929,-105.63999938964844,-0.08599853515625,0.00421142578125,0.9434814453125,36.5,0.0,18.0,2.173553466796875,-2.3416595458984375,Closing,0.0,0.0,3.0,0.0,0.0,0.0,0.0,0.125,
10.20265499999997,0.0,0.0,88400.0,2.25,240.0,420.7870906111546,0.0,0.125,0.734863206,4.884230223231326,0.0,-157711.0,2.875,-277.5,-420.7870906111546,0.0,0.125,0.444335892,4.91544235181238,0.0,13617.0,2.875,247.5,420.7870906111546,0.0,0.0,3.251952792,4.89229988393779,0.0,-32852.0,2.5,-285.0,-420.7870906111546,0.0,0.125,1.5588377310000001,4.909728528978131,0.0,0.25999999046325684,-0.9599999785423279,-105.27999877929688,0.13275146484375,-0.0540771484375,1.02801513671875,36.470001220703125,0.0,17.0,2.17352294921875,-2.35614013671875,Closing,0.0,0.0,3.0,0.0,0.0,0.0,0.0,0.0,
10.41004700000002,0.0,0.0,88445.0,2.375,315.0,421.2291827664158,0.0,0.25,0.7360839090000001,4.872267062553982,0.0,-157801.0,4.25,-307.5,-421.2291827664158,0.0,0.0,0.450439407,4.903402741890788,0.0,13711.0,3.125,322.5,421.2291827664158,0.0,0.0,3.251952792,4.880316957884279,0.0,-32939.0,3.875,-277.5,-421.2291827664158,0.0,0.125,1.560058434,4.897702914175017,0.0,0.12999999523162842,-1.0199999809265137,-106.0199966430664,-0.18792724609375,0.0047607421875,1.10382080078125,36.470001220703125,0.0,44.0,2.1713104248046875,-2.36474609375,Closing,0.0,0.0,3.0,0.0,0.0,0.0,0.0,0.0,
10.607299,0.0,0.0,88504.0,7.625,0.0,420.4429197751611,0.0,0.375,0.759277266,0.03603524225560903,0.0,-157823.0,13.5,-15.0,-420.4429197751611,0.0,0.25,0.458984328,0.03626552145280612,0.0,13732.0,9.375,0.0,420.4429197751611,0.0,0.125,3.302001615,0.03609477920722422,0.0,-32970.0,15.625,-90.0,-420.4429197751611,0.0,0.25,1.622314287,0.03622336557959227,0.0,0.1599999964237213,-1.350000023841858,-106.30000305175781,-0.03338623046875,0.04412841796875,1.0086669921875,36.470001220703125,0.0,-36.0,2.17242431640625,-2.3967437744140625,Closing,0.0,0.0,3.0,0.0,0.0,0.0,0.0,0.125,
10.773668999999995,0.0,0.0,88520.0,14.75,75.0,625.152223462414,0.0,0.625,0.279540987,4.277480367376621,0.0,-157829.0,25.5,-45.0,-625.152223462414,0.0,1.125,0.18432615300000002,4.304815128664995,0.0,13741.0,18.25,90.0,625.152223462414,0.0,0.625,2.755126671,4.284547563979907,0.0,-32974.0,27.125,-22.5,-625.152223462414,0.0,1.875,1.0559080950000002,4.299811112908343,0.0,0.10000000149011612,-1.090000033378601,-106.56999969482422,0.03802490234375,-0.01080322265625,1.04736328125,36.4900016784668,0.0,-4.0,2.173248291015625,-2.3984527587890625,Closing,0.0,0.0,3.0,0.0,0.0,0.0,0.0,0.125,
10.965151000000013,0.0,0.0,88545.0,8.5,67.5,NaN,0.0,0.125,0.031738278,NaN,0.0,-157843.0,19.625,-22.5,NaN,0.0,0.0,0.092773428,NaN,0.0,13787.0,11.125,127.5,NaN,0.0,0.0,2.521972398,NaN,0.0,-32990.0,15.875,-60.0,NaN,0.0,0.125,0.942382716,NaN,0.0,0.1899999976158142,-1.2000000476837158,-107.30000305175781,-0.0311279296875,0.01190185546875,1.00042724609375,36.4900016784668,0.0,-5.0,2.1739501953125,-2.395751953125,Closing,0.0,0.0,3.0,0.0,0.0,0.0,0.0,0.0,
11.15356799999997,0.0,0.0,88553.0,10.125,0.0,NaN,0.0,0.25,0.030517575,NaN,0.0,-157845.0,20.375,0.0,NaN,0.0,0.0,0.087890616,NaN,0.0,13788.0,13.0,0.0,NaN,0.0,0.0,2.521972398,NaN,0.0,-32994.0,17.25,0.0,NaN,0.0,0.125,0.942382716,NaN,0.0,0.23999999463558197,-1.1100000143051147,-107.31999969482422,-0.014892578125,0.0074462890625,1.00701904296875,36.4900016784668,0.0,-4.0,2.1735687255859375,-2.3956298828125,Closing,0.0,0.0,3.0,0.0,0.0,0.0,0.0,0.125,
11.325344999999972,0.0,0.0,88553.0,10.375,0.0,NaN,0.0,0.25,0.026855466,NaN,0.0,-157846.0,21.25,0.0,NaN,0.0,0.0,0.087890616,NaN,0.0,13788.0,12.875,0.0,NaN,0.0,0.0,2.521972398,NaN,0.0,-32994.0,17.5,0.0,NaN,0.0,0.125,0.942382716,NaN,0.0,0.23000000417232513,-1.0,-107.31999969482422,-0.0123291015625,0.0186767578125,1.04876708984375,36.459999084472656,0.0,-15.0,2.1735687255859375,-2.39532470703125,Closing,0.0,0.0,3.0,0.0,0.0,0.0,0.0,0.125,
11.496038999999989,0.0,0.0,88554.0,10.375,7.5,NaN,0.0,0.125,0.030517575,NaN,0.0,-157846.0,20.875,0.0,NaN,0.0,0.0,0.086669913,NaN,0.0,13789.0,13.25,7.5,NaN,0.0,0.0,2.507323962,NaN,0.0,-32994.0,17.25,0.0,NaN,0.0,0.125,0.943603419,NaN,0.0,0.2199999988079071,-0.8999999761581421,-107.36000061035156,0.02313232421875,-0.0302734375,0.9915771484375,36.459999084472656,0.0,21.0,2.173553466796875,-2.39495849609375,Closing,0.0,0.0,3.0,0.0,0.0,0.0,0.0,0.125,
11.685238000000012,0.0,0.0,88558.0,9.5,15.0,NaN,0.0,0.25,0.029296872,NaN,0.0,-157847.0,20.625,0.0,NaN,0.0,0.0,0.076904289,NaN,0.0,13795.0,14.5,7.5,NaN,0.0,0.0,2.50244115,NaN,0.0,-32997.0,16.0,-7.5,NaN,0.0,0.125,0.943603419,NaN,0.0,0.23000000417232513,-0.8199999928474426,-107.4800033569336,0.0068359375,0.0087890625,1.01959228515625,36.5,0.0,-10.0,2.1733245849609375,-2.3943023681640625,Closing,0.0,0.0,3.0,0.0,0.0,0.0,0.0,0.125,
11.913598999999987,0.0,0.0,88560.0,9.375,0.0,NaN,0.0,0.125,0.030517575,NaN,0.0,-157847.0,20.25,0.0,NaN,0.0,0.0,0.087890616,NaN,0.0,13796.0,14.625,0.0,NaN,0.0,0.0,2.50244115,NaN,0.0,-32998.0,17.375,0.0,NaN,0.0,0.125,0.943603419,NaN,0.0,0.23000000417232513,-0.7099999785423279,-107.48999786376953,-0.00653076171875,0.006103515625,1.02728271484375,36.5,0.0,-3.0,2.1733245849609375,-2.3942108154296875,Closing,0.0,0.0,3.0,0.0,0.0,0.0,0.0,0.125,
12.261179999999992,0.0,0.0,88560.0,9.25,0.0,NaN,0.0,0.25,0.025634763,NaN,0.0,-157847.0,19.875,0.0,NaN,0.0,0.0,0.087890616,NaN,0.0,13796.0,14.375,0.0,NaN,0.0,0.0,2.50244115,NaN,0.0,-32998.0,17.625,0.0,NaN,0.0,0.125,0.942382716,NaN,0.0,0.2199999988079071,-0.6399999856948853,-107.48999786376953,-0.0069580078125,0.00152587890625,1.0111083984375,36.47999954223633,0.0,1.0,2.1733245849609375,-2.3942108154296875,Closing,0.0,0.0,3.0,0.0,0.0,0.0,0.0,0.125,
12.564060999999986,0.0,0.0,88560.0,9.375,0.0,NaN,0.0,0.125,0.031738278,NaN,0.0,-157847.0,18.875,0.0,NaN,0.0,0.0,0.08056639800000001,NaN,0.0,13796.0,14.25,0.0,NaN,0.0,0.0,2.50244115,NaN,0.0,-32998.0,18.125,0.0,NaN,0.0,0.125,0.942382716,NaN,0.0,0.2199999988079071,-0.5199999809265137,-107.48999786376953,-0.00390625,0.00616455078125,1.024169921875,36.5099983215332,0.0,-3.0,2.1733245849609375,-2.3942108154296875,Closing,0.0,0.0,3.0,0.0,0.0,0.0,0.0,0.0,
13.145132999999973,0.0,0.0,88560.0,9.25,0.0,NaN,0.0,0.25,0.026855466,NaN,0.0,-157848.0,18.625,0.0,NaN,0.0,0.0,0.087890616,NaN,0.0,13796.0,14.0,0.0,NaN,0.0,0.0,2.50244115,NaN,0.0,-32999.0,18.125,0.0,NaN,0.0,0.125,0.943603419,NaN,0.0,0.2199999988079071,-0.4699999988079071,-107.5,-0.00140380859375,-0.00323486328125,1.02191162109375,36.4900016784668,0.0,4.0,2.1733245849609375,-2.3942108154296875,Closing,0.0,0.0,3.0,0.0,0.0,0.0,0.0,0.125,
13.49913400000002,0.0,0.0,88562.0,10.0,0.0,NaN,0.0,0.25,0.032958981,NaN,0.0,-157848.0,18.75,0.0,NaN,0.0,0.0,0.08911131900000001,NaN,0.0,13798.0,12.5,0.0,NaN,0.0,0.0,2.501220447,NaN,0.0,-33001.0,19.125,0.0,NaN,0.0,0.125,0.93994131,NaN,0.0,0.20999999344348907,-0.4399999976158142,-107.55000305175781,-0.0101318359375,0.00189208984375,1.00250244140625,36.4900016784668,0.0,2.0,2.1732177734375,-2.3939971923828125,Closing,0.0,0.0,3.0,0.0,0.0,0.0,0.0,0.125,
13.713801999999967,0.0,0.0,88562.0,9.875,0.0,NaN,0.0,0.125,0.031738278,NaN,0.0,-157848.0,18.875,0.0,NaN,0.0,0.0,0.086669913,NaN,0.0,13799.0,13.375,0.0,NaN,0.0,0.0,2.50244115,NaN,0.0,-33001.0,19.625,0.0,NaN,0.0,0.125,0.943603419,NaN,0.0,0.2199999988079071,-0.4300000071525574,-107.55999755859375,-0.0045166015625,0.00323486328125,1.02850341796875,36.4900016784668,0.0,0.0,2.1732177734375,-2.3939971923828125,Closing,0.0,0.0,3.0,0.0,0.0,0.0,0.0,0.125,
13.904477000000014,0.0,0.0,88562.0,10.0,0.0,NaN,0.0,0.25,0.026855466,NaN,0.0,-157848.0,18.875,0.0,NaN,0.0,0.0,0.086669913,NaN,0.0,13799.0,13.625,0.0,NaN,0.0,0.0,2.50244115,NaN,0.0,-33001.0,19.875,0.0,NaN,0.0,0.125,0.943603419,NaN,0.0,0.23000000417232513,-0.4099999964237213,-107.55999755859375,-0.0069580078125,0.00689697265625,1.0185546875,36.4900016784668,0.0,-2.0,2.1732177734375,-2.3939971923828125,Closing,0.0,0.0,3.0,0.0,0.0,0.0,0.0,0.0,
14.09175900000002,0.0,0.0,88562.0,9.875,0.0,NaN,0.0,0.25,0.030517575,NaN,0.0,-157848.0,19.0,0.0,NaN,0.0,0.0,0.086669913,NaN,0.0,13799.0,13.625,0.0,NaN,0.0,0.0,2.503661853,NaN,0.0,-33001.0,19.75,0.0,NaN,0.0,0.25,0.9460448250000001,NaN,0.0,0.2199999988079071,-0.4000000059604645,-107.55999755859375,-0.0025634765625,0.0030517578125,1.01568603515625,36.4900016784668,0.0,0.0,2.1732177734375,-2.3939971923828125,Closing,0.0,0.0,3.0,0.0,0.0,0.0,0.0,0.125,
14.265021000000008,0.0,0.0,88562.0,10.125,0.0,NaN,0.0,0.125,0.030517575,NaN,0.0,-157848.0,18.875,0.0,NaN,0.0,0.0,0.086669913,NaN,0.0,13799.0,13.5,0.0,NaN,0.0,0.0,2.50244115,NaN,0.0,-33001.0,19.875,0.0,NaN,0.0,0.125,0.943603419,NaN,0.0,0.2199999988079071,-0.38999998569488525,-107.55999755859375,-0.00146484375,0.004150390625,1.01800537109375,36.52000045776367,0.0,-1.0,2.1732177734375,-2.3939971923828125,Closing,0.0,0.0,3.0,0.0,0.0,0.0,0.0,0.125,
14.441229999999981,0.0,0.0,88562.0,10.125,0.0,NaN,0.0,0.25,0.030517575,NaN,0.0,-157848.0,18.75,0.0,NaN,0.0,0.0,0.07446288300000001,NaN,0.0,13799.0,13.625,0.0,NaN,0.0,0.0,2.50244115,NaN,0.0,-33001.0,20.0,0.0,NaN,0.0,0.125,0.9362792010000001,NaN,0.0,0.2199999988079071,-0.3799999952316284,-107.56999969482422,-0.00494384765625,0.00360107421875,1.01690673828125,36.52000045776367,0.0,0.0,2.1732177734375,-2.3939971923828125,Closing,0.0,0.0,3.0,0.0,0.0,0.0,0.0,0.125,
14.612070000000006,0.0,0.0,88562.0,10.125,0.0,NaN,0.0,0.25,0.030517575,NaN,0.0,-157848.0,18.75,0.0,NaN,0.0,0.0,0.087890616,NaN,0.0,13799.0,13.625,0.0,NaN,0.0,0.0,2.501220447,NaN,0.0,-33001.0,20.0,0.0,NaN,0.0,0.125,0.943603419,NaN,0.0,0.20999999344348907,-0.3700000047683716,-107.56999969482422,-0.005859375,0.0059814453125,1.017578125,36.52000045776367,0.0,-2.0,2.1732177734375,-2.3939971923828125,Closing,0.0,0.0,3.0,0.0,0.0,0.0,0.0,0.0,
14.801148999999976,0.0,0.0,88562.0,10.25,0.0,NaN,0.0,0.25,0.032958981,NaN,0.0,-157848.0,18.625,0.0,NaN,0.0,0.0,0.087890616,NaN,0.0,13799.0,13.625,0.0,NaN,0.0,0.0,2.501220447,NaN,0.0,-33001.0,19.375,0.0,NaN,0.0,0.125,0.943603419,NaN,0.0,0.2199999988079071,-0.3700000047683716,-107.58000183105469,-0.00799560546875,0.00347900390625,1.01727294921875,36.52000045776367,0.0,0.0,2.1732177734375,-2.3939971923828125,Closing,0.0,0.0,3.0,0.0,0.0,0.0,0.0,0.125,
14.975659999999975,0.0,0.0,88562.0,10.5,0.0,NaN,0.0,0.25,0.030517575,NaN,0.0,-157848.0,18.625,0.0,NaN,0.0,0.0,0.087890616,NaN,0.0,13799.0,13.375,0.0,NaN,0.0,0.0,2.501220447,NaN,0.0,-33001.0,19.5,0.0,NaN,0.0,0.125,0.943603419,NaN,0.0,0.2199999988079071,-0.36000001430511475,-107.58000183105469,-0.00494384765625,0.0040283203125,1.01654052734375,36.52000045776367,0.0,0.0,2.1732177734375,-2.3939971923828125,Closing,0.0,0.0,3.0,0.0,0.0,0.0,0.0,0.125,
15.17054700000002,0.0,0.0,88562.0,10.5,0.0,NaN,0.0,0.25,0.030517575,NaN,0.0,-157848.0,18.375,0.0,NaN,0.0,0.0,0.087890616,NaN,0.0,13799.0,13.375,0.0,NaN,0.0,0.0,2.50244115,NaN,0.0,-33001.0,19.75,0.0,NaN,0.0,0.125,0.943603419,NaN,0.0,0.23000000417232513,-0.3499999940395355,-107.58000183105469,-0.00579833984375,0.00531005859375,1.01678466796875,36.52000045776367,0.0,-1.0,2.1732177734375,-2.3939971923828125,Closing,0.0,0.0,3.0,0.0,0.0,0.0,0.0,0.0,
15.364859999999986,0.0,0.0,88562.0,10.5,0.0,NaN,0.0,0.25,0.020751951,NaN,0.0,-157848.0,18.25,0.0,NaN,0.0,0.0,0.08544921,NaN,0.0,13799.0,13.125,0.0,NaN,0.0,0.0,2.50244115,NaN,0.0,-33001.0,19.75,0.0,NaN,0.0,0.125,0.943603419,NaN,0.0,0.23000000417232513,-0.3499999940395355,-107.58999633789062,-0.00439453125,0.005126953125,1.02374267578125,36.5099983215332,0.0,-1.0,2.1732177734375,-2.3939971923828125,Closing,0.0,0.0,3.0,0.0,0.0,0.0,0.0,0.125,
15.507522999999987,0.0,0.0,88562.0,10.5,0.0,NaN,0.0,0.125,0.034179684,NaN,0.0,-157848.0,18.25,0.0,NaN,0.0,0.0,0.087890616,NaN,0.0,13799.0,13.25,0.0,NaN,0.0,0.0,2.50244115,NaN,0.0,-33001.0,19.75,0.0,NaN,0.0,0.125,0.942382716,NaN,0.0,0.2199999988079071,-0.3400000035762787,-107.58999633789062,-0.00531005859375,0.00408935546875,1.01751708984375,36.5099983215332,0.0,0.0,2.1732177734375,-2.3939971923828125,Closing,0.0,0.0,3.0,0.0,0.0,0.0,0.0,0.0,
15.693293000000006,0.0,0.0,88562.0,10.5,0.0,NaN,0.0,0.125,0.030517575,NaN,0.0,-157848.0,18.125,0.0,NaN,0.0,0.0,0.08911131900000001,NaN,0.0,13799.0,13.125,0.0,NaN,0.0,0.0,2.50244115,NaN,0.0,-33001.0,19.875,0.0,NaN,0.0,0.125,0.942382716,NaN,0.0,0.23000000417232513,-0.3400000035762787,-107.58999633789062,-0.006103515625,0.003173828125,1.01751708984375,36.5099983215332,0.0,0.0,2.1732177734375,-2.3939971923828125,Closing,0.0,0.0,3.0,0.0,0.0,0.0,0.0,0.125,
15.869653999999981,0.0,0.0,88562.0,10.375,0.0,NaN,0.0,0.125,0.029296872,NaN,0.0,-157848.0,18.125,0.0,NaN,0.0,0.0,0.08544921,NaN,0.0,13799.0,13.25,0.0,NaN,0.0,0.0,2.50244115,NaN,0.0,-33001.0,19.875,0.0,NaN,0.0,0.125,0.943603419,NaN,0.0,0.23000000417232513,-0.3400000035762787,-107.5999984741211,-0.005126953125,0.007080078125,1.01934814453125,36.529998779296875,0.0,-3.0,2.1732177734375,-2.3939971923828125,Closing,0.0,0.0,3.0,0.0,0.0,0.0,0.0,0.125,
16.04597200000001,0.0,0.0,88562.0,10.375,0.0,NaN,0.0,0.25,0.030517575,NaN,0.0,-157848.0,18.125,0.0,NaN,0.0,0.0,0.08544921,NaN,0.0,13799.0,13.125,0.0,NaN,0.0,0.0,2.503661853,NaN,0.0,-33001.0,20.0,0.0,NaN,0.0,0.125,0.942382716,NaN,0.0,0.23000000417232513,-0.33000001311302185,-107.5999984741211,-0.003662109375,0.0015869140625,1.02032470703125,36.529998779296875,0.0,1.0,2.1732177734375,-2.3939971923828125,Closing,0.0,0.0,3.0,0.0,0.0,0.0,0.0,0.0,
16.248029999999968,0.0,0.0,88562.0,10.25,0.0,NaN,0.0,0.25,0.031738278,NaN,0.0,-157848.0,18.125,0.0,NaN,0.0,0.0,0.087890616,NaN,0.0,13799.0,13.375,0.0,NaN,0.0,0.0,2.50244115,NaN,0.0,-33001.0,19.875,0.0,NaN,0.0,0.125,0.942382716,NaN,0.0,0.23000000417232513,-0.33000001311302185,-107.5999984741211,-0.00689697265625,0.00518798828125,1.015625,36.529998779296875,0.0,0.0,2.1732177734375,-2.3939971923828125,Closing,0.0,0.0,3.0,0.0,0.0,0.0,0.0,0.125,
16.386788,0.0,0.0,88562.0,10.25,0.0,NaN,0.0,0.25,0.031738278,NaN,0.0,-157848.0,18.125,0.0,NaN,0.0,0.0,0.087890616,NaN,0.0,13799.0,13.5,0.0,NaN,0.0,0.0,2.50244115,NaN,0.0,-33001.0,19.875,0.0,NaN,0.0,0.25,0.941162013,NaN,0.0,0.23000000417232513,-0.33000001311302185,-107.5999984741211,-0.00787353515625,0.005126953125,1.01824951171875,36.52000045776367,0.0,0.0,2.1732177734375,-2.3939971923828125,Closing,0.0,0.0,3.0,0.0,0.0,0.0,0.0,0.125,
16.565424999999987,0.0,0.0,88562.0,10.25,0.0,NaN,0.0,0.125,0.031738278,NaN,0.0,-157848.0,18.125,0.0,NaN,0.0,0.0,0.087890616,NaN,0.0,13799.0,13.375,0.0,NaN,0.0,0.0,2.50244115,NaN,0.0,-33001.0,20.0,0.0,NaN,0.0,0.125,0.943603419,NaN,0.0,0.2199999988079071,-0.33000001311302185,-107.5999984741211,-0.00396728515625,0.0047607421875,1.02392578125,36.52000045776367,0.0,-1.0,2.1732177734375,-2.3939971923828125,Closing,0.0,0.0,3.0,0.0,0.0,0.0,0.0,0.125,
16.718322999999973,0.0,0.0,88562.0,10.25,0.0,NaN,0.0,0.125,0.029296872,NaN,0.0,-157848.0,18.125,0.0,NaN,0.0,0.0,0.08911131900000001,NaN,0.0,13799.0,13.375,0.0,NaN,0.0,0.0,2.50244115,NaN,0.0,-33001.0,19.875,0.0,NaN,0.0,0.125,0.942382716,NaN,0.0,0.23000000417232513,-0.3199999928474426,-107.5999984741211,-0.00738525390625,0.00146484375,1.019287109375,36.52000045776367,0.0,3.0,2.1732177734375,-2.3939971923828125,Closing,0.0,0.0,3.0,0.0,0.0,0.0,0.0,0.0,
16.891635000000008,0.0,0.0,88562.0,10.25,0.0,NaN,0.0,0.25,0.030517575,NaN,0.0,-157848.0,18.125,0.0,NaN,0.0,0.0,0.087890616,NaN,0.0,13799.0,13.375,0.0,NaN,0.0,0.0,2.50244115,NaN,0.0,-33001.0,19.25,0.0,NaN,0.0,0.125,0.943603419,NaN,0.0,0.2199999988079071,-0.3100000023841858,-107.61000061035156,-0.005615234375,0.00390625,1.0179443359375,36.52000045776367,0.0,0.0,2.1732177734375,-2.3939971923828125,Closing,0.0,0.0,3.0,0.0,0.0,0.0,0.0,0.125,
17.08688199999998,0.0,0.0,88562.0,10.0,0.0,NaN,0.0,0.25,0.030517575,NaN,0.0,-157848.0,18.125,0.0,NaN,0.0,0.0,0.08911131900000001,NaN,0.0,13799.0,13.375,0.0,NaN,0.0,0.0,2.50244115,NaN,0.0,-33001.0,19.375,0.0,NaN,0.0,0.125,0.942382716,NaN,0.0,0.2199999988079071,-0.3199999928474426,-107.61000061035156,-0.00604248046875,0.00469970703125,1.01513671875,36.52000045776367,0.0,0.0,2.1732177734375,-2.3939971923828125,Closing,0.0,0.0,3.0,0.0,0.0,0.0,0.0,0.125,
17.24439399999997,0.0,0.0,88562.0,10.25,0.0,NaN,0.0,0.125,0.029296872,NaN,0.0,-157848.0,18.125,0.0,NaN,0.0,0.0,0.087890616,NaN,0.0,13799.0,13.125,0.0,NaN,0.0,0.0,2.498779041,NaN,0.0,-33001.0,19.625,0.0,NaN,0.0,0.125,0.937499904,NaN,0.0,0.2199999988079071,-0.3199999928474426,-107.61000061035156,-0.0072021484375,0.00592041015625,1.02301025390625,36.52000045776367,0.0,-1.0,2.1732177734375,-2.3939971923828125,Closing,0.0,0.0,3.0,0.0,0.0,0.0,0.0,0.125,
17.426004000000017,0.0,0.0,88562.0,10.25,0.0,NaN,0.0,0.125,0.031738278,NaN,0.0,-157848.0,18.0,0.0,NaN,0.0,0.0,0.086669913,NaN,0.0,13799.0,13.25,0.0,NaN,0.0,0.0,2.501220447,NaN,0.0,-33001.0,19.75,0.0,NaN,0.0,0.125,0.937499904,NaN,0.0,0.2199999988079071,-0.3199999928474426,-107.61000061035156,-0.0072021484375,0.0037841796875,1.02001953125,36.529998779296875,0.0,0.0,2.1732177734375,-2.3939971923828125,Closing,0.0,0.0,3.0,0.0,0.0,0.0,0.0,0.125,
17.608048999999998,0.0,0.0,88562.0,10.25,0.0,NaN,0.0,0.25,0.025634763,NaN,0.0,-157848.0,18.0,0.0,NaN,0.0,0.0,0.086669913,NaN,0.0,13799.0,13.125,0.0,NaN,0.0,0.0,2.501220447,NaN,0.0,-33001.0,19.75,0.0,NaN,0.0,0.125,0.943603419,NaN,0.0,0.2199999988079071,-0.3199999928474426,-107.62000274658203,-0.00506591796875,0.0045166015625,1.0167236328125,36.529998779296875,0.0,0.0,2.1732177734375,-2.3939971923828125,Closing,0.0,0.0,3.0,0.0,0.0,0.0,0.0,0.125,
17.76603700000001,0.0,0.0,88562.0,10.25,0.0,NaN,0.0,0.25,0.026855466,NaN,0.0,-157848.0,18.0,0.0,NaN,0.0,0.0,0.087890616,NaN,0.0,13799.0,13.125,0.0,NaN,0.0,0.0,2.50244115,NaN,0.0,-33001.0,19.75,0.0,NaN,0.0,0.125,0.942382716,NaN,0.0,0.2199999988079071,-0.3199999928474426,-107.62000274658203,-0.00921630859375,0.00640869140625,1.01995849609375,36.529998779296875,0.0,-1.0,2.1732177734375,-2.3939971923828125,Closing,0.0,0.0,3.0,0.0,0.0,0.0,0.0,0.125,
17.93350799999997,0.0,0.0,88562.0,10.25,0.0,NaN,0.0,0.25,0.034179684,NaN,0.0,-157848.0,18.0,0.0,NaN,0.0,0.0,0.087890616,NaN,0.0,13799.0,13.125,0.0,NaN,0.0,0.0,2.50244115,NaN,0.0,-33001.0,19.625,0.0,NaN,0.0,0.125,0.943603419,NaN,0.0,0.20999999344348907,-0.3100000023841858,-107.62000274658203,-0.00469970703125,0.00390625,1.01568603515625,36.560001373291016,0.0,0.0,2.1732177734375,-2.3939971923828125,Closing,0.0,0.0,3.0,0.0,0.0,0.0,0.0,0.0,
18.09485399999999,0.0,0.0,88562.0,10.25,0.0,NaN,0.0,0.25,0.031738278,NaN,0.0,-157848.0,18.0,0.0,NaN,0.0,0.0,0.08911131900000001,NaN,0.0,13799.0,13.375,0.0,NaN,0.0,0.0,2.501220447,NaN,0.0,-33001.0,19.625,0.0,NaN,0.0,0.125,0.942382716,NaN,0.0,0.20999999344348907,-0.3100000023841858,-107.62999725341797,-0.0057373046875,0.00762939453125,1.015869140625,36.560001373291016,0.0,-3.0,2.1732177734375,-2.3939971923828125,Closing,0.0,0.0,3.0,0.0,0.0,0.0,0.0,0.0,
18.271430999999982,0.0,0.0,88562.0,10.25,0.0,NaN,0.0,0.25,0.029296872,NaN,0.0,-157848.0,18.0,0.0,NaN,0.0,0.0,0.087890616,NaN,0.0,13799.0,13.25,0.0,NaN,0.0,0.0,2.50244115,NaN,0.0,-33001.0,19.625,0.0,NaN,0.0,0.125,0.943603419,NaN,0.0,0.20999999344348907,-0.3199999928474426,-107.62999725341797,-0.00909423828125,0.006103515625,1.0213623046875,36.560001373291016,0.0,-1.0,2.1732177734375,-2.3939971923828125,Closing,0.0,0.0,3.0,0.0,0.0,0.0,0.0,0.125,
18.46920299999998,0.0,0.0,88562.0,10.25,0.0,NaN,0.0,0.125,0.031738278,NaN,0.0,-157848.0,17.875,0.0,NaN,0.0,0.0,0.087890616,NaN,0.0,13799.0,13.375,0.0,NaN,0.0,0.0,2.50244115,NaN,0.0,-33001.0,19.625,0.0,NaN,0.0,0.125,0.942382716,NaN,0.0,0.20999999344348907,-0.3100000023841858,-107.62999725341797,-0.00537109375,0.00579833984375,1.02105712890625,36.58000183105469,0.0,-1.0,2.1732177734375,-2.3939971923828125,Closing,0.0,0.0,3.0,0.0,0.0,0.0,0.0,0.125,
18.85872999999998,0.0,0.0,88562.0,10.25,0.0,NaN,0.0,0.25,0.031738278,NaN,0.0,-157848.0,17.875,0.0,NaN,0.0,0.0,0.087890616,NaN,0.0,13799.0,13.25,0.0,NaN,0.0,0.0,2.504882556,NaN,0.0,-33001.0,19.625,0.0,NaN,0.0,0.125,0.942382716,NaN,0.0,0.2199999988079071,-0.3100000023841858,-107.62000274658203,-0.00347900390625,0.00457763671875,1.01849365234375,36.56999969482422,0.0,-1.0,2.1732177734375,-2.3939971923828125,Closing,0.0,0.0,3.0,0.0,0.0,0.0,0.0,0.125,
19.189169999999983,0.0,0.0,88562.0,10.25,0.0,NaN,0.0,0.125,0.030517575,NaN,0.0,-157848.0,17.875,0.0,NaN,0.0,0.0,0.087890616,NaN,0.0,13799.0,12.75,0.0,NaN,0.0,0.0,2.50244115,NaN,0.0,-33001.0,19.625,0.0,NaN,0.0,0.125,0.942382716,NaN,0.0,0.23000000417232513,-0.3100000023841858,-107.61000061035156,-0.00390625,0.00384521484375,1.0189208984375,36.56999969482422,0.0,0.0,2.1732177734375,-2.3939971923828125,Closing,0.0,0.0,3.0,0.0,0.0,0.0,0.0,0.125,
19.57961499999999,0.0,0.0,88562.0,10.0,0.0,NaN,0.0,0.125,0.030517575,NaN,0.0,-157848.0,17.75,0.0,NaN,0.0,0.0,0.087890616,NaN,0.0,13799.0,12.875,0.0,NaN,0.0,0.0,2.501220447,NaN,0.0,-33001.0,19.5,0.0,NaN,0.0,0.125,0.938720607,NaN,0.0,0.23000000417232513,-0.3100000023841858,-107.5999984741211,-0.00445556640625,0.00384521484375,1.023193359375,36.56999969482422,0.0,0.0,2.1732177734375,-2.3939971923828125,Closing,0.0,0.0,3.0,0.0,0.0,0.0,0.0,0.0,
19.984281000000017,0.0,0.0,88562.0,10.0,0.0,NaN,0.0,0.25,0.029296872,NaN,0.0,-157848.0,17.625,0.0,NaN,0.0,0.0,0.087890616,NaN,0.0,13799.0,13.125,0.0,NaN,0.0,0.0,2.50244115,NaN,0.0,-33001.0,19.5,0.0,NaN,0.0,0.125,0.943603419,NaN,0.0,0.25,-0.3199999928474426,-107.5999984741211,-0.00616455078125,0.00225830078125,1.0203857421875,36.540000915527344,0.0,2.0,2.1732177734375,-2.3939971923828125,Closing,0.0,0.0,3.0,0.0,0.0,0.0,0.0,0.125,
20.310833999999975,0.0,0.0,88562.0,10.0,0.0,NaN,0.0,0.125,0.030517575,NaN,0.0,-157848.0,17.625,0.0,NaN,0.0,0.0,0.087890616,NaN,0.0,13799.0,13.25,0.0,NaN,0.0,0.0,2.501220447,NaN,0.0,-33001.0,19.125,0.0,NaN,0.0,0.125,0.943603419,NaN,0.0,0.25,-0.3199999928474426,-107.58999633789062,-0.00372314453125,0.00421142578125,1.0181884765625,36.54999923706055,0.0,0.0,2.1732177734375,-2.3939971923828125,Closing,0.0,0.0,3.0,0.0,0.0,0.0,0.0,0.125,
20.59205900000001,0.0,0.0,88562.0,10.0,0.0,NaN,0.0,0.25,0.026855466,NaN,0.0,-157848.0,17.625,0.0,NaN,0.0,0.0,0.086669913,NaN,0.0,13799.0,13.25,0.0,NaN,0.0,0.0,2.501220447,NaN,0.0,-33001.0,19.375,0.0,NaN,0.0,0.125,0.942382716,NaN,0.0,0.23999999463558197,-0.3100000023841858,-107.58999633789062,-0.0045166015625,0.00543212890625,1.01434326171875,36.54999923706055,0.0,-1.0,2.1732177734375,-2.3939971923828125,Closing,0.0,0.0,3.0,0.0,0.0,0.0,0.0,0.125,
20.759276000000014,0.0,0.0,88562.0,10.0,0.0,NaN,0.0,0.25,0.032958981,NaN,0.0,-157848.0,17.625,0.0,NaN,0.0,0.0,0.087890616,NaN,0.0,13799.0,13.25,0.0,NaN,0.0,0.0,2.50244115,NaN,0.0,-33001.0,19.5,0.0,NaN,0.0,0.125,0.943603419,NaN,0.0,0.25,-0.3100000023841858,-107.58999633789062,-0.0059814453125,0.005126953125,1.0164794921875,36.54999923706055,0.0,0.0,2.1732177734375,-2.3939971923828125,Closing,0.0,0.0,3.0,0.0,0.0,0.0,0.0,0.125,
20.904103999999993,0.0,0.0,88562.0,10.0,0.0,NaN,0.0,0.25,0.031738278,NaN,0.0,-157848.0,17.5,0.0,NaN,0.0,0.0,0.087890616,NaN,0.0,13799.0,13.25,0.0,NaN,0.0,0.0,2.498779041,NaN,0.0,-33001.0,19.625,0.0,NaN,0.0,0.125,0.943603419,NaN,0.0,0.25,-0.3100000023841858,-107.58000183105469,-0.003173828125,0.00390625,1.02056884765625,36.560001373291016,0.0,0.0,2.1732177734375,-2.3939971923828125,Closing,0.0,0.0,3.0,0.0,0.0,0.0,0.0,0.0,
21.089357000000017,0.0,0.0,88562.0,10.0,0.0,NaN,0.0,0.125,0.031738278,NaN,0.0,-157848.0,17.5,0.0,NaN,0.0,0.0,0.086669913,NaN,0.0,13799.0,13.375,0.0,NaN,0.0,0.0,2.501220447,NaN,0.0,-33001.0,19.625,0.0,NaN,0.0,0.125,0.943603419,NaN,0.0,0.25,-0.3100000023841858,-107.56999969482422,-0.00372314453125,0.002685546875,1.021728515625,36.560001373291016,0.0,1.0,2.1732177734375,-2.3939971923828125,Closing,0.0,0.0,3.0,0.0,0.0,0.0,0.0,0.0,
21.287141999999992,0.0,0.0,88562.0,10.0,0.0,NaN,0.0,0.25,0.029296872,NaN,0.0,-157848.0,17.5,0.0,NaN,0.0,0.0,0.087890616,NaN,0.0,13799.0,13.375,0.0,NaN,0.0,0.0,2.50244115,NaN,0.0,-33001.0,19.75,0.0,NaN,0.0,0.125,0.943603419,NaN,0.0,0.25999999046325684,-0.30000001192092896,-107.56999969482422,-0.0042724609375,-6.103515625E-5,1.01776123046875,36.560001373291016,0.0,4.0,2.1732177734375,-2.3939971923828125,Closing,0.0,0.0,3.0,0.0,0.0,0.0,0.0,0.125,
21.445379000000017,0.0,0.0,88562.0,10.0,0.0,NaN,0.0,0.25,0.031738278,NaN,0.0,-157848.0,17.5,0.0,NaN,0.0,0.0,0.087890616,NaN,0.0,13799.0,13.25,0.0,NaN,0.0,0.0,2.50244115,NaN,0.0,-33001.0,19.75,0.0,NaN,0.0,0.125,0.942382716,NaN,0.0,0.25,-0.3100000023841858,-107.55999755859375,-0.00360107421875,0.0074462890625,1.01690673828125,36.560001373291016,0.0,-3.0,2.1732177734375,-2.3939971923828125,Closing,0.0,0.0,3.0,0.0,0.0,0.0,0.0,0.125,
21.630549,0.0,0.0,88562.0,10.0,0.0,NaN,0.0,0.25,0.029296872,NaN,0.0,-157848.0,17.375,0.0,NaN,0.0,0.0,0.086669913,NaN,0.0,13799.0,13.125,0.0,NaN,0.0,0.0,2.50244115,NaN,0.0,-33001.0,19.75,0.0,NaN,0.0,0.125,0.942382716,NaN,0.0,0.25999999046325684,-0.3100000023841858,-107.55000305175781,-0.0059814453125,0.00469970703125,1.02142333984375,36.560001373291016,0.0,0.0,2.1732177734375,-2.3939971923828125,Closing,0.0,0.0,3.0,0.0,0.0,0.0,0.0,0.125,
21.83136599999998,0.0,0.0,88562.0,10.0,0.0,NaN,0.0,0.125,0.030517575,NaN,0.0,-157848.0,17.375,0.0,NaN,0.0,0.0,0.083007804,NaN,0.0,13799.0,13.125,0.0,NaN,0.0,0.0,2.501220447,NaN,0.0,-33001.0,19.75,0.0,NaN,0.0,0.125,0.942382716,NaN,0.0,0.25,-0.3199999928474426,-107.54000091552734,-0.00823974609375,0.00408935546875,1.01788330078125,36.560001373291016,0.0,1.0,2.1732177734375,-2.3939971923828125,Closing,0.0,0.0,3.0,0.0,0.0,0.0,0.0,0.0,
22.033973,0.0,0.0,88562.0,10.0,0.0,NaN,0.0,0.125,0.031738278,NaN,0.0,-157848.0,17.25,0.0,NaN,0.0,0.0,0.087890616,NaN,0.0,13799.0,13.125,0.0,NaN,0.0,0.0,2.50244115,NaN,0.0,-33001.0,19.75,0.0,NaN,0.0,0.125,0.943603419,NaN,0.0,0.25,-0.3199999928474426,-107.54000091552734,-0.00433349609375,0.00567626953125,1.02001953125,36.529998779296875,0.0,-1.0,2.1732177734375,-2.3939971923828125,Closing,0.0,0.0,3.0,0.0,0.0,0.0,0.0,0.0,
22.240362000000022,0.0,0.0,88562.0,10.0,0.0,NaN,0.0,0.125,0.031738278,NaN,0.0,-157848.0,17.25,0.0,NaN,0.0,0.0,0.086669913,NaN,0.0,13799.0,13.125,0.0,NaN,0.0,0.0,2.501220447,NaN,0.0,-33001.0,19.75,0.0,NaN,0.0,0.125,0.943603419,NaN,0.0,0.25,-0.3199999928474426,-107.52999877929688,-0.0062255859375,0.00372314453125,1.023193359375,36.529998779296875,0.0,1.0,2.1732177734375,-2.3939971923828125,Closing,0.0,0.0,3.0,0.0,0.0,0.0,0.0,0.125,
22.428525000000022,0.0,0.0,88562.0,10.0,0.0,NaN,0.0,0.125,0.026855466,NaN,0.0,-157848.0,17.25,0.0,NaN,0.0,0.0,0.087890616,NaN,0.0,13799.0,13.0,0.0,NaN,0.0,0.0,2.50244115,NaN,0.0,-33001.0,19.75,0.0,NaN,0.0,0.125,0.942382716,NaN,0.0,0.25,-0.3199999928474426,-107.52999877929688,-0.0025634765625,0.004638671875,1.01922607421875,36.540000915527344,0.0,0.0,2.1732177734375,-2.3939971923828125,Closing,0.0,0.0,3.0,0.0,0.0,0.0,0.0,0.125,
22.629792000000016,0.0,0.0,88562.0,10.0,0.0,NaN,0.0,0.25,0.030517575,NaN,0.0,-157848.0,17.25,0.0,NaN,0.0,0.0,0.086669913,NaN,0.0,13799.0,13.125,0.0,NaN,0.0,0.0,2.50244115,NaN,0.0,-33001.0,19.75,0.0,NaN,0.0,0.125,0.943603419,NaN,0.0,0.25999999046325684,-0.30000001192092896,-107.52999877929688,-0.00445556640625,0.00714111328125,1.0185546875,36.540000915527344,0.0,-2.0,2.1732177734375,-2.3939971923828125,Closing,0.0,0.0,3.0,0.0,0.0,0.0,0.0,0.125,
22.826722000000007,0.0,0.0,88562.0,10.0,0.0,NaN,0.0,0.25,0.030517575,NaN,0.0,-157848.0,17.25,0.0,NaN,0.0,0.0,0.087890616,NaN,0.0,13799.0,13.125,0.0,NaN,0.0,0.0,2.50244115,NaN,0.0,-33001.0,19.75,0.0,NaN,0.0,0.125,0.942382716,NaN,0.0,0.25999999046325684,-0.30000001192092896,-107.52999877929688,-0.00408935546875,0.00390625,1.0184326171875,36.540000915527344,0.0,0.0,2.1732177734375,-2.3939971923828125,Closing,0.0,0.0,3.0,0.0,0.0,0.0,0.0,0.125,
22.98632500000001,0.0,0.0,88562.0,10.0,0.0,NaN,0.0,0.25,0.030517575,NaN,0.0,-157848.0,17.25,0.0,NaN,0.0,0.0,0.08544921,NaN,0.0,13799.0,13.125,0.0,NaN,0.0,0.0,2.501220447,NaN,0.0,-33001.0,19.875,0.0,NaN,0.0,0.125,0.943603419,NaN,0.0,0.25999999046325684,-0.30000001192092896,-107.5199966430664,-0.00567626953125,0.00457763671875,1.02099609375,36.58000183105469,0.0,0.0,2.1732177734375,-2.3939971923828125,Closing,0.0,0.0,3.0,0.0,0.0,0.0,0.0,0.125,
23.156270000000017,0.0,0.0,88562.0,10.0,0.0,NaN,0.0,0.25,0.029296872,NaN,0.0,-157848.0,17.25,0.0,NaN,0.0,0.0,0.09033202200000001,NaN,0.0,13799.0,12.75,0.0,NaN,0.0,0.0,2.50244115,NaN,0.0,-33001.0,19.125,0.0,NaN,0.0,0.125,0.942382716,NaN,0.0,0.25999999046325684,-0.30000001192092896,-107.51000213623047,-0.006591796875,0.0069580078125,1.02008056640625,36.58000183105469,0.0,-1.0,2.1732177734375,-2.3939971923828125,Closing,0.0,0.0,3.0,0.0,0.0,0.0,0.0,0.125,
23.310120999999985,0.0,0.0,88562.0,9.75,0.0,NaN,0.0,0.25,0.030517575,NaN,0.0,-157848.0,17.25,0.0,NaN,0.0,0.0,0.086669913,NaN,0.0,13799.0,12.75,0.0,NaN,0.0,0.0,2.50244115,NaN,0.0,-33001.0,19.375,0.0,NaN,0.0,0.125,0.942382716,NaN,0.0,0.25999999046325684,-0.30000001192092896,-107.51000213623047,-0.00628662109375,0.0023193359375,1.0189208984375,36.58000183105469,0.0,2.0,2.1732177734375,-2.3939971923828125,Closing,0.0,0.0,3.0,0.0,0.0,0.0,0.0,0.125,
23.48528100000002,0.0,0.0,88562.0,9.875,0.0,NaN,0.0,0.25,0.02441406,NaN,0.0,-157848.0,17.125,0.0,NaN,0.0,0.0,0.08544921,NaN,0.0,13799.0,12.625,0.0,NaN,0.0,0.0,2.50244115,NaN,0.0,-33001.0,19.625,0.0,NaN,0.0,0.125,0.941162013,NaN,0.0,0.25999999046325684,-0.30000001192092896,-107.51000213623047,-0.00579833984375,0.00726318359375,1.01751708984375,36.59000015258789,0.0,-2.0,2.1732177734375,-2.3939971923828125,Closing,0.0,0.0,3.0,0.0,0.0,0.0,0.0,0.125,
23.651016000000002,0.0,0.0,88562.0,9.875,0.0,NaN,0.0,0.25,0.031738278,NaN,0.0,-157848.0,17.625,0.0,NaN,0.0,0.0,0.087890616,NaN,0.0,13799.0,12.625,0.0,NaN,0.0,0.0,2.501220447,NaN,0.0,-33001.0,19.625,0.0,NaN,0.0,0.125,0.954589746,NaN,0.0,0.27000001072883606,-0.3100000023841858,-107.5,-0.00653076171875,0.0045166015625,1.0177001953125,36.59000015258789,0.0,0.0,2.1732177734375,-2.3939971923828125,Closing,0.0,0.0,3.0,0.0,0.0,0.0,0.0,0.125,
23.82821100000001,0.0,0.0,88562.0,9.75,0.0,NaN,0.0,0.25,0.031738278,NaN,0.0,-157848.0,17.25,0.0,NaN,0.0,0.0,0.087890616,NaN,0.0,13799.0,12.375,0.0,NaN,0.0,0.0,2.50244115,NaN,0.0,-33002.0,19.25,-7.5,NaN,0.0,0.125,0.943603419,NaN,0.0,0.27000001072883606,-0.3100000023841858,-107.48999786376953,-0.00537109375,0.00836181640625,1.01727294921875,36.59000015258789,0.0,-3.0,2.1732177734375,-2.3939971923828125,Closing,0.0,0.0,3.0,0.0,0.0,0.0,0.0,0.0,
23.980686999999975,0.0,0.0,88547.0,0.0,-52.5,NaN,0.0,0.25,0.025634763,NaN,0.0,-157838.0,0.125,22.5,NaN,0.0,0.0,0.092773428,NaN,0.0,13793.0,0.125,-37.5,NaN,0.0,0.0,2.50244115,NaN,0.0,-32987.0,0.125,75.0,NaN,0.0,0.125,0.942382716,NaN,0.0,0.38999998569488525,-0.3799999952316284,-107.3499984741211,-0.00604248046875,-0.0694580078125,1.11700439453125,36.56999969482422,0.0,73.0,2.1705322265625,-2.397064208984375,Closing,0.0,0.0,3.0,0.0,0.0,0.0,0.0,0.0,
