Time,ClimberA1,ClimberA2,FRpos,FRCurrent,FRspeed,FRsetpoint,FRApos,FRACurrent,FREncpos,FREncSetpoint,FREncSpeed,FLpos,FLCurrent,FLspeed,FLsetpoint,FLApos,FLACurrent,FLEncpos,FLEncSetpoint,FLEncSpeed,BRpos,BRCurrent,BRspeed,BRsetpoint,BRApos,BRACurrent,BREncpos,BREncSetpoint,BREncSpeed,BLpos,BLCurrent,BLspeed,BLsetpoint,BLApos,BLACurrent,BLEncpos,BLEncSetpoint,BLEncSpeed,navx_Pitch,navx_Roll,navx_Yaw,navx_XAcc,navx_YAcc,navx_ZAcc,navx_Temp,navx_Bar,navx_Alt,navx_XDis,navx_YDis,GearPlacerState,ShootOutputV,ShootOutputCurrent,ShootEncPos,ShootEncVelocity,ShootSpeed,ShootSetpoint,CarouselSetpoint,CarouselCurrent,
0.13188399999999093,0.0,0.0,86839.0,0.0,0.0,0.0,0.0,0.25,0.850829991,0.01,0.0,-156148.0,0.0,0.0,-0.0,0.0,0.25,0.545654241,0.01,0.0,12159.0,0.0,0.0,0.0,0.0,0.0,3.342284814,0.01,0.0,-31299.0,0.125,0.0,-0.0,0.0,0.125,1.627197099,0.01,0.0,0.3199999928474426,-0.46000000834465027,-105.70999908447266,-0.01153564453125,0.00885009765625,1.01361083984375,36.56999969482422,0.0,-2.0,2.234222412109375,-2.4879150390625,Closing,0.0,0.0,3.0,0.0,0.0,0.0,0.0,0.125,
0.2376809999999823,0.0,0.0,86839.0,0.0,0.0,0.0,0.0,0.25,0.850829991,0.01,0.0,-156148.0,0.0,0.0,-0.0,0.0,0.25,0.548095647,0.01,0.0,12159.0,0.0,0.0,0.0,0.0,0.0,3.343505517,0.01,0.0,-31299.0,0.125,0.0,-0.0,0.0,0.125,1.627197099,0.01,0.0,0.30000001192092896,-0.4300000071525574,-105.69999694824219,-0.07269287109375,-0.01019287109375,0.974365234375,36.56999969482422,0.0,32.0,2.2341156005859375,-2.487945556640625,Closing,0.0,0.0,3.0,0.0,0.0,0.0,0.0,0.125,
0.34888099999999395,0.0,0.0,86839.0,0.0,0.0,0.0,0.0,0.25,0.849609288,0.01,0.0,-156148.0,0.0,0.0,-0.0,0.0,0.25,0.546874944,0.01,0.0,12159.0,0.0,0.0,0.0,0.0,0.0,3.343505517,0.01,0.0,-31299.0,0.125,0.0,-0.0,0.0,0.125,1.627197099,0.01,0.0,0.20999999344348907,-0.49000000953674316,-105.69999694824219,0.0308837890625,0.0045166015625,1.0382080078125,36.56999969482422,0.0,-11.0,2.234771728515625,-2.489166259765625,Closing,0.0,0.0,3.0,0.0,0.0,0.0,0.0,0.125,
0.45392900000000375,0.0,0.0,86839.0,0.0,0.0,0.0,0.0,0.25,0.850829991,0.01,0.0,-156148.0,0.0,0.0,-0.0,0.0,0.125,0.545654241,0.01,0.0,12159.0,0.0,0.0,0.0,0.0,0.0,3.343505517,0.01,0.0,-31299.0,0.125,0.0,-0.0,0.0,0.125,1.627197099,0.01,0.0,0.23999999463558197,-0.5199999809265137,-105.70999908447266,0.07275390625,0.039306640625,0.98919677734375,36.56999969482422,0.0,-55.0,2.2361297607421875,-2.4879608154296875,Closing,0.0,0.0,3.0,0.0,0.0,0.0,0.0,0.0,
0.5651089999999968,0.0,0.0,86839.0,0.0,0.0,0.0,0.0,0.25,0.850829991,0.01,0.0,-156148.0,0.0,0.0,-0.0,0.0,0.25,0.546874944,0.01,0.0,12159.0,0.0,0.0,0.0,0.0,0.0,3.343505517,0.01,0.0,-31299.0,0.125,0.0,-0.0,0.0,0.25,1.6284178020000002,0.01,0.0,0.25,-0.5299999713897705,-105.69999694824219,-0.01641845703125,0.0296630859375,1.01116943359375,36.54999923706055,0.0,-22.0,2.2364501953125,-2.4865570068359375,Closing,0.0,0.0,3.0,0.0,0.0,0.0,0.0,0.125,
0.6720039999999863,0.0,0.0,86839.0,0.0,0.0,0.0,0.0,0.25,0.850829991,0.01,0.0,-156148.0,0.0,0.0,-0.0,0.0,0.25,0.5419921320000001,0.01,0.0,12159.0,0.0,0.0,0.0,0.0,0.0,3.343505517,0.01,0.0,-31299.0,0.125,0.0,-0.0,0.0,0.125,1.627197099,0.01,0.0,0.27000001072883606,-0.5199999809265137,-105.70999908447266,-0.026611328125,0.0206298828125,1.05426025390625,36.54999923706055,0.0,-10.0,2.2364044189453125,-2.48638916015625,Closing,0.0,0.0,3.0,0.0,0.0,0.0,0.0,0.0,
0.7889180000000051,0.0,0.0,86839.0,0.0,0.0,0.0,0.0,0.25,0.850829991,0.01,0.0,-156148.0,0.0,0.0,-0.0,0.0,0.25,0.546874944,0.01,0.0,12159.0,0.0,0.0,0.0,0.0,0.0,3.342284814,0.01,0.0,-31299.0,0.125,0.0,-0.0,0.0,0.125,1.627197099,0.01,0.0,0.27000001072883606,-0.5099999904632568,-105.70999908447266,-0.033935546875,0.002197265625,1.0572509765625,36.54999923706055,0.0,9.0,2.2364044189453125,-2.48614501953125,Closing,0.0,0.0,3.0,0.0,0.0,0.0,0.0,0.0,
0.8935829999999841,0.0,0.0,86839.0,0.0,0.0,0.0,0.0,0.25,0.850829991,0.01,0.0,-156148.0,0.0,0.0,-0.0,0.0,0.25,0.546874944,0.01,0.0,12159.0,0.0,0.0,0.0,0.0,0.0,3.343505517,0.01,0.0,-31299.0,0.125,0.0,-0.0,0.0,0.125,1.625976396,0.01,0.0,0.27000001072883606,-0.5,-105.70999908447266,-0.0146484375,0.00537109375,1.00323486328125,36.54999923706055,0.0,1.0,2.2364044189453125,-2.486175537109375,Closing,0.0,0.0,3.0,0.0,0.0,0.0,0.0,0.125,
1.0082889999999898,0.0,0.0,86839.0,0.0,0.0,0.0,0.0,0.25,0.850829991,0.01,0.0,-156148.0,0.0,0.0,-0.0,0.0,0.25,0.546874944,0.01,0.0,12159.0,0.0,0.0,0.0,0.0,0.0,3.343505517,0.01,0.0,-31299.0,0.125,0.0,-0.0,0.0,0.125,1.627197099,0.01,0.0,0.2800000011920929,-0.5,-105.70999908447266,-0.01116943359375,0.0037841796875,1.03271484375,36.54999923706055,0.0,1.0,2.2364044189453125,-2.486175537109375,Closing,0.0,0.0,3.0,0.0,0.0,0.0,0.0,0.125,
1.1221079999999783,0.0,0.0,86839.0,0.0,0.0,0.0,0.0,0.25,0.850829991,0.01,0.0,-156148.0,0.0,0.0,-0.0,0.0,0.25,0.546874944,0.01,0.0,12159.0,0.0,0.0,0.0,0.0,0.0,3.343505517,0.01,0.0,-31299.0,0.125,0.0,-0.0,0.0,0.125,1.627197099,0.01,0.0,0.2800000011920929,-0.5,-105.70999908447266,-0.01605224609375,0.00543212890625,1.0364990234375,36.54999923706055,0.0,1.0,2.2364044189453125,-2.486175537109375,Closing,0.0,0.0,3.0,0.0,0.0,0.0,0.0,0.125,
1.2435409999999973,0.0,0.0,86839.0,0.0,0.0,0.0,0.0,0.25,0.850829991,0.01,0.0,-156148.0,0.0,0.0,-0.0,0.0,0.25,0.5419921320000001,0.01,0.0,12159.0,0.0,0.0,0.0,0.0,0.0,3.343505517,0.01,0.0,-31299.0,0.125,0.0,-0.0,0.0,0.125,1.627197099,0.01,0.0,0.28999999165534973,-0.49000000953674316,-105.70999908447266,-0.006591796875,0.00537109375,1.01763916015625,36.54999923706055,0.0,0.0,2.2364044189453125,-2.486175537109375,Closing,0.0,0.0,3.0,0.0,0.0,0.0,0.0,0.125,
1.5022599999999802,0.0,0.0,86839.0,0.0,0.0,0.0,0.0,0.25,0.850829991,0.01,0.0,-156148.0,0.0,0.0,-0.0,0.0,0.25,0.546874944,0.01,0.0,12159.0,0.0,0.0,0.0,0.0,0.0,3.343505517,0.01,0.0,-31299.0,0.125,0.0,-0.0,0.0,0.125,1.627197099,0.01,0.0,0.28999999165534973,-0.47999998927116394,-105.70999908447266,-0.00628662109375,0.0040283203125,1.02386474609375,36.529998779296875,0.0,0.0,2.2364044189453125,-2.486175537109375,Closing,0.0,0.0,3.0,0.0,0.0,0.0,0.0,0.125,
1.7435380000000005,0.0,0.0,86839.0,0.0,0.0,0.0,0.0,0.25,0.850829991,0.01,0.0,-156148.0,0.0,0.0,-0.0,0.0,0.25,0.545654241,0.01,0.0,12159.0,0.0,0.0,0.0,0.0,0.0,3.343505517,0.01,0.0,-31299.0,0.125,0.0,-0.0,0.0,0.125,1.627197099,0.01,0.0,0.28999999165534973,-0.4699999988079071,-105.70999908447266,-0.01043701171875,0.00421142578125,1.02142333984375,36.529998779296875,0.0,1.0,2.2364044189453125,-2.486175537109375,Closing,0.0,0.0,3.0,0.0,0.0,0.0,0.0,0.0,
2.010423999999999,0.0,0.0,86839.0,0.0,0.0,0.0,0.0,0.25,0.850829991,0.01,0.0,-156148.0,0.0,0.0,-0.0,0.0,0.25,0.5419921320000001,0.01,0.0,12159.0,0.0,0.0,0.0,0.0,0.0,3.343505517,0.01,0.0,-31299.0,0.125,0.0,-0.0,0.0,0.125,1.627197099,0.01,0.0,0.30000001192092896,-0.4699999988079071,-105.72000122070312,-0.0050048828125,0.0052490234375,1.02056884765625,36.54999923706055,0.0,0.0,2.2364044189453125,-2.486175537109375,Closing,0.0,0.0,3.0,0.0,0.0,0.0,0.0,0.0,
2.409353999999992,0.0,0.0,86839.0,0.0,0.0,0.0,0.0,0.25,0.849609288,0.01,0.0,-156148.0,0.0,0.0,-0.0,0.0,0.25,0.546874944,0.01,0.0,12159.0,0.0,0.0,0.0,0.0,0.0,3.342284814,0.01,0.0,-31299.0,0.125,0.0,-0.0,0.0,0.125,1.627197099,0.01,0.0,0.3100000023841858,-0.46000000834465027,-105.72000122070312,-0.00958251953125,0.00311279296875,1.0203857421875,36.54999923706055,0.0,2.0,2.2364044189453125,-2.486175537109375,Closing,0.0,0.0,3.0,0.0,0.0,0.0,0.0,0.125,
2.6016630000000003,0.0,0.0,86839.0,0.0,0.0,0.0,0.0,0.25,0.850829991,0.01,0.0,-156148.0,0.0,0.0,-0.0,0.0,0.25,0.546874944,0.01,0.0,12159.0,0.0,0.0,0.0,0.0,0.0,3.343505517,0.01,0.0,-31299.0,0.125,0.0,-0.0,0.0,0.125,1.6284178020000002,0.01,0.0,0.3100000023841858,-0.46000000834465027,-105.72000122070312,-0.0087890625,0.006103515625,1.01666259765625,36.540000915527344,0.0,0.0,2.2364044189453125,-2.486175537109375,Closing,0.0,0.0,3.0,0.0,0.0,0.0,0.0,0.125,
2.7351509999999837,0.0,0.0,86839.0,0.0,0.0,0.0,0.0,0.25,0.850829991,0.01,0.0,-156148.0,0.0,0.0,-0.0,0.0,0.25,0.5419921320000001,0.01,0.0,12159.0,0.0,0.0,0.0,0.0,0.0,3.343505517,0.01,0.0,-31299.0,0.125,0.0,-0.0,0.0,0.125,1.627197099,0.01,0.0,0.3199999928474426,-0.44999998807907104,-105.7300033569336,-0.01123046875,0.0035400390625,1.01971435546875,36.540000915527344,0.0,2.0,2.2364044189453125,-2.486175537109375,Closing,0.0,0.0,3.0,0.0,0.0,0.0,0.0,0.125,
2.8438120000000056,0.0,0.0,86839.0,0.0,0.0,0.0,0.0,0.25,0.850829991,0.01,0.0,-156148.0,0.0,0.0,-0.0,0.0,0.25,0.546874944,0.01,0.0,12159.0,0.0,0.0,0.0,0.0,0.0,3.343505517,0.01,0.0,-31299.0,0.125,0.0,-0.0,0.0,0.125,1.627197099,0.01,0.0,0.3199999928474426,-0.44999998807907104,-105.7300033569336,-0.0079345703125,0.006591796875,1.018310546875,36.540000915527344,0.0,0.0,2.2364044189453125,-2.486175537109375,Closing,0.0,0.0,3.0,0.0,0.0,0.0,0.0,0.125,
2.948152999999991,0.0,0.0,86839.0,0.0,0.0,0.0,0.0,0.25,0.849609288,0.01,0.0,-156148.0,0.0,0.0,-0.0,0.0,0.25,0.546874944,0.01,0.0024414059999999793,12159.0,0.0,0.0,0.0,0.0,0.0,3.343505517,0.01,0.0,-31299.0,0.125,0.0,-0.0,0.0,0.125,1.627197099,0.01,0.0,0.3199999928474426,-0.44999998807907104,-105.7300033569336,-0.01007080078125,0.006591796875,1.01934814453125,36.540000915527344,0.0,0.0,2.2364044189453125,-2.486175537109375,Closing,0.0,0.0,3.0,0.0,0.0,0.0,0.0,0.125,
3.0499739999999873,0.0,0.0,86839.0,0.0,0.0,0.0,0.0,0.25,0.850829991,0.01,0.0,-156148.0,0.0,0.0,-0.0,0.0,0.25,0.5419921320000001,0.01,-0.0012207030000004337,12159.0,0.0,0.0,0.0,0.0,0.0,3.343505517,0.01,0.0,-31299.0,0.125,0.0,-0.0,0.0,0.125,1.6284178020000002,0.01,0.0,0.3199999928474426,-0.44999998807907104,-105.7300033569336,-0.0079345703125,0.00775146484375,1.01806640625,36.540000915527344,0.0,-1.0,2.2364044189453125,-2.486175537109375,Closing,0.0,0.0,3.0,0.0,0.0,0.0,0.0,0.0,
3.1511579999999957,0.0,0.0,86839.0,0.0,0.0,0.0,0.0,0.25,0.849609288,0.01,0.0,-156148.0,0.0,0.0,-0.0,0.0,0.25,0.5419921320000001,0.01,0.0,12159.0,0.0,0.0,0.0,0.0,0.0,3.343505517,0.01,0.0,-31299.0,0.125,0.0,-0.0,0.0,0.125,1.627197099,0.01,0.0,0.3199999928474426,-0.44999998807907104,-105.7300033569336,-0.00640869140625,0.00494384765625,1.02337646484375,36.52000045776367,0.0,0.0,2.2364044189453125,-2.486175537109375,Closing,0.0,0.0,3.0,0.0,0.0,0.0,0.0,0.125,
3.257620999999985,0.0,0.0,86839.0,0.0,0.0,0.0,0.0,0.25,0.850829991,0.01,0.0,-156148.0,0.0,0.0,-0.0,0.0,0.25,0.5419921320000001,0.01,0.0,12159.0,0.0,0.0,0.0,0.0,0.0,3.343505517,0.01,0.0,-31299.0,0.125,0.0,-0.0,0.0,0.125,1.6284178020000002,0.01,0.0,0.3199999928474426,-0.46000000834465027,-105.7300033569336,-0.0059814453125,0.007080078125,1.0196533203125,36.52000045776367,0.0,-1.0,2.2364044189453125,-2.486175537109375,Closing,0.0,0.0,3.0,0.0,0.0,0.0,0.0,0.0,
3.365808999999979,0.0,0.0,86839.0,0.0,0.0,0.0,0.0,0.25,0.850829991,0.01,0.0,-156148.0,0.0,0.0,-0.0,0.0,0.25,0.5419921320000001,0.01,0.0,12159.0,0.0,0.0,0.0,0.0,0.0,3.343505517,0.01,0.0,-31299.0,0.125,0.0,-0.0,0.0,0.125,1.627197099,0.01,0.0,0.33000001311302185,-0.46000000834465027,-105.7300033569336,-0.009033203125,0.005859375,1.02239990234375,36.52000045776367,0.0,0.0,2.2364044189453125,-2.486175537109375,Closing,0.0,0.0,3.0,0.0,0.0,0.0,0.0,0.125,
3.471119000000006,0.0,0.0,86839.0,0.0,0.0,0.0,0.0,0.25,0.850829991,0.01,0.0,-156148.0,0.0,0.0,-0.0,0.0,0.25,0.546874944,0.01,0.0,12159.0,0.0,0.0,0.0,0.0,0.0,3.342284814,0.01,0.0,-31299.0,0.125,0.0,-0.0,0.0,0.125,1.627197099,0.01,0.0,0.33000001311302185,-0.46000000834465027,-105.73999786376953,-0.00775146484375,0.002685546875,1.0230712890625,36.52000045776367,0.0,3.0,2.2364044189453125,-2.486175537109375,Closing,0.0,0.0,3.0,0.0,0.0,0.0,0.0,0.125,
3.5831689999999945,0.0,0.0,86839.0,0.0,0.0,0.0,0.0,0.25,0.849609288,0.01,0.0,-156148.0,0.0,0.0,-0.0,0.0,0.125,0.5419921320000001,0.01,0.0,12159.0,0.0,0.0,0.0,0.0,0.0,3.343505517,0.01,0.0,-31299.0,0.125,0.0,-0.0,0.0,0.125,1.627197099,0.01,0.0,0.33000001311302185,-0.46000000834465027,-105.73999786376953,-0.0072021484375,0.00567626953125,1.02032470703125,36.52000045776367,0.0,0.0,2.2364044189453125,-2.486175537109375,Closing,0.0,0.0,3.0,0.0,0.0,0.0,0.0,0.0,
3.6908089999999794,0.0,0.0,86839.0,0.0,0.0,0.0,0.0,0.25,0.850829991,0.01,0.0,-156148.0,0.0,0.0,-0.0,0.0,0.25,0.545654241,0.01,0.0,12159.0,0.0,0.0,0.0,0.0,0.0,3.343505517,0.01,0.0,-31299.0,0.125,0.0,-0.0,0.0,0.125,1.627197099,0.01,0.0,0.33000001311302185,-0.46000000834465027,-105.73999786376953,-0.00665283203125,0.0062255859375,1.01910400390625,36.560001373291016,0.0,0.0,2.2364044189453125,-2.486175537109375,Closing,0.0,0.0,3.0,0.0,0.0,0.0,0.0,0.125,
3.796744000000006,0.0,0.0,86839.0,0.0,0.0,0.0,0.0,0.25,0.849609288,0.01,0.0,-156148.0,0.0,0.0,-0.0,0.0,0.125,0.5407714290000001,0.01,-0.0024414059999999793,12159.0,0.0,0.0,0.0,0.0,0.0,3.343505517,0.01,0.0,-31299.0,0.125,0.0,-0.0,0.0,0.125,1.627197099,0.01,0.0,0.3199999928474426,-0.44999998807907104,-105.73999786376953,-0.00640869140625,0.00494384765625,1.019287109375,36.560001373291016,0.0,0.0,2.2364044189453125,-2.486175537109375,Closing,0.0,0.0,3.0,0.0,0.0,0.0,0.0,0.0,
3.9050229999999866,0.0,0.0,86839.0,0.0,0.0,0.0,0.0,0.25,0.849609288,0.01,0.0,-156148.0,0.0,0.0,-0.0,0.0,0.25,0.5419921320000001,0.01,0.0,12159.0,0.0,0.0,0.0,0.0,0.0,3.342284814,0.01,0.0,-31299.0,0.125,0.0,-0.0,0.0,0.125,1.6284178020000002,0.01,0.0,0.3199999928474426,-0.44999998807907104,-105.73999786376953,-0.005615234375,0.0048828125,1.02105712890625,36.560001373291016,0.0,0.0,2.2364044189453125,-2.486175537109375,Closing,0.0,0.0,3.0,0.0,0.0,0.0,0.0,0.125,
4.0086410000000035,0.0,0.0,86839.0,0.0,0.0,0.0,0.0,0.25,0.850829991,0.01,0.0,-156148.0,0.0,0.0,-0.0,0.0,0.25,0.5419921320000001,0.01,0.0,12159.0,0.0,0.0,0.0,0.0,0.0,3.343505517,0.01,0.0,-31299.0,0.125,0.0,-0.0,0.0,0.125,1.627197099,0.01,0.0,0.33000001311302185,-0.44999998807907104,-105.73999786376953,-0.00732421875,0.0028076171875,1.01446533203125,36.560001373291016,0.0,2.0,2.2364044189453125,-2.486175537109375,Closing,0.0,0.0,3.0,0.0,0.0,0.0,0.0,0.0,
4.112255000000005,0.0,0.0,86839.0,0.0,0.0,0.0,0.0,0.25,0.850829991,0.01,0.0,-156148.0,0.0,0.0,-0.0,0.0,0.25,0.545654241,0.01,0.0,12159.0,0.0,0.0,0.0,0.0,0.0,3.343505517,0.01,0.0,-31299.0,0.125,0.0,-0.0,0.0,0.125,1.627197099,0.01,0.0,0.3199999928474426,-0.44999998807907104,-105.75,-0.00726318359375,0.0048828125,1.01654052734375,36.560001373291016,0.0,0.0,2.2364044189453125,-2.486175537109375,Closing,0.0,0.0,3.0,0.0,0.0,0.0,0.0,0.125,
4.214108999999997,0.0,0.0,86839.0,0.0,0.0,0.0,0.0,0.25,0.850829991,0.01,0.0,-156148.0,0.0,0.0,-0.0,0.0,0.25,0.546874944,0.01,0.0,12159.0,0.0,0.0,0.0,0.0,0.0,3.343505517,0.01,0.0,-31299.0,0.125,0.0,-0.0,0.0,0.125,1.6284178020000002,0.01,0.0,0.3199999928474426,-0.44999998807907104,-105.75,-0.0072021484375,0.0052490234375,1.01629638671875,36.54999923706055,0.0,0.0,2.2364044189453125,-2.486175537109375,Closing,0.0,0.0,3.0,0.0,0.0,0.0,0.0,0.0,
4.315675999999978,0.0,0.0,86839.0,0.0,0.0,0.0,0.0,0.25,0.850829991,0.01,0.0,-156148.0,0.0,0.0,-0.0,0.0,0.25,0.5419921320000001,0.01,0.0,12159.0,0.0,0.0,0.0,0.0,0.0,3.34472622,0.01,0.0,-31299.0,0.125,0.0,-0.0,0.0,0.125,1.6284178020000002,0.01,0.0,0.3199999928474426,-0.44999998807907104,-105.75,-0.00665283203125,0.002197265625,1.01971435546875,36.54999923706055,0.0,3.0,2.2364044189453125,-2.486175537109375,Closing,0.0,0.0,3.0,0.0,0.0,0.0,0.0,0.0,
4.418338999999978,0.0,0.0,86839.0,0.0,0.0,0.0,0.0,0.25,0.849609288,0.01,0.0,-156148.0,0.0,0.0,-0.0,0.0,0.25,0.546874944,0.01,0.0,12159.0,0.0,0.0,0.0,0.0,0.0,3.343505517,0.01,0.0,-31299.0,0.0,0.0,-0.0,0.0,0.125,1.627197099,0.01,0.0,0.3199999928474426,-0.44999998807907104,-105.75,-0.0057373046875,0.0057373046875,1.02142333984375,36.54999923706055,0.0,0.0,2.2364044189453125,-2.486175537109375,Closing,0.0,0.0,3.0,0.0,0.0,0.0,0.0,0.0,
4.528914999999979,0.0,0.0,86839.0,0.0,0.0,0.0,0.0,0.25,0.850829991,0.01,0.0,-156148.0,0.0,0.0,-0.0,0.0,0.25,0.5419921320000001,0.01,0.0,12159.0,0.0,0.0,0.0,0.0,0.0,3.343505517,0.01,0.0,-31299.0,0.125,0.0,-0.0,0.0,0.125,1.627197099,0.01,0.0,0.4000000059604645,-0.4000000059604645,-105.7699966430664,-0.052490234375,-0.09033203125,1.02825927734375,36.54999923706055,0.0,106.0,2.2361907958984375,-2.486175537109375,Closing,0.0,0.0,3.0,0.0,0.0,0.0,0.0,0.125,
4.635411999999982,0.0,0.0,86839.0,0.0,0.0,0.0,0.0,0.25,0.850829991,0.01,0.0,-156148.0,0.0,0.0,-0.0,0.0,0.125,0.546874944,0.01,0.0,12159.0,0.0,0.0,0.0,0.0,0.0,3.343505517,0.01,0.0,-31299.0,0.125,0.0,-0.0,0.0,0.125,1.6284178020000002,0.01,0.0,0.33000001311302185,-0.46000000834465027,-105.76000213623047,-0.00421142578125,0.07257080078125,1.0863037109375,36.54999923706055,0.0,-64.0,2.23614501953125,-2.4863739013671875,Closing,0.0,0.0,3.0,0.0,0.0,0.0,0.0,0.125,
4.74322199999998,0.0,0.0,86839.0,0.0,0.0,0.0,0.0,0.25,0.850829991,0.01,0.0,-156148.0,0.0,0.0,-0.0,0.0,0.25,0.546874944,0.01,0.0,12159.0,0.0,0.0,0.0,0.0,0.0,3.342284814,0.01,0.0,-31299.0,0.125,0.0,-0.0,0.0,0.125,1.627197099,0.01,0.0,0.30000001192092896,-0.44999998807907104,-105.75,-0.0086669921875,0.0157470703125,1.00152587890625,36.529998779296875,0.0,-9.0,2.2354736328125,-2.4863739013671875,Closing,0.0,0.0,3.0,0.0,0.0,0.0,0.0,0.0,
4.859153999999981,0.0,0.0,86839.0,0.0,0.0,0.0,0.0,0.25,0.850829991,0.01,0.0,-156148.0,0.0,0.0,-0.0,0.0,0.25,0.5419921320000001,0.01,0.0,12159.0,0.0,0.0,0.0,0.0,0.0,3.343505517,0.01,0.0,-31299.0,0.0,0.0,-0.0,0.0,0.125,1.627197099,0.01,0.0,0.3199999928474426,-0.4399999976158142,-105.75,0.00152587890625,-0.0106201171875,1.00445556640625,36.529998779296875,0.0,13.0,2.2353363037109375,-2.486480712890625,Closing,0.0,0.0,3.0,0.0,0.0,0.0,0.0,0.125,
4.964915999999997,0.0,0.0,86839.0,0.0,0.0,0.0,0.0,0.25,0.850829991,0.01,0.0,-156148.0,0.0,0.0,-0.0,0.0,0.25,0.546874944,0.01,0.0,12159.0,0.0,0.0,0.0,0.0,0.0,3.343505517,0.01,0.0,-31299.0,0.125,0.0,-0.0,0.0,0.125,1.627197099,0.01,0.0,0.3400000035762787,-0.46000000834465027,-105.75,-0.0048828125,0.0081787109375,1.0208740234375,36.529998779296875,0.0,-2.0,2.2354278564453125,-2.486480712890625,Closing,0.0,0.0,3.0,0.0,0.0,0.0,0.0,0.0,
5.068299999999988,0.0,0.0,86839.0,0.0,0.0,0.0,0.0,0.25,0.850829991,0.01,0.0,-156148.0,0.0,0.0,-0.0,0.0,0.25,0.545654241,0.01,0.0,12159.0,0.0,0.0,0.0,0.0,0.0,3.343505517,0.01,0.0,-31299.0,0.125,0.0,-0.0,0.0,0.125,1.627197099,0.01,0.0,0.33000001311302185,-0.4099999964237213,-105.73999786376953,0.0743408203125,-0.080078125,0.89013671875,36.529998779296875,0.0,60.0,2.235443115234375,-2.486114501953125,Closing,0.0,0.0,3.0,0.0,0.0,0.0,0.0,0.0,
5.170886999999988,0.0,0.0,86839.0,0.0,0.0,0.0,0.0,0.25,0.850829991,0.01,0.0,-156148.0,0.0,0.0,-0.0,0.0,0.25,0.5419921320000001,0.01,0.0,12159.0,0.0,0.0,0.0,0.0,0.0,3.34472622,0.01,0.0,-31299.0,0.125,0.0,-0.0,0.0,0.125,1.6284178020000002,0.01,0.0,0.33000001311302185,-0.44999998807907104,-105.7699966430664,0.05523681640625,-0.05316162109375,0.8695068359375,36.54999923706055,0.0,39.0,2.2346649169921875,-2.4857635498046875,Closing,0.0,0.0,3.0,0.0,0.0,0.0,0.0,0.125,
5.273619999999996,0.0,0.0,86839.0,0.0,0.0,0.0,0.0,0.25,0.849609288,0.01,0.0,-156148.0,0.0,0.0,-0.0,0.0,0.125,0.5419921320000001,0.01,0.0,12158.0,0.0,-7.5,0.0,0.0,0.0,3.34472622,0.01,0.0,-31299.0,0.125,0.0,-0.0,0.0,0.125,1.6284178020000002,0.01,0.0,0.4099999964237213,-0.49000000953674316,-105.76000213623047,-0.0833740234375,0.0394287109375,1.10980224609375,36.54999923706055,0.0,-10.0,2.2339935302734375,-2.486114501953125,Closing,0.0,0.0,3.0,0.0,0.0,0.0,0.0,0.0,
5.379930999999982,0.0,0.0,86839.0,0.0,0.0,0.0,0.0,0.25,0.850829991,0.01,0.0,-156148.0,0.0,0.0,-0.0,0.0,0.125,0.5419921320000001,0.01,0.0,12158.0,0.0,0.0,0.0,0.0,0.0,3.34472622,0.01,0.0,-31299.0,0.125,0.0,-0.0,0.0,0.125,1.6284178020000002,0.01,0.0,0.36000001430511475,-0.46000000834465027,-105.75,-0.0604248046875,0.04345703125,1.17584228515625,36.54999923706055,0.0,-20.0,2.2338104248046875,-2.48712158203125,Closing,0.0,0.0,3.0,0.0,0.0,0.0,0.0,0.125,
5.487437000000005,0.0,0.0,86839.0,0.0,0.0,0.0,0.0,0.25,0.850829991,0.01,0.0,-156148.0,0.0,0.0,-0.0,0.0,0.125,0.5419921320000001,0.01,0.0,12158.0,0.0,0.0,0.0,0.0,0.0,3.343505517,0.01,0.0,-31299.0,0.125,0.0,-0.0,0.0,0.125,1.627197099,0.01,0.0,0.3400000035762787,-0.44999998807907104,-105.7699966430664,-0.0360107421875,0.0384521484375,1.12591552734375,36.54999923706055,0.0,-23.0,2.233917236328125,-2.4885101318359375,Closing,0.0,0.0,3.0,0.0,0.0,0.0,0.0,0.0,
5.589337999999989,0.0,0.0,86839.0,0.0,0.0,0.0,0.0,0.25,0.850829991,0.01,0.0,-156148.0,0.0,0.0,-0.0,0.0,0.125,0.5419921320000001,0.01,0.0,12158.0,0.0,0.0,0.0,0.0,0.0,3.342284814,0.01,0.0,-31299.0,0.125,0.0,-0.0,0.0,0.125,1.6284178020000002,0.01,0.0,0.3400000035762787,-0.3799999952316284,-105.75,-0.118896484375,-0.12457275390625,0.89935302734375,36.54999923706055,0.0,155.0,2.2341461181640625,-2.489654541015625,Closing,0.0,0.0,3.0,0.0,0.0,0.0,0.0,0.125,
5.693187999999995,0.0,0.0,86839.0,0.0,0.0,0.0,0.0,0.25,0.849609288,0.01,0.0,-156148.0,0.0,0.0,-0.0,0.0,0.125,0.5407714290000001,0.01,0.0,12158.0,0.0,0.0,0.0,0.0,0.0,3.343505517,0.01,0.0,-31299.0,0.125,0.0,-0.0,0.0,0.125,1.627197099,0.01,0.0,0.3199999928474426,-0.38999998569488525,-105.75,-6.103515625E-5,0.0081787109375,1.014404296875,36.54999923706055,0.0,-4.0,2.23675537109375,-2.4940338134765625,Closing,0.0,0.0,3.0,0.0,0.0,0.0,0.0,0.0,
5.805441999999981,0.0,0.0,86839.0,0.0,0.0,0.0,0.0,0.25,0.850829991,0.01,0.0,-156148.0,0.0,0.0,-0.0,0.0,0.125,0.5407714290000001,0.01,0.0,12158.0,0.0,0.0,0.0,0.0,0.0,3.34472622,0.01,0.0,-31299.0,0.125,0.0,-0.0,0.0,0.125,1.627197099,0.01,0.0,0.27000001072883606,-0.41999998688697815,-105.75,0.01318359375,0.0408935546875,0.9658203125,36.54999923706055,0.0,-40.0,2.2371063232421875,-2.4944915771484375,Closing,0.0,0.0,3.0,0.0,0.0,0.0,0.0,0.0,
5.908427999999986,0.0,0.0,86839.0,0.0,0.0,0.0,0.0,0.25,0.850829991,0.01,0.0,-156148.0,0.0,0.0,-0.0,0.0,0.125,0.5407714290000001,0.01,0.0,12158.0,0.0,0.0,0.0,0.0,0.0,3.34472622,0.01,0.0,-31299.0,0.125,0.0,-0.0,0.0,0.125,1.627197099,0.01,0.0,0.28999999165534973,-0.4300000071525574,-105.7300033569336,-0.01483154296875,-0.0635986328125,1.0526123046875,36.54999923706055,0.0,68.0,2.2353668212890625,-2.494659423828125,Closing,0.0,0.0,3.0,0.0,0.0,0.0,0.0,0.0,
6.013528999999981,0.0,0.0,86839.0,0.0,0.0,0.0,0.0,0.25,0.850829991,0.01,0.0,-156148.0,0.0,0.0,-0.0,0.0,0.125,0.5419921320000001,0.01,0.0,12158.0,0.0,0.0,0.0,0.0,0.0,3.34472622,0.01,0.0,-31299.0,0.125,0.0,-0.0,0.0,0.125,1.627197099,0.01,0.0,0.3199999928474426,-0.41999998688697815,-105.77999877929688,-0.00482177734375,0.02874755859375,0.9891357421875,36.54999923706055,0.0,-22.0,2.235015869140625,-2.494659423828125,Closing,0.0,0.0,3.0,0.0,0.0,0.0,0.0,0.125,
6.127410999999992,0.0,0.0,86839.0,0.0,0.0,0.0,0.0,0.25,0.850829991,0.01,0.0,-156148.0,0.0,0.0,-0.0,0.0,0.125,0.5419921320000001,0.01,0.0,12158.0,0.0,0.0,0.0,0.0,0.0,3.342284814,0.01,0.0,-31299.0,0.125,0.0,-0.0,0.0,0.125,1.627197099,0.01,0.0,0.30000001192092896,-0.4300000071525574,-105.77999877929688,-0.02569580078125,-0.01080322265625,1.03802490234375,36.54999923706055,0.0,20.0,2.2339935302734375,-2.494537353515625,Closing,0.0,0.0,3.0,0.0,0.0,0.0,0.0,0.0,
6.2299809999999995,0.0,0.0,86839.0,0.0,0.0,0.0,0.0,0.25,0.849609288,0.01,0.0,-156148.0,0.0,0.0,-0.0,0.0,0.125,0.5419921320000001,0.01,0.0,12158.0,0.0,0.0,0.0,0.0,0.0,3.343505517,0.01,0.0,-31299.0,0.125,0.0,-0.0,0.0,0.125,1.627197099,0.01,0.0,0.28999999165534973,-0.4399999976158142,-105.7699966430664,-0.0010986328125,0.03125,1.0072021484375,36.540000915527344,0.0,-26.0,2.23529052734375,-2.494537353515625,Closing,0.0,0.0,3.0,0.0,0.0,0.0,0.0,0.125,
6.334202999999979,0.0,0.0,86839.0,0.0,0.0,0.0,0.0,0.25,0.850829991,0.01,0.0,-156148.0,0.0,0.0,-0.0,0.0,0.125,0.5419921320000001,0.01,0.0,12158.0,0.0,0.0,0.0,0.0,0.0,3.343505517,0.01,0.0,-31299.0,0.0,0.0,-0.0,0.0,0.125,1.627197099,0.01,0.0,0.3100000023841858,-0.4399999976158142,-105.7699966430664,0.0093994140625,-0.01092529296875,0.99658203125,36.540000915527344,0.0,11.0,2.235565185546875,-2.4944610595703125,Closing,0.0,0.0,3.0,0.0,0.0,0.0,0.0,0.125,
6.4349729999999985,0.0,0.0,86839.0,0.0,0.0,0.0,0.0,0.25,0.850829991,0.01,0.0,-156148.0,0.0,0.0,-0.0,0.0,0.125,0.5419921320000001,0.01,0.0,12158.0,0.0,0.0,0.0,0.0,0.0,3.343505517,0.01,0.0,-31299.0,0.125,0.0,-0.0,0.0,0.125,1.627197099,0.01,0.0,0.3100000023841858,-0.44999998807907104,-105.77999877929688,-0.01141357421875,0.015380859375,1.02117919921875,36.540000915527344,0.0,-8.0,2.2364654541015625,-2.494384765625,Closing,0.0,0.0,3.0,0.0,0.0,0.0,0.0,0.125,
6.54375,0.0,0.0,86839.0,0.0,0.0,0.0,0.0,0.25,0.849609288,0.01,0.0,-156148.0,0.0,0.0,-0.0,0.0,0.125,0.5419921320000001,0.01,0.0,12158.0,0.0,0.0,0.0,0.0,0.0,3.342284814,0.01,0.0,-31299.0,0.125,0.0,-0.0,0.0,0.125,1.627197099,0.01,0.0,0.28999999165534973,-0.4399999976158142,-105.77999877929688,0.00341796875,0.04229736328125,1.0252685546875,36.540000915527344,0.0,-38.0,2.235626220703125,-2.494384765625,Closing,0.0,0.0,3.0,0.0,0.0,0.0,0.0,0.125,
6.657356999999989,0.0,0.0,86839.0,0.0,0.0,0.0,0.0,0.25,0.849609288,0.01,0.0,-156148.0,0.0,0.0,-0.0,0.0,0.125,0.5419921320000001,0.01,0.0,12158.0,0.0,0.0,0.0,0.0,0.0,3.343505517,0.01,0.0,-31299.0,0.125,0.0,-0.0,0.0,0.125,1.627197099,0.01,0.0,0.3100000023841858,-0.4399999976158142,-105.77999877929688,-0.01220703125,-0.001220703125,1.0250244140625,36.540000915527344,0.0,7.0,2.2362060546875,-2.494384765625,Closing,0.0,0.0,3.0,0.0,0.0,0.0,0.0,0.125,
6.762086999999999,0.0,0.0,86839.0,0.0,0.0,0.0,0.0,0.25,0.849609288,0.01,0.0,-156148.0,0.0,0.0,-0.0,0.0,0.125,0.5419921320000001,0.01,0.0,12158.0,0.0,0.0,0.0,0.0,0.0,3.343505517,0.01,0.0,-31299.0,0.125,0.0,-0.0,0.0,0.125,1.627197099,0.01,0.0,0.3100000023841858,-0.44999998807907104,-105.77999877929688,-0.0054931640625,0.052734375,1.02703857421875,36.529998779296875,0.0,-45.0,2.2353515625,-2.494384765625,Closing,0.0,0.0,3.0,0.0,0.0,0.0,0.0,0.125,
6.8674679999999935,0.0,0.0,86839.0,0.0,0.0,0.0,0.0,0.25,0.850829991,0.01,0.0,-156148.0,0.0,0.0,-0.0,0.0,0.125,0.5419921320000001,0.01,0.0,12158.0,0.0,0.0,0.0,0.0,0.0,3.342284814,0.01,0.0,-31299.0,0.125,0.0,-0.0,0.0,0.125,1.627197099,0.01,0.0,0.33000001311302185,-0.4399999976158142,-105.79000091552734,-0.0157470703125,-0.05023193359375,1.05072021484375,36.529998779296875,0.0,56.0,2.23516845703125,-2.494384765625,Closing,0.0,0.0,3.0,0.0,0.0,0.0,0.0,0.125,
6.9675259999999835,0.0,0.0,86839.0,0.0,0.0,0.0,0.0,0.25,0.849609288,0.01,0.0,-156148.0,0.0,0.0,-0.0,0.0,0.125,0.5419921320000001,0.01,0.0,12158.0,0.0,0.0,0.0,0.0,0.0,3.343505517,0.01,0.0,-31299.0,0.125,0.0,-0.0,0.0,0.125,1.6284178020000002,0.01,0.0,0.3100000023841858,-0.44999998807907104,-105.79000091552734,0.00103759765625,0.048828125,1.03558349609375,36.529998779296875,0.0,-44.0,2.2366790771484375,-2.494384765625,Closing,0.0,0.0,3.0,0.0,0.0,0.0,0.0,0.125,
7.073269,0.0,0.0,86839.0,0.0,0.0,0.0,0.0,0.25,0.849609288,0.01,0.0,-156148.0,0.0,0.0,-0.0,0.0,0.125,0.5419921320000001,0.01,0.0,12158.0,0.0,0.0,0.0,0.0,0.0,3.343505517,0.01,0.0,-31299.0,0.125,0.0,-0.0,0.0,0.125,1.6284178020000002,0.01,0.0,0.3400000035762787,-0.44999998807907104,-105.79000091552734,-0.0250244140625,-0.05035400390625,1.0509033203125,36.529998779296875,0.0,59.0,2.2370147705078125,-2.494384765625,Closing,0.0,0.0,3.0,0.0,0.0,0.0,0.0,0.125,
7.180016999999992,0.0,0.0,86839.0,0.0,0.0,0.0,0.0,0.25,0.850829991,0.01,0.0,-156148.0,0.0,0.0,-0.0,0.0,0.125,0.5419921320000001,0.01,0.0,12158.0,0.0,0.0,0.0,0.0,0.0,3.343505517,0.01,0.0,-31299.0,0.125,0.0,-0.0,0.0,0.125,1.627197099,0.01,0.0,0.3199999928474426,-0.4300000071525574,-105.79000091552734,-0.004150390625,0.0406494140625,1.01702880859375,36.529998779296875,0.0,-34.0,2.237060546875,-2.494384765625,Closing,0.0,0.0,3.0,0.0,0.0,0.0,0.0,0.0,
7.286100000000006,0.0,0.0,86839.0,0.0,0.0,0.0,0.0,0.25,0.850829991,0.01,0.0,-156148.0,0.0,0.0,-0.0,0.0,0.125,0.5419921320000001,0.01,0.0,12158.0,0.0,0.0,0.0,0.0,0.0,3.343505517,0.01,0.0,-31299.0,0.125,0.0,-0.0,0.0,0.125,1.627197099,0.01,0.0,0.33000001311302185,-0.44999998807907104,-105.79000091552734,-0.03460693359375,-0.03173828125,1.03204345703125,36.54999923706055,0.0,43.0,2.236358642578125,-2.494384765625,Closing,0.0,0.0,3.0,0.0,0.0,0.0,0.0,0.125,
7.391054000000004,0.0,0.0,86839.0,0.0,0.0,0.0,0.0,0.25,0.850829991,0.01,0.0,-156148.0,0.0,0.0,-0.0,0.0,0.125,0.5407714290000001,0.01,0.0,12158.0,0.0,0.0,0.0,0.0,0.0,3.342284814,0.01,0.0,-31299.0,0.125,0.0,-0.0,0.0,0.125,1.627197099,0.01,0.0,0.33000001311302185,-0.4399999976158142,-105.79000091552734,-0.00958251953125,-0.009765625,1.0072021484375,36.54999923706055,0.0,15.0,2.2380218505859375,-2.494384765625,Closing,0.0,0.0,3.0,0.0,0.0,0.0,0.0,0.125,
7.566818,0.0,0.0,86839.0,0.0,0.0,0.0,0.0,0.25,0.850829991,0.01,0.0,-156148.0,0.0,0.0,-0.0,0.0,0.125,0.5419921320000001,0.01,0.0,12158.0,0.0,0.0,0.0,0.0,0.0,3.343505517,0.01,0.0,-31299.0,0.125,0.0,-0.0,0.0,0.125,1.627197099,0.01,0.0,0.3199999928474426,-0.4399999976158142,-105.80000305175781,-4.8828125E-4,0.0205078125,1.0223388671875,36.54999923706055,0.0,-16.0,2.23992919921875,-2.494384765625,Closing,0.0,0.0,3.0,0.0,0.0,0.0,0.0,0.0,
7.750788000000001,0.0,0.0,86839.0,0.0,0.0,0.0,0.0,0.25,0.850829991,0.01,0.0,-156148.0,0.0,0.0,-0.0,0.0,0.125,0.5419921320000001,0.01,0.0,12158.0,0.0,0.0,0.0,0.0,0.0,3.343505517,0.01,0.0,-31299.0,0.125,0.0,-0.0,0.0,0.125,1.627197099,0.01,0.0,0.3400000035762787,-0.4399999976158142,-105.80999755859375,-0.0120849609375,0.02032470703125,1.02166748046875,36.560001373291016,0.0,-12.0,2.2410736083984375,-2.4944915771484375,Closing,0.0,0.0,3.0,0.0,0.0,0.0,0.0,0.125,
7.879828999999998,0.0,0.0,86839.0,0.0,0.0,0.0,0.0,0.25,0.849609288,0.01,0.0,-156148.0,0.0,0.0,-0.0,0.0,0.125,0.5407714290000001,0.01,0.0,12158.0,0.0,0.0,0.0,0.0,0.0,3.343505517,0.01,0.0,-31299.0,0.125,0.0,-0.0,0.0,0.125,1.6284178020000002,0.01,0.0,0.3199999928474426,-0.4399999976158142,-105.81999969482422,-0.014404296875,-0.01177978515625,1.0167236328125,36.560001373291016,0.0,18.0,2.240814208984375,-2.4944915771484375,Closing,0.0,0.0,3.0,0.0,0.0,0.0,0.0,0.0,
8.262449999999983,0.0,0.0,86839.0,0.0,0.0,0.0,0.0,0.25,0.850829991,0.01,0.0,-156148.0,0.0,0.0,-0.0,0.0,0.125,0.5419921320000001,0.01,0.0,12158.0,0.0,0.0,0.0,0.0,0.0,3.342284814,0.01,0.0,-31299.0,0.125,0.0,-0.0,0.0,0.125,1.6284178020000002,0.01,0.0,0.33000001311302185,-0.44999998807907104,-105.81999969482422,-0.02984619140625,-0.04058837890625,1.0350341796875,36.529998779296875,0.0,50.0,2.2410888671875,-2.4944915771484375,Closing,0.0,0.0,3.0,0.0,0.0,0.0,0.0,0.0,
8.470953999999997,0.0,0.0,86839.0,0.0,0.0,0.0,0.0,0.25,0.850829991,0.01,0.0,-156148.0,0.0,0.0,-0.0,0.0,0.125,0.5407714290000001,0.01,0.0,12158.0,0.0,0.0,0.0,0.0,0.0,3.343505517,0.01,0.0,-31299.0,0.125,0.0,-0.0,0.0,0.125,1.6284178020000002,0.01,0.0,0.33000001311302185,-0.44999998807907104,-105.81999969482422,-0.0078125,0.0196533203125,1.00445556640625,36.529998779296875,0.0,-13.0,2.2434234619140625,-2.49462890625,Closing,0.0,0.0,3.0,0.0,0.0,0.0,0.0,0.125,
8.735130000000005,0.0,0.0,86839.0,0.0,0.0,0.0,0.0,0.25,0.849609288,0.01,0.0,-156148.0,0.0,0.0,-0.0,0.0,0.125,0.5419921320000001,0.01,0.0,12158.0,0.0,0.0,0.0,0.0,0.0,3.343505517,0.01,0.0,-31299.0,0.125,0.0,-0.0,0.0,0.125,1.627197099,0.01,0.0,0.3199999928474426,-0.44999998807907104,-105.83000183105469,-0.01007080078125,0.0155029296875,0.9940185546875,36.540000915527344,0.0,-8.0,2.2436065673828125,-2.4945526123046875,Closing,0.0,0.0,3.0,0.0,0.0,0.0,0.0,0.0,
8.944696999999985,0.0,0.0,86839.0,0.0,0.0,0.0,0.0,0.25,0.849609288,0.01,0.0,-156148.0,0.0,0.0,-0.0,0.0,0.125,0.5419921320000001,0.01,0.0,12158.0,0.0,0.0,0.0,0.0,0.0,3.342284814,0.01,0.0,-31299.0,0.125,0.0,-0.0,0.0,0.125,1.627197099,0.01,0.0,0.33000001311302185,-0.44999998807907104,-105.83000183105469,-0.00927734375,-0.02392578125,1.02899169921875,36.540000915527344,0.0,29.0,2.2450103759765625,-2.4945526123046875,Closing,0.0,0.0,3.0,0.0,0.0,0.0,0.0,0.0,
9.127459000000002,0.0,0.0,86839.0,0.0,0.0,0.0,0.0,0.25,0.850829991,0.01,0.0,-156148.0,0.0,0.0,-0.0,0.0,0.125,0.5419921320000001,0.01,0.0,12158.0,0.0,0.0,0.0,0.0,0.0,3.343505517,0.01,0.0,-31299.0,0.125,0.0,-0.0,0.0,0.125,1.627197099,0.01,0.0,0.3100000023841858,-0.44999998807907104,-105.83000183105469,0.004638671875,0.0277099609375,1.05340576171875,36.540000915527344,0.0,-24.0,2.246002197265625,-2.4945526123046875,Closing,0.0,0.0,3.0,0.0,0.0,0.0,0.0,0.0,
9.231619000000006,0.0,0.0,86839.0,0.0,0.0,0.0,0.0,0.25,0.850829991,0.01,0.0,-156148.0,0.0,0.0,-0.0,0.0,0.125,0.5419921320000001,0.01,0.0,12158.0,0.0,0.0,0.0,0.0,0.0,3.343505517,0.01,0.0,-31299.0,0.125,0.0,-0.0,0.0,0.125,1.627197099,0.01,0.0,0.33000001311302185,-0.44999998807907104,-105.83000183105469,-0.00885009765625,-0.03424072265625,1.030517578125,36.540000915527344,0.0,38.0,2.246673583984375,-2.494659423828125,Closing,0.0,0.0,3.0,0.0,0.0,0.0,0.0,0.0,
9.334256999999983,0.0,0.0,86839.0,0.0,0.0,0.0,0.0,0.25,0.850829991,0.01,0.0,-156148.0,0.0,0.0,-0.0,0.0,0.125,0.5419921320000001,0.01,0.0,12158.0,0.0,0.0,0.0,0.0,0.0,3.34472622,0.01,0.0,-31299.0,0.125,0.0,-0.0,0.0,0.125,1.627197099,0.01,0.0,0.3100000023841858,-0.46000000834465027,-105.83999633789062,6.7138671875E-4,0.0325927734375,1.0552978515625,36.540000915527344,0.0,-28.0,2.2478485107421875,-2.494659423828125,Closing,0.0,0.0,3.0,0.0,0.0,0.0,0.0,0.125,
9.435802999999986,0.0,0.0,86839.0,0.0,0.0,0.0,0.0,0.25,0.850829991,0.01,0.0,-156148.0,0.0,0.0,-0.0,0.0,0.125,0.5419921320000001,0.01,0.0,12158.0,0.0,0.0,0.0,0.0,0.0,3.343505517,0.01,0.0,-31299.0,0.125,0.0,-0.0,0.0,0.125,1.627197099,0.01,0.0,0.3100000023841858,-0.44999998807907104,-105.83999633789062,-0.00897216796875,-2.44140625E-4,1.00347900390625,36.540000915527344,0.0,5.0,2.2486419677734375,-2.494659423828125,Closing,0.0,0.0,3.0,0.0,0.0,0.0,0.0,0.125,
9.549462,0.0,0.0,86839.0,0.0,0.0,0.0,0.0,0.25,0.850829991,0.01,0.0,-156148.0,0.0,0.0,-0.0,0.0,0.125,0.5419921320000001,0.01,0.0,12158.0,0.0,0.0,0.0,0.0,0.0,3.342284814,0.01,0.0,-31299.0,0.125,0.0,-0.0,0.0,0.125,1.627197099,0.01,0.0,0.3199999928474426,-0.46000000834465027,-105.83999633789062,0.00225830078125,0.0128173828125,1.04400634765625,36.540000915527344,0.0,-9.0,2.247589111328125,-2.494659423828125,Closing,0.0,0.0,3.0,0.0,0.0,0.0,0.0,0.125,
9.653410999999993,0.0,0.0,86839.0,0.0,0.0,0.0,0.0,0.25,0.850829991,0.01,0.0,-156148.0,0.0,0.0,-0.0,0.0,0.125,0.5419921320000001,0.01,0.0,12158.0,0.0,0.0,0.0,0.0,0.0,3.343505517,0.01,0.0,-31299.0,0.125,0.0,-0.0,0.0,0.125,1.627197099,0.01,0.0,0.33000001311302185,-0.46000000834465027,-105.83000183105469,-0.01806640625,-0.04010009765625,1.04510498046875,36.540000915527344,0.0,47.0,2.2477264404296875,-2.494659423828125,Closing,0.0,0.0,3.0,0.0,0.0,0.0,0.0,0.125,
9.759949999999982,0.0,0.0,86839.0,0.0,0.0,0.0,0.0,0.25,0.850829991,0.01,0.0,-156148.0,0.0,0.0,-0.0,0.0,0.125,0.5407714290000001,0.01,0.0,12158.0,0.0,0.0,0.0,0.0,0.0,3.34472622,0.01,0.0,-31299.0,0.125,0.0,-0.0,0.0,0.125,1.627197099,0.01,0.0,0.30000001192092896,-0.46000000834465027,-105.83999633789062,0.00115966796875,0.04052734375,1.04156494140625,36.529998779296875,0.0,-36.0,2.2489013671875,-2.494659423828125,Closing,0.0,0.0,3.0,0.0,0.0,0.0,0.0,0.0,
9.86372199999998,0.0,0.0,86839.0,0.0,0.0,0.0,0.0,0.25,0.850829991,0.01,0.0,-156148.0,0.0,0.0,-0.0,0.0,0.125,0.5419921320000001,0.01,0.0,12158.0,0.0,0.0,0.0,0.0,0.0,3.343505517,0.01,0.0,-31299.0,0.125,0.0,-0.0,0.0,0.125,1.627197099,0.01,0.0,0.3199999928474426,-0.46000000834465027,-105.83999633789062,-0.02862548828125,-0.03436279296875,1.04345703125,36.529998779296875,0.0,44.0,2.2490997314453125,-2.494659423828125,Closing,0.0,0.0,3.0,0.0,0.0,0.0,0.0,0.125,
9.968225999999994,0.0,0.0,86839.0,0.0,0.0,0.0,0.0,0.25,0.850829991,0.01,0.0,-156148.0,0.0,0.0,-0.0,0.0,0.125,0.5419921320000001,0.01,0.0,12158.0,0.0,0.0,0.0,0.0,0.0,3.343505517,0.01,0.0,-31299.0,0.125,0.0,-0.0,0.0,0.125,1.627197099,0.01,0.0,0.30000001192092896,-0.46000000834465027,-105.83999633789062,-0.005859375,0.021728515625,1.00408935546875,36.529998779296875,0.0,-16.0,2.2492218017578125,-2.494659423828125,Closing,0.0,0.0,3.0,0.0,0.0,0.0,0.0,0.125,
10.07167199999999,0.0,0.0,86839.0,0.0,0.0,0.0,0.0,0.25,0.852050694,0.01,0.0,-156148.0,0.0,0.0,-0.0,0.0,0.125,0.5407714290000001,0.01,0.0,12158.0,0.0,0.0,0.0,0.0,0.0,3.342284814,0.01,0.0,-31299.0,0.125,0.0,-0.0,0.0,0.125,1.627197099,0.01,0.0,0.3199999928474426,-0.46000000834465027,-105.83999633789062,-0.03759765625,-0.02679443359375,1.02825927734375,36.529998779296875,0.0,39.0,2.248748779296875,-2.4947509765625,Closing,0.0,0.0,3.0,0.0,0.0,0.0,0.0,0.125,
10.175376999999978,0.0,0.0,86839.0,0.0,0.0,0.0,0.0,0.25,0.850829991,0.01,0.0,-156148.0,0.0,0.0,-0.0,0.0,0.125,0.5419921320000001,0.01,0.0,12158.0,0.0,0.0,0.0,0.0,0.0,3.342284814,0.01,0.0,-31299.0,0.125,0.0,-0.0,0.0,0.125,1.627197099,0.01,0.0,0.30000001192092896,-0.46000000834465027,-105.8499984741211,-1.220703125E-4,0.02691650390625,0.9810791015625,36.529998779296875,0.0,-23.0,2.250030517578125,-2.4947509765625,Closing,0.0,0.0,3.0,0.0,0.0,0.0,0.0,0.0,
10.279,0.0,0.0,86839.0,0.0,0.0,0.0,0.0,0.25,0.849609288,0.01,0.0,-156148.0,0.0,0.0,-0.0,0.0,0.125,0.5419921320000001,0.01,0.0,12158.0,0.0,0.0,0.0,0.0,0.0,3.34472622,0.01,0.0,-31299.0,0.125,0.0,-0.0,0.0,0.125,1.6284178020000002,0.01,0.0,0.3100000023841858,-0.46000000834465027,-105.8499984741211,-0.03936767578125,-0.03125,1.02618408203125,36.58000183105469,0.0,43.0,2.2501220703125,-2.4948272705078125,Closing,0.0,0.0,3.0,0.0,0.0,0.0,0.0,0.125,
10.380991999999999,0.0,0.0,86839.0,0.0,0.0,0.0,0.0,0.25,0.850829991,0.01,0.0,-156148.0,0.0,0.0,-0.0,0.0,0.125,0.5419921320000001,0.01,0.0,12158.0,0.0,0.0,0.0,0.0,0.0,3.343505517,0.01,0.0,-31299.0,0.125,0.0,-0.0,0.0,0.125,1.6284178020000002,0.01,0.0,0.30000001192092896,-0.46000000834465027,-105.8499984741211,6.103515625E-5,0.0335693359375,0.96295166015625,36.58000183105469,0.0,-29.0,2.2504730224609375,-2.4948883056640625,Closing,0.0,0.0,3.0,0.0,0.0,0.0,0.0,0.125,
10.48609699999998,0.0,0.0,86839.0,0.0,0.0,0.0,0.0,0.25,0.849609288,0.01,0.0,-156148.0,0.0,0.0,-0.0,0.0,0.125,0.5419921320000001,0.01,0.0,12158.0,0.0,0.0,0.0,0.0,0.0,3.343505517,0.01,0.0,-31299.0,0.125,0.0,-0.0,0.0,0.125,1.6284178020000002,0.01,0.0,0.3100000023841858,-0.46000000834465027,-105.86000061035156,-0.03985595703125,-0.03179931640625,1.02337646484375,36.58000183105469,0.0,44.0,2.2496490478515625,-2.49493408203125,Closing,0.0,0.0,3.0,0.0,0.0,0.0,0.0,0.0,
10.587617999999988,0.0,0.0,86839.0,0.0,0.0,0.0,0.0,0.25,0.850829991,0.01,0.0,-156148.0,0.0,0.0,-0.0,0.0,0.125,0.5419921320000001,0.01,0.0,12158.0,0.0,0.0,0.0,0.0,0.0,3.34472622,0.01,0.0,-31299.0,0.125,0.0,-0.0,0.0,0.125,1.627197099,0.01,0.0,0.3100000023841858,-0.4699999988079071,-105.8499984741211,0.010009765625,0.05401611328125,0.9595947265625,36.58000183105469,0.0,-51.0,2.2500457763671875,-2.4950103759765625,Closing,0.0,0.0,3.0,0.0,0.0,0.0,0.0,0.0,
10.691038,0.0,0.0,86839.0,0.0,0.0,0.0,0.0,0.25,0.849609288,0.01,0.0,-156148.0,0.0,0.0,-0.0,0.0,0.125,0.5407714290000001,0.01,0.0,12158.0,0.0,0.0,0.0,0.0,0.0,3.34472622,0.01,0.0,-31299.0,0.125,0.0,-0.0,0.0,0.125,1.6284178020000002,0.01,0.0,0.3199999928474426,-0.4300000071525574,-105.86000061035156,-0.04266357421875,-0.0142822265625,0.99322509765625,36.58000183105469,0.0,28.0,2.2491607666015625,-2.4947967529296875,Closing,0.0,0.0,3.0,0.0,0.0,0.0,0.0,0.0,
10.799247999999992,0.0,0.0,86839.0,0.0,0.0,0.0,0.0,0.25,0.850829991,0.01,0.0,-156148.0,0.0,0.0,-0.0,0.0,0.125,0.5419921320000001,0.01,0.0,12158.0,0.0,0.0,0.0,0.0,0.0,3.343505517,0.01,0.0,-31299.0,0.0,0.0,-0.0,0.0,0.125,1.627197099,0.01,0.0,0.3199999928474426,-0.47999998927116394,-105.8499984741211,0.0120849609375,0.0267333984375,1.0128173828125,36.560001373291016,0.0,-25.0,2.249725341796875,-2.4947967529296875,Closing,0.0,0.0,3.0,0.0,0.0,0.0,0.0,0.125,
10.91216399999999,0.0,0.0,86839.0,0.0,0.0,0.0,0.0,0.25,0.850829991,0.01,0.0,-156148.0,0.0,0.0,-0.0,0.0,0.125,0.5407714290000001,0.01,0.0,12158.0,0.0,0.0,0.0,0.0,0.0,3.343505517,0.01,0.0,-31299.0,0.125,0.0,-0.0,0.0,0.125,1.627197099,0.01,0.0,0.3199999928474426,-0.4399999976158142,-105.8499984741211,-0.0059814453125,-0.001220703125,1.01165771484375,36.560001373291016,0.0,6.0,2.2484893798828125,-2.494720458984375,Closing,0.0,0.0,3.0,0.0,0.0,0.0,0.0,0.0,
11.01218299999999,0.0,0.0,86839.0,0.0,0.0,0.0,0.0,0.25,0.850829991,0.01,0.0,-156148.0,0.0,0.0,-0.0,0.0,0.125,0.5419921320000001,0.01,0.0,12158.0,0.0,0.0,0.0,0.0,0.0,3.34472622,0.01,0.0,-31299.0,0.125,0.0,-0.0,0.0,0.125,1.6284178020000002,0.01,0.0,0.3199999928474426,-0.4699999988079071,-105.8499984741211,0.02020263671875,0.03851318359375,1.01708984375,36.560001373291016,0.0,-39.0,2.2491912841796875,-2.494903564453125,Closing,0.0,0.0,3.0,0.0,0.0,0.0,0.0,0.0,
11.120207999999984,0.0,0.0,86839.0,0.0,0.0,0.0,0.0,0.25,0.850829991,0.01,0.0,-156148.0,0.0,0.0,-0.0,0.0,0.125,0.5419921320000001,0.01,0.0,12158.0,0.0,0.0,0.0,0.0,0.0,3.343505517,0.01,0.0,-31299.0,0.125,0.0,-0.0,0.0,0.125,1.627197099,0.01,0.0,0.33000001311302185,-0.46000000834465027,-105.8499984741211,-0.0091552734375,-0.0018310546875,1.04168701171875,36.560001373291016,0.0,7.0,2.2479705810546875,-2.494903564453125,Closing,0.0,0.0,3.0,0.0,0.0,0.0,0.0,0.125,
11.226668999999994,0.0,0.0,86839.0,0.0,0.0,0.0,0.0,0.25,0.850829991,0.01,0.0,-156148.0,0.0,0.0,-0.0,0.0,0.125,0.5419921320000001,0.01,0.0,12158.0,0.0,0.0,0.0,0.0,0.0,3.343505517,0.01,0.0,-31299.0,0.125,0.0,-0.0,0.0,0.125,1.627197099,0.01,0.0,0.33000001311302185,-0.46000000834465027,-105.8499984741211,-0.0074462890625,0.01312255859375,1.02081298828125,36.560001373291016,0.0,-7.0,2.2493896484375,-2.49530029296875,Closing,0.0,0.0,3.0,0.0,0.0,0.0,0.0,0.125,
11.328522999999986,0.0,0.0,86839.0,0.0,0.0,0.0,0.0,0.25,0.850829991,0.01,0.0,-156148.0,0.0,0.0,-0.0,0.0,0.125,0.5419921320000001,0.01,0.0,12158.0,0.0,0.0,0.0,0.0,0.0,3.343505517,0.01,0.0,-31299.0,0.125,0.0,-0.0,0.0,0.125,1.627197099,0.01,0.0,0.3199999928474426,-0.4699999988079071,-105.86000061035156,0.00762939453125,0.00225830078125,1.0206298828125,36.54999923706055,0.0,0.0,2.2503814697265625,-2.49530029296875,Closing,0.0,0.0,3.0,0.0,0.0,0.0,0.0,0.125,
11.432494999999996,0.0,0.0,86839.0,0.0,0.0,0.0,0.0,0.25,0.849609288,0.01,0.0,-156148.0,0.0,0.0,-0.0,0.0,0.125,0.5419921320000001,0.01,0.0,12158.0,0.0,0.0,0.0,0.0,0.0,3.343505517,0.01,0.0,-31299.0,0.125,0.0,-0.0,0.0,0.125,1.6284178020000002,0.01,0.0,0.3199999928474426,-0.44999998807907104,-105.86000061035156,-0.02789306640625,-0.00384521484375,0.99615478515625,36.54999923706055,0.0,14.0,2.2512359619140625,-2.495269775390625,Closing,0.0,0.0,3.0,0.0,0.0,0.0,0.0,0.125,
11.535069999999978,0.0,0.0,86839.0,0.0,0.0,0.0,0.0,0.25,0.849609288,0.01,0.0,-156148.0,0.0,0.0,-0.0,0.0,0.125,0.5419921320000001,0.01,0.0,12158.0,0.0,0.0,0.0,0.0,0.0,3.343505517,0.01,0.0,-31299.0,0.125,0.0,-0.0,0.0,0.125,1.627197099,0.01,0.0,0.3199999928474426,-0.44999998807907104,-105.86000061035156,-0.00164794921875,-0.0067138671875,0.9691162109375,36.54999923706055,0.0,10.0,2.252655029296875,-2.4953460693359375,Closing,0.0,0.0,3.0,0.0,0.0,0.0,0.0,0.125,
11.636797999999981,0.0,0.0,86839.0,0.0,0.0,0.0,0.0,0.25,0.850829991,0.01,0.0,-156148.0,0.0,0.0,-0.0,0.0,0.125,0.5419921320000001,0.01,0.0,12158.0,0.0,0.0,0.0,0.0,0.0,3.343505517,0.01,0.0,-31299.0,0.125,0.0,-0.0,0.0,0.125,1.627197099,0.01,0.0,0.3199999928474426,-0.44999998807907104,-105.86000061035156,-0.00567626953125,0.01025390625,1.01580810546875,36.54999923706055,0.0,-5.0,2.25262451171875,-2.4953460693359375,Closing,0.0,0.0,3.0,0.0,0.0,0.0,0.0,0.125,
11.746793999999994,0.0,0.0,86839.0,0.0,0.0,0.0,0.0,0.25,0.850829991,0.01,0.0,-156148.0,0.0,0.0,-0.0,0.0,0.125,0.5419921320000001,0.01,0.0,12158.0,0.0,0.0,0.0,0.0,0.0,3.342284814,0.01,0.0,-31299.0,0.125,0.0,-0.0,0.0,0.125,1.627197099,0.01,0.0,0.3199999928474426,-0.44999998807907104,-105.86000061035156,-0.0078125,5.4931640625E-4,1.00311279296875,36.54999923706055,0.0,4.0,2.25262451171875,-2.4953460693359375,Closing,0.0,0.0,3.0,0.0,0.0,0.0,0.0,0.0,
11.849774999999994,0.0,0.0,86839.0,0.0,0.0,0.0,0.0,0.25,0.850829991,0.01,0.0,-156148.0,0.0,0.0,-0.0,0.0,0.125,0.5419921320000001,0.01,0.0,12158.0,0.0,0.0,0.0,0.0,0.0,3.343505517,0.01,0.0,-31299.0,0.125,0.0,-0.0,0.0,0.125,1.627197099,0.01,0.0,0.3199999928474426,-0.44999998807907104,-105.86000061035156,-0.0054931640625,0.006591796875,1.009521484375,36.56999969482422,0.0,-1.0,2.25262451171875,-2.4953460693359375,Closing,0.0,0.0,3.0,0.0,0.0,0.0,0.0,0.125,
11.951664999999979,0.0,0.0,86839.0,0.0,0.0,0.0,0.0,0.25,0.850829991,0.01,0.0,-156148.0,0.0,0.0,-0.0,0.0,0.125,0.5407714290000001,0.01,0.0,12158.0,0.0,0.0,0.0,0.0,0.0,3.343505517,0.01,0.0,-31299.0,0.125,0.0,-0.0,0.0,0.125,1.627197099,0.01,0.0,0.3199999928474426,-0.44999998807907104,-105.86000061035156,-0.0081787109375,0.00567626953125,1.02691650390625,36.56999969482422,0.0,0.0,2.25262451171875,-2.4953460693359375,Closing,0.0,0.0,3.0,0.0,0.0,0.0,0.0,0.0,
12.071283999999984,0.0,0.0,86839.0,0.0,0.0,0.0,0.0,0.25,0.849609288,0.01,0.0,-156148.0,0.0,0.0,-0.0,0.0,0.125,0.5419921320000001,0.01,0.0,12158.0,0.0,0.0,0.0,0.0,0.0,3.342284814,0.01,0.0,-31299.0,0.125,0.0,-0.0,0.0,0.125,1.627197099,0.01,0.0,0.3100000023841858,-0.44999998807907104,-105.86000061035156,-0.01129150390625,0.0064697265625,1.0244140625,36.56999969482422,0.0,0.0,2.25262451171875,-2.4953460693359375,Closing,0.0,0.0,3.0,0.0,0.0,0.0,0.0,0.0,
12.174872999999993,0.0,0.0,86839.0,0.0,0.0,0.0,0.0,0.25,0.849609288,0.01,0.0,-156148.0,0.0,0.0,-0.0,0.0,0.125,0.5419921320000001,0.01,0.0,12158.0,0.0,0.0,0.0,0.0,0.0,3.343505517,0.01,0.0,-31299.0,0.125,0.0,-0.0,0.0,0.125,1.6284178020000002,0.01,0.0,0.3100000023841858,-0.44999998807907104,-105.86000061035156,-0.00604248046875,0.00421142578125,1.02471923828125,36.56999969482422,0.0,0.0,2.25262451171875,-2.4953460693359375,Closing,0.0,0.0,3.0,0.0,0.0,0.0,0.0,0.0,
12.284443,0.0,0.0,86839.0,0.0,0.0,0.0,0.0,0.25,0.850829991,0.01,0.0,-156148.0,0.0,0.0,-0.0,0.0,0.125,0.5419921320000001,0.01,0.0,12158.0,0.0,0.0,0.0,0.0,0.0,3.34472622,0.01,0.0,-31299.0,0.125,0.0,-0.0,0.0,0.125,1.6284178020000002,0.01,0.0,0.3199999928474426,-0.46000000834465027,-105.87000274658203,-0.00921630859375,0.00347900390625,1.01953125,36.56999969482422,0.0,2.0,2.25262451171875,-2.4953460693359375,Closing,0.0,0.0,3.0,0.0,0.0,0.0,0.0,0.125,
12.386859999999986,0.0,0.0,86839.0,0.0,0.0,0.0,0.0,0.25,0.850829991,0.01,0.0,-156148.0,0.0,0.0,-0.0,0.0,0.125,0.5407714290000001,0.01,0.0,12158.0,0.0,0.0,0.0,0.0,0.0,3.343505517,0.01,0.0,-31299.0,0.125,0.0,-0.0,0.0,0.125,1.627197099,0.01,0.0,0.3199999928474426,-0.46000000834465027,-105.86000061035156,-0.005615234375,0.00408935546875,1.01837158203125,36.58000183105469,0.0,0.0,2.25262451171875,-2.4953460693359375,Closing,0.0,0.0,3.0,0.0,0.0,0.0,0.0,0.125,
12.487062000000005,0.0,0.0,86839.0,0.0,0.0,0.0,0.0,0.25,0.850829991,0.01,0.0,-156148.0,0.0,0.0,-0.0,0.0,0.125,0.5419921320000001,0.01,0.0,12158.0,0.0,0.0,0.0,0.0,0.0,3.343505517,0.01,0.0,-31299.0,0.125,0.0,-0.0,0.0,0.125,1.627197099,0.01,0.0,0.3199999928474426,-0.46000000834465027,-105.87000274658203,-0.0068359375,0.00567626953125,1.01708984375,36.58000183105469,0.0,0.0,2.25262451171875,-2.4953460693359375,Closing,0.0,0.0,3.0,0.0,0.0,0.0,0.0,0.125,
12.5905,0.0,0.0,86839.0,0.0,0.0,0.0,0.0,0.25,0.852050694,0.01,0.0,-156148.0,0.0,0.0,-0.0,0.0,0.125,0.5419921320000001,0.01,0.0,12158.0,0.0,0.0,0.0,0.0,0.0,3.342284814,0.01,0.0,-31299.0,0.125,0.0,-0.0,0.0,0.125,1.627197099,0.01,0.0,0.3199999928474426,-0.46000000834465027,-105.87000274658203,-0.00933837890625,0.0042724609375,1.0216064453125,36.58000183105469,0.0,1.0,2.25262451171875,-2.4953460693359375,Closing,0.0,0.0,3.0,0.0,0.0,0.0,0.0,0.125,
12.693883000000001,0.0,0.0,86839.0,0.0,0.0,0.0,0.0,0.25,0.849609288,0.01,0.0,-156148.0,0.0,0.0,-0.0,0.0,0.125,0.5419921320000001,0.01,0.0,12158.0,0.0,0.0,0.0,0.0,0.0,3.343505517,0.01,0.0,-31299.0,0.125,0.0,-0.0,0.0,0.125,1.627197099,0.01,0.0,0.3199999928474426,-0.46000000834465027,-105.87000274658203,-0.0087890625,0.00543212890625,1.0216064453125,36.58000183105469,0.0,0.0,2.25262451171875,-2.4953460693359375,Closing,0.0,0.0,3.0,0.0,0.0,0.0,0.0,0.125,
12.804800999999978,0.0,0.0,86839.0,0.0,0.0,0.0,0.0,0.25,0.849609288,0.01,0.0,-156148.0,0.0,0.0,-0.0,0.0,0.125,0.5419921320000001,0.01,0.0,12158.0,0.0,0.0,0.0,0.0,0.0,3.343505517,0.01,0.0,-31299.0,0.125,0.0,-0.0,0.0,0.125,1.627197099,0.01,0.0,0.3199999928474426,-0.46000000834465027,-105.87000274658203,-0.0084228515625,0.00518798828125,1.02154541015625,36.58000183105469,0.0,-1.0,2.25262451171875,-2.4953460693359375,Closing,0.0,0.0,3.0,0.0,0.0,0.0,0.0,0.125,
12.909747000000003,0.0,0.0,86839.0,0.0,0.0,0.0,0.0,0.25,0.850829991,0.01,0.0,-156148.0,0.0,0.0,-0.0,0.0,0.125,0.5419921320000001,0.01,0.0,12158.0,0.0,0.0,0.0,0.0,0.0,3.343505517,0.01,0.0,-31299.0,0.125,0.0,-0.0,0.0,0.125,1.627197099,0.01,0.0,0.3199999928474426,-0.4699999988079071,-105.87000274658203,-0.00689697265625,0.00653076171875,1.0230712890625,36.560001373291016,0.0,-1.0,2.25262451171875,-2.4953460693359375,Closing,0.0,0.0,3.0,0.0,0.0,0.0,0.0,0.125,
13.009729999999982,0.0,0.0,86839.0,0.0,0.0,0.0,0.0,0.25,0.849609288,0.01,0.0,-156148.0,0.0,0.0,-0.0,0.0,0.125,0.5419921320000001,0.01,0.0,12158.0,0.0,0.0,0.0,0.0,0.0,3.343505517,0.01,0.0,-31299.0,0.125,0.0,-0.0,0.0,0.125,1.627197099,0.01,0.0,0.33000001311302185,-0.46000000834465027,-105.87000274658203,-0.009521484375,0.005615234375,1.0174560546875,36.560001373291016,0.0,0.0,2.25262451171875,-2.4953460693359375,Closing,0.0,0.0,3.0,0.0,0.0,0.0,0.0,0.125,
13.116568999999988,0.0,0.0,86839.0,0.0,0.0,0.0,0.0,0.25,0.850829991,0.01,0.0,-156148.0,0.0,0.0,-0.0,0.0,0.125,0.5419921320000001,0.01,0.0,12158.0,0.0,0.0,0.0,0.0,0.0,3.343505517,0.01,0.0,-31299.0,0.125,0.0,-0.0,0.0,0.125,1.627197099,0.01,0.0,0.33000001311302185,-0.46000000834465027,-105.87000274658203,-0.0101318359375,0.0054931640625,1.0169677734375,36.560001373291016,0.0,0.0,2.25262451171875,-2.4953460693359375,Closing,0.0,0.0,3.0,0.0,0.0,0.0,0.0,0.125,
13.225899000000005,0.0,0.0,86839.0,0.0,0.0,0.0,0.0,0.25,0.850829991,0.01,0.0,-156148.0,0.0,0.0,-0.0,0.0,0.125,0.5419921320000001,0.01,0.0,12158.0,0.0,0.0,0.0,0.0,0.0,3.342284814,0.01,0.0,-31299.0,0.125,0.0,-0.0,0.0,0.125,1.6284178020000002,0.01,0.0,0.33000001311302185,-0.46000000834465027,-105.87000274658203,-0.01123046875,0.0064697265625,1.02447509765625,36.560001373291016,0.0,0.0,2.25262451171875,-2.4953460693359375,Closing,0.0,0.0,3.0,0.0,0.0,0.0,0.0,0.0,
13.333633999999991,0.0,0.0,86839.0,0.0,0.0,0.0,0.0,0.25,0.850829991,0.01,0.0,-156148.0,0.0,0.0,-0.0,0.0,0.125,0.5419921320000001,0.01,0.0,12158.0,0.0,0.0,0.0,0.0,0.0,3.343505517,0.01,0.0,-31299.0,0.125,0.0,-0.0,0.0,0.125,1.627197099,0.01,0.0,0.33000001311302185,-0.46000000834465027,-105.87000274658203,-0.00592041015625,0.00469970703125,1.02764892578125,36.56999969482422,0.0,0.0,2.25262451171875,-2.4953460693359375,Closing,0.0,0.0,3.0,0.0,0.0,0.0,0.0,0.0,
13.438820999999995,0.0,0.0,86839.0,0.0,0.0,0.0,0.0,0.25,0.849609288,0.01,0.0,-156148.0,0.0,0.0,-0.0,0.0,0.125,0.5419921320000001,0.01,0.0,12158.0,0.0,0.0,0.0,0.0,0.0,3.34472622,0.01,0.0,-31299.0,0.125,0.0,-0.0,0.0,0.125,1.627197099,0.01,0.0,0.33000001311302185,-0.46000000834465027,-105.87000274658203,-0.00909423828125,0.00506591796875,1.02239990234375,36.56999969482422,0.0,0.0,2.25262451171875,-2.4953460693359375,Closing,0.0,0.0,3.0,0.0,0.0,0.0,0.0,0.0,
13.546983999999997,0.0,0.0,86839.0,0.0,0.0,0.0,0.0,0.25,0.849609288,0.01,0.0,-156148.0,0.0,0.0,-0.0,0.0,0.125,0.5419921320000001,0.01,0.0,12158.0,0.0,0.0,0.0,0.0,0.0,3.343505517,0.01,0.0,-31299.0,0.125,0.0,-0.0,0.0,0.125,1.627197099,0.01,0.0,0.33000001311302185,-0.46000000834465027,-105.87000274658203,-0.00982666015625,0.0040283203125,1.018310546875,36.56999969482422,0.0,2.0,2.25262451171875,-2.4953460693359375,Closing,0.0,0.0,3.0,0.0,0.0,0.0,0.0,0.125,
13.650294999999984,0.0,0.0,86839.0,0.0,0.0,0.0,0.0,0.25,0.849609288,0.01,0.0,-156148.0,0.0,0.0,-0.0,0.0,0.125,0.5419921320000001,0.01,0.0,12158.0,0.0,0.0,0.0,0.0,0.0,3.342284814,0.01,0.0,-31299.0,0.125,0.0,-0.0,0.0,0.125,1.627197099,0.01,0.0,0.33000001311302185,-0.46000000834465027,-105.87999725341797,-0.0069580078125,0.0072021484375,1.01446533203125,36.56999969482422,0.0,-1.0,2.25262451171875,-2.4953460693359375,Closing,0.0,0.0,3.0,0.0,0.0,0.0,0.0,0.125,
13.753342000000004,0.0,0.0,86839.0,0.0,0.0,0.0,0.0,0.25,0.849609288,0.01,0.0,-156148.0,0.0,0.0,-0.0,0.0,0.125,0.5419921320000001,0.01,0.0,12158.0,0.0,0.0,0.0,0.0,0.0,3.343505517,0.01,0.0,-31299.0,0.125,0.0,-0.0,0.0,0.125,1.627197099,0.01,0.0,0.33000001311302185,-0.46000000834465027,-105.87000274658203,-0.005859375,0.0064697265625,1.02178955078125,36.56999969482422,0.0,-1.0,2.25262451171875,-2.4953460693359375,Closing,0.0,0.0,3.0,0.0,0.0,0.0,0.0,0.125,
13.858228000000002,0.0,0.0,86839.0,0.0,0.0,0.0,0.0,0.25,0.849609288,0.01,0.0,-156148.0,0.0,0.0,-0.0,0.0,0.125,0.5419921320000001,0.01,0.0,12158.0,0.0,0.0,0.0,0.0,0.0,3.342284814,0.01,0.0,-31299.0,0.125,0.0,-0.0,0.0,0.125,1.6284178020000002,0.01,0.0,0.33000001311302185,-0.46000000834465027,-105.87999725341797,-0.00506591796875,0.00445556640625,1.0216064453125,36.560001373291016,0.0,0.0,2.25262451171875,-2.4953460693359375,Closing,0.0,0.0,3.0,0.0,0.0,0.0,0.0,0.0,
14.096435999999986,0.0,0.0,86839.0,0.0,0.0,0.0,0.0,0.25,0.850829991,0.01,0.0,-156148.0,0.0,0.0,-0.0,0.0,0.125,0.5419921320000001,0.01,0.0,12158.0,0.0,0.0,0.0,0.0,0.0,3.343505517,0.01,0.0,-31299.0,0.125,0.0,-0.0,0.0,0.125,1.627197099,0.01,0.0,0.3199999928474426,-0.46000000834465027,-105.87999725341797,-0.00836181640625,0.0059814453125,1.0203857421875,36.560001373291016,0.0,0.0,2.25262451171875,-2.4953460693359375,Closing,0.0,0.0,3.0,0.0,0.0,0.0,0.0,0.125,
14.373264999999986,0.0,0.0,86839.0,0.0,0.0,0.0,0.0,0.25,0.849609288,0.01,0.0,-156148.0,0.0,0.0,-0.0,0.0,0.125,0.5407714290000001,0.01,0.0,12158.0,0.0,0.0,0.0,0.0,0.0,3.34472622,0.01,0.0,-31299.0,0.125,0.0,-0.0,0.0,0.125,1.6284178020000002,0.01,0.0,0.3199999928474426,-0.46000000834465027,-105.88999938964844,-0.0093994140625,0.00579833984375,1.0145263671875,36.560001373291016,0.0,0.0,2.25262451171875,-2.4953460693359375,Closing,0.0,0.0,3.0,0.0,0.0,0.0,0.0,0.125,
14.526413,0.0,0.0,86839.0,0.0,0.0,0.0,0.0,0.25,0.850829991,0.01,0.0,-156148.0,0.0,0.0,-0.0,0.0,0.125,0.5419921320000001,0.01,0.0,12158.0,0.0,0.0,0.0,0.0,0.0,3.342284814,0.01,0.0,-31299.0,0.125,0.0,-0.0,0.0,0.25,1.627197099,0.01,0.0,0.3199999928474426,-0.46000000834465027,-105.88999938964844,-0.00982666015625,0.00555419921875,1.0218505859375,36.560001373291016,0.0,0.0,2.25262451171875,-2.4953460693359375,Closing,0.0,0.0,3.0,0.0,0.0,0.0,0.0,0.125,
14.665830000000016,0.0,0.0,86839.0,0.0,0.0,0.0,0.0,0.25,0.850829991,0.01,0.0,-156148.0,0.0,0.0,-0.0,0.0,0.125,0.5419921320000001,0.01,0.0,12158.0,0.0,0.0,0.0,0.0,0.0,3.343505517,0.01,0.0,-31299.0,0.125,0.0,-0.0,0.0,0.125,1.627197099,0.01,0.0,0.3199999928474426,-0.46000000834465027,-105.88999938964844,-0.0084228515625,0.0040283203125,1.013427734375,36.560001373291016,0.0,1.0,2.25262451171875,-2.4953460693359375,Closing,0.0,0.0,3.0,0.0,0.0,0.0,0.0,0.125,
14.832475999999966,0.0,0.0,86839.0,0.0,0.0,0.0,0.0,0.25,0.850829991,0.01,0.0,-156148.0,0.0,0.0,-0.0,0.0,0.125,0.5419921320000001,0.01,0.0,12158.0,0.0,0.0,0.0,0.0,0.0,3.343505517,0.01,0.0,-31299.0,0.125,0.0,-0.0,0.0,0.125,1.627197099,0.01,0.0,0.3100000023841858,-0.46000000834465027,-105.9000015258789,-0.009765625,0.004638671875,1.01483154296875,36.599998474121094,0.0,1.0,2.25262451171875,-2.4953460693359375,Closing,0.0,0.0,3.0,0.0,0.0,0.0,0.0,0.125,
15.050635999999999,0.0,0.0,86839.0,0.0,0.0,0.0,0.0,0.25,0.849609288,0.01,0.0,-156148.0,0.0,0.0,-0.0,0.0,0.125,0.5419921320000001,0.01,0.0,12158.0,0.0,0.0,0.0,0.0,0.0,3.342284814,0.01,0.0,-31299.0,0.125,0.0,-0.0,0.0,0.125,1.627197099,0.01,0.0,0.3100000023841858,-0.46000000834465027,-105.9000015258789,-0.0074462890625,0.0050048828125,1.01629638671875,36.599998474121094,0.0,0.0,2.25262451171875,-2.4953460693359375,Closing,0.0,0.0,3.0,0.0,0.0,0.0,0.0,0.0,
15.304685999999988,0.0,0.0,86839.0,0.0,0.0,0.0,0.0,0.25,0.849609288,0.01,0.0,-156148.0,0.0,0.0,-0.0,0.0,0.125,0.5419921320000001,0.01,0.0,12158.0,0.0,0.0,0.0,0.0,0.0,3.343505517,0.01,0.0,-31299.0,0.125,0.0,-0.0,0.0,0.125,1.627197099,0.01,0.0,0.3199999928474426,-0.46000000834465027,-105.91000366210938,-0.00799560546875,0.0030517578125,1.01580810546875,36.599998474121094,0.0,2.0,2.25262451171875,-2.4953460693359375,Closing,0.0,0.0,3.0,0.0,0.0,0.0,0.0,0.0,
15.48271100000001,0.0,0.0,86839.0,0.0,0.0,0.0,0.0,0.25,0.850829991,0.01,0.0,-156148.0,0.0,0.0,-0.0,0.0,0.125,0.5419921320000001,0.01,0.0,12158.0,0.0,0.0,0.0,0.0,0.0,3.342284814,0.01,0.0,-31299.0,0.125,0.0,-0.0,0.0,0.125,1.627197099,0.01,0.0,0.3199999928474426,-0.46000000834465027,-105.91000366210938,-0.00732421875,0.008056640625,1.0206298828125,36.599998474121094,0.0,-2.0,2.25262451171875,-2.4953460693359375,Closing,0.0,0.0,3.0,0.0,0.0,0.0,0.0,0.125,
15.633621999999974,0.0,0.0,86839.0,0.0,0.0,0.0,0.0,0.25,0.850829991,0.01,0.0,-156148.0,0.0,0.0,-0.0,0.0,0.125,0.5419921320000001,0.01,0.0,12158.0,0.0,0.0,0.0,0.0,0.0,3.343505517,0.01,0.0,-31299.0,0.125,0.0,-0.0,0.0,0.125,1.627197099,0.01,0.0,0.3100000023841858,-0.46000000834465027,-105.91000366210938,-0.0089111328125,0.0059814453125,1.0198974609375,36.599998474121094,0.0,0.0,2.25262451171875,-2.4953460693359375,Closing,0.0,0.0,3.0,0.0,0.0,0.0,0.0,0.0,
15.749429000000005,0.0,0.0,86839.0,0.0,0.0,0.0,0.0,0.25,0.850829991,0.01,0.0,-156148.0,0.0,0.0,-0.0,0.0,0.125,0.5419921320000001,0.01,0.0,12158.0,0.0,0.0,0.0,0.0,0.0,3.343505517,0.01,0.0,-31299.0,0.125,0.0,-0.0,0.0,0.125,1.627197099,0.01,0.0,0.3100000023841858,-0.4699999988079071,-105.91000366210938,-0.0072021484375,0.0059814453125,1.0223388671875,36.599998474121094,0.0,0.0,2.25262451171875,-2.4953460693359375,Closing,0.0,0.0,3.0,0.0,0.0,0.0,0.0,0.0,
15.866175999999978,0.0,0.0,86839.0,0.0,0.0,0.0,0.0,0.25,0.850829991,0.01,0.0,-156148.0,0.0,0.0,-0.0,0.0,0.125,0.5419921320000001,0.01,0.0,12158.0,0.0,0.0,0.0,0.0,0.0,3.343505517,0.01,0.0,-31299.0,0.125,0.0,-0.0,0.0,0.25,1.627197099,0.01,0.0,0.3100000023841858,-0.4699999988079071,-105.9000015258789,-0.00830078125,0.00469970703125,1.01190185546875,36.59000015258789,0.0,0.0,2.25262451171875,-2.4953460693359375,Closing,0.0,0.0,3.0,0.0,0.0,0.0,0.0,0.125,
15.973059000000008,0.0,0.0,86839.0,0.0,0.0,0.0,0.0,0.25,0.849609288,0.01,0.0,-156148.0,0.0,0.0,-0.0,0.0,0.125,0.5419921320000001,0.01,0.0,12158.0,0.0,0.0,0.0,0.0,0.0,3.343505517,0.01,0.0,-31299.0,0.125,0.0,-0.0,0.0,0.125,1.627197099,0.01,0.0,0.3100000023841858,-0.4699999988079071,-105.9000015258789,-0.00811767578125,0.00567626953125,1.02099609375,36.59000015258789,0.0,0.0,2.25262451171875,-2.4953460693359375,Closing,0.0,0.0,3.0,0.0,0.0,0.0,0.0,0.0,
16.08802100000001,0.0,0.0,86839.0,0.0,0.0,0.0,0.0,0.25,0.849609288,0.01,0.0,-156148.0,0.0,0.0,-0.0,0.0,0.125,0.5419921320000001,0.01,0.0,12158.0,0.0,0.0,0.0,0.0,0.0,3.343505517,0.01,0.0,-31299.0,0.125,0.0,-0.0,0.0,0.125,1.627197099,0.01,0.0,0.3199999928474426,-0.4699999988079071,-105.9000015258789,-0.009033203125,0.00244140625,1.0198974609375,36.59000015258789,0.0,3.0,2.25262451171875,-2.4953460693359375,Closing,0.0,0.0,3.0,0.0,0.0,0.0,0.0,0.125,
16.202315999999993,0.0,0.0,86839.0,0.0,0.0,0.0,0.0,0.25,0.850829991,0.01,0.0,-156148.0,0.0,0.0,-0.0,0.0,0.125,0.5419921320000001,0.01,0.0,12158.0,0.0,0.0,0.0,0.0,0.0,3.34472622,0.01,0.0,-31299.0,0.125,0.0,-0.0,0.0,0.125,1.6284178020000002,0.01,0.0,0.3100000023841858,-0.4699999988079071,-105.91000366210938,-0.005615234375,0.00177001953125,1.01922607421875,36.59000015258789,0.0,2.0,2.25262451171875,-2.4953460693359375,Closing,0.0,0.0,3.0,0.0,0.0,0.0,0.0,0.125,
16.31206699999998,0.0,0.0,86839.0,0.0,0.0,0.0,0.0,0.25,0.850829991,0.01,0.0,-156148.0,0.0,0.0,-0.0,0.0,0.125,0.5419921320000001,0.01,0.0,12158.0,0.0,0.0,0.0,0.0,0.0,3.342284814,0.01,0.0,-31299.0,0.125,0.0,-0.0,0.0,0.125,1.627197099,0.01,0.0,0.3100000023841858,-0.4699999988079071,-105.91000366210938,-0.00872802734375,0.0067138671875,1.0167236328125,36.59000015258789,0.0,0.0,2.25262451171875,-2.4953460693359375,Closing,0.0,0.0,3.0,0.0,0.0,0.0,0.0,0.0,
16.42653700000001,0.0,0.0,86839.0,0.0,0.0,0.0,0.0,0.25,0.850829991,0.01,0.0,-156148.0,0.0,0.0,-0.0,0.0,0.125,0.5419921320000001,0.01,0.0,12158.0,0.0,0.0,0.0,0.0,0.0,3.343505517,0.01,0.0,-31299.0,0.125,0.0,-0.0,0.0,0.125,1.627197099,0.01,0.0,0.3100000023841858,-0.47999998927116394,-105.91000366210938,-0.00836181640625,0.005615234375,1.018310546875,36.619998931884766,0.0,0.0,2.25262451171875,-2.4953460693359375,Closing,0.0,0.0,3.0,0.0,0.0,0.0,0.0,0.0,
