Time,ClimberA1,ClimberA2,FRpos,FRCurrent,FRspeed,FRsetpoint,FRApos,FRACurrent,FREncpos,FREncSetpoint,FREncSpeed,FLpos,FLCurrent,FLspeed,FLsetpoint,FLApos,FLACurrent,FLEncpos,FLEncSetpoint,FLEncSpeed,BRpos,BRCurrent,BRspeed,BRsetpoint,BRApos,BRACurrent,BREncpos,BREncSetpoint,BREncSpeed,BLpos,BLCurrent,BLspeed,BLsetpoint,BLApos,BLACurrent,BLEncpos,BLEncSetpoint,BLEncSpeed,navx_Pitch,navx_Roll,navx_Yaw,navx_XAcc,navx_YAcc,navx_ZAcc,navx_Temp,navx_Bar,navx_Alt,navx_XDis,navx_YDis,GearPlacerState,ShootOutputV,ShootOutputCurrent,ShootEncPos,ShootEncVelocity,ShootSpeed,ShootSetpoint,CarouselSetpoint,CarouselCurrent,
0.22973399999999675,0.0,0.0,0.0,0.0,0.0,0.0,0.0,0.0,0.8666991300000001,0.01,0.0,0.0,0.0,0.0,0.0,0.0,0.0,0.522460884,0.01,0.0,0.0,0.0,0.0,0.0,0.0,0.0,3.386230122,0.01,0.0,2.0,0.0,0.0,0.0,0.0,0.125,1.7114256060000002,0.01,0.0,0.20999999344348907,-0.4300000071525574,-2.2899999618530273,-0.002197265625,-0.01483154296875,1.0396728515625,29.010000228881836,0.0,6.0,-0.00384521484375,-0.0066680908203125,Waiting,0.0,0.0,0.0,0.0,0.0,0.0,0.0,0.0,
0.2906510000000126,0.0,0.0,0.0,0.0,0.0,-115.74803106486797,0.0,0.0,0.865478427,0.5498168668524864,0.05547842699999994,0.0,0.0,0.0,-115.74803106486797,0.0,0.0,0.522460884,4.41043958977222,0.015010181000000955,0.0,0.0,0.0,-115.74803106486797,0.0,0.125,3.385009419,4.389674732977291,0.0,2.0,0.0,0.0,-115.74803106486797,0.0,0.375,1.72119123,0.5526872062785609,0.0,0.20000000298023224,-0.4399999976158142,-2.2899999618530273,0.01116943359375,0.031494140625,1.03814697265625,29.010000228881836,0.0,18.0,-0.00384521484375,-0.0066375732421875,Closing,0.0,0.0,0.0,0.0,0.0,0.0,0.0,0.0,
0.32670400000002703,0.0,0.0,0.0,0.0,0.0,-115.74803106486797,0.0,0.0,0.865478427,0.5498168668524864,0.0,0.0,0.0,0.0,-115.74803106486797,0.0,0.0,0.522460884,4.41043958977222,0.0,0.0,0.0,0.0,-115.74803106486797,0.0,0.25,3.385009419,4.389674732977291,0.0,2.0,0.0,0.0,-115.74803106486797,0.0,1.375,1.783447083,0.5526872062785609,0.0,0.20000000298023224,-0.4399999976158142,-2.2899999618530273,0.01348876953125,0.04180908203125,1.027587890625,29.010000228881836,0.0,19.0,-0.00384521484375,-0.006439208984375,Closing,0.0,0.0,0.0,0.0,0.0,0.0,0.0,0.0,
0.3494990000000107,0.0,0.0,0.0,0.0,0.0,-115.74803106486797,0.0,0.875,0.9094237350000001,0.5498168668524864,0.013427733000000108,0.0,0.0,0.0,-115.74803106486797,0.0,1.125,0.47363276400000004,4.41043958977222,-0.009765624000000805,0.0,0.0,0.0,-115.74803106486797,0.0,1.75,3.337402002,4.389674732977291,-0.003662108999999969,2.0,0.0,0.0,-115.74803106486797,0.0,1.0,1.8664548870000002,0.5526872062785609,0.08300780399999996,0.20000000298023224,-0.4399999976158142,-2.2899999618530273,0.0511474609375,1.220703125E-4,1.0257568359375,29.010000228881836,0.0,59.0,-0.0036773681640625,-0.0061492919921875,Closing,0.0,0.0,0.0,0.0,0.0,0.0,0.0,0.0,
0.3940800000000163,0.0,0.0,0.0,0.0,0.0,-115.74803106486797,0.0,1.0,1.069335828,0.5498168668524864,0.12329100299999984,0.0,0.0,0.0,-115.74803106486797,0.0,1.125,0.25634763,4.41043958977222,-0.15624998399999956,0.0,0.0,0.0,-115.74803106486797,0.0,2.25,3.1176754620000002,4.389674732977291,4.785370719,2.0,0.0,0.0,-115.74803106486797,0.0,0.625,1.9946287020000002,0.5526872062785609,0.12329100300000007,0.20000000298023224,-0.4399999976158142,-2.2799999713897705,0.01092529296875,0.0013427734375,0.98931884765625,29.010000228881836,0.0,18.0,-0.0035247802734375,-0.0057373046875,Closing,0.0,0.0,0.0,0.0,0.0,0.0,0.0,0.0,
0.4302240000000456,0.0,0.0,0.0,0.0,0.0,-115.74803106486797,0.0,0.875,1.114501839,0.5498168668524864,0.10009764600000004,0.0,0.0,0.0,-115.74803106486797,0.0,0.5,0.140380845,4.41043958977222,-0.1391601419999997,0.0,0.0,0.0,-115.74803106486797,0.0,0.75,2.991943053,4.389674732977291,0.0,2.0,0.0,0.0,-115.74803106486797,0.0,0.625,2.0617673670000003,0.5526872062785609,0.0,0.1899999976158142,-0.44999998807907104,-2.2899999618530273,-1.220703125E-4,0.05364990234375,0.994873046875,29.010000228881836,0.0,5.0,-0.003448486328125,-0.0052947998046875,Closing,0.0,0.0,0.0,0.0,0.0,0.0,0.0,0.0,
0.4543969999999972,0.0,0.0,0.0,0.0,0.0,-115.74803106486797,0.0,0.75,1.166992068,0.5498168668524864,0.04760741700000004,0.0,0.0,0.0,-115.74803106486797,0.0,0.25,0.06103515,4.41043958977222,-0.11230467600000082,0.0,0.0,0.0,-115.74803106486797,0.0,0.5,2.938232121,4.389674732977291,-0.10864256700000041,2.0,0.0,0.0,-115.74803106486797,0.0,0.375,2.081298615,0.5526872062785609,0.05737304099999996,0.23000000417232513,-0.4399999976158142,-2.309999942779541,0.02392578125,0.0889892578125,1.02789306640625,29.010000228881836,0.0,28.0,-0.0031585693359375,-0.00445556640625,Closing,0.0,0.0,0.0,0.0,0.0,0.0,0.0,0.0,
0.4866370000000461,0.0,0.0,0.0,0.0,0.0,-115.74803106486797,0.0,0.5,1.226806515,0.5498168668524864,0.04760741700000004,0.0,0.0,0.0,-115.74803106486797,0.0,0.25,4.942626447,4.41043958977222,-0.07324217999999938,0.0,0.0,0.0,-115.74803106486797,0.0,0.375,2.9040524370000003,4.389674732977291,-0.048828119999999586,2.0,0.0,0.0,-115.74803106486797,0.0,0.375,2.08740213,0.5526872062785609,0.0,0.23000000417232513,-0.4300000071525574,-2.319999933242798,0.01275634765625,0.09320068359375,0.98284912109375,29.010000228881836,0.0,16.0,-0.002960205078125,-0.00384521484375,Closing,0.0,0.0,0.0,0.0,0.0,0.0,0.0,0.0,
0.5071900000000024,0.0,0.0,0.0,0.0,0.0,-115.74803106486797,0.0,0.5,1.246337763,0.5498168668524864,0.0378417929999999,0.0,0.0,0.0,-115.74803106486797,0.0,0.0,4.9255366050000005,4.41043958977222,4.902343248,0.0,0.0,0.0,-115.74803106486797,0.0,0.125,2.889404001,4.389674732977291,-0.03417968399999971,2.0,0.0,0.0,-115.74803106486797,0.0,0.25,2.086181427,0.5526872062785609,0.0024414059999999793,0.23999999463558197,-0.41999998688697815,-2.3499999046325684,0.0274658203125,0.09832763671875,1.0272216796875,29.010000228881836,0.0,31.0,-0.00244140625,-0.0023345947265625,Closing,0.0,0.0,0.0,0.0,0.0,0.0,0.0,0.0,
0.5332669999999925,0.0,0.0,0.0,0.0,0.0,-115.74803106486797,0.0,0.5,1.260986199,0.5498168668524864,0.020751951000000046,0.0,0.0,0.0,-115.74803106486797,0.0,0.0,4.921874496,4.41043958977222,-0.01342773300000033,0.0,0.0,0.0,-115.74803106486797,0.0,0.125,2.875976268,4.389674732977291,-0.014648436000000764,2.0,0.125,0.0,-115.74803106486797,0.0,0.25,2.072753694,0.5526872062785609,-0.0012207029999999897,0.23999999463558197,-0.4000000059604645,-2.359999895095825,0.0291748046875,0.0152587890625,0.989013671875,29.010000228881836,0.0,35.0,-0.00177001953125,-5.18798828125E-4,Closing,0.0,0.0,0.0,0.0,0.0,0.0,0.0,0.0,
0.5602880000000005,0.0,0.0,0.0,0.0,0.0,-115.74803106486797,0.0,0.375,1.2670897140000001,0.5498168668524864,0.00854492100000015,0.0,0.0,0.0,-115.74803106486797,0.0,0.0,4.9230951990000005,4.41043958977222,0.0,0.0,0.0,0.0,-115.74803106486797,0.0,0.125,2.874755565,4.389674732977291,0.0,2.0,0.125,0.0,-115.74803106486797,0.0,0.25,2.086181427,0.5526872062785609,0.0,0.23000000417232513,-0.4000000059604645,-2.3499999046325684,0.00653076171875,0.02691650390625,1.021240234375,29.010000228881836,0.0,12.0,-9.613037109375E-4,-5.035400390625E-4,Closing,0.0,0.0,0.0,0.0,0.0,0.0,0.0,0.0,
0.5897449999999953,0.0,0.0,0.0,0.0,0.0,-115.74803106486797,0.0,0.375,1.2670897140000001,0.5498168668524864,0.0012207029999999897,0.0,0.0,0.0,-115.74803106486797,0.0,0.0,4.938964338,4.41043958977222,0.008544921000000372,0.0,0.0,0.0,-115.74803106486797,0.0,0.125,2.879638377,4.389674732977291,0.0012207029999995456,2.0,0.125,0.0,-115.74803106486797,0.0,0.25,2.086181427,0.5526872062785609,0.0,0.20999999344348907,-0.4000000059604645,-2.3399999141693115,0.00518798828125,0.030517578125,1.00921630859375,29.010000228881836,0.0,11.0,-9.613037109375E-4,-3.814697265625E-4,Closing,0.0,0.0,0.0,0.0,0.0,0.0,0.0,0.0,
0.6132910000000266,0.0,0.0,0.0,0.0,0.0,-115.74803106486797,0.0,0.375,1.287841665,0.5498168668524864,0.0,0.0,0.0,0.0,-115.74803106486797,0.0,0.0,4.947509259,4.41043958977222,0.0,0.0,0.0,0.0,-115.74803106486797,0.0,0.125,2.874755565,4.389674732977291,0.0,2.0,0.125,0.0,-115.74803106486797,0.0,0.25,2.086181427,0.5526872062785609,0.0,0.20999999344348907,-0.4000000059604645,-2.3299999237060547,-0.00677490234375,0.0240478515625,0.99627685546875,29.010000228881836,0.0,0.0,-9.613037109375E-4,-2.74658203125E-4,Closing,0.0,0.0,0.0,0.0,0.0,0.0,0.0,0.0,
0.6434970000000322,0.0,0.0,0.0,0.0,0.0,-115.74803106486797,0.0,0.25,1.2658690110000002,0.5498168668524864,0.0012207029999999897,0.0,0.0,0.0,-115.74803106486797,0.0,0.0,0.020751951,4.41043958977222,0.006103515000000392,0.0,0.0,0.0,-115.74803106486797,0.0,0.125,2.872314159,4.389674732977291,0.0,2.0,0.125,0.0,-115.74803106486797,0.0,0.25,2.086181427,0.5526872062785609,0.0012207029999999897,0.20999999344348907,-0.41999998688697815,-2.309999942779541,-0.01318359375,0.01324462890625,1.012939453125,29.010000228881836,0.0,-6.0,-9.613037109375E-4,-1.373291015625E-4,Closing,0.0,0.0,0.0,0.0,0.0,0.0,0.0,0.0,
0.6713930000000401,0.0,0.0,0.0,0.0,0.0,-115.74803106486797,0.0,0.25,1.259765496,0.5498168668524864,0.0,0.0,0.0,0.0,-115.74803106486797,0.0,0.0,0.034179684,4.41043958977222,0.0,0.0,0.0,0.0,-115.74803106486797,0.0,0.125,2.873534862,4.389674732977291,0.0,2.0,0.125,0.0,-115.74803106486797,0.0,0.25,2.083740021,0.5526872062785609,0.0,0.23000000417232513,-0.41999998688697815,-2.299999952316284,-0.0198974609375,-0.01324462890625,1.014892578125,29.010000228881836,0.0,-11.0,-9.613037109375E-4,-1.373291015625E-4,Closing,0.0,0.0,0.0,0.0,0.0,0.0,0.0,0.0,
0.6996039999999921,0.0,0.0,0.0,0.0,0.0,-115.74803106486797,0.0,0.25,1.2902830710000002,0.5498168668524864,0.0,0.0,0.0,0.0,-115.74803106486797,0.0,0.0,0.037841793,4.41043958977222,0.010986327000000351,0.0,0.0,0.0,-115.74803106486797,0.0,0.125,2.873534862,4.389674732977291,0.0012207029999995456,2.0,0.125,0.0,-115.74803106486797,0.0,0.25,2.091064239,0.5526872062785609,0.003662108999999969,0.23999999463558197,-0.41999998688697815,-2.299999952316284,-0.03143310546875,-0.02337646484375,1.039306640625,29.010000228881836,0.0,-22.0,-9.765625E-4,-2.288818359375E-4,Closing,0.0,0.0,0.0,0.0,0.0,0.0,0.0,0.0,
0.7324770000000135,0.0,0.0,-1.0,0.0,0.0,-115.74803106486797,0.0,0.25,1.2658690110000002,0.5498168668524864,0.0,0.0,0.0,0.0,-115.74803106486797,0.0,0.0,0.037841793,4.41043958977222,-0.0012207030000004337,0.0,0.0,0.0,-115.74803106486797,0.0,0.125,2.873534862,4.389674732977291,0.0,2.0,0.125,0.0,-115.74803106486797,0.0,0.25,2.089843536,0.5526872062785609,0.0,0.23000000417232513,-0.4099999964237213,-2.299999952316284,-0.0302734375,-0.03509521484375,1.02239990234375,29.010000228881836,0.0,-21.0,-0.001129150390625,-5.035400390625E-4,Closing,0.0,0.0,0.0,0.0,0.0,0.0,0.0,0.0,
0.755558000000019,0.0,0.0,-1.0,0.0,-7.5,-115.74803106486797,0.0,0.25,1.2634276050000002,0.5498168668524864,0.0,0.0,0.0,0.0,-115.74803106486797,0.0,0.0,0.03662109,4.41043958977222,0.0012207030000004337,0.0,0.0,0.0,-115.74803106486797,0.0,0.125,2.874755565,4.389674732977291,0.0012207029999995456,2.0,0.125,0.0,-115.74803106486797,0.0,0.25,2.086181427,0.5526872062785609,0.003662108999999969,0.23000000417232513,-0.4099999964237213,-2.299999952316284,-0.04656982421875,-0.03851318359375,1.030029296875,29.0,0.0,-37.0,-0.0014190673828125,-9.918212890625E-4,Closing,0.0,0.0,0.0,0.0,0.0,0.0,0.0,0.0,
0.7912430000000168,0.0,0.0,-1.0,0.0,0.0,-115.74803106486797,0.0,0.25,1.2658690110000002,0.5498168668524864,0.0,0.0,0.0,0.0,-115.74803106486797,0.0,0.0,0.032958981,4.41043958977222,-0.004882811999999959,0.0,0.0,0.0,-115.74803106486797,0.0,0.125,2.884521189,4.389674732977291,0.0,2.0,0.125,0.0,-115.74803106486797,0.0,0.25,2.091064239,0.5526872062785609,-0.0024414059999999793,0.2199999988079071,-0.4099999964237213,-2.299999952316284,-0.04541015625,-0.04052734375,1.02630615234375,29.0,0.0,-36.0,-0.001922607421875,-0.001739501953125,Closing,0.0,0.0,0.0,0.0,0.0,0.0,0.0,0.0,
0.8259900000000489,0.0,0.0,-2.0,0.0,0.0,-115.74803106486797,0.0,0.25,1.276855338,0.5498168668524864,0.0,0.0,0.0,0.0,-115.74803106486797,0.0,0.0,0.029296872,4.41043958977222,0.0,0.0,0.0,0.0,-115.74803106486797,0.0,0.125,2.873534862,4.389674732977291,0.0,2.0,0.125,0.0,-115.74803106486797,0.0,0.25,2.091064239,0.5526872062785609,0.0,0.23000000417232513,-0.41999998688697815,-2.309999942779541,-0.04156494140625,-0.05322265625,1.038330078125,29.0,0.0,-31.0,-0.0026092529296875,-0.0027313232421875,Closing,0.0,0.0,0.0,0.0,0.0,0.0,0.0,0.0,
0.8642829999999958,0.0,0.0,-2.0,0.0,-7.5,-115.74803106486797,0.0,0.25,1.2670897140000001,0.5498168668524864,-0.0012207029999999897,0.0,0.0,0.0,-115.74803106486797,0.0,0.0,0.030517575,4.41043958977222,0.0,0.0,0.125,0.0,-115.74803106486797,0.0,0.125,2.874755565,4.389674732977291,0.0,2.0,0.125,0.0,-115.74803106486797,0.0,0.25,2.089843536,0.5526872062785609,0.0,0.23000000417232513,-0.4300000071525574,-2.309999942779541,-0.034912109375,-0.044921875,1.05419921875,29.0,0.0,-24.0,-0.00396728515625,-0.0047607421875,Closing,0.0,0.0,0.0,0.0,0.0,0.0,0.0,0.0,
0.8908610000000335,0.0,0.0,-2.0,0.0,0.0,-115.74803106486797,0.0,0.25,1.282958853,0.5498168668524864,-0.0012207029999999897,0.0,0.0,0.0,-115.74803106486797,0.0,0.0,0.029296872,4.41043958977222,0.0,0.0,0.0,0.0,-115.74803106486797,0.0,0.125,2.877196971,4.389674732977291,0.0,2.0,0.125,0.0,-115.74803106486797,0.0,0.25,2.091064239,0.5526872062785609,0.0,0.23000000417232513,-0.4300000071525574,-2.309999942779541,-0.01513671875,-0.0408935546875,1.055419921875,29.0,0.0,-5.0,-0.004486083984375,-0.0064544677734375,Closing,0.0,0.0,0.0,0.0,0.0,0.0,0.0,0.0,
0.9136540000000386,0.0,0.0,-2.0,0.0,0.0,-115.74803106486797,0.0,0.25,1.2658690110000002,0.5498168668524864,0.0012207029999999897,0.0,0.0,-7.5,-115.74803106486797,0.0,0.0,0.028076169,4.41043958977222,0.0,0.0,0.0,0.0,-115.74803106486797,0.0,0.125,2.874755565,4.389674732977291,0.0,2.0,0.125,0.0,-115.74803106486797,0.0,0.25,2.091064239,0.5526872062785609,0.0,0.2199999988079071,-0.41999998688697815,-2.309999942779541,-0.01800537109375,-0.0277099609375,1.05621337890625,29.0,0.0,-8.0,-0.004486083984375,-0.0083770751953125,Closing,0.0,0.0,0.0,0.0,0.0,0.0,0.0,0.0,
0.9433270000000484,0.0,0.0,-2.0,0.0,0.0,-115.74803106486797,0.0,0.25,1.2658690110000002,0.5498168668524864,0.0,-2.0,0.0,-7.5,-115.74803106486797,0.0,0.0,0.029296872,4.41043958977222,0.0,0.0,0.125,0.0,-115.74803106486797,0.0,0.125,2.874755565,4.389674732977291,0.0012207029999995456,2.0,0.125,0.0,-115.74803106486797,0.0,0.25,2.084960724,0.5526872062785609,0.0,0.2199999988079071,-0.41999998688697815,-2.299999952316284,-0.00836181640625,-0.0318603515625,1.05218505859375,29.0,0.0,0.0,-0.004486083984375,-0.0094146728515625,Closing,0.0,0.0,0.0,0.0,0.0,0.0,0.0,0.0,
0.9863310000000056,0.0,0.0,-2.0,0.0,0.0,-115.74803106486797,0.0,0.25,1.2670897140000001,0.5498168668524864,0.0,-2.0,0.0,-7.5,-115.74803106486797,0.0,0.0,0.028076169,4.41043958977222,0.0,0.0,0.0,0.0,-115.74803106486797,0.0,0.125,2.874755565,4.389674732977291,0.0,2.0,0.125,0.0,-115.74803106486797,0.0,0.25,2.092284942,0.5526872062785609,0.0,0.2199999988079071,-0.41999998688697815,-2.299999952316284,-0.0042724609375,-0.0115966796875,1.03118896484375,29.0,0.0,4.0,-0.004486083984375,-0.012725830078125,Closing,0.0,0.0,0.0,0.0,0.0,0.0,0.0,0.0,
1.009588000000047,0.0,0.0,-2.0,0.0,0.0,-115.74803106486797,0.0,0.25,1.2658690110000002,0.5498168668524864,0.0,-2.0,0.0,-7.5,-115.74803106486797,0.0,0.0,0.029296872,4.41043958977222,0.0,0.0,0.0,0.0,-115.74803106486797,0.0,0.125,2.875976268,4.389674732977291,-0.0012207029999995456,2.0,0.125,0.0,-115.74803106486797,0.0,0.25,2.091064239,0.5526872062785609,0.0,0.2199999988079071,-0.4300000071525574,-2.299999952316284,-0.0089111328125,0.0013427734375,1.02386474609375,29.0,0.0,-1.0,-0.004486083984375,-0.012725830078125,Closing,0.0,0.0,0.0,0.0,0.0,0.0,0.0,0.0,
1.045823000000033,0.0,0.0,-2.0,0.0,0.0,-115.74803106486797,0.0,0.25,1.2658690110000002,0.5498168668524864,0.0,-2.0,0.125,-15.0,-115.74803106486797,0.0,0.0,0.029296872,4.41043958977222,0.0,0.0,0.125,0.0,-115.74803106486797,0.0,0.125,2.875976268,4.389674732977291,0.0012207029999995456,2.0,0.125,0.0,-115.74803106486797,0.0,0.25,2.086181427,0.5526872062785609,-0.0012207029999999897,0.20999999344348907,-0.4399999976158142,-2.309999942779541,-3.0517578125E-4,0.01348876953125,1.02227783203125,29.0,0.0,7.0,-0.004486083984375,-0.012725830078125,Closing,0.0,0.0,0.0,0.0,0.0,0.0,0.0,0.0,
1.072265000000014,0.0,0.0,-2.0,0.0,0.0,-115.74803106486797,0.0,0.25,1.2658690110000002,0.5498168668524864,0.0,-6.0,0.125,-15.0,-115.74803106486797,0.0,0.0,0.028076169,4.41043958977222,0.0,0.0,0.125,0.0,-115.74803106486797,0.0,0.125,2.874755565,4.389674732977291,0.0,2.0,0.125,0.0,-115.74803106486797,0.0,0.25,2.091064239,0.5526872062785609,0.0,0.20999999344348907,-0.44999998807907104,-2.309999942779541,0.01275634765625,0.0230712890625,1.0250244140625,29.0,0.0,20.0,-0.0044708251953125,-0.0127105712890625,Closing,0.0,0.0,0.0,0.0,0.0,0.0,0.0,0.0,
1.0940200000000186,0.0,0.0,-2.0,0.0,0.0,-115.74803106486797,0.0,0.25,1.2658690110000002,0.5498168668524864,0.0012207029999999897,-6.0,0.125,-15.0,-115.74803106486797,0.0,0.0,0.029296872,4.41043958977222,0.0,0.0,0.0,0.0,-115.74803106486797,0.0,0.125,2.874755565,4.389674732977291,0.0,2.0,0.125,0.0,-115.74803106486797,0.0,0.25,2.091064239,0.5526872062785609,0.0012207029999999897,0.20000000298023224,-0.4399999976158142,-2.299999952316284,0.013671875,0.03839111328125,1.03082275390625,29.0,0.0,20.0,-0.004425048828125,-0.01263427734375,Closing,0.0,0.0,0.0,0.0,0.0,0.0,0.0,0.0,
1.115064000000013,0.0,0.0,-2.0,0.0,0.0,-115.74803106486797,0.0,0.25,1.2670897140000001,0.5498168668524864,0.0,-6.0,0.125,-15.0,-115.74803106486797,0.0,0.0,0.028076169,4.41043958977222,0.0,0.0,0.0,0.0,-115.74803106486797,0.0,0.125,2.875976268,4.389674732977291,0.0,2.0,0.125,0.0,-115.74803106486797,0.0,0.25,2.091064239,0.5526872062785609,0.0,0.20000000298023224,-0.4399999976158142,-2.299999952316284,0.020263671875,0.03448486328125,1.02392578125,29.0,0.0,26.0,-0.004241943359375,-0.0123748779296875,Closing,0.0,0.0,0.0,0.0,0.0,0.0,0.0,0.0,
1.1445599999999976,0.0,0.0,-2.0,0.0,-7.5,-115.74803106486797,0.0,0.25,1.271972526,0.5498168668524864,0.0012207029999999897,-6.0,0.0,-15.0,-115.74803106486797,0.0,0.0,0.029296872,4.41043958977222,0.0,0.0,0.0,0.0,-115.74803106486797,0.0,0.125,2.874755565,4.389674732977291,-0.0012207029999995456,2.0,0.125,0.0,-115.74803106486797,0.0,0.25,2.091064239,0.5526872062785609,0.0012207029999999897,0.20999999344348907,-0.4399999976158142,-2.2899999618530273,0.01788330078125,0.05548095703125,1.01922607421875,29.0,0.0,23.0,-0.0039215087890625,-0.011871337890625,Closing,0.0,0.0,0.0,0.0,0.0,0.0,0.0,0.0,
1.1680540000000037,0.0,0.0,-2.0,0.0,-22.5,-115.74803106486797,0.0,0.25,1.2670897140000001,0.5498168668524864,0.0,-6.0,0.125,-7.5,-115.74803106486797,0.0,0.0,0.029296872,4.41043958977222,0.0,0.0,0.125,0.0,-115.74803106486797,0.0,0.125,2.873534862,4.389674732977291,0.0,2.0,0.375,0.0,-115.74803106486797,0.0,0.25,2.089843536,0.5526872062785609,0.0,0.20999999344348907,-0.4399999976158142,-2.2899999618530273,0.02789306640625,0.06890869140625,1.01678466796875,29.0,0.0,33.0,-0.0037078857421875,-0.011505126953125,Closing,0.0,0.0,0.0,0.0,0.0,0.0,0.0,0.0,
1.1921730000000097,0.0,0.0,-13.0,0.0,-45.0,-115.74803106486797,0.0,0.25,1.2670897140000001,0.5498168668524864,-0.0012207029999999897,-6.0,0.125,0.0,-115.74803106486797,0.0,0.0,0.029296872,4.41043958977222,0.0,0.0,0.125,0.0,-115.74803106486797,0.0,0.125,2.873534862,4.389674732977291,0.0,2.0,0.375,0.0,-115.74803106486797,0.0,0.25,2.089843536,0.5526872062785609,0.0,0.20999999344348907,-0.4399999976158142,-2.2899999618530273,0.024658203125,0.05596923828125,1.00006103515625,29.0,0.0,30.0,-0.003173828125,-0.0105438232421875,Closing,0.0,0.0,0.0,0.0,0.0,0.0,0.0,0.0,
1.2132540000000154,0.0,0.0,-13.0,0.0,-60.0,-115.74803106486797,0.0,0.25,1.252441278,0.5498168668524864,0.0024414059999999793,-6.0,0.125,0.0,-115.74803106486797,0.0,0.0,0.028076169,4.41043958977222,0.0,0.0,0.125,0.0,-115.74803106486797,0.0,0.125,2.878417674,4.389674732977291,0.0,2.0,0.375,0.0,-115.74803106486797,0.0,0.25,2.091064239,0.5526872062785609,0.0,0.20999999344348907,-0.4399999976158142,-2.299999952316284,0.024658203125,0.06591796875,1.00775146484375,29.0,0.0,29.0,-0.002471923828125,-0.00927734375,Closing,0.0,0.0,0.0,0.0,0.0,0.0,0.0,0.0,
1.2394760000000242,0.0,0.0,-13.0,0.0,-67.5,-115.74803106486797,0.0,0.25,1.2683104170000001,0.5498168668524864,0.0,-6.0,0.125,0.0,-115.74803106486797,0.0,0.0,0.028076169,4.41043958977222,0.0,0.0,0.125,0.0,-115.74803106486797,0.0,0.125,2.866210644,4.389674732977291,0.0,2.0,0.375,0.0,-115.74803106486797,0.0,0.25,2.091064239,0.5526872062785609,0.0012207029999999897,0.20999999344348907,-0.4399999976158142,-2.2899999618530273,0.0172119140625,0.06573486328125,1.00164794921875,29.0,0.0,22.0,-0.0020599365234375,-0.008514404296875,Closing,0.0,0.0,0.0,0.0,0.0,0.0,0.0,0.0,
1.2639900000000488,0.0,0.0,-13.0,0.0,-52.5,-115.74803106486797,0.0,0.25,1.2695311200000001,0.5498168668524864,-0.0012207029999999897,-6.0,0.25,0.0,-115.74803106486797,0.0,0.0,0.030517575,4.41043958977222,0.0,0.0,0.0,0.0,-115.74803106486797,0.0,0.125,2.863769238,4.389674732977291,0.0,2.0,0.375,0.0,-115.74803106486797,0.0,0.25,2.078857209,0.5526872062785609,0.0,0.20999999344348907,-0.4300000071525574,-2.2899999618530273,0.02490234375,0.04376220703125,0.9920654296875,29.020000457763672,0.0,30.0,-0.0011444091796875,-0.0067596435546875,Closing,0.0,0.0,0.0,0.0,0.0,0.0,0.0,0.0,
1.291481000000029,0.0,0.0,-13.0,0.0,-37.5,-115.74803106486797,0.0,0.25,1.2646483080000002,0.5498168668524864,-0.0012207029999999897,-6.0,0.25,0.0,-115.74803106486797,0.0,0.0,0.029296872,4.41043958977222,0.0,0.0,0.0,0.0,-115.74803106486797,0.0,0.125,2.873534862,4.389674732977291,0.0012207029999995456,2.0,0.375,0.0,-115.74803106486797,0.0,0.25,2.086181427,0.5526872062785609,-0.0012207029999999897,0.20999999344348907,-0.4399999976158142,-2.2799999713897705,0.01507568359375,0.04168701171875,1.00457763671875,29.020000457763672,0.0,21.0,-6.103515625E-5,-0.004791259765625,Closing,0.0,0.0,0.0,0.0,0.0,0.0,0.0,0.0,
1.3149000000000233,0.0,0.0,-15.0,0.125,-15.0,-115.74803106486797,0.0,0.25,1.2634276050000002,0.5498168668524864,0.0012207029999999897,-7.0,0.25,0.0,-115.74803106486797,0.0,0.0,0.029296872,4.41043958977222,0.0,0.0,0.125,0.0,-115.74803106486797,0.0,0.125,2.873534862,4.389674732977291,0.0,2.0,0.375,0.0,-115.74803106486797,0.0,0.25,2.091064239,0.5526872062785609,0.0,0.20999999344348907,-0.44999998807907104,-2.2799999713897705,0.0042724609375,0.032470703125,1.00201416015625,29.020000457763672,0.0,10.0,5.035400390625E-4,-0.00262451171875,Closing,0.0,0.0,0.0,0.0,0.0,0.0,0.0,0.0,
1.3495910000000149,0.0,0.0,-15.0,0.125,0.0,-115.74803106486797,0.0,0.25,1.280517447,0.5498168668524864,0.0,-7.0,0.25,-7.5,-115.74803106486797,0.0,0.0,0.028076169,4.41043958977222,0.0,0.0,0.125,0.0,-115.74803106486797,0.0,0.125,2.874755565,4.389674732977291,0.0,2.0,0.375,0.0,-115.74803106486797,0.0,0.25,2.080077912,0.5526872062785609,0.0,0.20000000298023224,-0.44999998807907104,-2.2799999713897705,0.00689697265625,0.0283203125,1.01446533203125,29.020000457763672,0.0,14.0,5.035400390625E-4,-0.0014801025390625,Closing,0.0,0.0,0.0,0.0,0.0,0.0,0.0,0.0,
1.3720530000000144,0.0,0.0,-15.0,0.125,-7.5,-115.74803106486797,0.0,0.25,1.2658690110000002,0.5498168668524864,0.0,-7.0,0.25,-7.5,-115.74803106486797,0.0,0.0,0.030517575,4.41043958977222,0.0,0.0,0.125,0.0,-115.74803106486797,0.0,0.125,2.866210644,4.389674732977291,0.0,2.0,0.375,0.0,-115.74803106486797,0.0,0.25,2.091064239,0.5526872062785609,0.0,0.20000000298023224,-0.46000000834465027,-2.2799999713897705,0.0010986328125,0.02508544921875,1.00469970703125,29.020000457763672,0.0,8.0,5.035400390625E-4,8.85009765625E-4,Closing,0.0,0.0,0.0,0.0,0.0,0.0,0.0,0.0,
1.3946590000000434,0.0,0.0,-15.0,0.125,-7.5,-115.74803106486797,0.0,0.25,1.2658690110000002,0.5498168668524864,0.0,-7.0,0.375,0.0,-115.74803106486797,0.0,0.0,0.029296872,4.41043958977222,0.0,0.0,0.125,0.0,-115.74803106486797,0.0,0.125,2.874755565,4.389674732977291,0.0,2.0,0.375,0.0,-115.74803106486797,0.0,0.25,2.089843536,0.5526872062785609,0.0,0.20000000298023224,-0.46000000834465027,-2.259999990463257,0.003662109375,0.0185546875,1.01556396484375,29.020000457763672,0.0,11.0,5.035400390625E-4,0.0033721923828125,Closing,0.0,0.0,0.0,0.0,0.0,0.0,0.0,0.0,
1.4146560000000172,0.0,0.0,-15.0,0.125,-7.5,-115.74803106486797,0.0,0.25,1.2939451800000001,0.5498168668524864,0.0,-7.0,0.375,0.0,-115.74803106486797,0.0,0.0,0.030517575,4.41043958977222,0.0,0.0,0.125,0.0,-115.74803106486797,0.0,0.125,2.874755565,4.389674732977291,0.0,2.0,0.375,0.0,-115.74803106486797,0.0,0.25,2.089843536,0.5526872062785609,0.0,0.20000000298023224,-0.46000000834465027,-2.259999990463257,0.002197265625,0.0137939453125,1.01458740234375,29.020000457763672,0.0,10.0,5.035400390625E-4,0.0033721923828125,Closing,0.0,0.0,0.0,0.0,0.0,0.0,0.0,0.0,
1.446380999999994,0.0,0.0,-16.0,0.125,-7.5,-115.74803106486797,0.0,0.25,1.2634276050000002,0.5498168668524864,0.0012207029999999897,-7.0,0.375,0.0,-115.74803106486797,0.0,0.0,0.030517575,4.41043958977222,0.0,0.0,0.125,0.0,-115.74803106486797,0.0,0.125,2.874755565,4.389674732977291,-0.0012207029999995456,2.0,0.375,0.0,-115.74803106486797,0.0,0.25,2.089843536,0.5526872062785609,0.0,0.20999999344348907,-0.44999998807907104,-2.259999990463257,-0.00714111328125,0.00634765625,1.0203857421875,29.020000457763672,0.0,0.0,5.035400390625E-4,0.0033721923828125,Closing,0.0,0.0,0.0,0.0,0.0,0.0,0.0,0.0,
1.4693610000000334,0.0,0.0,-16.0,0.375,0.0,-115.74803106486797,0.0,0.25,1.2670897140000001,0.5498168668524864,-0.0012207029999999897,-7.0,0.375,0.0,-115.74803106486797,0.0,0.0,0.029296872,4.41043958977222,0.0,0.0,0.125,0.0,-115.74803106486797,0.0,0.125,2.874755565,4.389674732977291,0.0,2.0,0.375,0.0,-115.74803106486797,0.0,0.25,2.091064239,0.5526872062785609,0.0,0.20999999344348907,-0.4399999976158142,-2.259999990463257,-0.021728515625,-0.00384521484375,1.01611328125,29.020000457763672,0.0,-13.0,5.035400390625E-4,0.0033721923828125,Closing,0.0,0.0,0.0,0.0,0.0,0.0,0.0,0.0,
1.4926370000000462,0.0,0.0,-16.0,0.375,0.0,-115.74803106486797,0.0,0.25,1.2683104170000001,0.5498168668524864,0.0,-7.0,0.5,0.0,-115.74803106486797,0.0,0.0,0.028076169,4.41043958977222,0.0,0.0,0.125,0.0,-115.74803106486797,0.0,0.125,2.873534862,4.389674732977291,0.0012207029999995456,2.0,0.375,0.0,-115.74803106486797,0.0,0.25,2.086181427,0.5526872062785609,0.0,0.20999999344348907,-0.4399999976158142,-2.25,-0.02105712890625,-0.01605224609375,1.0235595703125,29.020000457763672,0.0,-12.0,5.035400390625E-4,0.00335693359375,Closing,0.0,0.0,0.0,0.0,0.0,0.0,0.0,0.0,
1.5139299999999931,0.0,0.0,-16.0,0.375,0.0,-115.74803106486797,0.0,0.25,1.2658690110000002,0.5498168668524864,0.0,-7.0,0.5,0.0,-115.74803106486797,0.0,0.0,0.028076169,4.41043958977222,0.0,0.0,0.125,0.0,-115.74803106486797,0.0,0.125,2.874755565,4.389674732977291,0.0,2.0,0.375,-7.5,-115.74803106486797,0.0,0.25,2.089843536,0.5526872062785609,0.0,0.20999999344348907,-0.4399999976158142,-2.25,-0.0230712890625,-0.0247802734375,1.01806640625,29.020000457763672,0.0,-14.0,5.035400390625E-4,0.0032958984375,Closing,0.0,0.0,0.0,0.0,0.0,0.0,0.0,0.0,
1.5417820000000064,0.0,0.0,-16.0,0.625,0.0,-115.74803106486797,0.0,0.25,1.2658690110000002,0.5498168668524864,0.0,-7.0,0.625,0.0,-115.74803106486797,0.0,0.0,0.028076169,4.41043958977222,0.0,0.0,0.125,0.0,-115.74803106486797,0.0,0.125,2.874755565,4.389674732977291,0.0,1.0,0.625,-7.5,-115.74803106486797,0.0,0.25,2.091064239,0.5526872062785609,0.0,0.2199999988079071,-0.4300000071525574,-2.240000009536743,-0.02642822265625,-0.0140380859375,1.03460693359375,29.020000457763672,0.0,-17.0,5.035400390625E-4,0.0030975341796875,Closing,0.0,0.0,0.0,0.0,0.0,0.0,0.0,0.0,
1.5601660000000266,0.0,0.0,-16.0,0.625,0.0,-115.74803106486797,0.0,0.25,1.2670897140000001,0.5498168668524864,0.0,-7.0,0.625,0.0,-115.74803106486797,0.0,0.0,0.029296872,4.41043958977222,0.0,0.0,0.125,0.0,-115.74803106486797,0.0,0.125,2.874755565,4.389674732977291,0.0012207029999995456,1.0,0.625,0.0,-115.74803106486797,0.0,0.25,2.091064239,0.5526872062785609,0.0,0.2199999988079071,-0.4300000071525574,-2.2300000190734863,-0.03765869140625,-0.02545166015625,1.02490234375,29.020000457763672,0.0,-28.0,4.119873046875E-4,0.002777099609375,Closing,0.0,0.0,0.0,0.0,0.0,0.0,0.0,0.0,
1.5892050000000162,0.0,0.0,-16.0,0.625,0.0,-115.74803106486797,0.0,0.25,1.2670897140000001,0.5498168668524864,0.0,-7.0,0.625,0.0,-115.74803106486797,0.0,0.0,0.029296872,4.41043958977222,0.0,0.0,0.125,0.0,-115.74803106486797,0.0,0.125,2.875976268,4.389674732977291,0.0,1.0,0.625,0.0,-115.74803106486797,0.0,0.25,2.092284942,0.5526872062785609,0.0,0.2199999988079071,-0.4300000071525574,-2.2300000190734863,-0.04278564453125,-0.0277099609375,1.02630615234375,29.020000457763672,0.0,-33.0,3.0517578125E-4,0.0025482177734375,Closing,0.0,0.0,0.0,0.0,0.0,0.0,0.0,0.0,
1.6091849999999976,0.0,0.0,-16.0,0.625,0.0,-115.74803106486797,0.0,0.25,1.2670897140000001,0.5498168668524864,0.0,-7.0,0.75,0.0,-115.74803106486797,0.0,0.0,0.026855466,4.41043958977222,0.0,0.0,0.125,0.0,-115.74803106486797,0.0,0.125,2.874755565,4.389674732977291,0.0,1.0,0.375,0.0,-115.74803106486797,0.0,0.25,2.088622833,0.5526872062785609,0.0,0.23000000417232513,-0.4300000071525574,-2.2300000190734863,-0.03668212890625,-0.02435302734375,1.029541015625,29.020000457763672,0.0,-27.0,1.52587890625E-4,0.002288818359375,Closing,0.0,0.0,0.0,0.0,0.0,0.0,0.0,0.0,
1.6314250000000465,0.0,0.0,-16.0,0.75,0.0,-115.74803106486797,0.0,0.25,1.2658690110000002,0.5498168668524864,0.0,-7.0,1.125,0.0,-115.74803106486797,0.0,0.0,0.029296872,4.41043958977222,0.0,0.0,0.125,0.0,-115.74803106486797,0.0,0.125,2.873534862,4.389674732977291,0.0,1.0,0.375,-7.5,-115.74803106486797,0.0,0.25,2.091064239,0.5526872062785609,0.0,0.2199999988079071,-0.41999998688697815,-2.2300000190734863,-0.04339599609375,-0.040283203125,1.03924560546875,29.020000457763672,0.0,-33.0,-2.44140625E-4,0.001617431640625,Closing,0.0,0.0,0.0,0.0,0.0,0.0,0.0,0.0,
1.6545290000000386,0.0,0.0,-16.0,1.0,-7.5,-115.74803106486797,0.0,0.25,1.2658690110000002,0.5498168668524864,-0.0012207029999999897,-7.0,1.75,-15.0,-115.74803106486797,0.0,0.0,0.029296872,4.41043958977222,0.0,0.0,0.125,0.0,-115.74803106486797,0.0,0.125,2.874755565,4.389674732977291,0.0,-8.0,0.375,-22.5,-115.74803106486797,0.0,0.25,2.091064239,0.5526872062785609,0.0,0.2199999988079071,-0.41999998688697815,-2.2200000286102295,-0.04156494140625,-0.04034423828125,1.03497314453125,29.020000457763672,0.0,-32.0,-5.18798828125E-4,0.001190185546875,Closing,0.0,0.0,0.0,0.0,0.0,0.0,0.0,0.0,
1.683042000000016,0.0,0.0,-21.0,2.125,-22.5,-115.74803106486797,0.0,0.25,1.278076041,0.5498168668524864,0.0,-15.0,2.625,-30.0,-115.74803106486797,0.0,0.0,0.029296872,4.41043958977222,0.0,0.0,0.125,0.0,-115.74803106486797,0.0,0.125,2.874755565,4.389674732977291,0.0,-8.0,0.375,-45.0,-115.74803106486797,0.0,0.25,2.091064239,0.5526872062785609,0.0,0.18000000715255737,-0.38999998569488525,-2.1600000858306885,-0.092529296875,-0.09173583984375,0.9576416015625,29.020000457763672,0.0,-82.0,-8.392333984375E-4,7.01904296875E-4,Closing,0.0,0.0,0.0,0.0,0.0,0.0,0.0,0.0,
1.7038250000000117,0.0,0.0,-21.0,2.75,-30.0,-115.74803106486797,0.0,0.25,1.2707518230000001,0.5498168668524864,0.003662108999999969,-15.0,3.25,-52.5,-115.74803106486797,0.0,0.0,0.028076169,4.41043958977222,0.0,0.0,0.125,0.0,-115.74803106486797,0.0,0.125,2.869872753,4.389674732977291,-0.0012207029999995456,-8.0,0.375,-60.0,-115.74803106486797,0.0,0.25,2.089843536,0.5526872062785609,-0.0012207029999999897,0.14000000059604645,-0.4099999964237213,-2.0899999141693115,-0.0560302734375,-0.03936767578125,1.0177001953125,29.020000457763672,0.0,-47.0,-0.001678466796875,-5.79833984375E-4,Closing,0.0,0.0,0.0,0.0,0.0,0.0,0.0,0.0,
1.7236290000000154,0.0,0.0,-21.0,2.875,-45.0,-115.74803106486797,0.0,0.25,1.2695311200000001,0.5498168668524864,0.0,-15.0,3.625,-75.0,-115.74803106486797,0.0,0.0,0.029296872,4.41043958977222,0.0,0.0,0.125,0.0,-115.74803106486797,0.0,0.125,2.869872753,4.389674732977291,0.0,-8.0,0.375,-82.5,-115.74803106486797,0.0,0.25,2.091064239,0.5526872062785609,0.0,0.1599999964237213,-0.4399999976158142,-1.8600000143051147,-0.068359375,0.01458740234375,1.02117919921875,29.020000457763672,0.0,-60.0,-0.00286865234375,-0.0019989013671875,Closing,0.0,0.0,0.0,0.0,0.0,0.0,0.0,0.0,
1.7490420000000158,0.0,0.0,-21.0,3.0,-60.0,-115.74803106486797,0.0,0.25,1.275634635,0.5498168668524864,-0.0012207029999999897,-15.0,3.375,-82.5,-115.74803106486797,0.0,0.0,0.026855466,4.41043958977222,0.0,0.0,0.375,0.0,-115.74803106486797,0.0,0.125,2.869872753,4.389674732977291,-0.0024414059999999793,-8.0,0.375,-97.5,-115.74803106486797,0.0,0.25,2.091064239,0.5526872062785609,0.0,0.18000000715255737,-0.41999998688697815,-1.7200000286102295,-0.0306396484375,0.026123046875,1.01678466796875,29.020000457763672,0.0,-23.0,-0.003570556640625,-0.002685546875,Closing,0.0,0.0,0.0,0.0,0.0,0.0,0.0,0.0,
1.7685420000000158,0.0,0.0,-21.0,2.875,-67.5,-115.74803106486797,0.0,0.25,1.280517447,0.5498168668524864,0.006103514999999948,-15.0,3.25,-90.0,-115.74803106486797,0.0,0.0,0.029296872,4.41043958977222,0.0,0.0,0.375,0.0,-115.74803106486797,0.0,0.125,2.869872753,4.389674732977291,0.0,-8.0,0.375,-97.5,-115.74803106486797,0.0,0.125,2.094726348,0.5526872062785609,0.0,0.23999999463558197,-0.41999998688697815,-1.4600000381469727,-0.04815673828125,1.8310546875E-4,1.03509521484375,29.020000457763672,0.0,-40.0,-0.00506591796875,-0.0040283203125,Closing,0.0,0.0,0.0,0.0,0.0,0.0,0.0,0.0,
1.791801000000036,0.0,0.0,-33.0,2.625,-67.5,-115.74803106486797,0.0,0.25,1.300048695,0.5498168668524864,0.009765623999999917,-29.0,3.125,-90.0,-115.74803106486797,0.0,0.0,0.030517575,4.41043958977222,0.0,-1.0,0.375,-7.5,-115.74803106486797,0.0,0.125,2.869872753,4.389674732977291,0.0,-22.0,0.125,-97.5,-115.74803106486797,0.0,0.125,2.095947051,0.5526872062785609,0.004882811999999959,0.25999999046325684,-0.4300000071525574,-1.3200000524520874,-0.06427001953125,-0.0054931640625,1.056884765625,29.020000457763672,0.0,-55.0,-0.0059051513671875,-0.0040283203125,Closing,0.0,0.0,0.0,0.0,0.0,0.0,0.0,0.0,
1.8111080000000075,0.0,0.0,-33.0,2.25,-67.5,-115.74803106486797,0.0,0.125,1.2951658830000001,0.5498168668524864,0.003662109000000191,-29.0,3.125,-90.0,-115.74803106486797,0.0,0.0,0.028076169,4.41043958977222,0.0,-1.0,0.125,-7.5,-115.74803106486797,0.0,0.125,2.869872753,4.389674732977291,-0.0012207029999995456,-22.0,0.125,-90.0,-115.74803106486797,0.0,0.125,2.095947051,0.5526872062785609,0.0,0.25,-0.4300000071525574,-1.2000000476837158,-0.0693359375,-0.06060791015625,1.016357421875,29.020000457763672,0.0,-60.0,-0.0068206787109375,-0.0040740966796875,Closing,0.0,0.0,0.0,0.0,0.0,0.0,0.0,0.0,
1.833414000000048,0.0,0.0,-33.0,2.25,-67.5,-115.74803106486797,0.0,0.125,1.300048695,0.5498168668524864,0.010986326999999907,-29.0,3.25,-90.0,-115.74803106486797,0.0,0.0,0.026855466,4.41043958977222,0.0,-1.0,0.125,0.0,-115.74803106486797,0.0,0.125,2.871093456,4.389674732977291,0.0012207029999995456,-22.0,0.125,-60.0,-115.74803106486797,0.0,0.125,2.095947051,0.5526872062785609,0.0,0.2199999988079071,-0.44999998807907104,-0.9599999785423279,-0.040771484375,-0.093017578125,1.0181884765625,29.020000457763672,0.0,-31.0,-0.0087738037109375,-0.0044097900390625,Closing,0.0,0.0,0.0,0.0,0.0,0.0,0.0,0.0,
1.8551880000000238,0.0,0.0,-33.0,2.375,-67.5,-115.74803106486797,0.0,0.125,1.301269398,0.5498168668524864,0.004882811999999959,-29.0,3.25,-90.0,-115.74803106486797,0.0,0.0,0.028076169,4.41043958977222,0.0,-1.0,0.125,-7.5,-115.74803106486797,0.0,0.125,2.871093456,4.389674732977291,0.0,-22.0,0.125,-45.0,-115.74803106486797,0.0,0.125,2.100829863,0.5526872062785609,0.0024414059999999793,0.1599999964237213,-0.4699999988079071,-0.7300000190734863,-0.04632568359375,-0.027099609375,0.996337890625,29.020000457763672,0.0,-37.0,-0.010986328125,-0.0050811767578125,Closing,0.0,0.0,0.0,0.0,0.0,0.0,0.0,0.0,
1.8804850000000441,0.0,0.0,-33.0,2.5,-67.5,-115.74803106486797,0.0,0.125,1.314697131,0.5498168668524864,0.0,-29.0,3.0,-82.5,-115.74803106486797,0.0,0.0,0.029296872,4.41043958977222,0.0,-1.0,0.375,-15.0,-115.74803106486797,0.0,0.125,2.869872753,4.389674732977291,0.0,-22.0,0.125,-30.0,-115.74803106486797,0.0,0.125,2.09960916,0.5526872062785609,0.0,0.17000000178813934,-0.47999998927116394,-0.6100000143051147,-0.0921630859375,-0.034423828125,0.97711181640625,29.020000457763672,0.0,-83.0,-0.0122222900390625,-0.0054931640625,Closing,0.0,0.0,0.0,0.0,0.0,0.0,0.0,0.0,
1.9064060000000171,0.0,0.0,-47.0,2.75,-67.5,-115.74803106486797,0.0,0.125,1.3183592400000002,0.5498168668524864,0.004882811999999959,-42.0,2.75,-75.0,-115.74803106486797,0.0,0.0,0.029296872,4.41043958977222,0.0,-9.0,0.875,-37.5,-115.74803106486797,0.0,0.125,2.864989941,4.389674732977291,-0.0012207029999995456,-25.0,0.125,-22.5,-115.74803106486797,0.0,0.125,2.09960916,0.5526872062785609,0.0,0.18000000715255737,-0.550000011920929,-0.3499999940395355,-0.05487060546875,0.03680419921875,1.01611328125,29.020000457763672,0.0,-45.0,-0.01495361328125,-0.00628662109375,Closing,0.0,0.0,0.0,0.0,0.0,0.0,0.0,0.0,
1.9305160000000032,0.0,0.0,-47.0,2.75,-82.5,-115.74803106486797,0.0,0.125,1.324462755,0.5498168668524864,0.0,-42.0,2.875,-75.0,-115.74803106486797,0.0,0.0,0.028076169,4.41043958977222,0.0,-9.0,1.0,-60.0,-115.74803106486797,0.0,0.125,2.866210644,4.389674732977291,0.0,-25.0,0.125,-15.0,-115.74803106486797,0.0,0.125,2.103271269,0.5526872062785609,0.0,0.20000000298023224,-0.5600000023841858,-0.20999999344348907,-0.05133056640625,-0.052734375,1.00634765625,29.020000457763672,0.0,-41.0,-0.01641845703125,-0.006683349609375,Closing,0.0,0.0,0.0,0.0,0.0,0.0,0.0,0.0,
1.9496940000000178,0.0,0.0,-47.0,2.75,-97.5,-115.74803106486797,0.0,0.125,1.329345567,0.5498168668524864,0.003662108999999969,-42.0,3.125,-82.5,-115.74803106486797,0.0,0.0,0.026855466,4.41043958977222,0.0,-9.0,1.0,-82.5,-115.74803106486797,0.0,0.125,2.864989941,4.389674732977291,-0.0012207029999995456,-25.0,0.375,-7.5,-115.74803106486797,0.0,0.125,2.1154782990000003,0.5526872062785609,0.009765623999999917,0.20000000298023224,-0.550000011920929,0.11999999731779099,0.0252685546875,0.00567626953125,1.0389404296875,29.020000457763672,0.0,35.0,-0.019561767578125,-0.00750732421875,Closing,0.0,0.0,0.0,0.0,0.0,0.0,0.0,0.0,
1.9722930000000052,0.0,0.0,-47.0,2.625,-120.0,-115.74803106486797,0.0,0.125,1.335449082,0.5498168668524864,0.015869138999999866,-42.0,3.0,-90.0,-115.74803106486797,0.0,0.0,0.029296872,4.41043958977222,0.0,-9.0,0.625,-97.5,-115.74803106486797,0.0,0.125,2.861327832,4.389674732977291,0.0,-25.0,0.375,-7.5,-115.74803106486797,0.0,0.125,2.1203611110000002,0.5526872062785609,0.0,0.17000000178813934,-0.550000011920929,0.5299999713897705,0.015869140625,-0.01116943359375,0.98101806640625,29.020000457763672,0.0,25.0,-0.0226898193359375,-0.0085601806640625,Closing,0.0,0.0,0.0,0.0,0.0,0.0,0.0,0.0,
1.9951300000000047,0.0,0.0,-47.0,2.125,-135.0,-115.74803106486797,0.0,0.125,1.3427733000000002,0.5498168668524864,0.003662109000000191,-42.0,2.875,-97.5,-115.74803106486797,0.0,0.0,0.028076169,4.41043958977222,0.0,-9.0,0.375,-97.5,-115.74803106486797,0.0,0.125,2.8515622080000003,4.389674732977291,-0.004882811999999959,-25.0,0.375,-15.0,-115.74803106486797,0.0,0.125,2.126464626,0.5526872062785609,0.004882811999999959,0.1599999964237213,-0.5,0.7300000190734863,0.00494384765625,-0.0426025390625,1.056640625,29.020000457763672,0.0,13.0,-0.02423095703125,-0.009185791015625,Closing,0.0,0.0,0.0,0.0,0.0,0.0,0.0,0.0,
2.0157939999999943,0.0,0.0,-47.0,2.0,-142.5,-115.74803106486797,0.0,0.125,1.3427733000000002,0.5498168668524864,0.0,-42.0,2.625,-112.5,-115.74803106486797,0.0,0.0,0.026855466,4.41043958977222,0.0,-24.0,0.125,-90.0,-115.74803106486797,0.0,0.0,2.8491208020000003,4.389674732977291,0.0,-40.0,0.375,-30.0,-115.74803106486797,0.0,0.125,2.143554468,0.5526872062785609,0.0,0.14000000059604645,-0.44999998807907104,1.1699999570846558,-0.05059814453125,0.07684326171875,1.03741455078125,29.020000457763672,0.0,-40.0,-0.02728271484375,-0.0106201171875,Closing,0.0,0.0,0.0,0.0,0.0,0.0,0.0,0.0,
2.0441630000000006,0.0,0.0,-72.0,2.0,-150.0,-115.74803106486797,0.0,0.125,1.3476561120000001,0.5498168668524864,0.0,-64.0,2.5,-127.5,-115.74803106486797,0.0,0.0,0.029296872,4.41043958977222,0.0,-24.0,0.125,-82.5,-115.74803106486797,0.0,0.0,2.8479000990000003,4.389674732977291,-0.004882811999999959,-40.0,0.375,-75.0,-115.74803106486797,0.0,0.125,2.14843728,0.5526872062785609,0.018310544999999845,0.14000000059604645,-0.4399999976158142,1.409999966621399,-0.01055908203125,0.0262451171875,0.97894287109375,29.020000457763672,0.0,-2.0,-0.0288543701171875,-0.01129150390625,Closing,0.0,0.0,0.0,0.0,0.0,0.0,0.0,0.0,
2.0659030000000493,0.0,0.0,-72.0,1.75,-150.0,-115.74803106486797,0.0,0.125,1.3476561120000001,0.5498168668524864,0.004882811999999959,-64.0,2.375,-142.5,-115.74803106486797,0.0,0.0,0.029296872,4.41043958977222,0.0,-24.0,0.125,-75.0,-115.74803106486797,0.0,0.0,2.8479000990000003,4.389674732977291,-0.004882811999999959,-40.0,0.375,-120.0,-115.74803106486797,0.0,0.125,2.152099389,0.5526872062785609,0.004882811999999959,0.20000000298023224,-0.4399999976158142,1.899999976158142,-0.0306396484375,-0.02728271484375,1.03070068359375,29.020000457763672,0.0,-23.0,-0.032012939453125,-0.01263427734375,Closing,0.0,0.0,0.0,0.0,0.0,0.0,0.0,0.0,
2.0890500000000465,0.0,0.0,-72.0,1.625,-150.0,-115.74803106486797,0.0,0.125,1.3439940030000002,0.5498168668524864,-0.0012207029999999897,-64.0,2.375,-165.0,-115.74803106486797,0.0,0.0,0.029296872,4.41043958977222,0.0,-24.0,0.125,-75.0,-115.74803106486797,0.0,0.0,2.8405758810000004,4.389674732977291,-0.004882811999999959,-40.0,0.375,-172.5,-115.74803106486797,0.0,0.125,2.1630857160000003,0.5526872062785609,0.004882811999999959,0.23000000417232513,-0.4300000071525574,2.1700000762939453,-0.07366943359375,0.0172119140625,1.10858154296875,29.020000457763672,0.0,-64.0,-0.033660888671875,-0.013336181640625,Closing,0.0,0.0,0.0,0.0,0.0,0.0,0.0,0.0,
2.110101000000024,0.0,0.0,-72.0,1.625,-142.5,-115.74803106486797,0.0,0.0,1.3476561120000001,0.5498168668524864,0.0,-64.0,2.125,-180.0,-115.74803106486797,0.0,0.0,0.02441406,4.41043958977222,-0.0012207030000004337,-24.0,0.125,-82.5,-115.74803106486797,0.0,0.0,2.8417965840000003,4.389674732977291,0.0,-40.0,0.125,-210.0,-115.74803106486797,0.0,0.125,2.1716306370000003,0.5526872062785609,0.010986327000000351,0.2199999988079071,-0.4300000071525574,2.440000057220459,-0.04498291015625,0.02630615234375,1.0224609375,29.020000457763672,0.0,-36.0,-0.0353851318359375,-0.014007568359375,Closing,0.0,0.0,0.0,0.0,0.0,0.0,0.0,0.0,
2.132554000000004,0.0,0.0,-72.0,1.625,-142.5,-115.74803106486797,0.0,0.0,1.3476561120000001,0.5498168668524864,0.0,-64.0,1.75,-180.0,-115.74803106486797,0.0,0.0,0.026855466,4.41043958977222,-0.003662108999999525,-24.0,0.375,-127.5,-115.74803106486797,0.0,0.0,2.8417965840000003,4.389674732977291,0.0,-40.0,0.125,-232.5,-115.74803106486797,0.0,0.0,2.176513449,0.5526872062785609,0.0,0.27000001072883606,-0.5,2.9800000190734863,-0.08465576171875,-0.07659912109375,1.04461669921875,29.020000457763672,0.0,-79.0,-0.038970947265625,-0.015380859375,Closing,0.0,0.0,0.0,0.0,0.0,0.0,0.0,0.0,
2.1527260000000243,0.0,0.0,-97.0,1.25,-150.0,-115.74803106486797,0.0,0.0,1.3452147060000001,0.5498168668524864,0.0,-94.0,1.625,-187.5,-115.74803106486797,0.0,0.0,0.025634763,4.41043958977222,0.0012207029999995456,-51.0,0.375,-157.5,-115.74803106486797,0.0,0.0,2.8417965840000003,4.389674732977291,0.0,-71.0,0.125,-202.5,-115.74803106486797,0.0,0.0,2.182616964,0.5526872062785609,0.004882811999999959,0.25,-0.5199999809265137,3.5,-0.01739501953125,-0.0068359375,1.03759765625,29.020000457763672,0.0,-8.0,-0.0428466796875,-0.0169525146484375,Closing,0.0,0.0,0.0,0.0,0.0,0.0,0.0,0.0,
2.174170000000042,0.0,0.0,-97.0,1.375,-150.0,-115.74803106486797,0.0,0.0,1.3476561120000001,0.5498168668524864,0.0,-94.0,1.875,-180.0,-115.74803106486797,0.0,0.0,0.02441406,4.41043958977222,0.0,-51.0,0.125,-195.0,-115.74803106486797,0.0,0.0,2.8405758810000004,4.389674732977291,0.0,-71.0,0.125,-150.0,-115.74803106486797,0.0,0.0,2.181396261,0.5526872062785609,0.0,0.23999999463558197,-0.5299999713897705,3.7699999809265137,-0.06768798828125,-0.0595703125,1.00799560546875,29.020000457763672,0.0,-62.0,-0.0448760986328125,-0.017791748046875,Closing,0.0,0.0,0.0,0.0,0.0,0.0,0.0,0.0,
2.2018360000000103,0.0,0.0,-97.0,1.25,-165.0,-115.74803106486797,0.0,0.0,1.350097518,0.5498168668524864,0.0012207029999999897,-94.0,1.875,-180.0,-115.74803106486797,0.0,0.0,0.02441406,4.41043958977222,0.0012207029999995456,-51.0,0.125,-232.5,-115.74803106486797,0.0,0.0,2.8417965840000003,4.389674732977291,0.0,-71.0,0.125,-112.5,-115.74803106486797,0.0,0.125,2.191161885,0.5526872062785609,0.0,0.20999999344348907,-0.5600000023841858,4.329999923706055,0.00628662109375,-0.03900146484375,1.0078125,29.020000457763672,0.0,12.0,-0.049072265625,-0.0196533203125,Closing,0.0,0.0,0.0,0.0,0.0,0.0,0.0,0.0,
2.228710000000021,0.0,0.0,-97.0,1.25,-172.5,-115.74803106486797,0.0,0.0,1.353759627,0.5498168668524864,0.0,-94.0,1.875,-180.0,-115.74803106486797,0.0,0.0,0.02441406,4.41043958977222,0.0,-51.0,0.125,-247.5,-115.74803106486797,0.0,0.0,2.8405758810000004,4.389674732977291,0.0,-71.0,0.125,-90.0,-115.74803106486797,0.0,0.125,2.192382588,0.5526872062785609,0.0,0.20999999344348907,-0.5600000023841858,4.599999904632568,-0.06005859375,-0.02130126953125,1.0145263671875,29.020000457763672,0.0,-51.0,-0.0511932373046875,-0.0206451416015625,Closing,0.0,0.0,0.0,0.0,0.0,0.0,0.0,0.0,
2.2480280000000494,0.0,0.0,-97.0,1.25,-172.5,-115.74803106486797,0.0,0.0,1.3476561120000001,0.5498168668524864,0.0012207029999999897,-94.0,1.625,-180.0,-115.74803106486797,0.0,0.0,0.02441406,4.41043958977222,0.0012207029999995456,-51.0,0.125,-240.0,-115.74803106486797,0.0,0.0,2.8442379900000003,4.389674732977291,0.0,-71.0,0.125,-112.5,-115.74803106486797,0.0,0.125,2.192382588,0.5526872062785609,-0.0012207029999999897,0.2199999988079071,-0.5299999713897705,5.159999847412109,-0.00518798828125,0.0228271484375,1.06768798828125,29.020000457763672,0.0,6.0,-0.0554656982421875,-0.022613525390625,Closing,0.0,0.0,0.0,0.0,0.0,0.0,0.0,0.0,
2.269551000000036,0.0,0.0,-125.0,0.75,-172.5,-115.74803106486797,0.0,0.0,1.3476561120000001,0.5498168668524864,-0.0012207029999999897,-123.0,1.5,-180.0,-115.74803106486797,0.0,0.0,0.025634763,4.41043958977222,0.0,-84.0,0.125,-217.5,-115.74803106486797,0.0,0.0,2.8417965840000003,4.389674732977291,0.0,-102.0,0.125,-202.5,-115.74803106486797,0.0,0.125,2.192382588,0.5526872062785609,0.0,0.25,-0.5400000214576721,5.710000038146973,-0.063232421875,-0.003662109375,1.0115966796875,29.010000228881836,0.0,-54.0,-0.0597991943359375,-0.0235443115234375,Closing,0.0,0.0,0.0,0.0,0.0,0.0,0.0,0.0,
2.3086410000000033,0.0,0.0,-125.0,0.375,-165.0,-115.74803106486797,0.0,0.0,1.3476561120000001,0.5498168668524864,0.0,-123.0,1.25,-172.5,-115.74803106486797,0.0,0.0,0.025634763,4.41043958977222,0.0,-84.0,0.375,-172.5,-115.74803106486797,0.0,0.0,2.838134475,4.389674732977291,0.0,-102.0,0.125,-240.0,-115.74803106486797,0.0,0.125,2.196044697,0.5526872062785609,0.0,0.25,-0.5400000214576721,6.230000019073486,-0.04095458984375,-0.07403564453125,0.99591064453125,29.010000228881836,0.0,-39.0,-0.0643768310546875,-0.023651123046875,Closing,0.0,0.0,0.0,0.0,0.0,0.0,0.0,0.0,
2.332231000000029,0.0,0.0,-125.0,0.375,-157.5,-115.74803106486797,0.0,0.0,1.3476561120000001,0.5498168668524864,0.0,-123.0,1.25,-172.5,-115.74803106486797,0.0,0.0,0.023193357,4.41043958977222,0.0012207029999995456,-84.0,0.375,-157.5,-115.74803106486797,0.0,0.0,2.8405758810000004,4.389674732977291,0.0,-102.0,0.125,-247.5,-115.74803106486797,0.0,0.125,2.191161885,0.5526872062785609,0.0,0.23999999463558197,-0.5699999928474426,6.739999771118164,-0.0340576171875,-0.05120849609375,1.0294189453125,29.010000228881836,0.0,-30.0,-0.0691986083984375,-0.0240325927734375,Closing,0.0,0.0,0.0,0.0,0.0,0.0,0.0,0.0,
2.3525260000000126,0.0,0.0,-125.0,0.375,-150.0,-115.74803106486797,0.0,0.0,1.3488768150000001,0.5498168668524864,0.0012207029999999897,-123.0,1.25,-172.5,-115.74803106486797,0.0,0.0,0.02441406,4.41043958977222,0.0,-84.0,0.125,-157.5,-115.74803106486797,0.0,0.0,2.8417965840000003,4.389674732977291,0.0,-102.0,0.125,-232.5,-115.74803106486797,0.0,0.125,2.191161885,0.5526872062785609,0.0,0.2199999988079071,-0.5799999833106995,6.989999771118164,-0.04718017578125,-0.05230712890625,0.98895263671875,29.010000228881836,0.0,-43.0,-0.071685791015625,-0.0243377685546875,Closing,0.0,0.0,0.0,0.0,0.0,0.0,0.0,0.0,
2.3758940000000295,0.0,0.0,-125.0,0.375,-150.0,-115.74803106486797,0.0,0.0,1.3476561120000001,0.5498168668524864,0.0,-151.0,1.25,-172.5,-115.74803106486797,0.0,0.0,0.025634763,4.41043958977222,0.0,-106.0,0.125,-157.5,-115.74803106486797,0.0,0.0,2.8405758810000004,4.389674732977291,0.0,-129.0,0.125,-180.0,-115.74803106486797,0.0,0.125,2.192382588,0.5526872062785609,0.0,0.1899999976158142,-0.6000000238418579,7.489999771118164,-0.041259765625,-0.06256103515625,1.01324462890625,29.010000228881836,0.0,-38.0,-0.0768585205078125,-0.025146484375,Closing,0.0,0.0,0.0,0.0,0.0,0.0,0.0,0.0,
2.403987000000023,0.0,0.0,-149.0,0.625,-150.0,-115.74803106486797,0.0,0.0,1.3476561120000001,0.5498168668524864,-0.0012207029999999897,-151.0,1.375,-165.0,-115.74803106486797,0.0,0.0,0.02441406,4.41043958977222,0.0012207029999995456,-106.0,0.125,-150.0,-115.74803106486797,0.0,0.0,2.8417965840000003,4.389674732977291,0.0,-129.0,0.125,-180.0,-115.74803106486797,0.0,0.125,2.192382588,0.5526872062785609,0.0,0.1899999976158142,-0.6000000238418579,7.739999771118164,-0.045166015625,-0.064453125,1.0499267578125,29.010000228881836,0.0,-42.0,-0.07952880859375,-0.0256805419921875,Closing,0.0,0.0,0.0,0.0,0.0,0.0,0.0,0.0,
2.428398000000045,0.0,0.0,-149.0,0.625,-150.0,-115.74803106486797,0.0,0.0,1.3476561120000001,0.5498168668524864,0.0,-151.0,1.375,-165.0,-115.74803106486797,0.0,0.0,0.025634763,4.41043958977222,0.0,-106.0,0.125,-105.0,-115.74803106486797,0.0,0.0,2.8479000990000003,4.389674732977291,0.0,-129.0,0.125,-120.0,-115.74803106486797,0.0,0.125,2.192382588,0.5526872062785609,0.0,0.17000000178813934,-0.6200000047683716,8.229999542236328,-0.0745849609375,-0.04376220703125,1.0228271484375,29.010000228881836,0.0,-69.0,-0.0850982666015625,-0.027008056640625,Closing,0.0,0.0,0.0,0.0,0.0,0.0,0.0,0.0,
2.4484520000000485,0.0,0.0,-149.0,0.625,-157.5,-115.74803106486797,0.0,0.0,1.3488768150000001,0.5498168668524864,-0.0012207029999999897,-151.0,1.25,-165.0,-115.74803106486797,0.0,0.0,0.025634763,4.41043958977222,-0.0012207029999995456,-106.0,0.125,-105.0,-115.74803106486797,0.0,0.0,2.8405758810000004,4.389674732977291,0.0,-129.0,0.125,-90.0,-115.74803106486797,0.0,0.125,2.192382588,0.5526872062785609,0.0,0.18000000715255737,-0.6299999952316284,8.470000267028809,-0.05828857421875,-0.02880859375,0.99395751953125,29.010000228881836,0.0,-51.0,-0.0879974365234375,-0.027740478515625,Closing,0.0,0.0,0.0,0.0,0.0,0.0,0.0,0.0,
2.4690720000000437,0.0,0.0,-149.0,0.625,-157.5,-115.74803106486797,0.0,0.0,1.340331894,0.5498168668524864,0.0,-151.0,0.875,-157.5,-115.74803106486797,0.0,0.0,0.02441406,4.41043958977222,0.0,-106.0,0.375,-105.0,-115.74803106486797,0.0,0.0,2.8405758810000004,4.389674732977291,0.0,-129.0,0.125,-82.5,-115.74803106486797,0.0,0.125,2.192382588,0.5526872062785609,0.0,0.23999999463558197,-0.6499999761581421,9.100000381469727,-0.0194091796875,0.0113525390625,1.04302978515625,29.010000228881836,0.0,-6.0,-0.0969696044921875,-0.030303955078125,Closing,0.0,0.0,0.0,0.0,0.0,0.0,0.0,0.0,
2.5092350000000443,0.0,0.0,-172.0,0.625,-150.0,-115.74803106486797,0.0,0.0,1.357421736,0.5498168668524864,0.0,-174.0,1.0,-150.0,-115.74803106486797,0.0,0.0,0.02441406,4.41043958977222,0.0012207029999995456,-131.0,0.375,-105.0,-115.74803106486797,0.0,0.0,2.8405758810000004,4.389674732977291,0.0,-147.0,0.375,-105.0,-115.74803106486797,0.0,0.125,2.191161885,0.5526872062785609,0.0,0.20999999344348907,-0.6299999952316284,9.489999771118164,-0.012939453125,-0.0286865234375,1.0260009765625,29.010000228881836,0.0,-6.0,-0.100006103515625,-0.0322265625,Closing,0.0,0.0,0.0,0.0,0.0,0.0,0.0,0.0,
2.531701000000001,0.0,0.0,-172.0,0.625,-135.0,-115.74803106486797,0.0,0.0,1.3476561120000001,0.5498168668524864,0.0012207029999999897,-174.0,1.125,-142.5,-115.74803106486797,0.0,0.0,0.023193357,4.41043958977222,0.0,-131.0,0.125,-180.0,-115.74803106486797,0.0,0.0,2.8417965840000003,4.389674732977291,0.0,-147.0,0.125,-135.0,-115.74803106486797,0.0,0.125,2.193603291,0.5526872062785609,0.0,0.2199999988079071,-0.6200000047683716,9.670000076293945,0.00518798828125,-0.07623291015625,0.999267578125,29.010000228881836,0.0,2.0,-0.100006103515625,-0.0333099365234375,Closing,0.0,0.0,0.0,0.0,0.0,0.0,0.0,0.0,
2.554219000000041,0.0,0.0,-172.0,0.625,-127.5,-115.74803106486797,0.0,0.0,1.3476561120000001,0.5498168668524864,0.0,-174.0,1.375,-135.0,-115.74803106486797,0.0,0.0,0.02441406,4.41043958977222,-0.0012207029999995456,-131.0,0.125,-217.5,-115.74803106486797,0.0,0.0,2.8417965840000003,4.389674732977291,0.0,-147.0,0.125,-142.5,-115.74803106486797,0.0,0.125,2.192382588,0.5526872062785609,0.0012207029999999897,0.17000000178813934,-0.6100000143051147,10.069999694824219,-0.05859375,-0.0675048828125,1.043701171875,29.010000228881836,0.0,-58.0,-0.100067138671875,-0.0357513427734375,Closing,0.0,0.0,0.0,0.0,0.0,0.0,0.0,0.0,
2.5800380000000005,0.0,0.0,-172.0,0.75,-120.0,-115.74803106486797,0.0,0.0,1.3476561120000001,0.5498168668524864,-0.0012207029999999897,-174.0,1.5,-127.5,-115.74803106486797,0.0,0.0,0.02441406,4.41043958977222,0.0012207029999995456,-131.0,0.125,-225.0,-115.74803106486797,0.0,0.0,2.836913772,4.389674732977291,0.0,-147.0,0.125,-127.5,-115.74803106486797,0.0,0.125,2.191161885,0.5526872062785609,0.0,0.1599999964237213,-0.6200000047683716,10.260000228881836,-0.02325439453125,-0.09173583984375,1.053466796875,29.010000228881836,0.0,-28.0,-0.1001739501953125,-0.037109375,Closing,0.0,0.0,0.0,0.0,0.0,0.0,0.0,0.0,
2.6038570000000183,0.0,0.0,-172.0,1.25,-127.5,-115.74803106486797,0.0,0.0,1.3476561120000001,0.5498168668524864,0.0012207029999999897,-174.0,1.5,-127.5,-115.74803106486797,0.0,0.0,0.02441406,4.41043958977222,0.0,-131.0,0.125,-210.0,-115.74803106486797,0.0,0.0,2.838134475,4.389674732977291,-0.003662109000000413,-147.0,0.125,-105.0,-115.74803106486797,0.0,0.125,2.187499776,0.5526872062785609,0.0,0.12999999523162842,-0.6399999856948853,10.640000343322754,-0.02703857421875,0.0091552734375,1.01593017578125,29.010000228881836,0.0,-14.0,-0.1005096435546875,-0.0385284423828125,Closing,0.0,0.0,0.0,0.0,0.0,0.0,0.0,0.0,
2.6281780000000143,0.0,0.0,-193.0,1.0,-127.5,-115.74803106486797,0.0,0.0,1.3476561120000001,0.5498168668524864,-0.0012207029999999897,-195.0,1.5,-127.5,-115.74803106486797,0.0,0.0,0.028076169,4.41043958977222,0.0,-153.0,0.125,-165.0,-115.74803106486797,0.0,0.0,2.836913772,4.389674732977291,-0.0012207029999995456,-167.0,0.375,-97.5,-115.74803106486797,0.0,0.125,2.191161885,0.5526872062785609,0.0,0.15000000596046448,-0.6399999856948853,10.829999923706055,-0.0252685546875,-0.03692626953125,1.0084228515625,29.010000228881836,0.0,-21.0,-0.1007232666015625,-0.0385589599609375,Closing,0.0,0.0,0.0,0.0,0.0,0.0,0.0,0.0,
2.6491199999999955,0.0,0.0,-193.0,0.75,-135.0,-115.74803106486797,0.0,0.0,1.3476561120000001,0.5498168668524864,0.0012207029999999897,-195.0,1.5,-127.5,-115.74803106486797,0.0,0.0,0.023193357,4.41043958977222,0.0,-153.0,0.125,-127.5,-115.74803106486797,0.0,0.0,2.836913772,4.389674732977291,0.0,-167.0,0.375,-112.5,-115.74803106486797,0.0,0.125,2.192382588,0.5526872062785609,0.0,0.18000000715255737,-0.6499999761581421,11.220000267028809,-0.04058837890625,0.02252197265625,1.09991455078125,29.010000228881836,0.0,-23.0,-0.101226806640625,-0.03857421875,Closing,0.0,0.0,0.0,0.0,0.0,0.0,0.0,0.0,
2.6681300000000046,0.0,0.0,-193.0,0.625,-127.5,-115.74803106486797,0.0,0.0,1.3476561120000001,0.5498168668524864,-0.0012207029999999897,-195.0,1.5,-127.5,-115.74803106486797,0.0,0.0,0.025634763,4.41043958977222,0.0,-153.0,0.125,-90.0,-115.74803106486797,0.0,0.0,2.827148148,4.389674732977291,0.0,-167.0,0.375,-142.5,-115.74803106486797,0.0,0.125,2.191161885,0.5526872062785609,0.0,0.20000000298023224,-0.6600000262260437,11.420000076293945,-0.0032958984375,-0.0162353515625,1.00970458984375,29.010000228881836,0.0,4.0,-0.10150146484375,-0.03857421875,Closing,0.0,0.0,0.0,0.0,0.0,0.0,0.0,0.0,
2.690936000000045,0.0,0.0,-193.0,0.625,-127.5,-115.74803106486797,0.0,0.0,1.3476561120000001,0.5498168668524864,0.0,-195.0,1.375,-127.5,-115.74803106486797,0.0,0.0,0.025634763,4.41043958977222,-0.0012207029999995456,-153.0,0.125,-82.5,-115.74803106486797,0.0,0.0,2.836913772,4.389674732977291,0.0,-167.0,0.125,-180.0,-115.74803106486797,0.0,0.125,2.192382588,0.5526872062785609,0.0,0.20000000298023224,-0.6399999856948853,11.8100004196167,-0.0413818359375,0.01043701171875,1.05804443359375,29.010000228881836,0.0,-27.0,-0.102081298828125,-0.0386810302734375,Closing,0.0,0.0,0.0,0.0,0.0,0.0,0.0,0.0,
2.711225000000035,0.0,0.0,-193.0,0.375,-120.0,-115.74803106486797,0.0,0.0,1.353759627,0.5498168668524864,0.0,-195.0,1.375,-120.0,-115.74803106486797,0.0,0.0,0.02441406,4.41043958977222,0.0,-153.0,0.375,-90.0,-115.74803106486797,0.0,0.0,2.836913772,4.389674732977291,0.0,-167.0,0.125,-202.5,-115.74803106486797,0.0,0.125,2.191161885,0.5526872062785609,0.0,0.20999999344348907,-0.6299999952316284,12.0,1.220703125E-4,-0.0052490234375,1.02130126953125,29.010000228881836,0.0,9.0,-0.1024017333984375,-0.03875732421875,Closing,0.0,0.0,0.0,0.0,0.0,0.0,0.0,0.0,
2.7309740000000455,0.0,0.0,-193.0,0.375,-120.0,-115.74803106486797,0.0,0.0,1.364745954,0.5498168668524864,0.0,-195.0,1.25,-120.0,-115.74803106486797,0.0,0.0,0.02441406,4.41043958977222,0.0,-153.0,0.375,-112.5,-115.74803106486797,0.0,0.0,2.836913772,4.389674732977291,0.0,-167.0,0.125,-210.0,-115.74803106486797,0.0,0.125,2.192382588,0.5526872062785609,0.0,0.20000000298023224,-0.6600000262260437,12.390000343322754,-0.022216796875,-0.046142578125,1.0709228515625,29.010000228881836,0.0,-20.0,-0.1031341552734375,-0.039093017578125,Closing,0.0,0.0,0.0,0.0,0.0,0.0,0.0,0.0,
2.752054999999993,0.0,0.0,-212.0,0.375,-120.0,-115.74803106486797,0.0,0.0,1.3476561120000001,0.5498168668524864,0.0,-214.0,1.25,-112.5,-115.74803106486797,0.0,0.0,0.023193357,4.41043958977222,0.0,-177.0,0.375,-127.5,-115.74803106486797,0.0,0.0,2.835693069,4.389674732977291,0.0,-192.0,0.125,-187.5,-115.74803106486797,0.0,0.125,2.192382588,0.5526872062785609,0.0,0.18000000715255737,-0.6399999856948853,12.579999923706055,-0.0064697265625,0.0330810546875,1.00274658203125,29.010000228881836,0.0,11.0,-0.103515625,-0.0393218994140625,Closing,0.0,0.0,0.0,0.0,0.0,0.0,0.0,0.0,
2.770763000000035,0.0,0.0,-212.0,0.375,-120.0,-115.74803106486797,0.0,0.0,1.3488768150000001,0.5498168668524864,-0.0012207029999999897,-214.0,1.25,-112.5,-115.74803106486797,0.0,0.0,0.025634763,4.41043958977222,0.0,-177.0,0.125,-142.5,-115.74803106486797,0.0,0.0,2.836913772,4.389674732977291,0.0,-192.0,0.125,-150.0,-115.74803106486797,0.0,0.125,2.192382588,0.5526872062785609,0.0,0.1899999976158142,-0.6299999952316284,12.770000457763672,-0.00311279296875,-0.05120849609375,1.01055908203125,29.010000228881836,0.0,-4.0,-0.103515625,-0.039581298828125,Closing,0.0,0.0,0.0,0.0,0.0,0.0,0.0,0.0,
2.792752000000037,0.0,0.0,-212.0,0.375,-120.0,-115.74803106486797,0.0,0.0,1.339111191,0.5498168668524864,0.0,-214.0,1.375,-112.5,-115.74803106486797,0.0,0.0,0.023193357,4.41043958977222,-0.0012207029999995456,-177.0,0.125,-150.0,-115.74803106486797,0.0,0.0,2.827148148,4.389674732977291,0.0,-192.0,0.125,-105.0,-115.74803106486797,0.0,0.125,2.191161885,0.5526872062785609,0.0,0.1599999964237213,-0.6200000047683716,13.130000114440918,0.00384521484375,-0.0194091796875,1.03143310546875,29.040000915527344,0.0,9.0,-0.103515625,-0.0402374267578125,Closing,0.0,0.0,0.0,0.0,0.0,0.0,0.0,0.0,
