Time,ClimberA1,ClimberA2,FRpos,FRCurrent,FRspeed,FRsetpoint,FRApos,FRACurrent,FREncpos,FREncSetpoint,FREncSpeed,FLpos,FLCurrent,FLspeed,FLsetpoint,FLApos,FLACurrent,FLEncpos,FLEncSetpoint,FLEncSpeed,BRpos,BRCurrent,BRspeed,BRsetpoint,BRApos,BRACurrent,BREncpos,BREncSetpoint,BREncSpeed,BLpos,BLCurrent,BLspeed,BLsetpoint,BLApos,BLACurrent,BLEncpos,BLEncSetpoint,BLEncSpeed,navx_Pitch,navx_Roll,navx_Yaw,navx_XAcc,navx_YAcc,navx_ZAcc,navx_Temp,navx_Bar,navx_Alt,navx_XDis,navx_YDis,GearPlacerState,ShootOutputV,ShootOutputCurrent,ShootEncPos,ShootEncVelocity,ShootSpeed,ShootSetpoint,CarouselSetpoint,CarouselCurrent,
0.5513050000000003,0.0,0.0,15221.0,0.0,0.0,0.0,0.0,0.125,0.8032225740000001,0.01,0.0,-24716.0,0.0,0.0,0.0,0.0,0.125,0.532226508,0.01,0.0,-6604.0,0.0,0.0,0.0,0.0,0.125,3.386230122,0.01,0.0,-30892.0,0.0,0.0,0.0,0.0,0.5,1.6540525650000002,0.01,0.0,0.029999999329447746,-0.7099999785423279,-12.119999885559082,-0.01519775390625,9.1552734375E-4,1.02191162109375,36.27000045776367,0.0,-2.0,4.4478759765625,-0.89794921875,Opening,0.0,0.0,3.0,0.0,0.0,0.0,0.0,0.0,
0.6254089999999997,0.0,0.0,15221.0,0.0,0.0,840.0,0.0,0.125,0.822753822,0.01,0.0,-24716.0,0.0,0.0,-840.0,0.0,0.125,0.531005805,0.01,0.0,-6604.0,0.375,0.0,840.0,0.0,0.125,3.385009419,0.01,0.0,-30892.0,0.375,0.0,-840.0,0.0,0.25,1.6540525650000002,0.01,0.0,0.029999999329447746,-0.7099999785423279,-12.119999885559082,-0.01385498046875,-6.103515625E-5,1.01568603515625,36.27000045776367,0.0,-1.0,4.4478759765625,-0.89794921875,Opening,0.0,0.0,3.0,0.0,0.0,0.0,0.0,0.0,
0.6774490000000005,0.0,0.0,15221.0,1.625,7.5,840.0,0.0,0.125,0.8044432770000001,0.01,0.0,-24716.0,3.125,-60.0,-840.0,0.0,0.125,0.532226508,0.01,0.0012207029999995456,-6604.0,2.125,7.5,840.0,0.0,0.125,3.385009419,0.01,-0.0012207029999999897,-30892.0,2.0,-45.0,-840.0,0.0,0.25,1.6552732680000002,0.01,-0.09643553699999985,-0.009999999776482582,-0.5299999713897705,-12.130000114440918,0.06390380859375,-0.00909423828125,0.954833984375,36.27000045776367,0.0,73.0,4.4481964111328125,-0.89776611328125,Opening,0.0,0.0,3.0,0.0,0.0,0.0,0.0,0.0,
0.7035650000000023,0.0,0.0,15221.0,4.0,52.5,840.0000000000001,0.0,0.125,0.8032225740000001,4.9321139898919375,0.0,-24743.0,5.375,-142.5,-840.0000000000001,0.0,0.125,0.532226508,4.96363211434412,-0.0012207029999995456,-6604.0,4.125,142.5,840.0000000000001,0.0,0.125,3.3801266070000002,4.940262763525645,-0.008544920999999928,-30924.0,2.75,-225.0,-840.0000000000001,0.0,0.25,1.678466625,4.957862274625566,0.0,0.10999999940395355,-0.20000000298023224,-12.039999961853027,0.06390380859375,-0.056884765625,0.70965576171875,36.27000045776367,0.0,77.0,4.4503326416015625,-0.896636962890625,Opening,0.0,0.0,3.0,0.0,0.0,0.0,0.0,0.0,
0.755699999999997,0.0,0.0,15239.0,4.5,75.0,840.0,0.0,0.125,0.8032225740000001,0.01,0.0012207030000004337,-24743.0,5.875,-172.5,-840.0,0.0,0.125,0.532226508,0.01,0.0,-6604.0,4.375,165.0,840.0,0.0,0.125,3.3801266070000002,0.01,0.004882811999999959,-30924.0,3.0,-247.5,-840.0,0.0,0.25,1.6833494370000002,0.01,0.004882811999999959,0.11999999731779099,-0.03999999910593033,-11.979999542236328,0.12689208984375,0.004150390625,1.068603515625,36.27000045776367,0.0,124.0,4.452545166015625,-0.8955535888671875,Opening,0.0,0.0,3.0,0.0,0.0,0.0,0.0,0.0,
0.7848199999999997,0.0,0.0,15239.0,5.25,120.0,840.0,0.0,0.125,0.8178710100000001,0.01,-0.0012207030000004337,-24743.0,6.625,-195.0,-840.0,0.0,0.125,0.532226508,0.01,0.0,-6571.0,4.5,180.0,840.0,0.0,0.125,3.3605953590000004,0.01,-0.0012207029999999897,-30924.0,3.125,-225.0,-840.0,0.0,0.25,1.6833494370000002,0.01,0.024414060000000015,0.09000000357627869,0.14000000059604645,-11.90999984741211,0.09954833984375,0.0035400390625,1.06829833984375,36.27000045776367,0.0,94.0,4.45556640625,-0.8944091796875,Opening,0.0,0.0,3.0,0.0,0.0,0.0,0.0,0.0,
0.8215210000000006,0.0,0.0,15239.0,5.625,157.5,840.0,0.0,0.125,0.8020018710000001,0.01,-0.0012207030000004337,-24743.0,7.125,-240.0,-840.0,0.0,0.125,0.533447211,0.01,0.0,-6571.0,4.875,187.5,840.0,0.0,0.125,3.345946923,0.01,-0.0012207029999999897,-30924.0,3.25,-240.0,-840.0,0.0,0.25,1.6857908430000001,0.01,0.0,0.11999999731779099,0.5199999809265137,-11.949999809265137,0.25482177734375,-0.0364990234375,1.05224609375,36.27000045776367,0.0,247.0,4.4638214111328125,-0.8917236328125,Opening,0.0,0.0,3.0,0.0,0.0,0.0,0.0,0.0,
0.9052569999999978,0.0,0.0,15296.0,5.625,390.0,840.0,0.0,0.125,0.8044432770000001,0.01,0.0,-24796.0,7.125,-465.0,-840.0,0.0,0.125,0.532226508,0.01,0.0012207029999995456,-6517.0,5.875,375.0,840.0,0.0,0.0,3.345946923,0.01,-0.003662108999999525,-30970.0,4.375,-397.5,-840.0,0.0,0.25,1.668701001,0.01,-0.0012207029999999897,0.14000000059604645,0.9200000166893005,-11.960000038146973,0.14044189453125,-0.01910400390625,1.2294921875,36.27000045776367,0.0,122.0,4.478973388671875,-0.8875732421875,Opening,0.0,0.0,3.0,0.0,0.0,0.0,0.0,0.0,
0.9500820000000022,0.0,0.0,15296.0,5.625,457.5,840.0,0.0,0.125,0.8044432770000001,0.01,0.0012207029999995456,-24796.0,6.625,-510.0,-840.0,0.0,0.125,0.532226508,0.01,-0.0012207029999995456,-6517.0,5.625,412.5,840.0,0.0,0.0,3.345946923,0.01,-0.0012207030000004337,-31050.0,4.25,-435.0,-840.0,0.0,0.25,1.6638181890000001,0.01,-0.013427733000000108,0.10000000149011612,1.100000023841858,-11.90999984741211,0.21868896484375,0.0694580078125,0.8876953125,36.279998779296875,0.0,183.0,4.49005126953125,-0.88494873046875,Opening,0.0,0.0,3.0,0.0,0.0,0.0,0.0,0.0,
1.0158209999999963,0.0,0.0,15385.0,5.0,577.5,840.0,0.0,0.125,0.8032225740000001,0.01,0.0,-24887.0,5.75,-622.5,-840.0,0.0,0.125,0.523681587,0.01,0.0,-6438.0,5.5,487.5,840.0,0.0,0.0,3.347167626,0.01,0.0,-31050.0,3.875,-540.0,-840.0,0.0,0.25,1.6613767830000001,0.01,0.0,0.1599999964237213,1.309999942779541,-11.960000038146973,0.04681396484375,-0.00457763671875,1.0689697265625,36.279998779296875,0.0,23.0,4.502532958984375,-0.881622314453125,Opening,0.0,0.0,3.0,0.0,0.0,0.0,0.0,0.0,
1.0418280000000013,0.0,0.0,15385.0,4.75,615.0,840.0,0.0,0.125,0.795898356,0.01,0.0,-24887.0,4.875,-690.0,-840.0,0.0,0.125,0.5285643990000001,0.01,0.0,-6438.0,5.5,510.0,840.0,0.0,0.0,3.347167626,0.01,0.0,-31050.0,3.625,-607.5,-840.0,0.0,0.25,1.6589353770000002,0.01,-0.004882811999999959,0.1599999964237213,1.4600000381469727,-11.989999771118164,0.01715087890625,-0.04058837890625,0.96075439453125,36.279998779296875,0.0,1.0,4.5154876708984375,-0.87811279296875,Opening,0.0,0.0,3.0,0.0,0.0,0.0,0.0,0.0,
1.080061999999998,0.0,0.0,15385.0,4.25,690.0,840.0,0.0,0.125,0.808105386,0.01,0.0,-24887.0,4.625,-720.0,-840.0,0.0,0.125,0.5285643990000001,0.01,0.0,-6438.0,5.625,547.5,840.0,0.0,0.0,3.345946923,0.01,0.0,-31159.0,3.375,-630.0,-840.0,0.0,0.25,1.6589353770000002,0.01,-0.004882811999999959,0.20999999344348907,1.5,-12.039999961853027,0.09588623046875,0.050537109375,1.1978759765625,36.279998779296875,0.0,53.0,4.52435302734375,-0.8756866455078125,Opening,0.0,0.0,3.0,0.0,0.0,0.0,0.0,0.0,
1.107724000000002,0.0,0.0,15506.0,3.75,750.0,840.0,0.0,0.125,0.809326089,0.01,-0.0012207029999995456,-25008.0,4.125,-765.0,-840.0,0.0,0.125,0.532226508,0.01,0.0012207029999995456,-6319.0,5.125,712.5,840.0,0.0,0.0,3.345946923,0.01,0.0012207030000004337,-31159.0,3.25,-712.5,-840.0,0.0,0.25,1.6589353770000002,0.01,-0.004882811999999959,0.1899999976158142,1.559999942779541,-12.09000015258789,0.0496826171875,-0.078857421875,1.13446044921875,36.279998779296875,0.0,35.0,4.5384368896484375,-0.87158203125,Opening,0.0,0.0,3.0,0.0,0.0,0.0,0.0,0.0,
1.1570780000000014,0.0,0.0,15506.0,3.625,772.5,839.9999999999999,0.0,0.125,0.809326089,0.01,0.006103514999999504,-25008.0,3.625,-810.0,-839.9999999999999,0.0,0.125,0.532226508,0.01,0.0,-6319.0,4.75,750.0,839.9999999999999,0.0,0.0,3.345946923,0.01,-0.0012207030000004337,-31159.0,3.125,-735.0,-839.9999999999999,0.0,0.25,1.6589353770000002,0.01,0.0,0.18000000715255737,1.6399999856948853,-12.140000343322754,0.16998291015625,0.0074462890625,0.92999267578125,36.279998779296875,0.0,139.0,4.5481414794921875,-0.8688507080078125,Opening,0.0,0.0,3.0,0.0,0.0,0.0,0.0,0.0,
1.2067839999999996,0.0,0.0,15506.0,3.0,825.0,840.0,0.0,0.125,0.812988198,4.9315659625256885,0.006103515000000392,-25145.0,3.125,-840.0,-840.0,0.0,0.125,0.531005805,4.9630805848701005,-0.0012207029999995456,-6319.0,4.0,795.0,840.0,0.0,0.0,3.345946923,4.9397138307158155,0.0012207030000004337,-31286.0,3.0,-795.0,-840.0,0.0,0.25,1.6589353770000002,4.957311386262046,-0.0012207029999999897,0.23000000417232513,1.649999976158142,-12.220000267028809,0.0672607421875,-0.022705078125,1.03802490234375,36.279998779296875,0.0,42.0,4.5679779052734375,-0.86334228515625,Opening,0.0,0.0,3.0,0.0,0.0,0.0,0.0,0.0,
1.242688000000002,0.0,0.0,15642.0,2.625,870.0,840.0,0.0,0.125,0.819091713,4.930880925051377,-0.0012207030000004337,-25145.0,2.625,-877.5,-840.0,0.0,0.125,0.532226508,4.9623911697402,0.0012207029999995456,-6183.0,3.75,832.5,840.0,0.0,0.0,3.350829735,4.939027661431631,0.0,-31286.0,2.5,-825.0,-840.0,0.0,0.25,1.6601560800000001,4.956622772524092,0.0012207029999999897,0.25,1.649999976158142,-12.260000228881836,0.0830078125,-0.1287841796875,0.96636962890625,36.279998779296875,0.0,82.0,4.5826263427734375,-0.8592071533203125,Opening,0.0,0.0,3.0,0.0,0.0,0.0,0.0,0.0,
1.2934060000000027,0.0,0.0,15642.0,2.5,885.0,840.0,0.0,0.125,0.8178710100000001,4.930332897685128,0.004882811999999959,-25145.0,2.375,-885.0,-840.0,0.0,0.25,0.532226508,4.96183964026618,0.0,-6183.0,3.375,862.5,840.0,0.0,0.0,3.347167626,4.938478728621801,0.0,-31427.0,2.0,-862.5,-840.0,0.0,0.25,1.6540525650000002,4.956071884160572,0.0,0.28999999165534973,1.6100000143051147,-12.289999961853027,0.01470947265625,0.04803466796875,0.97662353515625,36.279998779296875,0.0,-21.0,4.6021575927734375,-0.8538970947265625,Opening,0.0,0.0,3.0,0.0,0.0,0.0,0.0,0.0,
1.344449999999997,0.0,0.0,15789.0,2.375,900.0,840.0,0.0,0.125,0.820312416,4.929921880426942,-4.9285888909999995,-25290.0,1.875,-907.5,-840.0,0.0,0.25,0.532226508,4.96142599644804,-0.0012207029999995456,-6183.0,3.125,870.0,840.0,0.0,0.0,3.355712547,4.938067032286327,0.0,-31427.0,1.875,-877.5,-840.0,0.0,0.25,1.649169753,4.955658721171485,-0.00610351500000017,0.33000001311302185,1.5299999713897705,-12.3100004196167,-0.06060791015625,0.0577392578125,1.1353759765625,36.279998779296875,0.0,-99.0,4.6119384765625,-0.8510284423828125,Opening,0.0,0.0,3.0,0.0,0.0,0.0,0.0,0.0,
1.3729609999999957,0.0,0.0,15789.0,2.25,900.0,840.0,0.0,0.125,0.823974525,4.9296478602108165,-4.9285888909999995,-25290.0,1.75,-915.0,-840.0,0.0,0.25,0.532226508,4.96115022513628,-0.0012207029999995456,-6043.0,3.0,870.0,840.0,0.0,0.0,3.349609032,4.937792559337616,0.0,-31427.0,1.625,-892.5,-840.0,0.0,0.25,1.649169753,4.955383270422618,-0.00610351500000017,0.3199999928474426,1.559999942779541,-12.359999656677246,0.04620361328125,-0.056396484375,0.91351318359375,36.279998779296875,0.0,33.0,4.621368408203125,-0.8479766845703125,Opening,0.0,0.0,3.0,0.0,0.0,0.0,0.0,0.0,
1.414786,0.0,0.0,15789.0,1.875,915.0,840.0,0.0,0.125,0.822753822,4.9289628358025075,0.0012207029999999897,-25290.0,1.5,-922.5,-840.0,0.0,0.25,0.533447211,4.96046082315588,0.0,-6043.0,3.0,877.5,840.0,0.0,0.0,3.349609032,4.937106403141022,0.003662108999999525,-31427.0,1.375,-900.0,-840.0,0.0,0.25,1.649169753,4.9546946698188785,-0.003662108999999969,0.36000001430511475,1.4800000190734863,-12.399999618530273,-0.00341796875,-0.0128173828125,1.316650390625,36.279998779296875,0.0,-32.0,4.63079833984375,-0.8449554443359375,Opening,0.0,0.0,3.0,0.0,0.0,0.0,0.0,0.0,
1.4437109999999957,0.0,0.0,15940.0,1.625,930.0,840.0,0.0,0.125,0.822753822,4.928140788220133,-0.0012207029999999897,-25439.0,1.375,-922.5,-840.0,0.0,0.25,0.532226508,4.9596335223701,0.0012207029999995456,-6043.0,2.875,862.5,840.0,0.0,0.0,3.3666988740000003,4.936282997382482,0.0,-31572.0,1.25,-907.5,-840.0,0.0,0.25,1.649169753,4.953868330706491,-0.0012207029999999897,0.3499999940395355,1.3899999856948853,-12.5,-0.1351318359375,-0.0201416015625,1.10821533203125,36.209999084472656,0.0,-152.0,4.6490936279296875,-0.8392791748046875,Opening,0.0,0.0,3.0,0.0,0.0,0.0,0.0,0.0,
1.4943099999999976,0.0,0.0,15940.0,1.25,945.0,839.9999999999999,0.0,0.125,0.797119059,4.9270447334876355,0.0,-25439.0,1.25,-915.0,-839.9999999999999,0.0,0.25,0.532226508,4.95853046342206,-0.0012207029999995456,-5906.0,2.875,855.0,839.9999999999999,0.0,0.0,3.3605953590000004,4.935185131762823,0.006103515000000392,-31572.0,1.25,-900.0,-839.9999999999999,0.0,0.25,1.649169753,4.952766553979449,0.0012207029999999897,0.3100000023841858,1.4199999570846558,-12.539999961853027,0.07769775390625,-0.04498291015625,0.828369140625,36.209999084472656,0.0,66.0,4.65789794921875,-0.8368072509765625,Opening,0.0,0.0,3.0,0.0,0.0,0.0,0.0,0.0,
1.5267649999999995,0.0,0.0,15940.0,1.25,945.0,840.0,0.0,0.125,0.822753822,4.9264967061213865,0.0,-25439.0,1.25,-915.0,-840.0,0.0,0.25,0.532226508,4.9579789339480405,-0.0012207029999995456,-5906.0,3.0,847.5,840.0,0.0,0.0,3.3605953590000004,4.934636198952993,0.006103515000000392,-31572.0,1.25,-900.0,-840.0,0.0,0.25,1.649169753,4.952215665615929,0.0012207029999999897,0.33000001311302185,1.25,-12.600000381469727,-0.05657958984375,0.0416259765625,1.19781494140625,36.209999084472656,0.0,-88.0,4.666748046875,-0.834381103515625,Opening,0.0,0.0,3.0,0.0,0.0,0.0,0.0,0.0,
1.564451000000001,0.0,0.0,15940.0,1.125,945.0,840.0,0.0,0.125,0.822753822,4.925400651388889,0.0012207029999999897,-25585.0,1.125,-915.0,-840.0,0.0,0.25,0.532226508,4.956875875,0.0,-5906.0,3.0,855.0,840.0,0.0,0.0,3.359374656,4.933538333333334,0.003662108999999525,-31716.0,1.25,-900.0,-840.0,0.0,0.25,1.649169753,4.951113888888889,0.0,0.33000001311302185,1.3200000524520874,-12.630000114440918,-0.05389404296875,0.00128173828125,1.0858154296875,36.209999084472656,0.0,-75.0,4.6753387451171875,-0.83197021484375,Opening,0.0,0.0,3.0,0.0,0.0,0.0,0.0,0.0,
1.5902430000000023,0.0,0.0,16087.0,1.125,922.5,840.0,0.0,0.125,0.822753822,4.925263641280826,-0.0012207029999999897,-25585.0,1.125,-915.0,-840.0,0.0,0.25,0.53710932,4.95673798934412,0.0012207029999995456,-5773.0,3.0,847.5,840.0,0.0,0.125,3.350829735,4.9334010968589785,0.0,-31716.0,1.0,-900.0,-840.0,0.0,0.25,1.649169753,4.950976163514455,0.0,0.3100000023841858,1.1699999570846558,-12.649999618530273,1.8310546875E-4,0.0096435546875,0.9808349609375,36.209999084472656,0.0,-20.0,4.6877899169921875,-0.8286285400390625,Opening,0.0,0.0,3.0,0.0,0.0,0.0,0.0,0.0,
1.635885000000002,0.0,0.0,16087.0,1.125,907.5,840.0,0.0,0.125,0.820312416,4.924989634130704,0.0,-25585.0,1.0,-915.0,-840.0,0.0,0.25,0.532226508,4.9564622311818605,0.0012207029999995456,-5773.0,3.125,817.5,840.0,0.0,0.125,3.3654781710000004,4.933126636997859,-0.009765623999999917,-31716.0,1.0,-907.5,-840.0,0.0,0.25,1.6552732680000002,4.950700725899802,0.0,0.28999999165534973,1.149999976158142,-12.6899995803833,0.0345458984375,-0.0377197265625,0.84063720703125,36.209999084472656,0.0,26.0,4.6999053955078125,-0.825469970703125,Opening,0.0,0.0,3.0,0.0,0.0,0.0,0.0,0.0,
1.676879000000001,0.0,0.0,16087.0,1.125,900.0,840.0,0.0,0.125,0.821533119,4.9244416067644545,0.0,-25732.0,1.0,-915.0,-840.0,0.0,0.25,0.532226508,4.95591070170784,-0.0012207029999995456,-5773.0,3.5,705.0,840.0,0.0,0.0,3.350829735,4.932577704188029,-0.009765623999999917,-31859.0,1.0,-900.0,-840.0,0.0,0.25,1.649169753,4.950149837536282,0.0,0.3100000023841858,1.1100000143051147,-12.729999542236328,-0.0887451171875,0.0906982421875,1.08319091796875,36.209999084472656,0.0,-125.0,4.707794189453125,-0.8235931396484375,Opening,0.0,0.0,3.0,0.0,0.0,0.0,0.0,0.0,
1.7093830000000017,0.0,0.0,16234.0,1.125,907.5,840.0,0.0,0.125,0.822753822,4.9238935793982055,0.0,-25732.0,0.875,-907.5,-840.0,0.0,0.25,0.532226508,4.95535917223382,0.0,-5773.0,4.625,472.5,840.0,0.0,0.0,3.348388329,4.932028771378199,0.004882811999999959,-31859.0,1.0,-877.5,-840.0,0.0,0.25,1.650390456,4.949598949172762,0.0,0.28999999165534973,1.149999976158142,-12.789999961853027,7.9345703125E-4,0.08514404296875,0.95458984375,36.209999084472656,0.0,-28.0,4.7192535400390625,-0.820770263671875,Opening,0.0,0.0,3.0,0.0,0.0,0.0,0.0,0.0,
1.7453729999999996,0.0,0.0,16234.0,0.875,915.0,840.0,0.0,0.125,0.823974525,4.922797511599705,0.0012207029999999897,-25732.0,0.875,-900.0,-840.0,0.0,0.25,0.532226508,4.95425610013628,0.0012207029999995456,-5716.0,6.0,367.5,840.0,0.0,0.0,3.352050438,4.93093089267095,-0.004882811999999959,-31859.0,1.0,-862.5,-840.0,0.0,0.25,1.649169753,4.948497159311507,-0.0012207029999999897,0.33000001311302185,1.1200000047683716,-12.890000343322754,0.02191162109375,0.04315185546875,0.72406005859375,36.209999084472656,0.0,-1.0,4.726654052734375,-0.8187408447265625,Opening,0.0,0.0,3.0,0.0,0.0,0.0,0.0,0.0,
1.7817900000000009,0.0,0.0,16234.0,0.75,922.5,840.0,0.0,0.125,0.822753822,4.921701456867208,0.0012207029999999897,-25732.0,0.75,-900.0,-840.0,0.0,0.25,0.532226508,4.95315304118824,0.0012207029999995456,-5716.0,9.25,225.0,840.0,0.0,0.0,3.337402002,4.9298330270512905,-0.004882811999999959,-31859.0,1.375,-832.5,-840.0,0.0,0.25,1.64794905,4.947395382584466,-0.0012207029999999897,0.4399999976158142,1.190000057220459,-12.960000038146973,-0.04168701171875,0.1229248046875,1.30072021484375,36.209999084472656,0.0,-92.0,4.734039306640625,-0.8165283203125,Opening,0.0,0.0,3.0,0.0,0.0,0.0,0.0,0.0,
1.8197419999999984,0.0,0.0,16234.0,0.5,922.5,840.0,0.0,0.25,0.860595615,4.920742412242773,0.0,-25876.0,0.625,-900.0,-840.0,0.0,0.25,0.532226508,4.95218786789608,-0.0012207029999995456,-5716.0,11.0,187.5,840.0,0.0,0.0,3.349609032,4.928872397905986,0.0,-31989.0,1.375,-817.5,-840.0,0.0,0.25,1.644286941,4.946431331231859,0.0012207029999999897,0.44999998807907104,1.2200000286102295,-13.039999961853027,-0.0076904296875,0.11175537109375,0.90838623046875,36.209999084472656,0.0,-49.0,4.741424560546875,-0.813873291015625,Opening,0.0,0.0,3.0,0.0,0.0,0.0,0.0,0.0,
1.8447099999999992,0.0,0.0,16382.0,0.5,922.5,840.0,0.0,0.25,0.822753822,4.918961320035963,-0.0012207029999999897,-25876.0,0.625,-900.0,-840.0,0.0,0.25,0.531005805,4.95039539381814,0.0012207029999995456,-5676.0,15.5,225.0,840.0,0.0,0.0,3.345946923,4.927088363002142,0.0,-31989.0,1.0,-840.0,-840.0,0.0,0.25,1.651611159,4.944640940766864,-0.004882811999999959,0.38999998569488525,1.2799999713897705,-13.260000228881836,0.1011962890625,0.0396728515625,0.907958984375,36.209999084472656,0.0,70.0,4.7560577392578125,-0.8089141845703125,Opening,0.0,0.0,3.0,0.0,0.0,0.0,0.0,0.0,
1.8935650000000024,0.0,0.0,16382.0,0.375,930.0,840.0,0.0,0.25,0.821533119,4.916632200462906,0.0,-25876.0,0.5,-900.0,-840.0,0.0,0.25,0.527343696,4.94805139026618,-0.006103514999999504,-5676.0,15.875,502.5,840.0,0.0,0.0,3.347167626,4.924755395288468,-0.003662108999999525,-31989.0,1.0,-915.0,-840.0,0.0,0.25,1.649169753,4.94229966193835,0.004882811999999959,0.4099999964237213,1.2200000286102295,-13.399999618530273,0.007080078125,0.09478759765625,0.998779296875,36.209999084472656,0.0,-34.0,4.7633209228515625,-0.806488037109375,Opening,0.0,0.0,3.0,0.0,0.0,0.0,0.0,0.0,
1.9307379999999976,0.0,0.0,16382.0,0.375,937.5,840.0000000000001,0.0,0.25,0.822753822,4.914714111214036,0.0,-26018.0,0.625,-885.0,-840.0000000000001,0.0,0.25,0.527343696,4.94612104368186,-0.006103514999999504,-5676.0,14.625,690.0,840.0000000000001,0.0,0.0,3.342284814,4.922834136997859,0.0,-32140.0,0.625,-945.0,-840.0000000000001,0.0,0.25,1.649169753,4.940371559233135,0.0,0.44999998807907104,1.2999999523162842,-13.619999885559082,0.03619384765625,0.00408935546875,0.9107666015625,36.13999938964844,0.0,15.0,4.7743988037109375,-0.80242919921875,Opening,0.0,0.0,3.0,0.0,0.0,0.0,0.0,0.0,
1.9691730000000025,0.0,0.0,16533.0,0.375,930.0,840.0,0.0,0.25,0.823974525,4.911699954166667,0.0,-26018.0,0.625,-870.0,-840.0,0.0,0.25,0.527343696,4.943087625,0.0,-5512.0,8.125,1042.5,840.0,0.0,0.0,3.345946923,4.919815,0.0,-32140.0,0.625,-945.0,-840.0,0.0,0.25,1.644286941,4.937341666666667,0.0,0.4399999976158142,1.2300000190734863,-13.829999923706055,-0.04510498046875,-0.07073974609375,1.12054443359375,36.13999938964844,0.0,-48.0,4.7853240966796875,-0.7983551025390625,Opening,0.0,0.0,3.0,0.0,0.0,0.0,0.0,0.0,
2.0207189999999975,0.0,0.0,16533.0,0.375,930.0,840.0,0.0,0.25,0.8154296040000001,4.90882280722736,0.0,-26018.0,0.5,-870.0,-840.0,0.0,0.25,0.527343696,4.94019209197402,0.0012207029999995456,-5512.0,6.875,1042.5,840.0,0.0,0.125,3.336181299,4.916933099476497,-0.0012207030000004337,-32140.0,0.625,-945.0,-840.0,0.0,0.25,1.639404129,4.934449499474631,0.0,0.44999998807907104,1.149999976158142,-13.970000267028809,0.04034423828125,0.01934814453125,0.86480712890625,36.13999938964844,0.0,19.0,4.7923126220703125,-0.7957611083984375,Opening,0.0,0.0,3.0,0.0,0.0,0.0,0.0,0.0,
2.0465239999999976,0.0,0.0,16686.0,0.375,930.0,840.0,0.0,0.25,0.823974525,4.906904704912488,0.0,-26166.0,0.25,-922.5,-840.0,0.0,0.25,0.526122993,4.9382617322402,-0.0012207029999995456,-5512.0,6.125,967.5,840.0,0.0,0.125,3.345946923,4.915011828098297,0.0,-32294.0,0.375,-960.0,-840.0,0.0,0.25,1.6296385050000002,4.932521383635203,-0.009765623999999917,0.4300000071525574,1.1200000047683716,-14.109999656677246,-0.0155029296875,-0.05999755859375,0.90032958984375,36.13999938964844,0.0,-15.0,4.802276611328125,-0.791656494140625,Opening,0.0,0.0,3.0,0.0,0.0,0.0,0.0,0.0,
2.0939709999999976,0.0,0.0,16686.0,0.125,945.0,840.0,0.0,0.25,0.822753822,4.904986615663619,0.0,-26166.0,0.25,-945.0,-840.0,0.0,0.25,0.522460884,4.93633138565588,0.0012207029999995456,-5374.0,7.125,825.0,840.0,0.0,0.125,3.345946923,4.9130905698076885,0.0,-32294.0,0.375,-960.0,-840.0,0.0,0.25,1.614990069,4.9305932809299895,4.948234376,0.41999998688697815,0.9300000071525574,-14.25,-0.0843505859375,-0.00811767578125,1.11883544921875,36.13999938964844,0.0,-95.0,4.811737060546875,-0.787872314453125,Opening,0.0,0.0,3.0,0.0,0.0,0.0,0.0,0.0,
2.163445,0.0,0.0,16686.0,0.125,997.5,840.0,0.0,0.25,0.826415931,4.902246465766372,0.0,-26315.0,0.125,-937.5,-840.0,0.0,0.25,0.51269526,4.93357372513628,-0.014648435999999876,-5374.0,7.75,810.0,840.0,0.0,0.125,3.345946923,4.910345892670949,0.0,-32444.0,0.375,-937.5,-840.0,0.0,0.25,1.612548663,4.927838825978173,0.0,0.33000001311302185,0.8299999833106995,-14.4399995803833,-0.0787353515625,0.064453125,1.097900390625,36.13999938964844,0.0,-106.0,4.820648193359375,-0.7846832275390625,Opening,0.0,0.0,3.0,0.0,0.0,0.0,0.0,0.0,
2.2016080000000002,0.0,0.0,16843.0,0.125,975.0,840.0,0.0,0.25,0.822753822,4.900465386625566,-0.0012207029999999897,-26315.0,0.125,-915.0,-840.0,0.0,0.25,0.51269526,4.9317812642078405,-0.0012207030000004337,-5227.0,8.125,877.5,840.0,0.0,0.125,3.355712547,4.908561870854696,0.0012207030000004337,-32444.0,0.375,-922.5,-840.0,0.0,0.25,1.6040037420000002,4.926048448647393,-0.019531247999999835,0.38999998569488525,0.7900000214576721,-14.640000343322754,-0.05096435546875,0.093505859375,1.197998046875,36.13999938964844,0.0,-86.0,4.829132080078125,-0.7815093994140625,Opening,0.0,0.0,3.0,0.0,0.0,0.0,0.0,0.0,
2.240356,0.0,0.0,16843.0,0.375,975.0,840.0,0.0,0.25,0.822753822,4.897725236728319,0.0024414059999999793,-26315.0,0.125,-922.5,-840.0,0.0,0.25,0.507812448,4.92902360368824,-0.0024414059999999793,-5227.0,7.25,945.0,840.0,0.0,0.125,3.345946923,4.905817193717957,0.0,-32444.0,0.375,-915.0,-840.0,0.0,0.25,1.6064451480000002,4.923293993695577,-0.004882811999999959,0.36000001430511475,0.7400000095367432,-14.770000457763672,0.03814697265625,-0.03985595703125,0.87646484375,36.13999938964844,0.0,37.0,4.8343505859375,-0.7793121337890625,Opening,0.0,0.0,3.0,0.0,0.0,0.0,0.0,0.0,
2.2706939999999958,0.0,0.0,16843.0,0.375,975.0,840.0,0.0,0.25,0.822753822,4.895122110005138,0.0024414059999999793,-26315.0,0.125,-922.5,-840.0,0.0,0.25,0.509033151,4.92640384197402,-0.0024414059999999793,-5227.0,6.75,952.5,840.0,0.0,0.125,3.345946923,4.9032097661431635,0.0,-32592.0,0.375,-922.5,-840.0,0.0,0.25,1.6088865540000001,4.920677277252409,-0.004882811999999959,0.38999998569488525,0.6299999952316284,-14.90999984741211,-0.0655517578125,-0.03375244140625,1.177978515625,36.13999938964844,0.0,-25.0,4.8418731689453125,-0.7762451171875,Opening,0.0,0.0,3.0,0.0,0.0,0.0,0.0,0.0,
2.3032220000000017,0.0,0.0,16998.0,0.375,967.5,840.0,0.0,0.25,0.822753822,4.893204007690266,-0.0012207029999999897,-26462.0,0.125,-907.5,-840.0,0.0,0.25,0.507812448,4.9244734822402005,0.0012207030000004337,-5076.0,6.5,945.0,840.0,0.0,0.125,3.358153953,4.901288494764964,-0.0012207030000004337,-32592.0,0.375,-922.5,-840.0,0.0,0.25,1.6064451480000002,4.918749161412981,0.0,0.2800000011920929,0.5400000214576721,-15.180000305175781,-0.10589599609375,-0.06439208984375,1.1314697265625,36.13999938964844,0.0,-94.0,4.8490142822265625,-0.773529052734375,Opening,0.0,0.0,3.0,0.0,0.0,0.0,0.0,0.0,
2.351966999999997,0.0,0.0,16998.0,0.375,952.5,840.0,0.0,0.25,0.821533119,4.8903268607509585,0.0,-26462.0,0.125,-892.5,-840.0,0.0,0.25,0.509033151,4.92157794921422,0.0012207029999995456,-5076.0,6.5,952.5,840.0,0.0,0.125,3.342284814,4.89840659424146,0.0012207030000004337,-32592.0,0.375,-907.5,-840.0,0.0,0.25,1.6052244450000002,4.915856994220945,0.0,0.3100000023841858,0.6000000238418579,-15.390000343322754,-0.047119140625,0.1192626953125,0.95166015625,36.13999938964844,0.0,-85.0,4.85546875,-0.7708587646484375,Opening,0.0,0.0,3.0,0.0,0.0,0.0,0.0,0.0,
2.415974000000002,0.0,0.0,16998.0,0.375,945.0,840.0,0.0,0.25,0.8178710100000001,4.886490669187218,0.0,-26603.0,0.125,-877.5,-840.0,0.0,0.25,0.5029296360000001,4.91771724289608,-0.004882811999999959,-5076.0,6.25,907.5,840.0,0.0,0.125,3.337402002,4.894564064572652,0.0,-32732.0,0.375,-877.5,-840.0,0.0,0.25,1.6040037420000002,4.9120007756763036,0.0,0.3199999928474426,0.4300000071525574,-15.619999885559082,-0.05859375,-0.0850830078125,0.75390625,36.13999938964844,0.0,-37.0,4.861114501953125,-0.768218994140625,Opening,0.0,0.0,3.0,0.0,0.0,0.0,0.0,0.0,
2.443701000000001,0.0,0.0,17149.0,0.375,945.0,840.0,0.0,0.25,0.8142089010000001,4.884298559722223,4.929809594,-26603.0,0.125,-870.0,-840.0,0.0,0.25,0.5017089330000001,4.915511125,-0.009765623999999917,-4934.0,6.375,877.5,840.0,0.0,0.125,3.33251919,4.892368333333334,-0.009765623999999917,-32732.0,0.375,-862.5,-840.0,0.0,0.25,1.6076658510000001,4.909797222222222,-0.0012207030000004337,0.28999999165534973,0.33000001311302185,-15.850000381469727,-0.02587890625,-0.01513671875,1.08099365234375,36.06999969482422,0.0,-25.0,4.8660736083984375,-0.7664947509765625,Opening,0.0,0.0,3.0,0.0,0.0,0.0,0.0,0.0,
2.484993000000002,0.0,0.0,17149.0,0.375,937.5,840.0,0.0,0.25,0.8044432770000001,4.88114739256679,4.929809594,-26603.0,0.125,-862.5,-840.0,0.0,0.25,0.49316401200000004,4.91233982066226,-0.009765623999999917,-4934.0,6.5,877.5,840.0,0.0,0.125,3.331298487,4.88921195986112,-0.009765623999999917,-32732.0,0.375,-855.0,-840.0,0.0,0.25,1.6052244450000002,4.90662960428132,0.0012207030000004337,0.3199999928474426,0.27000001072883606,-16.0,-0.01007080078125,-0.013671875,1.1199951171875,36.06999969482422,0.0,-9.0,4.8690948486328125,-0.7655181884765625,Opening,0.0,0.0,3.0,0.0,0.0,0.0,0.0,0.0,
2.540493999999999,0.0,0.0,17149.0,0.375,922.5,840.0,0.0,0.25,0.786132732,4.879092293209857,-0.009765623999999917,-26738.0,0.125,-847.5,-840.0,0.0,0.25,0.4882812,4.91027158842206,-0.004882811999999959,-4934.0,7.125,750.0,840.0,0.0,0.125,3.33251919,4.887153465096156,0.0,-32868.0,0.375,-840.0,-840.0,0.0,0.25,1.6052244450000002,4.904563776201672,0.0,0.3400000035762787,0.17000000178813934,-16.25,-0.00982666015625,0.0025634765625,1.03851318359375,36.06999969482422,0.0,-11.0,4.868804931640625,-0.7632293701171875,Opening,0.0,0.0,3.0,0.0,0.0,0.0,0.0,0.0,
2.5725610000000017,0.0,0.0,17295.0,0.375,907.5,840.0,0.0,0.25,0.7910155440000001,4.875667118904302,-0.004882811999999959,-26738.0,0.125,-840.0,-840.0,0.0,0.25,0.482177685,4.90682452592206,0.0,-4847.0,9.0,547.5,840.0,0.0,0.125,3.3264156750000002,4.883722631762823,0.0,-32868.0,0.625,-832.5,-840.0,0.0,0.25,1.600341633,4.901120720646117,0.0,0.3100000023841858,0.15000000596046448,-16.360000610351562,-0.044677734375,0.15948486328125,0.98626708984375,36.06999969482422,0.0,-88.0,4.8687286376953125,-0.7621002197265625,Opening,0.0,0.0,3.0,0.0,0.0,0.0,0.0,0.0,
2.609445999999996,0.0,0.0,17295.0,0.375,892.5,840.0,0.0,0.25,0.784912029,4.874160033847616,-0.014648436000000764,-26738.0,0.125,-840.0,-840.0,0.0,0.25,0.484619091,4.90530781000638,-0.008544920999999484,-4847.0,10.625,472.5,840.0,0.0,0.125,3.331298487,4.882213056720098,0.0,-32868.0,0.625,-825.0,-840.0,0.0,0.25,1.596679524,4.899605767795775,-0.004882811999999959,0.3700000047683716,0.11999999731779099,-16.459999084472656,0.0130615234375,0.0338134765625,0.76177978515625,36.06999969482422,0.0,2.0,4.868621826171875,-0.760772705078125,Opening,0.0,0.0,3.0,0.0,0.0,0.0,0.0,0.0,
2.641885000000002,0.0,0.0,17437.0,0.375,885.0,840.0,0.0,0.25,0.784912029,4.872789985030998,-0.003662108999999525,-26873.0,0.125,-840.0,-840.0,0.0,0.25,0.483398388,4.90392900604558,-0.0012207030000004337,-4847.0,14.5,465.0,840.0,0.0,0.125,3.3276363780000002,4.8808407443269095,0.0,-32998.0,0.625,-810.0,-840.0,0.0,0.25,1.590576009,4.898228566588296,-0.004882811999999959,0.3400000035762787,0.11999999731779099,-16.649999618530273,-0.008544921875,-0.0614013671875,1.149658203125,36.06999969482422,0.0,9.0,4.868408203125,-0.758880615234375,Opening,0.0,0.0,3.0,0.0,0.0,0.0,0.0,0.0,
2.686917000000001,0.0,0.0,17437.0,0.375,885.0,840.0,0.0,0.25,0.786132732,4.86922780061738,-0.003662108999999525,-26873.0,0.125,-840.0,-840.0,0.0,0.25,0.483398388,4.9003440578897,-0.0012207030000004337,-4770.0,14.625,472.5,840.0,0.0,0.125,3.3178707540000003,4.877272674519221,0.0,-32998.0,0.625,-817.5,-840.0,0.0,0.25,1.5869139,4.894647785658306,-0.003662109000000413,0.25,0.07999999821186066,-16.790000915527344,-0.02642822265625,0.06109619140625,0.90362548828125,36.06999969482422,0.0,-42.0,4.868377685546875,-0.7578582763671875,Opening,0.0,0.0,3.0,0.0,0.0,0.0,0.0,0.0,
2.7297450000000025,0.0,0.0,17437.0,0.125,900.0,840.0,0.0,0.25,0.780029217,4.867446695344568,0.0,-26873.0,0.125,-847.5,-840.0,0.0,0.25,0.483398388,4.89855157066226,0.0012207030000004337,-4770.0,15.875,472.5,840.0,0.0,0.125,3.306884427,4.875488626527787,-0.009765623999999917,-32998.0,0.625,-825.0,-840.0,0.0,0.25,1.5820310880000001,4.8928573820590975,-0.006103514999999504,0.15000000596046448,0.019999999552965164,-17.059999465942383,0.00360107421875,-0.03985595703125,1.06488037109375,36.06999969482422,0.0,15.0,4.8682861328125,-0.7565155029296875,Opening,0.0,0.0,3.0,0.0,0.0,0.0,0.0,0.0,
2.767712999999996,0.0,0.0,17437.0,0.125,907.5,840.0,0.0,0.25,0.78124992,4.864569561471264,-0.0024414059999999793,-27010.0,0.125,-847.5,-840.0,0.0,0.25,0.483398388,4.89565605078578,0.0,-4770.0,18.875,435.0,840.0,0.0,0.125,3.298339506,4.872606739091873,-0.009765623999999917,-33132.0,0.375,-840.0,-840.0,0.0,0.25,1.5820310880000001,4.889965228001277,-0.003662109000000413,0.019999999552965164,0.0,-17.309999465942383,-0.0654296875,-0.0633544921875,1.0723876953125,36.06999969482422,0.0,-43.0,4.8684234619140625,-0.7562255859375,Opening,0.0,0.0,3.0,0.0,0.0,0.0,0.0,0.0,
2.8230120000000025,0.0,0.0,17584.0,0.125,915.0,840.0,0.0,0.25,0.782470623,4.859911322325147,-0.004882811999999959,-27010.0,0.125,-847.5,-840.0,0.0,0.25,0.483398388,4.89096804368186,-0.0012207030000004337,-4695.0,20.0,435.0,840.0,0.0,0.125,3.297118803,4.867940803664526,-0.009765624000000805,-33132.0,0.375,-840.0,-840.0,0.0,0.25,1.5808103850000002,4.885282670344247,-0.003662109000000413,-0.03999999910593033,0.019999999552965164,-17.510000228881836,0.071533203125,-0.029296875,0.859375,36.06999969482422,0.0,76.0,4.8685760498046875,-0.75640869140625,Opening,0.0,0.0,3.0,0.0,0.0,0.0,0.0,0.0,
2.8657450000000027,0.0,0.0,17584.0,0.125,937.5,840.0,0.0,0.25,0.780029217,4.856897152211775,0.0012207029999995456,-27010.0,0.125,-847.5,-840.0,0.0,0.25,0.482177685,4.8879346118505005,0.0,-4695.0,22.0,637.5,840.0,0.0,0.125,3.298339506,4.864921653579076,-0.004882811999999959,-33268.0,0.375,-840.0,-840.0,0.0,0.25,1.5808103850000002,4.882252764643563,0.0,0.019999999552965164,0.09000000357627869,-17.969999313354492,0.03851318359375,0.07196044921875,1.11859130859375,36.06999969482422,0.0,12.0,4.8688201904296875,-0.7565460205078125,Opening,0.0,0.0,3.0,0.0,0.0,0.0,0.0,0.0,
2.902190999999999,0.0,0.0,17738.0,0.125,952.5,840.0,0.0,0.25,0.7910155440000001,4.852101929089602,0.0,-27146.0,0.125,-855.0,-840.0,0.0,0.25,0.47241206100000005,4.8831087453897,0.0,-4557.0,19.25,817.5,840.0,0.0,0.125,3.298339506,4.860118507852555,0.0,-33268.0,0.375,-847.5,-840.0,0.0,0.25,1.5820310880000001,4.8774325078805285,0.0,0.05000000074505806,0.07000000029802322,-18.290000915527344,-0.0665283203125,-0.1092529296875,0.84820556640625,36.06999969482422,0.0,-29.0,4.86865234375,-0.756622314453125,Opening,0.0,0.0,3.0,0.0,0.0,0.0,0.0,0.0,
2.951089,0.0,0.0,17738.0,0.125,960.0,840.0,0.0,0.25,0.76904289,4.8477176840276055,-0.004882811999999959,-27146.0,0.125,-862.5,-840.0,0.0,0.25,0.46386714,4.87869648329854,-0.014648435999999876,-4557.0,16.75,847.5,840.0,0.0,0.125,3.298339506,4.855727019198736,0.0012207030000004337,-33268.0,0.375,-870.0,-840.0,0.0,0.25,1.5820310880000001,4.873025374703937,-0.0012207029999995456,0.10999999940395355,0.0,-18.459999084472656,-0.0115966796875,-0.07159423828125,1.316162109375,36.06999969482422,0.0,12.0,4.868316650390625,-0.7568206787109375,Opening,0.0,0.0,3.0,0.0,0.0,0.0,0.0,0.0,
2.9859259999999996,0.0,0.0,17738.0,0.125,952.5,840.0,0.0,0.25,0.795898356,4.844292509722051,-0.004882811999999959,-27146.0,0.125,-870.0,-840.0,0.0,0.25,0.45532221900000003,4.87524942079854,-0.014648435999999876,-4557.0,16.25,787.5,840.0,0.0,0.125,3.297118803,4.852296185865402,0.0012207030000004337,-33268.0,0.375,-877.5,-840.0,0.0,0.25,1.5820310880000001,4.869582319148382,-0.0012207029999995456,0.019999999552965164,0.0,-18.610000610351562,0.089599609375,0.03253173828125,0.9449462890625,36.0,0.0,74.0,4.8679351806640625,-0.757110595703125,Opening,0.0,0.0,3.0,0.0,0.0,0.0,0.0,0.0,
3.0255930000000006,0.0,0.0,17890.0,0.125,937.5,840.0,0.0,0.25,0.758056563,4.842374420473181,-0.006103514999999504,-27287.0,0.0,-877.5,-840.0,0.0,0.25,0.45166011,4.87331907421422,-0.008544921000000372,-4557.0,18.5,562.5,840.0,0.0,0.125,3.297118803,4.850374927574793,-0.0012207030000004337,-33409.0,0.375,-877.5,-840.0,0.0,0.25,1.5820310880000001,4.867654216443168,0.0,0.07000000029802322,-0.019999999552965164,-18.780000686645508,-0.03887939453125,-0.0078125,1.26470947265625,36.0,0.0,-33.0,4.867462158203125,-0.7574005126953125,Opening,0.0,0.0,3.0,0.0,0.0,0.0,0.0,0.0,
3.0518530000000026,0.0,0.0,17890.0,0.375,937.5,0.0,0.0,0.25,0.755615157,0.01,-0.007324217999999938,-27287.0,0.125,-877.5,-0.0,0.0,0.25,0.43457026800000004,0.01,-0.009765623999999917,-4499.0,20.5,352.5,0.0,0.0,0.0,3.293456694,0.01,0.0012207030000004337,-33409.0,0.125,-870.0,-0.0,0.0,0.25,1.5771482760000002,0.01,0.0,0.05000000074505806,0.029999999329447746,-18.8799991607666,-0.00787353515625,0.09368896484375,0.91912841796875,36.0,0.0,-38.0,4.8670501708984375,-0.75750732421875,Opening,0.0,0.0,3.0,0.0,0.0,0.0,0.0,0.0,
3.0943359999999958,0.0,0.0,17890.0,1.5,900.0,0.0,0.0,0.25,0.770263593,0.01,-0.0012207030000004337,-27287.0,0.625,-855.0,-0.0,0.0,0.25,0.44067378300000004,0.01,-0.009765623999999917,-4499.0,17.75,315.0,0.0,0.0,0.0,3.303222318,0.01,-0.0012207030000004337,-33409.0,0.375,-840.0,-0.0,0.0,0.25,1.572265464,0.01,-0.003662109000000413,0.15000000596046448,-0.4399999976158142,-19.030000686645508,-0.1815185546875,0.02392578125,1.070068359375,36.0,0.0,-170.0,4.8647613525390625,-0.757568359375,Opening,0.0,0.0,3.0,0.0,0.0,0.0,0.0,0.0,
3.1277070000000022,0.0,0.0,17890.0,2.125,870.0,0.0,0.0,0.25,0.780029217,0.01,-0.0012207030000004337,-27415.0,1.25,-832.5,-0.0,0.0,0.25,0.43945308000000005,0.01,-0.009765623999999917,-4499.0,11.375,435.0,0.0,0.0,0.125,3.303222318,0.01,-0.0012207030000004337,-33539.0,0.375,-817.5,-0.0,0.0,0.25,1.572265464,0.01,-0.003662109000000413,0.12999999523162842,-0.5099999904632568,-19.1299991607666,-0.25048828125,0.09161376953125,0.71112060546875,36.0,0.0,-260.0,4.8618621826171875,-0.7581024169921875,Opening,0.0,0.0,3.0,0.0,0.0,0.0,0.0,0.0,
3.162739999999998,0.0,0.0,18013.0,2.875,787.5,0.0,0.0,0.25,0.794677653,0.01,0.024414059999999793,-27415.0,2.125,-772.5,-0.0,0.0,0.25,0.444335892,0.01,0.004882811999999959,-4387.0,9.0,652.5,0.0,0.0,0.0,3.3129879420000004,0.01,0.006103515000000392,-33539.0,0.75,-750.0,-0.0,0.0,0.25,1.56249984,0.01,-0.006103515000000392,0.23000000417232513,-1.0,-19.200000762939453,-0.28485107421875,0.11517333984375,1.3077392578125,36.0,0.0,-283.0,4.8577728271484375,-0.7585906982421875,Opening,0.0,0.0,3.0,0.0,0.0,0.0,0.0,0.0,
3.204707999999999,0.0,0.0,18013.0,3.5,705.0,0.0,0.0,0.25,0.8032225740000001,0.01,0.012207029999999897,-27415.0,2.875,-697.5,-0.0,0.0,0.25,0.444335892,0.01,0.0,-4387.0,5.875,757.5,0.0,0.0,0.0,3.3129879420000004,0.01,0.008544921000000372,-33539.0,0.875,-667.5,-0.0,0.0,0.25,1.567382652,0.01,-0.003662108999999525,0.27000001072883606,-1.2999999523162842,-19.309999465942383,-0.2108154296875,0.02838134765625,1.09149169921875,36.0,0.0,-183.0,4.849334716796875,-0.7595672607421875,Opening,0.0,0.0,3.0,0.0,0.0,0.0,0.0,0.0,
3.2416460000000007,0.0,0.0,18013.0,3.5,660.0,0.0,0.0,0.125,0.811767495,0.01,0.012207029999999897,-27498.0,3.25,-585.0,-0.0,0.0,0.25,0.445556595,0.01,0.0,-4387.0,4.5,675.0,0.0,0.0,0.0,3.3178707540000003,0.01,0.004882811999999959,-33628.0,0.875,-622.5,-0.0,0.0,0.25,1.5771482760000002,0.01,0.0,0.30000001192092896,-1.6699999570846558,-19.399999618530273,-0.23883056640625,0.0015869140625,1.08404541015625,36.0,0.0,-193.0,4.84222412109375,-0.7606658935546875,Opening,0.0,0.0,3.0,0.0,0.0,0.0,0.0,0.0,
3.2704579999999988,0.0,0.0,18092.0,3.75,555.0,0.0,0.0,0.125,0.8044432770000001,0.01,0.006103515000000392,-27498.0,3.125,-525.0,-0.0,0.0,0.25,0.444335892,0.01,-0.0012207029999995456,-4387.0,4.375,615.0,0.0,0.0,0.0,3.3178707540000003,0.01,0.004882811999999959,-33628.0,1.0,-510.0,-0.0,0.0,0.25,1.5869139,0.01,0.0,0.30000001192092896,-1.8899999856948853,-19.479999542236328,-0.3033447265625,0.081298828125,0.94000244140625,36.0,0.0,-281.0,4.83404541015625,-0.762054443359375,Opening,0.0,0.0,3.0,0.0,0.0,0.0,0.0,0.0,
3.3036039999999995,0.0,0.0,18092.0,3.875,442.5,0.0,0.0,0.125,0.797119059,0.01,0.0012207030000004337,-27498.0,2.875,-412.5,-0.0,0.0,0.25,0.444335892,0.01,0.0,-4304.0,4.625,487.5,0.0,0.0,0.0,3.3166500510000003,0.01,0.0,-33628.0,0.875,-397.5,-0.0,0.0,0.25,1.596679524,0.01,0.019531247999999835,0.3400000035762787,-2.299999952316284,-19.540000915527344,-0.15020751953125,0.069580078125,0.9742431640625,36.0,0.0,-125.0,4.8197174072265625,-0.764373779296875,Opening,0.0,0.0,3.0,0.0,0.0,0.0,0.0,0.0,
3.342582000000002,0.0,0.0,18092.0,3.5,330.0,0.0,0.0,0.125,0.8032225740000001,0.01,-0.0012207030000004337,-27498.0,2.625,-315.0,-0.0,0.0,0.25,0.444335892,0.01,0.0,-4304.0,5.125,427.5,0.0,0.0,0.0,3.3178707540000003,0.01,0.0,-33669.0,0.875,-345.0,-0.0,0.0,0.25,1.6027830390000002,0.01,0.008544921000000372,0.3799999952316284,-2.5399999618530273,-19.56999969482422,-0.18133544921875,-0.0040283203125,1.05462646484375,36.0,0.0,-122.0,4.8091278076171875,-0.766082763671875,Opening,0.0,0.0,3.0,0.0,0.0,0.0,0.0,0.0,
3.375112000000001,0.0,0.0,18123.0,3.0,232.5,0.0,0.0,0.125,0.808105386,0.01,0.0,-27533.0,2.25,-210.0,-0.0,0.0,0.25,0.45532221900000003,0.01,0.0,-4277.0,6.625,240.0,0.0,0.0,0.0,3.3215328630000003,0.01,0.0,-33669.0,0.5,-195.0,-0.0,0.0,0.25,1.6040037420000002,0.01,0.009765623999999917,0.3700000047683716,-2.880000114440918,-19.649999618530273,-0.19189453125,-0.01580810546875,1.02691650390625,36.0,0.0,-124.0,4.785614013671875,-0.7703399658203125,Opening,0.0,0.0,3.0,0.0,0.0,0.0,0.0,0.0,
3.4286460000000005,0.0,0.0,18123.0,2.375,142.5,0.0,0.0,0.125,0.8044432770000001,0.01,0.0,-27533.0,1.75,-127.5,-0.0,0.0,0.25,0.46386714,0.01,0.0,-4277.0,7.375,180.0,0.0,0.0,0.0,3.3203121600000003,0.01,0.0,-33669.0,0.5,-142.5,-0.0,0.0,0.25,1.6064451480000002,0.01,0.009765623999999917,0.3700000047683716,-2.9600000381469727,-19.649999618530273,-0.15362548828125,0.01141357421875,1.05743408203125,36.0,0.0,-94.0,4.7793731689453125,-0.7715911865234375,Opening,0.0,0.0,3.0,0.0,0.0,0.0,0.0,0.0,
3.4772949999999985,0.0,0.0,18123.0,2.0,67.5,0.0,0.0,0.125,0.8044432770000001,0.01,0.0,-27538.0,1.375,-60.0,-0.0,0.0,0.25,0.47363276400000004,0.01,0.01831054500000029,-4277.0,11.625,52.5,0.0,0.0,0.0,3.3227535660000003,0.01,0.004882811999999959,-33673.0,0.375,-37.5,-0.0,0.0,0.25,1.6052244450000002,0.01,0.0,0.4000000059604645,-3.009999990463257,-19.649999618530273,0.01397705078125,0.01251220703125,1.05047607421875,35.9900016784668,0.0,63.0,4.7538299560546875,-0.776702880859375,Opening,0.0,0.0,3.0,0.0,0.0,0.0,0.0,0.0,
3.5110800000000015,0.0,0.0,18124.0,1.5,0.0,0.0,0.0,0.125,0.8044432770000001,0.01,0.0,-27538.0,1.0,-7.5,-0.0,0.0,0.25,0.47851557600000005,0.01,0.009765623999999917,-4276.0,13.25,15.0,0.0,0.0,0.0,3.3227535660000003,0.01,0.0,-33673.0,0.125,0.0,-0.0,0.0,0.25,1.6064451480000002,0.01,0.0,0.36000001430511475,-2.759999990463257,-19.690000534057617,0.034912109375,-0.0228271484375,0.99591064453125,35.9900016784668,0.0,87.0,4.7295989990234375,-0.78021240234375,Opening,0.0,0.0,3.0,0.0,0.0,0.0,0.0,0.0,
3.5701789999999964,0.0,0.0,18124.0,1.5,0.0,0.0,0.0,0.125,0.8032225740000001,0.01,-0.0012207029999995456,-27538.0,0.875,0.0,-0.0,0.0,0.25,0.47851557600000005,0.01,0.006103515000000392,-4276.0,13.75,0.0,0.0,0.0,0.0,3.3203121600000003,0.01,0.0,-33673.0,0.125,0.0,-0.0,0.0,0.25,1.6052244450000002,0.01,0.0,0.3499999940395355,-2.690000057220459,-19.649999618530273,-0.03082275390625,0.0250244140625,0.98065185546875,35.9900016784668,0.0,8.0,4.71807861328125,-0.7801971435546875,Opening,0.0,0.0,3.0,0.0,0.0,0.0,0.0,0.0,
3.627358,0.0,0.0,18124.0,1.5,0.0,420.0,0.0,0.125,0.8032225740000001,0.5498168668524888,-0.0012207029999995456,-27538.0,0.875,0.0,-420.0,0.0,0.25,0.47363276400000004,1.9285545897722227,0.0,-4276.0,15.0,0.0,420.0,0.0,0.0,3.333739893,4.389674732977289,0.0,-33673.0,0.125,0.0,-420.0,0.0,0.25,1.6052244450000002,3.0316872062785585,0.0,0.3799999952316284,-2.6700000762939453,-19.65999984741211,-0.02532958984375,0.0213623046875,1.0609130859375,35.9900016784668,0.0,17.0,4.71807861328125,-0.780059814453125,Opening,0.0,0.0,3.0,0.0,0.0,0.0,0.0,0.0,
3.6786010000000022,0.0,0.0,18124.0,0.5,0.0,420.0,0.0,1.625,0.826415931,0.5498168668524888,0.0012207029999995456,-27538.0,0.0,-7.5,-420.0,0.0,1.25,0.533447211,1.9285545897722227,0.004882811999999959,-4276.0,19.25,0.0,420.0,0.0,1.0,3.278808258,4.389674732977289,0.0,-33673.0,0.125,0.0,-420.0,0.0,5.875,1.5002439870000002,3.0316872062785585,0.0,0.3799999952316284,-2.4800000190734863,-19.700000762939453,0.0501708984375,-0.02349853515625,1.06256103515625,35.9900016784668,0.0,115.0,4.7192230224609375,-0.7791900634765625,Opening,0.0,0.0,3.0,0.0,0.0,0.0,0.0,0.0,
3.7051759999999994,0.0,0.0,18124.0,0.125,22.5,420.0,0.0,2.125,1.022949114,0.5498168668524888,-4.872436553,-27548.0,0.0,-30.0,-420.0,0.0,8.25,0.911865141,1.9285545897722227,0.08544921000000016,-4276.0,22.5,15.0,420.0,0.0,0.75,3.1127926500000003,4.389674732977289,-0.052490229,-33674.0,0.375,0.0,-420.0,0.0,2.625,1.1376951960000001,3.0316872062785585,-0.11230467600000082,0.3199999928474426,-2.25,-19.760000228881836,0.07525634765625,0.10772705078125,0.91143798828125,35.9900016784668,0.0,69.0,4.720703125,-0.7784271240234375,Opening,0.0,0.0,3.0,0.0,0.0,0.0,0.0,0.0,
3.763832000000002,0.0,0.0,18132.0,0.0,45.0,420.0,0.0,0.625,1.1633299590000001,0.5498168668524888,0.0,-27548.0,0.0,-112.5,-420.0,0.0,1.5,1.284179556,1.9285545897722227,0.3857421479999994,-4272.0,22.875,22.5,420.0,0.0,0.25,2.9479977450000003,4.389674732977289,-0.17456052900000074,-33674.0,0.375,-15.0,-420.0,0.0,1.5,0.766601484,3.0316872062785585,-0.38085933599999944,0.3499999940395355,-1.9900000095367432,-19.780000686645508,0.10845947265625,-0.002685546875,0.991455078125,35.9900016784668,0.0,137.0,4.724029541015625,-0.7762908935546875,Opening,0.0,0.0,3.0,0.0,0.0,0.0,0.0,0.0,
3.811356,0.0,0.0,18132.0,0.125,82.5,420.0,0.0,0.625,1.3195799430000001,0.5498168668524888,0.208740213,-27548.0,0.0,-142.5,-420.0,0.0,1.25,1.534423671,1.9285545897722227,0.3869628510000007,-4272.0,22.75,15.0,420.0,0.0,0.125,2.860107129,4.389674732977289,-0.16113279599999952,-33674.0,0.375,-67.5,-420.0,0.0,1.75,0.5297851020000001,3.0316872062785585,-0.36865230600000043,0.30000001192092896,-1.7400000095367432,-20.149999618530273,-0.02215576171875,0.0198974609375,1.0162353515625,35.9900016784668,0.0,3.0,4.7305908203125,-0.77459716796875,Opening,0.0,0.0,3.0,0.0,0.0,0.0,0.0,0.0,
3.8439919999999983,0.0,0.0,18169.0,0.125,142.5,420.0,0.0,0.25,1.444091649,0.5498168668524888,0.289306611,-27577.0,0.0,-180.0,-420.0,0.0,1.25,1.929931443,1.9285545897722227,0.2539062239999996,-4272.0,23.75,22.5,420.0,0.0,0.125,2.778320028,4.389674732977289,-0.09399413099999965,-33693.0,0.375,-127.5,-420.0,0.0,1.75,0.17822263800000002,3.0316872062785585,-0.23803708499999932,0.30000001192092896,-1.659999966621399,-20.90999984741211,0.00177001953125,-0.05670166015625,1.03961181640625,35.9900016784668,0.0,52.0,4.7360076904296875,-0.7744293212890625,Opening,0.0,0.0,3.0,0.0,0.0,0.0,0.0,0.0,
3.890993000000002,0.0,0.0,18169.0,0.0,232.5,420.0,0.0,0.125,1.4489744610000002,0.5498168668524888,0.289306611,-27577.0,0.0,-172.5,-420.0,0.0,1.25,2.1166990020000003,1.9285545897722227,0.2539062239999996,-4257.0,24.0,45.0,420.0,0.0,0.125,2.779540731,4.389674732977289,-0.09399413099999965,-33693.0,0.375,-157.5,-420.0,0.0,1.375,4.942626447,3.0316872062785585,-0.34179684000000066,0.25999999046325684,-1.6799999475479126,-21.610000610351562,-0.11041259765625,-0.02923583984375,0.96942138671875,35.9900016784668,0.0,-63.0,4.7396240234375,-0.7743988037109375,Opening,0.0,0.0,3.0,0.0,0.0,0.0,0.0,0.0,
3.9449110000000003,0.0,0.0,18169.0,0.0,285.0,420.0,0.0,0.25,1.444091649,0.5498168668524888,-0.0012207029999999897,-27577.0,0.0,-157.5,-420.0,0.0,0.75,2.4841306050000003,1.9285545897722227,0.36621089999999956,-4257.0,23.5,172.5,420.0,0.0,0.0,2.7502438590000002,4.389674732977289,-0.029296871999999752,-33724.0,0.375,-187.5,-420.0,0.0,0.625,4.693603035000001,3.0316872062785585,-0.31688719399999954,0.3400000035762787,-1.850000023841858,-22.739999771118164,-0.128173828125,0.04913330078125,1.03741455078125,35.9900016784668,0.0,-103.0,4.7443695068359375,-0.7745819091796875,Opening,0.0,0.0,3.0,0.0,0.0,0.0,0.0,0.0,
4.000012999999999,0.0,0.0,18215.0,0.0,292.5,420.0,0.0,0.25,1.4453123520000002,0.5498168668524888,-0.003662109000000191,-27607.0,0.125,-202.5,-420.0,0.0,0.25,2.5903317660000003,1.9285545897722227,0.17578123199999984,-4213.0,23.625,277.5,420.0,0.0,0.0,2.7490231560000002,4.389674732977289,0.0,-33724.0,0.625,-202.5,-420.0,0.0,0.25,4.609374528,3.0316872062785585,-0.12207029999999985,0.5,-1.9800000190734863,-24.479999542236328,-0.10498046875,0.09222412109375,1.18438720703125,36.0099983215332,0.0,-91.0,4.74896240234375,-0.774688720703125,Opening,0.0,0.0,3.0,0.0,0.0,0.0,0.0,0.0,
4.031046999999998,0.0,0.0,18215.0,0.0,292.5,420.0,0.0,0.25,1.439208837,0.5498168668524888,-0.003662109000000191,-27607.0,0.125,-225.0,-420.0,0.0,0.25,2.5939938750000002,1.9285545897722227,0.17578123199999984,-4213.0,24.375,277.5,420.0,0.0,0.0,2.7490231560000002,4.389674732977289,0.0,-33724.0,0.375,-225.0,-420.0,0.0,0.25,4.591063983000001,3.0316872062785585,-0.12207029999999985,0.550000011920929,-2.0,-24.979999542236328,-0.0426025390625,-0.0218505859375,1.02069091796875,36.0099983215332,0.0,7.0,4.7498779296875,-0.7746734619140625,Opening,0.0,0.0,3.0,0.0,0.0,0.0,0.0,0.0,
4.062260999999999,0.0,0.0,18215.0,0.0,307.5,420.0,0.0,0.25,1.4282225100000001,0.5498168668524888,-0.0024414059999999793,-27607.0,0.125,-262.5,-420.0,0.0,0.25,2.5903317660000003,1.9285545897722227,0.07812499200000023,-4213.0,24.625,255.0,420.0,0.0,0.0,2.7502438590000002,4.389674732977289,0.0,-33724.0,0.375,-247.5,-420.0,0.0,0.25,4.586181171000001,3.0316872062785585,-0.07202147699999983,0.5400000214576721,-2.049999952316284,-26.040000915527344,-0.0595703125,-0.05877685546875,1.157958984375,36.0099983215332,0.0,14.0,4.7516326904296875,-0.7747650146484375,Opening,0.0,0.0,3.0,0.0,0.0,0.0,0.0,0.0,
4.089637999999999,0.0,0.0,18215.0,0.125,315.0,420.0,0.0,0.25,1.4208982920000002,0.5498168668524888,-0.0024414059999999793,-27654.0,0.125,-277.5,-420.0,0.0,0.25,2.5854489540000003,1.9285545897722227,0.07812499200000023,-4213.0,24.5,247.5,420.0,0.0,0.0,2.7514645620000002,4.389674732977289,0.0,-33766.0,0.625,-262.5,-420.0,0.0,0.25,4.584960468,3.0316872062785585,-0.025634763000000227,0.49000000953674316,-2.009999990463257,-27.190000534057617,-0.0162353515625,0.02008056640625,0.9326171875,36.0099983215332,0.0,9.0,4.7534942626953125,-0.7750701904296875,Opening,0.0,0.0,3.0,0.0,0.0,0.0,0.0,0.0,
4.125279000000003,0.0,0.0,18268.0,0.125,322.5,420.0,0.0,0.25,1.406249856,0.5498168668524888,-0.014648435999999876,-27654.0,0.0,-300.0,-420.0,0.0,0.25,2.5842282510000003,1.9285545897722227,-0.009765623999999917,-4170.0,24.75,255.0,420.0,0.0,0.0,2.7490231560000002,4.389674732977289,0.0,-33766.0,0.625,-255.0,-420.0,0.0,0.25,4.576415547,3.0316872062785585,-0.025634763000000227,0.5,-1.9600000381469727,-29.049999237060547,-0.00982666015625,0.067138671875,0.99591064453125,36.0099983215332,0.0,-6.0,4.7565460205078125,-0.7755279541015625,Opening,0.0,0.0,3.0,0.0,0.0,0.0,0.0,0.0,
4.155720000000001,0.0,0.0,18268.0,0.125,322.5,420.0,0.0,0.25,1.4013670440000001,0.5498168668524888,-0.019531248000000057,-27654.0,0.0,-322.5,-420.0,0.0,0.25,2.5854489540000003,1.9285545897722227,-0.009765623999999917,-4170.0,26.125,277.5,420.0,0.0,0.0,2.7514645620000002,4.389674732977289,0.0,-33766.0,0.375,-285.0,-420.0,0.0,0.25,4.576415547,3.0316872062785585,-0.009765623999999917,0.6200000047683716,-1.909999966621399,-30.329999923706055,0.0050048828125,0.04217529296875,1.15753173828125,36.0099983215332,0.0,22.0,4.7565765380859375,-0.7756195068359375,Opening,0.0,0.0,3.0,0.0,0.0,0.0,0.0,0.0,
4.202019,0.0,0.0,18268.0,0.125,337.5,420.0,0.0,0.25,1.3720701720000001,0.5498168668524888,-0.020751951000000046,-27721.0,0.0,-397.5,-420.0,0.0,0.25,2.556152082,1.9285545897722227,-0.0012207029999999897,-4170.0,25.0,285.0,420.0,0.0,0.0,2.755126671,4.389674732977289,0.0,-33838.0,0.375,-405.0,-420.0,0.0,0.25,4.576415547,3.0316872062785585,0.0012207029999995456,0.6600000262260437,-1.7699999809265137,-32.380001068115234,0.03082275390625,-0.06292724609375,0.855224609375,36.0099983215332,0.0,87.0,4.7568511962890625,-0.7754974365234375,Opening,0.0,0.0,3.0,0.0,0.0,0.0,0.0,0.0,
4.239303,0.0,0.0,18326.0,0.0,345.0,420.0,0.0,0.25,1.36718736,0.5498168668524888,-0.020751951000000046,-27721.0,0.0,-412.5,-420.0,0.0,0.25,2.5366208340000003,1.9285545897722227,-0.0012207029999999897,-4170.0,25.375,292.5,420.0,0.0,0.0,2.7490231560000002,4.389674732977289,0.0,-33838.0,0.375,-502.5,-420.0,0.0,0.25,4.57763625,3.0316872062785585,0.0,0.6899999976158142,-1.7000000476837158,-33.779998779296875,0.039794921875,0.01202392578125,1.1021728515625,36.0099983215332,0.0,61.0,4.7573699951171875,-0.7753753662109375,Opening,0.0,0.0,3.0,0.0,0.0,0.0,0.0,0.0,
4.267309000000001,0.0,0.0,18326.0,0.0,375.0,420.0,0.0,0.125,1.365966657,0.5498168668524888,-0.019531248000000057,-27721.0,0.0,-435.0,-420.0,0.0,0.25,2.508544665,1.9285545897722227,-0.05737304099999996,-4120.0,25.75,307.5,420.0,0.0,0.0,2.755126671,4.389674732977289,0.0012207029999995456,-33838.0,0.375,-510.0,-420.0,0.0,0.25,4.586181171000001,3.0316872062785585,0.0,0.7099999785423279,-1.600000023841858,-35.220001220703125,-0.04302978515625,-0.0074462890625,1.02911376953125,36.0099983215332,0.0,0.0,4.75823974609375,-0.775299072265625,Opening,0.0,0.0,3.0,0.0,0.0,0.0,0.0,0.0,
4.298858,0.0,0.0,18326.0,0.125,382.5,420.0,0.0,0.125,1.36718736,0.5498168668524888,0.0,-27721.0,0.0,-442.5,-420.0,0.0,0.25,2.4890134170000002,1.9285545897722227,-0.02075195100000027,-4120.0,25.375,292.5,420.0,0.0,0.0,2.753905968,4.389674732977289,0.0,-33921.0,0.375,-517.5,-420.0,0.0,0.25,4.6057124190000005,3.0316872062785585,0.014648436000000764,0.7200000286102295,-1.4600000381469727,-38.189998626708984,7.32421875E-4,0.1146240234375,1.01361083984375,36.0099983215332,0.0,-41.0,4.75830078125,-0.7747039794921875,Opening,0.0,0.0,3.0,0.0,0.0,0.0,0.0,0.0,
4.347370000000002,0.0,0.0,18392.0,0.125,405.0,420.0,0.0,0.125,1.3684080630000002,0.5498168668524888,0.0,-27794.0,0.0,-457.5,-420.0,0.0,0.25,2.463378654,1.9285545897722227,-0.02075195100000027,-4120.0,26.25,240.0,420.0,0.0,0.0,2.7502438590000002,4.389674732977289,0.0012207030000004337,-33921.0,0.375,-525.0,-420.0,0.0,0.25,4.609374528,3.0316872062785585,0.014648435999999876,0.7900000214576721,-1.4199999570846558,-39.7599983215332,0.08221435546875,0.02862548828125,0.98486328125,36.0099983215332,0.0,72.0,4.7584381103515625,-0.7740020751953125,Opening,0.0,0.0,3.0,0.0,0.0,0.0,0.0,0.0,
4.389913999999997,0.0,0.0,18392.0,0.0,427.5,420.0,0.0,0.125,1.36718736,0.5498168668524888,0.0,-27794.0,0.0,-472.5,-420.0,0.0,0.25,2.443847406,1.9285545897722227,-0.028076168999999762,-4079.0,27.875,315.0,420.0,0.0,0.0,2.753905968,4.389674732977289,0.0024414059999999793,-33921.0,0.125,-532.5,-420.0,0.0,0.25,4.620360855,3.0316872062785585,0.004882811999999959,0.8399999737739563,-1.2400000095367432,-42.209999084472656,0.01458740234375,-0.02587890625,1.1038818359375,36.0099983215332,0.0,56.0,4.7592620849609375,-0.772613525390625,Opening,0.0,0.0,3.0,0.0,0.0,0.0,0.0,0.0,
4.430529000000003,0.0,0.0,18392.0,0.0,450.0,420.0,0.0,0.125,1.36718736,0.5498168668524888,0.0,-27794.0,0.0,-487.5,-420.0,0.0,0.25,2.438964594,1.9285545897722227,-0.01464843600000032,-4079.0,26.625,412.5,420.0,0.0,0.0,2.755126671,4.389674732977289,0.0024414059999999793,-34010.0,0.125,-540.0,-420.0,0.0,0.25,4.621581558,3.0316872062785585,0.004882811999999959,0.7699999809265137,-1.149999976158142,-43.959999084472656,0.01458740234375,-0.00982666015625,1.035400390625,36.0099983215332,0.0,41.0,4.760223388671875,-0.77178955078125,Opening,0.0,0.0,3.0,0.0,0.0,0.0,0.0,0.0,
4.463216,0.0,0.0,18476.0,0.0,495.0,420.0,0.0,0.125,1.365966657,0.5498168668524888,0.0,-27874.0,0.0,-495.0,-420.0,0.0,0.25,2.440185297,1.9285545897722227,-0.023193356999999803,-4079.0,23.375,592.5,420.0,0.0,0.0,2.752685265,4.389674732977289,-0.0024414059999999793,-34010.0,0.125,-562.5,-420.0,0.0,0.25,4.627685073,3.0316872062785585,0.009765623999999917,0.8500000238418579,-1.0399999618530273,-46.689998626708984,-0.013671875,0.0333251953125,1.00018310546875,36.0099983215332,0.0,-10.0,4.761749267578125,-0.7701873779296875,Opening,0.0,0.0,3.0,0.0,0.0,0.0,0.0,0.0,
4.497298999999999,0.0,0.0,18476.0,0.125,540.0,420.0,0.0,0.125,1.36718736,0.5498168668524888,0.0012207029999999897,-27874.0,0.0,-517.5,-420.0,0.0,0.0,2.415771237,1.9285545897722227,-0.0012207029999999897,-3967.0,18.875,690.0,420.0,0.0,0.0,2.752685265,4.389674732977289,0.0024414059999999793,-34010.0,0.125,-592.5,-420.0,0.0,0.25,4.627685073,3.0316872062785585,0.003662108999999525,0.8999999761581421,-0.9300000071525574,-49.5099983215332,-0.0830078125,-0.05389404296875,0.83026123046875,36.0,0.0,5.0,4.761749267578125,-0.7682952880859375,Opening,0.0,0.0,3.0,0.0,0.0,0.0,0.0,0.0,
4.5505889999999996,0.0,0.0,18476.0,0.125,562.5,420.0,0.0,0.125,1.36718736,0.5498168668524888,0.0,-27874.0,0.0,-525.0,-420.0,0.0,0.0,2.41699194,1.9285545897722227,-0.0012207029999999897,-3967.0,16.125,712.5,420.0,0.0,0.0,2.753905968,4.389674732977289,0.0,-34107.0,0.125,-600.0,-420.0,0.0,0.25,4.625243667,3.0316872062785585,0.0012207030000004337,0.8999999761581421,-0.8500000238418579,-52.380001068115234,-0.085693359375,0.07501220703125,1.07965087890625,36.0,0.0,-88.0,4.7616424560546875,-0.76727294921875,Opening,0.0,0.0,3.0,0.0,0.0,0.0,0.0,0.0,
4.599798999999999,0.0,0.0,18565.0,0.125,540.0,420.0,0.0,0.125,1.36718736,0.5498168668524888,0.0024414060000002014,-27961.0,0.0,-555.0,-420.0,0.0,0.125,2.3767087410000003,1.9285545897722227,-0.023193357000000248,-3855.0,14.625,712.5,420.0,0.0,0.0,2.755126671,4.389674732977289,0.0,-34107.0,0.125,-607.5,-420.0,0.0,0.25,4.625243667,3.0316872062785585,0.0,0.9300000071525574,-0.8199999928474426,-55.150001525878906,-0.08758544921875,-0.00933837890625,1.11517333984375,36.0,0.0,-18.0,4.76123046875,-0.7669219970703125,Opening,0.0,0.0,3.0,0.0,0.0,0.0,0.0,0.0,
4.633663,0.0,0.0,18565.0,0.125,540.0,420.0,0.0,0.125,1.36718736,0.5498168668524888,0.0024414060000002014,-27961.0,0.0,-562.5,-420.0,0.0,0.25,2.3767087410000003,1.9285545897722227,-0.009765623999999917,-3855.0,14.0,697.5,420.0,0.0,0.0,2.755126671,4.389674732977289,0.0,-34107.0,0.125,-592.5,-420.0,0.0,0.25,4.624022964,3.0316872062785585,0.0,0.9300000071525574,-0.7699999809265137,-57.849998474121094,0.01434326171875,-0.001708984375,1.0316162109375,36.0,0.0,30.0,4.761016845703125,-0.7667694091796875,Opening,0.0,0.0,3.0,0.0,0.0,0.0,0.0,0.0,
4.686023000000001,0.0,0.0,18565.0,0.125,532.5,420.0,0.0,0.125,1.365966657,0.5498168668524888,-0.0024414060000002014,-28051.0,0.0,-562.5,-420.0,0.0,0.25,2.3754880380000003,1.9285545897722227,-0.029296871999999752,-3855.0,13.375,667.5,420.0,0.0,0.0,2.753905968,4.389674732977289,0.0,-34200.0,0.125,-585.0,-420.0,0.0,0.25,4.625243667,3.0316872062785585,0.0,0.9599999785423279,-0.6899999976158142,-59.61000061035156,-0.0577392578125,-0.06451416015625,0.9501953125,36.0,0.0,45.0,4.761077880859375,-0.766815185546875,Opening,0.0,0.0,3.0,0.0,0.0,0.0,0.0,0.0,
4.7241370000000025,0.0,0.0,18651.0,0.125,532.5,420.0,0.0,0.125,1.36718736,0.5498168668524888,-0.0012207029999999897,-28051.0,0.0,-540.0,-420.0,0.0,0.25,2.3718259290000003,1.9285545897722227,0.0,-3762.0,13.25,622.5,420.0,0.0,0.0,2.753905968,4.389674732977289,0.0,-34200.0,0.125,-562.5,-420.0,0.0,0.25,4.625243667,3.0316872062785585,0.0,0.9800000190734863,-0.6100000143051147,-62.189998626708984,-0.015869140625,-0.0458984375,1.11468505859375,36.0,0.0,-22.0,4.7617034912109375,-0.7674560546875,Opening,0.0,0.0,3.0,0.0,0.0,0.0,0.0,0.0,
4.762851000000002,0.0,0.0,18651.0,0.125,532.5,420.0,0.0,0.125,1.36718736,0.5498168668524888,0.0,-28051.0,0.0,-525.0,-420.0,0.0,0.25,2.3718259290000003,1.9285545897722227,-0.006103514999999948,-3762.0,13.375,547.5,420.0,0.0,0.0,2.753905968,4.389674732977289,0.0,-34200.0,0.125,-540.0,-420.0,0.0,0.25,4.62646437,3.0316872062785585,0.0,0.9200000166893005,-0.5400000214576721,-64.7300033569336,-0.0352783203125,-0.0467529296875,1.05157470703125,36.0,0.0,46.0,4.76239013671875,-0.768157958984375,Opening,0.0,0.0,3.0,0.0,0.0,0.0,0.0,0.0,
4.807601000000003,0.0,0.0,18651.0,0.375,517.5,420.0,0.0,0.125,1.36718736,0.5498168668524888,0.0,-28132.0,0.0,-502.5,-420.0,0.0,0.25,2.386474365,1.9285545897722227,0.006103514999999948,-3762.0,14.5,465.0,420.0,0.0,0.0,2.755126671,4.389674732977289,0.0,-34284.0,0.125,-525.0,-420.0,0.0,0.25,4.62646437,3.0316872062785585,0.0,0.949999988079071,-0.550000011920929,-67.18000030517578,-0.02740478515625,-0.03289794921875,0.96826171875,36.0,0.0,38.0,4.7637786865234375,-0.7695465087890625,Opening,0.0,0.0,3.0,0.0,0.0,0.0,0.0,0.0,
4.845610999999997,0.0,0.0,18733.0,0.375,510.0,0.0,0.0,0.125,1.3720701720000001,0.01,0.0,-28132.0,0.0,-495.0,-0.0,0.0,0.25,2.391357177,0.01,0.006103514999999948,-3689.0,14.5,442.5,0.0,0.0,0.0,2.755126671,0.01,0.0,-34284.0,0.125,-510.0,-0.0,0.0,0.25,4.632567885,0.01,-0.0012207030000004337,0.9200000166893005,-0.5,-68.79000091552734,0.00335693359375,-0.0572509765625,1.08721923828125,36.0,0.0,74.0,4.7648468017578125,-0.7705535888671875,Opening,0.0,0.0,3.0,0.0,0.0,0.0,0.0,0.0,
4.885188999999999,0.0,0.0,18733.0,1.875,487.5,0.0,0.0,1.5,1.304931507,0.01,0.0,-28132.0,0.75,-465.0,-0.0,0.0,6.875,2.386474365,0.01,0.010986326999999907,-3689.0,10.25,472.5,0.0,0.0,2.25,2.836913772,0.01,0.0,-34284.0,0.75,-487.5,-0.0,0.0,6.875,4.835204583,0.01,-0.0012207030000004337,0.9200000166893005,-0.4699999988079071,-70.37000274658203,0.0196533203125,0.0174560546875,1.0281982421875,36.0,0.0,8.0,4.7660369873046875,-0.7715301513671875,Opening,0.0,0.0,3.0,0.0,0.0,0.0,0.0,0.0,
4.921298999999999,0.0,0.0,18733.0,2.75,450.0,0.0,0.0,2.0,1.143798711,0.01,-0.08544920999999994,-28187.0,1.75,-397.5,-0.0,0.0,9.125,2.188720479,0.01,-0.0012207029999999897,-3689.0,7.5,472.5,0.0,0.0,2.0,3.0114743010000002,0.01,0.08789061600000014,-34357.0,1.0,-450.0,-0.0,0.0,3.375,0.18310545,0.01,0.209960916,0.9399999976158142,-0.3799999952316284,-72.2300033569336,-0.0439453125,0.07666015625,1.03399658203125,36.0,0.0,-68.0,4.7677459716796875,-0.77264404296875,Opening,0.0,0.0,3.0,0.0,0.0,0.0,0.0,0.0,
