Time,ClimberA1,ClimberA2,FRpos,FRCurrent,FRspeed,FRsetpoint,FRApos,FRACurrent,FREncpos,FREncSetpoint,FREncSpeed,FLpos,FLCurrent,FLspeed,FLsetpoint,FLApos,FLACurrent,FLEncpos,FLEncSetpoint,FLEncSpeed,BRpos,BRCurrent,BRspeed,BRsetpoint,BRApos,BRACurrent,BREncpos,BREncSetpoint,BREncSpeed,BLpos,BLCurrent,BLspeed,BLsetpoint,BLApos,BLACurrent,BLEncpos,BLEncSetpoint,BLEncSpeed,navx_Pitch,navx_Roll,navx_Yaw,navx_XAcc,navx_YAcc,navx_ZAcc,navx_Temp,navx_Bar,navx_Alt,navx_XDis,navx_YDis,GearPlacerState,ShootOutputV,ShootOutputCurrent,ShootEncPos,ShootEncVelocity,ShootSpeed,ShootSetpoint,CarouselSetpoint,CarouselCurrent,
0.15976199999998789,0.0,0.0,90718.0,0.0,0.0,0.0,0.0,0.25,0.811767495,0.01,0.0,-162490.0,0.125,0.0,0.0,0.0,0.125,0.527343696,0.01,0.0,19795.0,0.0,0.0,0.0,0.0,0.0,3.333739893,0.01,0.0,-34431.0,0.125,0.0,0.0,0.0,0.25,1.646728347,0.01,0.0,-0.10999999940395355,-0.47999998927116394,140.72999572753906,-0.01043701171875,-7.9345703125E-4,1.01873779296875,36.459999084472656,0.0,2.0,0.5233001708984375,-2.2228240966796875,Closing,0.0,0.0,3.0,0.0,0.0,0.0,0.0,0.125,
0.26879200000001585,0.0,0.0,90741.0,9.125,165.0,1470.0,0.0,0.125,0.7885741380000001,0.01,0.0,-162490.0,11.375,-195.0,-1470.0,0.0,0.125,0.531005805,0.01,0.0,19797.0,12.0,22.5,1470.0,0.0,0.0,3.334960596,0.01,0.0,-34431.0,11.5,-157.5,-1470.0,0.0,0.25,1.6564939710000002,0.01,0.0,0.0,0.4000000059604645,140.72999572753906,0.44696044921875,-0.0845947265625,0.73211669921875,36.459999084472656,0.0,-395.0,0.5213165283203125,-2.2269744873046875,Closing,0.0,0.0,3.0,0.0,0.0,0.0,0.0,0.0,
0.3745690000000177,0.0,0.0,90799.0,12.5,367.5,1470.0,0.0,0.25,0.783691326,0.01,0.0,-162551.0,15.0,-412.5,-1470.0,0.0,0.125,0.527343696,0.01,0.0,19824.0,18.5,217.5,1470.0,0.0,0.0,3.334960596,0.01,0.0,-34470.0,14.0,-375.0,-1470.0,0.0,0.25,1.6589353770000002,0.01,0.0,0.0,1.4900000095367432,140.75999450683594,0.32049560546875,0.0447998046875,1.14630126953125,36.459999084472656,0.0,-196.0,0.506744384765625,-2.245147705078125,Closing,0.0,0.0,3.0,0.0,0.0,0.0,0.0,0.0,
0.48483600000001026,0.0,0.0,90931.0,11.875,780.0,1470.0,0.0,0.25,0.783691326,0.01,0.0,-162665.0,14.875,-817.5,-1470.0,0.0,0.125,0.527343696,0.01,0.0,19916.0,18.25,570.0,1470.0,0.0,0.0,3.333739893,0.01,0.0,-34562.0,13.125,-757.5,-1470.0,0.0,0.25,1.6577146740000002,0.01,0.0,-0.03999999910593033,2.609999895095825,140.75,0.219970703125,0.02581787109375,0.89312744140625,36.459999084472656,0.0,-121.0,0.47802734375,-2.27423095703125,Closing,0.0,0.0,3.0,0.0,0.0,0.0,0.0,0.125,
0.5889770000000135,0.0,0.0,91126.0,9.375,1110.0,1470.0,0.0,0.25,0.782470623,0.01,0.0,-162847.0,11.125,-1162.5,-1470.0,0.0,0.125,0.5566405680000001,0.01,0.0,20025.0,21.5,660.0,1470.0,0.0,0.0,3.343505517,0.01,0.0,-34723.0,10.25,-1102.5,-1470.0,0.0,0.25,1.6577146740000002,0.01,0.0,-0.07999999821186066,3.5,140.7899932861328,0.0963134765625,0.216796875,0.951904296875,36.470001220703125,0.0,108.0,0.433929443359375,-2.316253662109375,Closing,0.0,0.0,3.0,0.0,0.0,0.0,0.0,0.0,
0.6962590000000201,0.0,0.0,91126.0,6.625,1365.0,1470.0,0.0,0.25,0.782470623,0.01,0.0,-163068.0,7.375,-1410.0,-1470.0,0.0,0.25,0.565185489,0.01,0.0,20156.0,24.875,787.5,1470.0,0.0,0.0,3.337402002,0.01,0.0,-34929.0,8.375,-1327.5,-1470.0,0.0,0.25,1.6589353770000002,0.01,0.0,0.15000000596046448,3.9700000286102295,140.38999938964844,0.2210693359375,0.08428955078125,1.18792724609375,36.470001220703125,0.0,-54.0,0.396514892578125,-2.358306884765625,Closing,0.0,0.0,3.0,0.0,0.0,0.0,0.0,0.125,
0.8112540000000154,0.0,0.0,91360.0,4.25,1597.5,1470.0,0.0,0.125,0.782470623,4.9263598005413485,0.0,-163313.0,5.0,-1530.0,-1470.0,0.0,0.25,0.571289004,4.957841153488159,0.0,20306.0,29.75,877.5,1470.0,0.0,0.0,3.333739893,4.934499067179362,0.0,-35168.0,5.625,-1515.0,-1470.0,0.0,0.25,1.646728347,4.952078045315212,0.0,0.0,4.139999866485596,139.47999572753906,0.26763916015625,0.115966796875,0.91693115234375,36.470001220703125,0.0,-77.0,0.3541412353515625,-2.4115753173828125,Closing,0.0,0.0,3.0,0.0,0.0,0.0,0.0,0.0,
0.9227339999999967,0.0,0.0,91622.0,1.25,1725.0,1470.0,0.0,0.25,0.783691326,4.915125128472223,0.0,-163573.0,3.0,-1612.5,-1470.0,0.0,0.25,0.527343696,4.9465346875,0.0,20306.0,29.0,1185.0,1470.0,0.0,0.0,3.3251949720000002,4.9232458333333335,0.0,-35420.0,4.5,-1590.0,-1470.0,0.0,0.25,1.6284178020000002,4.940784722222222,0.0,0.44999998807907104,4.349999904632568,138.3800048828125,0.1998291015625,0.09173583984375,0.96343994140625,36.470001220703125,0.0,-38.0,0.3177947998046875,-2.4666900634765625,Closing,0.0,0.0,3.0,0.0,0.0,0.0,0.0,0.125,
1.0278449999999721,0.0,0.0,91909.0,0.5,1785.0,1470.0,0.0,0.25,0.783691326,4.900054486961407,0.0,-163841.0,1.625,-1665.0,-1470.0,0.0,0.25,0.4882812,4.931367738735199,0.0,20508.0,27.125,1365.0,1470.0,0.0,0.125,3.3264156750000002,4.908150292307536,0.0,-35693.0,2.25,-1695.0,-1470.0,0.0,0.25,1.6015623360000002,4.925635403866238,0.0,0.8500000238418579,4.46999979019165,137.25999450683594,0.09478759765625,-0.08575439453125,0.92083740234375,36.310001373291016,0.0,-84.0,0.28485107421875,-2.5299224853515625,Closing,0.0,0.0,3.0,0.0,0.0,0.0,0.0,0.125,
1.130353999999992,0.0,0.0,92193.0,0.375,1807.5,1470.0,0.0,0.25,0.786132732,4.884709563914405,0.0,-163841.0,1.125,-1672.5,-1470.0,0.0,0.125,0.468749952,4.91592475566864,0.0,20743.0,23.375,1620.0,1470.0,0.0,0.125,3.334960596,4.892780016581217,0.0,-35975.0,1.0,-1755.0,-1470.0,0.0,0.25,1.5844724940000001,4.910210372077094,0.0,0.11999999731779099,3.7699999809265137,136.42999267578125,0.00335693359375,0.0455322265625,1.1402587890625,36.310001373291016,0.0,81.0,0.2525177001953125,-2.5882415771484375,Closing,0.0,0.0,3.0,0.0,0.0,0.0,0.0,0.0,
1.2312719999999973,0.0,0.0,92498.0,0.125,1905.0,1470.0,0.0,0.375,0.7910155440000001,4.8733379601332345,0.0,-164109.0,0.25,-1740.0,-1470.0,0.0,0.125,0.435790971,4.9044804829216,0.0,21032.0,16.875,1845.0,1470.0,0.0,0.125,3.3251949720000002,4.881389624786377,0.0,-35975.0,0.75,-1740.0,-1470.0,0.0,0.25,1.5563963250000001,4.898779402414958,0.0,0.3700000047683716,3.7799999713897705,135.75,0.07086181640625,0.2054443359375,0.93304443359375,36.310001373291016,0.0,132.0,0.22686767578125,-2.6341552734375,Closing,0.0,0.0,3.0,0.0,0.0,0.0,0.0,0.0,
1.331642999999982,0.0,0.0,92793.0,0.0,1852.5,1470.0,0.0,0.25,0.787353435,4.864021586369027,0.0,-164393.0,0.0,-1755.0,-1470.0,0.0,0.0,0.430908159,4.89510457390976,0.0,21344.0,12.75,1942.5,1470.0,0.0,0.125,3.303222318,4.872057858632406,0.0,-36245.0,0.625,-1702.5,-1470.0,0.0,0.125,1.5270994530000002,4.889414392174615,0.0,0.8999999761581421,3.4700000286102295,135.02999877929688,-0.2083740234375,0.0943603515625,1.28515625,36.310001373291016,0.0,254.0,0.20428466796875,-2.691497802734375,Closing,0.0,0.0,3.0,0.0,0.0,0.0,0.0,0.0,
1.4341070000000182,0.0,0.0,93079.0,0.0,1807.5,1469.9999999999998,0.0,0.25,0.773925702,4.854157067644543,0.0,-164668.0,0.0,-1680.0,-1469.9999999999998,0.0,0.0,0.429687456,4.8851770170784,0.0,21659.0,8.875,1980.0,1469.9999999999998,0.0,0.125,3.2958981,4.86217704188029,0.0,-36524.0,0.375,-1710.0,-1469.9999999999998,0.0,0.125,1.5270994530000002,4.87949837536282,0.0,0.8600000143051147,3.109999895095825,134.19000244140625,-0.0621337890625,-0.0040283203125,1.14678955078125,36.310001373291016,0.0,71.0,0.192962646484375,-2.73944091796875,Closing,0.0,0.0,3.0,0.0,0.0,0.0,0.0,0.0,
1.5409269999999669,0.0,0.0,93079.0,0.0,1710.0,1469.9999999999998,0.0,0.25,0.745849533,4.840867374614504,0.0,-164926.0,0.0,-1612.5,-1469.9999999999998,0.0,0.125,0.430908159,4.8718023977470395,0.0,21952.0,7.75,1852.5,1469.9999999999998,0.0,0.125,3.294677397,4.848865391794841,0.0,-36787.0,0.375,-1627.5,-1469.9999999999998,0.0,0.125,1.5270994530000002,4.86613930299547,0.0,0.6800000071525574,2.6500000953674316,133.33999633789062,-0.0997314453125,0.1082763671875,0.98040771484375,36.310001373291016,0.0,169.0,0.1845550537109375,-2.78912353515625,Closing,0.0,0.0,3.0,0.0,0.0,0.0,0.0,0.0,
1.6460800000000162,0.0,0.0,93348.0,7.625,1530.0,0.0,0.0,0.375,0.754394454,0.01,0.0,-165138.0,6.375,-1305.0,-0.0,0.0,0.25,0.430908159,0.01,0.0,22167.0,0.125,1500.0,0.0,0.0,0.0,3.3154293480000003,0.01,0.0,-37016.0,2.375,-1402.5,-0.0,0.0,0.375,1.5551756220000001,0.01,0.0,0.7099999785423279,0.9200000166893005,132.33999633789062,-0.3515625,0.1494140625,0.838134765625,36.25,0.0,348.0,0.18524169921875,-2.835296630859375,Closing,0.0,0.0,3.0,0.0,0.0,0.0,0.0,0.125,
1.7520819999999948,0.0,0.0,93544.0,9.5,975.0,0.0,0.0,0.25,0.7775878110000001,0.01,0.0,-165262.0,6.75,-915.0,-0.0,0.0,0.25,0.430908159,0.01,0.0,22167.0,0.125,1095.0,0.0,0.0,0.0,3.334960596,0.01,0.0,-37150.0,2.875,-885.0,-0.0,0.0,0.25,1.597900227,0.01,0.0,1.0700000524520874,-0.8600000143051147,131.92999267578125,-0.48858642578125,0.07220458984375,1.23968505859375,36.25,0.0,350.0,0.2053375244140625,-2.853118896484375,Closing,0.0,0.0,3.0,0.0,0.0,0.0,0.0,0.0,
1.853113000000012,0.0,0.0,93637.0,6.375,457.5,0.0,0.0,0.25,0.826415931,0.01,0.0,-165262.0,5.125,-480.0,-0.0,0.0,0.25,0.429687456,0.01,0.0,22311.0,0.125,660.0,0.0,0.0,0.0,3.341064111,0.01,0.0,-37206.0,1.875,-442.5,-0.0,0.0,0.25,1.613769366,0.01,0.0,1.100000023841858,-2.490000009536743,131.9499969482422,-0.28717041015625,-0.02459716796875,1.0616455078125,36.25,0.0,127.0,0.24810791015625,-2.8575592041015625,Closing,0.0,0.0,3.0,0.0,0.0,0.0,0.0,0.0,
1.9537569999999833,0.0,0.0,93659.0,3.5,90.0,0.0,0.0,0.25,0.808105386,0.01,0.0,-165310.0,2.375,-105.0,-0.0,0.0,0.25,0.46386714,0.01,0.0,22352.0,0.375,157.5,0.0,0.0,0.0,3.338622705,0.01,0.0,-37206.0,0.875,-67.5,-0.0,0.0,0.125,1.613769366,0.01,0.0,1.0,-3.309999942779541,131.91000366210938,-0.07696533203125,-0.00408935546875,0.93438720703125,36.25,0.0,0.0,0.3021392822265625,-2.8486328125,Closing,0.0,0.0,3.0,0.0,0.0,0.0,0.0,0.125,
2.055822999999975,0.0,0.0,93646.0,2.25,-75.0,0.0,0.0,0.25,0.8178710100000001,0.01,0.0,-165306.0,0.875,60.0,-0.0,0.0,0.25,0.505371042,0.01,0.0,22365.0,0.875,67.5,0.0,0.0,0.0,3.338622705,0.01,0.0,-37206.0,0.5,15.0,-0.0,0.0,0.125,1.6040037420000002,0.01,0.0,0.8999999761581421,-3.109999895095825,131.97999572753906,0.0225830078125,0.0166015625,1.0887451171875,36.189998626708984,0.0,-55.0,0.357513427734375,-2.837127685546875,Closing,0.0,0.0,3.0,0.0,0.0,0.0,0.0,0.125,
2.172092000000004,0.0,0.0,93636.0,2.0,-67.5,0.0,0.0,0.25,0.8166503070000001,0.01,0.0,-165295.0,0.625,60.0,-0.0,0.0,0.25,0.49316401200000004,0.01,0.0,22361.0,1.125,-22.5,0.0,0.0,0.0,3.338622705,0.01,0.0,-37206.0,0.5,0.0,-0.0,0.0,0.125,1.613769366,0.01,0.0,0.8500000238418579,-2.7100000381469727,131.99000549316406,-0.01300048828125,0.00616455078125,1.08465576171875,36.189998626708984,0.0,-33.0,0.415771484375,-2.8271636962890625,Closing,0.0,0.0,3.0,0.0,0.0,0.0,0.0,0.0,
2.2732760000000125,0.0,0.0,93636.0,0.125,-7.5,525.0,0.0,5.625,0.640869075,3.015942366852486,0.0,-165291.0,0.125,15.0,-525.0,0.0,1.75,0.46386714,4.41043958977222,0.008544920999999484,22358.0,4.625,-15.0,525.0,0.0,5.875,3.5803218990000003,1.9194747329772914,0.0,-37206.0,0.375,-7.5,-525.0,0.0,2.375,1.7651365380000001,0.552687206278561,0.0,0.800000011920929,-2.319999933242798,131.97000122070312,0.07257080078125,0.01251220703125,1.076904296875,36.189998626708984,0.0,-79.0,0.4558563232421875,-2.8226470947265625,Closing,0.0,0.0,3.0,0.0,0.0,0.0,0.0,0.0,
2.3730480000000096,0.0,0.0,93641.0,0.125,127.5,525.0,0.0,1.875,4.8181147410000005,3.015942366852486,-0.2807616900000003,-165308.0,0.25,-97.5,-525.0,0.0,0.5,0.062255853,4.41043958977222,0.0,22358.0,6.75,0.0,525.0,0.0,2.0,4.333495650000001,1.9194747329772914,0.0,-37217.0,0.625,-75.0,-525.0,0.0,0.75,2.1667478250000003,0.552687206278561,0.0,0.75,-2.0899999141693115,131.9499969482422,-0.04339599609375,0.029541015625,1.0115966796875,36.189998626708984,0.0,16.0,0.498779296875,-2.821197509765625,Closing,0.0,0.0,3.0,0.0,0.0,0.0,0.0,0.125,
2.474649999999965,0.0,0.0,93662.0,0.125,105.0,525.0,0.0,1.875,4.08935505,3.015942366852486,0.0,-165327.0,1.125,-135.0,-525.0,0.0,0.5,4.771728027,4.41043958977222,0.0,22358.0,10.75,30.0,525.0,0.0,2.125,0.06958007100000001,1.9194747329772914,0.0,-37243.0,1.0,-165.0,-525.0,0.0,0.25,2.412109128,0.552687206278561,0.0,0.8299999833106995,-1.9600000381469727,132.82000732421875,-0.0040283203125,0.0657958984375,1.02825927734375,36.189998626708984,0.0,16.0,0.540740966796875,-2.82110595703125,Closing,0.0,0.0,3.0,0.0,0.0,0.0,0.0,0.125,
2.5793310000000056,0.0,0.0,93682.0,0.375,157.5,525.0,0.0,0.625,3.5717769780000004,3.015942366852486,0.0,-165327.0,4.25,-15.0,-525.0,0.0,0.25,4.799804196,4.41043958977222,0.0,22367.0,12.0,75.0,525.0,0.0,0.375,0.552978459,1.9194747329772914,0.0,-37280.0,1.25,-232.5,-525.0,0.0,0.5,2.441406,0.552687206278561,0.0,0.5199999809265137,-2.5299999713897705,134.57000732421875,-0.12078857421875,-0.139892578125,0.983642578125,36.18000030517578,0.0,-51.0,0.5718841552734375,-2.8185577392578125,Closing,0.0,0.0,3.0,0.0,0.0,0.0,0.0,0.0,
2.684451000000001,0.0,0.0,93733.0,0.125,330.0,525.0,0.0,0.875,3.5363765910000002,3.015942366852486,0.0,-165333.0,2.875,-330.0,-525.0,0.0,0.25,4.838866692,4.41043958977222,0.0,22388.0,12.125,195.0,525.0,0.0,0.5,0.589599549,1.9194747329772914,0.0,-37280.0,2.375,-187.5,-525.0,0.0,0.5,2.261962659,0.552687206278561,0.0,0.30000001192092896,-2.509999990463257,137.91000366210938,0.019775390625,0.0091552734375,1.06915283203125,36.18000030517578,0.0,-47.0,0.570770263671875,-2.8090667724609375,Closing,0.0,0.0,3.0,0.0,0.0,0.0,0.0,0.0,
2.78711599999998,0.0,0.0,93806.0,0.375,457.5,525.0,0.0,0.5,3.712157823,3.015942366852486,0.0,-165394.0,2.75,-277.5,-525.0,0.0,0.25,4.848632316000001,4.41043958977222,0.0,22436.0,11.625,315.0,525.0,0.0,0.25,0.418701129,1.9194747329772914,0.0,-37314.0,3.0,-270.0,-525.0,0.0,0.25,2.141113062,0.552687206278561,0.0,0.23999999463558197,-2.2300000190734863,142.16000366210938,0.08221435546875,-0.1177978515625,0.94683837890625,36.18000030517578,0.0,-168.0,0.569610595703125,-2.8033447265625,Closing,0.0,0.0,3.0,0.0,0.0,0.0,0.0,0.125,
2.8915470000000205,0.0,0.0,93886.0,0.375,495.0,525.0,0.0,0.375,3.853759371,3.015942366852486,0.0,-165452.0,2.625,-435.0,-525.0,0.0,0.25,4.892577624,4.41043958977222,0.0,22492.0,13.0,367.5,525.0,0.0,0.125,0.308837859,1.9194747329772914,0.0,-37364.0,2.5,-405.0,-525.0,0.0,0.25,2.132568141,0.552687206278561,0.0,-0.07000000029802322,-1.9700000286102295,147.4199981689453,0.08233642578125,-0.02691650390625,0.94586181640625,36.18000030517578,0.0,-110.0,0.563201904296875,-2.8002471923828125,Closing,0.0,0.0,3.0,0.0,0.0,0.0,0.0,0.125,
2.997935999999987,0.0,0.0,93979.0,0.375,570.0,525.0,0.0,0.25,3.8891597580000004,3.015942366852486,0.0,-165539.0,1.125,-570.0,-525.0,0.0,0.125,4.90722606,4.41043958977222,0.0,22571.0,12.25,495.0,525.0,0.0,0.0,0.29785153200000003,1.9194747329772914,0.0,-37446.0,1.375,-577.5,-525.0,0.0,0.25,2.137450953,0.552687206278561,0.0,-0.20999999344348907,-1.8300000429153442,153.77999877929688,0.03741455078125,0.010498046875,0.98358154296875,36.18000030517578,0.0,-55.0,0.5537109375,-2.801727294921875,Closing,0.0,0.0,3.0,0.0,0.0,0.0,0.0,0.0,
3.1034280000000143,0.0,0.0,93979.0,0.125,600.0,525.0,0.0,0.25,3.8818355400000004,3.015942366852486,0.0,-165639.0,0.625,-622.5,-525.0,0.0,0.125,4.908446763000001,4.41043958977222,0.0,22649.0,12.125,480.0,525.0,0.0,0.0,0.29663082900000004,1.9194747329772914,0.0,-37548.0,0.625,-667.5,-525.0,0.0,0.25,2.159423607,0.552687206278561,0.0,-0.38999998569488525,-1.7699999809265137,160.72999572753906,-0.0399169921875,0.0433349609375,1.09967041015625,36.18000030517578,0.0,22.0,0.5412750244140625,-2.802703857421875,Closing,0.0,0.0,3.0,0.0,0.0,0.0,0.0,0.0,
3.210646000000008,0.0,0.0,94076.0,0.125,637.5,525.0,0.0,0.25,3.862304292,3.015942366852486,0.0,-165743.0,0.25,-652.5,-525.0,0.0,0.125,4.908446763000001,4.41043958977222,0.0,22741.0,12.0,532.5,525.0,0.0,0.0,0.29663082900000004,1.9194747329772914,0.0,-37651.0,0.625,-630.0,-525.0,0.0,0.125,2.1704099340000003,0.552687206278561,0.0,-0.5199999809265137,-1.75,167.9600067138672,-0.0892333984375,-0.06939697265625,1.1322021484375,36.18000030517578,0.0,40.0,0.528472900390625,-2.8039398193359375,Closing,0.0,0.0,3.0,0.0,0.0,0.0,0.0,0.0,
3.3214980000000214,0.0,0.0,94182.0,0.0,675.0,525.0,0.0,0.25,3.85742148,3.015942366852486,-0.015869138999999866,-165838.0,0.25,-592.5,-525.0,0.0,0.125,4.908446763000001,4.41043958977222,0.0,22741.0,9.75,637.5,525.0,0.0,0.0,0.29663082900000004,1.9194747329772914,0.0,-37752.0,0.375,-630.0,-525.0,0.0,0.125,2.1704099340000003,0.552687206278561,0.0,-0.6600000262260437,-1.6399999856948853,175.50999450683594,-0.00164794921875,0.022705078125,1.13848876953125,36.18000030517578,0.0,-28.0,0.523101806640625,-2.805419921875,Closing,0.0,0.0,3.0,0.0,0.0,0.0,0.0,0.0,
3.426213999999978,0.0,0.0,94292.0,0.125,682.5,525.0,0.0,0.25,3.856200777,3.015942366852486,-0.003662108999999969,-165838.0,0.125,-637.5,-525.0,0.0,0.125,4.906005357000001,4.41043958977222,0.0,22846.0,8.5,667.5,525.0,0.0,0.0,0.29785153200000003,1.9194747329772914,0.0,-37864.0,0.375,-697.5,-525.0,0.0,0.125,2.1704099340000003,0.552687206278561,0.0,-0.7799999713897705,-1.5499999523162842,-176.88999938964844,-0.01348876953125,-0.03265380859375,0.85101318359375,36.18000030517578,0.0,-8.0,0.523284912109375,-2.8071441650390625,Closing,0.0,0.0,3.0,0.0,0.0,0.0,0.0,0.0,
3.5302609999999985,0.0,0.0,94389.0,2.5,555.0,0.0,0.0,5.375,4.036864821,0.01,0.0,-165945.0,0.25,-645.0,-0.0,0.0,2.625,0.11352537900000001,0.01,0.0,22953.0,2.5,637.5,0.0,0.0,6.0,0.042724605,0.01,0.0,-37959.0,0.375,-645.0,-0.0,0.0,2.25,1.9934079990000002,0.01,0.0,-0.75,-1.1799999475479126,-169.9499969482422,-0.06201171875,0.027587890625,0.8135986328125,36.18000030517578,0.0,37.0,0.5211639404296875,-2.80914306640625,Closing,0.0,0.0,3.0,0.0,0.0,0.0,0.0,0.0,
3.6319649999999672,0.0,0.0,94437.0,1.75,232.5,0.0,0.0,1.25,4.843749504,0.01,0.0,-166034.0,0.5,-412.5,-0.0,0.0,0.5,0.53710932,0.01,0.0,23038.0,2.625,442.5,0.0,0.0,0.25,4.3432612740000005,0.01,0.0,-37959.0,0.375,-352.5,-0.0,0.0,0.5,1.612548663,0.01,0.0,-0.5099999904632568,-0.8799999952316284,-166.50999450683594,-0.1356201171875,0.02008056640625,1.18304443359375,36.2400016784668,0.0,106.0,0.5137786865234375,-2.81353759765625,Closing,0.0,0.0,3.0,0.0,0.0,0.0,0.0,0.0,
3.7348939999999713,0.0,0.0,94429.0,0.375,-45.0,0.0,0.0,1.875,0.5944823610000001,0.01,0.0,-166072.0,0.125,-120.0,-0.0,0.0,0.25,0.7385253150000001,0.01,0.0,23059.0,4.0,97.5,0.0,0.0,3.25,3.7817378940000004,0.01,0.0,-37997.0,0.125,-60.0,-0.0,0.0,0.25,1.41601548,0.01,0.0,-0.5699999928474426,-1.2899999618530273,-166.3800048828125,-0.13519287109375,-0.0394287109375,1.154052734375,36.2400016784668,0.0,112.0,0.5074462890625,-2.8179473876953125,Closing,0.0,0.0,3.0,0.0,0.0,0.0,0.0,0.0,
3.8486720000000205,0.0,0.0,94418.0,0.125,-75.0,0.0,0.0,0.875,1.026611223,0.01,0.0,-166074.0,0.125,0.0,-0.0,0.0,0.25,0.651855402,0.01,0.0,23072.0,4.375,82.5,0.0,0.0,0.125,3.226318029,0.01,0.0,-37998.0,0.125,0.0,-0.0,0.0,0.375,1.511230314,0.01,0.0,-0.4699999988079071,-1.0399999618530273,-166.52999877929688,0.04510498046875,-0.019287109375,1.0233154296875,36.2400016784668,0.0,-59.0,0.50164794921875,-2.818328857421875,Closing,0.0,0.0,3.0,0.0,0.0,0.0,0.0,0.0,
3.9481989999999643,0.0,0.0,94418.0,0.125,0.0,8.4,0.0,0.5,0.96435537,4.930058838270993,0.0,-166074.0,0.125,0.0,-8.4,0.0,0.25,0.6091307970000001,4.961563829505921,0.0,23078.0,5.125,37.5,8.4,0.0,0.375,3.177489909,4.938204216410319,0.0,-37998.0,0.125,0.0,-8.4,0.0,0.375,1.594238118,4.95579639400906,0.0,-0.44999998807907104,-0.9300000071525574,-166.5500030517578,-0.01904296875,0.009521484375,1.04315185546875,36.2400016784668,0.0,-2.0,0.49591064453125,-2.8173370361328125,Closing,0.0,0.0,3.0,0.0,0.0,0.0,0.0,0.125,
4.050152999999991,0.0,0.0,94419.0,0.375,30.0,8.400000000000002,0.0,0.25,0.859374912,4.9297847657908545,0.0,-166074.0,0.0,0.0,-8.400000000000002,0.0,0.25,0.5419921320000001,4.961288005596161,0.0,23078.0,4.875,22.5,8.400000000000002,0.0,0.125,3.2568356040000004,4.937929691111247,0.0,-38000.0,0.125,-7.5,-8.400000000000002,0.0,0.25,1.618652178,4.955520890723334,0.0,-0.38999998569488525,-0.9300000071525574,-166.7100067138672,-0.02215576171875,-0.00482177734375,1.0047607421875,36.2400016784668,0.0,5.0,0.49591064453125,-2.8171844482421875,Closing,0.0,0.0,3.0,0.0,0.0,0.0,0.0,0.0,
4.1540839999999735,0.0,0.0,94424.0,0.625,7.5,0.0,0.0,0.25,0.8276366340000001,0.01,0.0,-166074.0,0.0,0.0,-0.0,0.0,0.125,0.522460884,0.01,0.0,23081.0,5.375,0.0,0.0,0.0,0.125,3.3142086450000003,0.01,0.0,-38000.0,0.125,0.0,-0.0,0.0,0.125,1.617431475,0.01,0.0,-0.36000001430511475,-0.9200000166893005,-166.67999267578125,-0.00225830078125,0.010498046875,1.02978515625,36.2599983215332,0.0,-17.0,0.49578857421875,-2.81732177734375,Closing,0.0,0.0,3.0,0.0,0.0,0.0,0.0,0.0,
4.333282999999996,0.0,0.0,94429.0,0.125,15.0,420.0,0.0,0.25,0.8312987430000001,0.01,0.0,-166075.0,0.375,-90.0,-420.0,0.0,0.0,0.5175780720000001,0.01,0.0,23083.0,10.625,7.5,420.0,0.0,0.125,3.343505517,0.01,0.0,-38000.0,0.625,-67.5,-420.0,0.0,0.125,1.617431475,0.01,0.0,-0.2800000011920929,-0.699999988079071,-166.74000549316406,0.0106201171875,0.0118408203125,1.0206298828125,36.2599983215332,0.0,-26.0,0.49481201171875,-2.8173675537109375,Closing,0.0,0.0,3.0,0.0,0.0,0.0,0.0,0.0,
4.470640000000014,0.0,0.0,94441.0,0.125,97.5,420.19691087185544,0.0,0.25,0.826415931,0.02403287237242459,0.0,-166104.0,1.125,-90.0,-420.19691087185544,0.0,0.125,0.5175780720000001,0.024186451763316588,0.0,23093.0,13.75,97.5,420.19691087185544,0.0,0.0,3.342284814,0.024072579166941513,0.0,-38039.0,1.25,-75.0,-420.19691087185544,0.0,0.25,1.617431475,0.024158336877519233,0.0,-0.2199999988079071,-0.3100000023841858,-166.8800048828125,0.054443359375,-0.00360107421875,1.0185546875,36.2599983215332,0.0,-58.0,0.4862518310546875,-2.8167572021484375,Closing,0.0,0.0,3.0,0.0,0.0,0.0,0.0,0.0,
4.661401000000013,0.0,0.0,94512.0,0.375,255.0,464.9170877442155,0.0,0.5,0.605468688,4.5843477222967755,0.0,-166155.0,2.25,-232.5,-464.9170877442155,0.0,0.5,0.269775363,4.613643485196731,0.0,23137.0,16.625,150.0,464.9170877442155,0.0,0.25,3.089599293,4.59192192109343,0.0,-38072.0,2.0,-240.0,-464.9170877442155,0.0,0.5,1.44042954,4.608280480281197,0.0,-0.23000000417232513,0.3199999928474426,-167.05999755859375,0.11236572265625,-0.0955810546875,0.9996337890625,36.310001373291016,0.0,-83.0,0.465423583984375,-2.8135223388671875,Closing,0.0,0.0,3.0,0.0,0.0,0.0,0.0,0.0,
4.868152000000002,0.0,0.0,94574.0,0.125,420.0,462.19571493713573,0.0,0.25,0.314941374,4.594215514558043,0.0,-166273.0,1.625,-435.0,-462.19571493713573,0.0,0.25,0.014648436,4.6235743364840465,0.0,23198.0,14.25,450.0,462.19571493713573,0.0,0.125,2.8466793960000003,4.601806016790823,0.0,-38186.0,1.375,-450.0,-462.19571493713573,0.0,0.125,1.015624896,4.618199787719395,0.0,-1.149999976158142,0.4399999976158142,-167.2100067138672,0.0673828125,-0.0072021484375,1.05511474609375,36.310001373291016,0.0,-60.0,0.4321136474609375,-2.789642333984375,Closing,0.0,0.0,3.0,0.0,0.0,0.0,0.0,0.0,
5.07119299999997,0.0,0.0,94740.0,0.375,570.0,464.9170877442155,0.0,0.375,0.429687456,4.5843477222967755,0.0,-166430.0,0.875,-487.5,-464.9170877442155,0.0,0.25,0.102539052,4.613643485196731,0.0,23364.0,10.5,517.5,464.9170877442155,0.0,0.125,2.968749696,4.59192192109343,0.0,-38358.0,0.625,-547.5,-464.9170877442155,0.0,0.375,1.1633299590000001,4.608280480281197,0.0,-1.0,0.6700000166893005,-168.8699951171875,0.01165771484375,0.14373779296875,1.0469970703125,36.310001373291016,0.0,-30.0,0.3943023681640625,-2.7527008056640625,Closing,0.0,0.0,3.0,0.0,0.0,0.0,0.0,0.0,
5.267792000000016,0.0,0.0,94921.0,0.25,555.0,473.5116565685052,0.0,0.25,0.490722606,4.555446036351969,0.0,-166515.0,0.375,-555.0,-473.5116565685052,0.0,0.125,0.20385740100000002,4.58455710625084,0.0,23556.0,8.75,607.5,473.5116565685052,0.0,0.125,3.017577816,4.562972484164587,0.0,-38446.0,0.625,-465.0,-473.5116565685052,0.0,0.25,1.463622897,4.579227912008749,0.0,-0.4099999964237213,0.699999988079071,-169.27000427246094,-0.03826904296875,-0.05126953125,1.02471923828125,36.310001373291016,0.0,58.0,0.353851318359375,-2.7331695556640625,Closing,0.0,0.0,3.0,0.0,0.0,0.0,0.0,0.0,
5.463088999999978,0.0,0.0,95095.0,0.125,532.5,462.19571493713573,0.0,0.25,0.490722606,4.594215514558043,0.0,-166686.0,0.25,-495.0,-462.19571493713573,0.0,0.25,0.19409177700000002,4.6235743364840465,0.0,23741.0,8.0,562.5,462.19571493713573,0.0,0.0,3.017577816,4.601806016790823,0.0,-38616.0,0.375,-562.5,-462.19571493713573,0.0,0.5,1.363525251,4.618199787719395,0.0,-0.38999998569488525,0.5,-168.6699981689453,-0.04656982421875,0.07159423828125,1.10845947265625,36.310001373291016,0.0,39.0,0.3217620849609375,-2.7302703857421875,Closing,0.0,0.0,3.0,0.0,0.0,0.0,0.0,0.0,
5.662935999999987,0.0,0.0,95183.0,0.0,547.5,467.71106465423713,0.0,0.25,0.490722606,4.5745962991910165,0.0,-166854.0,0.25,-510.0,-467.71106465423713,0.0,0.25,0.16113279600000002,4.603829746709036,0.0,23832.0,6.625,577.5,467.71106465423713,0.0,0.125,3.017577816,4.5821543868151275,0.0,-38791.0,0.375,-532.5,-467.71106465423713,0.0,0.25,1.2133787820000002,4.598478149508016,0.0,-0.5199999809265137,0.25999999046325684,-168.92999267578125,-0.02587890625,0.017333984375,1.135009765625,36.2599983215332,0.0,25.0,0.29949951171875,-2.731658935546875,Closing,0.0,0.0,3.0,0.0,0.0,0.0,0.0,0.0,
5.861475999999966,0.0,0.0,95353.0,0.125,510.0,454.4800896783736,0.0,0.25,0.490722606,4.624505442297681,0.0,-166932.0,0.25,-465.0,-454.4800896783736,0.0,0.25,0.159912093,4.654057828629151,0.0,24014.0,5.5,547.5,454.4800896783736,0.0,0.0,3.017577816,4.632145989149268,0.0,-38873.0,0.375,-487.5,-454.4800896783736,0.0,0.25,1.221923703,4.648647845154657,0.0,-0.41999998688697815,0.11999999731779099,-169.99000549316406,-0.0933837890625,0.00750732421875,1.01837158203125,36.2599983215332,0.0,91.0,0.30157470703125,-2.7349090576171875,Closing,0.0,0.0,3.0,0.0,0.0,0.0,0.0,0.0,
6.063983999999997,0.0,0.0,95430.0,0.125,465.0,443.19150787921245,0.0,0.25,0.50048823,4.677179849637432,0.0,-167075.0,0.25,-442.5,-443.19150787921245,0.0,0.25,0.206298807,4.707068845895068,0.0,24103.0,5.5,495.0,443.19150787921245,0.0,0.125,3.045653985,4.684907424449561,0.0,-39024.0,0.375,-457.5,-443.19150787921245,0.0,0.375,1.351318221,4.70159724119928,0.0,-0.23999999463558197,-0.03999999910593033,-170.52999877929688,0.00787353515625,-0.02960205078125,1.13427734375,36.2599983215332,0.0,-4.0,0.3046417236328125,-2.7365264892578125,Closing,0.0,0.0,3.0,0.0,0.0,0.0,0.0,0.0,
6.267543999999995,0.0,0.0,95570.0,0.0,405.0,441.18045136209577,0.0,0.25,0.538330023,4.688024513802235,0.0,-167217.0,0.25,-435.0,-441.18045136209577,0.0,0.125,0.26855466,4.717982811676883,0.0,24253.0,6.0,442.5,441.18045136209577,0.0,0.0,3.081054372,4.695770006025355,0.0,-39163.0,0.375,-420.0,-441.18045136209577,0.0,0.125,1.411132668,4.712498520337161,0.0,-0.07999999821186066,0.0,-170.47999572753906,-0.03875732421875,-0.02569580078125,1.1112060546875,36.2400016784668,0.0,53.0,0.3058929443359375,-2.73876953125,Closing,0.0,0.0,3.0,0.0,0.0,0.0,0.0,0.125,
6.468130000000005,0.0,0.0,95700.0,0.0,390.0,445.28637594424845,0.0,0.25,0.5432128350000001,4.666435188907449,0.0,-167289.0,0.25,-442.5,-445.28637594424845,0.0,0.25,0.266113254,4.696255522608871,0.0,24391.0,6.5,420.0,445.28637594424845,0.0,0.0,3.079833669,4.674145011532941,0.0,-39228.0,0.375,-405.0,-445.28637594424845,0.0,0.25,1.378173687,4.690796487567873,0.0,-0.07000000029802322,-0.09000000357627869,-170.49000549316406,-0.05560302734375,-0.04150390625,0.95391845703125,36.2400016784668,0.0,59.0,0.3102874755859375,-2.738677978515625,Closing,0.0,0.0,3.0,0.0,0.0,0.0,0.0,0.125,
6.666265000000014,0.0,0.0,95762.0,0.125,397.5,439.2543575481068,0.0,0.25,0.544433538,4.698966387762507,0.0,-167423.0,0.375,-390.0,-439.2543575481068,0.0,0.0,0.266113254,4.728994608462525,0.0,24526.0,6.625,427.5,439.2543575481068,0.0,0.0,3.081054372,4.706729958005359,0.0,-39353.0,0.625,-367.5,-439.2543575481068,0.0,0.25,1.340331894,4.723497516757868,0.0,-0.15000000596046448,0.0,-170.74000549316406,0.014404296875,-0.0010986328125,1.085205078125,36.20000076293945,0.0,-14.0,0.3146820068359375,-2.7383270263671875,Closing,0.0,0.0,3.0,0.0,0.0,0.0,0.0,0.125,
6.865749000000011,0.0,0.0,95894.0,0.125,412.5,435.66151586552843,0.0,0.25,0.54931635,4.721129584569014,0.0,-167487.0,0.5,-397.5,-435.66151586552843,0.0,0.25,0.266113254,4.751299436706716,0.0,24598.0,6.625,442.5,435.66151586552843,0.0,0.0,3.079833669,4.728929772553091,0.0,-39422.0,0.625,-367.5,-435.66151586552843,0.0,0.25,1.363525251,4.745776417358559,0.0,-0.18000000715255737,0.019999999552965164,-171.0399932861328,-0.024169921875,0.0059814453125,1.02215576171875,36.20000076293945,0.0,22.0,0.313812255859375,-2.7383575439453125,Closing,0.0,0.0,3.0,0.0,0.0,0.0,0.0,0.125,
7.06117300000001,0.0,0.0,95961.0,0.125,427.5,432.4215651421655,0.0,0.25,0.587158143,4.743643082438357,0.0,-167618.0,0.625,-412.5,-432.4215651421655,0.0,0.25,0.275878878,4.77395680457362,0.0,24746.0,5.5,457.5,432.4215651421655,0.0,0.125,3.1005856200000004,4.751480466926451,0.0,-39550.0,0.625,-412.5,-432.4215651421655,0.0,0.25,1.417236183,4.768407447781828,0.0,-0.12999999523162842,0.03999999910593033,-171.3300018310547,0.0081787109375,-0.044189453125,1.04364013671875,36.20000076293945,0.0,0.0,0.3115234375,-2.738616943359375,Closing,0.0,0.0,3.0,0.0,0.0,0.0,0.0,0.125,
7.194626999999978,0.0,0.0,96103.0,0.125,435.0,430.9364451129221,0.0,0.25,0.5932616580000001,4.755022096236761,0.0,-167685.0,0.625,-420.0,-430.9364451129221,0.0,0.25,0.31005856200000004,4.785408534690783,0.0,24821.0,5.75,465.0,430.9364451129221,0.0,0.125,3.135986007,4.762878280981259,0.0,-39616.0,0.625,-457.5,-430.9364451129221,0.0,0.25,1.41601548,4.77984586614547,0.0,-0.07000000029802322,0.10999999940395355,-171.57000732421875,-0.0191650390625,0.01641845703125,1.12066650390625,36.209999084472656,0.0,18.0,0.3094329833984375,-2.73846435546875,Closing,0.0,0.0,3.0,0.0,0.0,0.0,0.0,0.0,
7.4065320000000066,0.0,0.0,96242.0,0.125,427.5,429.54249080416946,0.0,0.25,0.615234312,4.766477385014434,0.0,-167820.0,0.625,-427.5,-429.54249080416946,0.0,0.125,0.333251919,4.796937027213962,0.0,24972.0,4.875,457.5,429.54249080416946,0.0,0.0,3.1542965520000004,4.774352496035848,0.0,-39757.0,0.625,-375.0,-429.54249080416946,0.0,0.25,1.430663916,4.7913609576847485,0.0,-0.019999999552965164,0.0,-171.9600067138672,-0.00927734375,0.0078125,0.9971923828125,36.209999084472656,0.0,8.0,0.3093414306640625,-2.7385101318359375,Closing,0.0,0.0,3.0,0.0,0.0,0.0,0.0,0.0,
7.593610999999975,0.0,0.0,96311.0,0.125,420.0,425.9162806985224,0.0,0.375,0.635986263,4.801258457807891,0.0,-167955.0,0.625,-420.0,-425.9162806985224,0.0,0.25,0.345458949,4.831940364574527,0.0,25046.0,5.125,450.0,425.9162806985224,0.0,0.125,3.172607097,4.809191033658689,0.0,-39894.0,0.625,-442.5,-425.9162806985224,0.0,0.25,1.469726412,4.826323606363813,0.0,0.009999999776482582,-0.11999999731779099,-172.13999938964844,-0.08770751953125,0.01910400390625,0.95416259765625,36.209999084472656,0.0,82.0,0.3103790283203125,-2.738494873046875,Closing,0.0,0.0,3.0,0.0,0.0,0.0,0.0,0.0,
7.800684000000008,0.0,0.0,96442.0,0.125,405.0,425.9162806985224,0.0,0.25,0.6591796200000001,4.801258457807891,0.0,-168020.0,0.75,-397.5,-425.9162806985224,0.0,0.125,0.347900355,4.831940364574527,0.0,25188.0,4.75,435.0,425.9162806985224,0.0,0.0,3.182372721,4.809191033658689,0.0,-39956.0,0.75,-390.0,-425.9162806985224,0.0,0.125,1.4978025810000002,4.826323606363813,0.0,0.07999999821186066,-0.2199999988079071,-172.33999633789062,-0.0386962890625,0.06268310546875,1.0657958984375,36.18000030517578,0.0,25.0,0.311553955078125,-2.7397003173828125,Closing,0.0,0.0,3.0,0.0,0.0,0.0,0.0,0.125,
8.007505000000005,0.0,0.0,96575.0,0.125,412.5,423.9696204936888,0.0,0.375,0.664062432,4.824746445161359,0.0,-168151.0,0.875,-397.5,-423.9696204936888,0.0,0.25,0.367431603,4.855578449291936,0.0,25329.0,5.0,442.5,423.9696204936888,0.0,0.0,3.1738278,4.832717827554839,0.0,-40079.0,0.625,-397.5,-423.9696204936888,0.0,0.125,1.496581878,4.849934213629845,0.0,0.09000000357627869,-0.28999999165534973,-172.5,-0.026611328125,-0.02099609375,1.02459716796875,36.18000030517578,0.0,24.0,0.3124847412109375,-2.741729736328125,Closing,0.0,0.0,3.0,0.0,0.0,0.0,0.0,0.0,
8.19982899999997,0.0,0.0,96638.0,0.125,405.0,422.40583311735,0.0,0.375,0.668945244,4.848429690877773,0.0,-168284.0,0.875,-412.5,-422.40583311735,0.0,0.25,0.406494099,4.8794130401490845,0.0,25398.0,4.75,442.5,422.40583311735,0.0,0.125,3.2177731080000003,4.856440202417223,0.0,-40221.0,0.75,-480.0,-422.40583311735,0.0,0.25,1.4978025810000002,4.873741098612378,0.0,0.09000000357627869,-0.25,-172.61000061035156,0.00274658203125,0.001708984375,0.98736572265625,36.189998626708984,0.0,-7.0,0.3123626708984375,-2.7419586181640625,Closing,0.0,0.0,3.0,0.0,0.0,0.0,0.0,0.125,
8.402762999999977,0.0,0.0,96771.0,0.125,412.5,421.2291827664158,0.0,0.25,0.729980394,4.872267062553982,0.0,-168350.0,1.0,-412.5,-421.2291827664158,0.0,0.25,0.424804644,4.903402741890788,0.0,25541.0,4.625,435.0,421.2291827664158,0.0,0.0,3.2690426340000003,4.880316957884279,0.0,-40340.0,0.75,-450.0,-421.2291827664158,0.0,0.25,1.522216641,4.897702914175017,0.0,0.1899999976158142,-0.25999999046325684,-172.97000122070312,-0.0106201171875,0.009033203125,1.00164794921875,36.189998626708984,0.0,5.0,0.31243896484375,-2.7416534423828125,Closing,0.0,0.0,3.0,0.0,0.0,0.0,0.0,0.0,
8.60808500000002,0.0,0.0,96838.0,0.625,360.0,0.0,0.0,0.375,0.784912029,0.01,0.0,-168455.0,0.0,-270.0,-0.0,0.0,0.25,0.45410151600000004,0.01,0.0,25612.0,1.25,405.0,0.0,0.0,0.125,3.294677397,0.01,0.0,-40398.0,0.375,-360.0,-0.0,0.0,0.375,1.590576009,0.01,0.0,0.23000000417232513,-0.5199999809265137,-173.13999938964844,-0.1500244140625,0.02362060546875,0.9326171875,36.189998626708984,0.0,138.0,0.31365966796875,-2.7418060302734375,Closing,0.0,0.0,3.0,0.0,0.0,0.0,0.0,0.125,
8.711774999999966,0.0,0.0,96891.0,0.0,330.0,420.0,0.0,0.125,0.8032225740000001,4.930880846655358,0.0,-168530.0,0.625,-390.0,-420.0,0.0,0.25,0.49316401200000004,4.962391090843201,0.0,25673.0,3.375,322.5,420.0,0.0,0.0,3.3190914570000003,4.939027582906087,0.0,-40452.0,0.625,-322.5,-420.0,0.0,0.25,1.6284178020000002,4.9566226937188045,0.0,0.3100000023841858,-0.7099999785423279,-173.22999572753906,4.8828125E-4,-0.05072021484375,1.0128173828125,36.18000030517578,0.0,-6.0,0.316619873046875,-2.743927001953125,Closing,0.0,0.0,3.0,0.0,0.0,0.0,0.0,0.125,
8.812902000000001,0.0,0.0,96939.0,0.125,270.0,420.0,0.0,0.25,0.8032225740000001,4.929647834078811,0.0,-168530.0,0.625,-307.5,-420.0,0.0,0.125,0.507812448,4.96115019883728,0.0,25724.0,4.375,307.5,420.0,0.0,0.0,3.3251949720000002,4.937792533162435,0.0,-40495.0,1.25,-255.0,-420.0,0.0,0.125,1.62353499,4.955383244154189,0.0,0.20999999344348907,-0.6800000071525574,-173.3800048828125,0.01165771484375,-0.01776123046875,1.013427734375,36.18000030517578,0.0,-21.0,0.3164825439453125,-2.7450714111328125,Closing,0.0,0.0,3.0,0.0,0.0,0.0,0.0,0.0,
8.917958999999973,0.0,0.0,96987.0,0.125,300.0,420.0,0.0,0.25,0.8032225740000001,4.927592604061847,0.0,-168572.0,1.375,-322.5,-420.0,0.0,0.0,0.509033151,4.959081835102081,0.0,25773.0,5.0,307.5,420.0,0.0,0.0,3.333739893,4.935733907521566,0.0,-40495.0,1.0,-397.5,-420.0,0.0,0.125,1.62353499,4.953317284732394,0.0,0.23000000417232513,-0.5899999737739563,-173.39999389648438,0.008544921875,0.02044677734375,0.99566650390625,36.18000030517578,0.0,-20.0,0.315826416015625,-2.7450714111328125,Closing,0.0,0.0,3.0,0.0,0.0,0.0,0.0,0.0,
9.02056799999997,0.0,0.0,97038.0,0.375,307.5,420.0,0.0,0.25,0.8056639800000001,4.927318740637758,0.0,-168624.0,1.625,-315.0,-420.0,0.0,0.0,0.5175780720000001,4.95880622158432,0.0,25827.0,5.0,345.0,420.0,0.0,0.0,3.3239742690000003,4.9354595916239425,0.0,-40547.0,1.375,-210.0,-420.0,0.0,0.125,1.627197099,4.953041991594103,0.0,0.23999999463558197,-0.5099999904632568,-173.5399932861328,0.02685546875,-0.0225830078125,0.95428466796875,36.18000030517578,0.0,-32.0,0.3133544921875,-2.7449798583984375,Closing,0.0,0.0,3.0,0.0,0.0,0.0,0.0,0.0,
9.12586499999999,0.0,0.0,97095.0,0.375,345.0,420.0,0.0,0.25,0.8020018710000001,4.925400651388889,0.0,-168677.0,1.75,-337.5,-420.0,0.0,0.125,0.522460884,4.956875875,0.0,25886.0,5.125,367.5,420.0,0.0,0.0,3.3239742690000003,4.933538333333334,0.0,-40615.0,1.625,-435.0,-420.0,0.0,0.125,1.6320799110000002,4.951113888888889,0.0,0.23000000417232513,-0.4099999964237213,-173.64999389648438,0.0166015625,0.0380859375,1.05609130859375,36.18000030517578,0.0,-27.0,0.30889892578125,-2.7445831298828125,Closing,0.0,0.0,3.0,0.0,0.0,0.0,0.0,0.0,
9.230641000000004,0.0,0.0,97095.0,0.375,382.5,420.0,0.0,0.25,0.8166503070000001,4.923893566332203,0.0,-168734.0,1.875,-352.5,-420.0,0.0,0.125,0.527343696,4.9553591590843205,0.0,25953.0,4.75,405.0,420.0,0.0,0.0,3.3251949720000002,4.932028758290609,0.0,-40655.0,1.375,-330.0,-420.0,0.0,0.25,1.645507644,4.949598936038547,0.0,0.23999999463558197,-0.38999998569488525,-173.88999938964844,0.02978515625,-0.0421142578125,1.0811767578125,36.189998626708984,0.0,-31.0,0.303314208984375,-2.7435302734375,Closing,0.0,0.0,3.0,0.0,0.0,0.0,0.0,0.125,
9.332560999999988,0.0,0.0,97158.0,0.375,397.5,420.0,0.0,0.125,0.8032225740000001,4.920605323738692,0.0012207029999995456,-168796.0,1.75,-382.5,-420.0,0.0,0.25,0.527343696,4.952049903343201,0.0,25953.0,4.375,420.0,420.0,0.0,0.0,3.3251949720000002,4.928735082906088,0.0,-40711.0,1.625,-300.0,-420.0,0.0,0.25,1.6284178020000002,4.946293527052138,0.0,0.25999999046325684,-0.3400000035762787,-174.02999877929688,-0.0047607421875,-0.0439453125,0.9769287109375,36.189998626708984,0.0,3.0,0.2993621826171875,-2.741943359375,Closing,0.0,0.0,3.0,0.0,0.0,0.0,0.0,0.125,
9.44649099999998,0.0,0.0,97225.0,0.125,390.0,0.0,0.0,0.25,0.8056639800000001,0.01,0.0,-168846.0,0.125,-322.5,-0.0,0.0,0.125,0.5175780720000001,0.01,0.0,26021.0,1.25,405.0,0.0,0.0,0.0,3.3239742690000003,0.01,0.0,-40784.0,0.375,-427.5,-0.0,0.0,0.125,1.62353499,0.01,0.0,0.25,-0.4300000071525574,-174.1300048828125,-0.06439208984375,-0.011962890625,1.10614013671875,36.189998626708984,0.0,57.0,0.3007049560546875,-2.7400970458984375,Closing,0.0,0.0,3.0,0.0,0.0,0.0,0.0,0.125,
9.547353000000003,0.0,0.0,97280.0,0.625,330.0,0.0,0.0,0.25,0.7763671080000001,0.01,0.0,-168846.0,0.125,-202.5,-0.0,0.0,0.0,0.513915963,0.01,0.0,26083.0,0.875,352.5,0.0,0.0,0.0,3.3239742690000003,0.01,0.0,-40823.0,0.375,-232.5,-0.0,0.0,0.125,1.62353499,0.01,0.0,0.28999999165534973,-0.8399999737739563,-174.25,-0.0892333984375,-0.035888671875,1.0782470703125,36.189998626708984,0.0,77.0,0.3066558837890625,-2.739990234375,Closing,0.0,0.0,3.0,0.0,0.0,0.0,0.0,0.0,
9.648837999999989,0.0,0.0,97324.0,0.0,262.5,420.0,0.0,5.375,0.596923767,2.4661255000000026,0.0,-168883.0,0.75,-292.5,-420.0,0.0,8.0,0.740966721,2.4818850000000023,0.0,26129.0,3.25,247.5,420.0,0.0,5.5,3.0590817180000003,2.4702000000000024,0.0,-40823.0,0.75,-247.5,-420.0,0.0,6.625,1.901855274,2.4790000000000023,0.0,0.20000000298023224,-0.9900000095367432,-174.35000610351562,0.093994140625,-0.0020751953125,1.00714111328125,36.189998626708984,0.0,-110.0,0.3170166015625,-2.73968505859375,Closing,0.0,0.0,3.0,0.0,0.0,0.0,0.0,0.0,
9.748835000000021,0.0,0.0,97364.0,0.125,232.5,420.0,0.0,1.75,4.842528801,2.4661255000000026,0.0,-168940.0,1.0,-315.0,-420.0,0.0,1.25,1.549072107,2.4818850000000023,0.0,26173.0,3.875,277.5,420.0,0.0,1.125,2.283935313,2.4702000000000024,0.0,-40863.0,1.875,-180.0,-420.0,0.0,1.375,2.6977536300000002,2.4790000000000023,0.0,0.14000000059604645,-1.4800000190734863,-174.60000610351562,-0.205078125,-0.00848388671875,1.03851318359375,36.18000030517578,0.0,178.0,0.330047607421875,-2.7401123046875,Closing,0.0,0.0,3.0,0.0,0.0,0.0,0.0,0.0,
9.851654999999969,0.0,0.0,97380.0,0.375,105.0,420.0,0.0,2.0,4.11376911,2.4661255000000026,0.0,-168963.0,3.5,-105.0,-420.0,0.0,1.25,2.332763433,2.4818850000000023,0.0,26203.0,5.75,180.0,420.0,0.0,1.0,1.535644374,2.4702000000000024,0.0,-40891.0,2.625,-195.0,-420.0,0.0,1.5,3.433837539,2.4790000000000023,0.0,0.1899999976158142,-1.6299999952316284,-174.91000366210938,0.12982177734375,-0.0460205078125,0.95440673828125,36.18000030517578,0.0,-151.0,0.3386077880859375,-2.7402191162109375,Closing,0.0,0.0,3.0,0.0,0.0,0.0,0.0,0.125,
9.952623000000022,0.0,0.0,97404.0,0.5,172.5,420.0,0.0,1.5,3.4216305090000003,2.4661255000000026,0.0,-168988.0,5.125,-172.5,-420.0,0.0,0.5,3.018798519,2.4818850000000023,0.0,26224.0,8.25,127.5,420.0,0.0,0.5,0.926513577,2.4702000000000024,0.0,-40910.0,4.0,-112.5,-420.0,0.0,1.0,4.0783687230000005,2.4790000000000023,0.0,0.23999999463558197,-1.75,-175.3000030517578,-0.20013427734375,-0.114990234375,1.0296630859375,36.18000030517578,0.0,177.0,0.336090087890625,-2.74102783203125,Closing,0.0,0.0,3.0,0.0,0.0,0.0,0.0,0.0,
10.059893999999971,0.0,0.0,97404.0,0.875,97.5,420.0,0.0,0.5,3.089599293,2.4661255000000026,0.0,-169021.0,5.75,-195.0,-420.0,0.0,0.375,3.2702633370000003,2.4818850000000023,0.0,26260.0,8.5,180.0,420.0,0.0,0.25,0.653076105,2.4702000000000024,0.0,-40940.0,4.5,-202.5,-420.0,0.0,0.375,4.497069852,2.4790000000000023,0.0,0.019999999552965164,-2.2899999618530273,-175.07000732421875,-0.13958740234375,-0.023193359375,0.97979736328125,36.18000030517578,0.0,101.0,0.33935546875,-2.73883056640625,Closing,0.0,0.0,3.0,0.0,0.0,0.0,0.0,0.0,
10.164006999999984,0.0,0.0,97440.0,0.5,397.5,420.0,0.0,0.5,3.078612966,2.4661255000000026,0.0,-169071.0,5.75,-307.5,-420.0,0.0,0.5,3.2604977130000004,2.4818850000000023,0.0,26260.0,7.375,315.0,420.0,0.0,0.375,0.670165947,2.4702000000000024,0.0,-40982.0,4.875,-262.5,-420.0,0.0,1.75,4.471435089,2.4790000000000023,0.0,-0.009999999776482582,-2.069999933242798,-174.66000366210938,0.123046875,-0.02459716796875,0.97979736328125,36.18000030517578,0.0,-155.0,0.3466339111328125,-2.7364654541015625,Closing,0.0,0.0,3.0,0.0,0.0,0.0,0.0,0.0,
10.265985999999975,0.0,0.0,97492.0,0.75,240.0,420.0,0.0,0.625,3.1054684320000003,2.4661255000000026,0.0,-169071.0,6.75,-262.5,-420.0,0.0,0.5,3.129882492,2.4818850000000023,0.0,26310.0,9.0,232.5,420.0,0.0,0.5,0.748290939,2.4702000000000024,0.0,-41022.0,6.0,-247.5,-420.0,0.0,0.625,4.208983944,2.4790000000000023,0.0,-0.019999999552965164,-1.6299999952316284,-175.00999450683594,-0.0377197265625,0.0374755859375,0.95697021484375,36.18000030517578,0.0,7.0,0.3465728759765625,-2.7359771728515625,Closing,0.0,0.0,3.0,0.0,0.0,0.0,0.0,0.0,
10.365502999999968,0.0,0.0,97518.0,1.75,172.5,420.0,0.0,0.5,3.1652828790000003,2.4661255000000026,0.0,-169111.0,7.875,-262.5,-420.0,0.0,0.25,3.071288748,2.4818850000000023,0.0,26337.0,13.125,150.0,420.0,0.0,0.375,0.771484296,2.4702000000000024,0.0,-41022.0,6.75,-255.0,-420.0,0.0,0.25,4.039306227,2.4790000000000023,0.0,0.05000000074505806,-2.059999942779541,-175.30999755859375,-0.136474609375,0.05572509765625,1.1778564453125,36.18000030517578,0.0,89.0,0.347015380859375,-2.736602783203125,Closing,0.0,0.0,3.0,0.0,0.0,0.0,0.0,0.125,
10.468994999999996,0.0,0.0,97576.0,1.125,360.0,420.0,0.0,0.5,3.2153317020000003,2.4661255000000026,0.0,-169162.0,6.75,-375.0,-420.0,0.0,0.25,3.071288748,2.4818850000000023,0.0,26369.0,11.375,210.0,420.0,0.0,0.25,0.7775878110000001,2.4702000000000024,0.0,-41066.0,5.75,-360.0,-420.0,0.0,0.25,4.024657791,2.4790000000000023,0.0,0.029999999329447746,-2.4800000190734863,-175.13999938964844,-0.15057373046875,0.0045166015625,1.00396728515625,36.18000030517578,0.0,106.0,0.3546600341796875,-2.7369842529296875,Closing,0.0,0.0,3.0,0.0,0.0,0.0,0.0,0.125,
10.568542000000015,0.0,0.0,97661.0,0.375,502.5,420.0,0.0,0.375,3.229980138,2.4661255000000026,0.0,-169240.0,4.375,-525.0,-420.0,0.0,0.25,3.071288748,2.4818850000000023,0.0,26423.0,10.625,330.0,420.0,0.0,0.25,0.787353435,2.4702000000000024,0.0,-41140.0,4.0,-517.5,-420.0,0.0,0.25,4.0783687230000005,2.4790000000000023,0.0,-0.009999999776482582,-2.809999942779541,-174.69000244140625,-0.1199951171875,-0.03704833984375,0.89910888671875,36.18000030517578,0.0,78.0,0.368194580078125,-2.737213134765625,Closing,0.0,0.0,3.0,0.0,0.0,0.0,0.0,0.0,
10.671021000000009,0.0,0.0,97661.0,0.125,540.0,420.0,0.0,0.25,3.229980138,2.4661255000000026,0.0,-169339.0,2.375,-622.5,-420.0,0.0,0.25,3.071288748,2.4818850000000023,0.0,26507.0,8.5,502.5,420.0,0.0,0.25,0.787353435,2.4702000000000024,0.0,-41233.0,2.5,-607.5,-420.0,0.0,0.25,4.107665595,2.4790000000000023,0.0,-0.1599999964237213,-2.8499999046325684,-174.19000244140625,0.05078125,-0.0052490234375,0.860107421875,36.18000030517578,0.0,-92.0,0.3826446533203125,-2.73602294921875,Closing,0.0,0.0,3.0,0.0,0.0,0.0,0.0,0.0,
10.773097000000009,0.0,0.0,97752.0,0.375,712.5,420.0,0.0,0.375,3.229980138,2.4661255000000026,0.0,-169445.0,1.125,-660.0,-420.0,0.0,0.25,3.071288748,2.4818850000000023,0.0,26613.0,5.875,652.5,420.0,0.0,0.25,0.783691326,2.4702000000000024,0.0,-41336.0,1.625,-637.5,-420.0,0.0,0.125,4.107665595,2.4790000000000023,0.0,-0.15000000596046448,-2.630000114440918,-173.6699981689453,-0.007568359375,0.0394287109375,1.08294677734375,36.189998626708984,0.0,-46.0,0.3983001708984375,-2.7372589111328125,Closing,0.0,0.0,3.0,0.0,0.0,0.0,0.0,0.125,
10.873891999999993,0.0,0.0,97868.0,0.125,690.0,420.0,0.0,0.25,3.229980138,2.4661255000000026,0.0,-169548.0,0.625,-637.5,-420.0,0.0,0.25,3.071288748,2.4818850000000023,0.0,26613.0,4.875,652.5,420.0,0.0,0.125,0.7910155440000001,2.4702000000000024,0.0,-41441.0,0.75,-652.5,-420.0,0.0,0.125,4.108886298,2.4790000000000023,0.0,-0.11999999731779099,-2.299999952316284,-173.25999450683594,-0.00823974609375,0.033447265625,0.87969970703125,36.189998626708984,0.0,-31.0,0.4121856689453125,-2.7415618896484375,Closing,0.0,0.0,3.0,0.0,0.0,0.0,0.0,0.125,
10.986763999999967,0.0,0.0,97981.0,0.0,690.0,420.0,0.0,0.25,3.229980138,2.4661255000000026,0.0,-169548.0,0.375,-622.5,-420.0,0.0,0.25,3.071288748,2.4818850000000023,0.0,26721.0,3.625,690.0,420.0,0.0,0.125,0.7910155440000001,2.4702000000000024,0.0,-41540.0,0.625,-615.0,-420.0,0.0,0.125,4.117431219,2.4790000000000023,0.0,-0.15000000596046448,-1.9800000190734863,-172.8300018310547,0.0384521484375,0.04248046875,0.86761474609375,36.189998626708984,0.0,-73.0,0.4236602783203125,-2.747100830078125,Closing,0.0,0.0,3.0,0.0,0.0,0.0,0.0,0.0,
11.089868000000017,0.0,0.0,98084.0,0.125,637.5,420.0,0.0,0.375,3.229980138,2.4661255000000026,-0.0012207029999999897,-169645.0,0.375,-547.5,-420.0,0.0,0.25,3.072509451,2.4818850000000023,0.0,26829.0,2.875,645.0,420.0,0.0,0.25,0.7910155440000001,2.4702000000000024,0.0,-41540.0,0.625,-585.0,-420.0,0.0,0.125,4.107665595,2.4790000000000023,0.0,-0.09000000357627869,-1.659999966621399,-172.4499969482422,0.02880859375,0.04693603515625,1.05670166015625,36.189998626708984,0.0,-65.0,0.43133544921875,-2.7476959228515625,Closing,0.0,0.0,3.0,0.0,0.0,0.0,0.0,0.0,
11.188714999999968,0.0,0.0,98178.0,0.125,577.5,420.0,0.0,0.25,3.229980138,2.4661255000000026,0.0,-169730.0,0.25,-517.5,-420.0,0.0,0.25,3.072509451,2.4818850000000023,0.0,26928.0,2.625,592.5,420.0,0.0,0.125,0.7910155440000001,2.4702000000000024,0.0,-41632.0,0.375,-540.0,-420.0,0.0,0.125,4.107665595,2.4790000000000023,0.0,-0.03999999910593033,-1.409999966621399,-172.0800018310547,0.04986572265625,0.0166015625,1.05242919921875,36.189998626708984,0.0,-77.0,0.435211181640625,-2.7475128173828125,Closing,0.0,0.0,3.0,0.0,0.0,0.0,0.0,0.0,
11.29808799999999,0.0,0.0,98263.0,0.125,532.5,420.0,0.0,0.25,3.229980138,2.4661255000000026,0.0,-169812.0,0.25,-495.0,-420.0,0.0,0.25,3.071288748,2.4818850000000023,0.0,27014.0,2.625,532.5,420.0,0.0,0.125,0.8007811680000001,2.4702000000000024,0.0,-41718.0,0.375,-510.0,-420.0,0.0,0.125,4.107665595,2.4790000000000023,0.0,-0.029999999329447746,-1.1399999856948853,-171.74000549316406,0.0198974609375,-0.0191650390625,1.05694580078125,36.15999984741211,0.0,-37.0,0.4347991943359375,-2.748016357421875,Closing,0.0,0.0,3.0,0.0,0.0,0.0,0.0,0.0,
11.405369999999996,0.0,0.0,98330.0,1.5,427.5,0.0,0.0,5.75,3.07617156,0.01,0.0,-169884.0,0.0,-390.0,-0.0,0.0,7.625,3.232421544,0.01,0.0,27089.0,0.5,465.0,0.0,0.0,5.875,0.5822753310000001,0.01,0.0,-41795.0,0.375,-352.5,-0.0,0.0,7.5,3.865966401,0.01,0.0,-0.05999999865889549,-0.7099999785423279,-171.6699981689453,0.3115234375,0.07574462890625,1.11456298828125,36.15999984741211,0.0,-333.0,0.4306182861328125,-2.7476348876953125,Closing,0.0,0.0,3.0,0.0,0.0,0.0,0.0,0.0,
11.505909999999975,0.0,0.0,98330.0,1.75,315.0,0.0,0.0,1.5,2.363281008,0.01,0.0,-169940.0,0.0,-367.5,-0.0,0.0,1.75,3.9501949080000003,0.01,0.0,27133.0,0.5,307.5,0.0,0.0,2.375,4.885253406,0.01,0.0,-41825.0,0.375,-165.0,-0.0,0.0,1.375,3.123778977,0.01,0.0,0.15000000596046448,0.6600000262260437,-171.55999755859375,0.294921875,-0.0152587890625,1.0118408203125,36.15999984741211,0.0,-277.0,0.412933349609375,-2.7476654052734375,Closing,0.0,0.0,3.0,0.0,0.0,0.0,0.0,0.0,
11.604282000000007,0.0,0.0,98364.0,1.25,105.0,0.0,0.0,1.75,1.6589353770000002,0.01,0.0,-169945.0,0.0,-90.0,-0.0,0.0,1.5,4.680175302,0.01,0.0,27133.0,0.875,112.5,0.0,0.0,2.125,4.202880429,0.01,0.0,-41832.0,0.375,-45.0,-0.0,0.0,1.75,2.387695068,0.01,0.0,0.10000000149011612,0.7200000286102295,-171.69000244140625,-0.082275390625,0.00469970703125,0.95703125,36.15999984741211,0.0,92.0,0.3914031982421875,-2.7467803955078125,Closing,0.0,0.0,3.0,0.0,0.0,0.0,0.0,0.0,
11.701358999999997,0.0,0.0,98377.0,1.25,75.0,0.0,0.0,1.5,1.015624896,0.01,0.0,-169945.0,0.0,0.0,-0.0,0.0,1.25,0.429687456,0.01,0.0,27147.0,1.0,105.0,0.0,0.0,1.125,3.507079719,0.01,0.0,-41832.0,0.375,0.0,-0.0,0.0,1.25,1.669921704,0.01,0.0,0.03999999910593033,0.47999998927116394,-171.5800018310547,-0.01788330078125,-0.16754150390625,1.0179443359375,36.15999984741211,0.0,50.0,0.3723907470703125,-2.7481842041015625,Closing,0.0,0.0,3.0,0.0,0.0,0.0,0.0,0.0,
11.803858000000007,0.0,0.0,98380.0,1.0,0.0,0.0,0.0,0.875,0.5285643990000001,0.01,0.0,-169945.0,0.0,0.0,-0.0,0.0,0.375,0.812988198,0.01,0.0,27161.0,1.0,52.5,0.0,0.0,0.375,3.0651852330000002,0.01,0.0,-41832.0,0.375,0.0,-0.0,0.0,0.5,1.131591681,0.01,0.0,-0.05000000074505806,0.4000000059604645,-171.30999755859375,0.0377197265625,0.05560302734375,1.0091552734375,36.189998626708984,0.0,-38.0,0.3738555908203125,-2.746826171875,Closing,0.0,0.0,3.0,0.0,0.0,0.0,0.0,0.0,
11.907832999999984,0.0,0.0,98379.0,0.625,-7.5,0.0,0.0,0.625,0.601806579,0.01,0.0,-169945.0,0.0,0.0,-0.0,0.0,0.5,0.721435473,0.01,0.0,27163.0,1.25,0.0,0.0,0.0,0.5,3.14941374,0.01,0.0,-41832.0,0.375,0.0,-0.0,0.0,1.625,1.2402342480000002,0.01,0.0,-0.07000000029802322,0.44999998807907104,-171.33999633789062,0.0106201171875,-0.021728515625,1.04510498046875,36.189998626708984,0.0,0.0,0.37457275390625,-2.7466888427734375,Closing,0.0,0.0,3.0,0.0,0.0,0.0,0.0,0.125,
12.008569000000017,0.0,0.0,98378.0,0.625,0.0,0.0,0.0,0.375,0.7788085140000001,0.01,0.0,-169945.0,0.0,0.0,-0.0,0.0,0.25,0.6188964210000001,0.01,0.0,27162.0,1.125,0.0,0.0,0.0,0.125,3.3190914570000003,0.01,0.0,-41835.0,0.375,-45.0,-0.0,0.0,0.375,1.5808103850000002,0.01,0.0,-0.009999999776482582,0.4000000059604645,-171.33999633789062,0.01116943359375,-0.0751953125,1.0496826171875,36.189998626708984,0.0,7.0,0.37493896484375,-2.7464447021484375,Closing,0.0,0.0,3.0,0.0,0.0,0.0,0.0,0.125,
12.110555999999983,0.0,0.0,98378.0,0.625,0.0,0.0,0.0,0.25,0.845947179,0.01,0.0,-169945.0,0.0,0.0,-0.0,0.0,0.25,0.533447211,0.01,0.0,27162.0,1.25,0.0,0.0,0.0,0.125,3.382568013,0.01,0.0,-41846.0,0.375,-60.0,-0.0,0.0,0.375,1.7346189630000002,0.01,0.0,-0.03999999910593033,0.36000001430511475,-171.36000061035156,-0.01446533203125,0.03363037109375,1.0443115234375,36.189998626708984,0.0,15.0,0.37548828125,-2.7458953857421875,Closing,0.0,0.0,3.0,0.0,0.0,0.0,0.0,0.0,
12.210419999999983,0.0,0.0,98378.0,0.75,0.0,0.0,0.0,0.25,0.8532713970000001,0.01,0.0,-169945.0,0.0,0.0,-0.0,0.0,0.125,0.520019478,0.01,0.0,27162.0,1.25,0.0,0.0,0.0,0.125,3.382568013,0.01,0.0,-41847.0,0.375,0.0,-0.0,0.0,0.25,1.694335764,0.01,0.0,-0.05000000074505806,0.28999999165534973,-171.35000610351562,0.004638671875,-0.01300048828125,1.005615234375,36.189998626708984,0.0,2.0,0.375946044921875,-2.7457733154296875,Closing,0.0,0.0,3.0,0.0,0.0,0.0,0.0,0.0,
12.309695999999997,0.0,0.0,98378.0,0.75,0.0,0.0,0.0,0.25,0.8447264760000001,0.01,0.0,-169945.0,0.0,0.0,-0.0,0.0,0.0,0.51269526,0.01,0.0,27162.0,1.25,0.0,0.0,0.0,0.125,3.382568013,0.01,0.0,-41847.0,0.375,0.0,-0.0,0.0,0.25,1.6369627230000001,0.01,0.0,-0.029999999329447746,0.25999999046325684,-171.33999633789062,-0.00469970703125,-0.01422119140625,1.0194091796875,36.18000030517578,0.0,11.0,0.375946044921875,-2.7457733154296875,Closing,0.0,0.0,3.0,0.0,0.0,0.0,0.0,0.0,
12.412837999999988,0.0,0.0,98380.0,0.0,22.5,0.0,0.0,0.25,0.845947179,0.01,0.0,-169945.0,0.0,0.0,-0.0,0.0,0.0,0.51269526,0.01,0.0,27162.0,0.125,-7.5,0.0,0.0,0.0,3.382568013,0.01,0.0,-41847.0,0.125,0.0,-0.0,0.0,0.125,1.6369627230000001,0.01,0.0,-0.029999999329447746,0.23999999463558197,-171.36000061035156,-0.011474609375,0.0064697265625,1.02667236328125,36.18000030517578,0.0,14.0,0.375946044921875,-2.7457733154296875,Closing,0.0,0.0,3.0,0.0,0.0,0.0,0.0,0.0,
