Time,ClimberA1,ClimberA2,FRpos,FRCurrent,FRspeed,FRsetpoint,FRApos,FRACurrent,FREncpos,FREncSetpoint,FREncSpeed,FLpos,FLCurrent,FLspeed,FLsetpoint,FLApos,FLACurrent,FLEncpos,FLEncSetpoint,FLEncSpeed,BRpos,BRCurrent,BRspeed,BRsetpoint,BRApos,BRACurrent,BREncpos,BREncSetpoint,BREncSpeed,BLpos,BLCurrent,BLspeed,BLsetpoint,BLApos,BLACurrent,BLEncpos,BLEncSetpoint,BLEncSpeed,navx_Pitch,navx_Roll,navx_Yaw,navx_XAcc,navx_YAcc,navx_ZAcc,navx_Temp,navx_Bar,navx_Alt,navx_XDis,navx_YDis,GearPlacerState,ShootOutputV,ShootOutputCurrent,ShootEncPos,ShootEncVelocity,ShootSpeed,ShootSetpoint,CarouselSetpoint,CarouselCurrent,
0.16053500000000348,0.0,0.0,87822.0,0.0,0.0,0.0,0.0,0.25,0.826415931,0.01,0.0,-154034.0,0.0,0.0,-0.0,0.0,0.0,0.507812448,0.01,0.0,16084.0,0.0,0.0,0.0,0.0,0.0,3.343505517,0.01,0.0,-28267.0,0.125,0.0,-0.0,0.0,0.125,1.6369627230000001,0.01,0.0,0.28999999165534973,-0.44999998807907104,-99.94000244140625,-0.00921630859375,0.0059814453125,1.01983642578125,36.599998474121094,0.0,0.0,2.2993316650390625,-2.437835693359375,Closing,0.0,0.0,3.0,0.0,0.0,0.0,0.0,0.0,
0.26610700000001813,0.0,0.0,87822.0,0.0,0.0,0.0,0.0,0.25,0.826415931,0.01,0.0,-154034.0,0.0,0.0,-0.0,0.0,0.125,0.507812448,0.01,0.0,16084.0,0.0,0.0,0.0,0.0,0.0,3.343505517,0.01,0.0,-28267.0,0.125,0.0,-0.0,0.0,0.125,1.638183426,0.01,0.0,0.28999999165534973,-0.44999998807907104,-99.94000244140625,-0.00830078125,0.00433349609375,1.0211181640625,36.599998474121094,0.0,0.0,2.2993316650390625,-2.437835693359375,Closing,0.0,0.0,3.0,0.0,0.0,0.0,0.0,0.0,
0.3698760000000184,0.0,0.0,87822.0,0.0,0.0,0.0,0.0,0.25,0.825195228,0.01,0.0,-154034.0,0.0,0.0,-0.0,0.0,0.125,0.507812448,0.01,0.0,16084.0,0.0,0.0,0.0,0.0,0.0,3.343505517,0.01,0.0,-28267.0,0.125,0.0,-0.0,0.0,0.125,1.638183426,0.01,0.0,0.2800000011920929,-0.46000000834465027,-99.94000244140625,-0.0078125,0.00677490234375,1.022216796875,36.599998474121094,0.0,-1.0,2.2993316650390625,-2.437835693359375,Closing,0.0,0.0,3.0,0.0,0.0,0.0,0.0,0.0,
0.4742170000000042,0.0,0.0,87822.0,0.0,0.0,0.0,0.0,0.25,0.826415931,0.01,0.0,-154034.0,0.0,0.0,-0.0,0.0,0.125,0.507812448,0.01,0.0,16084.0,0.0,0.0,0.0,0.0,0.0,3.343505517,0.01,0.0,-28267.0,0.125,0.0,-0.0,0.0,0.125,1.6369627230000001,0.01,0.0,0.2800000011920929,-0.44999998807907104,-99.94000244140625,-0.00897216796875,0.00634765625,1.024658203125,36.65999984741211,0.0,-1.0,2.2993316650390625,-2.437835693359375,Closing,0.0,0.0,3.0,0.0,0.0,0.0,0.0,0.125,
0.5830250000000233,0.0,0.0,87822.0,0.0,0.0,0.0,0.0,0.25,0.826415931,0.01,0.0,-154034.0,0.0,0.0,-0.0,0.0,0.0,0.507812448,0.01,0.0,16084.0,0.0,0.0,0.0,0.0,0.0,3.343505517,0.01,0.0,-28267.0,0.125,0.0,-0.0,0.0,0.125,1.6369627230000001,0.01,0.0,0.2800000011920929,-0.46000000834465027,-99.94999694824219,-0.0113525390625,0.00469970703125,1.01873779296875,36.65999984741211,0.0,0.0,2.2993316650390625,-2.437835693359375,Closing,0.0,0.0,3.0,0.0,0.0,0.0,0.0,0.125,
0.6880150000000139,0.0,0.0,87822.0,0.0,0.0,0.0,0.0,0.25,0.826415931,0.01,0.0,-154034.0,0.0,0.0,-0.0,0.0,0.0,0.507812448,0.01,0.0,16084.0,0.0,0.0,0.0,0.0,0.0,3.343505517,0.01,0.0,-28267.0,0.125,0.0,-0.0,0.0,0.125,1.6369627230000001,0.01,0.0,0.28999999165534973,-0.44999998807907104,-99.94999694824219,-0.0052490234375,0.0052490234375,1.0208740234375,36.65999984741211,0.0,0.0,2.2993316650390625,-2.437835693359375,Closing,0.0,0.0,3.0,0.0,0.0,0.0,0.0,0.0,
0.792869000000006,0.0,0.0,87822.0,0.0,0.0,0.0,0.0,0.125,0.8276366340000001,0.01,0.0,-154034.0,0.0,0.0,-0.0,0.0,0.0,0.507812448,0.01,0.0,16084.0,0.0,0.0,0.0,0.0,0.0,3.342284814,0.01,0.0,-28267.0,0.125,0.0,-0.0,0.0,0.125,1.6369627230000001,0.01,0.0,0.28999999165534973,-0.44999998807907104,-99.94999694824219,-0.00738525390625,0.0040283203125,1.018310546875,36.65999984741211,0.0,1.0,2.2993316650390625,-2.437835693359375,Closing,0.0,0.0,3.0,0.0,0.0,0.0,0.0,0.125,
0.8947440000000061,0.0,0.0,87820.0,0.125,0.0,-317.4803137779236,0.0,0.25,0.8276366340000001,4.932250999999998,0.0,-154034.0,0.625,0.0,317.4803137779236,0.0,0.0,0.507812448,4.963769999999998,0.0,16080.0,0.125,-22.5,-317.4803137779236,0.0,0.0,3.342284814,0.01,0.0,-28267.0,0.5,15.0,317.4803137779236,0.0,0.125,1.6369627230000001,0.01,0.0,0.2800000011920929,-0.46000000834465027,-99.94999694824219,-0.00909423828125,0.00653076171875,1.02471923828125,36.65999984741211,0.0,-1.0,2.2993316650390625,-2.437835693359375,Closing,0.0,0.0,3.0,0.0,0.0,0.0,0.0,0.0,
1.010747000000003,0.0,0.0,87820.0,0.75,-45.0,-456.37796044349665,0.0,0.25,0.826415931,4.932250999999998,0.0,-154026.0,2.375,60.0,456.37796044349665,0.0,0.0,0.5029296360000001,4.963769999999998,0.0,16069.0,0.875,-82.5,-456.37796044349665,0.0,0.0,3.343505517,0.01,0.0,-28253.0,1.625,82.5,456.37796044349665,0.0,0.125,1.622314287,0.01,0.0,0.28999999165534973,-0.6499999761581421,-99.98999786376953,-0.0357666015625,0.03887939453125,1.1326904296875,36.65999984741211,0.0,-28.0,2.300262451171875,-2.4386749267578125,Closing,0.0,0.0,3.0,0.0,0.0,0.0,0.0,0.0,
1.113661000000022,0.0,0.0,87811.0,2.375,-67.5,-555.5905491113663,0.0,0.125,0.826415931,4.932250999999998,0.0,-154012.0,4.75,82.5,555.5905491113663,0.0,0.0,0.477294873,4.963769999999998,0.0,16069.0,2.375,-82.5,-555.5905491113663,0.0,0.0,3.342284814,0.01,0.0,-28242.0,2.625,75.0,555.5905491113663,0.0,0.125,1.617431475,0.01,0.0,0.28999999165534973,-0.9200000166893005,-99.95999908447266,-0.08685302734375,0.0145263671875,1.03863525390625,36.65999984741211,0.0,3.0,2.302490234375,-2.4426422119140625,Closing,0.0,0.0,3.0,0.0,0.0,0.0,0.0,0.125,
1.2173890000000247,0.0,0.0,87791.0,3.5,-172.5,-575.433059334755,0.0,0.25,0.8312987430000001,4.932250999999998,0.0,-153981.0,4.875,172.5,575.433059334755,0.0,0.25,0.450439407,4.963769999999998,0.0,16051.0,3.125,-187.5,-575.433059334755,0.0,0.0,3.349609032,0.01,0.0,-28214.0,4.375,187.5,575.433059334755,0.0,0.125,1.613769366,0.01,0.0,0.3100000023841858,-1.3899999856948853,-99.94000244140625,-0.156494140625,0.05181884765625,1.08880615234375,36.65999984741211,0.0,-22.0,2.3052215576171875,-2.4512939453125,Closing,0.0,0.0,3.0,0.0,0.0,0.0,0.0,0.0,
1.3296330000000016,0.0,0.0,87747.0,3.5,-307.5,-634.9606275558472,0.0,0.25,0.8312987430000001,4.932250999999998,0.0,-153916.0,6.375,345.0,634.9606275558472,0.0,0.25,0.449218704,4.963769999999998,0.0,16014.0,3.625,-277.5,-634.9606275558472,0.0,0.0,3.352050438,0.01,0.0,-28159.0,4.25,337.5,634.9606275558472,0.0,0.125,1.613769366,0.01,0.0,0.2800000011920929,-1.850000023841858,-100.08999633789062,-0.0914306640625,0.02734375,0.98492431640625,36.65999984741211,0.0,-11.0,2.309814453125,-2.4692535400390625,Closing,0.0,0.0,3.0,0.0,0.0,0.0,0.0,0.125,
1.4414700000000011,0.0,0.0,87678.0,3.125,-487.5,-634.9606275558472,0.0,0.25,0.8312987430000001,4.932250999999998,0.0,-153916.0,5.25,495.0,634.9606275558472,0.0,0.25,0.458984328,4.963769999999998,0.0,15959.0,3.625,-435.0,-634.9606275558472,0.0,0.0,3.352050438,0.01,0.0,-28076.0,3.375,480.0,634.9606275558472,0.0,0.25,1.613769366,0.01,0.0,0.28999999165534973,-2.2100000381469727,-100.08999633789062,-0.0638427734375,0.02239990234375,0.976318359375,36.630001068115234,0.0,-12.0,2.3163909912109375,-2.49017333984375,Closing,0.0,0.0,3.0,0.0,0.0,0.0,0.0,0.0,
1.54700900000002,0.0,0.0,87582.0,2.75,-607.5,-654.8031377792358,0.0,0.25,0.8422850700000001,4.932250999999998,0.0,-153828.0,4.25,615.0,654.8031377792358,0.0,0.25,0.47851557600000005,4.963769999999998,0.0,15874.0,3.125,-555.0,-654.8031377792358,0.0,0.0,3.353271141,0.01,0.0,-27975.0,3.125,607.5,654.8031377792358,0.0,0.125,1.612548663,0.01,0.0,0.25999999046325684,-2.380000114440918,-100.08000183105469,-0.0347900390625,-0.00238037109375,1.04412841796875,36.630001068115234,0.0,5.0,2.322479248046875,-2.5102691650390625,Closing,0.0,0.0,3.0,0.0,0.0,0.0,0.0,0.125,
1.6548650000000198,0.0,0.0,87471.0,1.875,-697.5,-654.8031377792358,0.0,0.25,0.823974525,4.932250999999998,0.0,-153723.0,3.125,705.0,654.8031377792358,0.0,0.25,0.483398388,4.963769999999998,0.0,15780.0,3.125,-555.0,-654.8031377792358,0.0,0.0,3.352050438,0.01,0.0,-27975.0,2.875,667.5,654.8031377792358,0.0,0.125,1.6113279600000001,0.01,0.0,0.30000001192092896,-2.4200000762939453,-99.94000244140625,-0.04718017578125,-0.02825927734375,1.07391357421875,36.630001068115234,0.0,33.0,2.3271026611328125,-2.5345458984375,Closing,0.0,0.0,3.0,0.0,0.0,0.0,0.0,0.125,
1.764683000000019,0.0,0.0,87349.0,1.0,-757.5,-674.6456480026245,0.0,0.25,0.837402258,4.932250999999998,0.0,-153606.0,2.375,735.0,674.6456480026245,0.0,0.125,0.483398388,4.963769999999998,0.0,15749.0,7.125,-255.0,-674.6456480026245,0.0,0.0,3.358153953,0.01,0.0,-27866.0,2.375,705.0,674.6456480026245,0.0,0.125,1.612548663,0.01,0.0,0.25,-2.4800000190734863,-99.62000274658203,-0.02410888671875,0.00225830078125,0.8406982421875,36.630001068115234,0.0,0.0,2.3294830322265625,-2.5604095458984375,Closing,0.0,0.0,3.0,0.0,0.0,0.0,0.0,0.0,
1.8708160000000207,0.0,0.0,87221.0,0.625,-787.5,-674.6456480026245,0.0,0.25,0.826415931,4.932250999999998,0.0,-153486.0,2.0,765.0,674.6456480026245,0.0,0.125,0.483398388,4.963769999999998,0.0,15622.0,4.0,-795.0,-674.6456480026245,0.0,0.0,3.3630367650000004,0.01,0.0,-27749.0,1.625,750.0,674.6456480026245,0.0,0.125,1.612548663,0.01,0.0,0.27000001072883606,-2.3299999237060547,-99.38999938964844,-0.041748046875,0.01483154296875,0.962158203125,36.630001068115234,0.0,-9.0,2.32940673828125,-2.5826568603515625,Closing,0.0,0.0,3.0,0.0,0.0,0.0,0.0,0.125,
1.9755280000000202,0.0,0.0,87221.0,0.625,-795.0,-694.4881582260131,0.0,0.25,0.822753822,4.932250999999998,0.0,-153359.0,1.5,795.0,694.4881582260131,0.0,0.125,0.483398388,4.963769999999998,0.0,15492.0,3.0,-817.5,-694.4881582260131,0.0,0.0,3.3654781710000004,0.01,0.0,-27627.0,1.5,757.5,694.4881582260131,0.0,0.125,1.612548663,0.01,0.0,0.2800000011920929,-2.25,-99.33000183105469,0.0482177734375,-0.07562255859375,1.05523681640625,36.61000061035156,0.0,65.0,2.3277740478515625,-2.6034088134765625,Closing,0.0,0.0,3.0,0.0,0.0,0.0,0.0,0.0,
2.079029999999999,0.0,0.0,87094.0,0.375,-780.0,-694.4881582260131,0.0,0.25,0.821533119,4.932250999999998,0.0,-153233.0,1.25,780.0,694.4881582260131,0.0,0.125,0.48583979400000005,4.963769999999998,0.0,15365.0,2.75,-795.0,-694.4881582260131,0.0,0.0,3.3728023890000003,0.01,0.0,-27501.0,1.125,795.0,694.4881582260131,0.0,0.125,1.612548663,0.01,0.0,0.2800000011920929,-2.049999952316284,-99.41000366210938,0.0208740234375,-0.0693359375,0.92840576171875,36.61000061035156,0.0,64.0,2.32598876953125,-2.6225738525390625,Closing,0.0,0.0,3.0,0.0,0.0,0.0,0.0,0.0,
2.1878610000000043,0.0,0.0,86971.0,0.375,-750.0,-694.4881582260131,0.0,0.25,0.821533119,4.932250999999998,0.0,-153110.0,1.125,765.0,694.4881582260131,0.0,0.125,0.484619091,4.963769999999998,0.0,15365.0,2.625,-772.5,-694.4881582260131,0.0,0.125,3.385009419,0.01,0.0,-27379.0,1.125,742.5,694.4881582260131,0.0,0.125,1.613769366,0.01,0.0,0.25,-1.9299999475479126,-99.52999877929688,0.0164794921875,0.00640869140625,0.9638671875,36.61000061035156,0.0,-10.0,2.326019287109375,-2.63885498046875,Closing,0.0,0.0,3.0,0.0,0.0,0.0,0.0,0.125,
2.2948220000000146,0.0,0.0,86851.0,0.375,-750.0,-694.4881582260131,0.0,0.25,0.821533119,4.932250999999998,0.0,-152991.0,1.0,750.0,694.4881582260131,0.0,0.125,0.477294873,4.963769999999998,0.0,15241.0,2.625,-742.5,-694.4881582260131,0.0,0.125,3.3764644980000003,0.01,0.0,-27267.0,1.5,697.5,694.4881582260131,0.0,0.125,1.6113279600000001,0.01,0.0,0.25999999046325684,-1.690000057220459,-99.62000274658203,0.04705810546875,-0.07061767578125,1.0928955078125,36.61000061035156,0.0,61.0,2.3264312744140625,-2.6533203125,Closing,0.0,0.125,3.0,0.0,0.0,0.0,0.0,0.0,
2.416118000000017,0.0,0.0,86735.0,0.375,-697.5,-694.4881582260131,0.0,0.25,0.821533119,4.932250999999998,0.0,-152873.0,1.0,727.5,694.4881582260131,0.0,0.125,0.483398388,4.963769999999998,0.0,15124.0,2.875,-712.5,-694.4881582260131,0.0,0.125,3.3764644980000003,0.01,0.0,-27151.0,1.25,720.0,694.4881582260131,0.0,0.125,1.612548663,0.01,0.0,0.3100000023841858,-1.559999942779541,-99.7699966430664,-0.04541015625,0.002197265625,0.95806884765625,36.52000045776367,0.0,6.0,2.327056884765625,-2.662567138671875,Closing,0.0,0.0,3.0,0.0,0.0,0.0,0.0,0.0,
2.5327740000000047,0.0,0.0,86622.0,0.375,-697.5,-694.4881582260131,0.0,0.25,0.822753822,4.932250999999998,0.0,-152760.0,1.0,705.0,694.4881582260131,0.0,0.125,0.483398388,4.963769999999998,0.0,15010.0,2.875,-697.5,-694.4881582260131,0.0,0.125,3.3776852010000002,0.01,0.0,-27037.0,0.875,712.5,694.4881582260131,0.0,0.125,1.613769366,0.01,0.0,0.28999999165534973,-1.4500000476837158,-99.80000305175781,0.00567626953125,-0.0528564453125,0.955322265625,36.52000045776367,0.0,51.0,2.3258209228515625,-2.6625213623046875,Closing,0.0,0.0,3.0,0.0,0.0,0.0,0.0,0.125,
2.647734000000026,0.0,0.0,86513.0,0.625,-675.0,-694.4881582260131,0.0,0.25,0.821533119,4.932250999999998,0.0,-152651.0,1.25,682.5,694.4881582260131,0.0,0.125,0.482177685,4.963769999999998,0.0,14900.0,2.875,-682.5,-694.4881582260131,0.0,0.125,3.3776852010000002,0.01,0.0,-26926.0,1.25,682.5,694.4881582260131,0.0,0.125,1.618652178,0.01,0.0,0.33000001311302185,-1.3600000143051147,-99.83999633789062,0.05517578125,0.0347900390625,1.06182861328125,36.52000045776367,0.0,-41.0,2.3253021240234375,-2.661102294921875,Closing,0.0,0.0,3.0,0.0,0.0,0.0,0.0,0.125,
2.7698490000000167,0.0,0.0,86404.0,0.625,-675.0,-694.4881582260131,0.0,0.25,0.821533119,4.932250999999998,0.0,-152541.0,1.25,682.5,694.4881582260131,0.0,0.125,0.482177685,4.963769999999998,0.0,14789.0,3.0,-682.5,-694.4881582260131,0.0,0.125,3.3764644980000003,0.01,0.0,-26810.0,1.125,720.0,694.4881582260131,0.0,0.125,1.613769366,0.01,0.0,0.38999998569488525,-1.190000057220459,-99.80999755859375,0.02423095703125,-0.01751708984375,1.024658203125,36.52000045776367,0.0,16.0,2.3248291015625,-2.65814208984375,Closing,0.0,0.0,3.0,0.0,0.0,0.0,0.0,0.125,
2.8831520000000017,0.0,0.0,86296.0,0.625,-667.5,-694.4881582260131,0.0,0.25,0.821533119,4.932250999999998,0.0,-152432.0,1.375,675.0,694.4881582260131,0.0,0.125,0.47241206100000005,4.963769999999998,0.0,14681.0,3.125,-660.0,-694.4881582260131,0.0,0.125,3.3776852010000002,0.01,0.0,-26703.0,1.25,675.0,694.4881582260131,0.0,0.125,1.613769366,0.01,0.0,0.4000000059604645,-1.159999966621399,-99.87000274658203,-0.03814697265625,-0.03399658203125,0.8690185546875,36.52000045776367,0.0,43.0,2.3253631591796875,-2.6547393798828125,Closing,0.0,0.0,3.0,0.0,0.0,0.0,0.0,0.0,
2.9953950000000185,0.0,0.0,86187.0,0.625,-675.0,-694.4881582260131,0.0,0.25,0.821533119,4.932250999999998,0.0,-152432.0,1.5,675.0,694.4881582260131,0.0,0.125,0.483398388,4.963769999999998,0.0,14576.0,3.25,-660.0,-694.4881582260131,0.0,0.125,3.386230122,0.01,0.0,-26592.0,1.25,682.5,694.4881582260131,0.0,0.125,1.612548663,0.01,0.0,0.4000000059604645,-1.1200000047683716,-99.83000183105469,0.01007080078125,0.068115234375,1.1439208984375,36.56999969482422,0.0,-64.0,2.3257293701171875,-2.65576171875,Closing,0.0,0.0,3.0,0.0,0.0,0.0,0.0,0.0,
3.11381700000001,0.0,0.0,86077.0,0.625,-682.5,-694.4881582260131,0.0,0.25,0.822753822,4.932250999999998,0.0,-152323.0,1.5,682.5,694.4881582260131,0.0,0.125,0.483398388,4.963769999999998,0.0,14470.0,3.375,-652.5,-694.4881582260131,0.0,0.125,3.3776852010000002,0.01,0.0,-26485.0,1.5,675.0,694.4881582260131,0.0,0.125,1.612548663,0.01,0.0,0.3700000047683716,-1.090000033378601,-99.7300033569336,-0.0042724609375,0.01959228515625,0.908203125,36.56999969482422,0.0,-15.0,2.3275299072265625,-2.6550140380859375,Closing,0.0,0.0,3.0,0.0,0.0,0.0,0.0,0.125,
3.2293190000000176,0.0,0.0,85968.0,0.625,-682.5,-694.4881582260131,0.0,0.125,0.821533119,4.932250999999998,0.0,-152214.0,1.5,675.0,694.4881582260131,0.0,0.125,0.483398388,4.963769999999998,0.0,14366.0,3.5,-667.5,-694.4881582260131,0.0,0.125,3.3764644980000003,0.01,0.0,-26377.0,1.625,667.5,694.4881582260131,0.0,0.125,1.612548663,0.01,0.0,0.38999998569488525,-1.0,-99.61000061035156,-0.02801513671875,0.07489013671875,0.985595703125,36.56999969482422,0.0,-65.0,2.3275604248046875,-2.65521240234375,Closing,0.0,0.0,3.0,0.0,0.0,0.0,0.0,0.125,
3.3394900000000196,0.0,0.0,85859.0,0.625,-675.0,-694.4881582260131,0.0,0.25,0.823974525,4.932250999999998,0.0,-152106.0,1.375,682.5,694.4881582260131,0.0,0.125,0.483398388,4.963769999999998,0.0,14256.0,3.5,-682.5,-694.4881582260131,0.0,0.125,3.3764644980000003,0.01,0.0,-26268.0,1.5,682.5,694.4881582260131,0.0,0.125,1.612548663,0.01,0.0,0.38999998569488525,-1.0099999904632568,-99.61000061035156,0.0538330078125,0.02276611328125,1.0296630859375,36.56999969482422,0.0,-27.0,2.3260955810546875,-2.655181884765625,Closing,0.0,0.0,3.0,0.0,0.0,0.0,0.0,0.125,
3.4558130000000236,0.0,0.0,85749.0,0.75,-682.5,-727.9798086079571,0.0,0.5,0.942382716,0.23903866472904778,0.0,-151994.0,1.625,697.5,727.9798086079571,0.0,0.5,0.6335448570000001,0.2405662146598187,0.0,14147.0,3.75,-682.5,-727.9798086079571,0.0,0.125,3.4777828470000003,0.239433601255773,0.0,-26159.0,1.875,675.0,727.9798086079571,0.0,0.375,1.7871091920000002,0.24028657497897388,0.0,0.20999999344348907,-1.0299999713897705,-99.5999984741211,0.02972412109375,-0.16595458984375,1.02838134765625,36.56999969482422,0.0,159.0,2.32330322265625,-2.654449462890625,Closing,0.0,0.0,3.0,0.0,0.0,0.0,0.0,0.0,
3.5775010000000185,0.0,0.0,85636.0,0.75,-712.5,-740.8464284471054,0.0,0.375,1.097411997,0.2791713890480573,0.0,-151884.0,2.0,682.5,740.8464284471054,0.0,0.5,0.833740149,0.28095540267822444,0.0,14032.0,3.5,-735.0,-740.8464284471054,0.0,0.125,3.6389156430000003,0.279632632332179,0.0,-26050.0,1.875,682.5,740.8464284471054,0.0,0.375,1.9409177700000002,0.2806288136796501,0.0,-0.41999998688697815,-0.8799999952316284,-99.43000030517578,0.032958984375,-0.11553955078125,0.99493408203125,36.56999969482422,0.0,98.0,2.32904052734375,-2.6513214111328125,Closing,0.0,0.0,3.0,0.0,0.0,0.0,0.0,0.125,
3.6920020000000076,0.0,0.0,85518.0,0.75,-727.5,-755.5806138466813,0.0,0.25,1.148681523,0.31783688510024116,0.0,-151771.0,2.0,720.0,755.5806138466813,0.0,0.125,0.887451081,0.31986798627118207,0.0,13910.0,3.375,-757.5,-755.5806138466813,0.0,0.0,3.717040635,0.3183620110065833,0.0,-26050.0,2.25,697.5,755.5806138466813,0.0,0.125,1.988525187,0.3194961643937009,0.0,-0.6100000143051147,-0.8600000143051147,-99.2300033569336,-0.0015869140625,-0.0556640625,1.0943603515625,36.56999969482422,0.0,40.0,2.3423004150390625,-2.6455841064453125,Closing,0.0,0.0,3.0,0.0,0.0,0.0,0.0,0.0,
3.81246100000001,0.0,0.0,85402.0,1.0,-735.0,-790.2206938606097,0.0,0.25,1.166992068,0.3904101384058137,0.0,-151654.0,2.0,750.0,790.2206938606097,0.0,0.125,0.8825682690000001,0.39290501085906326,0.0,13788.0,3.625,-765.0,-790.2206938606097,0.0,0.0,3.707275011,0.391055168883352,0.0,-25935.0,2.375,757.5,790.2206938606097,0.0,0.25,1.988525187,0.39244828907045165,0.0,-0.6000000238418579,-0.9700000286102295,-99.23999786376953,-0.01751708984375,0.0347900390625,1.02789306640625,36.56999969482422,0.0,-45.0,2.3568572998046875,-2.6396331787109375,Closing,0.0,0.0,3.0,0.0,0.0,0.0,0.0,0.0,
3.9272430000000167,0.0,0.0,85277.0,0.75,-765.0,-790.2206938606097,0.0,0.25,1.1865233160000002,0.3904101384058137,0.0,-151530.0,1.875,772.5,790.2206938606097,0.0,0.125,0.887451081,0.39290501085906326,0.0,13660.0,3.375,-795.0,-790.2206938606097,0.0,0.0,3.712157823,0.391055168883352,0.0,-25813.0,2.375,750.0,790.2206938606097,0.0,0.25,1.988525187,0.39244828907045165,0.0,-0.5600000023841858,-0.9399999976158142,-99.12999725341797,0.012939453125,0.0760498046875,1.161865234375,36.56999969482422,0.0,-91.0,2.3694915771484375,-2.6348114013671875,Closing,0.0,0.0,3.0,0.0,0.0,0.0,0.0,0.0,
4.032046000000002,0.0,0.0,85153.0,0.75,-780.0,-790.2206938606097,0.0,0.25,1.1865233160000002,0.3904101384058137,0.0,-151404.0,1.75,787.5,790.2206938606097,0.0,0.125,0.886230378,0.39290501085906326,0.0,13531.0,3.25,-802.5,-790.2206938606097,0.0,0.0,3.71093712,0.391055168883352,0.0,-25690.0,2.375,780.0,790.2206938606097,0.0,0.25,1.987304484,0.39244828907045165,0.0,-0.49000000953674316,-1.0,-99.12999725341797,-0.03106689453125,-0.02374267578125,1.24713134765625,36.58000183105469,0.0,14.0,2.3811492919921875,-2.629638671875,Closing,0.0,0.0,3.0,0.0,0.0,0.0,0.0,0.125,
4.144882000000012,0.0,0.0,85024.0,0.75,-787.5,-790.2206938606097,0.0,0.25,1.193847534,0.3904101384058137,0.0,-151277.0,1.625,795.0,790.2206938606097,0.0,0.125,0.886230378,0.39290501085906326,0.0,13401.0,3.125,-817.5,-790.2206938606097,0.0,0.0,3.713378526,0.391055168883352,0.0,-25563.0,2.25,787.5,790.2206938606097,0.0,0.25,1.979980266,0.39244828907045165,0.0,-0.47999998927116394,-1.059999942779541,-99.06999969482422,0.01007080078125,-0.0386962890625,0.9844970703125,36.58000183105469,0.0,25.0,2.3900299072265625,-2.6246337890625,Closing,0.0,0.0,3.0,0.0,0.0,0.0,0.0,0.125,
4.250872000000003,0.0,0.0,85024.0,0.75,-795.0,-790.2206938606097,0.0,0.25,1.1865233160000002,0.3904101384058137,0.0,-151149.0,1.625,795.0,790.2206938606097,0.0,0.125,0.886230378,0.39290501085906326,0.0,13269.0,3.125,-810.0,-790.2206938606097,0.0,0.0,3.712157823,0.391055168883352,0.0,-25437.0,2.0,787.5,790.2206938606097,0.0,0.25,1.9982908110000002,0.39244828907045165,0.0,-0.5,-1.1200000047683716,-99.06999969482422,0.00164794921875,-0.04046630859375,0.92120361328125,36.58000183105469,0.0,28.0,2.390106201171875,-2.6202850341796875,Closing,0.0,0.0,3.0,0.0,0.0,0.0,0.0,0.125,
4.354449000000022,0.0,0.0,84897.0,0.0,-675.0,0.0,0.0,0.25,1.1865233160000002,0.3904101384058137,0.0,-151042.0,0.0,690.0,0.0,0.0,0.125,0.887451081,0.39290501085906326,0.0,13176.0,0.0,-697.5,0.0,0.0,0.0,3.6877437630000003,0.391055168883352,0.0,-25323.0,0.125,645.0,0.0,0.0,0.125,2.0117185440000003,0.39244828907045165,0.0,-0.3400000035762787,-0.8500000238418579,-99.04000091552734,0.16229248046875,0.21942138671875,1.15289306640625,36.58000183105469,0.0,-251.0,2.3892822265625,-2.6150665283203125,Closing,0.0,0.0,3.0,0.0,0.0,0.0,0.0,0.125,
4.468205000000016,0.0,0.0,84802.0,0.0,-615.0,0.0,0.0,0.25,1.1901854250000001,0.3904101384058137,0.0,-150943.0,0.0,637.5,0.0,0.0,0.125,0.886230378,0.39290501085906326,0.0,13176.0,0.0,-600.0,0.0,0.0,0.0,3.702392199,0.391055168883352,0.0,-25225.0,0.125,645.0,0.0,0.0,0.125,2.0166013560000002,0.39244828907045165,0.0,0.10000000149011612,-0.27000001072883606,-98.97000122070312,0.169677734375,-6.7138671875E-4,0.86431884765625,36.56999969482422,0.0,-24.0,2.379547119140625,-2.60418701171875,Closing,0.0,0.0,3.0,0.0,0.0,0.0,0.0,0.0,
4.575138000000006,0.0,0.0,84709.0,0.0,-510.0,0.0,0.0,0.25,1.1914061280000001,0.3904101384058137,0.0,-150864.0,0.0,510.0,0.0,0.0,0.125,0.8959960020000001,0.39290501085906326,0.0,13077.0,0.0,-502.5,0.0,0.0,0.0,3.7268062590000004,0.391055168883352,0.0,-25149.0,0.125,472.5,0.0,0.0,0.125,2.0166013560000002,0.39244828907045165,0.0,0.3100000023841858,0.05999999865889549,-98.93000030517578,0.04339599609375,0.057861328125,0.98529052734375,36.56999969482422,0.0,-58.0,2.3707733154296875,-2.5898284912109375,Closing,0.0,0.0,3.0,0.0,0.0,0.0,0.0,0.125,
4.6770170000000215,0.0,0.0,84641.0,0.0,-375.0,0.0,0.0,0.25,1.1865233160000002,0.3904101384058137,0.0,-150864.0,0.0,367.5,0.0,0.0,0.0,0.8972167050000001,0.39290501085906326,0.0,13007.0,0.0,-345.0,0.0,0.0,0.0,3.7402339920000003,0.391055168883352,0.0,-25092.0,0.125,390.0,0.0,0.0,0.125,2.0166013560000002,0.39244828907045165,0.0,0.5600000023841858,0.46000000834465027,-98.9800033569336,0.05462646484375,0.02752685546875,1.18170166015625,36.56999969482422,0.0,-22.0,2.3679962158203125,-2.5704193115234375,Closing,0.0,0.0,3.0,0.0,0.0,0.0,0.0,0.125,
4.787639000000024,0.0,0.0,84600.0,0.0,-232.5,0.0,0.0,0.25,1.1865233160000002,0.3904101384058137,0.0,-150810.0,0.0,232.5,0.0,0.0,0.0,0.886230378,0.39290501085906326,0.0,12958.0,0.0,-262.5,0.0,0.0,0.0,3.752441022,0.391055168883352,0.0,-25092.0,0.125,247.5,0.0,0.0,0.125,2.0129392470000003,0.39244828907045165,0.0,0.7699999809265137,0.7699999809265137,-99.0199966430664,0.0704345703125,0.05303955078125,1.01275634765625,36.56999969482422,0.0,-47.0,2.36212158203125,-2.5462188720703125,Closing,0.0,0.0,3.0,0.0,0.0,0.0,0.0,0.0,
4.8900550000000225,0.0,0.0,84586.0,0.0,-82.5,0.0,0.0,0.25,1.1865233160000002,0.3904101384058137,0.0,-150781.0,0.0,97.5,0.0,0.0,0.125,0.886230378,0.39290501085906326,0.0,12937.0,0.0,-75.0,0.0,0.0,0.0,3.752441022,0.391055168883352,0.0,-25060.0,0.125,97.5,0.0,0.0,0.25,2.0117185440000003,0.39244828907045165,0.0,0.9900000095367432,1.1100000143051147,-99.12999725341797,0.05963134765625,0.06011962890625,1.08184814453125,36.56999969482422,0.0,-46.0,2.3506927490234375,-2.5139312744140625,Closing,0.0,0.0,3.0,0.0,0.0,0.0,0.0,0.125,
4.993986000000004,0.0,0.0,84586.0,0.0,0.0,0.0,0.0,0.25,1.1865233160000002,0.3904101384058137,0.0,-150775.0,0.0,7.5,0.0,0.0,0.125,0.885009675,0.39290501085906326,0.0,12936.0,0.0,-7.5,0.0,0.0,0.0,3.752441022,0.391055168883352,0.0,-25051.0,0.125,7.5,0.0,0.0,0.125,2.0117185440000003,0.39244828907045165,0.0,1.0199999809265137,1.100000023841858,-99.05999755859375,-0.00238037109375,0.00457763671875,1.02972412109375,36.54999923706055,0.0,17.0,2.345428466796875,-2.505340576171875,Closing,0.0,0.0,3.0,0.0,0.0,0.0,0.0,0.125,
5.09497100000002,0.0,0.0,84586.0,0.0,0.0,0.0,0.0,0.25,1.1865233160000002,0.3904101384058137,0.0,-150775.0,0.0,0.0,0.0,0.0,0.125,0.887451081,0.39290501085906326,0.0,12936.0,0.0,0.0,0.0,0.0,0.0,3.751220319,0.391055168883352,0.0,-25051.0,0.125,0.0,0.0,0.0,0.125,2.0117185440000003,0.39244828907045165,0.0,0.9599999785423279,0.949999988079071,-99.08999633789062,-0.03265380859375,6.103515625E-5,1.01416015625,36.54999923706055,0.0,24.0,2.3460845947265625,-2.50653076171875,Closing,0.0,0.0,3.0,0.0,0.0,0.0,0.0,0.125,
5.202038000000001,0.0,0.0,84586.0,0.0,0.0,0.0,0.0,0.25,1.1877440190000002,0.3904101384058137,0.0,-150775.0,0.0,0.0,0.0,0.0,0.125,0.886230378,0.39290501085906326,0.0,12936.0,0.0,0.0,0.0,0.0,0.0,3.7475582100000002,0.391055168883352,0.0,-25051.0,0.125,0.0,0.0,0.0,0.125,2.0117185440000003,0.39244828907045165,0.0,0.8700000047683716,0.75,-99.05999755859375,-0.02984619140625,0.0028076171875,1.03594970703125,36.54999923706055,0.0,19.0,2.3482666015625,-2.511199951171875,Closing,0.0,0.0,3.0,0.0,0.0,0.0,0.0,0.0,
5.310957000000024,0.0,0.0,84586.0,0.0,0.0,0.0,0.0,0.125,1.1865233160000002,0.3904101384058137,0.0,-150775.0,0.0,0.0,0.0,0.0,0.125,0.886230378,0.39290501085906326,0.0,12936.0,0.0,0.0,0.0,0.0,0.0,3.7475582100000002,0.391055168883352,0.0,-25051.0,0.125,0.0,0.0,0.0,0.125,2.0117185440000003,0.39244828907045165,0.0,0.800000011920929,0.5600000023841858,-99.06999969482422,-0.013427734375,-0.00384521484375,1.00640869140625,36.54999923706055,0.0,21.0,2.3526153564453125,-2.517852783203125,Closing,0.0,0.0,3.0,0.0,0.0,0.0,0.0,0.125,
5.424760000000009,0.0,0.0,84586.0,0.0,0.0,0.0,0.0,0.25,1.1865233160000002,0.3904101384058137,0.0,-150775.0,0.0,0.0,0.0,0.0,0.125,0.886230378,0.39290501085906326,0.0,12936.0,0.0,0.0,0.0,0.0,0.0,3.7463375070000002,0.391055168883352,0.0,-25051.0,0.125,0.0,0.0,0.0,0.125,2.0117185440000003,0.39244828907045165,0.0,0.7799999713897705,0.47999998927116394,-99.08000183105469,-0.00445556640625,0.011962890625,1.02081298828125,36.54999923706055,0.0,3.0,2.3539581298828125,-2.5200653076171875,Closing,0.0,0.0,3.0,0.0,0.0,0.0,0.0,0.0,
5.532078000000008,0.0,0.0,84586.0,0.0,0.0,0.0,0.0,0.125,1.1865233160000002,0.3904101384058137,0.0,-150775.0,0.0,0.0,0.0,0.0,0.125,0.886230378,0.39290501085906326,0.0,12936.0,0.0,0.0,0.0,0.0,0.0,3.7463375070000002,0.391055168883352,0.0,-25051.0,0.125,0.0,0.0,0.0,0.125,2.0117185440000003,0.39244828907045165,0.0,0.7400000095367432,0.38999998569488525,-99.08000183105469,-0.0155029296875,0.00701904296875,1.02020263671875,36.5099983215332,0.0,9.0,2.3539581298828125,-2.5202178955078125,Closing,0.0,0.0,3.0,0.0,0.0,0.0,0.0,0.125,
5.636928000000014,0.0,0.0,84586.0,0.0,0.0,0.0,0.0,0.125,1.1865233160000002,0.3904101384058137,0.0,-150775.0,0.0,0.0,0.0,0.0,0.125,0.886230378,0.39290501085906326,0.0,12936.0,0.0,0.0,0.0,0.0,0.0,3.7463375070000002,0.391055168883352,0.0,-25051.0,0.125,0.0,0.0,0.0,0.125,2.0117185440000003,0.39244828907045165,0.0,0.7099999785423279,0.30000001192092896,-99.08000183105469,-0.0120849609375,0.00689697265625,1.01739501953125,36.5099983215332,0.0,8.0,2.3539581298828125,-2.521026611328125,Closing,0.0,0.0,3.0,0.0,0.0,0.0,0.0,0.125,
5.745114000000002,0.0,0.0,84586.0,0.0,0.0,0.0,0.0,0.25,1.1865233160000002,0.3904101384058137,0.0,-150775.0,0.0,0.0,0.0,0.0,0.125,0.887451081,0.39290501085906326,0.0,12936.0,0.0,0.0,0.0,0.0,0.0,3.7463375070000002,0.391055168883352,0.0,-25051.0,0.125,0.0,0.0,0.0,0.125,2.0117185440000003,0.39244828907045165,0.0,0.6899999976158142,0.23000000417232513,-99.08000183105469,-0.00909423828125,0.00823974609375,1.02130126953125,36.5099983215332,0.0,6.0,2.3539581298828125,-2.521026611328125,Closing,0.0,0.0,3.0,0.0,0.0,0.0,0.0,0.125,
5.848856,0.0,0.0,84586.0,0.0,0.0,0.0,0.0,0.25,1.1865233160000002,0.3904101384058137,0.0,-150775.0,0.0,0.0,0.0,0.0,0.125,0.887451081,0.39290501085906326,0.0,12936.0,0.0,0.0,0.0,0.0,0.0,3.7475582100000002,0.391055168883352,0.0,-25051.0,0.125,0.0,0.0,0.0,0.125,2.0117185440000003,0.39244828907045165,0.0,0.6700000166893005,0.1599999964237213,-99.08000183105469,-0.01287841796875,0.00762939453125,1.0194091796875,36.5099983215332,0.0,6.0,2.3539581298828125,-2.521026611328125,Closing,0.0,0.0,3.0,0.0,0.0,0.0,0.0,0.0,
5.950019,0.0,0.0,84586.0,0.0,0.0,0.0,0.0,0.25,1.1865233160000002,0.3904101384058137,0.0,-150775.0,0.0,0.0,0.0,0.0,0.125,0.886230378,0.39290501085906326,0.0,12936.0,0.0,0.0,0.0,0.0,0.0,3.7475582100000002,0.391055168883352,0.0,-25051.0,0.125,0.0,0.0,0.0,0.125,2.0117185440000003,0.39244828907045165,0.0,0.6499999761581421,0.09000000357627869,-99.08999633789062,-0.0096435546875,0.00811767578125,1.01739501953125,36.5099983215332,0.0,5.0,2.3539581298828125,-2.521026611328125,Closing,0.0,0.0,3.0,0.0,0.0,0.0,0.0,0.125,
6.057559000000008,0.0,0.0,84586.0,0.0,0.0,0.0,0.0,0.25,1.1865233160000002,0.3904101384058137,0.0,-150775.0,0.0,0.0,0.0,0.0,0.125,0.887451081,0.39290501085906326,0.0,12936.0,0.0,0.0,0.0,0.0,0.0,3.7463375070000002,0.391055168883352,0.0,-25051.0,0.125,0.0,0.0,0.0,0.25,2.0117185440000003,0.39244828907045165,0.0,0.6299999952316284,0.03999999910593033,-99.08999633789062,-0.01104736328125,0.00860595703125,1.0242919921875,36.5099983215332,0.0,4.0,2.3539581298828125,-2.521026611328125,Closing,0.0,0.0,3.0,0.0,0.0,0.0,0.0,0.125,
6.163139000000025,0.0,0.0,84586.0,0.0,0.0,0.0,0.0,0.25,1.1865233160000002,0.3904101384058137,0.0,-150775.0,0.0,0.0,0.0,0.0,0.125,0.887451081,0.39290501085906326,0.0,12936.0,0.0,0.0,0.0,0.0,0.0,3.7463375070000002,0.391055168883352,0.0,-25051.0,0.125,0.0,0.0,0.0,0.125,2.0129392470000003,0.39244828907045165,0.0,0.6100000143051147,0.0,-99.08999633789062,-0.01043701171875,0.0062255859375,1.02423095703125,36.5099983215332,0.0,6.0,2.3539581298828125,-2.521026611328125,Closing,0.0,0.0,3.0,0.0,0.0,0.0,0.0,0.125,
6.271331000000005,0.0,0.0,84586.0,0.0,0.0,0.0,0.0,0.25,1.1914061280000001,0.3904101384058137,0.0,-150775.0,0.0,0.0,0.0,0.0,0.125,0.886230378,0.39290501085906326,0.0,12936.0,0.0,0.0,0.0,0.0,0.0,3.7463375070000002,0.391055168883352,0.0,-25051.0,0.125,0.0,0.0,0.0,0.125,2.0117185440000003,0.39244828907045165,0.0,0.5899999737739563,-0.05000000074505806,-99.08999633789062,-0.0108642578125,0.00567626953125,1.0177001953125,36.5099983215332,0.0,6.0,2.3539581298828125,-2.521026611328125,Closing,0.0,0.0,3.0,0.0,0.0,0.0,0.0,0.125,
6.375255000000005,0.0,0.0,84586.0,0.0,0.0,0.0,0.0,0.25,1.1865233160000002,0.3904101384058137,0.0,-150775.0,0.0,0.0,0.0,0.0,0.125,0.887451081,0.39290501085906326,0.0,12936.0,0.0,0.0,0.0,0.0,0.0,3.7451168040000002,0.391055168883352,0.0,-25051.0,0.125,0.0,0.0,0.0,0.125,2.0117185440000003,0.39244828907045165,0.0,0.5799999833106995,-0.10999999940395355,-99.08999633789062,-0.010986328125,0.00665283203125,1.0145263671875,36.5099983215332,0.0,5.0,2.3539581298828125,-2.521026611328125,Closing,0.0,0.0,3.0,0.0,0.0,0.0,0.0,0.125,
6.478060999999987,0.0,0.0,84586.0,0.0,0.0,0.0,0.0,0.25,1.1865233160000002,0.3904101384058137,0.0,-150775.0,0.0,0.0,0.0,0.0,0.125,0.886230378,0.39290501085906326,0.0,12936.0,0.0,0.0,0.0,0.0,0.0,3.7475582100000002,0.391055168883352,0.0,-25051.0,0.125,0.0,0.0,0.0,0.125,2.0117185440000003,0.39244828907045165,0.0,0.5600000023841858,-0.15000000596046448,-99.08999633789062,-0.0142822265625,0.00830078125,1.02374267578125,36.5099983215332,0.0,3.0,2.3539581298828125,-2.521026611328125,Closing,0.0,0.0,3.0,0.0,0.0,0.0,0.0,0.125,
6.588508000000031,0.0,0.0,84586.0,0.0,0.0,0.0,0.0,0.25,1.1865233160000002,0.3904101384058137,0.0,-150775.0,0.0,0.0,0.0,0.0,0.125,0.886230378,0.39290501085906326,0.0,12936.0,0.0,0.0,0.0,0.0,0.0,3.7451168040000002,0.391055168883352,0.0,-25051.0,0.125,0.0,0.0,0.0,0.125,2.0117185440000003,0.39244828907045165,0.0,0.550000011920929,-0.20000000298023224,-99.0999984741211,-0.0159912109375,0.00726318359375,1.0235595703125,36.5,0.0,4.0,2.3539581298828125,-2.521026611328125,Closing,0.0,0.0,3.0,0.0,0.0,0.0,0.0,0.125,
6.6954430000000285,0.0,0.0,84586.0,0.0,0.0,0.0,0.0,0.25,1.1865233160000002,0.3904101384058137,0.0,-150775.0,0.0,0.0,0.0,0.0,0.125,0.886230378,0.39290501085906326,0.0,12936.0,0.0,0.0,0.0,0.0,0.0,3.7463375070000002,0.391055168883352,0.0,-25051.0,0.125,0.0,0.0,0.0,0.125,2.0117185440000003,0.39244828907045165,0.0,0.5400000214576721,-0.23000000417232513,-99.0999984741211,-0.0120849609375,0.004638671875,1.0126953125,36.5,0.0,6.0,2.3539581298828125,-2.521026611328125,Closing,0.0,0.0,3.0,0.0,0.0,0.0,0.0,0.125,
6.805233000000007,0.0,0.0,84586.0,0.0,0.0,0.0,0.0,0.25,1.1865233160000002,0.3904101384058137,0.0,-150775.0,0.0,0.0,0.0,0.0,0.125,0.886230378,0.39290501085906326,0.0,12936.0,0.0,0.0,0.0,0.0,0.0,3.7463375070000002,0.391055168883352,0.0,-25051.0,0.125,0.0,0.0,0.0,0.125,2.0117185440000003,0.39244828907045165,0.0,0.5299999713897705,-0.27000001072883606,-99.0999984741211,-0.0111083984375,0.01092529296875,1.0155029296875,36.5,0.0,0.0,2.3539581298828125,-2.521026611328125,Closing,0.0,0.0,3.0,0.0,0.0,0.0,0.0,0.0,
6.912842000000004,0.0,0.0,84586.0,0.0,0.0,0.0,0.0,0.25,1.1865233160000002,0.3904101384058137,0.0,-150775.0,0.0,0.0,0.0,0.0,0.125,0.886230378,0.39290501085906326,0.0,12936.0,0.0,0.0,0.0,0.0,0.0,3.7463375070000002,0.391055168883352,0.0,-25051.0,0.125,0.0,0.0,0.0,0.125,2.0117185440000003,0.39244828907045165,0.0,0.5199999809265137,-0.30000001192092896,-99.0999984741211,-0.00799560546875,0.0064697265625,1.0179443359375,36.5,0.0,3.0,2.3539581298828125,-2.521026611328125,Closing,0.0,0.0,3.0,0.0,0.0,0.0,0.0,0.125,
7.016063000000024,0.0,0.0,84586.0,0.0,0.0,0.0,0.0,0.25,1.1865233160000002,0.3904101384058137,0.0,-150775.0,0.0,0.0,0.0,0.0,0.125,0.887451081,0.39290501085906326,0.0,12936.0,0.0,0.0,0.0,0.0,0.0,3.7451168040000002,0.391055168883352,-0.0012207029999999897,-25051.0,0.125,0.0,0.0,0.0,0.125,2.0129392470000003,0.39244828907045165,0.0,0.5099999904632568,-0.33000001311302185,-99.0999984741211,-0.010986328125,0.0059814453125,1.0196533203125,36.52000045776367,0.0,3.0,2.3539581298828125,-2.521026611328125,Closing,0.0,0.0,3.0,0.0,0.0,0.0,0.0,0.0,
7.123429000000003,0.0,0.0,84586.0,0.0,0.0,0.0,0.0,0.25,1.1865233160000002,0.3904101384058137,0.0,-150775.0,0.0,0.0,0.0,0.0,0.125,0.886230378,0.39290501085906326,0.0,12936.0,0.0,0.0,0.0,0.0,0.0,3.7463375070000002,0.391055168883352,0.0,-25051.0,0.125,0.0,0.0,0.0,0.125,2.0104978410000003,0.39244828907045165,0.0,0.5,-0.3499999940395355,-99.0999984741211,-0.01300048828125,0.00762939453125,1.025634765625,36.52000045776367,0.0,2.0,2.3539581298828125,-2.521026611328125,Closing,0.0,0.0,3.0,0.0,0.0,0.0,0.0,0.125,
7.2302129999999885,0.0,0.0,84586.0,0.0,0.0,0.0,0.0,0.25,1.1865233160000002,0.3904101384058137,-0.0024414059999999793,-150775.0,0.0,0.0,0.0,0.0,0.125,0.886230378,0.39290501085906326,0.0,12936.0,0.0,0.0,0.0,0.0,0.0,3.7463375070000002,0.391055168883352,0.0,-25051.0,0.125,0.0,0.0,0.0,0.125,2.0129392470000003,0.39244828907045165,0.0,0.49000000953674316,-0.3799999952316284,-99.0999984741211,-0.01190185546875,0.0062255859375,1.02020263671875,36.52000045776367,0.0,3.0,2.3539581298828125,-2.521026611328125,Closing,0.0,0.0,3.0,0.0,0.0,0.0,0.0,0.125,
7.332810999999987,0.0,0.0,84586.0,0.0,0.0,0.0,0.0,0.25,1.1865233160000002,0.3904101384058137,0.0012207029999999897,-150775.0,0.0,0.0,0.0,0.0,0.125,0.886230378,0.39290501085906326,0.0,12936.0,0.0,0.0,0.0,0.0,0.0,3.7463375070000002,0.391055168883352,0.0,-25051.0,0.125,0.0,0.0,0.0,0.125,2.0129392470000003,0.39244828907045165,0.0,0.49000000953674316,-0.4000000059604645,-99.0999984741211,-0.0111083984375,0.008056640625,1.0159912109375,36.52000045776367,0.0,1.0,2.3539581298828125,-2.521026611328125,Closing,0.0,0.0,3.0,0.0,0.0,0.0,0.0,0.125,
7.436006999999983,0.0,0.0,84586.0,0.0,0.0,0.0,0.0,0.25,1.1865233160000002,0.3904101384058137,0.0,-150775.0,0.0,0.0,0.0,0.0,0.125,0.886230378,0.39290501085906326,0.0,12936.0,0.0,0.0,0.0,0.0,0.0,3.7463375070000002,0.391055168883352,0.0,-25051.0,0.125,0.0,0.0,0.0,0.125,2.0129392470000003,0.39244828907045165,0.0,0.49000000953674316,-0.41999998688697815,-99.0999984741211,-0.01385498046875,0.00628662109375,1.02716064453125,36.52000045776367,0.0,3.0,2.3539581298828125,-2.521026611328125,Closing,0.0,0.0,3.0,0.0,0.0,0.0,0.0,0.125,
7.546594000000041,0.0,0.0,84586.0,0.0,0.0,0.0,0.0,0.125,1.1865233160000002,0.3904101384058137,0.0,-150775.0,0.0,0.0,0.0,0.0,0.125,0.885009675,0.39290501085906326,0.0,12936.0,0.0,0.0,0.0,0.0,0.0,3.7475582100000002,0.391055168883352,0.0,-25051.0,0.125,0.0,0.0,0.0,0.125,2.0117185440000003,0.39244828907045165,0.0,0.47999998927116394,-0.4399999976158142,-99.0999984741211,-0.0140380859375,0.010498046875,1.017333984375,36.529998779296875,0.0,0.0,2.3539581298828125,-2.521026611328125,Closing,0.0,0.0,3.0,0.0,0.0,0.0,0.0,0.125,
7.6501350000000095,0.0,0.0,84586.0,0.0,0.0,0.0,0.0,0.25,1.1865233160000002,0.3904101384058137,0.0,-150775.0,0.0,0.0,0.0,0.0,0.125,0.887451081,0.39290501085906326,0.0,12936.0,0.0,0.0,0.0,0.0,0.0,3.7463375070000002,0.391055168883352,0.0,-25051.0,0.125,0.0,0.0,0.0,0.125,2.0117185440000003,0.39244828907045165,0.0,0.4699999988079071,-0.46000000834465027,-99.0999984741211,-0.01153564453125,0.0052490234375,1.02081298828125,36.529998779296875,0.0,3.0,2.3539581298828125,-2.521026611328125,Closing,0.0,0.0,3.0,0.0,0.0,0.0,0.0,0.125,
7.753053000000015,0.0,0.0,84586.0,0.0,0.0,0.0,0.0,0.25,1.1914061280000001,0.3904101384058137,0.0,-150775.0,0.0,0.0,0.0,0.0,0.125,0.887451081,0.39290501085906326,0.0,12936.0,0.0,0.0,0.0,0.0,0.0,3.7463375070000002,0.391055168883352,0.0,-25051.0,0.125,0.0,0.0,0.0,0.125,2.0117185440000003,0.39244828907045165,0.0,0.4699999988079071,-0.47999998927116394,-99.0999984741211,-0.0130615234375,0.0067138671875,1.02105712890625,36.529998779296875,0.0,2.0,2.3539581298828125,-2.521026611328125,Closing,0.0,0.0,3.0,0.0,0.0,0.0,0.0,0.0,
7.857613000000012,0.0,0.0,84586.0,0.0,0.0,0.0,0.0,0.25,1.1865233160000002,0.3904101384058137,0.0,-150775.0,0.0,0.0,0.0,0.0,0.125,0.887451081,0.39290501085906326,0.0,12936.0,0.0,0.0,0.0,0.0,0.0,3.7463375070000002,0.391055168883352,0.0,-25051.0,0.125,0.0,0.0,0.0,0.125,2.0117185440000003,0.39244828907045165,0.0,0.46000000834465027,-0.49000000953674316,-99.11000061035156,-0.01080322265625,0.0050048828125,1.01788330078125,36.529998779296875,0.0,3.0,2.3539581298828125,-2.521026611328125,Closing,0.0,0.0,3.0,0.0,0.0,0.0,0.0,0.125,
7.976037000000011,0.0,0.0,84586.0,0.0,0.0,0.0,0.0,0.25,1.1865233160000002,0.3904101384058137,0.0,-150775.0,0.0,0.0,0.0,0.0,0.125,0.886230378,0.39290501085906326,0.0,12936.0,0.0,0.0,0.0,0.0,0.0,3.7463375070000002,0.391055168883352,0.0,-25051.0,0.125,0.0,0.0,0.0,0.125,2.0129392470000003,0.39244828907045165,0.0,0.46000000834465027,-0.5,-99.11000061035156,-0.01214599609375,0.006103515625,1.02093505859375,36.529998779296875,0.0,2.0,2.3539581298828125,-2.521026611328125,Closing,0.0,0.0,3.0,0.0,0.0,0.0,0.0,0.125,
8.086652000000003,0.0,0.0,84586.0,0.0,0.0,0.0,0.0,0.25,1.1877440190000002,0.3904101384058137,-0.0012207029999999897,-150775.0,0.0,0.0,0.0,0.0,0.125,0.887451081,0.39290501085906326,0.0,12936.0,0.0,0.0,0.0,0.0,0.0,3.7463375070000002,0.391055168883352,0.0,-25051.0,0.125,0.0,0.0,0.0,0.125,2.0129392470000003,0.39244828907045165,0.0,0.44999998807907104,-0.5099999904632568,-99.11000061035156,-0.01153564453125,0.0057373046875,1.01873779296875,36.56999969482422,0.0,2.0,2.3539581298828125,-2.521026611328125,Closing,0.0,0.0,3.0,0.0,0.0,0.0,0.0,0.125,
8.189105000000039,0.0,0.0,84586.0,0.0,0.0,0.0,0.0,0.25,1.1865233160000002,0.3904101384058137,0.0,-150775.0,0.0,0.0,0.0,0.0,0.125,0.887451081,0.39290501085906326,0.0,12936.0,0.0,0.0,0.0,0.0,0.0,3.7463375070000002,0.391055168883352,0.0,-25051.0,0.125,0.0,0.0,0.0,0.125,2.0117185440000003,0.39244828907045165,0.0,0.44999998807907104,-0.5199999809265137,-99.11000061035156,-0.01104736328125,0.0072021484375,1.0196533203125,36.56999969482422,0.0,1.0,2.3539581298828125,-2.521026611328125,Closing,0.0,0.0,3.0,0.0,0.0,0.0,0.0,0.125,
8.291970000000031,0.0,0.0,84586.0,0.0,0.0,0.0,0.0,0.25,1.1865233160000002,0.3904101384058137,0.0,-150775.0,0.0,0.0,0.0,0.0,0.125,0.886230378,0.39290501085906326,0.0,12936.0,0.0,0.0,0.0,0.0,0.0,3.7463375070000002,0.391055168883352,0.0,-25051.0,0.125,0.0,0.0,0.0,0.125,2.0117185440000003,0.39244828907045165,0.0,0.44999998807907104,-0.5299999713897705,-99.11000061035156,-0.0125732421875,0.00518798828125,1.0166015625,36.56999969482422,0.0,3.0,2.3539581298828125,-2.521026611328125,Closing,0.0,0.0,3.0,0.0,0.0,0.0,0.0,0.125,
8.394991000000038,0.0,0.0,84586.0,0.0,0.0,0.0,0.0,0.25,1.1914061280000001,0.3904101384058137,0.0,-150775.0,0.0,0.0,0.0,0.0,0.125,0.886230378,0.39290501085906326,0.0,12936.0,0.0,0.0,0.0,0.0,0.0,3.7463375070000002,0.391055168883352,0.0,-25051.0,0.125,0.0,0.0,0.0,0.125,2.0117185440000003,0.39244828907045165,0.0,0.44999998807907104,-0.5400000214576721,-99.11000061035156,-0.01275634765625,0.0079345703125,1.01971435546875,36.56999969482422,0.0,0.0,2.3539581298828125,-2.521026611328125,Closing,0.0,0.0,3.0,0.0,0.0,0.0,0.0,0.125,
8.507494000000007,0.0,0.0,84586.0,0.0,0.0,0.0,0.0,0.25,1.1865233160000002,0.3904101384058137,0.0,-150775.0,0.0,0.0,0.0,0.0,0.125,0.887451081,0.39290501085906326,0.0,12936.0,0.0,0.0,0.0,0.0,0.0,3.7475582100000002,0.391055168883352,0.0,-25051.0,0.125,0.0,0.0,0.0,0.125,2.0117185440000003,0.39244828907045165,0.0,0.44999998807907104,-0.550000011920929,-99.11000061035156,-0.01068115234375,0.0067138671875,1.02117919921875,36.56999969482422,0.0,1.0,2.3539581298828125,-2.521026611328125,Closing,0.0,0.0,3.0,0.0,0.0,0.0,0.0,0.125,
8.615272999999986,0.0,0.0,84586.0,0.0,0.0,0.0,0.0,0.25,1.1865233160000002,0.3904101384058137,0.0,-150775.0,0.0,0.0,0.0,0.0,0.125,0.886230378,0.39290501085906326,0.0,12936.0,0.0,0.0,0.0,0.0,0.0,3.7451168040000002,0.391055168883352,0.0,-25051.0,0.125,0.0,0.0,0.0,0.125,2.0117185440000003,0.39244828907045165,0.0,0.4399999976158142,-0.5600000023841858,-99.12000274658203,-0.0125732421875,0.00885009765625,1.02197265625,36.560001373291016,0.0,0.0,2.3539581298828125,-2.521026611328125,Closing,0.0,0.0,3.0,0.0,0.0,0.0,0.0,0.0,
8.723467000000005,0.0,0.0,84586.0,0.0,0.0,0.0,0.0,0.25,1.1865233160000002,0.3904101384058137,0.0,-150775.0,0.0,0.0,0.0,0.0,0.125,0.887451081,0.39290501085906326,0.0,12936.0,0.0,0.0,0.0,0.0,0.0,3.7475582100000002,0.391055168883352,0.0,-25051.0,0.125,0.0,0.0,0.0,0.125,2.0117185440000003,0.39244828907045165,0.0,0.4399999976158142,-0.5600000023841858,-99.12000274658203,-0.0107421875,0.0096435546875,1.025634765625,36.560001373291016,0.0,-1.0,2.3539581298828125,-2.521026611328125,Closing,0.0,0.0,3.0,0.0,0.0,0.0,0.0,0.0,
8.831489000000001,0.0,0.0,84586.0,0.0,0.0,0.0,0.0,0.25,1.1865233160000002,0.3904101384058137,0.0,-150775.0,0.0,0.0,0.0,0.0,0.125,0.887451081,0.39290501085906326,0.0,12936.0,0.0,0.0,0.0,0.0,0.0,3.7463375070000002,0.391055168883352,0.0,-25051.0,0.125,0.0,0.0,0.0,0.125,2.0117185440000003,0.39244828907045165,0.0,0.4300000071525574,-0.5799999833106995,-99.12000274658203,-0.009521484375,0.00506591796875,1.01934814453125,36.560001373291016,0.0,2.0,2.3539581298828125,-2.521026611328125,Closing,0.0,0.0,3.0,0.0,0.0,0.0,0.0,0.0,
8.936168999999994,0.0,0.0,84586.0,0.0,0.0,0.0,0.0,0.25,1.1877440190000002,0.3904101384058137,0.0,-150775.0,0.0,0.0,0.0,0.0,0.125,0.886230378,0.39290501085906326,0.0,12936.0,0.0,0.0,0.0,0.0,0.0,3.7475582100000002,0.391055168883352,0.0,-25051.0,0.125,0.0,0.0,0.0,0.125,2.0117185440000003,0.39244828907045165,0.0,0.4300000071525574,-0.5799999833106995,-99.12000274658203,-0.010498046875,0.00567626953125,1.0203857421875,36.560001373291016,0.0,2.0,2.3539581298828125,-2.521026611328125,Closing,0.0,0.0,3.0,0.0,0.0,0.0,0.0,0.0,
9.043669999999985,0.0,0.0,84586.0,0.0,0.0,0.0,0.0,0.25,1.1853026130000002,0.3904101384058137,0.0,-150775.0,0.0,0.0,0.0,0.0,0.125,0.887451081,0.39290501085906326,0.0,12936.0,0.0,0.0,0.0,0.0,0.0,3.7475582100000002,0.391055168883352,0.0,-25051.0,0.125,0.0,0.0,0.0,0.125,2.0117185440000003,0.39244828907045165,0.0,0.4300000071525574,-0.5899999737739563,-99.12000274658203,-0.01263427734375,0.005859375,1.01922607421875,36.58000183105469,0.0,2.0,2.3539581298828125,-2.521026611328125,Closing,0.0,0.0,3.0,0.0,0.0,0.0,0.0,0.125,
9.148690000000002,0.0,0.0,84586.0,0.0,0.0,0.0,0.0,0.25,1.1865233160000002,0.3904101384058137,0.0,-150775.0,0.0,0.0,0.0,0.0,0.125,0.886230378,0.39290501085906326,0.0,12936.0,0.0,0.0,0.0,0.0,0.0,3.7463375070000002,0.391055168883352,0.0,-25051.0,0.125,0.0,0.0,0.0,0.125,2.0129392470000003,0.39244828907045165,0.0,0.4300000071525574,-0.6000000238418579,-99.12000274658203,-0.01031494140625,0.0048828125,1.01568603515625,36.58000183105469,0.0,2.0,2.3539581298828125,-2.521026611328125,Closing,0.0,0.0,3.0,0.0,0.0,0.0,0.0,0.125,
9.255679999999993,0.0,0.0,84586.0,0.0,0.0,0.0,0.0,0.25,1.1865233160000002,0.3904101384058137,0.0,-150775.0,0.0,0.0,0.0,0.0,0.125,0.886230378,0.39290501085906326,0.0,12936.0,0.0,0.0,0.0,0.0,0.0,3.7463375070000002,0.391055168883352,0.0,-25051.0,0.125,0.0,0.0,0.0,0.125,2.0117185440000003,0.39244828907045165,0.0,0.4300000071525574,-0.6100000143051147,-99.12999725341797,-0.01263427734375,0.00665283203125,1.01788330078125,36.58000183105469,0.0,1.0,2.3539581298828125,-2.521026611328125,Closing,0.0,0.0,3.0,0.0,0.0,0.0,0.0,0.0,
9.361977000000014,0.0,0.0,84586.0,0.0,0.0,0.0,0.0,0.125,1.1865233160000002,0.3904101384058137,0.0,-150775.0,0.0,0.0,0.0,0.0,0.125,0.886230378,0.39290501085906326,0.0,12936.0,0.0,0.0,0.0,0.0,0.0,3.7463375070000002,0.391055168883352,0.0,-25051.0,0.125,0.0,0.0,0.0,0.125,2.0129392470000003,0.39244828907045165,0.0,0.4300000071525574,-0.6100000143051147,-99.12999725341797,-0.0101318359375,0.0062255859375,1.02288818359375,36.58000183105469,0.0,1.0,2.3539581298828125,-2.521026611328125,Closing,0.0,0.0,3.0,0.0,0.0,0.0,0.0,0.0,
9.470629000000015,0.0,0.0,84586.0,0.0,0.0,0.0,0.0,0.25,1.1865233160000002,0.3904101384058137,0.0,-150775.0,0.0,0.0,0.0,0.0,0.125,0.887451081,0.39290501085906326,0.0,12936.0,0.0,0.0,0.0,0.0,0.0,3.7463375070000002,0.391055168883352,0.0,-25051.0,0.125,0.0,0.0,0.0,0.125,2.0117185440000003,0.39244828907045165,0.0,0.4300000071525574,-0.6100000143051147,-99.12999725341797,-0.0107421875,0.00640869140625,1.01708984375,36.58000183105469,0.0,1.0,2.3539581298828125,-2.521026611328125,Closing,0.0,0.0,3.0,0.0,0.0,0.0,0.0,0.125,
9.582375,0.0,0.0,84586.0,0.0,0.0,0.0,0.0,0.25,1.1914061280000001,0.3904101384058137,0.0,-150775.0,0.0,0.0,0.0,0.0,0.125,0.887451081,0.39290501085906326,0.0,12936.0,0.0,0.0,0.0,0.0,0.0,3.7451168040000002,0.391055168883352,0.0,-25051.0,0.125,0.0,0.0,0.0,0.125,2.0117185440000003,0.39244828907045165,0.0,0.41999998688697815,-0.6200000047683716,-99.12999725341797,-0.01031494140625,0.00439453125,1.020263671875,36.58000183105469,0.0,3.0,2.3539581298828125,-2.521026611328125,Closing,0.0,0.0,3.0,0.0,0.0,0.0,0.0,0.125,
9.69554700000002,0.0,0.0,84586.0,0.0,0.0,0.0,0.0,0.875,1.088867076,0.01,0.0,-150775.0,0.0,0.0,-0.0,0.0,0.875,0.8666991300000001,0.01,0.0,12936.0,0.0,0.0,0.0,0.0,0.75,3.594970335,0.01,0.0,-25051.0,0.125,0.0,-0.0,0.0,1.25,1.878661917,0.01,0.0,0.4399999976158142,-0.6100000143051147,-99.12999725341797,-0.04010009765625,-0.03082275390625,1.0006103515625,36.58000183105469,0.0,42.0,2.3539276123046875,-2.5210418701171875,Closing,0.0,0.0,3.0,0.0,0.0,0.0,0.0,0.0,
9.81094200000004,0.0,0.0,84586.0,0.0,0.0,0.0,0.0,0.375,0.8569335060000001,0.01,0.0,-150775.0,0.0,0.0,-0.0,0.0,0.5,0.557861271,0.01,0.0,12936.0,0.0,0.0,0.0,0.0,0.25,3.397216449,0.01,0.0,-25051.0,0.125,0.0,-0.0,0.0,0.5,1.638183426,0.01,0.0,0.4399999976158142,-0.6100000143051147,-99.2300033569336,-0.00640869140625,-0.01318359375,1.025390625,36.58000183105469,0.0,20.0,2.35406494140625,-2.5211334228515625,Closing,0.0,0.0,3.0,0.0,0.0,0.0,0.0,0.125,
9.928665000000038,0.0,0.0,84586.0,0.0,0.0,0.0,0.0,0.25,0.808105386,0.01,0.0,-150775.0,0.0,0.0,-0.0,0.0,0.25,0.444335892,0.01,0.0,12936.0,0.0,0.0,0.0,0.0,0.125,3.333739893,0.01,0.0,-25051.0,0.125,7.5,-0.0,0.0,0.25,1.6369627230000001,0.01,0.0,0.4300000071525574,-0.6200000047683716,-99.2300033569336,-0.01849365234375,0.00537109375,1.02911376953125,36.58000183105469,0.0,3.0,2.3541412353515625,-2.5211334228515625,Closing,0.0,0.0,3.0,0.0,0.0,0.0,0.0,0.125,
10.045377000000038,0.0,0.0,84586.0,0.0,0.0,0.0,0.0,0.25,0.808105386,0.01,0.0,-150775.0,0.0,0.0,-0.0,0.0,0.25,0.496826121,0.01,0.0,12936.0,0.0,0.0,0.0,0.0,0.0,3.333739893,0.01,0.0,-25051.0,0.125,0.0,-0.0,0.0,0.125,1.695556467,0.01,0.0,0.4300000071525574,-0.6200000047683716,-99.19999694824219,-0.00787353515625,0.01019287109375,1.01861572265625,36.58000183105469,0.0,-2.0,2.3541412353515625,-2.5211334228515625,Closing,0.0,0.0,3.0,0.0,0.0,0.0,0.0,0.125,
10.155863000000013,0.0,0.0,84586.0,0.0,0.0,0.0,0.0,0.25,0.808105386,0.01,0.0,-150775.0,0.0,0.0,-0.0,0.0,0.125,0.522460884,0.01,0.0,12936.0,0.0,0.0,0.0,0.0,0.0,3.333739893,0.01,0.0,-25051.0,0.125,0.0,-0.0,0.0,0.25,1.6857908430000001,0.01,0.0,0.41999998688697815,-0.6299999952316284,-99.19000244140625,-0.01739501953125,0.00958251953125,1.01922607421875,36.56999969482422,0.0,-1.0,2.3541412353515625,-2.5211334228515625,Closing,0.0,0.0,3.0,0.0,0.0,0.0,0.0,0.125,
10.27263500000001,0.0,0.0,84586.0,0.0,0.0,0.0,0.0,0.25,0.808105386,0.01,0.0,-150775.0,0.0,0.0,-0.0,0.0,0.0,0.522460884,0.01,0.0,12936.0,0.0,0.0,0.0,0.0,0.0,3.334960596,0.01,0.0,-25051.0,0.125,0.0,-0.0,0.0,0.25,1.676025219,0.01,0.0,0.4099999964237213,-0.6399999856948853,-99.20999908447266,-0.00897216796875,0.0064697265625,1.01654052734375,36.56999969482422,0.0,0.0,2.3541412353515625,-2.5211334228515625,Closing,0.0,0.0,3.0,0.0,0.0,0.0,0.0,0.0,
10.389761999999989,0.0,0.0,84586.0,0.0,0.0,0.0,0.0,0.25,0.808105386,0.01,0.0,-150775.0,0.0,0.0,-0.0,0.0,0.0,0.522460884,0.01,0.0,12936.0,0.0,0.0,0.0,0.0,0.0,3.333739893,0.01,0.0,-25051.0,0.125,0.0,-0.0,0.0,0.25,1.676025219,0.01,0.0,0.4099999964237213,-0.6399999856948853,-99.19999694824219,-0.01202392578125,0.006103515625,1.0162353515625,36.56999969482422,0.0,1.0,2.3541412353515625,-2.5211334228515625,Closing,0.0,0.0,3.0,0.0,0.0,0.0,0.0,0.0,
10.497538,0.0,0.0,84586.0,0.0,0.0,0.0,0.0,0.25,0.808105386,0.01,0.0,-150775.0,0.0,0.0,-0.0,0.0,0.0,0.522460884,0.01,0.0,12936.0,0.0,0.0,0.0,0.0,0.0,3.33251919,0.01,0.0,-25051.0,0.125,0.0,-0.0,0.0,0.25,1.676025219,0.01,0.0,0.41999998688697815,-0.6399999856948853,-99.19999694824219,-0.0108642578125,0.00445556640625,1.01947021484375,36.56999969482422,0.0,2.0,2.3541412353515625,-2.5211334228515625,Closing,0.0,0.0,3.0,0.0,0.0,0.0,0.0,0.0,
10.622085000000022,0.0,0.0,84586.0,0.0,0.0,0.0,0.0,0.25,0.806884683,0.01,0.0,-150775.0,0.0,0.0,-0.0,0.0,0.0,0.522460884,0.01,0.0,12936.0,0.0,0.0,0.0,0.0,0.0,3.333739893,0.01,0.0,-25051.0,0.125,0.0,-0.0,0.0,0.25,1.678466625,0.01,0.0,0.4099999964237213,-0.6499999761581421,-99.20999908447266,-0.0093994140625,0.00994873046875,1.01910400390625,36.56999969482422,0.0,-2.0,2.3541412353515625,-2.5211334228515625,Closing,0.0,0.0,3.0,0.0,0.0,0.0,0.0,0.125,
10.736486000000033,0.0,0.0,84586.0,0.0,0.0,0.0,0.0,0.25,0.808105386,0.01,0.0,-150775.0,0.0,0.0,-0.0,0.0,0.0,0.522460884,0.01,0.0,12936.0,0.0,0.0,0.0,0.0,0.0,3.333739893,0.01,0.0,-25051.0,0.125,0.0,-0.0,0.0,0.125,1.676025219,0.01,0.0,0.4099999964237213,-0.6499999761581421,-99.20999908447266,-0.00994873046875,0.00860595703125,1.0145263671875,36.56999969482422,0.0,-1.0,2.3541412353515625,-2.5211334228515625,Closing,0.0,0.0,3.0,0.0,0.0,0.0,0.0,0.0,
