Time,ClimberA1,ClimberA2,FRpos,FRCurrent,FRspeed,FRsetpoint,FRApos,FRACurrent,FREncpos,FREncSetpoint,FREncSpeed,FLpos,FLCurrent,FLspeed,FLsetpoint,FLApos,FLACurrent,FLEncpos,FLEncSetpoint,FLEncSpeed,BRpos,BRCurrent,BRspeed,BRsetpoint,BRApos,BRACurrent,BREncpos,BREncSetpoint,BREncSpeed,BLpos,BLCurrent,BLspeed,BLsetpoint,BLApos,BLACurrent,BLEncpos,BLEncSetpoint,BLEncSpeed,navx_Pitch,navx_Roll,navx_Yaw,navx_XAcc,navx_YAcc,navx_ZAcc,navx_Temp,navx_Bar,navx_Alt,navx_XDis,navx_YDis,GearPlacerState,ShootOutputV,ShootOutputCurrent,ShootEncPos,ShootEncVelocity,ShootSpeed,ShootSetpoint,CarouselSetpoint,CarouselCurrent,
0.5075760000000009,0.0,0.0,64342.0,0.0,0.0,0.0,0.0,0.125,0.798339762,0.01,0.0,-65563.0,0.0,0.0,0.0,0.0,0.25,0.46386714,0.01,0.0,22560.0,0.0,0.0,0.0,0.0,0.0,3.331298487,0.01,0.0,-71267.0,0.125,0.0,0.0,0.0,0.375,1.566161949,0.01,0.0,0.009999999776482582,-0.8100000023841858,-24.030000686645508,-0.01513671875,-3.0517578125E-4,1.01519775390625,36.75,0.0,0.0,1.5962982177734375,-2.4814910888671875,Closing,0.0,0.0,3.0,0.0,0.0,0.0,0.0,0.0,
0.5934310000000041,0.0,0.0,64342.0,0.125,0.0,840.0,0.0,0.125,0.8020018710000001,0.01,0.0,-65563.0,0.0,0.0,-840.0,0.0,0.25,0.46386714,0.01,0.0,22560.0,0.375,0.0,840.0,0.0,0.0,3.337402002,0.01,0.0,-71267.0,0.375,0.0,-840.0,0.0,0.375,1.567382652,0.01,0.0,0.009999999776482582,-0.8100000023841858,-24.040000915527344,-0.015380859375,7.32421875E-4,1.0198974609375,36.75,0.0,0.0,1.5962982177734375,-2.4814910888671875,Closing,0.0,0.0,3.0,0.0,0.0,0.0,0.0,0.0,
0.6476739999999991,0.0,0.0,64347.0,2.0,22.5,840.0,0.0,0.125,0.799560465,0.01,0.0,-65563.0,2.5,-97.5,-840.0,0.0,0.25,0.46386714,0.01,0.0,22560.0,2.375,0.0,840.0,0.0,0.0,3.33251919,0.01,-0.0012207030000004337,-71267.0,2.75,-75.0,-840.0,0.0,0.375,1.572265464,0.01,0.0,0.12999999523162842,-0.5,-24.09000015258789,0.04705810546875,-0.0926513671875,0.8170166015625,36.75,0.0,88.0,1.59661865234375,-2.4810638427734375,Closing,0.0,0.0,3.0,0.0,0.0,0.0,0.0,0.0,
0.6794670000000042,0.0,0.0,64347.0,4.125,82.5,840.0,0.0,0.125,0.8020018710000001,4.931565975591692,-0.0012207029999995456,-65604.0,4.875,-247.5,-840.0,0.0,0.25,0.477294873,4.9630805980196,0.0,22560.0,4.875,0.0,840.0,0.0,0.0,3.331298487,4.939713843803406,0.0,-71298.0,4.25,-217.5,-840.0,0.0,0.25,1.590576009,4.957311399396261,0.003662108999999525,0.0,-0.12999999523162842,-23.969999313354492,0.09063720703125,1.220703125E-4,0.9339599609375,36.75,0.0,84.0,1.5988006591796875,-2.4804840087890625,Closing,0.0,0.0,3.0,0.0,0.0,0.0,0.0,0.0,
0.7420469999999987,0.0,0.0,64371.0,4.5,105.0,840.0,0.0,0.125,0.798339762,0.01,-0.0012207029999995456,-65604.0,4.875,-247.5,-840.0,0.0,0.25,0.483398388,0.01,0.014648436000000764,22569.0,6.75,52.5,840.0,0.0,0.0,3.331298487,0.01,0.0,-71298.0,4.125,-225.0,-840.0,0.0,0.25,1.644286941,0.01,0.019531248000000723,0.07999999821186066,0.14000000059604645,-24.030000686645508,0.16009521484375,0.05767822265625,1.15582275390625,36.75,0.0,120.0,1.60223388671875,-2.4790802001953125,Closing,0.0,0.0,3.0,0.0,0.0,0.0,0.0,0.0,
0.7886490000000049,0.0,0.0,64371.0,4.875,195.0,840.0000000000001,0.0,0.125,0.748290939,0.01,0.0012207029999995456,-65604.0,6.5,-232.5,-840.0000000000001,0.0,0.25,0.482177685,0.01,0.014648436000000764,22569.0,7.0,82.5,840.0000000000001,0.0,0.0,3.331298487,0.01,0.0,-71298.0,4.5,-225.0,-840.0000000000001,0.0,0.25,1.6552732680000002,0.01,-4.904289068000001,0.09000000357627869,0.3799999952316284,-24.100000381469727,0.15692138671875,-6.103515625E-5,0.96441650390625,36.75,0.0,138.0,1.605438232421875,-2.4773712158203125,Closing,0.0,0.0,3.0,0.0,0.0,0.0,0.0,0.0,
0.8404210000000021,0.0,0.0,64371.0,5.375,345.0,840.0,0.0,0.125,0.8312987430000001,4.9314289654836285,0.0012207030000004337,-65658.0,6.875,-322.5,-840.0,0.0,0.25,0.5029296360000001,4.96294271236372,0.004882811999999959,22569.0,7.875,187.5,840.0,0.0,0.0,3.331298487,4.939576607329051,0.0,-71345.0,5.25,-315.0,-840.0,0.0,0.25,1.668701001,4.957173674021827,0.013427733000000108,0.029999999329447746,0.7400000095367432,-24.200000762939453,0.1434326171875,0.03033447265625,1.01849365234375,36.75,0.0,106.0,1.61407470703125,-2.4732818603515625,Closing,0.0,0.0,3.0,0.0,0.0,0.0,0.0,0.0,
0.8769029999999984,0.0,0.0,64436.0,5.25,427.5,840.0,0.0,0.125,0.799560465,4.930058890535006,0.0,-65658.0,6.25,-457.5,-840.0,0.0,0.125,0.51269526,4.96156388210392,0.0,22608.0,8.375,240.0,840.0,0.0,0.0,3.331298487,4.938204268760681,0.0,-71345.0,4.75,-435.0,-840.0,0.0,0.25,1.668701001,4.955796446545919,0.010986326999999907,0.07000000029802322,0.9100000262260437,-24.190000534057617,0.17718505859375,0.01251220703125,1.06219482421875,36.75,0.0,141.0,1.6220855712890625,-2.469512939453125,Closing,0.0,0.0,3.0,0.0,0.0,0.0,0.0,0.0,
0.931326000000001,0.0,0.0,64436.0,4.75,502.5,840.0,0.0,0.125,0.799560465,4.930195900643068,-0.0024414059999999793,-65658.0,6.0,-502.5,-840.0,0.0,0.0,0.5432128350000001,4.9617017677598,0.019531247999999835,22608.0,9.125,285.0,840.0,0.0,0.0,3.330077784,4.938341505235036,0.0,-71430.0,4.5,-480.0,-840.0,0.0,0.25,1.668701001,4.955934171920353,0.010986326999999907,0.10000000149011612,1.059999942779541,-24.170000076293945,0.15325927734375,0.02288818359375,1.0692138671875,36.75,0.0,113.0,1.628265380859375,-2.4665679931640625,Closing,0.0,0.0,3.0,0.0,0.0,0.0,0.0,0.0,
0.9658669999999984,0.0,0.0,64537.0,4.875,577.5,840.0,0.0,0.125,0.799560465,4.930469920859194,0.0,-65755.0,5.0,-592.5,-840.0,0.0,0.25,0.599365173,4.96197753907156,0.04150390199999965,22608.0,9.625,285.0,840.0,0.0,0.0,3.330077784,4.938615978183747,0.0,-71430.0,4.375,-555.0,-840.0,0.0,0.25,1.668701001,4.95620962266922,-0.0012207029999999897,0.12999999523162842,1.2000000476837158,-24.200000762939453,0.02001953125,-0.0462646484375,1.11322021484375,36.75,0.0,16.0,1.634765625,-2.4633331298828125,Closing,0.0,0.0,3.0,0.0,0.0,0.0,0.0,0.125,
1.003658000000003,0.0,0.0,64537.0,4.375,622.5,840.0,0.0,0.125,0.798339762,4.929647886342822,0.0,-65755.0,4.5,-660.0,-840.0,0.0,0.25,0.599365173,4.96115025143528,0.05493163499999998,22654.0,11.0,292.5,840.0,0.0,0.0,3.331298487,4.937792585512797,0.0012207030000004337,-71430.0,3.875,-615.0,-840.0,0.0,0.25,1.668701001,4.955383296691047,0.0012207029999999897,0.1899999976158142,1.3700000047683716,-24.360000610351562,0.09405517578125,0.01495361328125,1.019775390625,36.75,0.0,58.0,1.6483001708984375,-2.456817626953125,Closing,0.0,0.0,3.0,0.0,0.0,0.0,0.0,0.0,
1.0493009999999994,0.0,0.0,64537.0,3.875,727.5,840.0,0.0,0.125,0.798339762,4.926907736445576,0.0012207029999995456,-65876.0,3.875,-712.5,-840.0,0.0,0.25,0.588378846,4.95839259091568,0.0,22654.0,11.25,427.5,840.0,0.0,0.0,3.331298487,4.935047908376058,-0.0012207030000004337,-71539.0,4.0,-660.0,-840.0,0.0,0.25,1.669921704,4.952628841739231,-0.0012207029999999897,0.2199999988079071,1.4800000190734863,-24.610000610351562,0.09625244140625,0.01531982421875,0.974853515625,36.779998779296875,0.0,59.0,1.6587371826171875,-2.4515533447265625,Closing,0.0,0.0,3.0,0.0,0.0,0.0,0.0,0.0,
1.0900999999999985,0.0,0.0,64537.0,3.5,765.0,840.0,0.0,0.125,0.798339762,4.9244416067644545,-0.0024414059999999793,-65876.0,3.625,-757.5,-840.0,0.0,0.25,0.576171816,4.95591070170784,0.0,22654.0,10.875,525.0,840.0,0.0,0.0,3.331298487,4.932577704188029,-0.0012207030000004337,-71539.0,3.625,-705.0,-840.0,0.0,0.25,1.669921704,4.950149837536282,0.0012207029999999897,0.23000000417232513,1.6100000143051147,-24.809999465942383,0.0416259765625,0.09149169921875,1.006591796875,36.779998779296875,0.0,-24.0,1.6658782958984375,-2.4476165771484375,Closing,0.0,0.0,3.0,0.0,0.0,0.0,0.0,0.0,
1.130491000000002,0.0,0.0,64671.0,2.75,832.5,840.0,0.0,0.125,0.7897948410000001,4.921701482999214,0.0024414059999999793,-65876.0,3.25,-795.0,-840.0,0.0,0.25,0.548095647,4.95315306748724,-0.01586913899999942,22765.0,9.25,697.5,840.0,0.0,0.0,3.331298487,4.929833053226472,0.0,-71539.0,3.5,-750.0,-840.0,0.0,0.25,1.6638181890000001,4.947395408852895,0.0012207029999999897,0.20999999344348907,1.6100000143051147,-25.09000015258789,0.04779052734375,0.013916015625,1.193359375,36.779998779296875,0.0,8.0,1.6767730712890625,-2.4435577392578125,Closing,0.0,0.0,3.0,0.0,0.0,0.0,0.0,0.0,
1.164612000000001,0.0,0.0,64671.0,2.375,885.0,840.0000000000001,0.0,0.125,0.799560465,4.91786527836947,-0.0012207029999995456,-65876.0,3.0,-832.5,-840.0000000000001,0.0,0.25,0.533447211,4.9492923480196,-0.037841793000000123,22765.0,8.25,705.0,840.0000000000001,0.0,0.0,3.331298487,4.925990510470073,0.0,-71669.0,3.5,-772.5,-840.0000000000001,0.0,0.25,1.651611159,4.9435391771740385,-0.0012207029999999897,0.20000000298023224,1.7200000286102295,-25.239999771118164,0.04010009765625,0.0386962890625,0.8564453125,36.779998779296875,0.0,-2.0,1.6842041015625,-2.443634033203125,Closing,0.0,0.0,3.0,0.0,0.0,0.0,0.0,0.0,
1.1935429999999978,0.0,0.0,64671.0,2.25,907.5,840.0,0.0,0.125,0.810546792,4.915810179012537,-0.0012207029999995456,-66015.0,2.625,-847.5,-840.0,0.0,0.25,0.522460884,4.9472241157794,-0.037841793000000123,22765.0,8.125,720.0,840.0,0.0,0.0,3.330077784,4.923932015705109,0.0,-71669.0,3.125,-802.5,-840.0,0.0,0.25,1.645507644,4.941473349094391,-0.013427732999999886,0.23999999463558197,1.7100000381469727,-25.3799991607666,0.07049560546875,-0.08953857421875,1.13238525390625,36.779998779296875,0.0,-36.0,1.69903564453125,-2.4435882568359375,Closing,0.0,0.0,3.0,0.0,0.0,0.0,0.0,0.0,
1.2483240000000004,0.0,0.0,64820.0,1.5,930.0,840.0,0.0,0.125,0.8142089010000001,4.913344049331417,0.006103515000000392,-66015.0,2.125,-900.0,-840.0,0.0,0.25,0.511474557,4.94474222657156,-0.01586913899999942,22890.0,8.125,772.5,840.0,0.0,0.0,3.330077784,4.92146181151708,-0.0012207030000004337,-71669.0,2.875,-840.0,-840.0,0.0,0.25,1.6357420200000001,4.938994344891442,-0.014648436000000098,0.18000000715255737,1.6699999570846558,-25.479999542236328,0.0030517578125,0.0592041015625,0.84686279296875,36.779998779296875,0.0,-43.0,1.706268310546875,-2.443817138671875,Closing,0.0,0.0,3.0,0.0,0.0,0.0,0.0,0.0,
1.2990750000000044,0.0,0.0,64820.0,1.125,937.5,840.0,0.0,0.125,0.8166503070000001,4.912522014815044,0.010986327000000351,-66165.0,1.5,-930.0,-840.0,0.0,0.25,0.51269526,4.94391493893528,-0.004882812000000847,22890.0,7.125,892.5,840.0,0.0,0.0,3.331298487,4.9206384188461305,0.0,-71814.0,2.25,-892.5,-840.0,0.0,0.25,1.6345213170000001,4.938168018913269,-0.004882811999999959,0.25999999046325684,1.6100000143051147,-25.639999389648438,0.05242919921875,0.05767822265625,1.01458740234375,36.779998779296875,0.0,-1.0,1.7202301025390625,-2.443756103515625,Closing,0.0,0.0,3.0,0.0,0.0,0.0,0.0,0.0,
1.3382920000000014,0.0,0.0,64974.0,1.125,945.0,840.0,0.0,0.25,0.819091713,4.91032990535005,0.010986327000000351,-66165.0,1.25,-945.0,-840.0,0.0,0.125,0.51269526,4.9417088210391995,-0.0012207029999995456,23043.0,5.75,960.0,840.0,0.0,0.0,3.331298487,4.918442687606812,0.0,-71814.0,1.625,-937.5,-840.0,0.0,0.25,1.622314287,4.935964465459188,0.0,0.28999999165534973,1.6299999952316284,-25.790000915527344,0.020263671875,0.10540771484375,0.9964599609375,36.779998779296875,0.0,-51.0,1.7200927734375,-2.44342041015625,Closing,0.0,0.0,3.0,0.0,0.0,0.0,0.0,0.0,
1.3908499999999986,0.0,0.0,64974.0,0.5,982.5,840.0,0.0,0.25,0.8178710100000001,4.907589755452802,0.0024414059999999793,-66165.0,1.125,-945.0,-840.0,0.0,0.25,0.509033151,4.9389511605196,-0.0012207029999995456,23043.0,5.5,967.5,840.0,0.0,0.0,3.331298487,4.915698010470073,0.0,-71814.0,1.375,-945.0,-840.0,0.0,0.25,1.6308592080000002,4.933210010507372,4.953117188,0.30000001192092896,1.559999942779541,-25.889999389648438,-0.01385498046875,0.02886962890625,0.964599609375,36.779998779296875,0.0,-46.0,1.7196197509765625,-2.443267822265625,Closing,0.0,0.0,3.0,0.0,0.0,0.0,0.0,0.0,
1.4360610000000016,0.0,0.0,64974.0,0.5,997.5,840.0,0.0,0.25,0.811767495,4.906904731044494,0.0012207029999995456,-66317.0,0.875,-945.0,-840.0,0.0,0.25,0.507812448,4.9382617585392,-0.0024414059999999793,23043.0,5.125,975.0,840.0,0.0,0.0,3.33251919,4.915011854273478,0.0,-71965.0,1.25,-945.0,-840.0,0.0,0.25,1.624755693,4.932521409903632,0.0,0.3100000023841858,1.5,-26.110000610351562,6.103515625E-4,-0.0091552734375,0.95050048828125,36.779998779296875,0.0,-15.0,1.7181396484375,-2.44384765625,Closing,0.0,0.0,3.0,0.0,0.0,0.0,0.0,0.0,
1.473859000000004,0.0,0.0,65134.0,0.375,997.5,840.0,0.0,0.25,0.825195228,4.903890560931121,0.0,-66317.0,0.75,-952.5,-840.0,0.0,0.25,0.513915963,4.93522832670784,0.0,23202.0,4.5,982.5,840.0,0.0,0.0,3.330077784,4.911992704188029,0.0012207030000004337,-71965.0,1.25,-937.5,-840.0,0.0,0.25,1.625976396,4.929491504202948,-0.004882811999999959,0.36000001430511475,1.399999976158142,-26.239999771118164,-0.0859375,-0.07598876953125,0.889404296875,36.779998779296875,0.0,-60.0,1.7165679931640625,-2.44476318359375,Closing,0.0,0.0,3.0,0.0,0.0,0.0,0.0,0.0,
1.5289330000000045,0.0,0.0,65134.0,0.375,990.0,840.0,0.0,0.25,0.823974525,4.901424431250001,0.0,-66317.0,0.625,-967.5,-840.0,0.0,0.25,0.507812448,4.9327464375,0.0,23202.0,4.375,990.0,840.0,0.0,0.0,3.331298487,4.9095225000000005,0.0,-72110.0,1.25,-915.0,-840.0,0.0,0.25,1.625976396,4.9270125,-0.004882811999999959,0.3199999928474426,1.3899999856948853,-26.290000915527344,-0.01177978515625,0.0439453125,1.054443359375,36.779998779296875,0.0,-50.0,1.715911865234375,-2.445220947265625,Closing,0.0,0.0,3.0,0.0,0.0,0.0,0.0,0.0,
1.5830040000000007,0.0,0.0,65286.0,0.375,952.5,840.0,0.0,0.25,0.8178710100000001,4.901013427057817,0.0,-66471.0,0.5,-960.0,-840.0,0.0,0.25,0.507812448,4.93233280683136,0.0,23354.0,4.0,975.0,840.0,0.0,0.0,3.331298487,4.909110816752116,0.0,-72110.0,1.25,-885.0,-840.0,0.0,0.25,1.621093584,4.926599350145128,0.0,0.28999999165534973,1.2899999618530273,-26.420000076293945,-0.02801513671875,-0.09613037109375,0.8331298828125,36.65999984741211,0.0,2.0,1.712860107421875,-2.44720458984375,Closing,0.0,0.0,3.0,0.0,0.0,0.0,0.0,0.0,
1.6103810000000012,0.0,0.0,65286.0,0.375,930.0,840.0,0.0,0.25,0.819091713,4.899643352109194,0.0,-66471.0,0.5,-930.0,-840.0,0.0,0.25,0.507812448,4.93095397657156,-0.0012207030000004337,23354.0,4.0,945.0,840.0,0.0,0.0,3.3251949720000002,4.907738478183747,-0.0012207030000004337,-72110.0,1.25,-885.0,-840.0,0.0,0.25,1.624755693,4.92522212266922,0.0,0.23999999463558197,1.190000057220459,-26.530000686645508,-0.01519775390625,0.0037841796875,1.0546875,36.65999984741211,0.0,-32.0,1.7100372314453125,-2.4494781494140625,Closing,0.0,0.0,3.0,0.0,0.0,0.0,0.0,0.0,
1.6622799999999989,0.0,0.0,65286.0,0.375,915.0,840.0,0.0,0.25,0.822753822,4.897451242644199,-0.0012207029999995456,-66616.0,0.5,-915.0,-840.0,0.0,0.25,0.507812448,4.92874785867548,0.0,23354.0,3.875,930.0,840.0,0.0,0.0,3.330077784,4.905542746944428,0.0,-72257.0,1.25,-915.0,-840.0,0.0,0.25,1.625976396,4.923018569215139,0.0,0.23999999463558197,1.100000023841858,-26.65999984741211,-0.019287109375,-0.0047607421875,1.02703857421875,36.65999984741211,0.0,-30.0,1.706817626953125,-2.4521026611328125,Closing,0.0,0.0,3.0,0.0,0.0,0.0,0.0,0.0,
1.6935599999999977,0.0,0.0,65432.0,0.375,915.0,840.0,0.0,0.25,0.8178710100000001,4.896355187911701,-0.0012207029999995456,-66616.0,0.625,-900.0,-840.0,0.0,0.25,0.507812448,4.92764479972744,0.0012207030000004337,23503.0,3.875,922.5,840.0,0.0,0.125,3.331298487,4.9044448813247685,0.0,-72257.0,1.0,-922.5,-840.0,0.0,0.25,1.624755693,4.921916792488098,0.0,0.3100000023841858,1.090000033378601,-26.760000228881836,-0.08428955078125,0.0196533203125,0.889404296875,36.65999984741211,0.0,-97.0,1.703277587890625,-2.4547271728515625,Closing,0.0,0.0,3.0,0.0,0.0,0.0,0.0,0.0,
1.7380480000000025,0.0,0.0,65432.0,0.375,907.5,840.0,0.0,0.25,0.8178710100000001,4.894985112963078,0.0,-66616.0,0.625,-892.5,-840.0,0.0,0.25,0.507812448,4.92626596946764,0.0012207030000004337,23503.0,3.875,930.0,840.0,0.0,0.125,3.330077784,4.903072542756399,0.0,-72257.0,0.75,-915.0,-840.0,0.0,0.25,1.625976396,4.92053956501219,0.0,0.36000001430511475,1.0299999713897705,-26.81999969482422,-0.00604248046875,-0.00238037109375,0.99945068359375,36.65999984741211,0.0,-17.0,1.700592041015625,-2.45635986328125,Closing,0.0,0.0,3.0,0.0,0.0,0.0,0.0,0.0,
1.7723669999999985,0.0,0.0,65432.0,0.125,915.0,840.0,0.0,0.25,0.819091713,4.894163078446707,0.0012207029999995456,-66760.0,0.5,-892.5,-840.0,0.0,0.25,0.507812448,4.92543868183136,-0.0012207030000004337,23503.0,3.625,952.5,840.0,0.0,0.125,3.330077784,4.902249150085449,0.0012207030000004337,-72407.0,0.75,-937.5,-840.0,0.0,0.25,1.619872881,4.919713239034017,0.0,0.4099999964237213,1.0099999904632568,-26.920000076293945,-0.02545166015625,-0.02484130859375,0.9542236328125,36.65999984741211,0.0,-23.0,1.6959991455078125,-2.4586944580078125,Closing,0.0,0.0,3.0,0.0,0.0,0.0,0.0,0.0,
1.8116860000000015,0.0,0.0,65582.0,0.125,922.5,840.0,0.0,0.25,0.8154296040000001,4.892793003498083,0.0,-66760.0,0.5,-900.0,-840.0,0.0,0.25,0.507812448,4.92405985157156,0.0012207030000004337,23659.0,3.625,967.5,840.0,0.0,0.125,3.334960596,4.9008768115170795,-0.0012207030000004337,-72407.0,0.75,-952.5,-840.0,0.0,0.25,1.614990069,4.918336011558109,-0.004882811999999959,0.3499999940395355,0.8999999761581421,-26.959999084472656,-0.03314208984375,-0.0555419921875,1.0789794921875,36.65999984741211,0.0,-16.0,1.692535400390625,-2.460540771484375,Closing,0.0,0.0,3.0,0.0,0.0,0.0,0.0,0.0,
1.8487890000000042,0.0,0.0,65582.0,0.125,937.5,840.0,0.0,0.25,0.8142089010000001,4.892244989197837,0.0,-66760.0,0.375,-900.0,-840.0,0.0,0.25,0.509033151,4.92350833524704,-0.0012207030000004337,23659.0,3.25,975.0,840.0,0.0,0.125,3.331298487,4.9003278917948405,0.0,-72407.0,0.625,-952.5,-840.0,0.0,0.25,1.614990069,4.917785136328803,-0.004882811999999959,0.36000001430511475,0.7699999809265137,-27.040000915527344,-0.005126953125,-7.32421875E-4,1.14337158203125,36.65999984741211,0.0,-14.0,1.6867828369140625,-2.4637908935546875,Closing,0.0,0.0,3.0,0.0,0.0,0.0,0.0,0.0,
1.8877669999999998,0.0,0.0,65582.0,0.125,937.5,840.0,0.0,0.25,0.809326089,4.891148908333333,-0.004882811999999959,-66760.0,0.375,-907.5,-840.0,0.0,0.25,0.505371042,4.92240525,-0.0012207030000004337,23659.0,3.0,967.5,840.0,0.0,0.125,3.331298487,4.89923,0.0,-72557.0,0.625,-937.5,-840.0,0.0,0.25,1.614990069,4.916683333333333,0.0,0.36000001430511475,0.7699999809265137,-27.079999923706055,-0.02081298828125,0.06365966796875,1.07916259765625,36.65999984741211,0.0,-57.0,1.6847686767578125,-2.464935302734375,Closing,0.0,0.0,3.0,0.0,0.0,0.0,0.0,0.0,
1.9312730000000011,0.0,0.0,65733.0,0.125,945.0,840.0,0.0,0.25,0.8044432770000001,4.88950483930059,-0.004882811999999959,-66906.0,0.375,-915.0,-840.0,0.0,0.25,0.509033151,4.92075067472744,0.0,23659.0,2.875,960.0,840.0,0.0,0.125,3.330077784,4.897583214658102,0.0,-72557.0,0.625,-915.0,-840.0,0.0,0.25,1.616210772,4.915030681376987,0.0,0.4399999976158142,0.6700000166893005,-27.260000228881836,-0.07958984375,-0.00653076171875,0.9617919921875,36.65999984741211,0.0,-74.0,1.6805572509765625,-2.4691009521484375,Closing,0.0,0.0,3.0,0.0,0.0,0.0,0.0,0.0,
1.9680069999999978,0.0,0.0,65733.0,0.125,937.5,840.0,0.0,0.25,0.799560465,4.887586750051721,-0.008544921000000372,-66906.0,0.25,-900.0,-840.0,0.0,0.25,0.507812448,4.91882032814312,0.0,23812.0,2.75,952.5,840.0,0.0,0.125,3.330077784,4.895661956367493,0.0012207030000004337,-72557.0,0.625,-900.0,-840.0,0.0,0.25,1.614990069,4.913102578671773,0.0,0.4300000071525574,0.6100000143051147,-27.3700008392334,-0.05242919921875,-0.06024169921875,1.224365234375,36.65999984741211,0.0,-26.0,1.67999267578125,-2.4725189208984375,Closing,0.0,0.0,3.0,0.0,0.0,0.0,0.0,0.0,
2.0078159999999987,0.0,0.0,65733.0,0.125,915.0,840.0,0.0,0.25,0.799560465,4.886216675103098,-0.0012207029999995456,-67048.0,0.25,-885.0,-840.0,0.0,0.25,0.5041503390000001,4.91744149788332,0.0012207030000004337,23812.0,2.75,930.0,840.0,0.0,0.125,3.331298487,4.8942896177991235,-0.0012207030000004337,-72700.0,0.625,-892.5,-840.0,0.0,0.25,1.614990069,4.911725351195865,0.0,0.4300000071525574,0.4699999988079071,-27.450000762939453,7.9345703125E-4,0.03912353515625,1.126953125,36.65999984741211,0.0,-21.0,1.6779937744140625,-2.4776611328125,Closing,0.0,0.0,3.0,0.0,0.0,0.0,0.0,0.0,
2.053738000000005,0.0,0.0,65873.0,0.125,885.0,840.0,0.0,0.25,0.799560465,4.885531624562783,0.0,-67048.0,0.25,-885.0,-840.0,0.0,0.25,0.49926752700000004,4.91675206960392,-0.006103515000000392,23957.0,2.875,907.5,840.0,0.0,0.125,3.331298487,4.893603435427348,0.0,-72700.0,0.625,-885.0,-840.0,0.0,0.25,1.616210772,4.911036724323696,0.0,0.4300000071525574,0.4000000059604645,-27.5,-0.007080078125,-0.0577392578125,0.7855224609375,36.58000183105469,0.0,18.0,1.6758575439453125,-2.48150634765625,Closing,0.0,0.0,3.0,0.0,0.0,0.0,0.0,0.0,
2.1113839999999984,0.0,0.0,65873.0,0.125,870.0,840.0,0.0,0.25,0.799560465,4.884846600154474,0.0012207029999995456,-67048.0,0.375,-877.5,-840.0,0.0,0.25,0.489501903,4.91606266762352,-0.008544920999999484,23957.0,2.875,892.5,840.0,0.0,0.125,3.339843408,4.892917279230754,0.0012207030000004337,-72700.0,0.75,-855.0,-840.0,0.0,0.25,1.616210772,4.910348123719957,0.0,0.4099999964237213,0.33000001311302185,-27.549999237060547,-0.04345703125,-0.06640625,1.15118408203125,36.58000183105469,0.0,-10.0,1.6743316650390625,-2.4842681884765625,Closing,0.0,0.0,3.0,0.0,0.0,0.0,0.0,0.0,
2.144345999999998,0.0,0.0,65873.0,0.125,862.5,840.0,0.0,0.25,0.799560465,4.884024565638103,0.0012207029999995456,-67186.0,0.375,-870.0,-840.0,0.0,0.25,0.489501903,4.91523537998724,-0.008544920999999484,23957.0,3.0,885.0,840.0,0.0,0.125,3.334960596,4.892093886559804,0.0012207030000004337,-72832.0,0.75,-825.0,-840.0,0.0,0.25,1.6284178020000002,4.9095217977417835,0.0,0.3700000047683716,0.23999999463558197,-27.610000610351562,0.0137939453125,-0.03851318359375,1.1798095703125,36.58000183105469,0.0,29.0,1.6717071533203125,-2.48876953125,Closing,0.0,0.0,3.0,0.0,0.0,0.0,0.0,0.0,
2.193531000000003,0.0,0.0,66010.0,0.125,855.0,840.0,0.0,0.25,0.798339762,4.8832025049897245,0.0,-67186.0,0.5,-832.5,-840.0,0.0,0.25,0.4882812,4.91440806605196,-0.006103515000000392,24095.0,3.0,870.0,840.0,0.0,0.125,3.328857081,4.8912704677136745,-0.0012207030000004337,-72832.0,0.75,-832.5,-840.0,0.0,0.25,1.616210772,4.908695445495182,0.0,0.36000001430511475,0.15000000596046448,-27.649999618530273,0.04852294921875,0.06536865234375,1.10882568359375,36.58000183105469,0.0,13.0,1.6697998046875,-2.493743896484375,Closing,0.0,0.0,3.0,0.0,0.0,0.0,0.0,0.0,
2.2494160000000045,0.0,0.0,66010.0,0.125,832.5,840.0,0.0,0.25,0.799560465,4.882517480581416,0.0,-67186.0,0.5,-825.0,-840.0,0.0,0.25,0.4882812,4.91371866407156,0.0012207030000004337,24095.0,3.25,840.0,840.0,0.0,0.125,3.331298487,4.89058431151708,0.0,-72966.0,0.75,-832.5,-840.0,0.0,0.25,1.619872881,4.9080068448914425,0.0,0.36000001430511475,0.12999999523162842,-27.690000534057617,-0.1031494140625,0.0223388671875,0.92462158203125,36.58000183105469,0.0,-4.0,1.669586181640625,-2.4990997314453125,Closing,0.0,0.0,3.0,0.0,0.0,0.0,0.0,0.0,
2.279164000000004,0.0,0.0,66010.0,0.375,825.0,840.0,0.0,0.25,0.799560465,4.882106450257227,0.0,-67318.0,0.5,-817.5,-840.0,0.0,0.25,0.4882812,4.91330500710392,0.0,24095.0,3.375,832.5,840.0,0.0,0.125,3.331298487,4.890172602094014,0.0,-72966.0,1.0,-817.5,-840.0,0.0,0.25,1.62353499,4.907593668768141,0.0012207029999995456,0.3799999952316284,0.029999999329447746,-27.760000228881836,-0.06756591796875,9.765625E-4,1.0430908203125,36.58000183105469,0.0,-57.0,1.6688690185546875,-2.50445556640625,Closing,0.0,0.0,3.0,0.0,0.0,0.0,0.0,0.0,
2.329296000000002,0.0,0.0,66143.0,0.375,825.0,840.0,0.0,0.25,0.799560465,4.881284415740856,-0.0012207029999995456,-67318.0,0.5,-825.0,-840.0,0.0,0.25,0.4882812,4.91247771946764,0.0,24229.0,3.375,832.5,840.0,0.0,0.125,3.331298487,4.889349209423066,0.0,-72966.0,1.0,-810.0,-840.0,0.0,0.25,1.614990069,4.906767342789967,0.0012207029999995456,0.4099999964237213,0.05999999865889549,-27.809999465942383,-0.01055908203125,0.03948974609375,1.0067138671875,36.58000183105469,0.0,-25.0,1.6681976318359375,-2.507965087890625,Closing,0.0,0.0,3.0,0.0,0.0,0.0,0.0,0.0,
2.354887999999999,0.0,0.0,66143.0,0.375,825.0,840.0,0.0,0.25,0.798339762,4.880599391332547,-0.0012207029999995456,-67318.0,0.5,-832.5,-840.0,0.0,0.25,0.4882812,4.91178831748724,0.0,24229.0,3.5,825.0,840.0,0.0,0.125,3.331298487,4.888663053226471,0.0,-73094.0,1.0,-810.0,-840.0,0.0,0.25,1.616210772,4.906078742186228,-0.0012207029999995456,0.4099999964237213,-0.019999999552965164,-27.8700008392334,0.0096435546875,0.04437255859375,1.11871337890625,36.58000183105469,0.0,-7.0,1.6668243408203125,-2.5130462646484375,Closing,0.0,0.0,3.0,0.0,0.0,0.0,0.0,0.0,
2.3987839999999996,0.0,0.0,66143.0,0.375,817.5,840.0,0.0,0.25,0.799560465,4.87977733068417,0.0,-67452.0,0.5,-832.5,-840.0,0.0,0.25,0.489501903,4.91096100355196,0.0,24229.0,3.5,825.0,840.0,0.0,0.125,3.330077784,4.887839634380341,0.0,-73094.0,1.0,-802.5,-840.0,0.0,0.25,1.616210772,4.905252389939626,0.0,0.4000000059604645,-0.05000000074505806,-27.93000030517578,-0.03887939453125,0.03143310546875,0.92022705078125,36.58000183105469,0.0,-45.0,1.66571044921875,-2.5146636962890625,Closing,0.0,0.0,3.0,0.0,0.0,0.0,0.0,0.0,
2.4489910000000017,0.0,0.0,66273.0,0.375,810.0,840.0,0.0,0.25,0.798339762,4.878544291975615,0.0,-67452.0,0.5,-832.5,-840.0,0.0,0.25,0.4882812,4.90972008524704,0.0,24361.0,3.625,825.0,840.0,0.0,0.125,3.331298487,4.886604558461507,0.0,-73094.0,1.25,-802.5,-840.0,0.0,0.25,1.616210772,4.904012914106581,0.0,0.4300000071525574,-0.07999999821186066,-28.030000686645508,-0.06109619140625,0.00653076171875,1.2999267578125,36.58000183105469,0.0,-50.0,1.663726806640625,-2.514495849609375,Closing,0.0,0.0,3.0,0.0,0.0,0.0,0.0,0.0,
2.4796990000000005,0.0,0.0,66273.0,0.375,810.0,840.0,0.0,0.25,0.799560465,4.877585221219174,-0.0012207030000004337,-67452.0,0.5,-832.5,-840.0,0.0,0.25,0.4882812,4.90875488565588,-0.0012207030000004337,24361.0,3.75,817.5,840.0,0.0,0.125,3.330077784,4.885643903141022,0.0,-73224.0,1.25,-810.0,-840.0,0.0,0.25,1.6101072570000001,4.903048836485545,0.0,0.41999998688697815,-0.05000000074505806,-28.09000015258789,-0.0191650390625,0.00634765625,0.9127197265625,36.58000183105469,0.0,-15.0,1.6629638671875,-2.514251708984375,Closing,0.0,0.0,3.0,0.0,0.0,0.0,0.0,0.0,
2.5210299999999988,0.0,0.0,66273.0,0.375,810.0,839.9999999999999,0.0,0.25,0.799560465,4.876352156378614,0.003662109000000413,-67585.0,0.5,-832.5,-839.9999999999999,0.0,0.25,0.4882812,4.90751394105196,0.0012207030000004337,24361.0,3.875,810.0,839.9999999999999,0.0,0.125,3.331298487,4.884408801047007,0.0012207030000004337,-73224.0,1.25,-810.0,-839.9999999999999,0.0,0.25,1.600341633,4.901809334384071,0.0,0.4300000071525574,-0.15000000596046448,-28.170000076293945,0.08111572265625,0.10614013671875,1.14984130859375,36.58000183105469,0.0,28.0,1.6627197265625,-2.5141143798828125,Closing,0.0,0.0,3.0,0.0,0.0,0.0,0.0,0.0,
2.548819000000003,0.0,0.0,66403.0,0.375,810.0,839.9999999999999,0.0,0.25,0.799560465,4.875667131970305,0.003662109000000413,-67585.0,0.75,-817.5,-839.9999999999999,0.0,0.25,0.4882812,4.90682453907156,0.0012207030000004337,24490.0,3.875,802.5,839.9999999999999,0.0,0.125,3.330077784,4.883722644850414,0.0012207030000004337,-73224.0,1.25,-810.0,-839.9999999999999,0.0,0.25,1.595458821,4.901120733780331,-0.014648435999999876,0.46000000834465027,-0.12999999523162842,-28.219999313354492,-0.0677490234375,-0.018310546875,1.00616455078125,36.58000183105469,0.0,-45.0,1.6625518798828125,-2.5137176513671875,Closing,0.0,0.0,3.0,0.0,0.0,0.0,0.0,0.0,
2.5891759999999993,0.0,0.0,66403.0,0.375,810.0,840.0,0.0,0.25,0.8020018710000001,4.874571077237808,-0.0024414059999999793,-67585.0,0.75,-810.0,-840.0,0.0,0.25,0.482177685,4.90572148012352,0.0,24490.0,4.0,802.5,840.0,0.0,0.125,3.331298487,4.8826247792307536,-0.0012207030000004337,-73224.0,1.25,-817.5,-840.0,0.0,0.25,1.591796712,4.90001895705329,-0.009765623999999917,0.4300000071525574,-0.2199999988079071,-28.270000457763672,0.0311279296875,0.05633544921875,1.0218505859375,36.560001373291016,0.0,7.0,1.6622467041015625,-2.51336669921875,Closing,0.0,0.0,3.0,0.0,0.0,0.0,0.0,0.0,
2.6363170000000027,0.0,0.0,66403.0,0.375,810.0,839.9999999999999,0.0,0.25,0.799560465,4.873886052829499,0.0012207029999995456,-67711.0,1.0,-780.0,-839.9999999999999,0.0,0.25,0.47851557600000005,4.90503207814312,-0.010986327000000351,24490.0,4.0,810.0,839.9999999999999,0.0,0.125,3.3276363780000002,4.881938623034159,0.0,-73356.0,1.25,-817.5,-839.9999999999999,0.0,0.25,1.585693197,4.899330356449551,0.0012207029999995456,0.4099999964237213,-0.23000000417232513,-28.389999389648438,0.061767578125,-0.005615234375,0.9154052734375,36.560001373291016,0.0,63.0,1.66217041015625,-2.513153076171875,Closing,0.0,0.0,3.0,0.0,0.0,0.0,0.0,0.0,
2.6705449999999984,0.0,0.0,66534.0,0.375,810.0,840.0,0.0,0.25,0.797119059,4.872652987988938,0.0,-67711.0,1.0,-780.0,-840.0,0.0,0.25,0.47851557600000005,4.9037911335392,0.0012207030000004337,24621.0,4.0,817.5,840.0,0.0,0.125,3.3215328630000003,4.880703520940145,-0.004882811999999959,-73356.0,1.375,-802.5,-840.0,0.0,0.25,1.591796712,4.898090854348077,0.0012207029999995456,0.4000000059604645,-0.17000000178813934,-28.450000762939453,-1.8310546875E-4,0.00250244140625,1.0675048828125,36.560001373291016,0.0,5.0,1.662261962890625,-2.5130462646484375,Closing,0.0,0.0,3.0,0.0,0.0,0.0,0.0,0.0,
2.708023000000001,0.0,0.0,66534.0,0.375,817.5,840.0,0.0,0.25,0.799560465,4.871419923148378,-0.0012207029999995456,-67711.0,1.125,-787.5,-840.0,0.0,0.25,0.47851557600000005,4.90255018893528,-0.0012207030000004337,24621.0,3.875,825.0,840.0,0.0,0.125,3.3129879420000004,4.87946841884613,-0.003662108999999525,-73356.0,1.625,-795.0,-840.0,0.0,0.25,1.591796712,4.896851352246602,-0.003662108999999525,0.4399999976158142,-0.25999999046325684,-28.540000915527344,0.0277099609375,-0.00299072265625,1.0789794921875,36.560001373291016,0.0,34.0,1.662384033203125,-2.512939453125,Closing,0.0,0.0,3.0,0.0,0.0,0.0,0.0,0.0,
2.7430940000000046,0.0,0.0,66534.0,0.375,825.0,840.0,0.0,0.25,0.794677653,4.8705978625,-0.0012207029999995456,-67839.0,1.125,-795.0,-840.0,0.0,0.25,0.47241206100000005,4.901722875,-0.0012207030000004337,24621.0,3.875,825.0,840.0,0.0,0.125,3.3166500510000003,4.878645000000001,-0.003662108999999525,-73484.0,1.375,-795.0,-840.0,0.0,0.25,1.5869139,4.896025,0.0024414059999999793,0.4399999976158142,-0.17000000178813934,-28.600000381469727,-0.07659912109375,-0.07891845703125,1.06658935546875,36.560001373291016,0.0,-22.0,1.662506103515625,-2.51300048828125,Closing,0.0,0.0,3.0,0.0,0.0,0.0,0.0,0.0,
2.772512999999999,0.0,0.0,66667.0,0.375,832.5,840.0,0.0,0.25,0.799560465,4.869775827983629,-0.0012207030000004337,-67839.0,1.125,-795.0,-840.0,0.0,0.25,0.47851557600000005,4.90089558736372,0.0012207030000004337,24756.0,3.875,832.5,840.0,0.0,0.125,3.3166500510000003,4.877821607329051,-0.004882811999999959,-73484.0,1.625,-802.5,-840.0,0.0,0.25,1.59912093,4.8951986740218265,0.0024414059999999793,0.4000000059604645,-0.2800000011920929,-28.690000534057617,0.02862548828125,0.05609130859375,1.09600830078125,36.560001373291016,0.0,6.0,1.6626739501953125,-2.5135498046875,Closing,0.0,0.0,3.0,0.0,0.0,0.0,0.0,0.0,
2.8102160000000005,0.0,0.0,66667.0,0.375,832.5,840.0,0.0,0.25,0.798339762,4.868542763143068,0.0012207030000004337,-67839.0,1.125,-802.5,-840.0,0.0,0.25,0.47973627900000004,4.8996546427598,0.0,24756.0,3.625,840.0,840.0,0.0,0.125,3.3166500510000003,4.876586505235037,0.0,-73484.0,1.625,-810.0,-840.0,0.0,0.25,1.591796712,4.893959171920352,0.0,0.4300000071525574,-0.1599999964237213,-28.809999465942383,0.03857421875,-0.12884521484375,1.07696533203125,36.560001373291016,0.0,102.0,1.6627655029296875,-2.514251708984375,Closing,0.0,0.0,3.0,0.0,0.0,0.0,0.0,0.0,
2.859484000000004,0.0,0.0,66667.0,0.375,832.5,840.0,0.0,0.25,0.799560465,4.866898694110325,0.0012207030000004337,-67970.0,1.125,-810.0,-840.0,0.0,0.25,0.471191358,4.8980000674872395,0.0,24756.0,3.625,855.0,840.0,0.0,0.125,3.3178707540000003,4.8749397198931375,-0.0012207030000004337,-73613.0,1.875,-802.5,-840.0,0.0,0.25,1.585693197,4.892306519964007,-0.0024414059999999793,0.4300000071525574,-0.1899999976158142,-28.940000534057617,0.02142333984375,0.0242919921875,1.05548095703125,36.560001373291016,0.0,13.0,1.662994384765625,-2.5156097412109375,Closing,0.0,0.0,3.0,0.0,0.0,0.0,0.0,0.0,
2.9127459999999994,0.0,0.0,66802.0,0.375,832.5,840.0,0.0,0.25,0.794677653,4.865117588837513,0.0012207029999995456,-67970.0,1.125,-817.5,-840.0,0.0,0.25,0.47363276400000004,4.8962075802598,-0.004882811999999959,24897.0,3.5,862.5,840.0,0.0,0.125,3.3166500510000003,4.873155671901703,0.0012207030000004337,-73613.0,1.625,-810.0,-840.0,0.0,0.25,1.5869139,4.890516116364797,-0.0012207030000004337,0.4000000059604645,-0.23999999463558197,-29.040000915527344,0.01617431640625,0.052001953125,1.12542724609375,36.560001373291016,0.0,-3.0,1.6633758544921875,-2.5173187255859375,Closing,0.0,0.0,3.0,0.0,0.0,0.0,0.0,0.0,
2.9495240000000047,0.0,0.0,66802.0,0.375,847.5,840.0,0.0,0.25,0.786132732,4.863747513888889,-0.004882811999999959,-67970.0,1.0,-825.0,-840.0,0.0,0.25,0.47363276400000004,4.89482875,0.0,24897.0,3.5,855.0,840.0,0.0,0.125,3.3166500510000003,4.871783333333333,0.0,-73747.0,1.875,-825.0,-840.0,0.0,0.25,1.5869139,4.889138888888889,0.0024414059999999793,0.4000000059604645,-0.1599999964237213,-29.1200008392334,-0.01422119140625,-0.011474609375,1.0625,36.560001373291016,0.0,0.0,1.6639404296875,-2.5189208984375,Closing,0.0,0.0,3.0,0.0,0.0,0.0,0.0,0.0,
3.002697,0.0,0.0,66802.0,0.375,847.5,840.0,0.0,0.25,0.7763671080000001,4.862651459156392,-0.004882811999999959,-68103.0,1.0,-825.0,-840.0,0.0,0.25,0.47363276400000004,4.89372569105196,0.0,24897.0,3.5,847.5,840.0,0.0,0.125,3.3166500510000003,4.870685467713674,-0.0012207030000004337,-73747.0,1.875,-832.5,-840.0,0.0,0.25,1.5869139,4.888037112161848,-0.0024414059999999793,0.36000001430511475,-0.23000000417232513,-29.190000534057617,-0.03125,-0.0013427734375,0.784423828125,36.560001373291016,0.0,-21.0,1.6639251708984375,-2.5207061767578125,Closing,0.0,0.0,3.0,0.0,0.0,0.0,0.0,0.0,
3.038997000000003,0.0,0.0,66937.0,0.375,840.0,840.0,0.0,0.25,0.766601484,4.861692414531957,-0.014648435999999876,-68103.0,1.0,-832.5,-840.0,0.0,0.25,0.47363276400000004,4.8927605177598,0.0,25032.0,3.5,847.5,840.0,0.0,0.125,3.3117672390000004,4.86972483856837,-0.0012207030000004337,-73747.0,1.625,-825.0,-840.0,0.0,0.25,1.5869139,4.887073060809241,-0.0024414059999999793,0.3400000035762787,-0.23000000417232513,-29.209999084472656,-0.0108642578125,0.02044677734375,0.96038818359375,36.560001373291016,0.0,-13.0,1.66387939453125,-2.5213775634765625,Closing,0.0,0.0,3.0,0.0,0.0,0.0,0.0,0.0,
3.0670429999999977,0.0,0.0,66937.0,0.375,832.5,840.0,0.0,0.25,0.760497969,4.861281410339775,-0.017089841999999855,-68103.0,1.0,-840.0,-840.0,0.0,0.25,0.47363276400000004,4.8923468870911595,0.0,25032.0,3.5,847.5,840.0,0.0,0.125,3.3190914570000003,4.869313155320485,0.0,-73747.0,1.875,-825.0,-840.0,0.0,0.25,1.591796712,4.88665991095437,0.0,0.3100000023841858,-0.20999999344348907,-29.219999313354492,0.01226806640625,-0.05352783203125,1.01544189453125,36.560001373291016,0.0,42.0,1.6636505126953125,-2.523468017578125,Closing,0.0,0.0,3.0,0.0,0.0,0.0,0.0,0.0,
3.1055449999999984,0.0,0.0,66937.0,0.375,832.5,840.0,0.0,0.25,0.7641600780000001,4.861281410339775,0.0024414059999999793,-68241.0,0.875,-847.5,-840.0,0.0,0.25,0.468749952,4.8923468870911595,0.0,25032.0,3.5,855.0,840.0,0.0,0.125,3.3166500510000003,4.869313155320485,0.0012207030000004337,-73880.0,1.875,-825.0,-840.0,0.0,0.25,1.5869139,4.88665991095437,-0.0012207029999995456,0.2800000011920929,-0.27000001072883606,-29.200000762939453,-0.00341796875,0.01702880859375,1.04241943359375,36.560001373291016,0.0,-4.0,1.66351318359375,-2.52496337890625,Closing,0.0,0.0,3.0,0.0,0.0,0.0,0.0,0.0,
3.1435750000000042,0.0,0.0,67070.0,0.375,832.5,840.0,0.0,0.25,0.759277266,4.861692414531957,0.0024414059999999793,-68241.0,0.875,-855.0,-840.0,0.0,0.25,0.46142573400000003,4.8927605177598,0.0,25167.0,3.5,847.5,840.0,0.0,0.125,3.3178707540000003,4.86972483856837,0.0012207030000004337,-73880.0,1.875,-825.0,-840.0,0.0,0.25,1.5869139,4.887073060809241,0.0012207029999995456,0.3199999928474426,-0.2199999988079071,-29.170000076293945,-0.00213623046875,0.07281494140625,1.2757568359375,36.560001373291016,0.0,-29.0,1.6631317138671875,-2.5250091552734375,Closing,0.0,0.0,3.0,0.0,0.0,0.0,0.0,0.0,
3.170942000000003,0.0,0.0,67070.0,0.25,832.5,0.0,0.0,0.25,0.766601484,0.01,-0.004882811999999959,-68241.0,0.5,-847.5,-0.0,0.0,0.25,0.457763625,0.01,-0.014648436000000764,25167.0,2.375,840.0,0.0,0.0,0.0,3.3166500510000003,0.01,0.0,-73880.0,0.75,-832.5,-0.0,0.0,0.25,1.588134603,0.01,0.0012207029999995456,0.2800000011920929,-0.20000000298023224,-29.15999984741211,0.03717041015625,-0.01995849609375,0.5943603515625,36.560001373291016,0.0,45.0,1.662750244140625,-2.525054931640625,Closing,0.0,0.0,3.0,0.0,0.0,0.0,0.0,0.0,
3.2127220000000016,0.0,0.0,67070.0,0.125,780.0,0.0,0.0,0.25,0.780029217,0.01,0.0024414059999999793,-68346.0,0.125,-735.0,-0.0,0.0,0.25,0.46386714,0.01,0.0,25167.0,1.0,825.0,0.0,0.0,0.0,3.331298487,0.01,0.0,-73991.0,0.25,-780.0,-0.0,0.0,0.25,1.5771482760000002,0.01,-0.0012207029999995456,0.33000001311302185,-0.4099999964237213,-29.079999923706055,-0.26220703125,0.1748046875,1.0438232421875,36.560001373291016,0.0,-304.0,1.661376953125,-2.5258941650390625,Closing,0.0,0.0,3.0,0.0,0.0,0.0,0.0,0.0,
3.264003000000004,0.0,0.0,67183.0,0.375,712.5,0.0,0.0,0.25,0.786132732,0.01,0.0024414059999999793,-68346.0,0.125,-660.0,-0.0,0.0,0.25,0.47363276400000004,0.01,0.0,25273.0,0.375,742.5,0.0,0.0,0.0,3.3642574680000004,0.01,0.0183105449999994,-73991.0,0.25,-630.0,-0.0,0.0,0.25,1.591796712,0.01,-0.008544921000000372,0.38999998569488525,-0.949999988079071,-29.110000610351562,-0.2640380859375,0.1571044921875,1.01251220703125,36.560001373291016,0.0,-288.0,1.6578369140625,-2.527923583984375,Closing,0.0,0.0,3.0,0.0,0.0,0.0,0.0,0.0,
3.291294999999998,0.0,0.0,67183.0,0.375,682.5,0.0,0.0,0.25,0.794677653,0.01,0.01586913900000031,-68346.0,0.125,-577.5,-0.0,0.0,0.25,0.47851557600000005,0.01,0.004882811999999959,25273.0,0.375,675.0,0.0,0.0,0.0,3.3642574680000004,0.01,0.0183105449999994,-73991.0,0.25,-585.0,-0.0,0.0,0.25,1.595458821,0.01,0.01342773300000033,0.4399999976158142,-1.059999942779541,-29.06999969482422,-0.24920654296875,0.0765380859375,1.155517578125,36.560001373291016,0.0,-231.0,1.6543121337890625,-2.5297088623046875,Closing,0.0,0.0,3.0,0.0,0.0,0.0,0.0,0.0,
3.3299880000000046,0.0,0.0,67183.0,0.75,630.0,0.0,0.0,0.125,0.8032225740000001,0.01,0.019531247999999835,-68346.0,0.375,-592.5,-0.0,0.0,0.25,0.47973627900000004,0.01,0.014648436000000764,25273.0,0.375,555.0,0.0,0.0,0.0,3.3728023890000003,0.01,-4.911103128,-74087.0,0.125,-577.5,-0.0,0.0,0.25,1.6101072570000001,0.01,0.01342773300000033,0.4699999988079071,-1.3799999952316284,-29.010000228881836,-0.13226318359375,0.011474609375,0.9971923828125,36.560001373291016,0.0,-96.0,1.649993896484375,-2.53204345703125,Closing,0.0,0.0,3.0,0.0,0.0,0.0,0.0,0.0,
3.362319000000003,0.0,0.0,67183.0,0.875,600.0,0.0,0.0,0.125,0.8032225740000001,0.01,0.019531247999999835,-68442.0,0.625,-592.5,-0.0,0.0,0.25,0.47851557600000005,0.01,0.0,25273.0,0.25,510.0,0.0,0.0,0.0,3.3642574680000004,0.01,0.0,-74087.0,0.375,-585.0,-0.0,0.0,0.25,1.621093584,0.01,0.019531247999999835,0.47999998927116394,-1.6799999475479126,-28.959999084472656,-0.239990234375,0.007568359375,1.02313232421875,36.560001373291016,0.0,-182.0,1.64190673828125,-2.5362701416015625,Closing,0.0,0.0,3.0,0.0,0.0,0.0,0.0,0.0,
3.4039429999999995,0.0,0.0,67261.0,1.0,502.5,0.0,0.0,0.125,0.8044432770000001,0.01,0.004882811999999959,-68442.0,1.0,-457.5,-0.0,0.0,0.25,0.47973627900000004,0.01,0.0,25348.0,0.125,465.0,0.0,0.0,0.0,3.3642574680000004,0.01,0.0,-74087.0,0.375,-442.5,-0.0,0.0,0.125,1.6296385050000002,0.01,0.014648435999999876,0.46000000834465027,-2.0799999237060547,-28.950000762939453,-0.23126220703125,0.00537109375,1.0714111328125,36.560001373291016,0.0,-166.0,1.6319122314453125,-2.541534423828125,Closing,0.0,0.0,3.0,0.0,0.0,0.0,0.0,0.0,
3.449152000000002,0.0,0.0,67261.0,1.0,367.5,0.0,0.0,0.125,0.8044432770000001,0.01,0.0,-68442.0,1.0,-405.0,-0.0,0.0,0.25,0.47851557600000005,0.01,0.0,25348.0,0.125,375.0,0.0,0.0,0.0,3.3642574680000004,0.01,0.0,-74141.0,0.375,-390.0,-0.0,0.0,0.125,1.6284178020000002,0.01,0.004882811999999959,0.4699999988079071,-2.2899999618530273,-28.920000076293945,-0.22589111328125,-0.02752685546875,0.94830322265625,36.560001373291016,0.0,-147.0,1.6242218017578125,-2.5456390380859375,Closing,0.0,0.0,3.0,0.0,0.0,0.0,0.0,0.0,
3.4768819999999976,0.0,0.0,67296.0,0.75,277.5,0.0,0.0,0.125,0.8032225740000001,0.01,-0.0012207029999995456,-68491.0,0.625,-270.0,-0.0,0.0,0.25,0.47851557600000005,0.01,0.0,25348.0,0.125,277.5,0.0,0.0,0.0,3.3642574680000004,0.01,-0.0012207029999999897,-74141.0,0.25,-292.5,-0.0,0.0,0.125,1.6296385050000002,0.01,0.0,0.44999998807907104,-2.569999933242798,-28.860000610351562,-0.16302490234375,0.01422119140625,1.0159912109375,36.560001373291016,0.0,-105.0,1.6113739013671875,-2.55267333984375,Closing,0.0,0.0,3.0,0.0,0.0,0.0,0.0,0.0,
3.528858,0.0,0.0,67296.0,0.625,180.0,0.0,0.0,0.125,0.8044432770000001,0.01,0.0012207029999995456,-68491.0,0.625,-225.0,-0.0,0.0,0.25,0.46630854600000005,0.01,0.0,25382.0,0.125,187.5,0.0,0.0,0.0,3.3642574680000004,0.01,0.0012207029999999897,-74141.0,0.25,-202.5,-0.0,0.0,0.125,1.6308592080000002,0.01,0.0,0.4399999976158142,-2.799999952316284,-28.81999969482422,-0.1234130859375,-0.0089111328125,1.01953125,36.560001373291016,0.0,-56.0,1.5972137451171875,-2.5604400634765625,Closing,0.0,0.0,3.0,0.0,0.0,0.0,0.0,0.0,
3.562114999999998,0.0,0.0,67296.0,0.375,142.5,0.0,0.0,0.125,0.8044432770000001,0.01,0.0012207029999995456,-68491.0,0.5,-142.5,-0.0,0.0,0.25,0.483398388,0.01,0.003662108999999525,25382.0,0.125,105.0,0.0,0.0,0.0,3.3654781710000004,0.01,0.0,-74156.0,0.25,-127.5,-0.0,0.0,0.125,1.6296385050000002,0.01,0.0,0.4300000071525574,-2.890000104904175,-28.790000915527344,-0.13714599609375,0.01629638671875,1.016357421875,36.560001373291016,0.0,-79.0,1.58721923828125,-2.5659027099609375,Closing,0.0,0.0,3.0,0.0,0.0,0.0,0.0,0.0,
3.603881999999998,0.0,0.0,67296.0,0.375,67.5,0.0,0.0,0.125,0.8056639800000001,0.01,0.0,-68503.0,0.375,-67.5,-0.0,0.0,0.25,0.483398388,0.01,0.003662108999999525,25382.0,0.125,60.0,0.0,0.0,0.0,3.3752437950000003,0.01,-0.0012207029999999897,-74156.0,0.125,-60.0,-0.0,0.0,0.125,1.6296385050000002,0.01,0.0,0.41999998688697815,-2.950000047683716,-28.84000015258789,-0.0316162109375,0.01531982421875,1.01800537109375,36.560001373291016,0.0,14.0,1.5717620849609375,-2.5744476318359375,Closing,0.0,0.0,3.0,0.0,0.0,0.0,0.0,0.0,
3.651561999999998,0.0,0.0,67301.0,0.125,22.5,0.0,0.0,0.125,0.8044432770000001,0.01,0.0012207030000004337,-68503.0,0.25,-15.0,-0.0,0.0,0.25,0.483398388,0.01,0.0,25390.0,0.375,45.0,0.0,0.0,0.0,3.3654781710000004,0.01,-0.0012207029999999897,-74156.0,0.0,-15.0,-0.0,0.0,0.125,1.6308592080000002,0.01,0.0,0.4300000071525574,-2.930000066757202,-28.860000610351562,-0.00689697265625,0.01373291015625,1.02752685546875,36.560001373291016,0.0,37.0,1.571868896484375,-2.5744171142578125,Closing,0.0,0.0,3.0,0.0,0.0,0.0,0.0,0.0,
3.6922350000000006,0.0,0.0,67301.0,0.125,0.0,0.0,0.0,0.125,0.8044432770000001,0.01,-0.0012207030000004337,-68503.0,0.0,0.0,-0.0,0.0,0.25,0.483398388,0.01,0.0,25390.0,0.375,52.5,0.0,0.0,0.0,3.3715816860000003,0.01,0.0,-74156.0,0.125,0.0,-0.0,0.0,0.125,1.6296385050000002,0.01,0.0,0.4399999976158142,-2.8299999237060547,-28.860000610351562,0.00982666015625,0.00445556640625,1.02874755859375,36.560001373291016,0.0,46.0,1.57269287109375,-2.574005126953125,Closing,0.0,0.0,3.0,0.0,0.0,0.0,0.0,0.0,
3.7397410000000018,0.0,0.0,67299.0,0.125,0.0,420.0,0.0,0.125,0.8044432770000001,0.5498168668524888,0.0,-68503.0,0.0,0.0,-420.0,0.0,0.25,0.483398388,1.9285545897722227,0.0012207030000004337,25390.0,0.375,45.0,420.0,0.0,0.0,3.3642574680000004,4.389674732977289,0.0,-74156.0,0.125,0.0,-420.0,0.0,0.125,1.6296385050000002,3.0316872062785585,0.0,0.4099999964237213,-2.7100000381469727,-28.850000381469727,0.026123046875,0.004638671875,0.99932861328125,36.560001373291016,0.0,65.0,1.57354736328125,-2.5736083984375,Closing,0.0,0.0,3.0,0.0,0.0,0.0,0.0,0.0,
3.767184999999998,0.0,0.0,67299.0,0.125,-7.5,420.0,0.0,0.125,0.8142089010000001,0.5498168668524888,0.0,-68503.0,0.125,0.0,-420.0,0.0,0.25,0.48706049700000004,1.9285545897722227,-0.0012207030000004337,25396.0,1.125,30.0,420.0,0.0,1.375,3.339843408,4.389674732977289,0.0,-74156.0,0.625,-22.5,-420.0,0.0,6.25,1.541747889,3.0316872062785585,0.0,0.41999998688697815,-2.5899999141693115,-28.860000610351562,0.0478515625,0.03338623046875,1.03271484375,36.560001373291016,0.0,70.0,1.57476806640625,-2.572967529296875,Closing,0.0,0.0,3.0,0.0,0.0,0.0,0.0,0.0,
3.807881999999998,0.0,0.0,67299.0,0.125,0.0,420.0,0.0,2.25,1.0083006780000001,0.5498168668524888,-4.915161158,-68516.0,0.25,-60.0,-420.0,0.0,8.25,0.794677653,1.9285545897722227,0.004882811999999959,25396.0,1.75,15.0,420.0,0.0,2.125,3.121337571,4.389674732977289,4.895233989,-74168.0,0.75,-75.0,-420.0,0.0,8.125,1.151122929,3.0316872062785585,-0.12329100300000029,0.4099999964237213,-2.4600000381469727,-28.899999618530273,0.03643798828125,0.0201416015625,1.019775390625,36.560001373291016,0.0,64.0,1.576904296875,-2.57147216796875,Closing,0.0,0.0,3.0,0.0,0.0,0.0,0.0,0.0,
3.862662000000004,0.0,0.0,67311.0,0.125,30.0,420.0,0.0,1.25,1.114501839,0.5498168668524888,-4.915161158,-68516.0,0.25,-105.0,-420.0,0.0,4.5,1.064453016,1.9285545897722227,0.3527831670000001,25402.0,2.5,22.5,420.0,0.0,0.625,2.9479977450000003,4.389674732977289,-0.21240232199999998,-74168.0,1.375,-67.5,-420.0,0.0,1.875,0.7910155440000001,3.0316872062785585,-0.3637694939999996,0.38999998569488525,-2.2799999713897705,-28.889999389648438,0.0738525390625,-0.0247802734375,0.96258544921875,36.560001373291016,0.0,113.0,1.57958984375,-2.5684661865234375,Closing,0.0,0.0,3.0,0.0,0.0,0.0,0.0,0.0,
3.912743000000002,0.0,0.0,67311.0,0.375,120.0,420.0,0.0,0.625,1.2902830710000002,0.5498168668524888,0.19165037099999993,-68516.0,0.375,-165.0,-420.0,0.0,1.25,1.4721678180000002,1.9285545897722227,0.42724604999999993,25402.0,3.375,60.0,420.0,0.0,0.25,2.861327832,4.389674732977289,-0.18188474700000068,-74168.0,1.875,-7.5,-420.0,0.0,1.875,0.510253854,3.0316872062785585,-0.40039058400000016,0.4000000059604645,-2.049999952316284,-28.920000076293945,0.013671875,-0.04327392578125,1.07421875,36.560001373291016,0.0,70.0,1.583526611328125,-2.5665435791015625,Closing,0.0,0.0,3.0,0.0,0.0,0.0,0.0,0.0,
3.9465639999999986,0.0,0.0,67311.0,0.375,142.5,420.0,0.0,0.5,1.337890488,0.5498168668524888,0.19165037099999993,-68539.0,0.375,-142.5,-420.0,0.0,1.5,1.7883298950000002,1.9285545897722227,0.42724604999999993,25402.0,3.375,112.5,420.0,0.0,0.125,2.805175494,4.389674732977289,-0.07446288299999981,-74166.0,2.5,0.0,-420.0,0.0,1.875,0.13916014200000001,3.0316872062785585,-0.26367184800000043,0.36000001430511475,-1.9700000286102295,-29.18000030517578,-0.05377197265625,0.02947998046875,1.0289306640625,36.560001373291016,0.0,-27.0,1.5881805419921875,-2.5665435791015625,Closing,0.0,0.0,3.0,0.0,0.0,0.0,0.0,0.0,
3.9933270000000047,0.0,0.0,67333.0,0.5,127.5,420.0,0.0,0.375,1.357421736,0.5498168668524888,0.08789061599999992,-68539.0,0.625,-127.5,-420.0,0.0,1.5,2.077636506,1.9285545897722227,0.26123044200000045,25431.0,3.125,165.0,420.0,0.0,0.125,2.7941891670000003,4.389674732977289,-0.07446288299999981,-74166.0,2.5,0.0,-420.0,0.0,1.5,4.9230951990000005,3.0316872062785585,-0.26367184800000043,0.3799999952316284,-1.909999966621399,-29.5,-0.03582763671875,0.0452880859375,0.99969482421875,36.560001373291016,0.0,-21.0,1.591278076171875,-2.56658935546875,Closing,0.0,0.0,3.0,0.0,0.0,0.0,0.0,0.0,
4.046698000000004,0.0,0.0,67333.0,0.5,135.0,420.0,0.0,0.125,1.357421736,0.5498168668524888,0.04272460500000008,-68539.0,1.125,-150.0,-420.0,0.0,1.0,2.41699194,1.9285545897722227,0.6591796199999997,25431.0,2.875,202.5,420.0,0.0,0.0,2.755126671,4.389674732977289,-0.06225585299999992,-74176.0,2.5,-15.0,-420.0,0.0,0.625,4.6533198360000005,3.0316872062785585,-0.2595141529999996,0.4099999964237213,-1.9500000476837158,-30.09000015258789,-0.01812744140625,0.02197265625,1.083740234375,36.560001373291016,0.0,9.0,1.5957794189453125,-2.5664825439453125,Closing,0.0,0.0,3.0,0.0,0.0,0.0,0.0,0.0,
4.073467000000004,0.0,0.0,67333.0,0.75,165.0,420.0,0.0,0.125,1.357421736,0.5498168668524888,0.003662108999999969,-68566.0,1.375,-165.0,-420.0,0.0,0.0,2.495116932,1.9285545897722227,0.24291989700000016,25431.0,3.25,225.0,420.0,0.0,0.0,2.7502438590000002,4.389674732977289,-0.037841793000000123,-74176.0,3.0,-67.5,-420.0,0.0,0.5,4.566649923,3.0316872062785585,-0.2595141529999996,0.46000000834465027,-2.0299999713897705,-30.8700008392334,-0.10491943359375,-0.02001953125,1.08258056640625,36.560001373291016,0.0,-42.0,1.5999908447265625,-2.5662994384765625,Closing,0.0,0.0,3.0,0.0,0.0,0.0,0.0,0.0,
4.109669000000002,0.0,0.0,67364.0,0.875,195.0,420.0,0.0,0.125,1.357421736,0.5498168668524888,0.0012207029999999897,-68566.0,1.375,-165.0,-420.0,0.0,0.0,2.5329587250000003,1.9285545897722227,0.06835936799999986,25469.0,3.125,232.5,420.0,0.0,0.0,2.7502438590000002,4.389674732977289,-0.0012207029999995456,-74176.0,2.875,-127.5,-420.0,0.0,0.375,4.52880813,3.0316872062785585,-0.2685546600000004,0.49000000953674316,-2.049999952316284,-31.520000457763672,-0.02239990234375,0.06915283203125,0.99603271484375,36.560001373291016,0.0,-20.0,1.6024932861328125,-2.5661773681640625,Closing,0.0,0.0,3.0,0.0,0.0,0.0,0.0,0.0,
4.148345000000001,0.0,0.0,67364.0,0.875,202.5,420.0,0.0,0.125,1.357421736,0.5498168668524888,0.0012207029999999897,-68566.0,1.5,-195.0,-420.0,0.0,0.25,2.5378415370000003,1.9285545897722227,0.06835936799999986,25469.0,3.125,232.5,420.0,0.0,0.0,2.757568077,4.389674732977289,-0.0012207029999995456,-74176.0,2.875,-157.5,-420.0,0.0,0.375,4.536132348000001,3.0316872062785585,-0.035400386999999256,0.5400000214576721,-2.109999895095825,-32.2599983215332,-0.04150390625,0.06903076171875,1.03826904296875,36.560001373291016,0.0,-34.0,1.6047515869140625,-2.566009521484375,Closing,0.0,0.0,3.0,0.0,0.0,0.0,0.0,0.0,
4.190690999999999,0.0,0.0,67364.0,0.75,225.0,420.0,0.0,0.125,1.357421736,0.5498168668524888,0.0,-68608.0,1.5,-247.5,-420.0,0.0,0.25,2.518310289,1.9285545897722227,0.032958981000000165,25469.0,3.875,240.0,420.0,0.0,0.0,2.75878878,4.389674732977289,0.004882811999999959,-74214.0,2.625,-217.5,-420.0,0.0,0.375,4.552001487,3.0316872062785585,-0.035400386999999256,0.5600000023841858,-2.0799999237060547,-33.529998779296875,-0.04254150390625,0.0047607421875,0.99444580078125,36.560001373291016,0.0,-2.0,1.6081695556640625,-2.5659027099609375,Closing,0.0,0.0,3.0,0.0,0.0,0.0,0.0,0.0,
4.215839,0.0,0.0,67405.0,0.875,247.5,420.0,0.0,0.125,1.3488768150000001,0.5498168668524888,0.0,-68608.0,1.25,-300.0,-420.0,0.0,0.25,2.498779041,1.9285545897722227,-0.01464843600000032,25513.0,3.875,262.5,420.0,0.0,0.0,2.764892295,4.389674732977289,0.004882811999999959,-74214.0,2.375,-315.0,-420.0,0.0,0.25,4.562987814,3.0316872062785585,0.02075195099999938,0.6600000262260437,-1.9199999570846558,-35.5,-0.06207275390625,0.0211181640625,1.006591796875,36.560001373291016,0.0,-28.0,1.6128997802734375,-2.5655670166015625,Closing,0.0,0.0,3.0,0.0,0.0,0.0,0.0,0.0,
4.2697870000000036,0.0,0.0,67405.0,0.75,285.0,420.0,0.0,0.125,1.357421736,0.5498168668524888,0.0,-68608.0,1.125,-337.5,-420.0,0.0,0.25,2.464599357,1.9285545897722227,-0.023193356999999803,25513.0,3.75,307.5,420.0,0.0,0.0,2.764892295,4.389674732977289,0.006103514999999504,-74274.0,2.25,-352.5,-420.0,0.0,0.25,4.594726092,3.0316872062785585,0.0,0.7300000190734863,-1.8600000143051147,-37.150001525878906,0.0302734375,0.0203857421875,0.98681640625,36.560001373291016,0.0,45.0,1.6165618896484375,-2.5649871826171875,Closing,0.0,0.0,3.0,0.0,0.0,0.0,0.0,0.0,
4.320391000000003,0.0,0.0,67405.0,0.75,315.0,420.0,0.0,0.125,1.358642439,0.5498168668524888,0.0,-68667.0,1.0,-367.5,-420.0,0.0,0.25,2.445068109,1.9285545897722227,-0.0402831990000001,25513.0,3.5,315.0,420.0,0.0,0.0,2.764892295,4.389674732977289,-0.0012207029999995456,-74274.0,2.125,-382.5,-420.0,0.0,0.375,4.611815934,3.0316872062785585,0.03906249600000056,0.7599999904632568,-1.7999999523162842,-38.310001373291016,0.03826904296875,0.019287109375,0.94287109375,36.560001373291016,0.0,48.0,1.6206207275390625,-2.563873291015625,Closing,0.0,0.0,3.0,0.0,0.0,0.0,0.0,0.0,
4.3503320000000025,0.0,0.0,67462.0,0.5,352.5,420.0,0.0,0.125,1.356201033,0.5498168668524888,0.0,-68667.0,0.75,-390.0,-420.0,0.0,0.125,2.4279782670000003,1.9285545897722227,-0.014648435999999876,25569.0,3.625,352.5,420.0,0.0,0.0,2.763671592,4.389674732977289,0.0012207029999995456,-74274.0,2.0,-397.5,-420.0,0.0,0.25,4.622802261,3.0316872062785585,0.021972653999999814,0.800000011920929,-1.6200000047683716,-40.7599983215332,0.0206298828125,-0.02789306640625,0.93145751953125,36.560001373291016,0.0,62.0,1.6250762939453125,-2.5623931884765625,Closing,0.0,0.0,3.0,0.0,0.0,0.0,0.0,0.0,
4.396837,0.0,0.0,67462.0,0.5,390.0,420.0,0.0,0.125,1.357421736,0.5498168668524888,-0.0012207029999999897,-68734.0,0.625,-412.5,-420.0,0.0,0.0,2.4353024850000002,1.9285545897722227,-0.004882811999999959,25569.0,3.125,405.0,420.0,0.0,0.0,2.772216513,4.389674732977289,-0.0012207029999995456,-74342.0,2.125,-427.5,-420.0,0.0,0.25,4.641112806000001,3.0316872062785585,0.0,0.800000011920929,-1.5,-43.40999984741211,-0.0181884765625,-0.011962890625,0.9700927734375,36.560001373291016,0.0,22.0,1.6316986083984375,-2.5606231689453125,Closing,0.0,0.0,3.0,0.0,0.0,0.0,0.0,0.0,
4.510991999999998,0.0,0.0,67527.0,0.375,420.0,420.0,0.0,0.125,1.356201033,0.5498168668524888,0.0012207029999999897,-68734.0,0.5,-420.0,-420.0,0.0,0.0,2.4353024850000002,1.9285545897722227,0.0,25639.0,2.875,435.0,420.0,0.0,0.0,2.763671592,4.389674732977289,0.0,-74342.0,1.875,-450.0,-420.0,0.0,0.125,4.641112806000001,3.0316872062785585,0.009765623999999917,0.8600000143051147,-1.2699999809265137,-46.88999938964844,-0.00115966796875,0.0380859375,0.91656494140625,36.560001373291016,0.0,-4.0,1.640838623046875,-2.5581512451171875,Closing,0.0,0.0,3.0,0.0,0.0,0.0,0.0,0.0,
4.546251000000004,0.0,0.0,67527.0,0.375,435.0,420.0,0.0,0.125,1.357421736,0.5498168668524888,0.0012207029999999897,-68805.0,0.375,-442.5,-420.0,0.0,0.0,2.4365231880000002,1.9285545897722227,0.0,25639.0,2.625,442.5,420.0,0.0,0.0,2.764892295,4.389674732977289,0.0,-74416.0,1.625,-457.5,-420.0,0.0,0.125,4.648437024000001,3.0316872062785585,0.0,0.8799999952316284,-1.2799999713897705,-49.04999923706055,-0.0198974609375,-0.01947021484375,1.0155029296875,36.560001373291016,0.0,28.0,1.6463775634765625,-2.556488037109375,Closing,0.0,0.0,3.0,0.0,0.0,0.0,0.0,0.0,
4.598228999999999,0.0,0.0,67597.0,0.375,435.0,420.0,0.0,0.125,1.357421736,0.5498168668524888,-0.0012207029999999897,-68805.0,0.375,-450.0,-420.0,0.0,0.0,2.4340817820000002,1.9285545897722227,0.0,25712.0,2.5,450.0,420.0,0.0,0.0,2.763671592,4.389674732977289,0.0,-74416.0,1.375,-472.5,-420.0,0.0,0.125,4.6557612420000005,3.0316872062785585,0.009765623999999917,0.8899999856948853,-1.2000000476837158,-50.5099983215332,-0.007568359375,0.0540771484375,1.027099609375,36.560001373291016,0.0,-20.0,1.6502685546875,-2.5554046630859375,Closing,0.0,0.0,3.0,0.0,0.0,0.0,0.0,0.0,
4.631552000000004,0.0,0.0,67597.0,0.375,442.5,420.0,0.0,0.125,1.357421736,0.5498168668524888,0.0,-68805.0,0.25,-457.5,-420.0,0.0,0.0,2.4353024850000002,1.9285545897722227,0.0,25712.0,2.5,450.0,420.0,0.0,0.0,2.764892295,4.389674732977289,0.0,-74416.0,1.25,-487.5,-420.0,0.0,0.125,4.654540539,3.0316872062785585,0.009765623999999917,0.8600000143051147,-1.149999976158142,-53.43000030517578,-0.0330810546875,0.04010009765625,0.99432373046875,36.58000183105469,0.0,-27.0,1.658294677734375,-2.5534210205078125,Closing,0.0,0.0,3.0,0.0,0.0,0.0,0.0,0.0,
4.670927000000003,0.0,0.0,67597.0,0.125,450.0,420.0,0.0,0.125,1.356201033,0.5498168668524888,0.0,-68879.0,0.25,-457.5,-420.0,0.0,0.0,2.4328610790000003,1.9285545897722227,0.0012207029999999897,25712.0,2.5,345.0,420.0,0.0,0.0,2.764892295,4.389674732977289,0.0,-74495.0,1.25,-487.5,-420.0,0.0,0.125,4.647216321,3.0316872062785585,0.004882811999999959,0.8700000047683716,-1.0499999523162842,-55.65999984741211,0.04144287109375,-0.028564453125,0.9078369140625,36.58000183105469,0.0,67.0,1.6644439697265625,-2.552154541015625,Closing,0.0,0.0,3.0,0.0,0.0,0.0,0.0,0.0,
4.723061999999998,0.0,0.0,67670.0,0.125,450.0,420.0,0.0,0.125,1.357421736,0.5498168668524888,0.0012207029999999897,-68879.0,0.25,-457.5,-420.0,0.0,0.0,2.4353024850000002,1.9285545897722227,-0.0012207029999999897,25754.0,3.25,232.5,420.0,0.0,0.0,2.764892295,4.389674732977289,0.0,-74495.0,1.0,-487.5,-420.0,0.0,0.125,4.6533198360000005,3.0316872062785585,0.0012207030000004337,0.8999999761581421,-1.0199999809265137,-57.13999938964844,-9.765625E-4,0.037109375,1.11407470703125,36.58000183105469,0.0,-6.0,1.666595458984375,-2.551239013671875,Closing,0.0,0.0,3.0,0.0,0.0,0.0,0.0,0.0,
4.7526319999999975,0.0,0.0,67670.0,0.375,457.5,420.0,0.0,0.125,1.357421736,0.5498168668524888,0.0012207029999999897,-68879.0,0.25,-450.0,-420.0,0.0,0.0,2.4353024850000002,1.9285545897722227,-0.0012207029999999897,25754.0,3.875,210.0,420.0,0.0,0.0,2.764892295,4.389674732977289,0.0,-74495.0,1.0,-487.5,-420.0,0.0,0.125,4.6533198360000005,3.0316872062785585,-0.0012207030000004337,0.8700000047683716,-0.9300000071525574,-58.630001068115234,-0.0184326171875,-0.01171875,0.945068359375,36.58000183105469,0.0,20.0,1.6667327880859375,-2.5502777099609375,Closing,0.0,0.0,3.0,0.0,0.0,0.0,0.0,0.0,
4.789984000000004,0.0,0.0,67670.0,0.125,442.5,420.0,0.0,0.125,1.358642439,0.5498168668524888,-0.0012207029999999897,-68951.0,0.25,-442.5,-420.0,0.0,0.0,2.4353024850000002,1.9285545897722227,0.0,25754.0,4.75,187.5,420.0,0.0,0.0,2.764892295,4.389674732977289,0.0,-74572.0,1.0,-480.0,-420.0,0.0,0.125,4.664306163,3.0316872062785585,-0.0012207030000004337,0.8899999856948853,-0.9100000262260437,-60.119998931884766,-0.050537109375,-0.0018310546875,1.059814453125,36.58000183105469,0.0,0.0,1.6668243408203125,-2.549346923828125,Closing,0.0,0.0,3.0,0.0,0.0,0.0,0.0,0.0,
4.8179520000000045,0.0,0.0,67741.0,0.125,435.0,420.0,0.0,0.125,1.357421736,0.5498168668524888,0.0,-68951.0,0.25,-450.0,-420.0,0.0,0.0,2.4353024850000002,1.9285545897722227,0.0,25779.0,5.25,150.0,420.0,0.0,0.0,2.764892295,4.389674732977289,0.0,-74572.0,1.0,-487.5,-420.0,0.0,0.125,4.664306163,3.0316872062785585,0.009765623999999917,0.9200000166893005,-0.8100000023841858,-63.18000030517578,0.03985595703125,-0.0408935546875,1.02667236328125,36.58000183105469,0.0,75.0,1.6668853759765625,-2.547515869140625,Closing,0.0,0.0,3.0,0.0,0.0,0.0,0.0,0.0,
4.871607000000004,0.0,0.0,67741.0,0.125,442.5,420.0,0.0,0.125,1.357421736,0.5498168668524888,0.0012207029999999897,-68951.0,0.25,-442.5,-420.0,0.0,0.0,2.4353024850000002,1.9285545897722227,0.0012207029999999897,25779.0,6.25,180.0,420.0,0.0,0.0,2.763671592,4.389674732977289,0.0,-74654.0,0.75,-502.5,-420.0,0.0,0.125,4.670409678,3.0316872062785585,0.0,0.9399999976158142,-0.7400000095367432,-65.55999755859375,-0.014892578125,0.05145263671875,1.0120849609375,36.58000183105469,0.0,-19.0,1.6671905517578125,-2.5465087890625,Closing,0.0,0.0,3.0,0.0,0.0,0.0,0.0,0.0,
4.926675000000003,0.0,0.0,67741.0,0.125,442.5,420.0,0.0,0.125,1.357421736,0.5498168668524888,-0.0012207029999999897,-69022.0,0.25,-435.0,-420.0,0.0,0.0,2.4340817820000002,1.9285545897722227,-0.0012207029999999897,25779.0,6.25,240.0,420.0,0.0,0.0,2.766112998,4.389674732977289,0.0,-74654.0,0.625,-510.0,-420.0,0.0,0.125,4.666747569,3.0316872062785585,0.0,0.9300000071525574,-0.6499999761581421,-68.01000213623047,-1.220703125E-4,-0.0186767578125,0.98187255859375,36.58000183105469,0.0,36.0,1.6672210693359375,-2.546295166015625,Closing,0.0,0.0,3.0,0.0,0.0,0.0,0.0,0.0,
4.981798000000002,0.0,0.0,67813.0,0.125,442.5,420.0,0.0,0.125,1.357421736,0.5498168668524888,0.0012207029999999897,-69022.0,0.25,-450.0,-420.0,0.0,0.0,2.4353024850000002,1.9285545897722227,0.0,25844.0,5.125,472.5,420.0,0.0,0.0,2.764892295,4.389674732977289,0.0012207029999995456,-74654.0,0.625,-517.5,-420.0,0.0,0.25,4.670409678,3.0316872062785585,0.004882811999999959,0.9300000071525574,-0.5400000214576721,-70.51000213623047,0.00140380859375,0.01068115234375,0.943359375,36.58000183105469,0.0,7.0,1.667236328125,-2.546295166015625,Closing,0.0,0.0,3.0,0.0,0.0,0.0,0.0,0.0,
