Time,ClimberA1,ClimberA2,FRpos,FRCurrent,FRspeed,FRsetpoint,FRApos,FRACurrent,FREncpos,FREncSetpoint,FREncSpeed,FLpos,FLCurrent,FLspeed,FLsetpoint,FLApos,FLACurrent,FLEncpos,FLEncSetpoint,FLEncSpeed,BRpos,BRCurrent,BRspeed,BRsetpoint,BRApos,BRACurrent,BREncpos,BREncSetpoint,BREncSpeed,BLpos,BLCurrent,BLspeed,BLsetpoint,BLApos,BLACurrent,BLEncpos,BLEncSetpoint,BLEncSpeed,navx_Pitch,navx_Roll,navx_Yaw,navx_XAcc,navx_YAcc,navx_ZAcc,navx_Temp,navx_Bar,navx_Alt,navx_XDis,navx_YDis,GearPlacerState,ShootOutputV,ShootOutputCurrent,ShootEncPos,ShootEncVelocity,ShootSpeed,ShootSetpoint,CarouselSetpoint,CarouselCurrent,
0.2613359999999957,0.0,0.0,19745.0,0.0,0.0,0.0,0.0,0.125,0.6738280560000001,0.01,0.0,-23495.0,0.0,0.0,0.0,0.0,0.125,0.36254879100000004,0.01,0.0,-1308.0,0.0,0.0,0.0,0.0,0.0,3.244628574,0.01,0.0,-25239.0,0.0,0.0,0.0,0.0,0.125,1.4282225100000001,0.01,0.0,0.20000000298023224,-0.46000000834465027,-66.68000030517578,0.0086669921875,0.0438232421875,1.02197265625,35.77000045776367,0.0,-30.0,4.207489013671875,-0.9373779296875,Waiting,0.0,0.0,3.0,0.0,0.0,0.0,0.0,0.0,
0.35431300000000193,0.0,0.0,19745.0,0.0,0.0,0.0,0.0,0.25,0.6738280560000001,0.01,4.796079056,-23495.0,0.0,0.0,-0.0,0.0,0.125,0.363769494,0.01,-0.14368120899999948,-1308.0,0.0,0.0,0.0,0.0,0.0,3.248290683,0.01,4.835028574,-25239.0,0.0,0.0,-0.0,0.0,0.375,1.456298679,0.01,4.765001807,0.20999999344348907,-0.46000000834465027,-66.68000030517578,0.0078125,0.06005859375,1.00579833984375,35.77000045776367,0.0,-45.0,4.2060394287109375,-0.9353790283203125,Closing,0.0,0.0,3.0,0.0,0.0,0.0,0.0,0.0,
0.4201820000000007,0.0,0.0,19745.0,0.0,0.0,0.0,0.0,0.375,0.703124928,0.01,0.0,-23495.0,0.0,0.0,-0.0,0.0,0.25,0.373535118,0.01,0.0,-1308.0,0.0,0.0,0.0,0.0,0.125,3.2641598220000003,0.01,0.0,-25239.0,0.0,0.0,-0.0,0.0,0.375,1.519775235,0.01,0.0,0.2199999988079071,-0.46000000834465027,-66.68000030517578,0.02374267578125,0.0562744140625,1.01531982421875,35.77000045776367,0.0,-35.0,4.2046356201171875,-0.9336700439453125,Closing,0.0,0.0,3.0,0.0,0.0,0.0,0.0,0.0,
0.4636489999999976,0.0,0.0,19745.0,0.0,0.0,0.0,0.0,0.375,0.7360839090000001,0.01,0.04638671399999961,-23495.0,0.0,0.0,-0.0,0.0,0.25,0.39550777200000004,0.01,0.009765623999999917,-1308.0,0.0,0.0,0.0,0.0,0.0,3.282470367,0.01,0.025634763000000227,-25239.0,0.0,0.0,-0.0,0.0,0.375,1.5588377310000001,0.01,0.10375975500000045,0.2199999988079071,-0.46000000834465027,-66.66999816894531,0.01531982421875,0.06158447265625,1.01324462890625,35.77000045776367,0.0,-43.0,4.203460693359375,-0.932220458984375,Closing,0.0,0.0,3.0,0.0,0.0,0.0,0.0,0.0,
0.5108940000000002,0.0,0.0,19745.0,0.0,0.0,0.0,0.0,0.375,0.7519530480000001,0.01,0.025634763000000227,-23495.0,0.0,0.0,-0.0,0.0,0.25,0.43457026800000004,0.01,0.04272460500000008,-1308.0,0.0,0.0,0.0,0.0,0.125,3.297118803,0.01,0.021972653999999814,-25239.0,0.0,0.0,-0.0,0.0,0.375,1.567382652,0.01,0.030517574999999297,0.23000000417232513,-0.44999998807907104,-66.66000366210938,0.0150146484375,0.05242919921875,1.00653076171875,35.77000045776367,0.0,-35.0,4.20037841796875,-0.92852783203125,Closing,0.0,0.0,3.0,0.0,0.0,0.0,0.0,0.0,
0.5411419999999998,0.0,0.0,19745.0,0.0,0.0,0.0,0.0,0.375,0.75683586,0.01,0.007324217999999938,-23495.0,0.0,0.0,-0.0,0.0,0.25,0.46020503100000004,0.01,0.024414059999999793,-1308.0,0.0,0.0,0.0,0.0,0.125,3.302001615,0.01,0.009765623999999917,-25239.0,0.0,0.0,-0.0,0.0,0.375,1.567382652,0.01,0.004882811999999959,0.23999999463558197,-0.44999998807907104,-66.66000366210938,-0.00152587890625,0.0423583984375,0.9998779296875,35.77000045776367,0.0,-32.0,4.1964263916015625,-0.9240264892578125,Closing,0.0,0.0,3.0,0.0,0.0,0.0,0.0,0.0,
0.609828999999998,0.0,0.0,19745.0,0.0,0.0,0.0,0.0,0.375,0.743408127,0.01,0.0024414059999999793,-23495.0,0.0,0.0,-0.0,0.0,0.25,0.468749952,0.01,0.023193357000000248,-1308.0,0.0,0.0,0.0,0.0,0.0,3.306884427,0.01,0.0024414059999999793,-25239.0,0.0,0.0,-0.0,0.0,0.375,1.566161949,0.01,0.0012207030000004337,0.23999999463558197,-0.4699999988079071,-66.66000366210938,-0.0054931640625,0.01708984375,1.00054931640625,35.779998779296875,0.0,-10.0,4.1918182373046875,-0.9215850830078125,Closing,0.0,0.0,3.0,0.0,0.0,0.0,0.0,0.0,
0.6612989999999991,0.0,0.0,19745.0,0.0,0.0,0.0,0.0,0.375,0.75683586,0.01,0.0,-23495.0,0.0,0.0,-0.0,0.0,0.25,0.468749952,0.01,0.0,-1308.0,0.0,0.0,0.0,0.0,0.0,3.302001615,0.01,0.0,-25239.0,0.0,0.0,-0.0,0.0,0.375,1.567382652,0.01,0.0,0.23999999463558197,-0.47999998927116394,-66.66000366210938,-0.00299072265625,4.8828125E-4,1.01239013671875,35.779998779296875,0.0,5.0,4.1918182373046875,-0.9215850830078125,Closing,0.0,0.0,3.0,0.0,0.0,0.0,0.0,0.0,
0.7057399999999979,0.0,0.0,19745.0,0.0,0.0,0.0,0.0,0.375,0.7531737510000001,0.01,0.0,-23495.0,0.0,0.0,-0.0,0.0,0.25,0.469970655,0.01,0.004882811999999959,-1308.0,0.0,0.0,0.0,0.0,0.0,3.306884427,0.01,0.0012207030000004337,-25239.0,0.0,0.0,-0.0,0.0,0.375,1.567382652,0.01,0.0,0.2199999988079071,-0.4699999988079071,-66.66000366210938,-0.00103759765625,-0.01177978515625,1.01727294921875,35.779998779296875,0.0,17.0,4.1918182373046875,-0.9215850830078125,Closing,0.0,0.0,3.0,0.0,0.0,0.0,0.0,0.0,
0.7284369999999981,0.0,0.0,19745.0,0.0,0.0,0.0,0.0,0.375,0.758056563,0.01,0.0,-23495.0,0.0,0.0,-0.0,0.0,0.25,0.468749952,0.01,0.004882811999999959,-1308.0,0.0,0.0,0.0,0.0,0.0,3.303222318,0.01,0.0012207030000004337,-25239.0,0.0,0.0,-0.0,0.0,0.375,1.567382652,0.01,0.0,0.2199999988079071,-0.4699999988079071,-66.66000366210938,-0.00341796875,-0.01727294921875,1.023193359375,35.779998779296875,0.0,21.0,4.1918487548828125,-0.9215850830078125,Closing,0.0,0.0,3.0,0.0,0.0,0.0,0.0,0.0,
0.7750159999999959,0.0,0.0,19745.0,0.0,0.0,0.0,0.0,0.375,0.75683586,0.01,0.0,-23495.0,0.0,0.0,-0.0,0.0,0.25,0.468749952,0.01,0.0012207030000004337,-1308.0,0.0,0.0,0.0,0.0,0.0,3.3081051300000004,0.01,-0.0012207030000004337,-25239.0,0.0,0.0,-0.0,0.0,0.375,1.567382652,0.01,-0.0012207030000004337,0.2199999988079071,-0.4699999988079071,-66.66000366210938,-0.001953125,-0.017578125,1.0302734375,35.779998779296875,0.0,22.0,4.1920928955078125,-0.9215850830078125,Closing,0.0,0.0,3.0,0.0,0.0,0.0,0.0,0.0,
0.8049749999999986,0.0,0.0,19745.0,0.0,0.0,0.0,0.0,0.375,0.755615157,0.01,0.0,-23495.0,0.0,0.0,-0.0,0.0,0.25,0.468749952,0.01,-0.0012207030000004337,-1308.0,0.0,0.0,0.0,0.0,0.0,3.3081051300000004,0.01,0.0024414059999999793,-25239.0,0.0,0.0,-0.0,0.0,0.375,1.567382652,0.01,0.0012207030000004337,0.20999999344348907,-0.46000000834465027,-66.66000366210938,-0.005126953125,-0.01165771484375,1.0316162109375,35.779998779296875,0.0,15.0,4.192230224609375,-0.9215850830078125,Closing,0.0,0.0,3.0,0.0,0.0,0.0,0.0,0.0,
0.8477869999999966,0.0,0.0,19745.0,0.0,0.0,0.0,0.0,0.375,0.755615157,0.01,0.0,-23495.0,0.0,0.0,-0.0,0.0,0.25,0.46752924900000004,0.01,0.0012207030000004337,-1308.0,0.0,0.0,0.0,0.0,0.0,3.306884427,0.01,0.0,-25239.0,0.0,0.0,-0.0,0.0,0.375,1.567382652,0.01,0.0,0.20999999344348907,-0.4699999988079071,-66.66000366210938,0.00225830078125,0.00518798828125,1.0269775390625,35.779998779296875,0.0,2.0,4.192230224609375,-0.9215850830078125,Closing,0.0,0.0,3.0,0.0,0.0,0.0,0.0,0.0,
0.874411,0.0,0.0,19745.0,0.0,0.0,0.0,0.0,0.375,0.75683586,0.01,0.0,-23495.0,0.0,0.0,-0.0,0.0,0.25,0.468749952,0.01,0.0012207030000004337,-1308.0,0.0,0.0,0.0,0.0,0.0,3.306884427,0.01,0.0,-25239.0,0.0,0.0,-0.0,0.0,0.375,1.568603355,0.01,0.0,0.20999999344348907,-0.46000000834465027,-66.66000366210938,-0.005126953125,0.01055908203125,1.02886962890625,35.779998779296875,0.0,-4.0,4.192230224609375,-0.9215850830078125,Closing,0.0,0.0,3.0,0.0,0.0,0.0,0.0,0.0,
0.9260749999999971,0.0,0.0,19745.0,0.0,0.0,0.0,0.0,0.375,0.755615157,0.01,0.0,-23495.0,0.0,0.0,-0.0,0.0,0.25,0.468749952,0.01,0.0,-1308.0,0.0,0.0,0.0,0.0,0.0,3.306884427,0.01,-0.0024414059999999793,-25239.0,0.0,0.0,-0.0,0.0,0.375,1.567382652,0.01,0.0,0.2199999988079071,-0.4699999988079071,-66.66000366210938,-0.01776123046875,-0.0020751953125,1.02166748046875,35.779998779296875,0.0,1.0,4.192230224609375,-0.9215850830078125,Closing,0.0,0.0,3.0,0.0,0.0,0.0,0.0,0.0,
0.9742649999999994,0.0,0.0,19745.0,0.0,0.0,0.0,0.0,0.375,0.755615157,0.01,-0.0012207029999995456,-23495.0,0.0,0.0,-0.0,0.0,0.25,0.468749952,0.01,0.0,-1308.0,0.0,0.0,0.0,0.0,0.0,3.3081051300000004,0.01,0.0012207030000004337,-25239.0,0.0,0.0,-0.0,0.0,0.375,1.567382652,0.01,-0.0012207030000004337,0.23000000417232513,-0.46000000834465027,-66.66000366210938,-0.0328369140625,-0.03173828125,1.02459716796875,35.779998779296875,0.0,23.0,4.1922607421875,-0.92169189453125,Closing,0.0,0.0,3.0,0.0,0.0,0.0,0.0,0.0,
1.0038870000000024,0.0,0.0,19745.0,0.0,0.0,0.0,0.0,0.375,0.7519530480000001,0.01,0.0012207029999995456,-23495.0,0.0,0.0,-0.0,0.0,0.25,0.469970655,0.01,-0.0012207030000004337,-1308.0,0.0,0.0,0.0,0.0,0.0,3.306884427,0.01,0.0012207029999995456,-25239.0,0.0,0.0,-0.0,0.0,0.375,1.568603355,0.01,0.0,0.23999999463558197,-0.44999998807907104,-66.66000366210938,-0.0404052734375,-0.04266357421875,1.02740478515625,35.779998779296875,0.0,30.0,4.1927642822265625,-0.9225616455078125,Closing,0.0,0.0,3.0,0.0,0.0,0.0,0.0,0.0,
1.053979999999996,0.0,0.0,19745.0,0.0,0.0,-218.26772511005404,0.0,0.375,0.755615157,4.018962472993217,0.0,-23495.0,0.0,0.0,218.26772511005404,0.0,0.25,0.468749952,4.0446452045059225,0.0,-1308.0,0.0,0.0,-218.26772511005404,0.0,0.0,3.306884427,4.025602549743655,0.0,-25239.0,0.0,0.0,218.26772511005404,0.0,0.5,1.523437344,4.039943616231285,0.0,0.23999999463558197,-0.46000000834465027,-66.66000366210938,-0.0428466796875,-0.03668212890625,1.04052734375,35.779998779296875,0.0,24.0,4.1932525634765625,-0.92340087890625,Closing,0.0,0.0,3.0,0.0,0.0,0.0,0.0,0.0,
1.1087450000000025,0.0,0.0,19745.0,0.125,0.0,-595.2756071090698,0.0,5.25,0.49194330900000005,4.018962472993217,0.0,-23495.0,0.375,0.0,595.2756071090698,0.0,1.75,0.449218704,4.0446452045059225,0.0,-1308.0,0.375,0.0,-595.2756071090698,0.0,2.875,3.276366852,4.025602549743655,0.0,-25239.0,0.5,15.0,595.2756071090698,0.0,6.5,1.146240117,4.039943616231285,0.0,0.25,-0.46000000834465027,-66.66999816894531,-0.10894775390625,0.067626953125,1.08782958984375,35.790000915527344,0.0,-97.0,4.193878173828125,-0.9257354736328125,Closing,0.0,0.0,3.0,0.0,0.0,0.0,0.0,0.0,
1.1910889999999998,0.0,0.0,19731.0,3.0,-90.0,-853.2283151149749,0.0,1.0,0.035400387000000005,4.018825541281173,0.0,-23479.0,4.125,150.0,853.2283151149749,0.0,0.875,4.832763177,4.044507397747043,0.0,-1310.0,3.875,-15.0,-853.2283151149749,0.0,1.125,2.5891110630000003,4.025465391794844,0.0,-25219.0,2.75,165.0,853.2283151149749,0.0,0.5,0.6323241540000001,4.039805969662139,0.0,0.550000011920929,-0.9599999785423279,-66.62999725341797,-0.01556396484375,0.13818359375,0.875,35.790000915527344,0.0,-119.0,4.185638427734375,-0.933349609375,Closing,0.0,0.0,3.0,0.0,0.0,0.0,0.0,0.0,
1.2890679999999992,0.0,0.0,19731.0,5.625,-105.0,-892.9134106636049,0.0,0.75,4.645995618000001,4.019373581713426,-0.5877690229999994,-23435.0,7.125,247.5,892.9134106636049,0.0,1.125,4.387206582,4.045058940370563,4.117431219,-1310.0,7.25,-75.0,-892.9134106636049,0.0,1.5,2.257079847,4.026014337692264,-0.8618163179999998,-25190.0,3.375,172.5,892.9134106636049,0.0,0.625,0.482177685,4.040356871159875,-0.5859374399999999,0.9700000286102295,-0.8500000238418579,-66.5999984741211,0.0750732421875,0.216796875,1.2061767578125,35.790000915527344,0.0,-143.0,4.1792755126953125,-0.9355010986328125,Closing,0.0,0.0,3.0,0.0,0.0,0.0,0.0,0.0,
1.3148600000000006,0.0,0.0,19705.0,5.875,-135.0,-892.9134106636047,0.0,0.625,4.559325705,4.019921622145676,-0.10620116100000043,-23435.0,7.625,285.0,892.9134106636047,0.0,0.5,4.265136282,4.045610482994082,-0.17822263799999938,-1345.0,8.125,-180.0,-892.9134106636047,0.0,1.5,2.127685329,4.026563283589684,-0.1635742020000004,-25190.0,3.875,195.0,892.9134106636047,0.0,0.75,0.405273396,4.040907772657609,-0.0878906159999997,1.2400000095367432,-0.6700000166893005,-66.58000183105469,0.078857421875,0.14251708984375,0.86297607421875,35.790000915527344,0.0,-78.0,4.1740264892578125,-0.935882568359375,Closing,0.0,0.0,3.0,0.0,0.0,0.0,0.0,0.0,
1.3689089999999997,0.0,0.0,19705.0,6.625,-262.5,-892.9134106636047,0.0,0.5,4.581298359,4.020058553857721,0.0,-23435.0,8.75,390.0,892.9134106636047,0.0,0.375,4.265136282,4.045748289752963,0.0,-1345.0,7.875,-240.0,-892.9134106636047,0.0,0.375,2.142333765,4.0267004415384955,0.0,-25190.0,5.375,307.5,892.9134106636047,0.0,0.75,0.44677729800000004,4.041045419226755,0.0,1.75,-0.3199999928474426,-66.61000061035156,0.09033203125,0.20220947265625,0.947998046875,35.790000915527344,0.0,-120.0,4.1615447998046875,-0.9336700439453125,Closing,0.0,0.0,3.0,0.0,0.0,0.0,0.0,0.0,
1.394523000000001,0.0,0.0,19705.0,6.75,-315.0,-892.9134106636047,0.0,0.5,4.6057124190000005,4.019647549665539,0.0,-23356.0,8.75,435.0,892.9134106636047,0.0,0.5,4.276122609000001,4.0453346590843235,0.0,-1345.0,7.875,-247.5,-892.9134106636047,0.0,0.375,2.238769302,4.026288758290612,0.0,-25124.0,4.75,427.5,892.9134106636047,0.0,0.375,0.520019478,4.0406322693718835,0.0,2.1600000858306885,-0.550000011920929,-66.6500015258789,-0.15087890625,0.1461181640625,1.0751953125,35.790000915527344,0.0,-152.0,4.1452484130859375,-0.9287109375,Closing,0.0,0.0,3.0,0.0,0.0,0.0,0.0,0.0,
1.468805999999997,0.0,0.0,19633.0,6.75,-480.0,-734.173253774643,0.0,0.375,4.719237798,4.019099509233286,0.0,-23356.0,8.5,555.0,734.173253774643,0.0,0.25,4.359130413,4.044783116460803,0.0,-1400.0,8.875,-352.5,-734.173253774643,0.0,0.125,2.3303220270000002,4.025739812393191,0.14038084500000014,-25124.0,4.25,517.5,734.173253774643,0.0,0.375,0.592040955,4.040081367874148,0.0,2.2899999618530273,-0.7300000190734863,-66.58999633789062,-0.24945068359375,-0.0081787109375,1.2508544921875,35.790000915527344,0.0,-36.0,4.13128662109375,-0.92608642578125,Closing,0.0,0.0,3.0,0.0,0.0,0.0,0.0,0.0,
1.5052710000000007,0.0,0.0,19633.0,5.25,-585.0,-535.7480388879776,0.0,0.375,4.755858888000001,4.020606594289973,0.0,-23356.0,6.625,615.0,535.7480388879776,0.0,0.25,4.420165563,4.046299832376483,0.0,-1400.0,7.875,-412.5,-535.7480388879776,0.0,0.125,2.402343504,4.027249387435916,0.0,-25124.0,3.875,562.5,535.7480388879776,0.0,0.375,0.631103451,4.04159632072449,0.0,2.4200000762939453,-0.9599999785423279,-66.4800033569336,-0.07763671875,0.10675048828125,0.8487548828125,35.790000915527344,0.0,-89.0,4.121551513671875,-0.9255523681640625,Closing,0.0,0.0,3.0,0.0,0.0,0.0,0.0,0.0,
1.5512620000000024,0.0,0.0,19523.0,1.75,-660.0,0.0,0.0,0.25,4.792479978,4.020606594289973,0.030517575000000186,-23249.0,3.0,652.5,0.0,0.0,0.25,4.493407743000001,4.046299832376483,0.05981444699999994,-1400.0,2.25,-562.5,0.0,0.0,0.25,2.451171624,4.027249387435916,0.08300780400000018,-25020.0,0.5,667.5,0.0,0.0,0.25,0.670165947,4.04159632072449,0.0402831990000001,2.4100000858306885,-1.3200000524520874,-66.30000305175781,-0.080078125,-0.03228759765625,1.0196533203125,35.790000915527344,0.0,46.0,4.106414794921875,-0.9255523681640625,Closing,0.0,0.0,3.0,0.0,0.0,0.0,0.0,0.0,
1.574976999999999,0.0,0.0,19523.0,0.875,-682.5,0.0,0.0,0.25,4.802245602,4.020606594289973,0.030517575000000186,-23249.0,1.375,652.5,0.0,0.0,0.25,4.522704615,4.046299832376483,0.05981444699999994,-1495.0,1.0,-592.5,0.0,0.0,0.125,2.460937248,4.027249387435916,0.08300780400000018,-25020.0,0.25,667.5,0.0,0.0,0.25,0.681152274,4.04159632072449,0.0402831990000001,2.359999895095825,-1.3300000429153442,-66.25,-0.05322265625,-0.0478515625,0.95416259765625,35.790000915527344,0.0,67.0,4.1013946533203125,-0.9257354736328125,Closing,0.0,0.0,3.0,0.0,0.0,0.0,0.0,0.0,
1.5954660000000003,0.0,0.0,19523.0,0.25,-645.0,0.0,0.0,0.25,4.8107905230000005,4.020606594289973,0.030517575000000186,-23249.0,0.0,562.5,0.0,0.0,0.25,4.538573754000001,4.046299832376483,0.08666991299999971,-1495.0,0.125,-562.5,0.0,0.0,0.0,2.459716545,4.027249387435916,0.03417968399999971,-25020.0,0.0,630.0,0.0,0.0,0.25,0.69580071,4.04159632072449,0.04638671400000005,2.109999895095825,-1.3899999856948853,-66.16999816894531,-0.085693359375,-0.147705078125,0.9927978515625,35.79999923706055,0.0,143.0,4.0869293212890625,-0.927001953125,Closing,0.0,0.0,3.0,0.0,0.0,0.0,0.0,0.0,
1.6457350000000006,0.0,0.0,19523.0,0.0,-517.5,0.0,0.0,0.125,4.8156733350000005,4.020606594289973,0.03906249600000056,-23167.0,0.0,472.5,0.0,0.0,0.125,4.559325705,4.046299832376483,0.08666991299999971,-1495.0,0.0,-510.0,0.0,0.0,0.125,2.456054436,4.027249387435916,-0.0012207030000004337,-24929.0,0.0,547.5,0.0,0.0,0.25,0.69580071,4.04159632072449,0.012207029999999897,1.7400000095367432,-1.2999999523162842,-66.0999984741211,0.06915283203125,-0.03375244140625,0.9984130859375,35.79999923706055,0.0,95.0,4.0785369873046875,-0.9282073974609375,Closing,0.0,0.0,3.0,0.0,0.0,0.0,0.0,0.0,
1.6703439999999974,0.0,0.0,19440.0,0.0,-480.0,0.0,0.0,0.125,4.8156733350000005,4.020606594289973,0.00854492099999904,-23167.0,0.0,487.5,0.0,0.0,0.0,4.5581050020000005,4.046299832376483,0.02075195100000027,-1495.0,0.0,-450.0,0.0,0.0,0.125,2.456054436,4.027249387435916,-0.0012207030000004337,-24929.0,0.0,540.0,0.0,0.0,0.125,0.69580071,4.04159632072449,0.012207029999999897,1.7100000381469727,-1.25,-66.0999984741211,0.0531005859375,-0.08270263671875,1.07904052734375,35.79999923706055,0.0,136.0,4.07086181640625,-0.9291534423828125,Closing,0.0,0.0,3.0,0.0,0.0,0.0,0.0,0.0,
1.7021619999999966,0.0,0.0,19440.0,0.0,-555.0,0.0,0.0,0.125,4.8156733350000005,4.020606594289973,0.0,-23167.0,0.0,577.5,0.0,0.0,0.0,4.556884299,4.046299832376483,0.009765623999999917,-1560.0,0.0,-412.5,0.0,0.0,0.125,2.460937248,4.027249387435916,-0.0024414059999999793,-24929.0,0.0,600.0,0.0,0.0,0.125,0.69580071,4.04159632072449,0.0,1.5499999523162842,-1.1200000047683716,-66.11000061035156,0.0679931640625,-0.091064453125,1.01226806640625,35.79999923706055,0.0,143.0,4.0599212646484375,-0.9302825927734375,Closing,0.0,0.0,3.0,0.0,0.0,0.0,0.0,0.0,
1.7351889999999985,0.0,0.0,19440.0,0.0,-615.0,0.0,0.0,0.125,4.814452632,4.020606594289973,0.0,-23167.0,0.0,570.0,0.0,0.0,0.0,4.559325705,4.046299832376483,0.0,-1560.0,0.0,-435.0,0.0,0.0,0.125,2.460937248,4.027249387435916,0.0012207030000004337,-24840.0,0.0,555.0,0.0,0.0,0.125,0.69580071,4.04159632072449,0.0,1.2599999904632568,-1.0,-66.05999755859375,0.01715087890625,-0.01611328125,0.63134765625,35.79999923706055,0.0,38.0,4.050537109375,-0.9315032958984375,Closing,0.0,0.0,3.0,0.0,0.0,0.0,0.0,0.0,
1.785720000000001,0.0,0.0,19356.0,0.0,-630.0,0.0,0.0,0.125,4.8156733350000005,4.020606594289973,0.0,-23084.0,0.0,525.0,0.0,0.0,0.0,4.5581050020000005,4.046299832376483,0.0,-1560.0,0.0,-427.5,0.0,0.0,0.125,2.460937248,4.027249387435916,0.0012207030000004337,-24840.0,0.0,525.0,0.0,0.0,0.125,0.69580071,4.04159632072449,0.0,1.2300000190734863,-0.9900000095367432,-66.05000305175781,0.0838623046875,-0.161376953125,0.9356689453125,35.79999923706055,0.0,206.0,4.0477142333984375,-0.9315032958984375,Closing,0.0,0.0,3.0,0.0,0.0,0.0,0.0,0.0,
1.8229570000000022,0.0,0.0,19356.0,0.0,-480.0,0.0,0.0,0.125,4.8156733350000005,4.020606594289973,0.0,-23084.0,0.0,472.5,0.0,0.0,0.0,4.559325705,4.046299832376483,0.0,-1626.0,0.0,-405.0,0.0,0.0,0.125,2.456054436,4.027249387435916,-0.0012207030000004337,-24840.0,0.0,495.0,0.0,0.0,0.125,0.69580071,4.04159632072449,0.0,0.9599999785423279,-0.8500000238418579,-66.01000213623047,0.01861572265625,-0.17047119140625,0.89849853515625,35.79999923706055,0.0,182.0,4.040252685546875,-0.93157958984375,Closing,0.0,0.0,3.0,0.0,0.0,0.0,0.0,0.0,
1.8518559999999997,0.0,0.0,19356.0,0.0,-397.5,0.0,0.0,0.125,4.814452632,4.020606594289973,0.0,-23084.0,0.0,442.5,0.0,0.0,0.0,4.5581050020000005,4.046299832376483,0.0,-1626.0,0.0,-397.5,0.0,0.0,0.125,2.456054436,4.027249387435916,0.0,-24840.0,0.0,480.0,0.0,0.0,0.125,0.69580071,4.04159632072449,0.0,0.8399999737739563,-0.8999999761581421,-65.9800033569336,-0.02996826171875,-0.09454345703125,1.0350341796875,35.79999923706055,0.0,94.0,4.0362548828125,-0.9319610595703125,Closing,0.0,0.0,3.0,0.0,0.0,0.0,0.0,0.0,
1.8794930000000023,0.0,0.0,19356.0,0.0,-390.0,0.0,0.0,0.125,4.814452632,4.020606594289973,0.0,-23084.0,0.0,420.0,0.0,0.0,0.0,4.5581050020000005,4.046299832376483,0.0,-1626.0,0.0,-390.0,0.0,0.0,0.125,2.456054436,4.027249387435916,0.0,-24774.0,0.0,450.0,0.0,0.0,0.125,0.69580071,4.04159632072449,0.0,0.7300000190734863,-0.8399999737739563,-65.9800033569336,0.05035400390625,-0.087890625,1.11968994140625,35.79999923706055,0.0,120.0,4.032806396484375,-0.9326171875,Closing,0.0,0.0,3.0,0.0,0.0,0.0,0.0,0.0,
1.918599000000002,0.0,0.0,19295.0,0.0,-382.5,0.0,0.0,0.125,4.814452632,4.020606594289973,0.0,-23021.0,0.0,367.5,0.0,0.0,0.0,4.559325705,4.046299832376483,0.0,-1682.0,0.0,-367.5,0.0,0.0,0.125,2.460937248,4.027249387435916,0.0,-24774.0,0.0,390.0,0.0,0.0,0.125,0.69580071,4.04159632072449,0.0,0.5899999737739563,-0.7599999904632568,-65.95999908447266,0.03314208984375,-0.139892578125,0.95135498046875,35.79999923706055,0.0,155.0,4.03009033203125,-0.932952880859375,Closing,0.0,0.0,3.0,0.0,0.0,0.0,0.0,0.0,
1.962688000000002,0.0,0.0,19295.0,0.0,-330.0,0.0,0.0,0.125,4.8156733350000005,4.020606594289973,0.0,-23021.0,0.0,322.5,0.0,0.0,0.0,4.5581050020000005,4.046299832376483,0.0,-1682.0,0.0,-345.0,0.0,0.0,0.125,2.456054436,4.027249387435916,0.0012207030000004337,-24774.0,0.0,337.5,0.0,0.0,0.125,0.69580071,4.04159632072449,0.0,0.4699999988079071,-0.6800000071525574,-65.91000366210938,0.02886962890625,-0.07806396484375,1.11767578125,35.79999923706055,0.0,96.0,4.02716064453125,-0.933013916015625,Closing,0.0,0.0,3.0,0.0,0.0,0.0,0.0,0.0,
1.9900650000000024,0.0,0.0,19295.0,0.0,-307.5,0.0,0.0,0.125,4.8156733350000005,4.020606594289973,0.0,-23021.0,0.0,300.0,0.0,0.0,0.0,4.5581050020000005,4.046299832376483,0.0,-1682.0,0.0,-300.0,0.0,0.0,0.125,2.456054436,4.027249387435916,0.0012207030000004337,-24729.0,0.0,315.0,0.0,0.0,0.125,0.69580071,4.04159632072449,0.0,0.3499999940395355,-0.6299999952316284,-65.9000015258789,0.05517578125,-0.056640625,0.987548828125,35.79999923706055,0.0,84.0,4.025787353515625,-0.93304443359375,Closing,0.0,0.0,3.0,0.0,0.0,0.0,0.0,0.0,
2.021917000000001,0.0,0.0,19255.0,0.0,-270.0,0.0,0.0,0.125,4.8156733350000005,4.020606594289973,0.0,-22980.0,0.0,247.5,0.0,0.0,0.0,4.559325705,4.046299832376483,-0.0012207030000004337,-1682.0,0.0,-277.5,0.0,0.0,0.125,2.460937248,4.027249387435916,0.0,-24729.0,0.0,277.5,0.0,0.0,0.125,0.69580071,4.04159632072449,0.0,0.25,-0.6000000238418579,-65.88999938964844,0.0418701171875,-0.05377197265625,1.00079345703125,35.79999923706055,0.0,74.0,4.024871826171875,-0.9329071044921875,Closing,0.0,0.0,3.0,0.0,0.0,0.0,0.0,0.0,
2.0548340000000027,0.0,0.0,19255.0,0.0,-247.5,0.0,0.0,0.125,4.8132319290000005,4.020606594289973,0.0,-22980.0,0.0,232.5,0.0,0.0,0.0,4.5581050020000005,4.046299832376483,0.0012207030000004337,-1718.0,0.0,-225.0,0.0,0.0,0.125,2.462157951,4.027249387435916,0.0,-24729.0,0.0,232.5,0.0,0.0,0.125,0.694580007,4.04159632072449,0.0,0.07000000029802322,-0.5,-65.88999938964844,0.051513671875,-0.03765869140625,0.98492431640625,35.79999923706055,0.0,60.0,4.0242156982421875,-0.9324188232421875,Closing,0.0,0.0,3.0,0.0,0.0,0.0,0.0,0.0,
2.093557999999997,0.0,0.0,19255.0,0.0,-172.5,0.0,0.0,0.125,4.814452632,4.020606594289973,0.0,-22980.0,0.0,165.0,0.0,0.0,0.0,4.5581050020000005,4.046299832376483,0.0,-1718.0,0.0,-180.0,0.0,0.0,0.125,2.460937248,4.027249387435916,0.0,-24729.0,0.0,180.0,0.0,0.0,0.125,0.69580071,4.04159632072449,0.0,-0.07000000029802322,-0.41999998688697815,-65.87999725341797,0.04290771484375,-0.04461669921875,1.007080078125,35.79999923706055,0.0,60.0,4.0242462158203125,-0.9314727783203125,Closing,0.0,0.0,3.0,0.0,0.0,0.0,0.0,0.0,
2.130824999999997,0.0,0.0,19255.0,0.0,-150.0,0.0,0.0,0.125,4.814452632,4.020606594289973,0.0,-22959.0,0.0,150.0,0.0,0.0,0.0,4.5581050020000005,4.046299832376483,0.0,-1718.0,0.0,-157.5,0.0,0.0,0.125,2.460937248,4.027249387435916,0.0,-24706.0,0.0,157.5,0.0,0.0,0.125,0.69580071,4.04159632072449,0.0,-0.10999999940395355,-0.4000000059604645,-65.87999725341797,0.02679443359375,-0.03472900390625,1.0753173828125,35.779998779296875,0.0,42.0,4.0247344970703125,-0.93072509765625,Closing,0.0,0.0,3.0,0.0,0.0,0.0,0.0,0.0,
2.1733790000000006,0.0,0.0,19236.0,0.0,-105.0,0.0,0.0,0.125,4.814452632,4.020606594289973,0.0,-22959.0,0.0,105.0,0.0,0.0,0.0,4.559325705,4.046299832376483,0.0,-1734.0,0.0,-112.5,0.0,0.0,0.125,2.456054436,4.027249387435916,-0.0012207030000004337,-24706.0,0.0,105.0,0.0,0.0,0.125,0.69580071,4.04159632072449,0.0,-0.3199999928474426,-0.3400000035762787,-65.87000274658203,0.03729248046875,-0.03997802734375,1.02142333984375,35.779998779296875,0.0,48.0,4.0260467529296875,-0.929351806640625,Closing,0.0,0.0,3.0,0.0,0.0,0.0,0.0,0.0,
2.1940879999999963,0.0,0.0,19236.0,0.0,-75.0,0.0,0.0,0.125,4.814452632,4.020606594289973,0.0,-22959.0,0.0,82.5,0.0,0.0,0.0,4.5581050020000005,4.046299832376483,0.0,-1734.0,0.0,-90.0,0.0,0.0,0.125,2.462157951,4.027249387435916,0.0,-24706.0,0.0,60.0,0.0,0.0,0.125,0.69580071,4.04159632072449,0.0012207029999995456,-0.38999998569488525,-0.28999999165534973,-65.87999725341797,0.01800537109375,-0.04327392578125,1.02508544921875,35.779998779296875,0.0,42.0,4.0272369384765625,-0.92828369140625,Closing,0.0,0.0,3.0,0.0,0.0,0.0,0.0,0.0,
2.2401889999999987,0.0,0.0,19236.0,0.0,-37.5,0.0,0.0,0.125,4.8132319290000005,4.020606594289973,0.0,-22955.0,0.0,37.5,0.0,0.0,0.0,4.5581050020000005,4.046299832376483,0.0,-1734.0,0.0,-30.0,0.0,0.0,0.125,2.460937248,4.027249387435916,0.0,-24702.0,0.0,22.5,0.0,0.0,0.125,0.69580071,4.04159632072449,-0.0012207029999995456,-0.4300000071525574,-0.28999999165534973,-65.88999938964844,3.0517578125E-4,-0.03985595703125,1.04095458984375,35.779998779296875,0.0,31.0,4.0287017822265625,-0.92828369140625,Closing,0.0,0.0,3.0,0.0,0.0,0.0,0.0,0.0,
2.271981,0.0,0.0,19235.0,0.0,-7.5,0.0,0.0,0.125,4.8156733350000005,4.020606594289973,0.0,-22955.0,0.0,22.5,0.0,0.0,0.0,4.5581050020000005,4.046299832376483,-0.0012207030000004337,-1734.0,0.0,-7.5,0.0,0.0,0.125,2.459716545,4.027249387435916,0.0,-24702.0,0.0,0.0,0.0,0.0,0.125,0.69580071,4.04159632072449,0.0,-0.4300000071525574,-0.30000001192092896,-65.9000015258789,-0.02545166015625,0.0025634765625,1.00762939453125,35.779998779296875,0.0,-17.0,4.0294952392578125,-0.92828369140625,Closing,0.0,0.0,3.0,0.0,0.0,0.0,0.0,0.0,
2.3154649999999966,0.0,0.0,19235.0,0.0,0.0,0.0,0.0,0.125,4.8156733350000005,4.020606594289973,0.0,-22955.0,0.0,0.0,0.0,0.0,0.0,4.5581050020000005,4.046299832376483,0.0,-1734.0,0.0,0.0,0.0,0.0,0.125,2.454833733,4.027249387435916,0.0,-24702.0,0.0,0.0,0.0,0.0,0.125,0.69580071,4.04159632072449,0.0,-0.41999998688697815,-0.30000001192092896,-65.9000015258789,-0.03277587890625,-0.00262451171875,0.98895263671875,35.779998779296875,0.0,-15.0,4.0294952392578125,-0.9282989501953125,Closing,0.0,0.0,3.0,0.0,0.0,0.0,0.0,0.0,
2.393330000000002,0.0,0.0,19235.0,0.0,0.0,-238.1102353334427,0.0,0.125,4.814452632,4.932250999999998,0.0,-22955.0,0.0,0.0,238.1102353334427,0.0,0.0,4.559325705,4.963769999999998,-0.0012207030000004337,-1734.0,0.125,0.0,-238.1102353334427,0.0,0.125,2.456054436,0.01,0.0,-24702.0,0.125,0.0,238.1102353334427,0.0,0.125,0.69580071,0.01,0.0,-0.33000001311302185,-0.33000001311302185,-65.9000015258789,-0.0321044921875,-0.009033203125,1.0753173828125,35.779998779296875,0.0,-7.0,4.0294952392578125,-0.9295654296875,Closing,0.0,0.0,3.0,0.0,0.0,0.0,0.0,0.0,
2.4571990000000006,0.0,0.0,19235.0,0.125,0.0,-357.16537177562714,0.0,6.375,0.285644502,4.932250999999998,0.0,-22949.0,0.25,7.5,357.16537177562714,0.0,8.125,4.93164012,4.963769999999998,0.0,-1734.0,0.125,-7.5,-357.16537177562714,0.0,3.0,2.9528805570000003,0.01,0.0,-24699.0,0.375,0.0,357.16537177562714,0.0,6.125,1.1877440190000002,0.01,0.0,-0.2800000011920929,-0.3799999952316284,-65.9000015258789,-0.00445556640625,0.05242919921875,1.0093994140625,35.779998779296875,0.0,0.0,4.02880859375,-0.932159423828125,Closing,0.0,0.0,3.0,0.0,0.0,0.0,0.0,0.0,
2.5483340000000028,0.0,0.0,19223.0,0.125,-120.0,-357.16537177562714,0.0,1.75,0.7397460180000001,4.932250999999998,0.6219487069999996,-22949.0,0.75,67.5,357.16537177562714,0.0,1.25,0.49316401200000004,4.963769999999998,-4.323730026000001,-1741.0,0.125,-37.5,-357.16537177562714,0.0,1.375,3.388671528,0.01,0.0,-24699.0,0.875,37.5,357.16537177562714,0.0,1.875,1.6540525650000002,0.01,0.0,-0.1599999964237213,-0.49000000953674316,-65.79000091552734,-0.11163330078125,0.15740966796875,0.98876953125,35.779998779296875,0.0,-188.0,4.0270538330078125,-0.9336395263671875,Closing,0.0,0.0,3.0,0.0,0.0,0.0,0.0,0.0,
2.5720169999999998,0.0,0.0,19223.0,0.125,-165.0,-515.9055286645889,0.0,2.0,0.899658111,4.932250999999998,0.2661132539999995,-22949.0,1.125,67.5,515.9055286645889,0.0,1.25,0.656738214,4.963769999999998,0.3332519190000003,-1741.0,0.375,-45.0,-515.9055286645889,0.0,1.125,3.49121058,0.01,-4.655976201,-24699.0,1.125,37.5,515.9055286645889,0.0,1.875,1.774902162,0.01,-4.651603547,-0.10999999940395355,-0.5600000023841858,-65.79000091552734,-0.0565185546875,-0.0291748046875,0.9573974609375,35.779998779296875,0.0,5.0,4.02545166015625,-0.934539794921875,Closing,0.0,0.0,3.0,0.0,0.0,0.0,0.0,0.0,
2.593387999999999,0.0,0.0,19223.0,0.125,-180.0,-575.433059334755,0.0,1.375,0.965576073,4.932250999999998,-4.805297888,-22949.0,1.5,52.5,575.433059334755,0.0,0.75,0.7238768790000001,4.963769999999998,0.11962889399999987,-1741.0,0.375,-60.0,-575.433059334755,0.0,0.75,3.5327144820000003,0.01,0.0,-24696.0,1.25,22.5,575.433059334755,0.0,0.75,1.8371580150000002,0.01,0.0,-0.10999999940395355,-0.6000000238418579,-65.7699966430664,-0.0830078125,-0.080078125,1.05743408203125,35.779998779296875,0.0,41.0,4.0238037109375,-0.935699462890625,Closing,0.0,0.0,3.0,0.0,0.0,0.0,0.0,0.0,
2.642951000000001,0.0,0.0,19198.0,0.75,-157.5,-575.433059334755,0.0,0.375,0.9863280240000001,4.932250999999998,0.07080077400000007,-22943.0,2.75,30.0,575.433059334755,0.0,0.5,0.773925702,4.963769999999998,0.08789061600000014,-1758.0,1.875,-97.5,-575.433059334755,0.0,0.25,3.5278316700000003,0.01,0.05126952600000001,-24696.0,1.875,15.0,575.433059334755,0.0,0.5,1.809081846,0.01,0.05981444699999994,-0.15000000596046448,-0.6600000262260437,-65.7699966430664,-0.120849609375,-0.12371826171875,1.03497314453125,35.75,0.0,65.0,4.0230560302734375,-0.936492919921875,Closing,0.0,0.0,3.0,0.0,0.0,0.0,0.0,0.0,
2.6697620000000026,0.0,0.0,19198.0,1.375,-112.5,-595.2756071090697,0.0,0.375,0.963134667,4.932250999999998,-0.028076168999999984,-22943.0,3.375,30.0,595.2756071090697,0.0,0.5,0.747070236,4.963769999999998,0.0,-1758.0,2.25,-105.0,-595.2756071090697,0.0,0.25,3.50341761,0.01,-0.024414059999999793,-24696.0,2.5,45.0,595.2756071090697,0.0,0.25,1.771240053,0.01,-0.024414060000000015,-0.27000001072883606,-0.7699999809265137,-65.79000091552734,-0.129150390625,-0.11566162109375,1.08294677734375,35.75,0.0,53.0,4.0214080810546875,-0.9399871826171875,Closing,0.0,0.0,3.0,0.0,0.0,0.0,0.0,0.0,
2.73368,0.0,0.0,19178.0,2.875,-120.0,-595.2756071090697,0.0,0.25,0.8679198330000001,4.932250999999998,0.0,-22919.0,6.0,135.0,595.2756071090697,0.0,0.25,0.655517511,4.963769999999998,0.0,-1786.0,3.75,-150.0,-595.2756071090697,0.0,0.125,3.4301754300000002,0.01,0.0,-24675.0,3.0,165.0,595.2756071090697,0.0,0.25,1.677245922,0.01,0.0,-0.2199999988079071,-1.2699999809265137,-65.79000091552734,-0.10174560546875,0.06396484375,0.97161865234375,35.75,0.0,-94.0,4.0162353515625,-0.9534454345703125,Closing,0.0,0.0,3.0,0.0,0.0,0.0,0.0,0.0,
2.822154000000002,0.0,0.0,19178.0,3.625,-210.0,-634.9606275558472,0.0,0.25,0.8276366340000001,4.932250999999998,0.0,-22919.0,6.75,247.5,634.9606275558472,0.0,0.25,0.5944823610000001,4.963769999999998,0.0,-1786.0,3.75,-210.0,-634.9606275558472,0.0,0.125,3.398437152,0.01,0.0,-24675.0,3.25,225.0,634.9606275558472,0.0,0.25,1.649169753,0.01,0.0,-0.20999999344348907,-1.5099999904632568,-65.75,-0.10845947265625,0.0579833984375,0.96343994140625,35.75,0.0,-90.0,4.012237548828125,-0.9608612060546875,Closing,0.0,0.0,3.0,0.0,0.0,0.0,0.0,0.0,
2.8535369999999967,0.0,0.0,19178.0,3.5,-247.5,-634.9606275558472,0.0,0.25,0.822753822,4.932250999999998,0.0,-22868.0,6.5,285.0,634.9606275558472,0.0,0.25,0.551757756,4.963769999999998,0.0,-1786.0,3.625,-270.0,-634.9606275558472,0.0,0.125,3.388671528,0.01,0.0,-24630.0,3.25,285.0,634.9606275558472,0.0,0.25,1.62353499,0.01,0.0,-0.14000000059604645,-1.649999976158142,-65.70999908447266,-0.14178466796875,-0.0528564453125,1.09625244140625,35.75,0.0,0.0,4.0090789794921875,-0.9663848876953125,Closing,0.0,0.0,3.0,0.0,0.0,0.0,0.0,0.0,
2.888504999999997,0.0,0.0,19124.0,3.625,-330.0,-634.9606275558472,0.0,0.125,0.822753822,4.932250999999998,-0.003662108999999969,-22868.0,6.25,390.0,634.9606275558472,0.0,0.25,0.4882812,4.963769999999998,-0.052490229,-1837.0,3.75,-315.0,-634.9606275558472,0.0,0.125,3.383788716,0.01,0.0,-24630.0,3.375,352.5,634.9606275558472,0.0,0.25,1.595458821,0.01,0.0,-0.05999999865889549,-1.8200000524520874,-65.66000366210938,-0.09698486328125,-0.01678466796875,0.98284912109375,35.75,0.0,-12.0,4.0038909912109375,-0.975830078125,Closing,0.0,0.0,3.0,0.0,0.0,0.0,0.0,0.0,
2.9261630000000003,0.0,0.0,19124.0,3.375,-397.5,-634.9606275558472,0.0,0.125,0.8178710100000001,4.932250999999998,-0.0012207029999999897,-22868.0,6.25,420.0,634.9606275558472,0.0,0.25,0.468749952,4.963769999999998,-0.05493163499999998,-1837.0,3.75,-345.0,-634.9606275558472,0.0,0.125,3.385009419,0.01,-0.004882811999999959,-24630.0,3.25,382.5,634.9606275558472,0.0,0.125,1.6015623360000002,0.01,-0.029296871999999752,-0.029999999329447746,-1.9800000190734863,-65.66000366210938,-0.1072998046875,0.02972412109375,1.10772705078125,35.75,0.0,-56.0,4.0001220703125,-0.9826812744140625,Closing,0.0,0.0,3.0,0.0,0.0,0.0,0.0,0.0,
2.950546000000002,0.0,0.0,19124.0,3.125,-420.0,-634.9606275558472,0.0,0.125,0.822753822,4.932250999999998,0.0,-22868.0,6.0,457.5,634.9606275558472,0.0,0.25,0.44067378300000004,4.963769999999998,-0.017089841999999855,-1837.0,4.0,-375.0,-634.9606275558472,0.0,0.125,3.385009419,0.01,0.0,-24554.0,3.125,450.0,634.9606275558472,0.0,0.25,1.5869139,0.01,0.0,-0.05000000074505806,-2.069999933242798,-65.69000244140625,-0.07635498046875,0.03619384765625,0.94195556640625,35.75,0.0,-51.0,3.9961700439453125,-0.989715576171875,Closing,0.0,0.0,3.0,0.0,0.0,0.0,0.0,0.0,
2.984947,0.0,0.0,19044.0,2.875,-480.0,-634.9606275558472,0.0,0.125,0.812988198,4.932250999999998,0.0,-22787.0,5.625,487.5,634.9606275558472,0.0,0.25,0.40161128700000004,4.963769999999998,-0.043945308000000516,-1837.0,3.375,-435.0,-634.9606275558472,0.0,0.125,3.383788716,0.01,0.0,-24554.0,2.75,480.0,634.9606275558472,0.0,0.25,1.591796712,0.01,-0.003662109000000413,-0.029999999329447746,-2.0899999141693115,-65.72000122070312,-0.0770263671875,0.024169921875,0.9805908203125,35.75,0.0,-39.0,3.9918365478515625,-0.9967193603515625,Closing,0.0,0.0,3.0,0.0,0.0,0.0,0.0,0.0,
3.006161,0.0,0.0,19044.0,2.75,-502.5,-634.9606275558472,0.0,0.125,0.822753822,4.932250999999998,0.0,-22787.0,5.125,517.5,634.9606275558472,0.0,0.25,0.397949178,4.963769999999998,0.0,-1915.0,3.375,-457.5,-634.9606275558472,0.0,0.125,3.385009419,0.01,0.0,-24554.0,2.75,502.5,634.9606275558472,0.0,0.25,1.595458821,0.01,0.0,0.029999999329447746,-2.2200000286102295,-65.75,-0.1168212890625,-0.024169921875,1.018310546875,35.75,0.0,-9.0,3.9871673583984375,-1.00384521484375,Closing,0.0,0.0,3.0,0.0,0.0,0.0,0.0,0.0,
3.0453530000000026,0.0,0.0,19044.0,2.625,-532.5,-634.9606275558472,0.0,0.125,0.822753822,4.932250999999998,0.0,-22787.0,4.5,562.5,634.9606275558472,0.0,0.25,0.396728475,4.963769999999998,-0.006103514999999504,-1915.0,3.5,-495.0,-634.9606275558472,0.0,0.125,3.383788716,0.01,0.0,-24554.0,2.5,555.0,634.9606275558472,0.0,0.25,1.600341633,0.01,0.0,0.05000000074505806,-2.259999990463257,-65.80000305175781,-0.01324462890625,-0.01904296875,1.02117919921875,35.75,0.0,29.0,3.982269287109375,-1.0111236572265625,Closing,0.0,0.0,3.0,0.0,0.0,0.0,0.0,0.0,
3.0689519999999977,0.0,0.0,19044.0,2.5,-570.0,-634.9606275558472,0.0,0.125,0.820312416,4.932250999999998,-0.0024414059999999793,-22787.0,4.125,585.0,634.9606275558472,0.0,0.25,0.39550777200000004,4.963769999999998,0.0,-1915.0,3.25,-517.5,-634.9606275558472,0.0,0.125,3.391112934,0.01,0.0,-24554.0,2.375,570.0,634.9606275558472,0.0,0.25,1.6015623360000002,0.01,0.004882811999999959,0.05999999865889549,-2.2699999809265137,-65.83000183105469,-0.0908203125,0.017333984375,1.1241455078125,35.75,0.0,-33.0,3.97979736328125,-1.0147705078125,Closing,0.0,0.0,3.0,0.0,0.0,0.0,0.0,0.0,
3.1110899999999964,0.0,0.0,18949.0,2.0,-592.5,-634.9606275558472,0.0,0.125,0.822753822,4.932250999999998,0.0,-22687.0,3.375,622.5,634.9606275558472,0.0,0.25,0.416259723,4.963769999999998,0.0,-1915.0,3.0,-562.5,-634.9606275558472,0.0,0.125,3.383788716,0.01,0.0,-24459.0,2.5,600.0,634.9606275558472,0.0,0.25,1.612548663,0.01,0.0,0.07000000029802322,-2.2200000286102295,-65.94999694824219,-0.02545166015625,-0.02178955078125,0.8109130859375,35.75,0.0,23.0,3.9721527099609375,-1.0256500244140625,Closing,0.0,0.0,3.0,0.0,0.0,0.0,0.0,0.0,
3.131815999999999,0.0,0.0,18949.0,2.0,-600.0,-634.9606275558472,0.0,0.125,0.822753822,4.932250999999998,4.9285888909999995,-22687.0,3.25,637.5,634.9606275558472,0.0,0.25,0.430908159,4.963769999999998,0.01342773300000033,-2011.0,3.0,-577.5,-634.9606275558472,0.0,0.125,3.383788716,0.01,0.0,-24459.0,2.375,607.5,634.9606275558472,0.0,0.25,1.596679524,0.01,0.0,0.07000000029802322,-2.2899999618530273,-66.0199966430664,0.01165771484375,-0.03436279296875,1.22833251953125,35.65999984741211,0.0,57.0,3.96710205078125,-1.032989501953125,Closing,0.0,0.0,3.0,0.0,0.0,0.0,0.0,0.0,
3.175046999999999,0.0,0.0,18949.0,1.875,-622.5,-476.2204706668854,0.0,0.125,0.8166503070000001,4.932250999999998,-0.0012207029999995456,-22687.0,2.625,675.0,476.2204706668854,0.0,0.25,0.45410151600000004,4.963769999999998,0.024414059999999793,-2011.0,2.875,-592.5,-476.2204706668854,0.0,0.125,3.3789059040000002,0.01,0.0,-24459.0,1.875,622.5,476.2204706668854,0.0,0.25,1.600341633,0.01,0.0,0.019999999552965164,-2.2300000190734863,-66.04000091552734,-0.070556640625,-0.0615234375,0.84246826171875,35.65999984741211,0.0,41.0,3.962249755859375,-1.0404205322265625,Closing,0.0,0.0,3.0,0.0,0.0,0.0,0.0,0.0,
3.1941310000000014,0.0,0.0,18949.0,1.375,-630.0,-564.0006869975858,0.0,0.125,0.819091713,0.11912522014046181,0.0012207029999995456,-22687.0,2.625,675.0,365.3255265626653,0.0,0.25,0.46142573400000003,0.18609098171306396,0.009765623999999917,-2011.0,2.375,-600.0,-564.0006869975858,0.0,0.125,3.3715816860000003,4.821077962743191,0.0,-24356.0,1.875,637.5,365.3255265626653,0.0,0.25,1.59912093,4.772125334708624,0.0,0.0,-2.240000009536743,-66.06999969482422,-0.06976318359375,-0.0924072265625,0.9127197265625,35.65999984741211,0.0,71.0,3.9575347900390625,-1.048126220703125,Closing,0.0,0.0,3.0,0.0,0.0,0.0,0.0,0.0,
3.2421299999999973,0.0,0.0,18845.0,1.0,-645.0,-587.4215204288784,0.0,0.25,0.822753822,0.157722641521939,-0.004882811999999959,-22575.0,1.125,682.5,319.7344733823682,0.0,0.25,0.507812448,0.29658189421766784,0.025634763000000227,-2111.0,2.375,-615.0,-587.4215204288784,0.0,0.125,3.355712547,4.782416771211565,-0.006103514999999948,-24356.0,1.125,637.5,319.7344733823682,0.0,0.25,1.572265464,4.661762859372776,-0.004882811999999959,0.019999999552965164,-2.140000104904175,-66.08999633789062,-0.07177734375,-0.03515625,1.08807373046875,35.65999984741211,0.0,19.0,3.9531097412109375,-1.0559844970703125,Closing,0.0,0.0,3.0,0.0,0.0,0.0,0.0,0.0,
3.264074999999997,0.0,0.0,18845.0,1.0,-652.5,-587.4215204288784,0.0,0.25,0.837402258,0.157722641521939,0.0,-22575.0,0.625,667.5,319.7344733823682,0.0,0.25,0.545654241,0.29658189421766784,0.0,-2111.0,2.125,-615.0,-587.4215204288784,0.0,0.125,3.330077784,4.782416771211565,0.0,-24356.0,0.75,622.5,319.7344733823682,0.0,0.25,1.5527342160000002,4.661762859372776,0.0,0.009999999776482582,-2.1700000762939453,-66.05000305175781,-0.03216552734375,-0.0069580078125,0.93212890625,35.65999984741211,0.0,7.0,3.9531097412109375,-1.06378173828125,Closing,0.0,0.0,3.0,0.0,0.0,0.0,0.0,0.0,
3.286459999999999,0.0,0.0,18845.0,1.0,-660.0,-612.1518879046351,0.0,0.25,0.8666991300000001,0.19328186449006912,0.014648436000000098,-22575.0,0.5,645.0,282.3417602752713,0.0,0.25,0.5944823610000001,0.43986610061453324,0.04394530799999963,-2111.0,1.875,-630.0,-612.1518879046351,0.0,0.125,3.3081051300000004,4.746798797764604,-0.02319335699999936,-24356.0,0.75,585.0,282.3417602752713,0.0,0.25,1.53808578,4.518645209820992,-0.02075195100000027,0.009999999776482582,-2.1500000953674316,-66.01000213623047,-0.0072021484375,-0.019287109375,0.8468017578125,35.65999984741211,0.0,27.0,3.9531402587890625,-1.06378173828125,Closing,0.0,0.0,3.0,0.0,0.0,0.0,0.0,0.0,
3.318911,0.0,0.0,18845.0,1.0,-682.5,-702.6555416460484,0.0,0.25,0.889892487,0.2419415194346591,0.0,-22487.0,0.375,607.5,268.8448912191907,0.0,0.25,0.681152274,0.7232233073108401,0.0,-2111.0,2.125,-645.0,-702.6555416460484,0.0,0.125,3.2690426340000003,4.698058747980387,-0.0341796840000006,-24277.0,0.75,510.0,268.8448912191907,0.0,0.5,1.4758299270000002,4.235617384035291,-0.02319335699999936,0.0,-2.009999990463257,-65.73999786376953,-0.0289306640625,-0.04852294921875,1.2305908203125,35.65999984741211,0.0,50.0,3.9537811279296875,-1.063323974609375,Closing,0.0,0.0,3.0,0.0,0.0,0.0,0.0,0.0,
3.3379969999999957,0.0,0.0,18731.0,1.0,-682.5,-748.7353431094582,0.0,0.25,0.92773428,0.26182251941955376,0.0,-22487.0,0.375,510.0,275.572647735083,0.0,1.5,0.876464754,0.8660667085432648,0.0,-2219.0,2.125,-660.0,-748.7353431094582,0.0,0.125,3.2055660780000004,4.678144900869732,0.0,-24277.0,0.5,495.0,275.572647735083,0.0,0.5,1.333007676,4.092940027245922,0.0,-0.009999999776482582,-1.8600000143051147,-65.37000274658203,0.010498046875,0.01434326171875,1.04534912109375,35.65999984741211,0.0,6.0,3.9549560546875,-1.0622711181640625,Closing,0.0,0.0,3.0,0.0,0.0,0.0,0.0,0.0,
3.3889429999999994,0.0,0.0,18731.0,1.25,-727.5,-857.786055358965,0.0,0.25,0.9570311520000001,0.299832859816586,0.039062496,-22487.0,0.375,480.0,321.90999490891875,0.0,1.5,1.0070799750000001,1.1489151017654684,0.21118161899999954,-2219.0,2.625,-675.0,-857.786055358965,0.0,0.125,3.187255533,4.640071760290005,-0.05737304099999996,-24277.0,0.375,517.5,321.90999490891875,0.0,1.75,1.203613158,3.8104204234778822,-0.14770506300000008,0.019999999552965164,-1.8799999952316284,-64.86000061035156,-0.02960205078125,-0.099365234375,1.20843505859375,35.65999984741211,0.0,94.0,3.9554595947265625,-1.0618438720703125,Closing,0.0,0.0,3.0,0.0,0.0,0.0,0.0,0.0,
3.4370570000000007,0.0,0.0,18731.0,1.375,-780.0,-920.83508113575,0.0,0.375,1.024169817,0.3174882307227255,0.0,-22413.0,0.625,442.5,362.59752846419,0.0,0.75,1.284179556,1.2696128315833715,0.0,-2219.0,3.125,-742.5,-920.83508113575,0.0,0.125,3.127441086,4.622387219413093,-0.03173827800000062,-24198.0,0.5,540.0,362.59752846419,0.0,1.0,0.898437408,3.689862995467083,0.0,-0.019999999552965164,-1.6399999856948853,-63.189998626708984,0.107421875,-0.08636474609375,1.1678466796875,35.65999984741211,0.0,140.0,3.958465576171875,-1.0599365234375,Closing,0.0,0.0,3.0,0.0,0.0,0.0,0.0,0.0,
3.460873999999996,0.0,0.0,18597.0,1.625,-810.0,-968.392707804109,0.0,0.25,1.070556531,0.329216817119775,0.0,-22413.0,0.75,442.5,397.6267376291761,0.0,0.75,1.414794777,1.3427181444723413,0.0,-2219.0,3.375,-765.0,-968.392707804109,0.0,0.125,3.1030270260000004,4.610639255200407,0.0,-24198.0,0.5,465.0,397.6267376291761,0.0,0.875,0.773925702,3.6168426618691303,0.0,-0.05000000074505806,-1.559999942779541,-62.619998931884766,-0.01251220703125,0.0240478515625,0.999755859375,35.65999984741211,0.0,-15.0,3.9594573974609375,-1.059234619140625,Closing,0.0,0.0,3.0,0.0,0.0,0.0,0.0,0.0,
3.494440999999999,0.0,0.0,18597.0,1.625,-855.0,-968.392707804109,0.0,0.375,1.094970591,0.329216817119775,0.030517574999999963,-22413.0,1.125,450.0,397.6267376291761,0.0,0.5,1.5808103850000002,1.3427181444723413,0.11962889399999987,-2351.0,3.375,-787.5,-968.392707804109,0.0,0.125,3.083495778,4.610639255200407,0.0,-24198.0,0.75,420.0,397.6267376291761,0.0,0.625,0.596923767,3.6168426618691303,0.0,-0.05999999865889549,-1.5,-61.29999923706055,0.1046142578125,0.092529296875,1.004150390625,35.65999984741211,0.0,-19.0,3.96148681640625,-1.0574951171875,Closing,0.0,0.0,3.0,0.0,0.0,0.0,0.0,0.0,
3.521282999999996,0.0,0.0,18597.0,1.625,-877.5,-968.392707804109,0.0,0.25,1.1132811360000001,0.329216817119775,0.03295898099999994,-22413.0,1.25,435.0,397.6267376291761,0.0,0.5,1.702880685,1.3427181444723413,0.0,-2351.0,3.375,-847.5,-968.392707804109,0.0,0.125,3.074950857,4.610639255200407,-0.023193357000000248,-24198.0,0.75,397.5,397.6267376291761,0.0,0.625,0.48583979400000005,3.6168426618691303,-0.20507810400000004,-0.029999999329447746,-1.4199999570846558,-59.84000015258789,0.04364013671875,0.0946044921875,1.05462646484375,35.65999984741211,0.0,-47.0,3.96343994140625,-1.0550079345703125,Closing,0.0,0.0,3.0,0.0,0.0,0.0,0.0,0.0,
3.555341999999997,0.0,0.0,18597.0,1.25,-930.0,-968.392707804109,0.0,0.25,1.142578008,0.329216817119775,0.0,-22355.0,1.25,375.0,397.6267376291761,0.0,0.25,1.8188474700000001,1.3427181444723413,0.0,-2351.0,3.25,-892.5,-968.392707804109,0.0,0.125,3.0554196090000003,4.610639255200407,0.0,-24122.0,0.75,465.0,397.6267376291761,0.0,0.5,0.307617156,3.6168426618691303,0.0,0.0,-1.2999999523162842,-57.40999984741211,0.05853271484375,0.11767578125,0.95281982421875,35.65999984741211,0.0,-55.0,3.966156005859375,-1.050262451171875,Closing,0.0,0.0,3.0,0.0,0.0,0.0,0.0,0.0,
3.5859069999999993,0.0,0.0,18440.0,1.25,-952.5,-968.392707804109,0.0,0.125,1.143798711,0.329216817119775,0.024414060000000015,-22355.0,1.375,360.0,397.6267376291761,0.0,0.25,1.8469236390000001,1.3427181444723413,0.10986326999999996,-2351.0,3.125,-907.5,-968.392707804109,0.0,0.125,3.0505367970000004,4.610639255200407,-0.02319335699999936,-24122.0,0.75,465.0,397.6267376291761,0.0,0.5,0.27832028400000003,3.6168426618691303,-0.1757812320000003,0.05000000074505806,-1.2799999713897705,-56.529998779296875,0.0478515625,-0.02947998046875,0.9915771484375,35.65999984741211,0.0,63.0,3.9669952392578125,-1.0484161376953125,Closing,0.0,0.0,3.0,0.0,0.0,0.0,0.0,0.0,
3.608421000000002,0.0,0.0,18440.0,1.0,-975.0,-968.392707804109,0.0,0.125,1.145019414,0.329216817119775,0.0,-22355.0,1.5,360.0,397.6267376291761,0.0,0.25,1.8664548870000002,1.3427181444723413,0.014648435999999876,-2500.0,3.125,-907.5,-968.392707804109,0.0,0.125,3.045653985,4.610639255200407,0.0,-24122.0,0.75,480.0,397.6267376291761,0.0,0.25,0.2441406,3.6168426618691303,0.0,0.029999999329447746,-1.25,-55.630001068115234,0.0626220703125,-0.00347900390625,1.11407470703125,35.65999984741211,0.0,52.0,3.967926025390625,-1.046478271484375,Closing,0.0,0.0,3.0,0.0,0.0,0.0,0.0,0.0,
3.6314579999999985,0.0,0.0,18440.0,0.75,-990.0,-984.290172771914,0.0,0.125,1.143798711,0.3328741794611931,-0.0012207029999999897,-22355.0,1.625,382.5,409.97241175575886,0.0,0.0,1.8969724620000001,1.3642425456498435,0.034179684000000154,-2500.0,3.0,-930.0,-984.290172771914,0.0,0.125,3.044433282,4.606975850213203,-0.006103515000000392,-24122.0,0.75,435.0,409.97241175575886,0.0,0.125,0.21118161900000001,3.5953432811488195,-0.04760741700000004,0.07000000029802322,-1.190000057220459,-52.779998779296875,0.03814697265625,-0.0657958984375,1.03765869140625,35.65999984741211,0.0,89.0,3.970794677734375,-1.0401611328125,Closing,0.0,0.0,3.0,0.0,0.0,0.0,0.0,0.0,
3.6632160000000002,0.0,0.0,18440.0,0.75,-997.5,-984.290172771914,0.0,0.125,1.1376951960000001,0.3328741794611931,0.0,-22355.0,1.375,420.0,409.97241175575886,0.0,0.0,1.911620898,1.3642425456498435,0.0,-2500.0,2.75,-937.5,-984.290172771914,0.0,0.125,3.045653985,4.606975850213203,0.0,-24122.0,0.75,405.0,409.97241175575886,0.0,0.125,0.196533183,3.5953432811488195,0.0,0.05000000074505806,-1.2300000190734863,-50.83000183105469,-0.093505859375,0.00341796875,0.865234375,35.65999984741211,0.0,-49.0,3.97265625,-1.03607177734375,Closing,0.0,0.0,3.0,0.0,0.0,0.0,0.0,0.0,
3.6875699999999996,0.0,0.0,18440.0,0.75,-1005.0,-984.290172771914,0.0,0.125,1.143798711,0.3328741794611931,0.0012207029999999897,-22284.0,1.125,435.0,409.97241175575886,0.0,0.125,1.910400195,1.3642425456498435,0.013427732999999442,-2500.0,3.0,-952.5,-984.290172771914,0.0,0.125,3.0590817180000003,4.606975850213203,0.0,-24062.0,0.75,382.5,409.97241175575886,0.0,0.25,0.20019529200000002,3.5953432811488195,-0.01342773300000033,0.03999999910593033,-1.25,-49.849998474121094,0.00103759765625,-0.0977783203125,1.0341796875,35.65999984741211,0.0,90.0,3.9735565185546875,-1.034149169921875,Closing,0.0,0.0,3.0,0.0,0.0,0.0,0.0,0.0,
3.7237609999999988,0.0,0.0,18279.0,0.625,-1005.0,-810.8226979334142,0.0,0.125,1.143798711,0.2847950603451963,0.0,-22284.0,1.0,450.0,297.4553255671484,0.0,0.125,1.910400195,1.0386382957677542,0.0,-2656.0,2.75,-967.5,-810.8226979334142,0.0,0.125,3.046874688,4.655134405015193,0.0,-24062.0,1.125,375.0,297.4553255671484,0.0,0.25,0.206298807,3.9205690411891516,0.0,0.009999999776482582,-1.2999999523162842,-47.880001068115234,-0.14288330078125,-0.06640625,1.0504150390625,35.65999984741211,0.0,-30.0,3.975341796875,-1.0305328369140625,Closing,0.0,0.0,3.0,0.0,0.0,0.0,0.0,0.0,
3.7521659999999972,0.0,0.0,18279.0,0.625,-997.5,-597.3369289076597,0.0,0.125,1.143798711,0.1837479073291394,0.0,-22284.0,0.625,442.5,287.8727047341274,0.0,0.875,1.906738086,0.3966795738693679,0.0,-2656.0,1.5,-967.5,-597.3369289076597,0.0,0.0,3.033446955,4.756348506803713,0.0,-24062.0,0.875,382.5,287.8727047341274,0.0,0.25,0.21972654000000003,4.561781535557786,0.0,0.0,-1.350000023841858,-44.93000030517578,-0.05303955078125,0.05169677734375,1.20648193359375,35.65999984741211,0.0,-53.0,3.977996826171875,-1.0253753662109375,Closing,0.0,0.0,3.0,0.0,0.0,0.0,0.0,0.0,
3.789510000000002,0.0,0.0,18279.0,0.125,-967.5,-416.69290244579315,0.0,0.25,1.1389158990000001,4.932250999999998,0.0,-22284.0,0.5,427.5,-416.69290244579315,0.0,0.875,1.8469236390000001,2.481884999999998,-0.01831054500000029,-2656.0,0.875,-952.5,-416.69290244579315,0.0,0.0,3.040771173,0.01,-0.006103515000000392,-24062.0,0.75,382.5,-416.69290244579315,0.0,6.125,0.34179684,2.4790000000000023,0.023193357000000248,0.009999999776482582,-1.350000023841858,-43.959999084472656,0.07513427734375,0.12030029296875,0.93011474609375,35.65999984741211,0.0,-11.0,3.9795684814453125,-1.0214996337890625,Closing,0.0,0.0,3.0,0.0,0.0,0.0,0.0,0.0,
3.828733,0.0,0.0,18143.0,0.0,-885.0,-416.69290244579315,0.0,0.375,1.094970591,4.932250999999998,0.0,-22217.0,0.125,382.5,-416.69290244579315,0.0,5.375,1.5783689790000002,2.481884999999998,0.0,-2656.0,0.375,-900.0,-416.69290244579315,0.0,0.375,3.089599293,0.01,0.0,-24001.0,0.25,360.0,-416.69290244579315,0.0,13.125,0.456542922,2.4790000000000023,0.0,0.07999999821186066,-1.2899999618530273,-40.2599983215332,-0.0416259765625,0.07861328125,1.11773681640625,35.65999984741211,0.0,-62.0,3.9815521240234375,-1.01470947265625,Closing,0.0,0.0,3.0,0.0,0.0,0.0,0.0,0.0,
3.8517609999999984,0.0,0.0,18143.0,0.0,-825.0,-416.69290244579315,0.0,0.5,1.052245986,4.932250999999998,-0.05371093199999999,-22217.0,0.125,337.5,416.69290244579315,0.0,10.5,1.6320799110000002,4.963769999999998,-0.22338864899999944,-2789.0,0.125,-870.0,-416.69290244579315,0.0,0.375,3.144530928,0.01,0.0,-24001.0,0.125,330.0,416.69290244579315,0.0,12.75,0.332031216,0.01,0.0,0.1599999964237213,-1.2999999523162842,-38.61000061035156,0.05804443359375,0.2259521484375,0.9034423828125,35.65999984741211,0.0,-77.0,3.982513427734375,-1.00982666015625,Closing,0.0,0.0,3.0,0.0,0.0,0.0,0.0,0.0,
3.8741039999999995,0.0,0.0,18143.0,0.0,-765.0,-416.69290244579315,0.0,0.5,0.9887694300000001,4.932250999999998,-0.04272460499999986,-22217.0,0.125,277.5,416.69290244579315,0.0,13.75,1.8139646580000002,4.963769999999998,0.07324217999999982,-2789.0,0.125,-795.0,-416.69290244579315,0.0,0.25,3.200683266,0.01,0.053710931999999545,-24001.0,0.25,217.5,-416.69290244579315,0.0,14.5,0.333251919,2.4790000000000023,-0.13427732999999975,0.25,-1.340000033378601,-37.88999938964844,-0.1453857421875,0.0775146484375,1.02850341796875,35.65999984741211,0.0,-140.0,3.9828033447265625,-1.00714111328125,Closing,0.0,0.0,3.0,0.0,0.0,0.0,0.0,0.0,
3.9151370000000023,0.0,0.0,18143.0,0.0,-735.0,-416.69290244579315,0.0,0.375,0.925292874,4.932250999999998,0.0,-22174.0,0.375,240.0,-416.69290244579315,0.0,12.125,1.673583813,2.481884999999998,0.0,-2789.0,0.125,-757.5,-416.69290244579315,0.0,0.125,3.2641598220000003,0.01,0.0,-23977.0,0.375,165.0,-416.69290244579315,0.0,11.75,0.5297851020000001,2.4790000000000023,0.0,0.30000001192092896,-1.149999976158142,-36.0,0.03704833984375,-0.0177001953125,1.14080810546875,35.65999984741211,0.0,62.0,3.98370361328125,-0.9988250732421875,Closing,0.0,0.0,3.0,0.0,0.0,0.0,0.0,0.0,
3.936165000000001,0.0,0.0,18026.0,0.0,-750.0,-416.69290244579315,0.0,0.25,0.887451081,4.932250999999998,-0.06469725900000001,-22174.0,0.25,262.5,416.69290244579315,0.0,14.25,1.625976396,4.963769999999998,-0.1794433409999998,-2789.0,0.125,-682.5,-416.69290244579315,0.0,0.125,3.303222318,0.01,0.0,-23977.0,0.375,142.5,416.69290244579315,0.0,12.875,0.307617156,0.01,0.0,0.25,-0.8799999952316284,-34.34000015258789,0.273193359375,0.07904052734375,0.93951416015625,35.65999984741211,0.0,195.0,3.985992431640625,-0.9895477294921875,Closing,0.0,0.0,3.0,0.0,0.0,0.0,0.0,0.0,
3.9902109999999955,0.0,0.0,18026.0,0.0,-727.5,-416.69290244579315,0.0,0.25,0.864257724,4.932250999999998,-0.04028319899999999,-22174.0,0.375,277.5,-416.69290244579315,0.0,15.25,1.8640134810000002,2.481884999999998,0.1513671719999996,-2896.0,0.125,-660.0,-416.69290244579315,0.0,0.125,3.3166500510000003,0.01,0.04272460500000008,-23977.0,0.375,210.0,-416.69290244579315,0.0,12.75,0.423583941,2.4790000000000023,-0.20751951000000002,0.3100000023841858,-0.8100000023841858,-33.880001068115234,0.0655517578125,-0.05877685546875,1.231689453125,35.65999984741211,0.0,105.0,3.987213134765625,-0.98614501953125,Closing,0.0,0.0,3.0,0.0,0.0,0.0,0.0,0.0,
4.025055,0.0,0.0,18026.0,0.125,-592.5,-416.69290244579315,0.0,0.25,0.8666991300000001,4.932250999999998,0.0,-22174.0,0.25,165.0,-416.69290244579315,0.0,12.25,1.573486167,2.481884999999998,0.0,-2896.0,0.125,-637.5,-416.69290244579315,0.0,0.0,3.331298487,0.01,0.0,-23944.0,0.375,247.5,416.69290244579315,0.0,16.0,0.477294873,0.01,0.0,0.3199999928474426,-0.3700000047683716,-32.59000015258789,0.0645751953125,0.01446533203125,1.04290771484375,35.65999984741211,0.0,55.0,3.99359130859375,-0.97088623046875,Closing,0.0,0.0,3.0,0.0,0.0,0.0,0.0,0.0,
4.052190000000002,0.0,0.0,18026.0,0.125,-517.5,-416.69290244579315,0.0,0.25,0.8666991300000001,4.932250999999998,-0.0012207029999999897,-22159.0,0.25,165.0,416.69290244579315,0.0,12.5,1.5783689790000002,4.963769999999998,-0.29541012600000016,-2896.0,0.125,-607.5,-416.69290244579315,0.0,0.0,3.3215328630000003,0.01,0.0,-23944.0,0.375,225.0,416.69290244579315,0.0,12.625,0.33691402800000003,0.01,0.0,0.3499999940395355,-0.27000001072883606,-32.369998931884766,0.06719970703125,0.0986328125,1.09588623046875,35.65999984741211,0.0,12.0,3.9954681396484375,-0.9667205810546875,Closing,0.0,0.0,3.0,0.0,0.0,0.0,0.0,0.0,
4.075120999999999,0.0,0.0,17962.0,0.125,-450.0,-416.69290244579315,0.0,0.25,0.865478427,4.932250999999998,0.0,-22159.0,0.375,97.5,416.69290244579315,0.0,16.5,1.679687328,4.963769999999998,0.04760741700000004,-2969.0,0.625,-487.5,-416.69290244579315,0.0,0.0,3.3251949720000002,0.01,0.0,-23944.0,0.5,142.5,-416.69290244579315,0.0,12.125,0.45166011,2.4790000000000023,0.0,0.3799999952316284,-0.07999999821186066,-32.02000045776367,0.09002685546875,0.03277587890625,1.13177490234375,35.65999984741211,0.0,64.0,4.00189208984375,-0.95367431640625,Closing,0.0,0.0,3.0,0.0,0.0,0.0,0.0,0.0,
4.115339,0.0,0.0,17962.0,0.125,-360.0,-416.69290244579315,0.0,0.25,0.9069823290000001,4.932250999999998,0.0012207029999999897,-22159.0,0.5,90.0,416.69290244579315,0.0,13.25,1.56249984,4.963769999999998,0.0,-2969.0,0.875,-412.5,-416.69290244579315,0.0,0.0,3.3227535660000003,0.01,0.0,-23944.0,0.375,97.5,416.69290244579315,0.0,15.5,0.5541991620000001,0.01,0.1330566270000002,0.36000001430511475,-0.009999999776482582,-31.979999542236328,0.10394287109375,-0.16143798828125,0.932373046875,35.65999984741211,0.0,175.0,4.006927490234375,-0.9448394775390625,Closing,0.0,0.0,3.0,0.0,0.0,0.0,0.0,0.0,
4.171453000000001,0.0,0.0,17962.0,1.625,-232.5,-416.69290244579315,0.0,0.25,0.8703612390000001,4.932250999999998,0.0,-22127.0,1.125,195.0,416.69290244579315,0.0,6.0,1.195068237,4.963769999999998,0.0,-2969.0,1.875,-232.5,-416.69290244579315,0.0,0.0,3.3203121600000003,0.01,0.0,-23933.0,0.75,60.0,416.69290244579315,0.0,15.375,0.35644527600000003,0.01,0.0,0.1599999964237213,0.09000000357627869,-31.940000534057617,-0.02459716796875,0.03594970703125,0.9129638671875,35.66999816894531,0.0,-39.0,4.0153961181640625,-0.932281494140625,Closing,0.0,0.0,3.0,0.0,0.0,0.0,0.0,0.0,
4.192904999999999,0.0,0.0,17940.0,2.0,-172.5,-416.69290244579315,0.0,0.25,0.865478427,4.932250999999998,-0.0012207030000001007,-22127.0,1.25,217.5,416.69290244579315,0.0,1.5,1.046142471,4.963769999999998,-0.25756833300000004,-2969.0,2.5,-150.0,-416.69290244579315,0.0,0.0,3.3215328630000003,0.01,0.0,-23933.0,0.875,67.5,-416.69290244579315,0.0,11.625,0.438232377,2.4790000000000023,-0.09643553699999963,0.1899999976158142,0.03999999910593033,-31.940000534057617,-0.10321044921875,0.0084228515625,1.05322265625,35.66999816894531,0.0,-90.0,4.0181884765625,-0.9281768798828125,Closing,0.0,0.0,3.0,0.0,0.0,0.0,0.0,0.0,
4.2322070000000025,0.0,0.0,17940.0,2.875,-60.0,-416.69290244579315,0.0,0.25,0.8666991300000001,4.932250999999998,0.0,-22127.0,1.375,165.0,416.69290244579315,0.0,0.875,0.743408127,4.963769999999998,0.0,-2975.0,5.25,-7.5,-416.69290244579315,0.0,0.0,3.3227535660000003,0.01,0.0,-23933.0,0.75,112.5,416.69290244579315,0.0,13.375,0.419921832,0.01,0.08666991299999971,0.23999999463558197,-0.07999999821186066,-31.950000762939453,-0.015869140625,0.0770263671875,0.98199462890625,35.66999816894531,0.0,-50.0,4.025634765625,-0.916046142578125,Closing,0.0,0.0,3.0,0.0,0.0,0.0,0.0,0.0,
4.268131000000001,0.0,0.0,17940.0,3.875,-7.5,-416.69290244579315,0.0,0.25,0.8666991300000001,4.932250999999998,0.0,-22127.0,2.25,112.5,416.69290244579315,0.0,0.5,0.653076105,4.963769999999998,0.0,-2975.0,6.125,0.0,-416.69290244579315,0.0,0.0,3.3227535660000003,0.01,0.0,-23933.0,0.875,97.5,416.69290244579315,0.0,12.5,0.302734344,0.01,0.0,0.2800000011920929,-0.18000000715255737,-31.940000534057617,-0.03662109375,0.107666015625,1.080810546875,35.66999816894531,0.0,-82.0,4.030120849609375,-0.907867431640625,Closing,0.0,0.0,3.0,0.0,0.0,0.0,0.0,0.0,
4.293294000000001,0.0,0.0,17940.0,4.375,-15.0,-416.69290244579315,0.0,0.25,0.871581942,4.932250999999998,-0.0012207030000001007,-22109.0,2.75,105.0,416.69290244579315,0.0,0.25,0.584716737,4.963769999999998,-0.10131834900000047,-2975.0,6.75,0.0,-416.69290244579315,0.0,0.0,3.3215328630000003,0.01,0.0,-23918.0,1.125,75.0,-416.69290244579315,0.0,11.375,0.456542922,2.4790000000000023,0.0,0.27000001072883606,-0.25,-31.8700008392334,-0.04827880859375,-0.06121826171875,0.9888916015625,35.66999816894531,0.0,-2.0,4.0340576171875,-0.89935302734375,Closing,0.0,0.0,3.0,0.0,0.0,0.0,0.0,0.0,
4.324034999999996,0.0,0.0,17932.0,4.75,-30.0,-416.69290244579315,0.0,0.25,0.8666991300000001,4.932250999999998,0.0,-22109.0,3.5,112.5,416.69290244579315,0.0,0.25,0.550537053,4.963769999999998,0.0,-2980.0,7.0,-22.5,-416.69290244579315,0.0,0.0,3.3227535660000003,0.01,0.0,-23918.0,1.125,22.5,416.69290244579315,0.0,17.375,0.5432128350000001,0.01,0.12451170600000028,0.25999999046325684,-0.3700000047683716,-31.719999313354492,-0.069580078125,0.19158935546875,1.03955078125,35.66999816894531,0.0,-151.0,4.0375518798828125,-0.890869140625,Closing,0.0,0.0,3.0,0.0,0.0,0.0,0.0,0.0,
4.353339,0.0,0.0,17932.0,4.875,-82.5,-416.69290244579315,0.0,0.25,0.860595615,4.932250999999998,0.0,-22109.0,4.375,105.0,416.69290244579315,0.0,0.25,0.5432128350000001,4.963769999999998,0.0,-2980.0,6.625,-45.0,-416.69290244579315,0.0,0.0,3.3190914570000003,0.01,0.0,-23918.0,1.25,30.0,416.69290244579315,0.0,14.75,0.35644527600000003,0.01,0.0,0.30000001192092896,-0.38999998569488525,-31.440000534057617,0.02203369140625,0.00714111328125,1.09698486328125,35.66999816894531,0.0,24.0,4.04193115234375,-0.8822479248046875,Closing,0.0,0.0,3.0,0.0,0.0,0.0,0.0,0.0,
