Time,ClimberA1,ClimberA2,FRpos,FRCurrent,FRspeed,FRsetpoint,FRApos,FRACurrent,FREncpos,FREncSetpoint,FREncSpeed,FLpos,FLCurrent,FLspeed,FLsetpoint,FLApos,FLACurrent,FLEncpos,FLEncSetpoint,FLEncSpeed,BRpos,BRCurrent,BRspeed,BRsetpoint,BRApos,BRACurrent,BREncpos,BREncSetpoint,BREncSpeed,BLpos,BLCurrent,BLspeed,BLsetpoint,BLApos,BLACurrent,BLEncpos,BLEncSetpoint,BLEncSpeed,navx_Pitch,navx_Roll,navx_Yaw,navx_XAcc,navx_YAcc,navx_ZAcc,navx_Temp,navx_Bar,navx_Alt,navx_XDis,navx_YDis,GearPlacerState,ShootOutputV,ShootOutputCurrent,ShootEncPos,ShootEncVelocity,ShootSpeed,ShootSetpoint,CarouselSetpoint,CarouselCurrent,
0.7014499999999971,0.0,0.0,86051.0,0.0,-22.5,0.0,0.0,2.125,1.933593552,0.01,0.0,-152049.0,0.0,45.0,0.0,0.0,1.75,4.4458003260000005,0.01,0.0,13601.0,0.0,0.0,0.0,0.0,0.0,3.348388329,0.01,0.0,-26302.0,0.125,0.0,0.0,0.0,0.125,1.627197099,0.01,0.0,0.4099999964237213,-0.38999998569488525,-100.44000244140625,-0.05560302734375,0.002197265625,1.066650390625,36.630001068115234,0.0,14.0,2.40631103515625,-1.8370513916015625,Waiting,0.0,0.0,3.0,0.0,0.0,0.0,0.0,0.125,
1.0810749999999971,0.0,0.0,86042.0,0.0,0.0,420.0,0.0,2.125,1.5832517910000001,0.01,0.0,-152039.0,0.0,0.0,-420.0,0.0,1.75,0.068359368,0.01,0.0,13601.0,0.0,0.0,420.0,0.0,0.0,3.352050438,0.01,0.0012207030000004337,-26302.0,0.125,0.0,-420.0,0.0,0.125,1.627197099,0.01,0.0,0.4099999964237213,-0.6200000047683716,-100.55000305175781,-0.01971435546875,-0.01226806640625,0.978271484375,36.630001068115234,0.0,20.0,2.406341552734375,-1.83868408203125,Waiting,0.0,0.0,3.0,0.0,0.0,0.0,0.0,0.0,
1.1438689999999987,0.0,0.0,86042.0,0.375,7.5,521.2443668760365,0.0,2.0,1.1645506620000001,0.497552964251084,-0.9069823290000003,-152040.0,0.375,-30.0,-521.2443668760365,0.0,0.75,0.47363276400000004,0.5007325209849627,-4.521483912,13602.0,0.5,0.0,521.2443668760365,0.0,0.0,3.353271141,0.4983750146912749,-0.0012207030000004337,-26302.0,0.375,-30.0,-521.2443668760365,0.0,0.125,1.6284178020000002,0.5001504580275566,0.0,0.41999998688697815,-0.6399999856948853,-100.6500015258789,-0.0137939453125,-0.03125,1.048095703125,36.630001068115234,0.0,38.0,2.40631103515625,-1.8401947021484375,Waiting,0.0,0.0,3.0,0.0,0.0,0.0,0.0,0.125,
1.2109119999999967,0.0,0.0,86055.0,0.875,172.5,525.0787604984251,0.0,0.5,1.0339354410000001,0.5053002791371531,0.0,-152070.0,1.0,-195.0,-525.0787604984251,0.0,1.0,0.8178710100000001,0.5085293442228764,0.0,13602.0,1.625,45.0,525.0787604984251,0.0,0.625,3.402099261,0.5061351295887399,0.0,-26316.0,1.25,-97.5,-525.0787604984251,0.0,2.125,1.8395994210000002,0.5079382180594632,0.0,0.3700000047683716,-0.3799999952316284,-100.75,0.04693603515625,-0.0164794921875,1.021240234375,36.630001068115234,0.0,12.0,2.4064178466796875,-1.84027099609375,Waiting,0.0,0.0,3.0,0.0,0.0,0.0,0.0,0.125,
1.2838430000000007,0.0,0.0,86078.0,1.25,150.0,521.2443668760365,0.0,0.625,1.070556531,0.497552964251084,-0.21972654000000014,-152070.0,1.75,-120.0,-521.2443668760365,0.0,0.5,1.102294809,0.5007325209849627,0.3393554339999998,13613.0,2.75,67.5,521.2443668760365,0.0,0.75,3.707275011,0.4983750146912749,-4.729218381,-26316.0,2.125,-90.0,-521.2443668760365,0.0,0.625,2.098388457,0.5001504580275566,0.236816382,0.46000000834465027,-0.10999999940395355,-100.80999755859375,0.06976318359375,0.14154052734375,0.9864501953125,36.630001068115234,0.0,-144.0,2.4058837890625,-1.83685302734375,Waiting,0.0,0.0,3.0,0.0,0.0,0.0,0.0,0.0,
1.4183009999999994,0.0,0.0,86109.0,2.125,180.0,521.2443668760365,0.0,0.5,1.298827992,0.497552964251084,0.0,-152094.0,2.875,-187.5,-521.2443668760365,0.0,0.25,1.146240117,0.5007325209849627,0.0,13636.0,3.75,165.0,521.2443668760365,0.0,0.25,3.966064047,0.4983750146912749,0.0,-26340.0,2.375,-172.5,-521.2443668760365,0.0,0.375,2.232665787,0.5001504580275566,0.0,0.8700000047683716,-0.009999999776482582,-101.19000244140625,0.00543212890625,0.0513916015625,0.993408203125,36.630001068115234,0.0,-36.0,2.4002685546875,-1.8306884765625,Waiting,0.0,0.0,3.0,0.0,0.0,0.0,0.0,0.0,
1.4840020000000005,0.0,0.0,86109.0,2.25,277.5,513.7312783997584,0.0,0.375,1.3745115780000001,0.48171526614152577,0.22827146100000006,-152133.0,3.125,-240.0,-513.7312783997584,0.0,0.25,1.142578008,0.48479361383176184,0.09155272500000056,13670.0,3.5,210.0,513.7312783997584,0.0,0.375,4.0258784940000005,0.4825111497459464,0.09643553699999963,-26374.0,3.125,-232.5,-513.7312783997584,0.0,0.25,2.2717282830000003,0.48423007862529394,0.2380370850000002,1.0700000524520874,0.07999999821186066,-101.25,0.003662109375,0.15191650390625,1.03857421875,36.630001068115234,0.0,-130.0,2.393280029296875,-1.8257293701171875,Waiting,0.0,0.0,3.0,0.0,0.0,0.0,0.0,0.0,
1.5487039999999979,0.0,0.0,86158.0,2.125,307.5,521.2443668760365,0.0,0.375,1.3745115780000001,0.497552964251084,0.004882811999999959,-152133.0,3.125,-307.5,-521.2443668760365,0.0,0.25,1.141357305,0.5007325209849627,0.0,13670.0,4.0,240.0,521.2443668760365,0.0,0.25,3.958739829,0.4983750146912749,-0.05493163499999998,-26431.0,2.875,-315.0,-521.2443668760365,0.0,0.5,2.257079847,0.5001504580275566,0.009765623999999917,1.2599999904632568,0.15000000596046448,-101.16999816894531,0.05426025390625,0.12017822265625,1.00543212890625,36.630001068115234,0.0,-106.0,2.3862152099609375,-1.82171630859375,Waiting,0.0,0.0,3.0,0.0,0.0,0.0,0.0,0.125,
1.6081599999999963,0.0,0.0,86158.0,2.25,330.0,510.0548769878223,0.0,0.25,1.376952984,0.4736231005241608,0.0,-152193.0,2.875,-367.5,-510.0548769878223,0.0,0.25,1.088867076,0.47664973613240963,0.0,13734.0,3.625,360.0,510.0548769878223,0.0,0.125,3.8964839760000003,0.47440561435935924,0.0,-26431.0,2.5,-375.0,-510.0548769878223,0.0,0.5,2.189941182,0.47609566755600824,0.0,1.3200000524520874,0.2800000011920929,-101.12999725341797,0.0615234375,0.01434326171875,1.004150390625,36.630001068115234,0.0,-2.0,2.37823486328125,-1.8168487548828125,Waiting,0.0,0.0,3.0,0.0,0.0,0.0,0.0,0.0,
1.6827509999999966,0.0,0.0,86222.0,2.0,435.0,499.3603535086161,0.0,0.375,1.356201033,0.4486441856242838,0.0,-152193.0,2.75,-435.0,-499.3603535086161,0.0,0.25,1.0302733320000002,0.4515111962623661,-0.037841793000000123,13734.0,3.0,367.5,499.3603535086161,0.0,0.125,3.8391109350000003,0.4493854296259886,-0.06103514999999993,-26502.0,2.25,-435.0,-499.3603535086161,0.0,0.25,2.1142575960000003,0.45098634930079573,-0.06835936800000031,1.3600000143051147,0.5,-101.19999694824219,0.076904296875,-0.0191650390625,0.99365234375,36.630001068115234,0.0,28.0,2.3719024658203125,-1.8092498779296875,Waiting,0.0,0.0,3.0,0.0,0.0,0.0,0.0,0.125,
1.7406860000000015,0.0,0.0,86222.0,1.625,480.0,499.3603535086161,0.0,0.375,1.328124864,0.4486441856242838,-0.00976562400000014,-152267.0,2.25,-472.5,-499.3603535086161,0.0,0.25,0.9973143510000001,0.4515111962623661,-0.048828120000000474,13788.0,3.125,330.0,499.3603535086161,0.0,0.125,3.7878414090000003,0.4493854296259886,-0.06225585299999992,-26502.0,2.25,-450.0,-499.3603535086161,0.0,0.25,2.084960724,0.45098634930079573,-0.04760741700000004,1.2699999809265137,0.6000000238418579,-101.25,0.03717041015625,-0.0343017578125,0.88336181640625,36.630001068115234,0.0,47.0,2.3721771240234375,-1.8018646240234375,Waiting,0.0,0.0,3.0,0.0,0.0,0.0,0.0,0.125,
1.8124809999999998,0.0,0.0,86306.0,1.25,532.5,492.5216365805669,0.0,0.25,1.2902830710000002,0.4314002840530942,0.0,-152354.0,1.875,-517.5,-492.5216365805669,0.0,0.25,0.9729002910000001,0.43415709946112385,0.0,13788.0,3.75,397.5,492.5216365805669,0.0,0.0,3.775634379,0.4321130379082303,0.0,-26584.0,1.875,-510.0,-492.5216365805669,0.0,0.25,2.073974397,0.43365242529936965,0.0,1.2599999904632568,0.75,-101.37000274658203,0.0655517578125,-0.046142578125,1.014404296875,36.619998931884766,0.0,56.0,2.372528076171875,-1.7911224365234375,Waiting,0.0,0.0,3.0,0.0,0.0,0.0,0.0,0.125,
1.8819000000000015,0.0,0.0,86399.0,0.75,577.5,482.72474238851953,0.0,0.25,1.2695311200000001,0.4046400144062022,-0.0378417929999999,-152354.0,1.25,-555.0,-482.72474238851953,0.0,0.25,0.969238182,0.4072258212952006,-0.024414059999999793,13865.0,3.0,495.0,482.72474238851953,0.0,0.0,3.7768550820000004,0.4053085552970442,-0.01953124800000028,-26584.0,1.375,-525.0,-482.72474238851953,0.0,0.25,2.076415803,0.40675245266835575,-0.015869138999999866,1.25,0.75,-101.54000091552734,0.0338134765625,-0.04681396484375,0.8466796875,36.619998931884766,0.0,59.0,2.3731689453125,-1.7791595458984375,Waiting,0.0,0.0,3.0,0.0,0.0,0.0,0.0,0.0,
1.9475689999999959,0.0,0.0,86399.0,0.5,585.0,473.51165656850526,0.0,0.25,1.246337763,0.37680496364803134,-0.020751951000000046,-152446.0,1.125,-577.5,-473.51165656850526,0.0,0.25,0.963134667,0.37921289374916006,-0.004882811999999959,13865.0,2.25,577.5,473.51165656850526,0.0,0.125,3.775634379,0.3774275158354135,0.0,-26674.0,1.0,-570.0,-473.51165656850526,0.0,0.25,2.0690915850000002,0.3787720879912517,0.0,1.2200000286102295,0.7400000095367432,-101.58000183105469,-0.0355224609375,0.0135498046875,0.97125244140625,36.619998931884766,0.0,16.0,2.3736724853515625,-1.769439697265625,Waiting,0.0,0.0,3.0,0.0,0.0,0.0,0.0,0.125,
2.012737000000001,0.0,0.0,86493.0,0.5,577.5,467.71106465423713,0.0,0.25,1.224365109,0.35765470080898365,0.0,-152446.0,0.625,-585.0,-467.71106465423713,0.0,0.25,0.955810449,0.35994025329096363,0.0,13960.0,2.0,592.5,467.71106465423713,0.0,0.125,3.7780757850000004,0.35824561318487297,0.0,-26674.0,0.625,-577.5,-467.71106465423713,0.0,0.25,2.039794713,0.3595218504919845,0.0,1.159999966621399,0.7200000286102295,-101.63999938964844,-0.0399169921875,0.0115966796875,1.1021728515625,36.619998931884766,0.0,21.0,2.374359130859375,-1.7649078369140625,Waiting,0.0,0.0,3.0,0.0,0.0,0.0,0.0,0.125,
2.0830910000000005,0.0,0.0,86493.0,0.375,592.5,459.54823608524765,0.0,0.25,1.2158201880000001,0.32805240266596947,-0.018310545000000067,-152537.0,0.5,-562.5,-459.54823608524765,0.0,0.25,0.9594725580000001,0.33014878496273997,-0.004882811999999959,14055.0,1.75,585.0,459.54823608524765,0.0,0.125,3.765868755,0.3285944065155961,-0.0012207030000004337,-26765.0,0.625,-562.5,-459.54823608524765,0.0,0.25,2.0104978410000003,0.32976501244926026,-0.023193357000000248,1.0399999618530273,0.5899999737739563,-101.69000244140625,-0.001220703125,-0.0345458984375,0.9002685546875,36.619998931884766,0.0,52.0,2.376068115234375,-1.7654266357421875,Waiting,0.0,0.0,3.0,0.0,0.0,0.0,0.0,0.125,
2.1468339999999952,0.0,0.0,86587.0,0.375,585.0,449.7228150222785,0.0,0.25,1.204833861,0.28699495208322373,-0.012207030000000119,-152537.0,0.375,-562.5,-449.7228150222785,0.0,0.25,0.9362792010000001,0.2888289613205296,-0.003662109000000413,14055.0,1.5,577.5,449.7228150222785,0.0,0.125,3.7402339920000003,0.2874691213549267,-0.020751950999999824,-26849.0,0.625,-555.0,-449.7228150222785,0.0,0.25,1.988525187,0.2884932199169554,-0.026855465999999995,0.8999999761581421,0.5099999904632568,-101.79000091552734,-0.0057373046875,-0.033935546875,1.02880859375,36.619998931884766,0.0,52.0,2.3787078857421875,-1.766357421875,Waiting,0.0,0.0,3.0,0.0,0.0,0.0,0.0,0.0,
2.2186670000000013,0.0,0.0,86587.0,0.125,555.0,443.19150787921245,0.0,0.375,1.166992068,0.25507115036256806,0.0,-152627.0,0.375,-547.5,-443.19150787921245,0.0,0.25,0.8581542090000001,0.2567011541049319,0.0,14144.0,1.375,562.5,443.19150787921245,0.0,0.125,3.707275011,0.2554925755504396,0.0,-26849.0,0.625,-502.5,-443.19150787921245,0.0,0.25,1.955566206,0.25640275880072044,0.0,0.7799999713897705,0.4000000059604645,-101.91000366210938,-0.04229736328125,-0.00421142578125,1.0897216796875,36.619998931884766,0.0,29.0,2.3816680908203125,-1.766632080078125,Waiting,0.0,0.0,3.0,0.0,0.0,0.0,0.0,0.0,
2.2861129999999976,0.0,0.0,86672.0,0.125,510.0,437.41434880335436,0.0,0.375,1.1328123840000002,0.2222485234367432,-0.026855465999999995,-152627.0,0.375,-525.0,-437.41434880335436,0.0,0.25,0.7897948410000001,0.22366877784192302,-0.07324218000000027,14144.0,1.375,540.0,437.41434880335436,0.0,0.125,3.653564079,0.22261571951364317,-0.0476074169999996,-26935.0,0.625,-510.0,-437.41434880335436,0.0,0.5,1.9226072250000001,0.22340878012886461,-0.029296871999999974,0.5699999928474426,0.3499999940395355,-101.94999694824219,-0.032470703125,-0.03106689453125,0.99139404296875,36.619998931884766,0.0,48.0,2.3871307373046875,-1.7674713134765625,Waiting,0.0,0.0,3.0,0.0,0.0,0.0,0.0,0.0,
2.3492669999999998,0.0,0.0,86751.0,0.375,495.0,432.4215651421655,0.0,0.375,1.091308482,0.1886079175616436,-0.04882812000000003,-152708.0,0.375,-502.5,-432.4215651421655,0.0,0.25,0.74462883,0.18981319542638028,-0.05371093200000043,14228.0,1.375,517.5,432.4215651421655,0.0,0.125,3.605956662,0.18891953307354878,0.0,-26935.0,0.375,-532.5,-432.4215651421655,0.0,0.25,1.878661917,0.18959255221817156,-0.04272460499999986,0.4399999976158142,0.23999999463558197,-101.87000274658203,0.00811767578125,0.01361083984375,1.1263427734375,36.599998474121094,0.0,-5.0,2.392913818359375,-1.7686309814453125,Waiting,0.0,0.0,3.0,0.0,0.0,0.0,0.0,0.0,
2.415182999999997,0.0,0.0,86751.0,0.125,487.5,428.24059247000696,0.0,0.375,1.046142471,0.15424620790777568,0.0,-152787.0,0.25,-487.5,-428.24059247000696,0.0,0.25,0.721435473,0.15523190109878424,0.0,14228.0,1.125,487.5,428.24059247000696,0.0,0.125,3.566894166,0.15450105145654083,-0.05371093200000043,-27011.0,0.625,-472.5,-428.24059247000696,0.0,0.25,1.854247857,0.1550514559795825,-0.030517574999999963,0.3499999940395355,0.1899999976158142,-101.83000183105469,-0.02972412109375,0.00665283203125,1.04034423828125,36.599998474121094,0.0,6.0,2.3996429443359375,-1.770263671875,Waiting,0.0,0.0,3.0,0.0,0.0,0.0,0.0,0.0,
2.4842049999999944,0.0,0.0,86828.0,0.125,480.0,423.9696204936888,0.0,0.375,1.0070799750000001,0.10750455483864146,-0.03295898099999994,-152787.0,0.375,-472.5,-423.9696204936888,0.0,0.25,0.701904225,0.1081915507080648,-0.02319335699999936,14305.0,1.375,472.5,423.9696204936888,0.0,0.125,3.5375972940000002,0.10768217244516232,-0.03906249599999967,-27011.0,0.375,-450.0,-423.9696204936888,0.0,0.25,1.8310545,0.1080657863701552,0.0,0.25,0.10000000149011612,-101.86000061035156,-0.02874755859375,-0.0174560546875,0.91986083984375,36.599998474121094,0.0,27.0,2.4090118408203125,-1.7719573974609375,Waiting,0.0,0.0,3.0,0.0,0.0,0.0,0.0,0.0,
2.547608999999997,0.0,0.0,86828.0,0.375,457.5,423.139578035428,0.0,0.375,0.9741209940000001,0.09568481255956446,-0.04272460500000008,-152858.0,0.375,-442.5,-423.139578035428,0.0,0.25,0.6713866500000001,0.0962962756840212,-0.02929687200000064,14305.0,1.375,465.0,423.139578035428,0.0,0.125,3.504638313,0.09584290174390399,-0.03173827799999973,-27087.0,0.625,-472.5,-423.139578035428,0.0,0.5,1.778564271,0.09618433868639704,-0.035400387000000144,0.20000000298023224,0.029999999329447746,-101.87999725341797,-0.02947998046875,-0.02984619140625,1.040283203125,36.599998474121094,0.0,39.0,2.4170989990234375,-1.7722625732421875,Waiting,0.0,0.0,3.0,0.0,0.0,0.0,0.0,0.125,
2.6107739999999975,0.0,0.0,86899.0,0.375,442.5,421.768888321851,0.0,0.25,0.9460448250000001,0.07191924801325907,0.0,-152858.0,0.375,-427.5,-421.768888321851,0.0,0.25,0.6335448570000001,0.07237883994767803,0.0,14378.0,1.375,442.5,421.768888321851,0.0,0.125,3.4790035500000003,0.07203807204554373,0.0,-27087.0,0.625,-420.0,-421.768888321851,0.0,0.25,1.748046696,0.07229470512545659,-0.04272460499999986,0.10999999940395355,-0.019999999552965164,-101.91999816894531,-0.0250244140625,0.0174560546875,0.991455078125,36.599998474121094,0.0,-10.0,2.425872802734375,-1.7725067138671875,Waiting,0.0,0.0,3.0,0.0,0.0,0.0,0.0,0.125,
2.683209999999999,0.0,0.0,86899.0,0.375,435.0,420.7870906111546,0.0,0.375,0.917968656,0.04802077676867344,-0.029296872000000085,-152924.0,0.375,-412.5,-420.7870906111546,0.0,0.25,0.6103515,0.04832764818762024,-0.03906249599999967,14447.0,1.375,435.0,420.7870906111546,0.0,0.125,3.455810193,0.04810011606221059,-0.024414059999999793,-27153.0,0.625,-405.0,-420.7870906111546,0.0,0.25,1.729736151,0.04827147102186869,0.0,0.07999999821186066,-0.11999999731779099,-101.94000244140625,-0.0166015625,1.220703125E-4,1.02655029296875,36.599998474121094,0.0,4.0,2.4260101318359375,-1.772674560546875,Waiting,0.0,0.0,3.0,0.0,0.0,0.0,0.0,0.0,
2.7454219999999987,0.0,0.0,86970.0,0.375,435.0,420.7870906111546,0.0,0.25,0.9082030320000001,0.04802077676867344,-0.026855465999999995,-152924.0,0.5,-397.5,-420.7870906111546,0.0,0.25,0.589599549,0.04832764818762024,-0.028076169000000206,14447.0,1.5,412.5,420.7870906111546,0.0,0.125,3.4326168360000002,0.04810011606221059,-0.024414060000000237,-27217.0,0.75,-397.5,-420.7870906111546,0.0,0.25,1.705322091,0.04827147102186869,-0.024414060000000015,0.019999999552965164,-0.1599999964237213,-101.94999694824219,-6.7138671875E-4,0.00396728515625,1.07177734375,36.599998474121094,0.0,-10.0,2.426055908203125,-1.7727508544921875,Waiting,0.0,0.0,3.0,0.0,0.0,0.0,0.0,0.0,
2.8095709999999965,0.0,0.0,86970.0,0.375,420.0,420.049236371836,0.0,0.25,0.8813475660000001,0.01201925261142284,0.0,-152988.0,0.625,-397.5,-420.049236371836,0.0,0.25,0.576171816,0.012096060304920076,0.0,14512.0,1.5,405.0,420.049236371836,0.0,0.125,3.4289547270000003,0.01203911066194186,0.0,-27217.0,0.75,-397.5,-420.049236371836,0.0,0.25,1.693115061,0.012081999567222845,-0.018310545000000067,0.0,-0.2199999988079071,-101.97000122070312,-0.01373291015625,0.03082275390625,1.0391845703125,36.599998474121094,0.0,-27.0,2.42626953125,-1.7726898193359375,Waiting,0.0,0.0,3.0,0.0,0.0,0.0,0.0,0.125,
2.8848839999999982,0.0,0.0,87034.0,0.375,397.5,420.0,0.0,0.25,0.889892487,0.01,-0.013427732999999997,-152988.0,0.75,-390.0,-420.0,0.0,0.25,0.571289004,0.01,-0.019531247999999835,14512.0,1.75,397.5,420.0,0.0,0.125,3.4118648850000004,0.01,-0.010986326999999907,-27278.0,0.75,-375.0,-420.0,0.0,0.25,1.674804516,0.01,0.0,0.009999999776482582,-0.2199999988079071,-102.01000213623047,-0.002197265625,-0.0196533203125,0.96136474609375,36.599998474121094,0.0,19.0,2.4263916015625,-1.7729949951171875,Waiting,0.0,0.0,3.0,0.0,0.0,0.0,0.0,0.0,
2.9450899999999964,0.0,0.0,87034.0,0.375,397.5,420.0,0.0,0.375,0.8666991300000001,0.01,-0.00488281200000007,-153051.0,0.75,-382.5,-420.0,0.0,0.25,0.5554198650000001,0.01,0.0,14576.0,1.75,397.5,420.0,0.0,0.125,3.388671528,0.01,-0.01953124800000028,-27278.0,1.0,-397.5,-420.0,0.0,0.25,1.649169753,0.01,-0.018310544999999845,0.0,-0.23999999463558197,-102.04000091552734,-0.01434326171875,0.00958251953125,0.9808349609375,36.599998474121094,0.0,-7.0,2.42645263671875,-1.7729949951171875,Waiting,0.0,0.0,3.0,0.0,0.0,0.0,0.0,0.125,
3.0223299999999944,0.0,0.0,87098.0,0.375,397.5,420.19691087185544,0.0,0.375,0.8557128030000001,4.908218127627576,0.0,-153113.0,0.75,-390.0,-420.19691087185544,0.0,0.25,0.5419921320000001,4.939583548236683,0.0,14576.0,1.75,397.5,420.19691087185544,0.0,0.125,3.387450825,4.916327420833059,0.0,-27338.0,1.0,-360.0,-420.19691087185544,0.0,0.25,1.6577146740000002,4.933841663122481,0.0,0.0,-0.2800000011920929,-102.13999938964844,0.01300048828125,-0.01519775390625,0.9554443359375,36.599998474121094,0.0,11.0,2.4264984130859375,-1.77294921875,Waiting,0.0,0.0,3.0,0.0,0.0,0.0,0.0,0.0,
3.0845570000000007,0.0,0.0,87161.0,0.375,397.5,420.4429197751611,0.0,0.25,0.8422850700000001,4.896215757744391,-0.018310544999999956,-153113.0,0.875,-382.5,-420.4429197751611,0.0,0.25,0.5407714290000001,4.927504478547194,-0.014648435999999876,14640.0,1.875,397.5,420.4429197751611,0.0,0.125,3.3728023890000003,4.904305220792776,-0.009765623999999917,-27338.0,1.0,-375.0,-420.4429197751611,0.0,0.25,1.652831862,4.921776634420408,0.0,-0.009999999776482582,-0.28999999165534973,-102.19000244140625,-0.0318603515625,-0.0386962890625,1.06622314453125,36.599998474121094,0.0,43.0,2.42657470703125,-1.772796630859375,Waiting,0.0,0.0,3.0,0.0,0.0,0.0,0.0,0.125,
3.1475190000000004,0.0,0.0,87161.0,0.5,390.0,420.7870906111546,0.0,0.375,0.820312416,4.884230223231326,-0.019531248000000057,-153176.0,0.875,-390.0,-420.7870906111546,0.0,0.25,0.521240181,4.91544235181238,-0.01342773300000033,14640.0,1.875,397.5,420.7870906111546,0.0,0.125,3.34472622,4.89229988393779,4.919648048999999,-27398.0,1.0,-367.5,-420.7870906111546,0.0,0.25,1.627197099,4.909728528978131,-0.018310545000000067,0.0,-0.30000001192092896,-102.19999694824219,-0.0130615234375,-0.0296630859375,1.0518798828125,36.599998474121094,0.0,30.0,2.4266357421875,-1.7728271484375,Waiting,0.0,0.0,3.0,0.0,0.0,0.0,0.0,0.125,
3.215153999999995,0.0,0.0,87226.0,0.5,397.5,420.7870906111546,0.0,0.375,0.811767495,4.884230223231326,4.9188232670000005,-153176.0,1.0,-390.0,-420.7870906111546,0.0,0.25,0.498046824,4.91544235181238,0.0,14705.0,1.875,405.0,420.7870906111546,0.0,0.125,3.338622705,4.89229988393779,0.0,-27398.0,1.0,-375.0,-420.7870906111546,0.0,0.25,1.6076658510000001,4.909728528978131,4.937248049,-0.05999999865889549,-0.28999999165534973,-102.2699966430664,-0.0562744140625,-0.0556640625,1.14398193359375,36.599998474121094,0.0,63.0,2.4267425537109375,-1.7726593017578125,Waiting,0.0,0.0,3.0,0.0,0.0,0.0,0.0,0.125,
3.2885950000000013,0.0,0.0,87226.0,0.5,397.5,422.40583311735,0.0,0.25,0.8056639800000001,4.848429690877773,0.0,-153240.0,1.0,-397.5,-422.40583311735,0.0,0.25,0.46142573400000003,4.8794130401490845,-0.024414059999999793,14773.0,1.75,412.5,422.40583311735,0.0,0.125,3.3239742690000003,4.856440202417223,-0.013427732999999442,-27464.0,1.0,-405.0,-422.40583311735,0.0,0.25,1.6027830390000002,4.873741098612378,0.0,-0.05000000074505806,-0.28999999165534973,-102.30000305175781,-0.01708984375,0.00604248046875,1.0640869140625,36.599998474121094,0.0,-4.0,2.4268035888671875,-1.77264404296875,Waiting,0.0,0.0,3.0,0.0,0.0,0.0,0.0,0.0,
3.340862000000001,0.0,0.0,87292.0,0.5,412.5,422.40583311735,0.0,0.25,0.7922362470000001,4.848429690877773,-0.008544921000000372,-153240.0,1.0,-405.0,-422.40583311735,0.0,0.25,0.46020503100000004,4.8794130401490845,-0.030517575000000186,14773.0,1.75,420.0,422.40583311735,0.0,0.125,3.3166500510000003,4.856440202417223,-0.012207029999999897,-27464.0,1.0,-397.5,-422.40583311735,0.0,0.25,1.593017415,4.873741098612378,-0.014648435999999876,-0.03999999910593033,-0.2800000011920929,-102.33999633789062,-0.0252685546875,-0.02288818359375,1.00592041015625,36.54999923706055,0.0,25.0,2.42681884765625,-1.7726593017578125,Waiting,0.0,0.0,3.0,0.0,0.0,0.0,0.0,0.0,
3.4187049999999943,0.0,0.0,87292.0,0.375,420.0,423.139578035428,0.0,0.25,0.76904289,4.836566187440436,0.0,-153307.0,0.875,-412.5,-423.139578035428,0.0,0.25,0.45532221900000003,4.867473724315979,0.0,14843.0,1.75,427.5,423.139578035428,0.0,0.125,3.294677397,4.844557098256096,0.0,-27529.0,1.0,-427.5,-423.139578035428,0.0,0.25,1.564941246,4.861815661313603,-0.023193357000000248,-0.07000000029802322,-0.23999999463558197,-102.41000366210938,0.010009765625,0.00347900390625,0.91455078125,36.54999923706055,0.0,-7.0,2.4272613525390625,-1.7727203369140625,Waiting,0.0,0.0,3.0,0.0,0.0,0.0,0.0,0.125,
3.484186999999998,0.0,0.0,87361.0,0.375,435.0,423.9696204936888,0.0,0.375,0.7495116420000001,4.824746445161359,-0.019531247999999835,-153307.0,0.875,-420.0,-423.9696204936888,0.0,0.25,0.444335892,4.855578449291936,-0.010986326999999463,14843.0,1.75,435.0,423.9696204936888,0.0,0.125,3.281249664,4.832717827554839,-0.017089842000000743,-27596.0,1.0,-405.0,-423.9696204936888,0.0,0.25,1.5551756220000001,4.849934213629845,0.0,-0.05999999865889549,-0.2199999988079071,-102.44999694824219,0.01495361328125,-0.032958984375,1.0447998046875,36.54999923706055,0.0,26.0,2.4277191162109375,-1.772918701171875,Waiting,0.0,0.0,3.0,0.0,0.0,0.0,0.0,0.125,
3.5437289999999995,0.0,0.0,87361.0,0.375,427.5,424.8953961344487,0.0,0.25,0.74462883,4.812975549907741,-0.0183105449999994,-153375.0,0.875,-420.0,-424.8953961344487,0.0,0.25,0.443115189,4.84373233344482,-0.008544921000000372,14912.0,1.5,427.5,424.8953961344487,0.0,0.125,3.2751461490000002,4.82092748458345,-0.01342773300000033,-27596.0,1.0,-427.5,-424.8953961344487,0.0,0.25,1.546630701,4.838101867979261,-0.014648435999999876,-0.07999999821186066,-0.23000000417232513,-102.5,-0.020263671875,-0.00421142578125,0.99346923828125,36.54999923706055,0.0,6.0,2.4278717041015625,-1.7734222412109375,Waiting,0.0,0.0,3.0,0.0,0.0,0.0,0.0,0.125,
3.6195079999999944,0.0,0.0,87430.0,0.375,435.0,425.9162806985224,0.0,0.375,0.7360839090000001,4.801258457807891,0.0,-153443.0,0.75,-420.0,-425.9162806985224,0.0,0.25,0.42114253500000004,4.831940364574527,0.0,14912.0,1.625,442.5,425.9162806985224,0.0,0.125,3.24706998,4.809191033658689,0.0,-27662.0,1.0,-405.0,-425.9162806985224,0.0,0.25,1.535644374,4.826323606363813,-0.014648435999999876,-0.07000000029802322,-0.25999999046325684,-102.55999755859375,0.0941162109375,0.020263671875,1.13250732421875,36.54999923706055,0.0,-42.0,2.42779541015625,-1.7740631103515625,Waiting,0.0,0.0,3.0,0.0,0.0,0.0,0.0,0.125,
3.685356999999996,0.0,0.0,87499.0,0.375,427.5,425.9162806985224,0.0,0.25,0.731201097,4.801258457807891,-0.004882811999999959,-153443.0,0.875,-427.5,-425.9162806985224,0.0,0.25,0.406494099,4.831940364574527,-0.014648435999999876,14983.0,1.5,435.0,425.9162806985224,0.0,0.125,3.238525059,4.809191033658689,-0.014648435999999876,-27662.0,1.0,-427.5,-425.9162806985224,0.0,0.25,1.5307615620000001,4.826323606363813,0.0,-0.10000000149011612,-0.23000000417232513,-102.63999938964844,0.02752685546875,-0.02520751953125,0.9603271484375,36.54999923706055,0.0,15.0,2.4278717041015625,-1.7747802734375,Waiting,0.0,0.0,3.0,0.0,0.0,0.0,0.0,0.0,
3.7431879999999946,0.0,0.0,87499.0,0.375,427.5,427.0315920690178,0.0,0.25,0.721435473,4.789599983969735,-0.006103515000000392,-153512.0,0.75,-427.5,-427.0315920690178,0.0,0.25,0.39428706900000005,4.820207388559393,-0.01342773300000033,14983.0,1.5,442.5,427.0315920690178,0.0,0.125,3.227538732,4.797513297843942,-0.008544921000000372,-27728.0,1.0,-412.5,-427.0315920690178,0.0,0.25,1.520995938,4.814604269028877,0.0012207030000004337,-0.05999999865889549,-0.25,-102.73999786376953,-7.32421875E-4,0.00738525390625,1.05743408203125,36.54999923706055,0.0,-9.0,2.42779541015625,-1.775299072265625,Waiting,0.0,0.0,3.0,0.0,0.0,0.0,0.0,0.0,
3.8200269999999947,0.0,0.0,87570.0,0.375,435.0,428.24059247000696,0.0,0.25,0.7116698490000001,4.778004792092225,0.0,-153512.0,0.875,-427.5,-428.24059247000696,0.0,0.25,0.391845663,4.808538098901216,0.0,15054.0,1.375,435.0,428.24059247000696,0.0,0.125,3.2189938110000003,4.785898948543459,0.0,-27728.0,1.0,-420.0,-428.24059247000696,0.0,0.25,1.512451017,4.802948544020418,-0.009765624000000805,-0.05000000074505806,-0.25999999046325684,-102.79000091552734,-0.00604248046875,-0.0286865234375,0.96160888671875,36.54999923706055,0.0,27.0,2.4278717041015625,-1.7759857177734375,Waiting,0.0,0.0,3.0,0.0,0.0,0.0,0.0,0.0,
3.885782999999996,0.0,0.0,87570.0,0.375,435.0,430.9364451129221,0.0,0.25,0.7116698490000001,4.755022096236761,-0.010986327000000351,-153581.0,0.75,-427.5,-430.9364451129221,0.0,0.25,0.393066366,4.785408534690783,-0.009765623999999917,15124.0,1.5,435.0,430.9364451129221,0.0,0.125,3.2177731080000003,4.762878280981259,-0.009765623999999917,-27798.0,1.0,-420.0,-430.9364451129221,0.0,0.25,1.5026853930000001,4.77984586614547,0.0,-0.05999999865889549,-0.27000001072883606,-102.86000061035156,0.01251220703125,0.00506591796875,1.07281494140625,36.540000915527344,0.0,-10.0,2.4282989501953125,-1.7761383056640625,Waiting,0.0,0.0,3.0,0.0,0.0,0.0,0.0,0.0,
3.9419059999999955,0.0,0.0,87640.0,0.375,435.0,429.54249080416946,0.0,0.25,0.701904225,4.766477385014434,0.0012207030000004337,-153581.0,0.875,-427.5,-429.54249080416946,0.0,0.25,0.386962851,4.796937027213962,0.0,15124.0,1.375,435.0,429.54249080416946,0.0,0.125,3.2128902960000003,4.774352496035848,0.0,-27798.0,1.0,-412.5,-429.54249080416946,0.0,0.25,1.486816254,4.7913609576847485,-0.008544920999999484,-0.03999999910593033,-0.2800000011920929,-102.94000244140625,-0.0086669921875,0.00494384765625,1.037353515625,36.540000915527344,0.0,-4.0,2.4284515380859375,-1.776336669921875,Waiting,0.0,0.0,3.0,0.0,0.0,0.0,0.0,0.125,
4.017760999999998,0.0,0.0,87640.0,0.375,435.0,432.4215651421655,0.0,0.25,0.6872557890000001,4.743643082438357,-0.01831054500000029,-153649.0,0.875,-420.0,-432.4215651421655,0.0,0.25,0.379638633,4.77395680457362,-0.0183105449999994,15195.0,1.5,442.5,432.4215651421655,0.0,0.125,3.2128902960000003,4.751480466926451,0.0,-27865.0,1.0,-405.0,-432.4215651421655,0.0,0.25,1.4733885210000002,4.768407447781828,-0.019531248000000723,-0.07999999821186066,-0.3100000023841858,-103.02999877929688,-0.00445556640625,0.03265380859375,0.98577880859375,36.540000915527344,0.0,-33.0,2.428497314453125,-1.7768707275390625,Waiting,0.0,0.0,3.0,0.0,0.0,0.0,0.0,0.125,
4.0834739999999945,0.0,0.0,87711.0,0.375,435.0,430.9364451129221,0.0,0.375,0.678710868,4.755022096236761,0.0,-153649.0,0.875,-420.0,-430.9364451129221,0.0,0.25,0.36865230600000004,4.785408534690783,0.0,15195.0,1.375,435.0,430.9364451129221,0.0,0.125,3.2128902960000003,4.762878280981259,-0.003662109000000413,-27933.0,1.25,-412.5,-430.9364451129221,0.0,0.25,1.463622897,4.77984586614547,0.0,-0.07999999821186066,-0.3100000023841858,-103.08000183105469,-0.03009033203125,0.0030517578125,1.10986328125,36.540000915527344,0.0,0.0,2.428680419921875,-1.777435302734375,Waiting,0.0,0.0,3.0,0.0,0.0,0.0,0.0,0.125,
4.149993999999999,0.0,0.0,87778.0,0.375,420.0,432.4215651421655,0.0,0.25,0.6738280560000001,4.743643082438357,-0.004882811999999959,-153717.0,0.875,-427.5,-432.4215651421655,0.0,0.25,0.357665979,4.77395680457362,-0.007324218000000826,15264.0,1.5,427.5,432.4215651421655,0.0,0.125,3.2202145140000002,4.751480466926451,-0.003662109000000413,-27933.0,1.0,-420.0,-432.4215651421655,0.0,0.25,1.458740085,4.768407447781828,-0.009765623999999917,-0.07999999821186066,-0.3499999940395355,-103.08999633789062,-0.01080322265625,0.00714111328125,1.04345703125,36.540000915527344,0.0,-7.0,2.4287567138671875,-1.778228759765625,Waiting,0.0,0.0,3.0,0.0,0.0,0.0,0.0,0.125,
4.2080639999999985,0.0,0.0,87778.0,0.375,420.0,433.99691499659593,0.0,0.25,0.6738280560000001,4.732344317004644,-0.010986326999999463,-153717.0,0.875,-420.0,-433.99691499659593,0.0,0.25,0.344238246,4.762585835639374,-0.009765623999999917,15264.0,1.375,435.0,433.99691499659593,0.0,0.125,3.197021157,4.7401630338216245,0.0,-28001.0,1.0,-427.5,-433.99691499659593,0.0,0.25,1.459960788,4.757049696722454,0.0,-0.09000000357627869,-0.3499999940395355,-103.11000061035156,-0.006591796875,-0.0106201171875,1.03326416015625,36.540000915527344,0.0,8.0,2.4289398193359375,-1.779052734375,Waiting,0.0,0.0,3.0,0.0,0.0,0.0,0.0,0.125,
4.280561999999998,0.0,0.0,87846.0,0.375,420.0,435.66151586552843,0.0,0.25,0.668945244,4.721129584569014,0.0,-153786.0,0.75,-435.0,-435.66151586552843,0.0,0.25,0.33569332500000004,4.751299436706716,0.0,15333.0,1.5,427.5,435.66151586552843,0.0,0.125,3.188476236,4.728929772553091,-0.006103515000000392,-28001.0,1.0,-435.0,-435.66151586552843,0.0,0.25,1.457519382,4.745776417358559,0.0,-0.07999999821186066,-0.3700000047683716,-103.06999969482422,-0.04327392578125,0.01849365234375,1.0838623046875,36.540000915527344,0.0,-11.0,2.42901611328125,-1.779083251953125,Waiting,0.0,0.0,3.0,0.0,0.0,0.0,0.0,0.125,
4.349203000000001,0.0,0.0,87846.0,0.375,427.5,435.66151586552843,0.0,0.25,0.649413996,4.721129584569014,-0.0012207030000004337,-153856.0,0.875,-435.0,-435.66151586552843,0.0,0.25,0.319824186,4.751299436706716,-0.012207029999999897,15333.0,1.375,435.0,435.66151586552843,0.0,0.125,3.1689449880000002,4.728929772553091,-0.014648435999999876,-28072.0,1.0,-435.0,-435.66151586552843,0.0,0.25,1.458740085,4.745776417358559,0.0,-0.05999999865889549,-0.33000001311302185,-103.06999969482422,-0.017578125,-0.0177001953125,1.01885986328125,36.540000915527344,0.0,18.0,2.42901611328125,-1.7792205810546875,Waiting,0.0,0.0,3.0,0.0,0.0,0.0,0.0,0.0,
4.486714999999997,0.0,0.0,87914.0,0.5,427.5,437.41434880335436,0.0,0.25,0.615234312,4.7100024765632575,0.0,-153925.0,0.875,-427.5,-437.41434880335436,0.0,0.25,0.31616207700000004,4.740101222158078,0.0,15473.0,1.375,427.5,437.41434880335436,0.0,0.125,3.14941374,4.717784280486358,0.0,-28141.0,1.0,-427.5,-437.41434880335436,0.0,0.25,1.458740085,4.7345912198711355,0.0,-0.05999999865889549,-0.36000001430511475,-102.98999786376953,-0.001220703125,0.031005859375,0.96905517578125,36.5099983215332,0.0,-32.0,2.428955078125,-1.779327392578125,Waiting,0.0,0.0,3.0,0.0,0.0,0.0,0.0,0.125,
4.547009999999995,0.0,0.0,87983.0,0.375,420.0,437.41434880335436,0.0,0.25,0.6103515,4.7100024765632575,-0.04272460500000008,-153925.0,0.75,-435.0,-437.41434880335436,0.0,0.25,0.319824186,4.740101222158078,-0.006103514999999504,15473.0,1.5,435.0,437.41434880335436,0.0,0.125,3.150634443,4.717784280486358,0.0,-28141.0,1.0,-450.0,-437.41434880335436,0.0,0.25,1.461181491,4.7345912198711355,0.0012207029999995456,-0.05999999865889549,-0.3400000035762787,-102.9000015258789,0.0146484375,-0.0426025390625,1.0374755859375,36.5099983215332,0.0,35.0,2.4288482666015625,-1.7793121337890625,Waiting,0.0,0.0,3.0,0.0,0.0,0.0,0.0,0.0,
4.6081970000000005,0.0,0.0,87983.0,0.5,420.0,437.41434880335436,0.0,0.25,0.605468688,4.7100024765632575,-0.012207030000000785,-153997.0,0.75,-450.0,-437.41434880335436,0.0,0.25,0.314941374,4.740101222158078,-0.0024414059999999793,15542.0,1.5,427.5,437.41434880335436,0.0,0.125,3.143310225,4.717784280486358,0.0,-28211.0,1.0,-435.0,-437.41434880335436,0.0,0.25,1.439208837,4.7345912198711355,0.0,-0.07000000029802322,-0.36000001430511475,-102.7699966430664,-0.0120849609375,-0.03997802734375,0.92059326171875,36.5099983215332,0.0,39.0,2.4287567138671875,-1.779205322265625,Waiting,0.0,0.0,3.0,0.0,0.0,0.0,0.0,0.125,
4.683218000000001,0.0,0.0,88050.0,0.5,412.5,435.66151586552843,0.0,0.25,0.6079100940000001,4.721129584569014,0.0,-153997.0,0.75,-442.5,-435.66151586552843,0.0,0.25,0.32348629500000003,4.751299436706716,0.0,15542.0,1.625,427.5,435.66151586552843,0.0,0.125,3.144530928,4.728929772553091,0.0012207029999995456,-28282.0,1.0,-442.5,-435.66151586552843,0.0,0.25,1.430663916,4.745776417358559,-0.014648435999999876,-0.05999999865889549,-0.3799999952316284,-102.70999908447266,-0.02520751953125,-0.00677490234375,1.03570556640625,36.5099983215332,0.0,9.0,2.428680419921875,-1.7793731689453125,Waiting,0.0,0.0,3.0,0.0,0.0,0.0,0.0,0.0,
4.747559000000001,0.0,0.0,88118.0,0.5,427.5,437.41434880335436,0.0,0.25,0.605468688,4.7100024765632575,-0.0024414060000008675,-154068.0,0.875,-435.0,-437.41434880335436,0.0,0.125,0.314941374,4.740101222158078,0.0024414059999999793,15611.0,1.5,427.5,437.41434880335436,0.0,0.0,3.144530928,4.717784280486358,-0.0012207029999995456,-28282.0,1.0,-435.0,-437.41434880335436,0.0,0.25,1.436767431,4.7345912198711355,0.0,-0.05000000074505806,-0.3700000047683716,-102.69000244140625,-0.03973388671875,0.0015869140625,1.04693603515625,36.5099983215332,0.0,4.0,2.428619384765625,-1.7799072265625,Waiting,0.0,0.0,3.0,0.0,0.0,0.0,0.0,0.125,
4.8106800000000005,0.0,0.0,88118.0,0.5,427.5,433.99691499659593,0.0,0.125,0.596923767,4.732344317004644,-0.0012207030000004337,-154137.0,0.875,-427.5,-433.99691499659593,0.0,0.25,0.314941374,4.762585835639374,0.0012207030000004337,15611.0,1.625,427.5,433.99691499659593,0.0,0.125,3.139648116,4.7401630338216245,0.0,-28354.0,1.0,-442.5,-433.99691499659593,0.0,0.25,1.4257811040000001,4.757049696722454,0.0,-0.019999999552965164,-0.3799999952316284,-102.66000366210938,-0.0426025390625,-0.00811767578125,0.93157958984375,36.5099983215332,0.0,15.0,2.42840576171875,-1.780303955078125,Waiting,0.0,0.0,3.0,0.0,0.0,0.0,0.0,0.125,
4.885259999999994,0.0,0.0,88187.0,0.5,427.5,433.99691499659593,0.0,0.25,0.605468688,4.732344317004644,0.0,-154137.0,0.875,-427.5,-433.99691499659593,0.0,0.125,0.314941374,4.762585835639374,0.0,15680.0,1.5,427.5,433.99691499659593,0.0,0.0,3.139648116,4.7401630338216245,-0.004882811999999959,-28354.0,1.0,-427.5,-433.99691499659593,0.0,0.125,1.430663916,4.757049696722454,0.0,-0.009999999776482582,-0.38999998569488525,-102.6500015258789,-0.03857421875,0.02587890625,1.00604248046875,36.52000045776367,0.0,-18.0,2.428314208984375,-1.780548095703125,Waiting,0.0,0.0,3.0,0.0,0.0,0.0,0.0,0.125,
4.943413999999997,0.0,0.0,88187.0,0.5,427.5,433.99691499659593,0.0,0.25,0.6066893910000001,4.732344317004644,0.0012207030000004337,-154206.0,0.875,-427.5,-433.99691499659593,0.0,0.125,0.314941374,4.762585835639374,-0.0012207030000004337,15680.0,1.5,427.5,433.99691499659593,0.0,0.0,3.129882492,4.7401630338216245,-0.006103514999999504,-28423.0,1.0,-435.0,-433.99691499659593,0.0,0.125,1.430663916,4.757049696722454,0.0,0.0,-0.33000001311302185,-102.6500015258789,0.01177978515625,0.01812744140625,0.93707275390625,36.52000045776367,0.0,-21.0,2.4282989501953125,-1.7806396484375,Waiting,0.0,0.0,3.0,0.0,0.0,0.0,0.0,0.125,
5.009199000000001,0.0,0.0,88256.0,0.5,427.5,432.4215651421655,0.0,0.25,0.6066893910000001,4.743643082438357,-0.0012207030000004337,-154206.0,0.875,-427.5,-432.4215651421655,0.0,0.0,0.314941374,4.77395680457362,0.0,15749.0,1.5,427.5,432.4215651421655,0.0,0.0,3.134765304,4.751480466926451,0.0,-28423.0,1.0,-420.0,-432.4215651421655,0.0,0.125,1.430663916,4.768407447781828,0.0,0.019999999552965164,-0.3499999940395355,-102.69000244140625,0.02362060546875,0.02960205078125,1.068359375,36.52000045776367,0.0,-34.0,2.4281158447265625,-1.7807159423828125,Waiting,0.0,0.0,3.0,0.0,0.0,0.0,0.0,0.125,
5.084991999999998,0.0,0.0,88256.0,0.5,427.5,430.9364451129221,0.0,0.25,0.605468688,4.755022096236761,0.0,-154275.0,0.875,-427.5,-430.9364451129221,0.0,0.0,0.308837859,4.785408534690783,0.0,15819.0,1.5,435.0,430.9364451129221,0.0,0.0,3.139648116,4.762878280981259,-0.004882811999999959,-28490.0,1.25,-420.0,-430.9364451129221,0.0,0.125,1.430663916,4.77984586614547,0.0,0.029999999329447746,-0.33000001311302185,-102.72000122070312,-0.031494140625,-0.00897216796875,1.036865234375,36.52000045776367,0.0,14.0,2.4279937744140625,-1.7807464599609375,Waiting,0.0,0.0,3.0,0.0,0.0,0.0,0.0,0.0,
5.144365999999994,0.0,0.0,88325.0,0.5,420.0,430.9364451129221,0.0,0.25,0.6079100940000001,4.755022096236761,0.0012207030000004337,-154275.0,0.875,-427.5,-430.9364451129221,0.0,0.125,0.314941374,4.785408534690783,0.0,15819.0,1.5,435.0,430.9364451129221,0.0,0.0,3.139648116,4.762878280981259,0.0012207029999995456,-28490.0,1.0,-427.5,-430.9364451129221,0.0,0.125,1.430663916,4.77984586614547,0.0,0.05999999865889549,-0.3499999940395355,-102.72000122070312,0.02630615234375,0.01068115234375,1.09283447265625,36.52000045776367,0.0,-16.0,2.4278564453125,-1.7808074951171875,Waiting,0.0,0.0,3.0,0.0,0.0,0.0,0.0,0.0,
5.212182999999997,0.0,0.0,88325.0,0.5,427.5,430.9364451129221,0.0,0.25,0.6066893910000001,4.755022096236761,0.0012207030000004337,-154345.0,0.875,-435.0,-430.9364451129221,0.0,0.125,0.313720671,4.785408534690783,-0.0012207030000004337,15888.0,1.5,427.5,430.9364451129221,0.0,0.0,3.139648116,4.762878280981259,0.0,-28560.0,1.0,-435.0,-430.9364451129221,0.0,0.125,1.4221189950000002,4.77984586614547,0.0,0.029999999329447746,-0.3700000047683716,-102.70999908447266,0.01690673828125,-0.00592041015625,1.04473876953125,36.52000045776367,0.0,1.0,2.4279937744140625,-1.780792236328125,Waiting,0.0,0.0,3.0,0.0,0.0,0.0,0.0,0.0,
5.285515999999996,0.0,0.0,88394.0,0.375,427.5,430.9364451129221,0.0,0.25,0.612792906,4.755022096236761,0.0,-154345.0,0.75,-427.5,-430.9364451129221,0.0,0.125,0.313720671,4.785408534690783,0.0,15888.0,1.5,427.5,430.9364451129221,0.0,0.0,3.139648116,4.762878280981259,0.0,-28630.0,1.0,-435.0,-430.9364451129221,0.0,0.125,1.429443213,4.77984586614547,0.0,0.07000000029802322,-0.3799999952316284,-102.7300033569336,-0.0286865234375,0.02191162109375,0.9549560546875,36.52000045776367,0.0,-15.0,2.4278717041015625,-1.7807159423828125,Waiting,0.0,0.0,3.0,0.0,0.0,0.0,0.0,0.125,
5.342172999999995,0.0,0.0,88394.0,0.5,435.0,429.54249080416946,0.0,0.25,0.604247985,4.766477385014434,0.0,-154414.0,0.875,-427.5,-429.54249080416946,0.0,0.125,0.312499968,4.796937027213962,0.0,15957.0,1.5,427.5,429.54249080416946,0.0,0.0,3.144530928,4.774352496035848,0.003662108999999525,-28630.0,1.0,-435.0,-429.54249080416946,0.0,0.125,1.429443213,4.7913609576847485,0.0,0.07000000029802322,-0.3700000047683716,-102.69999694824219,-0.01312255859375,0.03289794921875,1.066650390625,36.52000045776367,0.0,-29.0,2.4273834228515625,-1.780670166015625,Waiting,0.0,0.0,3.0,0.0,0.0,0.0,0.0,0.125,
5.410356,0.0,0.0,88463.0,0.5,420.0,429.54249080416946,0.0,0.25,0.605468688,4.766477385014434,0.0012207030000004337,-154483.0,0.875,-427.5,-429.54249080416946,0.0,0.125,0.313720671,4.796937027213962,0.0,15957.0,1.5,435.0,429.54249080416946,0.0,0.0,3.144530928,4.774352496035848,0.0,-28700.0,1.0,-435.0,-429.54249080416946,0.0,0.25,1.430663916,4.7913609576847485,0.0,0.07999999821186066,-0.36000001430511475,-102.68000030517578,-0.0091552734375,-0.03936767578125,0.92388916015625,36.459999084472656,0.0,40.0,2.427276611328125,-1.7808685302734375,Waiting,0.0,0.0,3.0,0.0,0.0,0.0,0.0,0.125,
5.480708999999996,0.0,0.0,88532.0,0.5,427.5,428.24059247000696,0.0,0.25,0.6066893910000001,4.778004792092225,0.0,-154483.0,0.875,-427.5,-428.24059247000696,0.0,0.125,0.314941374,4.808538098901216,0.0,16027.0,1.375,435.0,428.24059247000696,0.0,0.0,3.144530928,4.785898948543459,0.0012207030000004337,-28700.0,1.0,-427.5,-428.24059247000696,0.0,0.25,1.430663916,4.802948544020418,-0.0012207029999995456,0.11999999731779099,-0.36000001430511475,-102.69000244140625,-0.011474609375,-0.00457763671875,0.9429931640625,36.459999084472656,0.0,7.0,2.4273834228515625,-1.7813720703125,Waiting,0.0,0.0,3.0,0.0,0.0,0.0,0.0,0.0,
5.544178999999996,0.0,0.0,88532.0,0.5,427.5,428.24059247000696,0.0,0.25,0.605468688,4.778004792092225,0.0,-154550.0,0.875,-420.0,-428.24059247000696,0.0,0.25,0.314941374,4.808538098901216,0.0,16027.0,1.5,427.5,428.24059247000696,0.0,0.0,3.148193037,4.785898948543459,0.006103514999999504,-28767.0,1.0,-420.0,-428.24059247000696,0.0,0.25,1.430663916,4.802948544020418,0.0,0.10999999940395355,-0.38999998569488525,-102.73999786376953,0.0638427734375,0.02398681640625,1.04132080078125,36.459999084472656,0.0,-36.0,2.427703857421875,-1.7819976806640625,Waiting,0.0,0.0,3.0,0.0,0.0,0.0,0.0,0.125,
5.610353999999999,0.0,0.0,88599.0,0.5,420.0,428.24059247000696,0.0,0.25,0.6066893910000001,4.778004792092225,0.0,-154550.0,1.0,-412.5,-428.24059247000696,0.0,0.25,0.319824186,4.808538098901216,0.0012207030000004337,16096.0,1.5,427.5,428.24059247000696,0.0,0.0,3.1640621760000003,4.785898948543459,0.0,-28767.0,1.0,-427.5,-428.24059247000696,0.0,0.25,1.430663916,4.802948544020418,0.0,0.15000000596046448,-0.3799999952316284,-102.73999786376953,0.00421142578125,-0.01165771484375,1.08392333984375,36.459999084472656,0.0,11.0,2.42779541015625,-1.7822418212890625,Waiting,0.0,0.0,3.0,0.0,0.0,0.0,0.0,0.0,
5.6850349999999965,0.0,0.0,88599.0,0.5,420.0,427.0315920690178,0.0,0.25,0.6091307970000001,4.789599983969735,0.0,-154618.0,0.875,-420.0,-427.0315920690178,0.0,0.25,0.312499968,4.820207388559393,0.0,16164.0,1.5,420.0,427.0315920690178,0.0,0.0,3.1738278,4.797513297843942,0.009765624000000805,-28837.0,1.0,-435.0,-427.0315920690178,0.0,0.25,1.430663916,4.814604269028877,0.0012207029999995456,0.14000000059604645,-0.36000001430511475,-102.7300033569336,-0.01873779296875,-0.00897216796875,0.9315185546875,36.459999084472656,0.0,13.0,2.4277801513671875,-1.7824249267578125,Waiting,0.0,0.0,3.0,0.0,0.0,0.0,0.0,0.0,
5.745379999999997,0.0,0.0,88668.0,0.5,427.5,425.9162806985224,0.0,0.25,0.6201171240000001,4.801258457807891,0.003662109000000413,-154618.0,0.875,-427.5,-425.9162806985224,0.0,0.25,0.32958981000000004,4.831940364574527,0.007324217999999938,16164.0,1.5,420.0,425.9162806985224,0.0,0.0,3.1738278,4.809191033658689,0.0012207030000004337,-28908.0,1.0,-435.0,-425.9162806985224,0.0,0.25,1.429443213,4.826323606363813,0.0,0.15000000596046448,-0.33000001311302185,-102.72000122070312,0.0325927734375,-0.03106689453125,0.990234375,36.459999084472656,0.0,24.0,2.42779541015625,-1.7825775146484375,Waiting,0.0,0.0,3.0,0.0,0.0,0.0,0.0,0.125,
5.811864000000002,0.0,0.0,88668.0,0.5,420.0,424.8953961344487,0.0,0.25,0.6445311840000001,4.812975549907741,0.01586913899999942,-154688.0,0.75,-427.5,-424.8953961344487,0.0,0.25,0.339355434,4.84373233344482,0.006103514999999504,16232.0,1.5,420.0,424.8953961344487,0.0,0.0,3.182372721,4.82092748458345,0.0,-28908.0,1.0,-427.5,-424.8953961344487,0.0,0.25,1.4489744610000002,4.838101867979261,0.012207029999999897,0.2199999988079071,-0.3799999952316284,-102.72000122070312,-0.060791015625,0.0455322265625,1.2828369140625,36.459999084472656,0.0,-27.0,2.4279327392578125,-1.7825164794921875,Waiting,0.0,0.0,3.0,0.0,0.0,0.0,0.0,0.125,
5.886021,0.0,0.0,88734.0,0.375,420.0,424.8953961344487,0.0,0.25,0.653076105,4.812975549907741,0.0,-154688.0,0.875,-427.5,-424.8953961344487,0.0,0.25,0.34912105800000004,4.84373233344482,0.0,16232.0,1.375,435.0,424.8953961344487,0.0,0.0,3.193359048,4.82092748458345,0.003662108999999525,-28977.0,1.0,-427.5,-424.8953961344487,0.0,0.25,1.4794920360000001,4.838101867979261,0.025634763000000227,0.23000000417232513,-0.3799999952316284,-102.7699966430664,-0.065673828125,-0.0382080078125,1.26934814453125,36.459999084472656,0.0,-35.0,2.4275970458984375,-1.7830352783203125,Waiting,0.0,0.0,3.0,0.0,0.0,0.0,0.0,0.125,
5.950972000000002,0.0,0.0,88806.0,0.375,450.0,423.9696204936888,0.0,0.25,0.666503838,4.824746445161359,0.02075195100000027,-154756.0,0.875,-420.0,-423.9696204936888,0.0,0.25,0.36865230600000004,4.855578449291936,0.01342773300000033,16302.0,1.5,435.0,423.9696204936888,0.0,0.0,3.2031246720000004,4.832717827554839,0.008544920999999484,-28977.0,1.0,-405.0,-423.9696204936888,0.0,0.25,1.48925766,4.849934213629845,0.0,0.1899999976158142,-0.3499999940395355,-102.87000274658203,-0.01239013671875,0.06329345703125,1.10076904296875,36.5,0.0,-56.0,2.4275054931640625,-1.7830657958984375,Waiting,0.0,0.0,3.0,0.0,0.0,0.0,0.0,0.125,
6.016735000000001,0.0,0.0,88806.0,0.375,427.5,423.9696204936888,0.0,0.25,0.667724541,4.824746445161359,0.007324217999999938,-154823.0,1.0,-405.0,-423.9696204936888,0.0,0.25,0.372314415,4.855578449291936,0.003662109000000413,16302.0,1.375,420.0,423.9696204936888,0.0,0.0,3.201903969,4.832717827554839,0.0,-29042.0,1.25,-405.0,-423.9696204936888,0.0,0.25,1.488036957,4.849934213629845,0.01586913899999942,0.2199999988079071,-0.3499999940395355,-102.86000061035156,0.0216064453125,0.0242919921875,0.98663330078125,36.5,0.0,-26.0,2.4270172119140625,-1.7833251953125,Waiting,0.0,0.0,3.0,0.0,0.0,0.0,0.0,0.125,
6.080716000000001,0.0,0.0,88872.0,0.5,405.0,421.768888321851,0.0,0.25,0.668945244,4.860331751986741,0.0,-154823.0,1.0,-420.0,-421.768888321851,0.0,0.125,0.38208003900000004,4.891391160052322,0.0,16369.0,1.5,412.5,421.768888321851,0.0,0.0,3.2067867810000004,4.8683619279544565,0.004882811999999959,-29042.0,1.0,-420.0,-421.768888321851,0.0,0.25,1.488036957,4.885705294874543,0.0,0.1899999976158142,-0.30000001192092896,-102.81999969482422,7.9345703125E-4,-0.00628662109375,0.94171142578125,36.5,0.0,8.0,2.4267120361328125,-1.78350830078125,Waiting,0.0,0.0,3.0,0.0,0.0,0.0,0.0,0.0,
6.142714999999996,0.0,0.0,88872.0,0.5,412.5,422.40583311735,0.0,0.375,0.665283135,4.848429690877773,0.0,-154890.0,1.0,-420.0,-422.40583311735,0.0,0.25,0.38208003900000004,4.8794130401490845,0.010986326999999463,16369.0,1.5,412.5,422.40583311735,0.0,0.125,3.2226559200000002,4.856440202417223,0.01586913900000031,-29110.0,1.0,-412.5,-422.40583311735,0.0,0.25,1.5026853930000001,4.873741098612378,0.0,0.20000000298023224,-0.30000001192092896,-102.88999938964844,-0.0157470703125,0.02239990234375,0.96990966796875,36.5,0.0,-16.0,2.4266357421875,-1.7834014892578125,Waiting,0.0,0.0,3.0,0.0,0.0,0.0,0.0,0.0,
6.216970000000001,0.0,0.0,88940.0,0.5,420.0,421.2291827664158,0.0,0.25,0.688476492,4.872267062553982,0.013427732999999442,-154890.0,1.0,-420.0,-421.2291827664158,0.0,0.25,0.40161128700000004,4.903402741890788,0.008544921000000372,16437.0,1.5,420.0,421.2291827664158,0.0,0.0,3.243407871,4.880316957884279,0.0,-29110.0,1.0,-427.5,-421.2291827664158,0.0,0.25,1.517333829,4.897702914175017,0.010986327000000351,0.25,-0.30000001192092896,-102.87999725341797,-0.007080078125,0.054443359375,1.010009765625,36.5,0.0,-48.0,2.4262847900390625,-1.7831573486328125,Waiting,0.0,0.0,3.0,0.0,0.0,0.0,0.0,0.0,
6.284632999999994,0.0,0.0,88940.0,0.5,420.0,422.40583311735,0.0,0.375,0.7116698490000001,4.848429690877773,0.0,-154958.0,1.0,-420.0,-422.40583311735,0.0,0.25,0.416259723,4.8794130401490845,0.019531247999999835,16503.0,1.5,412.5,422.40583311735,0.0,0.0,3.254394198,4.856440202417223,0.01831054500000029,-29177.0,1.0,-420.0,-422.40583311735,0.0,0.25,1.541747889,4.873741098612378,0.01831054500000029,0.30000001192092896,-0.28999999165534973,-102.81999969482422,-0.0196533203125,0.00177001953125,1.01568603515625,36.5,0.0,6.0,2.4259796142578125,-1.7832183837890625,Waiting,0.0,0.0,3.0,0.0,0.0,0.0,0.0,0.125,
6.349231999999996,0.0,0.0,89005.0,0.5,405.0,421.2291827664158,0.0,0.25,0.7263182850000001,4.872267062553982,0.02075195100000027,-154958.0,1.0,-420.0,-421.2291827664158,0.0,0.125,0.426025347,4.903402741890788,0.0,16503.0,1.625,405.0,421.2291827664158,0.0,0.0,3.2690426340000003,4.880316957884279,0.014648435999999876,-29244.0,1.25,-427.5,-421.2291827664158,0.0,0.125,1.544189295,4.897702914175017,0.0,0.30000001192092896,-0.3700000047683716,-102.75,-0.0244140625,0.0018310546875,1.031982421875,36.5,0.0,7.0,2.425933837890625,-1.7835540771484375,Waiting,0.0,0.0,3.0,0.0,0.0,0.0,0.0,0.125,
6.410566999999995,0.0,0.0,89005.0,0.5,390.0,420.7870906111546,0.0,0.25,0.7250975820000001,4.884230223231326,0.0,-155024.0,1.125,-405.0,-420.7870906111546,0.0,0.125,0.426025347,4.91544235181238,0.004882811999999959,16566.0,1.75,397.5,420.7870906111546,0.0,0.0,3.2604977130000004,4.89229988393779,0.0,-29244.0,1.25,-390.0,-420.7870906111546,0.0,0.125,1.545409998,4.909728528978131,0.009765623999999917,0.3499999940395355,-0.4699999988079071,-102.7300033569336,0.01556396484375,-0.00177001953125,1.0543212890625,36.459999084472656,0.0,2.0,2.425384521484375,-1.7847442626953125,Waiting,0.0,0.0,3.0,0.0,0.0,0.0,0.0,0.0,
6.480875999999997,0.0,0.0,89067.0,0.75,375.0,420.4429197751611,0.0,0.25,0.7263182850000001,4.896215757744391,0.0,-155024.0,1.25,-375.0,-420.4429197751611,0.0,0.25,0.426025347,4.927504478547194,0.0,16566.0,1.75,367.5,420.4429197751611,0.0,0.0,3.2617184160000003,4.904305220792776,0.0,-29305.0,1.625,-375.0,-420.4429197751611,0.0,0.25,1.545409998,4.921776634420408,0.0,0.3499999940395355,-0.5099999904632568,-102.69000244140625,0.01116943359375,-0.031982421875,1.01416015625,36.459999084472656,0.0,32.0,2.4251556396484375,-1.7852783203125,Waiting,0.0,0.0,3.0,0.0,0.0,0.0,0.0,0.125,
6.547377999999997,0.0,0.0,89067.0,0.875,345.0,420.7870906111546,0.0,0.25,0.701904225,4.884230223231326,0.0,-155083.0,1.625,-360.0,-420.7870906111546,0.0,0.25,0.426025347,4.91544235181238,0.0,16622.0,2.125,352.5,420.7870906111546,0.0,0.0,3.2702633370000003,4.89229988393779,0.004882811999999959,-29305.0,1.625,-360.0,-420.7870906111546,0.0,0.25,1.545409998,4.909728528978131,0.0,0.33000001311302185,-0.5600000023841858,-102.62000274658203,-0.0025634765625,0.07086181640625,0.98675537109375,36.459999084472656,0.0,-65.0,2.4259185791015625,-1.78521728515625,Waiting,0.0,0.0,3.0,0.0,0.0,0.0,0.0,0.0,
6.612292000000001,0.0,0.0,89121.0,1.25,330.0,420.19691087185544,0.0,0.25,0.7360839090000001,4.908218127627576,0.009765623999999917,-155140.0,1.875,-352.5,-420.19691087185544,0.0,0.25,0.42724605000000004,4.939583548236683,0.0,16622.0,2.375,330.0,420.19691087185544,0.0,0.0,3.2666012280000003,4.916327420833059,0.0,-29360.0,2.125,-345.0,-420.19691087185544,0.0,0.25,1.545409998,4.933841663122481,0.0,0.36000001430511475,-0.6100000143051147,-102.55000305175781,-0.081787109375,0.03936767578125,1.01971435546875,36.459999084472656,0.0,-16.0,2.426177978515625,-1.7853240966796875,Waiting,0.0,0.0,3.0,0.0,0.0,0.0,0.0,0.125,
6.688093000000001,0.0,0.0,89170.0,1.5,300.0,420.4429197751611,0.0,0.25,0.7397460180000001,4.896215757744391,0.0,-155140.0,2.0,-345.0,-420.4429197751611,0.0,0.25,0.435790971,4.927504478547194,0.004882811999999959,16673.0,2.875,307.5,420.4429197751611,0.0,0.0,3.2751461490000002,4.904305220792776,0.004882811999999959,-29360.0,2.125,-345.0,-420.4429197751611,0.0,0.25,1.5551756220000001,4.921776634420408,0.0,0.33000001311302185,-0.6299999952316284,-102.38999938964844,-0.03887939453125,0.03338623046875,1.046630859375,36.459999084472656,0.0,-20.0,2.426544189453125,-1.785614013671875,Waiting,0.0,0.0,3.0,0.0,0.0,0.0,0.0,0.125,
6.746383999999998,0.0,0.0,89170.0,1.75,300.0,420.0,0.0,0.25,0.743408127,0.01,0.006103515000000392,-155192.0,2.25,-322.5,-420.0,0.0,0.25,0.44067378300000004,0.01,0.0,16673.0,3.125,300.0,420.0,0.0,0.0,3.280028961,0.01,0.010986326999999463,-29413.0,2.5,-315.0,-420.0,0.0,0.25,1.5795896820000002,0.01,0.0,0.36000001430511475,-0.6800000071525574,-102.36000061035156,-0.03411865234375,0.00848388671875,0.97979736328125,36.459999084472656,0.0,2.0,2.4266815185546875,-1.7857666015625,Waiting,0.0,0.0,3.0,0.0,0.0,0.0,0.0,0.0,
6.812909999999996,0.0,0.0,89215.0,2.0,270.0,420.4429197751611,0.0,0.375,0.7495116420000001,0.03603524225560903,0.0,-155192.0,2.75,-315.0,-420.4429197751611,0.0,0.25,0.44067378300000004,0.03626552145280612,0.004882811999999959,16721.0,3.5,285.0,420.4429197751611,0.0,0.125,3.299560209,0.03609477920722422,0.0,-29413.0,2.625,-307.5,-420.4429197751611,0.0,0.25,1.59912093,0.03622336557959227,0.02319335699999936,0.3499999940395355,-0.7699999809265137,-102.16000366210938,-0.0548095703125,0.03265380859375,1.058837890625,36.459999084472656,0.0,-16.0,2.426513671875,-1.786651611328125,Waiting,0.0,0.0,3.0,0.0,0.0,0.0,0.0,0.0,
6.8412880000000005,0.0,0.0,89215.0,2.25,262.5,420.7870906111546,0.0,0.375,0.759277266,0.04802077676867344,0.0,-155192.0,3.0,-315.0,-420.7870906111546,0.0,0.25,0.44067378300000004,0.04832764818762024,0.004882811999999959,16721.0,3.625,277.5,420.7870906111546,0.0,0.125,3.3093258330000004,0.04810011606221059,0.0,-29462.0,3.0,-307.5,-420.7870906111546,0.0,0.25,1.6027830390000002,0.04827147102186869,0.019531248000000723,0.3499999940395355,-0.7699999809265137,-102.16000366210938,-0.0548095703125,0.03265380859375,1.058837890625,36.459999084472656,0.0,-16.0,2.426513671875,-1.786651611328125,Waiting,0.0,0.0,3.0,0.0,0.0,0.0,0.0,0.0,
6.878754000000001,0.0,0.0,89215.0,2.375,247.5,420.7870906111546,0.0,0.375,0.8044432770000001,0.04802077676867344,0.02441406000000068,-155241.0,3.125,-307.5,-420.7870906111546,0.0,0.25,0.44067378300000004,0.04832764818762024,0.0,16721.0,4.125,255.0,420.7870906111546,0.0,0.125,3.3190914570000003,0.04810011606221059,0.023193357000000248,-29462.0,3.25,-292.5,-420.7870906111546,0.0,0.25,1.622314287,0.04827147102186869,0.024414059999999793,0.4099999964237213,-0.9800000190734863,-102.0999984741211,-0.27008056640625,-0.01727294921875,1.06365966796875,36.459999084472656,0.0,77.0,2.426422119140625,-1.7880706787109375,Waiting,0.0,0.0,3.0,0.0,0.0,0.0,0.0,0.0,
6.9012999999999955,0.0,0.0,89215.0,2.625,240.0,NaN,0.0,0.375,0.783691326,NaN,0.02441406000000068,-155241.0,3.625,-292.5,NaN,0.0,0.25,0.43945308000000005,NaN,0.0,16759.0,4.375,247.5,NaN,0.0,0.125,3.3239742690000003,NaN,0.01586913900000031,-29462.0,3.75,-262.5,NaN,0.0,0.25,1.62353499,NaN,0.024414059999999793,0.4000000059604645,-1.1399999856948853,-102.12999725341797,-0.2435302734375,-0.042724609375,1.0477294921875,36.459999084472656,0.0,95.0,2.42657470703125,-1.7890472412109375,Waiting,0.0,0.0,3.0,0.0,0.0,0.0,0.0,0.0,
6.921710999999996,0.0,0.0,89250.0,2.875,225.0,NaN,0.0,0.375,0.7885741380000001,NaN,0.02075195099999938,-155241.0,3.375,-262.5,NaN,0.0,0.25,0.458984328,NaN,0.004882811999999959,16759.0,4.0,232.5,NaN,0.0,0.125,3.328857081,NaN,0.01586913900000031,-29462.0,3.125,-172.5,NaN,0.0,0.25,1.6369627230000001,NaN,-4.939689455,0.4300000071525574,-1.7400000095367432,-102.37999725341797,-0.2623291015625,0.0478515625,1.13580322265625,36.47999954223633,0.0,10.0,2.4274749755859375,-1.7960357666015625,Waiting,0.0,0.0,3.0,0.0,0.0,0.0,0.0,0.125,
6.9654029999999985,0.0,0.0,89250.0,1.5,157.5,NaN,0.0,0.25,0.79345695,NaN,0.02075195099999938,-155241.0,2.375,-157.5,NaN,0.0,0.0,0.465087843,NaN,0.004882811999999959,16759.0,3.125,165.0,NaN,0.0,0.0,3.328857081,NaN,0.004882811999999959,-29475.0,2.375,-120.0,NaN,0.0,0.125,1.638183426,NaN,-4.939689455,0.46000000834465027,-1.75,-102.31999969482422,0.05584716796875,0.03961181640625,0.98077392578125,36.47999954223633,0.0,-49.0,2.427978515625,-1.800872802734375,Waiting,0.0,0.0,3.0,0.0,0.0,0.0,0.0,0.125,
6.986170999999995,0.0,0.0,89250.0,1.5,105.0,NaN,0.0,0.25,0.79345695,NaN,0.007324217999999938,-155251.0,2.25,-105.0,NaN,0.0,0.0,0.46386714,NaN,0.019531247999999835,16759.0,2.875,112.5,NaN,0.0,0.0,3.330077784,NaN,0.004882811999999959,-29475.0,2.25,-75.0,NaN,0.0,0.125,1.6369627230000001,NaN,0.006103514999999948,0.5099999904632568,-1.7200000286102295,-102.26000213623047,0.05877685546875,0.0367431640625,1.1014404296875,36.47999954223633,0.0,-45.0,2.4281158447265625,-1.80316162109375,Waiting,0.0,0.0,3.0,0.0,0.0,0.0,0.0,0.125,
7.0085139999999955,0.0,0.0,89250.0,1.625,52.5,NaN,0.0,0.125,0.7922362470000001,NaN,0.0,-155251.0,3.0,-22.5,NaN,0.0,0.0,0.465087843,NaN,0.0,16764.0,3.125,30.0,NaN,0.0,0.0,3.328857081,NaN,0.004882811999999959,-29475.0,2.625,-15.0,NaN,0.0,0.125,1.6369627230000001,NaN,0.006103514999999948,0.46000000834465027,-1.5499999523162842,-102.20999908447266,0.12005615234375,-0.02435302734375,0.96173095703125,36.47999954223633,0.0,0.0,2.42828369140625,-1.8072967529296875,Waiting,0.0,0.0,3.0,0.0,0.0,0.0,0.0,0.125,
7.0405,0.0,0.0,89248.0,1.75,7.5,NaN,0.0,0.25,0.821533119,NaN,0.0,-155251.0,3.375,0.0,NaN,0.0,0.0,0.46386714,NaN,0.0,16764.0,3.5,7.5,NaN,0.0,0.0,3.328857081,NaN,0.004882811999999959,-29475.0,2.625,-15.0,NaN,0.0,0.125,1.638183426,NaN,0.0,0.4399999976158142,-1.4500000476837158,-102.22000122070312,0.1065673828125,-0.08062744140625,1.00537109375,36.47999954223633,0.0,58.0,2.4283905029296875,-1.8090667724609375,Waiting,0.0,0.0,3.0,0.0,0.0,0.0,0.0,0.125,
7.076665000000001,0.0,0.0,89248.0,2.0,-15.0,NaN,0.0,0.25,0.79345695,NaN,0.0012207030000004337,-155251.0,3.5,0.0,NaN,0.0,0.0,0.46386714,NaN,0.0,16764.0,3.75,0.0,NaN,0.0,0.0,3.328857081,NaN,0.0,-29475.0,2.875,0.0,NaN,0.0,0.125,1.6345213170000001,NaN,0.0,0.4000000059604645,-1.440000057220459,-102.2699966430664,-0.10162353515625,0.07391357421875,1.01641845703125,36.47999954223633,0.0,-48.0,2.428802490234375,-1.8139190673828125,Waiting,0.0,0.0,3.0,0.0,0.0,0.0,0.0,0.125,
7.0997599999999945,0.0,0.0,89248.0,2.0,-15.0,NaN,0.0,0.25,0.783691326,NaN,0.0012207030000004337,-155251.0,3.5,0.0,NaN,0.0,0.0,0.46386714,NaN,0.0,16764.0,3.875,0.0,NaN,0.0,0.0,3.328857081,NaN,0.0,-29475.0,3.0,0.0,NaN,0.0,0.125,1.6369627230000001,NaN,0.0,0.4399999976158142,-1.4700000286102295,-102.27999877929688,-0.0782470703125,0.07208251953125,0.96038818359375,36.47999954223633,0.0,-51.0,2.4288482666015625,-1.815673828125,Waiting,0.0,0.0,3.0,0.0,0.0,0.0,0.0,0.125,
7.118358999999996,0.0,0.0,89248.0,2.0,-7.5,NaN,0.0,0.25,0.79345695,NaN,0.0,-155251.0,3.5,0.0,NaN,0.0,0.0,0.46386714,NaN,-0.0012207029999995456,16764.0,4.25,0.0,NaN,0.0,0.0,3.328857081,NaN,0.0,-29475.0,3.125,0.0,NaN,0.0,0.125,1.6357420200000001,NaN,-0.0012207029999999897,0.44999998807907104,-1.409999966621399,-102.25,0.0294189453125,-0.05712890625,0.9642333984375,36.47999954223633,0.0,51.0,2.42877197265625,-1.8226470947265625,Waiting,0.0,0.0,3.0,0.0,0.0,0.0,0.0,0.0,
7.163966,0.0,0.0,89248.0,2.25,0.0,NaN,0.0,0.25,0.79345695,NaN,0.0,-155251.0,3.5,0.0,NaN,0.0,0.0,0.46386714,NaN,-0.0012207029999995456,16764.0,4.125,0.0,NaN,0.0,0.0,3.330077784,NaN,0.0,-29475.0,3.0,0.0,NaN,0.0,0.125,1.6369627230000001,NaN,-0.0012207029999999897,0.44999998807907104,-1.409999966621399,-102.25,0.0294189453125,-0.05712890625,0.9642333984375,36.47999954223633,0.0,51.0,2.42877197265625,-1.8226470947265625,Waiting,0.0,0.0,3.0,0.0,0.0,0.0,0.0,0.0,
7.183941999999996,0.0,0.0,89248.0,2.375,0.0,NaN,0.0,0.25,0.79345695,NaN,-0.0012207030000004337,-155251.0,3.5,0.0,NaN,0.0,0.0,0.465087843,NaN,0.0,16764.0,4.0,0.0,NaN,0.0,0.0,3.334960596,NaN,0.0,-29475.0,2.875,0.0,NaN,0.0,0.125,1.624755693,NaN,0.0012207029999999897,0.4099999964237213,-1.3799999952316284,-102.25,0.00152587890625,-0.026123046875,1.01715087890625,36.47999954223633,0.0,27.0,2.4288330078125,-1.8242340087890625,Waiting,0.0,0.0,3.0,0.0,0.0,0.0,0.0,0.0,
