Time,ClimberA1,ClimberA2,FRpos,FRCurrent,FRspeed,FRsetpoint,FRApos,FRACurrent,FREncpos,FREncSetpoint,FREncSpeed,FLpos,FLCurrent,FLspeed,FLsetpoint,FLApos,FLACurrent,FLEncpos,FLEncSetpoint,FLEncSpeed,BRpos,BRCurrent,BRspeed,BRsetpoint,BRApos,BRACurrent,BREncpos,BREncSetpoint,BREncSpeed,BLpos,BLCurrent,BLspeed,BLsetpoint,BLApos,BLACurrent,BLEncpos,BLEncSetpoint,BLEncSpeed,navx_Pitch,navx_Roll,navx_Yaw,navx_XAcc,navx_YAcc,navx_ZAcc,navx_Temp,navx_Bar,navx_Alt,navx_XDis,navx_YDis,GearPlacerState,ShootOutputV,ShootOutputCurrent,ShootEncPos,ShootEncVelocity,ShootSpeed,ShootSetpoint,CarouselSetpoint,CarouselCurrent,
0.249670999999973,0.0,0.0,61436.0,0.0,0.0,0.0,0.0,0.125,0.8435057730000001,0.01,0.0,-62617.0,0.0,0.0,-0.0,0.0,0.25,0.5175780720000001,0.01,0.0,28422.0,0.0,0.0,0.0,0.0,0.125,3.382568013,0.01,0.0,-61665.0,0.0,0.0,-0.0,0.0,0.125,1.596679524,0.01,0.0,0.1599999964237213,-0.46000000834465027,-79.25,-0.008544921875,0.00311279296875,1.0224609375,36.7400016784668,0.0,0.0,3.0381011962890625,-1.3040008544921875,Closing,0.0,0.0,3.0,0.0,0.0,0.0,0.0,0.0,
0.3903310000000056,0.0,0.0,61436.0,0.0,0.0,0.0,0.0,0.125,0.8422850700000001,0.01,0.0,-62617.0,0.0,0.0,0.0,0.0,0.0,0.5175780720000001,0.01,0.0,28422.0,0.0,0.0,0.0,0.0,0.125,3.382568013,0.01,0.0,-61665.0,0.0,0.0,0.0,0.0,0.25,1.596679524,0.01,0.0,0.17000000178813934,-0.46000000834465027,-79.25,-0.00799560546875,0.00140380859375,1.019287109375,36.7400016784668,0.0,1.0,3.0381011962890625,-1.3040008544921875,Closing,0.0,0.0,3.0,0.0,0.0,0.0,0.0,0.0,
0.522796999999904,0.0,0.0,61436.0,0.0,0.0,0.0,0.0,0.125,0.8410643670000001,0.01,0.0,-62617.0,0.0,0.0,0.0,0.0,0.0,0.5175780720000001,0.01,0.0,28422.0,0.0,0.0,0.0,0.0,0.125,3.383788716,0.01,0.0,-61665.0,0.0,0.0,0.0,0.0,0.25,1.596679524,0.01,0.0,0.17000000178813934,-0.4699999988079071,-79.25,-0.0076904296875,0.00341796875,1.01898193359375,36.7599983215332,0.0,0.0,3.0381011962890625,-1.3040008544921875,Closing,0.0,0.0,3.0,0.0,0.0,0.0,0.0,0.0,
0.6434769999999553,0.0,0.0,61436.0,0.0,0.0,0.0,0.0,0.125,0.8422850700000001,0.01,0.0,-62617.0,0.0,0.0,0.0,0.0,0.0,0.5175780720000001,0.01,0.0,28422.0,0.0,0.0,0.0,0.0,0.125,3.383788716,0.01,0.0,-61665.0,0.125,0.0,0.0,0.0,0.25,1.595458821,0.01,0.0,0.17000000178813934,-0.4699999988079071,-79.25,-0.009521484375,0.0023193359375,1.025146484375,36.7599983215332,0.0,0.0,3.0381011962890625,-1.3040008544921875,Closing,0.0,0.0,3.0,0.0,0.0,0.0,0.0,0.0,
0.787637999999919,0.0,0.0,61436.0,0.0,0.0,0.0,0.0,0.125,0.8422850700000001,0.01,0.0,-62617.0,0.0,0.0,0.0,0.0,0.0,0.5175780720000001,0.01,0.0,28422.0,0.0,0.0,0.0,0.0,0.125,3.385009419,0.01,0.0,-61665.0,0.125,0.0,0.0,0.0,0.25,1.596679524,0.01,0.0,0.1599999964237213,-0.46000000834465027,-79.26000213623047,-0.0096435546875,0.00189208984375,1.01788330078125,36.7599983215332,0.0,0.0,3.0381011962890625,-1.3040008544921875,Closing,0.0,0.0,3.0,0.0,0.0,0.0,0.0,0.0,
0.9225899999999674,0.0,0.0,61436.0,0.0,0.0,0.0,0.0,0.125,0.8422850700000001,0.01,0.0,-62617.0,0.0,0.0,0.0,0.0,0.0,0.5175780720000001,0.01,0.0,28422.0,0.0,0.0,0.0,0.0,0.125,3.383788716,0.01,0.0,-61665.0,0.0,0.0,0.0,0.0,0.25,1.596679524,0.01,0.0,0.1599999964237213,-0.46000000834465027,-79.26000213623047,-0.00830078125,7.32421875E-4,1.0179443359375,36.7599983215332,0.0,2.0,3.0381011962890625,-1.3040008544921875,Closing,0.0,0.0,3.0,0.0,0.0,0.0,0.0,0.0,
1.130189000000013,0.0,0.0,61436.0,0.0,0.0,0.0,0.0,0.125,0.8422850700000001,0.01,0.0,-62617.0,0.0,0.0,0.0,0.0,0.0,0.5175780720000001,0.01,0.0,28422.0,0.0,0.0,0.0,0.0,0.125,3.383788716,0.01,0.0,-61665.0,0.0,0.0,0.0,0.0,0.25,1.596679524,0.01,0.0,0.1599999964237213,-0.46000000834465027,-79.26000213623047,-0.0108642578125,0.00213623046875,1.01873779296875,36.7599983215332,0.0,0.0,3.0381011962890625,-1.3040008544921875,Closing,0.0,0.0,3.0,0.0,0.0,0.0,0.0,0.0,
1.2712369999999646,0.0,0.0,61436.0,0.0,0.0,0.0,0.0,0.125,0.8422850700000001,0.01,0.0,-62617.0,0.0,0.0,0.0,0.0,0.0,0.5175780720000001,0.01,0.0,28422.0,0.0,0.0,0.0,0.0,0.125,3.383788716,0.01,0.0,-61665.0,0.0,0.0,0.0,0.0,0.25,1.596679524,0.01,0.0,0.1599999964237213,-0.4699999988079071,-79.26000213623047,-0.0096435546875,-0.001953125,1.02337646484375,36.7599983215332,0.0,4.0,3.0381011962890625,-1.3040008544921875,Closing,0.0,0.0,3.0,0.0,0.0,0.0,0.0,0.0,
1.43148199999996,0.0,0.0,61436.0,0.0,0.0,0.0,0.0,0.125,0.8422850700000001,0.01,0.0,-62617.0,0.0,0.0,0.0,0.0,0.0,0.5175780720000001,0.01,0.0,28422.0,0.0,0.0,0.0,0.0,0.125,3.383788716,0.01,0.0,-61665.0,0.0,0.0,0.0,0.0,0.25,1.596679524,0.01,0.0,0.1599999964237213,-0.4699999988079071,-79.2699966430664,-0.00885009765625,0.0025634765625,1.017333984375,36.7599983215332,0.0,0.0,3.0381011962890625,-1.3040008544921875,Closing,0.0,0.0,3.0,0.0,0.0,0.0,0.0,0.0,
1.5741279999999096,0.0,0.0,61436.0,0.0,0.0,0.0,0.0,0.125,0.8410643670000001,0.01,0.0,-62617.0,0.0,0.0,0.0,0.0,0.0,0.5175780720000001,0.01,0.0,28422.0,0.0,0.0,0.0,0.0,0.125,3.383788716,0.01,0.0,-61665.0,0.0,0.0,0.0,0.0,0.25,1.596679524,0.01,0.0,0.15000000596046448,-0.4699999988079071,-79.27999877929688,-0.0084228515625,0.0029296875,1.0201416015625,36.75,0.0,0.0,3.0381011962890625,-1.3040008544921875,Closing,0.0,0.0,3.0,0.0,0.0,0.0,0.0,0.0,
1.685548999999999,0.0,0.0,61436.0,0.0,0.0,0.0,0.0,0.125,0.8422850700000001,0.01,0.0,-62617.0,0.0,0.0,0.0,0.0,0.0,0.5175780720000001,0.01,0.0,28422.0,0.0,0.0,0.0,0.0,0.125,3.385009419,0.01,0.0,-61665.0,0.0,0.0,0.0,0.0,0.25,1.596679524,0.01,0.0,0.15000000596046448,-0.4699999988079071,-79.2699966430664,-0.00408935546875,0.003662109375,1.01812744140625,36.75,0.0,0.0,3.0381011962890625,-1.3040008544921875,Closing,0.0,0.0,3.0,0.0,0.0,0.0,0.0,0.0,
1.8178260000000008,0.0,0.0,61436.0,0.0,0.0,0.0,0.0,0.125,0.8422850700000001,0.01,0.0,-62617.0,0.0,0.0,0.0,0.0,0.0,0.5175780720000001,0.01,0.0,28422.0,0.0,0.0,0.0,0.0,0.125,3.383788716,0.01,0.0,-61665.0,0.0,0.0,0.0,0.0,0.25,1.596679524,0.01,0.0,0.15000000596046448,-0.4699999988079071,-79.26000213623047,-0.007080078125,0.00164794921875,1.01824951171875,36.75,0.0,1.0,3.0381011962890625,-1.3040008544921875,Closing,0.0,0.0,3.0,0.0,0.0,0.0,0.0,0.0,
1.9285699999999488,0.0,0.0,61436.0,0.0,0.0,0.0,0.0,0.125,0.8422850700000001,0.01,0.0,-62617.0,0.0,0.0,0.0,0.0,0.0,0.5175780720000001,0.01,0.0,28422.0,0.0,0.0,0.0,0.0,0.125,3.385009419,0.01,0.0,-61665.0,0.0,0.0,0.0,0.0,0.25,1.596679524,0.01,0.0,0.15000000596046448,-0.4699999988079071,-79.2699966430664,-0.0084228515625,0.0029296875,1.02423095703125,36.75,0.0,0.0,3.0381011962890625,-1.3040008544921875,Closing,0.0,0.0,3.0,0.0,0.0,0.0,0.0,0.0,
2.0650719999999274,0.0,0.0,61436.0,0.0,0.0,0.0,0.0,0.125,0.8422850700000001,0.01,0.0,-62617.0,0.0,0.0,0.0,0.0,0.0,0.5175780720000001,0.01,0.0,28422.0,0.0,0.0,0.0,0.0,0.125,3.385009419,0.01,0.0,-61665.0,0.0,0.0,0.0,0.0,0.25,1.596679524,0.01,0.0,0.15000000596046448,-0.4699999988079071,-79.27999877929688,-0.00811767578125,0.0040283203125,1.01641845703125,36.75,0.0,-1.0,3.0381011962890625,-1.3040008544921875,Closing,0.0,0.0,3.0,0.0,0.0,0.0,0.0,0.0,
2.1919229999999517,0.0,0.0,61436.0,0.0,0.0,0.0,0.0,0.125,0.8410643670000001,0.01,0.0,-62617.0,0.0,0.0,0.0,0.0,0.0,0.5175780720000001,0.01,0.0,28422.0,0.0,0.0,0.0,0.0,0.125,3.383788716,0.01,0.0,-61665.0,0.0,0.0,0.0,0.0,0.25,1.596679524,0.01,0.0,0.15000000596046448,-0.4699999988079071,-79.27999877929688,-0.00604248046875,0.00152587890625,1.02105712890625,36.75,0.0,1.0,3.0381011962890625,-1.3040008544921875,Closing,0.0,0.0,3.0,0.0,0.0,0.0,0.0,0.0,
2.3232939999999944,0.0,0.0,61436.0,0.125,0.0,-257.95276433229446,0.0,0.375,0.8703612390000001,0.1468714909467046,0.0,-62617.0,0.625,0.0,257.95276433229446,0.0,0.25,0.5566405680000001,0.1478100568313583,0.0,28414.0,0.125,-75.0,-257.95276433229446,0.0,0.125,3.4167476970000004,0.14711415008544768,0.0,-61665.0,0.5,0.0,257.95276433229446,0.0,0.375,1.669921704,0.14763823903401535,0.0,0.12999999523162842,-0.49000000953674316,-79.26000213623047,-0.00579833984375,0.0101318359375,1.02081298828125,36.75,0.0,-6.0,3.0381011962890625,-1.3040618896484375,Closing,0.0,0.0,3.0,0.0,0.0,0.0,0.0,0.0,
2.4562939999999944,0.0,0.0,61413.0,9.125,-165.0,-1309.6062755584717,0.0,0.25,0.8935545960000001,0.14714545889881828,0.0,-62615.0,16.0,225.0,1309.6062755584717,0.0,0.25,0.565185489,0.14808577554511868,0.0,28401.0,10.875,-82.5,-1309.6062755584717,0.0,0.0,3.486327768,0.14738857068379566,0.0,-61665.0,10.0,225.0,1309.6062755584717,0.0,0.375,1.7163084180000001,0.14791363724602435,0.0,0.17000000178813934,-1.5299999713897705,-79.27999877929688,-0.1954345703125,0.06622314453125,1.12103271484375,36.75,0.0,-92.0,3.0371551513671875,-1.310028076171875,Closing,0.0,0.0,3.0,0.0,0.0,0.0,0.0,0.0,
2.5820659999999918,0.0,0.0,61354.0,20.875,-502.5,-1825.5118417739868,0.0,0.125,0.9765624,0.14632345051445275,0.0,-62552.0,28.375,615.0,1825.5118417739868,0.0,0.25,0.574951113,0.1472585142078384,0.0,28335.0,20.625,-502.5,-1825.5118417739868,0.0,0.0,3.5229488580000003,0.1465652041880274,0.0,-61612.0,20.125,547.5,1825.5118417739868,0.0,0.25,1.756591617,0.14708733753628045,0.0,-0.2800000011920929,-3.240000009536743,-79.55000305175781,-0.4246826171875,9.765625E-4,1.1180419921875,36.77000045776367,0.0,-71.0,3.0373992919921875,-1.341583251953125,Closing,0.0,0.0,3.0,0.0,0.0,0.0,0.0,0.0,
2.695984999999986,0.0,0.0,61202.0,17.875,-1110.0,-1825.5118417739866,0.0,0.25,0.9765624,0.14262430825678352,0.0,-62407.0,20.375,1275.0,1825.5118417739866,0.0,0.25,0.5810546280000001,0.143535732994078,0.0,28157.0,16.625,-1200.0,-1825.5118417739866,0.0,0.125,3.5229488580000003,0.1428599502563461,0.0,-61480.0,15.125,1185.0,1825.5118417739866,0.0,0.125,1.756591617,0.14336888376871587,0.0,-0.49000000953674316,-4.909999847412109,-80.12000274658203,-0.31256103515625,0.10076904296875,0.83575439453125,36.77000045776367,0.0,-147.0,3.03973388671875,-1.4117279052734375,Closing,0.0,0.0,3.0,0.0,0.0,0.0,0.0,0.0,
2.837534999999916,0.0,0.0,60971.0,10.125,-1530.0,-1607.2440791130061,0.0,0.25,0.9838866180000001,0.1353628509254652,0.0,-62176.0,9.125,1657.5,1607.2440791130061,0.0,0.25,0.584716737,0.13622787212943874,0.0,27918.0,9.75,-1545.0,-1607.2440791130061,0.0,0.125,3.5180660460000004,0.13558649564107103,0.0,-61257.0,7.75,1597.5,1607.2440791130061,0.0,0.125,1.751708805,0.1360695177290159,0.0,-0.5199999809265137,-5.179999828338623,-80.77999877929688,-0.13861083984375,-0.02960205078125,1.5137939453125,36.77000045776367,0.0,15.0,3.0397186279296875,-1.4798431396484375,Closing,0.0,0.0,3.0,0.0,0.0,0.0,0.0,0.0,
2.96728899999999,0.0,0.0,60707.0,1.25,-1635.0,-1051.6535675525665,0.0,0.25,0.981445212,0.12632044511337126,0.0,-61644.0,0.75,1672.5,1051.6535675525665,0.0,0.25,0.599365173,0.1271276818313583,0.0,27649.0,1.25,-1650.0,-1051.6535675525665,0.0,0.125,3.514403937,0.12652915008544766,0.0,-60749.0,1.5,1552.5,1051.6535675525665,0.0,0.125,1.7614744290000002,0.12697990570068202,0.0,-0.5,-4.699999809265137,-81.66000366210938,0.10430908203125,-0.0164794921875,0.7254638671875,36.77000045776367,0.0,33.0,3.03997802734375,-1.5797119140625,Closing,0.0,0.0,3.0,0.0,0.0,0.0,0.0,0.0,
3.107443999999901,0.0,0.0,60243.0,0.0,-1275.0,-456.37796044349665,0.0,0.25,0.941162013,0.11344175627551453,0.0,-61406.0,0.0,1455.0,456.37796044349665,0.0,0.125,0.642089778,0.11416669316863857,0.0,27216.0,0.0,-1147.5,-456.37796044349665,0.0,0.125,3.455810193,0.11362918324788256,0.0,-60499.0,0.25,1425.0,456.37796044349665,0.0,0.25,1.756591617,0.11403398318820374,0.0,-0.15000000596046448,-3.140000104904175,-81.98999786376953,0.11871337890625,-0.1397705078125,1.07843017578125,36.619998931884766,0.0,160.0,3.0405426025390625,-1.6654052734375,Closing,0.0,0.0,3.0,0.0,0.0,0.0,0.0,0.0,
3.2522489999999524,0.0,0.0,60077.0,3.0,-907.5,218.26772511005402,0.0,1.375,1.724853339,1.3428053640178497,0.0,-61234.0,4.5,697.5,-218.26772511005402,0.0,1.0,1.455077976,1.3513864119548826,0.0,27048.0,0.125,-1012.5,-218.26772511005402,0.0,1.625,2.656249728,3.8152239293162062,0.0,-60314.0,3.0,765.0,-218.26772511005402,0.0,1.5,2.562255597,1.3498155294206435,0.0,0.11999999731779099,-0.029999999329447746,-81.05999755859375,0.9471435546875,-0.11224365234375,1.13946533203125,36.619998931884766,0.0,260.0,3.04315185546875,-1.704559326171875,Closing,0.0,0.0,3.0,0.0,0.0,0.0,0.0,0.0,
3.3945389999999898,0.0,0.0,60041.0,1.25,-180.0,257.9527643322944,0.0,0.5,2.301025155,1.3555470166156374,0.0,-61217.0,0.625,-22.5,-257.9527643322944,0.0,0.25,2.103271269,1.3642094886627225,0.0,26968.0,0.125,-397.5,-257.9527643322944,0.0,0.5,2.125243923,3.827986633504235,0.0,-60267.0,0.625,-15.0,-257.9527643322944,0.0,0.625,3.1652828790000003,1.3626237002902588,0.0,0.6299999952316284,1.440000057220459,-80.66999816894531,-0.37200927734375,-0.14141845703125,1.04144287109375,36.619998931884766,0.0,86.0,3.0477142333984375,-1.6761322021484375,Closing,0.0,0.0,3.0,0.0,0.0,0.0,0.0,0.0,
3.528292999999947,0.0,0.0,60040.0,1.25,15.0,317.4803137779236,0.0,0.25,2.332763433,1.3608902801700615,0.0,-61222.0,1.375,-30.0,-317.4803137779236,0.0,0.5,2.203368915,1.3695868977470422,0.0,26956.0,1.0,-60.0,-317.4803137779236,0.0,0.125,2.0117185440000003,3.8333387251281765,0.0,-60274.0,1.25,-30.0,-317.4803137779236,0.0,0.25,3.238525059,1.3679948585510278,0.0,0.6600000262260437,1.2200000286102295,-80.63999938964844,-0.0751953125,-0.0181884765625,1.18878173828125,36.619998931884766,0.0,15.0,3.0493927001953125,-1.6504974365234375,Closing,0.0,0.0,3.0,0.0,0.0,0.0,0.0,0.0,
3.6700359999999637,0.0,0.0,60051.0,5.75,112.5,793.700784444809,0.0,0.25,2.191161885,1.3606162076899238,0.0,-61229.0,8.875,-105.0,-793.700784444809,0.0,0.5,2.003173623,1.369311073837283,0.0,26943.0,7.375,-90.0,-793.700784444809,0.0,0.125,2.150878686,3.833064199829104,0.0,-60298.0,6.625,-105.0,-793.700784444809,0.0,0.5,3.0639645300000002,1.367719355265302,0.0,1.1100000143051147,0.7699999809265137,-80.94999694824219,-0.065673828125,0.05224609375,1.18035888671875,36.61000061035156,0.0,-41.0,3.0451507568359375,-1.635894775390625,Closing,0.0,0.0,3.0,0.0,0.0,0.0,0.0,0.0,
3.797777999999933,0.0,0.0,60084.0,7.75,300.0,873.0709004402161,0.0,0.125,2.122802517,1.3570541016723234,0.0,-61256.0,10.875,-367.5,-873.0709004402161,0.0,0.25,1.8664548870000002,1.3657262045784022,0.0,26913.0,9.625,-292.5,-873.0709004402161,0.0,0.0,2.299804452,3.829496208546959,0.0,-60351.0,9.125,-285.0,-873.0709004402161,0.0,0.25,2.9614254780000002,1.3641386531406003,0.0,1.9900000095367432,0.6100000143051147,-81.3499984741211,-0.026123046875,0.23712158203125,1.0789794921875,36.61000061035156,0.0,-202.0,3.0278778076171875,-1.637847900390625,Closing,0.0,0.0,3.0,0.0,0.0,0.0,0.0,0.0,
3.92692499999993,0.0,0.0,60160.0,6.75,637.5,912.7559208869934,0.0,0.25,2.122802517,1.3515738018778296,0.0,-61443.0,8.0,-705.0,-912.7559208869934,0.0,0.125,1.823730282,1.3602108835392024,0.0,26847.0,9.875,-487.5,-912.7559208869934,0.0,0.125,2.337646245,3.8240068542734806,0.0,-60457.0,7.25,-637.5,-912.7559208869934,0.0,0.125,2.938232121,1.358629743236968,0.0,2.809999942779541,0.2800000011920929,-81.19000244140625,-0.05133056640625,0.20635986328125,1.14141845703125,36.61000061035156,0.0,-157.0,2.9894866943359375,-1.6408538818359375,Closing,0.0,0.0,3.0,0.0,0.0,0.0,0.0,0.0,
4.059653999999981,0.0,0.0,60437.0,6.25,945.0,1111.1810982227325,0.0,0.25,2.122802517,1.3537658590788126,0.0,-61595.0,8.0,-937.5,-1111.1810982227325,0.0,0.25,1.832275203,1.362416948837283,0.0,26764.0,14.5,-615.0,-1111.1810982227325,0.0,0.125,2.291259531,3.826202533162438,0.0,-60605.0,6.5,-952.5,-1111.1810982227325,0.0,0.25,2.9467770420000003,1.360833244154191,0.0,3.1600000858306885,0.11999999731779099,-80.77999877929688,-0.02752685546875,0.04815673828125,0.86529541015625,36.58000183105469,0.0,-5.0,2.941802978515625,-1.647796630859375,Closing,0.0,0.0,3.0,0.0,0.0,0.0,0.0,0.0,
4.199150999999954,0.0,0.0,60617.0,2.25,1110.0,873.0709004402161,0.0,0.25,2.131347438,1.3593831951133755,0.0,-61772.0,2.25,-1110.0,-873.0709004402161,0.0,0.25,1.8420408270000002,1.3680701818313625,0.0,26464.0,6.5,-1117.5,-873.0709004402161,0.0,0.125,2.2668454710000003,3.8318291500854516,0.0,-60781.0,2.25,-1132.5,-873.0709004402161,0.0,0.25,2.9553219630000003,1.3664799057006862,0.0,3.25,-0.029999999329447746,-80.5199966430664,0.01116943359375,-0.01702880859375,0.92626953125,36.58000183105469,0.0,70.0,2.9390106201171875,-1.656158447265625,Closing,0.0,0.0,3.0,0.0,0.0,0.0,0.0,0.0,
4.3296429999999235,0.0,0.0,60789.0,0.375,1080.0,663.1677687096897,0.0,1.75,2.459716545,1.8965538393716346,0.0,-61947.0,0.25,-1012.5,-663.1677687096897,0.0,2.875,2.0690915850000002,1.9086735551896565,0.0,26277.0,1.75,-1147.5,-663.1677687096897,0.0,2.0,2.518310289,4.369887300591884,0.0,-60954.0,0.375,-1035.0,-663.1677687096897,0.0,1.375,3.240966465,1.906454869309077,0.0,2.8399999141693115,-0.10000000149011612,-80.29000091552734,-0.21063232421875,-0.3192138671875,1.08807373046875,36.58000183105469,0.0,332.0,2.938751220703125,-1.6647491455078125,Closing,0.0,0.0,3.0,0.0,0.0,0.0,0.0,0.0,
4.465725999999908,0.0,0.0,60933.0,0.125,900.0,585.9425987860554,0.0,0.625,3.0541989060000003,2.2114191834996424,0.0,-62104.0,0.0,-975.0,-585.9425987860554,0.0,1.25,2.730712611,2.225551011187391,0.0,26102.0,0.375,-1072.5,-585.9425987860554,0.0,1.25,3.0004879740000003,4.685272861085463,0.0,-61134.0,0.125,-982.5,-585.9425987860554,0.0,0.625,3.9392085810000004,2.2229639796902525,0.0,0.47999998927116394,-1.8899999856948853,-79.37999725341797,-0.19049072265625,-0.50372314453125,0.404296875,36.58000183105469,0.0,465.0,2.964111328125,-1.6998443603515625,Closing,0.0,0.0,3.0,0.0,0.0,0.0,0.0,0.0,
4.593316999999923,0.0,0.0,61053.0,0.125,742.5,576.7999160309936,0.0,0.25,3.297118803,2.247667219260109,0.0,-62231.0,0.125,-720.0,-576.7999160309936,0.0,0.0,3.226318029,2.262030685978218,0.0,25967.0,0.625,-855.0,-576.7999160309936,0.0,0.125,3.3117672390000004,4.721580785372164,0.0,-61265.0,0.375,-697.5,-576.7999160309936,0.0,0.25,4.155273012,2.2594012496711176,0.0,-1.5499999523162842,-1.6200000047683716,-78.55999755859375,0.0941162109375,-0.11468505859375,1.04168701171875,36.540000915527344,0.0,109.0,3.0349578857421875,-1.7548065185546875,Closing,0.0,0.0,3.0,0.0,0.0,0.0,0.0,0.0,
4.7241209999999265,0.0,0.0,61167.0,0.375,705.0,654.8031377792358,0.0,0.375,3.3129879420000004,2.6228615096711887,0.0,-62337.0,0.375,-660.0,-654.8031377792358,0.0,0.25,3.1738278,2.639622613662718,0.0,25861.0,1.5,-660.0,-654.8031377792358,0.0,0.125,3.441161757,0.15699496683756356,0.0,-61368.0,0.625,-645.0,-654.8031377792358,0.0,0.375,4.0759273170000005,2.63655425584581,0.0,-1.25,-1.2699999809265137,-77.45999908447266,-0.03369140625,0.080810546875,0.932861328125,36.540000915527344,0.0,-101.0,3.1107330322265625,-1.797119140625,Closing,0.0,0.0,3.0,0.0,0.0,0.0,0.0,0.0,
4.846508999999962,0.0,0.0,61280.0,0.375,697.5,674.6456480026244,0.0,0.375,3.402099261,2.6379322557100284,0.0,-62440.0,1.0,-592.5,-674.6456480026244,0.0,0.125,3.172607097,2.6547896676235188,0.0,25756.0,2.375,-660.0,-674.6456480026244,0.0,0.125,3.5339351850000003,0.17209061256408537,0.0,-61466.0,1.25,-532.5,-674.6456480026244,0.0,0.375,4.179687072,2.6517036792755113,0.0,-1.2000000476837158,-1.149999976158142,-76.66999816894531,-0.00323486328125,-0.0291748046875,1.1676025390625,36.540000915527344,0.0,9.0,3.1748504638671875,-1.8301239013671875,Closing,0.0,0.0,3.0,0.0,0.0,0.0,0.0,0.0,
4.971915999999968,0.0,0.0,61384.0,0.875,630.0,745.6141763710035,0.0,0.5,3.294677397,2.304578926780266,0.0,-62529.0,2.375,-562.5,-745.6141763710035,0.0,0.25,2.9516598540000003,2.319306081418825,0.0,25660.0,3.5,-592.5,-745.6141763710035,0.0,0.375,3.354491844,4.778586521664292,0.0,-61550.0,2.625,-547.5,-745.6141763710035,0.0,0.5,4.096679268,2.3166100668795155,0.0,-1.1399999856948853,-1.2100000381469727,-76.29000091552734,-0.0362548828125,0.0347900390625,1.01971435546875,36.540000915527344,0.0,-57.0,3.1841278076171875,-1.83056640625,Closing,0.0,0.0,3.0,0.0,0.0,0.0,0.0,0.0,
5.099099999999977,0.0,0.0,61482.0,0.75,615.0,607.3885739553995,0.0,0.375,2.9504391510000003,2.1283007364246487,0.0,-62622.0,1.5,-607.5,-607.3885739553995,0.0,0.25,2.613525123,2.1419014049452425,0.0,25569.0,3.0,-562.5,-607.3885739553995,0.0,0.25,3.0017086770000003,4.602017086809316,0.0,-61644.0,1.625,-592.5,-607.3885739553995,0.0,0.5,3.7463375070000002,2.139411609667352,0.0,0.029999999329447746,-1.159999966621399,-76.47000122070312,0.0181884765625,0.13067626953125,0.90155029296875,36.5099983215332,0.0,-117.0,3.1692962646484375,-1.83074951171875,Closing,0.0,0.0,3.0,0.0,0.0,0.0,0.0,0.0,
5.222990999999921,0.0,0.0,61582.0,0.5,622.5,589.9605352105755,0.0,0.25,2.7392575320000003,2.072316919958247,0.0,-62722.0,1.125,-622.5,-589.9605352105755,0.0,0.0,2.546386458,2.085559830142697,0.0,25475.0,2.875,-585.0,-589.9605352105755,0.0,0.125,2.817382524,4.545940774620296,0.0,-61739.0,1.375,-592.5,-589.9605352105755,0.0,0.25,3.5314937790000003,2.0831355276025065,0.0,0.6399999856948853,-0.8100000023841858,-76.58000183105469,0.03033447265625,7.9345703125E-4,0.9530029296875,36.5099983215332,0.0,19.0,3.1454315185546875,-1.8248443603515625,Closing,0.0,0.0,3.0,0.0,0.0,0.0,0.0,0.0,
5.331625999999931,0.0,0.0,61674.0,0.0,450.0,0.0,0.0,0.375,2.778320028,2.072316919958247,0.0,-62821.0,0.0,-397.5,0.0,0.0,0.25,2.546386458,2.085559830142697,0.0,25379.0,0.0,-540.0,0.0,0.0,0.125,2.8515622080000003,4.545940774620296,0.0,-61836.0,0.125,-450.0,0.0,0.0,0.375,3.566894166,2.0831355276025065,0.0,0.44999998807907104,-0.38999998569488525,-76.37999725341797,0.14593505859375,-0.18939208984375,1.16143798828125,36.5099983215332,0.0,229.0,3.11138916015625,-1.82025146484375,Closing,0.0,0.0,3.0,0.0,0.0,0.0,0.0,0.0,
5.467517999999924,0.0,0.0,61739.0,0.0,442.5,0.0,0.0,0.375,2.879638377,2.072316919958247,0.0,-62889.0,0.0,-390.0,0.0,0.0,0.25,2.546386458,2.085559830142697,0.0,25311.0,0.0,-442.5,0.0,0.0,0.125,2.9443356360000004,4.545940774620296,0.0,-61972.0,0.0,-435.0,0.0,0.0,0.25,3.707275011,2.0831355276025065,0.0,-0.019999999552965164,-0.11999999731779099,-76.13999938964844,0.06207275390625,0.02154541015625,0.95574951171875,36.5099983215332,0.0,-5.0,3.087188720703125,-1.8189544677734375,Closing,0.0,0.0,3.0,0.0,0.0,0.0,0.0,0.0,
5.594961999999941,0.0,0.0,61794.0,0.0,300.0,0.0,0.0,0.125,2.912597358,2.072316919958247,0.0,-62943.0,0.0,-337.5,0.0,0.0,0.25,2.546386458,2.085559830142697,0.0,25257.0,0.0,-285.0,0.0,0.0,0.0,2.971191102,4.545940774620296,0.0,-62020.0,0.0,-330.0,0.0,0.0,0.125,3.775634379,2.0831355276025065,0.0,-0.23999999463558197,0.17000000178813934,-76.30999755859375,0.06640625,-0.02978515625,1.012451171875,36.540000915527344,0.0,39.0,3.0729217529296875,-1.8152618408203125,Closing,0.0,0.0,3.0,0.0,0.0,0.0,0.0,0.0,
5.715929000000004,0.0,0.0,61833.0,0.0,165.0,0.0,0.0,0.25,2.913818061,2.072316919958247,0.0,-63018.0,0.0,-187.5,0.0,0.0,0.25,2.546386458,2.085559830142697,0.0,25218.0,0.0,-165.0,0.0,0.0,0.125,2.972411805,4.545940774620296,0.0,-62048.0,0.0,-172.5,0.0,0.0,0.25,3.7463375070000002,2.0831355276025065,0.0,-0.38999998569488525,0.5199999809265137,-76.37000274658203,0.05108642578125,-0.0535888671875,1.0428466796875,36.540000915527344,0.0,54.0,3.0609588623046875,-1.8112030029296875,Closing,0.0,0.0,3.0,0.0,0.0,0.0,0.0,0.0,
5.850417000000016,0.0,0.0,61854.0,0.0,67.5,0.0,0.0,0.25,2.912597358,2.072316919958247,0.0,-63026.0,0.0,-67.5,0.0,0.0,0.25,2.562255597,2.085559830142697,0.0,25201.0,0.0,-45.0,0.0,0.0,0.125,2.971191102,4.545940774620296,0.0,-62056.0,0.0,-45.0,0.0,0.0,0.25,3.7268062590000004,2.0831355276025065,0.0,-0.5199999809265137,0.7200000286102295,-76.38999938964844,0.04290771484375,-0.0135498046875,0.9945068359375,36.540000915527344,0.0,11.0,3.054931640625,-1.8039703369140625,Closing,0.0,0.0,3.0,0.0,0.0,0.0,0.0,0.0,
5.9845529999999565,0.0,0.0,61858.0,0.5,90.0,512.5984311103821,0.0,6.625,3.253173495,3.0159423668524865,0.0,-63016.0,1.5,52.5,512.5984311103821,0.0,0.25,2.5329587250000003,1.92855458977222,0.0,25198.0,1.0,-67.5,-512.5984311103821,0.0,0.25,2.938232121,4.389674732977291,0.0,-62050.0,1.5,45.0,512.5984311103821,0.0,7.375,4.106444892,3.031687206278561,0.0,-0.5400000214576721,0.7300000190734863,-76.29000091552734,-0.1357421875,0.0716552734375,1.01080322265625,36.540000915527344,0.0,-114.0,3.054046630859375,-1.8019256591796875,Closing,0.0,0.0,3.0,0.0,0.0,0.0,0.0,0.0,
6.104695999999996,0.0,0.0,61906.0,11.5,165.0,1223.622089624405,0.0,2.0,3.927001551,3.015942366852486,0.0,-62976.0,12.75,300.0,1223.622089624405,0.0,0.25,2.523193101,1.92855458977222,0.0,25161.0,11.25,-90.0,-1223.622089624405,0.0,0.25,2.83203096,4.389674732977291,0.0,-62027.0,10.75,247.5,1223.622089624405,0.0,0.875,4.8730463760000005,3.031687206278561,0.0,-0.25999999046325684,0.4300000071525574,-73.08999633789062,-0.05743408203125,-0.05853271484375,0.91363525390625,36.56999969482422,0.0,33.0,3.050994873046875,-1.806915283203125,Closing,0.0,0.0,3.0,0.0,0.0,0.0,0.0,0.0,
6.254277000000002,0.0,0.0,62016.0,10.25,675.0,1223.622089624405,0.0,0.25,4.041747633,3.015942366852486,0.0,-62876.0,12.25,690.0,1223.622089624405,0.0,0.25,2.513427477,1.92855458977222,0.0,25040.0,11.125,-727.5,-1223.622089624405,0.0,0.125,2.812499712,4.389674732977291,0.0,-61940.0,9.125,705.0,1223.622089624405,0.0,0.5,4.908446763000001,3.031687206278561,0.0,-0.05000000074505806,-0.12999999523162842,-63.29999923706055,0.12237548828125,-0.1024169921875,0.8580322265625,36.56999969482422,0.0,146.0,3.044830322265625,-1.8160400390625,Closing,0.0,0.0,3.0,0.0,0.0,0.0,0.0,0.0,
6.386859999999986,0.0,0.0,62158.0,9.625,907.5,1223.622089624405,0.0,0.375,3.927001551,3.015942366852486,0.0,-62740.0,11.5,930.0,1223.622089624405,0.0,0.25,2.498779041,1.92855458977222,0.0,24893.0,8.75,-915.0,-1223.622089624405,0.0,0.125,2.817382524,4.389674732977291,0.0,-61792.0,7.125,997.5,1223.622089624405,0.0,0.25,4.635009291,3.031687206278561,0.0,-0.07000000029802322,0.0,-50.25,0.17767333984375,0.07379150390625,0.92730712890625,36.56999969482422,0.0,55.0,3.0366363525390625,-1.82318115234375,Closing,0.0,0.0,3.0,0.0,0.0,0.0,0.0,0.0,
6.51639599999995,0.0,0.0,62313.0,0.125,877.5,115.74803106486797,0.0,0.25,3.811034766,3.015942366852486,0.0,-62568.0,0.125,937.5,115.74803106486797,0.0,0.25,2.454833733,1.92855458977222,0.0,24743.0,0.125,-900.0,-115.74803106486797,0.0,0.125,2.818603227,4.389674732977291,0.0,-61619.0,0.5,937.5,115.74803106486797,0.0,0.125,4.519042506,3.031687206278561,0.0,0.019999999552965164,-0.27000001072883606,-35.2400016784668,-0.06134033203125,-0.13433837890625,1.27935791015625,36.56999969482422,0.0,32.0,3.031707763671875,-1.8256378173828125,Closing,0.0,0.0,3.0,0.0,0.0,0.0,0.0,0.0,
6.657437999999965,0.0,0.0,62443.0,0.0,780.0,0.0,0.0,0.125,3.7890621120000003,3.015942366852486,0.0,-62434.0,0.0,855.0,0.0,0.0,0.125,2.441406,1.92855458977222,0.0,24624.0,0.0,-712.5,0.0,0.0,0.125,2.817382524,4.389674732977291,0.0,-61477.0,0.0,817.5,0.0,0.0,0.25,4.6057124190000005,3.031687206278561,0.0,0.10999999940395355,-0.4099999964237213,-24.1299991607666,-0.01995849609375,0.046875,1.037353515625,36.56999969482422,0.0,-29.0,3.0243377685546875,-1.8294525146484375,Closing,0.0,0.0,3.0,0.0,0.0,0.0,0.0,0.0,
6.780022999999928,0.0,0.0,62545.0,0.0,555.0,0.0,0.0,0.25,3.7902828150000003,3.015942366852486,0.0,-62235.0,0.0,547.5,0.0,0.0,0.0,2.440185297,1.92855458977222,0.0,24522.0,0.0,-562.5,0.0,0.0,0.125,2.817382524,4.389674732977291,0.0,-61271.0,0.0,555.0,0.0,0.0,0.375,4.7131342830000005,3.031687206278561,0.0,0.2800000011920929,-0.6399999856948853,-16.450000762939453,-0.03466796875,-0.00469970703125,1.029052734375,36.56999969482422,0.0,-19.0,3.0213165283203125,-1.830718994140625,Closing,0.0,0.0,3.0,0.0,0.0,0.0,0.0,0.0,
6.92772199999995,0.0,0.0,62618.0,0.0,352.5,0.0,0.0,0.25,3.7890621120000003,3.015942366852486,0.0,-62188.0,0.0,322.5,0.0,0.0,0.0,2.441406,1.92855458977222,0.0,24441.0,0.0,-397.5,0.0,0.0,0.125,2.7929684640000003,4.389674732977291,0.0,-61215.0,0.125,352.5,0.0,0.0,0.25,4.693603035000001,3.031687206278561,0.0,0.27000001072883606,-0.6499999761581421,-11.6899995803833,0.027099609375,-0.0306396484375,0.99114990234375,36.56999969482422,0.0,44.0,3.019989013671875,-1.830322265625,Closing,0.0,0.0,3.0,0.0,0.0,0.0,0.0,0.0,
7.049478999999934,0.0,0.0,62662.0,0.0,150.0,0.0,0.0,0.25,3.7805171910000004,3.015942366852486,0.0,-62165.0,0.0,142.5,0.0,0.0,0.0,2.440185297,1.92855458977222,0.0,24393.0,0.0,-165.0,0.0,0.0,0.0,2.7929684640000003,4.389674732977291,0.0,-61187.0,0.0,165.0,0.0,0.0,0.25,4.680175302,3.031687206278561,0.0,0.23000000417232513,-0.6000000238418579,-9.880000114440918,-0.03961181640625,-0.00311279296875,1.02392578125,36.56999969482422,0.0,-27.0,3.0206146240234375,-1.830108642578125,Closing,0.0,0.0,3.0,0.0,0.0,0.0,0.0,0.0,
7.185894999999902,0.0,0.0,62679.0,0.0,22.5,0.0,0.0,0.25,3.7805171910000004,3.015942366852486,0.0,-62162.0,0.0,37.5,0.0,0.0,0.0,2.440185297,1.92855458977222,0.0,24382.0,0.0,0.0,0.0,0.0,0.0,2.7941891670000003,4.389674732977291,0.0,-61183.0,0.0,37.5,0.0,0.0,0.25,4.680175302,3.031687206278561,0.0,0.23999999463558197,-0.6100000143051147,-9.8100004196167,-0.007568359375,-0.001953125,1.02130126953125,36.61000061035156,0.0,4.0,3.0205230712890625,-1.830108642578125,Closing,0.0,0.0,3.0,0.0,0.0,0.0,0.0,0.0,
7.285444999999949,0.0,0.0,62679.0,0.0,0.0,0.0,0.0,0.25,3.7890621120000003,3.015942366852486,0.0,-62162.0,0.0,0.0,0.0,0.0,0.0,2.440185297,1.92855458977222,0.0,24382.0,0.0,0.0,0.0,0.0,0.0,2.7929684640000003,4.389674732977291,0.0,-61183.0,0.125,0.0,0.0,0.0,0.25,4.680175302,3.031687206278561,0.0,0.23000000417232513,-0.6100000143051147,-10.210000038146973,-0.02093505859375,0.01263427734375,1.01519775390625,36.61000061035156,0.0,-11.0,3.0205230712890625,-1.830108642578125,Closing,0.0,0.0,3.0,0.0,0.0,0.0,0.0,0.0,
7.413633999999962,0.0,0.0,62679.0,0.0,0.0,0.0,0.0,0.25,3.7939449240000003,3.015942366852486,0.0,-62162.0,0.0,0.0,0.0,0.0,0.0,2.440185297,1.92855458977222,0.0,24382.0,0.0,0.0,0.0,0.0,0.0,2.7929684640000003,4.389674732977291,0.0,-61183.0,0.0,0.0,0.0,0.0,0.25,4.678954599,3.031687206278561,0.0,0.2199999988079071,-0.6399999856948853,-10.239999771118164,-0.01324462890625,0.00177001953125,1.00946044921875,36.61000061035156,0.0,-1.0,3.0205230712890625,-1.830108642578125,Closing,0.0,0.0,3.0,0.0,0.0,0.0,0.0,0.0,
7.572698999999906,0.0,0.0,62679.0,0.0,0.0,-164.0625,0.0,0.25,3.7951656270000003,3.0159423668524887,0.0,-62162.0,0.0,0.0,-164.0625,0.0,0.0,2.440185297,1.9285545897722227,0.0,24382.0,0.125,0.0,164.0625,0.0,0.0,2.7941891670000003,4.389674732977289,0.0,-61183.0,0.375,0.0,-164.0625,0.0,0.25,4.680175302,3.0316872062785585,0.0,0.23000000417232513,-0.6499999761581421,-10.199999809265137,-0.0155029296875,-0.00360107421875,1.0181884765625,36.61000061035156,0.0,-2.0,3.0205230712890625,-1.830108642578125,Closing,0.0,0.0,3.0,0.0,0.0,0.0,0.0,0.0,
7.703554000000004,0.0,0.0,62667.0,1.0,-67.5,-426.5625,0.0,0.25,3.803710548,3.0159423668524887,0.0,-62170.0,1.625,-67.5,-426.5625,0.0,0.0,2.437743891,1.9285545897722223,0.0,24384.0,1.625,7.5,426.5625,0.0,0.0,2.7893063550000003,4.389674732977289,0.0,-61190.0,1.0,-75.0,-426.5625,0.0,0.25,4.678954599,3.031687206278559,0.0,0.23000000417232513,-0.6299999952316284,-10.779999732971191,-0.0030517578125,0.00531005859375,0.93450927734375,36.59000015258789,0.0,6.0,3.0205841064453125,-1.8295745849609375,Closing,0.0,0.0,3.0,0.0,0.0,0.0,0.0,0.0,
7.834152999999933,0.0,0.0,62635.0,4.25,-187.5,-836.7187499999999,0.0,0.125,3.803710548,3.0159423668524887,0.0,-62191.0,7.375,-195.0,-836.7187499999999,0.0,0.0,2.440185297,1.9285545897722227,0.0,24414.0,5.375,157.5,836.7187499999999,0.0,0.0,2.7893063550000003,4.389674732977289,0.0,-61210.0,4.125,-172.5,-836.7187499999999,0.0,0.25,4.670409678,3.0316872062785585,0.0,0.3100000023841858,-0.6000000238418579,-13.34000015258789,0.01373291015625,-0.04473876953125,1.02032470703125,36.59000015258789,0.0,35.0,3.0205230712890625,-1.82861328125,Closing,0.0,0.0,3.0,0.0,0.0,0.0,0.0,0.0,
7.948385000000009,0.0,0.0,62558.0,4.875,-487.5,-935.15625,0.0,0.125,3.814696875,3.0159423668524887,0.0,-62256.0,8.5,-465.0,-935.15625,0.0,0.0,2.440185297,1.9285545897722227,0.0,24474.0,6.875,352.5,935.15625,0.0,0.0,2.7880856520000004,4.389674732977289,0.0,-61270.0,4.875,-480.0,-935.15625,0.0,0.25,4.636229994000001,3.0316872062785585,0.0,0.38999998569488525,-0.5099999904632568,-19.690000534057617,0.0068359375,0.00323486328125,1.06951904296875,36.59000015258789,0.0,16.0,3.0214385986328125,-1.8258819580078125,Closing,0.0,0.0,3.0,0.0,0.0,0.0,0.0,0.0,
8.071258999999962,0.0,0.0,62470.0,0.0,-495.0,0.0,0.0,0.125,3.806151954,3.0159423668524887,0.0,-62355.0,0.0,-532.5,0.0,0.0,0.0,2.366943117,1.9285545897722227,0.0,24548.0,0.0,375.0,0.0,0.0,0.0,2.784423543,4.389674732977289,0.0,-61372.0,0.0,-525.0,0.0,0.0,0.125,4.625243667,3.0316872062785585,0.0,0.3199999928474426,-0.4300000071525574,-29.549999237060547,0.04571533203125,0.04443359375,0.98822021484375,36.59000015258789,0.0,27.0,3.02227783203125,-1.8248443603515625,Closing,0.0,0.0,3.0,0.0,0.0,0.0,0.0,0.0,
8.212240999999922,0.0,0.0,62377.0,0.0,-577.5,0.0,0.0,0.125,3.814696875,3.0159423668524887,0.0,-62457.0,0.0,-525.0,0.0,0.0,0.25,2.357177493,1.9285545897722227,0.0,24610.0,0.0,412.5,0.0,0.0,0.0,2.78320284,4.389674732977289,0.0,-61460.0,0.0,-472.5,0.0,0.0,0.25,4.62646437,3.0316872062785585,0.0,0.3199999928474426,-0.25999999046325684,-36.81999969482422,-0.0374755859375,-0.00469970703125,1.164794921875,36.56999969482422,0.0,-18.0,3.022430419921875,-1.824493408203125,Closing,0.0,0.0,3.0,0.0,0.0,0.0,0.0,0.0,
8.334466999999947,0.0,0.0,62305.0,0.0,-367.5,0.0,0.0,0.125,3.815917578,3.0159423668524887,0.0,-62515.0,0.0,-360.0,0.0,0.0,0.25,2.406005613,1.9285545897722227,0.0,24664.0,0.0,322.5,0.0,0.0,0.0,2.78320284,4.389674732977289,0.0,-61526.0,0.0,-322.5,0.0,0.0,0.25,4.625243667,3.0316872062785585,0.0,0.23000000417232513,-0.33000001311302185,-41.09000015258789,-0.0257568359375,-0.02227783203125,1.06317138671875,36.56999969482422,0.0,2.0,3.0209197998046875,-1.8260345458984375,Closing,0.0,0.0,3.0,0.0,0.0,0.0,0.0,0.0,
8.458988000000012,0.0,0.0,62266.0,0.0,-187.5,0.0,0.0,0.125,3.814696875,3.0159423668524887,0.0,-62584.0,0.0,-165.0,0.0,0.0,0.125,2.4255368610000003,1.9285545897722227,0.0,24701.0,0.0,157.5,0.0,0.0,0.0,2.7941891670000003,4.389674732977289,0.0,-61595.0,0.0,-157.5,0.0,0.0,0.25,4.625243667,3.0316872062785585,0.0,0.18000000715255737,-0.3199999928474426,-43.720001220703125,-0.03125,0.00189208984375,1.0946044921875,36.56999969482422,0.0,-16.0,3.019256591796875,-1.8265228271484375,Closing,0.0,0.0,3.0,0.0,0.0,0.0,0.0,0.0,
8.605128999999957,0.0,0.0,62251.0,0.125,-7.5,132.28346407413483,0.0,0.125,3.815917578,3.0159423668524865,0.0,-62585.0,0.25,0.0,132.28346407413483,0.0,0.125,2.4291989700000003,1.92855458977222,0.0,24714.0,0.125,7.5,-132.28346407413483,0.0,0.0,2.7978512760000003,4.389674732977291,0.0,-61595.0,0.375,0.0,132.28346407413483,0.0,0.25,4.625243667,3.031687206278561,0.0,0.14000000059604645,-0.4000000059604645,-43.630001068115234,-0.0047607421875,-1.220703125E-4,1.00006103515625,36.56999969482422,0.0,3.0,3.019287109375,-1.82733154296875,Closing,0.0,0.0,3.0,0.0,0.0,0.0,0.0,0.0,
8.760307999999961,0.0,0.0,62264.0,0.5,67.5,248.03150296211243,0.0,0.125,3.818358984,3.0159423668524865,0.0,-62578.0,0.75,45.0,248.03150296211243,0.0,0.0,2.4291989700000003,1.92855458977222,0.0,24703.0,0.375,-52.5,-248.03150296211243,0.0,0.0,2.7941891670000003,4.389674732977291,0.0,-61588.0,0.5,52.5,248.03150296211243,0.0,0.25,4.631347182,3.031687206278561,0.0,0.15000000596046448,-0.4300000071525574,-42.83000183105469,-0.001220703125,0.0164794921875,1.068115234375,36.650001525878906,0.0,-4.0,3.0191650390625,-1.827423095703125,Closing,0.0,0.0,3.0,0.0,0.0,0.0,0.0,0.0,
8.910850999999909,0.0,0.0,62275.0,1.125,75.0,281.1023533344269,0.0,0.125,3.801269142,3.0159423668524865,0.0,-62567.0,1.375,105.0,281.1023533344269,0.0,0.0,2.4304196730000003,1.92855458977222,0.0,24702.0,1.5,-7.5,-281.1023533344269,0.0,0.0,2.8039547910000002,4.389674732977291,0.0,-61578.0,1.125,75.0,281.1023533344269,0.0,0.25,4.631347182,3.031687206278561,0.0,0.15000000596046448,-0.5099999904632568,-41.599998474121094,-0.01025390625,-0.01007080078125,1.05596923828125,36.650001525878906,0.0,8.0,3.018798828125,-1.827423095703125,Closing,0.0,0.0,3.0,0.0,0.0,0.0,0.0,0.0,
9.063851999999955,0.0,0.0,62295.0,1.375,127.5,314.17323499917984,0.0,0.125,3.8000484390000002,3.015942366852486,0.0,-62549.0,1.75,150.0,314.17323499917984,0.0,0.0,2.4291989700000003,1.92855458977222,0.0,24695.0,2.125,-52.5,-314.17323499917984,0.0,0.0,2.812499712,4.389674732977291,0.0,-61535.0,1.25,150.0,314.17323499917984,0.0,0.25,4.650878430000001,3.031687206278561,0.0,0.1599999964237213,-0.550000011920929,-39.529998779296875,-0.00909423828125,0.02008056640625,0.98046875,36.650001525878906,0.0,-10.0,3.0187225341796875,-1.8272705078125,Closing,0.0,0.0,3.0,0.0,0.0,0.0,0.0,0.0,
9.192815999999992,0.0,0.0,62322.0,0.0,127.5,0.0,0.0,0.125,3.8000484390000002,3.015942366852486,0.0,-62519.0,0.0,127.5,0.0,0.0,0.0,2.449950921,1.92855458977222,0.0,24687.0,0.0,-37.5,0.0,0.0,0.0,2.812499712,4.389674732977291,0.0,-61535.0,0.0,105.0,0.0,0.0,0.125,4.670409678,3.031687206278561,0.0,0.18000000715255737,-0.6600000262260437,-37.349998474121094,0.00140380859375,0.0091552734375,0.9783935546875,36.61000061035156,0.0,6.0,3.01837158203125,-1.8274993896484375,Closing,0.0,0.0,3.0,0.0,0.0,0.0,0.0,0.0,
9.295523999999975,0.0,0.0,62324.0,0.0,22.5,0.0,0.0,0.125,3.804931251,3.015942366852486,0.0,-62514.0,0.0,0.0,0.0,0.0,0.125,2.454833733,1.92855458977222,0.0,24685.0,0.0,-22.5,0.0,0.0,0.0,2.812499712,4.389674732977291,0.0,-61527.0,0.0,52.5,0.0,0.0,0.25,4.678954599,3.031687206278561,0.0,0.25,-0.6299999952316284,-36.189998626708984,-0.0263671875,0.03265380859375,1.01947021484375,36.61000061035156,0.0,-28.0,3.0182647705078125,-1.826934814453125,Closing,0.0,0.0,3.0,0.0,0.0,0.0,0.0,0.0,
9.402891999999992,0.0,0.0,62328.0,0.0,0.0,0.0,0.0,0.125,3.806151954,3.015942366852486,0.0,-62513.0,0.0,0.0,0.0,0.0,0.125,2.45361303,1.92855458977222,0.0,24679.0,0.0,-7.5,0.0,0.0,0.0,2.812499712,4.389674732977291,0.0,-61517.0,0.0,0.0,0.0,0.0,0.25,4.674071787,3.031687206278561,0.0,0.20000000298023224,-0.6000000238418579,-36.599998474121094,-0.014892578125,0.037353515625,1.00604248046875,36.61000061035156,0.0,-23.0,3.018218994140625,-1.8260955810546875,Closing,0.0,0.0,3.0,0.0,0.0,0.0,0.0,0.0,
9.547890999999945,0.0,0.0,62328.0,0.0,0.0,0.0,0.0,0.125,3.804931251,3.015942366852486,0.0,-62513.0,0.0,0.0,0.0,0.0,0.125,2.454833733,1.92855458977222,0.0,24679.0,0.0,0.0,0.0,0.0,0.0,2.812499712,4.389674732977291,0.0,-61517.0,0.0,0.0,0.0,0.0,0.25,4.672851084,3.031687206278561,0.0,0.2199999988079071,-0.6700000166893005,-36.849998474121094,-0.02130126953125,-0.020751953125,1.03564453125,36.61000061035156,0.0,7.0,3.017852783203125,-1.8260955810546875,Closing,0.0,0.0,3.0,0.0,0.0,0.0,0.0,0.0,
9.654533999999986,0.0,0.0,62328.0,0.0,0.0,0.0,0.0,0.125,3.804931251,3.015942366852486,0.0,-62513.0,0.0,0.0,0.0,0.0,0.125,2.454833733,1.92855458977222,0.0,24679.0,0.0,0.0,0.0,0.0,0.0,2.812499712,4.389674732977291,0.0,-61517.0,0.0,0.0,0.0,0.0,0.25,4.67529249,3.031687206278561,0.0,0.2199999988079071,-0.6399999856948853,-36.83000183105469,-0.02899169921875,-0.0018310546875,1.02197265625,36.58000183105469,0.0,-10.0,3.017852783203125,-1.826171875,Closing,0.0,0.0,3.0,0.0,0.0,0.0,0.0,0.0,
9.793537999999943,0.0,0.0,62328.0,0.125,0.0,198.42519611120224,0.0,0.125,3.7902828150000003,3.0159423668524865,0.0,-62513.0,0.25,0.0,198.42519611120224,0.0,0.125,2.454833733,1.92855458977222,0.0,24678.0,0.125,-7.5,-198.42519611120224,0.0,0.0,2.814941118,4.389674732977291,0.0,-61517.0,0.125,7.5,198.42519611120224,0.0,0.25,4.67529249,3.031687206278561,0.0,0.20999999344348907,-0.6700000166893005,-36.810001373291016,-0.00311279296875,0.01397705078125,1.01806640625,36.58000183105469,0.0,1.0,3.017852783203125,-1.8263092041015625,Closing,0.0,0.0,3.0,0.0,0.0,0.0,0.0,0.0,
9.905146999999998,0.0,0.0,62331.0,0.125,52.5,231.49606212973595,0.0,0.125,3.807372657,3.015942366852486,0.0,-62513.0,0.5,22.5,231.49606212973595,0.0,0.125,2.454833733,1.92855458977222,0.0,24671.0,0.375,-30.0,-231.49606212973595,0.0,0.0,2.812499712,4.389674732977291,0.0,-61514.0,0.5,22.5,231.49606212973595,0.0,0.25,4.67529249,3.031687206278561,0.0,0.20999999344348907,-0.6700000166893005,-36.790000915527344,-0.02685546875,-0.01116943359375,1.00750732421875,36.58000183105469,0.0,-2.0,3.017852783203125,-1.826171875,Closing,0.0,0.0,3.0,0.0,0.0,0.0,0.0,0.0,
10.027725999999907,0.0,0.0,62345.0,0.5,37.5,231.49606212973595,0.0,0.125,3.806151954,3.015942366852486,0.0,-62499.0,0.625,105.0,231.49606212973595,0.0,0.125,2.456054436,1.92855458977222,0.0,24669.0,0.625,-22.5,-231.49606212973595,0.0,0.0,2.812499712,4.389674732977291,0.0,-61505.0,0.75,45.0,231.49606212973595,0.0,0.25,4.67529249,3.031687206278561,0.0,0.23999999463558197,-0.6700000166893005,-36.540000915527344,-0.03863525390625,0.02093505859375,1.0478515625,36.58000183105469,0.0,-30.0,3.017791748046875,-1.82598876953125,Closing,0.0,0.0,3.0,0.0,0.0,0.0,0.0,0.0,
10.160220999999904,0.0,0.0,62351.0,1.125,52.5,248.03150296211243,0.0,0.125,3.8000484390000002,3.0159423668524865,0.0,-62493.0,1.5,82.5,248.03150296211243,0.0,0.125,2.454833733,1.92855458977222,0.0,24661.0,1.0,-37.5,-248.03150296211243,0.0,0.0,2.813720415,4.389674732977291,0.0,-61490.0,1.25,45.0,248.03150296211243,0.0,0.25,4.680175302,3.031687206278561,0.0,0.20999999344348907,-0.6700000166893005,-35.83000183105469,-0.01416015625,0.03289794921875,1.0208740234375,36.58000183105469,0.0,-18.0,3.0178070068359375,-1.8260650634765625,Closing,0.0,0.0,3.0,0.0,0.0,0.0,0.0,0.0,
10.275138999999966,0.0,0.0,62364.0,1.25,112.5,248.03150296211243,0.0,0.125,3.801269142,3.0159423668524865,0.0,-62456.0,1.625,127.5,248.03150296211243,0.0,0.125,2.449950921,1.92855458977222,0.0,24650.0,1.25,-120.0,-248.03150296211243,0.0,0.0,2.811279009,4.389674732977291,0.0,-61470.0,1.25,120.0,248.03150296211243,0.0,0.25,4.678954599,3.031687206278561,0.0,0.2199999988079071,-0.7900000214576721,-34.130001068115234,-0.0103759765625,-6.103515625E-4,0.97369384765625,36.619998931884766,0.0,15.0,3.0171051025390625,-1.8256683349609375,Closing,0.0,0.0,3.0,0.0,0.0,0.0,0.0,0.0,
10.432937999999966,0.0,0.0,62387.0,1.25,172.5,264.56692814826965,0.0,0.125,3.8000484390000002,3.0159423668524865,0.0,-62429.0,1.625,172.5,264.56692814826965,0.0,0.125,2.45361303,1.92855458977222,0.0,24625.0,1.25,-165.0,-264.56692814826965,0.0,0.0,2.812499712,4.389674732977291,0.0,-61441.0,1.375,180.0,264.56692814826965,0.0,0.25,4.678954599,3.031687206278561,0.0,0.23999999463558197,-0.8299999833106995,-31.649999618530273,-0.0462646484375,-0.00323486328125,1.0030517578125,36.619998931884766,0.0,-23.0,3.01708984375,-1.8258056640625,Closing,0.0,0.0,3.0,0.0,0.0,0.0,0.0,0.0,
10.567873999999952,0.0,0.0,62456.0,1.125,225.0,264.56692814826965,0.0,0.125,3.8000484390000002,3.0159423668524865,0.0,-62393.0,1.5,225.0,264.56692814826965,0.0,0.125,2.454833733,1.92855458977222,0.0,24599.0,1.25,-195.0,-264.56692814826965,0.0,0.0,2.817382524,4.389674732977291,0.0,-61405.0,1.25,225.0,264.56692814826965,0.0,0.25,4.685058114,3.031687206278561,0.0,0.2199999988079071,-0.8799999952316284,-28.350000381469727,-0.00665283203125,0.0186767578125,1.0382080078125,36.619998931884766,0.0,1.0,3.0169830322265625,-1.8258209228515625,Closing,0.0,0.0,3.0,0.0,0.0,0.0,0.0,0.0,
10.695989999999991,0.0,0.0,62494.0,0.375,232.5,115.74803106486797,0.0,0.125,3.801269142,3.015942366852486,0.0,-62355.0,0.625,225.0,115.74803106486797,0.0,0.125,2.447509515,1.92855458977222,0.0,24519.0,0.375,-270.0,-115.74803106486797,0.0,0.0,2.812499712,4.389674732977291,0.0,-61363.0,0.5,255.0,115.74803106486797,0.0,0.25,4.685058114,3.031687206278561,0.0,0.23000000417232513,-0.9300000071525574,-24.729999542236328,-0.02374267578125,0.00885009765625,0.98388671875,36.619998931884766,0.0,-8.0,3.0168609619140625,-1.82562255859375,Closing,0.0,0.0,3.0,0.0,0.0,0.0,0.0,0.0,
10.816165999999969,0.0,0.0,62510.0,0.0,142.5,0.0,0.0,0.125,3.8000484390000002,3.015942366852486,0.0,-62333.0,0.0,97.5,0.0,0.0,0.125,2.459716545,1.92855458977222,0.0,24502.0,0.0,-165.0,0.0,0.0,0.0,2.813720415,4.389674732977291,0.0,-61335.0,0.0,82.5,0.0,0.0,0.25,4.685058114,3.031687206278561,0.0,0.18000000715255737,-0.8899999856948853,-22.350000381469727,-0.0086669921875,0.02264404296875,1.01983642578125,36.619998931884766,0.0,0.0,3.01702880859375,-1.8255157470703125,Closing,0.0,0.0,3.0,0.0,0.0,0.0,0.0,0.0,
10.935130000000004,0.0,0.0,62512.0,0.0,15.0,0.0,0.0,0.125,3.8000484390000002,3.015942366852486,0.0,-62328.0,0.0,30.0,0.0,0.0,0.125,2.458495842,1.92855458977222,0.0,24501.0,0.0,0.0,0.0,0.0,0.0,2.812499712,4.389674732977291,0.0,-61330.0,0.0,37.5,0.0,0.0,0.25,4.685058114,3.031687206278561,0.0,0.1599999964237213,-0.8500000238418579,-21.770000457763672,-0.004638671875,-0.00750732421875,0.98223876953125,36.619998931884766,0.0,13.0,3.0170745849609375,-1.82574462890625,Closing,0.0,0.0,3.0,0.0,0.0,0.0,0.0,0.0,
11.06760499999998,0.0,0.0,62512.0,0.0,0.0,0.0,0.0,0.125,3.8000484390000002,3.015942366852486,0.0,-62328.0,0.0,0.0,0.0,0.0,0.125,2.459716545,1.92855458977222,0.0,24501.0,0.0,0.0,0.0,0.0,0.0,2.812499712,4.389674732977291,0.0,-61329.0,0.0,0.0,0.0,0.0,0.25,4.686278817,3.031687206278561,0.0,0.20999999344348907,-0.8500000238418579,-22.309999465942383,-0.02392578125,0.00335693359375,1.01104736328125,36.619998931884766,0.0,-8.0,3.0170745849609375,-1.825592041015625,Closing,0.0,0.0,3.0,0.0,0.0,0.0,0.0,0.0,
11.237836999999942,0.0,0.0,62512.0,0.0,0.0,0.0,0.0,0.125,3.8000484390000002,3.015942366852486,0.0,-62328.0,0.0,0.0,0.0,0.0,0.125,2.458495842,1.92855458977222,0.0,24501.0,0.0,0.0,0.0,0.0,0.0,2.812499712,4.389674732977291,0.0,-61329.0,0.0,0.0,0.0,0.0,0.25,4.682616708,3.031687206278561,0.0,0.20999999344348907,-0.8399999737739563,-22.299999237060547,-0.01885986328125,-8.544921875E-4,1.02069091796875,36.599998474121094,0.0,-1.0,3.0170745849609375,-1.825592041015625,Closing,0.0,0.0,3.0,0.0,0.0,0.0,0.0,0.0,
11.401204999999958,0.0,0.0,62512.0,0.0,0.0,0.0,0.0,0.125,3.801269142,3.015942366852486,0.0,-62328.0,0.0,0.0,0.0,0.0,0.125,2.458495842,1.92855458977222,0.0,24501.0,0.0,0.0,0.0,0.0,0.125,2.812499712,4.389674732977291,0.0,-61329.0,0.0,0.0,0.0,0.0,0.25,4.685058114,3.031687206278561,0.0,0.20999999344348907,-0.8299999833106995,-22.31999969482422,-0.01513671875,0.0057373046875,1.02178955078125,36.599998474121094,0.0,0.0,3.0170745849609375,-1.825592041015625,Closing,0.0,0.0,3.0,0.0,0.0,0.0,0.0,0.0,
11.536736999999965,0.0,0.0,62512.0,0.0,0.0,0.0,0.0,0.125,3.8000484390000002,3.015942366852486,0.0,-62328.0,0.0,0.0,0.0,0.0,0.125,2.459716545,1.92855458977222,0.0,24501.0,0.0,0.0,0.0,0.0,0.0,2.812499712,4.389674732977291,0.0,-61329.0,0.125,0.0,0.0,0.0,0.25,4.683837411,3.031687206278561,0.0,0.2199999988079071,-0.8299999833106995,-22.309999465942383,-0.011474609375,0.00543212890625,1.02581787109375,36.599998474121094,0.0,2.0,3.0170745849609375,-1.825592041015625,Closing,0.0,0.0,3.0,0.0,0.0,0.0,0.0,0.0,
11.667494999999995,0.0,0.0,62536.0,7.25,165.0,1289.7637653350828,0.0,1.125,3.9489742050000003,3.3935257022891827,0.0,-62300.0,11.625,240.0,1289.7637653350828,0.0,7.125,2.0605466640000003,0.9333266498637184,0.0,24509.0,8.5,60.0,1289.7637653350828,0.0,1.625,2.301025155,3.3991324406623824,0.0,-61341.0,9.75,-127.5,-1289.7637653350828,0.0,0.375,4.846190910000001,3.4112417295773807,0.0,-0.20999999344348907,-0.8600000143051147,-22.200000762939453,-0.06597900390625,0.1258544921875,1.1170654296875,36.599998474121094,0.0,-94.0,3.0174560546875,-1.8285064697265625,Closing,0.0,0.0,3.0,0.0,0.0,0.0,0.0,0.0,
11.79485699999996,0.0,0.0,62561.0,22.5,262.5,1607.2440791130064,0.0,0.375,4.197997617,3.3950327612138627,0.0,-62269.0,27.375,375.0,1607.2440791130064,0.0,0.5,1.37939439,0.9348433394803985,0.0,24544.0,23.125,277.5,1607.2440791130064,0.0,0.0,1.6064451480000002,3.4006419895299262,0.0,-61358.0,27.125,-225.0,-1607.2440791130064,0.0,0.375,0.150146469,3.4127566561592935,0.0,-1.600000023841858,-1.7400000095367432,-21.479999542236328,-0.2420654296875,-0.5533447265625,1.02850341796875,36.599998474121094,0.0,-3.0,3.0138702392578125,-1.8449554443359375,Closing,0.0,0.0,3.0,0.0,0.0,0.0,0.0,0.0,
11.941542999999946,0.0,0.0,62679.0,7.25,832.5,793.7007844448091,0.0,0.125,4.312743699,3.404897279938347,0.0,-62171.0,8.5,877.5,793.7007844448091,0.0,0.75,1.07421864,0.9447708963117584,0.0,24652.0,9.75,712.5,793.7007844448091,0.0,0.875,1.405029153,3.410522806282042,0.0,-61426.0,11.125,-720.0,-793.7007844448091,0.0,0.25,0.27709958100000004,3.422672672971088,0.0,-2.0799999237060547,-2.1500000953674316,-20.31999969482422,-0.05023193359375,-0.04248046875,1.074951171875,36.599998474121094,0.0,-7.0,3.01153564453125,-1.8942718505859375,Closing,0.0,0.0,3.0,0.0,0.0,0.0,0.0,0.0,
12.066024999999907,0.0,0.0,62812.0,0.0,675.0,0.0,0.0,0.25,4.299315966,3.404897279938347,0.0,-62030.0,0.0,472.5,0.0,0.0,0.5,1.23291003,0.9447708963117584,0.0,24764.0,0.0,412.5,0.0,0.0,0.5,1.729736151,3.410522806282042,0.0,-61606.0,0.125,-352.5,0.0,0.0,0.25,0.136718736,3.422672672971088,0.0,-0.7799999713897705,-1.25,-18.760000228881836,0.12310791015625,0.34710693359375,0.80633544921875,36.599998474121094,0.0,18.0,3.0107269287109375,-1.921417236328125,Closing,0.0,0.0,3.0,0.0,0.0,0.0,0.0,0.0,
12.20211699999997,0.0,0.0,62883.0,5.625,187.5,-555.5905491113663,0.0,3.5,4.685058114,4.675225916975274,0.0,-61931.0,0.125,292.5,555.5905491113663,0.0,9.25,1.1376951960000001,4.705102426844123,0.0,24804.0,0.375,307.5,555.5905491113663,0.0,5.875,1.4770506300000001,2.2127502635256477,0.0,-61639.0,6.25,-232.5,555.5905491113663,0.0,8.125,0.444335892,4.699633107958903,0.0,0.6399999856948853,-0.6600000262260437,-18.899999618530273,0.06195068359375,0.35821533203125,1.08782958984375,36.56999969482422,0.0,-41.0,3.015289306640625,-1.916107177734375,Closing,0.0,0.0,3.0,0.0,0.0,0.0,0.0,0.0,
12.33467299999995,0.0,0.0,62888.0,35.875,-255.0,-2063.6221146583557,0.0,0.875,0.477294873,4.673307827726404,0.0,-61881.0,30.375,330.0,2063.6221146583557,0.0,1.125,0.35644527600000003,4.703172080259803,0.0,24848.0,24.0,165.0,2063.6221146583557,0.0,0.75,0.7360839090000001,2.2108290052350386,0.0,-61615.0,44.75,217.5,2063.6221146583557,0.0,1.375,1.234130733,4.697705005253688,0.0,1.3700000047683716,-1.4299999475479126,-18.709999084472656,-0.30938720703125,0.1783447265625,1.36041259765625,36.56999969482422,0.0,-307.0,3.0107269287109375,-1.892822265625,Closing,0.0,0.0,3.0,0.0,0.0,0.0,0.0,0.0,
12.469070999999996,0.0,0.0,62705.0,25.75,-712.5,-1408.818826675415,0.0,0.375,0.727538988,4.675910967515588,0.0,-61776.0,24.375,652.5,1408.818826675415,0.0,0.25,0.086669913,4.705791855123523,0.0,24908.0,26.625,127.5,1408.818826675415,0.0,0.125,0.456542922,2.2134364458974227,0.0,-61510.0,27.375,735.0,1408.818826675415,0.0,0.25,1.5539549190000002,4.70032173483107,0.0,1.840000033378601,-3.5299999713897705,-18.489999771118164,-0.327392578125,0.182861328125,1.2542724609375,36.56999969482422,0.0,-281.0,2.9753265380859375,-1.8708343505859375,Closing,0.0,0.0,3.0,0.0,0.0,0.0,0.0,0.0,
12.603685999999987,0.0,0.0,62578.0,0.0,-757.5,0.0,0.0,0.375,0.675048759,4.675910967515588,0.0,-61644.0,0.0,825.0,0.0,0.0,0.25,0.092773428,4.705791855123523,0.0,25000.0,0.0,540.0,0.0,0.0,0.125,0.47607417,2.2134364458974227,0.0,-61371.0,0.0,825.0,0.0,0.0,0.5,1.568603355,4.70032173483107,0.0,1.3200000524520874,-3.009999990463257,-18.649999618530273,0.0081787109375,-0.06488037109375,1.240234375,36.56999969482422,0.0,99.0,2.92584228515625,-1.85223388671875,Closing,0.0,0.0,3.0,0.0,0.0,0.0,0.0,0.0,
12.72000099999993,0.0,0.0,62470.0,0.0,-727.5,0.0,0.0,0.25,0.559081974,4.675910967515588,0.0,-61517.0,0.0,697.5,0.0,0.0,0.25,0.186767559,4.705791855123523,0.0,25095.0,0.0,622.5,0.0,0.0,0.125,0.6066893910000001,2.2134364458974227,0.0,-61237.0,0.0,742.5,0.0,0.0,0.25,1.331786973,4.70032173483107,0.0,1.190000057220459,-1.940000057220459,-19.34000015258789,0.05096435546875,0.049560546875,1.090087890625,36.54999923706055,0.0,74.0,2.8914031982421875,-1.837799072265625,Closing,0.0,0.0,3.0,0.0,0.0,0.0,0.0,0.0,
12.857314999999945,0.0,0.0,62453.0,13.5,-135.0,1190.5512142181394,0.0,1.875,0.056152338,3.4342167636316603,0.0,-61457.0,22.75,82.5,-1190.5512142181394,0.0,7.5,4.910888169000001,3.4561627428960784,0.0,25131.0,18.5,262.5,-1190.5512142181394,0.0,4.25,0.255126927,0.9696907312393174,0.0,-61159.0,22.125,315.0,-1190.5512142181394,0.0,3.0,0.8557128030000001,3.4521452201207463,0.0,-0.07000000029802322,0.5099999904632568,-19.290000915527344,0.4609375,-0.0712890625,1.072509765625,36.54999923706055,0.0,449.0,2.8880615234375,-1.825714111328125,Closing,0.0,0.0,3.0,0.0,0.0,0.0,0.0,0.0,
12.992583999999916,0.0,0.0,62528.0,27.25,487.5,2103.307135105133,0.0,0.25,4.265136282,3.434901788039969,0.0,-61511.0,42.125,-525.0,-2103.307135105133,0.0,2.375,4.255370658,3.4568521448764784,0.0,25048.0,27.25,-427.5,-2103.307135105133,0.0,0.5,4.5031733670000005,0.9703768874359116,0.0,-61177.0,41.625,-495.0,-2103.307135105133,0.0,0.875,0.21728513400000002,3.4528338207244857,0.0,-2.049999952316284,0.5099999904632568,-19.1200008392334,-0.431640625,-0.17718505859375,1.04351806640625,36.54999923706055,0.0,-370.0,2.92169189453125,-1.8309173583984375,Closing,0.0,0.0,3.0,0.0,0.0,0.0,0.0,0.0,
13.113934000000008,0.0,0.0,62686.0,15.375,1020.0,1369.1338062286377,0.0,0.125,4.0759273170000005,3.437230907613027,0.0,-61653.0,23.25,-1072.5,-1369.1338062286377,0.0,0.25,3.8903804610000003,3.4591961484284384,0.0,24843.0,9.375,-1252.5,-1369.1338062286377,0.0,0.125,4.1857905870000005,0.9727098551495855,0.0,-61296.0,23.0,-1020.0,-1369.1338062286377,0.0,0.25,4.903563951000001,3.4551750995530006,0.0,-2.890000104904175,-1.8700000047683716,-18.149999618530273,-0.3035888671875,-0.2276611328125,1.25799560546875,36.54999923706055,0.0,-198.0,2.933563232421875,-1.8748626708984375,Closing,0.0,0.0,3.0,0.0,0.0,0.0,0.0,0.0,
13.250994999999996,0.0,0.0,62896.0,0.5,1320.0,254.10823650740107,0.0,0.75,3.9941402160000004,2.9226353522254165,0.0,-61856.0,1.625,-1282.5,-254.10823650740107,0.0,0.5,3.6279293160000003,2.941312127528781,0.0,24656.0,0.625,-1162.5,-254.10823650740107,0.0,0.5,3.9465327990000003,0.4572640917776588,0.0,-61483.0,1.875,-1222.5,-254.10823650740107,0.0,0.625,4.719237798,2.937893078907301,0.0,-2.5799999237060547,-2.4700000286102295,-17.25,-0.22216796875,0.18548583984375,0.98992919921875,36.5,0.0,-239.0,2.9233245849609375,-1.9256134033203125,Closing,0.0,0.0,3.0,0.0,0.0,0.0,0.0,0.0,
13.371690999999991,0.0,0.0,63090.0,0.875,1260.0,923.2637352109257,0.0,1.5,3.3801266070000002,2.3487453561219533,0.0,-62028.0,4.5,-1170.0,-923.2637352109257,0.0,1.125,3.023681331,2.3637547514020407,0.0,24477.0,2.75,-1170.0,-923.2637352109257,0.0,0.75,3.306884427,4.8228259221975724,0.0,-61677.0,4.25,-1230.0,-923.2637352109257,0.0,0.875,4.002685137,2.3610070687101374,0.0,-0.009999999776482582,-3.3399999141693115,-17.559999465942383,-2.44140625E-4,0.557373046875,0.958251953125,36.5,0.0,-115.0,2.8876495361328125,-1.9630889892578125,Closing,0.0,0.0,3.0,0.0,0.0,0.0,0.0,0.0,
13.511339999999967,0.0,0.0,63283.0,3.25,1027.5,1150.86611866951,0.0,0.25,2.8454586930000003,2.2255412640947423,0.0,-62225.0,7.125,-1072.5,-1150.86611866951,0.0,0.25,2.493896229,2.2397633373637227,0.0,24324.0,6.25,-802.5,-1150.86611866951,0.0,0.125,2.9541012600000003,4.699418273995721,0.0,-61865.0,9.0,-982.5,-1150.86611866951,0.0,0.25,3.549804324,2.2371597851329406,0.0,2.7200000286102295,-2.380000114440918,-18.079999923706055,0.140625,0.28045654296875,1.289306640625,36.5,0.0,116.0,2.84454345703125,-1.94622802734375,Closing,0.0,0.0,3.0,0.0,0.0,0.0,0.0,0.0,
13.627925999999977,0.0,0.0,63443.0,0.375,967.5,476.2204706668853,0.0,0.375,2.8930661100000004,2.2184168952675054,0.0,-62398.0,0.75,-967.5,-476.2204706668853,0.0,0.5,2.4877927140000002,2.2325934410519626,0.0,24179.0,1.25,-952.5,-476.2204706668853,0.0,0.125,2.972411805,4.692282134380344,0.0,-62019.0,2.75,-952.5,-476.2204706668853,0.0,0.875,3.643798455,2.229998223272962,0.0,2.9600000381469727,-2.1600000858306885,-17.979999542236328,-0.13134765625,-0.049560546875,1.06744384765625,36.5,0.0,108.0,2.80560302734375,-1.9051666259765625,Closing,0.0,0.0,3.0,0.0,0.0,0.0,0.0,0.0,
13.748864999999991,0.0,0.0,63578.0,0.125,825.0,218.26772511005402,0.0,0.375,3.043212579,2.2206090047325,0.0,-62547.0,0.0,-795.0,-218.26772511005402,0.0,0.25,2.7404782350000003,2.2347995589480423,0.0,24024.0,0.125,-885.0,-218.26772511005402,0.0,0.125,3.094482105,4.694477865619662,0.0,-62301.0,0.375,-840.0,-218.26772511005402,0.0,0.375,3.8989253820000003,2.232201776727043,0.0,1.7100000381469727,-1.9900000095367432,-17.739999771118164,0.02532958984375,-0.14996337890625,0.96575927734375,36.45000076293945,0.0,110.0,2.77288818359375,-1.874481201171875,Closing,0.0,0.0,3.0,0.0,0.0,0.0,0.0,0.0,
13.87305999999994,0.0,0.0,63708.0,0.0,795.0,0.0,0.0,0.25,3.083495778,2.2206090047325,0.0,-62670.0,0.0,-787.5,0.0,0.0,0.125,2.8515622080000003,2.2347995589480423,0.0,23919.0,0.0,-652.5,0.0,0.0,0.0,3.127441086,4.694477865619662,0.0,-62301.0,0.0,-705.0,0.0,0.0,0.25,3.961181235,2.232201776727043,0.0,1.0700000524520874,-1.7000000476837158,-17.760000228881836,0.08294677734375,-0.07537841796875,1.2830810546875,36.45000076293945,0.0,145.0,2.75640869140625,-1.8624420166015625,Closing,0.0,0.0,3.0,0.0,0.0,0.0,0.0,0.0,
13.990287999999943,0.0,0.0,63815.0,0.125,517.5,793.700784444809,0.0,2.0,3.7377925860000003,3.456411904629743,0.0,-62781.0,0.0,-517.5,-793.700784444809,0.0,1.25,3.551025027,3.4784997194676386,0.0,23815.0,0.125,-562.5,-793.700784444809,0.0,1.25,3.861083589,0.991922542756397,0.0,-62413.0,0.125,-480.0,-793.700784444809,0.0,1.625,4.671630381,3.474456231678855,0.0,0.14000000059604645,-0.09000000357627869,-16.90999984741211,0.29180908203125,-0.3052978515625,1.02593994140625,36.45000076293945,0.0,370.0,2.750732421875,-1.8483123779296875,Closing,0.0,0.0,3.0,0.0,0.0,0.0,0.0,0.0,
14.120506999999984,0.0,0.0,63871.0,1.75,397.5,932.5984311103821,0.0,0.375,4.4482417320000005,3.4697015715277764,0.0,-62847.0,2.75,-315.0,-932.5984311103821,0.0,0.25,4.251708549,3.4918743124999985,0.0,23754.0,1.0,-337.5,-932.5984311103821,0.0,0.25,4.545897972000001,1.005234166666665,0.0,-62530.0,2.375,-337.5,-932.5984311103821,0.0,0.375,0.385742148,3.4878152777777762,0.0,-0.36000001430511475,0.3199999928474426,-15.979999542236328,0.07147216796875,0.0394287109375,0.91009521484375,36.45000076293945,0.0,51.0,2.77001953125,-1.84613037109375,Closing,0.0,0.0,3.0,0.0,0.0,0.0,0.0,0.0,
14.250708999999915,0.0,0.0,63930.0,1.75,285.0,634.9606275558472,0.0,0.375,4.49218704,3.480251114660569,0.0,-62907.0,1.875,-390.0,-634.9606275558472,0.0,0.25,4.265136282,3.5024912713117584,0.0,23707.0,2.375,-202.5,-634.9606275558472,0.0,0.625,4.742431155,1.0158011396153752,0.0,-62574.0,2.75,-255.0,-634.9606275558472,0.0,0.5,0.34301754300000004,3.4984198951933103,0.0,-0.6200000047683716,0.6100000143051147,-15.65999984741211,0.01416015625,-0.03021240234375,1.03228759765625,36.45000076293945,0.0,8.0,2.7946319580078125,-1.84991455078125,Closing,0.0,0.0,3.0,0.0,0.0,0.0,0.0,0.0,
14.368870999999926,0.0,0.0,63982.0,2.25,330.0,555.5905491113663,0.0,0.25,4.344481977,3.4843613133744333,0.0,-62962.0,3.125,-330.0,-555.5905491113663,0.0,0.25,4.082030832,3.5066277357921587,0.0,23665.0,2.625,-307.5,-555.5905491113663,0.0,0.5,4.517821803,1.0199181291453028,0.0,-62634.0,2.75,-352.5,-555.5905491113663,0.0,0.25,0.18310545,3.5025515513526053,0.0,-0.800000011920929,0.18000000715255737,-15.989999771118164,-0.05364990234375,-0.0277099609375,1.036376953125,36.45000076293945,0.0,-51.0,2.8151092529296875,-1.855255126953125,Closing,0.0,0.0,3.0,0.0,0.0,0.0,0.0,0.0,
14.472121999999974,0.0,0.0,64038.0,0.0,277.5,0.0,0.0,0.25,4.2883296390000005,3.4843613133744333,0.0,-63018.0,0.0,-217.5,0.0,0.0,0.25,3.974608968,3.5066277357921587,0.0,23609.0,0.0,-270.0,0.0,0.0,0.125,4.326171432000001,1.0199181291453028,0.0,-62634.0,0.0,-225.0,0.0,0.0,0.25,0.09033202200000001,3.5025515513526053,0.0,-0.6399999856948853,-0.09000000357627869,-16.18000030517578,0.02618408203125,0.20623779296875,1.15350341796875,36.45000076293945,0.0,-34.0,2.8320770263671875,-1.862579345703125,Closing,0.0,0.0,3.0,0.0,0.0,0.0,0.0,0.0,
14.592707999999984,0.0,0.0,64073.0,0.0,270.0,0.0,0.0,0.125,4.277343312,3.4843613133744333,0.0,-63084.0,0.0,-255.0,0.0,0.0,0.25,3.9550777200000002,3.5066277357921587,0.0,23596.0,0.0,-60.0,0.0,0.0,0.0,4.251708549,1.0199181291453028,0.0,-62710.0,0.0,-255.0,0.0,0.0,0.25,0.096435537,3.5025515513526053,0.0,-0.029999999329447746,-0.03999999910593033,-16.170000076293945,-0.03912353515625,-0.00836181640625,1.13348388671875,36.45000076293945,0.0,-34.0,2.8441314697265625,-1.8626251220703125,Closing,0.0,0.0,3.0,0.0,0.0,0.0,0.0,0.0,
