Time,ClimberA1,ClimberA2,FRpos,FRCurrent,FRspeed,FRsetpoint,FRApos,FRACurrent,FREncpos,FREncSetpoint,FREncSpeed,FLpos,FLCurrent,FLspeed,FLsetpoint,FLApos,FLACurrent,FLEncpos,FLEncSetpoint,FLEncSpeed,BRpos,BRCurrent,BRspeed,BRsetpoint,BRApos,BRACurrent,BREncpos,BREncSetpoint,BREncSpeed,BLpos,BLCurrent,BLspeed,BLsetpoint,BLApos,BLACurrent,BLEncpos,BLEncSetpoint,BLEncSpeed,navx_Pitch,navx_Roll,navx_Yaw,navx_XAcc,navx_YAcc,navx_ZAcc,navx_Temp,navx_Bar,navx_Alt,navx_XDis,navx_YDis,GearPlacerState,ShootOutputV,ShootOutputCurrent,ShootEncPos,ShootEncVelocity,ShootSpeed,ShootSetpoint,CarouselSetpoint,CarouselCurrent,
0.14657500000006984,0.0,0.0,18451.0,0.0,0.0,0.0,0.0,0.25,0.8544921000000001,0.01,0.0,-1715.0,0.0,0.0,-0.0,0.0,0.25,0.545654241,0.01,0.0,-375.0,0.0,0.0,0.0,0.0,0.0,3.359374656,0.01,0.0,-1559.0,0.0,0.0,-0.0,0.0,0.125,1.619872881,0.01,0.0,-0.12999999523162842,-0.5400000214576721,0.0,-0.01025390625,1.220703125E-4,1.02142333984375,34.33000183105469,0.0,0.0,0.555755615234375,-1.238494873046875,Closing,0.0,0.0,0.0,0.0,0.0,0.0,0.0,0.0,
0.3098090000000084,0.0,0.0,18451.0,0.0,0.0,0.0,0.0,0.25,0.8544921000000001,0.01,0.0,-1715.0,0.0,0.0,-0.0,0.0,0.25,0.545654241,0.01,0.0,-375.0,0.0,0.0,0.0,0.0,0.0,3.359374656,0.01,0.0,-1559.0,0.125,0.0,-0.0,0.0,0.125,1.621093584,0.01,0.0,-0.12999999523162842,-0.5299999713897705,0.0,-0.00750732421875,-0.00445556640625,1.01708984375,34.33000183105469,0.0,2.0,0.555755615234375,-1.238494873046875,Closing,0.0,0.0,0.0,0.0,0.0,0.0,0.0,0.0,
0.46704000000003726,0.0,0.0,18411.0,13.875,-240.0,-1504.7244429588318,0.0,0.75,1.126708869,0.5498168668524864,0.0,-1742.0,15.625,-315.0,-1504.7244429588318,0.0,1.5,0.22094724300000002,4.41043958977222,0.0,-393.0,16.125,-105.0,-1504.7244429588318,0.0,1.0,3.0090328950000003,4.389674732977291,0.0,-1598.0,14.125,-217.5,-1504.7244429588318,0.0,1.25,1.905517383,0.552687206278561,0.0,-0.550000011920929,-0.550000011920929,2.1600000858306885,0.01068115234375,-0.29083251953125,0.578369140625,34.310001373291016,0.0,5.0,0.5576934814453125,-1.2427978515625,Closing,0.0,0.0,0.0,0.0,0.0,0.0,0.0,0.0,
0.6169290000000037,0.0,0.0,18329.0,31.125,-675.0,-2100.0,0.0,0.25,1.434326025,0.5498168668524864,0.0,-1844.0,19.625,-1147.5,-2100.0,0.0,0.25,4.913329575000001,4.41043958977222,0.0,-460.0,31.0,-465.0,-2100.0,0.0,0.25,2.769775107,4.389674732977291,0.0,-1686.0,33.875,-660.0,-2100.0,0.0,0.375,2.308349373,0.552687206278561,0.0,-0.4699999988079071,-0.9800000190734863,9.59000015258789,-0.192138671875,0.0096435546875,1.05364990234375,34.310001373291016,0.0,-168.0,0.5546112060546875,-1.24957275390625,Closing,0.0,0.0,0.0,0.0,0.0,0.0,0.0,0.0,
0.7700130000000354,0.0,0.0,18149.0,0.0,-997.5,0.0,0.0,0.25,1.466064303,0.5498168668524864,0.0,-2184.0,0.0,-952.5,0.0,0.0,0.125,4.771728027,4.41043958977222,0.0,-567.0,0.0,-667.5,0.0,0.0,0.0,2.730712611,4.389674732977291,0.0,-1840.0,0.0,-915.0,0.0,0.0,0.25,2.347411869,0.552687206278561,0.0,-0.3499999940395355,-1.1100000143051147,27.290000915527344,0.06658935546875,-0.08514404296875,0.717041015625,34.310001373291016,0.0,34.0,0.540679931640625,-1.250762939453125,Closing,0.0,0.0,0.0,0.0,0.0,0.0,0.0,0.0,
0.9155250000000232,0.0,0.0,17999.0,3.25,-817.5,-1703.1495451927185,0.0,0.25,1.437988134,0.5498168668524864,0.0,-2297.0,4.375,-697.5,-1703.1495451927185,0.0,0.25,4.848632316000001,4.41043958977222,0.0,-659.0,7.125,-592.5,-1703.1495451927185,0.0,0.0,2.77099581,4.389674732977291,0.0,-1967.0,5.125,-682.5,-1703.1495451927185,0.0,0.25,2.204589618,0.552687206278561,0.0,-0.3799999952316284,-1.0399999618530273,37.04999923706055,-0.01580810546875,-0.1171875,1.03564453125,34.349998474121094,0.0,-63.0,0.53265380859375,-1.250091552734375,Closing,0.0,0.0,0.0,0.0,0.0,0.0,0.0,0.0,
1.066124000000069,0.0,0.0,17837.0,0.0,-307.5,0.0,0.0,0.25,1.389160014,0.5498168668524864,0.0,-2362.0,0.0,-330.0,0.0,0.0,0.25,4.930419417,4.41043958977222,0.0,-843.0,0.0,-517.5,0.0,0.0,0.0,2.8002926820000003,4.389674732977291,0.0,-2111.0,0.125,-270.0,0.0,0.0,0.25,2.082519318,0.552687206278561,0.0,-0.36000001430511475,-0.8500000238418579,44.529998779296875,-0.08404541015625,0.0831298828125,1.53070068359375,34.349998474121094,0.0,21.0,0.528472900390625,-1.2523345947265625,Closing,0.0,0.0,0.0,0.0,0.0,0.0,0.0,0.0,
1.2113950000000187,0.0,0.0,17800.0,0.0,-180.0,0.0,0.0,0.25,1.364745954,0.5498168668524864,0.0,-2420.0,0.0,-187.5,0.0,0.0,0.125,4.938964338,4.41043958977222,0.0,-876.0,0.0,-187.5,0.0,0.0,0.0,2.7990719790000003,4.389674732977291,0.0,-2143.0,0.0,-180.0,0.0,0.0,0.25,2.086181427,0.552687206278561,0.0,-0.20000000298023224,-0.9700000286102295,47.40999984741211,0.015380859375,-0.00311279296875,1.22406005859375,34.349998474121094,0.0,25.0,0.526611328125,-1.252716064453125,Closing,0.0,0.0,0.0,0.0,0.0,0.0,0.0,0.0,
1.357503000000026,0.0,0.0,17791.0,0.0,-7.5,0.0,0.0,0.125,1.364745954,0.5498168668524864,0.0,-2438.0,0.0,0.0,0.0,0.0,0.125,4.941405744,4.41043958977222,0.0,-882.0,0.0,-7.5,0.0,0.0,0.0,2.8002926820000003,4.389674732977291,0.0,-2147.0,0.0,0.0,0.0,0.0,0.25,2.144775171,0.552687206278561,0.0,-0.17000000178813934,-0.8199999928474426,47.119998931884766,-0.0087890625,-0.00225830078125,0.95159912109375,34.31999969482422,0.0,3.0,0.526275634765625,-1.2529449462890625,Closing,0.0,0.0,0.0,0.0,0.0,0.0,0.0,0.0,
1.513756000000052,0.0,0.0,17791.0,0.125,-15.0,-198.42519611120224,0.0,1.875,1.064453016,4.932250999999998,0.0,-2438.0,0.25,0.0,198.42519611120224,0.0,1.0,0.273437472,4.963769999999998,0.0,-882.0,0.375,-7.5,-198.42519611120224,0.0,0.75,3.132323898,0.01,0.0,-2146.0,0.375,30.0,198.42519611120224,0.0,0.625,1.856689263,0.01,0.0,-0.15000000596046448,-0.8299999833106995,46.880001068115234,0.06488037109375,-0.02777099609375,1.06402587890625,34.31999969482422,0.0,36.0,0.5263519287109375,-1.252899169921875,Closing,0.0,0.0,0.0,0.0,0.0,0.0,0.0,0.0,
1.6576680000000634,0.0,0.0,17764.0,2.875,-90.0,-644.8818951845169,0.0,0.375,0.6970214130000001,4.932250999999998,0.0,-2425.0,3.875,120.0,644.8818951845169,0.0,0.5,0.6457518870000001,4.963769999999998,0.0,-905.0,3.25,-112.5,-644.8818951845169,0.0,0.125,3.557128542,0.01,0.0,-2138.0,2.5,150.0,644.8818951845169,0.0,0.5,1.514892423,0.01,0.0,-0.23999999463558197,-1.3799999952316284,46.93000030517578,-0.1689453125,-0.05682373046875,1.236083984375,34.31999969482422,0.0,-132.0,0.5231781005859375,-1.2511138916015625,Closing,0.0,0.0,0.0,0.0,0.0,0.0,0.0,0.0,
1.8073490000000456,0.0,0.0,17721.0,3.75,-270.0,-644.8818951845169,0.0,0.25,0.7495116420000001,4.932250999999998,0.0,-2392.0,4.875,292.5,644.8818951845169,0.0,0.25,0.6469725900000001,4.963769999999998,0.0,-936.0,5.5,-195.0,-644.8818951845169,0.0,0.25,3.494872689,0.01,0.0,-2065.0,3.75,270.0,644.8818951845169,0.0,0.25,1.402587747,0.01,0.0,-0.10999999940395355,-1.7799999713897705,47.11000061035156,-0.03759765625,-0.01226806640625,1.01263427734375,34.31999969482422,0.0,-11.0,0.5096435546875,-1.2402191162109375,Closing,0.0,0.0,0.0,0.0,0.0,0.0,0.0,0.0,
1.9553980000000446,0.0,0.0,17655.0,3.875,-427.5,-644.8818951845169,0.0,0.25,0.8300780400000001,4.932250999999998,0.0,-2282.0,6.5,352.5,644.8818951845169,0.0,0.25,0.5688475980000001,4.963769999999998,0.0,-1004.0,4.75,-450.0,-644.8818951845169,0.0,0.125,3.406982073,0.01,0.0,-2014.0,4.875,330.0,644.8818951845169,0.0,0.375,1.5869139,0.01,0.0,-0.14000000059604645,-2.059999942779541,48.040000915527344,-0.17333984375,-0.05352783203125,0.98089599609375,34.310001373291016,0.0,-130.0,0.4965362548828125,-1.2353057861328125,Closing,0.0,0.0,0.0,0.0,0.0,0.0,0.0,0.0,
2.105743000000017,0.0,0.0,17572.0,3.375,-577.5,-674.2643579203741,0.0,0.5,0.734863206,4.699656653584342,0.0,-2192.0,5.375,570.0,674.2643579203741,0.0,0.25,0.39062496,4.72968928535112,0.0,-1091.0,4.125,-600.0,-674.2643579203741,0.0,0.375,3.2617184160000003,4.707421364275274,0.0,-1945.0,4.75,525.0,674.2643579203741,0.0,0.25,1.6296385050000002,4.724191386138128,0.0,-0.27000001072883606,-2.700000047683716,48.4900016784668,-0.1156005859375,0.0592041015625,0.94927978515625,34.310001373291016,0.0,0.0,0.4740753173828125,-1.22760009765625,Closing,0.0,0.0,0.0,0.0,0.0,0.0,0.0,0.0,
2.253665000000037,0.0,0.0,17354.0,8.125,-697.5,-1122.4857331996582,0.0,0.875,0.11840819100000001,4.179609878466436,0.0,-2061.0,6.75,885.0,1122.4857331996582,0.0,1.5,4.947509259,4.206319209309368,0.0,-1317.0,8.875,-735.0,-1122.4857331996582,0.0,1.625,2.838134475,4.1865153747397645,0.0,-1836.0,6.375,840.0,1122.4857331996582,0.0,1.25,1.036376847,4.201429687466551,0.0,0.8999999761581421,-2.880000114440918,47.529998779296875,0.20233154296875,0.4862060546875,0.77008056640625,34.310001373291016,0.0,512.0,0.454559326171875,-1.206634521484375,Closing,0.0,0.0,0.0,0.0,0.0,0.0,0.0,0.0,
2.3983000000000465,0.0,0.0,17211.0,8.625,-922.5,-1149.4972162397892,0.0,0.25,4.876708485,4.166735818686789,0.0,-1889.0,5.25,1072.5,1149.4972162397892,0.0,0.25,4.573974141,4.193362879286338,0.0,-1448.0,10.25,-840.0,-1149.4972162397892,0.0,0.25,2.50244115,4.173620044608478,0.0,-1542.0,7.0,937.5,1149.4972162397892,0.0,0.25,0.72021477,4.188488418178454,0.0,2.6500000953674316,-1.659999966621399,46.38999938964844,-0.00311279296875,0.1431884765625,1.3492431640625,34.33000183105469,0.0,83.0,0.471466064453125,-1.1751708984375,Closing,0.0,0.0,0.0,0.0,0.0,0.0,0.0,0.0,
2.5547700000000186,0.0,0.0,17035.0,8.125,-1162.5,-1302.8305376039266,0.0,0.25,4.9182123870000005,4.105671187467434,0.0,-1533.0,7.875,1140.0,1302.8305376039266,0.0,0.25,4.533690942000001,4.131908021350743,0.0,-1611.0,9.625,-1057.5,-1302.8305376039266,0.0,0.0,2.4816891990000003,4.112454523211432,0.0,-1360.0,6.5,1192.5,1302.8305376039266,0.0,0.25,0.706787037,4.12710499677805,0.0,3.369999885559082,-1.8899999856948853,47.45000076293945,-0.16290283203125,0.0721435546875,1.00604248046875,34.33000183105469,0.0,-78.0,0.5119171142578125,-1.156463623046875,Closing,0.0,0.0,0.0,0.0,0.0,0.0,0.0,0.0,
2.7093919999999927,0.0,0.0,16829.0,5.25,-1387.5,-1317.1109862661629,0.0,0.125,4.924315902,4.100831166305912,0.0,-1319.0,5.875,1320.0,1317.1109862661629,0.0,0.25,4.559325705,4.127037070573719,0.0,-1791.0,9.125,-1177.5,-1317.1109862661629,0.0,0.0,2.4853513080000003,4.107606505430832,0.0,-1143.0,3.875,1417.5,1317.1109862661629,0.0,0.25,0.767822187,4.122239708105834,0.0,3.559999942779541,-2.259999990463257,49.040000915527344,-0.00238037109375,0.22442626953125,0.92449951171875,34.33000183105469,0.0,148.0,0.545562744140625,-1.1494903564453125,Closing,0.0,0.0,0.0,0.0,0.0,0.0,0.0,0.0,
2.8539850000001024,0.0,0.0,16399.0,0.125,-1275.0,-711.0235959291458,0.0,1.0,0.74462883,4.932250999999998,0.0,-1120.0,0.875,1050.0,711.0235959291458,0.0,1.5,0.44799800100000003,4.963769999999998,0.0,-2196.0,0.625,-1297.5,-711.0235959291458,0.0,0.5,3.358153953,0.01,0.0,-905.0,0.5,1222.5,711.0235959291458,0.0,1.875,1.5783689790000002,0.01,0.0,1.4500000476837158,-2.9000000953674316,50.400001525878906,-0.0723876953125,-0.761962890625,0.9080810546875,34.33000183105469,0.0,-621.0,0.572998046875,-1.143402099609375,Closing,0.0,0.0,0.0,0.0,0.0,0.0,0.0,0.0,
2.996521000000066,0.0,0.0,16245.0,0.125,-952.5,-545.6692814826965,0.0,0.25,1.002197163,4.932250999999998,0.0,-987.0,1.125,765.0,545.6692814826965,0.0,0.25,0.9985350540000001,4.963769999999998,0.0,-2391.0,0.375,-1222.5,-545.6692814826965,0.0,0.0,3.599853147,0.01,0.0,-605.0,0.5,750.0,545.6692814826965,0.0,0.25,1.771240053,0.01,0.0,-2.1600000858306885,-1.8700000047683716,52.16999816894531,0.08721923828125,-0.04437255859375,1.06939697265625,34.310001373291016,0.0,71.0,0.5391998291015625,-1.1923675537109375,Closing,0.0,0.0,0.0,0.0,0.0,0.0,0.0,0.0,
3.147673000000068,0.0,0.0,16110.0,0.125,-802.5,-545.6692814826965,0.0,0.25,0.9069823290000001,4.932250999999998,0.0,-856.0,0.875,742.5,545.6692814826965,0.0,0.5,0.716552661,4.963769999999998,0.0,-2516.0,0.375,-727.5,-545.6692814826965,0.0,0.25,3.436278945,0.01,0.0,-513.0,1.875,555.0,545.6692814826965,0.0,0.25,1.718749824,0.01,0.0,-1.3300000429153442,-1.159999966621399,53.709999084472656,-0.0213623046875,0.16375732421875,1.0777587890625,34.310001373291016,0.0,152.0,0.50372314453125,-1.2630767822265625,Closing,0.0,0.0,0.0,0.0,0.0,0.0,0.0,0.0,
3.291953000000096,0.0,0.0,16003.0,0.125,-600.0,-545.6692814826965,0.0,0.25,0.8166503070000001,4.932250999999998,0.0,-654.0,1.25,615.0,545.6692814826965,0.0,0.25,0.385742148,4.963769999999998,0.0,-2635.0,0.625,-712.5,-545.6692814826965,0.0,0.125,3.3178707540000003,0.01,0.0,-424.0,2.0,562.5,545.6692814826965,0.0,0.25,1.612548663,0.01,0.0,-0.6000000238418579,-0.8199999928474426,54.0099983215332,0.07183837890625,0.13983154296875,0.83135986328125,34.310001373291016,0.0,169.0,0.487060546875,-1.3223724365234375,Closing,0.0,0.0,0.0,0.0,0.0,0.0,0.0,0.0,
3.4470500000000466,0.0,0.0,15910.0,0.125,-592.5,-545.6692814826965,0.0,0.125,0.8032225740000001,4.932250999999998,0.0,-563.0,1.5,547.5,545.6692814826965,0.0,0.25,0.351562464,4.963769999999998,0.0,-2728.0,1.25,-495.0,-545.6692814826965,0.0,0.0,3.3203121600000003,0.01,0.0,-327.0,1.5,585.0,545.6692814826965,0.0,0.125,1.5820310880000001,0.01,0.0,-0.4000000059604645,-0.6600000262260437,53.689998626708984,0.0184326171875,-0.02325439453125,1.0450439453125,34.27000045776367,0.0,5.0,0.479339599609375,-1.3222503662109375,Closing,0.0,0.0,0.0,0.0,0.0,0.0,0.0,0.0,
3.5908980000000446,0.0,0.0,15743.0,0.625,-487.5,-545.6692814826965,0.0,0.125,0.8007811680000001,4.932250999999998,0.0,-478.0,1.875,532.5,545.6692814826965,0.0,0.25,0.419921832,4.963769999999998,0.0,-2888.0,1.875,-495.0,-545.6692814826965,0.0,0.0,3.334960596,0.01,0.0,-155.0,2.0,517.5,545.6692814826965,0.0,0.25,1.5820310880000001,0.01,0.0,-0.3100000023841858,-0.6100000143051147,53.43000030517578,-0.00689697265625,0.0113525390625,1.107666015625,34.27000045776367,0.0,16.0,0.4752349853515625,-1.3225555419921875,Closing,0.0,0.0,0.0,0.0,0.0,0.0,0.0,0.0,
3.7424650000000836,0.0,0.0,15661.0,1.625,-532.5,-694.4881707429886,0.0,0.125,0.8032225740000001,4.932250999999998,0.0,-394.0,3.5,532.5,694.4881707429886,0.0,0.25,0.490722606,4.963769999999998,0.0,-2972.0,3.0,-540.0,-694.4881707429886,0.0,0.0,3.338622705,0.01,0.0,-72.0,3.125,525.0,694.4881707429886,0.0,0.25,1.590576009,0.01,0.0,-0.25999999046325684,-0.8899999856948853,53.40999984741211,-0.13177490234375,0.01611328125,1.2010498046875,34.27000045776367,0.0,-49.0,0.473480224609375,-1.319915771484375,Closing,0.0,0.0,0.0,0.0,0.0,0.0,0.0,0.0,
3.8951490000000923,0.0,0.0,15566.0,1.625,-630.0,-727.55908370018,0.0,0.125,0.8032225740000001,4.932250999999998,0.0,-203.0,3.625,622.5,727.55908370018,0.0,0.125,0.505371042,4.963769999999998,0.0,-3067.0,3.125,-637.5,-727.55908370018,0.0,0.0,3.34472622,0.01,0.0,24.0,3.25,637.5,727.55908370018,0.0,0.25,1.6101072570000001,0.01,0.0,-0.27000001072883606,-1.159999966621399,53.5099983215332,-0.028564453125,0.04681396484375,0.97052001953125,34.27000045776367,0.0,36.0,0.466156005859375,-1.3113250732421875,Closing,0.0,0.0,0.0,0.0,0.0,0.0,0.0,0.0,
4.047146999999997,0.0,0.0,15346.0,0.625,-697.5,-632.887433988086,0.0,0.25,0.734863206,4.827010183795824,0.0,-85.0,3.625,757.5,832.2205605783046,0.0,0.25,0.482177685,4.883327101948855,0.0,-3289.0,1.5,-697.5,-632.887433988086,0.0,0.0,3.436278945,0.10541469369160461,0.0,134.0,3.625,735.0,832.2205605783046,0.0,0.25,1.6845701400000002,0.08034938938298418,0.0,-0.27000001072883606,-1.3300000429153442,53.29999923706055,0.0279541015625,0.02020263671875,0.5997314453125,34.31999969482422,0.0,43.0,0.4558563232421875,-1.297882080078125,Closing,0.0,0.0,0.0,0.0,0.0,0.0,0.0,0.0,
4.1954880000000125,0.0,0.0,15236.0,1.0,-690.0,-727.55908370018,0.0,0.25,0.761718672,4.932250999999998,0.0,47.0,1.5,855.0,727.55908370018,0.0,0.25,0.462646437,4.963769999999998,0.0,-3403.0,2.375,-712.5,-727.55908370018,0.0,0.125,3.4216305090000003,0.01,0.0,397.0,1.875,862.5,727.55908370018,0.0,0.25,1.702880685,0.01,0.0,-0.3100000023841858,-1.4700000286102295,51.81999969482422,-0.02679443359375,0.00421142578125,0.84832763671875,34.31999969482422,0.0,3.0,0.4459991455078125,-1.2857818603515625,Closing,0.0,0.0,0.0,0.0,0.0,0.0,0.0,0.0,
4.341759000000078,0.0,0.0,15121.0,0.75,-727.5,-727.55908370018,0.0,0.25,0.806884683,4.932250999999998,0.0,184.0,1.125,832.5,727.55908370018,0.0,0.0,0.49194330900000005,4.963769999999998,0.0,-3520.0,2.375,-735.0,-727.55908370018,0.0,0.125,3.383788716,0.01,0.0,532.0,1.25,832.5,727.55908370018,0.0,0.25,1.6589353770000002,0.01,0.0,-0.3100000023841858,-1.409999966621399,50.47999954223633,0.099853515625,-0.1112060546875,0.86566162109375,34.31999969482422,0.0,-5.0,0.4417877197265625,-1.28656005859375,Closing,0.0,0.0,0.0,0.0,0.0,0.0,0.0,0.0,
4.490917000000016,0.0,0.0,15000.0,0.625,-757.5,-727.55908370018,0.0,0.125,0.811767495,4.932250999999998,0.0,445.0,0.875,802.5,727.55908370018,0.0,0.125,0.496826121,4.963769999999998,0.0,-3641.0,1.75,-780.0,-727.55908370018,0.0,0.125,3.3740230920000003,0.01,0.0,662.0,1.25,780.0,727.55908370018,0.0,0.25,1.6345213170000001,0.01,0.0,-0.23000000417232513,-1.4299999475479126,50.130001068115234,-0.0338134765625,-0.03118896484375,1.28350830078125,34.31999969482422,0.0,-20.0,0.44329833984375,-1.2885284423828125,Closing,0.0,0.0,0.0,0.0,0.0,0.0,0.0,0.0,
4.635270000000019,0.0,0.0,14875.0,0.375,-765.0,-727.55908370018,0.0,0.125,0.811767495,4.932250999999998,0.0,568.0,1.0,765.0,727.55908370018,0.0,0.125,0.48583979400000005,4.963769999999998,0.0,-3765.0,1.5,-757.5,-727.55908370018,0.0,0.0,3.3740230920000003,0.01,0.0,785.0,1.25,787.5,727.55908370018,0.0,0.125,1.6345213170000001,0.01,0.0,-0.23999999463558197,-1.2300000190734863,50.08000183105469,0.07086181640625,0.0506591796875,1.00872802734375,34.31999969482422,0.0,101.0,0.4471282958984375,-1.28985595703125,Closing,0.0,0.0,0.0,0.0,0.0,0.0,0.0,0.0,
4.783008000000031,0.0,0.0,14636.0,0.625,-735.0,-727.55908370018,0.0,0.125,0.806884683,4.932250999999998,0.0,690.0,1.0,750.0,727.55908370018,0.0,0.125,0.496826121,4.963769999999998,0.0,-4005.0,1.75,-742.5,-727.55908370018,0.0,0.0,3.3715816860000003,0.01,0.0,1025.0,1.625,712.5,727.55908370018,0.0,0.125,1.64794905,0.01,0.0,-0.17000000178813934,-1.100000023841858,50.0099983215332,0.03558349609375,0.01702880859375,0.93109130859375,34.31999969482422,0.0,49.0,0.453704833984375,-1.2932281494140625,Closing,0.0,0.0,0.0,0.0,0.0,0.0,0.0,0.0,
4.9283030000000725,0.0,0.0,14528.0,0.125,-660.0,-529.1338562965393,0.0,0.125,0.811767495,4.932250999999998,0.0,805.0,0.5,660.0,529.1338562965393,0.0,0.125,0.495605418,4.963769999999998,0.0,-4113.0,0.625,-667.5,-529.1338562965393,0.0,0.0,3.3728023890000003,0.01,0.0,1121.0,0.875,585.0,529.1338562965393,0.0,0.125,1.6357420200000001,0.01,0.0,-0.11999999731779099,-0.699999988079071,49.91999816894531,-0.02850341796875,-0.0281982421875,1.1104736328125,34.29999923706055,0.0,-29.0,0.4613800048828125,-1.3000030517578125,Closing,0.0,0.0,0.0,0.0,0.0,0.0,0.0,0.0,
5.0737690000000875,0.0,0.0,14431.0,0.125,-585.0,-496.06300592422485,0.0,0.125,0.809326089,4.932250999999998,0.0,996.0,0.5,585.0,496.06300592422485,0.0,0.125,0.5151366660000001,4.963769999999998,0.0,-4218.0,0.375,-622.5,-496.06300592422485,0.0,0.0,3.3740230920000003,0.01,0.0,1224.0,0.75,622.5,496.06300592422485,0.0,0.125,1.6357420200000001,0.01,0.0,-0.10999999940395355,-0.5,49.959999084472656,0.05517578125,0.00189208984375,1.0198974609375,34.29999923706055,0.0,44.0,0.472320556640625,-1.307769775390625,Closing,0.0,0.0,0.0,0.0,0.0,0.0,0.0,0.0,
5.229966000000015,0.0,0.0,14339.0,0.125,-555.0,-496.06300592422485,0.0,0.125,0.811767495,4.932250999999998,0.0,1084.0,0.5,540.0,496.06300592422485,0.0,0.125,0.5163573690000001,4.963769999999998,0.0,-4311.0,0.375,-547.5,-496.06300592422485,0.0,0.0,3.3728023890000003,0.01,0.0,1315.0,0.75,547.5,496.06300592422485,0.0,0.125,1.6357420200000001,0.01,0.0,-0.07999999821186066,-0.20999999344348907,50.0099983215332,0.0633544921875,0.00372314453125,0.79248046875,34.29999923706055,0.0,46.0,0.4754638671875,-1.310821533203125,Closing,0.0,0.0,0.0,0.0,0.0,0.0,0.0,0.0,
5.37675,0.0,0.0,14169.0,0.125,-525.0,-496.06300592422485,0.0,0.125,0.811767495,4.932250999999998,0.0,1168.0,0.5,525.0,496.06300592422485,0.0,0.125,0.520019478,4.963769999999998,0.0,-4471.0,0.625,-472.5,-496.06300592422485,0.0,0.0,3.3740230920000003,0.01,0.0,1471.0,1.125,480.0,496.06300592422485,0.0,0.125,1.6345213170000001,0.01,0.0,0.0,-0.10000000149011612,50.02000045776367,-0.006103515625,0.015869140625,1.09967041015625,34.29999923706055,0.0,9.0,0.4766998291015625,-1.312408447265625,Closing,0.0,0.0,0.0,0.0,0.0,0.0,0.0,0.0,
5.528687000000034,0.0,0.0,14097.0,0.375,-390.0,-496.06300592422485,0.0,0.125,0.811767495,4.932250999999998,0.0,1249.0,0.875,435.0,496.06300592422485,0.0,0.125,0.521240181,4.963769999999998,0.0,-4538.0,2.0,-397.5,-496.06300592422485,0.0,0.0,3.3728023890000003,0.01,0.0,1549.0,1.25,480.0,496.06300592422485,0.0,0.125,1.6296385050000002,0.01,0.0,0.25999999046325684,1.1100000143051147,49.459999084472656,0.4678955078125,0.0675048828125,0.84063720703125,34.29999923706055,0.0,341.0,0.486083984375,-1.315887451171875,Closing,0.0,0.0,0.0,0.0,0.0,0.0,0.0,0.0,
5.67703899999999,0.0,0.0,14090.0,5.125,0.0,-496.06300592422485,0.0,0.125,0.8166503070000001,4.932250999999998,0.0,1297.0,7.5,15.0,496.06300592422485,0.0,0.125,0.521240181,4.963769999999998,0.0,-4558.0,6.125,-60.0,-496.06300592422485,0.0,0.0,3.3740230920000003,0.01,0.0,1564.0,5.375,7.5,496.06300592422485,0.0,0.125,1.5771482760000002,0.01,0.0,0.14000000059604645,1.2000000476837158,49.349998474121094,-0.0955810546875,0.06243896484375,0.9583740234375,34.29999923706055,0.0,-29.0,0.5122222900390625,-1.338958740234375,Closing,0.0,0.0,0.0,0.0,0.0,0.0,0.0,0.0,
5.826886000000057,0.0,0.0,14090.0,5.625,0.0,-264.56692814826965,0.0,0.125,0.8166503070000001,4.932250999999998,0.0,1300.0,8.25,15.0,264.56692814826965,0.0,0.125,0.518798775,4.963769999999998,0.0,-4558.0,6.75,-7.5,-264.56692814826965,0.0,0.0,3.3728023890000003,0.01,0.0,1566.0,6.75,30.0,264.56692814826965,0.0,0.25,1.591796712,0.01,0.0,0.03999999910593033,1.0199999809265137,49.18000030517578,-0.00146484375,0.00103759765625,1.03564453125,34.29999923706055,0.0,-12.0,0.5344696044921875,-1.3523406982421875,Closing,0.0,0.0,0.0,0.0,0.0,0.0,0.0,0.0,
5.973724000000046,0.0,0.0,14105.0,0.0,105.0,0.0,0.0,0.125,0.8166503070000001,4.932250999999998,0.0,1292.0,0.0,-82.5,0.0,0.0,0.125,0.52490229,4.963769999999998,0.0,-4549.0,0.0,75.0,0.0,0.0,0.0,3.359374656,0.01,0.0,1564.0,0.125,-112.5,0.0,0.0,0.25,1.596679524,0.01,0.0,0.009999999776482582,1.090000033378601,49.34000015258789,-0.0816650390625,-0.041748046875,1.17559814453125,34.29999923706055,0.0,-99.0,0.554595947265625,-1.354644775390625,Closing,0.0,0.0,0.0,0.0,0.0,0.0,0.0,0.0,
6.128005000000004,0.0,0.0,14119.0,0.125,97.5,264.56692814826965,0.0,3.375,0.24291989700000002,3.6991882499999984,0.0,1278.0,1.0,-7.5,264.56692814826965,0.0,3.625,1.0839842640000001,1.2409424999999985,0.0,-4535.0,0.375,97.5,264.56692814826965,0.0,1.625,2.730712611,3.7052999999999985,0.0,1539.0,0.375,-22.5,-264.56692814826965,0.0,1.75,1.0290526290000002,3.7184999999999984,0.0,0.11999999731779099,0.5299999713897705,49.33000183105469,-0.0789794921875,0.05816650390625,1.0386962890625,34.29999923706055,0.0,-15.0,0.5726318359375,-1.3508758544921875,Closing,0.0,0.0,0.0,0.0,0.0,0.0,0.0,0.0,
6.277084000000031,0.0,0.0,14150.0,2.25,187.5,661.4173203706741,0.0,0.75,4.250487846,3.6991882499999984,0.0,1281.0,7.125,7.5,661.4173203706741,0.0,2.125,1.958007612,1.2409424999999985,0.0,-4513.0,2.875,165.0,661.4173203706741,0.0,0.5,1.823730282,3.7052999999999985,0.0,1531.0,3.5,-67.5,-661.4173203706741,0.0,1.25,0.114746082,3.7184999999999984,0.0,-0.36000001430511475,0.5299999713897705,49.43000030517578,-0.12664794921875,-0.1763916015625,1.05145263671875,34.29999923706055,0.0,-217.0,0.5711669921875,-1.3535308837890625,Closing,0.0,0.0,0.0,0.0,0.0,0.0,0.0,0.0,
6.438216000000015,0.0,0.0,14227.0,4.0,307.5,711.0235959291458,0.0,0.5,4.158935121,3.6991882499999984,0.0,1326.0,9.375,300.0,711.0235959291458,0.0,0.25,2.1728513400000002,1.2409424999999985,0.0,-4443.0,5.375,270.0,711.0235959291458,0.0,0.375,1.7639158350000002,3.7052999999999985,0.0,1506.0,6.5,-172.5,-711.0235959291458,0.0,0.375,4.956054180000001,3.7184999999999984,0.0,-0.10000000149011612,0.49000000953674316,50.31999969482422,0.1114501953125,0.19989013671875,0.8642578125,34.29999923706055,0.0,221.0,0.5584564208984375,-1.358062744140625,Closing,0.0,0.0,0.0,0.0,0.0,0.0,0.0,0.0,
6.603129000000074,0.0,0.0,14230.0,12.125,15.0,711.0235959291458,0.0,0.75,4.429931187,3.6991882499999984,0.0,1348.0,23.0,45.0,711.0235959291458,0.0,1.125,1.8908689470000002,1.2409424999999985,0.0,-4440.0,14.375,15.0,711.0235959291458,0.0,1.25,2.004394326,3.7052999999999985,0.0,1477.0,15.5,-67.5,-711.0235959291458,0.0,0.875,0.325927701,3.7184999999999984,0.0,-0.07999999821186066,0.25999999046325684,50.31999969482422,-0.0164794921875,-0.18634033203125,0.99896240234375,34.279998779296875,0.0,-155.0,0.55938720703125,-1.350921630859375,Closing,0.0,0.0,0.0,0.0,0.0,0.0,0.0,0.0,
6.764149000000092,0.0,0.0,14260.0,13.125,345.0,711.0235959291458,0.0,0.375,4.482421416,3.6991882499999984,0.0,1431.0,23.625,367.5,711.0235959291458,0.0,0.25,1.823730282,1.2409424999999985,0.0,-4413.0,14.75,217.5,711.0235959291458,0.0,0.25,2.042236119,3.7052999999999985,0.0,1438.0,15.375,-397.5,-711.0235959291458,0.0,0.25,0.429687456,3.7184999999999984,0.0,-1.6799999475479126,0.2199999988079071,50.130001068115234,-0.03564453125,-0.2574462890625,1.069091796875,34.279998779296875,0.0,-198.0,0.539764404296875,-1.3597259521484375,Closing,0.0,0.0,0.0,0.0,0.0,0.0,0.0,0.0,
6.927398000000045,0.0,0.0,14405.0,0.0,367.5,0.0,0.0,0.125,4.493407743000001,3.6991882499999984,0.0,1500.0,0.0,435.0,0.0,0.0,0.25,1.719970527,1.2409424999999985,0.0,-4329.0,0.0,270.0,0.0,0.0,0.0,2.095947051,3.7052999999999985,0.0,1354.0,0.125,-442.5,0.0,0.0,0.25,0.42846675300000003,3.7184999999999984,0.0,-0.9300000071525574,0.2199999988079071,50.119998931884766,0.06610107421875,0.1217041015625,0.7928466796875,34.279998779296875,0.0,143.0,0.50982666015625,-1.3736419677734375,Closing,0.0,0.0,0.0,0.0,0.0,0.0,0.0,0.0,
7.080980000000098,0.0,0.0,14442.0,1.375,187.5,-114.84375,0.0,1.5,4.073485911000001,3.0159423668524887,0.0,1563.0,1.125,22.5,-114.84375,0.0,1.0,2.127685329,1.9285545897722223,0.0,-4294.0,0.125,210.0,114.84375,0.0,1.125,2.6879880060000003,4.389674732977289,0.0,1249.0,0.375,-142.5,-114.84375,0.0,1.25,4.799804196,3.031687206278559,0.0,0.5199999809265137,0.0,49.560001373291016,-0.093994140625,0.26416015625,1.11639404296875,34.310001373291016,0.0,132.0,0.49853515625,-1.367828369140625,Closing,0.0,0.0,0.0,0.0,0.0,0.0,0.0,0.0,
7.244347999999998,0.0,0.0,14451.0,0.0,7.5,0.0,0.0,0.5,3.7353511800000003,3.0159423668524887,0.0,1570.0,0.0,0.0,0.0,0.0,0.5,2.679443085,1.9285545897722223,0.0,-4289.0,0.0,0.0,0.0,0.0,0.125,3.017577816,4.389674732977289,0.0,1243.0,0.0,-30.0,0.0,0.0,0.5,4.460448762,3.031687206278559,0.0,0.7200000286102295,-0.03999999910593033,48.790000915527344,-0.02587890625,0.00323486328125,1.017333984375,34.310001373291016,0.0,-23.0,0.49920654296875,-1.3488006591796875,Closing,0.0,0.0,0.0,0.0,0.0,0.0,0.0,0.0,
7.404979000000051,0.0,0.0,14458.0,0.375,15.0,231.49606212973595,0.0,1.5,4.387206582,3.6991882499999984,0.0,1571.0,0.25,22.5,231.49606212973595,0.0,1.125,2.0129392470000003,1.2409424999999985,0.0,-4268.0,0.375,67.5,231.49606212973595,0.0,1.125,2.1679685280000003,3.7052999999999985,0.0,1235.0,0.375,-75.0,-231.49606212973595,0.0,1.375,0.29296872,3.7184999999999984,0.0,0.6700000166893005,-0.11999999731779099,48.31999969482422,0.00299072265625,-0.10247802734375,0.993408203125,34.310001373291016,0.0,-81.0,0.4978179931640625,-1.348602294921875,Closing,0.0,0.0,0.0,0.0,0.0,0.0,0.0,0.0,
7.568949000000022,0.0,0.0,14474.0,1.875,112.5,479.5275494456291,0.0,0.375,4.598388201000001,3.6991882499999984,0.0,1596.0,1.75,127.5,479.5275494456291,0.0,0.25,1.5783689790000002,1.2409424999999985,0.0,-4252.0,1.625,75.0,479.5275494456291,0.0,0.125,1.960449018,3.7052999999999985,0.0,1196.0,1.25,-157.5,-479.5275494456291,0.0,0.375,0.511474557,3.7184999999999984,0.0,0.2800000011920929,-0.20000000298023224,48.869998931884766,-0.0345458984375,-0.06109619140625,0.9351806640625,34.279998779296875,0.0,-70.0,0.4905242919921875,-1.349761962890625,Closing,0.0,0.0,0.0,0.0,0.0,0.0,0.0,0.0,
7.731595000000088,0.0,0.0,14494.0,1.125,112.5,165.35433009266853,0.0,0.25,4.576415547,3.6991882499999984,0.0,1636.0,1.0,127.5,165.35433009266853,0.0,0.25,1.485595551,1.2409424999999985,0.0,-4234.0,1.25,75.0,165.35433009266853,0.0,0.125,2.0056150290000003,3.7052999999999985,0.0,1180.0,0.75,-60.0,-165.35433009266853,0.0,0.25,0.5017089330000001,3.7184999999999984,0.0,0.4399999976158142,-0.2800000011920929,48.849998474121094,0.00146484375,0.11016845703125,1.06085205078125,34.279998779296875,0.0,81.0,0.479461669921875,-1.3482208251953125,Closing,0.0,0.0,0.0,0.0,0.0,0.0,0.0,0.0,
7.8909030000000495,0.0,0.0,14508.0,0.0,7.5,0.0,0.0,0.25,4.52880813,3.6991882499999984,0.0,1640.0,0.0,0.0,0.0,0.0,0.5,1.6845701400000002,1.2409424999999985,0.0,-4223.0,0.0,7.5,0.0,0.0,0.25,2.056884555,3.7052999999999985,0.0,1167.0,0.0,-15.0,0.0,0.0,0.25,0.399169881,3.7184999999999984,0.0,0.75,-0.25999999046325684,48.869998931884766,0.0030517578125,0.00262451171875,1.02532958984375,34.279998779296875,0.0,-3.0,0.4748687744140625,-1.3424224853515625,Closing,0.0,0.0,0.0,0.0,0.0,0.0,0.0,0.0,
8.04766100000008,0.0,0.0,14508.0,0.375,0.0,214.96063694357872,0.0,0.125,4.517821803,3.6991882499999984,0.0,1638.0,0.625,0.0,214.96063694357872,0.0,0.25,1.781005677,1.2409424999999985,0.0,-4223.0,0.375,0.0,214.96063694357872,0.0,0.0,2.056884555,3.7052999999999985,0.0,1167.0,0.375,0.0,-214.96063694357872,0.0,0.25,0.379638633,3.7184999999999984,0.0,0.6399999856948853,-0.30000001192092896,48.88999938964844,-0.0035400390625,0.01318359375,1.0201416015625,34.310001373291016,0.0,2.0,0.4743499755859375,-1.342529296875,Closing,0.0,0.0,0.0,0.0,0.0,0.0,0.0,0.0,
8.192810999999987,0.0,0.0,14510.0,2.0,22.5,446.45669907331467,0.0,0.125,4.514159694,3.6991882499999984,0.0,1648.0,2.5,52.5,446.45669907331467,0.0,0.125,1.7651365380000001,1.2409424999999985,0.0,-4218.0,2.0,37.5,446.45669907331467,0.0,0.0,2.056884555,3.7052999999999985,0.0,1158.0,1.75,-67.5,-446.45669907331467,0.0,0.125,0.380859336,3.7184999999999984,0.0,0.33000001311302185,-0.3100000023841858,48.900001525878906,-0.0133056640625,-0.02301025390625,0.9068603515625,34.310001373291016,0.0,-26.0,0.4725189208984375,-1.3435211181640625,Closing,0.0,0.0,0.0,0.0,0.0,0.0,0.0,0.0,
8.344079000000027,0.0,0.0,14525.0,2.75,135.0,446.45669907331467,0.0,0.125,4.50439407,3.6991882499999984,0.0,1673.0,4.0,142.5,446.45669907331467,0.0,0.125,1.7651365380000001,1.2409424999999985,0.0,-4204.0,3.125,142.5,446.45669907331467,0.0,0.0,2.0581052580000003,3.7052999999999985,0.0,1142.0,2.5,-150.0,-446.45669907331467,0.0,0.125,0.37597652400000003,3.7184999999999984,0.0,-0.12999999523162842,-0.3700000047683716,48.880001068115234,-0.00665283203125,-0.07275390625,1.04119873046875,34.310001373291016,0.0,-52.0,0.46484375,-1.3487396240234375,Closing,0.0,0.0,0.0,0.0,0.0,0.0,0.0,0.0,
8.492791000000084,0.0,0.0,14607.0,2.75,292.5,446.45669907331467,0.0,0.125,4.50439407,3.6991882499999984,0.0,1715.0,3.875,292.5,446.45669907331467,0.0,0.125,1.7651365380000001,1.2409424999999985,0.0,-4122.0,2.875,292.5,446.45669907331467,0.0,0.0,2.0581052580000003,3.7052999999999985,0.0,1055.0,2.375,-315.0,-446.45669907331467,0.0,0.125,0.37597652400000003,3.7184999999999984,0.0,-0.550000011920929,-0.3700000047683716,48.83000183105469,0.02105712890625,-0.0621337890625,1.005126953125,34.310001373291016,0.0,-21.0,0.448272705078125,-1.3606109619140625,Closing,0.0,0.0,0.0,0.0,0.0,0.0,0.0,0.0,
8.647974000000046,0.0,0.0,14672.0,2.375,405.0,446.45669907331467,0.0,0.125,4.5056147730000005,3.6991882499999984,0.0,1775.0,2.875,412.5,446.45669907331467,0.0,0.125,1.7651365380000001,1.2409424999999985,0.0,-4056.0,2.25,412.5,446.45669907331467,0.0,0.0,2.0581052580000003,3.7052999999999985,0.0,989.0,2.125,-412.5,-446.45669907331467,0.0,0.125,0.37597652400000003,3.7184999999999984,0.0,-0.75,-0.3799999952316284,48.66999816894531,-0.0084228515625,-0.04058837890625,1.0853271484375,34.290000915527344,0.0,-20.0,0.42779541015625,-1.3770294189453125,Closing,0.0,0.0,0.0,0.0,0.0,0.0,0.0,0.0,
8.796063000000082,0.0,0.0,14744.0,2.0,457.5,462.9921242594719,0.0,0.125,4.5031733670000005,3.6991882499999984,0.0,1922.0,2.375,472.5,462.9921242594719,0.0,0.125,1.7663572410000001,1.2409424999999985,0.0,-3981.0,2.0,480.0,462.9921242594719,0.0,0.0,2.0629880700000003,3.7052999999999985,0.0,915.0,1.625,-465.0,-462.9921242594719,0.0,0.125,0.37597652400000003,3.7184999999999984,0.0,-0.8199999928474426,-0.4099999964237213,48.5099983215332,-0.05615234375,-0.01800537109375,1.07208251953125,34.290000915527344,0.0,-34.0,0.41412353515625,-1.3792724609375,Closing,0.0,0.0,0.0,0.0,0.0,0.0,0.0,0.0,
8.95178800000006,0.0,0.0,14821.0,1.75,502.5,462.9921242594719,0.0,0.125,4.50439407,3.6991882499999984,0.0,2004.0,1.875,510.0,462.9921242594719,0.0,0.125,1.7663572410000001,1.2409424999999985,0.0,-3900.0,1.75,502.5,462.9921242594719,0.0,0.0,2.0678708820000002,3.7052999999999985,0.0,834.0,1.25,-510.0,-462.9921242594719,0.0,0.125,0.37597652400000003,3.7184999999999984,0.0,-0.6100000143051147,-0.3700000047683716,48.40999984741211,-0.0120849609375,0.158935546875,1.02239990234375,34.290000915527344,0.0,123.0,0.4153289794921875,-1.37860107421875,Closing,0.0,0.0,0.0,0.0,0.0,0.0,0.0,0.0,
9.101756000000051,0.0,0.0,14936.0,4.0,240.0,462.9921242594719,0.0,0.125,4.50439407,3.6991882499999984,0.0,2069.0,4.5,292.5,462.9921242594719,0.0,0.125,1.7663572410000001,1.2409424999999985,0.0,-3799.0,4.25,240.0,462.9921242594719,0.0,0.0,2.071532991,3.7052999999999985,0.0,743.0,4.0,-217.5,-462.9921242594719,0.0,0.125,0.37597652400000003,3.7184999999999984,0.0,1.059999942779541,-0.5699999928474426,49.11000061035156,-0.059814453125,0.04541015625,1.044189453125,34.290000915527344,0.0,-12.0,0.4362640380859375,-1.3618011474609375,Closing,0.0,0.0,0.0,0.0,0.0,0.0,0.0,0.0,
9.249796000000089,0.0,0.0,14938.0,10.25,15.0,462.9921242594719,0.0,0.125,4.5056147730000005,3.6991882499999984,0.0,2075.0,13.875,7.5,462.9921242594719,0.0,0.125,1.7663572410000001,1.2409424999999985,0.0,-3797.0,10.875,7.5,462.9921242594719,0.0,0.0,2.071532991,3.7052999999999985,0.0,742.0,11.0,-7.5,-462.9921242594719,0.0,0.125,0.37597652400000003,3.7184999999999984,0.0,0.800000011920929,-0.5,49.09000015258789,0.00665283203125,0.068359375,0.98529052734375,34.290000915527344,0.0,51.0,0.434722900390625,-1.34564208984375,Closing,0.0,0.0,0.0,0.0,0.0,0.0,0.0,0.0,
9.39648700000008,0.0,0.0,14939.0,15.875,0.0,462.9921242594719,0.0,0.125,4.5031733670000005,3.6991882499999984,0.0,2079.0,19.625,0.0,462.9921242594719,0.0,0.125,1.7651365380000001,1.2409424999999985,0.0,-3796.0,15.75,7.5,462.9921242594719,0.0,0.0,2.072753694,3.7052999999999985,0.0,740.0,14.75,0.0,-462.9921242594719,0.0,0.125,0.37597652400000003,3.7184999999999984,0.0,0.75,-0.5099999904632568,49.09000015258789,-0.00531005859375,-0.02850341796875,1.0335693359375,34.290000915527344,0.0,-29.0,0.4344024658203125,-1.345611572265625,Closing,0.0,0.0,0.0,0.0,0.0,0.0,0.0,0.0,
9.548400000000024,0.0,0.0,14933.0,0.0,-135.0,0.0,0.0,0.125,4.5031733670000005,3.6991882499999984,0.0,2063.0,0.0,-120.0,0.0,0.0,0.125,1.7663572410000001,1.2409424999999985,0.0,-3791.0,0.0,-30.0,0.0,0.0,0.0,2.086181427,3.7052999999999985,0.0,754.0,0.0,112.5,0.0,0.0,0.125,0.327148404,3.7184999999999984,0.0,1.3899999856948853,-0.6000000238418579,48.880001068115234,0.01776123046875,-0.21112060546875,1.11773681640625,34.2599983215332,0.0,-160.0,0.43450927734375,-1.34429931640625,Closing,0.0,0.0,0.0,0.0,0.0,0.0,0.0,0.0,
9.694425000000047,0.0,0.0,14885.0,0.0,-150.0,0.0,0.0,0.125,4.5031733670000005,3.6991882499999984,0.0,2031.0,0.0,-150.0,0.0,0.0,0.125,1.7602537260000002,1.2409424999999985,0.0,-3805.0,0.0,-22.5,0.0,0.0,0.0,2.086181427,3.7052999999999985,0.0,770.0,0.0,112.5,0.0,0.0,0.25,0.351562464,3.7184999999999984,0.0,0.8899999856948853,-0.5,48.7400016784668,-0.01483154296875,-0.1103515625,1.0093994140625,34.2599983215332,0.0,-98.0,0.4330596923828125,-1.345306396484375,Closing,0.0,0.0,0.0,0.0,0.0,0.0,0.0,0.0,
9.846530000000028,0.0,0.0,14883.0,0.0,0.0,0.0,0.0,0.125,4.50439407,3.6991882499999984,0.0,2023.0,0.0,0.0,0.0,0.0,0.125,1.7614744290000002,1.2409424999999985,0.0,-3806.0,0.0,0.0,0.0,0.0,0.0,2.08740213,3.7052999999999985,0.0,785.0,0.0,0.0,0.0,0.0,0.25,0.3662109,3.7184999999999984,0.0,0.5699999928474426,-0.5199999809265137,48.77000045776367,-0.02587890625,0.053955078125,1.05108642578125,34.2599983215332,0.0,21.0,0.421600341796875,-1.3506927490234375,Closing,0.0,0.0,0.0,0.0,0.0,0.0,0.0,0.0,
9.992287000000012,0.0,0.0,14883.0,0.0,0.0,0.0,0.0,0.125,4.50439407,3.6991882499999984,0.0,2023.0,0.0,0.0,0.0,0.0,0.125,1.7651365380000001,1.2409424999999985,0.0,-3806.0,0.0,0.0,0.0,0.0,0.0,2.086181427,3.7052999999999985,0.0,785.0,0.125,0.0,0.0,0.0,0.125,0.3662109,3.7184999999999984,0.0,0.5299999713897705,-0.5199999809265137,48.75,-0.00787353515625,0.0069580078125,1.01019287109375,34.2599983215332,0.0,0.0,0.4193115234375,-1.3506622314453125,Closing,0.0,0.0,0.0,0.0,0.0,0.0,0.0,0.0,
10.146320000000065,0.0,0.0,14883.0,0.0,0.0,0.0,0.0,0.125,4.5031733670000005,3.6991882499999984,0.0,2023.0,0.0,0.0,0.0,0.0,0.125,1.7663572410000001,1.2409424999999985,0.0,-3806.0,0.0,0.0,0.0,0.0,0.0,2.086181427,3.7052999999999985,0.0,785.0,0.0,0.0,0.0,0.0,0.125,0.3662109,3.7184999999999984,0.0,0.5,-0.5299999713897705,48.75,-0.00634765625,0.005615234375,1.01971435546875,34.31999969482422,0.0,0.0,0.4193115234375,-1.3506622314453125,Closing,0.0,0.0,0.0,0.0,0.0,0.0,0.0,0.0,
10.290541000000085,0.0,0.0,14883.0,0.0,0.0,0.0,0.0,0.125,4.50439407,3.6991882499999984,0.0,2023.0,0.0,0.0,0.0,0.0,0.125,1.7614744290000002,1.2409424999999985,0.0,-3806.0,0.0,0.0,0.0,0.0,0.0,2.086181427,3.7052999999999985,0.0,785.0,0.0,0.0,0.0,0.0,0.125,0.3662109,3.7184999999999984,0.0,0.4699999988079071,-0.5400000214576721,48.75,-0.01080322265625,0.00567626953125,1.01751708984375,34.31999969482422,0.0,-2.0,0.4193115234375,-1.3506622314453125,Closing,0.0,0.0,0.0,0.0,0.0,0.0,0.0,0.0,
10.431516999999992,0.0,0.0,14883.0,0.0,0.0,0.0,0.0,0.125,4.501952664,3.6991882499999984,0.0,2023.0,0.0,0.0,0.0,0.0,0.125,1.7663572410000001,1.2409424999999985,0.0,-3806.0,0.0,0.0,0.0,0.0,0.0,2.086181427,3.7052999999999985,0.0,785.0,0.0,0.0,0.0,0.0,0.125,0.3662109,3.7184999999999984,0.0,0.44999998807907104,-0.5400000214576721,48.75,-0.0115966796875,0.00543212890625,1.02099609375,34.31999969482422,0.0,-3.0,0.4193115234375,-1.3506622314453125,Closing,0.0,0.0,0.0,0.0,0.0,0.0,0.0,0.0,
10.577418999999994,0.0,0.0,14883.0,0.0,0.0,0.0,0.0,0.125,4.5031733670000005,3.6991882499999984,0.0,2023.0,0.0,0.0,0.0,0.0,0.125,1.7663572410000001,1.2409424999999985,0.0,-3806.0,0.0,0.0,0.0,0.0,0.0,2.086181427,3.7052999999999985,0.0,785.0,0.0,0.0,0.0,0.0,0.125,0.3662109,3.7184999999999984,0.0,0.4300000071525574,-0.550000011920929,48.7599983215332,-0.009765625,0.00347900390625,1.0142822265625,34.290000915527344,0.0,-3.0,0.4193115234375,-1.3506622314453125,Closing,0.0,0.0,0.0,0.0,0.0,0.0,0.0,0.0,
10.728771999999998,0.0,0.0,14850.0,6.625,-292.5,-1148.4375,0.0,0.125,4.50439407,3.6991882500000015,0.0,1968.0,7.875,-307.5,-1148.4375,0.0,0.125,1.7614744290000002,1.2409425000000012,0.0,-3811.0,9.875,-75.0,-1148.4375,0.0,0.0,2.1203611110000002,3.7053000000000016,0.0,820.0,6.125,300.0,1148.4375,0.0,0.125,0.367431603,3.7185000000000015,0.0,1.559999942779541,-0.7099999785423279,48.66999816894531,-0.0118408203125,0.3968505859375,1.23046875,34.290000915527344,0.0,275.0,0.426116943359375,-1.342254638671875,Closing,0.0,0.0,0.0,0.0,0.0,0.0,0.0,0.0,
10.877599000000046,0.0,0.0,14814.0,0.0,-142.5,0.0,0.0,0.125,4.509276882,3.6991882500000015,0.0,1939.0,0.0,-165.0,0.0,0.0,0.125,1.7614744290000002,1.2409425000000012,0.0,-3842.0,0.0,-120.0,0.0,0.0,0.0,2.1154782990000003,3.7053000000000016,0.0,858.0,0.125,172.5,0.0,0.0,0.125,0.404052693,3.7185000000000015,0.0,1.3600000143051147,-0.5099999904632568,48.709999084472656,0.01739501953125,-0.22296142578125,1.04541015625,34.290000915527344,0.0,-168.0,0.4312286376953125,-1.335052490234375,Closing,0.0,0.0,0.0,0.0,0.0,0.0,0.0,0.0,
11.029858000000008,0.0,0.0,14758.0,0.0,-142.5,0.0,0.0,0.125,4.509276882,3.6991882500000015,0.0,1903.0,0.0,-127.5,0.0,0.0,0.125,1.7602537260000002,1.2409425000000012,0.0,-3863.0,0.0,-60.0,0.0,0.0,0.0,2.1142575960000003,3.7053000000000016,0.0,914.0,0.125,157.5,0.0,0.0,0.25,0.424804644,3.7185000000000015,0.0,0.6499999761581421,-0.5699999928474426,48.70000076293945,-0.0115966796875,-0.07940673828125,1.202392578125,34.290000915527344,0.0,-69.0,0.41546630859375,-1.347015380859375,Closing,0.0,0.0,0.0,0.0,0.0,0.0,0.0,0.0,
11.175964000000036,0.0,0.0,14751.0,0.0,-30.0,0.0,0.0,0.125,4.508056179,3.6991882500000015,0.0,1886.0,0.0,-22.5,0.0,0.0,0.125,1.7663572410000001,1.2409425000000012,0.0,-3864.0,0.0,-7.5,0.0,0.0,0.0,2.1154782990000003,3.7053000000000016,0.0,916.0,0.125,7.5,0.0,0.0,0.25,0.424804644,3.7185000000000015,0.0,0.23000000417232513,-0.5400000214576721,48.68000030517578,-0.01513671875,-0.00286865234375,1.04669189453125,34.27000045776367,0.0,-8.0,0.398834228515625,-1.367279052734375,Closing,0.0,0.0,0.0,0.0,0.0,0.0,0.0,0.0,
11.322097999999999,0.0,0.0,14751.0,0.0,0.0,0.0,0.0,0.125,4.509276882,3.6991882500000015,0.0,1886.0,0.0,0.0,0.0,0.0,0.125,1.7663572410000001,1.2409425000000012,0.0,-3864.0,0.0,0.0,0.0,0.0,0.0,2.1154782990000003,3.7053000000000016,0.0,916.0,0.0,0.0,0.0,0.0,0.25,0.424804644,3.7185000000000015,0.0,0.3100000023841858,-0.5400000214576721,48.68000030517578,-0.027099609375,0.02447509765625,0.99859619140625,34.27000045776367,0.0,2.0,0.398956298828125,-1.378021240234375,Closing,0.0,0.0,0.0,0.0,0.0,0.0,0.0,0.0,
11.476119000000065,0.0,0.0,14759.0,5.375,172.5,975.5905240774155,0.0,0.125,4.4958491490000005,3.6991882499999984,0.0,1910.0,7.5,165.0,975.5905240774155,0.0,0.125,1.7626951320000002,1.2409424999999985,0.0,-3863.0,6.0,22.5,975.5905240774155,0.0,0.0,2.1105954870000003,3.7052999999999985,0.0,904.0,5.125,-135.0,-975.5905240774155,0.0,0.25,0.42846675300000003,3.7184999999999984,0.0,-0.38999998569488525,-0.6100000143051147,48.709999084472656,-0.10491943359375,-0.17193603515625,1.5294189453125,34.27000045776367,0.0,-179.0,0.3952789306640625,-1.381591796875,Closing,0.0,0.0,0.0,0.0,0.0,0.0,0.0,0.0,
11.627331000000005,0.0,0.0,14812.0,0.0,97.5,0.0,0.0,0.125,4.499511258,3.6991882499999984,0.0,1935.0,0.0,105.0,0.0,0.0,0.125,1.7663572410000001,1.2409424999999985,0.0,-3833.0,0.0,90.0,0.0,0.0,0.0,2.105712675,3.7052999999999985,0.0,850.0,0.0,-127.5,0.0,0.0,0.25,0.404052693,3.7184999999999984,0.0,-0.3199999928474426,-0.5299999713897705,48.720001220703125,-0.05548095703125,0.09588623046875,1.09075927734375,34.27000045776367,0.0,46.0,0.37994384765625,-1.3948822021484375,Closing,0.0,0.0,0.0,0.0,0.0,0.0,0.0,0.0,
11.771483000000007,0.0,0.0,14839.0,0.0,112.5,0.0,0.0,0.125,4.4982905550000005,3.6991882499999984,0.0,1967.0,0.0,120.0,0.0,0.0,0.125,1.7614744290000002,1.2409424999999985,0.0,-3815.0,0.0,105.0,0.0,0.0,0.0,2.105712675,3.7052999999999985,0.0,827.0,0.0,-135.0,0.0,0.0,0.25,0.39062496,3.7184999999999984,0.0,0.36000001430511475,-0.5699999928474426,48.66999816894531,-0.0072021484375,0.09405517578125,1.10992431640625,34.27000045776367,0.0,67.0,0.3732147216796875,-1.4002532958984375,Closing,0.0,0.0,0.0,0.0,0.0,0.0,0.0,0.0,
11.928092999999993,0.0,0.0,14844.0,0.0,0.0,0.0,0.0,0.125,4.4982905550000005,3.6991882499999984,0.0,1979.0,0.0,0.0,0.0,0.0,0.125,1.7651365380000001,1.2409424999999985,0.0,-3814.0,0.0,0.0,0.0,0.0,0.0,2.105712675,3.7052999999999985,0.0,823.0,0.0,-7.5,0.0,0.0,0.125,0.39550777200000004,3.7184999999999984,0.0,0.6299999952316284,-0.5600000023841858,48.630001068115234,0.02374267578125,-0.00140380859375,1.00872802734375,34.27000045776367,0.0,12.0,0.373992919921875,-1.397247314453125,Closing,0.0,0.0,0.0,0.0,0.0,0.0,0.0,0.0,
12.080092000000063,0.0,0.0,14844.0,0.0,0.0,0.0,0.0,0.125,4.4982905550000005,3.6991882499999984,0.0,1979.0,0.0,0.0,0.0,0.0,0.125,1.7614744290000002,1.2409424999999985,0.0,-3814.0,0.0,0.0,0.0,0.0,0.0,2.1105954870000003,3.7052999999999985,0.0,823.0,0.0,0.0,0.0,0.0,0.125,0.39550777200000004,3.7184999999999984,0.0,0.47999998927116394,-0.5600000023841858,48.63999938964844,-0.00543212890625,-0.01416015625,1.00506591796875,34.279998779296875,0.0,-13.0,0.3727874755859375,-1.396087646484375,Closing,0.0,0.0,0.0,0.0,0.0,0.0,0.0,0.0,
12.228543999999994,0.0,0.0,14844.0,0.0,0.0,0.0,0.0,0.125,4.4982905550000005,3.6991882499999984,0.0,1979.0,0.0,0.0,0.0,0.0,0.125,1.7663572410000001,1.2409424999999985,0.0,-3814.0,0.0,0.0,0.0,0.0,0.0,2.105712675,3.7052999999999985,0.0,823.0,0.0,0.0,0.0,0.0,0.125,0.39428706900000005,3.7184999999999984,0.0,0.4399999976158142,-0.5799999833106995,48.65999984741211,-0.00634765625,0.0174560546875,1.0267333984375,34.279998779296875,0.0,9.0,0.3727874755859375,-1.39642333984375,Closing,0.0,0.0,0.0,0.0,0.0,0.0,0.0,0.0,
12.369800000000046,0.0,0.0,14844.0,0.0,0.0,0.0,0.0,0.125,4.499511258,3.6991882499999984,0.0,1979.0,0.0,0.0,0.0,0.0,0.125,1.7651365380000001,1.2409424999999985,0.0,-3814.0,0.0,0.0,0.0,0.0,0.0,2.1105954870000003,3.7052999999999985,0.0,823.0,0.125,0.0,0.0,0.0,0.125,0.39428706900000005,3.7184999999999984,0.0,0.4000000059604645,-0.5699999928474426,48.650001525878906,-0.00439453125,0.0064697265625,1.0140380859375,34.279998779296875,0.0,3.0,0.3727874755859375,-1.39642333984375,Closing,0.0,0.0,0.0,0.0,0.0,0.0,0.0,0.0,
12.51628700000001,0.0,0.0,14844.0,0.0,0.0,0.0,0.0,0.125,4.497069852,3.6991882499999984,0.0,1979.0,0.0,0.0,0.0,0.0,0.125,1.7602537260000002,1.2409424999999985,0.0,-3814.0,0.0,0.0,0.0,0.0,0.0,2.105712675,3.7052999999999985,0.0,823.0,0.0,0.0,0.0,0.0,0.125,0.39428706900000005,3.7184999999999984,0.0,0.38999998569488525,-0.5699999928474426,48.65999984741211,-0.01324462890625,-6.7138671875E-4,1.01922607421875,34.279998779296875,0.0,-7.0,0.3727874755859375,-1.39642333984375,Closing,0.0,0.0,0.0,0.0,0.0,0.0,0.0,0.0,
12.673358000000007,0.0,0.0,14844.0,0.0,0.0,0.0,0.0,0.125,4.4982905550000005,3.6991882499999984,0.0,1979.0,0.0,0.0,0.0,0.0,0.125,1.7614744290000002,1.2409424999999985,0.0,-3814.0,0.0,0.0,0.0,0.0,0.0,2.105712675,3.7052999999999985,0.0,823.0,0.0,0.0,0.0,0.0,0.125,0.39428706900000005,3.7184999999999984,0.0,0.3799999952316284,-0.5799999833106995,48.650001525878906,-0.0089111328125,-0.001708984375,1.01580810546875,34.27000045776367,0.0,-5.0,0.3727874755859375,-1.39642333984375,Closing,0.0,0.0,0.0,0.0,0.0,0.0,0.0,0.0,
12.83046100000001,0.0,0.0,14844.0,0.0,0.0,0.0,0.0,0.125,4.499511258,3.6991882499999984,0.0,1979.0,0.0,0.0,0.0,0.0,0.125,1.7651365380000001,1.2409424999999985,0.0,-3814.0,0.0,0.0,0.0,0.0,0.0,2.1105954870000003,3.7052999999999985,0.0,823.0,0.0,0.0,0.0,0.0,0.125,0.39428706900000005,3.7184999999999984,0.0,0.3799999952316284,-0.5799999833106995,48.65999984741211,-0.0078125,9.1552734375E-4,1.0216064453125,34.27000045776367,0.0,-2.0,0.3727874755859375,-1.39642333984375,Closing,0.0,0.0,0.0,0.0,0.0,0.0,0.0,0.0,
12.973258000000031,0.0,0.0,14844.0,0.0,0.0,0.0,0.0,0.125,4.497069852,3.6991882499999984,0.0,1979.0,0.0,0.0,0.0,0.0,0.125,1.7651365380000001,1.2409424999999985,0.0,-3814.0,0.0,0.0,0.0,0.0,0.0,2.1105954870000003,3.7052999999999985,0.0,823.0,0.125,0.0,0.0,0.0,0.125,0.39428706900000005,3.7184999999999984,0.0,0.36000001430511475,-0.5799999833106995,48.66999816894531,-0.01080322265625,0.0054931640625,1.01409912109375,34.27000045776367,0.0,-1.0,0.3727874755859375,-1.39642333984375,Closing,0.0,0.0,0.0,0.0,0.0,0.0,0.0,0.0,
13.122773000000045,0.0,0.0,14844.0,0.0,0.0,0.0,0.0,0.125,4.499511258,3.6991882499999984,0.0,1979.0,0.0,0.0,0.0,0.0,0.125,1.7663572410000001,1.2409424999999985,0.0,-3814.0,0.0,0.0,0.0,0.0,0.0,2.105712675,3.7052999999999985,0.0,823.0,0.0,0.0,0.0,0.0,0.125,0.39428706900000005,3.7184999999999984,0.0,0.36000001430511475,-0.5799999833106995,48.66999816894531,-0.01141357421875,0.0084228515625,1.0181884765625,34.279998779296875,0.0,0.0,0.3727874755859375,-1.39642333984375,Closing,0.0,0.0,0.0,0.0,0.0,0.0,0.0,0.0,
13.268771000000067,0.0,0.0,14844.0,0.0,0.0,0.0,0.0,0.125,4.4982905550000005,3.6991882499999984,0.0,1979.0,0.0,0.0,0.0,0.0,0.125,1.7663572410000001,1.2409424999999985,0.0,-3814.0,0.0,0.0,0.0,0.0,0.0,2.1105954870000003,3.7052999999999985,0.0,823.0,0.125,0.0,0.0,0.0,0.125,0.39428706900000005,3.7184999999999984,0.0,0.3400000035762787,-0.5799999833106995,48.66999816894531,-0.00909423828125,0.00457763671875,1.013671875,34.279998779296875,0.0,0.0,0.3727874755859375,-1.39642333984375,Closing,0.0,0.0,0.0,0.0,0.0,0.0,0.0,0.0,
13.415572000000044,0.0,0.0,14844.0,0.0,0.0,0.0,0.0,0.125,4.499511258,3.6991882499999984,0.0,1979.0,0.0,0.0,0.0,0.0,0.125,1.7602537260000002,1.2409424999999985,0.0,-3814.0,0.0,0.0,0.0,0.0,0.0,2.1105954870000003,3.7052999999999985,0.0,823.0,0.0,0.0,0.0,0.0,0.125,0.39550777200000004,3.7184999999999984,0.0,0.33000001311302185,-0.5899999737739563,48.66999816894531,-0.0128173828125,0.0052490234375,1.01593017578125,34.279998779296875,0.0,-2.0,0.3727874755859375,-1.39642333984375,Closing,0.0,0.0,0.0,0.0,0.0,0.0,0.0,0.0,
13.566810000000055,0.0,0.0,14844.0,0.0,0.0,0.0,0.0,0.125,4.4982905550000005,3.6991882499999984,0.0,1979.0,0.0,0.0,0.0,0.0,0.125,1.7663572410000001,1.2409424999999985,0.0,-3814.0,0.0,0.0,0.0,0.0,0.0,2.1118161900000003,3.7052999999999985,0.0,823.0,0.0,0.0,0.0,0.0,0.125,0.39550777200000004,3.7184999999999984,0.0,0.3199999928474426,-0.5899999737739563,48.66999816894531,-0.0106201171875,0.00152587890625,1.0206298828125,34.279998779296875,0.0,-3.0,0.3727874755859375,-1.39642333984375,Closing,0.0,0.0,0.0,0.0,0.0,0.0,0.0,0.0,
13.713064000000013,0.0,0.0,14844.0,0.0,0.0,0.0,0.0,0.125,4.499511258,3.6991882499999984,0.0,1979.0,0.0,0.0,0.0,0.0,0.125,1.7651365380000001,1.2409424999999985,0.0,-3814.0,0.0,0.0,0.0,0.0,0.0,2.1105954870000003,3.7052999999999985,0.0,823.0,0.0,0.0,0.0,0.0,0.125,0.39550777200000004,3.7184999999999984,0.0,0.3100000023841858,-0.6000000238418579,48.66999816894531,-0.0123291015625,0.0072021484375,1.02099609375,34.290000915527344,0.0,0.0,0.3727874755859375,-1.39642333984375,Closing,0.0,0.0,0.0,0.0,0.0,0.0,0.0,0.0,
13.876844000000041,0.0,0.0,14844.0,0.0,0.0,0.0,0.0,0.125,4.4982905550000005,3.6991882499999984,0.0,1979.0,0.0,0.0,0.0,0.0,0.125,1.7663572410000001,1.2409424999999985,0.0,-3814.0,0.0,0.0,0.0,0.0,0.0,2.104491972,3.7052999999999985,0.0,823.0,0.0,0.0,0.0,0.0,0.125,0.39428706900000005,3.7184999999999984,0.0,0.30000001192092896,-0.6000000238418579,48.66999816894531,-0.009521484375,0.00872802734375,1.02386474609375,34.290000915527344,0.0,3.0,0.3727874755859375,-1.39642333984375,Closing,0.0,0.0,0.0,0.0,0.0,0.0,0.0,0.0,
14.039014000000083,0.0,0.0,14844.0,0.0,0.0,0.0,0.0,0.125,4.4982905550000005,3.6991882499999984,0.0,1979.0,0.0,0.0,0.0,0.0,0.125,1.7651365380000001,1.2409424999999985,0.0,-3814.0,0.0,0.0,0.0,0.0,0.0,2.105712675,3.7052999999999985,0.0,823.0,0.0,0.0,0.0,0.0,0.125,0.39428706900000005,3.7184999999999984,0.0,0.30000001192092896,-0.6000000238418579,48.66999816894531,-0.01220703125,0.0032958984375,1.01312255859375,34.290000915527344,0.0,-2.0,0.3727874755859375,-1.39642333984375,Closing,0.0,0.0,0.0,0.0,0.0,0.0,0.0,0.0,
14.197710000000079,0.0,0.0,14844.0,0.0,0.0,0.0,0.0,0.125,4.499511258,3.6991882499999984,0.0,1979.0,0.0,0.0,0.0,0.0,0.125,1.7663572410000001,1.2409424999999985,0.0,-3814.0,0.0,0.0,0.0,0.0,0.0,2.1105954870000003,3.7052999999999985,0.0,823.0,0.0,0.0,0.0,0.0,0.125,0.39428706900000005,3.7184999999999984,0.0,0.28999999165534973,-0.6000000238418579,48.66999816894531,-0.0137939453125,0.00628662109375,1.01849365234375,34.27000045776367,0.0,-1.0,0.3727874755859375,-1.39642333984375,Closing,0.0,0.0,0.0,0.0,0.0,0.0,0.0,0.0,
14.355949000000022,0.0,0.0,14844.0,0.0,0.0,0.0,0.0,0.125,4.4982905550000005,3.6991882499999984,0.0,1979.0,0.0,0.0,0.0,0.0,0.125,1.7602537260000002,1.2409424999999985,0.0,-3814.0,0.0,0.0,0.0,0.0,0.0,2.105712675,3.7052999999999985,0.0,823.0,0.125,0.0,0.0,0.0,0.125,0.39550777200000004,3.7184999999999984,0.0,0.28999999165534973,-0.6000000238418579,48.66999816894531,-0.00848388671875,0.00347900390625,1.01715087890625,34.27000045776367,0.0,0.0,0.3727874755859375,-1.39642333984375,Closing,0.0,0.0,0.0,0.0,0.0,0.0,0.0,0.0,
14.510886000000056,0.0,0.0,14844.0,0.0,0.0,0.0,0.0,0.125,4.4982905550000005,3.6991882499999984,0.0,1979.0,0.0,0.0,0.0,0.0,0.125,1.7663572410000001,1.2409424999999985,0.0,-3814.0,0.0,0.0,0.0,0.0,0.0,2.1105954870000003,3.7052999999999985,0.0,823.0,0.125,0.0,0.0,0.0,0.125,0.39428706900000005,3.7184999999999984,0.0,0.2800000011920929,-0.6100000143051147,48.66999816894531,-0.011962890625,0.00390625,1.016357421875,34.27000045776367,0.0,-1.0,0.3727874755859375,-1.39642333984375,Closing,0.0,0.0,0.0,0.0,0.0,0.0,0.0,0.0,
14.667538000000059,0.0,0.0,14844.0,0.0,0.0,0.0,0.0,0.125,4.4982905550000005,3.6991882499999984,0.0,1979.0,0.0,0.0,0.0,0.0,0.125,1.7651365380000001,1.2409424999999985,0.0,-3814.0,0.0,0.0,0.0,0.0,0.0,2.105712675,3.7052999999999985,0.0,823.0,0.0,0.0,0.0,0.0,0.125,0.39428706900000005,3.7184999999999984,0.0,0.2800000011920929,-0.6100000143051147,48.66999816894531,-0.01080322265625,0.00616455078125,1.0194091796875,34.279998779296875,0.0,0.0,0.3727874755859375,-1.39642333984375,Closing,0.0,0.0,0.0,0.0,0.0,0.0,0.0,0.0,
14.822389000000083,0.0,0.0,14844.0,0.0,0.0,0.0,0.0,0.125,4.4982905550000005,3.6991882499999984,0.0,1979.0,0.0,0.0,0.0,0.0,0.125,1.7651365380000001,1.2409424999999985,0.0,-3814.0,0.0,0.0,0.0,0.0,0.0,2.1118161900000003,3.7052999999999985,0.0,823.0,0.125,0.0,0.0,0.0,0.125,0.39428706900000005,3.7184999999999984,0.0,0.27000001072883606,-0.6200000047683716,48.66999816894531,-0.00653076171875,0.00323486328125,1.01995849609375,34.279998779296875,0.0,1.0,0.3727874755859375,-1.39642333984375,Closing,0.0,0.0,0.0,0.0,0.0,0.0,0.0,0.0,
14.975880000000005,0.0,0.0,14844.0,0.0,0.0,0.0,0.0,0.125,4.4982905550000005,3.6991882499999984,0.0,1979.0,0.0,0.0,0.0,0.0,0.125,1.7663572410000001,1.2409424999999985,0.0,-3814.0,0.0,0.0,0.0,0.0,0.0,2.109374784,3.7052999999999985,0.0,823.0,0.125,0.0,0.0,0.0,0.125,0.39428706900000005,3.7184999999999984,0.0,0.27000001072883606,-0.6100000143051147,48.66999816894531,-0.009033203125,0.00390625,1.01507568359375,34.279998779296875,0.0,0.0,0.3727874755859375,-1.39642333984375,Closing,0.0,0.0,0.0,0.0,0.0,0.0,0.0,0.0,
15.150697000000044,0.0,0.0,14844.0,0.0,0.0,0.0,0.0,0.125,4.4982905550000005,3.6991882499999984,0.0,1979.0,0.0,0.0,0.0,0.0,0.125,1.7651365380000001,1.2409424999999985,0.0,-3814.0,0.0,0.0,0.0,0.0,0.0,2.105712675,3.7052999999999985,0.0,823.0,0.0,0.0,0.0,0.0,0.125,0.39428706900000005,3.7184999999999984,0.0,0.25999999046325684,-0.6100000143051147,48.66999816894531,-0.0125732421875,0.00335693359375,1.0196533203125,34.29999923706055,0.0,-2.0,0.3727874755859375,-1.39642333984375,Closing,0.0,0.0,0.0,0.0,0.0,0.0,0.0,0.0,
15.308962000000058,0.0,0.0,14844.0,0.0,0.0,0.0,0.0,0.125,4.4982905550000005,3.6991882499999984,0.0,1979.0,0.0,0.0,0.0,0.0,0.125,1.7614744290000002,1.2409424999999985,0.0,-3814.0,0.0,0.0,0.0,0.0,0.0,2.1118161900000003,3.7052999999999985,0.0,823.0,0.125,0.0,0.0,0.0,0.125,0.39428706900000005,3.7184999999999984,0.0,0.25999999046325684,-0.6100000143051147,48.66999816894531,-0.00885009765625,0.00360107421875,1.02215576171875,34.29999923706055,0.0,0.0,0.3727874755859375,-1.39642333984375,Closing,0.0,0.0,0.0,0.0,0.0,0.0,0.0,0.0,
15.45406700000004,0.0,0.0,14844.0,0.0,0.0,0.0,0.0,0.125,4.499511258,3.6991882499999984,0.0,1979.0,0.0,0.0,0.0,0.0,0.125,1.7651365380000001,1.2409424999999985,0.0,-3814.0,0.0,0.0,0.0,0.0,0.0,2.109374784,3.7052999999999985,0.0,823.0,0.0,0.0,0.0,0.0,0.125,0.39550777200000004,3.7184999999999984,0.0,0.25999999046325684,-0.6100000143051147,48.66999816894531,-0.010498046875,0.00347900390625,1.02191162109375,34.29999923706055,0.0,0.0,0.3727874755859375,-1.39642333984375,Closing,0.0,0.0,0.0,0.0,0.0,0.0,0.0,0.0,
15.597733000000007,0.0,0.0,14844.0,0.0,0.0,0.0,0.0,0.125,4.4982905550000005,3.6991882499999984,0.0,1979.0,0.0,0.0,0.0,0.0,0.125,1.7651365380000001,1.2409424999999985,0.0,-3814.0,0.0,0.0,0.0,0.0,0.0,2.1105954870000003,3.7052999999999985,0.0,823.0,0.0,0.0,0.0,0.0,0.125,0.39428706900000005,3.7184999999999984,0.0,0.25999999046325684,-0.6100000143051147,48.68000030517578,-0.00994873046875,0.006591796875,1.02191162109375,34.29999923706055,0.0,2.0,0.3727874755859375,-1.39642333984375,Closing,0.0,0.0,0.0,0.0,0.0,0.0,0.0,0.0,
15.747616000000038,0.0,0.0,14844.0,0.0,0.0,0.0,0.0,0.125,4.499511258,3.6991882499999984,0.0,1979.0,0.0,0.0,0.0,0.0,0.125,1.7663572410000001,1.2409424999999985,0.0,-3814.0,0.0,0.0,0.0,0.0,0.0,2.105712675,3.7052999999999985,0.0,823.0,0.125,0.0,0.0,0.0,0.125,0.39428706900000005,3.7184999999999984,0.0,0.25999999046325684,-0.6100000143051147,48.68000030517578,-0.00970458984375,0.00390625,1.021240234375,34.27000045776367,0.0,0.0,0.3727874755859375,-1.39642333984375,Closing,0.0,0.0,0.0,0.0,0.0,0.0,0.0,0.0,
15.89096100000001,0.0,0.0,14844.0,0.0,0.0,0.0,0.0,0.125,4.4982905550000005,3.6991882499999984,0.0,1979.0,0.0,0.0,0.0,0.0,0.125,1.7614744290000002,1.2409424999999985,0.0,-3814.0,0.0,0.0,0.0,0.0,0.0,2.1105954870000003,3.7052999999999985,0.0,823.0,0.0,0.0,0.0,0.0,0.125,0.39428706900000005,3.7184999999999984,0.0,0.25999999046325684,-0.6100000143051147,48.68000030517578,-0.00732421875,0.00592041015625,1.02215576171875,34.27000045776367,0.0,3.0,0.3727874755859375,-1.39642333984375,Closing,0.0,0.0,0.0,0.0,0.0,0.0,0.0,0.0,
16.032845000000087,0.0,0.0,14844.0,0.0,0.0,0.0,0.0,0.125,4.497069852,3.6991882499999984,0.0,1979.0,0.0,0.0,0.0,0.0,0.125,1.7651365380000001,1.2409424999999985,0.0,-3814.0,0.0,0.0,0.0,0.0,0.0,2.1105954870000003,3.7052999999999985,0.0,823.0,0.125,0.0,0.0,0.0,0.125,0.39428706900000005,3.7184999999999984,0.0,0.25999999046325684,-0.6100000143051147,48.68000030517578,-0.0096435546875,0.0072021484375,1.01641845703125,34.27000045776367,0.0,2.0,0.3727874755859375,-1.39642333984375,Closing,0.0,0.0,0.0,0.0,0.0,0.0,0.0,0.0,
16.17301600000006,0.0,0.0,14844.0,0.0,0.0,0.0,0.0,0.125,4.499511258,3.6991882499999984,0.0,1979.0,0.0,0.0,0.0,0.0,0.125,1.7663572410000001,1.2409424999999985,0.0,-3814.0,0.0,0.0,0.0,0.0,0.0,2.105712675,3.7052999999999985,0.0,823.0,0.125,0.0,0.0,0.0,0.125,0.39550777200000004,3.7184999999999984,0.0,0.25999999046325684,-0.6100000143051147,48.68000030517578,-0.010986328125,0.003662109375,1.0216064453125,34.279998779296875,0.0,0.0,0.3727874755859375,-1.39642333984375,Closing,0.0,0.0,0.0,0.0,0.0,0.0,0.0,0.0,
16.323625,0.0,0.0,14844.0,0.0,0.0,0.0,0.0,0.125,4.4982905550000005,3.6991882499999984,0.0,1979.0,0.0,0.0,0.0,0.0,0.125,1.7663572410000001,1.2409424999999985,0.0,-3814.0,0.0,0.0,0.0,0.0,0.0,2.1105954870000003,3.7052999999999985,0.0,823.0,0.0,0.0,0.0,0.0,0.125,0.39428706900000005,3.7184999999999984,0.0,0.25,-0.6200000047683716,48.689998626708984,-0.00848388671875,0.00244140625,1.015625,34.279998779296875,0.0,0.0,0.3727874755859375,-1.39642333984375,Closing,0.0,0.0,0.0,0.0,0.0,0.0,0.0,0.0,
16.47395000000007,0.0,0.0,14844.0,0.0,0.0,0.0,0.0,0.125,4.499511258,3.6991882499999984,0.0,1979.0,0.0,0.0,0.0,0.0,0.125,1.7614744290000002,1.2409424999999985,0.0,-3814.0,0.0,0.0,0.0,0.0,0.0,2.109374784,3.7052999999999985,0.0,823.0,0.0,0.0,0.0,0.0,0.125,0.39428706900000005,3.7184999999999984,0.0,0.25,-0.6100000143051147,48.689998626708984,-0.01055908203125,0.006591796875,1.02239990234375,34.279998779296875,0.0,1.0,0.3727874755859375,-1.39642333984375,Closing,0.0,0.0,0.0,0.0,0.0,0.0,0.0,0.0,
16.622428000000074,0.0,0.0,14844.0,0.0,0.0,0.0,0.0,0.125,4.4982905550000005,3.6991882499999984,0.0,1979.0,0.0,0.0,0.0,0.0,0.125,1.7614744290000002,1.2409424999999985,0.0,-3814.0,0.0,0.0,0.0,0.0,0.0,2.1105954870000003,3.7052999999999985,0.0,823.0,0.0,0.0,0.0,0.0,0.125,0.39550777200000004,3.7184999999999984,0.0,0.25,-0.6100000143051147,48.689998626708984,-0.0111083984375,0.0040283203125,1.01763916015625,34.279998779296875,0.0,0.0,0.3727874755859375,-1.39642333984375,Closing,0.0,0.0,0.0,0.0,0.0,0.0,0.0,0.0,
16.76970200000005,0.0,0.0,14844.0,0.0,0.0,0.0,0.0,0.125,4.4982905550000005,3.6991882499999984,0.0,1979.0,0.0,0.0,0.0,0.0,0.125,1.7651365380000001,1.2409424999999985,0.0,-3814.0,0.0,0.0,0.0,0.0,0.0,2.1105954870000003,3.7052999999999985,0.0,823.0,0.0,0.0,0.0,0.0,0.125,0.39428706900000005,3.7184999999999984,0.0,0.25,-0.6000000238418579,48.689998626708984,-0.0111083984375,0.00506591796875,1.01666259765625,34.2599983215332,0.0,0.0,0.3727874755859375,-1.39642333984375,Closing,0.0,0.0,0.0,0.0,0.0,0.0,0.0,0.0,
