Time,ClimberA1,ClimberA2,FRpos,FRCurrent,FRspeed,FRsetpoint,FRApos,FRACurrent,FREncpos,FREncSetpoint,FREncSpeed,FLpos,FLCurrent,FLspeed,FLsetpoint,FLApos,FLACurrent,FLEncpos,FLEncSetpoint,FLEncSpeed,BRpos,BRCurrent,BRspeed,BRsetpoint,BRApos,BRACurrent,BREncpos,BREncSetpoint,BREncSpeed,BLpos,BLCurrent,BLspeed,BLsetpoint,BLApos,BLACurrent,BLEncpos,BLEncSetpoint,BLEncSpeed,navx_Pitch,navx_Roll,navx_Yaw,navx_XAcc,navx_YAcc,navx_ZAcc,navx_Temp,navx_Bar,navx_Alt,navx_XDis,navx_YDis,GearPlacerState,ShootOutputV,ShootOutputCurrent,ShootEncPos,ShootEncVelocity,ShootSpeed,ShootSetpoint,CarouselSetpoint,CarouselCurrent,
0.12365500000002794,0.0,0.0,9461.0,5.625,37.5,840.0,0.0,0.125,0.8544921000000001,0.07233966460884941,0.0,-10474.0,7.75,-97.5,-840.0,0.0,0.0,0.520019478,0.07280194316864012,0.0,7835.0,9.125,22.5,840.0,0.0,0.0,3.352050438,0.0724591832478841,0.0,-6.0,7.0,-97.5,-840.0,0.0,0.125,1.644286941,0.07271731652153862,0.0,-0.3799999952316284,-0.1899999976158142,0.3400000035762787,0.00714111328125,-0.046875,1.1033935546875,25.860000610351562,0.0,10.0,-0.3525238037109375,-0.2575531005859375,Waiting,0.0,0.0,0.0,0.0,0.0,0.0,0.0,0.0,
0.19258600000001025,0.0,0.0,9470.0,4.0,60.0,0.0,0.0,0.125,0.860595615,0.01,-4.832153354,-10492.0,4.875,-120.0,-0.0,0.0,0.0,0.5297851020000001,0.01,0.03417968399999971,7845.0,4.625,52.5,0.0,0.0,0.0,3.35693325,0.01,0.04272460500000008,-24.0,5.625,-105.0,-0.0,0.0,0.125,1.643066238,0.01,0.0,-0.38999998569488525,-0.44999998807907104,0.49000000953674316,-0.23388671875,-0.00726318359375,0.98016357421875,25.860000610351562,0.0,-226.0,-0.351776123046875,-0.2574462890625,Waiting,0.0,0.0,0.0,0.0,0.0,0.0,0.0,0.0,
0.25746000000002095,0.0,0.0,9470.0,1.5,22.5,0.0,0.0,0.0,0.8569335060000001,0.01,0.019531247999999946,-10492.0,1.375,-52.5,-0.0,0.0,0.0,0.531005805,0.01,0.009765623999999917,7845.0,2.875,30.0,0.0,0.0,0.0,3.358153953,0.01,0.006103514999999504,-25.0,1.75,-45.0,-0.0,0.0,0.125,1.644286941,0.01,0.0,-0.4300000071525574,-0.6399999856948853,0.44999998807907104,0.044921875,-0.04351806640625,1.04638671875,25.860000610351562,0.0,56.0,-0.3541259765625,-0.2574310302734375,Waiting,0.0,0.0,0.0,0.0,0.0,0.0,0.0,0.0,
0.3283269999999902,0.0,0.0,9470.0,1.625,0.0,0.0,0.0,0.125,0.848388585,0.01,0.0,-10490.0,2.25,15.0,-0.0,0.0,0.0,0.531005805,0.01,0.0,7845.0,3.25,0.0,0.0,0.0,0.0,3.35693325,0.01,0.0,-25.0,2.5,15.0,-0.0,0.0,0.125,1.643066238,0.01,0.0,-0.3799999952316284,-0.44999998807907104,0.3700000047683716,0.0262451171875,-0.01019287109375,0.96795654296875,25.8799991607666,0.0,33.0,-0.355804443359375,-0.257232666015625,Waiting,0.0,0.0,0.0,0.0,0.0,0.0,0.0,0.0,
0.39334399999998276,0.0,0.0,9470.0,1.75,0.0,0.0,0.0,0.125,0.834960852,0.01,-0.020751951000000046,-10490.0,2.625,0.0,-0.0,0.0,0.0,0.531005805,0.01,0.0,7845.0,3.125,0.0,0.0,0.0,0.0,3.354491844,0.01,0.0,-24.0,2.625,7.5,-0.0,0.0,0.125,1.643066238,0.01,0.0,-0.4099999964237213,-0.5,0.3799999952316284,0.0076904296875,0.01983642578125,0.9874267578125,25.8799991607666,0.0,16.0,-0.357147216796875,-0.2569580078125,Waiting,0.0,0.0,0.0,0.0,0.0,0.0,0.0,0.0,
0.45940200000000186,0.0,0.0,9470.0,1.75,0.0,0.0,0.0,0.125,0.832519446,0.01,-0.003662108999999969,-10490.0,2.625,0.0,-0.0,0.0,0.0,0.5297851020000001,0.01,0.0,7845.0,3.25,0.0,0.0,0.0,0.0,3.3618160620000004,0.01,0.0,-24.0,2.625,0.0,-0.0,0.0,0.125,1.643066238,0.01,0.0,-0.4099999964237213,-0.4699999988079071,0.3700000047683716,-0.01214599609375,-0.0189208984375,0.988037109375,25.8799991607666,0.0,-4.0,-0.358245849609375,-0.256744384765625,Waiting,0.0,0.0,0.0,0.0,0.0,0.0,0.0,0.0,
0.5320920000000042,0.0,0.0,9470.0,1.75,0.0,0.0,0.0,0.0,0.8288573370000001,0.01,-0.003662108999999969,-10490.0,2.625,0.0,-0.0,0.0,0.0,0.5297851020000001,0.01,0.0,7845.0,3.25,0.0,0.0,0.0,0.0,3.3618160620000004,0.01,-0.0012207030000004337,-24.0,2.75,0.0,-0.0,0.0,0.125,1.644286941,0.01,0.0,-0.4000000059604645,-0.47999998927116394,0.3700000047683716,-0.00494384765625,-0.00958251953125,1.032470703125,25.8799991607666,0.0,3.0,-0.358245849609375,-0.2567138671875,Waiting,0.0,0.0,0.0,0.0,0.0,0.0,0.0,0.0,
0.5986570000000065,0.0,0.0,9470.0,1.75,0.0,0.0,0.0,0.0,0.8300780400000001,0.01,-0.0012207029999999897,-10490.0,2.625,0.0,-0.0,0.0,0.0,0.5297851020000001,0.01,0.0,7845.0,3.25,0.0,0.0,0.0,0.0,3.3618160620000004,0.01,0.0,-24.0,2.75,0.0,-0.0,0.0,0.125,1.644286941,0.01,0.0012207029999999897,-0.4000000059604645,-0.47999998927116394,0.3700000047683716,-0.02227783203125,0.00592041015625,1.0400390625,25.8799991607666,0.0,-13.0,-0.358245849609375,-0.2567138671875,Waiting,0.0,0.0,0.0,0.0,0.0,0.0,0.0,0.0,
0.6668580000000075,0.0,0.0,9470.0,1.75,0.0,0.0,0.0,0.0,0.8300780400000001,0.01,0.0,-10490.0,2.625,0.0,-0.0,0.0,0.0,0.526122993,0.01,0.0,7845.0,3.25,0.0,0.0,0.0,0.0,3.35693325,0.01,0.0,-24.0,2.75,0.0,-0.0,0.0,0.125,1.644286941,0.01,0.0,-0.4099999964237213,-0.4699999988079071,0.3700000047683716,-0.0047607421875,-0.01251220703125,1.02496337890625,25.8799991607666,0.0,3.0,-0.358245849609375,-0.2567138671875,Waiting,0.0,0.0,0.0,0.0,0.0,0.0,0.0,0.0,
0.7340989999999874,0.0,0.0,9470.0,1.75,0.0,0.0,0.0,0.0,0.8435057730000001,0.01,0.0012207029999999897,-10490.0,2.5,0.0,-0.0,0.0,0.0,0.526122993,0.01,0.0,7845.0,3.25,0.0,0.0,0.0,0.0,3.3630367650000004,0.01,-0.003662108999999525,-24.0,2.75,0.0,-0.0,0.0,0.125,1.644286941,0.01,0.0,-0.4099999964237213,-0.47999998927116394,0.3799999952316284,-0.00518798828125,-0.014404296875,1.0184326171875,25.8799991607666,0.0,3.0,-0.358245849609375,-0.2567138671875,Waiting,0.0,0.0,0.0,0.0,0.0,0.0,0.0,0.0,
0.7969020000000019,0.0,0.0,9470.0,1.125,0.0,-165.35433009266853,0.0,0.0,0.8300780400000001,0.01,0.0,-10490.0,1.875,0.0,165.35433009266853,0.0,0.0,0.5297851020000001,0.01,0.0,7845.0,2.375,0.0,-165.35433009266853,0.0,0.0,3.35693325,0.01,0.0,-24.0,1.875,0.0,165.35433009266853,0.0,0.125,1.643066238,0.01,0.0,-0.4000000059604645,-0.4699999988079071,0.3799999952316284,-0.0118408203125,0.0,1.03399658203125,25.8799991607666,0.0,-3.0,-0.358245849609375,-0.2567138671875,Waiting,0.0,0.0,0.0,0.0,0.0,0.0,0.0,0.0,
0.8695609999999869,0.0,0.0,9470.0,4.625,-45.0,-2017.3228740692136,0.0,0.0,0.832519446,0.01,0.0,-10490.0,3.75,22.5,2017.3228740692136,0.0,0.0,0.535888617,0.01,0.0,7845.0,5.5,0.0,-2017.3228740692136,0.0,0.0,3.3703609830000003,0.01,0.0,12.0,9.0,142.5,2017.3228740692136,0.0,0.125,1.639404129,0.01,0.0,-0.44999998807907104,-1.2999999523162842,0.38999998569488525,-0.6922607421875,0.006591796875,1.501220703125,25.860000610351562,0.0,-657.0,-0.3598785400390625,-0.2569732666015625,Waiting,0.0,0.0,0.0,0.0,0.0,0.0,0.0,0.0,
0.9342270000000135,0.0,0.0,9419.0,13.0,-457.5,-1918.1101977825165,0.0,0.125,0.849609288,0.01,0.0,-10441.0,14.0,450.0,1918.1101977825165,0.0,0.0,0.533447211,0.01,0.0,7836.0,11.125,-105.0,-1918.1101977825165,0.0,0.0,3.395995746,0.01,0.0,12.0,14.625,435.0,1918.1101977825165,0.0,0.125,1.638183426,0.01,0.0,-0.5400000214576721,-1.6299999952316284,0.30000001192092896,0.0042724609375,-0.2027587890625,-0.32861328125,25.860000610351562,0.0,-6.0,-0.366455078125,-0.25732421875,Waiting,0.0,0.0,0.0,0.0,0.0,0.0,0.0,0.0,
1.0086049999999813,0.0,0.0,9349.0,3.875,-472.5,0.0,0.0,0.125,0.849609288,0.01,0.0012207029999999897,-10382.0,4.0,487.5,0.0,0.0,0.0,0.534667914,0.01,0.0,7797.0,6.75,-217.5,0.0,0.0,0.0,3.395995746,0.01,0.013427732999999886,85.0,5.125,472.5,0.0,0.0,0.125,1.643066238,0.01,0.0,-0.6200000047683716,-2.309999942779541,0.44999998807907104,0.08160400390625,-0.25726318359375,-0.495849609375,25.860000610351562,0.0,59.0,-0.3851318359375,-0.2599945068359375,Waiting,0.0,0.0,0.0,0.0,0.0,0.0,0.0,0.0,
1.0755250000000234,0.0,0.0,9349.0,0.0,-397.5,0.0,0.0,0.125,0.849609288,0.01,0.0,-10382.0,0.0,405.0,0.0,0.0,0.0,0.544433538,0.01,0.0,7797.0,0.0,-225.0,0.0,0.0,0.0,3.395995746,0.01,0.0,85.0,0.0,435.0,0.0,0.0,0.125,1.6540525650000002,0.01,0.004882811999999959,-0.6700000166893005,-1.6799999475479126,0.4300000071525574,0.0712890625,-0.04278564453125,0.45941162109375,25.860000610351562,0.0,84.0,-0.4025115966796875,-0.262054443359375,Waiting,0.0,0.0,0.0,0.0,0.0,0.0,0.0,0.0,
1.1451570000000064,0.0,0.0,9268.0,0.0,-480.0,0.0,0.0,0.125,0.850829991,0.01,0.0,-10296.0,0.0,525.0,0.0,0.0,0.0,0.5554198650000001,0.01,0.010986327000000351,7754.0,0.0,-270.0,0.0,0.0,0.0,3.397216449,0.01,0.0,156.0,0.0,510.0,0.0,0.0,0.125,1.678466625,0.01,0.009765623999999917,-0.5,-1.4199999570846558,0.15000000596046448,0.1654052734375,-0.166259765625,0.94158935546875,25.860000610351562,0.0,188.0,-0.41253662109375,-0.2627716064453125,Waiting,0.0,0.0,0.0,0.0,0.0,0.0,0.0,0.0,
1.2098699999999953,0.0,0.0,9268.0,0.0,-465.0,0.0,0.0,0.125,0.848388585,0.01,0.0,-10296.0,0.0,405.0,0.0,0.0,0.0,0.5541991620000001,0.01,0.008544920999999484,7754.0,0.0,-382.5,0.0,0.0,0.0,3.394775043,0.01,0.0,211.0,0.0,405.0,0.0,0.0,0.125,1.693115061,0.01,0.029296872000000196,-0.550000011920929,-1.159999966621399,0.27000001072883606,0.12078857421875,-0.06915283203125,0.9644775390625,25.860000610351562,0.0,140.0,-0.420379638671875,-0.2650299072265625,Waiting,0.0,0.0,0.0,0.0,0.0,0.0,0.0,0.0,
1.2790869999999996,0.0,0.0,9223.0,0.0,-262.5,0.0,0.0,0.125,0.847167882,0.01,0.0,-10241.0,0.0,337.5,0.0,0.0,0.0,0.5541991620000001,0.01,0.0,7697.0,0.0,-345.0,0.0,0.0,0.0,3.397216449,0.01,0.0,211.0,0.0,300.0,0.0,0.0,0.125,1.6870115460000001,0.01,0.009765623999999917,-0.4399999976158142,-0.7900000214576721,0.15000000596046448,0.1053466796875,0.009765625,1.1937255859375,25.860000610351562,0.0,122.0,-0.4231719970703125,-0.266998291015625,Waiting,0.0,0.0,0.0,0.0,0.0,0.0,0.0,0.0,
1.3509220000000204,0.0,0.0,9223.0,0.0,-255.0,0.0,0.0,0.125,0.849609288,0.01,-0.0012207029999999897,-10241.0,0.0,225.0,0.0,0.0,0.0,0.54931635,0.01,0.0,7697.0,0.0,-180.0,0.0,0.0,0.0,3.395995746,0.01,0.0,248.0,0.0,217.5,0.0,0.0,0.125,1.668701001,0.01,-0.009765623999999917,-0.47999998927116394,-0.28999999165534973,0.009999999776482582,0.12066650390625,-0.0352783203125,0.98150634765625,25.8799991607666,0.0,125.0,-0.4218292236328125,-0.269317626953125,Waiting,0.0,0.0,0.0,0.0,0.0,0.0,0.0,0.0,
1.4206089999999967,0.0,0.0,9203.0,0.0,-82.5,-479.5275494456292,0.0,0.125,0.849609288,0.01,0.0,-10212.0,0.0,127.5,479.5275494456292,0.0,0.0,0.545654241,0.01,0.0,7672.0,0.125,-120.0,-479.5275494456292,0.0,0.0,3.394775043,0.01,0.0,248.0,0.375,120.0,479.5275494456292,0.0,0.125,1.6613767830000001,0.01,0.0,-0.4000000059604645,0.019999999552965164,0.09000000357627869,0.02471923828125,-0.04376220703125,0.9642333984375,25.8799991607666,0.0,24.0,-0.4163970947265625,-0.270050048828125,Waiting,0.0,0.0,0.0,0.0,0.0,0.0,0.0,0.0,
1.4925420000000158,0.0,0.0,9171.0,0.0,-180.0,-198.4251961112022,0.0,0.125,0.849609288,0.01,0.0,-10192.0,0.125,120.0,198.4251961112022,0.0,0.0,0.5432128350000001,0.01,0.0,7643.0,0.125,-150.0,-198.4251961112022,0.0,0.0,3.395995746,0.01,0.0,270.0,0.375,135.0,198.4251961112022,0.0,0.125,1.6540525650000002,0.01,0.0,-0.41999998688697815,0.09000000357627869,0.05999999865889549,-0.0322265625,-0.01849365234375,0.95550537109375,25.8799991607666,0.0,-33.0,-0.4108428955078125,-0.269989013671875,Waiting,0.0,0.0,0.0,0.0,0.0,0.0,0.0,0.0,
1.5603150000000023,0.0,0.0,9171.0,0.0,-150.0,0.0,0.0,0.125,0.849609288,0.01,0.0,-10192.0,0.0,97.5,0.0,0.0,0.0,0.544433538,0.01,-0.0012207029999995456,7643.0,0.0,-142.5,0.0,0.0,0.0,3.395995746,0.01,0.0,270.0,0.0,75.0,0.0,0.0,0.125,1.652831862,0.01,-0.003662108999999969,-0.4099999964237213,0.05999999865889549,0.11999999731779099,0.003662109375,-8.544921875E-4,1.0340576171875,25.8799991607666,0.0,2.0,-0.4095001220703125,-0.269989013671875,Waiting,0.0,0.0,0.0,0.0,0.0,0.0,0.0,0.0,
1.6318879999999771,0.0,0.0,9172.0,0.0,0.0,-297.6378098130226,0.0,0.125,0.849609288,0.01,0.0,-10192.0,0.125,0.0,297.6378098130226,0.0,0.0,0.544433538,0.01,0.0,7640.0,0.125,-15.0,-297.6378098130226,0.0,0.0,3.398437152,0.01,0.0,275.0,0.375,0.0,297.6378098130226,0.0,0.125,1.6540525650000002,0.01,0.0,-0.4000000059604645,0.009999999776482582,0.07999999821186066,-0.0179443359375,-0.013427734375,1.0203857421875,25.8799991607666,0.0,-18.0,-0.4098052978515625,-0.269989013671875,Waiting,0.0,0.0,0.0,0.0,0.0,0.0,0.0,0.0,
1.6957019999999903,0.0,0.0,9172.0,0.125,0.0,-347.2440853714943,0.0,0.125,0.8422850700000001,0.01,0.0,-10192.0,0.5,37.5,347.2440853714943,0.0,0.0,0.544433538,0.01,0.0,7640.0,0.625,-7.5,-347.2440853714943,0.0,0.0,3.394775043,0.01,0.0,277.0,0.875,7.5,347.2440853714943,0.0,0.125,1.6540525650000002,0.01,0.0,-0.41999998688697815,-0.05999999865889549,0.10000000149011612,-0.063720703125,-0.02593994140625,1.07537841796875,25.8799991607666,0.0,-62.0,-0.4105987548828125,-0.269989013671875,Waiting,0.0,0.0,0.0,0.0,0.0,0.0,0.0,0.0,
1.7555200000000186,0.0,0.0,9170.0,0.625,0.0,-363.77954185009,0.0,0.125,0.849609288,0.01,0.0,-10182.0,0.75,67.5,363.77954185009,0.0,0.0,0.545654241,0.01,0.0,7635.0,1.25,-30.0,-363.77954185009,0.0,0.0,3.395995746,0.01,0.0,277.0,1.375,30.0,363.77954185009,0.0,0.125,1.6540525650000002,0.01,0.0,-0.4300000071525574,-0.1899999976158142,0.07999999821186066,-0.0552978515625,0.00323486328125,1.04736328125,25.8799991607666,0.0,-51.0,-0.41290283203125,-0.2700653076171875,Waiting,0.0,0.0,0.0,0.0,0.0,0.0,0.0,0.0,
1.815603999999992,0.0,0.0,9170.0,1.625,-30.0,-496.06300592422485,0.0,0.125,0.849609288,0.01,0.0,-10182.0,1.75,52.5,496.06300592422485,0.0,0.0,0.539550726,0.01,0.0,7635.0,2.375,-52.5,-496.06300592422485,0.0,0.0,3.394775043,0.01,0.0,290.0,2.625,60.0,496.06300592422485,0.0,0.125,1.6540525650000002,0.01,0.0,-0.46000000834465027,-0.46000000834465027,0.07999999821186066,-0.134033203125,-0.0048828125,1.04345703125,25.8799991607666,0.0,-125.0,-0.41632080078125,-0.270233154296875,Waiting,0.0,0.0,0.0,0.0,0.0,0.0,0.0,0.0,
1.8868940000000294,0.0,0.0,9154.0,2.875,-120.0,-578.740131855011,0.0,0.125,0.849609288,0.01,0.0,-10166.0,3.125,120.0,578.740131855011,0.0,0.0,0.5407714290000001,0.01,0.0,7619.0,3.625,-112.5,-578.740131855011,0.0,0.0,3.394775043,0.01,0.0,290.0,3.625,112.5,578.740131855011,0.0,0.125,1.643066238,0.01,0.0,-0.46000000834465027,-0.8199999928474426,0.10999999940395355,-0.143798828125,-0.0238037109375,1.069580078125,25.8700008392334,0.0,-128.0,-0.4222564697265625,-0.270233154296875,Waiting,0.0,0.0,0.0,0.0,0.0,0.0,0.0,0.0,
1.9483059999999823,0.0,0.0,9154.0,4.0,-210.0,-694.4881707429886,0.0,0.125,0.849609288,0.01,0.0,-10166.0,4.0,217.5,694.4881707429886,0.0,0.0,0.539550726,0.01,0.0,7619.0,4.625,-180.0,-694.4881707429886,0.0,0.0,3.394775043,0.01,0.0,329.0,4.875,210.0,694.4881707429886,0.0,0.125,1.595458821,0.01,0.0,-0.49000000953674316,-1.309999942779541,0.10000000149011612,-0.2236328125,-0.02752685546875,1.107666015625,25.8700008392334,0.0,-198.0,-0.4340667724609375,-0.2705078125,Waiting,0.0,0.0,0.0,0.0,0.0,0.0,0.0,0.0,
2.009383000000031,0.0,0.0,9106.0,4.375,-292.5,-810.2362096309661,0.0,0.125,0.8447264760000001,0.01,0.0,-10115.0,4.875,352.5,810.2362096309661,0.0,0.0,0.539550726,0.01,0.0,7577.0,6.25,-307.5,-810.2362096309661,0.0,0.0,3.395995746,0.01,0.0,329.0,5.625,345.0,810.2362096309661,0.0,0.125,1.594238118,0.01,0.0,-0.49000000953674316,-1.7100000381469727,0.11999999731779099,-0.11083984375,0.093505859375,1.1500244140625,25.8700008392334,0.0,-76.0,-0.4476470947265625,-0.27056884765625,Waiting,0.0,0.0,0.0,0.0,0.0,0.0,0.0,0.0,
2.07134500000003,0.0,0.0,9106.0,4.5,-435.0,-810.2362096309663,0.0,0.125,0.849609288,0.01,0.0,-10115.0,5.0,442.5,810.2362096309663,0.0,0.0,0.538330023,0.01,0.0,7577.0,5.875,-472.5,-810.2362096309663,0.0,0.0,3.394775043,0.01,0.0,405.0,5.75,457.5,810.2362096309663,0.0,0.125,1.595458821,0.01,0.0,-0.46000000834465027,-1.8700000047683716,0.23000000417232513,-0.1640625,-0.1387939453125,0.86309814453125,25.8700008392334,0.0,-136.0,-0.4595947265625,-0.2703094482421875,Waiting,0.0,0.0,0.0,0.0,0.0,0.0,0.0,0.0,
2.133820999999996,0.0,0.0,9015.0,3.375,-622.5,-826.7716348171234,0.0,0.125,0.849609288,0.01,0.0,-10028.0,4.25,592.5,826.7716348171234,0.0,0.0,0.5407714290000001,0.01,0.0,7494.0,5.5,-540.0,-826.7716348171234,0.0,0.0,3.395995746,0.01,0.0,405.0,5.25,570.0,826.7716348171234,0.0,0.125,1.600341633,0.01,0.0,-0.4699999988079071,-2.200000047683716,0.3700000047683716,-0.0777587890625,-0.03814697265625,0.9779052734375,25.8700008392334,0.0,-40.0,-0.4776458740234375,-0.271026611328125,Waiting,0.0,0.0,0.0,0.0,0.0,0.0,0.0,0.0,
2.196337999999989,0.0,0.0,9015.0,2.875,-727.5,-826.7716348171234,0.0,0.125,0.849609288,0.01,0.0,-10028.0,3.625,690.0,826.7716348171234,0.0,0.0,0.539550726,0.01,0.0,7494.0,5.125,-637.5,-826.7716348171234,0.0,0.0,3.395995746,0.01,0.0,511.0,4.875,660.0,826.7716348171234,0.0,0.125,1.600341633,0.01,0.0,-0.49000000953674316,-2.5,0.5400000214576721,-0.1427001953125,-0.1019287109375,1.33502197265625,25.8700008392334,0.0,-84.0,-0.4970703125,-0.272491455078125,Waiting,0.0,0.0,0.0,0.0,0.0,0.0,0.0,0.0,
2.2636170000000275,0.0,0.0,8892.0,2.5,-795.0,-826.7716348171235,0.0,0.125,0.849609288,0.01,0.0,-9912.0,3.0,750.0,826.7716348171235,0.0,0.0,0.5407714290000001,0.01,0.0,7382.0,4.5,-757.5,-826.7716348171235,0.0,0.0,3.395995746,0.01,0.0,511.0,4.25,735.0,826.7716348171235,0.0,0.125,1.593017415,0.01,0.0,-0.5,-2.619999885559082,0.7799999713897705,-0.07684326171875,-0.077880859375,1.207275390625,25.8700008392334,0.0,-22.0,-0.523406982421875,-0.275238037109375,Waiting,0.0,0.0,0.0,0.0,0.0,0.0,0.0,0.0,
2.3298180000000284,0.0,0.0,8892.0,1.875,-832.5,-826.7716348171234,0.0,0.125,0.832519446,0.010686543441350905,0.0,-9780.0,2.625,802.5,826.7716348171234,0.0,0.0,0.5432128350000001,0.010754834605512652,0.0,7244.0,3.5,-840.0,-826.7716348171234,0.0,0.0,3.395995746,0.010704199607369944,0.0,640.0,3.625,802.5,826.7716348171234,0.0,0.125,1.600341633,0.010742332939304546,0.0,-0.47999998927116394,-2.5999999046325684,0.9399999976158142,-0.15228271484375,-0.00335693359375,1.337158203125,25.8700008392334,0.0,-91.0,-0.54510498046875,-0.2774505615234375,Waiting,0.0,0.0,0.0,0.0,0.0,0.0,0.0,0.0,
2.3924189999999945,0.0,0.0,8757.0,1.875,-862.5,-892.9133981466293,0.0,0.125,0.849609288,0.013152669039345928,0.0,-9780.0,2.5,840.0,892.9133981466293,0.0,0.0,0.539550726,0.013236719704133901,0.0,7244.0,3.375,-847.5,-892.9133981466293,0.0,0.0,3.395995746,0.013174399705526873,0.0,640.0,3.375,847.5,892.9133981466293,0.0,0.125,1.600341633,0.013221333037811155,0.0,-0.49000000953674316,-2.549999952316284,1.059999942779541,-0.04718017578125,0.06195068359375,1.13458251953125,25.8799991607666,0.0,4.0,-0.572662353515625,-0.2799835205078125,Waiting,0.0,0.0,0.0,0.0,0.0,0.0,0.0,0.0,
2.4545210000000077,0.0,0.0,8611.0,1.875,-892.5,-925.9842485189437,0.0,0.125,0.849609288,0.014522738271593037,0.0,-9639.0,2.625,870.0,925.9842485189437,0.0,0.0,0.518798775,0.014615544211027655,0.0,7134.0,4.375,-712.5,-925.9842485189437,0.0,0.0,3.397216449,0.014546732548075562,0.0,780.0,3.5,877.5,925.9842485189437,0.0,0.125,1.59912093,0.01459855476750033,0.0,-0.47999998927116394,-2.490000009536743,1.1799999475479126,-0.05145263671875,-0.13592529296875,0.75885009765625,25.8799991607666,0.0,-21.0,-0.59466552734375,-0.2815704345703125,Waiting,0.0,0.0,0.0,0.0,0.0,0.0,0.0,0.0,
2.5244610000000103,0.0,0.0,8611.0,1.625,-930.0,-992.1260118484497,0.0,0.125,0.8544921000000001,0.01616682200358894,0.0,-9639.0,2.625,907.5,992.1260118484497,0.0,0.0,0.5407714290000001,0.01627013427677437,0.0,7134.0,6.625,-682.5,-992.1260118484497,0.0,0.0,3.394775043,0.016193532613512734,0.0,780.0,3.5,930.0,992.1260118484497,0.0,0.125,1.6052244450000002,0.016251221499837286,0.0,-0.550000011920929,-2.6600000858306885,1.399999976158142,-0.01092529296875,0.0179443359375,0.84442138671875,25.8799991607666,0.0,28.0,-0.6229400634765625,-0.2840118408203125,Waiting,0.0,0.0,0.0,0.0,0.0,0.0,0.0,0.0,
2.5916940000000177,0.0,0.0,8452.0,1.625,-982.5,-1041.7322874069216,0.0,0.125,0.849609288,0.0191809757844587,0.0,-9485.0,2.625,967.5,1041.7322874069216,0.0,0.0,0.539550726,0.01930354967126015,0.0,7009.0,7.625,-780.0,-1041.7322874069216,0.0,0.0,3.395995746,0.019212666339474563,0.0,933.0,3.625,967.5,1041.7322874069216,0.0,0.125,1.6040037420000002,0.019281110782753397,0.0,-0.5,-2.680000066757202,1.6299999952316284,-0.13623046875,0.01263427734375,0.70477294921875,25.8799991607666,0.0,-102.0,-0.646331787109375,-0.2857666015625,Waiting,0.0,0.0,0.0,0.0,0.0,0.0,0.0,0.0,
2.653505999999994,0.0,0.0,8452.0,1.375,-1035.0,-1058.2677125930786,0.0,0.125,0.849609288,0.022332136406889094,0.0,-9485.0,2.625,990.0,1058.2677125930786,0.0,0.0,0.538330023,0.022474847434249365,0.0,7009.0,8.0,-765.0,-1058.2677125930786,0.0,0.0,3.395995746,0.02236903326789226,0.0,1093.0,3.625,990.0,1058.2677125930786,0.0,0.125,1.613769366,0.02244872215654802,0.0,-0.46000000834465027,-2.7200000286102295,1.909999966621399,0.062744140625,0.03662109375,0.7457275390625,25.8799991607666,0.0,99.0,-0.670654296875,-0.2867584228515625,Waiting,0.0,0.0,0.0,0.0,0.0,0.0,0.0,0.0,
2.714031000000017,0.0,0.0,8277.0,0.625,-1080.0,-841.8601564161684,0.0,0.125,0.821533119,4.76724046024096,0.0,-9317.0,3.125,1042.5,1336.6760556344534,0.0,0.0,0.5297851020000001,4.859646926392119,0.0,6897.0,7.875,-697.5,-859.6701248174799,0.0,0.0,3.399657855,0.22944180031268152,0.0,1093.0,5.0,1020.0,1347.964049316274,0.0,0.125,1.650390456,0.1455984268424301,0.0,-0.46000000834465027,-2.8499999046325684,2.259999990463257,1.8310546875E-4,-0.18426513671875,0.74310302734375,25.8799991607666,0.0,30.0,-0.701202392578125,-0.2868194580078125,Waiting,0.0,0.0,0.0,0.0,0.0,0.0,0.0,0.0,
2.783036000000022,0.0,0.0,8277.0,0.125,-1072.5,-954.0041987735013,0.0,0.125,0.742187424,4.429225811952314,0.0,-9317.0,6.25,1155.0,1550.7994380356702,0.0,0.0,0.510253854,4.666243057574751,0.0,6897.0,6.625,-712.5,-764.7453688791541,0.0,0.125,3.4777828470000003,0.01,0.0,1283.0,6.75,1162.5,1442.1131595531583,0.0,0.125,1.7077634970000002,0.01,0.0,-0.5400000214576721,-3.069999933242798,2.180000066757202,-0.13714599609375,0.0450439453125,0.97686767578125,25.8799991607666,0.0,-82.0,-0.7266998291015625,-0.287994384765625,Waiting,0.0,0.0,0.0,0.0,0.0,0.0,0.0,0.0,
2.84778899999999,0.0,0.0,8109.0,0.75,-1035.0,-1226.980328867982,0.0,1.25,0.533447211,4.200892005501735,0.0,-9114.0,8.5,1282.5,1823.4843488847043,0.0,0.25,0.41381831700000005,4.513058566102756,0.0,6780.0,6.875,-720.0,-794.0646286233061,0.0,0.625,3.4777828470000003,4.627153720833077,0.0,1283.0,6.625,1282.5,1565.2964823410168,0.0,0.125,1.7126463090000001,4.801690921654227,0.0,-0.5199999809265137,-2.990000009536743,1.4199999570846558,-0.09002685546875,0.14434814453125,1.2783203125,25.899999618530273,0.0,88.0,-0.7606964111328125,-0.28973388671875,Waiting,0.0,0.0,0.0,0.0,0.0,0.0,0.0,0.0,
2.9097939999999944,0.0,0.0,8109.0,1.25,-1110.0,-1237.1730688323842,0.0,0.75,0.23193357,4.169552725518452,0.0,-9114.0,9.375,1477.5,1878.0125939979514,0.0,0.0,0.21118161900000001,4.509356970186259,0.0,6780.0,7.75,-690.0,-752.362254117809,0.0,0.375,3.2751461490000002,4.638937779880392,0.0,1518.0,5.25,1455.0,1600.74453376921,0.0,0.125,1.639404129,4.818538892493368,0.0,0.20999999344348907,-2.740000009536743,-1.059999942779541,0.10845947265625,0.39385986328125,1.263671875,25.899999618530273,0.0,161.0,-0.7877960205078125,-0.288055419921875,Waiting,0.0,0.0,0.0,0.0,0.0,0.0,0.0,0.0,
2.9719560000000054,0.0,0.0,7937.0,2.875,-1080.0,-1376.419953416956,0.0,0.0,0.05981444700000001,4.082183096200645,0.0,-8860.0,7.875,1627.5,1988.4717744483048,0.0,0.0,0.072021477,4.4440452305437885,0.0,6670.0,9.875,-697.5,-777.2241982584925,0.0,0.25,3.1079098380000003,4.475391408137938,0.0,1518.0,4.0,1575.0,1632.0433707385996,0.0,0.125,1.5319822650000001,4.745948093751844,0.0,0.7200000286102295,-2.319999933242798,-3.369999885559082,0.06549072265625,0.2667236328125,0.818115234375,25.899999618530273,0.0,83.0,-0.806915283203125,-0.2830352783203125,Waiting,0.0,0.0,0.0,0.0,0.0,0.0,0.0,0.0,
3.03678899999999,0.0,0.0,7937.0,3.75,-1080.0,-1312.185316517256,0.0,0.125,4.862060049,4.058725259520911,0.0,-8860.0,5.25,1882.5,1973.1548858938606,0.0,0.0,4.936522932,4.458871764351214,0.0,6670.0,10.375,-615.0,-667.9784702298281,0.0,0.25,2.934570012,4.532765246404916,0.0,1781.0,3.5,1627.5,1617.9323643261184,0.0,0.125,1.417236183,4.795421444612457,0.0,1.399999976158142,-2.009999990463257,-6.989999771118164,-0.03948974609375,0.14697265625,1.16473388671875,25.899999618530273,0.0,-12.0,-0.830841064453125,-0.271759033203125,Waiting,0.0,0.0,0.0,0.0,0.0,0.0,0.0,0.0,
3.1027660000000035,0.0,0.0,7751.0,3.5,-1230.0,-1416.5303078327856,0.0,0.0,4.80956982,3.939506906524183,0.0,-8551.0,4.875,1965.0,2098.4898756904327,0.0,0.0,4.90722606,4.411363162914921,0.0,6579.0,10.0,-547.5,-556.3063510880473,0.0,0.0,2.879638377,4.393142228645984,0.0,1781.0,3.625,1612.5,1645.1681985825337,0.0,0.125,1.3757322810000001,4.78555326234774,0.0,1.7100000381469727,-1.7200000286102295,-11.579999923706055,-0.0189208984375,0.091796875,0.8804931640625,25.899999618530273,0.0,-5.0,-0.8592987060546875,-0.25323486328125,Waiting,0.0,0.0,0.0,0.0,0.0,0.0,0.0,0.0,
3.167781000000017,0.0,0.0,7751.0,4.25,-1357.5,-1686.7148549776018,0.0,0.125,4.7631831060000005,3.8391542348011183,0.0,-8228.0,6.375,1987.5,2256.4747271892093,0.0,0.0,4.896239733000001,4.310729416745472,0.0,6471.0,9.625,-630.0,-691.7223464422192,0.0,0.75,2.773437216,4.056958878244136,0.0,2037.0,3.75,1612.5,1650.8031369636517,0.0,0.125,1.329345567,4.6522839936442875,0.0,1.7300000190734863,-2.0,-15.300000190734863,-0.17181396484375,0.1495361328125,1.2291259765625,25.899999618530273,0.0,-153.0,-0.8823394775390625,-0.2372283935546875,Waiting,0.0,0.0,0.0,0.0,0.0,0.0,0.0,0.0,
3.233359999999986,0.0,0.0,7527.0,4.625,-1462.5,-1742.34867361334,0.0,0.125,4.69970655,3.7910224166457227,0.0,-8228.0,7.0,2055.0,2246.5419621430387,0.0,0.0,4.846190910000001,4.2691461051829815,0.0,6471.0,9.25,-720.0,-723.3306376351352,0.0,0.375,2.572021221,3.929390540840239,0.0,2037.0,3.5,1620.0,1591.9733347543797,0.0,0.125,1.302490101,4.601973549913185,0.0,1.7400000095367432,-1.9700000286102295,-20.110000610351562,-0.0570068359375,0.01507568359375,1.5885009765625,25.899999618530273,0.0,9.0,-0.9125518798828125,-0.2177581787109375,Waiting,0.0,0.0,0.0,0.0,0.0,0.0,0.0,0.0,
3.295179999999993,0.0,0.0,7271.0,4.625,-1560.0,-1793.6739501386478,0.0,0.125,4.62646437,3.7584178736079177,0.0,-7883.0,5.875,2130.0,2249.6359503789063,0.0,0.0,4.802245602,4.23768247285629,0.0,6364.0,9.5,-697.5,-764.3384598968846,0.0,0.25,2.3803708500000003,3.845127634717343,0.0,2300.0,2.375,1635.0,1558.1427890629168,0.0,0.125,1.253661981,4.560409934336866,0.0,1.7899999618530273,-1.7300000190734863,-24.229999542236328,-0.209228515625,-0.04656982421875,1.1558837890625,25.899999618530273,0.0,-124.0,-0.9369049072265625,-0.2026824951171875,Waiting,0.0,0.0,0.0,0.0,0.0,0.0,0.0,0.0,
3.3594490000000223,0.0,0.0,7271.0,2.0,-1665.0,-1412.76589627832,0.0,0.375,4.6081538250000005,4.053908947359989,0.0,-7883.0,2.75,2175.0,1511.2283865914237,0.0,0.0,4.754638185,4.174428802380351,0.0,6364.0,16.75,-600.0,-1262.7211242664698,0.0,0.125,2.3217771060000003,4.106636209364122,0.0,2300.0,1.25,1627.5,1371.99431355287,0.0,0.25,1.223144406,4.2222602963763585,0.0,1.909999966621399,-1.2799999713897705,-28.690000534057617,-0.0743408203125,0.0181884765625,0.9991455078125,25.899999618530273,0.0,-38.0,-0.9491119384765625,-0.18707275390625,Waiting,0.0,0.0,0.0,0.0,0.0,0.0,0.0,0.0,
3.427912000000011,0.0,0.0,7012.0,0.0,-1642.5,-231.49606212973592,0.0,2.375,4.893798327,4.539177989377486,0.0,-7560.0,0.25,1965.0,231.49606212973592,0.0,0.5,4.754638185,4.568185100136283,0.0,6277.0,8.375,-540.0,-231.49606212973592,0.0,2.125,2.573241924,4.54667755933762,0.0,2551.0,0.0,1455.0,231.49606212973592,0.0,0.0,1.0559080950000002,4.562874937089287,0.0,1.5700000524520874,-1.1200000047683716,-33.97999954223633,-0.10931396484375,-0.27264404296875,0.7965087890625,25.8799991607666,0.0,86.0,-0.9484710693359375,-0.1692047119140625,Waiting,0.0,0.0,0.0,0.0,0.0,0.0,0.0,0.0,
3.4975989999999872,0.0,0.0,7012.0,0.0,-1492.5,0.0,0.0,8.25,0.285644502,4.539177989377486,-2.3315427300000002,-7560.0,0.625,1815.0,0.0,0.0,0.25,4.886474109,4.568185100136283,0.004882811999999959,6277.0,1.375,-495.0,0.0,0.0,0.25,2.915038764,4.54667755933762,0.25756833300000004,2768.0,0.0,1380.0,0.0,0.0,0.125,0.968017479,4.562874937089287,-0.17089842000000033,0.2800000011920929,-1.5499999523162842,-37.04999923706055,-0.217529296875,-0.5863037109375,0.76678466796875,25.8799991607666,0.0,198.0,-0.9459381103515625,-0.1613311767578125,Waiting,0.0,0.0,0.0,0.0,0.0,0.0,0.0,0.0,
3.5642509999999894,0.0,0.0,6784.0,0.0,-1387.5,0.0,0.0,3.5,4.927978011,4.539177989377486,2.925415267999999,-7305.0,0.0,1522.5,0.0,0.0,0.0,0.040283199000000006,4.568185100136283,0.1330566270000002,6193.0,0.0,-532.5,0.0,0.0,0.0,3.071288748,4.54667755933762,0.3405761370000002,2768.0,0.0,1350.0,0.0,0.0,0.375,1.041259659,4.562874937089287,-0.08544921000000016,-0.5,-1.5499999523162842,-37.540000915527344,0.15106201171875,-0.11175537109375,0.4049072265625,25.8799991607666,0.0,194.0,-0.9425506591796875,-0.1638946533203125,Waiting,0.0,0.0,0.0,0.0,0.0,0.0,0.0,0.0,
3.628487000000023,0.0,0.0,6784.0,0.0,-1185.0,0.0,0.0,0.75,0.153808578,4.539177989377486,0.0,-7305.0,0.0,1200.0,0.0,0.0,0.0,0.08056639800000001,4.568185100136283,0.0,6193.0,0.0,-585.0,0.0,0.0,0.0,3.0651852330000002,4.54667755933762,0.0,2957.0,0.0,1207.5,0.0,0.0,0.25,1.143798711,4.562874937089287,0.0,-1.0499999523162842,-1.1399999856948853,-38.09000015258789,0.201904296875,-0.22210693359375,0.8038330078125,25.8799991607666,0.0,299.0,-0.932891845703125,-0.1698150634765625,Waiting,0.0,0.0,0.0,0.0,0.0,0.0,0.0,0.0,
3.69570199999999,0.0,0.0,6609.0,0.0,-1057.5,0.0,0.0,0.25,0.37597652400000003,4.539177989377486,0.19104054799999837,-7129.0,0.0,1080.0,0.0,0.0,0.0,0.08056639800000001,4.568185100136283,0.0341796840000006,6093.0,0.0,-622.5,0.0,0.0,0.0,3.044433282,4.54667755933762,-0.004882811999999959,2957.0,0.0,1050.0,0.0,0.0,0.125,1.2377928420000002,4.562874937089287,0.104980458,-1.5499999523162842,-0.9300000071525574,-38.790000915527344,0.17230224609375,-0.0396728515625,0.4053955078125,25.8799991607666,0.0,157.0,-0.9207763671875,-0.1754913330078125,Waiting,0.0,0.0,0.0,0.0,0.0,0.0,0.0,0.0,
3.755564000000013,0.0,0.0,6609.0,0.0,-907.5,0.0,0.0,0.125,0.47607417,4.539177989377486,0.1977538860000001,-7129.0,0.0,982.5,0.0,0.0,0.0,0.09033202200000001,4.568185100136283,0.0,6093.0,0.0,-577.5,0.0,0.0,0.0,3.0065914890000003,4.54667755933762,-0.024414059999999793,3105.0,0.0,930.0,0.0,0.0,0.125,1.279296744,4.562874937089287,0.08789061599999926,-1.9900000095367432,-0.949999988079071,-39.119998931884766,0.08905029296875,-0.11712646484375,0.75762939453125,25.8799991607666,0.0,136.0,-0.9061126708984375,-0.1837005615234375,Waiting,0.0,0.0,0.0,0.0,0.0,0.0,0.0,0.0,
3.817440000000002,0.0,0.0,6475.0,0.0,-802.5,0.0,0.0,0.125,0.47607417,4.539177989377486,0.08789061600000014,-6982.0,0.0,870.0,0.0,0.0,0.0,0.09033202200000001,4.568185100136283,0.009765623999999917,6003.0,0.0,-555.0,0.0,0.0,0.0,2.983398132,4.54667755933762,-0.03417968399999971,3105.0,0.0,832.5,0.0,0.0,0.125,1.297607289,4.562874937089287,0.04272460500000008,-2.0799999237060547,-0.8799999952316284,-39.20000076293945,-0.0225830078125,0.0067138671875,1.04510498046875,25.8799991607666,0.0,-33.0,-0.8893585205078125,-0.1927642822265625,Waiting,0.0,0.0,0.0,0.0,0.0,0.0,0.0,0.0,
3.887510000000009,0.0,0.0,6475.0,0.0,-742.5,0.0,0.0,0.125,0.465087843,4.539177989377486,0.0,-6865.0,0.0,757.5,0.0,0.0,0.0,0.09033202200000001,4.568185100136283,0.0,5910.0,0.0,-562.5,0.0,0.0,0.0,2.962646181,4.54667755933762,-0.02441406000000068,3225.0,0.0,742.5,0.0,0.0,0.125,1.308593616,4.562874937089287,0.0,-2.049999952316284,-0.47999998927116394,-39.20000076293945,0.09771728515625,-0.02490234375,0.94189453125,25.850000381469727,0.0,76.0,-0.8668975830078125,-0.2025604248046875,Waiting,0.0,0.0,0.0,0.0,0.0,0.0,0.0,0.0,
3.9497179999999936,0.0,0.0,6360.0,0.0,-675.0,0.0,0.0,0.125,0.45288081300000005,4.539177989377486,-0.010986327000000351,-6865.0,0.0,690.0,0.0,0.0,0.0,0.09033202200000001,4.568185100136283,0.0,5910.0,0.0,-592.5,0.0,0.0,0.0,2.9614254780000002,4.54667755933762,-0.02075195099999938,3225.0,0.0,690.0,0.0,0.0,0.125,1.282958853,4.562874937089287,0.012207029999999897,-2.069999933242798,-0.20000000298023224,-39.380001068115234,0.1375732421875,-0.0823974609375,1.00457763671875,25.850000381469727,0.0,138.0,-0.847137451171875,-0.2086334228515625,Waiting,0.0,0.0,0.0,0.0,0.0,0.0,0.0,0.0,
4.011160000000032,0.0,0.0,6268.0,0.0,-600.0,0.0,0.0,0.125,0.45166011,4.539177989377486,-0.014648435999999876,-6768.0,0.0,630.0,0.0,0.0,0.0,0.09033202200000001,4.568185100136283,0.0,5824.0,0.0,-547.5,0.0,0.0,0.0,2.962646181,4.54667755933762,0.0,3328.0,0.0,630.0,0.0,0.0,0.125,1.254882684,4.562874937089287,-0.02929687200000064,-2.049999952316284,0.029999999329447746,-39.529998779296875,0.08258056640625,-0.08642578125,0.99847412109375,25.850000381469727,0.0,95.0,-0.8258514404296875,-0.2135009765625,Waiting,0.0,0.0,0.0,0.0,0.0,0.0,0.0,0.0,
4.075968999999983,0.0,0.0,6268.0,0.0,-532.5,0.0,0.0,0.125,0.45166011,4.539177989377486,0.0,-6768.0,0.0,555.0,0.0,0.0,0.0,0.09033202200000001,4.568185100136283,0.0,5824.0,0.0,-495.0,0.0,0.0,0.0,2.9614254780000002,4.54667755933762,0.0,3328.0,0.0,517.5,0.0,0.0,0.125,1.2377928420000002,4.562874937089287,0.0,-2.0999999046325684,0.25,-39.529998779296875,0.09783935546875,-0.06561279296875,1.1156005859375,25.850000381469727,0.0,87.0,-0.797027587890625,-0.218505859375,Waiting,0.0,0.0,0.0,0.0,0.0,0.0,0.0,0.0,
4.147099999999977,0.0,0.0,6195.0,0.0,-465.0,0.0,0.0,0.125,0.45166011,4.539177989377486,0.0,-6697.0,0.0,465.0,0.0,0.0,0.0,0.09033202200000001,4.568185100136283,0.0,5752.0,0.0,-465.0,0.0,0.0,0.0,2.962646181,4.54667755933762,0.0,3404.0,0.0,457.5,0.0,0.0,0.125,1.2390135450000002,4.562874937089287,-0.01586913900000031,-2.0999999046325684,0.4699999988079071,-39.439998626708984,0.11773681640625,0.0045166015625,0.97357177734375,25.850000381469727,0.0,58.0,-0.7726287841796875,-0.2214202880859375,Waiting,0.0,0.0,0.0,0.0,0.0,0.0,0.0,0.0,
4.2075289999999805,0.0,0.0,6195.0,0.0,-405.0,0.0,0.0,0.125,0.45166011,4.539177989377486,0.0,-6697.0,0.0,390.0,0.0,0.0,0.0,0.091552725,4.568185100136283,0.0,5752.0,0.0,-405.0,0.0,0.0,0.0,2.962646181,4.54667755933762,0.0,3404.0,0.0,390.0,0.0,0.0,0.125,1.2426756540000001,4.562874937089287,-0.0012207029999995456,-2.0899999141693115,0.5899999737739563,-39.40999984741211,0.11199951171875,-0.0546875,0.8992919921875,25.850000381469727,0.0,93.0,-0.746978759765625,-0.2235870361328125,Waiting,0.0,0.0,0.0,0.0,0.0,0.0,0.0,0.0,
4.269401000000013,0.0,0.0,6146.0,0.0,-322.5,0.0,0.0,0.125,0.45166011,4.539177989377486,0.0,-6645.0,0.0,337.5,0.0,0.0,0.0,0.09033202200000001,4.568185100136283,0.0,5703.0,0.0,-322.5,0.0,0.0,0.0,2.962646181,4.54667755933762,0.0,3460.0,0.0,330.0,0.0,0.0,0.125,1.2390135450000002,4.562874937089287,0.0,-2.0999999046325684,0.699999988079071,-39.400001525878906,0.0596923828125,-0.0504150390625,1.12353515625,25.850000381469727,0.0,41.0,-0.726806640625,-0.22467041015625,Waiting,0.0,0.0,0.0,0.0,0.0,0.0,0.0,0.0,
4.335411000000022,0.0,0.0,6146.0,0.0,-262.5,0.0,0.0,0.125,0.45166011,4.539177989377486,0.0,-6645.0,0.0,262.5,0.0,0.0,0.0,0.09033202200000001,4.568185100136283,0.0,5703.0,0.0,-240.0,0.0,0.0,0.0,2.962646181,4.54667755933762,-0.0012207029999995456,3497.0,0.0,247.5,0.0,0.0,0.125,1.2377928420000002,4.562874937089287,0.0,-2.0999999046325684,0.9200000166893005,-39.349998474121094,0.08135986328125,-0.06158447265625,0.97613525390625,25.850000381469727,0.0,66.0,-0.6921844482421875,-0.225799560546875,Waiting,0.0,0.0,0.0,0.0,0.0,0.0,0.0,0.0,
4.396243000000017,0.0,0.0,6114.0,0.0,-202.5,0.0,0.0,0.125,0.45166011,4.539177989377486,0.0,-6615.0,0.0,195.0,0.0,0.0,0.0,0.091552725,4.568185100136283,0.0,5669.0,0.0,-195.0,0.0,0.0,0.0,2.962646181,4.54667755933762,0.0012207029999995456,3497.0,0.0,180.0,0.0,0.0,0.125,1.2426756540000001,4.562874937089287,0.0,-2.0899999141693115,1.090000033378601,-39.31999969482422,0.07977294921875,-0.0595703125,0.8704833984375,25.889999389648438,0.0,66.0,-0.663421630859375,-0.2259521484375,Waiting,0.0,0.0,0.0,0.0,0.0,0.0,0.0,0.0,
4.459494000000006,0.0,0.0,6114.0,0.0,-135.0,0.0,0.0,0.125,0.45166011,4.539177989377486,0.0,-6615.0,0.0,142.5,0.0,0.0,0.0,0.091552725,4.568185100136283,0.0,5669.0,0.0,-120.0,0.0,0.0,0.0,2.9614254780000002,4.54667755933762,0.0,3516.0,0.0,120.0,0.0,0.0,0.125,1.2377928420000002,4.562874937089287,0.0012207029999995456,-2.0999999046325684,1.190000057220459,-39.36000061035156,0.0643310546875,-0.03125,0.97283935546875,25.889999389648438,0.0,31.0,-0.6337738037109375,-0.225830078125,Waiting,0.0,0.0,0.0,0.0,0.0,0.0,0.0,0.0,
4.526141999999992,0.0,0.0,6099.0,0.0,-82.5,-214.96063694357872,0.0,0.625,0.49438471500000003,4.932250999999998,0.0,-6600.0,0.0,90.0,214.96063694357872,0.0,0.75,0.140380845,4.963769999999998,0.0,5655.0,0.0,-82.5,-214.96063694357872,0.0,0.75,3.016357113,0.01,0.0,3516.0,0.0,60.0,214.96063694357872,0.0,0.875,1.254882684,0.01,0.0,-2.0799999237060547,1.2899999618530273,-39.34000015258789,0.0731201171875,-0.03106689453125,0.98895263671875,25.889999389648438,0.0,36.0,-0.6186370849609375,-0.2249755859375,Waiting,0.0,0.0,0.0,0.0,0.0,0.0,0.0,0.0,
4.590695000000007,0.0,0.0,6099.0,0.0,-52.5,-380.31496703624725,0.0,0.375,0.675048759,4.932250999999998,0.0,-6600.0,0.25,37.5,380.31496703624725,0.0,0.25,0.3662109,4.963769999999998,0.0,5655.0,0.125,-60.0,-380.31496703624725,0.0,0.25,3.231200841,0.01,0.0,3522.0,0.375,37.5,380.31496703624725,0.0,0.375,1.4758299270000002,0.01,0.0,-2.049999952316284,1.309999942779541,-39.34000015258789,0.01287841796875,0.0118408203125,1.0250244140625,25.889999389648438,0.0,-38.0,-0.618011474609375,-0.224212646484375,Waiting,0.0,0.0,0.0,0.0,0.0,0.0,0.0,0.0,
4.6538940000000295,0.0,0.0,6080.0,0.125,-172.5,-429.92127388715744,0.0,0.25,0.8007811680000001,4.932250999999998,0.0,-6586.0,0.5,135.0,429.92127388715744,0.0,0.25,0.527343696,4.963769999999998,0.0,5638.0,0.625,-142.5,-429.92127388715744,0.0,0.125,3.3776852010000002,0.01,0.0,3522.0,0.875,127.5,429.92127388715744,0.0,0.375,1.6296385050000002,0.01,0.0,-1.909999966621399,1.0,-39.41999816894531,-0.05670166015625,0.10955810546875,1.0889892578125,25.889999389648438,0.0,-151.0,-0.6182403564453125,-0.2233123779296875,Waiting,0.0,0.0,0.0,0.0,0.0,0.0,0.0,0.0,
4.715738000000012,0.0,0.0,6080.0,0.75,-150.0,-512.5984311103821,0.0,0.0,0.821533119,4.932250999999998,0.0,-6586.0,1.375,142.5,512.5984311103821,0.0,0.0,0.526122993,4.963769999999998,0.0,5638.0,1.5,-157.5,-512.5984311103821,0.0,0.125,3.395995746,0.01,0.0,3541.0,1.5,112.5,512.5984311103821,0.0,0.0,1.6540525650000002,0.01,0.0,-1.7999999523162842,0.8100000023841858,-39.43000030517578,-0.08953857421875,-0.0389404296875,1.1048583984375,25.889999389648438,0.0,-78.0,-0.6210479736328125,-0.22222900390625,Waiting,0.0,0.0,0.0,0.0,0.0,0.0,0.0,0.0,
4.784202999999979,0.0,0.0,6060.0,1.875,-97.5,-529.1338562965393,0.0,0.0,0.821533119,4.932250999999998,0.0,-6568.0,2.125,82.5,529.1338562965393,0.0,0.0,0.52490229,4.963769999999998,0.0,5617.0,2.5,-105.0,-529.1338562965393,0.0,0.0,3.395995746,0.01,0.0,3541.0,3.125,82.5,529.1338562965393,0.0,0.125,1.6564939710000002,0.01,0.0,-1.809999942779541,0.4099999964237213,-39.459999084472656,-0.15850830078125,-0.01409912109375,1.08575439453125,25.889999389648438,0.0,-141.0,-0.62713623046875,-0.222869873046875,Waiting,0.0,0.0,0.0,0.0,0.0,0.0,0.0,0.0,
4.85276000000001,0.0,0.0,6029.0,2.25,-165.0,-545.6692814826965,0.0,0.0,0.821533119,4.932250999999998,0.0,-6536.0,2.875,157.5,545.6692814826965,0.0,0.0,0.52490229,4.963769999999998,0.0,5586.0,3.25,-157.5,-545.6692814826965,0.0,0.0,3.400878558,0.01,0.0,3568.0,4.125,172.5,545.6692814826965,0.0,0.125,1.643066238,0.01,0.0,-1.7400000095367432,0.05999999865889549,-39.54999923706055,-0.08880615234375,-0.061767578125,1.041259765625,25.889999389648438,0.0,-50.0,-0.635101318359375,-0.2250518798828125,Waiting,0.0,0.0,0.0,0.0,0.0,0.0,0.0,0.0,
4.915217999999993,0.0,0.0,6029.0,2.25,-247.5,-545.6692814826965,0.0,0.125,0.833740149,4.932250999999998,0.0,-6536.0,3.125,255.0,545.6692814826965,0.0,0.0,0.523681587,4.963769999999998,0.0,5586.0,3.375,-247.5,-545.6692814826965,0.0,0.0,3.400878558,0.01,0.0,3568.0,3.25,255.0,545.6692814826965,0.0,0.125,1.643066238,0.01,0.0,-1.7200000286102295,-0.23999999463558197,-39.5099983215332,-0.14178466796875,-0.06549072265625,1.04931640625,25.81999969482422,0.0,-84.0,-0.64569091796875,-0.229095458984375,Waiting,0.0,0.0,0.0,0.0,0.0,0.0,0.0,0.0,
4.977184999999998,0.0,0.0,5971.0,2.125,-337.5,-545.6692814826965,0.0,0.125,0.8422850700000001,4.932250999999998,0.0,-6477.0,2.625,337.5,545.6692814826965,0.0,0.0,0.527343696,4.963769999999998,0.0,5529.0,3.0,-330.0,-545.6692814826965,0.0,0.0,3.400878558,0.01,0.0,3620.0,3.125,337.5,545.6692814826965,0.0,0.125,1.643066238,0.01,0.0,-1.6200000047683716,-0.5699999928474426,-39.54999923706055,-0.12579345703125,-0.01654052734375,1.08441162109375,25.81999969482422,0.0,-97.0,-0.66204833984375,-0.2360076904296875,Waiting,0.0,0.0,0.0,0.0,0.0,0.0,0.0,0.0,
5.0467010000000005,0.0,0.0,5971.0,1.875,-405.0,-545.6692814826965,0.0,0.125,0.839843664,4.932250999999998,0.0,-6477.0,2.625,412.5,545.6692814826965,0.0,0.0,0.52490229,4.963769999999998,0.0,5529.0,2.875,-397.5,-545.6692814826965,0.0,0.0,3.399657855,0.01,0.0,3620.0,2.75,412.5,545.6692814826965,0.0,0.125,1.644286941,0.01,0.0,-1.5800000429153442,-0.75,-39.54999923706055,-0.03753662109375,0.07464599609375,1.07952880859375,25.81999969482422,0.0,-84.0,-0.6769256591796875,-0.2425537109375,Waiting,0.0,0.0,0.0,0.0,0.0,0.0,0.0,0.0,
5.1084259999999775,0.0,0.0,5894.0,1.625,-465.0,-545.6692814826965,0.0,0.125,0.839843664,4.932250999999998,0.0,-6399.0,2.0,472.5,545.6692814826965,0.0,0.0,0.527343696,4.963769999999998,0.0,5453.0,2.375,-465.0,-545.6692814826965,0.0,0.0,3.395995746,0.01,0.0,3693.0,2.5,465.0,545.6692814826965,0.0,0.125,1.644286941,0.01,0.0,-1.4900000095367432,-0.8799999952316284,-39.54999923706055,-0.0391845703125,0.032470703125,1.10162353515625,25.81999969482422,0.0,-56.0,-0.692962646484375,-0.249237060546875,Waiting,0.0,0.0,0.0,0.0,0.0,0.0,0.0,0.0,
5.1710069999999835,0.0,0.0,5894.0,1.25,-510.0,-545.6692814826965,0.0,0.125,0.839843664,4.932250999999998,0.0,-6399.0,1.875,525.0,545.6692814826965,0.0,0.0,0.526122993,4.963769999999998,0.0,5453.0,2.125,-502.5,-545.6692814826965,0.0,0.0,3.395995746,0.01,0.0,3778.0,2.125,502.5,545.6692814826965,0.0,0.125,1.643066238,0.01,0.0,-1.4299999475479126,-0.9800000190734863,-39.58000183105469,-0.04901123046875,-0.0350341796875,1.14971923828125,25.81999969482422,0.0,-18.0,-0.7098846435546875,-0.2556610107421875,Waiting,0.0,0.0,0.0,0.0,0.0,0.0,0.0,0.0,
5.233758000000031,0.0,0.0,5806.0,0.75,-540.0,-545.6692814826965,0.0,0.125,0.839843664,4.932250999999998,0.0,-6311.0,1.5,547.5,545.6692814826965,0.0,0.0,0.52490229,4.963769999999998,0.0,5370.0,2.0,-525.0,-545.6692814826965,0.0,0.0,3.391112934,0.01,0.0,3778.0,2.0,540.0,545.6692814826965,0.0,0.125,1.643066238,0.01,0.0,-1.4299999475479126,-1.059999942779541,-39.59000015258789,-0.04852294921875,-0.00701904296875,1.1021728515625,25.81999969482422,0.0,-34.0,-0.7143096923828125,-0.26177978515625,Waiting,0.0,0.0,0.0,0.0,0.0,0.0,0.0,0.0,
5.296190999999991,0.0,0.0,5806.0,0.625,-570.0,-545.6692814826965,0.0,0.125,0.839843664,4.932250999999998,0.0,-6311.0,1.25,562.5,545.6692814826965,0.0,0.0,0.51269526,4.963769999999998,0.0,5370.0,2.25,-450.0,-545.6692814826965,0.0,0.0,3.389892231,0.01,0.0,3870.0,1.75,562.5,545.6692814826965,0.0,0.125,1.643066238,0.01,0.0,-1.3799999952316284,-1.100000023841858,-39.54999923706055,-0.00146484375,-0.02117919921875,1.1085205078125,25.81999969482422,0.0,11.0,-0.71441650390625,-0.2661895751953125,Waiting,0.0,0.0,0.0,0.0,0.0,0.0,0.0,0.0,
5.364751999999979,0.0,0.0,5713.0,0.375,-577.5,-545.6692814826965,0.0,0.125,0.839843664,4.932250999999998,0.0,-6218.0,1.25,577.5,545.6692814826965,0.0,0.0,0.52490229,4.963769999999998,0.0,5312.0,3.0,-352.5,-545.6692814826965,0.0,0.0,3.391112934,0.01,0.0,3870.0,1.625,585.0,545.6692814826965,0.0,0.125,1.644286941,0.01,0.0,-1.3600000143051147,-1.159999966621399,-39.560001373291016,-0.03839111328125,0.01837158203125,1.1470947265625,25.81999969482422,0.0,-40.0,-0.714569091796875,-0.266387939453125,Waiting,0.0,0.0,0.0,0.0,0.0,0.0,0.0,0.0,
5.427237000000023,0.0,0.0,5713.0,0.375,-585.0,-545.6692814826965,0.0,0.125,0.8410643670000001,4.932250999999998,0.0,-6218.0,1.0,585.0,545.6692814826965,0.0,0.0,0.52490229,4.963769999999998,0.0,5312.0,3.75,-367.5,-545.6692814826965,0.0,0.0,3.389892231,0.01,0.0,3966.0,1.25,592.5,545.6692814826965,0.0,0.125,1.644286941,0.01,0.0,-1.3700000047683716,-1.2300000190734863,-39.529998779296875,-0.05029296875,0.0230712890625,1.13580322265625,25.90999984741211,0.0,-51.0,-0.7151336669921875,-0.2664337158203125,Waiting,0.0,0.0,0.0,0.0,0.0,0.0,0.0,0.0,
5.492153999999981,0.0,0.0,5614.0,0.125,-615.0,-545.6692814826965,0.0,0.125,0.839843664,4.932250999999998,0.0,-6121.0,0.75,615.0,545.6692814826965,0.0,0.0,0.52490229,4.963769999999998,0.0,5239.0,3.375,-487.5,-545.6692814826965,0.0,0.0,3.389892231,0.01,0.0,3966.0,0.875,607.5,545.6692814826965,0.0,0.125,1.649169753,0.01,0.0,-1.340000033378601,-1.190000057220459,-39.4900016784668,-0.050537109375,0.0367431640625,1.02044677734375,25.90999984741211,0.0,-61.0,-0.716033935546875,-0.2660064697265625,Waiting,0.0,0.0,0.0,0.0,0.0,0.0,0.0,0.0,
5.553946999999986,0.0,0.0,5614.0,0.125,-630.0,-545.6692814826965,0.0,0.125,0.8422850700000001,4.932250999999998,0.0,-6121.0,0.625,630.0,545.6692814826965,0.0,0.0,0.52490229,4.963769999999998,0.0,5239.0,2.75,-585.0,-545.6692814826965,0.0,0.0,3.391112934,0.01,0.0,4065.0,0.875,615.0,545.6692814826965,0.0,0.125,1.6625974860000001,0.01,0.0,-1.309999942779541,-1.149999976158142,-39.5,-0.002197265625,0.00506591796875,0.96044921875,25.90999984741211,0.0,-4.0,-0.7173309326171875,-0.2649993896484375,Waiting,0.0,0.0,0.0,0.0,0.0,0.0,0.0,0.0,
5.615345000000031,0.0,0.0,5513.0,0.125,-622.5,-545.6692814826965,0.0,0.125,0.8422850700000001,4.932250999999998,0.0,-6019.0,0.375,630.0,545.6692814826965,0.0,0.0,0.544433538,4.963769999999998,0.0,5145.0,2.375,-577.5,-545.6692814826965,0.0,0.0,3.389892231,0.01,0.0,4065.0,0.75,622.5,545.6692814826965,0.0,0.125,1.6638181890000001,0.01,0.0,-1.2699999809265137,-1.0,-39.58000183105469,0.0648193359375,0.010009765625,0.8670654296875,25.90999984741211,0.0,43.0,-0.7188873291015625,-0.2625579833984375,Waiting,0.0,0.0,0.0,0.0,0.0,0.0,0.0,0.0,
5.676699000000022,0.0,0.0,5513.0,0.125,-615.0,-545.6692814826965,0.0,0.125,0.839843664,4.932250999999998,0.0,-6019.0,0.375,615.0,545.6692814826965,0.0,0.0,0.5432128350000001,4.963769999999998,0.0,5145.0,2.5,-517.5,-545.6692814826965,0.0,0.0,3.391112934,0.01,0.0,4165.0,0.5,615.0,545.6692814826965,0.0,0.125,1.6638181890000001,0.01,0.0,-1.2799999713897705,-1.0099999904632568,-39.619998931884766,0.0107421875,0.00726318359375,0.86932373046875,25.90999984741211,0.0,3.0,-0.719879150390625,-0.259490966796875,Waiting,0.0,0.0,0.0,0.0,0.0,0.0,0.0,0.0,
5.740023999999976,0.0,0.0,5415.0,0.125,-607.5,-545.6692814826965,0.0,0.125,0.8410643670000001,4.932250999999998,0.0,-5924.0,0.5,570.0,545.6692814826965,0.0,0.0,0.544433538,4.963769999999998,0.0,5074.0,3.5,-420.0,-545.6692814826965,0.0,0.0,3.391112934,0.01,0.0,4165.0,0.5,600.0,545.6692814826965,0.0,0.125,1.667480298,0.01,0.0,-1.25,-1.0099999904632568,-39.59000015258789,0.02587890625,0.01116943359375,0.99188232421875,25.90999984741211,0.0,12.0,-0.721099853515625,-0.2555389404296875,Waiting,0.0,0.0,0.0,0.0,0.0,0.0,0.0,0.0,
5.8072449999999955,0.0,0.0,5415.0,0.125,-592.5,-545.6692814826965,0.0,0.125,0.8410643670000001,4.932250999999998,0.0,-5831.0,0.5,570.0,545.6692814826965,0.0,0.0,0.544433538,4.963769999999998,0.0,5000.0,4.0,-435.0,-545.6692814826965,0.0,0.0,3.391112934,0.01,0.0,4259.0,0.5,585.0,545.6692814826965,0.0,0.125,1.6638181890000001,0.01,0.0,-1.2100000381469727,-0.9800000190734863,-39.52000045776367,0.02886962890625,0.0020751953125,1.13092041015625,25.90999984741211,0.0,20.0,-0.721343994140625,-0.2532806396484375,Waiting,0.0,0.0,0.0,0.0,0.0,0.0,0.0,0.0,
5.869895000000018,0.0,0.0,5321.0,0.0,-577.5,-545.6692814826965,0.0,0.125,0.839843664,4.932250999999998,0.0,-5831.0,0.375,585.0,545.6692814826965,0.0,0.0,0.545654241,4.963769999999998,0.0,5000.0,4.0,-472.5,-545.6692814826965,0.0,0.0,3.389892231,0.01,0.0,4259.0,0.5,577.5,545.6692814826965,0.0,0.125,1.6625974860000001,0.01,0.0,-1.1799999475479126,-0.9700000286102295,-39.52000045776367,-0.00811767578125,-0.01611328125,1.10186767578125,25.90999984741211,0.0,4.0,-0.7211456298828125,-0.2530059814453125,Waiting,0.0,0.0,0.0,0.0,0.0,0.0,0.0,0.0,
5.932262999999977,0.0,0.0,5228.0,0.0,-577.5,-545.6692814826965,0.0,0.125,0.839843664,4.932250999999998,0.0,-5734.0,0.25,600.0,545.6692814826965,0.0,0.0,0.544433538,4.963769999999998,0.0,4929.0,4.25,-457.5,-545.6692814826965,0.0,0.0,3.382568013,0.01,0.0,4354.0,0.375,600.0,545.6692814826965,0.0,0.125,1.667480298,0.01,0.0,-1.1299999952316284,-0.8399999737739563,-39.4900016784668,0.07513427734375,0.01177978515625,0.921630859375,25.899999618530273,0.0,49.0,-0.7209625244140625,-0.2526702880859375,Waiting,0.0,0.0,0.0,0.0,0.0,0.0,0.0,0.0,
6.007576000000001,0.0,0.0,5228.0,0.0,-607.5,-545.6692814826965,0.0,0.125,0.8410643670000001,4.932250999999998,0.0,-5734.0,0.125,622.5,545.6692814826965,0.0,0.0,0.545654241,4.963769999999998,0.0,4929.0,5.125,-375.0,-545.6692814826965,0.0,0.0,3.391112934,0.01,0.0,4354.0,0.125,630.0,545.6692814826965,0.0,0.125,1.667480298,0.01,0.0,-1.0700000524520874,-0.8199999928474426,-39.459999084472656,0.00982666015625,0.05419921875,1.00946044921875,25.899999618530273,0.0,-27.0,-0.7202301025390625,-0.25146484375,Waiting,0.0,0.0,0.0,0.0,0.0,0.0,0.0,0.0,
6.0698680000000165,0.0,0.0,5126.0,0.0,-637.5,-545.6692814826965,0.0,0.125,0.821533119,4.932250999999998,0.0,-5632.0,0.0,637.5,545.6692814826965,0.0,0.0,0.545654241,4.963769999999998,0.0,4865.0,6.0,-390.0,-545.6692814826965,0.0,0.0,3.391112934,0.01,0.0,4455.0,0.125,622.5,545.6692814826965,0.0,0.125,1.668701001,0.01,0.0,-1.0299999713897705,-0.7699999809265137,-39.40999984741211,-0.06573486328125,0.0126953125,0.97967529296875,25.899999618530273,0.0,-59.0,-0.72003173828125,-0.2492523193359375,Waiting,0.0,0.0,0.0,0.0,0.0,0.0,0.0,0.0,
6.131523999999976,0.0,0.0,5126.0,0.0,-630.0,-545.6692814826965,0.0,0.125,0.839843664,4.932250999999998,0.0,-5632.0,0.0,630.0,545.6692814826965,0.0,0.0,0.544433538,4.963769999999998,0.0,4865.0,5.875,-435.0,-545.6692814826965,0.0,0.0,3.391112934,0.01,0.0,4553.0,0.125,615.0,545.6692814826965,0.0,0.125,1.667480298,0.01,0.0,-0.9700000286102295,-0.699999988079071,-39.34000015258789,-0.03253173828125,-0.05340576171875,0.9549560546875,25.899999618530273,0.0,7.0,-0.720458984375,-0.2469024658203125,Waiting,0.0,0.0,0.0,0.0,0.0,0.0,0.0,0.0,
6.196802000000025,0.0,0.0,5026.0,0.0,-622.5,-545.6692814826965,0.0,0.125,0.8447264760000001,4.932250999999998,0.0,-5532.0,0.0,615.0,545.6692814826965,0.0,0.0,0.544433538,4.963769999999998,0.0,4825.0,7.375,-232.5,-545.6692814826965,0.0,0.0,3.383788716,0.01,0.0,4553.0,0.125,600.0,545.6692814826965,0.0,0.125,1.6577146740000002,0.01,0.0,-0.9399999976158142,-0.6399999856948853,-39.2400016784668,-0.00775146484375,-0.06378173828125,0.87725830078125,25.899999618530273,0.0,32.0,-0.7208251953125,-0.2450103759765625,Waiting,0.0,0.0,0.0,0.0,0.0,0.0,0.0,0.0,
6.264107000000018,0.0,0.0,5026.0,0.0,-622.5,-545.6692814826965,0.0,0.125,0.839843664,4.932250999999998,0.0,-5532.0,0.0,600.0,545.6692814826965,0.0,0.0,0.545654241,4.963769999999998,0.0,4825.0,11.25,-135.0,-545.6692814826965,0.0,0.0,3.391112934,0.01,0.0,4648.0,0.125,592.5,545.6692814826965,0.0,0.125,1.6577146740000002,0.01,0.0,-0.9300000071525574,-0.6600000262260437,-39.029998779296875,0.04632568359375,-0.05059814453125,0.9066162109375,25.899999618530273,0.0,66.0,-0.7212677001953125,-0.2445526123046875,Waiting,0.0,0.0,0.0,0.0,0.0,0.0,0.0,0.0,
6.328081999999995,0.0,0.0,4922.0,0.0,-645.0,-545.6692814826965,0.0,0.125,0.839843664,4.932250999999998,0.0,-5436.0,0.0,600.0,545.6692814826965,0.0,0.0,0.54931635,4.963769999999998,0.0,4797.0,13.125,-172.5,-545.6692814826965,0.0,0.0,3.389892231,0.01,0.0,4648.0,0.125,600.0,545.6692814826965,0.0,0.125,1.6589353770000002,0.01,0.0,-0.8600000143051147,-0.6100000143051147,-38.849998474121094,-0.0126953125,0.037841796875,1.1484375,25.899999618530273,0.0,-34.0,-0.7216644287109375,-0.24407958984375,Waiting,0.0,0.0,0.0,0.0,0.0,0.0,0.0,0.0,
6.395536000000022,0.0,0.0,4922.0,0.0,-660.0,-545.6692814826965,0.0,0.125,0.839843664,4.932250999999998,0.0,-5436.0,0.125,630.0,545.6692814826965,0.0,0.0,0.545654241,4.963769999999998,0.0,4797.0,14.0,-240.0,-545.6692814826965,0.0,0.0,3.389892231,0.01,0.0,4748.0,0.375,622.5,545.6692814826965,0.0,0.125,1.6589353770000002,0.01,0.0,-0.8500000238418579,-0.6299999952316284,-38.65999984741211,-0.0712890625,-0.0128173828125,0.83538818359375,25.899999618530273,0.0,-48.0,-0.7224578857421875,-0.2434844970703125,Waiting,0.0,0.0,0.0,0.0,0.0,0.0,0.0,0.0,
6.457286000000022,0.0,0.0,4814.0,0.0,-675.0,-545.6692814826965,0.0,0.125,0.838622961,4.932250999999998,0.0,-5335.0,0.0,637.5,545.6692814826965,0.0,0.0,0.545654241,4.963769999999998,0.0,4752.0,14.5,-247.5,-545.6692814826965,0.0,0.0,3.391112934,0.01,0.0,4748.0,0.375,622.5,545.6692814826965,0.0,0.125,1.6564939710000002,0.01,0.0,-0.9100000262260437,-0.6899999976158142,-38.34000015258789,0.0423583984375,-0.0535888671875,0.837890625,25.899999618530273,0.0,66.0,-0.7232208251953125,-0.24249267578125,Waiting,0.0,0.0,0.0,0.0,0.0,0.0,0.0,0.0,
6.521622000000032,0.0,0.0,4814.0,0.0,-697.5,-545.6692814826965,0.0,0.125,0.8410643670000001,4.932250999999998,0.0,-5335.0,0.0,652.5,545.6692814826965,0.0,0.0,0.544433538,4.963769999999998,0.0,4752.0,17.5,-90.0,-545.6692814826965,0.0,0.0,3.389892231,0.01,0.0,4851.0,0.375,637.5,545.6692814826965,0.0,0.125,1.6589353770000002,0.01,0.0,-0.9100000262260437,-0.7699999809265137,-38.119998931884766,0.02685546875,-0.00152587890625,1.12152099609375,25.899999618530273,0.0,22.0,-0.72308349609375,-0.242645263671875,Waiting,0.0,0.0,0.0,0.0,0.0,0.0,0.0,0.0,
6.587190000000002,0.0,0.0,4702.0,0.0,-705.0,-545.6692814826965,0.0,0.125,0.839843664,4.932250999999998,0.0,-5229.0,0.0,660.0,545.6692814826965,0.0,0.0,0.545654241,4.963769999999998,0.0,4741.0,21.0,-105.0,-545.6692814826965,0.0,0.0,3.395995746,0.01,0.0,4851.0,0.375,652.5,545.6692814826965,0.0,0.125,1.6577146740000002,0.01,0.0,-0.9100000262260437,-0.8500000238418579,-37.869998931884766,-0.01190185546875,0.03741455078125,1.211181640625,25.899999618530273,0.0,-29.0,-0.722564697265625,-0.2428436279296875,Waiting,0.0,0.0,0.0,0.0,0.0,0.0,0.0,0.0,
6.65042300000001,0.0,0.0,4578.0,0.0,-727.5,-545.6692814826965,0.0,0.125,0.8410643670000001,4.932250999999998,0.0,-5123.0,0.0,660.0,545.6692814826965,0.0,0.0,0.544433538,4.963769999999998,0.0,4706.0,21.25,-187.5,-545.6692814826965,0.0,0.0,3.395995746,0.01,0.0,4957.0,0.375,652.5,545.6692814826965,0.0,0.125,1.6577146740000002,0.01,0.0,-0.8500000238418579,-0.8500000238418579,-37.439998626708984,0.09942626953125,-0.01031494140625,0.99127197265625,25.899999618530273,0.0,87.0,-0.7219390869140625,-0.243011474609375,Waiting,0.0,0.0,0.0,0.0,0.0,0.0,0.0,0.0,
6.713201000000001,0.0,0.0,4578.0,0.0,-787.5,-545.6692814826965,0.0,0.125,0.839843664,4.932250999999998,0.0,-5123.0,0.0,660.0,545.6692814826965,0.0,0.0,0.545654241,4.963769999999998,0.0,4706.0,20.75,-232.5,-545.6692814826965,0.0,0.0,3.394775043,0.01,0.0,4957.0,0.375,652.5,545.6692814826965,0.0,0.125,1.6589353770000002,0.01,0.0,-0.8199999928474426,-0.8500000238418579,-36.97999954223633,0.0421142578125,-0.01239013671875,0.9862060546875,25.899999618530273,0.0,44.0,-0.720947265625,-0.2440185546875,Waiting,0.0,0.0,0.0,0.0,0.0,0.0,0.0,0.0,
6.775157000000006,0.0,0.0,4454.0,0.0,-780.0,-545.6692814826965,0.0,0.125,0.8276366340000001,4.932250999999998,0.0,-5017.0,0.0,660.0,545.6692814826965,0.0,0.0,0.552978459,4.963769999999998,0.0,4665.0,21.375,-240.0,-545.6692814826965,0.0,0.0,3.395995746,0.01,0.0,5061.0,0.125,652.5,545.6692814826965,0.0,0.125,1.6589353770000002,0.01,0.0,-0.7799999713897705,-0.8199999928474426,-36.540000915527344,-0.0980224609375,-0.1475830078125,1.03509521484375,25.899999618530273,0.0,12.0,-0.7192230224609375,-0.24468994140625,Waiting,0.0,0.0,0.0,0.0,0.0,0.0,0.0,0.0,
6.843194000000017,0.0,0.0,4454.0,0.125,-780.0,-545.6692814826965,0.0,0.125,0.8312987430000001,4.932250999999998,0.0,-5017.0,0.0,667.5,545.6692814826965,0.0,0.0,0.544433538,4.963769999999998,0.0,4665.0,21.25,-397.5,-545.6692814826965,0.0,0.0,3.395995746,0.01,0.0,5061.0,0.125,660.0,545.6692814826965,0.0,0.125,1.6589353770000002,0.01,0.0,-0.75,-0.8600000143051147,-35.939998626708984,-0.17767333984375,-0.09136962890625,1.2908935546875,25.899999618530273,0.0,-84.0,-0.716156005859375,-0.246002197265625,Waiting,0.0,0.0,0.0,0.0,0.0,0.0,0.0,0.0,
6.908849999999977,0.0,0.0,4337.0,0.375,-727.5,-545.6692814826965,0.0,0.125,0.839843664,4.932250999999998,0.0,-4907.0,0.0,682.5,545.6692814826965,0.0,0.0,0.544433538,4.963769999999998,0.0,4576.0,20.25,-555.0,-545.6692814826965,0.0,0.0,3.394775043,0.01,0.0,5168.0,0.125,667.5,545.6692814826965,0.0,0.125,1.6577146740000002,0.01,0.0,-0.7300000190734863,-0.7900000214576721,-35.689998626708984,0.06207275390625,-0.03057861328125,1.392333984375,25.899999618530273,0.0,73.0,-0.713348388671875,-0.2471466064453125,Waiting,0.0,0.0,0.0,0.0,0.0,0.0,0.0,0.0,
6.970060999999987,0.0,0.0,4337.0,0.375,-705.0,-545.6692814826965,0.0,0.125,0.839843664,4.932250999999998,0.0,-4907.0,0.0,682.5,545.6692814826965,0.0,0.0,0.544433538,4.963769999999998,0.0,4576.0,19.75,-547.5,-545.6692814826965,0.0,0.0,3.397216449,0.01,0.0,5168.0,0.0,682.5,545.6692814826965,0.0,0.125,1.6577146740000002,0.01,0.0,-0.7400000095367432,-0.7099999785423279,-35.52000045776367,0.0164794921875,-0.03997802734375,1.12591552734375,25.899999618530273,0.0,39.0,-0.70904541015625,-0.2479248046875,Waiting,0.0,0.0,0.0,0.0,0.0,0.0,0.0,0.0,
7.030449000000022,0.0,0.0,4230.0,6.875,-660.0,522.7144721060174,0.0,5.125,0.9362792010000001,1.129169151370061,0.0,-4797.0,0.125,682.5,1270.751756928448,0.0,0.5,0.47607417,4.631979503763582,0.0,4490.0,11.0,-532.5,522.7144721060174,0.0,5.125,3.2153317020000003,3.8093652502622746,0.0,5278.0,0.375,690.0,1270.751756928448,0.0,0.375,1.668701001,0.3314048153601318,0.0,-0.7099999785423279,-0.46000000834465027,-35.45000076293945,0.276123046875,0.08251953125,0.92474365234375,25.899999618530273,0.0,176.0,-0.7042388916015625,-0.2476654052734375,Waiting,0.0,0.0,0.0,0.0,0.0,0.0,0.0,0.0,
7.095569000000018,0.0,0.0,4230.0,16.875,-487.5,811.413893960265,0.0,2.125,1.439208837,0.9017360093133433,0.0,-4797.0,1.875,735.0,1604.6603394514443,0.0,0.0,0.273437472,4.58500671974577,0.0,4490.0,2.25,-502.5,811.413893960265,0.0,1.625,2.714843472,4.037174154354342,0.0,5412.0,2.625,750.0,1604.6603394514443,0.0,0.25,1.827392391,0.37832299713735235,0.0,-0.46000000834465027,0.3199999928474426,-36.34000015258789,-0.05914306640625,-0.00665283203125,0.927001953125,25.899999618530273,0.0,-52.0,-0.6948699951171875,-0.2417755126953125,Waiting,0.0,0.0,0.0,0.0,0.0,0.0,0.0,0.0,
7.167717000000004,0.0,0.0,4211.0,11.875,-90.0,128.19681893459574,0.0,0.375,1.8444822330000001,1.1209758299615553,0.0,-4658.0,1.0,795.0,309.97247716524174,0.0,0.0,0.13427733,4.6305767652045535,0.0,4428.0,5.875,-285.0,128.19681893459574,0.0,0.5,2.3266599180000003,3.8175721085682652,0.0,5412.0,1.0,727.5,309.97247716524174,0.0,0.25,1.990966593,0.3328059233437131,0.0,-0.25999999046325684,1.059999942779541,-39.09000015258789,0.20477294921875,-0.1331787109375,1.27734375,25.899999618530273,0.0,220.0,-0.6807861328125,-0.2286224365234375,Waiting,0.0,0.0,0.0,0.0,0.0,0.0,0.0,0.0,
7.235130999999994,0.0,0.0,4211.0,1.375,270.0,0.0,0.0,0.375,1.932372849,1.1209758299615553,0.37353511799999994,-4658.0,0.0,457.5,0.0,0.0,0.0,0.12939451800000001,4.6305767652045535,0.0,4428.0,1.375,-60.0,0.0,0.0,0.125,2.180175558,3.8175721085682652,0.0,5471.0,0.0,360.0,0.0,0.0,0.125,2.019042762,0.3328059233437131,0.0,-0.7099999785423279,1.350000023841858,-41.31999969482422,0.082275390625,-0.29144287109375,0.8189697265625,25.899999618530273,0.0,232.0,-0.6656646728515625,-0.21575927734375,Waiting,0.0,0.0,0.0,0.0,0.0,0.0,0.0,0.0,
