Time,ClimberA1,ClimberA2,FRpos,FRCurrent,FRspeed,FRsetpoint,FRApos,FRACurrent,FREncpos,FREncSetpoint,FREncSpeed,FLpos,FLCurrent,FLspeed,FLsetpoint,FLApos,FLACurrent,FLEncpos,FLEncSetpoint,FLEncSpeed,BRpos,BRCurrent,BRspeed,BRsetpoint,BRApos,BRACurrent,BREncpos,BREncSetpoint,BREncSpeed,BLpos,BLCurrent,BLspeed,BLsetpoint,BLApos,BLACurrent,BLEncpos,BLEncSetpoint,BLEncSpeed,navx_Pitch,navx_Roll,navx_Yaw,navx_XAcc,navx_YAcc,navx_ZAcc,navx_Temp,navx_Bar,navx_Alt,navx_XDis,navx_YDis,GearPlacerState,ShootOutputV,ShootOutputCurrent,ShootEncPos,ShootEncVelocity,ShootSpeed,ShootSetpoint,CarouselSetpoint,CarouselCurrent,
0.14905199999990873,0.0,0.0,61154.0,0.0,0.0,0.0,0.0,0.125,0.8056639800000001,0.01,0.0,-53142.0,0.0,0.0,0.0,0.0,0.125,0.531005805,0.01,0.0,78825.0,0.0,0.0,0.0,0.0,0.125,3.392333637,0.01,0.0,-54459.0,0.0,0.0,0.0,0.0,0.25,1.673583813,0.01,0.0,0.8100000023841858,-0.949999988079071,0.0,-0.00836181640625,0.00341796875,1.15362548828125,33.939998626708984,0.0,10.0,-4.7314300537109375,3.7151336669921875,Closing,0.0,0.0,42.0,0.0,0.0,0.0,0.0,0.0,
0.3244560000000056,0.0,0.0,61154.0,0.0,0.0,0.0,0.0,0.125,0.8032225740000001,0.01,0.0,-53142.0,0.0,0.0,0.0,0.0,0.125,0.5297851020000001,0.01,0.0,78825.0,0.0,0.0,0.0,0.0,0.125,3.39355434,0.01,0.0,-54459.0,0.0,0.0,0.0,0.0,0.25,1.673583813,0.01,0.0,0.8899999856948853,-0.949999988079071,0.0,0.027587890625,0.0694580078125,1.111083984375,33.939998626708984,0.0,46.0,-4.730682373046875,3.7092437744140625,Closing,0.0,0.0,42.0,0.0,0.0,0.0,0.0,0.0,
0.4967379999998957,0.0,0.0,61154.0,0.0,0.0,0.0,0.0,0.125,0.8032225740000001,0.01,0.0,-53142.0,0.0,0.0,0.0,0.0,0.125,0.5297851020000001,0.01,0.0,78825.0,0.0,0.0,0.0,0.0,0.125,3.392333637,0.01,0.0,-54459.0,0.0,0.0,0.0,0.0,0.25,1.673583813,0.01,0.0,0.8899999856948853,-0.949999988079071,0.0,-0.0040283203125,0.00958251953125,1.00592041015625,33.939998626708984,0.0,12.0,-4.730560302734375,3.704986572265625,Closing,0.0,0.0,42.0,0.0,0.0,0.0,0.0,0.0,
0.6713279999999795,0.0,0.0,61154.0,0.0,0.0,0.0,0.0,0.125,0.8032225740000001,0.01,0.0,-53142.0,0.0,0.0,0.0,0.0,0.125,0.531005805,0.01,0.0,78825.0,0.0,0.0,0.0,0.0,0.125,3.391112934,0.01,0.0,-54459.0,0.0,0.0,0.0,0.0,0.25,1.673583813,0.01,0.0,0.8700000047683716,-0.9599999785423279,-0.009999999776482582,-0.0152587890625,0.019775390625,1.017333984375,33.939998626708984,0.0,1.0,-4.730560302734375,3.704986572265625,Closing,0.0,0.0,42.0,0.0,0.0,0.0,0.0,0.0,
0.8364539999999105,0.0,0.0,61154.0,0.0,0.0,0.0,0.0,0.125,0.8020018710000001,0.01,0.0,-53142.0,0.0,0.0,0.0,0.0,0.125,0.531005805,0.01,0.0,78825.0,0.0,0.0,0.0,0.0,0.125,3.392333637,0.01,0.0,-54459.0,0.0,0.0,0.0,0.0,0.25,1.673583813,0.01,0.0,0.8600000143051147,-0.9599999785423279,0.0,-0.01971435546875,0.01806640625,1.0225830078125,33.95000076293945,0.0,-2.0,-4.730560302734375,3.704986572265625,Closing,0.0,0.0,42.0,0.0,0.0,0.0,0.0,0.0,
1.0096579999998212,0.0,0.0,61154.0,0.0,0.0,0.0,0.0,0.125,0.8020018710000001,0.01,0.0,-53142.0,0.0,0.0,0.0,0.0,0.125,0.531005805,0.01,0.0,78825.0,0.0,0.0,0.0,0.0,0.125,3.39355434,0.01,0.0,-54459.0,0.0,0.0,0.0,0.0,0.25,1.673583813,0.01,0.0,0.8500000238418579,-0.9700000286102295,0.0,-0.01629638671875,0.0079345703125,1.02044677734375,33.95000076293945,0.0,0.0,-4.730560302734375,3.704986572265625,Closing,0.0,0.0,42.0,0.0,0.0,0.0,0.0,0.0,
1.1746489999999759,0.0,0.0,61154.0,0.0,0.0,0.0,0.0,0.125,0.8020018710000001,0.01,0.0,-53142.0,0.0,0.0,0.0,0.0,0.125,0.531005805,0.01,0.0,78825.0,0.0,0.0,0.0,0.0,0.125,3.391112934,0.01,0.0,-54459.0,0.0,0.0,0.0,0.0,0.25,1.673583813,0.01,0.0,0.8399999737739563,-0.9700000286102295,0.0,-0.017333984375,0.010986328125,1.02459716796875,33.95000076293945,0.0,0.0,-4.730560302734375,3.704986572265625,Closing,0.0,0.0,42.0,0.0,0.0,0.0,0.0,0.0,
1.3526589999999852,0.0,0.0,61128.0,37.5,-292.5,-2100.0,0.0,1.5,1.068115125,0.5498168668524864,0.0,-53331.0,18.25,-802.5,-2100.0,0.0,0.875,0.192871074,4.41043958977222,0.0,78783.0,19.75,-180.0,-2100.0,0.0,0.875,3.033446955,4.389674732977291,0.0,-54522.0,33.75,-330.0,-2100.0,0.0,1.0,1.9140623040000002,0.552687206278561,0.0,0.8600000143051147,-0.949999988079071,3.759999990463257,0.24078369140625,0.28204345703125,1.69573974609375,33.939998626708984,0.0,285.0,-4.740203857421875,3.69573974609375,Closing,0.0,0.0,42.0,0.0,0.0,0.0,0.0,0.0,
1.5330819999999368,0.0,0.0,60911.0,35.375,-1035.0,-2100.0,0.0,0.25,1.4233396980000002,0.5498168668524864,0.0,-53510.0,23.0,-1192.5,-2100.0,0.0,0.25,4.940185041,4.41043958977222,0.0,78698.0,32.375,-592.5,-2100.0,0.0,0.375,2.8002926820000003,4.389674732977291,0.0,-54617.0,40.0,-945.0,-2100.0,0.0,0.25,2.303466561,0.552687206278561,0.0,1.2300000190734863,-1.600000023841858,17.270000457763672,-0.1744384765625,-0.1099853515625,0.9539794921875,33.939998626708984,0.0,-179.0,-4.748870849609375,3.6962127685546875,Closing,0.0,0.0,42.0,0.0,0.0,0.0,0.0,0.0,
1.7065570000000299,0.0,0.0,60606.0,18.5,-2137.5,-2100.0,0.0,0.25,1.462402194,0.5498168668524864,0.0,-53777.0,14.75,-1950.0,-2100.0,0.0,0.125,4.927978011,4.41043958977222,0.0,78573.0,26.0,-915.0,-2100.0,0.0,0.0,2.780761434,4.389674732977291,0.0,-55160.0,23.375,-2010.0,-2100.0,0.0,0.25,2.406005613,0.552687206278561,0.0,0.550000011920929,-3.0,51.369998931884766,0.09979248046875,0.1075439453125,1.04681396484375,33.939998626708984,0.0,172.0,-4.7707977294921875,3.704193115234375,Closing,0.0,0.0,42.0,0.0,0.0,0.0,0.0,0.0,
1.8775349999999162,0.0,0.0,59943.0,0.0,-1897.5,0.0,0.0,0.25,1.437988134,0.5498168668524864,0.0,-54387.0,0.0,-1725.0,0.0,0.0,0.125,4.916991684,4.41043958977222,0.0,78236.0,0.0,-1140.0,0.0,0.0,0.0,2.780761434,4.389674732977291,0.0,-55463.0,0.125,-1777.5,0.0,0.0,0.25,2.159423607,0.552687206278561,0.0,-0.550000011920929,-3.3499999046325684,86.51000213623047,-0.02044677734375,0.0252685546875,1.57598876953125,33.939998626708984,0.0,44.0,-4.779449462890625,3.7191162109375,Closing,0.0,0.0,42.0,0.0,0.0,0.0,0.0,0.0,
2.052342999999877,0.0,0.0,59667.0,0.0,-1612.5,0.0,0.0,0.25,1.4233396980000002,0.5498168668524864,0.0,-54649.0,0.0,-1627.5,0.0,0.0,0.0,4.916991684,4.41043958977222,0.0,78028.0,0.0,-1357.5,0.0,0.0,0.0,2.779540731,4.389674732977291,0.0,-55986.0,0.0,-1567.5,0.0,0.0,0.25,2.053222446,0.552687206278561,0.0,-1.8799999952316284,-2.1600000858306885,114.80999755859375,0.01837158203125,0.03289794921875,1.05914306640625,33.939998626708984,0.0,36.0,-4.79168701171875,3.7154693603515625,Closing,0.0,0.0,42.0,0.0,0.0,0.0,0.0,0.0,
2.223972999999998,0.0,0.0,59240.0,0.0,-1260.0,0.0,0.0,0.25,1.418456886,0.5498168668524864,0.0,-55144.0,0.0,-1470.0,0.0,0.0,0.0,4.913329575000001,4.41043958977222,0.0,77644.0,0.0,-1080.0,0.0,0.0,0.0,2.779540731,4.389674732977291,0.0,-56211.0,0.0,-1365.0,0.0,0.0,0.25,2.1643064190000003,0.552687206278561,0.0,-2.009999990463257,-1.5700000524520874,139.72000122070312,-0.0518798828125,0.0015869140625,0.5872802734375,33.939998626708984,0.0,41.0,-4.806854248046875,3.699615478515625,Closing,0.0,0.0,42.0,0.0,0.0,0.0,0.0,0.0,
2.407277000000002,0.0,0.0,59070.0,0.0,-975.0,0.0,0.0,0.25,1.418456886,0.5498168668524864,0.0,-55336.0,0.0,-1035.0,0.0,0.0,0.0,4.913329575000001,4.41043958977222,0.0,77488.0,0.0,-922.5,0.0,0.0,0.0,2.779540731,4.389674732977291,0.0,-56556.0,0.0,-952.5,0.0,0.0,0.125,2.2216794600000003,0.552687206278561,0.0,-1.7999999523162842,-1.4900000095367432,162.10000610351562,-0.03125,-0.13580322265625,1.070068359375,33.939998626708984,0.0,-28.0,-4.805419921875,3.670654296875,Closing,0.0,0.0,42.0,0.0,0.0,0.0,0.0,0.0,
2.596469999999972,0.0,0.0,58889.0,0.125,-202.5,-595.2756196260452,0.0,1.125,0.783691326,4.932250999999998,0.0,-55517.0,12.875,-7.5,595.2756196260452,0.0,1.75,0.40039058400000005,4.963769999999998,0.0,77259.0,0.125,-330.0,-595.2756196260452,0.0,0.75,3.4643551140000004,0.01,0.0,-56627.0,9.25,30.0,595.2756196260452,0.0,0.625,1.461181491,0.01,0.0,-1.4500000476837158,-1.5700000524520874,167.52000427246094,-0.1441650390625,-0.0096435546875,1.178955078125,33.939998626708984,0.0,113.0,-4.80078125,3.6364593505859375,Closing,0.0,0.0,42.0,0.0,0.0,0.0,0.0,0.0,
2.7912579999999143,0.0,0.0,58858.0,0.375,-330.0,-595.2756196260452,0.0,0.25,0.6579589170000001,4.932250999999998,0.0,-55430.0,11.375,262.5,595.2756196260452,0.0,0.25,0.603027282,4.963769999999998,0.0,77221.0,1.0,-150.0,-595.2756196260452,0.0,0.25,3.5717769780000004,0.01,0.0,-56545.0,8.75,255.0,595.2756196260452,0.0,0.375,1.3989256380000001,0.01,0.0,-1.409999966621399,-1.840000033378601,167.22000122070312,-0.0396728515625,-0.01129150390625,1.12152099609375,33.93000030517578,0.0,7.0,-4.7884063720703125,3.6396026611328125,Closing,0.0,0.0,42.0,0.0,0.0,0.0,0.0,0.0,
2.9755400000000374,0.0,0.0,58762.0,1.875,-300.0,-595.2756196260452,0.0,0.25,0.7922362470000001,4.932250999999998,0.0,-55375.0,13.875,367.5,595.2756196260452,0.0,0.25,0.583496034,4.963769999999998,0.0,77175.0,2.125,-292.5,-595.2756196260452,0.0,0.25,3.449706678,0.01,0.0,-56497.0,10.5,375.0,595.2756196260452,0.0,0.625,1.6357420200000001,0.01,0.0,-1.4199999570846558,-2.2799999713897705,166.6699981689453,-0.16265869140625,-0.09375,1.083251953125,33.93000030517578,0.0,100.0,-4.786346435546875,3.644378662109375,Closing,0.0,0.0,42.0,0.0,0.0,0.0,0.0,0.0,
3.1629909999999217,0.0,0.0,58690.0,0.625,-570.0,-595.2756196260452,0.0,0.125,0.887451081,4.932250999999998,0.0,-55188.0,9.5,652.5,595.2756196260452,0.0,0.0,0.5554198650000001,4.963769999999998,0.0,77024.0,1.25,-540.0,-595.2756196260452,0.0,0.125,3.3251949720000002,0.01,0.0,-56331.0,7.375,637.5,595.2756196260452,0.0,0.125,1.751708805,0.01,0.0,-1.5399999618530273,-2.8499999046325684,166.24000549316406,-0.12225341796875,0.0321044921875,0.89434814453125,33.93000030517578,0.0,88.0,-4.7727813720703125,3.6558837890625,Closing,0.0,0.0,42.0,0.0,0.0,0.0,0.0,0.0,
3.3438610000000337,0.0,0.0,58487.0,0.125,-637.5,-595.2756196260452,0.0,0.25,0.8312987430000001,4.932250999999998,0.0,-55065.0,5.25,772.5,595.2756196260452,0.0,0.0,0.49194330900000005,4.963769999999998,0.0,76957.0,1.875,-487.5,-595.2756196260452,0.0,0.0,3.338622705,0.01,0.0,-56211.0,4.5,757.5,595.2756196260452,0.0,0.25,1.6101072570000001,0.01,0.0,-1.2300000190734863,-2.700000047683716,165.58999633789062,-0.093017578125,-0.04608154296875,1.1990966796875,33.91999816894531,0.0,30.0,-4.7562408447265625,3.6667022705078125,Closing,0.0,0.0,42.0,0.0,0.0,0.0,0.0,0.0,
3.5329769999999554,0.0,0.0,58276.0,0.125,-652.5,-595.2756196260452,0.0,0.125,0.806884683,4.932250999999998,0.0,-54819.0,3.75,757.5,595.2756196260452,0.0,0.125,0.48706049700000004,4.963769999999998,0.0,76756.0,0.375,-667.5,-595.2756196260452,0.0,0.0,3.34472622,0.01,0.0,-55968.0,3.25,750.0,595.2756196260452,0.0,0.25,1.572265464,0.01,0.0,-1.059999942779541,-2.4000000953674316,165.4499969482422,-0.01416015625,-0.10247802734375,0.78875732421875,33.91999816894531,0.0,-40.0,-4.7403411865234375,3.672027587890625,Closing,0.0,0.0,42.0,0.0,0.0,0.0,0.0,0.0,
3.7166849999998233,0.0,0.0,58160.0,0.125,-720.0,-595.2756196260452,0.0,0.125,0.8020018710000001,4.932250999999998,0.0,-54696.0,2.5,757.5,595.2756196260452,0.0,0.125,0.48706049700000004,4.963769999999998,0.0,76639.0,0.375,-727.5,-595.2756196260452,0.0,0.0,3.34472622,0.01,0.0,-55733.0,2.5,720.0,595.2756196260452,0.0,0.25,1.5808103850000002,0.01,0.0,-0.9200000166893005,-2.0799999237060547,165.66000366210938,-0.0283203125,-0.04388427734375,1.3592529296875,33.91999816894531,0.0,-25.0,-4.735504150390625,3.670867919921875,Closing,0.0,0.0,42.0,0.0,0.0,0.0,0.0,0.0,
3.8940500000000466,0.0,0.0,57945.0,0.0,-652.5,-595.2756196260452,0.0,0.125,0.798339762,4.932250999999998,0.0,-54462.0,2.0,705.0,595.2756196260452,0.0,0.125,0.46752924900000004,4.963769999999998,0.0,76422.0,0.375,-637.5,-595.2756196260452,0.0,0.0,3.343505517,0.01,0.0,-55622.0,2.25,682.5,595.2756196260452,0.0,0.25,1.624755693,0.01,0.0,-0.9900000095367432,-1.649999976158142,165.39999389648438,0.02093505859375,-0.03704833984375,1.06634521484375,33.900001525878906,0.0,-54.0,-4.7464752197265625,3.6697845458984375,Closing,0.0,0.0,42.0,0.0,0.0,0.0,0.0,0.0,
4.081133999999845,0.0,0.0,57849.0,0.125,-592.5,-595.2756196260452,0.0,0.125,0.798339762,4.932250999999998,0.0,-54355.0,1.875,660.0,595.2756196260452,0.0,0.125,0.46630854600000005,4.963769999999998,0.0,76319.0,0.375,-615.0,-595.2756196260452,0.0,0.0,3.339843408,0.01,0.0,-55411.0,2.0,652.5,595.2756196260452,0.0,0.125,1.638183426,0.01,0.0,-0.949999988079071,-1.340000033378601,164.85000610351562,0.001708984375,0.01287841796875,1.13934326171875,33.900001525878906,0.0,-19.0,-4.758148193359375,3.66949462890625,Closing,0.0,0.0,42.0,0.0,0.0,0.0,0.0,0.0,
4.257074999999953,0.0,0.0,57667.0,0.125,-555.0,-595.2756196260452,0.0,0.125,0.798339762,4.932250999999998,0.0,-54150.0,1.75,630.0,595.2756196260452,0.0,0.0,0.47607417,4.963769999999998,0.0,76136.0,0.375,-562.5,-595.2756196260452,0.0,0.0,3.34472622,0.01,0.0,-55310.0,2.125,622.5,595.2756196260452,0.0,0.125,1.6369627230000001,0.01,0.0,-0.9599999785423279,-1.190000057220459,164.25999450683594,-0.02056884765625,-0.00335693359375,0.96990966796875,33.88999938964844,0.0,3.0,-4.7623138427734375,3.668304443359375,Closing,0.0,0.0,42.0,0.0,0.0,0.0,0.0,0.0,
4.4329209999998564,0.0,0.0,57576.0,0.125,-562.5,-595.2756196260452,0.0,0.125,0.798339762,4.932250999999998,0.0,-54053.0,1.875,607.5,595.2756196260452,0.0,0.25,0.477294873,4.963769999999998,0.0,76045.0,0.625,-555.0,-595.2756196260452,0.0,0.0,3.343505517,0.01,0.0,-55212.0,2.125,607.5,595.2756196260452,0.0,0.125,1.6345213170000001,0.01,0.0,-0.9100000262260437,-1.149999976158142,163.91000366210938,-0.00323486328125,-0.0162353515625,1.02783203125,33.88999938964844,0.0,-16.0,-4.7634429931640625,3.668670654296875,Closing,0.0,0.0,42.0,0.0,0.0,0.0,0.0,0.0,
4.614214999999851,0.0,0.0,57485.0,0.125,-555.0,-595.2756196260452,0.0,0.125,0.798339762,4.932250999999998,0.0,-53858.0,1.875,607.5,595.2756196260452,0.0,0.25,0.477294873,4.963769999999998,0.0,75866.0,1.0,-555.0,-595.2756196260452,0.0,0.0,3.348388329,0.01,0.0,-55021.0,2.125,600.0,595.2756196260452,0.0,0.125,1.6357420200000001,0.01,0.0,-0.75,-0.20000000298023224,163.1300048828125,0.7783203125,0.27215576171875,0.853271484375,33.88999938964844,0.0,-665.0,-4.7664031982421875,3.667633056640625,Closing,0.0,0.0,42.0,0.0,0.0,0.0,0.0,0.0,
4.789207999999868,0.0,0.0,57400.0,1.875,75.0,-248.03150296211243,0.0,0.125,0.8032225740000001,4.932250999999998,0.0,-53827.0,4.5,22.5,248.03150296211243,0.0,0.25,0.477294873,4.963769999999998,0.0,75820.0,1.25,-135.0,-248.03150296211243,0.0,0.0,3.349609032,0.01,0.0,-54962.0,4.5,7.5,248.03150296211243,0.0,0.125,1.6345213170000001,0.01,0.0,-1.1200000047683716,0.5199999809265137,161.5800018310547,0.05194091796875,0.13983154296875,1.2264404296875,33.849998474121094,0.0,13.0,-4.8104248046875,3.6519622802734375,Closing,0.0,0.0,42.0,0.0,0.0,0.0,0.0,0.0,
4.965297999999952,0.0,0.0,57394.0,2.375,0.0,-132.28346407413483,0.0,0.125,0.8007811680000001,4.932250999999998,0.0,-53824.0,5.75,15.0,132.28346407413483,0.0,0.25,0.47607417,4.963769999999998,0.0,75812.0,3.125,0.0,-132.28346407413483,0.0,0.0,3.349609032,0.01,0.0,-54962.0,5.875,7.5,132.28346407413483,0.0,0.125,1.6345213170000001,0.01,0.0,-0.9300000071525574,0.5600000023841858,161.47000122070312,-0.04937744140625,-0.07489013671875,1.0382080078125,33.849998474121094,0.0,38.0,-4.8563079833984375,3.6350860595703125,Closing,0.0,0.0,42.0,0.0,0.0,0.0,0.0,0.0,
5.138775999999838,0.0,0.0,57394.0,3.25,0.0,-132.28346407413483,0.0,0.125,0.8020018710000001,4.932250999999998,0.0,-53824.0,7.125,0.0,132.28346407413483,0.0,0.25,0.477294873,4.963769999999998,0.0,75811.0,3.875,0.0,-132.28346407413483,0.0,0.0,3.349609032,0.01,0.0,-54961.0,7.5,0.0,132.28346407413483,0.0,0.125,1.6345213170000001,0.01,0.0,-0.9300000071525574,0.38999998569488525,161.47000122070312,-0.00927734375,0.00341796875,0.99365234375,33.849998474121094,0.0,21.0,-4.8759765625,3.6324462890625,Closing,0.0,0.0,42.0,0.0,0.0,0.0,0.0,0.0,
5.321930999999866,0.0,0.0,57401.0,0.0,60.0,0.0,0.0,0.125,0.8020018710000001,4.932250999999998,0.0,-53838.0,0.0,-45.0,0.0,0.0,0.25,0.490722606,4.963769999999998,0.0,75820.0,0.0,45.0,0.0,0.0,0.0,3.347167626,0.01,0.0,-54973.0,0.0,-67.5,0.0,0.0,0.125,1.6357420200000001,0.01,0.0,-0.9100000262260437,0.25,161.7100067138672,-0.0665283203125,-0.0196533203125,0.97271728515625,33.869998931884766,0.0,65.0,-4.8755035400390625,3.6321868896484375,Closing,0.0,0.0,42.0,0.0,0.0,0.0,0.0,0.0,
5.494817000000039,0.0,0.0,57404.0,0.0,0.0,0.0,0.0,0.125,0.8032225740000001,4.932250999999998,0.0,-53838.0,0.0,0.0,0.0,0.0,0.125,0.49194330900000005,4.963769999999998,0.0,75820.0,0.0,0.0,0.0,0.0,0.0,3.349609032,0.01,0.0,-54975.0,0.0,0.0,0.0,0.0,0.125,1.6345213170000001,0.01,0.0,-0.8999999761581421,0.1599999964237213,161.63999938964844,0.00457763671875,0.00482177734375,1.06121826171875,33.869998931884766,0.0,5.0,-4.8726959228515625,3.6323394775390625,Closing,0.0,0.0,42.0,0.0,0.0,0.0,0.0,0.0,
5.67245399999991,0.0,0.0,57391.0,16.125,-75.0,-1394.53125,0.0,2.25,0.20751951000000002,3.6991882500000015,0.0,-53829.0,18.875,135.0,1394.53125,0.0,1.125,4.854735831,3.7228275000000015,0.0,75816.0,19.375,-82.5,-1394.53125,0.0,4.125,2.766112998,3.7053000000000016,0.0,-55011.0,12.0,-195.0,-1394.53125,0.0,1.0,2.410888425,1.2395000000000012,0.0,-0.7200000286102295,0.03999999910593033,161.72000122070312,-0.0107421875,-0.00726318359375,0.84967041015625,33.869998931884766,0.0,11.0,-4.864837646484375,3.631439208984375,Closing,0.0,0.0,42.0,0.0,0.0,0.0,0.0,0.0,
5.846030000000028,0.0,0.0,57357.0,32.625,-157.5,-1263.28125,0.0,2.0,4.490966337000001,3.6991882500000015,0.0,-53663.0,13.875,832.5,1263.28125,0.0,0.5,3.9929195130000004,3.7228275000000015,0.0,75790.0,34.25,-135.0,-1263.28125,0.0,2.625,2.144775171,3.7053000000000016,0.0,-55043.0,23.375,-352.5,-1263.28125,0.0,0.375,3.1127926500000003,1.2395000000000012,0.0,0.7200000286102295,-0.20000000298023224,162.36000061035156,-0.0040283203125,0.448486328125,1.1492919921875,33.849998474121094,0.0,131.0,-4.857391357421875,3.6107635498046875,Closing,0.0,0.0,42.0,0.0,0.0,0.0,0.0,0.0,
6.025078999999911,0.0,0.0,57234.0,19.0,-1050.0,-1246.875,0.0,0.25,4.254149955,3.6991882500000015,0.0,-53539.0,12.125,1087.5,1246.875,0.0,0.25,3.7402339920000003,3.7228275000000015,0.0,75753.0,46.5,-360.0,-1246.875,0.0,0.125,1.936034958,3.7053000000000016,0.0,-55272.0,20.875,-862.5,-1246.875,0.0,0.5,3.2189938110000003,1.2395000000000012,0.0,2.25,0.03999999910593033,160.4199981689453,0.05926513671875,0.28668212890625,0.48980712890625,33.849998474121094,0.0,34.0,-4.83477783203125,3.551116943359375,Closing,0.0,0.0,42.0,0.0,0.0,0.0,0.0,0.0,
6.192263000000035,0.0,0.0,56795.0,9.125,-1470.0,-1197.65625,0.0,0.375,4.460448762,3.6991882500000015,0.0,-53125.0,4.75,1402.5,1197.65625,0.0,0.75,4.1857905870000005,3.7228275000000015,0.0,75601.0,42.5,-555.0,-1197.65625,0.0,0.0,2.0593259610000003,3.7053000000000016,0.0,-55453.0,14.125,-1230.0,-1197.65625,0.0,0.5,2.864989941,1.2395000000000012,0.0,3.180000066757202,0.09000000357627869,158.11000061035156,0.01019287109375,0.33349609375,0.62628173828125,33.849998474121094,0.0,102.0,-4.8084564208984375,3.5133819580078125,Closing,0.0,0.0,42.0,0.0,0.0,0.0,0.0,0.0,
6.371596999999834,0.0,0.0,56583.0,0.0,-1200.0,0.0,0.0,0.25,4.628905776,3.6991882500000015,0.0,-52933.0,0.0,907.5,0.0,0.0,0.125,4.592284686,3.7228275000000015,0.0,75489.0,0.0,-780.0,0.0,0.0,0.0,2.2167966480000003,3.7053000000000016,0.0,-55885.0,0.125,-1260.0,0.0,0.0,0.125,2.559814191,1.2395000000000012,0.0,2.109999895095825,-0.9399999976158142,159.67999267578125,-0.1961669921875,-0.30389404296875,1.58843994140625,33.86000061035156,0.0,33.0,-4.76141357421875,3.507537841796875,Closing,0.0,0.0,42.0,0.0,0.0,0.0,0.0,0.0,
6.548532999999821,0.0,0.0,56314.0,0.0,-600.0,0.0,0.0,0.25,4.527587427,3.6991882500000015,0.0,-52760.0,0.0,337.5,0.0,0.0,0.25,4.373778849,3.7228275000000015,0.0,75184.0,0.0,-1020.0,0.0,0.0,0.125,2.14843728,3.7053000000000016,0.0,-56061.0,0.0,-1005.0,0.0,0.0,0.375,2.8503415050000003,1.2395000000000012,0.0,0.23000000417232513,-0.1899999976158142,164.14999389648438,-0.0823974609375,-0.22900390625,1.11328125,33.86000061035156,0.0,11.0,-4.7351531982421875,3.5536956787109375,Closing,0.0,0.0,42.0,0.0,0.0,0.0,0.0,0.0,
6.7248109999999865,0.0,0.0,56232.0,0.0,-465.0,0.0,0.0,0.125,4.464110871,3.6991882500000015,0.0,-52684.0,0.0,480.0,0.0,0.0,0.25,4.091796456,3.7228275000000015,0.0,75083.0,0.0,-427.5,0.0,0.0,0.125,2.102050566,3.7053000000000016,0.0,-56228.0,0.0,-420.0,0.0,0.0,0.125,3.1115719470000003,1.2395000000000012,0.0,-0.7900000214576721,-0.5099999904632568,163.74000549316406,0.02093505859375,-0.20245361328125,0.98590087890625,33.86000061035156,0.0,-81.0,-4.7235260009765625,3.642578125,Closing,0.0,0.0,42.0,0.0,0.0,0.0,0.0,0.0,
6.892419999999926,0.0,0.0,56179.0,0.0,-97.5,0.0,0.0,0.25,4.460448762,3.6991882500000015,0.0,-52617.0,0.0,82.5,0.0,0.0,0.0,4.0808101290000005,3.7228275000000015,0.0,75039.0,0.0,-90.0,0.0,0.0,0.0,2.100829863,3.7053000000000016,0.0,-56243.0,0.0,-67.5,0.0,0.0,0.25,2.927245794,1.2395000000000012,0.0,-2.240000009536743,-0.6499999761581421,163.4199981689453,-0.00787353515625,-0.099365234375,1.0234375,33.849998474121094,0.0,-20.0,-4.721588134765625,3.7514190673828125,Closing,0.0,0.0,42.0,0.0,0.0,0.0,0.0,0.0,
7.070412000000011,0.0,0.0,56163.0,13.625,-52.5,-1246.875,0.0,1.75,4.08935505,3.0159423668524887,0.0,-52572.0,9.25,405.0,1246.875,0.0,1.25,4.752196779,4.410439589772222,0.0,75049.0,11.0,172.5,1246.875,0.0,1.375,2.5903317660000003,4.389674732977289,0.0,-56211.0,8.625,307.5,1246.875,0.0,1.0,2.182616964,0.5526872062785588,0.0,-1.7799999713897705,-0.5099999904632568,161.88999938964844,0.08172607421875,-0.11041259765625,0.71112060546875,33.849998474121094,0.0,-111.0,-4.7209014892578125,3.881378173828125,Closing,0.0,0.0,42.0,0.0,0.0,0.0,0.0,0.0,
7.240585999999894,0.0,0.0,56141.0,0.0,-37.5,0.0,0.0,0.25,3.646239861,3.0159423668524887,0.0,-52512.0,0.0,22.5,0.0,0.0,0.25,0.289306611,4.410439589772222,0.0,75120.0,0.0,172.5,0.0,0.0,0.25,3.018798519,4.389674732977289,0.0,-56147.0,0.0,90.0,0.0,0.0,0.125,1.5808103850000002,0.5526872062785588,0.0,-1.3899999856948853,-0.49000000953674316,158.05999755859375,-0.116943359375,-0.15631103515625,1.1976318359375,33.849998474121094,0.0,51.0,-4.7171478271484375,3.9881134033203125,Closing,0.0,0.0,42.0,0.0,0.0,0.0,0.0,0.0,
7.413547999999952,0.0,0.0,56135.0,0.0,0.0,0.0,0.0,0.375,3.748778913,3.0159423668524887,0.0,-52512.0,0.0,0.0,0.0,0.0,0.25,0.050048823000000006,4.410439589772222,0.0,75120.0,0.0,0.0,0.0,0.0,0.125,2.971191102,4.389674732977289,0.0,-56147.0,0.0,0.0,0.0,0.0,0.75,2.0593259610000003,0.5526872062785588,0.0,-1.3200000524520874,-0.75,158.3800048828125,0.0704345703125,-0.11187744140625,1.0367431640625,33.77000045776367,0.0,-110.0,-4.70831298828125,4.0066070556640625,Closing,0.0,0.0,42.0,0.0,0.0,0.0,0.0,0.0,
7.587872999999905,0.0,0.0,56135.0,0.0,0.0,0.0,0.0,0.375,3.80859336,3.0159423668524887,0.0,-52512.0,0.0,0.0,0.0,0.0,0.25,4.819335444,4.410439589772222,0.0,75120.0,0.0,0.0,0.0,0.0,0.125,2.7502438590000002,4.389674732977289,0.0,-56154.0,0.125,-7.5,0.0,0.0,0.375,2.285156016,0.5526872062785588,0.0,-1.2100000381469727,-0.6899999976158142,158.7899932861328,0.014892578125,-0.05072021484375,0.99127197265625,33.77000045776367,0.0,-35.0,-4.7049560546875,4.005401611328125,Closing,0.0,0.0,42.0,0.0,0.0,0.0,0.0,0.0,
7.772886999999871,0.0,0.0,56093.0,10.875,-210.0,-1263.28125,0.0,0.75,4.549560081,3.6991882500000015,0.0,-52453.0,9.875,367.5,1263.28125,0.0,0.5,4.167480042,3.7228275000000015,0.0,75106.0,15.25,-120.0,-1263.28125,0.0,1.75,2.105712675,3.7053000000000016,0.0,-56175.0,10.875,-210.0,-1263.28125,0.0,1.0,2.755126671,1.2395000000000012,0.0,-0.3499999940395355,-0.3400000035762787,159.07000732421875,0.06927490234375,0.127685546875,0.7608642578125,33.77000045776367,0.0,-21.0,-4.703826904296875,3.9936065673828125,Closing,0.0,0.0,42.0,0.0,0.0,0.0,0.0,0.0,
7.943825999999884,0.0,0.0,56070.0,0.0,-15.0,0.0,0.0,0.25,4.851073722000001,3.6991882500000015,0.0,-52400.0,0.0,22.5,0.0,0.0,0.0,3.978271077,3.7228275000000015,0.0,75054.0,0.0,-202.5,0.0,0.0,0.0,1.8933103530000002,3.7053000000000016,0.0,-56222.0,0.125,-7.5,0.0,0.0,0.25,3.020019222,1.2395000000000012,0.0,-1.4900000095367432,-0.949999988079071,159.44000244140625,-0.03594970703125,-0.236083984375,1.1695556640625,33.810001373291016,0.0,-56.0,-4.7027130126953125,3.9748382568359375,Closing,0.0,0.0,42.0,0.0,0.0,0.0,0.0,0.0,
8.114741999999852,0.0,0.0,56081.0,0.0,75.0,0.0,0.0,0.5,4.5056147730000005,3.6991882500000015,0.0,-52404.0,0.0,-22.5,0.0,0.0,0.25,4.172362854,3.7228275000000015,0.0,75045.0,0.0,7.5,0.0,0.0,0.25,2.0178220590000002,3.7053000000000016,0.0,-56221.0,0.0,30.0,0.0,0.0,0.25,2.96630829,1.2395000000000012,0.0,-0.8700000047683716,-0.8299999833106995,159.38999938964844,0.0093994140625,-0.00701904296875,1.0103759765625,33.810001373291016,0.0,-19.0,-4.7049102783203125,3.9686737060546875,Closing,0.0,0.0,42.0,0.0,0.0,0.0,0.0,0.0,
8.292521999999881,0.0,0.0,56083.0,0.0,7.5,0.0,0.0,0.25,4.3481440860000005,3.6991882500000015,0.0,-52407.0,0.0,0.0,0.0,0.0,0.25,4.273681203000001,3.7228275000000015,0.0,75045.0,0.0,0.0,0.0,0.0,0.25,2.081298615,3.7053000000000016,0.0,-56217.0,0.0,0.0,0.0,0.0,0.25,2.858886426,1.2395000000000012,0.0,-0.8799999952316284,-0.8199999928474426,159.3800048828125,-0.00323486328125,0.01953125,0.98486328125,33.810001373291016,0.0,1.0,-4.7049407958984375,3.95855712890625,Closing,0.0,0.0,42.0,0.0,0.0,0.0,0.0,0.0,
8.471439000000013,0.0,0.0,56118.0,2.0,202.5,611.8110448122025,0.0,0.25,4.487304228,3.6991882499999984,0.0,-52439.0,2.125,-195.0,-611.8110448122025,0.0,0.0,4.26025347,3.7228274999999984,0.0,75059.0,3.125,82.5,611.8110448122025,0.0,0.0,2.081298615,3.7052999999999985,0.0,-56201.0,2.25,202.5,611.8110448122025,0.0,0.125,2.835693069,1.2394999999999985,0.0,-1.3600000143051147,-0.8299999833106995,159.39999389648438,0.033203125,-0.16802978515625,0.8720703125,33.79999923706055,0.0,-94.0,-4.7076873779296875,3.9626922607421875,Closing,0.0,0.0,42.0,0.0,0.0,0.0,0.0,0.0,
8.6445419999999,0.0,0.0,56125.0,0.0,7.5,0.0,0.0,0.125,4.545897972000001,3.6991882499999984,0.0,-52452.0,0.0,-15.0,0.0,0.0,0.25,4.263915579,3.7228274999999984,0.0,75069.0,0.0,0.0,0.0,0.0,0.0,2.086181427,3.7052999999999985,0.0,-56176.0,0.0,0.0,0.0,0.0,0.25,2.83203096,1.2394999999999985,0.0,-1.0099999904632568,-0.800000011920929,159.47999572753906,-0.03094482421875,0.07867431640625,0.97540283203125,33.79999923706055,0.0,49.0,-4.712493896484375,3.9722900390625,Closing,0.0,0.0,42.0,0.0,0.0,0.0,0.0,0.0,
8.823409999999916,0.0,0.0,56126.0,0.0,0.0,0.0,0.0,0.25,4.542235863,3.6991882499999984,0.0,-52452.0,0.0,0.0,0.0,0.0,0.25,4.265136282,3.7228274999999984,0.0,75069.0,0.0,0.0,0.0,0.0,0.0,2.086181427,3.7052999999999985,0.0,-56176.0,0.125,0.0,0.0,0.0,0.25,2.83203096,1.2394999999999985,0.0,-0.5299999713897705,-0.8100000023841858,159.47000122070312,-0.013671875,-0.018798828125,1.00531005859375,33.79999923706055,0.0,-3.0,-4.7129364013671875,3.9690093994140625,Closing,0.0,0.0,42.0,0.0,0.0,0.0,0.0,0.0,
8.995224999999861,0.0,0.0,56126.0,0.0,0.0,0.0,0.0,0.25,4.541015160000001,3.6991882499999984,0.0,-52452.0,0.0,0.0,0.0,0.0,0.25,4.263915579,3.7228274999999984,0.0,75069.0,0.0,0.0,0.0,0.0,0.0,2.08740213,3.7052999999999985,0.0,-56176.0,0.0,0.0,0.0,0.0,0.25,2.830810257,1.2394999999999985,0.0,-0.6600000262260437,-0.7900000214576721,159.49000549316406,-0.0233154296875,-0.0303955078125,1.0230712890625,33.79999923706055,0.0,1.0,-4.7130889892578125,3.969482421875,Closing,0.0,0.0,42.0,0.0,0.0,0.0,0.0,0.0,
9.1741669999999,0.0,0.0,56126.0,0.0,0.0,0.0,0.0,0.25,4.542235863,3.6991882499999984,0.0,-52452.0,0.0,0.0,0.0,0.0,0.25,4.265136282,3.7228274999999984,0.0,75069.0,0.0,0.0,0.0,0.0,0.0,2.086181427,3.7052999999999985,0.0,-56176.0,0.0,0.0,0.0,0.0,0.25,2.83203096,1.2394999999999985,0.0,-0.6200000047683716,-0.800000011920929,159.49000549316406,-0.0185546875,0.0072021484375,1.01629638671875,33.79999923706055,0.0,10.0,-4.7130889892578125,3.9696044921875,Closing,0.0,0.0,42.0,0.0,0.0,0.0,0.0,0.0,
9.34685999999987,0.0,0.0,56098.0,2.125,-172.5,-644.8818951845169,0.0,1.25,0.47363276400000004,4.932250999999998,0.0,-52434.0,3.25,142.5,644.8818951845169,0.0,1.25,0.224609352,4.963769999999998,0.0,75070.0,3.75,7.5,644.8818951845169,0.0,1.0,1.201171752,2.4702000000000024,0.0,-56167.0,2.5,172.5,644.8818951845169,0.0,1.5,1.8432615300000001,0.01,0.0,-0.550000011920929,-0.9300000071525574,158.94000244140625,-0.07342529296875,-0.09173583984375,0.71990966796875,33.79999923706055,0.0,27.0,-4.712310791015625,3.9689788818359375,Closing,0.0,0.0,42.0,0.0,0.0,0.0,0.0,0.0,
9.522437999999848,0.0,0.0,56071.0,4.75,-217.5,-644.8818951845169,0.0,0.375,1.069335828,4.932250999999998,0.0,-52382.0,6.875,172.5,644.8818951845169,0.0,0.5,0.650634699,4.963769999999998,0.0,75117.0,7.0,210.0,644.8818951845169,0.0,0.25,0.643310481,2.4702000000000024,0.0,-56100.0,4.875,180.0,644.8818951845169,0.0,0.25,1.14746082,0.01,0.0,-0.6399999856948853,-0.9800000190734863,159.3800048828125,0.031494140625,-0.0029296875,1.0596923828125,33.81999969482422,0.0,-43.0,-4.7041168212890625,3.9730682373046875,Closing,0.0,0.0,42.0,0.0,0.0,0.0,0.0,0.0,
9.705132999999915,0.0,0.0,55998.0,8.625,-217.5,-644.8818951845169,0.0,0.375,0.982665915,4.932250999999998,0.0,-52346.0,11.125,262.5,644.8818951845169,0.0,0.25,0.6860350860000001,4.963769999999998,0.0,75150.0,9.5,202.5,644.8818951845169,0.0,0.25,0.7250975820000001,2.4702000000000024,0.0,-56096.0,15.625,0.0,644.8818951845169,0.0,0.75,1.596679524,0.01,0.0,-0.5699999928474426,-0.75,161.08999633789062,0.07562255859375,0.04833984375,1.15435791015625,33.81999969482422,0.0,-66.0,-4.7025909423828125,3.9706573486328125,Closing,0.0,0.0,42.0,0.0,0.0,0.0,0.0,0.0,
9.895727999999886,0.0,0.0,55976.0,17.625,-30.0,-479.5275494456292,0.0,0.5,1.2402342480000002,0.5498168668524864,0.0,-52299.0,0.625,0.0,-479.5275494456292,0.0,0.5,4.801024899000001,4.41043958977222,0.0,75240.0,7.0,322.5,479.5275494456292,0.0,0.25,0.39062496,1.9194747329772914,0.0,-56106.0,2.25,-45.0,-479.5275494456292,0.0,1.375,2.352294681,0.552687206278561,0.0,-0.3400000035762787,-0.800000011920929,161.3000030517578,0.0673828125,-0.04180908203125,1.049072265625,33.810001373291016,0.0,-89.0,-4.70574951171875,3.9628448486328125,Closing,0.0,0.0,42.0,0.0,0.0,0.0,0.0,0.0,
10.088916999999899,0.0,0.0,55987.0,0.0,37.5,0.0,0.0,0.375,1.4648436,0.5498168668524864,0.0,-52298.0,0.0,0.0,0.0,0.0,0.25,4.542235863,4.41043958977222,0.0,75300.0,0.0,172.5,0.0,0.0,0.125,0.172119123,1.9194747329772914,0.0,-56117.0,0.125,-22.5,0.0,0.0,0.25,2.419433346,0.552687206278561,0.0,-0.3799999952316284,-0.7599999904632568,161.27999877929688,0.00531005859375,-0.0880126953125,1.0428466796875,33.810001373291016,0.0,-44.0,-4.7138671875,3.95611572265625,Closing,0.0,0.0,42.0,0.0,0.0,0.0,0.0,0.0,
10.273422000000021,0.0,0.0,55988.0,0.0,0.0,0.0,0.0,0.25,1.365966657,0.5498168668524864,0.0,-52298.0,0.0,0.0,0.0,0.0,0.5,0.050048823000000006,4.41043958977222,0.0,75309.0,0.0,0.0,0.0,0.0,0.125,0.327148404,1.9194747329772914,0.0,-56115.0,0.0,7.5,0.0,0.0,0.5,2.1203611110000002,0.552687206278561,0.0,-0.36000001430511475,-0.7400000095367432,161.27000427246094,-0.0107421875,-0.00927734375,1.0181884765625,33.810001373291016,0.0,-3.0,-4.7202911376953125,3.9508514404296875,Closing,0.0,0.0,42.0,0.0,0.0,0.0,0.0,0.0,
10.458115999999922,0.0,0.0,55989.0,0.0,0.0,0.0,0.0,0.125,1.3415525970000002,0.5498168668524864,0.0,-52299.0,0.0,0.0,0.0,0.0,0.25,0.03662109,4.41043958977222,0.0,75309.0,0.0,0.0,0.0,0.0,0.0,0.360107385,1.9194747329772914,0.0,-56115.0,0.0,0.0,0.0,0.0,0.25,2.139892359,0.552687206278561,0.0,-0.3499999940395355,-0.7200000286102295,161.27000427246094,-0.00653076171875,0.0013427734375,1.00048828125,33.79999923706055,0.0,-3.0,-4.72039794921875,3.9508514404296875,Closing,0.0,0.0,42.0,0.0,0.0,0.0,0.0,0.0,
10.647858000000008,0.0,0.0,55989.0,0.0,0.0,0.0,0.0,0.125,1.3415525970000002,0.5498168668524864,0.0,-52299.0,0.0,0.0,0.0,0.0,0.0,4.954833477,4.41043958977222,0.0,75309.0,0.0,0.0,0.0,0.0,0.125,0.36254879100000004,1.9194747329772914,0.0,-56115.0,0.0,0.0,0.0,0.0,0.25,2.153320092,0.552687206278561,0.0,-0.3400000035762787,-0.7400000095367432,161.27000427246094,-0.0164794921875,-0.00677490234375,1.01922607421875,33.79999923706055,0.0,2.0,-4.72039794921875,3.9508514404296875,Closing,0.0,0.0,42.0,0.0,0.0,0.0,0.0,0.0,
10.827815999999876,0.0,0.0,55989.0,0.0,0.0,0.0,0.0,0.125,1.3415525970000002,0.5498168668524864,0.0,-52299.0,0.0,0.0,0.0,0.0,0.0,4.953612774000001,4.41043958977222,0.0,75309.0,0.0,0.0,0.0,0.0,0.125,0.36132808800000005,1.9194747329772914,0.0,-56115.0,0.0,0.0,0.0,0.0,0.125,2.154540795,0.552687206278561,0.0,-0.33000001311302185,-0.7400000095367432,161.27000427246094,-0.0147705078125,-0.007080078125,1.0140380859375,33.79999923706055,0.0,1.0,-4.72039794921875,3.9508514404296875,Closing,0.0,0.0,42.0,0.0,0.0,0.0,0.0,0.0,
11.009199000000022,0.0,0.0,55989.0,0.0,0.0,0.0,0.0,0.125,1.3415525970000002,0.5498168668524864,0.0,-52299.0,0.0,0.0,0.0,0.0,0.25,4.957274883,4.41043958977222,0.0,75309.0,0.0,0.0,0.0,0.0,0.125,0.36254879100000004,1.9194747329772914,0.0,-56115.0,0.0,0.0,0.0,0.0,0.125,2.153320092,0.552687206278561,0.0,-0.3199999928474426,-0.7400000095367432,161.27000427246094,-0.01422119140625,-0.0062255859375,1.0224609375,33.779998779296875,0.0,0.0,-4.72039794921875,3.9508514404296875,Closing,0.0,0.0,42.0,0.0,0.0,0.0,0.0,0.0,
11.189241999999853,0.0,0.0,56012.0,1.875,180.0,557.8125,0.0,0.125,1.3232420520000001,0.5498168668524888,0.0,-52296.0,3.75,37.5,557.8125,0.0,0.0,4.954833477,4.410439589772222,0.0,75283.0,2.25,-142.5,-557.8125,0.0,0.125,0.36865230600000004,1.9194747329772885,0.0,-56108.0,3.0,30.0,557.8125,0.0,0.125,2.144775171,0.5526872062785588,0.0,-0.28999999165534973,-0.7099999785423279,160.82000732421875,-0.05096435546875,-0.043212890625,1.0958251953125,33.779998779296875,0.0,22.0,-4.7209930419921875,3.9507904052734375,Closing,0.0,0.0,42.0,0.0,0.0,0.0,0.0,0.0,
11.373550999999978,0.0,0.0,56019.0,0.0,-22.5,0.0,0.0,0.25,1.326904161,0.5498168668524888,0.0,-52294.0,0.0,-22.5,0.0,0.0,0.0,4.952392071,4.410439589772222,0.0,75287.0,0.0,22.5,0.0,0.0,0.125,0.36254879100000004,1.9194747329772885,0.0,-56110.0,0.0,-7.5,0.0,0.0,0.25,2.149657983,0.5526872062785588,0.0,-0.3199999928474426,-0.75,160.8800048828125,0.02447509765625,6.103515625E-5,1.0091552734375,33.779998779296875,0.0,-33.0,-4.720367431640625,3.9529571533203125,Closing,0.0,0.0,42.0,0.0,0.0,0.0,0.0,0.0,
11.546657999999821,0.0,0.0,56018.0,0.0,0.0,0.0,0.0,0.25,1.328124864,0.5498168668524888,0.0,-52294.0,0.0,0.0,0.0,0.0,0.25,4.949950665,4.410439589772222,0.0,75287.0,0.0,0.0,0.0,0.0,0.125,0.36254879100000004,1.9194747329772885,0.0,-56110.0,0.125,0.0,0.0,0.0,0.25,2.14843728,0.5526872062785588,0.0,-0.3100000023841858,-0.7400000095367432,160.85000610351562,-0.03021240234375,-0.0130615234375,1.0220947265625,33.79999923706055,0.0,13.0,-4.721221923828125,3.9530181884765625,Closing,0.0,0.0,42.0,0.0,0.0,0.0,0.0,0.0,
11.730308999999892,0.0,0.0,56018.0,0.0,0.0,0.0,0.0,0.25,1.328124864,0.5498168668524888,0.0,-52294.0,0.0,0.0,0.0,0.0,0.25,4.951171368000001,4.410439589772222,0.0,75287.0,0.0,0.0,0.0,0.0,0.125,0.36254879100000004,1.9194747329772885,0.0,-56110.0,0.125,0.0,0.0,0.0,0.25,2.149657983,0.5526872062785588,0.0,-0.33000001311302185,-0.75,160.86000061035156,-0.01177978515625,-0.002685546875,1.01318359375,33.79999923706055,0.0,0.0,-4.721221923828125,3.9530181884765625,Closing,0.0,0.0,42.0,0.0,0.0,0.0,0.0,0.0,
11.896513999999966,0.0,0.0,56018.0,0.0,0.0,0.0,0.0,0.25,1.328124864,0.5498168668524888,0.0,-52294.0,0.0,0.0,0.0,0.0,0.25,4.951171368000001,4.410439589772222,0.0,75287.0,0.0,0.0,0.0,0.0,0.125,0.36254879100000004,1.9194747329772885,0.0,-56110.0,0.125,0.0,0.0,0.0,0.25,2.14843728,0.5526872062785588,0.0,-0.3199999928474426,-0.75,160.86000061035156,-0.00933837890625,4.2724609375E-4,1.02239990234375,33.79999923706055,0.0,-1.0,-4.721221923828125,3.9530181884765625,Closing,0.0,0.0,42.0,0.0,0.0,0.0,0.0,0.0,
12.06961499999999,0.0,0.0,56018.0,0.0,0.0,0.0,0.0,0.25,1.328124864,0.5498168668524888,0.0,-52294.0,0.0,0.0,0.0,0.0,0.25,4.949950665,4.410439589772222,0.0,75287.0,0.0,0.0,0.0,0.0,0.125,0.36254879100000004,1.9194747329772885,0.0,-56110.0,0.125,0.0,0.0,0.0,0.25,2.149657983,0.5526872062785588,0.0,-0.3199999928474426,-0.75,160.85000610351562,-0.0118408203125,-0.00994873046875,1.02398681640625,33.79999923706055,0.0,-3.0,-4.721221923828125,3.9530181884765625,Closing,0.0,0.0,42.0,0.0,0.0,0.0,0.0,0.0,
12.242170999999857,0.0,0.0,56018.0,0.0,0.0,0.0,0.0,0.25,1.328124864,0.5498168668524888,0.0,-52294.0,0.0,0.0,0.0,0.0,0.25,4.952392071,4.410439589772222,0.0,75287.0,0.0,0.0,0.0,0.0,0.125,0.36254879100000004,1.9194747329772885,0.0,-56110.0,0.125,0.0,0.0,0.0,0.25,2.14843728,0.5526872062785588,0.0,-0.3100000023841858,-0.7400000095367432,160.86000061035156,-0.01641845703125,-0.0028076171875,1.02264404296875,33.79999923706055,0.0,3.0,-4.721221923828125,3.9530181884765625,Closing,0.0,0.0,42.0,0.0,0.0,0.0,0.0,0.0,
12.411986999999964,0.0,0.0,56018.0,0.0,0.0,0.0,0.0,0.25,1.328124864,0.5498168668524888,0.0,-52294.0,0.0,0.0,0.0,0.0,0.25,4.951171368000001,4.410439589772222,0.0,75287.0,0.0,0.0,0.0,0.0,0.125,0.36254879100000004,1.9194747329772885,0.0,-56110.0,0.0,0.0,0.0,0.0,0.25,2.14843728,0.5526872062785588,0.0,-0.3100000023841858,-0.7400000095367432,160.85000610351562,-0.01251220703125,-0.00714111328125,1.02313232421875,33.79999923706055,0.0,-1.0,-4.721221923828125,3.9530181884765625,Closing,0.0,0.0,42.0,0.0,0.0,0.0,0.0,0.0,
12.587805999999865,0.0,0.0,56018.0,0.0,0.0,0.0,0.0,0.25,1.328124864,0.5498168668524888,0.0,-52294.0,0.0,0.0,0.0,0.0,0.25,4.951171368000001,4.410439589772222,0.0,75287.0,0.0,0.0,0.0,0.0,0.125,0.36254879100000004,1.9194747329772885,0.0,-56110.0,0.125,0.0,0.0,0.0,0.25,2.14843728,0.5526872062785588,0.0,-0.3100000023841858,-0.7400000095367432,160.85000610351562,-0.01190185546875,-0.00665283203125,1.0230712890625,33.79999923706055,0.0,-1.0,-4.721221923828125,3.9530181884765625,Closing,0.0,0.0,42.0,0.0,0.0,0.0,0.0,0.0,
12.756111000000034,0.0,0.0,56018.0,0.0,0.0,0.0,0.0,0.25,1.328124864,0.5498168668524888,0.0,-52294.0,0.0,0.0,0.0,0.0,0.25,4.951171368000001,4.410439589772222,0.0,75287.0,0.0,0.0,0.0,0.0,0.125,0.36254879100000004,1.9194747329772885,0.0,-56110.0,0.0,0.0,0.0,0.0,0.25,2.149657983,0.5526872062785588,0.0,-0.3100000023841858,-0.7400000095367432,160.86000061035156,-0.0155029296875,-0.0042724609375,1.02081298828125,33.79999923706055,0.0,2.0,-4.721221923828125,3.9530181884765625,Closing,0.0,0.0,42.0,0.0,0.0,0.0,0.0,0.0,
12.932173999999883,0.0,0.0,56018.0,0.0,0.0,0.0,0.0,0.25,1.328124864,0.5498168668524888,0.0,-52294.0,0.0,0.0,0.0,0.0,0.25,4.951171368000001,4.410439589772222,0.0,75287.0,0.0,0.0,0.0,0.0,0.125,0.36254879100000004,1.9194747329772885,0.0,-56110.0,0.0,0.0,0.0,0.0,0.25,2.149657983,0.5526872062785588,0.0,-0.30000001192092896,-0.7400000095367432,160.85000610351562,-0.01214599609375,-0.00482177734375,1.019287109375,33.79999923706055,0.0,0.0,-4.721221923828125,3.9530181884765625,Closing,0.0,0.0,42.0,0.0,0.0,0.0,0.0,0.0,
13.105956000000006,0.0,0.0,56018.0,0.0,0.0,0.0,0.0,0.25,1.326904161,0.5498168668524888,0.0,-52294.0,0.0,0.0,0.0,0.0,0.25,4.949950665,4.410439589772222,0.0,75287.0,0.0,0.0,0.0,0.0,0.125,0.36254879100000004,1.9194747329772885,0.0,-56110.0,0.125,0.0,0.0,0.0,0.25,2.149657983,0.5526872062785588,0.0,-0.30000001192092896,-0.7400000095367432,160.86000061035156,-0.01080322265625,-0.0030517578125,1.02435302734375,33.79999923706055,0.0,-1.0,-4.721221923828125,3.9530181884765625,Closing,0.0,0.0,42.0,0.0,0.0,0.0,0.0,0.0,
13.279467999999877,0.0,0.0,56018.0,0.0,0.0,0.0,0.0,0.25,1.326904161,0.5498168668524888,0.0,-52294.0,0.0,0.0,0.0,0.0,0.25,4.948729962000001,4.410439589772222,0.0,75287.0,0.0,0.0,0.0,0.0,0.125,0.36254879100000004,1.9194747329772885,0.0,-56110.0,0.0,0.0,0.0,0.0,0.25,2.147216577,0.5526872062785588,0.0,-0.28999999165534973,-0.7400000095367432,160.85000610351562,-0.0133056640625,-0.00360107421875,1.0166015625,33.79999923706055,0.0,0.0,-4.721221923828125,3.9530181884765625,Closing,0.0,0.0,42.0,0.0,0.0,0.0,0.0,0.0,
13.44855700000003,0.0,0.0,56018.0,0.0,0.0,0.0,0.0,0.25,1.328124864,0.5498168668524888,0.0,-52294.0,0.0,0.0,0.0,0.0,0.25,4.948729962000001,4.410439589772222,0.0,75287.0,0.0,0.0,0.0,0.0,0.125,0.36254879100000004,1.9194747329772885,0.0,-56110.0,0.0,0.0,0.0,0.0,0.25,2.149657983,0.5526872062785588,0.0,-0.28999999165534973,-0.7400000095367432,160.85000610351562,-0.01226806640625,-0.004150390625,1.02081298828125,33.79999923706055,0.0,0.0,-4.721221923828125,3.9530181884765625,Closing,0.0,0.0,42.0,0.0,0.0,0.0,0.0,0.0,
13.61723999999999,0.0,0.0,56018.0,0.0,0.0,0.0,0.0,0.25,1.328124864,0.5498168668524888,0.0,-52294.0,0.0,0.0,0.0,0.0,0.25,4.951171368000001,4.410439589772222,0.0,75287.0,0.0,0.0,0.0,0.0,0.125,0.36132808800000005,1.9194747329772885,0.0,-56110.0,0.0,0.0,0.0,0.0,0.25,2.14843728,0.5526872062785588,0.0,-0.28999999165534973,-0.7400000095367432,160.86000061035156,-0.0133056640625,-0.00567626953125,1.019775390625,33.79999923706055,0.0,0.0,-4.721221923828125,3.9530181884765625,Closing,0.0,0.0,42.0,0.0,0.0,0.0,0.0,0.0,
13.791162999999942,0.0,0.0,56018.0,0.0,0.0,0.0,0.0,0.25,1.328124864,0.5498168668524888,0.0,-52294.0,0.0,0.0,0.0,0.0,0.25,4.951171368000001,4.410439589772222,0.0,75287.0,0.0,0.0,0.0,0.0,0.125,0.36254879100000004,1.9194747329772885,0.0,-56110.0,0.125,0.0,0.0,0.0,0.25,2.149657983,0.5526872062785588,0.0,-0.28999999165534973,-0.75,160.86000061035156,-0.01348876953125,-0.00567626953125,1.0206298828125,33.79999923706055,0.0,0.0,-4.721221923828125,3.9530181884765625,Closing,0.0,0.0,42.0,0.0,0.0,0.0,0.0,0.0,
13.957273000000045,0.0,0.0,56018.0,0.0,0.0,0.0,0.0,0.25,1.328124864,0.5498168668524888,0.0,-52294.0,0.0,0.0,0.0,0.0,0.25,4.952392071,4.410439589772222,0.0,75287.0,0.0,0.0,0.0,0.0,0.125,0.36254879100000004,1.9194747329772885,0.0,-56110.0,0.125,0.0,0.0,0.0,0.25,2.149657983,0.5526872062785588,0.0,-0.30000001192092896,-0.7599999904632568,160.86000061035156,-0.0126953125,-0.0068359375,1.01947021484375,33.790000915527344,0.0,-1.0,-4.721221923828125,3.9530181884765625,Closing,0.0,0.0,42.0,0.0,0.0,0.0,0.0,0.0,
14.137652000000001,0.0,0.0,56018.0,0.0,0.0,0.0,0.0,0.25,1.328124864,0.5498168668524888,0.0,-52294.0,0.0,0.0,0.0,0.0,0.25,4.948729962000001,4.410439589772222,0.0,75287.0,0.0,0.0,0.0,0.0,0.125,0.36254879100000004,1.9194747329772885,0.0,-56110.0,0.125,0.0,0.0,0.0,0.25,2.149657983,0.5526872062785588,0.0,-0.28999999165534973,-0.7400000095367432,160.86000061035156,-0.01226806640625,-0.00653076171875,1.02227783203125,33.790000915527344,0.0,-1.0,-4.721221923828125,3.9530181884765625,Closing,0.0,0.0,42.0,0.0,0.0,0.0,0.0,0.0,
14.308216999999946,0.0,0.0,56018.0,0.0,0.0,0.0,0.0,0.25,1.326904161,0.5498168668524888,0.0,-52294.0,0.0,0.0,0.0,0.0,0.25,4.951171368000001,4.410439589772222,0.0,75287.0,0.0,0.0,0.0,0.0,0.125,0.36254879100000004,1.9194747329772885,0.0,-56110.0,0.0,0.0,0.0,0.0,0.25,2.149657983,0.5526872062785588,0.0,-0.28999999165534973,-0.75,160.86000061035156,-0.01287841796875,-0.0067138671875,1.020751953125,33.790000915527344,0.0,-1.0,-4.721221923828125,3.9530181884765625,Closing,0.0,0.0,42.0,0.0,0.0,0.0,0.0,0.0,
14.475707999999868,0.0,0.0,56018.0,0.0,0.0,0.0,0.0,0.25,1.328124864,0.5498168668524888,0.0,-52294.0,0.0,0.0,0.0,0.0,0.25,4.951171368000001,4.410439589772222,0.0,75287.0,0.0,0.0,0.0,0.0,0.125,0.36254879100000004,1.9194747329772885,0.0,-56110.0,0.0,0.0,0.0,0.0,0.25,2.149657983,0.5526872062785588,0.0,-0.2800000011920929,-0.75,160.86000061035156,-0.0125732421875,-0.00506591796875,1.0177001953125,33.779998779296875,0.0,0.0,-4.721221923828125,3.9530181884765625,Closing,0.0,0.0,42.0,0.0,0.0,0.0,0.0,0.0,
14.648149999999907,0.0,0.0,56018.0,0.0,0.0,0.0,0.0,0.25,1.326904161,0.5498168668524888,0.0,-52294.0,0.0,0.0,0.0,0.0,0.25,4.948729962000001,4.410439589772222,0.0,75287.0,0.0,0.0,0.0,0.0,0.125,0.36254879100000004,1.9194747329772885,0.0,-56110.0,0.125,0.0,0.0,0.0,0.25,2.149657983,0.5526872062785588,0.0,-0.2800000011920929,-0.75,160.86000061035156,-0.01068115234375,-0.00439453125,1.0224609375,33.779998779296875,0.0,-2.0,-4.721221923828125,3.9530181884765625,Closing,0.0,0.0,42.0,0.0,0.0,0.0,0.0,0.0,
14.815084999999963,0.0,0.0,56018.0,0.0,0.0,0.0,0.0,0.25,1.328124864,0.5498168668524888,0.0,-52294.0,0.0,0.0,0.0,0.0,0.25,4.949950665,4.410439589772222,0.0,75287.0,0.0,0.0,0.0,0.0,0.125,0.36254879100000004,1.9194747329772885,0.0,-56110.0,0.125,0.0,0.0,0.0,0.25,2.14843728,0.5526872062785588,0.0,-0.28999999165534973,-0.7400000095367432,160.86000061035156,-0.011962890625,-0.00469970703125,1.022705078125,33.779998779296875,0.0,-1.0,-4.721221923828125,3.9530181884765625,Closing,0.0,0.0,42.0,0.0,0.0,0.0,0.0,0.0,
14.989893999999854,0.0,0.0,56018.0,0.0,0.0,0.0,0.0,0.25,1.328124864,0.5498168668524888,0.0,-52294.0,0.0,0.0,0.0,0.0,0.25,4.951171368000001,4.410439589772222,0.0,75287.0,0.0,0.0,0.0,0.0,0.125,0.36254879100000004,1.9194747329772885,0.0,-56110.0,0.0,0.0,0.0,0.0,0.25,2.14843728,0.5526872062785588,0.0,-0.28999999165534973,-0.7400000095367432,160.86000061035156,-0.01214599609375,-0.00469970703125,1.02154541015625,33.810001373291016,0.0,0.0,-4.721221923828125,3.9530181884765625,Closing,0.0,0.0,42.0,0.0,0.0,0.0,0.0,0.0,
15.161300000000047,0.0,0.0,56018.0,0.0,0.0,0.0,0.0,0.25,1.328124864,0.5498168668524888,0.0,-52294.0,0.0,0.0,0.0,0.0,0.25,4.949950665,4.410439589772222,0.0,75287.0,0.0,0.0,0.0,0.0,0.125,0.36254879100000004,1.9194747329772885,0.0,-56110.0,0.0,0.0,0.0,0.0,0.25,2.14843728,0.5526872062785588,0.0,-0.28999999165534973,-0.75,160.86000061035156,-0.0150146484375,-0.005859375,1.01800537109375,33.810001373291016,0.0,1.0,-4.721221923828125,3.9530181884765625,Closing,0.0,0.0,42.0,0.0,0.0,0.0,0.0,0.0,
15.333535999999848,0.0,0.0,56018.0,0.0,0.0,0.0,0.0,0.25,1.326904161,0.5498168668524888,0.0,-52294.0,0.0,0.0,0.0,0.0,0.25,4.951171368000001,4.410439589772222,0.0,75287.0,0.0,0.0,0.0,0.0,0.125,0.36254879100000004,1.9194747329772885,0.0,-56110.0,0.125,0.0,0.0,0.0,0.25,2.14843728,0.5526872062785588,0.0,-0.28999999165534973,-0.7400000095367432,160.85000610351562,-0.01287841796875,-0.0054931640625,1.0198974609375,33.810001373291016,0.0,0.0,-4.721221923828125,3.9530181884765625,Closing,0.0,0.0,42.0,0.0,0.0,0.0,0.0,0.0,
15.507889999999897,0.0,0.0,56018.0,0.0,0.0,0.0,0.0,0.25,1.328124864,0.5498168668524888,0.0,-52294.0,0.0,0.0,0.0,0.0,0.25,4.951171368000001,4.410439589772222,0.0,75287.0,0.0,0.0,0.0,0.0,0.125,0.36254879100000004,1.9194747329772885,0.0,-56110.0,0.0,0.0,0.0,0.0,0.25,2.14843728,0.5526872062785588,0.0,-0.28999999165534973,-0.75,160.85000610351562,-0.01446533203125,-0.00665283203125,1.0216064453125,33.779998779296875,0.0,0.0,-4.721221923828125,3.9530181884765625,Closing,0.0,0.0,42.0,0.0,0.0,0.0,0.0,0.0,
15.674787999999943,0.0,0.0,56018.0,0.0,0.0,0.0,0.0,0.25,1.328124864,0.5498168668524888,0.0,-52294.0,0.0,0.0,0.0,0.0,0.25,4.949950665,4.410439589772222,0.0,75287.0,0.0,0.0,0.0,0.0,0.125,0.36254879100000004,1.9194747329772885,0.0,-56110.0,0.125,0.0,0.0,0.0,0.25,2.149657983,0.5526872062785588,0.0,-0.28999999165534973,-0.7400000095367432,160.83999633789062,-0.01153564453125,-0.00567626953125,1.01922607421875,33.779998779296875,0.0,-1.0,-4.721221923828125,3.9530181884765625,Closing,0.0,0.0,42.0,0.0,0.0,0.0,0.0,0.0,
15.848064999999945,0.0,0.0,56018.0,0.0,0.0,0.0,0.0,0.25,1.326904161,0.5498168668524888,0.0,-52294.0,0.0,0.0,0.0,0.0,0.25,4.949950665,4.410439589772222,0.0,75287.0,0.0,0.0,0.0,0.0,0.125,0.36254879100000004,1.9194747329772885,0.0,-56110.0,0.0,0.0,0.0,0.0,0.25,2.14843728,0.5526872062785588,0.0,-0.28999999165534973,-0.75,160.83999633789062,-0.015380859375,-0.00750732421875,1.0223388671875,33.779998779296875,0.0,1.0,-4.721221923828125,3.9530181884765625,Closing,0.0,0.0,42.0,0.0,0.0,0.0,0.0,0.0,
16.01443699999992,0.0,0.0,56018.0,0.0,0.0,0.0,0.0,0.25,1.326904161,0.5498168668524888,0.0,-52294.0,0.0,0.0,0.0,0.0,0.25,4.949950665,4.410439589772222,0.0,75287.0,0.0,0.0,0.0,0.0,0.125,0.36254879100000004,1.9194747329772885,0.0,-56110.0,0.0,0.0,0.0,0.0,0.25,2.149657983,0.5526872062785588,0.0,-0.30000001192092896,-0.7599999904632568,160.83999633789062,-0.012939453125,-0.00469970703125,1.02239990234375,33.810001373291016,0.0,0.0,-4.721221923828125,3.9530181884765625,Closing,0.0,0.0,42.0,0.0,0.0,0.0,0.0,0.0,
16.185716999999947,0.0,0.0,56018.0,0.0,0.0,0.0,0.0,0.25,1.328124864,0.5498168668524888,0.0,-52294.0,0.0,0.0,0.0,0.0,0.25,4.948729962000001,4.410439589772222,0.0,75287.0,0.0,0.0,0.0,0.0,0.125,0.36254879100000004,1.9194747329772885,0.0,-56110.0,0.0,0.0,0.0,0.0,0.25,2.149657983,0.5526872062785588,0.0,-0.28999999165534973,-0.75,160.85000610351562,-0.01007080078125,-0.0042724609375,1.0230712890625,33.810001373291016,0.0,-2.0,-4.721221923828125,3.9530181884765625,Closing,0.0,0.0,42.0,0.0,0.0,0.0,0.0,0.0,
16.354298999999884,0.0,0.0,56018.0,0.0,0.0,0.0,0.0,0.25,1.328124864,0.5498168668524888,0.0,-52294.0,0.0,0.0,0.0,0.0,0.25,4.949950665,4.410439589772222,0.0,75287.0,0.0,0.0,0.0,0.0,0.125,0.36254879100000004,1.9194747329772885,0.0,-56110.0,0.0,0.0,0.0,0.0,0.25,2.149657983,0.5526872062785588,0.0,-0.28999999165534973,-0.7400000095367432,160.85000610351562,-0.01312255859375,-0.00421142578125,1.02020263671875,33.810001373291016,0.0,0.0,-4.721221923828125,3.9530181884765625,Closing,0.0,0.0,42.0,0.0,0.0,0.0,0.0,0.0,
16.525807999999962,0.0,0.0,56018.0,0.0,0.0,0.0,0.0,0.25,1.326904161,0.5498168668524888,0.0,-52294.0,0.0,0.0,0.0,0.0,0.25,4.951171368000001,4.410439589772222,0.0,75287.0,0.0,0.0,0.0,0.0,0.125,0.36254879100000004,1.9194747329772885,0.0,-56110.0,0.0,0.0,0.0,0.0,0.25,2.149657983,0.5526872062785588,0.0,-0.28999999165534973,-0.7400000095367432,160.85000610351562,-0.01409912109375,-0.00360107421875,1.02081298828125,33.79999923706055,0.0,1.0,-4.721221923828125,3.9530181884765625,Closing,0.0,0.0,42.0,0.0,0.0,0.0,0.0,0.0,
16.705115999999922,0.0,0.0,56018.0,0.0,0.0,0.0,0.0,0.25,1.328124864,0.5498168668524888,0.0,-52294.0,0.0,0.0,0.0,0.0,0.25,4.948729962000001,4.410439589772222,0.0,75287.0,0.0,0.0,0.0,0.0,0.125,0.36254879100000004,1.9194747329772885,0.0,-56110.0,0.0,0.0,0.0,0.0,0.25,2.149657983,0.5526872062785588,0.0,-0.28999999165534973,-0.75,160.83999633789062,-0.01318359375,-0.00732421875,1.0203857421875,33.79999923706055,0.0,0.0,-4.721221923828125,3.9530181884765625,Closing,0.0,0.0,42.0,0.0,0.0,0.0,0.0,0.0,
16.873680999999866,0.0,0.0,56018.0,0.0,0.0,0.0,0.0,0.25,1.328124864,0.5498168668524888,0.0,-52294.0,0.0,0.0,0.0,0.0,0.25,4.948729962000001,4.410439589772222,0.0,75287.0,0.0,0.0,0.0,0.0,0.125,0.36254879100000004,1.9194747329772885,0.0,-56110.0,0.0,0.0,0.0,0.0,0.25,2.149657983,0.5526872062785588,0.0,-0.28999999165534973,-0.75,160.85000610351562,-0.01422119140625,-0.00714111328125,1.0224609375,33.79999923706055,0.0,0.0,-4.721221923828125,3.9530181884765625,Closing,0.0,0.0,42.0,0.0,0.0,0.0,0.0,0.0,
17.04999099999992,0.0,0.0,56018.0,0.0,0.0,0.0,0.0,0.25,1.328124864,0.5498168668524888,0.0,-52294.0,0.0,0.0,0.0,0.0,0.25,4.949950665,4.410439589772222,0.0,75287.0,0.0,0.0,0.0,0.0,0.125,0.36132808800000005,1.9194747329772885,0.0,-56110.0,0.0,0.0,0.0,0.0,0.25,2.149657983,0.5526872062785588,0.0,-0.28999999165534973,-0.75,160.85000610351562,-0.017333984375,-0.00286865234375,1.017333984375,33.79999923706055,0.0,4.0,-4.721221923828125,3.9530181884765625,Closing,0.0,0.0,42.0,0.0,0.0,0.0,0.0,0.0,
17.22953700000001,0.0,0.0,56018.0,0.0,0.0,0.0,0.0,0.25,1.326904161,0.5498168668524888,0.0,-52294.0,0.0,0.0,0.0,0.0,0.25,4.948729962000001,4.410439589772222,0.0,75287.0,0.0,0.0,0.0,0.0,0.125,0.36254879100000004,1.9194747329772885,0.0,-56110.0,0.125,0.0,0.0,0.0,0.25,2.149657983,0.5526872062785588,0.0,-0.2800000011920929,-0.75,160.83999633789062,-0.01434326171875,-0.00653076171875,1.01934814453125,33.79999923706055,0.0,0.0,-4.721221923828125,3.9530181884765625,Closing,0.0,0.0,42.0,0.0,0.0,0.0,0.0,0.0,
17.409202000000047,0.0,0.0,56018.0,0.0,0.0,0.0,0.0,0.25,1.328124864,0.5498168668524888,0.0,-52294.0,0.0,0.0,0.0,0.0,0.25,4.949950665,4.410439589772222,0.0,75287.0,0.0,0.0,0.0,0.0,0.125,0.36254879100000004,1.9194747329772885,0.0,-56110.0,0.0,0.0,0.0,0.0,0.25,2.14843728,0.5526872062785588,0.0,-0.2800000011920929,-0.75,160.83999633789062,-0.01373291015625,-0.00518798828125,1.01702880859375,33.79999923706055,0.0,0.0,-4.721221923828125,3.9530181884765625,Closing,0.0,0.0,42.0,0.0,0.0,0.0,0.0,0.0,
17.592176999999907,0.0,0.0,56018.0,0.0,0.0,0.0,0.0,0.25,1.328124864,0.5498168668524888,0.0,-52294.0,0.0,0.0,0.0,0.0,0.25,4.951171368000001,4.410439589772222,0.0,75287.0,0.0,0.0,0.0,0.0,0.125,0.36254879100000004,1.9194747329772885,0.0,-56110.0,0.125,0.0,0.0,0.0,0.25,2.149657983,0.5526872062785588,0.0,-0.2800000011920929,-0.7400000095367432,160.8300018310547,-0.01556396484375,-0.0045166015625,1.0230712890625,33.81999969482422,0.0,2.0,-4.721221923828125,3.9530181884765625,Closing,0.0,0.0,42.0,0.0,0.0,0.0,0.0,0.0,
17.772263000000034,0.0,0.0,56018.0,0.0,0.0,0.0,0.0,0.25,1.326904161,0.5498168668524888,0.0,-52294.0,0.0,0.0,0.0,0.0,0.25,4.949950665,4.410439589772222,0.0,75287.0,0.0,0.0,0.0,0.0,0.125,0.36254879100000004,1.9194747329772885,0.0,-56110.0,0.0,0.0,0.0,0.0,0.25,2.149657983,0.5526872062785588,0.0,-0.2800000011920929,-0.7400000095367432,160.83999633789062,-0.0137939453125,-0.0032958984375,1.01904296875,33.81999969482422,0.0,1.0,-4.721221923828125,3.9530181884765625,Closing,0.0,0.0,42.0,0.0,0.0,0.0,0.0,0.0,
17.968570999999997,0.0,0.0,56018.0,0.0,0.0,0.0,0.0,0.25,1.326904161,0.5498168668524888,0.0,-52294.0,0.0,0.0,0.0,0.0,0.25,4.949950665,4.410439589772222,0.0,75287.0,0.0,0.0,0.0,0.0,0.125,0.36254879100000004,1.9194747329772885,0.0,-56110.0,0.125,0.0,0.0,0.0,0.25,2.14843728,0.5526872062785588,0.0,-0.27000001072883606,-0.75,160.83999633789062,-0.01287841796875,-0.00360107421875,1.02203369140625,33.81999969482422,0.0,0.0,-4.721221923828125,3.9530181884765625,Closing,0.0,0.0,42.0,0.0,0.0,0.0,0.0,0.0,
18.15104299999983,0.0,0.0,56018.0,0.0,0.0,0.0,0.0,0.25,1.328124864,0.5498168668524888,0.0,-52294.0,0.0,0.0,0.0,0.0,0.25,4.948729962000001,4.410439589772222,0.0,75287.0,0.0,0.0,0.0,0.0,0.125,0.36254879100000004,1.9194747329772885,0.0,-56110.0,0.125,0.0,0.0,0.0,0.25,2.149657983,0.5526872062785588,0.0,-0.27000001072883606,-0.7400000095367432,160.83999633789062,-0.01214599609375,-0.0052490234375,1.0184326171875,33.779998779296875,0.0,-1.0,-4.721221923828125,3.9530181884765625,Closing,0.0,0.0,42.0,0.0,0.0,0.0,0.0,0.0,
18.33563500000001,0.0,0.0,56018.0,0.0,0.0,0.0,0.0,0.25,1.328124864,0.5498168668524888,0.0,-52294.0,0.0,0.0,0.0,0.0,0.25,4.948729962000001,4.410439589772222,0.0,75287.0,0.0,0.0,0.0,0.0,0.125,0.36254879100000004,1.9194747329772885,0.0,-56110.0,0.0,0.0,0.0,0.0,0.25,2.149657983,0.5526872062785588,0.0,-0.27000001072883606,-0.7400000095367432,160.83999633789062,-0.01605224609375,-0.0068359375,1.0184326171875,33.779998779296875,0.0,2.0,-4.721221923828125,3.9530181884765625,Closing,0.0,0.0,42.0,0.0,0.0,0.0,0.0,0.0,
18.529111999999966,0.0,0.0,56018.0,0.0,0.0,0.0,0.0,0.25,1.328124864,0.5498168668524888,0.0,-52294.0,0.0,0.0,0.0,0.0,0.25,4.949950665,4.410439589772222,0.0,75287.0,0.0,0.0,0.0,0.0,0.125,0.36132808800000005,1.9194747329772885,0.0,-56110.0,0.0,0.0,0.0,0.0,0.25,2.149657983,0.5526872062785588,0.0,-0.2800000011920929,-0.7300000190734863,160.83999633789062,-0.01470947265625,-0.005859375,1.0281982421875,33.779998779296875,0.0,1.0,-4.721221923828125,3.9530181884765625,Closing,0.0,0.0,42.0,0.0,0.0,0.0,0.0,0.0,
18.70959899999993,0.0,0.0,56018.0,0.0,0.0,0.0,0.0,0.25,1.326904161,0.5498168668524888,0.0,-52294.0,0.0,0.0,0.0,0.0,0.25,4.949950665,4.410439589772222,0.0,75287.0,0.0,0.0,0.0,0.0,0.125,0.36254879100000004,1.9194747329772885,0.0,-56110.0,0.0,0.0,0.0,0.0,0.25,2.149657983,0.5526872062785588,0.0,-0.2800000011920929,-0.7400000095367432,160.83999633789062,-0.01605224609375,-0.00555419921875,1.01678466796875,33.810001373291016,0.0,2.0,-4.721221923828125,3.9530181884765625,Closing,0.0,0.0,42.0,0.0,0.0,0.0,0.0,0.0,
18.87550599999982,0.0,0.0,56018.0,0.0,0.0,0.0,0.0,0.25,1.328124864,0.5498168668524888,0.0,-52294.0,0.0,0.0,0.0,0.0,0.25,4.949950665,4.410439589772222,0.0,75287.0,0.0,0.0,0.0,0.0,0.125,0.36254879100000004,1.9194747329772885,0.0,-56110.0,0.125,0.0,0.0,0.0,0.25,2.14843728,0.5526872062785588,0.0,-0.2800000011920929,-0.7400000095367432,160.83999633789062,-0.0145263671875,-0.00732421875,1.0166015625,33.810001373291016,0.0,0.0,-4.721221923828125,3.9530181884765625,Closing,0.0,0.0,42.0,0.0,0.0,0.0,0.0,0.0,
19.050091000000016,0.0,0.0,56018.0,0.0,0.0,0.0,0.0,0.25,1.328124864,0.5498168668524888,0.0,-52294.0,0.0,0.0,0.0,0.0,0.25,4.951171368000001,4.410439589772222,0.0,75287.0,0.0,0.0,0.0,0.0,0.125,0.36254879100000004,1.9194747329772885,0.0,-56110.0,0.0,0.0,0.0,0.0,0.25,2.14843728,0.5526872062785588,0.0,-0.2800000011920929,-0.7400000095367432,160.8300018310547,-0.0120849609375,-0.0050048828125,1.0167236328125,33.810001373291016,0.0,-1.0,-4.721221923828125,3.9530181884765625,Closing,0.0,0.0,42.0,0.0,0.0,0.0,0.0,0.0,
19.226104999999983,0.0,0.0,56018.0,0.0,0.0,0.0,0.0,0.25,1.326904161,0.5498168668524888,0.0,-52294.0,0.0,0.0,0.0,0.0,0.25,4.949950665,4.410439589772222,0.0,75287.0,0.0,0.0,0.0,0.0,0.125,0.36254879100000004,1.9194747329772885,0.0,-56110.0,0.0,0.0,0.0,0.0,0.25,2.149657983,0.5526872062785588,0.0,-0.2800000011920929,-0.75,160.8300018310547,-0.01422119140625,-0.00567626953125,1.0211181640625,33.790000915527344,0.0,0.0,-4.721221923828125,3.9530181884765625,Closing,0.0,0.0,42.0,0.0,0.0,0.0,0.0,0.0,
19.40131999999983,0.0,0.0,56018.0,0.0,0.0,0.0,0.0,0.25,1.328124864,0.5498168668524888,0.0,-52294.0,0.0,0.0,0.0,0.0,0.25,4.951171368000001,4.410439589772222,0.0,75287.0,0.0,0.0,0.0,0.0,0.125,0.36254879100000004,1.9194747329772885,0.0,-56110.0,0.0,0.0,0.0,0.0,0.25,2.149657983,0.5526872062785588,0.0,-0.28999999165534973,-0.75,160.8300018310547,-0.012451171875,-0.00616455078125,1.0174560546875,33.790000915527344,0.0,-1.0,-4.721221923828125,3.9530181884765625,Closing,0.0,0.0,42.0,0.0,0.0,0.0,0.0,0.0,
19.57071799999988,0.0,0.0,56018.0,0.0,0.0,0.0,0.0,0.25,1.328124864,0.5498168668524888,0.0,-52294.0,0.0,0.0,0.0,0.0,0.25,4.949950665,4.410439589772222,0.0,75287.0,0.0,0.0,0.0,0.0,0.125,0.36132808800000005,1.9194747329772885,0.0,-56110.0,0.125,0.0,0.0,0.0,0.25,2.149657983,0.5526872062785588,0.0,-0.28999999165534973,-0.75,160.8300018310547,-0.01226806640625,-0.004150390625,1.02178955078125,33.79999923706055,0.0,0.0,-4.721221923828125,3.9530181884765625,Closing,0.0,0.0,42.0,0.0,0.0,0.0,0.0,0.0,
19.741481999999845,0.0,0.0,56018.0,0.0,0.0,0.0,0.0,0.25,1.328124864,0.5498168668524888,0.0,-52294.0,0.0,0.0,0.0,0.0,0.25,4.951171368000001,4.410439589772222,0.0,75287.0,0.0,0.0,0.0,0.0,0.125,0.36254879100000004,1.9194747329772885,0.0,-56110.0,0.125,0.0,0.0,0.0,0.25,2.149657983,0.5526872062785588,0.0,-0.28999999165534973,-0.75,160.82000732421875,-0.01141357421875,-0.0079345703125,1.02252197265625,33.79999923706055,0.0,-2.0,-4.721221923828125,3.9530181884765625,Closing,0.0,0.0,42.0,0.0,0.0,0.0,0.0,0.0,
19.9115149999999,0.0,0.0,56018.0,0.0,0.0,0.0,0.0,0.25,1.326904161,0.5498168668524888,0.0,-52294.0,0.0,0.0,0.0,0.0,0.25,4.951171368000001,4.410439589772222,0.0,75287.0,0.0,0.0,0.0,0.0,0.125,0.36254879100000004,1.9194747329772885,0.0,-56110.0,0.0,0.0,0.0,0.0,0.25,2.149657983,0.5526872062785588,0.0,-0.2800000011920929,-0.75,160.82000732421875,-0.013427734375,-0.0062255859375,1.01910400390625,33.79999923706055,0.0,0.0,-4.721221923828125,3.9530181884765625,Closing,0.0,0.0,42.0,0.0,0.0,0.0,0.0,0.0,
20.080533999999986,0.0,0.0,56018.0,0.0,0.0,0.0,0.0,0.25,1.326904161,0.5498168668524888,0.0,-52294.0,0.0,0.0,0.0,0.0,0.25,4.951171368000001,4.410439589772222,0.0,75287.0,0.0,0.0,0.0,0.0,0.125,0.36254879100000004,1.9194747329772885,0.0,-56110.0,0.0,0.0,0.0,0.0,0.25,2.149657983,0.5526872062785588,0.0,-0.28999999165534973,-0.7400000095367432,160.80999755859375,-0.01251220703125,-0.005615234375,1.0213623046875,33.810001373291016,0.0,0.0,-4.721221923828125,3.9530181884765625,Closing,0.0,0.0,42.0,0.0,0.0,0.0,0.0,0.0,
20.25415699999989,0.0,0.0,56018.0,0.0,0.0,0.0,0.0,0.25,1.328124864,0.5498168668524888,0.0,-52294.0,0.0,0.0,0.0,0.0,0.25,4.949950665,4.410439589772222,0.0,75287.0,0.0,0.0,0.0,0.0,0.125,0.36254879100000004,1.9194747329772885,0.0,-56110.0,0.125,0.0,0.0,0.0,0.25,2.149657983,0.5526872062785588,0.0,-0.28999999165534973,-0.7400000095367432,160.8000030517578,-0.01190185546875,-0.006103515625,1.02044677734375,33.810001373291016,0.0,-1.0,-4.721221923828125,3.9530181884765625,Closing,0.0,0.0,42.0,0.0,0.0,0.0,0.0,0.0,
