Time,ClimberA1,ClimberA2,FRpos,FRCurrent,FRspeed,FRsetpoint,FRApos,FRACurrent,FREncpos,FREncSetpoint,FREncSpeed,FLpos,FLCurrent,FLspeed,FLsetpoint,FLApos,FLACurrent,FLEncpos,FLEncSetpoint,FLEncSpeed,BRpos,BRCurrent,BRspeed,BRsetpoint,BRApos,BRACurrent,BREncpos,BREncSetpoint,BREncSpeed,BLpos,BLCurrent,BLspeed,BLsetpoint,BLApos,BLACurrent,BLEncpos,BLEncSetpoint,BLEncSpeed,navx_Pitch,navx_Roll,navx_Yaw,navx_XAcc,navx_YAcc,navx_ZAcc,navx_Temp,navx_Bar,navx_Alt,navx_XDis,navx_YDis,GearPlacerState,ShootOutputV,ShootOutputCurrent,ShootEncPos,ShootEncVelocity,ShootSpeed,ShootSetpoint,CarouselSetpoint,CarouselCurrent,
0.13436600000000182,0.0,0.0,67198.0,0.0,0.0,0.0,0.0,0.125,0.820312416,0.01,0.0,-60317.0,0.0,0.0,-0.0,0.0,0.0,0.5554198650000001,0.01,0.0,85999.0,0.0,0.0,0.0,0.0,0.0,3.353271141,0.01,0.0,-66176.0,0.0,0.0,-0.0,0.0,0.25,1.6833494370000002,0.01,0.0,-0.36000001430511475,-0.33000001311302185,0.0,-0.00592041015625,-0.00885009765625,1.01373291015625,34.04999923706055,0.0,0.0,-6.1225128173828125,3.6679840087890625,Opening,0.0,0.0,42.0,0.0,0.0,0.0,0.0,0.0,
0.19270500000000174,0.0,0.0,67198.0,0.0,0.0,0.0,0.0,0.125,0.821533119,0.01,0.0,-60317.0,0.0,0.0,-0.0,0.0,0.0,0.5554198650000001,0.01,0.0,85999.0,0.0,0.0,0.0,0.0,0.0,3.354491844,0.01,0.0,-66176.0,0.0,0.0,-0.0,0.0,0.25,1.6821287340000002,0.01,-0.0012207029999999897,-0.36000001430511475,-0.33000001311302185,0.0,-0.0062255859375,-0.0062255859375,1.0225830078125,34.04999923706055,0.0,0.0,-6.1225128173828125,3.6679840087890625,Opening,0.0,0.0,42.0,0.0,0.0,0.0,0.0,0.0,
0.24493699999999807,0.0,0.0,67198.0,0.0,0.0,0.0,0.0,0.125,0.821533119,0.01,-0.0012207029999999897,-60317.0,0.0,0.0,-0.0,0.0,0.0,0.5554198650000001,0.01,0.0,85999.0,0.0,0.0,0.0,0.0,0.0,3.353271141,0.01,0.0,-66176.0,0.0,0.0,-0.0,0.0,0.25,1.6833494370000002,0.01,0.0,-0.36000001430511475,-0.33000001311302185,0.0,-0.00726318359375,-0.0096435546875,1.0230712890625,34.04999923706055,0.0,-1.0,-6.1225128173828125,3.6679840087890625,Opening,0.0,0.0,42.0,0.0,0.0,0.0,0.0,0.0,
0.29613000000000467,0.0,0.0,67198.0,0.0,0.0,0.0,0.0,0.125,0.821533119,0.01,0.0,-60317.0,0.0,0.0,-0.0,0.0,0.0,0.5554198650000001,0.01,0.0,85999.0,0.0,0.0,0.0,0.0,0.0,3.353271141,0.01,0.0,-66176.0,0.0,0.0,-0.0,0.0,0.25,1.6833494370000002,0.01,0.0,-0.36000001430511475,-0.33000001311302185,0.0,-0.009033203125,-0.00830078125,1.0223388671875,34.04999923706055,0.0,0.0,-6.1225128173828125,3.6679840087890625,Opening,0.0,0.0,42.0,0.0,0.0,0.0,0.0,0.0,
0.3491889999999985,0.0,0.0,67198.0,0.0,0.0,0.0,0.0,0.125,0.821533119,0.01,0.0,-60317.0,0.0,0.0,-0.0,0.0,0.0,0.5554198650000001,0.01,0.0,85999.0,0.0,0.0,0.0,0.0,0.0,3.354491844,0.01,0.0,-66176.0,0.0,0.0,-0.0,0.0,0.25,1.6833494370000002,0.01,0.0,-0.36000001430511475,-0.33000001311302185,0.0,-0.00531005859375,-0.0048828125,1.01715087890625,34.04999923706055,0.0,0.0,-6.1225128173828125,3.6679840087890625,Opening,0.0,0.0,42.0,0.0,0.0,0.0,0.0,0.0,
0.3988530000000028,0.0,0.0,67198.0,0.0,0.0,0.0,0.0,0.125,0.821533119,0.01,0.0,-60317.0,0.0,0.0,-0.0,0.0,0.0,0.5554198650000001,0.01,0.0,85999.0,0.0,0.0,0.0,0.0,0.0,3.354491844,0.01,0.0,-66176.0,0.0,0.0,-0.0,0.0,0.25,1.6833494370000002,0.01,0.0,-0.36000001430511475,-0.33000001311302185,0.0,-0.00665283203125,-0.0089111328125,1.0157470703125,34.04999923706055,0.0,0.0,-6.1225128173828125,3.6679840087890625,Opening,0.0,0.0,42.0,0.0,0.0,0.0,0.0,0.0,
0.45084300000000077,0.0,0.0,67198.0,0.0,0.0,0.0,0.0,0.125,0.821533119,0.01,0.0,-60317.0,0.0,0.0,-0.0,0.0,0.0,0.5541991620000001,0.01,0.0,85999.0,0.0,0.0,0.0,0.0,0.0,3.353271141,0.01,0.0,-66176.0,0.0,0.0,-0.0,0.0,0.25,1.6833494370000002,0.01,0.0,-0.36000001430511475,-0.33000001311302185,0.0,-0.00518798828125,-0.00433349609375,1.01873779296875,34.04999923706055,0.0,0.0,-6.1225128173828125,3.6679840087890625,Opening,0.0,0.0,42.0,0.0,0.0,0.0,0.0,0.0,
0.5015570000000007,0.0,0.0,67198.0,0.0,0.0,0.0,0.0,0.125,0.821533119,0.01,0.0,-60317.0,0.0,0.0,-0.0,0.0,0.0,0.5554198650000001,0.01,0.0,85999.0,0.0,0.0,0.0,0.0,0.0,3.353271141,0.01,0.0,-66176.0,0.0,0.0,-0.0,0.0,0.25,1.6833494370000002,0.01,0.0,-0.36000001430511475,-0.33000001311302185,0.0,-0.0081787109375,-0.00714111328125,1.02215576171875,34.09000015258789,0.0,-2.0,-6.1225128173828125,3.6679840087890625,Opening,0.0,0.0,42.0,0.0,0.0,0.0,0.0,0.0,
0.5535420000000013,0.0,0.0,67198.0,0.0,0.0,0.0,0.0,0.125,0.821533119,0.01,0.0,-60317.0,0.0,0.0,-0.0,0.0,0.0,0.5554198650000001,0.01,0.0,85999.0,0.0,0.0,0.0,0.0,0.0,3.352050438,0.01,0.0,-66176.0,0.125,0.0,-0.0,0.0,0.25,1.6833494370000002,0.01,0.0,-0.36000001430511475,-0.33000001311302185,0.0,-0.005126953125,-0.00408935546875,1.02410888671875,34.09000015258789,0.0,0.0,-6.1225128173828125,3.6679840087890625,Opening,0.0,0.0,42.0,0.0,0.0,0.0,0.0,0.0,
0.6079369999999981,0.0,0.0,67198.0,0.0,0.0,0.0,0.0,0.125,0.821533119,0.01,0.0,-60317.0,0.0,0.0,-0.0,0.0,0.0,0.5554198650000001,0.01,0.0,85999.0,0.0,0.0,0.0,0.0,0.0,3.353271141,0.01,0.0,-66176.0,0.0,0.0,-0.0,0.0,0.25,1.6833494370000002,0.01,0.0,-0.36000001430511475,-0.33000001311302185,0.0,-0.00445556640625,-0.00823974609375,1.01824951171875,34.09000015258789,0.0,1.0,-6.1225128173828125,3.6679840087890625,Opening,0.0,0.0,42.0,0.0,0.0,0.0,0.0,0.0,
0.6576840000000084,0.0,0.0,67198.0,0.0,0.0,0.0,0.0,0.125,0.821533119,0.01,0.0,-60317.0,0.0,0.0,-0.0,0.0,0.0,0.5554198650000001,0.01,0.0,85999.0,0.0,0.0,0.0,0.0,0.0,3.353271141,0.01,0.0,-66176.0,0.0,0.0,-0.0,0.0,0.25,1.6833494370000002,0.01,0.0012207029999999897,-0.36000001430511475,-0.33000001311302185,0.0,-0.00604248046875,-0.0054931640625,1.0162353515625,34.09000015258789,0.0,0.0,-6.1225128173828125,3.6679840087890625,Opening,0.0,0.0,42.0,0.0,0.0,0.0,0.0,0.0,
0.7099060000000027,0.0,0.0,67198.0,0.0,0.0,0.0,0.0,0.125,0.821533119,0.01,0.0,-60317.0,0.0,0.0,-0.0,0.0,0.0,0.5541991620000001,0.01,0.0,85999.0,0.0,0.0,0.0,0.0,0.0,3.354491844,0.01,0.0,-66176.0,0.125,0.0,-0.0,0.0,0.25,1.6821287340000002,0.01,-0.0012207029999999897,-0.36000001430511475,-0.33000001311302185,0.0,-0.00628662109375,-0.00811767578125,1.0167236328125,34.09000015258789,0.0,0.0,-6.1225128173828125,3.6679840087890625,Opening,0.0,0.0,42.0,0.0,0.0,0.0,0.0,0.0,
0.7622649999999994,0.0,0.0,67198.0,0.0,0.0,0.0,0.0,0.125,0.821533119,0.01,0.0,-60317.0,0.0,0.0,-0.0,0.0,0.0,0.5554198650000001,0.01,0.0,85999.0,0.0,0.0,0.0,0.0,0.0,3.353271141,0.01,0.0,-66176.0,0.0,0.0,-0.0,0.0,0.25,1.6833494370000002,0.01,0.0,-0.36000001430511475,-0.3400000035762787,0.0,-0.0079345703125,-0.007080078125,1.022705078125,34.09000015258789,0.0,-1.0,-6.1225128173828125,3.6679840087890625,Opening,0.0,0.0,42.0,0.0,0.0,0.0,0.0,0.0,
0.8126310000000085,0.0,0.0,67198.0,0.0,0.0,0.0,0.0,0.125,0.821533119,0.01,0.0,-60317.0,0.0,0.0,-0.0,0.0,0.0,0.5554198650000001,0.01,0.0,85999.0,0.0,0.0,0.0,0.0,0.0,3.353271141,0.01,0.0,-66176.0,0.0,0.0,-0.0,0.0,0.25,1.6833494370000002,0.01,0.0,-0.36000001430511475,-0.3400000035762787,0.0,-0.00653076171875,-0.0067138671875,1.0174560546875,34.09000015258789,0.0,0.0,-6.1225128173828125,3.6679840087890625,Opening,0.0,0.0,42.0,0.0,0.0,0.0,0.0,0.0,
0.8666940000000032,0.0,0.0,67198.0,0.0,0.0,0.0,0.0,0.125,0.821533119,0.01,0.0,-60317.0,0.0,0.0,-0.0,0.0,0.0,0.5541991620000001,0.01,0.0,85999.0,0.0,0.0,0.0,0.0,0.0,3.353271141,0.01,0.0,-66176.0,0.0,0.0,-0.0,0.0,0.25,1.6833494370000002,0.01,0.0,-0.36000001430511475,-0.3400000035762787,0.0,-0.0047607421875,-0.0052490234375,1.0245361328125,34.09000015258789,0.0,1.0,-6.1225128173828125,3.6679840087890625,Opening,0.0,0.0,42.0,0.0,0.0,0.0,0.0,0.0,
0.9155599999999977,0.0,0.0,67198.0,0.0,0.0,0.0,0.0,0.125,0.821533119,0.01,0.0,-60317.0,0.0,0.0,-0.0,0.0,0.0,0.5554198650000001,0.01,0.0,85999.0,0.0,0.0,0.0,0.0,0.0,3.353271141,0.01,0.0,-66176.0,0.0,0.0,-0.0,0.0,0.25,1.6833494370000002,0.01,0.0,-0.36000001430511475,-0.3400000035762787,0.0,-0.00750732421875,-0.0096435546875,1.0238037109375,34.09000015258789,0.0,-1.0,-6.1225128173828125,3.6679840087890625,Opening,0.0,0.0,42.0,0.0,0.0,0.0,0.0,0.0,
0.9687770000000019,0.0,0.0,67198.0,0.0,0.0,0.0,0.0,0.125,0.821533119,0.01,0.0,-60317.0,0.0,0.0,-0.0,0.0,0.0,0.5554198650000001,0.01,0.0,85999.0,0.0,0.0,0.0,0.0,0.0,3.353271141,0.01,0.0,-66176.0,0.0,0.0,-0.0,0.0,0.25,1.6833494370000002,0.01,0.0,-0.36000001430511475,-0.3400000035762787,0.0,-0.008056640625,-0.0087890625,1.02325439453125,34.09000015258789,0.0,-1.0,-6.1225128173828125,3.6679840087890625,Opening,0.0,0.0,42.0,0.0,0.0,0.0,0.0,0.0,
1.020252999999997,0.0,0.0,67198.0,0.0,0.0,0.0,0.0,0.125,0.821533119,0.01,0.0,-60317.0,0.0,0.0,-0.0,0.0,0.0,0.5566405680000001,0.01,0.0,85999.0,0.0,0.0,0.0,0.0,0.0,3.353271141,0.01,0.0,-66176.0,0.0,0.0,-0.0,0.0,0.25,1.6857908430000001,0.01,0.0,-0.36000001430511475,-0.3400000035762787,0.0,-0.00640869140625,-0.00360107421875,1.02197265625,34.08000183105469,0.0,0.0,-6.1225128173828125,3.6679840087890625,Opening,0.0,0.0,42.0,0.0,0.0,0.0,0.0,0.0,
1.0725669999999954,0.0,0.0,67198.0,0.0,0.0,0.0,0.0,0.125,0.821533119,0.01,0.0,-60317.0,0.0,0.0,-0.0,0.0,0.0,0.551757756,0.01,0.0,85999.0,0.0,0.0,0.0,0.0,0.0,3.353271141,0.01,0.0,-66176.0,0.0,0.0,-0.0,0.0,0.25,1.6833494370000002,0.01,0.0,-0.36000001430511475,-0.33000001311302185,0.0,-0.00830078125,-0.00604248046875,1.02044677734375,34.08000183105469,0.0,-2.0,-6.1225128173828125,3.6679840087890625,Opening,0.0,0.0,42.0,0.0,0.0,0.0,0.0,0.0,
1.126448000000004,0.0,0.0,67198.0,0.0,0.0,0.0,0.0,0.125,0.821533119,0.01,0.0,-60317.0,0.0,0.0,-0.0,0.0,0.0,0.5541991620000001,0.01,0.0,85999.0,0.0,0.0,0.0,0.0,0.0,3.353271141,0.01,0.0,-66176.0,0.0,0.0,-0.0,0.0,0.25,1.6833494370000002,0.01,0.0,-0.36000001430511475,-0.33000001311302185,0.0,-0.00543212890625,-0.00604248046875,1.02044677734375,34.08000183105469,0.0,0.0,-6.1225128173828125,3.6679840087890625,Opening,0.0,0.0,42.0,0.0,0.0,0.0,0.0,0.0,
1.174369000000006,0.0,0.0,67198.0,0.0,0.0,0.0,0.0,0.125,0.821533119,0.01,0.0,-60317.0,0.0,0.0,-0.0,0.0,0.0,0.5541991620000001,0.01,0.0,85999.0,0.0,0.0,0.0,0.0,0.0,3.354491844,0.01,0.0,-66176.0,0.0,0.0,-0.0,0.0,0.25,1.6833494370000002,0.01,0.0,-0.36000001430511475,-0.33000001311302185,0.0,-0.00616455078125,-0.00543212890625,1.02386474609375,34.08000183105469,0.0,0.0,-6.1225128173828125,3.6679840087890625,Opening,0.0,0.0,42.0,0.0,0.0,0.0,0.0,0.0,
1.2290130000000064,0.0,0.0,67198.0,0.0,0.0,0.0,0.0,0.125,0.821533119,0.01,0.0,-60317.0,0.0,0.0,-0.0,0.0,0.0,0.5566405680000001,0.01,0.0,85999.0,0.0,0.0,0.0,0.0,0.0,3.353271141,0.01,0.0,-66176.0,0.0,0.0,-0.0,0.0,0.25,1.6833494370000002,0.01,0.0,-0.36000001430511475,-0.33000001311302185,0.0,-0.0079345703125,-0.008544921875,1.019775390625,34.08000183105469,0.0,-1.0,-6.1225128173828125,3.6679840087890625,Opening,0.0,0.0,42.0,0.0,0.0,0.0,0.0,0.0,
1.2922149999999966,0.0,0.0,67198.0,0.0,0.0,0.0,0.0,0.125,0.821533119,0.01,0.0,-60317.0,0.0,0.0,-0.0,0.0,0.0,0.5554198650000001,0.01,0.0,85999.0,0.0,0.0,0.0,0.0,0.0,3.353271141,0.01,0.0,-66176.0,0.0,0.0,-0.0,0.0,0.25,1.6821287340000002,0.01,0.0,-0.36000001430511475,-0.33000001311302185,0.0,-0.0087890625,-0.008056640625,1.00921630859375,34.08000183105469,0.0,-2.0,-6.1225128173828125,3.6679840087890625,Opening,0.0,0.0,42.0,0.0,0.0,0.0,0.0,0.0,
1.346497000000003,0.0,0.0,67198.0,0.0,0.0,0.0,0.0,0.125,0.821533119,0.01,0.0,-60317.0,0.0,0.0,-0.0,0.0,0.0,0.5554198650000001,0.01,0.0,85999.0,0.0,0.0,0.0,0.0,0.0,3.353271141,0.01,0.0,-66176.0,0.0,0.0,-0.0,0.0,0.25,1.6833494370000002,0.01,0.0,-0.3499999940395355,-0.3400000035762787,0.0,-0.00732421875,-0.00714111328125,1.01654052734375,34.08000183105469,0.0,-1.0,-6.1225128173828125,3.6679840087890625,Opening,0.0,0.0,42.0,0.0,0.0,0.0,0.0,0.0,
1.3955740000000079,0.0,0.0,67198.0,0.0,0.0,0.0,0.0,0.125,0.821533119,0.01,0.0,-60317.0,0.0,0.0,-0.0,0.0,0.0,0.5554198650000001,0.01,0.0,85999.0,0.0,0.0,0.0,0.0,0.0,3.352050438,0.01,0.0,-66176.0,0.125,0.0,-0.0,0.0,0.25,1.6833494370000002,0.01,0.0,-0.3499999940395355,-0.3400000035762787,0.0,-0.00518798828125,-0.00848388671875,1.02008056640625,34.08000183105469,0.0,0.0,-6.1225128173828125,3.6679840087890625,Opening,0.0,0.0,42.0,0.0,0.0,0.0,0.0,0.0,
1.4494839999999967,0.0,0.0,67198.0,0.0,0.0,0.0,0.0,0.125,0.8178710100000001,0.01,0.0,-60317.0,0.0,0.0,-0.0,0.0,0.0,0.5541991620000001,0.01,0.0,85999.0,0.0,0.0,0.0,0.0,0.0,3.353271141,0.01,0.0,-66176.0,0.0,0.0,-0.0,0.0,0.25,1.6833494370000002,0.01,0.0,-0.3499999940395355,-0.3400000035762787,0.0,-0.00390625,-0.00555419921875,1.01611328125,34.08000183105469,0.0,2.0,-6.1225128173828125,3.6679840087890625,Opening,0.0,0.0,42.0,0.0,0.0,0.0,0.0,0.0,
1.501801999999996,0.0,0.0,67198.0,0.0,0.0,0.0,0.0,0.125,0.821533119,0.01,0.0,-60317.0,0.0,0.0,-0.0,0.0,0.0,0.5541991620000001,0.01,0.0,85999.0,0.0,0.0,0.0,0.0,0.0,3.353271141,0.01,0.0,-66176.0,0.0,0.0,-0.0,0.0,0.25,1.6833494370000002,0.01,0.0,-0.3499999940395355,-0.33000001311302185,0.0,-0.0045166015625,-0.0064697265625,1.01800537109375,34.09000015258789,0.0,1.0,-6.1225128173828125,3.6679840087890625,Opening,0.0,0.0,42.0,0.0,0.0,0.0,0.0,0.0,
1.5539060000000027,0.0,0.0,67198.0,0.0,0.0,0.0,0.0,0.125,0.821533119,0.01,0.0,-60317.0,0.0,0.0,-0.0,0.0,0.0,0.5554198650000001,0.01,0.0,85999.0,0.0,0.0,0.0,0.0,0.0,3.353271141,0.01,0.0,-66176.0,0.0,0.0,-0.0,0.0,0.25,1.6833494370000002,0.01,0.0,-0.3499999940395355,-0.3400000035762787,0.0,-0.0079345703125,-0.00555419921875,1.0224609375,34.09000015258789,0.0,-1.0,-6.1225128173828125,3.6679840087890625,Opening,0.0,0.0,42.0,0.0,0.0,0.0,0.0,0.0,
1.6092149999999965,0.0,0.0,67198.0,0.0,0.0,0.0,0.0,0.125,0.821533119,0.01,0.0,-60317.0,0.0,0.0,-0.0,0.0,0.0,0.557861271,0.01,0.0,85999.0,0.0,0.0,0.0,0.0,0.0,3.353271141,0.01,0.0,-66176.0,0.0,0.0,-0.0,0.0,0.25,1.6833494370000002,0.01,0.0,-0.3499999940395355,-0.3400000035762787,0.0,-0.005859375,-0.00579833984375,1.0260009765625,34.09000015258789,0.0,0.0,-6.1225128173828125,3.6679840087890625,Opening,0.0,0.0,42.0,0.0,0.0,0.0,0.0,0.0,
1.6614490000000077,0.0,0.0,67198.0,0.0,0.0,0.0,0.0,0.125,0.821533119,0.01,0.0012207029999999897,-60317.0,0.0,0.0,-0.0,0.0,0.0,0.552978459,0.01,0.0,85999.0,0.0,0.0,0.0,0.0,0.0,3.353271141,0.01,0.0,-66176.0,0.0,0.0,-0.0,0.0,0.25,1.6833494370000002,0.01,0.0012207029999999897,-0.3499999940395355,-0.3400000035762787,0.0,-0.00439453125,-0.0037841796875,1.021240234375,34.09000015258789,0.0,1.0,-6.1225128173828125,3.6679840087890625,Opening,0.0,0.0,42.0,0.0,0.0,0.0,0.0,0.0,
1.714226999999999,0.0,0.0,67198.0,0.0,0.0,0.0,0.0,0.125,0.821533119,0.01,-0.0012207029999999897,-60317.0,0.0,0.0,-0.0,0.0,0.0,0.5554198650000001,0.01,0.0,85999.0,0.0,0.0,0.0,0.0,0.0,3.354491844,0.01,0.0,-66176.0,0.0,0.0,-0.0,0.0,0.25,1.6833494370000002,0.01,-0.0012207029999999897,-0.3499999940395355,-0.3400000035762787,0.0,-0.00616455078125,-0.0048828125,1.01776123046875,34.09000015258789,0.0,0.0,-6.1225128173828125,3.6679840087890625,Opening,0.0,0.0,42.0,0.0,0.0,0.0,0.0,0.0,
1.7694619999999994,0.0,0.0,67198.0,0.0,0.0,0.0,0.0,0.125,0.820312416,0.01,0.0,-60317.0,0.0,0.0,-0.0,0.0,0.0,0.5554198650000001,0.01,0.0,85999.0,0.0,0.0,0.0,0.0,0.0,3.353271141,0.01,0.0,-66176.0,0.0,0.0,-0.0,0.0,0.25,1.6821287340000002,0.01,0.0,-0.3499999940395355,-0.3400000035762787,0.0,-0.00592041015625,-0.00714111328125,1.0179443359375,34.09000015258789,0.0,0.0,-6.1225128173828125,3.6679840087890625,Opening,0.0,0.0,42.0,0.0,0.0,0.0,0.0,0.0,
1.8253500000000058,0.0,0.0,67198.0,0.0,0.0,0.0,0.0,0.125,0.821533119,0.01,0.0,-60317.0,0.0,0.0,-0.0,0.0,0.0,0.5554198650000001,0.01,0.0,85999.0,0.0,0.0,0.0,0.0,0.0,3.354491844,0.01,0.0,-66176.0,0.0,0.0,-0.0,0.0,0.25,1.679687328,0.01,0.0,-0.3499999940395355,-0.3400000035762787,0.0,-0.0050048828125,-0.00439453125,1.01995849609375,34.09000015258789,0.0,1.0,-6.1225128173828125,3.6679840087890625,Opening,0.0,0.0,42.0,0.0,0.0,0.0,0.0,0.0,
1.877048999999999,0.0,0.0,67198.0,0.0,0.0,0.0,0.0,0.125,0.822753822,0.01,0.0,-60317.0,0.0,0.0,-0.0,0.0,0.0,0.5541991620000001,0.01,0.0,85999.0,0.0,0.0,0.0,0.0,0.0,3.353271141,0.01,0.0,-66176.0,0.0,0.0,-0.0,0.0,0.25,1.6833494370000002,0.01,0.0,-0.3499999940395355,-0.3400000035762787,-0.009999999776482582,-0.004638671875,-0.00738525390625,1.01568603515625,34.09000015258789,0.0,1.0,-6.1225128173828125,3.6679840087890625,Opening,0.0,0.0,42.0,0.0,0.0,0.0,0.0,0.0,
1.9358179999999994,0.0,0.0,67198.0,0.0,0.0,0.0,0.0,0.125,0.821533119,0.01,0.0012207029999999897,-60317.0,0.0,0.0,-0.0,0.0,0.0,0.5554198650000001,0.01,0.0,85999.0,0.0,0.0,0.0,0.0,0.0,3.353271141,0.01,0.0,-66176.0,0.0,0.0,-0.0,0.0,0.25,1.6833494370000002,0.01,0.0,-0.3499999940395355,-0.3400000035762787,-0.009999999776482582,-0.00732421875,-0.0052490234375,1.021484375,34.09000015258789,0.0,-1.0,-6.1225128173828125,3.6679840087890625,Opening,0.0,0.0,42.0,0.0,0.0,0.0,0.0,0.0,
1.9922259999999952,0.0,0.0,67198.0,0.0,0.0,0.0,0.0,0.125,0.821533119,0.01,-0.0012207029999999897,-60317.0,0.0,0.0,-0.0,0.0,0.0,0.5554198650000001,0.01,0.0,85999.0,0.0,0.0,0.0,0.0,0.0,3.353271141,0.01,0.0,-66176.0,0.0,0.0,-0.0,0.0,0.25,1.6833494370000002,0.01,0.0,-0.36000001430511475,-0.3499999940395355,-0.009999999776482582,-0.004150390625,-0.00811767578125,1.02069091796875,34.09000015258789,0.0,2.0,-6.1225128173828125,3.6679840087890625,Opening,0.0,0.0,42.0,0.0,0.0,0.0,0.0,0.0,
2.0475920000000043,0.0,0.0,67198.0,0.0,0.0,0.0,0.0,0.125,0.821533119,0.01,0.0,-60317.0,0.0,0.0,-0.0,0.0,0.0,0.5554198650000001,0.01,0.0,85999.0,0.0,0.0,0.0,0.0,0.0,3.354491844,0.01,0.0,-66176.0,0.0,0.0,-0.0,0.0,0.25,1.6821287340000002,0.01,0.0,-0.36000001430511475,-0.3499999940395355,-0.009999999776482582,-0.0040283203125,-0.004638671875,1.01678466796875,34.06999969482422,0.0,2.0,-6.1225128173828125,3.6679840087890625,Opening,0.0,0.0,42.0,0.0,0.0,0.0,0.0,0.0,
2.0972780000000055,0.0,0.0,67198.0,0.0,0.0,0.0,0.0,0.125,0.821533119,0.01,0.0,-60317.0,0.0,0.0,-0.0,0.0,0.0,0.5554198650000001,0.01,0.0,85999.0,0.0,0.0,0.0,0.0,0.0,3.353271141,0.01,0.0,-66176.0,0.0,0.0,-0.0,0.0,0.25,1.6833494370000002,0.01,0.0,-0.36000001430511475,-0.3499999940395355,-0.009999999776482582,-0.007080078125,-0.00677490234375,1.02294921875,34.06999969482422,0.0,0.0,-6.1225128173828125,3.6679840087890625,Opening,0.0,0.0,42.0,0.0,0.0,0.0,0.0,0.0,
2.1531659999999975,0.0,0.0,67198.0,0.0,0.0,0.0,0.0,0.125,0.821533119,0.01,0.0,-60317.0,0.0,0.0,-0.0,0.0,0.0,0.5554198650000001,0.01,0.0,85999.0,0.0,0.0,0.0,0.0,0.0,3.350829735,0.01,0.0,-66176.0,0.0,0.0,-0.0,0.0,0.25,1.6833494370000002,0.01,0.0012207029999999897,-0.3499999940395355,-0.3400000035762787,-0.009999999776482582,-0.00604248046875,-0.0057373046875,1.0216064453125,34.06999969482422,0.0,0.0,-6.1225128173828125,3.6679840087890625,Opening,0.0,0.0,42.0,0.0,0.0,0.0,0.0,0.0,
2.2079389999999983,0.0,0.0,67198.0,0.0,0.0,0.0,0.0,0.125,0.820312416,0.01,0.0,-60317.0,0.0,0.0,-0.0,0.0,0.0,0.5554198650000001,0.01,0.0,85999.0,0.0,0.0,0.0,0.0,0.0,3.353271141,0.01,0.0,-66176.0,0.0,0.0,-0.0,0.0,0.25,1.6833494370000002,0.01,-0.0012207029999999897,-0.3499999940395355,-0.3400000035762787,-0.009999999776482582,-0.0042724609375,-0.005615234375,1.02362060546875,34.06999969482422,0.0,1.0,-6.1225128173828125,3.6679840087890625,Opening,0.0,0.0,42.0,0.0,0.0,0.0,0.0,0.0,
2.2660869999999997,0.0,0.0,67198.0,0.0,0.0,0.0,0.0,0.125,0.821533119,0.01,0.0,-60317.0,0.0,0.0,-0.0,0.0,0.0,0.5554198650000001,0.01,0.0,85999.0,0.0,0.0,0.0,0.0,0.0,3.354491844,0.01,0.0,-66176.0,0.0,0.0,-0.0,0.0,0.25,1.6845701400000002,0.01,0.0,-0.3499999940395355,-0.3400000035762787,-0.019999999552965164,-0.0067138671875,-0.00653076171875,1.0179443359375,34.06999969482422,0.0,0.0,-6.1225128173828125,3.6679840087890625,Opening,0.0,0.0,42.0,0.0,0.0,0.0,0.0,0.0,
2.3167560000000087,0.0,0.0,67198.0,0.0,0.0,0.0,0.0,0.125,0.821533119,0.01,0.0,-60317.0,0.0,0.0,-0.0,0.0,0.0,0.5554198650000001,0.01,0.0,85999.0,0.0,0.0,0.0,0.0,0.0,3.353271141,0.01,0.0,-66176.0,0.0,0.0,-0.0,0.0,0.25,1.6833494370000002,0.01,0.0,-0.3499999940395355,-0.3400000035762787,-0.019999999552965164,-0.0062255859375,-0.0050048828125,1.02001953125,34.06999969482422,0.0,0.0,-6.1225128173828125,3.6679840087890625,Opening,0.0,0.0,42.0,0.0,0.0,0.0,0.0,0.0,
2.3731940000000034,0.0,0.0,67198.0,0.0,0.0,0.0,0.0,0.125,0.820312416,0.01,0.0,-60317.0,0.0,0.0,-0.0,0.0,0.0,0.5554198650000001,0.01,0.0,85999.0,0.0,0.0,0.0,0.0,0.0,3.354491844,0.01,0.0,-66176.0,0.0,0.0,-0.0,0.0,0.25,1.6833494370000002,0.01,0.0,-0.3499999940395355,-0.3400000035762787,-0.019999999552965164,-0.0069580078125,-0.00799560546875,1.02001953125,34.06999969482422,0.0,0.0,-6.1225128173828125,3.6679840087890625,Opening,0.0,0.0,42.0,0.0,0.0,0.0,0.0,0.0,
2.428948000000004,0.0,0.0,67198.0,0.0,0.0,0.0,0.0,0.125,0.821533119,0.01,0.0,-60317.0,0.0,0.0,-0.0,0.0,0.0,0.5541991620000001,0.01,0.0,85999.0,0.0,0.0,0.0,0.0,0.0,3.354491844,0.01,0.0,-66176.0,0.0,0.0,-0.0,0.0,0.25,1.6833494370000002,0.01,0.0,-0.3499999940395355,-0.3400000035762787,-0.019999999552965164,-0.00689697265625,-0.0050048828125,1.021240234375,34.06999969482422,0.0,0.0,-6.1225128173828125,3.6679840087890625,Opening,0.0,0.0,42.0,0.0,0.0,0.0,0.0,0.0,
2.4924860000000044,0.0,0.0,67198.0,0.0,0.0,0.0,0.0,0.125,0.822753822,0.01,0.0,-60317.0,0.0,0.0,-0.0,0.0,0.0,0.5554198650000001,0.01,0.0,85999.0,0.0,0.0,0.0,0.0,0.0,3.353271141,0.01,0.0,-66176.0,0.0,0.0,-0.0,0.0,0.25,1.6833494370000002,0.01,0.0,-0.3499999940395355,-0.3400000035762787,-0.019999999552965164,-0.00323486328125,-0.0074462890625,1.030517578125,34.06999969482422,0.0,2.0,-6.1225128173828125,3.6679840087890625,Opening,0.0,0.0,42.0,0.0,0.0,0.0,0.0,0.0,
2.5477520000000076,0.0,0.0,67198.0,0.0,0.0,0.0,0.0,0.125,0.821533119,0.01,0.0,-60317.0,0.0,0.0,-0.0,0.0,0.0,0.5554198650000001,0.01,0.0,85999.0,0.0,0.0,0.0,0.0,0.0,3.353271141,0.01,0.0,-66176.0,0.0,0.0,-0.0,0.0,0.25,1.6870115460000001,0.01,0.0,-0.3499999940395355,-0.3400000035762787,-0.019999999552965164,-0.00439453125,-0.00469970703125,1.02508544921875,34.08000183105469,0.0,1.0,-6.1225128173828125,3.6679840087890625,Opening,0.0,0.0,42.0,0.0,0.0,0.0,0.0,0.0,
2.6006830000000045,0.0,0.0,67198.0,0.0,0.0,0.0,0.0,0.125,0.821533119,0.01,-0.0012207029999999897,-60317.0,0.0,0.0,-0.0,0.0,0.0,0.5554198650000001,0.01,0.0,85999.0,0.0,0.0,0.0,0.0,0.0,3.354491844,0.01,0.0,-66176.0,0.125,0.0,-0.0,0.0,0.25,1.6833494370000002,0.01,0.0012207029999999897,-0.36000001430511475,-0.33000001311302185,-0.019999999552965164,-0.00506591796875,-0.00653076171875,1.02362060546875,34.08000183105469,0.0,0.0,-6.1225128173828125,3.6679840087890625,Opening,0.0,0.0,42.0,0.0,0.0,0.0,0.0,0.0,
2.6549499999999973,0.0,0.0,67198.0,0.0,0.0,0.0,0.0,0.125,0.821533119,0.01,0.0,-60317.0,0.0,0.0,-0.0,0.0,0.0,0.5554198650000001,0.01,0.0,85999.0,0.0,0.0,0.0,0.0,0.0,3.353271141,0.01,0.0,-66176.0,0.0,0.0,-0.0,0.0,0.25,1.6821287340000002,0.01,0.0,-0.3499999940395355,-0.3400000035762787,-0.019999999552965164,-0.00634765625,-0.00439453125,1.02044677734375,34.08000183105469,0.0,0.0,-6.1225128173828125,3.6679840087890625,Opening,0.0,0.0,42.0,0.0,0.0,0.0,0.0,0.0,
2.7104070000000067,0.0,0.0,67198.0,0.0,0.0,0.0,0.0,0.125,0.820312416,0.01,0.0,-60317.0,0.0,0.0,-0.0,0.0,0.0,0.557861271,0.01,0.0,85999.0,0.0,0.0,0.0,0.0,0.0,3.354491844,0.01,0.0,-66176.0,0.0,0.0,-0.0,0.0,0.25,1.6833494370000002,0.01,-0.0012207029999999897,-0.36000001430511475,-0.33000001311302185,-0.019999999552965164,-0.0042724609375,-0.00433349609375,1.01995849609375,34.08000183105469,0.0,1.0,-6.1225128173828125,3.6679840087890625,Opening,0.0,0.0,42.0,0.0,0.0,0.0,0.0,0.0,
2.766551999999996,0.0,0.0,67198.0,0.0,0.0,0.0,0.0,0.125,0.821533119,0.01,0.0,-60317.0,0.0,0.0,-0.0,0.0,0.0,0.5566405680000001,0.01,0.0,85999.0,0.0,0.0,0.0,0.0,0.0,3.353271141,0.01,0.0,-66176.0,0.0,0.0,-0.0,0.0,0.25,1.6833494370000002,0.01,0.0,-0.3499999940395355,-0.3400000035762787,-0.019999999552965164,-0.0089111328125,-0.00750732421875,1.0225830078125,34.08000183105469,0.0,-2.0,-6.1225128173828125,3.6679840087890625,Opening,0.0,0.0,42.0,0.0,0.0,0.0,0.0,0.0,
2.8181089999999966,0.0,0.0,67198.0,0.0,0.0,0.0,0.0,0.125,0.821533119,0.01,0.0,-60317.0,0.0,0.0,-0.0,0.0,0.0,0.5541991620000001,0.01,0.0,85999.0,0.0,0.0,0.0,0.0,0.0,3.354491844,0.01,0.0,-66176.0,0.0,0.0,-0.0,0.0,0.25,1.6833494370000002,0.01,0.0,-0.3499999940395355,-0.3400000035762787,-0.019999999552965164,-0.006103515625,-0.0079345703125,1.022705078125,34.08000183105469,0.0,0.0,-6.1225128173828125,3.6679840087890625,Opening,0.0,0.0,42.0,0.0,0.0,0.0,0.0,0.0,
2.8741140000000014,0.0,0.0,67198.0,0.0,0.0,0.0,0.0,0.125,0.821533119,0.01,0.0,-60317.0,0.0,0.0,-0.0,0.0,0.0,0.5554198650000001,0.01,0.0,85999.0,0.0,0.0,0.0,0.0,0.0,3.354491844,0.01,0.0,-66176.0,0.0,0.0,-0.0,0.0,0.25,1.6833494370000002,0.01,0.0,-0.3499999940395355,-0.3400000035762787,-0.019999999552965164,-0.0052490234375,-0.00726318359375,1.02191162109375,34.08000183105469,0.0,0.0,-6.1225128173828125,3.6679840087890625,Opening,0.0,0.0,42.0,0.0,0.0,0.0,0.0,0.0,
2.9303870000000023,0.0,0.0,67198.0,0.0,0.0,0.0,0.0,0.125,0.821533119,0.01,0.0,-60317.0,0.0,0.0,-0.0,0.0,0.0,0.5554198650000001,0.01,0.0,85999.0,0.0,0.0,0.0,0.0,0.0,3.353271141,0.01,0.0,-66176.0,0.125,0.0,-0.0,0.0,0.25,1.6833494370000002,0.01,0.0,-0.36000001430511475,-0.33000001311302185,-0.029999999329447746,-0.00714111328125,-0.008056640625,1.01983642578125,34.08000183105469,0.0,-1.0,-6.1225128173828125,3.6679840087890625,Opening,0.0,0.0,42.0,0.0,0.0,0.0,0.0,0.0,
2.9912149999999964,0.0,0.0,67198.0,0.0,0.0,0.0,0.0,0.125,0.821533119,0.01,0.0,-60317.0,0.0,0.0,-0.0,0.0,0.0,0.5554198650000001,0.01,0.0,85999.0,0.0,0.0,0.0,0.0,0.0,3.353271141,0.01,0.0,-66176.0,0.0,0.0,-0.0,0.0,0.25,1.6833494370000002,0.01,0.0,-0.3499999940395355,-0.3400000035762787,-0.029999999329447746,-0.00604248046875,-0.00482177734375,1.0205078125,34.08000183105469,0.0,0.0,-6.1225128173828125,3.6679840087890625,Opening,0.0,0.0,42.0,0.0,0.0,0.0,0.0,0.0,
3.0475599999999976,0.0,0.0,67198.0,0.0,0.0,0.0,0.0,0.125,0.821533119,0.01,0.0,-60317.0,0.0,0.0,-0.0,0.0,0.0,0.5554198650000001,0.01,0.0,85999.0,0.0,0.0,0.0,0.0,0.0,3.353271141,0.01,0.0,-66176.0,0.0,0.0,-0.0,0.0,0.25,1.6833494370000002,0.01,0.0,-0.3499999940395355,-0.3400000035762787,-0.019999999552965164,-0.007080078125,-0.0072021484375,1.01788330078125,34.060001373291016,0.0,0.0,-6.1225128173828125,3.6679840087890625,Opening,0.0,0.0,42.0,0.0,0.0,0.0,0.0,0.0,
3.099296000000002,0.0,0.0,67198.0,0.0,0.0,0.0,0.0,0.125,0.821533119,0.01,0.0,-60317.0,0.0,0.0,-0.0,0.0,0.0,0.5554198650000001,0.01,0.0,85999.0,0.0,0.0,0.0,0.0,0.0,3.354491844,0.01,0.0,-66176.0,0.0,0.0,-0.0,0.0,0.25,1.6833494370000002,0.01,0.0,-0.3499999940395355,-0.3400000035762787,-0.029999999329447746,-0.00537109375,-0.01007080078125,1.02032470703125,34.060001373291016,0.0,0.0,-6.1225128173828125,3.6679840087890625,Opening,0.0,0.0,42.0,0.0,0.0,0.0,0.0,0.0,
3.152494999999995,0.0,0.0,67198.0,0.0,0.0,0.0,0.0,0.125,0.820312416,0.01,0.0,-60317.0,0.0,0.0,-0.0,0.0,0.0,0.5554198650000001,0.01,0.0,85999.0,0.0,0.0,0.0,0.0,0.0,3.354491844,0.01,0.0,-66176.0,0.0,0.0,-0.0,0.0,0.25,1.6833494370000002,0.01,0.0,-0.36000001430511475,-0.33000001311302185,-0.029999999329447746,-0.0042724609375,-0.005615234375,1.0206298828125,34.060001373291016,0.0,1.0,-6.1225128173828125,3.6679840087890625,Opening,0.0,0.0,42.0,0.0,0.0,0.0,0.0,0.0,
3.2072649999999996,0.0,0.0,67198.0,0.0,0.0,0.0,0.0,0.125,0.821533119,0.01,0.0,-60317.0,0.0,0.0,-0.0,0.0,0.0,0.5541991620000001,0.01,0.0,85999.0,0.0,0.0,0.0,0.0,0.0,3.354491844,0.01,0.0,-66176.0,0.0,0.0,-0.0,0.0,0.25,1.6833494370000002,0.01,0.0,-0.36000001430511475,-0.33000001311302185,-0.029999999329447746,-0.00634765625,-0.0081787109375,1.016845703125,34.060001373291016,0.0,0.0,-6.1225128173828125,3.6679840087890625,Opening,0.0,0.0,42.0,0.0,0.0,0.0,0.0,0.0,
3.2623840000000053,0.0,0.0,67198.0,0.0,0.0,0.0,0.0,0.125,0.821533119,0.01,0.0,-60317.0,0.0,0.0,-0.0,0.0,0.0,0.5554198650000001,0.01,0.0,85999.0,0.0,0.0,0.0,0.0,0.0,3.354491844,0.01,0.0,-66176.0,0.0,0.0,-0.0,0.0,0.25,1.6833494370000002,0.01,0.0,-0.36000001430511475,-0.33000001311302185,-0.029999999329447746,-0.00469970703125,-0.0079345703125,1.0177001953125,34.060001373291016,0.0,1.0,-6.1225128173828125,3.6679840087890625,Opening,0.0,0.0,42.0,0.0,0.0,0.0,0.0,0.0,
3.3331330000000015,0.0,0.0,67198.0,0.0,0.0,0.0,0.0,0.125,0.821533119,0.01,0.0,-60317.0,0.0,0.0,-0.0,0.0,0.0,0.5554198650000001,0.01,0.0,85999.0,0.0,0.0,0.0,0.0,0.0,3.353271141,0.01,0.0,-66176.0,0.0,0.0,-0.0,0.0,0.25,1.6821287340000002,0.01,0.0,-0.3499999940395355,-0.3400000035762787,-0.029999999329447746,-0.00537109375,-0.00701904296875,1.01959228515625,34.060001373291016,0.0,0.0,-6.1225128173828125,3.6679840087890625,Opening,0.0,0.0,42.0,0.0,0.0,0.0,0.0,0.0,
3.4062140000000074,0.0,0.0,67198.0,0.0,0.0,0.0,0.0,0.125,0.821533119,0.01,0.0,-60317.0,0.0,0.0,-0.0,0.0,0.0,0.5554198650000001,0.01,0.0,85999.0,0.0,0.0,0.0,0.0,0.0,3.354491844,0.01,0.0,-66176.0,0.0,0.0,-0.0,0.0,0.25,1.6833494370000002,0.01,0.0,-0.3499999940395355,-0.3400000035762787,-0.029999999329447746,-0.00616455078125,-0.0086669921875,1.01611328125,34.060001373291016,0.0,0.0,-6.1225128173828125,3.6679840087890625,Opening,0.0,0.0,42.0,0.0,0.0,0.0,0.0,0.0,
3.4534860000000043,0.0,0.0,67198.0,0.0,0.0,0.0,0.0,0.125,0.821533119,0.01,0.0,-60317.0,0.0,0.0,-0.0,0.0,0.0,0.557861271,0.01,0.0,85999.0,0.0,0.0,0.0,0.0,0.0,3.354491844,0.01,0.0,-66176.0,0.0,0.0,-0.0,0.0,0.25,1.6833494370000002,0.01,0.0012207029999999897,-0.3499999940395355,-0.3400000035762787,-0.029999999329447746,-0.00762939453125,-0.00909423828125,1.02044677734375,34.060001373291016,0.0,-1.0,-6.1225128173828125,3.6679840087890625,Opening,0.0,0.0,42.0,0.0,0.0,0.0,0.0,0.0,
3.5071270000000077,0.0,0.0,67198.0,0.0,0.0,0.0,0.0,0.125,0.821533119,0.01,0.0,-60317.0,0.0,0.0,-0.0,0.0,0.0,0.5554198650000001,0.01,0.0,85999.0,0.0,0.0,0.0,0.0,0.0,3.354491844,0.01,0.0,-66176.0,0.125,0.0,-0.0,0.0,0.25,1.6833494370000002,0.01,-0.0012207029999999897,-0.3499999940395355,-0.3400000035762787,-0.03999999910593033,-0.0064697265625,-0.0069580078125,1.01611328125,34.060001373291016,0.0,0.0,-6.1225128173828125,3.6679840087890625,Opening,0.0,0.0,42.0,0.0,0.0,0.0,0.0,0.0,
3.555649999999994,0.0,0.0,67198.0,0.0,0.0,0.0,0.0,0.125,0.821533119,0.01,0.0,-60317.0,0.0,0.0,-0.0,0.0,0.0,0.5541991620000001,0.01,0.0,85999.0,0.0,0.0,0.0,0.0,0.0,3.354491844,0.01,0.0,-66176.0,0.0,0.0,-0.0,0.0,0.25,1.6833494370000002,0.01,0.0,-0.3499999940395355,-0.3400000035762787,-0.029999999329447746,-0.00390625,-0.00604248046875,1.0174560546875,34.08000183105469,0.0,2.0,-6.1225128173828125,3.6679840087890625,Opening,0.0,0.0,42.0,0.0,0.0,0.0,0.0,0.0,
3.609195000000007,0.0,0.0,67198.0,0.0,0.0,0.0,0.0,0.125,0.821533119,0.01,0.0,-60317.0,0.0,0.0,-0.0,0.0,0.0,0.5554198650000001,0.01,0.0,85999.0,0.0,0.0,0.0,0.0,0.0,3.353271141,0.01,-0.0012207030000004337,-66176.0,0.0,0.0,-0.0,0.0,0.25,1.6833494370000002,0.01,0.0,-0.3499999940395355,-0.3400000035762787,-0.03999999910593033,-0.00555419921875,-0.0032958984375,1.02056884765625,34.08000183105469,0.0,0.0,-6.1225128173828125,3.6679840087890625,Opening,0.0,0.0,42.0,0.0,0.0,0.0,0.0,0.0,
3.658925000000003,0.0,0.0,67198.0,0.0,0.0,0.0,0.0,0.125,0.821533119,0.01,0.0,-60317.0,0.0,0.0,-0.0,0.0,0.0,0.5541991620000001,0.01,0.0,85999.0,0.0,0.0,0.0,0.0,0.0,3.353271141,0.01,0.0012207030000004337,-66176.0,0.0,0.0,-0.0,0.0,0.25,1.6833494370000002,0.01,0.0,-0.3499999940395355,-0.3400000035762787,-0.03999999910593033,-0.007080078125,-0.0030517578125,1.02215576171875,34.08000183105469,0.0,0.0,-6.1225128173828125,3.6679840087890625,Opening,0.0,0.0,42.0,0.0,0.0,0.0,0.0,0.0,
3.722873999999996,0.0,0.0,67198.0,0.0,0.0,0.0,0.0,0.125,0.821533119,0.01,0.0,-60317.0,0.0,0.0,-0.0,0.0,0.0,0.5554198650000001,0.01,0.0,85999.0,0.0,0.0,0.0,0.0,0.0,3.353271141,0.01,0.0,-66176.0,0.125,0.0,-0.0,0.0,0.25,1.6833494370000002,0.01,0.0,-0.3499999940395355,-0.3400000035762787,-0.029999999329447746,-0.0069580078125,-0.0064697265625,1.01861572265625,34.08000183105469,0.0,0.0,-6.1225128173828125,3.6679840087890625,Opening,0.0,0.0,42.0,0.0,0.0,0.0,0.0,0.0,
3.773252000000008,0.0,0.0,67198.0,0.0,0.0,0.0,0.0,0.125,0.822753822,0.01,0.0,-60317.0,0.0,0.0,-0.0,0.0,0.0,0.5554198650000001,0.01,0.0,85999.0,0.0,0.0,0.0,0.0,0.0,3.353271141,0.01,0.0,-66176.0,0.0,0.0,-0.0,0.0,0.25,1.6821287340000002,0.01,0.0,-0.3499999940395355,-0.3400000035762787,-0.029999999329447746,-0.0078125,-0.004150390625,1.01708984375,34.08000183105469,0.0,-1.0,-6.1225128173828125,3.6679840087890625,Opening,0.0,0.0,42.0,0.0,0.0,0.0,0.0,0.0,
3.8271699999999984,0.0,0.0,67198.0,0.0,0.0,0.0,0.0,0.125,0.820312416,0.01,0.0,-60317.0,0.0,0.0,-0.0,0.0,0.0,0.5541991620000001,0.01,0.0,85999.0,0.0,0.0,0.0,0.0,0.0,3.353271141,0.01,0.0,-66176.0,0.0,0.0,-0.0,0.0,0.25,1.6821287340000002,0.01,0.0,-0.3499999940395355,-0.3400000035762787,-0.03999999910593033,-0.00799560546875,-0.005615234375,1.02264404296875,34.08000183105469,0.0,-1.0,-6.1225128173828125,3.6679840087890625,Opening,0.0,0.0,42.0,0.0,0.0,0.0,0.0,0.0,
3.8761040000000064,0.0,0.0,67198.0,0.0,0.0,0.0,0.0,0.125,0.821533119,0.01,0.0,-60317.0,0.0,0.0,-0.0,0.0,0.0,0.5541991620000001,0.01,0.0,85999.0,0.0,0.0,0.0,0.0,0.0,3.353271141,0.01,0.0,-66176.0,0.0,0.0,-0.0,0.0,0.25,1.679687328,0.01,0.0,-0.3499999940395355,-0.3400000035762787,-0.03999999910593033,-0.0050048828125,-0.0069580078125,1.02215576171875,34.08000183105469,0.0,1.0,-6.1225128173828125,3.6679840087890625,Opening,0.0,0.0,42.0,0.0,0.0,0.0,0.0,0.0,
3.9284159999999972,0.0,0.0,67198.0,0.0,0.0,0.0,0.0,0.125,0.821533119,0.01,0.0,-60317.0,0.0,0.0,-0.0,0.0,0.0,0.5541991620000001,0.01,0.0,85999.0,0.0,0.0,0.0,0.0,0.0,3.354491844,0.01,0.0,-66176.0,0.0,0.0,-0.0,0.0,0.25,1.6845701400000002,0.01,0.0,-0.3499999940395355,-0.3400000035762787,-0.03999999910593033,-0.00579833984375,-0.00531005859375,1.01690673828125,34.08000183105469,0.0,0.0,-6.1225128173828125,3.6679840087890625,Opening,0.0,0.0,42.0,0.0,0.0,0.0,0.0,0.0,
3.975153999999995,0.0,0.0,67198.0,0.0,0.0,0.0,0.0,0.125,0.821533119,0.01,0.0,-60317.0,0.0,0.0,-0.0,0.0,0.0,0.5541991620000001,0.01,0.0,85999.0,0.0,0.0,0.0,0.0,0.0,3.354491844,0.01,0.0,-66176.0,0.0,0.0,-0.0,0.0,0.25,1.6833494370000002,0.01,0.0,-0.3499999940395355,-0.3400000035762787,-0.03999999910593033,-0.00555419921875,-0.00592041015625,1.01715087890625,34.08000183105469,0.0,0.0,-6.1225128173828125,3.6679840087890625,Opening,0.0,0.0,42.0,0.0,0.0,0.0,0.0,0.0,
4.027881000000009,0.0,0.0,67198.0,0.0,0.0,0.0,0.0,0.125,0.821533119,0.01,0.0,-60317.0,0.0,0.0,-0.0,0.0,0.0,0.5541991620000001,0.01,0.0,85999.0,0.0,0.0,0.0,0.0,0.0,3.353271141,0.01,0.0,-66176.0,0.0,0.0,-0.0,0.0,0.25,1.6833494370000002,0.01,0.0,-0.36000001430511475,-0.3499999940395355,-0.03999999910593033,-0.0050048828125,-0.005859375,1.0216064453125,34.08000183105469,0.0,1.0,-6.1225128173828125,3.6679840087890625,Opening,0.0,0.0,42.0,0.0,0.0,0.0,0.0,0.0,
4.0757170000000045,0.0,0.0,67198.0,0.0,0.0,0.0,0.0,0.125,0.820312416,0.01,0.0,-60317.0,0.0,0.0,-0.0,0.0,0.0,0.5554198650000001,0.01,0.0,85999.0,0.0,0.0,0.0,0.0,0.0,3.354491844,0.01,0.0,-66176.0,0.0,0.0,-0.0,0.0,0.25,1.6821287340000002,0.01,0.0012207029999999897,-0.3499999940395355,-0.3400000035762787,-0.03999999910593033,-0.0050048828125,-0.00567626953125,1.02032470703125,34.08000183105469,0.0,1.0,-6.1225128173828125,3.6679840087890625,Opening,0.0,0.0,42.0,0.0,0.0,0.0,0.0,0.0,
4.1293050000000076,0.0,0.0,67198.0,0.0,0.0,0.0,0.0,0.125,0.821533119,0.01,0.0,-60317.0,0.0,0.0,-0.0,0.0,0.0,0.5554198650000001,0.01,0.0,85999.0,0.0,0.0,0.0,0.0,0.0,3.353271141,0.01,0.0,-66176.0,0.0,0.0,-0.0,0.0,0.25,1.6833494370000002,0.01,-0.0012207029999999897,-0.3499999940395355,-0.3400000035762787,-0.03999999910593033,-0.0069580078125,-0.0062255859375,1.02197265625,34.08000183105469,0.0,0.0,-6.1225128173828125,3.6679840087890625,Opening,0.0,0.0,42.0,0.0,0.0,0.0,0.0,0.0,
4.178570999999996,0.0,0.0,67198.0,0.0,0.0,0.0,0.0,0.125,0.820312416,0.01,0.0,-60317.0,0.0,0.0,-0.0,0.0,0.0,0.5541991620000001,0.01,0.0,85999.0,0.0,0.0,0.0,0.0,0.0,3.354491844,0.01,0.0,-66176.0,0.0,0.0,-0.0,0.0,0.25,1.6833494370000002,0.01,0.0,-0.3499999940395355,-0.3499999940395355,-0.03999999910593033,-0.008056640625,-0.00567626953125,1.02459716796875,34.08000183105469,0.0,-1.0,-6.1225128173828125,3.6679840087890625,Opening,0.0,0.0,42.0,0.0,0.0,0.0,0.0,0.0,
4.231525999999998,0.0,0.0,67198.0,0.0,0.0,0.0,0.0,0.125,0.820312416,0.01,0.0,-60317.0,0.0,0.0,-0.0,0.0,0.0,0.5541991620000001,0.01,0.0,85999.0,0.0,0.0,0.0,0.0,0.0,3.347167626,0.01,0.0,-66176.0,0.0,0.0,-0.0,0.0,0.25,1.6821287340000002,0.01,0.0,-0.3499999940395355,-0.3499999940395355,-0.05000000074505806,-0.0086669921875,-0.00762939453125,1.0162353515625,34.08000183105469,0.0,-2.0,-6.1225128173828125,3.6679840087890625,Opening,0.0,0.0,42.0,0.0,0.0,0.0,0.0,0.0,
4.280898000000001,0.0,0.0,67198.0,0.0,0.0,0.0,0.0,0.125,0.821533119,0.01,0.0,-60317.0,0.0,0.0,-0.0,0.0,0.0,0.551757756,0.01,0.0,85999.0,0.0,0.0,0.0,0.0,0.0,3.353271141,0.01,0.0,-66176.0,0.0,0.0,-0.0,0.0,0.25,1.6833494370000002,0.01,0.0,-0.3499999940395355,-0.3499999940395355,-0.03999999910593033,-0.00543212890625,-0.0098876953125,1.019775390625,34.08000183105469,0.0,0.0,-6.1225128173828125,3.6679840087890625,Opening,0.0,0.0,42.0,0.0,0.0,0.0,0.0,0.0,
4.333629000000001,0.0,0.0,67198.0,0.0,0.0,0.0,0.0,0.125,0.821533119,0.01,0.0,-60317.0,0.0,0.0,-0.0,0.0,0.0,0.5554198650000001,0.01,0.0,85999.0,0.0,0.0,0.0,0.0,0.0,3.354491844,0.01,0.0,-66176.0,0.0,0.0,-0.0,0.0,0.25,1.6833494370000002,0.01,0.0,-0.3499999940395355,-0.3499999940395355,-0.03999999910593033,-0.0064697265625,-0.0069580078125,1.019287109375,34.08000183105469,0.0,0.0,-6.1225128173828125,3.6679840087890625,Opening,0.0,0.0,42.0,0.0,0.0,0.0,0.0,0.0,
4.390471999999995,0.0,0.0,67198.0,0.0,0.0,0.0,0.0,0.125,0.820312416,0.01,0.0,-60317.0,0.0,0.0,-0.0,0.0,0.0,0.5554198650000001,0.01,0.0,85999.0,0.0,0.0,0.0,0.0,0.0,3.354491844,0.01,0.0,-66176.0,0.0,0.0,-0.0,0.0,0.25,1.6833494370000002,0.01,0.0,-0.3499999940395355,-0.3499999940395355,-0.05000000074505806,-0.00494384765625,-0.00567626953125,1.02020263671875,34.08000183105469,0.0,1.0,-6.1225128173828125,3.6679840087890625,Opening,0.0,0.0,42.0,0.0,0.0,0.0,0.0,0.0,
4.440747000000003,0.0,0.0,67198.0,0.0,0.0,0.0,0.0,0.125,0.821533119,0.01,0.0,-60317.0,0.0,0.0,-0.0,0.0,0.0,0.5541991620000001,0.01,0.0,85999.0,0.0,0.0,0.0,0.0,0.0,3.354491844,0.01,0.0,-66176.0,0.0,0.0,-0.0,0.0,0.25,1.6833494370000002,0.01,0.0,-0.3499999940395355,-0.3499999940395355,-0.05000000074505806,-0.00714111328125,-0.0064697265625,1.01751708984375,34.08000183105469,0.0,0.0,-6.1225128173828125,3.6679840087890625,Opening,0.0,0.0,42.0,0.0,0.0,0.0,0.0,0.0,
4.491668999999995,0.0,0.0,67198.0,0.0,0.0,0.0,0.0,0.125,0.821533119,0.01,0.0,-60317.0,0.0,0.0,-0.0,0.0,0.0,0.5554198650000001,0.01,0.0,85999.0,0.0,0.0,0.0,0.0,0.0,3.353271141,0.01,0.0,-66176.0,0.0,0.0,-0.0,0.0,0.25,1.6821287340000002,0.01,0.0,-0.3499999940395355,-0.3400000035762787,-0.05000000074505806,-0.006591796875,-0.00958251953125,1.017578125,34.08000183105469,0.0,0.0,-6.1225128173828125,3.6679840087890625,Opening,0.0,0.0,42.0,0.0,0.0,0.0,0.0,0.0,
4.542391000000003,0.0,0.0,67198.0,0.0,0.0,0.0,0.0,0.125,0.821533119,0.01,0.0,-60317.0,0.0,0.0,-0.0,0.0,0.0,0.552978459,0.01,0.0,85999.0,0.0,0.0,0.0,0.0,0.0,3.354491844,0.01,0.0,-66176.0,0.0,0.0,-0.0,0.0,0.25,1.6821287340000002,0.01,0.0,-0.36000001430511475,-0.3499999940395355,-0.05000000074505806,-0.00701904296875,-0.0101318359375,1.02099609375,34.08000183105469,0.0,0.0,-6.1225128173828125,3.6679840087890625,Opening,0.0,0.0,42.0,0.0,0.0,0.0,0.0,0.0,
4.592786000000007,0.0,0.0,67198.0,0.0,0.0,0.0,0.0,0.125,0.821533119,0.01,0.0,-60317.0,0.0,0.0,-0.0,0.0,0.0,0.5541991620000001,0.01,0.0,85999.0,0.0,0.0,0.0,0.0,0.0,3.353271141,0.01,0.0,-66176.0,0.0,0.0,-0.0,0.0,0.25,1.6833494370000002,0.01,0.0,-0.36000001430511475,-0.3499999940395355,-0.05000000074505806,-0.0074462890625,-0.0091552734375,1.015625,34.09000015258789,0.0,-1.0,-6.1225128173828125,3.6679840087890625,Opening,0.0,0.0,42.0,0.0,0.0,0.0,0.0,0.0,
4.649221999999995,0.0,0.0,67198.0,0.0,0.0,0.0,0.0,0.125,0.821533119,0.01,0.0,-60317.0,0.0,0.0,-0.0,0.0,0.0,0.5554198650000001,0.01,0.0,85999.0,0.0,0.0,0.0,0.0,0.0,3.353271141,0.01,0.0,-66176.0,0.0,0.0,-0.0,0.0,0.25,1.6833494370000002,0.01,0.0,-0.36000001430511475,-0.3499999940395355,-0.05000000074505806,-0.0078125,-0.0078125,1.01885986328125,34.09000015258789,0.0,-1.0,-6.1225128173828125,3.6679840087890625,Opening,0.0,0.0,42.0,0.0,0.0,0.0,0.0,0.0,
4.6963300000000014,0.0,0.0,67198.0,0.0,0.0,0.0,0.0,0.125,0.821533119,0.01,0.0,-60317.0,0.0,0.0,-0.0,0.0,0.0,0.5554198650000001,0.01,0.0,85999.0,0.0,0.0,0.0,0.0,0.0,3.353271141,0.01,0.0,-66176.0,0.0,0.0,-0.0,0.0,0.25,1.6821287340000002,0.01,0.0,-0.36000001430511475,-0.3499999940395355,-0.05000000074505806,-0.00726318359375,-0.00433349609375,1.0264892578125,34.09000015258789,0.0,0.0,-6.1225128173828125,3.6679840087890625,Opening,0.0,0.0,42.0,0.0,0.0,0.0,0.0,0.0,
4.750145000000004,0.0,0.0,67198.0,0.0,0.0,0.0,0.0,0.125,0.821533119,0.01,0.0,-60317.0,0.0,0.0,-0.0,0.0,0.0,0.5541991620000001,0.01,0.0,85999.0,0.0,0.0,0.0,0.0,0.0,3.358153953,0.01,0.0,-66176.0,0.0,0.0,-0.0,0.0,0.25,1.6833494370000002,0.01,0.0,-0.36000001430511475,-0.3499999940395355,-0.05000000074505806,-0.00732421875,-0.00531005859375,1.01617431640625,34.09000015258789,0.0,-1.0,-6.1225128173828125,3.6679840087890625,Opening,0.0,0.0,42.0,0.0,0.0,0.0,0.0,0.0,
4.7999550000000015,0.0,0.0,67198.0,0.0,0.0,0.0,0.0,0.125,0.821533119,0.01,0.0,-60317.0,0.0,0.0,-0.0,0.0,0.0,0.5554198650000001,0.01,0.0,85999.0,0.0,0.0,0.0,0.0,0.0,3.354491844,0.01,0.0,-66176.0,0.125,0.0,-0.0,0.0,0.25,1.6833494370000002,0.01,0.0,-0.3499999940395355,-0.3499999940395355,-0.05000000074505806,-0.007080078125,-0.00396728515625,1.01654052734375,34.09000015258789,0.0,0.0,-6.1225128173828125,3.6679840087890625,Opening,0.0,0.0,42.0,0.0,0.0,0.0,0.0,0.0,
4.856432000000001,0.0,0.0,67198.0,0.0,0.0,0.0,0.0,0.125,0.819091713,0.01,0.0,-60317.0,0.0,0.0,-0.0,0.0,0.0,0.5554198650000001,0.01,0.0,85999.0,0.0,0.0,0.0,0.0,0.0,3.353271141,0.01,0.0,-66176.0,0.0,0.0,-0.0,0.0,0.25,1.6833494370000002,0.01,0.0012207029999999897,-0.36000001430511475,-0.3499999940395355,-0.05000000074505806,-0.00714111328125,-0.00714111328125,1.01806640625,34.09000015258789,0.0,0.0,-6.1225128173828125,3.6679840087890625,Opening,0.0,0.0,42.0,0.0,0.0,0.0,0.0,0.0,
4.911581999999995,0.0,0.0,67198.0,0.0,0.0,0.0,0.0,0.125,0.821533119,0.01,0.0,-60317.0,0.0,0.0,-0.0,0.0,0.0,0.5541991620000001,0.01,0.0,85999.0,0.0,0.0,0.0,0.0,0.0,3.354491844,0.01,0.0,-66176.0,0.0,0.0,-0.0,0.0,0.25,1.6833494370000002,0.01,-0.0012207029999999897,-0.36000001430511475,-0.3499999940395355,-0.05000000074505806,-0.0059814453125,-0.0068359375,1.02044677734375,34.09000015258789,0.0,0.0,-6.1225128173828125,3.6679840087890625,Opening,0.0,0.0,42.0,0.0,0.0,0.0,0.0,0.0,
4.962637000000003,0.0,0.0,67198.0,0.0,0.0,0.0,0.0,0.125,0.821533119,0.01,0.0,-60317.0,0.0,0.0,-0.0,0.0,0.0,0.5541991620000001,0.01,0.0,85999.0,0.0,0.0,0.0,0.0,0.0,3.354491844,0.01,0.0,-66176.0,0.0,0.0,-0.0,0.0,0.25,1.6833494370000002,0.01,0.0,-0.36000001430511475,-0.3499999940395355,-0.05000000074505806,-0.0025634765625,-0.0084228515625,1.0177001953125,34.09000015258789,0.0,3.0,-6.1225128173828125,3.6679840087890625,Opening,0.0,0.0,42.0,0.0,0.0,0.0,0.0,0.0,
5.013668999999995,0.0,0.0,67198.0,0.0,0.0,0.0,0.0,0.125,0.820312416,0.01,0.0,-60317.0,0.0,0.0,-0.0,0.0,0.0,0.5554198650000001,0.01,0.0,85999.0,0.0,0.0,0.0,0.0,0.0,3.353271141,0.01,0.0,-66176.0,0.0,0.0,-0.0,0.0,0.25,1.6833494370000002,0.01,0.0,-0.36000001430511475,-0.3499999940395355,-0.05000000074505806,-0.0074462890625,-0.0069580078125,1.01995849609375,34.09000015258789,0.0,-1.0,-6.1225128173828125,3.6679840087890625,Opening,0.0,0.0,42.0,0.0,0.0,0.0,0.0,0.0,
5.066883000000002,0.0,0.0,67198.0,0.0,0.0,0.0,0.0,0.125,0.821533119,0.01,0.0,-60317.0,0.0,0.0,-0.0,0.0,0.0,0.5554198650000001,0.01,0.0,85999.0,0.0,0.0,0.0,0.0,0.0,3.354491844,0.01,0.0,-66176.0,0.0,0.0,-0.0,0.0,0.25,1.6821287340000002,0.01,0.0,-0.36000001430511475,-0.3499999940395355,-0.05000000074505806,-0.0048828125,-0.007080078125,1.02020263671875,34.08000183105469,0.0,1.0,-6.1225128173828125,3.6679840087890625,Opening,0.0,0.0,42.0,0.0,0.0,0.0,0.0,0.0,
5.114426999999996,0.0,0.0,67198.0,0.0,0.0,0.0,0.0,0.125,0.821533119,0.01,0.0,-60317.0,0.0,0.0,-0.0,0.0,0.0,0.5541991620000001,0.01,0.0,85999.0,0.0,0.0,0.0,0.0,0.0,3.353271141,0.01,0.0,-66176.0,0.0,0.0,-0.0,0.0,0.25,1.6833494370000002,0.01,0.0,-0.36000001430511475,-0.3499999940395355,-0.05000000074505806,-0.007080078125,-0.0078125,1.023193359375,34.08000183105469,0.0,0.0,-6.1225128173828125,3.6679840087890625,Opening,0.0,0.0,42.0,0.0,0.0,0.0,0.0,0.0,
5.167718999999997,0.0,0.0,67198.0,0.0,0.0,0.0,0.0,0.125,0.820312416,0.01,0.0,-60317.0,0.0,0.0,-0.0,0.0,0.0,0.5541991620000001,0.01,0.0,85999.0,0.0,0.0,0.0,0.0,0.0,3.354491844,0.01,0.0,-66176.0,0.0,0.0,-0.0,0.0,0.25,1.6833494370000002,0.01,0.0,-0.36000001430511475,-0.3499999940395355,-0.05999999865889549,-0.00811767578125,-0.0062255859375,1.015625,34.08000183105469,0.0,-1.0,-6.1225128173828125,3.6679840087890625,Opening,0.0,0.0,42.0,0.0,0.0,0.0,0.0,0.0,
5.214918000000005,0.0,0.0,67198.0,0.0,0.0,0.0,0.0,0.125,0.821533119,0.01,0.0,-60317.0,0.0,0.0,-0.0,0.0,0.0,0.5541991620000001,0.01,0.0,85999.0,0.0,0.0,0.0,0.0,0.0,3.354491844,0.01,0.0,-66176.0,0.125,0.0,-0.0,0.0,0.25,1.6833494370000002,0.01,0.0,-0.36000001430511475,-0.3499999940395355,-0.05999999865889549,-0.005126953125,-0.0069580078125,1.02130126953125,34.08000183105469,0.0,1.0,-6.1225128173828125,3.6679840087890625,Opening,0.0,0.0,42.0,0.0,0.0,0.0,0.0,0.0,
5.269487999999997,0.0,0.0,67198.0,0.0,0.0,0.0,0.0,0.125,0.821533119,0.01,0.0,-60317.0,0.0,0.0,-0.0,0.0,0.0,0.5541991620000001,0.01,0.0,85999.0,0.0,0.0,0.0,0.0,0.0,3.353271141,0.01,0.0,-66176.0,0.0,0.0,-0.0,0.0,0.25,1.6833494370000002,0.01,0.0,-0.36000001430511475,-0.3499999940395355,-0.05000000074505806,-0.00665283203125,-0.006103515625,1.01849365234375,34.08000183105469,0.0,0.0,-6.1225128173828125,3.6679840087890625,Opening,0.0,0.0,42.0,0.0,0.0,0.0,0.0,0.0,
5.320514999999999,0.0,0.0,67198.0,0.0,0.0,0.0,0.0,0.125,0.821533119,0.01,0.0,-60317.0,0.0,0.0,-0.0,0.0,0.0,0.5554198650000001,0.01,0.0,85999.0,0.0,0.0,0.0,0.0,0.0,3.353271141,0.01,0.0,-66176.0,0.0,0.0,-0.0,0.0,0.25,1.6833494370000002,0.01,0.0,-0.36000001430511475,-0.3499999940395355,-0.05000000074505806,-0.00628662109375,-0.00457763671875,1.02496337890625,34.08000183105469,0.0,0.0,-6.1225128173828125,3.6679840087890625,Opening,0.0,0.0,42.0,0.0,0.0,0.0,0.0,0.0,
5.374093000000008,0.0,0.0,67198.0,0.0,0.0,0.0,0.0,0.125,0.819091713,0.01,0.0,-60317.0,0.0,0.0,-0.0,0.0,0.0,0.5541991620000001,0.01,0.0,85999.0,0.0,0.0,0.0,0.0,0.0,3.353271141,0.01,0.0,-66176.0,0.0,0.0,-0.0,0.0,0.25,1.6833494370000002,0.01,0.0,-0.36000001430511475,-0.3499999940395355,-0.05000000074505806,-0.0078125,-0.00634765625,1.020263671875,34.08000183105469,0.0,-1.0,-6.1225128173828125,3.6679840087890625,Opening,0.0,0.0,42.0,0.0,0.0,0.0,0.0,0.0,
5.4280120000000025,0.0,0.0,67198.0,0.0,0.0,0.0,0.0,0.125,0.821533119,0.01,0.0,-60317.0,0.0,0.0,-0.0,0.0,0.0,0.5554198650000001,0.01,0.0,85999.0,0.0,0.0,0.0,0.0,0.0,3.353271141,0.01,0.0,-66176.0,0.125,0.0,-0.0,0.0,0.25,1.6833494370000002,0.01,0.0,-0.36000001430511475,-0.3499999940395355,-0.05999999865889549,-0.0052490234375,-0.00640869140625,1.0211181640625,34.08000183105469,0.0,1.0,-6.1225128173828125,3.6679840087890625,Opening,0.0,0.0,42.0,0.0,0.0,0.0,0.0,0.0,
5.476144000000001,0.0,0.0,67198.0,0.0,0.0,0.0,0.0,0.125,0.821533119,0.01,0.0,-60317.0,0.0,0.0,-0.0,0.0,0.0,0.5541991620000001,0.01,0.0,85999.0,0.0,0.0,0.0,0.0,0.0,3.353271141,0.01,0.0,-66176.0,0.0,0.0,-0.0,0.0,0.25,1.6833494370000002,0.01,0.0,-0.36000001430511475,-0.3499999940395355,-0.05999999865889549,-0.00701904296875,-0.00567626953125,1.02301025390625,34.08000183105469,0.0,0.0,-6.1225128173828125,3.6679840087890625,Opening,0.0,0.0,42.0,0.0,0.0,0.0,0.0,0.0,
5.5281619999999965,0.0,0.0,67198.0,0.0,0.0,0.0,0.0,0.125,0.821533119,0.01,0.0,-60317.0,0.0,0.0,-0.0,0.0,0.0,0.5554198650000001,0.01,0.0,85999.0,0.0,0.0,0.0,0.0,0.0,3.354491844,0.01,0.0,-66176.0,0.0,0.0,-0.0,0.0,0.25,1.6833494370000002,0.01,0.0,-0.36000001430511475,-0.3499999940395355,-0.05999999865889549,-0.00616455078125,-0.00433349609375,1.0184326171875,34.08000183105469,0.0,0.0,-6.1225128173828125,3.6679840087890625,Opening,0.0,0.0,42.0,0.0,0.0,0.0,0.0,0.0,
5.5751910000000064,0.0,0.0,67198.0,0.0,0.0,0.0,0.0,0.125,0.821533119,0.01,0.0,-60317.0,0.0,0.0,-0.0,0.0,0.0,0.5554198650000001,0.01,0.0,85999.0,0.0,0.0,0.0,0.0,0.0,3.354491844,0.01,0.0,-66176.0,0.0,0.0,-0.0,0.0,0.25,1.6833494370000002,0.01,0.0012207029999999897,-0.3499999940395355,-0.3499999940395355,-0.05999999865889549,-0.0050048828125,-0.005126953125,1.02264404296875,34.06999969482422,0.0,1.0,-6.1225128173828125,3.6679840087890625,Opening,0.0,0.0,42.0,0.0,0.0,0.0,0.0,0.0,
5.628190000000003,0.0,0.0,67198.0,0.0,0.0,0.0,0.0,0.125,0.8178710100000001,0.01,0.0012207029999999897,-60317.0,0.0,0.0,-0.0,0.0,0.0,0.5554198650000001,0.01,0.0,85999.0,0.0,0.0,0.0,0.0,0.0,3.354491844,0.01,0.0,-66176.0,0.0,0.0,-0.0,0.0,0.25,1.6821287340000002,0.01,-0.0012207029999999897,-0.3499999940395355,-0.3499999940395355,-0.05999999865889549,-0.0068359375,-0.00848388671875,1.0181884765625,34.06999969482422,0.0,0.0,-6.1225128173828125,3.6679840087890625,Opening,0.0,0.0,42.0,0.0,0.0,0.0,0.0,0.0,
5.676087,0.0,0.0,67198.0,0.0,0.0,0.0,0.0,0.125,0.822753822,0.01,-0.0012207029999999897,-60317.0,0.0,0.0,-0.0,0.0,0.0,0.5554198650000001,0.01,0.0,85999.0,0.0,0.0,0.0,0.0,0.0,3.354491844,0.01,0.0,-66176.0,0.125,0.0,-0.0,0.0,0.25,1.678466625,0.01,0.0012207029999999897,-0.36000001430511475,-0.3499999940395355,-0.05000000074505806,-0.00579833984375,-0.00543212890625,1.01910400390625,34.06999969482422,0.0,0.0,-6.1225128173828125,3.6679840087890625,Opening,0.0,0.0,42.0,0.0,0.0,0.0,0.0,0.0,
5.729451000000001,0.0,0.0,67198.0,0.0,0.0,0.0,0.0,0.125,0.821533119,0.01,0.0012207029999999897,-60317.0,0.0,0.0,-0.0,0.0,0.0,0.5554198650000001,0.01,0.0,85999.0,0.0,0.0,0.0,0.0,0.0,3.354491844,0.01,0.0,-66176.0,0.125,0.0,-0.0,0.0,0.25,1.6833494370000002,0.01,0.0,-0.36000001430511475,-0.3499999940395355,-0.05000000074505806,-0.0074462890625,-0.00567626953125,1.0181884765625,34.06999969482422,0.0,-1.0,-6.1225128173828125,3.6679840087890625,Opening,0.0,0.0,42.0,0.0,0.0,0.0,0.0,0.0,
5.780190000000002,0.0,0.0,67198.0,0.0,0.0,0.0,0.0,0.125,0.821533119,0.01,-0.0012207029999999897,-60317.0,0.0,0.0,-0.0,0.0,0.0,0.5554198650000001,0.01,0.0,85999.0,0.0,0.0,0.0,0.0,0.0,3.353271141,0.01,0.0,-66176.0,0.125,0.0,-0.0,0.0,0.25,1.6833494370000002,0.01,0.0,-0.36000001430511475,-0.3499999940395355,-0.05000000074505806,-0.00543212890625,-0.00634765625,1.0218505859375,34.06999969482422,0.0,0.0,-6.1225128173828125,3.6679840087890625,Opening,0.0,0.0,42.0,0.0,0.0,0.0,0.0,0.0,
5.830770000000004,0.0,0.0,67198.0,0.0,0.0,0.0,0.0,0.125,0.821533119,0.01,0.0,-60317.0,0.0,0.0,-0.0,0.0,0.0,0.5541991620000001,0.01,0.0,85999.0,0.0,0.0,0.0,0.0,0.0,3.353271141,0.01,0.0,-66176.0,0.125,0.0,-0.0,0.0,0.25,1.6833494370000002,0.01,-0.0012207029999999897,-0.36000001430511475,-0.3499999940395355,-0.05000000074505806,-0.00823974609375,-0.005126953125,1.017578125,34.06999969482422,0.0,-1.0,-6.1225128173828125,3.6679840087890625,Opening,0.0,0.0,42.0,0.0,0.0,0.0,0.0,0.0,
5.884790999999997,0.0,0.0,67198.0,0.0,0.0,0.0,0.0,0.125,0.821533119,0.01,0.0,-60317.0,0.0,0.0,-0.0,0.0,0.0,0.5541991620000001,0.01,0.0,85999.0,0.0,0.0,0.0,0.0,0.0,3.354491844,0.01,0.0,-66176.0,0.0,0.0,-0.0,0.0,0.25,1.6821287340000002,0.01,0.0,-0.36000001430511475,-0.3499999940395355,-0.05000000074505806,-0.00592041015625,-0.00579833984375,1.01739501953125,34.06999969482422,0.0,0.0,-6.1225128173828125,3.6679840087890625,Opening,0.0,0.0,42.0,0.0,0.0,0.0,0.0,0.0,
5.933224000000002,0.0,0.0,67198.0,0.0,0.0,0.0,0.0,0.125,0.821533119,0.01,0.0,-60317.0,0.0,0.0,-0.0,0.0,0.0,0.551757756,0.01,0.0,85999.0,0.0,0.0,0.0,0.0,0.0,3.353271141,0.01,0.0,-66176.0,0.125,0.0,-0.0,0.0,0.25,1.6833494370000002,0.01,0.0012207029999999897,-0.36000001430511475,-0.3499999940395355,-0.05000000074505806,-0.0064697265625,-0.0035400390625,1.019775390625,34.06999969482422,0.0,0.0,-6.1225128173828125,3.6679840087890625,Opening,0.0,0.0,42.0,0.0,0.0,0.0,0.0,0.0,
5.992047000000006,0.0,0.0,67198.0,0.0,0.0,0.0,0.0,0.125,0.819091713,0.01,0.0,-60317.0,0.0,0.0,-0.0,0.0,0.0,0.5554198650000001,0.01,0.0,85999.0,0.0,0.0,0.0,0.0,0.0,3.354491844,0.01,0.0,-66176.0,0.0,0.0,-0.0,0.0,0.25,1.6833494370000002,0.01,-0.0012207029999999897,-0.36000001430511475,-0.3499999940395355,-0.05000000074505806,-0.00775146484375,-0.006103515625,1.01287841796875,34.06999969482422,0.0,-1.0,-6.1225128173828125,3.6679840087890625,Opening,0.0,0.0,42.0,0.0,0.0,0.0,0.0,0.0,
6.050584000000002,0.0,0.0,67198.0,0.0,0.0,0.0,0.0,0.125,0.820312416,0.01,0.0,-60317.0,0.0,0.0,-0.0,0.0,0.0,0.5554198650000001,0.01,0.0,85999.0,0.0,0.0,0.0,0.0,0.0,3.353271141,0.01,0.0,-66176.0,0.0,0.0,-0.0,0.0,0.25,1.6833494370000002,0.01,0.0,-0.36000001430511475,-0.3499999940395355,-0.05000000074505806,-0.00372314453125,-0.0062255859375,1.0230712890625,34.06999969482422,0.0,2.0,-6.1225128173828125,3.6679840087890625,Opening,0.0,0.0,42.0,0.0,0.0,0.0,0.0,0.0,
6.101317999999999,0.0,0.0,67198.0,0.0,0.0,0.0,0.0,0.125,0.821533119,0.01,0.0,-60317.0,0.0,0.0,-0.0,0.0,0.0,0.5541991620000001,0.01,0.0,85999.0,0.0,0.0,0.0,0.0,0.0,3.353271141,0.01,0.0,-66176.0,0.0,0.0,-0.0,0.0,0.25,1.6833494370000002,0.01,0.0012207029999999897,-0.36000001430511475,-0.3499999940395355,-0.05999999865889549,-0.00677490234375,-0.0072021484375,1.01971435546875,34.060001373291016,0.0,0.0,-6.1225128173828125,3.6679840087890625,Opening,0.0,0.0,42.0,0.0,0.0,0.0,0.0,0.0,
6.1528999999999945,0.0,0.0,67198.0,0.0,0.0,0.0,0.0,0.125,0.821533119,0.01,0.0012207029999999897,-60317.0,0.0,0.0,-0.0,0.0,0.0,0.5554198650000001,0.01,0.0,85999.0,0.0,0.0,0.0,0.0,0.0,3.352050438,0.01,0.0,-66176.0,0.0,0.0,-0.0,0.0,0.25,1.6821287340000002,0.01,0.0,-0.36000001430511475,-0.3499999940395355,-0.05999999865889549,-0.00408935546875,-0.0040283203125,1.0262451171875,34.060001373291016,0.0,2.0,-6.1225128173828125,3.6679840087890625,Opening,0.0,0.0,42.0,0.0,0.0,0.0,0.0,0.0,
6.207114000000002,0.0,0.0,67198.0,0.0,0.0,0.0,0.0,0.125,0.821533119,0.01,-0.0012207029999999897,-60317.0,0.0,0.0,-0.0,0.0,0.0,0.5554198650000001,0.01,0.0,85999.0,0.0,0.0,0.0,0.0,0.0,3.353271141,0.01,0.0,-66176.0,0.0,0.0,-0.0,0.0,0.25,1.6833494370000002,0.01,0.0,-0.36000001430511475,-0.3499999940395355,-0.05999999865889549,-0.0072021484375,-0.00665283203125,1.02337646484375,34.060001373291016,0.0,0.0,-6.1225128173828125,3.6679840087890625,Opening,0.0,0.0,42.0,0.0,0.0,0.0,0.0,0.0,
6.254948000000004,0.0,0.0,67198.0,0.0,0.0,0.0,0.0,0.125,0.820312416,0.01,0.0,-60317.0,0.0,0.0,-0.0,0.0,0.0,0.5541991620000001,0.01,0.0,85999.0,0.0,0.0,0.0,0.0,0.0,3.354491844,0.01,0.0,-66176.0,0.125,0.0,-0.0,0.0,0.25,1.6833494370000002,0.01,-0.0012207029999999897,-0.36000001430511475,-0.3499999940395355,-0.05999999865889549,-0.0064697265625,-0.00732421875,1.0157470703125,34.060001373291016,0.0,0.0,-6.1225128173828125,3.6679840087890625,Opening,0.0,0.0,42.0,0.0,0.0,0.0,0.0,0.0,
6.3078770000000075,0.0,0.0,67198.0,0.0,0.0,0.0,0.0,0.125,0.821533119,0.01,0.0012207029999999897,-60317.0,0.0,0.0,-0.0,0.0,0.0,0.5554198650000001,0.01,0.0,85999.0,0.0,0.0,0.0,0.0,0.0,3.354491844,0.01,0.0,-66176.0,0.125,0.0,-0.0,0.0,0.25,1.6833494370000002,0.01,0.0,-0.3700000047683716,-0.36000001430511475,-0.05999999865889549,-0.00738525390625,-0.0059814453125,1.02313232421875,34.060001373291016,0.0,0.0,-6.1225128173828125,3.6679840087890625,Opening,0.0,0.0,42.0,0.0,0.0,0.0,0.0,0.0,
6.356375,0.0,0.0,67198.0,0.0,0.0,0.0,0.0,0.125,0.821533119,0.01,-0.0012207029999999897,-60317.0,0.0,0.0,-0.0,0.0,0.0,0.5554198650000001,0.01,0.0,85999.0,0.0,0.0,0.0,0.0,0.0,3.354491844,0.01,0.0,-66176.0,0.0,0.0,-0.0,0.0,0.25,1.6833494370000002,0.01,0.0,-0.3700000047683716,-0.3499999940395355,-0.05000000074505806,-0.007080078125,-0.009033203125,1.01763916015625,34.060001373291016,0.0,0.0,-6.1225128173828125,3.6679840087890625,Opening,0.0,0.0,42.0,0.0,0.0,0.0,0.0,0.0,
6.410788,0.0,0.0,67198.0,0.0,0.0,0.0,0.0,0.125,0.821533119,0.01,0.0,-60317.0,0.0,0.0,-0.0,0.0,0.0,0.5554198650000001,0.01,0.0,85999.0,0.0,0.0,0.0,0.0,0.0,3.354491844,0.01,0.0,-66176.0,0.125,0.0,-0.0,0.0,0.25,1.6833494370000002,0.01,0.0,-0.36000001430511475,-0.3499999940395355,-0.05000000074505806,-0.00537109375,-0.00927734375,1.02581787109375,34.060001373291016,0.0,1.0,-6.1225128173828125,3.6679840087890625,Opening,0.0,0.0,42.0,0.0,0.0,0.0,0.0,0.0,
6.4591300000000045,0.0,0.0,67198.0,0.0,0.0,0.0,0.0,0.125,0.821533119,0.01,0.0,-60317.0,0.0,0.0,-0.0,0.0,0.0,0.5554198650000001,0.01,0.0,85999.0,0.0,0.0,0.0,0.0,0.0,3.354491844,0.01,0.0,-66176.0,0.0,0.0,-0.0,0.0,0.25,1.6833494370000002,0.01,0.0012207029999999897,-0.36000001430511475,-0.3499999940395355,-0.05000000074505806,-0.0052490234375,-0.0064697265625,1.01959228515625,34.060001373291016,0.0,1.0,-6.1225128173828125,3.6679840087890625,Opening,0.0,0.0,42.0,0.0,0.0,0.0,0.0,0.0,
6.512926000000006,0.0,0.0,67198.0,0.0,0.0,0.0,0.0,0.125,0.821533119,0.01,0.0,-60317.0,0.0,0.0,-0.0,0.0,0.0,0.5541991620000001,0.01,0.0,85999.0,0.0,0.0,0.0,0.0,0.0,3.353271141,0.01,0.0,-66176.0,0.0,0.0,-0.0,0.0,0.25,1.6833494370000002,0.01,-0.0012207029999999897,-0.3700000047683716,-0.3499999940395355,-0.05000000074505806,-0.0059814453125,-0.00775146484375,1.02056884765625,34.060001373291016,0.0,0.0,-6.1225128173828125,3.6679840087890625,Opening,0.0,0.0,42.0,0.0,0.0,0.0,0.0,0.0,
6.567820000000007,0.0,0.0,67198.0,0.0,0.0,0.0,0.0,0.125,0.821533119,0.01,0.0,-60317.0,0.0,0.0,-0.0,0.0,0.0,0.5554198650000001,0.01,0.0,85999.0,0.0,0.0,0.0,0.0,0.0,3.353271141,0.01,0.0,-66176.0,0.125,0.0,-0.0,0.0,0.25,1.6833494370000002,0.01,0.0,-0.3700000047683716,-0.3499999940395355,-0.05000000074505806,-0.006591796875,-0.00433349609375,1.019287109375,34.060001373291016,0.0,0.0,-6.1225128173828125,3.6679840087890625,Opening,0.0,0.0,42.0,0.0,0.0,0.0,0.0,0.0,
6.616343000000008,0.0,0.0,67198.0,0.0,0.0,0.0,0.0,0.125,0.820312416,0.01,0.0,-60317.0,0.0,0.0,-0.0,0.0,0.0,0.5554198650000001,0.01,0.0,85999.0,0.0,0.0,0.0,0.0,0.0,3.353271141,0.01,0.0,-66176.0,0.125,0.0,-0.0,0.0,0.25,1.6833494370000002,0.01,0.0,-0.3700000047683716,-0.3499999940395355,-0.05000000074505806,-0.00640869140625,-0.0067138671875,1.02081298828125,34.08000183105469,0.0,0.0,-6.1225128173828125,3.6679840087890625,Opening,0.0,0.0,42.0,0.0,0.0,0.0,0.0,0.0,
6.671510999999999,0.0,0.0,67198.0,0.0,0.0,0.0,0.0,0.125,0.821533119,0.01,0.0,-60317.0,0.0,0.0,-0.0,0.0,0.0,0.5541991620000001,0.01,0.0,85999.0,0.0,0.0,0.0,0.0,0.0,3.354491844,0.01,0.0,-66176.0,0.0,0.0,-0.0,0.0,0.25,1.6833494370000002,0.01,0.0,-0.3700000047683716,-0.3499999940395355,-0.05999999865889549,-0.0048828125,-0.00543212890625,1.0216064453125,34.08000183105469,0.0,1.0,-6.1225128173828125,3.6679840087890625,Opening,0.0,0.0,42.0,0.0,0.0,0.0,0.0,0.0,
6.720721999999994,0.0,0.0,67198.0,0.0,0.0,0.0,0.0,0.125,0.820312416,0.01,0.0012207029999999897,-60317.0,0.0,0.0,-0.0,0.0,0.0,0.5541991620000001,0.01,0.0,85999.0,0.0,0.0,0.0,0.0,0.0,3.354491844,0.01,0.0,-66176.0,0.0,0.0,-0.0,0.0,0.25,1.6833494370000002,0.01,0.0,-0.36000001430511475,-0.3499999940395355,-0.05000000074505806,-0.00823974609375,-0.00537109375,1.01995849609375,34.08000183105469,0.0,-1.0,-6.1225128173828125,3.6679840087890625,Opening,0.0,0.0,42.0,0.0,0.0,0.0,0.0,0.0,
6.773201000000001,0.0,0.0,67198.0,0.0,0.0,0.0,0.0,0.125,0.820312416,0.01,-0.0012207029999999897,-60317.0,0.0,0.0,-0.0,0.0,0.0,0.5554198650000001,0.01,0.0,85999.0,0.0,0.0,0.0,0.0,0.0,3.354491844,0.01,0.0,-66176.0,0.0,0.0,-0.0,0.0,0.25,1.6833494370000002,0.01,0.0012207029999999897,-0.36000001430511475,-0.3499999940395355,-0.05000000074505806,-0.00836181640625,-0.0047607421875,1.02142333984375,34.08000183105469,0.0,-1.0,-6.1225128173828125,3.6679840087890625,Opening,0.0,0.0,42.0,0.0,0.0,0.0,0.0,0.0,
6.847879000000001,0.0,0.0,67198.0,0.0,0.0,0.0,0.0,0.125,0.821533119,0.01,0.0012207029999999897,-60317.0,0.0,0.0,-0.0,0.0,0.0,0.5554198650000001,0.01,0.0,85999.0,0.0,0.0,0.0,0.0,0.0,3.354491844,0.01,0.0,-66176.0,0.125,0.0,-0.0,0.0,0.25,1.6833494370000002,0.01,0.0,-0.36000001430511475,-0.3499999940395355,-0.05000000074505806,-0.00604248046875,-0.00665283203125,1.02423095703125,34.08000183105469,0.0,0.0,-6.1225128173828125,3.6679840087890625,Opening,0.0,0.0,42.0,0.0,0.0,0.0,0.0,0.0,
