Time,ClimberA1,ClimberA2,FRpos,FRCurrent,FRspeed,FRsetpoint,FRApos,FRACurrent,FREncpos,FREncSetpoint,FREncSpeed,FLpos,FLCurrent,FLspeed,FLsetpoint,FLApos,FLACurrent,FLEncpos,FLEncSetpoint,FLEncSpeed,BRpos,BRCurrent,BRspeed,BRsetpoint,BRApos,BRACurrent,BREncpos,BREncSetpoint,BREncSpeed,BLpos,BLCurrent,BLspeed,BLsetpoint,BLApos,BLACurrent,BLEncpos,BLEncSetpoint,BLEncSpeed,navx_Pitch,navx_Roll,navx_Yaw,navx_XAcc,navx_YAcc,navx_ZAcc,navx_Temp,navx_Bar,navx_Alt,navx_XDis,navx_YDis,GearPlacerState,ShootOutputV,ShootOutputCurrent,ShootEncPos,ShootEncVelocity,ShootSpeed,ShootSetpoint,CarouselSetpoint,CarouselCurrent,
0.1687060000000056,0.0,0.0,27190.0,0.0,0.0,0.0,0.0,0.25,0.7653807810000001,0.01,0.0,-29512.0,0.0,0.0,-0.0,0.0,0.125,0.49194330900000005,0.01,0.0,30663.0,0.0,0.0,0.0,0.0,0.0,3.3679195770000003,0.01,0.0,-34353.0,0.0,0.0,-0.0,0.0,0.25,1.6052244450000002,0.01,0.0,0.11999999731779099,-0.07000000029802322,0.0,-0.0025634765625,0.0029296875,1.0224609375,32.790000915527344,0.0,-1.0,-3.099029541015625,3.4881744384765625,Waiting,0.0,0.0,0.0,0.0,0.0,0.0,0.0,0.0,
0.31235800000000746,0.0,0.0,27190.0,0.0,0.0,0.0,0.0,0.25,0.7641600780000001,0.01,0.0,-29512.0,0.0,0.0,-0.0,0.0,0.125,0.49194330900000005,0.01,0.0,30663.0,0.0,0.0,0.0,0.0,0.0,3.3679195770000003,0.01,0.0,-34353.0,0.0,0.0,-0.0,0.0,0.25,1.6064451480000002,0.01,0.0,0.11999999731779099,-0.07000000029802322,0.0,6.7138671875E-4,0.0020751953125,1.01983642578125,32.790000915527344,0.0,2.0,-3.099029541015625,3.4881744384765625,Waiting,0.0,0.0,0.0,0.0,0.0,0.0,0.0,0.0,
0.46615200000000184,0.0,0.0,27190.0,0.0,0.0,0.0,0.0,0.25,0.7641600780000001,0.01,0.0,-29512.0,0.0,0.0,-0.0,0.0,0.125,0.49194330900000005,0.01,0.0,30663.0,0.0,0.0,0.0,0.0,0.0,3.3679195770000003,0.01,0.0,-34353.0,0.0,0.0,-0.0,0.0,0.25,1.6052244450000002,0.01,0.0,0.10999999940395355,-0.07000000029802322,0.0,-0.002197265625,0.00103759765625,1.02239990234375,32.779998779296875,0.0,0.0,-3.099029541015625,3.4881744384765625,Waiting,0.0,0.0,0.0,0.0,0.0,0.0,0.0,0.0,
0.6094560000000055,0.0,0.0,27190.0,0.0,0.0,0.0,0.0,0.25,0.7641600780000001,0.01,0.0,-29512.0,0.0,0.0,-0.0,0.0,0.125,0.49316401200000004,0.01,0.0,30663.0,0.0,0.0,0.0,0.0,0.0,3.3691402800000003,0.01,0.0,-34353.0,0.0,0.0,-0.0,0.0,0.25,1.6052244450000002,0.01,0.0,0.10999999940395355,-0.07000000029802322,0.0,-0.00177001953125,0.00421142578125,1.0257568359375,32.779998779296875,0.0,0.0,-3.099029541015625,3.4881744384765625,Waiting,0.0,0.0,0.0,0.0,0.0,0.0,0.0,0.0,
0.753005999999994,0.0,0.0,27190.0,0.0,0.0,0.0,0.0,0.25,0.7641600780000001,0.01,0.0,-29512.0,0.0,0.0,-0.0,0.0,0.125,0.49194330900000005,0.01,0.0,30663.0,0.0,0.0,0.0,0.0,0.0,3.3679195770000003,0.01,0.0,-34353.0,0.0,0.0,-0.0,0.0,0.25,1.6052244450000002,0.01,0.0,0.10999999940395355,-0.07000000029802322,0.0,-5.4931640625E-4,0.00390625,1.02154541015625,32.779998779296875,0.0,0.0,-3.099029541015625,3.4881744384765625,Waiting,0.0,0.0,0.0,0.0,0.0,0.0,0.0,0.0,
0.9007700000000186,0.0,0.0,27190.0,0.0,0.0,0.0,0.0,0.25,0.7653807810000001,0.01,0.0,-29512.0,0.0,0.0,-0.0,0.0,0.125,0.49194330900000005,0.01,0.0,30663.0,0.0,0.0,0.0,0.0,0.0,3.3715816860000003,0.01,0.0,-34353.0,0.0,0.0,-0.0,0.0,0.25,1.6052244450000002,0.01,0.0,0.10999999940395355,-0.07000000029802322,0.0,5.4931640625E-4,0.00341796875,1.02142333984375,32.779998779296875,0.0,1.0,-3.099029541015625,3.4881744384765625,Waiting,0.0,0.0,0.0,0.0,0.0,0.0,0.0,0.0,
1.0475510000000359,0.0,0.0,27190.0,0.0,0.0,0.0,0.0,0.25,0.7641600780000001,0.01,0.0,-29512.0,0.0,0.0,-0.0,0.0,0.0,0.49194330900000005,0.01,0.0,30663.0,0.0,0.0,0.0,0.0,0.0,3.3691402800000003,0.01,0.0,-34353.0,0.0,0.0,-0.0,0.0,0.25,1.6064451480000002,0.01,0.0,0.10999999940395355,-0.07000000029802322,0.0,-0.0025634765625,0.001953125,1.023193359375,32.790000915527344,0.0,-1.0,-3.099029541015625,3.4881744384765625,Waiting,0.0,0.0,0.0,0.0,0.0,0.0,0.0,0.0,
1.193902999999991,0.0,0.0,27190.0,0.0,0.0,0.0,0.0,0.25,0.7641600780000001,0.01,0.0,-29512.0,0.0,0.0,-0.0,0.0,0.125,0.49194330900000005,0.01,0.0,30663.0,0.0,0.0,0.0,0.0,0.0,3.3679195770000003,0.01,0.0,-34353.0,0.0,0.0,-0.0,0.0,0.25,1.6052244450000002,0.01,0.0,0.11999999731779099,-0.07000000029802322,0.0,-1.8310546875E-4,0.0029296875,1.0269775390625,32.790000915527344,0.0,1.0,-3.099029541015625,3.4881744384765625,Waiting,0.0,0.0,0.0,0.0,0.0,0.0,0.0,0.0,
1.3427600000000093,0.0,0.0,27190.0,0.0,0.0,0.0,0.0,0.25,0.7641600780000001,0.01,0.0,-29512.0,0.0,0.0,-0.0,0.0,0.125,0.490722606,0.01,0.0,30663.0,0.0,0.0,0.0,0.0,0.0,3.3679195770000003,0.01,0.0,-34353.0,0.0,0.0,-0.0,0.0,0.25,1.6052244450000002,0.01,0.0,0.11999999731779099,-0.07000000029802322,0.0,-9.765625E-4,9.1552734375E-4,1.02056884765625,32.790000915527344,0.0,0.0,-3.099029541015625,3.4881744384765625,Waiting,0.0,0.0,0.0,0.0,0.0,0.0,0.0,0.0,
1.492265000000014,0.0,0.0,27190.0,1.625,0.0,475.78125,0.0,1.75,1.090087779,0.5498168668524888,0.0,-29484.0,0.75,165.0,475.78125,0.0,0.5,0.23315427300000002,4.410439589772222,0.0,30671.0,1.5,30.0,475.78125,0.0,1.125,2.963866884,4.389674732977289,0.0,-34336.0,1.125,112.5,475.78125,0.0,0.875,2.0178220590000002,0.5526872062785588,0.0,0.10999999940395355,-0.07000000029802322,-0.11999999731779099,-0.03662109375,0.010498046875,1.021240234375,32.779998779296875,0.0,-35.0,-3.09832763671875,3.4875640869140625,Waiting,0.0,0.0,0.0,0.0,0.0,0.0,0.0,0.0,
1.6456760000000359,0.0,0.0,27269.0,27.75,352.5,2067.1875,0.0,0.375,1.4489744610000002,0.5498168668524888,0.0,-29418.0,33.25,412.5,2067.1875,0.0,0.25,4.844970207,4.410439589772222,0.0,30701.0,32.0,195.0,2067.1875,0.0,0.125,2.623290747,4.389674732977289,0.0,-34307.0,27.75,540.0,2067.1875,0.0,0.25,2.298583749,0.5526872062785588,0.0,-0.10999999940395355,0.07999999821186066,-6.420000076293945,0.01708984375,0.17578125,0.88555908203125,32.779998779296875,0.0,-4.0,-3.095794677734375,3.484161376953125,Waiting,0.0,0.0,0.0,0.0,0.0,0.0,0.0,0.0,
1.792850000000035,0.0,0.0,27467.0,21.125,1402.5,2100.0,0.0,0.25,1.488036957,0.5498168668524888,0.0,-29197.0,17.25,1560.0,2100.0,0.0,0.0,4.766845215,4.410439589772222,0.0,30788.0,31.25,645.0,2100.0,0.0,0.25,2.6330563710000003,4.389674732977289,0.0,-34138.0,19.875,1402.5,2100.0,0.0,0.25,2.288818125,0.5526872062785588,0.0,-0.029999999329447746,0.18000000715255737,-24.8799991607666,-0.2645263671875,0.31829833984375,1.1588134765625,32.779998779296875,0.0,-377.0,-3.088653564453125,3.4880828857421875,Waiting,0.0,0.0,0.0,0.0,0.0,0.0,0.0,0.0,
1.9443369999999995,0.0,0.0,27712.0,0.0,1485.0,0.0,0.0,0.25,1.418456886,0.5498168668524888,0.0,-28923.0,0.0,1462.5,0.0,0.0,0.25,4.791259275,4.410439589772222,0.0,30948.0,0.0,1162.5,0.0,0.0,0.125,2.772216513,4.389674732977289,0.0,-33654.0,0.0,1410.0,0.0,0.0,0.25,2.1105954870000003,0.5526872062785588,0.0,-0.25999999046325684,0.3499999940395355,-52.540000915527344,-0.00897216796875,0.0677490234375,1.434326171875,32.79999923706055,0.0,-69.0,-3.0870513916015625,3.5008697509765625,Waiting,0.0,0.0,0.0,0.0,0.0,0.0,0.0,0.0,
2.090630999999994,0.0,0.0,27960.0,0.0,1417.5,0.0,0.0,0.125,1.339111191,0.5498168668524888,0.0,-28698.0,0.0,1365.0,0.0,0.0,0.25,4.921874496,4.410439589772222,0.0,31140.0,0.0,1200.0,0.0,0.0,0.0,2.838134475,4.389674732977289,0.0,-33463.0,0.0,1177.5,0.0,0.0,0.25,2.105712675,0.5526872062785588,0.0,-0.44999998807907104,0.3499999940395355,-70.94999694824219,-0.05059814453125,-0.059326171875,1.111083984375,32.79999923706055,0.0,28.0,-3.094970703125,3.5123748779296875,Waiting,0.0,0.0,0.0,0.0,0.0,0.0,0.0,0.0,
2.2348870000000463,0.0,0.0,28332.0,0.0,1012.5,0.0,0.0,0.125,1.331786973,0.5498168668524888,0.0,-28334.0,0.0,997.5,0.0,0.0,0.0,4.956054180000001,4.410439589772222,0.0,31490.0,0.0,1012.5,0.0,0.0,0.125,2.823486039,4.389674732977289,0.0,-33301.0,0.0,975.0,0.0,0.0,0.25,2.159423607,0.5526872062785588,0.0,-1.0,0.3100000023841858,-85.16000366210938,0.1837158203125,0.13824462890625,0.4932861328125,32.79999923706055,0.0,-131.0,-3.100311279296875,3.5203094482421875,Waiting,0.0,0.0,0.0,0.0,0.0,0.0,0.0,0.0,
2.3879470000000436,0.0,0.0,28393.0,3.625,262.5,-132.28346407413483,0.0,0.75,1.0583495010000001,4.932250999999998,0.0,-28256.0,1.625,240.0,132.28346407413483,0.0,0.75,0.338134731,4.963769999999998,0.0,31601.0,6.75,570.0,-132.28346407413483,0.0,0.875,3.145751631,0.01,0.0,-33191.0,1.5,285.0,132.28346407413483,0.0,0.625,1.832275203,0.01,0.0,-1.0299999713897705,-0.07000000029802322,-91.9000015258789,0.03265380859375,-0.0509033203125,0.72503662109375,32.79999923706055,0.0,36.0,-3.10809326171875,3.524505615234375,Waiting,0.0,0.0,0.0,0.0,0.0,0.0,0.0,0.0,
2.535902000000002,0.0,0.0,28367.0,4.125,-202.5,-562.2047066688538,0.0,0.25,0.6872557890000001,4.932250999999998,0.0,-28263.0,0.5,75.0,562.2047066688538,0.0,0.25,0.643310481,4.963769999999998,0.0,31649.0,13.875,75.0,-562.2047066688538,0.0,0.125,3.5681148690000004,0.01,0.0,-33166.0,0.75,45.0,562.2047066688538,0.0,0.25,1.468505709,0.01,0.0,-0.9700000286102295,-0.7599999904632568,-89.88999938964844,-0.13177490234375,0.04437255859375,0.94976806640625,32.79999923706055,0.0,-60.0,-3.1109619140625,3.51995849609375,Waiting,0.0,0.0,0.0,0.0,0.0,0.0,0.0,0.0,
2.688607000000018,0.0,0.0,28335.0,13.625,-360.0,-1107.8739881515503,0.0,0.25,0.631103451,4.932250999999998,0.0,-28222.0,4.75,375.0,1107.8739881515503,0.0,0.25,0.6994628190000001,4.963769999999998,0.0,31584.0,26.0,-270.0,-1107.8739881515503,0.0,0.25,3.614501583,0.01,0.0,-33096.0,3.5,465.0,1107.8739881515503,0.0,0.25,1.418456886,0.01,0.0,-0.800000011920929,-1.6200000047683716,-89.61000061035156,-0.08734130859375,0.22515869140625,1.149658203125,32.79999923706055,0.0,-241.0,-3.1115875244140625,3.4989166259765625,Waiting,0.0,0.0,0.0,0.0,0.0,0.0,0.0,0.0,
2.8362119999999997,0.0,0.0,28141.0,13.0,-682.5,-1107.8739881515503,0.0,0.375,0.715331958,4.932250999999998,0.0,-28071.0,8.125,540.0,1107.8739881515503,0.0,0.25,0.616455015,4.963769999999998,0.0,31489.0,25.125,-577.5,-1107.8739881515503,0.0,0.625,3.496093392,0.01,0.0,-33016.0,5.75,540.0,1107.8739881515503,0.0,0.25,1.618652178,0.01,0.0,-0.8299999833106995,-2.380000114440918,-88.37999725341797,-0.20892333984375,-0.0838623046875,1.10650634765625,32.79999923706055,0.0,63.0,-3.1147613525390625,3.4568328857421875,Waiting,0.0,0.0,0.0,0.0,0.0,0.0,0.0,0.0,
2.9908369999999995,0.0,0.0,27987.0,10.0,-1012.5,-1107.8739881515503,0.0,0.125,0.845947179,4.932250999999998,0.0,-27937.0,5.25,960.0,1107.8739881515503,0.0,0.25,0.47241206100000005,4.963769999999998,0.0,31356.0,21.125,-937.5,-1107.8739881515503,0.0,0.125,3.387450825,0.01,0.0,-32903.0,4.5,892.5,1107.8739881515503,0.0,0.125,1.727294745,0.01,0.0,-1.0299999713897705,-3.4100000858306885,-87.77999877929688,-0.1956787109375,-0.08709716796875,0.84503173828125,32.79999923706055,0.0,66.0,-3.1140594482421875,3.399261474609375,Waiting,0.0,0.0,0.0,0.0,0.0,0.0,0.0,0.0,
3.148502000000037,0.0,0.0,27798.0,6.75,-1260.0,-1107.8739881515503,0.0,0.125,0.8789061600000001,4.932250999999998,0.0,-27757.0,1.5,1237.5,1107.8739881515503,0.0,0.0,0.45410151600000004,4.963769999999998,0.0,31184.0,16.375,-1192.5,-1107.8739881515503,0.0,0.125,3.3740230920000003,0.01,0.0,-32548.0,1.875,1185.0,1107.8739881515503,0.0,0.25,1.7163084180000001,0.01,0.0,-1.0199999809265137,-3.8299999237060547,-87.55000305175781,-0.04132080078125,0.05682373046875,0.98974609375,32.79999923706055,0.0,-73.0,-3.10931396484375,3.320068359375,Waiting,0.0,0.0,0.0,0.0,0.0,0.0,0.0,0.0,
3.307585000000021,0.0,0.0,27359.0,3.25,-1395.0,-1107.8739881515503,0.0,0.25,0.8557128030000001,4.932250999999998,0.0,-27354.0,0.625,1260.0,1107.8739881515503,0.0,0.0,0.457763625,4.963769999999998,0.0,30748.0,10.125,-1455.0,-1107.8739881515503,0.0,0.0,3.3679195770000003,0.01,0.0,-32346.0,0.5,1260.0,1107.8739881515503,0.0,0.25,1.625976396,0.01,0.0,-0.9800000190734863,-3.75,-87.25,0.04022216796875,-0.00738525390625,0.6302490234375,32.79999923706055,0.0,0.0,-3.1066131591796875,3.2526702880859375,Waiting,0.0,0.0,0.0,0.0,0.0,0.0,0.0,0.0,
3.4596080000000073,0.0,0.0,27131.0,0.625,-1410.0,-1107.8739881515503,0.0,0.25,0.832519446,4.932250999999998,0.0,-27141.0,0.125,1342.5,1107.8739881515503,0.0,0.0,0.45288081300000005,4.963769999999998,0.0,30510.0,6.125,-1485.0,-1107.8739881515503,0.0,0.0,3.3679195770000003,0.01,0.0,-32129.0,0.375,1335.0,1107.8739881515503,0.0,0.125,1.594238118,0.01,0.0,-0.5600000023841858,-3.2899999618530273,-86.44000244140625,0.0029296875,0.03277587890625,1.3011474609375,32.779998779296875,0.0,-40.0,-3.111083984375,3.1743927001953125,Waiting,0.0,0.0,0.0,0.0,0.0,0.0,0.0,0.0,
3.621920000000042,0.0,0.0,26940.0,0.0,-1102.5,-298.36333307471546,0.0,0.375,0.35644527600000003,4.458955114597449,0.0,-26938.0,0.0,1162.5,668.9088052727568,0.0,0.25,0.40893550500000003,4.761755843457091,0.0,30276.0,0.125,-1282.5,-298.36333307471546,0.0,0.75,3.762206646,0.4740778586172443,0.0,-31735.0,0.25,1162.5,668.9088052727568,0.0,0.25,1.7846677860000002,0.20177933065789563,0.0,-0.550000011920929,-1.3700000047683716,-86.58999633789062,0.17510986328125,0.21893310546875,1.17291259765625,32.779998779296875,0.0,-217.0,-3.1132659912109375,3.1144866943359375,Waiting,0.0,0.0,0.0,0.0,0.0,0.0,0.0,0.0,
3.788320000000007,0.0,0.0,26729.0,0.0,-285.0,0.0,0.0,0.125,0.208740213,4.458955114597449,0.0,-26582.0,0.0,1057.5,0.0,0.0,0.25,0.33691402800000003,4.761755843457091,0.0,29959.0,0.0,-802.5,0.0,0.0,0.0,4.061278881,0.4740778586172443,0.0,-31550.0,0.0,1102.5,0.0,0.0,0.25,1.933593552,0.20177933065789563,0.0,-1.059999942779541,-0.09000000357627869,-94.31999969482422,0.043212890625,-0.0853271484375,1.38409423828125,32.779998779296875,0.0,55.0,-3.1066741943359375,3.0974884033203125,Waiting,0.0,0.0,0.0,0.0,0.0,0.0,0.0,0.0,
3.950125,0.0,0.0,26692.0,1.5,-157.5,180.46875,0.0,2.0,0.8166503070000001,0.5498168668524888,0.0,-26477.0,3.25,480.0,180.46875,0.0,0.5,0.06469725900000001,4.410439589772222,0.0,29883.0,0.875,-390.0,-180.46875,0.0,2.0,4.807128414,1.9194747329772885,0.0,-31413.0,2.625,427.5,180.46875,0.0,0.375,2.1203611110000002,0.5526872062785588,0.0,-1.0499999523162842,1.7799999713897705,-98.9000015258789,0.275146484375,-0.14190673828125,0.64239501953125,32.779998779296875,0.0,88.0,-3.0946197509765625,3.11224365234375,Waiting,0.0,0.0,0.0,0.0,0.0,0.0,0.0,0.0,
4.109971000000019,0.0,0.0,26673.0,0.0,-82.5,0.0,0.0,1.25,1.612548663,0.5498168668524888,0.0,-26451.0,0.0,15.0,0.0,0.0,0.25,4.83398388,4.410439589772222,0.0,29854.0,0.0,-45.0,0.0,0.0,0.625,0.614013609,1.9194747329772885,0.0,-31371.0,0.0,0.0,0.0,0.0,0.25,2.189941182,0.5526872062785588,0.0,-0.949999988079071,1.559999942779541,-98.19999694824219,-0.07110595703125,-0.0550537109375,1.0421142578125,32.77000045776367,0.0,51.0,-3.0932159423828125,3.148223876953125,Waiting,0.0,0.0,0.0,0.0,0.0,0.0,0.0,0.0,
4.269258000000031,0.0,0.0,26663.0,0.0,-30.0,0.0,0.0,0.25,1.563720543,0.5498168668524888,0.0,-26451.0,0.0,0.0,0.0,0.0,0.0,4.887694812,4.410439589772222,0.0,29852.0,0.0,0.0,0.0,0.0,0.125,0.48706049700000004,1.9194747329772885,0.0,-31371.0,0.0,0.0,0.0,0.0,0.25,2.193603291,0.5526872062785588,0.0,-0.949999988079071,1.3899999856948853,-98.02999877929688,-0.0234375,0.0369873046875,1.08233642578125,32.77000045776367,0.0,-47.0,-3.0927734375,3.1554107666015625,Waiting,0.0,0.0,0.0,0.0,0.0,0.0,0.0,0.0,
4.429627000000036,0.0,0.0,26625.0,6.875,-307.5,-1240.1575148105621,0.0,0.375,1.409911965,0.5498168668524864,0.0,-26477.0,9.375,-277.5,-1240.1575148105621,0.0,0.25,4.898681139000001,4.41043958977222,0.0,29861.0,9.625,127.5,1240.1575148105621,0.0,0.125,0.261230442,1.919474732977291,0.0,-31390.0,7.625,-255.0,-1240.1575148105621,0.0,0.25,2.2656247680000003,0.552687206278561,0.0,-0.9800000190734863,0.8399999737739563,-95.69000244140625,-0.210693359375,0.00762939453125,1.31768798828125,32.77000045776367,0.0,-7.0,-3.09417724609375,3.150634765625,Waiting,0.0,0.0,0.0,0.0,0.0,0.0,0.0,0.0,
4.589108999999997,0.0,0.0,26564.0,0.0,-285.0,0.0,0.0,0.125,1.3745115780000001,0.5498168668524864,0.0,-26539.0,0.0,-322.5,0.0,0.0,0.125,4.921874496,4.41043958977222,0.0,29922.0,0.0,367.5,0.0,0.0,0.0,0.30395504700000003,1.919474732977291,0.0,-31495.0,0.0,-330.0,0.0,0.0,0.25,2.210693133,0.552687206278561,0.0,-0.5299999713897705,0.7599999904632568,-87.68000030517578,-0.10797119140625,-0.04876708984375,1.13433837890625,32.779998779296875,0.0,33.0,-3.09832763671875,3.139068603515625,Waiting,0.0,0.0,0.0,0.0,0.0,0.0,0.0,0.0,
4.748132000000042,0.0,0.0,26488.0,0.0,-187.5,0.0,0.0,0.125,1.3757322810000001,0.5498168668524864,0.0,-26617.0,0.0,-157.5,0.0,0.0,0.0,4.921874496,4.41043958977222,0.0,30013.0,0.0,210.0,0.0,0.0,0.0,0.33691402800000003,1.919474732977291,0.0,-31527.0,0.0,-172.5,0.0,0.0,0.25,2.177734152,0.552687206278561,0.0,-0.5400000214576721,0.6700000166893005,-84.51000213623047,0.003662109375,-0.01922607421875,1.14495849609375,32.779998779296875,0.0,7.0,-3.101776123046875,3.1253509521484375,Waiting,0.0,0.0,0.0,0.0,0.0,0.0,0.0,0.0,
4.892943000000028,0.0,0.0,26488.0,0.0,0.0,0.0,0.0,0.125,1.3745115780000001,0.5498168668524864,0.0,-26617.0,0.0,0.0,0.0,0.0,0.0,4.916991684,4.41043958977222,0.0,30013.0,0.0,0.0,0.0,0.0,0.0,0.338134731,1.919474732977291,0.0,-31532.0,0.0,0.0,0.0,0.0,0.125,2.177734152,0.552687206278561,0.0,-0.5299999713897705,0.6499999761581421,-84.81999969482422,-0.00750732421875,-0.02581787109375,0.9248046875,32.779998779296875,0.0,15.0,-3.101959228515625,3.1248779296875,Waiting,0.0,0.0,0.0,0.0,0.0,0.0,0.0,0.0,
5.040292000000016,0.0,0.0,26514.0,5.75,240.0,1082.8125,0.0,0.125,1.351318221,0.5498168668524888,0.0,-26595.0,7.125,270.0,1082.8125,0.0,0.0,4.90722606,4.410439589772222,0.0,30006.0,7.125,-105.0,-1082.8125,0.0,0.0,0.33691402800000003,1.9194747329772885,0.0,-31526.0,6.125,232.5,1082.8125,0.0,0.125,2.106933378,0.5526872062785588,0.0,-0.5099999904632568,0.6200000047683716,-87.5199966430664,0.06396484375,0.00567626953125,0.88238525390625,32.79999923706055,0.0,-11.0,-3.102294921875,3.123779296875,Waiting,0.0,0.0,0.0,0.0,0.0,0.0,0.0,0.0,
5.194194000000017,0.0,0.0,26572.0,0.0,292.5,0.0,0.0,0.125,1.351318221,0.5498168668524888,0.0,-26530.0,0.0,277.5,0.0,0.0,0.125,4.882812,4.410439589772222,0.0,29963.0,0.0,-285.0,0.0,0.0,0.0,0.307617156,1.9194747329772885,0.0,-31420.0,0.0,277.5,0.0,0.0,0.25,2.139892359,0.5526872062785588,0.0,-0.6100000143051147,0.49000000953674316,-94.43000030517578,0.02227783203125,-0.1256103515625,1.02264404296875,32.79999923706055,0.0,113.0,-3.1035614013671875,3.1223297119140625,Waiting,0.0,0.0,0.0,0.0,0.0,0.0,0.0,0.0,
5.342439000000013,0.0,0.0,26634.0,0.0,202.5,0.0,0.0,0.125,1.351318221,0.5498168668524888,0.0,-26459.0,0.0,202.5,0.0,0.0,0.0,4.882812,4.410439589772222,0.0,29889.0,0.0,-202.5,0.0,0.0,0.0,0.308837859,1.9194747329772885,0.0,-31393.0,0.0,172.5,0.0,0.0,0.25,2.159423607,0.5526872062785588,0.0,-0.7400000095367432,0.41999998688697815,-97.70999908447266,-0.0133056640625,-0.04473876953125,1.016357421875,32.79999923706055,0.0,33.0,-3.1029052734375,3.1208648681640625,Waiting,0.0,0.0,0.0,0.0,0.0,0.0,0.0,0.0,
5.490650000000024,0.0,0.0,26652.0,0.0,30.0,0.0,0.0,0.125,1.351318221,0.5498168668524888,0.0,-26456.0,0.0,7.5,0.0,0.0,0.0,4.882812,4.410439589772222,0.0,29883.0,0.0,-22.5,0.0,0.0,0.0,0.308837859,1.9194747329772885,0.0,-31385.0,0.0,0.0,0.0,0.0,0.125,2.158202904,0.5526872062785588,0.0,-0.7400000095367432,0.25999999046325684,-97.62999725341797,-0.00872802734375,0.007568359375,1.0560302734375,32.79999923706055,0.0,-19.0,-3.1016998291015625,3.118743896484375,Waiting,0.0,0.0,0.0,0.0,0.0,0.0,0.0,0.0,
5.641092000000004,0.0,0.0,26652.0,0.0,0.0,0.0,0.0,0.125,1.351318221,0.5498168668524888,0.0,-26456.0,0.0,0.0,0.0,0.0,0.25,4.887694812,4.410439589772222,0.0,29883.0,0.0,0.0,0.0,0.0,0.0,0.308837859,1.9194747329772885,0.0,-31385.0,0.0,0.0,0.0,0.0,0.125,2.159423607,0.5526872062785588,0.0,-0.7300000190734863,0.18000000715255737,-97.3499984741211,-0.011474609375,-0.009033203125,1.01605224609375,32.79999923706055,0.0,-2.0,-3.1016998291015625,3.1182403564453125,Waiting,0.0,0.0,0.0,0.0,0.0,0.0,0.0,0.0,
5.791236000000033,0.0,0.0,26641.0,1.5,-97.5,-529.1338562965393,0.0,2.25,1.088867076,4.932250999999998,0.0,-26450.0,2.0,142.5,529.1338562965393,0.0,1.25,0.225830055,4.963769999999998,0.0,29883.0,2.0,30.0,529.1338562965393,0.0,1.125,0.677490165,2.4702000000000024,0.0,-31362.0,1.5,150.0,529.1338562965393,0.0,0.625,1.832275203,0.01,0.0,-0.7300000190734863,-0.18000000715255737,-97.26000213623047,-0.059326171875,-0.01666259765625,1.00335693359375,32.79999923706055,0.0,10.0,-3.10101318359375,3.116546630859375,Waiting,0.0,0.0,0.0,0.0,0.0,0.0,0.0,0.0,
5.937992000000028,0.0,0.0,26633.0,3.125,-105.0,-545.6692814826965,0.0,0.375,0.806884683,4.932250999999998,0.0,-26412.0,4.25,112.5,545.6692814826965,0.0,0.5,0.627441342,4.963769999999998,0.0,29910.0,4.0,105.0,545.6692814826965,0.0,0.125,1.097411997,2.4702000000000024,0.0,-31341.0,2.875,142.5,545.6692814826965,0.0,0.25,1.44042954,0.01,0.0,-0.8199999928474426,-0.8100000023841858,-97.13999938964844,-0.167724609375,-0.0399169921875,1.060791015625,32.79999923706055,0.0,43.0,-3.0996551513671875,3.106964111328125,Waiting,0.0,0.0,0.0,0.0,0.0,0.0,0.0,0.0,
6.09425,0.0,0.0,26559.0,3.125,-300.0,-545.6692814826965,0.0,0.125,0.670165947,4.932250999999998,0.0,-26367.0,4.5,285.0,545.6692814826965,0.0,0.25,0.715331958,4.963769999999998,0.0,29955.0,4.125,292.5,545.6692814826965,0.0,0.25,1.088867076,2.4702000000000024,0.0,-31303.0,3.5,255.0,545.6692814826965,0.0,0.25,1.418456886,0.01,0.0,-0.75,-0.9300000071525574,-96.73999786376953,0.00469970703125,-0.00982666015625,1.0364990234375,32.79999923706055,0.0,-6.0,-3.096099853515625,3.0848236083984375,Waiting,0.0,0.0,0.0,0.0,0.0,0.0,0.0,0.0,
6.246706000000006,0.0,0.0,26512.0,4.5,-292.5,-545.6692814826965,0.0,0.375,0.692138601,4.932250999999998,0.0,-26322.0,6.625,277.5,545.6692814826965,0.0,0.25,0.643310481,4.963769999999998,0.0,30008.0,5.125,322.5,545.6692814826965,0.0,0.25,0.9204100620000001,2.4702000000000024,0.0,-31257.0,5.25,270.0,545.6692814826965,0.0,0.375,1.62353499,0.01,0.0,-0.75,-0.8999999761581421,-96.37999725341797,-0.06329345703125,0.01446533203125,0.951904296875,32.79999923706055,0.0,-21.0,-3.0952911376953125,3.0635986328125,Waiting,0.0,0.0,0.0,0.0,0.0,0.0,0.0,0.0,
6.392611000000033,0.0,0.0,26454.0,4.625,-412.5,-545.6692814826965,0.0,0.25,0.799560465,4.932250999999998,0.0,-26273.0,7.125,397.5,545.6692814826965,0.0,0.25,0.511474557,4.963769999999998,0.0,30066.0,5.0,427.5,545.6692814826965,0.0,0.125,0.7922362470000001,2.4702000000000024,0.0,-31144.0,5.25,420.0,545.6692814826965,0.0,0.125,1.746825993,0.01,0.0,-0.8899999856948853,-1.5800000429153442,-96.37000274658203,-0.16864013671875,0.00396728515625,1.04840087890625,32.79999923706055,0.0,-4.0,-3.0928802490234375,3.03533935546875,Waiting,0.0,0.0,0.0,0.0,0.0,0.0,0.0,0.0,
6.548330000000016,0.0,0.0,26277.0,2.875,-592.5,-545.6692814826965,0.0,0.125,0.8825682690000001,4.932250999999998,0.0,-26091.0,3.875,622.5,545.6692814826965,0.0,0.0,0.43457026800000004,4.963769999999998,0.0,30241.0,3.25,607.5,545.6692814826965,0.0,0.0,0.821533119,2.4702000000000024,0.0,-31051.0,3.25,615.0,545.6692814826965,0.0,0.25,1.6638181890000001,0.01,0.0,-0.9200000166893005,-2.119999885559082,-96.70999908447266,-0.140380859375,0.0177001953125,1.07415771484375,32.810001373291016,0.0,-23.0,-3.087646484375,2.98779296875,Waiting,0.0,0.0,0.0,0.0,0.0,0.0,0.0,0.0,
6.695599000000046,0.0,0.0,26166.0,1.875,-690.0,-545.6692814826965,0.0,0.25,0.8691405360000001,4.932250999999998,0.0,-25979.0,2.0,697.5,545.6692814826965,0.0,0.0,0.443115189,4.963769999999998,0.0,30357.0,1.875,727.5,545.6692814826965,0.0,0.0,0.886230378,2.4702000000000024,0.0,-30940.0,2.0,697.5,545.6692814826965,0.0,0.25,1.5808103850000002,0.01,0.0,-0.8500000238418579,-2.069999933242798,-96.55999755859375,-0.0106201171875,-0.05938720703125,0.848388671875,32.810001373291016,0.0,44.0,-3.085235595703125,2.93719482421875,Waiting,0.0,0.0,0.0,0.0,0.0,0.0,0.0,0.0,
6.8487920000000155,0.0,0.0,26051.0,0.75,-712.5,-545.6692814826965,0.0,0.25,0.845947179,4.932250999999998,0.0,-25865.0,1.25,705.0,545.6692814826965,0.0,0.25,0.443115189,4.963769999999998,0.0,30469.0,1.375,690.0,545.6692814826965,0.0,0.0,0.900878814,2.4702000000000024,0.0,-30830.0,1.625,667.5,545.6692814826965,0.0,0.25,1.6101072570000001,0.01,0.0,-0.8799999952316284,-1.850000023841858,-96.36000061035156,0.04522705078125,0.06494140625,0.746337890625,32.810001373291016,0.0,-83.0,-3.0843048095703125,2.8942108154296875,Waiting,0.0,0.0,0.0,0.0,0.0,0.0,0.0,0.0,
6.993564000000013,0.0,0.0,25941.0,1.25,-615.0,-545.6692814826965,0.0,0.25,0.839843664,4.932250999999998,0.0,-25753.0,1.5,622.5,545.6692814826965,0.0,0.25,0.438232377,4.963769999999998,0.0,30578.0,2.125,637.5,545.6692814826965,0.0,0.125,0.900878814,2.4702000000000024,0.0,-30644.0,2.25,577.5,545.6692814826965,0.0,0.25,1.619872881,0.01,0.0,-0.8500000238418579,1.8600000143051147,-96.37999725341797,0.3621826171875,-0.3038330078125,0.511962890625,32.810001373291016,0.0,255.0,-3.0863800048828125,2.8674468994140625,Waiting,0.0,0.0,0.0,0.0,0.0,0.0,0.0,0.0,
7.142092000000004,0.0,0.0,25908.0,10.625,82.5,-545.6692814826965,0.0,0.25,0.839843664,4.932250999999998,0.0,-25691.0,12.875,-52.5,545.6692814826965,0.0,0.25,0.443115189,4.963769999999998,0.0,30684.0,5.25,135.0,545.6692814826965,0.0,0.125,0.899658111,2.4702000000000024,0.0,-30662.0,13.5,-67.5,545.6692814826965,0.0,0.125,1.614990069,0.01,0.0,-0.8799999952316284,-0.3199999928474426,-96.29000091552734,-0.22833251953125,0.05926513671875,1.0643310546875,32.77000045776367,0.0,-50.0,-3.09149169921875,2.8750152587890625,Waiting,0.0,0.0,0.0,0.0,0.0,0.0,0.0,0.0,
7.293238000000012,0.0,0.0,25895.0,15.25,-7.5,-545.6692814826965,0.0,0.25,0.8410643670000001,4.932250999999998,0.0,-25676.0,19.875,60.0,545.6692814826965,0.0,0.0,0.444335892,4.963769999999998,0.0,30702.0,11.875,82.5,545.6692814826965,0.0,0.125,0.898437408,2.4702000000000024,0.0,-30638.0,18.25,67.5,545.6692814826965,0.0,0.125,1.616210772,0.01,0.0,-0.8199999928474426,0.3100000023841858,-96.4000015258789,-0.02825927734375,0.07427978515625,0.89361572265625,32.77000045776367,0.0,-82.0,-3.093017578125,2.8734893798828125,Waiting,0.0,0.0,0.0,0.0,0.0,0.0,0.0,0.0,
7.447045000000042,0.0,0.0,25893.0,21.625,-7.5,-545.6692814826965,0.0,0.25,0.8410643670000001,4.932250999999998,0.0,-25675.0,31.625,0.0,545.6692814826965,0.0,0.25,0.44799800100000003,4.963769999999998,0.0,30704.0,19.375,15.0,545.6692814826965,0.0,0.125,0.8959960020000001,2.4702000000000024,0.0,-30635.0,30.375,15.0,545.6692814826965,0.0,0.125,1.614990069,0.01,0.0,-0.8600000143051147,0.23000000417232513,-96.43000030517578,-0.0338134765625,-0.02337646484375,1.0322265625,32.77000045776367,0.0,12.0,-3.0928497314453125,2.8715972900390625,Waiting,0.0,0.0,0.0,0.0,0.0,0.0,0.0,0.0,
7.591652000000002,0.0,2.25,25890.0,31.5,-7.5,-545.6692814826965,0.0,0.25,0.8410643670000001,4.932250999999998,0.0,-25669.0,42.75,7.5,545.6692814826965,0.0,0.0,0.443115189,4.963769999999998,0.0,30707.0,26.125,7.5,545.6692814826965,0.0,0.125,0.899658111,2.4702000000000024,0.0,-30633.0,42.375,0.0,545.6692814826965,0.0,0.125,1.614990069,0.01,0.0,-0.8199999928474426,0.14000000059604645,-96.41000366210938,-0.01947021484375,-0.0089111328125,1.03131103515625,32.7599983215332,0.0,-3.0,-3.09259033203125,2.870758056640625,Waiting,0.0,0.0,0.0,0.0,0.0,0.0,0.0,0.0,
7.751829000000027,0.0,0.0,25889.0,34.0,0.0,-248.03150296211243,0.0,0.25,0.8410643670000001,4.932250999999998,0.0,-25668.0,44.5,0.0,248.03150296211243,0.0,0.0,0.445556595,4.963769999999998,0.0,30714.0,28.25,15.0,248.03150296211243,0.0,0.125,0.899658111,2.4702000000000024,0.0,-30600.0,22.75,292.5,248.03150296211243,0.0,0.125,1.614990069,0.01,0.0,-0.7900000214576721,0.009999999776482582,-96.38999938964844,-0.0191650390625,-0.00555419921875,1.40185546875,32.7599983215332,0.0,-11.0,-3.0922393798828125,2.8688812255859375,Waiting,0.0,0.0,0.0,0.0,0.0,0.0,0.0,0.0,
7.905319000000017,0.0,0.0,25937.0,0.0,315.0,0.0,0.0,0.25,0.826415931,4.932250999999998,0.0,-25708.0,0.0,-277.5,0.0,0.0,0.0,0.482177685,4.963769999999998,0.0,30701.0,0.0,-105.0,0.0,0.0,0.125,0.904540923,2.4702000000000024,0.0,-30566.0,0.0,-127.5,0.0,0.0,0.125,1.614990069,0.01,0.0,-0.8199999928474426,0.30000001192092896,-96.4000015258789,-0.07403564453125,-0.02313232421875,1.081787109375,32.7599983215332,0.0,16.0,-3.0905914306640625,2.8744354248046875,Waiting,0.0,0.0,0.0,0.0,0.0,0.0,0.0,0.0,
8.053633000000032,0.0,0.0,25941.0,0.0,0.0,0.0,0.0,0.125,0.826415931,4.932250999999998,0.0,-25709.0,0.0,0.0,0.0,0.0,0.125,0.5017089330000001,4.963769999999998,0.0,30695.0,0.0,0.0,0.0,0.0,0.125,0.904540923,2.4702000000000024,0.0,-30585.0,0.0,-45.0,0.0,0.0,0.125,1.614990069,0.01,0.0,-0.7900000214576721,-0.10000000149011612,-96.37999725341797,-0.08245849609375,-0.02679443359375,1.05780029296875,32.7599983215332,0.0,20.0,-3.089813232421875,2.8734130859375,Waiting,0.0,0.0,0.0,0.0,0.0,0.0,0.0,0.0,
8.20071000000002,0.0,0.0,25941.0,0.0,0.0,0.0,0.0,0.125,0.825195228,4.932250999999998,0.0,-25709.0,0.0,0.0,0.0,0.0,0.0,0.5017089330000001,4.963769999999998,0.0,30695.0,0.0,0.0,0.0,0.0,0.125,0.904540923,2.4702000000000024,0.0,-30590.0,0.0,0.0,0.0,0.0,0.125,1.614990069,0.01,0.0,-0.800000011920929,-0.2800000011920929,-96.30999755859375,-0.003662109375,-0.01544189453125,1.0540771484375,32.7599983215332,0.0,0.0,-3.0895843505859375,2.869415283203125,Waiting,0.0,0.0,0.0,0.0,0.0,0.0,0.0,0.0,
8.347856000000029,0.0,0.0,25941.0,0.0,0.0,0.0,0.0,0.125,0.826415931,4.932250999999998,0.0,-25709.0,0.0,0.0,0.0,0.0,0.0,0.5017089330000001,4.963769999999998,0.0,30695.0,0.0,0.0,0.0,0.0,0.125,0.904540923,2.4702000000000024,0.0,-30590.0,0.0,0.0,0.0,0.0,0.125,1.614990069,0.01,0.0,-0.800000011920929,-0.20999999344348907,-96.33999633789062,0.00238037109375,-0.01202392578125,1.0277099609375,32.7599983215332,0.0,-3.0,-3.0895843505859375,2.8694610595703125,Waiting,0.0,0.0,0.0,0.0,0.0,0.0,0.0,0.0,
8.492434999999997,0.0,0.0,25941.0,0.0,0.0,0.0,0.0,0.125,0.826415931,4.932250999999998,0.0,-25709.0,0.0,0.0,0.0,0.0,0.0,0.5017089330000001,4.963769999999998,0.0,30695.0,0.0,0.0,0.0,0.0,0.125,0.904540923,2.4702000000000024,0.0,-30590.0,0.0,0.0,0.0,0.0,0.125,1.614990069,0.01,0.0,-0.7900000214576721,-0.23999999463558197,-96.3499984741211,-0.01788330078125,-0.0244140625,1.01837158203125,32.7599983215332,0.0,11.0,-3.0895843505859375,2.8694000244140625,Waiting,0.0,0.0,0.0,0.0,0.0,0.0,0.0,0.0,
8.63675800000003,0.0,0.0,25941.0,0.0,0.0,0.0,0.0,0.125,0.826415931,4.932250999999998,0.0,-25709.0,0.0,0.0,0.0,0.0,0.0,0.5017089330000001,4.963769999999998,0.0,30695.0,0.0,0.0,0.0,0.0,0.125,0.904540923,2.4702000000000024,0.0,-30590.0,0.0,0.0,0.0,0.0,0.125,1.614990069,0.01,0.0,-0.7799999713897705,-0.28999999165534973,-96.33999633789062,-7.32421875E-4,-0.01837158203125,1.00250244140625,32.779998779296875,0.0,4.0,-3.0895843505859375,2.8684844970703125,Waiting,0.0,0.0,0.0,0.0,0.0,0.0,0.0,0.0,
8.790516999999992,0.0,0.0,25941.0,0.0,0.0,0.0,0.0,0.125,0.826415931,4.932250999999998,0.0,-25709.0,0.0,0.0,0.0,0.0,0.0,0.5017089330000001,4.963769999999998,0.0,30695.0,0.0,0.0,0.0,0.0,0.125,0.904540923,2.4702000000000024,0.0,-30590.0,0.0,0.0,0.0,0.0,0.125,1.614990069,0.01,0.0,-0.7699999809265137,-0.33000001311302185,-96.33999633789062,-0.01641845703125,-0.019775390625,1.02374267578125,32.779998779296875,0.0,7.0,-3.0895843505859375,2.8684844970703125,Waiting,0.0,0.0,0.0,0.0,0.0,0.0,0.0,0.0,
8.937228000000003,0.0,0.0,25941.0,0.0,0.0,0.0,0.0,0.125,0.826415931,4.932250999999998,0.0,-25709.0,0.0,0.0,0.0,0.0,0.0,0.5017089330000001,4.963769999999998,0.0,30695.0,0.0,0.0,0.0,0.0,0.125,0.904540923,2.4702000000000024,0.0,-30590.0,0.0,0.0,0.0,0.0,0.125,1.614990069,0.01,0.0,-0.7599999904632568,-0.3700000047683716,-96.33999633789062,-0.00567626953125,-0.00439453125,1.0194091796875,32.779998779296875,0.0,-9.0,-3.0895843505859375,2.8684234619140625,Waiting,0.0,0.0,0.0,0.0,0.0,0.0,0.0,0.0,
9.087851000000024,0.0,0.0,25941.0,0.0,0.0,0.0,0.0,0.125,0.825195228,4.932250999999998,0.0,-25709.0,0.0,0.0,0.0,0.0,0.0,0.5017089330000001,4.963769999999998,0.0,30695.0,0.0,0.0,0.0,0.0,0.125,0.904540923,2.4702000000000024,0.0,-30590.0,0.0,0.0,0.0,0.0,0.125,1.614990069,0.01,0.0,-0.7599999904632568,-0.38999998569488525,-96.3499984741211,-0.02081298828125,-0.00177001953125,1.042724609375,32.779998779296875,0.0,-10.0,-3.0895843505859375,2.8684234619140625,Waiting,0.0,0.0,0.0,0.0,0.0,0.0,0.0,0.0,
9.231254000000016,0.0,0.0,25941.0,0.0,0.0,0.0,0.0,0.125,0.826415931,4.932250999999998,0.0,-25709.0,0.0,0.0,0.0,0.0,0.0,0.5017089330000001,4.963769999999998,0.0,30695.0,0.0,0.0,0.0,0.0,0.125,0.904540923,2.4702000000000024,0.0,-30590.0,0.0,0.0,0.0,0.0,0.125,1.614990069,0.01,0.0,-0.7599999904632568,-0.4300000071525574,-96.3499984741211,-0.01025390625,-0.0064697265625,1.0101318359375,32.779998779296875,0.0,-6.0,-3.0895843505859375,2.8684234619140625,Waiting,0.0,0.0,0.0,0.0,0.0,0.0,0.0,0.0,
9.38114400000003,0.0,0.0,25941.0,0.0,0.0,0.0,0.0,0.125,0.826415931,4.932250999999998,0.0,-25709.0,0.0,0.0,0.0,0.0,0.0,0.5017089330000001,4.963769999999998,0.0,30695.0,0.0,0.0,0.0,0.0,0.125,0.904540923,2.4702000000000024,0.0,-30590.0,0.0,0.0,0.0,0.0,0.125,1.616210772,0.01,0.0,-0.75,-0.44999998807907104,-96.36000061035156,-0.00518798828125,-0.0128173828125,1.01739501953125,32.779998779296875,0.0,0.0,-3.0895843505859375,2.8684234619140625,Waiting,0.0,0.0,0.0,0.0,0.0,0.0,0.0,0.0,
9.53413400000002,0.0,0.0,25941.0,0.0,0.0,0.0,0.0,0.125,0.826415931,4.932250999999998,0.0,-25709.0,0.0,0.0,0.0,0.0,0.0,0.50048823,4.963769999999998,0.0,30695.0,0.0,0.0,0.0,0.0,0.125,0.904540923,2.4702000000000024,0.0,-30590.0,0.0,0.0,0.0,0.0,0.125,1.616210772,0.01,0.0,-0.75,-0.47999998927116394,-96.36000061035156,-0.01409912109375,-0.00762939453125,1.01239013671875,32.779998779296875,0.0,-5.0,-3.0895843505859375,2.8684234619140625,Waiting,0.0,0.0,0.0,0.0,0.0,0.0,0.0,0.0,
9.68025,0.0,0.0,25941.0,0.0,0.0,0.0,0.0,0.125,0.8276366340000001,4.932250999999998,0.0,-25709.0,0.0,0.0,0.0,0.0,0.0,0.50048823,4.963769999999998,0.0,30695.0,0.0,0.0,0.0,0.0,0.125,0.904540923,2.4702000000000024,0.0,-30590.0,0.0,0.0,0.0,0.0,0.125,1.614990069,0.01,0.0,-0.7400000095367432,-0.5,-96.36000061035156,-0.014404296875,-0.01214599609375,1.02581787109375,32.77000045776367,0.0,0.0,-3.0895843505859375,2.8684234619140625,Waiting,0.0,0.0,0.0,0.0,0.0,0.0,0.0,0.0,
9.831315000000002,0.0,0.0,25941.0,0.0,0.0,0.0,0.0,0.125,0.8276366340000001,4.932250999999998,0.0,-25709.0,0.0,0.0,0.0,0.0,0.0,0.5017089330000001,4.963769999999998,0.0,30695.0,0.0,0.0,0.0,0.0,0.125,0.904540923,2.4702000000000024,0.0,-30590.0,0.0,0.0,0.0,0.0,0.125,1.616210772,0.01,0.0,-0.7400000095367432,-0.5199999809265137,-96.36000061035156,-0.00885009765625,-0.01275634765625,1.02410888671875,32.77000045776367,0.0,0.0,-3.0895843505859375,2.8684234619140625,Waiting,0.0,0.0,0.0,0.0,0.0,0.0,0.0,0.0,
9.976504000000016,0.0,0.0,25941.0,0.0,0.0,0.0,0.0,0.125,0.826415931,4.932250999999998,0.0,-25709.0,0.0,0.0,0.0,0.0,0.0,0.5017089330000001,4.963769999999998,0.0,30695.0,0.0,0.0,0.0,0.0,0.125,0.904540923,2.4702000000000024,0.0,-30590.0,0.0,0.0,0.0,0.0,0.125,1.614990069,0.01,0.0,-0.7400000095367432,-0.5299999713897705,-96.37000274658203,-0.01251220703125,-0.01129150390625,1.0223388671875,32.77000045776367,0.0,-1.0,-3.0895843505859375,2.8684234619140625,Waiting,0.0,0.0,0.0,0.0,0.0,0.0,0.0,0.0,
10.126243000000017,0.0,0.0,25941.0,0.0,0.0,0.0,0.0,0.125,0.826415931,4.932250999999998,0.0,-25709.0,0.0,0.0,0.0,0.0,0.0,0.5017089330000001,4.963769999999998,0.0,30695.0,0.0,0.0,0.0,0.0,0.125,0.904540923,2.4702000000000024,0.0,-30590.0,0.0,0.0,0.0,0.0,0.125,1.614990069,0.01,0.0,-0.7300000190734863,-0.5400000214576721,-96.36000061035156,-0.00738525390625,-0.00701904296875,1.015869140625,32.779998779296875,0.0,-6.0,-3.0895843505859375,2.8684234619140625,Waiting,0.0,0.0,0.0,0.0,0.0,0.0,0.0,0.0,
10.275154000000038,0.0,0.0,25941.0,0.0,0.0,0.0,0.0,0.125,0.826415931,4.932250999999998,0.0,-25709.0,0.0,0.0,0.0,0.0,0.0,0.5017089330000001,4.963769999999998,0.0,30695.0,0.0,0.0,0.0,0.0,0.125,0.904540923,2.4702000000000024,0.0,-30590.0,0.0,0.0,0.0,0.0,0.125,1.614990069,0.01,0.0,-0.7300000190734863,-0.5600000023841858,-96.37000274658203,-0.00946044921875,-0.01385498046875,1.02447509765625,32.779998779296875,0.0,0.0,-3.0895843505859375,2.8684234619140625,Waiting,0.0,0.0,0.0,0.0,0.0,0.0,0.0,0.0,
10.425671000000031,0.0,0.0,25941.0,0.0,0.0,0.0,0.0,0.125,0.826415931,4.932250999999998,0.0,-25709.0,0.0,0.0,0.0,0.0,0.0,0.5017089330000001,4.963769999999998,0.0,30695.0,0.0,0.0,0.0,0.0,0.125,0.904540923,2.4702000000000024,0.0,-30590.0,0.0,0.0,0.0,0.0,0.125,1.614990069,0.01,0.0,-0.7300000190734863,-0.5600000023841858,-96.37000274658203,-0.01043701171875,-0.0128173828125,1.020751953125,32.779998779296875,0.0,0.0,-3.0895843505859375,2.8684234619140625,Waiting,0.0,0.0,0.0,0.0,0.0,0.0,0.0,0.0,
10.576168999999995,0.0,0.0,25941.0,0.0,0.0,0.0,0.0,0.125,0.826415931,4.932250999999998,0.0,-25709.0,0.0,0.0,0.0,0.0,0.0,0.5029296360000001,4.963769999999998,0.0,30695.0,0.0,0.0,0.0,0.0,0.125,0.904540923,2.4702000000000024,0.0,-30590.0,0.0,0.0,0.0,0.0,0.125,1.614990069,0.01,0.0,-0.7200000286102295,-0.5699999928474426,-96.37999725341797,-0.00982666015625,-0.01666259765625,1.02008056640625,32.779998779296875,0.0,3.0,-3.0895843505859375,2.8684234619140625,Waiting,0.0,0.0,0.0,0.0,0.0,0.0,0.0,0.0,
10.736238000000013,0.0,0.0,25941.0,0.0,0.0,0.0,0.0,0.125,0.826415931,4.932250999999998,0.0,-25709.0,0.0,0.0,0.0,0.0,0.0,0.5017089330000001,4.963769999999998,0.0,30695.0,0.0,0.0,0.0,0.0,0.125,0.904540923,2.4702000000000024,0.0,-30590.0,0.0,0.0,0.0,0.0,0.125,1.614990069,0.01,0.0,-0.7200000286102295,-0.5799999833106995,-96.37000274658203,-0.01019287109375,-0.01177978515625,1.02178955078125,32.779998779296875,0.0,-1.0,-3.0895843505859375,2.8684234619140625,Waiting,0.0,0.0,0.0,0.0,0.0,0.0,0.0,0.0,
10.895539000000047,0.0,0.0,25941.0,0.0,0.0,0.0,0.0,0.125,0.826415931,4.932250999999998,0.0,-25709.0,0.0,0.0,0.0,0.0,0.0,0.5017089330000001,4.963769999999998,0.0,30695.0,0.0,0.0,0.0,0.0,0.125,0.904540923,2.4702000000000024,0.0,-30590.0,0.0,0.0,0.0,0.0,0.125,1.614990069,0.01,0.0,-0.7300000190734863,-0.5899999737739563,-96.37999725341797,-0.0106201171875,-0.01177978515625,1.0279541015625,32.779998779296875,0.0,-1.0,-3.0895843505859375,2.8684234619140625,Waiting,0.0,0.0,0.0,0.0,0.0,0.0,0.0,0.0,
11.05274800000002,0.0,0.0,25941.0,0.0,0.0,0.0,0.0,0.125,0.826415931,4.932250999999998,0.0,-25709.0,0.0,0.0,0.0,0.0,0.0,0.5017089330000001,4.963769999999998,0.0,30695.0,0.0,0.0,0.0,0.0,0.125,0.904540923,2.4702000000000024,0.0,-30590.0,0.0,0.0,0.0,0.0,0.125,1.614990069,0.01,0.0,-0.7200000286102295,-0.6000000238418579,-96.38999938964844,-0.01129150390625,-0.01568603515625,1.017822265625,32.779998779296875,0.0,0.0,-3.0895843505859375,2.8684234619140625,Waiting,0.0,0.0,0.0,0.0,0.0,0.0,0.0,0.0,
11.210367000000028,0.0,0.0,25941.0,0.0,0.0,0.0,0.0,0.125,0.825195228,4.932250999999998,0.0,-25709.0,0.0,0.0,0.0,0.0,0.0,0.5017089330000001,4.963769999999998,0.0,30695.0,0.0,0.0,0.0,0.0,0.125,0.904540923,2.4702000000000024,0.0,-30590.0,0.0,0.0,0.0,0.0,0.125,1.616210772,0.01,0.0,-0.7200000286102295,-0.6000000238418579,-96.38999938964844,-0.00982666015625,-0.01361083984375,1.02117919921875,32.7599983215332,0.0,0.0,-3.0895843505859375,2.8684234619140625,Waiting,0.0,0.0,0.0,0.0,0.0,0.0,0.0,0.0,
11.369789000000049,0.0,0.0,25941.0,0.0,0.0,0.0,0.0,0.125,0.826415931,4.932250999999998,0.0,-25709.0,0.0,0.0,0.0,0.0,0.0,0.5017089330000001,4.963769999999998,0.0,30695.0,0.0,0.0,0.0,0.0,0.125,0.904540923,2.4702000000000024,0.0,-30590.0,0.0,0.0,0.0,0.0,0.125,1.614990069,0.01,0.0,-0.7200000286102295,-0.6000000238418579,-96.4000015258789,-0.01153564453125,-0.01177978515625,1.02203369140625,32.7599983215332,0.0,0.0,-3.0895843505859375,2.8684234619140625,Waiting,0.0,0.0,0.0,0.0,0.0,0.0,0.0,0.0,
11.533912000000011,0.0,0.0,25941.0,0.0,0.0,0.0,0.0,0.125,0.826415931,4.932250999999998,0.0,-25709.0,0.0,0.0,0.0,0.0,0.0,0.5017089330000001,4.963769999999998,0.0,30695.0,0.0,0.0,0.0,0.0,0.125,0.904540923,2.4702000000000024,0.0,-30590.0,0.0,0.0,0.0,0.0,0.125,1.616210772,0.01,0.0,-0.7099999785423279,-0.6100000143051147,-96.4000015258789,-0.011962890625,-0.01446533203125,1.02154541015625,32.7599983215332,0.0,1.0,-3.0895843505859375,2.8684234619140625,Waiting,0.0,0.0,0.0,0.0,0.0,0.0,0.0,0.0,
11.688271000000007,0.0,0.0,25941.0,0.0,0.0,0.0,0.0,0.125,0.826415931,4.932250999999998,0.0,-25709.0,0.0,0.0,0.0,0.0,0.0,0.5017089330000001,4.963769999999998,0.0,30695.0,0.0,0.0,0.0,0.0,0.125,0.904540923,2.4702000000000024,0.0,-30590.0,0.0,0.0,0.0,0.0,0.125,1.614990069,0.01,0.0,-0.7099999785423279,-0.6100000143051147,-96.4000015258789,-0.0096435546875,-0.011474609375,1.02166748046875,32.779998779296875,0.0,-1.0,-3.0895843505859375,2.8684234619140625,Waiting,0.0,0.0,0.0,0.0,0.0,0.0,0.0,0.0,
11.848235000000043,0.0,0.0,25941.0,0.0,0.0,0.0,0.0,0.125,0.826415931,4.932250999999998,0.0,-25709.0,0.0,0.0,0.0,0.0,0.0,0.5017089330000001,4.963769999999998,0.0,30695.0,0.0,0.0,0.0,0.0,0.125,0.904540923,2.4702000000000024,0.0,-30590.0,0.0,0.0,0.0,0.0,0.125,1.614990069,0.01,0.0,-0.7200000286102295,-0.6100000143051147,-96.4000015258789,-0.0111083984375,-0.011962890625,1.02081298828125,32.779998779296875,0.0,0.0,-3.0895843505859375,2.8684234619140625,Waiting,0.0,0.0,0.0,0.0,0.0,0.0,0.0,0.0,
12.010020000000019,0.0,0.0,25941.0,0.0,0.0,0.0,0.0,0.125,0.826415931,4.932250999999998,0.0,-25709.0,0.0,0.0,0.0,0.0,0.0,0.5017089330000001,4.963769999999998,0.0,30695.0,0.0,0.0,0.0,0.0,0.125,0.9057616260000001,2.4702000000000024,0.0,-30590.0,0.0,0.0,0.0,0.0,0.125,1.614990069,0.01,0.0,-0.7099999785423279,-0.6200000047683716,-96.4000015258789,-0.0107421875,-0.015380859375,1.02093505859375,32.779998779296875,0.0,2.0,-3.0895843505859375,2.8684234619140625,Waiting,0.0,0.0,0.0,0.0,0.0,0.0,0.0,0.0,
12.155942000000039,0.0,0.0,25941.0,0.0,0.0,0.0,0.0,0.125,0.826415931,4.932250999999998,0.0,-25709.0,0.0,0.0,0.0,0.0,0.0,0.5017089330000001,4.963769999999998,0.0,30695.0,0.0,0.0,0.0,0.0,0.125,0.904540923,2.4702000000000024,0.0,-30590.0,0.0,0.0,0.0,0.0,0.125,1.614990069,0.01,0.0,-0.7099999785423279,-0.6200000047683716,-96.41000366210938,-0.01214599609375,-0.01336669921875,1.02203369140625,32.790000915527344,0.0,0.0,-3.0895843505859375,2.8684234619140625,Waiting,0.0,0.0,0.0,0.0,0.0,0.0,0.0,0.0,
12.306950000000011,0.0,0.0,25941.0,0.0,0.0,0.0,0.0,0.125,0.826415931,4.932250999999998,0.0,-25709.0,0.0,0.0,0.0,0.0,0.0,0.5017089330000001,4.963769999999998,0.0,30695.0,0.0,0.0,0.0,0.0,0.125,0.904540923,2.4702000000000024,0.0,-30590.0,0.0,0.0,0.0,0.0,0.125,1.614990069,0.01,0.0,-0.7099999785423279,-0.6200000047683716,-96.41000366210938,-0.01348876953125,-0.01568603515625,1.02587890625,32.790000915527344,0.0,3.0,-3.0895843505859375,2.8684234619140625,Waiting,0.0,0.0,0.0,0.0,0.0,0.0,0.0,0.0,
12.450497000000032,0.0,0.0,25941.0,0.0,0.0,0.0,0.0,0.125,0.826415931,4.932250999999998,0.0,-25709.0,0.0,0.0,0.0,0.0,0.0,0.5017089330000001,4.963769999999998,0.0,30695.0,0.0,0.0,0.0,0.0,0.125,0.904540923,2.4702000000000024,0.0,-30590.0,0.0,0.0,0.0,0.0,0.125,1.614990069,0.01,0.0,-0.7099999785423279,-0.6200000047683716,-96.41000366210938,-0.0101318359375,-0.0126953125,1.0177001953125,32.790000915527344,0.0,0.0,-3.0895843505859375,2.8684234619140625,Waiting,0.0,0.0,0.0,0.0,0.0,0.0,0.0,0.0,
12.595562000000035,0.0,0.0,25941.0,0.0,0.0,0.0,0.0,0.125,0.826415931,4.932250999999998,0.0,-25709.0,0.0,0.0,0.0,0.0,0.0,0.5017089330000001,4.963769999999998,0.0,30695.0,0.0,0.0,0.0,0.0,0.125,0.904540923,2.4702000000000024,0.0,-30590.0,0.0,0.0,0.0,0.0,0.125,1.614990069,0.01,0.0,-0.7099999785423279,-0.6200000047683716,-96.41000366210938,-0.01025390625,-0.016357421875,1.02001953125,32.790000915527344,0.0,3.0,-3.0895843505859375,2.8684234619140625,Waiting,0.0,0.0,0.0,0.0,0.0,0.0,0.0,0.0,
12.750842999999993,0.0,0.0,25941.0,0.0,0.0,0.0,0.0,0.125,0.826415931,4.932250999999998,0.0,-25709.0,0.0,0.0,0.0,0.0,0.0,0.5017089330000001,4.963769999999998,0.0,30695.0,0.0,0.0,0.0,0.0,0.125,0.904540923,2.4702000000000024,0.0,-30590.0,0.0,0.0,0.0,0.0,0.125,1.616210772,0.01,0.0,-0.7099999785423279,-0.6200000047683716,-96.41000366210938,-0.01043701171875,-0.01190185546875,1.0220947265625,32.779998779296875,0.0,0.0,-3.0895843505859375,2.8684234619140625,Waiting,0.0,0.0,0.0,0.0,0.0,0.0,0.0,0.0,
12.896413,0.0,0.0,25941.0,0.0,0.0,0.0,0.0,0.125,0.826415931,4.932250999999998,0.0,-25709.0,0.0,0.0,0.0,0.0,0.0,0.5017089330000001,4.963769999999998,0.0,30695.0,0.0,0.0,0.0,0.0,0.125,0.9057616260000001,2.4702000000000024,0.0,-30590.0,0.0,0.0,0.0,0.0,0.125,1.614990069,0.01,0.0,-0.7099999785423279,-0.6200000047683716,-96.41000366210938,-0.0115966796875,-0.01470947265625,1.02105712890625,32.779998779296875,0.0,1.0,-3.0895843505859375,2.8684234619140625,Waiting,0.0,0.0,0.0,0.0,0.0,0.0,0.0,0.0,
13.052092000000004,0.0,0.0,25941.0,0.0,0.0,0.0,0.0,0.125,0.826415931,4.932250999999998,0.0,-25709.0,0.0,0.0,0.0,0.0,0.0,0.5017089330000001,4.963769999999998,0.0,30695.0,0.0,0.0,0.0,0.0,0.125,0.904540923,2.4702000000000024,0.0,-30590.0,0.0,0.0,0.0,0.0,0.125,1.614990069,0.01,0.0,-0.7099999785423279,-0.6200000047683716,-96.41000366210938,-0.0135498046875,-0.01300048828125,1.02484130859375,32.779998779296875,0.0,0.0,-3.0895843505859375,2.8684234619140625,Waiting,0.0,0.0,0.0,0.0,0.0,0.0,0.0,0.0,
13.196062000000035,0.0,0.0,25941.0,0.0,0.0,0.0,0.0,0.125,0.826415931,4.932250999999998,0.0,-25709.0,0.0,0.0,0.0,0.0,0.0,0.5017089330000001,4.963769999999998,0.0,30695.0,0.0,0.0,0.0,0.0,0.125,0.904540923,2.4702000000000024,0.0,-30590.0,0.0,0.0,0.0,0.0,0.125,1.614990069,0.01,0.0,-0.7200000286102295,-0.6299999952316284,-96.41999816894531,-0.0101318359375,-0.01422119140625,1.02569580078125,32.77000045776367,0.0,1.0,-3.0895843505859375,2.8684234619140625,Waiting,0.0,0.0,0.0,0.0,0.0,0.0,0.0,0.0,
13.344331000000006,0.0,0.0,25941.0,0.0,0.0,0.0,0.0,0.125,0.826415931,4.932250999999998,0.0,-25709.0,0.0,0.0,0.0,0.0,0.0,0.5017089330000001,4.963769999999998,0.0,30695.0,0.0,0.0,0.0,0.0,0.125,0.904540923,2.4702000000000024,0.0,-30590.0,0.0,0.0,0.0,0.0,0.125,1.614990069,0.01,0.0,-0.7099999785423279,-0.6299999952316284,-96.41999816894531,-0.0108642578125,-0.0145263671875,1.0194091796875,32.77000045776367,0.0,1.0,-3.0895843505859375,2.8684234619140625,Waiting,0.0,0.0,0.0,0.0,0.0,0.0,0.0,0.0,
13.49204800000001,0.0,0.0,25941.0,0.0,0.0,0.0,0.0,0.125,0.826415931,4.932250999999998,0.0,-25709.0,0.0,0.0,0.0,0.0,0.0,0.5017089330000001,4.963769999999998,0.0,30695.0,0.0,0.0,0.0,0.0,0.125,0.904540923,2.4702000000000024,0.0,-30590.0,0.0,0.0,0.0,0.0,0.125,1.614990069,0.01,0.0,-0.7099999785423279,-0.6299999952316284,-96.43000030517578,-0.00994873046875,-0.01361083984375,1.0240478515625,32.77000045776367,0.0,0.0,-3.0895843505859375,2.8684234619140625,Waiting,0.0,0.0,0.0,0.0,0.0,0.0,0.0,0.0,
13.635938000000024,0.0,0.0,25941.0,0.0,0.0,0.0,0.0,0.125,0.826415931,4.932250999999998,0.0,-25709.0,0.0,0.0,0.0,0.0,0.0,0.50048823,4.963769999999998,0.0,30695.0,0.0,0.0,0.0,0.0,0.125,0.90332022,2.4702000000000024,0.0,-30590.0,0.0,0.0,0.0,0.0,0.125,1.616210772,0.01,0.0,-0.7099999785423279,-0.6299999952316284,-96.43000030517578,-0.0103759765625,-0.011962890625,1.0205078125,32.77000045776367,0.0,0.0,-3.0895843505859375,2.8684234619140625,Waiting,0.0,0.0,0.0,0.0,0.0,0.0,0.0,0.0,
13.78688400000002,0.0,0.0,25941.0,0.0,0.0,0.0,0.0,0.125,0.826415931,4.932250999999998,0.0,-25709.0,0.0,0.0,0.0,0.0,0.0,0.5017089330000001,4.963769999999998,0.0,30695.0,0.0,0.0,0.0,0.0,0.125,0.904540923,2.4702000000000024,0.0,-30590.0,0.0,0.0,0.0,0.0,0.125,1.616210772,0.01,0.0,-0.7099999785423279,-0.6200000047683716,-96.43000030517578,-0.0068359375,-0.011474609375,1.0247802734375,32.77000045776367,0.0,-1.0,-3.0895843505859375,2.8684234619140625,Waiting,0.0,0.0,0.0,0.0,0.0,0.0,0.0,0.0,
13.932809000000008,0.0,0.0,25941.0,0.0,0.0,0.0,0.0,0.125,0.825195228,4.932250999999998,0.0,-25709.0,0.0,0.0,0.0,0.0,0.0,0.5017089330000001,4.963769999999998,0.0,30695.0,0.0,0.0,0.0,0.0,0.125,0.904540923,2.4702000000000024,0.0,-30590.0,0.0,0.0,0.0,0.0,0.125,1.614990069,0.01,0.0,-0.7200000286102295,-0.6299999952316284,-96.43000030517578,-0.0111083984375,-0.0128173828125,1.02490234375,32.77000045776367,0.0,0.0,-3.0895843505859375,2.8684234619140625,Waiting,0.0,0.0,0.0,0.0,0.0,0.0,0.0,0.0,
14.088687000000034,0.0,0.0,25941.0,0.0,0.0,0.0,0.0,0.125,0.826415931,4.932250999999998,0.0,-25709.0,0.0,0.0,0.0,0.0,0.0,0.50048823,4.963769999999998,0.0,30695.0,0.0,0.0,0.0,0.0,0.125,0.904540923,2.4702000000000024,0.0,-30590.0,0.0,0.0,0.0,0.0,0.125,1.614990069,0.01,0.0,-0.7099999785423279,-0.6200000047683716,-96.43000030517578,-0.00946044921875,-0.013916015625,1.02447509765625,32.77000045776367,0.0,0.0,-3.0895843505859375,2.8684234619140625,Waiting,0.0,0.0,0.0,0.0,0.0,0.0,0.0,0.0,
14.235929000000004,0.0,0.0,25941.0,0.0,0.0,0.0,0.0,0.125,0.826415931,4.932250999999998,0.0,-25709.0,0.0,0.0,0.0,0.0,0.0,0.50048823,4.963769999999998,0.0,30695.0,0.0,0.0,0.0,0.0,0.125,0.904540923,2.4702000000000024,0.0,-30590.0,0.0,0.0,0.0,0.0,0.125,1.616210772,0.01,0.0,-0.7099999785423279,-0.6299999952316284,-96.44000244140625,-0.0123291015625,-0.013671875,1.02490234375,32.779998779296875,0.0,1.0,-3.0895843505859375,2.8684234619140625,Waiting,0.0,0.0,0.0,0.0,0.0,0.0,0.0,0.0,
14.387811000000045,0.0,0.0,25941.0,0.0,0.0,0.0,0.0,0.125,0.826415931,4.932250999999998,0.0,-25709.0,0.0,0.0,0.0,0.0,0.0,0.5017089330000001,4.963769999999998,0.0,30695.0,0.0,0.0,0.0,0.0,0.125,0.904540923,2.4702000000000024,0.0,-30590.0,0.0,0.0,0.0,0.0,0.125,1.614990069,0.01,0.0,-0.7099999785423279,-0.6299999952316284,-96.44000244140625,-0.01190185546875,-0.01202392578125,1.0167236328125,32.779998779296875,0.0,0.0,-3.0895843505859375,2.8684234619140625,Waiting,0.0,0.0,0.0,0.0,0.0,0.0,0.0,0.0,
14.533489000000001,0.0,0.0,25941.0,0.0,0.0,0.0,0.0,0.125,0.826415931,4.932250999999998,0.0,-25709.0,0.0,0.0,0.0,0.0,0.0,0.5017089330000001,4.963769999999998,0.0,30695.0,0.0,0.0,0.0,0.0,0.125,0.904540923,2.4702000000000024,0.0,-30590.0,0.0,0.0,0.0,0.0,0.125,1.614990069,0.01,0.0,-0.699999988079071,-0.6399999856948853,-96.44999694824219,-0.0130615234375,-0.01409912109375,1.02374267578125,32.779998779296875,0.0,1.0,-3.0895843505859375,2.8684234619140625,Waiting,0.0,0.0,0.0,0.0,0.0,0.0,0.0,0.0,
14.684996000000043,0.0,0.0,25941.0,0.0,0.0,0.0,0.0,0.125,0.826415931,4.932250999999998,0.0,-25709.0,0.0,0.0,0.0,0.0,0.0,0.5017089330000001,4.963769999999998,0.0,30695.0,0.0,0.0,0.0,0.0,0.125,0.904540923,2.4702000000000024,0.0,-30590.0,0.0,0.0,0.0,0.0,0.125,1.614990069,0.01,0.0,-0.699999988079071,-0.6399999856948853,-96.44000244140625,-0.011962890625,-0.01300048828125,1.0184326171875,32.779998779296875,0.0,0.0,-3.0895843505859375,2.8684234619140625,Waiting,0.0,0.0,0.0,0.0,0.0,0.0,0.0,0.0,
14.83278700000001,0.0,0.0,25941.0,0.0,0.0,0.0,0.0,0.125,0.826415931,4.932250999999998,0.0,-25709.0,0.0,0.0,0.0,0.0,0.0,0.5017089330000001,4.963769999999998,0.0,30695.0,0.0,0.0,0.0,0.0,0.125,0.904540923,2.4702000000000024,0.0,-30590.0,0.0,0.0,0.0,0.0,0.125,1.614990069,0.01,0.0,-0.7099999785423279,-0.6299999952316284,-96.44000244140625,-0.0108642578125,-0.0118408203125,1.01641845703125,32.779998779296875,0.0,0.0,-3.0895843505859375,2.8684234619140625,Waiting,0.0,0.0,0.0,0.0,0.0,0.0,0.0,0.0,
14.976331000000005,0.0,0.0,25941.0,0.0,0.0,0.0,0.0,0.125,0.826415931,4.932250999999998,0.0,-25709.0,0.0,0.0,0.0,0.0,0.0,0.50048823,4.963769999999998,0.0,30695.0,0.0,0.0,0.0,0.0,0.125,0.904540923,2.4702000000000024,0.0,-30590.0,0.0,0.0,0.0,0.0,0.125,1.614990069,0.01,0.0,-0.7099999785423279,-0.6399999856948853,-96.44999694824219,-0.01220703125,-0.01593017578125,1.0225830078125,32.779998779296875,0.0,3.0,-3.0895843505859375,2.8684234619140625,Waiting,0.0,0.0,0.0,0.0,0.0,0.0,0.0,0.0,
15.127375,0.0,0.0,25941.0,0.0,0.0,0.0,0.0,0.125,0.826415931,4.932250999999998,0.0,-25709.0,0.0,0.0,0.0,0.0,0.0,0.50048823,4.963769999999998,0.0,30695.0,0.0,0.0,0.0,0.0,0.125,0.904540923,2.4702000000000024,0.0,-30590.0,0.0,0.0,0.0,0.0,0.125,1.614990069,0.01,0.0,-0.7099999785423279,-0.6399999856948853,-96.44999694824219,-0.01129150390625,-0.0152587890625,1.02294921875,32.779998779296875,0.0,2.0,-3.0895843505859375,2.8684234619140625,Waiting,0.0,0.0,0.0,0.0,0.0,0.0,0.0,0.0,
15.278418000000006,0.0,0.0,25941.0,0.0,0.0,0.0,0.0,0.125,0.825195228,4.932250999999998,0.0,-25709.0,0.0,0.0,0.0,0.0,0.0,0.5017089330000001,4.963769999999998,0.0,30695.0,0.0,0.0,0.0,0.0,0.125,0.904540923,2.4702000000000024,0.0,-30590.0,0.0,0.0,0.0,0.0,0.125,1.614990069,0.01,0.0,-0.7200000286102295,-0.6399999856948853,-96.44999694824219,-0.00848388671875,-0.0147705078125,1.0220947265625,32.790000915527344,0.0,1.0,-3.0895843505859375,2.8684234619140625,Waiting,0.0,0.0,0.0,0.0,0.0,0.0,0.0,0.0,
15.427823000000034,0.0,0.0,25941.0,0.0,0.0,0.0,0.0,0.125,0.826415931,4.932250999999998,0.0,-25709.0,0.0,0.0,0.0,0.0,0.0,0.50048823,4.963769999999998,0.0,30695.0,0.0,0.0,0.0,0.0,0.125,0.904540923,2.4702000000000024,0.0,-30590.0,0.0,0.0,0.0,0.0,0.125,1.614990069,0.01,0.0,-0.7300000190734863,-0.6299999952316284,-96.44999694824219,-0.01251220703125,-0.01287841796875,1.0198974609375,32.790000915527344,0.0,0.0,-3.0895843505859375,2.8684234619140625,Waiting,0.0,0.0,0.0,0.0,0.0,0.0,0.0,0.0,
15.572194000000017,0.0,0.0,25941.0,0.0,0.0,0.0,0.0,0.125,0.826415931,4.932250999999998,0.0,-25709.0,0.0,0.0,0.0,0.0,0.0,0.50048823,4.963769999999998,0.0,30695.0,0.0,0.0,0.0,0.0,0.125,0.904540923,2.4702000000000024,0.0,-30590.0,0.0,0.0,0.0,0.0,0.125,1.616210772,0.01,0.0,-0.7300000190734863,-0.6299999952316284,-96.45999908447266,-0.010009765625,-0.01544189453125,1.02117919921875,32.790000915527344,0.0,2.0,-3.0895843505859375,2.8684234619140625,Waiting,0.0,0.0,0.0,0.0,0.0,0.0,0.0,0.0,
15.716695999999997,0.0,0.0,25941.0,0.0,0.0,0.0,0.0,0.125,0.826415931,4.932250999999998,0.0,-25709.0,0.0,0.0,0.0,0.0,0.0,0.5017089330000001,4.963769999999998,0.0,30695.0,0.0,0.0,0.0,0.0,0.125,0.904540923,2.4702000000000024,0.0,-30590.0,0.0,0.0,0.0,0.0,0.125,1.614990069,0.01,0.0,-0.7300000190734863,-0.6299999952316284,-96.45999908447266,-0.0128173828125,-0.0120849609375,1.01861572265625,32.79999923706055,0.0,0.0,-3.0895843505859375,2.8684234619140625,Waiting,0.0,0.0,0.0,0.0,0.0,0.0,0.0,0.0,
15.867212,0.0,0.0,25941.0,0.0,0.0,0.0,0.0,0.125,0.826415931,4.932250999999998,0.0,-25709.0,0.0,0.0,0.0,0.0,0.0,0.5017089330000001,4.963769999999998,0.0,30695.0,0.0,0.0,0.0,0.0,0.125,0.904540923,2.4702000000000024,0.0,-30590.0,0.0,0.0,0.0,0.0,0.125,1.614990069,0.01,0.0,-0.7400000095367432,-0.6399999856948853,-96.45999908447266,-0.01251220703125,-0.01348876953125,1.01849365234375,32.79999923706055,0.0,0.0,-3.0895843505859375,2.8684234619140625,Waiting,0.0,0.0,0.0,0.0,0.0,0.0,0.0,0.0,
16.009003000000025,0.0,0.0,25941.0,0.0,0.0,0.0,0.0,0.125,0.8276366340000001,4.932250999999998,0.0,-25709.0,0.0,0.0,0.0,0.0,0.0,0.50048823,4.963769999999998,0.0,30695.0,0.0,0.0,0.0,0.0,0.125,0.904540923,2.4702000000000024,0.0,-30590.0,0.0,0.0,0.0,0.0,0.125,1.614990069,0.01,0.0,-0.7400000095367432,-0.6399999856948853,-96.44999694824219,-0.0101318359375,-0.0130615234375,1.02423095703125,32.79999923706055,0.0,0.0,-3.0895843505859375,2.8684234619140625,Waiting,0.0,0.0,0.0,0.0,0.0,0.0,0.0,0.0,
16.158628000000025,0.0,0.0,25941.0,0.0,0.0,0.0,0.0,0.125,0.826415931,4.932250999999998,0.0,-25709.0,0.0,0.0,0.0,0.0,0.0,0.5017089330000001,4.963769999999998,0.0,30695.0,0.0,0.0,0.0,0.0,0.125,0.904540923,2.4702000000000024,0.0,-30590.0,0.0,0.0,0.0,0.0,0.125,1.614990069,0.01,0.0,-0.7400000095367432,-0.6399999856948853,-96.44000244140625,-0.0128173828125,-0.01361083984375,1.02044677734375,32.79999923706055,0.0,0.0,-3.0895843505859375,2.8684234619140625,Waiting,0.0,0.0,0.0,0.0,0.0,0.0,0.0,0.0,
16.310187000000035,0.0,0.0,25941.0,0.0,0.0,0.0,0.0,0.125,0.826415931,4.932250999999998,0.0,-25709.0,0.0,0.0,0.0,0.0,0.0,0.50048823,4.963769999999998,0.0,30695.0,0.0,0.0,0.0,0.0,0.125,0.9057616260000001,2.4702000000000024,0.0,-30590.0,0.0,0.0,0.0,0.0,0.125,1.614990069,0.01,0.0,-0.7400000095367432,-0.6299999952316284,-96.44000244140625,-0.01190185546875,-0.01434326171875,1.0250244140625,32.79999923706055,0.0,1.0,-3.0895843505859375,2.8684234619140625,Waiting,0.0,0.0,0.0,0.0,0.0,0.0,0.0,0.0,
16.460862000000024,0.0,0.0,25941.0,0.0,0.0,0.0,0.0,0.125,0.826415931,4.932250999999998,0.0,-25709.0,0.0,0.0,0.0,0.0,0.0,0.5017089330000001,4.963769999999998,0.0,30695.0,0.0,0.0,0.0,0.0,0.125,0.904540923,2.4702000000000024,0.0,-30590.0,0.0,0.0,0.0,0.0,0.125,1.614990069,0.01,0.0,-0.7400000095367432,-0.6299999952316284,-96.41999816894531,-0.01092529296875,-0.0145263671875,1.01910400390625,32.79999923706055,0.0,1.0,-3.0895843505859375,2.8684234619140625,Waiting,0.0,0.0,0.0,0.0,0.0,0.0,0.0,0.0,
16.611034000000043,0.0,0.0,25941.0,0.0,0.0,0.0,0.0,0.125,0.826415931,4.932250999999998,0.0,-25709.0,0.0,0.0,0.0,0.0,0.0,0.5017089330000001,4.963769999999998,0.0,30695.0,0.0,0.0,0.0,0.0,0.125,0.904540923,2.4702000000000024,0.0,-30590.0,0.0,0.0,0.0,0.0,0.125,1.614990069,0.01,0.0,-0.7400000095367432,-0.6200000047683716,-96.41000366210938,-0.0093994140625,-0.0123291015625,1.01971435546875,32.79999923706055,0.0,-1.0,-3.0895843505859375,2.8684234619140625,Waiting,0.0,0.0,0.0,0.0,0.0,0.0,0.0,0.0,
16.757439000000012,0.0,0.0,25941.0,0.0,0.0,0.0,0.0,0.125,0.825195228,4.932250999999998,0.0,-25709.0,0.0,0.0,0.0,0.0,0.0,0.5017089330000001,4.963769999999998,0.0,30695.0,0.0,0.0,0.0,0.0,0.125,0.904540923,2.4702000000000024,0.0,-30590.0,0.0,0.0,0.0,0.0,0.125,1.614990069,0.01,0.0,-0.7400000095367432,-0.6200000047683716,-96.4000015258789,-0.0103759765625,-0.01190185546875,1.02398681640625,32.790000915527344,0.0,-1.0,-3.0895843505859375,2.8684234619140625,Waiting,0.0,0.0,0.0,0.0,0.0,0.0,0.0,0.0,
16.905723,0.0,0.0,25941.0,0.0,0.0,0.0,0.0,0.125,0.825195228,4.932250999999998,0.0,-25709.0,0.0,0.0,0.0,0.0,0.0,0.5017089330000001,4.963769999999998,0.0,30695.0,0.0,0.0,0.0,0.0,0.125,0.904540923,2.4702000000000024,0.0,-30590.0,0.0,0.0,0.0,0.0,0.125,1.614990069,0.01,0.0,-0.7400000095367432,-0.6299999952316284,-96.4000015258789,-0.0103759765625,-0.01373291015625,1.0213623046875,32.790000915527344,0.0,0.0,-3.0895843505859375,2.8684234619140625,Waiting,0.0,0.0,0.0,0.0,0.0,0.0,0.0,0.0,
17.048146000000006,0.0,0.0,25941.0,0.0,0.0,0.0,0.0,0.125,0.826415931,4.932250999999998,0.0,-25709.0,0.0,0.0,0.0,0.0,0.0,0.5017089330000001,4.963769999999998,0.0,30695.0,0.0,0.0,0.0,0.0,0.125,0.904540923,2.4702000000000024,0.0,-30590.0,0.0,0.0,0.0,0.0,0.125,1.614990069,0.01,0.0,-0.7400000095367432,-0.6200000047683716,-96.37999725341797,-0.010986328125,-0.0146484375,1.0211181640625,32.790000915527344,0.0,1.0,-3.0895843505859375,2.8684234619140625,Waiting,0.0,0.0,0.0,0.0,0.0,0.0,0.0,0.0,
17.193188000000024,0.0,0.0,25941.0,0.0,0.0,0.0,0.0,0.125,0.826415931,4.932250999999998,0.0,-25709.0,0.0,0.0,0.0,0.0,0.0,0.5017089330000001,4.963769999999998,0.0,30695.0,0.0,0.0,0.0,0.0,0.125,0.904540923,2.4702000000000024,0.0,-30590.0,0.0,0.0,0.0,0.0,0.125,1.614990069,0.01,0.0,-0.7400000095367432,-0.6200000047683716,-96.37000274658203,-0.00933837890625,-0.01220703125,1.0263671875,32.790000915527344,0.0,-1.0,-3.0895843505859375,2.8684234619140625,Waiting,0.0,0.0,0.0,0.0,0.0,0.0,0.0,0.0,
17.344602000000013,0.0,0.0,25941.0,0.0,0.0,0.0,0.0,0.125,0.826415931,4.932250999999998,0.0,-25709.0,0.0,0.0,0.0,0.0,0.0,0.5017089330000001,4.963769999999998,0.0,30695.0,0.0,0.0,0.0,0.0,0.125,0.904540923,2.4702000000000024,0.0,-30590.0,0.0,0.0,0.0,0.0,0.125,1.614990069,0.01,0.0,-0.7400000095367432,-0.6200000047683716,-96.37000274658203,-0.01123046875,-0.011962890625,1.02325439453125,32.779998779296875,0.0,-1.0,-3.0895843505859375,2.8684234619140625,Waiting,0.0,0.0,0.0,0.0,0.0,0.0,0.0,0.0,
17.491814000000012,0.0,0.0,25941.0,0.0,0.0,0.0,0.0,0.125,0.826415931,4.932250999999998,0.0,-25709.0,0.0,0.0,0.0,0.0,0.0,0.5017089330000001,4.963769999999998,0.0,30695.0,0.0,0.0,0.0,0.0,0.125,0.9057616260000001,2.4702000000000024,0.0,-30590.0,0.0,0.0,0.0,0.0,0.125,1.614990069,0.01,0.0,-0.75,-0.6299999952316284,-96.36000061035156,-0.0115966796875,-0.0133056640625,1.0240478515625,32.779998779296875,0.0,0.0,-3.0895843505859375,2.8684234619140625,Waiting,0.0,0.0,0.0,0.0,0.0,0.0,0.0,0.0,
17.641358999999998,0.0,0.0,25941.0,0.0,0.0,0.0,0.0,0.125,0.826415931,4.932250999999998,0.0,-25709.0,0.0,0.0,0.0,0.0,0.0,0.5017089330000001,4.963769999999998,0.0,30695.0,0.0,0.0,0.0,0.0,0.125,0.904540923,2.4702000000000024,0.0,-30590.0,0.0,0.0,0.0,0.0,0.125,1.614990069,0.01,0.0,-0.75,-0.6299999952316284,-96.3499984741211,-0.0126953125,-0.01385498046875,1.02667236328125,32.779998779296875,0.0,0.0,-3.0895843505859375,2.8684234619140625,Waiting,0.0,0.0,0.0,0.0,0.0,0.0,0.0,0.0,
