Time,ClimberA1,ClimberA2,FRpos,FRCurrent,FRspeed,FRsetpoint,FRApos,FRACurrent,FREncpos,FREncSetpoint,FREncSpeed,FLpos,FLCurrent,FLspeed,FLsetpoint,FLApos,FLACurrent,FLEncpos,FLEncSetpoint,FLEncSpeed,BRpos,BRCurrent,BRspeed,BRsetpoint,BRApos,BRACurrent,BREncpos,BREncSetpoint,BREncSpeed,BLpos,BLCurrent,BLspeed,BLsetpoint,BLApos,BLACurrent,BLEncpos,BLEncSetpoint,BLEncSpeed,navx_Pitch,navx_Roll,navx_Yaw,navx_XAcc,navx_YAcc,navx_ZAcc,navx_Temp,navx_Bar,navx_Alt,navx_XDis,navx_YDis,GearPlacerState,ShootOutputV,ShootOutputCurrent,ShootEncPos,ShootEncVelocity,ShootSpeed,ShootSetpoint,CarouselSetpoint,CarouselCurrent,
0.1885460000000021,0.0,0.0,9664.0,5.25,150.0,840.0,0.0,0.25,0.8312987430000001,4.917454221913275,0.0,-8445.0,5.0,-172.5,-840.0,0.0,0.0,0.526122993,4.94887866475296,0.0,9907.0,5.375,157.5,840.0,0.0,0.125,3.354491844,4.925578774871826,0.0,-8445.0,4.25,-180.0,-840.0,0.0,0.25,1.650390456,4.9431259747823075,0.0,0.14000000059604645,0.009999999776482582,0.0,0.10614013671875,0.01678466796875,1.21527099609375,34.369998931884766,0.0,105.0,-0.2152557373046875,-0.1627349853515625,Closing,0.0,0.0,0.0,0.0,0.0,0.0,0.0,0.0,
0.25101999999998953,0.0,0.0,9664.0,2.5,255.0,0.0,0.0,0.125,0.8300780400000001,0.01,-0.004882811999999959,-8445.0,3.125,-247.5,-0.0,0.0,0.0,0.526122993,0.01,-0.004882811999999959,9907.0,3.125,262.5,0.0,0.0,0.0,3.352050438,0.01,-0.004882811999999959,-8445.0,2.375,-232.5,-0.0,0.0,0.25,1.649169753,0.01,0.010986326999999907,0.15000000596046448,0.25,-0.09000000357627869,-0.010009765625,-0.04571533203125,0.98736572265625,34.380001068115234,0.0,-14.0,-0.2096405029296875,-0.16265869140625,Closing,0.0,0.0,0.0,0.0,0.0,0.0,0.0,0.0,
0.2953029999999853,0.0,0.0,9707.0,0.375,262.5,0.0,0.0,0.125,0.8447264760000001,0.01,0.0,-8485.0,0.25,-247.5,-0.0,0.0,0.125,0.526122993,0.01,0.0,9957.0,0.5,307.5,0.0,0.0,0.0,3.353271141,0.01,0.0,-8482.0,0.375,-240.0,-0.0,0.0,0.25,1.649169753,0.01,0.0,0.15000000596046448,0.15000000596046448,-0.10000000149011612,-0.09844970703125,-0.047607421875,1.1654052734375,34.380001068115234,0.0,-101.0,-0.2053985595703125,-0.162567138671875,Closing,0.0,0.0,0.0,0.0,0.0,0.0,0.0,0.0,
0.33367999999999304,0.0,0.0,9707.0,0.125,270.0,0.0,0.0,0.25,0.8447264760000001,0.01,0.014648435999999987,-8485.0,0.0,-232.5,-0.0,0.0,0.125,0.526122993,0.01,0.0,9957.0,0.375,300.0,0.0,0.0,0.0,3.354491844,0.01,0.0,-8482.0,0.375,-180.0,-0.0,0.0,0.25,1.649169753,0.01,0.0,0.11999999731779099,0.07000000029802322,-0.09000000357627869,-0.04339599609375,0.02691650390625,0.84478759765625,34.380001068115234,0.0,-44.0,-0.203094482421875,-0.162506103515625,Closing,0.0,0.0,0.0,0.0,0.0,0.0,0.0,0.0,
0.3737520000000077,0.0,0.0,9707.0,0.125,300.0,0.0,0.0,0.25,0.8447264760000001,0.01,0.0,-8485.0,0.0,-225.0,-0.0,0.0,0.125,0.526122993,0.01,0.0,9957.0,0.125,277.5,0.0,0.0,0.0,3.354491844,0.01,0.0,-8482.0,0.375,-157.5,-0.0,0.0,0.25,1.649169753,0.01,0.0,0.14000000059604645,-0.10999999940395355,-0.15000000596046448,-0.08953857421875,0.04461669921875,1.079833984375,34.380001068115234,0.0,-87.0,-0.2002716064453125,-0.1623992919921875,Closing,0.0,0.0,0.0,0.0,0.0,0.0,0.0,0.0,
0.41430100000000675,0.0,0.0,9751.0,0.125,300.0,0.0,0.0,0.25,0.845947179,0.01,0.0,-8518.0,0.0,-202.5,-0.0,0.0,0.125,0.526122993,0.01,0.0,9996.0,0.125,247.5,0.0,0.0,0.0,3.353271141,0.01,0.0012207029999995456,-8517.0,0.125,-217.5,-0.0,0.0,0.25,1.649169753,0.01,0.0,0.15000000596046448,-0.2199999988079071,-0.23000000417232513,-0.0748291015625,-0.010498046875,1.11492919921875,34.380001068115234,0.0,-70.0,-0.1983184814453125,-0.1622772216796875,Closing,0.0,0.0,0.0,0.0,0.0,0.0,0.0,0.0,
0.45525599999999394,0.0,0.0,9751.0,0.0,247.5,0.0,0.0,0.25,0.8447264760000001,0.01,0.0,-8518.0,0.0,-180.0,-0.0,0.0,0.125,0.526122993,0.01,0.0,9996.0,0.375,210.0,0.0,0.0,0.0,3.354491844,0.01,0.0012207029999995456,-8517.0,0.125,-277.5,-0.0,0.0,0.25,1.649169753,0.01,0.0,0.12999999523162842,-0.25999999046325684,-0.2800000011920929,-0.0887451171875,-0.0086669921875,1.00732421875,34.380001068115234,0.0,-83.0,-0.197418212890625,-0.162261962890625,Closing,0.0,0.0,0.0,0.0,0.0,0.0,0.0,0.0,
0.49583699999999953,0.0,0.0,9751.0,0.125,187.5,0.0,0.0,0.25,0.8447264760000001,0.01,0.0,-8518.0,0.0,-150.0,-0.0,0.0,0.125,0.526122993,0.01,0.0,9996.0,0.125,165.0,0.0,0.0,0.0,3.353271141,0.01,-0.0012207029999995456,-8517.0,0.125,-232.5,-0.0,0.0,0.25,1.649169753,0.01,0.0,0.10999999940395355,-0.4099999964237213,-0.30000001192092896,-0.02587890625,-0.02813720703125,0.9857177734375,34.380001068115234,0.0,-18.0,-0.196746826171875,-0.1622772216796875,Closing,0.0,0.0,0.0,0.0,0.0,0.0,0.0,0.0,
0.5337829999999958,0.0,0.0,9774.0,0.125,150.0,0.0,0.0,0.25,0.8447264760000001,0.01,0.0,-8544.0,0.0,-165.0,-0.0,0.0,0.125,0.52490229,0.01,0.0,10021.0,0.125,157.5,0.0,0.0,0.0,3.353271141,0.01,0.0,-8543.0,0.125,-142.5,-0.0,0.0,0.25,1.651611159,0.01,0.0,0.10999999940395355,-0.5400000214576721,-0.30000001192092896,-0.06060791015625,-0.0146484375,0.99041748046875,34.380001068115234,0.0,-51.0,-0.196685791015625,-0.1622772216796875,Closing,0.0,0.0,0.0,0.0,0.0,0.0,0.0,0.0,
0.5740029999999969,0.0,0.0,9774.0,0.125,127.5,0.0,0.0,0.25,0.8447264760000001,0.01,0.0,-8544.0,0.0,-172.5,-0.0,0.0,0.125,0.531005805,0.01,0.0,10021.0,0.125,150.0,0.0,0.0,0.0,3.353271141,0.01,0.0,-8543.0,0.125,-120.0,-0.0,0.0,0.25,1.649169753,0.01,0.0,0.10999999940395355,-0.5899999737739563,-0.3100000023841858,-0.07781982421875,0.00787353515625,1.09765625,34.380001068115234,0.0,-80.0,-0.1973724365234375,-0.1622161865234375,Closing,0.0,0.0,0.0,0.0,0.0,0.0,0.0,0.0,
0.613554999999993,0.0,0.0,9774.0,0.125,127.5,0.0,0.0,0.25,0.839843664,0.01,0.0,-8544.0,0.0,-142.5,-0.0,0.0,0.125,0.526122993,0.01,0.0,10021.0,0.125,135.0,0.0,0.0,0.0,3.359374656,0.01,0.0,-8543.0,0.125,-105.0,-0.0,0.0,0.25,1.64794905,0.01,0.0,0.10000000149011612,-0.699999988079071,-0.3400000035762787,-0.07586669921875,-0.014404296875,0.95098876953125,34.380001068115234,0.0,-64.0,-0.1982421875,-0.162200927734375,Closing,0.0,0.0,0.0,0.0,0.0,0.0,0.0,0.0,
0.6560480000000097,0.0,0.0,9794.0,0.0,120.0,0.0,0.0,0.25,0.8447264760000001,0.01,0.0,-8559.0,0.0,-97.5,-0.0,0.0,0.125,0.526122993,0.01,0.0,10037.0,0.125,105.0,0.0,0.0,0.0,3.354491844,0.01,0.0,-8559.0,0.125,-105.0,-0.0,0.0,0.25,1.649169753,0.01,0.0,0.09000000357627869,-0.8299999833106995,-0.36000001430511475,-0.0758056640625,0.01300048828125,1.03253173828125,34.380001068115234,0.0,-60.0,-0.20013427734375,-0.162200927734375,Closing,0.0,0.0,0.0,0.0,0.0,0.0,0.0,0.0,
0.7001929999999993,0.0,0.0,9794.0,0.0,112.5,0.0,0.0,0.25,0.8447264760000001,0.01,0.0,-8559.0,0.0,-75.0,-0.0,0.0,0.125,0.52490229,0.01,0.0,10037.0,0.125,67.5,0.0,0.0,0.0,3.359374656,0.01,0.0024414059999999793,-8559.0,0.125,-75.0,-0.0,0.0,0.25,1.650390456,0.01,0.0,0.09000000357627869,-0.9399999976158142,-0.3499999940395355,-0.080810546875,0.0147705078125,1.053466796875,34.380001068115234,0.0,-63.0,-0.2026824951171875,-0.162200927734375,Closing,0.0,0.0,0.0,0.0,0.0,0.0,0.0,0.0,
0.7355489999999991,0.0,0.0,9794.0,0.0,97.5,0.0,0.0,0.25,0.8447264760000001,0.01,0.0,-8559.0,0.0,-52.5,-0.0,0.0,0.125,0.52490229,0.01,0.0,10037.0,0.375,30.0,0.0,0.0,0.0,3.359374656,0.01,0.0,-8559.0,0.125,-45.0,-0.0,0.0,0.25,1.651611159,0.01,0.0,0.09000000357627869,-1.0299999713897705,-0.33000001311302185,-0.0584716796875,-0.0068359375,0.98822021484375,34.380001068115234,0.0,-40.0,-0.2059326171875,-0.162200927734375,Closing,0.0,0.0,0.0,0.0,0.0,0.0,0.0,0.0,
0.7766339999999909,0.0,0.0,9806.0,0.0,75.0,0.0,0.0,0.25,0.8447264760000001,0.01,0.0,-8563.0,0.0,-22.5,-0.0,0.0,0.125,0.526122993,0.01,0.0,10043.0,0.375,30.0,0.0,0.0,0.0,3.358153953,0.01,0.0,-8563.0,0.125,-22.5,-0.0,0.0,0.25,1.649169753,0.01,0.0,0.07999999821186066,-1.0800000429153442,-0.33000001311302185,-0.04608154296875,-0.00616455078125,1.0538330078125,34.400001525878906,0.0,-25.0,-0.2083892822265625,-0.162200927734375,Closing,0.0,0.0,0.0,0.0,0.0,0.0,0.0,0.0,
0.8216700000000128,0.0,0.0,9806.0,0.125,52.5,0.0,0.0,0.25,0.845947179,0.01,0.0,-8563.0,0.0,0.0,-0.0,0.0,0.125,0.526122993,0.01,0.0,10043.0,0.375,52.5,0.0,0.0,0.0,3.358153953,0.01,0.0024414059999999793,-8563.0,0.125,-7.5,-0.0,0.0,0.25,1.64794905,0.01,0.0,0.09000000357627869,-1.0800000429153442,-0.3499999940395355,-0.00994873046875,0.00238037109375,1.0638427734375,34.400001525878906,0.0,10.0,-0.2108917236328125,-0.162139892578125,Closing,0.0,0.0,0.0,0.0,0.0,0.0,0.0,0.0,
0.8661810000000114,0.0,0.0,9806.0,0.125,22.5,0.0,0.0,0.25,0.8447264760000001,0.01,0.0,-8563.0,0.125,0.0,-0.0,0.0,0.125,0.526122993,0.01,0.0,10043.0,0.125,75.0,0.0,0.0,0.0,3.358153953,0.01,-0.003662109000000413,-8563.0,0.125,0.0,-0.0,0.0,0.25,1.649169753,0.01,-0.0012207029999999897,0.09000000357627869,-1.0399999618530273,-0.3700000047683716,0.001220703125,0.00189208984375,1.01904296875,34.400001525878906,0.0,19.0,-0.2107391357421875,-0.1620941162109375,Closing,0.0,0.0,0.0,0.0,0.0,0.0,0.0,0.0,
0.9096719999999914,0.0,0.0,9807.0,0.125,0.0,0.0,0.0,0.25,0.8447264760000001,0.01,0.0,-8563.0,0.125,0.0,-0.0,0.0,0.125,0.52490229,0.01,0.0,10055.0,0.125,67.5,0.0,0.0,0.0,3.348388329,0.01,-0.003662109000000413,-8563.0,0.375,0.0,-0.0,0.0,0.25,1.649169753,0.01,-0.0012207029999999897,0.09000000357627869,-0.9900000095367432,-0.3799999952316284,0.01165771484375,-0.0045166015625,1.01318359375,34.400001525878906,0.0,29.0,-0.210296630859375,-0.1620941162109375,Closing,0.0,0.0,0.0,0.0,0.0,0.0,0.0,0.0,
0.952359999999986,0.0,0.0,9807.0,0.125,0.0,0.0,0.0,0.25,0.8447264760000001,0.01,0.0,-8563.0,0.125,0.0,-0.0,0.0,0.125,0.52490229,0.01,0.0,10055.0,0.375,45.0,0.0,0.0,0.0,3.358153953,0.01,0.0024414059999999793,-8563.0,0.375,0.0,-0.0,0.0,0.25,1.650390456,0.01,0.0012207029999999897,0.07999999821186066,-0.949999988079071,-0.3799999952316284,-0.0087890625,0.00494384765625,1.02227783203125,34.400001525878906,0.0,8.0,-0.2098388671875,-0.1620941162109375,Closing,0.0,0.0,0.0,0.0,0.0,0.0,0.0,0.0,
0.9945389999999897,0.0,0.0,9807.0,0.125,0.0,0.0,0.0,0.25,0.8447264760000001,0.01,0.0,-8563.0,0.125,0.0,-0.0,0.0,0.125,0.526122993,0.01,0.0,10055.0,0.375,15.0,0.0,0.0,0.0,3.358153953,0.01,0.0012207030000004337,-8563.0,0.375,0.0,-0.0,0.0,0.25,1.649169753,0.01,0.0,0.09000000357627869,-0.9399999976158142,-0.3700000047683716,-0.01922607421875,4.2724609375E-4,1.029541015625,34.400001525878906,0.0,-2.0,-0.2098388671875,-0.1620941162109375,Closing,0.0,0.0,0.0,0.0,0.0,0.0,0.0,0.0,
1.034429999999993,0.0,0.0,9807.0,0.125,0.0,0.0,0.0,0.25,0.845947179,0.01,0.0,-8563.0,0.125,0.0,-0.0,0.0,0.125,0.5175780720000001,0.01,0.0,10056.0,0.375,7.5,0.0,0.0,0.0,3.359374656,0.01,0.0,-8563.0,0.375,0.0,-0.0,0.0,0.25,1.649169753,0.01,0.0,0.07999999821186066,-0.949999988079071,-0.36000001430511475,-0.0206298828125,3.662109375E-4,1.01788330078125,34.400001525878906,0.0,-3.0,-0.2098388671875,-0.1620941162109375,Closing,0.0,0.0,0.0,0.0,0.0,0.0,0.0,0.0,
1.0759619999999996,0.0,0.0,9807.0,0.125,0.0,0.0,0.0,0.25,0.8447264760000001,0.01,0.0,-8563.0,0.125,0.0,-0.0,0.0,0.125,0.51269526,0.01,0.0,10056.0,0.375,7.5,0.0,0.0,0.0,3.358153953,0.01,-0.0012207030000004337,-8563.0,0.375,0.0,-0.0,0.0,0.25,1.649169753,0.01,0.0,0.07999999821186066,-0.9599999785423279,-0.36000001430511475,-0.02130126953125,3.0517578125E-4,1.023681640625,34.400001525878906,0.0,-4.0,-0.2098388671875,-0.1620941162109375,Closing,0.0,0.0,0.0,0.0,0.0,0.0,0.0,0.0,
1.1211870000000053,0.0,0.0,9807.0,0.125,0.0,0.0,0.0,0.25,0.8447264760000001,0.01,0.0,-8563.0,0.125,0.0,-0.0,0.0,0.125,0.526122993,0.01,0.0,10057.0,0.375,7.5,0.0,0.0,0.0,3.359374656,0.01,0.0012207030000004337,-8563.0,0.375,0.0,-0.0,0.0,0.25,1.649169753,0.01,0.0,0.09000000357627869,-0.9700000286102295,-0.3700000047683716,-0.0185546875,-0.00250244140625,1.02630615234375,34.400001525878906,0.0,-1.0,-0.2098388671875,-0.1620941162109375,Closing,0.0,0.0,0.0,0.0,0.0,0.0,0.0,0.0,
1.1639929999999876,0.0,0.0,9807.0,0.125,0.0,0.0,0.0,0.25,0.845947179,0.01,0.0,-8563.0,0.125,0.0,-0.0,0.0,0.125,0.526122993,0.01,0.0,10057.0,0.375,0.0,0.0,0.0,0.0,3.358153953,0.01,-0.0012207030000004337,-8563.0,0.125,0.0,-0.0,0.0,0.25,1.649169753,0.01,0.0,0.09000000357627869,-0.9599999785423279,-0.3700000047683716,-0.0078125,-0.00262451171875,1.0223388671875,34.400001525878906,0.0,9.0,-0.2098388671875,-0.1620941162109375,Closing,0.0,0.0,0.0,0.0,0.0,0.0,0.0,0.0,
1.208576000000001,0.0,0.0,9807.0,0.125,0.0,0.0,0.0,0.25,0.8447264760000001,0.01,0.0,-8563.0,0.125,0.0,-0.0,0.0,0.125,0.526122993,0.01,0.0,10057.0,0.375,0.0,0.0,0.0,0.0,3.359374656,0.01,-0.0012207030000004337,-8563.0,0.375,0.0,-0.0,0.0,0.25,1.650390456,0.01,0.0,0.09000000357627869,-0.9399999976158142,-0.3700000047683716,-0.00787353515625,0.00384521484375,1.01806640625,34.400001525878906,0.0,8.0,-0.2098388671875,-0.1620941162109375,Closing,0.0,0.0,0.0,0.0,0.0,0.0,0.0,0.0,
1.252581999999995,0.0,0.0,9807.0,0.125,0.0,0.0,0.0,0.25,0.8447264760000001,0.01,0.0,-8563.0,0.125,0.0,-0.0,0.0,0.125,0.52490229,0.01,0.0,10057.0,0.375,0.0,0.0,0.0,0.0,3.359374656,0.01,0.0,-8563.0,0.375,0.0,-0.0,0.0,0.25,1.649169753,0.01,0.0,0.09000000357627869,-0.9399999976158142,-0.3700000047683716,-0.014404296875,0.0048828125,1.0179443359375,34.400001525878906,0.0,2.0,-0.2098388671875,-0.1620941162109375,Closing,0.0,0.0,0.0,0.0,0.0,0.0,0.0,0.0,
1.2937719999999973,0.0,0.0,9807.0,0.125,0.0,0.0,0.0,0.25,0.8447264760000001,0.01,0.0,-8563.0,0.125,0.0,-0.0,0.0,0.125,0.526122993,0.01,0.0,10057.0,0.375,0.0,0.0,0.0,0.0,3.358153953,0.01,0.0012207030000004337,-8563.0,0.375,0.0,-0.0,0.0,0.25,1.649169753,0.01,0.0,0.09000000357627869,-0.9399999976158142,-0.3700000047683716,-0.014892578125,-6.103515625E-5,1.0234375,34.369998931884766,0.0,1.0,-0.2098388671875,-0.1620941162109375,Closing,0.0,0.0,0.0,0.0,0.0,0.0,0.0,0.0,
1.3544659999999857,0.0,0.0,9807.0,0.125,0.0,0.0,0.0,0.25,0.8447264760000001,0.01,0.0,-8563.0,0.125,0.0,-0.0,0.0,0.125,0.526122993,0.01,0.0,10057.0,0.375,0.0,0.0,0.0,0.0,3.354491844,0.01,0.0,-8563.0,0.375,0.0,-0.0,0.0,0.25,1.649169753,0.01,0.0,0.09000000357627869,-0.9300000071525574,-0.3700000047683716,-0.01287841796875,0.0010986328125,1.02197265625,34.369998931884766,0.0,3.0,-0.2098388671875,-0.1620941162109375,Closing,0.0,0.0,0.0,0.0,0.0,0.0,0.0,0.0,
1.397883999999991,0.0,0.0,9807.0,0.125,0.0,0.0,0.0,0.25,0.8435057730000001,0.01,0.0,-8563.0,0.125,0.0,-0.0,0.0,0.125,0.523681587,0.01,0.0,10057.0,0.375,0.0,0.0,0.0,0.0,3.358153953,0.01,-0.0012207030000004337,-8563.0,0.375,0.0,-0.0,0.0,0.25,1.649169753,0.01,0.0,0.09000000357627869,-0.9300000071525574,-0.3799999952316284,-0.0123291015625,0.00250244140625,1.02093505859375,34.369998931884766,0.0,4.0,-0.2098388671875,-0.1620941162109375,Closing,0.0,0.0,0.0,0.0,0.0,0.0,0.0,0.0,
1.4362930000000051,0.0,0.0,9807.0,0.125,0.0,0.0,0.0,0.25,0.8435057730000001,0.01,0.0,-8563.0,0.125,0.0,-0.0,0.0,0.125,0.52490229,0.01,0.0,10057.0,0.375,0.0,0.0,0.0,0.0,3.358153953,0.01,0.0,-8563.0,0.375,0.0,-0.0,0.0,0.25,1.650390456,0.01,0.0,0.09000000357627869,-0.9100000262260437,-0.3799999952316284,-0.0128173828125,0.0013427734375,1.01995849609375,34.369998931884766,0.0,3.0,-0.2098388671875,-0.1620941162109375,Closing,0.0,0.0,0.0,0.0,0.0,0.0,0.0,0.0,
1.485146999999997,0.0,0.0,9807.0,0.125,0.0,0.0,0.0,0.25,0.845947179,0.01,0.0,-8563.0,0.125,0.0,-0.0,0.0,0.125,0.52490229,0.01,0.0,10057.0,0.375,0.0,0.0,0.0,0.0,3.358153953,0.01,0.0012207030000004337,-8563.0,0.375,0.0,-0.0,0.0,0.25,1.650390456,0.01,0.0,0.09000000357627869,-0.9100000262260437,-0.3799999952316284,-0.0198974609375,0.00299072265625,1.0159912109375,34.369998931884766,0.0,-3.0,-0.2098388671875,-0.1620941162109375,Closing,0.0,0.0,0.0,0.0,0.0,0.0,0.0,0.0,
1.5286570000000066,0.0,0.0,9807.0,0.125,0.0,0.0,0.0,0.25,0.8544921000000001,0.01,0.0,-8563.0,0.125,0.0,-0.0,0.0,0.125,0.526122993,0.01,0.0,10057.0,0.375,0.0,0.0,0.0,0.0,3.358153953,0.01,-0.0012207030000004337,-8563.0,0.375,0.0,-0.0,0.0,0.25,1.650390456,0.01,0.0,0.09000000357627869,-0.9100000262260437,-0.3700000047683716,-0.01580810546875,-0.00262451171875,1.01611328125,34.369998931884766,0.0,0.0,-0.2098388671875,-0.1620941162109375,Closing,0.0,0.0,0.0,0.0,0.0,0.0,0.0,0.0,
1.571265000000014,0.0,0.0,9807.0,0.125,0.0,0.0,0.0,0.25,0.8447264760000001,0.01,0.0,-8563.0,0.125,0.0,-0.0,0.0,0.125,0.527343696,0.01,0.0,10057.0,0.375,0.0,0.0,0.0,0.0,3.358153953,0.01,0.0012207030000004337,-8563.0,0.375,0.0,-0.0,0.0,0.25,1.650390456,0.01,0.0,0.09000000357627869,-0.9100000262260437,-0.3799999952316284,-0.01348876953125,0.00341796875,1.01995849609375,34.369998931884766,0.0,2.0,-0.2098388671875,-0.1620941162109375,Closing,0.0,0.0,0.0,0.0,0.0,0.0,0.0,0.0,
1.6145130000000063,0.0,0.0,9807.0,0.125,0.0,0.0,0.0,0.25,0.8447264760000001,0.01,0.0,-8563.0,0.125,0.0,-0.0,0.0,0.125,0.526122993,0.01,0.0,10057.0,0.375,0.0,0.0,0.0,0.0,3.358153953,0.01,0.0,-8563.0,0.375,0.0,-0.0,0.0,0.25,1.649169753,0.01,0.0,0.09000000357627869,-0.8999999761581421,-0.3799999952316284,-0.01373291015625,7.9345703125E-4,1.02081298828125,34.369998931884766,0.0,2.0,-0.2098388671875,-0.1620941162109375,Closing,0.0,0.0,0.0,0.0,0.0,0.0,0.0,0.0,
1.6570840000000027,0.0,0.0,9807.0,0.125,0.0,0.0,0.0,0.25,0.8447264760000001,0.01,0.0,-8563.0,0.125,0.0,-0.0,0.0,0.125,0.526122993,0.01,0.0,10057.0,0.375,0.0,0.0,0.0,0.0,3.359374656,0.01,0.0,-8563.0,0.375,0.0,-0.0,0.0,0.25,1.651611159,0.01,0.0,0.09000000357627869,-0.8899999856948853,-0.3799999952316284,-0.01214599609375,0.00384521484375,1.01507568359375,34.369998931884766,0.0,3.0,-0.2098388671875,-0.1620941162109375,Closing,0.0,0.0,0.0,0.0,0.0,0.0,0.0,0.0,
1.702304999999993,0.0,0.0,9807.0,0.125,0.0,0.0,0.0,0.25,0.852050694,0.01,0.0,-8563.0,0.125,0.0,-0.0,0.0,0.125,0.527343696,0.01,0.0,10057.0,0.375,0.0,0.0,0.0,0.0,3.352050438,0.01,0.0,-8563.0,0.375,0.0,-0.0,0.0,0.25,1.650390456,0.01,0.0,0.09000000357627869,-0.8899999856948853,-0.3799999952316284,-0.0147705078125,0.0029296875,1.01556396484375,34.369998931884766,0.0,1.0,-0.2098388671875,-0.1620941162109375,Closing,0.0,0.0,0.0,0.0,0.0,0.0,0.0,0.0,
1.7412330000000074,0.0,0.0,9807.0,0.125,0.0,0.0,0.0,0.25,0.8447264760000001,0.01,0.0,-8563.0,0.125,0.0,-0.0,0.0,0.125,0.521240181,0.01,0.0,10057.0,0.375,0.0,0.0,0.0,0.0,3.358153953,0.01,0.0,-8563.0,0.375,0.0,-0.0,0.0,0.25,1.643066238,0.01,0.0,0.07999999821186066,-0.8899999856948853,-0.3799999952316284,-0.011962890625,0.00384521484375,1.0235595703125,34.369998931884766,0.0,3.0,-0.2098388671875,-0.1620941162109375,Closing,0.0,0.0,0.0,0.0,0.0,0.0,0.0,0.0,
1.7875080000000017,0.0,0.0,9807.0,0.125,0.0,0.0,0.0,0.25,0.845947179,0.01,0.0,-8563.0,0.125,0.0,-0.0,0.0,0.125,0.526122993,0.01,0.0,10057.0,0.375,0.0,0.0,0.0,0.0,3.359374656,0.01,0.0,-8563.0,0.375,0.0,-0.0,0.0,0.25,1.650390456,0.01,0.0,0.09000000357627869,-0.8799999952316284,-0.3799999952316284,-0.01324462890625,0.0010986328125,1.01800537109375,34.38999938964844,0.0,2.0,-0.2098388671875,-0.1620941162109375,Closing,0.0,0.0,0.0,0.0,0.0,0.0,0.0,0.0,
1.828939000000013,0.0,0.0,9807.0,0.125,0.0,0.0,0.0,0.25,0.8447264760000001,0.01,0.0,-8563.0,0.125,0.0,-0.0,0.0,0.125,0.526122993,0.01,0.0,10057.0,0.375,0.0,0.0,0.0,0.0,3.353271141,0.01,-0.0012207030000004337,-8563.0,0.375,0.0,-0.0,0.0,0.25,1.649169753,0.01,0.0,0.09000000357627869,-0.8799999952316284,-0.3799999952316284,-0.0133056640625,0.00274658203125,1.01654052734375,34.38999938964844,0.0,2.0,-0.2098388671875,-0.1620941162109375,Closing,0.0,0.0,0.0,0.0,0.0,0.0,0.0,0.0,
1.8729290000000036,0.0,0.0,9807.0,0.375,0.0,-777.1653592586517,0.0,0.25,0.837402258,4.932250999999998,0.0,-8563.0,0.25,0.0,777.1653592586517,0.0,0.125,0.526122993,4.963769999999998,0.0,10057.0,0.625,0.0,-777.1653592586517,0.0,0.0,3.350829735,0.01,0.0,-8563.0,0.375,0.0,777.1653592586517,0.0,0.25,1.649169753,0.01,0.0,0.09000000357627869,-0.8799999952316284,-0.3799999952316284,-0.031005859375,0.00482177734375,1.02392578125,34.38999938964844,0.0,-15.0,-0.2098388671875,-0.1620941162109375,Closing,0.0,0.0,0.0,0.0,0.0,0.0,0.0,0.0,
1.914189000000013,0.0,0.0,9807.0,3.5,-45.0,-1686.6141200065613,0.0,0.25,0.8447264760000001,4.932250999999998,0.0,-8563.0,3.5,15.0,1686.6141200065613,0.0,0.125,0.526122993,4.963769999999998,0.0,10057.0,2.125,-15.0,-1686.6141200065613,0.0,0.0,3.359374656,0.01,0.0012207030000004337,-8563.0,3.5,7.5,1686.6141200065613,0.0,0.25,1.6113279600000001,0.01,0.0,0.09000000357627869,-0.9300000071525574,-0.3700000047683716,-0.1387939453125,0.0589599609375,1.00396728515625,34.38999938964844,0.0,-122.0,-0.2100372314453125,-0.16204833984375,Closing,0.0,0.0,0.0,0.0,0.0,0.0,0.0,0.0,
1.9549890000000014,0.0,0.0,9807.0,9.25,-202.5,-1818.8976466655731,0.0,0.25,0.8557128030000001,4.932250999999998,0.009765624000000028,-8563.0,14.375,90.0,1818.8976466655731,0.0,0.125,0.52490229,4.963769999999998,0.0,10057.0,8.125,-97.5,-1818.8976466655731,0.0,0.0,3.359374656,0.01,0.0,-8539.0,10.125,75.0,1818.8976466655731,0.0,0.25,1.572265464,0.01,4.917716801,0.05000000074505806,-1.7799999713897705,-0.38999998569488525,-0.3660888671875,0.21044921875,0.79730224609375,34.38999938964844,0.0,-342.0,-0.2135162353515625,-0.161590576171875,Closing,0.0,0.0,0.0,0.0,0.0,0.0,0.0,0.0,
1.99393299999999,0.0,0.0,9763.0,12.5,-322.5,-1587.401568889618,0.0,0.25,0.860595615,4.932250999999998,0.0,-8538.0,18.75,187.5,1587.401568889618,0.0,0.125,0.532226508,4.963769999999998,0.0,10027.0,12.625,-217.5,-1587.401568889618,0.0,0.0,3.358153953,0.01,0.0,-8539.0,14.125,180.0,1587.401568889618,0.0,0.25,1.5771482760000002,0.01,0.0,0.07000000029802322,-2.5299999713897705,-0.2800000011920929,-0.38909912109375,0.04461669921875,1.3409423828125,34.38999938964844,0.0,-329.0,-0.2216796875,-0.160400390625,Closing,0.0,0.0,0.0,0.0,0.0,0.0,0.0,0.0,
2.037064000000013,0.0,0.0,9763.0,9.25,-375.0,-942.519673705101,0.0,0.25,0.8581542090000001,4.932250999999998,0.0,-8538.0,14.5,307.5,942.519673705101,0.0,0.125,0.520019478,4.963769999999998,0.0,10027.0,11.25,-337.5,-942.519673705101,0.0,0.0,3.358153953,0.01,0.0,-8539.0,11.125,300.0,942.519673705101,0.0,0.25,1.573486167,0.01,0.0,0.14000000059604645,-2.7899999618530273,-0.15000000596046448,-0.31842041015625,-0.0462646484375,0.92376708984375,34.38999938964844,0.0,-272.0,-0.229400634765625,-0.15985107421875,Closing,0.0,0.0,0.0,0.0,0.0,0.0,0.0,0.0,
2.0860570000000007,0.0,0.0,9679.0,3.5,-465.0,0.0,0.0,0.25,0.8447264760000001,4.932250999999998,0.0,-8461.0,6.0,435.0,0.0,0.0,0.125,0.510253854,4.963769999999998,-0.004882811999999959,9949.0,4.25,-435.0,0.0,0.0,0.0,3.3630367650000004,0.01,0.0,-8465.0,4.375,420.0,0.0,0.0,0.25,1.5820310880000001,0.01,0.0,0.14000000059604645,-3.059999942779541,0.03999999910593033,-0.1258544921875,-0.02020263671875,1.15435791015625,34.38999938964844,0.0,-63.0,-0.24249267578125,-0.15911865234375,Closing,0.0,0.0,0.0,0.0,0.0,0.0,0.0,0.0,
2.1291609999999928,0.0,0.0,9679.0,0.25,-525.0,0.0,0.0,0.25,0.8300780400000001,4.932250999999998,-0.014648436000000098,-8461.0,0.875,465.0,0.0,0.0,0.125,0.510253854,4.963769999999998,-0.009765623999999917,9949.0,0.375,-510.0,0.0,0.0,0.0,3.358153953,0.01,-4.935517188,-8465.0,0.75,442.5,0.0,0.0,0.25,1.6296385050000002,0.01,0.003662109000000413,0.14000000059604645,-2.8299999237060547,0.15000000596046448,0.20965576171875,-0.1226806640625,1.1361083984375,34.38999938964844,0.0,265.0,-0.255950927734375,-0.15789794921875,Closing,0.0,0.0,0.0,0.0,0.0,0.0,0.0,0.0,
2.1699290000000038,0.0,0.0,9679.0,0.0,-435.0,0.0,0.0,0.25,0.8312987430000001,4.932250999999998,-0.009765623999999917,-8461.0,0.0,367.5,0.0,0.0,0.0,0.511474557,4.963769999999998,0.0,9949.0,0.0,-510.0,0.0,0.0,0.0,3.358153953,0.01,4.935517188,-8465.0,0.0,390.0,0.0,0.0,0.125,1.6345213170000001,0.01,-4.905509771,0.10000000149011612,-2.259999990463257,0.25,-0.03961181640625,0.2464599609375,1.08575439453125,34.38999938964844,0.0,4.0,-0.26641845703125,-0.15643310546875,Closing,0.0,0.0,0.0,0.0,0.0,0.0,0.0,0.0,
2.211943999999989,0.0,0.0,9607.0,0.0,-412.5,0.0,0.0,0.125,0.8312987430000001,4.932250999999998,-0.009765623999999917,-8396.0,0.0,390.0,0.0,0.0,0.0,0.506591745,4.963769999999998,0.0,9873.0,0.0,-472.5,0.0,0.0,0.0,3.358153953,0.01,4.935517188,-8392.0,0.0,465.0,0.0,0.0,0.125,1.625976396,0.01,-4.905509771,0.10999999940395355,-2.3399999141693115,0.18000000715255737,0.14703369140625,-0.10638427734375,1.2318115234375,34.38999938964844,0.0,197.0,-0.27215576171875,-0.155517578125,Closing,0.0,0.0,0.0,0.0,0.0,0.0,0.0,0.0,
2.2548770000000076,0.0,0.0,9607.0,0.0,-495.0,0.0,0.0,0.125,0.8300780400000001,4.932250999999998,0.0,-8396.0,0.0,472.5,0.0,0.0,0.0,0.506591745,4.963769999999998,-0.004882811999999959,9873.0,0.0,-472.5,0.0,0.0,0.0,3.358153953,0.01,0.0,-8392.0,0.0,502.5,0.0,0.0,0.125,1.6540525650000002,0.01,0.0012207029999999897,0.07000000029802322,-1.9800000190734863,0.1599999964237213,0.26953125,0.0416259765625,0.87408447265625,34.38999938964844,0.0,299.0,-0.2798309326171875,-0.1544647216796875,Closing,0.0,0.0,0.0,0.0,0.0,0.0,0.0,0.0,
2.2956989999999933,0.0,0.0,9607.0,0.0,-480.0,0.0,0.0,0.125,0.8312987430000001,4.932250999999998,0.0,-8396.0,0.0,442.5,0.0,0.0,0.0,0.506591745,4.963769999999998,0.0,9873.0,0.0,-472.5,0.0,0.0,0.0,3.358153953,0.01,0.0,-8392.0,0.0,397.5,0.0,0.0,0.25,1.6296385050000002,0.01,0.019531248000000057,0.10999999940395355,-1.75,0.23999999463558197,0.04364013671875,-0.03802490234375,0.78045654296875,34.40999984741211,0.0,67.0,-0.285797119140625,-0.1534423828125,Closing,0.0,0.0,0.0,0.0,0.0,0.0,0.0,0.0,
2.3402390000000013,0.0,0.0,9552.0,0.0,-360.0,0.0,0.0,0.125,0.8312987430000001,4.932250999999998,0.0,-8337.0,0.0,375.0,0.0,0.0,0.0,0.506591745,4.963769999999998,0.0,9803.0,0.0,-435.0,0.0,0.0,0.0,3.358153953,0.01,0.0,-8334.0,0.0,390.0,0.0,0.0,0.125,1.624755693,0.01,4.93358594,0.11999999731779099,-1.6200000047683716,0.17000000178813934,0.0352783203125,0.0218505859375,1.30218505859375,34.40999984741211,0.0,72.0,-0.2904815673828125,-0.1523895263671875,Closing,0.0,0.0,0.0,0.0,0.0,0.0,0.0,0.0,
2.3797490000000106,0.0,0.0,9552.0,0.0,-307.5,0.0,0.0,0.125,0.8312987430000001,4.932250999999998,0.0,-8337.0,0.0,352.5,0.0,0.0,0.0,0.506591745,4.963769999999998,0.0,9803.0,0.0,-405.0,0.0,0.0,0.0,3.3728023890000003,0.01,0.0,-8334.0,0.0,360.0,0.0,0.0,0.125,1.619872881,0.01,-0.004882811999999959,0.10999999940395355,-1.2999999523162842,0.17000000178813934,0.2047119140625,-0.0267333984375,0.99005126953125,34.40999984741211,0.0,227.0,-0.29376220703125,-0.1522216796875,Closing,0.0,0.0,0.0,0.0,0.0,0.0,0.0,0.0,
2.4179519999999903,0.0,0.0,9552.0,0.0,-300.0,0.0,0.0,0.125,0.8312987430000001,4.932250999999998,0.0,-8337.0,0.0,307.5,0.0,0.0,0.0,0.506591745,4.963769999999998,0.0,9803.0,0.0,-360.0,0.0,0.0,0.0,3.3776852010000002,0.01,-4.9257515640000005,-8334.0,0.0,277.5,0.0,0.0,0.125,1.621093584,0.01,-0.004882811999999959,0.12999999523162842,-1.1699999570846558,0.10999999940395355,0.09722900390625,0.05780029296875,1.00433349609375,34.40999984741211,0.0,117.0,-0.294921875,-0.1520538330078125,Closing,0.0,0.0,0.0,0.0,0.0,0.0,0.0,0.0,
2.4632140000000073,0.0,0.0,9511.0,0.125,-255.0,-165.35433009266853,0.0,0.125,0.8312987430000001,4.932250999999998,0.0,-8295.0,0.0,262.5,165.35433009266853,0.0,0.0,0.506591745,4.963769999999998,0.0,9755.0,0.125,-307.5,-165.35433009266853,0.0,0.0,3.382568013,0.01,0.004882811999999959,-8296.0,0.125,247.5,165.35433009266853,0.0,0.125,1.624755693,0.01,0.0,0.10000000149011612,-0.9900000095367432,0.07000000029802322,0.008056640625,-0.01904296875,0.97772216796875,34.40999984741211,0.0,24.0,-0.2956695556640625,-0.1520538330078125,Closing,0.0,0.0,0.0,0.0,0.0,0.0,0.0,0.0,
2.504328999999998,0.0,0.0,9511.0,0.0,-210.0,-264.56692814826965,0.0,0.125,0.8312987430000001,4.932250999999998,0.0,-8295.0,0.0,210.0,264.56692814826965,0.0,0.0,0.506591745,4.963769999999998,0.0,9755.0,0.0,-255.0,-264.56692814826965,0.0,0.125,3.382568013,0.01,0.0,-8296.0,0.125,210.0,264.56692814826965,0.0,0.125,1.624755693,0.01,0.0,0.09000000357627869,-0.7099999785423279,0.07000000029802322,0.0765380859375,-0.015625,0.94378662109375,34.40999984741211,0.0,88.0,-0.295196533203125,-0.152191162109375,Closing,0.0,0.0,0.0,0.0,0.0,0.0,0.0,0.0,
2.550451000000001,0.0,0.0,9511.0,0.125,-157.5,-446.45669907331467,0.0,0.125,0.8300780400000001,4.932250999999998,0.0,-8295.0,0.0,157.5,446.45669907331467,0.0,0.0,0.506591745,4.963769999999998,0.0,9755.0,0.125,-202.5,-446.45669907331467,0.0,0.125,3.382568013,0.01,0.0,-8296.0,0.125,150.0,446.45669907331467,0.0,0.125,1.624755693,0.01,0.0,0.07000000029802322,-0.5600000023841858,0.05999999865889549,0.00396728515625,0.00518798828125,1.0107421875,34.40999984741211,0.0,14.0,-0.2936859130859375,-0.1523590087890625,Closing,0.0,0.0,0.0,0.0,0.0,0.0,0.0,0.0,
2.588540000000008,0.0,0.0,9490.0,0.125,-127.5,-462.9921242594719,0.0,0.125,0.8312987430000001,4.932250999999998,0.0,-8274.0,0.25,127.5,462.9921242594719,0.0,0.0,0.506591745,4.963769999999998,0.0,9729.0,0.125,-165.0,-462.9921242594719,0.0,0.125,3.382568013,0.01,0.0,-8277.0,0.375,112.5,462.9921242594719,0.0,0.125,1.624755693,0.01,0.0,0.07000000029802322,-0.49000000953674316,0.12999999523162842,0.02716064453125,0.05889892578125,0.96002197265625,34.40999984741211,0.0,35.0,-0.2917022705078125,-0.1523895263671875,Closing,0.0,0.0,0.0,0.0,0.0,0.0,0.0,0.0,
2.6289649999999964,0.0,0.0,9490.0,0.125,-142.5,-479.5275494456291,0.0,0.125,0.8312987430000001,4.932250999999998,0.0,-8274.0,0.375,135.0,479.5275494456291,0.0,0.0,0.505371042,4.963769999999998,0.0,9729.0,0.125,-127.5,-479.5275494456291,0.0,0.125,3.382568013,0.01,0.0,-8277.0,0.5,105.0,479.5275494456291,0.0,0.125,1.624755693,0.01,0.0,0.09000000357627869,-0.5,0.14000000059604645,-0.0146484375,0.0133056640625,1.1173095703125,34.40999984741211,0.0,-4.0,-0.2901763916015625,-0.1522216796875,Closing,0.0,0.0,0.0,0.0,0.0,0.0,0.0,0.0,
2.667896000000008,0.0,0.0,9490.0,0.125,-165.0,-479.5275494456291,0.0,0.125,0.8276366340000001,4.932250999999998,0.0,-8274.0,0.5,187.5,479.5275494456291,0.0,0.0,0.50048823,4.963769999999998,0.0,9729.0,0.375,-120.0,-479.5275494456291,0.0,0.125,3.382568013,0.01,0.0,-8277.0,0.75,142.5,479.5275494456291,0.0,0.125,1.624755693,0.01,0.0,0.09000000357627869,-0.4300000071525574,0.09000000357627869,-0.0599365234375,-0.023193359375,1.101806640625,34.40999984741211,0.0,-51.0,-0.2877349853515625,-0.1522369384765625,Closing,0.0,0.0,0.0,0.0,0.0,0.0,0.0,0.0,
2.7087300000000103,0.0,0.0,9458.0,0.375,-210.0,-512.5984311103821,0.0,0.125,0.839843664,4.932250999999998,0.0012207029999999897,-8243.0,0.875,202.5,512.5984311103821,0.0,0.0,0.506591745,4.963769999999998,0.0,9702.0,0.375,-172.5,-512.5984311103821,0.0,0.125,3.382568013,0.01,0.0,-8247.0,1.125,180.0,512.5984311103821,0.0,0.125,1.619872881,0.01,0.0,0.07999999821186066,-0.5099999904632568,0.07000000029802322,-0.02191162109375,-0.0400390625,0.94097900390625,34.40999984741211,0.0,-13.0,-0.286468505859375,-0.1523590087890625,Closing,0.0,0.0,0.0,0.0,0.0,0.0,0.0,0.0,
2.7479530000000087,0.0,0.0,9458.0,0.625,-172.5,-512.5984311103821,0.0,0.25,0.836181555,4.932250999999998,0.0,-8243.0,1.5,142.5,512.5984311103821,0.0,0.0,0.505371042,4.963769999999998,0.0,9702.0,0.875,-217.5,-512.5984311103821,0.0,0.125,3.382568013,0.01,0.0,-8247.0,1.5,142.5,512.5984311103821,0.0,0.125,1.624755693,0.01,0.0,0.10999999940395355,-0.6499999761581421,0.10000000149011612,-0.1051025390625,-0.02056884765625,1.11114501953125,34.40999984741211,0.0,-92.0,-0.2850494384765625,-0.152679443359375,Closing,0.0,0.0,0.0,0.0,0.0,0.0,0.0,0.0,
2.788926999999996,0.0,0.0,9458.0,1.0,-105.0,-512.5984311103821,0.0,0.25,0.836181555,4.932250999999998,0.0,-8243.0,1.75,105.0,512.5984311103821,0.0,0.0,0.51269526,4.963769999999998,0.0,9702.0,1.0,-195.0,-512.5984311103821,0.0,0.125,3.383788716,0.01,0.0,-8247.0,2.0,97.5,512.5984311103821,0.0,0.125,1.614990069,0.01,0.0,0.10000000149011612,-0.7300000190734863,0.11999999731779099,-0.0777587890625,0.00274658203125,1.0794677734375,34.40999984741211,0.0,-63.0,-0.284271240234375,-0.1527862548828125,Closing,0.0,0.0,0.0,0.0,0.0,0.0,0.0,0.0,
2.828923999999999,0.0,0.0,9443.0,2.125,-82.5,-605.7086641542506,0.0,0.25,0.836181555,0.09693121150822676,0.0,-8228.0,2.75,82.5,430.6118097694382,0.0,0.0,0.506591745,0.13756269132468446,0.0,9677.0,1.25,-165.0,-605.7086641542506,0.0,0.125,3.38134731,4.843308640023542,0.0,-8232.0,2.375,105.0,430.6118097694382,0.0,0.25,1.614990069,4.82059721470016,0.0,0.09000000357627869,-0.8799999952316284,0.07000000029802322,-0.10540771484375,-0.03070068359375,1.020751953125,34.40999984741211,0.0,-89.0,-0.2843475341796875,-0.152801513671875,Closing,0.0,0.0,0.0,0.0,0.0,0.0,0.0,0.0,
2.868551999999996,0.0,0.0,9443.0,3.0,-120.0,-619.633334617499,0.0,0.25,0.839843664,0.10835786952209488,0.0012207029999999897,-8228.0,2.875,120.0,420.19836210931936,0.0,0.25,0.506591745,0.16141852757522382,-0.0012207029999995456,9677.0,2.375,-127.5,-619.633334617499,0.0,0.125,3.3679195770000003,4.831863103036127,0.0,-8232.0,2.375,120.0,420.19836210931936,0.0,0.25,1.6101072570000001,4.79676910902037,-0.006103515000000392,0.07999999821186066,-1.0,0.07999999821186066,-0.0841064453125,-0.0184326171875,1.07415771484375,34.40999984741211,0.0,-65.0,-0.2849884033203125,-0.15289306640625,Closing,0.0,0.0,0.0,0.0,0.0,0.0,0.0,0.0,
2.909804000000004,0.0,0.0,9443.0,3.375,-165.0,-690.9851755986525,0.0,0.25,0.8557128030000001,0.15847244313824924,0.008544921000000039,-8228.0,2.5,150.0,374.7931978130443,0.0,0.25,0.506591745,0.29913783603433586,0.0,9677.0,3.375,-150.0,-690.9851755986525,0.0,0.125,3.339843408,4.781665730782922,-0.018310544999999845,-8232.0,2.125,150.0,374.7931978130443,0.0,0.25,1.595458821,4.659209888641448,0.0012207030000004337,0.10000000149011612,-1.190000057220459,0.20999999344348907,-0.13909912109375,-0.0062255859375,1.030029296875,34.40999984741211,0.0,-117.0,-0.28692626953125,-0.15289306640625,Closing,0.0,0.0,0.0,0.0,0.0,0.0,0.0,0.0,
2.949600000000006,0.0,0.0,9407.0,4.0,-217.5,-751.0304513335293,0.0,0.25,0.874023348,0.17980082248279378,0.0,-8197.0,2.375,187.5,368.65953923352106,0.0,0.25,0.518798775,0.37988671008679525,0.0,9643.0,4.0,-210.0,-751.0304513335293,0.0,0.125,3.304443021,4.7603021129715435,0.0,-8202.0,2.0,180.0,368.65953923352106,0.0,0.25,1.549072107,4.578554878930666,0.0,0.10999999940395355,-1.3600000143051147,0.3100000023841858,-0.11236572265625,0.00244140625,1.0587158203125,34.40999984741211,0.0,-87.0,-0.28997802734375,-0.15277099609375,Closing,0.0,0.0,0.0,0.0,0.0,0.0,0.0,0.0,
2.987445000000007,0.0,0.0,9407.0,5.125,-277.5,-765.7995061850492,0.0,0.25,0.902099517,0.1874978821871715,0.0,-8197.0,2.125,232.5,362.70298893934444,0.0,0.75,0.6213378270000001,0.41321470784703346,0.0,9643.0,4.875,-262.5,-765.7995061850492,0.0,0.125,3.2666012280000003,4.7525923362867175,0.0,-8202.0,1.875,232.5,362.70298893934444,0.0,0.5,1.436767431,4.545265622398783,0.0,0.10999999940395355,-1.4700000286102295,0.36000001430511475,-0.17364501953125,0.01190185546875,0.9803466796875,34.40999984741211,0.0,-148.0,-0.292724609375,-0.15277099609375,Closing,0.0,0.0,0.0,0.0,0.0,0.0,0.0,0.0,
3.0280409999999973,0.0,0.0,9407.0,5.375,-330.0,-780.6394257502401,0.0,0.25,0.9350584980000001,0.1949030042952307,0.0,-8197.0,1.75,277.5,357.41277870749803,0.0,0.5,0.748290939,0.4475921600473089,0.0,9643.0,5.25,-322.5,-780.6394257502401,0.0,0.125,3.237304356,4.745174979533654,0.0,-8202.0,1.625,292.5,357.41277870749803,0.0,0.5,1.331786973,4.510928131336755,0.0,0.11999999731779099,-1.659999966621399,0.5899999737739563,-0.1097412109375,-0.0670166015625,1.0360107421875,34.40999984741211,0.0,-80.0,-0.2981719970703125,-0.1526641845703125,Closing,0.0,0.0,0.0,0.0,0.0,0.0,0.0,0.0,
3.0685020000000076,0.0,0.0,9340.0,5.5,-412.5,-780.6394257502401,0.0,0.25,0.954589746,0.1949030042952307,0.029296871999999974,-8148.0,1.75,300.0,357.41277870749803,0.0,0.5,0.850829991,0.4475921600473089,0.12573240900000027,9579.0,5.375,-397.5,-780.6394257502401,0.0,0.125,3.2128902960000003,4.745174979533654,-0.032958981000000165,-8150.0,1.5,322.5,357.41277870749803,0.0,0.25,1.254882684,4.510928131336755,-0.10986326999999996,0.07000000029802322,-1.8300000429153442,1.1699999570846558,-0.044189453125,0.0802001953125,1.0242919921875,34.40999984741211,0.0,-9.0,-0.3045654296875,-0.1528167724609375,Closing,0.0,0.0,0.0,0.0,0.0,0.0,0.0,0.0,
3.1101210000000137,0.0,0.0,9340.0,5.0,-517.5,-795.5461897702108,0.0,0.25,0.977783103,0.202031216361511,0.024414060000000015,-8148.0,1.5,315.0,352.81890380235126,0.0,0.25,0.943603419,0.4829332505279144,0.10131834899999959,9579.0,5.0,-480.0,-795.5461897702108,0.0,0.125,3.192138345,4.738034990329485,-0.024414059999999793,-8150.0,1.5,322.5,352.81890380235126,0.0,0.25,1.1914061280000001,4.475628122149616,-0.08178710100000064,0.07000000029802322,-1.8700000047683716,2.1500000953674316,-0.06134033203125,0.035888671875,1.10638427734375,34.40999984741211,0.0,-23.0,-0.31158447265625,-0.1528472900390625,Closing,0.0,0.0,0.0,0.0,0.0,0.0,0.0,0.0,
3.147833000000013,0.0,0.0,9340.0,4.625,-562.5,-855.7718755545365,0.0,0.25,1.0083006780000001,0.22804519655325553,0.0,-8148.0,1.5,315.0,341.9045496508172,0.0,0.25,0.996093648,0.631535216828131,0.0,9579.0,4.625,-585.0,-855.7718755545365,0.0,0.125,3.183593424,4.711978030183033,0.0,-8150.0,1.5,315.0,341.9045496508172,0.0,0.25,1.14746082,4.327198894180457,0.0,0.009999999776482582,-1.9299999475479126,2.9800000190734863,-0.11712646484375,-0.01300048828125,1.00994873046875,34.40999984741211,0.0,-83.0,-0.3166046142578125,-0.152923583984375,Closing,0.0,0.0,0.0,0.0,0.0,0.0,0.0,0.0,
3.1874279999999855,0.0,0.0,9229.0,4.375,-667.5,-932.18244866422,0.0,0.25,1.01318349,0.2557970652483101,0.0,-8096.0,1.5,322.5,346.01238765898086,0.0,0.25,1.053466689,0.8216565562488013,0.0,9472.0,4.375,-690.0,-932.18244866422,0.0,0.125,3.1689449880000002,4.684180310216826,0.0,-8097.0,1.25,330.0,346.01238765898086,0.0,0.25,1.0839842640000001,4.137298556161636,0.0,-0.009999999776482582,-2.0399999618530273,4.389999866485596,-0.09710693359375,0.02032470703125,1.16461181640625,34.40999984741211,0.0,-53.0,-0.324859619140625,-0.1530303955078125,Closing,0.0,0.0,0.0,0.0,0.0,0.0,0.0,0.0,
3.227747000000003,0.0,0.0,9229.0,4.375,-750.0,-1072.0674803147301,0.0,0.25,1.018066302,0.29568092048992384,0.0,-8096.0,1.375,330.0,399.0765622264944,0.0,0.5,1.14746082,1.1189972995247566,0.0,9472.0,4.5,-735.0,-1072.0674803147301,0.0,0.125,3.1542965520000004,4.6442305593960205,0.0,-8097.0,1.5,367.5,399.0765622264944,0.0,0.625,0.9704588850000001,3.8403034485796597,0.0,0.0,-2.0799999237060547,5.429999828338623,-0.13604736328125,0.0013427734375,0.994873046875,34.40999984741211,0.0,-99.0,-0.33062744140625,-0.1530303955078125,Closing,0.0,0.0,0.0,0.0,0.0,0.0,0.0,0.0,
3.268945999999996,0.0,0.0,9229.0,4.625,-825.0,-1134.9682542049081,0.0,0.25,1.036376847,0.31023449115221435,0.009765623999999917,-8096.0,1.5,352.5,437.0951705540196,0.0,1.0,1.286620962,1.2214451109396585,0.09399413100000054,9472.0,4.875,-810.0,-1134.9682542049081,0.0,0.125,3.129882492,4.629652943516379,-0.019531248000000723,-8097.0,1.625,375.0,437.0951705540196,0.0,1.25,0.8154296040000001,3.737974724848487,-0.1110839729999995,-0.03999999910593033,-2.190000057220459,7.239999771118164,-0.0665283203125,0.052978515625,1.116943359375,34.40999984741211,0.0,-16.0,-0.336639404296875,-0.1528472900390625,Closing,0.0,0.0,0.0,0.0,0.0,0.0,0.0,0.0,
3.3104830000000076,0.0,0.0,9082.0,4.875,-900.0,-1166.5530889497757,0.0,0.25,1.0595702040000001,0.3169215870381241,0.018310545000000067,-8035.0,1.75,375.0,458.5065695889828,0.0,1.25,1.481933442,1.2659282003252355,0.16723631099999992,9330.0,5.25,-870.0,-1166.5530889497757,0.0,0.125,3.1005856200000004,4.622954799298911,-0.024414059999999793,-8036.0,1.625,375.0,458.5065695889828,0.0,0.875,0.616455015,3.6935433436254064,-0.17089842000000033,-0.03999999910593033,-2.190000057220459,9.40999984741211,-0.00201416015625,0.0992431640625,1.0867919921875,34.369998931884766,0.0,55.0,-0.3366241455078125,-0.152374267578125,Closing,0.0,0.0,0.0,0.0,0.0,0.0,0.0,0.0,
3.351992999999988,0.0,0.0,9082.0,4.625,-982.5,-1166.5530889497757,0.0,0.25,1.0827635610000002,0.3169215870381241,0.029296871999999974,-8035.0,1.875,390.0,458.5065695889828,0.0,0.5,1.674804516,1.2659282003252355,0.0,9330.0,5.125,-945.0,-1166.5530889497757,0.0,0.125,3.073730154,4.622954799298911,0.0,-8036.0,1.75,375.0,458.5065695889828,0.0,0.5,0.47241206100000005,3.6935433436254064,0.0,-0.029999999329447746,-2.130000114440918,12.039999961853027,0.14093017578125,0.05035400390625,0.83355712890625,34.369998931884766,0.0,178.0,-0.336090087890625,-0.15130615234375,Closing,0.0,0.0,0.0,0.0,0.0,0.0,0.0,0.0,
3.3896149999999907,0.0,0.0,9082.0,4.0,-1065.0,-1166.5530889497757,0.0,0.25,1.1132811360000001,0.3169215870381241,0.0,-8035.0,1.625,412.5,458.5065695889828,0.0,0.25,1.7614744290000002,1.2659282003252355,0.0,9330.0,4.625,-1020.0,-1166.5530889497757,0.0,0.125,3.066405936,4.622954799298911,0.0,-8036.0,1.875,390.0,458.5065695889828,0.0,0.25,0.406494099,3.6935433436254064,0.0,-0.019999999552965164,-2.049999952316284,14.0600004196167,-0.01739501953125,0.011962890625,1.17413330078125,34.369998931884766,0.0,27.0,-0.3352203369140625,-0.1505889892578125,Closing,0.0,0.0,0.0,0.0,0.0,0.0,0.0,0.0,
3.429689000000013,0.0,0.0,8897.0,3.5,-1132.5,-1166.5530889497757,0.0,0.25,1.116943245,0.3169215870381241,0.0,-7960.0,1.5,450.0,458.5065695889828,0.0,0.25,1.8103025490000002,1.2659282003252355,0.0,9152.0,4.125,-1087.5,-1166.5530889497757,0.0,0.125,3.0627438270000003,4.622954799298911,0.0,-7971.0,1.875,390.0,458.5065695889828,0.0,0.25,0.379638633,3.6935433436254064,0.0,-0.029999999329447746,-2.069999933242798,16.260000228881836,0.01483154296875,0.0592041015625,0.9808349609375,34.369998931884766,0.0,65.0,-0.334136962890625,-0.149749755859375,Closing,0.0,0.0,0.0,0.0,0.0,0.0,0.0,0.0,
3.4700080000000018,0.0,0.0,8897.0,3.125,-1192.5,-1166.5530889497757,0.0,0.125,1.121826057,0.3169215870381241,0.0,-7960.0,1.125,510.0,458.5065695889828,0.0,0.0,1.8139646580000002,1.2659282003252355,0.031738278000000175,9152.0,3.625,-1147.5,-1166.5530889497757,0.0,0.125,3.0627438270000003,4.622954799298911,-0.004882811999999959,-7971.0,1.875,390.0,458.5065695889828,0.0,0.25,0.36987300900000003,3.6935433436254064,0.0,-0.009999999776482582,-2.0299999713897705,19.739999771118164,0.01861572265625,0.072265625,1.27227783203125,34.369998931884766,0.0,84.0,-0.331787109375,-0.1480560302734375,Closing,0.0,0.0,0.0,0.0,0.0,0.0,0.0,0.0,
3.512109999999986,0.0,0.0,8897.0,2.25,-1230.0,-1166.5530889497757,0.0,0.125,1.125488166,0.3169215870381241,0.0,-7960.0,0.75,555.0,458.5065695889828,0.0,0.25,1.8127439550000002,1.2659282003252355,0.010986326999999907,9152.0,3.25,-1192.5,-1166.5530889497757,0.0,0.125,3.0603024210000003,4.622954799298911,0.0,-7971.0,1.875,397.5,458.5065695889828,0.0,0.25,0.364990197,3.6935433436254064,-0.008544920999999484,0.0,-2.059999942779541,23.31999969482422,-0.02325439453125,0.1383056640625,0.89117431640625,34.369998931884766,0.0,62.0,-0.329010009765625,-0.145843505859375,Closing,0.0,0.0,0.0,0.0,0.0,0.0,0.0,0.0,
3.552524000000005,0.0,0.0,8699.0,1.875,-1260.0,-1166.5530889497757,0.0,0.125,1.116943245,0.3169215870381241,0.0,-7870.0,0.625,570.0,458.5065695889828,0.0,0.25,1.8139646580000002,1.2659282003252355,0.0,8961.0,2.75,-1215.0,-1166.5530889497757,0.0,0.125,3.0615231240000003,4.622954799298911,0.0,-7908.0,2.0,405.0,458.5065695889828,0.0,0.125,0.36987300900000003,3.6935433436254064,0.0,0.07999999821186066,-2.2200000286102295,26.920000076293945,0.00677490234375,0.1021728515625,1.15484619140625,34.369998931884766,0.0,91.0,-0.3260040283203125,-0.1428070068359375,Closing,0.0,0.0,0.0,0.0,0.0,0.0,0.0,0.0,
3.593972000000009,0.0,0.0,8699.0,1.375,-1275.0,-1166.5530889497757,0.0,0.125,1.118163948,0.3169215870381241,0.0,-7870.0,0.5,555.0,458.5065695889828,0.0,0.0,1.8151853610000002,1.2659282003252355,0.0,8961.0,2.625,-1222.5,-1166.5530889497757,0.0,0.125,3.0615231240000003,4.622954799298911,0.0,-7908.0,2.0,405.0,458.5065695889828,0.0,0.125,0.36987300900000003,3.6935433436254064,0.0,0.18000000715255737,-2.190000057220459,30.5,-0.06781005859375,0.00482177734375,1.16058349609375,34.369998931884766,0.0,-19.0,-0.322479248046875,-0.1390228271484375,Closing,0.0,0.0,0.0,0.0,0.0,0.0,0.0,0.0,
3.6355409999999972,0.0,0.0,8495.0,1.25,-1275.0,-1166.5530889497757,0.0,0.125,1.115722542,0.3169215870381241,0.0,-7780.0,0.375,555.0,458.5065695889828,0.0,0.0,1.8139646580000002,1.2659282003252355,0.0,8764.0,2.375,-1230.0,-1166.5530889497757,0.0,0.125,3.0627438270000003,4.622954799298911,0.0,-7842.0,2.125,405.0,458.5065695889828,0.0,0.25,0.3662109,3.6935433436254064,0.0,0.23000000417232513,-2.200000047683716,34.09000015258789,-0.03912353515625,0.11279296875,0.97625732421875,34.369998931884766,0.0,59.0,-0.318359375,-0.134735107421875,Closing,0.0,0.0,0.0,0.0,0.0,0.0,0.0,0.0,
3.6878949999999895,0.0,0.0,8495.0,1.0,-1275.0,-1166.5530889497757,0.0,0.125,1.1120604330000001,0.3169215870381241,0.0,-7780.0,0.375,562.5,458.5065695889828,0.0,0.25,1.8139646580000002,1.2659282003252355,0.0,8764.0,2.125,-1222.5,-1166.5530889497757,0.0,0.125,3.0627438270000003,4.622954799298911,0.0,-7842.0,2.125,412.5,458.5065695889828,0.0,0.25,0.36987300900000003,3.6935433436254064,0.0,0.3100000023841858,-2.259999990463257,37.619998931884766,0.0230712890625,0.14581298828125,1.2340087890625,34.369998931884766,0.0,141.0,-0.313568115234375,-0.13311767578125,Closing,0.0,0.0,0.0,0.0,0.0,0.0,0.0,0.0,
3.728829999999987,0.0,0.0,8495.0,0.75,-1282.5,-1166.5530889497757,0.0,0.125,1.118163948,0.3169215870381241,0.0,-7780.0,0.25,562.5,458.5065695889828,0.0,0.0,1.807861143,1.2659282003252355,0.0,8764.0,2.125,-1215.0,-1166.5530889497757,0.0,0.125,3.0615231240000003,4.622954799298911,0.0,-7842.0,2.25,405.0,458.5065695889828,0.0,0.25,0.36987300900000003,3.6935433436254064,0.0,0.36000001430511475,-2.1500000953674316,41.130001068115234,0.0047607421875,0.0677490234375,0.752685546875,34.369998931884766,0.0,66.0,-0.30767822265625,-0.1325836181640625,Closing,0.0,0.0,0.0,0.0,0.0,0.0,0.0,0.0,
3.76942300000001,0.0,0.0,8291.0,0.75,-1282.5,-1166.5530889497757,0.0,0.125,1.1132811360000001,0.3169215870381241,0.0,-7695.0,0.25,547.5,458.5065695889828,0.0,0.0,1.809081846,1.2659282003252355,-0.0012207029999999897,8569.0,2.125,-1215.0,-1166.5530889497757,0.0,0.125,3.0615231240000003,4.622954799298911,0.0,-7775.0,2.25,405.0,458.5065695889828,0.0,0.25,0.371093712,3.6935433436254064,0.0,0.4099999964237213,-2.2799999713897705,43.47999954223633,-0.0849609375,0.10882568359375,1.27777099609375,34.369998931884766,0.0,43.0,-0.3032073974609375,-0.1320953369140625,Closing,0.0,0.0,0.0,0.0,0.0,0.0,0.0,0.0,
3.8107999999999884,0.0,0.0,8291.0,0.75,-1252.5,-1166.5530889497757,0.0,0.125,1.116943245,0.3169215870381241,0.0,-7695.0,0.375,517.5,458.5065695889828,0.0,0.25,1.809081846,1.2659282003252355,-0.0024414060000004234,8569.0,2.125,-1215.0,-1166.5530889497757,0.0,0.125,3.0627438270000003,4.622954799298911,0.0,-7775.0,2.25,405.0,458.5065695889828,0.0,0.25,0.371093712,3.6935433436254064,0.0,0.4099999964237213,-2.1700000762939453,46.95000076293945,-0.02880859375,0.1090087890625,0.88055419921875,34.369998931884766,0.0,78.0,-0.29583740234375,-0.1309814453125,Closing,0.0,0.0,0.0,0.0,0.0,0.0,0.0,0.0,
3.851907999999996,0.0,0.0,8291.0,0.75,-1230.0,-1166.5530889497757,0.0,0.125,1.114501839,0.3169215870381241,0.0,-7695.0,0.25,502.5,458.5065695889828,0.0,0.25,1.809081846,1.2659282003252355,0.0,8569.0,1.875,-1207.5,-1166.5530889497757,0.0,0.125,3.0615231240000003,4.622954799298911,0.0,-7775.0,2.375,412.5,458.5065695889828,0.0,0.25,0.36987300900000003,3.6935433436254064,0.0,0.47999998927116394,-2.25,50.38999938964844,-0.02178955078125,0.105712890625,1.0267333984375,34.400001525878906,0.0,86.0,-0.2874603271484375,-0.1295166015625,Closing,0.0,0.0,0.0,0.0,0.0,0.0,0.0,0.0,
3.8901529999999913,0.0,0.0,8096.0,0.75,-1222.5,-1166.5530889497757,0.0,0.125,1.116943245,0.3169215870381241,0.0,-7612.0,0.25,510.0,458.5065695889828,0.0,0.25,1.807861143,1.2659282003252355,0.0,8377.0,1.875,-1200.0,-1166.5530889497757,0.0,0.125,3.0615231240000003,4.622954799298911,0.0,-7711.0,2.375,397.5,458.5065695889828,0.0,0.25,0.36987300900000003,3.6935433436254064,0.0,0.49000000953674316,-2.25,53.81999969482422,-0.05810546875,0.0758056640625,1.14141845703125,34.400001525878906,0.0,45.0,-0.278289794921875,-0.1289520263671875,Closing,0.0,0.0,0.0,0.0,0.0,0.0,0.0,0.0,
3.9306309999999938,0.0,0.0,8096.0,0.625,-1215.0,-529.1338562965393,0.0,0.125,1.116943245,4.932250999999998,0.0,-7612.0,0.375,517.5,-529.1338562965393,0.0,0.0,1.809081846,2.481884999999998,0.0,8377.0,1.375,-1200.0,-529.1338562965393,0.0,0.125,3.0615231240000003,0.01,0.0,-7711.0,1.375,397.5,-529.1338562965393,0.0,0.25,0.36987300900000003,2.4790000000000023,0.0,0.49000000953674316,-2.190000057220459,57.2400016784668,0.01129150390625,-0.00799560546875,0.93817138671875,34.400001525878906,0.0,12.0,-0.268646240234375,-0.1287384033203125,Closing,0.0,0.0,0.0,0.0,0.0,0.0,0.0,0.0,
3.971750999999989,0.0,0.0,8096.0,0.0,-1155.0,-529.1338562965393,0.0,0.5,1.066894422,4.932250999999998,-0.003662108999999969,-7612.0,1.25,465.0,-529.1338562965393,0.0,8.375,1.9531248,2.481884999999998,0.0,8377.0,0.125,-1177.5,-529.1338562965393,0.0,0.375,3.1054684320000003,0.01,0.0,-7711.0,0.5,352.5,-529.1338562965393,0.0,7.25,0.12573240900000002,2.4790000000000023,0.0,0.6499999761581421,-2.1700000762939453,59.43000030517578,0.07965087890625,0.14752197265625,1.08978271484375,34.400001525878906,0.0,177.0,-0.261383056640625,-0.128570556640625,Closing,0.0,0.0,0.0,0.0,0.0,0.0,0.0,0.0,
4.012390000000014,0.0,0.0,7939.0,0.0,-1005.0,-529.1338562965393,0.0,0.5,0.9741209940000001,4.932250999999998,-0.07202147700000006,-7556.0,2.25,367.5,-529.1338562965393,0.0,4.75,2.242431411,2.481884999999998,0.2026366980000005,8203.0,0.125,-1117.5,-529.1338562965393,0.0,0.25,3.193359048,0.01,0.053710931999999545,-7678.0,0.125,232.5,-529.1338562965393,0.0,6.0,4.79736279,2.4790000000000023,-0.2502441150000001,0.699999988079071,-1.9299999475479126,62.290000915527344,0.20721435546875,0.13067626953125,0.8511962890625,34.400001525878906,0.0,216.0,-0.2485198974609375,-0.128509521484375,Closing,0.0,0.0,0.0,0.0,0.0,0.0,0.0,0.0,
4.052602000000014,0.0,0.0,7939.0,0.0,-937.5,-529.1338562965393,0.0,0.375,0.8935545960000001,4.932250999999998,-0.09033202200000001,-7556.0,2.5,240.0,-529.1338562965393,0.0,1.0,2.562255597,2.481884999999998,0.0,8203.0,0.125,-1005.0,-529.1338562965393,0.0,0.25,3.2714840400000003,0.01,0.0,-7678.0,0.125,150.0,-529.1338562965393,0.0,1.75,4.515380397,2.4790000000000023,0.0,0.6899999976158142,-1.590000033378601,64.33000183105469,0.1473388671875,0.0909423828125,1.19744873046875,34.400001525878906,0.0,147.0,-0.233856201171875,-0.13055419921875,Closing,0.0,0.0,0.0,0.0,0.0,0.0,0.0,0.0,
4.090840999999986,0.0,0.0,7939.0,0.0,-862.5,-529.1338562965393,0.0,0.25,0.845947179,4.932250999999998,0.0,-7556.0,2.5,90.0,-529.1338562965393,0.0,0.5,2.818603227,2.481884999999998,0.0,8203.0,0.125,-892.5,-529.1338562965393,0.0,0.125,3.3142086450000003,0.01,0.0,-7678.0,0.375,135.0,-529.1338562965393,0.0,1.25,4.306640184,2.4790000000000023,0.0,0.6800000071525574,-1.159999966621399,65.08000183105469,0.30535888671875,-0.11309814453125,0.880126953125,34.400001525878906,0.0,24.0,-0.223480224609375,-0.1334686279296875,Closing,0.0,0.0,0.0,0.0,0.0,0.0,0.0,0.0,
4.131905999999988,0.0,0.0,7837.0,0.125,-765.0,-529.1338562965393,0.0,0.25,0.8435057730000001,4.932250999999998,0.0,-7568.0,2.0,-52.5,-529.1338562965393,0.0,0.25,2.967528993,2.481884999999998,0.0,8081.0,0.125,-780.0,-529.1338562965393,0.0,0.0,3.339843408,0.01,0.0,-7663.0,0.625,90.0,-529.1338562965393,0.0,0.875,4.171142151000001,2.4790000000000023,0.0,0.7200000286102295,-0.8600000143051147,65.0999984741211,-0.02716064453125,0.07073974609375,1.114990234375,34.400001525878906,0.0,46.0,-0.2069091796875,-0.1396331787109375,Closing,0.0,0.0,0.0,0.0,0.0,0.0,0.0,0.0,
4.173279999999999,0.0,0.0,7837.0,0.625,-532.5,-529.1338562965393,0.0,0.25,0.839843664,4.932250999999998,0.0,-7568.0,1.75,-105.0,-529.1338562965393,0.0,0.25,3.040771173,2.481884999999998,0.1416015479999997,8081.0,0.375,-637.5,-529.1338562965393,0.0,0.0,3.34472622,0.01,0.0,-7663.0,0.625,-7.5,-529.1338562965393,0.0,0.5,4.090575753,2.4790000000000023,0.0,1.0700000524520874,-0.7200000286102295,64.26000213623047,0.00518798828125,0.196044921875,0.5699462890625,34.400001525878906,0.0,172.0,-0.1881103515625,-0.1448974609375,Closing,0.0,0.0,0.0,0.0,0.0,0.0,0.0,0.0,
4.213785000000003,0.0,0.0,7837.0,1.875,-300.0,-529.1338562965393,0.0,0.25,0.839843664,4.932250999999998,0.0,-7568.0,1.125,-225.0,-529.1338562965393,0.0,0.0,3.0505367970000004,2.481884999999998,0.06103514999999993,8081.0,1.5,-555.0,-529.1338562965393,0.0,0.0,3.34472622,0.01,0.0,-7663.0,0.375,-157.5,-529.1338562965393,0.0,0.25,4.055175366,2.4790000000000023,-0.07812499200000023,1.2100000381469727,-0.8700000047683716,63.869998931884766,-0.30145263671875,-0.16094970703125,1.51556396484375,34.400001525878906,0.0,-295.0,-0.1750030517578125,-0.1478271484375,Closing,0.0,0.0,0.0,0.0,0.0,0.0,0.0,0.0,
4.254570000000007,0.0,0.0,7808.0,3.0,-187.5,-529.1338562965393,0.0,0.25,0.832519446,4.932250999999998,0.0,-7615.0,1.25,-307.5,-529.1338562965393,0.0,0.25,3.0493160940000004,2.481884999999998,0.0,8035.0,2.125,-375.0,-529.1338562965393,0.0,0.0,3.38134731,0.01,0.0,-7711.0,0.375,-307.5,-529.1338562965393,0.0,0.25,4.049071851,2.4790000000000023,0.0,0.7599999904632568,-0.7900000214576721,63.9900016784668,-0.0166015625,-0.18988037109375,0.75408935546875,34.400001525878906,0.0,-182.0,-0.157379150390625,-0.1523284912109375,Closing,0.0,0.0,0.0,0.0,0.0,0.0,0.0,0.0,
4.295790999999998,0.0,0.0,7808.0,3.875,-202.5,-545.6692814826965,0.0,0.25,0.8410643670000001,4.932250999999998,0.0,-7615.0,1.375,-232.5,-545.6692814826965,0.0,0.0,3.03955047,2.481884999999998,0.0,8035.0,2.75,-172.5,-545.6692814826965,0.0,0.125,3.38134731,0.01,0.0,-7711.0,0.375,-337.5,-545.6692814826965,0.0,0.25,4.060058178,2.4790000000000023,0.0,0.6200000047683716,-1.0800000429153442,64.2699966430664,-0.08831787109375,-0.0274658203125,1.2216796875,34.400001525878906,0.0,-64.0,-0.1466827392578125,-0.1556549072265625,Closing,0.0,0.0,0.0,0.0,0.0,0.0,0.0,0.0,
4.337660000000003,0.0,0.0,7808.0,4.375,-255.0,-545.6692814826965,0.0,0.25,0.839843664,4.932250999999998,0.0,-7615.0,2.25,-195.0,-545.6692814826965,0.0,0.25,3.0627438270000003,2.481884999999998,0.0,8035.0,2.875,-165.0,-545.6692814826965,0.0,0.125,3.3789059040000002,0.01,0.0,-7711.0,0.375,-247.5,-545.6692814826965,0.0,0.25,4.069823802,2.4790000000000023,0.0,0.7400000095367432,-1.0299999713897705,64.55000305175781,-0.086181640625,0.15277099609375,1.10491943359375,34.380001068115234,0.0,96.0,-0.130584716796875,-0.1602020263671875,Closing,0.0,0.0,0.0,0.0,0.0,0.0,0.0,0.0,
4.37668299999999,0.0,0.0,7758.0,4.5,-292.5,-578.740131855011,0.0,0.25,0.8410643670000001,4.932250999999998,0.0,-7650.0,2.75,-195.0,-578.740131855011,0.0,0.25,3.1030270260000004,2.481884999999998,0.0,7992.0,4.25,-232.5,-578.740131855011,0.0,0.125,3.382568013,0.01,0.0,-7747.0,0.625,-210.0,-578.740131855011,0.0,0.25,4.084472238,2.4790000000000023,0.0,0.8399999737739563,-1.149999976158142,64.7300033569336,-0.09197998046875,0.00897216796875,0.896484375,34.380001068115234,0.0,-35.0,-0.113861083984375,-0.1636199951171875,Closing,0.0,0.0,0.0,0.0,0.0,0.0,0.0,0.0,
4.420238000000012,0.0,0.0,7758.0,5.125,-322.5,-727.55908370018,0.0,0.25,0.8410643670000001,4.932250999999998,0.0012207029999999897,-7650.0,3.625,-255.0,-727.55908370018,0.0,0.25,3.1066891350000003,2.481884999999998,0.03906249600000011,7992.0,5.0,-315.0,-727.55908370018,0.0,0.125,3.383788716,0.01,0.0024414059999999793,-7747.0,0.75,-232.5,-727.55908370018,0.0,0.25,4.0832515350000005,2.4790000000000023,0.010986326999999463,0.7599999904632568,-1.3700000047683716,64.7699966430664,-0.1761474609375,-0.02227783203125,1.0533447265625,34.380001068115234,0.0,-97.0,-0.1031494140625,-0.1652374267578125,Closing,0.0,0.0,0.0,0.0,0.0,0.0,0.0,0.0,
4.4637060000000055,0.0,0.0,7758.0,6.5,-360.0,-876.3779729604721,0.0,0.25,0.8410643670000001,4.932250999999998,0.0,-7650.0,5.125,-330.0,-876.3779729604721,0.0,0.25,3.098144214,2.481884999999998,0.004882811999999959,7992.0,6.0,-367.5,-876.3779729604721,0.0,0.125,3.3789059040000002,0.01,0.0012207029999999897,-7747.0,1.625,-322.5,-876.3779729604721,0.0,0.125,4.084472238,2.4790000000000023,0.003662109000000413,0.6399999856948853,-1.590000033378601,64.83999633789062,-0.11334228515625,0.00457763671875,1.08306884765625,34.380001068115234,0.0,-42.0,-0.0883941650390625,-0.166748046875,Closing,0.0,0.0,0.0,0.0,0.0,0.0,0.0,0.0,
4.497977000000014,0.0,0.0,7686.0,7.875,-420.0,-962.8619324421181,0.0,0.25,0.8300780400000001,4.770604813506369,0.0,-7716.0,6.5,-397.5,-962.8619324421181,0.0,0.25,3.0615231240000003,2.3192058315774084,0.0,7921.0,7.25,-427.5,-962.8619324421181,0.0,0.125,3.3691402800000003,4.778486743810658,0.0,-7811.0,2.625,-390.0,-962.8619324421181,0.0,0.25,4.0783687230000005,2.316509933570812,0.0,0.6200000047683716,-1.850000023841858,65.08000183105469,-0.25311279296875,0.01171875,1.04296875,34.380001068115234,0.0,-92.0,-0.07470703125,-0.16705322265625,Closing,0.0,0.0,0.0,0.0,0.0,0.0,0.0,0.0,
4.539799999999988,0.0,0.0,7686.0,8.5,-517.5,-962.8619324421181,0.0,0.375,0.7885741380000001,4.770604813506369,0.0,-7716.0,7.5,-450.0,-962.8619324421181,0.0,0.25,2.993163756,2.3192058315774084,0.0,7921.0,7.75,-510.0,-962.8619324421181,0.0,0.25,3.330077784,4.778486743810658,0.0,-7811.0,3.0,-435.0,-962.8619324421181,0.0,0.25,4.04052693,2.316509933570812,0.0,0.7099999785423279,-2.200000047683716,65.44000244140625,-0.08282470703125,0.03070068359375,1.139404296875,34.380001068115234,0.0,-1.0,-0.0617828369140625,-0.16546630859375,Closing,0.0,0.0,0.0,0.0,0.0,0.0,0.0,0.0,
4.581090999999986,0.0,0.0,7686.0,8.375,-615.0,-962.8619324421181,0.0,0.25,0.7495116420000001,4.770604813506369,0.0,-7716.0,8.0,-510.0,-962.8619324421181,0.0,0.25,2.926025091,2.3192058315774084,0.0,7921.0,7.625,-615.0,-962.8619324421181,0.0,0.125,3.284911773,4.778486743810658,0.0,-7811.0,3.25,-495.0,-962.8619324421181,0.0,0.25,4.001464434,2.316509933570812,0.0,0.7799999713897705,-2.299999952316284,65.62999725341797,-0.1534423828125,0.0062255859375,0.9434814453125,34.380001068115234,0.0,-53.0,-0.061798095703125,-0.1636199951171875,Closing,0.0,0.0,0.0,0.0,0.0,0.0,0.0,0.0,
4.624959000000002,0.0,0.0,7574.0,7.875,-690.0,-942.519673705101,0.0,0.25,0.721435473,4.932250999999998,0.0,-7812.0,7.75,-585.0,-942.519673705101,0.0,0.25,2.877196971,2.481884999999998,-0.06591796199999989,7805.0,7.125,-705.0,-942.519673705101,0.0,0.125,3.2568356040000004,0.01,-0.0402831990000001,-7906.0,3.125,-577.5,-942.519673705101,0.0,0.25,3.973388265,2.4790000000000023,0.0,0.949999988079071,-2.5399999618530273,65.81999969482422,-0.13330078125,0.0274658203125,1.0108642578125,34.380001068115234,0.0,-26.0,-0.061553955078125,-0.1596527099609375,Closing,0.0,0.0,0.0,0.0,0.0,0.0,0.0,0.0,
4.66725099999999,0.0,0.0,7574.0,7.25,-742.5,-942.519673705101,0.0,0.25,0.7116698490000001,4.932250999999998,-0.029296871999999752,-7812.0,7.25,-667.5,-942.519673705101,0.0,0.25,2.862548535,2.481884999999998,-0.052490229,7805.0,6.5,-772.5,-942.519673705101,0.0,0.0,3.253173495,0.01,-0.028076168999999318,-7906.0,2.875,-667.5,-942.519673705101,0.0,0.25,3.975829671,2.4790000000000023,-0.03051757499999974,1.0800000429153442,-2.7200000286102295,65.93000030517578,-0.1087646484375,0.1287841796875,1.25714111328125,34.380001068115234,0.0,75.0,-0.0609283447265625,-0.1542510986328125,Closing,0.0,0.0,0.0,0.0,0.0,0.0,0.0,0.0,
4.710581999999995,0.0,0.0,7574.0,6.75,-802.5,-942.519673705101,0.0,0.25,0.734863206,4.932250999999998,0.0012207030000004337,-7812.0,6.5,-750.0,-942.519673705101,0.0,0.25,2.8918454070000004,2.481884999999998,0.0,7805.0,6.125,-817.5,-942.519673705101,0.0,0.0,3.249511386,0.01,0.0,-7906.0,2.625,-742.5,-942.519673705101,0.0,0.375,4.014892167,2.4790000000000023,0.0,1.149999976158142,-2.7300000190734863,66.04000091552734,-0.07855224609375,0.03277587890625,0.6817626953125,34.380001068115234,0.0,-1.0,-0.060211181640625,-0.147796630859375,Closing,0.0,0.0,0.0,0.0,0.0,0.0,0.0,0.0,
4.748684999999997,0.0,0.0,7434.0,6.25,-870.0,-942.519673705101,0.0,0.25,0.758056563,4.932250999999998,0.0,-7945.0,5.625,-817.5,-942.519673705101,0.0,0.25,2.924804388,2.481884999999998,0.0,7667.0,5.75,-855.0,-942.519673705101,0.0,0.0,3.2714840400000003,0.01,0.0,-8034.0,2.25,-802.5,-942.519673705101,0.0,0.25,4.049071851,2.4790000000000023,0.0,1.059999942779541,-3.0399999618530273,66.19999694824219,-0.18255615234375,-0.1488037109375,1.19873046875,34.380001068115234,0.0,-204.0,-0.060028076171875,-0.1405181884765625,Closing,0.0,0.0,0.0,0.0,0.0,0.0,0.0,0.0,
