Time,ClimberA1,ClimberA2,FRpos,FRCurrent,FRspeed,FRsetpoint,FRApos,FRACurrent,FREncpos,FREncSetpoint,FREncSpeed,FLpos,FLCurrent,FLspeed,FLsetpoint,FLApos,FLACurrent,FLEncpos,FLEncSetpoint,FLEncSpeed,BRpos,BRCurrent,BRspeed,BRsetpoint,BRApos,BRACurrent,BREncpos,BREncSetpoint,BREncSpeed,BLpos,BLCurrent,BLspeed,BLsetpoint,BLApos,BLACurrent,BLEncpos,BLEncSetpoint,BLEncSpeed,navx_Pitch,navx_Roll,navx_Yaw,navx_XAcc,navx_YAcc,navx_ZAcc,navx_Temp,navx_Bar,navx_Alt,navx_XDis,navx_YDis,GearPlacerState,ShootOutputV,ShootOutputCurrent,ShootEncPos,ShootEncVelocity,ShootSpeed,ShootSetpoint,CarouselSetpoint,CarouselCurrent,
0.123747999999905,0.0,0.0,55366.0,4.25,240.0,839.9999999999999,0.0,0.25,0.79345695,4.880462363667043,0.0,-46114.0,6.75,-232.5,-839.9999999999999,0.0,0.0,0.47241206100000005,4.91165041416172,0.0,69528.0,7.625,142.5,839.9999999999999,0.0,0.125,3.3215328630000003,4.8885257991656665,0.0,-46384.0,5.5,-225.0,-839.9999999999999,0.0,0.125,1.619872881,4.905940999162694,0.0,-0.46000000834465027,0.25999999046325684,-0.029999999329447746,0.12811279296875,-0.01416015625,1.00799560546875,33.97999954223633,0.0,123.0,-4.1591796875,3.8025665283203125,Closing,0.0,0.0,42.0,0.0,0.0,0.0,0.0,0.0,
0.2645559999998659,0.0,0.0,55420.0,0.125,300.0,0.0,0.0,0.25,0.79345695,0.01,0.0,-46170.0,0.125,-285.0,-0.0,0.0,0.0,0.46630854600000005,0.01,0.0,69581.0,0.375,390.0,0.0,0.0,0.0,3.3129879420000004,0.01,0.0,-46442.0,0.375,-322.5,-0.0,0.0,0.125,1.621093584,0.01,0.0,-0.4699999988079071,0.3400000035762787,0.09000000357627869,-0.05206298828125,-0.028564453125,0.90087890625,33.97999954223633,0.0,-57.0,-4.127349853515625,3.8036346435546875,Closing,0.0,0.0,42.0,0.0,0.0,0.0,0.0,0.0,
0.39730899999989194,0.0,0.0,55466.0,0.125,307.5,0.0,0.0,0.25,0.7922362470000001,0.01,0.0,-46219.0,0.0,-337.5,-0.0,0.0,0.0,0.49194330900000005,0.01,0.0,69641.0,0.375,285.0,0.0,0.0,0.0,3.3251949720000002,0.01,0.0,-46537.0,0.125,-322.5,-0.0,0.0,0.125,1.6064451480000002,0.01,0.0,-0.41999998688697815,-0.23999999463558197,0.27000001072883606,-0.103271484375,-0.03631591796875,0.9320068359375,33.95000076293945,0.0,-99.0,-4.1072235107421875,3.8054351806640625,Closing,0.0,0.0,42.0,0.0,0.0,0.0,0.0,0.0,
0.5320999999998604,0.0,0.0,55508.0,0.0,225.0,0.0,0.0,0.25,0.79345695,0.01,0.0,-46266.0,0.0,-225.0,-0.0,0.0,0.125,0.506591745,0.01,0.0,69674.0,0.375,142.5,0.0,0.0,0.0,3.328857081,0.01,0.0,-46568.0,0.125,-195.0,-0.0,0.0,0.25,1.566161949,0.01,0.0,-0.41999998688697815,-0.7200000286102295,0.25999999046325684,-0.06524658203125,-0.009033203125,0.9378662109375,33.95000076293945,0.0,-53.0,-4.097564697265625,3.805328369140625,Closing,0.0,0.0,42.0,0.0,0.0,0.0,0.0,0.0,
0.6657819999998901,0.0,0.0,55533.0,0.0,90.0,0.0,0.0,0.25,0.7922362470000001,0.01,0.0,-46302.0,0.0,-75.0,-0.0,0.0,0.125,0.5041503390000001,0.01,0.0,69711.0,0.125,112.5,0.0,0.0,0.0,3.3251949720000002,0.01,0.0,-46582.0,0.125,-82.5,-0.0,0.0,0.25,1.595458821,0.01,0.0,-0.4000000059604645,-1.1200000047683716,0.18000000715255737,-0.08392333984375,0.0086669921875,0.99261474609375,33.95000076293945,0.0,-64.0,-4.0960235595703125,3.8054046630859375,Closing,0.0,0.0,42.0,0.0,0.0,0.0,0.0,0.0,
0.8014389999997802,0.0,0.0,55540.0,0.125,0.0,0.0,0.0,0.25,0.79345695,0.01,0.0,-46302.0,0.0,0.0,-0.0,0.0,0.125,0.506591745,0.01,0.0,69711.0,0.375,0.0,0.0,0.0,0.0,3.3251949720000002,0.01,0.0,-46584.0,0.125,0.0,-0.0,0.0,0.25,1.6113279600000001,0.01,0.0,-0.4000000059604645,-1.2599999904632568,0.23000000417232513,-0.0150146484375,-0.00390625,1.02410888671875,33.95000076293945,0.0,7.0,-4.09844970703125,3.8054046630859375,Closing,0.0,0.0,42.0,0.0,0.0,0.0,0.0,0.0,
0.9382939999999944,0.0,0.0,55539.0,0.125,0.0,-165.35433009266853,0.0,0.125,0.798339762,4.932250999999998,0.0,-46302.0,0.0,0.0,165.35433009266853,0.0,0.0,0.511474557,4.963769999999998,0.0,69712.0,0.0,0.0,-165.35433009266853,0.0,0.0,3.3264156750000002,0.01,0.0,-46584.0,0.125,0.0,165.35433009266853,0.0,0.25,1.6101072570000001,0.01,0.0,-0.41999998688697815,-1.1399999856948853,0.23000000417232513,0.00408935546875,-0.0037841796875,1.0264892578125,33.970001220703125,0.0,24.0,-4.097412109375,3.8054046630859375,Closing,0.0,0.0,42.0,0.0,0.0,0.0,0.0,0.0,
1.07558899999992,0.0,0.0,55490.0,26.0,-300.0,-2100.0,0.0,0.125,0.826415931,4.932250999999998,0.0,-46267.0,32.25,277.5,2100.0,0.0,0.0,0.506591745,4.963769999999998,0.0,69705.0,14.0,-52.5,-2100.0,0.0,0.0,3.339843408,0.01,0.0,-46560.0,20.875,457.5,2100.0,0.0,0.25,1.6052244450000002,0.01,0.0,-0.3700000047683716,-3.069999933242798,0.25999999046325684,-0.29083251953125,-0.1263427734375,1.4478759765625,33.970001220703125,0.0,-213.0,-4.1046600341796875,3.80560302734375,Closing,0.0,0.0,42.0,0.0,0.0,0.0,0.0,0.0,
1.2087539999999573,0.0,0.0,55345.0,26.125,-1012.5,-2100.0,0.0,0.125,0.820312416,4.932250999999998,0.0,-46145.0,31.25,982.5,2100.0,0.0,0.0,0.505371042,4.963769999999998,0.0,69666.0,27.0,-307.5,-2100.0,0.0,0.0,3.349609032,0.01,0.0,-46458.0,21.5,960.0,2100.0,0.0,0.25,1.6052244450000002,0.01,0.0,-0.09000000357627869,-5.050000190734863,0.9800000190734863,-0.4630126953125,0.08203125,1.09979248046875,33.970001220703125,0.0,-362.0,-4.152130126953125,3.8057403564453125,Closing,0.0,0.0,42.0,0.0,0.0,0.0,0.0,0.0,
1.3560459999998566,0.0,0.0,55097.0,16.875,-1740.0,-2100.0,0.0,0.125,0.826415931,4.932250999999998,0.0,-45919.0,21.5,1710.0,2100.0,0.0,0.0,0.506591745,4.963769999999998,0.0,69593.0,24.25,-562.5,-2100.0,0.0,0.0,3.359374656,0.01,0.0,-45983.0,15.75,1642.5,2100.0,0.0,0.25,1.6052244450000002,0.01,0.0,-0.3700000047683716,-6.489999771118164,2.049999952316284,-0.3350830078125,0.1221923828125,0.857421875,33.970001220703125,0.0,-231.0,-4.245849609375,3.8125457763671875,Closing,0.0,0.0,42.0,0.0,0.0,0.0,0.0,0.0,
1.494597999999998,0.0,0.0,54794.0,5.625,-1560.0,754.6875,0.0,1.75,1.0852049670000001,0.5498168668524888,0.0,-45612.0,0.25,1785.0,754.6875,0.0,0.875,0.302734344,4.410439589772222,0.0,69483.0,2.125,-825.0,754.6875,0.0,0.875,3.0566403120000003,4.389674732977289,0.0,-45707.0,0.375,1702.5,754.6875,0.0,0.75,1.9995115140000002,0.5526872062785588,0.0,-0.5799999833106995,-5.400000095367432,2.5299999713897705,0.65362548828125,-0.073486328125,0.780029296875,33.9900016784668,0.0,720.0,-4.342071533203125,3.8217620849609375,Closing,0.0,0.0,42.0,0.0,0.0,0.0,0.0,0.0,
1.6324509999998844,0.0,0.0,54627.0,27.5,112.5,2100.0,0.0,0.25,1.4794920360000001,0.5498168668524888,0.0,-45027.0,6.75,1972.5,2100.0,0.0,0.0,4.80956982,4.410439589772222,0.0,69228.0,8.0,-765.0,2100.0,0.0,0.125,2.658691134,4.389674732977289,0.0,-45432.0,11.25,1725.0,2100.0,0.0,0.25,2.362060305,0.5526872062785588,0.0,-0.5600000023841858,-2.430000066757202,-2.430000066757202,0.3330078125,0.00408935546875,1.253662109375,33.9900016784668,0.0,384.0,-4.38641357421875,3.82525634765625,Closing,0.0,0.0,42.0,0.0,0.0,0.0,0.0,0.0,
1.7642589999998455,0.0,0.0,54786.0,0.75,405.0,410.15625000000006,0.0,0.25,1.4990232840000002,0.5498168668524888,0.0,-44873.0,0.125,1110.0,410.15625000000006,0.0,0.0,4.737548343,4.410439589772222,0.0,69190.0,0.375,-307.5,410.15625000000006,0.0,0.0,2.6879880060000003,4.389674732977289,0.0,-45249.0,1.25,945.0,410.15625000000006,0.0,0.25,2.288818125,0.5526872062785588,0.0,-0.6399999856948853,0.7599999904632568,-13.420000076293945,0.3511962890625,-0.06707763671875,0.91900634765625,33.9900016784668,0.0,342.0,-4.3682098388671875,3.83941650390625,Closing,0.0,0.0,42.0,0.0,0.0,0.0,0.0,0.0,
1.9024839999999386,0.0,0.0,54826.0,38.875,255.0,-2181.476080690549,0.0,3.125,1.069335828,4.717031709331112,0.0,-44699.0,31.0,1132.5,2181.476080690549,0.0,1.5,4.932860823,4.747175374454076,0.0,69196.0,16.25,15.0,-2181.476080690549,0.0,0.25,2.9956051620000004,4.72482512685981,0.0,-45101.0,29.125,952.5,2181.476080690549,0.0,0.875,1.5588377310000001,4.741657149010391,0.0,-0.8600000143051147,-0.4399999976158142,-21.34000015258789,-0.27081298828125,0.03021240234375,1.098388671875,33.959999084472656,0.0,-261.0,-4.33258056640625,3.849700927734375,Closing,0.0,0.0,42.0,0.0,0.0,0.0,0.0,0.0,
2.0368929999999237,0.0,0.0,54749.0,17.625,-442.5,-1400.2500376362707,0.0,1.25,0.489501903,4.4523843010322945,0.0,-44516.0,47.75,1192.5,3157.3239243621524,0.0,1.0,0.177001935,4.760447729010011,0.0,69157.0,27.625,-307.5,-1400.2500376362707,0.0,1.5,3.538817997,0.4806595283938417,0.0,-44937.0,40.375,1147.5,3157.3239243621524,0.0,0.75,1.287841665,0.203085924522765,0.0,-0.10000000149011612,-2.9200000762939453,-23.65999984741211,-0.01312255859375,0.76043701171875,1.17352294921875,33.959999084472656,0.0,-262.0,-4.3333892822265625,3.8486480712890625,Closing,0.0,0.0,42.0,0.0,0.0,0.0,0.0,0.0,
2.1773499999998602,0.0,0.0,54559.0,15.625,-1237.5,-1816.7605583500635,0.0,0.5,0.419921832,4.822235182866161,0.0,-44275.0,37.25,1747.5,2414.427302410152,0.0,0.5,0.249023412,4.8805772473503115,0.0,69091.0,29.5,-472.5,-1816.7605583500635,0.0,0.125,3.663329703,0.11019758381477664,0.0,-44731.0,32.75,1537.5,2414.427302410152,0.0,0.625,1.591796712,0.0830960474875261,0.0,1.0700000524520874,-3.740000009536743,-25.780000686645508,-0.50994873046875,-0.06689453125,0.97393798828125,33.959999084472656,0.0,-363.0,-4.365142822265625,3.8550567626953125,Closing,0.0,0.0,42.0,0.0,0.0,0.0,0.0,0.0,
2.3121349999997767,0.0,0.0,54314.0,18.75,-1627.5,-2100.0,0.0,0.375,0.706787037,4.932250999999998,0.0,-43940.0,32.125,2250.0,2100.0,0.0,0.5,0.39428706900000005,4.963769999999998,0.0,68994.0,21.875,-705.0,-2100.0,0.0,0.5,3.542480106,0.01,0.0,-44092.0,25.75,2190.0,2100.0,0.0,0.25,1.7077634970000002,0.01,0.0,-0.10000000149011612,-5.150000095367432,-31.780000686645508,-0.3594970703125,-0.15972900390625,1.1016845703125,33.959999084472656,0.0,-137.0,-4.4277496337890625,3.8355712890625,Closing,0.0,0.0,42.0,0.0,0.0,0.0,0.0,0.0,
2.4512469999999738,0.0,0.0,54039.0,2.0,-1387.5,675.5846258754092,0.0,1.75,1.3464354090000001,1.1019562272035084,0.0,-43546.0,11.5,2542.5,1612.2832703265888,0.0,0.25,0.37597652400000003,4.627259965617284,0.0,68848.0,28.875,-1162.5,-675.5846258754092,0.0,2.0,4.002685137,1.3664231352629432,0.0,-43678.0,13.875,2587.5,1612.2832703265888,0.0,0.375,1.8469236390000001,0.336118867407133,0.0,-1.350000023841858,-5.539999961853027,-38.439998626708984,0.28302001953125,-0.3370361328125,0.60675048828125,33.88999938964844,0.0,467.0,-4.499603271484375,3.764495849609375,Closing,0.0,0.0,42.0,0.0,0.0,0.0,0.0,0.0,
2.5945209999999497,0.0,0.0,53887.0,0.0,-337.5,0.0,0.0,0.25,2.211913836,1.1019562272035084,0.0,-42751.0,0.0,2385.0,0.0,0.0,0.25,0.22094724300000002,4.627259965617284,0.0,68441.0,0.0,-1312.5,0.0,0.0,1.625,4.812011226,1.3664231352629432,0.0,-43289.0,0.0,2407.5,0.0,0.0,0.375,1.9946287020000002,0.336118867407133,0.0,-1.6299999952316284,-2.75,-50.33000183105469,0.1949462890625,0.4686279296875,1.70166015625,33.88999938964844,0.0,-221.0,-4.525360107421875,3.698394775390625,Closing,0.0,0.0,42.0,0.0,0.0,0.0,0.0,0.0,
2.728125999999931,0.0,0.0,54065.0,0.0,982.5,0.0,0.0,0.25,2.095947051,1.1019562272035084,0.0,-42377.0,0.0,2355.0,0.0,0.0,0.0,0.167236311,4.627259965617284,0.0,68324.0,0.0,-757.5,0.0,0.0,0.125,4.9206537930000005,1.3664231352629432,0.0,-42912.0,0.0,2257.5,0.0,0.0,0.25,2.000732217,0.336118867407133,0.0,-1.4800000190734863,-1.1299999952316284,-67.69000244140625,0.189453125,-0.1488037109375,0.7681884765625,33.88999938964844,0.0,196.0,-4.513275146484375,3.6700439453125,Closing,0.0,0.0,42.0,0.0,0.0,0.0,0.0,0.0,
2.86668899999978,0.0,0.0,54236.0,0.0,1087.5,0.0,0.0,0.25,1.8420408270000002,1.1019562272035084,0.0,-42089.0,0.0,1732.5,0.0,0.0,0.0,0.167236311,4.627259965617284,0.0,68267.0,0.0,-322.5,0.0,0.0,0.25,4.792479978,1.3664231352629432,0.0,-42627.0,0.0,1560.0,0.0,0.0,0.25,1.9958494050000002,0.336118867407133,0.0,-2.130000114440918,-0.2199999988079071,-82.8499984741211,0.2071533203125,-0.2069091796875,0.47857666015625,33.88999938964844,0.0,213.0,-4.479522705078125,3.660369873046875,Closing,0.0,0.0,42.0,0.0,0.0,0.0,0.0,0.0,
2.9991909999998754,0.0,0.0,54245.0,36.625,0.0,-2100.0,0.0,0.875,1.6308592080000002,0.5498168668524864,0.0,-42035.0,45.0,-255.0,-2100.0,0.0,0.25,0.152587875,4.41043958977222,0.0,68221.0,42.25,-232.5,2100.0,0.0,2.125,4.82177685,1.9194747329772914,0.0,-42457.0,40.875,45.0,-2100.0,0.0,0.25,2.104491972,0.552687206278561,0.0,-2.4600000381469727,0.5099999904632568,-90.72000122070312,0.22216796875,-0.03558349609375,0.66961669921875,33.939998626708984,0.0,4.0,-4.426116943359375,3.664031982421875,Closing,0.0,0.0,42.0,0.0,0.0,0.0,0.0,0.0,
3.1378969999998807,0.0,0.0,54149.0,0.0,-510.0,0.0,0.0,0.25,1.287841665,0.5498168668524864,0.0,-42152.0,0.0,-412.5,0.0,0.0,0.25,4.954833477,4.41043958977222,0.0,68226.0,0.0,30.0,0.0,0.0,0.5,0.27099606600000004,1.9194747329772914,0.0,-42552.0,0.0,-180.0,0.0,0.0,0.25,2.213134539,0.552687206278561,0.0,-2.930000066757202,0.949999988079071,-87.37000274658203,-0.18731689453125,6.103515625E-5,1.04559326171875,33.939998626708984,0.0,-62.0,-4.370758056640625,3.688934326171875,Closing,0.0,0.0,42.0,0.0,0.0,0.0,0.0,0.0,
3.2729269999999087,0.0,0.0,54132.0,1.25,-202.5,-562.2047066688538,0.0,0.25,1.2695311200000001,0.5498168668524864,0.0,-42184.0,0.375,-247.5,-562.2047066688538,0.0,0.0,4.912108872,4.41043958977222,0.0,68226.0,1.625,22.5,562.2047066688538,0.0,0.0,0.39550777200000004,1.919474732977291,0.0,-42608.0,0.625,-172.5,-562.2047066688538,0.0,0.25,2.2216794600000003,0.552687206278561,0.0,-2.5299999713897705,0.18000000715255737,-86.05999755859375,-0.00775146484375,0.030517578125,1.02557373046875,33.939998626708984,0.0,-76.0,-4.3218994140625,3.7017669677734375,Closing,0.0,0.0,42.0,0.0,0.0,0.0,0.0,0.0,
3.409454999999842,0.0,0.0,54087.0,21.375,-547.5,-2100.0,0.0,0.25,1.3476561120000001,0.5498168668524864,0.0,-42220.0,28.75,-495.0,-2100.0,0.0,0.0,4.914550278,4.41043958977222,0.0,68241.0,30.625,112.5,2100.0,0.0,0.125,0.399169881,1.9194747329772914,0.0,-42688.0,22.75,-457.5,-2100.0,0.0,0.25,2.2204587570000003,0.552687206278561,0.0,-2.5199999809265137,0.10000000149011612,-81.0199966430664,-0.2515869140625,-0.02728271484375,0.95391845703125,33.939998626708984,0.0,-54.0,-4.26959228515625,3.71026611328125,Closing,0.0,0.0,42.0,0.0,0.0,0.0,0.0,0.0,
3.54919299999997,0.0,0.0,53941.0,0.125,-1110.0,-562.2047066688538,0.0,0.125,1.351318221,0.5498168668524864,0.0,-42507.0,0.5,-1050.0,-562.2047066688538,0.0,0.0,4.916991684,4.41043958977222,0.0,68307.0,11.5,255.0,562.2047066688538,0.0,0.125,0.372314415,1.919474732977291,0.0,-42842.0,1.875,-967.5,-562.2047066688538,0.0,0.25,2.2216794600000003,0.552687206278561,0.0,-1.9199999570846558,-0.07000000029802322,-65.48999786376953,-0.100341796875,-0.15350341796875,1.1396484375,33.93000030517578,0.0,63.0,-4.225250244140625,3.70782470703125,Closing,0.0,0.0,42.0,0.0,0.0,0.0,0.0,0.0,
3.6821729999999517,0.0,0.0,53584.0,0.0,-1192.5,0.0,0.0,0.125,1.3488768150000001,0.5498168668524864,0.0,-42654.0,0.0,-915.0,0.0,0.0,0.0,4.912108872,4.41043958977222,0.0,68376.0,0.0,420.0,0.0,0.0,0.125,0.347900355,1.919474732977291,0.0,-42999.0,0.0,-997.5,0.0,0.0,0.25,2.2216794600000003,0.552687206278561,0.0,-1.3899999856948853,0.25,-48.290000915527344,0.02215576171875,-0.04559326171875,1.38671875,33.93000030517578,0.0,19.0,-4.18341064453125,3.706817626953125,Closing,0.0,0.0,42.0,0.0,0.0,0.0,0.0,0.0,
3.8336889999997803,0.0,0.0,53447.0,0.0,-855.0,0.0,0.0,0.125,1.350097518,0.5498168668524864,0.0,-42785.0,0.0,-787.5,0.0,0.0,0.0,4.912108872,4.41043958977222,0.0,68481.0,0.0,690.0,0.0,0.0,0.125,0.34179684,1.919474732977291,0.0,-43135.0,0.0,-742.5,0.0,0.0,0.25,2.2216794600000003,0.552687206278561,0.0,-1.0700000524520874,0.47999998927116394,-35.43000030517578,-0.0013427734375,-0.01678466796875,0.9801025390625,33.93000030517578,0.0,-8.0,-4.1414794921875,3.7122344970703125,Closing,0.0,0.0,42.0,0.0,0.0,0.0,0.0,0.0,
3.977147999999812,0.0,0.0,53394.0,34.0,-22.5,1968.7499999999998,0.0,0.125,1.3415525970000002,0.5498168668524888,0.0,-42846.0,43.125,67.5,1968.7499999999998,0.0,0.0,4.913329575000001,4.410439589772222,0.0,68588.0,47.5,510.0,-1968.7499999999998,0.0,0.0,0.34301754300000004,1.9194747329772885,0.0,-43177.0,33.25,187.5,1968.7499999999998,0.0,0.25,2.149657983,0.5526872062785588,0.0,-0.7099999785423279,0.9800000190734863,-33.59000015258789,0.0860595703125,-0.09246826171875,0.8983154296875,33.91999816894531,0.0,103.0,-4.0964202880859375,3.7211151123046875,Closing,0.0,0.0,42.0,0.0,0.0,0.0,0.0,0.0,
4.12831399999978,0.0,0.0,53518.0,0.0,840.0,0.0,0.0,0.125,1.3415525970000002,0.5498168668524888,0.0,-42740.0,0.0,802.5,0.0,0.0,0.0,4.864501455,4.410439589772222,0.0,68617.0,0.0,-112.5,0.0,0.0,0.0,0.308837859,1.9194747329772885,0.0,-43046.0,0.0,757.5,0.0,0.0,0.25,2.135009547,0.5526872062785588,0.0,-0.8199999928474426,0.5099999904632568,-48.279998779296875,-0.026611328125,-0.0010986328125,1.26470947265625,33.91999816894531,0.0,-38.0,-4.04718017578125,3.7339019775390625,Closing,0.0,0.0,42.0,0.0,0.0,0.0,0.0,0.0,
4.272330999999773,0.0,0.0,53658.0,0.0,742.5,0.0,0.0,0.125,1.3427733000000002,0.5498168668524888,0.0,-42497.0,0.0,705.0,0.0,0.0,0.0,4.888915515,4.410439589772222,0.0,68523.0,0.0,-360.0,0.0,0.0,0.0,0.308837859,1.9194747329772885,0.0,-42937.0,0.0,660.0,0.0,0.0,0.25,2.13623025,0.5526872062785588,0.0,-1.0399999618530273,0.3199999928474426,-59.56999969482422,-0.00299072265625,-0.07525634765625,0.792236328125,33.91999816894531,0.0,48.0,-4.00274658203125,3.7308502197265625,Closing,0.0,0.0,42.0,0.0,0.0,0.0,0.0,0.0,
4.420207999999867,0.0,0.0,53846.0,0.0,502.5,0.0,0.0,0.125,1.3415525970000002,0.5498168668524888,0.0,-42417.0,0.0,480.0,0.0,0.0,0.25,4.898681139000001,4.410439589772222,0.0,68450.0,0.0,-435.0,0.0,0.0,0.0,0.308837859,1.9194747329772885,0.0,-42852.0,0.0,450.0,0.0,0.0,0.25,2.135009547,0.5526872062785588,0.0,-1.159999966621399,0.029999999329447746,-66.12999725341797,0.01568603515625,-0.00286865234375,0.8958740234375,33.91999816894531,0.0,-7.0,-3.966094970703125,3.72412109375,Closing,0.0,0.0,42.0,0.0,0.0,0.0,0.0,0.0,
4.563704999999842,0.0,0.0,53835.0,17.25,-210.0,-1570.8661437034607,0.0,0.125,1.359863142,0.5498168668524864,0.0,-42401.0,23.875,-187.5,-1570.8661437034607,0.0,0.125,4.897460436,4.41043958977222,0.0,68416.0,23.0,-90.0,1570.8661437034607,0.0,0.0,0.307617156,1.9194747329772914,0.0,-42811.0,19.5,-127.5,-1570.8661437034607,0.0,0.25,2.207031024,0.5526872062785609,0.0,-1.3300000429153442,-0.23000000417232513,-64.4800033569336,-0.04718017578125,-0.01983642578125,0.67010498046875,33.91999816894531,0.0,-15.0,-3.9615325927734375,3.7087860107421875,Closing,0.0,0.0,42.0,0.0,0.0,0.0,0.0,0.0,
4.71056799999997,0.0,0.0,53719.0,0.0,-682.5,0.0,0.0,0.125,1.3415525970000002,0.5498168668524864,0.0,-42516.0,0.0,-682.5,0.0,0.0,0.125,4.893798327,4.41043958977222,0.0,68436.0,0.0,255.0,0.0,0.0,0.0,0.338134731,1.9194747329772914,0.0,-42992.0,0.0,-622.5,0.0,0.0,0.25,2.211913836,0.5526872062785609,0.0,-1.059999942779541,-0.30000001192092896,-51.34000015258789,0.01068115234375,-0.038330078125,1.1373291015625,33.91999816894531,0.0,23.0,-3.9659576416015625,3.6867218017578125,Closing,0.0,0.0,42.0,0.0,0.0,0.0,0.0,0.0,
4.854785999999847,0.0,0.0,53600.0,0.0,-675.0,0.0,0.0,0.125,1.3415525970000002,0.5498168668524864,0.0,-42631.0,0.0,-555.0,0.0,0.0,0.125,4.903563951000001,4.41043958977222,0.0,68491.0,0.0,450.0,0.0,0.0,0.0,0.33691402800000003,1.9194747329772914,0.0,-43086.0,0.125,-570.0,0.0,0.0,0.25,2.211913836,0.5526872062785609,0.0,-0.8799999952316284,-0.2199999988079071,-42.52000045776367,0.05059814453125,-0.07476806640625,1.0322265625,33.91999816894531,0.0,79.0,-3.968475341796875,3.676025390625,Closing,0.0,0.0,42.0,0.0,0.0,0.0,0.0,0.0,
4.9959769999999555,0.0,0.0,53452.0,0.0,-390.0,0.0,0.0,0.125,1.3415525970000002,0.5498168668524864,0.0,-42765.0,0.0,-345.0,0.0,0.0,0.125,4.903563951000001,4.41043958977222,0.0,68620.0,0.0,367.5,0.0,0.0,0.0,0.33691402800000003,1.9194747329772914,0.0,-43149.0,0.0,-360.0,0.0,0.0,0.25,2.207031024,0.5526872062785609,0.0,-0.8399999737739563,-0.2199999988079071,-36.130001068115234,-0.03594970703125,-0.01995849609375,1.1068115234375,33.93000030517578,0.0,-23.0,-3.966400146484375,3.6768646240234375,Closing,0.0,0.0,42.0,0.0,0.0,0.0,0.0,0.0,
5.152623999999836,0.0,0.0,53454.0,5.5,30.0,771.09375,0.0,0.125,1.3415525970000002,0.5498168668524888,0.0,-42774.0,6.5,52.5,771.09375,0.0,0.125,4.906005357000001,4.410439589772222,0.0,68644.0,6.375,60.0,-771.09375,0.0,0.0,0.344238246,1.9194747329772885,0.0,-43174.0,5.375,45.0,771.09375,0.0,0.25,2.13623025,0.5526872062785588,0.0,-0.7300000190734863,0.09000000357627869,-36.63999938964844,-0.02508544921875,0.0023193359375,0.93988037109375,33.93000030517578,0.0,-29.0,-3.962677001953125,3.6801300048828125,Closing,0.0,0.0,42.0,0.0,0.0,0.0,0.0,0.0,
5.297028999999864,0.0,0.0,53496.0,0.0,240.0,0.0,0.0,0.125,1.3415525970000002,0.5498168668524888,0.0,-42732.0,0.0,240.0,0.0,0.0,0.125,4.893798327,4.410439589772222,0.0,68609.0,0.0,-217.5,0.0,0.0,0.0,0.307617156,1.9194747329772885,0.0,-43131.0,0.0,195.0,0.0,0.0,0.25,2.139892359,0.5526872062785588,0.0,-0.6899999976158142,-0.1899999976158142,-42.63999938964844,-0.06622314453125,-0.079345703125,1.00592041015625,33.93000030517578,0.0,0.0,-3.95770263671875,3.6864471435546875,Closing,0.0,0.0,42.0,0.0,0.0,0.0,0.0,0.0,
5.437893999999854,0.0,0.0,53550.0,0.0,210.0,0.0,0.0,0.125,1.3415525970000002,0.5498168668524888,0.0,-42685.0,0.0,150.0,0.0,0.0,0.125,4.893798327,4.410439589772222,0.0,68578.0,0.0,-150.0,0.0,0.0,0.0,0.308837859,1.9194747329772885,0.0,-43078.0,0.125,172.5,0.0,0.0,0.25,2.13623025,0.5526872062785588,0.0,-0.7200000286102295,-0.12999999523162842,-45.150001525878906,-0.033203125,-0.02252197265625,0.82513427734375,33.93000030517578,0.0,-13.0,-3.95233154296875,3.691925048828125,Closing,0.0,0.0,42.0,0.0,0.0,0.0,0.0,0.0,
5.572693999999902,0.0,0.0,53556.0,0.0,15.0,0.0,0.0,0.125,1.3415525970000002,0.5498168668524888,0.0,-42671.0,0.0,0.0,0.0,0.0,0.125,4.892577624,4.410439589772222,0.0,68567.0,0.0,-7.5,0.0,0.0,0.0,0.308837859,1.9194747329772885,0.0,-43076.0,0.125,15.0,0.0,0.0,0.25,2.135009547,0.5526872062785588,0.0,-0.7400000095367432,-0.27000001072883606,-45.08000183105469,-0.00482177734375,0.010009765625,1.0809326171875,33.91999816894531,0.0,-16.0,-3.950897216796875,3.6940765380859375,Closing,0.0,0.0,42.0,0.0,0.0,0.0,0.0,0.0,
5.712368999999947,0.0,0.0,53556.0,0.0,0.0,0.0,0.0,0.125,1.3415525970000002,0.5498168668524888,0.0,-42671.0,0.0,0.0,0.0,0.0,0.125,4.892577624,4.410439589772222,0.0,68567.0,0.0,0.0,0.0,0.0,0.0,0.308837859,1.9194747329772885,0.0,-43076.0,0.125,0.0,0.0,0.0,0.25,2.135009547,0.5526872062785588,0.0,-0.699999988079071,-0.2800000011920929,-44.880001068115234,-0.00140380859375,-0.0274658203125,0.96240234375,33.91999816894531,0.0,13.0,-3.951019287109375,3.6944122314453125,Closing,0.0,0.0,42.0,0.0,0.0,0.0,0.0,0.0,
5.849340999999782,0.0,0.0,53552.0,0.125,-7.5,-165.35433009266853,0.0,1.0,1.0852049670000001,4.932250999999998,0.0,-42670.0,0.25,0.0,165.35433009266853,0.0,3.125,0.181884747,4.963769999999998,0.0,68569.0,0.375,7.5,165.35433009266853,0.0,2.25,0.6079100940000001,2.4702000000000024,0.0,-43076.0,0.375,7.5,165.35433009266853,0.0,1.25,1.8908689470000002,0.01,0.0,-0.6499999761581421,-0.36000001430511475,-45.0,0.0064697265625,-0.0692138671875,0.989990234375,33.91999816894531,0.0,49.0,-3.9509124755859375,3.694244384765625,Closing,0.0,0.0,42.0,0.0,0.0,0.0,0.0,0.0,
5.980769999999786,0.0,0.0,53545.0,0.125,-37.5,-231.49606212973595,0.0,0.375,0.7885741380000001,4.932250999999998,0.0,-42655.0,0.5,97.5,231.49606212973595,0.0,0.75,0.5407714290000001,4.963769999999998,0.0,68574.0,0.75,30.0,231.49606212973595,0.0,0.375,0.9582518550000001,2.4702000000000024,0.0,-43067.0,0.5,82.5,231.49606212973595,0.0,0.5,1.572265464,0.01,0.0,-0.6600000262260437,-0.47999998927116394,-44.66999816894531,-0.017578125,-0.015625,1.00054931640625,33.880001068115234,0.0,-3.0,-3.950958251953125,3.693634033203125,Closing,0.0,0.0,42.0,0.0,0.0,0.0,0.0,0.0,
6.125908999999985,0.0,0.0,53537.0,0.625,-52.5,-231.49606212973595,0.0,0.125,0.7397460180000001,4.932250999999998,0.0,-42647.0,1.0,67.5,231.49606212973595,0.0,0.0,0.5944823610000001,4.963769999999998,0.0,68580.0,1.125,45.0,231.49606212973595,0.0,0.125,0.968017479,2.4702000000000024,0.0,-43046.0,0.75,105.0,231.49606212973595,0.0,0.25,1.56249984,0.01,0.0,-0.6800000071525574,-0.699999988079071,-44.77000045776367,-0.0408935546875,-0.0189208984375,0.99871826171875,33.880001068115234,0.0,-15.0,-3.95391845703125,3.6923828125,Closing,0.0,0.0,42.0,0.0,0.0,0.0,0.0,0.0,
6.266299999999814,0.0,0.0,53518.0,0.625,-112.5,-231.49606212973595,0.0,0.25,0.7653807810000001,4.932250999999998,0.0,-42632.0,1.125,112.5,231.49606212973595,0.0,0.0,0.550537053,4.963769999999998,0.0,68596.0,1.125,97.5,231.49606212973595,0.0,0.125,0.914306547,2.4702000000000024,0.0,-43013.0,1.0,105.0,231.49606212973595,0.0,0.25,1.56249984,0.01,0.0,-0.6700000166893005,-0.7900000214576721,-44.790000915527344,-0.0020751953125,-0.0235595703125,1.0283203125,33.880001068115234,0.0,16.0,-3.95709228515625,3.6917572021484375,Closing,0.0,0.0,42.0,0.0,0.0,0.0,0.0,0.0,
6.410038999999873,0.0,0.0,53497.0,0.75,-135.0,-231.49606212973595,0.0,0.25,0.797119059,4.932250999999998,0.0,-42612.0,1.25,120.0,231.49606212973595,0.0,0.0,0.531005805,4.963769999999998,0.0,68615.0,1.375,135.0,231.49606212973595,0.0,0.125,0.8801268630000001,2.4702000000000024,0.0,-42994.0,1.25,105.0,231.49606212973595,0.0,0.25,1.617431475,0.01,0.0,-0.6499999761581421,-0.8500000238418579,-44.68000030517578,-0.03851318359375,-0.021484375,1.03094482421875,33.880001068115234,0.0,-9.0,-3.9573974609375,3.69189453125,Closing,0.0,0.0,42.0,0.0,0.0,0.0,0.0,0.0,
6.549653999999864,0.0,0.0,53473.0,1.0,-172.5,-231.49606212973595,0.0,0.125,0.826415931,4.932250999999998,0.0,-42561.0,1.375,165.0,231.49606212973595,0.0,0.125,0.511474557,4.963769999999998,0.0,68666.0,1.5,165.0,231.49606212973595,0.0,0.0,0.871581942,2.4702000000000024,0.0,-42967.0,1.125,165.0,231.49606212973595,0.0,0.125,1.6345213170000001,0.01,0.0,-0.6800000071525574,-0.9900000095367432,-44.63999938964844,-0.06622314453125,-1.220703125E-4,1.01043701171875,33.869998931884766,0.0,-43.0,-3.9578857421875,3.690460205078125,Closing,0.0,0.0,42.0,0.0,0.0,0.0,0.0,0.0,
6.69125,0.0,0.0,53406.0,0.625,-217.5,-231.49606212973595,0.0,0.125,0.825195228,4.932250999999998,0.0,-42525.0,1.125,217.5,231.49606212973595,0.0,0.0,0.506591745,4.963769999999998,0.0,68699.0,1.25,202.5,231.49606212973595,0.0,0.0,0.852050694,2.4702000000000024,0.0,-42933.0,1.125,217.5,231.49606212973595,0.0,0.125,1.6320799110000002,0.01,0.0,-0.6600000262260437,-1.1100000143051147,-44.650001525878906,-0.04803466796875,-0.01190185546875,1.05035400390625,33.869998931884766,0.0,-19.0,-3.9593048095703125,3.6880340576171875,Closing,0.0,0.0,42.0,0.0,0.0,0.0,0.0,0.0,
6.827387999999803,0.0,0.0,53363.0,0.75,-262.5,-281.1023533344269,0.0,0.125,0.825195228,4.932250999999998,0.0,-42484.0,1.25,255.0,281.1023533344269,0.0,0.0,0.506591745,4.963769999999998,0.0,68741.0,1.375,262.5,281.1023533344269,0.0,0.0,0.849609288,2.4702000000000024,0.0,-42893.0,1.125,255.0,281.1023533344269,0.0,0.125,1.6345213170000001,0.01,0.0,-0.6899999976158142,-1.2100000381469727,-44.52000045776367,-0.01092529296875,-0.02154541015625,0.968994140625,33.869998931884766,0.0,13.0,-3.9600830078125,3.687652587890625,Closing,0.0,0.0,42.0,0.0,0.0,0.0,0.0,0.0,
6.962072999999858,0.0,0.0,53315.0,0.625,-292.5,-297.6378098130226,0.0,0.125,0.826415931,4.932250999999998,0.0,-42436.0,1.125,300.0,297.6378098130226,0.0,0.0,0.506591745,4.963769999999998,0.0,68787.0,1.25,292.5,297.6378098130226,0.0,0.0,0.852050694,2.4702000000000024,0.0,-42849.0,1.125,285.0,297.6378098130226,0.0,0.125,1.6345213170000001,0.01,0.0,-0.7099999785423279,-1.2599999904632568,-44.5099983215332,-0.01507568359375,-0.00482177734375,1.06622314453125,33.869998931884766,0.0,0.0,-3.9600677490234375,3.687591552734375,Closing,0.0,0.0,42.0,0.0,0.0,0.0,0.0,0.0,
7.09758899999992,0.0,0.0,53264.0,0.375,-315.0,-297.6378098130226,0.0,0.125,0.826415931,4.932250999999998,0.0,-42387.0,0.875,307.5,297.6378098130226,0.0,0.0,0.506591745,4.963769999999998,0.0,68837.0,1.125,315.0,297.6378098130226,0.0,0.0,0.852050694,2.4702000000000024,0.0,-42802.0,1.125,300.0,297.6378098130226,0.0,0.125,1.6345213170000001,0.01,0.0,-0.7200000286102295,-1.1799999475479126,-44.400001525878906,0.01092529296875,-0.0257568359375,1.02447509765625,33.900001525878906,0.0,31.0,-3.9602203369140625,3.68798828125,Closing,0.0,0.0,42.0,0.0,0.0,0.0,0.0,0.0,
7.232976999999956,0.0,0.0,53212.0,0.375,-322.5,-297.6378098130226,0.0,0.125,0.8276366340000001,4.932250999999998,0.0,-42336.0,0.75,315.0,297.6378098130226,0.0,0.0,0.506591745,4.963769999999998,0.0,68888.0,0.875,322.5,297.6378098130226,0.0,0.0,0.852050694,2.4702000000000024,0.0,-42702.0,0.875,315.0,297.6378098130226,0.0,0.125,1.6345213170000001,0.01,0.0,-0.7599999904632568,-1.1200000047683716,-44.33000183105469,-0.00213623046875,-0.02362060546875,0.9368896484375,33.900001525878906,0.0,19.0,-3.959869384765625,3.6888885498046875,Closing,0.0,0.0,42.0,0.0,0.0,0.0,0.0,0.0,
7.371107999999775,0.0,0.0,53161.0,0.375,-315.0,-297.6378098130226,0.0,0.125,0.820312416,4.932250999999998,0.0,-42285.0,0.75,307.5,297.6378098130226,0.0,0.0,0.5163573690000001,4.963769999999998,0.0,68941.0,0.875,322.5,297.6378098130226,0.0,0.0,0.852050694,2.4702000000000024,0.0,-42651.0,0.875,315.0,297.6378098130226,0.0,0.125,1.6345213170000001,0.01,0.0,-0.7799999713897705,-1.090000033378601,-44.220001220703125,-0.04400634765625,0.03692626953125,1.09747314453125,33.900001525878906,0.0,-52.0,-3.959808349609375,3.6891021728515625,Closing,0.0,0.0,42.0,0.0,0.0,0.0,0.0,0.0,
7.503444999999832,0.0,0.0,53110.0,0.375,-315.0,-297.6378098130226,0.0,0.125,0.8178710100000001,4.932250999999998,0.0,-42186.0,0.75,307.5,297.6378098130226,0.0,0.0,0.510253854,4.963769999999998,0.0,69042.0,0.75,307.5,297.6378098130226,0.0,0.0,0.850829991,2.4702000000000024,0.0,-42603.0,0.875,300.0,297.6378098130226,0.0,0.125,1.6333006140000002,0.01,0.0,-0.800000011920929,-1.0099999904632568,-44.11000061035156,-0.02471923828125,0.01397705078125,1.0386962890625,33.880001068115234,0.0,-24.0,-3.9598541259765625,3.68963623046875,Closing,0.0,0.0,42.0,0.0,0.0,0.0,0.0,0.0,
7.64325,0.0,0.0,53059.0,0.375,-307.5,-297.6378098130226,0.0,0.125,0.826415931,4.932250999999998,0.0,-42139.0,0.75,292.5,297.6378098130226,0.0,0.0,0.510253854,4.963769999999998,0.0,69091.0,0.875,300.0,297.6378098130226,0.0,0.0,0.852050694,2.4702000000000024,0.0,-42554.0,0.875,285.0,297.6378098130226,0.0,0.125,1.6345213170000001,0.01,0.0,-0.7900000214576721,-0.9599999785423279,-44.0099983215332,0.01513671875,-0.01898193359375,1.01220703125,33.880001068115234,0.0,26.0,-3.9593963623046875,3.690277099609375,Closing,0.0,0.0,42.0,0.0,0.0,0.0,0.0,0.0,
7.779398999999976,0.0,0.0,52963.0,0.375,-292.5,-297.6378098130226,0.0,0.125,0.826415931,4.932250999999998,0.0,-42091.0,0.75,292.5,297.6378098130226,0.0,0.0,0.511474557,4.963769999999998,0.0,69138.0,0.875,292.5,297.6378098130226,0.0,0.0,0.850829991,2.4702000000000024,0.0,-42508.0,0.875,292.5,297.6378098130226,0.0,0.125,1.6345213170000001,0.01,0.0,-0.800000011920929,-0.949999988079071,-44.0,-0.0179443359375,-0.03155517578125,1.00921630859375,33.880001068115234,0.0,11.0,-3.9593048095703125,3.6903533935546875,Closing,0.0,0.0,42.0,0.0,0.0,0.0,0.0,0.0,
7.916114999999991,0.0,0.0,52914.0,0.375,-300.0,-297.6378098130226,0.0,0.125,0.825195228,4.932250999999998,0.0,-42044.0,0.75,292.5,297.6378098130226,0.0,0.0,0.5175780720000001,4.963769999999998,0.0,69186.0,0.875,300.0,297.6378098130226,0.0,0.0,0.860595615,2.4702000000000024,0.0,-42462.0,0.875,292.5,297.6378098130226,0.0,0.125,1.6345213170000001,0.01,0.0,-0.800000011920929,-0.8999999761581421,-43.93000030517578,-0.02056884765625,-0.00665283203125,0.94476318359375,33.880001068115234,0.0,-8.0,-3.9593048095703125,3.6904449462890625,Closing,0.0,0.0,42.0,0.0,0.0,0.0,0.0,0.0,
8.052741999999853,0.0,0.0,52867.0,0.375,-292.5,-297.6378098130226,0.0,0.125,0.823974525,4.932250999999998,0.0,-41996.0,0.75,292.5,297.6378098130226,0.0,0.0,0.511474557,4.963769999999998,0.0,69235.0,0.75,307.5,297.6378098130226,0.0,0.0,0.852050694,2.4702000000000024,0.0,-42414.0,0.875,292.5,297.6378098130226,0.0,0.125,1.6345213170000001,0.01,0.0,-0.800000011920929,-0.8600000143051147,-43.93000030517578,0.02459716796875,-0.041748046875,0.94842529296875,33.900001525878906,0.0,47.0,-3.959320068359375,3.69073486328125,Closing,0.0,0.0,42.0,0.0,0.0,0.0,0.0,0.0,
8.182882999999915,0.0,0.0,52819.0,0.375,-292.5,-297.6378098130226,0.0,0.125,0.826415931,4.932250999999998,0.0,-41949.0,0.75,292.5,297.6378098130226,0.0,0.0,0.511474557,4.963769999999998,0.0,69284.0,0.875,292.5,297.6378098130226,0.0,0.0,0.845947179,2.4702000000000024,0.0,-42368.0,0.875,292.5,297.6378098130226,0.0,0.125,1.6345213170000001,0.01,0.0,-0.7599999904632568,-0.8799999952316284,-43.869998931884766,-0.01708984375,-0.01104736328125,1.0574951171875,33.900001525878906,0.0,-2.0,-3.95904541015625,3.69073486328125,Closing,0.0,0.0,42.0,0.0,0.0,0.0,0.0,0.0,
8.317092999999877,0.0,0.0,52773.0,0.375,-285.0,-297.6378098130226,0.0,0.125,0.8142089010000001,4.932250999999998,0.0,-41901.0,0.75,285.0,297.6378098130226,0.0,0.0,0.511474557,4.963769999999998,0.0,69330.0,0.875,285.0,297.6378098130226,0.0,0.0,0.852050694,2.4702000000000024,0.0,-42275.0,0.875,277.5,297.6378098130226,0.0,0.125,1.6345213170000001,0.01,0.0,-0.75,-0.8299999833106995,-43.849998474121094,-0.02886962890625,-0.00164794921875,1.02117919921875,33.900001525878906,0.0,-18.0,-3.9588165283203125,3.6907958984375,Closing,0.0,0.0,42.0,0.0,0.0,0.0,0.0,0.0,
8.456143999999854,0.0,0.0,52727.0,0.375,-285.0,-297.6378098130226,0.0,0.125,0.825195228,4.932250999999998,0.0,-41855.0,0.875,285.0,297.6378098130226,0.0,0.0,0.505371042,4.963769999999998,0.0,69378.0,0.75,292.5,297.6378098130226,0.0,0.0,0.852050694,2.4702000000000024,0.0,-42229.0,1.125,285.0,297.6378098130226,0.0,0.125,1.6345213170000001,0.01,0.0,-0.7300000190734863,-0.8600000143051147,-43.83000183105469,-0.01708984375,-0.05657958984375,1.0225830078125,33.900001525878906,0.0,28.0,-3.9589691162109375,3.6908721923828125,Closing,0.0,0.0,42.0,0.0,0.0,0.0,0.0,0.0,
8.596960999999894,0.0,0.0,52680.0,0.375,-292.5,-297.6378098130226,0.0,0.125,0.826415931,4.932250999999998,0.0,-41761.0,0.75,292.5,297.6378098130226,0.0,0.0,0.51269526,4.963769999999998,0.0,69472.0,0.875,292.5,297.6378098130226,0.0,0.0,0.852050694,2.4702000000000024,0.0,-42182.0,1.125,292.5,297.6378098130226,0.0,0.125,1.6357420200000001,0.01,0.0,-0.7699999809265137,-0.8500000238418579,-43.810001373291016,-0.01983642578125,0.0079345703125,1.0106201171875,33.88999938964844,0.0,-18.0,-3.95892333984375,3.6909027099609375,Closing,0.0,0.0,42.0,0.0,0.0,0.0,0.0,0.0,
8.729883999999846,0.0,0.0,52587.0,0.375,-285.0,-297.6378098130226,0.0,0.125,0.8276366340000001,4.932250999999998,0.0,-41714.0,0.875,292.5,297.6378098130226,0.0,0.0,0.507812448,4.963769999999998,0.0,69519.0,0.875,285.0,297.6378098130226,0.0,0.0,0.852050694,2.4702000000000024,0.0,-42135.0,0.875,292.5,297.6378098130226,0.0,0.125,1.6357420200000001,0.01,0.0,-0.7699999809265137,-0.8299999833106995,-43.810001373291016,-0.00555419921875,-0.06640625,1.0386962890625,33.88999938964844,0.0,43.0,-3.9587860107421875,3.6909332275390625,Closing,0.0,0.0,42.0,0.0,0.0,0.0,0.0,0.0,
8.871962999999988,0.0,0.0,52540.0,0.375,-292.5,-297.6378098130226,0.0,0.125,0.826415931,4.932250999999998,0.0,-41667.0,0.75,292.5,297.6378098130226,0.0,0.0,0.506591745,4.963769999999998,0.0,69566.0,0.875,285.0,297.6378098130226,0.0,0.0,0.850829991,2.4702000000000024,0.0,-42088.0,1.125,292.5,297.6378098130226,0.0,0.125,1.6345213170000001,0.01,0.0,-0.7599999904632568,-0.8299999833106995,-43.790000915527344,-0.0272216796875,0.0035400390625,1.1075439453125,33.88999938964844,0.0,-20.0,-3.958343505859375,3.6909332275390625,Closing,0.0,0.0,42.0,0.0,0.0,0.0,0.0,0.0,
9.011866999999853,0.0,0.0,52494.0,0.375,-285.0,-297.6378098130226,0.0,0.125,0.825195228,4.932250999999998,0.0,-41620.0,0.875,285.0,297.6378098130226,0.0,0.0,0.506591745,4.963769999999998,0.0,69612.0,0.875,285.0,297.6378098130226,0.0,0.0,0.850829991,2.4702000000000024,0.0,-42042.0,1.125,277.5,297.6378098130226,0.0,0.125,1.6345213170000001,0.01,0.0,-0.7599999904632568,-0.8100000023841858,-43.790000915527344,-0.023681640625,-0.04364013671875,1.02435302734375,33.88999938964844,0.0,14.0,-3.95806884765625,3.6910552978515625,Closing,0.0,0.0,42.0,0.0,0.0,0.0,0.0,0.0,
9.150179999999935,0.0,0.0,52448.0,0.625,-262.5,-297.6378098130226,0.0,0.125,0.826415931,4.932250999999998,0.0,-41574.0,1.125,285.0,297.6378098130226,0.0,0.0,0.5017089330000001,4.963769999999998,0.0,69658.0,1.25,255.0,297.6378098130226,0.0,0.0,0.8557128030000001,2.4702000000000024,0.0,-41996.0,1.125,277.5,297.6378098130226,0.0,0.125,1.6345213170000001,0.01,0.0,-0.6700000166893005,-0.30000001192092896,-44.029998779296875,0.345703125,0.041015625,1.099853515625,33.900001525878906,0.0,215.0,-3.9567413330078125,3.6925811767578125,Closing,0.0,0.0,42.0,0.0,0.0,0.0,0.0,0.0,
9.280843999999808,0.0,0.0,52439.0,3.0,7.5,-297.6378098130226,0.0,0.125,0.826415931,4.932250999999998,0.0,-41546.0,4.125,7.5,297.6378098130226,0.0,0.0,0.489501903,4.963769999999998,0.0,69676.0,3.5,0.0,297.6378098130226,0.0,0.0,0.847167882,2.4702000000000024,0.0,-41958.0,3.5,0.0,297.6378098130226,0.0,0.125,1.6357420200000001,0.01,0.0,-0.7300000190734863,0.07999999821186066,-44.31999969482422,-0.03570556640625,0.07183837890625,1.0335693359375,33.900001525878906,0.0,-86.0,-3.9411468505859375,3.707794189453125,Closing,0.0,0.0,42.0,0.0,0.0,0.0,0.0,0.0,
9.416608999999939,0.0,0.0,52439.0,4.5,0.0,-297.6378098130226,0.0,0.125,0.826415931,4.932250999999998,0.0,-41548.0,6.875,7.5,297.6378098130226,0.0,0.0,0.5017089330000001,4.963769999999998,0.0,69676.0,5.875,7.5,297.6378098130226,0.0,0.0,0.845947179,2.4702000000000024,0.0,-41956.0,4.75,7.5,297.6378098130226,0.0,0.125,1.6345213170000001,0.01,0.0,-0.7799999713897705,0.029999999329447746,-44.380001068115234,1.220703125E-4,0.00189208984375,1.00250244140625,33.900001525878906,0.0,-11.0,-3.9397125244140625,3.7085723876953125,Closing,0.0,0.0,42.0,0.0,0.0,0.0,0.0,0.0,
9.554826999999815,0.0,0.0,52437.0,4.75,0.0,-148.8189049065113,0.0,0.125,0.826415931,4.932250999999998,0.0,-41545.0,6.5,0.0,148.8189049065113,0.0,0.0,0.5017089330000001,4.963769999999998,0.0,69679.0,6.125,0.0,148.8189049065113,0.0,0.0,0.845947179,2.4702000000000024,0.0,-41955.0,5.5,0.0,148.8189049065113,0.0,0.125,1.6345213170000001,0.01,0.0,-0.7799999713897705,-0.029999999329447746,-44.38999938964844,-0.02105712890625,-0.0244140625,1.0341796875,33.88999938964844,0.0,-7.0,-3.939788818359375,3.708465576171875,Closing,0.0,0.0,42.0,0.0,0.0,0.0,0.0,0.0,
9.694092999999878,0.0,0.0,52448.0,0.0,67.5,0.0,0.0,0.125,0.826415931,4.932250999999998,0.0,-41556.0,0.0,-82.5,0.0,0.0,0.0,0.5017089330000001,4.963769999999998,0.0,69670.0,0.0,-52.5,0.0,0.0,0.0,0.847167882,2.4702000000000024,0.0,-41961.0,0.125,-60.0,0.0,0.0,0.125,1.6333006140000002,0.01,0.0,-0.8500000238418579,0.1599999964237213,-44.310001373291016,-0.1253662109375,-0.02972412109375,0.9967041015625,33.88999938964844,0.0,-81.0,-3.9376678466796875,3.709625244140625,Closing,0.0,0.0,42.0,0.0,0.0,0.0,0.0,0.0,
9.824280999999958,0.0,0.0,52451.0,0.0,22.5,0.0,0.0,0.125,0.825195228,4.932250999999998,0.0,-41563.0,0.0,-30.0,0.0,0.0,0.0,0.5017089330000001,4.963769999999998,0.0,69669.0,0.0,0.0,0.0,0.0,0.0,0.847167882,2.4702000000000024,0.0,-41973.0,0.125,-45.0,0.0,0.0,0.125,1.6345213170000001,0.01,0.0,-0.75,-0.2199999988079071,-44.18000030517578,-0.02569580078125,-0.052978515625,1.025634765625,33.88999938964844,0.0,11.0,-3.938201904296875,3.709014892578125,Closing,0.0,0.0,42.0,0.0,0.0,0.0,0.0,0.0,
9.959366999999853,0.0,0.0,52451.0,0.0,0.0,0.0,0.0,0.125,0.826415931,4.932250999999998,0.0,-41563.0,0.0,0.0,0.0,0.0,0.0,0.5017089330000001,4.963769999999998,0.0,69669.0,0.0,0.0,0.0,0.0,0.0,0.847167882,2.4702000000000024,0.0,-41973.0,0.0,0.0,0.0,0.0,0.125,1.6345213170000001,0.01,0.0,-0.75,-0.1599999964237213,-44.209999084472656,-0.005615234375,-0.0338134765625,1.05499267578125,33.88999938964844,0.0,11.0,-3.93804931640625,3.706878662109375,Closing,0.0,0.0,42.0,0.0,0.0,0.0,0.0,0.0,
10.096653999999864,0.0,0.0,52451.0,0.0,0.0,0.0,0.0,0.125,0.825195228,4.932250999999998,0.0,-41563.0,0.0,0.0,0.0,0.0,0.0,0.5017089330000001,4.963769999999998,0.0,69669.0,0.0,0.0,0.0,0.0,0.0,0.847167882,2.4702000000000024,0.0,-41973.0,0.0,0.0,0.0,0.0,0.125,1.6345213170000001,0.01,0.0,-0.75,-0.25999999046325684,-44.20000076293945,-0.0052490234375,-0.0279541015625,0.9981689453125,33.869998931884766,0.0,9.0,-3.938568115234375,3.706451416015625,Closing,0.0,0.0,42.0,0.0,0.0,0.0,0.0,0.0,
10.231996999999973,0.0,0.0,52451.0,0.0,0.0,0.0,0.0,0.125,0.826415931,4.932250999999998,0.0,-41563.0,0.0,0.0,0.0,0.0,0.0,0.50048823,4.963769999999998,0.0,69669.0,0.0,0.0,0.0,0.0,0.0,0.847167882,2.4702000000000024,0.0,-41973.0,0.125,0.0,0.0,0.0,0.125,1.6345213170000001,0.01,0.0,-0.75,-0.28999999165534973,-44.20000076293945,-0.02630615234375,-0.02001953125,1.0267333984375,33.869998931884766,0.0,-10.0,-3.938568115234375,3.706451416015625,Closing,0.0,0.0,42.0,0.0,0.0,0.0,0.0,0.0,
10.369304999999935,0.0,0.0,52451.0,0.0,0.0,0.0,0.0,0.125,0.826415931,4.932250999999998,0.0,-41563.0,0.0,0.0,0.0,0.0,0.0,0.5017089330000001,4.963769999999998,0.0,69669.0,0.0,0.0,0.0,0.0,0.0,0.847167882,2.4702000000000024,0.0,-41973.0,0.0,0.0,0.0,0.0,0.125,1.6357420200000001,0.01,0.0,-0.75,-0.3199999928474426,-44.20000076293945,-0.0062255859375,-0.017333984375,1.0233154296875,33.869998931884766,0.0,2.0,-3.938568115234375,3.706298828125,Closing,0.0,0.0,42.0,0.0,0.0,0.0,0.0,0.0,
10.50181299999985,0.0,0.0,52451.0,0.0,0.0,0.0,0.0,0.125,0.826415931,4.932250999999998,0.0,-41563.0,0.0,0.0,0.0,0.0,0.0,0.5017089330000001,4.963769999999998,0.0,69669.0,0.0,0.0,0.0,0.0,0.0,0.845947179,2.4702000000000024,0.0,-41973.0,0.0,0.0,0.0,0.0,0.125,1.6345213170000001,0.01,0.0,-0.75,-0.3700000047683716,-44.20000076293945,-0.00927734375,-0.01275634765625,1.0272216796875,33.869998931884766,0.0,-2.0,-3.938568115234375,3.706298828125,Closing,0.0,0.0,42.0,0.0,0.0,0.0,0.0,0.0,
10.63285099999979,0.0,0.0,52451.0,0.0,0.0,0.0,0.0,0.125,0.826415931,4.932250999999998,0.0,-41563.0,0.0,0.0,0.0,0.0,0.0,0.5017089330000001,4.963769999999998,0.0,69669.0,0.0,0.0,0.0,0.0,0.0,0.847167882,2.4702000000000024,0.0,-41973.0,0.0,0.0,0.0,0.0,0.125,1.6345213170000001,0.01,0.0,-0.75,-0.4000000059604645,-44.20000076293945,-0.01171875,-0.01641845703125,1.0211181640625,33.880001068115234,0.0,-1.0,-3.938568115234375,3.706298828125,Closing,0.0,0.0,42.0,0.0,0.0,0.0,0.0,0.0,
10.77108899999992,0.0,0.0,52451.0,0.0,0.0,0.0,0.0,0.125,0.826415931,4.932250999999998,0.0,-41563.0,0.0,0.0,0.0,0.0,0.0,0.5017089330000001,4.963769999999998,0.0,69669.0,0.0,0.0,0.0,0.0,0.0,0.847167882,2.4702000000000024,0.0,-41973.0,0.0,0.0,0.0,0.0,0.125,1.6345213170000001,0.01,0.0,-0.7599999904632568,-0.41999998688697815,-44.20000076293945,-0.01715087890625,-0.01495361328125,1.0260009765625,33.880001068115234,0.0,-5.0,-3.938568115234375,3.706298828125,Closing,0.0,0.0,42.0,0.0,0.0,0.0,0.0,0.0,
10.909163999999873,0.0,0.0,52451.0,0.0,0.0,0.0,0.0,0.125,0.826415931,4.932250999999998,0.0,-41563.0,0.0,0.0,0.0,0.0,0.0,0.5017089330000001,4.963769999999998,0.0,69669.0,0.0,0.0,0.0,0.0,0.0,0.847167882,2.4702000000000024,0.0,-41973.0,0.125,0.0,0.0,0.0,0.125,1.6345213170000001,0.01,0.0,-0.75,-0.44999998807907104,-44.209999084472656,-0.01129150390625,-0.0162353515625,1.01885986328125,33.880001068115234,0.0,0.0,-3.938568115234375,3.706298828125,Closing,0.0,0.0,42.0,0.0,0.0,0.0,0.0,0.0,
11.053065999999875,0.0,0.0,52451.0,0.0,0.0,0.0,0.0,0.125,0.826415931,4.932250999999998,0.0,-41563.0,0.0,0.0,0.0,0.0,0.0,0.5017089330000001,4.963769999999998,0.0,69669.0,0.0,0.0,0.0,0.0,0.0,0.847167882,2.4702000000000024,0.0,-41973.0,0.125,0.0,0.0,0.0,0.125,1.6333006140000002,0.01,0.0,-0.75,-0.47999998927116394,-44.209999084472656,-0.0135498046875,-0.01312255859375,1.018310546875,33.869998931884766,0.0,-3.0,-3.938568115234375,3.706298828125,Closing,0.0,0.0,42.0,0.0,0.0,0.0,0.0,0.0,
11.193816999999806,0.0,0.0,52451.0,0.0,0.0,0.0,0.0,0.125,0.826415931,4.932250999999998,0.0,-41563.0,0.0,0.0,0.0,0.0,0.0,0.5017089330000001,4.963769999999998,0.0,69669.0,0.0,0.0,0.0,0.0,0.0,0.847167882,2.4702000000000024,0.0,-41973.0,0.0,0.0,0.0,0.0,0.125,1.6345213170000001,0.01,0.0,-0.75,-0.5,-44.209999084472656,-0.01123046875,-0.013916015625,1.01824951171875,33.869998931884766,0.0,-1.0,-3.938568115234375,3.706298828125,Closing,0.0,0.0,42.0,0.0,0.0,0.0,0.0,0.0,
11.349762999999802,0.0,0.0,52451.0,0.0,0.0,0.0,0.0,0.125,0.8276366340000001,4.932250999999998,0.0,-41563.0,0.0,0.0,0.0,0.0,0.0,0.5017089330000001,4.963769999999998,0.0,69669.0,0.0,0.0,0.0,0.0,0.0,0.845947179,2.4702000000000024,0.0,-41973.0,0.0,0.0,0.0,0.0,0.125,1.6345213170000001,0.01,0.0,-0.75,-0.5199999809265137,-44.209999084472656,-0.0086669921875,-0.01507568359375,1.02178955078125,33.869998931884766,0.0,1.0,-3.938568115234375,3.706298828125,Closing,0.0,0.0,42.0,0.0,0.0,0.0,0.0,0.0,
11.491572999999859,0.0,0.0,52480.0,5.25,210.0,935.15625,0.0,1.875,1.4233396980000002,1.2330627500000013,0.0,-41548.0,7.75,105.0,935.15625,0.0,1.5,4.847411613,3.7228275000000015,0.0,69680.0,6.25,75.0,935.15625,0.0,1.0,0.065917962,1.2351000000000012,0.0,-42002.0,4.5,-210.0,-935.15625,0.0,1.375,2.449950921,1.2395000000000012,0.0,-0.6000000238418579,-0.46000000834465027,-44.31999969482422,0.06085205078125,0.15948486328125,0.92962646484375,33.869998931884766,0.0,-69.0,-3.94097900390625,3.710235595703125,Closing,0.0,0.0,42.0,0.0,0.0,0.0,0.0,0.0,
11.63271399999992,0.0,0.0,52504.0,10.75,187.5,951.5625,0.0,0.875,2.187499776,1.2330627500000013,0.0,-41515.0,11.875,277.5,951.5625,0.0,0.5,4.036864821,3.7228275000000015,0.0,69703.0,11.375,165.0,951.5625,0.0,0.375,4.40673783,1.2351000000000012,0.0,-42020.0,9.25,-240.0,-951.5625,0.0,0.375,3.132323898,1.2395000000000012,0.0,0.5699999928474426,-0.47999998927116394,-44.689998626708984,-0.10589599609375,0.1737060546875,1.02569580078125,33.88999938964844,0.0,-184.0,-3.9528350830078125,3.7264862060546875,Closing,0.0,0.0,42.0,0.0,0.0,0.0,0.0,0.0,
11.786561999999918,0.0,0.0,52583.0,10.5,555.0,951.5625,0.0,0.25,2.264404065,1.2330627500000013,0.0,-41425.0,9.0,697.5,951.5625,0.0,0.25,3.8476558560000003,3.7228275000000015,0.0,69749.0,14.25,360.0,951.5625,0.0,0.125,4.3481440860000005,1.2351000000000012,0.0,-42172.0,9.5,-562.5,-951.5625,0.0,0.5,3.1604000670000003,1.2395000000000012,0.0,1.059999942779541,-1.0800000429153442,-44.959999084472656,0.17193603515625,0.10845947265625,0.8621826171875,33.88999938964844,0.0,67.0,-3.9873046875,3.7582855224609375,Closing,0.0,0.0,42.0,0.0,0.0,0.0,0.0,0.0,
11.929288999999873,0.0,0.0,52684.0,11.75,630.0,951.5625,0.0,0.25,2.0666501790000003,1.2330627500000013,0.0,-41196.0,10.5,705.0,951.5625,0.0,0.75,4.129638249,3.7228275000000015,0.0,69926.0,18.0,607.5,951.5625,0.0,0.375,4.497069852,1.2351000000000012,0.0,-42265.0,11.75,-570.0,-951.5625,0.0,0.5,2.883300486,1.2395000000000012,0.0,1.440000057220459,-0.6399999856948853,-45.29999923706055,-0.04595947265625,0.15228271484375,0.88787841796875,33.88999938964844,0.0,-117.0,-4.016326904296875,3.7987518310546875,Closing,0.0,0.0,42.0,0.0,0.0,0.0,0.0,0.0,
12.086238999999827,0.0,0.0,52877.0,0.0,502.5,0.0,0.0,0.125,1.979980266,1.2330627500000013,0.0,-41113.0,0.0,472.5,0.0,0.0,0.25,4.351806195,3.7228275000000015,0.0,70041.0,0.0,712.5,0.0,0.0,0.0,4.647216321,1.2351000000000012,0.0,-42354.0,0.0,-510.0,0.0,0.0,0.25,2.629394262,1.2395000000000012,0.0,1.0399999618530273,-0.5799999833106995,-44.95000076293945,-0.03143310546875,-0.18505859375,1.26806640625,33.900001525878906,0.0,133.0,-4.05413818359375,3.8465728759765625,Closing,0.0,0.0,42.0,0.0,0.0,0.0,0.0,0.0,
12.233349999999861,0.0,0.0,52948.0,0.0,427.5,0.0,0.0,0.25,1.9946287020000002,1.2330627500000013,0.0,-41057.0,0.0,300.0,0.0,0.0,0.25,4.3481440860000005,3.7228275000000015,0.0,70124.0,0.0,390.0,0.0,0.0,0.125,4.650878430000001,1.2351000000000012,0.0,-42447.0,0.125,-397.5,0.0,0.0,0.375,2.7502438590000002,1.2395000000000012,0.0,-0.3400000035762787,-0.6499999761581421,-44.34000015258789,0.02838134765625,-0.25946044921875,0.9322509765625,33.900001525878906,0.0,205.0,-4.06951904296875,3.8704681396484375,Closing,0.0,0.0,42.0,0.0,0.0,0.0,0.0,0.0,
12.387337999999989,0.0,0.0,52952.0,0.0,0.0,0.0,0.0,0.25,2.023925574,1.2330627500000013,0.0,-41038.0,0.0,45.0,0.0,0.0,0.25,4.2932124510000005,3.7228275000000015,0.0,70150.0,0.0,45.0,0.0,0.0,0.125,4.617919449,1.2351000000000012,0.0,-42493.0,0.0,-30.0,0.0,0.0,0.375,2.8405758810000004,1.2395000000000012,0.0,-1.090000033378601,-0.6899999976158142,-44.31999969482422,3.0517578125E-4,0.014892578125,1.041259765625,33.900001525878906,0.0,-15.0,-4.0682373046875,3.8740386962890625,Closing,0.0,0.0,42.0,0.0,0.0,0.0,0.0,0.0,
12.527811999999917,0.0,0.0,52952.0,0.0,0.0,0.0,0.0,0.125,2.023925574,1.2330627500000013,0.0,-41036.0,0.0,0.0,0.0,0.0,0.0,4.250487846,3.7228275000000015,0.0,70150.0,0.0,0.0,0.0,0.0,0.125,4.597167498,1.2351000000000012,0.0,-42493.0,0.0,0.0,0.0,0.0,0.125,2.8552243170000002,1.2395000000000012,0.0,-0.8700000047683716,-0.7099999785423279,-44.349998474121094,-0.00189208984375,0.029296875,1.0040283203125,33.900001525878906,0.0,-23.0,-4.0697784423828125,3.874969482421875,Closing,0.0,0.0,42.0,0.0,0.0,0.0,0.0,0.0,
12.678301999999908,0.0,0.0,52952.0,6.375,187.5,1066.40625,0.0,0.125,2.030029089,1.2330627500000013,0.0,-40993.0,7.875,262.5,1066.40625,0.0,0.125,4.244384331,3.7228275000000015,0.0,70155.0,7.875,22.5,1066.40625,0.0,0.0,4.570312032,1.2351000000000012,0.0,-42513.0,6.625,-180.0,-1066.40625,0.0,0.125,2.8991696250000003,1.2395000000000012,0.0,0.18000000715255737,-0.75,-44.349998474121094,-0.0198974609375,0.1595458984375,1.34039306640625,33.880001068115234,0.0,-110.0,-4.0815582275390625,3.881256103515625,Closing,0.0,0.0,42.0,0.0,0.0,0.0,0.0,0.0,
12.822323999999789,0.0,0.0,53005.0,0.0,135.0,0.0,0.0,0.125,2.023925574,1.2330627500000013,0.0,-40976.0,0.0,75.0,0.0,0.0,0.125,4.2358394100000005,3.7228275000000015,0.0,70170.0,0.0,82.5,0.0,0.0,0.0,4.569091329,1.2351000000000012,0.0,-42539.0,0.125,-75.0,0.0,0.0,0.25,2.9040524370000003,1.2395000000000012,0.0,-0.5699999928474426,-0.75,-44.68000030517578,-0.0330810546875,-0.31439208984375,1.072021484375,33.880001068115234,0.0,200.0,-4.098846435546875,3.8896026611328125,Closing,0.0,0.0,42.0,0.0,0.0,0.0,0.0,0.0,
12.955169999999926,0.0,0.0,53009.0,0.0,22.5,0.0,0.0,0.125,2.028808386,1.2330627500000013,0.0,-40964.0,0.0,45.0,0.0,0.0,0.0,4.2407222220000005,3.7228275000000015,0.0,70171.0,0.0,0.0,0.0,0.0,0.0,4.578856953,1.2351000000000012,0.0,-42541.0,0.125,0.0,0.0,0.0,0.25,2.8991696250000003,1.2395000000000012,0.0,-1.1799999475479126,-0.7599999904632568,-44.4900016784668,-0.02154541015625,0.02569580078125,1.05682373046875,33.880001068115234,0.0,-38.0,-4.10162353515625,3.881256103515625,Closing,0.0,0.0,42.0,0.0,0.0,0.0,0.0,0.0,
13.093022999999812,0.0,0.0,52997.0,0.0,-90.0,0.0,0.0,0.125,2.028808386,1.2330627500000013,0.0,-40976.0,0.0,-90.0,0.0,0.0,0.125,4.2407222220000005,3.7228275000000015,0.0,70169.0,0.0,-30.0,0.0,0.0,0.0,4.583739765000001,1.2351000000000012,0.0,-42541.0,0.0,22.5,0.0,0.0,0.25,2.874755565,1.2395000000000012,0.0,-0.6399999856948853,-0.75,-44.43000030517578,-0.01080322265625,0.091064453125,1.04296875,33.880001068115234,0.0,-69.0,-4.1064910888671875,3.874359130859375,Closing,0.0,0.0,42.0,0.0,0.0,0.0,0.0,0.0,
13.230902999999932,0.0,0.0,52995.0,0.0,0.0,0.0,0.0,0.125,2.028808386,1.2330627500000013,0.0,-40980.0,0.0,0.0,0.0,0.0,0.125,4.241942925,3.7228275000000015,0.0,70166.0,0.0,0.0,0.0,0.0,0.0,4.583739765000001,1.2351000000000012,0.0,-42536.0,0.0,0.0,0.0,0.0,0.125,2.874755565,1.2395000000000012,0.0,-0.5199999809265137,-0.7699999809265137,-44.5,-0.02032470703125,-0.03955078125,1.05413818359375,33.880001068115234,0.0,16.0,-4.114166259765625,3.873382568359375,Closing,0.0,0.0,42.0,0.0,0.0,0.0,0.0,0.0,
13.369718999999808,0.0,0.0,52995.0,0.0,0.0,0.0,0.0,0.125,2.028808386,1.2330627500000013,0.0,-40980.0,0.0,0.0,0.0,0.0,0.125,4.2407222220000005,3.7228275000000015,0.0,70166.0,0.0,0.0,0.0,0.0,0.0,4.583739765000001,1.2351000000000012,0.0,-42536.0,0.0,0.0,0.0,0.0,0.125,2.874755565,1.2395000000000012,0.0,-0.5699999928474426,-0.7699999809265137,-44.4900016784668,-0.01202392578125,0.010009765625,1.01031494140625,33.880001068115234,0.0,-12.0,-4.1140899658203125,3.8731536865234375,Closing,0.0,0.0,42.0,0.0,0.0,0.0,0.0,0.0,
13.49894899999979,0.0,0.0,52995.0,0.0,0.0,0.0,0.0,0.125,2.028808386,1.2330627500000013,0.0,-40980.0,0.0,0.0,0.0,0.0,0.125,4.239501519,3.7228275000000015,0.0,70166.0,0.0,0.0,0.0,0.0,0.0,4.583739765000001,1.2351000000000012,0.0,-42536.0,0.0,0.0,0.0,0.0,0.125,2.873534862,1.2395000000000012,0.0,-0.5199999809265137,-0.7699999809265137,-44.5099983215332,-0.01385498046875,-0.01348876953125,1.01580810546875,33.880001068115234,0.0,2.0,-4.1140899658203125,3.8733367919921875,Closing,0.0,0.0,42.0,0.0,0.0,0.0,0.0,0.0,
13.635485999999801,0.0,0.0,52995.0,0.0,0.0,0.0,0.0,0.125,2.028808386,1.2330627500000013,0.0,-40980.0,0.0,0.0,0.0,0.0,0.125,4.2407222220000005,3.7228275000000015,0.0,70166.0,0.0,0.0,0.0,0.0,0.0,4.584960468,1.2351000000000012,0.0,-42536.0,0.0,0.0,0.0,0.0,0.125,2.873534862,1.2395000000000012,0.0,-0.47999998927116394,-0.7699999809265137,-44.5,-0.0177001953125,-0.0028076171875,1.02252197265625,33.86000061035156,0.0,-6.0,-4.1140899658203125,3.8733367919921875,Closing,0.0,0.0,42.0,0.0,0.0,0.0,0.0,0.0,
13.771300999999978,0.0,0.0,52995.0,0.0,0.0,0.0,0.0,0.125,2.028808386,1.2330627500000013,0.0,-40980.0,0.0,0.0,0.0,0.0,0.125,4.239501519,3.7228275000000015,0.0,70166.0,0.0,0.0,0.0,0.0,0.0,4.583739765000001,1.2351000000000012,0.0,-42536.0,0.125,0.0,0.0,0.0,0.125,2.874755565,1.2395000000000012,0.0,-0.4699999988079071,-0.7699999809265137,-44.5,-0.0128173828125,0.00225830078125,1.01995849609375,33.86000061035156,0.0,-6.0,-4.1140899658203125,3.8733367919921875,Closing,0.0,0.0,42.0,0.0,0.0,0.0,0.0,0.0,
13.91081799999997,0.0,0.0,52995.0,0.0,0.0,0.0,0.0,0.125,2.027587683,1.2330627500000013,0.0,-40980.0,0.0,0.0,0.0,0.0,0.125,4.2407222220000005,3.7228275000000015,0.0,70166.0,0.0,0.0,0.0,0.0,0.0,4.583739765000001,1.2351000000000012,0.0,-42536.0,0.0,0.0,0.0,0.0,0.125,2.873534862,1.2395000000000012,0.0,-0.44999998807907104,-0.7799999713897705,-44.5099983215332,-0.01104736328125,-0.0108642578125,1.02178955078125,33.86000061035156,0.0,3.0,-4.1140899658203125,3.8733367919921875,Closing,0.0,0.0,42.0,0.0,0.0,0.0,0.0,0.0,
14.04408799999999,0.0,0.0,52995.0,0.0,0.0,0.0,0.0,0.125,2.028808386,1.2330627500000013,0.0,-40980.0,0.0,0.0,0.0,0.0,0.125,4.2407222220000005,3.7228275000000015,0.0,70166.0,0.0,0.0,0.0,0.0,0.0,4.582519062,1.2351000000000012,0.0,-42536.0,0.0,0.0,0.0,0.0,0.125,2.874755565,1.2395000000000012,0.0,-0.4300000071525574,-0.7699999809265137,-44.5099983215332,-0.01251220703125,-0.009765625,1.0223388671875,33.86000061035156,0.0,2.0,-4.1140899658203125,3.8733367919921875,Closing,0.0,0.0,42.0,0.0,0.0,0.0,0.0,0.0,
14.182686999999918,0.0,0.0,52995.0,0.0,0.0,0.0,0.0,0.125,2.028808386,1.2330627500000013,0.0,-40980.0,0.0,0.0,0.0,0.0,0.125,4.2407222220000005,3.7228275000000015,0.0,70166.0,0.0,0.0,0.0,0.0,0.0,4.584960468,1.2351000000000012,0.0,-42536.0,0.125,0.0,0.0,0.0,0.125,2.873534862,1.2395000000000012,0.0,-0.41999998688697815,-0.7799999713897705,-44.5099983215332,-0.01300048828125,-0.0020751953125,1.02130126953125,33.86000061035156,0.0,-3.0,-4.1140899658203125,3.8733367919921875,Closing,0.0,0.0,42.0,0.0,0.0,0.0,0.0,0.0,
14.326899999999906,0.0,0.0,52973.0,4.625,-180.0,-909.4488233327866,0.0,4.25,1.567382652,4.932250999999998,0.0,-40975.0,7.375,90.0,909.4488233327866,0.0,2.875,4.680175302,4.963769999999998,0.0,70165.0,5.0,-75.0,-909.4488233327866,0.0,5.125,4.17480426,0.01,0.0,-42547.0,5.625,-60.0,-909.4488233327866,0.0,1.5,3.446044569,2.4790000000000023,0.0,-0.5699999928474426,-0.7200000286102295,-44.529998779296875,-0.01983642578125,0.17401123046875,1.000732421875,33.86000061035156,0.0,-134.0,-4.1130828857421875,3.8731231689453125,Closing,0.0,0.0,42.0,0.0,0.0,0.0,0.0,0.0,
14.46635499999998,0.0,0.0,52976.0,0.0,97.5,0.0,0.0,0.625,0.6726073530000001,4.932250999999998,0.0,-40963.0,0.0,-112.5,0.0,0.0,0.75,0.6579589170000001,4.963769999999998,0.0,70156.0,0.0,37.5,0.0,0.0,0.875,3.243407871,0.01,0.0,-42552.0,0.0,-22.5,0.0,0.0,0.625,4.368896037,2.4790000000000023,0.0,-0.49000000953674316,-0.6600000262260437,-44.540000915527344,0.05810546875,-0.0135498046875,1.014892578125,33.86000061035156,0.0,53.0,-4.110931396484375,3.873779296875,Closing,0.0,0.0,42.0,0.0,0.0,0.0,0.0,0.0,
14.595299999999813,0.0,0.0,52986.0,0.0,15.0,0.0,0.0,0.25,0.58593744,4.932250999999998,0.0,-40984.0,0.0,-15.0,0.0,0.0,0.25,0.783691326,4.963769999999998,0.0,70161.0,0.0,30.0,0.0,0.0,0.0,3.0041500830000003,0.01,0.0,-42552.0,0.125,0.0,0.0,0.0,0.25,4.326171432000001,2.4790000000000023,0.0,-0.38999998569488525,-0.7799999713897705,-44.61000061035156,-0.0076904296875,0.0152587890625,0.98052978515625,33.86000061035156,0.0,-11.0,-4.1111907958984375,3.87646484375,Closing,0.0,0.0,42.0,0.0,0.0,0.0,0.0,0.0,
14.731583999999799,0.0,0.0,52988.0,0.0,0.0,0.0,0.0,0.375,0.773925702,4.932250999999998,0.0,-40984.0,0.0,0.0,0.0,0.0,0.25,0.631103451,4.963769999999998,0.0,70161.0,0.0,0.0,0.0,0.0,0.5,3.24706998,0.01,0.0,-42552.0,0.0,0.0,0.0,0.0,0.25,4.086913644,2.4790000000000023,0.0,-0.38999998569488525,-0.75,-44.59000015258789,-0.0174560546875,-0.00445556640625,1.052490234375,33.869998931884766,0.0,-4.0,-4.111083984375,3.876556396484375,Closing,0.0,0.0,42.0,0.0,0.0,0.0,0.0,0.0,
14.870019999999785,0.0,0.0,52988.0,0.0,0.0,0.0,0.0,0.125,0.874023348,4.932250999999998,0.0,-40984.0,0.0,0.0,0.0,0.0,0.0,0.45410151600000004,4.963769999999998,0.0,70161.0,0.0,0.0,0.0,0.0,0.125,3.382568013,0.01,0.0,-42551.0,0.0,7.5,0.0,0.0,0.125,4.017333573,2.4790000000000023,0.0,-0.38999998569488525,-0.7699999809265137,-44.61000061035156,-0.016845703125,-0.002197265625,1.05352783203125,33.869998931884766,0.0,-5.0,-4.111083984375,3.8764495849609375,Closing,0.0,0.0,42.0,0.0,0.0,0.0,0.0,0.0,
14.995954999999842,0.0,0.0,52988.0,0.0,0.0,0.0,0.0,0.25,0.834960852,4.932250999999998,0.0,-40984.0,0.0,0.0,0.0,0.0,0.0,0.477294873,4.963769999999998,0.0,70161.0,0.0,0.0,0.0,0.0,0.125,3.397216449,0.01,0.0,-42551.0,0.0,0.0,0.0,0.0,0.25,4.0783687230000005,2.4790000000000023,0.0,-0.3799999952316284,-0.7599999904632568,-44.61000061035156,-0.00958251953125,-0.00433349609375,0.999755859375,33.869998931884766,0.0,1.0,-4.111083984375,3.8764495849609375,Closing,0.0,0.0,42.0,0.0,0.0,0.0,0.0,0.0,
15.135365999999921,0.0,0.0,52988.0,0.0,0.0,0.0,0.0,0.125,0.826415931,4.932250999999998,0.0,-40984.0,0.0,0.0,0.0,0.0,0.25,0.49194330900000005,4.963769999999998,0.0,70161.0,0.0,0.0,0.0,0.0,0.125,3.383788716,0.01,0.0,-42551.0,0.0,0.0,0.0,0.0,0.25,4.0832515350000005,2.4790000000000023,0.0,-0.3700000047683716,-0.7699999809265137,-44.61000061035156,-0.0157470703125,-0.00140380859375,1.026611328125,33.84000015258789,0.0,-5.0,-4.111083984375,3.8764495849609375,Closing,0.0,0.0,42.0,0.0,0.0,0.0,0.0,0.0,
15.275014999999897,0.0,0.0,52988.0,0.0,0.0,0.0,0.0,0.125,0.826415931,4.932250999999998,0.0,-40984.0,0.0,0.0,0.0,0.0,0.125,0.49316401200000004,4.963769999999998,0.0,70161.0,0.0,0.0,0.0,0.0,0.125,3.3679195770000003,0.01,0.0,-42551.0,0.0,0.0,0.0,0.0,0.125,4.0832515350000005,2.4790000000000023,0.0,-0.36000001430511475,-0.7699999809265137,-44.61000061035156,-0.01434326171875,-0.00592041015625,1.01934814453125,33.84000015258789,0.0,0.0,-4.111083984375,3.8764495849609375,Closing,0.0,0.0,42.0,0.0,0.0,0.0,0.0,0.0,
15.410989999999991,0.0,0.0,52988.0,0.0,0.0,0.0,0.0,0.125,0.825195228,4.932250999999998,0.0,-40984.0,0.0,0.0,0.0,0.0,0.125,0.49194330900000005,4.963769999999998,0.0,70161.0,0.0,0.0,0.0,0.0,0.0,3.3691402800000003,0.01,0.0,-42551.0,0.125,0.0,0.0,0.0,0.125,4.0832515350000005,2.4790000000000023,0.0,-0.3499999940395355,-0.7599999904632568,-44.61000061035156,-0.0126953125,-0.006103515625,1.0146484375,33.84000015258789,0.0,0.0,-4.111083984375,3.8764495849609375,Closing,0.0,0.0,42.0,0.0,0.0,0.0,0.0,0.0,
15.542797999999951,0.0,0.0,52988.0,0.0,0.0,0.0,0.0,0.125,0.826415931,4.932250999999998,0.0,-40984.0,0.0,0.0,0.0,0.0,0.125,0.49194330900000005,4.963769999999998,0.0,70161.0,0.0,0.0,0.0,0.0,0.0,3.3691402800000003,0.01,0.0,-42551.0,0.0,0.0,0.0,0.0,0.125,4.0832515350000005,2.4790000000000023,0.0,-0.3499999940395355,-0.7599999904632568,-44.61000061035156,-0.01519775390625,-0.00482177734375,1.02508544921875,33.84000015258789,0.0,-2.0,-4.111083984375,3.8764495849609375,Closing,0.0,0.0,42.0,0.0,0.0,0.0,0.0,0.0,
