Time,ClimberA1,ClimberA2,FRpos,FRCurrent,FRspeed,FRsetpoint,FRApos,FRACurrent,FREncpos,FREncSetpoint,FREncSpeed,FLpos,FLCurrent,FLspeed,FLsetpoint,FLApos,FLACurrent,FLEncpos,FLEncSetpoint,FLEncSpeed,BRpos,BRCurrent,BRspeed,BRsetpoint,BRApos,BRACurrent,BREncpos,BREncSetpoint,BREncSpeed,BLpos,BLCurrent,BLspeed,BLsetpoint,BLApos,BLACurrent,BLEncpos,BLEncSetpoint,BLEncSpeed,navx_Pitch,navx_Roll,navx_Yaw,navx_XAcc,navx_YAcc,navx_ZAcc,navx_Temp,navx_Bar,navx_Alt,navx_XDis,navx_YDis,GearPlacerState,ShootOutputV,ShootOutputCurrent,ShootEncPos,ShootEncVelocity,ShootSpeed,ShootSetpoint,CarouselSetpoint,CarouselCurrent,
0.12145900000000256,0.0,0.0,4953.0,0.0,0.0,0.0,0.0,0.125,0.874023348,0.01,0.0,11383.0,0.0,0.0,-0.0,0.0,0.0,0.521240181,0.01,0.0,-9937.0,0.0,0.0,0.0,0.0,0.0,3.339843408,0.01,0.0,-3814.0,0.0,0.0,-0.0,0.0,0.25,1.589355306,0.01,0.0,-0.28999999165534973,-0.6700000166893005,0.0,-0.01025390625,-0.004150390625,1.02313232421875,31.0,0.0,1.0,-1.4409942626953125,-0.7972259521484375,Closing,0.0,0.0,0.0,0.0,0.0,0.0,0.0,0.0,
0.15107800000000135,0.0,0.0,4953.0,0.0,0.0,0.0,0.0,0.25,0.874023348,0.01,0.0,11383.0,0.0,0.0,-0.0,0.0,0.0,0.521240181,0.01,0.0,-9937.0,0.0,0.0,0.0,0.0,0.0,3.341064111,0.01,-0.0012207030000004337,-3814.0,0.0,0.0,-0.0,0.0,0.25,1.590576009,0.01,0.0,-0.28999999165534973,-0.6700000166893005,0.0,-0.0115966796875,-0.00555419921875,1.0177001953125,31.0,0.0,0.0,-1.4409942626953125,-0.7972259521484375,Closing,0.0,0.0,0.0,0.0,0.0,0.0,0.0,0.0,
0.18109500000000117,0.0,0.0,4953.0,0.0,0.0,0.0,0.0,0.25,0.874023348,0.01,0.0,11383.0,0.0,0.0,-0.0,0.0,0.0,0.521240181,0.01,0.0,-9937.0,0.0,0.0,0.0,0.0,0.0,3.338622705,0.01,-0.0012207030000004337,-3814.0,0.0,0.0,-0.0,0.0,0.25,1.590576009,0.01,0.0,-0.28999999165534973,-0.6700000166893005,0.0,-0.0140380859375,-0.00390625,1.02398681640625,31.0,0.0,-2.0,-1.4409942626953125,-0.7972259521484375,Closing,0.0,0.0,0.0,0.0,0.0,0.0,0.0,0.0,
0.20902999999999883,0.0,0.0,4953.0,0.0,0.0,0.0,0.0,0.25,0.874023348,0.01,0.0,11383.0,0.0,0.0,-0.0,0.0,0.0,0.521240181,0.01,0.0,-9937.0,0.0,0.0,0.0,0.0,0.0,3.339843408,0.01,0.0,-3814.0,0.0,0.0,-0.0,0.0,0.25,1.590576009,0.01,0.0,-0.2800000011920929,-0.6600000262260437,0.0,-0.01165771484375,-0.00262451171875,1.0218505859375,31.0,0.0,0.0,-1.4409942626953125,-0.7972259521484375,Closing,0.0,0.0,0.0,0.0,0.0,0.0,0.0,0.0,
0.23620900000000256,0.0,0.0,4953.0,0.0,0.0,0.0,0.0,0.25,0.874023348,0.01,0.0,11383.0,0.0,0.0,-0.0,0.0,0.0,0.521240181,0.01,0.0,-9937.0,0.0,0.0,0.0,0.0,0.0,3.338622705,0.01,0.0,-3814.0,0.0,0.0,-0.0,0.0,0.25,1.591796712,0.01,0.0,-0.2800000011920929,-0.6600000262260437,0.0,-0.01361083984375,-0.00311279296875,1.02001953125,31.0,0.0,-1.0,-1.4409942626953125,-0.7972259521484375,Closing,0.0,0.0,0.0,0.0,0.0,0.0,0.0,0.0,
0.26976900000000026,0.0,0.0,4953.0,0.0,0.0,0.0,0.0,0.25,0.875244051,0.01,0.0012207029999999897,11383.0,0.0,0.0,-0.0,0.0,0.0,0.521240181,0.01,0.0,-9937.0,0.0,0.0,0.0,0.0,0.0,3.339843408,0.01,0.0012207030000004337,-3814.0,0.0,0.0,-0.0,0.0,0.25,1.591796712,0.01,0.0,-0.2800000011920929,-0.6700000166893005,0.0,-0.0120849609375,-0.004638671875,1.0233154296875,31.0,0.0,0.0,-1.4409942626953125,-0.7972259521484375,Closing,0.0,0.0,0.0,0.0,0.0,0.0,0.0,0.0,
0.2945809999999983,0.0,0.0,4953.0,0.0,0.0,0.0,0.0,0.25,0.874023348,0.01,0.0012207029999999897,11383.0,0.0,0.0,-0.0,0.0,0.0,0.520019478,0.01,0.0,-9937.0,0.0,0.0,0.0,0.0,0.0,3.338622705,0.01,0.0012207030000004337,-3814.0,0.0,0.0,-0.0,0.0,0.25,1.591796712,0.01,0.0,-0.2800000011920929,-0.6700000166893005,0.0,-0.0087890625,-0.00726318359375,1.02398681640625,31.0,0.0,3.0,-1.4409942626953125,-0.7972259521484375,Closing,0.0,0.0,0.0,0.0,0.0,0.0,0.0,0.0,
0.3273220000000001,0.0,0.0,4953.0,0.0,0.0,0.0,0.0,0.25,0.874023348,0.01,0.0,11383.0,0.0,0.0,-0.0,0.0,0.0,0.521240181,0.01,0.0,-9937.0,0.0,0.0,0.0,0.0,0.0,3.338622705,0.01,0.0,-3814.0,0.0,0.0,-0.0,0.0,0.25,1.591796712,0.01,0.0,-0.2800000011920929,-0.6700000166893005,0.0,-0.0120849609375,-0.00469970703125,1.01861572265625,31.0,0.0,0.0,-1.4409942626953125,-0.7972259521484375,Closing,0.0,0.0,0.0,0.0,0.0,0.0,0.0,0.0,
0.35256900000000313,0.0,0.0,4953.0,0.0,0.0,0.0,0.0,0.125,0.876464754,0.01,-0.0012207029999999897,11383.0,0.0,0.0,-0.0,0.0,0.0,0.520019478,0.01,0.0,-9937.0,0.0,0.0,0.0,0.0,0.0,3.339843408,0.01,0.0,-3814.0,0.0,0.0,-0.0,0.0,0.25,1.591796712,0.01,0.0,-0.28999999165534973,-0.6700000166893005,0.0,-0.010986328125,-0.00396728515625,1.02215576171875,31.0,0.0,1.0,-1.4409942626953125,-0.7972259521484375,Closing,0.0,0.0,0.0,0.0,0.0,0.0,0.0,0.0,
0.3830279999999984,0.0,0.0,4953.0,0.0,0.0,0.0,0.0,0.125,0.875244051,0.01,-0.0012207029999999897,11383.0,0.0,0.0,-0.0,0.0,0.0,0.521240181,0.01,0.0,-9937.0,0.0,0.0,0.0,0.0,0.0,3.338622705,0.01,0.0,-3814.0,0.0,0.0,-0.0,0.0,0.25,1.590576009,0.01,0.0,-0.28999999165534973,-0.6700000166893005,0.0,-0.01324462890625,-0.00567626953125,1.02252197265625,31.0,0.0,-1.0,-1.4409942626953125,-0.7972259521484375,Closing,0.0,0.0,0.0,0.0,0.0,0.0,0.0,0.0,
0.40822600000000236,0.0,0.0,4953.0,0.0,0.0,0.0,0.0,0.25,0.874023348,0.01,0.0,11383.0,0.0,0.0,-0.0,0.0,0.0,0.521240181,0.01,0.0,-9937.0,0.0,0.0,0.0,0.0,0.0,3.337402002,0.01,-0.0012207030000004337,-3814.0,0.0,0.0,-0.0,0.0,0.25,1.590576009,0.01,0.0,-0.28999999165534973,-0.6700000166893005,0.0,-0.01251220703125,-0.0062255859375,1.02044677734375,31.0,0.0,0.0,-1.4409942626953125,-0.7972259521484375,Closing,0.0,0.0,0.0,0.0,0.0,0.0,0.0,0.0,
0.43539299999999637,0.0,0.0,4953.0,0.0,0.0,0.0,0.0,0.25,0.874023348,0.01,0.0,11383.0,0.0,0.0,-0.0,0.0,0.0,0.520019478,0.01,0.0,-9937.0,0.0,0.0,0.0,0.0,0.0,3.338622705,0.01,-0.0012207030000004337,-3814.0,0.0,0.0,-0.0,0.0,0.25,1.591796712,0.01,0.0,-0.28999999165534973,-0.6700000166893005,0.0,-0.0103759765625,-0.0057373046875,1.019775390625,31.0,0.0,1.0,-1.4409942626953125,-0.7972259521484375,Closing,0.0,0.0,0.0,0.0,0.0,0.0,0.0,0.0,
0.46735599999999977,0.0,0.0,4953.0,0.0,0.0,0.0,0.0,0.25,0.874023348,0.01,0.0,11383.0,0.0,0.0,-0.0,0.0,0.0,0.521240181,0.01,0.0,-9937.0,0.0,0.0,0.0,0.0,0.0,3.338622705,0.01,0.0012207030000004337,-3814.0,0.0,0.0,-0.0,0.0,0.25,1.590576009,0.01,0.0,-0.2800000011920929,-0.6600000262260437,0.0,-0.01397705078125,-0.0067138671875,1.02349853515625,30.979999542236328,0.0,-2.0,-1.4409942626953125,-0.7972259521484375,Closing,0.0,0.0,0.0,0.0,0.0,0.0,0.0,0.0,
0.49165299999999845,0.0,0.0,4953.0,0.0,0.0,0.0,0.0,0.25,0.874023348,0.01,0.0,11383.0,0.0,0.0,-0.0,0.0,0.0,0.521240181,0.01,0.0,-9937.0,0.0,0.0,0.0,0.0,0.0,3.338622705,0.01,0.0012207030000004337,-3814.0,0.0,0.0,-0.0,0.0,0.25,1.591796712,0.01,0.0,-0.28999999165534973,-0.6700000166893005,0.0,-0.01080322265625,-0.0076904296875,1.02203369140625,30.979999542236328,0.0,1.0,-1.4409942626953125,-0.7972259521484375,Closing,0.0,0.0,0.0,0.0,0.0,0.0,0.0,0.0,
0.5227110000000029,0.0,0.0,4953.0,0.0,0.0,0.0,0.0,0.25,0.874023348,0.01,0.0012207029999999897,11383.0,0.0,0.0,-0.0,0.0,0.0,0.521240181,0.01,0.0,-9937.0,0.0,0.0,0.0,0.0,0.0,3.338622705,0.01,0.0,-3814.0,0.0,0.0,-0.0,0.0,0.25,1.590576009,0.01,0.0,-0.28999999165534973,-0.6700000166893005,0.0,-0.01239013671875,-0.006591796875,1.01751708984375,30.979999542236328,0.0,0.0,-1.4409942626953125,-0.7972259521484375,Closing,0.0,0.0,0.0,0.0,0.0,0.0,0.0,0.0,
0.5490190000000003,0.0,0.0,4953.0,0.0,0.0,0.0,0.0,0.25,0.874023348,0.01,0.0012207029999999897,11383.0,0.0,0.0,-0.0,0.0,0.0,0.521240181,0.01,0.0,-9937.0,0.0,0.0,0.0,0.0,0.0,3.338622705,0.01,-0.0012207030000004337,-3814.0,0.0,0.0,-0.0,0.0,0.25,1.591796712,0.01,0.0,-0.28999999165534973,-0.6700000166893005,0.0,-0.0101318359375,-0.00445556640625,1.0206298828125,30.979999542236328,0.0,1.0,-1.4409942626953125,-0.7972259521484375,Closing,0.0,0.0,0.0,0.0,0.0,0.0,0.0,0.0,
0.580012999999999,0.0,0.0,4953.0,0.0,0.0,0.0,0.0,0.25,0.874023348,0.01,0.0,11383.0,0.0,0.0,-0.0,0.0,0.0,0.520019478,0.01,0.0,-9937.0,0.0,0.0,0.0,0.0,0.0,3.338622705,0.01,-0.0012207030000004337,-3814.0,0.0,0.0,-0.0,0.0,0.25,1.590576009,0.01,0.0,-0.2800000011920929,-0.6600000262260437,0.0,-0.00836181640625,-0.0067138671875,1.02215576171875,30.979999542236328,0.0,3.0,-1.4409942626953125,-0.7972259521484375,Closing,0.0,0.0,0.0,0.0,0.0,0.0,0.0,0.0,
0.6067620000000025,0.0,0.0,4953.0,0.0,0.0,0.0,0.0,0.25,0.874023348,0.01,-0.0012207029999999897,11383.0,0.0,0.0,-0.0,0.0,0.0,0.521240181,0.01,0.0,-9937.0,0.0,0.0,0.0,0.0,0.0,3.338622705,0.01,0.0,-3814.0,0.0,0.0,-0.0,0.0,0.25,1.590576009,0.01,0.0,-0.28999999165534973,-0.6700000166893005,0.0,-0.01202392578125,-0.00201416015625,1.01934814453125,30.979999542236328,0.0,0.0,-1.4409942626953125,-0.7972259521484375,Closing,0.0,0.0,0.0,0.0,0.0,0.0,0.0,0.0,
0.6347079999999987,0.0,0.0,4953.0,0.0,0.0,0.0,0.0,0.25,0.874023348,0.01,-0.0012207029999999897,11383.0,0.0,0.0,-0.0,0.0,0.0,0.521240181,0.01,0.0,-9937.0,0.0,0.0,0.0,0.0,0.0,3.338622705,0.01,0.0,-3814.0,0.0,0.0,-0.0,0.0,0.25,1.590576009,0.01,0.0,-0.28999999165534973,-0.6700000166893005,0.0,-0.01318359375,-0.00604248046875,1.021484375,30.979999542236328,0.0,-1.0,-1.4409942626953125,-0.7972259521484375,Closing,0.0,0.0,0.0,0.0,0.0,0.0,0.0,0.0,
0.668002999999997,0.0,0.0,4953.0,0.0,0.0,0.0,0.0,0.25,0.874023348,0.01,0.0,11383.0,0.0,0.0,-0.0,0.0,0.0,0.521240181,0.01,0.0,-9937.0,0.0,0.0,0.0,0.0,0.0,3.337402002,0.01,0.0012207030000004337,-3814.0,0.0,0.0,-0.0,0.0,0.25,1.590576009,0.01,0.0,-0.28999999165534973,-0.6700000166893005,0.0,-0.012451171875,-0.00494384765625,1.01971435546875,30.979999542236328,0.0,0.0,-1.4409942626953125,-0.7972259521484375,Closing,0.0,0.0,0.0,0.0,0.0,0.0,0.0,0.0,
0.6932660000000033,0.0,0.0,4953.0,0.0,0.0,0.0,0.0,0.25,0.872802645,0.01,0.0,11383.0,0.0,0.0,-0.0,0.0,0.0,0.521240181,0.01,0.0,-9937.0,0.0,0.0,0.0,0.0,0.0,3.338622705,0.01,0.0012207030000004337,-3814.0,0.0,0.0,-0.0,0.0,0.25,1.591796712,0.01,0.0,-0.28999999165534973,-0.6700000166893005,0.0,-0.0103759765625,-0.00592041015625,1.02362060546875,30.979999542236328,0.0,1.0,-1.4409942626953125,-0.7972259521484375,Closing,0.0,0.0,0.0,0.0,0.0,0.0,0.0,0.0,
0.7252719999999973,0.0,0.0,4953.0,0.0,0.0,0.0,0.0,0.25,0.874023348,0.01,0.0012207029999999897,11383.0,0.0,0.0,-0.0,0.0,0.0,0.521240181,0.01,0.0,-9937.0,0.0,0.0,0.0,0.0,0.0,3.338622705,0.01,0.0,-3814.0,0.0,0.0,-0.0,0.0,0.25,1.590576009,0.01,0.0,-0.28999999165534973,-0.6700000166893005,0.0,-0.01129150390625,-0.00439453125,1.01898193359375,30.979999542236328,0.0,0.0,-1.4409942626953125,-0.7972259521484375,Closing,0.0,0.0,0.0,0.0,0.0,0.0,0.0,0.0,
0.7510480000000025,0.0,0.0,4953.0,0.0,0.0,0.0,0.0,0.25,0.874023348,0.01,0.0,11383.0,0.0,0.0,-0.0,0.0,0.0,0.521240181,0.01,0.0,-9937.0,0.0,0.0,0.0,0.0,0.0,3.339843408,0.01,-0.0012207030000004337,-3814.0,0.0,0.0,-0.0,0.0,0.25,1.590576009,0.01,0.0,-0.28999999165534973,-0.6700000166893005,0.0,-0.01116943359375,-0.0074462890625,1.02484130859375,30.979999542236328,0.0,0.0,-1.4409942626953125,-0.7972259521484375,Closing,0.0,0.0,0.0,0.0,0.0,0.0,0.0,0.0,
0.7832459999999992,0.0,0.0,4953.0,0.0,0.0,0.0,0.0,0.25,0.874023348,0.01,0.0,11383.0,0.0,0.0,-0.0,0.0,0.0,0.521240181,0.01,0.0,-9937.0,0.0,0.0,0.0,0.0,0.0,3.339843408,0.01,-0.0012207030000004337,-3814.0,0.0,0.0,-0.0,0.0,0.25,1.590576009,0.01,0.0,-0.28999999165534973,-0.6700000166893005,0.0,-0.00982666015625,-0.0057373046875,1.0208740234375,30.979999542236328,0.0,2.0,-1.4409942626953125,-0.7972259521484375,Closing,0.0,0.0,0.0,0.0,0.0,0.0,0.0,0.0,
0.8092819999999993,0.0,0.0,4953.0,0.0,0.0,0.0,0.0,0.25,0.874023348,0.01,0.0,11383.0,0.0,0.0,-0.0,0.0,0.0,0.521240181,0.01,0.0,-9937.0,0.0,0.0,0.0,0.0,0.0,3.338622705,0.01,0.0012207030000004337,-3814.0,0.0,0.0,-0.0,0.0,0.25,1.591796712,0.01,0.0,-0.28999999165534973,-0.6700000166893005,0.0,-0.00701904296875,-0.0067138671875,1.01824951171875,30.979999542236328,0.0,4.0,-1.4409942626953125,-0.7972259521484375,Closing,0.0,0.0,0.0,0.0,0.0,0.0,0.0,0.0,
0.8385100000000021,0.0,0.0,4953.0,0.0,0.0,0.0,0.0,0.25,0.875244051,0.01,0.0,11383.0,0.0,0.0,-0.0,0.0,0.0,0.521240181,0.01,0.0,-9937.0,0.0,0.0,0.0,0.0,0.0,3.338622705,0.01,0.0012207030000004337,-3814.0,0.0,0.0,-0.0,0.0,0.25,1.590576009,0.01,0.0,-0.2800000011920929,-0.6600000262260437,0.0,-0.01226806640625,-0.006103515625,1.0181884765625,30.979999542236328,0.0,0.0,-1.4409942626953125,-0.7972259521484375,Closing,0.0,0.0,0.0,0.0,0.0,0.0,0.0,0.0,
0.87025,0.0,0.0,4953.0,0.0,0.0,0.0,0.0,0.25,0.874023348,0.01,0.0,11383.0,0.0,0.0,-0.0,0.0,0.0,0.521240181,0.01,0.0,-9937.0,0.0,0.0,0.0,0.0,0.0,3.337402002,0.01,0.0,-3814.0,0.0,0.0,-0.0,0.0,0.25,1.590576009,0.01,0.0,-0.2800000011920929,-0.6600000262260437,0.0,-0.01312255859375,-0.00341796875,1.02386474609375,30.979999542236328,0.0,-1.0,-1.4409942626953125,-0.7972259521484375,Closing,0.0,0.0,0.0,0.0,0.0,0.0,0.0,0.0,
0.8948980000000011,0.0,0.0,4953.0,0.0,0.0,0.0,0.0,0.25,0.872802645,0.01,0.0,11383.0,0.0,0.0,-0.0,0.0,0.0,0.521240181,0.01,0.0,-9937.0,0.0,0.0,0.0,0.0,0.0,3.338622705,0.01,0.0,-3814.0,0.0,0.0,-0.0,0.0,0.25,1.593017415,0.01,0.0,-0.2800000011920929,-0.6600000262260437,0.0,-0.00994873046875,-0.0064697265625,1.0181884765625,30.979999542236328,0.0,1.0,-1.4409942626953125,-0.7972259521484375,Closing,0.0,0.0,0.0,0.0,0.0,0.0,0.0,0.0,
0.9303009999999995,0.0,0.0,4953.0,0.0,0.0,0.0,0.0,0.25,0.874023348,0.01,-0.0012207029999999897,11383.0,0.0,0.0,-0.0,0.0,0.0,0.521240181,0.01,0.0,-9937.0,0.0,0.0,0.0,0.0,0.0,3.339843408,0.01,0.0,-3814.0,0.0,0.0,-0.0,0.0,0.25,1.591796712,0.01,0.0,-0.2800000011920929,-0.6600000262260437,0.0,-0.013427734375,-0.00347900390625,1.02154541015625,30.979999542236328,0.0,-1.0,-1.4409942626953125,-0.7972259521484375,Closing,0.0,0.0,0.0,0.0,0.0,0.0,0.0,0.0,
0.9549110000000001,0.0,0.0,4953.0,0.0,0.0,0.0,0.0,0.25,0.874023348,0.01,0.0,11383.0,0.0,0.0,-0.0,0.0,0.0,0.521240181,0.01,0.0,-9937.0,0.0,0.0,0.0,0.0,0.0,3.338622705,0.01,0.0,-3814.0,0.0,0.0,-0.0,0.0,0.25,1.588134603,0.01,0.0,-0.2800000011920929,-0.6600000262260437,0.0,-0.0113525390625,-0.00579833984375,1.01904296875,30.989999771118164,0.0,0.0,-1.4409942626953125,-0.7972259521484375,Closing,0.0,0.0,0.0,0.0,0.0,0.0,0.0,0.0,
0.988298999999999,0.0,0.0,4953.0,0.0,0.0,0.0,0.0,0.25,0.872802645,0.01,0.0,11383.0,0.0,0.0,-0.0,0.0,0.0,0.521240181,0.01,0.0,-9937.0,0.0,0.0,0.0,0.0,0.0,3.338622705,0.01,0.0,-3814.0,0.0,0.0,-0.0,0.0,0.25,1.591796712,0.01,0.0,-0.2800000011920929,-0.6600000262260437,0.0,-0.01318359375,-0.0072021484375,1.01910400390625,30.989999771118164,0.0,-1.0,-1.4409942626953125,-0.7972259521484375,Closing,0.0,0.0,0.0,0.0,0.0,0.0,0.0,0.0,
1.0123940000000002,0.0,0.0,4953.0,0.0,0.0,0.0,0.0,0.25,0.874023348,0.01,0.0012207029999999897,11383.0,0.0,0.0,-0.0,0.0,0.0,0.521240181,0.01,0.0,-9937.0,0.0,0.0,0.0,0.0,0.0,3.338622705,0.01,0.0,-3814.0,0.0,0.0,-0.0,0.0,0.25,1.590576009,0.01,0.0,-0.2800000011920929,-0.6700000166893005,0.0,-0.01190185546875,-0.001708984375,1.0201416015625,30.989999771118164,0.0,0.0,-1.4409942626953125,-0.7972259521484375,Closing,0.0,0.0,0.0,0.0,0.0,0.0,0.0,0.0,
1.0428179999999994,0.0,0.0,4953.0,0.0,0.0,0.0,0.0,0.25,0.874023348,0.01,0.0012207029999999897,11383.0,0.0,0.0,-0.0,0.0,0.0,0.521240181,0.01,0.0,-9937.0,0.0,0.0,0.0,0.0,0.0,3.338622705,0.01,0.0,-3814.0,0.0,0.0,-0.0,0.0,0.25,1.590576009,0.01,0.0,-0.2800000011920929,-0.6700000166893005,0.0,-0.01226806640625,-0.00433349609375,1.0247802734375,30.989999771118164,0.0,0.0,-1.4409942626953125,-0.7972259521484375,Closing,0.0,0.0,0.0,0.0,0.0,0.0,0.0,0.0,
1.0723009999999995,0.0,0.0,4953.0,0.0,0.0,0.0,0.0,0.25,0.874023348,0.01,0.0,11383.0,0.0,0.0,-0.0,0.0,0.0,0.521240181,0.01,0.0,-9937.0,0.0,0.0,0.0,0.0,0.0,3.338622705,0.01,0.0,-3814.0,0.0,0.0,-0.0,0.0,0.25,1.591796712,0.01,0.0,-0.2800000011920929,-0.6700000166893005,0.0,-0.01104736328125,-0.0067138671875,1.0224609375,30.989999771118164,0.0,1.0,-1.4409942626953125,-0.7972259521484375,Closing,0.0,0.0,0.0,0.0,0.0,0.0,0.0,0.0,
1.0993770000000005,0.0,0.0,4953.0,0.0,0.0,0.0,0.0,0.25,0.874023348,0.01,0.0,11383.0,0.0,0.0,-0.0,0.0,0.0,0.521240181,0.01,0.0,-9937.0,0.0,0.0,0.0,0.0,0.0,3.338622705,0.01,0.0,-3814.0,0.0,0.0,-0.0,0.0,0.25,1.591796712,0.01,0.0,-0.2800000011920929,-0.6700000166893005,0.0,-0.01104736328125,-0.0067138671875,1.0224609375,30.989999771118164,0.0,1.0,-1.4409942626953125,-0.7972259521484375,Closing,0.0,0.0,0.0,0.0,0.0,0.0,0.0,0.0,
1.1308119999999982,0.0,0.0,4953.0,0.0,0.0,0.0,0.0,0.25,0.874023348,0.01,0.0,11383.0,0.0,0.0,-0.0,0.0,0.0,0.520019478,0.01,0.0,-9937.0,0.0,0.0,0.0,0.0,0.0,3.338622705,0.01,0.0,-3814.0,0.0,0.0,-0.0,0.0,0.25,1.590576009,0.01,0.0,-0.2800000011920929,-0.6700000166893005,0.0,-0.01287841796875,-0.00714111328125,1.0208740234375,30.989999771118164,0.0,0.0,-1.4409942626953125,-0.7972259521484375,Closing,0.0,0.0,0.0,0.0,0.0,0.0,0.0,0.0,
1.1590970000000016,0.0,0.0,4953.0,0.0,0.0,0.0,0.0,0.25,0.874023348,0.01,0.0,11383.0,0.0,0.0,-0.0,0.0,0.0,0.521240181,0.01,0.0,-9937.0,0.0,0.0,0.0,0.0,0.0,3.338622705,0.01,0.0,-3814.0,0.0,0.0,-0.0,0.0,0.25,1.590576009,0.01,0.0,-0.2800000011920929,-0.6700000166893005,0.0,-0.01239013671875,-0.00518798828125,1.021484375,30.989999771118164,0.0,0.0,-1.4409942626953125,-0.7972259521484375,Closing,0.0,0.0,0.0,0.0,0.0,0.0,0.0,0.0,
1.1950009999999966,0.0,0.0,4953.0,0.0,0.0,0.0,0.0,0.25,0.8569335060000001,0.01,0.0,11383.0,0.0,0.0,-0.0,0.0,0.0,0.520019478,0.01,0.0,-9937.0,0.0,0.0,0.0,0.0,0.0,3.338622705,0.01,0.0,-3814.0,0.0,0.0,-0.0,0.0,0.25,1.590576009,0.01,0.0,-0.2800000011920929,-0.6700000166893005,0.0,-0.0128173828125,-0.00421142578125,1.01983642578125,30.989999771118164,0.0,0.0,-1.4409942626953125,-0.7972259521484375,Closing,0.0,0.0,0.0,0.0,0.0,0.0,0.0,0.0,
1.227536,0.0,0.0,4953.0,0.0,0.0,0.0,0.0,0.25,0.875244051,0.01,-0.0012207029999999897,11383.0,0.0,0.0,-0.0,0.0,0.0,0.521240181,0.01,0.0,-9937.0,0.0,0.0,0.0,0.0,0.0,3.338622705,0.01,0.0,-3814.0,0.0,0.0,-0.0,0.0,0.25,1.590576009,0.01,0.0,-0.2800000011920929,-0.6700000166893005,0.0,-0.0115966796875,-0.00360107421875,1.01983642578125,30.989999771118164,0.0,0.0,-1.4409942626953125,-0.7972259521484375,Closing,0.0,0.0,0.0,0.0,0.0,0.0,0.0,0.0,
1.2519449999999996,0.0,0.0,4953.0,0.0,0.0,0.0,0.0,0.25,0.874023348,0.01,0.0012207029999999897,11383.0,0.0,0.0,-0.0,0.0,0.0,0.523681587,0.01,0.0,-9937.0,0.0,0.0,0.0,0.0,0.0,3.338622705,0.01,-0.0012207030000004337,-3814.0,0.0,0.0,-0.0,0.0,0.25,1.591796712,0.01,0.0,-0.2800000011920929,-0.6700000166893005,0.0,-0.01251220703125,-0.0091552734375,1.02166748046875,30.989999771118164,0.0,0.0,-1.4409942626953125,-0.7972259521484375,Closing,0.0,0.0,0.0,0.0,0.0,0.0,0.0,0.0,
1.2851809999999968,0.0,0.0,4953.0,0.0,0.0,0.0,0.0,0.25,0.874023348,0.01,0.0012207029999999897,11383.0,0.0,0.0,-0.0,0.0,0.0,0.521240181,0.01,0.0,-9937.0,0.0,0.0,0.0,0.0,0.0,3.337402002,0.01,-0.0012207030000004337,-3814.0,0.0,0.0,-0.0,0.0,0.25,1.590576009,0.01,0.0,-0.2800000011920929,-0.6700000166893005,0.0,-0.0093994140625,-0.0035400390625,1.019287109375,30.989999771118164,0.0,2.0,-1.4409942626953125,-0.7972259521484375,Closing,0.0,0.0,0.0,0.0,0.0,0.0,0.0,0.0,
1.3107989999999992,0.0,0.0,4953.0,0.0,0.0,0.0,0.0,0.25,0.874023348,0.01,-0.0012207029999999897,11383.0,0.0,0.0,-0.0,0.0,0.0,0.521240181,0.01,0.0,-9937.0,0.0,0.0,0.0,0.0,0.0,3.338622705,0.01,0.0,-3814.0,0.0,0.0,-0.0,0.0,0.25,1.590576009,0.01,0.0,-0.28999999165534973,-0.6700000166893005,0.0,-0.012939453125,-0.00360107421875,1.02716064453125,30.989999771118164,0.0,0.0,-1.4409942626953125,-0.7972259521484375,Closing,0.0,0.0,0.0,0.0,0.0,0.0,0.0,0.0,
1.3428929999999963,0.0,0.0,4953.0,0.0,0.0,0.0,0.0,0.25,0.874023348,0.01,-0.0012207029999999897,11383.0,0.0,0.0,-0.0,0.0,0.0,0.521240181,0.01,0.0,-9937.0,0.0,0.0,0.0,0.0,0.0,3.338622705,0.01,0.0,-3814.0,0.0,0.0,-0.0,0.0,0.25,1.591796712,0.01,0.0,-0.28999999165534973,-0.6700000166893005,0.0,-0.01226806640625,-0.00494384765625,1.0213623046875,30.989999771118164,0.0,0.0,-1.4409942626953125,-0.7972259521484375,Closing,0.0,0.0,0.0,0.0,0.0,0.0,0.0,0.0,
1.3715679999999992,0.0,0.0,4953.0,0.0,0.0,0.0,0.0,0.25,0.874023348,0.01,0.0012207029999999897,11383.0,0.0,0.0,-0.0,0.0,0.0,0.521240181,0.01,0.0,-9937.0,0.0,0.0,0.0,0.0,0.0,3.338622705,0.01,0.0,-3814.0,0.0,0.0,-0.0,0.0,0.25,1.591796712,0.01,0.0,-0.28999999165534973,-0.6700000166893005,0.0,-0.0120849609375,-0.0010986328125,1.02044677734375,30.989999771118164,0.0,0.0,-1.4409942626953125,-0.7972259521484375,Closing,0.0,0.0,0.0,0.0,0.0,0.0,0.0,0.0,
1.3967289999999994,0.0,0.0,4953.0,0.0,0.0,0.0,0.0,0.25,0.874023348,0.01,0.0012207029999999897,11383.0,0.0,0.0,-0.0,0.0,0.0,0.521240181,0.01,0.0,-9937.0,0.0,0.0,0.0,0.0,0.0,3.338622705,0.01,0.0,-3814.0,0.0,0.0,-0.0,0.0,0.25,1.590576009,0.01,0.0,-0.2800000011920929,-0.6600000262260437,0.0,-0.01171875,-0.00762939453125,1.0240478515625,30.989999771118164,0.0,0.0,-1.4409942626953125,-0.7972259521484375,Closing,0.0,0.0,0.0,0.0,0.0,0.0,0.0,0.0,
1.4297220000000015,0.0,0.0,4953.0,0.0,0.0,0.0,0.0,0.25,0.874023348,0.01,0.0,11383.0,0.0,0.0,-0.0,0.0,0.0,0.520019478,0.01,0.0,-9937.0,0.0,0.0,0.0,0.0,0.0,3.338622705,0.01,0.0012207030000004337,-3814.0,0.0,0.0,-0.0,0.0,0.25,1.591796712,0.01,0.0,-0.2800000011920929,-0.6600000262260437,0.0,-0.01544189453125,-0.00579833984375,1.02471923828125,30.989999771118164,0.0,-3.0,-1.4409942626953125,-0.7972259521484375,Closing,0.0,0.0,0.0,0.0,0.0,0.0,0.0,0.0,
1.4538660000000019,0.0,0.0,4953.0,0.0,0.0,0.0,0.0,0.25,0.875244051,0.01,-0.0012207029999999897,11383.0,0.0,0.0,-0.0,0.0,0.0,0.521240181,0.01,0.0,-9937.0,0.0,0.0,0.0,0.0,0.0,3.339843408,0.01,0.0,-3814.0,0.0,0.0,-0.0,0.0,0.25,1.591796712,0.01,0.0,-0.2800000011920929,-0.6600000262260437,0.0,-0.0120849609375,-0.0035400390625,1.01788330078125,30.989999771118164,0.0,0.0,-1.4409942626953125,-0.7972259521484375,Closing,0.0,0.0,0.0,0.0,0.0,0.0,0.0,0.0,
1.4861569999999993,0.0,0.0,4953.0,0.0,0.0,0.0,0.0,0.25,0.874023348,0.01,-0.0012207029999999897,11383.0,0.0,0.0,-0.0,0.0,0.0,0.521240181,0.01,0.0,-9937.0,0.0,0.0,0.0,0.0,0.0,3.338622705,0.01,0.0,-3814.0,0.0,0.0,-0.0,0.0,0.25,1.591796712,0.01,0.0,-0.2800000011920929,-0.6600000262260437,0.0,-0.01123046875,-0.00634765625,1.0205078125,31.0,0.0,0.0,-1.4409942626953125,-0.7972259521484375,Closing,0.0,0.0,0.0,0.0,0.0,0.0,0.0,0.0,
1.5113280000000013,0.0,0.0,4953.0,0.0,0.0,0.0,0.0,0.25,0.875244051,0.01,0.0012207029999999897,11383.0,0.0,0.0,-0.0,0.0,0.0,0.521240181,0.01,0.0,-9937.0,0.0,0.0,0.0,0.0,0.0,3.339843408,0.01,-0.0012207030000004337,-3814.0,0.0,0.0,-0.0,0.0,0.25,1.591796712,0.01,0.0,-0.2800000011920929,-0.6600000262260437,0.0,-0.01361083984375,-0.00537109375,1.02081298828125,31.0,0.0,-1.0,-1.4409942626953125,-0.7972259521484375,Closing,0.0,0.0,0.0,0.0,0.0,0.0,0.0,0.0,
1.544262999999999,0.0,0.0,4953.0,0.0,0.0,0.0,0.0,0.25,0.874023348,0.01,0.0012207029999999897,11383.0,0.0,0.0,-0.0,0.0,0.0,0.521240181,0.01,0.0,-9937.0,0.0,0.0,0.0,0.0,0.0,3.338622705,0.01,-0.0012207030000004337,-3814.0,0.0,0.0,-0.0,0.0,0.25,1.591796712,0.01,0.0,-0.2800000011920929,-0.6600000262260437,0.0,-0.0128173828125,-0.00537109375,1.02459716796875,31.0,0.0,0.0,-1.4409942626953125,-0.7972259521484375,Closing,0.0,0.0,0.0,0.0,0.0,0.0,0.0,0.0,
1.5726410000000033,0.0,0.0,4953.0,0.0,0.0,0.0,0.0,0.25,0.874023348,0.01,-0.0012207029999999897,11383.0,0.0,0.0,-0.0,0.0,0.0,0.521240181,0.01,0.0,-9937.0,0.0,0.0,0.0,0.0,0.0,3.338622705,0.01,0.0012207030000004337,-3814.0,0.0,0.0,-0.0,0.0,0.25,1.590576009,0.01,0.0,-0.2800000011920929,-0.6600000262260437,0.0,-0.01129150390625,-0.00616455078125,1.0234375,31.0,0.0,0.0,-1.4409942626953125,-0.7972259521484375,Closing,0.0,0.0,0.0,0.0,0.0,0.0,0.0,0.0,
1.5999119999999967,0.0,0.0,4953.0,0.0,0.0,0.0,0.0,0.25,0.886230378,0.01,-0.0012207029999999897,11383.0,0.0,0.0,-0.0,0.0,0.0,0.521240181,0.01,0.0,-9937.0,0.0,0.0,0.0,0.0,0.0,3.338622705,0.01,0.0012207030000004337,-3814.0,0.0,0.0,-0.0,0.0,0.25,1.591796712,0.01,0.0,-0.2800000011920929,-0.6600000262260437,0.0,-0.0128173828125,-0.00592041015625,1.022216796875,31.0,0.0,-1.0,-1.4409942626953125,-0.7972259521484375,Closing,0.0,0.0,0.0,0.0,0.0,0.0,0.0,0.0,
1.6309029999999984,0.0,0.0,4953.0,0.0,0.0,0.0,0.0,0.25,0.874023348,0.01,0.0,11383.0,0.0,0.0,-0.0,0.0,0.0,0.521240181,0.01,0.0,-9937.0,0.0,0.0,0.0,0.0,0.0,3.338622705,0.01,0.0,-3814.0,0.0,0.0,-0.0,0.0,0.25,1.590576009,0.01,0.0,-0.2800000011920929,-0.6600000262260437,0.0,-0.01202392578125,-0.003662109375,1.021484375,31.0,0.0,0.0,-1.4409942626953125,-0.7972259521484375,Closing,0.0,0.0,0.0,0.0,0.0,0.0,0.0,0.0,
1.6555899999999966,0.0,0.0,4953.0,0.0,0.0,0.0,0.0,0.25,0.874023348,0.01,0.0012207029999999897,11383.0,0.0,0.0,-0.0,0.0,0.0,0.521240181,0.01,0.0,-9937.0,0.0,0.0,0.0,0.0,0.0,3.339843408,0.01,-0.0012207030000004337,-3814.0,0.0,0.0,-0.0,0.0,0.25,1.591796712,0.01,0.0,-0.2800000011920929,-0.6700000166893005,0.0,-0.01318359375,-0.00494384765625,1.01922607421875,31.0,0.0,-1.0,-1.4409942626953125,-0.7972259521484375,Closing,0.0,0.0,0.0,0.0,0.0,0.0,0.0,0.0,
1.6879179999999978,0.0,0.0,4953.0,0.0,0.0,0.0,0.0,0.25,0.875244051,0.01,0.0012207029999999897,11383.0,0.0,0.0,-0.0,0.0,0.0,0.521240181,0.01,0.0,-9937.0,0.0,0.0,0.0,0.0,0.0,3.338622705,0.01,-0.0012207030000004337,-3814.0,0.0,0.0,-0.0,0.0,0.25,1.590576009,0.01,0.0,-0.2800000011920929,-0.6700000166893005,0.0,-0.0128173828125,-0.0028076171875,1.01373291015625,31.0,0.0,0.0,-1.4409942626953125,-0.7972259521484375,Closing,0.0,0.0,0.0,0.0,0.0,0.0,0.0,0.0,
1.712709999999999,0.0,0.0,4953.0,0.0,0.0,0.0,0.0,0.25,0.875244051,0.01,-0.0012207029999999897,11383.0,0.0,0.0,-0.0,0.0,0.0,0.522460884,0.01,0.0,-9937.0,0.0,0.0,0.0,0.0,0.0,3.338622705,0.01,0.0012207030000004337,-3814.0,0.0,0.0,-0.0,0.0,0.25,1.590576009,0.01,0.0,-0.2800000011920929,-0.6700000166893005,0.0,-0.01104736328125,-0.0050048828125,1.02520751953125,31.0,0.0,0.0,-1.4409942626953125,-0.7972259521484375,Closing,0.0,0.0,0.0,0.0,0.0,0.0,0.0,0.0,
1.7466900000000023,0.0,0.0,4953.0,0.0,0.0,0.0,0.0,0.25,0.874023348,0.01,-0.0012207029999999897,11383.0,0.0,0.0,-0.0,0.0,0.0,0.521240181,0.01,0.0,-9937.0,0.0,0.0,0.0,0.0,0.0,3.338622705,0.01,0.0012207030000004337,-3814.0,0.0,0.0,-0.0,0.0,0.25,1.591796712,0.01,0.0,-0.2800000011920929,-0.6700000166893005,0.0,-0.01214599609375,-0.006103515625,1.0238037109375,31.0,0.0,0.0,-1.4409942626953125,-0.7972259521484375,Closing,0.0,0.0,0.0,0.0,0.0,0.0,0.0,0.0,
1.773622000000003,0.0,0.0,4953.0,0.0,0.0,0.0,0.0,0.25,0.874023348,0.01,0.0012207029999999897,11383.0,0.0,0.0,-0.0,0.0,0.0,0.521240181,0.01,0.0,-9937.0,0.0,0.0,0.0,0.0,0.0,3.341064111,0.01,0.0,-3814.0,0.0,0.0,-0.0,0.0,0.25,1.590576009,0.01,0.0,-0.27000001072883606,-0.6700000166893005,0.0,-0.01214599609375,-0.005859375,1.02093505859375,31.0,0.0,0.0,-1.4409942626953125,-0.7972259521484375,Closing,0.0,0.0,0.0,0.0,0.0,0.0,0.0,0.0,
1.8023960000000006,0.0,0.0,4953.0,0.0,0.0,0.0,0.0,0.25,0.872802645,0.01,0.0012207029999999897,11383.0,0.0,0.0,-0.0,0.0,0.0,0.520019478,0.01,0.0,-9937.0,0.0,0.0,0.0,0.0,0.0,3.338622705,0.01,0.0,-3814.0,0.0,0.0,-0.0,0.0,0.25,1.590576009,0.01,0.0,-0.27000001072883606,-0.6700000166893005,0.0,-0.01214599609375,-0.00830078125,1.02130126953125,31.0,0.0,0.0,-1.4409942626953125,-0.7972259521484375,Closing,0.0,0.0,0.0,0.0,0.0,0.0,0.0,0.0,
1.8312839999999997,0.0,0.0,4953.0,0.0,0.0,0.0,0.0,0.25,0.874023348,0.01,0.0,11383.0,0.0,0.0,-0.0,0.0,0.0,0.521240181,0.01,0.0,-9937.0,0.0,0.0,0.0,0.0,0.0,3.338622705,0.01,0.0,-3814.0,0.0,0.0,-0.0,0.0,0.25,1.591796712,0.01,0.0,-0.2800000011920929,-0.6700000166893005,0.0,-0.01214599609375,-0.00384521484375,1.01910400390625,31.0,0.0,0.0,-1.4409942626953125,-0.7972259521484375,Closing,0.0,0.0,0.0,0.0,0.0,0.0,0.0,0.0,
1.8556370000000024,0.0,0.0,4953.0,0.0,0.0,0.0,0.0,0.25,0.8557128030000001,0.01,0.0,11383.0,0.0,0.0,-0.0,0.0,0.0,0.521240181,0.01,0.0,-9937.0,0.0,0.0,0.0,0.0,0.0,3.338622705,0.01,0.0,-3814.0,0.0,0.0,-0.0,0.0,0.25,1.590576009,0.01,0.0,-0.2800000011920929,-0.6700000166893005,0.0,-0.01092529296875,-0.00469970703125,1.02264404296875,31.0,0.0,1.0,-1.4409942626953125,-0.7972259521484375,Closing,0.0,0.0,0.0,0.0,0.0,0.0,0.0,0.0,
1.8886960000000035,0.0,0.0,4953.0,0.0,0.0,0.0,0.0,0.25,0.874023348,0.01,0.0,11383.0,0.0,0.0,-0.0,0.0,0.0,0.521240181,0.01,0.0,-9937.0,0.0,0.0,0.0,0.0,0.0,3.338622705,0.01,0.0,-3814.0,0.0,0.0,-0.0,0.0,0.25,1.590576009,0.01,0.0,-0.2800000011920929,-0.6700000166893005,0.0,-0.0133056640625,-0.0042724609375,1.021728515625,31.0,0.0,-1.0,-1.4409942626953125,-0.7972259521484375,Closing,0.0,0.0,0.0,0.0,0.0,0.0,0.0,0.0,
1.9128139999999985,0.0,0.0,4953.0,0.0,0.0,0.0,0.0,0.25,0.874023348,0.01,0.0,11383.0,0.0,0.0,-0.0,0.0,0.0,0.521240181,0.01,0.0,-9937.0,0.0,0.0,0.0,0.0,0.0,3.339843408,0.01,-0.0012207030000004337,-3814.0,0.0,0.0,-0.0,0.0,0.25,1.590576009,0.01,0.0,-0.27000001072883606,-0.6700000166893005,0.0,-0.00958251953125,-0.00567626953125,1.0191650390625,31.0,0.0,2.0,-1.4409942626953125,-0.7972259521484375,Closing,0.0,0.0,0.0,0.0,0.0,0.0,0.0,0.0,
1.9462289999999993,0.0,0.0,4953.0,0.0,0.0,0.0,0.0,0.25,0.874023348,0.01,0.0,11383.0,0.0,0.0,-0.0,0.0,0.0,0.521240181,0.01,0.0,-9937.0,0.0,0.0,0.0,0.0,0.0,3.338622705,0.01,-0.0012207030000004337,-3814.0,0.0,0.0,-0.0,0.0,0.25,1.591796712,0.01,0.0,-0.27000001072883606,-0.6700000166893005,0.0,-0.013671875,-0.00543212890625,1.0260009765625,31.0,0.0,-1.0,-1.4409942626953125,-0.7972259521484375,Closing,0.0,0.0,0.0,0.0,0.0,0.0,0.0,0.0,
1.973364999999998,0.0,0.0,4953.0,0.0,0.0,0.0,0.0,0.25,0.8691405360000001,0.01,0.0,11383.0,0.0,0.0,-0.0,0.0,0.0,0.521240181,0.01,0.0,-9937.0,0.0,0.0,0.0,0.0,0.0,3.338622705,0.01,0.0,-3814.0,0.0,0.0,-0.0,0.0,0.25,1.591796712,0.01,0.0,-0.27000001072883606,-0.6700000166893005,0.0,-0.0133056640625,-0.0032958984375,1.02313232421875,30.979999542236328,0.0,-1.0,-1.4409942626953125,-0.7972259521484375,Closing,0.0,0.0,0.0,0.0,0.0,0.0,0.0,0.0,
1.9984389999999985,0.0,0.0,4953.0,0.0,0.0,0.0,0.0,0.25,0.874023348,0.01,0.0,11383.0,0.0,0.0,-0.0,0.0,0.0,0.521240181,0.01,0.0,-9937.0,0.0,0.0,0.0,0.0,0.0,3.339843408,0.01,0.0,-3814.0,0.0,0.0,-0.0,0.0,0.25,1.591796712,0.01,0.0,-0.27000001072883606,-0.6700000166893005,0.0,-0.010986328125,-0.0050048828125,1.01983642578125,30.979999542236328,0.0,1.0,-1.4409942626953125,-0.7972259521484375,Closing,0.0,0.0,0.0,0.0,0.0,0.0,0.0,0.0,
2.0301920000000027,0.0,0.0,4953.0,0.0,0.0,0.0,0.0,0.25,0.874023348,0.01,0.0,11383.0,0.0,0.0,-0.0,0.0,0.0,0.521240181,0.01,0.0,-9937.0,0.0,0.0,0.0,0.0,0.0,3.338622705,0.01,0.0012207030000004337,-3814.0,0.0,0.0,-0.0,0.0,0.25,1.588134603,0.01,0.0,-0.27000001072883606,-0.6700000166893005,0.0,-0.010498046875,-0.00323486328125,1.0234375,30.979999542236328,0.0,1.0,-1.4409942626953125,-0.7972259521484375,Closing,0.0,0.0,0.0,0.0,0.0,0.0,0.0,0.0,
2.054089,0.0,0.0,4953.0,0.0,0.0,0.0,0.0,0.25,0.874023348,0.01,-0.0012207029999999897,11383.0,0.0,0.0,-0.0,0.0,0.0,0.521240181,0.01,0.0,-9937.0,0.0,0.0,0.0,0.0,0.0,3.339843408,0.01,0.0,-3814.0,0.0,0.0,-0.0,0.0,0.25,1.590576009,0.01,0.0,-0.27000001072883606,-0.6700000166893005,0.0,-0.0107421875,-0.00372314453125,1.01544189453125,30.979999542236328,0.0,1.0,-1.4409942626953125,-0.7972259521484375,Closing,0.0,0.0,0.0,0.0,0.0,0.0,0.0,0.0,
2.0864170000000013,0.0,0.0,4953.0,0.0,0.0,0.0,0.0,0.25,0.874023348,0.01,-0.0012207029999999897,11383.0,0.0,0.0,-0.0,0.0,0.0,0.520019478,0.01,0.0,-9937.0,0.0,0.0,0.0,0.0,0.0,3.337402002,0.01,0.0,-3814.0,0.0,0.0,-0.0,0.0,0.25,1.591796712,0.01,0.0,-0.27000001072883606,-0.6700000166893005,0.0,-0.011474609375,-0.00531005859375,1.01800537109375,30.979999542236328,0.0,0.0,-1.4409942626953125,-0.7972259521484375,Closing,0.0,0.0,0.0,0.0,0.0,0.0,0.0,0.0,
2.111305,0.0,0.0,4953.0,0.0,0.0,0.0,0.0,0.25,0.874023348,0.01,0.0012207029999999897,11383.0,0.0,0.0,-0.0,0.0,0.0,0.521240181,0.01,0.0,-9937.0,0.0,0.0,0.0,0.0,0.0,3.338622705,0.01,0.0,-3814.0,0.0,0.0,-0.0,0.0,0.25,1.590576009,0.01,0.0,-0.27000001072883606,-0.6700000166893005,0.0,-0.01202392578125,-0.00738525390625,1.0206298828125,30.979999542236328,0.0,0.0,-1.4409942626953125,-0.7972259521484375,Closing,0.0,0.0,0.0,0.0,0.0,0.0,0.0,0.0,
2.1455970000000018,0.0,0.0,4953.0,0.0,0.0,0.0,0.0,0.25,0.874023348,0.01,0.0012207029999999897,11383.0,0.0,0.0,-0.0,0.0,0.0,0.521240181,0.01,0.0,-9937.0,0.0,0.0,0.0,0.0,0.0,3.339843408,0.01,0.0,-3814.0,0.0,0.0,-0.0,0.0,0.25,1.590576009,0.01,0.0,-0.2800000011920929,-0.6700000166893005,0.0,-0.0128173828125,-0.00372314453125,1.021728515625,30.979999542236328,0.0,0.0,-1.4409942626953125,-0.7972259521484375,Closing,0.0,0.0,0.0,0.0,0.0,0.0,0.0,0.0,
2.1762690000000005,0.0,0.0,4953.0,0.0,0.0,0.0,0.0,0.25,0.874023348,0.01,-0.0012207029999999897,11383.0,0.0,0.0,-0.0,0.0,0.0,0.521240181,0.01,0.0,-9937.0,0.0,0.0,0.0,0.0,0.0,3.339843408,0.01,-0.0012207030000004337,-3814.0,0.0,0.0,-0.0,0.0,0.25,1.591796712,0.01,0.0,-0.2800000011920929,-0.6700000166893005,0.0,-0.0106201171875,-0.003662109375,1.02166748046875,30.979999542236328,0.0,1.0,-1.4409942626953125,-0.7972259521484375,Closing,0.0,0.0,0.0,0.0,0.0,0.0,0.0,0.0,
2.206707000000002,0.0,0.0,4953.0,0.0,0.0,0.0,0.0,0.25,0.874023348,0.01,-0.0012207029999999897,11383.0,0.0,0.0,-0.0,0.0,0.0,0.521240181,0.01,0.0,-9937.0,0.0,0.0,0.0,0.0,0.0,3.338622705,0.01,0.0012207030000004337,-3814.0,0.0,0.0,-0.0,0.0,0.25,1.590576009,0.01,0.0,-0.2800000011920929,-0.6700000166893005,0.0,-0.01239013671875,-0.00457763671875,1.02215576171875,30.979999542236328,0.0,0.0,-1.4409942626953125,-0.7972259521484375,Closing,0.0,0.0,0.0,0.0,0.0,0.0,0.0,0.0,
2.234444000000003,0.0,0.0,4953.0,0.0,0.0,0.0,0.0,0.25,0.874023348,0.01,0.0012207029999999897,11383.0,0.0,0.0,-0.0,0.0,0.0,0.520019478,0.01,0.0,-9937.0,0.0,0.0,0.0,0.0,0.0,3.338622705,0.01,0.0012207030000004337,-3814.0,0.0,0.0,-0.0,0.0,0.25,1.590576009,0.01,0.0,-0.2800000011920929,-0.6700000166893005,0.0,-0.01025390625,-0.00494384765625,1.0186767578125,30.979999542236328,0.0,1.0,-1.4409942626953125,-0.7972259521484375,Closing,0.0,0.0,0.0,0.0,0.0,0.0,0.0,0.0,
2.267610000000001,0.0,0.0,4953.0,0.0,0.0,0.0,0.0,0.25,0.874023348,0.01,-0.0012207029999999897,11383.0,0.0,0.0,-0.0,0.0,0.0,0.522460884,0.01,0.0,-9937.0,0.0,0.0,0.0,0.0,0.0,3.338622705,0.01,0.0,-3814.0,0.0,0.0,-0.0,0.0,0.25,1.590576009,0.01,0.0,-0.27000001072883606,-0.6600000262260437,-0.009999999776482582,-0.0120849609375,-0.00677490234375,1.019287109375,30.979999542236328,0.0,0.0,-1.4409942626953125,-0.7972259521484375,Closing,0.0,0.0,0.0,0.0,0.0,0.0,0.0,0.0,
2.2958600000000007,0.0,0.0,4953.0,0.0,0.0,0.0,0.0,0.25,0.874023348,0.01,-0.0012207029999999897,11383.0,0.0,0.0,-0.0,0.0,0.0,0.521240181,0.01,0.0,-9937.0,0.0,0.0,0.0,0.0,0.0,3.338622705,0.01,0.0,-3814.0,0.0,0.0,-0.0,0.0,0.25,1.590576009,0.01,0.0,-0.2800000011920929,-0.6700000166893005,0.0,-0.01312255859375,-0.00311279296875,1.0230712890625,30.979999542236328,0.0,-1.0,-1.4409942626953125,-0.7972259521484375,Closing,0.0,0.0,0.0,0.0,0.0,0.0,0.0,0.0,
2.3290610000000016,0.0,0.0,4953.0,0.0,0.0,0.0,0.0,0.25,0.874023348,0.01,0.0,11383.0,0.0,0.0,-0.0,0.0,0.0,0.521240181,0.01,0.0,-9937.0,0.0,0.0,0.0,0.0,0.0,3.338622705,0.01,0.0,-3814.0,0.0,0.0,-0.0,0.0,0.25,1.591796712,0.01,0.0,-0.2800000011920929,-0.6700000166893005,-0.009999999776482582,-0.01495361328125,-0.0047607421875,1.01910400390625,30.979999542236328,0.0,-3.0,-1.4409942626953125,-0.7972259521484375,Closing,0.0,0.0,0.0,0.0,0.0,0.0,0.0,0.0,
2.3540650000000025,0.0,0.0,4953.0,0.0,0.0,0.0,0.0,0.25,0.874023348,0.01,0.0,11383.0,0.0,0.0,-0.0,0.0,0.0,0.521240181,0.01,0.0,-9937.0,0.0,0.0,0.0,0.0,0.0,3.338622705,0.01,0.0,-3814.0,0.0,0.0,-0.0,0.0,0.25,1.591796712,0.01,0.0,-0.2800000011920929,-0.6700000166893005,0.0,-0.00970458984375,-0.00677490234375,1.01580810546875,30.979999542236328,0.0,2.0,-1.4409942626953125,-0.7972259521484375,Closing,0.0,0.0,0.0,0.0,0.0,0.0,0.0,0.0,
2.3868139999999984,0.0,0.0,4953.0,0.0,0.0,0.0,0.0,0.25,0.874023348,0.01,0.0,11383.0,0.0,0.0,-0.0,0.0,0.0,0.521240181,0.01,0.0,-9937.0,0.0,0.0,0.0,0.0,0.0,3.337402002,0.01,0.0,-3814.0,0.0,0.0,-0.0,0.0,0.25,1.590576009,0.01,0.0,-0.2800000011920929,-0.6700000166893005,0.0,-0.01123046875,-0.00555419921875,1.02001953125,30.979999542236328,0.0,0.0,-1.4409942626953125,-0.7972259521484375,Closing,0.0,0.0,0.0,0.0,0.0,0.0,0.0,0.0,
2.4110250000000013,0.0,0.0,4953.0,0.0,0.0,0.0,0.0,0.25,0.8679198330000001,0.01,0.0,11383.0,0.0,0.0,-0.0,0.0,0.0,0.521240181,0.01,0.0,-9937.0,0.0,0.0,0.0,0.0,0.0,3.338622705,0.01,0.0,-3814.0,0.0,0.0,-0.0,0.0,0.25,1.591796712,0.01,0.0,-0.2800000011920929,-0.6700000166893005,0.0,-0.01318359375,-0.0064697265625,1.01947021484375,30.979999542236328,0.0,-1.0,-1.4409942626953125,-0.7972259521484375,Closing,0.0,0.0,0.0,0.0,0.0,0.0,0.0,0.0,
2.4431339999999984,0.0,0.0,4953.0,0.0,0.0,0.0,0.0,0.25,0.874023348,0.01,0.0,11383.0,0.0,0.0,-0.0,0.0,0.0,0.521240181,0.01,0.0,-9937.0,0.0,0.0,0.0,0.0,0.0,3.338622705,0.01,0.0,-3814.0,0.0,0.0,-0.0,0.0,0.25,1.590576009,0.01,0.0,-0.2800000011920929,-0.6700000166893005,0.0,-0.01025390625,-0.0050048828125,1.02099609375,30.979999542236328,0.0,1.0,-1.4409942626953125,-0.7972259521484375,Closing,0.0,0.0,0.0,0.0,0.0,0.0,0.0,0.0,
2.4715,0.0,0.0,4953.0,0.0,0.0,0.0,0.0,0.25,0.859374912,0.01,0.0012207029999999897,11383.0,0.0,0.0,-0.0,0.0,0.0,0.520019478,0.01,0.0,-9937.0,0.0,0.0,0.0,0.0,0.0,3.339843408,0.01,-0.0012207030000004337,-3814.0,0.0,0.0,-0.0,0.0,0.25,1.591796712,0.01,0.0,-0.28999999165534973,-0.6700000166893005,-0.009999999776482582,-0.01507568359375,-0.00567626953125,1.02496337890625,30.979999542236328,0.0,-3.0,-1.4409942626953125,-0.7972259521484375,Closing,0.0,0.0,0.0,0.0,0.0,0.0,0.0,0.0,
2.497930999999997,0.0,0.0,4953.0,0.0,0.0,0.0,0.0,0.25,0.874023348,0.01,0.0012207029999999897,11383.0,0.0,0.0,-0.0,0.0,0.0,0.521240181,0.01,0.0,-9937.0,0.0,0.0,0.0,0.0,0.0,3.338622705,0.01,-0.0012207030000004337,-3814.0,0.0,0.0,-0.0,0.0,0.25,1.591796712,0.01,0.0,-0.2800000011920929,-0.6700000166893005,0.0,-0.00860595703125,-0.0069580078125,1.021484375,30.989999771118164,0.0,3.0,-1.4409942626953125,-0.7972259521484375,Closing,0.0,0.0,0.0,0.0,0.0,0.0,0.0,0.0,
2.528900999999998,0.0,0.0,4953.0,0.0,0.0,0.0,0.0,0.25,0.874023348,0.01,0.0,11383.0,0.0,0.0,-0.0,0.0,0.0,0.521240181,0.01,0.0,-9937.0,0.0,0.0,0.0,0.0,0.0,3.338622705,0.01,0.0012207030000004337,-3814.0,0.0,0.0,-0.0,0.0,0.25,1.590576009,0.01,0.0,-0.28999999165534973,-0.6700000166893005,0.0,-0.011474609375,-0.007080078125,1.0211181640625,30.989999771118164,0.0,0.0,-1.4409942626953125,-0.7972259521484375,Closing,0.0,0.0,0.0,0.0,0.0,0.0,0.0,0.0,
2.552258999999998,0.0,0.0,4953.0,0.0,0.0,0.0,0.0,0.25,0.877685457,0.01,0.0,11383.0,0.0,0.0,-0.0,0.0,0.0,0.521240181,0.01,0.0,-9937.0,0.0,0.0,0.0,0.0,0.0,3.339843408,0.01,0.0,-3814.0,0.0,0.0,-0.0,0.0,0.25,1.591796712,0.01,0.0,-0.28999999165534973,-0.6700000166893005,-0.009999999776482582,-0.0107421875,-0.00762939453125,1.01885986328125,30.989999771118164,0.0,1.0,-1.4409942626953125,-0.7972259521484375,Closing,0.0,0.0,0.0,0.0,0.0,0.0,0.0,0.0,
2.586086000000003,0.0,0.0,4953.0,0.0,0.0,0.0,0.0,0.25,0.874023348,0.01,0.0,11383.0,0.0,0.0,-0.0,0.0,0.0,0.521240181,0.01,0.0,-9937.0,0.0,0.0,0.0,0.0,0.0,3.339843408,0.01,0.0,-3814.0,0.0,0.0,-0.0,0.0,0.25,1.591796712,0.01,0.0,-0.28999999165534973,-0.6700000166893005,-0.009999999776482582,-0.01019287109375,-0.00531005859375,1.024658203125,30.989999771118164,0.0,1.0,-1.4409942626953125,-0.7972259521484375,Closing,0.0,0.0,0.0,0.0,0.0,0.0,0.0,0.0,
2.6105899999999966,0.0,0.0,4953.0,0.0,0.0,0.0,0.0,0.25,0.874023348,0.01,0.0,11383.0,0.0,0.0,-0.0,0.0,0.0,0.520019478,0.01,0.0,-9937.0,0.0,0.0,0.0,0.0,0.0,3.338622705,0.01,0.0,-3814.0,0.0,0.0,-0.0,0.0,0.25,1.589355306,0.01,0.0,-0.2800000011920929,-0.6700000166893005,-0.009999999776482582,-0.010498046875,-0.0052490234375,1.016845703125,30.989999771118164,0.0,1.0,-1.4409942626953125,-0.7972259521484375,Closing,0.0,0.0,0.0,0.0,0.0,0.0,0.0,0.0,
2.6429110000000002,0.0,0.0,4953.0,0.0,0.0,0.0,0.0,0.25,0.874023348,0.01,0.0,11383.0,0.0,0.0,-0.0,0.0,0.0,0.521240181,0.01,0.0,-9937.0,0.0,0.0,0.0,0.0,0.0,3.338622705,0.01,0.0,-3814.0,0.0,0.0,-0.0,0.0,0.25,1.590576009,0.01,0.0,-0.28999999165534973,-0.6700000166893005,-0.009999999776482582,-0.0125732421875,-0.007568359375,1.02117919921875,30.989999771118164,0.0,0.0,-1.4409942626953125,-0.7972259521484375,Closing,0.0,0.0,0.0,0.0,0.0,0.0,0.0,0.0,
2.6709360000000015,0.0,0.0,4953.0,0.0,0.0,0.0,0.0,0.25,0.872802645,0.01,-0.0012207029999999897,11383.0,0.0,0.0,-0.0,0.0,0.0,0.521240181,0.01,0.0,-9937.0,0.0,0.0,0.0,0.0,0.0,3.338622705,0.01,-0.0012207030000004337,-3814.0,0.0,0.0,-0.0,0.0,0.25,1.591796712,0.01,0.0,-0.28999999165534973,-0.6700000166893005,-0.009999999776482582,-0.01226806640625,-0.0032958984375,1.02001953125,30.989999771118164,0.0,0.0,-1.4409942626953125,-0.7972259521484375,Closing,0.0,0.0,0.0,0.0,0.0,0.0,0.0,0.0,
2.698036,0.0,0.0,4953.0,0.0,0.0,0.0,0.0,0.25,0.874023348,0.01,-0.0012207029999999897,11383.0,0.0,0.0,-0.0,0.0,0.0,0.520019478,0.01,0.0,-9937.0,0.0,0.0,0.0,0.0,0.0,3.338622705,0.01,-0.0012207030000004337,-3814.0,0.0,0.0,-0.0,0.0,0.25,1.591796712,0.01,0.0,-0.28999999165534973,-0.6700000166893005,-0.009999999776482582,-0.01171875,-0.005859375,1.01824951171875,30.989999771118164,0.0,0.0,-1.4409942626953125,-0.7972259521484375,Closing,0.0,0.0,0.0,0.0,0.0,0.0,0.0,0.0,
2.7301529999999983,0.0,0.0,4953.0,0.0,0.0,0.0,0.0,0.25,0.872802645,0.01,0.0,11383.0,0.0,0.0,-0.0,0.0,0.0,0.521240181,0.01,0.0,-9937.0,0.0,0.0,0.0,0.0,0.0,3.338622705,0.01,0.0012207030000004337,-3814.0,0.0,0.0,-0.0,0.0,0.25,1.591796712,0.01,0.0,-0.28999999165534973,-0.6700000166893005,-0.009999999776482582,-0.01336669921875,-0.00677490234375,1.017333984375,30.989999771118164,0.0,-1.0,-1.4409942626953125,-0.7972259521484375,Closing,0.0,0.0,0.0,0.0,0.0,0.0,0.0,0.0,
2.754614999999998,0.0,0.0,4953.0,0.0,0.0,0.0,0.0,0.25,0.875244051,0.01,0.0012207029999999897,11383.0,0.0,0.0,-0.0,0.0,0.0,0.521240181,0.01,0.0,-9937.0,0.0,0.0,0.0,0.0,0.0,3.338622705,0.01,0.0,-3814.0,0.0,0.0,-0.0,0.0,0.25,1.593017415,0.01,0.0,-0.28999999165534973,-0.6700000166893005,-0.009999999776482582,-0.01287841796875,-0.0057373046875,1.01849365234375,30.989999771118164,0.0,0.0,-1.4409942626953125,-0.7972259521484375,Closing,0.0,0.0,0.0,0.0,0.0,0.0,0.0,0.0,
2.7888349999999993,0.0,0.0,4953.0,0.0,0.0,0.0,0.0,0.25,0.875244051,0.01,0.0012207029999999897,11383.0,0.0,0.0,-0.0,0.0,0.0,0.521240181,0.01,0.0,-9937.0,0.0,0.0,0.0,0.0,0.0,3.338622705,0.01,0.0,-3814.0,0.0,0.0,-0.0,0.0,0.25,1.591796712,0.01,0.0,-0.2800000011920929,-0.6600000262260437,-0.009999999776482582,-0.0111083984375,-0.00628662109375,1.02044677734375,30.989999771118164,0.0,0.0,-1.4409942626953125,-0.7972259521484375,Closing,0.0,0.0,0.0,0.0,0.0,0.0,0.0,0.0,
2.815349000000002,0.0,0.0,4953.0,0.0,0.0,0.0,0.0,0.25,0.874023348,0.01,0.0,11383.0,0.0,0.0,-0.0,0.0,0.0,0.520019478,0.01,0.0,-9937.0,0.0,0.0,0.0,0.0,0.0,3.338622705,0.01,0.0,-3814.0,0.0,0.0,-0.0,0.0,0.25,1.591796712,0.01,0.0,-0.28999999165534973,-0.6700000166893005,-0.009999999776482582,-0.01312255859375,-0.006103515625,1.0196533203125,30.989999771118164,0.0,-1.0,-1.4409942626953125,-0.7972259521484375,Closing,0.0,0.0,0.0,0.0,0.0,0.0,0.0,0.0,
2.850158000000003,0.0,0.0,4953.0,0.0,0.0,0.0,0.0,0.25,0.874023348,0.01,0.0,11383.0,0.0,0.0,-0.0,0.0,0.0,0.521240181,0.01,0.0,-9937.0,0.0,0.0,0.0,0.0,0.0,3.339843408,0.01,0.0,-3814.0,0.0,0.0,-0.0,0.0,0.25,1.590576009,0.01,0.0,-0.28999999165534973,-0.6700000166893005,-0.009999999776482582,-0.0126953125,-0.00653076171875,1.02056884765625,30.989999771118164,0.0,0.0,-1.4409942626953125,-0.7972259521484375,Closing,0.0,0.0,0.0,0.0,0.0,0.0,0.0,0.0,
2.881957000000002,0.0,0.0,4953.0,0.0,0.0,0.0,0.0,0.25,0.874023348,0.01,0.0,11383.0,0.0,0.0,-0.0,0.0,0.0,0.521240181,0.01,0.0,-9937.0,0.0,0.0,0.0,0.0,0.0,3.338622705,0.01,-0.0012207030000004337,-3814.0,0.0,0.0,-0.0,0.0,0.25,1.591796712,0.01,0.0,-0.28999999165534973,-0.6700000166893005,-0.009999999776482582,-0.01226806640625,-0.00811767578125,1.01885986328125,30.989999771118164,0.0,0.0,-1.4409942626953125,-0.7972259521484375,Closing,0.0,0.0,0.0,0.0,0.0,0.0,0.0,0.0,
2.9097459999999993,0.0,0.0,4953.0,0.0,0.0,0.0,0.0,0.25,0.874023348,0.01,-0.0012207029999999897,11383.0,0.0,0.0,-0.0,0.0,0.0,0.520019478,0.01,0.0,-9937.0,0.0,0.0,0.0,0.0,0.0,3.338622705,0.01,0.0,-3814.0,0.0,0.0,-0.0,0.0,0.25,1.590576009,0.01,0.0,-0.28999999165534973,-0.6700000166893005,-0.009999999776482582,-0.0107421875,-0.00469970703125,1.02197265625,30.989999771118164,0.0,1.0,-1.4409942626953125,-0.7972259521484375,Closing,0.0,0.0,0.0,0.0,0.0,0.0,0.0,0.0,
2.9453240000000007,0.0,0.0,4953.0,0.0,0.0,0.0,0.0,0.25,0.874023348,0.01,-0.0012207029999999897,11383.0,0.0,0.0,-0.0,0.0,0.0,0.521240181,0.01,0.0,-9937.0,0.0,0.0,0.0,0.0,0.0,3.338622705,0.01,0.0,-3814.0,0.0,0.0,-0.0,0.0,0.25,1.591796712,0.01,0.0,-0.2800000011920929,-0.6600000262260437,-0.009999999776482582,-0.01043701171875,-0.00347900390625,1.01971435546875,30.989999771118164,0.0,1.0,-1.4409942626953125,-0.7972259521484375,Closing,0.0,0.0,0.0,0.0,0.0,0.0,0.0,0.0,
2.9745469999999985,0.0,0.0,4953.0,0.0,0.0,0.0,0.0,0.25,0.874023348,0.01,0.0,11383.0,0.0,0.0,-0.0,0.0,0.0,0.521240181,0.01,0.0,-9937.0,0.0,0.0,0.0,0.0,0.0,3.338622705,0.01,0.0,-3814.0,0.0,0.0,-0.0,0.0,0.25,1.590576009,0.01,0.0,-0.2800000011920929,-0.6600000262260437,-0.009999999776482582,-0.01263427734375,-0.0054931640625,1.0194091796875,30.989999771118164,0.0,0.0,-1.4409942626953125,-0.7972259521484375,Closing,0.0,0.0,0.0,0.0,0.0,0.0,0.0,0.0,
3.007773000000001,0.0,0.0,4953.0,0.0,0.0,0.0,0.0,0.25,0.874023348,0.01,0.0012207029999999897,11383.0,0.0,0.0,-0.0,0.0,0.0,0.521240181,0.01,0.0,-9937.0,0.0,0.0,0.0,0.0,0.0,3.339843408,0.01,0.0012207030000004337,-3814.0,0.0,0.0,-0.0,0.0,0.25,1.590576009,0.01,0.0,-0.2800000011920929,-0.6600000262260437,-0.009999999776482582,-0.0123291015625,-0.0079345703125,1.0174560546875,30.989999771118164,0.0,0.0,-1.4409942626953125,-0.7972259521484375,Closing,0.0,0.0,0.0,0.0,0.0,0.0,0.0,0.0,
3.0365069999999976,0.0,0.0,4953.0,0.0,0.0,0.0,0.0,0.25,0.8813475660000001,0.01,0.0012207029999999897,11383.0,0.0,0.0,-0.0,0.0,0.0,0.521240181,0.01,0.0,-9937.0,0.0,0.0,0.0,0.0,0.0,3.338622705,0.01,0.0012207030000004337,-3814.0,0.0,0.0,-0.0,0.0,0.25,1.591796712,0.01,0.0,-0.2800000011920929,-0.6600000262260437,-0.009999999776482582,-0.01019287109375,-0.0084228515625,1.0277099609375,30.989999771118164,0.0,1.0,-1.4409942626953125,-0.7972259521484375,Closing,0.0,0.0,0.0,0.0,0.0,0.0,0.0,0.0,
3.069072999999997,0.0,0.0,4953.0,0.0,0.0,0.0,0.0,0.25,0.874023348,0.01,-0.0012207029999999897,11383.0,0.0,0.0,-0.0,0.0,0.0,0.521240181,0.01,0.0,-9937.0,0.0,0.0,0.0,0.0,0.0,3.338622705,0.01,-0.0012207030000004337,-3814.0,0.0,0.0,-0.0,0.0,0.25,1.591796712,0.01,0.0,-0.2800000011920929,-0.6600000262260437,-0.009999999776482582,-0.0130615234375,-0.0059814453125,1.02276611328125,30.989999771118164,0.0,-1.0,-1.4409942626953125,-0.7972259521484375,Closing,0.0,0.0,0.0,0.0,0.0,0.0,0.0,0.0,
3.098112000000001,0.0,0.0,4953.0,0.0,0.0,0.0,0.0,0.25,0.874023348,0.01,-0.0012207029999999897,11383.0,0.0,0.0,-0.0,0.0,0.0,0.521240181,0.01,0.0,-9937.0,0.0,0.0,0.0,0.0,0.0,3.338622705,0.01,-0.0012207030000004337,-3814.0,0.0,0.0,-0.0,0.0,0.25,1.591796712,0.01,0.0,-0.2800000011920929,-0.6600000262260437,-0.009999999776482582,-0.01336669921875,-0.00421142578125,1.02056884765625,30.989999771118164,0.0,-1.0,-1.4409942626953125,-0.7972259521484375,Closing,0.0,0.0,0.0,0.0,0.0,0.0,0.0,0.0,
3.1318600000000005,0.0,0.0,4953.0,0.0,0.0,0.0,0.0,0.25,0.874023348,0.01,0.0012207029999999897,11383.0,0.0,0.0,-0.0,0.0,0.0,0.521240181,0.01,0.0,-9937.0,0.0,0.0,0.0,0.0,0.0,3.338622705,0.01,0.0012207030000004337,-3814.0,0.0,0.0,-0.0,0.0,0.25,1.591796712,0.01,0.0,-0.2800000011920929,-0.6600000262260437,-0.009999999776482582,-0.01409912109375,-0.00335693359375,1.02178955078125,30.989999771118164,0.0,-2.0,-1.4409942626953125,-0.7972259521484375,Closing,0.0,0.0,0.0,0.0,0.0,0.0,0.0,0.0,
3.158207000000002,0.0,0.0,4953.0,0.0,0.0,0.0,0.0,0.25,0.874023348,0.01,0.0,11383.0,0.0,0.0,-0.0,0.0,0.0,0.521240181,0.01,0.0,-9937.0,0.0,0.0,0.0,0.0,0.0,3.338622705,0.01,0.0,-3814.0,0.0,0.0,-0.0,0.0,0.25,1.590576009,0.01,0.0,-0.2800000011920929,-0.6600000262260437,-0.009999999776482582,-0.01220703125,-0.0057373046875,1.02410888671875,30.989999771118164,0.0,0.0,-1.4409942626953125,-0.7972259521484375,Closing,0.0,0.0,0.0,0.0,0.0,0.0,0.0,0.0,
3.1932669999999996,0.0,0.0,4953.0,0.0,0.0,0.0,0.0,0.25,0.877685457,0.01,0.0,11383.0,0.0,0.0,-0.0,0.0,0.0,0.521240181,0.01,0.0,-9937.0,0.0,0.0,0.0,0.0,0.0,3.339843408,0.01,0.0,-3814.0,0.0,0.0,-0.0,0.0,0.25,1.590576009,0.01,0.0,-0.2800000011920929,-0.6600000262260437,-0.009999999776482582,-0.0118408203125,-0.0023193359375,1.02069091796875,30.989999771118164,0.0,0.0,-1.4409942626953125,-0.7972259521484375,Closing,0.0,0.0,0.0,0.0,0.0,0.0,0.0,0.0,
3.225548999999999,0.0,0.0,4953.0,0.0,0.0,0.0,0.0,0.25,0.875244051,0.01,0.0,11383.0,0.0,0.0,-0.0,0.0,0.0,0.521240181,0.01,0.0,-9937.0,0.0,0.0,0.0,0.0,0.0,3.338622705,0.01,0.0,-3814.0,0.0,0.0,-0.0,0.0,0.25,1.591796712,0.01,0.0,-0.2800000011920929,-0.6700000166893005,-0.009999999776482582,-0.01043701171875,-0.00640869140625,1.02001953125,30.989999771118164,0.0,1.0,-1.4409942626953125,-0.7972259521484375,Closing,0.0,0.0,0.0,0.0,0.0,0.0,0.0,0.0,
3.2523240000000007,0.0,0.0,4953.0,0.0,0.0,0.0,0.0,0.25,0.874023348,0.01,-0.0012207029999999897,11383.0,0.0,0.0,-0.0,0.0,0.0,0.521240181,0.01,0.0,-9937.0,0.0,0.0,0.0,0.0,0.0,3.339843408,0.01,-0.0012207030000004337,-3814.0,0.0,0.0,-0.0,0.0,0.25,1.590576009,0.01,0.0,-0.2800000011920929,-0.6700000166893005,-0.009999999776482582,-0.011962890625,-0.00634765625,1.02508544921875,30.989999771118164,0.0,0.0,-1.4409942626953125,-0.7972259521484375,Closing,0.0,0.0,0.0,0.0,0.0,0.0,0.0,0.0,
3.288154999999999,0.0,0.0,4953.0,0.0,0.0,0.0,0.0,0.25,0.874023348,0.01,-0.0012207029999999897,11383.0,0.0,0.0,-0.0,0.0,0.0,0.521240181,0.01,0.0,-9937.0,0.0,0.0,0.0,0.0,0.0,3.338622705,0.01,-0.0012207030000004337,-3814.0,0.0,0.0,-0.0,0.0,0.25,1.590576009,0.01,0.0,-0.2800000011920929,-0.6700000166893005,-0.009999999776482582,-0.0111083984375,-0.00152587890625,1.0228271484375,30.989999771118164,0.0,0.0,-1.4409942626953125,-0.7972259521484375,Closing,0.0,0.0,0.0,0.0,0.0,0.0,0.0,0.0,
3.314531000000003,0.0,0.0,4953.0,0.0,0.0,0.0,0.0,0.125,0.874023348,0.01,0.0012207029999999897,11383.0,0.0,0.0,-0.0,0.0,0.0,0.521240181,0.01,0.0,-9937.0,0.0,0.0,0.0,0.0,0.0,3.338622705,0.01,0.0012207030000004337,-3814.0,0.0,0.0,-0.0,0.0,0.25,1.591796712,0.01,0.0,-0.2800000011920929,-0.6700000166893005,-0.009999999776482582,-0.0106201171875,-0.00274658203125,1.02020263671875,30.989999771118164,0.0,1.0,-1.4409942626953125,-0.7972259521484375,Closing,0.0,0.0,0.0,0.0,0.0,0.0,0.0,0.0,
3.349154000000002,0.0,0.0,4953.0,0.0,0.0,0.0,0.0,0.125,0.874023348,0.01,0.0012207029999999897,11383.0,0.0,0.0,-0.0,0.0,0.0,0.521240181,0.01,0.0,-9937.0,0.0,0.0,0.0,0.0,0.0,3.338622705,0.01,-0.0012207030000004337,-3814.0,0.0,0.0,-0.0,0.0,0.25,1.591796712,0.01,0.0,-0.2800000011920929,-0.6700000166893005,-0.009999999776482582,-0.01531982421875,-0.00164794921875,1.021240234375,30.989999771118164,0.0,-3.0,-1.4409942626953125,-0.7972259521484375,Closing,0.0,0.0,0.0,0.0,0.0,0.0,0.0,0.0,
3.387959999999999,0.0,0.0,4953.0,0.0,0.0,0.0,0.0,0.25,0.872802645,0.01,0.0,11383.0,0.0,0.0,-0.0,0.0,0.0,0.521240181,0.01,0.0,-9937.0,0.0,0.0,0.0,0.0,0.0,3.338622705,0.01,-0.0012207030000004337,-3814.0,0.0,0.0,-0.0,0.0,0.25,1.591796712,0.01,0.0,-0.2800000011920929,-0.6700000166893005,-0.009999999776482582,-0.0133056640625,-0.0035400390625,1.02191162109375,30.989999771118164,0.0,-1.0,-1.4409942626953125,-0.7972259521484375,Closing,0.0,0.0,0.0,0.0,0.0,0.0,0.0,0.0,
3.4139700000000013,0.0,0.0,4953.0,0.0,0.0,0.0,0.0,0.25,0.874023348,0.01,-0.0012207029999999897,11383.0,0.0,0.0,-0.0,0.0,0.0,0.520019478,0.01,0.0,-9937.0,0.0,0.0,0.0,0.0,0.0,3.338622705,0.01,0.0012207030000004337,-3814.0,0.0,0.0,-0.0,0.0,0.25,1.591796712,0.01,0.0,-0.2800000011920929,-0.6700000166893005,-0.009999999776482582,-0.01190185546875,-0.004638671875,1.01885986328125,30.989999771118164,0.0,0.0,-1.4409942626953125,-0.7972259521484375,Closing,0.0,0.0,0.0,0.0,0.0,0.0,0.0,0.0,
3.448298999999999,0.0,0.0,4953.0,0.0,0.0,0.0,0.0,0.25,0.874023348,0.01,-0.0012207029999999897,11383.0,0.0,0.0,-0.0,0.0,0.0,0.520019478,0.01,0.0,-9937.0,0.0,0.0,0.0,0.0,0.0,3.338622705,0.01,0.0012207030000004337,-3814.0,0.0,0.0,-0.0,0.0,0.25,1.591796712,0.01,0.0,-0.2800000011920929,-0.6700000166893005,-0.009999999776482582,-0.0101318359375,-0.00469970703125,1.02142333984375,30.989999771118164,0.0,1.0,-1.4409942626953125,-0.7972259521484375,Closing,0.0,0.0,0.0,0.0,0.0,0.0,0.0,0.0,
3.4758629999999977,0.0,0.0,4953.0,0.0,0.0,0.0,0.0,0.125,0.874023348,0.01,0.0,11383.0,0.0,0.0,-0.0,0.0,0.0,0.521240181,0.01,0.0,-9937.0,0.0,0.0,0.0,0.0,0.0,3.338622705,0.01,0.0,-3814.0,0.0,0.0,-0.0,0.0,0.25,1.591796712,0.01,0.0,-0.2800000011920929,-0.6700000166893005,-0.009999999776482582,-0.01129150390625,-0.00439453125,1.02410888671875,30.989999771118164,0.0,0.0,-1.4409942626953125,-0.7972259521484375,Closing,0.0,0.0,0.0,0.0,0.0,0.0,0.0,0.0,
3.5079780000000027,0.0,0.0,4953.0,0.0,0.0,0.0,0.0,0.125,0.874023348,0.01,0.0012207029999999897,11383.0,0.0,0.0,-0.0,0.0,0.0,0.521240181,0.01,0.0,-9937.0,0.0,0.0,0.0,0.0,0.0,3.339843408,0.01,-0.0012207030000004337,-3814.0,0.0,0.0,-0.0,0.0,0.25,1.591796712,0.01,0.0,-0.2800000011920929,-0.6700000166893005,-0.009999999776482582,-0.01171875,-0.00213623046875,1.02215576171875,31.0,0.0,0.0,-1.4409942626953125,-0.7972259521484375,Closing,0.0,0.0,0.0,0.0,0.0,0.0,0.0,0.0,
3.5364089999999995,0.0,0.0,4953.0,0.0,0.0,0.0,0.0,0.25,0.874023348,0.01,0.0012207029999999897,11383.0,0.0,0.0,-0.0,0.0,0.0,0.521240181,0.01,0.0,-9937.0,0.0,0.0,0.0,0.0,0.0,3.339843408,0.01,-0.0012207030000004337,-3814.0,0.0,0.0,-0.0,0.0,0.25,1.591796712,0.01,0.0,-0.27000001072883606,-0.6700000166893005,-0.009999999776482582,-0.01171875,-0.00360107421875,1.02490234375,31.0,0.0,0.0,-1.4409942626953125,-0.7972259521484375,Closing,0.0,0.0,0.0,0.0,0.0,0.0,0.0,0.0,
3.568036999999997,0.0,0.0,4953.0,0.0,0.0,0.0,0.0,0.25,0.874023348,0.01,0.0,11383.0,0.0,0.0,-0.0,0.0,0.0,0.521240181,0.01,0.0,-9937.0,0.0,0.0,0.0,0.0,0.0,3.339843408,0.01,0.0012207030000004337,-3814.0,0.0,0.0,-0.0,0.0,0.25,1.591796712,0.01,0.0,-0.27000001072883606,-0.6700000166893005,-0.009999999776482582,-0.012451171875,-0.00384521484375,1.02099609375,31.0,0.0,0.0,-1.4409942626953125,-0.7972259521484375,Closing,0.0,0.0,0.0,0.0,0.0,0.0,0.0,0.0,
3.596648000000001,0.0,0.0,4953.0,0.0,0.0,0.0,0.0,0.25,0.872802645,0.01,0.0,11383.0,0.0,0.0,-0.0,0.0,0.0,0.521240181,0.01,0.0,-9937.0,0.0,0.0,0.0,0.0,0.0,3.339843408,0.01,0.0012207030000004337,-3814.0,0.0,0.0,-0.0,0.0,0.25,1.590576009,0.01,0.0,-0.27000001072883606,-0.6700000166893005,-0.009999999776482582,-0.0125732421875,-0.00592041015625,1.0218505859375,31.0,0.0,0.0,-1.4409942626953125,-0.7972259521484375,Closing,0.0,0.0,0.0,0.0,0.0,0.0,0.0,0.0,
3.6304400000000023,0.0,0.0,4953.0,0.0,0.0,0.0,0.0,0.25,0.874023348,0.01,0.0,11383.0,0.0,0.0,-0.0,0.0,0.0,0.521240181,0.01,0.0,-9937.0,0.0,0.0,0.0,0.0,0.0,3.338622705,0.01,0.0,-3814.0,0.0,0.0,-0.0,0.0,0.25,1.591796712,0.01,0.0,-0.27000001072883606,-0.6700000166893005,-0.009999999776482582,-0.011962890625,-0.00335693359375,1.0189208984375,31.0,0.0,0.0,-1.4409942626953125,-0.7972259521484375,Closing,0.0,0.0,0.0,0.0,0.0,0.0,0.0,0.0,
3.656478999999999,0.0,0.0,4953.0,0.0,0.0,0.0,0.0,0.25,0.874023348,0.01,-0.0012207029999999897,11383.0,0.0,0.0,-0.0,0.0,0.0,0.520019478,0.01,0.0,-9937.0,0.0,0.0,0.0,0.0,0.0,3.338622705,0.01,0.0,-3814.0,0.0,0.0,-0.0,0.0,0.25,1.591796712,0.01,0.0,-0.27000001072883606,-0.6700000166893005,-0.009999999776482582,-0.01495361328125,-0.00360107421875,1.02056884765625,31.0,0.0,-2.0,-1.4409942626953125,-0.7972259521484375,Closing,0.0,0.0,0.0,0.0,0.0,0.0,0.0,0.0,
3.6902869999999965,0.0,0.0,4953.0,0.0,0.0,0.0,0.0,0.125,0.874023348,0.01,-0.0012207029999999897,11383.0,0.0,0.0,-0.0,0.0,0.0,0.520019478,0.01,0.0,-9937.0,0.0,0.0,0.0,0.0,0.0,3.339843408,0.01,0.0,-3814.0,0.0,0.0,-0.0,0.0,0.25,1.590576009,0.01,0.0,-0.27000001072883606,-0.6700000166893005,-0.009999999776482582,-0.01544189453125,-0.0054931640625,1.0166015625,31.0,0.0,-3.0,-1.4409942626953125,-0.7972259521484375,Closing,0.0,0.0,0.0,0.0,0.0,0.0,0.0,0.0,
3.7160710000000035,0.0,0.0,4953.0,0.0,0.0,0.0,0.0,0.125,0.872802645,0.01,0.0,11383.0,0.0,0.0,-0.0,0.0,0.0,0.521240181,0.01,0.0,-9937.0,0.0,0.0,0.0,0.0,0.0,3.338622705,0.01,0.0,-3814.0,0.0,0.0,-0.0,0.0,0.25,1.590576009,0.01,0.0,-0.27000001072883606,-0.6700000166893005,-0.009999999776482582,-0.01165771484375,-0.0052490234375,1.0255126953125,31.0,0.0,0.0,-1.4409942626953125,-0.7972259521484375,Closing,0.0,0.0,0.0,0.0,0.0,0.0,0.0,0.0,
3.750769,0.0,0.0,4953.0,0.0,0.0,0.0,0.0,0.125,0.874023348,0.01,0.0,11383.0,0.0,0.0,-0.0,0.0,0.0,0.521240181,0.01,0.0,-9937.0,0.0,0.0,0.0,0.0,0.0,3.338622705,0.01,0.0,-3814.0,0.0,0.0,-0.0,0.0,0.25,1.590576009,0.01,0.0,-0.2800000011920929,-0.6700000166893005,-0.009999999776482582,-0.01611328125,-0.005126953125,1.02447509765625,31.0,0.0,-4.0,-1.4409942626953125,-0.7972259521484375,Closing,0.0,0.0,0.0,0.0,0.0,0.0,0.0,0.0,
3.7849029999999986,0.0,0.0,4953.0,0.0,0.0,0.0,0.0,0.25,0.874023348,0.01,0.0012207029999999897,11383.0,0.0,0.0,-0.0,0.0,0.0,0.521240181,0.01,0.0,-9937.0,0.0,0.0,0.0,0.0,0.0,3.338622705,0.01,-0.0012207030000004337,-3814.0,0.0,0.0,-0.0,0.0,0.25,1.590576009,0.01,0.0,-0.2800000011920929,-0.6700000166893005,-0.009999999776482582,-0.0096435546875,-0.00653076171875,1.0201416015625,31.0,0.0,2.0,-1.4409942626953125,-0.7972259521484375,Closing,0.0,0.0,0.0,0.0,0.0,0.0,0.0,0.0,
3.812828999999998,0.0,0.0,4953.0,0.0,0.0,0.0,0.0,0.25,0.874023348,0.01,0.0,11383.0,0.0,0.0,-0.0,0.0,0.0,0.521240181,0.01,0.0,-9937.0,0.0,0.0,0.0,0.0,0.0,3.338622705,0.01,0.0012207030000004337,-3814.0,0.0,0.0,-0.0,0.0,0.25,1.590576009,0.01,0.0,-0.2800000011920929,-0.6700000166893005,-0.009999999776482582,-0.0113525390625,-0.00274658203125,1.02490234375,31.0,0.0,0.0,-1.4409942626953125,-0.7972259521484375,Closing,0.0,0.0,0.0,0.0,0.0,0.0,0.0,0.0,
3.8467779999999983,0.0,0.0,4953.0,0.0,0.0,0.0,0.0,0.25,0.874023348,0.01,0.0,11383.0,0.0,0.0,-0.0,0.0,0.0,0.521240181,0.01,0.0,-9937.0,0.0,0.0,0.0,0.0,0.0,3.338622705,0.01,0.0012207030000004337,-3814.0,0.0,0.0,-0.0,0.0,0.25,1.590576009,0.01,0.0,-0.27000001072883606,-0.6600000262260437,-0.009999999776482582,-0.0106201171875,-0.005615234375,1.02410888671875,31.0,0.0,1.0,-1.4409942626953125,-0.7972259521484375,Closing,0.0,0.0,0.0,0.0,0.0,0.0,0.0,0.0,
3.874942999999999,0.0,0.0,4953.0,0.0,0.0,0.0,0.0,0.25,0.874023348,0.01,0.0,11383.0,0.0,0.0,-0.0,0.0,0.0,0.521240181,0.01,0.0,-9937.0,0.0,0.0,0.0,0.0,0.0,3.339843408,0.01,0.0,-3814.0,0.0,0.0,-0.0,0.0,0.25,1.591796712,0.01,0.0,-0.27000001072883606,-0.6600000262260437,-0.009999999776482582,-0.01300048828125,-0.0048828125,1.02813720703125,31.0,0.0,-1.0,-1.4409942626953125,-0.7972259521484375,Closing,0.0,0.0,0.0,0.0,0.0,0.0,0.0,0.0,
3.907944000000003,0.0,0.0,4953.0,0.0,0.0,0.0,0.0,0.25,0.871581942,0.01,0.0,11383.0,0.0,0.0,-0.0,0.0,0.0,0.521240181,0.01,0.0,-9937.0,0.0,0.0,0.0,0.0,0.0,3.338622705,0.01,0.0,-3814.0,0.0,0.0,-0.0,0.0,0.25,1.591796712,0.01,0.0,-0.27000001072883606,-0.6600000262260437,-0.009999999776482582,-0.01116943359375,-0.00518798828125,1.018798828125,31.0,0.0,0.0,-1.4409942626953125,-0.7972259521484375,Closing,0.0,0.0,0.0,0.0,0.0,0.0,0.0,0.0,
3.9366529999999984,0.0,0.0,4953.0,0.0,0.0,0.0,0.0,0.25,0.874023348,0.01,-0.0012207029999999897,11383.0,0.0,0.0,-0.0,0.0,0.0,0.521240181,0.01,0.0,-9937.0,0.0,0.0,0.0,0.0,0.0,3.338622705,0.01,0.0,-3814.0,0.0,0.0,-0.0,0.0,0.25,1.591796712,0.01,0.0,-0.27000001072883606,-0.6600000262260437,-0.009999999776482582,-0.0120849609375,-0.00518798828125,1.02301025390625,31.0,0.0,0.0,-1.4409942626953125,-0.7972259521484375,Closing,0.0,0.0,0.0,0.0,0.0,0.0,0.0,0.0,
3.9677160000000002,0.0,0.0,4953.0,0.0,0.0,0.0,0.0,0.25,0.874023348,0.01,0.0012207029999999897,11383.0,0.0,0.0,-0.0,0.0,0.0,0.521240181,0.01,0.0,-9937.0,0.0,0.0,0.0,0.0,0.0,3.338622705,0.01,0.0,-3814.0,0.0,0.0,-0.0,0.0,0.25,1.590576009,0.01,0.0,-0.27000001072883606,-0.6600000262260437,-0.009999999776482582,-0.0142822265625,-0.0072021484375,1.01812744140625,31.0,0.0,-2.0,-1.4409942626953125,-0.7972259521484375,Closing,0.0,0.0,0.0,0.0,0.0,0.0,0.0,0.0,
3.9973600000000005,0.0,0.0,4953.0,0.0,0.0,0.0,0.0,0.25,0.874023348,0.01,0.0012207029999999897,11383.0,0.0,0.0,-0.0,0.0,0.0,0.522460884,0.01,0.0,-9937.0,0.0,0.0,0.0,0.0,0.0,3.338622705,0.01,0.0,-3814.0,0.0,0.0,-0.0,0.0,0.25,1.591796712,0.01,0.0,-0.27000001072883606,-0.6600000262260437,-0.009999999776482582,-0.01031494140625,-0.00103759765625,1.01849365234375,31.0,0.0,1.0,-1.4409942626953125,-0.7972259521484375,Closing,0.0,0.0,0.0,0.0,0.0,0.0,0.0,0.0,
