Time,ClimberA1,ClimberA2,FRpos,FRCurrent,FRspeed,FRsetpoint,FRApos,FRACurrent,FREncpos,FREncSetpoint,FREncSpeed,FLpos,FLCurrent,FLspeed,FLsetpoint,FLApos,FLACurrent,FLEncpos,FLEncSetpoint,FLEncSpeed,BRpos,BRCurrent,BRspeed,BRsetpoint,BRApos,BRACurrent,BREncpos,BREncSetpoint,BREncSpeed,BLpos,BLCurrent,BLspeed,BLsetpoint,BLApos,BLACurrent,BLEncpos,BLEncSetpoint,BLEncSpeed,navx_Pitch,navx_Roll,navx_Yaw,navx_XAcc,navx_YAcc,navx_ZAcc,navx_Temp,navx_Bar,navx_Alt,navx_XDis,navx_YDis,GearPlacerState,ShootOutputV,ShootOutputCurrent,ShootEncPos,ShootEncVelocity,ShootSpeed,ShootSetpoint,CarouselSetpoint,CarouselCurrent,
0.17491399999998974,0.0,0.0,18451.0,0.0,0.0,0.0,0.0,0.25,0.9460448250000001,0.01,0.0,-1715.0,0.0,0.0,-0.0,0.0,0.25,0.656738214,0.01,0.0,-375.0,0.0,0.0,0.0,0.0,0.125,3.507079719,0.01,0.0,-1559.0,0.0,0.0,-0.0,0.0,0.25,1.799316222,0.01,0.0,-0.1599999964237213,-0.5099999904632568,-0.019999999552965164,0.02117919921875,-0.010986328125,1.249755859375,34.22999954223633,0.0,32.0,0.573760986328125,-1.2264556884765625,Opening,0.0,0.0,0.0,0.0,0.0,0.0,0.0,0.0,
0.3164810000000289,0.0,0.0,18451.0,0.0,0.0,0.0,0.0,0.25,0.887451081,0.01,0.0,-1715.0,0.0,0.0,-0.0,0.0,0.25,0.5932616580000001,0.01,0.0,-375.0,0.0,0.0,0.0,0.0,0.125,3.439941054,0.01,0.0,-1559.0,0.0,0.0,-0.0,0.0,0.25,1.727294745,0.01,0.0,-0.1899999976158142,-0.550000011920929,-0.07999999821186066,-0.049560546875,-0.0791015625,0.8636474609375,34.22999954223633,0.0,-41.0,0.567474365234375,-1.2270660400390625,Opening,0.0,0.0,0.0,0.0,0.0,0.0,0.0,0.0,
0.4656460000000661,0.0,0.0,18451.0,0.0,0.0,0.0,0.0,0.25,0.8544921000000001,0.01,0.0,-1715.0,0.0,0.0,-0.0,0.0,0.25,0.578613222,0.01,0.0,-375.0,0.0,0.0,0.0,0.0,0.125,3.3679195770000003,0.01,0.0,-1559.0,0.0,0.0,-0.0,0.0,0.25,1.6357420200000001,0.01,0.0,-0.20000000298023224,-0.5400000214576721,-0.11999999731779099,-0.01165771484375,-0.01824951171875,1.03851318359375,34.22999954223633,0.0,-1.0,0.5624237060546875,-1.2282562255859375,Opening,0.0,0.0,0.0,0.0,0.0,0.0,0.0,0.0,
0.5951530000000493,0.0,0.0,18451.0,0.0,0.0,0.0,0.0,0.25,0.8544921000000001,0.01,0.0,-1715.0,0.0,0.0,-0.0,0.0,0.0,0.548095647,0.01,0.0,-375.0,0.0,0.0,0.0,0.0,0.0,3.359374656,0.01,0.0,-1559.0,0.0,0.0,-0.0,0.0,0.125,1.621093584,0.01,0.0,-0.20000000298023224,-0.5400000214576721,-0.15000000596046448,-0.00970458984375,-0.0052490234375,1.002197265625,34.22999954223633,0.0,0.0,0.5624237060546875,-1.2282562255859375,Opening,0.0,0.0,0.0,0.0,0.0,0.0,0.0,0.0,
0.7287369999999647,0.0,0.0,18451.0,0.0,0.0,0.0,0.0,0.25,0.8557128030000001,0.01,0.0,-1715.0,0.0,0.0,-0.0,0.0,0.25,0.550537053,0.01,0.0,-375.0,0.0,0.0,0.0,0.0,0.0,3.359374656,0.01,0.0,-1559.0,0.0,0.0,-0.0,0.0,0.125,1.619872881,0.01,0.0,-0.1899999976158142,-0.5299999713897705,-0.1599999964237213,-0.010498046875,-0.00469970703125,1.0233154296875,34.25,0.0,0.0,0.5624237060546875,-1.2282562255859375,Opening,0.0,0.0,0.0,0.0,0.0,0.0,0.0,0.0,
0.8654100000000325,0.0,0.0,18451.0,0.0,0.0,0.0,0.0,0.25,0.8544921000000001,0.01,0.0,-1715.0,0.0,0.0,-0.0,0.0,0.25,0.54931635,0.01,0.0,-375.0,0.0,0.0,0.0,0.0,0.0,3.358153953,0.01,0.0,-1559.0,0.0,0.0,-0.0,0.0,0.125,1.619872881,0.01,0.0,-0.18000000715255737,-0.5299999713897705,-0.1899999976158142,-0.01104736328125,-0.00384521484375,1.02728271484375,34.25,0.0,-1.0,0.5624237060546875,-1.2282562255859375,Opening,0.0,0.0,0.0,0.0,0.0,0.0,0.0,0.0,
1.002518999999971,0.0,0.0,18451.0,0.0,0.0,0.0,0.0,0.25,0.8557128030000001,0.01,0.0,-1715.0,0.0,0.0,-0.0,0.0,0.25,0.550537053,0.01,0.0,-375.0,0.0,0.0,0.0,0.0,0.0,3.358153953,0.01,0.0,-1559.0,0.0,0.0,-0.0,0.0,0.125,1.621093584,0.01,0.0,-0.17000000178813934,-0.5099999904632568,-0.20999999344348907,-0.00616455078125,-0.0050048828125,1.02069091796875,34.25,0.0,3.0,0.5624237060546875,-1.2282562255859375,Opening,0.0,0.0,0.0,0.0,0.0,0.0,0.0,0.0,
1.131783999999985,0.0,0.0,18451.0,0.0,0.0,0.0,0.0,0.25,0.8557128030000001,0.01,0.0,-1715.0,0.0,0.0,-0.0,0.0,0.25,0.54931635,0.01,0.0,-375.0,0.0,0.0,0.0,0.0,0.0,3.358153953,0.01,0.0,-1559.0,0.0,0.0,-0.0,0.0,0.125,1.621093584,0.01,0.0,-0.17000000178813934,-0.5199999809265137,-0.23999999463558197,-0.010009765625,4.8828125E-4,1.02166748046875,34.25,0.0,0.0,0.5624237060546875,-1.2282562255859375,Opening,0.0,0.0,0.0,0.0,0.0,0.0,0.0,0.0,
1.2704869999999646,0.0,0.0,18451.0,0.0,0.0,0.0,0.0,0.25,0.8544921000000001,0.01,0.0,-1715.0,0.0,0.0,-0.0,0.0,0.25,0.54931635,0.01,0.0,-375.0,0.0,0.0,0.0,0.0,0.0,3.359374656,0.01,0.0,-1559.0,0.125,0.0,-0.0,0.0,0.125,1.619872881,0.01,0.0,-0.1599999964237213,-0.5099999904632568,-0.27000001072883606,-0.01055908203125,-0.002197265625,1.01873779296875,34.25,0.0,-1.0,0.5624237060546875,-1.2282562255859375,Opening,0.0,0.0,0.0,0.0,0.0,0.0,0.0,0.0,
1.4229799999999815,0.0,0.0,18451.0,0.0,0.0,0.0,0.0,0.25,0.8532713970000001,0.01,0.0,-1715.0,0.0,0.0,-0.0,0.0,0.25,0.54931635,0.01,0.0,-375.0,0.0,0.0,0.0,0.0,0.0,3.359374656,0.01,0.0,-1559.0,0.0,0.0,-0.0,0.0,0.125,1.619872881,0.01,0.0,-0.1599999964237213,-0.5099999904632568,-0.30000001192092896,-0.00634765625,-0.001708984375,1.0218505859375,34.25,0.0,2.0,0.5624237060546875,-1.2282562255859375,Opening,0.0,0.0,0.0,0.0,0.0,0.0,0.0,0.0,
1.5561450000000185,0.0,0.0,18451.0,0.0,0.0,0.0,0.0,0.25,0.8557128030000001,0.01,0.0,-1715.0,0.0,0.0,-0.0,0.0,0.25,0.550537053,0.01,0.0,-375.0,0.0,0.0,0.0,0.0,0.0,3.358153953,0.01,0.0,-1559.0,0.125,0.0,-0.0,0.0,0.125,1.621093584,0.01,0.0,-0.15000000596046448,-0.5099999904632568,-0.3199999928474426,-0.01336669921875,-0.0035400390625,1.018798828125,34.25,0.0,-4.0,0.5624237060546875,-1.2282562255859375,Opening,0.0,0.0,0.0,0.0,0.0,0.0,0.0,0.0,
1.7045090000000782,0.0,0.0,18451.0,0.0,0.0,0.0,0.0,0.25,0.8557128030000001,0.01,0.0,-1715.0,0.0,0.0,-0.0,0.0,0.25,0.550537053,0.01,0.0,-375.0,0.0,0.0,0.0,0.0,0.0,3.358153953,0.01,0.0,-1559.0,0.0,0.0,-0.0,0.0,0.125,1.619872881,0.01,0.0,-0.15000000596046448,-0.5099999904632568,-0.3499999940395355,-0.00970458984375,-0.00189208984375,1.02130126953125,34.2599983215332,0.0,0.0,0.5624237060546875,-1.2282562255859375,Opening,0.0,0.0,0.0,0.0,0.0,0.0,0.0,0.0,
1.833030000000028,0.0,0.0,18451.0,0.0,0.0,0.0,0.0,0.25,0.8544921000000001,0.01,0.0,-1715.0,0.0,0.0,-0.0,0.0,0.25,0.54931635,0.01,0.0,-375.0,0.0,0.0,0.0,0.0,0.0,3.358153953,0.01,0.0,-1559.0,0.0,0.0,-0.0,0.0,0.125,1.619872881,0.01,0.0,-0.14000000059604645,-0.5,-0.3799999952316284,-0.00933837890625,-3.0517578125E-4,1.0164794921875,34.2599983215332,0.0,0.0,0.5624237060546875,-1.2282562255859375,Opening,0.0,0.0,0.0,0.0,0.0,0.0,0.0,0.0,
1.970280000000028,0.0,0.0,18451.0,0.0,0.0,0.0,0.0,0.25,0.8544921000000001,0.01,0.0,-1715.0,0.0,0.0,-0.0,0.0,0.25,0.550537053,0.01,0.0,-375.0,0.0,0.0,0.0,0.0,0.0,3.358153953,0.01,0.0,-1559.0,0.0,0.0,-0.0,0.0,0.125,1.621093584,0.01,0.0,-0.14000000059604645,-0.5,-0.4000000059604645,-0.0093994140625,-0.00421142578125,1.0177001953125,34.2599983215332,0.0,0.0,0.5624237060546875,-1.2282562255859375,Opening,0.0,0.0,0.0,0.0,0.0,0.0,0.0,0.0,
2.104942000000039,0.0,0.0,18451.0,0.0,0.0,0.0,0.0,0.25,0.8557128030000001,0.01,0.0,-1715.0,0.0,0.0,-0.0,0.0,0.25,0.54931635,0.01,0.0,-375.0,0.0,0.0,0.0,0.0,0.0,3.358153953,0.01,0.0,-1559.0,0.0,0.0,-0.0,0.0,0.125,1.619872881,0.01,0.0,-0.15000000596046448,-0.5,-0.41999998688697815,-0.0093994140625,-6.103515625E-4,1.01800537109375,34.2599983215332,0.0,0.0,0.5624237060546875,-1.2282562255859375,Opening,0.0,0.0,0.0,0.0,0.0,0.0,0.0,0.0,
2.233878000000026,0.0,0.0,18451.0,0.0,0.0,0.0,0.0,0.25,0.8544921000000001,0.01,0.0,-1715.0,0.0,0.0,-0.0,0.0,0.25,0.54931635,0.01,0.0,-375.0,0.0,0.0,0.0,0.0,0.0,3.359374656,0.01,0.0,-1559.0,0.0,0.0,-0.0,0.0,0.125,1.619872881,0.01,0.0,-0.14000000059604645,-0.49000000953674316,-0.4399999976158142,-0.00933837890625,-4.8828125E-4,1.01983642578125,34.279998779296875,0.0,0.0,0.5624237060546875,-1.2282562255859375,Opening,0.0,0.0,0.0,0.0,0.0,0.0,0.0,0.0,
2.36803899999999,0.0,0.0,18451.0,0.0,0.0,0.0,0.0,0.25,0.8544921000000001,0.01,0.0,-1715.0,0.0,0.0,-0.0,0.0,0.25,0.550537053,0.01,0.0,-375.0,0.0,0.0,0.0,0.0,0.0,3.359374656,0.01,0.0,-1559.0,0.125,0.0,-0.0,0.0,0.125,1.621093584,0.01,0.0,-0.14000000059604645,-0.49000000953674316,-0.4699999988079071,-0.008056640625,-0.00103759765625,1.02423095703125,34.279998779296875,0.0,0.0,0.5624237060546875,-1.2282562255859375,Opening,0.0,0.0,0.0,0.0,0.0,0.0,0.0,0.0,
2.5084379999999658,0.0,0.0,18451.0,0.0,0.0,0.0,0.0,0.25,0.8544921000000001,0.01,0.0,-1715.0,0.0,0.0,-0.0,0.0,0.25,0.54931635,0.01,0.0,-375.0,0.0,0.0,0.0,0.0,0.0,3.359374656,0.01,0.0,-1559.0,0.0,0.0,-0.0,0.0,0.125,1.619872881,0.01,0.0,-0.12999999523162842,-0.5,-0.49000000953674316,-0.00970458984375,-0.0030517578125,1.0213623046875,34.279998779296875,0.0,0.0,0.5624237060546875,-1.2282562255859375,Opening,0.0,0.0,0.0,0.0,0.0,0.0,0.0,0.0,
2.647072999999975,0.0,0.0,18451.0,0.0,0.0,0.0,0.0,0.25,0.8544921000000001,0.01,0.0,-1715.0,0.0,0.0,-0.0,0.0,0.25,0.54931635,0.01,0.0,-375.0,0.0,0.0,0.0,0.0,0.0,3.359374656,0.01,0.0,-1559.0,0.0,0.0,-0.0,0.0,0.125,1.619872881,0.01,0.0,-0.12999999523162842,-0.5,-0.5199999809265137,-0.0072021484375,-0.002197265625,1.0181884765625,34.279998779296875,0.0,1.0,0.5624237060546875,-1.2282562255859375,Opening,0.0,0.0,0.0,0.0,0.0,0.0,0.0,0.0,
2.7757760000000706,0.0,0.0,18451.0,0.0,0.0,0.0,0.0,0.25,0.8544921000000001,0.01,0.0,-1715.0,0.0,0.0,-0.0,0.0,0.25,0.550537053,0.01,0.0,-375.0,0.0,0.0,0.0,0.0,0.0,3.358153953,0.01,0.0,-1559.0,0.0,0.0,-0.0,0.0,0.125,1.621093584,0.01,0.0,-0.12999999523162842,-0.49000000953674316,-0.5400000214576721,-0.01202392578125,-0.00103759765625,1.01556396484375,34.279998779296875,0.0,-3.0,0.5624237060546875,-1.2282562255859375,Opening,0.0,0.0,0.0,0.0,0.0,0.0,0.0,0.0,
2.910893999999971,0.0,0.0,18451.0,0.0,0.0,0.0,0.0,0.25,0.8544921000000001,0.01,0.0,-1715.0,0.0,0.0,-0.0,0.0,0.25,0.54931635,0.01,0.0,-375.0,0.0,0.0,0.0,0.0,0.0,3.359374656,0.01,0.0,-1559.0,0.125,0.0,-0.0,0.0,0.125,1.619872881,0.01,0.0,-0.11999999731779099,-0.49000000953674316,-0.5699999928474426,-0.00848388671875,9.1552734375E-4,1.0196533203125,34.279998779296875,0.0,0.0,0.5624237060546875,-1.2282562255859375,Opening,0.0,0.0,0.0,0.0,0.0,0.0,0.0,0.0,
3.046884000000078,0.0,0.0,18451.0,0.0,0.0,0.0,0.0,0.25,0.8557128030000001,0.01,0.0,-1715.0,0.0,0.0,-0.0,0.0,0.25,0.550537053,0.01,0.0,-375.0,0.0,0.0,0.0,0.0,0.0,3.359374656,0.01,0.0,-1559.0,0.0,0.0,-0.0,0.0,0.125,1.619872881,0.01,0.0,-0.11999999731779099,-0.49000000953674316,-0.5899999737739563,-0.00909423828125,3.662109375E-4,1.02142333984375,34.279998779296875,0.0,0.0,0.5624237060546875,-1.2282562255859375,Opening,0.0,0.0,0.0,0.0,0.0,0.0,0.0,0.0,
3.1841180000000167,0.0,0.0,18451.0,0.0,0.0,0.0,0.0,0.25,0.8557128030000001,0.01,0.0,-1715.0,0.0,0.0,-0.0,0.0,0.25,0.54931635,0.01,0.0,-375.0,0.0,0.0,0.0,0.0,0.0,3.358153953,0.01,0.0,-1559.0,0.0,0.0,-0.0,0.0,0.125,1.621093584,0.01,0.0,-0.11999999731779099,-0.49000000953674316,-0.6100000143051147,-0.009765625,-0.0045166015625,1.01983642578125,34.279998779296875,0.0,0.0,0.5624237060546875,-1.2282562255859375,Opening,0.0,0.0,0.0,0.0,0.0,0.0,0.0,0.0,
3.3293120000000345,0.0,0.0,18451.0,0.0,0.0,0.0,0.0,0.25,0.8544921000000001,0.01,0.0,-1715.0,0.0,0.0,-0.0,0.0,0.25,0.550537053,0.01,0.0,-375.0,0.0,0.0,0.0,0.0,0.0,3.358153953,0.01,0.0,-1559.0,0.0,0.0,-0.0,0.0,0.125,1.621093584,0.01,0.0,-0.10999999940395355,-0.49000000953674316,-0.6299999952316284,-0.0079345703125,-0.003173828125,1.014892578125,34.27000045776367,0.0,0.0,0.5624237060546875,-1.2282562255859375,Opening,0.0,0.0,0.0,0.0,0.0,0.0,0.0,0.0,
3.472415000000037,0.0,0.0,18451.0,0.0,0.0,0.0,0.0,0.25,0.8557128030000001,0.01,0.0,-1715.0,0.0,0.0,-0.0,0.0,0.25,0.550537053,0.01,0.0,-375.0,0.0,0.0,0.0,0.0,0.0,3.358153953,0.01,0.0,-1559.0,0.0,0.0,-0.0,0.0,0.125,1.619872881,0.01,0.0,-0.10999999940395355,-0.49000000953674316,-0.6600000262260437,-0.0098876953125,-6.103515625E-5,1.0216064453125,34.27000045776367,0.0,-1.0,0.5624237060546875,-1.2282562255859375,Opening,0.0,0.0,0.0,0.0,0.0,0.0,0.0,0.0,
3.6239590000000317,0.0,0.0,18451.0,0.0,0.0,0.0,0.0,0.25,0.8557128030000001,0.01,0.0,-1715.0,0.0,0.0,-0.0,0.0,0.25,0.550537053,0.01,0.0,-375.0,0.0,0.0,0.0,0.0,0.0,3.358153953,0.01,0.0,-1559.0,0.0,0.0,-0.0,0.0,0.125,1.621093584,0.01,0.0,-0.10999999940395355,-0.49000000953674316,-0.6899999976158142,-0.00885009765625,-0.00396728515625,1.0205078125,34.27000045776367,0.0,0.0,0.5624237060546875,-1.2282562255859375,Opening,0.0,0.0,0.0,0.0,0.0,0.0,0.0,0.0,
3.766435999999987,0.0,0.0,18451.0,0.0,0.0,0.0,0.0,0.25,0.8544921000000001,0.01,0.0,-1715.0,0.0,0.0,-0.0,0.0,0.25,0.54931635,0.01,0.0,-375.0,0.0,0.0,0.0,0.0,0.0,3.358153953,0.01,0.0,-1559.0,0.0,0.0,-0.0,0.0,0.125,1.621093584,0.01,0.0,-0.10999999940395355,-0.49000000953674316,-0.7099999785423279,-0.01263427734375,-0.0054931640625,1.021728515625,34.2599983215332,0.0,-3.0,0.5624237060546875,-1.2282562255859375,Opening,0.0,0.0,0.0,0.0,0.0,0.0,0.0,0.0,
3.9066149999999906,0.0,0.0,18451.0,0.0,0.0,0.0,0.0,0.25,0.8557128030000001,0.01,0.0,-1715.0,0.0,0.0,-0.0,0.0,0.25,0.550537053,0.01,0.0,-375.0,0.0,0.0,0.0,0.0,0.0,3.359374656,0.01,0.0,-1559.0,0.0,0.0,-0.0,0.0,0.125,1.621093584,0.01,0.0,-0.10999999940395355,-0.49000000953674316,-0.7400000095367432,-0.0101318359375,-0.0028076171875,1.01220703125,34.2599983215332,0.0,-1.0,0.5624237060546875,-1.2282562255859375,Opening,0.0,0.0,0.0,0.0,0.0,0.0,0.0,0.0,
4.052381000000052,0.0,0.0,18451.0,0.0,0.0,0.0,0.0,0.25,0.8557128030000001,0.01,0.0,-1715.0,0.0,0.0,-0.0,0.0,0.25,0.550537053,0.01,0.0,-375.0,0.0,0.0,0.0,0.0,0.0,3.359374656,0.01,0.0,-1559.0,0.125,0.0,-0.0,0.0,0.125,1.619872881,0.01,0.0,-0.10999999940395355,-0.49000000953674316,-0.7599999904632568,-0.00958251953125,-0.00103759765625,1.0186767578125,34.2599983215332,0.0,0.0,0.5624237060546875,-1.2282562255859375,Opening,0.0,0.0,0.0,0.0,0.0,0.0,0.0,0.0,
4.194928000000073,0.0,0.0,18451.0,0.0,0.0,0.0,0.0,0.25,0.8544921000000001,0.01,0.0,-1715.0,0.0,0.0,-0.0,0.0,0.25,0.551757756,0.01,0.0,-375.0,0.0,0.0,0.0,0.0,0.0,3.359374656,0.01,0.0,-1559.0,0.0,0.0,-0.0,0.0,0.125,1.619872881,0.01,0.0,-0.10999999940395355,-0.5,-0.7900000214576721,-0.00762939453125,-0.00238037109375,1.0220947265625,34.2599983215332,0.0,1.0,0.5624237060546875,-1.2282562255859375,Opening,0.0,0.0,0.0,0.0,0.0,0.0,0.0,0.0,
4.33048999999999,0.0,0.0,18451.0,0.0,0.0,0.0,0.0,0.25,0.8544921000000001,0.01,0.0,-1715.0,0.0,0.0,-0.0,0.0,0.25,0.54931635,0.01,0.0,-375.0,0.0,0.0,0.0,0.0,0.0,3.358153953,0.01,0.0,-1559.0,0.0,0.0,-0.0,0.0,0.125,1.619872881,0.01,0.0,-0.11999999731779099,-0.5,-0.8199999928474426,-0.0194091796875,-0.01348876953125,1.0220947265625,34.2599983215332,0.0,-10.0,0.5624237060546875,-1.2282562255859375,Opening,0.0,0.0,0.0,0.0,0.0,0.0,0.0,0.0,
4.475148000000044,0.0,0.0,18451.0,0.0,0.0,0.0,0.0,0.25,0.8544921000000001,0.01,0.0,-1715.0,0.0,0.0,-0.0,0.0,0.25,0.54931635,0.01,0.0,-375.0,0.0,0.0,0.0,0.0,0.0,3.358153953,0.01,0.0,-1559.0,0.0,0.0,-0.0,0.0,0.125,1.619872881,0.01,0.0,-0.11999999731779099,-0.49000000953674316,-0.8399999737739563,-0.01202392578125,-0.0025634765625,0.99755859375,34.2599983215332,0.0,-3.0,0.5624237060546875,-1.2282562255859375,Opening,0.0,0.0,0.0,0.0,0.0,0.0,0.0,0.0,
4.625101000000024,0.0,0.0,18451.0,0.0,0.0,0.0,0.0,0.25,0.8557128030000001,0.01,0.0,-1715.0,0.0,0.0,-0.0,0.0,0.25,0.54931635,0.01,0.0,-375.0,0.0,0.0,0.0,0.0,0.0,3.358153953,0.01,0.0,-1559.0,0.0,0.0,-0.0,0.0,0.125,1.619872881,0.01,0.0,-0.11999999731779099,-0.49000000953674316,-0.8700000047683716,-0.00701904296875,0.004150390625,1.01873779296875,34.2599983215332,0.0,1.0,0.5624237060546875,-1.2282562255859375,Opening,0.0,0.0,0.0,0.0,0.0,0.0,0.0,0.0,
4.770006999999984,0.0,0.0,18451.0,0.0,0.0,0.0,0.0,0.25,0.8544921000000001,0.01,0.0,-1715.0,0.0,0.0,-0.0,0.0,0.25,0.54931635,0.01,0.0,-375.0,0.0,0.0,0.0,0.0,0.0,3.359374656,0.01,0.0,-1559.0,0.0,0.0,-0.0,0.0,0.125,1.621093584,0.01,0.0,-0.12999999523162842,-0.47999998927116394,-0.8899999856948853,-0.0233154296875,0.0313720703125,0.96197509765625,34.25,0.0,-15.0,0.56231689453125,-1.228302001953125,Closing,0.0,0.0,0.0,0.0,0.0,0.0,0.0,0.0,
4.907050000000047,0.0,0.0,18451.0,0.0,0.0,0.0,0.0,0.25,0.8557128030000001,0.01,0.0,-1715.0,0.0,0.0,-0.0,0.0,0.25,0.550537053,0.01,0.0,-375.0,0.0,0.0,0.0,0.0,0.0,3.359374656,0.01,0.0,-1559.0,0.0,0.0,-0.0,0.0,0.125,1.619872881,0.01,0.0,-0.12999999523162842,-0.49000000953674316,-0.9100000262260437,-0.005126953125,0.01580810546875,1.0264892578125,34.25,0.0,3.0,0.562255859375,-1.2278900146484375,Closing,0.0,0.0,0.0,0.0,0.0,0.0,0.0,0.0,
5.035496000000043,0.0,0.0,18451.0,0.0,0.0,0.0,0.0,0.25,0.8544921000000001,0.01,0.0,-1715.0,0.0,0.0,-0.0,0.0,0.25,0.54931635,0.01,0.0,-375.0,0.0,0.0,0.0,0.0,0.0,3.358153953,0.01,0.0,-1559.0,0.0,0.0,-0.0,0.0,0.125,1.619872881,0.01,0.0,-0.12999999523162842,-0.5,-0.9399999976158142,-0.00848388671875,0.00311279296875,1.01409912109375,34.25,0.0,0.0,0.562255859375,-1.22802734375,Closing,0.0,0.0,0.0,0.0,0.0,0.0,0.0,0.0,
5.172553000000073,0.0,0.0,18451.0,0.0,0.0,0.0,0.0,0.25,0.8557128030000001,0.01,0.0,-1715.0,0.0,0.0,-0.0,0.0,0.25,0.54931635,0.01,0.0,-375.0,0.0,0.0,0.0,0.0,0.0,3.358153953,0.01,0.0,-1559.0,0.0,0.0,-0.0,0.0,0.125,1.621093584,0.01,0.0,-0.12999999523162842,-0.49000000953674316,-0.9599999785423279,-0.003173828125,0.00531005859375,1.02783203125,34.25,0.0,5.0,0.562255859375,-1.2280731201171875,Closing,0.0,0.0,0.0,0.0,0.0,0.0,0.0,0.0,
5.31252899999998,0.0,0.0,18451.0,0.0,0.0,0.0,0.0,0.25,0.8557128030000001,0.01,0.0,-1715.0,0.0,0.0,-0.0,0.0,0.25,0.550537053,0.01,0.0,-375.0,0.0,0.0,0.0,0.0,0.0,3.358153953,0.01,0.0,-1559.0,0.0,0.0,-0.0,0.0,0.125,1.621093584,0.01,0.0,-0.12999999523162842,-0.5,-0.9900000095367432,-0.00750732421875,0.00341796875,1.02264404296875,34.27000045776367,0.0,1.0,0.562255859375,-1.2280731201171875,Closing,0.0,0.0,0.0,0.0,0.0,0.0,0.0,0.0,
5.449543000000063,0.0,0.0,18451.0,0.0,0.0,0.0,0.0,0.25,0.8557128030000001,0.01,0.0,-1715.0,0.0,0.0,-0.0,0.0,0.25,0.550537053,0.01,0.0,-375.0,0.0,0.0,0.0,0.0,0.0,3.358153953,0.01,0.0,-1559.0,0.0,0.0,-0.0,0.0,0.125,1.621093584,0.01,0.0,-0.11999999731779099,-0.49000000953674316,-1.0099999904632568,-0.0263671875,0.02435302734375,1.0303955078125,34.27000045776367,0.0,-17.0,0.562255859375,-1.2280120849609375,Closing,0.0,0.0,0.0,0.0,0.0,0.0,0.0,0.0,
5.575768999999971,0.0,0.0,18451.0,0.0,0.0,0.0,0.0,0.25,0.8557128030000001,0.01,0.0,-1715.0,0.0,0.0,-0.0,0.0,0.25,0.550537053,0.01,0.0,-375.0,0.0,0.0,0.0,0.0,0.0,3.358153953,0.01,0.0,-1559.0,0.0,0.0,-0.0,0.0,0.125,1.619872881,0.01,0.0,-0.11999999731779099,-0.5,-1.0399999618530273,0.00946044921875,0.00225830078125,1.01556396484375,34.27000045776367,0.0,18.0,0.5623626708984375,-1.2279510498046875,Closing,0.0,0.0,0.0,0.0,0.0,0.0,0.0,0.0,
5.715439000000013,0.0,0.0,18451.0,0.0,0.0,0.0,0.0,0.25,0.8544921000000001,0.01,0.0,-1715.0,0.0,0.0,-0.0,0.0,0.25,0.550537053,0.01,0.0,-375.0,0.0,0.0,0.0,0.0,0.0,3.359374656,0.01,0.0,-1559.0,0.0,0.0,-0.0,0.0,0.125,1.619872881,0.01,0.0,-0.10999999940395355,-0.5,-1.059999942779541,-0.00531005859375,-0.0335693359375,1.00543212890625,34.27000045776367,0.0,4.0,0.56231689453125,-1.2279815673828125,Closing,0.0,0.0,0.0,0.0,0.0,0.0,0.0,0.0,
5.850629000000073,0.0,0.0,18451.0,0.0,0.0,0.0,0.0,0.25,0.850829991,0.01,0.0,-1715.0,0.0,0.0,-0.0,0.0,0.25,0.550537053,0.01,0.0,-375.0,0.0,0.0,0.0,0.0,0.0,3.358153953,0.01,0.0,-1559.0,0.0,0.0,-0.0,0.0,0.125,1.619872881,0.01,0.0,-0.11999999731779099,-0.5,-1.0800000429153442,-0.0286865234375,0.00140380859375,1.02740478515625,34.25,0.0,-19.0,0.5623626708984375,-1.2283172607421875,Closing,0.0,0.0,0.0,0.0,0.0,0.0,0.0,0.0,
5.979574000000023,0.0,0.0,18451.0,0.0,0.0,0.0,0.0,0.25,0.8557128030000001,0.01,0.0,-1715.0,0.0,0.0,-0.0,0.0,0.25,0.550537053,0.01,0.0,-375.0,0.0,0.0,0.0,0.0,0.0,3.358153953,0.01,0.0,-1559.0,0.0,0.0,-0.0,0.0,0.125,1.621093584,0.01,0.0,-0.12999999523162842,-0.5,-1.100000023841858,-0.0072021484375,0.0025634765625,1.03399658203125,34.25,0.0,1.0,0.5623626708984375,-1.2283172607421875,Closing,0.0,0.0,0.0,0.0,0.0,0.0,0.0,0.0,
6.115384000000078,0.0,0.0,18451.0,0.0,0.0,0.0,0.0,0.25,0.8557128030000001,0.01,0.0,-1715.0,0.0,0.0,-0.0,0.0,0.25,0.54931635,0.01,0.0,-375.0,0.0,0.0,0.0,0.0,0.0,3.359374656,0.01,0.0,-1559.0,0.125,0.0,-0.0,0.0,0.125,1.621093584,0.01,0.0,-0.11999999731779099,-0.5,-1.1200000047683716,-0.01177978515625,0.00830078125,1.02508544921875,34.25,0.0,-2.0,0.5623626708984375,-1.228271484375,Closing,0.0,0.0,0.0,0.0,0.0,0.0,0.0,0.0,
6.249959000000032,0.0,0.0,18451.0,0.0,0.0,0.0,0.0,0.25,0.8544921000000001,0.01,0.0,-1715.0,0.0,0.0,-0.0,0.0,0.25,0.550537053,0.01,0.0,-375.0,0.0,0.0,0.0,0.0,0.0,3.358153953,0.01,0.0,-1559.0,0.0,0.0,-0.0,0.0,0.125,1.621093584,0.01,0.0,-0.11999999731779099,-0.5,-1.149999976158142,-0.0084228515625,-0.00677490234375,1.0091552734375,34.25,0.0,0.0,0.5623626708984375,-1.228271484375,Closing,0.0,0.0,0.0,0.0,0.0,0.0,0.0,0.0,
6.3838910000000615,0.0,0.0,18451.0,0.0,0.0,0.0,0.0,0.25,0.8557128030000001,0.01,0.0,-1715.0,0.0,0.0,-0.0,0.0,0.25,0.550537053,0.01,0.0,-375.0,0.0,0.0,0.0,0.0,0.0,3.359374656,0.01,0.0,-1559.0,0.0,0.0,-0.0,0.0,0.125,1.619872881,0.01,0.0,-0.11999999731779099,-0.5099999904632568,-1.1799999475479126,-0.009521484375,-0.00189208984375,1.02166748046875,34.25,0.0,0.0,0.5623626708984375,-1.228271484375,Closing,0.0,0.0,0.0,0.0,0.0,0.0,0.0,0.0,
6.526072000000044,0.0,0.0,18451.0,0.0,0.0,0.0,0.0,0.25,0.8557128030000001,0.01,0.0,-1715.0,0.0,0.0,-0.0,0.0,0.25,0.54931635,0.01,0.0,-375.0,0.0,0.0,0.0,0.0,0.0,3.358153953,0.01,0.0,-1559.0,0.125,0.0,-0.0,0.0,0.125,1.619872881,0.01,0.0,-0.11999999731779099,-0.5099999904632568,-1.2000000476837158,-0.009033203125,9.1552734375E-4,1.016845703125,34.25,0.0,0.0,0.5623626708984375,-1.228271484375,Closing,0.0,0.0,0.0,0.0,0.0,0.0,0.0,0.0,
6.663315999999992,0.0,0.0,18451.0,0.0,0.0,0.0,0.0,0.25,0.8544921000000001,0.01,0.0,-1715.0,0.0,0.0,-0.0,0.0,0.25,0.54931635,0.01,0.0,-375.0,0.0,0.0,0.0,0.0,0.0,3.358153953,0.01,0.0,-1559.0,0.0,0.0,-0.0,0.0,0.125,1.621093584,0.01,0.0,-0.10999999940395355,-0.5099999904632568,-1.2300000190734863,-0.01104736328125,-0.0052490234375,1.01873779296875,34.25,0.0,-1.0,0.5623626708984375,-1.228271484375,Closing,0.0,0.0,0.0,0.0,0.0,0.0,0.0,0.0,
6.798658000000054,0.0,0.0,18451.0,0.0,0.0,0.0,0.0,0.25,0.8557128030000001,0.01,0.0,-1715.0,0.0,0.0,-0.0,0.0,0.25,0.550537053,0.01,0.0,-375.0,0.0,0.0,0.0,0.0,0.0,3.359374656,0.01,0.0,-1559.0,0.0,0.0,-0.0,0.0,0.125,1.621093584,0.01,0.0,-0.10999999940395355,-0.5099999904632568,-1.25,-0.00860595703125,-0.00244140625,1.02459716796875,34.29999923706055,0.0,0.0,0.5623626708984375,-1.228271484375,Closing,0.0,0.0,0.0,0.0,0.0,0.0,0.0,0.0,
6.93235400000005,0.0,0.0,18451.0,0.0,0.0,0.0,0.0,0.25,0.8544921000000001,0.01,0.0,-1715.0,0.0,0.0,-0.0,0.0,0.25,0.550537053,0.01,0.0,-375.0,0.0,0.0,0.0,0.0,0.0,3.358153953,0.01,0.0,-1559.0,0.0,0.0,-0.0,0.0,0.125,1.621093584,0.01,0.0,-0.12999999523162842,-0.5099999904632568,-1.2699999809265137,-0.018798828125,0.01806640625,1.02203369140625,34.29999923706055,0.0,-10.0,0.5623626708984375,-1.2282562255859375,Closing,0.0,0.0,0.0,0.0,0.0,0.0,0.0,0.0,
7.06952800000005,0.0,0.0,18451.0,0.0,0.0,0.0,0.0,0.25,0.8544921000000001,0.01,0.0,-1715.0,0.0,0.0,-0.0,0.0,0.25,0.544433538,0.01,0.0,-375.0,0.0,0.0,0.0,0.0,0.0,3.358153953,0.01,0.0,-1559.0,0.125,0.0,-0.0,0.0,0.125,1.621093584,0.01,0.0,-0.20000000298023224,-0.6499999761581421,-1.2899999618530273,-0.07470703125,-0.08062744140625,1.11090087890625,34.29999923706055,0.0,-60.0,0.5614013671875,-1.2290496826171875,Closing,0.0,0.0,0.0,0.0,0.0,0.0,0.0,0.0,
7.208940999999991,0.0,0.0,18451.0,0.0,0.0,0.0,0.0,0.25,0.8544921000000001,0.01,0.0,-1715.0,0.0,0.0,-0.0,0.0,0.25,0.545654241,0.01,0.0,-375.0,0.0,0.0,0.0,0.0,0.0,3.358153953,0.01,0.0,-1559.0,0.0,0.0,-0.0,0.0,0.125,1.619872881,0.01,0.0,-0.15000000596046448,-0.6299999952316284,-1.3200000524520874,-0.0537109375,0.08135986328125,1.2657470703125,34.29999923706055,0.0,-41.0,0.5586700439453125,-1.235748291015625,Closing,0.0,0.0,0.0,0.0,0.0,0.0,0.0,0.0,
7.3373120000000345,0.0,0.0,18451.0,0.0,0.0,0.0,0.0,0.25,0.8557128030000001,0.01,0.0,-1715.0,0.0,0.0,-0.0,0.0,0.25,0.544433538,0.01,0.0,-375.0,0.0,0.0,0.0,0.0,0.0,3.358153953,0.01,0.0,-1559.0,0.125,0.0,-0.0,0.0,0.125,1.619872881,0.01,0.0,-0.12999999523162842,-0.6200000047683716,-1.340000033378601,-0.010009765625,-0.0164794921875,1.01812744140625,34.2400016784668,0.0,1.0,0.557281494140625,-1.23980712890625,Closing,0.0,0.0,0.0,0.0,0.0,0.0,0.0,0.0,
7.473271999999997,0.0,0.0,18451.0,0.0,0.0,0.0,0.0,0.25,0.8557128030000001,0.01,0.0,-1715.0,0.0,0.0,-0.0,0.0,0.25,0.545654241,0.01,0.0,-375.0,0.0,0.0,0.0,0.0,0.0,3.358153953,0.01,0.0,-1559.0,0.0,0.0,-0.0,0.0,0.125,1.619872881,0.01,0.0,-0.12999999523162842,-0.6100000143051147,-1.3700000047683716,-0.03057861328125,0.0147705078125,1.04534912109375,34.2400016784668,0.0,-19.0,0.557281494140625,-1.2398529052734375,Closing,0.0,0.0,0.0,0.0,0.0,0.0,0.0,0.0,
7.610704000000027,0.0,0.0,18451.0,0.0,0.0,0.0,0.0,0.25,0.8544921000000001,0.01,0.0,-1715.0,0.0,0.0,-0.0,0.0,0.25,0.544433538,0.01,0.0,-375.0,0.0,0.0,0.0,0.0,0.0,3.358153953,0.01,0.0,-1559.0,0.0,0.0,-0.0,0.0,0.125,1.621093584,0.01,0.0,-0.11999999731779099,-0.6000000238418579,-1.3899999856948853,-0.01251220703125,0.004638671875,1.0274658203125,34.2400016784668,0.0,-1.0,0.557373046875,-1.23974609375,Closing,0.0,0.0,0.0,0.0,0.0,0.0,0.0,0.0,
7.753858000000007,0.0,0.0,18451.0,0.0,0.0,0.0,0.0,0.25,0.8532713970000001,0.01,0.0,-1715.0,0.0,0.0,-0.0,0.0,0.25,0.545654241,0.01,0.0,-375.0,0.0,0.0,0.0,0.0,0.0,3.358153953,0.01,0.0,-1559.0,0.0,0.0,-0.0,0.0,0.125,1.619872881,0.01,0.0,-0.10999999940395355,-0.5899999737739563,-1.4199999570846558,-0.00537109375,0.00457763671875,1.021728515625,34.2400016784668,0.0,5.0,0.557342529296875,-1.2397308349609375,Closing,0.0,0.0,0.0,0.0,0.0,0.0,0.0,0.0,
7.88936400000006,0.0,0.0,18451.0,0.0,0.0,0.0,0.0,0.25,0.8557128030000001,0.01,0.0,-1715.0,0.0,0.0,-0.0,0.0,0.25,0.545654241,0.01,0.0,-375.0,0.0,0.0,0.0,0.0,0.0,3.358153953,0.01,0.0,-1559.0,0.0,0.0,-0.0,0.0,0.125,1.619872881,0.01,0.0,-0.10999999940395355,-0.5799999833106995,-1.440000057220459,-0.0028076171875,-0.0028076171875,1.0123291015625,34.279998779296875,0.0,7.0,0.557342529296875,-1.2398223876953125,Closing,0.0,0.0,0.0,0.0,0.0,0.0,0.0,0.0,
8.025808000000078,0.0,0.0,18451.0,0.0,0.0,0.0,0.0,0.25,0.8557128030000001,0.01,0.0,-1715.0,0.0,0.0,-0.0,0.0,0.25,0.545654241,0.01,0.0,-375.0,0.0,0.0,0.0,0.0,0.0,3.359374656,0.01,0.0,-1559.0,0.0,0.0,-0.0,0.0,0.125,1.621093584,0.01,0.0,-0.05000000074505806,-0.5799999833106995,-1.4600000381469727,0.01104736328125,-0.015869140625,1.01092529296875,34.279998779296875,0.0,21.0,0.5564727783203125,-1.23944091796875,Closing,0.0,0.0,0.0,0.0,0.0,0.0,0.0,0.0,
8.158290999999968,0.0,0.0,18451.0,0.0,0.0,0.0,0.0,0.25,0.8544921000000001,0.01,0.0,-1715.0,0.0,0.0,-0.0,0.0,0.25,0.544433538,0.01,0.0,-375.0,0.0,0.0,0.0,0.0,0.0,3.359374656,0.01,0.0,-1559.0,0.125,0.0,-0.0,0.0,0.125,1.621093584,0.01,0.0,-0.07000000029802322,-0.5299999713897705,-1.4900000095367432,0.0064697265625,0.01617431640625,0.999267578125,34.279998779296875,0.0,15.0,0.556915283203125,-1.2394866943359375,Closing,0.0,0.0,0.0,0.0,0.0,0.0,0.0,0.0,
8.288334000000031,0.0,0.0,18451.0,0.0,0.0,0.0,0.0,0.25,0.8544921000000001,0.01,0.0,-1715.0,0.0,0.0,-0.0,0.0,0.25,0.544433538,0.01,0.0,-375.0,0.0,0.0,0.0,0.0,0.0,3.358153953,0.01,0.0,-1559.0,0.0,0.0,-0.0,0.0,0.125,1.619872881,0.01,0.0,-0.07000000029802322,-0.5899999737739563,-1.5299999713897705,-0.01031494140625,-0.0081787109375,1.01605224609375,34.279998779296875,0.0,0.0,0.556854248046875,-1.2394866943359375,Closing,0.0,0.0,0.0,0.0,0.0,0.0,0.0,0.0,
8.422304000000004,0.0,0.0,18451.0,0.0,0.0,0.0,0.0,0.25,0.8557128030000001,0.01,0.0,-1715.0,0.0,0.0,-0.0,0.0,0.25,0.544433538,0.01,0.0,-375.0,0.0,0.0,0.0,0.0,0.0,3.359374656,0.01,0.0,-1559.0,0.125,0.0,-0.0,0.0,0.125,1.619872881,0.01,0.0,-0.05999999865889549,-0.5299999713897705,-1.5399999618530273,-0.0045166015625,-0.0010986328125,1.01983642578125,34.2599983215332,0.0,5.0,0.556854248046875,-1.2394866943359375,Closing,0.0,0.0,0.0,0.0,0.0,0.0,0.0,0.0,
8.554531000000075,0.0,0.0,18451.0,0.0,0.0,0.0,0.0,0.25,0.8544921000000001,0.01,0.0,-1715.0,0.0,0.0,-0.0,0.0,0.25,0.545654241,0.01,0.0,-375.0,0.0,0.0,0.0,0.0,0.0,3.358153953,0.01,0.0,-1559.0,0.0,0.0,-0.0,0.0,0.125,1.621093584,0.01,0.0,-0.07000000029802322,-0.5699999928474426,-1.5499999523162842,-0.04241943359375,0.02813720703125,1.0181884765625,34.2599983215332,0.0,-32.0,0.5565032958984375,-1.238861083984375,Closing,0.0,0.0,0.0,0.0,0.0,0.0,0.0,0.0,
8.68803600000008,0.0,0.0,18451.0,0.0,0.0,0.0,0.0,0.25,0.8544921000000001,0.01,0.0,-1715.0,0.0,0.0,-0.0,0.0,0.25,0.545654241,0.01,0.0,-375.0,0.0,0.0,0.0,0.0,0.0,3.358153953,0.01,0.0,-1559.0,0.0,0.0,-0.0,0.0,0.125,1.619872881,0.01,0.0,-0.05000000074505806,-0.5299999713897705,-1.5800000429153442,0.00628662109375,-0.00347900390625,1.03253173828125,34.2599983215332,0.0,16.0,0.555816650390625,-1.2379150390625,Closing,0.0,0.0,0.0,0.0,0.0,0.0,0.0,0.0,
8.825584000000031,0.0,0.0,18451.0,0.0,0.0,0.0,0.0,0.25,0.8557128030000001,0.01,0.0,-1715.0,0.0,0.0,-0.0,0.0,0.25,0.545654241,0.01,0.0,-375.0,0.0,0.0,0.0,0.0,0.0,3.359374656,0.01,0.0,-1559.0,0.0,0.0,-0.0,0.0,0.125,1.621093584,0.01,0.0,-0.05000000074505806,-0.5299999713897705,-1.6100000143051147,-0.0166015625,0.00439453125,1.007080078125,34.290000915527344,0.0,-7.0,0.555816650390625,-1.2379150390625,Closing,0.0,0.0,0.0,0.0,0.0,0.0,0.0,0.0,
8.968923000000068,0.0,0.0,18451.0,0.0,0.0,0.0,0.0,0.25,0.8544921000000001,0.01,0.0,-1715.0,0.0,0.0,-0.0,0.0,0.25,0.545654241,0.01,0.0,-375.0,0.0,0.0,0.0,0.0,0.0,3.358153953,0.01,0.0,-1559.0,0.0,0.0,-0.0,0.0,0.125,1.619872881,0.01,0.0,-0.05999999865889549,-0.5400000214576721,-1.6200000047683716,-0.00390625,0.0013427734375,1.02642822265625,34.290000915527344,0.0,5.0,0.555755615234375,-1.23834228515625,Closing,0.0,0.0,0.0,0.0,0.0,0.0,0.0,0.0,
9.107981000000029,0.0,0.0,18451.0,0.0,0.0,0.0,0.0,0.25,0.8544921000000001,0.01,0.0,-1715.0,0.0,0.0,-0.0,0.0,0.25,0.545654241,0.01,0.0,-375.0,0.0,0.0,0.0,0.0,0.0,3.358153953,0.01,0.0,-1559.0,0.0,0.0,-0.0,0.0,0.125,1.619872881,0.01,0.0,-0.05999999865889549,-0.5299999713897705,-1.649999976158142,-0.0159912109375,-0.0067138671875,1.01953125,34.290000915527344,0.0,-6.0,0.555755615234375,-1.2384033203125,Closing,0.0,0.0,0.0,0.0,0.0,0.0,0.0,0.0,
9.23600800000003,0.0,0.0,18451.0,0.0,0.0,0.0,0.0,0.25,0.8544921000000001,0.01,0.0,-1715.0,0.0,0.0,-0.0,0.0,0.25,0.544433538,0.01,0.0,-375.0,0.0,0.0,0.0,0.0,0.0,3.358153953,0.01,0.0,-1559.0,0.125,0.0,-0.0,0.0,0.125,1.621093584,0.01,0.0,-0.05999999865889549,-0.5299999713897705,-1.6799999475479126,-0.0086669921875,-0.00311279296875,1.01885986328125,34.290000915527344,0.0,0.0,0.555755615234375,-1.2384033203125,Closing,0.0,0.0,0.0,0.0,0.0,0.0,0.0,0.0,
9.371239999999991,0.0,0.0,18451.0,0.0,0.0,0.0,0.0,0.25,0.8544921000000001,0.01,0.0,-1715.0,0.0,0.0,-0.0,0.0,0.25,0.544433538,0.01,0.0,-375.0,0.0,0.0,0.0,0.0,0.0,3.359374656,0.01,0.0,-1559.0,0.0,0.0,-0.0,0.0,0.125,1.619872881,0.01,0.0,-0.07000000029802322,-0.5299999713897705,-1.7000000476837158,-0.01751708984375,-0.011962890625,1.03399658203125,34.279998779296875,0.0,-7.0,0.555755615234375,-1.2384033203125,Closing,0.0,0.0,0.0,0.0,0.0,0.0,0.0,0.0,
9.508094999999972,0.0,0.0,18451.0,0.0,0.0,0.0,0.0,0.25,0.8557128030000001,0.01,0.0,-1715.0,0.0,0.0,-0.0,0.0,0.25,0.544433538,0.01,0.0,-375.0,0.0,0.0,0.0,0.0,0.0,3.359374656,0.01,0.0,-1559.0,0.0,0.0,-0.0,0.0,0.125,1.619872881,0.01,0.0,-0.07000000029802322,-0.5099999904632568,-1.7200000286102295,9.1552734375E-4,-0.01080322265625,1.0115966796875,34.279998779296875,0.0,10.0,0.555755615234375,-1.238494873046875,Closing,0.0,0.0,0.0,0.0,0.0,0.0,0.0,0.0,
9.64022100000002,0.0,0.0,18451.0,0.0,0.0,0.0,0.0,0.25,0.8544921000000001,0.01,0.0,-1715.0,0.0,0.0,-0.0,0.0,0.25,0.545654241,0.01,0.0,-375.0,0.0,0.0,0.0,0.0,0.0,3.358153953,0.01,0.0,-1559.0,0.0,0.0,-0.0,0.0,0.125,1.619872881,0.01,0.0,-0.07999999821186066,-0.5199999809265137,-1.75,-0.0069580078125,-0.00958251953125,1.0147705078125,34.279998779296875,0.0,2.0,0.555755615234375,-1.238494873046875,Closing,0.0,0.0,0.0,0.0,0.0,0.0,0.0,0.0,
9.774599999999976,0.0,0.0,18451.0,0.0,0.0,0.0,0.0,0.25,0.8557128030000001,0.01,0.0,-1715.0,0.0,0.0,-0.0,0.0,0.25,0.545654241,0.01,0.0,-375.0,0.0,0.0,0.0,0.0,0.0,3.358153953,0.01,0.0,-1559.0,0.0,0.0,-0.0,0.0,0.125,1.619872881,0.01,0.0,-0.07999999821186066,-0.5099999904632568,-1.7699999809265137,-0.00860595703125,-0.00286865234375,1.01513671875,34.279998779296875,0.0,0.0,0.555755615234375,-1.238494873046875,Closing,0.0,0.0,0.0,0.0,0.0,0.0,0.0,0.0,
9.911930000000051,0.0,0.0,18451.0,0.0,0.0,0.0,0.0,0.25,0.8544921000000001,0.01,0.0,-1715.0,0.0,0.0,-0.0,0.0,0.25,0.544433538,0.01,0.0,-375.0,0.0,0.0,0.0,0.0,0.0,3.359374656,0.01,0.0,-1559.0,0.0,0.0,-0.0,0.0,0.125,1.621093584,0.01,0.0,-0.07999999821186066,-0.5099999904632568,-1.7899999618530273,-0.00909423828125,-0.00396728515625,1.0260009765625,34.31999969482422,0.0,0.0,0.555755615234375,-1.238494873046875,Closing,0.0,0.0,0.0,0.0,0.0,0.0,0.0,0.0,
10.050381000000051,0.0,0.0,18451.0,0.0,0.0,0.0,0.0,0.25,0.8544921000000001,0.01,0.0,-1715.0,0.0,0.0,-0.0,0.0,0.25,0.544433538,0.01,0.0,-375.0,0.0,0.0,0.0,0.0,0.0,3.358153953,0.01,0.0,-1559.0,0.0,0.0,-0.0,0.0,0.125,1.621093584,0.01,0.0,-0.07999999821186066,-0.5099999904632568,-1.8200000524520874,-0.010986328125,-0.002197265625,1.02191162109375,34.31999969482422,0.0,-1.0,0.555755615234375,-1.238494873046875,Closing,0.0,0.0,0.0,0.0,0.0,0.0,0.0,0.0,
10.189690000000061,0.0,0.0,18451.0,0.0,0.0,0.0,0.0,0.25,0.8557128030000001,0.01,0.0,-1715.0,0.0,0.0,-0.0,0.0,0.25,0.544433538,0.01,0.0,-375.0,0.0,0.0,0.0,0.0,0.0,3.35693325,0.01,0.0,-1559.0,0.125,0.0,-0.0,0.0,0.125,1.619872881,0.01,0.0,-0.07999999821186066,-0.5,-1.840000033378601,-0.00738525390625,-0.00262451171875,1.020263671875,34.31999969482422,0.0,1.0,0.555755615234375,-1.238494873046875,Closing,0.0,0.0,0.0,0.0,0.0,0.0,0.0,0.0,
10.325406000000076,0.0,0.0,18451.0,0.0,0.0,0.0,0.0,0.25,0.8557128030000001,0.01,0.0,-1715.0,0.0,0.0,-0.0,0.0,0.25,0.544433538,0.01,0.0,-375.0,0.0,0.0,0.0,0.0,0.0,3.358153953,0.01,0.0,-1559.0,0.0,0.0,-0.0,0.0,0.125,1.619872881,0.01,0.0,-0.07999999821186066,-0.5099999904632568,-1.8700000047683716,-0.010986328125,-0.001220703125,1.0150146484375,34.31999969482422,0.0,-1.0,0.555755615234375,-1.238494873046875,Closing,0.0,0.0,0.0,0.0,0.0,0.0,0.0,0.0,
10.462361999999965,0.0,0.0,18451.0,0.0,0.0,0.0,0.0,0.25,0.8544921000000001,0.01,0.0,-1715.0,0.0,0.0,-0.0,0.0,0.25,0.544433538,0.01,0.0,-375.0,0.0,0.0,0.0,0.0,0.0,3.358153953,0.01,0.0,-1559.0,0.0,0.0,-0.0,0.0,0.125,1.619872881,0.01,0.0,-0.07999999821186066,-0.5,-1.8899999856948853,-0.01165771484375,4.8828125E-4,1.02264404296875,34.279998779296875,0.0,-2.0,0.555755615234375,-1.238494873046875,Closing,0.0,0.0,0.0,0.0,0.0,0.0,0.0,0.0,
10.596759000000079,0.0,0.0,18451.0,0.0,0.0,0.0,0.0,0.25,0.8544921000000001,0.01,0.0,-1715.0,0.0,0.0,-0.0,0.0,0.25,0.545654241,0.01,0.0,-375.0,0.0,0.0,0.0,0.0,0.0,3.358153953,0.01,0.0,-1559.0,0.0,0.0,-0.0,0.0,0.125,1.619872881,0.01,0.0,-0.07999999821186066,-0.5099999904632568,-1.9199999570846558,-0.00958251953125,0.00115966796875,1.016357421875,34.279998779296875,0.0,0.0,0.555755615234375,-1.238494873046875,Closing,0.0,0.0,0.0,0.0,0.0,0.0,0.0,0.0,
10.741930999999981,0.0,0.0,18451.0,0.0,0.0,0.0,0.0,0.25,0.8544921000000001,0.01,0.0,-1715.0,0.0,0.0,-0.0,0.0,0.25,0.545654241,0.01,0.0,-375.0,0.0,0.0,0.0,0.0,0.0,3.359374656,0.01,0.0,-1559.0,0.0,0.0,-0.0,0.0,0.125,1.619872881,0.01,0.0,-0.07999999821186066,-0.5,-1.940000057220459,-0.011474609375,-0.0028076171875,1.02508544921875,34.279998779296875,0.0,-2.0,0.555755615234375,-1.238494873046875,Closing,0.0,0.0,0.0,0.0,0.0,0.0,0.0,0.0,
10.883763999999967,0.0,0.0,18451.0,0.0,0.0,0.0,0.0,0.25,0.8544921000000001,0.01,0.0,-1715.0,0.0,0.0,-0.0,0.0,0.25,0.544433538,0.01,0.0,-375.0,0.0,0.0,0.0,0.0,0.0,3.359374656,0.01,0.0,-1559.0,0.0,0.0,-0.0,0.0,0.125,1.621093584,0.01,0.0,-0.07999999821186066,-0.5,-1.9700000286102295,-0.0086669921875,-0.00341796875,1.01824951171875,34.25,0.0,0.0,0.555755615234375,-1.238494873046875,Closing,0.0,0.0,0.0,0.0,0.0,0.0,0.0,0.0,
11.027744000000064,0.0,0.0,18451.0,0.0,0.0,0.0,0.0,0.25,0.8557128030000001,0.01,0.0,-1715.0,0.0,0.0,-0.0,0.0,0.25,0.544433538,0.01,0.0,-375.0,0.0,0.0,0.0,0.0,0.0,3.358153953,0.01,0.0,-1559.0,0.0,0.0,-0.0,0.0,0.125,1.618652178,0.01,0.0,-0.07999999821186066,-0.5,-2.0,-0.0108642578125,-0.00250244140625,1.0164794921875,34.25,0.0,-1.0,0.555755615234375,-1.238494873046875,Closing,0.0,0.0,0.0,0.0,0.0,0.0,0.0,0.0,
11.174979999999982,0.0,0.0,18451.0,0.0,0.0,0.0,0.0,0.25,0.8544921000000001,0.01,0.0,-1715.0,0.0,0.0,-0.0,0.0,0.25,0.544433538,0.01,0.0,-375.0,0.0,0.0,0.0,0.0,0.0,3.359374656,0.01,0.0,-1559.0,0.0,0.0,-0.0,0.0,0.125,1.619872881,0.01,0.0,-0.07999999821186066,-0.5,-2.0199999809265137,-0.01153564453125,0.001953125,1.0208740234375,34.25,0.0,-2.0,0.555755615234375,-1.238494873046875,Closing,0.0,0.0,0.0,0.0,0.0,0.0,0.0,0.0,
11.325928000000072,0.0,0.0,18451.0,0.0,0.0,0.0,0.0,0.25,0.8544921000000001,0.01,0.0,-1715.0,0.0,0.0,-0.0,0.0,0.25,0.545654241,0.01,0.0,-375.0,0.0,0.0,0.0,0.0,0.0,3.359374656,0.01,0.0,-1559.0,0.125,0.0,-0.0,0.0,0.125,1.621093584,0.01,0.0,-0.09000000357627869,-0.5,-2.049999952316284,-0.0107421875,1.220703125E-4,1.020263671875,34.25,0.0,-1.0,0.555755615234375,-1.238494873046875,Closing,0.0,0.0,0.0,0.0,0.0,0.0,0.0,0.0,
11.473219000000041,0.0,0.0,18451.0,0.0,0.0,0.0,0.0,0.25,0.8532713970000001,0.01,0.0,-1715.0,0.0,0.0,-0.0,0.0,0.25,0.544433538,0.01,0.0,-375.0,0.0,0.0,0.0,0.0,0.0,3.359374656,0.01,0.0,-1559.0,0.125,0.0,-0.0,0.0,0.125,1.619872881,0.01,0.0,-0.09000000357627869,-0.5,-2.069999933242798,-0.0111083984375,-7.9345703125E-4,1.02166748046875,34.279998779296875,0.0,-2.0,0.555755615234375,-1.238494873046875,Closing,0.0,0.0,0.0,0.0,0.0,0.0,0.0,0.0,
11.61466399999999,0.0,0.0,18451.0,0.0,0.0,0.0,0.0,0.25,0.8557128030000001,0.01,0.0,-1715.0,0.0,0.0,-0.0,0.0,0.25,0.545654241,0.01,0.0,-375.0,0.0,0.0,0.0,0.0,0.0,3.359374656,0.01,0.0,-1559.0,0.0,0.0,-0.0,0.0,0.125,1.619872881,0.01,0.0,-0.09000000357627869,-0.5,-2.0999999046325684,-0.01080322265625,-0.0030517578125,1.0189208984375,34.279998779296875,0.0,-1.0,0.555755615234375,-1.238494873046875,Closing,0.0,0.0,0.0,0.0,0.0,0.0,0.0,0.0,
11.764577000000049,0.0,0.0,18451.0,0.0,0.0,0.0,0.0,0.25,0.8557128030000001,0.01,0.0,-1715.0,0.0,0.0,-0.0,0.0,0.25,0.544433538,0.01,0.0,-375.0,0.0,0.0,0.0,0.0,0.0,3.359374656,0.01,0.0,-1559.0,0.125,0.0,-0.0,0.0,0.125,1.619872881,0.01,0.0,-0.07999999821186066,-0.5099999904632568,-2.130000114440918,-0.00982666015625,-0.001708984375,1.02093505859375,34.279998779296875,0.0,-1.0,0.555755615234375,-1.238494873046875,Closing,0.0,0.0,0.0,0.0,0.0,0.0,0.0,0.0,
11.901944000000018,0.0,0.0,18451.0,0.0,0.0,0.0,0.0,0.25,0.8544921000000001,0.01,0.0,-1715.0,0.0,0.0,-0.0,0.0,0.25,0.545654241,0.01,0.0,-375.0,0.0,0.0,0.0,0.0,0.0,3.358153953,0.01,0.0,-1559.0,0.0,0.0,-0.0,0.0,0.125,1.621093584,0.01,0.0,-0.07999999821186066,-0.5099999904632568,-2.1600000858306885,-0.0084228515625,-3.0517578125E-4,1.0211181640625,34.29999923706055,0.0,0.0,0.555755615234375,-1.238494873046875,Closing,0.0,0.0,0.0,0.0,0.0,0.0,0.0,0.0,
12.047072000000044,0.0,0.0,18451.0,0.0,0.0,0.0,0.0,0.25,0.8544921000000001,0.01,0.0,-1715.0,0.0,0.0,-0.0,0.0,0.25,0.544433538,0.01,0.0,-375.0,0.0,0.0,0.0,0.0,0.0,3.358153953,0.01,0.0,-1559.0,0.0,0.0,-0.0,0.0,0.125,1.619872881,0.01,0.0,-0.09000000357627869,-0.5,-2.180000066757202,-0.0096435546875,-0.0018310546875,1.01666259765625,34.29999923706055,0.0,0.0,0.555755615234375,-1.238494873046875,Closing,0.0,0.0,0.0,0.0,0.0,0.0,0.0,0.0,
12.190050000000047,0.0,0.0,18451.0,0.0,0.0,0.0,0.0,0.25,0.8544921000000001,0.01,0.0,-1715.0,0.0,0.0,-0.0,0.0,0.25,0.545654241,0.01,0.0,-375.0,0.0,0.0,0.0,0.0,0.0,3.359374656,0.01,0.0,-1559.0,0.0,0.0,-0.0,0.0,0.125,1.621093584,0.01,0.0,-0.09000000357627869,-0.5,-2.200000047683716,-0.00970458984375,-0.00103759765625,1.01141357421875,34.29999923706055,0.0,0.0,0.555755615234375,-1.238494873046875,Closing,0.0,0.0,0.0,0.0,0.0,0.0,0.0,0.0,
12.325611999999964,0.0,0.0,18451.0,0.0,0.0,0.0,0.0,0.25,0.8557128030000001,0.01,0.0,-1715.0,0.0,0.0,-0.0,0.0,0.25,0.545654241,0.01,0.0,-375.0,0.0,0.0,0.0,0.0,0.0,3.358153953,0.01,0.0,-1559.0,0.0,0.0,-0.0,0.0,0.125,1.621093584,0.01,0.0,-0.09000000357627869,-0.5,-2.2300000190734863,-0.013427734375,-0.00286865234375,1.01751708984375,34.29999923706055,0.0,-4.0,0.555755615234375,-1.238494873046875,Closing,0.0,0.0,0.0,0.0,0.0,0.0,0.0,0.0,
12.456072999999975,0.0,0.0,18451.0,0.0,0.0,0.0,0.0,0.25,0.8544921000000001,0.01,0.0,-1715.0,0.0,0.0,-0.0,0.0,0.25,0.544433538,0.01,0.0,-375.0,0.0,0.0,0.0,0.0,0.0,3.358153953,0.01,0.0,-1559.0,0.0,0.0,-0.0,0.0,0.125,1.621093584,0.01,0.0,-0.09000000357627869,-0.5,-2.25,-0.00872802734375,9.1552734375E-4,1.0201416015625,34.279998779296875,0.0,0.0,0.555755615234375,-1.238494873046875,Closing,0.0,0.0,0.0,0.0,0.0,0.0,0.0,0.0,
12.592805999999982,0.0,0.0,18451.0,0.0,0.0,0.0,0.0,0.25,0.8544921000000001,0.01,0.0,-1715.0,0.0,0.0,-0.0,0.0,0.25,0.544433538,0.01,0.0,-375.0,0.0,0.0,0.0,0.0,0.0,3.358153953,0.01,0.0,-1559.0,0.0,0.0,-0.0,0.0,0.125,1.621093584,0.01,0.0,-0.09000000357627869,-0.5,-2.2699999809265137,-0.0126953125,-0.00250244140625,1.02001953125,34.279998779296875,0.0,-3.0,0.555755615234375,-1.238494873046875,Closing,0.0,0.0,0.0,0.0,0.0,0.0,0.0,0.0,
12.733790999999968,0.0,0.0,18451.0,0.0,0.0,0.0,0.0,0.25,0.8544921000000001,0.01,0.0,-1715.0,0.0,0.0,-0.0,0.0,0.25,0.544433538,0.01,0.0,-375.0,0.0,0.0,0.0,0.0,0.0,3.358153953,0.01,0.0,-1559.0,0.0,0.0,-0.0,0.0,0.125,1.621093584,0.01,0.0,-0.09000000357627869,-0.5099999904632568,-2.299999952316284,-0.0101318359375,-0.00347900390625,1.01422119140625,34.279998779296875,0.0,0.0,0.555755615234375,-1.238494873046875,Closing,0.0,0.0,0.0,0.0,0.0,0.0,0.0,0.0,
12.871732000000076,0.0,0.0,18451.0,0.0,0.0,0.0,0.0,0.25,0.8544921000000001,0.01,0.0,-1715.0,0.0,0.0,-0.0,0.0,0.25,0.544433538,0.01,0.0,-375.0,0.0,0.0,0.0,0.0,0.0,3.358153953,0.01,0.0,-1559.0,0.0,0.0,-0.0,0.0,0.125,1.619872881,0.01,0.0,-0.10000000149011612,-0.5,-2.3299999237060547,-0.0093994140625,-0.00299072265625,1.0245361328125,34.279998779296875,0.0,0.0,0.555755615234375,-1.238494873046875,Closing,0.0,0.0,0.0,0.0,0.0,0.0,0.0,0.0,
13.008366000000038,0.0,0.0,18451.0,0.0,0.0,0.0,0.0,0.25,0.8544921000000001,0.01,0.0,-1715.0,0.0,0.0,-0.0,0.0,0.25,0.544433538,0.01,0.0,-375.0,0.0,0.0,0.0,0.0,0.0,3.358153953,0.01,0.0,-1559.0,0.0,0.0,-0.0,0.0,0.125,1.619872881,0.01,0.0,-0.10000000149011612,-0.5,-2.3499999046325684,-0.009033203125,-0.001708984375,1.01776123046875,34.279998779296875,0.0,0.0,0.555755615234375,-1.238494873046875,Closing,0.0,0.0,0.0,0.0,0.0,0.0,0.0,0.0,
13.137466000000014,0.0,0.0,18451.0,0.0,0.0,0.0,0.0,0.25,0.8544921000000001,0.01,0.0,-1715.0,0.0,0.0,-0.0,0.0,0.25,0.544433538,0.01,0.0,-375.0,0.0,0.0,0.0,0.0,0.0,3.358153953,0.01,0.0,-1559.0,0.0,0.0,-0.0,0.0,0.125,1.619872881,0.01,0.0,-0.10000000149011612,-0.5,-2.369999885559082,-0.0128173828125,-0.00213623046875,1.0162353515625,34.279998779296875,0.0,-3.0,0.555755615234375,-1.238494873046875,Closing,0.0,0.0,0.0,0.0,0.0,0.0,0.0,0.0,
13.274277000000001,0.0,0.0,18451.0,0.0,0.0,0.0,0.0,0.25,0.8557128030000001,0.01,0.0,-1715.0,0.0,0.0,-0.0,0.0,0.25,0.544433538,0.01,0.0,-375.0,0.0,0.0,0.0,0.0,0.0,3.358153953,0.01,0.0,-1559.0,0.0,0.0,-0.0,0.0,0.125,1.619872881,0.01,0.0,-0.10000000149011612,-0.5099999904632568,-2.390000104904175,-0.00885009765625,-0.002197265625,1.02093505859375,34.279998779296875,0.0,0.0,0.555755615234375,-1.238494873046875,Closing,0.0,0.0,0.0,0.0,0.0,0.0,0.0,0.0,
13.404795000000043,0.0,0.0,18451.0,0.0,0.0,0.0,0.0,0.25,0.8544921000000001,0.01,0.0,-1715.0,0.0,0.0,-0.0,0.0,0.25,0.544433538,0.01,0.0,-375.0,0.0,0.0,0.0,0.0,0.0,3.358153953,0.01,0.0,-1559.0,0.0,0.0,-0.0,0.0,0.125,1.619872881,0.01,0.0,-0.10000000149011612,-0.5099999904632568,-2.4200000762939453,-0.01239013671875,-0.00531005859375,1.020263671875,34.279998779296875,0.0,-3.0,0.555755615234375,-1.238494873046875,Closing,0.0,0.0,0.0,0.0,0.0,0.0,0.0,0.0,
13.53577899999998,0.0,0.0,18451.0,0.0,0.0,0.0,0.0,0.25,0.8544921000000001,0.01,0.0,-1715.0,0.0,0.0,-0.0,0.0,0.25,0.544433538,0.01,0.0,-375.0,0.0,0.0,0.0,0.0,0.0,3.358153953,0.01,0.0,-1559.0,0.0,0.0,-0.0,0.0,0.125,1.619872881,0.01,0.0,-0.10000000149011612,-0.5099999904632568,-2.450000047683716,-0.00921630859375,-0.003662109375,1.01666259765625,34.290000915527344,0.0,0.0,0.555755615234375,-1.238494873046875,Closing,0.0,0.0,0.0,0.0,0.0,0.0,0.0,0.0,
13.674016000000062,0.0,0.0,18451.0,0.0,0.0,0.0,0.0,0.25,0.8544921000000001,0.01,0.0,-1715.0,0.0,0.0,-0.0,0.0,0.25,0.544433538,0.01,0.0,-375.0,0.0,0.0,0.0,0.0,0.0,3.358153953,0.01,0.0,-1559.0,0.0,0.0,-0.0,0.0,0.125,1.619872881,0.01,0.0,-0.10000000149011612,-0.5099999904632568,-2.4700000286102295,-0.01043701171875,-0.00146484375,1.01666259765625,34.290000915527344,0.0,-1.0,0.555755615234375,-1.238494873046875,Closing,0.0,0.0,0.0,0.0,0.0,0.0,0.0,0.0,
13.808917000000015,0.0,0.0,18451.0,0.0,0.0,0.0,0.0,0.25,0.8544921000000001,0.01,0.0,-1715.0,0.0,0.0,-0.0,0.0,0.25,0.545654241,0.01,0.0,-375.0,0.0,0.0,0.0,0.0,0.0,3.359374656,0.01,0.0,-1559.0,0.0,0.0,-0.0,0.0,0.125,1.619872881,0.01,0.0,-0.10000000149011612,-0.5099999904632568,-2.5,-0.0098876953125,-9.1552734375E-4,1.02532958984375,34.290000915527344,0.0,0.0,0.555755615234375,-1.238494873046875,Closing,0.0,0.0,0.0,0.0,0.0,0.0,0.0,0.0,
13.94788500000001,0.0,0.0,18451.0,0.0,0.0,0.0,0.0,0.25,0.8544921000000001,0.01,0.0,-1715.0,0.0,0.0,-0.0,0.0,0.25,0.545654241,0.01,0.0,-375.0,0.0,0.0,0.0,0.0,0.0,3.358153953,0.01,0.0,-1559.0,0.0,0.0,-0.0,0.0,0.125,1.619872881,0.01,0.0,-0.10000000149011612,-0.5099999904632568,-2.5199999809265137,-0.007568359375,-6.103515625E-4,1.0184326171875,34.279998779296875,0.0,1.0,0.555755615234375,-1.238494873046875,Closing,0.0,0.0,0.0,0.0,0.0,0.0,0.0,0.0,
14.082310999999986,0.0,0.0,18451.0,0.0,0.0,0.0,0.0,0.25,0.8557128030000001,0.01,0.0,-1715.0,0.0,0.0,-0.0,0.0,0.25,0.545654241,0.01,0.0,-375.0,0.0,0.0,0.0,0.0,0.0,3.358153953,0.01,0.0,-1559.0,0.125,0.0,-0.0,0.0,0.125,1.619872881,0.01,0.0,-0.10000000149011612,-0.5099999904632568,-2.549999952316284,-0.0089111328125,-0.00421142578125,1.0284423828125,34.279998779296875,0.0,0.0,0.555755615234375,-1.238494873046875,Closing,0.0,0.0,0.0,0.0,0.0,0.0,0.0,0.0,
14.214785000000033,0.0,0.0,18451.0,0.0,0.0,0.0,0.0,0.25,0.8544921000000001,0.01,0.0,-1715.0,0.0,0.0,-0.0,0.0,0.25,0.545654241,0.01,0.0,-375.0,0.0,0.0,0.0,0.0,0.0,3.358153953,0.01,0.0,-1559.0,0.0,0.0,-0.0,0.0,0.125,1.621093584,0.01,0.0,-0.10000000149011612,-0.5099999904632568,-2.569999933242798,-0.0096435546875,-0.00390625,1.01837158203125,34.279998779296875,0.0,0.0,0.555755615234375,-1.238494873046875,Closing,0.0,0.0,0.0,0.0,0.0,0.0,0.0,0.0,
14.351601000000024,0.0,0.0,18451.0,0.0,0.0,0.0,0.0,0.25,0.8557128030000001,0.01,0.0,-1715.0,0.0,0.0,-0.0,0.0,0.25,0.544433538,0.01,0.0,-375.0,0.0,0.0,0.0,0.0,0.0,3.359374656,0.01,0.0,-1559.0,0.0,0.0,-0.0,0.0,0.125,1.621093584,0.01,0.0,-0.10000000149011612,-0.5099999904632568,-2.5899999141693115,-0.0101318359375,-0.0028076171875,1.021240234375,34.279998779296875,0.0,0.0,0.555755615234375,-1.238494873046875,Closing,0.0,0.0,0.0,0.0,0.0,0.0,0.0,0.0,
14.489381999999983,0.0,0.0,18451.0,0.0,0.0,0.0,0.0,0.25,0.8544921000000001,0.01,0.0,-1715.0,0.0,0.0,-0.0,0.0,0.25,0.545654241,0.01,0.0,-375.0,0.0,0.0,0.0,0.0,0.0,3.358153953,0.01,0.0,-1559.0,0.0,0.0,-0.0,0.0,0.125,1.619872881,0.01,0.0,-0.10000000149011612,-0.5099999904632568,-2.619999885559082,-0.00933837890625,-0.003662109375,1.0252685546875,34.27000045776367,0.0,0.0,0.555755615234375,-1.238494873046875,Closing,0.0,0.0,0.0,0.0,0.0,0.0,0.0,0.0,
14.627130000000005,0.0,0.0,18451.0,0.0,0.0,0.0,0.0,0.25,0.8544921000000001,0.01,0.0,-1715.0,0.0,0.0,-0.0,0.0,0.25,0.544433538,0.01,0.0,-375.0,0.0,0.0,0.0,0.0,0.0,3.359374656,0.01,0.0,-1559.0,0.0,0.0,-0.0,0.0,0.125,1.621093584,0.01,0.0,-0.10000000149011612,-0.5,-2.640000104904175,-0.0089111328125,-0.004638671875,1.0191650390625,34.27000045776367,0.0,0.0,0.555755615234375,-1.238494873046875,Closing,0.0,0.0,0.0,0.0,0.0,0.0,0.0,0.0,
14.752906000000076,0.0,0.0,18451.0,0.0,0.0,0.0,0.0,0.25,0.8544921000000001,0.01,0.0,-1715.0,0.0,0.0,-0.0,0.0,0.25,0.544433538,0.01,0.0,-375.0,0.0,0.0,0.0,0.0,0.0,3.35693325,0.01,0.0,-1559.0,0.0,0.0,-0.0,0.0,0.125,1.619872881,0.01,0.0,-0.10999999940395355,-0.5,-2.6600000858306885,-0.00897216796875,-9.765625E-4,1.0201416015625,34.27000045776367,0.0,0.0,0.555755615234375,-1.238494873046875,Closing,0.0,0.0,0.0,0.0,0.0,0.0,0.0,0.0,
14.887776000000072,0.0,0.0,18451.0,0.0,0.0,0.0,0.0,0.25,0.8544921000000001,0.01,0.0,-1715.0,0.0,0.0,-0.0,0.0,0.25,0.545654241,0.01,0.0,-375.0,0.0,0.0,0.0,0.0,0.0,3.358153953,0.01,0.0,-1559.0,0.0,0.0,-0.0,0.0,0.125,1.619872881,0.01,0.0,-0.10999999940395355,-0.5,-2.680000066757202,-0.010009765625,-0.00286865234375,1.0242919921875,34.27000045776367,0.0,0.0,0.555755615234375,-1.238494873046875,Closing,0.0,0.0,0.0,0.0,0.0,0.0,0.0,0.0,
15.02168200000003,0.0,0.0,18451.0,0.0,0.0,0.0,0.0,0.25,0.8544921000000001,0.01,0.0,-1715.0,0.0,0.0,-0.0,0.0,0.25,0.545654241,0.01,0.0,-375.0,0.0,0.0,0.0,0.0,0.0,3.358153953,0.01,0.0,-1559.0,0.125,0.0,-0.0,0.0,0.125,1.619872881,0.01,0.0,-0.10000000149011612,-0.5099999904632568,-2.7100000381469727,-0.01068115234375,-0.0023193359375,1.0196533203125,34.279998779296875,0.0,-1.0,0.555755615234375,-1.238494873046875,Closing,0.0,0.0,0.0,0.0,0.0,0.0,0.0,0.0,
15.15819000000006,0.0,0.0,18451.0,0.0,0.0,0.0,0.0,0.25,0.8557128030000001,0.01,0.0,-1715.0,0.0,0.0,-0.0,0.0,0.25,0.545654241,0.01,0.0,-375.0,0.0,0.0,0.0,0.0,0.0,3.358153953,0.01,0.0,-1559.0,0.0,0.0,-0.0,0.0,0.125,1.619872881,0.01,0.0,-0.10000000149011612,-0.5099999904632568,-2.7300000190734863,-0.01226806640625,0.00103759765625,1.01910400390625,34.279998779296875,0.0,-3.0,0.555755615234375,-1.238494873046875,Closing,0.0,0.0,0.0,0.0,0.0,0.0,0.0,0.0,
15.29196100000001,0.0,0.0,18451.0,0.0,0.0,0.0,0.0,0.25,0.8557128030000001,0.01,0.0,-1715.0,0.0,0.0,-0.0,0.0,0.25,0.544433538,0.01,0.0,-375.0,0.0,0.0,0.0,0.0,0.0,3.358153953,0.01,0.0,-1559.0,0.0,0.0,-0.0,0.0,0.125,1.619872881,0.01,0.0,-0.10000000149011612,-0.5099999904632568,-2.759999990463257,-0.00946044921875,-0.00262451171875,1.017578125,34.279998779296875,0.0,0.0,0.555755615234375,-1.238494873046875,Closing,0.0,0.0,0.0,0.0,0.0,0.0,0.0,0.0,
15.43331799999997,0.0,0.0,18451.0,0.0,0.0,0.0,0.0,0.25,0.8557128030000001,0.01,0.0,-1715.0,0.0,0.0,-0.0,0.0,0.25,0.545654241,0.01,0.0,-375.0,0.0,0.0,0.0,0.0,0.0,3.358153953,0.01,0.0,-1559.0,0.0,0.0,-0.0,0.0,0.125,1.619872881,0.01,0.0,-0.10999999940395355,-0.5,-2.7799999713897705,-0.0108642578125,-6.103515625E-4,1.0213623046875,34.279998779296875,0.0,-1.0,0.555755615234375,-1.238494873046875,Closing,0.0,0.0,0.0,0.0,0.0,0.0,0.0,0.0,
15.568361999999965,0.0,0.0,18451.0,0.0,0.0,0.0,0.0,0.25,0.8544921000000001,0.01,0.0,-1715.0,0.0,0.0,-0.0,0.0,0.25,0.544433538,0.01,0.0,-375.0,0.0,0.0,0.0,0.0,0.0,3.359374656,0.01,0.0,-1559.0,0.125,0.0,-0.0,0.0,0.125,1.619872881,0.01,0.0,-0.10000000149011612,-0.5,-2.809999942779541,-0.0057373046875,-0.0023193359375,1.017333984375,34.279998779296875,0.0,3.0,0.555755615234375,-1.238494873046875,Closing,0.0,0.0,0.0,0.0,0.0,0.0,0.0,0.0,
15.695861999999964,0.0,0.0,18451.0,0.0,0.0,0.0,0.0,0.25,0.8557128030000001,0.01,0.0,-1715.0,0.0,0.0,-0.0,0.0,0.25,0.545654241,0.01,0.0,-375.0,0.0,0.0,0.0,0.0,0.0,3.358153953,0.01,0.0,-1559.0,0.0,0.0,-0.0,0.0,0.125,1.621093584,0.01,0.0,-0.10000000149011612,-0.5099999904632568,-2.819999933242798,-0.012451171875,-0.00390625,1.01751708984375,34.279998779296875,0.0,-3.0,0.555755615234375,-1.238494873046875,Closing,0.0,0.0,0.0,0.0,0.0,0.0,0.0,0.0,
15.833140000000014,0.0,0.0,18451.0,0.0,0.0,0.0,0.0,0.25,0.8544921000000001,0.01,0.0,-1715.0,0.0,0.0,-0.0,0.0,0.25,0.545654241,0.01,0.0,-375.0,0.0,0.0,0.0,0.0,0.0,3.359374656,0.01,0.0,-1559.0,0.0,0.0,-0.0,0.0,0.125,1.619872881,0.01,0.0,-0.10999999940395355,-0.5099999904632568,-2.819999933242798,-0.00982666015625,-0.00341796875,1.017333984375,34.279998779296875,0.0,0.0,0.555755615234375,-1.238494873046875,Closing,0.0,0.0,0.0,0.0,0.0,0.0,0.0,0.0,
15.970261000000058,0.0,0.0,18451.0,0.0,0.0,0.0,0.0,0.25,0.8544921000000001,0.01,0.0,-1715.0,0.0,0.0,-0.0,0.0,0.25,0.545654241,0.01,0.0,-375.0,0.0,0.0,0.0,0.0,0.0,3.358153953,0.01,0.0,-1559.0,0.0,0.0,-0.0,0.0,0.125,1.619872881,0.01,0.0,-0.10999999940395355,-0.5099999904632568,-2.8299999237060547,-0.00927734375,-6.103515625E-4,1.01934814453125,34.279998779296875,0.0,0.0,0.555755615234375,-1.238494873046875,Closing,0.0,0.0,0.0,0.0,0.0,0.0,0.0,0.0,
16.100434000000007,0.0,0.0,18451.0,0.0,0.0,0.0,0.0,0.25,0.8544921000000001,0.01,0.0,-1715.0,0.0,0.0,-0.0,0.0,0.25,0.545654241,0.01,0.0,-375.0,0.0,0.0,0.0,0.0,0.0,3.35693325,0.01,0.0,-1559.0,0.0,0.0,-0.0,0.0,0.125,1.619872881,0.01,0.0,-0.10999999940395355,-0.5099999904632568,-2.8299999237060547,-0.00762939453125,-0.00164794921875,1.0228271484375,34.279998779296875,0.0,1.0,0.555755615234375,-1.238494873046875,Closing,0.0,0.0,0.0,0.0,0.0,0.0,0.0,0.0,
16.23551800000004,0.0,0.0,18451.0,0.0,0.0,0.0,0.0,0.25,0.8544921000000001,0.01,0.0,-1715.0,0.0,0.0,-0.0,0.0,0.25,0.545654241,0.01,0.0,-375.0,0.0,0.0,0.0,0.0,0.0,3.359374656,0.01,0.0,-1559.0,0.0,0.0,-0.0,0.0,0.125,1.621093584,0.01,0.0,-0.10999999940395355,-0.5199999809265137,-2.8299999237060547,-0.01025390625,-6.103515625E-4,1.02392578125,34.279998779296875,0.0,0.0,0.555755615234375,-1.238494873046875,Closing,0.0,0.0,0.0,0.0,0.0,0.0,0.0,0.0,
16.37580500000005,0.0,0.0,18451.0,0.0,0.0,0.0,0.0,0.25,0.8557128030000001,0.01,0.0,-1715.0,0.0,0.0,-0.0,0.0,0.25,0.545654241,0.01,0.0,-375.0,0.0,0.0,0.0,0.0,0.0,3.358153953,0.01,0.0,-1559.0,0.0,0.0,-0.0,0.0,0.125,1.619872881,0.01,0.0,-0.10999999940395355,-0.5299999713897705,-2.8299999237060547,-0.00775146484375,-0.0023193359375,1.02288818359375,34.279998779296875,0.0,1.0,0.555755615234375,-1.238494873046875,Closing,0.0,0.0,0.0,0.0,0.0,0.0,0.0,0.0,
16.522717999999994,0.0,0.0,18451.0,0.0,0.0,0.0,0.0,0.25,0.8544921000000001,0.01,0.0,-1715.0,0.0,0.0,-0.0,0.0,0.25,0.546874944,0.01,0.0,-375.0,0.0,0.0,0.0,0.0,0.0,3.358153953,0.01,0.0,-1559.0,0.0,0.0,-0.0,0.0,0.125,1.619872881,0.01,0.0,-0.11999999731779099,-0.5299999713897705,-2.8299999237060547,-0.00872802734375,-9.765625E-4,1.02191162109375,34.279998779296875,0.0,0.0,0.555755615234375,-1.238494873046875,Closing,0.0,0.0,0.0,0.0,0.0,0.0,0.0,0.0,
16.656119999999994,0.0,0.0,18451.0,0.0,0.0,0.0,0.0,0.25,0.8544921000000001,0.01,0.0,-1715.0,0.0,0.0,-0.0,0.0,0.25,0.544433538,0.01,0.0,-375.0,0.0,0.0,0.0,0.0,0.0,3.359374656,0.01,0.0,-1559.0,0.0,0.0,-0.0,0.0,0.125,1.619872881,0.01,0.0,-0.11999999731779099,-0.5299999713897705,-2.8299999237060547,-0.0111083984375,-0.00341796875,1.024169921875,34.279998779296875,0.0,-1.0,0.555755615234375,-1.238494873046875,Closing,0.0,0.0,0.0,0.0,0.0,0.0,0.0,0.0,
16.790839000000037,0.0,0.0,18451.0,0.0,0.0,0.0,0.0,0.25,0.8544921000000001,0.01,0.0,-1715.0,0.0,0.0,-0.0,0.0,0.25,0.545654241,0.01,0.0,-375.0,0.0,0.0,0.0,0.0,0.0,3.359374656,0.01,0.0,-1559.0,0.125,0.0,-0.0,0.0,0.125,1.619872881,0.01,0.0,-0.11999999731779099,-0.5299999713897705,-2.8299999237060547,-0.0089111328125,-8.544921875E-4,1.02008056640625,34.279998779296875,0.0,0.0,0.555755615234375,-1.238494873046875,Closing,0.0,0.0,0.0,0.0,0.0,0.0,0.0,0.0,
16.927554000000004,0.0,0.0,18451.0,0.0,0.0,0.0,0.0,0.25,0.8544921000000001,0.01,0.0,-1715.0,0.0,0.0,-0.0,0.0,0.25,0.544433538,0.01,0.0,-375.0,0.0,0.0,0.0,0.0,0.0,3.358153953,0.01,0.0,-1559.0,0.0,0.0,-0.0,0.0,0.125,1.619872881,0.01,0.0,-0.11999999731779099,-0.5299999713897705,-2.819999933242798,-0.00921630859375,-0.0040283203125,1.020751953125,34.279998779296875,0.0,0.0,0.555755615234375,-1.238494873046875,Closing,0.0,0.0,0.0,0.0,0.0,0.0,0.0,0.0,
17.058748000000023,0.0,0.0,18451.0,0.0,0.0,0.0,0.0,0.25,0.8557128030000001,0.01,0.0,-1715.0,0.0,0.0,-0.0,0.0,0.25,0.545654241,0.01,0.0,-375.0,0.0,0.0,0.0,0.0,0.0,3.359374656,0.01,0.0,-1559.0,0.125,0.0,-0.0,0.0,0.125,1.621093584,0.01,0.0,-0.11999999731779099,-0.5299999713897705,-2.819999933242798,-0.0087890625,-0.00286865234375,1.0184326171875,34.29999923706055,0.0,0.0,0.555755615234375,-1.238494873046875,Closing,0.0,0.0,0.0,0.0,0.0,0.0,0.0,0.0,
17.194177000000025,0.0,0.0,18451.0,0.0,0.0,0.0,0.0,0.25,0.8544921000000001,0.01,0.0,-1715.0,0.0,0.0,-0.0,0.0,0.25,0.544433538,0.01,0.0,-375.0,0.0,0.0,0.0,0.0,0.0,3.359374656,0.01,0.0,-1559.0,0.0,0.0,-0.0,0.0,0.125,1.619872881,0.01,0.0,-0.11999999731779099,-0.5299999713897705,-2.819999933242798,-0.00823974609375,-0.0020751953125,1.01678466796875,34.29999923706055,0.0,1.0,0.555755615234375,-1.238494873046875,Closing,0.0,0.0,0.0,0.0,0.0,0.0,0.0,0.0,
17.327447999999976,0.0,0.0,18451.0,0.0,0.0,0.0,0.0,0.25,0.8557128030000001,0.01,0.0,-1715.0,0.0,0.0,-0.0,0.0,0.25,0.544433538,0.01,0.0,-375.0,0.0,0.0,0.0,0.0,0.0,3.358153953,0.01,0.0,-1559.0,0.125,0.0,-0.0,0.0,0.125,1.619872881,0.01,0.0,-0.11999999731779099,-0.5299999713897705,-2.8299999237060547,-0.00970458984375,-0.0023193359375,1.02001953125,34.29999923706055,0.0,0.0,0.555755615234375,-1.238494873046875,Closing,0.0,0.0,0.0,0.0,0.0,0.0,0.0,0.0,
17.459219999999974,0.0,0.0,18451.0,0.0,0.0,0.0,0.0,0.25,0.8544921000000001,0.01,0.0,-1715.0,0.0,0.0,-0.0,0.0,0.25,0.544433538,0.01,0.0,-375.0,0.0,0.0,0.0,0.0,0.0,3.358153953,0.01,0.0,-1559.0,0.0,0.0,-0.0,0.0,0.125,1.621093584,0.01,0.0,-0.12999999523162842,-0.5299999713897705,-2.819999933242798,-0.0089111328125,-0.00555419921875,1.0203857421875,34.29999923706055,0.0,0.0,0.555755615234375,-1.238494873046875,Closing,0.0,0.0,0.0,0.0,0.0,0.0,0.0,0.0,
17.604668000000064,0.0,0.0,18451.0,0.0,0.0,0.0,0.0,0.25,0.8544921000000001,0.01,0.0,-1715.0,0.0,0.0,-0.0,0.0,0.25,0.545654241,0.01,0.0,-375.0,0.0,0.0,0.0,0.0,0.0,3.358153953,0.01,0.0,-1559.0,0.0,0.0,-0.0,0.0,0.125,1.619872881,0.01,0.0,-0.12999999523162842,-0.5299999713897705,-2.819999933242798,-0.01080322265625,-0.0030517578125,1.01806640625,34.290000915527344,0.0,-1.0,0.555755615234375,-1.238494873046875,Closing,0.0,0.0,0.0,0.0,0.0,0.0,0.0,0.0,
17.740332000000052,0.0,0.0,18451.0,0.0,0.0,0.0,0.0,0.25,0.8544921000000001,0.01,0.0,-1715.0,0.0,0.0,-0.0,0.0,0.25,0.545654241,0.01,0.0,-375.0,0.0,0.0,0.0,0.0,0.0,3.358153953,0.01,0.0,-1559.0,0.125,0.0,-0.0,0.0,0.125,1.619872881,0.01,0.0,-0.11999999731779099,-0.5400000214576721,-2.819999933242798,-0.0098876953125,-0.0035400390625,1.0164794921875,34.290000915527344,0.0,0.0,0.555755615234375,-1.238494873046875,Closing,0.0,0.0,0.0,0.0,0.0,0.0,0.0,0.0,
17.876420999999972,0.0,0.0,18451.0,0.0,0.0,0.0,0.0,0.25,0.8544921000000001,0.01,0.0,-1715.0,0.0,0.0,-0.0,0.0,0.25,0.545654241,0.01,0.0,-375.0,0.0,0.0,0.0,0.0,0.0,3.358153953,0.01,0.0,-1559.0,0.0,0.0,-0.0,0.0,0.125,1.619872881,0.01,0.0,-0.11999999731779099,-0.5400000214576721,-2.819999933242798,-0.00872802734375,-0.001953125,1.0230712890625,34.290000915527344,0.0,0.0,0.555755615234375,-1.238494873046875,Closing,0.0,0.0,0.0,0.0,0.0,0.0,0.0,0.0,
18.020558000000076,0.0,0.0,18451.0,0.0,0.0,0.0,0.0,0.25,0.8544921000000001,0.01,0.0,-1715.0,0.0,0.0,-0.0,0.0,0.25,0.544433538,0.01,0.0,-375.0,0.0,0.0,0.0,0.0,0.0,3.358153953,0.01,0.0,-1559.0,0.0,0.0,-0.0,0.0,0.125,1.619872881,0.01,0.0,-0.11999999731779099,-0.5400000214576721,-2.8299999237060547,-0.0067138671875,-0.002197265625,1.01971435546875,34.310001373291016,0.0,2.0,0.555755615234375,-1.238494873046875,Closing,0.0,0.0,0.0,0.0,0.0,0.0,0.0,0.0,
18.16575199999998,0.0,0.0,18451.0,0.0,0.0,0.0,0.0,0.25,0.8557128030000001,0.01,0.0,-1715.0,0.0,0.0,-0.0,0.0,0.25,0.545654241,0.01,0.0,-375.0,0.0,0.0,0.0,0.0,0.0,3.358153953,0.01,0.0,-1559.0,0.0,0.0,-0.0,0.0,0.125,1.619872881,0.01,0.0,-0.11999999731779099,-0.5400000214576721,-2.8299999237060547,-0.00927734375,-0.00299072265625,1.0181884765625,34.310001373291016,0.0,0.0,0.555755615234375,-1.238494873046875,Closing,0.0,0.0,0.0,0.0,0.0,0.0,0.0,0.0,
18.308582999999985,0.0,0.0,18451.0,0.0,0.0,0.0,0.0,0.25,0.8544921000000001,0.01,0.0,-1715.0,0.0,0.0,-0.0,0.0,0.25,0.546874944,0.01,0.0,-375.0,0.0,0.0,0.0,0.0,0.0,3.358153953,0.01,0.0,-1559.0,0.0,0.0,-0.0,0.0,0.125,1.619872881,0.01,0.0,-0.12999999523162842,-0.5299999713897705,-2.8299999237060547,-0.01171875,-0.0029296875,1.01947021484375,34.310001373291016,0.0,-2.0,0.555755615234375,-1.238494873046875,Closing,0.0,0.0,0.0,0.0,0.0,0.0,0.0,0.0,
