Time,ClimberA1,ClimberA2,FRpos,FRCurrent,FRspeed,FRsetpoint,FRApos,FRACurrent,FREncpos,FREncSetpoint,FREncSpeed,FLpos,FLCurrent,FLspeed,FLsetpoint,FLApos,FLACurrent,FLEncpos,FLEncSetpoint,FLEncSpeed,BRpos,BRCurrent,BRspeed,BRsetpoint,BRApos,BRACurrent,BREncpos,BREncSetpoint,BREncSpeed,BLpos,BLCurrent,BLspeed,BLsetpoint,BLApos,BLACurrent,BLEncpos,BLEncSetpoint,BLEncSpeed,navx_Pitch,navx_Roll,navx_Yaw,navx_XAcc,navx_YAcc,navx_ZAcc,navx_Temp,navx_Bar,navx_Alt,navx_XDis,navx_YDis,GearPlacerState,ShootOutputV,ShootOutputCurrent,ShootEncPos,ShootEncVelocity,ShootSpeed,ShootSetpoint,CarouselSetpoint,CarouselCurrent,
0.18326900000002933,0.0,0.0,14673.0,0.0,0.0,0.0,0.0,0.125,0.8288573370000001,0.01,0.0,2315.0,0.0,0.0,-0.0,0.0,0.25,0.50048823,0.01,0.0,-3459.0,0.0,0.0,0.0,0.0,0.0,3.3642574680000004,0.01,0.0,2504.0,0.125,0.0,-0.0,0.0,0.25,1.645507644,0.01,0.0,0.3100000023841858,-0.6100000143051147,0.0,-0.01092529296875,0.0030517578125,1.02423095703125,34.11000061035156,0.0,0.0,0.574554443359375,-1.2010345458984375,Opening,0.0,0.0,0.0,0.0,0.0,0.0,0.0,0.0,
0.3125599999999977,0.0,0.0,14673.0,0.0,0.0,0.0,0.0,0.125,0.8312987430000001,0.01,0.0,2315.0,0.0,0.0,-0.0,0.0,0.125,0.49194330900000005,0.01,0.0,-3459.0,0.0,0.0,0.0,0.0,0.0,3.3691402800000003,0.01,0.0,2504.0,0.0,0.0,-0.0,0.0,0.25,1.644286941,0.01,0.0,0.3100000023841858,-0.6100000143051147,0.0,-0.0101318359375,0.00311279296875,1.0174560546875,34.13999938964844,0.0,0.0,0.574554443359375,-1.2010345458984375,Opening,0.0,0.0,0.0,0.0,0.0,0.0,0.0,0.0,
0.43274700000003213,0.0,0.0,14673.0,0.0,0.0,0.0,0.0,0.125,0.8312987430000001,0.01,0.0,2315.0,0.0,0.0,-0.0,0.0,0.125,0.5017089330000001,0.01,0.0,-3459.0,0.0,0.0,0.0,0.0,0.0,3.3691402800000003,0.01,0.0,2504.0,0.125,0.0,-0.0,0.0,0.25,1.644286941,0.01,0.0,0.3100000023841858,-0.6100000143051147,0.0,-0.01141357421875,0.00439453125,1.01385498046875,34.13999938964844,0.0,0.0,0.574554443359375,-1.2010345458984375,Opening,0.0,0.0,0.0,0.0,0.0,0.0,0.0,0.0,
0.5479250000000465,0.0,0.0,14673.0,0.0,0.0,0.0,0.0,0.125,0.8312987430000001,0.01,0.0,2315.0,0.0,0.0,-0.0,0.0,0.125,0.50048823,0.01,0.0,-3459.0,0.0,0.0,0.0,0.0,0.0,3.3691402800000003,0.01,0.0,2504.0,0.0,0.0,-0.0,0.0,0.25,1.644286941,0.01,0.0,0.3100000023841858,-0.6100000143051147,0.0,-0.0087890625,0.006591796875,1.02020263671875,34.13999938964844,0.0,2.0,0.574554443359375,-1.2010345458984375,Opening,0.0,0.0,0.0,0.0,0.0,0.0,0.0,0.0,
0.6614450000000069,0.0,0.0,14673.0,0.0,0.0,0.0,0.0,0.125,0.8312987430000001,0.01,0.0,2315.0,0.0,0.0,-0.0,0.0,0.125,0.5017089330000001,0.01,0.0,-3459.0,0.0,0.0,0.0,0.0,0.0,3.3679195770000003,0.01,0.0,2504.0,0.125,0.0,-0.0,0.0,0.25,1.644286941,0.01,0.0,0.30000001192092896,-0.6100000143051147,0.0,-0.0091552734375,0.0057373046875,1.01824951171875,34.13999938964844,0.0,1.0,0.574554443359375,-1.2010345458984375,Opening,0.0,0.0,0.0,0.0,0.0,0.0,0.0,0.0,
0.7749380000000238,0.0,0.0,14673.0,0.0,0.0,0.0,0.0,0.125,0.8312987430000001,0.01,0.0,2315.0,0.0,0.0,-0.0,0.0,0.125,0.5017089330000001,0.01,0.0,-3459.0,0.0,0.0,0.0,0.0,0.0,3.3679195770000003,0.01,0.0,2504.0,0.0,0.0,-0.0,0.0,0.25,1.645507644,0.01,0.0,0.30000001192092896,-0.6100000143051147,0.0,-0.0098876953125,0.00341796875,1.019775390625,34.13999938964844,0.0,1.0,0.574554443359375,-1.2010345458984375,Opening,0.0,0.0,0.0,0.0,0.0,0.0,0.0,0.0,
0.8950400000000373,0.0,0.0,14673.0,0.0,0.0,0.0,0.0,0.125,0.8300780400000001,0.01,0.0,2315.0,0.0,0.0,-0.0,0.0,0.125,0.5017089330000001,0.01,0.0,-3459.0,0.0,0.0,0.0,0.0,0.0,3.3679195770000003,0.01,0.0,2504.0,0.0,0.0,-0.0,0.0,0.25,1.644286941,0.01,0.0,0.30000001192092896,-0.6100000143051147,0.0,-0.0115966796875,0.005615234375,1.01983642578125,34.13999938964844,0.0,0.0,0.574554443359375,-1.2010345458984375,Opening,0.0,0.0,0.0,0.0,0.0,0.0,0.0,0.0,
1.0169839999999968,0.0,0.0,14673.0,0.0,0.0,0.0,0.0,0.125,0.8300780400000001,0.01,0.0,2315.0,0.0,0.0,-0.0,0.0,0.125,0.5017089330000001,0.01,0.0,-3459.0,0.0,0.0,0.0,0.0,0.0,3.3691402800000003,0.01,0.0,2504.0,0.0,0.0,-0.0,0.0,0.25,1.645507644,0.01,0.0,0.30000001192092896,-0.6100000143051147,-0.009999999776482582,-0.00946044921875,0.0074462890625,1.0191650390625,34.13999938964844,0.0,1.0,0.574554443359375,-1.2010345458984375,Opening,0.0,0.0,0.0,0.0,0.0,0.0,0.0,0.0,
1.1395310000000172,0.0,0.0,14673.0,0.0,0.0,0.0,0.0,0.125,0.8300780400000001,0.01,0.0,2315.0,0.0,0.0,-0.0,0.0,0.125,0.5017089330000001,0.01,0.0,-3459.0,0.0,0.0,0.0,0.0,0.0,3.3679195770000003,0.01,0.0,2504.0,0.0,0.0,-0.0,0.0,0.25,1.644286941,0.01,0.0,0.30000001192092896,-0.6100000143051147,-0.009999999776482582,-0.0125732421875,0.00439453125,1.0203857421875,34.13999938964844,0.0,-1.0,0.574554443359375,-1.2010345458984375,Opening,0.0,0.0,0.0,0.0,0.0,0.0,0.0,0.0,
1.25325,0.0,0.0,14673.0,0.0,0.0,0.0,0.0,0.125,0.8312987430000001,0.01,0.0,2315.0,0.0,0.0,-0.0,0.0,0.125,0.5017089330000001,0.01,0.0,-3459.0,0.0,0.0,0.0,0.0,0.0,3.3691402800000003,0.01,0.0,2504.0,0.0,0.0,-0.0,0.0,0.25,1.644286941,0.01,0.0,0.30000001192092896,-0.6100000143051147,-0.009999999776482582,-0.0093994140625,0.00567626953125,1.02142333984375,34.13999938964844,0.0,1.0,0.574554443359375,-1.2010345458984375,Opening,0.0,0.0,0.0,0.0,0.0,0.0,0.0,0.0,
1.3720780000000377,0.0,0.0,14673.0,0.0,0.0,0.0,0.0,0.125,0.8300780400000001,0.01,0.0,2315.0,0.0,0.0,-0.0,0.0,0.125,0.5017089330000001,0.01,0.0,-3459.0,0.0,0.0,0.0,0.0,0.0,3.3691402800000003,0.01,0.0,2504.0,0.0,0.0,-0.0,0.0,0.25,1.644286941,0.01,0.0,0.30000001192092896,-0.6100000143051147,-0.009999999776482582,-0.01702880859375,0.00494384765625,1.02313232421875,34.11000061035156,0.0,-6.0,0.574554443359375,-1.2010345458984375,Opening,0.0,0.0,0.0,0.0,0.0,0.0,0.0,0.0,
1.5071350000000092,0.0,0.0,14673.0,0.0,0.0,0.0,0.0,0.125,0.8300780400000001,0.01,0.0,2315.0,0.0,0.0,-0.0,0.0,0.125,0.496826121,0.01,0.0,-3459.0,0.0,0.0,0.0,0.0,0.0,3.3679195770000003,0.01,0.0,2504.0,0.0,0.0,-0.0,0.0,0.25,1.644286941,0.01,0.0,0.28999999165534973,-0.6000000238418579,-0.029999999329447746,-0.01470947265625,-0.0235595703125,1.0137939453125,34.11000061035156,0.0,-4.0,0.574554443359375,-1.2012786865234375,Opening,0.0,0.0,0.0,0.0,0.0,0.0,0.0,0.0,
1.6130030000000262,0.0,0.0,14673.0,0.0,0.0,0.0,0.0,0.125,0.8300780400000001,0.01,0.0,2315.0,0.0,0.0,-0.0,0.0,0.125,0.496826121,0.01,0.0,-3459.0,0.0,0.0,0.0,0.0,0.0,3.3679195770000003,0.01,0.0,2504.0,0.0,0.0,-0.0,0.0,0.25,1.644286941,0.01,0.0,0.33000001311302185,-0.6100000143051147,-0.019999999552965164,-0.00592041015625,0.00439453125,1.036865234375,34.11000061035156,0.0,5.0,0.574554443359375,-1.20159912109375,Opening,0.0,0.0,0.0,0.0,0.0,0.0,0.0,0.0,
1.717795000000042,0.0,0.0,14673.0,0.0,0.0,0.0,0.0,0.125,0.8312987430000001,0.01,0.0,2315.0,0.0,0.0,-0.0,0.0,0.125,0.50048823,0.01,0.0,-3459.0,0.0,0.0,0.0,0.0,0.0,3.3691402800000003,0.01,0.0,2504.0,0.0,0.0,-0.0,0.0,0.25,1.644286941,0.01,0.0,0.30000001192092896,-0.6000000238418579,-0.009999999776482582,-0.01922607421875,0.01885986328125,1.0340576171875,34.11000061035156,0.0,-8.0,0.574554443359375,-1.2016143798828125,Opening,0.0,0.0,0.0,0.0,0.0,0.0,0.0,0.0,
1.8297780000000494,0.0,0.0,14673.0,0.0,0.0,0.0,0.0,0.125,0.8312987430000001,0.01,0.0,2315.0,0.0,0.0,-0.0,0.0,0.125,0.496826121,0.01,0.0,-3459.0,0.0,0.0,0.0,0.0,0.0,3.3679195770000003,0.01,0.0,2504.0,0.0,0.0,-0.0,0.0,0.25,1.644286941,0.01,0.0,0.2800000011920929,-0.6100000143051147,-0.009999999776482582,-0.0020751953125,0.00152587890625,1.0318603515625,34.09000015258789,0.0,8.0,0.574554443359375,-1.2016143798828125,Opening,0.0,0.0,0.0,0.0,0.0,0.0,0.0,0.0,
1.9414490000000224,0.0,0.0,14673.0,0.0,0.0,0.0,0.0,0.125,0.8312987430000001,0.01,0.0,2315.0,0.0,0.0,-0.0,0.0,0.125,0.495605418,0.01,0.0,-3459.0,0.0,0.0,0.0,0.0,0.0,3.3691402800000003,0.01,0.0,2504.0,0.0,0.0,-0.0,0.0,0.25,1.645507644,0.01,0.0,0.30000001192092896,-0.6000000238418579,-0.019999999552965164,-0.01837158203125,-0.0013427734375,1.02398681640625,34.09000015258789,0.0,-7.0,0.574554443359375,-1.2014923095703125,Opening,0.0,0.0,0.0,0.0,0.0,0.0,0.0,0.0,
2.051119999999995,0.0,0.0,14673.0,0.0,0.0,0.0,0.0,0.125,0.8300780400000001,0.01,0.0,2315.0,0.0,0.0,-0.0,0.0,0.125,0.5017089330000001,0.01,0.0,-3459.0,0.0,0.0,0.0,0.0,0.0,3.3679195770000003,0.01,0.0,2504.0,0.0,0.0,-0.0,0.0,0.25,1.645507644,0.01,0.0,0.3100000023841858,-0.6000000238418579,-0.019999999552965164,-0.0086669921875,0.0064697265625,1.01812744140625,34.09000015258789,0.0,2.0,0.574554443359375,-1.2014923095703125,Opening,0.0,0.0,0.0,0.0,0.0,0.0,0.0,0.0,
2.1577790000000387,0.0,0.0,14673.0,0.0,0.0,0.0,0.0,0.125,0.8312987430000001,0.01,0.0,2315.0,0.0,0.0,-0.0,0.0,0.125,0.496826121,0.01,0.0,-3459.0,0.0,0.0,0.0,0.0,0.0,3.3679195770000003,0.01,0.0,2504.0,0.0,0.0,-0.0,0.0,0.25,1.645507644,0.01,0.0,0.30000001192092896,-0.6000000238418579,-0.019999999552965164,-0.009765625,0.01348876953125,1.01800537109375,34.09000015258789,0.0,1.0,0.574554443359375,-1.2014923095703125,Opening,0.0,0.0,0.0,0.0,0.0,0.0,0.0,0.0,
2.2690270000000017,0.0,0.0,14673.0,0.0,0.0,0.0,0.0,0.125,0.8312987430000001,0.01,0.0,2315.0,0.0,0.0,-0.0,0.0,0.125,0.5017089330000001,0.01,0.0,-3459.0,0.0,0.0,0.0,0.0,0.0,3.3679195770000003,0.01,0.0,2504.0,0.125,0.0,-0.0,0.0,0.25,1.644286941,0.01,0.0,0.28999999165534973,-0.6200000047683716,-0.009999999776482582,-0.01324462890625,-0.0035400390625,1.00189208984375,34.09000015258789,0.0,-2.0,0.574554443359375,-1.2015380859375,Opening,0.0,0.0,0.0,0.0,0.0,0.0,0.0,0.0,
2.3854189999999944,0.0,0.0,14673.0,0.0,0.0,0.0,0.0,0.125,0.8312987430000001,0.01,0.0,2315.0,0.0,0.0,-0.0,0.0,0.125,0.496826121,0.01,0.0,-3459.0,0.0,0.0,0.0,0.0,0.0,3.3691402800000003,0.01,0.0,2504.0,0.0,0.0,-0.0,0.0,0.25,1.644286941,0.01,0.0,0.2800000011920929,-0.5799999833106995,-0.029999999329447746,-0.024658203125,-0.0029296875,1.00604248046875,34.119998931884766,0.0,-14.0,0.57470703125,-1.2016448974609375,Opening,0.0,0.0,0.0,0.0,0.0,0.0,0.0,0.0,
2.492710000000021,0.0,0.0,14673.0,0.0,0.0,0.0,0.0,0.125,0.8312987430000001,0.01,0.0,2315.0,0.0,0.0,-0.0,0.0,0.125,0.5017089330000001,0.01,0.0,-3459.0,0.0,0.0,0.0,0.0,0.0,3.3691402800000003,0.01,0.0,2504.0,0.0,0.0,-0.0,0.0,0.25,1.644286941,0.01,0.0,0.30000001192092896,-0.6100000143051147,-0.029999999329447746,-0.00335693359375,3.662109375E-4,1.014892578125,34.119998931884766,0.0,7.0,0.574554443359375,-1.2016448974609375,Opening,0.0,0.0,0.0,0.0,0.0,0.0,0.0,0.0,
2.603094000000041,0.0,0.0,14673.0,0.0,0.0,0.0,0.0,0.125,0.8300780400000001,0.01,0.0,2315.0,0.0,0.0,-0.0,0.0,0.125,0.495605418,0.01,0.0,-3459.0,0.0,0.0,0.0,0.0,0.0,3.3666988740000003,0.01,0.0,2504.0,0.0,0.0,-0.0,0.0,0.25,1.644286941,0.01,0.0,0.30000001192092896,-0.6000000238418579,-0.019999999552965164,-0.02252197265625,0.00885009765625,1.024658203125,34.119998931884766,0.0,-11.0,0.574554443359375,-1.2016448974609375,Opening,0.0,0.0,0.0,0.0,0.0,0.0,0.0,0.0,
2.7137170000000044,0.0,0.0,14673.0,0.0,0.0,0.0,0.0,0.125,0.8312987430000001,0.01,0.0,2315.0,0.0,0.0,-0.0,0.0,0.125,0.5017089330000001,0.01,0.0,-3459.0,0.0,0.0,0.0,0.0,0.0,3.3679195770000003,0.01,0.0,2504.0,0.0,0.0,-0.0,0.0,0.25,1.644286941,0.01,0.0,0.2800000011920929,-0.5799999833106995,-0.019999999552965164,-0.00994873046875,0.00677490234375,1.02020263671875,34.119998931884766,0.0,0.0,0.574554443359375,-1.2016448974609375,Opening,0.0,0.0,0.0,0.0,0.0,0.0,0.0,0.0,
2.8253610000000333,0.0,0.0,14673.0,0.0,0.0,0.0,0.0,0.125,0.8312987430000001,0.01,0.0,2315.0,0.0,0.0,-0.0,0.0,0.125,0.5017089330000001,0.01,0.0,-3459.0,0.0,0.0,0.0,0.0,0.0,3.3679195770000003,0.01,0.0,2504.0,0.0,0.0,-0.0,0.0,0.25,1.645507644,0.01,0.0,0.28999999165534973,-0.6000000238418579,-0.019999999552965164,-0.00830078125,0.00579833984375,1.018798828125,34.130001068115234,0.0,2.0,0.574554443359375,-1.2016448974609375,Opening,0.0,0.0,0.0,0.0,0.0,0.0,0.0,0.0,
2.9360500000000465,0.0,0.0,14673.0,0.0,0.0,0.0,0.0,0.125,0.8312987430000001,0.01,0.0,2315.0,0.0,0.0,-0.0,0.0,0.125,0.5017089330000001,0.01,0.0,-3459.0,0.0,0.0,0.0,0.0,0.0,3.3691402800000003,0.01,0.0,2504.0,0.125,0.0,-0.0,0.0,0.25,1.644286941,0.01,0.0,0.30000001192092896,-0.6000000238418579,-0.009999999776482582,-0.0174560546875,0.00433349609375,1.01806640625,34.130001068115234,0.0,-6.0,0.574554443359375,-1.2016448974609375,Opening,0.0,0.0,0.0,0.0,0.0,0.0,0.0,0.0,
3.049059000000008,0.0,0.0,14673.0,0.0,0.0,0.0,0.0,0.125,0.8312987430000001,0.01,0.0,2315.0,0.0,0.0,-0.0,0.0,0.125,0.5017089330000001,0.01,0.0,-3459.0,0.0,0.0,0.0,0.0,0.0,3.3679195770000003,0.01,0.0,2504.0,0.125,0.0,-0.0,0.0,0.25,1.644286941,0.01,0.0,0.30000001192092896,-0.5899999737739563,0.0,-0.00921630859375,0.00885009765625,1.0169677734375,34.130001068115234,0.0,1.0,0.574554443359375,-1.2016448974609375,Opening,0.0,0.0,0.0,0.0,0.0,0.0,0.0,0.0,
3.1543429999999937,0.0,0.0,14673.0,0.0,0.0,0.0,0.0,0.125,0.8312987430000001,0.01,0.0,2315.0,0.0,0.0,-0.0,0.0,0.125,0.496826121,0.01,0.0,-3459.0,0.0,0.0,0.0,0.0,0.0,3.3679195770000003,0.01,0.0,2504.0,0.0,0.0,-0.0,0.0,0.25,1.644286941,0.01,0.0,0.28999999165534973,-0.6000000238418579,0.0,-0.0074462890625,0.00555419921875,1.02099609375,34.130001068115234,0.0,3.0,0.574554443359375,-1.2016448974609375,Opening,0.0,0.0,0.0,0.0,0.0,0.0,0.0,0.0,
3.2649310000000407,0.0,0.0,14673.0,0.0,0.0,0.0,0.0,0.125,0.8300780400000001,0.01,0.0,2315.0,0.0,0.0,-0.0,0.0,0.125,0.495605418,0.01,0.0,-3459.0,0.0,0.0,0.0,0.0,0.0,3.3679195770000003,0.01,0.0,2504.0,0.0,0.0,-0.0,0.0,0.25,1.645507644,0.01,0.0,0.30000001192092896,-0.5899999737739563,0.0,-0.00909423828125,0.00634765625,1.020263671875,34.130001068115234,0.0,1.0,0.574554443359375,-1.2016448974609375,Opening,0.0,0.0,0.0,0.0,0.0,0.0,0.0,0.0,
3.37217300000001,0.0,0.0,14673.0,0.0,0.0,0.0,0.0,0.125,0.8300780400000001,0.01,0.0,2315.0,0.0,0.0,-0.0,0.0,0.125,0.496826121,0.01,0.0,-3459.0,0.0,0.0,0.0,0.0,0.0,3.3679195770000003,0.01,0.0,2504.0,0.0,0.0,-0.0,0.0,0.25,1.644286941,0.01,0.0,0.30000001192092896,-0.5899999737739563,0.0,-0.01025390625,0.00537109375,1.02215576171875,34.11000061035156,0.0,0.0,0.574554443359375,-1.2016448974609375,Opening,0.0,0.0,0.0,0.0,0.0,0.0,0.0,0.0,
3.4887970000000204,0.0,0.0,14673.0,0.0,0.0,0.0,0.0,0.125,0.8312987430000001,0.01,0.0,2315.0,0.0,0.0,-0.0,0.0,0.125,0.5017089330000001,0.01,0.0,-3459.0,0.0,0.0,0.0,0.0,0.0,3.3691402800000003,0.01,0.0,2504.0,0.125,0.0,-0.0,0.0,0.25,1.644286941,0.01,0.0,0.30000001192092896,-0.5899999737739563,0.0,-0.01031494140625,0.00457763671875,1.017578125,34.11000061035156,0.0,0.0,0.574554443359375,-1.2016448974609375,Opening,0.0,0.0,0.0,0.0,0.0,0.0,0.0,0.0,
3.602646000000008,0.0,0.0,14673.0,0.0,0.0,0.0,0.0,0.125,0.832519446,0.01,0.0,2315.0,0.0,0.0,-0.0,0.0,0.125,0.50048823,0.01,0.0,-3459.0,0.0,0.0,0.0,0.0,0.0,3.3691402800000003,0.01,0.0,2504.0,0.0,0.0,-0.0,0.0,0.25,1.644286941,0.01,0.0,0.28999999165534973,-0.5899999737739563,0.0,-0.0108642578125,0.004638671875,1.0181884765625,34.11000061035156,0.0,0.0,0.574554443359375,-1.2016448974609375,Opening,0.0,0.0,0.0,0.0,0.0,0.0,0.0,0.0,
3.711079000000027,0.0,0.0,14673.0,0.0,0.0,0.0,0.0,0.125,0.8300780400000001,0.01,0.0,2315.0,0.0,0.0,-0.0,0.0,0.125,0.496826121,0.01,0.0,-3459.0,0.0,0.0,0.0,0.0,0.0,3.3679195770000003,0.01,0.0,2504.0,0.125,0.0,-0.0,0.0,0.25,1.645507644,0.01,0.0,0.28999999165534973,-0.5899999737739563,0.009999999776482582,-0.01324462890625,0.005126953125,1.01837158203125,34.11000061035156,0.0,-2.0,0.574554443359375,-1.2016448974609375,Opening,0.0,0.0,0.0,0.0,0.0,0.0,0.0,0.0,
3.822115000000049,0.0,0.0,14673.0,0.0,0.0,0.0,0.0,0.125,0.8300780400000001,0.01,0.0,2315.0,0.0,0.0,-0.0,0.0,0.125,0.496826121,0.01,0.0,-3459.0,0.0,0.0,0.0,0.0,0.0,3.3679195770000003,0.01,0.0,2504.0,0.0,0.0,-0.0,0.0,0.25,1.644286941,0.01,0.0,0.28999999165534973,-0.6000000238418579,0.019999999552965164,-0.01171875,0.0048828125,1.01898193359375,34.11000061035156,0.0,-1.0,0.574554443359375,-1.2016448974609375,Opening,0.0,0.0,0.0,0.0,0.0,0.0,0.0,0.0,
3.9336199999999955,0.0,0.0,14673.0,0.0,0.0,0.0,0.0,0.125,0.8300780400000001,0.01,0.0,2315.0,0.0,0.0,-0.0,0.0,0.125,0.5017089330000001,0.01,0.0,-3459.0,0.0,0.0,0.0,0.0,0.0,3.3691402800000003,0.01,0.0,2504.0,0.0,0.0,-0.0,0.0,0.25,1.645507644,0.01,0.0,0.2800000011920929,-0.5899999737739563,0.019999999552965164,-0.00860595703125,0.007080078125,1.01873779296875,34.119998931884766,0.0,2.0,0.574554443359375,-1.2016448974609375,Opening,0.0,0.0,0.0,0.0,0.0,0.0,0.0,0.0,
4.0496560000000175,0.0,0.0,14673.0,0.0,0.0,0.0,0.0,0.125,0.8300780400000001,0.01,0.0,2315.0,0.0,0.0,-0.0,0.0,0.125,0.495605418,0.01,0.0,-3459.0,0.0,0.0,0.0,0.0,0.0,3.3679195770000003,0.01,0.0,2504.0,0.0,0.0,-0.0,0.0,0.25,1.644286941,0.01,0.0,0.2800000011920929,-0.5899999737739563,0.019999999552965164,-0.00970458984375,0.0050048828125,1.0198974609375,34.119998931884766,0.0,0.0,0.574554443359375,-1.2016448974609375,Opening,0.0,0.0,0.0,0.0,0.0,0.0,0.0,0.0,
4.160121000000043,0.0,0.0,14673.0,0.0,0.0,0.0,0.0,0.125,0.8300780400000001,0.01,0.0,2315.0,0.0,0.0,-0.0,0.0,0.125,0.5017089330000001,0.01,0.0,-3459.0,0.0,0.0,0.0,0.0,0.0,3.3679195770000003,0.01,0.0,2504.0,0.0,0.0,-0.0,0.0,0.25,1.644286941,0.01,0.0,0.28999999165534973,-0.5899999737739563,0.019999999552965164,-0.007080078125,0.0057373046875,1.02093505859375,34.119998931884766,0.0,3.0,0.574554443359375,-1.2016448974609375,Opening,0.0,0.0,0.0,0.0,0.0,0.0,0.0,0.0,
4.27059500000003,0.0,0.0,14673.0,0.0,0.0,0.0,0.0,0.125,0.8300780400000001,0.01,0.0,2315.0,0.0,0.0,-0.0,0.0,0.125,0.496826121,0.01,0.0,-3459.0,0.0,0.0,0.0,0.0,0.0,3.3691402800000003,0.01,0.0,2504.0,0.0,0.0,-0.0,0.0,0.25,1.644286941,0.01,0.0,0.28999999165534973,-0.5899999737739563,0.029999999329447746,-0.0107421875,0.00689697265625,1.01898193359375,34.119998931884766,0.0,0.0,0.574554443359375,-1.2016448974609375,Opening,0.0,0.0,0.0,0.0,0.0,0.0,0.0,0.0,
4.3803880000000355,0.0,0.0,14673.0,0.0,0.0,0.0,0.0,0.125,0.8312987430000001,0.01,0.0,2315.0,0.0,0.0,-0.0,0.0,0.125,0.50048823,0.01,0.0,-3459.0,0.0,0.0,0.0,0.0,0.0,3.3679195770000003,0.01,0.0,2504.0,0.0,0.0,-0.0,0.0,0.25,1.645507644,0.01,0.0,0.28999999165534973,-0.5899999737739563,0.029999999329447746,-0.01104736328125,0.00567626953125,1.01776123046875,34.13999938964844,0.0,0.0,0.574554443359375,-1.2016448974609375,Opening,0.0,0.0,0.0,0.0,0.0,0.0,0.0,0.0,
4.492429000000004,0.0,0.0,14673.0,0.0,0.0,0.0,0.0,0.125,0.8300780400000001,0.01,0.0,2315.0,0.0,0.0,-0.0,0.0,0.125,0.496826121,0.01,0.0,-3459.0,0.0,0.0,0.0,0.0,0.0,3.3691402800000003,0.01,0.0,2504.0,0.0,0.0,-0.0,0.0,0.25,1.644286941,0.01,0.0,0.28999999165534973,-0.5899999737739563,0.029999999329447746,-0.0111083984375,0.007080078125,1.01904296875,34.13999938964844,0.0,0.0,0.574554443359375,-1.2016448974609375,Opening,0.0,0.0,0.0,0.0,0.0,0.0,0.0,0.0,
4.602703000000037,0.0,0.0,14673.0,0.0,0.0,0.0,0.0,0.125,0.8312987430000001,0.01,0.0,2315.0,0.0,0.0,-0.0,0.0,0.125,0.5017089330000001,0.01,0.0,-3459.0,0.0,0.0,0.0,0.0,0.0,3.3691402800000003,0.01,0.0,2504.0,0.125,0.0,-0.0,0.0,0.25,1.644286941,0.01,0.0,0.28999999165534973,-0.5799999833106995,0.03999999910593033,-0.008056640625,0.00482177734375,1.01904296875,34.13999938964844,0.0,2.0,0.574554443359375,-1.2016448974609375,Opening,0.0,0.0,0.0,0.0,0.0,0.0,0.0,0.0,
4.710342999999994,0.0,0.0,14673.0,0.0,0.0,0.0,0.0,0.125,0.8312987430000001,0.01,0.0,2315.0,0.0,0.0,-0.0,0.0,0.125,0.5017089330000001,0.01,0.0,-3459.0,0.0,0.0,0.0,0.0,0.0,3.3679195770000003,0.01,0.0,2504.0,0.0,0.0,-0.0,0.0,0.25,1.644286941,0.01,0.0,0.28999999165534973,-0.5799999833106995,0.03999999910593033,-0.0093994140625,0.00555419921875,1.01751708984375,34.13999938964844,0.0,1.0,0.574554443359375,-1.2016448974609375,Opening,0.0,0.0,0.0,0.0,0.0,0.0,0.0,0.0,
4.819871000000043,0.0,0.0,14673.0,0.0,0.0,0.0,0.0,0.125,0.8312987430000001,0.01,0.0,2315.0,0.0,0.0,-0.0,0.0,0.125,0.5017089330000001,0.01,0.0,-3459.0,0.0,0.0,0.0,0.0,0.0,3.3691402800000003,0.01,0.0,2504.0,0.0,0.0,-0.0,0.0,0.25,1.645507644,0.01,0.0,0.28999999165534973,-0.5799999833106995,0.03999999910593033,-0.00909423828125,0.00634765625,1.017822265625,34.13999938964844,0.0,1.0,0.574554443359375,-1.2016448974609375,Opening,0.0,0.0,0.0,0.0,0.0,0.0,0.0,0.0,
4.930232000000018,0.0,0.0,14673.0,0.0,0.0,0.0,0.0,0.125,0.8312987430000001,0.01,0.0,2315.0,0.0,0.0,-0.0,0.0,0.125,0.5017089330000001,0.01,0.0,-3459.0,0.0,0.0,0.0,0.0,0.0,3.3679195770000003,0.01,0.0,2504.0,0.125,0.0,-0.0,0.0,0.25,1.644286941,0.01,0.0,0.28999999165534973,-0.5799999833106995,0.05000000074505806,-0.00836181640625,-0.0164794921875,1.06561279296875,34.11000061035156,0.0,2.0,0.574554443359375,-1.20159912109375,Closing,0.0,0.0,0.0,0.0,0.0,0.0,0.0,0.0,
5.040241000000038,0.0,0.0,14673.0,0.0,0.0,0.0,0.0,0.125,0.8312987430000001,0.01,0.0,2315.0,0.0,0.0,-0.0,0.0,0.125,0.496826121,0.01,0.0,-3459.0,0.0,0.0,0.0,0.0,0.0,3.3679195770000003,0.01,0.0,2504.0,0.125,0.0,-0.0,0.0,0.25,1.644286941,0.01,0.0,0.30000001192092896,-0.5799999833106995,0.05000000074505806,0.002685546875,-0.0045166015625,1.03033447265625,34.11000061035156,0.0,13.0,0.574554443359375,-1.2017059326171875,Closing,0.0,0.0,0.0,0.0,0.0,0.0,0.0,0.0,
5.16089300000004,0.0,0.0,14673.0,0.0,0.0,0.0,0.0,0.125,0.8300780400000001,0.01,0.0,2315.0,0.0,0.0,-0.0,0.0,0.125,0.5017089330000001,0.01,0.0,-3459.0,0.0,0.0,0.0,0.0,0.0,3.3691402800000003,0.01,0.0,2504.0,0.0,0.0,-0.0,0.0,0.25,1.645507644,0.01,0.0,0.3100000023841858,-0.5699999928474426,0.05000000074505806,0.004638671875,0.0120849609375,1.010986328125,34.11000061035156,0.0,14.0,0.574554443359375,-1.20166015625,Closing,0.0,0.0,0.0,0.0,0.0,0.0,0.0,0.0,
5.268626000000047,0.0,0.0,14673.0,0.0,0.0,0.0,0.0,0.125,0.8300780400000001,0.01,0.0,2315.0,0.0,0.0,-0.0,0.0,0.125,0.5017089330000001,0.01,0.0,-3459.0,0.0,0.0,0.0,0.0,0.0,3.3679195770000003,0.01,0.0,2504.0,0.125,0.0,-0.0,0.0,0.25,1.643066238,0.01,0.0,0.3100000023841858,-0.5799999833106995,0.05000000074505806,-0.01361083984375,0.00103759765625,1.01507568359375,34.11000061035156,0.0,-3.0,0.574554443359375,-1.20166015625,Closing,0.0,0.0,0.0,0.0,0.0,0.0,0.0,0.0,
5.375075000000011,0.0,0.0,14673.0,0.0,0.0,0.0,0.0,0.125,0.8312987430000001,0.01,0.0,2315.0,0.0,0.0,-0.0,0.0,0.125,0.5017089330000001,0.01,0.0,-3459.0,0.0,0.0,0.0,0.0,0.0,3.3691402800000003,0.01,0.0,2504.0,0.0,0.0,-0.0,0.0,0.25,1.645507644,0.01,0.0,0.3100000023841858,-0.5799999833106995,0.05999999865889549,-0.025634765625,0.007568359375,1.02215576171875,34.130001068115234,0.0,-15.0,0.5745849609375,-1.20159912109375,Closing,0.0,0.0,0.0,0.0,0.0,0.0,0.0,0.0,
5.487325000000012,0.0,0.0,14673.0,0.0,0.0,0.0,0.0,0.125,0.8288573370000001,0.01,0.0,2315.0,0.0,0.0,-0.0,0.0,0.125,0.496826121,0.01,0.0,-3459.0,0.0,0.0,0.0,0.0,0.0,3.3679195770000003,0.01,0.0,2504.0,0.125,0.0,-0.0,0.0,0.25,1.644286941,0.01,0.0,0.3100000023841858,-0.5699999928474426,0.05999999865889549,0.00201416015625,0.02288818359375,1.011962890625,34.130001068115234,0.0,12.0,0.5746002197265625,-1.20159912109375,Closing,0.0,0.0,0.0,0.0,0.0,0.0,0.0,0.0,
5.595003000000026,0.0,0.0,14673.0,0.0,0.0,0.0,0.0,0.125,0.8312987430000001,0.01,0.0,2315.0,0.0,0.0,-0.0,0.0,0.125,0.5017089330000001,0.01,0.0,-3459.0,0.0,0.0,0.0,0.0,0.0,3.3691402800000003,0.01,0.0,2504.0,0.125,0.0,-0.0,0.0,0.25,1.645507644,0.01,0.0,0.30000001192092896,-0.5600000023841858,0.07000000029802322,-0.01910400390625,0.01531982421875,1.03582763671875,34.130001068115234,0.0,-8.0,0.5746002197265625,-1.20159912109375,Closing,0.0,0.0,0.0,0.0,0.0,0.0,0.0,0.0,
5.707338000000047,0.0,0.0,14673.0,0.0,0.0,0.0,0.0,0.125,0.8300780400000001,0.01,0.0,2315.0,0.0,0.0,-0.0,0.0,0.125,0.496826121,0.01,0.0,-3459.0,0.0,0.0,0.0,0.0,0.0,3.3691402800000003,0.01,0.0,2504.0,0.125,0.0,-0.0,0.0,0.25,1.644286941,0.01,0.0,0.30000001192092896,-0.5699999928474426,0.07999999821186066,-0.0107421875,0.01409912109375,1.0155029296875,34.130001068115234,0.0,0.0,0.5746002197265625,-1.2015228271484375,Closing,0.0,0.0,0.0,0.0,0.0,0.0,0.0,0.0,
5.814512000000046,0.0,0.0,14673.0,0.0,0.0,0.0,0.0,0.125,0.8300780400000001,0.01,0.0,2315.0,0.0,0.0,-0.0,0.0,0.125,0.495605418,0.01,0.0,-3459.0,0.0,0.0,0.0,0.0,0.0,3.3679195770000003,0.01,0.0,2504.0,0.0,0.0,-0.0,0.0,0.25,1.645507644,0.01,0.0,0.30000001192092896,-0.5699999928474426,0.07999999821186066,-0.042724609375,-0.008544921875,1.032470703125,34.130001068115234,0.0,-32.0,0.5745849609375,-1.201629638671875,Closing,0.0,0.0,0.0,0.0,0.0,0.0,0.0,0.0,
5.925298999999999,0.0,0.0,14673.0,0.0,0.0,0.0,0.0,0.125,0.8312987430000001,0.01,0.0,2315.0,0.0,0.0,-0.0,0.0,0.125,0.496826121,0.01,0.0,-3459.0,0.0,0.0,0.0,0.0,0.0,3.3679195770000003,0.01,0.0,2504.0,0.0,0.0,-0.0,0.0,0.25,1.644286941,0.01,0.0,0.3100000023841858,-0.5699999928474426,0.07999999821186066,-0.01239013671875,-0.0157470703125,1.0067138671875,34.11000061035156,0.0,-2.0,0.57452392578125,-1.20196533203125,Closing,0.0,0.0,0.0,0.0,0.0,0.0,0.0,0.0,
6.033920000000042,0.0,0.0,14673.0,0.0,0.0,0.0,0.0,0.125,0.8312987430000001,0.01,0.0,2315.0,0.0,0.0,-0.0,0.0,0.125,0.5017089330000001,0.01,0.0,-3459.0,0.0,0.0,0.0,0.0,0.0,3.3691402800000003,0.01,0.0,2504.0,0.0,0.0,-0.0,0.0,0.25,1.644286941,0.01,0.0,0.3100000023841858,-0.5699999928474426,0.07999999821186066,0.0135498046875,-0.0439453125,1.01751708984375,34.11000061035156,0.0,23.0,0.5745391845703125,-1.2021484375,Closing,0.0,0.0,0.0,0.0,0.0,0.0,0.0,0.0,
6.151119000000006,0.0,0.0,14673.0,0.0,0.0,0.0,0.0,0.125,0.8300780400000001,0.01,0.0,2315.0,0.0,0.0,-0.0,0.0,0.125,0.496826121,0.01,0.0,-3459.0,0.0,0.0,0.0,0.0,0.0,3.3679195770000003,0.01,0.0,2504.0,0.0,0.0,-0.0,0.0,0.25,1.644286941,0.01,0.0,0.28999999165534973,-0.5699999928474426,0.09000000357627869,-0.007568359375,0.01531982421875,1.0147705078125,34.11000061035156,0.0,2.0,0.574615478515625,-1.202178955078125,Closing,0.0,0.0,0.0,0.0,0.0,0.0,0.0,0.0,
6.261793999999995,0.0,0.0,14673.0,0.0,0.0,0.0,0.0,0.125,0.8312987430000001,0.01,0.0,2315.0,0.0,0.0,-0.0,0.0,0.125,0.5017089330000001,0.01,0.0,-3459.0,0.0,0.0,0.0,0.0,0.0,3.3691402800000003,0.01,0.0,2504.0,0.0,0.0,-0.0,0.0,0.25,1.644286941,0.01,0.0,0.28999999165534973,-0.5799999833106995,0.10000000149011612,-0.01092529296875,0.016845703125,1.0411376953125,34.11000061035156,0.0,0.0,0.5746917724609375,-1.202178955078125,Closing,0.0,0.0,0.0,0.0,0.0,0.0,0.0,0.0,
6.372945000000007,0.0,0.0,14673.0,0.0,0.0,0.0,0.0,0.125,0.8312987430000001,0.01,0.0,2315.0,0.0,0.0,-0.0,0.0,0.125,0.5017089330000001,0.01,0.0,-3459.0,0.0,0.0,0.0,0.0,0.0,3.3691402800000003,0.01,0.0,2504.0,0.0,0.0,-0.0,0.0,0.25,1.644286941,0.01,0.0,0.28999999165534973,-0.5799999833106995,0.10999999940395355,0.00140380859375,-7.9345703125E-4,1.00140380859375,34.09000015258789,0.0,11.0,0.5746917724609375,-1.202239990234375,Closing,0.0,0.0,0.0,0.0,0.0,0.0,0.0,0.0,
6.509728999999992,0.0,0.0,14673.0,0.0,0.0,0.0,0.0,0.125,0.8300780400000001,0.01,0.0,2315.0,0.0,0.0,-0.0,0.0,0.125,0.5017089330000001,0.01,0.0,-3459.0,0.0,0.0,0.0,0.0,0.0,3.3679195770000003,0.01,0.0,2504.0,0.0,0.0,-0.0,0.0,0.25,1.645507644,0.01,0.0,0.2800000011920929,-0.5799999833106995,0.10999999940395355,-0.00592041015625,0.00494384765625,1.0059814453125,34.09000015258789,0.0,4.0,0.5746917724609375,-1.202239990234375,Closing,0.0,0.0,0.0,0.0,0.0,0.0,0.0,0.0,
6.617282999999996,0.0,0.0,14673.0,0.0,0.0,0.0,0.0,0.125,0.8300780400000001,0.01,0.0,2315.0,0.0,0.0,-0.0,0.0,0.125,0.5017089330000001,0.01,0.0,-3459.0,0.0,0.0,0.0,0.0,0.0,3.3691402800000003,0.01,0.0,2504.0,0.125,0.0,-0.0,0.0,0.25,1.644286941,0.01,0.0,0.28999999165534973,-0.5799999833106995,0.10999999940395355,-0.01043701171875,0.00518798828125,1.02001953125,34.09000015258789,0.0,0.0,0.5746917724609375,-1.202239990234375,Closing,0.0,0.0,0.0,0.0,0.0,0.0,0.0,0.0,
6.729442000000039,0.0,0.0,14673.0,0.0,0.0,0.0,0.0,0.125,0.8300780400000001,0.01,0.0,2315.0,0.0,0.0,-0.0,0.0,0.125,0.5017089330000001,0.01,0.0,-3459.0,0.0,0.0,0.0,0.0,0.0,3.3691402800000003,0.01,0.0,2504.0,0.0,0.0,-0.0,0.0,0.25,1.644286941,0.01,0.0,0.28999999165534973,-0.5799999833106995,0.10999999940395355,-0.00958251953125,0.0068359375,1.02716064453125,34.09000015258789,0.0,0.0,0.5746917724609375,-1.202239990234375,Closing,0.0,0.0,0.0,0.0,0.0,0.0,0.0,0.0,
6.836344000000041,0.0,0.0,14673.0,0.0,0.0,0.0,0.0,0.125,0.8312987430000001,0.01,0.0,2315.0,0.0,0.0,-0.0,0.0,0.125,0.50048823,0.01,0.0,-3459.0,0.0,0.0,0.0,0.0,0.0,3.3679195770000003,0.01,0.0,2504.0,0.0,0.0,-0.0,0.0,0.25,1.644286941,0.01,0.0,0.28999999165534973,-0.5799999833106995,0.10999999940395355,-0.0089111328125,0.00537109375,1.014892578125,34.09000015258789,0.0,1.0,0.5746917724609375,-1.202239990234375,Closing,0.0,0.0,0.0,0.0,0.0,0.0,0.0,0.0,
6.948760999999998,0.0,0.0,14673.0,0.0,0.0,0.0,0.0,0.125,0.8312987430000001,0.01,0.0,2315.0,0.0,0.0,-0.0,0.0,0.125,0.496826121,0.01,0.0,-3459.0,0.0,0.0,0.0,0.0,0.0,3.3679195770000003,0.01,0.0,2504.0,0.0,0.0,-0.0,0.0,0.25,1.644286941,0.01,0.0,0.28999999165534973,-0.5799999833106995,0.10999999940395355,-0.0098876953125,0.005126953125,1.02288818359375,34.11000061035156,0.0,0.0,0.5746917724609375,-1.202239990234375,Closing,0.0,0.0,0.0,0.0,0.0,0.0,0.0,0.0,
7.057657000000007,0.0,0.0,14673.0,0.0,0.0,0.0,0.0,0.125,0.8312987430000001,0.01,0.0,2315.0,0.0,0.0,-0.0,0.0,0.125,0.496826121,0.01,0.0,-3459.0,0.0,0.0,0.0,0.0,0.0,3.3679195770000003,0.01,0.0,2504.0,0.0,0.0,-0.0,0.0,0.25,1.645507644,0.01,0.0,0.28999999165534973,-0.5799999833106995,0.10999999940395355,-0.012451171875,0.00762939453125,1.02471923828125,34.11000061035156,0.0,-1.0,0.5746917724609375,-1.202239990234375,Closing,0.0,0.0,0.0,0.0,0.0,0.0,0.0,0.0,
7.166860000000044,0.0,0.0,14673.0,0.0,0.0,0.0,0.0,0.125,0.8312987430000001,0.01,0.0,2315.0,0.0,0.0,-0.0,0.0,0.125,0.496826121,0.01,0.0,-3459.0,0.0,0.0,0.0,0.0,0.0,3.3679195770000003,0.01,0.0,2504.0,0.0,0.0,-0.0,0.0,0.25,1.644286941,0.01,0.0,0.28999999165534973,-0.5799999833106995,0.11999999731779099,-0.0106201171875,0.0064697265625,1.02471923828125,34.11000061035156,0.0,0.0,0.5746917724609375,-1.202239990234375,Closing,0.0,0.0,0.0,0.0,0.0,0.0,0.0,0.0,
7.285159000000044,0.0,0.0,14673.0,0.0,0.0,0.0,0.0,0.125,0.8312987430000001,0.01,0.0,2315.0,0.0,0.0,-0.0,0.0,0.125,0.496826121,0.01,0.0,-3459.0,0.0,0.0,0.0,0.0,0.0,3.3691402800000003,0.01,0.0,2504.0,0.0,0.0,-0.0,0.0,0.25,1.645507644,0.01,0.0,0.28999999165534973,-0.5799999833106995,0.11999999731779099,-0.0135498046875,0.00616455078125,1.0186767578125,34.11000061035156,0.0,-3.0,0.5746917724609375,-1.202239990234375,Closing,0.0,0.0,0.0,0.0,0.0,0.0,0.0,0.0,
7.404953000000038,0.0,0.0,14673.0,0.0,0.0,0.0,0.0,0.125,0.8300780400000001,0.01,0.0,2315.0,0.0,0.0,-0.0,0.0,0.125,0.5017089330000001,0.01,0.0,-3459.0,0.0,0.0,0.0,0.0,0.0,3.3691402800000003,0.01,0.0,2504.0,0.125,0.0,-0.0,0.0,0.25,1.645507644,0.01,0.0,0.2800000011920929,-0.5799999833106995,0.12999999523162842,0.01422119140625,-0.05303955078125,1.0452880859375,34.130001068115234,0.0,24.0,0.574615478515625,-1.2023773193359375,Closing,0.0,0.0,0.0,0.0,0.0,0.0,0.0,0.0,
7.5234090000000435,0.0,0.0,14673.0,0.0,0.0,0.0,0.0,0.125,0.8312987430000001,0.01,0.0,2315.0,0.0,0.0,-0.0,0.0,0.125,0.5017089330000001,0.01,0.0,-3459.0,0.0,0.0,0.0,0.0,0.0,3.3679195770000003,0.01,0.0,2504.0,0.125,0.0,-0.0,0.0,0.25,1.644286941,0.01,0.0,0.25,-0.5899999737739563,0.11999999731779099,0.136962890625,-0.14312744140625,0.62066650390625,34.130001068115234,0.0,143.0,0.5745391845703125,-1.2030487060546875,Closing,0.0,0.0,0.0,0.0,0.0,0.0,0.0,0.0,
7.650529000000039,0.0,0.0,14673.0,0.0,0.0,0.0,0.0,0.125,0.8312987430000001,0.01,0.0,2315.0,0.0,0.0,-0.0,0.0,0.125,0.5017089330000001,0.01,0.0,-3459.0,0.0,0.0,0.0,0.0,0.0,3.3679195770000003,0.01,0.0,2504.0,0.0,0.0,-0.0,0.0,0.25,1.644286941,0.01,0.0,0.1899999976158142,-0.5899999737739563,0.12999999523162842,-0.07769775390625,0.06561279296875,0.94232177734375,34.130001068115234,0.0,-67.0,0.5768585205078125,-1.203643798828125,Closing,0.0,0.0,0.0,0.0,0.0,0.0,0.0,0.0,
7.768266999999993,0.0,0.0,14673.0,0.0,0.0,0.0,0.0,0.125,0.8300780400000001,0.01,0.0,2315.0,0.0,0.0,-0.0,0.0,0.125,0.5017089330000001,0.01,0.0,-3459.0,0.0,0.0,0.0,0.0,0.0,3.3679195770000003,0.01,0.0,2504.0,0.125,0.0,-0.0,0.0,0.25,1.644286941,0.01,0.0,0.20000000298023224,-0.5799999833106995,0.15000000596046448,0.03326416015625,0.15863037109375,1.00543212890625,34.130001068115234,0.0,43.0,0.577484130859375,-1.2030181884765625,Closing,0.0,0.0,0.0,0.0,0.0,0.0,0.0,0.0,
7.885395000000019,0.0,0.0,14673.0,0.0,0.0,0.0,0.0,0.125,0.8300780400000001,0.01,0.0,2315.0,0.0,0.0,-0.0,0.0,0.125,0.5017089330000001,0.01,0.0,-3459.0,0.0,0.0,0.0,0.0,0.0,3.3679195770000003,0.01,0.0,2504.0,0.0,0.0,-0.0,0.0,0.25,1.644286941,0.01,0.0,0.23999999463558197,-0.5799999833106995,0.14000000059604645,-0.0225830078125,0.02935791015625,1.0887451171875,34.130001068115234,0.0,-11.0,0.578521728515625,-1.2000732421875,Closing,0.0,0.0,0.0,0.0,0.0,0.0,0.0,0.0,
8.007206000000005,0.0,0.0,14673.0,0.0,0.0,0.0,0.0,0.125,0.8312987430000001,0.01,0.0,2315.0,0.0,0.0,-0.0,0.0,0.125,0.5017089330000001,0.01,0.0,-3459.0,0.0,0.0,0.0,0.0,0.0,3.3691402800000003,0.01,0.0,2504.0,0.125,0.0,-0.0,0.0,0.25,1.645507644,0.01,0.0,0.27000001072883606,-0.5699999928474426,0.14000000059604645,0.01434326171875,-0.01336669921875,1.031982421875,34.150001525878906,0.0,24.0,0.5785369873046875,-1.1998291015625,Closing,0.0,0.0,0.0,0.0,0.0,0.0,0.0,0.0,
8.124344000000042,0.0,0.0,14673.0,0.0,0.0,0.0,0.0,0.125,0.8300780400000001,0.01,0.0,2315.0,0.0,0.0,-0.0,0.0,0.125,0.5017089330000001,0.01,0.0,-3459.0,0.0,0.0,0.0,0.0,0.0,3.3679195770000003,0.01,0.0,2504.0,0.125,0.0,-0.0,0.0,0.25,1.645507644,0.01,0.0,0.27000001072883606,-0.5600000023841858,0.15000000596046448,-0.017822265625,-4.2724609375E-4,1.03759765625,34.150001525878906,0.0,-7.0,0.578582763671875,-1.19989013671875,Closing,0.0,0.0,0.0,0.0,0.0,0.0,0.0,0.0,
8.245514000000025,0.0,0.0,14673.0,0.0,0.0,0.0,0.0,0.125,0.8312987430000001,0.01,0.0,2315.0,0.0,0.0,-0.0,0.0,0.125,0.5017089330000001,0.01,0.0,-3459.0,0.0,0.0,0.0,0.0,0.0,3.3691402800000003,0.01,0.0,2504.0,0.0,0.0,-0.0,0.0,0.25,1.644286941,0.01,0.0,0.2199999988079071,-0.5199999809265137,0.14000000059604645,0.00537109375,-0.004638671875,0.9639892578125,34.150001525878906,0.0,14.0,0.57916259765625,-1.20123291015625,Closing,0.0,0.0,0.0,0.0,0.0,0.0,0.0,0.0,
8.364983999999996,0.0,0.0,14673.0,0.0,0.0,0.0,0.0,0.125,0.8312987430000001,0.01,0.0,2315.0,0.0,0.0,-0.0,0.0,0.125,0.5017089330000001,0.01,0.0,-3459.0,0.0,0.0,0.0,0.0,0.0,3.3679195770000003,0.01,0.0,2504.0,0.0,0.0,-0.0,0.0,0.25,1.644286941,0.01,0.0,0.23999999463558197,-0.5400000214576721,0.14000000059604645,-0.003662109375,0.01348876953125,1.01123046875,34.150001525878906,0.0,5.0,0.57965087890625,-1.2012786865234375,Closing,0.0,0.0,0.0,0.0,0.0,0.0,0.0,0.0,
8.47468200000003,0.0,0.0,14673.0,0.0,0.0,0.0,0.0,0.125,0.8300780400000001,0.01,0.0,2315.0,0.0,0.0,-0.0,0.0,0.125,0.5017089330000001,0.01,0.0,-3459.0,0.0,0.0,0.0,0.0,0.0,3.3679195770000003,0.01,0.0,2504.0,0.125,0.0,-0.0,0.0,0.25,1.644286941,0.01,0.0,0.27000001072883606,-0.550000011920929,0.1599999964237213,-0.01837158203125,-0.00958251953125,0.98828125,34.130001068115234,0.0,-8.0,0.57965087890625,-1.20147705078125,Closing,0.0,0.0,0.0,0.0,0.0,0.0,0.0,0.0,
8.594577000000049,0.0,0.0,14673.0,0.0,0.0,0.0,0.0,0.125,0.8300780400000001,0.01,0.0,2315.0,0.0,0.0,-0.0,0.0,0.125,0.50048823,0.01,0.0,-3459.0,0.0,0.0,0.0,0.0,0.0,3.3679195770000003,0.01,0.0,2504.0,0.0,0.0,-0.0,0.0,0.25,1.644286941,0.01,0.0,0.25,-0.550000011920929,0.17000000178813934,-0.01318359375,0.03155517578125,1.0306396484375,34.130001068115234,0.0,-3.0,0.57965087890625,-1.2014617919921875,Closing,0.0,0.0,0.0,0.0,0.0,0.0,0.0,0.0,
8.714175000000047,0.0,0.0,14673.0,0.0,0.0,0.0,0.0,0.125,0.8300780400000001,0.01,0.0,2315.0,0.0,0.0,-0.0,0.0,0.125,0.5017089330000001,0.01,0.0,-3459.0,0.0,0.0,0.0,0.0,0.0,3.3679195770000003,0.01,0.0,2504.0,0.0,0.0,-0.0,0.0,0.25,1.645507644,0.01,0.0,0.25,-0.550000011920929,0.17000000178813934,-0.0037841796875,-4.2724609375E-4,1.0064697265625,34.130001068115234,0.0,5.0,0.57965087890625,-1.201385498046875,Closing,0.0,0.0,0.0,0.0,0.0,0.0,0.0,0.0,
8.841237000000023,0.0,0.0,14673.0,0.0,0.0,0.0,0.0,0.125,0.8300780400000001,0.01,0.0,2315.0,0.0,0.0,-0.0,0.0,0.125,0.5017089330000001,0.01,0.0,-3459.0,0.0,0.0,0.0,0.0,0.0,3.3691402800000003,0.01,0.0,2504.0,0.0,0.0,-0.0,0.0,0.25,1.644286941,0.01,0.0,0.25999999046325684,-0.550000011920929,0.18000000715255737,-0.00537109375,0.007080078125,1.00830078125,34.130001068115234,0.0,4.0,0.57965087890625,-1.201385498046875,Closing,0.0,0.0,0.0,0.0,0.0,0.0,0.0,0.0,
8.955487000000023,0.0,0.0,14673.0,0.0,0.0,0.0,0.0,0.125,0.8312987430000001,0.01,0.0,2315.0,0.0,0.0,-0.0,0.0,0.125,0.5017089330000001,0.01,0.0,-3459.0,0.0,0.0,0.0,0.0,0.0,3.3679195770000003,0.01,0.0,2504.0,0.0,0.0,-0.0,0.0,0.25,1.645507644,0.01,0.0,0.27000001072883606,-0.5699999928474426,0.18000000715255737,-0.0089111328125,7.32421875E-4,1.01190185546875,34.13999938964844,0.0,1.0,0.57965087890625,-1.201385498046875,Closing,0.0,0.0,0.0,0.0,0.0,0.0,0.0,0.0,
9.06606700000004,0.0,0.0,14673.0,0.0,0.0,0.0,0.0,0.125,0.8312987430000001,0.01,0.0,2315.0,0.0,0.0,-0.0,0.0,0.125,0.5017089330000001,0.01,0.0,-3459.0,0.0,0.0,0.0,0.0,0.0,3.3679195770000003,0.01,0.0,2504.0,0.0,0.0,-0.0,0.0,0.25,1.644286941,0.01,0.0,0.3100000023841858,-0.5299999713897705,0.1599999964237213,-0.001708984375,-0.003662109375,0.9595947265625,34.13999938964844,0.0,7.0,0.579925537109375,-1.2007598876953125,Closing,0.0,0.0,0.0,0.0,0.0,0.0,0.0,0.0,
9.173943000000028,0.0,0.0,14673.0,0.0,0.0,0.0,0.0,0.125,0.8300780400000001,0.01,0.0,2315.0,0.0,0.0,-0.0,0.0,0.125,0.5017089330000001,0.01,0.0,-3459.0,0.0,0.0,0.0,0.0,0.0,3.3691402800000003,0.01,0.0,2504.0,0.0,0.0,-0.0,0.0,0.25,1.645507644,0.01,0.0,0.3100000023841858,-0.5699999928474426,0.20000000298023224,0.0386962890625,0.0277099609375,0.9801025390625,34.13999938964844,0.0,48.0,0.580230712890625,-1.199310302734375,Closing,0.0,0.0,0.0,0.0,0.0,0.0,0.0,0.0,
9.286504000000015,0.0,0.0,14673.0,0.0,0.0,0.0,0.0,0.125,0.8300780400000001,0.01,0.0,2315.0,0.0,0.0,-0.0,0.0,0.125,0.5017089330000001,0.01,0.0,-3459.0,0.0,0.0,0.0,0.0,0.0,3.3679195770000003,0.01,0.0,2504.0,0.0,0.0,-0.0,0.0,0.25,1.645507644,0.01,0.0,0.2800000011920929,-0.550000011920929,0.1899999976158142,-0.0010986328125,-0.0067138671875,1.0150146484375,34.13999938964844,0.0,8.0,0.5801544189453125,-1.1990203857421875,Closing,0.0,0.0,0.0,0.0,0.0,0.0,0.0,0.0,
9.394661000000022,0.0,0.0,14673.0,0.0,0.0,0.0,0.0,0.125,0.8312987430000001,0.01,0.0,2315.0,0.0,0.0,-0.0,0.0,0.125,0.50048823,0.01,0.0,-3459.0,0.0,0.0,0.0,0.0,0.0,3.3679195770000003,0.01,0.0,2504.0,0.0,0.0,-0.0,0.0,0.25,1.645507644,0.01,0.0,0.30000001192092896,-0.5600000023841858,0.1899999976158142,-0.00909423828125,-0.007568359375,1.0257568359375,34.13999938964844,0.0,1.0,0.5801544189453125,-1.1988983154296875,Closing,0.0,0.0,0.0,0.0,0.0,0.0,0.0,0.0,
9.509743000000016,0.0,0.0,14673.0,0.0,0.0,0.0,0.0,0.125,0.8300780400000001,0.01,0.0,2315.0,0.0,0.0,-0.0,0.0,0.125,0.5017089330000001,0.01,0.0,-3459.0,0.0,0.0,0.0,0.0,0.0,3.3691402800000003,0.01,0.0,2504.0,0.125,0.0,-0.0,0.0,0.25,1.644286941,0.01,0.0,0.3199999928474426,-0.5600000023841858,0.20000000298023224,-0.016845703125,0.01409912109375,1.0093994140625,34.130001068115234,0.0,-6.0,0.5801544189453125,-1.1988983154296875,Closing,0.0,0.0,0.0,0.0,0.0,0.0,0.0,0.0,
9.617501000000047,0.0,0.0,14673.0,0.0,0.0,0.0,0.0,0.125,0.8300780400000001,0.01,0.0,2315.0,0.0,0.0,-0.0,0.0,0.125,0.5017089330000001,0.01,0.0,-3459.0,0.0,0.0,0.0,0.0,0.0,3.3679195770000003,0.01,0.0,2504.0,0.0,0.0,-0.0,0.0,0.25,1.644286941,0.01,0.0,0.30000001192092896,-0.550000011920929,0.20000000298023224,-0.00811767578125,0.01275634765625,1.02099609375,34.130001068115234,0.0,1.0,0.5801544189453125,-1.1988983154296875,Closing,0.0,0.0,0.0,0.0,0.0,0.0,0.0,0.0,
9.729216000000015,0.0,0.0,14673.0,0.0,0.0,0.0,0.0,0.125,0.8312987430000001,0.01,0.0,2315.0,0.0,0.0,-0.0,0.0,0.125,0.5017089330000001,0.01,0.0,-3459.0,0.0,0.0,0.0,0.0,0.0,3.3691402800000003,0.01,0.0,2504.0,0.125,0.0,-0.0,0.0,0.25,1.644286941,0.01,0.0,0.30000001192092896,-0.5600000023841858,0.1899999976158142,-0.00518798828125,0.0064697265625,1.02496337890625,34.130001068115234,0.0,4.0,0.5801544189453125,-1.1988983154296875,Closing,0.0,0.0,0.0,0.0,0.0,0.0,0.0,0.0,
9.837486000000034,0.0,0.0,14673.0,0.0,0.0,0.0,0.0,0.125,0.8312987430000001,0.01,0.0,2315.0,0.0,0.0,-0.0,0.0,0.125,0.5017089330000001,0.01,0.0,-3459.0,0.0,0.0,0.0,0.0,0.0,3.3679195770000003,0.01,0.0,2504.0,0.0,0.0,-0.0,0.0,0.25,1.644286941,0.01,0.0,0.3100000023841858,-0.5600000023841858,0.1899999976158142,-0.01165771484375,0.00225830078125,1.01995849609375,34.130001068115234,0.0,-1.0,0.5801544189453125,-1.1988983154296875,Closing,0.0,0.0,0.0,0.0,0.0,0.0,0.0,0.0,
9.949059000000009,0.0,0.0,14673.0,0.0,0.0,0.0,0.0,0.125,0.8312987430000001,0.01,0.0,2315.0,0.0,0.0,-0.0,0.0,0.125,0.50048823,0.01,0.0,-3459.0,0.0,0.0,0.0,0.0,0.0,3.3691402800000003,0.01,0.0,2504.0,0.0,0.0,-0.0,0.0,0.25,1.644286941,0.01,0.0,0.3100000023841858,-0.550000011920929,0.18000000715255737,-0.02337646484375,0.009521484375,1.0123291015625,34.099998474121094,0.0,-13.0,0.5801544189453125,-1.1988983154296875,Closing,0.0,0.0,0.0,0.0,0.0,0.0,0.0,0.0,
10.067475000000035,0.0,0.0,14673.0,0.0,0.0,0.0,0.0,0.125,0.8312987430000001,0.01,0.0,2315.0,0.0,0.0,-0.0,0.0,0.125,0.5017089330000001,0.01,0.0,-3459.0,0.0,0.0,0.0,0.0,0.0,3.3679195770000003,0.01,0.0,2504.0,0.0,0.0,-0.0,0.0,0.25,1.644286941,0.01,0.0,0.30000001192092896,-0.5600000023841858,0.1899999976158142,-0.0206298828125,0.00341796875,1.021484375,34.099998474121094,0.0,-10.0,0.5801544189453125,-1.1988983154296875,Closing,0.0,0.0,0.0,0.0,0.0,0.0,0.0,0.0,
10.171967000000004,0.0,0.0,14673.0,0.0,0.0,0.0,0.0,0.125,0.8312987430000001,0.01,0.0,2315.0,0.0,0.0,-0.0,0.0,0.125,0.5017089330000001,0.01,0.0,-3459.0,0.0,0.0,0.0,0.0,0.0,3.3666988740000003,0.01,0.0,2504.0,0.0,0.0,-0.0,0.0,0.25,1.644286941,0.01,0.0,0.30000001192092896,-0.5600000023841858,0.1899999976158142,-0.0084228515625,0.01837158203125,1.02593994140625,34.099998474121094,0.0,1.0,0.5801544189453125,-1.1988983154296875,Closing,0.0,0.0,0.0,0.0,0.0,0.0,0.0,0.0,
10.271847000000008,0.0,0.0,14673.0,0.0,0.0,0.0,0.0,0.125,0.8312987430000001,0.01,0.0,2315.0,0.0,0.0,-0.0,0.0,0.125,0.5017089330000001,0.01,0.0,-3459.0,0.0,0.0,0.0,0.0,0.0,3.3691402800000003,0.01,0.0,2504.0,0.125,0.0,-0.0,0.0,0.25,1.644286941,0.01,0.0,0.30000001192092896,-0.5600000023841858,0.1899999976158142,-0.00592041015625,0.00445556640625,1.0216064453125,34.099998474121094,0.0,4.0,0.5801544189453125,-1.1988983154296875,Closing,0.0,0.0,0.0,0.0,0.0,0.0,0.0,0.0,
10.383325000000012,0.0,0.0,14673.0,0.0,0.0,0.0,0.0,0.125,0.8300780400000001,0.01,0.0,2315.0,0.0,0.0,-0.0,0.0,0.125,0.5017089330000001,0.01,0.0,-3459.0,0.0,0.0,0.0,0.0,0.0,3.3679195770000003,0.01,0.0,2504.0,0.125,0.0,-0.0,0.0,0.25,1.644286941,0.01,0.0,0.30000001192092896,-0.5600000023841858,0.1899999976158142,-0.00762939453125,-6.7138671875E-4,1.0218505859375,34.099998474121094,0.0,2.0,0.5801544189453125,-1.1988983154296875,Closing,0.0,0.0,0.0,0.0,0.0,0.0,0.0,0.0,
10.491322000000043,0.0,0.0,14673.0,0.0,0.0,0.0,0.0,0.125,0.8312987430000001,0.01,0.0,2315.0,0.0,0.0,-0.0,0.0,0.125,0.5017089330000001,0.01,0.0,-3459.0,0.0,0.0,0.0,0.0,0.0,3.3691402800000003,0.01,0.0,2504.0,0.0,0.0,-0.0,0.0,0.25,1.644286941,0.01,0.0,0.30000001192092896,-0.5699999928474426,0.1899999976158142,-0.007568359375,5.4931640625E-4,1.025634765625,34.150001525878906,0.0,2.0,0.5801544189453125,-1.1988983154296875,Closing,0.0,0.0,0.0,0.0,0.0,0.0,0.0,0.0,
10.60133600000001,0.0,0.0,14673.0,0.0,0.0,0.0,0.0,0.125,0.8312987430000001,0.01,0.0,2315.0,0.0,0.0,-0.0,0.0,0.125,0.5017089330000001,0.01,0.0,-3459.0,0.0,0.0,0.0,0.0,0.0,3.3666988740000003,0.01,0.0,2504.0,0.0,0.0,-0.0,0.0,0.25,1.645507644,0.01,0.0,0.30000001192092896,-0.5600000023841858,0.1899999976158142,-0.005615234375,0.00482177734375,1.0172119140625,34.150001525878906,0.0,4.0,0.5801544189453125,-1.1988983154296875,Closing,0.0,0.0,0.0,0.0,0.0,0.0,0.0,0.0,
10.71117100000003,0.0,0.0,14673.0,0.0,0.0,0.0,0.0,0.125,0.8300780400000001,0.01,0.0,2315.0,0.0,0.0,-0.0,0.0,0.125,0.5017089330000001,0.01,0.0,-3459.0,0.0,0.0,0.0,0.0,0.0,3.3691402800000003,0.01,0.0,2504.0,0.0,0.0,-0.0,0.0,0.25,1.645507644,0.01,0.0,0.30000001192092896,-0.5600000023841858,0.20000000298023224,-0.01220703125,6.103515625E-4,1.02197265625,34.150001525878906,0.0,-2.0,0.5801544189453125,-1.1988983154296875,Closing,0.0,0.0,0.0,0.0,0.0,0.0,0.0,0.0,
10.821838000000048,0.0,0.0,14673.0,0.0,0.0,0.0,0.0,0.125,0.8312987430000001,0.01,0.0,2315.0,0.0,0.0,-0.0,0.0,0.125,0.5017089330000001,0.01,0.0,-3459.0,0.0,0.0,0.0,0.0,0.0,3.3679195770000003,0.01,0.0,2504.0,0.125,0.0,-0.0,0.0,0.25,1.644286941,0.01,0.0,0.30000001192092896,-0.5699999928474426,0.20999999344348907,-0.0115966796875,0.00494384765625,1.0213623046875,34.150001525878906,0.0,-2.0,0.5801544189453125,-1.1988983154296875,Closing,0.0,0.0,0.0,0.0,0.0,0.0,0.0,0.0,
10.93171000000002,0.0,0.0,14673.0,0.0,0.0,0.0,0.0,0.125,0.8312987430000001,0.01,0.0,2315.0,0.0,0.0,-0.0,0.0,0.125,0.5017089330000001,0.01,0.0,-3459.0,0.0,0.0,0.0,0.0,0.0,3.3691402800000003,0.01,0.0,2504.0,0.0,0.0,-0.0,0.0,0.25,1.644286941,0.01,0.0,0.30000001192092896,-0.5699999928474426,0.20999999344348907,-0.0108642578125,0.0069580078125,1.021240234375,34.150001525878906,0.0,0.0,0.5801544189453125,-1.1988983154296875,Closing,0.0,0.0,0.0,0.0,0.0,0.0,0.0,0.0,
11.043945999999996,0.0,0.0,14673.0,0.0,0.0,0.0,0.0,0.125,0.8312987430000001,0.01,0.0,2315.0,0.0,0.0,-0.0,0.0,0.125,0.50048823,0.01,0.0,-3459.0,0.0,0.0,0.0,0.0,0.0,3.3679195770000003,0.01,0.0,2504.0,0.125,0.0,-0.0,0.0,0.25,1.644286941,0.01,0.0,0.30000001192092896,-0.5699999928474426,0.2199999988079071,-0.00958251953125,0.00299072265625,1.02081298828125,34.13999938964844,0.0,0.0,0.5801544189453125,-1.1988983154296875,Closing,0.0,0.0,0.0,0.0,0.0,0.0,0.0,0.0,
11.152404000000038,0.0,0.0,14673.0,0.0,0.0,0.0,0.0,0.125,0.8312987430000001,0.01,0.0,2315.0,0.0,0.0,-0.0,0.0,0.125,0.5017089330000001,0.01,0.0,-3459.0,0.0,0.0,0.0,0.0,0.0,3.3679195770000003,0.01,0.0,2504.0,0.0,0.0,-0.0,0.0,0.25,1.645507644,0.01,0.0,0.30000001192092896,-0.5600000023841858,0.2199999988079071,-0.00689697265625,0.0107421875,1.0157470703125,34.13999938964844,0.0,3.0,0.5801544189453125,-1.1988983154296875,Closing,0.0,0.0,0.0,0.0,0.0,0.0,0.0,0.0,
11.272997000000032,0.0,0.0,14673.0,0.0,0.0,0.0,0.0,0.125,0.8300780400000001,0.01,0.0,2315.0,0.0,0.0,-0.0,0.0,0.125,0.5017089330000001,0.01,0.0,-3459.0,0.0,0.0,0.0,0.0,0.0,3.3666988740000003,0.01,0.0,2504.0,0.0,0.0,-0.0,0.0,0.25,1.644286941,0.01,0.0,0.30000001192092896,-0.5899999737739563,0.23000000417232513,-0.00921630859375,0.00189208984375,1.0211181640625,34.13999938964844,0.0,1.0,0.5801544189453125,-1.1988983154296875,Closing,0.0,0.0,0.0,0.0,0.0,0.0,0.0,0.0,
11.376244000000007,0.0,0.0,14673.0,0.0,0.0,0.0,0.0,0.125,0.8312987430000001,0.01,0.0,2315.0,0.0,0.0,-0.0,0.0,0.125,0.5017089330000001,0.01,0.0,-3459.0,0.0,0.0,0.0,0.0,0.0,3.3691402800000003,0.01,0.0,2504.0,0.125,0.0,-0.0,0.0,0.25,1.644286941,0.01,0.0,0.28999999165534973,-0.5799999833106995,0.23999999463558197,-0.005126953125,0.010986328125,1.01904296875,34.13999938964844,0.0,5.0,0.5801544189453125,-1.1988983154296875,Closing,0.0,0.0,0.0,0.0,0.0,0.0,0.0,0.0,
11.486360000000044,0.0,0.0,14673.0,0.0,0.0,0.0,0.0,0.125,0.8312987430000001,0.01,0.0,2315.0,0.0,0.0,-0.0,0.0,0.125,0.50048823,0.01,0.0,-3459.0,0.0,0.0,0.0,0.0,0.0,3.3679195770000003,0.01,0.0,2504.0,0.125,0.0,-0.0,0.0,0.25,1.645507644,0.01,0.0,0.28999999165534973,-0.5699999928474426,0.27000001072883606,0.0142822265625,0.09185791015625,1.01446533203125,34.13999938964844,0.0,24.0,0.5801544189453125,-1.1987152099609375,Closing,0.0,0.0,0.0,0.0,0.0,0.0,0.0,0.0,
11.591339000000037,0.0,0.0,14673.0,0.0,0.0,0.0,0.0,0.125,0.8312987430000001,0.01,0.0,2315.0,0.0,0.0,-0.0,0.0,0.125,0.5017089330000001,0.01,0.0,-3459.0,0.0,0.0,0.0,0.0,0.0,3.3691402800000003,0.01,0.0,2504.0,0.125,0.0,-0.0,0.0,0.25,1.644286941,0.01,0.0,0.30000001192092896,-0.5699999928474426,0.25,-0.012451171875,-0.01519775390625,1.007080078125,34.13999938964844,0.0,-2.0,0.5802001953125,-1.197479248046875,Closing,0.0,0.0,0.0,0.0,0.0,0.0,0.0,0.0,
11.69915400000004,0.0,0.0,14673.0,0.0,0.0,0.0,0.0,0.125,0.8312987430000001,0.01,0.0,2315.0,0.0,0.0,-0.0,0.0,0.125,0.5017089330000001,0.01,0.0,-3459.0,0.0,0.0,0.0,0.0,0.0,3.3691402800000003,0.01,0.0,2504.0,0.0,0.0,-0.0,0.0,0.25,1.644286941,0.01,0.0,0.3199999928474426,-0.550000011920929,0.25,-0.007568359375,-0.0162353515625,1.0018310546875,34.13999938964844,0.0,2.0,0.5802001953125,-1.1972808837890625,Closing,0.0,0.0,0.0,0.0,0.0,0.0,0.0,0.0,
11.813956000000006,0.0,0.0,14673.0,0.0,0.0,0.0,0.0,0.125,0.8312987430000001,0.01,0.0,2315.0,0.0,0.0,-0.0,0.0,0.125,0.50048823,0.01,0.0,-3459.0,0.0,0.0,0.0,0.0,0.0,3.3691402800000003,0.01,0.0,2504.0,0.125,0.0,-0.0,0.0,0.25,1.644286941,0.01,0.0,0.3100000023841858,-0.5600000023841858,0.27000001072883606,-0.005859375,0.009033203125,1.0078125,34.13999938964844,0.0,4.0,0.5802001953125,-1.1973876953125,Closing,0.0,0.0,0.0,0.0,0.0,0.0,0.0,0.0,
11.929573000000033,0.0,0.0,14673.0,0.0,0.0,0.0,0.0,0.125,0.8300780400000001,0.01,0.0,2315.0,0.0,0.0,-0.0,0.0,0.125,0.5017089330000001,0.01,0.0,-3459.0,0.0,0.0,0.0,0.0,0.0,3.3679195770000003,0.01,0.0,2504.0,0.125,0.0,-0.0,0.0,0.25,1.645507644,0.01,0.0,0.3100000023841858,-0.5699999928474426,0.27000001072883606,-0.01141357421875,0.0107421875,1.01922607421875,34.13999938964844,0.0,-1.0,0.5802001953125,-1.1973876953125,Closing,0.0,0.0,0.0,0.0,0.0,0.0,0.0,0.0,
12.04526800000004,0.0,0.0,14673.0,0.0,0.0,0.0,0.0,0.125,0.8312987430000001,0.01,0.0,2315.0,0.0,0.0,-0.0,0.0,0.125,0.5017089330000001,0.01,0.0,-3459.0,0.0,0.0,0.0,0.0,0.0,3.3679195770000003,0.01,0.0,2504.0,0.0,0.0,-0.0,0.0,0.25,1.645507644,0.01,0.0,0.3100000023841858,-0.5600000023841858,0.2800000011920929,-0.0201416015625,0.00885009765625,1.02789306640625,34.13999938964844,0.0,-9.0,0.5802001953125,-1.1973876953125,Closing,0.0,0.0,0.0,0.0,0.0,0.0,0.0,0.0,
12.154532000000007,0.0,0.0,14673.0,0.0,0.0,0.0,0.0,0.125,0.8300780400000001,0.01,0.0,2315.0,0.0,0.0,-0.0,0.0,0.125,0.5017089330000001,0.01,0.0,-3459.0,0.0,0.0,0.0,0.0,0.0,3.3691402800000003,0.01,0.0,2504.0,0.0,0.0,-0.0,0.0,0.25,1.644286941,0.01,0.0,0.3199999928474426,-0.5699999928474426,0.2800000011920929,-0.013671875,8.544921875E-4,1.0322265625,34.13999938964844,0.0,-3.0,0.5802001953125,-1.1973876953125,Closing,0.0,0.0,0.0,0.0,0.0,0.0,0.0,0.0,
12.267820000000007,0.0,0.0,14673.0,0.0,0.0,0.0,0.0,0.125,0.8300780400000001,0.01,0.0,2315.0,0.0,0.0,-0.0,0.0,0.125,0.50048823,0.01,0.0,-3459.0,0.0,0.0,0.0,0.0,0.0,3.3691402800000003,0.01,0.0,2504.0,0.125,0.0,-0.0,0.0,0.25,1.644286941,0.01,0.0,0.3100000023841858,-0.5699999928474426,0.28999999165534973,-0.0108642578125,0.0023193359375,1.02874755859375,34.13999938964844,0.0,0.0,0.5802001953125,-1.1973876953125,Closing,0.0,0.0,0.0,0.0,0.0,0.0,0.0,0.0,
12.377807000000029,0.0,0.0,14673.0,0.0,0.0,0.0,0.0,0.125,0.8300780400000001,0.01,0.0,2315.0,0.0,0.0,-0.0,0.0,0.125,0.5017089330000001,0.01,0.0,-3459.0,0.0,0.0,0.0,0.0,0.0,3.3679195770000003,0.01,0.0,2504.0,0.125,0.0,-0.0,0.0,0.25,1.644286941,0.01,0.0,0.3100000023841858,-0.5699999928474426,0.30000001192092896,-0.01123046875,0.0069580078125,1.02978515625,34.13999938964844,0.0,0.0,0.5802001953125,-1.1973876953125,Closing,0.0,0.0,0.0,0.0,0.0,0.0,0.0,0.0,
12.491349000000046,0.0,0.0,14673.0,0.0,0.0,0.0,0.0,0.125,0.8312987430000001,0.01,0.0,2315.0,0.0,0.0,-0.0,0.0,0.125,0.50048823,0.01,0.0,-3459.0,0.0,0.0,0.0,0.0,0.0,3.3679195770000003,0.01,0.0,2504.0,0.125,0.0,-0.0,0.0,0.25,1.645507644,0.01,0.0,0.30000001192092896,-0.5699999928474426,0.30000001192092896,-0.01080322265625,0.010498046875,1.02740478515625,34.13999938964844,0.0,0.0,0.5802001953125,-1.1973876953125,Closing,0.0,0.0,0.0,0.0,0.0,0.0,0.0,0.0,
12.603164000000048,0.0,0.0,14673.0,0.0,0.0,0.0,0.0,0.125,0.8312987430000001,0.01,0.0,2315.0,0.0,0.0,-0.0,0.0,0.125,0.5017089330000001,0.01,0.0,-3459.0,0.0,0.0,0.0,0.0,0.0,3.3691402800000003,0.01,0.0,2504.0,0.125,0.0,-0.0,0.0,0.25,1.644286941,0.01,0.0,0.30000001192092896,-0.5600000023841858,0.30000001192092896,-0.01141357421875,0.0081787109375,1.01934814453125,34.150001525878906,0.0,-1.0,0.5802001953125,-1.1973876953125,Closing,0.0,0.0,0.0,0.0,0.0,0.0,0.0,0.0,
12.713665000000038,0.0,0.0,14673.0,0.0,0.0,0.0,0.0,0.125,0.8312987430000001,0.01,0.0,2315.0,0.0,0.0,-0.0,0.0,0.125,0.50048823,0.01,0.0,-3459.0,0.0,0.0,0.0,0.0,0.0,3.3691402800000003,0.01,0.0,2504.0,0.0,0.0,-0.0,0.0,0.25,1.644286941,0.01,0.0,0.30000001192092896,-0.5699999928474426,0.30000001192092896,-0.011474609375,0.00323486328125,1.01495361328125,34.150001525878906,0.0,-1.0,0.5802001953125,-1.1973876953125,Closing,0.0,0.0,0.0,0.0,0.0,0.0,0.0,0.0,
12.826118000000017,0.0,0.0,14673.0,0.0,0.0,0.0,0.0,0.125,0.8300780400000001,0.01,0.0,2315.0,0.0,0.0,-0.0,0.0,0.125,0.5017089330000001,0.01,0.0,-3459.0,0.0,0.0,0.0,0.0,0.0,3.3679195770000003,0.01,0.0,2504.0,0.0,0.0,-0.0,0.0,0.25,1.644286941,0.01,0.0,0.3100000023841858,-0.5799999833106995,0.3100000023841858,-0.0113525390625,0.00634765625,1.01995849609375,34.150001525878906,0.0,0.0,0.5802001953125,-1.1973876953125,Closing,0.0,0.0,0.0,0.0,0.0,0.0,0.0,0.0,
12.933967999999993,0.0,0.0,14673.0,0.0,0.0,0.0,0.0,0.125,0.8300780400000001,0.01,0.0,2315.0,0.0,0.0,-0.0,0.0,0.125,0.5017089330000001,0.01,0.0,-3459.0,0.0,0.0,0.0,0.0,0.0,3.3679195770000003,0.01,0.0,2504.0,0.0,0.0,-0.0,0.0,0.25,1.644286941,0.01,0.0,0.3100000023841858,-0.5799999833106995,0.3100000023841858,-0.01019287109375,0.00341796875,1.021728515625,34.150001525878906,0.0,0.0,0.5802001953125,-1.1973876953125,Closing,0.0,0.0,0.0,0.0,0.0,0.0,0.0,0.0,
13.047683000000019,0.0,0.0,14673.0,0.0,0.0,0.0,0.0,0.125,0.8312987430000001,0.01,0.0,2315.0,0.0,0.0,-0.0,0.0,0.125,0.5017089330000001,0.01,0.0,-3459.0,0.0,0.0,0.0,0.0,0.0,3.3679195770000003,0.01,0.0,2504.0,0.0,0.0,-0.0,0.0,0.25,1.644286941,0.01,0.0,0.3100000023841858,-0.5799999833106995,0.3199999928474426,-0.01422119140625,0.001953125,1.01708984375,34.18000030517578,0.0,-3.0,0.5802001953125,-1.1973876953125,Closing,0.0,0.0,0.0,0.0,0.0,0.0,0.0,0.0,
13.158597999999998,0.0,0.0,14673.0,0.0,0.0,0.0,0.0,0.125,0.8300780400000001,0.01,0.0,2315.0,0.0,0.0,-0.0,0.0,0.125,0.50048823,0.01,0.0,-3459.0,0.0,0.0,0.0,0.0,0.0,3.3691402800000003,0.01,0.0,2504.0,0.0,0.0,-0.0,0.0,0.25,1.644286941,0.01,0.0,0.3100000023841858,-0.5699999928474426,0.3199999928474426,-0.00897216796875,0.00897216796875,1.017822265625,34.18000030517578,0.0,1.0,0.5802001953125,-1.1973876953125,Closing,0.0,0.0,0.0,0.0,0.0,0.0,0.0,0.0,
13.27200900000002,0.0,0.0,14673.0,0.0,0.0,0.0,0.0,0.125,0.8312987430000001,0.01,0.0,2315.0,0.0,0.0,-0.0,0.0,0.125,0.49926752700000004,0.01,0.0,-3459.0,0.0,0.0,0.0,0.0,0.0,3.3679195770000003,0.01,0.0,2504.0,0.125,0.0,-0.0,0.0,0.25,1.644286941,0.01,0.0,0.3100000023841858,-0.5699999928474426,0.33000001311302185,-0.0096435546875,0.00732421875,1.01849365234375,34.18000030517578,0.0,0.0,0.5802001953125,-1.1973876953125,Closing,0.0,0.0,0.0,0.0,0.0,0.0,0.0,0.0,
13.38496900000004,0.0,0.0,14673.0,0.0,0.0,0.0,0.0,0.125,0.8300780400000001,0.01,0.0,2315.0,0.0,0.0,-0.0,0.0,0.0,0.5017089330000001,0.01,0.0,-3459.0,0.0,0.0,0.0,0.0,0.0,3.3679195770000003,0.01,0.0,2504.0,0.125,0.0,-0.0,0.0,0.125,1.645507644,0.01,0.0,0.3100000023841858,-0.5799999833106995,0.33000001311302185,-0.01324462890625,0.00738525390625,1.01934814453125,34.18000030517578,0.0,-2.0,0.5802001953125,-1.1973876953125,Closing,0.0,0.0,0.0,0.0,0.0,0.0,0.0,0.0,
