Time,ClimberA1,ClimberA2,FRpos,FRCurrent,FRspeed,FRsetpoint,FRApos,FRACurrent,FREncpos,FREncSetpoint,FREncSpeed,FLpos,FLCurrent,FLspeed,FLsetpoint,FLApos,FLACurrent,FLEncpos,FLEncSetpoint,FLEncSpeed,BRpos,BRCurrent,BRspeed,BRsetpoint,BRApos,BRACurrent,BREncpos,BREncSetpoint,BREncSpeed,BLpos,BLCurrent,BLspeed,BLsetpoint,BLApos,BLACurrent,BLEncpos,BLEncSetpoint,BLEncSpeed,navx_Pitch,navx_Roll,navx_Yaw,navx_XAcc,navx_YAcc,navx_ZAcc,navx_Temp,navx_Bar,navx_Alt,navx_XDis,navx_YDis,GearPlacerState,ShootOutputV,ShootOutputCurrent,ShootEncPos,ShootEncVelocity,ShootSpeed,ShootSetpoint,CarouselSetpoint,CarouselCurrent,
0.17751399999999923,0.0,0.0,0.0,0.0,0.0,0.0,0.0,0.125,0.76904289,0.01,0.0,0.0,0.0,0.0,0.0,0.0,0.125,0.539550726,0.01,0.0,0.0,0.0,0.0,0.0,0.0,0.0,3.359374656,0.01,0.0,0.0,0.125,0.0,0.0,0.0,0.125,1.6882322490000001,0.01,0.0,0.25999999046325684,-0.6200000047683716,0.0,-0.01239013671875,0.00445556640625,1.01947021484375,34.22999954223633,0.0,-1.0,0.0,0.0,Waiting,0.0,0.0,0.0,0.0,0.0,0.0,0.0,0.0,
0.225270999999997,0.0,0.0,0.0,0.0,0.0,0.0,0.0,0.125,0.76904289,0.01,4.892514593,0.0,0.0,0.0,-0.0,0.0,0.125,0.539550726,0.01,0.033320726000000356,0.0,0.0,0.0,0.0,0.0,0.0,3.358153953,0.01,4.948553953,0.0,0.0,0.0,-0.0,0.0,0.125,1.6882322490000001,0.01,0.06823224900000002,0.25999999046325684,-0.6200000047683716,0.0,-0.00970458984375,0.0037841796875,1.01708984375,34.22999954223633,0.0,1.0,0.0,0.0,Waiting,0.0,0.0,0.0,0.0,0.0,0.0,0.0,0.0,
0.24973499999999693,0.0,0.0,0.0,0.0,0.0,0.0,0.0,0.25,0.76904289,0.01,4.892514593,0.0,0.0,0.0,-0.0,0.0,0.125,0.5407714290000001,0.01,0.033320726000000356,0.0,0.0,0.0,0.0,0.0,0.0,3.358153953,0.01,4.948553953,0.0,0.0,0.0,-0.0,0.0,0.25,1.6882322490000001,0.01,0.06823224900000002,0.25999999046325684,-0.6200000047683716,0.0,-0.01153564453125,0.00634765625,1.0137939453125,34.22999954223633,0.0,0.0,0.0,0.0,Waiting,0.0,0.0,0.0,0.0,0.0,0.0,0.0,0.0,
0.2809459999999999,0.0,0.0,0.0,0.0,0.0,0.0,0.0,0.25,0.754394454,0.01,0.0,0.0,0.0,0.0,-0.0,0.0,0.125,0.5407714290000001,0.01,0.0,0.0,0.0,0.0,0.0,0.0,0.0,3.358153953,0.01,0.0,0.0,0.0,0.0,-0.0,0.0,0.25,1.678466625,0.01,0.0,0.25999999046325684,-0.6200000047683716,0.0,-0.0091552734375,0.00238037109375,1.02093505859375,34.22999954223633,0.0,1.0,0.0,0.0,Waiting,0.0,0.0,0.0,0.0,0.0,0.0,0.0,0.0,
0.3055219999999972,0.0,0.0,0.0,0.0,0.0,0.0,0.0,0.25,0.76904289,0.01,0.0,0.0,0.0,0.0,-0.0,0.0,0.125,0.5407714290000001,0.01,0.0,0.0,0.0,0.0,0.0,0.0,0.0,3.358153953,0.01,0.0,0.0,0.0,0.0,-0.0,0.0,0.25,1.673583813,0.01,0.0,0.25999999046325684,-0.6200000047683716,0.0,-0.010986328125,0.00469970703125,1.01666259765625,34.22999954223633,0.0,0.0,0.0,0.0,Waiting,0.0,0.0,0.0,0.0,0.0,0.0,0.0,0.0,
0.33828999999999726,0.0,0.0,0.0,0.0,0.0,0.0,0.0,0.25,0.76904289,0.01,-0.0012207029999995456,0.0,0.0,0.0,-0.0,0.0,0.125,0.5407714290000001,0.01,0.0,0.0,0.0,0.0,0.0,0.0,0.0,3.359374656,0.01,0.0,0.0,0.0,0.0,-0.0,0.0,0.25,1.668701001,0.01,-0.00976562400000014,0.25999999046325684,-0.6299999952316284,0.0,-0.0113525390625,0.00262451171875,1.01947021484375,34.22999954223633,0.0,0.0,0.0,0.0,Waiting,0.0,0.0,0.0,0.0,0.0,0.0,0.0,0.0,
0.35953999999999725,0.0,0.0,0.0,0.0,0.0,0.0,0.0,0.25,0.7751464050000001,0.01,-0.0012207029999995456,0.0,0.0,0.0,-0.0,0.0,0.125,0.5407714290000001,0.01,0.0,0.0,0.0,0.0,0.0,0.0,0.0,3.358153953,0.01,0.0,0.0,0.0,0.0,-0.0,0.0,0.25,1.668701001,0.01,-0.00976562400000014,0.25,-0.6200000047683716,0.0,-0.01446533203125,0.0028076171875,1.02081298828125,34.22999954223633,0.0,-3.0,0.0,0.0,Waiting,0.0,0.0,0.0,0.0,0.0,0.0,0.0,0.0,
0.391632999999998,0.0,0.0,0.0,0.0,0.0,0.0,0.0,0.25,0.773925702,0.01,0.003662108999999525,0.0,0.0,0.0,-0.0,0.0,0.125,0.5407714290000001,0.01,0.0,0.0,0.0,0.0,0.0,0.0,0.0,3.35693325,0.01,0.0,0.0,0.125,0.0,-0.0,0.0,0.25,1.668701001,0.01,-0.009765623999999917,0.25,-0.6200000047683716,0.0,-0.01300048828125,0.0040283203125,1.01727294921875,34.22999954223633,0.0,-1.0,0.0,0.0,Waiting,0.0,0.0,0.0,0.0,0.0,0.0,0.0,0.0,
0.4269019999999982,0.0,0.0,0.0,0.0,0.0,0.0,0.0,0.25,0.7788085140000001,0.01,0.006103515000000392,0.0,0.0,0.0,-0.0,0.0,0.125,0.5407714290000001,0.01,0.0,0.0,0.0,0.0,0.0,0.0,0.0,3.358153953,0.01,0.0,0.0,0.125,0.0,-0.0,0.0,0.25,1.669921704,0.01,0.0,0.25999999046325684,-0.6299999952316284,0.0,-0.00909423828125,0.0040283203125,1.0198974609375,34.22999954223633,0.0,2.0,0.0,0.0,Waiting,0.0,0.0,0.0,0.0,0.0,0.0,0.0,0.0,
0.44804599999999845,0.0,0.0,0.0,0.0,0.0,0.0,0.0,0.25,0.7788085140000001,0.01,0.006103515000000392,0.0,0.0,0.0,-0.0,0.0,0.125,0.5407714290000001,0.01,0.0,0.0,0.0,0.0,0.0,0.0,0.0,3.358153953,0.01,0.0,0.0,0.125,0.0,-0.0,0.0,0.25,1.669921704,0.01,0.0,0.25999999046325684,-0.6299999952316284,0.0,-0.01190185546875,0.00799560546875,1.021728515625,34.22999954223633,0.0,0.0,0.0,0.0,Waiting,0.0,0.0,0.0,0.0,0.0,0.0,0.0,0.0,
0.46698799999999757,0.0,0.0,0.0,0.0,0.0,0.0,0.0,0.25,0.7897948410000001,0.01,0.006103515000000392,0.0,0.0,0.0,-0.0,0.0,0.125,0.539550726,0.01,0.0,0.0,0.0,0.0,0.0,0.0,0.0,3.35693325,0.01,0.0,0.0,0.125,0.0,-0.0,0.0,0.25,1.668701001,0.01,0.0,0.25999999046325684,-0.6299999952316284,0.0,-0.0120849609375,0.004150390625,1.0164794921875,34.22999954223633,0.0,0.0,0.0,0.0,Waiting,0.0,0.0,0.0,0.0,0.0,0.0,0.0,0.0,
0.48962899999999715,0.0,0.0,0.0,0.0,0.0,0.0,0.0,0.25,0.7775878110000001,0.01,-0.0024414059999999793,0.0,0.0,0.0,-0.0,0.0,0.125,0.538330023,0.01,0.0,0.0,0.0,0.0,0.0,0.0,0.0,3.358153953,0.01,0.0,0.0,0.0,0.0,-0.0,0.0,0.25,1.669921704,0.01,0.0,0.25999999046325684,-0.6299999952316284,0.0,-0.0091552734375,0.00396728515625,1.02252197265625,34.22999954223633,0.0,2.0,0.0,0.0,Waiting,0.0,0.0,0.0,0.0,0.0,0.0,0.0,0.0,
0.5102369999999974,0.0,0.0,0.0,0.0,0.0,0.0,0.0,0.25,0.7775878110000001,0.01,-0.0024414059999999793,0.0,0.0,0.0,-0.0,0.0,0.125,0.5407714290000001,0.01,0.0,0.0,0.0,0.0,0.0,0.0,0.0,3.358153953,0.01,0.0,0.0,0.0,0.0,-0.0,0.0,0.25,1.669921704,0.01,0.0,0.25,-0.6299999952316284,0.0,-0.0140380859375,0.00445556640625,1.0218505859375,34.22999954223633,0.0,-2.0,0.0,0.0,Waiting,0.0,0.0,0.0,0.0,0.0,0.0,0.0,0.0,
0.5335529999999998,0.0,0.0,0.0,0.0,0.0,0.0,0.0,0.25,0.7788085140000001,0.01,0.0024414059999999793,0.0,0.0,0.0,-0.0,0.0,0.125,0.5419921320000001,0.01,0.0,0.0,0.0,0.0,0.0,0.0,0.0,3.359374656,0.01,0.0,0.0,0.0,0.0,-0.0,0.0,0.25,1.668701001,0.01,0.0,0.25,-0.6299999952316284,0.0,-0.01251220703125,0.004638671875,1.0185546875,34.22999954223633,0.0,-1.0,0.0,0.0,Waiting,0.0,0.0,0.0,0.0,0.0,0.0,0.0,0.0,
0.5662539999999971,0.0,0.0,0.0,0.0,0.0,0.0,0.0,0.25,0.7788085140000001,0.01,0.0024414059999999793,0.0,0.0,0.0,-0.0,0.0,0.125,0.5407714290000001,0.01,0.0,0.0,0.0,0.0,0.0,0.0,0.0,3.358153953,0.01,0.0,0.0,0.125,0.0,-0.0,0.0,0.25,1.669921704,0.01,0.0,0.25999999046325684,-0.6299999952316284,0.0,-0.011474609375,0.0050048828125,1.01727294921875,34.22999954223633,0.0,0.0,0.0,0.0,Waiting,0.0,0.0,0.0,0.0,0.0,0.0,0.0,0.0,
0.5905730000000003,0.0,0.0,0.0,0.0,0.0,0.0,0.0,0.25,0.7788085140000001,0.01,-0.0012207030000004337,0.0,0.0,0.0,-0.0,0.0,0.125,0.5407714290000001,0.01,0.0,0.0,0.0,0.0,0.0,0.0,0.0,3.358153953,0.01,0.0,0.0,0.0,0.0,-0.0,0.0,0.25,1.667480298,0.01,0.0,0.25999999046325684,-0.6299999952316284,0.0,-0.0135498046875,0.00555419921875,1.02130126953125,34.22999954223633,0.0,-2.0,0.0,0.0,Waiting,0.0,0.0,0.0,0.0,0.0,0.0,0.0,0.0,
0.613114999999998,0.0,0.0,0.0,0.0,0.0,0.0,0.0,0.25,0.772704999,0.01,-0.0012207030000004337,0.0,0.0,0.0,-0.0,0.0,0.125,0.5407714290000001,0.01,0.0,0.0,0.0,0.0,0.0,0.0,0.0,3.359374656,0.01,0.0,0.0,0.0,0.0,-0.0,0.0,0.25,1.668701001,0.01,0.0,0.25999999046325684,-0.6299999952316284,0.0,-0.0108642578125,0.00421142578125,1.01739501953125,34.22999954223633,0.0,0.0,0.0,0.0,Waiting,0.0,0.0,0.0,0.0,0.0,0.0,0.0,0.0,
0.6407659999999996,0.0,0.0,0.0,0.0,0.0,0.0,0.0,0.25,0.7788085140000001,0.01,0.0,0.0,0.0,0.0,-0.0,0.0,0.125,0.539550726,0.01,0.0,0.0,0.0,0.0,0.0,0.0,0.0,3.358153953,0.01,0.0,0.0,0.0,0.0,-0.0,0.0,0.25,1.669921704,0.01,0.0,0.25999999046325684,-0.6299999952316284,0.0,-0.00836181640625,0.0013427734375,1.011474609375,34.22999954223633,0.0,0.0,0.0,0.0,Waiting,0.0,0.0,0.0,0.0,0.0,0.0,0.0,0.0,
0.6616359999999986,0.0,0.0,0.0,0.0,0.0,0.0,0.0,0.25,0.7775878110000001,0.01,0.0,0.0,0.0,0.0,-0.0,0.0,0.125,0.5407714290000001,0.01,0.0,0.0,0.0,0.0,0.0,0.0,0.0,3.358153953,0.01,0.0,0.0,0.125,0.0,-0.0,0.0,0.25,1.668701001,0.01,0.0,0.25,-0.6299999952316284,0.0,-0.0101318359375,0.00732421875,1.02191162109375,34.22999954223633,0.0,1.0,0.0,0.0,Waiting,0.0,0.0,0.0,0.0,0.0,0.0,0.0,0.0,
0.6899599999999991,0.0,0.0,0.0,0.0,0.0,0.0,0.0,0.25,0.7788085140000001,0.01,0.0012207030000004337,0.0,0.0,0.0,-0.0,0.0,0.125,0.5407714290000001,0.01,0.0,0.0,0.0,0.0,0.0,0.0,0.0,3.358153953,0.01,0.0,0.0,0.0,0.0,-0.0,0.0,0.25,1.668701001,0.01,0.0,0.25999999046325684,-0.6299999952316284,0.0,-0.01202392578125,0.00347900390625,1.018798828125,34.2599983215332,0.0,0.0,0.0,0.0,Waiting,0.0,0.0,0.0,0.0,0.0,0.0,0.0,0.0,
0.712268,0.0,0.0,0.0,0.0,0.0,0.0,0.0,0.25,0.7788085140000001,0.01,0.0012207030000004337,0.0,0.0,0.0,-0.0,0.0,0.125,0.539550726,0.01,0.0,0.0,0.0,0.0,0.0,0.0,0.0,3.358153953,0.01,0.0,0.0,0.0,0.0,-0.0,0.0,0.25,1.668701001,0.01,0.0,0.25999999046325684,-0.6200000047683716,0.0,-0.01251220703125,0.00750732421875,1.015380859375,34.2599983215332,0.0,-1.0,0.0,0.0,Waiting,0.0,0.0,0.0,0.0,0.0,0.0,0.0,0.0,
0.7621129999999976,0.0,0.0,0.0,0.0,0.0,0.0,0.0,0.25,0.7788085140000001,0.01,-0.0012207030000004337,0.0,0.0,0.0,-0.0,0.0,0.125,0.5407714290000001,0.01,0.0,0.0,0.0,0.0,0.0,0.0,0.0,3.359374656,0.01,0.0,0.0,0.0,0.0,-0.0,0.0,0.25,1.667480298,0.01,0.0,0.25999999046325684,-0.6299999952316284,0.0,-0.01416015625,0.0028076171875,1.01513671875,34.2599983215332,0.0,-2.0,0.0,0.0,Waiting,0.0,0.0,0.0,0.0,0.0,0.0,0.0,0.0,
0.7850949999999975,0.0,0.0,0.0,0.0,0.0,0.0,0.0,0.25,0.771484296,0.01,0.0012207030000004337,0.0,0.0,0.0,-0.0,0.0,0.125,0.539550726,0.01,0.0,0.0,0.0,0.0,0.0,0.0,0.0,3.358153953,0.01,0.0,0.0,0.0,0.0,-0.0,0.0,0.25,1.668701001,0.01,0.0,0.25999999046325684,-0.6200000047683716,0.0,-0.01275634765625,0.006103515625,1.02301025390625,34.2599983215332,0.0,-1.0,0.0,0.0,Waiting,0.0,0.0,0.0,0.0,0.0,0.0,0.0,0.0,
0.8058439999999973,0.0,0.0,0.0,0.0,0.0,0.0,0.0,0.25,0.7788085140000001,0.01,0.0012207030000004337,0.0,0.0,0.0,-0.0,0.0,0.125,0.5432128350000001,0.01,0.0,0.0,0.0,0.0,0.0,0.0,0.0,3.358153953,0.01,0.0,0.0,0.0,0.0,-0.0,0.0,0.25,1.668701001,0.01,0.0,0.25999999046325684,-0.6200000047683716,0.0,-0.01214599609375,0.00567626953125,1.014892578125,34.2599983215332,0.0,-1.0,0.0,0.0,Waiting,0.0,0.0,0.0,0.0,0.0,0.0,0.0,0.0,
0.8404439999999995,0.0,0.0,0.0,0.0,0.0,0.0,0.0,0.25,0.7775878110000001,0.01,-0.0012207030000004337,0.0,0.0,0.0,-0.0,0.0,0.125,0.5407714290000001,0.01,0.0,0.0,0.0,0.0,0.0,0.0,0.0,3.359374656,0.01,0.0,0.0,0.0,0.0,-0.0,0.0,0.25,1.668701001,0.01,0.0,0.25999999046325684,-0.6200000047683716,0.0,-0.01068115234375,0.00408935546875,1.01251220703125,34.2599983215332,0.0,0.0,0.0,0.0,Waiting,0.0,0.0,0.0,0.0,0.0,0.0,0.0,0.0,
0.8614859999999972,0.0,0.0,0.0,0.0,0.0,0.0,0.0,0.25,0.7788085140000001,0.01,-0.0012207030000004337,0.0,0.0,0.0,-0.0,0.0,0.125,0.539550726,0.01,0.0,0.0,0.0,0.0,0.0,0.0,0.0,3.358153953,0.01,0.0,0.0,0.0,0.0,-0.0,0.0,0.25,1.668701001,0.01,0.0,0.25999999046325684,-0.6200000047683716,0.0,-0.00933837890625,0.005859375,1.02130126953125,34.2599983215332,0.0,1.0,0.0,0.0,Waiting,0.0,0.0,0.0,0.0,0.0,0.0,0.0,0.0,
0.8921589999999997,0.0,0.0,0.0,0.0,0.0,0.0,0.0,0.25,0.7788085140000001,0.01,0.0,0.0,0.0,0.0,-0.0,0.0,0.125,0.53710932,0.01,0.0,0.0,0.0,0.0,0.0,0.0,0.0,3.359374656,0.01,0.0,0.0,0.0,0.0,-0.0,0.0,0.25,1.669921704,0.01,0.0,0.25999999046325684,-0.6200000047683716,0.0,-0.01123046875,0.00555419921875,1.015625,34.2599983215332,0.0,0.0,0.0,0.0,Waiting,0.0,0.0,0.0,0.0,0.0,0.0,0.0,0.0,
0.9111059999999997,0.0,0.0,0.0,0.0,0.0,0.0,0.0,0.25,0.7788085140000001,0.01,0.0,0.0,0.0,0.0,-0.0,0.0,0.125,0.539550726,0.01,0.0,0.0,0.0,0.0,0.0,0.0,0.0,3.358153953,0.01,0.0,0.0,0.0,0.0,-0.0,0.0,0.25,1.668701001,0.01,0.0,0.25999999046325684,-0.6200000047683716,0.0,-0.01025390625,0.00360107421875,1.0167236328125,34.2599983215332,0.0,0.0,0.0,0.0,Waiting,0.0,0.0,0.0,0.0,0.0,0.0,0.0,0.0,
0.9326339999999982,0.0,0.0,0.0,0.0,0.0,0.0,0.0,0.25,0.7788085140000001,0.01,0.0012207030000004337,0.0,0.0,0.0,-0.0,0.0,0.125,0.539550726,0.01,0.0,0.0,0.0,0.0,0.0,0.0,0.0,3.359374656,0.01,0.0,0.0,0.0,0.0,-0.0,0.0,0.25,1.668701001,0.01,0.0,0.25999999046325684,-0.6200000047683716,0.0,-0.01031494140625,0.003662109375,1.01708984375,34.2599983215332,0.0,0.0,0.0,0.0,Waiting,0.0,0.0,0.0,0.0,0.0,0.0,0.0,0.0,
0.9520109999999986,0.0,0.0,0.0,0.0,0.0,0.0,0.0,0.25,0.7788085140000001,0.01,0.0012207030000004337,0.0,0.0,0.0,-0.0,0.0,0.125,0.5407714290000001,0.01,0.0,0.0,0.0,0.0,0.0,0.0,0.0,3.359374656,0.01,0.0,0.0,0.0,0.0,-0.0,0.0,0.25,1.668701001,0.01,0.0,0.25999999046325684,-0.6200000047683716,0.0,-0.0113525390625,0.004638671875,1.01812744140625,34.2599983215332,0.0,0.0,0.0,0.0,Waiting,0.0,0.0,0.0,0.0,0.0,0.0,0.0,0.0,
0.9712369999999974,0.0,0.0,0.0,0.0,0.0,0.0,0.0,0.25,0.7788085140000001,0.01,0.0,0.0,0.0,0.0,-0.0,0.0,0.125,0.539550726,0.01,0.0,0.0,0.0,0.0,0.0,0.0,0.0,3.359374656,0.01,0.0,0.0,0.0,0.0,-0.0,0.0,0.25,1.669921704,0.01,0.0,0.25,-0.6200000047683716,0.0,-0.01123046875,0.00848388671875,1.0205078125,34.2599983215332,0.0,0.0,0.0,0.0,Waiting,0.0,0.0,0.0,0.0,0.0,0.0,0.0,0.0,
0.9929039999999987,0.0,0.0,0.0,0.0,0.0,0.0,0.0,0.25,0.7775878110000001,0.01,0.0,0.0,0.0,0.0,-0.0,0.0,0.125,0.5407714290000001,0.01,0.0,0.0,0.0,0.0,0.0,0.0,0.0,3.358153953,0.01,0.0,0.0,0.0,0.0,-0.0,0.0,0.25,1.668701001,0.01,0.0,0.25999999046325684,-0.6299999952316284,0.0,-0.0125732421875,0.004150390625,1.02264404296875,34.2599983215332,0.0,-1.0,0.0,0.0,Waiting,0.0,0.0,0.0,0.0,0.0,0.0,0.0,0.0,
1.0122109999999993,0.0,0.0,0.0,0.0,0.0,0.0,0.0,0.25,0.7788085140000001,0.01,0.0,0.0,0.0,0.0,-0.0,0.0,0.125,0.539550726,0.01,0.0,0.0,0.0,0.0,0.0,0.0,0.0,3.359374656,0.01,0.0,0.0,0.0,0.0,-0.0,0.0,0.25,1.669921704,0.01,0.0,0.25999999046325684,-0.6299999952316284,-0.009999999776482582,-0.01202392578125,0.004150390625,1.01702880859375,34.2599983215332,0.0,0.0,0.0,0.0,Waiting,0.0,0.0,0.0,0.0,0.0,0.0,0.0,0.0,
1.0342739999999977,0.0,0.0,0.0,0.0,0.0,0.0,0.0,0.25,0.7788085140000001,0.01,0.0,0.0,0.0,0.0,-0.0,0.0,0.125,0.539550726,0.01,0.0,0.0,0.0,0.0,0.0,0.0,0.0,3.359374656,0.01,0.0,0.0,0.125,0.0,-0.0,0.0,0.25,1.668701001,0.01,0.0,0.25,-0.6299999952316284,-0.009999999776482582,-0.01214599609375,0.00445556640625,1.020263671875,34.2599983215332,0.0,0.0,0.0,0.0,Waiting,0.0,0.0,0.0,0.0,0.0,0.0,0.0,0.0,
1.052893,0.0,0.0,0.0,0.0,0.0,0.0,0.0,0.25,0.745849533,0.01,0.0,0.0,0.0,0.0,-0.0,0.0,0.125,0.5407714290000001,0.01,0.0,0.0,0.0,0.0,0.0,0.0,0.0,3.359374656,0.01,0.0,0.0,0.125,0.0,-0.0,0.0,0.25,1.668701001,0.01,0.0,0.25,-0.6299999952316284,0.0,-0.0107421875,0.00592041015625,1.02130126953125,34.2599983215332,0.0,0.0,0.0,0.0,Waiting,0.0,0.0,0.0,0.0,0.0,0.0,0.0,0.0,
1.0722419999999984,0.0,0.0,0.0,0.0,0.0,0.0,0.0,0.25,0.7788085140000001,0.01,-0.0012207030000004337,0.0,0.0,0.0,-0.0,0.0,0.125,0.5407714290000001,0.01,0.0,0.0,0.0,0.0,0.0,0.0,0.0,3.359374656,0.01,0.0,0.0,0.0,0.0,-0.0,0.0,0.25,1.668701001,0.01,0.0,0.25,-0.6299999952316284,-0.009999999776482582,-0.00921630859375,0.00433349609375,1.015625,34.2599983215332,0.0,1.0,0.0,0.0,Waiting,0.0,0.0,0.0,0.0,0.0,0.0,0.0,0.0,
1.0932249999999986,0.0,0.0,0.0,0.0,0.0,0.0,0.0,0.25,0.7788085140000001,0.01,-0.0012207030000004337,0.0,0.0,0.0,-0.0,0.0,0.125,0.5407714290000001,0.01,0.0,0.0,0.0,0.0,0.0,0.0,0.0,3.358153953,0.01,0.0,0.0,0.0,0.0,-0.0,0.0,0.25,1.667480298,0.01,0.0,0.25,-0.6299999952316284,-0.009999999776482582,-0.01080322265625,0.00457763671875,1.02276611328125,34.2599983215332,0.0,0.0,0.0,0.0,Waiting,0.0,0.0,0.0,0.0,0.0,0.0,0.0,0.0,
1.1130399999999971,0.0,0.0,0.0,0.0,0.0,0.0,0.0,0.25,0.780029217,0.01,-0.0012207030000004337,0.0,0.0,0.0,-0.0,0.0,0.125,0.5407714290000001,0.01,0.0,0.0,0.0,0.0,0.0,0.0,0.0,3.359374656,0.01,0.0,0.0,0.0,0.0,-0.0,0.0,0.25,1.668701001,0.01,0.0,0.25,-0.6299999952316284,-0.009999999776482582,-0.01031494140625,0.0047607421875,1.01690673828125,34.2599983215332,0.0,0.0,0.0,0.0,Waiting,0.0,0.0,0.0,0.0,0.0,0.0,0.0,0.0,
1.1381620000000003,0.0,0.0,0.0,0.0,0.0,0.0,0.0,0.25,0.7788085140000001,0.01,0.0,0.0,0.0,0.0,-0.0,0.0,0.125,0.5407714290000001,0.01,0.0,0.0,0.0,0.0,0.0,0.0,0.0,3.358153953,0.01,0.0,0.0,0.0,0.0,-0.0,0.0,0.25,1.668701001,0.01,0.0,0.25,-0.6299999952316284,-0.009999999776482582,-0.013427734375,0.004638671875,1.02447509765625,34.2599983215332,0.0,-2.0,0.0,0.0,Waiting,0.0,0.0,0.0,0.0,0.0,0.0,0.0,0.0,
1.1550979999999982,0.0,0.0,0.0,0.0,0.0,0.0,0.0,0.25,0.780029217,0.01,0.0,0.0,0.0,0.0,-0.0,0.0,0.125,0.5407714290000001,0.01,0.0,0.0,0.0,0.0,0.0,0.0,0.0,3.358153953,0.01,0.0,0.0,0.0,0.0,-0.0,0.0,0.25,1.668701001,0.01,0.0,0.25,-0.6299999952316284,-0.009999999776482582,-0.011962890625,0.00396728515625,1.01654052734375,34.2599983215332,0.0,0.0,0.0,0.0,Waiting,0.0,0.0,0.0,0.0,0.0,0.0,0.0,0.0,
1.1794079999999993,0.0,0.0,0.0,0.0,0.0,0.0,0.0,0.25,0.8166503070000001,0.01,0.0012207030000004337,0.0,0.0,0.0,-0.0,0.0,0.125,0.5432128350000001,0.01,0.0,0.0,0.0,0.0,0.0,0.0,0.0,3.358153953,0.01,0.0,0.0,0.0,0.0,-0.0,0.0,0.25,1.669921704,0.01,0.0,0.25,-0.6299999952316284,-0.009999999776482582,-0.0103759765625,0.00579833984375,1.01861572265625,34.2599983215332,0.0,0.0,0.0,0.0,Waiting,0.0,0.0,0.0,0.0,0.0,0.0,0.0,0.0,
1.2011569999999991,0.0,0.0,0.0,0.0,0.0,0.0,0.0,0.25,0.7788085140000001,0.01,0.0012207030000004337,0.0,0.0,0.0,-0.0,0.0,0.125,0.5407714290000001,0.01,0.0,0.0,0.0,0.0,0.0,0.0,0.0,3.358153953,0.01,0.0,0.0,0.0,0.0,-0.0,0.0,0.25,1.668701001,0.01,0.0,0.25,-0.6299999952316284,-0.009999999776482582,-0.010009765625,0.00225830078125,1.02325439453125,34.2400016784668,0.0,1.0,0.0,0.0,Waiting,0.0,0.0,0.0,0.0,0.0,0.0,0.0,0.0,
1.2171569999999992,0.0,0.0,0.0,0.0,0.0,0.0,0.0,0.25,0.7788085140000001,0.01,0.0,0.0,0.0,0.0,-0.0,0.0,0.125,0.5407714290000001,0.01,0.0,0.0,0.0,0.0,0.0,0.0,0.0,3.359374656,0.01,0.0,0.0,0.125,0.0,-0.0,0.0,0.25,1.668701001,0.01,0.0,0.25,-0.6299999952316284,-0.009999999776482582,-0.0106201171875,0.005859375,1.01708984375,34.2400016784668,0.0,0.0,0.0,0.0,Waiting,0.0,0.0,0.0,0.0,0.0,0.0,0.0,0.0,
1.2421559999999991,0.0,0.0,0.0,0.0,0.0,0.0,0.0,0.25,0.7788085140000001,0.01,0.0,0.0,0.0,0.0,-0.0,0.0,0.125,0.5407714290000001,0.01,0.0,0.0,0.0,0.0,0.0,0.0,0.0,3.358153953,0.01,0.0,0.0,0.125,0.0,-0.0,0.0,0.25,1.669921704,0.01,0.0,0.25,-0.6299999952316284,-0.009999999776482582,-0.0120849609375,0.0047607421875,1.01776123046875,34.2400016784668,0.0,0.0,0.0,0.0,Waiting,0.0,0.0,0.0,0.0,0.0,0.0,0.0,0.0,
1.2608789999999972,0.0,0.0,0.0,0.0,0.0,0.0,0.0,0.25,0.780029217,0.01,0.0,0.0,0.0,0.0,-0.0,0.0,0.125,0.5407714290000001,0.01,0.0,0.0,0.0,0.0,0.0,0.0,0.0,3.358153953,0.01,0.0,0.0,0.125,0.0,-0.0,0.0,0.25,1.668701001,0.01,0.0,0.25,-0.6299999952316284,-0.009999999776482582,-0.01385498046875,0.0045166015625,1.0247802734375,34.2400016784668,0.0,-2.0,0.0,0.0,Waiting,0.0,0.0,0.0,0.0,0.0,0.0,0.0,0.0,
1.2850829999999986,0.0,0.0,0.0,0.0,0.0,0.0,0.0,0.25,0.7788085140000001,0.01,0.0,0.0,0.0,0.0,-0.0,0.0,0.125,0.5407714290000001,0.01,0.0,0.0,0.0,0.0,0.0,0.0,0.0,3.358153953,0.01,0.0,0.0,0.125,0.0,-0.0,0.0,0.25,1.669921704,0.01,0.0,0.25,-0.6299999952316284,-0.009999999776482582,-0.0125732421875,0.00347900390625,1.019775390625,34.2400016784668,0.0,-1.0,0.0,0.0,Waiting,0.0,0.0,0.0,0.0,0.0,0.0,0.0,0.0,
1.305107,0.0,0.0,0.0,0.0,0.0,0.0,0.0,0.25,0.7788085140000001,0.01,0.0,0.0,0.0,0.0,-0.0,0.0,0.125,0.538330023,0.01,0.0,0.0,0.0,0.0,0.0,0.0,0.0,3.358153953,0.01,0.0,0.0,0.125,0.0,-0.0,0.0,0.25,1.668701001,0.01,0.0,0.25,-0.6299999952316284,-0.009999999776482582,-0.0103759765625,0.008056640625,1.01934814453125,34.2400016784668,0.0,0.0,0.0,0.0,Waiting,0.0,0.0,0.0,0.0,0.0,0.0,0.0,0.0,
1.3238509999999988,0.0,0.0,0.0,0.0,0.0,0.0,0.0,0.25,0.755615157,0.01,-0.0012207030000004337,0.0,0.0,0.0,-0.0,0.0,0.125,0.5407714290000001,0.01,0.0,0.0,0.0,0.0,0.0,0.0,0.0,3.359374656,0.01,0.0,0.0,0.125,0.0,-0.0,0.0,0.25,1.668701001,0.01,0.0,0.25,-0.6299999952316284,-0.009999999776482582,-0.010498046875,0.0068359375,1.01641845703125,34.2400016784668,0.0,0.0,0.0,0.0,Waiting,0.0,0.0,0.0,0.0,0.0,0.0,0.0,0.0,
1.3471749999999993,0.0,0.0,0.0,0.0,0.0,0.0,0.0,0.25,0.7788085140000001,0.01,-0.0012207030000004337,0.0,0.0,0.0,-0.0,0.0,0.125,0.5407714290000001,0.01,0.0,0.0,0.0,0.0,0.0,0.0,0.0,3.35693325,0.01,0.0,0.0,0.0,0.0,-0.0,0.0,0.25,1.668701001,0.01,0.0,0.25,-0.6299999952316284,-0.009999999776482582,-0.01239013671875,0.00439453125,1.01788330078125,34.2400016784668,0.0,-1.0,0.0,0.0,Waiting,0.0,0.0,0.0,0.0,0.0,0.0,0.0,0.0,
1.366543999999998,0.0,0.0,0.0,0.0,0.0,0.0,0.0,0.25,0.782470623,0.01,-0.0012207030000004337,0.0,0.0,0.0,-0.0,0.0,0.125,0.5407714290000001,0.01,0.0,0.0,0.0,0.0,0.0,0.0,0.0,3.35693325,0.01,0.0,0.0,0.0,0.0,-0.0,0.0,0.25,1.668701001,0.01,0.0,0.25,-0.6299999952316284,-0.009999999776482582,-0.014404296875,0.00592041015625,1.017822265625,34.2400016784668,0.0,-3.0,0.0,0.0,Waiting,0.0,0.0,0.0,0.0,0.0,0.0,0.0,0.0,
1.3889879999999974,0.0,0.0,0.0,0.0,0.0,0.0,0.0,0.25,0.7788085140000001,0.01,0.0,0.0,0.0,0.0,-0.0,0.0,0.125,0.539550726,0.01,0.0,0.0,0.0,0.0,0.0,0.0,0.0,3.359374656,0.01,0.0,0.0,0.0,0.0,-0.0,0.0,0.25,1.669921704,0.01,0.0,0.25,-0.6299999952316284,-0.009999999776482582,-0.01263427734375,0.0045166015625,1.01910400390625,34.2400016784668,0.0,-1.0,0.0,0.0,Waiting,0.0,0.0,0.0,0.0,0.0,0.0,0.0,0.0,
1.4080959999999978,0.0,0.0,0.0,0.0,0.0,0.0,0.0,0.25,0.7775878110000001,0.01,0.0,0.0,0.0,0.0,-0.0,0.0,0.125,0.5407714290000001,0.01,0.0,0.0,0.0,0.0,0.0,0.0,0.0,3.359374656,0.01,0.0,0.0,0.0,0.0,-0.0,0.0,0.25,1.668701001,0.01,0.0,0.25,-0.6299999952316284,-0.009999999776482582,-0.013671875,0.00396728515625,1.02093505859375,34.2400016784668,0.0,-2.0,0.0,0.0,Waiting,0.0,0.0,0.0,0.0,0.0,0.0,0.0,0.0,
1.4307489999999998,0.0,0.0,0.0,0.0,0.0,0.0,0.0,0.25,0.7788085140000001,0.01,0.0,0.0,0.0,0.0,-0.0,0.0,0.125,0.539550726,0.01,0.0,0.0,0.0,0.0,0.0,0.0,0.0,3.359374656,0.01,0.0,0.0,0.0,0.0,-0.0,0.0,0.25,1.668701001,0.01,0.0,0.25999999046325684,-0.6299999952316284,-0.009999999776482582,-0.0120849609375,0.00830078125,1.017578125,34.2400016784668,0.0,0.0,0.0,0.0,Waiting,0.0,0.0,0.0,0.0,0.0,0.0,0.0,0.0,
1.4513499999999986,0.0,0.0,0.0,0.0,0.0,0.0,0.0,0.25,0.7775878110000001,0.01,0.0,0.0,0.0,0.0,-0.0,0.0,0.125,0.539550726,0.01,0.0,0.0,0.0,0.0,0.0,0.0,0.0,3.359374656,0.01,0.0,0.0,0.0,0.0,-0.0,0.0,0.25,1.668701001,0.01,0.0,0.25999999046325684,-0.6299999952316284,-0.009999999776482582,-0.0091552734375,0.00360107421875,1.017822265625,34.2400016784668,0.0,2.0,0.0,0.0,Waiting,0.0,0.0,0.0,0.0,0.0,0.0,0.0,0.0,
1.470400999999998,0.0,0.0,0.0,0.0,0.0,0.0,0.0,0.25,0.7788085140000001,0.01,0.0,0.0,0.0,0.0,-0.0,0.0,0.125,0.5432128350000001,0.01,0.0,0.0,0.0,0.0,0.0,0.0,0.0,3.358153953,0.01,0.0,0.0,0.125,0.0,-0.0,0.0,0.25,1.668701001,0.01,0.0,0.25999999046325684,-0.6299999952316284,-0.009999999776482582,-0.01177978515625,0.00347900390625,1.01934814453125,34.2400016784668,0.0,0.0,0.0,0.0,Waiting,0.0,0.0,0.0,0.0,0.0,0.0,0.0,0.0,
1.501083999999999,0.0,0.0,0.0,0.0,0.0,0.0,0.0,0.25,0.7775878110000001,0.01,0.0,0.0,0.0,0.0,-0.0,0.0,0.125,0.539550726,0.01,0.0,0.0,0.0,0.0,0.0,0.0,0.0,3.358153953,0.01,0.0,0.0,0.0,0.0,-0.0,0.0,0.25,1.668701001,0.01,0.0,0.25999999046325684,-0.6299999952316284,-0.009999999776482582,-0.01007080078125,0.003173828125,1.0196533203125,34.2400016784668,0.0,1.0,0.0,0.0,Waiting,0.0,0.0,0.0,0.0,0.0,0.0,0.0,0.0,
1.5202359999999973,0.0,0.0,0.0,0.0,0.0,0.0,0.0,0.25,0.7775878110000001,0.01,0.0,0.0,0.0,0.0,-0.0,0.0,0.125,0.539550726,0.01,0.0,0.0,0.0,0.0,0.0,0.0,0.0,3.35693325,0.01,0.0,0.0,0.0,0.0,-0.0,0.0,0.25,1.668701001,0.01,0.0,0.25999999046325684,-0.6299999952316284,-0.009999999776482582,-0.01214599609375,0.00323486328125,1.01654052734375,34.2400016784668,0.0,0.0,0.0,0.0,Waiting,0.0,0.0,0.0,0.0,0.0,0.0,0.0,0.0,
1.5449120000000003,0.0,0.0,0.0,0.0,0.0,0.0,0.0,0.25,0.7788085140000001,0.01,0.0,0.0,0.0,0.0,-0.0,0.0,0.125,0.5407714290000001,0.01,0.0,0.0,0.0,0.0,0.0,0.0,0.0,3.358153953,0.01,0.0,0.0,0.0,0.0,-0.0,0.0,0.25,1.668701001,0.01,0.0,0.25999999046325684,-0.6399999856948853,-0.009999999776482582,-0.01141357421875,-0.0029296875,1.007568359375,34.2400016784668,0.0,0.0,0.0,0.0,Waiting,0.0,0.0,0.0,0.0,0.0,0.0,0.0,0.0,
1.5627949999999982,0.0,0.0,0.0,0.0,0.0,0.0,0.0,0.25,0.7788085140000001,0.01,0.0,0.0,0.0,0.0,-0.0,0.0,0.125,0.539550726,0.01,0.0,0.0,0.0,0.0,0.0,0.0,0.0,3.358153953,0.01,0.0,0.0,0.0,0.0,-0.0,0.0,0.25,1.668701001,0.01,0.0,0.25999999046325684,-0.6399999856948853,-0.009999999776482582,-0.00628662109375,-0.008544921875,1.01318359375,34.2400016784668,0.0,5.0,0.0,0.0,Waiting,0.0,0.0,0.0,0.0,0.0,0.0,0.0,0.0,
1.5876319999999977,0.0,0.0,0.0,0.0,0.0,0.0,0.0,0.25,0.7788085140000001,0.01,0.0012207030000004337,0.0,0.0,0.0,-0.0,0.0,0.125,0.5407714290000001,0.01,0.0,0.0,0.0,0.0,0.0,0.0,0.0,3.35693325,0.01,0.0,0.0,0.0,0.0,-0.0,0.0,0.25,1.668701001,0.01,0.0,0.25999999046325684,-0.6399999856948853,-0.009999999776482582,-0.005615234375,0.0013427734375,1.01385498046875,34.2400016784668,0.0,5.0,0.0,0.0,Waiting,0.0,0.0,0.0,0.0,0.0,0.0,0.0,0.0,
1.6062009999999973,0.0,0.0,0.0,0.0,0.0,0.0,0.0,0.25,0.7775878110000001,0.01,0.0012207030000004337,0.0,0.0,0.0,-0.0,0.0,0.125,0.539550726,0.01,0.0,0.0,0.0,0.0,0.0,0.0,0.0,3.359374656,0.01,0.0,0.0,0.125,0.0,-0.0,0.0,0.25,1.668701001,0.01,0.0,0.25999999046325684,-0.6299999952316284,-0.009999999776482582,-0.01080322265625,0.01312255859375,1.0291748046875,34.2400016784668,0.0,0.0,0.0,0.0,Waiting,0.0,0.0,0.0,0.0,0.0,0.0,0.0,0.0,
1.6288029999999998,0.0,0.0,0.0,0.0,0.0,0.0,0.0,0.25,0.7788085140000001,0.01,-0.0012207030000004337,0.0,0.0,0.0,-0.0,0.0,0.125,0.539550726,0.01,0.0,0.0,0.0,0.0,0.0,0.0,0.0,3.358153953,0.01,0.0,0.0,0.125,0.0,-0.0,0.0,0.25,1.668701001,0.01,0.0,0.25999999046325684,-0.6299999952316284,-0.009999999776482582,-0.02447509765625,0.0050048828125,1.009521484375,34.2400016784668,0.0,-13.0,0.0,0.0,Waiting,0.0,0.0,0.0,0.0,0.0,0.0,0.0,0.0,
1.6465589999999974,0.0,0.0,0.0,0.0,0.0,0.0,0.0,0.25,0.7788085140000001,0.01,-0.0012207030000004337,0.0,0.0,0.0,-0.0,0.0,0.125,0.5407714290000001,0.01,0.0,0.0,0.0,0.0,0.0,0.0,0.0,3.358153953,0.01,0.0,0.0,0.0,0.0,-0.0,0.0,0.25,1.668701001,0.01,0.0,0.25999999046325684,-0.6399999856948853,-0.009999999776482582,-0.01629638671875,5.4931640625E-4,1.0018310546875,34.2400016784668,0.0,-6.0,0.0,0.0,Waiting,0.0,0.0,0.0,0.0,0.0,0.0,0.0,0.0,
1.6657699999999969,0.0,0.0,0.0,0.0,0.0,0.0,0.0,0.25,0.7775878110000001,0.01,-0.0012207030000004337,0.0,0.0,0.0,-0.0,0.0,0.125,0.539550726,0.01,0.0,0.0,0.0,0.0,0.0,0.0,0.0,3.358153953,0.01,0.0,0.0,0.0,0.0,-0.0,0.0,0.25,1.668701001,0.01,0.0,0.25999999046325684,-0.6399999856948853,-0.009999999776482582,-0.016357421875,0.0125732421875,1.0125732421875,34.2400016784668,0.0,-4.0,0.0,0.0,Waiting,0.0,0.0,0.0,0.0,0.0,0.0,0.0,0.0,
1.687525999999998,0.0,0.0,0.0,0.0,0.0,0.0,0.0,0.25,0.7788085140000001,0.01,0.0,0.0,0.0,0.0,-0.0,0.0,0.125,0.539550726,0.01,0.0,0.0,0.0,0.0,0.0,0.0,0.0,3.358153953,0.01,0.0,0.0,0.0,0.0,-0.0,0.0,0.25,1.668701001,0.01,0.0,0.25999999046325684,-0.6499999761581421,-0.009999999776482582,-0.0184326171875,-8.544921875E-4,1.02276611328125,34.2400016784668,0.0,-6.0,0.0,0.0,Waiting,0.0,0.0,0.0,0.0,0.0,0.0,0.0,0.0,
1.706489999999998,0.0,0.0,0.0,0.0,0.0,0.0,0.0,0.25,0.7788085140000001,0.01,0.0,0.0,0.0,0.0,-0.0,0.0,0.125,0.53710932,0.01,0.0,0.0,0.0,0.0,0.0,0.0,0.0,3.358153953,0.01,0.0,0.0,0.0,0.0,-0.0,0.0,0.25,1.668701001,0.01,0.0,0.25999999046325684,-0.6399999856948853,-0.009999999776482582,-9.765625E-4,0.00579833984375,1.00360107421875,34.2400016784668,0.0,10.0,0.0,0.0,Waiting,0.0,0.0,0.0,0.0,0.0,0.0,0.0,0.0,
1.7291189999999987,0.0,0.0,0.0,0.0,0.0,0.0,0.0,0.25,0.78124992,0.01,0.0,0.0,0.0,0.0,-0.0,0.0,0.125,0.539550726,0.01,0.0,0.0,0.0,0.0,0.0,0.0,0.0,3.35693325,0.01,0.0,0.0,0.0,0.0,-0.0,0.0,0.25,1.668701001,0.01,0.0,0.25999999046325684,-0.6499999761581421,-0.009999999776482582,-0.007568359375,-8.544921875E-4,1.01416015625,34.279998779296875,0.0,3.0,0.0,0.0,Waiting,0.0,0.0,0.0,0.0,0.0,0.0,0.0,0.0,
1.7475910000000003,0.0,0.0,0.0,0.0,0.0,0.0,0.0,0.25,0.7788085140000001,0.01,0.0,0.0,0.0,0.0,-0.0,0.0,0.125,0.5407714290000001,0.01,0.0,0.0,0.0,0.0,0.0,0.0,0.0,3.358153953,0.01,0.0,0.0,0.0,0.0,-0.0,0.0,0.25,1.666259595,0.01,0.0,0.25999999046325684,-0.6499999761581421,-0.019999999552965164,-0.00933837890625,-0.00201416015625,1.01251220703125,34.279998779296875,0.0,2.0,0.0,0.0,Waiting,0.0,0.0,0.0,0.0,0.0,0.0,0.0,0.0,
1.7666409999999997,0.0,0.0,0.0,0.0,0.0,0.0,0.0,0.25,0.782470623,0.01,0.0,0.0,0.0,0.0,-0.0,0.0,0.125,0.5407714290000001,0.01,0.0,0.0,0.0,0.0,0.0,0.0,0.0,3.358153953,0.01,0.0,0.0,0.0,0.0,-0.0,0.0,0.25,1.668701001,0.01,0.0,0.25999999046325684,-0.6499999761581421,-0.009999999776482582,-0.009033203125,0.009033203125,1.02044677734375,34.279998779296875,0.0,2.0,0.0,0.0,Waiting,0.0,0.0,0.0,0.0,0.0,0.0,0.0,0.0,
1.7871209999999993,0.0,0.0,0.0,0.0,0.0,0.0,0.0,0.25,0.7788085140000001,0.01,0.0012207030000004337,0.0,0.0,0.0,-0.0,0.0,0.125,0.539550726,0.01,0.0,0.0,0.0,0.0,0.0,0.0,0.0,3.358153953,0.01,0.0,0.0,0.0,0.0,-0.0,0.0,0.25,1.668701001,0.01,0.0,0.25999999046325684,-0.6499999761581421,-0.009999999776482582,-0.01324462890625,0.0067138671875,1.02447509765625,34.279998779296875,0.0,-1.0,0.0,0.0,Waiting,0.0,0.0,0.0,0.0,0.0,0.0,0.0,0.0,
1.8081759999999996,0.0,0.0,0.0,0.0,0.0,0.0,0.0,0.25,0.780029217,0.01,0.0012207030000004337,0.0,0.0,0.0,-0.0,0.0,0.125,0.5407714290000001,0.01,0.0,0.0,0.0,0.0,0.0,0.0,0.0,3.358153953,0.01,0.0,0.0,0.0,0.0,-0.0,0.0,0.25,1.668701001,0.01,0.0,0.25999999046325684,-0.6499999761581421,-0.019999999552965164,-0.0076904296875,-0.00213623046875,1.0113525390625,34.279998779296875,0.0,3.0,0.0,0.0,Waiting,0.0,0.0,0.0,0.0,0.0,0.0,0.0,0.0,
1.8303639999999977,0.0,0.0,0.0,0.0,0.0,0.0,0.0,0.25,0.7788085140000001,0.01,-0.0012207030000004337,0.0,0.0,0.0,-0.0,0.0,0.125,0.539550726,0.01,0.0,0.0,0.0,0.0,0.0,0.0,0.0,3.358153953,0.01,0.0,0.0,0.0,0.0,-0.0,0.0,0.25,1.668701001,0.01,0.0,0.25999999046325684,-0.6499999761581421,-0.019999999552965164,-0.0220947265625,0.00164794921875,1.02301025390625,34.279998779296875,0.0,-10.0,0.0,0.0,Waiting,0.0,0.0,0.0,0.0,0.0,0.0,0.0,0.0,
1.8495730000000004,0.0,0.0,0.0,0.0,0.0,0.0,0.0,0.25,0.7788085140000001,0.01,-0.0012207030000004337,0.0,0.0,0.0,-0.0,0.0,0.125,0.5407714290000001,0.01,0.0,0.0,0.0,0.0,0.0,0.0,0.0,3.35693325,0.01,0.0,0.0,0.0,0.0,-0.0,0.0,0.25,1.668701001,0.01,0.0,0.25999999046325684,-0.6499999761581421,-0.019999999552965164,-0.009765625,0.0030517578125,1.01800537109375,34.279998779296875,0.0,1.0,0.0,0.0,Closing,0.0,0.0,0.0,0.0,0.0,0.0,0.0,0.0,
1.8680819999999985,0.0,0.0,0.0,0.0,0.0,0.0,0.0,0.25,0.7788085140000001,0.01,-0.0012207030000004337,0.0,0.0,0.0,-0.0,0.0,0.125,0.5407714290000001,0.01,0.0,0.0,0.0,0.0,0.0,0.0,0.0,3.359374656,0.01,0.0,0.0,0.0,0.0,-0.0,0.0,0.25,1.668701001,0.01,0.0,0.25999999046325684,-0.6499999761581421,-0.019999999552965164,-0.012939453125,-2.44140625E-4,1.02630615234375,34.279998779296875,0.0,-1.0,0.0,0.0,Closing,0.0,0.0,0.0,0.0,0.0,0.0,0.0,0.0,
1.8914879999999976,0.0,0.0,0.0,0.0,0.0,0.0,0.0,0.25,0.7788085140000001,0.01,0.0,0.0,0.0,0.0,-0.0,0.0,0.125,0.5407714290000001,0.01,0.0,0.0,0.0,0.0,0.0,0.0,0.0,3.358153953,0.01,0.0,0.0,0.0,0.0,-0.0,0.0,0.25,1.668701001,0.01,0.0,0.25999999046325684,-0.6499999761581421,-0.009999999776482582,-0.0140380859375,0.00335693359375,1.02545166015625,34.279998779296875,0.0,-2.0,0.0,0.0,Closing,0.0,0.0,0.0,0.0,0.0,0.0,0.0,0.0,
1.9098059999999968,0.0,0.0,0.0,0.0,0.0,0.0,0.0,0.25,0.782470623,0.01,0.0,0.0,0.0,0.0,-0.0,0.0,0.125,0.5407714290000001,0.01,0.0,0.0,0.0,0.0,0.0,0.0,0.0,3.358153953,0.01,0.0,0.0,0.0,0.0,-0.0,0.0,0.25,1.668701001,0.01,0.0,0.25999999046325684,-0.6499999761581421,-0.009999999776482582,0.00506591796875,0.005859375,1.0257568359375,34.279998779296875,0.0,16.0,0.0,0.0,Closing,0.0,0.0,0.0,0.0,0.0,0.0,0.0,0.0,
1.9312160000000003,0.0,0.0,0.0,0.0,0.0,0.0,0.0,0.25,0.748290939,0.01,0.0,0.0,0.0,0.0,-0.0,0.0,0.125,0.539550726,0.01,0.0,0.0,0.0,0.0,0.0,0.0,0.0,3.355712547,0.01,0.0,0.0,0.0,0.0,-0.0,0.0,0.25,1.668701001,0.01,0.0,0.25999999046325684,-0.6499999761581421,-0.019999999552965164,-0.00732421875,0.00787353515625,1.0355224609375,34.279998779296875,0.0,4.0,0.0,0.0,Closing,0.0,0.0,0.0,0.0,0.0,0.0,0.0,0.0,
1.9492439999999989,0.0,0.0,0.0,0.0,0.0,0.0,0.0,0.25,0.7788085140000001,0.01,0.0,0.0,0.0,0.0,-0.0,0.0,0.125,0.5407714290000001,0.01,0.0,0.0,0.0,0.0,0.0,0.0,0.0,3.358153953,0.01,0.0,0.0,0.0,0.0,-0.0,0.0,0.25,1.668701001,0.01,0.0,0.25999999046325684,-0.6499999761581421,-0.009999999776482582,-0.010009765625,-0.0030517578125,1.04302978515625,34.279998779296875,0.0,1.0,0.0,0.0,Closing,0.0,0.0,0.0,0.0,0.0,0.0,0.0,0.0,
1.9693230000000004,0.0,0.0,0.0,0.0,0.0,0.0,0.0,0.25,0.7788085140000001,0.01,0.0,0.0,0.0,0.0,-0.0,0.0,0.125,0.5407714290000001,0.01,0.0,0.0,0.0,0.0,0.0,0.0,0.0,3.358153953,0.01,0.0,0.0,0.0,0.0,-0.0,0.0,0.25,1.668701001,0.01,0.0,0.25999999046325684,-0.6499999761581421,-0.009999999776482582,-0.010009765625,-0.0030517578125,1.04302978515625,34.279998779296875,0.0,1.0,0.0,0.0,Closing,0.0,0.0,0.0,0.0,0.0,0.0,0.0,0.0,
1.9901970000000002,0.0,0.0,0.0,0.0,0.0,0.0,0.0,0.25,0.7775878110000001,0.01,0.0,0.0,0.0,0.0,-0.0,0.0,0.125,0.539550726,0.01,0.0,0.0,0.0,0.0,0.0,0.0,0.0,3.358153953,0.01,0.0,0.0,0.0,0.0,-0.0,0.0,0.25,1.668701001,0.01,0.0,0.25999999046325684,-0.6499999761581421,-0.009999999776482582,-0.01702880859375,-0.0152587890625,1.00738525390625,34.279998779296875,0.0,-5.0,0.0,0.0,Closing,0.0,0.0,0.0,0.0,0.0,0.0,0.0,0.0,
2.008270999999997,0.0,0.0,0.0,0.0,0.0,0.0,0.0,0.25,0.7788085140000001,0.01,0.0,0.0,0.0,0.0,-0.0,0.0,0.125,0.5407714290000001,0.01,0.0,0.0,0.0,0.0,0.0,0.0,0.0,3.359374656,0.01,0.0,0.0,0.0,0.0,-0.0,0.0,0.25,1.668701001,0.01,0.0,0.25999999046325684,-0.6499999761581421,-0.009999999776482582,-0.01702880859375,-0.0152587890625,1.00738525390625,34.279998779296875,0.0,-5.0,0.0,0.0,Closing,0.0,0.0,0.0,0.0,0.0,0.0,0.0,0.0,
2.0302239999999983,0.0,0.0,0.0,0.0,0.0,0.0,0.0,0.25,0.780029217,0.01,0.0,0.0,0.0,0.0,-0.0,0.0,0.125,0.5407714290000001,0.01,0.0,0.0,0.0,0.0,0.0,0.0,0.0,3.358153953,0.01,0.0,0.0,0.0,0.0,-0.0,0.0,0.25,1.668701001,0.01,0.0,0.25999999046325684,-0.6499999761581421,-0.009999999776482582,-0.013916015625,-0.00701904296875,1.04541015625,34.279998779296875,0.0,-2.0,0.0,0.0,Closing,0.0,0.0,0.0,0.0,0.0,0.0,0.0,0.0,
2.048614999999998,0.0,0.0,0.0,0.0,0.0,0.0,0.0,0.25,0.780029217,0.01,0.0,0.0,0.0,0.0,-0.0,0.0,0.125,0.5407714290000001,0.01,0.0,0.0,0.0,0.0,0.0,0.0,0.0,3.358153953,0.01,0.0,0.0,0.0,0.0,-0.0,0.0,0.25,1.668701001,0.01,0.0,0.25999999046325684,-0.6499999761581421,-0.009999999776482582,-0.02264404296875,-0.0146484375,1.009521484375,34.279998779296875,0.0,-11.0,0.0,0.0,Closing,0.0,0.0,0.0,0.0,0.0,0.0,0.0,0.0,
2.066482,0.0,0.0,0.0,0.0,0.0,0.0,0.0,0.25,0.7775878110000001,0.01,0.0,0.0,0.0,0.0,-0.0,0.0,0.125,0.5407714290000001,0.01,0.0,0.0,0.0,0.0,0.0,0.0,0.0,3.35693325,0.01,0.0,0.0,0.0,0.0,-0.0,0.0,0.25,1.668701001,0.01,0.0,0.25999999046325684,-0.6499999761581421,-0.009999999776482582,0.003173828125,0.007568359375,1.0330810546875,34.279998779296875,0.0,15.0,0.0,0.0,Closing,0.0,0.0,0.0,0.0,0.0,0.0,0.0,0.0,
2.0891679999999977,0.0,0.0,0.0,0.0,0.0,0.0,0.0,0.25,0.7775878110000001,0.01,0.0,0.0,0.0,0.0,-0.0,0.0,0.125,0.539550726,0.01,0.0,0.0,0.0,0.0,0.0,0.0,0.0,3.358153953,0.01,0.0,0.0,0.0,0.0,-0.0,0.0,0.25,1.668701001,0.01,0.0,0.25999999046325684,-0.6499999761581421,-0.019999999552965164,-0.013916015625,-0.00653076171875,1.004638671875,34.279998779296875,0.0,-2.0,0.0,3.0517578125E-5,Closing,0.0,0.0,0.0,0.0,0.0,0.0,0.0,0.0,
2.107510999999999,0.0,0.0,0.0,0.0,0.0,0.0,0.0,0.25,0.782470623,0.01,0.0,0.0,0.0,0.0,-0.0,0.0,0.125,0.5407714290000001,0.01,0.0,0.0,0.0,0.0,0.0,0.0,0.0,3.358153953,0.01,0.0,0.0,0.0,0.0,-0.0,0.0,0.25,1.668701001,0.01,0.0,0.25999999046325684,-0.6499999761581421,-0.019999999552965164,5.4931640625E-4,-0.01275634765625,1.01220703125,34.279998779296875,0.0,12.0,0.0,3.0517578125E-5,Closing,0.0,0.0,0.0,0.0,0.0,0.0,0.0,0.0,
2.1288709999999993,0.0,0.0,0.0,0.0,0.0,0.0,0.0,0.25,0.7788085140000001,0.01,0.0012207030000004337,0.0,0.0,0.0,-0.0,0.0,0.125,0.539550726,0.01,0.0,0.0,0.0,0.0,0.0,0.0,0.0,3.358153953,0.01,0.0,0.0,0.0,0.0,-0.0,0.0,0.25,1.669921704,0.01,0.0,0.25999999046325684,-0.6499999761581421,-0.019999999552965164,0.004638671875,0.0181884765625,1.0257568359375,34.279998779296875,0.0,16.0,0.0,3.0517578125E-5,Closing,0.0,0.0,0.0,0.0,0.0,0.0,0.0,0.0,
2.1485809999999983,0.0,0.0,0.0,0.0,0.0,0.0,0.0,0.25,0.7788085140000001,0.01,0.0012207030000004337,0.0,0.0,0.0,-0.0,0.0,0.125,0.5407714290000001,0.01,0.0,0.0,0.0,0.0,0.0,0.0,0.0,3.358153953,0.01,0.0,0.0,0.0,0.0,-0.0,0.0,0.25,1.669921704,0.01,0.0,0.25999999046325684,-0.6499999761581421,-0.019999999552965164,-0.02130126953125,-3.662109375E-4,1.02276611328125,34.279998779296875,0.0,-9.0,0.0,3.0517578125E-5,Closing,0.0,0.0,0.0,0.0,0.0,0.0,0.0,0.0,
2.1680869999999994,0.0,0.0,0.0,0.0,0.0,0.0,0.0,0.25,0.7788085140000001,0.01,0.0012207030000004337,0.0,0.0,0.0,-0.0,0.0,0.125,0.539550726,0.01,0.0,0.0,0.0,0.0,0.0,0.0,0.0,3.359374656,0.01,0.0,0.0,0.0,0.0,-0.0,0.0,0.25,1.668701001,0.01,0.0,0.25,-0.6399999856948853,-0.019999999552965164,2.44140625E-4,0.0108642578125,1.04864501953125,34.279998779296875,0.0,12.0,0.0,3.0517578125E-5,Closing,0.0,0.0,0.0,0.0,0.0,0.0,0.0,0.0,
2.190483,0.0,0.0,0.0,0.0,0.0,0.0,0.0,0.25,0.7775878110000001,0.01,-0.0012207030000004337,0.0,0.0,0.0,-0.0,0.0,0.125,0.5407714290000001,0.01,0.0,0.0,0.0,0.0,0.0,0.0,0.0,3.359374656,0.01,0.0,0.0,0.0,0.0,-0.0,0.0,0.25,1.668701001,0.01,0.0,0.23999999463558197,-0.6499999761581421,-0.019999999552965164,0.00970458984375,0.00189208984375,1.0069580078125,34.279998779296875,0.0,21.0,0.0,3.0517578125E-5,Closing,0.0,0.0,0.0,0.0,0.0,0.0,0.0,0.0,
2.2099159999999975,0.0,0.0,0.0,0.0,0.0,0.0,0.0,0.25,0.755615157,0.01,-0.0012207030000004337,0.0,0.0,0.0,-0.0,0.0,0.125,0.5407714290000001,0.01,0.0,0.0,0.0,0.0,0.0,0.0,0.0,3.359374656,0.01,0.0,0.0,0.0,0.0,-0.0,0.0,0.25,1.668701001,0.01,0.0,0.25,-0.6499999761581421,-0.019999999552965164,-0.01873779296875,0.00384521484375,1.0269775390625,34.279998779296875,0.0,-7.0,1.52587890625E-5,3.0517578125E-5,Closing,0.0,0.0,0.0,0.0,0.0,0.0,0.0,0.0,
2.2318949999999966,0.0,0.0,0.0,0.0,0.0,0.0,0.0,0.25,0.7788085140000001,0.01,0.0,0.0,0.0,0.0,-0.0,0.0,0.125,0.5407714290000001,0.01,0.0,0.0,0.0,0.0,0.0,0.0,0.0,3.358153953,0.01,0.0,0.0,0.0,0.0,-0.0,0.0,0.25,1.669921704,0.01,0.0,0.25,-0.6499999761581421,-0.019999999552965164,-0.0189208984375,0.0030517578125,1.0162353515625,34.2599983215332,0.0,-7.0,1.52587890625E-5,3.0517578125E-5,Closing,0.0,0.0,0.0,0.0,0.0,0.0,0.0,0.0,
2.251078999999998,0.0,0.0,0.0,0.0,0.0,0.0,0.0,0.25,0.7775878110000001,0.01,0.0,0.0,0.0,0.0,-0.0,0.0,0.125,0.5407714290000001,0.01,0.0,0.0,0.0,0.0,0.0,0.0,0.0,3.359374656,0.01,0.0,0.0,0.0,0.0,-0.0,0.0,0.25,1.668701001,0.01,0.0,0.25999999046325684,-0.6499999761581421,-0.019999999552965164,-0.0224609375,0.00701904296875,1.02801513671875,34.2599983215332,0.0,-10.0,1.52587890625E-5,3.0517578125E-5,Closing,0.0,0.0,0.0,0.0,0.0,0.0,0.0,0.0,
2.2698359999999993,0.0,0.0,0.0,0.0,0.0,0.0,0.0,0.25,0.7775878110000001,0.01,0.0,0.0,0.0,0.0,-0.0,0.0,0.125,0.539550726,0.01,0.0,0.0,0.0,0.0,0.0,0.0,0.0,3.358153953,0.01,0.0,0.0,0.0,0.0,-0.0,0.0,0.25,1.668701001,0.01,0.0,0.25,-0.6499999761581421,-0.019999999552965164,-0.0068359375,0.006591796875,1.01434326171875,34.2599983215332,0.0,4.0,1.52587890625E-5,3.0517578125E-5,Closing,0.0,0.0,0.0,0.0,0.0,0.0,0.0,0.0,
2.2911179999999987,0.0,0.0,0.0,0.0,0.0,0.0,0.0,0.25,0.780029217,0.01,0.0,0.0,0.0,0.0,-0.0,0.0,0.125,0.5407714290000001,0.01,0.0,0.0,0.0,0.0,0.0,0.0,0.0,3.359374656,0.01,0.0,0.0,0.0,0.0,-0.0,0.0,0.25,1.668701001,0.01,0.0,0.25999999046325684,-0.6499999761581421,-0.019999999552965164,-0.00543212890625,0.01123046875,1.0079345703125,34.2599983215332,0.0,6.0,1.52587890625E-5,3.0517578125E-5,Closing,0.0,0.0,0.0,0.0,0.0,0.0,0.0,0.0,
2.314120999999999,0.0,0.0,0.0,0.0,0.0,0.0,0.0,0.25,0.7775878110000001,0.01,0.0,0.0,0.0,0.0,-0.0,0.0,0.125,0.5407714290000001,0.01,0.0,0.0,0.0,0.0,0.0,0.0,0.0,3.359374656,0.01,0.0,0.0,0.125,0.0,-0.0,0.0,0.25,1.669921704,0.01,0.0,0.25999999046325684,-0.6499999761581421,-0.019999999552965164,-0.015869140625,0.014892578125,1.0421142578125,34.2599983215332,0.0,-4.0,1.52587890625E-5,3.0517578125E-5,Closing,0.0,0.0,0.0,0.0,0.0,0.0,0.0,0.0,
2.3363479999999983,0.0,0.0,0.0,0.0,0.0,0.0,0.0,0.25,0.7788085140000001,0.01,0.0012207030000004337,0.0,0.0,0.0,-0.0,0.0,0.125,0.5407714290000001,0.01,0.0,0.0,0.0,0.0,0.0,0.0,0.0,3.359374656,0.01,0.0,0.0,0.125,0.0,-0.0,0.0,0.25,1.669921704,0.01,0.0,0.25999999046325684,-0.6299999952316284,-0.019999999552965164,-9.765625E-4,-0.00469970703125,0.98443603515625,34.2599983215332,0.0,9.0,1.52587890625E-5,3.0517578125E-5,Closing,0.0,0.0,0.0,0.0,0.0,0.0,0.0,0.0,
2.354464,0.0,0.0,0.0,0.0,0.0,0.0,0.0,0.25,0.7775878110000001,0.01,0.0012207030000004337,0.0,0.0,0.0,-0.0,0.0,0.125,0.5407714290000001,0.01,0.0,0.0,0.0,0.0,0.0,0.0,0.0,3.359374656,0.01,0.0,0.0,0.125,0.0,-0.0,0.0,0.25,1.668701001,0.01,0.0,0.25999999046325684,-0.6499999761581421,-0.019999999552965164,-0.02001953125,-5.4931640625E-4,1.01715087890625,34.2599983215332,0.0,-8.0,1.52587890625E-5,3.0517578125E-5,Closing,0.0,0.0,0.0,0.0,0.0,0.0,0.0,0.0,
2.3748509999999987,0.0,0.0,0.0,0.0,0.0,0.0,0.0,0.25,0.78124992,0.01,0.0,0.0,0.0,0.0,-0.0,0.0,0.125,0.5407714290000001,0.01,0.0,0.0,0.0,0.0,0.0,0.0,0.0,3.358153953,0.01,0.0,0.0,0.125,0.0,-0.0,0.0,0.25,1.668701001,0.01,0.0,0.25999999046325684,-0.6499999761581421,-0.019999999552965164,-0.0115966796875,0.02593994140625,1.038818359375,34.2599983215332,0.0,0.0,1.52587890625E-5,4.57763671875E-5,Closing,0.0,0.0,0.0,0.0,0.0,0.0,0.0,0.0,
2.3978379999999997,0.0,0.0,0.0,0.0,0.0,0.0,0.0,0.25,0.7775878110000001,0.01,0.0,0.0,0.0,0.0,-0.0,0.0,0.125,0.539550726,0.01,0.0,0.0,0.0,0.0,0.0,0.0,0.0,3.359374656,0.01,0.0,0.0,0.125,0.0,-0.0,0.0,0.25,1.669921704,0.01,0.0,0.27000001072883606,-0.6399999856948853,-0.019999999552965164,-0.01995849609375,-0.00726318359375,1.01263427734375,34.2599983215332,0.0,-8.0,1.52587890625E-5,7.62939453125E-5,Closing,0.0,0.0,0.0,0.0,0.0,0.0,0.0,0.0,
2.4152009999999975,0.0,0.0,0.0,0.0,0.0,0.0,0.0,0.25,0.7788085140000001,0.01,0.0,0.0,0.0,0.0,-0.0,0.0,0.125,0.5407714290000001,0.01,0.0,0.0,0.0,0.0,0.0,0.0,0.0,3.359374656,0.01,0.0,0.0,0.125,0.0,-0.0,0.0,0.25,1.668701001,0.01,0.0,0.27000001072883606,-0.6299999952316284,-0.019999999552965164,0.00616455078125,-0.0120849609375,0.9993896484375,34.2599983215332,0.0,17.0,1.52587890625E-5,7.62939453125E-5,Closing,0.0,0.0,0.0,0.0,0.0,0.0,0.0,0.0,
2.4418689999999987,0.0,0.0,0.0,0.0,0.0,0.0,0.0,0.25,0.7788085140000001,0.01,-0.0012207030000004337,0.0,0.0,0.0,-0.0,0.0,0.125,0.5407714290000001,0.01,0.0,0.0,0.0,0.0,0.0,0.0,0.0,3.358153953,0.01,0.0,0.0,0.125,0.0,-0.0,0.0,0.25,1.668701001,0.01,0.0,0.27000001072883606,-0.6299999952316284,-0.019999999552965164,0.0057373046875,-0.00164794921875,0.97222900390625,34.2599983215332,0.0,16.0,1.52587890625E-5,7.62939453125E-5,Closing,0.0,0.0,0.0,0.0,0.0,0.0,0.0,0.0,
2.460441999999999,0.0,0.0,0.0,0.0,0.0,0.0,0.0,0.25,0.7788085140000001,0.01,-0.0012207030000004337,0.0,0.0,0.0,-0.0,0.0,0.125,0.5407714290000001,0.01,0.0,0.0,0.0,0.0,0.0,0.0,0.0,3.359374656,0.01,0.0,0.0,0.0,0.0,-0.0,0.0,0.25,1.671142407,0.01,0.0,0.27000001072883606,-0.6399999856948853,-0.019999999552965164,-0.0313720703125,-0.00689697265625,1.03094482421875,34.2599983215332,0.0,-19.0,0.0,7.62939453125E-5,Closing,0.0,0.0,0.0,0.0,0.0,0.0,0.0,0.0,
2.4831049999999997,0.0,0.0,0.0,0.0,0.0,0.0,0.0,0.25,0.7788085140000001,0.01,0.0012207030000004337,0.0,0.0,0.0,-0.0,0.0,0.125,0.539550726,0.01,0.0,0.0,0.0,0.0,0.0,0.0,0.0,3.358153953,0.01,0.0,0.0,0.0,0.0,-0.0,0.0,0.25,1.668701001,0.01,0.0,0.27000001072883606,-0.6399999856948853,-0.019999999552965164,0.00262451171875,0.00665283203125,1.015625,34.2599983215332,0.0,14.0,0.0,7.62939453125E-5,Closing,0.0,0.0,0.0,0.0,0.0,0.0,0.0,0.0,
2.5049729999999983,0.0,0.0,0.0,0.0,0.0,0.0,0.0,0.25,0.76904289,0.01,0.0012207030000004337,0.0,0.0,0.0,-0.0,0.0,0.125,0.539550726,0.01,0.0,0.0,0.0,0.0,0.0,0.0,0.0,3.358153953,0.01,0.0,0.0,0.0,0.0,-0.0,0.0,0.25,1.668701001,0.01,0.0,0.27000001072883606,-0.6399999856948853,-0.019999999552965164,-0.01177978515625,0.00836181640625,1.04364013671875,34.2599983215332,0.0,0.0,0.0,7.62939453125E-5,Closing,0.0,0.0,0.0,0.0,0.0,0.0,0.0,0.0,
2.5246090000000003,0.0,0.0,0.0,0.0,0.0,0.0,0.0,0.25,0.772704999,0.01,-0.0012207030000004337,0.0,0.0,0.0,-0.0,0.0,0.125,0.5407714290000001,0.01,0.0,0.0,0.0,0.0,0.0,0.0,0.0,3.35693325,0.01,0.0,0.0,0.0,0.0,-0.0,0.0,0.25,1.669921704,0.01,0.0,0.27000001072883606,-0.6299999952316284,-0.019999999552965164,-0.00140380859375,0.0052490234375,1.02862548828125,34.2599983215332,0.0,10.0,0.0,7.62939453125E-5,Closing,0.0,0.0,0.0,0.0,0.0,0.0,0.0,0.0,
2.5467729999999973,0.0,0.0,0.0,0.0,0.0,0.0,0.0,0.25,0.7788085140000001,0.01,-0.0012207030000004337,0.0,0.0,0.0,-0.0,0.0,0.125,0.539550726,0.01,0.0,0.0,0.0,0.0,0.0,0.0,0.0,3.358153953,0.01,0.0,0.0,0.125,0.0,-0.0,0.0,0.25,1.668701001,0.01,0.0,0.2800000011920929,-0.6399999856948853,-0.019999999552965164,-0.02288818359375,0.01165771484375,1.04205322265625,34.2599983215332,0.0,-11.0,0.0,7.62939453125E-5,Closing,0.0,0.0,0.0,0.0,0.0,0.0,0.0,0.0,
2.5675839999999988,0.0,0.0,0.0,0.0,0.0,0.0,0.0,0.25,0.7788085140000001,0.01,-0.0012207030000004337,0.0,0.0,0.0,-0.0,0.0,0.125,0.538330023,0.01,0.0,0.0,0.0,0.0,0.0,0.0,0.0,3.358153953,0.01,0.0,0.0,0.125,0.0,-0.0,0.0,0.25,1.668701001,0.01,0.0,0.27000001072883606,-0.6299999952316284,-0.019999999552965164,-0.00225830078125,0.017822265625,1.017822265625,34.2599983215332,0.0,9.0,0.0,7.62939453125E-5,Closing,0.0,0.0,0.0,0.0,0.0,0.0,0.0,0.0,
2.5896779999999997,0.0,0.0,0.0,0.0,0.0,0.0,0.0,0.25,0.7788085140000001,0.01,0.0,0.0,0.0,0.0,-0.0,0.0,0.125,0.5407714290000001,0.01,0.0,0.0,0.0,0.0,0.0,0.0,0.0,3.359374656,0.01,0.0,0.0,0.125,0.0,-0.0,0.0,0.25,1.668701001,0.01,0.0,0.27000001072883606,-0.6399999856948853,-0.019999999552965164,-0.029052734375,-0.00103759765625,1.01715087890625,34.2599983215332,0.0,-17.0,0.0,7.62939453125E-5,Closing,0.0,0.0,0.0,0.0,0.0,0.0,0.0,0.0,
2.6078580000000002,0.0,0.0,0.0,0.0,0.0,0.0,0.0,0.25,0.7788085140000001,0.01,0.0,0.0,0.0,0.0,-0.0,0.0,0.125,0.539550726,0.01,0.0,0.0,0.0,0.0,0.0,0.0,0.0,3.358153953,0.01,0.0,0.0,0.125,0.0,-0.0,0.0,0.25,1.668701001,0.01,0.0,0.27000001072883606,-0.6399999856948853,-0.019999999552965164,-0.02191162109375,0.00982666015625,1.02435302734375,34.2599983215332,0.0,-10.0,0.0,1.068115234375E-4,Closing,0.0,0.0,0.0,0.0,0.0,0.0,0.0,0.0,
2.625493999999999,0.0,0.0,0.0,0.0,0.0,0.0,0.0,0.25,0.7788085140000001,0.01,0.0,0.0,0.0,0.0,-0.0,0.0,0.125,0.5407714290000001,0.01,0.0,0.0,0.0,0.0,0.0,0.0,0.0,3.353271141,0.01,0.0,0.0,0.125,0.0,-0.0,0.0,0.25,1.668701001,0.01,0.0,0.25999999046325684,-0.6399999856948853,-0.019999999552965164,-7.9345703125E-4,0.01043701171875,1.02972412109375,34.2599983215332,0.0,10.0,0.0,1.52587890625E-4,Closing,0.0,0.0,0.0,0.0,0.0,0.0,0.0,0.0,
2.6487079999999987,0.0,0.0,0.0,0.0,0.0,0.0,0.0,0.25,0.7775878110000001,0.01,0.0,0.0,0.0,0.0,-0.0,0.0,0.125,0.5407714290000001,0.01,0.0,0.0,0.0,0.0,0.0,0.0,0.0,3.358153953,0.01,0.0,0.0,0.125,0.0,-0.0,0.0,0.25,1.668701001,0.01,0.0,0.25999999046325684,-0.6299999952316284,-0.019999999552965164,-0.0118408203125,0.010498046875,1.01202392578125,34.2599983215332,0.0,0.0,0.0,1.52587890625E-4,Closing,0.0,0.0,0.0,0.0,0.0,0.0,0.0,0.0,
2.666467999999997,0.0,0.0,0.0,0.0,0.0,0.0,0.0,0.25,0.7788085140000001,0.01,0.0,0.0,0.0,0.0,-0.0,0.0,0.125,0.5407714290000001,0.01,0.0,0.0,0.0,0.0,0.0,0.0,0.0,3.359374656,0.01,0.0,0.0,0.0,0.0,-0.0,0.0,0.25,1.668701001,0.01,0.0,0.27000001072883606,-0.6299999952316284,-0.019999999552965164,-0.0111083984375,0.0203857421875,0.9925537109375,34.2599983215332,0.0,0.0,0.0,1.52587890625E-4,Closing,0.0,0.0,0.0,0.0,0.0,0.0,0.0,0.0,
2.687564999999999,0.0,0.0,0.0,0.0,0.0,0.0,0.0,0.25,0.7788085140000001,0.01,0.0,0.0,0.0,0.0,-0.0,0.0,0.125,0.5407714290000001,0.01,0.0,0.0,0.0,0.0,0.0,0.0,0.0,3.358153953,0.01,0.0,0.0,0.0,0.0,-0.0,0.0,0.25,1.668701001,0.01,0.0,0.2800000011920929,-0.6299999952316284,-0.019999999552965164,-0.02154541015625,-0.00640869140625,1.04144287109375,34.2599983215332,0.0,-9.0,0.0,1.52587890625E-4,Closing,0.0,0.0,0.0,0.0,0.0,0.0,0.0,0.0,
2.7056529999999985,0.0,0.0,0.0,0.0,0.0,0.0,0.0,0.25,0.7788085140000001,0.01,0.0,0.0,0.0,0.0,-0.0,0.0,0.125,0.5407714290000001,0.01,0.0,0.0,0.0,0.0,0.0,0.0,0.0,3.358153953,0.01,0.0,0.0,0.0,0.0,-0.0,0.0,0.25,1.668701001,0.01,0.0,0.2800000011920929,-0.6399999856948853,-0.019999999552965164,-0.0244140625,-0.001220703125,1.014404296875,34.2599983215332,0.0,-12.0,0.0,1.52587890625E-4,Closing,0.0,0.0,0.0,0.0,0.0,0.0,0.0,0.0,
2.723904999999999,0.0,0.0,0.0,0.0,0.0,0.0,0.0,0.25,0.780029217,0.01,0.0,0.0,0.0,0.0,-0.0,0.0,0.125,0.539550726,0.01,0.0,0.0,0.0,0.0,0.0,0.0,0.0,3.358153953,0.01,0.0,0.0,0.0,0.0,-0.0,0.0,0.25,1.668701001,0.01,0.0,0.25999999046325684,-0.6399999856948853,-0.019999999552965164,-0.0037841796875,-0.022705078125,1.030517578125,34.2599983215332,0.0,7.0,0.0,1.220703125E-4,Closing,0.0,0.0,0.0,0.0,0.0,0.0,0.0,0.0,
2.743991999999998,0.0,0.0,0.0,0.0,0.0,0.0,0.0,0.25,0.7775878110000001,0.01,0.0,0.0,0.0,0.0,-0.0,0.0,0.125,0.539550726,0.01,0.0,0.0,0.0,0.0,0.0,0.0,0.0,3.358153953,0.01,0.0,0.0,0.125,0.0,-0.0,0.0,0.25,1.669921704,0.01,0.0,0.27000001072883606,-0.6399999856948853,-0.019999999552965164,-0.0089111328125,0.01104736328125,1.02239990234375,34.25,0.0,2.0,0.0,9.1552734375E-5,Closing,0.0,0.0,0.0,0.0,0.0,0.0,0.0,0.0,
2.761191999999999,0.0,0.0,0.0,0.0,0.0,0.0,0.0,0.25,0.7788085140000001,0.01,0.0,0.0,0.0,0.0,-0.0,0.0,0.125,0.5407714290000001,0.01,0.0,0.0,0.0,0.0,0.0,0.0,0.0,3.359374656,0.01,0.0,0.0,0.125,0.0,-0.0,0.0,0.25,1.669921704,0.01,0.0,0.25999999046325684,-0.6499999761581421,-0.019999999552965164,-0.03118896484375,0.0340576171875,1.00634765625,34.25,0.0,-19.0,0.0,7.62939453125E-5,Closing,0.0,0.0,0.0,0.0,0.0,0.0,0.0,0.0,
2.7855579999999973,0.0,0.0,0.0,0.0,0.0,0.0,0.0,0.25,0.7775878110000001,0.01,0.0012207030000004337,0.0,0.0,0.0,-0.0,0.0,0.125,0.539550726,0.01,0.0,0.0,0.0,0.0,0.0,0.0,0.0,3.358153953,0.01,0.0,0.0,0.125,0.0,-0.0,0.0,0.25,1.669921704,0.01,0.0,0.2800000011920929,-0.6499999761581421,-0.019999999552965164,0.00213623046875,-0.0068359375,1.010009765625,34.25,0.0,13.0,0.0,1.52587890625E-5,Closing,0.0,0.0,0.0,0.0,0.0,0.0,0.0,0.0,
2.8044879999999974,0.0,0.0,0.0,0.0,0.0,0.0,0.0,0.25,0.7775878110000001,0.01,0.0012207030000004337,0.0,0.0,0.0,-0.0,0.0,0.125,0.538330023,0.01,0.0,0.0,0.0,0.0,0.0,0.0,0.0,3.358153953,0.01,0.0,0.0,0.0,0.0,-0.0,0.0,0.25,1.668701001,0.01,0.0,0.2800000011920929,-0.6499999761581421,-0.019999999552965164,-0.0169677734375,0.0216064453125,1.0294189453125,34.25,0.0,-5.0,0.0,1.52587890625E-5,Closing,0.0,0.0,0.0,0.0,0.0,0.0,0.0,0.0,
2.821822,0.0,0.0,0.0,0.0,0.0,0.0,0.0,0.25,0.7788085140000001,0.01,0.0012207030000004337,0.0,0.0,0.0,-0.0,0.0,0.125,0.539550726,0.01,0.0,0.0,0.0,0.0,0.0,0.0,0.0,3.35693325,0.01,0.0,0.0,0.0,0.0,-0.0,0.0,0.25,1.668701001,0.01,0.0,0.27000001072883606,-0.6399999856948853,-0.019999999552965164,-0.01177978515625,0.02435302734375,0.9996337890625,34.25,0.0,0.0,0.0,1.52587890625E-5,Closing,0.0,0.0,0.0,0.0,0.0,0.0,0.0,0.0,
2.841625,0.0,0.0,0.0,0.0,0.0,0.0,0.0,0.25,0.7788085140000001,0.01,0.0,0.0,0.0,0.0,-0.0,0.0,0.125,0.5407714290000001,0.01,0.0,0.0,0.0,0.0,0.0,0.0,0.0,3.359374656,0.01,0.0,0.0,0.0,0.0,-0.0,0.0,0.25,1.668701001,0.01,0.0,0.2800000011920929,-0.6299999952316284,-0.019999999552965164,-0.02117919921875,-0.02203369140625,0.9862060546875,34.25,0.0,-10.0,0.0,1.52587890625E-5,Closing,0.0,0.0,0.0,0.0,0.0,0.0,0.0,0.0,
2.859776999999998,0.0,0.0,0.0,0.0,0.0,0.0,0.0,0.25,0.780029217,0.01,0.0,0.0,0.0,0.0,-0.0,0.0,0.125,0.5407714290000001,0.01,0.0,0.0,0.0,0.0,0.0,0.0,0.0,3.358153953,0.01,0.0,0.0,0.0,0.0,-0.0,0.0,0.25,1.668701001,0.01,0.0,0.2800000011920929,-0.6399999856948853,-0.019999999552965164,-0.0242919921875,0.02972412109375,1.02301025390625,34.25,0.0,-12.0,1.52587890625E-5,0.0,Closing,0.0,0.0,0.0,0.0,0.0,0.0,0.0,0.0,
2.882060999999998,0.0,0.0,0.0,0.0,0.0,0.0,0.0,0.25,0.7788085140000001,0.01,0.0,0.0,0.0,0.0,-0.0,0.0,0.125,0.539550726,0.01,0.0,0.0,0.0,0.0,0.0,0.0,0.0,3.358153953,0.01,0.0,0.0,0.0,0.0,-0.0,0.0,0.25,1.668701001,0.01,0.0,0.2800000011920929,-0.6299999952316284,-0.019999999552965164,-0.00115966796875,4.8828125E-4,1.02984619140625,34.25,0.0,10.0,3.0517578125E-5,0.0,Closing,0.0,0.0,0.0,0.0,0.0,0.0,0.0,0.0,
2.899780999999999,0.0,0.0,0.0,0.0,0.0,0.0,0.0,0.25,0.7788085140000001,0.01,0.0,0.0,0.0,0.0,-0.0,0.0,0.125,0.539550726,0.01,0.0,0.0,0.0,0.0,0.0,0.0,0.0,3.359374656,0.01,0.0,0.0,0.0,0.0,-0.0,0.0,0.25,1.668701001,0.01,0.0,0.2800000011920929,-0.6299999952316284,-0.019999999552965164,-0.01348876953125,-4.8828125E-4,1.05865478515625,34.25,0.0,-1.0,3.0517578125E-5,0.0,Closing,0.0,0.0,0.0,0.0,0.0,0.0,0.0,0.0,
2.919692999999999,0.0,0.0,0.0,0.0,0.0,0.0,0.0,0.25,0.7788085140000001,0.01,0.0,0.0,0.0,0.0,-0.0,0.0,0.125,0.539550726,0.01,0.0,0.0,0.0,0.0,0.0,0.0,0.0,3.358153953,0.01,0.0,0.0,0.125,0.0,-0.0,0.0,0.25,1.669921704,0.01,0.0,0.27000001072883606,-0.6299999952316284,-0.019999999552965164,-0.0101318359375,0.01226806640625,1.0242919921875,34.25,0.0,1.0,3.0517578125E-5,0.0,Closing,0.0,0.0,0.0,0.0,0.0,0.0,0.0,0.0,
2.939966999999997,0.0,0.0,0.0,0.0,0.0,0.0,0.0,0.25,0.7788085140000001,0.01,-0.0012207030000004337,0.0,0.0,0.0,-0.0,0.0,0.125,0.5407714290000001,0.01,0.0,0.0,0.0,0.0,0.0,0.0,0.0,3.358153953,0.01,0.0,0.0,0.125,0.0,-0.0,0.0,0.25,1.668701001,0.01,0.0,0.2800000011920929,-0.6299999952316284,-0.019999999552965164,-0.0233154296875,0.01953125,1.00927734375,34.25,0.0,-12.0,3.0517578125E-5,0.0,Closing,0.0,0.0,0.0,0.0,0.0,0.0,0.0,0.0,
2.9602249999999986,0.0,0.0,0.0,0.0,0.0,0.0,0.0,0.25,0.7788085140000001,0.01,-0.0012207030000004337,0.0,0.0,0.0,-0.0,0.0,0.125,0.539550726,0.01,0.0,0.0,0.0,0.0,0.0,0.0,0.0,3.359374656,0.01,0.0,0.0,0.0,0.0,-0.0,0.0,0.25,1.669921704,0.01,0.0,0.27000001072883606,-0.6299999952316284,-0.019999999552965164,-0.01495361328125,0.01495361328125,1.04449462890625,34.25,0.0,-3.0,3.0517578125E-5,0.0,Closing,0.0,0.0,0.0,0.0,0.0,0.0,0.0,0.0,
2.9813770000000006,0.0,0.0,0.0,0.0,0.0,0.0,0.0,0.25,0.780029217,0.01,0.0012207030000004337,0.0,0.0,0.0,-0.0,0.0,0.125,0.5407714290000001,0.01,0.0,0.0,0.0,0.0,0.0,0.0,0.0,3.358153953,0.01,0.0,0.0,0.0,0.0,-0.0,0.0,0.25,1.668701001,0.01,0.0,0.2800000011920929,-0.6399999856948853,-0.029999999329447746,-0.02569580078125,0.01287841796875,1.02899169921875,34.25,0.0,-14.0,3.0517578125E-5,0.0,Closing,0.0,0.0,0.0,0.0,0.0,0.0,0.0,0.0,
3.012128999999997,0.0,0.0,0.0,0.0,0.0,0.0,0.0,0.25,0.7763671080000001,0.01,0.0012207030000004337,0.0,0.0,0.0,-0.0,0.0,0.125,0.5407714290000001,0.01,0.0,0.0,0.0,0.0,0.0,0.0,0.0,3.354491844,0.01,0.0,0.0,0.0,0.0,-0.0,0.0,0.25,1.668701001,0.01,0.0,0.27000001072883606,-0.6299999952316284,-0.019999999552965164,-0.0247802734375,0.01336669921875,1.01348876953125,34.25,0.0,-13.0,3.0517578125E-5,0.0,Closing,0.0,0.0,0.0,0.0,0.0,0.0,0.0,0.0,
3.0385459999999984,0.0,0.0,0.0,0.0,0.0,0.0,0.0,0.25,0.7788085140000001,0.01,-0.0012207030000004337,0.0,0.0,0.0,-0.0,0.0,0.125,0.5407714290000001,0.01,0.0,0.0,0.0,0.0,0.0,0.0,0.0,3.358153953,0.01,0.0,0.0,0.0,0.0,-0.0,0.0,0.25,1.668701001,0.01,0.0,0.27000001072883606,-0.6399999856948853,-0.019999999552965164,-0.015869140625,0.01519775390625,1.01080322265625,34.25,0.0,-4.0,3.0517578125E-5,4.57763671875E-5,Closing,0.0,0.0,0.0,0.0,0.0,0.0,0.0,0.0,
3.0553609999999973,0.0,0.0,0.0,0.0,0.0,0.0,0.0,0.25,0.78124992,0.01,-0.0012207030000004337,0.0,0.0,0.0,-0.0,0.0,0.125,0.539550726,0.01,0.0,0.0,0.0,0.0,0.0,0.0,0.0,3.359374656,0.01,0.0,0.0,0.0,0.0,-0.0,0.0,0.25,1.668701001,0.01,0.0,0.2800000011920929,-0.6399999856948853,-0.019999999552965164,-0.00848388671875,0.002197265625,1.011474609375,34.25,0.0,2.0,3.0517578125E-5,9.1552734375E-5,Closing,0.0,0.0,0.0,0.0,0.0,0.0,0.0,0.0,
3.074143,0.0,0.0,0.0,0.0,0.0,0.0,0.0,0.25,0.780029217,0.01,0.0012207030000004337,0.0,0.0,0.0,-0.0,0.0,0.125,0.539550726,0.01,0.0,0.0,0.0,0.0,0.0,0.0,0.0,3.358153953,0.01,0.0,0.0,0.125,0.0,-0.0,0.0,0.25,1.668701001,0.01,0.0,0.27000001072883606,-0.6399999856948853,-0.019999999552965164,-0.01104736328125,-9.765625E-4,1.0224609375,34.25,0.0,0.0,3.0517578125E-5,9.1552734375E-5,Closing,0.0,0.0,0.0,0.0,0.0,0.0,0.0,0.0,
3.0944029999999985,0.0,0.0,0.0,0.0,0.0,0.0,0.0,0.25,0.780029217,0.01,0.0012207030000004337,0.0,0.0,0.0,-0.0,0.0,0.125,0.539550726,0.01,0.0,0.0,0.0,0.0,0.0,0.0,0.0,3.359374656,0.01,0.0,0.0,0.125,0.0,-0.0,0.0,0.25,1.668701001,0.01,0.0,0.27000001072883606,-0.6399999856948853,-0.019999999552965164,-0.01568603515625,-0.00640869140625,1.03472900390625,34.25,0.0,-4.0,3.0517578125E-5,9.1552734375E-5,Closing,0.0,0.0,0.0,0.0,0.0,0.0,0.0,0.0,
3.1119749999999984,0.0,0.0,0.0,0.0,0.0,0.0,0.0,0.25,0.7775878110000001,0.01,0.0012207030000004337,0.0,0.0,0.0,-0.0,0.0,0.125,0.5407714290000001,0.01,0.0,0.0,0.0,0.0,0.0,0.0,0.0,3.35693325,0.01,0.0,0.0,0.125,0.0,-0.0,0.0,0.25,1.669921704,0.01,0.0,0.27000001072883606,-0.6399999856948853,-0.019999999552965164,-6.7138671875E-4,0.0074462890625,1.03076171875,34.25,0.0,10.0,3.0517578125E-5,9.1552734375E-5,Closing,0.0,0.0,0.0,0.0,0.0,0.0,0.0,0.0,
3.1313189999999995,0.0,0.0,0.0,0.0,0.0,0.0,0.0,0.25,0.7788085140000001,0.01,0.0,0.0,0.0,0.0,-0.0,0.0,0.125,0.539550726,0.01,0.0,0.0,0.0,0.0,0.0,0.0,0.0,3.358153953,0.01,0.0,0.0,0.125,0.0,-0.0,0.0,0.25,1.668701001,0.01,0.0,0.27000001072883606,-0.6399999856948853,-0.019999999552965164,-0.00506591796875,0.01153564453125,1.03662109375,34.25,0.0,6.0,3.0517578125E-5,9.1552734375E-5,Closing,0.0,0.0,0.0,0.0,0.0,0.0,0.0,0.0,
3.1519539999999977,0.0,0.0,0.0,0.0,0.0,0.0,0.0,0.25,0.7788085140000001,0.01,0.0,0.0,0.0,0.0,-0.0,0.0,0.125,0.539550726,0.01,0.0,0.0,0.0,0.0,0.0,0.0,0.0,3.359374656,0.01,0.0,0.0,0.125,0.0,-0.0,0.0,0.25,1.668701001,0.01,0.0,0.27000001072883606,-0.6299999952316284,-0.019999999552965164,-0.01873779296875,0.0089111328125,1.00372314453125,34.25,0.0,-7.0,3.0517578125E-5,9.1552734375E-5,Closing,0.0,0.0,0.0,0.0,0.0,0.0,0.0,0.0,
3.169689999999999,0.0,0.0,0.0,0.0,0.0,0.0,0.0,0.25,0.780029217,0.01,0.0,0.0,0.0,0.0,-0.0,0.0,0.125,0.5407714290000001,0.01,0.0,0.0,0.0,0.0,0.0,0.0,0.0,3.358153953,0.01,0.0,0.0,0.125,0.0,-0.0,0.0,0.25,1.668701001,0.01,0.0,0.27000001072883606,-0.6399999856948853,-0.019999999552965164,-0.01043701171875,0.0142822265625,1.017822265625,34.25,0.0,1.0,3.0517578125E-5,9.1552734375E-5,Closing,0.0,0.0,0.0,0.0,0.0,0.0,0.0,0.0,
3.189821,0.0,0.0,0.0,0.0,0.0,0.0,0.0,0.25,0.7788085140000001,0.01,0.0,0.0,0.0,0.0,-0.0,0.0,0.125,0.5407714290000001,0.01,0.0,0.0,0.0,0.0,0.0,0.0,0.0,3.359374656,0.01,0.0,0.0,0.125,0.0,-0.0,0.0,0.25,1.668701001,0.01,0.0,0.27000001072883606,-0.6299999952316284,-0.019999999552965164,0.01348876953125,-0.013671875,1.00579833984375,34.25,0.0,24.0,4.57763671875E-5,9.1552734375E-5,Closing,0.0,0.0,0.0,0.0,0.0,0.0,0.0,0.0,
3.2068509999999986,0.0,0.0,0.0,0.0,0.0,0.0,0.0,0.25,0.7775878110000001,0.01,0.0,0.0,0.0,0.0,-0.0,0.0,0.125,0.5407714290000001,0.01,0.0,0.0,0.0,0.0,0.0,0.0,0.0,3.358153953,0.01,0.0,0.0,0.125,0.0,-0.0,0.0,0.25,1.668701001,0.01,0.0,0.2800000011920929,-0.6399999856948853,-0.019999999552965164,-0.013427734375,0.0125732421875,1.03009033203125,34.25,0.0,-1.0,7.62939453125E-5,9.1552734375E-5,Closing,0.0,0.0,0.0,0.0,0.0,0.0,0.0,0.0,
3.239209999999999,0.0,0.0,0.0,0.0,0.0,0.0,0.0,0.25,0.7788085140000001,0.01,-0.0012207030000004337,0.0,0.0,0.0,-0.0,0.0,0.125,0.5407714290000001,0.01,0.0,0.0,0.0,0.0,0.0,0.0,0.0,3.358153953,0.01,0.0,0.0,0.0,0.0,-0.0,0.0,0.25,1.668701001,0.01,-0.0012207029999999897,0.2800000011920929,-0.6299999952316284,-0.019999999552965164,-0.0159912109375,-0.00860595703125,1.03167724609375,34.25,0.0,-4.0,1.220703125E-4,9.1552734375E-5,Closing,0.0,0.0,0.0,0.0,0.0,0.0,0.0,0.0,
3.259582999999999,0.0,0.0,0.0,0.0,0.0,0.0,0.0,0.25,0.7775878110000001,0.01,-0.0012207030000004337,0.0,0.0,0.0,-0.0,0.0,0.125,0.5407714290000001,0.01,0.0,0.0,0.0,0.0,0.0,0.0,0.0,3.358153953,0.01,0.0,0.0,0.0,0.0,-0.0,0.0,0.25,1.668701001,0.01,-0.0012207029999999897,0.27000001072883606,-0.6299999952316284,-0.019999999552965164,-0.00445556640625,-0.01275634765625,1.01824951171875,34.2400016784668,0.0,6.0,1.220703125E-4,9.1552734375E-5,Closing,0.0,0.0,0.0,0.0,0.0,0.0,0.0,0.0,
