Time,ClimberA1,ClimberA2,FRpos,FRCurrent,FRspeed,FRsetpoint,FRApos,FRACurrent,FREncpos,FREncSetpoint,FREncSpeed,FLpos,FLCurrent,FLspeed,FLsetpoint,FLApos,FLACurrent,FLEncpos,FLEncSetpoint,FLEncSpeed,BRpos,BRCurrent,BRspeed,BRsetpoint,BRApos,BRACurrent,BREncpos,BREncSetpoint,BREncSpeed,BLpos,BLCurrent,BLspeed,BLsetpoint,BLApos,BLACurrent,BLEncpos,BLEncSetpoint,BLEncSpeed,navx_Pitch,navx_Roll,navx_Yaw,navx_XAcc,navx_YAcc,navx_ZAcc,navx_Temp,navx_Bar,navx_Alt,navx_XDis,navx_YDis,GearPlacerState,ShootOutputV,ShootOutputCurrent,ShootEncPos,ShootEncVelocity,ShootSpeed,ShootSetpoint,CarouselSetpoint,CarouselCurrent,
0.13993599999998696,0.0,0.0,5010.0,0.0,0.0,0.0,0.0,0.25,0.849609288,0.01,0.0,-7118.0,0.0,0.0,-0.0,0.0,0.125,0.496826121,0.01,0.0,5721.0,0.0,0.0,0.0,0.0,0.0,3.387450825,0.01,0.0,-6974.0,0.0,0.0,-0.0,0.0,0.25,1.6064451480000002,0.01,0.0,0.23999999463558197,-0.550000011920929,0.0,-0.0128173828125,0.0028076171875,1.02252197265625,34.25,0.0,-2.0,1.2442474365234375,0.5315704345703125,Opening,0.0,0.0,0.0,0.0,0.0,0.0,0.0,0.0,
0.2107159999999858,0.0,0.0,5010.0,0.0,0.0,0.0,0.0,0.25,0.849609288,0.01,-0.00488281200000007,-7118.0,0.0,0.0,-0.0,0.0,0.125,0.495605418,0.01,-0.004882811999999959,5721.0,0.0,0.0,0.0,0.0,0.125,3.387450825,0.01,0.024414059999999793,-6974.0,0.0,0.0,-0.0,0.0,0.25,1.6064451480000002,0.01,4.909171880000001,0.23999999463558197,-0.550000011920929,0.0,-0.0145263671875,0.004638671875,1.02056884765625,34.25,0.0,-4.0,1.2442474365234375,0.5315704345703125,Opening,0.0,0.0,0.0,0.0,0.0,0.0,0.0,0.0,
0.2888279999999795,0.0,0.0,5010.0,0.0,0.0,0.0,0.0,0.25,0.849609288,0.01,0.0,-7118.0,0.0,0.0,-0.0,0.0,0.125,0.496826121,0.01,0.0,5721.0,0.0,0.0,0.0,0.0,0.125,3.388671528,0.01,0.0,-6974.0,0.0,0.0,-0.0,0.0,0.25,1.6064451480000002,0.01,0.0,0.23999999463558197,-0.5600000023841858,0.0,-0.01214599609375,0.0028076171875,1.0185546875,34.25,0.0,-2.0,1.2442474365234375,0.5315704345703125,Opening,0.0,0.0,0.0,0.0,0.0,0.0,0.0,0.0,
0.3617299999999814,0.0,0.0,5010.0,0.0,0.0,0.0,0.0,0.25,0.849609288,0.01,0.0,-7118.0,0.0,0.0,-0.0,0.0,0.125,0.496826121,0.01,0.0,5721.0,0.0,0.0,0.0,0.0,0.125,3.388671528,0.01,0.0,-6974.0,0.0,0.0,-0.0,0.0,0.25,1.6064451480000002,0.01,0.0,0.23999999463558197,-0.5600000023841858,0.0,-0.01007080078125,0.0062255859375,1.02081298828125,34.25,0.0,0.0,1.2442474365234375,0.5315704345703125,Opening,0.0,0.0,0.0,0.0,0.0,0.0,0.0,0.0,
0.4339860000000044,0.0,0.0,5010.0,0.0,0.0,0.0,0.0,0.25,0.849609288,0.01,0.0,-7118.0,0.0,0.0,-0.0,0.0,0.125,0.496826121,0.01,0.0,5721.0,0.0,0.0,0.0,0.0,0.125,3.389892231,0.01,0.0,-6974.0,0.0,0.0,-0.0,0.0,0.25,1.6064451480000002,0.01,0.0,0.23999999463558197,-0.5600000023841858,0.0,-0.01153564453125,0.00567626953125,1.02398681640625,34.25,0.0,-1.0,1.2442474365234375,0.5315704345703125,Opening,0.0,0.0,0.0,0.0,0.0,0.0,0.0,0.0,
0.5092019999999903,0.0,0.0,5010.0,0.0,0.0,0.0,0.0,0.25,0.849609288,0.01,0.0,-7118.0,0.0,0.0,-0.0,0.0,0.125,0.496826121,0.01,0.0,5721.0,0.0,0.0,0.0,0.0,0.125,3.389892231,0.01,0.0,-6974.0,0.125,0.0,-0.0,0.0,0.25,1.6064451480000002,0.01,0.0,0.23999999463558197,-0.5600000023841858,0.0,-0.01068115234375,0.0025634765625,1.01971435546875,34.27000045776367,0.0,0.0,1.2442474365234375,0.5315704345703125,Opening,0.0,0.0,0.0,0.0,0.0,0.0,0.0,0.0,
0.5836569999999774,0.0,0.0,5010.0,0.0,0.0,0.0,0.0,0.25,0.850829991,0.01,0.0,-7118.0,0.0,0.0,-0.0,0.0,0.125,0.496826121,0.01,0.0,5721.0,0.0,0.0,0.0,0.0,0.125,3.388671528,0.01,0.0,-6974.0,0.0,0.0,-0.0,0.0,0.25,1.6064451480000002,0.01,0.0,0.23999999463558197,-0.5699999928474426,0.0,-0.01068115234375,0.00311279296875,1.02020263671875,34.27000045776367,0.0,0.0,1.2442474365234375,0.5315704345703125,Opening,0.0,0.0,0.0,0.0,0.0,0.0,0.0,0.0,
0.6558589999999968,0.0,0.0,5010.0,0.0,0.0,0.0,0.0,0.25,0.849609288,0.01,0.0,-7118.0,0.0,0.0,-0.0,0.0,0.125,0.496826121,0.01,0.0,5721.0,0.0,0.0,0.0,0.0,0.125,3.388671528,0.01,0.0,-6974.0,0.0,0.0,-0.0,0.0,0.25,1.6064451480000002,0.01,0.0,0.25,-0.5699999928474426,0.0,-0.01171875,0.0050048828125,1.0184326171875,34.27000045776367,0.0,-1.0,1.2442474365234375,0.5315704345703125,Opening,0.0,0.0,0.0,0.0,0.0,0.0,0.0,0.0,
0.7366509999999835,0.0,0.0,5010.0,0.0,0.0,0.0,0.0,0.25,0.849609288,0.01,0.0,-7118.0,0.0,0.0,-0.0,0.0,0.125,0.496826121,0.01,0.0,5721.0,0.0,0.0,0.0,0.0,0.125,3.388671528,0.01,0.0,-6974.0,0.0,0.0,-0.0,0.0,0.25,1.6064451480000002,0.01,0.0,0.25,-0.5699999928474426,0.0,-0.01025390625,0.003173828125,1.0218505859375,34.27000045776367,0.0,0.0,1.2442474365234375,0.5315704345703125,Opening,0.0,0.0,0.0,0.0,0.0,0.0,0.0,0.0,
0.8102770000000019,0.0,0.0,5010.0,0.0,0.0,0.0,0.0,0.25,0.849609288,0.01,0.0,-7118.0,0.0,0.0,-0.0,0.0,0.125,0.496826121,0.01,0.0,5721.0,0.0,0.0,0.0,0.0,0.125,3.388671528,0.01,0.0,-6974.0,0.0,0.0,-0.0,0.0,0.25,1.6064451480000002,0.01,0.0,0.25,-0.5699999928474426,0.0,-0.01043701171875,0.00640869140625,1.0220947265625,34.27000045776367,0.0,0.0,1.2442474365234375,0.5315704345703125,Opening,0.0,0.0,0.0,0.0,0.0,0.0,0.0,0.0,
0.886935999999987,0.0,0.0,5010.0,0.0,0.0,0.0,0.0,0.25,0.850829991,0.01,0.0,-7118.0,0.0,0.0,-0.0,0.0,0.125,0.496826121,0.01,0.0,5721.0,0.0,0.0,0.0,0.0,0.125,3.388671528,0.01,0.0,-6974.0,0.0,0.0,-0.0,0.0,0.25,1.6064451480000002,0.01,0.0,0.25,-0.5699999928474426,0.0,-0.01153564453125,0.0052490234375,1.0189208984375,34.27000045776367,0.0,-1.0,1.2442474365234375,0.5315704345703125,Opening,0.0,0.0,0.0,0.0,0.0,0.0,0.0,0.0,
0.9583619999999937,0.0,0.0,5010.0,0.0,0.0,0.0,0.0,0.25,0.849609288,0.01,0.0,-7118.0,0.0,0.0,-0.0,0.0,0.125,0.496826121,0.01,0.0,5721.0,0.0,0.0,0.0,0.0,0.125,3.387450825,0.01,0.0,-6974.0,0.0,0.0,-0.0,0.0,0.25,1.6052244450000002,0.01,0.0,0.25,-0.5699999928474426,0.0,-0.00872802734375,0.005126953125,1.0162353515625,34.27000045776367,0.0,1.0,1.2442474365234375,0.5315704345703125,Opening,0.0,0.0,0.0,0.0,0.0,0.0,0.0,0.0,
1.0330779999999795,0.0,0.0,5010.0,0.0,0.0,0.0,0.0,0.25,0.850829991,0.01,0.0,-7118.0,0.0,0.0,-0.0,0.0,0.125,0.496826121,0.01,0.0,5721.0,0.0,0.0,0.0,0.0,0.125,3.388671528,0.01,0.0,-6974.0,0.125,0.0,-0.0,0.0,0.25,1.6064451480000002,0.01,0.0,0.25,-0.5699999928474426,0.009999999776482582,-0.0146484375,0.00311279296875,1.01751708984375,34.27000045776367,0.0,-4.0,1.2442474365234375,0.5315704345703125,Opening,0.0,0.0,0.0,0.0,0.0,0.0,0.0,0.0,
1.108106999999989,0.0,0.0,5010.0,0.0,0.0,0.0,0.0,0.25,0.850829991,0.01,0.0,-7118.0,0.0,0.0,-0.0,0.0,0.125,0.496826121,0.01,0.0,5721.0,0.0,0.0,0.0,0.0,0.125,3.387450825,0.01,0.0,-6974.0,0.0,0.0,-0.0,0.0,0.25,1.6052244450000002,0.01,0.0,0.25,-0.5699999928474426,0.009999999776482582,-0.0128173828125,0.0047607421875,1.02154541015625,34.27000045776367,0.0,-2.0,1.2442474365234375,0.5315704345703125,Opening,0.0,0.0,0.0,0.0,0.0,0.0,0.0,0.0,
1.1844469999999856,0.0,0.0,5010.0,0.0,0.0,0.0,0.0,0.25,0.850829991,0.01,0.0,-7118.0,0.0,0.0,-0.0,0.0,0.125,0.496826121,0.01,0.0,5721.0,0.0,0.0,0.0,0.0,0.125,3.387450825,0.01,0.0,-6974.0,0.0,0.0,-0.0,0.0,0.25,1.6064451480000002,0.01,0.0,0.25,-0.5799999833106995,0.009999999776482582,-0.01104736328125,0.00360107421875,1.02056884765625,34.27000045776367,0.0,0.0,1.2442474365234375,0.5315704345703125,Opening,0.0,0.0,0.0,0.0,0.0,0.0,0.0,0.0,
1.2630809999999766,0.0,0.0,5010.0,0.0,0.0,0.0,0.0,0.25,0.850829991,0.01,0.0,-7118.0,0.0,0.0,-0.0,0.0,0.125,0.496826121,0.01,0.0,5721.0,0.0,0.0,0.0,0.0,0.125,3.387450825,0.01,0.0,-6974.0,0.0,0.0,-0.0,0.0,0.25,1.6052244450000002,0.01,0.0,0.25,-0.5799999833106995,0.009999999776482582,-0.01055908203125,0.00311279296875,1.01220703125,34.27000045776367,0.0,0.0,1.2442474365234375,0.5315704345703125,Opening,0.0,0.0,0.0,0.0,0.0,0.0,0.0,0.0,
1.3454039999999805,0.0,0.0,5010.0,0.0,0.0,0.0,0.0,0.25,0.849609288,0.01,0.0,-7118.0,0.0,0.0,-0.0,0.0,0.125,0.496826121,0.01,0.0,5721.0,0.0,0.0,0.0,0.0,0.125,3.388671528,0.01,0.0,-6974.0,0.0,0.0,-0.0,0.0,0.25,1.6052244450000002,0.01,0.0,0.25,-0.5799999833106995,0.009999999776482582,-0.009765625,0.005126953125,1.0164794921875,34.27000045776367,0.0,0.0,1.2442474365234375,0.5315704345703125,Opening,0.0,0.0,0.0,0.0,0.0,0.0,0.0,0.0,
1.4149579999999842,0.0,0.0,5010.0,0.0,0.0,0.0,0.0,0.25,0.849609288,0.01,0.0,-7118.0,0.0,0.0,-0.0,0.0,0.125,0.495605418,0.01,0.0,5721.0,0.0,0.0,0.0,0.0,0.125,3.388671528,0.01,0.0,-6974.0,0.0,0.0,-0.0,0.0,0.25,1.6052244450000002,0.01,0.0,0.25,-0.5799999833106995,0.0,-0.013916015625,0.00457763671875,1.02557373046875,34.27000045776367,0.0,-3.0,1.2442474365234375,0.5315704345703125,Opening,0.0,0.0,0.0,0.0,0.0,0.0,0.0,0.0,
1.492084999999992,0.0,0.0,5010.0,0.0,0.0,0.0,0.0,0.25,0.850829991,0.01,0.0,-7118.0,0.0,0.0,-0.0,0.0,0.125,0.496826121,0.01,0.0,5721.0,0.0,0.0,0.0,0.0,0.125,3.388671528,0.01,0.0,-6974.0,0.0,0.0,-0.0,0.0,0.25,1.6052244450000002,0.01,0.0,0.25,-0.5799999833106995,0.009999999776482582,-0.0096435546875,0.0047607421875,1.017333984375,34.290000915527344,0.0,0.0,1.2442474365234375,0.5315704345703125,Opening,0.0,0.0,0.0,0.0,0.0,0.0,0.0,0.0,
1.5648929999999819,0.0,0.0,5010.0,0.0,0.0,0.0,0.0,0.25,0.849609288,0.01,0.0,-7118.0,0.0,0.0,-0.0,0.0,0.125,0.496826121,0.01,0.0,5721.0,0.0,0.0,0.0,0.0,0.125,3.388671528,0.01,0.0,-6974.0,0.125,0.0,-0.0,0.0,0.25,1.6052244450000002,0.01,0.0,0.25,-0.5799999833106995,0.009999999776482582,-0.01092529296875,0.00579833984375,1.02001953125,34.290000915527344,0.0,0.0,1.2442474365234375,0.5315704345703125,Opening,0.0,0.0,0.0,0.0,0.0,0.0,0.0,0.0,
1.6422589999999908,0.0,0.0,5010.0,0.0,0.0,0.0,0.0,0.25,0.849609288,0.01,0.0,-7118.0,0.0,0.0,-0.0,0.0,0.125,0.496826121,0.01,0.0,5721.0,0.0,0.0,0.0,0.0,0.125,3.387450825,0.01,0.0,-6974.0,0.0,0.0,-0.0,0.0,0.25,1.6064451480000002,0.01,0.0,0.25,-0.5799999833106995,0.009999999776482582,-0.010986328125,0.0032958984375,1.02459716796875,34.290000915527344,0.0,0.0,1.2442474365234375,0.5315704345703125,Opening,0.0,0.0,0.0,0.0,0.0,0.0,0.0,0.0,
1.713456999999995,0.0,0.0,5010.0,0.0,0.0,0.0,0.0,0.25,0.849609288,0.01,0.0,-7118.0,0.0,0.0,-0.0,0.0,0.125,0.496826121,0.01,0.0,5721.0,0.0,0.0,0.0,0.0,0.125,3.387450825,0.01,0.0,-6974.0,0.125,0.0,-0.0,0.0,0.25,1.6064451480000002,0.01,0.0,0.25,-0.5799999833106995,0.009999999776482582,-0.008056640625,0.0050048828125,1.020751953125,34.290000915527344,0.0,2.0,1.2442474365234375,0.5315704345703125,Opening,0.0,0.0,0.0,0.0,0.0,0.0,0.0,0.0,
1.79086599999998,0.0,0.0,5010.0,0.0,0.0,0.0,0.0,0.25,0.850829991,0.01,0.0,-7118.0,0.0,0.0,-0.0,0.0,0.125,0.496826121,0.01,0.0,5721.0,0.0,0.0,0.0,0.0,0.125,3.387450825,0.01,0.0,-6974.0,0.0,0.0,-0.0,0.0,0.25,1.6064451480000002,0.01,0.0,0.25,-0.5899999737739563,0.009999999776482582,-0.00909423828125,0.0087890625,1.0213623046875,34.290000915527344,0.0,1.0,1.2442474365234375,0.5315704345703125,Opening,0.0,0.0,0.0,0.0,0.0,0.0,0.0,0.0,
1.8631119999999937,0.0,0.0,5010.0,0.0,0.0,0.0,0.0,0.25,0.849609288,0.01,0.0,-7118.0,0.0,0.0,-0.0,0.0,0.125,0.495605418,0.01,0.0,5721.0,0.0,0.0,0.0,0.0,0.125,3.387450825,0.01,0.0,-6974.0,0.0,0.0,-0.0,0.0,0.25,1.6052244450000002,0.01,0.0,0.25,-0.5899999737739563,0.009999999776482582,-0.01226806640625,0.00189208984375,1.01971435546875,34.290000915527344,0.0,-1.0,1.2442474365234375,0.5315704345703125,Opening,0.0,0.0,0.0,0.0,0.0,0.0,0.0,0.0,
1.940862999999983,0.0,0.0,5010.0,0.0,0.0,0.0,0.0,0.25,0.850829991,0.01,0.0,-7118.0,0.0,0.0,-0.0,0.0,0.125,0.496826121,0.01,0.0,5721.0,0.0,0.0,0.0,0.0,0.125,3.388671528,0.01,0.0,-6974.0,0.0,0.0,-0.0,0.0,0.25,1.6064451480000002,0.01,0.0,0.25,-0.5899999737739563,0.009999999776482582,-0.011474609375,0.001953125,1.0198974609375,34.290000915527344,0.0,0.0,1.2442474365234375,0.5315704345703125,Opening,0.0,0.0,0.0,0.0,0.0,0.0,0.0,0.0,
2.013905999999988,0.0,0.0,5010.0,0.0,0.0,0.0,0.0,0.25,0.849609288,0.01,0.0,-7118.0,0.0,0.0,-0.0,0.0,0.125,0.496826121,0.01,0.0,5721.0,0.0,0.0,0.0,0.0,0.125,3.387450825,0.01,0.0,-6974.0,0.0,0.0,-0.0,0.0,0.25,1.6064451480000002,0.01,0.0,0.25,-0.6000000238418579,0.009999999776482582,-0.01171875,0.005615234375,1.0211181640625,34.2599983215332,0.0,0.0,1.2442474365234375,0.5315704345703125,Opening,0.0,0.0,0.0,0.0,0.0,0.0,0.0,0.0,
2.0894379999999946,0.0,0.0,5010.0,0.0,0.0,0.0,0.0,0.25,0.849609288,0.01,0.0,-7118.0,0.0,0.0,-0.0,0.0,0.125,0.496826121,0.01,0.0,5721.0,0.0,0.0,0.0,0.0,0.125,3.387450825,0.01,0.0,-6974.0,0.125,0.0,-0.0,0.0,0.25,1.6064451480000002,0.01,0.0,0.25999999046325684,-0.6000000238418579,0.009999999776482582,-0.0125732421875,-0.0028076171875,1.02056884765625,34.2599983215332,0.0,-1.0,1.2442474365234375,0.5315704345703125,Closing,0.0,0.0,0.0,0.0,0.0,0.0,0.0,0.0,
2.16518299999999,0.0,0.0,5010.0,0.0,0.0,0.0,0.0,0.25,0.849609288,0.01,0.0,-7118.0,0.0,0.0,-0.0,0.0,0.125,0.49438471500000003,0.01,0.0,5721.0,0.0,0.0,0.0,0.0,0.125,3.387450825,0.01,0.0,-6974.0,0.0,0.0,-0.0,0.0,0.25,1.6052244450000002,0.01,0.0,0.25999999046325684,-0.6000000238418579,0.009999999776482582,-0.01568603515625,0.01171875,1.0220947265625,34.2599983215332,0.0,-4.0,1.2441558837890625,0.5314483642578125,Closing,0.0,0.0,0.0,0.0,0.0,0.0,0.0,0.0,
2.2428559999999997,0.0,0.0,5010.0,0.0,0.0,0.0,0.0,0.25,0.849609288,0.01,0.0,-7118.0,0.0,0.0,-0.0,0.0,0.125,0.496826121,0.01,0.0,5721.0,0.0,0.0,0.0,0.0,0.125,3.388671528,0.01,0.0,-6974.0,0.0,0.0,-0.0,0.0,0.25,1.6064451480000002,0.01,0.0,0.25,-0.5899999737739563,0.009999999776482582,-0.0184326171875,-4.2724609375E-4,1.02825927734375,34.2599983215332,0.0,-7.0,1.2441558837890625,0.5314788818359375,Closing,0.0,0.0,0.0,0.0,0.0,0.0,0.0,0.0,
2.3154590000000024,0.0,0.0,5010.0,0.0,0.0,0.0,0.0,0.25,0.849609288,0.01,0.0,-7118.0,0.0,0.0,-0.0,0.0,0.125,0.496826121,0.01,0.0,5721.0,0.0,0.0,0.0,0.0,0.125,3.388671528,0.01,0.0,-6974.0,0.0,0.0,-0.0,0.0,0.25,1.6064451480000002,0.01,0.0,0.25999999046325684,-0.5899999737739563,0.009999999776482582,0.0028076171875,0.01678466796875,1.01348876953125,34.2599983215332,0.0,13.0,1.2441558837890625,0.5315093994140625,Closing,0.0,0.0,0.0,0.0,0.0,0.0,0.0,0.0,
2.394661999999982,0.0,0.0,5010.0,0.0,0.0,0.0,0.0,0.25,0.850829991,0.01,0.0,-7118.0,0.0,0.0,-0.0,0.0,0.125,0.498046824,0.01,-0.0012207029999995456,5721.0,0.0,0.0,0.0,0.0,0.125,3.388671528,0.01,0.0,-6974.0,0.0,0.0,-0.0,0.0,0.25,1.6052244450000002,0.01,0.0,0.25999999046325684,-0.5899999737739563,0.009999999776482582,-0.00921630859375,0.01641845703125,1.00390625,34.2599983215332,0.0,1.0,1.2441558837890625,0.5315093994140625,Closing,0.0,0.0,0.0,0.0,0.0,0.0,0.0,0.0,
2.470987999999983,0.0,0.0,5010.0,0.0,0.0,0.0,0.0,0.25,0.850829991,0.01,0.0,-7118.0,0.0,0.0,-0.0,0.0,0.125,0.496826121,0.01,0.0,5721.0,0.0,0.0,0.0,0.0,0.125,3.388671528,0.01,0.0,-6974.0,0.0,0.0,-0.0,0.0,0.25,1.6064451480000002,0.01,0.0,0.27000001072883606,-0.5899999737739563,0.009999999776482582,-0.004150390625,0.00872802734375,1.025634765625,34.2599983215332,0.0,6.0,1.2441558837890625,0.5315093994140625,Closing,0.0,0.0,0.0,0.0,0.0,0.0,0.0,0.0,
2.550353999999992,0.0,0.0,5010.0,0.0,0.0,0.0,0.0,0.25,0.849609288,0.01,0.0,-7118.0,0.0,0.0,-0.0,0.0,0.125,0.496826121,0.01,0.0,5721.0,0.0,0.0,0.0,0.0,0.125,3.387450825,0.01,0.0,-6974.0,0.0,0.0,-0.0,0.0,0.25,1.6052244450000002,0.01,0.0,0.27000001072883606,-0.5899999737739563,0.009999999776482582,-0.00714111328125,-0.00408935546875,0.9998779296875,34.2599983215332,0.0,3.0,1.2441558837890625,0.531463623046875,Closing,0.0,0.0,0.0,0.0,0.0,0.0,0.0,0.0,
2.6257569999999832,0.0,0.0,5010.0,0.0,0.0,0.0,0.0,0.25,0.849609288,0.01,0.0,-7118.0,0.0,0.0,-0.0,0.0,0.125,0.496826121,0.01,0.0,5721.0,0.0,0.0,0.0,0.0,0.125,3.388671528,0.01,0.0,-6974.0,0.0,0.0,-0.0,0.0,0.25,1.6052244450000002,0.01,0.0,0.27000001072883606,-0.5799999833106995,0.009999999776482582,-0.0048828125,0.0030517578125,1.00750732421875,34.2599983215332,0.0,5.0,1.2441558837890625,0.5314483642578125,Closing,0.0,0.0,0.0,0.0,0.0,0.0,0.0,0.0,
2.7012299999999816,0.0,0.0,5010.0,0.0,0.0,0.0,0.0,0.25,0.849609288,0.01,0.0,-7118.0,0.0,0.0,-0.0,0.0,0.125,0.496826121,0.01,0.0,5721.0,0.0,0.0,0.0,0.0,0.125,3.388671528,0.01,0.0,-6974.0,0.0,0.0,-0.0,0.0,0.25,1.6088865540000001,0.01,0.0,0.27000001072883606,-0.5899999737739563,0.009999999776482582,-0.01934814453125,0.01556396484375,1.026123046875,34.2599983215332,0.0,-8.0,1.2441558837890625,0.5314483642578125,Closing,0.0,0.0,0.0,0.0,0.0,0.0,0.0,0.0,
2.774042999999976,0.0,0.0,5010.0,0.0,0.0,0.0,0.0,0.25,0.849609288,0.01,0.0,-7118.0,0.0,0.0,-0.0,0.0,0.125,0.496826121,0.01,0.0,5721.0,0.0,0.0,0.0,0.0,0.125,3.387450825,0.01,0.0,-6974.0,0.0,0.0,-0.0,0.0,0.25,1.6064451480000002,0.01,0.0,0.27000001072883606,-0.5899999737739563,0.009999999776482582,-0.0142822265625,-0.01080322265625,1.01995849609375,34.2599983215332,0.0,-3.0,1.2441558837890625,0.5313873291015625,Closing,0.0,0.0,0.0,0.0,0.0,0.0,0.0,0.0,
2.8500719999999857,0.0,0.0,5010.0,0.0,0.0,0.0,0.0,0.25,0.850829991,0.01,0.0,-7118.0,0.0,0.0,-0.0,0.0,0.125,0.496826121,0.01,0.0,5721.0,0.0,0.0,0.0,0.0,0.125,3.387450825,0.01,0.0,-6974.0,0.125,0.0,-0.0,0.0,0.25,1.6064451480000002,0.01,0.0,0.25999999046325684,-0.6000000238418579,0.009999999776482582,-0.0028076171875,0.00836181640625,1.010498046875,34.2599983215332,0.0,7.0,1.2441558837890625,0.5313873291015625,Closing,0.0,0.0,0.0,0.0,0.0,0.0,0.0,0.0,
2.9250559999999823,0.0,0.0,5010.0,0.0,0.0,0.0,0.0,0.25,0.849609288,0.01,0.0,-7118.0,0.0,0.0,-0.0,0.0,0.125,0.496826121,0.01,0.0,5721.0,0.0,0.0,0.0,0.0,0.125,3.387450825,0.01,0.0,-6974.0,0.0,0.0,-0.0,0.0,0.25,1.6052244450000002,0.01,0.0,0.25999999046325684,-0.6000000238418579,0.009999999776482582,-0.00177001953125,-0.01025390625,1.0281982421875,34.2599983215332,0.0,9.0,1.2441558837890625,0.5313873291015625,Closing,0.0,0.0,0.0,0.0,0.0,0.0,0.0,0.0,
3.003965999999986,0.0,0.0,5010.0,0.0,0.0,0.0,0.0,0.25,0.850829991,0.01,0.0,-7118.0,0.0,0.0,-0.0,0.0,0.125,0.498046824,0.01,0.0012207029999995456,5721.0,0.0,0.0,0.0,0.0,0.125,3.388671528,0.01,0.0,-6974.0,0.0,0.0,-0.0,0.0,0.25,1.6064451480000002,0.01,0.0,0.25999999046325684,-0.6000000238418579,0.009999999776482582,0.00341796875,-1.220703125E-4,1.017822265625,34.2599983215332,0.0,14.0,1.2441558837890625,0.5313873291015625,Closing,0.0,0.0,0.0,0.0,0.0,0.0,0.0,0.0,
3.0744739999999875,0.0,0.0,5010.0,0.0,0.0,0.0,0.0,0.25,0.849609288,0.01,0.0,-7118.0,0.0,0.0,-0.0,0.0,0.125,0.498046824,0.01,0.0,5721.0,0.0,0.0,0.0,0.0,0.125,3.387450825,0.01,0.0,-6974.0,0.0,0.0,-0.0,0.0,0.25,1.6052244450000002,0.01,0.0,0.25999999046325684,-0.6000000238418579,0.009999999776482582,-0.01654052734375,0.03350830078125,1.0555419921875,34.27000045776367,0.0,-5.0,1.2442626953125,0.5312652587890625,Closing,0.0,0.0,0.0,0.0,0.0,0.0,0.0,0.0,
3.1538129999999946,0.0,0.0,5010.0,0.0,0.0,0.0,0.0,0.25,0.849609288,0.01,0.0,-7118.0,0.0,0.0,-0.0,0.0,0.125,0.496826121,0.01,0.0,5721.0,0.0,0.0,0.0,0.0,0.125,3.387450825,0.01,0.0,-6974.0,0.0,0.0,-0.0,0.0,0.25,1.6052244450000002,0.01,0.0,0.25,-0.6000000238418579,0.009999999776482582,-0.0081787109375,0.01104736328125,0.99981689453125,34.27000045776367,0.0,2.0,1.2442626953125,0.5311737060546875,Closing,0.0,0.0,0.0,0.0,0.0,0.0,0.0,0.0,
3.228063999999984,0.0,0.0,5010.0,0.0,0.0,0.0,0.0,0.25,0.849609288,0.01,0.0,-7118.0,0.0,0.0,-0.0,0.0,0.125,0.496826121,0.01,0.0,5721.0,0.0,0.0,0.0,0.0,0.125,3.388671528,0.01,0.0,-6974.0,0.0,0.0,-0.0,0.0,0.25,1.6064451480000002,0.01,0.0,0.25999999046325684,-0.5899999737739563,0.009999999776482582,-0.00921630859375,0.01007080078125,1.03082275390625,34.27000045776367,0.0,1.0,1.2442626953125,0.531219482421875,Closing,0.0,0.0,0.0,0.0,0.0,0.0,0.0,0.0,
3.30434699999998,0.0,0.0,5010.0,0.0,0.0,0.0,0.0,0.25,0.849609288,0.01,0.0,-7118.0,0.0,0.0,-0.0,0.0,0.125,0.496826121,0.01,0.0,5721.0,0.0,0.0,0.0,0.0,0.125,3.388671528,0.01,0.0,-6974.0,0.0,0.0,-0.0,0.0,0.25,1.6064451480000002,0.01,0.0,0.25999999046325684,-0.5899999737739563,0.009999999776482582,-0.0181884765625,0.0018310546875,1.00543212890625,34.27000045776367,0.0,-7.0,1.2442626953125,0.531219482421875,Closing,0.0,0.0,0.0,0.0,0.0,0.0,0.0,0.0,
3.3742489999999816,0.0,0.0,5010.0,0.0,0.0,0.0,0.0,0.25,0.849609288,0.01,0.0,-7118.0,0.0,0.0,-0.0,0.0,0.125,0.496826121,0.01,0.0,5721.0,0.0,0.0,0.0,0.0,0.125,3.388671528,0.01,0.0,-6974.0,0.0,0.0,-0.0,0.0,0.25,1.6064451480000002,0.01,0.0,0.25,-0.6000000238418579,0.009999999776482582,-0.0162353515625,0.01983642578125,1.01959228515625,34.27000045776367,0.0,-5.0,1.2442626953125,0.5311737060546875,Closing,0.0,0.0,0.0,0.0,0.0,0.0,0.0,0.0,
3.452286999999982,0.0,0.0,5010.0,0.0,0.0,0.0,0.0,0.25,0.850829991,0.01,0.0,-7118.0,0.0,0.0,-0.0,0.0,0.125,0.496826121,0.01,0.0,5721.0,0.0,0.0,0.0,0.0,0.125,3.388671528,0.01,0.0,-6974.0,0.0,0.0,-0.0,0.0,0.25,1.6064451480000002,0.01,0.0,0.25,-0.5899999737739563,0.009999999776482582,-0.0135498046875,0.013916015625,1.0308837890625,34.27000045776367,0.0,-2.0,1.2442626953125,0.5311737060546875,Closing,0.0,0.0,0.0,0.0,0.0,0.0,0.0,0.0,
3.526726999999984,0.0,0.0,5010.0,0.0,0.0,0.0,0.0,0.25,0.849609288,0.01,0.0,-7118.0,0.0,0.0,-0.0,0.0,0.125,0.496826121,0.01,0.0,5721.0,0.0,0.0,0.0,0.0,0.125,3.387450825,0.01,0.0,-6974.0,0.0,0.0,-0.0,0.0,0.25,1.6064451480000002,0.01,0.0,0.25,-0.6000000238418579,0.009999999776482582,-0.0333251953125,0.01751708984375,0.99847412109375,34.279998779296875,0.0,-22.0,1.2442626953125,0.5311737060546875,Closing,0.0,0.0,0.0,0.0,0.0,0.0,0.0,0.0,
3.601585999999981,0.0,0.0,5010.0,0.0,0.0,0.0,0.0,0.25,0.849609288,0.01,0.0,-7118.0,0.0,0.0,-0.0,0.0,0.125,0.496826121,0.01,0.0,5721.0,0.0,0.0,0.0,0.0,0.125,3.388671528,0.01,0.0,-6974.0,0.0,0.0,-0.0,0.0,0.25,1.6064451480000002,0.01,0.0,0.25,-0.6000000238418579,0.009999999776482582,-0.01910400390625,5.4931640625E-4,1.026123046875,34.279998779296875,0.0,-8.0,1.2442169189453125,0.5311737060546875,Closing,0.0,0.0,0.0,0.0,0.0,0.0,0.0,0.0,
3.677747000000003,0.0,0.0,5010.0,0.0,0.0,0.0,0.0,0.25,0.849609288,0.01,0.0,-7118.0,0.0,0.0,-0.0,0.0,0.125,0.496826121,0.01,0.0,5721.0,0.0,0.0,0.0,0.0,0.125,3.388671528,0.01,0.0,-6974.0,0.0,0.0,-0.0,0.0,0.25,1.6064451480000002,0.01,0.0,0.23999999463558197,-0.6000000238418579,0.009999999776482582,-0.01251220703125,0.01068115234375,1.0152587890625,34.279998779296875,0.0,-1.0,1.2442169189453125,0.5311737060546875,Closing,0.0,0.0,0.0,0.0,0.0,0.0,0.0,0.0,
3.7548589999999966,0.0,0.0,5010.0,0.0,0.0,0.0,0.0,0.25,0.849609288,0.01,0.0,-7118.0,0.0,0.0,-0.0,0.0,0.125,0.496826121,0.01,0.0,5721.0,0.0,0.0,0.0,0.0,0.125,3.387450825,0.01,0.0,-6974.0,0.0,0.0,-0.0,0.0,0.25,1.6064451480000002,0.01,0.0,0.25,-0.6000000238418579,0.009999999776482582,-0.0113525390625,0.00201416015625,1.01702880859375,34.279998779296875,0.0,0.0,1.2442169189453125,0.5311737060546875,Closing,0.0,0.0,0.0,0.0,0.0,0.0,0.0,0.0,
3.8306140000000015,0.0,0.0,5010.0,0.0,0.0,0.0,0.0,0.25,0.849609288,0.01,0.0,-7118.0,0.0,0.0,-0.0,0.0,0.125,0.498046824,0.01,0.0,5721.0,0.0,0.0,0.0,0.0,0.125,3.388671528,0.01,0.0,-6974.0,0.0,0.0,-0.0,0.0,0.25,1.6052244450000002,0.01,0.0,0.25,-0.6000000238418579,0.009999999776482582,-0.01055908203125,0.006591796875,1.013427734375,34.279998779296875,0.0,0.0,1.2442169189453125,0.5311737060546875,Closing,0.0,0.0,0.0,0.0,0.0,0.0,0.0,0.0,
3.908703999999998,0.0,0.0,5010.0,0.0,0.0,0.0,0.0,0.25,0.849609288,0.01,0.0,-7118.0,0.0,0.0,-0.0,0.0,0.125,0.496826121,0.01,0.0,5721.0,0.0,0.0,0.0,0.0,0.125,3.387450825,0.01,0.0,-6974.0,0.0,0.0,-0.0,0.0,0.25,1.6052244450000002,0.01,0.0,0.25,-0.6000000238418579,0.009999999776482582,-0.0130615234375,0.00762939453125,1.01434326171875,34.279998779296875,0.0,-2.0,1.2442169189453125,0.5311737060546875,Closing,0.0,0.0,0.0,0.0,0.0,0.0,0.0,0.0,
3.981654999999999,0.0,0.0,5010.0,0.0,0.0,0.0,0.0,0.25,0.849609288,0.01,0.0,-7118.0,0.0,0.0,-0.0,0.0,0.125,0.495605418,0.01,0.0,5721.0,0.0,0.0,0.0,0.0,0.125,3.388671528,0.01,0.0,-6974.0,0.0,0.0,-0.0,0.0,0.25,1.6052244450000002,0.01,0.0,0.25999999046325684,-0.6000000238418579,0.009999999776482582,-0.01214599609375,0.0029296875,1.01898193359375,34.279998779296875,0.0,-1.0,1.2442169189453125,0.5311737060546875,Closing,0.0,0.0,0.0,0.0,0.0,0.0,0.0,0.0,
4.0554159999999975,0.0,0.0,5010.0,0.0,0.0,0.0,0.0,0.25,0.849609288,0.01,0.0,-7118.0,0.0,0.0,-0.0,0.0,0.125,0.496826121,0.01,0.0,5721.0,0.0,0.0,0.0,0.0,0.125,3.387450825,0.01,0.0,-6974.0,0.0,0.0,-0.0,0.0,0.25,1.6052244450000002,0.01,0.0,0.25999999046325684,-0.6000000238418579,0.009999999776482582,-0.01104736328125,0.0045166015625,1.01702880859375,34.2599983215332,0.0,0.0,1.2442169189453125,0.5311737060546875,Closing,0.0,0.0,0.0,0.0,0.0,0.0,0.0,0.0,
4.13099099999998,0.0,0.0,5010.0,0.0,0.0,0.0,0.0,0.25,0.849609288,0.01,0.0,-7118.0,0.0,0.0,-0.0,0.0,0.125,0.498046824,0.01,0.0,5721.0,0.0,0.0,0.0,0.0,0.125,3.388671528,0.01,0.0,-6974.0,0.125,0.0,-0.0,0.0,0.25,1.6064451480000002,0.01,0.0,0.25,-0.5799999833106995,0.0,-0.15032958984375,0.01544189453125,1.125244140625,34.2599983215332,0.0,-138.0,1.2441253662109375,0.5311737060546875,Closing,0.0,0.0,0.0,0.0,0.0,0.0,0.0,0.0,
4.209186999999976,0.0,0.0,5010.0,0.0,0.0,0.0,0.0,0.25,0.849609288,0.01,0.0,-7118.0,0.0,0.0,-0.0,0.0,0.125,0.496826121,0.01,0.0,5721.0,0.0,0.0,0.0,0.0,0.125,3.388671528,0.01,0.0,-6974.0,0.0,0.0,-0.0,0.0,0.25,1.6064451480000002,0.01,0.0,0.23000000417232513,-0.5799999833106995,-0.009999999776482582,0.0091552734375,0.06964111328125,0.9678955078125,34.2599983215332,0.0,19.0,1.2445831298828125,0.5313720703125,Closing,0.0,0.0,0.0,0.0,0.0,0.0,0.0,0.0,
4.285404999999999,0.0,0.0,5010.0,0.0,0.0,0.0,0.0,0.25,0.850829991,0.01,0.0,-7118.0,0.0,0.0,-0.0,0.0,0.125,0.496826121,0.01,0.0,5721.0,0.0,0.0,0.0,0.0,0.125,3.388671528,0.01,0.0,-6974.0,0.125,0.0,-0.0,0.0,0.25,1.6064451480000002,0.01,0.0,0.27000001072883606,-0.6299999952316284,0.0,-0.02923583984375,0.07000732421875,1.04364013671875,34.2599983215332,0.0,-17.0,1.2460174560546875,0.531982421875,Closing,0.0,0.0,0.0,0.0,0.0,0.0,0.0,0.0,
4.3592010000000005,0.0,0.0,5010.0,0.0,0.0,0.0,0.0,0.25,0.849609288,0.01,0.0,-7118.0,0.0,0.0,-0.0,0.0,0.125,0.496826121,0.01,0.0,5721.0,0.0,0.0,0.0,0.0,0.125,3.387450825,0.01,0.0,-6974.0,0.0,0.0,-0.0,0.0,0.25,1.6064451480000002,0.01,0.0,0.27000001072883606,-0.6299999952316284,-0.009999999776482582,0.08770751953125,-0.05474853515625,1.178955078125,34.2599983215332,0.0,100.0,1.2473907470703125,0.5326690673828125,Closing,0.0,0.0,0.0,0.0,0.0,0.0,0.0,0.0,
4.436301999999996,0.0,0.0,5010.0,0.0,0.0,0.0,0.0,0.25,0.849609288,0.01,0.0,-7118.0,0.0,0.0,-0.0,0.0,0.125,0.496826121,0.01,0.0,5721.0,0.0,0.0,0.0,0.0,0.125,3.387450825,0.01,0.0,-6974.0,0.0,0.0,-0.0,0.0,0.25,1.6052244450000002,0.01,0.0,0.25999999046325684,-0.6000000238418579,0.0,-0.05340576171875,-0.01922607421875,0.97491455078125,34.2599983215332,0.0,-43.0,1.250885009765625,0.5321044921875,Closing,0.0,0.0,0.0,0.0,0.0,0.0,0.0,0.0,
4.513357999999978,0.0,0.0,5010.0,0.0,0.0,0.0,0.0,0.25,0.850829991,0.01,0.0,-7118.0,0.0,0.0,-0.0,0.0,0.125,0.496826121,0.01,0.0,5721.0,0.0,0.0,0.0,0.0,0.125,3.387450825,0.01,0.0,-6974.0,0.0,0.0,-0.0,0.0,0.25,1.6064451480000002,0.01,0.0,0.23000000417232513,-0.6299999952316284,-0.009999999776482582,-0.019775390625,-0.04742431640625,0.97613525390625,34.2599983215332,0.0,-8.0,1.253875732421875,0.5319061279296875,Closing,0.0,0.0,0.0,0.0,0.0,0.0,0.0,0.0,
4.588464999999997,0.0,0.0,5010.0,0.0,0.0,0.0,0.0,0.25,0.850829991,0.01,0.0,-7118.0,0.0,0.0,-0.0,0.0,0.125,0.496826121,0.01,0.0,5721.0,0.0,0.0,0.0,0.0,0.125,3.387450825,0.01,0.0,-6974.0,0.0,0.0,-0.0,0.0,0.25,1.6052244450000002,0.01,0.0,0.25,-0.6200000047683716,0.0,0.02923583984375,-0.01446533203125,0.9742431640625,34.2599983215332,0.0,39.0,1.257049560546875,0.5305938720703125,Closing,0.0,0.0,0.0,0.0,0.0,0.0,0.0,0.0,
4.663108999999997,0.0,0.0,5010.0,0.0,0.0,0.0,0.0,0.25,0.849609288,0.01,0.0,-7118.0,0.0,0.0,-0.0,0.0,0.125,0.498046824,0.01,0.0,5721.0,0.0,0.0,0.0,0.0,0.125,3.387450825,0.01,0.0,-6974.0,0.0,0.0,-0.0,0.0,0.25,1.6064451480000002,0.01,0.0,0.25999999046325684,-0.6000000238418579,-0.009999999776482582,-0.0166015625,0.00701904296875,1.0550537109375,34.2599983215332,0.0,-5.0,1.2584381103515625,0.5296478271484375,Closing,0.0,0.0,0.0,0.0,0.0,0.0,0.0,0.0,
4.733635999999999,0.0,0.0,5010.0,0.0,0.0,0.0,0.0,0.25,0.849609288,0.01,0.0,-7118.0,0.0,0.0,-0.0,0.0,0.125,0.496826121,0.01,0.0,5721.0,0.0,0.0,0.0,0.0,0.125,3.387450825,0.01,0.0,-6974.0,0.0,0.0,-0.0,0.0,0.25,1.6052244450000002,0.01,0.0,0.23999999463558197,-0.6200000047683716,-0.009999999776482582,9.1552734375E-4,0.0289306640625,1.00439453125,34.2599983215332,0.0,11.0,1.2584228515625,0.5294952392578125,Closing,0.0,0.0,0.0,0.0,0.0,0.0,0.0,0.0,
4.811010999999999,0.0,0.0,5010.0,0.0,0.0,0.0,0.0,0.25,0.850829991,0.01,0.0,-7118.0,0.0,0.0,-0.0,0.0,0.125,0.496826121,0.01,0.0,5722.0,0.0,7.5,0.0,0.0,0.125,3.388671528,0.01,0.0,-6974.0,0.0,0.0,-0.0,0.0,0.25,1.6052244450000002,0.01,0.0,0.25,-0.6200000047683716,-0.009999999776482582,0.00701904296875,0.005126953125,1.0220947265625,34.2599983215332,0.0,18.0,1.2583770751953125,0.5294189453125,Closing,0.0,0.0,0.0,0.0,0.0,0.0,0.0,0.0,
4.8913409999999855,0.0,0.0,5010.0,0.0,0.0,0.0,0.0,0.25,0.849609288,0.01,0.0,-7118.0,0.0,0.0,-0.0,0.0,0.125,0.496826121,0.01,0.0,5722.0,0.0,0.0,0.0,0.0,0.125,3.388671528,0.01,0.0,-6974.0,0.0,0.0,-0.0,0.0,0.25,1.6064451480000002,0.01,0.0,0.25,-0.6600000262260437,-0.029999999329447746,0.0645751953125,-0.0509033203125,0.950439453125,34.2599983215332,0.0,75.0,1.258026123046875,0.5292205810546875,Closing,0.0,0.0,0.0,0.0,0.0,0.0,0.0,0.0,
4.968503999999986,0.0,0.0,5010.0,0.0,0.0,0.0,0.0,0.25,0.850829991,0.01,0.0,-7118.0,0.0,0.0,-0.0,0.0,0.125,0.496826121,0.01,0.0,5722.0,0.0,0.0,0.0,0.0,0.125,3.388671528,0.01,0.0,-6974.0,0.0,0.0,-0.0,0.0,0.25,1.6064451480000002,0.01,0.0,0.25999999046325684,-0.6600000262260437,-0.009999999776482582,-0.05523681640625,0.0560302734375,1.09429931640625,34.2599983215332,0.0,-42.0,1.2580718994140625,0.5289764404296875,Closing,0.0,0.0,0.0,0.0,0.0,0.0,0.0,0.0,
5.0474239999999995,0.0,0.0,5010.0,0.0,0.0,0.0,0.0,0.25,0.850829991,0.01,0.0,-7118.0,0.0,0.0,-0.0,0.0,0.125,0.496826121,0.01,0.0,5722.0,0.0,0.0,0.0,0.0,0.125,3.387450825,0.01,0.0,-6974.0,0.0,0.0,-0.0,0.0,0.25,1.6064451480000002,0.01,0.0,0.23000000417232513,-0.6499999761581421,-0.009999999776482582,-0.00262451171875,0.06048583984375,1.03961181640625,34.27000045776367,0.0,9.0,1.2581329345703125,0.5291595458984375,Closing,0.0,0.0,0.0,0.0,0.0,0.0,0.0,0.0,
5.126130000000004,0.0,0.0,5010.0,0.0,0.0,0.0,0.0,0.25,0.849609288,0.01,0.0,-7118.0,0.0,0.0,-0.0,0.0,0.125,0.496826121,0.01,0.0,5722.0,0.0,0.0,0.0,0.0,0.125,3.387450825,0.01,0.0,-6974.0,0.0,0.0,-0.0,0.0,0.25,1.6064451480000002,0.01,0.0,0.27000001072883606,-0.6299999952316284,0.0,-0.008544921875,0.03204345703125,0.97442626953125,34.27000045776367,0.0,2.0,1.2581329345703125,0.529754638671875,Closing,0.0,0.0,0.0,0.0,0.0,0.0,0.0,0.0,
5.20655799999999,0.0,0.0,5010.0,0.0,0.0,0.0,0.0,0.25,0.849609288,0.01,0.0,-7118.0,0.0,0.0,-0.0,0.0,0.125,0.496826121,0.01,0.0,5722.0,0.0,0.0,0.0,0.0,0.125,3.387450825,0.01,0.0,-6974.0,0.125,0.0,-0.0,0.0,0.25,1.6064451480000002,0.01,0.0,0.25,-0.6600000262260437,-0.009999999776482582,-0.00537109375,-0.00994873046875,1.04119873046875,34.27000045776367,0.0,6.0,1.2581634521484375,0.53009033203125,Closing,0.0,0.0,0.0,0.0,0.0,0.0,0.0,0.0,
5.279516000000004,0.0,0.0,5010.0,0.0,0.0,0.0,0.0,0.25,0.849609288,0.01,0.0,-7118.0,0.0,0.0,-0.0,0.0,0.125,0.495605418,0.01,0.0,5722.0,0.0,0.0,0.0,0.0,0.125,3.387450825,0.01,0.0,-6974.0,0.125,0.0,-0.0,0.0,0.25,1.6064451480000002,0.01,0.0,0.25999999046325684,-0.6499999761581421,0.009999999776482582,-0.0113525390625,0.01177978515625,1.01202392578125,34.27000045776367,0.0,0.0,1.258209228515625,0.5302276611328125,Closing,0.0,0.0,0.0,0.0,0.0,0.0,0.0,0.0,
5.36147199999998,0.0,0.0,5010.0,0.0,0.0,0.0,0.0,0.25,0.849609288,0.01,0.0,-7118.0,0.0,0.0,-0.0,0.0,0.125,0.496826121,0.01,0.0,5722.0,0.0,0.0,0.0,0.0,0.125,3.387450825,0.01,0.0,-6974.0,0.0,0.0,-0.0,0.0,0.25,1.6052244450000002,0.01,0.0,0.25,-0.6299999952316284,0.0,0.002197265625,0.00213623046875,0.99871826171875,34.27000045776367,0.0,13.0,1.258209228515625,0.5301361083984375,Closing,0.0,0.0,0.0,0.0,0.0,0.0,0.0,0.0,
5.440840999999986,0.0,0.0,5010.0,0.0,0.0,0.0,0.0,0.25,0.850829991,0.01,0.0,-7118.0,0.0,0.0,-0.0,0.0,0.125,0.496826121,0.01,0.0,5722.0,0.0,0.0,0.0,0.0,0.125,3.388671528,0.01,0.0,-6974.0,0.0,0.0,-0.0,0.0,0.25,1.6064451480000002,0.01,0.0,0.25,-0.6499999761581421,0.009999999776482582,-0.0048828125,0.0159912109375,1.03173828125,34.27000045776367,0.0,6.0,1.258087158203125,0.5301361083984375,Closing,0.0,0.0,0.0,0.0,0.0,0.0,0.0,0.0,
5.519847999999998,0.0,0.0,5010.0,0.0,0.0,0.0,0.0,0.25,0.849609288,0.01,0.0,-7118.0,0.0,0.0,-0.0,0.0,0.125,0.495605418,0.01,0.0,5722.0,0.0,0.0,0.0,0.0,0.125,3.387450825,0.01,0.0,-6974.0,0.0,0.0,-0.0,0.0,0.25,1.6052244450000002,0.01,0.0,0.25,-0.6499999761581421,0.0,-0.023681640625,0.0067138671875,1.02325439453125,34.27000045776367,0.0,-12.0,1.258087158203125,0.5301361083984375,Closing,0.0,0.0,0.0,0.0,0.0,0.0,0.0,0.0,
5.606837,0.0,0.0,5010.0,0.0,0.0,0.0,0.0,0.25,0.850829991,0.01,0.0,-7118.0,0.0,0.0,-0.0,0.0,0.125,0.496826121,0.01,0.0,5722.0,0.0,0.0,0.0,0.0,0.125,3.388671528,0.01,0.0,-6974.0,0.125,0.0,-0.0,0.0,0.25,1.6064451480000002,0.01,0.0,0.2800000011920929,-0.6299999952316284,-0.009999999776482582,-0.0152587890625,-0.02227783203125,0.9920654296875,34.279998779296875,0.0,-4.0,1.258087158203125,0.53070068359375,Closing,0.0,0.0,0.0,0.0,0.0,0.0,0.0,0.0,
5.686785999999993,0.0,0.0,5010.0,0.0,0.0,0.0,0.0,0.25,0.849609288,0.01,0.0,-7118.0,0.0,0.0,-0.0,0.0,0.125,0.496826121,0.01,0.0,5722.0,0.0,0.0,0.0,0.0,0.125,3.388671528,0.01,0.0,-6974.0,0.0,0.0,-0.0,0.0,0.25,1.6052244450000002,0.01,0.0,0.36000001430511475,-0.6000000238418579,0.0,-0.026123046875,-9.1552734375E-4,0.98504638671875,34.279998779296875,0.0,-15.0,1.2583770751953125,0.5311279296875,Closing,0.0,0.0,0.0,0.0,0.0,0.0,0.0,0.0,
5.770747000000003,0.0,0.0,5010.0,0.0,0.0,0.0,0.0,0.25,0.849609288,0.01,0.0,-7118.0,0.0,0.0,-0.0,0.0,0.125,0.495605418,0.01,0.0,5722.0,0.0,0.0,0.0,0.0,0.125,3.387450825,0.01,0.0,-6974.0,0.0,0.0,-0.0,0.0,0.25,1.6064451480000002,0.01,0.0,0.30000001192092896,-0.6000000238418579,0.0,0.00238037109375,0.02532958984375,1.04693603515625,34.279998779296875,0.0,13.0,1.25811767578125,0.5309906005859375,Closing,0.0,0.0,0.0,0.0,0.0,0.0,0.0,0.0,
5.852163000000001,0.0,0.0,5010.0,0.0,0.0,0.0,0.0,0.25,0.850829991,0.01,0.0,-7118.0,0.0,0.0,-0.0,0.0,0.125,0.496826121,0.01,0.0,5722.0,0.0,0.0,0.0,0.0,0.125,3.388671528,0.01,0.0,-6974.0,0.0,0.0,-0.0,0.0,0.25,1.6064451480000002,0.01,0.0,0.3400000035762787,-0.5799999833106995,0.0,-0.0303955078125,0.01708984375,1.061767578125,34.279998779296875,0.0,-19.0,1.2581787109375,0.5309906005859375,Closing,0.0,0.0,0.0,0.0,0.0,0.0,0.0,0.0,
5.929517999999982,0.0,0.0,5010.0,0.0,0.0,0.0,0.0,0.25,0.849609288,0.01,0.0,-7118.0,0.0,0.0,-0.0,0.0,0.125,0.498046824,0.01,0.0,5722.0,0.0,0.0,0.0,0.0,0.125,3.388671528,0.01,0.0,-6974.0,0.0,0.0,-0.0,0.0,0.25,1.6052244450000002,0.01,0.0,0.3199999928474426,-0.6000000238418579,0.0,0.0091552734375,0.01861572265625,1.00048828125,34.279998779296875,0.0,19.0,1.257904052734375,0.5308685302734375,Closing,0.0,0.0,0.0,0.0,0.0,0.0,0.0,0.0,
6.013929999999993,0.0,0.0,5010.0,0.0,0.0,0.0,0.0,0.25,0.849609288,0.01,0.0,-7118.0,0.0,0.0,-0.0,0.0,0.125,0.496826121,0.01,0.0,5722.0,0.0,0.0,0.0,0.0,0.125,3.388671528,0.01,0.0,-6974.0,0.0,0.0,-0.0,0.0,0.25,1.6052244450000002,0.01,0.0,0.3100000023841858,-0.6000000238418579,0.0,-0.01629638671875,0.00311279296875,1.01214599609375,34.279998779296875,0.0,-5.0,1.257843017578125,0.5308685302734375,Closing,0.0,0.0,0.0,0.0,0.0,0.0,0.0,0.0,
6.095978000000003,0.0,0.0,5010.0,0.0,0.0,0.0,0.0,0.25,0.849609288,0.01,0.0,-7118.0,0.0,0.0,-0.0,0.0,0.125,0.496826121,0.01,0.0,5722.0,0.0,0.0,0.0,0.0,0.125,3.388671528,0.01,0.0,-6974.0,0.125,0.0,-0.0,0.0,0.25,1.6064451480000002,0.01,0.0,0.3100000023841858,-0.5899999737739563,0.0,-0.0125732421875,7.32421875E-4,1.03399658203125,34.279998779296875,0.0,-1.0,1.2577972412109375,0.5308685302734375,Closing,0.0,0.0,0.0,0.0,0.0,0.0,0.0,0.0,
6.1818429999999935,0.0,0.0,5010.0,0.0,0.0,0.0,0.0,0.25,0.849609288,0.01,0.0,-7118.0,0.0,0.0,-0.0,0.0,0.125,0.495605418,0.01,0.0,5722.0,0.0,0.0,0.0,0.0,0.125,3.387450825,0.01,0.0,-6974.0,0.125,0.0,-0.0,0.0,0.25,1.6064451480000002,0.01,0.0,0.30000001192092896,-0.6000000238418579,-0.009999999776482582,-0.00604248046875,2.44140625E-4,1.01019287109375,34.279998779296875,0.0,4.0,1.2577972412109375,0.5308685302734375,Closing,0.0,0.0,0.0,0.0,0.0,0.0,0.0,0.0,
6.2673289999999975,0.0,0.0,5010.0,0.0,0.0,0.0,0.0,0.25,0.850829991,0.01,0.0,-7118.0,0.0,0.0,-0.0,0.0,0.125,0.496826121,0.01,0.0,5722.0,0.0,0.0,0.0,0.0,0.125,3.388671528,0.01,0.0,-6974.0,0.125,0.0,-0.0,0.0,0.25,1.6064451480000002,0.01,0.0,0.3100000023841858,-0.6000000238418579,0.0,-0.01776123046875,0.0811767578125,1.0181884765625,34.279998779296875,0.0,-6.0,1.2577972412109375,0.5308685302734375,Closing,0.0,0.0,0.0,0.0,0.0,0.0,0.0,0.0,
6.347372000000003,0.0,0.0,5010.0,0.0,0.0,0.0,0.0,0.25,0.850829991,0.01,0.0,-7118.0,0.0,0.0,-0.0,0.0,0.125,0.495605418,0.01,0.0,5722.0,0.0,0.0,0.0,0.0,0.125,3.387450825,0.01,0.0,-6974.0,0.0,0.0,-0.0,0.0,0.25,1.6052244450000002,0.01,0.0,0.28999999165534973,-0.5899999737739563,0.0,-0.03369140625,-0.00189208984375,1.0250244140625,34.279998779296875,0.0,-23.0,1.2580108642578125,0.5311737060546875,Closing,0.0,0.0,0.0,0.0,0.0,0.0,0.0,0.0,
6.426660000000004,0.0,0.0,5010.0,0.0,0.0,0.0,0.0,0.25,0.850829991,0.01,0.0,-7118.0,0.0,0.0,-0.0,0.0,0.125,0.496826121,0.01,0.0,5722.0,0.0,0.0,0.0,0.0,0.125,3.387450825,0.01,0.0,-6974.0,0.0,0.0,-0.0,0.0,0.25,1.6052244450000002,0.01,0.0,0.28999999165534973,-0.6000000238418579,0.0,-6.7138671875E-4,0.007080078125,1.0228271484375,34.279998779296875,0.0,10.0,1.258209228515625,0.5311737060546875,Closing,0.0,0.0,0.0,0.0,0.0,0.0,0.0,0.0,
6.507984999999986,0.0,0.0,5010.0,0.0,0.0,0.0,0.0,0.25,0.850829991,0.01,0.0,-7118.0,0.0,0.0,-0.0,0.0,0.125,0.495605418,0.01,0.0,5722.0,0.0,0.0,0.0,0.0,0.125,3.387450825,0.01,0.0,-6974.0,0.0,0.0,-0.0,0.0,0.25,1.6064451480000002,0.01,0.0,0.28999999165534973,-0.5899999737739563,0.0,-0.0189208984375,-0.001953125,1.00799560546875,34.279998779296875,0.0,-8.0,1.258209228515625,0.5311279296875,Closing,0.0,0.0,0.0,0.0,0.0,0.0,0.0,0.0,
6.587399000000005,0.0,0.0,5010.0,0.0,0.0,0.0,0.0,0.25,0.849609288,0.01,0.0,-7118.0,0.0,0.0,-0.0,0.0,0.125,0.496826121,0.01,0.0,5722.0,0.0,0.0,0.0,0.0,0.125,3.388671528,0.01,0.0,-6974.0,0.125,0.0,-0.0,0.0,0.25,1.6052244450000002,0.01,0.0,0.28999999165534973,-0.5899999737739563,0.0,-0.0030517578125,0.011962890625,1.01470947265625,34.290000915527344,0.0,7.0,1.258209228515625,0.5311279296875,Closing,0.0,0.0,0.0,0.0,0.0,0.0,0.0,0.0,
6.6681689999999945,0.0,0.0,5010.0,0.0,0.0,0.0,0.0,0.25,0.850829991,0.01,0.0,-7118.0,0.0,0.0,-0.0,0.0,0.125,0.496826121,0.01,0.0,5722.0,0.0,0.0,0.0,0.0,0.125,3.388671528,0.01,0.0,-6974.0,0.0,0.0,-0.0,0.0,0.25,1.6064451480000002,0.01,0.0,0.28999999165534973,-0.6000000238418579,-0.009999999776482582,-0.01739501953125,-0.00189208984375,1.03466796875,34.290000915527344,0.0,-6.0,1.258209228515625,0.5311279296875,Closing,0.0,0.0,0.0,0.0,0.0,0.0,0.0,0.0,
6.750959000000003,0.0,0.0,5010.0,0.0,0.0,0.0,0.0,0.25,0.850829991,0.01,0.0,-7118.0,0.0,0.0,-0.0,0.0,0.125,0.496826121,0.01,0.0,5722.0,0.0,0.0,0.0,0.0,0.125,3.388671528,0.01,0.0,-6974.0,0.0,0.0,-0.0,0.0,0.25,1.6064451480000002,0.01,0.0,0.2800000011920929,-0.5899999737739563,0.0,-0.0096435546875,0.00213623046875,1.014404296875,34.290000915527344,0.0,0.0,1.258209228515625,0.5311279296875,Closing,0.0,0.0,0.0,0.0,0.0,0.0,0.0,0.0,
6.870894,0.0,0.0,5010.0,0.0,0.0,0.0,0.0,0.25,0.850829991,0.01,0.0,-7118.0,0.0,0.0,-0.0,0.0,0.125,0.495605418,0.01,0.0,5722.0,0.0,0.0,0.0,0.0,0.125,3.388671528,0.01,0.0,-6974.0,0.0,0.0,-0.0,0.0,0.25,1.6052244450000002,0.01,0.0,0.2800000011920929,-0.5899999737739563,0.0,-0.00238037109375,0.00506591796875,1.0048828125,34.290000915527344,0.0,8.0,1.258209228515625,0.5311279296875,Closing,0.0,0.0,0.0,0.0,0.0,0.0,0.0,0.0,
6.948280999999988,0.0,0.0,5010.0,0.0,0.0,0.0,0.0,0.25,0.850829991,0.01,0.0,-7118.0,0.0,0.0,-0.0,0.0,0.125,0.498046824,0.01,0.0,5722.0,0.0,0.0,0.0,0.0,0.125,3.388671528,0.01,0.0,-6974.0,0.0,0.0,-0.0,0.0,0.25,1.6052244450000002,0.01,0.0,0.2800000011920929,-0.5899999737739563,0.0,-0.01171875,0.0035400390625,1.01495361328125,34.290000915527344,0.0,-1.0,1.258209228515625,0.5311279296875,Closing,0.0,0.0,0.0,0.0,0.0,0.0,0.0,0.0,
7.024103000000003,0.0,0.0,5010.0,0.0,0.0,0.0,0.0,0.25,0.849609288,0.01,0.0,-7118.0,0.0,0.0,-0.0,0.0,0.125,0.496826121,0.01,0.0,5722.0,0.0,0.0,0.0,0.0,0.125,3.387450825,0.01,0.0,-6974.0,0.125,0.0,-0.0,0.0,0.25,1.6064451480000002,0.01,0.0,0.27000001072883606,-0.6000000238418579,0.0,-0.01092529296875,0.001708984375,1.022216796875,34.290000915527344,0.0,0.0,1.258209228515625,0.5311279296875,Closing,0.0,0.0,0.0,0.0,0.0,0.0,0.0,0.0,
7.09438499999998,0.0,0.0,5010.0,0.0,0.0,0.0,0.0,0.25,0.849609288,0.01,0.0,-7118.0,0.0,0.0,-0.0,0.0,0.125,0.496826121,0.01,0.0,5722.0,0.0,0.0,0.0,0.0,0.125,3.387450825,0.01,0.0,-6974.0,0.0,0.0,-0.0,0.0,0.25,1.6064451480000002,0.01,0.0,0.27000001072883606,-0.6000000238418579,0.0,-0.00982666015625,0.0084228515625,1.01629638671875,34.290000915527344,0.0,0.0,1.258209228515625,0.5311279296875,Closing,0.0,0.0,0.0,0.0,0.0,0.0,0.0,0.0,
7.171760999999998,0.0,0.0,5010.0,0.0,0.0,0.0,0.0,0.25,0.850829991,0.01,0.0,-7118.0,0.0,0.0,-0.0,0.0,0.125,0.496826121,0.01,0.0,5722.0,0.0,0.0,0.0,0.0,0.125,3.388671528,0.01,0.0,-6974.0,0.125,0.0,-0.0,0.0,0.25,1.6052244450000002,0.01,0.0,0.27000001072883606,-0.6000000238418579,0.0,-0.00933837890625,0.0042724609375,1.0133056640625,34.290000915527344,0.0,1.0,1.258209228515625,0.5311279296875,Closing,0.0,0.0,0.0,0.0,0.0,0.0,0.0,0.0,
7.248019,0.0,0.0,5010.0,0.0,0.0,0.0,0.0,0.25,0.849609288,0.01,0.0,-7118.0,0.0,0.0,-0.0,0.0,0.125,0.496826121,0.01,0.0,5722.0,0.0,0.0,0.0,0.0,0.125,3.388671528,0.01,0.0,-6974.0,0.0,0.0,-0.0,0.0,0.25,1.6052244450000002,0.01,0.0,0.27000001072883606,-0.6000000238418579,0.0,-0.009765625,0.00726318359375,1.0225830078125,34.290000915527344,0.0,0.0,1.258209228515625,0.5311279296875,Closing,0.0,0.0,0.0,0.0,0.0,0.0,0.0,0.0,
7.318114999999991,0.0,0.0,5010.0,0.0,0.0,0.0,0.0,0.25,0.849609288,0.01,0.0,-7118.0,0.0,0.0,-0.0,0.0,0.125,0.496826121,0.01,0.0,5722.0,0.0,0.0,0.0,0.0,0.125,3.387450825,0.01,0.0,-6974.0,0.125,0.0,-0.0,0.0,0.25,1.6064451480000002,0.01,0.0,0.27000001072883606,-0.6000000238418579,0.0,-0.0107421875,0.00531005859375,1.0201416015625,34.290000915527344,0.0,0.0,1.258209228515625,0.5311279296875,Closing,0.0,0.0,0.0,0.0,0.0,0.0,0.0,0.0,
7.395471999999979,0.0,0.0,5010.0,0.0,0.0,0.0,0.0,0.25,0.850829991,0.01,0.0,-7118.0,0.0,0.0,-0.0,0.0,0.125,0.496826121,0.01,0.0,5722.0,0.0,0.0,0.0,0.0,0.125,3.388671528,0.01,0.0,-6974.0,0.125,0.0,-0.0,0.0,0.25,1.6064451480000002,0.01,0.0,0.27000001072883606,-0.6000000238418579,0.0,-0.0107421875,0.00396728515625,1.0218505859375,34.290000915527344,0.0,0.0,1.258209228515625,0.5311279296875,Closing,0.0,0.0,0.0,0.0,0.0,0.0,0.0,0.0,
7.473078999999998,0.0,0.0,5010.0,0.0,0.0,0.0,0.0,0.25,0.849609288,0.01,0.0,-7118.0,0.0,0.0,-0.0,0.0,0.125,0.496826121,0.01,0.0,5722.0,0.0,0.0,0.0,0.0,0.125,3.387450825,0.01,0.0,-6974.0,0.0,0.0,-0.0,0.0,0.25,1.6064451480000002,0.01,0.0,0.25999999046325684,-0.6000000238418579,0.0,-0.00946044921875,0.00823974609375,1.0247802734375,34.290000915527344,0.0,1.0,1.258209228515625,0.5311279296875,Closing,0.0,0.0,0.0,0.0,0.0,0.0,0.0,0.0,
7.552266000000003,0.0,0.0,5010.0,0.0,0.0,0.0,0.0,0.25,0.850829991,0.01,0.0,-7118.0,0.0,0.0,-0.0,0.0,0.125,0.495605418,0.01,0.0,5722.0,0.0,0.0,0.0,0.0,0.125,3.387450825,0.01,0.0,-6974.0,0.0,0.0,-0.0,0.0,0.25,1.6064451480000002,0.01,0.0,0.25999999046325684,-0.6000000238418579,0.0,-0.01055908203125,0.0037841796875,1.0223388671875,34.290000915527344,0.0,0.0,1.258209228515625,0.5311279296875,Closing,0.0,0.0,0.0,0.0,0.0,0.0,0.0,0.0,
7.629402999999991,0.0,0.0,5010.0,0.0,0.0,0.0,0.0,0.25,0.850829991,0.01,0.0,-7118.0,0.0,0.0,-0.0,0.0,0.125,0.496826121,0.01,0.0,5722.0,0.0,0.0,0.0,0.0,0.125,3.388671528,0.01,0.0,-6974.0,0.125,0.0,-0.0,0.0,0.25,1.6052244450000002,0.01,0.0,0.25999999046325684,-0.6000000238418579,0.009999999776482582,-0.01055908203125,0.00933837890625,1.0189208984375,34.29999923706055,0.0,0.0,1.258209228515625,0.5311279296875,Closing,0.0,0.0,0.0,0.0,0.0,0.0,0.0,0.0,
7.706096999999979,0.0,0.0,5010.0,0.0,0.0,0.0,0.0,0.25,0.849609288,0.01,0.0,-7118.0,0.0,0.0,-0.0,0.0,0.125,0.496826121,0.01,0.0,5722.0,0.0,0.0,0.0,0.0,0.125,3.387450825,0.01,0.0,-6974.0,0.0,0.0,-0.0,0.0,0.25,1.6052244450000002,0.01,0.0,0.25999999046325684,-0.6000000238418579,0.009999999776482582,-0.00921630859375,0.00506591796875,1.01715087890625,34.29999923706055,0.0,1.0,1.258209228515625,0.5311279296875,Closing,0.0,0.0,0.0,0.0,0.0,0.0,0.0,0.0,
7.779218999999983,0.0,0.0,5010.0,0.0,0.0,0.0,0.0,0.25,0.849609288,0.01,0.0,-7118.0,0.0,0.0,-0.0,0.0,0.125,0.496826121,0.01,0.0,5722.0,0.0,0.0,0.0,0.0,0.125,3.388671528,0.01,0.0,-6974.0,0.0,0.0,-0.0,0.0,0.25,1.6052244450000002,0.01,0.0,0.25999999046325684,-0.6000000238418579,0.009999999776482582,-0.01318359375,0.00439453125,1.0234375,34.29999923706055,0.0,-2.0,1.258209228515625,0.5311279296875,Closing,0.0,0.0,0.0,0.0,0.0,0.0,0.0,0.0,
7.85197099999999,0.0,0.0,5010.0,0.0,0.0,0.0,0.0,0.25,0.849609288,0.01,0.0,-7118.0,0.0,0.0,-0.0,0.0,0.125,0.496826121,0.01,0.0,5722.0,0.0,0.0,0.0,0.0,0.125,3.388671528,0.01,0.0,-6974.0,0.0,0.0,-0.0,0.0,0.25,1.6052244450000002,0.01,0.0,0.25999999046325684,-0.6000000238418579,0.009999999776482582,-0.011474609375,0.001708984375,1.01983642578125,34.29999923706055,0.0,0.0,1.258209228515625,0.5311279296875,Closing,0.0,0.0,0.0,0.0,0.0,0.0,0.0,0.0,
7.927433999999979,0.0,0.0,5010.0,0.0,0.0,0.0,0.0,0.25,0.849609288,0.01,0.0,-7118.0,0.0,0.0,-0.0,0.0,0.125,0.496826121,0.01,0.0,5722.0,0.0,0.0,0.0,0.0,0.125,3.387450825,0.01,0.0,-6974.0,0.0,0.0,-0.0,0.0,0.25,1.6064451480000002,0.01,0.0,0.25999999046325684,-0.6000000238418579,0.009999999776482582,-0.01336669921875,0.00604248046875,1.01666259765625,34.29999923706055,0.0,-2.0,1.258209228515625,0.5311279296875,Closing,0.0,0.0,0.0,0.0,0.0,0.0,0.0,0.0,
8.005313999999984,0.0,0.0,5010.0,0.0,0.0,0.0,0.0,0.25,0.849609288,0.01,0.0,-7118.0,0.0,0.0,-0.0,0.0,0.125,0.496826121,0.01,0.0,5722.0,0.0,0.0,0.0,0.0,0.125,3.387450825,0.01,0.0,-6974.0,0.125,0.0,-0.0,0.0,0.25,1.6064451480000002,0.01,0.0,0.25999999046325684,-0.6000000238418579,0.009999999776482582,-0.0096435546875,0.0032958984375,1.0184326171875,34.29999923706055,0.0,1.0,1.258209228515625,0.5311279296875,Closing,0.0,0.0,0.0,0.0,0.0,0.0,0.0,0.0,
8.075408999999985,0.0,0.0,5010.0,0.0,0.0,0.0,0.0,0.25,0.849609288,0.01,0.0,-7118.0,0.0,0.0,-0.0,0.0,0.125,0.496826121,0.01,0.0,5722.0,0.0,0.0,0.0,0.0,0.125,3.387450825,0.01,0.0,-6974.0,0.0,0.0,-0.0,0.0,0.25,1.6052244450000002,0.01,0.0,0.25999999046325684,-0.6000000238418579,0.009999999776482582,-0.01251220703125,0.0050048828125,1.01812744140625,34.29999923706055,0.0,-1.0,1.258209228515625,0.5311279296875,Closing,0.0,0.0,0.0,0.0,0.0,0.0,0.0,0.0,
8.151694999999977,0.0,0.0,5010.0,0.0,0.0,0.0,0.0,0.25,0.849609288,0.01,0.0,-7118.0,0.0,0.0,-0.0,0.0,0.125,0.496826121,0.01,0.0,5722.0,0.0,0.0,0.0,0.0,0.125,3.388671528,0.01,0.0,-6974.0,0.0,0.0,-0.0,0.0,0.25,1.6052244450000002,0.01,0.0,0.25999999046325684,-0.6000000238418579,0.009999999776482582,-0.0106201171875,0.00616455078125,1.0211181640625,34.279998779296875,0.0,0.0,1.258209228515625,0.5311279296875,Closing,0.0,0.0,0.0,0.0,0.0,0.0,0.0,0.0,
8.240535000000003,0.0,0.0,5010.0,0.0,0.0,0.0,0.0,0.25,0.850829991,0.01,0.0,-7118.0,0.0,0.0,-0.0,0.0,0.125,0.498046824,0.01,0.0,5722.0,0.0,0.0,0.0,0.0,0.125,3.387450825,0.01,0.0,-6974.0,0.125,0.0,-0.0,0.0,0.25,1.6064451480000002,0.01,0.0,0.25999999046325684,-0.6000000238418579,0.009999999776482582,-0.00982666015625,0.0035400390625,1.01611328125,34.279998779296875,0.0,0.0,1.258209228515625,0.5311279296875,Closing,0.0,0.0,0.0,0.0,0.0,0.0,0.0,0.0,
8.314035000000004,0.0,0.0,5010.0,0.0,0.0,0.0,0.0,0.25,0.849609288,0.01,0.0,-7118.0,0.0,0.0,-0.0,0.0,0.125,0.496826121,0.01,0.0,5722.0,0.0,0.0,0.0,0.0,0.125,3.388671528,0.01,0.0,-6974.0,0.125,0.0,-0.0,0.0,0.25,1.6052244450000002,0.01,0.0,0.25999999046325684,-0.6100000143051147,0.009999999776482582,-0.01055908203125,0.00579833984375,1.01507568359375,34.279998779296875,0.0,0.0,1.258209228515625,0.5311279296875,Closing,0.0,0.0,0.0,0.0,0.0,0.0,0.0,0.0,
8.386910999999992,0.0,0.0,5010.0,0.0,0.0,0.0,0.0,0.25,0.849609288,0.01,0.0,-7118.0,0.0,0.0,-0.0,0.0,0.125,0.496826121,0.01,0.0,5722.0,0.0,0.0,0.0,0.0,0.125,3.388671528,0.01,0.0,-6974.0,0.0,0.0,-0.0,0.0,0.25,1.6064451480000002,0.01,0.0,0.25999999046325684,-0.6000000238418579,0.009999999776482582,-0.0093994140625,0.0018310546875,1.017822265625,34.279998779296875,0.0,1.0,1.258209228515625,0.5311279296875,Closing,0.0,0.0,0.0,0.0,0.0,0.0,0.0,0.0,
8.460258000000001,0.0,0.0,5010.0,0.0,0.0,0.0,0.0,0.25,0.849609288,0.01,0.0,-7118.0,0.0,0.0,-0.0,0.0,0.125,0.496826121,0.01,0.0,5722.0,0.0,0.0,0.0,0.0,0.125,3.388671528,0.01,0.0,-6974.0,0.125,0.0,-0.0,0.0,0.25,1.6064451480000002,0.01,0.0,0.25999999046325684,-0.6000000238418579,0.009999999776482582,-0.01263427734375,0.0013427734375,1.02490234375,34.279998779296875,0.0,-1.0,1.258209228515625,0.5311279296875,Closing,0.0,0.0,0.0,0.0,0.0,0.0,0.0,0.0,
8.532796000000003,0.0,0.0,5010.0,0.0,0.0,0.0,0.0,0.25,0.850829991,0.01,0.0,-7118.0,0.0,0.0,-0.0,0.0,0.125,0.496826121,0.01,0.0,5722.0,0.0,0.0,0.0,0.0,0.125,3.388671528,0.01,0.0,-6974.0,0.0,0.0,-0.0,0.0,0.25,1.6052244450000002,0.01,0.0,0.25,-0.6000000238418579,0.009999999776482582,-0.01080322265625,0.00592041015625,1.0196533203125,34.279998779296875,0.0,0.0,1.258209228515625,0.5311279296875,Closing,0.0,0.0,0.0,0.0,0.0,0.0,0.0,0.0,
8.615415999999998,0.0,0.0,5010.0,0.0,0.0,0.0,0.0,0.25,0.850829991,0.01,0.0,-7118.0,0.0,0.0,-0.0,0.0,0.125,0.496826121,0.01,0.0,5722.0,0.0,0.0,0.0,0.0,0.125,3.387450825,0.01,0.0,-6974.0,0.0,0.0,-0.0,0.0,0.25,1.6064451480000002,0.01,0.0,0.25,-0.6100000143051147,0.009999999776482582,-0.01251220703125,0.00543212890625,1.0166015625,34.310001373291016,0.0,-1.0,1.258209228515625,0.5311279296875,Closing,0.0,0.0,0.0,0.0,0.0,0.0,0.0,0.0,
8.69178899999999,0.0,0.0,5010.0,0.0,0.0,0.0,0.0,0.25,0.850829991,0.01,0.0,-7118.0,0.0,0.0,-0.0,0.0,0.125,0.496826121,0.01,0.0,5722.0,0.0,0.0,0.0,0.0,0.125,3.388671528,0.01,0.0,-6974.0,0.0,0.0,-0.0,0.0,0.25,1.6052244450000002,0.01,0.0,0.25,-0.6100000143051147,0.009999999776482582,-0.01123046875,0.00439453125,1.01947021484375,34.310001373291016,0.0,0.0,1.258209228515625,0.5311279296875,Closing,0.0,0.0,0.0,0.0,0.0,0.0,0.0,0.0,
8.769407999999995,0.0,0.0,5010.0,0.0,0.0,0.0,0.0,0.25,0.849609288,0.01,0.0,-7118.0,0.0,0.0,-0.0,0.0,0.125,0.496826121,0.01,0.0,5722.0,0.0,0.0,0.0,0.0,0.125,3.387450825,0.01,0.0,-6974.0,0.0,0.0,-0.0,0.0,0.25,1.6064451480000002,0.01,0.0,0.25,-0.6100000143051147,0.009999999776482582,-0.00897216796875,0.005859375,1.01904296875,34.310001373291016,0.0,1.0,1.258209228515625,0.5311279296875,Closing,0.0,0.0,0.0,0.0,0.0,0.0,0.0,0.0,
8.844206999999995,0.0,0.0,5010.0,0.0,0.0,0.0,0.0,0.25,0.849609288,0.01,0.0,-7118.0,0.0,0.0,-0.0,0.0,0.125,0.495605418,0.01,0.0,5722.0,0.0,0.0,0.0,0.0,0.125,3.387450825,0.01,0.0,-6974.0,0.0,0.0,-0.0,0.0,0.25,1.6064451480000002,0.01,0.0,0.25,-0.6100000143051147,0.009999999776482582,-0.0101318359375,0.00262451171875,1.01800537109375,34.310001373291016,0.0,0.0,1.258209228515625,0.5311279296875,Closing,0.0,0.0,0.0,0.0,0.0,0.0,0.0,0.0,
8.915649999999994,0.0,0.0,5010.0,0.0,0.0,0.0,0.0,0.25,0.849609288,0.01,0.0,-7118.0,0.0,0.0,-0.0,0.0,0.125,0.498046824,0.01,0.0,5722.0,0.0,0.0,0.0,0.0,0.125,3.387450825,0.01,0.0,-6974.0,0.0,0.0,-0.0,0.0,0.25,1.6064451480000002,0.01,0.0,0.25,-0.6100000143051147,0.009999999776482582,-0.0101318359375,0.00640869140625,1.024658203125,34.310001373291016,0.0,0.0,1.258209228515625,0.5311279296875,Closing,0.0,0.0,0.0,0.0,0.0,0.0,0.0,0.0,
8.991543999999994,0.0,0.0,5010.0,0.0,0.0,0.0,0.0,0.25,0.850829991,0.01,0.0,-7118.0,0.0,0.0,-0.0,0.0,0.125,0.496826121,0.01,0.0,5722.0,0.0,0.0,0.0,0.0,0.125,3.388671528,0.01,0.0,-6974.0,0.125,0.0,-0.0,0.0,0.25,1.6064451480000002,0.01,0.0,0.25,-0.6100000143051147,0.009999999776482582,-0.0107421875,0.0032958984375,1.02105712890625,34.310001373291016,0.0,0.0,1.258209228515625,0.5311279296875,Closing,0.0,0.0,0.0,0.0,0.0,0.0,0.0,0.0,
9.068092999999994,0.0,0.0,5010.0,0.0,0.0,0.0,0.0,0.25,0.850829991,0.01,0.0,-7118.0,0.0,0.0,-0.0,0.0,0.125,0.496826121,0.01,0.0,5722.0,0.0,0.0,0.0,0.0,0.125,3.388671528,0.01,0.0,-6974.0,0.125,0.0,-0.0,0.0,0.25,1.6064451480000002,0.01,0.0,0.25,-0.6200000047683716,0.009999999776482582,-0.01226806640625,0.0045166015625,1.02166748046875,34.310001373291016,0.0,-1.0,1.258209228515625,0.5311279296875,Closing,0.0,0.0,0.0,0.0,0.0,0.0,0.0,0.0,
9.138717000000003,0.0,0.0,5010.0,0.0,0.0,0.0,0.0,0.25,0.849609288,0.01,0.0,-7118.0,0.0,0.0,-0.0,0.0,0.125,0.496826121,0.01,0.0,5722.0,0.0,0.0,0.0,0.0,0.125,3.388671528,0.01,0.0,-6974.0,0.0,0.0,-0.0,0.0,0.25,1.6064451480000002,0.01,0.0,0.25,-0.6200000047683716,0.009999999776482582,-0.01043701171875,0.00238037109375,1.01715087890625,34.29999923706055,0.0,0.0,1.258209228515625,0.5311279296875,Closing,0.0,0.0,0.0,0.0,0.0,0.0,0.0,0.0,
9.214465999999986,0.0,0.0,5010.0,0.0,0.0,0.0,0.0,0.25,0.849609288,0.01,0.0,-7118.0,0.0,0.0,-0.0,0.0,0.125,0.496826121,0.01,0.0,5722.0,0.0,0.0,0.0,0.0,0.125,3.387450825,0.01,0.0,-6974.0,0.0,0.0,-0.0,0.0,0.25,1.6064451480000002,0.01,0.0,0.25,-0.6299999952316284,0.009999999776482582,-0.01312255859375,0.00311279296875,1.019775390625,34.29999923706055,0.0,-1.0,1.258209228515625,0.5311279296875,Closing,0.0,0.0,0.0,0.0,0.0,0.0,0.0,0.0,
9.286221999999979,0.0,0.0,5010.0,0.0,0.0,0.0,0.0,0.25,0.850829991,0.01,0.0,-7118.0,0.0,0.0,-0.0,0.0,0.125,0.496826121,0.01,0.0,5722.0,0.0,0.0,0.0,0.0,0.125,3.387450825,0.01,0.0,-6974.0,0.0,0.0,-0.0,0.0,0.25,1.6064451480000002,0.01,0.0,0.25,-0.6200000047683716,0.009999999776482582,-0.00982666015625,0.0052490234375,1.01934814453125,34.29999923706055,0.0,1.0,1.258209228515625,0.5311279296875,Closing,0.0,0.0,0.0,0.0,0.0,0.0,0.0,0.0,
9.361065000000002,0.0,0.0,5010.0,0.0,0.0,0.0,0.0,0.25,0.850829991,0.01,0.0,-7118.0,0.0,0.0,-0.0,0.0,0.125,0.496826121,0.01,0.0,5722.0,0.0,0.0,0.0,0.0,0.125,3.387450825,0.01,0.0,-6974.0,0.0,0.0,-0.0,0.0,0.25,1.6064451480000002,0.01,0.0,0.25,-0.6200000047683716,0.009999999776482582,-0.01123046875,0.001953125,1.0198974609375,34.29999923706055,0.0,0.0,1.258209228515625,0.5311279296875,Closing,0.0,0.0,0.0,0.0,0.0,0.0,0.0,0.0,
9.43363499999998,0.0,0.0,5010.0,0.0,0.0,0.0,0.0,0.25,0.849609288,0.01,0.0,-7118.0,0.0,0.0,-0.0,0.0,0.125,0.496826121,0.01,0.0,5722.0,0.0,0.0,0.0,0.0,0.125,3.387450825,0.01,0.0,-6974.0,0.0,0.0,-0.0,0.0,0.25,1.6064451480000002,0.01,0.0,0.25,-0.6200000047683716,0.009999999776482582,-0.0123291015625,0.005615234375,1.01904296875,34.29999923706055,0.0,-1.0,1.258209228515625,0.5311279296875,Closing,0.0,0.0,0.0,0.0,0.0,0.0,0.0,0.0,
9.510358999999998,0.0,0.0,5010.0,0.0,0.0,0.0,0.0,0.25,0.850829991,0.01,0.0,-7118.0,0.0,0.0,-0.0,0.0,0.125,0.496826121,0.01,0.0,5722.0,0.0,0.0,0.0,0.0,0.125,3.387450825,0.01,0.0,-6974.0,0.0,0.0,-0.0,0.0,0.25,1.6064451480000002,0.01,0.0,0.25,-0.6200000047683716,0.0,-0.00933837890625,0.00494384765625,1.020751953125,34.29999923706055,0.0,1.0,1.258209228515625,0.5311279296875,Closing,0.0,0.0,0.0,0.0,0.0,0.0,0.0,0.0,
9.584002999999997,0.0,0.0,5010.0,0.0,0.0,0.0,0.0,0.25,0.849609288,0.01,0.0,-7118.0,0.0,0.0,-0.0,0.0,0.125,0.496826121,0.01,0.0,5722.0,0.0,0.0,0.0,0.0,0.125,3.388671528,0.01,0.0,-6974.0,0.0,0.0,-0.0,0.0,0.25,1.6064451480000002,0.01,0.0,0.25,-0.6200000047683716,0.0,-0.009033203125,0.00543212890625,1.01953125,34.29999923706055,0.0,2.0,1.258209228515625,0.5311279296875,Closing,0.0,0.0,0.0,0.0,0.0,0.0,0.0,0.0,
9.662548999999999,0.0,0.0,5010.0,0.0,0.0,0.0,0.0,0.25,0.850829991,0.01,0.0,-7118.0,0.0,0.0,-0.0,0.0,0.125,0.496826121,0.01,0.0,5722.0,0.0,0.0,0.0,0.0,0.125,3.388671528,0.01,0.0,-6974.0,0.0,0.0,-0.0,0.0,0.25,1.6064451480000002,0.01,0.0,0.25,-0.6200000047683716,0.009999999776482582,-0.0113525390625,0.001953125,1.016845703125,34.29999923706055,0.0,0.0,1.258209228515625,0.5311279296875,Closing,0.0,0.0,0.0,0.0,0.0,0.0,0.0,0.0,
9.733829999999987,0.0,0.0,5010.0,0.0,0.0,0.0,0.0,0.25,0.850829991,0.01,0.0,-7118.0,0.0,0.0,-0.0,0.0,0.125,0.496826121,0.01,0.0,5722.0,0.0,0.0,0.0,0.0,0.125,3.388671528,0.01,0.0,-6974.0,0.0,0.0,-0.0,0.0,0.25,1.6052244450000002,0.01,0.0,0.25,-0.6100000143051147,0.0,-0.00946044921875,0.003662109375,1.01605224609375,34.29999923706055,0.0,1.0,1.258209228515625,0.5311279296875,Closing,0.0,0.0,0.0,0.0,0.0,0.0,0.0,0.0,
9.814324999999982,0.0,0.0,5010.0,0.0,0.0,0.0,0.0,0.25,0.849609288,0.01,0.0,-7118.0,0.0,0.0,-0.0,0.0,0.125,0.495605418,0.01,0.0,5722.0,0.0,0.0,0.0,0.0,0.125,3.387450825,0.01,0.0,-6974.0,0.0,0.0,-0.0,0.0,0.25,1.6064451480000002,0.01,0.0,0.25,-0.6100000143051147,0.0,-0.009033203125,0.00457763671875,1.0181884765625,34.29999923706055,0.0,1.0,1.258209228515625,0.5311279296875,Closing,0.0,0.0,0.0,0.0,0.0,0.0,0.0,0.0,
