Time,ClimberA1,ClimberA2,FRpos,FRCurrent,FRspeed,FRsetpoint,FRApos,FRACurrent,FREncpos,FREncSetpoint,FREncSpeed,FLpos,FLCurrent,FLspeed,FLsetpoint,FLApos,FLACurrent,FLEncpos,FLEncSetpoint,FLEncSpeed,BRpos,BRCurrent,BRspeed,BRsetpoint,BRApos,BRACurrent,BREncpos,BREncSetpoint,BREncSpeed,BLpos,BLCurrent,BLspeed,BLsetpoint,BLApos,BLACurrent,BLEncpos,BLEncSetpoint,BLEncSpeed,navx_Pitch,navx_Roll,navx_Yaw,navx_XAcc,navx_YAcc,navx_ZAcc,navx_Temp,navx_Bar,navx_Alt,navx_XDis,navx_YDis,GearPlacerState,ShootOutputV,ShootOutputCurrent,ShootEncPos,ShootEncVelocity,ShootSpeed,ShootSetpoint,CarouselSetpoint,CarouselCurrent,
0.1691239999999525,0.0,0.0,40267.0,5.75,202.5,840.0,0.0,0.125,0.8032225740000001,0.011782607973353067,0.0,-37935.0,6.5,-210.0,-840.0,0.0,0.125,0.5163573690000001,0.011857903415679931,0.0,49887.0,5.625,187.5,840.0,0.0,0.0,3.334960596,0.011802075042724609,0.0,-37391.0,5.75,-202.5,-840.0,0.0,0.125,1.639404129,0.011844119517008462,0.0,-0.3799999952316284,0.3400000035762787,0.009999999776482582,-0.2567138671875,0.02191162109375,1.03387451171875,33.9900016784668,0.0,-262.0,-3.39044189453125,3.2923583984375,Waiting,0.0,0.0,36.0,0.0,0.0,0.0,0.0,0.0,
0.2515270000000019,0.0,0.0,40310.0,2.5,187.5,0.0,0.0,0.125,0.812988198,0.01,0.0,-37935.0,2.375,-255.0,-0.0,0.0,0.0,0.5163573690000001,0.01,0.010986327000000351,49887.0,1.375,232.5,0.0,0.0,0.0,3.341064111,0.01,0.0,-37414.0,2.0,-195.0,-0.0,0.0,0.125,1.639404129,0.01,0.0,-0.46000000834465027,-1.2400000095367432,0.5899999737739563,-0.21759033203125,-0.06243896484375,1.05035400390625,33.9900016784668,0.0,-195.0,-3.392730712890625,3.2958526611328125,Waiting,0.0,0.0,36.0,0.0,0.0,0.0,0.0,0.0,
0.33048399999993855,0.0,0.0,40297.0,2.25,-60.0,0.0,0.0,0.125,0.8032225740000001,0.01,0.0,-37943.0,1.5,0.0,-0.0,0.0,0.0,0.5163573690000001,0.01,-0.0012207030000004337,49903.0,1.5,75.0,0.0,0.0,0.0,3.334960596,0.01,0.0,-37414.0,2.0,52.5,-0.0,0.0,0.125,1.639404129,0.01,0.0012207029999999897,-0.30000001192092896,-0.7400000095367432,0.18000000715255737,0.1097412109375,0.02423095703125,1.1966552734375,33.9900016784668,0.0,125.0,-3.398345947265625,3.298675537109375,Waiting,0.0,0.0,36.0,0.0,0.0,0.0,0.0,0.0,
0.4060690000000177,0.0,0.0,40297.0,3.0,-7.5,0.0,0.0,0.125,0.799560465,0.01,0.0,-37939.0,3.125,60.0,-0.0,0.0,0.0,0.5151366660000001,0.01,0.0,49903.0,1.875,-7.5,0.0,0.0,0.0,3.339843408,0.01,0.0,-37400.0,2.75,75.0,-0.0,0.0,0.125,1.640624832,0.01,0.0,-0.4300000071525574,-0.6200000047683716,0.20000000298023224,0.0087890625,-0.06744384765625,1.07110595703125,34.0099983215332,0.0,20.0,-3.400543212890625,3.3019561767578125,Waiting,0.0,0.0,36.0,0.0,0.0,0.0,0.0,0.0,
0.48257699999993203,0.0,0.0,40299.0,2.625,0.0,0.0,0.0,0.125,0.8020018710000001,0.01,0.0,-37939.0,2.25,-7.5,-0.0,0.0,0.0,0.5163573690000001,0.01,0.0012207030000004337,49903.0,2.625,0.0,0.0,0.0,0.0,3.334960596,0.01,0.0,-37400.0,2.375,-15.0,-0.0,0.0,0.125,1.643066238,0.01,-0.0012207029999999897,-0.3400000035762787,-0.6299999952316284,0.28999999165534973,-0.03411865234375,0.00177001953125,0.9613037109375,34.0099983215332,0.0,-23.0,-3.4029541015625,3.3053131103515625,Waiting,0.0,0.0,36.0,0.0,0.0,0.0,0.0,0.0,
0.5549590000000316,0.0,0.0,40299.0,2.75,0.0,0.0,0.0,0.125,0.8032225740000001,0.01,0.0,-37940.0,2.375,-7.5,-0.0,0.0,0.0,0.5163573690000001,0.01,0.0,49903.0,2.625,0.0,0.0,0.0,0.0,3.334960596,0.01,0.0,-37403.0,2.625,0.0,-0.0,0.0,0.125,1.639404129,0.01,0.0,-0.38999998569488525,-0.6399999856948853,0.2800000011920929,0.0352783203125,-0.02301025390625,1.03662109375,34.0099983215332,0.0,46.0,-3.4053192138671875,3.30816650390625,Waiting,0.0,0.0,36.0,0.0,0.0,0.0,0.0,0.0,
0.6339370000000345,0.0,0.0,40299.0,2.75,0.0,0.0,0.0,0.125,0.8020018710000001,0.01,0.0,-37940.0,2.625,0.0,-0.0,0.0,0.0,0.5163573690000001,0.01,0.0,49903.0,2.625,0.0,0.0,0.0,0.0,3.333739893,0.01,0.0,-37403.0,2.75,0.0,-0.0,0.0,0.125,1.640624832,0.01,0.0,-0.3499999940395355,-0.6299999952316284,0.28999999165534973,-0.01171875,-0.00360107421875,1.015625,34.0099983215332,0.0,0.0,-3.407989501953125,3.3108367919921875,Waiting,0.0,0.0,36.0,0.0,0.0,0.0,0.0,0.0,
0.7083719999999739,0.0,0.0,40299.0,2.75,0.0,0.0,0.0,0.125,0.8044432770000001,0.01,0.0,-37940.0,2.625,0.0,-0.0,0.0,0.0,0.5151366660000001,0.01,0.0,49903.0,2.625,0.0,0.0,0.0,0.0,3.334960596,0.01,0.0,-37403.0,2.75,0.0,-0.0,0.0,0.125,1.641845535,0.01,0.0,-0.38999998569488525,-0.6299999952316284,0.2800000011920929,-0.01318359375,9.1552734375E-4,0.9832763671875,34.0099983215332,0.0,-2.0,-3.407989501953125,3.3108367919921875,Waiting,0.0,0.0,36.0,0.0,0.0,0.0,0.0,0.0,
0.7867589999999618,0.0,0.0,40299.0,2.75,0.0,0.0,0.0,0.125,0.8020018710000001,0.01,0.0,-37940.0,2.625,0.0,-0.0,0.0,0.0,0.5151366660000001,0.01,0.0,49903.0,2.625,0.0,0.0,0.0,0.0,3.334960596,0.01,0.0,-37403.0,2.75,0.0,-0.0,0.0,0.125,1.639404129,0.01,0.0,-0.3700000047683716,-0.6299999952316284,0.2800000011920929,-0.01953125,-0.0184326171875,1.03765869140625,34.0099983215332,0.0,-8.0,-3.407989501953125,3.3108367919921875,Waiting,0.0,0.0,36.0,0.0,0.0,0.0,0.0,0.0,
0.8592669999999926,0.0,0.0,40299.0,2.75,0.0,0.0,0.0,0.125,0.8032225740000001,0.01,0.0,-37940.0,2.625,0.0,-0.0,0.0,0.0,0.5151366660000001,0.01,0.0,49903.0,2.625,0.0,0.0,0.0,0.0,3.334960596,0.01,0.0,-37403.0,2.75,0.0,-0.0,0.0,0.125,1.640624832,0.01,0.0,-0.36000001430511475,-0.6299999952316284,0.2800000011920929,-0.02490234375,7.32421875E-4,1.02789306640625,34.0099983215332,0.0,-13.0,-3.407989501953125,3.3108367919921875,Waiting,0.0,0.0,36.0,0.0,0.0,0.0,0.0,0.0,
0.9356049999999814,0.0,0.0,40299.0,2.75,0.0,0.0,0.0,0.125,0.8032225740000001,0.01,-0.0012207029999995456,-37940.0,2.625,0.0,-0.0,0.0,0.0,0.5163573690000001,0.01,0.0,49903.0,2.625,0.0,0.0,0.0,0.0,3.334960596,0.01,0.0,-37403.0,2.75,0.0,-0.0,0.0,0.125,1.639404129,0.01,0.0,-0.3799999952316284,-0.6100000143051147,0.2800000011920929,-0.01068115234375,-0.00714111328125,0.9949951171875,34.02000045776367,0.0,0.0,-3.407989501953125,3.3108367919921875,Waiting,0.0,0.0,36.0,0.0,0.0,0.0,0.0,0.0,
1.0106049999999813,0.0,0.0,40299.0,2.75,0.0,0.0,0.0,0.125,0.8020018710000001,0.01,0.0,-37940.0,2.625,0.0,-0.0,0.0,0.0,0.5151366660000001,0.01,0.0,49903.0,2.625,0.0,0.0,0.0,0.0,3.334960596,0.01,0.0,-37403.0,2.75,0.0,-0.0,0.0,0.125,1.640624832,0.01,0.0,-0.36000001430511475,-0.6100000143051147,0.2800000011920929,-0.0052490234375,-0.01214599609375,1.0220947265625,34.02000045776367,0.0,5.0,-3.407989501953125,3.3108367919921875,Waiting,0.0,0.0,36.0,0.0,0.0,0.0,0.0,0.0,
1.0878199999999487,0.0,0.0,40299.0,2.75,0.0,0.0,0.0,0.125,0.8020018710000001,0.01,0.0,-37940.0,2.625,0.0,-0.0,0.0,0.0,0.5163573690000001,0.01,0.0012207030000004337,49903.0,2.625,0.0,0.0,0.0,0.0,3.334960596,0.01,0.0,-37403.0,2.75,0.0,-0.0,0.0,0.125,1.638183426,0.01,-0.0012207029999999897,-0.3700000047683716,-0.6100000143051147,0.2800000011920929,-0.010009765625,-0.002685546875,1.02410888671875,34.02000045776367,0.0,1.0,-3.407989501953125,3.3108367919921875,Waiting,0.0,0.0,36.0,0.0,0.0,0.0,0.0,0.0,
1.1594189999999944,0.0,0.0,40299.0,2.75,0.0,0.0,0.0,0.125,0.8032225740000001,0.01,0.0,-37940.0,2.75,0.0,-0.0,0.0,0.0,0.5163573690000001,0.01,0.0,49903.0,2.625,0.0,0.0,0.0,0.0,3.334960596,0.01,0.0,-37403.0,2.75,0.0,-0.0,0.0,0.125,1.6552732680000002,0.01,0.0,-0.3700000047683716,-0.6100000143051147,0.2800000011920929,-0.01116943359375,-0.01031494140625,1.01287841796875,34.02000045776367,0.0,0.0,-3.407989501953125,3.3108367919921875,Waiting,0.0,0.0,36.0,0.0,0.0,0.0,0.0,0.0,
1.235716000000015,0.0,0.0,40299.0,2.75,0.0,0.0,0.0,0.125,0.809326089,0.01,-0.0012207029999995456,-37940.0,2.625,0.0,-0.0,0.0,0.0,0.520019478,0.01,0.0,49903.0,2.625,0.0,0.0,0.0,0.0,3.3251949720000002,0.01,0.0,-37403.0,2.75,0.0,-0.0,0.0,0.125,1.649169753,0.01,0.0,-0.3700000047683716,-0.6100000143051147,0.2800000011920929,-0.0108642578125,-0.0084228515625,1.01971435546875,34.02000045776367,0.0,0.0,-3.407989501953125,3.3108367919921875,Waiting,0.0,0.0,36.0,0.0,0.0,0.0,0.0,0.0,
1.3111820000000298,0.0,0.0,40299.0,2.75,0.0,0.0,0.0,0.125,0.8020018710000001,0.01,0.0,-37940.0,2.625,0.0,-0.0,0.0,0.0,0.5163573690000001,0.01,0.0,49903.0,2.625,0.0,0.0,0.0,0.0,3.342284814,0.01,0.0,-37403.0,2.75,0.0,-0.0,0.0,0.125,1.639404129,0.01,0.0,-0.3799999952316284,-0.6000000238418579,0.2800000011920929,-0.0135498046875,-0.0015869140625,1.02020263671875,34.02000045776367,0.0,-2.0,-3.407989501953125,3.3108367919921875,Waiting,0.0,0.0,36.0,0.0,0.0,0.0,0.0,0.0,
1.4068589999999386,0.0,0.0,40299.0,2.75,0.0,0.0,0.0,0.125,0.8032225740000001,0.01,0.0,-37940.0,2.625,0.0,-0.0,0.0,0.0,0.521240181,0.01,0.0,49903.0,2.625,0.0,0.0,0.0,0.0,3.343505517,0.01,0.0,-37403.0,2.75,0.0,-0.0,0.0,0.125,1.639404129,0.01,0.0,-0.3799999952316284,-0.6000000238418579,0.2800000011920929,-0.01177978515625,-0.005126953125,1.01483154296875,34.02000045776367,0.0,-1.0,-3.407989501953125,3.3108367919921875,Waiting,0.0,0.0,36.0,0.0,0.0,0.0,0.0,0.0,
1.4869370000000344,0.0,0.0,40299.0,2.75,0.0,0.0,0.0,0.125,0.8044432770000001,0.01,-0.0012207030000004337,-37940.0,2.75,0.0,-0.0,0.0,0.0,0.5163573690000001,0.01,0.0012207030000004337,49903.0,2.625,0.0,0.0,0.0,0.0,3.3251949720000002,0.01,-0.0012207029999995456,-37403.0,2.75,0.0,-0.0,0.0,0.125,1.639404129,0.01,0.0,-0.3799999952316284,-0.5899999737739563,0.2800000011920929,-0.0101318359375,-0.00762939453125,1.02349853515625,34.02000045776367,0.0,0.0,-3.407989501953125,3.3108367919921875,Waiting,0.0,0.0,36.0,0.0,0.0,0.0,0.0,0.0,
1.5569290000000038,0.0,0.0,40299.0,2.75,0.0,0.0,0.0,0.125,0.8032225740000001,0.01,0.0,-37940.0,2.625,0.0,-0.0,0.0,0.0,0.5151366660000001,0.01,0.0,49903.0,2.625,0.0,0.0,0.0,0.0,3.333739893,0.01,0.0,-37403.0,2.75,0.0,-0.0,0.0,0.125,1.638183426,0.01,0.0,-0.3799999952316284,-0.5899999737739563,0.2800000011920929,-0.009033203125,-0.00115966796875,1.02313232421875,34.02000045776367,0.0,1.0,-3.407989501953125,3.3108367919921875,Waiting,0.0,0.0,36.0,0.0,0.0,0.0,0.0,0.0,
1.6356689999999945,0.0,0.0,40299.0,2.75,0.0,0.0,0.0,0.125,0.8020018710000001,0.01,0.0012207030000004337,-37940.0,2.75,0.0,-0.0,0.0,0.0,0.5163573690000001,0.01,0.0,49903.0,2.75,0.0,0.0,0.0,0.0,3.333739893,0.01,0.0,-37403.0,2.75,0.0,-0.0,0.0,0.125,1.639404129,0.01,-0.0012207029999999897,-0.3799999952316284,-0.5899999737739563,0.2800000011920929,-0.00885009765625,-0.00811767578125,1.01385498046875,34.02000045776367,0.0,1.0,-3.407989501953125,3.3108367919921875,Waiting,0.0,0.0,36.0,0.0,0.0,0.0,0.0,0.0,
1.7244560000000055,0.0,0.0,40299.0,2.75,0.0,0.0,0.0,0.125,0.8032225740000001,0.01,0.0,-37940.0,2.75,0.0,-0.0,0.0,0.0,0.5163573690000001,0.01,0.0,49903.0,2.75,0.0,0.0,0.0,0.0,3.333739893,0.01,0.0,-37403.0,2.75,0.0,-0.0,0.0,0.125,1.638183426,0.01,0.0,-0.3700000047683716,-0.5899999737739563,0.2800000011920929,-0.0074462890625,-0.00689697265625,1.018798828125,34.02000045776367,0.0,3.0,-3.407989501953125,3.3108367919921875,Waiting,0.0,0.0,36.0,0.0,0.0,0.0,0.0,0.0,
1.7958850000000093,0.0,0.0,40299.0,2.75,0.0,0.0,0.0,0.125,0.8020018710000001,0.01,0.0012207030000004337,-37940.0,2.75,0.0,-0.0,0.0,0.0,0.5163573690000001,0.01,0.0,49903.0,2.625,0.0,0.0,0.0,0.0,3.334960596,0.01,0.0,-37403.0,2.75,0.0,-0.0,0.0,0.125,1.6345213170000001,0.01,0.0,-0.3700000047683716,-0.5899999737739563,0.2800000011920929,-0.01031494140625,-0.0030517578125,1.0223388671875,34.02000045776367,0.0,0.0,-3.407989501953125,3.3108367919921875,Waiting,0.0,0.0,36.0,0.0,0.0,0.0,0.0,0.0,
1.8759159999999684,0.0,0.0,40299.0,2.75,0.0,0.0,0.0,0.125,0.8032225740000001,0.01,0.0012207029999995456,-37940.0,2.75,0.0,-0.0,0.0,0.0,0.5163573690000001,0.01,0.0,49903.0,2.625,0.0,0.0,0.0,0.0,3.334960596,0.01,0.0,-37403.0,2.75,0.0,-0.0,0.0,0.125,1.639404129,0.01,0.0012207029999999897,-0.3700000047683716,-0.5899999737739563,0.2800000011920929,-0.00921630859375,-0.0106201171875,1.02569580078125,34.02000045776367,0.0,1.0,-3.407989501953125,3.3108367919921875,Waiting,0.0,0.0,36.0,0.0,0.0,0.0,0.0,0.0,
1.951341999999946,0.0,0.0,40299.0,2.75,0.0,0.0,0.0,0.125,0.8020018710000001,0.01,-0.0012207029999995456,-37940.0,2.75,0.0,-0.0,0.0,0.0,0.5163573690000001,0.01,0.0,49903.0,2.625,0.0,0.0,0.0,0.0,3.334960596,0.01,0.0,-37403.0,2.75,0.0,-0.0,0.0,0.125,1.639404129,0.01,0.0,-0.3700000047683716,-0.5899999737739563,0.2800000011920929,-0.0125732421875,-0.00531005859375,1.021484375,34.029998779296875,0.0,-1.0,-3.407989501953125,3.3108367919921875,Waiting,0.0,0.0,36.0,0.0,0.0,0.0,0.0,0.0,
2.029829000000027,0.0,0.0,40299.0,2.75,0.0,0.0,0.0,0.125,0.8032225740000001,0.01,0.0,-37940.0,2.75,0.0,-0.0,0.0,0.0,0.5151366660000001,0.01,0.0,49903.0,2.625,0.0,0.0,0.0,0.0,3.333739893,0.01,0.0,-37403.0,2.75,0.0,-0.0,0.0,0.125,1.639404129,0.01,0.0,-0.3799999952316284,-0.5799999833106995,0.2800000011920929,-0.00994873046875,-0.0037841796875,1.01678466796875,34.029998779296875,0.0,0.0,-3.407989501953125,3.3108367919921875,Waiting,0.0,0.0,36.0,0.0,0.0,0.0,0.0,0.0,
2.099344999999972,0.0,0.0,40299.0,1.75,0.0,-214.96063694357872,0.0,0.125,0.8032225740000001,4.932250999999998,0.0,-37940.0,1.0,0.0,214.96063694357872,0.0,0.125,0.5163573690000001,4.963769999999998,0.0,49903.0,1.25,0.0,-214.96063694357872,0.0,0.0,3.333739893,0.01,0.0,-37403.0,1.375,0.0,214.96063694357872,0.0,0.125,1.639404129,0.01,0.0,-0.3700000047683716,-0.5899999737739563,0.2800000011920929,-0.01361083984375,-0.00689697265625,1.01837158203125,34.029998779296875,0.0,-3.0,-3.407989501953125,3.3108367919921875,Waiting,0.0,0.0,36.0,0.0,0.0,0.0,0.0,0.0,
2.175974000000046,0.0,0.0,40299.0,0.625,-7.5,-843.3070600032806,0.0,0.125,0.8032225740000001,4.932250999999998,0.0,-37940.0,0.25,15.0,843.3070600032806,0.0,0.125,0.5163573690000001,4.963769999999998,0.0,49903.0,0.625,-7.5,-843.3070600032806,0.0,0.0,3.333739893,0.01,0.0,-37396.0,0.375,22.5,843.3070600032806,0.0,0.125,1.6345213170000001,0.01,0.0,-0.4000000059604645,-0.8600000143051147,0.2800000011920929,-0.09368896484375,-0.00146484375,1.0111083984375,34.029998779296875,0.0,-78.0,-3.408843994140625,3.31072998046875,Waiting,0.0,0.0,36.0,0.0,0.0,0.0,0.0,0.0,
2.249890000000014,0.0,0.0,40284.0,0.0,-97.5,-661.4173203706741,0.0,0.125,0.8032225740000001,4.932250999999998,0.0,-37923.0,0.125,135.0,661.4173203706741,0.0,0.125,0.511474557,4.963769999999998,0.0,49885.0,0.125,-150.0,-661.4173203706741,0.0,0.0,3.334960596,0.01,0.0,-37396.0,0.375,97.5,661.4173203706741,0.0,0.125,1.6345213170000001,0.01,0.0,-0.36000001430511475,-0.7799999713897705,0.25,0.046875,0.01776123046875,0.99176025390625,34.029998779296875,0.0,60.0,-3.41046142578125,3.3106842041015625,Waiting,0.0,0.0,36.0,0.0,0.0,0.0,0.0,0.0,
2.327371000000043,0.0,0.0,40284.0,0.0,-30.0,-314.17323499917984,0.0,0.125,0.812988198,4.932250999999998,0.0,-37909.0,0.0,112.5,314.17323499917984,0.0,0.125,0.5163573690000001,4.963769999999998,0.0,49869.0,0.125,-127.5,-314.17323499917984,0.0,0.0,3.334960596,0.01,0.0,-37382.0,0.125,67.5,314.17323499917984,0.0,0.125,1.6345213170000001,0.01,0.0,-0.3499999940395355,-0.6600000262260437,0.14000000059604645,0.00244140625,-0.02679443359375,1.0933837890625,34.029998779296875,0.0,15.0,-3.4111175537109375,3.3109588623046875,Waiting,0.0,0.0,36.0,0.0,0.0,0.0,0.0,0.0,
2.4075910000000147,0.0,0.0,40282.0,0.0,0.0,0.0,0.0,0.125,0.808105386,4.932250999999998,0.0,-37909.0,0.0,15.0,0.0,0.0,0.125,0.5163573690000001,4.963769999999998,0.0,49869.0,0.0,-22.5,0.0,0.0,0.0,3.334960596,0.01,0.0,-37382.0,0.0,0.0,0.0,0.0,0.125,1.6345213170000001,0.01,0.0,-0.36000001430511475,-0.5600000023841858,0.20999999344348907,0.021240234375,0.01397705078125,1.0191650390625,34.029998779296875,0.0,31.0,-3.41021728515625,3.3109283447265625,Waiting,0.0,0.0,36.0,0.0,0.0,0.0,0.0,0.0,
2.485875999999931,0.0,0.0,40282.0,0.0,0.0,0.0,0.0,0.125,0.808105386,4.932250999999998,0.0012207029999995456,-37909.0,0.0,0.0,0.0,0.0,0.125,0.5163573690000001,4.963769999999998,-0.0012207030000004337,49869.0,0.0,0.0,0.0,0.0,0.0,3.334960596,0.01,-0.0012207029999995456,-37382.0,0.0,0.0,0.0,0.0,0.125,1.6345213170000001,0.01,0.0,-0.33000001311302185,-0.5400000214576721,0.18000000715255737,-0.01055908203125,-4.8828125E-4,1.03179931640625,34.029998779296875,0.0,0.0,-3.409637451171875,3.3110198974609375,Waiting,0.0,0.0,36.0,0.0,0.0,0.0,0.0,0.0,
2.555597999999998,0.0,0.0,40282.0,0.0,0.0,0.0,0.0,0.125,0.806884683,4.932250999999998,0.0012207030000004337,-37909.0,0.0,0.0,0.0,0.0,0.125,0.5175780720000001,4.963769999999998,0.0,49869.0,0.0,0.0,0.0,0.0,0.0,3.334960596,0.01,0.0012207029999995456,-37382.0,0.0,0.0,0.0,0.0,0.125,1.6357420200000001,0.01,0.0,-0.3700000047683716,-0.5699999928474426,0.18000000715255737,-0.02587890625,-0.01580810546875,0.98876953125,34.029998779296875,0.0,-15.0,-3.4097747802734375,3.3110198974609375,Waiting,0.0,0.0,36.0,0.0,0.0,0.0,0.0,0.0,
2.6336080000000073,0.0,0.0,40282.0,0.125,-7.5,-347.2440853714943,0.0,0.125,0.806884683,4.932250999999998,0.0,-37909.0,0.25,0.0,347.2440853714943,0.0,0.125,0.5163573690000001,4.963769999999998,0.0,49870.0,0.125,7.5,-347.2440853714943,0.0,0.0,3.334960596,0.01,0.0,-37382.0,0.375,0.0,347.2440853714943,0.0,0.125,1.6345213170000001,0.01,0.0,-0.3499999940395355,-0.6100000143051147,0.1899999976158142,-0.02581787109375,-0.01287841796875,1.011474609375,34.029998779296875,0.0,-14.0,-3.4097747802734375,3.3110198974609375,Waiting,0.0,0.0,36.0,0.0,0.0,0.0,0.0,0.0,
2.709400000000023,0.0,0.0,40259.0,0.625,-127.5,-545.6692814826965,0.0,0.125,0.8166503070000001,4.932250999999998,0.0,-37901.0,1.75,45.0,545.6692814826965,0.0,0.125,0.5163573690000001,4.963769999999998,0.0,49869.0,1.25,-7.5,-545.6692814826965,0.0,0.0,3.348388329,0.01,0.0,-37377.0,1.5,60.0,545.6692814826965,0.0,0.125,1.6296385050000002,0.01,0.0,-0.4099999964237213,-0.7599999904632568,0.20000000298023224,-0.0728759765625,0.0634765625,0.9813232421875,34.029998779296875,0.0,-59.0,-3.41015625,3.31097412109375,Waiting,0.0,0.0,36.0,0.0,0.0,0.0,0.0,0.0,
2.7902090000000315,0.0,0.0,40259.0,1.375,-105.0,-545.6692814826965,0.0,0.125,0.8166503070000001,4.932250999999998,0.0,-37901.0,2.5,60.0,545.6692814826965,0.0,0.125,0.5163573690000001,4.963769999999998,0.0,49869.0,2.5,-60.0,-545.6692814826965,0.0,0.0,3.358153953,0.01,0.0,-37359.0,2.375,105.0,545.6692814826965,0.0,0.125,1.624755693,0.01,0.0,-0.3799999952316284,-0.9900000095367432,0.27000001072883606,-0.1011962890625,0.0159912109375,0.9493408203125,34.029998779296875,0.0,-84.0,-3.41278076171875,3.310638427734375,Waiting,0.0,0.0,36.0,0.0,0.0,0.0,0.0,0.0,
2.868488000000012,0.0,0.0,40241.0,2.25,-120.0,-545.6692814826965,0.0,0.125,0.809326089,4.932250999999998,0.0,-37886.0,3.75,127.5,545.6692814826965,0.0,0.125,0.511474557,4.963769999999998,0.0,49855.0,2.875,-112.5,-545.6692814826965,0.0,0.0,3.3642574680000004,0.01,0.0,-37359.0,3.125,157.5,545.6692814826965,0.0,0.125,1.600341633,0.01,0.0,-0.4000000059604645,-1.3799999952316284,0.23999999463558197,-0.06585693359375,-0.03594970703125,1.0062255859375,34.029998779296875,0.0,-41.0,-3.4198760986328125,3.310333251953125,Waiting,0.0,0.0,36.0,0.0,0.0,0.0,0.0,0.0,
2.946780000000028,0.0,0.0,40200.0,1.625,-217.5,-396.8503922224045,0.0,0.125,0.8166503070000001,4.932250999999998,0.0,-37847.0,2.5,232.5,396.8503922224045,0.0,0.0,0.50048823,4.963769999999998,0.0,49827.0,2.375,-165.0,-396.8503922224045,0.0,0.0,3.3642574680000004,0.01,0.0,-37326.0,2.375,232.5,396.8503922224045,0.0,0.25,1.596679524,0.01,0.0,-0.4099999964237213,-1.5700000524520874,0.25,-0.0714111328125,0.03485107421875,1.09326171875,34.0,0.0,-41.0,-3.428924560546875,3.309600830078125,Waiting,0.0,0.0,36.0,0.0,0.0,0.0,0.0,0.0,
3.024353999999934,0.0,0.0,40200.0,1.25,-300.0,-396.8503922224045,0.0,0.125,0.8166503070000001,4.932250999999998,0.0,-37847.0,2.125,292.5,396.8503922224045,0.0,0.0,0.5017089330000001,4.963769999999998,0.0,49827.0,2.125,-285.0,-396.8503922224045,0.0,0.0,3.3654781710000004,0.01,0.0,-37278.0,2.0,292.5,396.8503922224045,0.0,0.25,1.596679524,0.01,0.0,-0.41999998688697815,-1.6799999475479126,0.3199999928474426,-0.06451416015625,-0.02587890625,1.03076171875,34.0,0.0,-34.0,-3.4392852783203125,3.309112548828125,Waiting,0.0,0.0,36.0,0.0,0.0,0.0,0.0,0.0,
3.097150000000023,0.0,0.0,40144.0,2.25,-345.0,-644.8818951845169,0.0,0.125,0.8178710100000001,4.932250999999998,0.0,-37793.0,3.375,352.5,644.8818951845169,0.0,0.0,0.5017089330000001,4.963769999999998,0.0,49773.0,3.0,-345.0,-644.8818951845169,0.0,0.0,3.3630367650000004,0.01,0.0,-37278.0,3.375,360.0,644.8818951845169,0.0,0.25,1.590576009,0.01,0.0,-0.41999998688697815,-1.899999976158142,0.3100000023841858,-0.06268310546875,-0.04205322265625,1.1148681640625,34.0,0.0,-25.0,-3.4508514404296875,3.3090667724609375,Waiting,0.0,0.0,36.0,0.0,0.0,0.0,0.0,0.0,
3.179591000000015,0.0,0.0,40069.0,2.75,-420.0,-677.9527455568314,0.0,0.125,0.8166503070000001,4.932250999999998,0.0,-37719.0,3.875,450.0,677.9527455568314,0.0,0.0,0.5017089330000001,4.963769999999998,0.0,49700.0,3.625,-427.5,-677.9527455568314,0.0,0.0,3.358153953,0.01,0.0,-37212.0,3.875,420.0,677.9527455568314,0.0,0.25,1.588134603,0.01,0.0,-0.46000000834465027,-2.200000047683716,0.38999998569488525,-0.120361328125,-0.02850341796875,1.04119873046875,34.0,0.0,-80.0,-3.4681243896484375,3.309173583984375,Waiting,0.0,0.0,36.0,0.0,0.0,0.0,0.0,0.0,
3.2554490000000222,0.0,0.0,40069.0,2.5,-532.5,-677.9527455568314,0.0,0.125,0.8178710100000001,4.932250999999998,0.0,-37719.0,3.875,517.5,677.9527455568314,0.0,0.0,0.5017089330000001,4.963769999999998,0.0,49700.0,3.875,-532.5,-677.9527455568314,0.0,0.0,3.3630367650000004,0.01,0.0,-37127.0,3.75,502.5,677.9527455568314,0.0,0.25,1.591796712,0.01,0.0,-0.49000000953674316,-2.3499999046325684,0.4399999976158142,-0.0679931640625,0.0130615234375,0.9591064453125,34.0,0.0,-28.0,-3.4850616455078125,3.309051513671875,Waiting,0.0,0.0,36.0,0.0,0.0,0.0,0.0,0.0,
3.3339640000000363,0.0,0.0,39975.0,2.5,-585.0,-677.9527455568314,0.0,0.125,0.8166503070000001,4.932250999999998,0.0,-37624.0,3.375,592.5,677.9527455568314,0.0,0.0,0.4882812,4.963769999999998,0.0,49608.0,3.375,-585.0,-677.9527455568314,0.0,0.0,3.3642574680000004,0.01,0.0,-37127.0,3.5,585.0,677.9527455568314,0.0,0.25,1.591796712,0.01,0.0,-0.5,-2.059999942779541,0.28999999165534973,-0.00714111328125,0.00439453125,1.0457763671875,34.0,0.0,30.0,-3.5005950927734375,3.3095245361328125,Waiting,0.0,0.0,36.0,0.0,0.0,0.0,0.0,0.0,
3.4074129999999423,0.0,0.0,39975.0,2.75,-570.0,-677.9527455568314,0.0,0.125,0.8154296040000001,4.932250999999998,0.0,-37533.0,3.5,585.0,677.9527455568314,0.0,0.125,0.48706049700000004,4.963769999999998,0.0,49516.0,3.625,-577.5,-677.9527455568314,0.0,0.0,3.35693325,0.01,0.0,-37032.0,3.625,585.0,677.9527455568314,0.0,0.25,1.595458821,0.01,0.0,-0.49000000953674316,-1.690000057220459,0.17000000178813934,0.0667724609375,0.3797607421875,1.03875732421875,34.0,0.0,98.0,-3.51397705078125,3.31011962890625,Waiting,0.0,0.0,36.0,0.0,0.0,0.0,0.0,0.0,
3.486712999999989,0.0,0.0,39889.0,3.5,-502.5,-694.4881707429886,0.0,0.125,0.8166503070000001,4.932250999999998,0.0,-37533.0,5.0,525.0,694.4881707429886,0.0,0.125,0.482177685,4.963769999999998,0.0,49516.0,4.625,-517.5,-694.4881707429886,0.0,0.0,3.3630367650000004,0.01,0.0,-37032.0,4.75,525.0,694.4881707429886,0.0,0.25,1.597900227,0.01,0.0,-0.49000000953674316,-1.8200000524520874,0.11999999731779099,-0.15643310546875,0.08587646484375,1.2135009765625,33.9900016784668,0.0,-117.0,-3.5254364013671875,3.3117218017578125,Waiting,0.0,0.0,36.0,0.0,0.0,0.0,0.0,0.0,
3.5615019999999786,0.0,0.0,39812.0,4.5,-472.5,-694.4881707429886,0.0,0.125,0.8166503070000001,4.932250999999998,0.0,-37455.0,6.0,487.5,694.4881707429886,0.0,0.125,0.477294873,4.963769999999998,0.0,49434.0,5.75,-517.5,-694.4881707429886,0.0,0.0,3.3630367650000004,0.01,0.0,-36952.0,6.0,480.0,694.4881707429886,0.0,0.25,1.596679524,0.01,0.0,-0.5199999809265137,-1.7799999713897705,0.009999999776482582,-0.06640625,-0.031982421875,1.11285400390625,33.9900016784668,0.0,-31.0,-3.536956787109375,3.31378173828125,Waiting,0.0,0.0,36.0,0.0,0.0,0.0,0.0,0.0,
3.642996999999974,0.0,0.0,39812.0,4.375,-465.0,-446.45669907331467,0.0,0.125,0.8178710100000001,4.932250999999998,0.0,-37379.0,4.5,510.0,446.45669907331467,0.0,0.125,0.477294873,4.963769999999998,0.0,49356.0,4.25,-510.0,-446.45669907331467,0.0,0.0,3.3630367650000004,0.01,0.0,-36882.0,5.625,457.5,446.45669907331467,0.0,0.25,1.597900227,0.01,0.0,-0.46000000834465027,-1.350000023841858,-0.17000000178813934,0.24822998046875,-0.097412109375,1.33984375,33.9900016784668,0.0,280.0,-3.5470123291015625,3.314117431640625,Waiting,0.0,0.0,36.0,0.0,0.0,0.0,0.0,0.0,
3.7154529999999797,0.0,0.0,39743.0,3.875,-390.0,-446.45669907331467,0.0,0.125,0.8178710100000001,4.932250999999998,0.0,-37379.0,5.875,352.5,446.45669907331467,0.0,0.0,0.477294873,4.963769999999998,0.0,49356.0,4.75,-427.5,-446.45669907331467,0.0,0.0,3.3630367650000004,0.01,0.0,-36882.0,9.125,135.0,446.45669907331467,0.0,0.25,1.595458821,0.01,0.0,-0.28999999165534973,-1.0499999523162842,0.3100000023841858,0.28277587890625,0.020751953125,1.589599609375,33.9900016784668,0.0,312.0,-3.5499725341796875,3.313323974609375,Waiting,0.0,0.0,36.0,0.0,0.0,0.0,0.0,0.0,
3.7940599999999396,0.0,0.0,39708.0,6.125,-262.5,-413.3858174085617,0.0,0.125,0.821533119,4.932250999999998,0.0,-37342.0,8.25,240.0,413.3858174085617,0.0,0.25,0.477294873,4.963769999999998,0.0,49299.0,5.5,-360.0,-413.3858174085617,0.0,0.0,3.3642574680000004,0.01,0.0,-36867.0,12.125,97.5,413.3858174085617,0.0,0.25,1.6296385050000002,0.01,0.0,-0.11999999731779099,-1.0099999904632568,0.3700000047683716,-0.0438232421875,0.002197265625,1.156005859375,33.9900016784668,0.0,-23.0,-3.5475006103515625,3.313751220703125,Waiting,0.0,0.0,36.0,0.0,0.0,0.0,0.0,0.0,
3.8684299999999348,0.0,0.0,39708.0,8.5,-127.5,-380.31496703624725,0.0,0.125,0.821533119,4.932250999999998,0.0,-37342.0,10.0,195.0,380.31496703624725,0.0,0.25,0.47607417,4.963769999999998,0.0,49299.0,3.875,-292.5,-380.31496703624725,0.0,0.0,3.3630367650000004,0.01,0.0,-36833.0,11.25,210.0,380.31496703624725,0.0,0.125,1.595458821,0.01,0.0,-0.029999999329447746,-1.4199999570846558,-0.03999999910593033,-0.12567138671875,0.0252685546875,1.12249755859375,33.9900016784668,0.0,-97.0,-3.5442047119140625,3.3133392333984375,Waiting,0.0,0.0,36.0,0.0,0.0,0.0,0.0,0.0,
3.9455259999999543,0.0,0.0,39693.0,10.125,-97.5,-363.77954185009,0.0,0.125,0.821533119,4.932250999999998,0.0,-37304.0,9.5,247.5,363.77954185009,0.0,0.25,0.47851557600000005,4.963769999999998,0.0,49241.0,1.0,-487.5,-363.77954185009,0.0,0.0,3.3630367650000004,0.01,0.0,-36833.0,10.875,247.5,363.77954185009,0.0,0.25,1.591796712,0.01,0.0,0.11999999731779099,-1.7999999523162842,-0.6000000238418579,-0.0960693359375,0.08148193359375,0.8934326171875,33.97999954223633,0.0,-68.0,-3.5436248779296875,3.312255859375,Waiting,0.0,0.0,36.0,0.0,0.0,0.0,0.0,0.0,
4.018216000000015,0.0,0.0,39649.0,12.125,-187.5,-578.740131855011,0.0,0.125,0.821533119,4.932250999999998,0.0,-37254.0,12.25,300.0,578.740131855011,0.0,0.25,0.484619091,4.963769999999998,0.0,49123.0,0.625,-690.0,-578.740131855011,0.0,0.0,3.359374656,0.01,0.0,-36789.0,13.875,307.5,578.740131855011,0.0,0.25,1.593017415,0.01,0.0,0.18000000715255737,-2.5899999141693115,-0.699999988079071,-0.25494384765625,-0.02374267578125,1.1722412109375,33.97999954223633,0.0,-201.0,-3.5484619140625,3.3121490478515625,Waiting,0.0,0.0,36.0,0.0,0.0,0.0,0.0,0.0,
4.096045000000042,0.0,0.0,39649.0,12.875,-397.5,-744.0945088863373,0.0,0.125,0.822753822,4.932250999999998,0.0,-37254.0,14.375,442.5,744.0945088863373,0.0,0.25,0.477294873,4.963769999999998,0.0,49123.0,2.375,-922.5,-744.0945088863373,0.0,0.0,3.358153953,0.01,0.0,-36713.0,15.5,412.5,744.0945088863373,0.0,0.25,1.591796712,0.01,0.0,-0.3100000023841858,-3.369999885559082,-0.6899999976158142,-0.130126953125,-0.0067138671875,1.780517578125,33.97999954223633,0.0,-25.0,-3.559478759765625,3.3106231689453125,Waiting,0.0,0.0,36.0,0.0,0.0,0.0,0.0,0.0,
4.1710629999999655,0.0,0.0,39554.0,11.25,-607.5,-744.0945088863373,0.0,0.125,0.821533119,4.932250999999998,0.0,-37163.0,13.125,585.0,744.0945088863373,0.0,0.25,0.477294873,4.963769999999998,0.0,48971.0,1.5,-907.5,-744.0945088863373,0.0,0.0,3.348388329,0.01,0.0,-36713.0,12.625,675.0,744.0945088863373,0.0,0.25,1.590576009,0.01,0.0,-0.6499999761581421,-4.239999771118164,-1.059999942779541,-0.308349609375,-0.24609375,1.2318115234375,33.97999954223633,0.0,-211.0,-3.57403564453125,3.310150146484375,Waiting,0.0,0.0,36.0,0.0,0.0,0.0,0.0,0.0,
4.251717999999993,0.0,0.0,39554.0,7.375,-690.0,-496.06300592422485,0.0,0.125,0.820312416,4.932250999999998,0.0,-37045.0,8.375,697.5,496.06300592422485,0.0,0.25,0.47607417,4.963769999999998,0.0,48842.0,0.375,-802.5,-496.06300592422485,0.0,0.0,3.339843408,0.01,0.0,-36590.0,8.25,765.0,496.06300592422485,0.0,0.25,1.6040037420000002,0.01,0.0,-0.5899999737739563,-4.550000190734863,-1.0700000524520874,-0.318359375,0.03643798828125,1.27435302734375,33.97999954223633,0.0,-217.0,-3.59368896484375,3.3098297119140625,Waiting,0.0,0.0,36.0,0.0,0.0,0.0,0.0,0.0,
4.330216000000015,0.0,0.0,39433.0,3.125,-825.0,-380.31496703624725,0.0,0.125,0.822753822,4.932250999999998,0.0,-37045.0,3.25,802.5,380.31496703624725,0.0,0.25,0.477294873,4.963769999999998,0.0,48842.0,0.125,-787.5,-380.31496703624725,0.0,0.0,3.334960596,0.01,0.0,-36456.0,4.125,810.0,380.31496703624725,0.0,0.25,1.6015623360000002,0.01,0.0,-0.5299999713897705,-4.639999866485596,-0.8399999737739563,0.01519775390625,-0.0489501953125,0.7840576171875,33.97999954223633,0.0,79.0,-3.6162567138671875,3.31097412109375,Waiting,0.0,0.0,36.0,0.0,0.0,0.0,0.0,0.0,
4.40952099999995,0.0,0.0,39293.0,1.0,-870.0,-347.2440853714943,0.0,0.125,0.821533119,4.932250999999998,0.0,-36909.0,1.5,855.0,347.2440853714943,0.0,0.25,0.49194330900000005,4.963769999999998,0.0,48719.0,0.125,-772.5,-347.2440853714943,0.0,0.0,3.333739893,0.01,0.0,-36456.0,2.0,855.0,347.2440853714943,0.0,0.25,1.6076658510000001,0.01,0.0,-0.4300000071525574,-4.690000057220459,-0.7900000214576721,-0.135498046875,-0.10308837890625,1.5794677734375,33.97999954223633,0.0,-4.0,-3.6419525146484375,3.3138427734375,Waiting,0.0,0.0,36.0,0.0,0.0,0.0,0.0,0.0,
4.487934000000008,0.0,0.0,39293.0,0.125,-832.5,-214.96063694357872,0.0,0.125,0.820312416,4.932250999999998,0.0,-36790.0,0.375,810.0,214.96063694357872,0.0,0.0,0.506591745,4.963769999999998,0.0,48581.0,0.125,-832.5,-214.96063694357872,0.0,0.0,3.333739893,0.01,0.0,-36326.0,0.875,810.0,214.96063694357872,0.0,0.25,1.6101072570000001,0.01,0.0,-0.5699999928474426,-4.210000038146973,-0.7300000190734863,0.02886962890625,0.03814697265625,0.74969482421875,33.970001220703125,0.0,83.0,-3.657012939453125,3.3152618408203125,Waiting,0.0,0.0,36.0,0.0,0.0,0.0,0.0,0.0,
4.5611970000000435,0.0,0.0,39171.0,0.0,-705.0,0.0,0.0,0.125,0.821533119,4.932250999999998,0.0,-36790.0,0.0,630.0,0.0,0.0,0.0,0.5163573690000001,4.963769999999998,0.0,48581.0,0.0,-847.5,0.0,0.0,0.0,3.333739893,0.01,0.0,-36326.0,0.125,660.0,0.0,0.0,0.25,1.624755693,0.01,0.0,-0.6000000238418579,-3.869999885559082,-0.4399999976158142,0.035400390625,0.006591796875,0.57763671875,33.970001220703125,0.0,74.0,-3.6736602783203125,3.31732177734375,Waiting,0.0,0.0,36.0,0.0,0.0,0.0,0.0,0.0,
4.6473279999999795,0.0,0.0,39056.0,0.0,-705.0,0.0,0.0,0.125,0.821533119,4.932250999999998,0.0012207029999999897,-36682.0,0.0,705.0,0.0,0.0,0.125,0.5163573690000001,4.963769999999998,0.008544921000000372,48452.0,0.0,-787.5,0.0,0.0,0.0,3.334960596,0.01,0.0,-36218.0,0.0,712.5,0.0,0.0,0.125,1.6333006140000002,0.01,0.009765623999999917,-0.5600000023841858,-3.559999942779541,-0.1899999976158142,0.052978515625,-0.0010986328125,1.23272705078125,33.970001220703125,0.0,129.0,-3.688262939453125,3.32177734375,Waiting,0.0,0.0,36.0,0.0,0.0,0.0,0.0,0.0,
4.718743999999948,0.0,0.0,39056.0,0.0,-675.0,0.0,0.0,0.125,0.821533119,4.932250999999998,0.0,-36682.0,0.0,637.5,0.0,0.0,0.125,0.5163573690000001,4.963769999999998,0.0,48347.0,0.0,-675.0,0.0,0.0,0.0,3.338622705,0.01,0.0,-36115.0,0.0,637.5,0.0,0.0,0.125,1.639404129,0.01,0.0,-0.5400000214576721,-3.2100000381469727,0.0,-0.00262451171875,-0.036865234375,1.19268798828125,33.970001220703125,0.0,64.0,-3.69683837890625,3.3249969482421875,Waiting,0.0,0.0,36.0,0.0,0.0,0.0,0.0,0.0,
4.795702999999979,0.0,0.0,38957.0,0.0,-600.0,0.0,0.0,0.125,0.821533119,4.932250999999998,0.0,-36581.0,0.0,592.5,0.0,0.0,0.125,0.5163573690000001,4.963769999999998,0.0,48347.0,0.0,-622.5,0.0,0.0,0.0,3.34472622,0.01,0.004882811999999959,-36115.0,0.0,585.0,0.0,0.0,0.125,1.639404129,0.01,0.006103514999999948,-0.550000011920929,-2.7899999618530273,0.10000000149011612,0.008056640625,0.05059814453125,0.97174072265625,33.970001220703125,0.0,55.0,-3.701995849609375,3.3281097412109375,Waiting,0.0,0.0,36.0,0.0,0.0,0.0,0.0,0.0,
4.870869999999996,0.0,0.0,38875.0,0.0,-532.5,0.0,0.0,0.125,0.821533119,4.932250999999998,0.0,-36500.0,0.0,495.0,0.0,0.0,0.125,0.5163573690000001,4.963769999999998,0.0,48263.0,0.0,-517.5,0.0,0.0,0.0,3.343505517,0.01,0.0,-36027.0,0.0,502.5,0.0,0.0,0.125,1.649169753,0.01,0.0,-0.5,-2.430000066757202,0.1599999964237213,0.03045654296875,-0.0240478515625,1.0015869140625,33.970001220703125,0.0,73.0,-3.70361328125,3.3320159912109375,Waiting,0.0,0.0,36.0,0.0,0.0,0.0,0.0,0.0,
4.949530000000028,0.0,0.0,38875.0,0.0,-450.0,0.0,0.0,0.125,0.821533119,4.932250999999998,0.0,-36500.0,0.0,420.0,0.0,0.0,0.125,0.5163573690000001,4.963769999999998,0.0,48263.0,0.0,-442.5,0.0,0.0,0.0,3.354491844,0.01,0.0,-35962.0,0.0,427.5,0.0,0.0,0.25,1.644286941,0.01,0.008544920999999928,-0.5199999809265137,-2.119999885559082,0.25999999046325684,0.0743408203125,-0.0184326171875,0.86865234375,33.970001220703125,0.0,106.0,-3.7021331787109375,3.335418701171875,Waiting,0.0,0.0,36.0,0.0,0.0,0.0,0.0,0.0,
5.022949000000023,0.0,0.0,38818.0,0.0,-330.0,0.0,0.0,0.125,0.821533119,4.932250999999998,0.0,-36443.0,0.0,322.5,0.0,0.0,0.125,0.5175780720000001,4.963769999999998,0.0,48201.0,0.0,-330.0,0.0,0.0,0.0,3.347167626,0.01,0.0,-35962.0,0.0,330.0,0.0,0.0,0.25,1.6589353770000002,0.01,0.0,-0.5,-1.7599999904632568,0.23999999463558197,0.09100341796875,-0.01812744140625,0.95098876953125,33.97999954223633,0.0,120.0,-3.6975555419921875,3.339324951171875,Waiting,0.0,0.0,36.0,0.0,0.0,0.0,0.0,0.0,
5.098140999999945,0.0,0.0,38790.0,0.0,-210.0,0.0,0.0,0.125,0.820312416,4.932250999999998,-0.0012207029999999897,-36419.0,0.0,157.5,0.0,0.0,0.125,0.483398388,4.963769999999998,0.0,48165.0,0.0,-232.5,0.0,0.0,0.0,3.348388329,0.01,-0.004882811999999959,-35922.0,0.0,187.5,0.0,0.0,0.25,1.6333006140000002,0.01,0.013427733000000108,-0.47999998927116394,-0.8899999856948853,0.699999988079071,0.1611328125,-0.0584716796875,0.9189453125,33.97999954223633,0.0,174.0,-3.68505859375,3.3416290283203125,Waiting,0.0,0.0,36.0,0.0,0.0,0.0,0.0,0.0,
5.181535000000032,0.0,0.0,38790.0,0.0,-67.5,0.0,0.0,0.125,0.821533119,4.932250999999998,0.0,-36419.0,0.0,0.0,0.0,0.0,0.125,0.471191358,4.963769999999998,0.0,48165.0,0.0,-82.5,0.0,0.0,0.0,3.348388329,0.01,0.0,-35920.0,0.0,15.0,0.0,0.0,0.125,1.639404129,0.01,0.0,-0.4099999964237213,-0.75,0.7799999713897705,-0.03271484375,-0.00244140625,0.72772216796875,33.97999954223633,0.0,-23.0,-3.6692352294921875,3.3419189453125,Waiting,0.0,0.0,36.0,0.0,0.0,0.0,0.0,0.0,
5.263224000000045,0.0,0.0,38789.0,0.0,0.0,-198.42519611120224,0.0,0.125,0.811767495,4.932250999999998,0.0,-36419.0,0.125,0.0,198.42519611120224,0.0,0.25,0.47241206100000005,4.963769999999998,0.0,48160.0,0.125,0.0,-198.42519611120224,0.0,0.0,3.348388329,0.01,0.0,-35920.0,0.375,0.0,198.42519611120224,0.0,0.125,1.639404129,0.01,0.0,-0.4399999976158142,-1.0800000429153442,0.5400000214576721,-0.10845947265625,-0.03106689453125,1.06512451171875,33.97999954223633,0.0,-88.0,-3.6519317626953125,3.341552734375,Waiting,0.0,0.0,36.0,0.0,0.0,0.0,0.0,0.0,
5.346744999999995,0.0,0.0,38775.0,0.75,-52.5,-496.06300592422485,0.0,0.125,0.8178710100000001,4.932250999999998,0.0,-36410.0,0.875,22.5,496.06300592422485,0.0,0.25,0.477294873,4.963769999999998,0.0,48156.0,0.625,-15.0,-496.06300592422485,0.0,0.0,3.353271141,0.01,0.0,-35920.0,1.5,52.5,496.06300592422485,0.0,0.125,1.614990069,0.01,0.0,-0.4300000071525574,-1.2799999713897705,0.5600000023841858,-0.19781494140625,0.00506591796875,1.14508056640625,33.97999954223633,0.0,-171.0,-3.6402587890625,3.341339111328125,Waiting,0.0,0.0,36.0,0.0,0.0,0.0,0.0,0.0,
5.434511999999988,0.0,0.0,38775.0,0.125,-67.5,-132.28346407413483,0.0,0.125,0.8300780400000001,4.932250999999998,0.0,-36410.0,0.625,150.0,132.28346407413483,0.0,0.25,0.47241206100000005,4.963769999999998,0.0,48156.0,0.125,-67.5,-132.28346407413483,0.0,0.0,3.3630367650000004,0.01,0.0,-35905.0,0.5,75.0,132.28346407413483,0.0,0.25,1.624755693,0.01,0.0,-0.46000000834465027,-1.409999966621399,0.5400000214576721,0.0791015625,-0.02105712890625,1.11676025390625,33.97999954223633,0.0,106.0,-3.636260986328125,3.3406219482421875,Waiting,0.0,0.0,36.0,0.0,0.0,0.0,0.0,0.0,
5.513057999999961,0.0,0.0,38774.0,0.0,-7.5,0.0,0.0,0.125,0.8166503070000001,4.932250999999998,0.0,-36398.0,0.125,0.0,0.0,0.0,0.25,0.471191358,4.963769999999998,0.0,48148.0,0.0,-7.5,0.0,0.0,0.0,3.353271141,0.01,0.0,-35905.0,0.0,0.0,0.0,0.0,0.125,1.6345213170000001,0.01,0.0,-0.4399999976158142,-1.3300000429153442,0.6600000262260437,-0.05047607421875,-0.0272216796875,0.93353271484375,33.95000076293945,0.0,-28.0,-3.634613037109375,3.340057373046875,Waiting,0.0,0.0,36.0,0.0,0.0,0.0,0.0,0.0,
5.5952870000000114,0.0,0.0,38774.0,0.0,0.0,0.0,0.0,0.125,0.8166503070000001,4.932250999999998,0.0012207030000004337,-36399.0,0.0,0.0,0.0,0.0,0.25,0.471191358,4.963769999999998,0.0,48148.0,0.0,0.0,0.0,0.0,0.0,3.353271141,0.01,0.0012207030000004337,-35907.0,0.0,-7.5,0.0,0.0,0.125,1.6345213170000001,0.01,-4.949455079,-0.46000000834465027,-1.4199999570846558,0.6399999856948853,-0.02105712890625,0.00872802734375,0.95941162109375,33.95000076293945,0.0,2.0,-3.6342010498046875,3.340057373046875,Waiting,0.0,0.0,36.0,0.0,0.0,0.0,0.0,0.0,
5.675974999999977,0.0,0.0,38774.0,1.0,-7.5,-711.0235959291458,0.0,0.125,0.821533119,4.932250999999998,0.0,-36399.0,2.375,7.5,711.0235959291458,0.0,0.25,0.47485346700000003,4.963769999999998,0.0,48141.0,1.25,0.0,-711.0235959291458,0.0,0.0,3.352050438,0.01,0.0,-35906.0,1.75,0.0,711.0235959291458,0.0,0.125,1.6101072570000001,0.01,0.0,-0.44999998807907104,-1.559999942779541,0.6299999952316284,-0.1278076171875,0.04736328125,1.01104736328125,33.95000076293945,0.0,-99.0,-3.6346282958984375,3.3400421142578125,Waiting,0.0,0.0,36.0,0.0,0.0,0.0,0.0,0.0,
5.756170000000042,0.0,0.0,38769.0,4.75,-45.0,-992.1260118484497,0.0,0.125,0.8178710100000001,4.932250999999998,0.0,-36396.0,9.125,30.0,992.1260118484497,0.0,0.25,0.44799800100000003,4.963769999999998,0.0,48141.0,5.5,-67.5,-992.1260118484497,0.0,0.0,3.350829735,0.01,0.0,-35906.0,6.375,52.5,992.1260118484497,0.0,0.25,1.6101072570000001,0.01,0.0,-0.4399999976158142,-1.7899999618530273,0.6000000238418579,-0.11773681640625,0.01837158203125,1.0792236328125,33.95000076293945,0.0,-83.0,-3.6371307373046875,3.339935302734375,Waiting,0.0,0.0,36.0,0.0,0.0,0.0,0.0,0.0,
5.837474000000046,0.0,0.0,38747.0,9.875,-112.5,-1058.2677125930786,0.0,0.125,0.8422850700000001,4.932250999999998,0.0,-36382.0,16.5,90.0,1058.2677125930786,0.0,0.25,0.41381831700000005,4.963769999999998,0.0,48125.0,10.5,-112.5,-1058.2677125930786,0.0,0.0,3.353271141,0.01,0.0,-35894.0,12.25,67.5,1058.2677125930786,0.0,0.25,1.6113279600000001,0.01,0.0,-0.4099999964237213,-1.850000023841858,1.0299999713897705,-0.134765625,-0.0562744140625,0.9580078125,33.95000076293945,0.0,-104.0,-3.6442108154296875,3.3394775390625,Waiting,0.0,0.0,36.0,0.0,0.0,0.0,0.0,0.0,
5.916574999999954,0.0,0.0,38747.0,10.25,-367.5,-1157.480263710022,0.0,0.125,0.8178710100000001,4.932250999999998,0.0,-36347.0,24.625,165.0,1157.480263710022,0.0,0.25,0.40893550500000003,4.963769999999998,0.0,48085.0,16.0,-225.0,-1157.480263710022,0.0,0.0,3.353271141,0.01,0.0,-35874.0,20.0,142.5,1157.480263710022,0.0,0.25,1.6064451480000002,0.01,0.0,-0.029999999329447746,-1.7899999618530273,1.3700000047683716,-0.12274169921875,0.04595947265625,1.0238037109375,33.95000076293945,0.0,-89.0,-3.6540069580078125,3.3398284912109375,Waiting,0.0,0.0,36.0,0.0,0.0,0.0,0.0,0.0,
6.011817000000039,0.0,0.0,38626.0,0.25,-1140.0,0.0,0.0,0.125,0.821533119,4.932250999999998,0.0012207029999999897,-36347.0,2.5,232.5,0.0,0.0,0.25,0.47241206100000005,4.963769999999998,-0.004882811999999959,48085.0,3.375,-277.5,0.0,0.0,0.0,3.334960596,0.01,0.0,-35838.0,0.0,255.0,0.0,0.0,0.25,1.614990069,0.01,0.0,0.44999998807907104,-1.2100000381469727,0.6899999976158142,0.02606201171875,0.0391845703125,1.14141845703125,33.970001220703125,0.0,50.0,-3.6730499267578125,3.3454132080078125,Waiting,0.0,0.0,36.0,0.0,0.0,0.0,0.0,0.0,
6.0943510000000245,0.0,0.0,38416.0,0.0,-1290.0,0.0,0.0,0.125,0.821533119,4.932250999999998,-0.0012207029999999897,-36318.0,0.0,187.5,0.0,0.0,0.0,0.48583979400000005,4.963769999999998,0.06713866500000076,48051.0,0.0,-187.5,0.0,0.0,0.0,3.34472622,0.01,-0.019531247999999835,-35838.0,0.0,157.5,0.0,0.0,0.125,1.625976396,0.01,0.004882811999999959,0.23000000417232513,-0.9399999976158142,0.2800000011920929,0.0576171875,-0.01806640625,1.39202880859375,33.970001220703125,0.0,80.0,-3.6833343505859375,3.348876953125,Waiting,0.0,0.0,36.0,0.0,0.0,0.0,0.0,0.0,
6.172866000000038,0.0,0.0,38300.0,0.0,-877.5,0.0,0.0,0.125,0.821533119,4.932250999999998,0.0,-36291.0,0.0,187.5,0.0,0.0,0.125,0.48706049700000004,4.963769999999998,0.0,48023.0,0.0,-180.0,0.0,0.0,0.0,3.352050438,0.01,0.0,-35804.0,0.0,195.0,0.0,0.0,0.125,1.644286941,0.01,0.0,0.2800000011920929,-0.6600000262260437,0.41999998688697815,0.1553955078125,0.04345703125,1.3486328125,33.970001220703125,0.0,171.0,-3.690673828125,3.3505096435546875,Waiting,0.0,0.0,36.0,0.0,0.0,0.0,0.0,0.0,
6.257219999999972,0.0,0.0,38300.0,0.0,-420.0,0.0,0.0,0.125,0.819091713,4.932250999999998,0.0,-36291.0,0.0,52.5,0.0,0.0,0.125,0.48706049700000004,4.963769999999998,0.0,48023.0,0.0,-127.5,0.0,0.0,0.0,3.353271141,0.01,0.009765623999999917,-35795.0,0.0,67.5,0.0,0.0,0.25,1.6540525650000002,0.01,-4.938468752,0.23000000417232513,-0.18000000715255737,0.28999999165534973,0.0545654296875,-0.03125,0.99188232421875,33.970001220703125,0.0,57.0,-3.6941070556640625,3.3515625,Waiting,0.0,0.0,36.0,0.0,0.0,0.0,0.0,0.0,
6.3364089999999855,0.0,0.0,38292.0,0.0,-7.5,0.0,0.0,0.125,0.821533119,4.932250999999998,0.0,-36289.0,0.0,0.0,0.0,0.0,0.125,0.48706049700000004,4.963769999999998,0.0,48007.0,0.0,-45.0,0.0,0.0,0.0,3.353271141,0.01,-0.0012207030000004337,-35795.0,0.0,7.5,0.0,0.0,0.25,1.644286941,0.01,0.00976562400000014,0.23999999463558197,-0.18000000715255737,0.46000000834465027,-0.025634765625,0.03265380859375,1.04266357421875,33.970001220703125,0.0,-22.0,-3.6954803466796875,3.3515625,Waiting,0.0,0.0,36.0,0.0,0.0,0.0,0.0,0.0,
6.4154370000000345,0.0,0.0,38292.0,0.0,0.0,0.0,0.0,0.125,0.8166503070000001,4.932250999999998,0.0,-36289.0,0.0,0.0,0.0,0.0,0.125,0.48706049700000004,4.963769999999998,0.0,48007.0,0.0,0.0,0.0,0.0,0.0,3.353271141,0.01,0.0,-35795.0,0.0,0.0,0.0,0.0,0.25,1.6357420200000001,0.01,0.0,0.20999999344348907,-0.3700000047683716,0.5699999928474426,-0.0538330078125,0.010009765625,1.0823974609375,33.970001220703125,0.0,-46.0,-3.6982421875,3.35174560546875,Waiting,0.0,0.0,36.0,0.0,0.0,0.0,0.0,0.0,
6.50668200000003,0.0,0.0,38292.0,2.625,-7.5,-826.7716348171234,0.0,0.125,0.826415931,4.932250999999998,0.0,-36289.0,1.625,37.5,826.7716348171234,0.0,0.125,0.49194330900000005,4.963769999999998,0.0,48007.0,3.125,-22.5,-826.7716348171234,0.0,0.0,3.348388329,0.01,0.0,-35775.0,2.875,82.5,826.7716348171234,0.0,0.125,1.6101072570000001,0.01,0.0,0.3100000023841858,-0.6100000143051147,0.5400000214576721,-0.14935302734375,0.01043701171875,0.92523193359375,33.959999084472656,0.0,-139.0,-3.7022705078125,3.352081298828125,Waiting,0.0,0.0,36.0,0.0,0.0,0.0,0.0,0.0,
6.590108000000008,0.0,0.0,38291.0,0.0,0.0,0.0,0.0,0.125,0.826415931,4.932250999999998,-4.9237060790000005,-36265.0,0.0,142.5,0.0,0.0,0.125,0.48706049700000004,4.963769999999998,0.0,47999.0,0.0,-37.5,0.0,0.0,0.0,3.3605953590000004,0.01,0.0,-35775.0,0.25,142.5,0.0,0.0,0.25,1.6101072570000001,0.01,0.0,0.25,-0.5199999809265137,0.07000000029802322,0.09661865234375,0.0509033203125,1.0638427734375,33.959999084472656,0.0,106.0,-3.7086029052734375,3.35186767578125,Waiting,0.0,0.0,36.0,0.0,0.0,0.0,0.0,0.0,
6.669562000000035,0.0,0.0,38291.0,0.0,0.0,0.0,0.0,0.125,0.8312987430000001,4.932250999999998,0.0,-36263.0,0.0,0.0,0.0,0.0,0.125,0.48706049700000004,4.963769999999998,0.0,48000.0,0.0,7.5,0.0,0.0,0.0,3.358153953,0.01,0.0,-35769.0,0.0,7.5,0.0,0.0,0.25,1.6101072570000001,0.01,0.0,0.07000000029802322,-0.17000000178813934,0.10999999940395355,0.08331298828125,-0.0152587890625,0.8731689453125,33.959999084472656,0.0,85.0,-3.7117919921875,3.3505859375,Waiting,0.0,0.0,36.0,0.0,0.0,0.0,0.0,0.0,
6.752444999999949,0.0,0.0,38291.0,0.0,0.0,0.0,0.0,0.125,0.8312987430000001,4.932250999999998,0.0,-36263.0,0.0,0.0,0.0,0.0,0.125,0.48706049700000004,4.963769999999998,0.0,48000.0,0.0,0.0,0.0,0.0,0.0,3.359374656,0.01,0.0,-35770.0,0.0,0.0,0.0,0.0,0.25,1.6052244450000002,0.01,0.0,0.2199999988079071,-0.25,0.23000000417232513,-0.0740966796875,0.03369140625,1.07196044921875,33.959999084472656,0.0,-69.0,-3.7122955322265625,3.34918212890625,Waiting,0.0,0.0,36.0,0.0,0.0,0.0,0.0,0.0,
6.828792999999947,0.0,0.0,38291.0,0.75,0.0,-529.1338562965393,0.0,0.125,0.8312987430000001,4.932250999999998,0.0,-36268.0,1.75,-37.5,529.1338562965393,0.0,0.125,0.49194330900000005,4.963769999999998,0.0,48002.0,0.625,7.5,-529.1338562965393,0.0,0.0,3.358153953,0.01,0.0,-35770.0,1.5,-37.5,529.1338562965393,0.0,0.25,1.6052244450000002,0.01,0.0,0.2199999988079071,-0.5899999737739563,0.4399999976158142,-0.0941162109375,0.0020751953125,0.9708251953125,33.959999084472656,0.0,-83.0,-3.7152557373046875,3.3473663330078125,Waiting,0.0,0.0,36.0,0.0,0.0,0.0,0.0,0.0,
6.907456000000005,0.0,0.0,38291.0,0.375,0.0,-132.28346407413483,0.0,0.125,0.837402258,4.932250999999998,0.0,-36267.0,1.375,0.0,132.28346407413483,0.0,0.125,0.496826121,4.963769999999998,0.0,47999.0,0.375,-15.0,-132.28346407413483,0.0,0.0,3.358153953,0.01,0.0,-35773.0,0.875,7.5,132.28346407413483,0.0,0.25,1.6088865540000001,0.01,0.0,0.2199999988079071,-0.6399999856948853,0.20999999344348907,0.02947998046875,0.03863525390625,0.82342529296875,33.959999084472656,0.0,38.0,-3.7204437255859375,3.346099853515625,Waiting,0.0,0.0,36.0,0.0,0.0,0.0,0.0,0.0,
6.984728000000003,0.0,0.0,38291.0,0.0,0.0,0.0,0.0,0.125,0.8312987430000001,4.932250999999998,0.0,-36267.0,0.0,7.5,0.0,0.0,0.125,0.49194330900000005,4.963769999999998,0.0,47999.0,0.0,0.0,0.0,0.0,0.0,3.358153953,0.01,0.0,-35772.0,0.125,15.0,0.0,0.0,0.25,1.6052244450000002,0.01,0.0,0.1599999964237213,-0.4699999988079071,0.1599999964237213,0.04364013671875,0.00115966796875,0.88641357421875,33.959999084472656,0.0,51.0,-3.724761962890625,3.34521484375,Waiting,0.0,0.0,36.0,0.0,0.0,0.0,0.0,0.0,
7.056331999999936,0.0,0.0,38291.0,0.0,0.0,0.0,0.0,0.125,0.8300780400000001,4.932250999999998,0.0,-36266.0,0.0,0.0,0.0,0.0,0.125,0.49194330900000005,4.963769999999998,0.0,47999.0,0.0,7.5,0.0,0.0,0.0,3.358153953,0.01,-0.0012207030000004337,-35772.0,0.0,0.0,0.0,0.0,0.25,1.6052244450000002,0.01,0.0,0.20999999344348907,-0.5,0.25,-0.0240478515625,0.00128173828125,1.00311279296875,33.93000030517578,0.0,-15.0,-3.7266845703125,3.34521484375,Waiting,0.0,0.0,36.0,0.0,0.0,0.0,0.0,0.0,
7.134001999999978,0.0,0.0,38291.0,0.0,0.0,0.0,0.0,0.125,0.832519446,4.932250999999998,0.0,-36268.0,0.0,-15.0,0.0,0.0,0.125,0.49194330900000005,4.963769999999998,0.0,48002.0,0.0,15.0,0.0,0.0,0.0,3.358153953,0.01,0.0,-35773.0,0.0,0.0,0.0,0.0,0.25,1.6064451480000002,0.01,0.0,0.20999999344348907,-0.6200000047683716,0.33000001311302185,-0.05560302734375,-0.017578125,1.00433349609375,33.93000030517578,0.0,-44.0,-3.7274017333984375,3.345184326171875,Waiting,0.0,0.0,36.0,0.0,0.0,0.0,0.0,0.0,
7.209515000000014,0.0,0.0,38291.0,0.0,0.0,0.0,0.0,0.125,0.8300780400000001,4.932250999999998,0.0,-36268.0,0.0,0.0,0.0,0.0,0.125,0.49194330900000005,4.963769999999998,0.0,48002.0,0.0,0.0,0.0,0.0,0.0,3.358153953,0.01,0.0,-35773.0,0.0,0.0,0.0,0.0,0.25,1.6101072570000001,0.01,0.0,0.2199999988079071,-0.6899999976158142,0.27000001072883606,-0.011962890625,0.01336669921875,1.01556396484375,33.93000030517578,0.0,0.0,-3.7288970947265625,3.3451080322265625,Waiting,0.0,0.0,36.0,0.0,0.0,0.0,0.0,0.0,
7.283589999999967,0.0,0.0,38291.0,0.0,0.0,0.0,0.0,0.125,0.8312987430000001,4.932250999999998,0.0,-36268.0,0.0,0.0,0.0,0.0,0.125,0.49194330900000005,4.963769999999998,0.0,48002.0,0.0,0.0,0.0,0.0,0.0,3.358153953,0.01,0.0,-35773.0,0.0,0.0,0.0,0.0,0.25,1.6052244450000002,0.01,0.0,0.1899999976158142,-0.6499999761581421,0.25999999046325684,-0.0201416015625,-0.00238037109375,1.01739501953125,33.93000030517578,0.0,-8.0,-3.7288970947265625,3.3451080322265625,Waiting,0.0,0.0,36.0,0.0,0.0,0.0,0.0,0.0,
7.359363999999943,0.0,0.0,38291.0,0.0,0.0,0.0,0.0,0.125,0.8300780400000001,4.932250999999998,0.0,-36268.0,0.0,0.0,0.0,0.0,0.125,0.49194330900000005,4.963769999999998,0.0,48002.0,0.0,0.0,0.0,0.0,0.0,3.358153953,0.01,0.0,-35773.0,0.0,0.0,0.0,0.0,0.25,1.6064451480000002,0.01,0.0,0.2199999988079071,-0.7099999785423279,0.27000001072883606,-0.031982421875,0.00921630859375,1.01611328125,33.93000030517578,0.0,-19.0,-3.72906494140625,3.3451080322265625,Waiting,0.0,0.0,36.0,0.0,0.0,0.0,0.0,0.0,
7.435591999999946,0.0,0.0,38291.0,0.0,0.0,0.0,0.0,0.125,0.8300780400000001,4.932250999999998,0.0,-36268.0,0.0,0.0,0.0,0.0,0.125,0.49194330900000005,4.963769999999998,0.0,48002.0,0.0,0.0,0.0,0.0,0.0,3.35693325,0.01,0.0,-35773.0,0.0,0.0,0.0,0.0,0.25,1.6052244450000002,0.01,0.0,0.20000000298023224,-0.7099999785423279,0.23999999463558197,-0.009765625,-0.00152587890625,1.02166748046875,33.93000030517578,0.0,2.0,-3.72906494140625,3.3451080322265625,Waiting,0.0,0.0,36.0,0.0,0.0,0.0,0.0,0.0,
7.511981000000029,0.0,0.0,38291.0,0.0,0.0,0.0,0.0,0.125,0.8312987430000001,4.932250999999998,0.0,-36268.0,0.0,0.0,0.0,0.0,0.125,0.49194330900000005,4.963769999999998,0.0,48002.0,0.0,0.0,0.0,0.0,0.0,3.359374656,0.01,0.0,-35773.0,0.0,0.0,0.0,0.0,0.25,1.6052244450000002,0.01,0.0,0.20999999344348907,-0.75,0.25999999046325684,-0.02703857421875,0.00738525390625,1.0208740234375,33.95000076293945,0.0,-13.0,-3.72906494140625,3.3451080322265625,Waiting,0.0,0.0,36.0,0.0,0.0,0.0,0.0,0.0,
7.589072999999975,0.0,0.0,38291.0,0.0,0.0,0.0,0.0,0.125,0.8312987430000001,4.932250999999998,0.0,-36268.0,0.0,0.0,0.0,0.0,0.125,0.49194330900000005,4.963769999999998,0.0,48002.0,0.0,0.0,0.0,0.0,0.0,3.359374656,0.01,0.0,-35773.0,0.0,0.0,0.0,0.0,0.25,1.6052244450000002,0.01,0.0,0.20000000298023224,-0.7599999904632568,0.23999999463558197,-0.0118408203125,7.32421875E-4,1.01409912109375,33.95000076293945,0.0,1.0,-3.72906494140625,3.3451080322265625,Waiting,0.0,0.0,36.0,0.0,0.0,0.0,0.0,0.0,
7.666543999999995,0.0,0.0,38291.0,0.0,0.0,0.0,0.0,0.125,0.8300780400000001,4.932250999999998,0.0,-36268.0,0.0,0.0,0.0,0.0,0.125,0.49194330900000005,4.963769999999998,0.0,48002.0,0.0,0.0,0.0,0.0,0.0,3.358153953,0.01,0.0,-35773.0,0.0,0.0,0.0,0.0,0.25,1.6052244450000002,0.01,0.0,0.20000000298023224,-0.7900000214576721,0.25,-0.02484130859375,0.0087890625,1.0184326171875,33.95000076293945,0.0,-10.0,-3.72906494140625,3.3451080322265625,Waiting,0.0,0.0,36.0,0.0,0.0,0.0,0.0,0.0,
7.749738000000012,0.0,0.0,38291.0,0.0,0.0,0.0,0.0,0.125,0.8312987430000001,4.932250999999998,0.0,-36268.0,0.0,0.0,0.0,0.0,0.125,0.49194330900000005,4.963769999999998,0.0,48002.0,0.0,0.0,0.0,0.0,0.0,3.358153953,0.01,0.0,-35773.0,0.0,0.0,0.0,0.0,0.25,1.6052244450000002,0.01,0.0,0.1899999976158142,-0.800000011920929,0.23000000417232513,-0.0069580078125,-0.00579833984375,1.0345458984375,33.95000076293945,0.0,7.0,-3.72906494140625,3.3451080322265625,Waiting,0.0,0.0,36.0,0.0,0.0,0.0,0.0,0.0,
7.822630000000005,0.0,0.0,38291.0,0.0,0.0,0.0,0.0,0.125,0.832519446,4.932250999999998,0.0,-36268.0,0.0,0.0,0.0,0.0,0.125,0.490722606,4.963769999999998,0.0,48002.0,0.0,0.0,0.0,0.0,0.0,3.358153953,0.01,0.0,-35773.0,0.0,0.0,0.0,0.0,0.25,1.6052244450000002,0.01,0.0,0.20000000298023224,-0.8199999928474426,0.23999999463558197,-0.02264404296875,0.00286865234375,1.01702880859375,33.95000076293945,0.0,-8.0,-3.72906494140625,3.3451080322265625,Waiting,0.0,0.0,36.0,0.0,0.0,0.0,0.0,0.0,
7.901081000000006,0.0,0.0,38291.0,0.0,0.0,0.0,0.0,0.125,0.8312987430000001,4.932250999999998,0.0,-36268.0,0.0,0.0,0.0,0.0,0.125,0.490722606,4.963769999999998,0.0,48002.0,0.0,0.0,0.0,0.0,0.0,3.359374656,0.01,0.0,-35773.0,0.0,0.0,0.0,0.0,0.25,1.6052244450000002,0.01,0.0,0.18000000715255737,-0.8299999833106995,0.25999999046325684,-0.02313232421875,0.00103759765625,1.02142333984375,33.95000076293945,0.0,-8.0,-3.729217529296875,3.3451080322265625,Waiting,0.0,0.0,36.0,0.0,0.0,0.0,0.0,0.0,
7.972986999999964,0.0,0.0,38291.0,0.0,0.0,0.0,0.0,0.125,0.826415931,4.932250999999998,0.0,-36268.0,0.0,0.0,0.0,0.0,0.125,0.49194330900000005,4.963769999999998,0.0,48002.0,0.0,0.0,0.0,0.0,0.0,3.359374656,0.01,0.0,-35773.0,0.0,0.0,0.0,0.0,0.25,1.6052244450000002,0.01,0.0,0.09000000357627869,-0.8100000023841858,0.36000001430511475,-0.0142822265625,0.006591796875,1.02874755859375,33.95000076293945,0.0,0.0,-3.729339599609375,3.3451080322265625,Waiting,0.0,0.0,36.0,0.0,0.0,0.0,0.0,0.0,
8.051214999999967,0.0,0.0,38291.0,0.0,0.0,0.0,0.0,0.125,0.821533119,4.932250999999998,-0.00488281200000007,-36268.0,0.0,0.0,0.0,0.0,0.125,0.490722606,4.963769999999998,0.0,48002.0,0.0,0.0,0.0,0.0,0.0,3.358153953,0.01,0.0,-35773.0,0.0,0.0,0.0,0.0,0.25,1.6052244450000002,0.01,0.0,0.07000000029802322,-0.7799999713897705,0.36000001430511475,-0.00927734375,0.01068115234375,0.97161865234375,33.939998626708984,0.0,4.0,-3.729339599609375,3.3451080322265625,Waiting,0.0,0.0,36.0,0.0,0.0,0.0,0.0,0.0,
8.126359999999986,0.0,0.0,38291.0,0.0,0.0,0.0,0.0,0.125,0.8312987430000001,4.932250999999998,0.0,-36268.0,0.0,0.0,0.0,0.0,0.125,0.49194330900000005,4.963769999999998,0.0,48002.0,0.0,0.0,0.0,0.0,0.0,3.358153953,0.01,0.0,-35773.0,0.0,0.0,0.0,0.0,0.25,1.6064451480000002,0.01,0.0,0.14000000059604645,-0.7300000190734863,0.20999999344348907,0.00872802734375,0.00799560546875,0.978515625,33.939998626708984,0.0,21.0,-3.728424072265625,3.34521484375,Waiting,0.0,0.0,36.0,0.0,0.0,0.0,0.0,0.0,
8.20103099999996,0.0,0.0,38291.0,0.0,0.0,0.0,0.0,0.125,0.8312987430000001,4.932250999999998,0.008544921000000039,-36268.0,0.0,0.0,0.0,0.0,0.125,0.490722606,4.963769999999998,0.0,48002.0,0.0,0.0,0.0,0.0,0.0,3.358153953,0.01,0.0,-35773.0,0.0,0.0,0.0,0.0,0.25,1.6064451480000002,0.01,0.0,0.12999999523162842,-0.6899999976158142,0.2800000011920929,-0.04644775390625,0.0078125,0.96368408203125,33.939998626708984,0.0,-34.0,-3.7267608642578125,3.345062255859375,Waiting,0.0,0.0,36.0,0.0,0.0,0.0,0.0,0.0,
8.272368999999948,0.0,0.0,38291.0,0.0,0.0,0.0,0.0,0.125,0.826415931,4.932250999999998,0.0,-36268.0,0.0,0.0,0.0,0.0,0.125,0.49194330900000005,4.963769999999998,0.0,48002.0,0.0,0.0,0.0,0.0,0.0,3.358153953,0.01,0.0,-35773.0,0.0,-7.5,0.0,0.0,0.25,1.6101072570000001,0.01,0.0,0.18000000715255737,-0.8500000238418579,0.3700000047683716,-0.057861328125,0.0274658203125,1.00408935546875,33.939998626708984,0.0,-42.0,-3.7256927490234375,3.3450775146484375,Waiting,0.0,0.0,36.0,0.0,0.0,0.0,0.0,0.0,
8.35064599999995,0.0,0.0,38291.0,0.0,0.0,0.0,0.0,0.125,0.826415931,4.932250999999998,-0.006103515000000059,-36268.0,0.0,0.0,0.0,0.0,0.125,0.49194330900000005,4.963769999999998,0.0,48002.0,0.0,0.0,0.0,0.0,0.0,3.358153953,0.01,0.0,-35776.0,0.0,-15.0,0.0,0.0,0.25,1.6052244450000002,0.01,0.0,0.2199999988079071,-0.9200000166893005,0.33000001311302185,-0.02178955078125,-0.00433349609375,1.0130615234375,33.939998626708984,0.0,-5.0,-3.7256317138671875,3.345184326171875,Waiting,0.0,0.0,36.0,0.0,0.0,0.0,0.0,0.0,
8.424079999999957,0.0,0.0,38291.0,0.0,0.0,0.0,0.0,0.125,0.826415931,4.932250999999998,0.0,-36268.0,0.0,0.0,0.0,0.0,0.0,0.49194330900000005,4.963769999999998,0.0,48002.0,0.0,0.0,0.0,0.0,0.0,3.35693325,0.01,0.0,-35776.0,0.0,0.0,0.0,0.0,0.125,1.6064451480000002,0.01,0.0,0.1899999976158142,-0.9100000262260437,0.2800000011920929,-0.02276611328125,7.32421875E-4,1.04473876953125,33.939998626708984,0.0,-6.0,-3.7256317138671875,3.345184326171875,Waiting,0.0,0.0,36.0,0.0,0.0,0.0,0.0,0.0,
