Time,ClimberA1,ClimberA2,FRpos,FRCurrent,FRspeed,FRsetpoint,FRApos,FRACurrent,FREncpos,FREncSetpoint,FREncSpeed,FLpos,FLCurrent,FLspeed,FLsetpoint,FLApos,FLACurrent,FLEncpos,FLEncSetpoint,FLEncSpeed,BRpos,BRCurrent,BRspeed,BRsetpoint,BRApos,BRACurrent,BREncpos,BREncSetpoint,BREncSpeed,BLpos,BLCurrent,BLspeed,BLsetpoint,BLApos,BLACurrent,BLEncpos,BLEncSetpoint,BLEncSpeed,navx_Pitch,navx_Roll,navx_Yaw,navx_XAcc,navx_YAcc,navx_ZAcc,navx_Temp,navx_Bar,navx_Alt,navx_XDis,navx_YDis,GearPlacerState,ShootOutputV,ShootOutputCurrent,ShootEncPos,ShootEncVelocity,ShootSpeed,ShootSetpoint,CarouselSetpoint,CarouselCurrent,
0.14383799999998884,0.0,0.0,24831.0,0.0,0.0,0.0,0.0,0.25,0.767822187,0.01,0.0,-7828.0,0.0,0.0,-0.0,0.0,0.25,0.46752924900000004,0.01,0.0,3635.0,0.0,0.0,0.0,0.0,0.375,3.406982073,0.01,0.0,-8994.0,0.125,0.0,-0.0,0.0,0.375,1.585693197,0.01,0.0,-0.14000000059604645,-0.5899999737739563,-0.009999999776482582,-0.01287841796875,-0.0107421875,1.0159912109375,34.2599983215332,0.0,-2.0,0.6788177490234375,-2.0605316162109375,Opening,0.0,0.0,0.0,0.0,0.0,0.0,0.0,0.0,
0.3483420000000624,0.0,0.0,24831.0,0.0,0.0,0.0,0.0,0.25,0.767822187,0.01,0.0,-7828.0,0.0,0.0,-0.0,0.0,0.25,0.46752924900000004,0.01,0.0,3635.0,0.0,0.0,0.0,0.0,0.125,3.392333637,0.01,0.0,-8994.0,0.0,0.0,-0.0,0.0,0.25,1.5869139,0.01,0.0,-0.14000000059604645,-0.6000000238418579,-0.009999999776482582,-0.01153564453125,-0.00323486328125,1.02001953125,34.2599983215332,0.0,0.0,0.6788177490234375,-2.0605316162109375,Opening,0.0,0.0,0.0,0.0,0.0,0.0,0.0,0.0,
0.5384840000000549,0.0,0.0,24831.0,0.0,0.0,0.0,0.0,0.25,0.76904289,0.01,0.0,-7828.0,0.0,0.0,-0.0,0.0,0.25,0.46630854600000005,0.01,0.0,3635.0,0.0,0.0,0.0,0.0,0.125,3.39355434,0.01,0.0,-8994.0,0.0,0.0,-0.0,0.0,0.25,1.5869139,0.01,0.0,-0.14000000059604645,-0.6000000238418579,-0.019999999552965164,-0.0103759765625,-0.00152587890625,1.0162353515625,34.2400016784668,0.0,0.0,0.6788177490234375,-2.0605316162109375,Opening,0.0,0.0,0.0,0.0,0.0,0.0,0.0,0.0,
0.7309479999999748,0.0,0.0,24831.0,0.0,0.0,0.0,0.0,0.25,0.76904289,0.01,0.0,-7828.0,0.0,0.0,-0.0,0.0,0.25,0.46752924900000004,0.01,0.0,3635.0,0.0,0.0,0.0,0.0,0.125,3.392333637,0.01,0.0,-8994.0,0.0,0.0,-0.0,0.0,0.25,1.5869139,0.01,0.0,-0.14000000059604645,-0.6000000238418579,-0.019999999552965164,-0.01019287109375,-0.00323486328125,1.01751708984375,34.2400016784668,0.0,0.0,0.6788177490234375,-2.0605316162109375,Opening,0.0,0.0,0.0,0.0,0.0,0.0,0.0,0.0,
0.9276940000000177,0.0,0.0,24831.0,0.0,0.0,0.0,0.0,0.25,0.76904289,0.01,0.0,-7828.0,0.0,0.0,-0.0,0.0,0.25,0.46752924900000004,0.01,0.0,3635.0,0.0,0.0,0.0,0.0,0.125,3.39355434,0.01,0.0,-8994.0,0.0,0.0,-0.0,0.0,0.25,1.5869139,0.01,0.0,-0.14000000059604645,-0.6000000238418579,-0.029999999329447746,-0.0126953125,-0.00482177734375,1.01898193359375,34.2400016784668,0.0,-1.0,0.6788177490234375,-2.0605316162109375,Opening,0.0,0.0,0.0,0.0,0.0,0.0,0.0,0.0,
1.1267120000000577,0.0,0.0,24780.0,8.0,-255.0,-1190.5512392520905,0.0,1.0,1.3745115780000001,0.5498168668524864,0.0,-7863.0,10.875,-262.5,-1190.5512392520905,0.0,0.875,0.086669913,4.41043958977222,0.0,3612.0,12.625,-180.0,-1190.5512392520905,0.0,0.875,2.785644246,4.389674732977291,0.0,-9037.0,8.75,-217.5,-1190.5512392520905,0.0,2.0,2.1643064190000003,0.552687206278561,0.0,-0.2199999988079071,-0.7599999904632568,2.299999952316284,0.008544921875,-0.1171875,1.09820556640625,34.25,0.0,18.0,0.673004150390625,-2.062591552734375,Opening,0.0,0.0,0.0,0.0,0.0,0.0,0.0,0.0,
1.326063000000082,0.0,0.0,24570.0,9.75,-817.5,-1273.2283651828766,0.0,0.125,1.6040037420000002,0.5498168668524864,0.0,-8031.0,12.75,-817.5,-1273.2283651828766,0.0,0.25,4.829101068,4.41043958977222,0.0,3449.0,20.625,-675.0,-1273.2283651828766,0.0,0.0,2.609863014,4.389674732977291,0.0,-9234.0,10.75,-757.5,-1273.2283651828766,0.0,0.125,2.8417965840000003,0.552687206278561,0.0,-0.4699999988079071,-1.2599999904632568,17.049999237060547,0.0628662109375,0.3096923828125,0.6788330078125,34.25,0.0,166.0,0.6650543212890625,-2.0676422119140625,Opening,0.0,0.0,0.0,0.0,0.0,0.0,0.0,0.0,
1.5325339999999852,0.0,0.0,24432.0,13.875,-840.0,-1306.299215555191,0.0,0.5,1.539306483,0.5498168668524864,0.0,-8262.0,26.375,-690.0,-1306.299215555191,0.0,0.0,4.83398388,4.41043958977222,0.0,3321.0,23.875,-765.0,-1306.299215555191,0.0,0.0,2.833251663,4.389674732977291,0.0,-9328.0,25.0,-607.5,-1306.299215555191,0.0,1.25,2.3229978090000003,0.552687206278561,0.0,-0.4399999976158142,-1.4299999475479126,32.470001220703125,-0.10552978515625,0.02423095703125,1.1170654296875,34.27000045776367,0.0,-47.0,0.6542816162109375,-2.0671539306640625,Opening,0.0,0.0,0.0,0.0,0.0,0.0,0.0,0.0,
1.7466759999999777,0.0,0.0,24165.0,0.0,-735.0,0.0,0.0,0.375,1.3696287660000002,0.5498168668524864,0.0,-8493.0,0.0,-780.0,0.0,0.0,0.0,4.871825673,4.41043958977222,0.0,3069.0,0.0,-720.0,0.0,0.0,0.125,2.88085908,4.389674732977291,0.0,-9540.0,0.0,-585.0,0.0,0.0,0.25,1.9470212850000002,0.552687206278561,0.0,-0.8399999737739563,-0.8500000238418579,49.54999923706055,0.02044677734375,0.12994384765625,1.19854736328125,34.27000045776367,0.0,137.0,0.6479644775390625,-2.083038330078125,Opening,0.0,0.0,0.0,0.0,0.0,0.0,0.0,0.0,
1.955408000000054,0.0,0.0,23990.0,0.0,-337.5,0.0,0.0,0.125,1.3220213490000001,0.5498168668524864,0.0,-8581.0,0.0,-330.0,0.0,0.0,0.25,4.887694812,4.41043958977222,0.0,2927.0,0.0,-255.0,0.0,0.0,0.125,2.823486039,4.389674732977291,0.0,-9669.0,0.0,-315.0,0.0,0.0,0.375,2.180175558,0.552687206278561,0.0,-0.3499999940395355,-0.9800000190734863,57.099998474121094,-0.028564453125,1.220703125E-4,1.00958251953125,34.27000045776367,0.0,0.0,0.658966064453125,-2.104827880859375,Opening,0.0,0.0,0.0,0.0,0.0,0.0,0.0,0.0,
2.1669409999999916,0.0,0.0,23964.0,0.0,-7.5,0.0,0.0,0.25,1.331786973,0.5498168668524864,0.0,-8627.0,0.0,0.0,0.0,0.0,0.25,4.892577624,4.41043958977222,0.0,2908.0,0.125,0.0,0.0,0.0,0.125,2.8002926820000003,4.389674732977291,0.0,-9685.0,0.0,0.0,0.0,0.0,0.25,2.261962659,0.552687206278561,0.0,-0.23999999463558197,-0.8100000023841858,57.689998626708984,-0.0391845703125,-0.03369140625,1.0167236328125,34.25,0.0,-37.0,0.663970947265625,-2.1063690185546875,Opening,0.0,0.0,0.0,0.0,0.0,0.0,0.0,0.0,
2.374469999999972,0.0,0.0,23964.0,0.0,0.0,0.0,0.0,0.25,1.331786973,0.5498168668524864,0.0,-8627.0,0.0,0.0,0.0,0.0,0.125,4.898681139000001,4.41043958977222,0.0,2908.0,0.0,0.0,0.0,0.0,0.0,2.8002926820000003,4.389674732977291,0.0,-9684.0,0.0,0.0,0.0,0.0,0.25,2.208251727,0.552687206278561,0.0,-0.20999999344348907,-0.800000011920929,57.650001525878906,-0.0257568359375,-0.00103759765625,1.0074462890625,34.25,0.0,-3.0,0.665252685546875,-2.1063690185546875,Opening,0.0,0.0,0.0,0.0,0.0,0.0,0.0,0.0,
2.58896100000001,0.0,0.0,23940.0,9.5,-112.5,-1025.1968622207642,0.0,1.5,0.812988198,4.932250999999998,0.0,-8591.0,11.0,157.5,1025.1968622207642,0.0,1.75,0.539550726,4.963769999999998,0.0,2897.0,12.375,-67.5,-1025.1968622207642,0.0,0.5,3.5180660460000004,0.01,0.0,-9662.0,7.125,247.5,1025.1968622207642,0.0,0.875,1.4477537580000002,0.01,0.0,-0.3700000047683716,-1.8700000047683716,57.189998626708984,-0.3328857421875,0.04193115234375,1.1304931640625,34.27000045776367,0.0,-118.0,0.651611328125,-2.0918426513671875,Opening,0.0,0.0,0.0,0.0,0.0,0.0,0.0,0.0,
2.8105740000000226,0.0,0.0,23803.0,12.5,-757.5,-1306.299215555191,0.0,0.125,0.7116698490000001,4.932250999999998,0.0,-8389.0,17.875,735.0,1306.299215555191,0.0,0.0,0.612792906,4.963769999999998,0.0,2843.0,25.5,-240.0,-1306.299215555191,0.0,0.375,3.773192973,0.01,0.0,-9509.0,14.375,645.0,1306.299215555191,0.0,0.375,1.4758299270000002,0.01,0.0,-0.09000000357627869,-3.450000047683716,58.439998626708984,-0.21697998046875,0.0498046875,0.86334228515625,34.27000045776367,0.0,-42.0,0.6063232421875,-2.033203125,Opening,0.0,0.0,0.0,0.0,0.0,0.0,0.0,0.0,
3.018902000000002,0.0,0.0,23470.0,9.5,-1185.0,-1306.299215555191,0.0,0.25,0.7922362470000001,4.932250999999998,0.0,-8222.0,11.625,1230.0,1306.299215555191,0.0,0.25,0.611572203,4.963769999999998,0.0,2720.0,31.75,-465.0,-1306.299215555191,0.0,0.75,3.439941054,0.01,0.0,-9192.0,10.75,1147.5,1306.299215555191,0.0,0.25,1.697997873,0.01,0.0,-0.41999998688697815,-4.599999904632568,59.27000045776367,-0.19647216796875,0.17413330078125,1.02557373046875,34.279998779296875,0.0,97.0,0.55169677734375,-1.947998046875,Opening,0.0,0.0,0.0,0.0,0.0,0.0,0.0,0.0,
3.2334710000000197,0.0,0.0,23076.0,0.0,-1222.5,0.0,0.0,0.125,0.834960852,4.932250999999998,0.0,-7831.0,0.0,1177.5,0.0,0.0,0.25,0.482177685,4.963769999999998,0.0,2507.0,0.0,-690.0,0.0,0.0,0.125,3.276366852,0.01,0.0,-8810.0,0.0,1215.0,0.0,0.0,0.25,1.7321775570000002,0.01,0.0,-0.15000000596046448,-3.2699999809265137,58.869998931884766,0.12725830078125,-0.07989501953125,1.34906005859375,34.279998779296875,0.0,40.0,0.4971923828125,-1.8740081787109375,Opening,0.0,0.0,0.0,0.0,0.0,0.0,0.0,0.0,
3.4399470000000436,0.0,0.0,22954.0,0.0,-667.5,0.0,0.0,0.125,0.8300780400000001,4.932250999999998,0.0,-7532.0,0.0,795.0,0.0,0.0,0.125,0.44799800100000003,4.963769999999998,0.0,2382.0,0.125,-652.5,0.0,0.0,0.0,3.3154293480000003,0.01,0.0,-8663.0,0.0,757.5,0.0,0.0,0.25,1.6015623360000002,0.01,0.0,0.07000000029802322,-1.309999942779541,57.369998931884766,0.066162109375,-0.0716552734375,1.583984375,34.279998779296875,0.0,-6.0,0.4743804931640625,-1.8404998779296875,Opening,0.0,0.0,0.0,0.0,0.0,0.0,0.0,0.0,
3.644201000000001,0.0,0.0,22795.0,0.0,-360.0,0.0,0.0,0.125,0.8312987430000001,4.932250999999998,0.0,-7450.0,0.0,337.5,0.0,0.0,0.25,0.457763625,4.963769999999998,0.0,2230.0,0.0,-360.0,0.0,0.0,0.0,3.388671528,0.01,0.0,-8506.0,0.125,330.0,0.0,0.0,0.25,1.567382652,0.01,0.0,0.029999999329447746,0.23000000417232513,57.40999984741211,0.10772705078125,0.00689697265625,0.96246337890625,34.25,0.0,61.0,0.4769439697265625,-1.845916748046875,Opening,0.0,0.0,0.0,0.0,0.0,0.0,0.0,0.0,
3.8466310000000523,0.0,0.0,22755.0,0.0,-45.0,0.0,0.0,0.125,0.8312987430000001,4.932250999999998,0.0,-7388.0,0.0,60.0,0.0,0.0,0.0,0.457763625,4.963769999999998,0.0,2190.0,0.0,-45.0,0.0,0.0,0.125,3.387450825,0.01,0.0,-8475.0,0.0,37.5,0.0,0.0,0.25,1.596679524,0.01,0.0,0.03999999910593033,0.9399999976158142,57.439998626708984,0.0206298828125,0.0135498046875,0.97454833984375,34.25,0.0,13.0,0.49359130859375,-1.87396240234375,Opening,0.0,0.0,0.0,0.0,0.0,0.0,0.0,0.0,
4.046949000000023,0.0,0.0,22755.0,0.0,0.0,0.0,0.0,0.125,0.8312987430000001,4.932250999999998,0.0,-7387.0,0.0,0.0,0.0,0.0,0.25,0.46752924900000004,4.963769999999998,0.0,2190.0,0.0,0.0,0.0,0.0,0.125,3.389892231,0.01,0.0,-8475.0,0.125,0.0,0.0,0.0,0.25,1.6015623360000002,0.01,0.0,0.05000000074505806,0.6100000143051147,57.41999816894531,-0.02740478515625,-0.00518798828125,1.00909423828125,34.220001220703125,0.0,-25.0,0.4918212890625,-1.8709259033203125,Opening,0.0,0.0,0.0,0.0,0.0,0.0,0.0,0.0,
4.247351000000024,0.0,0.0,22731.0,1.25,-120.0,-512.5984311103821,0.0,0.125,0.8300780400000001,4.932250999999998,0.0,-7365.0,1.75,142.5,512.5984311103821,0.0,0.25,0.46752924900000004,4.963769999999998,0.0,2170.0,2.0,-135.0,-512.5984311103821,0.0,0.125,3.388671528,0.01,0.0,-8464.0,1.875,112.5,512.5984311103821,0.0,0.25,1.6015623360000002,0.01,0.0,0.029999999329447746,0.09000000357627869,57.5099983215332,0.05377197265625,-0.01922607421875,0.93670654296875,34.220001220703125,0.0,11.0,0.48834228515625,-1.858123779296875,Opening,0.0,0.0,0.0,0.0,0.0,0.0,0.0,0.0,
4.444126999999979,0.0,0.0,22663.0,4.0,-262.5,-644.8818951845169,0.0,0.125,0.8300780400000001,4.932250999999998,0.0,-7317.0,5.375,262.5,644.8818951845169,0.0,0.25,0.46752924900000004,4.963769999999998,0.0,2109.0,5.375,-255.0,-644.8818951845169,0.0,0.125,3.387450825,0.01,0.0,-8380.0,4.125,247.5,644.8818951845169,0.0,0.25,1.600341633,0.01,0.0,0.019999999552965164,-0.9200000166893005,57.54999923706055,-0.15869140625,-0.0086669921875,1.0020751953125,34.220001220703125,0.0,-84.0,0.473785400390625,-1.8260650634765625,Opening,0.0,0.0,0.0,0.0,0.0,0.0,0.0,0.0,
4.645254000000073,0.0,0.0,22591.0,2.0,-517.5,-512.5984311103821,0.0,0.125,0.8300780400000001,4.932250999999998,0.0,-7169.0,2.375,517.5,512.5984311103821,0.0,0.25,0.46630854600000005,4.963769999999998,0.0,2035.0,2.75,-510.0,-512.5984311103821,0.0,0.125,3.395995746,0.01,0.0,-8306.0,2.125,510.0,512.5984311103821,0.0,0.25,1.625976396,0.01,0.0,-0.019999999552965164,-1.4199999570846558,57.619998931884766,-0.06072998046875,-0.03466796875,0.98675537109375,34.25,0.0,-48.0,0.461181640625,-1.7767486572265625,Opening,0.0,0.0,0.0,0.0,0.0,0.0,0.0,0.0,
4.83671100000001,0.0,0.0,22419.0,0.375,-517.5,-330.70866018533707,0.0,0.125,0.832519446,4.932250999999998,0.0,-7081.0,0.375,517.5,330.70866018533707,0.0,0.25,0.46630854600000005,4.963769999999998,0.0,1876.0,0.875,-427.5,-330.70866018533707,0.0,0.125,3.389892231,0.01,0.0,-8153.0,1.125,427.5,330.70866018533707,0.0,0.125,1.6540525650000002,0.01,0.0,-0.019999999552965164,-1.159999966621399,57.5,0.04833984375,-0.04937744140625,1.01544189453125,34.25,0.0,-4.0,0.458465576171875,-1.7240753173828125,Opening,0.0,0.0,0.0,0.0,0.0,0.0,0.0,0.0,
5.041932000000029,0.0,0.0,22310.0,0.0,-225.0,0.0,0.0,0.125,0.8312987430000001,4.932250999999998,0.0,-6944.0,0.0,337.5,0.0,0.0,0.25,0.477294873,4.963769999999998,0.0,1800.0,0.0,-150.0,0.0,0.0,0.125,3.402099261,0.01,0.0,-8019.0,0.0,382.5,0.0,0.0,0.25,1.6540525650000002,0.01,0.0,0.05999999865889549,-0.3400000035762787,57.02000045776367,0.00372314453125,-0.0194091796875,1.18426513671875,34.25,0.0,-11.0,0.4618072509765625,-1.68841552734375,Opening,0.0,0.0,0.0,0.0,0.0,0.0,0.0,0.0,
5.240896000000066,0.0,0.0,22279.0,0.0,-82.5,0.0,0.0,0.125,0.8312987430000001,4.932250999999998,0.0,-6883.0,0.0,112.5,0.0,0.0,0.25,0.48583979400000005,4.963769999999998,0.0,1769.0,0.0,-112.5,0.0,0.0,0.125,3.392333637,0.01,0.0,-7990.0,0.0,112.5,0.0,0.0,0.25,1.650390456,0.01,0.0,0.11999999731779099,0.5400000214576721,56.9900016784668,0.091552734375,0.00921630859375,1.0322265625,34.2400016784668,0.0,50.0,0.479644775390625,-1.66644287109375,Opening,0.0,0.0,0.0,0.0,0.0,0.0,0.0,0.0,
5.446727000000072,0.0,0.0,22271.0,0.125,-7.5,-115.74803106486797,0.0,0.125,0.8312987430000001,4.932250999999998,0.0,-6882.0,0.125,0.0,115.74803106486797,0.0,0.125,0.49194330900000005,4.963769999999998,0.0,1765.0,0.125,0.0,-115.74803106486797,0.0,0.125,3.388671528,0.01,0.0,-7984.0,0.375,0.0,115.74803106486797,0.0,0.25,1.6625974860000001,0.01,0.0,0.12999999523162842,0.5199999809265137,57.02000045776367,-0.036865234375,0.01043701171875,1.02459716796875,34.2400016784668,0.0,-18.0,0.4885711669921875,-1.655975341796875,Opening,0.0,0.0,0.0,0.0,0.0,0.0,0.0,0.0,
5.6483640000000594,0.0,0.0,22271.0,0.0,0.0,0.0,0.0,0.125,0.8300780400000001,4.932250999999998,0.0,-6882.0,0.0,0.0,0.0,0.0,0.125,0.48583979400000005,4.963769999999998,0.0,1764.0,0.0,0.0,0.0,0.0,0.125,3.388671528,0.01,0.0,-7984.0,0.0,0.0,0.0,0.0,0.25,1.6540525650000002,0.01,0.0,0.14000000059604645,0.25999999046325684,57.029998779296875,-4.8828125E-4,-0.0013427734375,1.0211181640625,34.22999954223633,0.0,-6.0,0.4859771728515625,-1.64056396484375,Opening,0.0,0.0,0.0,0.0,0.0,0.0,0.0,0.0,
5.84440399999998,0.0,0.0,22271.0,0.0,0.0,0.0,0.0,0.125,0.8312987430000001,4.932250999999998,0.0,-6882.0,0.0,0.0,0.0,0.0,0.125,0.48706049700000004,4.963769999999998,0.0,1764.0,0.0,0.0,0.0,0.0,0.125,3.382568013,0.01,0.0,-7984.0,0.125,0.0,0.0,0.0,0.25,1.6540525650000002,0.01,0.0,0.14000000059604645,0.18000000715255737,57.029998779296875,-0.01318359375,0.0067138671875,1.0203857421875,34.22999954223633,0.0,-5.0,0.4859771728515625,-1.64056396484375,Opening,0.0,0.0,0.0,0.0,0.0,0.0,0.0,0.0,
6.034342000000063,0.0,0.0,22271.0,0.0,0.0,0.0,0.0,0.125,0.8312987430000001,4.932250999999998,0.0,-6882.0,0.0,0.0,0.0,0.0,0.125,0.48583979400000005,4.963769999999998,0.0,1764.0,0.0,0.0,0.0,0.0,0.125,3.387450825,0.01,0.0,-7984.0,0.0,0.0,0.0,0.0,0.25,1.6540525650000002,0.01,0.0,0.15000000596046448,0.07999999821186066,57.029998779296875,-0.00537109375,0.00518798828125,1.01409912109375,34.22999954223633,0.0,-1.0,0.4859771728515625,-1.64056396484375,Opening,0.0,0.0,0.0,0.0,0.0,0.0,0.0,0.0,
6.232738000000012,0.0,0.0,22271.0,0.0,0.0,0.0,0.0,0.125,0.8300780400000001,4.932250999999998,0.0,-6882.0,0.0,0.0,0.0,0.0,0.125,0.48706049700000004,4.963769999999998,0.0,1764.0,0.0,0.0,0.0,0.0,0.125,3.387450825,0.01,0.0,-7984.0,0.0,0.0,0.0,0.0,0.25,1.6552732680000002,0.01,0.0,0.15000000596046448,0.0,57.029998779296875,-0.0079345703125,0.00250244140625,1.0218505859375,34.2400016784668,0.0,-4.0,0.4859771728515625,-1.64056396484375,Opening,0.0,0.0,0.0,0.0,0.0,0.0,0.0,0.0,
6.429064000000013,0.0,0.0,22249.0,1.0,-127.5,-479.5275494456291,0.0,0.125,0.8300780400000001,4.932250999999998,0.0,-6854.0,1.5,135.0,479.5275494456291,0.0,0.125,0.48706049700000004,4.963769999999998,0.0,1747.0,1.75,-105.0,-479.5275494456291,0.0,0.125,3.388671528,0.01,0.0,-7967.0,1.5,157.5,479.5275494456291,0.0,0.25,1.6540525650000002,0.01,0.0,0.15000000596046448,-0.28999999165534973,57.08000183105469,0.0589599609375,0.0206298828125,0.77252197265625,34.2400016784668,0.0,49.0,0.4847412109375,-1.6384124755859375,Opening,0.0,0.0,0.0,0.0,0.0,0.0,0.0,0.0,
6.62966100000008,0.0,0.0,22202.0,2.25,-210.0,-479.5275494456291,0.0,0.125,0.8312987430000001,4.932250999999998,0.0,-6831.0,3.25,210.0,479.5275494456291,0.0,0.125,0.48706049700000004,4.963769999999998,0.0,1705.0,3.25,-210.0,-479.5275494456291,0.0,0.125,3.387450825,0.01,0.0,-7914.0,2.5,225.0,479.5275494456291,0.0,0.25,1.645507644,0.01,0.0,0.12999999523162842,-1.100000023841858,57.06999969482422,-0.1119384765625,0.00537109375,1.03631591796875,34.22999954223633,0.0,-47.0,0.4749908447265625,-1.6247406005859375,Opening,0.0,0.0,0.0,0.0,0.0,0.0,0.0,0.0,
6.831501000000047,0.0,0.0,22082.0,2.0,-405.0,-479.5275494456291,0.0,0.125,0.837402258,4.932250999999998,0.0,-6721.0,2.125,427.5,479.5275494456291,0.0,0.125,0.48095698200000003,4.963769999999998,0.0,1588.0,2.75,-390.0,-479.5275494456291,0.0,0.125,3.387450825,0.01,0.0,-7860.0,1.875,405.0,479.5275494456291,0.0,0.25,1.6589353770000002,0.01,0.0,0.10000000149011612,-1.590000033378601,57.0,0.03271484375,-0.04693603515625,0.8897705078125,34.22999954223633,0.0,-9.0,0.4691619873046875,-1.5978851318359375,Opening,0.0,0.0,0.0,0.0,0.0,0.0,0.0,0.0,
7.029935000000056,0.0,0.0,22006.0,1.25,-487.5,-479.5275494456291,0.0,0.125,0.821533119,4.932250999999998,0.0,-6559.0,1.25,525.0,479.5275494456291,0.0,0.125,0.48706049700000004,4.963769999999998,0.0,1512.0,2.125,-502.5,-479.5275494456291,0.0,0.125,3.388671528,0.01,0.0,-7709.0,1.25,510.0,479.5275494456291,0.0,0.25,1.666259595,0.01,0.0,0.15000000596046448,-1.7100000381469727,56.7599983215332,-0.0377197265625,-0.0269775390625,1.1331787109375,34.22999954223633,0.0,-27.0,0.4658966064453125,-1.592742919921875,Opening,0.0,0.0,0.0,0.0,0.0,0.0,0.0,0.0,
7.227972999999998,0.0,0.0,21841.0,0.75,-517.5,-479.5275494456291,0.0,0.125,0.8300780400000001,4.932250999999998,0.0,-6472.0,0.75,540.0,479.5275494456291,0.0,0.125,0.48095698200000003,4.963769999999998,0.0,1345.0,1.75,-525.0,-479.5275494456291,0.0,0.125,3.388671528,0.01,0.0,-7545.0,1.125,495.0,479.5275494456291,0.0,0.25,1.665038892,0.01,0.0,0.10000000149011612,-1.5299999713897705,56.41999816894531,-0.0263671875,-0.01422119140625,1.1231689453125,34.209999084472656,0.0,-11.0,0.46282958984375,-1.5958099365234375,Opening,0.0,0.0,0.0,0.0,0.0,0.0,0.0,0.0,
7.41954700000002,0.0,0.0,21780.0,0.0,-307.5,0.0,0.0,0.125,0.8312987430000001,4.932250999999998,0.0,-6331.0,0.0,375.0,0.0,0.0,0.125,0.49194330900000005,4.963769999999998,0.0,1273.0,0.0,-105.0,0.0,0.0,0.125,3.388671528,0.01,0.0,-7472.0,0.0,427.5,0.0,0.0,0.25,1.668701001,0.01,0.0,0.18000000715255737,-0.699999988079071,55.90999984741211,0.028076171875,0.05963134765625,1.215576171875,34.209999084472656,0.0,70.0,0.471343994140625,-1.602569580078125,Opening,0.0,0.0,0.0,0.0,0.0,0.0,0.0,0.0,
7.615719000000041,0.0,0.0,21702.0,0.0,-135.0,0.0,0.0,0.125,0.8312987430000001,4.932250999999998,0.0,-6277.0,0.0,127.5,0.0,0.0,0.125,0.496826121,4.963769999999998,0.0,1255.0,0.0,-52.5,0.0,0.0,0.125,3.387450825,0.01,0.0,-7389.0,0.125,142.5,0.0,0.0,0.25,1.665038892,0.01,0.0,0.20000000298023224,0.3499999940395355,55.75,0.13427734375,-0.0028076171875,1.040771484375,34.22999954223633,0.0,66.0,0.500396728515625,-1.625335693359375,Opening,0.0,0.0,0.0,0.0,0.0,0.0,0.0,0.0,
7.818107000000077,0.0,0.0,21697.0,0.0,0.0,0.0,0.0,0.125,0.8312987430000001,4.932250999999998,0.0,-6277.0,0.0,0.0,0.0,0.0,0.125,0.496826121,4.963769999999998,0.0,1254.0,0.0,0.0,0.0,0.0,0.125,3.382568013,0.01,0.0,-7387.0,0.0,0.0,0.0,0.0,0.25,1.665038892,0.01,0.0,0.2199999988079071,0.30000001192092896,55.86000061035156,-0.05120849609375,-5.4931640625E-4,1.0333251953125,34.22999954223633,0.0,-35.0,0.5116119384765625,-1.6353759765625,Opening,0.0,0.0,0.0,0.0,0.0,0.0,0.0,0.0,
8.017886999999988,0.0,0.0,21697.0,0.0,0.0,0.0,0.0,0.125,0.8312987430000001,4.932250999999998,0.0,-6277.0,0.0,0.0,0.0,0.0,0.125,0.496826121,4.963769999999998,0.0,1254.0,0.0,0.0,0.0,0.0,0.125,3.385009419,0.01,0.0,-7387.0,0.0,0.0,0.0,0.0,0.25,1.6638181890000001,0.01,0.0,0.20999999344348907,0.03999999910593033,55.86000061035156,-0.0013427734375,0.00921630859375,1.005126953125,34.22999954223633,0.0,3.0,0.5075836181640625,-1.629974365234375,Opening,0.0,0.0,0.0,0.0,0.0,0.0,0.0,0.0,
8.21558799999999,0.0,0.0,21697.0,0.0,0.0,0.0,0.0,0.125,0.8312987430000001,4.932250999999998,0.0,-6277.0,0.0,0.0,0.0,0.0,0.125,0.496826121,4.963769999999998,0.0,1254.0,0.0,0.0,0.0,0.0,0.125,3.383788716,0.01,0.0,-7387.0,0.0,0.0,0.0,0.0,0.25,1.6638181890000001,0.01,0.0,0.2199999988079071,0.0,55.86000061035156,-0.01580810546875,7.9345703125E-4,1.0247802734375,34.25,0.0,-11.0,0.5075836181640625,-1.629974365234375,Opening,0.0,0.0,0.0,0.0,0.0,0.0,0.0,0.0,
8.412141000000062,0.0,0.0,21697.0,0.0,0.0,0.0,0.0,0.125,0.8300780400000001,4.932250999999998,0.0,-6277.0,0.0,0.0,0.0,0.0,0.125,0.496826121,4.963769999999998,0.0,1254.0,0.0,0.0,0.0,0.0,0.125,3.383788716,0.01,0.0,-7387.0,0.0,0.0,0.0,0.0,0.25,1.6638181890000001,0.01,0.0,0.20000000298023224,-0.10000000149011612,55.86000061035156,-0.01031494140625,0.00634765625,1.014404296875,34.25,0.0,-2.0,0.5075836181640625,-1.629974365234375,Opening,0.0,0.0,0.0,0.0,0.0,0.0,0.0,0.0,
8.607190000000061,0.0,0.0,21697.0,0.0,0.0,0.0,0.0,0.125,0.8300780400000001,4.932250999999998,0.0,-6277.0,0.0,0.0,0.0,0.0,0.0,0.495605418,4.963769999999998,0.0,1254.0,0.0,0.0,0.0,0.0,0.0,3.383788716,0.01,0.0,-7387.0,0.125,0.0,0.0,0.0,0.125,1.6638181890000001,0.01,0.0,0.20000000298023224,-0.17000000178813934,55.86000061035156,-0.0098876953125,0.0037841796875,1.01641845703125,34.25,0.0,-3.0,0.5075836181640625,-1.629974365234375,Opening,0.0,0.0,0.0,0.0,0.0,0.0,0.0,0.0,
