Time,ClimberA1,ClimberA2,FRpos,FRCurrent,FRspeed,FRsetpoint,FRApos,FRACurrent,FREncpos,FREncSetpoint,FREncSpeed,FLpos,FLCurrent,FLspeed,FLsetpoint,FLApos,FLACurrent,FLEncpos,FLEncSetpoint,FLEncSpeed,BRpos,BRCurrent,BRspeed,BRsetpoint,BRApos,BRACurrent,BREncpos,BREncSetpoint,BREncSpeed,BLpos,BLCurrent,BLspeed,BLsetpoint,BLApos,BLACurrent,BLEncpos,BLEncSetpoint,BLEncSpeed,navx_Pitch,navx_Roll,navx_Yaw,navx_XAcc,navx_YAcc,navx_ZAcc,navx_Temp,navx_Bar,navx_Alt,navx_XDis,navx_YDis,GearPlacerState,ShootOutputV,ShootOutputCurrent,ShootEncPos,ShootEncVelocity,ShootSpeed,ShootSetpoint,CarouselSetpoint,CarouselCurrent,
0.20305099999999948,0.0,0.0,18777.0,0.0,0.0,0.0,0.0,0.125,0.783691326,0.01,0.0,-27616.0,0.0,0.0,0.0,0.0,0.125,0.462646437,0.01,0.0,25407.0,0.0,0.0,0.0,0.0,0.0,3.300780912,0.01,0.0,-31476.0,0.0,0.0,0.0,0.0,0.125,1.5515135130000002,0.01,0.0,-0.3799999952316284,-0.699999988079071,0.0,-0.01123046875,-0.005126953125,1.0211181640625,32.310001373291016,0.0,1.0,-2.623321533203125,3.52618408203125,Waiting,0.0,0.0,0.0,0.0,0.0,0.0,0.0,0.0,
0.2745709999999999,0.0,0.0,18777.0,0.0,0.0,0.0,0.0,0.125,0.783691326,0.01,0.0,-27616.0,0.0,0.0,-0.0,0.0,0.125,0.462646437,0.01,0.0,25407.0,0.0,0.0,0.0,0.0,0.0,3.299560209,0.01,0.0,-31476.0,0.0,0.0,-0.0,0.0,0.125,1.5527342160000002,0.01,0.0,-0.3799999952316284,-0.699999988079071,0.0,-0.01202392578125,-0.00726318359375,1.025390625,32.310001373291016,0.0,0.0,-2.623321533203125,3.52618408203125,Waiting,0.0,0.0,0.0,0.0,0.0,0.0,0.0,0.0,
0.30671900000000096,0.0,0.0,18777.0,0.0,0.0,0.0,0.0,0.25,0.783691326,0.01,4.9047216229999995,-27616.0,0.0,0.0,-0.0,0.0,0.0,0.46142573400000003,0.01,-0.04480426599999987,25407.0,0.0,0.0,0.0,0.0,0.0,3.300780912,0.01,4.889960209,-31476.0,0.0,0.0,-0.0,0.0,0.25,1.5527342160000002,0.01,4.889513513,-0.3799999952316284,-0.699999988079071,0.0,-0.01800537109375,-0.0054931640625,1.01910400390625,32.310001373291016,0.0,-5.0,-2.623321533203125,3.52618408203125,Waiting,0.0,0.0,0.0,0.0,0.0,0.0,0.0,0.0,
0.3306550000000025,0.0,0.0,18777.0,0.0,0.0,0.0,0.0,0.125,0.782470623,0.01,4.9047216229999995,-27616.0,0.0,0.0,-0.0,0.0,0.0,0.462646437,0.01,-0.04480426599999987,25407.0,0.0,0.0,0.0,0.0,0.0,3.305663724,0.01,0.0,-31476.0,0.0,0.0,-0.0,0.0,0.25,1.567382652,0.01,0.0,-0.3799999952316284,-0.699999988079071,0.0,-0.01116943359375,-0.00994873046875,1.01800537109375,32.310001373291016,0.0,1.0,-2.623321533203125,3.52618408203125,Waiting,0.0,0.0,0.0,0.0,0.0,0.0,0.0,0.0,
0.3656599999999999,0.0,0.0,18777.0,0.0,0.0,0.0,0.0,0.125,0.783691326,0.01,0.0,-27616.0,0.0,0.0,-0.0,0.0,0.0,0.46752924900000004,0.01,0.0,25407.0,0.0,0.0,0.0,0.0,0.0,3.3129879420000004,0.01,0.0,-31476.0,0.0,0.0,-0.0,0.0,0.25,1.5759275730000002,0.01,0.0,-0.3799999952316284,-0.699999988079071,0.0,-0.012939453125,-0.0086669921875,1.02032470703125,32.310001373291016,0.0,0.0,-2.623321533203125,3.52618408203125,Waiting,0.0,0.0,0.0,0.0,0.0,0.0,0.0,0.0,
0.3865479999999989,0.0,0.0,18777.0,0.0,0.0,0.0,0.0,0.125,0.783691326,0.01,0.0,-27616.0,0.0,0.0,-0.0,0.0,0.0,0.47241206100000005,0.01,0.0,25407.0,0.0,0.0,0.0,0.0,0.0,3.3129879420000004,0.01,0.0,-31476.0,0.0,0.0,-0.0,0.0,0.125,1.585693197,0.01,0.02441406000000068,-0.3799999952316284,-0.699999988079071,0.0,-0.0152587890625,-0.00189208984375,1.01898193359375,32.310001373291016,0.0,-2.0,-2.623321533203125,3.52618408203125,Waiting,0.0,0.0,0.0,0.0,0.0,0.0,0.0,0.0,
0.41199299999999855,0.0,0.0,18777.0,0.0,0.0,0.0,0.0,0.25,0.783691326,0.01,0.0012207030000004337,-27616.0,0.0,0.0,-0.0,0.0,0.0,0.471191358,0.01,0.009765623999999917,25407.0,0.0,0.0,0.0,0.0,0.0,3.3142086450000003,0.01,0.009765624000000805,-31476.0,0.0,0.0,-0.0,0.0,0.125,1.591796712,0.01,0.02441406000000068,-0.3700000047683716,-0.699999988079071,0.0,-0.0115966796875,-0.01055908203125,1.0225830078125,32.310001373291016,0.0,1.0,-2.623321533203125,3.52618408203125,Waiting,0.0,0.0,0.0,0.0,0.0,0.0,0.0,0.0,
0.45092299999999885,0.0,0.0,18777.0,0.0,0.0,0.0,0.0,0.25,0.783691326,0.01,-0.0012207030000004337,-27616.0,0.0,0.0,-0.0,0.0,0.0,0.47241206100000005,0.01,0.0,25407.0,0.0,0.0,0.0,0.0,0.0,3.3154293480000003,0.01,0.004882811999999959,-31476.0,0.0,0.0,-0.0,0.0,0.125,1.596679524,0.01,0.014648435999999876,-0.3799999952316284,-0.699999988079071,0.0,-0.0093994140625,-0.004150390625,1.02252197265625,32.310001373291016,0.0,3.0,-2.623321533203125,3.52618408203125,Waiting,0.0,0.0,0.0,0.0,0.0,0.0,0.0,0.0,
0.47914400000000384,0.0,0.0,18777.0,0.0,0.0,0.0,0.0,0.125,0.782470623,0.01,-0.0012207030000004337,-27616.0,0.0,0.0,-0.0,0.0,0.0,0.47607417,0.01,0.0,25407.0,0.0,0.0,0.0,0.0,0.0,3.3154293480000003,0.01,0.004882811999999959,-31476.0,0.0,0.0,-0.0,0.0,0.125,1.596679524,0.01,0.014648435999999876,-0.3700000047683716,-0.6899999976158142,0.0,-0.0120849609375,-0.002685546875,1.0174560546875,32.310001373291016,0.0,0.0,-2.623321533203125,3.52618408203125,Waiting,0.0,0.0,0.0,0.0,0.0,0.0,0.0,0.0,
0.5079149999999972,0.0,0.0,18777.0,0.0,0.0,0.0,0.0,0.125,0.783691326,0.01,0.0012207030000004337,-27616.0,0.0,0.0,-0.0,0.0,0.0,0.47607417,0.01,0.0,25407.0,0.0,0.0,0.0,0.0,0.0,3.3142086450000003,0.01,0.0,-31476.0,0.0,0.0,-0.0,0.0,0.25,1.596679524,0.01,0.004882811999999959,-0.3700000047683716,-0.6899999976158142,0.0,-0.015380859375,-0.005615234375,1.01788330078125,32.310001373291016,0.0,-2.0,-2.623321533203125,3.52618408203125,Waiting,0.0,0.0,0.0,0.0,0.0,0.0,0.0,0.0,
0.5299070000000029,0.0,0.0,18777.0,0.0,0.0,0.0,0.0,0.125,0.786132732,0.01,0.0012207030000004337,-27616.0,0.0,0.0,-0.0,0.0,0.0,0.477294873,0.01,0.0,25407.0,0.0,0.0,0.0,0.0,0.0,3.3142086450000003,0.01,0.0,-31476.0,0.0,0.0,-0.0,0.0,0.25,1.595458821,0.01,0.004882811999999959,-0.3700000047683716,-0.699999988079071,0.0,-0.01177978515625,-0.0072021484375,1.02392578125,32.310001373291016,0.0,0.0,-2.623321533203125,3.52618408203125,Waiting,0.0,0.0,0.0,0.0,0.0,0.0,0.0,0.0,
0.5544779999999991,0.0,0.0,18777.0,0.0,0.0,0.0,0.0,0.125,0.784912029,0.01,-0.0012207030000004337,-27616.0,0.0,0.0,-0.0,0.0,0.0,0.477294873,0.01,0.004882812000000847,25407.0,0.0,0.0,0.0,0.0,0.0,3.3154293480000003,0.01,0.0,-31476.0,0.0,0.0,-0.0,0.0,0.25,1.595458821,0.01,0.0,-0.3700000047683716,-0.6899999976158142,0.0,-0.01483154296875,-0.00909423828125,1.0240478515625,32.310001373291016,0.0,-2.0,-2.623321533203125,3.52618408203125,Waiting,0.0,0.0,0.0,0.0,0.0,0.0,0.0,0.0,
0.5760689999999995,0.0,0.0,18777.0,0.0,0.0,0.0,0.0,0.125,0.78124992,0.01,-0.0012207030000004337,-27616.0,0.0,0.0,-0.0,0.0,0.0,0.482177685,0.01,0.004882812000000847,25407.0,0.0,0.0,0.0,0.0,0.0,3.3203121600000003,0.01,0.0,-31476.0,0.0,0.0,-0.0,0.0,0.25,1.595458821,0.01,0.0,-0.3700000047683716,-0.6899999976158142,0.0,-0.0133056640625,-0.0064697265625,1.02484130859375,32.310001373291016,0.0,0.0,-2.623321533203125,3.52618408203125,Waiting,0.0,0.0,0.0,0.0,0.0,0.0,0.0,0.0,
0.6052250000000022,0.0,0.0,18777.0,0.0,0.0,0.0,0.0,0.125,0.7910155440000001,0.01,0.0012207030000004337,-27616.0,0.0,0.0,-0.0,0.0,0.0,0.482177685,0.01,0.0012207029999995456,25407.0,0.0,0.0,0.0,0.0,0.0,3.3190914570000003,0.01,0.004882811999999959,-31476.0,0.0,0.0,-0.0,0.0,0.25,1.595458821,0.01,0.0,-0.3700000047683716,-0.6899999976158142,0.0,-0.0101318359375,-0.008056640625,1.0218505859375,32.310001373291016,0.0,2.0,-2.623321533203125,3.52618408203125,Waiting,0.0,0.0,0.0,0.0,0.0,0.0,0.0,0.0,
0.6313140000000022,0.0,0.0,18777.0,0.0,0.0,0.0,0.0,0.125,0.783691326,0.01,0.0012207030000004337,-27616.0,0.0,0.0,-0.0,0.0,0.0,0.482177685,0.01,0.0012207029999995456,25407.0,0.0,0.0,0.0,0.0,0.0,3.3203121600000003,0.01,0.004882811999999959,-31476.0,0.0,0.0,-0.0,0.0,0.25,1.596679524,0.01,0.0,-0.3700000047683716,-0.6899999976158142,0.0,-0.0137939453125,-0.0072021484375,1.0240478515625,32.310001373291016,0.0,-1.0,-2.623321533203125,3.52618408203125,Waiting,0.0,0.0,0.0,0.0,0.0,0.0,0.0,0.0,
0.665357,0.0,0.0,18777.0,0.0,0.0,0.0,0.0,0.125,0.783691326,0.01,0.0,-27616.0,0.0,0.0,-0.0,0.0,0.0,0.482177685,0.01,0.003662109000000413,25407.0,0.0,0.0,0.0,0.0,0.0,3.3166500510000003,0.01,0.0,-31476.0,0.0,0.0,-0.0,0.0,0.125,1.596679524,0.01,0.0,-0.3700000047683716,-0.6899999976158142,0.0,-0.0107421875,-0.00653076171875,1.018310546875,32.310001373291016,0.0,1.0,-2.623321533203125,3.52618408203125,Waiting,0.0,0.0,0.0,0.0,0.0,0.0,0.0,0.0,
0.6867510000000002,0.0,0.0,18777.0,0.0,0.0,0.0,0.0,0.125,0.783691326,0.01,0.0,-27616.0,0.0,0.0,-0.0,0.0,0.0,0.48095698200000003,0.01,0.003662109000000413,25407.0,0.0,0.0,0.0,0.0,0.0,3.3190914570000003,0.01,0.0,-31476.0,0.0,0.0,-0.0,0.0,0.125,1.595458821,0.01,0.0,-0.3799999952316284,-0.6899999976158142,0.0,-0.01263427734375,-0.008544921875,1.02130126953125,32.310001373291016,0.0,0.0,-2.623321533203125,3.52618408203125,Waiting,0.0,0.0,0.0,0.0,0.0,0.0,0.0,0.0,
0.7110779999999977,0.0,0.0,18777.0,0.0,0.0,0.0,0.0,0.125,0.783691326,0.01,0.0,-27616.0,0.0,0.0,-0.0,0.0,0.25,0.482177685,0.01,0.0,25407.0,0.0,0.0,0.0,0.0,0.0,3.3190914570000003,0.01,0.0,-31476.0,0.0,0.0,-0.0,0.0,0.25,1.59912093,0.01,0.0,-0.3799999952316284,-0.6899999976158142,0.0,-0.01214599609375,-0.00701904296875,1.018798828125,32.310001373291016,0.0,0.0,-2.623321533203125,3.52618408203125,Waiting,0.0,0.0,0.0,0.0,0.0,0.0,0.0,0.0,
0.7317899999999973,0.0,0.0,18777.0,0.0,0.0,0.0,0.0,0.125,0.7507323450000001,0.01,0.0,-27616.0,0.0,0.0,-0.0,0.0,0.25,0.482177685,0.01,0.0,25407.0,0.0,0.0,0.0,0.0,0.0,3.3190914570000003,0.01,0.0,-31476.0,0.0,0.0,-0.0,0.0,0.25,1.596679524,0.01,0.0,-0.3799999952316284,-0.6899999976158142,0.0,-0.01092529296875,-0.007568359375,1.02386474609375,32.31999969482422,0.0,1.0,-2.623321533203125,3.52618408203125,Waiting,0.0,0.0,0.0,0.0,0.0,0.0,0.0,0.0,
0.7643999999999979,0.0,0.0,18777.0,0.0,0.0,0.0,0.0,0.25,0.783691326,0.01,-0.0012207030000004337,-27616.0,0.0,0.0,-0.0,0.0,0.25,0.482177685,0.01,0.0,25407.0,0.0,0.0,0.0,0.0,0.0,3.3203121600000003,0.01,0.0,-31476.0,0.0,0.0,-0.0,0.0,0.25,1.595458821,0.01,0.0,-0.3799999952316284,-0.6899999976158142,0.0,-0.011962890625,-0.01092529296875,1.02252197265625,32.31999969482422,0.0,0.0,-2.623321533203125,3.52618408203125,Waiting,0.0,0.0,0.0,0.0,0.0,0.0,0.0,0.0,
0.7890750000000007,0.0,0.0,18777.0,0.0,0.0,0.0,0.0,0.125,0.783691326,0.01,-0.0012207030000004337,-27616.0,0.0,0.0,-0.0,0.0,0.25,0.482177685,0.01,0.0,25407.0,0.0,0.0,0.0,0.0,0.0,3.3190914570000003,0.01,0.0,-31476.0,0.0,0.0,-0.0,0.0,0.25,1.595458821,0.01,0.0,-0.3799999952316284,-0.6899999976158142,0.0,-0.0140380859375,-0.0062255859375,1.0205078125,32.31999969482422,0.0,-1.0,-2.623321533203125,3.52618408203125,Waiting,0.0,0.0,0.0,0.0,0.0,0.0,0.0,0.0,
0.8259850000000042,0.0,0.0,18777.0,0.0,0.0,0.0,0.0,0.125,0.782470623,0.01,0.0012207030000004337,-27616.0,0.0,0.0,-0.0,0.0,0.25,0.482177685,0.01,0.0,25407.0,0.0,0.0,0.0,0.0,0.0,3.3190914570000003,0.01,0.0,-31476.0,0.0,0.0,-0.0,0.0,0.25,1.595458821,0.01,0.0,-0.3799999952316284,-0.6899999976158142,0.0,-0.01324462890625,-0.00628662109375,1.02508544921875,32.31999969482422,0.0,0.0,-2.623321533203125,3.52618408203125,Waiting,0.0,0.0,0.0,0.0,0.0,0.0,0.0,0.0,
0.8534160000000011,0.0,0.0,18777.0,0.0,0.0,0.0,0.0,0.125,0.783691326,0.01,-0.0012207030000004337,-27616.0,0.0,0.0,-0.0,0.0,0.25,0.482177685,0.01,0.0,25407.0,0.0,0.0,0.0,0.0,0.0,3.3190914570000003,0.01,0.0,-31476.0,0.0,0.0,-0.0,0.0,0.25,1.593017415,0.01,0.0,-0.3799999952316284,-0.6899999976158142,0.0,-0.01287841796875,-0.00726318359375,1.02166748046875,32.31999969482422,0.0,0.0,-2.623321533203125,3.52618408203125,Waiting,0.0,0.0,0.0,0.0,0.0,0.0,0.0,0.0,
0.8732409999999982,0.0,0.0,18777.0,0.0,0.0,0.0,0.0,0.125,0.783691326,0.01,-0.0012207030000004337,-27616.0,0.0,0.0,-0.0,0.0,0.25,0.48095698200000003,0.01,0.0,25407.0,0.0,0.0,0.0,0.0,0.0,3.3190914570000003,0.01,0.0,-31476.0,0.0,0.0,-0.0,0.0,0.25,1.596679524,0.01,0.0,-0.3799999952316284,-0.6899999976158142,0.0,-0.01324462890625,-0.00616455078125,1.02325439453125,32.31999969482422,0.0,0.0,-2.623321533203125,3.52618408203125,Waiting,0.0,0.0,0.0,0.0,0.0,0.0,0.0,0.0,
0.9081729999999989,0.0,0.0,18777.0,0.0,0.0,0.0,0.0,0.125,0.783691326,0.01,0.0,-27616.0,0.0,0.0,-0.0,0.0,0.25,0.482177685,0.01,0.0,25407.0,0.0,0.0,0.0,0.0,0.0,3.3203121600000003,0.01,0.0,-31476.0,0.0,0.0,-0.0,0.0,0.25,1.596679524,0.01,0.0,-0.3799999952316284,-0.6899999976158142,0.0,-0.01116943359375,-0.00909423828125,1.0198974609375,32.31999969482422,0.0,1.0,-2.623321533203125,3.52618408203125,Waiting,0.0,0.0,0.0,0.0,0.0,0.0,0.0,0.0,
0.9337919999999976,0.0,0.0,18777.0,0.0,0.0,0.0,0.0,0.125,0.783691326,0.01,0.0,-27616.0,0.0,0.0,-0.0,0.0,0.25,0.482177685,0.01,0.0,25407.0,0.0,0.0,0.0,0.0,0.0,3.3203121600000003,0.01,0.0,-31476.0,0.0,0.0,-0.0,0.0,0.25,1.596679524,0.01,0.0,-0.3799999952316284,-0.6899999976158142,0.0,-0.01141357421875,-0.00604248046875,1.0196533203125,32.31999969482422,0.0,0.0,-2.623321533203125,3.52618408203125,Waiting,0.0,0.0,0.0,0.0,0.0,0.0,0.0,0.0,
0.9637639999999992,0.0,0.0,18777.0,0.0,0.0,0.0,0.0,0.125,0.783691326,0.01,0.0,-27616.0,0.0,0.0,-0.0,0.0,0.25,0.47973627900000004,0.01,0.0,25407.0,0.0,0.0,0.0,0.0,0.0,3.3190914570000003,0.01,0.0,-31476.0,0.0,0.0,-0.0,0.0,0.25,1.595458821,0.01,0.0,-0.3799999952316284,-0.6899999976158142,0.0,-0.0113525390625,-0.00714111328125,1.0223388671875,32.31999969482422,0.0,1.0,-2.623321533203125,3.52618408203125,Waiting,0.0,0.0,0.0,0.0,0.0,0.0,0.0,0.0,
0.9853730000000033,0.0,0.0,18777.0,0.0,0.0,0.0,0.0,0.125,0.782470623,0.01,0.0,-27616.0,0.0,0.0,-0.0,0.0,0.25,0.48095698200000003,0.01,0.0,25407.0,0.0,0.0,0.0,0.0,0.0,3.3203121600000003,0.01,0.0,-31476.0,0.0,0.0,-0.0,0.0,0.25,1.594238118,0.01,0.0,-0.3799999952316284,-0.6899999976158142,0.0,-0.012939453125,-0.00787353515625,1.022216796875,32.31999969482422,0.0,0.0,-2.623321533203125,3.52618408203125,Waiting,0.0,0.0,0.0,0.0,0.0,0.0,0.0,0.0,
1.0080030000000006,0.0,0.0,18777.0,0.0,0.0,0.0,0.0,0.25,0.783691326,0.01,0.0012207030000004337,-27616.0,0.0,0.0,-0.0,0.0,0.25,0.482177685,0.01,0.0,25407.0,0.0,0.0,0.0,0.0,0.0,3.3203121600000003,0.01,0.0,-31476.0,0.0,0.0,-0.0,0.0,0.25,1.595458821,0.01,0.0,-0.3799999952316284,-0.6800000071525574,0.0,-0.0130615234375,-0.00531005859375,1.0208740234375,32.31999969482422,0.0,0.0,-2.623321533203125,3.52618408203125,Waiting,0.0,0.0,0.0,0.0,0.0,0.0,0.0,0.0,
1.0270530000000035,0.0,0.0,18777.0,0.0,0.0,0.0,0.0,0.25,0.783691326,0.01,0.0012207030000004337,-27616.0,0.0,0.0,-0.0,0.0,0.25,0.482177685,0.01,0.0,25407.0,0.0,0.0,0.0,0.0,0.0,3.3190914570000003,0.01,0.0,-31476.0,0.0,0.0,-0.0,0.0,0.25,1.593017415,0.01,0.0,-0.3799999952316284,-0.6800000071525574,0.0,-0.015625,-0.00848388671875,1.0225830078125,32.31999969482422,0.0,-3.0,-2.623321533203125,3.52618408203125,Waiting,0.0,0.0,0.0,0.0,0.0,0.0,0.0,0.0,
1.0490709999999999,0.0,0.0,18777.0,0.0,0.0,0.0,0.0,0.25,0.783691326,0.01,0.0,-27616.0,0.0,0.0,-0.0,0.0,0.25,0.482177685,0.01,0.0,25407.0,0.0,0.0,0.0,0.0,0.0,3.3203121600000003,0.01,0.0,-31476.0,0.0,0.0,-0.0,0.0,0.25,1.596679524,0.01,0.0,-0.3799999952316284,-0.6800000071525574,0.0,-0.0123291015625,-0.00860595703125,1.0205078125,32.31999969482422,0.0,0.0,-2.623321533203125,3.52618408203125,Waiting,0.0,0.0,0.0,0.0,0.0,0.0,0.0,0.0,
1.0676159999999981,0.0,0.0,18777.0,0.0,0.0,0.0,0.0,0.25,0.783691326,0.01,0.0,-27616.0,0.0,0.0,-0.0,0.0,0.25,0.484619091,0.01,0.0,25407.0,0.0,0.0,0.0,0.0,0.0,3.3203121600000003,0.01,0.0,-31476.0,0.0,0.0,-0.0,0.0,0.25,1.595458821,0.01,0.0,-0.3799999952316284,-0.6800000071525574,0.0,-0.0101318359375,-0.0087890625,1.0189208984375,32.31999969482422,0.0,2.0,-2.623321533203125,3.52618408203125,Waiting,0.0,0.0,0.0,0.0,0.0,0.0,0.0,0.0,
1.0867530000000005,0.0,0.0,18777.0,0.0,0.0,0.0,0.0,0.125,0.782470623,0.01,0.0,-27616.0,0.0,0.0,-0.0,0.0,0.25,0.48095698200000003,0.01,0.0,25407.0,0.0,0.0,0.0,0.0,0.0,3.3190914570000003,0.01,0.0,-31476.0,0.0,0.0,-0.0,0.0,0.25,1.594238118,0.01,0.0,-0.3799999952316284,-0.6800000071525574,0.0,-0.01336669921875,-0.0093994140625,1.018798828125,32.31999969482422,0.0,-1.0,-2.623321533203125,3.52618408203125,Waiting,0.0,0.0,0.0,0.0,0.0,0.0,0.0,0.0,
1.109119999999999,0.0,0.0,18777.0,0.0,0.0,0.0,0.0,0.125,0.783691326,0.01,-0.0012207030000004337,-27616.0,0.0,0.0,-0.0,0.0,0.25,0.48095698200000003,0.01,0.0,25407.0,0.0,0.0,0.0,0.0,0.0,3.3190914570000003,0.01,0.0,-31476.0,0.0,0.0,-0.0,0.0,0.25,1.595458821,0.01,0.0,-0.3799999952316284,-0.6800000071525574,0.0,-0.01153564453125,-0.00732421875,1.0218505859375,32.31999969482422,0.0,0.0,-2.623321533203125,3.52618408203125,Waiting,0.0,0.0,0.0,0.0,0.0,0.0,0.0,0.0,
1.1277700000000004,0.0,0.0,18777.0,0.0,0.0,0.0,0.0,0.125,0.783691326,0.01,-0.0012207030000004337,-27616.0,0.0,0.0,-0.0,0.0,0.25,0.482177685,0.01,0.0,25407.0,0.0,0.0,0.0,0.0,0.0,3.3190914570000003,0.01,0.0,-31476.0,0.0,0.0,-0.0,0.0,0.25,1.595458821,0.01,0.0,-0.3799999952316284,-0.6800000071525574,0.0,-0.01287841796875,-0.00701904296875,1.0211181640625,32.31999969482422,0.0,0.0,-2.623321533203125,3.52618408203125,Waiting,0.0,0.0,0.0,0.0,0.0,0.0,0.0,0.0,
1.1512630000000026,0.0,0.0,18777.0,0.0,0.0,0.0,0.0,0.25,0.783691326,0.01,0.0,-27616.0,0.0,0.0,-0.0,0.0,0.25,0.482177685,0.01,0.0,25407.0,0.0,0.0,0.0,0.0,0.0,3.3203121600000003,0.01,0.0,-31476.0,0.0,0.0,-0.0,0.0,0.25,1.595458821,0.01,0.0,-0.3799999952316284,-0.6800000071525574,0.0,-0.0098876953125,-0.0062255859375,1.025146484375,32.31999969482422,0.0,2.0,-2.623321533203125,3.52618408203125,Waiting,0.0,0.0,0.0,0.0,0.0,0.0,0.0,0.0,
1.1705779999999977,0.0,0.0,18777.0,0.0,0.0,0.0,0.0,0.125,0.782470623,0.01,0.0,-27616.0,0.0,0.0,-0.0,0.0,0.25,0.482177685,0.01,0.0,25407.0,0.0,0.0,0.0,0.0,0.0,3.3203121600000003,0.01,0.0,-31476.0,0.0,0.0,-0.0,0.0,0.25,1.595458821,0.01,0.0,-0.3799999952316284,-0.6800000071525574,0.0,-0.01165771484375,-0.00640869140625,1.022705078125,32.31999969482422,0.0,0.0,-2.623321533203125,3.52618408203125,Waiting,0.0,0.0,0.0,0.0,0.0,0.0,0.0,0.0,
1.1897120000000032,0.0,0.0,18777.0,0.0,0.0,0.0,0.0,0.125,0.783691326,0.01,0.0,-27616.0,0.0,0.0,-0.0,0.0,0.25,0.482177685,0.01,0.0,25407.0,0.0,0.0,0.0,0.0,0.0,3.3190914570000003,0.01,0.0,-31476.0,0.0,0.0,-0.0,0.0,0.25,1.595458821,0.01,0.0,-0.3799999952316284,-0.6800000071525574,0.0,-0.0120849609375,-0.00640869140625,1.0186767578125,32.31999969482422,0.0,0.0,-2.623321533203125,3.52618408203125,Waiting,0.0,0.0,0.0,0.0,0.0,0.0,0.0,0.0,
1.212482,0.0,0.0,18777.0,0.0,0.0,0.0,0.0,0.125,0.783691326,0.01,0.0,-27616.0,0.0,0.0,-0.0,0.0,0.25,0.482177685,0.01,0.0,25407.0,0.0,0.0,0.0,0.0,0.0,3.3203121600000003,0.01,0.0,-31476.0,0.0,0.0,-0.0,0.0,0.25,1.595458821,0.01,0.0,-0.3799999952316284,-0.6800000071525574,0.0,-0.01007080078125,-0.0062255859375,1.02490234375,32.31999969482422,0.0,2.0,-2.623321533203125,3.52618408203125,Waiting,0.0,0.0,0.0,0.0,0.0,0.0,0.0,0.0,
1.231592999999997,0.0,0.0,18777.0,0.0,0.0,0.0,0.0,0.125,0.783691326,0.01,0.0,-27616.0,0.0,0.0,-0.0,0.0,0.25,0.482177685,0.01,0.0,25407.0,0.0,0.0,0.0,0.0,0.0,3.3190914570000003,0.01,0.0,-31476.0,0.0,0.0,-0.0,0.0,0.25,1.596679524,0.01,0.0,-0.3799999952316284,-0.6800000071525574,0.0,-0.0150146484375,-0.0062255859375,1.02545166015625,32.29999923706055,0.0,-2.0,-2.623321533203125,3.52618408203125,Waiting,0.0,0.0,0.0,0.0,0.0,0.0,0.0,0.0,
1.2533449999999975,0.0,0.0,18777.0,0.0,0.0,0.0,0.0,0.125,0.782470623,0.01,0.0,-27616.0,0.0,0.0,-0.0,0.0,0.25,0.48095698200000003,0.01,0.0,25407.0,0.0,0.0,0.0,0.0,0.0,3.3203121600000003,0.01,0.0,-31476.0,0.0,0.0,-0.0,0.0,0.25,1.595458821,0.01,0.0,-0.3799999952316284,-0.6800000071525574,0.0,-0.0096435546875,-0.0093994140625,1.0216064453125,32.29999923706055,0.0,2.0,-2.623321533203125,3.52618408203125,Waiting,0.0,0.0,0.0,0.0,0.0,0.0,0.0,0.0,
1.2730980000000018,0.0,0.0,18777.0,0.0,0.0,0.0,0.0,0.125,0.784912029,0.01,0.0,-27616.0,0.0,0.0,-0.0,0.0,0.25,0.482177685,0.01,0.0,25407.0,0.0,0.0,0.0,0.0,0.0,3.3203121600000003,0.01,0.0,-31476.0,0.0,0.0,-0.0,0.0,0.25,1.595458821,0.01,0.0,-0.3799999952316284,-0.6800000071525574,0.009999999776482582,-0.01190185546875,-0.0064697265625,1.02423095703125,32.29999923706055,0.0,0.0,-2.623321533203125,3.52618408203125,Waiting,0.0,0.0,0.0,0.0,0.0,0.0,0.0,0.0,
1.2917250000000022,0.0,0.0,18777.0,0.0,0.0,0.0,0.0,0.125,0.783691326,0.01,0.0,-27616.0,0.0,0.0,-0.0,0.0,0.25,0.48095698200000003,0.01,0.0,25407.0,0.0,0.0,0.0,0.0,0.0,3.3190914570000003,0.01,0.0,-31476.0,0.0,0.0,-0.0,0.0,0.25,1.595458821,0.01,0.0,-0.3799999952316284,-0.6800000071525574,0.0,-0.01141357421875,-0.007080078125,1.0198974609375,32.29999923706055,0.0,0.0,-2.623321533203125,3.52618408203125,Waiting,0.0,0.0,0.0,0.0,0.0,0.0,0.0,0.0,
1.3139840000000005,0.0,0.0,18777.0,0.0,0.0,0.0,0.0,0.125,0.783691326,0.01,0.0012207030000004337,-27616.0,0.0,0.0,-0.0,0.0,0.25,0.47851557600000005,0.01,0.0,25407.0,0.0,0.0,0.0,0.0,0.0,3.3203121600000003,0.01,0.0,-31476.0,0.0,0.0,-0.0,0.0,0.25,1.596679524,0.01,0.0,-0.38999998569488525,-0.6800000071525574,0.0,-0.012939453125,-0.0081787109375,1.0216064453125,32.29999923706055,0.0,0.0,-2.623321533203125,3.52618408203125,Waiting,0.0,0.0,0.0,0.0,0.0,0.0,0.0,0.0,
1.3337310000000033,0.0,0.0,18777.0,0.0,0.0,0.0,0.0,0.25,0.783691326,0.01,0.0012207030000004337,-27616.0,0.0,0.0,-0.0,0.0,0.25,0.482177685,0.01,0.0,25407.0,0.0,0.0,0.0,0.0,0.0,3.3215328630000003,0.01,0.0,-31476.0,0.0,0.0,-0.0,0.0,0.25,1.595458821,0.01,0.0,-0.38999998569488525,-0.6800000071525574,0.009999999776482582,-0.01324462890625,-0.007568359375,1.02386474609375,32.29999923706055,0.0,-1.0,-2.623321533203125,3.52618408203125,Waiting,0.0,0.0,0.0,0.0,0.0,0.0,0.0,0.0,
1.355846999999998,0.0,0.0,18777.0,0.0,0.0,0.0,0.0,0.25,0.783691326,0.01,-0.0012207030000004337,-27616.0,0.0,0.0,-0.0,0.0,0.25,0.482177685,0.01,0.0012207029999995456,25407.0,0.0,0.0,0.0,0.0,0.0,3.3203121600000003,0.01,0.0,-31476.0,0.0,0.0,-0.0,0.0,0.25,1.595458821,0.01,0.0,-0.38999998569488525,-0.6800000071525574,0.009999999776482582,-0.01324462890625,-0.007568359375,1.02386474609375,32.29999923706055,0.0,-1.0,-2.623321533203125,3.52618408203125,Waiting,0.0,0.0,0.0,0.0,0.0,0.0,0.0,0.0,
1.3751959999999999,0.0,0.0,18777.0,0.0,0.0,0.0,0.0,0.25,0.783691326,0.01,-0.0012207030000004337,-27616.0,0.0,0.0,-0.0,0.0,0.25,0.483398388,0.01,0.0012207029999995456,25407.0,0.0,0.0,0.0,0.0,0.0,3.3190914570000003,0.01,0.0,-31476.0,0.0,0.0,-0.0,0.0,0.25,1.595458821,0.01,0.0,-0.3799999952316284,-0.6800000071525574,0.009999999776482582,-0.01275634765625,-0.00787353515625,1.02008056640625,32.29999923706055,0.0,0.0,-2.623321533203125,3.52618408203125,Waiting,0.0,0.0,0.0,0.0,0.0,0.0,0.0,0.0,
1.4031119999999973,0.0,0.0,18777.0,0.0,0.0,0.0,0.0,0.125,0.782470623,0.01,0.0,-27616.0,0.0,0.0,-0.0,0.0,0.25,0.48095698200000003,0.01,-0.0012207029999995456,25407.0,0.0,0.0,0.0,0.0,0.0,3.3190914570000003,0.01,0.0,-31476.0,0.0,0.0,-0.0,0.0,0.25,1.595458821,0.01,0.0,-0.38999998569488525,-0.6800000071525574,0.009999999776482582,-0.0145263671875,-0.0059814453125,1.01885986328125,32.29999923706055,0.0,-2.0,-2.623321533203125,3.52618408203125,Waiting,0.0,0.0,0.0,0.0,0.0,0.0,0.0,0.0,
1.4276389999999992,0.0,0.0,18777.0,0.0,0.0,0.0,0.0,0.125,0.7885741380000001,0.01,0.0,-27616.0,0.0,0.0,-0.0,0.0,0.0,0.482177685,0.01,-0.0012207029999995456,25407.0,0.0,0.0,0.0,0.0,0.0,3.3190914570000003,0.01,0.0,-31476.0,0.0,0.0,-0.0,0.0,0.25,1.595458821,0.01,0.0,-0.38999998569488525,-0.6800000071525574,0.0,-0.00994873046875,-0.0052490234375,1.02020263671875,32.29999923706055,0.0,2.0,-2.623321533203125,3.52618408203125,Waiting,0.0,0.0,0.0,0.0,0.0,0.0,0.0,0.0,
1.450558000000001,0.0,0.0,18777.0,0.0,0.0,0.0,0.0,0.125,0.782470623,0.01,0.0012207030000004337,-27616.0,0.0,0.0,-0.0,0.0,0.0,0.48095698200000003,0.01,0.0,25407.0,0.0,0.0,0.0,0.0,0.0,3.3203121600000003,0.01,0.0,-31476.0,0.0,0.0,-0.0,0.0,0.25,1.595458821,0.01,0.0,-0.38999998569488525,-0.6800000071525574,0.0,-0.0091552734375,-0.0069580078125,1.02056884765625,32.29999923706055,0.0,3.0,-2.623321533203125,3.52618408203125,Waiting,0.0,0.0,0.0,0.0,0.0,0.0,0.0,0.0,
1.4721519999999981,0.0,0.0,18777.0,0.0,0.0,0.0,0.0,0.125,0.783691326,0.01,0.0012207030000004337,-27616.0,0.0,0.0,-0.0,0.0,0.0,0.48095698200000003,0.01,0.0,25407.0,0.0,0.0,0.0,0.0,0.0,3.3203121600000003,0.01,0.0,-31476.0,0.0,0.0,-0.0,0.0,0.25,1.596679524,0.01,0.0,-0.38999998569488525,-0.6800000071525574,0.009999999776482582,-0.01416015625,-0.00579833984375,1.02166748046875,32.29999923706055,0.0,-1.0,-2.623321533203125,3.52618408203125,Waiting,0.0,0.0,0.0,0.0,0.0,0.0,0.0,0.0,
1.4909750000000022,0.0,0.0,18777.0,0.0,0.0,0.0,0.0,0.125,0.783691326,0.01,0.0012207030000004337,-27616.0,0.0,0.0,-0.0,0.0,0.25,0.482177685,0.01,0.0,25407.0,0.0,0.0,0.0,0.0,0.0,3.3203121600000003,0.01,0.0,-31476.0,0.0,0.0,-0.0,0.0,0.25,1.595458821,0.01,0.0,-0.38999998569488525,-0.6800000071525574,0.009999999776482582,-0.0103759765625,-0.009033203125,1.02032470703125,32.29999923706055,0.0,1.0,-2.623321533203125,3.52618408203125,Waiting,0.0,0.0,0.0,0.0,0.0,0.0,0.0,0.0,
1.513244999999999,0.0,0.0,18777.0,0.0,0.0,0.0,0.0,0.125,0.783691326,0.01,0.0,-27616.0,0.0,0.0,-0.0,0.0,0.0,0.482177685,0.01,0.0,25407.0,0.0,0.0,0.0,0.0,0.0,3.3190914570000003,0.01,0.0,-31476.0,0.0,0.0,-0.0,0.0,0.25,1.595458821,0.01,0.0,-0.38999998569488525,-0.6800000071525574,0.009999999776482582,-0.011962890625,-0.00933837890625,1.02044677734375,32.29999923706055,0.0,0.0,-2.623321533203125,3.52618408203125,Waiting,0.0,0.0,0.0,0.0,0.0,0.0,0.0,0.0,
1.5316190000000025,0.0,0.0,18777.0,0.0,0.0,0.0,0.0,0.125,0.783691326,0.01,0.0,-27616.0,0.0,0.0,-0.0,0.0,0.0,0.48095698200000003,0.01,0.0,25407.0,0.0,0.0,0.0,0.0,0.0,3.3190914570000003,0.01,0.0,-31476.0,0.0,0.0,-0.0,0.0,0.25,1.59912093,0.01,0.0,-0.38999998569488525,-0.6800000071525574,0.009999999776482582,-0.0120849609375,-0.00750732421875,1.0255126953125,32.29999923706055,0.0,0.0,-2.623321533203125,3.52618408203125,Waiting,0.0,0.0,0.0,0.0,0.0,0.0,0.0,0.0,
1.5635649999999988,0.0,0.0,18777.0,0.0,0.0,0.0,0.0,0.125,0.783691326,0.01,0.0,-27616.0,0.0,0.0,-0.0,0.0,0.0,0.482177685,0.01,0.0,25407.0,0.0,0.0,0.0,0.0,0.0,3.3203121600000003,0.01,0.0,-31476.0,0.0,0.0,-0.0,0.0,0.25,1.596679524,0.01,0.0,-0.38999998569488525,-0.6800000071525574,0.009999999776482582,-0.01055908203125,-0.00750732421875,1.02130126953125,32.29999923706055,0.0,1.0,-2.623321533203125,3.52618408203125,Waiting,0.0,0.0,0.0,0.0,0.0,0.0,0.0,0.0,
1.5812239999999984,0.0,0.0,18777.0,0.0,0.0,0.0,0.0,0.125,0.7788085140000001,0.01,0.0,-27616.0,0.0,0.0,-0.0,0.0,0.25,0.482177685,0.01,0.0,25407.0,0.0,0.0,0.0,0.0,0.0,3.3203121600000003,0.01,0.0,-31476.0,0.0,0.0,-0.0,0.0,0.25,1.596679524,0.01,0.0,-0.38999998569488525,-0.6800000071525574,0.009999999776482582,-0.00970458984375,-0.00689697265625,1.0216064453125,32.29999923706055,0.0,2.0,-2.623321533203125,3.52618408203125,Waiting,0.0,0.0,0.0,0.0,0.0,0.0,0.0,0.0,
1.6001490000000012,0.0,0.0,18777.0,0.0,0.0,0.0,0.0,0.25,0.783691326,0.01,0.0,-27616.0,0.0,0.0,-0.0,0.0,0.25,0.48095698200000003,0.01,0.0,25407.0,0.0,0.0,0.0,0.0,0.0,3.3203121600000003,0.01,0.0,-31476.0,0.0,0.0,-0.0,0.0,0.25,1.595458821,0.01,0.0,-0.38999998569488525,-0.6800000071525574,0.009999999776482582,-0.01214599609375,-0.0069580078125,1.01983642578125,32.29999923706055,0.0,0.0,-2.623321533203125,3.52618408203125,Waiting,0.0,0.0,0.0,0.0,0.0,0.0,0.0,0.0,
1.6201839999999974,0.0,0.0,18777.0,0.0,0.0,0.0,0.0,0.25,0.784912029,0.01,-0.0012207030000004337,-27616.0,0.0,0.0,-0.0,0.0,0.25,0.483398388,0.01,0.0,25407.0,0.0,0.0,0.0,0.0,0.0,3.3190914570000003,0.01,0.0,-31476.0,0.0,0.0,-0.0,0.0,0.25,1.595458821,0.01,0.0,-0.38999998569488525,-0.6800000071525574,0.009999999776482582,-0.012939453125,-0.00616455078125,1.02374267578125,32.29999923706055,0.0,0.0,-2.623321533203125,3.52618408203125,Waiting,0.0,0.0,0.0,0.0,0.0,0.0,0.0,0.0,
1.639288000000004,0.0,0.0,18777.0,0.0,0.0,0.0,0.0,0.25,0.783691326,0.01,-0.0012207030000004337,-27616.0,0.0,0.0,-0.0,0.0,0.25,0.48095698200000003,0.01,0.0,25407.0,0.0,0.0,0.0,0.0,0.0,3.3203121600000003,0.01,0.0,-31476.0,0.0,0.0,-0.0,0.0,0.25,1.595458821,0.01,0.0,-0.38999998569488525,-0.6800000071525574,0.009999999776482582,-0.0159912109375,-0.008056640625,1.0166015625,32.29999923706055,0.0,-3.0,-2.623321533203125,3.52618408203125,Waiting,0.0,0.0,0.0,0.0,0.0,0.0,0.0,0.0,
1.6607270000000025,0.0,0.0,18777.0,0.0,0.0,0.0,0.0,0.125,0.783691326,0.01,0.0,-27616.0,0.0,0.0,-0.0,0.0,0.25,0.482177685,0.01,0.0,25407.0,0.0,0.0,0.0,0.0,0.0,3.3203121600000003,0.01,0.0,-31476.0,0.0,0.0,-0.0,0.0,0.25,1.595458821,0.01,0.0,-0.38999998569488525,-0.6800000071525574,0.009999999776482582,-0.01165771484375,-0.010498046875,1.01983642578125,32.29999923706055,0.0,0.0,-2.623321533203125,3.52618408203125,Waiting,0.0,0.0,0.0,0.0,0.0,0.0,0.0,0.0,
1.6796950000000033,0.0,0.0,18777.0,0.0,0.0,0.0,0.0,0.125,0.78124992,0.01,0.0,-27616.0,0.0,0.0,-0.0,0.0,0.0,0.48095698200000003,0.01,0.0,25407.0,0.0,0.0,0.0,0.0,0.0,3.3203121600000003,0.01,0.0,-31476.0,0.0,0.0,-0.0,0.0,0.25,1.595458821,0.01,0.0,-0.38999998569488525,-0.6800000071525574,0.009999999776482582,-0.0113525390625,-0.00665283203125,1.0189208984375,32.29999923706055,0.0,0.0,-2.623321533203125,3.52618408203125,Waiting,0.0,0.0,0.0,0.0,0.0,0.0,0.0,0.0,
1.7000600000000012,0.0,0.0,18777.0,0.0,0.0,0.0,0.0,0.125,0.783691326,0.01,0.0,-27616.0,0.0,0.0,-0.0,0.0,0.0,0.483398388,0.01,0.0,25407.0,0.0,0.0,0.0,0.0,0.0,3.3203121600000003,0.01,0.0,-31476.0,0.0,0.0,-0.0,0.0,0.25,1.595458821,0.01,0.0,-0.38999998569488525,-0.6800000071525574,0.009999999776482582,-0.01507568359375,-0.00616455078125,1.0211181640625,32.29999923706055,0.0,-2.0,-2.623321533203125,3.52618408203125,Waiting,0.0,0.0,0.0,0.0,0.0,0.0,0.0,0.0,
1.7201570000000028,0.0,0.0,18777.0,0.0,0.0,0.0,0.0,0.125,0.782470623,0.01,0.0,-27616.0,0.0,0.0,-0.0,0.0,0.0,0.482177685,0.01,0.0012207029999995456,25407.0,0.0,0.0,0.0,0.0,0.0,3.3203121600000003,0.01,0.0,-31476.0,0.0,0.0,-0.0,0.0,0.25,1.595458821,0.01,0.0,-0.38999998569488525,-0.6800000071525574,0.009999999776482582,-0.01336669921875,-0.0054931640625,1.024658203125,32.29999923706055,0.0,-1.0,-2.623321533203125,3.52618408203125,Waiting,0.0,0.0,0.0,0.0,0.0,0.0,0.0,0.0,
1.7403909999999996,0.0,0.0,18777.0,0.0,0.0,0.0,0.0,0.125,0.784912029,0.01,0.0,-27616.0,0.0,0.0,-0.0,0.0,0.0,0.48095698200000003,0.01,0.0012207029999995456,25407.0,0.0,0.0,0.0,0.0,0.0,3.3203121600000003,0.01,0.0,-31476.0,0.0,0.0,-0.0,0.0,0.25,1.596679524,0.01,0.0,-0.38999998569488525,-0.6800000071525574,0.009999999776482582,-0.01373291015625,-0.00909423828125,1.02099609375,32.29999923706055,0.0,-1.0,-2.623321533203125,3.52618408203125,Waiting,0.0,0.0,0.0,0.0,0.0,0.0,0.0,0.0,
1.7614120000000002,0.0,0.0,18777.0,0.0,0.0,0.0,0.0,0.125,0.783691326,0.01,0.0,-27616.0,0.0,0.0,-0.0,0.0,0.0,0.48095698200000003,0.01,-0.0012207029999995456,25407.0,0.0,0.0,0.0,0.0,0.0,3.3203121600000003,0.01,0.0,-31476.0,0.0,0.0,-0.0,0.0,0.25,1.595458821,0.01,0.0,-0.38999998569488525,-0.6800000071525574,0.009999999776482582,-0.013671875,-0.00921630859375,1.02178955078125,32.310001373291016,0.0,-1.0,-2.623321533203125,3.52618408203125,Waiting,0.0,0.0,0.0,0.0,0.0,0.0,0.0,0.0,
1.7798160000000025,0.0,0.0,18777.0,0.0,0.0,0.0,0.0,0.125,0.783691326,0.01,0.0,-27616.0,0.0,0.0,-0.0,0.0,0.0,0.482177685,0.01,-0.0012207029999995456,25407.0,0.0,0.0,0.0,0.0,0.0,3.3203121600000003,0.01,0.0,-31476.0,0.0,0.0,-0.0,0.0,0.25,1.595458821,0.01,0.0,-0.38999998569488525,-0.6800000071525574,0.009999999776482582,-0.01397705078125,-7.9345703125E-4,1.01959228515625,32.310001373291016,0.0,-1.0,-2.623321533203125,3.52618408203125,Waiting,0.0,0.0,0.0,0.0,0.0,0.0,0.0,0.0,
1.8000159999999996,0.0,0.0,18777.0,0.0,0.0,0.0,0.0,0.125,0.783691326,0.01,0.0,-27616.0,0.0,0.0,-0.0,0.0,0.0,0.48095698200000003,0.01,-0.0012207029999995456,25407.0,0.0,0.0,0.0,0.0,0.0,3.3203121600000003,0.01,0.0,-31476.0,0.0,0.0,-0.0,0.0,0.25,1.595458821,0.01,0.0,-0.38999998569488525,-0.6800000071525574,0.009999999776482582,-0.01409912109375,-0.00445556640625,1.02386474609375,32.310001373291016,0.0,-1.0,-2.623321533203125,3.52618408203125,Waiting,0.0,0.0,0.0,0.0,0.0,0.0,0.0,0.0,
1.8224160000000011,0.0,0.0,18777.0,0.0,0.0,0.0,0.0,0.125,0.783691326,0.01,0.0,-27616.0,0.0,0.0,-0.0,0.0,0.0,0.48095698200000003,0.01,0.0,25407.0,0.0,0.0,0.0,0.0,0.0,3.3190914570000003,0.01,0.0,-31476.0,0.0,0.0,-0.0,0.0,0.25,1.595458821,0.01,0.0,-0.38999998569488525,-0.6800000071525574,0.009999999776482582,-0.01263427734375,-0.00518798828125,1.02227783203125,32.310001373291016,0.0,0.0,-2.623321533203125,3.52618408203125,Waiting,0.0,0.0,0.0,0.0,0.0,0.0,0.0,0.0,
1.8407210000000014,0.0,0.0,18777.0,0.0,0.0,0.0,0.0,0.125,0.783691326,0.01,0.0,-27616.0,0.0,0.0,-0.0,0.0,0.25,0.482177685,0.01,0.0,25407.0,0.0,0.0,0.0,0.0,0.0,3.3203121600000003,0.01,0.0,-31476.0,0.0,0.0,-0.0,0.0,0.25,1.596679524,0.01,0.0,-0.38999998569488525,-0.6800000071525574,0.009999999776482582,-0.01446533203125,-0.0062255859375,1.01763916015625,32.310001373291016,0.0,-2.0,-2.623321533203125,3.52618408203125,Waiting,0.0,0.0,0.0,0.0,0.0,0.0,0.0,0.0,
1.8608739999999997,0.0,0.0,18777.0,0.0,0.0,0.0,0.0,0.125,0.806884683,0.01,0.0,-27616.0,0.0,0.0,-0.0,0.0,0.0,0.482177685,0.01,0.0,25407.0,0.0,0.0,0.0,0.0,0.0,3.3190914570000003,0.01,0.0,-31476.0,0.0,0.0,-0.0,0.0,0.25,1.595458821,0.01,0.0,-0.38999998569488525,-0.6800000071525574,0.009999999776482582,-0.01263427734375,-0.00518798828125,1.02203369140625,32.310001373291016,0.0,0.0,-2.623321533203125,3.52618408203125,Waiting,0.0,0.0,0.0,0.0,0.0,0.0,0.0,0.0,
1.8795000000000037,0.0,0.0,18777.0,0.0,0.0,0.0,0.0,0.125,0.7885741380000001,0.01,0.0,-27616.0,0.0,0.0,-0.0,0.0,0.0,0.482177685,0.01,0.0,25407.0,0.0,0.0,0.0,0.0,0.0,3.3203121600000003,0.01,0.0,-31476.0,0.0,0.0,-0.0,0.0,0.25,1.596679524,0.01,0.0,-0.38999998569488525,-0.6800000071525574,0.009999999776482582,-0.0120849609375,-0.00848388671875,1.023681640625,32.310001373291016,0.0,0.0,-2.623321533203125,3.52618408203125,Waiting,0.0,0.0,0.0,0.0,0.0,0.0,0.0,0.0,
1.9001990000000042,0.0,0.0,18777.0,0.0,0.0,0.0,0.0,0.25,0.7788085140000001,0.01,0.0,-27616.0,0.0,0.0,-0.0,0.0,0.0,0.482177685,0.01,0.0,25407.0,0.0,0.0,0.0,0.0,0.0,3.3190914570000003,0.01,0.0,-31476.0,0.0,0.0,-0.0,0.0,0.25,1.595458821,0.01,0.0,-0.38999998569488525,-0.6800000071525574,0.009999999776482582,-0.01239013671875,-0.0101318359375,1.0191650390625,32.310001373291016,0.0,0.0,-2.623321533203125,3.52618408203125,Waiting,0.0,0.0,0.0,0.0,0.0,0.0,0.0,0.0,
1.9202310000000034,0.0,0.0,18777.0,0.0,0.0,0.0,0.0,0.25,0.783691326,0.01,0.0012207030000004337,-27616.0,0.0,0.0,-0.0,0.0,0.0,0.482177685,0.01,0.0,25407.0,0.0,0.0,0.0,0.0,0.0,3.3190914570000003,0.01,0.0,-31476.0,0.0,0.0,-0.0,0.0,0.25,1.596679524,0.01,0.0,-0.38999998569488525,-0.6800000071525574,0.009999999776482582,-0.01025390625,-0.0072021484375,1.02197265625,32.310001373291016,0.0,1.0,-2.623321533203125,3.52618408203125,Waiting,0.0,0.0,0.0,0.0,0.0,0.0,0.0,0.0,
1.939806999999997,0.0,0.0,18777.0,0.0,0.0,0.0,0.0,0.25,0.7629393750000001,0.01,0.0012207030000004337,-27616.0,0.0,0.0,-0.0,0.0,0.25,0.482177685,0.01,0.0,25407.0,0.0,0.0,0.0,0.0,0.0,3.3190914570000003,0.01,0.0,-31476.0,0.0,0.0,-0.0,0.0,0.25,1.596679524,0.01,0.0,-0.38999998569488525,-0.6800000071525574,0.009999999776482582,-0.01373291015625,-0.00457763671875,1.0203857421875,32.310001373291016,0.0,-1.0,-2.623321533203125,3.52618408203125,Waiting,0.0,0.0,0.0,0.0,0.0,0.0,0.0,0.0,
1.960994999999999,0.0,0.0,18777.0,0.0,0.0,0.0,0.0,0.125,0.784912029,0.01,0.0,-27616.0,0.0,0.0,-0.0,0.0,0.0,0.48095698200000003,0.01,0.0,25407.0,0.0,0.0,0.0,0.0,0.0,3.3203121600000003,0.01,0.0,-31476.0,0.0,0.0,-0.0,0.0,0.25,1.595458821,0.01,0.0,-0.38999998569488525,-0.6800000071525574,0.009999999776482582,-0.01373291015625,-0.00701904296875,1.0198974609375,32.310001373291016,0.0,-1.0,-2.623321533203125,3.52618408203125,Waiting,0.0,0.0,0.0,0.0,0.0,0.0,0.0,0.0,
1.980191999999999,0.0,0.0,18777.0,0.0,0.0,0.0,0.0,0.125,0.783691326,0.01,0.0,-27616.0,0.0,0.0,-0.0,0.0,0.0,0.482177685,0.01,0.0,25407.0,0.0,0.0,0.0,0.0,0.0,3.3203121600000003,0.01,0.0,-31476.0,0.0,0.0,-0.0,0.0,0.25,1.596679524,0.01,0.0,-0.38999998569488525,-0.6800000071525574,0.009999999776482582,-0.0146484375,-0.00811767578125,1.02471923828125,32.310001373291016,0.0,-2.0,-2.623321533203125,3.52618408203125,Waiting,0.0,0.0,0.0,0.0,0.0,0.0,0.0,0.0,
1.9998220000000038,0.0,0.0,18777.0,0.0,0.0,0.0,0.0,0.125,0.783691326,0.01,0.0,-27616.0,0.0,0.0,-0.0,0.0,0.0,0.482177685,0.01,0.0,25407.0,0.0,0.0,0.0,0.0,0.0,3.3203121600000003,0.01,0.0,-31476.0,0.0,0.0,-0.0,0.0,0.25,1.595458821,0.01,0.0,-0.38999998569488525,-0.6800000071525574,0.009999999776482582,-0.0107421875,-0.006103515625,1.02301025390625,32.310001373291016,0.0,1.0,-2.623321533203125,3.52618408203125,Waiting,0.0,0.0,0.0,0.0,0.0,0.0,0.0,0.0,
2.020235000000004,0.0,0.0,18777.0,0.0,0.0,0.0,0.0,0.125,0.783691326,0.01,0.0,-27616.0,0.0,0.0,-0.0,0.0,0.0,0.48095698200000003,0.01,0.0,25407.0,0.0,0.0,0.0,0.0,0.0,3.3190914570000003,0.01,0.0,-31476.0,0.0,0.0,-0.0,0.0,0.25,1.596679524,0.01,0.0,-0.38999998569488525,-0.6800000071525574,0.009999999776482582,-0.01318359375,-0.00653076171875,1.02166748046875,32.310001373291016,0.0,0.0,-2.623321533203125,3.52618408203125,Waiting,0.0,0.0,0.0,0.0,0.0,0.0,0.0,0.0,
2.039111999999997,0.0,0.0,18777.0,0.0,0.0,0.0,0.0,0.125,0.784912029,0.01,0.0,-27616.0,0.0,0.0,-0.0,0.0,0.0,0.482177685,0.01,0.0,25407.0,0.0,0.0,0.0,0.0,0.0,3.3203121600000003,0.01,0.0,-31476.0,0.0,0.0,-0.0,0.0,0.25,1.596679524,0.01,0.0,-0.38999998569488525,-0.6800000071525574,0.009999999776482582,-0.0106201171875,-0.005126953125,1.02801513671875,32.310001373291016,0.0,1.0,-2.623321533203125,3.52618408203125,Waiting,0.0,0.0,0.0,0.0,0.0,0.0,0.0,0.0,
2.061515000000003,0.0,0.0,18777.0,0.0,0.0,0.0,0.0,0.125,0.783691326,0.01,-0.0012207030000004337,-27616.0,0.0,0.0,-0.0,0.0,0.25,0.483398388,0.01,0.0,25407.0,0.0,0.0,0.0,0.0,0.0,3.3203121600000003,0.01,0.0,-31476.0,0.0,0.0,-0.0,0.0,0.25,1.595458821,0.01,0.0,-0.38999998569488525,-0.6800000071525574,0.009999999776482582,-0.01629638671875,-0.005859375,1.019287109375,32.310001373291016,0.0,-4.0,-2.623321533203125,3.52618408203125,Waiting,0.0,0.0,0.0,0.0,0.0,0.0,0.0,0.0,
2.0797299999999996,0.0,0.0,18777.0,0.0,0.0,0.0,0.0,0.125,0.784912029,0.01,-0.0012207030000004337,-27616.0,0.0,0.0,-0.0,0.0,0.25,0.482177685,0.01,0.0,25407.0,0.0,0.0,0.0,0.0,0.0,3.3190914570000003,0.01,0.0,-31476.0,0.0,0.0,-0.0,0.0,0.25,1.594238118,0.01,0.0,-0.38999998569488525,-0.6800000071525574,0.009999999776482582,-0.01300048828125,-0.0069580078125,1.02105712890625,32.310001373291016,0.0,0.0,-2.623321533203125,3.52618408203125,Waiting,0.0,0.0,0.0,0.0,0.0,0.0,0.0,0.0,
2.0995750000000006,0.0,0.0,18777.0,0.0,0.0,0.0,0.0,0.125,0.783691326,0.01,-0.0012207030000004337,-27616.0,0.0,0.0,-0.0,0.0,0.25,0.482177685,0.01,0.0,25407.0,0.0,0.0,0.0,0.0,0.0,3.3251949720000002,0.01,0.0012207029999995456,-31476.0,0.0,0.0,-0.0,0.0,0.25,1.595458821,0.01,0.0,-0.38999998569488525,-0.6800000071525574,0.009999999776482582,-0.0137939453125,-0.0087890625,1.01800537109375,32.310001373291016,0.0,-1.0,-2.623321533203125,3.52618408203125,Waiting,0.0,0.0,0.0,0.0,0.0,0.0,0.0,0.0,
2.120562000000002,0.0,0.0,18777.0,0.0,0.0,0.0,0.0,0.125,0.783691326,0.01,0.0,-27616.0,0.0,0.0,-0.0,0.0,0.25,0.47973627900000004,0.01,0.0,25407.0,0.0,0.0,0.0,0.0,0.0,3.3215328630000003,0.01,0.0012207029999995456,-31476.0,0.0,0.0,-0.0,0.0,0.25,1.596679524,0.01,0.0,-0.38999998569488525,-0.6800000071525574,0.009999999776482582,-0.01507568359375,-0.00689697265625,1.0216064453125,32.310001373291016,0.0,-2.0,-2.623321533203125,3.52618408203125,Waiting,0.0,0.0,0.0,0.0,0.0,0.0,0.0,0.0,
2.1395779999999975,0.0,0.0,18777.0,0.0,0.0,0.0,0.0,0.125,0.783691326,0.01,0.0,-27616.0,0.0,0.0,-0.0,0.0,0.25,0.482177685,0.01,0.0,25407.0,0.0,0.0,0.0,0.0,0.0,3.3203121600000003,0.01,0.0012207029999995456,-31476.0,0.0,0.0,-0.0,0.0,0.25,1.595458821,0.01,0.0,-0.38999998569488525,-0.6800000071525574,0.0,-0.01171875,-0.0079345703125,1.0257568359375,32.310001373291016,0.0,0.0,-2.623321533203125,3.52618408203125,Waiting,0.0,0.0,0.0,0.0,0.0,0.0,0.0,0.0,
2.160912,0.0,0.0,18777.0,0.0,0.0,0.0,0.0,0.125,0.783691326,0.01,0.0012207030000004337,-27616.0,0.0,0.0,-0.0,0.0,0.0,0.482177685,0.01,0.0,25407.0,0.0,0.0,0.0,0.0,0.0,3.3227535660000003,0.01,0.0,-31476.0,0.0,0.0,-0.0,0.0,0.25,1.595458821,0.01,0.0,-0.38999998569488525,-0.6800000071525574,0.0,-0.010986328125,-0.005126953125,1.02227783203125,32.310001373291016,0.0,1.0,-2.623321533203125,3.52618408203125,Waiting,0.0,0.0,0.0,0.0,0.0,0.0,0.0,0.0,
2.181269000000004,0.0,0.0,18777.0,0.0,0.0,0.0,0.0,0.125,0.783691326,0.01,0.0012207030000004337,-27616.0,0.0,0.0,-0.0,0.0,0.0,0.482177685,0.01,0.0,25407.0,0.0,0.0,0.0,0.0,0.0,3.3203121600000003,0.01,0.0,-31476.0,0.0,0.0,-0.0,0.0,0.25,1.596679524,0.01,0.0,-0.38999998569488525,-0.6800000071525574,0.0,-0.01129150390625,-0.00933837890625,1.015380859375,32.310001373291016,0.0,0.0,-2.623321533203125,3.52618408203125,Waiting,0.0,0.0,0.0,0.0,0.0,0.0,0.0,0.0,
2.199935999999998,0.0,0.0,18777.0,0.0,0.0,0.0,0.0,0.125,0.783691326,0.01,0.0012207030000004337,-27616.0,0.0,0.0,-0.0,0.0,0.0,0.483398388,0.01,0.0,25407.0,0.0,0.0,0.0,0.0,0.0,3.3203121600000003,0.01,0.0,-31476.0,0.0,0.0,-0.0,0.0,0.25,1.595458821,0.01,0.0,-0.38999998569488525,-0.6800000071525574,0.0,-0.0120849609375,-0.00299072265625,1.021484375,32.310001373291016,0.0,0.0,-2.623321533203125,3.52618408203125,Waiting,0.0,0.0,0.0,0.0,0.0,0.0,0.0,0.0,
2.2202760000000015,0.0,0.0,18777.0,0.0,0.0,0.0,0.0,0.125,0.783691326,0.01,-0.0012207030000004337,-27616.0,0.0,0.0,-0.0,0.0,0.25,0.48095698200000003,0.01,0.0,25407.0,0.0,0.0,0.0,0.0,0.0,3.3190914570000003,0.01,0.0,-31476.0,0.0,0.0,-0.0,0.0,0.25,1.595458821,0.01,0.0,-0.38999998569488525,-0.6800000071525574,0.0,-0.013427734375,-0.0062255859375,1.0225830078125,32.310001373291016,0.0,-1.0,-2.623321533203125,3.52618408203125,Waiting,0.0,0.0,0.0,0.0,0.0,0.0,0.0,0.0,
2.240380000000001,0.0,0.0,18777.0,0.0,0.0,0.0,0.0,0.125,0.783691326,0.01,-0.0012207030000004337,-27616.0,0.0,0.0,-0.0,0.0,0.0,0.482177685,0.01,0.0,25407.0,0.0,0.0,0.0,0.0,0.0,3.3190914570000003,0.01,0.0,-31476.0,0.0,0.0,-0.0,0.0,0.25,1.595458821,0.01,0.0,-0.38999998569488525,-0.6800000071525574,0.0,-0.01190185546875,-0.0059814453125,1.02178955078125,32.310001373291016,0.0,0.0,-2.623321533203125,3.52618408203125,Waiting,0.0,0.0,0.0,0.0,0.0,0.0,0.0,0.0,
2.261982,0.0,0.0,18777.0,0.0,0.0,0.0,0.0,0.125,0.783691326,0.01,0.0,-27616.0,0.0,0.0,-0.0,0.0,0.0,0.48095698200000003,0.01,0.0,25407.0,0.0,0.0,0.0,0.0,0.0,3.3190914570000003,0.01,-0.0012207029999995456,-31476.0,0.0,0.0,-0.0,0.0,0.25,1.594238118,0.01,0.0,-0.38999998569488525,-0.6800000071525574,0.0,-0.0120849609375,-0.00787353515625,1.02178955078125,32.31999969482422,0.0,0.0,-2.623321533203125,3.52618408203125,Waiting,0.0,0.0,0.0,0.0,0.0,0.0,0.0,0.0,
2.281805000000004,0.0,0.0,18777.0,0.0,0.0,0.0,0.0,0.25,0.783691326,0.01,0.0,-27616.0,0.0,0.0,-0.0,0.0,0.0,0.482177685,0.01,0.0,25407.0,0.0,0.0,0.0,0.0,0.0,3.3251949720000002,0.01,-0.0012207029999995456,-31476.0,0.0,0.0,-0.0,0.0,0.25,1.595458821,0.01,0.0,-0.3799999952316284,-0.6700000166893005,0.0,-0.0108642578125,-0.00433349609375,1.02056884765625,32.31999969482422,0.0,1.0,-2.623321533203125,3.52618408203125,Waiting,0.0,0.0,0.0,0.0,0.0,0.0,0.0,0.0,
2.299670000000002,0.0,0.0,18777.0,0.0,0.0,0.0,0.0,0.25,0.784912029,0.01,0.0,-27616.0,0.0,0.0,-0.0,0.0,0.0,0.482177685,0.01,0.0,25407.0,0.0,0.0,0.0,0.0,0.0,3.3203121600000003,0.01,-0.0012207029999995456,-31476.0,0.0,0.0,-0.0,0.0,0.25,1.594238118,0.01,0.0,-0.3799999952316284,-0.6700000166893005,0.0,-0.0120849609375,-0.0072021484375,1.02801513671875,32.31999969482422,0.0,0.0,-2.623321533203125,3.52618408203125,Waiting,0.0,0.0,0.0,0.0,0.0,0.0,0.0,0.0,
2.3192650000000032,0.0,0.0,18777.0,0.0,0.0,0.0,0.0,0.25,0.783691326,0.01,0.0012207030000004337,-27616.0,0.0,0.0,-0.0,0.0,0.25,0.483398388,0.01,0.0,25407.0,0.0,0.0,0.0,0.0,0.0,3.3190914570000003,0.01,0.0012207029999995456,-31476.0,0.0,0.0,-0.0,0.0,0.25,1.595458821,0.01,0.0,-0.3799999952316284,-0.6700000166893005,0.0,-0.012451171875,-0.00738525390625,1.0257568359375,32.31999969482422,0.0,0.0,-2.623321533203125,3.52618408203125,Waiting,0.0,0.0,0.0,0.0,0.0,0.0,0.0,0.0,
2.3400240000000014,0.0,0.0,18777.0,0.0,0.0,0.0,0.0,0.125,0.783691326,0.01,0.0012207030000004337,-27616.0,0.0,0.0,-0.0,0.0,0.25,0.483398388,0.01,0.0,25407.0,0.0,0.0,0.0,0.0,0.0,3.3203121600000003,0.01,0.0012207029999995456,-31476.0,0.0,0.0,-0.0,0.0,0.25,1.595458821,0.01,0.0,-0.3799999952316284,-0.6700000166893005,0.0,-0.0113525390625,-0.0096435546875,1.0262451171875,32.31999969482422,0.0,0.0,-2.623321533203125,3.52618408203125,Waiting,0.0,0.0,0.0,0.0,0.0,0.0,0.0,0.0,
2.3619019999999984,0.0,0.0,18777.0,0.0,0.0,-264.56692814826965,0.0,0.125,0.782470623,4.932250999999998,0.0,-27616.0,0.0,0.0,264.56692814826965,0.0,0.25,0.482177685,4.963769999999998,0.0,25407.0,0.125,0.0,-264.56692814826965,0.0,0.0,3.3203121600000003,0.01,0.0,-31476.0,0.125,0.0,264.56692814826965,0.0,0.25,1.594238118,0.01,0.0,-0.3799999952316284,-0.6700000166893005,0.0,-0.01458740234375,-0.00634765625,1.022216796875,32.31999969482422,0.0,-2.0,-2.623321533203125,3.52618408203125,Waiting,0.0,0.0,0.0,0.0,0.0,0.0,0.0,0.0,
2.380744999999999,0.0,0.0,18777.0,0.0,0.0,-727.55908370018,0.0,0.125,0.783691326,4.932250999999998,0.0012207030000004337,-27616.0,0.0,0.0,727.55908370018,0.0,0.125,0.482177685,4.963769999999998,0.0,25407.0,0.125,0.0,-727.55908370018,0.0,0.0,3.3239742690000003,0.01,-0.0012207029999995456,-31476.0,0.5,0.0,727.55908370018,0.0,0.25,1.595458821,0.01,0.0,-0.3799999952316284,-0.6700000166893005,0.0,-0.017333984375,-0.00653076171875,1.02093505859375,32.31999969482422,0.0,-5.0,-2.623321533203125,3.52618408203125,Waiting,0.0,0.0,0.0,0.0,0.0,0.0,0.0,0.0,
2.3994640000000036,0.0,0.0,18777.0,0.375,0.0,-727.55908370018,0.0,0.125,0.782470623,4.932250999999998,-0.0012207030000004337,-27616.0,0.125,0.0,727.55908370018,0.0,0.125,0.482177685,4.963769999999998,0.0,25407.0,0.125,0.0,-727.55908370018,0.0,0.0,3.3251949720000002,0.01,0.004882811999999959,-31476.0,1.25,7.5,727.55908370018,0.0,0.25,1.595458821,0.01,0.0,-0.3799999952316284,-0.6800000071525574,0.0,-0.00677490234375,0.01226806640625,1.0223388671875,32.31999969482422,0.0,5.0,-2.623321533203125,3.52618408203125,Waiting,0.0,0.0,0.0,0.0,0.0,0.0,0.0,0.0,
2.4202109999999992,0.0,0.0,18777.0,0.75,-15.0,-1289.7637903690338,0.0,0.125,0.782470623,4.932250999999998,0.0012207030000004337,-27616.0,0.75,7.5,1289.7637903690338,0.0,0.125,0.482177685,4.963769999999998,0.0012207029999995456,25407.0,0.875,0.0,-1289.7637903690338,0.0,0.0,3.3251949720000002,0.01,0.0,-31459.0,2.25,37.5,1289.7637903690338,0.0,0.25,1.596679524,0.01,-0.0012207030000004337,-0.3799999952316284,-0.6899999976158142,0.0,-0.0166015625,-0.00494384765625,1.02716064453125,32.31999969482422,0.0,-4.0,-2.623321533203125,3.52618408203125,Waiting,0.0,0.0,0.0,0.0,0.0,0.0,0.0,0.0,
2.439746999999999,0.0,0.0,18777.0,2.75,-67.5,-959.0550988912582,0.0,0.125,0.7897948410000001,4.932250999999998,0.0,-27616.0,1.625,45.0,959.0550988912582,0.0,0.125,0.482177685,4.963769999999998,0.0,25407.0,1.75,0.0,-959.0550988912582,0.0,0.0,3.328857081,0.01,0.0,-31459.0,2.25,37.5,959.0550988912582,0.0,0.25,1.596679524,0.01,0.0012207030000004337,-0.3499999940395355,-0.7099999785423279,0.0,-0.81512451171875,-0.15362548828125,1.037841796875,32.31999969482422,0.0,-802.0,-2.623870849609375,3.5260772705078125,Waiting,0.0,0.0,0.0,0.0,0.0,0.0,0.0,0.0,
2.4621859999999978,0.0,0.0,18748.0,3.375,-135.0,-429.92127388715744,0.0,0.125,0.7653807810000001,4.932250999999998,0.0,-27584.0,3.625,112.5,429.92127388715744,0.0,0.0,0.48095698200000003,4.963769999999998,0.0,25403.0,3.625,-7.5,-429.92127388715744,0.0,0.0,3.339843408,0.01,0.0,-31459.0,3.375,105.0,429.92127388715744,0.0,0.25,1.596679524,0.01,0.0,-0.4099999964237213,-1.1799999475479126,0.0,-0.4169921875,0.14251708984375,1.41680908203125,32.31999969482422,0.0,-387.0,-2.6252288818359375,3.5259857177734375,Waiting,0.0,0.0,0.0,0.0,0.0,0.0,0.0,0.0,
2.4802069999999987,0.0,0.0,18748.0,3.0,-187.5,-115.74803106486797,0.0,0.125,0.7885741380000001,4.932250999999998,-0.0012207029999995456,-27584.0,4.5,180.0,115.74803106486797,0.0,0.0,0.482177685,4.963769999999998,-0.0012207029999995456,25403.0,3.375,-15.0,-115.74803106486797,0.0,0.0,3.338622705,0.01,0.003662108999999525,-31459.0,3.125,157.5,115.74803106486797,0.0,0.25,1.596679524,0.01,0.0,-0.38999998569488525,-1.3700000047683716,-0.009999999776482582,-0.09429931640625,0.06890869140625,1.07952880859375,32.31999969482422,0.0,-68.0,-2.62689208984375,3.5260467529296875,Waiting,0.0,0.0,0.0,0.0,0.0,0.0,0.0,0.0,
2.501062000000002,0.0,0.0,18748.0,1.5,-210.0,0.0,0.0,0.125,0.7885741380000001,4.932250999999998,-0.0012207029999995456,-27584.0,3.875,225.0,0.0,0.0,0.0,0.482177685,4.963769999999998,-0.0012207029999995456,25403.0,3.0,-30.0,0.0,0.0,0.0,3.34472622,0.01,0.0012207030000004337,-31459.0,1.0,187.5,0.0,0.0,0.25,1.596679524,0.01,0.0,-0.3799999952316284,-0.9700000286102295,-0.009999999776482582,-0.192138671875,0.2099609375,1.146484375,32.31999969482422,0.0,-172.0,-2.6302642822265625,3.5262603759765625,Waiting,0.0,0.0,0.0,0.0,0.0,0.0,0.0,0.0,
2.520626,0.0,0.0,18748.0,0.25,-195.0,0.0,0.0,0.125,0.7897948410000001,4.932250999999998,0.0012207029999995456,-27584.0,2.0,225.0,0.0,0.0,0.125,0.482177685,4.963769999999998,0.0,25403.0,1.0,-45.0,0.0,0.0,0.0,3.343505517,0.01,0.0012207030000004337,-31459.0,1.0,187.5,0.0,0.0,0.25,1.596679524,0.01,0.0,-0.4000000059604645,-1.2899999618530273,0.0,0.13720703125,-0.0740966796875,1.40484619140625,32.31999969482422,0.0,168.0,-2.631988525390625,3.5265045166015625,Waiting,0.0,0.0,0.0,0.0,0.0,0.0,0.0,0.0,
2.539946,0.0,0.0,18748.0,0.0,-142.5,0.0,0.0,0.125,0.7885741380000001,4.932250999999998,0.0012207029999995456,-27584.0,0.25,180.0,0.0,0.0,0.125,0.482177685,4.963769999999998,0.0,25403.0,0.25,-52.5,0.0,0.0,0.0,3.348388329,0.01,0.0012207030000004337,-31448.0,0.125,150.0,0.0,0.0,0.25,1.595458821,0.01,0.0,-0.41999998688697815,-0.8199999928474426,0.0,0.17803955078125,-0.037109375,0.77362060546875,32.31999969482422,0.0,189.0,-2.63525390625,3.5272064208984375,Waiting,0.0,0.0,0.0,0.0,0.0,0.0,0.0,0.0,
2.5625750000000007,0.0,0.0,18748.0,0.0,-75.0,0.0,0.0,0.125,0.787353435,4.932250999999998,0.0,-27584.0,0.0,112.5,0.0,0.0,0.125,0.482177685,4.963769999999998,0.0,25403.0,0.0,-52.5,0.0,0.0,0.0,3.348388329,0.01,0.009765623999999917,-31448.0,0.0,82.5,0.0,0.0,0.25,1.595458821,0.01,0.0,-0.4099999964237213,-0.8500000238418579,-0.009999999776482582,0.061279296875,0.016357421875,0.87884521484375,32.31999969482422,0.0,74.0,-2.6366729736328125,3.5275726318359375,Waiting,0.0,0.0,0.0,0.0,0.0,0.0,0.0,0.0,
2.5804830000000036,0.0,0.0,18746.0,0.0,-75.0,0.0,0.0,0.125,0.7885741380000001,4.932250999999998,0.0,-27583.0,0.0,45.0,0.0,0.0,0.125,0.483398388,4.963769999999998,0.0,25397.0,0.0,-45.0,0.0,0.0,0.0,3.348388329,0.01,0.009765623999999917,-31448.0,0.0,30.0,0.0,0.0,0.25,1.595458821,0.01,0.0,-0.38999998569488525,-0.9900000095367432,-0.029999999329447746,-0.018798828125,0.01263427734375,1.3818359375,32.31999969482422,0.0,5.0,-2.6380462646484375,3.527984619140625,Waiting,0.0,0.0,0.0,0.0,0.0,0.0,0.0,0.0,
2.600091000000004,0.0,0.0,18746.0,0.0,-30.0,0.0,0.0,0.125,0.7885741380000001,4.932250999999998,0.0,-27583.0,0.0,7.5,0.0,0.0,0.125,0.48095698200000003,4.963769999999998,0.0,25397.0,0.0,-30.0,0.0,0.0,0.0,3.349609032,0.01,0.0,-31448.0,0.0,7.5,0.0,0.0,0.25,1.595458821,0.01,0.0,-0.3700000047683716,-0.8799999952316284,-0.09000000357627869,0.04046630859375,0.0438232421875,1.09149169921875,32.31999969482422,0.0,57.0,-2.64056396484375,3.5287017822265625,Waiting,0.0,0.0,0.0,0.0,0.0,0.0,0.0,0.0,
2.620530999999999,0.0,0.0,18746.0,0.0,-7.5,0.0,0.0,0.125,0.7885741380000001,4.932250999999998,0.0012207030000004337,-27583.0,0.0,0.0,0.0,0.0,0.125,0.482177685,4.963769999999998,0.0,25397.0,0.0,-15.0,0.0,0.0,0.0,3.348388329,0.01,0.0,-31448.0,0.0,0.0,0.0,0.0,0.25,1.595458821,0.01,0.0,-0.38999998569488525,-0.7599999904632568,-0.10999999940395355,0.07611083984375,0.0172119140625,0.7685546875,32.31999969482422,0.0,86.0,-2.641693115234375,3.5290985107421875,Waiting,0.0,0.0,0.0,0.0,0.0,0.0,0.0,0.0,
2.640473000000002,0.0,0.0,18746.0,0.0,0.0,0.0,0.0,0.125,0.7885741380000001,4.932250999999998,0.0012207030000004337,-27583.0,0.0,0.0,0.0,0.0,0.125,0.482177685,4.963769999999998,0.0,25397.0,0.0,-7.5,0.0,0.0,0.0,3.348388329,0.01,0.0,-31448.0,0.0,0.0,0.0,0.0,0.25,1.595458821,0.01,0.0,-0.36000001430511475,-0.6700000166893005,-0.11999999731779099,0.06060791015625,-0.056640625,0.82177734375,32.31999969482422,0.0,70.0,-2.6427001953125,3.52947998046875,Waiting,0.0,0.0,0.0,0.0,0.0,0.0,0.0,0.0,
2.6639940000000024,0.0,0.0,18746.0,0.0,0.0,0.0,0.0,0.125,0.7885741380000001,4.932250999999998,0.0,-27583.0,0.0,0.0,0.0,0.0,0.125,0.482177685,4.963769999999998,0.0,25397.0,0.0,0.0,0.0,0.0,0.0,3.349609032,0.01,-0.0012207030000004337,-31448.0,0.0,0.0,0.0,0.0,0.25,1.595458821,0.01,0.0,-0.36000001430511475,-0.7300000190734863,-0.10999999940395355,0.0087890625,-0.0499267578125,1.2315673828125,32.31999969482422,0.0,24.0,-2.6445159912109375,3.53021240234375,Waiting,0.0,0.0,0.0,0.0,0.0,0.0,0.0,0.0,
2.680196,0.0,0.0,18746.0,0.0,0.0,0.0,0.0,0.125,0.7885741380000001,4.932250999999998,0.0,-27583.0,0.0,0.0,0.0,0.0,0.125,0.482177685,4.963769999999998,0.0,25397.0,0.0,0.0,0.0,0.0,0.0,3.348388329,0.01,-0.0012207030000004337,-31448.0,0.0,0.0,0.0,0.0,0.25,1.596679524,0.01,0.0,-0.3799999952316284,-0.6499999761581421,-0.09000000357627869,0.033935546875,-0.027099609375,0.9547119140625,32.31999969482422,0.0,44.0,-2.645355224609375,3.5305328369140625,Waiting,0.0,0.0,0.0,0.0,0.0,0.0,0.0,0.0,
2.701011000000002,0.0,0.0,18746.0,0.0,0.0,0.0,0.0,0.125,0.7885741380000001,4.932250999999998,0.0,-27583.0,0.0,0.0,0.0,0.0,0.125,0.482177685,4.963769999999998,0.0,25397.0,0.0,0.0,0.0,0.0,0.0,3.348388329,0.01,-0.0012207030000004337,-31448.0,0.0,0.0,0.0,0.0,0.25,1.595458821,0.01,0.0,-0.4000000059604645,-0.5199999809265137,-0.05999999865889549,0.0865478515625,0.0040283203125,0.818115234375,32.31999969482422,0.0,94.0,-2.6461029052734375,3.530853271484375,Waiting,0.0,0.0,0.0,0.0,0.0,0.0,0.0,0.0,
2.7204149999999974,0.0,0.0,18746.0,0.0,0.0,0.0,0.0,0.125,0.7885741380000001,4.932250999999998,0.0,-27583.0,0.0,0.0,0.0,0.0,0.125,0.482177685,4.963769999999998,0.0,25397.0,0.0,0.0,0.0,0.0,0.0,3.348388329,0.01,0.0012207030000004337,-31448.0,0.0,0.0,0.0,0.0,0.25,1.595458821,0.01,0.0,-0.4000000059604645,-0.5600000023841858,-0.03999999910593033,0.01495361328125,-0.0302734375,1.1363525390625,32.31999969482422,0.0,26.0,-2.64739990234375,3.531494140625,Waiting,0.0,0.0,0.0,0.0,0.0,0.0,0.0,0.0,
2.7399739999999984,0.0,0.0,18746.0,0.0,0.0,0.0,0.0,0.125,0.7885741380000001,4.932250999999998,0.0,-27583.0,0.0,0.0,0.0,0.0,0.0,0.482177685,4.963769999999998,0.0,25397.0,0.0,0.0,0.0,0.0,0.0,3.349609032,0.01,0.0012207030000004337,-31448.0,0.0,0.0,0.0,0.0,0.25,1.595458821,0.01,0.0,-0.4000000059604645,-0.5199999809265137,-0.05000000074505806,0.0260009765625,0.0054931640625,1.1217041015625,32.31999969482422,0.0,36.0,-2.647979736328125,3.5317840576171875,Waiting,0.0,0.0,0.0,0.0,0.0,0.0,0.0,0.0,
2.7616309999999977,0.0,0.0,18746.0,0.0,0.0,0.0,0.0,0.125,0.787353435,4.932250999999998,0.0,-27583.0,0.0,0.0,0.0,0.0,0.0,0.482177685,4.963769999999998,0.0,25397.0,0.0,0.0,0.0,0.0,0.0,3.349609032,0.01,0.0,-31448.0,0.0,0.0,0.0,0.0,0.25,1.596679524,0.01,0.0,-0.4000000059604645,-0.49000000953674316,-0.05000000074505806,-0.0023193359375,-6.103515625E-4,0.93365478515625,32.31999969482422,0.0,5.0,-2.6485443115234375,3.5321044921875,Waiting,0.0,0.0,0.0,0.0,0.0,0.0,0.0,0.0,
2.7799989999999997,0.0,0.0,18746.0,0.0,0.0,0.0,0.0,0.125,0.7885741380000001,4.932250999999998,0.0,-27583.0,0.0,0.0,0.0,0.0,0.0,0.48095698200000003,4.963769999999998,0.0,25397.0,0.0,0.0,0.0,0.0,0.0,3.348388329,0.01,0.0,-31448.0,0.0,0.0,0.0,0.0,0.25,1.596679524,0.01,0.0,-0.3700000047683716,-0.4699999988079071,-0.07000000029802322,-0.006103515625,0.01226806640625,1.09405517578125,32.31999969482422,0.0,2.0,-2.649566650390625,3.532806396484375,Waiting,0.0,0.0,0.0,0.0,0.0,0.0,0.0,0.0,
2.800249,0.0,0.0,18746.0,0.0,0.0,0.0,0.0,0.125,0.7885741380000001,4.932250999999998,0.0,-27583.0,0.0,0.0,0.0,0.0,0.0,0.482177685,4.963769999999998,0.0,25397.0,0.0,0.0,0.0,0.0,0.0,3.348388329,0.01,0.0,-31448.0,0.0,0.0,0.0,0.0,0.25,1.595458821,0.01,0.0,-0.3700000047683716,-0.49000000953674316,-0.07000000029802322,-0.006591796875,-0.01513671875,1.117919921875,32.31999969482422,0.0,3.0,-2.650054931640625,3.5331878662109375,Waiting,0.0,0.0,0.0,0.0,0.0,0.0,0.0,0.0,
2.820019000000004,0.0,0.0,18746.0,0.0,0.0,0.0,0.0,0.125,0.7885741380000001,4.932250999999998,-0.0012207030000004337,-27583.0,0.0,0.0,0.0,0.0,0.0,0.482177685,4.963769999999998,0.0,25397.0,0.0,0.0,0.0,0.0,0.0,3.349609032,0.01,-0.0012207030000004337,-31448.0,0.0,0.0,0.0,0.0,0.25,1.596679524,0.01,0.0,-0.3700000047683716,-0.46000000834465027,-0.07000000029802322,0.00433349609375,-0.00701904296875,1.0223388671875,32.31999969482422,0.0,12.0,-2.650054931640625,3.5331878662109375,Waiting,0.0,0.0,0.0,0.0,0.0,0.0,0.0,0.0,
2.840382999999998,0.0,0.0,18746.0,0.0,0.0,0.0,0.0,0.125,0.787353435,4.932250999999998,-0.0012207030000004337,-27583.0,0.0,0.0,0.0,0.0,0.0,0.482177685,4.963769999999998,0.0,25397.0,0.0,0.0,0.0,0.0,0.0,3.348388329,0.01,-0.0012207030000004337,-31448.0,0.0,0.0,0.0,0.0,0.25,1.595458821,0.01,0.0,-0.3799999952316284,-0.4300000071525574,-0.05999999865889549,0.00665283203125,-0.0247802734375,0.994384765625,32.31999969482422,0.0,14.0,-2.650054931640625,3.5331878662109375,Waiting,0.0,0.0,0.0,0.0,0.0,0.0,0.0,0.0,
2.8626020000000025,0.0,0.0,18746.0,0.0,0.0,0.0,0.0,0.125,0.7897948410000001,4.932250999999998,0.0012207030000004337,-27583.0,0.0,0.0,0.0,0.0,0.0,0.48095698200000003,4.963769999999998,0.0,25397.0,0.0,0.0,0.0,0.0,0.0,3.348388329,0.01,0.0012207030000004337,-31448.0,0.0,0.0,0.0,0.0,0.25,1.596679524,0.01,0.0,-0.3799999952316284,-0.4300000071525574,-0.05999999865889549,0.00665283203125,-0.0247802734375,0.994384765625,32.31999969482422,0.0,14.0,-2.650054931640625,3.5331878662109375,Waiting,0.0,0.0,0.0,0.0,0.0,0.0,0.0,0.0,
2.8841150000000018,0.0,0.0,18746.0,0.0,0.0,0.0,0.0,0.125,0.7885741380000001,4.932250999999998,0.0012207030000004337,-27583.0,0.0,0.0,0.0,0.0,0.0,0.48095698200000003,4.963769999999998,0.0,25397.0,0.0,0.0,0.0,0.0,0.0,3.348388329,0.01,0.0012207030000004337,-31448.0,0.0,0.0,0.0,0.0,0.25,1.595458821,0.01,0.0,-0.4000000059604645,-0.46000000834465027,-0.029999999329447746,-0.01617431640625,-0.014892578125,1.05596923828125,32.31999969482422,0.0,-7.0,-2.650054931640625,3.5331878662109375,Waiting,0.0,0.0,0.0,0.0,0.0,0.0,0.0,0.0,
2.9040200000000005,0.0,0.0,18746.0,0.0,0.0,-132.28346407413483,0.0,0.125,0.7885741380000001,4.931839979092523,-0.0012207030000004337,-27583.0,0.0,0.0,132.28346407413483,0.0,0.0,0.482177685,4.963356352509249,0.0,25397.0,0.125,0.0,-132.28346407413483,0.0,0.0,3.348388329,4.939988300009205,0.0,-31448.0,0.125,0.0,132.28346407413483,0.0,0.25,1.595458821,4.957586833342571,0.0,-0.4099999964237213,-0.44999998807907104,-0.009999999776482582,-0.0137939453125,-0.001708984375,0.9815673828125,32.31999969482422,0.0,-6.0,-2.650054931640625,3.5331878662109375,Waiting,0.0,0.0,0.0,0.0,0.0,0.0,0.0,0.0,
2.9251380000000027,0.0,0.0,18746.0,0.0,0.0,-297.6378098130226,0.0,0.125,0.7897948410000001,4.932113993030843,0.0012207030000004337,-27583.0,0.0,0.0,297.6378098130226,0.0,0.0,0.483398388,4.963632117503084,0.0,25397.0,0.125,0.0,-297.6378098130226,0.0,0.0,3.348388329,4.940262766669736,0.0,-31448.0,0.125,0.0,297.6378098130226,0.0,0.25,1.595458821,4.957862277780858,0.0,-0.4099999964237213,-0.44999998807907104,0.0,-0.015625,-0.01080322265625,0.97100830078125,32.31999969482422,0.0,-7.0,-2.650054931640625,3.5331878662109375,Waiting,0.0,0.0,0.0,0.0,0.0,0.0,0.0,0.0,
2.9434989999999996,0.0,0.0,18746.0,0.0,0.0,-396.8503922224045,0.0,0.125,0.783691326,0.01,0.0,-27583.0,0.0,0.0,396.8503922224045,0.0,0.0,0.482177685,0.01,0.0,25399.0,0.125,0.0,-396.8503922224045,0.0,0.0,3.348388329,0.01,-0.0012207030000004337,-31448.0,0.125,0.0,396.8503922224045,0.0,0.25,1.595458821,0.01,0.0,-0.4000000059604645,-0.49000000953674316,0.019999999552965164,-0.033447265625,0.01702880859375,1.06256103515625,32.31999969482422,0.0,-24.0,-2.65008544921875,3.533203125,Waiting,0.0,0.0,0.0,0.0,0.0,0.0,0.0,0.0,
2.964753999999997,0.0,0.0,18746.0,0.125,0.0,-479.52754944562906,0.0,0.125,0.7885741380000001,0.01,0.0,-27583.0,0.125,0.0,479.52754944562906,0.0,0.125,0.482177685,0.01,0.0,25399.0,0.125,7.5,-479.52754944562906,0.0,0.0,3.348388329,0.01,0.0,-31448.0,0.125,0.0,479.52754944562906,0.0,0.25,1.595458821,0.01,0.0,-0.4000000059604645,-0.5099999904632568,0.019999999552965164,-0.0516357421875,-0.0103759765625,1.0234375,32.31999969482422,0.0,-42.0,-2.650146484375,3.5332489013671875,Waiting,0.0,0.0,0.0,0.0,0.0,0.0,0.0,0.0,
