Time,ClimberA1,ClimberA2,FRpos,FRCurrent,FRspeed,FRsetpoint,FRApos,FRACurrent,FREncpos,FREncSetpoint,FREncSpeed,FLpos,FLCurrent,FLspeed,FLsetpoint,FLApos,FLACurrent,FLEncpos,FLEncSetpoint,FLEncSpeed,BRpos,BRCurrent,BRspeed,BRsetpoint,BRApos,BRACurrent,BREncpos,BREncSetpoint,BREncSpeed,BLpos,BLCurrent,BLspeed,BLsetpoint,BLApos,BLACurrent,BLEncpos,BLEncSetpoint,BLEncSpeed,navx_Pitch,navx_Roll,navx_Yaw,navx_XAcc,navx_YAcc,navx_ZAcc,navx_Temp,navx_Bar,navx_Alt,navx_XDis,navx_YDis,GearPlacerState,ShootOutputV,ShootOutputCurrent,ShootEncPos,ShootEncVelocity,ShootSpeed,ShootSetpoint,CarouselSetpoint,CarouselCurrent,
0.3572700000000041,0.0,0.0,-800.0,6.5,870.0,1192.2608459334956,0.0,0.125,0.9887694300000001,0.17980082248279586,0.0,6881.0,2.375,-427.5,-585.2470207134297,0.0,0.125,0.96435537,0.37988671008679814,0.0,350.0,12.375,705.0,1192.2608459334956,0.0,0.0,3.1604000670000003,4.760302112971541,0.0,7899.0,1.375,-360.0,-585.2470207134297,0.0,0.125,1.260986199,4.578554878930662,0.0,0.38999998569488525,1.7200000286102295,-52.540000915527344,0.09375,0.044189453125,0.9844970703125,37.220001220703125,0.0,9.0,-1.470672607421875,-0.2643280029296875,Waiting,0.0,0.0,-1.0,0.0,0.0,0.0,0.0,0.0,
0.4276039999999994,0.0,0.0,-649.0,2.375,1012.5,0.0,0.0,0.25,0.9985350540000001,0.01,-0.004882811999999959,6800.0,0.75,-495.0,-0.0,0.0,0.125,0.9484862310000001,0.01,0.052490229,500.0,4.5,922.5,0.0,0.0,0.0,3.1689449880000002,0.01,-0.004882811999999959,7830.0,0.5,-427.5,-0.0,0.0,0.25,1.276855338,0.01,0.030517575000001074,0.36000001430511475,1.8700000047683716,-56.290000915527344,-0.070068359375,-0.00927734375,1.12255859375,37.220001220703125,0.0,-45.0,-1.4654388427734375,-0.23858642578125,Closing,0.0,0.0,-1.0,0.0,0.0,0.0,0.0,0.0,
0.4956360000000059,0.0,0.0,-509.0,0.125,892.5,0.0,0.0,0.375,0.9460448250000001,0.01,0.003662108999999969,6800.0,0.0,-337.5,-0.0,0.0,1.5,0.758056563,0.01,-0.06713866499999988,500.0,0.375,952.5,0.0,0.0,0.25,3.242187168,0.01,0.024414059999999793,7830.0,0.125,-315.0,-0.0,0.0,1.0,1.418456886,0.01,0.017089841999998967,0.3100000023841858,1.340000033378601,-58.099998474121094,-0.1202392578125,0.177001953125,1.5577392578125,37.220001220703125,0.0,-225.0,-1.467376708984375,-0.2269439697265625,Closing,0.0,0.0,-1.0,0.0,0.0,0.0,0.0,0.0,
0.5460169999999999,0.0,0.0,-509.0,0.0,817.5,0.0,0.0,0.25,0.8801268630000001,0.01,-0.06103514999999993,6763.0,0.0,-232.5,-0.0,0.0,0.25,0.603027282,0.01,-0.1794433409999998,633.0,0.125,825.0,0.0,0.0,0.125,3.298339506,0.01,0.07202147699999983,7782.0,0.125,-307.5,-0.0,0.0,0.375,1.5576170280000001,0.01,0.145263657000001,-0.2800000011920929,-0.07000000029802322,-59.97999954223633,-0.69207763671875,0.00543212890625,0.98358154296875,37.220001220703125,0.0,-354.0,-1.47265625,-0.2198333740234375,Closing,0.0,0.0,-1.0,0.0,0.0,0.0,0.0,0.0,
0.6047669999999998,0.0,0.0,-441.0,0.0,622.5,0.0,0.0,0.25,0.860595615,0.01,-0.05615233800000008,6763.0,0.0,-225.0,-0.0,0.0,0.25,0.533447211,0.01,-0.12329100300000029,633.0,0.125,705.0,0.0,0.0,0.125,3.3105465360000004,0.01,0.0402831990000001,7782.0,0.125,-187.5,-0.0,0.0,0.375,1.624755693,0.01,0.13671873599999973,0.23999999463558197,-1.0700000524520874,-60.380001068115234,-0.1046142578125,0.34881591796875,0.52789306640625,37.220001220703125,0.0,-348.0,-1.483612060546875,-0.22357177734375,Closing,0.0,0.0,-1.0,0.0,0.0,0.0,0.0,0.0,
0.6538470000000016,0.0,0.0,-441.0,0.125,0.0,0.0,0.0,0.25,0.860595615,0.01,-0.014648435999999987,6758.0,0.0,-52.5,-0.0,0.0,0.25,0.52490229,0.01,-0.05737304099999996,699.0,0.125,375.0,0.0,0.0,0.0,3.333739893,0.01,0.01831054500000029,7776.0,0.375,-22.5,-0.0,0.0,0.125,1.646728347,0.01,0.06347655600000035,0.3400000035762787,-1.2699999809265137,-59.599998474121094,0.12646484375,-0.1282958984375,1.28570556640625,37.220001220703125,0.0,195.0,-1.501678466796875,-0.23004150390625,Closing,0.0,0.0,-1.0,0.0,0.0,0.0,0.0,0.0,
0.7145640000000058,0.0,0.0,-461.0,1.375,-142.5,0.0,0.0,0.25,0.860595615,0.01,0.0,6758.0,0.375,7.5,-0.0,0.0,0.125,0.526122993,0.01,-0.009765623999999917,699.0,0.125,202.5,0.0,0.0,0.0,3.343505517,0.01,0.019531247999999835,7776.0,0.375,-7.5,-0.0,0.0,0.125,1.644286941,0.01,-4.943351564,0.25,-0.699999988079071,-59.5099983215332,0.10760498046875,0.09466552734375,1.18231201171875,37.18000030517578,0.0,-15.0,-1.512359619140625,-0.233184814453125,Closing,0.0,0.0,-1.0,0.0,0.0,0.0,0.0,0.0,
0.7745410000000047,0.0,0.0,-461.0,1.25,-60.0,0.0,0.0,0.25,0.861816318,0.01,-0.0012207029999999897,6757.0,0.375,0.0,-0.0,0.0,0.125,0.52490229,0.01,0.0,705.0,0.375,37.5,0.0,0.0,0.0,3.342284814,0.01,0.009765623999999917,7775.0,0.375,0.0,-0.0,0.0,0.25,1.643066238,0.01,0.0024414059999999793,0.30000001192092896,-0.6499999761581421,-59.720001220703125,-0.10296630859375,-0.01739501953125,1.2291259765625,37.18000030517578,0.0,-24.0,-1.512176513671875,-0.2343292236328125,Closing,0.0,0.0,-1.0,0.0,0.0,0.0,0.0,0.0,
0.831961000000003,0.0,0.0,-461.0,0.875,7.5,0.0,0.0,0.25,0.860595615,0.01,0.0,6757.0,0.25,-7.5,-0.0,0.0,0.125,0.52490229,0.01,0.0,705.0,0.75,22.5,0.0,0.0,0.0,3.343505517,0.01,0.0,7775.0,0.375,0.0,-0.0,0.0,0.25,1.644286941,0.01,-0.0012207029999999897,0.28999999165534973,-0.7099999785423279,-59.779998779296875,-0.08135986328125,0.00390625,0.89422607421875,37.18000030517578,0.0,-34.0,-1.5121917724609375,-0.235382080078125,Closing,0.0,0.0,-1.0,0.0,0.0,0.0,0.0,0.0,
0.8726480000000011,0.0,0.0,-455.0,0.875,37.5,0.0,0.0,0.25,0.8569335060000001,0.01,0.0,6757.0,0.25,-7.5,-0.0,0.0,0.125,0.526122993,0.01,0.0,705.0,0.875,37.5,0.0,0.0,0.0,3.341064111,0.01,0.0,7775.0,0.375,0.0,-0.0,0.0,0.25,1.644286941,0.01,0.0012207029999999897,0.3199999928474426,-0.8399999737739563,-59.75,-0.00164794921875,0.00634765625,0.99578857421875,37.18000030517578,0.0,5.0,-1.5126800537109375,-0.2374114990234375,Closing,0.0,0.0,-1.0,0.0,0.0,0.0,0.0,0.0,
0.9133970000000045,0.0,0.0,-455.0,0.875,7.5,0.0,0.0,0.25,0.850829991,0.01,-0.008544921000000039,6756.0,0.25,0.0,-0.0,0.0,0.125,0.526122993,0.01,0.0,710.0,0.875,15.0,0.0,0.0,0.0,3.34472622,0.01,0.0,7775.0,0.375,0.0,-0.0,0.0,0.125,1.645507644,0.01,-0.0024414059999999793,0.25999999046325684,-0.7099999785423279,-59.720001220703125,0.0423583984375,-0.0216064453125,0.99261474609375,37.18000030517578,0.0,50.0,-1.5129852294921875,-0.2399139404296875,Closing,0.0,0.0,-1.0,0.0,0.0,0.0,0.0,0.0,
0.973711000000003,0.0,0.0,-455.0,1.0,0.0,0.0,0.0,0.25,0.850829991,0.01,-0.0012207029999999897,6756.0,0.25,0.0,-0.0,0.0,0.125,0.5285643990000001,0.01,0.0,710.0,0.875,0.0,0.0,0.0,0.0,3.34472622,0.01,0.0,7775.0,0.375,0.0,-0.0,0.0,0.25,1.644286941,0.01,0.0012207029999999897,0.28999999165534973,-0.7099999785423279,-59.75,-0.0306396484375,0.00830078125,1.00732421875,37.18000030517578,0.0,-11.0,-1.5128936767578125,-0.2409820556640625,Closing,0.0,0.0,-1.0,0.0,0.0,0.0,0.0,0.0,
1.026918000000005,0.0,0.0,-455.0,1.0,0.0,0.0,0.0,0.25,0.852050694,0.01,0.0012207029999999897,6756.0,0.375,0.0,-0.0,0.0,0.125,0.52490229,0.01,0.0,711.0,0.875,0.0,0.0,0.0,0.0,3.343505517,0.01,0.0,7775.0,0.375,0.0,-0.0,0.0,0.25,1.649169753,0.01,-0.0012207029999999897,0.28999999165534973,-0.75,-59.7400016784668,-0.01495361328125,-0.0040283203125,1.02972412109375,37.18000030517578,0.0,7.0,-1.5128936767578125,-0.241058349609375,Closing,0.0,0.0,-1.0,0.0,0.0,0.0,0.0,0.0,
1.0655720000000002,0.0,0.0,-455.0,1.0,0.0,0.0,0.0,0.25,0.850829991,0.01,0.0012207029999999897,6756.0,0.375,0.0,-0.0,0.0,0.125,0.526122993,0.01,0.0,711.0,1.0,7.5,0.0,0.0,0.0,3.343505517,0.01,0.0,7775.0,0.625,0.0,-0.0,0.0,0.125,1.644286941,0.01,0.0,0.27000001072883606,-0.699999988079071,-59.72999954223633,0.011962890625,0.00286865234375,1.01080322265625,37.18000030517578,0.0,13.0,-1.5128173828125,-0.241058349609375,Closing,0.0,0.0,-1.0,0.0,0.0,0.0,0.0,0.0,
1.1099270000000032,0.0,0.0,-455.0,1.0,0.0,0.0,0.0,0.25,0.852050694,0.01,0.0,6756.0,0.375,0.0,-0.0,0.0,0.125,0.526122993,0.01,0.0,711.0,0.875,0.0,0.0,0.0,0.0,3.34472622,0.01,0.0,7775.0,0.375,0.0,-0.0,0.0,0.125,1.644286941,0.01,0.0,0.2800000011920929,-0.699999988079071,-59.75,-0.01580810546875,0.01171875,1.023193359375,37.18000030517578,0.0,-7.0,-1.51275634765625,-0.2410125732421875,Closing,0.0,0.0,-1.0,0.0,0.0,0.0,0.0,0.0,
1.169237000000001,0.0,0.0,-455.0,1.0,0.0,0.0,0.0,0.25,0.848388585,0.01,0.0,6756.0,0.375,0.0,-0.0,0.0,0.125,0.527343696,0.01,0.0,711.0,1.0,0.0,0.0,0.0,0.0,3.343505517,0.01,0.0,7775.0,0.375,0.0,-0.0,0.0,0.125,1.643066238,0.01,0.0,0.27000001072883606,-0.6700000166893005,-59.7400016784668,-7.32421875E-4,0.00299072265625,1.01861572265625,37.18000030517578,0.0,7.0,-1.51275634765625,-0.2410125732421875,Closing,0.0,0.0,-1.0,0.0,0.0,0.0,0.0,0.0,
1.2248150000000024,0.0,0.0,-455.0,1.0,0.0,0.0,0.0,0.25,0.8544921000000001,0.01,0.0012207029999999897,6756.0,0.375,0.0,-0.0,0.0,0.125,0.526122993,0.01,0.0,711.0,1.0,0.0,0.0,0.0,0.0,3.343505517,0.01,0.0,7775.0,0.375,0.0,-0.0,0.0,0.25,1.644286941,0.01,0.0012207029999999897,0.27000001072883606,-0.6700000166893005,-59.75,-0.01971435546875,4.2724609375E-4,1.01751708984375,37.18000030517578,0.0,0.0,-1.51275634765625,-0.2410125732421875,Closing,0.0,0.0,-1.0,0.0,0.0,0.0,0.0,0.0,
1.2598210000000036,0.0,0.0,-455.0,1.0,0.0,0.0,0.0,0.25,0.850829991,0.01,0.0,6756.0,0.375,0.0,-0.0,0.0,0.125,0.5175780720000001,0.01,0.0,711.0,1.0,0.0,0.0,0.0,0.0,3.34472622,0.01,0.0,7775.0,0.625,0.0,-0.0,0.0,0.25,1.644286941,0.01,0.0012207029999999897,0.27000001072883606,-0.6700000166893005,-59.75,0.00201416015625,0.01171875,1.00213623046875,37.15999984741211,0.0,1.0,-1.51275634765625,-0.2410125732421875,Closing,0.0,0.0,-1.0,0.0,0.0,0.0,0.0,0.0,
1.3082680000000038,0.0,0.0,-455.0,1.0,0.0,0.0,0.0,0.25,0.850829991,0.01,0.0,6756.0,0.375,0.0,-0.0,0.0,0.125,0.527343696,0.01,0.0,711.0,1.0,0.0,0.0,0.0,0.0,3.343505517,0.01,0.0,7775.0,0.625,0.0,-0.0,0.0,0.25,1.644286941,0.01,0.0,0.27000001072883606,-0.6499999761581421,-59.7400016784668,-0.00714111328125,7.9345703125E-4,1.036865234375,37.15999984741211,0.0,6.0,-1.51275634765625,-0.2410125732421875,Closing,0.0,0.0,-1.0,0.0,0.0,0.0,0.0,0.0,
1.3616130000000048,0.0,0.0,-455.0,1.0,0.0,0.0,0.0,0.25,0.847167882,0.01,-0.0012207029999999897,6756.0,0.375,0.0,-0.0,0.0,0.125,0.521240181,0.01,0.0,711.0,1.0,0.0,0.0,0.0,0.0,3.34472622,0.01,0.0,7775.0,0.625,0.0,-0.0,0.0,0.25,1.644286941,0.01,0.0,0.27000001072883606,-0.6499999761581421,-59.75,-0.01470947265625,0.0162353515625,1.02178955078125,37.15999984741211,0.0,-11.0,-1.51275634765625,-0.2410125732421875,Closing,0.0,0.0,-1.0,0.0,0.0,0.0,0.0,0.0,
1.4032260000000023,0.0,0.0,-455.0,1.0,0.0,0.0,0.0,0.25,0.850829991,0.01,0.0,6756.0,0.375,0.0,-0.0,0.0,0.125,0.523681587,0.01,0.0,711.0,1.0,0.0,0.0,0.0,0.0,3.343505517,0.01,0.0,7775.0,0.625,0.0,-0.0,0.0,0.25,1.644286941,0.01,0.0,0.25999999046325684,-0.6299999952316284,-59.75,-0.01318359375,-0.003173828125,1.01617431640625,37.15999984741211,0.0,5.0,-1.51275634765625,-0.2410125732421875,Closing,0.0,0.0,-1.0,0.0,0.0,0.0,0.0,0.0,
1.4539010000000052,0.0,0.0,-455.0,1.0,0.0,0.0,0.0,0.25,0.850829991,0.01,0.0012207029999999897,6756.0,0.375,0.0,-0.0,0.0,0.125,0.52490229,0.01,0.0,711.0,1.0,0.0,0.0,0.0,0.0,3.343505517,0.01,0.0,7775.0,0.625,0.0,-0.0,0.0,0.25,1.644286941,0.01,0.0,0.27000001072883606,-0.6200000047683716,-59.75,-0.010498046875,0.0074462890625,1.0223388671875,37.15999984741211,0.0,-1.0,-1.51275634765625,-0.2410125732421875,Closing,0.0,0.0,-1.0,0.0,0.0,0.0,0.0,0.0,
1.507316000000006,0.0,0.0,-455.0,1.0,0.0,0.0,0.0,0.25,0.874023348,0.01,0.0,6756.0,0.375,0.0,-0.0,0.0,0.125,0.526122993,0.01,0.0,711.0,1.0,0.0,0.0,0.0,0.0,3.34472622,0.01,0.0,7775.0,0.625,0.0,-0.0,0.0,0.25,1.644286941,0.01,0.0,0.25999999046325684,-0.6100000143051147,-59.75,-0.0074462890625,0.00347900390625,1.02178955078125,37.15999984741211,0.0,2.0,-1.51275634765625,-0.2410125732421875,Closing,0.0,0.0,-1.0,0.0,0.0,0.0,0.0,0.0,
1.5641640000000043,0.0,0.0,-455.0,1.0,0.0,0.0,0.0,0.25,0.850829991,0.01,-0.0012207029999999897,6756.0,0.375,0.0,-0.0,0.0,0.125,0.52490229,0.01,0.0,711.0,1.0,0.0,0.0,0.0,0.0,3.343505517,0.01,0.0,7775.0,0.625,0.0,-0.0,0.0,0.25,1.644286941,0.01,0.0,0.25999999046325684,-0.6000000238418579,-59.75,-0.0069580078125,0.0074462890625,1.02728271484375,37.15999984741211,0.0,0.0,-1.51275634765625,-0.2410125732421875,Closing,0.0,0.0,-1.0,0.0,0.0,0.0,0.0,0.0,
1.5967230000000054,0.0,0.0,-455.0,1.0,0.0,0.0,0.0,0.25,0.850829991,0.01,0.0012207029999999897,6756.0,0.375,0.0,-0.0,0.0,0.125,0.526122993,0.01,0.0,711.0,1.0,0.0,0.0,0.0,0.0,3.343505517,0.01,0.0,7775.0,0.625,0.0,-0.0,0.0,0.125,1.643066238,0.01,-0.0012207029999999897,0.25999999046325684,-0.6000000238418579,-59.75,-0.0068359375,7.32421875E-4,1.019775390625,37.15999984741211,0.0,5.0,-1.51275634765625,-0.2410125732421875,Closing,0.0,0.0,-1.0,0.0,0.0,0.0,0.0,0.0,
1.6436920000000028,0.0,0.0,-455.0,1.0,0.0,0.0,0.0,0.25,0.850829991,0.01,0.0,6756.0,0.375,0.0,-0.0,0.0,0.125,0.522460884,0.01,0.0,711.0,1.0,0.0,0.0,0.0,0.0,3.350829735,0.01,0.0,7775.0,0.625,0.0,-0.0,0.0,0.125,1.649169753,0.01,0.0,0.25999999046325684,-0.6000000238418579,-59.75,-0.0047607421875,0.00469970703125,1.01336669921875,37.15999984741211,0.0,2.0,-1.51275634765625,-0.2410125732421875,Closing,0.0,0.0,-1.0,0.0,0.0,0.0,0.0,0.0,
1.696671000000002,0.0,0.0,-455.0,1.0,0.0,0.0,0.0,0.25,0.850829991,0.01,0.0,6756.0,0.375,0.0,-0.0,0.0,0.125,0.52490229,0.01,0.0,711.0,1.0,0.0,0.0,0.0,0.0,3.34472622,0.01,0.0,7775.0,0.625,0.0,-0.0,0.0,0.25,1.649169753,0.01,0.0012207029999999897,0.25999999046325684,-0.5899999737739563,-59.75,-0.01068115234375,0.00213623046875,1.01812744140625,37.15999984741211,0.0,2.0,-1.51275634765625,-0.2410125732421875,Closing,0.0,0.0,-1.0,0.0,0.0,0.0,0.0,0.0,
1.7609910000000017,0.0,0.0,-455.0,4.125,0.0,-2222.362196445465,0.0,0.25,0.850829991,4.113634340972225,0.0,6756.0,7.625,30.0,2222.362196445465,0.0,0.125,0.5163573690000001,4.139922062500003,0.0,711.0,4.375,0.0,-2222.362196445465,0.0,0.0,3.348388329,4.1204308333333355,0.0,7775.0,3.625,0.0,2222.362196445465,0.0,0.25,1.649169753,4.135109722222224,0.0,0.23999999463558197,-0.6100000143051147,-59.75,-0.03790283203125,-0.02667236328125,1.0416259765625,37.209999084472656,0.0,13.0,-1.51275634765625,-0.2410888671875,Closing,0.0,0.0,-1.0,0.0,0.0,0.0,0.0,0.0,
1.8030620000000053,0.0,0.0,-455.0,15.375,-217.5,-2520.0,0.0,3.0,0.783691326,4.113634340972225,0.0012207029999999897,6756.0,16.0,420.0,2520.0,0.0,4.75,0.44799800100000003,4.139922062500003,0.0,711.0,10.5,-15.0,-2520.0,0.0,2.375,3.3129879420000004,4.1204308333333355,0.0,7775.0,12.75,82.5,2520.0,0.0,3.375,1.567382652,4.135109722222224,0.0,0.25999999046325684,-1.3200000524520874,-59.58000183105469,-0.50103759765625,0.3504638671875,1.40869140625,37.209999084472656,0.0,-533.0,-1.5159912109375,-0.24273681640625,Closing,0.0,0.0,-1.0,0.0,0.0,0.0,0.0,0.0,
1.8497090000000025,0.0,0.0,-496.0,14.0,-375.0,-1250.0787448883057,0.0,2.375,0.47607417,4.115963434413278,0.0,6916.0,12.5,1027.5,1250.0787448883057,0.0,1.125,0.13549803300000002,4.142266039752964,0.0,680.0,11.125,-142.5,-1250.0787448883057,0.0,1.875,3.01513641,4.12276377487183,0.0,7820.0,12.25,300.0,1250.0787448883057,0.0,1.375,1.230468624,4.137450974782311,0.0,0.5799999833106995,-2.430000066757202,-59.54999923706055,-0.022705078125,0.2611083984375,1.33819580078125,37.209999084472656,0.0,-195.0,-1.5276336669921875,-0.25152587890625,Closing,0.0,0.0,-1.0,0.0,0.0,0.0,0.0,0.0,
1.9081830000000046,0.0,0.0,-496.0,9.625,-375.0,0.0,0.0,1.125,0.279540987,4.115963434413278,0.0,6916.0,2.625,802.5,0.0,0.0,0.875,4.8681635640000005,4.142266039752964,0.0,680.0,8.0,-277.5,0.0,0.0,1.125,2.7990719790000003,4.12276377487183,0.0,7820.0,3.625,420.0,0.0,0.0,0.875,1.00097646,4.137450974782311,0.0,1.1799999475479126,-2.359999895095825,-59.400001525878906,0.0697021484375,0.32659912109375,0.75506591796875,37.209999084472656,0.0,-216.0,-1.539703369140625,-0.2581329345703125,Closing,0.0,0.0,-1.0,0.0,0.0,0.0,0.0,0.0,
1.9469850000000006,0.0,0.0,-554.0,0.25,-360.0,0.0,0.0,0.75,0.015869139,4.115963434413278,-0.5346679140000008,6916.0,0.625,525.0,0.0,0.0,0.5,4.652099133,4.142266039752964,4.427489781,680.0,2.625,-397.5,0.0,0.0,0.875,2.57568333,4.12276377487183,-0.49926752699999977,7820.0,0.25,420.0,0.0,0.0,0.875,0.771484296,4.137450974782311,-0.5590819739999997,1.559999942779541,-1.7400000095367432,-59.33000183105469,0.39617919921875,-0.1705322265625,1.131103515625,37.209999084472656,0.0,392.0,-1.5532073974609375,-0.261322021484375,Closing,0.0,0.0,-1.0,0.0,0.0,0.0,0.0,0.0,
1.9881790000000037,0.0,0.0,-554.0,0.0,-240.0,0.0,0.0,2.125,4.932860823,4.115963434413278,-0.7061772139999989,6974.0,0.0,322.5,0.0,0.0,0.0,4.562987814,4.142266039752964,-0.21240232199999998,612.0,0.0,-420.0,0.0,0.0,0.125,2.473144278,4.12276377487183,-0.2282714610000003,7880.0,0.0,330.0,0.0,0.0,0.125,0.6848143830000001,4.137450974782311,-0.2319335699999998,1.4700000286102295,-0.7599999904632568,-59.31999969482422,0.1217041015625,-0.00482177734375,1.29193115234375,37.209999084472656,0.0,103.0,-1.567535400390625,-0.259063720703125,Closing,0.0,0.0,-1.0,0.0,0.0,0.0,0.0,0.0,
2.036842000000004,0.0,0.0,-554.0,0.0,-240.0,0.0,0.0,8.5,0.017089842,4.115963434413278,-2.6904294120000003,6974.0,0.0,247.5,0.0,0.0,0.25,4.543456566000001,4.142266039752964,-0.07812499200000023,612.0,0.0,-375.0,0.0,0.0,0.0,2.463378654,4.12276377487183,-0.08911131899999969,7880.0,0.0,352.5,0.0,0.0,0.25,0.670165947,4.137450974782311,-0.08178710100000064,1.1399999856948853,-0.800000011920929,-59.029998779296875,-0.1011962890625,-0.10455322265625,0.91888427734375,37.209999084472656,0.0,59.0,-1.579620361328125,-0.255035400390625,Closing,0.0,0.0,-1.0,0.0,0.0,0.0,0.0,0.0,
2.102362000000001,0.0,0.0,-600.0,0.0,-270.0,0.0,0.0,1.125,4.371337443,4.115963434413278,3.092040699,7014.0,0.0,225.0,0.0,0.0,0.25,4.544677269,4.142266039752964,-0.01586913899999942,557.0,0.0,-322.5,0.0,0.0,0.0,2.468261466,4.12276377487183,0.0,7937.0,0.0,285.0,0.0,0.0,0.25,0.6848143830000001,4.137450974782311,0.0,0.7599999904632568,-0.6700000166893005,-58.849998474121094,0.18243408203125,-0.13690185546875,0.6295166015625,37.209999084472656,0.0,222.0,-1.589141845703125,-0.2528076171875,Closing,0.0,0.0,-1.0,0.0,0.0,0.0,0.0,0.0,
2.171675000000003,0.0,0.0,-622.0,0.0,-172.5,0.0,0.0,1.0,4.3457026800000005,4.115963434413278,3.092040699,7014.0,0.0,195.0,0.0,0.0,0.25,4.543456566000001,4.142266039752964,-0.01586913899999942,557.0,0.0,-277.5,0.0,0.0,0.0,2.4816891990000003,4.12276377487183,0.003662108999999525,7937.0,0.0,202.5,0.0,0.0,0.25,0.7324218,4.137450974782311,0.01586913900000031,0.5199999809265137,-0.3400000035762787,-58.939998626708984,0.05963134765625,-0.1356201171875,0.906494140625,37.209999084472656,0.0,156.0,-1.5949859619140625,-0.249603271484375,Closing,0.0,0.0,-1.0,0.0,0.0,0.0,0.0,0.0,
2.2285920000000043,0.0,0.0,-622.0,0.0,-120.0,0.0,0.0,1.75,4.472655792,4.115963434413278,0.03662109000000058,7035.0,0.0,142.5,0.0,0.0,0.25,4.5483393780000005,4.142266039752964,0.0,536.0,0.0,-165.0,0.0,0.0,0.0,2.497558338,4.12276377487183,0.019531248000000723,7957.0,0.0,112.5,0.0,0.0,0.25,0.7519530480000001,4.137450974782311,0.04638671399999961,0.3400000035762787,-0.3700000047683716,-58.97999954223633,-0.04046630859375,-0.1812744140625,1.052490234375,37.209999084472656,0.0,143.0,-1.5967254638671875,-0.2482147216796875,Closing,0.0,0.0,-1.0,0.0,0.0,0.0,0.0,0.0,
2.2875550000000002,0.0,0.0,-634.0,0.0,-82.5,0.0,0.0,0.75,4.733886234,4.115963434413278,0.21972653999999991,7035.0,0.0,52.5,0.0,0.0,0.25,4.578856953,4.142266039752964,0.019531247999999835,536.0,0.0,-52.5,0.0,0.0,0.0,2.50244115,4.12276377487183,0.01586913899999942,7957.0,0.0,30.0,0.0,0.0,0.25,0.766601484,4.137450974782311,0.02929687200000064,0.05000000074505806,-0.4399999976158142,-59.0,0.03314208984375,-0.00469970703125,0.9095458984375,37.15999984741211,0.0,25.0,-1.59857177734375,-0.24713134765625,Closing,0.0,0.0,-1.0,0.0,0.0,0.0,0.0,0.0,
2.3201790000000035,0.0,0.0,-634.0,0.0,-45.0,0.0,0.0,0.5,4.854735831,4.115963434413278,0.1452636570000001,7035.0,0.0,7.5,0.0,0.0,0.25,4.6081538250000005,4.142266039752964,0.019531247999999835,536.0,0.0,0.0,0.0,0.0,0.0,2.50244115,4.12276377487183,0.0,7957.0,0.0,0.0,0.0,0.0,0.25,0.770263593,4.137450974782311,0.004882811999999959,0.10999999940395355,-0.33000001311302185,-58.93000030517578,0.011474609375,0.04266357421875,0.953125,37.15999984741211,0.0,-26.0,-1.599853515625,-0.245849609375,Closing,0.0,0.0,-1.0,0.0,0.0,0.0,0.0,0.0,
2.3721370000000026,0.0,0.0,-634.0,0.0,-15.0,0.0,0.0,0.375,4.893798327,4.115963434413278,0.1452636570000001,7035.0,0.0,0.0,0.0,0.0,0.25,4.611815934,4.142266039752964,0.019531247999999835,536.0,0.0,0.0,0.0,0.0,0.0,2.503661853,4.12276377487183,0.0,7957.0,0.0,0.0,0.0,0.0,0.25,0.770263593,4.137450974782311,0.004882811999999959,0.14000000059604645,-0.36000001430511475,-58.93000030517578,-0.04241943359375,0.0074462890625,1.051513671875,37.15999984741211,0.0,-22.0,-1.6005859375,-0.2449798583984375,Closing,0.0,0.0,-1.0,0.0,0.0,0.0,0.0,0.0,
2.426689000000006,0.0,0.0,-634.0,0.0,0.0,0.0,0.0,0.375,4.908446763000001,4.115963434413278,0.12207029999999941,7035.0,0.0,0.0,0.0,0.0,0.25,4.621581558,4.142266039752964,0.009765623999999917,536.0,0.0,0.0,0.0,0.0,0.0,2.50244115,4.12276377487183,0.0,7957.0,0.0,0.0,0.0,0.0,0.25,0.770263593,4.137450974782311,0.0,0.18000000715255737,-0.44999998807907104,-58.91999816894531,-0.01422119140625,0.03125,1.0406494140625,37.15999984741211,0.0,-27.0,-1.6025238037109375,-0.2436065673828125,Closing,0.0,0.0,-1.0,0.0,0.0,0.0,0.0,0.0,
2.4679550000000017,0.0,0.0,-634.0,0.125,0.0,-138.89763727784157,0.0,0.125,4.909667466,4.125005944753395,0.0,7035.0,0.0,0.0,138.89763727784157,0.0,0.25,4.616698746,4.151366335247042,0.0,536.0,0.125,0.0,-138.89763727784157,0.0,0.0,2.50244115,4.131821225128176,0.0,7957.0,0.125,0.0,138.89763727784157,0.0,0.25,0.770263593,4.146540691884361,0.0,0.23999999463558197,-0.41999998688697815,-58.93000030517578,0.0078125,0.03656005859375,0.98828125,37.15999984741211,0.0,-19.0,-1.6043701171875,-0.242462158203125,Closing,0.0,0.0,-1.0,0.0,0.0,0.0,0.0,0.0,
2.5134100000000035,0.0,0.0,-636.0,0.0,-7.5,-238.11023533344272,0.0,0.125,4.90722606,4.124868908513327,0.0,7035.0,0.25,7.5,238.11023533344272,0.0,0.25,4.62646437,4.151228423292163,0.0,536.0,0.125,0.0,-238.11023533344272,0.0,0.0,2.507323962,4.131683962478641,0.0,7957.0,0.375,0.0,238.11023533344272,0.0,0.25,0.771484296,4.146402940241499,0.0,0.25,-0.46000000834465027,-58.93000030517578,-0.0260009765625,-0.00341796875,0.99212646484375,37.15999984741211,0.0,-2.0,-1.60504150390625,-0.24078369140625,Closing,0.0,0.0,-1.0,0.0,0.0,0.0,0.0,0.0,
2.5740970000000014,0.0,0.0,-636.0,0.125,-22.5,-257.95276433229446,0.0,0.125,4.908446763000001,4.124868908513327,0.0,7050.0,0.25,82.5,257.95276433229446,0.0,0.25,4.622802261,4.151228423292163,0.0,529.0,0.125,-37.5,-257.95276433229446,0.0,0.0,2.512206774,4.131683962478641,0.0,7957.0,0.5,0.0,257.95276433229446,0.0,0.25,0.770263593,4.146402940241499,0.0,0.23999999463558197,-0.4699999988079071,-58.91999816894531,-0.00506591796875,0.04620361328125,0.99853515625,37.15999984741211,0.0,-34.0,-1.6050567626953125,-0.2404022216796875,Closing,0.0,0.0,-1.0,0.0,0.0,0.0,0.0,0.0,
2.6301430000000035,0.0,0.0,-636.0,0.125,-30.0,-257.95276433229446,0.0,0.25,4.908446763000001,4.125005944753395,0.0,7050.0,0.375,112.5,257.95276433229446,0.0,0.25,4.61425734,4.151366335247042,0.0,529.0,0.125,-75.0,-257.95276433229446,0.0,0.0,2.512206774,4.131821225128176,0.0,7957.0,0.5,0.0,257.95276433229446,0.0,0.25,0.770263593,4.146540691884361,0.0,0.25,-0.46000000834465027,-58.95000076293945,-0.02392578125,0.0584716796875,0.9774169921875,37.15999984741211,0.0,-54.0,-1.6053619384765625,-0.240203857421875,Closing,0.0,0.0,-1.0,0.0,0.0,0.0,0.0,0.0,
2.670112000000001,0.0,0.0,-642.0,0.125,-37.5,-257.95276433229446,0.0,0.125,4.908446763000001,4.124457904321143,0.0,7050.0,0.625,120.0,257.95276433229446,0.0,0.25,4.619140152,4.150814792623522,0.0,529.0,0.125,-142.5,-257.95276433229446,0.0,0.0,2.512206774,4.131272279230756,0.0,7961.0,0.5,22.5,257.95276433229446,0.0,0.25,0.770263593,4.1459897903866265,0.0,0.2800000011920929,-0.47999998927116394,-58.95000076293945,-0.02679443359375,-0.01922607421875,0.9735107421875,37.15999984741211,0.0,11.0,-1.6067962646484375,-0.239410400390625,Closing,0.0,0.0,-1.0,0.0,0.0,0.0,0.0,0.0,
2.7120020000000005,0.0,0.0,-642.0,0.125,-75.0,-257.95276433229446,0.0,0.125,4.910888169000001,4.124868908513327,-0.0012207029999995456,7058.0,0.75,60.0,257.95276433229446,0.0,0.25,4.622802261,4.151228423292163,-0.0024414059999999793,510.0,0.125,-135.0,-257.95276433229446,0.0,0.0,2.512206774,4.131683962478641,0.0,7961.0,0.75,22.5,257.95276433229446,0.0,0.25,0.770263593,4.146402940241499,-0.0012207030000004337,0.28999999165534973,-0.5099999904632568,-58.91999816894531,-0.0240478515625,0.0902099609375,1.0491943359375,37.15999984741211,0.0,-80.0,-1.6068572998046875,-0.2389678955078125,Closing,0.0,0.0,-1.0,0.0,0.0,0.0,0.0,0.0,
2.7662580000000014,0.0,0.0,-642.0,0.0,-127.5,0.0,0.0,0.25,4.908446763000001,4.124868908513327,0.0,7058.0,0.875,30.0,0.0,0.0,0.25,4.621581558,4.151228423292163,0.0,510.0,0.0,-37.5,0.0,0.0,0.0,2.513427477,4.131683962478641,0.0,7961.0,0.25,0.0,0.0,0.0,0.25,0.770263593,4.146402940241499,0.0,0.33000001311302185,-0.5,-58.9900016784668,-0.034423828125,-0.00762939453125,0.9866943359375,37.15999984741211,0.0,-1.0,-1.6071014404296875,-0.23846435546875,Closing,0.0,0.0,-1.0,0.0,0.0,0.0,0.0,0.0,
2.8034449999999995,0.0,0.0,-660.0,0.0,-105.0,0.0,0.0,0.125,4.908446763000001,4.124868908513327,0.0012207029999995456,7058.0,0.0,30.0,0.0,0.0,0.25,4.622802261,4.151228423292163,0.0,510.0,0.0,-22.5,0.0,0.0,0.0,2.513427477,4.131683962478641,0.0,7961.0,0.0,0.0,0.0,0.0,0.25,0.770263593,4.146402940241499,0.0012207030000004337,0.2800000011920929,-0.5,-58.970001220703125,-0.015625,-0.0465087890625,1.06561279296875,37.18000030517578,0.0,41.0,-1.6072845458984375,-0.2380828857421875,Closing,0.0,0.0,-1.0,0.0,0.0,0.0,0.0,0.0,
2.8526160000000016,0.0,0.0,-660.0,0.0,-15.0,0.0,0.0,0.125,4.909667466,4.124868908513327,0.0,7061.0,0.0,7.5,0.0,0.0,0.25,4.616698746,4.151228423292163,0.0,507.0,0.0,-15.0,0.0,0.0,0.0,2.512206774,4.131683962478641,0.0,7961.0,0.0,0.0,0.0,0.0,0.25,0.770263593,4.146402940241499,0.0,0.1899999976158142,-0.46000000834465027,-58.900001525878906,0.01507568359375,-0.01470947265625,1.03387451171875,37.18000030517578,0.0,27.0,-1.606781005859375,-0.23822021484375,Closing,0.0,0.0,-1.0,0.0,0.0,0.0,0.0,0.0,
2.8991750000000027,0.0,0.0,-660.0,0.0,0.0,0.0,0.0,0.25,4.909667466,4.124868908513327,-0.0012207029999995456,7061.0,0.0,0.0,0.0,0.0,0.25,4.622802261,4.151228423292163,0.0024414059999999793,507.0,0.0,-7.5,0.0,0.0,0.0,2.512206774,4.131683962478641,-0.0012207029999995456,7961.0,0.0,0.0,0.0,0.0,0.25,0.772704999,4.146402940241499,0.0,0.14000000059604645,-0.4300000071525574,-58.959999084472656,-0.00543212890625,-0.03143310546875,0.9986572265625,37.18000030517578,0.0,30.0,-1.6058197021484375,-0.23822021484375,Closing,0.0,0.0,-1.0,0.0,0.0,0.0,0.0,0.0,
2.9577960000000023,0.0,0.0,-660.0,0.0,0.0,0.0,0.0,0.25,4.909667466,4.124868908513327,0.0,7061.0,0.0,0.0,0.0,0.0,0.25,4.622802261,4.151228423292163,0.0,507.0,0.0,0.0,0.0,0.0,0.0,2.512206774,4.131683962478641,0.0012207029999995456,7961.0,0.0,0.0,0.0,0.0,0.25,0.770263593,4.146402940241499,0.0,0.15000000596046448,-0.44999998807907104,-58.970001220703125,-0.014892578125,0.025390625,1.0321044921875,37.18000030517578,0.0,-22.0,-1.604736328125,-0.23822021484375,Closing,0.0,0.0,-1.0,0.0,0.0,0.0,0.0,0.0,
2.991685000000005,0.0,0.0,-660.0,0.0,0.0,0.0,0.0,0.125,4.909667466,4.124868908513327,0.0012207029999995456,7061.0,0.0,0.0,0.0,0.0,0.25,4.621581558,4.151228423292163,0.0,507.0,0.0,0.0,0.0,0.0,0.0,2.512206774,4.131683962478641,0.0,7961.0,0.0,0.0,0.0,0.0,0.25,0.771484296,4.146402940241499,0.0,0.20999999344348907,-0.4699999988079071,-58.95000076293945,-0.01806640625,0.02191162109375,1.026123046875,37.18000030517578,0.0,-20.0,-1.60400390625,-0.23822021484375,Closing,0.0,0.0,-1.0,0.0,0.0,0.0,0.0,0.0,
3.043977000000006,0.0,0.0,-660.0,0.0,0.0,0.0,0.0,0.125,4.908446763000001,4.124868908513327,0.0,7061.0,0.0,0.0,0.0,0.0,0.25,4.621581558,4.151228423292163,-0.0012207029999995456,507.0,0.0,0.0,0.0,0.0,0.0,2.512206774,4.131683962478641,0.0,7961.0,0.0,0.0,0.0,0.0,0.25,0.76904289,4.146402940241499,0.0,0.2199999988079071,-0.49000000953674316,-58.959999084472656,-0.007568359375,-0.01263427734375,1.03076171875,37.18000030517578,0.0,14.0,-1.6037750244140625,-0.23822021484375,Closing,0.0,0.0,-1.0,0.0,0.0,0.0,0.0,0.0,
3.1093570000000037,0.0,0.0,-660.0,0.0,0.0,0.0,0.0,0.125,4.909667466,4.124868908513327,0.0,7061.0,0.0,0.0,0.0,0.0,0.25,4.615478043,4.151228423292163,0.0,507.0,0.0,0.0,0.0,0.0,0.0,2.512206774,4.131683962478641,0.0,7961.0,0.0,0.0,0.0,0.0,0.25,0.770263593,4.146402940241499,0.0,0.1899999976158142,-0.47999998927116394,-58.95000076293945,-7.32421875E-4,-0.01080322265625,1.00482177734375,37.18000030517578,0.0,16.0,-1.6037139892578125,-0.23822021484375,Closing,0.0,0.0,-1.0,0.0,0.0,0.0,0.0,0.0,
3.1476059999999997,0.0,0.0,-660.0,0.0,0.0,0.0,0.0,0.125,4.908446763000001,4.124868908513327,0.0,7061.0,0.0,0.0,0.0,0.0,0.25,4.621581558,4.151228423292163,0.0012207029999995456,507.0,0.0,0.0,0.0,0.0,0.0,2.510986071,4.131683962478641,0.0,7961.0,0.0,0.0,0.0,0.0,0.25,0.770263593,4.146402940241499,0.0,0.17000000178813934,-0.4699999988079071,-58.95000076293945,-0.00885009765625,0.00115966796875,1.02838134765625,37.18000030517578,0.0,1.0,-1.6037139892578125,-0.23822021484375,Closing,0.0,0.0,-1.0,0.0,0.0,0.0,0.0,0.0,
3.186455000000002,0.0,0.0,-660.0,0.0,0.0,0.0,0.0,0.125,4.909667466,4.124868908513327,0.0,7061.0,0.0,0.0,0.0,0.0,0.25,4.622802261,4.151228423292163,0.0,507.0,0.0,0.0,0.0,0.0,0.0,2.512206774,4.131683962478641,0.0,7961.0,0.0,0.0,0.0,0.0,0.25,0.770263593,4.146402940241499,0.0,0.1899999976158142,-0.47999998927116394,-58.959999084472656,-0.01873779296875,0.01885986328125,1.02703857421875,37.18000030517578,0.0,-18.0,-1.6037139892578125,-0.23822021484375,Closing,0.0,0.0,-1.0,0.0,0.0,0.0,0.0,0.0,
3.2345130000000064,0.0,0.0,-660.0,0.0,0.0,0.0,0.0,0.125,4.90722606,4.124868908513327,0.0,7061.0,0.0,0.0,0.0,0.0,0.25,4.621581558,4.151228423292163,0.0,507.0,0.0,0.0,0.0,0.0,0.0,2.512206774,4.131683962478641,0.0,7961.0,0.0,0.0,0.0,0.0,0.25,0.773925702,4.146402940241499,0.0,0.20999999344348907,-0.49000000953674316,-58.959999084472656,-0.00787353515625,-0.00213623046875,1.0341796875,37.18000030517578,0.0,5.0,-1.6037139892578125,-0.23822021484375,Closing,0.0,0.0,-1.0,0.0,0.0,0.0,0.0,0.0,
3.290016000000003,0.0,0.0,-660.0,0.0,0.0,0.0,0.0,0.125,4.908446763000001,4.124868908513327,0.0,7061.0,0.0,0.0,0.0,0.0,0.25,4.624022964,4.151228423292163,0.0,507.0,0.0,0.0,0.0,0.0,0.0,2.512206774,4.131683962478641,0.0,7961.0,0.0,0.0,0.0,0.0,0.25,0.770263593,4.146402940241499,0.0,0.1899999976158142,-0.49000000953674316,-58.959999084472656,-0.0045166015625,-0.007080078125,1.00341796875,37.15999984741211,0.0,11.0,-1.6037139892578125,-0.23822021484375,Closing,0.0,0.0,-1.0,0.0,0.0,0.0,0.0,0.0,
3.3320570000000007,0.0,0.0,-660.0,0.125,0.0,-535.7480388879776,0.0,0.25,4.914550278,4.932250999999998,0.0,7061.0,0.5,0.0,535.7480388879776,0.0,0.25,4.622802261,4.963769999999998,0.0,507.0,0.125,0.0,-535.7480388879776,0.0,0.0,2.508544665,0.01,0.0,7961.0,0.375,0.0,535.7480388879776,0.0,0.25,0.787353435,0.01,0.0,0.2199999988079071,-0.49000000953674316,-58.959999084472656,-0.08221435546875,0.01861572265625,1.0712890625,37.15999984741211,0.0,-49.0,-1.60382080078125,-0.238250732421875,Closing,0.0,0.0,-1.0,0.0,0.0,0.0,0.0,0.0,
3.3744000000000014,0.0,0.0,-666.0,0.625,-7.5,-1369.1338062286377,0.0,5.0,0.179443341,4.932250999999998,0.06774954499999986,7061.0,4.125,15.0,1369.1338062286377,0.0,6.875,4.799804196,4.963769999999998,0.0402831990000001,507.0,2.625,-7.5,-1369.1338062286377,0.0,2.5,2.6367184800000003,0.01,0.0,7961.0,0.5,0.0,1369.1338062286377,0.0,5.5,0.937499904,0.01,0.0183105449999994,0.25,-0.5400000214576721,-58.97999954223633,-0.02960205078125,0.21826171875,1.03607177734375,37.15999984741211,0.0,-193.0,-1.60406494140625,-0.238250732421875,Closing,0.0,0.0,-1.0,0.0,0.0,0.0,0.0,0.0,
3.4244080000000032,0.0,0.0,-666.0,8.5,-112.5,-1369.1338062286377,0.0,1.75,0.482177685,4.932250999999998,0.26733395699999996,7087.0,13.875,90.0,1369.1338062286377,0.0,1.5,0.17456052900000002,4.963769999999998,0.0,492.0,8.375,-60.0,-1369.1338062286377,0.0,2.5,2.994384459,0.01,0.25512692700000006,7986.0,5.625,120.0,1369.1338062286377,0.0,1.25,1.282958853,0.01,0.0,0.9399999976158142,-1.149999976158142,-59.11000061035156,-0.27703857421875,0.171630859375,1.07147216796875,37.15999984741211,0.0,-263.0,-1.6087188720703125,-0.23834228515625,Closing,0.0,0.0,-1.0,0.0,0.0,0.0,0.0,0.0,
3.488965000000004,0.0,0.0,-728.0,10.0,-307.5,-1369.1338062286377,0.0,0.625,0.745849533,4.932250999999998,0.0,7087.0,19.5,307.5,1369.1338062286377,0.0,0.5,0.410156208,4.963769999999998,0.0,492.0,10.5,-187.5,-1369.1338062286377,0.0,0.375,3.358153953,0.01,0.0,7986.0,8.25,352.5,1369.1338062286377,0.0,0.625,1.567382652,0.01,0.0,0.7799999713897705,-2.380000114440918,-59.130001068115234,-0.44488525390625,-0.260009765625,1.08575439453125,37.15999984741211,0.0,30.0,-1.6216583251953125,-0.2442169189453125,Closing,0.0,0.0,-1.0,0.0,0.0,0.0,0.0,0.0,
3.542434000000001,0.0,0.0,-728.0,10.125,-525.0,-1369.1338062286377,0.0,0.25,0.875244051,4.932250999999998,0.0,7179.0,19.625,525.0,1369.1338062286377,0.0,0.25,0.506591745,4.963769999999998,0.0,420.0,10.0,-390.0,-1369.1338062286377,0.0,0.125,3.5327144820000003,0.01,0.0,8055.0,9.0,442.5,1369.1338062286377,0.0,0.375,1.694335764,0.01,0.0,0.2800000011920929,-2.9100000858306885,-58.95000076293945,-0.63079833984375,-0.3673095703125,1.20086669921875,37.15999984741211,0.0,25.0,-1.6328887939453125,-0.258758544921875,Closing,0.0,0.0,-1.0,0.0,0.0,0.0,0.0,0.0,
3.5862150000000037,0.0,0.0,-728.0,9.625,-675.0,-1369.1338062286377,0.0,0.25,0.9106444380000001,4.932250999999998,0.0,7179.0,16.625,690.0,1369.1338062286377,0.0,0.0,0.511474557,4.963769999999998,0.0,420.0,11.125,-540.0,-1369.1338062286377,0.0,0.0,3.5375972940000002,0.01,0.0,8055.0,9.5,577.5,1369.1338062286377,0.0,0.25,1.704101388,0.01,0.0,0.019999999552965164,-2.7699999809265137,-58.88999938964844,-0.14984130859375,-0.16790771484375,0.05145263671875,37.15999984741211,0.0,67.0,-1.6356658935546875,-0.2638092041015625,Closing,0.0,0.0,-1.0,0.0,0.0,0.0,0.0,0.0,
3.6309610000000028,0.0,0.0,-858.0,8.375,-825.0,-1369.1338062286377,0.0,0.25,0.911865141,4.932250999999998,0.0,7179.0,12.0,945.0,1369.1338062286377,0.0,0.125,0.5163573690000001,4.963769999999998,0.0,420.0,12.125,-690.0,-1369.1338062286377,0.0,0.125,3.5229488580000003,0.01,0.0,8055.0,8.875,720.0,1369.1338062286377,0.0,0.25,1.6882322490000001,0.01,0.0,-0.07999999821186066,-3.5199999809265137,-58.869998931884766,-0.2701416015625,0.0,1.5810546875,37.15999984741211,0.0,-91.0,-1.64373779296875,-0.280364990234375,Closing,0.0,0.0,-1.0,0.0,0.0,0.0,0.0,0.0,
3.6780640000000058,0.0,0.0,-858.0,7.625,-952.5,-1369.1338062286377,0.0,0.25,0.8837889720000001,4.932250999999998,0.0,7381.0,7.375,1290.0,1369.1338062286377,0.0,0.125,0.526122993,4.963769999999998,0.0,286.0,11.125,-862.5,-1369.1338062286377,0.0,0.25,3.4802242530000003,0.01,0.0,8188.0,7.75,945.0,1369.1338062286377,0.0,0.25,1.665038892,0.01,0.0,-0.3100000023841858,-4.210000038146973,-58.970001220703125,-0.24444580078125,-0.03570556640625,1.09881591796875,37.15999984741211,0.0,-58.0,-1.655792236328125,-0.3055877685546875,Closing,0.0,0.0,-1.0,0.0,0.0,0.0,0.0,0.0,
3.7235350000000036,0.0,0.0,-1039.0,6.625,-1057.5,-1210.3937244415283,0.0,0.25,0.8703612390000001,4.932250999999998,-0.019531247999999946,7381.0,6.0,1320.0,1210.3937244415283,0.0,0.125,0.526122993,4.963769999999998,0.004882811999999959,286.0,10.0,-960.0,-1210.3937244415283,0.0,0.25,3.455810193,0.01,-0.03417968399999971,8188.0,7.0,1012.5,1210.3937244415283,0.0,0.25,1.650390456,0.01,0.0,-0.07999999821186066,-4.03000020980835,-58.959999084472656,0.21588134765625,-0.09454345703125,0.59967041015625,37.15999984741211,0.0,213.0,-1.66546630859375,-0.32647705078125,Closing,0.0,0.0,-1.0,0.0,0.0,0.0,0.0,0.0,
3.768514000000003,0.0,0.0,-1039.0,5.0,-1155.0,-833.3858048915863,0.0,0.25,0.8532713970000001,4.932250999999998,-0.024414060000000015,7381.0,3.75,1290.0,833.3858048915863,0.0,0.125,0.526122993,4.963769999999998,0.0,286.0,6.75,-1065.0,-833.3858048915863,0.0,0.125,3.4301754300000002,0.01,-0.034179684000000154,8371.0,5.5,1102.5,833.3858048915863,0.0,0.25,1.641845535,0.01,-0.019531248000000057,-0.019999999552965164,-4.409999847412109,-58.900001525878906,-0.15997314453125,-0.0186767578125,1.40399169921875,37.15999984741211,0.0,-11.0,-1.6720123291015625,-0.347503662109375,Closing,0.0,0.0,-1.0,0.0,0.0,0.0,0.0,0.0,
3.8284089999999997,0.0,0.0,-1039.0,1.25,-1237.5,-773.8582742214203,0.0,0.25,0.8300780400000001,4.932250999999998,-0.023193357000000026,7575.0,0.75,1207.5,773.8582742214203,0.0,0.125,0.526122993,4.963769999999998,0.0,105.0,3.625,-1162.5,-773.8582742214203,0.0,0.125,3.403319964,0.01,-0.03173827799999973,8371.0,2.625,1132.5,773.8582742214203,0.0,0.25,1.6369627230000001,0.01,0.0,0.10000000149011612,-4.179999828338623,-58.70000076293945,-0.146728515625,0.13623046875,0.8099365234375,37.18000030517578,0.0,-160.0,-1.6856536865234375,-0.3684539794921875,Closing,0.0,0.0,-1.0,0.0,0.0,0.0,0.0,0.0,
3.8748600000000004,0.0,0.0,-1233.0,0.375,-1207.5,-734.173253774643,0.0,0.25,0.810546792,4.932250999999998,-0.009765624000000028,7575.0,0.5,1102.5,734.173253774643,0.0,0.125,0.52490229,4.963769999999998,0.0,105.0,0.875,-1252.5,-734.173253774643,0.0,0.125,3.388671528,0.01,-0.01464843600000032,8533.0,1.875,1012.5,734.173253774643,0.0,0.125,1.645507644,0.01,0.0,0.25,-3.930000066757202,-58.5,0.14013671875,0.10198974609375,1.1343994140625,37.18000030517578,0.0,31.0,-1.700164794921875,-0.3947296142578125,Closing,0.0,0.0,-1.0,0.0,0.0,0.0,0.0,0.0,
3.9133180000000065,0.0,0.0,-1233.0,0.125,-1117.5,-734.173253774643,0.0,0.125,0.811767495,4.932250999999998,0.0,7745.0,0.25,1050.0,734.173253774643,0.0,0.125,0.5407714290000001,4.963769999999998,0.0,-94.0,0.375,-1245.0,-734.173253774643,0.0,0.125,3.383788716,0.01,0.0,8533.0,0.875,1050.0,734.173253774643,0.0,0.125,1.6357420200000001,0.01,0.0,0.3700000047683716,-3.490000009536743,-58.41999816894531,0.115966796875,-0.0037841796875,1.18701171875,37.18000030517578,0.0,108.0,-1.71337890625,-0.41827392578125,Closing,0.0,0.0,-1.0,0.0,0.0,0.0,0.0,0.0,
4.0253210000000035,0.0,0.0,-1401.0,0.0,-1027.5,0.0,0.0,0.125,0.811767495,4.932250999999998,0.0,7919.0,0.0,1095.0,0.0,0.0,0.25,0.539550726,4.963769999999998,0.014648435999999876,-257.0,0.0,-1042.5,0.0,0.0,0.125,3.3776852010000002,0.01,-0.008544920999999928,8707.0,0.0,1057.5,0.0,0.0,0.125,1.6369627230000001,0.01,-0.010986326999999907,0.4000000059604645,-2.950000047683716,-58.470001220703125,-0.01531982421875,-0.02899169921875,1.20379638671875,37.18000030517578,0.0,56.0,-1.7275238037109375,-0.4439849853515625,Closing,0.0,0.0,-1.0,0.0,0.0,0.0,0.0,0.0,
4.156281000000003,0.0,0.0,-1539.0,1.25,-547.5,-416.69290244579315,0.0,0.125,0.808105386,4.932250999999998,0.0,7980.0,1.75,390.0,416.69290244579315,0.0,0.25,0.539550726,4.963769999999998,0.0,-373.0,2.125,-742.5,-416.69290244579315,0.0,0.125,3.3630367650000004,0.01,0.0,8831.0,1.625,705.0,416.69290244579315,0.0,0.125,1.674804516,0.01,0.0,0.4300000071525574,-0.44999998807907104,-58.970001220703125,0.45147705078125,-0.00982666015625,0.99151611328125,37.18000030517578,0.0,251.0,-1.7410125732421875,-0.467071533203125,Closing,0.0,0.0,-1.0,0.0,0.0,0.0,0.0,0.0,
4.223093,0.0,0.0,-1583.0,0.375,-285.0,-1170.7086288928986,0.0,0.125,0.808105386,4.932250999999998,0.0,7980.0,1.375,262.5,1170.7086288928986,0.0,0.25,0.52490229,4.963769999999998,0.0,-373.0,1.125,-510.0,-1170.7086288928986,0.0,0.0,3.3630367650000004,0.01,0.0,8831.0,0.5,397.5,1170.7086288928986,0.0,0.25,1.6894529520000001,0.01,0.0,0.4099999964237213,0.4099999964237213,-59.18000030517578,0.06915283203125,0.10479736328125,0.88433837890625,37.18000030517578,0.0,-52.0,-1.7385406494140625,-0.4620361328125,Closing,0.0,0.0,-1.0,0.0,0.0,0.0,0.0,0.0,
4.287044000000002,0.0,0.0,-1583.0,0.75,-300.0,-1170.7086288928986,0.0,0.125,0.823974525,4.932250999999998,0.0,8043.0,5.625,420.0,1170.7086288928986,0.0,0.25,0.52490229,4.963769999999998,0.0,-424.0,1.0,-315.0,-1170.7086288928986,0.0,0.0,3.38134731,0.01,0.0,8872.0,2.375,202.5,1170.7086288928986,0.0,0.25,1.650390456,0.01,0.0,0.3499999940395355,0.14000000059604645,-59.15999984741211,-0.2550048828125,0.1278076171875,0.64361572265625,37.18000030517578,0.0,-237.0,-1.7369384765625,-0.4581451416015625,Closing,0.0,0.0,-1.0,0.0,0.0,0.0,0.0,0.0,
4.3573990000000045,0.0,0.0,-1639.0,3.5,-337.5,-1170.7086288928986,0.0,0.125,0.822753822,4.932250999999998,0.0,8043.0,9.125,247.5,1170.7086288928986,0.0,0.125,0.52490229,4.963769999999998,0.0,-424.0,4.25,-345.0,-1170.7086288928986,0.0,0.0,3.3789059040000002,0.01,0.0,8932.0,3.25,210.0,1170.7086288928986,0.0,0.25,1.6076658510000001,0.01,0.0,0.3499999940395355,-0.5400000214576721,-59.029998779296875,-0.2205810546875,-0.03759765625,0.86846923828125,37.13999938964844,0.0,-72.0,-1.73736572265625,-0.457672119140625,Closing,0.0,0.0,-1.0,0.0,0.0,0.0,0.0,0.0,
4.412095000000001,0.0,0.0,-1639.0,5.375,-315.0,-1170.7086288928986,0.0,0.125,0.822753822,4.932250999999998,0.0,8093.0,13.625,330.0,1170.7086288928986,0.0,0.125,0.5285643990000001,4.963769999999998,0.0,-487.0,5.0,-397.5,-1170.7086288928986,0.0,0.125,3.3776852010000002,0.01,0.0,8932.0,4.125,465.0,1170.7086288928986,0.0,0.25,1.6027830390000002,0.01,0.0,0.3799999952316284,-1.1200000047683716,-59.18000030517578,-0.166259765625,0.01312255859375,0.77008056640625,37.13999938964844,0.0,-84.0,-1.7396087646484375,-0.4624481201171875,Closing,0.0,0.0,-1.0,0.0,0.0,0.0,0.0,0.0,
4.486396000000001,0.0,0.0,-1715.0,6.375,-487.5,-1170.7086288928986,0.0,0.125,0.822753822,4.932250999999998,0.0,8093.0,13.375,547.5,1170.7086288928986,0.0,0.125,0.523681587,4.963769999999998,0.0,-487.0,5.75,-487.5,-1170.7086288928986,0.0,0.125,3.3776852010000002,0.01,0.0,9013.0,4.625,495.0,1170.7086288928986,0.0,0.25,1.6040037420000002,0.01,0.0,0.4099999964237213,-1.7300000190734863,-59.09000015258789,-0.18621826171875,0.0205078125,0.98333740234375,37.13999938964844,0.0,-91.0,-1.7459259033203125,-0.4733428955078125,Closing,0.0,0.0,-1.0,0.0,0.0,0.0,0.0,0.0,
4.622224000000002,0.0,0.0,-1846.0,4.875,-840.0,-1170.7086288928986,0.0,0.125,0.822753822,4.932250999999998,0.0,8355.0,9.875,892.5,1170.7086288928986,0.0,0.125,0.526122993,4.963769999999998,0.0,-726.0,4.875,-862.5,-1170.7086288928986,0.0,0.125,3.3776852010000002,0.01,0.0,9152.0,3.75,855.0,1170.7086288928986,0.0,0.25,1.59912093,0.01,0.0,0.46000000834465027,-2.5799999237060547,-58.91999816894531,-0.11688232421875,0.09503173828125,1.0518798828125,37.13999938964844,0.0,-109.0,-1.7642364501953125,-0.5037994384765625,Closing,0.0,0.0,-1.0,0.0,0.0,0.0,0.0,0.0,
4.685874000000004,0.0,0.0,-1846.0,3.875,-997.5,-1170.7086288928986,0.0,0.125,0.821533119,4.932250999999998,0.0,8355.0,8.25,1020.0,1170.7086288928986,0.0,0.125,0.52490229,4.963769999999998,0.0,-726.0,3.75,-1005.0,-1170.7086288928986,0.0,0.125,3.3776852010000002,0.01,0.0,9152.0,3.5,937.5,1170.7086288928986,0.0,0.25,1.596679524,0.01,0.0,0.41999998688697815,-2.609999895095825,-58.88999938964844,-0.079833984375,-0.07696533203125,1.13232421875,37.13999938964844,0.0,58.0,-1.7740325927734375,-0.5080108642578125,Closing,0.0,0.0,-1.0,0.0,0.0,0.0,0.0,0.0,
4.757633000000002,0.0,0.0,-2011.0,3.5,-1072.5,-1170.7086288928986,0.0,0.125,0.821533119,4.932250999999998,0.0,8535.0,7.0,1102.5,1170.7086288928986,0.0,0.125,0.526122993,4.963769999999998,0.0,-903.0,3.125,-1102.5,-1170.7086288928986,0.0,0.125,3.3776852010000002,0.01,0.0,9316.0,3.5,1027.5,1170.7086288928986,0.0,0.25,1.6015623360000002,0.01,0.0,0.4300000071525574,-2.680000066757202,-58.86000061035156,-0.0517578125,0.0283203125,0.93609619140625,37.13999938964844,0.0,-22.0,-1.7863311767578125,-0.5098419189453125,Closing,0.0,0.0,-1.0,0.0,0.0,0.0,0.0,0.0,
4.886959000000003,0.0,0.0,-2196.0,2.25,-1177.5,-1170.7086288928986,0.0,0.125,0.822753822,4.932250999999998,0.0,8725.0,5.125,1185.0,1170.7086288928986,0.0,0.125,0.5285643990000001,4.963769999999998,0.0,-1093.0,1.75,-1192.5,-1170.7086288928986,0.0,0.125,3.3776852010000002,0.01,0.0,9479.0,3.625,1050.0,1170.7086288928986,0.0,0.25,1.6027830390000002,0.01,0.0,0.5199999809265137,-2.630000114440918,-58.77000045776367,0.03143310546875,0.04052734375,1.30389404296875,37.130001068115234,0.0,22.0,-1.808807373046875,-0.5070343017578125,Closing,0.0,0.0,-1.0,0.0,0.0,0.0,0.0,0.0,
4.943792000000001,0.0,0.0,-2391.0,2.875,-1215.0,-1453.5376860527158,0.0,0.25,0.821533119,0.12135267928618741,0.0,8725.0,2.75,1200.0,932.4711751062707,0.0,0.125,0.52490229,0.1914857092441182,0.0,-1093.0,3.625,-1207.5,-1453.5376860527158,0.0,0.125,3.3789059040000002,4.818846823418865,0.0,9479.0,2.375,1125.0,932.4711751062707,0.0,0.25,1.666259595,4.76673687813248,0.0,0.550000011920929,-2.5299999713897705,-58.70000076293945,-0.0296630859375,0.02734375,1.30780029296875,37.130001068115234,0.0,2.0,-1.8172760009765625,-0.506378173828125,Closing,0.0,0.0,-1.0,0.0,0.0,0.0,0.0,0.0,
5.022823000000004,0.0,0.0,-2391.0,4.25,-1282.5,-1453.5376860527158,0.0,0.25,0.8569335060000001,0.12135267928618741,0.0,8913.0,1.375,1162.5,932.4711751062707,0.0,0.25,0.6079100940000001,0.1914857092441182,0.0,-1293.0,4.125,-1260.0,-1453.5376860527158,0.0,0.25,3.3203121600000003,4.818846823418865,0.0,9657.0,0.75,1117.5,932.4711751062707,0.0,0.25,1.569824058,4.76673687813248,0.0,0.4399999976158142,-2.680000066757202,-58.189998626708984,0.017578125,0.02044677734375,1.2264404296875,37.130001068115234,0.0,30.0,-1.8157501220703125,-0.5055999755859375,Closing,0.0,0.0,-1.0,0.0,0.0,0.0,0.0,0.0,
5.077380000000004,0.0,0.0,-2599.0,4.375,-1297.5,-1453.5376860527158,0.0,0.375,0.8947752990000001,0.12135267928618741,0.0,8913.0,1.25,1132.5,932.4711751062707,0.0,0.25,0.666503838,0.1914857092441182,0.0,-1293.0,4.25,-1312.5,-1453.5376860527158,0.0,0.125,3.2702633370000003,4.818846823418865,0.0,9832.0,1.125,1132.5,932.4711751062707,0.0,0.25,1.48925766,4.76673687813248,0.0,0.550000011920929,-2.5199999809265137,-57.310001373291016,-0.00482177734375,0.10760498046875,1.09722900390625,37.130001068115234,0.0,-58.0,-1.8144989013671875,-0.50384521484375,Closing,0.0,0.0,-1.0,0.0,0.0,0.0,0.0,0.0,
5.142947,0.0,0.0,-2599.0,3.625,-1357.5,-1342.2325602157455,0.0,0.25,0.9204100620000001,0.08117364330202445,0.0,9091.0,1.75,1087.5,1015.8470813541006,0.0,0.0,0.6994628190000001,0.10808424587330762,0.0,-1507.0,3.5,-1327.5,-1342.2325602157455,0.0,0.125,3.238525059,4.859092242675946,0.0,9832.0,1.5,982.5,1015.8470813541006,0.0,0.25,1.4257811040000001,4.850041393731003,0.0,0.6100000143051147,-2.4000000953674316,-55.689998626708984,-0.0703125,0.08074951171875,1.3328857421875,37.130001068115234,0.0,-63.0,-1.8138275146484375,-0.5009002685546875,Closing,0.0,0.0,-1.0,0.0,0.0,0.0,0.0,0.0,
5.220480000000003,0.0,0.0,-2825.0,1.375,-1425.0,-1274.7042073843643,0.0,0.125,0.924072171,0.052544844041782286,0.0,9253.0,3.125,1035.0,1072.9605775330642,0.0,0.25,0.694580007,0.06284286768930093,0.0,-1731.0,1.5,-1402.5,-1274.7042073843643,0.0,0.0,3.237304356,4.887768342060447,0.0,9983.0,3.25,937.5,1072.9605775330642,0.0,0.25,1.4245604010000001,4.895230182300237,0.0,0.75,-2.2699999809265137,-53.02000045776367,-0.0238037109375,0.1925048828125,1.101806640625,37.130001068115234,0.0,-130.0,-1.81402587890625,-0.4959259033203125,Closing,0.0,0.0,-1.0,0.0,0.0,0.0,0.0,0.0,
5.286515,0.0,0.0,-2825.0,0.625,-1440.0,-1116.3700303514574,0.0,0.25,0.913085844,0.06001089467574996,0.0,9253.0,3.625,997.5,914.809358133134,0.0,0.25,0.6616210260000001,0.07373637804855909,0.0,-1731.0,0.625,-1410.0,-1116.3700303514574,0.0,0.0,3.233642247,4.880289956116168,0.0,9983.0,3.0,922.5,914.809358133134,0.0,0.25,1.4270018070000001,4.884349334807061,0.0,0.8999999761581421,-2.180000066757202,-50.86000061035156,0.0611572265625,0.07177734375,1.3878173828125,37.130001068115234,0.0,33.0,-1.8152008056640625,-0.4900054931640625,Closing,0.0,0.0,-1.0,0.0,0.0,0.0,0.0,0.0,
5.352689000000006,0.0,0.0,-3053.0,0.75,-1372.5,-1374.128821125802,0.0,0.25,0.8923338930000001,0.1780850240074364,0.0,9403.0,1.5,945.0,679.9511340161744,0.0,0.25,0.651855402,0.372777520595232,0.0,-1947.0,1.0,-1357.5,-1374.128821125802,0.0,0.125,3.242187168,4.7620207462664945,0.0,10124.0,2.375,855.0,679.9511340161744,0.0,0.25,1.484374848,4.5856558045374465,0.0,1.0,-1.9500000476837158,-48.36000061035156,-0.007080078125,0.012451171875,1.04473876953125,37.11000061035156,0.0,23.0,-1.8166351318359375,-0.47918701171875,Closing,0.0,0.0,-1.0,0.0,0.0,0.0,0.0,0.0,
5.424211000000003,0.0,0.0,-3281.0,0.75,-1395.0,-1399.2043360211105,0.0,0.25,0.9228514680000001,0.19328186155583013,0.0,9403.0,0.75,877.5,645.3526131315618,0.0,0.5,0.704345631,0.4398660867332339,0.0,-1947.0,1.0,-1342.5,-1399.2043360211105,0.0,0.125,3.237304356,4.74679880070369,0.0,10124.0,1.125,825.0,645.3526131315618,0.0,0.5,1.441650243,4.518645223686155,0.0,0.9900000095367432,-1.7200000286102295,-46.59000015258789,0.1346435546875,0.1077880859375,1.2293701171875,37.11000061035156,0.0,55.0,-1.816925048828125,-0.4684295654296875,Closing,0.0,0.0,-1.0,0.0,0.0,0.0,0.0,0.0,
5.489705000000002,0.0,0.0,-3281.0,1.625,-1447.5,-1477.3601697291433,0.0,0.25,0.968017479,0.23570470310314948,0.0,9538.0,0.625,847.5,575.5306222954523,0.0,0.5,0.941162013,0.681093509791877,0.0,-2175.0,2.625,-1432.5,-1477.3601697291433,0.0,0.125,3.2067867810000004,4.704305868697518,0.0,10262.0,0.75,870.0,575.5306222954523,0.0,0.875,1.204833861,4.2776982089121525,0.0,1.1200000047683716,-1.309999942779541,-44.220001220703125,-0.0780029296875,-0.01409912109375,1.40533447265625,37.11000061035156,0.0,-3.0,-1.81658935546875,-0.451934814453125,Closing,0.0,0.0,-1.0,0.0,0.0,0.0,0.0,0.0,
5.621746000000006,0.0,0.0,-3500.0,1.0,-1410.0,-1382.8978353026728,0.0,0.25,1.0571287980000001,0.25236305725226965,0.0,9638.0,0.875,615.0,516.4835892725764,0.0,0.25,1.350097518,0.7967231654830186,0.0,-2392.0,1.5,-1350.0,-1382.8978353026728,0.0,0.125,3.1091305410000003,4.687619991835551,0.0,10375.0,1.125,615.0,516.4835892725764,0.0,0.25,0.76904289,4.162202963782607,0.0,1.159999966621399,-0.5699999928474426,-37.41999816894531,0.11187744140625,-0.03125,0.44012451171875,37.11000061035156,0.0,116.0,-1.8131561279296875,-0.41778564453125,Closing,0.0,0.0,-1.0,0.0,0.0,0.0,0.0,0.0,
5.674911,0.0,0.0,-3736.0,0.125,-1470.0,0.0,0.0,0.125,1.07421864,0.25236305725226965,0.09521483399999986,9638.0,0.25,600.0,0.0,0.0,0.25,1.490478363,0.7967231654830186,0.0,-2392.0,0.125,-1410.0,0.0,0.0,0.0,3.083495778,4.687619991835551,0.0,10454.0,0.25,510.0,0.0,0.0,0.375,0.68359368,4.162202963782607,0.0,1.100000023841858,-0.6899999976158142,-31.65999984741211,0.0941162109375,0.1104736328125,1.44659423828125,37.11000061035156,0.0,51.0,-1.8119049072265625,-0.3922882080078125,Closing,0.0,0.0,-1.0,0.0,0.0,0.0,0.0,0.0,
5.755659,0.0,0.0,-3736.0,0.0,-1290.0,0.0,0.0,0.125,1.0839842640000001,0.25236305725226965,0.019531248000000057,9724.0,0.0,442.5,0.0,0.0,0.25,1.490478363,0.7967231654830186,0.1171874879999999,-2617.0,0.0,-1365.0,0.0,0.0,0.0,3.085937184,4.687619991835551,-0.023193357000000248,10454.0,0.0,435.0,0.0,0.0,0.25,0.7128905520000001,4.162202963782607,-0.0805663980000002,1.25,-0.3400000035762787,-27.25,0.03948974609375,0.13812255859375,1.2884521484375,37.11000061035156,0.0,-8.0,-1.8096771240234375,-0.3686981201171875,Closing,0.0,0.0,-1.0,0.0,0.0,0.0,0.0,0.0,
5.821080000000002,0.0,0.0,-3931.0,0.0,-1162.5,0.0,0.0,0.25,1.090087779,0.25236305725226965,0.014648436000000098,9791.0,0.0,405.0,0.0,0.0,0.25,1.441650243,0.7967231654830186,0.0,-2808.0,0.0,-1237.5,0.0,0.0,0.0,3.081054372,4.687619991835551,0.004882811999999959,10513.0,0.0,367.5,0.0,0.0,0.25,0.7507323450000001,4.162202963782607,0.02929687200000064,1.340000033378601,-0.1899999976158142,-22.790000915527344,0.20648193359375,0.20355224609375,1.0106201171875,37.11000061035156,0.0,123.0,-1.804443359375,-0.3370208740234375,Closing,0.0,0.0,-1.0,0.0,0.0,0.0,0.0,0.0,
5.887401000000005,0.0,0.0,-3931.0,19.375,-960.0,1558.59375,0.0,0.375,1.087646373,0.5498168668524888,0.0,9791.0,11.375,390.0,-1558.59375,0.0,7.625,1.461181491,1.9285545897722227,0.0,-2808.0,10.5,-1117.5,1558.59375,0.0,0.25,3.041991876,4.389674732977289,0.0,10513.0,9.0,277.5,-1558.59375,0.0,5.875,0.665283135,3.0316872062785585,0.0,1.7200000286102295,0.9200000166893005,-20.3700008392334,0.77874755859375,0.06549072265625,1.07342529296875,37.11000061035156,0.0,702.0,-1.79620361328125,-0.3082733154296875,Closing,0.0,0.0,-1.0,0.0,0.0,0.0,0.0,0.0,
5.941228000000002,0.0,0.0,-4033.0,17.625,-52.5,1033.59375,0.0,0.5,1.1853026130000002,0.5498168668524888,0.0,9737.0,16.25,-180.0,-1033.59375,0.0,1.0,1.851806451,1.9285545897722227,0.0,-2937.0,41.0,-907.5,1033.59375,0.0,0.25,2.9296872,4.389674732977289,0.0,10533.0,18.0,120.0,-1033.59375,0.0,2.75,0.347900355,3.0316872062785585,0.0,1.8700000047683716,2.5299999713897705,-21.049999237060547,0.73638916015625,-0.224853515625,1.03204345703125,37.11000061035156,0.0,737.0,-1.7759246826171875,-0.2717437744140625,Closing,0.0,0.0,-1.0,0.0,0.0,0.0,0.0,0.0,
6.023541000000005,0.0,0.0,-3921.0,4.625,667.5,0.0,0.0,0.375,1.298827992,0.5498168668524888,0.08789061600000014,9737.0,2.625,-427.5,0.0,0.0,1.0,2.3205564030000003,1.9285545897722227,0.364990197,-2937.0,4.125,-487.5,0.0,0.0,0.125,2.833251663,4.389674732977289,-0.11230467599999994,10533.0,1.25,-30.0,0.0,0.0,2.125,4.776610839,3.0316872062785585,-0.32592770100000035,1.2799999713897705,2.869999885559082,-24.549999237060547,-0.09564208984375,0.087158203125,0.76324462890625,37.11000061035156,0.0,-150.0,-1.7409210205078125,-0.2231903076171875,Closing,0.0,0.0,-1.0,0.0,0.0,0.0,0.0,0.0,
6.054269000000001,0.0,0.0,-3921.0,0.0,540.0,0.0,0.0,0.375,1.334228379,0.5498168668524888,0.1171874879999999,9714.0,0.0,-195.0,0.0,0.0,0.25,2.451171624,1.9285545897722227,0.468749952,-2973.0,0.0,-292.5,0.0,0.0,0.125,2.8039547910000002,4.389674732977289,-0.09765624000000006,10530.0,0.0,-15.0,0.0,0.0,0.5,4.586181171000001,3.0316872062785585,-0.5195238919999996,1.2200000286102295,2.009999990463257,-26.56999969482422,-0.1826171875,-0.0181884765625,1.0352783203125,37.11000061035156,0.0,-177.0,-1.7232208251953125,-0.1948089599609375,Closing,0.0,0.0,-1.0,0.0,0.0,0.0,0.0,0.0,
6.161630000000005,0.0,0.0,-3863.0,0.125,375.0,278.90625,0.0,0.125,1.334228379,0.5498168668524888,0.0,9714.0,0.0,-127.5,-278.90625,0.0,0.125,2.452392327,1.9285545897722227,0.0,-2973.0,0.375,67.5,278.90625,0.0,0.0,2.7905270580000003,4.389674732977289,0.0,10492.0,0.125,-172.5,-278.90625,0.0,0.375,4.566649923,3.0316872062785585,0.0,1.159999966621399,1.1299999952316284,-29.010000228881836,0.00445556640625,0.09600830078125,0.7662353515625,37.11000061035156,0.0,-48.0,-1.69915771484375,-0.1431427001953125,Closing,0.0,0.0,-1.0,0.0,0.0,0.0,0.0,0.0,
6.227208000000006,0.0,0.0,-3863.0,3.625,172.5,1673.4374999999998,0.0,0.125,1.333007676,0.5498168668524888,0.0,9679.0,4.375,-255.0,-1673.4374999999998,0.0,0.125,2.467040763,1.9285545897722227,0.0,-2942.0,7.375,195.0,1673.4374999999998,0.0,0.0,2.764892295,4.389674732977289,0.0,10492.0,3.75,-255.0,-1673.4374999999998,0.0,0.25,4.582519062,3.0316872062785585,0.0,1.1399999856948853,1.2899999618530273,-30.079999923706055,-0.3245849609375,0.0191650390625,1.20428466796875,37.11000061035156,0.0,-301.0,-1.6832122802734375,-0.1005859375,Closing,0.0,0.0,-1.0,0.0,0.0,0.0,0.0,0.0,
6.352113000000005,0.0,0.0,-3801.0,0.0,442.5,0.0,0.0,0.125,1.337890488,0.5498168668524888,0.0,9601.0,0.0,-390.0,0.0,0.0,0.25,2.499999744,1.9285545897722227,0.0,-2902.0,0.0,277.5,0.0,0.0,0.0,2.784423543,4.389674732977289,0.0,10417.0,0.0,-390.0,0.0,0.0,0.25,4.587401874,3.0316872062785585,0.0,0.75,1.5099999904632568,-35.720001220703125,-0.16046142578125,-0.08673095703125,0.94964599609375,37.06999969482422,0.0,-92.0,-1.6595001220703125,-0.0345001220703125,Closing,0.0,0.0,-1.0,0.0,0.0,0.0,0.0,0.0,
6.4131370000000025,0.0,0.0,-3763.0,0.0,195.0,0.0,0.0,0.125,1.334228379,0.5498168668524888,0.004882811999999959,9556.0,0.0,-285.0,0.0,0.0,0.25,2.4755856840000003,1.9285545897722227,0.008544920999999928,-2868.0,0.0,225.0,0.0,0.0,0.0,2.764892295,4.389674732977289,0.019531247999999835,10376.0,0.0,-262.5,0.0,0.0,0.25,4.6057124190000005,3.0316872062785585,-0.019531247999999835,0.8700000047683716,1.2200000286102295,-37.599998474121094,0.0283203125,0.0087890625,1.0853271484375,37.06999969482422,0.0,8.0,-1.646697998046875,-0.00543212890625,Closing,0.0,0.0,-1.0,0.0,0.0,0.0,0.0,0.0,
6.492811000000001,0.0,0.0,-3745.0,0.0,135.0,0.0,0.0,0.125,1.337890488,0.5498168668524888,0.0,9556.0,0.0,-195.0,0.0,0.0,0.25,2.470702872,1.9285545897722227,0.0,-2868.0,0.0,172.5,0.0,0.0,0.0,2.764892295,4.389674732977289,0.0,10376.0,0.0,-202.5,0.0,0.0,0.25,4.621581558,3.0316872062785585,0.0,0.7799999713897705,1.2400000095367432,-38.08000183105469,0.011962890625,-0.04638671875,1.12774658203125,37.06999969482422,0.0,28.0,-1.6345977783203125,-0.0054168701171875,Closing,0.0,0.0,-1.0,0.0,0.0,0.0,0.0,0.0,
6.622694000000003,0.0,0.0,-3745.0,0.0,0.0,0.0,0.0,0.125,1.337890488,0.5498168668524888,0.0,9554.0,0.0,0.0,0.0,0.0,0.25,2.470702872,1.9285545897722227,0.0,-2861.0,0.0,0.0,0.0,0.0,0.0,2.769775107,4.389674732977289,0.0,10371.0,0.0,0.0,0.0,0.0,0.25,4.630126479,3.0316872062785585,0.0,0.75,1.2100000381469727,-37.439998626708984,-0.047119140625,0.04595947265625,0.9642333984375,37.06999969482422,0.0,-73.0,-1.6295623779296875,-0.0062713623046875,Closing,0.0,0.0,-1.0,0.0,0.0,0.0,0.0,0.0,
6.689357000000004,0.0,0.0,-3745.0,1.125,15.0,787.5,0.0,0.125,1.334228379,0.5498168668524888,0.0,9550.0,1.5,-15.0,-787.5,0.0,0.25,2.509765368,1.9285545897722227,0.0,-2861.0,2.125,0.0,787.5,0.0,0.0,2.763671592,4.389674732977289,0.0,10371.0,2.125,-37.5,-787.5,0.0,0.25,4.643554212000001,3.0316872062785585,0.0,0.7699999809265137,0.8500000238418579,-36.97999954223633,0.19403076171875,-0.07666015625,1.23284912109375,37.06999969482422,0.0,196.0,-1.6327667236328125,-0.0069732666015625,Closing,0.0,0.0,-1.0,0.0,0.0,0.0,0.0,0.0,
6.821557,0.0,0.0,-3724.0,0.0,75.0,0.0,0.0,0.125,1.333007676,0.5498168668524888,0.0,9536.0,0.0,-67.5,0.0,0.0,0.25,2.4804684960000003,1.9285545897722227,0.0,-2852.0,0.0,37.5,0.0,0.0,0.0,2.764892295,4.389674732977289,0.0,10354.0,0.0,-75.0,0.0,0.0,0.125,4.635009291,3.0316872062785585,0.0,0.550000011920929,1.090000033378601,-38.38999938964844,0.03460693359375,-0.07464599609375,0.86456298828125,37.06999969482422,0.0,65.0,-1.63519287109375,-0.009918212890625,Closing,0.0,0.0,-1.0,0.0,0.0,0.0,0.0,0.0,
6.891797000000006,0.0,0.0,-3724.0,0.0,0.0,0.0,0.0,0.125,1.334228379,0.5498168668524888,0.0,9536.0,0.0,0.0,0.0,0.0,0.25,2.460937248,1.9285545897722227,0.0,-2852.0,0.0,0.0,0.0,0.0,0.0,2.764892295,4.389674732977289,0.0,10354.0,0.0,0.0,0.0,0.0,0.125,4.635009291,3.0316872062785585,0.0,0.6700000166893005,0.9599999785423279,-38.77000045776367,-0.05084228515625,0.0833740234375,0.92041015625,37.09000015258789,0.0,-97.0,-1.636566162109375,-0.01251220703125,Closing,0.0,0.0,-1.0,0.0,0.0,0.0,0.0,0.0,
7.027036,0.0,0.0,-3706.0,5.5,150.0,1115.625,0.0,0.125,1.334228379,0.5498168668524888,0.0,9496.0,10.625,-195.0,-1115.625,0.0,0.125,2.460937248,1.9285545897722227,0.0,-2838.0,10.125,67.5,1115.625,0.0,0.0,2.764892295,4.389674732977289,0.0,10329.0,4.25,-142.5,-1115.625,0.0,0.125,4.6606440540000005,3.0316872062785585,0.0,0.8899999856948853,0.949999988079071,-39.29999923706055,0.42547607421875,0.3072509765625,1.07208251953125,37.09000015258789,0.0,131.0,-1.6450347900390625,-0.011932373046875,Closing,0.0,0.0,-1.0,0.0,0.0,0.0,0.0,0.0,
7.097227000000006,0.0,0.0,-3666.0,0.375,292.5,0.0,0.0,0.125,1.333007676,0.5498168668524888,0.0,9496.0,2.25,-262.5,0.0,0.0,0.125,2.34374976,1.9285545897722227,0.0,-2838.0,2.5,195.0,0.0,0.0,0.0,2.779540731,4.389674732977289,0.0,10293.0,0.0,-262.5,0.0,0.0,0.125,4.680175302,3.0316872062785585,0.0,0.5899999737739563,0.6899999976158142,-43.869998931884766,-0.04644775390625,0.18212890625,1.1964111328125,37.09000015258789,0.0,-161.0,-1.6568145751953125,-0.0049896240234375,Closing,0.0,0.0,-1.0,0.0,0.0,0.0,0.0,0.0,
