Time,ClimberA1,ClimberA2,FRpos,FRCurrent,FRspeed,FRsetpoint,FRApos,FRACurrent,FREncpos,FREncSetpoint,FREncSpeed,FLpos,FLCurrent,FLspeed,FLsetpoint,FLApos,FLACurrent,FLEncpos,FLEncSetpoint,FLEncSpeed,BRpos,BRCurrent,BRspeed,BRsetpoint,BRApos,BRACurrent,BREncpos,BREncSetpoint,BREncSpeed,BLpos,BLCurrent,BLspeed,BLsetpoint,BLApos,BLACurrent,BLEncpos,BLEncSetpoint,BLEncSpeed,navx_Pitch,navx_Roll,navx_Yaw,navx_XAcc,navx_YAcc,navx_ZAcc,navx_Temp,navx_Bar,navx_Alt,navx_XDis,navx_YDis,GearPlacerState,ShootOutputV,ShootOutputCurrent,ShootEncPos,ShootEncVelocity,ShootSpeed,ShootSetpoint,CarouselSetpoint,CarouselCurrent,
0.2807160000000149,0.0,0.0,319.0,1.625,555.0,658.7924526311731,0.0,0.125,0.57373041,4.724870462337343,0.0,2335.0,8.0,-900.0,-1058.1400607319122,0.0,0.0,0.384521445,4.834764488292739,0.0,-703.0,2.5,532.5,658.7924526311731,0.0,0.125,3.406982073,0.20772316904970792,0.0,6145.0,5.75,-802.5,-1058.1400607319122,0.0,0.125,1.7651365380000001,0.12885555274410324,0.0,-0.10000000149011612,0.20000000298023224,-43.779998779296875,-0.58441162109375,-0.14520263671875,0.765869140625,37.0,0.0,-324.0,-2.486358642578125,-0.084259033203125,Closing,0.0,0.0,-1.0,0.0,0.0,0.0,0.0,0.0,
0.5491500000000232,0.0,0.0,375.0,2.0,-37.5,0.0,0.0,0.5,0.8312987430000001,0.01,0.0,2316.0,8.0,-7.5,-0.0,0.0,0.25,0.406494099,0.01,0.0,-651.0,1.5,45.0,0.0,0.0,0.125,3.4167476970000004,0.01,0.0,6119.0,8.125,0.0,-0.0,0.0,0.25,1.6638181890000001,0.01,0.0,0.07999999821186066,-0.8100000023841858,-43.939998626708984,-0.10394287109375,0.03399658203125,1.13690185546875,37.04999923706055,0.0,-85.0,-2.462554931640625,-0.1371612548828125,Closing,0.0,0.0,-1.0,0.0,0.0,0.0,0.0,0.0,
0.7639610000000102,0.0,0.0,375.0,1.75,0.0,0.0,0.0,0.25,0.898437408,0.01,0.0,2314.0,8.375,-15.0,-0.0,0.0,0.25,0.48095698200000003,0.01,0.0,-651.0,2.25,0.0,0.0,0.0,0.125,3.403319964,0.01,0.0,6120.0,7.5,0.0,-0.0,0.0,0.25,1.6540525650000002,0.01,0.0,0.009999999776482582,-0.6700000166893005,-43.900001525878906,0.014892578125,0.00323486328125,1.00262451171875,37.04999923706055,0.0,17.0,-2.4493255615234375,-0.1649627685546875,Closing,0.0,0.0,-1.0,0.0,0.0,0.0,0.0,0.0,
0.9225280000000493,0.0,0.0,375.0,1.75,0.0,0.0,0.0,0.25,0.8312987430000001,0.01,0.0,2312.0,9.0,0.0,-0.0,0.0,0.25,0.511474557,0.01,0.0,-651.0,2.375,0.0,0.0,0.0,0.125,3.394775043,0.01,0.0,6119.0,8.5,0.0,-0.0,0.0,0.25,1.666259595,0.01,0.0,0.05999999865889549,-0.6200000047683716,-43.900001525878906,-8.544921875E-4,-0.00103759765625,1.010009765625,36.959999084472656,0.0,8.0,-2.4488677978515625,-0.1647186279296875,Closing,0.0,0.0,-1.0,0.0,0.0,0.0,0.0,0.0,
1.1222660000000033,0.0,0.0,376.0,2.125,0.0,0.0,0.0,0.125,0.8166503070000001,0.01,0.0,2312.0,9.0,0.0,-0.0,0.0,0.0,0.511474557,0.01,0.0,-651.0,2.375,0.0,0.0,0.0,0.125,3.397216449,0.01,0.0,6119.0,8.375,0.0,-0.0,0.0,0.25,1.671142407,0.01,0.0,0.09000000357627869,-0.5799999833106995,-43.900001525878906,-0.00164794921875,0.00128173828125,1.020751953125,36.959999084472656,0.0,6.0,-2.4488677978515625,-0.1647186279296875,Closing,0.0,0.0,-1.0,0.0,0.0,0.0,0.0,0.0,
1.3298640000000015,0.0,0.0,376.0,2.125,0.0,0.0,0.0,0.125,0.8166503070000001,0.01,0.0,2312.0,8.875,0.0,-0.0,0.0,0.0,0.510253854,0.01,0.0,-651.0,2.5,0.0,0.0,0.0,0.125,3.395995746,0.01,0.0,6119.0,8.625,0.0,-0.0,0.0,0.25,1.668701001,0.01,0.0,0.10000000149011612,-0.5299999713897705,-43.90999984741211,-9.1552734375E-4,0.00347900390625,1.020751953125,36.959999084472656,0.0,5.0,-2.4488677978515625,-0.1647186279296875,Closing,0.0,0.0,-1.0,0.0,0.0,0.0,0.0,0.0,
1.5662350000000442,0.0,0.0,376.0,2.125,0.0,0.0,0.0,0.125,0.812988198,0.01,0.0,2311.0,8.875,0.0,-0.0,0.0,0.0,0.511474557,0.01,0.0,-651.0,2.5,0.0,0.0,0.0,0.125,3.397216449,0.01,0.0,6119.0,8.625,0.0,-0.0,0.0,0.25,1.6638181890000001,0.01,0.0,0.11999999731779099,-0.5,-43.90999984741211,-0.0050048828125,0.00103759765625,1.0262451171875,36.9900016784668,0.0,3.0,-2.4488677978515625,-0.1647186279296875,Closing,0.0,0.0,-1.0,0.0,0.0,0.0,0.0,0.0,
1.761558000000019,0.0,0.0,376.0,2.125,0.0,0.0,0.0,0.125,0.812988198,0.01,0.0,2311.0,8.5,0.0,-0.0,0.0,0.0,0.511474557,0.01,0.0,-651.0,2.5,0.0,0.0,0.0,0.125,3.397216449,0.01,0.0,6119.0,8.5,0.0,-0.0,0.0,0.25,1.668701001,0.01,0.0,0.12999999523162842,-0.4699999988079071,-43.90999984741211,-0.00494384765625,0.00140380859375,1.01708984375,36.9900016784668,0.0,3.0,-2.4488677978515625,-0.1647186279296875,Closing,0.0,0.0,-1.0,0.0,0.0,0.0,0.0,0.0,
1.9669400000000024,0.0,0.0,376.0,2.125,0.0,0.0,0.0,0.125,0.812988198,0.01,0.0,2311.0,8.5,0.0,-0.0,0.0,0.0,0.507812448,0.01,0.0,-651.0,2.5,0.0,0.0,0.0,0.125,3.395995746,0.01,0.0,6119.0,8.625,0.0,-0.0,0.0,0.25,1.668701001,0.01,0.0,0.12999999523162842,-0.44999998807907104,-43.90999984741211,-0.0035400390625,0.00311279296875,1.01715087890625,37.02000045776367,0.0,2.0,-2.4488677978515625,-0.1647186279296875,Closing,0.0,0.0,-1.0,0.0,0.0,0.0,0.0,0.0,
2.143654000000039,0.0,0.0,330.0,3.75,-307.5,-1488.1890177726746,0.0,0.125,0.8178710100000001,4.932250999999998,0.0,2366.0,8.375,255.0,1488.1890177726746,0.0,0.0,0.526122993,4.963769999999998,0.0,-682.0,11.375,-262.5,-1488.1890177726746,0.0,0.125,3.402099261,0.01,0.0,6139.0,2.5,330.0,1488.1890177726746,0.0,0.25,1.6113279600000001,0.01,0.0,-0.05000000074505806,-1.9800000190734863,-43.43000030517578,-0.3116455078125,-0.058837890625,1.10968017578125,37.02000045776367,0.0,-158.0,-2.4597930908203125,-0.1832427978515625,Closing,0.0,0.0,-1.0,0.0,0.0,0.0,0.0,0.0,
2.370811000000045,0.0,0.0,230.0,0.0,-262.5,0.0,0.0,0.125,0.8032225740000001,4.932250999999998,0.0,2485.0,0.0,292.5,0.0,0.0,0.125,0.520019478,4.963769999999998,0.0,-810.0,0.0,-360.0,0.0,0.0,0.125,3.343505517,0.01,0.0,6273.0,0.0,360.0,0.0,0.0,0.25,1.5771482760000002,0.01,0.0,0.019999999552965164,-1.2699999809265137,-43.40999984741211,0.04730224609375,0.10205078125,1.2493896484375,37.0,0.0,-15.0,-2.4778900146484375,-0.2200927734375,Closing,0.0,0.0,-1.0,0.0,0.0,0.0,0.0,0.0,
2.6278130000000237,0.0,0.0,155.0,0.0,-52.5,0.0,0.0,0.125,0.8032225740000001,4.932250999999998,0.0,2531.0,0.0,67.5,0.0,0.0,0.125,0.521240181,4.963769999999998,0.0,-862.0,0.0,-37.5,0.0,0.0,0.0,3.330077784,0.01,0.0,6328.0,0.0,37.5,0.0,0.0,0.25,1.6101072570000001,0.01,0.0,0.07000000029802322,0.0,-43.29999923706055,0.00830078125,-0.0068359375,0.99951171875,37.0,0.0,11.0,-2.4652862548828125,-0.2396392822265625,Closing,0.0,0.0,-1.0,0.0,0.0,0.0,0.0,0.0,
2.8960650000000023,0.0,0.0,148.0,0.125,-112.5,-277.79527455568314,0.0,0.125,0.8032225740000001,4.932250999999998,0.0,2551.0,1.25,22.5,277.79527455568314,0.0,0.125,0.521240181,4.963769999999998,0.0,-882.0,0.375,-37.5,-277.79527455568314,0.0,0.0,3.330077784,0.01,0.0,6328.0,1.125,0.0,277.79527455568314,0.0,0.25,1.6101072570000001,0.01,0.0,0.07999999821186066,-0.38999998569488525,-43.31999969482422,-0.0311279296875,-0.00445556640625,1.05145263671875,37.0,0.0,-13.0,-2.4687957763671875,-0.241851806640625,Closing,0.0,0.0,-1.0,0.0,0.0,0.0,0.0,0.0,
3.163683000000019,0.0,0.0,104.0,0.625,-112.5,-238.1102353334427,0.0,0.125,0.8020018710000001,4.932250999999998,0.0,2598.0,2.0,127.5,238.1102353334427,0.0,0.125,0.520019478,4.963769999999998,0.0,-926.0,0.875,-112.5,-238.1102353334427,0.0,0.0,3.338622705,0.01,0.0,6380.0,0.75,217.5,238.1102353334427,0.0,0.25,1.6101072570000001,0.01,0.0,0.10000000149011612,-0.7200000286102295,-43.27000045776367,-0.02227783203125,-0.0069580078125,1.01519775390625,37.0,0.0,0.0,-2.471954345703125,-0.2434844970703125,Closing,0.0,0.0,-1.0,0.0,0.0,0.0,0.0,0.0,
3.431246000000043,0.0,0.0,48.0,0.375,-210.0,-238.1102353334427,0.0,0.125,0.8032225740000001,4.932250999999998,0.0,2661.0,1.625,217.5,238.1102353334427,0.0,0.125,0.522460884,4.963769999999998,0.0,-990.0,1.0,-210.0,-238.1102353334427,0.0,0.0,3.34472622,0.01,0.0,6429.0,0.875,255.0,238.1102353334427,0.0,0.25,1.6101072570000001,0.01,0.0,0.14000000059604645,-0.9399999976158142,-43.2400016784668,-0.0234375,0.01275634765625,1.05657958984375,36.970001220703125,0.0,-11.0,-2.4742584228515625,-0.2449951171875,Closing,0.0,0.0,-1.0,0.0,0.0,0.0,0.0,0.0,
3.6840670000000393,0.0,0.0,-28.0,0.375,-255.0,-238.1102353334427,0.0,0.125,0.8044432770000001,4.932250999999998,0.0,2739.0,1.25,240.0,238.1102353334427,0.0,0.125,0.521240181,4.963769999999998,0.0,-1068.0,0.625,-240.0,-238.1102353334427,0.0,0.0,3.331298487,0.01,0.0,6499.0,0.875,180.0,238.1102353334427,0.0,0.25,1.6101072570000001,0.01,0.0,0.20000000298023224,-0.9399999976158142,-43.15999984741211,-0.03240966796875,-0.01416015625,1.11651611328125,36.970001220703125,0.0,2.0,-2.473785400390625,-0.246337890625,Closing,0.0,0.0,-1.0,0.0,0.0,0.0,0.0,0.0,
3.963027000000002,0.0,0.0,-108.0,0.125,-255.0,-238.1102353334427,0.0,0.125,0.8032225740000001,4.932250999999998,0.0,2819.0,1.125,240.0,238.1102353334427,0.0,0.125,0.521240181,4.963769999999998,0.0,-1147.0,0.625,-247.5,-238.1102353334427,0.0,0.0,3.339843408,0.01,0.0,6575.0,1.125,232.5,238.1102353334427,0.0,0.25,1.6101072570000001,0.01,0.0,0.20000000298023224,-0.8899999856948853,-43.099998474121094,-0.0030517578125,0.0054931640625,1.0025634765625,36.97999954223633,0.0,7.0,-2.4732513427734375,-0.2459869384765625,Closing,0.0,0.0,-1.0,0.0,0.0,0.0,0.0,0.0,
4.229735000000044,0.0,0.0,-249.0,0.625,-330.0,-396.8503922224045,0.0,0.125,0.812988198,4.932250999999998,0.0,2914.0,2.375,345.0,396.8503922224045,0.0,0.125,0.521240181,4.963769999999998,0.0,-1237.0,1.5,-330.0,-396.8503922224045,0.0,0.0,3.353271141,0.01,0.0,6669.0,1.5,330.0,396.8503922224045,0.0,0.25,1.6113279600000001,0.01,0.0,0.1599999964237213,-1.2799999713897705,-43.08000183105469,-0.081298828125,-0.0264892578125,1.02789306640625,36.97999954223633,0.0,-22.0,-2.4784698486328125,-0.2479400634765625,Closing,0.0,0.0,-1.0,0.0,0.0,0.0,0.0,0.0,
4.484016000000003,0.0,0.0,-349.0,1.25,-240.0,-346.5841001600977,0.0,1.0,4.433593296000001,4.024590728700677,0.0,3065.0,8.125,727.5,946.9390481134957,0.0,0.25,0.28320309600000004,4.693893745094817,0.0,-1363.0,1.25,-315.0,-346.5841001600977,0.0,1.25,4.807128414,0.9091598956190954,0.0,6929.0,5.125,682.5,946.9390481134957,0.0,0.375,2.027587683,0.2695625445618749,0.0,0.18000000715255737,-1.2300000190734863,-46.70000076293945,0.02215576171875,-0.07122802734375,1.22509765625,36.970001220703125,0.0,87.0,-2.490447998046875,-0.2593231201171875,Closing,0.0,0.0,-1.0,0.0,0.0,0.0,0.0,0.0,
4.758048999999999,0.0,0.0,-483.0,0.375,-442.5,-434.89055323565697,0.0,1.125,0.47607417,4.262047396018569,0.0,3536.0,5.375,1072.5,1112.8786602870373,0.0,0.125,4.926757308,4.727564863529063,0.0,-1549.0,1.25,-457.5,-434.89055323565697,0.0,0.75,3.458251599,0.6713109055297195,0.0,7224.0,6.25,937.5,1112.8786602870373,0.0,0.25,1.750488102,0.23593056620731995,0.0,0.30000001192092896,-1.4800000190734863,-65.22000122070312,-0.11285400390625,0.24066162109375,1.08404541015625,36.970001220703125,0.0,-248.0,-2.500335693359375,-0.25408935546875,Closing,0.0,0.0,-1.0,0.0,0.0,0.0,0.0,0.0,
5.026545000000042,0.0,0.0,-639.0,2.625,-517.5,-694.4881582260131,0.0,0.625,1.075439343,4.932250999999998,0.0,3794.0,5.375,660.0,694.4881582260131,0.0,0.75,0.43334956500000005,4.963769999999998,0.0,-1674.0,4.0,-495.0,-694.4881582260131,0.0,0.125,3.1054684320000003,0.01,0.0,7481.0,4.875,660.0,694.4881582260131,0.0,0.25,1.519775235,0.01,0.0,0.23000000417232513,-1.2200000286102295,-68.86000061035156,-0.01513671875,-0.1279296875,1.2255859375,36.97999954223633,0.0,127.0,-2.520294189453125,-0.2685546875,Closing,0.0,0.0,-1.0,0.0,0.0,0.0,0.0,0.0,
5.218785000000032,0.0,0.0,-832.0,2.25,-682.5,-734.173253774643,0.0,0.375,0.900878814,4.932250999999998,0.0,3891.0,9.25,585.0,734.173253774643,0.0,0.25,0.6726073530000001,4.963769999999998,0.0,-1756.0,2.625,-660.0,-734.173253774643,0.0,0.125,3.392333637,0.01,0.0,7669.0,8.25,555.0,734.173253774643,0.0,0.25,1.596679524,0.01,0.0,-0.18000000715255737,-1.5800000429153442,-67.38999938964844,-0.2679443359375,0.0999755859375,1.1552734375,36.97999954223633,0.0,-186.0,-2.5199432373046875,-0.2855377197265625,Closing,0.0,0.0,-1.0,0.0,0.0,0.0,0.0,0.0,
5.394567000000039,0.0,0.0,-1094.0,0.625,-817.5,-734.173253774643,0.0,0.25,0.7360839090000001,4.932250999999998,0.0,4128.0,4.375,870.0,734.173253774643,0.0,0.25,0.6323241540000001,4.963769999999998,0.0,-2017.0,0.875,-847.5,-734.173253774643,0.0,0.125,3.446044569,0.01,0.0,7790.0,4.75,855.0,734.173253774643,0.0,0.25,1.619872881,0.01,0.0,0.18000000715255737,-1.6399999856948853,-66.69000244140625,0.0726318359375,-0.1864013671875,0.69891357421875,36.97999954223633,0.0,209.0,-2.526885986328125,-0.319488525390625,Closing,0.0,0.0,-1.0,0.0,0.0,0.0,0.0,0.0,
5.694883000000031,0.0,0.0,-1342.0,0.75,-750.0,-754.0157639980315,0.0,0.25,0.7897948410000001,4.932250999999998,0.0,4413.0,1.875,907.5,754.0157639980315,0.0,0.25,0.347900355,4.963769999999998,0.0,-2275.0,1.5,-742.5,-754.0157639980315,0.0,0.125,3.383788716,0.01,0.0,8201.0,3.875,862.5,754.0157639980315,0.0,0.125,1.6296385050000002,0.01,0.0,0.6600000262260437,-1.3300000429153442,-68.63999938964844,-0.0999755859375,-0.070556640625,1.2977294921875,36.970001220703125,0.0,54.0,-2.5349273681640625,-0.309295654296875,Closing,0.0,0.0,-1.0,0.0,0.0,0.0,0.0,0.0,
5.959277000000002,0.0,0.0,-1576.0,1.0,-750.0,-754.0157639980315,0.0,0.125,0.799560465,4.932250999999998,0.0,4823.0,1.625,825.0,754.0157639980315,0.0,0.25,0.444335892,4.963769999999998,0.0,-2632.0,1.75,-742.5,-754.0157639980315,0.0,0.125,3.3740230920000003,0.01,0.0,8462.0,3.75,817.5,754.0157639980315,0.0,0.125,1.627197099,0.01,0.0,0.4099999964237213,-1.1299999952316284,-70.27999877929688,-0.03021240234375,0.1387939453125,0.8948974609375,36.970001220703125,0.0,-128.0,-2.53662109375,-0.29364013671875,Closing,0.0,0.0,-1.0,0.0,0.0,0.0,0.0,0.0,
6.223402000000002,0.0,0.0,-1960.0,0.375,-810.0,-754.0157639980315,0.0,0.125,0.8154296040000001,4.932250999999998,0.0,5078.0,1.5,780.0,754.0157639980315,0.0,0.25,0.578613222,4.963769999999998,0.0,-2889.0,0.875,-810.0,-754.0157639980315,0.0,0.0,3.3691402800000003,0.01,0.0,8712.0,3.875,780.0,754.0157639980315,0.0,0.125,1.622314287,0.01,0.0,0.30000001192092896,-0.8199999928474426,-70.22000122070312,-0.0352783203125,-0.02508544921875,1.2059326171875,36.959999084472656,0.0,23.0,-2.5349273681640625,-0.2748260498046875,Closing,0.0,0.0,-1.0,0.0,0.0,0.0,0.0,0.0,
6.49865300000005,0.0,0.0,-2328.0,3.75,-1282.5,-1456.8804817643968,0.0,0.375,1.201171752,0.2755197915886836,0.0,5292.0,1.375,570.0,532.1508341430155,0.0,1.25,1.954345503,0.9688888801318352,0.0,-3168.0,8.625,-1035.0,-1456.8804817643968,0.0,0.25,2.940673527,4.664424998248319,0.0,8919.0,2.625,592.5,532.1508341430155,0.0,1.25,0.179443341,3.990237378505926,0.0,0.6399999856948853,-0.3799999952316284,-61.130001068115234,0.0645751953125,-0.03216552734375,0.75140380859375,36.90999984741211,0.0,69.0,-2.53619384765625,-0.25445556640625,Closing,0.0,0.0,-1.0,0.0,0.0,0.0,0.0,0.0,
6.763286000000022,0.0,0.0,-2792.0,3.875,-1425.0,-1550.4696949049815,0.0,0.25,1.1914061280000001,0.2927180894306787,0.0,5480.0,0.25,697.5,574.3114880652973,0.0,0.25,1.9494626910000001,1.0973697026458498,0.0,-3562.0,8.875,-1410.0,-1550.4696949049815,0.0,0.125,3.081054372,4.647198285605635,0.0,9221.0,2.625,667.5,574.3114880652973,0.0,0.375,0.426025347,3.8619059050443267,0.0,1.2100000381469727,-0.7799999713897705,-37.36000061035156,-0.16351318359375,0.00262451171875,0.3089599609375,36.90999984741211,0.0,-124.0,-2.5335693359375,-0.1967315673828125,Closing,0.0,0.0,-1.0,0.0,0.0,0.0,0.0,0.0,
7.022736000000034,0.0,0.0,-3192.0,0.0,-1177.5,0.0,0.0,0.25,1.070556531,0.2927180894306787,0.0,5698.0,0.0,480.0,0.0,0.0,0.25,1.314697131,1.0973697026458498,0.0,-4018.0,0.0,-1125.0,0.0,0.0,0.125,3.1140133530000003,4.647198285605635,0.0,9300.0,0.0,232.5,0.0,0.0,0.25,0.627441342,3.8619059050443267,0.0,1.5499999523162842,-0.7599999904632568,-17.100000381469727,0.0723876953125,0.0753173828125,1.19354248046875,36.91999816894531,0.0,71.0,-2.534576416015625,-0.121002197265625,Closing,0.0,0.0,-1.0,0.0,0.0,0.0,0.0,0.0,
7.239085000000021,0.0,0.0,-3402.0,0.0,-502.5,0.0,0.0,0.25,1.03759755,0.2927180894306787,0.0,5808.0,0.0,135.0,0.0,0.0,0.5,1.3171385370000002,1.0973697026458498,0.0,-4309.0,0.0,-547.5,0.0,0.0,0.125,3.090819996,4.647198285605635,0.0,9369.0,0.0,195.0,0.0,0.0,0.25,0.612792906,3.8619059050443267,0.0,1.659999966621399,-0.07999999821186066,-10.899999618530273,0.13336181640625,-0.00579833984375,0.98687744140625,36.91999816894531,0.0,138.0,-2.5081024169921875,-0.06781005859375,Closing,0.0,0.0,-1.0,0.0,0.0,0.0,0.0,0.0,
7.449823000000033,0.0,0.0,-3365.0,2.5,315.0,721.875,0.0,0.5,1.434326025,0.5498168668524888,0.0,5803.0,6.5,-247.5,-721.875,0.0,1.0,2.703857145,1.9285545897722223,0.0,-4389.0,5.375,210.0,721.875,0.0,0.25,2.6977536300000002,4.389674732977289,0.0,9346.0,3.875,-120.0,-721.875,0.0,1.5,4.210204647,3.031687206278559,0.0,1.3799999952316284,0.75,-14.680000305175781,-0.26226806640625,0.02880859375,1.0738525390625,36.91999816894531,0.0,-268.0,-2.4287109375,-0.0710906982421875,Closing,0.0,0.0,-1.0,0.0,0.0,0.0,0.0,0.0,
7.682466000000015,0.0,0.0,-3321.0,0.0,0.0,0.0,0.0,0.25,1.514892423,0.5498168668524888,0.0,5741.0,0.0,0.0,0.0,0.0,0.25,2.650146213,1.9285545897722223,0.0,-4275.0,0.0,172.5,0.0,0.0,0.125,2.678222382,4.389674732977289,0.0,9335.0,0.125,0.0,0.0,0.0,0.625,4.194335508,3.031687206278559,0.0,1.2000000476837158,0.7599999904632568,-16.600000381469727,0.07769775390625,-0.068359375,1.039794921875,36.91999816894531,0.0,86.0,-2.37457275390625,-0.0845947265625,Closing,0.0,0.0,-1.0,0.0,0.0,0.0,0.0,0.0,
7.894010999999999,0.0,0.0,-3327.0,0.0,0.0,0.0,0.0,0.375,1.386718608,0.5498168668524888,0.0,5749.0,0.0,30.0,0.0,0.0,0.25,2.34374976,1.9285545897722223,0.0,-4282.0,0.0,-30.0,0.0,0.0,0.125,2.784423543,4.389674732977289,0.0,9335.0,0.125,0.0,0.0,0.0,1.0,4.735106937,3.031687206278559,0.0,1.1799999475479126,0.23999999463558197,-16.299999237060547,0.019287109375,-0.0078125,1.058837890625,36.91999816894531,0.0,22.0,-2.3262939453125,-0.094207763671875,Closing,0.0,0.0,-1.0,0.0,0.0,0.0,0.0,0.0,
8.080506000000053,0.0,0.0,-3259.0,3.875,435.0,984.3749999999999,0.0,0.125,1.351318221,0.5498168668524888,0.0,5633.0,8.375,-480.0,-984.3749999999999,0.0,0.25,2.4230954550000003,1.9285545897722227,0.0,-4205.0,6.125,352.5,984.3749999999999,0.0,0.0,2.808837603,4.389674732977289,0.0,9243.0,3.25,-427.5,-984.3749999999999,0.0,0.25,4.702147956,3.0316872062785585,0.0,1.0199999809265137,0.6600000262260437,-23.309999465942383,-9.765625E-4,0.00457763671875,0.87005615234375,36.95000076293945,0.0,-5.0,-2.26226806640625,-0.095001220703125,Closing,0.0,0.0,-1.0,0.0,0.0,0.0,0.0,0.0,
8.305446000000055,0.0,0.0,-3083.0,0.0,495.0,0.0,0.0,0.125,1.352538924,0.5498168668524888,0.0,5558.0,0.0,-532.5,0.0,0.0,0.125,2.3730466320000003,1.9285545897722227,0.0,-4111.0,0.0,480.0,0.0,0.0,0.0,2.823486039,4.389674732977289,0.0,9169.0,0.0,-412.5,0.0,0.0,0.25,4.637450697,3.0316872062785585,0.0,0.8899999856948853,0.6399999856948853,-35.849998474121094,-0.03515625,4.8828125E-4,0.82452392578125,36.95000076293945,0.0,-28.0,-2.2067413330078125,-0.1000213623046875,Closing,0.0,0.0,-1.0,0.0,0.0,0.0,0.0,0.0,
8.564559000000008,0.0,0.0,-3033.0,0.0,30.0,0.0,0.0,0.125,1.352538924,0.5498168668524888,0.0,5478.0,0.0,-15.0,0.0,0.0,0.25,2.39257788,1.9285545897722227,0.0,-4013.0,0.0,52.5,0.0,0.0,0.125,2.834472366,4.389674732977289,0.0,9079.0,0.0,-22.5,0.0,0.0,0.125,4.633788588,3.0316872062785585,0.0,0.7099999785423279,0.30000001192092896,-38.810001373291016,-0.0054931640625,0.02911376953125,1.02532958984375,36.95000076293945,0.0,-18.0,-2.158905029296875,-0.1153564453125,Closing,0.0,0.0,-1.0,0.0,0.0,0.0,0.0,0.0,
8.833270000000018,0.0,0.0,-3033.0,0.0,0.0,0.0,0.0,0.125,1.352538924,0.5498168668524888,0.0,5478.0,0.0,0.0,0.0,0.0,0.25,2.4353024850000002,1.9285545897722227,0.0,-4013.0,0.0,0.0,0.0,0.0,0.125,2.824706742,4.389674732977289,0.0,9078.0,0.0,0.0,0.0,0.0,0.125,4.632567885,3.0316872062785585,0.0,0.699999988079071,0.18000000715255737,-37.709999084472656,-0.01953125,-9.765625E-4,1.03363037109375,36.95000076293945,0.0,-9.0,-2.1595306396484375,-0.1295318603515625,Closing,0.0,0.0,-1.0,0.0,0.0,0.0,0.0,0.0,
9.097986000000034,0.0,0.0,-3033.0,0.0,0.0,0.0,0.0,0.125,1.3476561120000001,0.5498168668524888,0.0,5478.0,0.0,0.0,0.0,0.0,0.0,2.441406,1.9285545897722227,0.0,-4013.0,0.0,0.0,0.0,0.0,0.125,2.823486039,4.389674732977289,0.0,9078.0,0.125,0.0,0.0,0.0,0.125,4.632567885,3.0316872062785585,0.0,0.6700000166893005,0.10999999940395355,-37.720001220703125,-0.00213623046875,0.0093994140625,1.02435302734375,36.939998626708984,0.0,-1.0,-2.1595306396484375,-0.1296539306640625,Closing,0.0,0.0,-1.0,0.0,0.0,0.0,0.0,0.0,
9.366241000000038,0.0,0.0,-3033.0,0.0,0.0,0.0,0.0,0.125,1.352538924,0.5498168668524888,0.0,5478.0,0.0,0.0,0.0,0.0,0.0,2.441406,1.9285545897722227,0.0,-4013.0,0.0,0.0,0.0,0.0,0.125,2.823486039,4.389674732977289,0.0,9078.0,0.0,0.0,0.0,0.0,0.125,4.632567885,3.0316872062785585,0.0,0.6499999761581421,0.0,-37.709999084472656,-0.00775146484375,0.0118408203125,1.02874755859375,36.939998626708984,0.0,-6.0,-2.1595306396484375,-0.1296539306640625,Closing,0.0,0.0,-1.0,0.0,0.0,0.0,0.0,0.0,
9.632612000000023,0.0,0.0,-3031.0,0.125,0.0,196.875,0.0,0.125,1.352538924,0.5498168668524888,0.0,5469.0,0.25,-22.5,-196.875,0.0,0.0,2.440185297,1.9285545897722227,0.0,-4013.0,0.5,0.0,196.875,0.0,0.125,2.818603227,4.389674732977289,0.0,9078.0,0.375,0.0,-196.875,0.0,0.125,4.632567885,3.0316872062785585,0.0,0.6399999856948853,-0.03999999910593033,-37.810001373291016,-0.00323486328125,0.0220947265625,1.02191162109375,36.91999816894531,0.0,-8.0,-2.159698486328125,-0.1296539306640625,Closing,0.0,0.0,-1.0,0.0,0.0,0.0,0.0,0.0,
9.89725,0.0,0.0,-3030.0,0.0,0.0,0.0,0.0,0.125,1.351318221,0.5498168668524888,0.0,5467.0,0.0,0.0,0.0,0.0,0.0,2.441406,1.9285545897722227,0.0,-4010.0,0.0,0.0,0.0,0.0,0.125,2.818603227,4.389674732977289,0.0,9074.0,0.0,0.0,0.0,0.0,0.125,4.635009291,3.0316872062785585,0.0,0.6200000047683716,-0.10999999940395355,-37.90999984741211,0.004150390625,0.0181884765625,1.01422119140625,36.91999816894531,0.0,0.0,-2.1598052978515625,-0.129974365234375,Closing,0.0,0.0,-1.0,0.0,0.0,0.0,0.0,0.0,
10.164608000000008,0.0,0.0,-3029.0,0.375,7.5,196.875,0.0,0.125,1.352538924,0.5498168668524888,0.0,5463.0,0.625,-7.5,-196.875,0.0,0.0,2.441406,1.9285545897722227,0.0,-4008.0,0.5,0.0,196.875,0.0,0.125,2.818603227,4.389674732977289,0.0,9074.0,0.375,0.0,-196.875,0.0,0.125,4.632567885,3.0316872062785585,0.0,0.6200000047683716,-0.15000000596046448,-38.04999923706055,-0.009765625,0.00177001953125,1.02960205078125,36.93000030517578,0.0,0.0,-2.1598052978515625,-0.129974365234375,Closing,0.0,0.0,-1.0,0.0,0.0,0.0,0.0,0.0,
10.429881000000051,0.0,0.0,-3027.0,0.0,0.0,0.0,0.0,0.125,1.352538924,0.5498168668524888,0.0,5464.0,0.0,0.0,0.0,0.0,0.0,2.441406,1.9285545897722227,0.0,-4008.0,0.0,-7.5,0.0,0.0,0.125,2.81982393,4.389674732977289,0.0,9073.0,0.0,0.0,0.0,0.0,0.125,4.632567885,3.0316872062785585,0.0,0.5799999833106995,-0.20000000298023224,-38.099998474121094,-0.0040283203125,0.0162353515625,1.03314208984375,36.93000030517578,0.0,-3.0,-2.1598358154296875,-0.1302490234375,Closing,0.0,0.0,-1.0,0.0,0.0,0.0,0.0,0.0,
10.698736000000034,0.0,0.0,-3028.0,0.0,0.0,0.0,0.0,0.125,1.351318221,0.5498168668524888,0.0,5464.0,0.0,0.0,0.0,0.0,0.0,2.441406,1.9285545897722227,0.0,-4008.0,0.0,0.0,0.0,0.0,0.125,2.818603227,4.389674732977289,0.0,9073.0,0.0,0.0,0.0,0.0,0.125,4.632567885,3.0316872062785585,0.0,0.5899999737739563,-0.23000000417232513,-38.099998474121094,-0.00848388671875,0.012939453125,1.0206298828125,36.93000030517578,0.0,-4.0,-2.15997314453125,-0.1302490234375,Closing,0.0,0.0,-1.0,0.0,0.0,0.0,0.0,0.0,
10.950004000000016,0.0,0.0,-3028.0,0.0,0.0,0.0,0.0,0.125,1.351318221,0.5498168668524888,0.0,5464.0,0.0,0.0,0.0,0.0,0.0,2.441406,1.9285545897722227,0.0,-4008.0,0.0,0.0,0.0,0.0,0.125,2.818603227,4.389674732977289,0.0,9073.0,0.0,0.0,0.0,0.0,0.125,4.633788588,3.0316872062785585,0.0,0.6000000238418579,-0.25,-38.099998474121094,-0.0048828125,0.00628662109375,1.0201416015625,36.93000030517578,0.0,2.0,-2.15997314453125,-0.1302490234375,Closing,0.0,0.0,-1.0,0.0,0.0,0.0,0.0,0.0,
11.165615000000049,0.0,0.0,-3028.0,0.0,0.0,0.0,0.0,0.125,1.352538924,0.5498168668524888,0.0,5464.0,0.0,0.0,0.0,0.0,0.0,2.441406,1.9285545897722227,0.0,-4008.0,0.0,0.0,0.0,0.0,0.125,2.818603227,4.389674732977289,0.0,9073.0,0.0,0.0,0.0,0.0,0.125,4.633788588,3.0316872062785585,0.0,0.5799999833106995,-0.27000001072883606,-38.099998474121094,-0.0047607421875,0.013916015625,1.0164794921875,36.90999984741211,0.0,-2.0,-2.15997314453125,-0.1302490234375,Closing,0.0,0.0,-1.0,0.0,0.0,0.0,0.0,0.0,
11.431051000000036,0.0,0.0,-3028.0,0.0,0.0,0.0,0.0,0.125,1.351318221,0.5498168668524888,0.0,5464.0,0.0,0.0,0.0,0.0,0.0,2.441406,1.9285545897722227,0.0,-4008.0,0.0,0.0,0.0,0.0,0.125,2.818603227,4.389674732977289,0.0,9073.0,0.0,0.0,0.0,0.0,0.125,4.633788588,3.0316872062785585,0.0,0.5799999833106995,-0.2800000011920929,-38.11000061035156,-0.00787353515625,0.010986328125,1.01580810546875,36.90999984741211,0.0,-2.0,-2.15997314453125,-0.1302490234375,Closing,0.0,0.0,-1.0,0.0,0.0,0.0,0.0,0.0,
11.614856000000028,0.0,0.0,-2985.0,7.625,412.5,1279.6875,0.0,0.125,1.3476561120000001,0.5498168668524888,0.0,5372.0,15.0,-450.0,-1279.6875,0.0,0.0,2.564697003,1.9285545897722223,0.0,-3968.0,12.375,202.5,1279.6875,0.0,0.125,2.8076169,4.389674732977289,0.0,9009.0,6.25,-382.5,-1279.6875,0.0,0.125,4.622802261,3.031687206278559,0.0,0.8899999856948853,-0.12999999523162842,-44.09000015258789,0.063720703125,-0.06982421875,0.88433837890625,36.970001220703125,0.0,105.0,-2.16278076171875,-0.1235198974609375,Closing,0.0,0.0,-1.0,0.0,0.0,0.0,0.0,0.0,
11.833332000000054,0.0,0.0,-2824.0,0.0,352.5,0.0,0.0,0.125,1.3476561120000001,0.5498168668524888,0.0,5215.0,0.0,-517.5,0.0,0.0,0.25,2.402343504,1.9285545897722223,0.0,-3838.0,0.0,382.5,0.0,0.0,0.0,2.8076169,4.389674732977289,0.0,8842.0,0.0,-420.0,0.0,0.0,0.25,4.638671400000001,3.031687206278559,0.0,0.7099999785423279,-0.05000000074505806,-57.68000030517578,-0.01312255859375,-0.1104736328125,1.04150390625,36.970001220703125,0.0,97.0,-2.1655426025390625,-0.1154632568359375,Closing,0.0,0.0,-1.0,0.0,0.0,0.0,0.0,0.0,
12.099641000000004,0.0,0.0,-2775.0,0.0,0.0,0.0,0.0,0.125,1.3476561120000001,0.5498168668524888,0.0,5192.0,0.0,0.0,0.0,0.0,0.25,2.363281008,1.9285545897722223,0.0,-3804.0,0.0,0.0,0.0,0.0,0.0,2.808837603,4.389674732977289,0.0,8809.0,0.125,0.0,0.0,0.0,0.125,4.609374528,3.031687206278559,0.0,0.4699999988079071,-0.2199999988079071,-59.369998931884766,0.030029296875,-0.00994873046875,1.01129150390625,36.97999954223633,0.0,33.0,-2.1671295166015625,-0.1110992431640625,Closing,0.0,0.0,-1.0,0.0,0.0,0.0,0.0,0.0,
12.361060000000055,0.0,0.0,-2787.0,0.375,-60.0,-363.77954185009,0.0,0.125,1.361083845,0.5498168668524864,0.0,5207.0,1.875,60.0,363.77954185009,0.0,0.25,2.36816382,1.92855458977222,0.0,-3813.0,0.625,-52.5,-363.77954185009,0.0,0.0,2.828368851,4.389674732977291,0.0,8819.0,1.125,45.0,363.77954185009,0.0,0.25,4.617919449,3.031687206278561,0.0,0.5099999904632568,-0.25,-58.47999954223633,0.00750732421875,0.012939453125,0.987548828125,36.97999954223633,0.0,2.0,-2.16705322265625,-0.111663818359375,Closing,0.0,0.0,-1.0,0.0,0.0,0.0,0.0,0.0,
12.632169000000053,0.0,0.0,-2800.0,0.0,0.0,0.0,0.0,0.125,1.361083845,0.5498168668524864,0.0,5212.0,0.0,0.0,0.0,0.0,0.25,2.4267575640000003,1.92855458977222,0.0,-3833.0,0.0,0.0,0.0,0.0,0.125,2.833251663,4.389674732977291,0.0,8828.0,0.0,0.0,0.0,0.0,0.25,4.627685073,3.031687206278561,0.0,0.550000011920929,-0.23999999463558197,-57.880001068115234,-0.0189208984375,-0.0076904296875,0.98321533203125,36.95000076293945,0.0,6.0,-2.1680755615234375,-0.11126708984375,Closing,0.0,0.0,-1.0,0.0,0.0,0.0,0.0,0.0,
12.834460000000021,0.0,0.0,-2800.0,0.125,0.0,-132.28346407413483,0.0,0.125,1.361083845,0.5498168668524864,0.0,5212.0,0.375,0.0,132.28346407413483,0.0,0.0,2.4316403760000003,1.92855458977222,0.0,-3832.0,0.125,0.0,-132.28346407413483,0.0,0.125,2.833251663,4.389674732977291,0.0,8828.0,0.375,0.0,132.28346407413483,0.0,0.25,4.627685073,3.031687206278561,0.0,0.5099999904632568,-0.2800000011920929,-57.83000183105469,-0.0010986328125,0.01068115234375,1.01422119140625,36.95000076293945,0.0,0.0,-2.1679534912109375,-0.1116180419921875,Closing,0.0,0.0,-1.0,0.0,0.0,0.0,0.0,0.0,
13.099626000000047,0.0,0.0,-2800.0,0.0,0.0,0.0,0.0,0.125,1.361083845,0.5498168668524864,0.0,5213.0,0.0,0.0,0.0,0.0,0.0,2.4316403760000003,1.92855458977222,0.0,-3832.0,0.0,0.0,0.0,0.0,0.125,2.833251663,4.389674732977291,0.0,8828.0,0.0,0.0,0.0,0.0,0.25,4.627685073,3.031687206278561,0.0,0.5199999809265137,-0.30000001192092896,-57.83000183105469,-0.00933837890625,0.0035400390625,1.0181884765625,36.97999954223633,0.0,2.0,-2.1679534912109375,-0.1116180419921875,Closing,0.0,0.0,-1.0,0.0,0.0,0.0,0.0,0.0,
13.361417000000015,0.0,0.0,-2800.0,0.0,0.0,0.0,0.0,0.125,1.361083845,0.5498168668524864,0.0,5213.0,0.0,0.0,0.0,0.0,0.0,2.4316403760000003,1.92855458977222,0.0,-3832.0,0.0,0.0,0.0,0.0,0.125,2.833251663,4.389674732977291,0.0,8828.0,0.0,0.0,0.0,0.0,0.25,4.627685073,3.031687206278561,0.0,0.5299999713897705,-0.28999999165534973,-57.83000183105469,-0.0096435546875,0.010009765625,1.01739501953125,36.97999954223633,0.0,-2.0,-2.1679534912109375,-0.1116180419921875,Closing,0.0,0.0,-1.0,0.0,0.0,0.0,0.0,0.0,
13.632037000000011,0.0,0.0,-2799.0,0.125,7.5,114.84375,0.0,0.125,1.361083845,0.5498168668524888,0.0,5200.0,0.0,-60.0,-114.84375,0.0,0.0,2.4316403760000003,1.9285545897722223,0.0,-3832.0,0.375,0.0,114.84375,0.0,0.125,2.833251663,4.389674732977289,0.0,8828.0,0.375,0.0,-114.84375,0.0,0.25,4.627685073,3.031687206278559,0.0,0.5299999713897705,-0.3100000023841858,-57.869998931884766,-0.00494384765625,0.0054931640625,1.018798828125,36.939998626708984,0.0,3.0,-2.1679534912109375,-0.1116180419921875,Closing,0.0,0.0,-1.0,0.0,0.0,0.0,0.0,0.0,
13.887829000000027,0.0,0.0,-2901.0,11.25,-832.5,-1918.1101977825167,0.0,0.125,1.36718736,0.5498168668524864,0.0,5409.0,18.0,817.5,1918.1101977825167,0.0,0.0,2.4353024850000002,1.92855458977222,0.0,-3886.0,22.75,-307.5,-1918.1101977825167,0.0,0.125,2.8430172870000003,4.389674732977291,0.0,8949.0,13.375,787.5,1918.1101977825167,0.0,0.25,4.627685073,3.031687206278561,0.0,0.699999988079071,-0.6000000238418579,-47.380001068115234,-0.0799560546875,0.1258544921875,0.94940185546875,36.939998626708984,0.0,-131.0,-2.1762542724609375,-0.1169586181640625,Closing,0.0,0.0,-1.0,0.0,0.0,0.0,0.0,0.0,
14.164042000000016,0.0,0.0,-3434.0,0.0,-915.0,0.0,0.0,0.125,1.357421736,0.5498168668524864,0.0,5756.0,0.0,877.5,0.0,0.0,0.0,2.46582006,1.92855458977222,0.0,-4160.0,0.0,-952.5,0.0,0.0,0.125,2.764892295,4.389674732977291,0.0,9303.0,0.0,960.0,0.0,0.0,0.25,4.682616708,3.031687206278561,0.0,0.6100000143051147,-0.8299999833106995,-10.050000190734863,0.04254150390625,0.04718017578125,0.59002685546875,36.959999084472656,0.0,43.0,-2.19970703125,-0.109619140625,Closing,0.0,0.0,-1.0,0.0,0.0,0.0,0.0,0.0,
14.386526000000012,0.0,0.0,-3594.0,0.0,-427.5,0.0,0.0,0.125,1.352538924,0.5498168668524864,0.0,5962.0,0.0,450.0,0.0,0.0,0.25,2.4853513080000003,1.92855458977222,0.0,-4395.0,0.0,-502.5,0.0,0.0,0.0,2.760009483,4.389674732977291,0.0,9541.0,0.0,495.0,0.0,0.0,0.25,4.681396005,3.031687206278561,0.0,0.25,-0.9700000286102295,4.010000228881836,0.04876708984375,-0.01324462890625,1.01531982421875,36.959999084472656,0.0,64.0,-2.2018585205078125,-0.09832763671875,Closing,0.0,0.0,-1.0,0.0,0.0,0.0,0.0,0.0,
14.690939000000013,0.0,0.0,-3426.0,17.5,1050.0,2100.0,0.0,0.125,1.3476561120000001,0.5498168668524888,0.0,5935.0,27.375,-1117.5,-2100.0,0.0,0.25,2.519530992,1.9285545897722227,0.0,-4449.0,34.375,277.5,2100.0,0.0,0.0,2.761230186,4.389674732977289,0.0,9367.0,12.375,-1072.5,-2100.0,0.0,0.25,4.686278817,3.0316872062785585,0.0,0.699999988079071,-0.5,-8.960000038146973,0.02984619140625,0.12042236328125,1.58441162109375,36.95000076293945,0.0,27.0,-2.197235107421875,-0.082061767578125,Closing,0.0,0.0,-1.0,0.0,0.0,0.0,0.0,0.0,
14.911753000000026,0.0,0.0,-2985.0,0.0,1350.0,0.0,0.0,0.125,1.3427733000000002,0.5498168668524888,0.0,5477.0,0.0,-1395.0,0.0,0.0,0.25,2.363281008,1.9285545897722227,0.0,-4260.0,0.0,945.0,0.0,0.0,0.0,2.7893063550000003,4.389674732977289,0.0,8898.0,0.0,-1395.0,0.0,0.0,0.25,4.628905776,3.0316872062785585,0.0,0.7900000214576721,0.6700000166893005,-48.400001525878906,-0.154541015625,-0.1375732421875,-0.5584716796875,36.95000076293945,0.0,-1.0,-2.1977996826171875,-0.0669403076171875,Closing,0.0,0.0,-1.0,0.0,0.0,0.0,0.0,0.0,
15.163785000000033,0.0,0.0,-2642.0,0.0,1050.0,0.0,0.0,0.125,1.3439940030000002,0.5498168668524888,0.0,5095.0,0.0,-915.0,0.0,0.0,0.25,2.388915771,1.9285545897722227,0.0,-3926.0,0.0,975.0,0.0,0.0,0.0,2.7990719790000003,4.389674732977289,0.0,8725.0,0.0,-945.0,0.0,0.0,0.25,4.667968272,3.0316872062785585,0.0,0.4300000071525574,0.2199999988079071,-70.05000305175781,0.03961181640625,0.04022216796875,1.50341796875,36.95000076293945,0.0,-15.0,-2.2040252685546875,-0.0650177001953125,Closing,0.0,0.0,-1.0,0.0,0.0,0.0,0.0,0.0,
15.36440400000004,0.0,0.0,-2518.0,0.0,660.0,0.0,0.0,0.125,1.3427733000000002,0.5498168668524888,0.0,4856.0,0.0,-592.5,0.0,0.0,0.25,2.421874752,1.9285545897722227,0.0,-3674.0,0.0,637.5,0.0,0.0,0.0,2.7990719790000003,4.389674732977289,0.0,8480.0,0.0,-577.5,0.0,0.0,0.125,4.682616708,3.0316872062785585,0.0,0.10999999940395355,0.28999999165534973,-85.4000015258789,-0.0223388671875,-0.0721435546875,1.1951904296875,36.959999084472656,0.0,71.0,-2.205047607421875,-0.069671630859375,Closing,0.0,0.0,-1.0,0.0,0.0,0.0,0.0,0.0,
15.628541000000027,0.0,0.0,-2698.0,14.875,-1260.0,-2100.0,0.0,0.125,1.364745954,0.5498168668524864,0.0,4974.0,19.625,1312.5,2100.0,0.0,0.125,2.4316403760000003,1.92855458977222,0.0,-3587.0,30.125,-157.5,-2100.0,0.0,0.0,2.81982393,4.389674732977291,0.0,8478.0,19.875,1117.5,2100.0,0.0,0.25,4.628905776,3.031687206278561,0.0,0.009999999776482582,-0.46000000834465027,-71.5999984741211,0.412841796875,0.412109375,1.19757080078125,36.959999084472656,0.0,-257.0,-2.190338134765625,-0.1051025390625,Closing,0.0,0.0,-1.0,0.0,0.0,0.0,0.0,0.0,
15.844166000000026,0.0,0.0,-2968.0,0.0,-1575.0,0.0,0.0,0.125,1.351318221,0.5498168668524864,0.0,5492.0,0.0,1410.0,0.0,0.0,0.0,2.460937248,1.92855458977222,0.0,-3772.0,0.0,-795.0,0.0,0.0,0.125,2.7978512760000003,4.389674732977291,0.0,8932.0,0.0,1395.0,0.0,0.0,0.25,4.644774915,3.031687206278561,0.0,1.4800000190734863,-1.090000033378601,-37.959999084472656,-0.31683349609375,0.1849365234375,1.470458984375,36.95000076293945,0.0,-317.0,-2.195526123046875,-0.123138427734375,Closing,0.0,0.0,-1.0,0.0,0.0,0.0,0.0,0.0,
16.100664000000048,0.0,0.0,-3390.0,0.0,-922.5,0.0,0.0,0.125,1.3427733000000002,0.5498168668524864,0.0,5829.0,0.0,892.5,0.0,0.0,0.125,2.470702872,1.92855458977222,0.0,-4124.0,0.0,-1087.5,0.0,0.0,0.0,2.784423543,4.389674732977291,0.0,9324.0,0.0,1005.0,0.0,0.0,0.125,4.68749952,3.031687206278561,0.0,1.0299999713897705,-1.2000000476837158,-8.300000190734863,0.1024169921875,0.1165771484375,1.28753662109375,36.95000076293945,0.0,114.0,-2.209259033203125,-0.1092529296875,Closing,0.0,0.0,-1.0,0.0,0.0,0.0,0.0,0.0,
16.301205000000017,0.0,0.0,-3619.0,0.0,-495.0,0.0,0.0,0.125,1.3427733000000002,0.5498168668524864,0.0,6019.0,0.0,487.5,0.0,0.0,0.25,2.470702872,1.92855458977222,0.0,-4355.0,0.0,-585.0,0.0,0.0,0.0,2.784423543,4.389674732977291,0.0,9548.0,0.0,540.0,0.0,0.0,0.25,4.688720223000001,3.031687206278561,0.0,0.6399999856948853,-1.3200000524520874,4.639999866485596,0.00213623046875,0.03033447265625,1.05255126953125,36.95000076293945,0.0,27.0,-2.2084808349609375,-0.0915069580078125,Closing,0.0,0.0,-1.0,0.0,0.0,0.0,0.0,0.0,
16.50421100000001,0.0,0.0,-3613.0,8.125,577.5,1296.09375,0.0,0.125,1.3427733000000002,0.5498168668524888,0.0,5921.0,14.0,-712.5,-1296.09375,0.0,0.25,2.501220447,1.9285545897722223,0.0,-4362.0,16.5,210.0,1296.09375,0.0,0.0,2.784423543,4.389674732977289,0.0,9497.0,6.0,-697.5,-1296.09375,0.0,0.25,4.681396005,3.031687206278559,0.0,0.8100000023841858,-0.8100000023841858,-2.359999895095825,0.01910400390625,-0.0052490234375,1.04119873046875,36.95000076293945,0.0,34.0,-2.203277587890625,-0.0951385498046875,Closing,0.0,0.0,-1.0,0.0,0.0,0.0,0.0,0.0,
16.725353000000002,0.0,0.0,-3342.0,0.0,802.5,0.0,0.0,0.125,1.3427733000000002,0.5498168668524888,0.0,5788.0,0.0,-832.5,0.0,0.0,0.25,2.4316403760000003,1.9285545897722223,0.0,-4276.0,0.0,645.0,0.0,0.0,0.0,2.784423543,4.389674732977289,0.0,9222.0,0.0,-825.0,0.0,0.0,0.25,4.625243667,3.031687206278559,0.0,0.9800000190734863,-0.6200000047683716,-22.5,-0.03277587890625,0.11053466796875,0.96783447265625,36.939998626708984,0.0,-56.0,-2.19219970703125,-0.0968475341796875,Closing,0.0,0.0,-1.0,0.0,0.0,0.0,0.0,0.0,
16.963492000000027,0.0,0.0,-3180.0,0.0,427.5,0.0,0.0,0.125,1.3427733000000002,0.5498168668524888,0.0,5573.0,0.0,-412.5,0.0,0.0,0.0,2.363281008,1.9285545897722223,0.0,-4027.0,0.0,367.5,0.0,0.0,0.0,2.7893063550000003,4.389674732977289,0.0,9076.0,0.0,-322.5,0.0,0.0,0.25,4.62646437,3.031687206278559,0.0,0.8999999761581421,-0.12999999523162842,-34.75,0.0159912109375,-0.02374267578125,0.89410400390625,36.939998626708984,0.0,36.0,-2.1801605224609375,-0.0914764404296875,Closing,0.0,0.0,-1.0,0.0,0.0,0.0,0.0,0.0,
17.227513000000034,0.0,0.0,-3136.0,0.0,22.5,0.0,0.0,0.125,1.3427733000000002,0.5498168668524888,0.0,5500.0,0.0,-15.0,0.0,0.0,0.25,2.402343504,1.9285545897722223,0.0,-4005.0,0.0,7.5,0.0,0.0,0.0,2.7941891670000003,4.389674732977289,0.0,9054.0,0.0,0.0,0.0,0.0,0.25,4.625243667,3.031687206278559,0.0,0.7400000095367432,-0.2800000011920929,-36.16999816894531,-0.01690673828125,0.0145263671875,1.01763916015625,36.91999816894531,0.0,-10.0,-2.1800689697265625,-0.0914306640625,Closing,0.0,0.0,-1.0,0.0,0.0,0.0,0.0,0.0,
17.502405000000028,0.0,0.0,-3010.0,7.625,772.5,1410.9375,0.0,0.125,1.3427733000000002,0.5498168668524888,0.0,5307.0,14.5,-750.0,-1410.9375,0.0,0.25,2.550048567,1.9285545897722227,0.0,-3907.0,15.0,450.0,1410.9375,0.0,0.0,2.78320284,4.389674732977289,0.0,8904.0,6.0,-720.0,-1410.9375,0.0,0.25,4.692382332,3.0316872062785585,0.0,0.8299999833106995,-0.14000000059604645,-48.380001068115234,0.04327392578125,0.09332275390625,1.24578857421875,36.91999816894531,0.0,-25.0,-2.17291259765625,-0.0895233154296875,Closing,0.0,0.0,-1.0,0.0,0.0,0.0,0.0,0.0,
17.76532400000002,0.0,0.0,-2746.0,0.0,705.0,0.0,0.0,0.125,1.3427733000000002,0.5498168668524888,0.0,5046.0,0.0,-697.5,0.0,0.0,0.25,2.36816382,1.9285545897722227,0.0,-3671.0,0.0,712.5,0.0,0.0,0.0,2.785644246,4.389674732977289,0.0,8611.0,0.0,-780.0,0.0,0.0,0.25,4.659423351,3.0316872062785585,0.0,0.33000001311302185,0.09000000357627869,-72.12999725341797,0.04534912109375,0.10198974609375,1.0150146484375,36.93000030517578,0.0,-78.0,-2.1641845703125,-0.088592529296875,Closing,0.0,0.0,-1.0,0.0,0.0,0.0,0.0,0.0,
18.031529000000038,0.0,0.0,-2793.0,5.0,-787.5,-1140.9448385238647,0.0,0.125,1.364745954,0.5498168668524864,0.0,5055.0,7.0,855.0,1140.9448385238647,0.0,0.25,2.333984136,1.92855458977222,0.0,-3552.0,19.375,-30.0,-1140.9448385238647,0.0,0.0,2.818603227,4.389674732977291,0.0,8555.0,6.5,667.5,1140.9448385238647,0.0,0.125,4.6081538250000005,3.031687206278561,0.0,0.0,-0.5099999904632568,-65.95999908447266,-0.1702880859375,0.04656982421875,0.94012451171875,36.93000030517578,0.0,-108.0,-2.1535491943359375,-0.0982818603515625,Closing,0.0,0.0,-1.0,0.0,0.0,0.0,0.0,0.0,
18.297700000000013,0.0,0.0,-3098.0,0.0,-840.0,0.0,0.0,0.125,1.356201033,0.5498168668524864,0.0,5367.0,0.0,675.0,0.0,0.0,0.25,2.4755856840000003,1.92855458977222,0.0,-3679.0,0.0,-675.0,0.0,0.0,0.125,2.8039547910000002,4.389674732977291,0.0,8929.0,0.0,652.5,0.0,0.0,0.25,4.67529249,3.031687206278561,0.0,0.6100000143051147,-0.7599999904632568,-41.380001068115234,-0.056640625,0.140625,1.71441650390625,36.93000030517578,0.0,-106.0,-2.152130126953125,-0.114776611328125,Closing,0.0,0.0,-1.0,0.0,0.0,0.0,0.0,0.0,
18.566213000000047,0.0,0.0,-3220.0,0.0,-180.0,0.0,0.0,0.125,1.3476561120000001,0.5498168668524864,0.0,5550.0,0.0,202.5,0.0,0.0,0.25,2.510986071,1.92855458977222,0.0,-3891.0,0.0,-217.5,0.0,0.0,0.0,2.7893063550000003,4.389674732977291,0.0,9043.0,0.0,225.0,0.0,0.0,0.25,4.698485847000001,3.031687206278561,0.0,0.38999998569488525,-0.41999998688697815,-31.670000076293945,0.02618408203125,-0.02996826171875,0.93829345703125,36.93000030517578,0.0,14.0,-2.1498260498046875,-0.116180419921875,Closing,0.0,0.0,-1.0,0.0,0.0,0.0,0.0,0.0,
18.831587,0.0,0.0,-3212.0,0.75,127.5,360.9375,0.0,0.125,1.3415525970000002,0.5498168668524888,0.0,5526.0,1.625,-135.0,-360.9375,0.0,0.25,2.460937248,1.9285545897722223,0.0,-3866.0,0.875,127.5,360.9375,0.0,0.0,2.7893063550000003,4.389674732977289,0.0,9025.0,0.625,-157.5,-360.9375,0.0,0.25,4.683837411,3.031687206278559,0.0,0.4099999964237213,-0.3100000023841858,-34.27000045776367,0.03314208984375,-0.00555419921875,0.9874267578125,36.900001525878906,0.0,39.0,-2.148895263671875,-0.116241455078125,Closing,0.0,0.0,-1.0,0.0,0.0,0.0,0.0,0.0,
19.098801000000037,0.0,0.0,-3176.0,0.0,30.0,0.0,0.0,0.125,1.3427733000000002,0.5498168668524888,0.0,5506.0,0.0,0.0,0.0,0.0,0.125,2.402343504,1.9285545897722223,0.0,-3834.0,0.0,15.0,0.0,0.0,0.0,2.7905270580000003,4.389674732977289,0.0,8996.0,0.125,-37.5,0.0,0.0,0.25,4.674071787,3.031687206278559,0.0,0.4000000059604645,-0.3499999940395355,-37.29999923706055,0.03125,-0.0040283203125,0.9908447265625,36.900001525878906,0.0,36.0,-2.149383544921875,-0.1143646240234375,Closing,0.0,0.0,-1.0,0.0,0.0,0.0,0.0,0.0,
19.36886600000004,0.0,0.0,-3176.0,0.0,0.0,0.0,0.0,0.125,1.3427733000000002,0.5498168668524888,0.0,5506.0,0.0,0.0,0.0,0.0,0.25,2.407226316,1.9285545897722223,0.0,-3834.0,0.0,0.0,0.0,0.0,0.0,2.7893063550000003,4.389674732977289,0.0,8994.0,0.125,0.0,0.0,0.0,0.25,4.67529249,3.031687206278559,0.0,0.46000000834465027,-0.3199999928474426,-36.790000915527344,-0.0150146484375,0.01324462890625,1.02667236328125,36.88999938964844,0.0,-10.0,-2.1493988037109375,-0.1139984130859375,Closing,0.0,0.0,-1.0,0.0,0.0,0.0,0.0,0.0,
19.621099000000047,0.0,0.0,-3125.0,2.0,195.0,689.0625,0.0,0.125,1.3427733000000002,0.5498168668524888,0.0,5473.0,4.5,-195.0,-689.0625,0.0,0.25,2.421874752,1.9285545897722223,0.0,-3817.0,3.125,195.0,689.0625,0.0,0.0,2.784423543,4.389674732977289,0.0,8973.0,2.375,-180.0,-689.0625,0.0,0.25,4.672851084,3.031687206278559,0.0,0.6600000262260437,-0.1899999976158142,-39.20000076293945,-0.0360107421875,0.05419921875,1.11102294921875,36.88999938964844,0.0,-51.0,-2.1461334228515625,-0.1120452880859375,Closing,0.0,0.0,-1.0,0.0,0.0,0.0,0.0,0.0,
19.82999000000005,0.0,0.0,-3089.0,0.0,45.0,0.0,0.0,0.125,1.3427733000000002,0.5498168668524888,0.0,5423.0,0.0,-60.0,0.0,0.0,0.125,2.403564207,1.9285545897722223,0.0,-3749.0,0.0,75.0,0.0,0.0,0.0,2.8039547910000002,4.389674732977289,0.0,8921.0,0.125,-52.5,0.0,0.0,0.25,4.674071787,3.031687206278559,0.0,0.7400000095367432,-0.3700000047683716,-43.41999816894531,0.02789306640625,-0.01849365234375,0.9114990234375,36.88999938964844,0.0,45.0,-2.1410369873046875,-0.106353759765625,Closing,0.0,0.0,-1.0,0.0,0.0,0.0,0.0,0.0,
20.097580000000015,0.0,0.0,-3096.0,0.0,-37.5,0.0,0.0,0.125,1.351318221,0.5498168668524888,0.0,5422.0,0.0,22.5,0.0,0.0,0.25,2.4230954550000003,1.9285545897722223,0.0,-3752.0,0.0,-52.5,0.0,0.0,0.0,2.7893063550000003,4.389674732977289,0.0,8924.0,0.0,45.0,0.0,0.0,0.25,4.674071787,3.031687206278559,0.0,0.5699999928474426,-0.3400000035762787,-41.459999084472656,0.01385498046875,0.01763916015625,0.991943359375,36.88999938964844,0.0,9.0,-2.140380859375,-0.1071624755859375,Closing,0.0,0.0,-1.0,0.0,0.0,0.0,0.0,0.0,
20.364708000000043,0.0,0.0,-3096.0,0.0,0.0,0.0,0.0,0.125,1.352538924,0.5498168668524888,0.0,5425.0,0.0,0.0,0.0,0.0,0.125,2.421874752,1.9285545897722223,0.0,-3756.0,0.0,0.0,0.0,0.0,0.0,2.7893063550000003,4.389674732977289,0.0,8924.0,0.125,0.0,0.0,0.0,0.25,4.67529249,3.031687206278559,0.0,0.6100000143051147,-0.3499999940395355,-41.529998779296875,-0.00946044921875,0.01470947265625,1.00830078125,36.90999984741211,0.0,-5.0,-2.140380859375,-0.1070709228515625,Closing,0.0,0.0,-1.0,0.0,0.0,0.0,0.0,0.0,
20.618276000000012,0.0,0.0,-3096.0,0.0,0.0,0.0,0.0,0.125,1.352538924,0.5498168668524888,0.0,5425.0,0.0,0.0,0.0,0.0,0.125,2.421874752,1.9285545897722223,0.0,-3756.0,0.0,0.0,0.0,0.0,0.0,2.7893063550000003,4.389674732977289,0.0,8924.0,0.0,0.0,0.0,0.0,0.25,4.674071787,3.031687206278559,0.0,0.6100000143051147,-0.3499999940395355,-41.529998779296875,-0.006591796875,0.00738525390625,1.022705078125,36.90999984741211,0.0,2.0,-2.140380859375,-0.1070709228515625,Closing,0.0,0.0,-1.0,0.0,0.0,0.0,0.0,0.0,
20.900746000000044,0.0,0.0,-3096.0,0.0,0.0,0.0,0.0,0.125,1.356201033,0.5498168668524888,0.0,5425.0,0.0,0.0,0.0,0.0,0.125,2.421874752,1.9285545897722223,0.0,-3756.0,0.0,0.0,0.0,0.0,0.0,2.7893063550000003,4.389674732977289,0.0,8924.0,0.0,0.0,0.0,0.0,0.25,4.674071787,3.031687206278559,0.0,0.6100000143051147,-0.3400000035762787,-41.540000915527344,-0.002685546875,0.0101318359375,1.02227783203125,36.93000030517578,0.0,3.0,-2.140380859375,-0.1070709228515625,Closing,0.0,0.0,-1.0,0.0,0.0,0.0,0.0,0.0,
21.153538,0.0,0.0,-2951.0,10.0,757.5,1624.21875,0.0,0.125,1.351318221,0.5498168668524888,0.0,5355.0,21.375,-855.0,-1624.21875,0.0,0.125,2.4267575640000003,1.9285545897722227,0.0,-3727.0,18.0,457.5,1624.21875,0.0,0.0,2.785644246,4.389674732977289,0.0,8735.0,8.625,-825.0,-1624.21875,0.0,0.25,4.672851084,3.0316872062785585,0.0,0.9300000071525574,0.15000000596046448,-55.15999984741211,0.17254638671875,-0.0225830078125,1.02484130859375,36.93000030517578,0.0,129.0,-2.143280029296875,-0.1042938232421875,Closing,0.0,0.0,-1.0,0.0,0.0,0.0,0.0,0.0,
21.42977100000001,0.0,0.0,-2581.0,0.0,1170.0,0.0,0.0,0.125,1.3427733000000002,0.5498168668524888,0.0,5014.0,0.0,-1050.0,0.0,0.0,0.0,2.3730466320000003,1.9285545897722227,0.0,-3493.0,0.0,1012.5,0.0,0.0,0.0,2.8039547910000002,4.389674732977289,0.0,8396.0,0.0,-1012.5,0.0,0.0,0.25,4.649657727,3.0316872062785585,0.0,0.3400000035762787,0.800000011920929,-84.73999786376953,0.03619384765625,-0.0894775390625,0.077880859375,36.939998626708984,0.0,92.0,-2.1544952392578125,-0.095458984375,Closing,0.0,0.0,-1.0,0.0,0.0,0.0,0.0,0.0,
21.70049200000003,0.0,0.0,-2547.0,1.375,-1140.0,-1041.7322874069216,0.0,0.125,1.357421736,0.5498168668524864,0.0,5003.0,4.625,1035.0,1041.7322874069216,0.0,0.25,2.386474365,1.92855458977222,0.0,-3149.0,32.0,127.5,-1041.7322874069216,0.0,0.0,2.818603227,4.389674732977291,0.0,8422.0,4.25,892.5,1041.7322874069216,0.0,0.125,4.670409678,3.031687206278561,0.0,0.15000000596046448,-0.5799999833106995,-74.0199966430664,-0.32037353515625,-0.0399169921875,1.0589599609375,36.939998626708984,0.0,-44.0,-2.1793670654296875,-0.098297119140625,Closing,0.0,0.0,-1.0,0.0,0.0,0.0,0.0,0.0,
21.926966000000014,0.0,0.0,-2957.0,0.0,-1245.0,0.0,0.0,0.125,1.3427733000000002,0.5498168668524864,0.0,5342.0,0.0,960.0,0.0,0.0,0.25,2.421874752,1.92855458977222,0.0,-3257.0,0.0,-615.0,0.0,0.0,0.125,2.8027340880000002,4.389674732977291,0.0,8757.0,0.0,975.0,0.0,0.0,0.25,4.670409678,3.031687206278561,0.0,0.8199999928474426,-0.5600000023841858,-48.400001525878906,-0.124755859375,-0.12420654296875,0.7545166015625,36.90999984741211,0.0,23.0,-2.209014892578125,-0.1090850830078125,Closing,0.0,0.0,-1.0,0.0,0.0,0.0,0.0,0.0,
22.16634400000004,0.0,0.0,-3207.0,0.0,-562.5,0.0,0.0,0.125,1.3476561120000001,0.5498168668524864,0.0,5536.0,0.0,517.5,0.0,0.0,0.0,2.4853513080000003,1.92855458977222,0.0,-3474.0,0.0,-607.5,0.0,0.0,0.0,2.7941891670000003,4.389674732977291,0.0,8972.0,0.125,570.0,0.0,0.0,0.25,4.670409678,3.031687206278561,0.0,0.5199999809265137,-0.44999998807907104,-34.40999984741211,0.02880859375,-0.05450439453125,0.859619140625,36.90999984741211,0.0,64.0,-2.2400970458984375,-0.11285400390625,Closing,0.0,0.0,-1.0,0.0,0.0,0.0,0.0,0.0,
22.434024000000033,0.0,0.0,-3285.0,0.0,-22.5,0.0,0.0,0.125,1.3427733000000002,0.5498168668524864,0.0,5586.0,0.0,37.5,0.0,0.0,0.25,2.4792477930000003,1.92855458977222,0.0,-3532.0,0.0,-15.0,0.0,0.0,0.0,2.7941891670000003,4.389674732977291,0.0,9039.0,0.0,15.0,0.0,0.0,0.25,4.669188975,3.031687206278561,0.0,0.47999998927116394,-0.46000000834465027,-30.360000610351562,-0.01837158203125,0.0169677734375,1.12103271484375,36.95000076293945,0.0,-11.0,-2.269866943359375,-0.1134033203125,Closing,0.0,0.0,-1.0,0.0,0.0,0.0,0.0,0.0,
22.686486000000034,0.0,0.0,-3285.0,0.0,0.0,0.0,0.0,0.125,1.3415525970000002,0.5498168668524864,0.0,5586.0,0.0,0.0,0.0,0.0,0.25,2.456054436,1.92855458977222,0.0,-3532.0,0.0,0.0,0.0,0.0,0.0,2.7990719790000003,4.389674732977291,0.0,9039.0,0.125,0.0,0.0,0.0,0.25,4.670409678,3.031687206278561,0.0,0.5199999809265137,-0.41999998688697815,-30.84000015258789,-0.004150390625,0.01593017578125,1.02020263671875,36.95000076293945,0.0,0.0,-2.2701873779296875,-0.1132659912109375,Closing,0.0,0.0,-1.0,0.0,0.0,0.0,0.0,0.0,
22.965821000000055,0.0,0.0,-3285.0,0.0,0.0,0.0,0.0,0.125,1.3427733000000002,0.5498168668524864,0.0,5586.0,0.0,0.0,0.0,0.0,0.125,2.454833733,1.92855458977222,0.0,-3532.0,0.0,0.0,0.0,0.0,0.0,2.7990719790000003,4.389674732977291,0.0,9039.0,0.125,0.0,0.0,0.0,0.25,4.670409678,3.031687206278561,0.0,0.5199999809265137,-0.4099999964237213,-30.850000381469727,-0.00592041015625,0.0030517578125,1.0120849609375,36.95000076293945,0.0,4.0,-2.2701873779296875,-0.1132659912109375,Closing,0.0,0.0,-1.0,0.0,0.0,0.0,0.0,0.0,
23.232101000000025,0.0,0.0,-3285.0,0.0,0.0,0.0,0.0,0.125,1.3427733000000002,0.5498168668524864,0.0,5586.0,0.0,0.0,0.0,0.0,0.125,2.456054436,1.92855458977222,0.0,-3532.0,0.0,0.0,0.0,0.0,0.0,2.7990719790000003,4.389674732977291,0.0,9039.0,0.0,0.0,0.0,0.0,0.25,4.669188975,3.031687206278561,0.0,0.5299999713897705,-0.38999998569488525,-30.860000610351562,-0.007080078125,0.0111083984375,1.0184326171875,36.95000076293945,0.0,0.0,-2.2701873779296875,-0.1132659912109375,Closing,0.0,0.0,-1.0,0.0,0.0,0.0,0.0,0.0,
23.434549,0.0,0.0,-3285.0,0.0,0.0,0.0,0.0,0.125,1.3427733000000002,0.5498168668524864,0.0,5586.0,0.0,0.0,0.0,0.0,0.125,2.456054436,1.92855458977222,0.0,-3532.0,0.0,0.0,0.0,0.0,0.0,2.7978512760000003,4.389674732977291,0.0,9039.0,0.0,0.0,0.0,0.0,0.25,4.669188975,3.031687206278561,0.0,0.5199999809265137,-0.3799999952316284,-30.860000610351562,-0.01116943359375,0.01080322265625,1.021728515625,36.95000076293945,0.0,-4.0,-2.2701873779296875,-0.1132659912109375,Closing,0.0,0.0,-1.0,0.0,0.0,0.0,0.0,0.0,
23.70193000000005,0.0,0.0,-3285.0,0.0,0.0,0.0,0.0,0.125,1.3427733000000002,0.5498168668524864,0.0,5586.0,0.0,0.0,0.0,0.0,0.125,2.456054436,1.92855458977222,0.0,-3532.0,0.0,0.0,0.0,0.0,0.0,2.7990719790000003,4.389674732977291,0.0,9039.0,0.0,0.0,0.0,0.0,0.25,4.669188975,3.031687206278561,0.0,0.5400000214576721,-0.36000001430511475,-30.8700008392334,-0.00543212890625,0.00897216796875,1.01953125,36.95000076293945,0.0,1.0,-2.2701873779296875,-0.1132659912109375,Closing,0.0,0.0,-1.0,0.0,0.0,0.0,0.0,0.0,
23.967520000000018,0.0,0.0,-3285.0,0.0,0.0,0.0,0.0,0.125,1.3415525970000002,0.5498168668524864,0.0,5586.0,0.0,0.0,0.0,0.0,0.125,2.456054436,1.92855458977222,0.0,-3532.0,0.0,0.0,0.0,0.0,0.0,2.7990719790000003,4.389674732977291,0.0,9039.0,0.0,0.0,0.0,0.0,0.25,4.670409678,3.031687206278561,0.0,0.5400000214576721,-0.36000001430511475,-30.8799991607666,-0.004638671875,0.00994873046875,1.0228271484375,36.93000030517578,0.0,1.0,-2.2701873779296875,-0.1132659912109375,Closing,0.0,0.0,-1.0,0.0,0.0,0.0,0.0,0.0,
24.222118000000016,0.0,0.0,-3285.0,0.0,0.0,0.0,0.0,0.125,1.3427733000000002,0.5498168668524864,0.0,5586.0,0.0,0.0,0.0,0.0,0.125,2.456054436,1.92855458977222,0.0,-3532.0,0.0,0.0,0.0,0.0,0.0,2.7990719790000003,4.389674732977291,0.0,9039.0,0.0,0.0,0.0,0.0,0.25,4.669188975,3.031687206278561,0.0,0.5400000214576721,-0.3499999940395355,-30.8799991607666,-0.0059814453125,0.0101318359375,1.0255126953125,36.93000030517578,0.0,0.0,-2.2701873779296875,-0.1132659912109375,Closing,0.0,0.0,-1.0,0.0,0.0,0.0,0.0,0.0,
24.423475000000035,0.0,0.0,-3285.0,0.0,0.0,0.0,0.0,0.125,1.3427733000000002,0.5498168668524864,0.0,5586.0,0.0,0.0,0.0,0.0,0.125,2.456054436,1.92855458977222,0.0,-3532.0,0.0,0.0,0.0,0.0,0.0,2.7990719790000003,4.389674732977291,0.0,9039.0,0.125,0.0,0.0,0.0,0.25,4.669188975,3.031687206278561,0.0,0.5400000214576721,-0.3499999940395355,-30.889999389648438,-0.00439453125,0.00921630859375,1.01654052734375,36.95000076293945,0.0,1.0,-2.2701873779296875,-0.1132659912109375,Closing,0.0,0.0,-1.0,0.0,0.0,0.0,0.0,0.0,
24.622438000000024,0.0,0.0,-3285.0,0.0,0.0,0.0,0.0,0.125,1.3427733000000002,0.5498168668524864,0.0,5586.0,0.0,0.0,0.0,0.0,0.125,2.456054436,1.92855458977222,0.0,-3532.0,0.0,0.0,0.0,0.0,0.0,2.7990719790000003,4.389674732977291,0.0,9039.0,0.125,0.0,0.0,0.0,0.25,4.670409678,3.031687206278561,0.0,0.5400000214576721,-0.3400000035762787,-30.889999389648438,-0.00567626953125,0.0084228515625,1.01971435546875,36.95000076293945,0.0,1.0,-2.2701873779296875,-0.1132659912109375,Closing,0.0,0.0,-1.0,0.0,0.0,0.0,0.0,0.0,
24.831773000000045,0.0,0.0,-3285.0,0.0,0.0,0.0,0.0,0.125,1.3427733000000002,0.5498168668524864,0.0,5586.0,0.0,0.0,0.0,0.0,0.125,2.456054436,1.92855458977222,0.0,-3532.0,0.0,0.0,0.0,0.0,0.0,2.7990719790000003,4.389674732977291,0.0,9039.0,0.0,0.0,0.0,0.0,0.25,4.669188975,3.031687206278561,0.0,0.5400000214576721,-0.3499999940395355,-30.899999618530273,-0.00592041015625,0.0115966796875,1.01806640625,36.95000076293945,0.0,0.0,-2.2701873779296875,-0.1132659912109375,Closing,0.0,0.0,-1.0,0.0,0.0,0.0,0.0,0.0,
25.08602100000001,0.0,0.0,-3285.0,0.0,0.0,0.0,0.0,0.125,1.3427733000000002,0.5498168668524864,0.0,5586.0,0.0,0.0,0.0,0.0,0.125,2.456054436,1.92855458977222,0.0,-3532.0,0.0,0.0,0.0,0.0,0.0,2.7990719790000003,4.389674732977291,0.0,9039.0,0.0,0.0,0.0,0.0,0.25,4.670409678,3.031687206278561,0.0,0.5400000214576721,-0.33000001311302185,-30.90999984741211,-0.00482177734375,0.009765625,1.01708984375,36.9900016784668,0.0,1.0,-2.2701873779296875,-0.1132659912109375,Closing,0.0,0.0,-1.0,0.0,0.0,0.0,0.0,0.0,
25.299909000000042,0.0,0.0,-3285.0,0.0,0.0,0.0,0.0,0.125,1.3427733000000002,0.5498168668524864,0.0,5586.0,0.0,0.0,0.0,0.0,0.125,2.454833733,1.92855458977222,0.0,-3532.0,0.0,0.0,0.0,0.0,0.0,2.7990719790000003,4.389674732977291,0.0,9039.0,0.0,0.0,0.0,0.0,0.25,4.670409678,3.031687206278561,0.0,0.5400000214576721,-0.3400000035762787,-30.90999984741211,-0.0050048828125,0.0115966796875,1.02264404296875,36.9900016784668,0.0,0.0,-2.2701873779296875,-0.1132659912109375,Closing,0.0,0.0,-1.0,0.0,0.0,0.0,0.0,0.0,
25.567147000000055,0.0,0.0,-3285.0,0.0,0.0,0.0,0.0,0.125,1.3427733000000002,0.5498168668524864,0.0,5586.0,0.0,0.0,0.0,0.0,0.125,2.456054436,1.92855458977222,0.0,-3532.0,0.0,0.0,0.0,0.0,0.0,2.7978512760000003,4.389674732977291,0.0,9039.0,0.0,0.0,0.0,0.0,0.25,4.670409678,3.031687206278561,0.0,0.5400000214576721,-0.33000001311302185,-30.93000030517578,-0.003662109375,0.00872802734375,1.01678466796875,36.97999954223633,0.0,2.0,-2.2701873779296875,-0.1132659912109375,Closing,0.0,0.0,-1.0,0.0,0.0,0.0,0.0,0.0,
25.76726000000001,0.0,0.0,-3285.0,0.0,0.0,0.0,0.0,0.125,1.3427733000000002,0.5498168668524864,0.0,5586.0,0.0,0.0,0.0,0.0,0.125,2.454833733,1.92855458977222,0.0,-3532.0,0.0,0.0,0.0,0.0,0.0,2.7990719790000003,4.389674732977291,0.0,9039.0,0.0,0.0,0.0,0.0,0.25,4.670409678,3.031687206278561,0.0,0.5299999713897705,-0.33000001311302185,-30.93000030517578,-0.00701904296875,0.0067138671875,1.02093505859375,36.97999954223633,0.0,0.0,-2.2701873779296875,-0.1132659912109375,Closing,0.0,0.0,-1.0,0.0,0.0,0.0,0.0,0.0,
26.03382800000004,0.0,0.0,-3285.0,0.0,0.0,0.0,0.0,0.125,1.3427733000000002,0.5498168668524864,0.0,5586.0,0.0,0.0,0.0,0.0,0.125,2.454833733,1.92855458977222,0.0,-3532.0,0.0,0.0,0.0,0.0,0.0,2.7978512760000003,4.389674732977291,0.0,9039.0,0.0,0.0,0.0,0.0,0.25,4.669188975,3.031687206278561,0.0,0.5400000214576721,-0.33000001311302185,-30.940000534057617,-0.0069580078125,0.009521484375,1.01904296875,36.9900016784668,0.0,0.0,-2.2701873779296875,-0.1132659912109375,Closing,0.0,0.0,-1.0,0.0,0.0,0.0,0.0,0.0,
26.29946900000004,0.0,0.0,-3285.0,0.0,0.0,0.0,0.0,0.125,1.3427733000000002,0.5498168668524864,0.0,5586.0,0.0,0.0,0.0,0.0,0.125,2.456054436,1.92855458977222,0.0,-3532.0,0.0,0.0,0.0,0.0,0.0,2.7990719790000003,4.389674732977291,0.0,9039.0,0.125,0.0,0.0,0.0,0.25,4.669188975,3.031687206278561,0.0,0.5400000214576721,-0.33000001311302185,-30.950000762939453,-0.00396728515625,0.01104736328125,1.017578125,36.9900016784668,0.0,0.0,-2.2701873779296875,-0.1132659912109375,Closing,0.0,0.0,-1.0,0.0,0.0,0.0,0.0,0.0,
26.56741100000002,0.0,0.0,-3285.0,0.0,0.0,0.0,0.0,0.125,1.3427733000000002,0.5498168668524864,0.0,5586.0,0.0,0.0,0.0,0.0,0.125,2.456054436,1.92855458977222,0.0,-3532.0,0.0,0.0,0.0,0.0,0.0,2.7990719790000003,4.389674732977291,0.0,9039.0,0.0,0.0,0.0,0.0,0.25,4.670409678,3.031687206278561,0.0,0.550000011920929,-0.3199999928474426,-30.959999084472656,-0.00555419921875,0.009033203125,1.0208740234375,36.95000076293945,0.0,0.0,-2.2701873779296875,-0.1132659912109375,Closing,0.0,0.0,-1.0,0.0,0.0,0.0,0.0,0.0,
26.822775000000025,0.0,0.0,-3285.0,0.0,0.0,0.0,0.0,0.125,1.3427733000000002,0.5498168668524864,0.0,5586.0,0.0,0.0,0.0,0.0,0.125,2.456054436,1.92855458977222,0.0,-3532.0,0.0,0.0,0.0,0.0,0.0,2.7990719790000003,4.389674732977291,0.0,9039.0,0.0,0.0,0.0,0.0,0.25,4.670409678,3.031687206278561,0.0,0.550000011920929,-0.3100000023841858,-30.969999313354492,-0.0052490234375,0.0089111328125,1.017333984375,36.95000076293945,0.0,0.0,-2.2701873779296875,-0.1132659912109375,Closing,0.0,0.0,-1.0,0.0,0.0,0.0,0.0,0.0,
27.034361000000033,0.0,0.0,-3285.0,0.0,0.0,0.0,0.0,0.125,1.3427733000000002,0.5498168668524864,0.0,5586.0,0.0,0.0,0.0,0.0,0.125,2.454833733,1.92855458977222,0.0,-3532.0,0.0,0.0,0.0,0.0,0.0,2.7990719790000003,4.389674732977291,0.0,9039.0,0.0,0.0,0.0,0.0,0.25,4.669188975,3.031687206278561,0.0,0.550000011920929,-0.3100000023841858,-30.969999313354492,-7.32421875E-4,0.01190185546875,1.0189208984375,36.970001220703125,0.