Time,ClimberA1,ClimberA2,FRpos,FRCurrent,FRspeed,FRsetpoint,FRApos,FRACurrent,FREncpos,FREncSetpoint,FREncSpeed,FLpos,FLCurrent,FLspeed,FLsetpoint,FLApos,FLACurrent,FLEncpos,FLEncSetpoint,FLEncSpeed,BRpos,BRCurrent,BRspeed,BRsetpoint,BRApos,BRACurrent,BREncpos,BREncSetpoint,BREncSpeed,BLpos,BLCurrent,BLspeed,BLsetpoint,BLApos,BLACurrent,BLEncpos,BLEncSetpoint,BLEncSpeed,navx_Pitch,navx_Roll,navx_Yaw,navx_XAcc,navx_YAcc,navx_ZAcc,navx_Temp,navx_Bar,navx_Alt,navx_XDis,navx_YDis,GearPlacerState,ShootOutputV,ShootOutputCurrent,ShootEncPos,ShootEncVelocity,ShootSpeed,ShootSetpoint,CarouselSetpoint,CarouselCurrent,
0.21796299999998883,0.0,0.0,-3680.0,0.0,0.0,0.0,0.0,0.25,0.780029217,0.01,0.0,9618.0,0.0,0.0,-0.0,0.0,0.25,0.45288081300000005,0.01,0.0,-2552.0,0.0,0.0,0.0,0.0,0.0,3.330077784,0.01,0.0,9383.0,0.0,0.0,-0.0,0.0,0.25,1.6015623360000002,0.01,0.0,0.14000000059604645,-1.2100000381469727,-7.21999979019165,-0.024169921875,0.002197265625,1.02105712890625,36.59000015258789,0.0,-2.0,-0.01416015625,0.1045379638671875,Closing,0.0,0.0,-2.0,0.0,0.0,0.0,0.0,0.0,
0.39330099999997764,0.0,0.0,-3680.0,0.0,0.0,0.0,0.0,0.25,0.7788085140000001,0.01,0.0,9618.0,0.0,0.0,-0.0,0.0,0.25,0.46752924900000004,0.01,0.0,-2552.0,0.0,0.0,0.0,0.0,0.0,3.333739893,0.01,0.0,9383.0,0.0,0.0,-0.0,0.0,0.25,1.6027830390000002,0.01,0.0,0.14000000059604645,-1.2100000381469727,-7.21999979019165,-0.02288818359375,0.003662109375,1.020751953125,36.61000061035156,0.0,-1.0,-0.01416015625,0.1045379638671875,Closing,0.0,0.0,-2.0,0.0,0.0,0.0,0.0,0.0,
0.5257379999998957,0.0,0.0,-3680.0,0.0,0.0,0.0,0.0,0.25,0.808105386,0.01,0.0,9618.0,0.0,0.0,-0.0,0.0,0.25,0.482177685,0.01,0.0,-2552.0,0.0,0.0,0.0,0.0,0.0,3.334960596,0.01,0.0,9383.0,0.0,0.0,-0.0,0.0,0.25,1.6027830390000002,0.01,0.0,0.12999999523162842,-1.2000000476837158,-7.210000038146973,-0.02142333984375,0.0050048828125,1.02044677734375,36.61000061035156,0.0,0.0,-0.01416015625,0.1045379638671875,Closing,0.0,0.0,-2.0,0.0,0.0,0.0,0.0,0.0,
0.5901570000000065,0.0,0.0,-3680.0,0.0,0.0,0.0,0.0,0.25,0.7788085140000001,0.01,0.0,9618.0,0.0,0.0,-0.0,0.0,0.25,0.48706049700000004,0.01,0.0,-2552.0,0.0,0.0,0.0,0.0,0.0,3.333739893,0.01,0.0,9383.0,0.0,0.0,-0.0,0.0,0.25,1.6027830390000002,0.01,0.0,0.12999999523162842,-1.2000000476837158,-7.210000038146973,-0.02215576171875,1.8310546875E-4,1.01739501953125,36.61000061035156,0.0,0.0,-0.01416015625,0.1045379638671875,Closing,0.0,0.0,-2.0,0.0,0.0,0.0,0.0,0.0,
0.7245259999999544,0.0,0.0,-3680.0,0.0,0.0,0.0,0.0,0.25,0.7788085140000001,0.01,0.0,9618.0,0.0,0.0,-0.0,0.0,0.125,0.49194330900000005,0.01,0.0,-2552.0,0.0,0.0,0.0,0.0,0.0,3.334960596,0.01,0.0,9383.0,0.0,0.0,-0.0,0.0,0.25,1.6027830390000002,0.01,0.0,0.12999999523162842,-1.2100000381469727,-7.210000038146973,-0.02178955078125,0.00244140625,1.02105712890625,36.61000061035156,0.0,0.0,-0.01416015625,0.1045379638671875,Closing,0.0,0.0,-2.0,0.0,0.0,0.0,0.0,0.0,
0.7916769999999087,0.0,0.0,-3680.0,0.0,0.0,0.0,0.0,0.25,0.7788085140000001,0.01,0.0,9618.0,0.0,0.0,-0.0,0.0,0.125,0.49194330900000005,0.01,0.0,-2552.0,0.0,0.0,0.0,0.0,0.0,3.334960596,0.01,0.0,9383.0,0.0,0.0,-0.0,0.0,0.25,1.6027830390000002,0.01,0.0,0.12999999523162842,-1.2100000381469727,-7.210000038146973,-0.0224609375,1.220703125E-4,1.01910400390625,36.61000061035156,0.0,0.0,-0.01416015625,0.1045379638671875,Closing,0.0,0.0,-2.0,0.0,0.0,0.0,0.0,0.0,
0.9270989999999292,0.0,0.0,-3680.0,0.0,0.0,0.0,0.0,0.25,0.780029217,0.01,0.0,9618.0,0.0,0.0,-0.0,0.0,0.125,0.490722606,0.01,0.0,-2552.0,0.0,0.0,0.0,0.0,0.0,3.334960596,0.01,0.0,9383.0,0.0,0.0,-0.0,0.0,0.25,1.6027830390000002,0.01,0.0,0.12999999523162842,-1.2100000381469727,-7.210000038146973,-0.0189208984375,-0.00140380859375,1.01513671875,36.63999938964844,0.0,2.0,-0.01416015625,0.1045379638671875,Closing,0.0,0.0,-2.0,0.0,0.0,0.0,0.0,0.0,
1.060289999999921,0.0,0.0,-3680.0,0.0,0.0,0.0,0.0,0.25,0.7788085140000001,0.01,0.0,9618.0,0.0,0.0,-0.0,0.0,0.125,0.49194330900000005,0.01,0.0,-2552.0,0.0,0.0,0.0,0.0,0.0,3.334960596,0.01,0.0,9383.0,0.0,0.0,-0.0,0.0,0.25,1.6027830390000002,0.01,0.0,0.12999999523162842,-1.2100000381469727,-7.210000038146973,-0.01953125,0.0023193359375,1.02154541015625,36.63999938964844,0.0,2.0,-0.01416015625,0.1045379638671875,Closing,0.0,0.0,-2.0,0.0,0.0,0.0,0.0,0.0,
1.1249579999999841,0.0,0.0,-3680.0,0.0,0.0,0.0,0.0,0.25,0.7897948410000001,0.01,0.0,9618.0,0.0,0.0,-0.0,0.0,0.125,0.49194330900000005,0.01,0.0,-2552.0,0.0,0.0,0.0,0.0,0.0,3.334960596,0.01,0.0,9383.0,0.0,0.0,-0.0,0.0,0.25,1.6027830390000002,0.01,0.0,0.12999999523162842,-1.2100000381469727,-7.210000038146973,-0.02294921875,2.44140625E-4,1.02178955078125,36.63999938964844,0.0,-1.0,-0.01416015625,0.1045379638671875,Closing,0.0,0.0,-2.0,0.0,0.0,0.0,0.0,0.0,
1.18148199999996,0.0,0.0,-3680.0,0.0,0.0,0.0,0.0,0.25,0.7788085140000001,0.01,0.0012207030000004337,9618.0,0.0,0.0,-0.0,0.0,0.125,0.49194330900000005,0.01,0.0,-2552.0,0.0,0.0,0.0,0.0,0.0,3.334960596,0.01,0.0,9383.0,0.0,0.0,-0.0,0.0,0.25,1.6040037420000002,0.01,0.0,0.11999999731779099,-1.2100000381469727,-7.210000038146973,-0.02117919921875,0.001220703125,1.0203857421875,36.63999938964844,0.0,0.0,-0.01416015625,0.1045379638671875,Closing,0.0,0.0,-2.0,0.0,0.0,0.0,0.0,0.0,
1.324545999999973,0.0,0.0,-3680.0,0.0,0.0,0.0,0.0,0.25,0.7788085140000001,0.01,0.0,9618.0,0.0,0.0,-0.0,0.0,0.125,0.49194330900000005,0.01,0.0,-2552.0,0.0,0.0,0.0,0.0,0.0,3.334960596,0.01,0.0,9383.0,0.0,0.0,-0.0,0.0,0.25,1.6040037420000002,0.01,0.0,0.11999999731779099,-1.2100000381469727,-7.210000038146973,-0.02056884765625,0.0020751953125,1.02056884765625,36.63999938964844,0.0,1.0,-0.01416015625,0.1045379638671875,Closing,0.0,0.0,-2.0,0.0,0.0,0.0,0.0,0.0,
1.4604939999999478,0.0,0.0,-3680.0,0.0,0.0,0.0,0.0,0.25,0.7788085140000001,0.01,0.0,9618.0,0.0,0.0,-0.0,0.0,0.125,0.490722606,0.01,0.0,-2552.0,0.0,0.0,0.0,0.0,0.0,3.333739893,0.01,0.0,9383.0,0.0,0.0,-0.0,0.0,0.25,1.6040037420000002,0.01,0.0,0.11999999731779099,-1.2100000381469727,-7.210000038146973,-0.0211181640625,0.002197265625,1.01727294921875,36.650001525878906,0.0,0.0,-0.01416015625,0.1045379638671875,Closing,0.0,0.0,-2.0,0.0,0.0,0.0,0.0,0.0,
1.5920919999999459,0.0,0.0,-3680.0,0.0,0.0,0.0,0.0,0.25,0.780029217,0.01,0.0,9618.0,0.0,0.0,-0.0,0.0,0.125,0.49194330900000005,0.01,0.0,-2552.0,0.0,0.0,0.0,0.0,0.0,3.333739893,0.01,0.0,9383.0,0.0,0.0,-0.0,0.0,0.25,1.6040037420000002,0.01,0.0,0.12999999523162842,-1.2100000381469727,-7.210000038146973,-0.0218505859375,-6.103515625E-5,1.01837158203125,36.650001525878906,0.0,0.0,-0.01416015625,0.1045379638671875,Closing,0.0,0.0,-2.0,0.0,0.0,0.0,0.0,0.0,
1.7168099999999396,0.0,0.0,-3680.0,0.0,0.0,0.0,0.0,0.25,0.780029217,0.01,0.0,9618.0,0.0,0.0,-0.0,0.0,0.125,0.490722606,0.01,0.0,-2552.0,0.0,0.0,0.0,0.0,0.0,3.333739893,0.01,0.0,9383.0,0.0,0.0,-0.0,0.0,0.25,1.6027830390000002,0.01,0.0,0.12999999523162842,-1.2000000476837158,-7.199999809265137,-0.02203369140625,0.00335693359375,1.0203857421875,36.650001525878906,0.0,0.0,-0.01416015625,0.1045379638671875,Closing,0.0,0.0,-2.0,0.0,0.0,0.0,0.0,0.0,
1.7833580000000075,0.0,0.0,-3680.0,0.0,0.0,0.0,0.0,0.25,0.780029217,0.01,0.0,9618.0,0.0,0.0,-0.0,0.0,0.125,0.490722606,0.01,0.0,-2552.0,0.0,0.0,0.0,0.0,0.0,3.334960596,0.01,0.0,9383.0,0.0,0.0,-0.0,0.0,0.25,1.6027830390000002,0.01,0.0,0.12999999523162842,-1.2100000381469727,-7.199999809265137,-0.0245361328125,-6.7138671875E-4,1.021728515625,36.650001525878906,0.0,-2.0,-0.01416015625,0.1045379638671875,Closing,0.0,0.0,-2.0,0.0,0.0,0.0,0.0,0.0,
1.8546359999999404,0.0,0.0,-3680.0,0.0,0.0,0.0,0.0,0.25,0.7788085140000001,0.01,0.0,9618.0,0.0,0.0,-0.0,0.0,0.125,0.490722606,0.01,0.0,-2552.0,0.0,0.0,0.0,0.0,0.0,3.333739893,0.01,0.0,9383.0,0.0,0.0,-0.0,0.0,0.25,1.6040037420000002,0.01,0.0,0.14000000059604645,-1.2000000476837158,-7.199999809265137,-0.0225830078125,0.00152587890625,1.02069091796875,36.650001525878906,0.0,0.0,-0.01416015625,0.1045379638671875,Closing,0.0,0.0,-2.0,0.0,0.0,0.0,0.0,0.0,
1.915042999999947,0.0,0.0,-3680.0,0.0,0.0,0.0,0.0,0.25,0.7775878110000001,0.01,-0.0012207030000004337,9618.0,0.0,0.0,-0.0,0.0,0.125,0.49316401200000004,0.01,0.0,-2552.0,0.0,0.0,0.0,0.0,0.0,3.334960596,0.01,0.0,9383.0,0.0,0.0,-0.0,0.0,0.25,1.6027830390000002,0.01,0.0,0.12999999523162842,-1.2000000476837158,-7.199999809265137,-0.02227783203125,0.0020751953125,1.02130126953125,36.63999938964844,0.0,0.0,-0.01416015625,0.1045379638671875,Closing,0.0,0.0,-2.0,0.0,0.0,0.0,0.0,0.0,
2.0563169999999227,0.0,0.0,-3680.0,0.0,0.0,0.0,0.0,0.25,0.7629393750000001,0.01,0.0,9618.0,0.0,0.0,-0.0,0.0,0.125,0.490722606,0.01,0.0,-2552.0,0.0,0.0,0.0,0.0,0.0,3.334960596,0.01,0.0,9383.0,0.0,0.0,-0.0,0.0,0.25,1.6027830390000002,0.01,0.0,0.12999999523162842,-1.2000000476837158,-7.199999809265137,-0.0211181640625,-4.8828125E-4,1.0205078125,36.63999938964844,0.0,0.0,-0.01416015625,0.1045379638671875,Closing,0.0,0.0,-2.0,0.0,0.0,0.0,0.0,0.0,
2.1913789999999573,0.0,0.0,-3680.0,0.0,0.0,0.0,0.0,0.25,0.7788085140000001,0.01,0.0,9618.0,0.0,0.0,-0.0,0.0,0.125,0.490722606,0.01,0.0,-2552.0,0.0,0.0,0.0,0.0,0.0,3.334960596,0.01,0.0,9383.0,0.0,0.0,-0.0,0.0,0.25,1.6027830390000002,0.01,0.0,0.12999999523162842,-1.2000000476837158,-7.210000038146973,-0.02001953125,0.00146484375,1.01800537109375,36.63999938964844,0.0,1.0,-0.01416015625,0.1045379638671875,Closing,0.0,0.0,-2.0,0.0,0.0,0.0,0.0,0.0,
2.2477119999999413,0.0,0.0,-3680.0,0.0,0.0,0.0,0.0,0.25,0.780029217,0.01,0.0012207030000004337,9618.0,0.0,0.0,-0.0,0.0,0.125,0.49194330900000005,0.01,0.0,-2552.0,0.0,0.0,0.0,0.0,0.0,3.333739893,0.01,0.0,9383.0,0.0,0.0,-0.0,0.0,0.25,1.6027830390000002,0.01,0.0,0.11999999731779099,-1.2000000476837158,-7.210000038146973,-0.01922607421875,0.0023193359375,1.02227783203125,36.63999938964844,0.0,2.0,-0.01416015625,0.1045379638671875,Closing,0.0,0.0,-2.0,0.0,0.0,0.0,0.0,0.0,
2.328159999999916,0.0,0.0,-3680.0,0.0,0.0,0.0,0.0,0.25,0.806884683,0.01,0.0,9618.0,0.0,0.0,-0.0,0.0,0.125,0.49194330900000005,0.01,0.0,-2552.0,0.0,0.0,0.0,0.0,0.0,3.334960596,0.01,0.0,9383.0,0.0,0.0,-0.0,0.0,0.25,1.6052244450000002,0.01,0.0,0.11999999731779099,-1.2000000476837158,-7.210000038146973,-0.0206298828125,0.00189208984375,1.02362060546875,36.63999938964844,0.0,0.0,-0.01416015625,0.1045379638671875,Closing,0.0,0.0,-2.0,0.0,0.0,0.0,0.0,0.0,
2.4573119999999182,0.0,0.0,-3680.0,0.0,0.0,0.0,0.0,0.25,0.7788085140000001,0.01,0.0,9618.0,0.0,0.0,-0.0,0.0,0.125,0.49194330900000005,0.01,0.0,-2552.0,0.0,0.0,0.0,0.0,0.0,3.334960596,0.01,0.0,9383.0,0.0,0.0,-0.0,0.0,0.25,1.6040037420000002,0.01,0.0,0.11999999731779099,-1.2000000476837158,-7.210000038146973,-0.01898193359375,0.00347900390625,1.02166748046875,36.66999816894531,0.0,2.0,-0.01416015625,0.1045379638671875,Closing,0.0,0.0,-2.0,0.0,0.0,0.0,0.0,0.0,
2.5915279999999328,0.0,0.0,-3680.0,0.0,0.0,0.0,0.0,0.25,0.7788085140000001,0.01,0.0,9618.0,0.0,0.0,-0.0,0.0,0.125,0.49194330900000005,0.01,0.0,-2552.0,0.0,0.0,0.0,0.0,0.0,3.333739893,0.01,0.0,9383.0,0.0,0.0,-0.0,0.0,0.25,1.6040037420000002,0.01,0.0,0.11999999731779099,-1.2000000476837158,-7.199999809265137,-0.01873779296875,0.00128173828125,1.0196533203125,36.66999816894531,0.0,2.0,-0.01416015625,0.1045379638671875,Closing,0.0,0.0,-2.0,0.0,0.0,0.0,0.0,0.0,
2.7251089999999385,0.0,0.0,-3680.0,0.0,0.0,0.0,0.0,0.25,0.780029217,0.01,0.0,9618.0,0.0,0.0,-0.0,0.0,0.125,0.49194330900000005,0.01,0.0,-2552.0,0.0,0.0,0.0,0.0,0.0,3.333739893,0.01,0.0,9383.0,0.0,0.0,-0.0,0.0,0.25,1.6027830390000002,0.01,0.0,0.11999999731779099,-1.190000057220459,-7.199999809265137,-0.021484375,0.0023193359375,1.02215576171875,36.66999816894531,0.0,0.0,-0.01416015625,0.1045379638671875,Closing,0.0,0.0,-2.0,0.0,0.0,0.0,0.0,0.0,
2.793875999999931,0.0,0.0,-3680.0,0.0,0.0,0.0,0.0,0.25,0.7788085140000001,0.01,0.0,9618.0,0.0,0.0,-0.0,0.0,0.125,0.49194330900000005,0.01,0.0,-2552.0,0.0,0.0,0.0,0.0,0.0,3.334960596,0.01,0.0,9383.0,0.0,0.0,-0.0,0.0,0.25,1.6027830390000002,0.01,0.0,0.10999999940395355,-1.190000057220459,-7.210000038146973,-0.0242919921875,-1.220703125E-4,1.01800537109375,36.66999816894531,0.0,-2.0,-0.01416015625,0.1045379638671875,Closing,0.0,0.0,-2.0,0.0,0.0,0.0,0.0,0.0,
2.9259469999999275,0.0,0.0,-3680.0,0.0,0.0,0.0,0.0,0.25,0.7788085140000001,0.01,0.0,9618.0,0.0,0.0,-0.0,0.0,0.125,0.49194330900000005,0.01,0.0,-2552.0,0.0,0.0,0.0,0.0,0.0,3.333739893,0.01,0.0,9383.0,0.0,0.0,-0.0,0.0,0.25,1.6027830390000002,0.01,0.0,0.10999999940395355,-1.2000000476837158,-7.199999809265137,-0.02203369140625,-3.662109375E-4,1.0186767578125,36.65999984741211,0.0,0.0,-0.01416015625,0.1045379638671875,Closing,0.0,0.0,-2.0,0.0,0.0,0.0,0.0,0.0,
2.9833369999999415,0.0,0.0,-3680.0,0.0,0.0,0.0,0.0,0.25,0.780029217,0.01,0.0,9618.0,0.0,0.0,-0.0,0.0,0.125,0.49194330900000005,0.01,0.0,-2552.0,0.0,0.0,0.0,0.0,0.0,3.333739893,0.01,0.0,9383.0,0.0,0.0,-0.0,0.0,0.25,1.6027830390000002,0.01,0.0,0.11999999731779099,-1.2000000476837158,-7.210000038146973,-0.0218505859375,0.00433349609375,1.02252197265625,36.65999984741211,0.0,0.0,-0.01416015625,0.1045379638671875,Closing,0.0,0.0,-2.0,0.0,0.0,0.0,0.0,0.0,
3.1244959999999264,0.0,0.0,-3680.0,0.0,0.0,0.0,0.0,0.25,0.7788085140000001,0.01,0.0,9618.0,0.0,0.0,-0.0,0.0,0.125,0.490722606,0.01,0.0,-2552.0,0.0,0.0,0.0,0.0,0.0,3.333739893,0.01,0.0,9383.0,0.0,0.0,-0.0,0.0,0.25,1.6040037420000002,0.01,0.0,0.10999999940395355,-1.2000000476837158,-7.210000038146973,-0.0233154296875,0.00274658203125,1.02166748046875,36.65999984741211,0.0,-1.0,-0.01416015625,0.1045379638671875,Closing,0.0,0.0,-2.0,0.0,0.0,0.0,0.0,0.0,
3.260046999999904,0.0,0.0,-3680.0,0.0,0.0,0.0,0.0,0.25,0.7788085140000001,0.01,0.0,9618.0,0.0,0.0,-0.0,0.0,0.125,0.49194330900000005,0.01,0.0,-2552.0,0.0,0.0,0.0,0.0,0.0,3.334960596,0.01,0.0,9383.0,0.0,0.0,-0.0,0.0,0.25,1.6040037420000002,0.01,0.0,0.10999999940395355,-1.2000000476837158,-7.210000038146973,-0.02197265625,4.8828125E-4,1.0194091796875,36.65999984741211,0.0,0.0,-0.01416015625,0.1045379638671875,Closing,0.0,0.0,-2.0,0.0,0.0,0.0,0.0,0.0,
3.3269769999999554,0.0,0.0,-3680.0,0.0,0.0,0.0,0.0,0.25,0.780029217,0.01,-0.0012207030000004337,9618.0,0.0,0.0,-0.0,0.0,0.125,0.49194330900000005,0.01,0.0,-2552.0,0.0,0.0,0.0,0.0,0.0,3.333739893,0.01,0.0,9383.0,0.0,0.0,-0.0,0.0,0.25,1.6027830390000002,0.01,0.0,0.10999999940395355,-1.2000000476837158,-7.210000038146973,-0.02056884765625,0.00274658203125,1.02276611328125,36.65999984741211,0.0,0.0,-0.01416015625,0.1045379638671875,Closing,0.0,0.0,-2.0,0.0,0.0,0.0,0.0,0.0,
3.4614259999999777,0.0,0.0,-3680.0,0.0,0.0,0.0,0.0,0.25,0.7788085140000001,0.01,0.0,9618.0,0.0,0.0,-0.0,0.0,0.125,0.49194330900000005,0.01,0.0,-2552.0,0.0,0.0,0.0,0.0,0.0,3.334960596,0.01,0.0,9383.0,0.0,0.0,-0.0,0.0,0.25,1.6027830390000002,0.01,0.0,0.11999999731779099,-1.2100000381469727,-7.210000038146973,-0.020263671875,0.0015869140625,1.02105712890625,36.650001525878906,0.0,1.0,-0.01416015625,0.1045379638671875,Closing,0.0,0.0,-2.0,0.0,0.0,0.0,0.0,0.0,
3.5252189999999244,0.0,0.0,-3680.0,0.0,0.0,0.0,0.0,0.25,0.7788085140000001,0.01,-0.0012207030000004337,9618.0,0.0,0.0,-0.0,0.0,0.125,0.49194330900000005,0.01,0.0,-2552.0,0.0,0.0,0.0,0.0,0.0,3.333739893,0.01,0.0,9383.0,0.0,0.0,-0.0,0.0,0.25,1.6040037420000002,0.01,0.0,0.11999999731779099,-1.2100000381469727,-7.210000038146973,-0.0203857421875,0.00262451171875,1.0220947265625,36.650001525878906,0.0,1.0,-0.01416015625,0.1045379638671875,Closing,0.0,0.0,-2.0,0.0,0.0,0.0,0.0,0.0,
3.6591790000000035,0.0,0.0,-3680.0,0.0,0.0,0.0,0.0,0.25,0.7788085140000001,0.01,0.0,9618.0,0.0,0.0,-0.0,0.0,0.125,0.49194330900000005,0.01,0.0,-2552.0,0.0,0.0,0.0,0.0,0.0,3.333739893,0.01,0.0,9383.0,0.0,0.0,-0.0,0.0,0.25,1.6040037420000002,0.01,0.0,0.10999999940395355,-1.2000000476837158,-7.21999979019165,-0.0216064453125,-0.0015869140625,1.02056884765625,36.650001525878906,0.0,0.0,-0.01416015625,0.1045379638671875,Closing,0.0,0.0,-2.0,0.0,0.0,0.0,0.0,0.0,
3.727030999999959,0.0,0.0,-3680.0,0.0,0.0,0.0,0.0,0.25,0.7788085140000001,0.01,0.0,9618.0,0.0,0.0,-0.0,0.0,0.125,0.49194330900000005,0.01,0.0,-2552.0,0.0,0.0,0.0,0.0,0.0,3.334960596,0.01,0.0,9383.0,0.0,0.0,-0.0,0.0,0.25,1.6027830390000002,0.01,0.0,0.10999999940395355,-1.2000000476837158,-7.210000038146973,-0.02197265625,8.544921875E-4,1.013916015625,36.650001525878906,0.0,0.0,-0.01416015625,0.1045379638671875,Closing,0.0,0.0,-2.0,0.0,0.0,0.0,0.0,0.0,
3.785052999999956,0.0,0.0,-3680.0,0.0,0.0,0.0,0.0,0.25,0.780029217,0.01,0.0,9618.0,0.0,0.0,-0.0,0.0,0.125,0.49194330900000005,0.01,0.0,-2552.0,0.0,0.0,0.0,0.0,0.0,3.334960596,0.01,0.0,9383.0,0.0,0.0,-0.0,0.0,0.25,1.6027830390000002,0.01,0.0,0.10999999940395355,-1.2100000381469727,-7.210000038146973,-0.02374267578125,6.103515625E-4,1.0194091796875,36.650001525878906,0.0,-1.0,-0.01416015625,0.1045379638671875,Closing,0.0,0.0,-2.0,0.0,0.0,0.0,0.0,0.0,
3.927186999999918,0.0,0.0,-3680.0,0.0,0.0,0.0,0.0,0.25,0.7788085140000001,0.01,0.0,9618.0,0.0,0.0,-0.0,0.0,0.125,0.49194330900000005,0.01,0.0,-2552.0,0.0,0.0,0.0,0.0,0.0,3.338622705,0.01,0.0,9383.0,0.0,0.0,-0.0,0.0,0.25,1.6027830390000002,0.01,0.0,0.10999999940395355,-1.2000000476837158,-7.21999979019165,-0.0211181640625,1.220703125E-4,1.02264404296875,36.619998931884766,0.0,0.0,-0.01416015625,0.1045379638671875,Closing,0.0,0.0,-2.0,0.0,0.0,0.0,0.0,0.0,
4.058228000000002,0.0,0.0,-3680.0,0.0,0.0,0.0,0.0,0.25,0.7788085140000001,0.01,0.0,9618.0,0.0,0.0,-0.0,0.0,0.125,0.49194330900000005,0.01,0.0,-2552.0,0.0,0.0,0.0,0.0,0.0,3.333739893,0.01,0.0,9383.0,0.0,0.0,-0.0,0.0,0.25,1.6027830390000002,0.01,0.0,0.10999999940395355,-1.2100000381469727,-7.21999979019165,-0.023193359375,0.00506591796875,1.0247802734375,36.619998931884766,0.0,-1.0,-0.01416015625,0.1045379638671875,Closing,0.0,0.0,-2.0,0.0,0.0,0.0,0.0,0.0,
4.127216999999946,0.0,0.0,-3680.0,0.0,0.0,0.0,0.0,0.25,0.7788085140000001,0.01,-0.0012207030000004337,9618.0,0.0,0.0,-0.0,0.0,0.125,0.49194330900000005,0.01,0.0,-2552.0,0.0,0.0,0.0,0.0,0.0,3.336181299,0.01,0.0,9383.0,0.0,0.0,-0.0,0.0,0.25,1.6027830390000002,0.01,0.0,0.10999999940395355,-1.2000000476837158,-7.21999979019165,-0.02105712890625,0.003662109375,1.0179443359375,36.619998931884766,0.0,0.0,-0.01416015625,0.1045379638671875,Closing,0.0,0.0,-2.0,0.0,0.0,0.0,0.0,0.0,
4.253316999999923,0.0,0.0,-3680.0,0.0,0.0,0.0,0.0,0.25,0.780029217,0.01,0.0,9618.0,0.0,0.0,-0.0,0.0,0.125,0.49194330900000005,0.01,0.0,-2552.0,0.0,0.0,0.0,0.0,0.0,3.334960596,0.01,0.0,9383.0,0.0,0.0,-0.0,0.0,0.25,1.6027830390000002,0.01,0.0,0.10999999940395355,-1.2000000476837158,-7.21999979019165,-0.0206298828125,0.00286865234375,1.01690673828125,36.619998931884766,0.0,0.0,-0.01416015625,0.1045379638671875,Closing,0.0,0.0,-2.0,0.0,0.0,0.0,0.0,0.0,
4.324614999999991,0.0,0.0,-3680.0,0.0,0.0,0.0,0.0,0.25,0.780029217,0.01,-0.0012207030000004337,9618.0,0.0,0.0,-0.0,0.0,0.125,0.490722606,0.01,0.0,-2552.0,0.0,0.0,0.0,0.0,0.0,3.334960596,0.01,0.0,9383.0,0.0,0.0,-0.0,0.0,0.25,1.6027830390000002,0.01,0.0,0.10999999940395355,-1.2000000476837158,-7.21999979019165,-0.02337646484375,0.0042724609375,1.019287109375,36.619998931884766,0.0,-2.0,-0.01416015625,0.1045379638671875,Closing,0.0,0.0,-2.0,0.0,0.0,0.0,0.0,0.0,
4.3937429999999,0.0,0.0,-3680.0,0.0,0.0,0.0,0.0,0.25,0.7788085140000001,0.01,0.0,9618.0,0.0,0.0,-0.0,0.0,0.125,0.490722606,0.01,0.0,-2552.0,0.0,0.0,0.0,0.0,0.0,3.334960596,0.01,0.0,9383.0,0.0,0.0,-0.0,0.0,0.25,1.6040037420000002,0.01,0.0,0.11999999731779099,-1.2000000476837158,-7.21999979019165,-0.02288818359375,0.0032958984375,1.0164794921875,36.619998931884766,0.0,-1.0,-0.01416015625,0.1045379638671875,Closing,0.0,0.0,-2.0,0.0,0.0,0.0,0.0,0.0,
4.52592499999993,0.0,0.0,-3680.0,0.0,0.0,0.0,0.0,0.25,0.7788085140000001,0.01,0.0,9618.0,0.0,0.0,-0.0,0.0,0.125,0.49194330900000005,0.01,0.0,-2552.0,0.0,0.0,0.0,0.0,0.0,3.334960596,0.01,0.0,9383.0,0.0,0.0,-0.0,0.0,0.25,1.6027830390000002,0.01,0.0,0.10999999940395355,-1.2000000476837158,-7.21999979019165,-0.0220947265625,0.00299072265625,1.02178955078125,36.630001068115234,0.0,0.0,-0.01416015625,0.1045379638671875,Closing,0.0,0.0,-2.0,0.0,0.0,0.0,0.0,0.0,
4.654922999999951,0.0,0.0,-3680.0,0.0,0.0,0.0,0.0,0.25,0.7788085140000001,0.01,0.0,9618.0,0.0,0.0,-0.0,0.0,0.125,0.490722606,0.01,0.0,-2552.0,0.0,0.0,0.0,0.0,0.0,3.333739893,0.01,0.0,9383.0,0.0,0.0,-0.0,0.0,0.25,1.6027830390000002,0.01,0.0,0.10999999940395355,-1.2000000476837158,-7.21999979019165,-0.01959228515625,4.8828125E-4,1.02032470703125,36.630001068115234,0.0,1.0,-0.01416015625,0.1045379638671875,Closing,0.0,0.0,-2.0,0.0,0.0,0.0,0.0,0.0,
4.725904999999911,0.0,0.0,-3680.0,0.0,0.0,0.0,0.0,0.25,0.780029217,0.01,-0.0012207030000004337,9618.0,0.0,0.0,-0.0,0.0,0.125,0.490722606,0.01,0.0,-2552.0,0.0,0.0,0.0,0.0,0.0,3.334960596,0.01,0.0,9383.0,0.0,0.0,-0.0,0.0,0.25,1.6040037420000002,0.01,0.0,0.10999999940395355,-1.2000000476837158,-7.21999979019165,-0.0213623046875,0.0032958984375,1.023681640625,36.630001068115234,0.0,0.0,-0.01416015625,0.1045379638671875,Closing,0.0,0.0,-2.0,0.0,0.0,0.0,0.0,0.0,
4.79414599999995,0.0,0.0,-3680.0,0.0,0.0,0.0,0.0,0.25,0.7788085140000001,0.01,0.0012207030000004337,9618.0,0.0,0.0,-0.0,0.0,0.125,0.49194330900000005,0.01,0.0,-2552.0,0.0,0.0,0.0,0.0,0.0,3.333739893,0.01,0.0,9383.0,0.0,0.0,-0.0,0.0,0.25,1.6027830390000002,0.01,0.0,0.10999999940395355,-1.2000000476837158,-7.21999979019165,-0.02099609375,0.0,1.02728271484375,36.630001068115234,0.0,0.0,-0.01416015625,0.1045379638671875,Closing,0.0,0.0,-2.0,0.0,0.0,0.0,0.0,0.0,
4.849846999999951,0.0,0.0,-3680.0,0.0,0.0,0.0,0.0,0.25,0.7788085140000001,0.01,-0.0012207030000004337,9618.0,0.0,0.0,-0.0,0.0,0.125,0.49194330900000005,0.01,0.0,-2552.0,0.0,0.0,0.0,0.0,0.0,3.333739893,0.01,0.0,9383.0,0.0,0.0,-0.0,0.0,0.25,1.6027830390000002,0.01,0.0,0.10999999940395355,-1.2000000476837158,-7.21999979019165,-0.02203369140625,-1.220703125E-4,1.0203857421875,36.630001068115234,0.0,0.0,-0.01416015625,0.1045379638671875,Closing,0.0,0.0,-2.0,0.0,0.0,0.0,0.0,0.0,
4.925181999999913,0.0,0.0,-3680.0,0.0,0.0,0.0,0.0,0.25,0.7788085140000001,0.01,0.0012207030000004337,9618.0,0.0,0.0,-0.0,0.0,0.125,0.49194330900000005,0.01,0.0,-2552.0,0.0,0.0,0.0,0.0,0.0,3.333739893,0.01,0.0,9383.0,0.0,0.0,-0.0,0.0,0.25,1.6027830390000002,0.01,0.0,0.10999999940395355,-1.190000057220459,-7.21999979019165,-0.0223388671875,0.00250244140625,1.022216796875,36.630001068115234,0.0,-1.0,-0.01416015625,0.1045379638671875,Closing,0.0,0.0,-2.0,0.0,0.0,0.0,0.0,0.0,
5.060628999999957,0.0,0.0,-3680.0,0.0,0.0,0.0,0.0,0.25,0.7788085140000001,0.01,0.0,9618.0,0.0,0.0,-0.0,0.0,0.125,0.49194330900000005,0.01,0.0,-2552.0,0.0,0.0,0.0,0.0,0.0,3.334960596,0.01,0.0,9383.0,0.0,0.0,-0.0,0.0,0.25,1.6027830390000002,0.01,0.0,0.10999999940395355,-1.190000057220459,-7.21999979019165,-0.02130126953125,0.00341796875,1.01873779296875,36.66999816894531,0.0,0.0,-0.01416015625,0.1045379638671875,Closing,0.0,0.0,-2.0,0.0,0.0,0.0,0.0,0.0,
5.127816999999923,0.0,0.0,-3680.0,0.0,0.0,0.0,0.0,0.25,0.7788085140000001,0.01,-0.0012207030000004337,9618.0,0.0,0.0,-0.0,0.0,0.125,0.49194330900000005,0.01,0.0,-2552.0,0.0,0.0,0.0,0.0,0.0,3.334960596,0.01,0.0,9383.0,0.0,0.0,-0.0,0.0,0.25,1.6027830390000002,0.01,0.0,0.10999999940395355,-1.1799999475479126,-7.21999979019165,-0.0194091796875,0.0032958984375,1.0157470703125,36.66999816894531,0.0,1.0,-0.01416015625,0.1045379638671875,Closing,0.0,0.0,-2.0,0.0,0.0,0.0,0.0,0.0,
5.254358000000008,0.0,0.0,-3680.0,0.0,0.0,0.0,0.0,0.25,0.7788085140000001,0.01,0.0,9618.0,0.0,0.0,-0.0,0.0,0.125,0.49194330900000005,0.01,0.0,-2552.0,0.0,0.0,0.0,0.0,0.0,3.334960596,0.01,0.0,9383.0,0.0,0.0,-0.0,0.0,0.25,1.6027830390000002,0.01,0.0,0.10999999940395355,-1.1799999475479126,-7.21999979019165,-0.021728515625,1.220703125E-4,1.02362060546875,36.66999816894531,0.0,0.0,-0.01416015625,0.1045379638671875,Closing,0.0,0.0,-2.0,0.0,0.0,0.0,0.0,0.0,
5.324081000000006,0.0,0.0,-3680.0,0.0,0.0,0.0,0.0,0.25,0.7788085140000001,0.01,-0.0012207030000004337,9618.0,0.0,0.0,-0.0,0.0,0.125,0.490722606,0.01,0.0,-2552.0,0.0,0.0,0.0,0.0,0.0,3.333739893,0.01,0.0,9383.0,0.0,0.0,-0.0,0.0,0.25,1.6027830390000002,0.01,0.0,0.10999999940395355,-1.1799999475479126,-7.21999979019165,-0.02252197265625,0.00390625,1.0245361328125,36.66999816894531,0.0,-1.0,-0.01416015625,0.1045379638671875,Closing,0.0,0.0,-2.0,0.0,0.0,0.0,0.0,0.0,
5.383212999999989,0.0,0.0,-3680.0,0.0,0.0,0.0,0.0,0.25,0.780029217,0.01,0.0012207030000004337,9618.0,0.0,0.0,-0.0,0.0,0.125,0.490722606,0.01,0.0,-2552.0,0.0,0.0,0.0,0.0,0.0,3.333739893,0.01,0.0,9383.0,0.0,0.0,-0.0,0.0,0.25,1.6040037420000002,0.01,0.0,0.11999999731779099,-1.190000057220459,-7.21999979019165,-0.01983642578125,0.00396728515625,1.01885986328125,36.66999816894531,0.0,1.0,-0.01416015625,0.1045379638671875,Closing,0.0,0.0,-2.0,0.0,0.0,0.0,0.0,0.0,
5.523687999999965,0.0,0.0,-3680.0,0.0,0.0,0.0,0.0,0.25,0.7788085140000001,0.01,0.0,9618.0,0.0,0.0,-0.0,0.0,0.125,0.49194330900000005,0.01,0.0,-2552.0,0.0,0.0,0.0,0.0,0.0,3.333739893,0.01,0.0,9383.0,0.0,0.0,-0.0,0.0,0.25,1.6027830390000002,0.01,0.0,0.11999999731779099,-1.190000057220459,-7.21999979019165,-0.0208740234375,0.002685546875,1.0244140625,36.66999816894531,0.0,0.0,-0.01416015625,0.1045379638671875,Closing,0.0,0.0,-2.0,0.0,0.0,0.0,0.0,0.0,
5.590144999999902,0.0,0.0,-3680.0,0.0,0.0,0.0,0.0,0.25,0.7788085140000001,0.01,0.0012207030000004337,9618.0,0.0,0.0,-0.0,0.0,0.125,0.49194330900000005,0.01,0.0,-2552.0,0.0,0.0,0.0,0.0,0.0,3.333739893,0.01,0.0,9383.0,0.0,0.0,-0.0,0.0,0.25,1.6027830390000002,0.01,0.0,0.11999999731779099,-1.190000057220459,-7.210000038146973,-0.02154541015625,0.00146484375,1.02294921875,36.66999816894531,0.0,0.0,-0.01416015625,0.1045379638671875,Closing,0.0,0.0,-2.0,0.0,0.0,0.0,0.0,0.0,
5.726854999999981,0.0,0.0,-3680.0,0.0,0.0,0.0,0.0,0.25,0.780029217,0.01,0.0,9618.0,0.0,0.0,-0.0,0.0,0.125,0.490722606,0.01,0.0,-2552.0,0.0,0.0,0.0,0.0,0.0,3.334960596,0.01,0.0,9383.0,0.0,0.0,-0.0,0.0,0.25,1.6027830390000002,0.01,0.0,0.11999999731779099,-1.2000000476837158,-7.210000038146973,-0.023193359375,0.00244140625,1.019287109375,36.66999816894531,0.0,-1.0,-0.01416015625,0.1045379638671875,Closing,0.0,0.0,-2.0,0.0,0.0,0.0,0.0,0.0,
5.859362999999895,0.0,0.0,-3680.0,0.0,0.0,0.0,0.0,0.25,0.7788085140000001,0.01,0.0,9618.0,0.0,0.0,-0.0,0.0,0.125,0.490722606,0.01,0.0,-2552.0,0.0,0.0,0.0,0.0,0.0,3.333739893,0.01,0.0,9383.0,0.0,0.0,-0.0,0.0,0.25,1.6027830390000002,0.01,0.0,0.11999999731779099,-1.2000000476837158,-7.210000038146973,-0.02386474609375,0.00408935546875,1.02056884765625,36.66999816894531,0.0,-2.0,-0.01416015625,0.1045379638671875,Closing,0.0,0.0,-2.0,0.0,0.0,0.0,0.0,0.0,
5.937896999999997,0.0,0.0,-3680.0,0.0,0.0,0.0,0.0,0.25,0.7788085140000001,0.01,0.0,9618.0,0.0,0.0,-0.0,0.0,0.125,0.490722606,0.01,0.0,-2552.0,0.0,0.0,0.0,0.0,0.0,3.334960596,0.01,0.0,9383.0,0.0,0.0,-0.0,0.0,0.25,1.6027830390000002,0.01,0.0,0.11999999731779099,-1.2000000476837158,-7.210000038146973,-0.02105712890625,-1.220703125E-4,1.02056884765625,36.66999816894531,0.0,0.0,-0.01416015625,0.1045379638671875,Closing,0.0,0.0,-2.0,0.0,0.0,0.0,0.0,0.0,
6.049414999999921,0.0,0.0,-3680.0,0.0,0.0,0.0,0.0,0.25,0.7788085140000001,0.01,0.0,9618.0,0.0,0.0,-0.0,0.0,0.125,0.49194330900000005,0.01,0.0,-2552.0,0.0,0.0,0.0,0.0,0.0,3.333739893,0.01,0.0,9383.0,0.0,0.0,-0.0,0.0,0.25,1.6027830390000002,0.01,0.0,0.12999999523162842,-1.190000057220459,-7.21999979019165,-0.0223388671875,0.00201416015625,1.017333984375,36.66999816894531,0.0,-1.0,-0.01416015625,0.1045379638671875,Closing,0.0,0.0,-2.0,0.0,0.0,0.0,0.0,0.0,
6.194746999999974,0.0,0.0,-3680.0,0.0,0.0,0.0,0.0,0.25,0.780029217,0.01,0.0,9618.0,0.0,0.0,-0.0,0.0,0.125,0.490722606,0.01,0.0,-2552.0,0.0,0.0,0.0,0.0,0.0,3.334960596,0.01,0.0,9383.0,0.0,0.0,-0.0,0.0,0.25,1.6052244450000002,0.01,0.0,0.12999999523162842,-1.190000057220459,-7.21999979019165,-0.02130126953125,0.0025634765625,1.02117919921875,36.66999816894531,0.0,0.0,-0.01416015625,0.1045379638671875,Closing,0.0,0.0,-2.0,0.0,0.0,0.0,0.0,0.0,
6.313670999999973,0.0,0.0,-3680.0,0.0,0.0,0.0,0.0,0.25,0.7788085140000001,0.01,0.0,9618.0,0.0,0.0,-0.0,0.0,0.125,0.49194330900000005,0.01,0.0,-2552.0,0.0,0.0,0.0,0.0,0.0,3.333739893,0.01,0.0,9383.0,0.0,0.0,-0.0,0.0,0.25,1.6027830390000002,0.01,0.0,0.12999999523162842,-1.190000057220459,-7.21999979019165,-0.0208740234375,0.00115966796875,1.01971435546875,36.66999816894531,0.0,0.0,-0.01416015625,0.1045379638671875,Closing,0.0,0.0,-2.0,0.0,0.0,0.0,0.0,0.0,
6.383390999999945,0.0,0.0,-3680.0,0.0,0.0,0.0,0.0,0.25,0.7788085140000001,0.01,0.0,9618.0,0.0,0.0,-0.0,0.0,0.125,0.49194330900000005,0.01,0.0,-2552.0,0.0,0.0,0.0,0.0,0.0,3.334960596,0.01,0.0,9383.0,0.0,0.0,-0.0,0.0,0.25,1.6040037420000002,0.01,-0.0012207030000004337,0.12999999523162842,-1.190000057220459,-7.21999979019165,-0.0198974609375,0.00299072265625,1.0167236328125,36.66999816894531,0.0,1.0,-0.01416015625,0.1045379638671875,Closing,0.0,0.0,-2.0,0.0,0.0,0.0,0.0,0.0,
6.459437999999966,0.0,0.0,-3680.0,0.0,0.0,0.0,0.0,0.25,0.7788085140000001,0.01,0.0,9618.0,0.0,0.0,-0.0,0.0,0.125,0.490722606,0.01,0.0,-2552.0,0.0,0.0,0.0,0.0,0.0,3.334960596,0.01,0.0,9383.0,0.0,0.0,-0.0,0.0,0.25,1.6040037420000002,0.01,0.0,0.12999999523162842,-1.190000057220459,-7.21999979019165,-0.02484130859375,4.2724609375E-4,1.01995849609375,36.66999816894531,0.0,-3.0,-0.01416015625,0.1045379638671875,Closing,0.0,0.0,-2.0,0.0,0.0,0.0,0.0,0.0,
6.5905039999999575,0.0,0.0,-3680.0,0.0,0.0,0.0,0.0,0.25,0.780029217,0.01,0.0,9618.0,0.0,0.0,-0.0,0.0,0.125,0.49194330900000005,0.01,0.0,-2552.0,0.0,0.0,0.0,0.0,0.0,3.333739893,0.01,0.0,9383.0,0.0,0.0,-0.0,0.0,0.25,1.6027830390000002,0.01,0.0,0.12999999523162842,-1.2000000476837158,-7.21999979019165,-0.02215576171875,2.44140625E-4,1.02471923828125,36.68000030517578,0.0,0.0,-0.01416015625,0.1045379638671875,Closing,0.0,0.0,-2.0,0.0,0.0,0.0,0.0,0.0,
6.662157000000007,0.0,0.0,-3680.0,0.0,0.0,0.0,0.0,0.25,0.7788085140000001,0.01,0.0,9618.0,0.0,0.0,-0.0,0.0,0.125,0.49194330900000005,0.01,0.0,-2552.0,0.0,0.0,0.0,0.0,0.0,3.334960596,0.01,0.0,9383.0,0.0,0.0,-0.0,0.0,0.25,1.6040037420000002,0.01,0.0,0.12999999523162842,-1.190000057220459,-7.21999979019165,-0.02081298828125,0.002197265625,1.02142333984375,36.68000030517578,0.0,0.0,-0.01416015625,0.1045379638671875,Closing,0.0,0.0,-2.0,0.0,0.0,0.0,0.0,0.0,
6.790647999999928,0.0,0.0,-3680.0,0.0,0.0,0.0,0.0,0.25,0.7788085140000001,0.01,0.0,9618.0,0.0,0.0,-0.0,0.0,0.125,0.49194330900000005,0.01,0.0,-2552.0,0.0,0.0,0.0,0.0,0.0,3.333739893,0.01,0.0,9383.0,0.0,0.0,-0.0,0.0,0.25,1.6027830390000002,0.01,0.0,0.12999999523162842,-1.2000000476837158,-7.21999979019165,-0.02020263671875,7.9345703125E-4,1.019775390625,36.68000030517578,0.0,1.0,-0.01416015625,0.1045379638671875,Closing,0.0,0.0,-2.0,0.0,0.0,0.0,0.0,0.0,
6.926431999999913,0.0,0.0,-3680.0,0.0,0.0,0.0,0.0,0.25,0.780029217,0.01,0.0,9618.0,0.0,0.0,-0.0,0.0,0.125,0.490722606,0.01,0.0,-2552.0,0.0,0.0,0.0,0.0,0.0,3.334960596,0.01,0.0,9383.0,0.0,0.0,-0.0,0.0,0.25,1.6027830390000002,0.01,0.0,0.11999999731779099,-1.2000000476837158,-7.21999979019165,-0.0211181640625,0.002685546875,1.01885986328125,36.68000030517578,0.0,0.0,-0.01416015625,0.1045379638671875,Closing,0.0,0.0,-2.0,0.0,0.0,0.0,0.0,0.0,
7.061995999999926,0.0,0.0,-3680.0,0.0,0.0,0.0,0.0,0.25,0.7788085140000001,0.01,0.0,9618.0,0.0,0.0,-0.0,0.0,0.125,0.490722606,0.01,0.0,-2552.0,0.0,0.0,0.0,0.0,0.0,3.334960596,0.01,0.0,9383.0,0.0,0.0,-0.0,0.0,0.25,1.6027830390000002,0.01,0.0,0.11999999731779099,-1.2000000476837158,-7.21999979019165,-0.02191162109375,-8.544921875E-4,1.02020263671875,36.70000076293945,0.0,0.0,-0.01416015625,0.1045379638671875,Closing,0.0,0.0,-2.0,0.0,0.0,0.0,0.0,0.0,
7.190814999999944,0.0,0.0,-3680.0,0.0,0.0,0.0,0.0,0.25,0.780029217,0.01,0.0,9618.0,0.0,0.0,-0.0,0.0,0.125,0.49194330900000005,0.01,0.0,-2552.0,0.0,0.0,0.0,0.0,0.0,3.333739893,0.01,0.0,9383.0,0.0,0.0,-0.0,0.0,0.25,1.6027830390000002,0.01,0.0,0.11999999731779099,-1.2000000476837158,-7.21999979019165,-0.02227783203125,0.004150390625,1.01507568359375,36.70000076293945,0.0,-1.0,-0.01416015625,0.1045379638671875,Closing,0.0,0.0,-2.0,0.0,0.0,0.0,0.0,0.0,
7.329476999999955,0.0,0.0,-3680.0,0.0,0.0,0.0,0.0,0.25,0.7788085140000001,0.01,0.0,9618.0,0.0,0.0,-0.0,0.0,0.125,0.490722606,0.01,0.0,-2552.0,0.0,0.0,0.0,0.0,0.0,3.333739893,0.01,0.0,9383.0,0.0,0.0,-0.0,0.0,0.25,1.6027830390000002,0.01,0.0,0.11999999731779099,-1.2000000476837158,-7.21999979019165,-0.021240234375,0.00299072265625,1.02496337890625,36.70000076293945,0.0,0.0,-0.01416015625,0.1045379638671875,Closing,0.0,0.0,-2.0,0.0,0.0,0.0,0.0,0.0,
7.460032000000006,0.0,0.0,-3680.0,0.0,0.0,0.0,0.0,0.25,0.7788085140000001,0.01,0.0,9618.0,0.0,0.0,-0.0,0.0,0.125,0.49194330900000005,0.01,0.0,-2552.0,0.0,0.0,0.0,0.0,0.0,3.333739893,0.01,0.0,9383.0,0.0,0.0,-0.0,0.0,0.25,1.6027830390000002,0.01,0.0,0.11999999731779099,-1.2000000476837158,-7.21999979019165,-0.02117919921875,0.00238037109375,1.022705078125,36.70000076293945,0.0,0.0,-0.01416015625,0.1045379638671875,Closing,0.0,0.0,-2.0,0.0,0.0,0.0,0.0,0.0,
7.582305999999982,0.0,0.0,-3680.0,0.0,0.0,0.0,0.0,0.25,0.7775878110000001,0.01,0.0,9618.0,0.0,0.0,-0.0,0.0,0.125,0.49194330900000005,0.01,0.0,-2552.0,0.0,0.0,0.0,0.0,0.0,3.333739893,0.01,0.0,9383.0,0.0,0.0,-0.0,0.0,0.25,1.6027830390000002,0.01,0.0,0.11999999731779099,-1.190000057220459,-7.230000019073486,-0.0205078125,0.00347900390625,1.021484375,36.65999984741211,0.0,0.0,-0.01416015625,0.1045379638671875,Closing,0.0,0.0,-2.0,0.0,0.0,0.0,0.0,0.0,
7.658,0.0,0.0,-3680.0,0.0,0.0,0.0,0.0,0.25,0.7788085140000001,0.01,0.0012207030000004337,9618.0,0.0,0.0,-0.0,0.0,0.125,0.49316401200000004,0.01,0.0,-2552.0,0.0,0.0,0.0,0.0,0.0,3.333739893,0.01,0.0,9383.0,0.0,0.0,-0.0,0.0,0.25,1.6027830390000002,0.01,0.0,0.11999999731779099,-1.2000000476837158,-7.230000019073486,-0.021240234375,0.00384521484375,1.01806640625,36.65999984741211,0.0,0.0,-0.01416015625,0.1045379638671875,Closing,0.0,0.0,-2.0,0.0,0.0,0.0,0.0,0.0,
7.792565999999992,0.0,0.0,-3680.0,0.0,0.0,0.0,0.0,0.25,0.780029217,0.01,0.0,9618.0,0.0,0.0,-0.0,0.0,0.125,0.490722606,0.01,0.0,-2552.0,0.0,0.0,0.0,0.0,0.0,3.33251919,0.01,0.0,9383.0,0.0,0.0,-0.0,0.0,0.25,1.6040037420000002,0.01,0.0,0.12999999523162842,-1.190000057220459,-7.21999979019165,-0.0213623046875,0.00299072265625,1.02203369140625,36.65999984741211,0.0,0.0,-0.01416015625,0.1045379638671875,Closing,0.0,0.0,-2.0,0.0,0.0,0.0,0.0,0.0,
7.860262999999919,0.0,0.0,-3680.0,0.0,0.0,0.0,0.0,0.25,0.7788085140000001,0.01,0.0,9618.0,0.0,0.0,-0.0,0.0,0.125,0.49194330900000005,0.01,0.0,-2552.0,0.0,0.0,0.0,0.0,0.0,3.334960596,0.01,0.0,9383.0,0.0,0.0,-0.0,0.0,0.25,1.6027830390000002,0.01,0.0,0.12999999523162842,-1.190000057220459,-7.21999979019165,-0.02178955078125,0.00372314453125,1.018310546875,36.65999984741211,0.0,0.0,-0.01416015625,0.1045379638671875,Closing,0.0,0.0,-2.0,0.0,0.0,0.0,0.0,0.0,
7.998166999999899,0.0,0.0,-3680.0,0.0,0.0,0.0,0.0,0.25,0.7788085140000001,0.01,0.0,9618.0,0.0,0.0,-0.0,0.0,0.125,0.49194330900000005,0.01,0.0,-2552.0,0.0,0.0,0.0,0.0,0.0,3.333739893,0.01,0.0,9383.0,0.0,0.0,-0.0,0.0,0.25,1.6027830390000002,0.01,0.0,0.12999999523162842,-1.190000057220459,-7.21999979019165,-0.020751953125,0.002197265625,1.01959228515625,36.650001525878906,0.0,0.0,-0.01416015625,0.1045379638671875,Closing,0.0,0.0,-2.0,0.0,0.0,0.0,0.0,0.0,
8.126835999999894,0.0,0.0,-3680.0,0.0,0.0,0.0,0.0,0.25,0.7788085140000001,0.01,0.0,9618.0,0.0,0.0,-0.0,0.0,0.125,0.490722606,0.01,0.0,-2552.0,0.0,0.0,0.0,0.0,0.0,3.333739893,0.01,0.0,9383.0,0.0,0.0,-0.0,0.0,0.25,1.6027830390000002,0.01,0.0,0.12999999523162842,-1.190000057220459,-7.21999979019165,-0.02008056640625,-6.103515625E-5,1.02105712890625,36.650001525878906,0.0,1.0,-0.01416015625,0.1045379638671875,Closing,0.0,0.0,-2.0,0.0,0.0,0.0,0.0,0.0,
8.259193999999901,0.0,0.0,-3680.0,0.0,0.0,0.0,0.0,0.25,0.7788085140000001,0.01,0.0,9618.0,0.0,0.0,-0.0,0.0,0.125,0.49194330900000005,0.01,0.0,-2552.0,0.0,0.0,0.0,0.0,0.0,3.333739893,0.01,0.0,9383.0,0.0,0.0,-0.0,0.0,0.25,1.6027830390000002,0.01,0.0,0.12999999523162842,-1.190000057220459,-7.21999979019165,-0.02081298828125,0.00384521484375,1.021240234375,36.650001525878906,0.0,0.0,-0.01416015625,0.1045379638671875,Closing,0.0,0.0,-2.0,0.0,0.0,0.0,0.0,0.0,
8.325430999999982,0.0,0.0,-3680.0,0.0,0.0,0.0,0.0,0.25,0.780029217,0.01,0.0,9618.0,0.0,0.0,-0.0,0.0,0.125,0.490722606,0.01,0.0,-2552.0,0.0,0.0,0.0,0.0,0.0,3.333739893,0.01,0.0,9383.0,0.0,0.0,-0.0,0.0,0.25,1.6027830390000002,0.01,0.0,0.12999999523162842,-1.190000057220459,-7.21999979019165,-0.0191650390625,0.00299072265625,1.02044677734375,36.650001525878906,0.0,2.0,-0.01416015625,0.1045379638671875,Closing,0.0,0.0,-2.0,0.0,0.0,0.0,0.0,0.0,
8.459302999999956,0.0,0.0,-3680.0,0.0,0.0,0.0,0.0,0.25,0.780029217,0.01,0.0,9618.0,0.0,0.0,-0.0,0.0,0.125,0.49194330900000005,0.01,0.0,-2552.0,0.0,0.0,0.0,0.0,0.0,3.334960596,0.01,0.0,9383.0,0.0,0.0,-0.0,0.0,0.25,1.6027830390000002,0.01,0.0,0.12999999523162842,-1.190000057220459,-7.21999979019165,-0.01885986328125,0.00396728515625,1.02044677734375,36.650001525878906,0.0,2.0,-0.01416015625,0.1045379638671875,Closing,0.0,0.0,-2.0,0.0,0.0,0.0,0.0,0.0,
8.523495999999927,0.0,0.0,-3680.0,0.0,0.0,0.0,0.0,0.25,0.7788085140000001,0.01,0.0012207030000004337,9618.0,0.0,0.0,-0.0,0.0,0.125,0.490722606,0.01,0.0,-2552.0,0.0,0.0,0.0,0.0,0.0,3.334960596,0.01,0.0,9383.0,0.0,0.0,-0.0,0.0,0.25,1.6027830390000002,0.01,0.0,0.14000000059604645,-1.190000057220459,-7.21999979019165,-0.02008056640625,0.0052490234375,1.0224609375,36.65999984741211,0.0,0.0,-0.01416015625,0.1045379638671875,Closing,0.0,0.0,-2.0,0.0,0.0,0.0,0.0,0.0,
8.585024999999908,0.0,0.0,-3680.0,0.0,0.0,0.0,0.0,0.25,0.784912029,0.01,0.0,9618.0,0.0,0.0,-0.0,0.0,0.125,0.49194330900000005,0.01,0.0,-2552.0,0.0,0.0,0.0,0.0,0.0,3.333739893,0.01,0.0,9383.0,0.0,0.0,-0.0,0.0,0.25,1.6027830390000002,0.01,0.0,0.14000000059604645,-1.190000057220459,-7.21999979019165,-0.02093505859375,1.220703125E-4,1.0244140625,36.65999984741211,0.0,0.0,-0.01416015625,0.1045379638671875,Closing,0.0,0.0,-2.0,0.0,0.0,0.0,0.0,0.0,
8.659483000000007,0.0,0.0,-3680.0,0.125,0.0,-330.70866018533707,0.0,2.25,0.90332022,0.5498168668524864,0.0,9618.0,0.125,-7.5,-330.70866018533707,0.0,2.375,0.443115189,4.41043958977222,0.0,-2552.0,0.125,0.0,-330.70866018533707,0.0,1.5,3.2104488900000003,4.389674732977291,0.0,9383.0,0.125,0.0,-330.70866018533707,0.0,2.625,1.7919920040000001,0.552687206278561,0.0,0.14000000059604645,-1.2100000381469727,-7.21999979019165,-0.0194091796875,0.03369140625,1.037109375,36.65999984741211,0.0,-1.0,-0.0141143798828125,0.104522705078125,Closing,0.0,0.0,-2.0,0.0,0.0,0.0,0.0,0.0,
8.792429999999936,0.0,0.0,-3680.0,0.0,0.0,0.0,0.0,0.75,1.3989256380000001,0.5498168668524864,0.0,9610.0,0.0,0.0,0.0,0.0,0.5,4.827880365,4.41043958977222,0.0,-2563.0,0.0,-120.0,0.0,0.0,0.625,2.725829799,4.389674732977291,0.0,9380.0,0.0,-7.5,0.0,0.0,0.875,2.2778317980000002,0.552687206278561,0.0,0.12999999523162842,-1.149999976158142,-7.039999961853027,-0.00531005859375,-0.01544189453125,1.0174560546875,36.65999984741211,0.0,17.0,-0.01409912109375,0.1029205322265625,Closing,0.0,0.0,-2.0,0.0,0.0,0.0,0.0,0.0,
8.923512999999918,0.0,0.0,-3682.0,0.0,-22.5,0.0,0.0,0.625,1.600341633,0.5498168668524864,0.0,9611.0,0.0,0.0,0.0,0.0,0.5,4.683837411,4.41043958977222,0.0,-2571.0,0.0,15.0,0.0,0.0,0.25,2.617187232,4.389674732977291,0.0,9380.0,0.0,0.0,0.0,0.0,0.25,2.336425542,0.552687206278561,0.0,0.11999999731779099,-1.2599999904632568,-6.869999885559082,-0.0404052734375,0.00787353515625,1.04473876953125,36.65999984741211,0.0,-17.0,-0.015167236328125,0.10247802734375,Closing,0.0,0.0,-2.0,0.0,0.0,0.0,0.0,0.0,
8.98591399999999,0.0,0.0,-3684.0,0.0,-15.0,0.0,0.0,0.25,1.5527342160000002,0.5498168668524864,0.15869139,9611.0,0.0,0.0,0.0,0.0,0.25,4.742431155,4.41043958977222,-0.12084959699999942,-2570.0,0.0,0.0,0.0,0.0,0.125,2.667236055,4.389674732977291,-0.10620116100000043,9380.0,0.0,0.0,0.0,0.0,0.25,2.259521253,0.552687206278561,0.05981444699999994,0.14000000059604645,-1.2599999904632568,-6.869999885559082,0.00408935546875,0.00103759765625,1.03375244140625,36.65999984741211,0.0,26.0,-0.01513671875,0.10247802734375,Closing,0.0,0.0,-2.0,0.0,0.0,0.0,0.0,0.0,
9.061351999999955,0.0,0.0,-3684.0,0.0,0.0,0.0,0.0,0.25,1.456298679,0.5498168668524864,-0.06225585299999992,9611.0,0.0,0.0,0.0,0.0,0.25,4.775390136,4.41043958977222,0.05981444699999994,-2570.0,0.0,0.0,0.0,0.0,0.125,2.716064175,4.389674732977291,0.0,9380.0,0.0,0.0,0.0,0.0,0.25,2.2167966480000003,0.552687206278561,0.0,0.11999999731779099,-1.2200000286102295,-6.920000076293945,-0.016845703125,-0.00848388671875,1.02703857421875,36.65999984741211,0.0,6.0,-0.0150146484375,0.10247802734375,Closing,0.0,0.0,-2.0,0.0,0.0,0.0,0.0,0.0,
9.193101999999955,0.0,0.0,-3684.0,0.0,0.0,0.0,0.0,0.25,1.356201033,0.5498168668524864,0.0,9611.0,0.0,0.0,0.0,0.0,0.25,4.908446763000001,4.41043958977222,0.0,-2570.0,0.0,0.0,0.0,0.0,0.0,2.784423543,4.389674732977291,0.0,9380.0,0.0,0.0,0.0,0.0,0.25,2.187499776,0.552687206278561,0.0,0.12999999523162842,-1.2400000095367432,-6.900000095367432,-0.0228271484375,0.0107421875,1.02606201171875,36.65999984741211,0.0,-1.0,-0.0150146484375,0.10247802734375,Closing,0.0,0.0,-2.0,0.0,0.0,0.0,0.0,0.0,
9.260060999999986,0.0,0.0,-3684.0,0.0,0.0,0.0,0.0,0.125,1.359863142,0.5498168668524864,-0.079345695,9611.0,0.0,0.0,0.0,0.0,0.0,4.935302229,4.41043958977222,0.0,-2570.0,0.0,0.0,0.0,0.0,0.0,2.7941891670000003,4.389674732977291,0.0,9380.0,0.0,0.0,0.0,0.0,0.25,2.187499776,0.552687206278561,0.0,0.11999999731779099,-1.2200000286102295,-6.909999847412109,-0.01995849609375,0.00469970703125,1.017822265625,36.65999984741211,0.0,1.0,-0.0150146484375,0.10247802734375,Closing,0.0,0.0,-2.0,0.0,0.0,0.0,0.0,0.0,
9.382243999999949,0.0,0.0,-3686.0,0.375,-22.5,-429.9212738871575,0.0,0.125,1.356201033,0.5498168668524864,0.0,9610.0,1.125,-37.5,-429.9212738871575,0.0,0.125,4.935302229,4.41043958977222,0.0,-2570.0,1.0,-37.5,-429.9212738871575,0.0,0.0,2.7941891670000003,4.389674732977291,0.0,9380.0,0.375,0.0,-429.9212738871575,0.0,0.125,2.175292746,0.552687206278561,0.0,0.11999999731779099,-1.2100000381469727,-6.75,-0.0455322265625,-0.0458984375,1.033935546875,36.65999984741211,0.0,-17.0,-0.014984130859375,0.1020965576171875,Closing,0.0,0.0,-2.0,0.0,0.0,0.0,0.0,0.0,
9.462410999999964,0.0,0.0,-3719.0,0.375,-150.0,-562.2047066688538,0.0,0.125,1.359863142,0.5498168668524864,0.0,9596.0,3.125,-82.5,-562.2047066688538,0.0,0.125,4.937743635,4.41043958977222,0.0,-2581.0,2.0,-67.5,-562.2047066688538,0.0,0.0,2.817382524,4.389674732977291,0.0,9375.0,0.75,-82.5,-562.2047066688538,0.0,0.25,2.187499776,0.552687206278561,0.0,0.10999999940395355,-1.2100000381469727,-6.170000076293945,-0.02880859375,-0.0191650390625,1.06036376953125,36.65999984741211,0.0,-4.0,-0.014984130859375,0.1019287109375,Closing,0.0,0.0,-2.0,0.0,0.0,0.0,0.0,0.0,
9.587775999999954,0.0,0.0,-3753.0,1.0,-195.0,-562.2047066688538,0.0,0.125,1.359863142,0.5498168668524864,0.0,9563.0,4.625,-217.5,-562.2047066688538,0.0,0.125,4.934081526,4.41043958977222,0.0,-2601.0,2.75,-135.0,-562.2047066688538,0.0,0.125,2.828368851,4.389674732977291,0.0,9332.0,0.75,-262.5,-562.2047066688538,0.0,0.125,2.187499776,0.552687206278561,0.0,0.10999999940395355,-1.2400000095367432,-3.799999952316284,-0.0587158203125,0.01611328125,0.95806884765625,36.689998626708984,0.0,-38.0,-0.014617919921875,0.1019439697265625,Closing,0.0,0.0,-2.0,0.0,0.0,0.0,0.0,0.0,
9.658581000000005,0.0,0.0,-3753.0,2.375,-315.0,-661.4173203706741,0.0,0.125,1.359863142,0.5498168668524864,0.0,9563.0,5.0,-307.5,-661.4173203706741,0.0,0.125,4.954833477,4.41043958977222,0.0,-2653.0,3.75,-270.0,-661.4173203706741,0.0,0.125,2.828368851,4.389674732977291,0.0,9279.0,1.0,-292.5,-661.4173203706741,0.0,0.125,2.186279073,0.552687206278561,0.0,0.03999999910593033,-1.4500000476837158,-0.44999998807907104,-0.014892578125,0.0167236328125,1.15728759765625,36.689998626708984,0.0,14.0,-0.0157928466796875,0.1011810302734375,Closing,0.0,0.0,-2.0,0.0,0.0,0.0,0.0,0.0,
9.791675999999978,0.0,0.0,-3827.0,1.0,-555.0,-677.9527455568314,0.0,0.125,1.358642439,0.5498168668524864,0.0,9400.0,3.25,-600.0,-677.9527455568314,0.0,0.25,4.957274883,4.41043958977222,0.0,-2735.0,3.125,-495.0,-677.9527455568314,0.0,0.125,2.823486039,4.389674732977291,0.0,9194.0,1.0,-502.5,-677.9527455568314,0.0,0.125,2.196044697,0.552687206278561,0.0,0.05999999865889549,-1.3600000143051147,6.409999847412109,0.03057861328125,-0.01666259765625,1.088623046875,36.689998626708984,0.0,54.0,-0.016845703125,0.1023712158203125,Closing,0.0,0.0,-2.0,0.0,0.0,0.0,0.0,0.0,
9.926240999999921,0.0,0.0,-3923.0,0.0,-435.0,0.0,0.0,0.125,1.340331894,0.5498168668524864,0.0,9341.0,0.0,-382.5,0.0,0.0,0.25,4.956054180000001,4.41043958977222,0.0,-2820.0,0.0,-540.0,0.0,0.0,0.125,2.822265336,4.389674732977291,0.0,9118.0,0.0,-457.5,0.0,0.0,0.125,2.187499776,0.552687206278561,0.0,-0.019999999552965164,-1.5199999809265137,14.380000114440918,0.1024169921875,-0.0919189453125,1.015869140625,36.689998626708984,0.0,102.0,-0.01788330078125,0.1047821044921875,Closing,0.0,0.0,-2.0,0.0,0.0,0.0,0.0,0.0,
10.059457999999983,0.0,0.0,-4021.0,0.0,-345.0,0.0,0.0,0.125,1.340331894,0.5498168668524864,0.0,9288.0,0.0,-270.0,0.0,0.0,0.25,4.957274883,4.41043958977222,0.0,-2888.0,0.0,-405.0,0.0,0.0,0.0,2.7941891670000003,4.389674732977291,0.0,9060.0,0.0,-307.5,0.0,0.0,0.125,2.186279073,0.552687206278561,0.0,0.03999999910593033,-1.340000033378601,18.979999542236328,0.041259765625,0.1048583984375,1.04815673828125,36.689998626708984,0.0,96.0,-0.018951416015625,0.1063995361328125,Closing,0.0,0.0,-2.0,0.0,0.0,0.0,0.0,0.0,
10.190218999999924,0.0,0.0,-4032.0,0.0,-90.0,0.0,0.0,0.125,1.340331894,0.5498168668524864,0.0,9264.0,0.0,-105.0,0.0,0.0,0.25,4.958495586000001,4.41043958977222,0.0,-2911.0,0.0,-105.0,0.0,0.0,0.0,2.7941891670000003,4.389674732977291,0.0,9031.0,0.0,-135.0,0.0,0.0,0.125,2.187499776,0.552687206278561,0.0,-0.019999999552965164,-1.3200000524520874,20.489999771118164,-0.026611328125,0.00592041015625,0.9844970703125,36.689998626708984,0.0,-1.0,-0.0186767578125,0.106597900390625,Closing,0.0,0.0,-2.0,0.0,0.0,0.0,0.0,0.0,
10.260289999999921,0.0,0.0,-4032.0,0.0,-15.0,0.0,0.0,0.125,1.3415525970000002,0.5498168668524864,0.0,9263.0,0.0,-22.5,0.0,0.0,0.25,4.957274883,4.41043958977222,0.0,-2912.0,0.0,-30.0,0.0,0.0,0.0,2.7941891670000003,4.389674732977291,0.0,9030.0,0.0,-7.5,0.0,0.0,0.125,2.186279073,0.552687206278561,0.0,-0.029999999329447746,-1.2799999713897705,20.209999084472656,-0.00701904296875,-0.00433349609375,1.0123291015625,36.689998626708984,0.0,13.0,-0.0184478759765625,0.106597900390625,Closing,0.0,0.0,-2.0,0.0,0.0,0.0,0.0,0.0,
10.389489999999991,0.0,0.0,-4032.0,0.0,0.0,0.0,0.0,0.125,1.340331894,0.5498168668524864,0.0,9263.0,0.0,0.0,0.0,0.0,0.25,4.94384715,4.41043958977222,0.0,-2912.0,0.0,0.0,0.0,0.0,0.0,2.7929684640000003,4.389674732977291,0.0,9030.0,0.0,0.0,0.0,0.0,0.125,2.186279073,0.552687206278561,0.0,0.0,-1.2699999809265137,19.770000457763672,-0.02520751953125,-3.0517578125E-4,1.01885986328125,36.689998626708984,0.0,-2.0,-0.0183563232421875,0.106597900390625,Closing,0.0,0.0,-2.0,0.0,0.0,0.0,0.0,0.0,
10.459035999999964,0.0,0.0,-4032.0,0.0,0.0,0.0,0.0,0.125,1.3415525970000002,0.5498168668524864,0.0,9263.0,0.0,0.0,0.0,0.0,0.25,4.941405744,4.41043958977222,0.0,-2912.0,0.0,0.0,0.0,0.0,0.0,2.7990719790000003,4.389674732977291,0.0,9030.0,0.0,0.0,0.0,0.0,0.125,2.18505837,0.552687206278561,0.0,0.0,-1.25,19.760000228881836,-0.0091552734375,-0.00238037109375,1.0267333984375,36.689998626708984,0.0,11.0,-0.0183563232421875,0.106597900390625,Closing,0.0,0.0,-2.0,0.0,0.0,0.0,0.0,0.0,
10.592790999999968,0.0,0.0,-4032.0,0.0,0.0,0.0,0.0,0.125,1.3415525970000002,0.5498168668524864,0.0,9263.0,0.0,0.0,0.0,0.0,0.125,4.942626447,4.41043958977222,0.0,-2912.0,0.0,0.0,0.0,0.0,0.0,2.7990719790000003,4.389674732977291,0.0,9030.0,0.0,0.0,0.0,0.0,0.125,2.186279073,0.552687206278561,0.0,0.0,-1.2400000095367432,19.809999465942383,-0.015380859375,0.00274658203125,1.019287109375,36.68000030517578,0.0,7.0,-0.0183563232421875,0.106597900390625,Closing,0.0,0.0,-2.0,0.0,0.0,0.0,0.0,0.0,
10.66123199999996,0.0,0.0,-4032.0,0.0,0.0,0.0,0.0,0.125,1.340331894,0.5498168668524864,0.0,9263.0,0.0,0.0,0.0,0.0,0.125,4.940185041,4.41043958977222,0.0,-2912.0,0.0,0.0,0.0,0.0,0.0,2.7990719790000003,4.389674732977291,0.0,9030.0,0.0,0.0,0.0,0.0,0.125,2.186279073,0.552687206278561,0.0,0.009999999776482582,-1.2100000381469727,19.790000915527344,-0.01947021484375,0.00128173828125,1.02581787109375,36.68000030517578,0.0,2.0,-0.0183563232421875,0.106597900390625,Closing,0.0,0.0,-2.0,0.0,0.0,0.0,0.0,0.0,
10.790633999999962,0.0,0.0,-4032.0,0.0,0.0,0.0,0.0,0.125,1.3415525970000002,0.5498168668524864,0.0,9263.0,0.0,0.0,0.0,0.0,0.125,4.940185041,4.41043958977222,0.0,-2912.0,0.0,0.0,0.0,0.0,0.0,2.7990719790000003,4.389674732977291,0.0,9030.0,0.0,0.0,0.0,0.0,0.125,2.187499776,0.552687206278561,0.0,0.019999999552965164,-1.2100000381469727,19.799999237060547,-0.0145263671875,9.1552734375E-4,1.0201416015625,36.68000030517578,0.0,6.0,-0.0183563232421875,0.106597900390625,Closing,0.0,0.0,-2.0,0.0,0.0,0.0,0.0,0.0,
10.850412999999943,0.0,0.0,-4032.0,0.0,0.0,0.0,0.0,0.125,1.3415525970000002,0.5498168668524864,0.0,9263.0,0.0,0.0,0.0,0.0,0.125,4.942626447,4.41043958977222,0.0,-2912.0,0.0,0.0,0.0,0.0,0.0,2.7990719790000003,4.389674732977291,0.0,9030.0,0.0,0.0,0.0,0.0,0.125,2.186279073,0.552687206278561,0.0,0.009999999776482582,-1.2000000476837158,19.790000915527344,-0.0234375,0.003662109375,1.01763916015625,36.68000030517578,0.0,0.0,-0.0183563232421875,0.106597900390625,Closing,0.0,0.0,-2.0,0.0,0.0,0.0,0.0,0.0,
10.979591999999945,0.0,0.0,-4032.0,0.0,0.0,0.0,0.0,0.125,1.340331894,0.5498168668524864,0.0,9263.0,0.0,0.0,0.0,0.0,0.125,4.938964338,4.41043958977222,0.0,-2912.0,0.0,0.0,0.0,0.0,0.0,2.7990719790000003,4.389674732977291,0.0,9030.0,0.0,0.0,0.0,0.0,0.125,2.186279073,0.552687206278561,0.0,0.019999999552965164,-1.190000057220459,19.790000915527344,-0.01788330078125,0.004638671875,1.0211181640625,36.68000030517578,0.0,4.0,-0.0183563232421875,0.106597900390625,Closing,0.0,0.0,-2.0,0.0,0.0,0.0,0.0,0.0,
11.06005799999996,0.0,0.0,-4032.0,0.0,0.0,0.0,0.0,0.125,1.3415525970000002,0.5498168668524864,0.0,9263.0,0.0,0.0,0.0,0.0,0.125,4.941405744,4.41043958977222,0.0,-2912.0,0.0,0.0,0.0,0.0,0.0,2.7990719790000003,4.389674732977291,0.0,9030.0,0.0,0.0,0.0,0.0,0.125,2.18505837,0.552687206278561,0.0,0.029999999329447746,-1.1799999475479126,19.790000915527344,-0.01690673828125,-0.0025634765625,1.025146484375,36.72999954223633,0.0,3.0,-0.0183563232421875,0.106597900390625,Closing,0.0,0.0,-2.0,0.0,0.0,0.0,0.0,0.0,
11.191968999999924,0.0,0.0,-4032.0,0.0,0.0,0.0,0.0,0.125,1.3415525970000002,0.5498168668524864,0.0,9263.0,0.0,0.0,0.0,0.0,0.125,4.940185041,4.41043958977222,0.0,-2912.0,0.0,0.0,0.0,0.0,0.0,2.7990719790000003,4.389674732977291,0.0,9030.0,0.0,0.0,0.0,0.0,0.125,2.187499776,0.552687206278561,0.0,0.03999999910593033,-1.1699999570846558,19.780000686645508,-0.01800537109375,6.103515625E-4,1.01995849609375,36.72999954223633,0.0,2.0,-0.0183563232421875,0.106597900390625,Closing,0.0,0.0,-2.0,0.0,0.0,0.0,0.0,0.0,
11.2620689999999,0.0,0.0,-4032.0,0.0,0.0,0.0,0.0,0.125,1.3415525970000002,0.5498168668524864,0.0,9263.0,0.0,0.0,0.0,0.0,0.125,4.940185041,4.41043958977222,0.0,-2912.0,0.0,0.0,0.0,0.0,0.0,2.7990719790000003,4.389674732977291,0.0,9030.0,0.0,0.0,0.0,0.0,0.125,2.186279073,0.552687206278561,0.0,0.029999999329447746,-1.159999966621399,19.780000686645508,-0.02020263671875,0.00140380859375,1.02178955078125,36.72999954223633,0.0,0.0,-0.0183563232421875,0.106597900390625,Closing,0.0,0.0,-2.0,0.0,0.0,0.0,0.0,0.0,
11.388948999999906,0.0,0.0,-4032.0,0.0,0.0,0.0,0.0,0.125,1.340331894,0.5498168668524864,0.0,9263.0,0.0,0.0,0.0,0.0,0.125,4.941405744,4.41043958977222,0.0,-2912.0,0.0,0.0,0.0,0.0,0.0,2.7990719790000003,4.389674732977291,0.0,9030.0,0.0,0.0,0.0,0.0,0.125,2.186279073,0.552687206278561,0.0,0.029999999329447746,-1.149999976158142,19.780000686645508,-0.0184326171875,0.00335693359375,1.0201416015625,36.72999954223633,0.0,2.0,-0.0183563232421875,0.106597900390625,Closing,0.0,0.0,-2.0,0.0,0.0,0.0,0.0,0.0,
11.45149199999997,0.0,0.0,-4032.0,0.0,0.0,0.0,0.0,0.125,1.3415525970000002,0.5498168668524864,0.0,9263.0,0.0,0.0,0.0,0.0,0.125,4.941405744,4.41043958977222,0.0,-2912.0,0.0,0.0,0.0,0.0,0.0,2.7990719790000003,4.389674732977291,0.0,9030.0,0.0,0.0,0.0,0.0,0.125,2.186279073,0.552687206278561,0.0,0.03999999910593033,-1.149999976158142,19.780000686645508,-0.0225830078125,0.00262451171875,1.02142333984375,36.72999954223633,0.0,-1.0,-0.0183563232421875,0.106597900390625,Closing,0.0,0.0,-2.0,0.0,0.0,0.0,0.0,0.0,
11.52695299999998,0.0,0.0,-4032.0,0.0,0.0,0.0,0.0,0.125,1.340331894,0.5498168668524864,0.0,9263.0,0.0,0.0,0.0,0.0,0.125,4.941405744,4.41043958977222,0.0,-2912.0,0.0,0.0,0.0,0.0,0.0,2.7990719790000003,4.389674732977291,0.0,9030.0,0.0,0.0,0.0,0.0,0.125,2.186279073,0.552687206278561,-0.0012207029999999897,0.03999999910593033,-1.149999976158142,19.780000686645508,-0.01849365234375,0.00115966796875,1.01971435546875,36.72999954223633,0.0,2.0,-0.0183563232421875,0.106597900390625,Closing,0.0,0.0,-2.0,0.0,0.0,0.0,0.0,0.0,
11.651785999999964,0.0,0.0,-4032.0,0.0,0.0,0.0,0.0,0.125,1.340331894,0.5498168668524864,0.0,9263.0,0.0,0.0,0.0,0.0,0.125,4.938964338,4.41043958977222,0.0,-2912.0,0.0,0.0,0.0,0.0,0.0,2.7990719790000003,4.389674732977291,0.0,9030.0,0.0,0.0,0.0,0.0,0.125,2.186279073,0.552687206278561,0.0,0.03999999910593033,-1.1399999856948853,19.780000686645508,-0.0206298828125,3.662109375E-4,1.02093505859375,36.709999084472656,0.0,0.0,-0.0183563232421875,0.106597900390625,Closing,0.0,0.0,-2.0,0.0,0.0,0.0,0.0,0.0,
11.725613999999943,0.0,0.0,-4032.0,0.0,0.0,0.0,0.0,0.125,1.3415525970000002,0.5498168668524864,0.0,9263.0,0.0,0.0,0.0,0.0,0.125,4.938964338,4.41043958977222,0.0,-2912.0,0.0,0.0,0.0,0.0,0.0,2.7990719790000003,4.389674732977291,0.0,9030.0,0.0,0.0,0.0,0.0,0.125,2.186279073,0.552687206278561,0.0,0.05000000074505806,-1.1299999952316284,19.780000686645508,-0.01806640625,0.0029296875,1.02099609375,36.709999084472656,0.0,2.0,-0.0183563232421875,0.106597900390625,Closing,0.0,0.0,-2.0,0.0,0.0,0.0,0.0,0.0,
11.78137799999991,0.0,0.0,-4032.0,0.0,0.0,0.0,0.0,0.125,1.340331894,0.5498168668524864,0.0,9263.0,0.0,0.0,0.0,0.0,0.125,4.940185041,4.41043958977222,0.0,-2912.0,0.0,0.0,0.0,0.0,0.0,2.7990719790000003,4.389674732977291,0.0012207030000004337,9030.0,0.0,0.0,0.0,0.0,0.125,2.186279073,0.552687206278561,0.0012207029999999897,0.05000000074505806,-1.1299999952316284,19.780000686645508,-0.02032470703125,0.00103759765625,1.01763916015625,36.709999084472656,0.0,0.0,-0.0183563232421875,0.106597900390625,Closing,0.0,0.0,-2.0,0.0,0.0,0.0,0.0,0.0,
11.852103000000003,0.0,0.0,-4032.0,0.0,0.0,0.0,0.0,0.125,1.3415525970000002,0.5498168668524864,0.0,9263.0,0.0,0.0,0.0,0.0,0.125,4.941405744,4.41043958977222,0.0,-2912.0,0.0,0.0,0.0,0.0,0.0,2.7990719790000003,4.389674732977291,0.0,9030.0,0.0,0.0,0.0,0.0,0.125,2.186279073,0.552687206278561,0.0,0.03999999910593033,-1.1200000047683716,19.780000686645508,-0.01806640625,0.00311279296875,1.02197265625,36.709999084472656,0.0,2.0,-0.0183563232421875,0.106597900390625,Closing,0.0,0.0,-2.0,0.0,0.0,0.0,0.0,0.0,
11.925417999999947,0.0,0.0,-4032.0,0.0,0.0,0.0,0.0,0.125,1.340331894,0.5498168668524864,0.0,9263.0,0.0,0.0,0.0,0.0,0.125,4.938964338,4.41043958977222,0.0,-2912.0,0.0,0.0,0.0,0.0,0.0,2.7990719790000003,4.389674732977291,-0.0012207030000004337,9030.0,0.0,0.0,0.0,0.0,0.125,2.186279073,0.552687206278561,0.0,0.05000000074505806,-1.1200000047683716,19.780000686645508,-0.01806640625,0.00115966796875,1.0205078125,36.709999084472656,0.0,1.0,-0.0183563232421875,0.106597900390625,Closing,0.0,0.0,-2.0,0.0,0.0,0.0,0.0,0.0,
12.062591999999945,0.0,0.0,-4032.0,0.0,0.0,0.0,0.0,0.125,1.3415525970000002,0.5498168668524864,0.0,9263.0,0.0,0.0,0.0,0.0,0.125,4.938964338,4.41043958977222,0.0,-2912.0,0.0,0.0,0.0,0.0,0.0,2.7990719790000003,4.389674732977291,0.0,9030.0,0.0,0.0,0.0,0.0,0.125,2.186279073,0.552687206278561,0.0,0.05000000074505806,-1.1200000047683716,19.780000686645508,-0.02203369140625,6.7138671875E-4,1.01617431640625,36.709999084472656,0.0,-2.0,-0.0183563232421875,0.106597900390625,Closing,0.0,0.0,-2.0,0.0,0.0,0.0,0.0,0.0,
12.193015999999945,0.0,0.0,-4032.0,0.0,0.0,0.0,0.0,0.125,1.340331894,0.5498168668524864,0.0,9263.0,0.0,0.0,0.0,0.0,0.125,4.940185041,4.41043958977222,0.0,-2912.0,0.0,0.0,0.0,0.0,0.0,2.7990719790000003,4.389674732977291,0.0,9030.0,0.0,0.0,0.0,0.0,0.125,2.18505837,0.552687206278561,0.0,0.05999999865889549,-1.1100000143051147,19.780000686645508,-0.02154541015625,-9.1552734375E-4,1.02337646484375,36.66999816894531,0.0,-2.0,-0.0183563232421875,0.106597900390625,Closing,0.0,0.0,-2.0,0.0,0.0,0.0,0.0,0.0,
12.250135000000009,0.0,0.0,-4032.0,0.0,0.0,0.0,0.0,0.125,1.340331894,0.5498168668524864,0.0,9263.0,0.0,0.0,0.0,0.0,0.125,4.938964338,4.41043958977222,0.0,-2912.0,0.0,0.0,0.0,0.0,0.0,2.7978512760000003,4.389674732977291,0.0,9030.0,0.0,0.0,0.0,0.0,0.125,2.186279073,0.552687206278561,0.0,0.05000000074505806,-1.1100000143051147,19.770000457763672,-0.01715087890625,0.0025634765625,1.02001953125,36.66999816894531,0.0,3.0,-0.0183563232421875,0.106597900390625,Closing,0.0,0.0,-2.0,0.0,0.0,0.0,0.0,0.0,
12.394245999999926,0.0,0.0,-4032.0,0.0,0.0,0.0,0.0,0.125,1.340331894,0.5498168668524864,0.0,9263.0,0.0,0.0,0.0,0.0,0.125,4.938964338,4.41043958977222,0.0,-2912.0,0.0,0.0,0.0,0.0,0.0,2.7978512760000003,4.389674732977291,0.0,9030.0,0.0,0.0,0.0,0.0,0.125,2.186279073,0.552687206278561,0.0,0.05000000074505806,-1.100000023841858,19.770000457763672,-0.02001953125,0.0023193359375,1.02203369140625,36.66999816894531,0.0,0.0,-0.0183563232421875,0.106597900390625,Closing,0.0,0.0,-2.0,0.0,0.0,0.0,0.0,0.0,
12.461564999999943,0.0,0.0,-4032.0,0.0,0.0,0.0,0.0,0.125,1.3415525970000002,0.5498168668524864,0.0,9263.0,0.0,0.0,0.0,0.0,0.125,4.941405744,4.41043958977222,0.0,-2912.0,0.0,0.0,0.0,0.0,0.0,2.7990719790000003,4.389674732977291,0.0,9030.0,0.0,0.0,0.0,0.0,0.125,2.186279073,0.552687206278561,0.0,0.05000000074505806,-1.100000023841858,19.770000457763672,-0.0179443359375,0.00201416015625,1.0213623046875,36.66999816894531,0.0,2.0,-0.0183563232421875,0.106597900390625,Closing,0.0,0.0,-2.0,0.0,0.0,0.0,0.0,0.0,
12.591275999999954,0.0,0.0,-4032.0,0.0,0.0,0.0,0.0,0.125,1.3415525970000002,0.5498168668524864,0.0,9263.0,0.0,0.0,0.0,0.0,0.125,4.940185041,4.41043958977222,0.0,-2912.0,0.0,0.0,0.0,0.0,0.0,2.7990719790000003,4.389674732977291,0.0,9030.0,0.0,0.0,0.0,0.0,0.125,2.186279073,0.552687206278561,0.0,0.05000000074505806,-1.090000033378601,19.770000457763672,-0.0230712890625,0.0015869140625,1.02008056640625,36.65999984741211,0.0,-3.0,-0.0183563232421875,0.106597900390625,Closing,0.0,0.0,-2.0,0.0,0.0,0.0,0.0,0.0,
12.6627919999999,0.0,0.0,-4032.0,0.0,0.0,0.0,0.0,0.125,1.340331894,0.5498168668524864,0.0,9263.0,0.0,0.0,0.0,0.0,0.125,4.938964338,4.41043958977222,0.0,-2912.0,0.0,0.0,0.0,0.0,0.0,2.7990719790000003,4.389674732977291,0.0012207030000004337,9030.0,0.0,0.0,0.0,0.0,0.125,2.186279073,0.552687206278561,0.0012207029999999897,0.05000000074505806,-1.090000033378601,19.770000457763672,-0.01934814453125,0.00341796875,1.02392578125,36.65999984741211,0.0,1.0,-0.0183563232421875,0.106597900390625,Closing,0.0,0.0,-2.0,0.0,0.0,0.0,0.0,0.0,
12.72832899999991,0.0,0.0,-4032.0,0.0,0.0,0.0,0.0,0.125,1.340331894,0.5498168668524864,0.0,9263.0,0.0,0.0,0.0,0.0,0.125,4.940185041,4.41043958977222,-0.0012207030000004337,-2912.0,0.0,0.0,0.0,0.0,0.0,2.7978512760000003,4.389674732977291,0.0,9030.0,0.0,0.0,0.0,0.0,0.125,2.186279073,0.552687206278561,0.0,0.05000000074505806,-1.090000033378601,19.780000686645508,-0.01947021484375,7.32421875E-4,1.0179443359375,36.65999984741211,0.0,0.0,-0.0183563232421875,0.106597900390625,Closing,0.0,0.0,-2.0,0.0,0.0,0.0,0.0,0.0,
12.860672999999952,0.0,0.0,-4032.0,0.0,0.0,0.0,0.0,0.125,1.3415525970000002,0.5498168668524864,0.0,9263.0,0.0,0.0,0.0,0.0,0.125,4.941405744,4.41043958977222,0.0,-2912.0,0.0,0.0,0.0,0.0,0.0,2.7990719790000003,4.389674732977291,0.0,9030.0,0.0,0.0,0.0,0.0,0.125,2.186279073,0.552687206278561,0.0,0.05000000074505806,-1.090000033378601,19.770000457763672,-0.02154541015625,0.00244140625,1.01812744140625,36.65999984741211,0.0,-1.0,-0.0183563232421875,0.106597900390625,Closing,0.0,0.0,-2.0,0.0,0.0,0.0,0.0,0.0,
