Time,ClimberA1,ClimberA2,FRpos,FRCurrent,FRspeed,FRsetpoint,FRApos,FRACurrent,FREncpos,FREncSetpoint,FREncSpeed,FLpos,FLCurrent,FLspeed,FLsetpoint,FLApos,FLACurrent,FLEncpos,FLEncSetpoint,FLEncSpeed,BRpos,BRCurrent,BRspeed,BRsetpoint,BRApos,BRACurrent,BREncpos,BREncSetpoint,BREncSpeed,BLpos,BLCurrent,BLspeed,BLsetpoint,BLApos,BLACurrent,BLEncpos,BLEncSetpoint,BLEncSpeed,navx_Pitch,navx_Roll,navx_Yaw,navx_XAcc,navx_YAcc,navx_ZAcc,navx_Temp,navx_Bar,navx_Alt,navx_XDis,navx_YDis,GearPlacerState,ShootOutputV,ShootOutputCurrent,ShootEncPos,ShootEncVelocity,ShootSpeed,ShootSetpoint,CarouselSetpoint,CarouselCurrent,
0.5191159999999799,0.0,0.0,-546.0,3.75,577.5,823.8868386495451,0.0,0.25,0.812988198,4.919217191705652,0.0,5583.0,4.25,-907.5,-856.3359849787873,0.0,0.125,0.5163573690000001,4.951149990076336,0.0,22.0,7.625,585.0,823.8868386495451,0.0,0.0,3.334960596,0.013055342580374834,0.0,7810.0,4.875,-690.0,-856.3359849787873,0.0,0.125,1.6357420200000001,0.01260534013492306,0.0,0.4099999964237213,1.6699999570846558,-44.06999969482422,-0.21044921875,-0.0987548828125,1.4210205078125,37.22999954223633,0.0,-105.0,-1.9244842529296875,-0.3831634521484375,Closing,0.0,0.0,-1.0,0.0,0.0,0.0,0.0,0.0,
0.634396000000008,0.0,0.0,-433.0,0.5,315.0,0.0,0.0,0.125,0.811767495,0.01,0.0,5557.0,1.75,-127.5,-0.0,0.0,0.0,0.5151366660000001,0.01,0.0,127.0,1.25,577.5,0.0,0.0,0.0,3.330077784,0.01,0.0,7770.0,2.875,-22.5,-0.0,0.0,0.125,1.639404129,0.01,0.0,0.5699999928474426,-1.2799999713897705,-46.2599983215332,0.00286865234375,-0.26422119140625,1.6083984375,37.22999954223633,0.0,229.0,-1.9232940673828125,-0.40771484375,Closing,0.0,0.0,-1.0,0.0,0.0,0.0,0.0,0.0,
0.7214529999999795,0.0,0.0,-437.0,1.625,-15.0,0.0,0.0,0.125,0.795898356,0.01,0.003662108999999525,5557.0,4.375,0.0,-0.0,0.0,0.0,0.5163573690000001,0.01,0.0,127.0,1.125,412.5,0.0,0.0,0.0,3.330077784,0.01,-0.004882811999999959,7770.0,4.25,0.0,-0.0,0.0,0.125,1.638183426,0.01,0.004882811999999959,0.23999999463558197,-0.8700000047683716,-45.9900016784668,0.0987548828125,-0.15228271484375,1.08319091796875,37.22999954223633,0.0,192.0,-1.9265289306640625,-0.421112060546875,Closing,0.0,0.0,-1.0,0.0,0.0,0.0,0.0,0.0,
0.7899070000000065,0.0,0.0,-437.0,2.875,-15.0,0.0,0.0,0.125,0.808105386,0.01,0.0,5556.0,4.875,0.0,-0.0,0.0,0.0,0.5163573690000001,0.01,0.0,160.0,2.125,105.0,0.0,0.0,0.0,3.330077784,0.01,0.0,7770.0,4.0,0.0,-0.0,0.0,0.125,1.6369627230000001,0.01,0.0,0.3100000023841858,-1.0099999904632568,-46.13999938964844,-0.16204833984375,0.01873779296875,1.1568603515625,37.22999954223633,0.0,-106.0,-1.926971435546875,-0.4377288818359375,Closing,0.0,0.0,-1.0,0.0,0.0,0.0,0.0,0.0,
0.8575449999999837,0.0,0.0,-437.0,3.125,0.0,0.0,0.0,0.125,0.8178710100000001,0.01,-0.003662109000000413,5555.0,5.0,-7.5,-0.0,0.0,0.0,0.5151366660000001,0.01,0.0,160.0,3.5,0.0,0.0,0.0,0.0,3.330077784,0.01,0.0012207029999995456,7770.0,4.25,0.0,-0.0,0.0,0.125,1.639404129,0.01,0.0,0.25,-0.7599999904632568,-46.119998931884766,-0.05535888671875,0.1234130859375,1.0634765625,37.22999954223633,0.0,-113.0,-1.9271392822265625,-0.4602508544921875,Closing,0.0,0.0,-1.0,0.0,0.0,0.0,0.0,0.0,
0.9359640000000072,0.0,0.0,-437.0,2.875,0.0,0.0,0.0,0.125,0.8178710100000001,0.01,0.0,5555.0,5.0,0.0,-0.0,0.0,0.0,0.5163573690000001,0.01,0.0,160.0,3.625,0.0,0.0,0.0,0.0,3.3276363780000002,0.01,0.0012207030000004337,7770.0,4.25,0.0,-0.0,0.0,0.125,1.651611159,0.01,0.0,0.17000000178813934,-0.8700000047683716,-46.099998474121094,0.0762939453125,-0.05474853515625,1.05633544921875,37.22999954223633,0.0,105.0,-1.9268035888671875,-0.480255126953125,Closing,0.0,0.0,-1.0,0.0,0.0,0.0,0.0,0.0,
1.0153990000000048,0.0,0.0,-437.0,2.875,0.0,0.0,0.0,0.125,0.8166503070000001,0.01,0.0024414059999999793,5555.0,5.125,0.0,-0.0,0.0,0.0,0.513915963,0.01,0.0,161.0,3.5,0.0,0.0,0.0,0.0,3.328857081,0.01,-0.0024414059999999793,7770.0,4.0,0.0,-0.0,0.0,0.125,1.639404129,0.01,0.0012207029999999897,0.2199999988079071,-0.8399999737739563,-46.130001068115234,-0.07806396484375,-0.0533447265625,1.1146240234375,37.189998626708984,0.0,-1.0,-1.9260101318359375,-0.4959716796875,Closing,0.0,0.0,-1.0,0.0,0.0,0.0,0.0,0.0,
1.0777580000000015,0.0,0.0,-437.0,3.0,0.0,0.0,0.0,0.125,0.8178710100000001,0.01,0.0,5555.0,5.125,0.0,-0.0,0.0,0.0,0.521240181,0.01,0.0,161.0,3.625,0.0,0.0,0.0,0.0,3.328857081,0.01,0.0,7769.0,4.5,0.0,-0.0,0.0,0.125,1.639404129,0.01,0.0,0.20999999344348907,-0.7900000214576721,-46.11000061035156,-0.0306396484375,-0.02044677734375,1.05401611328125,37.189998626708984,0.0,6.0,-1.9259185791015625,-0.5155792236328125,Closing,0.0,0.0,-1.0,0.0,0.0,0.0,0.0,0.0,
1.164445000000007,0.0,0.0,-437.0,3.0,0.0,0.0,0.0,0.125,0.8178710100000001,0.01,0.0012207029999995456,5555.0,5.0,0.0,-0.0,0.0,0.0,0.5163573690000001,0.01,0.0,161.0,3.625,0.0,0.0,0.0,0.0,3.334960596,0.01,-0.0012207030000004337,7769.0,5.125,0.0,-0.0,0.0,0.125,1.638183426,0.01,0.0,0.20999999344348907,-0.7799999713897705,-46.11000061035156,0.01080322265625,0.00787353515625,0.9835205078125,37.189998626708984,0.0,13.0,-1.9258575439453125,-0.5233306884765625,Closing,0.0,0.0,-1.0,0.0,0.0,0.0,0.0,0.0,
1.2341579999999959,0.0,0.0,-437.0,3.0,0.0,0.0,0.0,0.125,0.8178710100000001,0.01,0.0,5555.0,5.0,0.0,-0.0,0.0,0.0,0.5163573690000001,0.01,0.0,161.0,3.75,0.0,0.0,0.0,0.0,3.330077784,0.01,0.0,7769.0,5.125,0.0,-0.0,0.0,0.125,1.640624832,0.01,0.0,0.20000000298023224,-0.7799999713897705,-46.11000061035156,-0.00732421875,0.01019287109375,1.00164794921875,37.189998626708984,0.0,0.0,-1.9258575439453125,-0.5231475830078125,Closing,0.0,0.0,-1.0,0.0,0.0,0.0,0.0,0.0,
1.3098249999999825,0.0,0.0,-437.0,3.0,0.0,0.0,0.0,0.125,0.812988198,0.01,0.003662109000000413,5555.0,5.0,0.0,-0.0,0.0,0.0,0.5163573690000001,0.01,0.0,161.0,3.75,0.0,0.0,0.0,0.0,3.334960596,0.01,-0.0012207030000004337,7769.0,5.125,0.0,-0.0,0.0,0.125,1.639404129,0.01,0.0,0.18000000715255737,-0.7699999809265137,-46.11000061035156,-0.0045166015625,0.02001953125,1.00567626953125,37.189998626708984,0.0,-5.0,-1.9258575439453125,-0.5232086181640625,Closing,0.0,0.0,-1.0,0.0,0.0,0.0,0.0,0.0,
1.3668759999999893,0.0,0.0,-437.0,3.0,0.0,0.0,0.0,0.125,0.8154296040000001,0.01,-0.003662109000000413,5555.0,5.0,0.0,-0.0,0.0,0.0,0.5151366660000001,0.01,0.0012207030000004337,161.0,3.75,0.0,0.0,0.0,0.0,3.330077784,0.01,0.0012207030000004337,7769.0,5.25,0.0,-0.0,0.0,0.125,1.639404129,0.01,-0.0012207029999999897,0.1899999976158142,-0.7599999904632568,-46.11000061035156,-0.01080322265625,-0.01629638671875,1.0172119140625,37.189998626708984,0.0,16.0,-1.9258575439453125,-0.5232086181640625,Closing,0.0,0.0,-1.0,0.0,0.0,0.0,0.0,0.0,
1.4429539999999978,0.0,0.0,-437.0,3.0,0.0,0.0,0.0,0.125,0.812988198,0.01,0.0024414059999999793,5555.0,5.0,0.0,-0.0,0.0,0.0,0.5151366660000001,0.01,-0.0012207030000004337,161.0,3.75,0.0,0.0,0.0,0.0,3.330077784,0.01,-0.0024414059999999793,7769.0,5.375,0.0,-0.0,0.0,0.125,1.639404129,0.01,0.0,0.18000000715255737,-0.75,-46.11000061035156,-0.00933837890625,0.00152587890625,1.0311279296875,37.189998626708984,0.0,4.0,-1.9258575439453125,-0.5232086181640625,Closing,0.0,0.0,-1.0,0.0,0.0,0.0,0.0,0.0,
1.5233420000000042,0.0,0.0,-437.0,3.0,0.0,0.0,0.0,0.125,0.8178710100000001,0.01,0.0012207030000004337,5555.0,5.0,0.0,-0.0,0.0,0.0,0.5151366660000001,0.01,0.0,161.0,3.75,0.0,0.0,0.0,0.0,3.3264156750000002,0.01,0.0,7769.0,5.375,0.0,-0.0,0.0,0.125,1.639404129,0.01,0.0,0.18000000715255737,-0.7300000190734863,-46.11000061035156,-0.019775390625,0.00274658203125,1.0234375,37.13999938964844,0.0,-4.0,-1.9258575439453125,-0.5232086181640625,Closing,0.0,0.0,-1.0,0.0,0.0,0.0,0.0,0.0,
1.6057129999999888,0.0,0.0,-437.0,3.0,0.0,0.0,0.0,0.125,0.819091713,0.01,-0.0012207030000004337,5555.0,5.0,0.0,-0.0,0.0,0.0,0.5163573690000001,0.01,0.0,161.0,3.75,0.0,0.0,0.0,0.0,3.334960596,0.01,-0.0012207029999995456,7769.0,5.375,0.0,-0.0,0.0,0.125,1.650390456,0.01,0.0012207029999999897,0.17000000178813934,-0.7099999785423279,-46.11000061035156,-0.01129150390625,0.0032958984375,1.01043701171875,37.13999938964844,0.0,0.0,-1.9258575439453125,-0.5232086181640625,Closing,0.0,0.0,-1.0,0.0,0.0,0.0,0.0,0.0,
1.670804999999993,0.0,0.0,-438.0,1.125,-7.5,-992.1259617805481,0.0,0.125,0.8154296040000001,4.932250999999998,0.0,5555.0,2.125,15.0,992.1259617805481,0.0,0.125,0.5163573690000001,4.963769999999998,0.0,161.0,0.375,0.0,-992.1259617805481,0.0,0.0,3.330077784,0.01,0.0,7772.0,0.125,7.5,992.1259617805481,0.0,0.125,1.639404129,0.01,0.0,0.12999999523162842,-0.8100000023841858,-46.09000015258789,-0.056396484375,-0.038818359375,1.0206298828125,37.13999938964844,0.0,0.0,-1.9259185791015625,-0.5236358642578125,Closing,0.0,0.0,-1.0,0.0,0.0,0.0,0.0,0.0,
1.7533949999999896,0.0,0.0,-438.0,0.0,-60.0,0.0,0.0,0.125,0.8178710100000001,4.932250999999998,-0.003662108999999525,5575.0,0.125,195.0,0.0,0.0,0.125,0.5163573690000001,4.963769999999998,0.0,160.0,0.125,-22.5,0.0,0.0,0.0,3.339843408,0.01,0.0,7772.0,0.0,15.0,0.0,0.0,0.125,1.639404129,0.01,0.0012207029999999897,0.18000000715255737,-0.8299999833106995,-45.970001220703125,-0.00341796875,0.01019287109375,1.031982421875,37.13999938964844,0.0,3.0,-1.926177978515625,-0.524505615234375,Closing,0.0,0.0,-1.0,0.0,0.0,0.0,0.0,0.0,
1.814076000000001,0.0,0.0,-448.0,0.0,-52.5,0.0,0.0,0.125,0.812988198,4.932250999999998,0.0024414059999999793,5575.0,0.0,165.0,0.0,0.0,0.125,0.5163573690000001,4.963769999999998,0.0,156.0,0.0,-22.5,0.0,0.0,0.0,3.339843408,0.01,0.007324217999999938,7772.0,0.0,0.0,0.0,0.0,0.125,1.638183426,0.01,-0.0012207029999999897,0.15000000596046448,-0.6499999761581421,-45.95000076293945,0.0126953125,-0.01025390625,1.043212890625,37.13999938964844,0.0,26.0,-1.9257659912109375,-0.524658203125,Closing,0.0,0.0,-1.0,0.0,0.0,0.0,0.0,0.0,
1.873386999999988,0.0,0.0,-448.0,0.0,0.0,0.0,0.0,0.125,0.8178710100000001,4.932250999999998,0.0,5587.0,0.0,0.0,0.0,0.0,0.125,0.5163573690000001,4.963769999999998,0.0,156.0,0.0,0.0,0.0,0.0,0.0,3.338622705,0.01,0.0,7772.0,0.0,0.0,0.0,0.0,0.125,1.639404129,0.01,0.0,0.1899999976158142,-0.7300000190734863,-45.95000076293945,0.016845703125,-0.01531982421875,1.02294921875,37.13999938964844,0.0,34.0,-1.9251251220703125,-0.524871826171875,Closing,0.0,0.0,-1.0,0.0,0.0,0.0,0.0,0.0,
1.9577930000000052,0.0,0.0,-448.0,4.875,-22.5,-1746.1418008804321,0.0,0.125,0.8166503070000001,4.932250999999998,0.0,5599.0,16.25,60.0,1746.1418008804321,0.0,0.125,0.5163573690000001,4.963769999999998,0.0,155.0,8.375,-7.5,-1746.1418008804321,0.0,0.0,3.3654781710000004,0.01,0.0,7772.0,6.125,97.5,1746.1418008804321,0.0,0.125,1.619872881,0.01,0.0,0.10000000149011612,-0.8100000023841858,-45.970001220703125,-0.4093017578125,-0.0994873046875,1.12274169921875,37.13999938964844,0.0,-200.0,-1.92486572265625,-0.525360107421875,Closing,0.0,0.0,-1.0,0.0,0.0,0.0,0.0,0.0,
2.0274860000000046,0.0,0.0,-494.0,20.875,-330.0,-2520.0,0.0,0.125,0.826415931,4.932250999999998,0.0,5599.0,50.0,352.5,2520.0,0.0,0.125,0.5163573690000001,4.963769999999998,0.0,155.0,25.375,-202.5,-2520.0,0.0,0.0,3.3630367650000004,0.01,0.0,7855.0,21.125,472.5,2520.0,0.0,0.25,1.56249984,0.01,0.0,0.33000001311302185,-2.690000057220459,-46.04999923706055,-0.51605224609375,0.2269287109375,1.7586669921875,37.16999816894531,0.0,-456.0,-1.9382781982421875,-0.537567138671875,Closing,0.0,0.0,-1.0,0.0,0.0,0.0,0.0,0.0,
2.125046000000002,0.0,0.0,-494.0,6.125,-592.5,0.0,0.0,0.125,0.8178710100000001,4.932250999999998,-4.923706079,5682.0,21.875,645.0,0.0,0.0,0.125,0.5163573690000001,4.963769999999998,0.0,102.0,10.75,-442.5,0.0,0.0,0.0,3.359374656,0.01,0.0,7855.0,9.5,615.0,0.0,0.0,0.25,1.572265464,0.01,-0.051269525999999566,0.07999999821186066,-3.6500000953674316,-45.810001373291016,0.1439208984375,0.0322265625,1.083740234375,37.16999816894531,0.0,126.0,-1.96002197265625,-0.56048583984375,Closing,0.0,0.0,-1.0,0.0,0.0,0.0,0.0,0.0,
2.1960779999999795,0.0,0.0,-588.0,0.0,-667.5,0.0,0.0,0.125,0.8312987430000001,4.932250999999998,4.922485376,5710.0,0.0,120.0,0.0,0.0,0.125,0.482177685,4.963769999999998,0.0,9.0,0.0,-577.5,0.0,0.0,0.0,3.34472622,0.01,4.935517188,7952.0,0.0,547.5,0.0,0.0,0.25,1.6064451480000002,0.01,0.01831054500000029,0.12999999523162842,-2.700000047683716,-44.88999938964844,0.2464599609375,0.09381103515625,1.42266845703125,37.16999816894531,0.0,158.0,-1.9844818115234375,-0.582061767578125,Closing,0.0,0.0,-1.0,0.0,0.0,0.0,0.0,0.0,
2.3787479999999923,0.0,0.0,-778.0,0.0,-360.0,0.0,0.0,0.125,0.812988198,4.932250999999998,0.0,5795.0,0.0,435.0,0.0,0.0,0.125,0.496826121,4.963769999999998,0.0,-86.0,0.0,-412.5,0.0,0.0,0.0,3.343505517,0.01,0.0,8096.0,0.0,442.5,0.0,0.0,0.25,1.6101072570000001,0.01,0.0,0.11999999731779099,-1.5399999618530273,-44.689998626708984,0.0909423828125,0.034423828125,1.2510986328125,37.16999816894531,0.0,66.0,-2.0184783935546875,-0.6062774658203125,Closing,0.0,0.0,-1.0,0.0,0.0,0.0,0.0,0.0,
2.512171000000002,0.0,0.0,-818.0,0.0,-270.0,0.0,0.0,0.125,0.811767495,4.932250999999998,0.0,5858.0,0.0,255.0,0.0,0.0,0.125,0.495605418,4.963769999999998,0.0,-144.0,0.0,-277.5,0.0,0.0,0.0,3.343505517,0.01,0.0,8130.0,0.0,247.5,0.0,0.0,0.25,1.6101072570000001,0.01,0.0,0.09000000357627869,-0.8600000143051147,-44.54999923706055,0.09326171875,0.0406494140625,0.83197021484375,37.150001525878906,0.0,52.0,-2.0309600830078125,-0.61224365234375,Closing,0.0,0.0,-1.0,0.0,0.0,0.0,0.0,0.0,
2.6317960000000022,0.0,0.0,-833.0,0.0,-75.0,0.0,0.0,0.125,0.812988198,4.932250999999998,0.0,5895.0,0.0,60.0,0.0,0.0,0.125,0.496826121,4.963769999999998,0.0,-183.0,0.0,-60.0,0.0,0.0,0.0,3.343505517,0.01,0.0,8140.0,0.0,60.0,0.0,0.0,0.25,1.6101072570000001,0.01,0.0,0.09000000357627869,-0.27000001072883606,-44.61000061035156,0.0296630859375,0.0018310546875,1.0872802734375,37.150001525878906,0.0,24.0,-2.03509521484375,-0.60943603515625,Closing,0.0,0.0,-1.0,0.0,0.0,0.0,0.0,0.0,
2.7679750000000056,0.0,0.0,-849.0,2.25,-195.0,-773.8582742214203,0.0,0.125,0.799560465,4.932250999999998,0.0,5928.0,5.125,225.0,773.8582742214203,0.0,0.125,0.49194330900000005,4.963769999999998,0.0,-204.0,3.25,-105.0,-773.8582742214203,0.0,0.0,3.3630367650000004,0.01,0.0,8164.0,2.125,150.0,773.8582742214203,0.0,0.25,1.6101072570000001,0.01,0.0,0.05999999865889549,-0.9300000071525574,-44.599998474121094,-0.12646484375,-0.10223388671875,0.84234619140625,37.150001525878906,0.0,-7.0,-2.03912353515625,-0.6058349609375,Closing,0.0,0.0,-1.0,0.0,0.0,0.0,0.0,0.0,
2.9030909999999857,0.0,0.0,-879.0,0.125,-127.5,-218.26772511005402,0.0,0.125,0.812988198,4.932250999999998,0.0,5959.0,1.0,142.5,218.26772511005402,0.0,0.125,0.482177685,4.963769999999998,0.0,-237.0,0.625,-202.5,-218.26772511005402,0.0,0.0,3.3642574680000004,0.01,0.0,8178.0,1.125,90.0,218.26772511005402,0.0,0.25,1.6101072570000001,0.01,0.0,0.09000000357627869,-1.0499999523162842,-44.59000015258789,0.02178955078125,-0.03253173828125,0.775146484375,37.150001525878906,0.0,49.0,-2.0502166748046875,-0.6072235107421875,Closing,0.0,0.0,-1.0,0.0,0.0,0.0,0.0,0.0,
3.0469379999999946,0.0,0.0,-904.0,0.0,-82.5,0.0,0.0,0.125,0.812988198,4.932250999999998,0.0,5970.0,0.0,30.0,0.0,0.0,0.125,0.483398388,4.963769999999998,0.0,-254.0,0.0,-82.5,0.0,0.0,0.0,3.3630367650000004,0.01,0.0,8192.0,0.0,112.5,0.0,0.0,0.25,1.6101072570000001,0.01,0.0,0.09000000357627869,-0.6299999952316284,-44.54999923706055,0.0538330078125,0.0111083984375,1.02496337890625,37.16999816894531,0.0,39.0,-2.0593414306640625,-0.602569580078125,Closing,0.0,0.0,-1.0,0.0,0.0,0.0,0.0,0.0,
3.1789339999999795,0.0,0.0,-906.0,0.0,0.0,0.0,0.0,0.125,0.812988198,4.932250999999998,0.0,5970.0,0.0,0.0,0.0,0.0,0.125,0.482177685,4.963769999999998,0.0,-254.0,0.0,0.0,0.0,0.0,0.0,3.3630367650000004,0.01,0.0,8202.0,0.0,45.0,0.0,0.0,0.25,1.6101072570000001,0.01,0.0,0.07999999821186066,-0.3199999928474426,-44.56999969482422,0.03363037109375,-0.00592041015625,1.00933837890625,37.16999816894531,0.0,33.0,-2.0611724853515625,-0.5946197509765625,Closing,0.0,0.0,-1.0,0.0,0.0,0.0,0.0,0.0,
3.311312999999995,0.0,0.0,-964.0,9.625,-307.5,-1388.9763164520261,0.0,0.125,0.8312987430000001,4.932250999999998,0.0,6005.0,17.5,352.5,1388.9763164520261,0.0,0.125,0.47607417,4.963769999999998,0.0,-261.0,11.0,-150.0,-1388.9763164520261,0.0,0.0,3.3679195770000003,0.01,0.0,8215.0,8.0,322.5,1388.9763164520261,0.0,0.25,1.6101072570000001,0.01,0.0,0.05999999865889549,-1.9600000381469727,-44.61000061035156,-0.48101806640625,-0.05963134765625,1.683349609375,37.16999816894531,0.0,-257.0,-2.066375732421875,-0.5926513671875,Closing,0.0,0.0,-1.0,0.0,0.0,0.0,0.0,0.0,
3.4457729999999867,0.0,0.0,-1071.0,2.0,-660.0,-674.6456480026245,0.0,0.125,0.8178710100000001,4.932250999999998,0.0,6081.0,3.875,667.5,674.6456480026245,0.0,0.125,0.482177685,4.963769999999998,0.0,-322.0,3.875,-562.5,-674.6456480026245,0.0,0.0,3.3764644980000003,0.01,0.0,8284.0,2.375,600.0,674.6456480026245,0.0,0.25,1.6101072570000001,0.01,0.0,0.11999999731779099,-2.759999990463257,-44.36000061035156,-0.205078125,0.0625,1.22161865234375,37.16999816894531,0.0,-146.0,-2.07861328125,-0.615020751953125,Closing,0.0,0.0,-1.0,0.0,0.0,0.0,0.0,0.0,
3.5678770000000077,0.0,0.0,-1191.0,0.75,-742.5,-674.6456480026245,0.0,0.125,0.8166503070000001,4.932250999999998,0.0,6205.0,1.5,780.0,674.6456480026245,0.0,0.125,0.482177685,4.963769999999998,0.0,-442.0,1.875,-780.0,-674.6456480026245,0.0,0.0,3.3642574680000004,0.01,0.0,8391.0,1.875,697.5,674.6456480026245,0.0,0.25,1.612548663,0.01,0.0,0.09000000357627869,-2.5999999046325684,-44.310001373291016,-0.0467529296875,-0.0494384765625,1.27569580078125,37.15999984741211,0.0,44.0,-2.078887939453125,-0.6333160400390625,Closing,0.0,0.0,-1.0,0.0,0.0,0.0,0.0,0.0,
3.711539999999979,0.0,0.0,-1308.0,0.375,-735.0,-634.9606275558472,0.0,0.125,0.8166503070000001,4.932250999999998,0.0,6329.0,0.75,765.0,634.9606275558472,0.0,0.125,0.483398388,4.963769999999998,0.0,-563.0,0.875,-757.5,-634.9606275558472,0.0,0.0,3.3630367650000004,0.01,0.0,8501.0,1.25,660.0,634.9606275558472,0.0,0.25,1.6101072570000001,0.01,0.0,0.09000000357627869,-2.2100000381469727,-44.36000061035156,-0.0062255859375,-0.00909423828125,0.94964599609375,37.15999984741211,0.0,29.0,-2.076446533203125,-0.651641845703125,Closing,0.0,0.0,-1.0,0.0,0.0,0.0,0.0,0.0,
3.848320000000007,0.0,0.0,-1404.0,0.125,-510.0,-357.16537177562714,0.0,0.125,0.8178710100000001,4.932250999999998,0.0,6525.0,0.25,502.5,357.16537177562714,0.0,0.125,0.482177685,4.963769999999998,0.0,-771.0,0.125,-615.0,-357.16537177562714,0.0,0.0,3.358153953,0.01,0.0,8714.0,0.375,645.0,357.16537177562714,0.0,0.25,1.614990069,0.01,0.0,0.10000000149011612,-1.5099999904632568,-44.56999969482422,0.07696533203125,-0.0859375,0.95269775390625,37.15999984741211,0.0,134.0,-2.0630645751953125,-0.6689453125,Closing,0.0,0.0,-1.0,0.0,0.0,0.0,0.0,0.0,
3.980089000000007,0.0,0.0,-1484.0,0.125,-517.5,-337.32282400131226,0.0,0.125,0.819091713,4.932250999999998,0.0,6604.0,0.125,487.5,337.32282400131226,0.0,0.125,0.482177685,4.963769999999998,0.0,-847.0,0.375,-472.5,-337.32282400131226,0.0,0.0,3.348388329,0.01,0.0,8796.0,0.375,487.5,337.32282400131226,0.0,0.125,1.6101072570000001,0.01,0.0,0.1599999964237213,-0.8999999761581421,-44.720001220703125,0.0399169921875,0.04156494140625,1.11920166015625,37.15999984741211,0.0,13.0,-2.03973388671875,-0.6760711669921875,Closing,0.0,0.0,-1.0,0.0,0.0,0.0,0.0,0.0,
4.112171999999991,0.0,0.0,-1551.0,0.125,-382.5,-337.32282400131226,0.0,0.125,0.8178710100000001,4.932250999999998,0.0,6664.0,0.25,382.5,337.32282400131226,0.0,0.125,0.482177685,4.963769999999998,0.0,-912.0,0.375,-405.0,-337.32282400131226,0.0,0.0,3.347167626,0.01,0.0,8859.0,0.375,382.5,337.32282400131226,0.0,0.25,1.6101072570000001,0.01,0.0,0.15000000596046448,-0.5,-44.75,0.06640625,-0.00885009765625,1.07489013671875,37.15999984741211,0.0,62.0,-2.0140838623046875,-0.6764068603515625,Closing,0.0,0.0,-1.0,0.0,0.0,0.0,0.0,0.0,
4.2309059999999885,0.0,0.0,-1606.0,0.125,-352.5,-337.32282400131226,0.0,0.125,0.819091713,4.932250999999998,0.0,6725.0,0.25,375.0,337.32282400131226,0.0,0.125,0.48095698200000003,4.963769999999998,0.0,-976.0,0.375,-375.0,-337.32282400131226,0.0,0.0,3.34472622,0.01,0.0,8905.0,0.75,262.5,337.32282400131226,0.0,0.25,1.6101072570000001,0.01,0.0,0.12999999523162842,-0.17000000178813934,-44.72999954223633,0.00445556640625,-0.02508544921875,0.998291015625,37.15999984741211,0.0,24.0,-1.980560302734375,-0.6718597412109375,Closing,0.0,0.0,-1.0,0.0,0.0,0.0,0.0,0.0,
4.379611999999994,0.0,0.0,-1662.0,0.375,-255.0,-337.32282400131226,0.0,0.125,0.8166503070000001,4.932250999999998,0.0,6765.0,0.875,240.0,337.32282400131226,0.0,0.125,0.482177685,4.963769999999998,0.0,-1013.0,0.875,-232.5,-337.32282400131226,0.0,0.0,3.348388329,0.01,0.0,8953.0,0.875,285.0,337.32282400131226,0.0,0.25,1.6015623360000002,0.01,0.0,0.12999999523162842,-0.17000000178813934,-44.77000045776367,-0.03167724609375,0.03399658203125,1.01220703125,37.15999984741211,0.0,-42.0,-1.9484710693359375,-0.6726226806640625,Closing,0.0,0.0,-1.0,0.0,0.0,0.0,0.0,0.0,
4.512437000000006,0.0,0.0,-1697.0,0.75,-247.5,-337.32282400131226,0.0,0.125,0.8166503070000001,4.932250999999998,0.0,6804.0,1.625,240.0,337.32282400131226,0.0,0.125,0.482177685,4.963769999999998,0.0,-1050.0,1.5,-232.5,-337.32282400131226,0.0,0.0,3.3605953590000004,0.01,0.0,8978.0,1.5,202.5,337.32282400131226,0.0,0.25,1.6088865540000001,0.01,0.0,0.10000000149011612,-0.36000001430511475,-44.790000915527344,-0.05938720703125,0.00140380859375,1.06781005859375,37.15999984741211,0.0,-37.0,-1.9137420654296875,-0.6737823486328125,Closing,0.0,0.0,-1.0,0.0,0.0,0.0,0.0,0.0,
4.647252999999997,0.0,0.0,-1786.0,0.75,-292.5,-337.32282400131226,0.0,0.125,0.8178710100000001,4.932250999999998,0.0,6847.0,1.5,300.0,337.32282400131226,0.0,0.125,0.469970655,4.963769999999998,0.0,-1094.0,1.25,-285.0,-337.32282400131226,0.0,0.0,3.3630367650000004,0.01,0.0,9037.0,1.625,262.5,337.32282400131226,0.0,0.25,1.6113279600000001,0.01,0.0,0.10999999940395355,-0.5899999737739563,-44.849998474121094,-0.014892578125,0.012451171875,0.9874267578125,37.15999984741211,0.0,-10.0,-1.87982177734375,-0.6776123046875,Closing,0.0,0.0,-1.0,0.0,0.0,0.0,0.0,0.0,
4.777402999999991,0.0,0.0,-1839.0,0.625,-330.0,-337.32282400131226,0.0,0.125,0.8178710100000001,4.932250999999998,0.0,6900.0,1.25,322.5,337.32282400131226,0.0,0.125,0.482177685,4.963769999999998,0.0,-1145.0,1.0,-330.0,-337.32282400131226,0.0,0.0,3.358153953,0.01,0.0,9134.0,1.125,405.0,337.32282400131226,0.0,0.25,1.6101072570000001,0.01,0.0,0.12999999523162842,-0.5799999833106995,-44.869998931884766,2.44140625E-4,-0.009033203125,0.9779052734375,37.15999984741211,0.0,15.0,-1.8798675537109375,-0.6766357421875,Closing,0.0,0.0,-1.0,0.0,0.0,0.0,0.0,0.0,
4.90295199999999,0.0,0.0,-1919.0,14.75,-510.0,-1706.4566302299497,0.0,0.125,0.850829991,4.932250999999998,0.0,6952.0,24.375,495.0,1706.4566302299497,0.0,0.125,0.48095698200000003,4.963769999999998,0.0,-1199.0,16.125,-450.0,-1706.4566302299497,0.0,0.0,3.3679195770000003,0.01,0.0,9239.0,12.625,615.0,1706.4566302299497,0.0,0.25,1.6101072570000001,0.01,0.0,0.23000000417232513,-2.0899999141693115,-44.7400016784668,-0.4747314453125,-0.055908203125,1.5328369140625,37.15999984741211,0.0,-253.0,-1.8890533447265625,-0.68389892578125,Closing,0.0,0.0,-1.0,0.0,0.0,0.0,0.0,0.0,
5.046154999999999,0.0,0.0,-2085.0,11.75,-1072.5,-1726.2991404533386,0.0,0.25,0.837402258,4.932250999999998,0.0,7075.0,18.75,1117.5,1726.2991404533386,0.0,0.125,0.482177685,4.963769999999998,0.0,-1287.0,19.25,-772.5,-1726.2991404533386,0.0,0.0,3.3715816860000003,0.01,0.0,9425.0,11.125,1035.0,1726.2991404533386,0.0,0.25,1.6101072570000001,0.01,0.0,0.009999999776482582,-3.700000047683716,-44.56999969482422,0.02691650390625,0.1278076171875,0.439208984375,37.15999984741211,0.0,-50.0,-1.9197998046875,-0.7120513916015625,Closing,0.0,0.0,-1.0,0.0,0.0,0.0,0.0,0.0,
5.178407000000006,0.0,0.0,-2328.0,6.875,-1552.5,-1726.2991404533386,0.0,0.25,0.8435057730000001,4.932250999999998,0.0,7554.0,9.5,1612.5,1726.2991404533386,0.0,0.125,0.47607417,4.963769999999998,0.0,-1633.0,18.25,-1230.0,-1726.2991404533386,0.0,0.0,3.3679195770000003,0.01,0.0,9665.0,7.25,1545.0,1726.2991404533386,0.0,0.25,1.6101072570000001,0.01,0.0,-0.09000000357627869,-5.25,-44.02000045776367,-0.1290283203125,-0.0364990234375,1.104248046875,37.16999816894531,0.0,4.0,-1.9748992919921875,-0.76904296875,Closing,0.0,0.0,-1.0,0.0,0.0,0.0,0.0,0.0,
5.309021999999997,0.0,0.0,-2603.0,0.0,-1642.5,-138.89763727784157,0.0,0.25,0.819091713,4.932250999999998,0.0,7788.0,0.0,1440.0,138.89763727784157,0.0,0.25,0.477294873,4.963769999999998,0.0,-1866.0,0.125,-1440.0,-138.89763727784157,0.0,0.0,3.338622705,0.01,0.0,9904.0,0.375,1485.0,138.89763727784157,0.0,0.25,1.614990069,0.01,0.0,-0.20000000298023224,-4.210000038146973,-43.33000183105469,0.22735595703125,-0.05572509765625,1.08526611328125,37.16999816894531,0.0,258.0,-2.0129852294921875,-0.8172149658203125,Closing,0.0,0.0,-1.0,0.0,0.0,0.0,0.0,0.0,
5.446867999999988,0.0,0.0,-2840.0,0.0,-1515.0,0.0,0.0,0.125,0.8178710100000001,4.932250999999998,0.0,8016.0,0.0,1387.5,0.0,0.0,0.25,0.477294873,4.963769999999998,0.0,-2088.0,0.0,-1380.0,0.0,0.0,0.0,3.338622705,0.01,0.0,10140.0,0.0,1425.0,0.0,0.0,0.125,1.6113279600000001,0.01,0.0,-0.09000000357627869,-3.0899999141693115,-43.400001525878906,0.02899169921875,0.066650390625,1.60772705078125,37.16999816894531,0.0,36.0,-2.0517425537109375,-0.8624420166015625,Closing,0.0,0.0,-1.0,0.0,0.0,0.0,0.0,0.0,
5.580008999999991,0.0,0.0,-3021.0,12.625,-195.0,1434.126476093401,0.0,0.375,0.7751464050000001,4.712156203852668,0.0,8036.0,23.5,285.0,-1434.126476093401,0.0,0.25,0.457763625,4.74226871260156,0.0,-2269.0,52.5,-1147.5,1434.126476093401,0.0,0.25,3.3251949720000002,4.719941566135568,0.0,10312.0,43.25,930.0,-1434.126476093401,0.0,0.25,1.6284178020000002,4.736756190774056,0.0,-0.20999999344348907,0.5699999928474426,-44.209999084472656,0.5810546875,0.12799072265625,-0.17071533203125,37.16999816894531,0.0,328.0,-2.0648193359375,-0.872467041015625,Closing,0.0,0.0,-1.0,0.0,0.0,0.0,0.0,0.0,
5.711744000000006,0.0,0.0,-2799.0,0.0,907.5,0.0,0.0,0.375,0.626220639,4.712156203852668,0.0,7871.0,0.0,-502.5,0.0,0.0,0.25,0.35644527600000003,4.74226871260156,0.0,-2380.0,0.0,-570.0,0.0,0.0,0.25,3.150634443,4.719941566135568,0.0,10375.0,0.0,112.5,0.0,0.0,0.25,1.392822123,4.736756190774056,0.0,-0.03999999910593033,1.5,-45.459999084472656,-0.07525634765625,0.235107421875,1.07305908203125,37.09000015258789,0.0,-240.0,-2.0764312744140625,-0.8427886962890625,Closing,0.0,0.0,-1.0,0.0,0.0,0.0,0.0,0.0,
5.847535999999993,0.0,0.0,-2804.0,0.0,52.5,0.0,0.0,0.125,0.559081974,4.712156203852668,0.0,7863.0,0.0,-52.5,0.0,0.0,0.25,0.302734344,4.74226871260156,0.0,-2442.0,0.0,-270.0,0.0,0.0,0.0,3.1103512440000003,4.719941566135568,0.0,10350.0,0.0,-45.0,0.0,0.0,0.125,1.326904161,4.736756190774056,0.0,0.14000000059604645,1.059999942779541,-45.540000915527344,-0.05755615234375,0.0196533203125,1.02001953125,37.09000015258789,0.0,-65.0,-2.090118408203125,-0.8245849609375,Closing,0.0,0.0,-1.0,0.0,0.0,0.0,0.0,0.0,
5.978869000000006,0.0,0.0,-2796.0,0.0,0.0,0.0,0.0,0.25,0.559081974,4.712156203852668,0.0,7863.0,0.0,0.0,0.0,0.0,0.125,0.29785153200000003,4.74226871260156,0.0,-2465.0,0.0,-22.5,0.0,0.0,0.0,3.1091305410000003,4.719941566135568,0.0,10349.0,0.0,0.0,0.0,0.0,0.25,1.3684080630000002,4.736756190774056,0.0,0.18000000715255737,0.8700000047683716,-45.47999954223633,0.00982666015625,-0.01617431640625,0.9962158203125,37.09000015258789,0.0,9.0,-2.0911407470703125,-0.81683349609375,Closing,0.0,0.0,-1.0,0.0,0.0,0.0,0.0,0.0,
6.109639999999985,0.0,0.0,-2796.0,0.0,0.0,0.0,0.0,0.25,0.559081974,4.712156203852668,0.0,7863.0,0.0,0.0,0.0,0.0,0.125,0.29785153200000003,4.74226871260156,0.0,-2465.0,0.0,0.0,0.0,0.0,0.0,3.1103512440000003,4.719941566135568,0.0,10349.0,0.0,0.0,0.0,0.0,0.25,1.37939439,4.736756190774056,0.0,0.17000000178813934,0.8600000143051147,-45.40999984741211,0.00738525390625,-0.0028076171875,1.03704833984375,37.06999969482422,0.0,-1.0,-2.09112548828125,-0.817352294921875,Closing,0.0,0.0,-1.0,0.0,0.0,0.0,0.0,0.0,
6.2476479999999865,0.0,0.0,-2796.0,0.0,0.0,0.0,0.0,0.25,0.559081974,4.712156203852668,0.0,7863.0,0.0,0.0,0.0,0.0,0.125,0.299072235,4.74226871260156,0.0,-2465.0,0.0,0.0,0.0,0.0,0.0,3.1103512440000003,4.719941566135568,0.0,10349.0,0.0,0.0,0.0,0.0,0.25,1.378173687,4.736756190774056,0.0,0.1599999964237213,0.699999988079071,-45.43000030517578,-0.0091552734375,0.00103759765625,1.013671875,37.06999969482422,0.0,-13.0,-2.092010498046875,-0.817535400390625,Closing,0.0,0.0,-1.0,0.0,0.0,0.0,0.0,0.0,
6.378986000000005,0.0,0.0,-2796.0,0.0,0.0,0.0,0.0,0.25,0.559081974,4.712156203852668,0.0,7863.0,0.0,0.0,0.0,0.0,0.125,0.299072235,4.74226871260156,0.0,-2465.0,0.0,0.0,0.0,0.0,0.0,3.1103512440000003,4.719941566135568,0.0,10349.0,0.0,0.0,0.0,0.0,0.25,1.378173687,4.736756190774056,0.0,0.12999999523162842,0.6299999952316284,-45.439998626708984,6.7138671875E-4,0.002197265625,1.0345458984375,37.06999969482422,0.0,-7.0,-2.092254638671875,-0.817535400390625,Closing,0.0,0.0,-1.0,0.0,0.0,0.0,0.0,0.0,
6.511100999999995,0.0,0.0,-2796.0,0.0,0.0,0.0,0.0,0.25,0.559081974,4.712156203852668,0.0,7863.0,0.0,0.0,0.0,0.0,0.125,0.299072235,4.74226871260156,0.0,-2465.0,0.0,0.0,0.0,0.0,0.0,3.1103512440000003,4.719941566135568,0.0,10349.0,0.0,0.0,0.0,0.0,0.25,1.37939439,4.736756190774056,0.0,0.12999999523162842,0.5400000214576721,-45.470001220703125,-0.0120849609375,0.0028076171875,1.01385498046875,37.06999969482422,0.0,-15.0,-2.092254638671875,-0.817535400390625,Closing,0.0,0.0,-1.0,0.0,0.0,0.0,0.0,0.0,
6.64718299999999,0.0,0.0,-2796.0,0.0,0.0,0.0,0.0,0.25,0.557861271,4.712156203852668,0.0,7863.0,0.0,0.0,0.0,0.0,0.125,0.29785153200000003,4.74226871260156,0.0,-2465.0,0.0,0.0,0.0,0.0,0.0,3.1103512440000003,4.719941566135568,0.0,10349.0,0.0,0.0,0.0,0.0,0.25,1.37939439,4.736756190774056,0.0,0.11999999731779099,0.46000000834465027,-45.470001220703125,0.00164794921875,-0.00274658203125,1.02587890625,37.06999969482422,0.0,-1.0,-2.092254638671875,-0.817535400390625,Closing,0.0,0.0,-1.0,0.0,0.0,0.0,0.0,0.0,
6.783625,0.0,0.0,-2796.0,0.0,0.0,0.0,0.0,0.25,0.559081974,4.712156203852668,0.0,7863.0,0.0,0.0,0.0,0.0,0.125,0.29785153200000003,4.74226871260156,0.0,-2465.0,0.0,0.0,0.0,0.0,0.0,3.1091305410000003,4.719941566135568,0.0,10349.0,0.0,0.0,0.0,0.0,0.25,1.37939439,4.736756190774056,0.0,0.10999999940395355,0.3799999952316284,-45.47999954223633,-0.006591796875,0.00445556640625,1.02618408203125,37.06999969482422,0.0,-11.0,-2.092254638671875,-0.817535400390625,Closing,0.0,0.0,-1.0,0.0,0.0,0.0,0.0,0.0,
6.912663,0.0,0.0,-2796.0,6.25,322.5,1329.4487857818604,0.0,5.125,0.205078104,3.6991882499999984,0.0,7831.0,12.75,-337.5,-1329.4487857818604,0.0,3.0,4.843749504,3.7228274999999984,0.0,-2462.0,13.625,37.5,1329.4487857818604,0.0,4.125,2.6965329270000002,3.7052999999999985,0.0,10338.0,9.625,-255.0,-1329.4487857818604,0.0,6.875,0.9997557570000001,3.7184999999999984,0.0,-0.44999998807907104,1.5099999904632568,-45.36000061035156,0.14404296875,-0.195556640625,1.3468017578125,37.06999969482422,0.0,207.0,-2.0817718505859375,-0.8137359619140625,Closing,0.0,0.0,-1.0,0.0,0.0,0.0,0.0,0.0,
7.046101999999984,0.0,0.0,-2738.0,0.375,435.0,337.32282400131226,0.0,0.5,4.527587427,3.6991882499999984,0.0,7774.0,1.625,-360.0,-337.32282400131226,0.0,0.875,4.154052309,3.7228274999999984,0.0,-2452.0,4.25,75.0,337.32282400131226,0.0,0.25,2.128906032,3.7052999999999985,0.0,10284.0,1.25,-382.5,-337.32282400131226,0.0,0.625,0.37841793,3.7184999999999984,0.0,-1.2799999713897705,0.75,-45.400001525878906,-0.32061767578125,-0.0025634765625,1.2059326171875,37.06999969482422,0.0,-253.0,-2.0585784912109375,-0.8134918212890625,Closing,0.0,0.0,-1.0,0.0,0.0,0.0,0.0,0.0,
7.180717000000004,0.0,0.0,-2624.0,0.0,345.0,0.0,0.0,0.375,4.219970271,3.6991882499999984,0.0,7722.0,0.0,-247.5,0.0,0.0,1.0,3.8916011640000003,3.7228274999999984,0.0,-2434.0,0.0,82.5,0.0,0.0,0.125,1.849365045,3.7052999999999985,0.0,10221.0,0.0,-217.5,0.0,0.0,0.375,0.063476556,3.7184999999999984,0.0,-0.5299999713897705,-0.2199999988079071,-45.68000030517578,-0.09423828125,0.22454833984375,1.10015869140625,37.060001373291016,0.0,-230.0,-2.0445404052734375,-0.8285369873046875,Closing,0.0,0.0,-1.0,0.0,0.0,0.0,0.0,0.0,
7.312214000000007,0.0,0.0,-2584.0,0.0,247.5,0.0,0.0,0.5,4.379882364,3.6991882499999984,0.0,7681.0,0.0,-240.0,0.0,0.0,0.25,4.100341377,3.7228274999999984,0.0,-2420.0,0.0,135.0,0.0,0.0,0.125,2.0178220590000002,3.7052999999999985,0.0,10177.0,0.0,-232.5,0.0,0.0,0.375,0.252685521,3.7184999999999984,0.0,-0.029999999329447746,0.11999999731779099,-45.84000015258789,-0.03717041015625,0.04669189453125,1.00701904296875,37.060001373291016,0.0,-61.0,-2.0400543212890625,-0.83770751953125,Closing,0.0,0.0,-1.0,0.0,0.0,0.0,0.0,0.0,
7.447217999999993,0.0,0.0,-2569.0,0.0,82.5,0.0,0.0,0.375,4.5581050020000005,3.6991882499999984,0.0,7652.0,0.0,-120.0,0.0,0.0,0.25,4.279784718,3.7228274999999984,0.0,-2402.0,0.0,60.0,0.0,0.0,0.125,2.147216577,3.7052999999999985,0.0,10135.0,0.0,-127.5,0.0,0.0,0.375,0.426025347,3.7184999999999984,0.0,0.44999998807907104,0.23999999463558197,-46.0,-0.01861572265625,0.04376220703125,0.98455810546875,37.060001373291016,0.0,-41.0,-2.0395965576171875,-0.8329925537109375,Closing,0.0,0.0,-1.0,0.0,0.0,0.0,0.0,0.0,
7.577334999999992,0.0,0.0,-2566.0,0.0,7.5,0.0,0.0,0.25,4.536132348000001,3.6991882499999984,0.0,7642.0,0.0,0.0,0.0,0.0,0.25,4.300536669,3.7228274999999984,0.0,-2395.0,0.0,0.0,0.0,0.0,0.125,2.138671656,3.7052999999999985,0.0,10135.0,0.0,0.0,0.0,0.0,0.25,0.38818355400000004,3.7184999999999984,0.0,0.5799999833106995,0.15000000596046448,-45.97999954223633,-0.00750732421875,-0.00634765625,1.02215576171875,37.060001373291016,0.0,4.0,-2.0418853759765625,-0.8328399658203125,Closing,0.0,0.0,-1.0,0.0,0.0,0.0,0.0,0.0,
7.711013999999995,0.0,0.0,-2569.0,0.375,-30.0,-515.9055286645889,0.0,5.5,4.77294873,4.932250999999998,0.0,7655.0,2.125,67.5,515.9055286645889,0.0,8.375,4.649657727,4.963769999999998,0.0,-2399.0,1.75,-15.0,-515.9055286645889,0.0,6.125,2.5415036460000002,0.01,0.0,10145.0,1.5,75.0,515.9055286645889,0.0,7.625,0.782470623,0.01,0.0,0.9200000166893005,0.07000000029802322,-46.029998779296875,-0.05035400390625,0.07611083984375,1.15216064453125,37.09000015258789,0.0,-77.0,-2.0436859130859375,-0.831756591796875,Closing,0.0,0.0,-1.0,0.0,0.0,0.0,0.0,0.0,
7.845779999999999,0.0,0.0,-2601.0,0.625,-225.0,-515.9055286645889,0.0,1.25,0.76904289,4.932250999999998,0.0,7680.0,4.0,165.0,515.9055286645889,0.0,1.0,0.54931635,4.963769999999998,0.0,-2411.0,2.75,-97.5,-515.9055286645889,0.0,0.75,3.460693005,0.01,0.0,10161.0,2.125,142.5,515.9055286645889,0.0,1.25,1.697997873,0.01,0.0,0.6600000262260437,-0.6899999976158142,-45.939998626708984,-0.0919189453125,-0.16632080078125,1.0772705078125,37.09000015258789,0.0,73.0,-2.0521392822265625,-0.833770751953125,Closing,0.0,0.0,-1.0,0.0,0.0,0.0,0.0,0.0,
7.978449999999983,0.0,0.0,-2653.0,0.625,-375.0,-515.9055286645889,0.0,0.5,1.1901854250000001,4.932250999999998,0.0,7722.0,4.125,277.5,515.9055286645889,0.0,0.25,0.823974525,4.963769999999998,0.0,-2437.0,4.0,-180.0,-515.9055286645889,0.0,0.125,3.765868755,0.01,0.0,10194.0,2.25,285.0,515.9055286645889,0.0,0.25,2.0080564350000003,0.01,0.0,-0.4300000071525574,-1.0099999904632568,-45.91999816894531,-0.13519287109375,-0.05938720703125,1.25732421875,37.09000015258789,0.0,-42.0,-2.05877685546875,-0.8550872802734375,Closing,0.0,0.0,-1.0,0.0,0.0,0.0,0.0,0.0,
8.114589000000008,0.0,0.0,-2782.0,0.625,-405.0,-515.9055286645889,0.0,0.75,1.009521381,4.932250999999998,0.0,7795.0,2.125,487.5,515.9055286645889,0.0,0.25,0.704345631,4.963769999999998,0.0,-2475.0,4.625,-255.0,-515.9055286645889,0.0,0.375,3.4313961330000002,0.01,0.0,10262.0,1.25,465.0,515.9055286645889,0.0,0.625,1.8469236390000001,0.01,0.0,-0.15000000596046448,-1.4500000476837158,-46.43000030517578,-0.04345703125,-0.03497314453125,0.9073486328125,37.06999969482422,0.0,9.0,-2.0638885498046875,-0.8870849609375,Closing,0.0,0.0,-1.0,0.0,0.0,0.0,0.0,0.0,
8.24595199999999,0.0,0.0,-2828.0,0.0,-337.5,0.0,0.0,0.25,0.7751464050000001,4.932250999999998,0.0,7877.0,0.0,322.5,0.0,0.0,0.25,0.496826121,4.963769999999998,0.0,-2519.0,0.0,-225.0,0.0,0.0,0.125,3.291015288,0.01,0.0,10344.0,0.0,345.0,0.0,0.0,0.25,1.573486167,0.01,0.0,0.41999998688697815,-0.7200000286102295,-46.400001525878906,0.22918701171875,0.1993408203125,0.71771240234375,37.06999969482422,0.0,23.0,-2.07415771484375,-0.91595458984375,Closing,0.0,0.0,-1.0,0.0,0.0,0.0,0.0,0.0,
8.378631999999984,0.0,0.0,-2865.0,0.0,-225.0,0.0,0.0,0.25,0.688476492,4.932250999999998,0.0,7924.0,0.0,232.5,0.0,0.0,0.125,0.399169881,4.963769999999998,0.0,-2544.0,0.0,-135.0,0.0,0.0,0.0,3.2751461490000002,0.01,0.0,10418.0,0.0,165.0,0.0,0.0,0.25,1.514892423,0.01,0.0,0.38999998569488525,0.05000000074505806,-46.45000076293945,0.10736083984375,0.03875732421875,0.8565673828125,37.06999969482422,0.0,49.0,-2.0677032470703125,-0.92578125,Closing,0.0,0.0,-1.0,0.0,0.0,0.0,0.0,0.0,
8.500231,0.0,0.0,-2873.0,0.0,-52.5,0.0,0.0,0.375,0.717773364,4.932250999999998,0.0,7939.0,0.0,22.5,0.0,0.0,0.25,0.391845663,4.963769999999998,0.0,-2567.0,0.0,-82.5,0.0,0.0,0.0,3.3105465360000004,0.01,0.0,10418.0,0.0,30.0,0.0,0.0,0.25,1.516113126,0.01,0.0,0.3499999940395355,0.44999998807907104,-46.459999084472656,0.0599365234375,-0.02606201171875,0.95135498046875,37.06999969482422,0.0,59.0,-2.0560150146484375,-0.9269866943359375,Closing,0.0,0.0,-1.0,0.0,0.0,0.0,0.0,0.0,
8.643541999999986,0.0,0.0,-2873.0,0.0,0.0,0.0,0.0,0.25,0.7751464050000001,4.932250999999998,0.0,7940.0,0.0,0.0,0.0,0.0,0.25,0.42846675300000003,4.963769999999998,0.0,-2569.0,0.0,0.0,0.0,0.0,0.0,3.34472622,0.01,0.0,10420.0,0.0,0.0,0.0,0.0,0.25,1.625976396,0.01,0.0,0.3499999940395355,0.28999999165534973,-46.38999938964844,-0.00958251953125,-0.00408935546875,0.95294189453125,37.08000183105469,0.0,-2.0,-2.042510986328125,-0.9276275634765625,Closing,0.0,0.0,-1.0,0.0,0.0,0.0,0.0,0.0,
8.777081000000006,0.0,0.0,-2880.0,0.125,-45.0,-396.8503922224045,0.0,0.125,0.8032225740000001,4.932250999999998,0.0,7940.0,0.875,97.5,396.8503922224045,0.0,0.25,0.47485346700000003,4.963769999999998,0.0,-2571.0,0.375,0.0,-396.8503922224045,0.0,0.0,3.347167626,0.01,0.0,10425.0,0.75,15.0,396.8503922224045,0.0,0.125,1.6589353770000002,0.01,0.0,0.3700000047683716,0.12999999523162842,-46.369998931884766,-0.11651611328125,-0.02227783203125,1.00921630859375,37.08000183105469,0.0,-61.0,-2.0431671142578125,-0.9293670654296875,Closing,0.0,0.0,-1.0,0.0,0.0,0.0,0.0,0.0,
8.912547999999981,0.0,0.0,-2902.0,2.25,-135.0,-634.9606275558472,0.0,0.125,0.821533119,4.932250999999998,0.0,7984.0,5.125,142.5,634.9606275558472,0.0,0.25,0.477294873,4.963769999999998,0.0,-2575.0,4.75,-22.5,-634.9606275558472,0.0,0.0,3.3801266070000002,0.01,0.0,10452.0,2.375,165.0,634.9606275558472,0.0,0.25,1.6552732680000002,0.01,0.0,0.3400000035762787,-0.8500000238418579,-46.38999938964844,-0.215576171875,-0.0025634765625,1.12249755859375,37.08000183105469,0.0,-130.0,-2.0506744384765625,-0.9389801025390625,Closing,0.0,0.0,-1.0,0.0,0.0,0.0,0.0,0.0,
9.04431899999999,0.0,0.0,-2942.0,0.0,-210.0,0.0,0.0,0.125,0.808105386,4.932250999999998,0.0,8008.0,0.0,142.5,0.0,0.0,0.25,0.48583979400000005,4.963769999999998,0.0,-2586.0,0.0,-60.0,0.0,0.0,0.125,3.3630367650000004,0.01,0.0,10486.0,0.125,142.5,0.0,0.0,0.25,1.6589353770000002,0.01,0.0,0.28999999165534973,-0.4300000071525574,-46.650001525878906,0.2020263671875,-0.01995849609375,0.75439453125,37.08000183105469,0.0,159.0,-2.0661773681640625,-0.9568939208984375,Closing,0.0,0.0,-1.0,0.0,0.0,0.0,0.0,0.0,
9.17837599999999,0.0,0.0,-2960.0,0.0,-157.5,0.0,0.0,0.125,0.808105386,4.932250999999998,0.0,8040.0,0.0,127.5,0.0,0.0,0.125,0.48583979400000005,4.963769999999998,0.0,-2589.0,0.0,-15.0,0.0,0.0,0.0,3.358153953,0.01,0.0,10516.0,0.0,135.0,0.0,0.0,0.25,1.6589353770000002,0.01,0.0,0.27000001072883606,0.12999999523162842,-46.81999969482422,0.147705078125,0.04644775390625,1.04974365234375,37.099998474121094,0.0,69.0,-2.0702362060546875,-0.9623565673828125,Closing,0.0,0.0,-1.0,0.0,0.0,0.0,0.0,0.0,
9.305717000000005,0.0,0.0,-2968.0,0.125,-7.5,-238.1102353334427,0.0,0.125,0.8020018710000001,4.932250999999998,0.0,8047.0,0.25,30.0,238.1102353334427,0.0,0.125,0.48583979400000005,4.963769999999998,0.0,-2590.0,0.125,0.0,-238.1102353334427,0.0,0.0,3.358153953,0.01,0.0,10522.0,0.375,7.5,238.1102353334427,0.0,0.25,1.6589353770000002,0.01,0.0,0.28999999165534973,0.30000001192092896,-46.810001373291016,-0.013427734375,0.02294921875,0.959716796875,37.099998474121094,0.0,-25.0,-2.0693817138671875,-0.9623870849609375,Closing,0.0,0.0,-1.0,0.0,0.0,0.0,0.0,0.0,
9.432399999999994,0.0,0.0,-2977.0,0.0,-67.5,0.0,0.0,0.125,0.808105386,4.932250999999998,0.0,8060.0,0.0,30.0,0.0,0.0,0.125,0.48706049700000004,4.963769999999998,0.0,-2595.0,0.0,-22.5,0.0,0.0,0.0,3.359374656,0.01,0.0,10522.0,0.0,0.0,0.0,0.0,0.25,1.6601560800000001,0.01,0.0,0.2800000011920929,0.05000000074505806,-46.79999923706055,-0.03094482421875,0.01751708984375,0.99029541015625,37.099998474121094,0.0,-31.0,-2.07012939453125,-0.9631500244140625,Closing,0.0,0.0,-1.0,0.0,0.0,0.0,0.0,0.0,
9.568233999999997,0.0,0.0,-2982.0,0.0,0.0,0.0,0.0,0.125,0.808105386,4.932250999999998,0.0,8060.0,0.0,0.0,0.0,0.0,0.125,0.48706049700000004,4.963769999999998,0.0,-2595.0,0.0,0.0,0.0,0.0,0.0,3.359374656,0.01,0.0,10522.0,0.0,0.0,0.0,0.0,0.25,1.6601560800000001,0.01,0.0,0.25999999046325684,0.009999999776482582,-46.790000915527344,0.0106201171875,0.001953125,1.00653076171875,37.099998474121094,0.0,9.0,-2.0704193115234375,-0.9633026123046875,Closing,0.0,0.0,-1.0,0.0,0.0,0.0,0.0,0.0,
9.715913,0.0,0.0,-2967.0,0.375,112.5,416.69290244579315,0.0,4.125,0.385742148,3.6991882499999984,0.0,8034.0,0.875,-187.5,-416.69290244579315,0.0,7.75,0.095214834,3.7228274999999984,0.0,-2594.0,0.75,0.0,416.69290244579315,0.0,1.5,2.603759499,3.7052999999999985,0.0,10524.0,0.875,7.5,416.69290244579315,0.0,7.25,2.093505645,1.2394999999999985,0.0,0.1599999964237213,0.15000000596046448,-46.7400016784668,0.05145263671875,-0.08050537109375,1.01580810546875,37.099998474121094,0.0,94.0,-2.0693206787109375,-0.96417236328125,Closing,0.0,0.0,-1.0,0.0,0.0,0.0,0.0,0.0,
9.848241999999999,0.0,0.0,-2952.0,0.0,30.0,0.0,0.0,1.125,4.487304228,3.6991882499999984,0.0,8040.0,0.0,45.0,0.0,0.0,1.5,4.227294489,3.7228274999999984,0.0,-2593.0,0.0,7.5,0.0,0.0,0.5,2.0117185440000003,3.7052999999999985,0.0,10522.0,0.0,-30.0,0.0,0.0,1.375,2.9492184480000003,1.2394999999999985,0.0,0.23000000417232513,-0.12999999523162842,-46.790000915527344,0.01654052734375,-0.01904296875,0.97393798828125,37.099998474121094,0.0,29.0,-2.06805419921875,-0.9686431884765625,Closing,0.0,0.0,-1.0,0.0,0.0,0.0,0.0,0.0,
9.979021000000008,0.0,0.0,-2952.0,0.0,0.0,0.0,0.0,0.75,4.152831606,3.6991882499999984,0.0,8040.0,0.0,0.0,0.0,0.0,0.25,4.00390584,3.7228274999999984,0.0,-2593.0,0.0,0.0,0.0,0.0,0.375,1.883544729,3.7052999999999985,0.0,10512.0,0.0,-60.0,0.0,0.0,0.875,3.2104488900000003,1.2394999999999985,0.0,0.12999999523162842,-0.12999999523162842,-46.68000030517578,0.00531005859375,0.025634765625,1.0233154296875,37.099998474121094,0.0,-11.0,-2.0684661865234375,-0.9690093994140625,Closing,0.0,0.0,-1.0,0.0,0.0,0.0,0.0,0.0,
10.115188999999983,0.0,0.0,-2952.0,0.0,0.0,0.0,0.0,0.5,4.407958533,3.6991882499999984,0.0,8040.0,0.0,0.0,0.0,0.0,0.25,4.105224189,3.7228274999999984,0.0,-2593.0,0.0,0.0,0.0,0.0,0.125,2.076415803,3.7052999999999985,0.0,10512.0,0.0,0.0,0.0,0.0,0.25,2.911376655,1.2394999999999985,0.0,0.23000000417232513,-0.14000000059604645,-46.68000030517578,0.018310546875,0.01861572265625,1.00701904296875,37.099998474121094,0.0,3.0,-2.069244384765625,-0.9690704345703125,Closing,0.0,0.0,-1.0,0.0,0.0,0.0,0.0,0.0,
10.245149999999994,0.0,0.0,-2952.0,0.0,0.0,0.0,0.0,0.375,4.573974141,3.6991882499999984,0.0,8040.0,0.0,0.0,0.0,0.0,0.25,4.234618707,3.7228274999999984,0.0,-2593.0,0.0,0.0,0.0,0.0,0.0,2.142333765,3.7052999999999985,0.0,10512.0,0.0,0.0,0.0,0.0,0.25,2.805175494,1.2394999999999985,0.0,0.23000000417232513,-0.1599999964237213,-46.709999084472656,0.0081787109375,0.00872802734375,1.0185546875,37.09000015258789,0.0,4.0,-2.0696258544921875,-0.9692230224609375,Closing,0.0,0.0,-1.0,0.0,0.0,0.0,0.0,0.0,
10.382068999999989,0.0,0.0,-2952.0,0.0,0.0,0.0,0.0,0.25,4.543456566000001,3.6991882499999984,0.0,8040.0,0.0,0.0,0.0,0.0,0.0,4.263915579,3.7228274999999984,0.0,-2593.0,0.0,0.0,0.0,0.0,0.125,2.143554468,3.7052999999999985,0.0,10512.0,0.0,0.0,0.0,0.0,0.25,2.834472366,1.2394999999999985,0.0,0.2199999988079071,-0.1899999976158142,-46.709999084472656,0.0020751953125,0.009521484375,1.00885009765625,37.09000015258789,0.0,0.0,-2.0696258544921875,-0.9692230224609375,Closing,0.0,0.0,-1.0,0.0,0.0,0.0,0.0,0.0,
10.519731,0.0,0.0,-2926.0,1.625,135.0,734.173253774643,0.0,0.25,4.501952664,3.6991882499999984,0.0,8030.0,4.5,-97.5,-734.173253774643,0.0,0.25,4.265136282,3.7228274999999984,0.0,-2592.0,3.0,22.5,734.173253774643,0.0,0.125,2.143554468,3.7052999999999985,0.0,10513.0,2.625,105.0,734.173253774643,0.0,0.25,2.8491208020000003,1.2394999999999985,0.0,-0.23000000417232513,-0.20999999344348907,-46.65999984741211,0.0015869140625,-0.332763671875,1.34906005859375,37.09000015258789,0.0,242.0,-2.066162109375,-0.9726104736328125,Closing,0.0,0.0,-1.0,0.0,0.0,0.0,0.0,0.0,
10.633663999999989,0.0,0.0,-2885.0,1.125,232.5,456.37796044349665,0.0,0.125,4.512938991,3.6991882499999984,0.0,8004.0,2.625,-240.0,-456.37796044349665,0.0,0.25,4.259032767,3.7228274999999984,0.0,-2581.0,2.375,157.5,456.37796044349665,0.0,0.125,2.143554468,3.7052999999999985,0.0,10539.0,1.625,240.0,456.37796044349665,0.0,0.125,2.8564450200000002,1.2394999999999985,0.0,-0.7099999785423279,-0.15000000596046448,-46.77000045776367,-0.0777587890625,-0.090087890625,1.0133056640625,37.09000015258789,0.0,5.0,-2.0549468994140625,-0.9812164306640625,Closing,0.0,0.0,-1.0,0.0,0.0,0.0,0.0,0.0,
10.78030799999999,0.0,0.0,-2855.0,0.0,180.0,0.0,0.0,0.125,4.522704615,3.6991882499999984,0.0,7953.0,0.0,-172.5,0.0,0.0,0.25,4.261474173,3.7228274999999984,0.0,-2541.0,0.0,210.0,0.0,0.0,0.125,2.1618650130000003,3.7052999999999985,0.0,10609.0,0.0,157.5,0.0,0.0,0.125,2.862548535,1.2394999999999985,0.0,-0.3700000047683716,-0.09000000357627869,-46.77000045776367,-0.00543212890625,0.14007568359375,1.07861328125,37.099998474121094,0.0,-109.0,-2.0395660400390625,-0.9813995361328125,Closing,0.0,0.0,-1.0,0.0,0.0,0.0,0.0,0.0,
10.913005000000005,0.0,0.0,-2829.0,0.0,180.0,0.0,0.0,0.125,4.522704615,3.6991882499999984,0.0,7933.0,0.0,-150.0,0.0,0.0,0.25,4.265136282,3.7228274999999984,0.0,-2495.0,0.0,135.0,0.0,0.0,0.125,2.153320092,3.7052999999999985,0.0,10632.0,0.0,142.5,0.0,0.0,0.125,2.863769238,1.2394999999999985,0.0,0.20000000298023224,-0.20999999344348907,-46.84000015258789,-0.0030517578125,0.087890625,0.99267578125,37.099998474121094,0.0,-61.0,-2.034271240234375,-0.971832275390625,Closing,0.0,0.0,-1.0,0.0,0.0,0.0,0.0,0.0,
11.045720000000001,0.0,0.0,-2819.0,0.125,30.0,238.1102353334427,0.0,0.125,4.521483912,3.6991882499999984,0.0,7903.0,0.0,-67.5,-238.1102353334427,0.0,0.25,4.26025347,3.7228274999999984,0.0,-2491.0,0.375,22.5,238.1102353334427,0.0,0.125,2.130126735,3.7052999999999985,0.0,10636.0,0.375,15.0,238.1102353334427,0.0,0.125,2.862548535,1.2394999999999985,0.0,0.5699999928474426,-0.23000000417232513,-46.869998931884766,0.0013427734375,0.01995849609375,1.05548095703125,37.099998474121094,0.0,-3.0,-2.036224365234375,-0.9672698974609375,Closing,0.0,0.0,-1.0,0.0,0.0,0.0,0.0,0.0,
11.17941499999998,0.0,0.0,-2789.0,13.375,270.0,2100.0,0.0,2.25,4.307860887,3.015942366852486,0.0,7862.0,29.625,-225.0,-2100.0,0.0,2.875,4.439696811,4.41043958977222,0.0,-2493.0,25.625,0.0,-2100.0,0.0,2.125,2.338866948,4.389674732977291,0.0,10614.0,17.0,-97.5,-2100.0,0.0,3.125,2.662353243,0.552687206278561,0.0,0.4699999988079071,-0.3400000035762787,-46.189998626708984,-0.17041015625,-0.11444091796875,0.696044921875,37.099998474121094,0.0,-28.0,-2.0363922119140625,-0.9652557373046875,Closing,0.0,0.0,-1.0,0.0,0.0,0.0,0.0,0.0,
11.317377000000008,0.0,0.0,-2733.0,0.0,105.0,0.0,0.0,0.375,3.7866207060000003,3.015942366852486,0.0,7857.0,0.0,-45.0,0.0,0.0,1.25,4.904784654,4.41043958977222,0.0,-2501.0,0.0,-45.0,0.0,0.0,1.125,2.784423543,4.389674732977291,0.0,10606.0,0.0,-15.0,0.0,0.0,0.625,2.109374784,0.552687206278561,0.0,0.550000011920929,-0.07999999821186066,-44.779998779296875,0.0123291015625,-0.23089599609375,0.73651123046875,37.09000015258789,0.0,177.0,-2.0356292724609375,-0.9597930908203125,Closing,0.0,0.0,-1.0,0.0,0.0,0.0,0.0,0.0,
11.447233000000008,0.0,0.0,-2736.0,0.0,-7.5,0.0,0.0,0.375,3.596191038,3.015942366852486,0.0,7859.0,0.0,7.5,0.0,0.0,0.125,0.162353499,4.41043958977222,0.0,-2504.0,0.0,-22.5,0.0,0.0,0.0,2.9455563390000004,4.389674732977291,0.0,10611.0,0.0,22.5,0.0,0.0,0.25,1.9458005820000002,0.552687206278561,0.0,0.46000000834465027,-0.25,-44.34000015258789,-0.01544189453125,-0.0208740234375,1.01605224609375,37.09000015258789,0.0,12.0,-2.0345001220703125,-0.9539947509765625,Closing,0.0,0.0,-1.0,0.0,0.0,0.0,0.0,0.0,
11.582304999999993,0.0,0.0,-2736.0,0.0,0.0,0.0,0.0,0.5,3.6889644660000003,3.015942366852486,0.0,7859.0,0.0,0.0,0.0,0.0,0.25,0.114746082,4.41043958977222,0.0,-2504.0,0.0,0.0,0.0,0.0,0.125,2.915038764,4.389674732977291,0.0,10611.0,0.0,0.0,0.0,0.0,0.375,2.003173623,0.552687206278561,0.0,0.4300000071525574,-0.20000000298023224,-43.810001373291016,-0.03057861328125,0.02325439453125,1.080322265625,37.09000015258789,0.0,-29.0,-2.0340576171875,-0.9539337158203125,Closing,0.0,0.0,-1.0,0.0,0.0,0.0,0.0,0.0,
11.715342000000005,0.0,0.0,-2736.0,0.0,0.0,0.0,0.0,0.375,3.82080039,3.015942366852486,0.0,7859.0,0.0,0.0,0.0,0.0,0.25,4.958495586000001,4.41043958977222,0.0,-2504.0,0.0,7.5,0.0,0.0,0.125,2.808837603,4.389674732977291,0.0,10610.0,0.125,-7.5,0.0,0.0,0.375,2.18505837,0.552687206278561,0.0,0.4099999964237213,-0.23999999463558197,-43.9900016784668,-7.32421875E-4,0.01806640625,1.0648193359375,37.09000015258789,0.0,-4.0,-2.034912109375,-0.9541015625,Closing,0.0,0.0,-1.0,0.0,0.0,0.0,0.0,0.0,
11.845983000000007,0.0,0.0,-2736.0,0.0,0.0,0.0,0.0,0.125,3.85742148,3.015942366852486,0.0,7859.0,0.0,0.0,0.0,0.0,0.0,4.9230951990000005,4.41043958977222,0.0,-2502.0,0.0,7.5,0.0,0.0,0.0,2.7880856520000004,4.389674732977291,0.0,10609.0,0.0,-7.5,0.0,0.0,0.125,2.2229001630000003,0.552687206278561,0.0,0.3799999952316284,-0.23999999463558197,-43.9900016784668,-0.00762939453125,0.0045166015625,1.0291748046875,37.09000015258789,0.0,0.0,-2.034912109375,-0.9541015625,Closing,0.0,0.0,-1.0,0.0,0.0,0.0,0.0,0.0,
11.980661999999983,0.0,0.0,-2736.0,0.0,0.0,0.0,0.0,0.25,3.858642183,3.015942366852486,0.0,7859.0,0.0,0.0,0.0,0.0,0.0,4.921874496,4.41043958977222,0.0,-2502.0,0.0,0.0,0.0,0.0,0.0,2.7893063550000003,4.389674732977291,0.0,10608.0,0.0,0.0,0.0,0.0,0.25,2.199706806,0.552687206278561,0.0,0.3700000047683716,-0.23999999463558197,-44.0,-0.00830078125,0.0035400390625,1.0140380859375,37.09000015258789,0.0,0.0,-2.034912109375,-0.9541015625,Closing,0.0,0.0,-1.0,0.0,0.0,0.0,0.0,0.0,
12.102158999999984,0.0,0.0,-2736.0,0.0,0.0,0.0,0.0,0.25,3.85742148,3.015942366852486,0.0,7859.0,0.0,0.0,0.0,0.0,0.0,4.9230951990000005,4.41043958977222,0.0,-2502.0,0.0,0.0,0.0,0.0,0.0,2.7893063550000003,4.389674732977291,0.0,10608.0,0.0,0.0,0.0,0.0,0.25,2.18505837,0.552687206278561,0.0,0.36000001430511475,-0.25,-44.02000045776367,-0.00689697265625,0.0047607421875,1.021240234375,37.09000015258789,0.0,0.0,-2.034912109375,-0.9541015625,Closing,0.0,0.0,-1.0,0.0,0.0,0.0,0.0,0.0,
12.24515399999998,0.0,0.0,-2736.0,0.0,0.0,0.0,0.0,0.25,3.85742148,3.015942366852486,0.0,7859.0,0.0,0.0,0.0,0.0,0.0,4.9230951990000005,4.41043958977222,0.0,-2502.0,0.0,0.0,0.0,0.0,0.0,2.7893063550000003,4.389674732977291,0.0,10609.0,0.0,0.0,0.0,0.0,0.125,2.18505837,0.552687206278561,0.0,0.3400000035762787,-0.25,-44.02000045776367,-0.00799560546875,0.00421142578125,1.01727294921875,37.11000061035156,0.0,-1.0,-2.034912109375,-0.9541015625,Closing,0.0,0.0,-1.0,0.0,0.0,0.0,0.0,0.0,
12.38261499999999,0.0,0.0,-2736.0,0.0,0.0,0.0,0.0,0.25,3.85742148,3.015942366852486,0.0,7859.0,0.0,0.0,0.0,0.0,0.0,4.921874496,4.41043958977222,0.0,-2502.0,0.0,0.0,0.0,0.0,0.0,2.7880856520000004,4.389674732977291,0.0,10609.0,0.0,0.0,0.0,0.0,0.125,2.18505837,0.552687206278561,0.0,0.33000001311302185,-0.25999999046325684,-44.02000045776367,-0.0032958984375,0.0013427734375,1.02496337890625,37.11000061035156,0.0,4.0,-2.034912109375,-0.9541015625,Closing,0.0,0.0,-1.0,0.0,0.0,0.0,0.0,0.0,
12.514146000000007,0.0,0.0,-2736.0,0.0,0.0,0.0,0.0,0.25,3.85742148,3.015942366852486,0.0,7859.0,0.0,0.0,0.0,0.0,0.0,4.9230951990000005,4.41043958977222,0.0,-2502.0,0.0,0.0,0.0,0.0,0.0,2.7893063550000003,4.389674732977291,0.0,10609.0,0.0,0.0,0.0,0.0,0.125,2.18505837,0.552687206278561,0.0,0.3199999928474426,-0.25999999046325684,-44.02000045776367,-0.00579833984375,0.00408935546875,1.02001953125,37.11000061035156,0.0,0.0,-2.034912109375,-0.9541015625,Closing,0.0,0.0,-1.0,0.0,0.0,0.0,0.0,0.0,
12.648032000000006,0.0,0.0,-2736.0,0.0,0.0,0.0,0.0,0.25,3.858642183,3.015942366852486,0.0,7859.0,0.0,0.0,0.0,0.0,0.0,4.921874496,4.41043958977222,0.0,-2502.0,0.0,0.0,0.0,0.0,0.0,2.7893063550000003,4.389674732977291,0.0,10609.0,0.0,0.0,0.0,0.0,0.125,2.18505837,0.552687206278561,0.0,0.3199999928474426,-0.27000001072883606,-44.02000045776367,-0.0047607421875,0.0035400390625,1.02191162109375,37.11000061035156,0.0,1.0,-2.034912109375,-0.9541015625,Closing,0.0,0.0,-1.0,0.0,0.0,0.0,0.0,0.0,
12.781358000000008,0.0,0.0,-2736.0,0.0,0.0,0.0,0.0,0.25,3.85742148,3.015942366852486,0.0,7859.0,0.0,0.0,0.0,0.0,0.0,4.9230951990000005,4.41043958977222,0.0,-2502.0,0.0,0.0,0.0,0.0,0.0,2.7893063550000003,4.389674732977291,0.0,10609.0,0.0,0.0,0.0,0.0,0.125,2.18505837,0.552687206278561,0.0,0.3100000023841858,-0.27000001072883606,-44.029998779296875,-0.00445556640625,0.00341796875,1.0181884765625,37.11000061035156,0.0,1.0,-2.034912109375,-0.9541015625,Closing,0.0,0.0,-1.0,0.0,0.0,0.0,0.0,0.0,
12.913369000000007,0.0,0.0,-2736.0,0.0,0.0,0.0,0.0,0.25,3.85742148,3.015942366852486,0.0,7859.0,0.0,0.0,0.0,0.0,0.0,4.9206537930000005,4.41043958977222,0.0,-2502.0,0.0,0.0,0.0,0.0,0.0,2.7893063550000003,4.389674732977291,0.0,10609.0,0.0,0.0,0.0,0.0,0.125,2.186279073,0.552687206278561,0.0,0.30000001192092896,-0.27000001072883606,-44.029998779296875,-0.0062255859375,0.0030517578125,1.01556396484375,37.11000061035156,0.0,0.0,-2.034912109375,-0.9541015625,Closing,0.0,0.0,-1.0,0.0,0.0,0.0,0.0,0.0,
13.046945999999997,0.0,0.0,-2736.0,0.0,0.0,0.0,0.0,0.25,3.858642183,3.015942366852486,0.0,7859.0,0.0,0.0,0.0,0.0,0.0,4.921874496,4.41043958977222,0.0,-2502.0,0.0,0.0,0.0,0.0,0.0,2.7893063550000003,4.389674732977291,0.0,10609.0,0.0,0.0,0.0,0.0,0.125,2.18505837,0.552687206278561,0.0,0.30000001192092896,-0.25999999046325684,-44.029998779296875,-0.00347900390625,0.004150390625,1.02166748046875,37.11000061035156,0.0,1.0,-2.034912109375,-0.9541015625,Closing,0.0,0.0,-1.0,0.0,0.0,0.0,0.0,0.0,
13.181766000000003,0.0,0.0,-2736.0,0.0,0.0,0.0,0.0,0.25,3.858642183,3.015942366852486,0.0,7859.0,0.0,0.0,0.0,0.0,0.0,4.921874496,4.41043958977222,0.0,-2502.0,0.0,0.0,0.0,0.0,0.0,2.7893063550000003,4.389674732977291,0.0,10609.0,0.0,0.0,0.0,0.0,0.125,2.18505837,0.552687206278561,0.0,0.28999999165534973,-0.25999999046325684,-44.029998779296875,-0.004638671875,0.0048828125,1.0159912109375,37.11000061035156,0.0,0.0,-2.034912109375,-0.9541015625,Closing,0.0,0.0,-1.0,0.0,0.0,0.0,0.0,0.0,
13.315709000000002,0.0,0.0,-2736.0,0.0,0.0,0.0,0.0,0.25,3.85742148,3.015942366852486,0.0,7859.0,0.0,0.0,0.0,0.0,0.0,4.921874496,4.41043958977222,0.0,-2502.0,0.0,0.0,0.0,0.0,0.0,2.7893063550000003,4.389674732977291,0.0,10609.0,0.0,0.0,0.0,0.0,0.125,2.18505837,0.552687206278561,0.0,0.2800000011920929,-0.25999999046325684,-44.029998779296875,-0.00506591796875,0.004638671875,1.02069091796875,37.09000015258789,0.0,0.0,-2.034912109375,-0.9541015625,Closing,0.0,0.0,-1.0,0.0,0.0,0.0,0.0,0.0,
13.445881999999983,0.0,0.0,-2736.0,0.0,0.0,0.0,0.0,0.25,3.858642183,3.015942366852486,0.0,7859.0,0.0,0.0,0.0,0.0,0.0,4.921874496,4.41043958977222,0.0,-2502.0,0.0,0.0,0.0,0.0,0.0,2.7893063550000003,4.389674732977291,0.0,10609.0,0.0,0.0,0.0,0.0,0.125,2.18505837,0.552687206278561,0.0,0.2800000011920929,-0.27000001072883606,-44.029998779296875,-0.00238037109375,0.00384521484375,1.01910400390625,37.09000015258789,0.0,2.0,-2.034912109375,-0.9541015625,Closing,0.0,0.0,-1.0,0.0,0.0,0.0,0.0,0.0,
13.581937000000005,0.0,0.0,-2736.0,0.0,0.0,0.0,0.0,0.25,3.858642183,3.015942366852486,0.0,7859.0,0.0,0.0,0.0,0.0,0.0,4.9206537930000005,4.41043958977222,0.0,-2502.0,0.0,0.0,0.0,0.0,0.0,2.7893063550000003,4.389674732977291,0.0,10609.0,0.0,0.0,0.0,0.0,0.125,2.18505837,0.552687206278561,0.0,0.2800000011920929,-0.27000001072883606,-44.040000915527344,-0.00634765625,0.0054931640625,1.01812744140625,37.09000015258789,0.0,-1.0,-2.034912109375,-0.9541015625,Closing,0.0,0.0,-1.0,0.0,0.0,0.0,0.0,0.0,
13.698606,0.0,0.0,-2736.0,0.0,0.0,0.0,0.0,0.25,3.856200777,3.015942366852486,0.0,7859.0,0.0,0.0,0.0,0.0,0.0,4.9230951990000005,4.41043958977222,0.0,-2502.0,0.0,0.0,0.0,0.0,0.0,2.7893063550000003,4.389674732977291,0.0,10609.0,0.0,0.0,0.0,0.0,0.125,2.18505837,0.552687206278561,0.0,0.27000001072883606,-0.27000001072883606,-44.040000915527344,-0.0035400390625,0.0040283203125,1.01708984375,37.09000015258789,0.0,1.0,-2.034912109375,-0.9541015625,Closing,0.0,0.0,-1.0,0.0,0.0,0.0,0.0,0.0,
13.837546000000001,0.0,0.0,-2736.0,0.0,0.0,0.0,0.0,0.25,3.85742148,3.015942366852486,0.0,7859.0,0.0,0.0,0.0,0.0,0.0,4.924315902,4.41043958977222,0.0,-2502.0,0.0,0.0,0.0,0.0,0.0,2.7893063550000003,4.389674732977291,0.0,10609.0,0.0,0.0,0.0,0.0,0.125,2.18505837,0.552687206278561,0.0,0.27000001072883606,-0.2800000011920929,-44.040000915527344,-0.00433349609375,0.0032958984375,1.01971435546875,37.099998474121094,0.0,1.0,-2.034912109375,-0.9541015625,Closing,0.0,0.0,-1.0,0.0,0.0,0.0,0.0,0.0,
13.984506999999983,0.0,0.0,-2736.0,0.0,0.0,0.0,0.0,0.25,3.858642183,3.015942366852486,0.0,7859.0,0.0,0.0,0.0,0.0,0.0,4.9230951990000005,4.41043958977222,0.0,-2502.0,0.0,0.0,0.0,0.0,0.0,2.7893063550000003,4.389674732977291,0.0,10609.0,0.0,0.0,0.0,0.0,0.125,2.18505837,0.552687206278561,0.0,0.25999999046325684,-0.2800000011920929,-44.04999923706055,-0.00555419921875,0.0057373046875,1.01800537109375,37.099998474121094,0.0,-1.0,-2.034912109375,-0.9541015625,Closing,0.0,0.0,-1.0,0.0,0.0,0.0,0.0,0.0,
14.102138000000007,0.0,0.0,-2736.0,0.0,0.0,0.0,0.0,0.25,3.85742148,3.015942366852486,0.0,7859.0,0.0,0.0,0.0,0.0,0.0,4.921874496,4.41043958977222,0.0,-2502.0,0.0,0.0,0.0,0.0,0.0,2.7893063550000003,4.389674732977291,0.0,10609.0,0.0,0.0,0.0,0.0,0.125,2.186279073,0.552687206278561,0.0,0.25999999046325684,-0.2800000011920929,-44.04999923706055,-0.0040283203125,0.00274658203125,1.0181884765625,37.099998474121094,0.0,2.0,-2.034912109375,-0.9541015625,Closing,0.0,0.0,-1.0,0.0,0.0,0.0,0.0,0.0,
14.246905999999989,0.0,0.0,-2736.0,0.0,0.0,0.0,0.0,0.25,3.85742148,3.015942366852486,0.0,7859.0,0.0,0.0,0.0,0.0,0.0,4.921874496,4.41043958977222,0.0,-2502.0,0.0,0.0,0.0,0.0,0.0,2.7880856520000004,4.389674732977291,0.0,10609.0,0.0,0.0,0.0,0.0,0.125,2.18505837,0.552687206278561,0.0,0.25999999046325684,-0.2800000011920929,-44.04999923706055,-0.006103515625,0.003662109375,1.021240234375,37.11000061035156,0.0,0.0,-2.034912109375,-0.9541015625,Closing,0.0,0.0,-1.0,0.0,0.0,0.0,0.0,0.0,
14.372059999999998,0.0,0.0,-2736.0,0.0,0.0,0.0,0.0,0.25,3.858642183,3.015942366852486,0.0012207029999999897,7859.0,0.0,0.0,0.0,0.0,0.0,4.9230951990000005,4.41043958977222,0.0,-2502.0,0.0,0.0,0.0,0.0,0.0,2.7905270580000003,4.389674732977291,0.0,10609.0,0.0,0.0,0.0,0.0,0.125,2.18505837,0.552687206278561,0.0,0.25,-0.2800000011920929,-44.04999923706055,-0.006591796875,0.0050048828125,1.01751708984375,37.11000061035156,0.0,-1.0,-2.034912109375,-0.9541015625,Closing,0.0,0.0,-1.0,0.0,0.0,0.0,0.0,0.0,
14.510383000000001,0.0,0.0,-2736.0,0.0,0.0,0.0,0.0,0.25,3.85742148,3.015942366852486,0.0,7859.0,0.0,0.0,0.0,0.0,0.0,4.921874496,4.41043958977222,0.0,-2502.0,0.0,0.0,0.0,0.0,0.0,2.7893063550000003,4.389674732977291,0.0,10609.0,0.0,0.0,0.0,0.0,0.125,2.18505837,0.552687206278561,0.0,0.25,-0.2800000011920929,-44.060001373291016,-0.00262451171875,0.0054931640625,1.01519775390625,37.11000061035156,0.0,1.0,-2.034912109375,-0.9541015625,Closing,0.0,0.0,-1.0,0.0,0.0,0.0,0.0,0.0,
