Time,ClimberA1,ClimberA2,FRpos,FRCurrent,FRspeed,FRsetpoint,FRApos,FRACurrent,FREncpos,FREncSetpoint,FREncSpeed,FLpos,FLCurrent,FLspeed,FLsetpoint,FLApos,FLACurrent,FLEncpos,FLEncSetpoint,FLEncSpeed,BRpos,BRCurrent,BRspeed,BRsetpoint,BRApos,BRACurrent,BREncpos,BREncSetpoint,BREncSpeed,BLpos,BLCurrent,BLspeed,BLsetpoint,BLApos,BLACurrent,BLEncpos,BLEncSetpoint,BLEncSpeed,navx_Pitch,navx_Roll,navx_Yaw,navx_XAcc,navx_YAcc,navx_ZAcc,navx_Temp,navx_Bar,navx_Alt,navx_XDis,navx_YDis,GearPlacerState,ShootOutputV,ShootOutputCurrent,ShootEncPos,ShootEncVelocity,ShootSpeed,ShootSetpoint,CarouselSetpoint,CarouselCurrent,
0.3066429999999964,0.0,0.0,-4172.0,0.0,0.0,0.0,0.0,0.125,1.4196775890000002,0.01,0.0,8908.0,0.0,0.0,0.0,0.0,0.125,1.665038892,0.01,0.0,-2694.0,0.0,0.0,0.0,0.0,0.0,3.811034766,0.01,0.0,9085.0,0.0,0.0,0.0,0.0,0.125,2.297363046,0.01,0.0,0.3499999940395355,-0.6200000047683716,4.460000038146973,-0.01171875,0.00390625,1.02337646484375,37.34000015258789,0.0,0.0,-1.49774169921875,-0.6516265869140625,Waiting,0.0,0.0,-1.0,0.0,0.0,0.0,0.0,0.0,
0.43255199999999605,0.0,0.0,-4172.0,0.0,0.0,0.0,0.0,2.375,1.2902830710000002,0.01,0.6084568859999999,8908.0,0.0,0.0,-0.0,0.0,9.375,1.5051267990000001,0.01,0.0,-2694.0,0.0,0.0,0.0,0.0,1.125,3.6730953270000004,0.01,0.0,9085.0,0.0,0.0,-0.0,0.0,3.5,2.092284942,0.01,0.0,0.36000001430511475,-0.6200000047683716,4.449999809265137,0.00372314453125,0.0169677734375,1.03411865234375,37.349998474121094,0.0,15.0,-1.49774169921875,-0.6515045166015625,Closing,0.0,0.0,-1.0,0.0,0.0,0.0,0.0,0.0,
0.5946370000000024,0.0,0.0,-4172.0,0.0,0.0,0.0,0.0,0.5,0.8166503070000001,0.01,0.0,8908.0,0.0,0.0,-0.0,0.0,0.875,0.521240181,0.01,0.0,-2692.0,0.0,22.5,0.0,0.0,0.375,3.388671528,0.01,0.0,9094.0,0.125,45.0,-0.0,0.0,0.625,1.585693197,0.01,0.0,0.3799999952316284,-0.5899999737739563,4.269999980926514,7.9345703125E-4,0.02154541015625,1.07562255859375,37.349998474121094,0.0,12.0,-1.497467041015625,-0.6515350341796875,Closing,0.0,0.0,-1.0,0.0,0.0,0.0,0.0,0.0,
0.6624210000000021,0.0,0.0,-4172.0,0.0,0.0,0.0,0.0,0.5,0.7116698490000001,0.01,4.6234131409999994,8908.0,0.0,0.0,-0.0,0.0,0.5,0.172119123,0.01,-0.8215331189999997,-2689.0,0.0,15.0,0.0,0.0,0.25,3.3154293480000003,0.01,-0.2343749759999998,9094.0,0.125,30.0,-0.0,0.0,0.625,1.4477537580000002,0.01,4.524650435,0.3700000047683716,-0.550000011920929,4.389999866485596,-5.4931640625E-4,0.03485107421875,1.02545166015625,37.349998474121094,0.0,11.0,-1.4973297119140625,-0.6519622802734375,Closing,0.0,0.0,-1.0,0.0,0.0,0.0,0.0,0.0,
0.7284630000000034,0.0,0.0,-4172.0,0.0,0.0,0.0,0.0,0.25,0.7226561760000001,0.01,-0.08666991299999971,8908.0,0.0,0.0,-0.0,0.0,0.5,0.206298807,0.01,-0.3063964530000005,-2689.0,0.0,7.5,0.0,0.0,0.0,3.3239742690000003,0.01,4.876923444000001,9096.0,0.125,15.0,-0.0,0.0,0.375,1.5063475020000001,0.01,-0.13183592399999977,0.3799999952316284,-0.5299999713897705,4.429999828338623,-0.01690673828125,0.02032470703125,1.05218505859375,37.349998474121094,0.0,-6.0,-1.4973297119140625,-0.6522674560546875,Closing,0.0,0.0,-1.0,0.0,0.0,0.0,0.0,0.0,
0.8620069999999977,0.0,0.0,-4172.0,0.0,0.0,0.0,0.0,0.25,0.819091713,0.01,0.0,8908.0,0.0,0.0,-0.0,0.0,0.25,0.435790971,0.01,0.0,-2688.0,0.0,0.0,0.0,0.0,0.0,3.348388329,0.01,0.0,9095.0,0.125,0.0,-0.0,0.0,0.375,1.6015623360000002,0.01,0.0,0.3499999940395355,-0.5699999928474426,4.449999809265137,-0.0159912109375,0.03460693359375,0.9952392578125,37.349998474121094,0.0,-3.0,-1.4972686767578125,-0.6523284912109375,Closing,0.0,0.0,-1.0,0.0,0.0,0.0,0.0,0.0,
0.9292229999999981,0.0,0.0,-4172.0,0.0,0.0,0.0,0.0,0.125,0.826415931,0.01,0.07080077400000029,8908.0,0.0,0.0,-0.0,0.0,0.25,0.526122993,0.01,0.16601560799999948,-2688.0,0.0,0.0,0.0,0.0,0.0,3.343505517,0.01,0.017089841999999855,9095.0,0.125,0.0,-0.0,0.0,0.25,1.6345213170000001,0.01,0.06835936800000031,0.3799999952316284,-0.5799999833106995,4.449999809265137,-0.020751953125,0.00921630859375,1.025146484375,37.33000183105469,0.0,-10.0,-1.4972686767578125,-0.6522064208984375,Closing,0.0,0.0,-1.0,0.0,0.0,0.0,0.0,0.0,
0.9951919999999954,0.0,0.0,-4172.0,0.0,0.0,0.0,0.0,0.125,0.8312987430000001,0.01,0.0,8908.0,0.0,0.0,-0.0,0.0,0.125,0.534667914,0.01,0.0,-2688.0,0.0,0.0,0.0,0.0,0.0,3.348388329,0.01,0.0,9095.0,0.125,0.0,-0.0,0.0,0.125,1.6345213170000001,0.01,0.0,0.3499999940395355,-0.6000000238418579,4.440000057220459,-0.0185546875,0.00970458984375,1.0081787109375,37.33000183105469,0.0,-7.0,-1.4972686767578125,-0.6522064208984375,Closing,0.0,0.0,-1.0,0.0,0.0,0.0,0.0,0.0,
1.0621840000000085,0.0,0.0,-4172.0,0.0,0.0,0.0,0.0,0.125,0.8312987430000001,0.01,0.00488281200000007,8908.0,0.0,0.0,-0.0,0.0,0.125,0.531005805,0.01,0.0024414059999999793,-2688.0,0.0,0.0,0.0,0.0,0.0,3.343505517,0.01,0.0,9095.0,0.125,0.0,-0.0,0.0,0.125,1.6345213170000001,0.01,0.0,0.36000001430511475,-0.6200000047683716,4.449999809265137,-0.010986328125,0.00958251953125,1.01171875,37.33000183105469,0.0,0.0,-1.4972686767578125,-0.6522064208984375,Closing,0.0,0.0,-1.0,0.0,0.0,0.0,0.0,0.0,
1.1207379999999976,0.0,0.0,-4172.0,0.0,0.0,0.0,0.0,0.125,0.832519446,0.01,0.0,8908.0,0.0,0.0,-0.0,0.0,0.125,0.535888617,0.01,0.0,-2688.0,0.0,0.0,0.0,0.0,0.0,3.343505517,0.01,0.0,9095.0,0.125,0.0,-0.0,0.0,0.125,1.6357420200000001,0.01,0.0,0.3499999940395355,-0.6000000238418579,4.449999809265137,-0.00579833984375,0.00909423828125,1.0135498046875,37.33000183105469,0.0,5.0,-1.4972686767578125,-0.6522064208984375,Closing,0.0,0.0,-1.0,0.0,0.0,0.0,0.0,0.0,
1.1948329999999987,0.0,0.0,-4172.0,0.0,0.0,0.0,0.0,0.125,0.8312987430000001,0.01,0.0,8908.0,0.0,0.0,-0.0,0.0,0.125,0.5297851020000001,0.01,0.0,-2688.0,0.0,0.0,0.0,0.0,0.0,3.343505517,0.01,0.0,9095.0,0.125,0.0,-0.0,0.0,0.125,1.6345213170000001,0.01,0.0,0.3499999940395355,-0.6000000238418579,4.449999809265137,-0.01519775390625,0.00335693359375,1.022705078125,37.33000183105469,0.0,-4.0,-1.4972686767578125,-0.6522064208984375,Closing,0.0,0.0,-1.0,0.0,0.0,0.0,0.0,0.0,
1.2652449999999953,0.0,0.0,-4172.0,0.0,0.0,0.0,0.0,0.125,0.8312987430000001,0.01,0.0,8908.0,0.0,0.0,-0.0,0.0,0.125,0.534667914,0.01,-0.0024414059999999793,-2688.0,0.0,0.0,0.0,0.0,0.0,3.34472622,0.01,0.0,9095.0,0.125,0.0,-0.0,0.0,0.125,1.6345213170000001,0.01,0.0,0.3499999940395355,-0.6000000238418579,4.440000057220459,-0.0150146484375,0.0072021484375,1.01904296875,37.33000183105469,0.0,-4.0,-1.4972686767578125,-0.6522064208984375,Closing,0.0,0.0,-1.0,0.0,0.0,0.0,0.0,0.0,
1.3296760000000067,0.0,0.0,-4172.0,0.0,0.0,0.0,0.0,0.125,0.8312987430000001,0.01,0.0,8908.0,0.0,0.0,-0.0,0.0,0.125,0.5297851020000001,0.01,0.0012207029999995456,-2688.0,0.0,0.0,0.0,0.0,0.0,3.342284814,0.01,0.0,9095.0,0.125,0.0,-0.0,0.0,0.125,1.6345213170000001,0.01,0.0,0.3499999940395355,-0.6000000238418579,4.449999809265137,-0.00726318359375,0.00665283203125,1.02362060546875,37.33000183105469,0.0,3.0,-1.4972686767578125,-0.6522064208984375,Closing,0.0,0.0,-1.0,0.0,0.0,0.0,0.0,0.0,
1.3944440000000031,0.0,0.0,-4172.0,0.125,0.0,262.5,0.0,0.125,0.8312987430000001,0.5498168668524888,0.0,8908.0,0.125,0.0,262.5,0.0,0.125,0.531005805,4.410439589772222,0.0,-2688.0,0.125,0.0,262.5,0.0,0.0,3.34472622,4.389674732977289,0.0,9095.0,0.375,0.0,262.5,0.0,0.375,1.6345213170000001,0.5526872062785588,0.0,0.3499999940395355,-0.6000000238418579,4.440000057220459,-0.0086669921875,0.00274658203125,1.0191650390625,37.33000183105469,0.0,1.0,-1.4972686767578125,-0.6522064208984375,Closing,0.0,0.0,-1.0,0.0,0.0,0.0,0.0,0.0,
1.464275999999998,0.0,0.0,-4170.0,4.625,37.5,1771.875,0.0,1.75,0.9741209940000001,0.5498168668524888,0.0,8935.0,10.5,82.5,1771.875,0.0,2.375,0.46752924900000004,4.410439589772222,0.0,-2681.0,10.625,22.5,1771.875,0.0,1.75,3.1567379580000003,4.389674732977289,0.0,9100.0,5.0,7.5,1771.875,0.0,2.125,1.8457029360000001,0.5526872062785588,0.0,0.44999998807907104,-0.8100000023841858,4.289999961853027,0.2225341796875,0.1087646484375,1.16986083984375,37.33000183105469,0.0,245.0,-1.497802734375,-0.652069091796875,Closing,0.0,0.0,-1.0,0.0,0.0,0.0,0.0,0.0,
1.5287750000000087,0.0,0.0,-4170.0,10.75,255.0,1427.34375,0.0,0.625,1.175536989,0.5498168668524888,0.0,8935.0,28.75,240.0,1427.34375,0.0,0.5,0.261230442,4.410439589772222,0.0,-2681.0,22.5,105.0,1427.34375,0.0,0.375,2.980956726,4.389674732977289,0.0,9100.0,11.625,150.0,1427.34375,0.0,0.625,2.039794713,0.5526872062785588,0.0,0.41999998688697815,-0.6899999976158142,2.7100000381469727,0.02935791015625,-0.02716064453125,1.32275390625,37.33000183105469,0.0,43.0,-1.498138427734375,-0.6508331298828125,Closing,0.0,0.0,-1.0,0.0,0.0,0.0,0.0,0.0,
1.5833059999999968,0.0,0.0,-4118.0,4.375,337.5,0.0,0.0,0.375,1.303710804,0.5498168668524888,0.19287107399999992,8977.0,15.25,300.0,0.0,0.0,0.25,0.11352537900000001,4.410439589772222,-0.209960916,-2648.0,16.625,202.5,0.0,0.0,0.125,2.88085908,4.389674732977289,-0.17700193499999983,9145.0,2.0,255.0,0.0,0.0,0.375,2.13623025,0.5526872062785588,0.0,0.2800000011920929,-0.6700000166893005,0.46000000834465027,0.00262451171875,0.144287109375,1.02362060546875,37.33000183105469,0.0,15.0,-1.4989166259765625,-0.650360107421875,Closing,0.0,0.0,-1.0,0.0,0.0,0.0,0.0,0.0,
1.6244470000000002,0.0,0.0,-4118.0,0.125,210.0,492.18749999999994,0.0,0.375,1.3427733000000002,0.5498168668524888,0.1196288940000001,8977.0,0.0,247.5,492.18749999999994,0.0,0.25,0.050048823000000006,4.410439589772222,-0.14648436000000054,-2648.0,0.875,210.0,492.18749999999994,0.0,0.125,2.8527829110000003,4.389674732977289,-0.0927734280000001,9145.0,0.125,202.5,492.18749999999994,0.0,0.375,2.154540795,0.5526872062785588,0.08544921000000016,0.23999999463558197,-0.550000011920929,-0.12999999523162842,0.15325927734375,0.05157470703125,1.11907958984375,37.33000183105469,0.0,164.0,-1.498779296875,-0.64984130859375,Closing,0.0,0.0,-1.0,0.0,0.0,0.0,0.0,0.0,
1.6797770000000019,0.0,0.0,-4105.0,0.125,75.0,1722.65625,0.0,0.25,1.36718736,0.5498168668524888,0.0378417929999999,8977.0,3.5,75.0,1722.65625,0.0,0.25,4.927978011,4.410439589772222,4.869384267000001,-2648.0,1.375,127.5,1722.65625,0.0,0.125,2.818603227,4.389674732977289,-0.0341796840000006,9157.0,3.875,45.0,1722.65625,0.0,0.25,2.183837667,0.5526872062785588,0.032958981000000165,0.2800000011920929,-0.4300000071525574,-0.5099999904632568,0.0181884765625,0.0572509765625,1.114990234375,37.33000183105469,0.0,26.0,-1.497589111328125,-0.6487884521484375,Closing,0.0,0.0,-1.0,0.0,0.0,0.0,0.0,0.0,
1.793322,0.0,0.0,-4032.0,17.125,457.5,2100.0,0.0,0.25,1.385497905,0.5498168668524888,0.0,9013.0,33.0,495.0,2100.0,0.0,0.0,4.853515128000001,4.410439589772222,0.0,-2639.0,27.625,120.0,2100.0,0.0,0.125,2.775878622,4.389674732977289,0.0,9157.0,16.875,427.5,2100.0,0.0,0.125,2.187499776,0.5526872062785588,0.0,0.5199999809265137,-0.3400000035762787,-4.099999904632568,0.0087890625,-0.13629150390625,0.9864501953125,37.33000183105469,0.0,25.0,-1.494964599609375,-0.6419830322265625,Closing,0.0,0.0,-1.0,0.0,0.0,0.0,0.0,0.0,
1.8235950000000012,0.0,0.0,-4032.0,16.25,540.0,0.0,0.0,0.25,1.386718608,0.5498168668524888,0.0,9133.0,31.25,600.0,0.0,0.0,0.0,4.844970207,4.410439589772222,0.0,-2586.0,25.875,270.0,0.0,0.0,0.125,2.775878622,4.389674732977289,0.0,9250.0,11.75,555.0,0.0,0.0,0.125,2.188720479,0.5526872062785588,0.0,0.7200000286102295,-0.1599999964237213,-8.239999771118164,-0.16888427734375,0.19482421875,1.17889404296875,37.33000183105469,0.0,-189.0,-1.4930267333984375,-0.63848876953125,Closing,0.0,0.0,-1.0,0.0,0.0,0.0,0.0,0.0,
1.8721999999999972,0.0,0.0,-4032.0,7.125,765.0,0.0,0.0,0.25,1.386718608,0.5498168668524888,0.0012207029999999897,9133.0,7.25,817.5,0.0,0.0,0.25,4.848632316000001,4.410439589772222,-0.06835936799999942,-2586.0,6.125,420.0,0.0,0.0,0.0,2.779540731,4.389674732977289,-0.04150390200000054,9250.0,2.375,660.0,0.0,0.0,0.25,2.192382588,0.5526872062785588,0.004882811999999959,0.6399999856948853,-0.14000000059604645,-11.460000038146973,0.00762939453125,-0.12799072265625,0.4000244140625,37.33000183105469,0.0,34.0,-1.491851806640625,-0.6356964111328125,Closing,0.0,0.0,-1.0,0.0,0.0,0.0,0.0,0.0,
1.8901100000000006,0.0,0.0,-3914.0,2.25,765.0,0.0,0.0,0.25,1.385497905,0.5498168668524888,0.0012207029999999897,9133.0,0.0,817.5,0.0,0.0,0.25,4.846190910000001,4.410439589772222,-0.06835936799999942,-2586.0,0.0,465.0,0.0,0.0,0.0,2.8076169,4.389674732977289,0.008544921000000372,9250.0,0.0,697.5,0.0,0.0,0.25,2.188720479,0.5526872062785588,0.004882811999999959,0.5099999904632568,-0.4099999964237213,-15.550000190734863,0.0950927734375,0.12420654296875,0.7083740234375,37.31999969482422,0.0,64.0,-1.49041748046875,-0.631622314453125,Closing,0.0,0.0,-1.0,0.0,0.0,0.0,0.0,0.0,
1.9332100000000063,0.0,0.0,-3914.0,0.0,750.0,492.18749999999994,0.0,0.25,1.385497905,0.5498168668524888,0.0,9133.0,0.0,742.5,492.18749999999994,0.0,0.25,4.864501455,4.410439589772222,0.014648435999999876,-2496.0,0.0,517.5,492.18749999999994,0.0,0.0,2.808837603,4.389674732977289,0.0,9376.0,0.0,765.0,492.18749999999994,0.0,0.25,2.187499776,0.5526872062785588,0.0,0.3799999952316284,-0.5,-19.18000030517578,0.09014892578125,0.06903076171875,1.255126953125,37.31999969482422,0.0,75.0,-1.4892120361328125,-0.6289520263671875,Closing,0.0,0.0,-1.0,0.0,0.0,0.0,0.0,0.0,
1.9873600000000007,0.0,0.0,-3914.0,0.125,765.0,1985.15625,0.0,0.25,1.390380717,0.5498168668524888,-0.0012207029999999897,9249.0,0.5,712.5,1985.15625,0.0,0.0,4.866942861,4.410439589772222,0.0012207030000004337,-2496.0,0.125,562.5,1985.15625,0.0,0.0,2.7905270580000003,4.389674732977289,0.0,9376.0,0.875,735.0,1985.15625,0.0,0.25,2.188720479,0.5526872062785588,0.0,0.3199999928474426,-0.2199999988079071,-22.1299991607666,0.017822265625,0.00177001953125,0.684814453125,37.31999969482422,0.0,19.0,-1.48724365234375,-0.6261138916015625,Closing,0.0,0.0,-1.0,0.0,0.0,0.0,0.0,0.0,
2.0237390000000013,0.0,0.0,-3787.0,1.25,757.5,1788.28125,0.0,0.25,1.385497905,0.5498168668524888,-0.003662108999999969,9249.0,2.875,690.0,1788.28125,0.0,0.25,4.875487782,4.410439589772222,0.008544920999999484,-2496.0,2.875,630.0,1788.28125,0.0,0.0,2.774657919,4.389674732977289,-0.021972653999999814,9376.0,2.375,600.0,1788.28125,0.0,0.25,2.178954855,0.5526872062785588,0.0,0.4699999988079071,-0.4399999976158142,-24.559999465942383,0.11810302734375,0.4158935546875,1.03729248046875,37.31999969482422,0.0,-54.0,-1.4855194091796875,-0.62298583984375,Closing,0.0,0.0,-1.0,0.0,0.0,0.0,0.0,0.0,
2.1299070000000064,0.0,0.0,-3679.0,0.875,757.5,475.78125,0.0,0.25,1.385497905,0.5498168668524888,0.0,9371.0,2.625,825.0,475.78125,0.0,0.25,4.877929188,4.410439589772222,0.0,-2385.0,2.875,705.0,475.78125,0.0,0.0,2.774657919,4.389674732977289,0.0,9478.0,1.375,705.0,475.78125,0.0,0.25,2.188720479,0.5526872062785588,0.0,0.5,-0.3199999928474426,-30.010000228881836,0.037353515625,-0.20074462890625,0.89154052734375,37.31999969482422,0.0,141.0,-1.4823760986328125,-0.6172637939453125,Closing,0.0,0.0,-1.0,0.0,0.0,0.0,0.0,0.0,
2.1922670000000073,0.0,0.0,-3679.0,0.0,502.5,0.0,0.0,0.25,1.386718608,0.5498168668524888,0.0,9451.0,0.0,472.5,0.0,0.0,0.25,4.876708485,4.410439589772222,0.0,-2286.0,0.0,660.0,0.0,0.0,0.0,2.7941891670000003,4.389674732977289,-0.0012207029999995456,9557.0,0.125,465.0,0.0,0.0,0.25,2.189941182,0.5526872062785588,0.0,0.4000000059604645,-0.5699999928474426,-34.709999084472656,-0.1148681640625,0.02294921875,1.2586669921875,37.31999969482422,0.0,-92.0,-1.478057861328125,-0.6149444580078125,Closing,0.0,0.0,-1.0,0.0,0.0,0.0,0.0,0.0,
2.2618680000000024,0.0,0.0,-3596.0,0.0,525.0,0.0,0.0,0.25,1.385497905,0.5498168668524888,0.0012207029999999897,9451.0,0.0,465.0,0.0,0.0,0.25,4.882812,4.410439589772222,0.0,-2286.0,0.0,540.0,0.0,0.0,0.0,2.7990719790000003,4.389674732977289,0.02075195100000027,9557.0,0.0,495.0,0.0,0.0,0.25,2.188720479,0.5526872062785588,0.0,0.41999998688697815,-0.4000000059604645,-37.540000915527344,-0.0899658203125,-0.1280517578125,1.1484375,37.31999969482422,0.0,18.0,-1.47503662109375,-0.6142425537109375,Closing,0.0,0.0,-1.0,0.0,0.0,0.0,0.0,0.0,
2.330093000000008,0.0,0.0,-3596.0,0.0,442.5,0.0,0.0,0.25,1.385497905,0.5498168668524888,0.0,9510.0,0.0,352.5,0.0,0.0,0.25,4.887694812,4.410439589772222,0.004882811999999959,-2214.0,0.0,427.5,0.0,0.0,0.0,2.7990719790000003,4.389674732977289,0.004882811999999959,9624.0,0.0,322.5,0.0,0.0,0.25,2.188720479,0.5526872062785588,0.0,0.25999999046325684,-0.4300000071525574,-40.08000183105469,0.00665283203125,0.04864501953125,0.833740234375,37.31999969482422,0.0,-18.0,-1.4727325439453125,-0.613311767578125,Closing,0.0,0.0,-1.0,0.0,0.0,0.0,0.0,0.0,
2.394245999999999,0.0,0.0,-3555.0,0.0,270.0,0.0,0.0,0.25,1.384277202,0.5498168668524888,-0.0012207029999999897,9510.0,0.0,270.0,0.0,0.0,0.25,4.887694812,4.410439589772222,0.004882811999999959,-2214.0,0.0,285.0,0.0,0.0,0.0,2.7990719790000003,4.389674732977289,0.0,9657.0,0.0,255.0,0.0,0.0,0.25,2.187499776,0.5526872062785588,0.0,0.27000001072883606,-0.4399999976158142,-41.33000183105469,0.01104736328125,0.02569580078125,0.98297119140625,37.31999969482422,0.0,0.0,-1.4724884033203125,-0.61346435546875,Closing,0.0,0.0,-1.0,0.0,0.0,0.0,0.0,0.0,
2.4607679999999963,0.0,0.0,-3555.0,2.5,142.5,-714.3307435512543,0.0,0.25,1.385497905,4.362850004629403,0.0,9540.0,0.625,180.0,714.3307435512543,0.0,0.125,4.887694812,4.390730311064724,0.0,-2182.0,3.5,165.0,-714.3307435512543,0.0,0.125,2.808837603,4.370058247820539,0.0,9657.0,0.5,172.5,714.3307435512543,0.0,1.375,2.183837667,4.3856264255311785,0.0,0.3199999928474426,-0.5799999833106995,-41.970001220703125,-0.14923095703125,0.0673828125,1.13592529296875,37.349998474121094,0.0,-143.0,-1.4725494384765625,-0.6136627197265625,Closing,0.0,0.0,-1.0,0.0,0.0,0.0,0.0,0.0,
2.516960999999996,0.0,0.0,-3554.0,4.0,15.0,-892.9134106636047,0.0,6.25,1.065673719,4.357232720858852,0.0,9540.0,3.875,262.5,892.9134106636047,0.0,0.0,4.884032703,4.385077130668643,0.0,-2182.0,6.5,7.5,-892.9134106636047,0.0,0.125,2.8076169,4.364431683247887,0.0,9687.0,1.875,165.0,892.9134106636047,0.0,6.5,1.726074042,4.379979816521542,0.0,0.3100000023841858,-0.8399999737739563,-41.459999084472656,-0.04669189453125,0.244873046875,0.83087158203125,37.349998474121094,0.0,-184.0,-1.4741363525390625,-0.6148834228515625,Closing,0.0,0.0,-1.0,0.0,0.0,0.0,0.0,0.0,
2.594343000000008,0.0,0.0,-3554.0,5.875,-135.0,-892.9134106636047,0.0,1.25,0.6445311840000001,4.3664122151750275,0.0,9575.0,8.125,172.5,892.9134106636047,0.0,0.125,4.887694812,4.394315285519603,0.0,-2201.0,9.0,-165.0,-892.9134106636047,0.0,0.125,2.8076169,4.373626343803409,0.0,9687.0,3.75,195.0,892.9134106636047,0.0,0.5,1.324462755,4.389207232729597,0.0,0.36000001430511475,-1.149999976158142,-40.93000030517578,-0.09942626953125,-0.03045654296875,1.09356689453125,37.349998474121094,0.0,-33.0,-1.4781951904296875,-0.6167755126953125,Closing,0.0,0.0,-1.0,0.0,0.0,0.0,0.0,0.0,
2.661993000000002,0.0,0.0,-3580.0,7.625,-165.0,-892.9134106636049,0.0,1.25,0.314941374,4.371481458513326,0.0,9611.0,12.0,120.0,892.9134106636049,0.0,0.125,4.888915515,4.399416923292162,0.0,-2238.0,10.125,-232.5,-892.9134106636049,0.0,0.125,2.808837603,4.378703962478641,0.0,9722.0,4.125,195.0,892.9134106636049,0.0,0.625,1.021728411,4.394302940241498,0.0,0.6700000166893005,-1.4199999570846558,-40.86000061035156,-0.1981201171875,0.158935546875,0.98388671875,37.349998474121094,0.0,-227.0,-1.48358154296875,-0.6187896728515625,Closing,0.0,0.0,-1.0,0.0,0.0,0.0,0.0,0.0,
2.721453000000009,0.0,0.0,-3580.0,8.125,-270.0,-892.9134106636047,0.0,0.25,0.151367172,4.372440503137762,0.0,9611.0,12.625,300.0,892.9134106636047,0.0,0.125,4.888915515,4.400382096584323,0.0,-2238.0,10.625,-285.0,-892.9134106636047,0.0,0.125,2.810058306,4.379664591623945,0.0,9722.0,4.875,397.5,892.9134106636047,0.0,0.125,0.8703612390000001,4.395266991594106,0.0,1.4299999475479126,-1.8799999952316284,-40.720001220703125,-0.06280517578125,0.24346923828125,1.090087890625,37.349998474121094,0.0,-161.0,-1.4973297119140625,-0.6201629638671875,Closing,0.0,0.0,-1.0,0.0,0.0,0.0,0.0,0.0,
2.7939890000000016,0.0,0.0,-3643.0,7.625,-472.5,-892.9134106636046,0.0,0.25,0.151367172,4.3743585923866295,0.0,9708.0,9.875,577.5,892.9134106636046,0.0,0.125,4.887694812,4.4023124431686425,0.0,-2315.0,9.875,-442.5,-892.9134106636046,0.0,0.125,2.817382524,4.381585849914553,0.0,9804.0,4.5,532.5,892.9134106636046,0.0,0.375,0.860595615,4.3971950942993185,0.0,2.0199999809265137,-2.0199999809265137,-40.400001525878906,0.0526123046875,0.169189453125,1.0675048828125,37.349998474121094,0.0,-16.0,-1.5187835693359375,-0.61688232421875,Closing,0.0,0.0,-1.0,0.0,0.0,0.0,0.0,0.0,
2.8632880000000003,0.0,0.0,-3757.0,6.0,-697.5,-892.9134106636046,0.0,0.25,0.19409177700000002,4.37874281131662,0.0,9708.0,7.75,727.5,892.9134106636046,0.0,0.125,4.885253406,4.406724678960803,0.0,-2315.0,8.375,-630.0,-892.9134106636046,0.0,0.0,2.808837603,4.385977312393191,0.0,9804.0,4.0,675.0,892.9134106636046,0.0,0.25,0.942382716,4.401602201207481,0.0,2.25,-2.130000114440918,-40.060001373291016,-0.12481689453125,0.207275390625,1.0225830078125,37.349998474121094,0.0,-173.0,-1.538787841796875,-0.6135711669921875,Closing,0.0,0.0,-1.0,0.0,0.0,0.0,0.0,0.0,
2.9281589999999995,0.0,0.0,-3757.0,4.625,-825.0,-892.9134106636047,0.0,0.25,0.234374976,4.384771151543365,0.0,9841.0,6.25,825.0,892.9134106636047,0.0,0.25,4.886474109,4.4127915426235225,0.0,-2447.0,6.625,-810.0,-892.9134106636047,0.0,0.0,2.8076169,4.392015612564089,0.0,9927.0,3.125,787.5,892.9134106636047,0.0,0.25,1.026611223,4.407662012608848,0.0,2.4200000762939453,-2.259999990463257,-39.599998474121094,-0.0394287109375,0.05828857421875,1.12188720703125,37.33000183105469,0.0,-2.0,-1.566741943359375,-0.6085357666015625,Closing,0.0,0.0,-1.0,0.0,0.0,0.0,0.0,0.0,
2.994596000000005,0.0,0.0,-3909.0,3.625,-922.5,-892.9134106636047,0.0,0.25,0.26855466,4.389703410905608,0.0,9841.0,4.875,892.5,892.9134106636047,0.0,0.25,4.886474109,4.417755321039203,0.0,-2447.0,5.125,-945.0,-892.9134106636047,0.0,0.0,2.8076169,4.396956020940149,0.0,9927.0,2.625,885.0,892.9134106636047,0.0,0.25,1.069335828,4.412620021014747,0.0,2.4000000953674316,-2.4100000858306885,-39.470001220703125,-0.0855712890625,-0.0706787109375,0.8026123046875,37.33000183105469,0.0,26.0,-1.5902557373046875,-0.60369873046875,Closing,0.0,0.0,-1.0,0.0,0.0,0.0,0.0,0.0,
3.0638439999999973,0.0,0.0,-3909.0,0.75,-975.0,0.0,0.0,0.25,0.24291989700000002,4.389703410905608,0.019531248000000723,9997.0,2.125,967.5,0.0,0.0,0.25,4.887694812,4.417755321039203,0.0,-2608.0,0.5,-1012.5,0.0,0.0,0.0,2.780761434,4.396956020940149,0.0,10074.0,0.5,922.5,0.0,0.0,0.125,1.079101452,4.412620021014747,0.03662108999999969,2.190000057220459,-2.450000047683716,-39.41999816894531,-0.13690185546875,0.0303955078125,0.85894775390625,37.33000183105469,0.0,-75.0,-1.614349365234375,-0.600311279296875,Closing,0.0,0.0,-1.0,0.0,0.0,0.0,0.0,0.0,
3.1299530000000084,0.0,0.0,-4037.0,0.0,-817.5,0.0,0.0,0.125,0.241699194,4.389703410905608,-0.009765624000000805,9997.0,0.0,787.5,0.0,0.0,0.25,4.887694812,4.417755321039203,0.0,-2608.0,0.0,-915.0,0.0,0.0,0.0,2.774657919,4.396956020940149,-0.029296871999999752,10209.0,0.0,795.0,0.0,0.0,0.125,1.079101452,4.412620021014747,0.009765623999999917,1.899999976158142,-1.9500000476837158,-39.52000045776367,0.15234375,-0.390380859375,0.72979736328125,37.33000183105469,0.0,400.0,-1.636993408203125,-0.5977325439453125,Closing,0.0,0.0,-1.0,0.0,0.0,0.0,0.0,0.0,
3.193366000000009,0.0,0.0,-4037.0,0.0,-742.5,0.0,0.0,0.125,0.24291989700000002,4.389703410905608,0.0,10123.0,0.0,795.0,0.0,0.0,0.25,4.888915515,4.417755321039203,0.0,-2744.0,0.0,-802.5,0.0,0.0,0.0,2.774657919,4.396956020940149,0.0,10209.0,0.0,840.0,0.0,0.0,0.125,1.079101452,4.412620021014747,0.0,1.600000023841858,-1.659999966621399,-39.720001220703125,0.0987548828125,-0.14935302734375,1.0457763671875,37.33000183105469,0.0,213.0,-1.6595458984375,-0.595672607421875,Closing,0.0,0.0,-1.0,0.0,0.0,0.0,0.0,0.0,
3.264244000000006,0.0,0.0,-4167.0,0.0,-780.0,0.0,0.0,0.125,0.241699194,4.389703410905608,0.0,10243.0,0.0,802.5,0.0,0.0,0.25,4.888915515,4.417755321039203,0.0,-2859.0,0.0,-742.5,0.0,0.0,0.0,2.774657919,4.396956020940149,0.0012207029999995456,10330.0,0.0,765.0,0.0,0.0,0.125,1.079101452,4.412620021014747,-0.0012207030000004337,1.2100000381469727,-1.350000023841858,-39.849998474121094,-0.00140380859375,0.013427734375,1.1912841796875,37.33000183105469,0.0,28.0,-1.6765289306640625,-0.5945281982421875,Closing,0.0,0.0,-1.0,0.0,0.0,0.0,0.0,0.0,
3.331619000000006,0.0,0.0,-4275.0,0.0,-705.0,0.0,0.0,0.125,0.24291989700000002,4.389703410905608,0.0,10243.0,0.0,705.0,0.0,0.0,0.25,4.888915515,4.417755321039203,0.0,-2859.0,0.0,-667.5,0.0,0.0,0.0,2.774657919,4.396956020940149,-0.0012207029999995456,10330.0,0.0,682.5,0.0,0.0,0.125,1.079101452,4.412620021014747,0.0012207030000004337,0.949999988079071,-1.059999942779541,-39.959999084472656,0.0843505859375,-0.0982666015625,0.99578857421875,37.33000183105469,0.0,152.0,-1.6868438720703125,-0.593353271484375,Closing,0.0,0.0,-1.0,0.0,0.0,0.0,0.0,0.0,
3.394316000000006,0.0,0.0,-4275.0,6.75,-577.5,932.598431110382,0.0,4.0,0.08422850700000001,3.151708401543362,0.0,10317.0,9.125,585.0,-932.598431110382,0.0,7.5,4.8632807520000005,3.171849042623519,0.0,-2948.0,6.625,-547.5,932.598431110382,0.0,4.125,2.5927731720000002,3.156915612564086,0.0,10424.0,0.375,592.5,932.598431110382,0.0,5.875,1.247558466,0.6891620126088445,0.0,0.38999998569488525,-0.5400000214576721,-40.04999923706055,0.43768310546875,-0.4556884765625,0.97601318359375,37.33000183105469,0.0,639.0,-1.694091796875,-0.59136962890625,Closing,0.0,0.0,-1.0,0.0,0.0,0.0,0.0,0.0,
3.465131999999998,0.0,0.0,-4303.0,9.5,-165.0,-2666.955717141829,0.0,2.875,4.583739765000001,0.4225433995777542,0.0,10317.0,16.625,277.5,2666.955717141829,0.0,2.0,4.431151890000001,0.4252436160532116,0.0,-2948.0,12.875,-412.5,-2666.955717141829,0.0,6.125,2.249755629,0.4232415202052647,0.0,10424.0,13.625,465.0,2666.955717141829,0.0,1.375,1.6613767830000001,0.4247493031288362,0.0,-0.4000000059604645,0.18000000715255737,-40.029998779296875,-0.237548828125,0.26544189453125,1.26202392578125,37.310001373291016,0.0,-361.0,-1.6911163330078125,-0.589935302734375,Closing,0.0,0.0,-1.0,0.0,0.0,0.0,0.0,0.0,
3.5277909999999975,0.0,0.0,-4303.0,11.375,-262.5,1757.0436356661323,0.0,10.625,4.824218256,2.782825062949099,0.0,10386.0,19.0,495.0,-1757.0436356661323,0.0,10.875,4.519042506,2.8006083961896606,0.0,-3001.0,13.625,-330.0,1757.0436356661323,0.0,10.75,2.401122801,2.787422809786795,0.0,10502.0,19.25,480.0,1757.0436356661323,0.0,0.625,1.9421384730000002,0.3183529048099197,0.0,0.0,0.1599999964237213,-40.91999816894531,0.5146484375,-0.05126953125,-0.21478271484375,37.310001373291016,0.0,422.0,-1.6894989013671875,-0.58697509765625,Closing,0.0,0.0,-1.0,0.0,0.0,0.0,0.0,0.0,
3.59325,0.0,0.0,-4295.0,3.75,-37.5,0.0,0.0,7.25,4.489745634,2.782825062949099,0.2270507580000003,10386.0,13.875,-52.5,0.0,0.0,9.375,4.221190974000001,2.8006083961896606,0.0927734280000001,-3001.0,7.75,-202.5,0.0,0.0,2.375,1.978759563,2.787422809786795,0.12939451800000068,10502.0,5.125,180.0,0.0,0.0,0.25,2.0153806530000002,0.3183529048099197,0.27099606600000015,-1.0700000524520874,0.44999998807907104,-41.619998931884766,0.37774658203125,-1.062255859375,0.5579833984375,37.310001373291016,0.0,977.0,-1.6787109375,-0.585479736328125,Closing,0.0,0.0,-1.0,0.0,0.0,0.0,0.0,0.0,
3.6137920000000014,0.0,0.0,-4295.0,2.375,142.5,0.0,0.0,2.5,4.3408198680000005,2.782825062949099,0.0,10386.0,1.25,-82.5,0.0,0.0,2.625,4.07714802,2.8006083961896606,0.0,-3001.0,2.625,-142.5,0.0,0.0,1.75,1.8310545,2.787422809786795,0.0,10509.0,0.0,90.0,0.0,0.0,0.125,2.0153806530000002,0.3183529048099197,0.0,-1.2000000476837158,0.2199999988079071,-41.650001525878906,-0.29248046875,0.95831298828125,1.59869384765625,37.310001373291016,0.0,-882.0,-1.675750732421875,-0.5854949951171875,Closing,0.0,0.0,-1.0,0.0,0.0,0.0,0.0,0.0,
3.633057000000001,0.0,0.0,-4295.0,0.0,240.0,0.0,0.0,2.5,4.165038636,2.782825062949099,0.0,10388.0,0.0,30.0,0.0,0.0,1.125,3.919677333,2.8006083961896606,0.0,-3015.0,0.0,-97.5,0.0,0.0,1.25,1.6894529520000001,2.787422809786795,0.0,10509.0,0.0,22.5,0.0,0.0,0.125,2.0153806530000002,0.3183529048099197,0.0,-0.9700000286102295,0.30000001192092896,-41.63999938964844,0.064453125,0.35382080078125,1.4742431640625,37.310001373291016,0.0,-209.0,-1.6735382080078125,-0.584930419921875,Closing,0.0,0.0,-1.0,0.0,0.0,0.0,0.0,0.0,
3.6651800000000074,0.0,0.0,-4295.0,0.0,127.5,0.0,0.0,1.5,3.97949178,2.782825062949099,-0.6799315710000005,10388.0,0.0,150.0,0.0,0.0,1.125,3.7341304770000003,2.8006083961896606,-0.6164550150000006,-3015.0,0.0,-60.0,0.0,0.0,1.25,1.516113126,2.787422809786795,-0.7177733640000001,10509.0,0.0,0.0,0.0,0.0,0.125,2.0153806530000002,0.3183529048099197,0.06469725900000012,-0.7799999713897705,0.3700000047683716,-41.5099983215332,-0.161865234375,0.00921630859375,0.76678466796875,37.310001373291016,0.0,-137.0,-1.669525146484375,-0.58306884765625,Closing,0.0,0.0,-1.0,0.0,0.0,0.0,0.0,0.0,
3.719744999999995,0.0,0.0,-4297.0,0.0,0.0,0.0,0.0,0.5,3.659667594,2.782825062949099,-0.2380370850000002,10388.0,0.0,22.5,0.0,0.0,0.25,3.443603163,2.8006083961896606,-0.20874021299999956,-3015.0,0.0,-15.0,0.0,0.0,0.125,1.2890623680000002,2.787422809786795,-0.18920896500000017,10509.0,0.0,-7.5,0.0,0.0,0.25,1.9970701080000002,0.3183529048099197,0.0,-0.49000000953674316,0.20999999344348907,-41.16999816894531,0.017578125,-0.0291748046875,1.28765869140625,37.310001373291016,0.0,21.0,-1.66259765625,-0.5798492431640625,Closing,0.0,0.0,-1.0,0.0,0.0,0.0,0.0,0.0,
3.8660430000000052,0.0,0.0,-4297.0,0.0,0.0,0.0,0.0,0.25,3.436278945,2.782825062949099,0.0,10380.0,0.0,0.0,0.0,0.0,0.25,3.2055660780000004,2.8006083961896606,0.0,-3014.0,0.0,0.0,0.0,0.0,0.125,1.125488166,2.787422809786795,0.0,10510.0,0.0,0.0,0.0,0.0,0.25,1.982421672,0.3183529048099197,0.0,-0.4699999988079071,0.23999999463558197,-41.18000030517578,-0.02508544921875,0.0347900390625,1.0003662109375,37.310001373291016,0.0,-50.0,-1.6463775634765625,-0.5703125,Closing,0.0,0.0,-1.0,0.0,0.0,0.0,0.0,0.0,
3.9303819999999976,0.0,0.0,-4297.0,0.0,0.0,0.0,0.0,0.25,3.439941054,2.782825062949099,-0.1464843600000001,10380.0,0.0,0.0,0.0,0.0,0.25,3.2055660780000004,2.8006083961896606,-0.16357420199999995,-3014.0,0.0,0.0,0.0,0.0,0.0,1.127929572,2.787422809786795,-0.11352537900000037,10510.0,0.0,0.0,0.0,0.0,0.25,1.9726560480000002,0.3183529048099197,-0.009765623999999917,-0.4699999988079071,0.23000000417232513,-41.16999816894531,-0.00775146484375,-0.0335693359375,1.128173828125,37.310001373291016,0.0,6.0,-1.6406402587890625,-0.5667724609375,Closing,0.0,0.0,-1.0,0.0,0.0,0.0,0.0,0.0,
3.9951340000000055,0.0,0.0,-4297.0,0.0,0.0,0.0,0.0,0.375,3.511962531,2.782825062949099,0.009765623999999917,10380.0,0.0,0.0,0.0,0.0,0.25,3.251952792,2.8006083961896606,0.004882811999999959,-3014.0,0.0,0.0,0.0,0.0,0.0,1.1633299590000001,2.787422809786795,0.004882811999999959,10510.0,0.0,0.0,0.0,0.0,0.25,1.9689939390000002,0.3183529048099197,-0.009765623999999917,-0.41999998688697815,0.1899999976158142,-41.16999816894531,-0.0267333984375,0.01007080078125,1.0543212890625,37.2599983215332,0.0,-34.0,-1.633514404296875,-0.5650177001953125,Closing,0.0,0.0,-1.0,0.0,0.0,0.0,0.0,0.0,
4.0659440000000036,0.0,0.0,-4297.0,0.0,0.0,0.0,0.0,0.375,3.549804324,2.782825062949099,0.0,10380.0,0.0,0.0,0.0,0.0,0.25,3.28369107,2.8006083961896606,0.0,-3014.0,0.0,0.0,0.0,0.0,0.0,1.179199098,2.787422809786795,0.0,10510.0,0.0,0.0,0.0,0.0,0.25,1.9677732360000002,0.3183529048099197,0.0,-0.4099999964237213,0.17000000178813934,-41.15999984741211,0.01666259765625,-0.0035400390625,1.05731201171875,37.2599983215332,0.0,7.0,-1.6283416748046875,-0.5648040771484375,Closing,0.0,0.0,-1.0,0.0,0.0,0.0,0.0,0.0,
4.136104000000007,0.0,0.0,-4297.0,0.0,0.0,0.0,0.0,0.25,3.5766597900000003,2.782825062949099,0.029296871999999752,10380.0,0.0,0.0,0.0,0.0,0.125,3.302001615,2.8006083961896606,0.024414059999999793,-3014.0,0.0,0.0,0.0,0.0,0.0,1.180419801,2.787422809786795,0.014648435999999876,10510.0,0.0,0.0,0.0,0.0,0.25,1.9714353450000002,0.3183529048099197,0.0,-0.3700000047683716,0.15000000596046448,-41.16999816894531,-0.005859375,0.01153564453125,1.02545166015625,37.2599983215332,0.0,-18.0,-1.627166748046875,-0.5647430419921875,Closing,0.0,0.0,-1.0,0.0,0.0,0.0,0.0,0.0,
4.1858800000000045,0.0,0.0,-4297.0,0.0,0.0,0.0,0.0,0.125,3.5766597900000003,2.782825062949099,0.024414060000000237,10380.0,0.0,0.0,0.0,0.0,0.0,3.303222318,2.8006083961896606,0.019531247999999835,-3014.0,0.0,0.0,0.0,0.0,0.0,1.179199098,2.787422809786795,0.0,10510.0,0.0,0.0,0.0,0.0,0.25,1.9677732360000002,0.3183529048099197,0.0,-0.3700000047683716,0.12999999523162842,-41.16999816894531,-0.0084228515625,-0.01806640625,1.0257568359375,37.2599983215332,0.0,0.0,-1.62725830078125,-0.5647430419921875,Closing,0.0,0.0,-1.0,0.0,0.0,0.0,0.0,0.0,
4.249070000000007,0.0,0.0,-4297.0,0.0,0.0,0.0,0.0,0.125,3.5754390870000003,2.782825062949099,0.0,10380.0,0.0,0.0,0.0,0.0,0.0,3.303222318,2.8006083961896606,0.0,-3014.0,0.0,0.0,0.0,0.0,0.0,1.180419801,2.787422809786795,0.0,10510.0,0.0,0.0,0.0,0.0,0.25,1.9677732360000002,0.3183529048099197,0.0,-0.3400000035762787,0.10000000149011612,-41.16999816894531,-0.011962890625,0.0126953125,1.02294921875,37.2599983215332,0.0,-22.0,-1.6274261474609375,-0.5647430419921875,Closing,0.0,0.0,-1.0,0.0,0.0,0.0,0.0,0.0,
4.329343000000008,0.0,0.0,-4297.0,0.0,0.0,0.0,0.0,0.125,3.5754390870000003,2.782825062949099,0.0,10380.0,0.0,0.0,0.0,0.0,0.0,3.302001615,2.8006083961896606,0.0,-3014.0,0.0,0.0,0.0,0.0,0.0,1.179199098,2.787422809786795,0.0,10510.0,0.0,0.0,0.0,0.0,0.25,1.9677732360000002,0.3183529048099197,0.0,-0.3400000035762787,0.10000000149011612,-41.16999816894531,-6.7138671875E-4,-0.003173828125,1.0350341796875,37.2599983215332,0.0,-3.0,-1.627655029296875,-0.5647430419921875,Closing,0.0,0.0,-1.0,0.0,0.0,0.0,0.0,0.0,
4.392873999999996,0.0,0.0,-4297.0,0.0,0.0,0.0,0.0,0.125,3.5766597900000003,2.782825062949099,0.0,10380.0,0.0,0.0,0.0,0.0,0.0,3.302001615,2.8006083961896606,0.0,-3014.0,0.0,0.0,0.0,0.0,0.0,1.179199098,2.787422809786795,0.0,10510.0,0.0,0.0,0.0,0.0,0.25,1.9677732360000002,0.3183529048099197,0.0,-0.30000001192092896,0.05999999865889549,-41.16999816894531,-0.00433349609375,-8.544921875E-4,1.0123291015625,37.2599983215332,0.0,-7.0,-1.6278076171875,-0.5647430419921875,Closing,0.0,0.0,-1.0,0.0,0.0,0.0,0.0,0.0,
4.462002999999997,0.0,0.0,-4297.0,0.0,0.0,0.0,0.0,0.125,3.5754390870000003,2.782825062949099,0.0,10380.0,0.0,0.0,0.0,0.0,0.0,3.302001615,2.8006083961896606,0.0,-3014.0,0.0,0.0,0.0,0.0,0.0,1.179199098,2.787422809786795,0.0,10510.0,0.0,0.0,0.0,0.0,0.25,1.9689939390000002,0.3183529048099197,0.0,-0.30000001192092896,0.05000000074505806,-41.16999816894531,-0.00811767578125,0.00531005859375,1.017333984375,37.2599983215332,0.0,-13.0,-1.6278076171875,-0.5647430419921875,Closing,0.0,0.0,-1.0,0.0,0.0,0.0,0.0,0.0,
4.531887000000003,0.0,0.0,-4297.0,0.0,0.0,0.0,0.0,0.125,3.5766597900000003,2.782825062949099,0.0,10380.0,0.0,0.0,0.0,0.0,0.0,3.302001615,2.8006083961896606,0.0,-3014.0,0.0,0.0,0.0,0.0,0.0,1.179199098,2.787422809786795,0.0,10510.0,0.0,0.0,0.0,0.0,0.25,1.9677732360000002,0.3183529048099197,0.0,-0.25999999046325684,0.029999999329447746,-41.16999816894531,-0.0040283203125,-0.00177001953125,1.00848388671875,37.2599983215332,0.0,-5.0,-1.6278076171875,-0.5647430419921875,Closing,0.0,0.0,-1.0,0.0,0.0,0.0,0.0,0.0,
4.586733000000008,0.0,0.0,-4297.0,0.125,0.0,218.26772511005402,0.0,0.375,3.565673463,2.4661254999999977,0.0,10378.0,0.0,0.0,-218.26772511005402,0.0,0.5,3.2739254460000002,2.481884999999998,0.0,-3014.0,0.125,0.0,218.26772511005402,0.0,0.375,1.146240117,2.4702000000000024,0.0,10510.0,0.375,0.0,218.26772511005402,0.0,0.875,1.901855274,0.01,0.0,-0.23999999463558197,0.009999999776482582,-41.16999816894531,0.027099609375,0.015625,1.025146484375,37.2599983215332,0.0,7.0,-1.6278076171875,-0.5647125244140625,Closing,0.0,0.0,-1.0,0.0,0.0,0.0,0.0,0.0,
4.665154999999999,0.0,0.0,-4278.0,2.25,22.5,1031.8110573291779,0.0,0.375,3.4301754300000002,2.4661254999999977,0.0,10378.0,7.375,-112.5,-1031.8110573291779,0.0,0.25,3.1579586610000003,2.481884999999998,0.0,-3014.0,3.25,22.5,1031.8110573291779,0.0,0.25,1.024169817,2.4702000000000024,0.0,10510.0,3.125,37.5,1031.8110573291779,0.0,0.5,1.7639158350000002,0.01,0.0,-0.3499999940395355,-0.1899999976158142,-41.220001220703125,-0.3548583984375,-0.40966796875,1.14971923828125,37.2599983215332,0.0,1.0,-1.6281585693359375,-0.5657806396484375,Closing,0.0,0.0,-1.0,0.0,0.0,0.0,0.0,0.0,
4.728115000000005,0.0,0.0,-4278.0,3.125,217.5,734.173253774643,0.0,0.375,3.3105465360000004,2.4661254999999977,0.0,10350.0,7.75,-165.0,-734.173253774643,0.0,0.25,3.0505367970000004,2.481884999999998,0.0,-2993.0,4.0,135.0,734.173253774643,0.0,0.125,0.9106444380000001,2.4702000000000024,0.0,10523.0,3.625,112.5,734.173253774643,0.0,0.25,1.6333006140000002,0.01,0.0,-0.47999998927116394,-0.8199999928474426,-40.90999984741211,-0.12554931640625,-0.03173828125,0.89349365234375,37.2599983215332,0.0,-69.0,-1.6321563720703125,-0.572967529296875,Closing,0.0,0.0,-1.0,0.0,0.0,0.0,0.0,0.0,
4.795942999999999,0.0,0.0,-4238.0,1.625,262.5,416.69290244579315,0.0,0.25,3.2727047430000002,2.4661254999999977,0.0,10350.0,5.0,-195.0,-416.69290244579315,0.0,0.25,3.0017086770000003,2.481884999999998,0.0,-2993.0,3.125,232.5,416.69290244579315,0.0,0.125,0.838622961,2.4702000000000024,0.0,10523.0,2.625,210.0,416.69290244579315,0.0,0.125,1.5808103850000002,0.01,0.0,-0.23999999463558197,-1.1100000143051147,-40.790000915527344,0.01708984375,0.08721923828125,0.8675537109375,37.2599983215332,0.0,-33.0,-1.6372222900390625,-0.5776214599609375,Closing,0.0,0.0,-1.0,0.0,0.0,0.0,0.0,0.0,
4.860832999999999,0.0,0.0,-4238.0,0.875,330.0,416.69290244579315,0.0,0.125,3.2678219310000003,2.4661254999999977,0.0,10300.0,2.875,-322.5,-416.69290244579315,0.0,0.125,2.991943053,2.481884999999998,0.0,-2947.0,2.0,292.5,416.69290244579315,0.0,0.0,0.837402258,2.4702000000000024,0.0,10562.0,2.0,225.0,416.69290244579315,0.0,0.25,1.549072107,0.01,0.0,-0.12999999523162842,-1.2200000286102295,-40.84000015258789,-0.00390625,-0.00439453125,0.91009521484375,37.2599983215332,0.0,13.0,-1.648895263671875,-0.5818328857421875,Closing,0.0,0.0,-1.0,0.0,0.0,0.0,0.0,0.0,
4.923883000000002,0.0,0.0,-4178.0,0.5,382.5,416.69290244579315,0.0,0.125,3.2678219310000003,2.4661254999999977,0.0,10300.0,2.125,-382.5,-416.69290244579315,0.0,0.0,2.991943053,2.481884999999998,0.0,-2947.0,1.5,375.0,416.69290244579315,0.0,0.0,0.836181555,2.4702000000000024,0.0,10614.0,2.0,232.5,416.69290244579315,0.0,0.25,1.541747889,0.01,0.0,-0.1599999964237213,-1.2400000095367432,-40.65999984741211,-0.01385498046875,-0.00531005859375,0.87835693359375,37.2599983215332,0.0,5.0,-1.65625,-0.58184814453125,Closing,0.0,0.0,-1.0,0.0,0.0,0.0,0.0,0.0,
4.985900999999998,0.0,0.0,-4178.0,0.5,427.5,416.69290244579315,0.0,0.125,3.2690426340000003,2.4661254999999977,0.0,10238.0,2.0,-382.5,-416.69290244579315,0.0,0.0,2.991943053,2.481884999999998,0.0,-2884.0,1.5,397.5,416.69290244579315,0.0,0.0,0.839843664,2.4702000000000024,0.0,10614.0,1.125,457.5,416.69290244579315,0.0,0.25,1.569824058,0.01,0.0,-0.12999999523162842,-1.2899999618530273,-40.459999084472656,-0.09014892578125,0.00653076171875,0.881103515625,37.27000045776367,0.0,-59.0,-1.656341552734375,-0.582000732421875,Closing,0.0,0.0,-1.0,0.0,0.0,0.0,0.0,0.0,
5.063471000000005,0.0,0.0,-4109.0,0.375,435.0,416.69290244579315,0.0,0.125,3.2580563070000004,2.4661254999999977,0.0,10171.0,1.875,-412.5,-416.69290244579315,0.0,0.0,2.991943053,2.481884999999998,0.0,-2815.0,1.375,420.0,416.69290244579315,0.0,0.0,0.849609288,2.4702000000000024,0.0,10676.0,1.25,390.0,416.69290244579315,0.0,0.25,1.6027830390000002,0.01,0.0,-0.17000000178813934,-1.2999999523162842,-40.349998474121094,-0.02728271484375,-0.0433349609375,0.98333740234375,37.27000045776367,0.0,22.0,-1.65643310546875,-0.5828857421875,Closing,0.0,0.0,-1.0,0.0,0.0,0.0,0.0,0.0,
5.134627999999997,0.0,0.0,-4039.0,0.375,435.0,416.69290244579315,0.0,0.125,3.2580563070000004,2.4661254999999977,0.0,10171.0,1.75,-420.0,-416.69290244579315,0.0,0.0,2.991943053,2.481884999999998,0.0,-2815.0,1.375,420.0,416.69290244579315,0.0,0.0,0.848388585,2.4702000000000024,0.0,10676.0,1.25,307.5,416.69290244579315,0.0,0.25,1.613769366,0.01,0.0,-0.17000000178813934,-1.2300000190734863,-40.2599983215332,0.0213623046875,0.00848388671875,1.0274658203125,37.27000045776367,0.0,25.0,-1.6561279296875,-0.5831298828125,Closing,0.0,0.0,-1.0,0.0,0.0,0.0,0.0,0.0,
5.198396999999997,0.0,0.0,-4039.0,0.375,420.0,416.69290244579315,0.0,0.125,3.2580563070000004,2.4661254999999977,0.0,10102.0,1.625,-427.5,-416.69290244579315,0.0,0.0,2.99072235,2.481884999999998,0.0,-2748.0,1.125,420.0,416.69290244579315,0.0,0.0,0.850829991,2.4702000000000024,0.0,10747.0,1.125,457.5,416.69290244579315,0.0,0.125,1.613769366,0.01,0.0,-0.12999999523162842,-1.2100000381469727,-40.25,-0.0306396484375,-0.0157470703125,1.1258544921875,37.27000045776367,0.0,3.0,-1.6558074951171875,-0.5830535888671875,Closing,0.0,0.0,-1.0,0.0,0.0,0.0,0.0,0.0,
5.261589999999996,0.0,0.0,-3970.0,0.375,427.5,416.69290244579315,0.0,0.125,3.2580563070000004,2.4661254999999977,0.0,10102.0,1.5,-442.5,-416.69290244579315,0.0,0.0,2.991943053,2.481884999999998,0.0,-2748.0,1.125,420.0,416.69290244579315,0.0,0.0,0.849609288,2.4702000000000024,0.0,10747.0,0.75,487.5,416.69290244579315,0.0,0.125,1.613769366,0.01,0.0,-0.14000000059604645,-1.1299999952316284,-40.2400016784668,-4.8828125E-4,0.03302001953125,1.10455322265625,37.27000045776367,0.0,-6.0,-1.6554718017578125,-0.5828094482421875,Closing,0.0,0.0,-1.0,0.0,0.0,0.0,0.0,0.0,
5.331414000000004,0.0,0.0,-3970.0,0.375,427.5,416.69290244579315,0.0,0.125,3.2580563070000004,2.4661254999999977,0.0,10030.0,1.25,-442.5,-416.69290244579315,0.0,0.0,2.991943053,2.481884999999998,0.0,-2680.0,0.875,420.0,416.69290244579315,0.0,0.0,0.852050694,2.4702000000000024,0.0,10817.0,1.125,397.5,416.69290244579315,0.0,0.125,1.613769366,0.01,0.0,-0.12999999523162842,-1.1200000047683716,-40.189998626708984,-0.06292724609375,-0.0338134765625,1.15350341796875,37.27000045776367,0.0,-10.0,-1.65545654296875,-0.5826416015625,Closing,0.0,0.0,-1.0,0.0,0.0,0.0,0.0,0.0,
5.394680999999997,0.0,0.0,-3898.0,0.375,442.5,416.69290244579315,0.0,0.125,3.2592770100000004,2.4661254999999977,0.0,10030.0,1.25,-442.5,-416.69290244579315,0.0,0.0,2.99072235,2.481884999999998,0.0,-2680.0,1.125,427.5,416.69290244579315,0.0,0.0,0.849609288,2.4702000000000024,0.0,10817.0,0.875,397.5,416.69290244579315,0.0,0.125,1.616210772,0.01,0.0,-0.15000000596046448,-1.059999942779541,-40.16999816894531,0.0107421875,0.04852294921875,1.1199951171875,37.27000045776367,0.0,-9.0,-1.654876708984375,-0.5826873779296875,Closing,0.0,0.0,-1.0,0.0,0.0,0.0,0.0,0.0,
5.4614450000000065,0.0,0.0,-3898.0,0.375,435.0,416.69290244579315,0.0,0.125,3.249511386,2.4661254999999977,0.0,9959.0,1.125,-442.5,-416.69290244579315,0.0,0.0,2.991943053,2.481884999999998,0.0,-2610.0,0.875,427.5,416.69290244579315,0.0,0.0,0.849609288,2.4702000000000024,0.0,10886.0,0.875,457.5,416.69290244579315,0.0,0.125,1.613769366,0.01,0.0,-0.15000000596046448,-0.9900000095367432,-40.18000030517578,-0.0179443359375,-0.07257080078125,1.11407470703125,37.27000045776367,0.0,45.0,-1.65399169921875,-0.582122802734375,Closing,0.0,0.0,-1.0,0.0,0.0,0.0,0.0,0.0,
5.531301999999996,0.0,0.0,-3830.0,0.375,435.0,416.69290244579315,0.0,0.125,3.2580563070000004,2.4661254999999977,0.0,9959.0,1.125,-435.0,-416.69290244579315,0.0,0.0,2.993163756,2.481884999999998,0.0,-2610.0,1.125,427.5,416.69290244579315,0.0,0.0,0.849609288,2.4702000000000024,0.0,10954.0,0.75,427.5,416.69290244579315,0.0,0.125,1.613769366,0.01,0.0,-0.20000000298023224,-0.949999988079071,-40.11000061035156,-0.00567626953125,0.0186767578125,1.12164306640625,37.279998779296875,0.0,-4.0,-1.65277099609375,-0.5823211669921875,Closing,0.0,0.0,-1.0,0.0,0.0,0.0,0.0,0.0,
5.597319000000003,0.0,0.0,-3830.0,0.125,450.0,416.69290244579315,0.0,0.125,3.2580563070000004,2.4661254999999977,0.0,9889.0,1.125,-427.5,-416.69290244579315,0.0,0.0,2.987060241,2.481884999999998,0.0,-2541.0,0.875,427.5,416.69290244579315,0.0,0.0,0.849609288,2.4702000000000024,0.0,10954.0,0.875,412.5,416.69290244579315,0.0,0.125,1.613769366,0.01,0.0,-0.14000000059604645,-0.8899999856948853,-40.099998474121094,-0.03546142578125,-0.0357666015625,1.09716796875,37.279998779296875,0.0,7.0,-1.650970458984375,-0.58251953125,Closing,0.0,0.0,-1.0,0.0,0.0,0.0,0.0,0.0,
5.649009000000006,0.0,0.0,-3760.0,0.375,435.0,595.2756071090697,0.0,0.125,3.2568356040000004,2.4661254999999977,0.0,9889.0,1.75,-435.0,-595.2756071090697,0.0,0.0,2.991943053,2.481884999999998,0.0,-2474.0,1.75,412.5,595.2756071090697,0.0,0.0,0.849609288,2.4702000000000024,0.0,11024.0,1.25,420.0,595.2756071090697,0.0,0.125,1.613769366,0.01,0.0,-0.17000000178813934,-0.8999999761581421,-40.06999969482422,-0.03497314453125,0.00421142578125,1.0589599609375,37.279998779296875,0.0,-18.0,-1.6497039794921875,-0.5830535888671875,Closing,0.0,0.0,-1.0,0.0,0.0,0.0,0.0,0.0,
5.731138999999995,0.0,0.0,-3686.0,0.75,427.5,595.2756071090697,0.0,0.125,3.2580563070000004,2.4661254999999977,0.0,9817.0,2.875,-457.5,-595.2756071090697,0.0,0.0,2.987060241,2.481884999999998,0.0,-2474.0,2.125,427.5,595.2756071090697,0.0,0.0,0.849609288,2.4702000000000024,0.0,11024.0,1.25,547.5,595.2756071090697,0.0,0.125,1.6052244450000002,0.01,0.0,-0.14000000059604645,-0.9300000071525574,-40.04999923706055,-0.09613037109375,0.02044677734375,1.06732177734375,37.279998779296875,0.0,-75.0,-1.649139404296875,-0.58392333984375,Closing,0.0,0.0,-1.0,0.0,0.0,0.0,0.0,0.0,
5.793919999999998,0.0,0.0,-3686.0,1.125,472.5,615.1181173324585,0.0,0.125,3.2580563070000004,2.4661254999999977,0.0,9735.0,2.75,-487.5,-615.1181173324585,0.0,0.0,2.991943053,2.481884999999998,0.0,-2400.0,2.5,450.0,615.1181173324585,0.0,0.0,0.849609288,2.4702000000000024,0.0,11114.0,1.5,540.0,615.1181173324585,0.0,0.125,1.614990069,0.01,0.0,-0.09000000357627869,-1.100000023841858,-40.119998931884766,-0.04876708984375,0.07171630859375,1.129638671875,37.279998779296875,0.0,-68.0,-1.6494598388671875,-0.586395263671875,Closing,0.0,0.0,-1.0,0.0,0.0,0.0,0.0,0.0,
5.860111000000004,0.0,0.0,-3604.0,0.875,495.0,615.1181173324585,0.0,0.125,3.2629391190000003,2.4661254999999977,0.0,9735.0,2.625,-547.5,-615.1181173324585,0.0,0.0,2.987060241,2.481884999999998,0.0,-2400.0,2.25,495.0,615.1181173324585,0.0,0.0,0.8435057730000001,2.4702000000000024,0.0,11114.0,1.625,465.0,615.1181173324585,0.0,0.125,1.614990069,0.01,0.0,-0.07000000029802322,-1.1399999856948853,-40.099998474121094,-0.0537109375,0.038818359375,1.2840576171875,37.279998779296875,0.0,-47.0,-1.650665283203125,-0.5884246826171875,Closing,0.0,0.0,-1.0,0.0,0.0,0.0,0.0,0.0,
5.914197,0.0,0.0,-3604.0,0.875,532.5,615.1181173324585,0.0,0.125,3.251952792,2.4661254999999977,0.0,9643.0,2.5,-570.0,-615.1181173324585,0.0,0.0,2.991943053,2.481884999999998,0.0,-2313.0,2.375,532.5,615.1181173324585,0.0,0.0,0.8532713970000001,2.4702000000000024,0.0,11198.0,1.625,555.0,615.1181173324585,0.0,0.125,1.6088865540000001,0.01,0.0,-0.07999999821186066,-1.2100000381469727,-40.09000015258789,-0.02081298828125,0.01873779296875,1.29949951171875,37.279998779296875,0.0,-8.0,-1.652679443359375,-0.5908050537109375,Closing,0.0,0.0,-1.0,0.0,0.0,0.0,0.0,0.0,
5.990775000000009,0.0,0.0,-3513.0,0.875,562.5,615.1181173324585,0.0,0.125,3.2556149010000004,2.4661254999999977,0.0,9643.0,2.125,-592.5,-615.1181173324585,0.0,0.0,2.987060241,2.481884999999998,0.0,-2313.0,2.25,570.0,615.1181173324585,0.0,0.0,0.8435057730000001,2.4702000000000024,0.0,11291.0,1.5,592.5,615.1181173324585,0.0,0.25,1.6101072570000001,0.01,0.0,-0.09000000357627869,-1.350000023841858,-40.099998474121094,-0.104736328125,0.01849365234375,1.24786376953125,37.2599983215332,0.0,-70.0,-1.6559295654296875,-0.59375,Closing,0.0,0.0,-1.0,0.0,0.0,0.0,0.0,0.0,
6.062456000000005,0.0,0.0,-3513.0,0.5,577.5,377.00788199901575,0.0,0.125,3.225097326,2.4661254999999977,0.0,9545.0,1.375,-607.5,-377.00788199901575,0.0,0.0,2.987060241,2.481884999999998,0.0,-2217.0,1.125,615.0,377.00788199901575,0.0,0.0,0.849609288,2.4702000000000024,0.0,11291.0,1.125,570.0,377.00788199901575,0.0,0.25,1.6088865540000001,0.01,0.0,-0.05999999865889549,-1.2200000286102295,-40.029998779296875,-0.01751708984375,-0.08770751953125,1.19268798828125,37.2599983215332,0.0,61.0,-1.65875244140625,-0.595947265625,Closing,0.0,0.0,-1.0,0.0,0.0,0.0,0.0,0.0,
6.119523000000001,0.0,0.0,-3425.0,0.0,540.0,0.0,0.0,0.125,3.253173495,2.4661254999999977,0.0012207029999999897,9545.0,0.25,-532.5,0.0,0.0,0.0,2.987060241,2.481884999999998,-0.0012207029999999897,-2217.0,0.125,585.0,0.0,0.0,0.0,0.850829991,2.4702000000000024,0.0,11359.0,0.125,457.5,0.0,0.0,0.25,1.6088865540000001,0.01,0.0,-0.09000000357627869,-0.9700000286102295,-40.029998779296875,0.09765625,0.0201416015625,1.0740966796875,37.2599983215332,0.0,74.0,-1.6611328125,-0.5981597900390625,Closing,0.0,0.0,-1.0,0.0,0.0,0.0,0.0,0.0,
6.195972999999998,0.0,0.0,-3425.0,0.0,405.0,0.0,0.0,0.125,3.253173495,2.4661254999999977,-0.0012207029999999897,9471.0,0.0,-382.5,0.0,0.0,0.0,2.987060241,2.481884999999998,0.0012207029999999897,-2128.0,0.0,480.0,0.0,0.0,0.0,0.849609288,2.4702000000000024,0.0,11359.0,0.0,427.5,0.0,0.0,0.125,1.6088865540000001,0.01,0.003662109000000413,-0.05999999865889549,-0.5699999928474426,-39.9900016784668,0.0587158203125,0.12701416015625,1.02496337890625,37.2599983215332,0.0,-29.0,-1.66204833984375,-0.59783935546875,Closing,0.0,0.0,-1.0,0.0,0.0,0.0,0.0,0.0,
6.262714000000007,0.0,0.0,-3363.0,0.0,405.0,0.0,0.0,0.125,3.253173495,2.4661254999999977,0.0,9412.0,0.0,-367.5,0.0,0.0,0.0,2.987060241,2.481884999999998,0.0,-2078.0,0.0,315.0,0.0,0.0,0.0,0.850829991,2.4702000000000024,0.0,11431.0,0.0,427.5,0.0,0.0,0.25,1.6101072570000001,0.01,0.0,-0.09000000357627869,-0.27000001072883606,-40.06999969482422,0.042236328125,-0.05096435546875,0.85595703125,37.2599983215332,0.0,67.0,-1.661102294921875,-0.595184326171875,Closing,0.0,0.0,-1.0,0.0,0.0,0.0,0.0,0.0,
6.328884000000006,0.0,0.0,-3363.0,0.0,360.0,0.0,0.0,0.125,3.253173495,2.4661254999999977,0.0,9412.0,0.0,-375.0,0.0,0.0,0.0,2.987060241,2.481884999999998,0.0,-2078.0,0.0,322.5,0.0,0.0,0.0,0.850829991,2.4702000000000024,0.0,11431.0,0.0,330.0,0.0,0.0,0.25,1.6088865540000001,0.01,0.0,-0.09000000357627869,0.1599999964237213,-40.02000045776367,0.17694091796875,0.02996826171875,0.748046875,37.2599983215332,0.0,113.0,-1.6575469970703125,-0.589508056640625,Closing,0.0,0.0,-1.0,0.0,0.0,0.0,0.0,0.0,
6.3978059999999966,0.0,0.0,-3312.0,0.0,255.0,0.0,0.0,0.125,3.253173495,2.4661254999999977,0.0,9375.0,0.0,-262.5,0.0,0.0,0.0,2.987060241,2.481884999999998,0.0,-2036.0,0.0,247.5,0.0,0.0,0.0,0.849609288,2.4702000000000024,0.0,11473.0,0.0,255.0,0.0,0.0,0.25,1.6088865540000001,0.01,0.0,-0.10000000149011612,0.8500000238418579,-39.93000030517578,0.259033203125,-0.0042724609375,0.913818359375,37.2599983215332,0.0,189.0,-1.649505615234375,-0.579742431640625,Closing,0.0,0.0,-1.0,0.0,0.0,0.0,0.0,0.0,
6.462345000000001,0.0,0.0,-3297.0,0.0,135.0,0.0,0.0,0.125,3.253173495,2.4661254999999977,0.0,9375.0,0.0,-120.0,0.0,0.0,0.0,2.988280944,2.481884999999998,0.0,-2036.0,0.0,112.5,0.0,0.0,0.0,0.848388585,2.4702000000000024,0.0,11473.0,0.0,105.0,0.0,0.0,0.25,1.6088865540000001,0.01,0.0,-0.10000000149011612,1.309999942779541,-39.91999816894531,0.139404296875,0.008544921875,1.009765625,37.2599983215332,0.0,82.0,-1.63873291015625,-0.568603515625,Closing,0.0,0.0,-1.0,0.0,0.0,0.0,0.0,0.0,
6.530332000000009,0.0,0.0,-3297.0,0.0,15.0,0.0,0.0,0.125,3.251952792,2.4661254999999977,0.0,9374.0,0.0,-7.5,0.0,0.0,0.0,2.987060241,2.481884999999998,0.0,-2033.0,0.0,7.5,0.0,0.0,0.0,0.849609288,2.4702000000000024,0.0,11476.0,0.0,0.0,0.0,0.0,0.25,1.6101072570000001,0.01,0.0,-0.10000000149011612,1.3600000143051147,-40.029998779296875,-0.022216796875,-0.0135498046875,1.00286865234375,37.290000915527344,0.0,-27.0,-1.626556396484375,-0.5562591552734375,Closing,0.0,0.0,-1.0,0.0,0.0,0.0,0.0,0.0,
6.590126000000004,0.0,0.0,-3298.0,0.0,0.0,0.0,0.0,0.125,3.251952792,2.4661254999999977,0.0,9374.0,0.0,0.0,0.0,0.0,0.0,2.987060241,2.481884999999998,-0.0012207029999999897,-2033.0,0.0,-7.5,0.0,0.0,0.0,0.849609288,2.4702000000000024,0.0,11476.0,0.0,0.0,0.0,0.0,0.25,1.613769366,0.01,0.0,-0.10000000149011612,1.0499999523162842,-40.029998779296875,-0.13458251953125,0.04327392578125,1.0126953125,37.290000915527344,0.0,-146.0,-1.6125946044921875,-0.5418548583984375,Closing,0.0,0.0,-1.0,0.0,0.0,0.0,0.0,0.0,
6.659356,0.0,0.0,-3298.0,3.375,-30.0,-1527.874038219452,0.0,4.75,3.1579586610000003,1.2330627499999984,0.0,9380.0,4.25,30.0,1527.874038219452,0.0,7.75,2.81982393,1.2409424999999985,0.0,-2039.0,5.375,-52.5,-1527.874038219452,0.0,4.875,0.7226561760000001,1.2350999999999985,0.0,11474.0,4.125,-90.0,-1527.874038219452,0.0,6.0,1.495361175,3.7184999999999984,0.0,-0.15000000596046448,0.8799999952316284,-40.040000915527344,0.45623779296875,0.14959716796875,1.12017822265625,37.290000915527344,0.0,237.0,-1.603668212890625,-0.53155517578125,Closing,0.0,0.0,-1.0,0.0,0.0,0.0,0.0,0.0,
6.727592000000004,0.0,0.0,-3355.0,6.875,-420.0,-1448.5039973258972,0.0,1.25,2.733154017,1.2330627499999984,0.0,9380.0,14.875,517.5,1448.5039973258972,0.0,1.125,2.369384523,1.2409424999999985,0.0,-2039.0,15.875,-172.5,-1448.5039973258972,0.0,2.0,0.31005856200000004,1.2350999999999985,0.0,11420.0,8.0,-307.5,-1448.5039973258972,0.0,1.5,1.0339354410000001,3.7184999999999984,0.0,-0.4300000071525574,1.9900000095367432,-40.06999969482422,0.33270263671875,-0.27203369140625,0.8846435546875,37.290000915527344,0.0,401.0,-1.58837890625,-0.51837158203125,Closing,0.0,0.0,-1.0,0.0,0.0,0.0,0.0,0.0,
6.795241000000009,0.0,0.0,-3355.0,2.5,-450.0,0.0,0.0,1.125,2.252197035,1.2330627499999984,-0.469970655,9479.0,6.25,495.0,0.0,0.0,1.5,1.9250486310000001,1.2409424999999985,-0.4785155760000004,-2081.0,7.75,-300.0,0.0,0.0,1.25,4.846190910000001,1.2350999999999985,-0.44433589200000023,11420.0,2.625,-322.5,0.0,0.0,1.0,0.57373041,3.7184999999999984,-0.4663085460000005,-1.25,1.6299999952316284,-40.27000045776367,-0.47418212890625,-0.1136474609375,0.7965087890625,37.290000915527344,0.0,-316.0,-1.56060791015625,-0.506439208984375,Closing,0.0,0.0,-1.0,0.0,0.0,0.0,0.0,0.0,
6.862005000000004,0.0,0.0,-3395.0,0.0,-187.5,0.0,0.0,0.25,2.0080564350000003,1.2330627499999984,-0.4370116740000003,9519.0,0.0,270.0,0.0,0.0,0.25,1.694335764,1.2409424999999985,-0.41748042599999957,-2134.0,0.0,-345.0,0.0,0.0,0.125,4.627685073,1.2350999999999985,0.0,11385.0,0.0,-195.0,0.0,0.0,0.125,0.34301754300000004,3.7184999999999984,0.0,-0.9200000166893005,0.3100000023841858,-40.41999816894531,-0.362548828125,0.1439208984375,0.96875,37.290000915527344,0.0,-383.0,-1.5442962646484375,-0.504180908203125,Closing,0.0,0.0,-1.0,0.0,0.0,0.0,0.0,0.0,
6.929705000000002,0.0,0.0,-3395.0,0.0,-172.5,0.0,0.0,0.25,1.937255661,1.2330627499999984,-0.20385740100000005,9519.0,0.0,300.0,0.0,0.0,0.25,1.665038892,1.2409424999999985,0.0,-2134.0,0.0,-247.5,0.0,0.0,0.125,4.506835476,1.2350999999999985,-0.22094724300000035,11385.0,0.0,-195.0,0.0,0.0,0.25,0.25146481800000003,3.7184999999999984,-0.22460935200000032,-0.5,0.2199999988079071,-40.38999938964844,0.0057373046875,0.1429443359375,1.1234130859375,37.290000915527344,0.0,-98.0,-1.5319976806640625,-0.50238037109375,Closing,0.0,0.0,-1.0,0.0,0.0,0.0,0.0,0.0,
6.994076000000001,0.0,0.0,-3434.0,0.0,-247.5,0.0,0.0,0.375,1.938476364,1.2330627499999984,-0.07202147699999983,9545.0,0.0,180.0,0.0,0.0,0.25,1.6894529520000001,1.2409424999999985,-0.015869138999999866,-2167.0,0.0,-202.5,0.0,0.0,0.0,4.490966337000001,1.2350999999999985,-0.12817381499999936,11354.0,0.0,-187.5,0.0,0.0,0.25,0.266113254,3.7184999999999984,-0.09277342799999966,-0.17000000178813934,0.25,-40.4900016784668,-0.07366943359375,0.143310546875,1.197998046875,37.290000915527344,0.0,-155.0,-1.5212249755859375,-0.4975738525390625,Closing,0.0,0.0,-1.0,0.0,0.0,0.0,0.0,0.0,
7.059668000000005,0.0,0.0,-3445.0,0.0,-90.0,0.0,0.0,0.25,1.9665525330000002,1.2330627499999984,0.007324217999999938,9545.0,0.0,90.0,0.0,0.0,0.25,1.693115061,1.2409424999999985,0.01953124800000028,-2167.0,0.0,-135.0,0.0,0.0,0.0,4.509276882,1.2350999999999985,-0.004882811999999959,11354.0,0.0,-127.5,0.0,0.0,0.25,0.275878878,3.7184999999999984,0.014648435999999876,0.05999999865889549,0.23000000417232513,-40.459999084472656,0.0357666015625,0.144287109375,1.23431396484375,37.27000045776367,0.0,-69.0,-1.5145263671875,-0.4926605224609375,Closing,0.0,0.0,-1.0,0.0,0.0,0.0,0.0,0.0,
7.1217609999999985,0.0,0.0,-3445.0,0.0,-60.0,0.0,0.0,0.25,1.9958494050000002,1.2330627499999984,0.0,9556.0,0.0,67.5,0.0,0.0,0.25,1.697997873,1.2409424999999985,0.0,-2175.0,0.0,-52.5,0.0,0.0,0.0,4.531249536000001,1.2350999999999985,0.019531247999999835,11344.0,0.0,-45.0,0.0,0.0,0.25,0.318603483,3.7184999999999984,0.009765623999999917,0.25999999046325684,0.3199999928474426,-40.45000076293945,-0.0386962890625,0.08209228515625,1.0618896484375,37.27000045776367,0.0,-84.0,-1.5086822509765625,-0.4859466552734375,Closing,0.0,0.0,-1.0,0.0,0.0,0.0,0.0,0.0,
7.1853669999999985,0.0,0.0,-3447.0,0.0,-22.5,0.0,0.0,0.25,2.0104978410000003,1.2330627499999984,0.029296871999999974,9556.0,0.0,7.5,0.0,0.0,0.0,1.700439279,1.2409424999999985,0.004882811999999959,-2175.0,0.0,-7.5,0.0,0.0,0.0,4.5507807840000005,1.2350999999999985,0.019531247999999835,11344.0,0.0,-7.5,0.0,0.0,0.25,0.347900355,3.7184999999999984,0.04272460500000008,0.28999999165534973,0.25999999046325684,-40.459999084472656,0.02117919921875,0.00244140625,0.87213134765625,37.27000045776367,0.0,14.0,-1.5037994384765625,-0.4806671142578125,Closing,0.0,0.0,-1.0,0.0,0.0,0.0,0.0,0.0,
7.249847000000009,0.0,0.0,-3447.0,0.0,0.0,-238.1102353334427,0.0,0.25,2.0092771380000003,1.2330627499999984,0.0,9557.0,0.125,7.5,238.1102353334427,0.0,0.25,1.7126463090000001,1.2409424999999985,0.0,-2175.0,0.125,-7.5,-238.1102353334427,0.0,0.0,4.549560081,1.2350999999999985,0.0,11343.0,0.125,0.0,-238.1102353334427,0.0,0.25,0.346679652,3.7184999999999984,0.0,0.20999999344348907,0.23999999463558197,-40.47999954223633,-0.01934814453125,-0.00244140625,0.9417724609375,37.27000045776367,0.0,-13.0,-1.50372314453125,-0.4807891845703125,Closing,0.0,0.0,-1.0,0.0,0.0,0.0,0.0,0.0,
7.329509000000005,0.0,0.0,-3449.0,3.75,-30.0,-1309.6062755584717,0.0,0.25,2.025146277,1.2330627499999984,0.0,9557.0,9.75,180.0,1309.6062755584717,0.0,0.25,1.717529121,1.2409424999999985,0.0,-2175.0,4.875,-60.0,-1309.6062755584717,0.0,0.0,4.584960468,1.2350999999999985,0.0,11321.0,3.875,-60.0,-1309.6062755584717,0.0,0.25,0.357665979,3.7184999999999984,0.0,-0.17000000178813934,0.18000000715255737,-40.380001068115234,-0.18927001953125,-0.98956298828125,0.90985107421875,37.27000045776367,0.0,492.0,-1.5031890869140625,-0.482391357421875,Closing,0.0,0.0,-1.0,0.0,0.0,0.0,0.0,0.0,
7.394486000000004,0.0,0.0,-3449.0,3.375,-307.5,-158.7401568889618,0.0,0.125,2.0141599500000003,1.2330627499999984,0.0,9594.0,5.75,247.5,158.7401568889618,0.0,0.25,1.7126463090000001,1.2409424999999985,0.0,-2196.0,4.375,-187.5,-158.7401568889618,0.0,0.0,4.593505389000001,1.2350999999999985,0.0,11321.0,1.875,-240.0,-158.7401568889618,0.0,0.25,0.380859336,3.7184999999999984,0.0,-0.6700000166893005,0.27000001072883606,-40.2599983215332,0.1883544921875,0.09405517578125,0.89501953125,37.27000045776367,0.0,72.0,-1.4976959228515625,-0.4916534423828125,Closing,0.0,0.0,-1.0,0.0,0.0,0.0,0.0,0.0,
7.529578000000009,0.0,0.0,-3520.0,0.0,-82.5,0.0,0.0,0.25,2.025146277,1.2330627499999984,0.0,9625.0,0.0,142.5,0.0,0.0,0.25,1.7138670120000001,1.2409424999999985,0.0,-2233.0,0.0,-180.0,0.0,0.0,0.0,4.593505389000001,1.2350999999999985,0.0,11298.0,0.0,-187.5,0.0,0.0,0.125,0.39062496,3.7184999999999984,0.0,-0.25,0.14000000059604645,-40.5099983215332,0.0911865234375,0.2967529296875,0.75103759765625,37.22999954223633,0.0,-127.0,-1.4882659912109375,-0.5083465576171875,Closing,0.0,0.0,-1.0,0.0,0.0,0.0,0.0,0.0,
