Time,ClimberA1,ClimberA2,FRpos,FRCurrent,FRspeed,FRsetpoint,FRApos,FRACurrent,FREncpos,FREncSetpoint,FREncSpeed,FLpos,FLCurrent,FLspeed,FLsetpoint,FLApos,FLACurrent,FLEncpos,FLEncSetpoint,FLEncSpeed,BRpos,BRCurrent,BRspeed,BRsetpoint,BRApos,BRACurrent,BREncpos,BREncSetpoint,BREncSpeed,BLpos,BLCurrent,BLspeed,BLsetpoint,BLApos,BLACurrent,BLEncpos,BLEncSetpoint,BLEncSpeed,navx_Pitch,navx_Roll,navx_Yaw,navx_XAcc,navx_YAcc,navx_ZAcc,navx_Temp,navx_Bar,navx_Alt,navx_XDis,navx_YDis,GearPlacerState,ShootOutputV,ShootOutputCurrent,ShootEncPos,ShootEncVelocity,ShootSpeed,ShootSetpoint,CarouselSetpoint,CarouselCurrent,
0.12914099999994505,0.0,0.0,-2425.0,0.0,0.0,0.0,0.0,0.0,0.8300780400000001,0.01,0.0,9708.0,0.0,0.0,-0.0,0.0,0.0,0.531005805,0.01,0.0,-1706.0,0.0,0.0,0.0,0.0,0.125,3.389892231,0.01,0.0,10434.0,0.0,0.0,-0.0,0.0,0.125,1.668701001,0.01,0.0,0.4099999964237213,-0.4099999964237213,0.0,-0.00579833984375,0.00543212890625,1.02679443359375,27.350000381469727,0.0,1.0,0.24005126953125,0.140045166015625,Waiting,0.0,0.0,-2.0,0.0,0.0,0.0,0.0,0.0,
0.18452700000000186,0.0,0.0,-2425.0,0.0,0.0,0.0,0.0,0.0,0.8300780400000001,0.01,0.0012207029999999897,9708.0,0.0,0.0,-0.0,0.0,0.0,0.5297851020000001,0.01,0.0,-1706.0,0.0,0.0,0.0,0.0,0.125,3.389892231,0.01,0.0,10434.0,0.0,0.0,-0.0,0.0,0.125,1.668701001,0.01,0.0,0.4099999964237213,-0.4099999964237213,0.0,-0.00579833984375,0.00787353515625,1.02545166015625,27.350000381469727,0.0,1.0,0.24005126953125,0.140045166015625,Waiting,0.0,0.0,-2.0,0.0,0.0,0.0,0.0,0.0,
0.2327589999999618,0.0,0.0,-2425.0,0.0,0.0,0.0,0.0,0.0,0.8300780400000001,0.01,0.0,9708.0,0.0,0.0,-0.0,0.0,0.0,0.531005805,0.01,0.0,-1706.0,0.0,0.0,0.0,0.0,0.125,3.391112934,0.01,0.0,10434.0,0.0,0.0,-0.0,0.0,0.125,1.667480298,0.01,0.0,0.4099999964237213,-0.4099999964237213,0.0,-0.00555419921875,0.0068359375,1.028564453125,27.350000381469727,0.0,1.0,0.24005126953125,0.140045166015625,Waiting,0.0,0.0,-2.0,0.0,0.0,0.0,0.0,0.0,
0.2863629999999539,0.0,0.0,-2425.0,0.0,0.0,0.0,0.0,0.0,0.8300780400000001,0.01,-0.0012207029999999897,9708.0,0.0,0.0,-0.0,0.0,0.0,0.5297851020000001,0.01,0.0,-1706.0,0.0,0.0,0.0,0.0,0.125,3.391112934,0.01,0.0,10434.0,0.0,0.0,-0.0,0.0,0.125,1.667480298,0.01,0.0,0.4099999964237213,-0.4099999964237213,0.0,-0.00726318359375,0.00958251953125,1.02557373046875,27.350000381469727,0.0,0.0,0.24005126953125,0.140045166015625,Waiting,0.0,0.0,-2.0,0.0,0.0,0.0,0.0,0.0,
0.3360059999999939,0.0,0.0,-2425.0,0.0,0.0,0.0,0.0,0.0,0.8300780400000001,0.01,0.0,9708.0,0.0,0.0,-0.0,0.0,0.0,0.5297851020000001,0.01,0.0,-1706.0,0.0,0.0,0.0,0.0,0.125,3.391112934,0.01,0.0,10434.0,0.0,0.0,-0.0,0.0,0.125,1.667480298,0.01,0.0,0.4099999964237213,-0.4099999964237213,0.0,-0.0059814453125,0.00811767578125,1.02508544921875,27.350000381469727,0.0,1.0,0.24005126953125,0.140045166015625,Waiting,0.0,0.0,-2.0,0.0,0.0,0.0,0.0,0.0,
0.3889199999999837,0.0,0.0,-2425.0,0.0,0.0,0.0,0.0,0.0,0.8300780400000001,0.01,0.0,9708.0,0.0,0.0,-0.0,0.0,0.0,0.5297851020000001,0.01,0.0,-1706.0,0.0,0.0,0.0,0.0,0.125,3.391112934,0.01,0.0,10434.0,0.0,0.0,-0.0,0.0,0.125,1.666259595,0.01,0.0,0.4099999964237213,-0.4099999964237213,0.0,-0.00640869140625,0.0093994140625,1.02752685546875,27.350000381469727,0.0,1.0,0.24005126953125,0.140045166015625,Waiting,0.0,0.0,-2.0,0.0,0.0,0.0,0.0,0.0,
0.43641199999995295,0.0,0.0,-2425.0,0.0,0.0,0.0,0.0,0.0,0.8300780400000001,0.01,0.0,9708.0,0.0,0.0,-0.0,0.0,0.0,0.5297851020000001,0.01,0.0,-1706.0,0.0,0.0,0.0,0.0,0.125,3.389892231,0.01,0.0,10434.0,0.0,0.0,-0.0,0.0,0.125,1.667480298,0.01,0.0,0.4099999964237213,-0.4099999964237213,0.0,-0.00518798828125,0.01104736328125,1.02880859375,27.329999923706055,0.0,2.0,0.24005126953125,0.140045166015625,Waiting,0.0,0.0,-2.0,0.0,0.0,0.0,0.0,0.0,
0.48944399999995947,0.0,0.0,-2425.0,0.0,0.0,0.0,0.0,0.0,0.8300780400000001,0.01,0.0,9708.0,0.0,0.0,-0.0,0.0,0.0,0.531005805,0.01,0.0,-1706.0,0.0,0.0,0.0,0.0,0.125,3.391112934,0.01,0.0,10434.0,0.0,0.0,-0.0,0.0,0.125,1.667480298,0.01,0.0,0.4099999964237213,-0.4099999964237213,0.0,-0.004638671875,0.00830078125,1.0234375,27.329999923706055,0.0,2.0,0.24005126953125,0.140045166015625,Waiting,0.0,0.0,-2.0,0.0,0.0,0.0,0.0,0.0,
0.5364319999999716,0.0,0.0,-2425.0,0.0,0.0,0.0,0.0,0.0,0.8300780400000001,0.01,0.0,9708.0,0.0,0.0,-0.0,0.0,0.0,0.532226508,0.01,0.0,-1706.0,0.0,0.0,0.0,0.0,0.125,3.391112934,0.01,0.0,10434.0,0.0,0.0,-0.0,0.0,0.125,1.668701001,0.01,0.0,0.4099999964237213,-0.4099999964237213,0.0,-0.00946044921875,0.0067138671875,1.02752685546875,27.329999923706055,0.0,-1.0,0.24005126953125,0.140045166015625,Waiting,0.0,0.0,-2.0,0.0,0.0,0.0,0.0,0.0,
0.5899189999999944,0.0,0.0,-2425.0,0.0,0.0,0.0,0.0,0.0,0.8288573370000001,0.01,0.0012207029999999897,9708.0,0.0,0.0,-0.0,0.0,0.0,0.531005805,0.01,0.0,-1706.0,0.0,0.0,0.0,0.0,0.125,3.391112934,0.01,0.0,10434.0,0.0,0.0,-0.0,0.0,0.125,1.667480298,0.01,0.0,0.4099999964237213,-0.41999998688697815,0.0,-0.00897216796875,0.00927734375,1.02740478515625,27.329999923706055,0.0,-1.0,0.24005126953125,0.140045166015625,Waiting,0.0,0.0,-2.0,0.0,0.0,0.0,0.0,0.0,
0.638667999999947,0.0,0.0,-2425.0,0.0,0.0,0.0,0.0,0.0,0.8300780400000001,0.01,-0.0012207029999999897,9708.0,0.0,0.0,-0.0,0.0,0.0,0.5297851020000001,0.01,0.0,-1706.0,0.0,0.0,0.0,0.0,0.0,3.389892231,0.01,0.0,10434.0,0.0,0.0,-0.0,0.0,0.125,1.667480298,0.01,0.0,0.4099999964237213,-0.41999998688697815,0.0,-0.0059814453125,0.0054931640625,1.02691650390625,27.329999923706055,0.0,1.0,0.24005126953125,0.140045166015625,Waiting,0.0,0.0,-2.0,0.0,0.0,0.0,0.0,0.0,
0.6899489999999642,0.0,0.0,-2425.0,0.0,0.0,0.0,0.0,0.0,0.8300780400000001,0.01,0.0,9708.0,0.0,0.0,-0.0,0.0,0.0,0.5297851020000001,0.01,0.0,-1706.0,0.0,0.0,0.0,0.0,0.0,3.391112934,0.01,0.0,10434.0,0.0,0.0,-0.0,0.0,0.125,1.667480298,0.01,0.0,0.4099999964237213,-0.41999998688697815,0.0,-0.0067138671875,0.0086669921875,1.02374267578125,27.329999923706055,0.0,0.0,0.24005126953125,0.140045166015625,Waiting,0.0,0.0,-2.0,0.0,0.0,0.0,0.0,0.0,
0.7382049999999581,0.0,0.0,-2425.0,0.0,0.0,0.0,0.0,0.0,0.8288573370000001,0.01,0.0,9708.0,0.0,0.0,-0.0,0.0,0.0,0.5297851020000001,0.01,0.0,-1706.0,0.0,0.0,0.0,0.0,0.125,3.389892231,0.01,0.0,10434.0,0.0,0.0,-0.0,0.0,0.125,1.668701001,0.01,0.0,0.4099999964237213,-0.41999998688697815,0.0,-0.00848388671875,0.0045166015625,1.02685546875,27.329999923706055,0.0,0.0,0.24005126953125,0.140045166015625,Waiting,0.0,0.0,-2.0,0.0,0.0,0.0,0.0,0.0,
0.7910639999999548,0.0,0.0,-2425.0,0.0,0.0,0.0,0.0,0.0,0.8300780400000001,0.01,0.0,9708.0,0.0,0.0,-0.0,0.0,0.0,0.531005805,0.01,0.0,-1706.0,0.0,0.0,0.0,0.0,0.125,3.388671528,0.01,0.0,10434.0,0.0,0.0,-0.0,0.0,0.125,1.669921704,0.01,0.0,0.4099999964237213,-0.4099999964237213,0.0,-0.00738525390625,0.00775146484375,1.0294189453125,27.329999923706055,0.0,0.0,0.24005126953125,0.140045166015625,Waiting,0.0,0.0,-2.0,0.0,0.0,0.0,0.0,0.0,
0.8373260000000009,0.0,0.0,-2425.0,0.0,0.0,0.0,0.0,0.0,0.8300780400000001,0.01,0.0,9708.0,0.0,0.0,-0.0,0.0,0.0,0.531005805,0.01,0.0,-1706.0,0.0,0.0,0.0,0.0,0.125,3.389892231,0.01,0.0,10434.0,0.0,0.0,-0.0,0.0,0.125,1.667480298,0.01,0.0,0.4099999964237213,-0.4099999964237213,0.0,-0.00738525390625,0.00677490234375,1.0203857421875,27.329999923706055,0.0,0.0,0.24005126953125,0.140045166015625,Waiting,0.0,0.0,-2.0,0.0,0.0,0.0,0.0,0.0,
0.8927579999999725,0.0,0.0,-2425.0,0.0,0.0,0.0,0.0,0.0,0.8300780400000001,0.01,0.0,9708.0,0.0,0.0,-0.0,0.0,0.0,0.5297851020000001,0.01,0.0,-1706.0,0.0,0.0,0.0,0.0,0.0,3.391112934,0.01,0.0,10434.0,0.0,0.0,-0.0,0.0,0.125,1.668701001,0.01,0.0,0.4099999964237213,-0.4000000059604645,0.0,-0.008056640625,0.00848388671875,1.0286865234375,27.329999923706055,0.0,0.0,0.24005126953125,0.140045166015625,Waiting,0.0,0.0,-2.0,0.0,0.0,0.0,0.0,0.0,
0.9479219999999623,0.0,0.0,-2425.0,0.0,0.0,0.0,0.0,0.0,0.8300780400000001,0.01,0.0,9708.0,0.0,0.0,-0.0,0.0,0.0,0.5297851020000001,0.01,0.0,-1706.0,0.0,0.0,0.0,0.0,0.125,3.391112934,0.01,0.0,10434.0,0.0,0.0,-0.0,0.0,0.125,1.667480298,0.01,0.0,0.4099999964237213,-0.4000000059604645,0.0,-0.005859375,0.0054931640625,1.02777099609375,27.3700008392334,0.0,1.0,0.24005126953125,0.140045166015625,Waiting,0.0,0.0,-2.0,0.0,0.0,0.0,0.0,0.0,
1.0052779999999912,0.0,0.0,-2425.0,0.0,0.0,0.0,0.0,0.0,0.8288573370000001,0.01,0.0,9708.0,0.0,0.0,-0.0,0.0,0.0,0.531005805,0.01,0.0,-1706.0,0.0,0.0,0.0,0.0,0.125,3.391112934,0.01,0.0,10434.0,0.0,0.0,-0.0,0.0,0.125,1.667480298,0.01,0.0,0.4099999964237213,-0.4000000059604645,0.0,-0.00714111328125,0.00885009765625,1.0316162109375,27.3700008392334,0.0,0.0,0.24005126953125,0.140045166015625,Waiting,0.0,0.0,-2.0,0.0,0.0,0.0,0.0,0.0,
1.058191999999981,0.0,0.0,-2425.0,0.0,0.0,0.0,0.0,0.0,0.8300780400000001,0.01,0.0,9708.0,0.0,0.0,-0.0,0.0,0.0,0.5297851020000001,0.01,0.0,-1706.0,0.0,0.0,0.0,0.0,0.125,3.389892231,0.01,0.0,10434.0,0.0,0.0,-0.0,0.0,0.125,1.668701001,0.01,0.0,0.4099999964237213,-0.4000000059604645,0.0,-0.0076904296875,0.0098876953125,1.0286865234375,27.3700008392334,0.0,0.0,0.24005126953125,0.140045166015625,Waiting,0.0,0.0,-2.0,0.0,0.0,0.0,0.0,0.0,
1.1136959999999962,0.0,0.0,-2425.0,0.0,0.0,0.0,0.0,0.0,0.8300780400000001,0.01,0.0,9708.0,0.0,0.0,-0.0,0.0,0.0,0.5297851020000001,0.01,0.0,-1706.0,0.0,0.0,0.0,0.0,0.125,3.391112934,0.01,0.0,10434.0,0.0,0.0,-0.0,0.0,0.125,1.667480298,0.01,0.0,0.41999998688697815,-0.4099999964237213,0.0,-0.00701904296875,0.00933837890625,1.03045654296875,27.3700008392334,0.0,0.0,0.24005126953125,0.140045166015625,Waiting,0.0,0.0,-2.0,0.0,0.0,0.0,0.0,0.0,
1.1733859999999987,0.0,0.0,-2425.0,0.0,0.0,0.0,0.0,0.0,0.8300780400000001,0.01,0.0,9708.0,0.0,0.0,-0.0,0.0,0.0,0.531005805,0.01,0.0,-1706.0,0.0,0.0,0.0,0.0,0.0,3.391112934,0.01,0.0,10434.0,0.0,0.0,-0.0,0.0,0.125,1.668701001,0.01,0.0,0.41999998688697815,-0.4099999964237213,0.0,-0.006103515625,0.008056640625,1.0279541015625,27.3700008392334,0.0,1.0,0.24005126953125,0.140045166015625,Waiting,0.0,0.0,-2.0,0.0,0.0,0.0,0.0,0.0,
1.228127999999968,0.0,0.0,-2425.0,0.0,0.0,0.0,0.0,0.0,0.8300780400000001,0.01,0.0,9708.0,0.0,0.0,-0.0,0.0,0.0,0.531005805,0.01,0.0,-1706.0,0.0,0.0,0.0,0.0,0.125,3.389892231,0.01,0.0,10434.0,0.0,0.0,-0.0,0.0,0.125,1.667480298,0.01,0.0,0.41999998688697815,-0.4099999964237213,0.0,-0.00738525390625,0.005126953125,1.0272216796875,27.3700008392334,0.0,0.0,0.24005126953125,0.140045166015625,Waiting,0.0,0.0,-2.0,0.0,0.0,0.0,0.0,0.0,
1.2798149999999442,0.0,0.0,-2425.0,0.0,0.0,0.0,0.0,0.0,0.8300780400000001,0.01,0.0,9708.0,0.0,0.0,-0.0,0.0,0.0,0.531005805,0.01,0.0,-1706.0,0.0,0.0,0.0,0.0,0.125,3.389892231,0.01,0.0,10434.0,0.0,0.0,-0.0,0.0,0.125,1.667480298,0.01,0.0,0.4099999964237213,-0.4000000059604645,0.0,-0.00714111328125,0.008056640625,1.02288818359375,27.3700008392334,0.0,0.0,0.24005126953125,0.140045166015625,Waiting,0.0,0.0,-2.0,0.0,0.0,0.0,0.0,0.0,
1.3331399999999558,0.0,0.0,-2425.0,0.0,0.0,0.0,0.0,0.0,0.8300780400000001,0.01,0.0012207029999999897,9708.0,0.0,0.0,-0.0,0.0,0.0,0.5297851020000001,0.01,0.0,-1706.0,0.0,0.0,0.0,0.0,0.125,3.391112934,0.01,0.0,10434.0,0.0,0.0,-0.0,0.0,0.125,1.671142407,0.01,0.0,0.4099999964237213,-0.4099999964237213,0.0,-0.00634765625,0.00787353515625,1.025390625,27.3700008392334,0.0,1.0,0.24005126953125,0.140045166015625,Waiting,0.0,0.0,-2.0,0.0,0.0,0.0,0.0,0.0,
1.3939769999999554,0.0,0.0,-2425.0,0.0,0.0,0.0,0.0,0.0,0.8300780400000001,0.01,-0.0012207029999999897,9708.0,0.0,0.0,-0.0,0.0,0.0,0.531005805,0.01,0.0,-1706.0,0.0,0.0,0.0,0.0,0.125,3.391112934,0.01,0.0,10434.0,0.0,0.0,-0.0,0.0,0.125,1.667480298,0.01,0.0,0.4099999964237213,-0.4099999964237213,-0.009999999776482582,-0.0069580078125,0.009033203125,1.02178955078125,27.3700008392334,0.0,0.0,0.24005126953125,0.140045166015625,Waiting,0.0,0.0,-2.0,0.0,0.0,0.0,0.0,0.0,
1.4472029999999796,0.0,0.0,-2425.0,0.0,0.0,0.0,0.0,0.0,0.8300780400000001,0.01,0.0,9708.0,0.0,0.0,-0.0,0.0,0.0,0.5297851020000001,0.01,0.0,-1706.0,0.0,0.0,0.0,0.0,0.125,3.391112934,0.01,0.0,10434.0,0.0,0.0,-0.0,0.0,0.125,1.667480298,0.01,0.0,0.4099999964237213,-0.4000000059604645,-0.009999999776482582,-0.005859375,0.0076904296875,1.02630615234375,27.389999389648438,0.0,1.0,0.24005126953125,0.140045166015625,Waiting,0.0,0.0,-2.0,0.0,0.0,0.0,0.0,0.0,
1.4976589999999852,0.0,0.0,-2425.0,0.0,0.0,0.0,0.0,0.0,0.8312987430000001,0.01,0.0,9708.0,0.0,0.0,-0.0,0.0,0.0,0.532226508,0.01,0.0,-1706.0,0.0,0.0,0.0,0.0,0.125,3.391112934,0.01,0.0,10434.0,0.0,0.0,-0.0,0.0,0.125,1.667480298,0.01,0.0,0.41999998688697815,-0.4099999964237213,-0.009999999776482582,-0.00762939453125,0.01043701171875,1.02947998046875,27.389999389648438,0.0,0.0,0.24005126953125,0.140045166015625,Waiting,0.0,0.0,-2.0,0.0,0.0,0.0,0.0,0.0,
1.5524139999999897,0.0,0.0,-2425.0,0.0,0.0,0.0,0.0,0.0,0.8300780400000001,0.01,0.0,9708.0,0.0,0.0,-0.0,0.0,0.0,0.531005805,0.01,0.0,-1706.0,0.0,0.0,0.0,0.0,0.125,3.391112934,0.01,0.0,10434.0,0.0,0.0,-0.0,0.0,0.125,1.667480298,0.01,0.0,0.4099999964237213,-0.4000000059604645,-0.009999999776482582,-0.0067138671875,0.00750732421875,1.0269775390625,27.389999389648438,0.0,0.0,0.24005126953125,0.140045166015625,Waiting,0.0,0.0,-2.0,0.0,0.0,0.0,0.0,0.0,
1.6078799999999465,0.0,0.0,-2425.0,0.0,0.0,0.0,0.0,0.0,0.8300780400000001,0.01,0.0,9708.0,0.0,0.0,-0.0,0.0,0.0,0.531005805,0.01,0.0,-1706.0,0.0,0.0,0.0,0.0,0.125,3.391112934,0.01,0.0,10434.0,0.0,0.0,-0.0,0.0,0.125,1.667480298,0.01,0.0,0.4099999964237213,-0.4000000059604645,-0.009999999776482582,-0.00628662109375,0.004638671875,1.0264892578125,27.389999389648438,0.0,1.0,0.24005126953125,0.140045166015625,Waiting,0.0,0.0,-2.0,0.0,0.0,0.0,0.0,0.0,
1.6564249999999883,0.0,0.0,-2425.0,0.0,0.0,0.0,0.0,0.0,0.8300780400000001,0.01,0.0,9708.0,0.0,0.0,-0.0,0.0,0.0,0.531005805,0.01,0.0,-1706.0,0.0,0.0,0.0,0.0,0.125,3.391112934,0.01,0.0,10434.0,0.0,0.0,-0.0,0.0,0.125,1.667480298,0.01,0.0,0.4099999964237213,-0.4000000059604645,0.0,-0.0084228515625,0.0057373046875,1.02972412109375,27.389999389648438,0.0,-1.0,0.24005126953125,0.140045166015625,Waiting,0.0,0.0,-2.0,0.0,0.0,0.0,0.0,0.0,
1.712283999999985,0.0,0.0,-2425.0,0.0,0.0,0.0,0.0,0.0,0.8300780400000001,0.01,0.0,9708.0,0.0,0.0,-0.0,0.0,0.0,0.531005805,0.01,0.0,-1706.0,0.0,0.0,0.0,0.0,0.125,3.391112934,0.01,0.0,10434.0,0.0,0.0,-0.0,0.0,0.125,1.668701001,0.01,0.0,0.4099999964237213,-0.4000000059604645,0.0,-0.00616455078125,0.0062255859375,1.02520751953125,27.389999389648438,0.0,1.0,0.24005126953125,0.140045166015625,Waiting,0.0,0.0,-2.0,0.0,0.0,0.0,0.0,0.0,
1.7702249999999766,0.0,0.0,-2425.0,0.0,0.0,0.0,0.0,0.0,0.8300780400000001,0.01,0.0,9708.0,0.0,0.0,-0.0,0.0,0.0,0.531005805,0.01,0.0,-1706.0,0.0,0.0,0.0,0.0,0.125,3.391112934,0.01,0.0,10434.0,0.0,0.0,-0.0,0.0,0.125,1.667480298,0.01,0.0,0.4099999964237213,-0.4099999964237213,0.0,-0.00970458984375,0.00750732421875,1.02978515625,27.389999389648438,0.0,-2.0,0.24005126953125,0.140045166015625,Waiting,0.0,0.0,-2.0,0.0,0.0,0.0,0.0,0.0,
1.8231849999999976,0.0,0.0,-2425.0,0.0,0.0,0.0,0.0,0.0,0.8300780400000001,0.01,0.0,9708.0,0.0,0.0,-0.0,0.0,0.0,0.5297851020000001,0.01,0.0,-1706.0,0.0,0.0,0.0,0.0,0.125,3.39355434,0.01,0.0,10434.0,0.0,0.0,-0.0,0.0,0.125,1.667480298,0.01,0.0,0.4099999964237213,-0.4099999964237213,0.0,-0.005126953125,0.00494384765625,1.02825927734375,27.389999389648438,0.0,2.0,0.24005126953125,0.140045166015625,Waiting,0.0,0.0,-2.0,0.0,0.0,0.0,0.0,0.0,
1.8765619999999763,0.0,0.0,-2425.0,0.0,0.0,0.0,0.0,0.0,0.8300780400000001,0.01,0.0,9708.0,0.0,0.0,-0.0,0.0,0.0,0.531005805,0.01,0.0,-1706.0,0.0,0.0,0.0,0.0,0.0,3.389892231,0.01,0.0,10434.0,0.0,0.0,-0.0,0.0,0.125,1.668701001,0.01,0.0,0.4099999964237213,-0.4099999964237213,0.0,-0.00421142578125,0.00579833984375,1.02716064453125,27.389999389648438,0.0,3.0,0.24005126953125,0.140045166015625,Waiting,0.0,0.0,-2.0,0.0,0.0,0.0,0.0,0.0,
1.9302569999999832,0.0,0.0,-2425.0,0.0,0.0,0.0,0.0,0.0,0.8300780400000001,0.01,0.0,9708.0,0.0,0.0,-0.0,0.0,0.0,0.531005805,0.01,0.0,-1706.0,0.0,0.0,0.0,0.0,0.0,3.391112934,0.01,0.0,10434.0,0.0,0.0,-0.0,0.0,0.125,1.667480298,0.01,0.0,0.4099999964237213,-0.4099999964237213,0.0,-0.00848388671875,0.0074462890625,1.02801513671875,27.389999389648438,0.0,-1.0,0.24005126953125,0.140045166015625,Waiting,0.0,0.0,-2.0,0.0,0.0,0.0,0.0,0.0,
1.9850149999999558,0.0,0.0,-2425.0,0.0,0.0,0.0,0.0,0.0,0.8300780400000001,0.01,0.0,9708.0,0.0,0.0,-0.0,0.0,0.0,0.5297851020000001,0.01,0.0,-1706.0,0.0,0.0,0.0,0.0,0.125,3.391112934,0.01,0.0,10434.0,0.0,0.0,-0.0,0.0,0.125,1.667480298,0.01,0.0,0.4099999964237213,-0.4000000059604645,0.0,-0.00531005859375,0.00860595703125,1.02459716796875,27.3700008392334,0.0,2.0,0.24005126953125,0.140045166015625,Waiting,0.0,0.0,-2.0,0.0,0.0,0.0,0.0,0.0,
2.0364289999999454,0.0,0.0,-2425.0,0.0,0.0,0.0,0.0,0.0,0.8300780400000001,0.01,0.0012207029999999897,9708.0,0.0,0.0,-0.0,0.0,0.0,0.531005805,0.01,0.0,-1706.0,0.0,0.0,0.0,0.0,0.125,3.391112934,0.01,0.0,10434.0,0.0,0.0,-0.0,0.0,0.125,1.667480298,0.01,0.0,0.4099999964237213,-0.4000000059604645,0.0,-0.0103759765625,0.0072021484375,1.0277099609375,27.3700008392334,0.0,-3.0,0.24005126953125,0.140045166015625,Waiting,0.0,0.0,-2.0,0.0,0.0,0.0,0.0,0.0,
2.0919429999999704,0.0,0.0,-2425.0,0.0,0.0,0.0,0.0,0.0,0.8300780400000001,0.01,-0.0012207029999999897,9708.0,0.0,0.0,-0.0,0.0,0.0,0.5297851020000001,0.01,0.0,-1706.0,0.0,0.0,0.0,0.0,0.125,3.389892231,0.01,0.0,10434.0,0.0,0.0,-0.0,0.0,0.125,1.668701001,0.01,0.0,0.4099999964237213,-0.4000000059604645,0.0,-0.00592041015625,0.00689697265625,1.0281982421875,27.3700008392334,0.0,1.0,0.24005126953125,0.140045166015625,Waiting,0.0,0.0,-2.0,0.0,0.0,0.0,0.0,0.0,
2.147655999999959,0.0,0.0,-2425.0,0.0,0.0,0.0,0.0,0.0,0.8300780400000001,0.01,0.0012207029999999897,9708.0,0.0,0.0,-0.0,0.0,0.0,0.5297851020000001,0.01,0.0,-1706.0,0.0,0.0,0.0,0.0,0.125,3.391112934,0.01,0.0,10434.0,0.0,0.0,-0.0,0.0,0.125,1.667480298,0.01,0.0,0.4099999964237213,-0.4000000059604645,0.0,-0.00701904296875,0.00592041015625,1.02447509765625,27.3700008392334,0.0,0.0,0.24005126953125,0.140045166015625,Waiting,0.0,0.0,-2.0,0.0,0.0,0.0,0.0,0.0,
2.1970629999999653,0.0,0.0,-2425.0,0.0,0.0,0.0,0.0,0.0,0.8300780400000001,0.01,-0.0012207029999999897,9708.0,0.0,0.0,-0.0,0.0,0.0,0.5297851020000001,0.01,0.0,-1706.0,0.0,0.0,0.0,0.0,0.125,3.389892231,0.01,0.0,10434.0,0.0,0.0,-0.0,0.0,0.125,1.667480298,0.01,0.0,0.4099999964237213,-0.4000000059604645,-0.009999999776482582,-0.01019287109375,0.00732421875,1.02325439453125,27.3700008392334,0.0,0.0,0.24005126953125,0.140045166015625,Waiting,0.0,0.0,-2.0,0.0,0.0,0.0,0.0,0.0,
2.2529799999999813,0.0,0.0,-2425.0,0.0,0.0,0.0,0.0,0.0,0.8300780400000001,0.01,0.0,9708.0,0.0,0.0,-0.0,0.0,0.0,0.5297851020000001,0.01,0.0,-1706.0,0.0,0.0,0.0,0.0,0.125,3.391112934,0.01,0.0,10434.0,0.0,0.0,-0.0,0.0,0.125,1.667480298,0.01,0.0,0.41999998688697815,-0.4000000059604645,-0.009999999776482582,-0.0059814453125,0.0079345703125,1.0274658203125,27.3700008392334,0.0,1.0,0.24005126953125,0.140045166015625,Waiting,0.0,0.0,-2.0,0.0,0.0,0.0,0.0,0.0,
2.3089279999999563,0.0,0.0,-2425.0,0.0,0.0,0.0,0.0,0.0,0.8300780400000001,0.01,0.0,9708.0,0.0,0.0,-0.0,0.0,0.0,0.5297851020000001,0.01,0.0,-1706.0,0.0,0.0,0.0,0.0,0.0,3.391112934,0.01,0.0,10434.0,0.0,0.0,-0.0,0.0,0.125,1.667480298,0.01,0.0,0.4099999964237213,-0.4000000059604645,-0.009999999776482582,-0.0054931640625,0.00933837890625,1.02789306640625,27.3700008392334,0.0,1.0,0.24005126953125,0.140045166015625,Waiting,0.0,0.0,-2.0,0.0,0.0,0.0,0.0,0.0,
2.359786999999953,0.0,0.0,-2425.0,0.0,0.0,0.0,0.0,0.0,0.8300780400000001,0.01,0.0,9708.0,0.0,0.0,-0.0,0.0,0.0,0.5297851020000001,0.01,0.0,-1706.0,0.0,0.0,0.0,0.0,0.125,3.391112934,0.01,0.0,10434.0,0.0,0.0,-0.0,0.0,0.125,1.668701001,0.01,0.0,0.4099999964237213,-0.4000000059604645,-0.009999999776482582,-0.00665283203125,0.00732421875,1.0223388671875,27.3700008392334,0.0,0.0,0.24005126953125,0.140045166015625,Waiting,0.0,0.0,-2.0,0.0,0.0,0.0,0.0,0.0,
2.4126959999999964,0.0,0.0,-2425.0,0.0,0.0,0.0,0.0,0.0,0.8300780400000001,0.01,0.0,9708.0,0.0,0.0,-0.0,0.0,0.0,0.5285643990000001,0.01,0.0,-1706.0,0.0,0.0,0.0,0.0,0.125,3.389892231,0.01,0.0,10434.0,0.0,0.0,-0.0,0.0,0.125,1.667480298,0.01,0.0,0.4099999964237213,-0.4000000059604645,-0.009999999776482582,-0.005615234375,0.00604248046875,1.0263671875,27.3700008392334,0.0,1.0,0.24005126953125,0.140045166015625,Waiting,0.0,0.0,-2.0,0.0,0.0,0.0,0.0,0.0,
2.468497999999963,0.0,0.0,-2425.0,0.0,0.0,0.0,0.0,0.0,0.8300780400000001,0.01,0.0,9708.0,0.0,0.0,-0.0,0.0,0.0,0.5297851020000001,0.01,0.0,-1706.0,0.0,0.0,0.0,0.0,0.125,3.391112934,0.01,0.0,10434.0,0.0,0.0,-0.0,0.0,0.125,1.667480298,0.01,0.0,0.41999998688697815,-0.4000000059604645,-0.009999999776482582,-0.00604248046875,0.0076904296875,1.03173828125,27.360000610351562,0.0,1.0,0.24005126953125,0.140045166015625,Waiting,0.0,0.0,-2.0,0.0,0.0,0.0,0.0,0.0,
2.5213889999999664,0.0,0.0,-2425.0,0.0,0.0,0.0,0.0,0.0,0.8300780400000001,0.01,0.0,9708.0,0.0,0.0,-0.0,0.0,0.0,0.531005805,0.01,0.0,-1706.0,0.0,0.0,0.0,0.0,0.125,3.389892231,0.01,0.0,10434.0,0.0,0.0,-0.0,0.0,0.125,1.667480298,0.01,0.0,0.4099999964237213,-0.4000000059604645,-0.009999999776482582,-0.0086669921875,0.00799560546875,1.0303955078125,27.360000610351562,0.0,-1.0,0.24005126953125,0.140045166015625,Waiting,0.0,0.0,-2.0,0.0,0.0,0.0,0.0,0.0,
2.5780989999999875,0.0,0.0,-2425.0,0.0,0.0,0.0,0.0,0.0,0.8300780400000001,0.01,0.0,9708.0,0.0,0.0,-0.0,0.0,0.0,0.531005805,0.01,0.0,-1706.0,0.0,0.0,0.0,0.0,0.125,3.391112934,0.01,0.0,10434.0,0.0,0.0,-0.0,0.0,0.125,1.668701001,0.01,0.0,0.4099999964237213,-0.4000000059604645,-0.009999999776482582,-0.00701904296875,0.004638671875,1.0245361328125,27.360000610351562,0.0,0.0,0.24005126953125,0.140045166015625,Waiting,0.0,0.0,-2.0,0.0,0.0,0.0,0.0,0.0,
2.6364039999999807,0.0,0.0,-2425.0,0.0,0.0,0.0,0.0,0.0,0.8300780400000001,0.01,0.0,9708.0,0.0,0.0,-0.0,0.0,0.0,0.5297851020000001,0.01,0.0,-1706.0,0.0,0.0,0.0,0.0,0.125,3.389892231,0.01,0.0,10434.0,0.0,0.0,-0.0,0.0,0.125,1.667480298,0.01,0.0,0.4099999964237213,-0.4000000059604645,-0.009999999776482582,-0.00726318359375,0.0072021484375,1.0238037109375,27.360000610351562,0.0,0.0,0.24005126953125,0.140045166015625,Waiting,0.0,0.0,-2.0,0.0,0.0,0.0,0.0,0.0,
2.689070999999996,0.0,0.0,-2425.0,0.0,0.0,0.0,0.0,0.0,0.8300780400000001,0.01,0.0,9708.0,0.0,0.0,-0.0,0.0,0.0,0.531005805,0.01,0.0,-1706.0,0.0,0.0,0.0,0.0,0.125,3.391112934,0.01,0.0,10434.0,0.0,0.0,-0.0,0.0,0.125,1.667480298,0.01,0.0,0.4099999964237213,-0.4000000059604645,-0.009999999776482582,-0.00653076171875,0.005615234375,1.02593994140625,27.360000610351562,0.0,0.0,0.24005126953125,0.140045166015625,Waiting,0.0,0.0,-2.0,0.0,0.0,0.0,0.0,0.0,
2.736564999999944,0.0,0.0,-2425.0,0.0,0.0,0.0,0.0,0.0,0.8300780400000001,0.01,0.0,9708.0,0.0,0.0,-0.0,0.0,0.0,0.5297851020000001,0.01,0.0,-1706.0,0.0,0.0,0.0,0.0,0.125,3.391112934,0.01,0.0,10434.0,0.0,0.0,-0.0,0.0,0.125,1.667480298,0.01,0.0,0.4099999964237213,-0.4000000059604645,-0.009999999776482582,-0.00634765625,0.01031494140625,1.02410888671875,27.360000610351562,0.0,0.0,0.24005126953125,0.140045166015625,Waiting,0.0,0.0,-2.0,0.0,0.0,0.0,0.0,0.0,
2.790509999999951,0.0,0.0,-2425.0,0.0,0.0,0.0,0.0,0.0,0.8300780400000001,0.01,0.0,9708.0,0.0,0.0,-0.0,0.0,0.0,0.5297851020000001,0.01,0.0,-1706.0,0.0,0.0,0.0,0.0,0.125,3.391112934,0.01,0.0,10434.0,0.0,0.0,-0.0,0.0,0.125,1.668701001,0.01,0.0,0.4099999964237213,-0.4000000059604645,-0.009999999776482582,-0.0091552734375,0.0087890625,1.0281982421875,27.360000610351562,0.0,-1.0,0.24005126953125,0.140045166015625,Waiting,0.0,0.0,-2.0,0.0,0.0,0.0,0.0,0.0,
2.8403309999999475,0.0,0.0,-2425.0,0.0,0.0,0.0,0.0,0.0,0.8300780400000001,0.01,0.0,9708.0,0.0,0.0,-0.0,0.0,0.0,0.5297851020000001,0.01,0.0,-1706.0,0.0,0.0,0.0,0.0,0.125,3.391112934,0.01,0.0,10434.0,0.0,0.0,-0.0,0.0,0.125,1.667480298,0.01,0.0,0.4099999964237213,-0.4000000059604645,-0.009999999776482582,-0.006103515625,0.00738525390625,1.02557373046875,27.360000610351562,0.0,1.0,0.24005126953125,0.140045166015625,Waiting,0.0,0.0,-2.0,0.0,0.0,0.0,0.0,0.0,
2.8904929999999585,0.0,0.0,-2425.0,0.0,0.0,0.0,0.0,0.0,0.8300780400000001,0.01,0.0,9708.0,0.0,0.0,-0.0,0.0,0.0,0.5297851020000001,0.01,0.0,-1706.0,0.0,0.0,0.0,0.0,0.125,3.391112934,0.01,0.0,10434.0,0.0,0.0,-0.0,0.0,0.125,1.667480298,0.01,0.0,0.4099999964237213,-0.4000000059604645,-0.009999999776482582,-0.0037841796875,0.0078125,1.02691650390625,27.360000610351562,0.0,3.0,0.24005126953125,0.140045166015625,Waiting,0.0,0.0,-2.0,0.0,0.0,0.0,0.0,0.0,
2.938380999999994,0.0,0.0,-2425.0,0.0,0.0,0.0,0.0,0.0,0.8300780400000001,0.01,0.0,9708.0,0.0,0.0,-0.0,0.0,0.0,0.531005805,0.01,0.0,-1706.0,0.0,0.0,0.0,0.0,0.0,3.391112934,0.01,0.0,10434.0,0.0,0.0,-0.0,0.0,0.125,1.667480298,0.01,0.0,0.4099999964237213,-0.4000000059604645,-0.009999999776482582,-0.006103515625,0.0076904296875,1.0257568359375,27.360000610351562,0.0,1.0,0.24005126953125,0.140045166015625,Waiting,0.0,0.0,-2.0,0.0,0.0,0.0,0.0,0.0,
2.9929890000000015,0.0,0.0,-2425.0,0.0,0.0,0.0,0.0,0.0,0.8300780400000001,0.01,0.0,9708.0,0.0,0.0,-0.0,0.0,0.0,0.5297851020000001,0.01,0.0,-1706.0,0.0,0.0,0.0,0.0,0.125,3.391112934,0.01,0.0,10434.0,0.0,0.0,-0.0,0.0,0.125,1.668701001,0.01,0.0,0.4099999964237213,-0.4000000059604645,-0.009999999776482582,-0.00714111328125,0.00628662109375,1.02642822265625,27.389999389648438,0.0,0.0,0.24005126953125,0.140045166015625,Waiting,0.0,0.0,-2.0,0.0,0.0,0.0,0.0,0.0,
3.047298999999999,0.0,0.0,-2425.0,0.0,0.0,0.0,0.0,0.0,0.8300780400000001,0.01,0.0012207029999999897,9708.0,0.0,0.0,-0.0,0.0,0.0,0.531005805,0.01,0.0,-1706.0,0.0,0.0,0.0,0.0,0.125,3.391112934,0.01,0.0,10434.0,0.0,0.0,-0.0,0.0,0.125,1.668701001,0.01,0.0,0.4099999964237213,-0.4000000059604645,-0.009999999776482582,-0.004638671875,0.0050048828125,1.0230712890625,27.389999389648438,0.0,2.0,0.24005126953125,0.140045166015625,Waiting,0.0,0.0,-2.0,0.0,0.0,0.0,0.0,0.0,
3.0957849999999745,0.0,0.0,-2425.0,0.0,0.0,0.0,0.0,0.0,0.8300780400000001,0.01,-0.0012207029999999897,9708.0,0.0,0.0,-0.0,0.0,0.0,0.5297851020000001,0.01,0.0,-1706.0,0.0,0.0,0.0,0.0,0.125,3.389892231,0.01,0.0,10434.0,0.0,0.0,-0.0,0.0,0.125,1.667480298,0.01,0.0,0.4099999964237213,-0.4000000059604645,-0.009999999776482582,-0.00946044921875,0.0050048828125,1.025390625,27.389999389648438,0.0,-2.0,0.24005126953125,0.140045166015625,Waiting,0.0,0.0,-2.0,0.0,0.0,0.0,0.0,0.0,
3.1486269999999785,0.0,0.0,-2425.0,0.0,0.0,0.0,0.0,0.0,0.8300780400000001,0.01,0.0,9708.0,0.0,0.0,-0.0,0.0,0.0,0.5297851020000001,0.01,0.0,-1706.0,0.0,0.0,0.0,0.0,0.125,3.391112934,0.01,0.0,10434.0,0.0,0.0,-0.0,0.0,0.125,1.668701001,0.01,0.0,0.4099999964237213,-0.4000000059604645,-0.009999999776482582,-0.0052490234375,0.0078125,1.02447509765625,27.389999389648438,0.0,2.0,0.24005126953125,0.140045166015625,Waiting,0.0,0.0,-2.0,0.0,0.0,0.0,0.0,0.0,
3.1964729999999983,0.0,0.0,-2425.0,0.0,0.0,0.0,0.0,0.0,0.8300780400000001,0.01,0.0,9708.0,0.0,0.0,-0.0,0.0,0.0,0.5297851020000001,0.01,0.0,-1706.0,0.0,0.0,0.0,0.0,0.125,3.389892231,0.01,0.0,10434.0,0.0,0.0,-0.0,0.0,0.125,1.667480298,0.01,0.0,0.4099999964237213,-0.4000000059604645,-0.009999999776482582,-0.00537109375,0.01043701171875,1.025390625,27.389999389648438,0.0,1.0,0.24005126953125,0.140045166015625,Waiting,0.0,0.0,-2.0,0.0,0.0,0.0,0.0,0.0,
3.2485599999999977,0.0,0.0,-2425.0,0.0,0.0,0.0,0.0,0.0,0.8300780400000001,0.01,0.0,9708.0,0.0,0.0,-0.0,0.0,0.0,0.5297851020000001,0.01,0.0,-1706.0,0.0,0.0,0.0,0.0,0.125,3.391112934,0.01,0.0,10434.0,0.0,0.0,-0.0,0.0,0.125,1.667480298,0.01,0.0,0.4099999964237213,-0.4000000059604645,-0.009999999776482582,-0.0057373046875,0.00628662109375,1.03466796875,27.389999389648438,0.0,1.0,0.24005126953125,0.140045166015625,Waiting,0.0,0.0,-2.0,0.0,0.0,0.0,0.0,0.0,
3.30175,0.0,0.0,-2425.0,0.0,0.0,0.0,0.0,0.0,0.8300780400000001,0.01,0.0,9708.0,0.0,0.0,-0.0,0.0,0.0,0.5297851020000001,0.01,0.0,-1706.0,0.0,0.0,0.0,0.0,0.125,3.391112934,0.01,0.0,10434.0,0.0,0.0,-0.0,0.0,0.125,1.668701001,0.01,0.0,0.4000000059604645,-0.4000000059604645,-0.009999999776482582,-0.00775146484375,0.0098876953125,1.028564453125,27.389999389648438,0.0,0.0,0.24005126953125,0.140045166015625,Waiting,0.0,0.0,-2.0,0.0,0.0,0.0,0.0,0.0,
3.3527829999999956,0.0,0.0,-2425.0,0.0,0.0,0.0,0.0,0.0,0.8300780400000001,0.01,0.0,9708.0,0.0,0.0,-0.0,0.0,0.0,0.5297851020000001,0.01,0.0,-1706.0,0.0,0.0,0.0,0.0,0.125,3.391112934,0.01,0.0,10434.0,0.0,0.0,-0.0,0.0,0.125,1.667480298,0.01,0.0,0.4000000059604645,-0.4000000059604645,-0.009999999776482582,-0.0084228515625,0.006103515625,1.02508544921875,27.389999389648438,0.0,-1.0,0.24005126953125,0.140045166015625,Waiting,0.0,0.0,-2.0,0.0,0.0,0.0,0.0,0.0,
3.404996999999974,0.0,0.0,-2425.0,0.0,0.0,0.0,0.0,0.0,0.8300780400000001,0.01,0.0012207029999999897,9708.0,0.0,0.0,-0.0,0.0,0.0,0.5297851020000001,0.01,0.0,-1706.0,0.0,0.0,0.0,0.0,0.125,3.391112934,0.01,0.0,10434.0,0.0,0.0,-0.0,0.0,0.125,1.667480298,0.01,0.0,0.4000000059604645,-0.38999998569488525,-0.009999999776482582,-0.00604248046875,0.00933837890625,1.02484130859375,27.389999389648438,0.0,1.0,0.24005126953125,0.140045166015625,Waiting,0.0,0.0,-2.0,0.0,0.0,0.0,0.0,0.0,
3.4550169999999927,0.0,0.0,-2425.0,0.0,0.0,0.0,0.0,0.0,0.8300780400000001,0.01,-0.0012207029999999897,9708.0,0.0,0.0,-0.0,0.0,0.0,0.5297851020000001,0.01,0.0,-1706.0,0.0,0.0,0.0,0.0,0.125,3.389892231,0.01,0.0,10434.0,0.0,0.0,-0.0,0.0,0.125,1.666259595,0.01,0.0,0.4000000059604645,-0.38999998569488525,-0.009999999776482582,-0.00592041015625,0.0079345703125,1.02734375,27.389999389648438,0.0,1.0,0.24005126953125,0.140045166015625,Waiting,0.0,0.0,-2.0,0.0,0.0,0.0,0.0,0.0,
3.508587999999989,0.0,0.0,-2425.0,0.0,0.0,0.0,0.0,0.0,0.8300780400000001,0.01,0.0,9708.0,0.0,0.0,-0.0,0.0,0.0,0.531005805,0.01,0.0,-1706.0,0.0,0.0,0.0,0.0,0.125,3.389892231,0.01,0.0,10434.0,0.0,0.0,-0.0,0.0,0.125,1.667480298,0.01,0.0,0.4000000059604645,-0.38999998569488525,-0.009999999776482582,-0.0089111328125,0.0086669921875,1.0283203125,27.3799991607666,0.0,-1.0,0.24005126953125,0.140045166015625,Waiting,0.0,0.0,-2.0,0.0,0.0,0.0,0.0,0.0,
3.5560139999999665,0.0,0.0,-2425.0,0.0,0.0,0.0,0.0,0.0,0.8300780400000001,0.01,0.0012207029999999897,9708.0,0.0,0.0,-0.0,0.0,0.0,0.531005805,0.01,0.0,-1706.0,0.0,0.0,0.0,0.0,0.125,3.389892231,0.01,0.0,10434.0,0.0,0.0,-0.0,0.0,0.125,1.667480298,0.01,0.0,0.4099999964237213,-0.4000000059604645,-0.009999999776482582,-0.00701904296875,0.00726318359375,1.028564453125,27.3799991607666,0.0,0.0,0.24005126953125,0.140045166015625,Waiting,0.0,0.0,-2.0,0.0,0.0,0.0,0.0,0.0,
3.609109999999986,0.0,0.0,-2425.0,0.0,0.0,0.0,0.0,0.0,0.8300780400000001,0.01,-0.0012207029999999897,9708.0,0.0,0.0,-0.0,0.0,0.0,0.5297851020000001,0.01,0.0,-1706.0,0.0,0.0,0.0,0.0,0.0,3.391112934,0.01,0.0,10434.0,0.0,0.0,-0.0,0.0,0.125,1.667480298,0.01,0.0,0.4099999964237213,-0.4000000059604645,-0.009999999776482582,-0.006591796875,0.00860595703125,1.02618408203125,27.3799991607666,0.0,0.0,0.24005126953125,0.140045166015625,Waiting,0.0,0.0,-2.0,0.0,0.0,0.0,0.0,0.0,
3.6577119999999996,0.0,0.0,-2425.0,0.0,0.0,0.0,0.0,0.0,0.8300780400000001,0.01,0.0,9708.0,0.0,0.0,-0.0,0.0,0.0,0.531005805,0.01,0.0,-1706.0,0.0,0.0,0.0,0.0,0.125,3.391112934,0.01,0.0,10434.0,0.0,0.0,-0.0,0.0,0.125,1.667480298,0.01,0.0,0.4099999964237213,-0.38999998569488525,-0.009999999776482582,-0.00787353515625,0.0087890625,1.02142333984375,27.3799991607666,0.0,0.0,0.24005126953125,0.140045166015625,Waiting,0.0,0.0,-2.0,0.0,0.0,0.0,0.0,0.0,
3.7105069999999833,0.0,0.0,-2425.0,0.0,0.0,0.0,0.0,0.0,0.8288573370000001,0.01,0.0,9708.0,0.0,0.0,-0.0,0.0,0.0,0.531005805,0.01,0.0,-1706.0,0.0,0.0,0.0,0.0,0.125,3.389892231,0.01,0.0,10434.0,0.0,0.0,-0.0,0.0,0.125,1.667480298,0.01,0.0,0.4099999964237213,-0.38999998569488525,-0.009999999776482582,-0.005126953125,0.00885009765625,1.02862548828125,27.3799991607666,0.0,1.0,0.24005126953125,0.140045166015625,Waiting,0.0,0.0,-2.0,0.0,0.0,0.0,0.0,0.0,
3.763294999999984,0.0,0.0,-2425.0,0.0,0.0,0.0,0.0,0.0,0.8300780400000001,0.01,0.0,9708.0,0.0,0.0,-0.0,0.0,0.0,0.5297851020000001,0.01,0.0,-1706.0,0.0,0.0,0.0,0.0,0.125,3.389892231,0.01,0.0,10434.0,0.0,0.0,-0.0,0.0,0.125,1.668701001,0.01,0.0,0.4099999964237213,-0.38999998569488525,-0.009999999776482582,-0.00506591796875,0.00811767578125,1.0294189453125,27.3799991607666,0.0,2.0,0.24005126953125,0.140045166015625,Waiting,0.0,0.0,-2.0,0.0,0.0,0.0,0.0,0.0,
3.813372999999963,0.0,0.0,-2425.0,0.0,0.0,0.0,0.0,0.0,0.8288573370000001,0.01,0.0012207029999999897,9708.0,0.0,0.0,-0.0,0.0,0.0,0.5297851020000001,0.01,0.0,-1706.0,0.0,0.0,0.0,0.0,0.125,3.391112934,0.01,0.0,10434.0,0.0,0.0,-0.0,0.0,0.125,1.667480298,0.01,0.0,0.4099999964237213,-0.4000000059604645,-0.009999999776482582,-0.0054931640625,0.0054931640625,1.0244140625,27.3799991607666,0.0,1.0,0.24005126953125,0.140045166015625,Waiting,0.0,0.0,-2.0,0.0,0.0,0.0,0.0,0.0,
3.866935999999987,0.0,0.0,-2425.0,0.0,0.0,0.0,0.0,0.0,0.8300780400000001,0.01,-0.0012207029999999897,9708.0,0.0,0.0,-0.0,0.0,0.0,0.533447211,0.01,0.0,-1706.0,0.0,0.0,0.0,0.0,0.125,3.391112934,0.01,0.0,10434.0,0.0,0.0,-0.0,0.0,0.125,1.667480298,0.01,0.0,0.4099999964237213,-0.38999998569488525,-0.009999999776482582,-0.0091552734375,0.00701904296875,1.02642822265625,27.3799991607666,0.0,-2.0,0.24005126953125,0.140045166015625,Waiting,0.0,0.0,-2.0,0.0,0.0,0.0,0.0,0.0,
3.9141609999999636,0.0,0.0,-2425.0,0.0,0.0,0.0,0.0,0.0,0.8300780400000001,0.01,0.0,9708.0,0.0,0.0,-0.0,0.0,0.0,0.5297851020000001,0.01,0.0,-1706.0,0.0,0.0,0.0,0.0,0.125,3.391112934,0.01,0.0,10434.0,0.0,0.0,-0.0,0.0,0.125,1.668701001,0.01,0.0,0.4099999964237213,-0.38999998569488525,-0.009999999776482582,-0.0064697265625,0.00408935546875,1.02618408203125,27.3799991607666,0.0,0.0,0.24005126953125,0.140045166015625,Waiting,0.0,0.0,-2.0,0.0,0.0,0.0,0.0,0.0,
3.9681119999999646,0.0,0.0,-2425.0,0.0,0.0,0.0,0.0,0.0,0.8300780400000001,0.01,0.0,9708.0,0.0,0.0,-0.0,0.0,0.0,0.531005805,0.01,0.0,-1706.0,0.0,0.0,0.0,0.0,0.125,3.391112934,0.01,0.0,10434.0,0.0,0.0,-0.0,0.0,0.125,1.666259595,0.01,0.0,0.4099999964237213,-0.38999998569488525,-0.009999999776482582,-0.00689697265625,0.00799560546875,1.026611328125,27.3799991607666,0.0,0.0,0.24005126953125,0.140045166015625,Waiting,0.0,0.0,-2.0,0.0,0.0,0.0,0.0,0.0,
4.01720299999998,0.0,0.0,-2425.0,0.0,0.0,0.0,0.0,0.0,0.8300780400000001,0.01,0.0,9708.0,0.0,0.0,-0.0,0.0,0.0,0.5297851020000001,0.01,0.0,-1706.0,0.0,0.0,0.0,0.0,0.125,3.391112934,0.01,0.0,10434.0,0.0,0.0,-0.0,0.0,0.125,1.667480298,0.01,0.0,0.4099999964237213,-0.38999998569488525,-0.009999999776482582,-0.00927734375,0.0069580078125,1.026611328125,27.40999984741211,0.0,-2.0,0.24005126953125,0.140045166015625,Waiting,0.0,0.0,-2.0,0.0,0.0,0.0,0.0,0.0,
4.069556999999971,0.0,0.0,-2425.0,0.0,0.0,0.0,0.0,0.0,0.8300780400000001,0.01,0.0,9708.0,0.0,0.0,-0.0,0.0,0.0,0.531005805,0.01,0.0,-1706.0,0.0,0.0,0.0,0.0,0.125,3.391112934,0.01,0.0,10434.0,0.0,0.0,-0.0,0.0,0.125,1.667480298,0.01,0.0,0.4099999964237213,-0.38999998569488525,-0.009999999776482582,-0.00909423828125,0.00628662109375,1.02325439453125,27.40999984741211,0.0,-2.0,0.24005126953125,0.140045166015625,Waiting,0.0,0.0,-2.0,0.0,0.0,0.0,0.0,0.0,
4.117419999999984,0.0,0.0,-2425.0,0.0,0.0,0.0,0.0,0.0,0.8300780400000001,0.01,0.0,9708.0,0.0,0.0,-0.0,0.0,0.0,0.531005805,0.01,0.0,-1706.0,0.0,0.0,0.0,0.0,0.125,3.391112934,0.01,0.0,10434.0,0.0,0.0,-0.0,0.0,0.125,1.667480298,0.01,0.0,0.4099999964237213,-0.4000000059604645,-0.009999999776482582,-0.0035400390625,0.0076904296875,1.025146484375,27.40999984741211,0.0,3.0,0.24005126953125,0.140045166015625,Waiting,0.0,0.0,-2.0,0.0,0.0,0.0,0.0,0.0,
4.172972999999998,0.0,0.0,-2425.0,0.0,0.0,0.0,0.0,0.0,0.8300780400000001,0.01,0.0,9708.0,0.0,0.0,-0.0,0.0,0.0,0.531005805,0.01,0.0,-1706.0,0.0,0.0,0.0,0.0,0.125,3.391112934,0.01,0.0,10434.0,0.0,0.0,-0.0,0.0,0.125,1.668701001,0.01,0.0,0.4099999964237213,-0.38999998569488525,-0.009999999776482582,-0.00604248046875,0.005615234375,1.02850341796875,27.40999984741211,0.0,1.0,0.24005126953125,0.140045166015625,Waiting,0.0,0.0,-2.0,0.0,0.0,0.0,0.0,0.0,
4.225875,0.0,0.0,-2425.0,0.0,0.0,0.0,0.0,0.0,0.8300780400000001,0.01,0.0012207029999999897,9708.0,0.0,0.0,-0.0,0.0,0.0,0.5297851020000001,0.01,0.0,-1706.0,0.0,0.0,0.0,0.0,0.0,3.391112934,0.01,0.0,10434.0,0.0,0.0,-0.0,0.0,0.125,1.667480298,0.01,0.0,0.4099999964237213,-0.4000000059604645,-0.009999999776482582,-0.0067138671875,0.007080078125,1.0264892578125,27.40999984741211,0.0,0.0,0.24005126953125,0.140045166015625,Waiting,0.0,0.0,-2.0,0.0,0.0,0.0,0.0,0.0,
4.277184999999998,0.0,0.0,-2425.0,0.0,0.0,0.0,0.0,0.0,0.8300780400000001,0.01,0.0,9708.0,0.0,0.0,-0.0,0.0,0.0,0.5297851020000001,0.01,0.0,-1706.0,0.0,0.0,0.0,0.0,0.0,3.389892231,0.01,0.0,10434.0,0.0,0.0,-0.0,0.0,0.125,1.667480298,0.01,0.0,0.4099999964237213,-0.4000000059604645,-0.009999999776482582,-0.0086669921875,0.00860595703125,1.028564453125,27.40999984741211,0.0,-1.0,0.24005126953125,0.140045166015625,Waiting,0.0,0.0,-2.0,0.0,0.0,0.0,0.0,0.0,
4.332386999999988,0.0,0.0,-2425.0,0.0,0.0,0.0,0.0,0.0,0.8300780400000001,0.01,-0.0012207029999999897,9708.0,0.0,0.0,-0.0,0.0,0.0,0.531005805,0.01,0.0,-1706.0,0.0,0.0,0.0,0.0,0.125,3.391112934,0.01,0.0,10434.0,0.0,0.0,-0.0,0.0,0.125,1.667480298,0.01,0.0,0.4099999964237213,-0.4000000059604645,-0.009999999776482582,-0.007568359375,0.00775146484375,1.0260009765625,27.40999984741211,0.0,0.0,0.24005126953125,0.140045166015625,Waiting,0.0,0.0,-2.0,0.0,0.0,0.0,0.0,0.0,
4.380303999999946,0.0,0.0,-2425.0,0.0,0.0,0.0,0.0,0.0,0.8300780400000001,0.01,0.0,9708.0,0.0,0.0,-0.0,0.0,0.0,0.531005805,0.01,0.0,-1706.0,0.0,0.0,0.0,0.0,0.125,3.389892231,0.01,0.0,10434.0,0.0,0.0,-0.0,0.0,0.125,1.667480298,0.01,0.0,0.4099999964237213,-0.4000000059604645,-0.019999999552965164,-0.0076904296875,0.0096435546875,1.02862548828125,27.40999984741211,0.0,0.0,0.24005126953125,0.140045166015625,Waiting,0.0,0.0,-2.0,0.0,0.0,0.0,0.0,0.0,
4.4322329999999495,0.0,0.0,-2425.0,0.0,0.0,0.0,0.0,0.0,0.8300780400000001,0.01,0.0,9708.0,0.0,0.0,-0.0,0.0,0.0,0.531005805,0.01,0.0,-1706.0,0.0,0.0,0.0,0.0,0.0,3.391112934,0.01,0.0,10434.0,0.0,0.0,-0.0,0.0,0.125,1.668701001,0.01,0.0,0.4099999964237213,-0.4000000059604645,-0.019999999552965164,-0.00604248046875,0.007080078125,1.02490234375,27.40999984741211,0.0,1.0,0.24005126953125,0.140045166015625,Waiting,0.0,0.0,-2.0,0.0,0.0,0.0,0.0,0.0,
4.48375,0.0,0.0,-2425.0,0.0,0.0,0.0,0.0,0.0,0.8300780400000001,0.01,0.0,9708.0,0.0,0.0,-0.0,0.0,0.0,0.531005805,0.01,0.0,-1706.0,0.0,0.0,0.0,0.0,0.0,3.389892231,0.01,0.0,10434.0,0.0,0.0,-0.0,0.0,0.125,1.667480298,0.01,0.0,0.4099999964237213,-0.4000000059604645,-0.009999999776482582,-0.0047607421875,0.007080078125,1.021484375,27.40999984741211,0.0,2.0,0.24005126953125,0.140045166015625,Waiting,0.0,0.0,-2.0,0.0,0.0,0.0,0.0,0.0,
4.532820999999997,0.0,0.0,-2425.0,0.0,0.0,0.0,0.0,0.0,0.8300780400000001,0.01,0.0,9708.0,0.0,0.0,-0.0,0.0,0.0,0.5297851020000001,0.01,0.0,-1706.0,0.0,0.0,0.0,0.0,0.125,3.389892231,0.01,0.0,10434.0,0.0,0.0,-0.0,0.0,0.125,1.668701001,0.01,0.0,0.4099999964237213,-0.4000000059604645,-0.009999999776482582,-0.0072021484375,0.0103759765625,1.02667236328125,27.3700008392334,0.0,0.0,0.24005126953125,0.140045166015625,Waiting,0.0,0.0,-2.0,0.0,0.0,0.0,0.0,0.0,
4.584107999999949,0.0,0.0,-2425.0,0.0,0.0,0.0,0.0,0.0,0.8300780400000001,0.01,0.0012207029999999897,9708.0,0.0,0.0,-0.0,0.0,0.0,0.5297851020000001,0.01,0.0,-1706.0,0.0,0.0,0.0,0.0,0.125,3.389892231,0.01,0.0,10434.0,0.0,0.0,-0.0,0.0,0.125,1.667480298,0.01,0.0,0.41999998688697815,-0.4000000059604645,-0.009999999776482582,-0.00830078125,0.0093994140625,1.02154541015625,27.3700008392334,0.0,-1.0,0.24005126953125,0.140045166015625,Waiting,0.0,0.0,-2.0,0.0,0.0,0.0,0.0,0.0,
4.63335699999996,0.0,0.0,-2425.0,0.0,0.0,0.0,0.0,0.0,0.8300780400000001,0.01,-0.0012207029999999897,9708.0,0.0,0.0,-0.0,0.0,0.0,0.5297851020000001,0.01,0.0,-1706.0,0.0,0.0,0.0,0.0,0.125,3.391112934,0.01,0.0,10434.0,0.0,0.0,-0.0,0.0,0.125,1.667480298,0.01,0.0,0.41999998688697815,-0.4000000059604645,-0.009999999776482582,-0.00732421875,0.005859375,1.024169921875,27.3700008392334,0.0,0.0,0.24005126953125,0.140045166015625,Waiting,0.0,0.0,-2.0,0.0,0.0,0.0,0.0,0.0,
4.68456799999997,0.0,0.0,-2425.0,0.0,0.0,0.0,0.0,0.0,0.8288573370000001,0.01,0.0,9708.0,0.0,0.0,-0.0,0.0,0.0,0.531005805,0.01,0.0,-1706.0,0.0,0.0,0.0,0.0,0.125,3.391112934,0.01,0.0,10434.0,0.0,0.0,-0.0,0.0,0.125,1.667480298,0.01,0.0,0.41999998688697815,-0.4000000059604645,-0.019999999552965164,-0.00958251953125,0.006591796875,1.0313720703125,27.3700008392334,0.0,-2.0,0.24005126953125,0.140045166015625,Waiting,0.0,0.0,-2.0,0.0,0.0,0.0,0.0,0.0,
4.73349099999998,0.0,0.0,-2425.0,0.0,0.0,0.0,0.0,0.0,0.8300780400000001,0.01,0.0012207029999999897,9708.0,0.0,0.0,-0.0,0.0,0.0,0.5297851020000001,0.01,0.0,-1706.0,0.0,0.0,0.0,0.0,0.125,3.391112934,0.01,0.0,10434.0,0.0,0.0,-0.0,0.0,0.125,1.667480298,0.01,0.0,0.4099999964237213,-0.4000000059604645,-0.009999999776482582,-0.0052490234375,0.0050048828125,1.02386474609375,27.3700008392334,0.0,1.0,0.24005126953125,0.140045166015625,Waiting,0.0,0.0,-2.0,0.0,0.0,0.0,0.0,0.0,
4.785241999999969,0.0,0.0,-2425.0,0.0,0.0,0.0,0.0,0.0,0.8300780400000001,0.01,-0.0012207029999999897,9708.0,0.0,0.0,-0.0,0.0,0.0,0.5297851020000001,0.01,0.0,-1706.0,0.0,0.0,0.0,0.0,0.125,3.389892231,0.01,0.0,10434.0,0.0,0.0,-0.0,0.0,0.125,1.668701001,0.01,0.0,0.4099999964237213,-0.4000000059604645,-0.009999999776482582,-0.00616455078125,0.01092529296875,1.02392578125,27.3700008392334,0.0,0.0,0.24005126953125,0.140045166015625,Waiting,0.0,0.0,-2.0,0.0,0.0,0.0,0.0,0.0,
4.83364599999995,0.0,0.0,-2425.0,0.0,0.0,0.0,0.0,0.0,0.8300780400000001,0.01,0.0,9708.0,0.0,0.0,-0.0,0.0,0.0,0.5297851020000001,0.01,0.0,-1706.0,0.0,0.0,0.0,0.0,0.125,3.391112934,0.01,0.0,10434.0,0.0,0.0,-0.0,0.0,0.125,1.667480298,0.01,0.0,0.4099999964237213,-0.4000000059604645,-0.009999999776482582,-0.00830078125,0.009033203125,1.028564453125,27.3700008392334,0.0,-1.0,0.24005126953125,0.140045166015625,Waiting,0.0,0.0,-2.0,0.0,0.0,0.0,0.0,0.0,
4.886819999999949,0.0,0.0,-2425.0,0.0,0.0,0.0,0.0,0.0,0.8300780400000001,0.01,0.0012207029999999897,9708.0,0.0,0.0,-0.0,0.0,0.0,0.5297851020000001,0.01,0.0,-1706.0,0.0,0.0,0.0,0.0,0.0,3.391112934,0.01,0.0,10434.0,0.0,0.0,-0.0,0.0,0.125,1.667480298,0.01,0.0,0.4099999964237213,-0.4000000059604645,-0.019999999552965164,-0.0079345703125,0.00750732421875,1.02264404296875,27.3700008392334,0.0,0.0,0.24005126953125,0.140045166015625,Waiting,0.0,0.0,-2.0,0.0,0.0,0.0,0.0,0.0,
4.9348129999999655,0.0,0.0,-2424.0,0.0,0.0,393.75,0.0,0.0,0.833740149,4.931976986061681,0.0,9707.0,0.0,0.0,-393.75,0.0,0.0,0.5297851020000001,4.963494235006164,0.0,-1705.0,0.125,0.0,393.75,0.0,0.125,3.3752437950000003,4.940125533339469,0.0,10434.0,0.125,0.0,-393.75,0.0,0.125,1.6589353770000002,4.957724555561712,0.0,0.4099999964237213,-0.4000000059604645,-0.019999999552965164,0.01495361328125,0.0162353515625,1.02923583984375,27.3700008392334,0.0,22.0,0.240081787109375,0.140045166015625,Waiting,0.0,0.0,-2.0,0.0,0.0,0.0,0.0,0.0,
4.987984999999986,0.0,0.0,-2424.0,0.375,45.0,459.375,0.0,0.125,0.850829991,4.931976986061681,0.0,9707.0,0.875,-90.0,-459.375,0.0,0.0,0.5297851020000001,4.963494235006164,0.0,-1705.0,1.375,15.0,459.375,0.0,0.0,3.38134731,4.940125533339469,0.0,10434.0,0.375,0.0,-459.375,0.0,0.125,1.667480298,4.957724555561712,0.0,0.4099999964237213,-0.23999999463558197,-0.03999999910593033,0.11651611328125,0.0181884765625,1.11871337890625,27.3700008392334,0.0,121.0,0.24066162109375,0.1398162841796875,Waiting,0.0,0.0,-2.0,0.0,0.0,0.0,0.0,0.0,
5.043975999999966,0.0,0.0,-2424.0,0.375,127.5,459.37499999999994,0.0,0.125,0.8300780400000001,4.931702972123361,0.0,9683.0,1.625,-150.0,-459.37499999999994,0.0,0.0,0.534667914,4.963218470012328,0.0,-1699.0,2.0,22.5,459.37499999999994,0.0,0.0,3.3715816860000003,4.939851066678936,0.0,10433.0,0.75,0.0,-459.37499999999994,0.0,0.125,1.666259595,4.957449111123425,0.0,0.4300000071525574,-0.10999999940395355,0.009999999776482582,0.07574462890625,-0.03570556640625,1.03546142578125,27.3700008392334,0.0,77.0,0.241790771484375,0.1396942138671875,Waiting,0.0,0.0,-2.0,0.0,0.0,0.0,0.0,0.0,
5.093854999999982,0.0,0.0,-2393.0,0.375,187.5,492.1875,0.0,0.125,0.8300780400000001,0.01,0.0,9683.0,2.25,-97.5,-492.1875,0.0,0.0,0.531005805,0.01,0.0,-1699.0,2.625,45.0,492.1875,0.0,0.0,3.3715816860000003,0.01,0.0,10433.0,1.0,-45.0,-492.1875,0.0,0.125,1.677245922,0.01,0.0,0.44999998807907104,0.03999999910593033,-0.05999999865889549,0.02777099609375,0.0333251953125,1.03680419921875,27.3700008392334,0.0,26.0,0.24444580078125,0.139862060546875,Waiting,0.0,0.0,-2.0,0.0,0.0,0.0,0.0,0.0,
5.145188999999955,0.0,0.0,-2393.0,0.75,142.5,492.18749999999994,0.0,0.0,0.8288573370000001,4.931428958185041,0.0,9683.0,3.125,-105.0,-492.18749999999994,0.0,0.0,0.5541991620000001,4.9629427050184916,0.0,-1699.0,3.0,60.0,492.18749999999994,0.0,0.0,3.3715816860000003,4.9395766000184045,0.0,10433.0,1.25,-135.0,-492.18749999999994,0.0,0.125,1.6625974860000001,4.9571736666851365,0.0,0.4399999976158142,0.18000000715255737,-0.05000000074505806,0.0924072265625,-0.0018310546875,0.966796875,27.3700008392334,0.0,89.0,0.2463531494140625,0.14007568359375,Waiting,0.0,0.0,-2.0,0.0,0.0,0.0,0.0,0.0,
5.193949999999953,0.0,0.0,-2371.0,0.875,142.5,492.18750000000006,0.0,0.125,0.832519446,4.931565965128681,0.0,9656.0,3.5,-157.5,-492.18750000000006,0.0,0.0,0.563964786,4.963080587489727,0.0,-1682.0,3.375,120.0,492.18750000000006,0.0,0.125,3.3715816860000003,4.9397138333231085,0.0,10403.0,0.75,-187.5,-492.18750000000006,0.0,0.125,1.6625974860000001,4.957311388878628,0.0,0.4399999976158142,0.3700000047683716,0.009999999776482582,0.12078857421875,0.0234375,0.99853515625,27.3700008392334,0.0,114.0,0.251678466796875,0.1403045654296875,Waiting,0.0,0.0,-2.0,0.0,0.0,0.0,0.0,0.0,
5.247187999999966,0.0,0.0,-2371.0,1.25,210.0,525.0,0.0,0.125,0.823974525,0.01,0.0,9656.0,3.625,-240.0,-525.0,0.0,0.0,0.5688475980000001,0.01,0.0,-1682.0,4.0,150.0,525.0,0.0,0.125,3.3703609830000003,0.01,0.0,10403.0,1.0,-195.0,-525.0,0.0,0.125,1.6564939710000002,0.01,0.0,0.47999998927116394,0.5799999833106995,-0.029999999329447746,0.15020751953125,0.04205322265625,0.97125244140625,27.3700008392334,0.0,140.0,0.257171630859375,0.1403350830078125,Waiting,0.0,0.0,-2.0,0.0,0.0,0.0,0.0,0.0,
5.295177999999956,0.0,0.0,-2323.0,1.25,262.5,525.0,0.0,0.0,0.8178710100000001,4.931839979092521,0.0,9605.0,3.625,-285.0,-525.0,0.0,0.0,0.583496034,4.963356352509246,0.0,-1651.0,4.0,172.5,525.0,0.0,0.0,3.3703609830000003,4.939988300009203,0.0,10356.0,1.375,-247.5,-525.0,0.0,0.125,1.6577146740000002,4.957586833342568,0.0,0.46000000834465027,0.7400000095367432,-0.10999999940395355,0.10150146484375,0.02203369140625,1.09222412109375,27.3700008392334,0.0,87.0,0.263885498046875,0.1403045654296875,Waiting,0.0,0.0,-2.0,0.0,0.0,0.0,0.0,0.0,
5.350502999999968,0.0,0.0,-2323.0,1.125,360.0,623.4375,0.0,0.0,0.8154296040000001,4.930332902380723,0.0,9605.0,3.75,-367.5,-623.4375,0.0,0.0,0.5822753310000001,4.961839644991781,0.0,-1651.0,5.25,150.0,623.4375,0.0,0.125,3.3666988740000003,4.938478733325153,0.0,10356.0,1.625,-337.5,-623.4375,0.0,0.125,1.6540525650000002,4.95607188888068,0.0,0.47999998927116394,0.9399999976158142,-0.20000000298023224,0.08953857421875,0.02728271484375,1.0780029296875,27.3700008392334,0.0,71.0,0.2740325927734375,0.140289306640625,Waiting,0.0,0.0,-2.0,0.0,0.0,0.0,0.0,0.0,
5.401404999999969,0.0,0.0,-2323.0,1.125,412.5,623.4375,0.0,0.0,0.8166503070000001,4.929510860514725,0.0,9531.0,4.0,-420.0,-623.4375,0.0,0.0,0.583496034,4.961012349958908,0.0,-1628.0,7.625,127.5,623.4375,0.0,0.125,3.3703609830000003,4.937655333292435,0.0,10288.0,1.625,-397.5,-623.4375,0.0,0.125,1.6601560800000001,4.955245555514511,0.0,0.5199999809265137,1.1699999570846558,-0.3199999928474426,0.080810546875,0.0382080078125,1.01190185546875,27.3700008392334,0.0,59.0,0.2859954833984375,0.1408538818359375,Waiting,0.0,0.0,-2.0,0.0,0.0,0.0,0.0,0.0,
5.453466999999946,0.0,0.0,-2249.0,0.75,495.0,623.4375,0.0,0.0,0.820312416,4.9278667769868845,0.0,9531.0,3.375,-495.0,-623.4375,0.0,0.0,0.5688475980000001,4.959357760098621,0.0,-1628.0,8.125,255.0,623.4375,0.0,0.125,3.358153953,4.93600853343149,0.0,10288.0,1.375,-450.0,-623.4375,0.0,0.125,1.643066238,4.953592888987395,0.0,0.5299999713897705,1.3700000047683716,-0.46000000834465027,0.0828857421875,-0.01055908203125,0.93170166015625,27.3700008392334,0.0,60.0,0.296173095703125,0.1417236328125,Waiting,0.0,0.0,-2.0,0.0,0.0,0.0,0.0,0.0,
5.5079399999999445,0.0,0.0,-2249.0,0.5,555.0,623.4375,0.0,0.0,0.8410643670000001,4.925948679163451,0.0,9531.0,3.0,-547.5,-623.4375,0.0,0.0,0.54931635,4.957427404884942,0.0,-1628.0,6.625,450.0,623.4375,0.0,0.125,3.3666988740000003,4.93408726655215,0.0,10288.0,1.0,-540.0,-623.4375,0.0,0.125,1.643066238,4.951664777662853,0.0,0.5099999904632568,1.4800000190734863,-0.6700000166893005,0.0606689453125,0.01751708984375,0.8056640625,27.399999618530273,0.0,39.0,0.311065673828125,0.143310546875,Waiting,0.0,0.0,-2.0,0.0,0.0,0.0,0.0,0.0,
5.555199999999953,0.0,0.0,-2152.0,0.375,615.0,656.25,0.0,0.125,0.825195228,4.923071532632457,0.0,9434.0,2.375,-600.0,-656.25,0.0,0.0,0.531005805,4.954531872269884,0.0,-1536.0,4.875,570.0,656.25,0.0,0.125,3.3728023890000003,4.931205366437634,0.0,10197.0,1.0,-577.5,-656.25,0.0,0.125,1.640624832,4.948772610881262,0.0,0.5699999928474426,1.440000057220459,-0.7900000214576721,-0.01324462890625,-0.04632568359375,0.974853515625,27.399999618530273,0.0,-36.0,0.3223114013671875,0.144683837890625,Waiting,0.0,0.0,-2.0,0.0,0.0,0.0,0.0,0.0,
5.60852999999997,0.0,0.0,-2152.0,0.375,645.0,656.25,0.0,0.125,0.8300780400000001,4.9214274489004595,0.0,9434.0,2.25,-637.5,-656.25,0.0,0.0,0.520019478,4.9528772822041365,0.0,-1536.0,4.875,540.0,656.25,0.0,0.125,3.3703609830000003,4.929558566372196,0.0,10197.0,0.75,-607.5,-656.25,0.0,0.125,1.641845535,4.947119944148924,0.0,0.5699999928474426,1.440000057220459,-0.8899999856948853,0.0355224609375,0.046875,1.14105224609375,27.399999618530273,0.0,69.0,0.336700439453125,0.1463470458984375,Waiting,0.0,0.0,-2.0,0.0,0.0,0.0,0.0,0.0,
5.655860999999975,0.0,0.0,-2042.0,0.375,667.5,656.25,0.0,0.125,0.825195228,4.919509351485338,0.0,9326.0,1.75,-675.0,-656.25,0.0,0.0,0.520019478,4.950946927401379,0.0,-1471.0,6.0,397.5,656.25,0.0,0.125,3.3654781710000004,4.927637299901844,0.0,10095.0,0.75,-637.5,-656.25,0.0,0.125,1.643066238,4.945191833234826,0.0,0.550000011920929,1.4900000095367432,-1.0299999713897705,0.03759765625,-0.063232421875,1.0455322265625,27.399999618530273,0.0,11.0,0.3478240966796875,0.1469879150390625,Waiting,0.0,0.0,-2.0,0.0,0.0,0.0,0.0,0.0,
5.7107619999999875,0.0,0.0,-2042.0,0.125,682.5,656.25,0.0,0.125,0.825195228,4.918139282253091,0.0,9326.0,1.5,-690.0,-656.25,0.0,0.0,0.521240181,4.949568102894485,0.0,-1471.0,7.5,345.0,656.25,0.0,0.125,3.3666988740000003,4.926264967059295,0.0,10095.0,0.625,-660.0,-656.25,0.0,0.125,1.6333006140000002,4.943814611505138,0.0,0.5299999713897705,1.4800000190734863,-1.1699999570846558,-0.0823974609375,0.02978515625,1.12957763671875,27.399999618530273,0.0,-112.0,0.3590545654296875,0.1470794677734375,Waiting,0.0,0.0,-2.0,0.0,0.0,0.0,0.0,0.0,
5.761111999999964,0.0,0.0,-2042.0,0.125,690.0,656.25,0.0,0.125,0.826415931,4.915673155838471,0.0,9213.0,1.125,-705.0,-656.25,0.0,0.0,0.521240181,4.94708621697402,0.0,-1405.0,8.875,412.5,656.25,0.0,0.125,3.3666988740000003,4.923794766143163,0.0,9987.0,0.625,-667.5,-656.25,0.0,0.125,1.6284178020000002,4.941335610585742,0.0,0.5400000214576721,1.409999966621399,-1.350000023841858,-0.061767578125,-0.08038330078125,1.13232421875,27.399999618530273,0.0,-87.0,0.3733673095703125,0.146942138671875,Waiting,0.0,0.0,-2.0,0.0,0.0,0.0,0.0,0.0,
5.812244999999995,0.0,0.0,-1933.0,0.125,675.0,656.2499999999999,0.0,0.125,0.825195228,4.91375505842335,0.0,9213.0,0.875,-712.5,-656.2499999999999,0.0,0.0,0.520019478,4.945155862171262,0.0,-1405.0,8.875,390.0,656.2499999999999,0.0,0.125,3.3666988740000003,4.92187349967281,0.0,9987.0,0.625,-660.0,-656.2499999999999,0.0,0.125,1.6284178020000002,4.939407499671645,0.0,0.5299999713897705,1.4700000286102295,-1.5299999713897705,0.02691650390625,-0.003662109375,0.76239013671875,27.399999618530273,0.0,7.0,0.3839263916015625,0.1467132568359375,Waiting,0.0,0.0,-2.0,0.0,0.0,0.0,0.0,0.0,
5.865860999999975,0.0,0.0,-1933.0,0.125,660.0,393.75,0.0,0.125,0.825195228,4.9112889336419805,0.0,9213.0,0.5,-705.0,-393.75,0.0,0.0,0.518798775,4.9426739778944855,0.0,-1405.0,8.375,420.0,393.75,0.0,0.0,3.3666988740000003,4.919403300392628,0.0,9987.0,0.375,-652.5,-393.75,0.0,0.125,1.6284178020000002,4.936928500394027,0.0,0.5400000214576721,1.4600000381469727,-1.7400000095367432,0.064453125,0.15960693359375,1.01220703125,27.399999618530273,0.0,34.0,0.39825439453125,0.1467742919921875,Waiting,0.0,0.0,-2.0,0.0,0.0,0.0,0.0,0.0,
5.915456999999995,0.0,0.0,-1821.0,0.125,697.5,393.75,0.0,0.125,0.825195228,4.908411786702674,0.0,9111.0,0.0,-622.5,-393.75,0.0,0.0,0.521240181,4.939778444868505,0.0,-1318.0,5.75,592.5,393.75,0.0,0.0,3.3618160620000004,4.916521399869124,0.0,9884.0,0.125,-645.0,-393.75,0.0,0.125,1.62353499,4.934036333201991,0.0,0.5400000214576721,1.159999966621399,-1.8899999856948853,-0.17840576171875,0.07147216796875,1.06793212890625,27.399999618530273,0.0,-202.0,0.40838623046875,0.147369384765625,Waiting,0.0,0.0,-2.0,0.0,0.0,0.0,0.0,0.0,
5.969341999999946,0.0,0.0,-1821.0,0.0,742.5,393.75,0.0,0.125,0.822753822,4.905260626080242,0.0,9111.0,0.0,-570.0,-393.75,0.0,0.0,0.5175780720000001,4.936607147105515,0.0,-1318.0,3.5,667.5,393.75,0.0,0.0,3.352050438,4.913365032940706,0.0,9884.0,0.125,-675.0,-393.75,0.0,0.125,1.627197099,4.930868721828196,0.0,0.5,0.8899999856948853,-2.1700000762939453,-0.01708984375,0.0162353515625,1.08123779296875,27.399999618530273,0.0,-34.0,0.4197540283203125,0.1483306884765625,Waiting,0.0,0.0,-2.0,0.0,0.0,0.0,0.0,0.0,
6.025324999999953,0.0,0.0,-1706.0,0.0,727.5,393.75,0.0,0.125,0.8435057730000001,4.902520485982498,0.0,9010.0,0.0,-630.0,-393.75,0.0,0.0,0.509033151,4.93384949644804,0.0,-1235.0,3.375,532.5,393.75,0.0,0.0,3.347167626,4.91062036561966,0.0,9775.0,0.125,-667.5,-393.75,0.0,0.125,1.62353499,4.92811427672704,0.0,0.5299999713897705,0.6399999856948853,-2.359999895095825,7.32421875E-4,-0.041748046875,1.0220947265625,27.360000610351562,0.0,-8.0,0.429351806640625,0.150177001953125,Waiting,0.0,0.0,-2.0,0.0,0.0,0.0,0.0,0.0,
6.075910999999964,0.0,0.0,-1706.0,0.0,682.5,295.3125,0.0,0.125,0.825195228,4.899917355992816,0.0,9010.0,0.0,-645.0,-295.3125,0.0,0.0,0.505371042,4.931229731446445,0.0,-1235.0,4.125,405.0,295.3125,0.0,0.125,3.345946923,4.908012934772969,0.0,9775.0,0.0,-622.5,-295.3125,0.0,0.125,1.622314287,4.925497557000319,0.0,0.5400000214576721,0.44999998807907104,-2.5299999713897705,-0.1260986328125,-0.04718017578125,1.0284423828125,27.360000610351562,0.0,-131.0,0.435516357421875,0.1516876220703125,Waiting,0.0,0.0,-2.0,0.0,0.0,0.0,0.0,0.0,
6.132767999999982,0.0,0.0,-1604.0,0.0,645.0,0.0,0.0,0.125,0.825195228,4.899917355992816,0.0012207029999999897,8917.0,0.0,-585.0,0.0,0.0,0.0,0.5017089330000001,4.931229731446445,-0.004882811999999959,-1152.0,2.0,472.5,0.0,0.0,0.125,3.347167626,4.908012934772969,0.0,9684.0,0.0,-592.5,0.0,0.0,0.125,1.622314287,4.925497557000319,0.0,0.5199999809265137,0.27000001072883606,-2.7799999713897705,-0.10968017578125,-0.0830078125,1.1878662109375,27.360000610351562,0.0,-110.0,0.4404449462890625,0.1528167724609375,Waiting,0.0,0.0,-2.0,0.0,0.0,0.0,0.0,0.0,
6.185031999999948,0.0,0.0,-1604.0,0.0,585.0,0.0,0.0,0.125,0.825195228,4.899917355992816,-0.0024414059999999793,8917.0,0.0,-547.5,0.0,0.0,0.0,0.5017089330000001,4.931229731446445,-0.004882811999999959,-1152.0,0.0,442.5,0.0,0.0,0.125,3.3605953590000004,4.908012934772969,0.0,9684.0,0.0,-532.5,0.0,0.0,0.125,1.62353499,4.925497557000319,0.0,0.4099999964237213,-0.3100000023841858,-2.869999885559082,-0.14996337890625,0.1138916015625,1.00225830078125,27.360000610351562,0.0,-149.0,0.445404052734375,0.1529083251953125,Waiting,0.0,0.0,-2.0,0.0,0.0,0.0,0.0,0.0,
6.237896999999998,0.0,0.0,-1604.0,0.0,510.0,0.0,0.0,0.125,0.819091713,4.899917355992816,0.0,8917.0,0.0,-517.5,0.0,0.0,0.0,0.50048823,4.931229731446445,0.0,-1152.0,0.0,232.5,0.0,0.0,0.125,3.355712547,4.908012934772969,-4.9257515640000005,9608.0,0.0,-495.0,0.0,0.0,0.125,1.6333006140000002,4.925497557000319,0.0012207029999995456,0.4000000059604645,-0.5799999833106995,-2.809999942779541,-0.072265625,0.05133056640625,1.13671875,27.360000610351562,0.0,-62.0,0.445465087890625,0.15228271484375,Waiting,0.0,0.0,-2.0,0.0,0.0,0.0,0.0,0.0,
6.292048999999999,0.0,0.0,-1532.0,0.0,435.0,0.0,0.0,0.125,0.820312416,4.899917355992816,0.0,8841.0,0.0,-442.5,0.0,0.0,0.0,0.5017089330000001,4.931229731446445,0.0,-1135.0,0.0,82.5,0.0,0.0,0.0,3.35693325,4.908012934772969,4.935517188,9608.0,0.0,-435.0,0.0,0.0,0.125,1.6333006140000002,4.925497557000319,-4.949455079,0.38999998569488525,-0.6800000071525574,-2.9000000953674316,-0.1114501953125,0.0528564453125,0.9818115234375,27.360000610351562,0.0,-101.0,0.4447021484375,0.1516876220703125,Waiting,0.0,0.0,-2.0,0.0,0.0,0.0,0.0,0.0,
6.344593999999983,0.0,0.0,-1532.0,0.0,375.0,0.0,0.0,0.125,0.825195228,4.899917355992816,0.0,8841.0,0.0,-375.0,0.0,0.0,0.0,0.498046824,4.931229731446445,0.0,-1135.0,0.0,112.5,0.0,0.0,0.0,3.35693325,4.908012934772969,0.0,9608.0,0.0,-360.0,0.0,0.0,0.125,1.6284178020000002,4.925497557000319,0.0,0.38999998569488525,-0.9700000286102295,-3.049999952316284,-0.09381103515625,0.0245361328125,1.10009765625,27.360000610351562,0.0,-75.0,0.4416351318359375,0.151214599609375,Waiting,0.0,0.0,-2.0,0.0,0.0,0.0,0.0,0.0,
6.394289999999979,0.0,0.0,-1480.0,0.0,307.5,0.0,0.0,0.125,0.821533119,4.899917355992816,0.0024414059999999793,8790.0,0.0,-300.0,0.0,0.0,0.0,0.5017089330000001,4.931229731446445,0.0,-1112.0,0.0,150.0,0.0,0.0,0.0,3.3605953590000004,4.908012934772969,0.0,9563.0,0.0,-270.0,0.0,0.0,0.125,1.621093584,4.925497557000319,4.954337891000001,0.3799999952316284,-1.190000057220459,-3.0199999809265137,-0.07379150390625,0.017822265625,1.0517578125,27.360000610351562,0.0,-52.0,0.43768310546875,0.151214599609375,Waiting,0.0,0.0,-2.0,0.0,0.0,0.0,0.0,0.0,
6.44984699999995,0.0,0.0,-1480.0,0.0,247.5,0.0,0.0,0.125,0.820312416,4.899917355992816,-0.0012207029999999897,8790.0,0.0,-255.0,0.0,0.0,0.0,0.50048823,4.931229731446445,0.0,-1112.0,0.0,150.0,0.0,0.0,0.0,3.35693325,4.908012934772969,0.0,9563.0,0.0,-240.0,0.0,0.0,0.125,1.613769366,4.925497557000319,-0.009765624000000805,0.3499999940395355,-1.3700000047683716,-3.0399999618530273,-0.11090087890625,0.0098876953125,1.0357666015625,27.360000610351562,0.0,-86.0,0.432769775390625,0.151092529296875,Waiting,0.0,0.0,-2.0,0.0,0.0,0.0,0.0,0.0,
6.502790999999968,0.0,0.0,-1452.0,0.0,172.5,0.0,0.0,0.125,0.8154296040000001,4.899917355992816,-0.0024414059999999793,8762.0,0.0,-172.5,0.0,0.0,0.0,0.5017089330000001,4.931229731446445,0.0,-1089.0,0.0,142.5,0.0,0.0,0.0,3.35693325,4.908012934772969,0.0,9536.0,0.0,-165.0,0.0,0.0,0.125,1.613769366,4.925497557000319,-0.004882811999999959,0.36000001430511475,-1.5800000429153442,-3.109999895095825,-0.1043701171875,-0.001953125,1.0633544921875,27.360000610351562,0.0,-74.0,0.4246826171875,0.151092529296875,Waiting,0.0,0.0,-2.0,0.0,0.0,0.0,0.0,0.0,
6.553408999999985,0.0,0.0,-1452.0,0.0,135.0,0.0,0.0,0.125,0.8154296040000001,4.899917355992816,4.926147485,8762.0,0.0,-120.0,0.0,0.0,0.0,0.5017089330000001,4.931229731446445,0.0,-1089.0,0.0,120.0,0.0,0.0,0.0,3.352050438,4.908012934772969,0.0,9536.0,0.0,-120.0,0.0,0.0,0.125,1.613769366,4.925497557000319,0.0,0.3499999940395355,-1.7300000190734863,-3.130000114440918,-0.096435546875,0.02093505859375,1.0032958984375,27.329999923706055,0.0,-66.0,0.4174652099609375,0.151092529296875,Waiting,0.0,0.0,-2.0,0.0,0.0,0.0,0.0,0.0,
6.608053999999946,0.0,0.0,-1442.0,0.0,67.5,459.37499999999994,0.0,0.125,0.8154296040000001,4.889367816126525,0.0,8752.0,0.125,-60.0,-459.37499999999994,0.0,0.0,0.5017089330000001,4.92061277592206,0.0,-1082.0,0.125,60.0,459.37499999999994,0.0,0.0,3.347167626,4.897445965096156,0.0,9528.0,0.0,-52.5,-459.37499999999994,0.0,0.125,1.612548663,4.914892942868339,0.0,0.3499999940395355,-1.8799999952316284,-3.109999895095825,-0.024169921875,0.0263671875,1.01348876953125,27.329999923706055,0.0,8.0,0.4065093994140625,0.151153564453125,Waiting,0.0,0.0,-2.0,0.0,0.0,0.0,0.0,0.0,
