Time,ClimberA1,ClimberA2,FRpos,FRCurrent,FRspeed,FRsetpoint,FRApos,FRACurrent,FREncpos,FREncSetpoint,FREncSpeed,FLpos,FLCurrent,FLspeed,FLsetpoint,FLApos,FLACurrent,FLEncpos,FLEncSetpoint,FLEncSpeed,BRpos,BRCurrent,BRspeed,BRsetpoint,BRApos,BRACurrent,BREncpos,BREncSetpoint,BREncSpeed,BLpos,BLCurrent,BLspeed,BLsetpoint,BLApos,BLACurrent,BLEncpos,BLEncSetpoint,BLEncSpeed,navx_Pitch,navx_Roll,navx_Yaw,navx_XAcc,navx_YAcc,navx_ZAcc,navx_Temp,navx_Bar,navx_Alt,navx_XDis,navx_YDis,GearPlacerState,ShootOutputV,ShootOutputCurrent,ShootEncPos,ShootEncVelocity,ShootSpeed,ShootSetpoint,CarouselSetpoint,CarouselCurrent,
0.21461500000000525,0.0,0.0,0.0,0.0,0.0,0.0,0.0,0.0,0.754394454,0.01,0.0,0.0,0.0,0.0,0.0,0.0,0.0,3.436278945,0.01,0.0,0.0,0.0,0.0,0.0,0.0,0.0,3.345946923,0.01,0.0,0.0,0.0,0.0,0.0,0.0,0.125,1.64794905,0.01,0.0,0.12999999523162842,-0.36000001430511475,0.0,-0.0062255859375,0.0032958984375,1.02783203125,25.670000076293945,0.0,0.0,-3.509521484375E-4,-1.068115234375E-4,Waiting,0.0,0.0,0.0,0.0,0.0,0.0,0.0,0.0,
0.27671899999999733,0.0,0.0,0.0,0.0,0.0,0.0,0.0,0.125,0.7531737510000001,0.01,4.877866157,0.0,0.0,0.0,-0.0,0.0,3.625,3.444823866,0.01,2.9288282420000007,0.0,0.0,0.0,0.0,0.0,0.0,3.347167626,0.01,4.936346923,0.0,0.0,0.0,-0.0,0.0,0.125,1.64794905,0.01,0.02794904999999992,0.14000000059604645,-0.36000001430511475,0.0,-0.00396728515625,-1.8310546875E-4,1.0242919921875,25.670000076293945,0.0,2.0,-3.509521484375E-4,-1.068115234375E-4,Waiting,0.0,0.0,0.0,0.0,0.0,0.0,0.0,0.0,
0.30914199999999253,0.0,0.0,0.0,0.0,0.0,0.0,0.0,0.125,0.754394454,0.01,-0.0024414059999999793,0.0,0.0,0.0,-0.0,0.0,8.5,3.604735959,0.01,0.037841793000000123,0.0,0.0,0.0,0.0,0.0,0.0,3.345946923,0.01,-0.0012207030000004337,0.0,0.0,0.0,-0.0,0.0,0.125,1.646728347,0.01,0.0,0.14000000059604645,-0.36000001430511475,0.0,0.0074462890625,-0.01580810546875,1.02984619140625,25.670000076293945,0.0,14.0,-3.509521484375E-4,-1.068115234375E-4,Waiting,0.0,0.0,0.0,0.0,0.0,0.0,0.0,0.0,
0.3354320000000007,0.0,0.0,0.0,0.0,0.0,0.0,0.0,0.125,0.754394454,0.01,-0.0024414059999999793,0.0,0.0,0.0,-0.0,0.0,5.5,3.852538668,0.01,0.037841793000000123,0.0,0.0,0.0,0.0,0.0,0.0,3.347167626,0.01,-0.0012207030000004337,0.0,0.0,0.0,-0.0,0.0,0.125,1.64794905,0.01,0.0,0.12999999523162842,-0.36000001430511475,0.0,0.012939453125,0.08880615234375,0.99932861328125,25.670000076293945,0.0,19.0,-3.509521484375E-4,-2.593994140625E-4,Waiting,0.0,0.0,0.0,0.0,0.0,0.0,0.0,0.0,
0.3685209999999934,0.0,0.0,0.0,0.0,0.0,0.0,0.0,0.125,0.7397460180000001,0.01,0.0,0.0,0.0,0.0,-0.0,0.0,1.25,4.053954663,0.01,0.24169919399999973,0.0,0.0,0.0,0.0,0.0,0.0,3.342284814,0.01,0.0012207030000004337,0.0,0.0,0.0,-0.0,0.0,0.125,1.64794905,0.01,0.0,0.18000000715255737,-0.33000001311302185,0.019999999552965164,-0.03118896484375,-0.13751220703125,1.06756591796875,25.670000076293945,0.0,-25.0,-2.288818359375E-4,-5.79833984375E-4,Waiting,0.0,0.0,0.0,0.0,0.0,0.0,0.0,0.0,
0.3911110000000044,0.0,0.0,0.0,0.0,0.0,0.0,0.0,0.125,0.754394454,0.01,0.0,0.0,0.0,0.0,-0.0,0.0,1.0,4.223632380000001,0.01,0.24169919399999973,0.0,0.0,0.0,0.0,0.0,0.0,3.347167626,0.01,0.0012207030000004337,0.0,0.0,0.0,-0.0,0.0,0.125,1.64794905,0.01,0.0,0.1599999964237213,-0.3199999928474426,0.019999999552965164,0.01416015625,-0.0245361328125,1.04730224609375,25.670000076293945,0.0,20.0,-1.678466796875E-4,-9.46044921875E-4,Waiting,0.0,0.0,0.0,0.0,0.0,0.0,0.0,0.0,
0.43578999999999357,0.0,0.0,0.0,0.0,0.0,0.0,0.0,0.125,0.76904289,0.01,0.0,0.0,0.0,0.0,-0.0,0.0,1.0,4.635009291,0.01,0.4357909710000003,0.0,0.0,0.0,0.0,0.0,0.0,3.347167626,0.01,-0.004882811999999959,0.0,0.0,0.0,-0.0,0.0,0.125,1.64794905,0.01,0.0,0.15000000596046448,-0.28999999165534973,0.05000000074505806,-0.01483154296875,0.03997802734375,1.00933837890625,25.670000076293945,0.0,-9.0,1.678466796875E-4,-0.003021240234375,Waiting,0.0,0.0,0.0,0.0,0.0,0.0,0.0,0.0,
0.4677020000000048,0.0,0.0,0.0,0.0,0.0,0.0,0.0,0.125,0.754394454,0.01,0.0,0.0,0.0,0.0,-0.0,0.0,1.0,4.846190910000001,0.01,0.3466796519999997,0.0,0.0,0.0,0.0,0.0,0.0,3.347167626,0.01,0.003662108999999525,0.0,0.0,0.0,-0.0,0.0,0.125,1.64794905,0.01,0.0,0.17000000178813934,-0.30000001192092896,0.05000000074505806,0.0137939453125,-0.03289794921875,1.0521240234375,25.670000076293945,0.0,19.0,1.678466796875E-4,-0.0041656494140625,Waiting,0.0,0.0,0.0,0.0,0.0,0.0,0.0,0.0,
0.48942200000000596,0.0,0.0,0.0,0.0,0.0,0.0,0.0,0.125,0.754394454,0.01,0.0,0.0,0.0,0.0,-0.0,0.0,1.0,0.052490229,0.01,0.3466796519999997,0.0,0.0,0.0,0.0,0.0,0.0,3.341064111,0.01,0.003662108999999525,0.0,0.0,0.0,-0.0,0.0,0.125,1.64794905,0.01,0.0,0.1599999964237213,-0.3100000023841858,0.05000000074505806,-0.03948974609375,0.02740478515625,1.01275634765625,25.670000076293945,0.0,-33.0,1.52587890625E-4,-0.0047607421875,Waiting,0.0,0.0,0.0,0.0,0.0,0.0,0.0,0.0,
0.5116359999999986,0.0,0.0,0.0,0.0,0.0,0.0,0.0,0.125,0.7531737510000001,0.01,0.0,0.0,0.0,0.0,-0.0,0.0,1.0,0.235595679,0.01,-4.362792522,0.0,0.0,0.0,0.0,0.0,0.0,3.347167626,0.01,0.0,0.0,0.0,0.0,-0.0,0.0,0.125,1.64794905,0.01,0.0,0.17000000178813934,-0.3100000023841858,0.03999999910593033,-0.0272216796875,0.0203857421875,1.0135498046875,25.670000076293945,0.0,-21.0,6.103515625E-5,-0.005340576171875,Waiting,0.0,0.0,0.0,0.0,0.0,0.0,0.0,0.0,
0.5335240000000049,0.0,0.0,0.0,0.0,0.0,0.0,0.0,0.125,0.7531737510000001,0.01,0.0,0.0,0.0,0.0,-0.0,0.0,0.75,0.36987300900000003,0.01,-4.362792522,0.0,0.0,0.0,0.0,0.0,0.0,3.347167626,0.01,0.0,0.0,0.0,0.0,-0.0,0.0,0.125,1.64794905,0.01,0.0,0.17000000178813934,-0.33000001311302185,0.03999999910593033,2.44140625E-4,-0.02301025390625,0.9959716796875,25.670000076293945,0.0,6.0,-9.1552734375E-5,-0.005279541015625,Waiting,0.0,0.0,0.0,0.0,0.0,0.0,0.0,0.0,
0.5550889999999926,0.0,0.0,0.0,0.0,0.0,0.0,0.0,0.125,0.7531737510000001,0.01,0.0,0.0,0.0,0.0,-0.0,0.0,0.25,0.47241206100000005,0.01,0.2807616900000003,0.0,0.0,0.0,0.0,0.0,0.0,3.341064111,0.01,-0.0012207029999995456,0.0,0.0,0.0,-0.0,0.0,0.125,1.649169753,0.01,0.0,0.17000000178813934,-0.3100000023841858,0.03999999910593033,-0.01055908203125,-0.00164794921875,0.98138427734375,25.670000076293945,0.0,-5.0,-9.1552734375E-5,-0.005279541015625,Waiting,0.0,0.0,0.0,0.0,0.0,0.0,0.0,0.0,
0.5859489999999933,0.0,0.0,0.0,0.0,0.0,0.0,0.0,0.125,0.754394454,0.01,0.0,0.0,0.0,0.0,-0.0,0.0,0.0,0.521240181,0.01,0.2807616900000003,0.0,0.0,0.0,0.0,0.0,0.0,3.349609032,0.01,-0.0012207029999995456,0.0,0.0,0.0,-0.0,0.0,0.125,1.64794905,0.01,0.0,0.17000000178813934,-0.3400000035762787,0.019999999552965164,-0.02252197265625,0.00469970703125,1.0540771484375,25.670000076293945,0.0,-16.0,-9.1552734375E-5,-0.0052337646484375,Waiting,0.0,0.0,0.0,0.0,0.0,0.0,0.0,0.0,
0.6098319999999948,0.0,0.0,0.0,0.0,0.0,0.0,0.0,0.125,0.759277266,0.01,0.0,0.0,0.0,0.0,-0.0,0.0,0.0,0.534667914,0.01,0.11230467599999994,0.0,0.0,0.0,0.0,0.0,0.0,3.345946923,0.01,0.0012207029999995456,0.0,0.0,0.0,-0.0,0.0,0.125,1.646728347,0.01,0.0,0.17000000178813934,-0.3400000035762787,0.009999999776482582,0.013916015625,0.00592041015625,0.99871826171875,25.670000076293945,0.0,19.0,-9.1552734375E-5,-0.0052032470703125,Waiting,0.0,0.0,0.0,0.0,0.0,0.0,0.0,0.0,
0.6326450000000041,0.0,0.0,0.0,0.0,0.0,0.0,0.0,0.125,0.759277266,0.01,0.0,0.0,0.0,0.0,-0.0,0.0,0.0,0.534667914,0.01,0.11230467599999994,0.0,0.0,0.0,0.0,0.0,0.0,3.342284814,0.01,0.0012207029999995456,0.0,0.0,0.0,-0.0,0.0,0.125,1.64794905,0.01,0.0,0.17000000178813934,-0.3199999928474426,0.0,0.01055908203125,-0.001708984375,1.001708984375,25.670000076293945,0.0,16.0,-9.1552734375E-5,-0.0052032470703125,Waiting,0.0,0.0,0.0,0.0,0.0,0.0,0.0,0.0,
0.6557219999999943,0.0,0.0,0.0,0.0,0.0,0.0,0.0,0.125,0.7531737510000001,0.01,0.0012207030000004337,0.0,0.0,0.0,-0.0,0.0,0.0,0.534667914,0.01,0.007324217999999938,0.0,0.0,0.0,0.0,0.0,0.0,3.341064111,0.01,0.0,0.0,0.0,0.0,-0.0,0.0,0.125,1.64794905,0.01,0.0,0.1599999964237213,-0.3199999928474426,0.0,0.009765625,-0.0054931640625,1.04412841796875,25.670000076293945,0.0,15.0,-9.1552734375E-5,-0.0052032470703125,Waiting,0.0,0.0,0.0,0.0,0.0,0.0,0.0,0.0,
0.683323000000004,0.0,0.0,0.0,0.0,0.0,0.0,0.0,0.125,0.7531737510000001,0.01,0.0012207030000004337,0.0,0.0,0.0,-0.0,0.0,0.0,0.534667914,0.01,0.007324217999999938,0.0,0.0,0.0,0.0,0.0,0.0,3.347167626,0.01,0.0,0.0,0.0,0.0,-0.0,0.0,0.125,1.649169753,0.01,0.0,0.15000000596046448,-0.30000001192092896,0.009999999776482582,0.00543212890625,0.00860595703125,1.0283203125,25.670000076293945,0.0,10.0,-9.1552734375E-5,-0.0052032470703125,Waiting,0.0,0.0,0.0,0.0,0.0,0.0,0.0,0.0,
0.7046779999999999,0.0,0.0,0.0,0.0,0.0,0.0,0.0,0.125,0.754394454,0.01,-0.0012207030000004337,0.0,0.0,0.0,-0.0,0.0,0.0,0.533447211,0.01,0.0,0.0,0.0,0.0,0.0,0.0,0.0,3.345946923,0.01,0.0,0.0,0.0,0.0,-0.0,0.0,0.125,1.64794905,0.01,0.0,0.15000000596046448,-0.28999999165534973,0.009999999776482582,0.00360107421875,-0.0037841796875,1.03131103515625,25.670000076293945,0.0,8.0,-9.1552734375E-5,-0.0052032470703125,Waiting,0.0,0.0,0.0,0.0,0.0,0.0,0.0,0.0,
0.7286410000000033,0.0,0.0,0.0,0.0,0.0,0.0,0.0,0.125,0.754394454,0.01,-0.0012207030000004337,0.0,0.0,0.0,-0.0,0.0,0.0,0.535888617,0.01,0.0,0.0,0.0,0.0,0.0,0.0,0.0,3.345946923,0.01,0.0,0.0,0.0,0.0,-0.0,0.0,0.125,1.64794905,0.01,0.0,0.15000000596046448,-0.28999999165534973,0.009999999776482582,-0.0023193359375,0.0023193359375,1.01873779296875,25.670000076293945,0.0,-6.0,-9.1552734375E-5,-0.0052032470703125,Waiting,0.0,0.0,0.0,0.0,0.0,0.0,0.0,0.0,
0.7497200000000012,0.0,0.0,0.0,0.0,0.0,0.0,0.0,0.125,0.7531737510000001,0.01,-0.0012207030000004337,0.0,0.0,0.0,-0.0,0.0,0.0,0.534667914,0.01,0.0,0.0,0.0,0.0,0.0,0.0,0.0,3.342284814,0.01,-0.0024414059999999793,0.0,0.0,0.0,-0.0,0.0,0.125,1.64794905,0.01,0.0,0.1599999964237213,-0.28999999165534973,0.0,-0.01544189453125,0.01116943359375,1.0244140625,25.670000076293945,0.0,-10.0,-9.1552734375E-5,-0.0052032470703125,Waiting,0.0,0.0,0.0,0.0,0.0,0.0,0.0,0.0,
0.7867479999999923,0.0,0.0,0.0,0.0,0.0,0.0,0.0,0.125,0.754394454,0.01,0.0,0.0,0.0,0.0,-0.0,0.0,0.0,0.534667914,0.01,0.0,0.0,0.0,0.0,0.0,0.0,0.0,3.347167626,0.01,-0.0024414059999999793,0.0,0.0,0.0,-0.0,0.0,0.125,1.649169753,0.01,0.0,0.1599999964237213,-0.3100000023841858,0.0,-0.0113525390625,-0.00531005859375,1.0211181640625,25.670000076293945,0.0,-5.0,-9.1552734375E-5,-0.0052032470703125,Waiting,0.0,0.0,0.0,0.0,0.0,0.0,0.0,0.0,
0.821875,0.0,0.0,0.0,0.0,0.0,0.0,0.0,0.125,0.7531737510000001,0.01,0.0,0.0,0.0,0.0,-0.0,0.0,0.0,0.534667914,0.01,0.0,0.0,0.0,0.0,0.0,0.0,0.0,3.347167626,0.01,0.0024414059999999793,0.0,0.0,0.0,-0.0,0.0,0.125,1.649169753,0.01,0.0,0.15000000596046448,-0.3199999928474426,0.0,-0.01361083984375,-0.002685546875,1.03375244140625,25.670000076293945,0.0,-7.0,-9.1552734375E-5,-0.0052032470703125,Waiting,0.0,0.0,0.0,0.0,0.0,0.0,0.0,0.0,
0.8414459999999963,0.0,0.0,0.0,0.0,0.0,0.0,0.0,0.125,0.754394454,0.01,0.0,0.0,0.0,0.0,-0.0,0.0,0.0,0.534667914,0.01,0.0,0.0,0.0,0.0,0.0,0.0,0.0,3.34472622,0.01,0.0024414059999999793,0.0,0.0,0.0,-0.0,0.0,0.125,1.64794905,0.01,0.0,0.15000000596046448,-0.3199999928474426,0.0,1.8310546875E-4,0.006103515625,1.017333984375,25.670000076293945,0.0,5.0,-9.1552734375E-5,-0.0052032470703125,Waiting,0.0,0.0,0.0,0.0,0.0,0.0,0.0,0.0,
0.8673160000000062,0.0,0.0,0.0,0.0,0.0,0.0,0.0,0.125,0.7531737510000001,0.01,0.0,0.0,0.0,0.0,-0.0,0.0,0.0,0.534667914,0.01,0.0,0.0,0.0,0.0,0.0,0.0,0.0,3.345946923,0.01,-0.0012207029999995456,0.0,0.0,0.0,-0.0,0.0,0.125,1.649169753,0.01,0.0,0.15000000596046448,-0.3199999928474426,0.0,-0.0023193359375,0.0115966796875,1.0291748046875,25.670000076293945,0.0,3.0,-9.1552734375E-5,-0.0052032470703125,Waiting,0.0,0.0,0.0,0.0,0.0,0.0,0.0,0.0,
0.8999790000000066,0.0,0.0,0.0,0.0,0.0,0.0,0.0,0.125,0.754394454,0.01,0.0,0.0,0.0,0.0,-0.0,0.0,0.0,0.535888617,0.01,0.0,0.0,0.0,0.0,0.0,0.0,0.0,3.342284814,0.01,-0.0024414059999999793,0.0,0.0,0.0,-0.0,0.0,0.125,1.64794905,0.01,0.0,0.1599999964237213,-0.3100000023841858,0.0,-0.002197265625,-4.2724609375E-4,1.0269775390625,25.670000076293945,0.0,3.0,-9.1552734375E-5,-0.0052032470703125,Waiting,0.0,0.0,0.0,0.0,0.0,0.0,0.0,0.0,
0.9292899999999936,0.0,0.0,0.0,0.0,0.0,0.0,0.0,0.125,0.754394454,0.01,0.0,0.0,0.0,0.0,-0.0,0.0,0.0,0.534667914,0.01,0.0,0.0,0.0,0.0,0.0,0.0,0.0,3.341064111,0.01,-0.0024414059999999793,0.0,0.0,0.0,-0.0,0.0,0.125,1.64794905,0.01,0.0,0.15000000596046448,-0.3100000023841858,0.0,-4.8828125E-4,-0.00439453125,1.0308837890625,25.670000076293945,0.0,5.0,-9.1552734375E-5,-0.0052032470703125,Waiting,0.0,0.0,0.0,0.0,0.0,0.0,0.0,0.0,
0.9552780000000057,0.0,0.0,0.0,0.0,0.0,0.0,0.0,0.125,0.7531737510000001,0.01,0.0,0.0,0.0,0.0,-0.0,0.0,0.0,0.534667914,0.01,0.0,0.0,0.0,0.0,0.0,0.0,0.0,3.341064111,0.01,0.003662108999999525,0.0,0.0,0.0,-0.0,0.0,0.125,1.64794905,0.01,-0.0012207029999999897,0.15000000596046448,-0.3100000023841858,0.0,-0.00738525390625,2.44140625E-4,1.0233154296875,25.670000076293945,0.0,-1.0,-9.1552734375E-5,-0.0052032470703125,Waiting,0.0,0.0,0.0,0.0,0.0,0.0,0.0,0.0,
0.9829419999999954,0.0,0.0,0.0,0.0,0.0,0.0,0.0,0.125,0.754394454,0.01,0.0,0.0,0.0,0.0,-0.0,0.0,0.0,0.535888617,0.01,0.0,0.0,0.0,0.0,0.0,0.0,0.0,3.347167626,0.01,0.003662108999999525,0.0,0.0,0.0,-0.0,0.0,0.125,1.64794905,0.01,-0.0012207029999999897,0.15000000596046448,-0.3100000023841858,0.0,-0.01092529296875,0.01031494140625,1.03143310546875,25.670000076293945,0.0,-5.0,-9.1552734375E-5,-0.0052032470703125,Waiting,0.0,0.0,0.0,0.0,0.0,0.0,0.0,0.0,
1.0029890000000015,0.0,0.0,0.0,0.0,0.0,0.0,0.0,0.125,0.754394454,0.01,0.0,0.0,0.0,0.0,-0.0,0.0,0.0,0.534667914,0.01,0.0,0.0,0.0,0.0,0.0,0.0,0.0,3.341064111,0.01,-0.0024414059999999793,0.0,0.0,0.0,-0.0,0.0,0.125,1.64794905,0.01,0.0012207029999999897,0.15000000596046448,-0.3100000023841858,0.0,-0.01275634765625,0.00933837890625,1.028076171875,25.670000076293945,0.0,-7.0,-9.1552734375E-5,-0.0052032470703125,Waiting,0.0,0.0,0.0,0.0,0.0,0.0,0.0,0.0,
1.0245669999999956,0.0,0.0,0.0,0.0,0.0,0.0,0.0,0.125,0.7531737510000001,0.01,0.0,0.0,0.0,0.0,-0.0,0.0,0.0,0.534667914,0.01,0.0,0.0,0.0,0.0,0.0,0.0,0.0,3.345946923,0.01,-0.0024414059999999793,0.0,0.0,0.0,-0.0,0.0,0.125,1.649169753,0.01,0.0012207029999999897,0.1599999964237213,-0.3199999928474426,0.0,-0.0078125,1.220703125E-4,1.02142333984375,25.670000076293945,0.0,-1.0,-9.1552734375E-5,-0.0052032470703125,Waiting,0.0,0.0,0.0,0.0,0.0,0.0,0.0,0.0,
1.046566000000006,0.0,0.0,0.0,0.0,0.0,0.0,0.0,0.125,0.754394454,0.01,0.0,0.0,0.0,0.0,-0.0,0.0,0.0,0.534667914,0.01,0.0,0.0,0.0,0.0,0.0,0.0,0.0,3.341064111,0.01,-0.0024414059999999793,0.0,0.0,0.0,-0.0,0.0,0.125,1.64794905,0.01,0.0012207029999999897,0.15000000596046448,-0.3199999928474426,0.0,-0.00555419921875,-0.0037841796875,1.01959228515625,25.670000076293945,0.0,0.0,-9.1552734375E-5,-0.0052032470703125,Waiting,0.0,0.0,0.0,0.0,0.0,0.0,0.0,0.0,
1.0678880000000064,0.0,0.0,0.0,0.0,0.0,0.0,0.0,0.125,0.7531737510000001,0.01,0.0,0.0,0.0,0.0,-0.0,0.0,0.0,0.534667914,0.01,0.0,0.0,0.0,0.0,0.0,0.0,0.0,3.342284814,0.01,0.0024414059999999793,0.0,0.0,0.0,-0.0,0.0,0.125,1.64794905,0.01,0.0,0.15000000596046448,-0.3199999928474426,0.0,-0.001953125,-0.0023193359375,1.02606201171875,25.690000534057617,0.0,3.0,-9.1552734375E-5,-0.0052032470703125,Waiting,0.0,0.0,0.0,0.0,0.0,0.0,0.0,0.0,
1.0860810000000056,0.0,0.0,0.0,0.0,0.0,0.0,0.0,0.125,0.7531737510000001,0.01,0.0,0.0,0.0,0.0,-0.0,0.0,0.0,0.534667914,0.01,0.0,0.0,0.0,0.0,0.0,0.0,0.0,3.345946923,0.01,0.0024414059999999793,0.0,0.0,0.0,-0.0,0.0,0.125,1.64794905,0.01,0.0,0.15000000596046448,-0.3100000023841858,0.0,-7.32421875E-4,0.00439453125,1.0274658203125,25.690000534057617,0.0,4.0,-9.1552734375E-5,-0.0052032470703125,Waiting,0.0,0.0,0.0,0.0,0.0,0.0,0.0,0.0,
1.1051480000000011,0.0,0.0,0.0,0.0,0.0,0.0,0.0,0.125,0.754394454,0.01,0.0012207030000004337,0.0,0.0,0.0,-0.0,0.0,0.0,0.534667914,0.01,0.0,0.0,0.0,0.0,0.0,0.0,0.0,3.341064111,0.01,-0.0012207029999995456,0.0,0.0,0.0,-0.0,0.0,0.125,1.649169753,0.01,0.0,0.15000000596046448,-0.3100000023841858,0.0,-0.0010986328125,0.00555419921875,1.02252197265625,25.690000534057617,0.0,4.0,-9.1552734375E-5,-0.0052032470703125,Waiting,0.0,0.0,0.0,0.0,0.0,0.0,0.0,0.0,
1.1271380000000062,0.0,0.0,0.0,0.0,0.0,0.0,0.0,0.125,0.754394454,0.01,0.0012207030000004337,0.0,0.0,0.0,-0.0,0.0,0.0,0.534667914,0.01,0.0,0.0,0.0,0.0,0.0,0.0,0.0,3.345946923,0.01,-0.0012207029999995456,0.0,0.0,0.0,-0.0,0.0,0.125,1.64794905,0.01,0.0,0.15000000596046448,-0.3100000023841858,0.0,-0.005615234375,0.00469970703125,1.02154541015625,25.690000534057617,0.0,0.0,-9.1552734375E-5,-0.0052032470703125,Waiting,0.0,0.0,0.0,0.0,0.0,0.0,0.0,0.0,
1.1458549999999958,0.0,0.0,0.0,0.0,0.0,0.0,0.0,0.125,0.754394454,0.01,0.0012207030000004337,0.0,0.0,0.0,-0.0,0.0,0.0,0.534667914,0.01,0.0,0.0,0.0,0.0,0.0,0.0,0.0,3.345946923,0.01,-0.0012207029999995456,0.0,0.0,0.0,-0.0,0.0,0.125,1.64794905,0.01,0.0,0.15000000596046448,-0.3100000023841858,0.0,-0.0079345703125,0.00299072265625,1.0302734375,25.690000534057617,0.0,-2.0,-9.1552734375E-5,-0.0052032470703125,Waiting,0.0,0.0,0.0,0.0,0.0,0.0,0.0,0.0,
1.166673999999999,0.0,0.0,0.0,0.0,0.0,0.0,0.0,0.125,0.758056563,0.01,0.0,0.0,0.0,0.0,-0.0,0.0,0.0,0.535888617,0.01,0.0,0.0,0.0,0.0,0.0,0.0,0.0,3.347167626,0.01,-0.0012207030000004337,0.0,0.0,0.0,-0.0,0.0,0.125,1.649169753,0.01,0.0,0.15000000596046448,-0.3100000023841858,0.0,-0.00909423828125,-0.00213623046875,1.02484130859375,25.690000534057617,0.0,-3.0,-9.1552734375E-5,-0.0052032470703125,Waiting,0.0,0.0,0.0,0.0,0.0,0.0,0.0,0.0,
1.184471000000005,0.0,0.0,0.0,0.0,0.0,0.0,0.0,0.125,0.7531737510000001,0.01,0.0,0.0,0.0,0.0,-0.0,0.0,0.0,0.534667914,0.01,0.0,0.0,0.0,0.0,0.0,0.0,0.0,3.341064111,0.01,-0.0012207030000004337,0.0,0.0,0.0,-0.0,0.0,0.125,1.649169753,0.01,0.0,0.15000000596046448,-0.3100000023841858,0.0,-0.009521484375,0.00225830078125,1.02728271484375,25.690000534057617,0.0,-3.0,-9.1552734375E-5,-0.0052032470703125,Waiting,0.0,0.0,0.0,0.0,0.0,0.0,0.0,0.0,
1.2016100000000005,0.0,0.0,0.0,0.0,0.0,0.0,0.0,0.125,0.7531737510000001,0.01,0.0,0.0,0.0,0.0,-0.0,0.0,0.0,0.534667914,0.01,0.0,0.0,0.0,0.0,0.0,0.0,0.0,3.339843408,0.01,-0.0012207030000004337,0.0,0.0,0.0,-0.0,0.0,0.125,1.64794905,0.01,0.0,0.15000000596046448,-0.3199999928474426,0.0,-0.00994873046875,0.006103515625,1.02850341796875,25.690000534057617,0.0,-4.0,-9.1552734375E-5,-0.0052032470703125,Waiting,0.0,0.0,0.0,0.0,0.0,0.0,0.0,0.0,
1.2221820000000008,0.0,0.0,0.0,0.0,0.0,0.0,0.0,0.125,0.754394454,0.01,-0.0012207030000004337,0.0,0.0,0.0,-0.0,0.0,0.0,0.534667914,0.01,0.0,0.0,0.0,0.0,0.0,0.0,0.0,3.345946923,0.01,0.0024414059999999793,0.0,0.0,0.0,-0.0,0.0,0.125,1.64794905,0.01,0.0,0.15000000596046448,-0.33000001311302185,0.0,-0.01031494140625,0.00360107421875,1.0264892578125,25.690000534057617,0.0,-4.0,-9.1552734375E-5,-0.0052032470703125,Waiting,0.0,0.0,0.0,0.0,0.0,0.0,0.0,0.0,
1.241376999999993,0.0,0.0,0.0,0.0,0.0,0.0,0.0,0.125,0.7531737510000001,0.01,-0.0012207030000004337,0.0,0.0,0.0,-0.0,0.0,0.0,0.534667914,0.01,0.0,0.0,0.0,0.0,0.0,0.0,0.0,3.341064111,0.01,0.0024414059999999793,0.0,0.0,0.0,-0.0,0.0,0.125,1.649169753,0.01,0.0,0.15000000596046448,-0.33000001311302185,0.0,-0.006103515625,0.00579833984375,1.0233154296875,25.690000534057617,0.0,0.0,-9.1552734375E-5,-0.0052032470703125,Waiting,0.0,0.0,0.0,0.0,0.0,0.0,0.0,0.0,
1.2632960000000022,0.0,0.0,0.0,0.0,0.0,0.0,0.0,0.125,0.7531737510000001,0.01,0.0,0.0,0.0,0.0,-0.0,0.0,0.0,0.53710932,0.01,0.0,0.0,0.0,0.0,0.0,0.0,0.0,3.341064111,0.01,-0.0024414059999999793,0.0,0.0,0.0,-0.0,0.0,0.125,1.64794905,0.01,0.0,0.15000000596046448,-0.3199999928474426,0.0,-0.004638671875,0.00396728515625,1.0311279296875,25.690000534057617,0.0,1.0,-9.1552734375E-5,-0.0052032470703125,Waiting,0.0,0.0,0.0,0.0,0.0,0.0,0.0,0.0,
1.2826589999999995,0.0,0.0,0.0,0.0,0.0,0.0,0.0,0.125,0.754394454,0.01,0.0,0.0,0.0,0.0,-0.0,0.0,0.0,0.534667914,0.01,0.0,0.0,0.0,0.0,0.0,0.0,0.0,3.339843408,0.01,-0.0024414059999999793,0.0,0.0,0.0,-0.0,0.0,0.125,1.646728347,0.01,0.0,0.15000000596046448,-0.3199999928474426,0.0,-0.004150390625,0.00103759765625,1.0296630859375,25.690000534057617,0.0,1.0,-9.1552734375E-5,-0.0052032470703125,Waiting,0.0,0.0,0.0,0.0,0.0,0.0,0.0,0.0,
1.3007909999999974,0.0,0.0,0.0,0.0,0.0,0.0,0.0,0.125,0.754394454,0.01,0.0,0.0,0.0,0.0,-0.0,0.0,0.0,0.535888617,0.01,0.0,0.0,0.0,0.0,0.0,0.0,0.0,3.341064111,0.01,-0.0024414059999999793,0.0,0.0,0.0,-0.0,0.0,0.125,1.64794905,0.01,0.0,0.15000000596046448,-0.3199999928474426,0.0,-0.00537109375,-0.00103759765625,1.02410888671875,25.690000534057617,0.0,0.0,-9.1552734375E-5,-0.0052032470703125,Waiting,0.0,0.0,0.0,0.0,0.0,0.0,0.0,0.0,
1.3201349999999947,0.0,0.0,0.0,0.0,0.0,0.0,0.0,0.125,0.754394454,0.01,0.0,0.0,0.0,0.0,-0.0,0.0,0.0,0.534667914,0.01,0.0,0.0,0.0,0.0,0.0,0.0,0.0,3.345946923,0.01,0.0,0.0,0.0,0.0,-0.0,0.0,0.125,1.649169753,0.01,0.0,0.15000000596046448,-0.3199999928474426,0.0,-0.0047607421875,6.7138671875E-4,1.02838134765625,25.690000534057617,0.0,1.0,-9.1552734375E-5,-0.0052032470703125,Waiting,0.0,0.0,0.0,0.0,0.0,0.0,0.0,0.0,
1.3411300000000046,0.0,0.0,0.0,0.0,0.0,0.0,0.0,0.125,0.754394454,0.01,0.0,0.0,0.0,0.0,-0.0,0.0,0.0,0.535888617,0.01,0.0,0.0,0.0,0.0,0.0,0.0,0.0,3.34472622,0.01,0.0,0.0,0.0,0.0,-0.0,0.0,0.125,1.64794905,0.01,0.0,0.15000000596046448,-0.3199999928474426,0.0,-0.00830078125,0.00579833984375,1.02801513671875,25.690000534057617,0.0,-2.0,-9.1552734375E-5,-0.0052032470703125,Waiting,0.0,0.0,0.0,0.0,0.0,0.0,0.0,0.0,
1.363805999999997,0.0,0.0,0.0,0.0,0.0,0.0,0.0,0.125,0.7531737510000001,0.01,0.0,0.0,0.0,0.0,-0.0,0.0,0.0,0.534667914,0.01,0.0,0.0,0.0,0.0,0.0,0.0,0.0,3.342284814,0.01,0.0,0.0,0.0,0.0,-0.0,0.0,0.125,1.64794905,0.01,0.0,0.15000000596046448,-0.3199999928474426,0.0,-0.009033203125,0.00360107421875,1.02423095703125,25.690000534057617,0.0,-3.0,-9.1552734375E-5,-0.0052032470703125,Waiting,0.0,0.0,0.0,0.0,0.0,0.0,0.0,0.0,
1.3810090000000055,0.0,0.0,0.0,0.0,0.0,0.0,0.0,0.125,0.754394454,0.01,0.0,0.0,0.0,0.0,-0.0,0.0,0.0,0.535888617,0.01,0.0,0.0,0.0,0.0,0.0,0.0,0.0,3.342284814,0.01,0.0,0.0,0.0,0.0,-0.0,0.0,0.125,1.646728347,0.01,0.0,0.15000000596046448,-0.3199999928474426,0.0,-0.00750732421875,0.00445556640625,1.0311279296875,25.690000534057617,0.0,-1.0,-9.1552734375E-5,-0.0052032470703125,Waiting,0.0,0.0,0.0,0.0,0.0,0.0,0.0,0.0,
1.4018709999999992,0.0,0.0,0.0,0.0,0.0,0.0,0.0,0.125,0.7531737510000001,0.01,0.0,0.0,0.0,0.0,-0.0,0.0,0.0,0.534667914,0.01,0.0,0.0,0.0,0.0,0.0,0.0,0.0,3.341064111,0.01,0.0,0.0,0.0,0.0,-0.0,0.0,0.125,1.64794905,0.01,0.0,0.15000000596046448,-0.33000001311302185,0.0,-0.0072021484375,0.00103759765625,1.02484130859375,25.690000534057617,0.0,-1.0,-9.1552734375E-5,-0.0052032470703125,Waiting,0.0,0.0,0.0,0.0,0.0,0.0,0.0,0.0,
1.425076000000001,0.0,0.0,0.0,0.0,0.0,0.0,0.0,0.125,0.754394454,0.01,0.0,0.0,0.0,0.0,-0.0,0.0,0.0,0.535888617,0.01,0.0,0.0,0.0,0.0,0.0,0.0,0.0,3.347167626,0.01,0.0012207030000004337,0.0,0.0,0.0,-0.0,0.0,0.125,1.650390456,0.01,0.0,0.15000000596046448,-0.33000001311302185,0.0,-0.0076904296875,0.00115966796875,1.027099609375,25.690000534057617,0.0,-1.0,-9.1552734375E-5,-0.0052032470703125,Waiting,0.0,0.0,0.0,0.0,0.0,0.0,0.0,0.0,
1.441429999999993,0.0,0.0,0.0,0.0,0.0,0.0,0.0,0.125,0.754394454,0.01,0.0,0.0,0.0,0.0,-0.0,0.0,0.0,0.535888617,0.01,0.0,0.0,0.0,0.0,0.0,0.0,0.0,3.341064111,0.01,0.0012207030000004337,0.0,0.0,0.0,-0.0,0.0,0.125,1.64794905,0.01,0.0,0.15000000596046448,-0.33000001311302185,0.0,-0.00787353515625,0.00323486328125,1.03131103515625,25.690000534057617,0.0,-1.0,-9.1552734375E-5,-0.0052032470703125,Waiting,0.0,0.0,0.0,0.0,0.0,0.0,0.0,0.0,
1.4641110000000044,0.0,0.0,0.0,0.0,0.0,0.0,0.0,0.125,0.7531737510000001,0.01,0.0,0.0,0.0,0.0,-0.0,0.0,0.0,0.534667914,0.01,0.0,0.0,0.0,0.0,0.0,0.0,0.0,3.341064111,0.01,0.0,0.0,0.0,0.0,-0.0,0.0,0.125,1.64794905,0.01,0.0,0.15000000596046448,-0.33000001311302185,0.0,-0.00531005859375,0.00439453125,1.02825927734375,25.690000534057617,0.0,0.0,-9.1552734375E-5,-0.0052032470703125,Waiting,0.0,0.0,0.0,0.0,0.0,0.0,0.0,0.0,
1.4808929999999965,0.0,0.0,0.0,0.0,0.0,0.0,0.0,0.125,0.7531737510000001,0.01,0.0,0.0,0.0,0.0,-0.0,0.0,0.0,0.535888617,0.01,0.0,0.0,0.0,0.0,0.0,0.0,0.0,3.345946923,0.01,0.0,0.0,0.0,0.0,-0.0,0.0,0.125,1.649169753,0.01,0.0,0.15000000596046448,-0.33000001311302185,0.0,-0.0029296875,0.00494384765625,1.02838134765625,25.690000534057617,0.0,3.0,-9.1552734375E-5,-0.0052032470703125,Waiting,0.0,0.0,0.0,0.0,0.0,0.0,0.0,0.0,
1.5009869999999936,0.0,0.0,0.0,0.0,0.0,0.0,0.0,0.125,0.754394454,0.01,0.0,0.0,0.0,0.0,-0.0,0.0,0.0,0.534667914,0.01,0.0,0.0,0.0,0.0,0.0,0.0,0.0,3.345946923,0.01,0.0,0.0,0.0,0.0,-0.0,0.0,0.125,1.64794905,0.01,0.0,0.15000000596046448,-0.33000001311302185,0.0,-0.00665283203125,0.0048828125,1.02374267578125,25.690000534057617,0.0,0.0,-9.1552734375E-5,-0.0052032470703125,Waiting,0.0,0.0,0.0,0.0,0.0,0.0,0.0,0.0,
1.5220160000000034,0.0,0.0,0.0,0.0,0.0,0.0,0.0,0.125,0.754394454,0.01,0.0,0.0,0.0,0.0,-0.0,0.0,0.0,0.535888617,0.01,0.0,0.0,0.0,0.0,0.0,0.0,0.0,3.342284814,0.01,-0.0024414059999999793,0.0,0.0,0.0,-0.0,0.0,0.125,1.64794905,0.01,0.0,0.15000000596046448,-0.33000001311302185,0.0,-0.00531005859375,7.32421875E-4,1.02911376953125,25.690000534057617,0.0,0.0,-9.1552734375E-5,-0.0052032470703125,Waiting,0.0,0.0,0.0,0.0,0.0,0.0,0.0,0.0,
1.540296000000002,0.0,0.0,0.0,0.0,0.0,0.0,0.0,0.125,0.754394454,0.01,0.0,0.0,0.0,0.0,-0.0,0.0,0.0,0.534667914,0.01,0.0,0.0,0.0,0.0,0.0,0.0,0.0,3.341064111,0.01,-0.0024414059999999793,0.0,0.0,0.0,-0.0,0.0,0.125,1.64794905,0.01,0.0,0.15000000596046448,-0.33000001311302185,0.0,-0.0064697265625,0.00115966796875,1.02532958984375,25.690000534057617,0.0,0.0,-9.1552734375E-5,-0.0052032470703125,Waiting,0.0,0.0,0.0,0.0,0.0,0.0,0.0,0.0,
1.5644660000000004,0.0,0.0,0.0,0.0,0.0,0.0,0.0,0.125,0.754394454,0.01,0.0012207030000004337,0.0,0.0,0.0,-0.0,0.0,0.0,0.534667914,0.01,0.0,0.0,0.0,0.0,0.0,0.0,0.0,3.347167626,0.01,0.0012207029999995456,0.0,0.0,0.0,-0.0,0.0,0.125,1.649169753,0.01,0.0,0.15000000596046448,-0.33000001311302185,0.0,-0.00689697265625,0.00189208984375,1.028076171875,25.709999084472656,0.0,0.0,-9.1552734375E-5,-0.0052032470703125,Waiting,0.0,0.0,0.0,0.0,0.0,0.0,0.0,0.0,
1.5904100000000034,0.0,0.0,0.0,0.0,0.0,0.0,0.0,0.125,0.758056563,0.01,0.0012207030000004337,0.0,0.0,0.0,-0.0,0.0,0.0,0.534667914,0.01,0.0,0.0,0.0,0.0,0.0,0.0,0.0,3.341064111,0.01,0.0012207029999995456,0.0,0.0,0.0,-0.0,0.0,0.125,1.64794905,0.01,0.0,0.15000000596046448,-0.3400000035762787,0.0,-0.007080078125,0.00244140625,1.03045654296875,25.709999084472656,0.0,0.0,-9.1552734375E-5,-0.0052032470703125,Waiting,0.0,0.0,0.0,0.0,0.0,0.0,0.0,0.0,
1.6073969999999973,0.0,0.0,0.0,0.0,0.0,0.0,0.0,0.125,0.7531737510000001,0.01,0.0,0.0,0.0,0.0,-0.0,0.0,0.0,0.535888617,0.01,0.0,0.0,0.0,0.0,0.0,0.0,0.0,3.347167626,0.01,0.0012207030000004337,0.0,0.0,0.0,-0.0,0.0,0.125,1.64794905,0.01,0.0,0.15000000596046448,-0.3400000035762787,0.0,-0.00628662109375,0.001953125,1.0269775390625,25.709999084472656,0.0,0.0,-9.1552734375E-5,-0.0052032470703125,Waiting,0.0,0.0,0.0,0.0,0.0,0.0,0.0,0.0,
1.6274619999999995,0.0,0.0,0.0,0.0,0.0,0.0,0.0,0.125,0.7531737510000001,0.01,0.0,0.0,0.0,0.0,-0.0,0.0,0.0,0.534667914,0.01,0.0,0.0,0.0,0.0,0.0,0.0,0.0,3.342284814,0.01,0.0012207030000004337,0.0,0.0,0.0,-0.0,0.0,0.125,1.649169753,0.01,0.0,0.15000000596046448,-0.3400000035762787,0.0,-0.004638671875,0.00152587890625,1.02691650390625,25.709999084472656,0.0,1.0,-9.1552734375E-5,-0.0052032470703125,Waiting,0.0,0.0,0.0,0.0,0.0,0.0,0.0,0.0,
1.6470570000000007,0.0,0.0,0.0,0.0,0.0,0.0,0.0,0.125,0.754394454,0.01,0.0,0.0,0.0,0.0,-0.0,0.0,0.0,0.534667914,0.01,0.0,0.0,0.0,0.0,0.0,0.0,0.0,3.345946923,0.01,0.0,0.0,0.0,0.0,-0.0,0.0,0.125,1.649169753,0.01,0.0,0.15000000596046448,-0.33000001311302185,0.0,-0.004638671875,0.00390625,1.02398681640625,25.709999084472656,0.0,1.0,-9.1552734375E-5,-0.0052032470703125,Waiting,0.0,0.0,0.0,0.0,0.0,0.0,0.0,0.0,
1.6869489999999931,0.0,0.0,0.0,0.0,0.0,0.0,0.0,0.125,0.754394454,0.01,-0.0012207030000004337,0.0,0.0,0.0,-0.0,0.0,0.0,0.533447211,0.01,0.0,0.0,0.0,0.0,0.0,0.0,0.0,3.347167626,0.01,0.0,0.0,0.0,0.0,-0.0,0.0,0.125,1.64794905,0.01,0.0,0.15000000596046448,-0.33000001311302185,0.0,-0.0057373046875,0.00335693359375,1.02496337890625,25.709999084472656,0.0,0.0,-9.1552734375E-5,-0.0052032470703125,Waiting,0.0,0.0,0.0,0.0,0.0,0.0,0.0,0.0,
1.7060650000000024,0.0,0.0,0.0,0.0,0.0,0.0,0.0,0.125,0.754394454,0.01,-0.0012207030000004337,0.0,0.0,0.0,-0.0,0.0,0.0,0.534667914,0.01,0.0,0.0,0.0,0.0,0.0,0.0,0.0,3.345946923,0.01,0.0,0.0,0.0,0.0,-0.0,0.0,0.125,1.64794905,0.01,0.0,0.15000000596046448,-0.33000001311302185,0.0,-0.0069580078125,4.2724609375E-4,1.03021240234375,25.709999084472656,0.0,0.0,-9.1552734375E-5,-0.0052032470703125,Waiting,0.0,0.0,0.0,0.0,0.0,0.0,0.0,0.0,
1.7271110000000045,0.0,0.0,0.0,0.0,0.0,0.0,0.0,0.125,0.754394454,0.01,0.0012207030000004337,0.0,0.0,0.0,-0.0,0.0,0.0,0.534667914,0.01,0.0,0.0,0.0,0.0,0.0,0.0,0.0,3.347167626,0.01,0.0024414059999999793,0.0,0.0,0.0,-0.0,0.0,0.125,1.64794905,0.01,0.0,0.15000000596046448,-0.3400000035762787,0.0,-0.00433349609375,0.00341796875,1.0284423828125,25.709999084472656,0.0,1.0,-9.1552734375E-5,-0.0052032470703125,Waiting,0.0,0.0,0.0,0.0,0.0,0.0,0.0,0.0,
1.7452179999999935,0.0,0.0,0.0,0.0,0.0,0.0,0.0,0.125,0.759277266,0.01,0.0012207030000004337,0.0,0.0,0.0,-0.0,0.0,0.0,0.534667914,0.01,0.0,0.0,0.0,0.0,0.0,0.0,0.0,3.345946923,0.01,0.0024414059999999793,0.0,0.0,0.0,-0.0,0.0,0.125,1.64794905,0.01,0.0,0.15000000596046448,-0.3400000035762787,0.0,-0.00506591796875,5.4931640625E-4,1.02557373046875,25.709999084472656,0.0,1.0,-9.1552734375E-5,-0.0052032470703125,Waiting,0.0,0.0,0.0,0.0,0.0,0.0,0.0,0.0,
1.7616340000000055,0.0,0.0,0.0,0.0,0.0,0.0,0.0,0.125,0.754394454,0.01,-0.0012207030000004337,0.0,0.0,0.0,-0.0,0.0,0.0,0.534667914,0.01,0.0,0.0,0.0,0.0,0.0,0.0,0.0,3.341064111,0.01,-0.0012207030000004337,0.0,0.0,0.0,-0.0,0.0,0.125,1.646728347,0.01,0.0,0.15000000596046448,-0.3400000035762787,0.0,-0.00677490234375,0.0010986328125,1.02978515625,25.709999084472656,0.0,0.0,-9.1552734375E-5,-0.0052032470703125,Waiting,0.0,0.0,0.0,0.0,0.0,0.0,0.0,0.0,
1.7813669999999984,0.0,0.0,0.0,0.0,0.0,0.0,0.0,0.125,0.7531737510000001,0.01,-0.0012207030000004337,0.0,0.0,0.0,-0.0,0.0,0.0,0.535888617,0.01,0.0,0.0,0.0,0.0,0.0,0.0,0.0,3.339843408,0.01,-0.0012207030000004337,0.0,0.0,0.0,-0.0,0.0,0.125,1.64794905,0.01,0.0,0.15000000596046448,-0.3400000035762787,0.0,-0.00836181640625,4.2724609375E-4,1.024169921875,25.709999084472656,0.0,-2.0,-9.1552734375E-5,-0.0052032470703125,Waiting,0.0,0.0,0.0,0.0,0.0,0.0,0.0,0.0,
1.800850999999995,0.0,0.0,0.0,0.0,0.0,0.0,0.0,0.125,0.754394454,0.01,-0.0012207030000004337,0.0,0.0,0.0,-0.0,0.0,0.0,0.535888617,0.01,0.0,0.0,0.0,0.0,0.0,0.0,0.0,3.341064111,0.01,-0.0012207030000004337,0.0,0.0,0.0,-0.0,0.0,0.125,1.649169753,0.01,0.0,0.15000000596046448,-0.3400000035762787,0.0,-0.008056640625,0.00323486328125,1.03045654296875,25.709999084472656,0.0,-1.0,-9.1552734375E-5,-0.0052032470703125,Waiting,0.0,0.0,0.0,0.0,0.0,0.0,0.0,0.0,
1.8210310000000027,0.0,0.0,0.0,0.0,0.0,0.0,0.0,0.125,0.758056563,0.01,0.0,0.0,0.0,0.0,-0.0,0.0,0.0,0.534667914,0.01,0.0,0.0,0.0,0.0,0.0,0.0,0.0,3.345946923,0.01,0.0,0.0,0.0,0.0,-0.0,0.0,0.125,1.64794905,0.01,-0.0012207029999999897,0.14000000059604645,-0.3400000035762787,0.0,-0.006103515625,5.4931640625E-4,1.0269775390625,25.709999084472656,0.0,0.0,-9.1552734375E-5,-0.0052032470703125,Waiting,0.0,0.0,0.0,0.0,0.0,0.0,0.0,0.0,
1.8410350000000035,0.0,0.0,0.0,0.0,0.0,0.0,0.0,0.125,0.754394454,0.01,0.0,0.0,0.0,0.0,-0.0,0.0,0.0,0.534667914,0.01,0.0,0.0,0.0,0.0,0.0,0.0,0.0,3.341064111,0.01,0.0,0.0,0.0,0.0,-0.0,0.0,0.125,1.64794905,0.01,-0.0012207029999999897,0.14000000059604645,-0.3400000035762787,0.0,-0.0078125,0.00537109375,1.03009033203125,25.709999084472656,0.0,-1.0,-9.1552734375E-5,-0.0052032470703125,Waiting,0.0,0.0,0.0,0.0,0.0,0.0,0.0,0.0,
1.860849000000002,0.0,0.0,0.0,0.0,0.0,0.0,0.0,0.125,0.7531737510000001,0.01,0.0,0.0,0.0,0.0,-0.0,0.0,0.0,0.534667914,0.01,0.0,0.0,0.0,0.0,0.0,0.0,0.0,3.342284814,0.01,-0.0012207029999995456,0.0,0.0,0.0,-0.0,0.0,0.125,1.64794905,0.01,0.0012207029999999897,0.14000000059604645,-0.3400000035762787,0.0,-0.0010986328125,0.00372314453125,1.02484130859375,25.709999084472656,0.0,5.0,-9.1552734375E-5,-0.0052032470703125,Waiting,0.0,0.0,0.0,0.0,0.0,0.0,0.0,0.0,
1.8804909999999946,0.0,0.0,0.0,0.0,0.0,0.0,0.0,0.125,0.754394454,0.01,0.0012207030000004337,0.0,0.0,0.0,-0.0,0.0,0.0,0.534667914,0.01,0.0,0.0,0.0,0.0,0.0,0.0,0.0,3.345946923,0.01,-0.0012207029999995456,0.0,0.0,0.0,-0.0,0.0,0.125,1.64794905,0.01,0.0012207029999999897,0.14000000059604645,-0.3400000035762787,0.0,-0.00494384765625,0.0032958984375,1.02459716796875,25.709999084472656,0.0,1.0,-9.1552734375E-5,-0.0052032470703125,Waiting,0.0,0.0,0.0,0.0,0.0,0.0,0.0,0.0,
1.900472999999998,0.0,0.0,0.0,0.0,0.0,0.0,0.0,0.125,0.754394454,0.01,0.0012207030000004337,0.0,0.0,0.0,-0.0,0.0,0.0,0.535888617,0.01,0.0,0.0,0.0,0.0,0.0,0.0,0.0,3.345946923,0.01,-0.0012207029999995456,0.0,0.0,0.0,-0.0,0.0,0.125,1.64794905,0.01,0.0012207029999999897,0.15000000596046448,-0.3400000035762787,0.0,-0.00518798828125,0.0025634765625,1.025634765625,25.709999084472656,0.0,1.0,-9.1552734375E-5,-0.0052032470703125,Waiting,0.0,0.0,0.0,0.0,0.0,0.0,0.0,0.0,
1.9215580000000045,0.0,0.0,0.0,0.0,0.0,0.0,0.0,0.125,0.754394454,0.01,-0.0012207030000004337,0.0,0.0,0.0,-0.0,0.0,0.0,0.534667914,0.01,0.0,0.0,0.0,0.0,0.0,0.0,0.0,3.341064111,0.01,-0.0012207030000004337,0.0,0.0,0.0,-0.0,0.0,0.125,1.64794905,0.01,0.0,0.15000000596046448,-0.3400000035762787,0.0,-0.00634765625,0.00128173828125,1.02734375,25.709999084472656,0.0,0.0,-9.1552734375E-5,-0.0052032470703125,Waiting,0.0,0.0,0.0,0.0,0.0,0.0,0.0,0.0,
1.9399170000000012,0.0,0.0,0.0,0.0,0.0,0.0,0.0,0.125,0.7531737510000001,0.01,-0.0012207030000004337,0.0,0.0,0.0,-0.0,0.0,0.0,0.535888617,0.01,0.0,0.0,0.0,0.0,0.0,0.0,0.0,3.341064111,0.01,-0.0012207030000004337,0.0,0.0,0.0,-0.0,0.0,0.125,1.64794905,0.01,0.0,0.15000000596046448,-0.3400000035762787,0.0,-0.0067138671875,0.0018310546875,1.026611328125,25.709999084472656,0.0,0.0,-9.1552734375E-5,-0.0052032470703125,Waiting,0.0,0.0,0.0,0.0,0.0,0.0,0.0,0.0,
1.9608369999999995,0.0,0.0,0.0,0.0,0.0,0.0,0.0,0.125,0.7531737510000001,0.01,-0.0012207030000004337,0.0,0.0,0.0,-0.0,0.0,0.0,0.535888617,0.01,0.0,0.0,0.0,0.0,0.0,0.0,0.0,3.341064111,0.01,0.0,0.0,0.0,0.0,-0.0,0.0,0.125,1.644286941,0.01,0.0,0.15000000596046448,-0.3400000035762787,0.0,-0.00701904296875,0.00262451171875,1.02716064453125,25.709999084472656,0.0,0.0,-9.1552734375E-5,-0.0052032470703125,Waiting,0.0,0.0,0.0,0.0,0.0,0.0,0.0,0.0,
1.980604999999996,0.0,0.0,0.0,0.0,0.0,0.0,0.0,0.125,0.754394454,0.01,0.0,0.0,0.0,0.0,-0.0,0.0,0.0,0.534667914,0.01,0.0,0.0,0.0,0.0,0.0,0.0,0.0,3.348388329,0.01,0.0,0.0,0.0,0.0,-0.0,0.0,0.125,1.649169753,0.01,0.0,0.14000000059604645,-0.3400000035762787,0.0,-0.00567626953125,0.00360107421875,1.0283203125,25.709999084472656,0.0,0.0,-9.1552734375E-5,-0.0052032470703125,Waiting,0.0,0.0,0.0,0.0,0.0,0.0,0.0,0.0,
2.0008359999999956,0.0,0.0,0.0,0.0,0.0,0.0,0.0,0.125,0.754394454,0.01,0.0,0.0,0.0,0.0,-0.0,0.0,0.0,0.534667914,0.01,0.0,0.0,0.0,0.0,0.0,0.0,0.0,3.341064111,0.01,0.0,0.0,0.0,0.0,-0.0,0.0,0.125,1.64794905,0.01,0.0,0.15000000596046448,-0.3400000035762787,0.0,-0.0074462890625,0.00274658203125,1.0269775390625,25.709999084472656,0.0,-1.0,-9.1552734375E-5,-0.0052032470703125,Waiting,0.0,0.0,0.0,0.0,0.0,0.0,0.0,0.0,
2.0212590000000055,0.0,0.0,0.0,0.0,0.0,0.0,0.0,0.125,0.754394454,0.01,0.0012207030000004337,0.0,0.0,0.0,-0.0,0.0,0.0,0.534667914,0.01,0.0,0.0,0.0,0.0,0.0,0.0,0.0,3.347167626,0.01,0.0,0.0,0.0,0.0,-0.0,0.0,0.125,1.64794905,0.01,-0.0012207029999999897,0.15000000596046448,-0.3400000035762787,-0.009999999776482582,-0.00653076171875,0.00311279296875,1.02716064453125,25.709999084472656,0.0,0.0,-9.1552734375E-5,-0.0052032470703125,Waiting,0.0,0.0,0.0,0.0,0.0,0.0,0.0,0.0,
2.040395999999993,0.0,0.0,0.0,0.0,0.0,0.0,0.0,0.125,0.7519530480000001,0.01,0.0012207030000004337,0.0,0.0,0.0,-0.0,0.0,0.0,0.534667914,0.01,0.0,0.0,0.0,0.0,0.0,0.0,0.0,3.341064111,0.01,0.0,0.0,0.0,0.0,-0.0,0.0,0.125,1.64794905,0.01,-0.0012207029999999897,0.15000000596046448,-0.3400000035762787,-0.009999999776482582,-0.00689697265625,0.0025634765625,1.0244140625,25.709999084472656,0.0,0.0,-9.1552734375E-5,-0.0052032470703125,Waiting,0.0,0.0,0.0,0.0,0.0,0.0,0.0,0.0,
2.0601359999999986,0.0,0.0,0.0,0.0,0.0,0.0,0.0,0.125,0.759277266,0.01,0.0012207030000004337,0.0,0.0,0.0,-0.0,0.0,0.0,0.534667914,0.01,0.0,0.0,0.0,0.0,0.0,0.0,0.0,3.341064111,0.01,0.0024414059999999793,0.0,0.0,0.0,-0.0,0.0,0.125,1.64794905,0.01,0.0,0.14000000059604645,-0.3400000035762787,-0.009999999776482582,-0.00665283203125,0.00250244140625,1.03094482421875,25.709999084472656,0.0,0.0,-9.1552734375E-5,-0.0052032470703125,Waiting,0.0,0.0,0.0,0.0,0.0,0.0,0.0,0.0,
2.0814239999999993,0.0,0.0,0.0,0.0,0.0,0.0,0.0,0.125,0.754394454,0.01,-0.0012207030000004337,0.0,0.0,0.0,-0.0,0.0,0.0,0.535888617,0.01,0.0,0.0,0.0,0.0,0.0,0.0,0.0,3.342284814,0.01,0.0024414059999999793,0.0,0.0,0.0,-0.0,0.0,0.125,1.64794905,0.01,0.0,0.14000000059604645,-0.3400000035762787,-0.009999999776482582,-0.00543212890625,0.002197265625,1.02777099609375,25.709999084472656,0.0,0.0,-9.1552734375E-5,-0.0052032470703125,Waiting,0.0,0.0,0.0,0.0,0.0,0.0,0.0,0.0,
2.1010409999999973,0.0,0.0,0.0,0.0,0.0,0.0,0.0,0.125,0.754394454,0.01,-0.0012207030000004337,0.0,0.0,0.0,-0.0,0.0,0.0,0.535888617,0.01,0.0,0.0,0.0,0.0,0.0,0.0,0.0,3.345946923,0.01,0.0024414059999999793,0.0,0.0,0.0,-0.0,0.0,0.125,1.64794905,0.01,0.0,0.14000000059604645,-0.3400000035762787,-0.009999999776482582,-0.0064697265625,0.00299072265625,1.0291748046875,25.709999084472656,0.0,0.0,-9.1552734375E-5,-0.0052032470703125,Waiting,0.0,0.0,0.0,0.0,0.0,0.0,0.0,0.0,
2.1221140000000016,0.0,0.0,0.0,0.0,0.0,0.0,0.0,0.125,0.7531737510000001,0.01,0.0,0.0,0.0,0.0,-0.0,0.0,0.0,0.534667914,0.01,0.0,0.0,0.0,0.0,0.0,0.0,0.0,3.345946923,0.01,0.0,0.0,0.0,0.0,-0.0,0.0,0.125,1.64794905,0.01,0.0012207029999999897,0.14000000059604645,-0.3400000035762787,-0.009999999776482582,-0.0062255859375,0.00372314453125,1.02349853515625,25.709999084472656,0.0,0.0,-9.1552734375E-5,-0.0052032470703125,Waiting,0.0,0.0,0.0,0.0,0.0,0.0,0.0,0.0,
2.1409619999999996,0.0,0.0,0.0,0.0,0.0,0.0,0.0,0.125,0.772704999,0.01,0.0,0.0,0.0,0.0,-0.0,0.0,0.0,0.535888617,0.01,0.0,0.0,0.0,0.0,0.0,0.0,0.0,3.341064111,0.01,0.0,0.0,0.0,0.0,-0.0,0.0,0.125,1.64794905,0.01,0.0012207029999999897,0.14000000059604645,-0.3400000035762787,-0.009999999776482582,-0.00909423828125,0.001708984375,1.02593994140625,25.709999084472656,0.0,-2.0,-9.1552734375E-5,-0.0052032470703125,Waiting,0.0,0.0,0.0,0.0,0.0,0.0,0.0,0.0,
2.159997000000003,0.0,0.0,0.0,0.0,0.0,0.0,0.0,0.125,0.7531737510000001,0.01,0.0,0.0,0.0,0.0,-0.0,0.0,0.0,0.534667914,0.01,0.0,0.0,0.0,0.0,0.0,0.0,0.0,3.341064111,0.01,0.0,0.0,0.0,0.0,-0.0,0.0,0.125,1.64794905,0.01,-0.0012207029999999897,0.14000000059604645,-0.3400000035762787,-0.009999999776482582,-0.0042724609375,0.00262451171875,1.0289306640625,25.709999084472656,0.0,1.0,-9.1552734375E-5,-0.0052032470703125,Waiting,0.0,0.0,0.0,0.0,0.0,0.0,0.0,0.0,
2.180380999999994,0.0,0.0,0.0,0.0,0.0,0.0,0.0,0.125,0.7531737510000001,0.01,0.0,0.0,0.0,0.0,-0.0,0.0,0.0,0.534667914,0.01,0.0,0.0,0.0,0.0,0.0,0.0,0.0,3.345946923,0.01,0.0,0.0,0.0,0.0,-0.0,0.0,0.125,1.64794905,0.01,-0.0012207029999999897,0.14000000059604645,-0.3400000035762787,-0.009999999776482582,-0.005615234375,1.220703125E-4,1.03094482421875,25.709999084472656,0.0,0.0,-9.1552734375E-5,-0.0052032470703125,Waiting,0.0,0.0,0.0,0.0,0.0,0.0,0.0,0.0,
2.2004299999999932,0.0,0.0,0.0,0.0,0.0,-462.9921242594719,0.0,0.125,0.754394454,4.932113993030843,0.0,0.0,0.0,0.0,462.9921242594719,0.0,0.0,0.535888617,4.963632117503084,0.0,0.0,0.0,0.0,-462.9921242594719,0.0,0.0,3.34472622,4.940262766669736,-0.0024414059999999793,0.0,0.0,0.0,462.9921242594719,0.0,0.125,1.646728347,4.957862277780858,0.0,0.14000000059604645,-0.3400000035762787,0.0,-0.00726318359375,0.00341796875,1.03094482421875,25.709999084472656,0.0,-1.0,-9.1552734375E-5,-0.0052032470703125,Waiting,0.0,0.0,0.0,0.0,0.0,0.0,0.0,0.0,
2.2208640000000015,0.0,0.0,0.0,0.0,0.0,-1256.6929399967194,0.0,0.125,0.7531737510000001,4.932250999999998,0.0,0.0,0.0,0.0,1256.6929399967194,0.0,0.0,0.534667914,4.963769999999998,0.0,0.0,0.0,0.0,-1256.6929399967194,0.0,0.0,3.343505517,0.01,0.0,0.0,0.0,0.0,1256.6929399967194,0.0,0.125,1.64794905,0.01,0.0,0.14000000059604645,-0.3400000035762787,-0.009999999776482582,-0.00665283203125,0.00274658203125,1.02197265625,25.709999084472656,0.0,0.0,-9.1552734375E-5,-0.0052032470703125,Waiting,0.0,0.0,0.0,0.0,0.0,0.0,0.0,0.0,
2.239894,0.0,0.0,0.0,0.375,0.0,-1785.826796293259,0.0,0.125,0.755615157,4.932113993030843,-0.0012207030000004337,0.0,1.875,0.0,1785.826796293259,0.0,0.0,0.534667914,4.963632117503084,0.0,0.0,1.25,0.0,-1785.826796293259,0.0,0.0,3.34472622,4.940262766669736,-0.0024414059999999793,0.0,1.25,0.0,1785.826796293259,0.0,0.125,1.64794905,4.957862277780858,0.0,0.20000000298023224,-0.4000000059604645,-0.019999999552965164,-0.35693359375,0.0089111328125,1.11102294921875,25.709999084472656,0.0,-349.0,-3.204345703125E-4,-0.0052032470703125,Waiting,0.0,0.0,0.0,0.0,0.0,0.0,0.0,0.0,
2.2604639999999927,0.0,0.0,-15.0,4.5,-15.0,-2100.0,0.0,0.125,0.7788085140000001,4.931976986061683,0.003662109000000413,16.0,8.0,30.0,2100.0,0.0,0.0,0.531005805,4.963494235006166,0.0,-6.0,5.875,-7.5,-2100.0,0.0,0.0,3.345946923,4.9401255333394705,0.0,3.0,5.125,22.5,2100.0,0.0,0.125,1.649169753,4.957724555561715,0.0,0.14000000059604645,-0.699999988079071,-0.019999999552965164,-0.560791015625,-0.07177734375,0.87152099609375,25.709999084472656,0.0,-549.0,-0.00115966796875,-0.0052490234375,Waiting,0.0,0.0,0.0,0.0,0.0,0.0,0.0,0.0,
2.2807060000000057,0.0,0.0,-15.0,9.75,-60.0,-1885.0393474102018,0.0,0.125,0.7788085140000001,4.931976986061683,0.02075195099999938,16.0,18.5,82.5,1885.0393474102018,0.0,0.0,0.533447211,4.963494235006166,0.0,-6.0,11.625,-30.0,-1885.0393474102018,0.0,0.0,3.345946923,4.9401255333394705,-0.0012207030000004337,3.0,5.125,22.5,1885.0393474102018,0.0,0.125,1.64794905,4.957724555561715,-0.0012207029999999897,0.09000000357627869,-1.4299999475479126,-0.019999999552965164,-0.36810302734375,-0.07391357421875,0.82794189453125,25.709999084472656,0.0,-347.0,-0.004730224609375,-0.00506591796875,Waiting,0.0,0.0,0.0,0.0,0.0,0.0,0.0,0.0,
2.3012189999999975,0.0,0.0,-15.0,15.375,-127.5,-876.3779729604721,0.0,0.125,0.7788085140000001,4.931976986061683,-0.0012207029999995456,16.0,29.75,142.5,876.3779729604721,0.0,0.0,0.535888617,4.963494235006166,0.0,-6.0,15.5,-75.0,-876.3779729604721,0.0,0.0,3.345946923,4.9401255333394705,0.0,3.0,9.375,82.5,876.3779729604721,0.0,0.125,1.64794905,4.957724555561715,0.0,0.2199999988079071,-1.8700000047683716,-0.07999999821186066,-0.564697265625,-0.0823974609375,1.10992431640625,25.709999084472656,0.0,-527.0,-0.00738525390625,-0.005035400390625,Waiting,0.0,0.0,0.0,0.0,0.0,0.0,0.0,0.0,
2.321172999999995,0.0,0.0,-15.0,16.375,-195.0,0.0,0.0,0.0,0.7788085140000001,4.931976986061683,0.0012207029999995456,16.0,30.875,217.5,0.0,0.0,0.0,0.539550726,4.963494235006166,0.0,-6.0,14.875,-142.5,0.0,0.0,0.0,3.345946923,4.9401255333394705,0.0012207030000004337,3.0,10.25,165.0,0.0,0.0,0.125,1.64794905,4.957724555561715,0.0,0.07000000029802322,-2.140000104904175,-0.10999999940395355,-0.269775390625,0.22552490234375,1.04302978515625,25.709999084472656,0.0,-230.0,-0.01055908203125,-0.004913330078125,Waiting,0.0,0.0,0.0,0.0,0.0,0.0,0.0,0.0,
2.339831999999995,0.0,0.0,-15.0,11.375,-277.5,213.28125000000003,0.0,0.0,0.7775878110000001,4.930743923313722,0.0,16.0,21.5,292.5,-213.28125000000003,0.0,0.0,0.54931635,4.962253292508218,0.004882811999999959,-6.0,8.75,-217.5,213.28125000000003,0.0,0.0,3.341064111,4.938890433341514,0.0,3.0,8.125,255.0,-213.28125000000003,0.0,0.125,1.64794905,4.956485055563764,0.0,0.23000000417232513,-2.0999999046325684,-0.029999999329447746,-0.012939453125,-0.0667724609375,1.12371826171875,25.709999084472656,0.0,28.0,-0.017791748046875,-0.0048065185546875,Waiting,0.0,0.0,0.0,0.0,0.0,0.0,0.0,0.0,
2.360470000000001,0.0,0.0,-15.0,5.125,-330.0,0.0,0.0,0.125,0.7775878110000001,4.930743923313722,0.0,16.0,8.625,322.5,0.0,0.0,0.0,0.5432128350000001,4.962253292508218,0.004882811999999959,-6.0,4.375,-300.0,0.0,0.0,0.0,3.3227535660000003,4.938890433341514,-0.007324217999999938,56.0,4.125,322.5,0.0,0.0,0.125,1.64794905,4.956485055563764,0.0,0.20000000298023224,-1.9900000095367432,0.029999999329447746,-0.06597900390625,-0.10150146484375,0.92425537109375,25.709999084472656,0.0,-33.0,-0.0214996337890625,-0.00494384765625,Waiting,0.0,0.0,0.0,0.0,0.0,0.0,0.0,0.0,
2.3807810000000025,0.0,0.0,-62.0,0.875,-345.0,0.0,0.0,0.125,0.7775878110000001,4.930743923313722,0.0012207030000004337,51.0,1.5,300.0,0.0,0.0,0.0,0.545654241,4.962253292508218,0.009765623999999917,-67.0,0.75,-360.0,0.0,0.0,0.0,3.3227535660000003,4.938890433341514,-0.007324217999999938,56.0,0.375,345.0,0.0,0.0,0.125,1.649169753,4.956485055563764,0.0,0.20000000298023224,-1.9299999475479126,0.09000000357627869,0.370361328125,-0.05828857421875,1.12652587890625,25.709999084472656,0.0,408.0,-0.02496337890625,-0.005218505859375,Waiting,0.0,0.0,0.0,0.0,0.0,0.0,0.0,0.0,
2.4003610000000046,0.0,0.0,-62.0,0.0,-315.0,0.0,0.0,0.125,0.76904289,4.930743923313722,0.0012207030000004337,51.0,0.25,247.5,0.0,0.0,0.0,0.544433538,4.962253292508218,0.009765623999999917,-67.0,0.125,-390.0,0.0,0.0,0.0,3.3227535660000003,4.938890433341514,-0.007324217999999938,56.0,0.0,315.0,0.0,0.0,0.125,1.645507644,4.956485055563764,0.0,0.1899999976158142,-1.3300000429153442,0.05999999865889549,-0.29730224609375,0.1898193359375,0.50323486328125,25.709999084472656,0.0,-285.0,-0.030242919921875,-0.0045928955078125,Waiting,0.0,0.0,0.0,0.0,0.0,0.0,0.0,0.0,
2.4225080000000014,0.0,0.0,-62.0,0.0,-277.5,0.0,0.0,0.125,0.767822187,4.930743923313722,-0.010986327000000351,51.0,0.0,225.0,0.0,0.0,0.0,0.5432128350000001,4.962253292508218,-0.004882811999999959,-67.0,0.0,-382.5,0.0,0.0,0.0,3.3215328630000003,4.938890433341514,-0.017089841999999855,56.0,0.0,285.0,0.0,0.0,0.125,1.646728347,4.956485055563764,0.0,0.20000000298023224,-1.2899999618530273,0.0,0.22821044921875,0.023193359375,0.59228515625,25.709999084472656,0.0,241.0,-0.0327911376953125,-0.003875732421875,Waiting,0.0,0.0,0.0,0.0,0.0,0.0,0.0,0.0,
2.4401600000000037,0.0,0.0,-62.0,0.0,-262.5,0.0,0.0,0.125,0.767822187,4.930743923313722,-0.010986327000000351,51.0,0.0,232.5,0.0,0.0,0.0,0.544433538,4.962253292508218,-0.004882811999999959,-67.0,0.0,-352.5,0.0,0.0,0.0,3.3227535660000003,4.938890433341514,-0.017089841999999855,56.0,0.0,277.5,0.0,0.0,0.125,1.645507644,4.956485055563764,0.0,0.2800000011920929,-1.2400000095367432,-0.03999999910593033,0.284423828125,0.0023193359375,1.03558349609375,25.709999084472656,0.0,306.0,-0.03497314453125,-0.0031585693359375,Waiting,0.0,0.0,0.0,0.0,0.0,0.0,0.0,0.0,
2.4604239999999993,0.0,0.0,-62.0,0.0,-270.0,0.0,0.0,0.125,0.767822187,4.930743923313722,-0.010986327000000351,51.0,0.0,270.0,0.0,0.0,0.0,0.544433538,4.962253292508218,-0.004882811999999959,-67.0,0.0,-315.0,0.0,0.0,0.0,3.3264156750000002,4.938890433341514,0.0,56.0,0.0,300.0,0.0,0.0,0.125,1.64794905,4.956485055563764,0.0,0.25999999046325684,-1.2899999618530273,-0.09000000357627869,-0.081787109375,-0.007568359375,1.47955322265625,25.709999084472656,0.0,-48.0,-0.0369720458984375,-0.0024566650390625,Waiting,0.0,0.0,0.0,0.0,0.0,0.0,0.0,0.0,
2.4887580000000016,0.0,0.0,-116.0,0.0,-300.0,0.0,0.0,0.125,0.7641600780000001,4.930743923313722,-0.0012207029999995456,113.0,0.0,330.0,0.0,0.0,0.0,0.544433538,4.962253292508218,0.0,-104.0,0.0,-277.5,0.0,0.0,0.0,3.3276363780000002,4.938890433341514,0.0,114.0,0.0,330.0,0.0,0.0,0.125,1.646728347,4.956485055563764,0.0,0.2199999988079071,-0.800000011920929,0.0,0.1756591796875,0.08392333984375,0.73004150390625,25.709999084472656,0.0,185.0,-0.0419769287109375,-4.2724609375E-4,Waiting,0.0,0.0,0.0,0.0,0.0,0.0,0.0,0.0,
2.5064330000000044,0.0,0.0,-116.0,0.0,-330.0,0.0,0.0,0.125,0.7629393750000001,4.930743923313722,-0.0012207029999995456,113.0,0.0,367.5,0.0,0.0,0.0,0.544433538,4.962253292508218,0.0,-104.0,0.0,-247.5,0.0,0.0,0.0,3.3227535660000003,4.938890433341514,0.0,114.0,0.0,352.5,0.0,0.0,0.125,1.64794905,4.956485055563764,0.0,0.23999999463558197,-0.8100000023841858,0.019999999552965164,0.054443359375,-0.024658203125,1.0301513671875,25.709999084472656,0.0,69.0,-0.0431365966796875,3.0517578125E-4,Waiting,0.0,0.0,0.0,0.0,0.0,0.0,0.0,0.0,
2.5273120000000056,0.0,0.0,-116.0,0.0,-352.5,0.0,0.0,0.125,0.7629393750000001,4.930743923313722,-0.003662109000000413,113.0,0.0,360.0,0.0,0.0,0.0,0.539550726,4.962253292508218,0.0,-104.0,0.0,-217.5,0.0,0.0,0.0,3.3227535660000003,4.938890433341514,0.004882811999999959,114.0,0.0,352.5,0.0,0.0,0.125,1.64794905,4.956485055563764,0.0,0.2199999988079071,-0.800000011920929,0.05000000074505806,0.11883544921875,0.0089111328125,1.17901611328125,25.709999084472656,0.0,135.0,-0.0441436767578125,0.00103759765625,Waiting,0.0,0.0,0.0,0.0,0.0,0.0,0.0,0.0,
2.545828999999998,0.0,0.0,-116.0,0.0,-337.5,0.0,0.0,0.125,0.7629393750000001,4.930743923313722,-0.003662109000000413,113.0,0.0,307.5,0.0,0.0,0.0,0.539550726,4.962253292508218,0.0,-104.0,0.0,-187.5,0.0,0.0,0.0,3.3227535660000003,4.938890433341514,0.004882811999999959,114.0,0.0,315.0,0.0,0.0,0.125,1.64794905,4.956485055563764,0.0,0.2199999988079071,-0.800000011920929,0.05000000074505806,0.11883544921875,0.0089111328125,1.17901611328125,25.709999084472656,0.0,135.0,-0.0441436767578125,0.00103759765625,Waiting,0.0,0.0,0.0,0.0,0.0,0.0,0.0,0.0,
2.5640120000000026,0.0,0.0,-116.0,0.0,-300.0,0.0,0.0,0.125,0.7641600780000001,4.930743923313722,0.0,113.0,0.0,255.0,0.0,0.0,0.0,0.539550726,4.962253292508218,-0.003662108999999525,-104.0,0.0,-157.5,0.0,0.0,0.0,3.3227535660000003,4.938890433341514,-0.004882811999999959,114.0,0.0,270.0,0.0,0.0,0.125,1.650390456,4.956485055563764,0.0012207029999999897,0.18000000715255737,-0.5699999928474426,0.07000000029802322,0.0848388671875,0.00347900390625,0.94622802734375,25.709999084472656,0.0,94.0,-0.0457305908203125,0.00103759765625,Waiting,0.0,0.0,0.0,0.0,0.0,0.0,0.0,0.0,
2.5852839999999997,0.0,0.0,-116.0,0.0,-262.5,0.0,0.0,0.125,0.7641600780000001,4.930743923313722,0.0,113.0,0.0,225.0,0.0,0.0,0.0,0.539550726,4.962253292508218,-0.003662108999999525,-104.0,0.0,-127.5,0.0,0.0,0.0,3.3227535660000003,4.938890433341514,-0.004882811999999959,114.0,0.0,247.5,0.0,0.0,0.125,1.64794905,4.956485055563764,0.0012207029999999897,0.1599999964237213,-0.5,0.09000000357627869,0.15325927734375,-0.02593994140625,0.9161376953125,25.709999084472656,0.0,161.0,-0.046295166015625,0.0010223388671875,Waiting,0.0,0.0,0.0,0.0,0.0,0.0,0.0,0.0,
2.6019609999999957,0.0,0.0,-116.0,0.0,-232.5,0.0,0.0,0.125,0.7629393750000001,4.930743923313722,0.0,113.0,0.0,202.5,0.0,0.0,0.0,0.539550726,4.962253292508218,-0.003662108999999525,-104.0,0.0,-105.0,0.0,0.0,0.0,3.3178707540000003,4.938890433341514,-0.004882811999999959,144.0,0.0,217.5,0.0,0.0,0.125,1.64794905,4.956485055563764,0.0012207029999999897,0.18000000715255737,-0.4300000071525574,0.09000000357627869,0.11541748046875,0.07171630859375,1.0552978515625,25.700000762939453,0.0,123.0,-0.046661376953125,0.00103759765625,Waiting,0.0,0.0,0.0,0.0,0.0,0.0,0.0,0.0,
2.622100999999995,0.0,0.0,-149.0,0.0,-232.5,0.0,0.0,0.125,0.7629393750000001,4.930743923313722,0.0012207030000004337,141.0,0.0,180.0,0.0,0.0,0.0,0.538330023,4.962253292508218,-0.006103515000000392,-119.0,0.0,-90.0,0.0,0.0,0.0,3.3215328630000003,4.938890433341514,0.0,144.0,0.0,187.5,0.0,0.0,0.125,1.645507644,4.956485055563764,-0.0012207029999999897,0.20999999344348907,-0.2800000011920929,0.07000000029802322,0.1239013671875,0.04583740234375,1.04095458984375,25.700000762939453,0.0,129.0,-0.046966552734375,0.001190185546875,Waiting,0.0,0.0,0.0,0.0,0.0,0.0,0.0,0.0,
2.64175,0.0,0.0,-149.0,0.0,-210.0,0.0,0.0,0.125,0.7629393750000001,4.930743923313722,0.0012207030000004337,141.0,0.0,157.5,0.0,0.0,0.0,0.5407714290000001,4.962253292508218,-0.006103515000000392,-119.0,0.0,-82.5,0.0,0.0,0.0,3.3227535660000003,4.938890433341514,0.0,144.0,0.0,165.0,0.0,0.0,0.125,1.64794905,4.956485055563764,-0.0012207029999999897,0.2199999988079071,-0.1899999976158142,0.05000000074505806,0.11590576171875,0.0242919921875,0.9945068359375,25.700000762939453,0.0,119.0,-0.046875,0.0013427734375,Waiting,0.0,0.0,0.0,0.0,0.0,0.0,0.0,0.0,
2.6606570000000067,0.0,0.0,-149.0,0.0,-180.0,0.0,0.0,0.125,0.7629393750000001,4.930743923313722,0.0012207030000004337,141.0,0.0,157.5,0.0,0.0,0.0,0.534667914,4.962253292508218,-0.006103515000000392,-119.0,0.0,-82.5,0.0,0.0,0.0,3.3227535660000003,4.938890433341514,0.0,144.0,0.0,135.0,0.0,0.0,0.125,1.64794905,4.956485055563764,0.0012207029999999897,0.23000000417232513,-0.14000000059604645,0.03999999910593033,0.11151123046875,-0.02154541015625,1.0184326171875,25.700000762939453,0.0,114.0,-0.0466156005859375,0.0014801025390625,Waiting,0.0,0.0,0.0,0.0,0.0,0.0,0.0,0.0,
2.681206999999995,0.0,0.0,-149.0,0.0,-142.5,0.0,0.0,0.125,0.7629393750000001,4.930743923313722,0.0,141.0,0.0,127.5,0.0,0.0,0.0,0.5407714290000001,4.962253292508218,0.0,-119.0,0.0,-67.5,0.0,0.0,0.0,3.3215328630000003,4.938890433341514,0.0,144.0,0.0,112.5,0.0,0.0,0.125,1.649169753,4.956485055563764,0.0012207029999999897,0.20000000298023224,0.009999999776482582,0.019999999552965164,0.10626220703125,-0.018310546875,1.01556396484375,25.700000762939453,0.0,105.0,-0.0456390380859375,0.0016937255859375,Waiting,0.0,0.0,0.0,0.0,0.0,0.0,0.0,0.0,
2.700919999999998,0.0,0.0,-149.0,0.0,-105.0,0.0,0.0,0.125,0.7641600780000001,4.930743923313722,0.0,141.0,0.0,105.0,0.0,0.0,0.0,0.535888617,4.962253292508218,0.0,-119.0,0.0,-60.0,0.0,0.0,0.0,3.3227535660000003,4.938890433341514,0.0,144.0,0.0,112.5,0.0,0.0,0.125,1.64794905,4.956485055563764,0.0012207029999999897,0.18000000715255737,0.07999999821186066,0.019999999552965164,0.102294921875,-0.0439453125,1.056884765625,25.700000762939453,0.0,100.0,-0.044921875,0.001739501953125,Waiting,0.0,0.0,0.0,0.0,0.0,0.0,0.0,0.0,
2.72225,0.0,0.0,-149.0,0.0,-67.5,0.0,0.0,0.125,0.7641600780000001,4.930743923313722,-0.0012207030000004337,141.0,0.0,75.0,0.0,0.0,0.0,0.535888617,4.962253292508218,0.0024414059999999793,-119.0,0.0,-45.0,0.0,0.0,0.0,3.3215328630000003,4.938890433341514,0.0,150.0,0.0,82.5,0.0,0.0,0.125,1.64794905,4.956485055563764,0.0,0.17000000178813934,0.12999999523162842,0.019999999552965164,0.07867431640625,-0.00555419921875,1.06805419921875,25.700000762939453,0.0,76.0,-0.044097900390625,0.001739501953125,Waiting,0.0,0.0,0.0,0.0,0.0,0.0,0.0,0.0,
2.740918000000005,0.0,0.0,-153.0,0.0,-45.0,0.0,0.0,0.125,0.7629393750000001,4.930743923313722,-0.0012207030000004337,147.0,0.0,52.5,0.0,0.0,0.0,0.534667914,4.962253292508218,0.0024414059999999793,-123.0,0.0,-30.0,0.0,0.0,0.0,3.3215328630000003,4.938890433341514,0.0,150.0,0.0,60.0,0.0,0.0,0.125,1.646728347,4.956485055563764,0.0,0.15000000596046448,0.18000000715255737,0.05000000074505806,0.02288818359375,0.01861572265625,0.97998046875,25.700000762939453,0.0,19.0,-0.0431976318359375,0.001739501953125,Waiting,0.0,0.0,0.0,0.0,0.0,0.0,0.0,0.0,
2.7603439999999972,0.0,0.0,-153.0,0.0,-22.5,0.0,0.0,0.125,0.7641600780000001,4.930743923313722,-0.0012207030000004337,147.0,0.0,30.0,0.0,0.0,0.0,0.534667914,4.962253292508218,0.0024414059999999793,-123.0,0.0,-15.0,0.0,0.0,0.0,3.3227535660000003,4.938890433341514,0.0,150.0,0.0,37.5,0.0,0.0,0.125,1.64794905,4.956485055563764,-0.0012207029999999897,0.17000000178813934,0.17000000178813934,0.05999999865889549,0.011474609375,0.0413818359375,1.07452392578125,25.700000762939453,0.0,8.0,-0.0431976318359375,0.00177001953125,Waiting,0.0,0.0,0.0,0.0,0.0,0.0,0.0,0.0,
2.780403999999995,0.0,0.0,-153.0,0.0,-7.5,0.0,0.0,0.125,0.7641600780000001,4.930743923313722,0.0012207030000004337,147.0,0.0,7.5,0.0,0.0,0.0,0.539550726,4.962253292508218,0.0012207030000004337,-123.0,0.0,-7.5,0.0,0.0,0.0,3.3227535660000003,4.938890433341514,0.0,150.0,0.0,15.0,0.0,0.0,0.125,1.649169753,4.956485055563764,-0.0012207029999999897,0.1899999976158142,0.17000000178813934,0.07000000029802322,-0.01654052734375,0.03009033203125,1.07257080078125,25.700000762939453,0.0,-19.0,-0.0431976318359375,0.001861572265625,Waiting,0.0,0.0,0.0,0.0,0.0,0.0,0.0,0.0,
2.799846000000005,0.0,0.0,-153.0,0.0,0.0,0.0,0.0,0.125,0.7629393750000001,4.930743923313722,0.0012207030000004337,147.0,0.0,0.0,0.0,0.0,0.0,0.534667914,4.962253292508218,0.0012207030000004337,-123.0,0.0,0.0,0.0,0.0,0.0,3.3227535660000003,4.938890433341514,0.0,150.0,0.0,7.5,0.0,0.0,0.125,1.64794905,4.956485055563764,-0.0012207029999999897,0.20000000298023224,0.17000000178813934,0.07000000029802322,-0.01470947265625,-0.005859375,0.97662353515625,25.700000762939453,0.0,-17.0,-0.0431976318359375,0.0019683837890625,Waiting,0.0,0.0,0.0,0.0,0.0,0.0,0.0,0.0,
2.8229100000000034,0.0,0.0,-153.0,0.0,0.0,0.0,0.0,0.125,0.7629393750000001,4.930743923313722,-0.0012207030000004337,147.0,0.0,0.0,0.0,0.0,0.0,0.534667914,4.962253292508218,-0.0024414059999999793,-123.0,0.0,0.0,0.0,0.0,0.0,3.3227535660000003,4.938890433341514,0.0,150.0,0.0,0.0,0.0,0.0,0.125,1.646728347,4.956485055563764,0.0,0.20000000298023224,0.14000000059604645,0.05999999865889549,-0.03289794921875,-0.01361083984375,1.03704833984375,25.700000762939453,0.0,-35.0,-0.0432281494140625,0.0019683837890625,Waiting,0.0,0.0,0.0,0.0,0.0,0.0,0.0,0.0,
2.841925000000003,0.0,0.0,-153.0,0.0,0.0,0.0,0.0,0.125,0.7629393750000001,4.930743923313722,-0.0012207030000004337,147.0,0.0,0.0,0.0,0.0,0.0,0.534667914,4.962253292508218,-0.0024414059999999793,-123.0,0.0,0.0,0.0,0.0,0.0,3.3227535660000003,4.938890433341514,0.0,150.0,0.0,0.0,0.0,0.0,0.125,1.646728347,4.956485055563764,0.0,0.1899999976158142,0.11999999731779099,0.05000000074505806,-0.0299072265625,-0.00933837890625,1.06536865234375,25.700000762939453,0.0,-32.0,-0.0433197021484375,0.0019683837890625,Waiting,0.0,0.0,0.0,0.0,0.0,0.0,0.0,0.0,
2.860697,0.0,0.0,-153.0,0.0,0.0,0.0,0.0,0.125,0.7641600780000001,4.930743923313722,-0.0012207030000004337,147.0,0.0,0.0,0.0,0.0,0.0,0.539550726,4.962253292508218,-0.0024414059999999793,-123.0,0.0,0.0,0.0,0.0,0.0,3.3227535660000003,4.938890433341514,0.0,150.0,0.0,0.0,0.0,0.0,0.125,1.646728347,4.956485055563764,0.0,0.1599999964237213,0.09000000357627869,0.029999999329447746,-0.03125,-0.01336669921875,1.00408935546875,25.700000762939453,0.0,-32.0,-0.043609619140625,0.00189208984375,Waiting,0.0,0.0,0.0,0.0,0.0,0.0,0.0,0.0,
2.880925000000003,0.0,0.0,-153.0,0.0,0.0,0.0,0.0,0.125,0.7629393750000001,4.930743923313722,0.0,147.0,0.0,0.0,0.0,0.0,0.0,0.5407714290000001,4.962253292508218,0.0,-123.0,0.0,0.0,0.0,0.0,0.0,3.3215328630000003,4.938890433341514,0.0,150.0,0.0,0.0,0.0,0.0,0.125,1.649169753,4.956485055563764,0.0,0.15000000596046448,0.05999999865889549,0.019999999552965164,-0.0286865234375,0.00457763671875,1.0169677734375,25.700000762939453,0.0,-29.0,-0.0438232421875,0.0018310546875,Waiting,0.0,0.0,0.0,0.0,0.0,0.0,0.0,0.0,
2.9015950000000013,0.0,0.0,-153.0,0.0,0.0,0.0,0.0,0.125,0.7629393750000001,4.930743923313722,0.0,147.0,0.0,0.0,0.0,0.0,0.0,0.5407714290000001,4.962253292508218,0.0,-123.0,0.0,0.0,0.0,0.0,0.0,3.3227535660000003,4.938890433341514,0.0,150.0,0.0,0.0,0.0,0.0,0.125,1.64794905,4.956485055563764,0.0,0.1599999964237213,0.029999999329447746,0.029999999329447746,-0.0343017578125,0.008056640625,1.0303955078125,25.700000762939453,0.0,-34.0,-0.0440826416015625,0.0018310546875,Waiting,0.0,0.0,0.0,0.0,0.0,0.0,0.0,0.0,
2.922554999999993,0.0,0.0,-153.0,0.0,0.0,-115.74803106486796,0.0,0.125,0.782470623,0.01,0.0,147.0,0.0,0.0,115.74803106486796,0.0,0.0,0.539550726,0.01,0.0,-123.0,0.0,0.0,-115.74803106486796,0.0,0.0,3.3227535660000003,0.01,0.0,150.0,0.0,0.0,115.74803106486796,0.0,0.125,1.646728347,0.01,0.0,0.18000000715255737,0.0,0.05000000074505806,-0.03076171875,0.0242919921875,1.01922607421875,25.700000762939453,0.0,-30.0,-0.04473876953125,0.00189208984375,Waiting,0.0,0.0,0.0,0.0,0.0,0.0,0.0,0.0,
2.9410739999999933,0.0,0.0,-153.0,0.0,0.0,-297.6378098130226,0.0,0.125,0.7641600780000001,0.01,0.0,147.0,0.0,0.0,297.6378098130226,0.0,0.0,0.5407714290000001,0.01,0.0,-123.0,0.0,0.0,-297.6378098130226,0.0,0.0,3.3215328630000003,0.01,0.0,150.0,0.0,0.0,297.6378098130226,0.0,0.125,1.64794905,0.01,0.0,0.18000000715255737,-0.009999999776482582,0.05999999865889549,-0.0240478515625,0.00897216796875,1.0230712890625,25.700000762939453,0.0,-23.0,-0.0451202392578125,0.001953125,Waiting,0.0,0.0,0.0,0.0,0.0,0.0,0.0,0.0,
