Time,ClimberA1,ClimberA2,FRpos,FRCurrent,FRspeed,FRsetpoint,FRApos,FRACurrent,FREncpos,FREncSetpoint,FREncSpeed,FLpos,FLCurrent,FLspeed,FLsetpoint,FLApos,FLACurrent,FLEncpos,FLEncSetpoint,FLEncSpeed,BRpos,BRCurrent,BRspeed,BRsetpoint,BRApos,BRACurrent,BREncpos,BREncSetpoint,BREncSpeed,BLpos,BLCurrent,BLspeed,BLsetpoint,BLApos,BLACurrent,BLEncpos,BLEncSetpoint,BLEncSpeed,navx_Pitch,navx_Roll,navx_Yaw,navx_XAcc,navx_YAcc,navx_ZAcc,navx_Temp,navx_Bar,navx_Alt,navx_XDis,navx_YDis,GearPlacerState,ShootOutputV,ShootOutputCurrent,ShootEncPos,ShootEncVelocity,ShootSpeed,ShootSetpoint,CarouselSetpoint,CarouselCurrent,
0.1688770000000077,0.0,0.0,-739.0,6.0,97.5,760.5859372116196,0.0,0.25,0.731201097,4.86027716431758,0.0,2718.0,15.875,-157.5,-925.2332009639097,0.0,0.25,0.471191358,4.904253079834623,0.0,-204.0,8.0,90.0,760.5859372116196,0.0,0.0,3.3776852010000002,0.07209274990373152,0.0,6820.0,7.875,-45.0,-925.2332009639097,0.0,0.125,1.671142407,0.05944773633345972,0.0,0.1899999976158142,-0.4399999976158142,-58.06999969482422,-0.07904052734375,-0.0126953125,1.0477294921875,36.95000076293945,0.0,-23.0,-2.2532501220703125,-0.8123016357421875,Closing,0.0,0.0,-1.0,0.0,0.0,0.0,0.0,0.0,
0.2876719999999914,0.0,0.0,-737.0,3.125,7.5,0.0,0.0,0.25,0.727538988,0.01,0.0,2689.0,3.875,-262.5,-0.0,0.0,0.25,0.47241206100000005,0.01,0.0,-204.0,4.5,7.5,0.0,0.0,0.125,3.3789059040000002,0.01,0.0,6819.0,4.625,-7.5,-0.0,0.0,0.25,1.669921704,0.01,0.0,0.1599999964237213,-0.4699999988079071,-58.04999923706055,0.02032470703125,-0.037841796875,1.02276611328125,36.95000076293945,0.0,49.0,-2.2525177001953125,-0.8153076171875,Closing,0.0,0.0,-1.0,0.0,0.0,0.0,0.0,0.0,
0.368695000000007,0.0,0.0,-737.0,3.25,0.0,0.0,0.0,0.375,0.7519530480000001,0.01,0.0,2665.0,4.75,-15.0,-0.0,0.0,0.25,0.477294873,0.01,0.0,-204.0,4.375,0.0,0.0,0.0,0.125,3.3789059040000002,0.01,0.0,6819.0,4.875,0.0,-0.0,0.0,0.25,1.671142407,0.01,0.0,0.18000000715255737,-0.47999998927116394,-58.040000915527344,0.02105712890625,-0.03704833984375,1.03607177734375,36.95000076293945,0.0,50.0,-2.25152587890625,-0.8157958984375,Closing,0.0,0.0,-1.0,0.0,0.0,0.0,0.0,0.0,
0.4435890000000072,0.0,0.0,-737.0,3.625,0.0,0.0,0.0,0.375,0.7653807810000001,0.01,0.02441406000000068,2664.0,5.875,0.0,-0.0,0.0,0.25,0.47241206100000005,0.01,0.0,-204.0,4.375,0.0,0.0,0.0,0.125,3.3789059040000002,0.01,0.0,6819.0,5.0,0.0,-0.0,0.0,0.25,1.671142407,0.01,0.0,0.17000000178813934,-0.47999998927116394,-58.04999923706055,-0.0115966796875,0.015380859375,1.01629638671875,36.95000076293945,0.0,-11.0,-2.2510986328125,-0.8157958984375,Closing,0.0,0.0,-1.0,0.0,0.0,0.0,0.0,0.0,
0.5243340000000025,0.0,0.0,-737.0,3.625,0.0,0.0,0.0,0.25,0.770263593,0.01,0.0,2664.0,5.875,0.0,-0.0,0.0,0.25,0.477294873,0.01,0.0,-204.0,4.375,0.0,0.0,0.0,0.125,3.3776852010000002,0.01,0.0,6819.0,5.0,0.0,-0.0,0.0,0.25,1.671142407,0.01,0.0,0.18000000715255737,-0.47999998927116394,-58.04999923706055,-0.01416015625,0.0067138671875,1.03289794921875,36.95000076293945,0.0,-5.0,-2.2510986328125,-0.8157958984375,Closing,0.0,0.0,-1.0,0.0,0.0,0.0,0.0,0.0,
0.6272630000000062,0.0,0.0,-737.0,3.625,0.0,0.0,0.0,0.25,0.76904289,0.01,0.0,2663.0,5.75,0.0,-0.0,0.0,0.25,0.477294873,0.01,0.0,-204.0,4.375,0.0,0.0,0.0,0.125,3.3776852010000002,0.01,0.0,6819.0,5.0,0.0,-0.0,0.0,0.25,1.671142407,0.01,0.0,0.18000000715255737,-0.4699999988079071,-58.04999923706055,-0.01165771484375,0.01019287109375,1.02655029296875,36.939998626708984,0.0,-7.0,-2.2510986328125,-0.8157958984375,Closing,0.0,0.0,-1.0,0.0,0.0,0.0,0.0,0.0,
0.7135570000000007,0.0,0.0,-737.0,3.625,0.0,0.0,0.0,0.25,0.770263593,0.01,0.0,2663.0,5.75,0.0,-0.0,0.0,0.25,0.477294873,0.01,0.0,-204.0,4.375,0.0,0.0,0.0,0.125,3.3801266070000002,0.01,0.0,6819.0,5.0,0.0,-0.0,0.0,0.25,1.669921704,0.01,0.0,0.1899999976158142,-0.44999998807907104,-58.04999923706055,-0.01104736328125,0.007080078125,1.0220947265625,36.939998626708984,0.0,-4.0,-2.2510986328125,-0.8157958984375,Closing,0.0,0.0,-1.0,0.0,0.0,0.0,0.0,0.0,
0.8054549999999872,0.0,0.0,-737.0,3.75,0.0,0.0,0.0,0.25,0.7751464050000001,0.01,0.0,2663.0,5.625,0.0,-0.0,0.0,0.25,0.477294873,0.01,0.0,-204.0,4.375,0.0,0.0,0.0,0.125,3.3789059040000002,0.01,-0.0012207029999999897,6819.0,5.0,0.0,-0.0,0.0,0.25,1.669921704,0.01,0.0,0.1899999976158142,-0.46000000834465027,-58.04999923706055,-0.00927734375,0.00494384765625,1.02581787109375,36.939998626708984,0.0,-1.0,-2.2510986328125,-0.8157958984375,Closing,0.0,0.0,-1.0,0.0,0.0,0.0,0.0,0.0,
0.8884400000000023,0.0,0.0,-737.0,3.75,0.0,0.0,0.0,0.25,0.771484296,0.01,0.0,2663.0,5.625,0.0,-0.0,0.0,0.25,0.47607417,0.01,0.0,-204.0,4.375,0.0,0.0,0.0,0.125,3.3789059040000002,0.01,0.0012207029999999897,6819.0,5.125,0.0,-0.0,0.0,0.25,1.671142407,0.01,0.0,0.1899999976158142,-0.44999998807907104,-58.04999923706055,-0.001220703125,-6.103515625E-5,1.02288818359375,36.939998626708984,0.0,6.0,-2.2510986328125,-0.8157958984375,Closing,0.0,0.0,-1.0,0.0,0.0,0.0,0.0,0.0,
0.9752539999999863,0.0,0.0,-737.0,3.75,0.0,0.0,0.0,0.25,0.770263593,0.01,0.0,2663.0,5.625,0.0,-0.0,0.0,0.25,0.477294873,0.01,0.0,-204.0,4.375,0.0,0.0,0.0,0.125,3.3789059040000002,0.01,0.0,6819.0,5.125,0.0,-0.0,0.0,0.25,1.669921704,0.01,0.0,0.1899999976158142,-0.4399999976158142,-58.04999923706055,-0.00787353515625,0.0032958984375,1.00537109375,36.939998626708984,0.0,0.0,-2.2510986328125,-0.8157958984375,Closing,0.0,0.0,-1.0,0.0,0.0,0.0,0.0,0.0,
1.0876049999999813,0.0,0.0,-737.0,3.75,0.0,0.0,0.0,0.25,0.770263593,0.01,0.0,2663.0,5.625,0.0,-0.0,0.0,0.25,0.47607417,0.01,-0.0012207029999995456,-204.0,4.375,0.0,0.0,0.0,0.125,3.3776852010000002,0.01,0.0012207029999999897,6819.0,5.125,0.0,-0.0,0.0,0.25,1.671142407,0.01,0.0,0.20000000298023224,-0.4399999976158142,-58.04999923706055,-0.006103515625,0.00152587890625,1.019775390625,36.939998626708984,0.0,2.0,-2.2510986328125,-0.8157958984375,Closing,0.0,0.0,-1.0,0.0,0.0,0.0,0.0,0.0,
1.1696900000000023,0.0,0.0,-737.0,3.75,0.0,0.0,0.0,0.25,0.758056563,0.01,0.0,2663.0,5.625,0.0,-0.0,0.0,0.25,0.484619091,0.01,0.0,-204.0,4.375,0.0,0.0,0.0,0.125,3.3776852010000002,0.01,0.0,6819.0,5.125,0.0,-0.0,0.0,0.25,1.671142407,0.01,0.0,0.20999999344348907,-0.4399999976158142,-58.04999923706055,-0.008056640625,0.0032958984375,1.0203857421875,36.959999084472656,0.0,0.0,-2.2510986328125,-0.8157958984375,Closing,0.0,0.0,-1.0,0.0,0.0,0.0,0.0,0.0,
1.2842149999999966,0.0,0.0,-737.0,3.75,0.0,0.0,0.0,0.25,0.76904289,0.01,0.0,2662.0,5.625,0.0,-0.0,0.0,0.25,0.477294873,0.01,0.0,-204.0,4.375,0.0,0.0,0.0,0.125,3.3776852010000002,0.01,0.0,6819.0,5.125,0.0,-0.0,0.0,0.25,1.671142407,0.01,0.0,0.20999999344348907,-0.4300000071525574,-58.04999923706055,-0.00933837890625,-0.00341796875,1.01983642578125,36.959999084472656,0.0,5.0,-2.2510986328125,-0.8157958984375,Closing,0.0,0.0,-1.0,0.0,0.0,0.0,0.0,0.0,
1.360081999999995,0.0,0.0,-737.0,3.75,0.0,0.0,0.0,0.25,0.770263593,0.01,0.0,2662.0,5.5,0.0,-0.0,0.0,0.25,0.47607417,0.01,0.0,-204.0,4.375,0.0,0.0,0.0,0.125,3.3776852010000002,0.01,0.0,6819.0,5.125,0.0,-0.0,0.0,0.25,1.671142407,0.01,0.0,0.20999999344348907,-0.4300000071525574,-58.060001373291016,-0.0096435546875,1.8310546875E-4,1.0191650390625,36.959999084472656,0.0,2.0,-2.2510986328125,-0.8157958984375,Closing,0.0,0.0,-1.0,0.0,0.0,0.0,0.0,0.0,
1.4474979999999924,0.0,0.0,-737.0,3.75,0.0,0.0,0.0,0.25,0.770263593,0.01,0.0,2662.0,5.375,0.0,-0.0,0.0,0.25,0.47851557600000005,0.01,0.0,-204.0,4.375,0.0,0.0,0.0,0.125,3.3776852010000002,0.01,0.0,6819.0,5.25,0.0,-0.0,0.0,0.25,1.671142407,0.01,0.0,0.2199999988079071,-0.41999998688697815,-58.04999923706055,-0.00653076171875,0.00396728515625,1.01446533203125,36.959999084472656,0.0,0.0,-2.2510986328125,-0.8157958984375,Closing,0.0,0.0,-1.0,0.0,0.0,0.0,0.0,0.0,
1.5544159999999974,0.0,0.0,-737.0,3.75,0.0,0.0,0.0,0.25,0.770263593,0.01,0.0,2662.0,5.375,0.0,-0.0,0.0,0.25,0.47607417,0.01,0.0,-204.0,4.375,0.0,0.0,0.0,0.125,3.3752437950000003,0.01,0.0,6819.0,5.25,0.0,-0.0,0.0,0.25,1.671142407,0.01,0.0,0.2199999988079071,-0.41999998688697815,-58.04999923706055,-0.00830078125,0.00494384765625,1.01654052734375,36.959999084472656,0.0,-1.0,-2.2510986328125,-0.8157958984375,Closing,0.0,0.0,-1.0,0.0,0.0,0.0,0.0,0.0,
1.6342550000000047,0.0,0.0,-737.0,3.75,0.0,0.0,0.0,0.25,0.770263593,0.01,0.0,2662.0,5.25,0.0,-0.0,0.0,0.25,0.47607417,0.01,0.0,-204.0,4.375,0.0,0.0,0.0,0.125,3.3789059040000002,0.01,0.0,6819.0,5.25,0.0,-0.0,0.0,0.25,1.671142407,0.01,0.0,0.2199999988079071,-0.41999998688697815,-58.04999923706055,-0.00750732421875,0.0074462890625,1.025390625,36.93000030517578,0.0,-2.0,-2.2510986328125,-0.8157958984375,Closing,0.0,0.0,-1.0,0.0,0.0,0.0,0.0,0.0,
1.7065899999999965,0.0,0.0,-737.0,3.875,0.0,0.0,0.0,0.25,0.76904289,0.01,0.0,2662.0,5.25,0.0,-0.0,0.0,0.25,0.477294873,0.01,0.0,-204.0,4.375,0.0,0.0,0.0,0.125,3.3776852010000002,0.01,0.0,6819.0,5.25,0.0,-0.0,0.0,0.25,1.669921704,0.01,0.0,0.2199999988079071,-0.4099999964237213,-58.04999923706055,-0.00811767578125,0.00543212890625,1.02587890625,36.93000030517578,0.0,-1.0,-2.2510986328125,-0.8157958984375,Closing,0.0,0.0,-1.0,0.0,0.0,0.0,0.0,0.0,
1.8249009999999835,0.0,0.0,-737.0,3.75,0.0,0.0,0.0,0.25,0.76904289,0.01,0.0,2661.0,5.125,0.0,-0.0,0.0,0.25,0.47363276400000004,0.01,0.0,-204.0,4.375,0.0,0.0,0.0,0.125,3.3776852010000002,0.01,0.0,6819.0,5.25,0.0,-0.0,0.0,0.25,1.668701001,0.01,0.0,0.2199999988079071,-0.4099999964237213,-58.04999923706055,-0.00616455078125,0.00537109375,1.02203369140625,36.93000030517578,0.0,0.0,-2.2510986328125,-0.8157958984375,Closing,0.0,0.0,-1.0,0.0,0.0,0.0,0.0,0.0,
1.9101499999999942,0.0,0.0,-737.0,3.75,0.0,0.0,0.0,0.25,0.770263593,0.01,0.0,2661.0,5.25,0.0,-0.0,0.0,0.25,0.47607417,0.01,0.0,-204.0,4.375,0.0,0.0,0.0,0.125,3.38134731,0.01,0.0,6819.0,5.25,0.0,-0.0,0.0,0.25,1.671142407,0.01,0.0,0.2199999988079071,-0.4099999964237213,-58.04999923706055,-0.00634765625,0.001953125,1.01690673828125,36.93000030517578,0.0,2.0,-2.2510986328125,-0.8157958984375,Closing,0.0,0.0,-1.0,0.0,0.0,0.0,0.0,0.0,
2.011380999999994,0.0,0.0,-737.0,3.75,0.0,0.0,0.0,0.25,0.770263593,0.01,0.0,2661.0,5.25,0.0,-0.0,0.0,0.25,0.477294873,0.01,0.0,-204.0,4.375,0.0,0.0,0.0,0.125,3.3776852010000002,0.01,0.0,6819.0,5.25,0.0,-0.0,0.0,0.25,1.671142407,0.01,0.0,0.23999999463558197,-0.4099999964237213,-58.04999923706055,-0.008056640625,0.00201416015625,1.0206298828125,36.93000030517578,0.0,1.0,-2.2510986328125,-0.8157958984375,Closing,0.0,0.0,-1.0,0.0,0.0,0.0,0.0,0.0,
2.1022790000000096,0.0,0.0,-737.0,3.75,0.0,0.0,0.0,0.25,0.770263593,0.01,0.0,2661.0,5.125,0.0,-0.0,0.0,0.25,0.47607417,0.01,0.0,-204.0,4.375,0.0,0.0,0.0,0.125,3.3789059040000002,0.01,0.0,6819.0,5.25,0.0,-0.0,0.0,0.25,1.669921704,0.01,0.0,0.23999999463558197,-0.4099999964237213,-58.060001373291016,-0.005859375,0.00653076171875,1.01788330078125,36.93000030517578,0.0,-1.0,-2.2510986328125,-0.8157958984375,Closing,0.0,0.0,-1.0,0.0,0.0,0.0,0.0,0.0,
2.1717609999999987,0.0,0.0,-737.0,3.75,0.0,0.0,0.0,0.25,0.770263593,0.01,0.0,2661.0,5.25,0.0,-0.0,0.0,0.25,0.477294873,0.01,0.0,-204.0,4.25,0.0,0.0,0.0,0.125,3.3776852010000002,0.01,0.0,6819.0,5.25,0.0,-0.0,0.0,0.25,1.671142407,0.01,0.0,0.23999999463558197,-0.4099999964237213,-58.060001373291016,-0.00616455078125,0.00823974609375,1.01654052734375,36.939998626708984,0.0,-2.0,-2.2510986328125,-0.8157958984375,Closing,0.0,0.0,-1.0,0.0,0.0,0.0,0.0,0.0,
2.2888800000000047,0.0,0.0,-737.0,3.75,0.0,0.0,0.0,0.25,0.7629393750000001,0.01,-0.0012207029999995456,2661.0,5.125,0.0,-0.0,0.0,0.25,0.477294873,0.01,0.0,-204.0,4.375,0.0,0.0,0.0,0.125,3.3776852010000002,0.01,0.0,6819.0,5.25,0.0,-0.0,0.0,0.25,1.671142407,0.01,0.0012207029999999897,0.23999999463558197,-0.4099999964237213,-58.04999923706055,-0.00750732421875,0.00347900390625,1.021240234375,36.939998626708984,0.0,0.0,-2.2510986328125,-0.8157958984375,Closing,0.0,0.0,-1.0,0.0,0.0,0.0,0.0,0.0,
2.4099040000000094,0.0,0.0,-737.0,3.75,0.0,0.0,0.0,0.25,0.761718672,0.01,0.0,2661.0,5.125,0.0,-0.0,0.0,0.25,0.47607417,0.01,0.0,-204.0,4.375,0.0,0.0,0.0,0.125,3.3764644980000003,0.01,0.0,6819.0,5.25,0.0,-0.0,0.0,0.25,1.669921704,0.01,0.0,0.23999999463558197,-0.4000000059604645,-58.060001373291016,-0.00634765625,0.0064697265625,1.0238037109375,36.939998626708984,0.0,-1.0,-2.2510986328125,-0.8157958984375,Closing,0.0,0.0,-1.0,0.0,0.0,0.0,0.0,0.0,
2.5014349999999976,0.0,0.0,-737.0,3.75,0.0,0.0,0.0,0.25,0.772704999,0.01,0.0012207029999995456,2661.0,5.125,0.0,-0.0,0.0,0.25,0.477294873,0.01,0.0,-204.0,4.375,0.0,0.0,0.0,0.125,3.3789059040000002,0.01,0.0012207029999999897,6819.0,5.25,0.0,-0.0,0.0,0.25,1.671142407,0.01,0.0,0.23999999463558197,-0.4099999964237213,-58.060001373291016,-0.00787353515625,0.0079345703125,1.0177001953125,36.939998626708984,0.0,-3.0,-2.2510986328125,-0.8157958984375,Closing,0.0,0.0,-1.0,0.0,0.0,0.0,0.0,0.0,
2.5734839999999966,0.0,0.0,-739.0,0.25,-15.0,-674.6456480026245,0.0,0.25,0.773925702,4.932250999999998,0.0,2661.0,0.0,37.5,674.6456480026245,0.0,0.25,0.48095698200000003,4.963769999999998,0.0,-204.0,0.0,0.0,-674.6456480026245,0.0,0.125,3.3776852010000002,0.01,0.0,6821.0,0.375,7.5,674.6456480026245,0.0,0.25,1.671142407,0.01,0.0,0.23999999463558197,-0.5,-58.0099983215332,0.054443359375,0.04388427734375,1.02099609375,36.939998626708984,0.0,0.0,-2.2514801025390625,-0.8163299560546875,Closing,0.0,0.0,-1.0,0.0,0.0,0.0,0.0,0.0,
2.6880369999999822,0.0,0.0,-748.0,0.125,-52.5,-892.9134106636047,0.0,0.25,0.7751464050000001,4.932250999999998,0.0,2667.0,0.625,67.5,892.9134106636047,0.0,0.125,0.482177685,4.963769999999998,0.0,-204.0,0.375,-52.5,-892.9134106636047,0.0,0.125,3.391112934,0.01,0.0,6825.0,0.375,22.5,892.9134106636047,0.0,0.25,1.6613767830000001,0.01,0.0,0.20000000298023224,-0.6000000238418579,-57.86000061035156,-0.0272216796875,0.0233154296875,1.0135498046875,36.939998626708984,0.0,-25.0,-2.2521209716796875,-0.8173675537109375,Closing,0.0,0.0,-1.0,0.0,0.0,0.0,0.0,0.0,
2.768763000000006,0.0,0.0,-782.0,0.625,-210.0,-892.9134106636047,0.0,0.25,0.784912029,4.932250999999998,0.0,2700.0,3.125,202.5,892.9134106636047,0.0,0.125,0.47973627900000004,4.963769999999998,0.0,-232.0,1.25,-262.5,-892.9134106636047,0.0,0.125,3.408202776,0.01,0.0,6825.0,0.75,97.5,892.9134106636047,0.0,0.25,1.644286941,0.01,0.0,0.3100000023841858,-0.6800000071525574,-57.65999984741211,-0.05181884765625,0.04541015625,1.1326904296875,36.939998626708984,0.0,-53.0,-2.253997802734375,-0.81781005859375,Closing,0.0,0.0,-1.0,0.0,0.0,0.0,0.0,0.0,
2.863529999999999,0.0,0.0,-782.0,2.25,-150.0,-892.9134106636047,0.0,0.125,0.7897948410000001,4.932250999999998,0.0,2720.0,6.875,142.5,892.9134106636047,0.0,0.125,0.482177685,4.963769999999998,0.0,-264.0,3.5,-172.5,-892.9134106636047,0.0,0.125,3.406982073,0.01,0.0,6859.0,1.5,262.5,892.9134106636047,0.0,0.25,1.59912093,0.01,0.0,0.1899999976158142,-1.1699999570846558,-58.09000015258789,-0.11871337890625,0.03759765625,0.95556640625,36.939998626708984,0.0,-81.0,-2.2585601806640625,-0.821380615234375,Closing,0.0,0.0,-1.0,0.0,0.0,0.0,0.0,0.0,
2.9527449999999953,0.0,0.0,-811.0,3.75,-210.0,-892.9134106636047,0.0,0.125,0.794677653,4.932250999999998,0.0,2720.0,8.125,255.0,892.9134106636047,0.0,0.125,0.48095698200000003,4.963769999999998,0.0,-304.0,4.375,-195.0,-892.9134106636047,0.0,0.125,3.400878558,0.01,0.0,6882.0,2.625,142.5,892.9134106636047,0.0,0.25,1.589355306,0.01,0.0,0.25,-1.5299999713897705,-58.08000183105469,-0.170166015625,-0.01043701171875,0.93951416015625,36.939998626708984,0.0,-64.0,-2.263458251953125,-0.8260650634765625,Closing,0.0,0.0,-1.0,0.0,0.0,0.0,0.0,0.0,
3.0656669999999866,0.0,0.0,-880.0,4.625,-427.5,-892.9134106636047,0.0,0.125,0.795898356,4.932250999999998,0.0,2771.0,8.875,435.0,892.9134106636047,0.0,0.125,0.484619091,4.963769999999998,0.0,-304.0,5.125,-397.5,-892.9134106636047,0.0,0.125,3.397216449,0.01,0.0,6972.0,2.625,435.0,892.9134106636047,0.0,0.25,1.589355306,0.01,0.0,0.23000000417232513,-2.1600000858306885,-58.040000915527344,-0.00982666015625,-0.00164794921875,0.8973388671875,36.939998626708984,0.0,17.0,-2.275848388671875,-0.838653564453125,Closing,0.0,0.0,-1.0,0.0,0.0,0.0,0.0,0.0,
3.1363450000000013,0.0,0.0,-980.0,3.625,-675.0,-892.9134106636047,0.0,0.125,0.794677653,4.932250999999998,0.0,2984.0,6.5,720.0,892.9134106636047,0.0,0.125,0.48095698200000003,4.963769999999998,0.0,-499.0,4.125,-660.0,-892.9134106636047,0.0,0.125,3.398437152,0.01,0.0,7070.0,3.0,570.0,892.9134106636047,0.0,0.25,1.6040037420000002,0.01,0.0,0.25999999046325684,-2.630000114440918,-58.06999969482422,2.44140625E-4,-0.062744140625,0.89093017578125,36.900001525878906,0.0,78.0,-2.3010406494140625,-0.8656005859375,Closing,0.0,0.0,-1.0,0.0,0.0,0.0,0.0,0.0,
3.2717209999999906,0.0,0.0,-1106.0,3.25,-765.0,-892.9134106636047,0.0,0.125,0.8032225740000001,4.932250999999998,0.0,2984.0,5.375,817.5,892.9134106636047,0.0,0.125,0.47363276400000004,4.963769999999998,0.0,-499.0,3.625,-780.0,-892.9134106636047,0.0,0.125,3.392333637,0.01,0.0,7070.0,2.625,757.5,892.9134106636047,0.0,0.25,1.6027830390000002,0.01,0.0,0.25999999046325684,-2.890000104904175,-58.130001068115234,-0.01983642578125,0.0784912109375,1.03253173828125,36.900001525878906,0.0,-45.0,-2.3158416748046875,-0.880767822265625,Closing,0.0,0.0,-1.0,0.0,0.0,0.0,0.0,0.0,
3.3623699999999954,0.0,0.0,-1247.0,2.875,-870.0,-892.9134106636047,0.0,0.125,0.794677653,4.932250999999998,0.0,3121.0,4.25,877.5,892.9134106636047,0.0,0.125,0.48095698200000003,4.963769999999998,0.0,-634.0,2.875,-870.0,-892.9134106636047,0.0,0.125,3.392333637,0.01,0.0,7178.0,3.0,780.0,892.9134106636047,0.0,0.25,1.6040037420000002,0.01,0.0,0.25999999046325684,-2.8499999046325684,-58.060001373291016,-0.07012939453125,0.11492919921875,1.33135986328125,36.900001525878906,0.0,-94.0,-2.336273193359375,-0.9033050537109375,Closing,0.0,0.0,-1.0,0.0,0.0,0.0,0.0,0.0,
3.544828999999998,0.0,0.0,-1395.0,1.875,-922.5,-892.9134106636047,0.0,0.125,0.79345695,4.932250999999998,0.0,3425.0,2.875,945.0,892.9134106636047,0.0,0.125,0.48095698200000003,4.963769999999998,0.0,-929.0,1.875,-930.0,-892.9134106636047,0.0,0.125,3.392333637,0.01,0.0,7452.0,2.75,862.5,892.9134106636047,0.0,0.25,1.6027830390000002,0.01,0.0,0.30000001192092896,-2.740000009536743,-57.900001525878906,-0.02734375,0.04693603515625,1.02923583984375,36.900001525878906,0.0,-23.0,-2.370330810546875,-0.9405975341796875,Closing,0.0,0.0,-1.0,0.0,0.0,0.0,0.0,0.0,
3.6809219999999914,0.0,0.0,-1540.0,1.875,-900.0,-892.9134106636047,0.0,0.125,0.794677653,4.932250999999998,0.0,3576.0,2.5,952.5,892.9134106636047,0.0,0.125,0.48095698200000003,4.963769999999998,0.0,-1078.0,1.75,-930.0,-892.9134106636047,0.0,0.125,3.392333637,0.01,0.0,7589.0,2.75,855.0,892.9134106636047,0.0,0.25,1.6040037420000002,0.01,0.0,0.33000001311302185,-2.3499999046325684,-57.88999938964844,-0.03521728515625,0.05224609375,1.0252685546875,36.91999816894531,0.0,-35.0,-2.3920745849609375,-0.9522247314453125,Closing,0.0,0.0,-1.0,0.0,0.0,0.0,0.0,0.0,
3.812731,0.0,0.0,-1685.0,2.25,-892.5,-892.9134106636047,0.0,0.125,0.79345695,4.932250999999998,0.0,3728.0,2.375,937.5,892.9134106636047,0.0,0.125,0.482177685,4.963769999999998,0.0,-1225.0,1.75,-915.0,-892.9134106636047,0.0,0.125,3.392333637,0.01,0.0,7729.0,2.625,885.0,892.9134106636047,0.0,0.25,1.6027830390000002,0.01,0.0,0.3100000023841858,-2.130000114440918,-58.02000045776367,-0.03436279296875,-0.1094970703125,1.035400390625,36.91999816894531,0.0,99.0,-2.4110870361328125,-0.946746826171875,Closing,0.0,0.0,-1.0,0.0,0.0,0.0,0.0,0.0,
3.9488559999999997,0.0,0.0,-1828.0,2.25,-885.0,-892.9134106636047,0.0,0.125,0.794677653,4.932250999999998,0.0,3875.0,2.5,915.0,892.9134106636047,0.0,0.125,0.48095698200000003,4.963769999999998,0.0,-1370.0,1.875,-892.5,-892.9134106636047,0.0,0.125,3.39355434,0.01,0.0,7870.0,2.75,877.5,892.9134106636047,0.0,0.25,1.6027830390000002,0.01,0.0,0.3400000035762787,-2.009999990463257,-58.119998931884766,-0.0404052734375,0.03265380859375,1.19110107421875,36.91999816894531,0.0,-20.0,-2.427886962890625,-0.9385833740234375,Closing,0.0,0.0,-1.0,0.0,0.0,0.0,0.0,0.0,
4.080894999999989,0.0,0.0,-1970.0,2.25,-885.0,-892.9134106636047,0.0,0.125,0.794677653,4.932250999999998,0.0,4019.0,2.75,885.0,892.9134106636047,0.0,0.125,0.495605418,4.963769999999998,0.0,-1513.0,1.875,-892.5,-892.9134106636047,0.0,0.125,3.392333637,0.01,0.0,8012.0,2.875,855.0,892.9134106636047,0.0,0.25,1.597900227,0.01,0.0,0.3700000047683716,-1.7999999523162842,-58.22999954223633,-0.033447265625,-0.03228759765625,1.13946533203125,36.91999816894531,0.0,35.0,-2.446044921875,-0.92486572265625,Closing,0.0,0.0,-1.0,0.0,0.0,0.0,0.0,0.0,
4.211285000000004,0.0,0.0,-2112.0,3.875,-907.5,-1122.5555306327883,0.0,0.375,0.826415931,0.12725359617348259,0.0,4157.0,1.125,855.0,701.7797835730717,0.0,0.5,0.5810546280000001,0.20629400847539175,0.0,-1657.0,3.875,-907.5,-1122.5555306327883,0.0,0.25,3.330077784,4.812936157114577,0.0,8150.0,1.25,870.0,701.7797835730717,0.0,0.25,1.566161949,4.751945792407587,0.0,0.30000001192092896,-1.75,-58.2400016784668,-0.05731201171875,0.13739013671875,0.82562255859375,36.900001525878906,0.0,-129.0,-2.4588623046875,-0.911590576171875,Closing,0.0,0.0,-1.0,0.0,0.0,0.0,0.0,0.0,
4.347462999999989,0.0,0.0,-2442.0,3.25,-1087.5,-1122.5555306327883,0.0,0.25,0.9594725580000001,0.12725359617348259,0.0,4287.0,1.375,765.0,701.7797835730717,0.0,0.25,0.7531737510000001,0.20629400847539175,0.0,-1817.0,3.25,-1072.5,-1122.5555306327883,0.0,0.125,3.2080074840000004,4.812936157114577,0.0,8283.0,2.0,735.0,701.7797835730717,0.0,0.25,1.3745115780000001,4.751945792407587,0.0,0.28999999165534973,-1.7000000476837158,-55.22999954223633,-0.03057861328125,-0.00799560546875,0.96881103515625,36.900001525878906,0.0,9.0,-2.479156494140625,-0.8878326416015625,Closing,0.0,0.0,-1.0,0.0,0.0,0.0,0.0,0.0,
4.482430999999982,0.0,0.0,-2628.0,0.375,-1140.0,-892.9134106636047,0.0,0.375,0.9191893590000001,4.932250999999998,0.0,4404.0,4.625,712.5,892.9134106636047,0.0,0.5,0.72021477,4.963769999999998,0.0,-1999.0,0.625,-1095.0,-892.9134106636047,0.0,0.25,3.199462563,0.01,0.0,8518.0,3.25,750.0,892.9134106636047,0.0,0.625,1.412353371,0.01,0.0,0.5299999713897705,-1.649999976158142,-50.459999084472656,-0.03955078125,0.01727294921875,1.0047607421875,36.900001525878906,0.0,-12.0,-2.495513916015625,-0.8666534423828125,Closing,0.0,0.0,-1.0,0.0,0.0,0.0,0.0,0.0,
4.613043999999994,0.0,0.0,-2801.0,0.125,-1080.0,-892.9134106636047,0.0,0.25,0.838622961,4.932250999999998,0.0,4519.0,5.125,757.5,892.9134106636047,0.0,0.25,0.559081974,4.963769999999998,0.0,-2166.0,0.375,-1035.0,-892.9134106636047,0.0,0.125,3.3166500510000003,0.01,0.0,8639.0,4.125,735.0,892.9134106636047,0.0,0.375,1.59912093,0.01,0.0,0.5899999737739563,-1.600000023841858,-47.459999084472656,-0.00714111328125,0.0460205078125,1.27020263671875,36.900001525878906,0.0,-5.0,-2.5074615478515625,-0.849151611328125,Closing,0.0,0.0,-1.0,0.0,0.0,0.0,0.0,0.0,
4.751323999999993,0.0,0.0,-2952.0,0.0,-885.0,0.0,0.0,0.125,0.799560465,4.932250999999998,0.0,4756.0,0.0,630.0,0.0,0.0,0.25,0.44799800100000003,4.963769999999998,0.0,-2481.0,0.0,-922.5,0.0,0.0,0.125,3.4252926180000003,0.01,0.0,8749.0,0.0,660.0,0.0,0.0,0.25,1.705322091,0.01,0.0,0.47999998927116394,-0.8799999952316284,-46.95000076293945,0.1124267578125,-0.0458984375,0.95263671875,36.880001068115234,0.0,126.0,-2.520904541015625,-0.8172149658203125,Closing,0.0,0.0,-1.0,0.0,0.0,0.0,0.0,0.0,
4.877824999999983,0.0,0.0,-3058.0,0.0,-592.5,0.0,0.0,0.125,0.794677653,4.932250999999998,0.0,4868.0,0.0,750.0,0.0,0.0,0.25,0.43334956500000005,4.963769999999998,0.0,-2573.0,0.0,-622.5,0.0,0.0,0.125,3.397216449,0.01,0.0,8861.0,0.125,675.0,0.0,0.0,0.25,1.6613767830000001,0.01,0.0,0.4399999976158142,-0.17000000178813934,-48.06999969482422,0.05023193359375,-0.097900390625,1.193115234375,36.880001068115234,0.0,115.0,-2.52227783203125,-0.7814483642578125,Closing,0.0,0.0,-1.0,0.0,0.0,0.0,0.0,0.0,
5.013138999999995,0.0,0.0,-3133.0,0.0,-427.5,0.0,0.0,0.125,0.79345695,4.932250999999998,0.0,4942.0,0.0,457.5,0.0,0.0,0.25,0.43334956500000005,4.963769999999998,0.0,-2636.0,0.0,-397.5,0.0,0.0,0.125,3.358153953,0.01,0.0,8939.0,0.0,457.5,0.0,0.0,0.25,1.6320799110000002,0.01,0.0,0.4000000059604645,0.6800000071525574,-48.63999938964844,0.15411376953125,-0.0413818359375,1.00787353515625,36.880001068115234,0.0,130.0,-2.512542724609375,-0.7267303466796875,Closing,0.0,0.0,-1.0,0.0,0.0,0.0,0.0,0.0,
5.1485590000000085,0.0,0.0,-3182.0,0.0,-217.5,0.0,0.0,0.125,0.794677653,4.932250999999998,0.0,4981.0,0.0,202.5,0.0,0.0,0.25,0.46630854600000005,4.963769999999998,0.0,-2673.0,0.0,-195.0,0.0,0.0,0.0,3.348388329,0.01,0.0,8983.0,0.125,195.0,0.0,0.0,0.125,1.622314287,0.01,0.0,0.3100000023841858,1.2100000381469727,-48.709999084472656,0.09173583984375,-0.01025390625,0.97772216796875,36.880001068115234,0.0,58.0,-2.4963531494140625,-0.67578125,Closing,0.0,0.0,-1.0,0.0,0.0,0.0,0.0,0.0,
5.278127999999997,0.0,0.0,-3204.0,0.625,-210.0,-595.2756196260452,0.0,0.875,1.1865233160000002,0.5498168668524864,0.0,4983.0,4.5,-37.5,-595.2756196260452,0.0,0.5,0.205078104,4.41043958977222,0.0,-2690.0,0.625,-127.5,-595.2756196260452,0.0,0.5,2.962646181,4.389674732977291,0.0,8995.0,2.125,-30.0,-595.2756196260452,0.0,0.875,2.032470495,0.552687206278561,0.0,0.25999999046325684,1.6200000047683716,-48.2400016784668,0.10845947265625,0.1650390625,1.005126953125,36.86000061035156,0.0,-66.0,-2.4681243896484375,-0.604949951171875,Closing,0.0,0.0,-1.0,0.0,0.0,0.0,0.0,0.0,
5.410959000000003,0.0,0.0,-3239.0,0.0,-15.0,0.0,0.0,0.375,1.463622897,0.5498168668524864,0.0,4966.0,0.0,-75.0,0.0,0.0,0.25,4.8632807520000005,4.41043958977222,0.0,-2724.0,0.0,-82.5,0.0,0.0,0.125,2.6965329270000002,4.389674732977291,0.0,8969.0,0.0,-105.0,0.0,0.0,0.375,2.310790779,0.552687206278561,0.0,0.46000000834465027,1.159999966621399,-46.41999816894531,-0.0614013671875,-0.04833984375,1.11614990234375,36.86000061035156,0.0,-16.0,-2.4456024169921875,-0.5479278564453125,Closing,0.0,0.0,-1.0,0.0,0.0,0.0,0.0,0.0,
5.544805999999983,0.0,0.0,-3245.0,0.0,-30.0,0.0,0.0,0.375,1.483154145,0.5498168668524864,0.0,4966.0,0.0,0.0,0.0,0.0,0.25,4.786376463,4.41043958977222,0.0,-2725.0,0.0,-7.5,0.0,0.0,0.125,2.662353243,4.389674732977291,0.0,8963.0,0.125,-52.5,0.0,0.0,0.25,2.305907967,0.552687206278561,0.0,0.4099999964237213,1.1299999952316284,-45.58000183105469,-0.04888916015625,-0.0069580078125,0.99017333984375,36.86000061035156,0.0,-37.0,-2.4331512451171875,-0.49444580078125,Closing,0.0,0.0,-1.0,0.0,0.0,0.0,0.0,0.0,
5.678747999999993,0.0,0.0,-3246.0,0.125,-7.5,-297.6378098130226,0.0,0.25,1.3952635290000002,0.5498168668524864,0.0,4964.0,0.25,-142.5,-297.6378098130226,0.0,0.25,4.835204583,4.41043958977222,0.0,-2727.0,0.125,-75.0,-297.6378098130226,0.0,0.125,2.764892295,4.389674732977291,0.0,8959.0,0.375,-7.5,-297.6378098130226,0.0,0.25,2.227782975,0.552687206278561,0.0,0.3799999952316284,1.0299999713897705,-45.720001220703125,-0.0078125,-0.0899658203125,1.05181884765625,36.86000061035156,0.0,50.0,-2.4340362548828125,-0.456024169921875,Closing,0.0,0.0,-1.0,0.0,0.0,0.0,0.0,0.125,
5.8116110000000045,0.0,0.0,-3260.0,0.0,-75.0,0.0,0.0,0.25,1.363525251,0.5498168668524864,0.0,4942.0,0.0,-15.0,0.0,0.0,0.25,4.869384267,4.41043958977222,0.0,-2754.0,0.0,-37.5,0.0,0.0,0.0,2.8027340880000002,4.389674732977291,0.0,8959.0,0.0,0.0,0.0,0.0,0.25,2.189941182,0.552687206278561,0.0,0.4099999964237213,0.8100000023841858,-45.439998626708984,0.02374267578125,-0.0308837890625,1.04132080078125,36.79999923706055,0.0,33.0,-2.434173583984375,-0.460235595703125,Closing,0.0,0.0,-1.0,0.0,0.0,0.0,0.0,0.0,
5.933521000000008,0.0,0.0,-3260.0,0.125,0.0,-214.96063694357875,0.0,0.125,1.365966657,0.5498168668524864,0.0,4941.0,0.25,0.0,-214.96063694357875,0.0,0.25,4.897460436,4.41043958977222,0.0,-2754.0,0.125,0.0,-214.96063694357875,0.0,0.0,2.8027340880000002,4.389674732977291,0.0,8959.0,0.375,0.0,-214.96063694357875,0.0,0.25,2.191161885,0.552687206278561,0.0,0.41999998688697815,0.6899999976158142,-45.470001220703125,-0.01678466796875,-0.00555419921875,1.0303955078125,36.79999923706055,0.0,-11.0,-2.4340057373046875,-0.4617462158203125,Closing,0.0,0.0,-1.0,0.0,0.0,0.0,0.0,0.0,
6.0818850000000095,0.0,0.0,-3264.0,0.125,-60.0,-248.03150296211243,0.0,0.125,1.362304548,0.5498168668524864,0.0,4935.0,1.125,-30.0,-248.03150296211243,0.0,0.125,4.904784654,4.41043958977222,0.0,-2759.0,0.625,-22.5,-248.03150296211243,0.0,0.0,2.8027340880000002,4.389674732977291,0.0,8957.0,0.375,-15.0,-248.03150296211243,0.0,0.25,2.189941182,0.552687206278561,0.0,0.4300000071525574,0.6000000238418579,-45.16999816894531,-0.02862548828125,0.021240234375,1.052001953125,36.79999923706055,0.0,-37.0,-2.434234619140625,-0.4623565673828125,Closing,0.0,0.0,-1.0,0.0,0.0,0.0,0.0,0.0,
6.209665000000008,0.0,0.0,-3272.0,0.0,-15.0,0.0,0.0,0.125,1.365966657,0.5498168668524864,0.0,4933.0,0.0,-7.5,0.0,0.0,0.125,4.903563951000001,4.41043958977222,0.0,-2762.0,0.0,-15.0,0.0,0.0,0.0,2.8039547910000002,4.389674732977291,0.0,8952.0,0.0,-22.5,0.0,0.0,0.25,2.191161885,0.552687206278561,0.0,0.41999998688697815,0.5199999809265137,-44.88999938964844,0.01885986328125,8.544921875E-4,1.00579833984375,36.790000915527344,0.0,11.0,-2.4347381591796875,-0.463043212890625,Closing,0.0,0.0,-1.0,0.0,0.0,0.0,0.0,0.0,
6.346486000000004,0.0,0.0,-3274.0,0.75,-22.5,-413.3858174085617,0.0,0.125,1.3732908750000001,0.5498168668524864,0.0,4930.0,1.875,-30.0,-413.3858174085617,0.0,0.125,4.903563951000001,4.41043958977222,0.0,-2764.0,1.0,-22.5,-413.3858174085617,0.0,0.0,2.810058306,4.389674732977291,0.0,8949.0,0.625,-52.5,-413.3858174085617,0.0,0.25,2.189941182,0.552687206278561,0.0,0.4099999964237213,0.4399999976158142,-44.7400016784668,-0.0023193359375,7.9345703125E-4,1.032958984375,36.790000915527344,0.0,-2.0,-2.4351348876953125,-0.463226318359375,Closing,0.0,0.0,-1.0,0.0,0.0,0.0,0.0,0.0,
6.482616000000009,0.0,0.0,-3282.0,0.0,-15.0,0.0,0.0,0.125,1.36718736,0.5498168668524864,0.0,4924.0,0.0,0.0,0.0,0.0,0.125,4.914550278,4.41043958977222,0.0,-2774.0,0.0,-22.5,0.0,0.0,0.0,2.805175494,4.389674732977291,0.0,8928.0,0.0,-45.0,0.0,0.0,0.25,2.189941182,0.552687206278561,0.0,0.4399999976158142,0.3199999928474426,-43.790000915527344,0.01739501953125,-0.04266357421875,0.99237060546875,36.790000915527344,0.0,43.0,-2.436553955078125,-0.4632415771484375,Closing,0.0,0.0,-1.0,0.0,0.0,0.0,0.0,0.0,
6.6115829999999844,0.0,0.0,-3282.0,0.0,0.0,0.0,0.0,0.125,1.36718736,0.5498168668524864,0.0,4924.0,0.0,0.0,0.0,0.0,0.0,4.913329575000001,4.41043958977222,0.0,-2774.0,0.0,0.0,0.0,0.0,0.0,2.8039547910000002,4.389674732977291,0.0,8928.0,0.0,0.0,0.0,0.0,0.25,2.191161885,0.552687206278561,0.0,0.44999998807907104,0.30000001192092896,-44.15999984741211,-6.103515625E-4,0.03448486328125,1.0263671875,36.790000915527344,0.0,-22.0,-2.4365386962890625,-0.4633026123046875,Closing,0.0,0.0,-1.0,0.0,0.0,0.0,0.0,0.0,
6.7488569999999894,0.0,0.0,-3306.0,1.875,-135.0,-628.3464699983597,0.0,0.125,1.36718736,0.5498168668524864,0.0,4919.0,4.0,-112.5,-628.3464699983597,0.0,0.0,4.914550278,4.41043958977222,0.0,-2777.0,2.125,-75.0,-628.3464699983597,0.0,0.0,2.833251663,4.389674732977291,0.0,8925.0,1.875,-120.0,-628.3464699983597,0.0,0.25,2.191161885,0.552687206278561,0.0,0.4000000059604645,0.20000000298023224,-42.65999984741211,0.03839111328125,0.0062255859375,1.00946044921875,36.81999969482422,0.0,26.0,-2.4368133544921875,-0.4655609130859375,Closing,0.0,0.0,-1.0,0.0,0.0,0.0,0.0,0.0,
6.866633999999991,0.0,0.0,-3326.0,0.0,-165.0,0.0,0.0,0.125,1.36718736,0.5498168668524864,0.0,4882.0,0.0,-187.5,0.0,0.0,0.0,4.929198714,4.41043958977222,0.0,-2807.0,0.0,-202.5,0.0,0.0,0.125,2.83203096,4.389674732977291,0.0,8896.0,0.0,-150.0,0.0,0.0,0.25,2.189941182,0.552687206278561,0.0,0.5,0.05000000074505806,-40.08000183105469,-0.06976318359375,-0.02069091796875,1.12127685546875,36.81999969482422,0.0,-34.0,-2.4380950927734375,-0.4668731689453125,Closing,0.0,0.0,-1.0,0.0,0.0,0.0,0.0,0.0,
7.010631999999983,0.0,0.0,-3339.0,0.0,-90.0,0.0,0.0,0.125,1.357421736,0.5498168668524864,0.0,4875.0,0.0,-75.0,0.0,0.0,0.125,4.93164012,4.41043958977222,0.0,-2821.0,0.0,-82.5,0.0,0.0,0.125,2.818603227,4.389674732977291,0.0,8877.0,0.125,-75.0,0.0,0.0,0.25,2.191161885,0.552687206278561,0.0,0.46000000834465027,0.10000000149011612,-38.5,0.0277099609375,-0.00506591796875,0.974609375,36.81999969482422,0.0,28.0,-2.4406280517578125,-0.468231201171875,Closing,0.0,0.0,-1.0,0.0,0.0,0.0,0.0,0.0,
7.1473260000000005,0.0,0.0,-3339.0,0.0,0.0,0.0,0.0,0.125,1.356201033,0.5498168668524864,0.0,4870.0,0.0,0.0,0.0,0.0,0.125,4.93164012,4.41043958977222,0.0,-2829.0,0.0,0.0,0.0,0.0,0.125,2.818603227,4.389674732977291,0.0,8872.0,0.125,0.0,0.0,0.0,0.25,2.191161885,0.552687206278561,0.0,0.44999998807907104,0.03999999910593033,-38.959999084472656,-0.0052490234375,0.008056640625,0.98974609375,36.81999969482422,0.0,-4.0,-2.443023681640625,-0.4689178466796875,Closing,0.0,0.0,-1.0,0.0,0.0,0.0,0.0,0.0,
7.275881999999983,0.0,0.0,-3339.0,0.0,0.0,0.0,0.0,0.125,1.356201033,0.5498168668524864,0.0,4870.0,0.0,0.0,0.0,0.0,0.125,4.930419417,4.41043958977222,0.0,-2829.0,0.0,0.0,0.0,0.0,0.125,2.818603227,4.389674732977291,0.0,8872.0,0.125,0.0,0.0,0.0,0.25,2.191161885,0.552687206278561,0.0,0.44999998807907104,0.0,-38.93000030517578,-0.014892578125,0.0091552734375,1.02923583984375,36.84000015258789,0.0,-12.0,-2.443023681640625,-0.4689178466796875,Closing,0.0,0.0,-1.0,0.0,0.0,0.0,0.0,0.0,
7.410266999999992,0.0,0.0,-3339.0,0.0,0.0,0.0,0.0,0.125,1.356201033,0.5498168668524864,0.0,4870.0,0.0,0.0,0.0,0.0,0.125,4.930419417,4.41043958977222,0.0,-2829.0,0.0,0.0,0.0,0.0,0.125,2.818603227,4.389674732977291,0.0,8872.0,0.125,0.0,0.0,0.0,0.25,2.191161885,0.552687206278561,0.0,0.44999998807907104,-0.019999999552965164,-38.93000030517578,-0.00518798828125,0.00299072265625,1.0052490234375,36.84000015258789,0.0,0.0,-2.443023681640625,-0.4689178466796875,Closing,0.0,0.0,-1.0,0.0,0.0,0.0,0.0,0.0,
7.547255999999994,0.0,0.0,-3339.0,0.0,0.0,0.0,0.0,0.125,1.357421736,0.5498168668524864,0.0,4870.0,0.0,0.0,0.0,0.0,0.125,4.93164012,4.41043958977222,0.0,-2829.0,0.0,0.0,0.0,0.0,0.125,2.818603227,4.389674732977291,0.0,8872.0,0.0,0.0,0.0,0.0,0.25,2.191161885,0.552687206278561,0.0,0.44999998807907104,-0.05999999865889549,-38.91999816894531,-0.0023193359375,0.00701904296875,1.0235595703125,36.84000015258789,0.0,0.0,-2.443023681640625,-0.4689178466796875,Closing,0.0,0.0,-1.0,0.0,0.0,0.0,0.0,0.0,
7.679570999999997,0.0,0.0,-3339.0,0.0,0.0,0.0,0.0,0.125,1.357421736,0.5498168668524864,0.0,4870.0,0.0,0.0,0.0,0.0,0.125,4.93164012,4.41043958977222,0.0,-2829.0,0.0,0.0,0.0,0.0,0.125,2.818603227,4.389674732977291,0.0,8872.0,0.0,0.0,0.0,0.0,0.25,2.189941182,0.552687206278561,0.0,0.44999998807907104,-0.09000000357627869,-38.93000030517578,-0.00531005859375,0.00628662109375,1.017822265625,36.84000015258789,0.0,-1.0,-2.443023681640625,-0.4689178466796875,Closing,0.0,0.0,-1.0,0.0,0.0,0.0,0.0,0.0,
7.801342999999994,0.0,0.0,-3339.0,0.0,0.0,0.0,0.0,0.125,1.357421736,0.5498168668524864,0.0,4870.0,0.0,0.0,0.0,0.0,0.125,4.93164012,4.41043958977222,0.0,-2829.0,0.0,0.0,0.0,0.0,0.125,2.818603227,4.389674732977291,0.0,8872.0,0.0,0.0,0.0,0.0,0.25,2.191161885,0.552687206278561,0.0,0.44999998807907104,-0.10999999940395355,-38.93000030517578,-0.0076904296875,0.005859375,1.02099609375,36.83000183105469,0.0,-2.0,-2.443023681640625,-0.4689178466796875,Closing,0.0,0.0,-1.0,0.0,0.0,0.0,0.0,0.0,
7.945919999999984,0.0,0.0,-3339.0,0.0,0.0,0.0,0.0,0.125,1.357421736,0.5498168668524864,0.0,4870.0,0.0,0.0,0.0,0.0,0.125,4.932860823,4.41043958977222,0.0,-2829.0,0.0,0.0,0.0,0.0,0.125,2.818603227,4.389674732977291,0.0,8872.0,0.0,0.0,0.0,0.0,0.25,2.191161885,0.552687206278561,0.0,0.44999998807907104,-0.14000000059604645,-38.93000030517578,-0.00616455078125,0.0072021484375,1.025390625,36.83000183105469,0.0,-2.0,-2.443023681640625,-0.4689178466796875,Closing,0.0,0.0,-1.0,0.0,0.0,0.0,0.0,0.0,
8.081995999999984,0.0,0.0,-3339.0,0.0,0.0,0.0,0.0,0.125,1.357421736,0.5498168668524864,0.0,4870.0,0.0,0.0,0.0,0.0,0.125,4.932860823,4.41043958977222,0.0,-2829.0,0.0,0.0,0.0,0.0,0.125,2.818603227,4.389674732977291,0.0,8872.0,0.0,0.0,0.0,0.0,0.25,2.189941182,0.552687206278561,0.0,0.44999998807907104,-0.1599999964237213,-38.93000030517578,-0.00433349609375,0.00830078125,1.02337646484375,36.83000183105469,0.0,-1.0,-2.443023681640625,-0.4689178466796875,Closing,0.0,0.0,-1.0,0.0,0.0,0.0,0.0,0.0,
8.213068,0.0,0.0,-3339.0,0.0,0.0,0.0,0.0,0.125,1.356201033,0.5498168668524864,0.0,4870.0,0.0,0.0,0.0,0.0,0.125,4.929198714,4.41043958977222,0.0,-2829.0,0.0,0.0,0.0,0.0,0.125,2.818603227,4.389674732977291,0.0,8872.0,0.0,0.0,0.0,0.0,0.25,2.191161885,0.552687206278561,0.0,0.4399999976158142,-0.18000000715255737,-38.93000030517578,-0.002685546875,0.00469970703125,1.018798828125,36.81999969482422,0.0,2.0,-2.443023681640625,-0.4689178466796875,Closing,0.0,0.0,-1.0,0.0,0.0,0.0,0.0,0.0,
8.403377000000008,0.0,0.0,-3339.0,0.0,0.0,0.0,0.0,0.125,1.357421736,0.5498168668524864,0.0,4870.0,0.0,0.0,0.0,0.0,0.125,4.932860823,4.41043958977222,0.0,-2829.0,0.0,0.0,0.0,0.0,0.125,2.818603227,4.389674732977291,0.0,8872.0,0.0,0.0,0.0,0.0,0.25,2.191161885,0.552687206278561,0.0,0.4399999976158142,-0.1899999976158142,-38.939998626708984,-0.00994873046875,0.01043701171875,1.02197265625,36.81999969482422,0.0,-6.0,-2.443023681640625,-0.4689178466796875,Closing,0.0,0.0,-1.0,0.0,0.0,0.0,0.0,0.0,
8.547310999999986,0.0,0.0,-3339.0,0.0,0.0,0.0,0.0,0.125,1.357421736,0.5498168668524864,0.0,4870.0,0.0,0.0,0.0,0.0,0.125,4.932860823,4.41043958977222,0.0,-2829.0,0.0,0.0,0.0,0.0,0.125,2.818603227,4.389674732977291,0.0,8872.0,0.125,0.0,0.0,0.0,0.25,2.191161885,0.552687206278561,0.0,0.4399999976158142,-0.20999999344348907,-38.939998626708984,-0.0035400390625,0.0089111328125,1.01751708984375,36.81999969482422,0.0,0.0,-2.443023681640625,-0.4689178466796875,Closing,0.0,0.0,-1.0,0.0,0.0,0.0,0.0,0.0,
8.680856,0.0,0.0,-3339.0,0.0,0.0,0.0,0.0,0.125,1.356201033,0.5498168668524864,0.0,4870.0,0.0,0.0,0.0,0.0,0.125,4.934081526,4.41043958977222,0.0,-2829.0,0.0,0.0,0.0,0.0,0.125,2.818603227,4.389674732977291,0.0,8872.0,0.0,0.0,0.0,0.0,0.25,2.191161885,0.552687206278561,0.0,0.4300000071525574,-0.20999999344348907,-38.939998626708984,-0.0076904296875,0.0093994140625,1.022705078125,36.81999969482422,0.0,-3.0,-2.443023681640625,-0.4689178466796875,Closing,0.0,0.0,-1.0,0.0,0.0,0.0,0.0,0.0,
8.804726999999984,0.0,0.0,-3339.0,0.0,0.0,0.0,0.0,0.125,1.356201033,0.5498168668524864,0.0,4870.0,0.0,0.0,0.0,0.0,0.125,4.93164012,4.41043958977222,0.0,-2829.0,0.0,0.0,0.0,0.0,0.125,2.818603227,4.389674732977291,0.0,8872.0,0.125,0.0,0.0,0.0,0.25,2.189941182,0.552687206278561,0.0,0.4300000071525574,-0.2199999988079071,-38.939998626708984,-0.00665283203125,0.01080322265625,1.014892578125,36.849998474121094,0.0,-3.0,-2.443023681640625,-0.4689178466796875,Closing,0.0,0.0,-1.0,0.0,0.0,0.0,0.0,0.0,
8.933649999999995,0.0,0.0,-3339.0,0.0,0.0,0.0,0.0,0.125,1.357421736,0.5498168668524864,0.0,4870.0,0.0,0.0,0.0,0.0,0.125,4.932860823,4.41043958977222,0.0,-2829.0,0.0,0.0,0.0,0.0,0.125,2.81982393,4.389674732977291,0.0,8872.0,0.0,0.0,0.0,0.0,0.25,2.191161885,0.552687206278561,0.0,0.4399999976158142,-0.23000000417232513,-38.939998626708984,-0.00457763671875,0.010498046875,1.0224609375,36.849998474121094,0.0,-1.0,-2.443023681640625,-0.4689178466796875,Closing,0.0,0.0,-1.0,0.0,0.0,0.0,0.0,0.0,
9.077530999999988,0.0,0.0,-3339.0,0.0,0.0,0.0,0.0,0.125,1.356201033,0.5498168668524864,0.0,4870.0,0.0,0.0,0.0,0.0,0.125,4.929198714,4.41043958977222,0.0,-2829.0,0.0,0.0,0.0,0.0,0.125,2.818603227,4.389674732977291,0.0,8872.0,0.0,0.0,0.0,0.0,0.25,2.189941182,0.552687206278561,0.0,0.4399999976158142,-0.23999999463558197,-38.939998626708984,-0.00469970703125,0.00836181640625,1.0152587890625,36.849998474121094,0.0,0.0,-2.443023681640625,-0.4689178466796875,Closing,0.0,0.0,-1.0,0.0,0.0,0.0,0.0,0.0,
9.201464999999997,0.0,0.0,-3339.0,0.0,0.0,0.0,0.0,0.125,1.356201033,0.5498168668524864,0.0,4870.0,0.0,0.0,0.0,0.0,0.125,4.930419417,4.41043958977222,0.0,-2829.0,0.0,0.0,0.0,0.0,0.125,2.817382524,4.389674732977291,0.0,8872.0,0.0,0.0,0.0,0.0,0.25,2.191161885,0.552687206278561,0.0,0.4399999976158142,-0.25,-38.95000076293945,-0.00543212890625,0.00714111328125,1.01947021484375,36.849998474121094,0.0,0.0,-2.443023681640625,-0.4689178466796875,Closing,0.0,0.0,-1.0,0.0,0.0,0.0,0.0,0.0,
9.343962999999988,0.0,0.0,-3339.0,0.0,0.0,0.0,0.0,0.125,1.357421736,0.5498168668524864,0.0,4870.0,0.0,0.0,0.0,0.0,0.125,4.93164012,4.41043958977222,0.0,-2829.0,0.0,0.0,0.0,0.0,0.125,2.818603227,4.389674732977291,0.0,8872.0,0.125,0.0,0.0,0.0,0.25,2.189941182,0.552687206278561,0.0,0.4399999976158142,-0.25999999046325684,-38.95000076293945,-0.0059814453125,0.00775146484375,1.022216796875,36.869998931884766,0.0,0.0,-2.443023681640625,-0.4689178466796875,Closing,0.0,0.0,-1.0,0.0,0.0,0.0,0.0,0.0,
9.465329999999987,0.0,0.0,-3339.0,0.0,0.0,0.0,0.0,0.125,1.357421736,0.5498168668524864,0.0,4870.0,0.0,0.0,0.0,0.0,0.125,4.932860823,4.41043958977222,0.0,-2829.0,0.0,0.0,0.0,0.0,0.125,2.818603227,4.389674732977291,0.0,8872.0,0.0,0.0,0.0,0.0,0.25,2.189941182,0.552687206278561,0.0,0.4300000071525574,-0.25999999046325684,-38.95000076293945,-0.005859375,0.0064697265625,1.01702880859375,36.869998931884766,0.0,0.0,-2.443023681640625,-0.4689178466796875,Closing,0.0,0.0,-1.0,0.0,0.0,0.0,0.0,0.0,
9.613883999999992,0.0,0.0,-3339.0,0.0,0.0,0.0,0.0,0.125,1.356201033,0.5498168668524864,0.0,4870.0,0.0,0.0,0.0,0.0,0.125,4.930419417,4.41043958977222,0.0,-2829.0,0.0,0.0,0.0,0.0,0.125,2.818603227,4.389674732977291,0.0,8872.0,0.125,0.0,0.0,0.0,0.25,2.189941182,0.552687206278561,0.0,0.4399999976158142,-0.27000001072883606,-38.95000076293945,-0.0079345703125,0.0062255859375,1.015380859375,36.869998931884766,0.0,-1.0,-2.443023681640625,-0.4689178466796875,Closing,0.0,0.0,-1.0,0.0,0.0,0.0,0.0,0.0,
9.746492999999989,0.0,0.0,-3339.0,0.0,0.0,0.0,0.0,0.125,1.357421736,0.5498168668524864,0.0,4870.0,0.0,0.0,0.0,0.0,0.125,4.932860823,4.41043958977222,0.0,-2829.0,0.0,0.0,0.0,0.0,0.125,2.818603227,4.389674732977291,0.0,8872.0,0.125,0.0,0.0,0.0,0.25,2.191161885,0.552687206278561,0.0,0.4399999976158142,-0.2800000011920929,-38.95000076293945,-0.00360107421875,0.0089111328125,1.0208740234375,36.869998931884766,0.0,0.0,-2.443023681640625,-0.4689178466796875,Closing,0.0,0.0,-1.0,0.0,0.0,0.0,0.0,0.0,
9.875790999999998,0.0,0.0,-3352.0,0.125,-52.5,-380.31496703624725,0.0,0.125,1.359863142,0.5498168668524864,0.0,4868.0,0.5,-112.5,-380.31496703624725,0.0,0.125,4.930419417,4.41043958977222,0.0,-2829.0,0.375,-37.5,-380.31496703624725,0.0,0.125,2.822265336,4.389674732977291,0.0,8872.0,0.625,0.0,-380.31496703624725,0.0,0.25,2.189941182,0.552687206278561,0.0,0.3799999952316284,-0.23000000417232513,-38.88999938964844,-0.04827880859375,-0.11029052734375,1.11083984375,36.86000061035156,0.0,39.0,-2.442657470703125,-0.4690704345703125,Closing,0.0,0.0,-1.0,0.0,0.0,0.0,0.0,0.0,
10.011636999999988,0.0,0.0,-3360.0,0.0,-22.5,0.0,0.0,0.125,1.362304548,0.5498168668524864,0.0,4846.0,0.0,0.0,0.0,0.0,0.125,4.940185041,4.41043958977222,0.0,-2851.0,0.0,-15.0,0.0,0.0,0.125,2.823486039,4.389674732977291,0.0,8870.0,0.125,0.0,0.0,0.0,0.25,2.189941182,0.552687206278561,0.0,0.38999998569488525,-0.25,-38.52000045776367,0.0184326171875,0.022216796875,1.0401611328125,36.86000061035156,0.0,8.0,-2.4415130615234375,-0.472564697265625,Closing,0.0,0.0,-1.0,0.0,0.0,0.0,0.0,0.0,
10.145478999999993,0.0,0.0,-3360.0,0.0,0.0,0.0,0.0,0.125,1.362304548,0.5498168668524864,0.0,4846.0,0.0,0.0,0.0,0.0,0.125,4.942626447,4.41043958977222,0.0,-2850.0,0.0,7.5,0.0,0.0,0.125,2.823486039,4.389674732977291,0.0,8870.0,0.0,0.0,0.0,0.0,0.25,2.191161885,0.552687206278561,0.0,0.4000000059604645,-0.30000001192092896,-38.599998474121094,0.00592041015625,-0.00250244140625,1.03057861328125,36.86000061035156,0.0,15.0,-2.441314697265625,-0.4741973876953125,Closing,0.0,0.0,-1.0,0.0,0.0,0.0,0.0,0.0,
10.266875,0.0,0.0,-3360.0,0.0,0.0,0.0,0.0,0.125,1.362304548,0.5498168668524864,0.0,4846.0,0.0,0.0,0.0,0.0,0.125,4.941405744,4.41043958977222,0.0,-2850.0,0.0,0.0,0.0,0.0,0.125,2.823486039,4.389674732977291,0.0,8870.0,0.0,0.0,0.0,0.0,0.25,2.189941182,0.552687206278561,0.0,0.4000000059604645,-0.3100000023841858,-38.599998474121094,-0.0013427734375,0.0015869140625,1.02899169921875,36.86000061035156,0.0,6.0,-2.441314697265625,-0.4741973876953125,Closing,0.0,0.0,-1.0,0.0,0.0,0.0,0.0,0.0,
10.412766000000003,0.0,0.0,-3360.0,0.0,0.0,0.0,0.0,0.125,1.362304548,0.5498168668524864,0.0,4846.0,0.0,0.0,0.0,0.0,0.125,4.940185041,4.41043958977222,0.0,-2850.0,0.0,0.0,0.0,0.0,0.125,2.823486039,4.389674732977291,0.0,8870.0,0.0,0.0,0.0,0.0,0.25,2.191161885,0.552687206278561,0.0,0.4000000059604645,-0.3100000023841858,-38.61000061035156,-0.00482177734375,0.0028076171875,1.020263671875,36.90999984741211,0.0,3.0,-2.441314697265625,-0.4741973876953125,Closing,0.0,0.0,-1.0,0.0,0.0,0.0,0.0,0.0,
10.545617999999987,0.0,0.0,-3360.0,0.0,0.0,-115.74803106486797,0.0,0.125,1.361083845,0.5498168668524864,0.0,4846.0,0.0,0.0,-115.74803106486797,0.0,0.125,4.941405744,4.41043958977222,0.0,-2850.0,0.125,0.0,-115.74803106486797,0.0,0.125,2.823486039,4.389674732977291,0.0,8870.0,0.125,0.0,-115.74803106486797,0.0,0.25,2.191161885,0.5526872062785609,0.0,0.4000000059604645,-0.3100000023841858,-38.61000061035156,-0.00848388671875,0.00592041015625,1.02630615234375,36.90999984741211,0.0,-1.0,-2.441314697265625,-0.4741973876953125,Closing,0.0,0.0,-1.0,0.0,0.0,0.0,0.0,0.0,
10.679710999999982,0.0,0.0,-3360.0,0.0,0.0,0.0,0.0,0.125,1.362304548,0.5498168668524864,0.0,4846.0,0.0,0.0,0.0,0.0,0.125,4.938964338,4.41043958977222,0.0,-2850.0,0.0,0.0,0.0,0.0,0.125,2.823486039,4.389674732977291,0.0,8870.0,0.0,0.0,0.0,0.0,0.25,2.189941182,0.5526872062785609,0.0,0.4000000059604645,-0.3100000023841858,-38.599998474121094,-0.0076904296875,0.0030517578125,1.01776123046875,36.90999984741211,0.0,0.0,-2.441314697265625,-0.4741973876953125,Closing,0.0,0.0,-1.0,0.0,0.0,0.0,0.0,0.0,
10.816279999999999,0.0,0.0,-3360.0,0.0,0.0,0.0,0.0,0.125,1.362304548,0.5498168668524864,0.0,4846.0,0.0,0.0,0.0,0.0,0.125,4.940185041,4.41043958977222,0.0,-2850.0,0.0,0.0,0.0,0.0,0.125,2.823486039,4.389674732977291,0.0,8870.0,0.125,0.0,0.0,0.0,0.25,2.191161885,0.5526872062785609,0.0,0.4000000059604645,-0.3100000023841858,-38.599998474121094,-0.00872802734375,0.00836181640625,1.0208740234375,36.880001068115234,0.0,-3.0,-2.441314697265625,-0.4741973876953125,Closing,0.0,0.0,-1.0,0.0,0.0,0.0,0.0,0.0,
10.948312000000005,0.0,0.0,-3360.0,0.125,0.0,-231.49606212973595,0.0,0.125,1.362304548,0.5498168668524864,0.0,4846.0,0.375,-7.5,-231.49606212973595,0.0,0.125,4.942626447,4.41043958977222,0.0,-2850.0,0.375,-15.0,-231.49606212973595,0.0,0.125,2.823486039,4.389674732977291,0.0,8870.0,0.375,0.0,-231.49606212973595,0.0,0.25,2.191161885,0.5526872062785609,0.0,0.4000000059604645,-0.30000001192092896,-38.54999923706055,-0.00970458984375,-0.00311279296875,1.0203857421875,36.880001068115234,0.0,3.0,-2.441314697265625,-0.4741973876953125,Closing,0.0,0.0,-1.0,0.0,0.0,0.0,0.0,0.0,
11.08097999999998,0.0,0.0,-3360.0,0.0,0.0,0.0,0.0,0.125,1.362304548,0.5498168668524864,0.0,4843.0,0.0,0.0,0.0,0.0,0.125,4.941405744,4.41043958977222,0.0,-2853.0,0.0,0.0,0.0,0.0,0.125,2.822265336,4.389674732977291,0.0,8870.0,0.125,0.0,0.0,0.0,0.25,2.191161885,0.5526872062785609,0.0,0.4099999964237213,-0.28999999165534973,-38.54999923706055,0.0042724609375,-0.0020751953125,1.002685546875,36.880001068115234,0.0,13.0,-2.44122314453125,-0.4741973876953125,Closing,0.0,0.0,-1.0,0.0,0.0,0.0,0.0,0.0,
11.214725999999995,0.0,0.0,-3360.0,0.0,0.0,0.0,0.0,0.125,1.362304548,0.5498168668524864,0.0,4844.0,0.0,0.0,0.0,0.0,0.125,4.941405744,4.41043958977222,0.0,-2852.0,0.0,0.0,0.0,0.0,0.125,2.822265336,4.389674732977291,0.0,8870.0,0.0,0.0,0.0,0.0,0.25,2.189941182,0.5526872062785609,0.0,0.41999998688697815,-0.3100000023841858,-38.54999923706055,0.0067138671875,0.0045166015625,1.01806640625,36.880001068115234,0.0,11.0,-2.44122314453125,-0.4741973876953125,Closing,0.0,0.0,-1.0,0.0,0.0,0.0,0.0,0.0,
11.345040999999997,0.0,0.0,-3360.0,0.0,0.0,0.0,0.0,0.125,1.361083845,0.5498168668524864,0.0,4844.0,0.0,0.0,0.0,0.0,0.125,4.942626447,4.41043958977222,0.0,-2852.0,0.0,0.0,0.0,0.0,0.125,2.823486039,4.389674732977291,0.0,8870.0,0.0,0.0,0.0,0.0,0.25,2.189941182,0.5526872062785609,0.0,0.41999998688697815,-0.3100000023841858,-38.54999923706055,0.00927734375,0.005859375,1.0125732421875,36.939998626708984,0.0,12.0,-2.44122314453125,-0.4741973876953125,Closing,0.0,0.0,-1.0,0.0,0.0,0.0,0.0,0.0,
11.480584999999992,0.0,0.0,-3360.0,0.0,0.0,0.0,0.0,0.125,1.361083845,0.5498168668524864,0.0,4844.0,0.0,0.0,0.0,0.0,0.125,4.935302229,4.41043958977222,0.0,-2852.0,0.0,0.0,0.0,0.0,0.125,2.823486039,4.389674732977291,0.0,8870.0,0.125,0.0,0.0,0.0,0.25,2.189941182,0.5526872062785609,0.0,0.4099999964237213,-0.30000001192092896,-38.54999923706055,0.0,0.00616455078125,1.0172119140625,36.939998626708984,0.0,5.0,-2.44122314453125,-0.4741973876953125,Closing,0.0,0.0,-1.0,0.0,0.0,0.0,0.0,0.0,
11.600728000000002,0.0,0.0,-3360.0,0.0,0.0,0.0,0.0,0.125,1.361083845,0.5498168668524864,0.0,4844.0,0.0,0.0,0.0,0.0,0.125,4.942626447,4.41043958977222,0.0,-2852.0,0.0,0.0,0.0,0.0,0.125,2.818603227,4.389674732977291,0.0,8870.0,0.0,0.0,0.0,0.0,0.25,2.191161885,0.5526872062785609,0.0,0.41999998688697815,-0.3100000023841858,-38.54999923706055,-0.004150390625,0.00555419921875,1.02349853515625,36.939998626708984,0.0,2.0,-2.44122314453125,-0.4741973876953125,Closing,0.0,0.0,-1.0,0.0,0.0,0.0,0.0,0.0,
11.739141999999992,0.0,0.0,-3360.0,0.0,0.0,0.0,0.0,0.125,1.362304548,0.5498168668524864,0.0,4844.0,0.0,0.0,0.0,0.0,0.125,4.940185041,4.41043958977222,0.0,-2852.0,0.0,0.0,0.0,0.0,0.125,2.818603227,4.389674732977291,0.0,8870.0,0.125,0.0,0.0,0.0,0.25,2.189941182,0.5526872062785609,0.0,0.41999998688697815,-0.3100000023841858,-38.54999923706055,-0.0048828125,0.00482177734375,1.0211181640625,36.939998626708984,0.0,2.0,-2.44122314453125,-0.4741973876953125,Closing,0.0,0.0,-1.0,0.0,0.0,0.0,0.0,0.0,
11.879411999999983,0.0,0.0,-3360.0,0.0,0.0,0.0,0.0,0.125,1.361083845,0.5498168668524864,0.0,4844.0,0.0,0.0,0.0,0.0,0.125,4.940185041,4.41043958977222,0.0,-2852.0,0.0,0.0,0.0,0.0,0.125,2.823486039,4.389674732977291,0.0,8870.0,0.0,0.0,0.0,0.0,0.25,2.189941182,0.5526872062785609,0.0,0.41999998688697815,-0.3100000023841858,-38.54999923706055,-0.00604248046875,0.0072021484375,1.02105712890625,36.900001525878906,0.0,0.0,-2.44122314453125,-0.4741973876953125,Closing,0.0,0.0,-1.0,0.0,0.0,0.0,0.0,0.0,
12.079826,0.0,0.0,-3360.0,0.0,0.0,0.0,0.0,0.125,1.361083845,0.5498168668524864,0.0,4844.0,0.0,0.0,0.0,0.0,0.125,4.940185041,4.41043958977222,0.0,-2852.0,0.0,0.0,0.0,0.0,0.125,2.823486039,4.389674732977291,0.0,8870.0,0.0,0.0,0.0,0.0,0.25,2.191161885,0.5526872062785609,0.0,0.41999998688697815,-0.3100000023841858,-38.54999923706055,-0.00335693359375,0.0089111328125,1.01507568359375,36.900001525878906,0.0,0.0,-2.44122314453125,-0.4741973876953125,Closing,0.0,0.0,-1.0,0.0,0.0,0.0,0.0,0.0,
12.201258000000001,0.0,0.0,-3360.0,0.0,0.0,0.0,0.0,0.125,1.362304548,0.5498168668524864,0.0,4844.0,0.0,0.0,0.0,0.0,0.125,4.940185041,4.41043958977222,0.0,-2852.0,0.0,0.0,0.0,0.0,0.125,2.822265336,4.389674732977291,0.0,8870.0,0.0,0.0,0.0,0.0,0.25,2.191161885,0.5526872062785609,0.0,0.4300000071525574,-0.3100000023841858,-38.54999923706055,-0.00506591796875,0.009765625,1.02496337890625,36.900001525878906,0.0,0.0,-2.44122314453125,-0.4741973876953125,Closing,0.0,0.0,-1.0,0.0,0.0,0.0,0.0,0.0,
12.344948000000004,0.0,0.0,-3360.0,0.0,0.0,0.0,0.0,0.125,1.362304548,0.5498168668524864,0.0,4844.0,0.0,0.0,0.0,0.0,0.125,4.937743635,4.41043958977222,0.0,-2852.0,0.0,0.0,0.0,0.0,0.125,2.818603227,4.389674732977291,0.0,8870.0,0.0,0.0,0.0,0.0,0.25,2.189941182,0.5526872062785609,0.0,0.4300000071525574,-0.3100000023841858,-38.560001373291016,-0.00439453125,0.00909423828125,1.0216064453125,36.93000030517578,0.0,0.0,-2.44122314453125,-0.4741973876953125,Closing,0.0,0.0,-1.0,0.0,0.0,0.0,0.0,0.0,
12.480225999999995,0.0,0.0,-3360.0,0.0,0.0,0.0,0.0,0.125,1.361083845,0.5498168668524864,0.0,4844.0,0.0,0.0,0.0,0.0,0.125,4.940185041,4.41043958977222,0.0,-2852.0,0.0,0.0,0.0,0.0,0.125,2.822265336,4.389674732977291,0.0,8870.0,0.0,0.0,0.0,0.0,0.25,2.189941182,0.5526872062785609,0.0,0.4300000071525574,-0.3100000023841858,-38.560001373291016,-0.00537109375,0.0096435546875,1.01739501953125,36.93000030517578,0.0,-1.0,-2.44122314453125,-0.4741973876953125,Closing,0.0,0.0,-1.0,0.0,0.0,0.0,0.0,0.0,
12.613793000000005,0.0,0.0,-3360.0,0.0,0.0,0.0,0.0,0.125,1.361083845,0.5498168668524864,0.0,4844.0,0.0,0.0,0.0,0.0,0.125,4.941405744,4.41043958977222,0.0,-2852.0,0.0,0.0,0.0,0.0,0.125,2.818603227,4.389674732977291,0.0,8870.0,0.125,0.0,0.0,0.0,0.25,2.191161885,0.5526872062785609,0.0,0.4300000071525574,-0.3100000023841858,-38.560001373291016,-0.00244140625,0.00897216796875,1.01959228515625,36.93000030517578,0.0,1.0,-2.44122314453125,-0.4741973876953125,Closing,0.0,0.0,-1.0,0.0,0.0,0.0,0.0,0.0,
12.744837,0.0,0.0,-3360.0,0.0,0.0,0.0,0.0,0.125,1.361083845,0.5498168668524864,0.0,4844.0,0.0,0.0,0.0,0.0,0.125,4.940185041,4.41043958977222,0.0,-2852.0,0.0,0.0,0.0,0.0,0.125,2.818603227,4.389674732977291,0.0,8870.0,0.0,0.0,0.0,0.0,0.25,2.189941182,0.5526872062785609,0.0,0.4300000071525574,-0.3100000023841858,-38.560001373291016,-0.00714111328125,0.00714111328125,1.02508544921875,36.93000030517578,0.0,0.0,-2.44122314453125,-0.4741973876953125,Closing,0.0,0.0,-1.0,0.0,0.0,0.0,0.0,0.0,
12.881402999999992,0.0,0.0,-3360.0,0.0,0.0,0.0,0.0,0.125,1.362304548,0.5498168668524864,0.0,4844.0,0.0,0.0,0.0,0.0,0.125,4.940185041,4.41043958977222,0.0,-2852.0,0.0,0.0,0.0,0.0,0.125,2.823486039,4.389674732977291,0.0,8870.0,0.0,0.0,0.0,0.0,0.25,2.189941182,0.5526872062785609,0.0,0.4300000071525574,-0.3100000023841858,-38.560001373291016,-0.00634765625,0.00823974609375,1.01806640625,36.93000030517578,0.0,0.0,-2.44122314453125,-0.4741973876953125,Closing,0.0,0.0,-1.0,0.0,0.0,0.0,0.0,0.0,
13.013807,0.0,0.0,-3360.0,0.0,0.0,0.0,0.0,0.125,1.362304548,0.5498168668524864,0.0,4844.0,0.0,0.0,0.0,0.0,0.125,4.941405744,4.41043958977222,0.0,-2852.0,0.0,0.0,0.0,0.0,0.125,2.823486039,4.389674732977291,0.0,8870.0,0.0,0.0,0.0,0.0,0.25,2.191161885,0.5526872062785609,0.0,0.4300000071525574,-0.3100000023841858,-38.56999969482422,-0.00592041015625,0.00738525390625,1.01873779296875,36.93000030517578,0.0,0.0,-2.44122314453125,-0.4741973876953125,Closing,0.0,0.0,-1.0,0.0,0.0,0.0,0.0,0.0,
13.143922999999981,0.0,0.0,-3360.0,0.0,0.0,0.0,0.0,0.125,1.362304548,0.5498168668524864,0.0,4844.0,0.0,0.0,0.0,0.0,0.125,4.941405744,4.41043958977222,0.0,-2852.0,0.0,0.0,0.0,0.0,0.125,2.818603227,4.389674732977291,0.0,8870.0,0.0,0.0,0.0,0.0,0.25,2.189941182,0.5526872062785609,0.0,0.4300000071525574,-0.3100000023841858,-38.56999969482422,-0.00714111328125,0.00592041015625,1.02008056640625,36.93000030517578,0.0,0.0,-2.44122314453125,-0.4741973876953125,Closing,0.0,0.0,-1.0,0.0,0.0,0.0,0.0,0.0,
13.280282000000007,0.0,0.0,-3360.0,0.0,0.0,0.0,0.0,0.125,1.361083845,0.5498168668524864,0.0,4844.0,0.0,0.0,0.0,0.0,0.125,4.942626447,4.41043958977222,0.0,-2852.0,0.0,0.0,0.0,0.0,0.125,2.817382524,4.389674732977291,0.0,8870.0,0.0,0.0,0.0,0.0,0.25,2.191161885,0.5526872062785609,0.0,0.41999998688697815,-0.3100000023841858,-38.56999969482422,-0.006103515625,0.00689697265625,1.0201416015625,36.93000030517578,0.0,0.0,-2.44122314453125,-0.4741973876953125,Closing,0.0,0.0,-1.0,0.0,0.0,0.0,0.0,0.0,
13.414460999999982,0.0,0.0,-3360.0,0.0,0.0,0.0,0.0,0.125,1.362304548,0.5498168668524864,0.0,4844.0,0.0,0.0,0.0,0.0,0.125,4.941405744,4.41043958977222,0.0,-2852.0,0.0,0.0,0.0,0.0,0.125,2.818603227,4.389674732977291,0.0,8870.0,0.0,0.0,0.0,0.0,0.25,2.191161885,0.5526872062785609,0.0,0.41999998688697815,-0.3100000023841858,-38.56999969482422,-0.0079345703125,0.00738525390625,1.02117919921875,36.939998626708984,0.0,-1.0,-2.44122314453125,-0.4741973876953125,Closing,0.0,0.0,-1.0,0.0,0.0,0.0,0.0,0.0,
13.546187999999995,0.0,0.0,-3360.0,0.0,0.0,0.0,0.0,0.125,1.362304548,0.5498168668524864,0.0,4844.0,0.0,0.0,0.0,0.0,0.125,4.941405744,4.41043958977222,0.0,-2852.0,0.0,0.0,0.0,0.0,0.125,2.817382524,4.389674732977291,0.0,8870.0,0.125,0.0,0.0,0.0,0.25,2.189941182,0.5526872062785609,0.0,0.41999998688697815,-0.3199999928474426,-38.56999969482422,-0.002685546875,0.00750732421875,1.02362060546875,36.939998626708984,0.0,2.0,-2.44122314453125,-0.4741973876953125,Closing,0.0,0.0,-1.0,0.0,0.0,0.0,0.0,0.0,
13.682328999999998,0.0,0.0,-3360.0,0.0,0.0,0.0,0.0,0.125,1.361083845,0.5498168668524864,0.0,4844.0,0.0,0.0,0.0,0.0,0.125,4.938964338,4.41043958977222,0.0,-2852.0,0.0,0.0,0.0,0.0,0.125,2.823486039,4.389674732977291,0.0,8870.0,0.125,0.0,0.0,0.0,0.25,2.191161885,0.5526872062785609,0.0,0.41999998688697815,-0.3199999928474426,-38.56999969482422,-0.008056640625,0.008544921875,1.017822265625,36.939998626708984,0.0,-2.0,-2.44122314453125,-0.4741973876953125,Closing,0.0,0.0,-1.0,0.0,0.0,0.0,0.0,0.0,
13.815378999999986,0.0,0.0,-3360.0,0.0,0.0,0.0,0.0,0.125,1.362304548,0.5498168668524864,0.0,4844.0,0.0,0.0,0.0,0.0,0.125,4.938964338,4.41043958977222,0.0,-2852.0,0.0,0.0,0.0,0.0,0.125,2.818603227,4.389674732977291,0.0,8870.0,0.0,0.0,0.0,0.0,0.25,2.189941182,0.5526872062785609,0.0,0.41999998688697815,-0.3199999928474426,-38.56999969482422,-0.0084228515625,0.0064697265625,1.0235595703125,36.939998626708984,0.0,-1.0,-2.44122314453125,-0.4741973876953125,Closing,0.0,0.0,-1.0,0.0,0.0,0.0,0.0,0.0,
13.944304999999993,0.0,0.0,-3360.0,0.0,0.0,0.0,0.0,0.125,1.362304548,0.5498168668524864,0.0,4844.0,0.0,0.0,0.0,0.0,0.125,4.940185041,4.41043958977222,0.0,-2852.0,0.0,0.0,0.0,0.0,0.125,2.818603227,4.389674732977291,0.0,8870.0,0.0,0.0,0.0,0.0,0.25,2.191161885,0.5526872062785609,0.0,0.4300000071525574,-0.33000001311302185,-38.56999969482422,-0.0040283203125,0.0062255859375,1.01806640625,36.97999954223633,0.0,2.0,-2.44122314453125,-0.4741973876953125,Closing,0.0,0.0,-1.0,0.0,0.0,0.0,0.0,0.0,
14.079122000000003,0.0,0.0,-3360.0,0.0,0.0,0.0,0.0,0.125,1.362304548,0.5498168668524864,0.0,4844.0,0.0,0.0,0.0,0.0,0.125,4.938964338,4.41043958977222,0.0,-2852.0,0.0,0.0,0.0,0.0,0.125,2.818603227,4.389674732977291,0.0,8870.0,0.0,0.0,0.0,0.0,0.25,2.189941182,0.5526872062785609,0.0,0.4300000071525574,-0.3199999928474426,-38.56999969482422,-0.0059814453125,0.00836181640625,1.017578125,36.97999954223633,0.0,0.0,-2.44122314453125,-0.4741973876953125,Closing,0.0,0.0,-1.0,0.0,0.0,0.0,0.0,0.0,
14.200680999999982,0.0,0.0,-3360.0,0.0,0.0,0.0,0.0,0.125,1.362304548,0.5498168668524864,0.0,4844.0,0.0,0.0,0.0,0.0,0.125,4.941405744,4.41043958977222,0.0,-2852.0,0.0,0.0,0.0,0.0,0.125,2.823486039,4.389674732977291,0.0,8870.0,0.125,0.0,0.0,0.0,0.25,2.189941182,0.5526872062785609,0.0,0.4300000071525574,-0.33000001311302185,-38.56999969482422,-0.00750732421875,0.007568359375,1.0225830078125,36.97999954223633,0.0,-1.0,-2.44122314453125,-0.4741973876953125,Closing,0.0,0.0,-1.0,0.0,0.0,0.0,0.0,0.0,
14.346008000000001,0.0,0.0,-3360.0,0.0,0.0,0.0,0.0,0.125,1.362304548,0.5498168668524864,0.0,4844.0,0.0,0.0,0.0,0.0,0.125,4.940185041,4.41043958977222,0.0,-2852.0,0.0,0.0,0.0,0.0,0.125,2.823486039,4.389674732977291,0.0,8870.0,0.0,0.0,0.0,0.0,0.25,2.191161885,0.5526872062785609,0.0,0.4300000071525574,-0.33000001311302185,-38.58000183105469,-0.005615234375,0.00726318359375,1.017333984375,36.97999954223633,0.0,0.0,-2.44122314453125,-0.4741973876953125,Closing,0.0,0.0,-1.0,0.0,0.0,0.0,0.0,0.0,
14.481388999999995,0.0,0.0,-3360.0,0.0,0.0,0.0,0.0,0.125,1.361083845,0.5498168668524864,0.0,4844.0,0.0,0.0,0.0,0.0,0.125,4.938964338,4.41043958977222,0.0,-2852.0,0.0,0.0,0.0,0.0,0.125,2.823486039,4.389674732977291,0.0,8870.0,0.125,0.0,0.0,0.0,0.25,2.191161885,0.5526872062785609,0.0,0.4300000071525574,-0.33000001311302185,-38.58000183105469,-0.00225830078125,0.0067138671875,1.0208740234375,36.93000030517578,0.0,3.0,-2.44122314453125,-0.4741973876953125,Closing,0.0,0.0,-1.0,0.0,0.0,0.0,0.0,0.0,
14.613986999999995,0.0,0.0,-3360.0,0.0,0.0,0.0,0.0,0.125,1.362304548,0.5498168668524864,0.0,4844.0,0.0,0.0,0.0,0.0,0.125,4.937743635,4.41043958977222,0.0,-2852.0,0.0,0.0,0.0,0.0,0.125,2.823486039,4.389674732977291,0.0,8870.0,0.125,0.0,0.0,0.0,0.25,2.189941182,0.5526872062785609,0.0,0.4300000071525574,-0.33000001311302185,-38.58000183105469,-0.0076904296875,0.00689697265625,1.01666259765625,36.93000030517578,0.0,0.0,-2.44122314453125,-0.4741973876953125,Closing,0.0,0.0,-1.0,0.0,0.0,0.0,0.0,0.0,
