Time,ClimberA1,ClimberA2,FRpos,FRCurrent,FRspeed,FRsetpoint,FRApos,FRACurrent,FREncpos,FREncSetpoint,FREncSpeed,FLpos,FLCurrent,FLspeed,FLsetpoint,FLApos,FLACurrent,FLEncpos,FLEncSetpoint,FLEncSpeed,BRpos,BRCurrent,BRspeed,BRsetpoint,BRApos,BRACurrent,BREncpos,BREncSetpoint,BREncSpeed,BLpos,BLCurrent,BLspeed,BLsetpoint,BLApos,BLACurrent,BLEncpos,BLEncSetpoint,BLEncSpeed,navx_Pitch,navx_Roll,navx_Yaw,navx_XAcc,navx_YAcc,navx_ZAcc,navx_Temp,navx_Bar,navx_Alt,navx_XDis,navx_YDis,GearPlacerState,ShootOutputV,ShootOutputCurrent,ShootEncPos,ShootEncVelocity,ShootSpeed,ShootSetpoint,CarouselSetpoint,CarouselCurrent,
0.16240499999999883,0.0,0.0,-1916.0,2.5,277.5,840.0,0.0,0.25,0.771484296,4.884024539506097,0.0,8254.0,7.625,-270.0,-840.0,0.0,0.25,0.48706049700000004,4.9152353536882405,0.0,-422.0,7.125,210.0,840.0,0.0,0.125,3.3251949720000002,4.892093860384623,0.0,8207.0,4.125,-247.5,-840.0,0.0,0.25,1.59912093,4.909521771473354,0.0,0.18000000715255737,0.6100000143051147,-35.869998931884766,0.2938232421875,0.06787109375,0.87445068359375,36.38999938964844,0.0,192.0,-1.1630706787109375,0.0395965576171875,Closing,0.0,0.0,-2.0,0.0,0.0,0.0,0.0,0.0,
0.32562399999999614,0.0,0.0,-1867.0,0.0,360.0,0.0,0.0,0.25,0.79345695,0.01,0.0,8179.0,0.0,-382.5,-0.0,0.0,0.25,0.482177685,0.01,0.0,-360.0,0.375,412.5,0.0,0.0,0.0,3.334960596,0.01,0.0,8140.0,0.125,-337.5,-0.0,0.0,0.25,1.569824058,0.01,0.0,0.1899999976158142,0.7400000095367432,-35.84000015258789,-0.27117919921875,0.101806640625,1.0709228515625,36.38999938964844,0.0,-288.0,-1.1459808349609375,0.061737060546875,Closing,0.0,0.0,-2.0,0.0,0.0,0.0,0.0,0.0,
0.46097999999999595,0.0,0.0,-1810.0,0.0,360.0,0.0,0.0,0.125,0.795898356,0.01,0.0,8134.0,0.0,-337.5,-0.0,0.0,0.25,0.477294873,0.01,0.0,-315.0,0.125,270.0,0.0,0.0,0.0,3.338622705,0.01,0.0,8089.0,0.125,-367.5,-0.0,0.0,0.25,1.573486167,0.01,0.0,0.11999999731779099,-0.14000000059604645,-35.88999938964844,-0.17315673828125,0.02728271484375,1.0025634765625,36.38999938964844,0.0,-152.0,-1.1364898681640625,0.0774383544921875,Closing,0.0,0.0,-2.0,0.0,0.0,0.0,0.0,0.0,
0.5327929999999979,0.0,0.0,-1810.0,0.0,225.0,0.0,0.0,0.25,0.797119059,0.01,0.0,8092.0,0.0,-232.5,-0.0,0.0,0.25,0.47241206100000005,0.01,0.0,-274.0,0.125,225.0,0.0,0.0,0.0,3.333739893,0.01,0.0,8047.0,0.125,-210.0,-0.0,0.0,0.25,1.588134603,0.01,0.0,0.14000000059604645,-1.190000057220459,-35.369998931884766,-0.30718994140625,0.00726318359375,1.40399169921875,36.38999938964844,0.0,-228.0,-1.141571044921875,0.0776214599609375,Closing,0.0,0.0,-2.0,0.0,0.0,0.0,0.0,0.0,
0.6633050000000003,0.0,0.0,-1783.0,0.0,7.5,0.0,0.0,0.125,0.794677653,0.01,0.0,8090.0,0.0,-15.0,-0.0,0.0,0.25,0.482177685,0.01,0.0,-273.0,0.375,0.0,0.0,0.0,0.0,3.334960596,0.01,0.0,8041.0,0.125,-15.0,-0.0,0.0,0.25,1.590576009,0.01,0.0,0.23000000417232513,-1.25,-35.900001525878906,-0.03143310546875,0.00830078125,1.06842041015625,36.36000061035156,0.0,-8.0,-1.14691162109375,0.0746917724609375,Closing,0.0,0.0,-2.0,0.0,0.0,0.0,0.0,0.0,
0.7964340000000011,0.0,0.0,-1784.0,0.0,-7.5,0.0,0.0,0.125,0.794677653,0.01,0.0,8085.0,0.0,-15.0,-0.0,0.0,0.25,0.49194330900000005,0.01,0.0,-273.0,0.375,0.0,0.0,0.0,0.0,3.338622705,0.01,0.0,8039.0,0.375,0.0,-0.0,0.0,0.25,1.595458821,0.01,0.0,0.20999999344348907,-0.8899999856948853,-35.77000045776367,-0.01129150390625,-0.00555419921875,1.0047607421875,36.36000061035156,0.0,8.0,-1.14447021484375,0.0750885009765625,Closing,0.0,0.0,-2.0,0.0,0.0,0.0,0.0,0.0,
0.926288999999997,0.0,0.0,-1784.0,0.0,0.0,0.0,0.0,0.125,0.794677653,0.01,0.0,8085.0,0.0,0.0,-0.0,0.0,0.125,0.49194330900000005,0.01,0.0,-273.0,0.375,0.0,0.0,0.0,0.0,3.333739893,0.01,0.0,8039.0,0.375,-7.5,-0.0,0.0,0.25,1.595458821,0.01,0.0,0.15000000596046448,-0.9700000286102295,-35.68000030517578,-0.02532958984375,0.03289794921875,1.03814697265625,36.36000061035156,0.0,-23.0,-1.1444244384765625,0.0758209228515625,Closing,0.0,0.0,-2.0,0.0,0.0,0.0,0.0,0.0,
0.9775250000000014,0.0,0.0,-1784.0,0.0,0.0,0.0,0.0,0.125,0.797119059,0.01,-0.0012207029999995456,8082.0,0.0,-15.0,-0.0,0.0,0.125,0.49194330900000005,0.01,0.0,-273.0,0.375,0.0,0.0,0.0,0.0,3.334960596,0.01,-0.0012207030000004337,8038.0,0.375,0.0,-0.0,0.0,0.25,1.597900227,0.01,0.0,0.18000000715255737,-0.9800000190734863,-35.72999954223633,-0.0157470703125,-0.02215576171875,1.0408935546875,36.36000061035156,0.0,16.0,-1.14459228515625,0.075958251953125,Closing,0.0,0.0,-2.0,0.0,0.0,0.0,0.0,0.0,
1.0279639999999999,0.0,0.0,-1784.0,0.0,0.0,0.0,0.0,0.125,0.794677653,0.01,0.0012207029999995456,8082.0,0.0,-7.5,-0.0,0.0,0.125,0.49194330900000005,0.01,0.0,-273.0,0.375,0.0,0.0,0.0,0.0,3.334960596,0.01,0.0,8038.0,0.375,0.0,-0.0,0.0,0.25,1.597900227,0.01,0.0,0.12999999523162842,-0.9700000286102295,-35.70000076293945,-0.005615234375,7.9345703125E-4,1.014892578125,36.36000061035156,0.0,10.0,-1.144439697265625,0.075958251953125,Closing,0.0,0.0,-2.0,0.0,0.0,0.0,0.0,0.0,
1.083536,0.0,0.0,-1784.0,0.0,0.0,0.0,0.0,0.125,0.794677653,0.01,-0.0012207029999995456,8082.0,0.0,0.0,-0.0,0.0,0.125,0.49194330900000005,0.01,0.0,-273.0,0.375,0.0,0.0,0.0,0.0,3.339843408,0.01,0.0,8037.0,0.375,0.0,-0.0,0.0,0.25,1.596679524,0.01,0.0,0.18000000715255737,-0.9300000071525574,-35.70000076293945,-0.00384521484375,0.01239013671875,1.01104736328125,36.369998931884766,0.0,4.0,-1.144439697265625,0.0762481689453125,Closing,0.0,0.0,-2.0,0.0,0.0,0.0,0.0,0.0,
1.1467779999999985,0.0,0.0,-1784.0,0.0,0.0,0.0,0.0,0.125,0.794677653,0.01,0.0,8082.0,0.125,0.0,-0.0,0.0,0.125,0.49194330900000005,0.01,0.0012207029999995456,-273.0,0.375,0.0,0.0,0.0,0.0,3.333739893,0.01,0.0012207030000004337,8037.0,0.375,0.0,-0.0,0.0,0.25,1.596679524,0.01,0.0,0.15000000596046448,-0.9100000262260437,-35.709999084472656,-0.01776123046875,-0.00347900390625,1.01715087890625,36.369998931884766,0.0,2.0,-1.144439697265625,0.076263427734375,Closing,0.0,0.0,-2.0,0.0,0.0,0.0,0.0,0.0,
1.214900999999998,0.0,0.0,-1784.0,0.0,0.0,0.0,0.0,0.125,0.794677653,0.01,0.0,8081.0,0.0,0.0,-0.0,0.0,0.125,0.490722606,0.01,-0.0012207029999995456,-273.0,0.5,0.0,0.0,0.0,0.0,3.333739893,0.01,0.0012207029999995456,8037.0,0.375,0.0,-0.0,0.0,0.25,1.596679524,0.01,0.0,0.17000000178813934,-0.9100000262260437,-35.70000076293945,-0.0142822265625,0.02655029296875,1.02252197265625,36.369998931884766,0.0,-12.0,-1.144439697265625,0.0762786865234375,Closing,0.0,0.0,-2.0,0.0,0.0,0.0,0.0,0.0,
1.2784579999999988,0.0,0.0,-1784.0,0.0,0.0,0.0,0.0,0.125,0.795898356,0.01,0.0,8081.0,0.0,0.0,-0.0,0.0,0.125,0.49194330900000005,0.01,0.0,-273.0,0.5,0.0,0.0,0.0,0.0,3.333739893,0.01,-0.0024414059999999793,8037.0,0.375,0.0,-0.0,0.0,0.25,1.597900227,0.01,0.0,0.17000000178813934,-0.8999999761581421,-35.709999084472656,-0.01495361328125,-0.00634765625,1.0185546875,36.369998931884766,0.0,6.0,-1.144439697265625,0.076385498046875,Closing,0.0,0.0,-2.0,0.0,0.0,0.0,0.0,0.0,
1.3398629999999976,0.0,0.0,-1784.0,0.0,0.0,0.0,0.0,0.125,0.794677653,0.01,0.0,8081.0,0.0,0.0,-0.0,0.0,0.125,0.49194330900000005,0.01,0.0,-273.0,0.375,0.0,0.0,0.0,0.0,3.334960596,0.01,0.0024414059999999793,8037.0,0.375,0.0,-0.0,0.0,0.25,1.597900227,0.01,0.0,0.15000000596046448,-0.8999999761581421,-35.70000076293945,-0.01324462890625,0.010986328125,1.02862548828125,36.369998931884766,0.0,-5.0,-1.144439697265625,0.076385498046875,Closing,0.0,0.0,-2.0,0.0,0.0,0.0,0.0,0.0,
1.400260000000002,0.0,0.0,-1784.0,0.0,0.0,0.0,0.0,0.125,0.787353435,0.01,0.0,8081.0,0.0,0.0,-0.0,0.0,0.125,0.49194330900000005,0.01,0.0,-273.0,0.5,0.0,0.0,0.0,0.0,3.334960596,0.01,0.0,8037.0,0.375,0.0,-0.0,0.0,0.25,1.59912093,0.01,0.0,0.1899999976158142,-0.8899999856948853,-35.709999084472656,-0.01544189453125,0.0096435546875,1.0206298828125,36.369998931884766,0.0,-3.0,-1.144439697265625,0.076385498046875,Closing,0.0,0.0,-2.0,0.0,0.0,0.0,0.0,0.0,
1.447175000000003,0.0,0.0,-1784.0,0.0,0.0,0.0,0.0,0.125,0.8056639800000001,0.01,0.0012207029999995456,8081.0,0.125,0.0,-0.0,0.0,0.125,0.495605418,0.01,0.0,-273.0,0.5,0.0,0.0,0.0,0.0,3.333739893,0.01,0.0,8037.0,0.375,0.0,-0.0,0.0,0.25,1.597900227,0.01,0.0,0.17000000178813934,-0.8799999952316284,-35.709999084472656,-0.0106201171875,-0.001708984375,1.02239990234375,36.369998931884766,0.0,7.0,-1.144439697265625,0.076385498046875,Closing,0.0,0.0,-2.0,0.0,0.0,0.0,0.0,0.0,
1.5127109999999957,0.0,0.0,-1784.0,0.0,0.0,0.0,0.0,0.125,0.79345695,0.01,0.0,8081.0,0.0,0.0,-0.0,0.0,0.125,0.49194330900000005,0.01,0.0,-273.0,0.5,0.0,0.0,0.0,0.0,3.333739893,0.01,-0.0024414059999999793,8037.0,0.375,0.0,-0.0,0.0,0.25,1.595458821,0.01,0.0,0.18000000715255737,-0.8600000143051147,-35.709999084472656,-0.01348876953125,0.01513671875,1.0223388671875,36.369998931884766,0.0,-5.0,-1.144439697265625,0.076385498046875,Closing,0.0,0.0,-2.0,0.0,0.0,0.0,0.0,0.0,
1.5626239999999962,0.0,0.0,-1784.0,0.0,0.0,0.0,0.0,0.125,0.794677653,0.01,-0.0012207029999995456,8081.0,0.125,0.0,-0.0,0.0,0.125,0.49194330900000005,0.01,0.0,-273.0,0.5,0.0,0.0,0.0,0.0,3.331298487,0.01,0.0012207030000004337,8037.0,0.375,0.0,-0.0,0.0,0.25,1.597900227,0.01,0.0,0.18000000715255737,-0.8600000143051147,-35.709999084472656,-0.0101318359375,-0.00213623046875,1.01507568359375,36.369998931884766,0.0,7.0,-1.144439697265625,0.076385498046875,Closing,0.0,0.0,-2.0,0.0,0.0,0.0,0.0,0.0,
1.6132779999999984,0.0,0.0,-1784.0,0.0,0.0,0.0,0.0,0.125,0.794677653,0.01,0.0012207029999995456,8081.0,0.125,0.0,-0.0,0.0,0.125,0.49194330900000005,0.01,0.0012207029999995456,-273.0,0.5,0.0,0.0,0.0,0.0,3.333739893,0.01,0.0024414059999999793,8037.0,0.375,0.0,-0.0,0.0,0.25,1.6040037420000002,0.01,0.0,0.1599999964237213,-0.8600000143051147,-35.709999084472656,-0.0146484375,3.0517578125E-4,1.02093505859375,36.380001068115234,0.0,2.0,-1.144439697265625,0.076385498046875,Closing,0.0,0.0,-2.0,0.0,0.0,0.0,0.0,0.0,
1.6715590000000011,0.0,0.0,-1784.0,0.0,0.0,0.0,0.0,0.125,0.794677653,0.01,0.0,8081.0,0.0,0.0,-0.0,0.0,0.125,0.49194330900000005,0.01,-0.0012207029999995456,-273.0,0.5,0.0,0.0,0.0,0.0,3.334960596,0.01,0.0,8037.0,0.375,0.0,-0.0,0.0,0.25,1.596679524,0.01,0.0,0.18000000715255737,-0.8500000238418579,-35.709999084472656,-0.01409912109375,0.00225830078125,1.01947021484375,36.380001068115234,0.0,1.0,-1.144439697265625,0.076385498046875,Closing,0.0,0.0,-2.0,0.0,0.0,0.0,0.0,0.0,
1.731847999999998,0.0,0.0,-1784.0,0.0,0.0,0.0,0.0,0.125,0.794677653,0.01,0.0,8081.0,0.0,0.0,-0.0,0.0,0.125,0.49194330900000005,0.01,0.0,-273.0,0.5,0.0,0.0,0.0,0.0,3.333739893,0.01,-0.0012207030000004337,8037.0,0.375,0.0,-0.0,0.0,0.25,1.595458821,0.01,0.0,0.18000000715255737,-0.8500000238418579,-35.709999084472656,-0.0120849609375,-0.0050048828125,1.01220703125,36.380001068115234,0.0,7.0,-1.144439697265625,0.076385498046875,Closing,0.0,0.0,-2.0,0.0,0.0,0.0,0.0,0.0,
1.7750380000000006,0.0,0.0,-1784.0,0.0,0.0,0.0,0.0,0.125,0.79345695,0.01,-0.0012207029999995456,8081.0,0.0,0.0,-0.0,0.0,0.125,0.49194330900000005,0.01,0.0,-273.0,0.5,0.0,0.0,0.0,0.0,3.339843408,0.01,0.0024414059999999793,8037.0,0.375,0.0,-0.0,0.0,0.25,1.596679524,0.01,0.0,0.17000000178813934,-0.8399999737739563,-35.709999084472656,-0.00970458984375,0.00836181640625,1.0184326171875,36.380001068115234,0.0,1.0,-1.144439697265625,0.076385498046875,Closing,0.0,0.0,-2.0,0.0,0.0,0.0,0.0,0.0,
1.8282640000000028,0.0,0.0,-1784.0,0.0,0.0,0.0,0.0,0.125,0.794677653,0.01,0.0,8081.0,0.0,0.0,-0.0,0.0,0.125,0.49194330900000005,0.01,0.0012207029999995456,-273.0,0.5,0.0,0.0,0.0,0.0,3.339843408,0.01,-0.0012207029999995456,8037.0,0.125,0.0,-0.0,0.0,0.25,1.596679524,0.01,0.0,0.18000000715255737,-0.8299999833106995,-35.720001220703125,-0.01641845703125,-1.8310546875E-4,1.01812744140625,36.380001068115234,0.0,0.0,-1.144439697265625,0.076385498046875,Closing,0.0,0.0,-2.0,0.0,0.0,0.0,0.0,0.0,
1.890387999999999,0.0,0.0,-1784.0,0.0,0.0,0.0,0.0,0.125,0.794677653,0.01,0.0,8081.0,0.0,0.0,-0.0,0.0,0.125,0.49194330900000005,0.01,-0.0012207029999995456,-273.0,0.5,0.0,0.0,0.0,0.0,3.338622705,0.01,-0.0012207030000004337,8037.0,0.375,0.0,-0.0,0.0,0.25,1.597900227,0.01,0.0,0.18000000715255737,-0.8299999833106995,-35.720001220703125,-0.0115966796875,0.00115966796875,1.01812744140625,36.380001068115234,0.0,3.0,-1.144439697265625,0.076385498046875,Closing,0.0,0.0,-2.0,0.0,0.0,0.0,0.0,0.0,
1.9458479999999982,0.0,0.0,-1784.0,0.0,0.0,0.0,0.0,0.125,0.795898356,0.01,0.0012207029999995456,8081.0,0.0,0.0,-0.0,0.0,0.125,0.49194330900000005,0.01,0.0,-273.0,0.5,0.0,0.0,0.0,0.0,3.333739893,0.01,0.0,8037.0,0.375,0.0,-0.0,0.0,0.25,1.597900227,0.01,0.0,0.1899999976158142,-0.8299999833106995,-35.720001220703125,-0.01434326171875,0.00518798828125,1.02032470703125,36.380001068115234,0.0,0.0,-1.144439697265625,0.076385498046875,Closing,0.0,0.0,-2.0,0.0,0.0,0.0,0.0,0.0,
2.021983,0.0,0.0,-1784.0,0.0,0.0,0.0,0.0,0.125,0.794677653,0.01,0.0,8081.0,0.0,0.0,-0.0,0.0,0.125,0.49194330900000005,0.01,0.0,-273.0,0.5,0.0,0.0,0.0,0.0,3.339843408,0.01,0.0,8037.0,0.375,0.0,-0.0,0.0,0.25,1.596679524,0.01,0.0,0.18000000715255737,-0.8299999833106995,-35.720001220703125,-0.01080322265625,2.44140625E-4,1.01605224609375,36.380001068115234,0.0,4.0,-1.144439697265625,0.076385498046875,Closing,0.0,0.0,-2.0,0.0,0.0,0.0,0.0,0.0,
2.0962189999999974,0.0,0.0,-1784.0,0.0,0.0,0.0,0.0,0.125,0.794677653,0.01,-0.0012207029999995456,8081.0,0.0,0.0,-0.0,0.0,0.125,0.49194330900000005,0.01,0.0,-273.0,0.5,0.0,0.0,0.0,0.0,3.334960596,0.01,0.0012207030000004337,8037.0,0.375,0.0,-0.0,0.0,0.25,1.595458821,0.01,0.0012207030000004337,0.1899999976158142,-0.8199999928474426,-35.720001220703125,-0.01251220703125,0.0067138671875,1.01953125,36.380001068115234,0.0,0.0,-1.144439697265625,0.076385498046875,Closing,0.0,0.0,-2.0,0.0,0.0,0.0,0.0,0.0,
2.1529950000000024,0.0,0.0,-1784.0,0.125,0.0,0.0,0.0,0.125,0.794677653,0.01,0.0,8081.0,0.0,0.0,-0.0,0.0,0.125,0.5041503390000001,0.01,0.0012207029999995456,-273.0,0.5,0.0,0.0,0.0,0.0,3.334960596,0.01,0.0,8037.0,0.375,0.0,-0.0,0.0,0.25,1.597900227,0.01,0.0,0.18000000715255737,-0.8199999928474426,-35.720001220703125,-0.015869140625,0.0013427734375,1.0234375,36.380001068115234,0.0,0.0,-1.144439697265625,0.076385498046875,Closing,0.0,0.0,-2.0,0.0,0.0,0.0,0.0,0.0,
2.223264000000003,0.0,0.0,-1784.0,0.125,0.0,0.0,0.0,0.125,0.794677653,0.01,0.0,8081.0,0.0,0.0,-0.0,0.0,0.125,0.49194330900000005,0.01,0.0,-273.0,0.5,0.0,0.0,0.0,0.0,3.333739893,0.01,0.0,8037.0,0.375,0.0,-0.0,0.0,0.25,1.596679524,0.01,0.0,0.18000000715255737,-0.8199999928474426,-35.720001220703125,-0.00848388671875,0.00311279296875,1.02325439453125,36.380001068115234,0.0,5.0,-1.144439697265625,0.076385498046875,Closing,0.0,0.0,-2.0,0.0,0.0,0.0,0.0,0.0,
2.273873999999996,0.0,0.0,-1784.0,0.125,0.0,0.0,0.0,0.125,0.794677653,0.01,0.0,8081.0,0.0,0.0,-0.0,0.0,0.125,0.49194330900000005,0.01,0.0,-273.0,0.375,0.0,0.0,0.0,0.0,3.334960596,0.01,0.0,8037.0,0.375,0.0,-0.0,0.0,0.25,1.596679524,0.01,0.0,0.1899999976158142,-0.8100000023841858,-35.720001220703125,-0.01055908203125,0.00164794921875,1.02362060546875,36.380001068115234,0.0,4.0,-1.144439697265625,0.076385498046875,Closing,0.0,0.0,-2.0,0.0,0.0,0.0,0.0,0.0,
2.3449089999999995,0.0,0.0,-1784.0,0.0,0.0,0.0,0.0,0.125,0.794677653,0.01,0.0,8081.0,0.0,0.0,-0.0,0.0,0.125,0.49194330900000005,0.01,0.0,-273.0,0.5,0.0,0.0,0.0,0.0,3.333739893,0.01,0.0012207030000004337,8037.0,0.375,0.0,-0.0,0.0,0.25,1.596679524,0.01,0.0,0.18000000715255737,-0.8100000023841858,-35.720001220703125,-0.0106201171875,0.0048828125,1.022216796875,36.380001068115234,0.0,2.0,-1.144439697265625,0.076385498046875,Closing,0.0,0.0,-2.0,0.0,0.0,0.0,0.0,0.0,
2.4030720000000003,0.0,0.0,-1784.0,0.0,0.0,0.0,0.0,0.125,0.794677653,0.01,0.0,8081.0,0.0,0.0,-0.0,0.0,0.125,0.49194330900000005,0.01,0.0012207029999995456,-273.0,0.5,0.0,0.0,0.0,0.0,3.339843408,0.01,-0.0024414059999999793,8037.0,0.375,0.0,-0.0,0.0,0.25,1.597900227,0.01,0.0,0.1899999976158142,-0.800000011920929,-35.720001220703125,-0.0128173828125,0.00311279296875,1.02349853515625,36.380001068115234,0.0,1.0,-1.144439697265625,0.076385498046875,Closing,0.0,0.0,-2.0,0.0,0.0,0.0,0.0,0.0,
2.4521429999999964,0.0,0.0,-1784.0,0.0,0.0,0.0,0.0,0.125,0.794677653,0.01,0.0,8081.0,0.0,0.0,-0.0,0.0,0.125,0.49194330900000005,0.01,-0.0012207029999995456,-273.0,0.5,0.0,0.0,0.0,0.0,3.336181299,0.01,0.0024414059999999793,8037.0,0.375,0.0,-0.0,0.0,0.25,1.597900227,0.01,0.0,0.18000000715255737,-0.800000011920929,-35.720001220703125,-0.01361083984375,0.0035400390625,1.01397705078125,36.380001068115234,0.0,0.0,-1.144439697265625,0.076385498046875,Closing,0.0,0.0,-2.0,0.0,0.0,0.0,0.0,0.0,
2.503728000000003,0.0,0.0,-1784.0,0.0,0.0,0.0,0.0,0.125,0.794677653,0.01,0.0,8081.0,0.0,0.0,-0.0,0.0,0.125,0.49194330900000005,0.01,0.0,-273.0,0.5,0.0,0.0,0.0,0.0,3.338622705,0.01,0.0012207029999995456,8037.0,0.375,0.0,-0.0,0.0,0.25,1.596679524,0.01,0.0,0.18000000715255737,-0.7900000214576721,-35.720001220703125,-0.01287841796875,0.00482177734375,1.01824951171875,36.380001068115234,0.0,0.0,-1.144439697265625,0.076385498046875,Closing,0.0,0.0,-2.0,0.0,0.0,0.0,0.0,0.0,
2.5577099999999993,0.0,0.0,-1784.0,0.0,0.0,-317.4803137779236,0.0,0.125,0.794677653,4.932250999999998,0.0,8081.0,0.0,0.0,317.4803137779236,0.0,0.125,0.49194330900000005,4.963769999999998,0.0,-273.0,0.125,0.0,-317.4803137779236,0.0,0.0,3.338622705,0.01,0.0,8037.0,0.125,0.0,317.4803137779236,0.0,0.25,1.596679524,0.01,0.0,0.18000000715255737,-0.7900000214576721,-35.720001220703125,-0.0164794921875,0.0020751953125,1.01519775390625,36.380001068115234,0.0,-1.0,-1.144439697265625,0.076385498046875,Closing,0.0,0.0,-2.0,0.0,0.0,0.0,0.0,0.0,
2.6212339999999967,0.0,0.0,-1788.0,0.125,-45.0,-476.2204706668854,0.0,0.125,0.7922362470000001,4.932250999999998,0.0,8081.0,0.375,22.5,476.2204706668854,0.0,0.125,0.49194330900000005,4.963769999999998,0.0,-273.0,0.125,0.0,-476.2204706668854,0.0,0.0,3.339843408,0.01,0.0,8041.0,0.375,0.0,476.2204706668854,0.0,0.25,1.597900227,0.01,0.0,0.1899999976158142,-0.800000011920929,-35.72999954223633,-0.02630615234375,-0.00506591796875,1.03387451171875,36.400001525878906,0.0,-4.0,-1.144439697265625,0.076385498046875,Closing,0.0,0.0,-2.0,0.0,0.0,0.0,0.0,0.0,
2.6854660000000004,0.0,0.0,-1788.0,0.75,-142.5,-476.2204706668854,0.0,0.125,0.794677653,4.932250999999998,0.0,8101.0,0.75,142.5,476.2204706668854,0.0,0.125,0.489501903,4.963769999999998,0.0,-277.0,0.125,-30.0,-476.2204706668854,0.0,0.0,3.334960596,0.01,0.0,8041.0,0.375,37.5,476.2204706668854,0.0,0.25,1.6088865540000001,0.01,0.0,0.2199999988079071,-0.9200000166893005,-35.720001220703125,-0.103759765625,-0.07196044921875,0.96954345703125,36.400001525878906,0.0,-27.0,-1.14483642578125,0.0762176513671875,Closing,0.0,0.0,-2.0,0.0,0.0,0.0,0.0,0.0,
2.748705000000002,0.0,0.0,-1809.0,1.375,-105.0,-654.8031377792358,0.0,0.125,0.795898356,4.932250999999998,0.0,8101.0,2.0,165.0,654.8031377792358,0.0,0.125,0.482177685,4.963769999999998,0.0,-277.0,0.875,-120.0,-654.8031377792358,0.0,0.0,3.353271141,0.01,0.0,8048.0,0.875,37.5,654.8031377792358,0.0,0.25,1.596679524,0.01,0.0,0.1899999976158142,-1.1100000143051147,-35.70000076293945,-0.1298828125,0.01080322265625,1.0179443359375,36.400001525878906,0.0,-93.0,-1.146636962890625,0.075286865234375,Closing,0.0,0.0,-2.0,0.0,0.0,0.0,0.0,0.0,
2.8132379999999975,0.0,0.0,-1809.0,2.875,-82.5,-793.700784444809,0.0,0.125,0.794677653,4.932250999999998,0.0,8120.0,3.75,112.5,793.700784444809,0.0,0.125,0.48095698200000003,4.963769999999998,0.0,-301.0,1.625,-150.0,-793.700784444809,0.0,0.0,3.355712547,0.01,0.017089841999999855,8048.0,1.875,67.5,793.700784444809,0.0,0.25,1.59912093,0.01,0.0,0.2199999988079071,-1.3700000047683716,-35.66999816894531,-0.06610107421875,-0.025390625,1.00396728515625,36.400001525878906,0.0,-17.0,-1.149169921875,0.0739593505859375,Closing,0.0,0.0,-2.0,0.0,0.0,0.0,0.0,0.0,
2.852955000000002,0.0,0.0,-1833.0,4.625,-142.5,-793.700784444809,0.0,0.125,0.794677653,4.932250999999998,0.0,8120.0,7.125,180.0,793.700784444809,0.0,0.125,0.482177685,4.963769999999998,0.0,-301.0,2.5,-150.0,-793.700784444809,0.0,0.0,3.358153953,0.01,0.0,8048.0,2.5,300.0,793.700784444809,0.0,0.25,1.597900227,0.01,0.0,0.18000000715255737,-1.7200000286102295,-35.77000045776367,-0.2445068359375,0.0792236328125,0.96337890625,36.400001525878906,0.0,-219.0,-1.1532440185546875,0.07171630859375,Closing,0.0,0.0,-2.0,0.0,0.0,0.0,0.0,0.0,
2.983392,0.0,0.0,-1900.0,4.625,-427.5,-793.700784444809,0.0,0.125,0.794677653,4.932250999999998,0.0,8172.0,6.625,457.5,793.700784444809,0.0,0.125,0.482177685,4.963769999999998,0.0,-339.0,3.0,-382.5,-793.700784444809,0.0,0.0,3.359374656,0.01,0.0,8108.0,2.625,435.0,793.700784444809,0.0,0.25,1.597900227,0.01,0.0,0.27000001072883606,-2.619999885559082,-35.68000030517578,-0.1573486328125,0.05322265625,0.94610595703125,36.400001525878906,0.0,-120.0,-1.1775054931640625,0.059844970703125,Closing,0.0,0.0,-2.0,0.0,0.0,0.0,0.0,0.0,
3.045360999999997,0.0,0.0,-1900.0,3.625,-562.5,-813.5432946681976,0.0,0.125,0.79345695,4.932250999999998,0.0,8265.0,5.5,600.0,813.5432946681976,0.0,0.125,0.483398388,4.963769999999998,0.0,-418.0,2.875,-510.0,-813.5432946681976,0.0,0.0,3.3642574680000004,0.01,0.0,8188.0,2.25,562.5,813.5432946681976,0.0,0.25,1.600341633,0.01,0.0,0.28999999165534973,-2.819999933242798,-35.68000030517578,-0.1724853515625,0.05645751953125,0.97430419921875,36.400001525878906,0.0,-130.0,-1.1918182373046875,0.05303955078125,Closing,0.0,0.0,-2.0,0.0,0.0,0.0,0.0,0.0,
3.098885000000002,0.0,0.0,-2004.0,3.125,-660.0,-813.5432946681976,0.0,0.125,0.794677653,4.932250999999998,0.0,8265.0,4.75,705.0,813.5432946681976,0.0,0.125,0.477294873,4.963769999999998,0.0,-418.0,2.375,-637.5,-813.5432946681976,0.0,0.0,3.355712547,0.01,0.0,8188.0,2.25,622.5,813.5432946681976,0.0,0.25,1.596679524,0.01,0.0,0.33000001311302185,-3.009999990463257,-35.63999938964844,-0.06158447265625,-0.1064453125,1.04119873046875,36.400001525878906,0.0,60.0,-1.20733642578125,0.045989990234375,Closing,0.0,0.0,-2.0,0.0,0.0,0.0,0.0,0.0,
3.1546180000000024,0.0,0.0,-2004.0,2.625,-727.5,-813.5432946681976,0.0,0.125,0.79345695,4.932250999999998,0.0,8386.0,3.625,750.0,813.5432946681976,0.0,0.25,0.477294873,4.963769999999998,0.0,-532.0,1.75,-720.0,-813.5432946681976,0.0,0.0,3.358153953,0.01,0.0,8294.0,1.875,675.0,813.5432946681976,0.0,0.25,1.597900227,0.01,0.0,0.4000000059604645,-3.0399999618530273,-35.599998474121094,-4.8828125E-4,-0.00750732421875,1.10540771484375,36.400001525878906,0.0,56.0,-1.22283935546875,0.038177490234375,Closing,0.0,0.0,-2.0,0.0,0.0,0.0,0.0,0.0,
3.262449999999997,0.0,0.0,-2126.0,2.25,-772.5,-813.5432946681976,0.0,0.125,0.794677653,4.932250999999998,0.0,8517.0,2.75,810.0,813.5432946681976,0.0,0.25,0.47241206100000005,4.963769999999998,0.0,-657.0,1.0,-772.5,-813.5432946681976,0.0,0.0,3.353271141,0.01,0.0,8413.0,2.0,727.5,813.5432946681976,0.0,0.25,1.596679524,0.01,0.0,0.4699999988079071,-2.9700000286102295,-35.599998474121094,-0.01580810546875,-0.0257568359375,1.01287841796875,36.400001525878906,0.0,49.0,-1.2461395263671875,0.0263671875,Closing,0.0,0.0,-2.0,0.0,0.0,0.0,0.0,0.0,
3.3944799999999957,0.0,0.0,-2252.0,2.0,-795.0,-813.5432946681976,0.0,0.125,0.8044432770000001,4.932250999999998,0.0,8653.0,2.25,840.0,813.5432946681976,0.0,0.25,0.471191358,4.963769999999998,0.0,-787.0,0.875,-795.0,-813.5432946681976,0.0,0.0,3.345946923,0.01,0.0,8539.0,1.5,795.0,813.5432946681976,0.0,0.25,1.597900227,0.01,0.0,0.5199999809265137,-2.7899999618530273,-35.689998626708984,0.02911376953125,0.0233154296875,0.862548828125,36.400001525878906,0.0,48.0,-1.2784576416015625,0.0264892578125,Closing,0.0,0.0,-2.0,0.0,0.0,0.0,0.0,0.0,
3.528322,0.0,0.0,-2383.0,1.375,-832.5,-813.5432946681976,0.0,0.125,0.79345695,4.932250999999998,0.0,8786.0,2.0,832.5,813.5432946681976,0.0,0.25,0.47241206100000005,4.963769999999998,0.0,-917.0,0.875,-810.0,-813.5432946681976,0.0,0.0,3.339843408,0.01,0.0,8663.0,1.875,765.0,813.5432946681976,0.0,0.25,1.597900227,0.01,0.0,0.550000011920929,-2.6600000858306885,-35.689998626708984,-0.033447265625,0.031494140625,1.14501953125,36.400001525878906,0.0,4.0,-1.3038482666015625,0.0273895263671875,Closing,0.0,0.0,-2.0,0.0,0.0,0.0,0.0,0.0,
3.6570329999999958,0.0,0.0,-2517.0,1.625,-840.0,-853.2283151149749,0.0,0.125,0.79345695,4.932250999999998,0.0,8922.0,2.125,847.5,853.2283151149749,0.0,0.25,0.47241206100000005,4.963769999999998,0.0,-1052.0,0.875,-840.0,-853.2283151149749,0.0,0.0,3.338622705,0.01,0.0,8796.0,1.875,832.5,853.2283151149749,0.0,0.25,1.596679524,0.01,0.0,0.5699999928474426,-2.680000066757202,-35.61000061035156,-0.12921142578125,0.00726318359375,1.25848388671875,36.34000015258789,0.0,-53.0,-1.3170928955078125,0.0273590087890625,Closing,0.0,0.0,-2.0,0.0,0.0,0.0,0.0,0.0,
3.7934590000000026,0.0,0.0,-2788.0,1.625,-847.5,-853.2283151149749,0.0,0.125,0.79345695,4.932250999999998,0.0,9058.0,2.125,847.5,853.2283151149749,0.0,0.25,0.47241206100000005,4.963769999999998,0.0,-1188.0,0.625,-847.5,-853.2283151149749,0.0,0.0,3.343505517,0.01,0.0,8924.0,2.375,787.5,853.2283151149749,0.0,0.25,1.596679524,0.01,0.0,0.5899999737739563,-2.4600000381469727,-35.459999084472656,0.0533447265625,0.00299072265625,0.9879150390625,36.34000015258789,0.0,82.0,-1.3130340576171875,0.0264739990234375,Closing,0.0,0.0,-2.0,0.0,0.0,0.0,0.0,0.0,
3.927228999999999,0.0,0.0,-2920.0,1.875,-825.0,-853.2283151149749,0.0,0.125,0.794677653,4.932250999999998,0.0,9197.0,2.0,870.0,853.2283151149749,0.0,0.25,0.46752924900000004,4.963769999999998,0.0,-1325.0,0.625,-847.5,-853.2283151149749,0.0,0.0,3.34472622,0.01,0.0,9049.0,2.375,787.5,853.2283151149749,0.0,0.25,1.597900227,0.01,0.0,0.5299999713897705,-2.359999895095825,-35.43000030517578,0.02978515625,-0.00897216796875,0.8541259765625,36.34000015258789,0.0,62.0,-1.3059234619140625,0.0266265869140625,Closing,0.0,0.0,-2.0,0.0,0.0,0.0,0.0,0.0,
4.057686000000001,0.0,0.0,-3055.0,2.0,-832.5,-853.2283151149749,0.0,0.125,0.79345695,4.932250999999998,0.0,9336.0,1.75,862.5,853.2283151149749,0.0,0.25,0.477294873,4.963769999999998,0.0,-1461.0,0.625,-855.0,-853.2283151149749,0.0,0.0,3.34472622,0.01,0.0,9180.0,2.25,817.5,853.2283151149749,0.0,0.25,1.596679524,0.01,0.0,0.5099999904632568,-2.2300000190734863,-35.41999816894531,-0.09881591796875,-0.01373291015625,1.045166015625,36.34000015258789,0.0,-33.0,-1.2940216064453125,0.025360107421875,Closing,0.0,0.0,-2.0,0.0,0.0,0.0,0.0,0.0,
4.183169999999998,0.0,0.0,-3194.0,2.25,-862.5,-873.0709004402161,0.0,0.125,0.79345695,4.932250999999998,0.0,9475.0,2.0,862.5,873.0709004402161,0.0,0.25,0.482177685,4.963769999999998,0.0,-1599.0,0.875,-855.0,-873.0709004402161,0.0,0.0,3.338622705,0.01,0.0,9312.0,2.625,832.5,873.0709004402161,0.0,0.25,1.596679524,0.01,0.0,0.5299999713897705,-2.109999895095825,-35.189998626708984,-0.05938720703125,0.00311279296875,1.05029296875,36.29999923706055,0.0,-12.0,-1.287811279296875,0.0244293212890625,Closing,0.0,0.0,-2.0,0.0,0.0,0.0,0.0,0.0,
4.329377,0.0,0.0,-3331.0,2.0,-862.5,-873.0709004402161,0.0,0.125,0.794677653,4.932250999999998,0.0,9612.0,2.25,847.5,873.0709004402161,0.0,0.125,0.477294873,4.963769999999998,0.0,-1736.0,0.875,-862.5,-873.0709004402161,0.0,0.0,3.339843408,0.01,0.0,9584.0,2.625,870.0,873.0709004402161,0.0,0.25,1.59912093,0.01,0.0,0.6200000047683716,-2.049999952316284,-35.130001068115234,-0.1302490234375,-0.03839111328125,0.9071044921875,36.29999923706055,0.0,-52.0,-1.2873382568359375,0.02490234375,Closing,0.0,0.0,-2.0,0.0,0.0,0.0,0.0,0.0,
4.458053999999996,0.0,0.0,-3471.0,1.875,-877.5,-873.0709004402161,0.0,0.125,0.783691326,4.932250999999998,0.0,9883.0,2.5,840.0,873.0709004402161,0.0,0.25,0.47241206100000005,4.963769999999998,0.0,-2016.0,0.625,-877.5,-873.0709004402161,0.0,0.0,3.337402002,0.01,0.0,9722.0,2.625,855.0,873.0709004402161,0.0,0.25,1.597900227,0.01,0.0,0.6100000143051147,-1.940000057220459,-35.11000061035156,-0.0401611328125,-0.0389404296875,1.010986328125,36.29999923706055,0.0,23.0,-1.2863922119140625,0.0249176025390625,Closing,0.0,0.0,-2.0,0.0,0.0,0.0,0.0,0.0,
4.593591,0.0,0.0,-3615.0,1.375,-900.0,-873.0709004402161,0.0,0.125,0.794677653,4.932250999999998,0.0,10023.0,2.375,862.5,873.0709004402161,0.0,0.25,0.462646437,4.963769999999998,0.0,-2158.0,0.625,-885.0,-873.0709004402161,0.0,0.0,3.333739893,0.01,0.0,9865.0,2.25,877.5,873.0709004402161,0.0,0.25,1.597900227,0.01,0.0,0.6600000262260437,-1.809999942779541,-35.15999984741211,-0.0662841796875,0.03753662109375,1.42041015625,36.29999923706055,0.0,-29.0,-1.2828826904296875,0.025848388671875,Closing,0.0,0.0,-2.0,0.0,0.0,0.0,0.0,0.0,
4.7264250000000025,0.0,0.0,-3760.0,1.25,-900.0,-873.0709004402161,0.0,0.125,0.79345695,4.932250999999998,0.0,10166.0,2.25,877.5,873.0709004402161,0.0,0.25,0.462646437,4.963769999999998,0.0,-2298.0,0.625,-870.0,-873.0709004402161,0.0,0.0,3.333739893,0.01,0.0,10005.0,2.375,877.5,873.0709004402161,0.0,0.25,1.596679524,0.01,0.0,0.5299999713897705,-1.7000000476837158,-35.31999969482422,-0.09747314453125,-0.044921875,0.9130859375,36.33000183105469,0.0,-26.0,-1.2778778076171875,0.0269622802734375,Closing,0.0,0.0,-2.0,0.0,0.0,0.0,0.0,0.0,
4.861006999999998,0.0,0.0,-3904.0,1.25,-892.5,-873.0709004402161,0.0,0.125,0.794677653,4.932250999999998,0.0,10309.0,2.0,900.0,873.0709004402161,0.0,0.25,0.46142573400000003,4.963769999999998,0.0,-2437.0,0.625,-870.0,-873.0709004402161,0.0,0.0,3.334960596,0.01,0.0,10145.0,2.25,862.5,873.0709004402161,0.0,0.25,1.593017415,0.01,0.0,0.5699999928474426,-1.4900000095367432,-35.47999954223633,-0.0750732421875,-0.139404296875,0.9376220703125,36.33000183105469,0.0,45.0,-1.2765045166015625,0.027923583984375,Closing,0.0,0.0,-2.0,0.0,0.0,0.0,0.0,0.0,
4.993032999999996,0.0,0.0,-4191.0,1.0,-892.5,-873.0709004402161,0.0,0.125,0.794677653,4.932250999999998,0.0,10452.0,1.75,892.5,873.0709004402161,0.0,0.25,0.469970655,4.963769999999998,0.0,-2577.0,0.625,-877.5,-873.0709004402161,0.0,0.0,3.328857081,0.01,0.0,10287.0,2.375,877.5,873.0709004402161,0.0,0.25,1.596679524,0.01,0.0,0.5299999713897705,-1.3200000524520874,-35.47999954223633,0.02264404296875,0.00103759765625,1.09136962890625,36.33000183105469,0.0,44.0,-1.27490234375,0.0315093994140625,Closing,0.0,0.0,-2.0,0.0,0.0,0.0,0.0,0.0,
5.128900999999998,0.0,0.0,-4336.0,2.5,-900.0,-991.5049948903305,0.0,0.25,0.8276366340000001,0.07605933892685394,0.0,10592.0,1.0,847.5,765.3218750392879,0.0,0.25,0.5541991620000001,0.09927357061266368,0.0,-2718.0,1.875,-892.5,-991.5049948903305,0.0,0.125,3.333739893,4.8642149968373,0.0,10425.0,1.625,825.0,765.3218750392879,0.0,0.25,1.563720543,4.8588418272608145,0.0,0.4300000071525574,-1.2799999713897705,-35.31999969482422,-0.04754638671875,-0.08837890625,0.9923095703125,36.33000183105469,0.0,34.0,-1.2718353271484375,0.03662109375,Closing,0.0,0.0,-2.0,0.0,0.0,0.0,0.0,0.0,
5.261243999999999,0.0,0.0,-4496.0,4.375,-1012.5,-1262.82902868293,0.0,0.375,0.9362792010000001,0.18726900379160344,0.0,10722.0,0.5,742.5,598.7418917691522,0.0,0.75,0.772704999,0.4121889608471225,0.0,-2867.0,4.0,-975.0,-1262.82902868293,0.0,0.25,3.251952792,4.7528215928321496,0.0,10559.0,1.5,652.5,598.7418917691522,0.0,0.875,1.433105322,4.546290177046875,0.0,0.23999999463558197,-1.3300000429153442,-34.02000045776367,0.00408935546875,-0.12744140625,0.908203125,36.29999923706055,0.0,94.0,-1.266204833984375,0.039642333984375,Closing,0.0,0.0,-2.0,0.0,0.0,0.0,0.0,0.0,
5.393347000000001,0.0,0.0,-4678.0,0.375,-1132.5,-873.0709004402161,0.0,0.375,0.9997557570000001,4.932250999999998,0.0,10826.0,2.25,750.0,873.0709004402161,0.0,1.125,0.89111319,4.963769999999998,0.0,-3038.0,0.625,-1087.5,-873.0709004402161,0.0,0.25,3.183593424,0.01,0.0,10663.0,3.125,735.0,873.0709004402161,0.0,0.75,1.262206902,0.01,0.0,0.28999999165534973,-1.2599999904632568,-28.790000915527344,0.0244140625,0.1854248046875,0.94476318359375,36.29999923706055,0.0,-47.0,-1.2529144287109375,0.041046142578125,Closing,0.0,0.0,-2.0,0.0,0.0,0.0,0.0,0.0,
5.528544000000002,0.0,0.0,-4849.0,0.125,-1050.0,-873.0709004402161,0.0,0.375,0.850829991,4.932250999999998,0.0,10950.0,4.75,645.0,873.0709004402161,0.0,0.25,0.599365173,4.963769999999998,0.0,-3201.0,0.375,-1012.5,-873.0709004402161,0.0,0.125,3.305663724,0.01,0.0,10873.0,4.75,577.5,873.0709004402161,0.0,0.625,1.545409998,0.01,0.0,0.6899999976158142,-1.1699999570846558,-24.350000381469727,-0.0767822265625,0.23370361328125,1.05316162109375,36.29999923706055,0.0,-141.0,-1.24041748046875,0.04998779296875,Closing,0.0,0.0,-2.0,0.0,0.0,0.0,0.0,0.0,
5.660576999999997,0.0,0.0,-5000.0,0.0,-802.5,-535.7480388879776,0.0,0.25,0.7897948410000001,4.932250999999998,0.0,11179.0,0.625,750.0,535.7480388879776,0.0,0.25,0.39550777200000004,4.963769999999998,0.0,-3503.0,0.125,-922.5,-535.7480388879776,0.0,0.0,3.358153953,0.01,0.0,10997.0,1.875,772.5,535.7480388879776,0.0,0.25,1.723632636,0.01,0.0,0.9200000166893005,-0.7799999713897705,-23.770000457763672,0.20721435546875,-0.05572509765625,1.00830078125,36.29999923706055,0.0,231.0,-1.22662353515625,0.06219482421875,Closing,0.0,0.0,-2.0,0.0,0.0,0.0,0.0,0.0,
5.791453999999998,0.0,0.0,-5106.0,0.0,-532.5,0.0,0.0,0.125,0.7897948410000001,4.932250999999998,0.0,11282.0,0.0,645.0,0.0,0.0,0.25,0.36254879100000004,4.963769999999998,0.0,-3582.0,0.0,-532.5,0.0,0.0,0.0,3.3789059040000002,0.01,0.0,11092.0,0.0,600.0,0.0,0.0,0.25,1.693115061,0.01,0.0,0.7099999785423279,0.14000000059604645,-25.520000457763672,0.0765380859375,-0.1141357421875,1.01177978515625,36.33000183105469,0.0,121.0,-1.200408935546875,0.0657196044921875,Closing,0.0,0.0,-2.0,0.0,0.0,0.0,0.0,0.0,
5.930608,0.0,0.0,-5172.0,0.0,-315.0,0.0,0.0,0.125,0.7897948410000001,4.932250999999998,0.0,11345.0,0.0,382.5,0.0,0.0,0.25,0.46752924900000004,4.963769999999998,0.0,-3629.0,0.0,-285.0,0.0,0.0,0.125,3.3776852010000002,0.01,0.0,11165.0,0.0,360.0,0.0,0.0,0.25,1.619872881,0.01,0.0,0.550000011920929,1.0299999713897705,-26.3799991607666,0.15277099609375,-0.03326416015625,0.9451904296875,36.33000183105469,0.0,140.0,-1.1524658203125,0.07379150390625,Closing,0.0,0.0,-2.0,0.0,0.0,0.0,0.0,0.0,
6.057972000000001,0.0,0.0,-5210.0,0.0,-105.0,0.0,0.0,0.125,0.7897948410000001,4.932250999999998,0.0,11368.0,0.0,120.0,0.0,0.0,0.125,0.5541991620000001,4.963769999999998,0.0,-3652.0,0.0,-127.5,0.0,0.0,0.125,3.3728023890000003,0.01,0.0,11193.0,0.0,105.0,0.0,0.0,0.125,1.6113279600000001,0.01,0.0,0.5,1.5,-26.350000381469727,0.08001708984375,7.32421875E-4,0.990478515625,36.33000183105469,0.0,51.0,-1.102752685546875,0.0826873779296875,Closing,0.0,0.0,-2.0,0.0,0.0,0.0,0.0,0.0,
6.1940930000000005,0.0,0.0,-5220.0,0.0,0.0,0.0,0.0,0.125,0.7885741380000001,4.932250999999998,0.0,11369.0,0.0,0.0,0.0,0.0,0.25,0.545654241,4.963769999999998,0.0,-3656.0,0.0,-7.5,0.0,0.0,0.0,3.3728023890000003,0.01,0.0,11194.0,0.0,0.0,0.0,0.0,0.25,1.6113279600000001,0.01,0.0,0.5,1.409999966621399,-26.3799991607666,-0.0216064453125,0.00396728515625,1.01947021484375,36.33000183105469,0.0,-39.0,-1.0966949462890625,0.082672119140625,Closing,0.0,0.0,-2.0,0.0,0.0,0.0,0.0,0.0,
6.331031000000003,0.0,0.0,-5220.0,0.0,0.0,0.0,0.0,0.125,0.7910155440000001,4.932250999999998,0.0,11369.0,0.0,0.0,0.0,0.0,0.25,0.531005805,4.963769999999998,0.0,-3656.0,0.0,0.0,0.0,0.0,0.0,3.3728023890000003,0.01,0.0,11194.0,0.0,0.0,0.0,0.0,0.25,1.6113279600000001,0.01,0.0,0.49000000953674316,1.090000033378601,-26.3700008392334,-0.03057861328125,-0.001708984375,1.02008056640625,36.290000915527344,0.0,-40.0,-1.101654052734375,0.0804290771484375,Closing,0.0,0.0,-2.0,0.0,0.0,0.0,0.0,0.0,
6.461542999999998,0.0,0.0,-5220.0,0.0,0.0,0.0,0.0,0.125,0.7897948410000001,4.932250999999998,0.0,11369.0,0.0,0.0,0.0,0.0,0.125,0.526122993,4.963769999999998,0.0,-3656.0,0.0,0.0,0.0,0.0,0.0,3.3728023890000003,0.01,0.0,11194.0,0.0,0.0,0.0,0.0,0.125,1.6113279600000001,0.01,0.0,0.4699999988079071,0.9100000262260437,-26.3700008392334,-0.00274658203125,-4.8828125E-4,1.0162353515625,36.290000915527344,0.0,-13.0,-1.10858154296875,0.07904052734375,Closing,0.0,0.0,-2.0,0.0,0.0,0.0,0.0,0.0,
6.598318999999996,0.0,0.0,-5210.0,3.5,75.0,820.3125000000001,0.0,0.875,1.148681523,0.5498168668524888,0.0,11380.0,6.75,240.0,820.3125000000001,0.0,0.5,0.224609352,4.410439589772222,0.0,-3654.0,5.375,82.5,820.3125000000001,0.0,0.625,2.974853211,4.389674732977289,0.0,11220.0,3.625,157.5,820.3125000000001,0.0,0.75,1.9995115140000002,0.5526872062785588,0.0,0.3799999952316284,0.6499999761581421,-27.059999465942383,0.06243896484375,0.048095703125,1.04345703125,36.290000915527344,0.0,26.0,-1.109039306640625,0.0781097412109375,Closing,0.0,0.0,-2.0,0.0,0.0,0.0,0.0,0.0,
6.719620000000003,0.0,0.0,-5197.0,0.0,82.5,0.0,0.0,0.375,1.41601548,0.5498168668524888,0.0,11413.0,0.0,105.0,0.0,0.0,0.0,4.876708485,4.410439589772222,0.0,-3638.0,0.0,45.0,0.0,0.0,0.125,2.784423543,4.389674732977289,0.0,11228.0,0.0,60.0,0.0,0.0,0.25,2.2741696890000003,0.5526872062785588,0.0,0.3400000035762787,0.6100000143051147,-28.780000686645508,0.04608154296875,-0.11431884765625,1.04705810546875,36.27000045776367,0.0,88.0,-1.1112060546875,0.0774993896484375,Closing,0.0,0.0,-2.0,0.0,0.0,0.0,0.0,0.0,
6.860508999999999,0.0,0.0,-5197.0,0.0,0.0,0.0,0.0,0.25,1.4489744610000002,0.5498168668524888,0.0,11423.0,0.0,7.5,0.0,0.0,0.25,4.8107905230000005,4.410439589772222,0.0,-3634.0,0.0,0.0,0.0,0.0,0.0,2.756347374,4.389674732977289,0.0,11228.0,0.0,0.0,0.0,0.0,0.25,2.236327896,0.5526872062785588,0.0,0.36000001430511475,0.47999998927116394,-29.329999923706055,0.00274658203125,0.01104736328125,1.01580810546875,36.27000045776367,0.0,-7.0,-1.1136016845703125,0.0747528076171875,Closing,0.0,0.0,-2.0,0.0,0.0,0.0,0.0,0.0,
6.998622999999999,0.0,0.0,-5197.0,0.0,0.0,0.0,0.0,0.25,1.409911965,0.5498168668524888,0.0,11423.0,0.0,0.0,0.0,0.0,0.25,4.854735831,4.410439589772222,0.0,-3634.0,0.0,0.0,0.0,0.0,0.0,2.764892295,4.389674732977289,0.0,11228.0,0.0,0.0,0.0,0.0,0.25,2.207031024,0.5526872062785588,0.0,0.33000001311302185,0.3700000047683716,-29.219999313354492,-0.03302001953125,0.03668212890625,1.0355224609375,36.27000045776367,0.0,-49.0,-1.1138458251953125,0.0740509033203125,Closing,0.0,0.0,-2.0,0.0,0.0,0.0,0.0,0.0,
7.129608,0.0,0.0,-5197.0,0.0,0.0,0.0,0.0,0.25,1.385497905,0.5498168668524888,0.0,11423.0,0.0,0.0,0.0,0.0,0.25,4.8632807520000005,4.410439589772222,0.0,-3634.0,0.0,0.0,0.0,0.0,0.0,2.769775107,4.389674732977289,0.0,11228.0,0.0,0.0,0.0,0.0,0.25,2.186279073,0.5526872062785588,0.0,0.3100000023841858,0.2800000011920929,-29.209999084472656,-0.02685546875,0.02978515625,1.02203369140625,36.27000045776367,0.0,-39.0,-1.1148834228515625,0.073883056640625,Closing,0.0,0.0,-2.0,0.0,0.0,0.0,0.0,0.0,
7.259502999999997,0.0,0.0,-5197.0,1.125,97.5,590.625,0.0,0.25,1.36718736,0.5498168668524888,0.0,11438.0,2.625,90.0,590.625,0.0,0.25,4.871825673,4.410439589772222,0.0,-3634.0,1.5,0.0,590.625,0.0,0.0,2.769775107,4.389674732977289,0.0,11229.0,1.125,37.5,590.625,0.0,0.125,2.188720479,0.5526872062785588,0.0,0.4300000071525574,0.1899999976158142,-29.329999923706055,-0.11761474609375,0.0325927734375,1.06427001953125,36.25,0.0,-117.0,-1.1156768798828125,0.0743560791015625,Closing,0.0,0.0,-2.0,0.0,0.0,0.0,0.0,0.0,
7.382050000000003,0.0,0.0,-5175.0,0.0,15.0,0.0,0.0,0.125,1.3708494690000002,0.5498168668524888,0.0,11449.0,0.0,15.0,0.0,0.0,0.25,4.887694812,4.410439589772222,0.0,-3626.0,0.0,45.0,0.0,0.0,0.0,2.768554404,4.389674732977289,0.0,11253.0,0.0,82.5,0.0,0.0,0.25,2.177734152,0.5526872062785588,0.0,0.30000001192092896,0.17000000178813934,-30.270000457763672,-0.04815673828125,0.05462646484375,0.966064453125,36.25,0.0,-69.0,-1.11663818359375,0.076171875,Closing,0.0,0.0,-2.0,0.0,0.0,0.0,0.0,0.0,
7.529379999999997,0.0,0.0,-5175.0,0.0,0.0,0.0,0.0,0.125,1.3708494690000002,0.5498168668524888,0.0,11449.0,0.0,0.0,0.0,0.0,0.25,4.886474109,4.410439589772222,0.0,-3626.0,0.0,0.0,0.0,0.0,0.0,2.769775107,4.389674732977289,0.0,11253.0,0.0,0.0,0.0,0.0,0.125,2.177734152,0.5526872062785588,0.0,0.3100000023841858,0.019999999552965164,-29.8700008392334,0.0128173828125,0.05084228515625,0.99847412109375,36.25,0.0,-11.0,-1.117218017578125,0.0750885009765625,Closing,0.0,0.0,-2.0,0.0,0.0,0.0,0.0,0.0,
7.6605089999999985,0.0,0.0,-5175.0,0.0,0.0,0.0,0.0,0.125,1.3708494690000002,0.5498168668524888,0.0,11449.0,0.0,0.0,0.0,0.0,0.25,4.887694812,4.410439589772222,0.0,-3626.0,0.0,0.0,0.0,0.0,0.0,2.769775107,4.389674732977289,0.0,11253.0,0.0,0.0,0.0,0.0,0.125,2.176513449,0.5526872062785588,0.0,0.30000001192092896,-0.03999999910593033,-29.93000030517578,-0.007568359375,0.01226806640625,1.02587890625,36.25,0.0,-9.0,-1.117401123046875,0.0748291015625,Closing,0.0,0.0,-2.0,0.0,0.0,0.0,0.0,0.0,
7.796195999999997,0.0,0.0,-5175.0,0.0,0.0,0.0,0.0,0.125,1.3708494690000002,0.5498168668524888,0.0,11449.0,0.0,0.0,0.0,0.0,0.25,4.887694812,4.410439589772222,0.0,-3626.0,0.0,0.0,0.0,0.0,0.0,2.77099581,4.389674732977289,0.0,11253.0,0.0,0.0,0.0,0.0,0.125,2.176513449,0.5526872062785588,0.0,0.3100000023841858,-0.10999999940395355,-29.940000534057617,-0.00634765625,0.02142333984375,1.0213623046875,36.22999954223633,0.0,-11.0,-1.117401123046875,0.0748291015625,Closing,0.0,0.0,-2.0,0.0,0.0,0.0,0.0,0.0,
7.915553999999997,0.0,0.0,-5175.0,0.0,0.0,0.0,0.0,0.125,1.3720701720000001,0.5498168668524888,0.0,11449.0,0.0,0.0,0.0,0.0,0.25,4.890136218,4.410439589772222,0.0,-3626.0,0.0,0.0,0.0,0.0,0.0,2.77099581,4.389674732977289,0.0,11253.0,0.0,0.0,0.0,0.0,0.125,2.176513449,0.5526872062785588,0.0,0.3199999928474426,-0.17000000178813934,-29.940000534057617,-0.01324462890625,0.013916015625,1.0228271484375,36.22999954223633,0.0,-12.0,-1.117401123046875,0.0748291015625,Closing,0.0,0.0,-2.0,0.0,0.0,0.0,0.0,0.0,
8.060777000000002,0.0,0.0,-5175.0,0.0,0.0,0.0,0.0,0.125,1.3720701720000001,0.5498168668524888,0.0,11449.0,0.0,0.0,0.0,0.0,0.25,4.886474109,4.410439589772222,0.0,-3626.0,0.0,0.0,0.0,0.0,0.0,2.769775107,4.389674732977289,0.0,11253.0,0.0,0.0,0.0,0.0,0.125,2.177734152,0.5526872062785588,0.0,0.3199999928474426,-0.2199999988079071,-29.959999084472656,-0.0081787109375,0.0106201171875,1.021484375,36.22999954223633,0.0,-6.0,-1.117401123046875,0.0748291015625,Closing,0.0,0.0,-2.0,0.0,0.0,0.0,0.0,0.0,
8.198106999999997,0.0,0.0,-5179.0,2.75,-187.5,-873.0709004402161,0.0,2.125,1.246337763,4.932250999999998,0.0,11464.0,8.25,97.5,873.0709004402161,0.0,3.125,0.072021477,4.963769999999998,0.0,-3630.0,4.5,-22.5,-873.0709004402161,0.0,2.125,2.940673527,0.01,0.0,11261.0,3.75,75.0,873.0709004402161,0.0,1.0,1.885986135,0.01,0.0,0.2800000011920929,-0.6399999856948853,-30.209999084472656,-0.129150390625,-0.12713623046875,1.05712890625,36.22999954223633,0.0,-34.0,-1.1202850341796875,0.0727691650390625,Closing,0.0,0.0,-2.0,0.0,0.0,0.0,0.0,0.0,
8.316633999999999,0.0,0.0,-5205.0,8.875,-22.5,-873.0709004402161,0.0,0.5,0.942382716,4.932250999999998,0.0,11500.0,13.375,217.5,873.0709004402161,0.0,0.5,0.429687456,4.963769999999998,0.0,-3647.0,10.25,-97.5,-873.0709004402161,0.0,0.125,3.338622705,0.01,0.0,11299.0,4.25,240.0,873.0709004402161,0.0,0.25,1.514892423,0.01,0.0,0.2800000011920929,-1.4199999570846558,-30.959999084472656,-0.3309326171875,-0.027587890625,1.13690185546875,36.25,0.0,-242.0,-1.1309051513671875,0.068084716796875,Closing,0.0,0.0,-2.0,0.0,0.0,0.0,0.0,0.0,
8.461642,0.0,0.0,-5244.0,5.75,-622.5,-873.0709004402161,0.0,0.25,0.812988198,4.932250999999998,0.0,11586.0,10.875,555.0,873.0709004402161,0.0,0.25,0.506591745,4.963769999999998,0.0,-3730.0,7.25,-532.5,-873.0709004402161,0.0,0.0,3.436278945,0.01,0.0,11369.0,4.875,495.0,873.0709004402161,0.0,0.375,1.436767431,0.01,0.0,0.3100000023841858,-2.859999895095825,-30.0,-0.04443359375,0.05718994140625,1.15142822265625,36.25,0.0,-14.0,-1.168975830078125,0.0449676513671875,Closing,0.0,0.0,-2.0,0.0,0.0,0.0,0.0,0.0,
8.595750999999996,0.0,0.0,-5427.0,0.0,-562.5,0.0,0.0,0.125,0.7751464050000001,4.932250999999998,0.0,11671.0,0.0,427.5,0.0,0.0,0.0,0.521240181,4.963769999999998,0.0,-3852.0,0.0,-712.5,0.0,0.0,0.125,3.402099261,0.01,0.0,11456.0,0.0,442.5,0.0,0.0,0.375,1.593017415,0.01,0.0,0.2800000011920929,-0.6700000166893005,-30.40999984741211,0.546630859375,0.1114501953125,1.2135009765625,36.25,0.0,430.0,-1.203277587890625,0.028472900390625,Closing,0.0,0.0,-2.0,0.0,0.0,0.0,0.0,0.0,
8.727856,0.0,0.0,-5429.0,0.0,-37.5,0.0,0.0,0.25,0.7763671080000001,4.932250999999998,0.0,11713.0,0.0,82.5,0.0,0.0,0.125,0.5554198650000001,4.963769999999998,0.0,-3912.0,0.0,-210.0,0.0,0.0,0.125,3.383788716,0.01,0.0,11505.0,0.0,37.5,0.0,0.0,0.25,1.6564939710000002,0.01,0.0,0.14000000059604645,0.5600000023841858,-30.639999389648438,6.7138671875E-4,0.08056640625,0.98614501953125,36.25,0.0,-47.0,-1.201934814453125,0.032257080078125,Closing,0.0,0.0,-2.0,0.0,0.0,0.0,0.0,0.0,
8.860123,0.0,0.0,-5405.0,0.0,157.5,0.0,0.0,0.25,0.780029217,4.932250999999998,0.0,11696.0,0.0,-150.0,0.0,0.0,0.25,0.539550726,4.963769999999998,0.0,-3903.0,0.0,142.5,0.0,0.0,0.125,3.3776852010000002,0.01,0.0,11486.0,0.0,-165.0,0.0,0.0,0.25,1.6613767830000001,0.01,0.0,0.20000000298023224,0.10000000149011612,-30.6299991607666,-0.08197021484375,0.02386474609375,1.07037353515625,36.220001220703125,0.0,-82.0,-1.2001495361328125,0.0330810546875,Closing,0.0,0.0,-2.0,0.0,0.0,0.0,0.0,0.0,
8.990718000000001,0.0,0.0,-5396.0,0.0,45.0,0.0,0.0,0.25,0.784912029,4.932250999999998,0.0,11681.0,0.0,-67.5,0.0,0.0,0.25,0.534667914,4.963769999999998,0.0,-3883.0,0.0,37.5,0.0,0.0,0.125,3.3776852010000002,0.01,0.0,11468.0,0.0,-67.5,0.0,0.0,0.25,1.665038892,0.01,0.0,0.20999999344348907,-0.38999998569488525,-30.479999542236328,-0.0556640625,0.00341796875,1.02398681640625,36.220001220703125,0.0,-41.0,-1.206817626953125,0.029266357421875,Closing,0.0,0.0,-2.0,0.0,0.0,0.0,0.0,0.0,
9.129387000000003,0.0,0.0,-5396.0,0.0,0.0,0.0,0.0,0.125,0.784912029,4.932250999999998,0.0,11678.0,0.0,0.0,0.0,0.0,0.25,0.535888617,4.963769999999998,0.0,-3880.0,0.0,0.0,0.0,0.0,0.125,3.3789059040000002,0.01,0.0,11463.0,0.0,0.0,0.0,0.0,0.25,1.666259595,0.01,0.0,0.2199999988079071,-0.38999998569488525,-30.56999969482422,0.0250244140625,-0.00689697265625,1.04632568359375,36.220001220703125,0.0,33.0,-1.209259033203125,0.0281982421875,Closing,0.0,0.0,-2.0,0.0,0.0,0.0,0.0,0.0,
9.262014000000002,0.0,0.0,-5396.0,0.0,0.0,0.0,0.0,0.125,0.784912029,4.932250999999998,0.0,11678.0,0.0,0.0,0.0,0.0,0.25,0.535888617,4.963769999999998,0.0,-3880.0,0.0,0.0,0.0,0.0,0.125,3.3776852010000002,0.01,0.0,11463.0,0.0,0.0,0.0,0.0,0.25,1.666259595,0.01,0.0,0.2199999988079071,-0.41999998688697815,-30.549999237060547,-0.039794921875,0.00140380859375,1.01800537109375,36.209999084472656,0.0,-26.0,-1.209381103515625,0.0281982421875,Closing,0.0,0.0,-2.0,0.0,0.0,0.0,0.0,0.0,
9.384292999999998,0.0,0.0,-5396.0,0.0,0.0,0.0,0.0,0.125,0.784912029,4.932250999999998,0.0,11678.0,0.0,0.0,0.0,0.0,0.25,0.534667914,4.963769999999998,0.0,-3880.0,0.0,0.0,0.0,0.0,0.125,3.3776852010000002,0.01,0.0,11463.0,0.0,0.0,0.0,0.0,0.25,1.666259595,0.01,0.0,0.2199999988079071,-0.41999998688697815,-30.559999465942383,-0.00634765625,0.010009765625,1.01123046875,36.209999084472656,0.0,-2.0,-1.2098388671875,0.0281982421875,Closing,0.0,0.0,-2.0,0.0,0.0,0.0,0.0,0.0,
9.467277000000001,0.0,0.0,-5396.0,0.0,0.0,0.0,0.0,0.125,0.784912029,4.932250999999998,0.0,11678.0,0.0,0.0,0.0,0.0,0.25,0.535888617,4.963769999999998,0.0,-3880.0,0.0,0.0,0.0,0.0,0.125,3.3776852010000002,0.01,0.0,11463.0,0.0,0.0,0.0,0.0,0.25,1.666259595,0.01,0.0,0.20999999344348907,-0.46000000834465027,-30.559999465942383,-0.024169921875,0.00628662109375,1.018798828125,36.209999084472656,0.0,-14.0,-1.2098388671875,0.0281982421875,Closing,0.0,0.0,-2.0,0.0,0.0,0.0,0.0,0.0,
9.580949,0.0,0.0,-5396.0,0.0,0.0,0.0,0.0,0.125,0.783691326,4.932250999999998,-0.0012207029999995456,11678.0,0.0,0.0,0.0,0.0,0.25,0.535888617,4.963769999999998,0.0,-3880.0,0.0,0.0,0.0,0.0,0.125,3.3776852010000002,0.01,0.0,11463.0,0.0,0.0,0.0,0.0,0.25,1.666259595,0.01,0.0,0.2199999988079071,-0.46000000834465027,-30.559999465942383,-0.0069580078125,0.00518798828125,1.01544189453125,36.209999084472656,0.0,0.0,-1.2098388671875,0.0281982421875,Closing,0.0,0.0,-2.0,0.0,0.0,0.0,0.0,0.0,
9.728444999999999,0.0,0.0,-5396.0,0.0,0.0,0.0,0.0,0.125,0.783691326,4.932250999999998,0.0,11678.0,0.0,0.0,0.0,0.0,0.25,0.535888617,4.963769999999998,0.0,-3880.0,0.0,0.0,0.0,0.0,0.125,3.3776852010000002,0.01,0.0,11463.0,0.0,0.0,0.0,0.0,0.25,1.665038892,0.01,0.0,0.23000000417232513,-0.49000000953674316,-30.56999969482422,-0.0081787109375,0.00408935546875,1.01824951171875,36.209999084472656,0.0,0.0,-1.2098388671875,0.0281982421875,Closing,0.0,0.0,-2.0,0.0,0.0,0.0,0.0,0.0,
9.858479999999997,0.0,0.0,-5396.0,0.0,0.0,0.0,0.0,0.125,0.784912029,4.932250999999998,0.0,11678.0,0.0,0.0,0.0,0.0,0.25,0.535888617,4.963769999999998,0.0,-3880.0,0.0,0.0,0.0,0.0,0.125,3.3776852010000002,0.01,0.0,11463.0,0.0,0.0,0.0,0.0,0.25,1.665038892,0.01,0.0,0.23999999463558197,-0.5099999904632568,-30.56999969482422,-0.01513671875,0.00140380859375,1.0228271484375,36.2400016784668,0.0,-3.0,-1.2098388671875,0.0281982421875,Closing,0.0,0.0,-2.0,0.0,0.0,0.0,0.0,0.0,
9.993966,0.0,0.0,-5396.0,0.0,0.0,0.0,0.0,0.125,0.783691326,4.932250999999998,0.0,11678.0,0.0,0.0,0.0,0.0,0.25,0.534667914,4.963769999999998,0.0,-3880.0,0.0,0.0,0.0,0.0,0.125,3.3776852010000002,0.01,0.0,11463.0,0.0,0.0,0.0,0.0,0.25,1.665038892,0.01,0.0,0.23999999463558197,-0.5299999713897705,-30.56999969482422,-0.01434326171875,0.00286865234375,1.01873779296875,36.2400016784668,0.0,-3.0,-1.2098388671875,0.0281982421875,Closing,0.0,0.0,-2.0,0.0,0.0,0.0,0.0,0.0,
10.115813000000001,0.0,0.0,-5396.0,0.0,0.0,0.0,0.0,0.125,0.784912029,4.932250999999998,0.0,11678.0,0.0,0.0,0.0,0.0,0.25,0.535888617,4.963769999999998,0.0,-3880.0,0.0,0.0,0.0,0.0,0.125,3.3776852010000002,0.01,0.0,11463.0,0.0,0.0,0.0,0.0,0.25,1.665038892,0.01,0.0,0.23999999463558197,-0.5400000214576721,-30.56999969482422,-0.01385498046875,0.0050048828125,1.02288818359375,36.2400016784668,0.0,-3.0,-1.2098388671875,0.0281982421875,Closing,0.0,0.0,-2.0,0.0,0.0,0.0,0.0,0.0,
10.195462999999997,0.0,0.0,-5396.0,0.0,0.0,0.0,0.0,0.125,0.784912029,4.932250999999998,0.0012207029999995456,11678.0,0.0,0.0,0.0,0.0,0.25,0.535888617,4.963769999999998,0.0,-3880.0,0.0,0.0,0.0,0.0,0.125,3.3776852010000002,0.01,0.0,11463.0,0.0,0.0,0.0,0.0,0.25,1.666259595,0.01,0.0,0.25,-0.550000011920929,-30.56999969482422,-0.014404296875,0.00531005859375,1.0234375,36.2400016784668,0.0,-4.0,-1.2098388671875,0.0281982421875,Closing,0.0,0.0,-2.0,0.0,0.0,0.0,0.0,0.0,
10.327114999999997,0.0,0.0,-5396.0,0.0,0.0,0.0,0.0,0.125,0.784912029,4.932250999999998,0.0,11678.0,0.0,0.0,0.0,0.0,0.25,0.535888617,4.963769999999998,0.0,-3880.0,0.0,0.0,0.0,0.0,0.125,3.3776852010000002,0.01,0.0,11463.0,0.0,0.0,0.0,0.0,0.25,1.665038892,0.01,0.0,0.25,-0.5600000023841858,-30.56999969482422,-0.0125732421875,0.00726318359375,1.01336669921875,36.220001220703125,0.0,-3.0,-1.2098388671875,0.0281982421875,Closing,0.0,0.0,-2.0,0.0,0.0,0.0,0.0,0.0,
10.459648999999997,0.0,0.0,-5396.0,0.0,0.0,0.0,0.0,0.125,0.784912029,4.932250999999998,0.0,11678.0,0.0,0.0,0.0,0.0,0.25,0.535888617,4.963769999999998,0.0,-3880.0,0.0,0.0,0.0,0.0,0.125,3.3776852010000002,0.01,0.0,11463.0,0.0,0.0,0.0,0.0,0.25,1.665038892,0.01,0.0,0.25999999046325684,-0.5699999928474426,-30.56999969482422,-0.015380859375,0.00140380859375,1.01458740234375,36.220001220703125,0.0,-2.0,-1.2098388671875,0.0281982421875,Closing,0.0,0.0,-2.0,0.0,0.0,0.0,0.0,0.0,
10.594961999999999,0.0,0.0,-5396.0,0.0,0.0,0.0,0.0,0.125,0.784912029,4.932250999999998,0.0,11678.0,0.0,0.0,0.0,0.0,0.25,0.535888617,4.963769999999998,0.0,-3880.0,0.0,0.0,0.0,0.0,0.125,3.3789059040000002,0.01,0.0,11463.0,0.0,0.0,0.0,0.0,0.25,1.666259595,0.01,0.0,0.25999999046325684,-0.5799999833106995,-30.579999923706055,-0.013671875,0.00531005859375,1.022705078125,36.220001220703125,0.0,-3.0,-1.2098388671875,0.0281982421875,Closing,0.0,0.0,-2.0,0.0,0.0,0.0,0.0,0.0,
10.727288,0.0,0.0,-5396.0,0.0,0.0,0.0,0.0,0.125,0.784912029,4.932250999999998,0.0,11678.0,0.0,0.0,0.0,0.0,0.25,0.535888617,4.963769999999998,0.0,-3880.0,0.0,0.0,0.0,0.0,0.125,3.3776852010000002,0.01,0.0,11463.0,0.0,0.0,0.0,0.0,0.25,1.666259595,0.01,0.0,0.25999999046325684,-0.5899999737739563,-30.579999923706055,-0.01300048828125,0.00677490234375,1.0220947265625,36.220001220703125,0.0,-3.0,-1.2098388671875,0.0281982421875,Closing,0.0,0.0,-2.0,0.0,0.0,0.0,0.0,0.0,
10.862733999999996,0.0,0.0,-5396.0,0.0,0.0,0.0,0.0,0.125,0.784912029,4.932250999999998,0.0,11678.0,0.0,0.0,0.0,0.0,0.25,0.535888617,4.963769999999998,0.0,-3880.0,0.0,0.0,0.0,0.0,0.125,3.3776852010000002,0.01,0.0,11463.0,0.0,0.0,0.0,0.0,0.25,1.665038892,0.01,0.0,0.25999999046325684,-0.6000000238418579,-30.579999923706055,-0.011962890625,0.00341796875,1.01666259765625,36.25,0.0,0.0,-1.2098388671875,0.0281982421875,Closing,0.0,0.0,-2.0,0.0,0.0,0.0,0.0,0.0,
10.993544999999997,0.0,0.0,-5396.0,0.0,0.0,0.0,0.0,0.125,0.783691326,4.932250999999998,0.0,11678.0,0.0,0.0,0.0,0.0,0.25,0.535888617,4.963769999999998,0.0,-3880.0,0.0,0.0,0.0,0.0,0.125,3.3776852010000002,0.01,0.0,11463.0,0.0,0.0,0.0,0.0,0.25,1.665038892,0.01,0.0,0.25999999046325684,-0.6200000047683716,-30.59000015258789,-0.01751708984375,0.005615234375,1.0172119140625,36.25,0.0,-6.0,-1.2098388671875,0.0281982421875,Closing,0.0,0.0,-2.0,0.0,0.0,0.0,0.0,0.0,
11.128907,0.0,0.0,-5396.0,0.0,0.0,0.0,0.0,0.125,0.784912029,4.932250999999998,0.0,11678.0,0.0,0.0,0.0,0.0,0.25,0.535888617,4.963769999999998,0.0,-3880.0,0.0,0.0,0.0,0.0,0.125,3.3789059040000002,0.01,0.0,11463.0,0.0,0.0,0.0,0.0,0.25,1.666259595,0.01,0.0,0.27000001072883606,-0.6200000047683716,-30.59000015258789,-0.0152587890625,0.00531005859375,1.0172119140625,36.25,0.0,-3.0,-1.2098388671875,0.0281982421875,Closing,0.0,0.0,-2.0,0.0,0.0,0.0,0.0,0.0,
11.262919000000002,0.0,0.0,-5396.0,0.0,0.0,0.0,0.0,0.125,0.784912029,4.932250999999998,0.0,11678.0,0.0,0.0,0.0,0.0,0.25,0.534667914,4.963769999999998,0.0,-3880.0,0.0,0.0,0.0,0.0,0.125,3.3776852010000002,0.01,0.0,11463.0,0.0,0.0,0.0,0.0,0.25,1.665038892,0.01,0.0,0.2800000011920929,-0.6200000047683716,-30.59000015258789,-0.01495361328125,0.0048828125,1.01751708984375,36.25,0.0,-3.0,-1.2098388671875,0.0281982421875,Closing,0.0,0.0,-2.0,0.0,0.0,0.0,0.0,0.0,
11.388335,0.0,0.0,-5396.0,0.0,0.0,0.0,0.0,0.125,0.784912029,4.932250999999998,0.0,11678.0,0.0,0.0,0.0,0.0,0.25,0.535888617,4.963769999999998,0.0,-3880.0,0.0,0.0,0.0,0.0,0.125,3.3776852010000002,0.01,0.0,11463.0,0.0,0.0,0.0,0.0,0.25,1.665038892,0.01,0.0,0.2800000011920929,-0.6200000047683716,-30.59000015258789,-0.01141357421875,0.00238037109375,1.018310546875,36.25,0.0,1.0,-1.2098388671875,0.0281982421875,Closing,0.0,0.0,-2.0,0.0,0.0,0.0,0.0,0.0,
11.527697999999997,0.0,0.0,-5396.0,0.0,0.0,0.0,0.0,0.125,0.784912029,4.932250999999998,0.0,11678.0,0.0,0.0,0.0,0.0,0.25,0.535888617,4.963769999999998,0.0,-3880.0,0.0,0.0,0.0,0.0,0.125,3.3776852010000002,0.01,0.0,11463.0,0.0,0.0,0.0,0.0,0.25,1.665038892,0.01,0.0,0.2800000011920929,-0.6399999856948853,-30.59000015258789,-0.01324462890625,0.00494384765625,1.01629638671875,36.25,0.0,-1.0,-1.2098388671875,0.0281982421875,Closing,0.0,0.0,-2.0,0.0,0.0,0.0,0.0,0.0,
11.662527000000003,0.0,0.0,-5396.0,0.0,0.0,0.0,0.0,0.125,0.783691326,4.932250999999998,0.0,11678.0,0.0,0.0,0.0,0.0,0.25,0.535888617,4.963769999999998,0.0,-3880.0,0.0,0.0,0.0,0.0,0.125,3.3776852010000002,0.01,0.0,11463.0,0.0,0.0,0.0,0.0,0.25,1.666259595,0.01,0.0,0.2800000011920929,-0.6399999856948853,-30.59000015258789,-0.0137939453125,0.005615234375,1.0218505859375,36.25,0.0,-2.0,-1.2098388671875,0.0281982421875,Closing,0.0,0.0,-2.0,0.0,0.0,0.0,0.0,0.0,
11.792479999999996,0.0,0.0,-5396.0,0.0,0.0,0.0,0.0,0.125,0.783691326,4.932250999999998,0.0,11678.0,0.0,0.0,0.0,0.0,0.25,0.535888617,4.963769999999998,0.0,-3880.0,0.0,0.0,0.0,0.0,0.125,3.3789059040000002,0.01,0.0,11463.0,0.0,0.0,0.0,0.0,0.25,1.665038892,0.01,0.0,0.2800000011920929,-0.6399999856948853,-30.59000015258789,-0.0133056640625,0.00189208984375,1.02490234375,36.25,0.0,0.0,-1.2098388671875,0.0281982421875,Closing,0.0,0.0,-2.0,0.0,0.0,0.0,0.0,0.0,
11.928593999999997,0.0,0.0,-5396.0,0.0,0.0,0.0,0.0,0.125,0.786132732,4.932250999999998,0.0,11678.0,0.0,0.0,0.0,0.0,0.25,0.535888617,4.963769999999998,0.0,-3880.0,0.0,0.0,0.0,0.0,0.125,3.3789059040000002,0.01,0.0,11463.0,0.0,0.0,0.0,0.0,0.25,1.666259595,0.01,0.0,0.2800000011920929,-0.6399999856948853,-30.59000015258789,-0.01202392578125,0.00421142578125,1.0218505859375,36.2599983215332,0.0,0.0,-1.2098388671875,0.0281982421875,Closing,0.0,0.0,-2.0,0.0,0.0,0.0,0.0,0.0,
12.064440000000003,0.0,0.0,-5396.0,0.0,0.0,0.0,0.0,0.125,0.784912029,4.932250999999998,0.0,11678.0,0.0,0.0,0.0,0.0,0.25,0.535888617,4.963769999999998,0.0,-3880.0,0.0,0.0,0.0,0.0,0.125,3.3776852010000002,0.01,0.0,11463.0,0.0,0.0,0.0,0.0,0.25,1.665038892,0.01,0.0,0.2800000011920929,-0.6499999761581421,-30.600000381469727,-0.0123291015625,0.00299072265625,1.0218505859375,36.2599983215332,0.0,0.0,-1.2098388671875,0.0281982421875,Closing,0.0,0.0,-2.0,0.0,0.0,0.0,0.0,0.0,
12.194485,0.0,0.0,-5396.0,0.0,0.0,0.0,0.0,0.125,0.783691326,4.932250999999998,0.0,11678.0,0.0,0.0,0.0,0.0,0.25,0.535888617,4.963769999999998,0.0,-3880.0,0.0,0.0,0.0,0.0,0.125,3.3789059040000002,0.01,0.0,11463.0,0.0,0.0,0.0,0.0,0.25,1.665038892,0.01,0.0,0.2800000011920929,-0.6600000262260437,-30.610000610351562,-0.0146484375,0.00238037109375,1.01678466796875,36.2599983215332,0.0,-1.0,-1.2098388671875,0.0281982421875,Closing,0.0,0.0,-2.0,0.0,0.0,0.0,0.0,0.0,
12.326432,0.0,0.0,-5396.0,0.0,0.0,0.0,0.0,0.125,0.784912029,4.932250999999998,0.0,11678.0,0.0,0.0,0.0,0.0,0.25,0.535888617,4.963769999999998,0.0,-3880.0,0.0,0.0,0.0,0.0,0.125,3.3776852010000002,0.01,0.0,11463.0,0.0,0.0,0.0,0.0,0.25,1.666259595,0.01,0.0,0.2800000011920929,-0.6499999761581421,-30.610000610351562,-0.0126953125,0.0059814453125,1.01483154296875,36.2599983215332,0.0,-1.0,-1.2098388671875,0.0281982421875,Closing,0.0,0.0,-2.0,0.0,0.0,0.0,0.0,0.0,
12.463017,0.0,0.0,-5396.0,0.0,0.0,0.0,0.0,0.125,0.784912029,4.932250999999998,0.0,11678.0,0.0,0.0,0.0,0.0,0.25,0.535888617,4.963769999999998,0.0,-3880.0,0.0,0.0,0.0,0.0,0.125,3.3789059040000002,0.01,0.0,11463.0,0.0,0.0,0.0,0.0,0.25,1.665038892,0.01,0.0,0.2800000011920929,-0.6600000262260437,-30.610000610351562,-0.0126953125,0.00604248046875,1.01824951171875,36.2599983215332,0.0,-1.0,-1.2098388671875,0.0281982421875,Closing,0.0,0.0,-2.0,0.0,0.0,0.0,0.0,0.0,
12.593824999999997,0.0,0.0,-5396.0,0.0,0.0,0.0,0.0,0.125,0.784912029,4.932250999999998,0.0,11678.0,0.0,0.0,0.0,0.0,0.25,0.535888617,4.963769999999998,0.0,-3880.0,0.0,0.0,0.0,0.0,0.125,3.3776852010000002,0.01,0.0,11463.0,0.0,0.0,0.0,0.0,0.25,1.666259595,0.01,0.0,0.2800000011920929,-0.6600000262260437,-30.610000610351562,-0.01312255859375,0.00286865234375,1.01629638671875,36.2599983215332,0.0,0.0,-1.2098388671