Time,ClimberA1,ClimberA2,FRpos,FRCurrent,FRspeed,FRsetpoint,FRApos,FRACurrent,FREncpos,FREncSetpoint,FREncSpeed,FLpos,FLCurrent,FLspeed,FLsetpoint,FLApos,FLACurrent,FLEncpos,FLEncSetpoint,FLEncSpeed,BRpos,BRCurrent,BRspeed,BRsetpoint,BRApos,BRACurrent,BREncpos,BREncSetpoint,BREncSpeed,BLpos,BLCurrent,BLspeed,BLsetpoint,BLApos,BLACurrent,BLEncpos,BLEncSetpoint,BLEncSpeed,navx_Pitch,navx_Roll,navx_Yaw,navx_XAcc,navx_YAcc,navx_ZAcc,navx_Temp,navx_Bar,navx_Alt,navx_XDis,navx_YDis,GearPlacerState,ShootOutputV,ShootOutputCurrent,ShootEncPos,ShootEncVelocity,ShootSpeed,ShootSetpoint,CarouselSetpoint,CarouselCurrent,
0.5720520000000033,0.0,0.0,-3744.0,0.0,0.0,0.0,0.0,0.125,0.821533119,0.01,0.0,5733.0,0.0,0.0,0.0,0.0,0.25,0.48583979400000005,0.01,0.0,-3379.0,0.0,0.0,0.0,0.0,0.0,3.3618160620000004,0.01,0.0,9767.0,0.0,0.0,0.0,0.0,0.125,1.640624832,0.01,0.0,0.4399999976158142,-0.33000001311302185,-47.279998779296875,-0.0074462890625,0.00970458984375,1.02557373046875,36.959999084472656,0.0,-2.0,-2.092742919921875,-0.0555419921875,Closing,0.0,0.0,-1.0,0.0,0.0,0.0,0.0,0.0,
0.6547100000000028,0.0,0.0,-3744.0,0.5,0.0,840.0,0.0,0.125,0.822753822,0.01,0.0,5732.0,0.75,0.0,-840.0,0.0,0.25,0.48583979400000005,0.01,0.0,-3379.0,0.375,0.0,840.0,0.0,0.0,3.3630367650000004,0.01,0.0,9767.0,0.375,0.0,-840.0,0.0,0.125,1.650390456,0.01,0.0,0.4399999976158142,-0.3400000035762787,-47.27000045776367,-0.0101318359375,0.003662109375,1.01983642578125,36.93000030517578,0.0,0.0,-2.092742919921875,-0.0555419921875,Closing,0.0,0.0,-1.0,0.0,0.0,0.0,0.0,0.0,
0.7313640000000013,0.0,0.0,-3714.0,2.5,135.0,881.9919543718703,0.0,0.125,0.822753822,0.03099791870748466,0.0,5732.0,7.25,-112.5,-799.4542222265068,0.0,0.25,0.490722606,0.03441870809850709,0.0,-3379.0,3.375,37.5,881.9919543718703,0.0,0.0,3.359374656,4.909350866940378,0.0,9767.0,2.5,-105.0,-799.4542222265068,0.0,0.125,1.665038892,4.923621300996541,0.0,0.44999998807907104,0.15000000596046448,-47.18000030517578,-0.041748046875,-0.1368408203125,1.0869140625,36.93000030517578,0.0,76.0,-2.09130859375,-0.0547637939453125,Closing,0.0,0.0,-1.0,0.0,0.0,0.0,0.0,0.0,
0.7904180000000015,0.0,0.0,-3714.0,3.25,255.0,881.9919543718703,0.0,0.125,0.812988198,0.03099791870748466,0.0012207029999999897,5701.0,7.0,-157.5,-799.4542222265068,0.0,0.25,0.49194330900000005,0.03441870809850709,0.0,-3360.0,5.5,97.5,881.9919543718703,0.0,0.125,3.328857081,4.909350866940378,4.9208687520000005,9742.0,2.625,-172.5,-799.4542222265068,0.0,0.25,1.6540525650000002,4.923621300996541,0.019531248000000057,0.4099999964237213,0.550000011920929,-47.2400016784668,0.27764892578125,0.03997802734375,0.88861083984375,36.93000030517578,0.0,157.0,-2.0875244140625,-0.0522613525390625,Closing,0.0,0.0,-1.0,0.0,0.0,0.0,0.0,0.0,
0.8581000000000022,0.0,0.0,-3669.0,4.0,255.0,881.9919543718703,0.0,0.125,0.822753822,0.03099791870748466,-0.0012207029999999897,5701.0,7.5,-337.5,-799.4542222265068,0.0,0.25,0.49194330900000005,0.03441870809850709,0.0,-3360.0,6.125,232.5,881.9919543718703,0.0,0.0,3.3203121600000003,4.909350866940378,0.0,9687.0,3.125,-285.0,-799.4542222265068,0.0,0.25,1.625976396,4.923621300996541,-0.020751951000000046,0.4300000071525574,1.0199999809265137,-47.209999084472656,0.14788818359375,-0.008056640625,0.967041015625,36.93000030517578,0.0,99.0,-2.07952880859375,-0.0455322265625,Closing,0.0,0.0,-1.0,0.0,0.0,0.0,0.0,0.0,
0.9290440000000016,0.0,0.0,-3669.0,4.25,427.5,881.9919543718703,0.0,0.125,0.8166503070000001,0.03099791870748466,0.0012207029999999897,5627.0,6.25,-487.5,-799.4542222265068,0.0,0.25,0.495605418,0.03441870809850709,0.0,-3307.0,7.375,360.0,881.9919543718703,0.0,0.0,3.330077784,4.909350866940378,0.0,9687.0,2.75,-412.5,-799.4542222265068,0.0,0.25,1.614990069,4.923621300996541,4.938468752,0.46000000834465027,1.2999999523162842,-47.290000915527344,0.1397705078125,0.02996826171875,1.12152099609375,36.93000030517578,0.0,62.0,-2.0708770751953125,-0.0374603271484375,Closing,0.0,0.0,-1.0,0.0,0.0,0.0,0.0,0.0,
0.9935340000000032,0.0,0.0,-3582.0,4.0,517.5,883.0077069547914,0.0,0.125,0.821533119,0.03169983483550483,0.0,5627.0,5.25,-600.0,-798.5082999641058,0.0,0.25,0.506591745,0.03528051072315054,0.0,-3307.0,6.5,510.0,883.0077069547914,0.0,0.0,3.330077784,4.908647791115795,0.0,9597.0,2.75,-525.0,-798.5082999641058,0.0,0.25,1.617431475,4.922760500151018,0.0,0.44999998807907104,1.6299999952316284,-47.45000076293945,0.09783935546875,-0.06396484375,1.0733642578125,36.93000030517578,0.0,98.0,-2.0603485107421875,-0.027587890625,Closing,0.0,0.0,-1.0,0.0,0.0,0.0,0.0,0.0,
1.0558650000000016,0.0,0.0,-3582.0,3.25,682.5,880.9769086020297,0.0,0.125,0.820312416,0.030294384545570683,0.0,5518.0,4.125,-690.0,-800.4010936012869,0.0,0.25,0.57373041,0.03355894347104062,0.06347655599999946,-3210.0,5.875,622.5,880.9769086020297,0.0,0.0,3.330077784,4.910055563472148,0.0,9597.0,2.5,-600.0,-800.4010936012869,0.0,0.25,1.612548663,4.924480066213902,-0.0012207029999995456,0.5,1.840000033378601,-47.66999816894531,0.17742919921875,0.0386962890625,0.829345703125,36.93000030517578,0.0,78.0,-2.045623779296875,-0.0143280029296875,Closing,0.0,0.0,-1.0,0.0,0.0,0.0,0.0,0.0,
1.129671000000002,0.0,0.0,-3465.0,2.875,750.0,881.9919543718703,0.0,0.125,0.822753822,0.03099791870748466,0.0,5397.0,3.5,-750.0,-799.4542222265068,0.0,0.125,0.578613222,0.03441870809850709,0.0,-3089.0,5.25,742.5,881.9919543718703,0.0,0.0,3.328857081,4.909350866940378,0.0,9486.0,1.875,-675.0,-799.4542222265068,0.0,0.25,1.616210772,4.923621300996541,0.0,0.550000011920929,1.8899999856948853,-48.0099983215332,0.0611572265625,-0.0526123046875,0.96771240234375,36.93000030517578,0.0,65.0,-2.0333709716796875,-0.002899169921875,Closing,0.0,0.0,-1.0,0.0,0.0,0.0,0.0,0.0,
1.1901900000000023,0.0,0.0,-3465.0,2.5,825.0,881.9919543718703,0.0,0.125,0.820312416,0.03099791870748466,0.0,5397.0,3.125,-772.5,-799.4542222265068,0.0,0.25,0.584716737,0.03441870809850709,0.01342773300000033,-3089.0,5.0,787.5,881.9919543718703,0.0,0.0,3.330077784,4.909350866940378,0.0,9486.0,1.875,-727.5,-799.4542222265068,0.0,0.25,1.616210772,4.923621300996541,0.0012207029999995456,0.5199999809265137,1.9199999570846558,-48.439998626708984,0.03143310546875,-0.0157470703125,1.11236572265625,36.95000076293945,0.0,15.0,-2.0197296142578125,0.00848388671875,Closing,0.0,0.0,-1.0,0.0,0.0,0.0,0.0,0.0,
1.2575290000000023,0.0,0.0,-3327.0,1.875,877.5,881.9919543718703,0.0,0.125,0.822753822,0.03099791870748466,0.0,5267.0,2.75,-802.5,-799.4542222265068,0.0,0.25,0.583496034,0.03441870809850709,0.0,-2947.0,4.0,877.5,881.9919543718703,0.0,0.0,3.330077784,4.909350866940378,-0.0012207029999995456,9363.0,1.375,-772.5,-799.4542222265068,0.0,0.25,1.616210772,4.923621300996541,0.0,0.47999998927116394,1.899999976158142,-49.0,-0.0145263671875,-0.0859375,0.87896728515625,36.95000076293945,0.0,41.0,-2.0030364990234375,0.0225677490234375,Closing,0.0,0.0,-1.0,0.0,0.0,0.0,0.0,0.0,
1.3267310000000034,0.0,0.0,-3179.0,1.25,915.0,880.9769086020297,0.0,0.125,0.8154296040000001,0.030294384545570683,0.0,5267.0,2.375,-825.0,-800.4010936012869,0.0,0.25,0.583496034,0.03355894347104062,0.0,-2947.0,3.5,922.5,880.9769086020297,0.0,0.0,3.330077784,4.910055563472148,0.0,9363.0,1.375,-787.5,-800.4010936012869,0.0,0.25,1.617431475,4.924480066213902,0.0,0.5299999713897705,1.9800000190734863,-49.459999084472656,-0.06903076171875,0.008056640625,0.86151123046875,36.95000076293945,0.0,-64.0,-1.996490478515625,0.0338287353515625,Closing,0.0,0.0,-1.0,0.0,0.0,0.0,0.0,0.0,
1.3917570000000015,0.0,0.0,-3179.0,0.875,930.0,877.9360366783973,0.0,0.125,0.822753822,0.028174029134742186,0.0,5131.0,2.0,-847.5,-803.2473688185528,0.0,0.25,0.5822753310000001,0.03099182568575533,0.0012207030000004337,-2795.0,3.125,945.0,877.9360366783973,0.0,0.0,3.328857081,4.912179422106199,0.0,9235.0,1.25,-810.0,-803.2473688185528,0.0,0.25,1.616210772,4.927044199922644,0.0,0.550000011920929,1.909999966621399,-49.93000030517578,0.04547119140625,-0.01068115234375,0.8724365234375,36.95000076293945,0.0,25.0,-1.997100830078125,0.044647216796875,Closing,0.0,0.0,-1.0,0.0,0.0,0.0,0.0,0.0,
1.454161,0.0,0.0,-3028.0,0.875,945.0,874.9016147032079,0.0,0.125,0.821533119,0.026038949995290866,-0.0012207029999999897,5131.0,1.875,-855.0,-806.1020656795545,0.0,0.25,0.5798339250000001,0.02844286331577642,0.0,-2795.0,2.75,937.5,874.9016147032079,0.0,0.0,3.330077784,4.914318028795223,0.0,9235.0,1.0,-840.0,-806.1020656795545,0.0,0.25,1.616210772,4.9295901993203515,0.0,0.49000000953674316,1.659999966621399,-50.47999954223633,-0.019287109375,1.220703125E-4,1.1943359375,36.95000076293945,0.0,-26.0,-1.9986419677734375,0.043731689453125,Closing,0.0,0.0,-1.0,0.0,0.0,0.0,0.0,0.0,
1.527768,0.0,0.0,-3028.0,0.75,945.0,872.8822832482687,0.0,0.125,0.821533119,0.024607323851553786,0.0,4994.0,1.625,-855.0,-808.0098315425466,0.0,0.25,0.577392519,0.026753572546574098,-0.0012207030000004337,-2643.0,2.625,952.5,872.8822832482687,0.0,0.0,3.328857081,4.9157520202527785,0.0,9098.0,1.0,-840.0,-808.0098315425466,0.0,0.25,1.616210772,4.931277526419251,0.0,0.5699999928474426,1.5499999523162842,-51.029998779296875,-0.07281494140625,-0.0595703125,1.143798828125,36.95000076293945,0.0,-10.0,-2.0008087158203125,0.042449951171875,Closing,0.0,0.0,-1.0,0.0,0.0,0.0,0.0,0.0,
1.5920470000000022,0.0,0.0,-2878.0,0.75,937.5,840.9838465057444,0.0,0.125,0.821533119,0.01,0.0012207029999999897,4994.0,1.5,-855.0,-839.0169716963584,0.0,0.25,0.570068301,0.01,0.0,-2643.0,2.375,952.5,840.9838465057444,0.0,0.0,3.328857081,4.939624888188547,0.0,8966.0,1.0,-825.0,-839.0169716963584,0.0,0.25,1.617431475,4.957220303341923,-0.0012207029999995456,0.5099999904632568,1.4199999570846558,-51.34000015258789,-0.0943603515625,0.05474853515625,1.140380859375,36.95000076293945,0.0,-111.0,-2.002655029296875,0.0412750244140625,Closing,0.0,0.0,-1.0,0.0,0.0,0.0,0.0,0.0,
1.6565880000000033,0.0,0.0,-2878.0,0.5,930.0,866.8418705156101,0.0,0.125,0.825195228,0.020272492763411296,0.0,4857.0,1.625,-847.5,-813.7550882631232,0.0,0.25,0.5566405680000001,0.021733331473626834,-0.008544921000000372,-2492.0,2.25,937.5,866.8418705156101,0.0,0.0,3.336181299,4.920094013291627,0.0,8966.0,1.0,-825.0,-813.7550882631232,0.0,0.125,1.616210772,4.936291931848929,0.0,0.4699999988079071,1.3200000524520874,-51.84000015258789,0.04302978515625,-0.04937744140625,0.9752197265625,36.95000076293945,0.0,57.0,-2.00628662109375,0.038909912109375,Closing,0.0,0.0,-1.0,0.0,0.0,0.0,0.0,0.0,
1.729724000000002,0.0,0.0,-2728.0,0.5,922.5,863.8316805772031,0.0,0.125,0.822753822,0.018082376898733744,0.0,4721.0,1.375,-847.5,-816.6399092814195,0.0,0.125,0.544433538,0.019249749984158827,-0.014648435999999876,-2343.0,2.25,930.0,863.8316805772031,0.0,0.0,3.330077784,4.922287747636829,0.0,8835.0,1.0,-825.0,-816.6399092814195,0.0,0.25,1.616210772,4.938772626366358,0.0,0.4300000071525574,1.2100000381469727,-52.2400016784668,-0.001953125,0.03076171875,0.70989990234375,36.86000061035156,0.0,-30.0,-2.0100860595703125,0.038330078125,Closing,0.0,0.0,-1.0,0.0,0.0,0.0,0.0,0.0,
1.7910650000000023,0.0,0.0,-2728.0,0.5,907.5,860.8282617118197,0.0,0.125,0.822753822,0.015876961194165807,0.0,4721.0,1.25,-847.5,-819.5327443679918,0.0,0.125,0.557861271,0.01678367765051945,0.0,-2343.0,2.25,922.5,860.8282617118197,0.0,0.0,3.330077784,4.924496807100114,0.0,8835.0,1.0,-817.5,-819.5327443679918,0.0,0.25,1.62353499,4.941235832081004,0.0,0.5,1.0199999809265137,-52.540000915527344,-0.0244140625,0.00640869140625,0.86029052734375,36.86000061035156,0.0,-23.0,-2.01361083984375,0.03814697265625,Closing,0.0,0.0,-1.0,0.0,0.0,0.0,0.0,0.0,
1.8559520000000012,0.0,0.0,-2584.0,0.5,892.5,858.8297792622957,0.0,0.125,0.826415931,0.014398122103178021,0.003662108999999969,4586.0,1.375,-840.0,-821.4657115518587,0.0,0.125,0.544433538,0.015149289081851931,0.0,-2199.0,2.125,907.5,858.8297792622957,0.0,0.0,3.330077784,4.925978089509528,0.0,8702.0,1.0,-825.0,-821.4657115518587,0.0,0.125,1.616210772,4.942868320798945,0.0,0.5199999809265137,0.9399999976158142,-52.880001068115234,-0.03948974609375,-0.04278564453125,0.96331787109375,36.86000061035156,0.0,7.0,-2.0191192626953125,0.037445068359375,Closing,0.0,0.0,-1.0,0.0,0.0,0.0,0.0,0.0,
1.9273070000000008,0.0,0.0,-2441.0,0.5,892.5,856.8343590485584,0.0,0.125,0.8276366340000001,0.012912389793731036,0.0012207029999999897,4586.0,1.375,-832.5,-823.4021781195208,0.0,0.125,0.54931635,0.013522581045757426,0.0,-2199.0,2.125,892.5,856.8343590485584,0.0,0.0,3.330077784,4.927466276526286,0.0,8702.0,1.25,-810.0,-823.4021781195208,0.0,0.125,1.616210772,4.94449313791234,0.0,0.5799999833106995,0.7699999809265137,-53.11000061035156,-0.1163330078125,0.07763671875,1.29071044921875,36.86000061035156,0.0,-131.0,-2.0243682861328125,0.0363616943359375,Closing,0.0,0.0,-1.0,0.0,0.0,0.0,0.0,0.0,
1.9904000000000015,0.0,0.0,-2441.0,0.5,877.5,853.8470173747386,0.0,0.125,0.826415931,0.01067078427588526,0.0,4451.0,1.375,-832.5,-826.3133854856541,0.0,0.125,0.545654241,0.011096831832440208,0.0,-2056.0,2.25,892.5,853.8470173747386,0.0,0.0,3.330077784,4.929711585595181,0.0,8575.0,1.25,-795.0,-826.3133854856541,0.0,0.125,1.617431475,4.946916067379182,0.0,0.5899999737739563,0.6800000071525574,-53.349998474121094,-0.05975341796875,0.01983642578125,1.02667236328125,36.86000061035156,0.0,-50.0,-2.0305633544921875,0.0351409912109375,Closing,0.0,0.0,-1.0,0.0,0.0,0.0,0.0,0.0,
2.0602590000000016,0.0,0.0,-2304.0,0.5,862.5,850.8666870999507,0.0,0.125,0.826415931,0.01,0.0,4451.0,1.375,-832.5,-829.2323287454969,0.0,0.25,0.538330023,0.01,0.0,-2056.0,2.25,870.0,850.8666870999507,0.0,0.0,3.330077784,4.931972642495028,0.0,8441.0,1.25,-825.0,-829.2323287454969,0.0,0.125,1.6101072570000001,4.949321961707396,0.0,0.5400000214576721,0.6100000143051147,-53.72999954223633,0.02703857421875,-0.05426025390625,1.168212890625,36.86000061035156,0.0,61.0,-2.032440185546875,0.0318450927734375,Closing,0.0,0.0,-1.0,0.0,0.0,0.0,0.0,0.0,
2.1286660000000013,0.0,0.0,-2304.0,0.5,862.5,847.8934421590241,0.0,0.125,0.826415931,0.01,0.0,4320.0,1.5,-825.0,-832.1589264940451,0.0,0.25,0.544433538,0.01,0.0,-1917.0,2.25,862.5,847.8934421590241,0.0,0.0,3.328857081,4.934249575693886,0.0,8441.0,1.0,-840.0,-832.1589264940451,0.0,0.125,1.617431475,4.951710955661617,0.0,0.5600000023841858,0.5099999904632568,-54.029998779296875,0.0048828125,-0.0474853515625,1.012939453125,36.86000061035156,0.0,44.0,-2.03289794921875,0.0289764404296875,Closing,0.0,0.0,-1.0,0.0,0.0,0.0,0.0,0.0,
2.191921000000002,0.0,0.0,-2164.0,0.5,870.0,846.9039479337703,0.0,0.125,0.826415931,0.01,0.0,4320.0,1.75,-817.5,-833.1361461383841,0.0,0.25,0.544433538,0.01,0.0,-1917.0,2.125,870.0,846.9039479337703,0.0,0.0,3.330077784,4.935012103805204,0.0,8312.0,1.25,-817.5,-833.1361461383841,0.0,0.125,1.619872881,4.9525035545407565,0.0,0.550000011920929,0.4399999976158142,-54.36000061035156,0.01458740234375,-0.00958251953125,0.71356201171875,36.83000183105469,0.0,18.0,-2.0334625244140625,0.0256195068359375,Closing,0.0,0.0,-1.0,0.0,0.0,0.0,0.0,0.0,
2.259599000000002,0.0,0.0,-2164.0,0.5,855.0,842.9539826616676,0.0,0.125,0.826415931,0.01,0.0,4188.0,1.75,-817.5,-837.0533812236578,0.0,0.25,0.544433538,0.01,0.0,-1777.0,2.125,870.0,842.9539826616676,0.0,0.0,3.328857081,4.938080096305669,0.0,8312.0,1.375,-780.0,-837.0533812236578,0.0,0.125,1.616210772,4.955655419834596,-0.0012207029999995456,0.5600000023841858,0.4300000071525574,-54.7599983215332,0.00811767578125,0.01318359375,0.83544921875,36.83000183105469,0.0,-3.0,-2.0341339111328125,0.02099609375,Closing,0.0,0.0,-1.0,0.0,0.0,0.0,0.0,0.0,
2.3339740000000018,0.0,0.0,-2026.0,0.5,855.0,840.9838465057444,0.0,0.125,0.832519446,0.01,0.0,4055.0,1.625,-832.5,-839.0169716963584,0.0,0.25,0.544433538,0.01,0.0,-1638.0,1.875,870.0,840.9838465057444,0.0,0.0,3.328857081,4.939624888188547,0.0,8186.0,1.625,-795.0,-839.0169716963584,0.0,0.125,1.617431475,4.957220303341923,0.0,0.5699999928474426,0.3199999928474426,-55.08000183105469,-0.0321044921875,0.04498291015625,0.96368408203125,36.83000183105469,0.0,-50.0,-2.035003662109375,0.0170135498046875,Closing,0.0,0.0,-1.0,0.0,0.0,0.0,0.0,0.0,
2.390724000000002,0.0,0.0,-2026.0,0.375,870.0,838.0347644741121,0.0,0.125,0.836181555,4.930697886341331,0.00488281200000007,4055.0,1.5,-832.5,-841.9685083453654,0.0,0.25,0.545654241,4.962214263992143,0.0,-1638.0,1.75,870.0,838.0347644741121,0.0,0.0,3.330077784,0.01,0.0,8186.0,1.875,-787.5,-841.9685083453654,0.0,0.125,1.616210772,0.01,0.0012207029999995456,0.5400000214576721,0.20000000298023224,-55.41999816894531,-0.10211181640625,0.03631591796875,1.041748046875,36.83000183105469,0.0,-81.0,-2.03643798828125,0.0125732421875,Closing,0.0,0.0,-1.0,0.0,0.0,0.0,0.0,0.0,
2.4573460000000016,0.0,0.0,-1886.0,0.375,870.0,835.0930982554512,0.0,0.125,0.836181555,4.928354525051692,0.003662108999999969,3919.0,1.5,-840.0,-844.9273573504628,0.0,0.25,0.544433538,4.959894267008493,0.0,-1498.0,1.5,870.0,835.0930982554512,0.0,0.0,3.330077784,0.01,0.0,8056.0,1.875,-795.0,-844.9273573504628,0.0,0.125,1.621093584,0.01,-0.0012207029999995456,0.5799999833106995,0.1899999976158142,-55.79999923706055,-0.0787353515625,3.0517578125E-4,0.9259033203125,36.83000183105469,0.0,-38.0,-2.0372161865234375,0.0068817138671875,Closing,0.0,0.0,-1.0,0.0,0.0,0.0,0.0,0.0,
2.530965,0.0,0.0,-1750.0,0.375,847.5,831.1825483991165,0.0,0.25,0.836181555,4.925204281526707,0.0012207029999999897,3919.0,1.625,-840.0,-848.8837319473591,0.0,0.25,0.545654241,4.956826133444492,0.0,-1498.0,1.75,855.0,831.1825483991165,0.0,0.0,3.330077784,0.01,0.0,8056.0,1.875,-802.5,-848.8837319473591,0.0,0.125,1.621093584,0.01,0.006103514999999504,0.5799999833106995,0.23999999463558197,-56.099998474121094,-0.006103515625,0.093994140625,1.22918701171875,36.83000183105469,0.0,-72.0,-2.0370635986328125,8.087158203125E-4,Closing,0.0,0.0,-1.0,0.0,0.0,0.0,0.0,0.0,
2.590518,0.0,0.0,-1750.0,0.375,855.0,828.2584931593411,0.0,0.25,0.836181555,4.922822105288472,0.0,3787.0,1.875,-825.0,-851.8593469343501,0.0,0.25,0.545654241,4.9545437609937935,0.0,-1363.0,1.75,840.0,828.2584931593411,0.0,0.0,3.330077784,0.01,0.0,7930.0,2.25,-780.0,-851.8593469343501,0.0,0.125,1.621093584,0.01,0.0,0.5400000214576721,0.20999999344348907,-56.38999938964844,-0.027099609375,0.1014404296875,0.884765625,36.83000183105469,0.0,-94.0,-2.03692626953125,-0.002838134765625,Closing,0.0,0.0,-1.0,0.0,0.0,0.0,0.0,0.0,
2.6596720000000023,0.0,0.0,-1613.0,0.375,855.0,824.3717159676473,0.0,0.25,0.8532713970000001,4.919619624770787,0.0,3787.0,2.125,-817.5,-855.8378039748868,0.0,0.25,0.544433538,4.951525321668985,0.0,-1363.0,1.5,847.5,824.3717159676473,0.0,0.0,3.330077784,0.012652244620641325,0.0,7930.0,2.5,-787.5,-855.8378039748868,0.0,0.125,1.619872881,0.012230444836319049,0.0,0.5400000214576721,0.10000000149011612,-56.7599983215332,7.9345703125E-4,0.01080322265625,1.0208740234375,36.83000183105469,0.0,-1.0,-2.0362701416015625,-0.009979248046875,Closing,0.0,0.0,-1.0,0.0,0.0,0.0,0.0,0.0,
2.730697,0.0,0.0,-1613.0,0.375,840.0,820.498788990151,0.0,0.25,0.837402258,4.916386857259892,0.0,3654.0,2.375,-817.5,-859.8286390413476,0.0,0.25,0.531005805,4.948534858779277,-0.009765623999999917,-1226.0,1.375,847.5,820.498788990151,0.0,0.0,3.330077784,0.015890353267348882,0.0012207029999995456,7804.0,2.625,-795.0,-859.8286390413476,0.0,0.125,1.621093584,0.015217431543433598,-0.0012207029999995456,0.4699999988079071,0.18000000715255737,-57.029998779296875,-0.06597900390625,-0.0145263671875,0.9129638671875,36.810001373291016,0.0,-18.0,-2.03546142578125,-0.0181121826171875,Closing,0.0,0.0,-1.0,0.0,0.0,0.0,0.0,0.0,
2.792547000000002,0.0,0.0,-1481.0,0.375,825.0,816.6399092814195,0.0,0.25,0.834960852,4.913123482284813,0.0,3654.0,2.375,-825.0,-863.8316805772031,0.0,0.25,0.52490229,4.945572069688135,0.0,-1226.0,1.375,847.5,816.6399092814195,0.0,0.0,3.330077784,0.019159119947487136,0.0,7674.0,2.875,-802.5,-863.8316805772031,0.0,0.125,1.621093584,0.0181767766206387,0.0,0.49000000953674316,0.14000000059604645,-57.220001220703125,0.1295166015625,0.02978515625,1.07086181640625,36.810001373291016,0.0,51.0,-2.03448486328125,-0.0255889892578125,Closing,0.0,0.0,-1.0,0.0,0.0,0.0,0.0,0.0,
2.8547340000000005,0.0,0.0,-1481.0,0.375,825.0,811.8363687098858,0.0,0.25,0.836181555,4.909000730590063,0.0,3523.0,2.375,-832.5,-868.8523907678862,0.0,0.25,0.520019478,4.941907042542296,-0.004882811999999959,-1089.0,1.125,862.5,811.8363687098858,0.0,0.0,3.337402002,0.023288683198169,0.0,7674.0,3.0,-825.0,-868.8523907678862,0.0,0.125,1.621093584,0.021837543454933127,0.0,0.5099999904632568,0.10000000149011612,-57.41999816894531,0.00396728515625,0.01300048828125,1.00665283203125,36.810001373291016,0.0,-2.0,-2.03326416015625,-0.0331573486328125,Closing,0.0,0.0,-1.0,0.0,0.0,0.0,0.0,0.0,
2.944193000000003,0.0,0.0,-1349.0,0.375,825.0,808.0098315425466,0.0,0.25,0.850829991,4.905667307575409,0.0,3387.0,2.375,-847.5,-872.8822832482687,0.0,0.25,0.5151366660000001,4.9390054257894365,0.0,-950.0,0.875,855.0,808.0098315425466,0.0,0.0,3.350829735,0.02662761365032922,0.0,7537.0,2.875,-847.5,-872.8822832482687,0.0,0.25,1.614990069,0.02473578730198517,0.0,0.4399999976158142,0.03999999910593033,-57.689998626708984,-0.01947021484375,0.10308837890625,1.00372314453125,36.810001373291016,0.0,-91.0,-2.03326416015625,-0.0469207763671875,Closing,0.0,0.0,-1.0,0.0,0.0,0.0,0.0,0.0,
3.0556870000000016,0.0,0.0,-1214.0,0.375,840.0,804.1980031240909,0.0,0.25,0.808105386,4.902302223130643,0.0,3249.0,2.375,-855.0,-876.9238427163159,0.0,0.25,0.510253854,4.936130516445952,0.0,-816.0,0.875,840.0,804.1980031240909,0.0,0.0,3.355712547,0.029998257843197935,0.0,7403.0,3.0,-840.0,-876.9238427163159,0.0,0.25,1.622314287,0.027607354784966256,0.0,0.4399999976158142,0.0,-57.75,-0.1036376953125,0.060302734375,1.07037353515625,36.810001373291016,0.0,-99.0,-2.033447265625,-0.0588226318359375,Closing,0.0,0.0,-1.0,0.0,0.0,0.0,0.0,0.0,
3.1309910000000016,0.0,0.0,-1082.0,0.375,832.5,794.7341697674308,0.0,0.25,0.808105386,4.893748838569037,0.0,3249.0,2.25,-862.5,-887.0777368315573,0.0,0.25,0.511474557,4.929058178509405,0.0,-816.0,0.875,832.5,794.7341697674308,0.0,0.0,3.3679195770000003,0.038565774193878986,-4.930634376,7403.0,2.625,-870.0,-887.0777368315573,0.0,0.25,1.621093584,0.03467147167382245,0.0,0.41999998688697815,-0.009999999776482582,-57.68000030517578,0.08837890625,-0.0257568359375,1.0013427734375,36.810001373291016,0.0,75.0,-2.0335693359375,-0.06939697265625,Closing,0.0,0.0,-1.0,0.0,0.0,0.0,0.0,0.0,
3.1914310000000006,0.0,0.0,-1082.0,0.375,810.0,789.1020277291261,0.0,0.25,0.8032225740000001,4.888518693931612,-0.009765623999999917,3109.0,2.25,-870.0,-893.2035761722557,0.0,0.25,0.510253854,4.924892153318063,0.0,-685.0,0.875,817.5,789.1020277291261,0.0,0.0,3.3679195770000003,0.043804560007239084,0.0,7261.0,2.5,-885.0,-893.2035761722557,0.0,0.25,1.621093584,0.03883265418201205,0.0,0.3499999940395355,-0.019999999552965164,-57.58000183105469,-0.0250244140625,-0.04742431640625,0.8896484375,36.810001373291016,0.0,31.0,-2.0335235595703125,-0.07781982421875,Closing,0.0,0.0,-1.0,0.0,0.0,0.0,0.0,0.0,
3.252214,0.0,0.0,-950.0,0.125,817.5,784.4356860974851,0.0,0.25,0.8032225740000001,4.884103029378567,-0.0012207029999995456,3109.0,2.25,-885.0,-898.3271789216154,0.0,0.25,0.511474557,4.9214639455379725,0.0,-685.0,0.875,810.0,784.4356860974851,0.0,0.0,3.3764644980000003,0.04822752006297515,0.0,7261.0,2.875,-885.0,-898.3271789216154,0.0,0.25,1.622314287,0.04225687693481651,0.0,0.38999998569488525,0.0,-57.400001525878906,0.0499267578125,0.0074462890625,0.8226318359375,36.779998779296875,0.0,25.0,-2.0335693359375,-0.0890350341796875,Closing,0.0,0.0,-1.0,0.0,0.0,0.0,0.0,0.0,
3.329086000000003,0.0,0.0,-950.0,0.125,825.0,779.7944620432814,0.0,0.25,0.797119059,4.879634659233015,0.0,2966.0,2.125,-885.0,-903.4675059152678,0.0,0.25,0.505371042,4.918074684483345,0.0,-554.0,0.75,810.0,779.7944620432814,0.0,0.0,3.3728023890000003,0.05270327279070184,0.004882811999999959,7118.0,2.5,-892.5,-903.4675059152678,0.0,0.25,1.6345213170000001,0.045642198234723645,0.009765623999999917,0.3400000035762787,-0.009999999776482582,-57.209999084472656,-0.010498046875,-0.07666015625,0.57080078125,36.779998779296875,0.0,61.0,-2.0340576171875,-0.100189208984375,Closing,0.0,0.0,-1.0,0.0,0.0,0.0,0.0,0.0,
3.392795000000002,0.0,0.0,-818.0,0.125,817.5,774.2587841953502,0.0,0.25,0.798339762,4.874202122015458,-0.003662109000000413,2966.0,2.25,-885.0,-909.657575051988,0.0,0.25,0.5029296360000001,4.914058224863495,0.0,-554.0,0.75,795.0,774.2587841953502,0.0,0.0,3.383788716,0.05814478557454523,0.0,6974.0,2.625,-900.0,-909.657575051988,0.0,0.25,1.650390456,0.049653989029869054,0.0,0.2800000011920929,-0.07999999821186066,-57.0099983215332,0.07275390625,-0.03643798828125,0.69683837890625,36.779998779296875,0.0,73.0,-2.03436279296875,-0.110107421875,Closing,0.0,0.0,-1.0,0.0,0.0,0.0,0.0,0.0,
3.4884370000000016,0.0,0.0,-691.0,0.125,787.5,768.7607211522018,0.0,0.25,0.798339762,4.868691612310443,0.0024414059999999793,2823.0,2.5,-892.5,-915.8708386375624,0.0,0.25,0.48706049700000004,4.910096159273324,-0.014648435999999876,-426.0,0.75,810.0,768.7607211522018,0.0,0.0,3.391112934,0.06366439967095935,0.009765623999999917,6974.0,3.125,-870.0,-915.8708386375624,0.0,0.125,1.6589353770000002,0.05361144902420231,0.013427733000000108,0.23000000417232513,-0.12999999523162842,-56.529998779296875,-0.0570068359375,0.00146484375,1.19964599609375,36.779998779296875,0.0,-26.0,-2.0350189208984375,-0.1277313232421875,Closing,0.0,0.0,-1.0,0.0,0.0,0.0,0.0,0.0,
3.5426630000000006,0.0,0.0,-691.0,0.125,780.0,761.4898897590007,0.0,0.25,0.794677653,4.861221012084912,0.0,2678.0,2.5,-892.5,-924.1904615380697,0.0,0.25,0.482177685,4.904896460668214,0.0,-299.0,0.75,802.5,761.4898897590007,0.0,0.0,3.39355434,0.0711473427235758,0.0,6834.0,1.25,-877.5,-924.1904615380697,0.0,0.125,1.665038892,0.058805103380494515,0.0,0.27000001072883606,-0.8799999952316284,-56.47999954223633,-1.536865234375,0.21600341796875,0.5714111328125,36.779998779296875,0.0,-1021.0,-2.0365142822265625,-0.1400146484375,Closing,0.0,0.0,-1.0,0.0,0.0,0.0,0.0,0.0,
