Time,ClimberA1,ClimberA2,FRpos,FRCurrent,FRspeed,FRsetpoint,FRApos,FRACurrent,FREncpos,FREncSetpoint,FREncSpeed,FLpos,FLCurrent,FLspeed,FLsetpoint,FLApos,FLACurrent,FLEncpos,FLEncSetpoint,FLEncSpeed,BRpos,BRCurrent,BRspeed,BRsetpoint,BRApos,BRACurrent,BREncpos,BREncSetpoint,BREncSpeed,BLpos,BLCurrent,BLspeed,BLsetpoint,BLApos,BLACurrent,BLEncpos,BLEncSetpoint,BLEncSpeed,navx_Pitch,navx_Roll,navx_Yaw,navx_XAcc,navx_YAcc,navx_ZAcc,navx_Temp,navx_Bar,navx_Alt,navx_XDis,navx_YDis,GearPlacerState,ShootOutputV,ShootOutputCurrent,ShootEncPos,ShootEncVelocity,ShootSpeed,ShootSetpoint,CarouselSetpoint,CarouselCurrent,
0.24734999999999854,0.0,0.0,-2278.0,0.0,0.0,0.0,0.0,0.125,0.794677653,0.01,0.0,8524.0,0.0,0.0,0.0,0.0,0.125,0.511474557,0.01,0.0,-765.0,0.0,0.0,0.0,0.0,0.0,3.3728023890000003,0.01,0.0,8394.0,0.0,0.0,0.0,0.0,0.125,1.619872881,0.01,0.0,0.1899999976158142,-0.800000011920929,-33.400001525878906,-0.01544189453125,0.00775146484375,1.0196533203125,36.470001220703125,0.0,-3.0,-1.434234619140625,0.095977783203125,Waiting,0.0,0.0,-2.0,0.0,0.0,0.0,0.0,0.0,
0.3718080000000009,0.0,0.0,-2278.0,0.0,0.0,0.0,0.0,0.125,0.794677653,0.01,4.91570795,8524.0,0.0,0.0,-0.0,0.0,0.0,0.511474557,0.01,0.004023854000000604,-765.0,0.0,0.0,0.0,0.0,0.0,3.3728023890000003,0.01,0.0228023890000002,8394.0,0.0,0.0,-0.0,0.0,0.125,1.619872881,0.01,0.0,0.1899999976158142,-0.800000011920929,-33.400001525878906,-0.01361083984375,0.004150390625,1.017822265625,36.470001220703125,0.0,0.0,-1.434234619140625,0.095977783203125,Closing,0.0,0.0,-2.0,0.0,0.0,0.0,0.0,0.0,
0.4814120000000003,0.0,0.0,-2278.0,0.0,0.0,0.0,0.0,0.125,0.794677653,0.01,0.0,8524.0,0.0,0.0,-0.0,0.0,0.0,0.510253854,0.01,0.0,-765.0,0.0,0.0,0.0,0.0,0.0,3.3740230920000003,0.01,0.0,8394.0,0.0,0.0,-0.0,0.0,0.125,1.619872881,0.01,0.0,0.1899999976158142,-0.8100000023841858,-33.400001525878906,-0.01593017578125,0.00262451171875,1.01654052734375,36.45000076293945,0.0,0.0,-1.434234619140625,0.095977783203125,Closing,0.0,0.0,-2.0,0.0,0.0,0.0,0.0,0.0,
0.5481719999999987,0.0,0.0,-2278.0,0.0,0.0,0.0,0.0,0.125,0.794677653,0.01,0.0,8524.0,0.0,0.0,-0.0,0.0,0.0,0.511474557,0.01,0.0,-765.0,0.0,0.0,0.0,0.0,0.0,3.3728023890000003,0.01,0.0,8394.0,0.0,0.0,-0.0,0.0,0.125,1.619872881,0.01,0.0,0.1899999976158142,-0.8100000023841858,-33.400001525878906,-0.01641845703125,0.004638671875,1.0194091796875,36.45000076293945,0.0,-2.0,-1.434234619140625,0.095977783203125,Closing,0.0,0.0,-2.0,0.0,0.0,0.0,0.0,0.0,
0.6156640000000007,0.0,0.0,-2278.0,0.0,0.0,0.0,0.0,0.125,0.794677653,0.01,0.0,8524.0,0.0,0.0,-0.0,0.0,0.0,0.511474557,0.01,0.0,-765.0,0.0,0.0,0.0,0.0,0.0,3.3740230920000003,0.01,0.0,8394.0,0.0,0.0,-0.0,0.0,0.125,1.619872881,0.01,0.0,0.1899999976158142,-0.800000011920929,-33.400001525878906,-0.01593017578125,0.003662109375,1.014892578125,36.45000076293945,0.0,-1.0,-1.434234619140625,0.095977783203125,Closing,0.0,0.0,-2.0,0.0,0.0,0.0,0.0,0.0,
0.6825960000000013,0.0,0.0,-2278.0,0.0,0.0,0.0,0.0,0.125,0.799560465,0.01,0.0,8524.0,0.0,0.0,-0.0,0.0,0.0,0.511474557,0.01,0.0,-765.0,0.0,0.0,0.0,0.0,0.0,3.3728023890000003,0.01,0.0,8394.0,0.0,0.0,-0.0,0.0,0.125,1.619872881,0.01,0.0,0.1899999976158142,-0.800000011920929,-33.400001525878906,-0.0135498046875,0.00445556640625,1.02264404296875,36.45000076293945,0.0,0.0,-1.434234619140625,0.095977783203125,Closing,0.0,0.0,-2.0,0.0,0.0,0.0,0.0,0.0,
0.7735119999999988,0.0,0.0,-2278.0,0.0,0.0,0.0,0.0,0.125,0.794677653,0.01,0.0,8524.0,0.0,0.0,-0.0,0.0,0.0,0.509033151,0.01,0.0,-765.0,0.0,0.0,0.0,0.0,0.0,3.3740230920000003,0.01,0.0,8394.0,0.0,0.0,-0.0,0.0,0.125,1.621093584,0.01,0.0,0.1899999976158142,-0.8100000023841858,-33.400001525878906,-0.01580810546875,0.0048828125,1.0206298828125,36.45000076293945,0.0,-1.0,-1.434234619140625,0.095977783203125,Closing,0.0,0.0,-2.0,0.0,0.0,0.0,0.0,0.0,
0.8714860000000008,0.0,0.0,-2278.0,0.0,0.0,0.0,0.0,0.125,0.794677653,0.01,0.0,8524.0,0.0,0.0,-0.0,0.0,0.0,0.511474557,0.01,0.0,-765.0,0.0,0.0,0.0,0.0,0.0,3.3728023890000003,0.01,0.0,8394.0,0.0,0.0,-0.0,0.0,0.125,1.619872881,0.01,0.0,0.1899999976158142,-0.8100000023841858,-33.38999938964844,-0.0120849609375,0.00372314453125,1.02239990234375,36.45000076293945,0.0,1.0,-1.434234619140625,0.095977783203125,Closing,0.0,0.0,-2.0,0.0,0.0,0.0,0.0,0.0,
0.9427809999999991,0.0,0.0,-2278.0,0.0,0.0,0.0,0.0,0.125,0.79345695,0.01,0.0,8524.0,0.0,0.0,-0.0,0.0,0.0,0.511474557,0.01,0.0,-765.0,0.0,0.0,0.0,0.0,0.0,3.3728023890000003,0.01,0.0,8394.0,0.0,0.0,-0.0,0.0,0.125,1.619872881,0.01,0.0,0.1899999976158142,-0.800000011920929,-33.400001525878906,-0.01678466796875,0.0018310546875,1.021728515625,36.5,0.0,2.0,-1.434234619140625,0.095977783203125,Closing,0.0,0.0,-2.0,0.0,0.0,0.0,0.0,0.0,
1.0132340000000004,0.0,0.0,-2278.0,0.0,0.0,0.0,0.0,0.125,0.794677653,0.01,0.0,8524.0,0.0,0.0,-0.0,0.0,0.0,0.510253854,0.01,0.0,-765.0,0.0,0.0,0.0,0.0,0.0,3.3715816860000003,0.01,0.0,8394.0,0.0,0.0,-0.0,0.0,0.125,1.619872881,0.01,0.0,0.1899999976158142,-0.8100000023841858,-33.38999938964844,-0.0130615234375,0.00390625,1.01971435546875,36.5,0.0,0.0,-1.434234619140625,0.095977783203125,Closing,0.0,0.0,-2.0,0.0,0.0,0.0,0.0,0.0,
1.0792619999999988,0.0,0.0,-2278.0,0.0,0.0,0.0,0.0,0.125,0.794677653,0.01,0.0,8524.0,0.0,0.0,-0.0,0.0,0.0,0.511474557,0.01,0.0,-765.0,0.0,0.0,0.0,0.0,0.0,3.3728023890000003,0.01,0.0,8394.0,0.0,0.0,-0.0,0.0,0.125,1.619872881,0.01,0.0,0.1899999976158142,-0.800000011920929,-33.38999938964844,-0.01318359375,0.00372314453125,1.015869140625,36.5,0.0,0.0,-1.434234619140625,0.095977783203125,Closing,0.0,0.0,-2.0,0.0,0.0,0.0,0.0,0.0,
1.1462789999999987,0.0,0.0,-2278.0,0.0,0.0,0.0,0.0,0.125,0.794677653,0.01,0.0,8524.0,0.0,0.0,-0.0,0.0,0.0,0.511474557,0.01,0.0,-765.0,0.0,0.0,0.0,0.0,0.0,3.3740230920000003,0.01,0.0,8394.0,0.0,0.0,-0.0,0.0,0.125,1.619872881,0.01,0.0,0.1899999976158142,-0.800000011920929,-33.400001525878906,-0.01409912109375,0.00341796875,1.01715087890625,36.5,0.0,0.0,-1.434234619140625,0.095977783203125,Closing,0.0,0.0,-2.0,0.0,0.0,0.0,0.0,0.0,
1.198846999999998,0.0,0.0,-2278.0,0.0,0.0,0.0,0.0,0.125,0.794677653,0.01,0.0,8524.0,0.0,0.0,-0.0,0.0,0.0,0.511474557,0.01,0.0,-765.0,0.0,0.0,0.0,0.0,0.0,3.3728023890000003,0.01,0.0,8394.0,0.0,0.0,-0.0,0.0,0.125,1.619872881,0.01,0.0,0.1899999976158142,-0.800000011920929,-33.400001525878906,-0.0137939453125,0.00604248046875,1.02197265625,36.5,0.0,0.0,-1.434234619140625,0.095977783203125,Closing,0.0,0.0,-2.0,0.0,0.0,0.0,0.0,0.0,
1.2789629999999996,0.0,0.0,-2278.0,0.0,0.0,0.0,0.0,0.125,0.794677653,0.01,0.0,8524.0,0.0,0.0,-0.0,0.0,0.0,0.511474557,0.01,0.0,-765.0,0.0,0.0,0.0,0.0,0.0,3.3728023890000003,0.01,0.0,8394.0,0.0,0.0,-0.0,0.0,0.125,1.619872881,0.01,0.0,0.1899999976158142,-0.7900000214576721,-33.400001525878906,-0.01531982421875,0.00177001953125,1.02069091796875,36.5,0.0,0.0,-1.434234619140625,0.095977783203125,Closing,0.0,0.0,-2.0,0.0,0.0,0.0,0.0,0.0,
1.3296219999999994,0.0,0.0,-2278.0,0.0,0.0,0.0,0.0,0.125,0.794677653,0.01,0.0,8524.0,0.0,0.0,-0.0,0.0,0.0,0.511474557,0.01,0.0,-765.0,0.0,0.0,0.0,0.0,0.0,3.3728023890000003,0.01,0.0,8394.0,0.0,0.0,-0.0,0.0,0.125,1.619872881,0.01,0.0,0.20000000298023224,-0.7900000214576721,-33.400001525878906,-0.017822265625,0.00469970703125,1.02166748046875,36.5,0.0,-3.0,-1.434234619140625,0.095977783203125,Closing,0.0,0.0,-2.0,0.0,0.0,0.0,0.0,0.0,
1.4158019999999998,0.0,0.0,-2278.0,0.0,0.0,0.0,0.0,0.125,0.79345695,0.01,0.0,8524.0,0.0,0.0,-0.0,0.0,0.0,0.511474557,0.01,0.0,-765.0,0.0,0.0,0.0,0.0,0.0,3.3740230920000003,0.01,-0.0012207029999999897,8394.0,0.0,0.0,-0.0,0.0,0.125,1.619872881,0.01,0.0,0.1899999976158142,-0.800000011920929,-33.400001525878906,-0.0147705078125,0.00555419921875,1.0186767578125,36.5,0.0,-1.0,-1.434234619140625,0.095977783203125,Closing,0.0,0.0,-2.0,0.0,0.0,0.0,0.0,0.0,
1.483053,0.0,0.0,-2278.0,0.0,0.0,0.0,0.0,0.125,0.794677653,0.01,0.0,8524.0,0.0,0.0,-0.0,0.0,0.0,0.511474557,0.01,0.0,-765.0,0.0,0.0,0.0,0.0,0.0,3.3728023890000003,0.01,0.0012207029999999897,8394.0,0.0,0.0,-0.0,0.0,0.125,1.619872881,0.01,0.0,0.20000000298023224,-0.800000011920929,-33.400001525878906,-0.015625,0.00738525390625,1.01763916015625,36.470001220703125,0.0,-3.0,-1.434234619140625,0.095977783203125,Closing,0.0,0.0,-2.0,0.0,0.0,0.0,0.0,0.0,
1.5448050000000002,0.0,0.0,-2278.0,0.0,0.0,0.0,0.0,0.125,0.794677653,0.01,0.0,8524.0,0.0,0.0,-0.0,0.0,0.0,0.511474557,0.01,0.0,-765.0,0.0,0.0,0.0,0.0,0.0,3.3728023890000003,0.01,0.0,8394.0,0.0,0.0,-0.0,0.0,0.125,1.619872881,0.01,0.0,0.20000000298023224,-0.800000011920929,-33.400001525878906,-0.01324462890625,0.00286865234375,1.01373291015625,36.470001220703125,0.0,1.0,-1.434234619140625,0.095977783203125,Closing,0.0,0.0,-2.0,0.0,0.0,0.0,0.0,0.0,
1.678058000000001,0.0,0.0,-2278.0,0.0,0.0,0.0,0.0,0.125,0.794677653,0.01,0.0,8524.0,0.0,0.0,-0.0,0.0,0.0,0.511474557,0.01,0.0,-765.0,0.0,0.0,0.0,0.0,0.0,3.3728023890000003,0.01,0.0,8394.0,0.0,0.0,-0.0,0.0,0.125,1.619872881,0.01,0.0,0.1899999976158142,-0.800000011920929,-33.38999938964844,-0.01556396484375,0.0028076171875,1.01763916015625,36.470001220703125,0.0,0.0,-1.434234619140625,0.095977783203125,Closing,0.0,0.0,-2.0,0.0,0.0,0.0,0.0,0.0,
1.743816999999999,0.0,0.0,-2278.0,0.0,0.0,0.0,0.0,0.125,0.794677653,0.01,0.0,8524.0,0.0,0.0,-0.0,0.0,0.0,0.511474557,0.01,0.0,-765.0,0.0,0.0,0.0,0.0,0.0,3.3728023890000003,0.01,0.0,8394.0,0.0,0.0,-0.0,0.0,0.125,1.619872881,0.01,0.0,0.1899999976158142,-0.800000011920929,-33.38999938964844,-0.01617431640625,7.32421875E-4,1.017578125,36.470001220703125,0.0,0.0,-1.434234619140625,0.095977783203125,Closing,0.0,0.0,-2.0,0.0,0.0,0.0,0.0,0.0,
1.8133270000000012,0.0,0.0,-2278.0,0.0,0.0,0.0,0.0,0.125,0.794677653,0.01,0.0,8524.0,0.0,0.0,-0.0,0.0,0.0,0.511474557,0.01,0.0,-765.0,0.0,0.0,0.0,0.0,0.0,3.3728023890000003,0.01,0.0,8394.0,0.0,0.0,-0.0,0.0,0.125,1.619872881,0.01,0.0,0.1899999976158142,-0.8100000023841858,-33.400001525878906,-0.01470947265625,0.001220703125,1.01971435546875,36.470001220703125,0.0,1.0,-1.434234619140625,0.095977783203125,Closing,0.0,0.0,-2.0,0.0,0.0,0.0,0.0,0.0,
1.8678420000000004,0.0,0.0,-2278.0,0.0,0.0,0.0,0.0,0.125,0.794677653,0.01,0.0,8524.0,0.0,0.0,-0.0,0.0,0.0,0.511474557,0.01,0.0,-765.0,0.0,0.0,0.0,0.0,0.0,3.3740230920000003,0.01,0.0,8394.0,0.0,0.0,-0.0,0.0,0.125,1.619872881,0.01,0.0,0.1899999976158142,-0.800000011920929,-33.38999938964844,-0.01171875,0.00372314453125,1.0146484375,36.470001220703125,0.0,2.0,-1.434234619140625,0.095977783203125,Closing,0.0,0.0,-2.0,0.0,0.0,0.0,0.0,0.0,
1.9302959999999985,0.0,0.0,-2278.0,0.0,0.0,0.0,0.0,0.125,0.794677653,0.01,0.0,8524.0,0.0,0.0,-0.0,0.0,0.0,0.511474557,0.01,0.0,-765.0,0.0,0.0,0.0,0.0,0.0,3.3728023890000003,0.01,0.0,8394.0,0.0,0.0,-0.0,0.0,0.125,1.621093584,0.01,0.0,0.1899999976158142,-0.800000011920929,-33.38999938964844,-0.0130615234375,0.001220703125,1.01959228515625,36.470001220703125,0.0,2.0,-1.434234619140625,0.095977783203125,Closing,0.0,0.0,-2.0,0.0,0.0,0.0,0.0,0.0,
1.9986310000000012,0.0,0.0,-2278.0,0.0,0.0,0.0,0.0,0.125,0.794677653,0.01,0.0,8524.0,0.0,0.0,-0.0,0.0,0.0,0.511474557,0.01,0.0,-765.0,0.0,0.0,0.0,0.0,0.0,3.3728023890000003,0.01,0.0,8394.0,0.0,0.0,-0.0,0.0,0.125,1.619872881,0.01,0.0,0.1899999976158142,-0.7900000214576721,-33.38999938964844,-0.01556396484375,0.00360107421875,1.01739501953125,36.5,0.0,-1.0,-1.434234619140625,0.095977783203125,Closing,0.0,0.0,-2.0,0.0,0.0,0.0,0.0,0.0,
2.079911,0.0,0.0,-2278.0,0.0,0.0,0.0,0.0,0.125,0.79345695,0.01,0.0,8524.0,0.0,0.0,-0.0,0.0,0.0,0.511474557,0.01,0.0,-765.0,0.0,0.0,0.0,0.0,0.0,3.3728023890000003,0.01,0.0,8394.0,0.0,0.0,-0.0,0.0,0.125,1.621093584,0.01,0.0,0.1899999976158142,-0.7900000214576721,-33.38999938964844,-0.016845703125,0.00653076171875,1.017333984375,36.5,0.0,-3.0,-1.434234619140625,0.095977783203125,Closing,0.0,0.0,-2.0,0.0,0.0,0.0,0.0,0.0,
2.1455560000000005,0.0,0.0,-2278.0,0.0,0.0,0.0,0.0,0.125,0.794677653,0.01,0.0,8524.0,0.0,0.0,-0.0,0.0,0.0,0.511474557,0.01,0.0,-765.0,0.0,0.0,0.0,0.0,0.0,3.3728023890000003,0.01,0.0,8394.0,0.0,0.0,-0.0,0.0,0.125,1.619872881,0.01,0.0,0.1899999976158142,-0.7900000214576721,-33.38999938964844,-0.01531982421875,0.002197265625,1.01739501953125,36.5,0.0,0.0,-1.434234619140625,0.095977783203125,Closing,0.0,0.0,-2.0,0.0,0.0,0.0,0.0,0.0,
2.2146179999999984,0.0,0.0,-2278.0,0.0,0.0,0.0,0.0,0.125,0.794677653,0.01,0.0,8524.0,0.0,0.0,-0.0,0.0,0.0,0.511474557,0.01,0.0,-765.0,0.0,0.0,0.0,0.0,0.0,3.3740230920000003,0.01,0.0,8394.0,0.0,0.0,-0.0,0.0,0.125,1.619872881,0.01,0.0,0.1899999976158142,-0.800000011920929,-33.38999938964844,-0.0125732421875,0.00469970703125,1.01611328125,36.5,0.0,0.0,-1.434234619140625,0.095977783203125,Closing,0.0,0.0,-2.0,0.0,0.0,0.0,0.0,0.0,
2.2808019999999996,0.0,0.0,-2278.0,0.0,0.0,0.0,0.0,0.125,0.794677653,0.01,0.0,8524.0,0.0,0.0,-0.0,0.0,0.0,0.511474557,0.01,0.0,-765.0,0.0,0.0,0.0,0.0,0.0,3.3728023890000003,0.01,0.0,8394.0,0.0,0.0,-0.0,0.0,0.125,1.619872881,0.01,0.0,0.1899999976158142,-0.800000011920929,-33.38999938964844,-0.01263427734375,0.00286865234375,1.02093505859375,36.5,0.0,1.0,-1.434234619140625,0.095977783203125,Closing,0.0,0.0,-2.0,0.0,0.0,0.0,0.0,0.0,
2.344151999999998,0.0,0.0,-2278.0,0.0,0.0,0.0,0.0,0.125,0.794677653,0.01,0.0,8524.0,0.0,0.0,-0.0,0.0,0.0,0.511474557,0.01,0.0,-765.0,0.0,0.0,0.0,0.0,0.0,3.3740230920000003,0.01,0.0,8394.0,0.0,0.0,-0.0,0.0,0.125,1.619872881,0.01,0.0,0.1899999976158142,-0.800000011920929,-33.38999938964844,-0.01531982421875,0.00689697265625,1.02606201171875,36.5,0.0,-2.0,-1.434234619140625,0.095977783203125,Closing,0.0,0.0,-2.0,0.0,0.0,0.0,0.0,0.0,
2.4156460000000006,0.0,0.0,-2278.0,0.0,0.0,0.0,0.0,0.125,0.794677653,0.01,0.0,8524.0,0.0,0.0,-0.0,0.0,0.0,0.511474557,0.01,0.0,-765.0,0.0,0.0,0.0,0.0,0.0,3.3728023890000003,0.01,0.0,8394.0,0.0,0.0,-0.0,0.0,0.125,1.619872881,0.01,0.0,0.1899999976158142,-0.800000011920929,-33.38999938964844,-0.01373291015625,0.00396728515625,1.02069091796875,36.5,0.0,0.0,-1.434234619140625,0.095977783203125,Closing,0.0,0.0,-2.0,0.0,0.0,0.0,0.0,0.0,
2.481794999999998,0.0,0.0,-2278.0,0.0,0.0,0.0,0.0,0.125,0.79345695,0.01,0.0,8524.0,0.0,0.0,-0.0,0.0,0.0,0.510253854,0.01,0.0,-765.0,0.0,0.0,0.0,0.0,0.0,3.3740230920000003,0.01,0.0,8394.0,0.0,0.0,-0.0,0.0,0.125,1.619872881,0.01,0.0,0.1899999976158142,-0.800000011920929,-33.38999938964844,-0.01416015625,0.00244140625,1.02093505859375,36.470001220703125,0.0,0.0,-1.434234619140625,0.095977783203125,Closing,0.0,0.0,-2.0,0.0,0.0,0.0,0.0,0.0,
2.549690999999999,0.0,0.0,-2278.0,0.125,0.0,-337.32282400131226,0.0,1.25,0.701904225,4.474784728112245,0.0,8528.0,0.375,15.0,337.32282400131226,0.0,1.5,0.405273396,4.503380340915682,0.0,-766.0,0.125,0.0,-337.32282400131226,0.0,1.375,3.2617184160000003,4.482177908376061,0.0,8394.0,0.375,0.0,337.32282400131226,0.0,1.5,1.4794920360000001,4.4981455084059,0.0,0.20999999344348907,-0.800000011920929,-33.38999938964844,0.00726318359375,0.003173828125,1.016845703125,36.470001220703125,0.0,-56.0,-1.4342498779296875,0.0959625244140625,Closing,0.0,0.0,-2.0,0.0,0.0,0.0,0.0,0.0,
2.6144979999999998,0.0,0.0,-2284.0,2.25,-37.5,-932.5984311103821,0.0,0.625,0.506591745,4.4746476918721765,0.0,8528.0,4.25,90.0,932.5984311103821,0.0,0.5,0.20141599500000001,4.503242428960803,0.0,-766.0,3.75,-52.5,-932.5984311103821,0.0,0.625,3.071288748,4.482040645726525,0.0,8394.0,2.5,45.0,932.5984311103821,0.0,0.625,1.274413932,4.498007756763037,0.0,0.20000000298023224,-1.0700000524520874,-33.38999938964844,-0.39764404296875,0.027099609375,0.9141845703125,36.470001220703125,0.0,-330.0,-1.43511962890625,0.095306396484375,Closing,0.0,0.0,-2.0,0.0,0.0,0.0,0.0,0.0,
2.680489999999998,0.0,0.0,-2284.0,6.375,-120.0,-1091.3385879993439,0.0,0.375,0.385742148,4.474784728112245,0.0,8557.0,10.375,180.0,1091.3385879993439,0.0,0.25,0.051269526,4.503380340915682,0.0,-788.0,6.625,-127.5,-1091.3385879993439,0.0,0.25,2.934570012,4.482177908376061,0.0,8419.0,4.75,202.5,1091.3385879993439,0.0,0.25,1.142578008,4.4981455084059,0.0,0.49000000953674316,-1.840000033378601,-33.34000015258789,-0.09368896484375,0.22821044921875,1.02362060546875,36.470001220703125,0.0,-171.0,-1.4409332275390625,0.0919952392578125,Closing,0.0,0.0,-2.0,0.0,0.0,0.0,0.0,0.0,
2.746066999999999,0.0,0.0,-2325.0,8.125,-255.0,-1091.3385879993439,0.0,0.25,0.357665979,4.475332768544496,0.0,8557.0,11.75,397.5,1091.3385879993439,0.0,0.0,4.957274883,4.503931883539202,0.0,-788.0,9.0,-232.5,-1091.3385879993439,0.0,0.125,2.886962595,4.482726854273481,0.0,8419.0,5.75,300.0,1091.3385879993439,0.0,0.125,1.07421864,4.498696409903634,0.0,1.2899999618530273,-2.25,-33.380001068115234,-0.14068603515625,0.2022705078125,1.103515625,36.470001220703125,0.0,-178.0,-1.4557952880859375,0.0907135009765625,Closing,0.0,0.0,-2.0,0.0,0.0,0.0,0.0,0.0,
2.8170319999999993,0.0,0.0,-2325.0,5.5,-540.0,-873.0709004402161,0.0,0.25,0.352783167,4.475469752520554,0.0,8651.0,8.75,592.5,873.0709004402161,0.0,0.0,4.946288556,4.504069742896084,0.0,-847.0,6.625,-457.5,-873.0709004402161,0.0,0.125,2.877196971,4.482864064572656,0.0,8489.0,5.0,517.5,873.0709004402161,0.0,0.25,1.0034178660000002,4.49883410900964,0.0,1.6799999475479126,-2.6500000953674316,-32.9900016784668,-0.001953125,0.0379638671875,1.125732421875,36.470001220703125,0.0,39.0,-1.477325439453125,0.0908203125,Closing,0.0,0.0,-2.0,0.0,0.0,0.0,0.0,0.0,
2.883203999999998,0.0,0.0,-2429.0,3.125,-705.0,-853.228315114975,0.0,0.125,0.360107385,4.480264975642727,0.0,8651.0,5.625,720.0,853.228315114975,0.0,0.25,4.940185041,4.508895609356883,0.0,-847.0,4.375,-652.5,-853.228315114975,0.0,0.0,2.885741892,4.487667210299177,0.0,8591.0,3.25,577.5,853.228315114975,0.0,0.375,1.042480362,4.503654365772674,0.0,1.7599999904632568,-2.799999952316284,-32.5099983215332,-0.14422607421875,-6.103515625E-4,0.943359375,36.470001220703125,0.0,-66.0,-1.4952239990234375,0.0905609130859375,Closing,0.0,0.0,-2.0,0.0,0.0,0.0,0.0,0.0,
2.9431569999999994,0.0,0.0,-2429.0,2.0,-787.5,-793.700784444809,0.0,0.125,0.357665979,4.486841356301724,0.0,8770.0,4.375,757.5,793.700784444809,0.0,0.25,4.940185041,4.515514015643123,0.0,-967.0,3.25,-825.0,-793.700784444809,0.0,0.0,2.885741892,4.4942544563674955,0.0,8591.0,2.625,727.5,793.700784444809,0.0,0.375,1.094970591,4.510265078671776,0.0,1.7899999618530273,-2.799999952316284,-32.060001373291016,-0.08172607421875,0.0423583984375,0.8861083984375,36.470001220703125,0.0,-40.0,-1.513885498046875,0.09039306640625,Closing,0.0,0.0,-2.0,0.0,0.0,0.0,0.0,0.0,
3.014379000000001,0.0,0.0,-2559.0,1.0,-825.0,-694.4881582260131,0.0,0.125,0.344238246,4.493006628240514,0.0,8903.0,2.5,817.5,694.4881582260131,0.0,0.25,4.940185041,4.521718686064722,0.0,-1110.0,1.25,-900.0,-694.4881582260131,0.0,0.0,2.88085908,4.5004299144872055,0.0,8717.0,1.25,810.0,694.4881582260131,0.0,0.25,1.156005741,4.516462536642289,0.0,1.6799999475479126,-2.8399999141693115,-31.75,-0.02239990234375,0.02117919921875,1.10235595703125,36.470001220703125,0.0,33.0,-1.5182342529296875,0.0904541015625,Closing,0.0,0.0,-2.0,0.0,0.0,0.0,0.0,0.0,
3.082120999999999,0.0,0.0,-2689.0,0.125,-817.5,0.0,0.0,0.25,0.345458949,4.493006628240514,-0.008544921000000372,8903.0,0.625,817.5,0.0,0.0,0.25,4.957274883,4.521718686064722,0.0,-1110.0,0.125,-870.0,0.0,0.0,0.0,2.862548535,4.5004299144872055,-0.007324217999999938,8717.0,0.125,765.0,0.0,0.0,0.25,1.181640504,4.516462536642289,0.05737304099999996,1.5299999713897705,-2.6500000953674316,-31.75,0.0406494140625,-0.1171875,1.00543212890625,36.470001220703125,0.0,149.0,-1.5168304443359375,0.0904388427734375,Closing,0.0,0.0,-2.0,0.0,0.0,0.0,0.0,0.0,
3.1431630000000004,0.0,0.0,-2689.0,0.0,-720.0,0.0,0.0,0.25,0.338134731,4.493006628240514,0.0,9000.0,0.0,645.0,0.0,0.0,0.25,0.026855466,4.521718686064722,0.01586913900000031,-1225.0,0.0,-757.5,0.0,0.0,0.0,2.862548535,4.5004299144872055,-0.017089841999999855,8838.0,0.0,750.0,0.0,0.0,0.125,1.181640504,4.516462536642289,0.021972654000000702,1.2799999713897705,-2.440000057220459,-31.860000610351562,0.10125732421875,0.01715087890625,0.9296875,36.470001220703125,0.0,121.0,-1.513427734375,0.0897216796875,Closing,0.0,0.0,-2.0,0.0,0.0,0.0,0.0,0.0,
3.2107829999999993,0.0,0.0,-2781.0,0.0,-555.0,0.0,0.0,0.25,0.339355434,4.493006628240514,0.0,9000.0,0.0,592.5,0.0,0.0,0.25,0.040283199000000006,4.521718686064722,0.0,-1225.0,0.0,-592.5,0.0,0.0,0.0,2.867431347,4.5004299144872055,0.0,8838.0,0.0,690.0,0.0,0.0,0.125,1.181640504,4.516462536642289,0.0,0.8399999737739563,-2.0799999237060547,-32.189998626708984,-0.0762939453125,0.00555419921875,1.16033935546875,36.470001220703125,0.0,-22.0,-1.505035400390625,0.0882720947265625,Closing,0.0,0.0,-2.0,0.0,0.0,0.0,0.0,0.0,
3.2800770000000012,0.0,0.0,-2781.0,0.0,-592.5,0.0,0.0,0.25,0.338134731,4.493006628240514,0.0,9099.0,0.0,622.5,0.0,0.0,0.125,0.045166011000000006,4.521718686064722,0.01342773300000033,-1310.0,0.0,-532.5,0.0,0.0,0.0,2.88085908,4.5004299144872055,0.004882811999999959,8935.0,0.0,577.5,0.0,0.0,0.125,1.181640504,4.516462536642289,0.0012207029999995456,0.5799999833106995,-1.7000000476837158,-32.25,0.10003662109375,-0.0048828125,1.1175537109375,36.470001220703125,0.0,121.0,-1.49481201171875,0.087005615234375,Closing,0.0,0.0,-2.0,0.0,0.0,0.0,0.0,0.0,
3.3433040000000003,0.0,0.0,-2859.0,0.0,-465.0,0.0,0.0,0.25,0.339355434,4.493006628240514,0.0,9099.0,0.0,502.5,0.0,0.0,0.125,0.045166011000000006,4.521718686064722,0.004882811999999959,-1310.0,0.0,-457.5,0.0,0.0,0.0,2.886962595,4.5004299144872055,0.014648435999999876,8935.0,0.0,480.0,0.0,0.0,0.125,1.182861207,4.516462536642289,-0.0012207029999995456,0.28999999165534973,-1.2300000190734863,-32.310001373291016,0.07025146484375,-0.08868408203125,1.03021240234375,36.470001220703125,0.0,128.0,-1.4768218994140625,0.0853271484375,Closing,0.0,0.0,-2.0,0.0,0.0,0.0,0.0,0.0,
3.4012200000000012,0.0,0.0,-2859.0,0.0,-382.5,0.0,0.0,0.25,0.339355434,4.493006628240514,0.0,9164.0,0.0,405.0,0.0,0.0,0.125,0.045166011000000006,4.521718686064722,0.0,-1373.0,0.0,-345.0,0.0,0.0,0.0,2.885741892,4.5004299144872055,0.004882811999999959,8999.0,0.0,330.0,0.0,0.0,0.125,1.181640504,4.516462536642289,0.0,0.10999999940395355,-0.8899999856948853,-32.380001068115234,0.126220703125,-0.08294677734375,1.00555419921875,36.470001220703125,0.0,165.0,-1.459197998046875,0.08404541015625,Closing,0.0,0.0,-2.0,0.0,0.0,0.0,0.0,0.0,
3.4679259999999994,0.0,0.0,-2908.0,0.75,-285.0,-1131.023608446121,0.0,0.25,0.338134731,4.4886224093105245,0.0,9164.0,1.75,315.0,1131.023608446121,0.0,0.125,0.046386714,4.517306450272564,0.0,-1373.0,1.5,-232.5,-1131.023608446121,0.0,0.0,2.8906247040000004,4.496038452008569,0.0,9043.0,1.25,255.0,1131.023608446121,0.0,0.125,1.181640504,4.5120554297341275,0.0,-0.14000000059604645,-0.6499999761581421,-32.40999984741211,0.11920166015625,-0.00799560546875,0.98016357421875,36.470001220703125,0.0,113.0,-1.433563232421875,0.083648681640625,Closing,0.0,0.0,-2.0,0.0,0.0,0.0,0.0,0.0,
3.61634,0.0,0.0,-2967.0,3.375,-330.0,-972.2834515571595,0.0,0.125,0.357665979,4.48821140511834,0.0,9286.0,6.0,352.5,972.2834515571595,0.0,0.125,0.046386714,4.516892819603922,0.0,-1469.0,4.875,-345.0,-972.2834515571595,0.0,0.0,2.916259467,4.495626768760684,0.0,9100.0,2.875,322.5,972.2834515571595,0.0,0.125,1.180419801,4.511642279879254,0.0,0.3199999928474426,-1.590000033378601,-32.45000076293945,-0.20867919921875,0.06781005859375,0.956787109375,36.459999084472656,0.0,-186.0,-1.3939056396484375,0.082733154296875,Closing,0.0,0.0,-2.0,0.0,0.0,0.0,0.0,0.0,
3.6803899999999996,0.0,0.0,-3033.0,1.375,-412.5,0.0,0.0,0.125,0.338134731,4.48821140511834,0.003662108999999525,9286.0,5.125,442.5,0.0,0.0,0.125,0.046386714,4.516892819603922,0.0,-1469.0,1.0,-420.0,0.0,0.0,0.0,2.8967282190000003,4.495626768760684,0.012207029999999897,9100.0,1.375,382.5,0.0,0.0,0.125,1.181640504,4.511642279879254,0.0,0.5400000214576721,-1.7899999618530273,-32.540000915527344,-0.0589599609375,0.0433349609375,0.64337158203125,36.459999084472656,0.0,-52.0,-1.3823699951171875,0.0808868408203125,Closing,0.0,0.0,-2.0,0.0,0.0,0.0,0.0,0.0,
3.751137999999999,0.0,0.0,-3033.0,0.375,-300.0,-1011.9684720039368,0.0,0.125,0.328369107,4.4861562796294026,0.0,9342.0,0.75,315.0,1011.9684720039368,0.0,0.125,0.037841793,4.514824561064723,0.0,-1530.0,0.125,-397.5,-1011.9684720039368,0.0,0.0,2.8906247040000004,4.493568247820539,0.0,9157.0,0.5,322.5,1011.9684720039368,0.0,0.125,1.182861207,4.509576425531177,0.0,0.20999999344348907,-1.309999942779541,-32.619998931884766,0.06671142578125,-0.0718994140625,0.8575439453125,36.459999084472656,0.0,113.0,-1.3670501708984375,0.0804290771484375,Closing,0.0,0.0,-2.0,0.0,0.0,0.0,0.0,0.0,
3.8124909999999983,0.0,0.0,-3101.0,4.875,-382.5,-2103.3071351051326,0.0,0.125,0.352783167,4.485334271245037,0.0,9342.0,10.375,540.0,2103.3071351051326,0.0,0.125,0.040283199000000006,4.513997299727443,0.0,-1530.0,7.0,-345.0,-2103.3071351051326,0.0,0.0,2.919921576,4.492744881324771,0.0,9157.0,5.5,540.0,2103.3071351051326,0.0,0.125,1.176757692,4.508750125821434,0.0,0.2199999988079071,-1.4700000286102295,-32.72999954223633,-0.48992919921875,0.67095947265625,0.72894287109375,36.459999084472656,0.0,-757.0,-1.3532257080078125,0.0802154541015625,Closing,0.0,0.0,-2.0,0.0,0.0,0.0,0.0,0.0,
3.878326000000001,0.0,0.0,-3101.0,15.0,-690.0,-2142.9921555519104,0.0,0.125,0.34912105800000004,4.483827186188351,0.0,9471.0,22.125,795.0,2142.9921555519104,0.0,0.125,0.041503902,4.5124805838117625,0.0,-1615.0,17.625,-525.0,-2142.9921555519104,0.0,0.125,2.919921576,4.491235306282046,0.0,9255.0,11.75,652.5,2142.9921555519104,0.0,0.125,1.176757692,4.507235172971092,0.0,1.0099999904632568,-2.5799999237060547,-32.779998779296875,-0.29693603515625,0.42340087890625,1.27093505859375,36.459999084472656,0.0,-418.0,-1.347381591796875,0.07989501953125,Closing,0.0,0.0,-2.0,0.0,0.0,0.0,0.0,0.0,
3.9429019999999984,0.0,0.0,-3227.0,12.875,-780.0,-1448.5039973258972,0.0,0.125,0.35400387,4.483142161780042,0.0,9471.0,16.0,945.0,1448.5039973258972,0.0,0.125,0.039062496,4.511791181831362,0.0,-1615.0,13.625,-712.5,-1448.5039973258972,0.0,0.125,2.919921576,4.490549150085452,0.0,9255.0,8.375,817.5,1448.5039973258972,0.0,0.125,1.175536989,4.506546572367353,0.0,1.340000033378601,-3.2300000190734863,-32.72999954223633,-0.0823974609375,0.1378173828125,1.07421875,36.459999084472656,0.0,-78.0,-1.349853515625,0.07830810546875,Closing,0.0,0.0,-2.0,0.0,0.0,0.0,0.0,0.0,
4.018822,0.0,0.0,-3227.0,4.0,-1065.0,-1071.4960777759552,0.0,0.125,0.35400387,4.483827186188351,0.0,9655.0,3.125,1185.0,1071.4960777759552,0.0,0.125,0.040283199000000006,4.5124805838117625,0.0,-1754.0,6.25,-945.0,-1071.4960777759552,0.0,0.125,2.921142279,4.491235306282046,0.0,9403.0,3.375,1042.5,1071.4960777759552,0.0,0.125,1.181640504,4.507235172971092,0.0,1.4600000381469727,-3.5899999141693115,-32.650001525878906,-0.14208984375,-0.05859375,1.40289306640625,36.439998626708984,0.0,5.0,-1.3592529296875,0.0765380859375,Closing,0.0,0.0,-2.0,0.0,0.0,0.0,0.0,0.0,
4.070209999999999,0.0,0.0,-3407.0,1.0,-1132.5,-535.7480388879776,0.0,0.125,0.344238246,4.484923214788842,0.0,9655.0,1.125,1192.5,535.7480388879776,0.0,0.125,0.041503902,4.513583616460803,0.0,-1754.0,2.25,-1095.0,-535.7480388879776,0.0,0.125,2.915038764,4.4923331457265245,0.0,9577.0,1.5,1102.5,535.7480388879776,0.0,0.125,1.181640504,4.508336923429703,0.0,1.3899999856948853,-3.5299999713897705,-32.560001373291016,-7.9345703125E-4,0.05767822265625,1.13616943359375,36.439998626708984,0.0,42.0,-1.3653564453125,0.074676513671875,Closing,0.0,0.0,-2.0,0.0,0.0,0.0,0.0,0.0,
4.139719000000001,0.0,0.0,-3407.0,0.0,-997.5,-464.5014926865194,0.0,1.0,0.380859336,0.5131855484569099,0.0,9820.0,0.125,1005.0,464.5014926865194,0.0,5.75,0.16479490500000002,0.5164650034769024,0.0,-1936.0,0.125,-1140.0,-464.5014926865194,0.0,3.875,2.9968258650000004,0.5140334268463866,0.0,9577.0,0.375,997.5,464.5014926865194,0.0,3.0,1.2902830710000002,0.5158646527213151,0.0,0.9100000262260437,-2.809999942779541,-32.59000015258789,0.02288818359375,0.0711669921875,1.64617919921875,36.439998626708984,0.0,63.0,-1.3672943115234375,0.0739288330078125,Closing,0.0,0.0,-2.0,0.0,0.0,0.0,0.0,0.0,
4.215564999999999,0.0,0.0,-3552.0,0.0,-877.5,-828.8854744225633,0.0,1.75,0.9472655280000001,0.6348774410831066,0.0,9956.0,0.75,832.5,828.8854744225633,0.0,1.25,0.742187424,0.6389345545725658,0.0,-2089.0,0.125,-990.0,-828.8854744225633,0.0,0.75,3.5363765910000002,0.6359263772113342,0.0,9719.0,0.5,900.0,828.8854744225633,0.0,1.625,1.851806451,0.6381918424042172,0.0,-0.5199999809265137,-2.369999885559082,-32.63999938964844,-0.005859375,-0.740234375,1.50384521484375,36.439998626708984,0.0,439.0,-1.3615264892578125,0.070404052734375,Closing,0.0,0.0,-2.0,0.0,0.0,0.0,0.0,0.0,
4.280353999999999,0.0,0.0,-3711.0,0.375,-990.0,-926.4565875006748,0.0,0.75,1.4245604010000001,0.6507035699746022,0.0,9956.0,1.875,817.5,926.4565875006748,0.0,0.75,1.170654177,0.654861818575906,0.0,-2089.0,0.875,-922.5,-926.4565875006748,0.0,0.75,3.9929195130000004,0.6517786538240906,0.0,9719.0,1.5,780.0,926.4565875006748,0.0,1.0,2.2692868770000003,0.6541005921908835,0.0,-1.8600000143051147,-1.7200000286102295,-32.33000183105469,0.24566650390625,-0.5352783203125,1.205810546875,36.439998626708984,0.0,503.0,-1.3456268310546875,0.0567779541015625,Closing,0.0,0.0,-2.0,0.0,0.0,0.0,0.0,0.0,
4.343303,0.0,0.0,-3711.0,1.375,-855.0,-1181.4216568073496,0.0,0.0,1.669921704,0.6843247839141492,0.0,10077.0,5.125,780.0,1181.4216568073496,0.0,0.125,1.359863142,0.6886978851338945,0.0,-2221.0,4.0,-862.5,-1181.4216568073496,0.0,0.125,4.189452696,0.6854554162895324,0.0,9820.0,4.625,637.5,1181.4216568073496,0.0,0.375,2.443847406,0.6878973269297024,0.0,-2.809999942779541,-0.6399999856948853,-31.979999542236328,0.0950927734375,-0.265869140625,0.80047607421875,36.439998626708984,0.0,208.0,-1.31964111328125,0.0390777587890625,Closing,0.0,0.0,-2.0,0.0,0.0,0.0,0.0,0.0,
4.401248,0.0,0.0,-3827.0,5.875,-720.0,-1437.4533321604163,0.0,0.25,1.668701001,0.7080494161926043,0.0,10077.0,11.875,720.0,1437.4533321604163,0.0,0.25,1.3696287660000002,0.7125741270292942,0.0,-2221.0,7.625,-765.0,-1437.4533321604163,0.0,0.125,4.197997617,0.7092192460922898,0.0,9820.0,8.375,637.5,1437.4533321604163,0.0,0.25,2.4755856840000003,0.7117458145343641,0.0,-3.2699999809265137,-0.6299999952316284,-31.950000762939453,-0.225341796875,-0.43096923828125,1.27960205078125,36.439998626708984,0.0,10.0,-1.280120849609375,0.01239013671875,Closing,0.0,0.0,-2.0,0.0,0.0,0.0,0.0,0.0,
4.480229,0.0,0.0,-3827.0,8.25,-877.5,-1482.755501941243,0.0,0.375,1.6064451480000002,0.5826343295280165,0.0,10224.0,14.0,967.5,1482.755501941243,0.0,0.25,1.3415525970000002,0.5863575892389261,0.0,-2361.0,10.25,-892.5,-1482.755501941243,0.0,0.125,4.160155824,0.5835969502769046,0.0,9947.0,9.5,810.0,1482.755501941243,0.0,0.25,2.4279782670000003,0.5856759937399588,0.0,-3.7200000286102295,-1.190000057220459,-31.8799991607666,-0.32098388671875,-0.2724609375,0.363037109375,36.439998626708984,0.0,-134.0,-1.248748779296875,-0.014984130859375,Closing,0.0,0.0,-2.0,0.0,0.0,0.0,0.0,0.0,
4.545921999999998,0.0,0.0,-4000.0,7.5,-1110.0,-1512.3333381697619,0.0,0.375,1.520995938,0.533941717762797,0.0,10224.0,11.375,1192.5,1512.3333381697619,0.0,0.25,1.2390135450000002,0.5373538127681334,0.0,-2361.0,9.75,-1072.5,-1512.3333381697619,0.0,0.375,4.0759273170000005,0.5348238892212344,0.0,9947.0,8.25,1050.0,1512.3333381697619,0.0,0.25,2.347411869,0.5367291803819285,0.0,-3.940000057220459,-1.5299999713897705,-31.799999237060547,-0.33367919921875,-0.1373291015625,0.40509033203125,36.43000030517578,0.0,-216.0,-1.2197265625,-0.048309326171875,Closing,0.0,0.0,-2.0,0.0,0.0,0.0,0.0,0.0,
4.618207999999998,0.0,0.0,-4000.0,6.625,-1320.0,-1615.4297933019207,0.0,0.375,1.385497905,0.41630806168494605,0.0,10438.0,9.375,1365.0,1615.4297933019207,0.0,0.25,1.097411997,0.4189684319289275,0.0,-2551.0,9.5,-1215.0,-1615.4297933019207,0.0,0.125,3.973388265,0.41699588036949203,0.0,10139.0,6.75,1297.5,1615.4297933019207,0.0,0.25,2.1972654,0.4184814134223831,0.0,-3.7699999809265137,-2.2200000286102295,-31.850000381469727,-0.165283203125,9.1552734375E-4,0.6697998046875,36.43000030517578,0.0,-142.0,-1.188507080078125,-0.0931854248046875,Closing,0.0,0.0,-2.0,0.0,0.0,0.0,0.0,0.0,
4.668379000000001,0.0,0.0,-4220.0,6.125,-1395.0,-1519.4758132791715,0.0,0.375,1.2915037740000002,0.2373836921984897,0.0,10438.0,7.125,1492.5,1519.4758132791715,0.0,0.25,0.9716795880000001,0.23890066621185685,0.0,-2551.0,8.75,-1320.0,-1519.4758132791715,0.0,0.375,3.879394134,0.2377758944014444,0.0,10381.0,5.25,1462.5,1519.4758132791715,0.0,0.25,2.0642087730000003,0.2386229626026964,0.0,-3.259999990463257,-2.8399999141693115,-32.099998474121094,-0.25238037109375,0.10174560546875,0.95672607421875,36.43000030517578,0.0,-256.0,-1.169219970703125,-0.1295166015625,Closing,0.0,0.0,-2.0,0.0,0.0,0.0,0.0,0.0,
4.744216000000001,0.0,0.0,-4455.0,5.0,-1455.0,-1536.226294321391,0.0,0.5,1.1132811360000001,0.04709861240326208,0.0,10686.0,4.375,1567.5,1536.226294321391,0.0,0.25,0.8056639800000001,0.04739959083366605,0.0,-2774.0,8.0,-1402.5,-1536.226294321391,0.0,0.5,3.702392199,0.047176428109006616,0.0,10381.0,4.375,1522.5,1536.226294321391,0.0,0.5,1.885986135,0.04734449246305052,0.0,-2.319999933242798,-3.559999942779541,-32.61000061035156,-0.1728515625,0.31365966796875,1.2235107421875,36.43000030517578,0.0,-277.0,-1.1548919677734375,-0.1717987060546875,Closing,0.0,0.0,-2.0,0.0,0.0,0.0,0.0,0.0,
4.8129019999999985,0.0,0.0,-4455.0,5.625,-1485.0,-1607.3665154456985,0.0,0.25,0.950927637,4.878267601924503,0.0,10947.0,4.25,1627.5,1607.3665154456985,0.0,0.25,0.6347655600000001,4.909441627039012,0.0,-3016.0,8.375,-1507.5,-1607.3665154456985,0.0,0.375,3.494872689,4.886327411266746,0.0,10616.0,4.875,1485.0,1607.3665154456985,0.0,0.25,1.673583813,4.903734779584755,0.0,-1.3300000429153442,-3.9800000190734863,-33.02000045776367,-0.17047119140625,0.36871337890625,1.37994384765625,36.43000030517578,0.0,-280.0,-1.1514434814453125,-0.201751708984375,Closing,0.0,0.0,-2.0,0.0,0.0,0.0,0.0,0.0,
4.87084,0.0,0.0,-4700.0,4.0,-1522.5,-1370.4273170961822,0.0,0.5,0.8276366340000001,0.018637672382059347,0.0,10947.0,3.375,1620.0,1370.4273170961822,0.0,0.25,0.506591745,0.01875677434905375,0.0,-3016.0,6.25,-1560.0,-1370.4273170961822,0.0,0.375,3.352050438,0.018668465298364984,0.0,10616.0,4.5,1470.0,1370.4273170961822,0.0,0.25,1.519775235,0.018734971044711682,0.0,-0.23999999463558197,-4.070000171661377,-33.209999084472656,-0.0645751953125,0.66748046875,0.86981201171875,36.43000030517578,0.0,-369.0,-1.15423583984375,-0.22705078125,Closing,0.0,0.0,-2.0,0.0,0.0,0.0,0.0,0.0,
4.933864999999998,0.0,0.0,-4700.0,1.0,-1507.5,-257.95276433229446,0.0,0.5,0.812988198,0.7783366280094873,0.0,11170.0,0.75,1560.0,257.95276433229446,0.0,4.5,0.49194330900000005,0.7833105014352783,0.0,-3261.0,2.625,-1560.0,-257.95276433229446,0.0,2.875,3.399657855,0.7796225855127955,0.0,10842.0,1.75,1432.5,257.95276433229446,0.0,6.75,1.5063475020000001,0.7823999633577119,0.0,0.8899999856948853,-3.640000104904175,-32.880001068115234,0.195556640625,0.35601806640625,0.88397216796875,36.43000030517578,0.0,25.0,-1.164886474609375,-0.2476959228515625,Closing,0.0,0.0,-2.0,0.0,0.0,0.0,0.0,0.0,
5.013497999999999,0.0,0.0,-4895.0,0.0,-1155.0,0.0,0.0,1.25,1.260986199,0.7783366280094873,0.0,11170.0,0.0,1110.0,0.0,0.0,1.0,0.968017479,0.7833105014352783,0.0,-3261.0,0.0,-1410.0,0.0,0.0,0.875,3.8293453110000004,0.7796225855127955,0.0,10842.0,0.0,1230.0,0.0,0.0,1.375,2.043456822,0.7823999633577119,0.0,0.6800000071525574,-2.430000066757202,-32.529998779296875,0.645751953125,-0.6719970703125,1.11181640625,36.43000030517578,0.0,952.0,-1.1711578369140625,-0.2577056884765625,Closing,0.0,0.0,-2.0,0.0,0.0,0.0,0.0,0.0,
5.085667000000002,0.0,0.0,-4895.0,0.0,-1072.5,0.0,0.0,0.625,1.6369627230000001,0.7783366280094873,0.4199218319999999,11325.0,0.0,982.5,0.0,0.0,0.75,1.35498033,0.7833105014352783,0.44677729799999977,-3467.0,0.0,-1252.5,0.0,0.0,0.5,4.1833491810000005,0.7796225855127955,0.41137691100000007,11018.0,0.0,1027.5,0.0,0.0,1.0,2.504882556,0.7823999633577119,-4.4440840370000005,-0.5600000023841858,-0.7300000190734863,-32.380001068115234,0.83038330078125,-0.59735107421875,0.0753173828125,36.34000015258789,0.0,1021.0,-1.1608428955078125,-0.2682952880859375,Closing,0.0,0.0,-2.0,0.0,0.0,0.0,0.0,0.0,
5.145042000000001,0.0,0.0,-5049.0,0.0,-877.5,0.0,0.0,0.375,1.779784974,0.7783366280094873,0.4052733960000001,11325.0,0.0,757.5,0.0,0.0,0.25,1.4746092240000002,0.7833105014352783,0.4040526930000006,-3467.0,0.0,-1125.0,0.0,0.0,0.25,4.2907710450000005,0.7796225855127955,0.367431603,11018.0,0.0,735.0,0.0,0.0,0.25,2.609863014,0.7823999633577119,0.472412061,-0.949999988079071,0.949999988079071,-32.56999969482422,0.6519775390625,-0.15313720703125,0.7569580078125,36.34000015258789,0.0,614.0,-1.134033203125,-0.2784576416015625,Closing,0.0,0.0,-2.0,0.0,0.0,0.0,0.0,0.0,
5.214846000000001,0.0,0.0,-5049.0,0.0,-562.5,0.0,0.0,0.375,1.723632636,0.7783366280094873,0.0,11416.0,0.0,510.0,0.0,0.0,0.25,1.470947115,0.7833105014352783,0.0,-3610.0,0.0,-795.0,0.0,0.0,0.125,4.266356985,0.7796225855127955,0.0,11118.0,0.0,562.5,0.0,0.0,0.25,2.57568333,0.7823999633577119,0.0,-0.6700000166893005,1.2899999618530273,-32.619998931884766,0.07489013671875,0.311767578125,0.99127197265625,36.34000015258789,0.0,-130.0,-1.08935546875,-0.2862548828125,Closing,0.0,0.0,-2.0,0.0,0.0,0.0,0.0,0.0,
5.282512999999999,0.0,0.0,-5127.0,0.0,-457.5,0.0,0.0,0.25,1.641845535,0.7783366280094873,-0.06225585299999992,11416.0,0.0,435.0,0.0,0.0,0.25,1.402587747,0.7833105014352783,-0.009765623999999917,-3610.0,0.0,-570.0,0.0,0.0,0.125,4.206542538,0.7796225855127955,-0.024414059999999793,11180.0,0.0,405.0,0.0,0.0,0.25,2.4780270900000003,0.7823999633577119,-0.034179684000000154,-0.12999999523162842,0.8999999761581421,-32.5,-0.02447509765625,0.11083984375,1.1263427734375,36.34000015258789,0.0,-96.0,-1.0565338134765625,-0.28924560546875,Closing,0.0,0.0,-2.0,0.0,0.0,0.0,0.0,0.0,
5.336804,0.0,0.0,-5127.0,0.0,-390.0,0.0,0.0,0.25,1.595458821,0.7783366280094873,-0.08544920999999994,11482.0,0.0,405.0,0.0,0.0,0.25,1.337890488,0.7833105014352783,-0.07202147699999983,-3685.0,0.0,-382.5,0.0,0.0,0.125,4.163817933,0.7796225855127955,-0.06347655600000035,11180.0,0.0,360.0,0.0,0.0,0.25,2.409667722,0.7823999633577119,-0.10131834900000003,0.23000000417232513,0.9200000166893005,-32.45000076293945,2.44140625E-4,0.111572265625,1.0897216796875,36.34000015258789,0.0,-72.0,-1.0264739990234375,-0.290130615234375,Closing,0.0,0.0,-2.0,0.0,0.0,0.0,0.0,0.0,
5.411221000000001,0.0,0.0,-5181.0,0.0,-285.0,0.0,0.0,0.125,1.588134603,0.7783366280094873,0.0,11518.0,0.0,270.0,0.0,0.0,0.25,1.30615221,0.7833105014352783,0.0,-3718.0,0.0,-255.0,0.0,0.0,0.125,4.155273012,0.7796225855127955,0.0,11213.0,0.0,217.5,0.0,0.0,0.125,2.393798583,0.7823999633577119,0.0,0.6700000166893005,1.0299999713897705,-32.36000061035156,0.075927734375,0.16851806640625,0.9261474609375,36.34000015258789,0.0,-34.0,-0.991302490234375,-0.2873687744140625,Closing,0.0,0.0,-2.0,0.0,0.0,0.0,0.0,0.0,
5.480787,0.0,0.0,-5202.0,0.0,-142.5,0.0,0.0,0.125,1.588134603,0.7783366280094873,-0.004882811999999959,11518.0,0.0,150.0,0.0,0.0,0.125,1.297607289,0.7833105014352783,-0.02685546600000066,-3718.0,0.0,-135.0,0.0,0.0,0.125,4.149169497,0.7796225855127955,-0.009765623999999917,11213.0,0.0,105.0,0.0,0.0,0.125,2.395019286,0.7823999633577119,-0.014648435999999876,1.159999966621399,1.2400000095367432,-32.31999969482422,0.0467529296875,0.111572265625,1.02886962890625,36.34000015258789,0.0,-27.0,-0.957550048828125,-0.2794342041015625,Closing,0.0,0.0,-2.0,0.0,0.0,0.0,0.0,0.0,
5.545333999999999,0.0,0.0,-5202.0,0.0,-30.0,0.0,0.0,0.125,1.588134603,0.7783366280094873,-0.0012207029999999897,11521.0,0.0,37.5,0.0,0.0,0.125,1.297607289,0.7833105014352783,-0.008544920999999484,-3721.0,0.0,-30.0,0.0,0.0,0.125,4.1503902,0.7796225855127955,-0.004882811999999959,11217.0,0.0,15.0,0.0,0.0,0.125,2.393798583,0.7823999633577119,0.0,1.25,1.2000000476837158,-32.36000061035156,6.7138671875E-4,-0.00299072265625,1.02374267578125,36.29999923706055,0.0,-3.0,-0.9311981201171875,-0.2707672119140625,Closing,0.0,0.0,-2.0,0.0,0.0,0.0,0.0,0.0,
5.6113040000000005,0.0,0.0,-5208.0,5.125,-45.0,-1612.2581510093037,0.0,0.125,1.5832517910000001,4.6738991422445855,0.0,11521.0,10.625,97.5,1612.2581510093037,0.0,1.5,1.2890623680000002,4.703767173507472,0.0,-3721.0,7.625,-7.5,-1612.2581510093037,0.0,4.875,3.9440913930000003,4.681621296715262,0.0,11217.0,5.625,90.0,1612.2581510093037,0.0,6.875,2.1166990020000003,4.69829940675133,0.0,0.9100000262260437,0.9200000166893005,-32.349998474121094,-0.2447509765625,-1.0147705078125,1.03753662109375,36.29999923706055,0.0,331.0,-0.9115753173828125,-0.261749267578125,Closing,0.0,0.0,-2.0,0.0,0.0,0.0,0.0,0.0,
5.678253000000001,0.0,0.0,-5208.0,12.5,-300.0,-1540.1937496387507,0.0,5.75,1.307372913,4.693604285458935,0.0,11569.0,22.875,345.0,1540.1937496387507,0.0,7.5,0.938720607,4.723598240242132,0.0,-3739.0,13.375,-120.0,-1540.1937496387507,0.0,1.25,3.5717769780000004,4.701358996507137,0.0,11250.0,8.875,247.5,1540.1937496387507,0.0,0.875,1.7065427940000002,4.7181074213995595,0.0,-0.05999999865889549,-0.14000000059604645,-31.850000381469727,-0.03271484375,0.04864501953125,0.90728759765625,36.29999923706055,0.0,-52.0,-0.9098663330078125,-0.2651214599609375,Closing,0.0,0.0,-2.0,0.0,0.0,0.0,0.0,0.0,
5.7325550000000005,0.0,0.0,-5291.0,10.5,-435.0,-1254.9511653779052,0.0,1.75,0.9448241220000001,4.7484554329480595,0.0,11569.0,16.75,510.0,1254.9511653779052,0.0,0.5,0.57373041,4.778799907872609,0.0,-3739.0,14.625,-315.0,-1254.9511653779052,0.0,0.875,3.2556149010000004,4.756300768338146,0.0,11250.0,9.75,375.0,1254.9511653779052,0.0,0.25,1.385497905,4.773244921346556,0.0,0.10999999940395355,-1.0499999523162842,-31.110000610351562,-0.27447509765625,0.58123779296875,0.98681640625,36.29999923706055,0.0,-518.0,-0.915130615234375,-0.2727813720703125,Closing,0.0,0.0,-2.0,0.0,0.0,0.0,0.0,0.0,
5.797463,0.0,0.0,-5291.0,6.5,-727.5,-1198.6261454972357,0.0,0.375,0.7128905520000001,4.770922660716391,0.0,11682.0,14.625,675.0,1198.6261454972357,0.0,0.0,0.405273396,4.801410709954583,0.0,-3813.0,13.25,-435.0,-1198.6261454972357,0.0,0.125,3.139648116,4.778805116163646,0.0,11322.0,9.0,472.5,1198.6261454972357,0.0,0.25,1.285400259,4.79582944011403,0.0,0.9399999976158142,-1.7000000476837158,-29.90999984741211,-0.28009033203125,0.411376953125,1.03948974609375,36.29999923706055,0.0,-412.0,-0.9304962158203125,-0.2783355712890625,Closing,0.0,0.0,-2.0,0.0,0.0,0.0,0.0,0.0,
5.866058000000001,0.0,0.0,-5432.0,4.125,-892.5,-1068.5523655142288,0.0,0.25,0.649413996,4.821157663686694,0.0,11682.0,11.625,802.5,1068.5523655142288,0.0,0.25,0.32226559200000005,4.851966734109457,0.0,-3813.0,11.25,-607.5,-1068.5523655142288,0.0,0.0,3.143310225,4.829123116742791,0.0,11322.0,6.875,735.0,1068.5523655142288,0.0,0.375,1.3220213490000001,4.846326696787862,0.0,1.840000033378601,-2.25,-28.610000610351562,-0.17138671875,0.20465087890625,0.9295654296875,36.29999923706055,0.0,-201.0,-0.960693359375,-0.2798919677734375,Closing,0.0,0.0,-2.0,0.0,0.0,0.0,0.0,0.0,
5.945519,0.0,0.0,-5587.0,0.25,-1020.0,0.0,0.0,0.25,0.642089778,4.821157663686694,-0.052490229,11828.0,3.125,892.5,0.0,0.0,0.25,0.299072235,4.851966734109457,-0.07080077400000029,-3942.0,3.25,-847.5,0.0,0.0,0.0,3.1591793640000003,4.829123116742791,0.007324217999999938,11452.0,1.75,870.0,0.0,0.0,0.375,1.435546728,4.846326696787862,0.04272460500000008,1.7799999713897705,-2.5199999809265137,-27.639999389648438,0.0394287109375,-0.06781005859375,0.8626708984375,36.29999923706055,0.0,112.0,-0.9958343505859375,-0.2808837890625,Closing,0.0,0.0,-2.0,0.0,0.0,0.0,0.0,0.0,
6.003585999999999,0.0,0.0,-5587.0,0.0,-870.0,0.0,0.0,0.25,0.635986263,4.821157663686694,-0.004882811999999959,11828.0,0.0,690.0,0.0,0.0,0.25,0.31738278000000003,4.851966734109457,-0.024414059999999793,-4079.0,0.0,-877.5,0.0,0.0,0.0,3.192138345,4.829123116742791,0.017089842000000743,11576.0,0.0,735.0,0.0,0.0,0.375,1.4978025810000002,4.846326696787862,0.0,1.4600000381469727,-1.909999966621399,-27.260000228881836,0.04620361328125,0.027587890625,0.95330810546875,36.29999923706055,0.0,67.0,-1.026580810546875,-0.282440185546875,Closing,0.0,0.0,-2.0,0.0,0.0,0.0,0.0,0.0,
6.080742999999998,0.0,0.0,-5718.0,0.0,-832.5,0.0,0.0,0.25,0.6457518870000001,4.821157663686694,0.0,11938.0,0.0,795.0,0.0,0.0,0.25,0.358886682,4.851966734109457,0.025634763000000227,-4079.0,0.0,-817.5,0.0,0.0,0.0,3.2177731080000003,4.829123116742791,0.030517574999999297,11576.0,0.0,840.0,0.0,0.0,0.125,1.512451017,4.846326696787862,0.05737304099999996,1.2300000190734863,-1.5299999713897705,-27.469999313354492,0.2178955078125,-0.0968017578125,0.895263671875,36.310001373291016,0.0,268.0,-1.0469970703125,-0.2844390869140625,Closing,0.0,0.0,-2.0,0.0,0.0,0.0,0.0,0.0,
6.135942999999999,0.0,0.0,-5718.0,0.0,-765.0,0.0,0.0,0.25,0.6604003230000001,4.821157663686694,0.012207029999999897,12061.0,0.0,780.0,0.0,0.0,0.25,0.384521445,4.851966734109457,0.03906249599999967,-4198.0,0.0,-757.5,0.0,0.0,0.0,3.228759435,4.829123116742791,0.025634763000000227,11702.0,0.0,772.5,0.0,0.0,0.125,1.51367172,4.846326696787862,0.0183105449999994,1.0099999904632568,-1.1699999570846558,-27.68000030517578,0.1116943359375,0.0589599609375,1.0030517578125,36.310001373291016,0.0,97.0,-1.0641021728515625,-0.2863006591796875,Closing,0.0,0.0,-2.0,0.0,0.0,0.0,0.0,0.0,
6.212268,0.0,0.0,-5819.0,0.0,-615.0,0.0,0.0,0.25,0.662841729,4.821157663686694,0.0,12061.0,0.0,690.0,0.0,0.0,0.125,0.384521445,4.851966734109457,0.0,-4198.0,0.0,-630.0,0.0,0.0,0.0,3.227538732,4.829123116742791,0.0,11702.0,0.0,667.5,0.0,0.0,0.125,1.519775235,4.846326696787862,0.0,0.8500000238418579,-0.75,-27.850000381469727,0.069580078125,-0.05224609375,1.275634765625,36.310001373291016,0.0,109.0,-1.0810546875,-0.2864990234375,Closing,0.0,0.0,-2.0,0.0,0.0,0.0,0.0,0.0,
6.268196,0.0,0.0,-5819.0,0.0,-555.0,0.0,0.0,0.25,0.665283135,4.821157663686694,0.0,12149.0,0.0,562.5,0.0,0.0,0.125,0.385742148,4.851966734109457,0.0,-4285.0,0.0,-547.5,0.0,0.0,0.0,3.227538732,4.829123116742791,0.0,11794.0,0.0,547.5,0.0,0.0,0.125,1.514892423,4.846326696787862,0.0024414059999999793,0.7900000214576721,-0.3199999928474426,-27.84000015258789,0.15771484375,-0.0028076171875,1.0487060546875,36.310001373291016,0.0,152.0,-1.09100341796875,-0.2861480712890625,Closing,0.0,0.0,-2.0,0.0,0.0,0.0,0.0,0.0,
6.338096999999998,0.0,0.0,-5893.0,0.0,-435.0,0.0,0.0,0.25,0.670165947,4.821157663686694,0.003662108999999525,12149.0,0.0,450.0,0.0,0.0,0.125,0.384521445,4.851966734109457,0.0,-4285.0,0.0,-465.0,0.0,0.0,0.0,3.227538732,4.829123116742791,0.0,11794.0,0.0,442.5,0.0,0.0,0.125,1.51367172,4.846326696787862,-0.0024414059999999793,0.7699999809265137,0.029999999329447746,-27.829999923706055,0.1044921875,-0.00518798828125,1.06024169921875,36.310001373291016,0.0,100.0,-1.0982818603515625,-0.2852020263671875,Closing,0.0,0.0,-2.0,0.0,0.0,0.0,0.0,0.0,
6.410284,0.0,0.0,-5893.0,0.0,-337.5,0.0,0.0,0.25,0.670165947,4.821157663686694,0.006103515000000392,12208.0,0.0,337.5,0.0,0.0,0.125,0.384521445,4.851966734109457,0.0,-4345.0,0.0,-330.0,0.0,0.0,0.0,3.226318029,4.829123116742791,0.0,11855.0,0.0,322.5,0.0,0.0,0.125,1.51367172,4.846326696787862,0.0,0.6800000071525574,0.25999999046325684,-27.93000030517578,0.101318359375,-0.0111083984375,1.17779541015625,36.310001373291016,0.0,96.0,-1.10418701171875,-0.2828216552734375,Closing,0.0,0.0,-2.0,0.0,0.0,0.0,0.0,0.0,
6.468538000000001,0.0,0.0,-5937.0,5.375,-217.5,1050.0,0.0,1.0,0.670165947,0.5498168668524888,0.0,12208.0,1.5,307.5,1050.0,0.0,0.5,0.371093712,4.410439589772222,0.0,-4345.0,8.0,-225.0,1050.0,0.0,0.0,3.227538732,4.389674732977289,0.0,11898.0,0.875,270.0,1050.0,0.0,0.125,1.51367172,0.5526872062785588,0.0,0.550000011920929,0.800000011920929,-28.229999542236328,0.2265625,0.03900146484375,1.03131103515625,36.310001373291016,0.0,173.0,-1.106109619140625,-0.2786712646484375,Closing,0.0,0.0,-2.0,0.0,0.0,0.0,0.0,0.0,
6.536778999999998,0.0,0.0,-5937.0,14.0,-45.0,1575.0,0.0,2.75,0.942382716,0.5498168668524888,0.0,12276.0,10.875,435.0,1575.0,0.0,0.875,0.255126927,4.410439589772222,0.0,-4368.0,23.125,-82.5,1575.0,0.0,0.5,3.072509451,4.389674732977289,0.0,11898.0,5.625,307.5,1575.0,0.0,3.25,1.781005677,0.5526872062785588,0.0,0.5099999904632568,1.0,-29.040000915527344,-0.14227294921875,0.30438232421875,1.099609375,36.310001373291016,0.0,-284.0,-1.10406494140625,-0.273529052734375,Closing,0.0,0.0,-2.0,0.0,0.0,0.0,0.0,0.0,
6.610380000000001,0.0,0.0,-5918.0,7.125,217.5,0.0,0.0,0.625,1.2170408910000001,0.5498168668524888,-4.641723686,12298.0,6.25,270.0,0.0,0.0,0.25,0.107421864,4.410439589772222,0.0,-4347.0,13.75,90.0,0.0,0.0,0.25,2.930907903,4.389674732977289,-0.157470687,11938.0,3.5,292.5,0.0,0.0,0.75,2.0581052580000003,0.5526872062785588,0.0,0.5,0.8199999928474426,-30.649999618530273,0.0081787109375,-0.18060302734375,1.1685791015625,36.290000915527344,0.0,89.0,-1.1023712158203125,-0.2672882080078125,Closing,0.0,0.0,-2.0,0.0,0.0,0.0,0.0,0.0,
6.681733,0.0,0.0,-5899.0,0.0,135.0,0.0,0.0,0.375,1.437988134,0.5498168668524888,0.2856445019999999,12298.0,0.0,82.5,0.0,0.0,0.25,4.941405744,4.410439589772222,-0.14892576599999963,-4347.0,0.0,90.0,0.0,0.0,0.375,2.8430172870000003,4.389674732977289,-0.14282225100000012,11938.0,0.0,45.0,0.0,0.0,0.625,2.249755629,0.5526872062785588,0.26611325399999974,0.36000001430511475,0.75,-30.8799991607666,0.0916748046875,0.05609130859375,1.04541015625,36.290000915527344,0.0,41.0,-1.10205078125,-0.2642974853515625,Closing,0.0,0.0,-2.0,0.0,0.0,0.0,0.0,0.0,
6.736032999999999,0.0,0.0,-5899.0,0.125,-22.5,-218.26772511005404,0.0,0.375,1.5063475020000001,0.809985231275859,0.0,12300.0,0.0,15.0,-218.26772511005404,0.0,4.5,4.8107905230000005,3.2970463515715585,0.0,-4344.0,0.125,15.0,218.26772511005404,0.0,0.25,2.810058306,3.281523478183745,0.0,11935.0,0.375,-22.5,218.26772511005404,0.0,0.375,2.297363046,0.8142137893358851,0.0,0.38999998569488525,0.949999988079071,-30.8700008392334,0.01007080078125,-0.00970458984375,0.98699951171875,36.290000915527344,0.0,2.0,-1.100799560546875,-0.261444091796875,Closing,0.0,0.0,-2.0,0.0,0.0,0.0,0.0,0.0,
6.809336999999999,0.0,0.0,-5905.0,3.25,-30.0,-1210.3937244415283,0.0,0.375,1.549072107,0.8101222152519157,0.0,12300.0,4.25,0.0,-1210.3937244415283,0.0,6.5,4.392089394,3.2971842109284384,0.0,-4344.0,5.5,30.0,1210.3937244415283,0.0,7.0,2.401122801,3.2816606884829187,0.0,11935.0,3.0,7.5,1210.3937244415283,0.0,0.375,2.352294681,0.8143514884418895,0.0,0.25999999046325684,0.8399999737739563,-30.989999771118164,-0.03570556640625,-0.022216796875,1.0146484375,36.290000915527344,0.0,-29.0,-1.099334716796875,-0.2621307373046875,Closing,0.0,0.0,-2.0,0.0,0.0,0.0,0.0,0.0,
6.864848999999999,0.0,0.0,-5905.0,2.625,-255.0,-158.7401568889618,0.0,0.25,1.5783689790000002,0.8084781462191726,0.0,12291.0,7.375,-60.0,-158.7401568889618,0.0,2.625,3.972167562,3.2955296356558788,0.0,-4320.0,4.125,150.0,158.7401568889618,0.0,1.625,1.959228315,3.2800139031410205,0.0,11959.0,2.625,172.5,158.7401568889618,0.0,0.375,2.390136474,0.8126988364855433,0.0,-0.18000000715255737,0.5199999809265137,-31.15999984741211,-0.184814453125,-0.24066162109375,1.1575927734375,36.290000915527344,0.0,-44.0,-1.0985565185546875,-0.2674102783203125,Closing,0.0,0.0,-2.0,0.0,0.0,0.0,0.0,0.0,
6.933923999999999,0.0,0.0,-5938.0,0.0,-157.5,0.0,0.0,0.125,1.6027830390000002,0.8084781462191726,0.03540038699999992,12291.0,0.75,-30.0,0.0,0.0,0.25,3.7438961010000003,3.2955296356558788,-0.38818355400000026,-4320.0,0.125,172.5,0.0,0.0,0.25,1.6308592080000002,3.2800139031410205,-0.4235839409999995,11959.0,0.125,45.0,0.0,0.0,0.25,2.413329831,0.8126988364855433,0.037841793000000123,-0.07000000029802322,0.4399999976158142,-31.40999984741211,-0.12744140625,-0.001220703125,1.00567626953125,36.290000915527344,0.0,-115.0,-1.0991668701171875,-0.273895263671875,Closing,0.0,0.0,-2.0,0.0,0.0,0.0,0.0,0.0,
6.999528999999999,0.0,0.0,-5938.0,0.0,0.0,0.0,0.0,0.125,1.6015623360000002,0.8084781462191726,0.00976562400000014,12290.0,0.0,0.0,0.0,0.0,0.25,3.7292476650000004,3.2955296356558788,-0.20019529200000008,-4305.0,0.0,82.5,0.0,0.0,0.0,1.573486167,3.2800139031410205,-0.312499968,11959.0,0.0,0.0,0.0,0.0,0.25,2.413329831,0.8126988364855433,0.024414059999999793,0.09000000357627869,0.41999998688697815,-31.450000762939453,0.06195068359375,0.07891845703125,1.0880126953125,36.290000915527344,0.0,5.0,-1.101165771484375,-0.2772064208984375,Closing,0.0,0.0,-2.0,0.0,0.0,0.0,0.0,0.0,
7.0641310000000015,0.0,0.0,-5939.0,0.0,0.0,0.0,0.0,0.125,1.6027830390000002,0.8084781462191726,0.0,12290.0,0.0,0.0,0.0,0.0,0.25,3.7341304770000003,3.2955296356558788,0.0,-4305.0,0.0,30.0,0.0,0.0,0.0,1.621093584,3.2800139031410205,0.0,11959.0,0.0,0.0,0.0,0.0,0.25,2.412109128,0.8126988364855433,0.0,0.30000001192092896,0.5699999928474426,-31.40999984741211,0.0096435546875,0.11444091796875,1.02117919921875,36.2599983215332,0.0,-57.0,-1.1036529541015625,-0.27508544921875,Closing,0.0,0.0,-2.0,0.0,0.0,0.0,0.0,0.0,
7.138597999999998,0.0,0.0,-5939.0,0.0,0.0,0.0,0.0,0.125,1.6027830390000002,0.8084781462191726,0.0,12290.0,0.0,0.0,0.0,0.0,0.25,3.7341304770000003,3.2955296356558788,0.004882811999999959,-4304.0,0.0,0.0,0.0,0.0,0.125,1.6540525650000002,3.2800139031410205,0.04272460500000008,11959.0,0.0,0.0,0.0,0.0,0.25,2.413329831,0.8126988364855433,0.0,0.3700000047683716,0.5699999928474426,-31.43000030517578,-0.01043701171875,-0.0244140625,1.0184326171875,36.2599983215332,0.0,-1.0,-1.10491943359375,-0.2728424072265625,Closing,0.0,0.0,-2.0,0.0,0.0,0.0,0.0,0.0,
7.208884999999999,0.0,0.0,-5939.0,0.0,0.0,0.0,0.0,0.125,1.6015623360000002,0.8084781462191726,0.0,12290.0,0.0,0.0,0.0,0.0,0.25,3.7341304770000003,3.2955296356558788,0.0,-4304.0,0.0,0.0,0.0,0.0,0.0,1.669921704,3.2800139031410205,0.03417968399999971,11959.0,0.0,0.0,0.0,0.0,0.25,2.413329831,0.8126988364855433,0.0,0.3499999940395355,0.46000000834465027,-31.43000030517578,-0.0308837890625,-0.009521484375,0.99017333984375,36.2599983215332,0.0,-25.0,-1.1051025390625,-0.2730560302734375,Closing,0.0,0.0,-2.0,0.0,0.0,0.0,0.0,0.0,
7.279795999999998,0.0,0.0,-5939.0,0.0,0.0,0.0,0.0,0.125,1.6027830390000002,0.8084781462191726,0.0,12290.0,0.0,0.0,0.0,0.0,0.25,3.7341304770000003,3.2955296356558788,-0.0012207029999995456,-4304.0,0.0,0.0,0.0,0.0,0.0,1.676025219,3.2800139031410205,0.0,11959.0,0.0,0.0,0.0,0.0,0.25,2.413329831,0.8126988364855433,0.0,0.2800000011920929,0.38999998569488525,-31.43000030517578,-0.03265380859375,-0.02496337890625,1.01214599609375,36.2599983215332,0.0,-18.0,-1.10540771484375,-0.273834228515625,Closing,0.0,0.0,-2.0,0.0,0.0,0.0,0.0,0.0,
7.336104,0.0,0.0,-5939.0,0.0,0.0,0.0,0.0,0.125,1.6027830390000002,0.8084781462191726,0.0,12290.0,0.0,0.0,0.0,0.0,0.25,3.7341304770000003,3.2955296356558788,0.0012207029999995456,-4305.0,0.0,-7.5,0.0,0.0,0.0,1.676025219,3.2800139031410205,0.004882811999999959,11959.0,0.0,0.0,0.0,0.0,0.25,2.413329831,0.8126988364855433,0.0,0.25999999046325684,0.3100000023841858,-31.43000030517578,0.00390625,-0.01776123046875,1.01739501953125,36.2599983215332,0.0,10.0,-1.105621337890625,-0.2747802734375,Closing,0.0,0.0,-2.0,0.0,0.0,0.0,0.0,0.0,
7.4086310000000015,0.0,0.0,-5939.0,0.0,0.0,0.0,0.0,0.125,1.6027830390000002,0.8084781462191726,0.0,12290.0,0.0,0.0,0.0,0.0,0.25,3.748778913,3.2955296356558788,0.0,-4305.0,0.0,0.0,0.0,0.0,0.0,1.676025219,3.2800139031410205,0.0,11959.0,0.0,0.0,0.0,0.0,0.25,2.413329831,0.8126988364855433,0.0,0.23999999463558197,0.27000001072883606,-31.43000030517578,-0.01812744140625,0.00286865234375,1.026123046875,36.2599983215332,0.0,-18.0,-1.105743408203125,-0.2747802734375,Closing,0.0,0.0,-2.0,0.0,0.0,0.0,0.0,0.0,
7.479357,0.0,0.0,-5939.0,0.0,0.0,0.0,0.0,0.125,1.6015623360000002,0.8084781462191726,0.0,12290.0,0.0,0.0,0.0,0.0,0.25,3.75976524,3.2955296356558788,0.014648435999999876,-4305.0,0.0,0.0,0.0,0.0,0.0,1.674804516,3.2800139031410205,0.0,11959.0,0.0,0.0,0.0,0.0,0.25,2.413329831,0.8126988364855433,0.0,0.25999999046325684,0.23999999463558197,-31.440000534057617,0.00103759765625,0.0164794921875,1.00604248046875,36.2599983215332,0.0,-8.0,-1.105743408203125,-0.2747802734375,Closing,0.0,0.0,-2.0,0.0,0.0,0.0,0.0,0.0,
7.545134999999998,0.0,0.0,-5939.0,0.0,0.0,0.0,0.0,0.125,1.6027830390000002,0.8084781462191726,0.0,12290.0,0.0,0.0,0.0,0.0,0.25,3.760985943,3.2955296356558788,0.009765623999999917,-4305.0,0.0,0.0,0.0,0.0,0.0,1.676025219,3.2800139031410205,0.0,11959.0,0.0,0.0,0.0,0.0,0.25,2.413329831,0.8126988364855433,0.0,0.27000001072883606,0.1899999976158142,-31.43000030517578,-0.011474609375,0.00933837890625,1.01519775390625,36.2599983215332,0.0,-15.0,-1.1058807373046875,-0.2747802734375,Closing,0.0,0.0,-2.0,0.0,0.0,0.0,0.0,0.0,
7.598630000000001,0.0,0.0,-5939.0,0.0,0.0,-337.32282400131226,0.0,0.75,1.641845535,1.2330627499999984,0.0,12290.0,0.125,0.0,-337.32282400131226,0.0,1.5,3.822021093,3.7228274999999984,0.0,-4305.0,0.125,0.0,337.32282400131226,0.0,0.875,1.7138670120000001,3.7052999999999985,0.0,11959.0,0.375,0.0,337.32282400131226,0.0,1.0,2.4768063870000003,1.2394999999999985,0.0,0.27000001072883606,0.15000000596046448,-31.440000534057617,-0.0150146484375,0.00970458984375,1.021728515625,36.290000915527344,0.0,-17.0,-1.1058807373046875,-0.2747802734375,Closing,0.0,0.0,-2.0,0.0,0.0,0.0,0.0,0.0,
7.678992999999998,0.0,0.0,-5945.0,11.25,-120.0,-2004.0944337844849,0.0,0.5,1.8688962930000002,1.2330627499999984,0.0,12290.0,26.25,-135.0,-2004.0944337844849,0.0,0.5,4.056396069,3.7228274999999984,0.0,-4305.0,12.875,30.0,2004.0944337844849,0.0,0.25,1.934814255,3.7052999999999985,0.0,11992.0,11.625,112.5,2004.0944337844849,0.0,0.375,2.6892087090000003,1.2394999999999985,0.0,-0.4099999964237213,-0.20000000298023224,-31.270000457763672,-0.3165283203125,-0.15899658203125,1.0140380859375,36.290000915527344,0.0,-188.0,-1.1063690185546875,-0.2762451171875,Closing,0.0,0.0,-2.0,0.0,0.0,0.0,0.0,0.0,
7.7466490000000015,0.0,0.0,-6076.0,20.0,-667.5,-2520.0,0.0,0.375,2.034911901,1.2330627499999984,0.0,12248.0,40.5,-390.0,-2520.0,0.0,0.25,4.200439023,3.7228274999999984,0.0,-4291.0,27.5,127.5,2520.0,0.0,0.25,2.045898228,3.7052999999999985,0.0,11992.0,25.75,390.0,2520.0,0.0,0.375,2.814941118,1.2394999999999985,0.0,-2.009999990463257,-0.46000000834465027,-30.780000686645508,0.05877685546875,-0.41241455078125,1.292236328125,36.290000915527344,0.0,247.0,-1.1048126220703125,-0.291656494140625,Closing,0.0,0.0,-2.0,0.0,0.0,0.0,0.0,0.0,
7.810202000000001,0.0,0.0,-6076.0,18.75,-1057.5,-2520.0,0.0,0.125,2.08740213,1.2330627499999984,0.0,12062.0,44.625,-855.0,-2520.0,0.0,0.25,4.2358394100000005,3.7228274999999984,0.0,-4224.0,37.375,315.0,2520.0,0.0,0.125,2.053222446,3.7052999999999985,0.0,12114.0,27.25,675.0,2520.0,0.0,0.25,2.8393551780000004,1.2394999999999985,0.0,-3.319999933242798,-0.41999998688697815,-30.239999771118164,0.02886962890625,-0.67681884765625,1.25213623046875,36.290000915527344,0.0,337.0,-1.094390869140625,-0.314971923828125,Closing,0.0,0.0,-2.0,0.0,0.0,0.0,0.0,0.0,
7.879719000000001,0.0,0.0,-6315.0,12.625,-1447.5,-2023.9369440078733,0.0,0.125,2.08740213,1.2330627499999984,0.0,12062.0,32.125,-1365.0,-2023.9369440078733,0.0,0.25,4.234618707,3.7228274999999984,0.0,-4224.0,33.25,562.5,2023.9369440078733,0.0,0.125,2.0617673670000003,3.7052999999999985,0.0,12114.0,22.75,1140.0,2023.9369440078733,0.0,0.25,2.8393551780000004,1.2394999999999985,0.0,-4.369999885559082,0.009999999776482582,-29.700000762939453,-0.281494140625,-0.4720458984375,1.12628173828125,36.290000915527344,0.0,-53.0,-1.07159423828125,-0.352569580078125,Closing,0.0,0.0,-2.0,0.0,0.0,0.0,0.0,0.0,
7.899446,0.0,0.0,-6315.0,10.375,-1530.0,0.0,0.0,0.25,2.088622833,1.2330627499999984,0.0,12062.0,25.75,-1485.0,0.0,0.0,0.0,4.234618707,3.7228274999999984,0.0,-4224.0,33.25,562.5,0.0,0.0,0.125,2.0605466640000003,3.7052999999999985,0.0,12114.0,19.5,1275.0,0.0,0.0,0.25,2.838134475,1.2394999999999985,0.0,-4.699999809265137,-0.14000000059604645,-29.670000076293945,-0.1446533203125,-0.68011474609375,0.7357177734375,36.290000915527344,0.0,182.0,-1.0664215087890625,-0.361419677734375,Closing,0.0,0.0,-2.0,0.0,0.0,0.0,0.0,0.0,
