Time,ClimberA1,ClimberA2,FRpos,FRCurrent,FRspeed,FRsetpoint,FRApos,FRACurrent,FREncpos,FREncSetpoint,FREncSpeed,FLpos,FLCurrent,FLspeed,FLsetpoint,FLApos,FLACurrent,FLEncpos,FLEncSetpoint,FLEncSpeed,BRpos,BRCurrent,BRspeed,BRsetpoint,BRApos,BRACurrent,BREncpos,BREncSetpoint,BREncSpeed,BLpos,BLCurrent,BLspeed,BLsetpoint,BLApos,BLACurrent,BLEncpos,BLEncSetpoint,BLEncSpeed,navx_Pitch,navx_Roll,navx_Yaw,navx_XAcc,navx_YAcc,navx_ZAcc,navx_Temp,navx_Bar,navx_Alt,navx_XDis,navx_YDis,GearPlacerState,ShootOutputV,ShootOutputCurrent,ShootEncPos,ShootEncVelocity,ShootSpeed,ShootSetpoint,CarouselSetpoint,CarouselCurrent,
0.12543300000000454,0.0,0.0,81072.0,0.0,0.0,0.0,0.0,0.125,0.8532713970000001,4.932250999999998,0.0,-77169.0,0.0,0.0,0.0,0.0,0.0,2.9492184480000003,2.481884999999998,0.0,84381.0,0.0,0.0,0.0,0.0,0.0,0.8557128030000001,2.4702000000000024,0.0,-77550.0,0.0,0.0,0.0,0.0,0.125,4.218749568,2.4790000000000023,0.0,-0.4000000059604645,-0.8999999761581421,0.0,-0.01580810546875,-0.00909423828125,1.0257568359375,32.56999969482422,0.0,0.0,1.11749267578125,-0.685028076171875,Waiting,0.0,0.0,22.0,0.0,0.0,0.0,0.0,0.0,
0.18303000000001338,0.0,0.0,81072.0,0.0,0.0,0.0,0.0,0.125,0.847167882,4.932250999999998,0.0,-77169.0,0.0,0.0,0.0,0.0,0.0,2.9492184480000003,2.481884999999998,0.0,84381.0,0.0,0.0,0.0,0.0,0.0,0.8544921000000001,2.4702000000000024,0.0,-77550.0,0.0,0.0,0.0,0.0,0.125,4.217528865,2.4790000000000023,0.07324217999999938,-0.4000000059604645,-0.8899999856948853,0.0,-0.0146484375,-0.0086669921875,1.02093505859375,32.58000183105469,0.0,1.0,1.11749267578125,-0.685028076171875,Waiting,0.0,0.0,22.0,0.0,0.0,0.0,0.0,0.0,
0.25386200000000825,0.0,0.0,81072.0,0.0,0.0,0.0,0.0,0.125,0.8532713970000001,4.932250999999998,0.0,-77169.0,0.0,0.0,0.0,0.0,0.0,2.9492184480000003,2.481884999999998,0.0,84381.0,0.0,0.0,0.0,0.0,0.0,0.8581542090000001,2.4702000000000024,0.0,-77550.0,0.0,0.0,0.0,0.0,0.25,4.151610903,2.4790000000000023,0.0,-0.4000000059604645,-0.8999999761581421,0.0,-0.016845703125,-0.00830078125,1.02008056640625,32.58000183105469,0.0,0.0,1.11749267578125,-0.685028076171875,Waiting,0.0,0.0,22.0,0.0,0.0,0.0,0.0,0.0,
0.3856330000000016,0.0,0.0,81072.0,0.0,0.0,0.0,0.0,0.125,0.8532713970000001,4.932250999999998,-0.0012207029999999897,-77169.0,0.0,0.0,0.0,0.0,0.0,2.9479977450000003,2.481884999999998,0.0,84381.0,0.0,0.0,0.0,0.0,0.0,0.8544921000000001,2.4702000000000024,0.0,-77550.0,0.0,0.0,0.0,0.0,0.25,4.1357417640000005,2.4790000000000023,-0.06835936799999942,-0.4000000059604645,-0.8999999761581421,0.0,-0.016357421875,-0.01153564453125,1.02392578125,32.58000183105469,0.0,0.0,1.11749267578125,-0.685028076171875,Waiting,0.0,0.0,22.0,0.0,0.0,0.0,0.0,0.0,
0.44100200000000767,0.0,0.0,81072.0,0.0,0.0,0.0,0.0,0.125,0.8532713970000001,4.932250999999998,0.0012207029999999897,-77169.0,0.0,0.0,0.0,0.0,0.0,2.9479977450000003,2.481884999999998,0.0,84381.0,0.0,0.0,0.0,0.0,0.0,0.8557128030000001,2.4702000000000024,0.0,-77550.0,0.0,0.0,0.0,0.0,0.25,4.136962467,2.4790000000000023,-0.014648435999999876,-0.38999998569488525,-0.8999999761581421,0.0,-0.0133056640625,-0.009033203125,1.01910400390625,32.58000183105469,0.0,2.0,1.11749267578125,-0.685028076171875,Waiting,0.0,0.0,22.0,0.0,0.0,0.0,0.0,0.0,
0.49496900000001187,0.0,0.0,81072.0,0.0,0.0,0.0,0.0,0.125,0.8532713970000001,4.932250999999998,-0.0012207029999999897,-77169.0,0.0,0.0,0.0,0.0,0.0,2.9492184480000003,2.481884999999998,0.0,84381.0,0.0,0.0,0.0,0.0,0.0,0.8544921000000001,2.4702000000000024,0.0,-77550.0,0.0,0.0,0.0,0.0,0.125,4.136962467,2.4790000000000023,0.0,-0.38999998569488525,-0.8999999761581421,-0.009999999776482582,-0.016357421875,-0.00738525390625,1.01934814453125,32.58000183105469,0.0,0.0,1.11749267578125,-0.685028076171875,Waiting,0.0,0.0,22.0,0.0,0.0,0.0,0.0,0.0,
0.5517860000000073,0.0,0.0,81072.0,0.0,0.0,0.0,0.0,0.125,0.8532713970000001,4.932250999999998,0.0,-77169.0,0.0,0.0,0.0,0.0,0.0,2.9479977450000003,2.481884999999998,0.0,84381.0,0.0,0.0,0.0,0.0,0.0,0.8544921000000001,2.4702000000000024,0.0,-77550.0,0.0,0.0,0.0,0.0,0.125,4.136962467,2.4790000000000023,0.0,-0.38999998569488525,-0.8999999761581421,-0.009999999776482582,-0.01800537109375,-0.0054931640625,1.0263671875,32.58000183105469,0.0,-1.0,1.11749267578125,-0.685028076171875,Waiting,0.0,0.0,22.0,0.0,0.0,0.0,0.0,0.0,
0.6077380000000121,0.0,0.0,81072.0,0.0,0.0,0.0,0.0,0.125,0.848388585,4.932250999999998,0.0024414060000000903,-77169.0,0.0,0.0,0.0,0.0,0.0,2.9492184480000003,2.481884999999998,0.0,84381.0,0.0,0.0,0.0,0.0,0.0,0.8544921000000001,2.4702000000000024,0.0,-77550.0,0.0,0.0,0.0,0.0,0.125,4.1381831700000005,2.4790000000000023,0.0,-0.38999998569488525,-0.8999999761581421,-0.009999999776482582,-0.01531982421875,-0.0086669921875,1.02099609375,32.58000183105469,0.0,0.0,1.11749267578125,-0.685028076171875,Waiting,0.0,0.0,22.0,0.0,0.0,0.0,0.0,0.0,
0.662273000000001,0.0,0.0,81072.0,0.0,0.0,0.0,0.0,0.25,0.8532713970000001,4.932250999999998,-0.0012207030000001007,-77169.0,0.0,0.0,0.0,0.0,0.0,2.9479977450000003,2.481884999999998,0.0,84381.0,0.0,0.0,0.0,0.0,0.0,0.8557128030000001,2.4702000000000024,0.0,-77550.0,0.0,0.0,0.0,0.0,0.125,4.1357417640000005,2.4790000000000023,0.0,-0.38999998569488525,-0.8999999761581421,-0.009999999776482582,-0.0155029296875,-0.010009765625,1.02362060546875,32.59000015258789,0.0,0.0,1.11749267578125,-0.685028076171875,Waiting,0.0,0.0,22.0,0.0,0.0,0.0,0.0,0.0,
0.7146410000000033,0.0,0.0,81072.0,0.0,0.0,0.0,0.0,0.125,0.8532713970000001,4.932250999999998,0.0,-77169.0,0.0,0.0,0.0,0.0,0.0,2.9492184480000003,2.481884999999998,0.0,84381.0,0.0,0.0,0.0,0.0,0.0,0.8557128030000001,2.4702000000000024,0.0,-77550.0,0.0,0.0,0.0,0.0,0.125,4.136962467,2.4790000000000023,0.0,-0.38999998569488525,-0.8999999761581421,-0.009999999776482582,-0.01617431640625,-0.0068359375,1.022705078125,32.59000015258789,0.0,0.0,1.11749267578125,-0.685028076171875,Waiting,0.0,0.0,22.0,0.0,0.0,0.0,0.0,0.0,
0.771919000000009,0.0,0.0,81072.0,0.0,0.0,0.0,0.0,0.125,0.8532713970000001,4.932250999999998,0.0,-77169.0,0.0,0.0,0.0,0.0,0.0,2.9492184480000003,2.481884999999998,0.0,84381.0,0.0,0.0,0.0,0.0,0.0,0.8557128030000001,2.4702000000000024,0.0,-77550.0,0.0,0.0,0.0,0.0,0.125,4.136962467,2.4790000000000023,0.0,-0.38999998569488525,-0.8999999761581421,0.0,-0.0164794921875,-0.00439453125,1.021240234375,32.59000015258789,0.0,0.0,1.11749267578125,-0.685028076171875,Waiting,0.0,0.0,22.0,0.0,0.0,0.0,0.0,0.0,
0.8301160000000091,0.0,0.0,81072.0,0.0,0.0,0.0,0.0,0.125,0.849609288,4.932250999999998,0.0,-77169.0,0.0,0.0,0.0,0.0,0.0,2.9479977450000003,2.481884999999998,0.0,84381.0,0.0,0.0,0.0,0.0,0.0,0.8557128030000001,2.4702000000000024,0.0,-77550.0,0.0,0.0,0.0,0.0,0.125,4.136962467,2.4790000000000023,0.0,-0.4000000059604645,-0.8999999761581421,0.0,-0.0137939453125,-0.008056640625,1.02423095703125,32.59000015258789,0.0,2.0,1.11749267578125,-0.685028076171875,Waiting,0.0,0.0,22.0,0.0,0.0,0.0,0.0,0.0,
0.887099000000002,0.0,0.0,81072.0,0.0,0.0,0.0,0.0,0.125,0.852050694,4.932250999999998,-0.0024414060000000903,-77169.0,0.0,0.0,0.0,0.0,0.0,2.9504391510000003,2.481884999999998,0.0,84381.0,0.0,0.0,0.0,0.0,0.0,0.8544921000000001,2.4702000000000024,0.0,-77550.0,0.0,0.0,0.0,0.0,0.125,4.1381831700000005,2.4790000000000023,0.0,-0.38999998569488525,-0.8999999761581421,0.0,-0.0166015625,-0.0086669921875,1.02191162109375,32.59000015258789,0.0,0.0,1.11749267578125,-0.685028076171875,Waiting,0.0,0.0,22.0,0.0,0.0,0.0,0.0,0.0,
0.9460300000000134,0.0,0.0,81072.0,0.0,0.0,0.0,0.0,0.125,0.848388585,4.932250999999998,0.0,-77169.0,0.0,0.0,0.0,0.0,0.0,2.9492184480000003,2.481884999999998,0.0,84381.0,0.0,0.0,0.0,0.0,0.0,0.8557128030000001,2.4702000000000024,0.0,-77550.0,0.0,0.0,0.0,0.0,0.125,4.1357417640000005,2.4790000000000023,0.0,-0.4000000059604645,-0.8999999761581421,0.0,-0.017333984375,-0.00732421875,1.0196533203125,32.59000015258789,0.0,-1.0,1.11749267578125,-0.685028076171875,Waiting,0.0,0.0,22.0,0.0,0.0,0.0,0.0,0.0,
0.9990820000000095,0.0,0.0,81072.0,0.0,0.0,0.0,0.0,0.125,0.8532713970000001,4.932250999999998,-0.0012207029999999897,-77169.0,0.0,0.0,0.0,0.0,0.0,2.9479977450000003,2.481884999999998,0.0,84381.0,0.0,0.0,0.0,0.0,0.0,0.8544921000000001,2.4702000000000024,0.0,-77550.0,0.0,0.0,0.0,0.0,0.125,4.136962467,2.4790000000000023,0.0,-0.4000000059604645,-0.8999999761581421,0.0,-0.01434326171875,-0.00616455078125,1.02142333984375,32.59000015258789,0.0,1.0,1.11749267578125,-0.685028076171875,Waiting,0.0,0.0,22.0,0.0,0.0,0.0,0.0,0.0,
1.0542340000000112,0.0,0.0,81072.0,0.0,0.0,0.0,0.0,0.125,0.8544921000000001,4.932250999999998,0.0012207029999999897,-77169.0,0.0,0.0,0.0,0.0,0.0,2.9479977450000003,2.481884999999998,0.0,84381.0,0.0,0.0,0.0,0.0,0.0,0.8581542090000001,2.4702000000000024,0.0,-77550.0,0.0,0.0,0.0,0.0,0.125,4.1357417640000005,2.4790000000000023,0.0,-0.4000000059604645,-0.8999999761581421,0.0,-0.0194091796875,-0.00579833984375,1.021240234375,32.59000015258789,0.0,-3.0,1.11749267578125,-0.685028076171875,Waiting,0.0,0.0,22.0,0.0,0.0,0.0,0.0,0.0,
1.112298999999999,0.0,0.0,81072.0,0.0,0.0,0.0,0.0,0.125,0.8532713970000001,4.932250999999998,-0.0024414059999999793,-77169.0,0.0,0.0,0.0,0.0,0.0,2.9492184480000003,2.481884999999998,0.0,84381.0,0.0,0.0,0.0,0.0,0.0,0.8544921000000001,2.4702000000000024,0.0,-77550.0,0.0,0.0,0.0,0.0,0.125,4.136962467,2.4790000000000023,0.0,-0.38999998569488525,-0.8999999761581421,0.0,-0.01708984375,-0.00469970703125,1.02032470703125,32.59000015258789,0.0,0.0,1.11749267578125,-0.685028076171875,Waiting,0.0,0.0,22.0,0.0,0.0,0.0,0.0,0.0,
1.1659360000000014,0.0,0.0,81072.0,0.0,0.0,0.0,0.0,0.125,0.8532713970000001,4.932250999999998,0.003662108999999969,-77169.0,0.0,0.0,0.0,0.0,0.0,2.9479977450000003,2.481884999999998,0.0,84381.0,0.0,0.0,0.0,0.0,0.0,0.8557128030000001,2.4702000000000024,0.0,-77550.0,0.0,0.0,0.0,0.0,0.125,4.1357417640000005,2.4790000000000023,0.0,-0.4000000059604645,-0.8999999761581421,0.0,-0.01739501953125,-0.007080078125,1.02362060546875,32.59000015258789,0.0,-1.0,1.11749267578125,-0.685028076171875,Waiting,0.0,0.0,22.0,0.0,0.0,0.0,0.0,0.0,
1.2242150000000112,0.0,0.0,81072.0,0.0,0.0,0.0,0.0,0.125,0.8532713970000001,4.932250999999998,0.0,-77169.0,0.0,0.0,0.0,0.0,0.0,2.9479977450000003,2.481884999999998,0.0,84381.0,0.0,0.0,0.0,0.0,0.0,0.8544921000000001,2.4702000000000024,0.0,-77550.0,0.0,0.0,0.0,0.0,0.125,4.1357417640000005,2.4790000000000023,0.0,-0.4000000059604645,-0.8999999761581421,0.0,-0.0152587890625,-0.0064697265625,1.02301025390625,32.58000183105469,0.0,0.0,1.11749267578125,-0.685028076171875,Waiting,0.0,0.0,22.0,0.0,0.0,0.0,0.0,0.0,
1.2754500000000117,0.0,0.0,81072.0,0.0,0.0,0.0,0.0,0.25,0.848388585,4.932250999999998,-0.0012207029999999897,-77169.0,0.0,0.0,0.0,0.0,0.0,2.9492184480000003,2.481884999999998,0.0,84381.0,0.0,0.0,0.0,0.0,0.0,0.8544921000000001,2.4702000000000024,0.0,-77550.0,0.0,0.0,0.0,0.0,0.125,4.136962467,2.4790000000000023,0.0,-0.4000000059604645,-0.8999999761581421,0.0,-0.01763916015625,-0.00738525390625,1.01812744140625,32.58000183105469,0.0,-1.0,1.11749267578125,-0.685028076171875,Waiting,0.0,0.0,22.0,0.0,0.0,0.0,0.0,0.0,
1.3278780000000114,0.0,0.0,81072.0,0.0,0.0,0.0,0.0,0.125,0.8532713970000001,4.932250999999998,0.0012207029999999897,-77169.0,0.0,0.0,0.0,0.0,0.0,2.9479977450000003,2.481884999999998,0.0,84381.0,0.0,0.0,0.0,0.0,0.0,0.852050694,2.4702000000000024,0.0,-77550.0,0.0,0.0,0.0,0.0,0.125,4.136962467,2.4790000000000023,0.0,-0.4000000059604645,-0.8999999761581421,0.0,-0.0159912109375,-0.00830078125,1.02264404296875,32.58000183105469,0.0,0.0,1.11749267578125,-0.685028076171875,Waiting,0.0,0.0,22.0,0.0,0.0,0.0,0.0,0.0,
1.378277000000002,0.0,0.0,81072.0,0.0,0.0,0.0,0.0,0.125,0.848388585,4.932250999999998,-0.0024414059999999793,-77169.0,0.0,0.0,0.0,0.0,0.0,2.9443356360000004,2.481884999999998,0.0,84381.0,0.0,0.0,0.0,0.0,0.0,0.8557128030000001,2.4702000000000024,0.0,-77550.0,0.0,0.0,0.0,0.0,0.125,4.1381831700000005,2.4790000000000023,0.0,-0.4099999964237213,-0.9100000262260437,0.0,-0.01824951171875,-0.00726318359375,1.02252197265625,32.58000183105469,0.0,-1.0,1.11749267578125,-0.685028076171875,Waiting,0.0,0.0,22.0,0.0,0.0,0.0,0.0,0.0,
1.4337880000000005,0.0,0.0,81072.0,0.0,0.0,0.0,0.0,0.125,0.852050694,4.932250999999998,0.0,-77169.0,0.0,0.0,0.0,0.0,0.0,2.9492184480000003,2.481884999999998,0.0,84381.0,0.0,0.0,0.0,0.0,0.0,0.8557128030000001,2.4702000000000024,0.0,-77550.0,0.0,0.0,0.0,0.0,0.125,4.1357417640000005,2.4790000000000023,0.0,-0.4000000059604645,-0.9100000262260437,0.0,-0.018310546875,-0.00897216796875,1.02191162109375,32.58000183105469,0.0,-2.0,1.11749267578125,-0.685028076171875,Waiting,0.0,0.0,22.0,0.0,0.0,0.0,0.0,0.0,
1.4881310000000085,0.0,0.0,81072.0,0.0,0.0,0.0,0.0,0.125,0.8532713970000001,4.932250999999998,0.00366210900000008,-77169.0,0.0,0.0,0.0,0.0,0.0,2.9492184480000003,2.481884999999998,0.0,84381.0,0.0,0.0,0.0,0.0,0.0,0.8544921000000001,2.4702000000000024,0.0,-77550.0,0.0,0.0,0.0,0.0,0.125,4.1357417640000005,2.4790000000000023,0.0,-0.4000000059604645,-0.9100000262260437,-0.009999999776482582,-0.01702880859375,-0.0078125,1.02197265625,32.58000183105469,0.0,0.0,1.11749267578125,-0.685028076171875,Waiting,0.0,0.0,22.0,0.0,0.0,0.0,0.0,0.0,
1.5378640000000015,0.0,0.0,81072.0,0.0,0.0,0.0,0.0,0.125,0.852050694,4.932250999999998,-0.0012207030000001007,-77169.0,0.0,0.0,0.0,0.0,0.0,2.9492184480000003,2.481884999999998,0.0,84381.0,0.0,0.0,0.0,0.0,0.0,0.8581542090000001,2.4702000000000024,0.0,-77550.0,0.0,0.0,0.0,0.0,0.125,4.1357417640000005,2.4790000000000023,0.0,-0.4000000059604645,-0.9100000262260437,-0.009999999776482582,-0.01806640625,-0.00714111328125,1.02349853515625,32.58000183105469,0.0,-1.0,1.11749267578125,-0.685028076171875,Waiting,0.0,0.0,22.0,0.0,0.0,0.0,0.0,0.0,
1.5923110000000016,0.0,0.0,81072.0,0.0,0.0,0.0,0.0,0.125,0.849609288,4.932250999999998,0.0,-77169.0,0.0,0.0,0.0,0.0,0.0,2.9479977450000003,2.481884999999998,0.0,84381.0,0.0,0.0,0.0,0.0,0.0,0.8557128030000001,2.4702000000000024,0.0,-77550.0,0.0,0.0,0.0,0.0,0.125,4.1357417640000005,2.4790000000000023,0.0,-0.4000000059604645,-0.9100000262260437,-0.009999999776482582,-0.0174560546875,-0.0064697265625,1.0213623046875,32.58000183105469,0.0,-1.0,1.11749267578125,-0.685028076171875,Waiting,0.0,0.0,22.0,0.0,0.0,0.0,0.0,0.0,
1.6504950000000098,0.0,0.0,81072.0,0.0,0.0,0.0,0.0,0.125,0.848388585,4.932250999999998,0.0,-77169.0,0.0,0.0,0.0,0.0,0.0,2.9492184480000003,2.481884999999998,0.0,84381.0,0.0,0.0,0.0,0.0,0.0,0.8557128030000001,2.4702000000000024,0.0,-77550.0,0.0,0.0,0.0,0.0,0.125,4.136962467,2.4790000000000023,0.0,-0.4000000059604645,-0.9100000262260437,-0.009999999776482582,-0.0159912109375,-0.00726318359375,1.022705078125,32.58000183105469,0.0,0.0,1.11749267578125,-0.685028076171875,Waiting,0.0,0.0,22.0,0.0,0.0,0.0,0.0,0.0,
1.703548999999999,0.0,0.0,81072.0,0.0,0.0,0.0,0.0,0.125,0.848388585,4.932250999999998,0.0,-77169.0,0.0,0.0,0.0,0.0,0.0,2.9479977450000003,2.481884999999998,0.0,84381.0,0.0,0.0,0.0,0.0,0.0,0.8544921000000001,2.4702000000000024,0.0,-77550.0,0.0,0.0,0.0,0.0,0.125,4.139403873,2.4790000000000023,0.0,-0.4000000059604645,-0.9200000166893005,-0.009999999776482582,-0.0169677734375,-0.00555419921875,1.01959228515625,32.56999969482422,0.0,0.0,1.11749267578125,-0.685028076171875,Waiting,0.0,0.0,22.0,0.0,0.0,0.0,0.0,0.0,
1.7532580000000015,0.0,0.0,81072.0,0.0,0.0,0.0,0.0,0.125,0.852050694,4.932250999999998,-0.0024414059999999793,-77169.0,0.0,0.0,0.0,0.0,0.0,2.9492184480000003,2.481884999999998,0.0,84381.0,0.0,0.0,0.0,0.0,0.0,0.8557128030000001,2.4702000000000024,0.0,-77550.0,0.0,0.0,0.0,0.0,0.125,4.1381831700000005,2.4790000000000023,0.0,-0.4000000059604645,-0.9200000166893005,-0.009999999776482582,-0.01702880859375,-0.00811767578125,1.0157470703125,32.56999969482422,0.0,0.0,1.11749267578125,-0.685028076171875,Waiting,0.0,0.0,22.0,0.0,0.0,0.0,0.0,0.0,
1.8065280000000057,0.0,0.0,81072.0,0.0,0.0,0.0,0.0,0.25,0.8532713970000001,4.932250999999998,0.0024414059999999793,-77169.0,0.0,0.0,0.0,0.0,0.0,2.9492184480000003,2.481884999999998,0.0,84381.0,0.0,0.0,0.0,0.0,0.0,0.8544921000000001,2.4702000000000024,0.0,-77550.0,0.0,0.0,0.0,0.0,0.125,4.1357417640000005,2.4790000000000023,0.0,-0.4000000059604645,-0.9200000166893005,-0.009999999776482582,-0.01751708984375,-0.00518798828125,1.02020263671875,32.56999969482422,0.0,-1.0,1.11749267578125,-0.685028076171875,Waiting,0.0,0.0,22.0,0.0,0.0,0.0,0.0,0.0,
1.8557290000000066,0.0,0.0,81072.0,0.0,0.0,0.0,0.0,0.125,0.8532713970000001,4.932250999999998,0.0,-77169.0,0.0,0.0,0.0,0.0,0.0,2.9479977450000003,2.481884999999998,0.0,84381.0,0.0,0.0,0.0,0.0,0.0,0.8581542090000001,2.4702000000000024,0.0,-77550.0,0.0,0.0,0.0,0.0,0.125,4.1357417640000005,2.4790000000000023,0.0,-0.4099999964237213,-0.9200000166893005,-0.009999999776482582,-0.01763916015625,-0.00787353515625,1.020751953125,32.56999969482422,0.0,-1.0,1.11749267578125,-0.685028076171875,Waiting,0.0,0.0,22.0,0.0,0.0,0.0,0.0,0.0,
1.908445000000007,0.0,0.0,81072.0,0.0,0.0,0.0,0.0,0.125,0.8532713970000001,4.932250999999998,-0.0024414059999999793,-77169.0,0.0,0.0,0.0,0.0,0.0,2.9492184480000003,2.481884999999998,0.0,84381.0,0.0,0.0,0.0,0.0,0.0,0.8544921000000001,2.4702000000000024,0.0,-77550.0,0.0,0.0,0.0,0.0,0.125,4.136962467,2.4790000000000023,0.0,-0.4000000059604645,-0.9200000166893005,-0.009999999776482582,-0.0184326171875,-0.00579833984375,1.02001953125,32.56999969482422,0.0,-1.0,1.11749267578125,-0.685028076171875,Waiting,0.0,0.0,22.0,0.0,0.0,0.0,0.0,0.0,
1.9592690000000001,0.0,0.0,81072.0,0.0,0.0,0.0,0.0,0.125,0.8532713970000001,4.932250999999998,0.0024414059999999793,-77169.0,0.0,0.0,0.0,0.0,0.0,2.9492184480000003,2.481884999999998,0.0,84381.0,0.0,0.0,0.0,0.0,0.0,0.8557128030000001,2.4702000000000024,0.0,-77550.0,0.0,0.0,0.0,0.0,0.125,4.136962467,2.4790000000000023,0.0,-0.4000000059604645,-0.9200000166893005,-0.009999999776482582,-0.01690673828125,-0.00823974609375,1.021728515625,32.56999969482422,0.0,0.0,1.11749267578125,-0.685028076171875,Waiting,0.0,0.0,22.0,0.0,0.0,0.0,0.0,0.0,
2.011918000000005,0.0,0.0,81072.0,0.0,0.0,0.0,0.0,0.125,0.825195228,4.932250999999998,-0.0012207029999999897,-77169.0,0.0,0.0,0.0,0.0,0.0,2.9492184480000003,2.481884999999998,0.0,84381.0,0.0,0.0,0.0,0.0,0.0,0.8544921000000001,2.4702000000000024,0.0,-77550.0,0.0,0.0,0.0,0.0,0.125,4.136962467,2.4790000000000023,0.0,-0.4000000059604645,-0.9200000166893005,-0.009999999776482582,-0.02093505859375,-0.0081787109375,1.01885986328125,32.56999969482422,0.0,-4.0,1.11749267578125,-0.685028076171875,Waiting,0.0,0.0,22.0,0.0,0.0,0.0,0.0,0.0,
2.0892570000000124,0.0,0.0,81072.0,0.0,0.0,0.0,0.0,0.125,0.8532713970000001,4.932250999999998,0.0,-77169.0,0.0,0.0,0.0,0.0,0.0,2.9479977450000003,2.481884999999998,0.0,84381.0,0.0,0.0,0.0,0.0,0.0,0.8557128030000001,2.4702000000000024,0.0,-77550.0,0.0,0.0,0.0,0.0,0.125,4.136962467,2.4790000000000023,0.0012207029999995456,-0.4099999964237213,-0.9300000071525574,-0.009999999776482582,-0.01629638671875,-0.00543212890625,1.02093505859375,32.56999969482422,0.0,0.0,1.11749267578125,-0.685028076171875,Waiting,0.0,0.0,22.0,0.0,0.0,0.0,0.0,0.0,
2.1413970000000115,0.0,0.0,81072.0,0.0,0.0,0.0,0.0,0.125,0.8532713970000001,4.932250999999998,0.0012207029999999897,-77169.0,0.0,0.0,0.0,0.0,0.0,2.9479977450000003,2.481884999999998,0.0,84381.0,0.0,0.0,0.0,0.0,0.0,0.8557128030000001,2.4702000000000024,0.0,-77550.0,0.0,0.0,0.0,0.0,0.125,4.136962467,2.4790000000000023,0.0,-0.4099999964237213,-0.9300000071525574,-0.009999999776482582,-0.01806640625,-0.00860595703125,1.0235595703125,32.56999969482422,0.0,-1.0,1.11749267578125,-0.685028076171875,Waiting,0.0,0.0,22.0,0.0,0.0,0.0,0.0,0.0,
2.1922280000000027,0.0,0.0,81072.0,0.0,0.0,0.0,0.0,0.125,0.8532713970000001,4.932250999999998,-0.0012207029999999897,-77169.0,0.0,0.0,0.0,0.0,0.0,2.9479977450000003,2.481884999999998,0.0,84381.0,0.0,0.0,0.0,0.0,0.0,0.8557128030000001,2.4702000000000024,0.0,-77550.0,0.0,0.0,0.0,0.0,0.125,4.139403873,2.4790000000000023,-0.0012207029999995456,-0.4099999964237213,-0.9300000071525574,-0.019999999552965164,-0.01275634765625,-0.005615234375,1.02197265625,32.59000015258789,0.0,3.0,1.11749267578125,-0.685028076171875,Waiting,0.0,0.0,22.0,0.0,0.0,0.0,0.0,0.0,
2.248040000000008,0.0,0.0,81072.0,0.0,0.0,0.0,0.0,0.125,0.8532713970000001,4.932250999999998,0.0,-77169.0,0.0,0.0,0.0,0.0,0.0,2.9479977450000003,2.481884999999998,0.0,84381.0,0.0,0.0,0.0,0.0,0.0,0.8557128030000001,2.4702000000000024,0.0,-77550.0,0.0,0.0,0.0,0.0,0.125,4.1357417640000005,2.4790000000000023,0.0012207029999995456,-0.4099999964237213,-0.9300000071525574,-0.019999999552965164,-0.0167236328125,-0.00994873046875,1.02239990234375,32.59000015258789,0.0,0.0,1.11749267578125,-0.685028076171875,Waiting,0.0,0.0,22.0,0.0,0.0,0.0,0.0,0.0,
2.2996040000000066,0.0,0.0,81072.0,0.0,0.0,0.0,0.0,0.125,0.848388585,4.932250999999998,0.0012207029999999897,-77169.0,0.0,0.0,0.0,0.0,0.0,2.9479977450000003,2.481884999999998,0.0,84381.0,0.0,0.0,0.0,0.0,0.0,0.8544921000000001,2.4702000000000024,0.0,-77550.0,0.0,0.0,0.0,0.0,0.125,4.1381831700000005,2.4790000000000023,-0.0012207029999995456,-0.4099999964237213,-0.9300000071525574,-0.019999999552965164,-0.0185546875,-0.007080078125,1.022705078125,32.59000015258789,0.0,-1.0,1.11749267578125,-0.685028076171875,Waiting,0.0,0.0,22.0,0.0,0.0,0.0,0.0,0.0,
2.354266000000003,0.0,0.0,81072.0,0.0,0.0,0.0,0.0,0.125,0.8532713970000001,4.932250999999998,-0.0012207029999999897,-77169.0,0.0,0.0,0.0,0.0,0.0,2.9492184480000003,2.481884999999998,0.0,84381.0,0.0,0.0,0.0,0.0,0.0,0.8557128030000001,2.4702000000000024,0.0,-77550.0,0.0,0.0,0.0,0.0,0.125,4.136962467,2.4790000000000023,0.0,-0.4000000059604645,-0.9300000071525574,-0.019999999552965164,-0.01812744140625,-0.0076904296875,1.01837158203125,32.59000015258789,0.0,-1.0,1.11749267578125,-0.685028076171875,Waiting,0.0,0.0,22.0,0.0,0.0,0.0,0.0,0.0,
2.409365000000005,0.0,0.0,81072.0,0.0,0.0,0.0,0.0,0.125,0.848388585,4.932250999999998,-0.0012207029999999897,-77169.0,0.0,0.0,0.0,0.0,0.0,2.9504391510000003,2.481884999999998,0.0,84381.0,0.0,0.0,0.0,0.0,0.0,0.8544921000000001,2.4702000000000024,0.0,-77550.0,0.0,0.0,0.0,0.0,0.125,4.136962467,2.4790000000000023,0.0,-0.4000000059604645,-0.9300000071525574,-0.019999999552965164,-0.01690673828125,-0.0091552734375,1.0234375,32.59000015258789,0.0,0.0,1.11749267578125,-0.685028076171875,Waiting,0.0,0.0,22.0,0.0,0.0,0.0,0.0,0.0,
2.4566360000000134,0.0,0.0,81072.0,0.0,0.0,0.0,0.0,0.125,0.8532713970000001,4.932250999999998,0.0024414059999999793,-77169.0,0.0,0.0,0.0,0.0,0.0,2.9467770420000003,2.481884999999998,0.0,84381.0,0.0,0.0,0.0,0.0,0.0,0.8557128030000001,2.4702000000000024,0.0,-77550.0,0.0,0.0,0.0,0.0,0.125,4.136962467,2.4790000000000023,0.0,-0.4099999964237213,-0.9300000071525574,-0.019999999552965164,-0.01531982421875,-0.00750732421875,1.01776123046875,32.59000015258789,0.0,1.0,1.11749267578125,-0.685028076171875,Waiting,0.0,0.0,22.0,0.0,0.0,0.0,0.0,0.0,
2.5099619999999994,0.0,0.0,81072.0,0.0,0.0,0.0,0.0,0.125,0.8532713970000001,4.932250999999998,-0.0012207029999999897,-77169.0,0.0,0.0,0.0,0.0,0.0,2.9479977450000003,2.481884999999998,0.0,84381.0,0.0,0.0,0.0,0.0,0.0,0.8544921000000001,2.4702000000000024,0.0,-77550.0,0.0,0.0,0.0,0.0,0.125,4.136962467,2.4790000000000023,0.0,-0.4000000059604645,-0.9300000071525574,-0.019999999552965164,-0.01519775390625,-0.00579833984375,1.02392578125,32.59000015258789,0.0,1.0,1.11749267578125,-0.685028076171875,Waiting,0.0,0.0,22.0,0.0,0.0,0.0,0.0,0.0,
2.5656340000000055,0.0,0.0,81072.0,0.0,0.0,0.0,0.0,0.125,0.852050694,4.932250999999998,0.0012207029999999897,-77169.0,0.0,0.0,0.0,0.0,0.0,2.9467770420000003,2.481884999999998,0.0,84381.0,0.0,0.0,0.0,0.0,0.0,0.8557128030000001,2.4702000000000024,0.0,-77550.0,0.0,0.0,0.0,0.0,0.125,4.1357417640000005,2.4790000000000023,0.0,-0.4000000059604645,-0.9300000071525574,-0.019999999552965164,-0.0157470703125,-0.00555419921875,1.022705078125,32.59000015258789,0.0,0.0,1.11749267578125,-0.685028076171875,Waiting,0.0,0.0,22.0,0.0,0.0,0.0,0.0,0.0,
2.614416000000012,0.0,0.0,81072.0,0.0,0.0,0.0,0.0,0.125,0.8532713970000001,4.932250999999998,0.0012207030000001007,-77169.0,0.0,0.0,0.0,0.0,0.0,2.9492184480000003,2.481884999999998,0.0,84381.0,0.0,0.0,0.0,0.0,0.0,0.8557128030000001,2.4702000000000024,0.0,-77550.0,0.0,0.0,0.0,0.0,0.125,4.1357417640000005,2.4790000000000023,0.0,-0.4000000059604645,-0.9300000071525574,-0.019999999552965164,-0.0179443359375,-0.0081787109375,1.02294921875,32.59000015258789,0.0,-1.0,1.11749267578125,-0.685028076171875,Waiting,0.0,0.0,22.0,0.0,0.0,0.0,0.0,0.0,
2.6680080000000017,0.0,0.0,81072.0,0.0,0.0,0.0,0.0,0.25,0.852050694,4.932250999999998,-0.00488281200000007,-77169.0,0.0,0.0,0.0,0.0,0.0,2.9479977450000003,2.481884999999998,0.0,84381.0,0.0,0.0,0.0,0.0,0.0,0.8557128030000001,2.4702000000000024,0.0,-77550.0,0.0,0.0,0.0,0.0,0.125,4.136962467,2.4790000000000023,0.0,-0.4000000059604645,-0.9300000071525574,-0.019999999552965164,-0.0155029296875,-0.008056640625,1.0203857421875,32.59000015258789,0.0,1.0,1.11749267578125,-0.685028076171875,Waiting,0.0,0.0,22.0,0.0,0.0,0.0,0.0,0.0,
2.7158850000000094,0.0,0.0,81072.0,0.0,0.0,0.0,0.0,0.125,0.8532713970000001,4.932250999999998,0.0024414059999999793,-77169.0,0.0,0.0,0.0,0.0,0.0,2.9492184480000003,2.481884999999998,0.0,84381.0,0.0,0.0,0.0,0.0,0.0,0.8557128030000001,2.4702000000000024,0.0,-77550.0,0.0,0.0,0.0,0.0,0.125,4.136962467,2.4790000000000023,0.0,-0.4000000059604645,-0.9300000071525574,-0.019999999552965164,-0.01678466796875,-0.00885009765625,1.02484130859375,32.58000183105469,0.0,0.0,1.11749267578125,-0.685028076171875,Waiting,0.0,0.0,22.0,0.0,0.0,0.0,0.0,0.0,
2.770521000000008,0.0,0.0,81072.0,0.0,0.0,0.0,0.0,0.125,0.852050694,4.932250999999998,0.0012207029999999897,-77169.0,0.0,0.0,0.0,0.0,0.0,2.9467770420000003,2.481884999999998,0.0,84381.0,0.0,0.0,0.0,0.0,0.0,0.8557128030000001,2.4702000000000024,0.0,-77550.0,0.0,0.0,0.0,0.0,0.125,4.136962467,2.4790000000000023,0.0,-0.4000000059604645,-0.9300000071525574,-0.019999999552965164,-0.0128173828125,-0.00726318359375,1.02374267578125,32.58000183105469,0.0,3.0,1.11749267578125,-0.685028076171875,Waiting,0.0,0.0,22.0,0.0,0.0,0.0,0.0,0.0,
2.8197810000000025,0.0,0.0,81072.0,0.0,0.0,0.0,0.0,0.125,0.848388585,4.932250999999998,-0.0012207029999999897,-77169.0,0.0,0.0,0.0,0.0,0.0,2.9479977450000003,2.481884999999998,0.0,84381.0,0.0,0.0,0.0,0.0,0.0,0.8544921000000001,2.4702000000000024,0.0,-77550.0,0.0,0.0,0.0,0.0,0.125,4.136962467,2.4790000000000023,0.0,-0.4000000059604645,-0.9300000071525574,-0.019999999552965164,-0.01678466796875,-0.00872802734375,1.0255126953125,32.58000183105469,0.0,0.0,1.11749267578125,-0.685028076171875,Waiting,0.0,0.0,22.0,0.0,0.0,0.0,0.0,0.0,
2.871948000000004,0.0,0.0,81072.0,0.0,0.0,0.0,0.0,0.25,0.8447264760000001,4.932250999999998,0.0,-77169.0,0.0,0.0,0.0,0.0,0.0,2.9492184480000003,2.481884999999998,0.0,84381.0,0.0,0.0,0.0,0.0,0.0,0.8544921000000001,2.4702000000000024,0.0,-77550.0,0.0,0.0,0.0,0.0,0.125,4.136962467,2.4790000000000023,0.0,-0.4099999964237213,-0.9300000071525574,-0.019999999552965164,-0.0159912109375,-0.00872802734375,1.02325439453125,32.58000183105469,0.0,0.0,1.11749267578125,-0.685028076171875,Waiting,0.0,0.0,22.0,0.0,0.0,0.0,0.0,0.0,
2.9340620000000053,0.0,0.0,81072.0,0.0,0.0,0.0,0.0,0.125,0.8532713970000001,4.932250999999998,0.0,-77169.0,0.0,0.0,0.0,0.0,0.0,2.9492184480000003,2.481884999999998,0.0,84381.0,0.0,0.0,0.0,0.0,0.0,0.8544921000000001,2.4702000000000024,0.0,-77550.0,0.0,0.0,0.0,0.0,0.125,4.1357417640000005,2.4790000000000023,0.0,-0.4000000059604645,-0.9300000071525574,-0.019999999552965164,-0.01678466796875,-0.00579833984375,1.02410888671875,32.58000183105469,0.0,0.0,1.11749267578125,-0.685028076171875,Waiting,0.0,0.0,22.0,0.0,0.0,0.0,0.0,0.0,
2.9884310000000114,0.0,0.0,81072.0,0.0,0.0,0.0,0.0,0.125,0.8544921000000001,4.932250999999998,0.0,-77169.0,0.0,0.0,0.0,0.0,0.0,2.9479977450000003,2.481884999999998,0.0,84381.0,0.0,0.0,0.0,0.0,0.0,0.8544921000000001,2.4702000000000024,0.0,-77550.0,0.0,0.0,0.0,0.0,0.125,4.136962467,2.4790000000000023,-0.0012207029999995456,-0.4000000059604645,-0.9200000166893005,-0.019999999552965164,-0.01788330078125,-0.0068359375,1.02618408203125,32.58000183105469,0.0,-1.0,1.11749267578125,-0.685028076171875,Waiting,0.0,0.0,22.0,0.0,0.0,0.0,0.0,0.0,
3.0363380000000033,0.0,0.0,81072.0,0.0,0.0,0.0,0.0,0.125,0.8544921000000001,4.932250999999998,0.0012207029999999897,-77169.0,0.0,0.0,0.0,0.0,0.0,2.9528805570000003,2.481884999999998,0.0,84381.0,0.0,0.0,0.0,0.0,0.0,0.8557128030000001,2.4702000000000024,0.0,-77550.0,0.0,0.0,0.0,0.0,0.125,4.136962467,2.4790000000000023,0.0,-0.4000000059604645,-0.9300000071525574,-0.019999999552965164,-0.015869140625,-0.0086669921875,1.0218505859375,32.58000183105469,0.0,0.0,1.11749267578125,-0.685028076171875,Waiting,0.0,0.0,22.0,0.0,0.0,0.0,0.0,0.0,
3.0905880000000034,0.0,0.0,81072.0,0.0,0.0,0.0,0.0,0.125,0.8532713970000001,4.932250999999998,0.0,-77169.0,0.0,0.0,0.0,0.0,0.0,2.9479977450000003,2.481884999999998,0.0,84381.0,0.0,0.0,0.0,0.0,0.0,0.8557128030000001,2.4702000000000024,0.0,-77550.0,0.0,0.0,0.0,0.0,0.125,4.136962467,2.4790000000000023,0.0,-0.4000000059604645,-0.9300000071525574,-0.019999999552965164,-0.01837158203125,-0.00335693359375,1.02581787109375,32.58000183105469,0.0,-1.0,1.11749267578125,-0.685028076171875,Waiting,0.0,0.0,22.0,0.0,0.0,0.0,0.0,0.0,
3.14404800000001,0.0,0.0,81072.0,0.0,0.0,0.0,0.0,0.25,0.8532713970000001,4.932250999999998,0.0,-77169.0,0.0,0.0,0.0,0.0,0.0,2.9492184480000003,2.481884999999998,0.0,84381.0,0.0,0.0,0.0,0.0,0.0,0.8557128030000001,2.4702000000000024,0.0,-77550.0,0.0,0.0,0.0,0.0,0.125,4.136962467,2.4790000000000023,0.0,-0.4000000059604645,-0.9300000071525574,-0.019999999552965164,-0.014892578125,-0.00616455078125,1.0201416015625,32.58000183105469,0.0,1.0,1.11749267578125,-0.685028076171875,Waiting,0.0,0.0,22.0,0.0,0.0,0.0,0.0,0.0,
3.1950550000000075,0.0,0.0,81072.0,0.0,0.0,0.0,0.0,0.125,0.8544921000000001,4.932250999999998,-0.0012207030000001007,-77169.0,0.0,0.0,0.0,0.0,0.0,2.9479977450000003,2.481884999999998,0.0,84381.0,0.0,0.0,0.0,0.0,0.0,0.8557128030000001,2.4702000000000024,0.0,-77550.0,0.0,0.0,0.0,0.0,0.125,4.1381831700000005,2.4790000000000023,0.0,-0.4000000059604645,-0.9300000071525574,-0.019999999552965164,-0.0162353515625,-0.01025390625,1.0224609375,32.58000183105469,0.0,0.0,1.11749267578125,-0.685028076171875,Waiting,0.0,0.0,22.0,0.0,0.0,0.0,0.0,0.0,
3.2497220000000087,0.0,0.0,81072.0,0.0,0.0,0.0,0.0,0.25,0.8532713970000001,4.932250999999998,0.0,-77169.0,0.0,0.0,0.0,0.0,0.0,2.9479977450000003,2.481884999999998,0.0,84381.0,0.0,0.0,0.0,0.0,0.0,0.8544921000000001,2.4702000000000024,0.0,-77550.0,0.0,0.0,0.0,0.0,0.125,4.1357417640000005,2.4790000000000023,0.0,-0.4000000059604645,-0.9300000071525574,-0.019999999552965164,-0.01690673828125,-0.00830078125,1.021240234375,32.56999969482422,0.0,0.0,1.11749267578125,-0.685028076171875,Waiting,0.0,0.0,22.0,0.0,0.0,0.0,0.0,0.0,
3.303550000000003,0.0,0.0,81072.0,0.0,0.0,0.0,0.0,0.125,0.8532713970000001,4.932250999999998,-0.0012207029999999897,-77169.0,0.0,0.0,0.0,0.0,0.0,2.9479977450000003,2.481884999999998,0.0,84381.0,0.0,0.0,0.0,0.0,0.0,0.8544921000000001,2.4702000000000024,0.0,-77550.0,0.0,0.0,0.0,0.0,0.125,4.139403873,2.4790000000000023,0.0,-0.4000000059604645,-0.9300000071525574,-0.019999999552965164,-0.01824951171875,-0.0087890625,1.0189208984375,32.56999969482422,0.0,-1.0,1.11749267578125,-0.685028076171875,Waiting,0.0,0.0,22.0,0.0,0.0,0.0,0.0,0.0,
3.350842000000004,0.0,0.0,81072.0,0.0,0.0,0.0,0.0,0.125,0.8532713970000001,4.932250999999998,-0.0012207029999999897,-77169.0,0.0,0.0,0.0,0.0,0.0,2.9479977450000003,2.481884999999998,0.0,84381.0,0.0,0.0,0.0,0.0,0.0,0.8557128030000001,2.4702000000000024,0.0,-77550.0,0.0,0.0,0.0,0.0,0.125,4.136962467,2.4790000000000023,0.0,-0.4000000059604645,-0.9300000071525574,-0.019999999552965164,-0.01580810546875,-0.0069580078125,1.0267333984375,32.56999969482422,0.0,0.0,1.11749267578125,-0.685028076171875,Waiting,0.0,0.0,22.0,0.0,0.0,0.0,0.0,0.0,
3.4057520000000077,0.0,0.0,81072.0,0.0,0.0,0.0,0.0,0.125,0.8532713970000001,4.932250999999998,0.0012207029999999897,-77169.0,0.0,0.0,0.0,0.0,0.0,2.9479977450000003,2.481884999999998,0.0,84381.0,0.0,0.0,0.0,0.0,0.0,0.8557128030000001,2.4702000000000024,0.0,-77550.0,0.0,0.0,0.0,0.0,0.125,4.136962467,2.4790000000000023,0.0,-0.4000000059604645,-0.9300000071525574,-0.019999999552965164,-0.0174560546875,-0.0072021484375,1.019775390625,32.56999969482422,0.0,0.0,1.11749267578125,-0.685028076171875,Waiting,0.0,0.0,22.0,0.0,0.0,0.0,0.0,0.0,
3.454005000000005,0.0,0.0,81072.0,0.0,0.0,0.0,0.0,0.125,0.8532713970000001,4.932250999999998,-0.0012207029999999897,-77169.0,0.0,0.0,0.0,0.0,0.0,2.9479977450000003,2.481884999999998,0.0,84381.0,0.0,0.0,0.0,0.0,0.0,0.8557128030000001,2.4702000000000024,0.0,-77550.0,0.0,0.0,0.0,0.0,0.125,4.136962467,2.4790000000000023,0.0,-0.4000000059604645,-0.9200000166893005,-0.019999999552965164,-0.01727294921875,-0.00628662109375,1.02349853515625,32.56999969482422,0.0,0.0,1.11749267578125,-0.685028076171875,Waiting,0.0,0.0,22.0,0.0,0.0,0.0,0.0,0.0,
3.509397000000012,0.0,0.0,81072.0,0.0,0.0,0.0,0.0,0.125,0.852050694,4.932250999999998,0.0024414059999999793,-77169.0,0.0,0.0,0.0,0.0,0.0,2.9479977450000003,2.481884999999998,0.0,84381.0,0.0,0.0,0.0,0.0,0.0,0.8557128030000001,2.4702000000000024,0.0,-77550.0,0.0,0.0,0.0,0.0,0.125,4.136962467,2.4790000000000023,0.0,-0.4000000059604645,-0.9200000166893005,-0.019999999552965164,-0.02001953125,-0.0086669921875,1.0252685546875,32.56999969482422,0.0,-3.0,1.11749267578125,-0.685028076171875,Waiting,0.0,0.0,22.0,0.0,0.0,0.0,0.0,0.0,
3.5609790000000068,0.0,0.0,81072.0,0.0,0.0,0.0,0.0,0.125,0.8532713970000001,4.932250999999998,0.0012207030000001007,-77169.0,0.0,0.0,0.0,0.0,0.0,2.9492184480000003,2.481884999999998,0.0,84381.0,0.0,0.0,0.0,0.0,0.0,0.8557128030000001,2.4702000000000024,0.0,-77550.0,0.0,0.0,0.0,0.0,0.125,4.136962467,2.4790000000000023,0.0012207029999995456,-0.4000000059604645,-0.9300000071525574,-0.019999999552965164,-0.0181884765625,-0.009033203125,1.0213623046875,32.56999969482422,0.0,-1.0,1.11749267578125,-0.685028076171875,Waiting,0.0,0.0,22.0,0.0,0.0,0.0,0.0,0.0,
3.6130790000000124,0.0,0.0,81072.0,0.0,0.0,0.0,0.0,0.125,0.849609288,4.932250999999998,-0.0012207030000001007,-77169.0,0.0,0.0,0.0,0.0,0.0,2.9479977450000003,2.481884999999998,0.0,84381.0,0.0,0.0,0.0,0.0,0.0,0.8557128030000001,2.4702000000000024,0.0,-77550.0,0.0,0.0,0.0,0.0,0.125,4.1357417640000005,2.4790000000000023,-0.0012207029999995456,-0.4000000059604645,-0.9300000071525574,-0.019999999552965164,-0.0177001953125,-0.00537109375,1.02203369140625,32.56999969482422,0.0,-1.0,1.11749267578125,-0.685028076171875,Waiting,0.0,0.0,22.0,0.0,0.0,0.0,0.0,0.0,
3.6676370000000023,0.0,0.0,81072.0,0.0,0.0,0.0,0.0,0.125,0.8532713970000001,4.932250999999998,0.0012207030000001007,-77169.0,0.0,0.0,0.0,0.0,0.0,2.9479977450000003,2.481884999999998,0.0,84381.0,0.0,0.0,0.0,0.0,0.0,0.8532713970000001,2.4702000000000024,0.0,-77550.0,0.0,0.0,0.0,0.0,0.125,4.1357417640000005,2.4790000000000023,0.0,-0.4000000059604645,-0.9300000071525574,-0.019999999552965164,-0.0172119140625,-0.0084228515625,1.02001953125,32.56999969482422,0.0,0.0,1.11749267578125,-0.685028076171875,Waiting,0.0,0.0,22.0,0.0,0.0,0.0,0.0,0.0,
3.726510000000009,0.0,0.0,81072.0,0.0,0.0,0.0,0.0,0.125,0.848388585,4.932250999999998,-0.0024414060000000903,-77169.0,0.0,0.0,0.0,0.0,0.0,2.9492184480000003,2.481884999999998,0.0,84381.0,0.0,0.0,0.0,0.0,0.0,0.8544921000000001,2.4702000000000024,0.0,-77550.0,0.0,0.0,0.0,0.0,0.125,4.136962467,2.4790000000000023,0.0,-0.4000000059604645,-0.9300000071525574,-0.019999999552965164,-0.0159912109375,-0.00860595703125,1.02105712890625,32.56999969482422,0.0,0.0,1.11749267578125,-0.685028076171875,Waiting,0.0,0.0,22.0,0.0,0.0,0.0,0.0,0.0,
3.7747300000000106,0.0,0.0,81072.0,0.0,0.0,0.0,0.0,0.125,0.852050694,4.932250999999998,0.0,-77169.0,0.0,0.0,0.0,0.0,0.0,2.9479977450000003,2.481884999999998,0.0,84381.0,0.0,0.0,0.0,0.0,0.0,0.8581542090000001,2.4702000000000024,0.0,-77550.0,0.0,0.0,0.0,0.0,0.125,4.136962467,2.4790000000000023,0.0,-0.4000000059604645,-0.9300000071525574,-0.019999999552965164,-0.01727294921875,-0.009521484375,1.02325439453125,32.56999969482422,0.0,0.0,1.11749267578125,-0.685028076171875,Waiting,0.0,0.0,22.0,0.0,0.0,0.0,0.0,0.0,
3.829614000000001,0.0,0.0,81072.0,0.0,0.0,0.0,0.0,0.125,0.8532713970000001,4.932250999999998,0.0,-77169.0,0.0,0.0,0.0,0.0,0.0,2.9479977450000003,2.481884999999998,0.0,84381.0,0.0,0.0,0.0,0.0,0.0,0.8557128030000001,2.4702000000000024,0.0,-77550.0,0.0,0.0,0.0,0.0,0.125,4.136962467,2.4790000000000023,0.0,-0.4000000059604645,-0.9300000071525574,-0.019999999552965164,-0.01800537109375,-0.009033203125,1.02667236328125,32.56999969482422,0.0,-1.0,1.11749267578125,-0.685028076171875,Waiting,0.0,0.0,22.0,0.0,0.0,0.0,0.0,0.0,
3.8811110000000046,0.0,0.0,81072.0,0.0,0.0,0.0,0.0,0.125,0.8532713970000001,4.932250999999998,0.0012207029999999897,-77169.0,0.0,0.0,0.0,0.0,0.0,2.9492184480000003,2.481884999999998,0.0,84381.0,0.0,0.0,0.0,0.0,0.0,0.8557128030000001,2.4702000000000024,0.0,-77550.0,0.0,0.0,0.0,0.0,0.125,4.136962467,2.4790000000000023,0.0,-0.4000000059604645,-0.9200000166893005,-0.019999999552965164,-0.01605224609375,-0.008544921875,1.0220947265625,32.56999969482422,0.0,0.0,1.11749267578125,-0.685028076171875,Waiting,0.0,0.0,22.0,0.0,0.0,0.0,0.0,0.0,
3.932594000000012,0.0,0.0,81072.0,0.0,0.0,0.0,0.0,0.25,0.8532713970000001,4.932250999999998,0.0,-77169.0,0.0,0.0,0.0,0.0,0.0,2.9492184480000003,2.481884999999998,0.0,84381.0,0.0,0.0,0.0,0.0,0.0,0.8544921000000001,2.4702000000000024,0.0,-77550.0,0.0,0.0,0.0,0.0,0.125,4.136962467,2.4790000000000023,0.0,-0.4000000059604645,-0.9200000166893005,-0.019999999552965164,-0.01611328125,-0.00775146484375,1.0205078125,32.56999969482422,0.0,0.0,1.11749267578125,-0.685028076171875,Waiting,0.0,0.0,22.0,0.0,0.0,0.0,0.0,0.0,
3.983641000000003,0.0,0.0,81072.0,0.0,0.0,0.0,0.0,0.25,0.852050694,4.932250999999998,-0.0024414059999999793,-77169.0,0.0,0.0,0.0,0.0,0.0,2.9479977450000003,2.481884999999998,0.0,84381.0,0.0,0.0,0.0,0.0,0.0,0.8544921000000001,2.4702000000000024,0.0,-77550.0,0.0,0.0,0.0,0.0,0.125,4.1357417640000005,2.4790000000000023,0.0,-0.4000000059604645,-0.9200000166893005,-0.019999999552965164,-0.01434326171875,-0.006103515625,1.02081298828125,32.56999969482422,0.0,2.0,1.11749267578125,-0.685028076171875,Waiting,0.0,0.0,22.0,0.0,0.0,0.0,0.0,0.0,
4.037199000000008,0.0,0.0,81072.0,0.0,0.0,0.0,0.0,0.25,0.848388585,4.932250999999998,0.0024414059999999793,-77169.0,0.0,0.0,0.0,0.0,0.0,2.9479977450000003,2.481884999999998,0.0,84381.0,0.0,0.0,0.0,0.0,0.0,0.8544921000000001,2.4702000000000024,0.0,-77550.0,0.0,0.0,0.0,0.0,0.125,4.136962467,2.4790000000000023,0.0,-0.4000000059604645,-0.9200000166893005,-0.019999999552965164,-0.018798828125,-0.0064697265625,1.0224609375,32.56999969482422,0.0,-2.0,1.11749267578125,-0.685028076171875,Waiting,0.0,0.0,22.0,0.0,0.0,0.0,0.0,0.0,
4.090265,0.0,0.0,81072.0,0.0,0.0,0.0,0.0,0.125,0.848388585,4.932250999999998,0.0,-77169.0,0.0,0.0,0.0,0.0,0.0,2.9479977450000003,2.481884999999998,0.0,84381.0,0.0,0.0,0.0,0.0,0.0,0.852050694,2.4702000000000024,0.0,-77550.0,0.0,0.0,0.0,0.0,0.125,4.1406245760000004,2.4790000000000023,0.0,-0.4000000059604645,-0.9200000166893005,-0.019999999552965164,-0.01812744140625,-0.00836181640625,1.02227783203125,32.56999969482422,0.0,-1.0,1.11749267578125,-0.685028076171875,Waiting,0.0,0.0,22.0,0.0,0.0,0.0,0.0,0.0,
4.141718000000008,0.0,0.0,81072.0,0.0,0.0,0.0,0.0,0.125,0.848388585,4.932250999999998,-0.0024414059999999793,-77169.0,0.0,0.0,0.0,0.0,0.0,2.9492184480000003,2.481884999999998,0.0,84381.0,0.0,0.0,0.0,0.0,0.0,0.8544921000000001,2.4702000000000024,0.0,-77550.0,0.0,0.0,0.0,0.0,0.125,4.1357417640000005,2.4790000000000023,0.0,-0.4000000059604645,-0.9200000166893005,-0.019999999552965164,-0.0166015625,-0.009521484375,1.02215576171875,32.56999969482422,0.0,0.0,1.11749267578125,-0.685028076171875,Waiting,0.0,0.0,22.0,0.0,0.0,0.0,0.0,0.0,
4.191856,0.0,0.0,81072.0,0.0,0.0,0.0,0.0,0.125,0.8544921000000001,4.932250999999998,0.0012207029999999897,-77169.0,0.0,0.0,0.0,0.0,0.0,2.94189423,2.481884999999998,0.0,84381.0,0.0,0.0,0.0,0.0,0.0,0.8557128030000001,2.4702000000000024,0.0,-77550.0,0.0,0.0,0.0,0.0,0.125,4.136962467,2.4790000000000023,0.0,-0.4000000059604645,-0.9200000166893005,-0.019999999552965164,-0.01983642578125,-0.0069580078125,1.0198974609375,32.56999969482422,0.0,-3.0,1.11749267578125,-0.685028076171875,Waiting,0.0,0.0,22.0,0.0,0.0,0.0,0.0,0.0,
4.24527900000001,0.0,0.0,81072.0,0.0,0.0,0.0,0.0,0.25,0.847167882,4.932250999999998,0.0,-77169.0,0.0,0.0,0.0,0.0,0.0,2.9479977450000003,2.481884999999998,0.0,84381.0,0.0,0.0,0.0,0.0,0.0,0.8557128030000001,2.4702000000000024,0.0,-77550.0,0.0,0.0,0.0,0.0,0.125,4.1381831700000005,2.4790000000000023,0.0,-0.4000000059604645,-0.9200000166893005,-0.019999999552965164,-0.01812744140625,-0.00738525390625,1.02685546875,32.58000183105469,0.0,-1.0,1.11749267578125,-0.685028076171875,Waiting,0.0,0.0,22.0,0.0,0.0,0.0,0.0,0.0,
4.296139999999999,0.0,0.0,81072.0,0.0,0.0,0.0,0.0,0.25,0.8532713970000001,4.932250999999998,0.0,-77169.0,0.0,0.0,0.0,0.0,0.0,2.9492184480000003,2.481884999999998,0.0,84381.0,0.0,0.0,0.0,0.0,0.0,0.8581542090000001,2.4702000000000024,0.0,-77550.0,0.0,0.0,0.0,0.0,0.125,4.136962467,2.4790000000000023,0.0,-0.4000000059604645,-0.9300000071525574,-0.019999999552965164,-0.017333984375,-0.00701904296875,1.02130126953125,32.58000183105469,0.0,0.0,1.11749267578125,-0.685028076171875,Waiting,0.0,0.0,22.0,0.0,0.0,0.0,0.0,0.0,
4.349649000000005,0.0,0.0,81072.0,0.0,0.0,0.0,0.0,0.125,0.8532713970000001,4.932250999999998,-0.0012207029999999897,-77169.0,0.0,0.0,0.0,0.0,0.0,2.9492184480000003,2.481884999999998,0.0,84381.0,0.0,0.0,0.0,0.0,0.0,0.8557128030000001,2.4702000000000024,0.0,-77550.0,0.0,0.0,0.0,0.0,0.125,4.136962467,2.4790000000000023,0.0,-0.4000000059604645,-0.9200000166893005,-0.019999999552965164,-0.01763916015625,-0.005615234375,1.0206298828125,32.58000183105469,0.0,-1.0,1.11749267578125,-0.685028076171875,Waiting,0.0,0.0,22.0,0.0,0.0,0.0,0.0,0.0,
4.407050000000003,0.0,0.0,81072.0,0.0,0.0,0.0,0.0,0.125,0.8532713970000001,0.01,0.0,-77169.0,0.0,0.0,-0.0,0.0,0.0,2.9479977450000003,0.01,0.0,84381.0,0.0,0.0,0.0,0.0,1.25,0.850829991,0.01,0.0,-77550.0,0.0,0.0,-0.0,0.0,3.875,4.210204647,0.01,0.0012207029999995456,-0.4000000059604645,-0.9200000166893005,-0.019999999552965164,-0.0010986328125,-0.01239013671875,1.02349853515625,32.58000183105469,0.0,15.0,1.11749267578125,-0.685028076171875,Waiting,0.0,0.0,22.0,0.0,0.0,0.0,0.0,0.0,
4.455301000000007,0.0,0.0,81072.0,0.0,0.0,0.0,0.0,0.125,0.848388585,0.01,0.0,-77167.0,0.0,0.0,-0.0,0.0,9.5,2.7905270580000003,0.01,0.0,84381.0,0.0,0.0,0.0,0.0,5.875,0.47851557600000005,0.01,-0.009765624000000361,-77551.0,0.0,0.0,-0.0,0.0,3.875,4.572753438,0.01,0.06591796200000033,-0.3700000047683716,-0.8799999952316284,-0.019999999552965164,-0.08599853515625,-0.09747314453125,1.0430908203125,32.58000183105469,0.0,-69.0,1.1174468994140625,-0.6849365234375,Waiting,0.0,0.0,22.0,0.0,0.0,0.0,0.0,0.0,
4.511807000000001,0.0,0.0,81072.0,0.0,0.0,0.0,0.0,0.25,0.852050694,0.01,0.0012207029999999897,-77167.0,0.0,30.0,-0.0,0.0,1.125,2.363281008,0.01,-0.23437497600000023,84381.0,0.0,0.0,0.0,0.0,1.375,0.07934569500000001,0.01,-0.3894042569999998,-77551.0,0.0,-7.5,-0.0,0.0,1.5,0.02441406,0.01,0.37841792999999946,-0.4099999964237213,-0.8600000143051147,-0.019999999552965164,-6.7138671875E-4,-0.01190185546875,1.0482177734375,32.58000183105469,0.0,15.0,1.1171417236328125,-0.6846923828125,Waiting,0.0,0.0,22.0,0.0,0.0,0.0,0.0,0.0,
4.566535000000004,0.0,0.0,81072.0,0.0,0.0,0.0,0.0,0.25,0.8532713970000001,0.01,-0.0012207029999999897,-77152.0,0.0,67.5,-0.0,0.0,1.5,1.939697067,0.01,-0.39550777199999976,84382.0,0.0,0.0,0.0,0.0,1.5,4.621581558,0.01,-0.41503902000000004,-77554.0,0.0,-7.5,-0.0,0.0,2.375,0.44189448600000003,0.01,0.4267504640000004,-0.41999998688697815,-0.8299999833106995,0.0,-0.020263671875,0.03302001953125,1.03363037109375,32.58000183105469,0.0,-5.0,1.1171417236328125,-0.6846160888671875,Waiting,0.0,0.0,22.0,0.0,0.0,0.0,0.0,0.0,
4.619088000000003,0.0,0.0,81073.0,0.0,0.0,0.0,0.0,0.25,0.848388585,0.01,0.0,-77152.0,0.0,105.0,-0.0,0.0,1.5,1.5502928100000002,0.01,-0.40649409900000055,84382.0,0.0,15.0,0.0,0.0,1.625,4.232177301,0.01,-0.37497077999999995,-77554.0,0.0,-15.0,-0.0,0.0,2.375,0.8544921000000001,0.01,0.38330074199999986,-0.4099999964237213,-0.9100000262260437,0.0,-0.07855224609375,-0.01080322265625,1.01617431640625,32.58000183105469,0.0,-62.0,1.1169891357421875,-0.6842193603515625,Waiting,0.0,0.0,22.0,0.0,0.0,0.0,0.0,0.0,
4.6713990000000045,0.0,0.0,81073.0,0.0,15.0,0.0,0.0,0.25,0.8532713970000001,0.01,-0.0012207029999999897,-77152.0,0.0,112.5,-0.0,0.0,1.5,1.151122929,0.01,-0.4052733959999997,84382.0,0.125,52.5,0.0,0.0,1.375,3.854980074,0.01,-0.3991698810000006,-77554.0,0.0,-7.5,-0.0,0.0,1.375,1.19628894,0.01,0.42358394099999996,-0.38999998569488525,-0.9300000071525574,-0.05999999865889549,-0.025390625,-0.076171875,1.00262451171875,32.58000183105469,0.0,-9.0,1.1164093017578125,-0.684051513671875,Waiting,0.0,0.0,22.0,0.0,0.0,0.0,0.0,0.0,
4.725997000000003,0.0,0.0,81075.0,0.0,15.0,0.0,0.0,0.25,0.8532713970000001,0.01,0.0012207029999999897,-77142.0,0.0,45.0,-0.0,0.0,1.125,0.754394454,0.01,-0.3906249599999998,84393.0,0.125,60.0,0.0,0.0,0.75,3.538817997,0.01,-0.3759765239999995,-77554.0,0.0,0.0,-0.0,0.0,0.75,1.461181491,0.01,0.3552245730000001,-0.3799999952316284,-0.9700000286102295,-0.07000000029802322,-0.04827880859375,-0.0419921875,1.04168701171875,32.58000183105469,0.0,-30.0,1.11572265625,-0.68426513671875,Waiting,0.0,0.0,22.0,0.0,0.0,0.0,0.0,0.0,
4.774474000000002,0.0,0.0,81075.0,0.0,0.0,0.0,0.0,0.25,0.852050694,0.01,0.0012207029999999897,-77142.0,0.0,22.5,-0.0,0.0,0.25,0.526122993,0.01,-0.36865230600000043,84393.0,0.0,30.0,0.0,0.0,0.125,3.406982073,0.01,-0.29663082900000015,-77554.0,0.0,0.0,-0.0,0.0,0.25,1.5576170280000001,0.01,0.24902341199999967,-0.38999998569488525,-1.0,-0.05999999865889549,-0.04791259765625,-0.01910400390625,1.0013427734375,32.58000183105469,0.0,-30.0,1.1146392822265625,-0.6849517822265625,Waiting,0.0,0.0,22.0,0.0,0.0,0.0,0.0,0.0,
4.833064000000013,0.0,0.0,81075.0,0.0,0.0,0.0,0.0,0.25,0.8532713970000001,0.01,-0.0012207029999999897,-77135.0,0.0,45.0,-0.0,0.0,0.0,0.443115189,0.01,-0.23925778799999975,84393.0,0.125,0.0,0.0,0.0,0.125,3.3764644980000003,0.01,-0.13793943900000016,-77554.0,0.0,0.0,-0.0,0.0,0.25,1.572265464,0.01,0.10131834900000047,-0.4399999976158142,-1.0099999904632568,-0.029999999329447746,-0.00634765625,0.0281982421875,1.0076904296875,32.58000183105469,0.0,11.0,1.1142730712890625,-0.6849212646484375,Waiting,0.0,0.0,22.0,0.0,0.0,0.0,0.0,0.0,
4.888327000000005,0.0,0.0,81075.0,0.0,0.0,0.0,0.0,0.25,0.8532713970000001,0.01,0.0012207029999999897,-77135.0,0.0,15.0,-0.0,0.0,0.0,0.45288081300000005,0.01,-0.06958007099999985,84393.0,0.125,0.0,0.0,0.0,0.125,3.3776852010000002,0.01,0.0,-77554.0,0.0,0.0,-0.0,0.0,0.25,1.572265464,0.01,0.009765623999999917,-0.4300000071525574,-0.9700000286102295,-0.019999999552965164,6.103515625E-4,0.005859375,1.01568603515625,32.58000183105469,0.0,17.0,1.1147308349609375,-0.684814453125,Waiting,0.0,0.0,22.0,0.0,0.0,0.0,0.0,0.0,
4.943959000000002,0.0,0.0,81075.0,0.0,0.0,0.0,0.0,0.25,0.852050694,0.01,0.0,-77135.0,0.0,0.0,-0.0,0.0,0.0,0.482177685,0.01,0.014648435999999876,84393.0,0.125,0.0,0.0,0.0,0.125,3.3776852010000002,0.01,0.0,-77554.0,0.0,0.0,-0.0,0.0,0.25,1.572265464,0.01,0.0,-0.4300000071525574,-0.949999988079071,-0.019999999552965164,-0.018798828125,-0.00946044921875,1.024169921875,32.58000183105469,0.0,-1.0,1.1149139404296875,-0.684814453125,Waiting,0.0,0.0,22.0,0.0,0.0,0.0,0.0,0.0,
4.995867000000013,0.0,0.0,81075.0,0.0,0.0,0.0,0.0,0.25,0.848388585,0.01,0.0,-77135.0,0.0,0.0,-0.0,0.0,0.0,0.496826121,0.01,0.0,84393.0,0.125,0.0,0.0,0.0,0.125,3.3776852010000002,0.01,0.0,-77554.0,0.0,0.0,-0.0,0.0,0.25,1.572265464,0.01,-0.0012207030000004337,-0.41999998688697815,-0.9599999785423279,-0.029999999329447746,-0.02252197265625,-0.00421142578125,1.041259765625,32.58000183105469,0.0,-5.0,1.1149139404296875,-0.684814453125,Waiting,0.0,0.0,22.0,0.0,0.0,0.0,0.0,0.0,
5.049203000000008,0.0,0.0,81075.0,0.0,0.0,0.0,0.0,0.25,0.8532713970000001,0.01,0.0012207029999999897,-77135.0,0.0,0.0,-0.0,0.0,0.0,0.505371042,0.01,0.019531247999999835,84393.0,0.125,0.0,0.0,0.0,0.125,3.3776852010000002,0.01,0.0012207029999999897,-77554.0,0.0,0.0,-0.0,0.0,0.25,1.5759275730000002,0.01,0.0012207030000004337,-0.41999998688697815,-0.9800000190734863,-0.019999999552965164,-0.0211181640625,-0.00732421875,1.03118896484375,32.58000183105469,0.0,-3.0,1.1149139404296875,-0.684814453125,Waiting,0.0,0.0,22.0,0.0,0.0,0.0,0.0,0.0,
5.104883000000002,0.0,0.0,81075.0,0.0,0.0,0.0,0.0,0.125,0.852050694,0.01,0.0012207029999999897,-77135.0,0.0,0.0,-0.0,0.0,0.0,0.506591745,0.01,0.004882811999999959,84393.0,0.0,0.0,0.0,0.0,0.0,3.3776852010000002,0.01,-0.0012207029999999897,-77554.0,0.0,0.0,-0.0,0.0,0.125,1.5576170280000001,0.01,0.0,-0.4300000071525574,-0.9700000286102295,-0.029999999329447746,-0.02001953125,-0.0013427734375,1.03009033203125,32.58000183105469,0.0,-2.0,1.1149139404296875,-0.684814453125,Waiting,0.0,0.0,22.0,0.0,0.0,0.0,0.0,0.0,
