Time,ClimberA1,ClimberA2,FRpos,FRCurrent,FRspeed,FRsetpoint,FRApos,FRACurrent,FREncpos,FREncSetpoint,FREncSpeed,FLpos,FLCurrent,FLspeed,FLsetpoint,FLApos,FLACurrent,FLEncpos,FLEncSetpoint,FLEncSpeed,BRpos,BRCurrent,BRspeed,BRsetpoint,BRApos,BRACurrent,BREncpos,BREncSetpoint,BREncSpeed,BLpos,BLCurrent,BLspeed,BLsetpoint,BLApos,BLACurrent,BLEncpos,BLEncSetpoint,BLEncSpeed,navx_Pitch,navx_Roll,navx_Yaw,navx_XAcc,navx_YAcc,navx_ZAcc,navx_Temp,navx_Bar,navx_Alt,navx_XDis,navx_YDis,GearPlacerState,ShootOutputV,ShootOutputCurrent,ShootEncPos,ShootEncVelocity,ShootSpeed,ShootSetpoint,CarouselSetpoint,CarouselCurrent,
0.16676300000003538,0.0,0.0,2780.0,10.0,30.0,840.0,0.0,0.25,0.7910155440000001,0.02137308769933168,0.0,-12384.0,11.625,-97.5,-840.0,0.0,0.125,0.506591745,0.021509670032873754,0.0,3.0,11.5,0.0,840.0,0.0,0.0,3.347167626,0.02140840003271898,0.0,-23.0,9.625,-67.5,-840.0,0.0,0.25,1.6052244450000002,0.021484666699502206,0.0,-0.28999999165534973,-0.699999988079071,0.41999998688697815,0.01727294921875,-0.00994873046875,1.030517578125,35.34000015258789,0.0,29.0,-1.143829345703125,0.9054107666015625,Waiting,0.0,0.0,0.0,0.0,0.0,0.0,0.0,0.0,
0.27983699999999956,0.0,0.0,2787.0,4.375,15.0,0.0,0.0,0.25,0.7910155440000001,0.01,0.0,-12389.0,4.5,-45.0,-0.0,0.0,0.125,0.506591745,0.01,0.0,3.0,6.5,15.0,0.0,0.0,0.0,3.338622705,0.01,0.0,-28.0,3.625,-22.5,-0.0,0.0,0.25,1.6088865540000001,0.01,0.0,-0.2800000011920929,-0.8500000238418579,0.47999998927116394,0.010498046875,-0.00543212890625,0.9722900390625,35.34000015258789,0.0,24.0,-1.143341064453125,0.9056854248046875,Waiting,0.0,0.0,0.0,0.0,0.0,0.0,0.0,0.0,
0.3854770000000135,0.0,0.0,2788.0,4.75,0.0,0.0,0.0,0.25,0.7910155440000001,0.01,0.0,-12389.0,5.5,7.5,-0.0,0.0,0.125,0.506591745,0.01,0.0,3.0,6.625,0.0,0.0,0.0,0.0,3.338622705,0.01,0.0,-27.0,3.5,0.0,-0.0,0.0,0.25,1.6064451480000002,0.01,0.0,-0.2800000011920929,-0.8100000023841858,0.44999998807907104,-0.03399658203125,-0.04718017578125,1.00128173828125,35.34000015258789,0.0,-20.0,-1.14276123046875,0.9058380126953125,Waiting,0.0,0.0,0.0,0.0,0.0,0.0,0.0,0.0,
0.4878859999999986,0.0,0.0,2788.0,4.875,0.0,0.0,0.0,0.25,0.7922362470000001,0.01,0.0,-12388.0,5.75,0.0,-0.0,0.0,0.125,0.506591745,0.01,0.0,3.0,6.625,0.0,0.0,0.0,0.0,3.338622705,0.01,0.0,-27.0,3.5,0.0,-0.0,0.0,0.25,1.6113279600000001,0.01,0.0,-0.28999999165534973,-0.800000011920929,0.4399999976158142,-0.00982666015625,-0.01513671875,1.03643798828125,35.34000015258789,0.0,4.0,-1.14263916015625,0.905853271484375,Waiting,0.0,0.0,0.0,0.0,0.0,0.0,0.0,0.0,
0.5882170000000042,0.0,0.0,2788.0,4.875,0.0,0.0,0.0,0.25,0.7885741380000001,0.01,0.0,-12388.0,5.625,0.0,-0.0,0.0,0.125,0.506591745,0.01,0.0,3.0,6.5,0.0,0.0,0.0,0.0,3.337402002,0.01,0.0,-27.0,3.625,0.0,-0.0,0.0,0.25,1.6064451480000002,0.01,0.0,-0.28999999165534973,-0.800000011920929,0.4399999976158142,-0.0146484375,-0.0018310546875,1.00445556640625,35.34000015258789,0.0,0.0,-1.1425933837890625,0.905853271484375,Waiting,0.0,0.0,0.0,0.0,0.0,0.0,0.0,0.0,
0.6894170000000158,0.0,0.0,2788.0,4.875,0.0,0.0,0.0,0.25,0.7922362470000001,0.01,0.0,-12388.0,5.5,0.0,-0.0,0.0,0.125,0.507812448,0.01,0.0,3.0,6.5,0.0,0.0,0.0,0.0,3.338622705,0.01,0.0,-27.0,3.625,0.0,-0.0,0.0,0.25,1.6052244450000002,0.01,0.0,-0.28999999165534973,-0.8100000023841858,0.4399999976158142,-0.00567626953125,-0.00750732421875,1.01873779296875,35.310001373291016,0.0,8.0,-1.1425933837890625,0.905853271484375,Waiting,0.0,0.0,0.0,0.0,0.0,0.0,0.0,0.0,
0.7930540000000037,0.0,0.0,2788.0,4.875,0.0,0.0,0.0,0.25,0.7910155440000001,0.01,0.0,-12388.0,5.5,0.0,-0.0,0.0,0.125,0.5041503390000001,0.01,0.0,3.0,6.5,0.0,0.0,0.0,0.0,3.339843408,0.01,0.0,-27.0,3.625,0.0,-0.0,0.0,0.25,1.6064451480000002,0.01,0.0,-0.28999999165534973,-0.8100000023841858,0.4399999976158142,-0.00994873046875,-0.0081787109375,1.0224609375,35.310001373291016,0.0,4.0,-1.1425933837890625,0.905853271484375,Waiting,0.0,0.0,0.0,0.0,0.0,0.0,0.0,0.0,
0.8968880000000354,0.0,0.0,2788.0,0.375,-97.5,-1386.489752706052,0.0,0.25,0.773925702,4.820407811143318,0.0,-12359.0,1.5,202.5,1386.489752706052,0.0,0.25,0.48583979400000005,4.851212089717022,0.0,2.0,0.875,0.0,-1386.489752706052,0.0,0.125,3.336181299,4.82837202530294,0.0,-14.0,1.5,112.5,1386.489752706052,0.0,0.25,1.5820310880000001,4.845572929611362,0.0,-0.25,-1.350000023841858,0.3100000023841858,-0.24554443359375,-0.00225830078125,0.93505859375,35.310001373291016,0.0,-223.0,-1.146209716796875,0.906158447265625,Waiting,0.0,0.0,0.0,0.0,0.0,0.0,0.0,0.0,
1.0066070000000182,0.0,0.0,2744.0,4.5,-322.5,-1653.5432696342468,0.0,0.25,0.771484296,4.932250999999998,0.0,-12305.0,7.625,330.0,1653.5432696342468,0.0,0.125,0.462646437,4.963769999999998,0.0,2.0,9.375,-112.5,-1653.5432696342468,0.0,0.0,3.3142086450000003,0.01,0.0,47.0,6.875,352.5,1653.5432696342468,0.0,0.25,1.546630701,0.01,0.0,-0.27000001072883606,-2.3299999237060547,0.05999999865889549,-0.25640869140625,0.01348876953125,0.88897705078125,35.310001373291016,0.0,-219.0,-1.1605224609375,0.9072113037109375,Waiting,0.0,0.0,0.0,0.0,0.0,0.0,0.0,0.0,
1.1149490000000224,0.0,0.0,2688.0,0.0,-345.0,0.0,0.0,0.25,0.771484296,4.932250999999998,0.0,-12258.0,0.0,330.0,0.0,0.0,0.25,0.46630854600000005,4.963769999999998,0.0,-26.0,0.0,-217.5,0.0,0.0,0.0,3.3203121600000003,0.01,0.0,91.0,0.125,292.5,0.0,0.0,0.25,1.595458821,0.01,0.0,-0.3199999928474426,-2.299999952316284,0.33000001311302185,0.41839599609375,0.11553955078125,1.370849609375,35.310001373291016,0.0,473.0,-1.1837158203125,0.90631103515625,Waiting,0.0,0.0,0.0,0.0,0.0,0.0,0.0,0.0,
1.218347000000009,0.0,0.0,2638.0,0.0,-345.0,0.0,0.0,0.25,0.786132732,4.932250999999998,-0.0012207030000004337,-12258.0,0.0,367.5,0.0,0.0,0.25,0.49194330900000005,4.963769999999998,0.0,-67.0,0.125,-382.5,0.0,0.0,0.0,3.343505517,0.01,0.0,154.0,0.125,412.5,0.0,0.0,0.25,1.650390456,0.01,0.04760741700000004,-0.3799999952316284,-1.75,0.20999999344348907,0.05706787109375,-0.09197998046875,1.09417724609375,35.33000183105469,0.0,90.0,-1.1961517333984375,0.9030303955078125,Waiting,0.0,0.0,0.0,0.0,0.0,0.0,0.0,0.0,
1.3228670000000275,0.0,0.0,2590.0,0.0,-255.0,0.0,0.0,0.125,0.7910155440000001,4.932250999999998,0.0,-12199.0,0.0,277.5,0.0,0.0,0.125,0.496826121,4.963769999999998,0.0,-124.0,0.0,-232.5,0.0,0.0,0.0,3.348388329,0.01,0.0,193.0,0.125,247.5,0.0,0.0,0.25,1.6833494370000002,0.01,0.0,-0.38999998569488525,-1.2899999618530273,0.11999999731779099,0.06951904296875,-0.09814453125,1.04144287109375,35.33000183105469,0.0,92.0,-1.2018890380859375,0.89703369140625,Waiting,0.0,0.0,0.0,0.0,0.0,0.0,0.0,0.0,
1.4366270000000367,0.0,0.0,2560.0,0.0,-180.0,0.0,0.0,0.125,0.7910155440000001,4.932250999999998,0.004882811999999959,-12160.0,0.0,172.5,0.0,0.0,0.125,0.495605418,4.963769999999998,0.0,-154.0,0.125,-157.5,0.0,0.0,0.0,3.348388329,0.01,0.0,193.0,0.125,157.5,0.0,0.0,0.25,1.6821287340000002,0.01,0.0,-0.33000001311302185,-0.8799999952316284,0.1599999964237213,0.01312255859375,0.00335693359375,1.05987548828125,35.33000183105469,0.0,29.0,-1.20086669921875,0.89044189453125,Waiting,0.0,0.0,0.0,0.0,0.0,0.0,0.0,0.0,
1.5340929999999935,0.0,0.0,2549.0,0.0,-75.0,0.0,0.0,0.125,0.7910155440000001,4.932250999999998,0.0,-12143.0,0.0,67.5,0.0,0.0,0.125,0.496826121,4.963769999999998,0.0,-165.0,0.0,-45.0,0.0,0.0,0.0,3.348388329,0.01,0.0,213.0,0.125,75.0,0.0,0.0,0.25,1.668701001,0.01,0.0,-0.3100000023841858,-0.5,0.05000000074505806,0.05865478515625,0.00738525390625,1.08367919921875,35.33000183105469,0.0,68.0,-1.194000244140625,0.89044189453125,Waiting,0.0,0.0,0.0,0.0,0.0,0.0,0.0,0.0,
1.6321980000000331,0.0,0.0,2549.0,0.0,0.0,0.0,0.0,0.125,0.7922362470000001,4.932250999999998,0.0,-12141.0,0.0,7.5,0.0,0.0,0.125,0.496826121,4.963769999999998,0.0,-165.0,0.0,0.0,0.0,0.0,0.0,3.347167626,0.01,0.0,216.0,0.125,7.5,0.0,0.0,0.25,1.6589353770000002,0.01,-0.014648436000000098,-0.33000001311302185,-0.47999998927116394,0.10000000149011612,-0.01611328125,0.0084228515625,1.00006103515625,35.33000183105469,0.0,-1.0,-1.1855621337890625,0.89056396484375,Waiting,0.0,0.0,0.0,0.0,0.0,0.0,0.0,0.0,
1.72925,0.0,0.0,2549.0,0.0,0.0,0.0,0.0,0.125,0.7922362470000001,4.932250999999998,0.0,-12141.0,0.0,0.0,0.0,0.0,0.125,0.496826121,4.963769999999998,0.0,-165.0,0.125,0.0,0.0,0.0,0.0,3.348388329,0.01,0.0,216.0,0.125,0.0,0.0,0.0,0.25,1.6540525650000002,0.01,-0.009765623999999917,-0.3199999928474426,-0.5699999928474426,0.12999999523162842,-0.03692626953125,-0.01080322265625,0.991943359375,35.310001373291016,0.0,-26.0,-1.18603515625,0.89056396484375,Waiting,0.0,0.0,0.0,0.0,0.0,0.0,0.0,0.0,
1.8251369999999878,0.0,0.0,2549.0,0.0,0.0,0.0,0.0,0.125,0.7910155440000001,4.932250999999998,0.0,-12141.0,0.0,0.0,0.0,0.0,0.125,0.496826121,4.963769999999998,0.0,-165.0,0.0,0.0,0.0,0.0,0.0,3.347167626,0.01,0.0,216.0,0.125,0.0,0.0,0.0,0.25,1.6540525650000002,0.01,0.0,-0.3199999928474426,-0.6800000071525574,0.12999999523162842,-0.02069091796875,0.0028076171875,1.03277587890625,35.310001373291016,0.0,-8.0,-1.1877899169921875,0.89056396484375,Waiting,0.0,0.0,0.0,0.0,0.0,0.0,0.0,0.0,
1.9207669999999926,0.0,0.0,2560.0,5.75,52.5,1181.25,0.0,0.25,0.7653807810000001,0.01,0.0,-12141.0,8.25,-90.0,-1181.25,0.0,0.125,0.496826121,0.01,0.0,-165.0,7.625,0.0,1181.25,0.0,0.0,3.3178707540000003,0.01,0.0,216.0,6.25,-45.0,-1181.25,0.0,0.25,1.6540525650000002,0.01,0.0,-0.2199999988079071,-0.029999999329447746,0.1599999964237213,0.33709716796875,-0.16461181640625,0.8045654296875,35.310001373291016,0.0,337.0,-1.185394287109375,0.8909149169921875,Waiting,0.0,0.0,0.0,0.0,0.0,0.0,0.0,0.0,
2.016731000000029,0.0,0.0,2575.0,0.0,90.0,0.0,0.0,0.25,0.772704999,0.01,0.0,-12173.0,0.0,-127.5,0.0,0.0,0.125,0.48583979400000005,0.01,0.0,-159.0,0.0,30.0,0.0,0.0,0.0,3.3190914570000003,0.01,0.0,191.0,0.125,-82.5,0.0,0.0,0.25,1.644286941,0.01,0.0,-0.27000001072883606,0.009999999776482582,0.18000000715255737,-0.166748046875,-0.05364990234375,1.3797607421875,35.310001373291016,0.0,-167.0,-1.17266845703125,0.891693115234375,Waiting,0.0,0.0,0.0,0.0,0.0,0.0,0.0,0.0,
2.1243269999999903,0.0,0.0,2595.0,0.0,90.0,0.0,0.0,0.25,0.786132732,0.01,0.0,-12185.0,0.0,-112.5,0.0,0.0,0.25,0.477294873,0.01,0.0,-150.0,0.0,45.0,0.0,0.0,0.0,3.3190914570000003,0.01,0.0,176.0,0.125,-150.0,0.0,0.0,0.25,1.625976396,0.01,0.0,-0.25,-0.36000001430511475,0.3100000023841858,-0.06646728515625,-0.03033447265625,1.17047119140625,35.310001373291016,0.0,-59.0,-1.16571044921875,0.8936004638671875,Waiting,0.0,0.0,0.0,0.0,0.0,0.0,0.0,0.0,
2.2160549999999932,0.0,0.0,2595.0,0.0,112.5,0.0,0.0,0.25,0.7910155440000001,0.01,0.0,-12201.0,0.0,-105.0,0.0,0.0,0.25,0.47241206100000005,0.01,0.0,-140.0,0.0,67.5,0.0,0.0,0.0,3.3190914570000003,0.01,0.0,159.0,0.125,-82.5,0.0,0.0,0.125,1.621093584,0.01,0.0,-0.23000000417232513,-0.7900000214576721,0.23999999463558197,-0.10076904296875,0.01043701171875,0.9837646484375,35.29999923706055,0.0,-87.0,-1.1644439697265625,0.8945159912109375,Waiting,0.0,0.0,0.0,0.0,0.0,0.0,0.0,0.0,
2.3147210000000196,0.0,0.0,2607.0,3.375,157.5,1033.59375,0.0,0.25,0.794677653,0.01,0.0,-12241.0,3.875,-195.0,-1033.59375,0.0,0.25,0.465087843,0.01,0.0,-140.0,4.75,37.5,1033.59375,0.0,0.0,3.3190914570000003,0.01,0.0,127.0,4.125,-202.5,-1033.59375,0.0,0.125,1.639404129,0.01,0.0,-0.3799999952316284,-0.28999999165534973,0.27000001072883606,0.033447265625,0.0791015625,0.79583740234375,35.29999923706055,0.0,37.0,-1.1662750244140625,0.89361572265625,Waiting,0.0,0.0,0.0,0.0,0.0,0.0,0.0,0.0,
2.4114130000000005,0.0,0.0,2651.0,7.5,240.0,1164.84375,0.0,0.25,0.7910155440000001,0.01,0.0,-12241.0,7.875,-292.5,-1164.84375,0.0,0.25,0.46752924900000004,0.01,0.0,-134.0,12.25,75.0,1164.84375,0.0,0.0,3.3190914570000003,0.01,0.0,127.0,7.875,-217.5,-1164.84375,0.0,0.125,1.6577146740000002,0.01,0.0,-0.4099999964237213,0.4699999988079071,0.20000000298023224,0.22698974609375,0.02642822265625,0.78289794921875,35.29999923706055,0.0,220.0,-1.16131591796875,0.8907623291015625,Waiting,0.0,0.0,0.0,0.0,0.0,0.0,0.0,0.0,
2.508935999999987,0.0,0.0,2694.0,0.0,247.5,0.0,0.0,0.25,0.7922362470000001,0.01,0.0,-12293.0,0.0,-292.5,0.0,0.0,0.25,0.477294873,0.01,0.0,-91.0,0.0,300.0,0.0,0.0,0.0,3.333739893,0.01,0.0,83.0,0.125,-285.0,0.0,0.0,0.25,1.6357420200000001,0.01,0.0,-0.33000001311302185,0.3700000047683716,0.3700000047683716,-0.2945556640625,0.080322265625,1.5731201171875,35.29999923706055,0.0,-304.0,-1.1493682861328125,0.8902130126953125,Waiting,0.0,0.0,0.0,0.0,0.0,0.0,0.0,0.0,
2.6108070000000296,0.0,0.0,2741.0,0.0,307.5,0.0,0.0,0.125,0.7910155440000001,0.01,0.0,-12335.0,0.0,-315.0,0.0,0.0,0.25,0.49194330900000005,0.01,0.0,-79.0,0.0,67.5,0.0,0.0,0.0,3.343505517,0.01,0.0,43.0,0.125,-277.5,0.0,0.0,0.125,1.6296385050000002,0.01,0.0,-0.36000001430511475,-0.019999999552965164,0.49000000953674316,-0.146240234375,0.05426025390625,0.63751220703125,35.29999923706055,0.0,-145.0,-1.1439056396484375,0.8902740478515625,Waiting,0.0,0.0,0.0,0.0,0.0,0.0,0.0,0.0,
2.709755000000005,0.0,0.0,2753.0,0.0,142.5,0.0,0.0,0.25,0.7922362470000001,0.01,0.0,-12360.0,0.0,-135.0,0.0,0.0,0.125,0.49194330900000005,0.01,0.0,-65.0,0.125,97.5,0.0,0.0,0.0,3.337402002,0.01,0.0,8.0,0.125,-202.5,0.0,0.0,0.125,1.6345213170000001,0.01,0.0,-0.28999999165534973,-1.090000033378601,0.6899999976158142,-0.13690185546875,0.00469970703125,0.9906005859375,35.29999923706055,0.0,-117.0,-1.149383544921875,0.8906097412109375,Waiting,0.0,0.0,0.0,0.0,0.0,0.0,0.0,0.0,
2.8083030000000146,0.0,0.0,2753.0,0.0,15.0,0.0,0.0,0.25,0.7922362470000001,0.01,0.0,-12362.0,0.0,-30.0,0.0,0.0,0.125,0.490722606,0.01,0.0,-65.0,0.0,0.0,0.0,0.0,0.0,3.338622705,0.01,0.0,4.0,0.125,-15.0,0.0,0.0,0.125,1.6345213170000001,0.01,0.0,-0.4099999964237213,-1.2599999904632568,0.4399999976158142,-0.0521240234375,0.0279541015625,1.03460693359375,35.34000015258789,0.0,-29.0,-1.1609344482421875,0.8895263671875,Waiting,0.0,0.0,0.0,0.0,0.0,0.0,0.0,0.0,
2.90629800000001,0.0,0.0,2753.0,0.0,0.0,0.0,0.0,0.25,0.7910155440000001,0.01,0.0,-12362.0,0.0,0.0,0.0,0.0,0.125,0.49194330900000005,0.01,0.0,-65.0,0.125,0.0,0.0,0.0,0.0,3.342284814,0.01,0.0,4.0,0.125,0.0,0.0,0.0,0.125,1.6357420200000001,0.01,0.0,-0.3400000035762787,-1.149999976158142,0.3400000035762787,0.02142333984375,-0.0184326171875,1.00726318359375,35.34000015258789,0.0,41.0,-1.162322998046875,0.8888092041015625,Waiting,0.0,0.0,0.0,0.0,0.0,0.0,0.0,0.0,
3.0013820000000413,0.0,0.0,2753.0,0.0,0.0,0.0,0.0,0.25,0.7910155440000001,0.01,0.0,-12362.0,0.0,0.0,0.0,0.0,0.125,0.49194330900000005,0.01,0.0,-65.0,0.125,0.0,0.0,0.0,0.0,3.348388329,0.01,0.0,4.0,0.125,7.5,0.0,0.0,0.125,1.6357420200000001,0.01,0.0,-0.3499999940395355,-0.9100000262260437,0.38999998569488525,-0.0189208984375,-0.00762939453125,1.05633544921875,35.34000015258789,0.0,-2.0,-1.158203125,0.8888092041015625,Waiting,0.0,0.0,0.0,0.0,0.0,0.0,0.0,0.0,
3.098891000000003,0.0,0.0,2753.0,0.0,0.0,0.0,0.0,0.25,0.7910155440000001,0.01,0.0,-12362.0,0.0,0.0,0.0,0.0,0.125,0.49194330900000005,0.01,0.0,-65.0,0.0,0.0,0.0,0.0,0.0,3.349609032,0.01,0.0,5.0,0.125,0.0,0.0,0.0,0.125,1.6345213170000001,0.01,0.0,-0.33000001311302185,-0.9700000286102295,0.41999998688697815,-0.0169677734375,-0.00555419921875,1.01641845703125,35.34000015258789,0.0,0.0,-1.1575927734375,0.8888092041015625,Waiting,0.0,0.0,0.0,0.0,0.0,0.0,0.0,0.0,
3.194795000000042,0.0,0.0,2753.0,0.0,0.0,0.0,0.0,0.25,0.7922362470000001,0.01,0.0,-12362.0,0.0,0.0,0.0,0.0,0.125,0.49194330900000005,0.01,0.0,-65.0,0.0,0.0,0.0,0.0,0.0,3.348388329,0.01,0.0,5.0,0.125,0.0,0.0,0.0,0.125,1.6357420200000001,0.01,0.0,-0.3400000035762787,-0.9700000286102295,0.38999998569488525,-0.013916015625,0.00714111328125,1.02301025390625,35.34000015258789,0.0,3.0,-1.1575927734375,0.8886871337890625,Waiting,0.0,0.0,0.0,0.0,0.0,0.0,0.0,0.0,
3.2919400000000025,0.0,0.0,2753.0,0.0,0.0,0.0,0.0,0.25,0.7922362470000001,0.01,0.0,-12362.0,0.0,0.0,0.0,0.0,0.125,0.49194330900000005,0.01,0.0,-65.0,0.0,0.0,0.0,0.0,0.0,3.347167626,0.01,0.0,5.0,0.125,0.0,0.0,0.0,0.125,1.6357420200000001,0.01,0.0,-0.3499999940395355,-0.9399999976158142,0.4000000059604645,-0.01708984375,-0.00830078125,1.01605224609375,35.349998474121094,0.0,0.0,-1.1575927734375,0.8886871337890625,Waiting,0.0,0.0,0.0,0.0,0.0,0.0,0.0,0.0,
3.3905530000000144,0.0,0.0,2753.0,0.0,0.0,0.0,0.0,0.25,0.7922362470000001,0.01,0.0,-12362.0,0.0,0.0,0.0,0.0,0.125,0.49194330900000005,0.01,0.0,-65.0,0.125,0.0,0.0,0.0,0.0,3.348388329,0.01,0.0,5.0,0.125,0.0,0.0,0.0,0.125,1.6345213170000001,0.01,0.0,-0.3400000035762787,-0.949999988079071,0.38999998569488525,-0.01513671875,-0.00750732421875,1.02130126953125,35.349998474121094,0.0,1.0,-1.1575927734375,0.8886871337890625,Closing,0.0,0.0,0.0,0.0,0.0,0.0,0.0,0.0,
3.488761999999988,0.0,0.0,2753.0,0.0,0.0,0.0,0.0,0.25,0.7922362470000001,0.01,0.0,-12362.0,0.0,0.0,0.0,0.0,0.125,0.49194330900000005,0.01,0.0,-65.0,0.125,0.0,0.0,0.0,0.0,3.348388329,0.01,0.0,5.0,0.125,0.0,0.0,0.0,0.125,1.6345213170000001,0.01,0.0,-0.3400000035762787,-0.9399999976158142,0.4000000059604645,-0.01776123046875,-7.9345703125E-4,1.02783203125,35.349998474121094,0.0,0.0,-1.1575927734375,0.8886871337890625,Closing,0.0,0.0,0.0,0.0,0.0,0.0,0.0,0.0,
3.5851160000000384,0.0,0.0,2753.0,0.0,0.0,0.0,0.0,0.25,0.7910155440000001,0.01,0.0,-12362.0,0.0,0.0,0.0,0.0,0.125,0.49194330900000005,0.01,0.0,-65.0,0.125,0.0,0.0,0.0,0.0,3.348388329,0.01,0.0,5.0,0.125,0.0,0.0,0.0,0.125,1.6357420200000001,0.01,0.0,-0.3499999940395355,-0.9300000071525574,0.4000000059604645,-0.013916015625,-0.0045166015625,1.02264404296875,35.349998474121094,0.0,2.0,-1.1575927734375,0.8886871337890625,Closing,0.0,0.0,0.0,0.0,0.0,0.0,0.0,0.0,
3.6789800000000397,0.0,0.0,2753.0,0.0,0.0,0.0,0.0,0.25,0.7922362470000001,0.01,0.0,-12362.0,0.0,0.0,0.0,0.0,0.125,0.49194330900000005,0.01,0.0,-65.0,0.125,0.0,0.0,0.0,0.0,3.348388329,0.01,0.0,5.0,0.125,0.0,0.0,0.0,0.125,1.6345213170000001,0.01,0.0,-0.3400000035762787,-0.9200000166893005,0.4000000059604645,-0.01483154296875,-0.00537109375,1.02032470703125,35.349998474121094,0.0,1.0,-1.1575927734375,0.8886871337890625,Closing,0.0,0.0,0.0,0.0,0.0,0.0,0.0,0.0,
3.772014000000025,0.0,0.0,2753.0,0.0,0.0,0.0,0.0,0.25,0.7910155440000001,0.01,0.0,-12362.0,0.0,0.0,0.0,0.0,0.125,0.49194330900000005,0.01,0.0,-65.0,0.0,0.0,0.0,0.0,0.0,3.347167626,0.01,0.0,5.0,0.125,0.0,0.0,0.0,0.125,1.6345213170000001,0.01,0.0,-0.3499999940395355,-0.9100000262260437,0.4000000059604645,7.32421875E-4,0.03662109375,0.98101806640625,35.33000183105469,0.0,16.0,-1.1575927734375,0.8887481689453125,Opening,0.0,0.0,0.0,0.0,0.0,0.0,0.0,0.0,
3.876146000000008,0.0,0.0,2753.0,0.0,0.0,0.0,0.0,0.25,0.7910155440000001,0.01,0.0,-12362.0,0.0,0.0,0.0,0.0,0.125,0.49194330900000005,0.01,0.0,-65.0,0.125,0.0,0.0,0.0,0.0,3.348388329,0.01,0.0,5.0,0.125,0.0,0.0,0.0,0.125,1.6345213170000001,0.01,0.0,-0.3700000047683716,-0.9200000166893005,0.4000000059604645,-0.00775146484375,-0.0059814453125,1.015869140625,35.33000183105469,0.0,8.0,-1.157684326171875,0.8883209228515625,Opening,0.0,0.0,0.0,0.0,0.0,0.0,0.0,0.0,
3.973690000000002,0.0,0.0,2753.0,0.0,0.0,0.0,0.0,0.25,0.7910155440000001,0.01,0.0,-12362.0,0.0,0.0,0.0,0.0,0.125,0.49194330900000005,0.01,0.0,-65.0,0.125,0.0,0.0,0.0,0.0,3.347167626,0.01,0.0,5.0,0.125,0.0,0.0,0.0,0.125,1.6357420200000001,0.01,0.0,-0.3700000047683716,-0.9300000071525574,0.4000000059604645,-0.01177978515625,0.032958984375,0.90325927734375,35.33000183105469,0.0,3.0,-1.15789794921875,0.887542724609375,Opening,0.0,0.0,0.0,0.0,0.0,0.0,0.0,0.0,
4.071574000000022,0.0,0.0,2753.0,0.0,0.0,0.0,0.0,0.25,0.7922362470000001,0.01,0.0,-12362.0,0.0,0.0,0.0,0.0,0.125,0.49194330900000005,0.01,0.0,-65.0,0.125,0.0,0.0,0.0,0.0,3.347167626,0.01,0.0,5.0,0.125,0.0,0.0,0.0,0.125,1.6345213170000001,0.01,0.0,-0.36000001430511475,-0.9200000166893005,0.38999998569488525,4.8828125E-4,-0.01959228515625,1.0732421875,35.33000183105469,0.0,17.0,-1.158477783203125,0.887725830078125,Opening,0.0,0.0,0.0,0.0,0.0,0.0,0.0,0.0,
4.168722999999998,0.0,0.0,2753.0,0.0,0.0,0.0,0.0,0.25,0.7910155440000001,0.01,0.0,-12362.0,0.0,0.0,0.0,0.0,0.125,0.49194330900000005,0.01,0.0,-65.0,0.125,0.0,0.0,0.0,0.0,3.348388329,0.01,0.0,5.0,0.125,0.0,0.0,0.0,0.125,1.6357420200000001,0.01,0.0,-0.3799999952316284,-0.9200000166893005,0.4000000059604645,0.00408935546875,0.00152587890625,1.0009765625,35.33000183105469,0.0,20.0,-1.1584014892578125,0.8875579833984375,Opening,0.0,0.0,0.0,0.0,0.0,0.0,0.0,0.0,
4.265454000000027,0.0,0.0,2753.0,0.0,0.0,0.0,0.0,0.25,0.7910155440000001,0.01,0.0,-12362.0,0.0,0.0,0.0,0.0,0.125,0.49194330900000005,0.01,0.0,-65.0,0.0,0.0,0.0,0.0,0.0,3.347167626,0.01,0.0,5.0,0.125,0.0,0.0,0.0,0.125,1.6345213170000001,0.01,0.0,-0.3799999952316284,-0.9100000262260437,0.38999998569488525,-0.04974365234375,0.0201416015625,1.050048828125,35.34000015258789,0.0,-32.0,-1.158416748046875,0.887786865234375,Opening,0.0,0.0,0.0,0.0,0.0,0.0,0.0,0.0,
4.357937000000034,0.0,0.0,2753.0,0.0,0.0,0.0,0.0,0.25,0.7910155440000001,0.01,0.0,-12362.0,0.0,0.0,0.0,0.0,0.125,0.49194330900000005,0.01,0.0,-65.0,0.125,0.0,0.0,0.0,0.0,3.348388329,0.01,0.0,5.0,0.125,0.0,0.0,0.0,0.125,1.6357420200000001,0.01,0.0,-0.3799999952316284,-0.9200000166893005,0.4000000059604645,-0.006591796875,0.01348876953125,1.0302734375,35.34000015258789,0.0,10.0,-1.158447265625,0.88787841796875,Opening,0.0,0.0,0.0,0.0,0.0,0.0,0.0,0.0,
4.454465000000026,0.0,0.0,2753.0,0.0,0.0,0.0,0.0,0.25,0.7922362470000001,0.01,0.0,-12362.0,0.0,0.0,0.0,0.0,0.125,0.490722606,0.01,0.0,-65.0,0.0,0.0,0.0,0.0,0.0,3.348388329,0.01,0.0,5.0,0.125,0.0,0.0,0.0,0.125,1.6345213170000001,0.01,0.0,-0.3700000047683716,-0.9200000166893005,0.38999998569488525,-0.043701171875,-0.01995849609375,1.05511474609375,35.34000015258789,0.0,-26.0,-1.1583099365234375,0.8877105712890625,Opening,0.0,0.0,0.0,0.0,0.0,0.0,0.0,0.0,
4.552081999999995,0.0,0.0,2753.0,0.0,0.0,0.0,0.0,0.25,0.7922362470000001,0.01,0.0,-12362.0,0.0,0.0,0.0,0.0,0.125,0.49194330900000005,0.01,0.0,-65.0,0.0,0.0,0.0,0.0,0.0,3.347167626,0.01,0.0,5.0,0.125,0.0,0.0,0.0,0.125,1.6357420200000001,0.01,0.0,-0.36000001430511475,-0.8700000047683716,0.4000000059604645,-0.009033203125,0.0020751953125,0.93206787109375,35.34000015258789,0.0,5.0,-1.1582794189453125,0.88775634765625,Opening,0.0,0.0,0.0,0.0,0.0,0.0,0.0,0.0,
4.647940999999991,0.0,0.0,2753.0,0.0,0.0,0.0,0.0,0.25,0.7910155440000001,0.01,0.0,-12362.0,0.0,0.0,0.0,0.0,0.125,0.490722606,0.01,0.0,-65.0,0.0,0.0,0.0,0.0,0.0,3.348388329,0.01,0.0,5.0,0.125,0.0,0.0,0.0,0.125,1.6345213170000001,0.01,0.0,-0.36000001430511475,-0.8899999856948853,0.4000000059604645,-0.03411865234375,-0.01904296875,1.0069580078125,35.34000015258789,0.0,-18.0,-1.1582794189453125,0.887725830078125,Opening,0.0,0.0,0.0,0.0,0.0,0.0,0.0,0.0,
4.743579000000027,0.0,0.0,2753.0,0.0,0.0,0.0,0.0,0.25,0.7922362470000001,0.01,0.0,-12362.0,0.0,0.0,0.0,0.0,0.125,0.490722606,0.01,0.0,-65.0,0.0,0.0,0.0,0.0,0.0,3.348388329,0.01,0.0,5.0,0.125,0.0,0.0,0.0,0.125,1.6345213170000001,0.01,0.0,-0.3700000047683716,-0.8999999761581421,0.4000000059604645,-0.00372314453125,0.0286865234375,1.04791259765625,35.34000015258789,0.0,13.0,-1.1582183837890625,0.8878936767578125,Opening,0.0,0.0,0.0,0.0,0.0,0.0,0.0,0.0,
4.839059000000009,0.0,0.0,2753.0,0.0,0.0,0.0,0.0,0.25,0.7910155440000001,0.01,0.0,-12362.0,0.0,0.0,0.0,0.0,0.125,0.49194330900000005,0.01,0.0,-65.0,0.125,0.0,0.0,0.0,0.0,3.348388329,0.01,0.0,5.0,0.125,0.0,0.0,0.0,0.125,1.6345213170000001,0.01,0.0,-0.36000001430511475,-0.8899999856948853,0.4000000059604645,-0.012939453125,-0.00738525390625,1.00762939453125,35.33000183105469,0.0,2.0,-1.1580963134765625,0.8879547119140625,Opening,0.0,0.0,0.0,0.0,0.0,0.0,0.0,0.0,
4.935839000000036,0.0,0.0,2748.0,5.125,-120.0,-1140.9448385238647,0.0,0.125,0.8056639800000001,4.932250999999998,0.0,-12362.0,7.0,172.5,1140.9448385238647,0.0,0.125,0.496826121,4.963769999999998,0.0,-65.0,5.25,-30.0,-1140.9448385238647,0.0,0.0,3.35693325,0.01,0.0,40.0,7.0,210.0,1140.9448385238647,0.0,0.125,1.596679524,0.01,0.0,-0.46000000834465027,-1.4900000095367432,0.3799999952316284,-0.12457275390625,0.13458251953125,1.16973876953125,35.33000183105469,0.0,-92.0,-1.159210205078125,0.88726806640625,Opening,0.0,0.0,0.0,0.0,0.0,0.0,0.0,0.0,
5.038132000000042,0.0,0.0,2698.0,14.75,-292.5,-1686.6141200065613,0.0,0.125,0.806884683,4.932250999999998,0.0,-12324.0,18.5,307.5,1686.6141200065613,0.0,0.125,0.496826121,4.963769999999998,0.0,-81.0,18.5,-120.0,-1686.6141200065613,0.0,0.0,3.3630367650000004,0.01,0.0,40.0,16.125,315.0,1686.6141200065613,0.0,0.25,1.596679524,0.01,0.0,-0.4099999964237213,-2.8399999141693115,0.4000000059604645,-0.489501953125,-0.025146484375,0.8057861328125,35.33000183105469,0.0,-449.0,-1.1753387451171875,0.885894775390625,Opening,0.0,0.0,0.0,0.0,0.0,0.0,0.0,0.0,
5.135363000000012,0.0,0.0,2575.0,15.625,-765.0,-1686.6141200065613,0.0,0.125,0.806884683,4.932250999999998,0.0,-12228.0,21.375,742.5,1686.6141200065613,0.0,0.125,0.496826121,4.963769999999998,0.0,-165.0,21.125,-532.5,-1686.6141200065613,0.0,0.0,3.3630367650000004,0.01,0.0,121.0,17.5,765.0,1686.6141200065613,0.0,0.25,1.6076658510000001,0.01,0.0,-0.3199999928474426,-4.340000152587891,0.7599999904632568,-0.25213623046875,0.01580810546875,1.02838134765625,35.33000183105469,0.0,-173.0,-1.2146453857421875,0.884735107421875,Opening,0.0,0.0,0.0,0.0,0.0,0.0,0.0,0.0,
5.23491399999999,0.0,0.0,2368.0,12.625,-1155.0,-1686.6141200065613,0.0,0.125,0.806884683,4.932250999999998,0.0,-12045.0,16.5,1200.0,1686.6141200065613,0.0,0.125,0.495605418,4.963769999999998,0.0,-365.0,14.625,-1192.5,-1686.6141200065613,0.0,0.0,3.358153953,0.01,0.0,289.0,14.0,1192.5,1686.6141200065613,0.0,0.25,1.596679524,0.01,0.0,-0.36000001430511475,-5.150000095367432,1.1100000143051147,-0.12261962890625,-0.103271484375,1.0640869140625,35.33000183105469,0.0,-28.0,-1.2615966796875,0.885467529296875,Opening,0.0,0.0,0.0,0.0,0.0,0.0,0.0,0.0,
5.334687000000034,0.0,0.0,2368.0,1.375,-1432.5,-826.7716348171234,0.0,0.125,0.799560465,4.932250999999998,0.0,-11809.0,1.5,1447.5,826.7716348171234,0.0,0.125,0.496826121,4.963769999999998,0.0,-603.0,2.375,-1507.5,-826.7716348171234,0.0,0.0,3.35693325,0.01,0.0,510.0,2.75,1380.0,826.7716348171234,0.0,0.25,1.624755693,0.01,0.0,-0.4300000071525574,-5.150000095367432,1.4800000190734863,0.07904052734375,0.04052734375,0.91912841796875,35.349998474121094,0.0,162.0,-1.3212127685546875,0.886749267578125,Opening,0.0,0.0,0.0,0.0,0.0,0.0,0.0,0.0,
5.435891000000003,0.0,0.0,2136.0,0.0,-1357.5,0.0,0.0,0.125,0.8044432770000001,4.932250999999998,0.0,-11601.0,0.0,1357.5,0.0,0.0,0.125,0.496826121,4.963769999999998,0.0,-603.0,0.0,-1335.0,0.0,0.0,0.0,3.358153953,0.01,0.0,719.0,0.125,1267.5,0.0,0.0,0.125,1.6589353770000002,0.01,0.032958981000000165,-0.5299999713897705,-4.489999771118164,1.350000023841858,-0.0042724609375,-0.02081298828125,1.3040771484375,35.349998474121094,0.0,97.0,-1.373870849609375,0.886474609375,Opening,0.0,0.0,0.0,0.0,0.0,0.0,0.0,0.0,
5.534076000000001,0.0,0.0,1944.0,0.0,-1207.5,0.0,0.0,0.125,0.8056639800000001,4.932250999999998,-0.0012207029999995456,-11601.0,0.0,1350.0,0.0,0.0,0.125,0.535888617,4.963769999999998,0.0,-794.0,0.0,-1117.5,0.0,0.0,0.0,3.35693325,0.01,0.0,719.0,0.125,1342.5,0.0,0.0,0.25,1.6589353770000002,0.01,-4.928703128,-0.5299999713897705,-3.680000066757202,0.8100000023841858,-0.00653076171875,-0.0230712890625,1.10882568359375,35.349998474121094,0.0,64.0,-1.410400390625,0.8849639892578125,Opening,0.0,0.0,0.0,0.0,0.0,0.0,0.0,0.0,
5.634890000000014,0.0,0.0,1754.0,0.0,-1170.0,0.0,0.0,0.125,0.8056639800000001,4.932250999999998,0.0,-11392.0,0.0,1207.5,0.0,0.0,0.25,0.545654241,4.963769999999998,0.0,-974.0,0.125,-1087.5,0.0,0.0,0.0,3.35693325,0.01,0.0,927.0,0.125,1200.0,0.0,0.0,0.25,1.665038892,0.01,0.0,-0.5899999737739563,-2.9200000762939453,0.49000000953674316,0.15185546875,0.04547119140625,0.78509521484375,35.349998474121094,0.0,192.0,-1.443359375,0.8828125,Opening,0.0,0.0,0.0,0.0,0.0,0.0,0.0,0.0,
5.733654000000039,0.0,0.0,1587.0,0.0,-1057.5,0.0,0.0,0.125,0.8056639800000001,4.932250999999998,0.0,-11214.0,0.0,1050.0,0.0,0.0,0.25,0.544433538,4.963769999999998,0.004882811999999959,-1130.0,0.125,-960.0,0.0,0.0,0.0,3.358153953,0.01,0.0,1108.0,0.125,1065.0,0.0,0.0,0.25,1.665038892,0.01,0.0024414059999999793,-0.4300000071525574,-2.430000066757202,0.3700000047683716,0.04010009765625,0.04583740234375,1.16632080078125,35.349998474121094,0.0,89.0,-1.464141845703125,0.8813629150390625,Opening,0.0,0.0,0.0,0.0,0.0,0.0,0.0,0.0,
5.8316160000000385,0.0,0.0,1587.0,0.0,-892.5,0.0,0.0,0.125,0.8044432770000001,4.932250999999998,0.0,-11062.0,0.0,945.0,0.0,0.0,0.25,0.5407714290000001,4.963769999999998,0.0,-1268.0,0.125,-870.0,0.0,0.0,0.0,3.358153953,0.01,0.0,1258.0,0.125,907.5,0.0,0.0,0.25,1.665038892,0.01,0.0,-0.3400000035762787,-1.850000023841858,0.2800000011920929,0.05352783203125,-0.033203125,1.1708984375,35.29999923706055,0.0,91.0,-1.47845458984375,0.8809356689453125,Opening,0.0,0.0,0.0,0.0,0.0,0.0,0.0,0.0,
5.924304999999993,0.0,0.0,1448.0,0.0,-787.5,0.0,0.0,0.125,0.8044432770000001,4.932250999999998,0.0,-10934.0,0.0,802.5,0.0,0.0,0.25,0.5407714290000001,4.963769999999998,0.0,-1268.0,0.0,-795.0,0.0,0.0,0.0,3.35693325,0.01,0.0,1390.0,0.125,787.5,0.0,0.0,0.25,1.6638181890000001,0.01,0.0,-0.38999998569488525,-1.2699999809265137,0.12999999523162842,-0.00262451171875,-0.06060791015625,0.83306884765625,35.29999923706055,0.0,15.0,-1.4877471923828125,0.8803253173828125,Opening,0.0,0.0,0.0,0.0,0.0,0.0,0.0,0.0,
6.027089000000037,0.0,0.0,1330.0,0.0,-675.0,0.0,0.0,0.125,0.8056639800000001,4.932250999999998,0.0,-10934.0,0.0,697.5,0.0,0.0,0.25,0.5407714290000001,4.963769999999998,0.0,-1389.0,0.0,-667.5,0.0,0.0,0.0,3.35693325,0.01,0.0,1498.0,0.125,705.0,0.0,0.0,0.25,1.6638181890000001,0.01,0.0,-0.4000000059604645,-0.75,-0.019999999552965164,0.1192626953125,-0.02349853515625,1.09967041015625,35.29999923706055,0.0,133.0,-1.4914398193359375,0.8792724609375,Opening,0.0,0.0,0.0,0.0,0.0,0.0,0.0,0.0,
6.125497000000032,0.0,0.0,1235.0,0.0,-562.5,0.0,0.0,0.125,0.8056639800000001,4.932250999999998,0.0,-10828.0,0.0,592.5,0.0,0.0,0.25,0.5407714290000001,4.963769999999998,0.0,-1485.0,0.125,-547.5,0.0,0.0,0.0,3.35693325,0.01,0.0,1498.0,0.125,570.0,0.0,0.0,0.25,1.6638181890000001,0.01,0.0,-0.41999998688697815,-0.23000000417232513,-0.15000000596046448,-0.010498046875,0.016357421875,1.0155029296875,35.29999923706055,0.0,-6.0,-1.4880828857421875,0.8779296875,Opening,0.0,0.0,0.0,0.0,0.0,0.0,0.0,0.0,
6.2286909999999915,0.0,0.0,1161.0,0.0,-450.0,0.0,0.0,0.125,0.8044432770000001,4.932250999999998,0.0,-10746.0,0.0,457.5,0.0,0.0,0.25,0.539550726,4.963769999999998,0.0,-1562.0,0.125,-465.0,0.0,0.0,0.0,3.358153953,0.01,0.0,1582.0,0.125,442.5,0.0,0.0,0.25,1.6638181890000001,0.01,0.0,-0.4300000071525574,0.05000000074505806,-0.2199999988079071,0.07928466796875,-0.00445556640625,0.997802734375,35.29999923706055,0.0,78.0,-1.4807281494140625,0.876983642578125,Opening,0.0,0.0,0.0,0.0,0.0,0.0,0.0,0.0,
6.327238000000012,0.0,0.0,1108.0,0.0,-352.5,0.0,0.0,0.125,0.8056639800000001,4.932250999999998,0.0,-10685.0,0.0,337.5,0.0,0.0,0.25,0.5407714290000001,4.963769999999998,0.0,-1617.0,0.125,-337.5,0.0,0.0,0.0,3.35693325,0.01,0.0,1641.0,0.125,337.5,0.0,0.0,0.25,1.6638181890000001,0.01,0.0,-0.4099999964237213,0.46000000834465027,-0.20000000298023224,0.10760498046875,0.03125,0.9832763671875,35.31999969482422,0.0,99.0,-1.4670257568359375,0.876800537109375,Opening,0.0,0.0,0.0,0.0,0.0,0.0,0.0,0.0,
6.424743000000017,0.0,0.0,1108.0,0.0,-225.0,0.0,0.0,0.125,0.809326089,4.932250999999998,0.0,-10647.0,0.0,225.0,0.0,0.0,0.25,0.5407714290000001,4.963769999999998,0.0,-1646.0,0.0,-202.5,0.0,0.0,0.0,3.358153953,0.01,0.0,1682.0,0.125,240.0,0.0,0.0,0.25,1.665038892,0.01,0.0,-0.3499999940395355,0.7900000214576721,-0.3400000035762787,0.0711669921875,-0.01251220703125,1.08819580078125,35.31999969482422,0.0,56.0,-1.4484405517578125,0.8766937255859375,Opening,0.0,0.0,0.0,0.0,0.0,0.0,0.0,0.0,
6.521779000000039,0.0,0.0,1080.0,0.0,-97.5,0.0,0.0,0.125,0.8044432770000001,4.932250999999998,0.0,-10633.0,0.0,120.0,0.0,0.0,0.25,0.5407714290000001,4.963769999999998,0.0,-1646.0,0.0,-105.0,0.0,0.0,0.0,3.358153953,0.01,0.0,1697.0,0.125,90.0,0.0,0.0,0.25,1.665038892,0.01,0.0,-0.3400000035762787,1.1299999952316284,-0.3199999928474426,0.0831298828125,0.002685546875,0.97052001953125,35.31999969482422,0.0,63.0,-1.4283905029296875,0.8766937255859375,Opening,0.0,0.0,0.0,0.0,0.0,0.0,0.0,0.0,
6.61688400000002,0.0,0.0,1073.0,0.0,-7.5,0.0,0.0,0.125,0.8056639800000001,4.932250999999998,0.0,-10633.0,0.0,7.5,0.0,0.0,0.25,0.5407714290000001,4.963769999999998,0.0,-1657.0,0.125,-22.5,0.0,0.0,0.0,3.359374656,0.01,0.0,1698.0,0.125,0.0,0.0,0.0,0.25,1.665038892,0.01,0.0,-0.33000001311302185,1.159999966621399,-0.3100000023841858,-0.01190185546875,-0.00177001953125,1.04962158203125,35.31999969482422,0.0,-33.0,-1.4172515869140625,0.8766937255859375,Opening,0.0,0.0,0.0,0.0,0.0,0.0,0.0,0.0,
6.716504000000016,0.0,0.0,1073.0,0.0,0.0,0.0,0.0,0.125,0.8044432770000001,4.932250999999998,0.0,-10633.0,0.0,0.0,0.0,0.0,0.25,0.539550726,4.963769999999998,0.0,-1657.0,0.0,0.0,0.0,0.0,0.0,3.35693325,0.01,0.0,1698.0,0.125,0.0,0.0,0.0,0.25,1.6638181890000001,0.01,0.0,-0.3400000035762787,0.9900000095367432,-0.3199999928474426,-0.02215576171875,-0.00579833984375,1.041748046875,35.31999969482422,0.0,-40.0,-1.4188690185546875,0.8766937255859375,Opening,0.0,0.0,0.0,0.0,0.0,0.0,0.0,0.0,
6.811815999999991,0.0,0.0,1073.0,0.0,0.0,0.0,0.0,0.125,0.810546792,4.932250999999998,0.0,-10633.0,0.0,0.0,0.0,0.0,0.25,0.5407714290000001,4.963769999999998,0.0,-1657.0,0.0,0.0,0.0,0.0,0.0,3.35693325,0.01,0.0,1698.0,0.125,0.0,0.0,0.0,0.25,1.665038892,0.01,0.0,-0.3499999940395355,0.800000011920929,-0.3100000023841858,-0.025146484375,-0.0047607421875,1.0206298828125,35.290000915527344,0.0,-39.0,-1.42327880859375,0.8766937255859375,Opening,0.0,0.0,0.0,0.0,0.0,0.0,0.0,0.0,
6.913814000000013,0.0,0.0,1073.0,0.0,0.0,0.0,0.0,0.125,0.809326089,4.932250999999998,0.0,-10633.0,0.0,0.0,0.0,0.0,0.25,0.539550726,4.963769999999998,0.0,-1657.0,0.0,0.0,0.0,0.0,0.0,3.358153953,0.01,0.0,1698.0,0.125,0.0,0.0,0.0,0.25,1.6638181890000001,0.01,0.0,-0.36000001430511475,0.6800000071525574,-0.3100000023841858,-0.01080322265625,-0.00616455078125,1.01068115234375,35.290000915527344,0.0,-22.0,-1.42901611328125,0.8766937255859375,Opening,0.0,0.0,0.0,0.0,0.0,0.0,0.0,0.0,
7.014081000000005,0.0,0.0,1073.0,0.0,0.0,0.0,0.0,0.125,0.809326089,4.932250999999998,0.0,-10633.0,0.0,0.0,0.0,0.0,0.25,0.539550726,4.963769999999998,0.0,-1657.0,0.125,0.0,0.0,0.0,0.0,3.358153953,0.01,0.0,1698.0,0.125,0.0,0.0,0.0,0.25,1.6638181890000001,0.01,0.0,-0.36000001430511475,0.6000000238418579,-0.3199999928474426,-0.00103759765625,-0.0096435546875,1.01275634765625,35.290000915527344,0.0,-11.0,-1.4311981201171875,0.8766937255859375,Opening,0.0,0.0,0.0,0.0,0.0,0.0,0.0,0.0,
7.117614999999991,0.0,0.0,1073.0,0.0,0.0,0.0,0.0,0.125,0.8056639800000001,4.932250999999998,0.0,-10633.0,0.0,0.0,0.0,0.0,0.25,0.539550726,4.963769999999998,0.0,-1657.0,0.0,0.0,0.0,0.0,0.0,3.358153953,0.01,0.0,1698.0,0.125,0.0,0.0,0.0,0.25,1.6638181890000001,0.01,0.0,-0.36000001430511475,0.5199999809265137,-0.3199999928474426,-0.01129150390625,-0.00537109375,1.01837158203125,35.290000915527344,0.0,-20.0,-1.4312744140625,0.8766937255859375,Opening,0.0,0.0,0.0,0.0,0.0,0.0,0.0,0.0,
7.221929000000004,0.0,0.0,1073.0,0.0,0.0,0.0,0.0,0.125,0.810546792,4.932250999999998,0.0,-10633.0,0.0,0.0,0.0,0.0,0.25,0.539550726,4.963769999999998,0.0,-1657.0,0.0,0.0,0.0,0.0,0.0,3.358153953,0.01,0.0,1698.0,0.125,0.0,0.0,0.0,0.25,1.665038892,0.01,0.0,-0.3499999940395355,0.4300000071525574,-0.3199999928474426,-0.0101318359375,-0.005126953125,1.01885986328125,35.290000915527344,0.0,-17.0,-1.432525634765625,0.8766937255859375,Opening,0.0,0.0,0.0,0.0,0.0,0.0,0.0,0.0,
7.329210000000021,0.0,0.0,1073.0,0.0,0.0,0.0,0.0,0.125,0.8056639800000001,4.932250999999998,0.0,-10633.0,0.0,0.0,0.0,0.0,0.25,0.5407714290000001,4.963769999999998,0.0,-1657.0,0.125,0.0,0.0,0.0,0.0,3.35693325,0.01,0.0,1698.0,0.125,0.0,0.0,0.0,0.25,1.665038892,0.01,0.0,-0.36000001430511475,0.36000001430511475,-0.3199999928474426,-0.00799560546875,-0.0069580078125,1.0216064453125,35.31999969482422,0.0,-14.0,-1.432525634765625,0.8766937255859375,Opening,0.0,0.0,0.0,0.0,0.0,0.0,0.0,0.0,
7.4362690000000295,0.0,0.0,1073.0,0.0,0.0,0.0,0.0,0.125,0.8056639800000001,4.932250999999998,0.0,-10633.0,0.0,0.0,0.0,0.0,0.25,0.539550726,4.963769999999998,0.0,-1657.0,0.125,0.0,0.0,0.0,0.0,3.35693325,0.01,0.0,1698.0,0.125,0.0,0.0,0.0,0.25,1.6638181890000001,0.01,0.0,-0.36000001430511475,0.2800000011920929,-0.33000001311302185,-0.01116943359375,-0.00701904296875,1.01715087890625,35.31999969482422,0.0,-16.0,-1.432525634765625,0.8766937255859375,Opening,0.0,0.0,0.0,0.0,0.0,0.0,0.0,0.0,
7.540353999999992,0.0,0.0,1073.0,0.0,0.0,0.0,0.0,0.125,0.8044432770000001,4.932250999999998,0.0,-10633.0,0.0,0.0,0.0,0.0,0.25,0.5407714290000001,4.963769999999998,0.0,-1657.0,0.0,0.0,0.0,0.0,0.0,3.358153953,0.01,0.0,1698.0,0.125,0.0,0.0,0.0,0.25,1.6638181890000001,0.01,0.0,-0.3499999940395355,0.2199999988079071,-0.33000001311302185,-0.00927734375,-0.00592041015625,1.01971435546875,35.31999969482422,0.0,-13.0,-1.432525634765625,0.8766937255859375,Opening,0.0,0.0,0.0,0.0,0.0,0.0,0.0,0.0,
7.642695999999996,0.0,0.0,1073.0,0.0,0.0,0.0,0.0,0.125,0.8056639800000001,4.932250999999998,0.0,-10633.0,0.0,0.0,0.0,0.0,0.25,0.5407714290000001,4.963769999999998,0.0,-1657.0,0.0,0.0,0.0,0.0,0.0,3.358153953,0.01,0.0,1698.0,0.125,0.0,0.0,0.0,0.25,1.6638181890000001,0.01,0.0,-0.3799999952316284,0.05000000074505806,-0.33000001311302185,-0.07952880859375,-0.01507568359375,1.05352783203125,35.31999969482422,0.0,-80.0,-1.4350433349609375,0.8770599365234375,Opening,0.0,0.0,0.0,0.0,0.0,0.0,0.0,0.0,
7.7474980000000215,0.0,0.0,1073.0,0.0,0.0,0.0,0.0,0.125,0.8056639800000001,4.932250999999998,-0.0012207029999995456,-10633.0,0.0,0.0,0.0,0.0,0.25,0.5407714290000001,4.963769999999998,0.0,-1657.0,0.125,0.0,0.0,0.0,0.0,3.358153953,0.01,0.0,1698.0,0.125,0.0,0.0,0.0,0.25,1.6638181890000001,0.01,0.0,-0.30000001192092896,0.05999999865889549,-0.33000001311302185,0.09161376953125,-0.03155517578125,0.9150390625,35.31999969482422,0.0,90.0,-1.4387664794921875,0.8780059814453125,Opening,0.0,0.0,0.0,0.0,0.0,0.0,0.0,0.0,
7.849364999999991,0.0,0.0,1073.0,0.0,0.0,0.0,0.0,0.125,0.8056639800000001,4.932250999999998,-0.0024414059999999793,-10633.0,0.0,0.0,0.0,0.0,0.25,0.5407714290000001,4.963769999999998,0.0,-1657.0,0.0,0.0,0.0,0.0,0.0,3.358153953,0.01,0.0,1698.0,0.125,0.0,0.0,0.0,0.25,1.6638181890000001,0.01,0.0,-0.3400000035762787,-0.03999999910593033,-0.33000001311302185,0.07659912109375,-0.0518798828125,1.18389892578125,35.290000915527344,0.0,-69.0,-1.439910888671875,0.8777008056640625,Opening,0.0,0.0,0.0,0.0,0.0,0.0,0.0,0.0,
7.952522999999987,0.0,0.0,1073.0,0.0,0.0,0.0,0.0,0.125,0.8056639800000001,4.932250999999998,0.0,-10633.0,0.0,0.0,0.0,0.0,0.25,0.5407714290000001,4.963769999999998,0.0,-1657.0,0.0,0.0,0.0,0.0,0.0,3.358153953,0.01,0.0,1698.0,0.125,0.0,0.0,0.0,0.25,1.665038892,0.01,0.0,-0.27000001072883606,-0.05999999865889549,-0.3400000035762787,-0.11553955078125,0.10369873046875,1.00872802734375,35.290000915527344,0.0,-115.0,-1.443389892578125,0.8763275146484375,Opening,0.0,0.0,0.0,0.0,0.0,0.0,0.0,0.0,
8.054364000000001,0.0,0.0,1073.0,0.0,0.0,0.0,0.0,0.125,0.809326089,4.932250999999998,0.0,-10633.0,0.0,0.0,0.0,0.0,0.25,0.5407714290000001,4.963769999999998,0.0,-1657.0,0.125,0.0,0.0,0.0,0.0,3.358153953,0.01,0.0,1698.0,0.125,0.0,0.0,0.0,0.25,1.665038892,0.01,0.0,-0.4399999976158142,-0.17000000178813934,-0.3400000035762787,-0.06982421875,0.12158203125,0.818359375,35.290000915527344,0.0,-68.0,-1.4541015625,0.8728179931640625,Opening,0.0,0.0,0.0,0.0,0.0,0.0,0.0,0.0,
8.155477000000014,0.0,0.0,1073.0,0.0,0.0,0.0,0.0,0.125,0.8056639800000001,4.932250999999998,0.0,-10633.0,0.0,0.0,0.0,0.0,0.25,0.5407714290000001,4.963769999999998,0.0,-1657.0,0.0,0.0,0.0,0.0,0.0,3.358153953,0.01,0.0,1698.0,0.125,0.0,0.0,0.0,0.25,1.6638181890000001,0.01,0.0,-0.20999999344348907,-0.05000000074505806,-0.3400000035762787,0.0079345703125,0.1680908203125,1.0181884765625,35.290000915527344,0.0,7.0,-1.4702301025390625,0.86981201171875,Opening,0.0,0.0,0.0,0.0,0.0,0.0,0.0,0.0,
8.257125,0.0,0.0,1073.0,0.0,0.0,0.0,0.0,0.125,0.8056639800000001,4.932250999999998,0.0,-10633.0,0.0,0.0,0.0,0.0,0.25,0.5407714290000001,4.963769999999998,0.0,-1657.0,0.0,0.0,0.0,0.0,0.0,3.358153953,0.01,0.0,1698.0,0.125,0.0,0.0,0.0,0.25,1.665038892,0.01,0.0,0.019999999552965164,-0.019999999552965164,-0.3400000035762787,-3.0517578125E-4,-0.012939453125,0.65716552734375,35.290000915527344,0.0,0.0,-1.4847259521484375,0.873565673828125,Opening,0.0,0.0,0.0,0.0,0.0,0.0,0.0,0.0,
8.368059000000008,0.0,0.0,1073.0,0.0,0.0,0.0,0.0,0.125,0.8044432770000001,4.932250999999998,0.0,-10633.0,0.0,0.0,0.0,0.0,0.25,0.5407714290000001,4.963769999999998,0.0,-1657.0,0.0,0.0,0.0,0.0,0.0,3.358153953,0.01,0.0,1698.0,0.125,0.0,0.0,0.0,0.25,1.6638181890000001,0.01,0.0,-0.5899999737739563,-0.3499999940395355,-0.3400000035762787,-0.40643310546875,-0.0999755859375,1.019775390625,35.33000183105469,0.0,-399.0,-1.4882354736328125,0.8714752197265625,Opening,0.0,0.0,0.0,0.0,0.0,0.0,0.0,0.0,
8.46635600000003,0.0,0.0,1073.0,0.0,0.0,0.0,0.0,0.125,0.806884683,4.932250999999998,0.0,-10633.0,0.0,0.0,0.0,0.0,0.25,0.5407714290000001,4.963769999999998,0.0,-1657.0,0.125,0.0,0.0,0.0,0.0,3.358153953,0.01,0.0,1698.0,0.125,0.0,0.0,0.0,0.25,1.665038892,0.01,0.0,-0.6800000071525574,-0.5400000214576721,-0.3400000035762787,-0.3360595703125,0.08404541015625,0.844970703125,35.33000183105469,0.0,-328.0,-1.5001373291015625,0.8658294677734375,Opening,0.0,0.0,0.0,0.0,0.0,0.0,0.0,0.0,
8.559889000000025,0.0,0.0,1073.0,0.0,0.0,0.0,0.0,0.125,0.8056639800000001,4.932250999999998,0.0,-10633.0,0.0,0.0,0.0,0.0,0.25,0.5407714290000001,4.963769999999998,0.0,-1657.0,0.0,0.0,0.0,0.0,0.0,3.358153953,0.01,0.0,1698.0,0.125,0.0,0.0,0.0,0.25,1.6638181890000001,0.01,0.0,-0.2800000011920929,-0.36000001430511475,-0.3400000035762787,-0.04583740234375,0.1102294921875,1.21868896484375,35.33000183105469,0.0,-38.0,-1.5150604248046875,0.86669921875,Opening,0.0,0.0,0.0,0.0,0.0,0.0,0.0,0.0,
8.665743000000017,0.0,0.0,1073.0,0.0,0.0,0.0,0.0,0.125,0.8056639800000001,4.932250999999998,0.0,-10633.0,0.0,0.0,0.0,0.0,0.25,0.539550726,4.963769999999998,0.0,-1657.0,0.125,0.0,0.0,0.0,0.0,3.358153953,0.01,0.0,1698.0,0.125,0.0,0.0,0.0,0.25,1.6638181890000001,0.01,0.0,-0.27000001072883606,-0.3700000047683716,-0.3400000035762787,-0.01141357421875,-0.01202392578125,0.98114013671875,35.33000183105469,0.0,-4.0,-1.5260162353515625,0.867431640625,Opening,0.0,0.0,0.0,0.0,0.0,0.0,0.0,0.0,
8.764954000000028,0.0,0.0,1073.0,0.0,0.0,0.0,0.0,0.125,0.8056639800000001,4.932250999999998,0.0,-10633.0,0.0,0.0,0.0,0.0,0.25,0.539550726,4.963769999999998,0.0,-1657.0,0.0,0.0,0.0,0.0,0.0,3.358153953,0.01,0.0,1698.0,0.125,0.0,0.0,0.0,0.25,1.6638181890000001,0.01,0.0,-0.25999999046325684,-0.4000000059604645,-0.3400000035762787,-0.0081787109375,-7.9345703125E-4,1.0126953125,35.33000183105469,0.0,-1.0,-1.52606201171875,0.86724853515625,Opening,0.0,0.0,0.0,0.0,0.0,0.0,0.0,0.0,
8.862286000000022,0.0,0.0,1073.0,0.0,0.0,0.0,0.0,0.125,0.8056639800000001,4.932250999999998,0.0,-10633.0,0.0,0.0,0.0,0.0,0.25,0.5407714290000001,4.963769999999998,0.0,-1657.0,0.125,0.0,0.0,0.0,0.0,3.359374656,0.01,0.0,1698.0,0.125,0.0,0.0,0.0,0.25,1.6638181890000001,0.01,0.0,-0.27000001072883606,-0.4099999964237213,-0.3499999940395355,-0.019775390625,-0.00439453125,1.0228271484375,35.279998779296875,0.0,-12.0,-1.526092529296875,0.8671875,Opening,0.0,0.0,0.0,0.0,0.0,0.0,0.0,0.0,
8.958391999999993,0.0,0.0,1073.0,0.0,0.0,0.0,0.0,0.125,0.8056639800000001,4.932250999999998,0.0,-10633.0,0.0,0.0,0.0,0.0,0.25,0.539550726,4.963769999999998,0.0,-1657.0,0.0,0.0,0.0,0.0,0.0,3.358153953,0.01,0.0,1698.0,0.125,0.0,0.0,0.0,0.25,1.6638181890000001,0.01,0.0,-0.2800000011920929,-0.41999998688697815,-0.3400000035762787,-0.00433349609375,-0.00653076171875,1.0208740234375,35.279998779296875,0.0,3.0,-1.526092529296875,0.8671875,Opening,0.0,0.0,0.0,0.0,0.0,0.0,0.0,0.0,
9.055145000000019,0.0,0.0,1073.0,0.0,0.0,0.0,0.0,0.125,0.810546792,4.932250999999998,0.0,-10633.0,0.0,0.0,0.0,0.0,0.25,0.5407714290000001,4.963769999999998,0.0,-1657.0,0.0,0.0,0.0,0.0,0.0,3.35693325,0.01,0.0,1698.0,0.125,0.0,0.0,0.0,0.25,1.6638181890000001,0.01,0.0,-0.2800000011920929,-0.4300000071525574,-0.3400000035762787,-0.00665283203125,-0.00927734375,1.01904296875,35.279998779296875,0.0,1.0,-1.526092529296875,0.8671875,Opening,0.0,0.0,0.0,0.0,0.0,0.0,0.0,0.0,
9.153825000000012,0.0,0.0,1073.0,0.0,0.0,0.0,0.0,0.125,0.810546792,4.932250999999998,0.0012207030000004337,-10633.0,0.0,0.0,0.0,0.0,0.25,0.539550726,4.963769999999998,0.0,-1657.0,0.125,0.0,0.0,0.0,0.0,3.35693325,0.01,0.0,1698.0,0.125,0.0,0.0,0.0,0.25,1.6638181890000001,0.01,0.0,-0.28999999165534973,-0.4399999976158142,-0.3499999940395355,-0.00830078125,-0.0048828125,1.02276611328125,35.279998779296875,0.0,0.0,-1.526092529296875,0.8671875,Opening,0.0,0.0,0.0,0.0,0.0,0.0,0.0,0.0,
9.252043000000006,0.0,0.0,1073.0,0.0,0.0,0.0,0.0,0.125,0.8056639800000001,4.932250999999998,-0.0012207030000004337,-10633.0,0.0,0.0,0.0,0.0,0.25,0.5407714290000001,4.963769999999998,0.0,-1657.0,0.0,0.0,0.0,0.0,0.0,3.358153953,0.01,0.0,1698.0,0.125,0.0,0.0,0.0,0.25,1.6638181890000001,0.01,0.0,-0.30000001192092896,-0.4399999976158142,-0.3499999940395355,-0.0078125,-0.00360107421875,1.0223388671875,35.279998779296875,0.0,0.0,-1.526092529296875,0.8671875,Opening,0.0,0.0,0.0,0.0,0.0,0.0,0.0,0.0,
9.349363000000013,0.0,0.0,1073.0,0.0,0.0,0.0,0.0,0.125,0.8044432770000001,4.932250999999998,-0.0012207029999995456,-10633.0,0.0,0.0,0.0,0.0,0.25,0.539550726,4.963769999999998,0.0,-1657.0,0.125,0.0,0.0,0.0,0.0,3.359374656,0.01,0.0,1698.0,0.125,0.0,0.0,0.0,0.25,1.6638181890000001,0.01,0.0,-0.3100000023841858,-0.44999998807907104,-0.3499999940395355,-0.0067138671875,-0.010009765625,1.01190185546875,35.279998779296875,0.0,1.0,-1.526092529296875,0.8671875,Opening,0.0,0.0,0.0,0.0,0.0,0.0,0.0,0.0,
9.448833000000043,0.0,0.0,1074.0,0.125,0.0,164.0625,0.0,1.5,0.877685457,0.5498168668524888,0.0,-10633.0,0.125,0.0,164.0625,0.0,3.0,0.462646437,4.410439589772222,0.0,-1657.0,0.375,0.0,164.0625,0.0,2.0,3.249511386,4.389674732977289,0.0,1698.0,0.375,0.0,164.0625,0.0,2.0,1.702880685,0.5526872062785588,0.0,-0.3100000023841858,-0.44999998807907104,-0.3499999940395355,0.0130615234375,0.0135498046875,1.02838134765625,35.279998779296875,0.0,21.0,-1.5260772705078125,0.8671875,Opening,0.0,0.0,0.0,0.0,0.0,0.0,0.0,0.0,
9.546939000000012,0.0,0.0,1074.0,0.5,22.5,229.6875,0.0,0.75,1.2414549510000001,0.5498168668524888,0.0,-10628.0,0.375,22.5,229.6875,0.0,0.5,0.07080077400000001,4.410439589772222,0.0,-1648.0,0.5,45.0,229.6875,0.0,0.375,2.886962595,4.389674732977289,0.0,1699.0,0.75,7.5,229.6875,0.0,0.875,2.082519318,0.5526872062785588,0.0,-0.3199999928474426,-0.4300000071525574,-0.4000000059604645,-0.006591796875,-0.008544921875,1.036376953125,35.279998779296875,0.0,1.0,-1.5259246826171875,0.8671875,Opening,0.0,0.0,0.0,0.0,0.0,0.0,0.0,0.0,
9.640877000000037,0.0,0.0,1077.0,0.75,0.0,229.6875,0.0,0.375,1.383056499,0.5498168668524888,0.0,-10609.0,0.375,120.0,229.6875,0.0,0.25,4.91943309,4.410439589772222,0.0,-1648.0,0.75,52.5,229.6875,0.0,0.125,2.78320284,4.389674732977289,0.0,1701.0,1.0,0.0,229.6875,0.0,0.375,2.193603291,0.5526872062785588,0.0,-0.3199999928474426,-0.4699999988079071,-0.6499999761581421,-0.02850341796875,-0.00115966796875,1.035400390625,35.279998779296875,0.0,-19.0,-1.52593994140625,0.8671875,Opening,0.0,0.0,0.0,0.0,0.0,0.0,0.0,0.0,
9.736943000000029,0.0,0.0,1082.0,1.5,45.0,360.9375,0.0,0.125,1.378173687,0.5498168668524888,0.0,-10609.0,1.375,67.5,360.9375,0.0,0.0,4.9182123870000005,4.410439589772222,0.0,-1640.0,1.625,37.5,360.9375,0.0,0.0,2.784423543,4.389674732977289,0.0,1725.0,1.5,67.5,360.9375,0.0,0.25,2.192382588,0.5526872062785588,0.0,-0.3100000023841858,-0.5,-1.1299999952316284,-0.0162353515625,-0.03436279296875,1.03717041015625,35.279998779296875,0.0,-6.0,-1.5260162353515625,0.8672332763671875,Opening,0.0,0.0,0.0,0.0,0.0,0.0,0.0,0.0,
9.847983000000008,0.0,0.0,1093.0,2.375,75.0,393.75,0.0,0.125,1.381835796,0.5498168668524888,0.0,-10597.0,2.125,112.5,393.75,0.0,0.0,4.903563951000001,4.410439589772222,0.0,-1630.0,2.25,75.0,393.75,0.0,0.0,2.764892295,4.389674732977289,0.0,1725.0,2.0,150.0,393.75,0.0,0.25,2.188720479,0.5526872062785588,0.0,-0.3100000023841858,-0.4699999988079071,-2.2799999713897705,-0.01422119140625,0.0206298828125,1.02313232421875,35.279998779296875,0.0,-6.0,-1.52484130859375,0.866363525390625,Opening,0.0,0.0,0.0,0.0,0.0,0.0,0.0,0.0,
9.94775800000003,0.0,0.0,1122.0,2.375,187.5,393.75,0.0,0.125,1.383056499,0.5498168668524888,0.0,-10572.0,2.25,180.0,393.75,0.0,0.125,4.864501455,4.410439589772222,0.0,-1607.0,2.375,157.5,393.75,0.0,0.0,2.7502438590000002,4.389674732977289,0.0,1743.0,2.75,187.5,393.75,0.0,0.25,2.199706806,0.5526872062785588,0.0,-0.3100000023841858,-0.4000000059604645,-4.199999809265137,-0.036865234375,0.02685546875,0.99462890625,35.279998779296875,0.0,-32.0,-1.52294921875,0.8662872314453125,Opening,0.0,0.0,0.0,0.0,0.0,0.0,0.0,0.0,
10.037570999999996,0.0,0.0,1176.0,1.875,307.5,393.75,0.0,0.125,1.350097518,0.5498168668524888,0.0,-10526.0,1.75,315.0,393.75,0.0,0.25,4.8632807520000005,4.410439589772222,0.0,-1558.0,2.0,300.0,393.75,0.0,0.0,2.7502438590000002,4.389674732977289,0.0,1783.0,2.375,277.5,393.75,0.0,0.25,2.198486103,0.5526872062785588,0.0,-0.3100000023841858,-0.4399999976158142,-7.829999923706055,-0.02410888671875,-0.0491943359375,1.03485107421875,35.279998779296875,0.0,-10.0,-1.5199737548828125,0.8667144775390625,Opening,0.0,0.0,0.0,0.0,0.0,0.0,0.0,0.0,
10.135322000000043,0.0,0.0,1176.0,1.5,397.5,393.75,0.0,0.125,1.383056499,0.5498168668524888,0.0,-10461.0,1.25,405.0,393.75,0.0,0.25,4.8632807520000005,4.410439589772222,0.0,-1498.0,1.75,352.5,393.75,0.0,0.0,2.7502438590000002,4.389674732977289,0.0,1843.0,1.875,375.0,393.75,0.0,0.25,2.198486103,0.5526872062785588,0.0,-0.3499999940395355,-0.3700000047683716,-11.5600004196167,-0.02142333984375,0.021484375,0.8153076171875,35.279998779296875,0.0,-21.0,-1.5175933837890625,0.8668365478515625,Opening,0.0,0.0,0.0,0.0,0.0,0.0,0.0,0.0,
10.236212,0.0,0.0,1243.0,1.25,427.5,393.75,0.0,0.25,1.383056499,0.5498168668524888,0.0,-10391.0,0.875,435.0,393.75,0.0,0.25,4.8632807520000005,4.410439589772222,0.0,-1498.0,1.5,412.5,393.75,0.0,0.0,2.755126671,4.389674732977289,0.0,1909.0,1.5,405.0,393.75,0.0,0.25,2.198486103,0.5526872062785588,0.0,-0.3400000035762787,-0.3700000047683716,-16.209999084472656,-0.04962158203125,0.0140380859375,1.02850341796875,35.279998779296875,0.0,-46.0,-1.516815185546875,0.8677215576171875,Opening,0.0,0.0,0.0,0.0,0.0,0.0,0.0,0.0,
10.336973999999987,0.0,0.0,1314.0,0.875,435.0,393.75,0.0,0.125,1.376952984,0.5498168668524888,0.0,-10391.0,0.75,442.5,393.75,0.0,0.25,4.8681635640000005,4.410439589772222,0.0,-1428.0,1.375,435.0,393.75,0.0,0.0,2.760009483,4.389674732977289,0.0,1975.0,1.5,405.0,393.75,0.0,0.25,2.198486103,0.5526872062785588,0.0,-0.36000001430511475,-0.3400000035762787,-20.229999542236328,-0.01849365234375,-0.02642822265625,0.9249267578125,35.279998779296875,0.0,-5.0,-1.516998291015625,0.8681488037109375,Opening,0.0,0.0,0.0,0.0,0.0,0.0,0.0,0.0,
10.436483000000008,0.0,0.0,1385.0,1.125,442.5,393.75,0.0,0.125,1.381835796,0.5498168668524888,0.0,-10320.0,0.75,427.5,393.75,0.0,0.25,4.888915515,4.410439589772222,0.0,-1361.0,1.375,412.5,393.75,0.0,0.0,2.760009483,4.389674732977289,0.0,1975.0,1.5,420.0,393.75,0.0,0.25,2.1972654,0.5526872062785588,0.0,-0.4099999964237213,-0.38999998569488525,-24.770000457763672,-0.03594970703125,0.02984619140625,0.9671630859375,35.29999923706055,0.0,-41.0,-1.5171356201171875,0.868194580078125,Opening,0.0,0.0,0.0,0.0,0.0,0.0,0.0,0.0,
10.533271999999997,0.0,0.0,1452.0,0.875,420.0,393.75,0.0,0.125,1.380615093,0.5498168668524888,0.0,-10252.0,0.75,412.5,393.75,0.0,0.25,4.891356921,4.410439589772222,0.0,-1297.0,1.5,397.5,393.75,0.0,0.0,2.75878878,4.389674732977289,0.0,2037.0,1.5,390.0,393.75,0.0,0.25,2.198486103,0.5526872062785588,0.0,-0.4300000071525574,-0.46000000834465027,-28.479999542236328,-0.01312255859375,0.02252197265625,1.07733154296875,35.29999923706055,0.0,-18.0,-1.5175628662109375,0.868072509765625,Opening,0.0,0.0,0.0,0.0,0.0,0.0,0.0,0.0,
10.631497000000032,0.0,0.0,1516.0,0.875,397.5,393.75,0.0,0.125,1.383056499,0.5498168668524888,0.0,-10188.0,0.75,397.5,393.75,0.0,0.125,4.892577624,4.410439589772222,0.0,-1234.0,1.5,390.0,393.75,0.0,0.0,2.764892295,4.389674732977289,0.0,2103.0,1.5,375.0,393.75,0.0,0.25,2.198486103,0.5526872062785588,0.0,-0.47999998927116394,-0.5299999713897705,-32.779998779296875,-0.0103759765625,-0.015869140625,1.0335693359375,35.29999923706055,0.0,3.0,-1.5178070068359375,0.86773681640625,Opening,0.0,0.0,0.0,0.0,0.0,0.0,0.0,0.0,
10.73121100000001,0.0,0.0,1516.0,1.125,397.5,393.75,0.0,0.125,1.381835796,0.5498168668524888,0.0,-10123.0,0.75,397.5,393.75,0.0,0.125,4.893798327,4.410439589772222,0.0,-1234.0,1.5,397.5,393.75,0.0,0.0,2.764892295,4.389674732977289,0.0,2168.0,1.5,412.5,393.75,0.0,0.25,2.1972654,0.5526872062785588,0.0,-0.5099999904632568,-0.5099999904632568,-37.099998474121094,-0.03363037109375,0.0150146484375,1.02252197265625,35.29999923706055,0.0,-34.0,-1.51800537109375,0.8677825927734375,Opening,0.0,0.0,0.0,0.0,0.0,0.0,0.0,0.0,
10.828079000000027,0.0,0.0,1579.0,1.125,397.5,393.75,0.0,0.125,1.383056499,0.5498168668524888,0.0,-10123.0,0.75,397.5,393.75,0.0,0.125,4.892577624,4.410439589772222,0.0,-1171.0,1.5,390.0,393.75,0.0,0.0,2.764892295,4.389674732977289,0.0,2230.0,1.5,382.5,393.75,0.0,0.25,2.1972654,0.5526872062785588,0.0,-0.5099999904632568,-0.5699999928474426,-40.72999954223633,0.00836181640625,-0.0128173828125,1.1422119140625,35.29999923706055,0.0,16.0,-1.5182952880859375,0.8674468994140625,Opening,0.0,0.0,0.0,0.0,0.0,0.0,0.0,0.0,
10.92946299999999,0.0,0.0,1643.0,0.875,390.0,393.75,0.0,0.125,1.383056499,0.5498168668524888,0.0,-10059.0,0.75,390.0,393.75,0.0,0.125,4.896239733000001,4.410439589772222,0.0,-1108.0,1.5,390.0,393.75,0.0,0.0,2.764892295,4.389674732977289,0.0,2294.0,1.5,382.5,393.75,0.0,0.25,2.198486103,0.5526872062785588,0.0,-0.5099999904632568,-0.6299999952316284,-45.59000015258789,-0.0347900390625,0.03350830078125,1.08306884765625,35.27000045776367,0.0,-46.0,-1.5182037353515625,0.866455078125,Opening,0.0,0.0,0.0,0.0,0.0,0.0,0.0,0.0,
11.031924999999989,0.0,0.0,1708.0,1.125,397.5,393.75,0.0,0.125,1.384277202,0.5498168668524888,0.0,-9997.0,0.75,390.0,393.75,0.0,0.125,4.892577624,4.410439589772222,0.0,-1049.0,1.625,360.0,393.75,0.0,0.0,2.764892295,4.389674732977289,0.0,2294.0,1.5,390.0,393.75,0.0,0.25,2.196044697,0.5526872062785588,0.0,-0.5099999904632568,-0.6399999856948853,-49.2599983215332,-0.01739501953125,-0.05950927734375,1.053955078125,35.27000045776367,0.0,34.0,-1.5183868408203125,0.8663177490234375,Opening,0.0,0.0,0.0,0.0,0.0,0.0,0.0,0.0,
11.131993000000017,0.0,0.0,1760.0,0.0,352.5,0.0,0.0,0.125,1.381835796,0.5498168668524888,0.0,-9934.0,0.0,330.0,0.0,0.0,0.125,4.893798327,4.410439589772222,0.0,-992.0,0.0,345.0,0.0,0.0,0.0,2.764892295,4.389674732977289,0.0,2352.0,0.125,217.5,0.0,0.0,0.25,2.198486103,0.5526872062785588,0.0,-0.5299999713897705,-0.6499999761581421,-52.7599983215332,0.05322265625,0.1046142578125,1.0401611328125,35.27000045776367,0.0,-51.0,-1.5185699462890625,0.86541748046875,Opening,0.0,0.0,0.0,0.0,0.0,0.0,0.0,0.0,
11.233580000000016,0.0,0.0,1787.0,0.0,142.5,0.0,0.0,0.125,1.383056499,0.5498168668524888,0.0,-9905.0,0.0,157.5,0.0,0.0,0.125,4.892577624,4.410439589772222,0.0,-977.0,0.0,90.0,0.0,0.0,0.0,2.769775107,4.389674732977289,0.0,2390.0,0.125,262.5,0.0,0.0,0.25,2.198486103,0.5526872062785588,0.0,-0.5400000214576721,-0.699999988079071,-55.290000915527344,0.03790283203125,-0.03759765625,1.13623046875,35.27000045776367,0.0,51.0,-1.5194091796875,0.8631439208984375,Opening,0.0,0.0,0.0,0.0,0.0,0.0,0.0,0.0,
11.330833000000043,0.0,0.0,1787.0,0.0,120.0,0.0,0.0,0.125,1.383056499,0.5498168668524888,0.0,-9893.0,0.0,97.5,0.0,0.0,0.125,4.903563951000001,4.410439589772222,0.0,-977.0,0.125,90.0,0.0,0.0,0.0,2.769775107,4.389674732977289,0.0,2401.0,0.125,67.5,0.0,0.0,0.25,2.198486103,0.5526872062785588,0.0,-0.550000011920929,-0.699999988079071,-56.130001068115234,-0.0308837890625,-0.01397705078125,1.0909423828125,35.27000045776367,0.0,-6.0,-1.5197296142578125,0.8609161376953125,Opening,0.0,0.0,0.0,0.0,0.0,0.0,0.0,0.0,
11.429177000000026,0.0,0.0,1795.0,0.0,22.5,0.0,0.0,0.125,1.383056499,0.5498168668524888,0.0,-9893.0,0.0,0.0,0.0,0.0,0.125,4.903563951000001,4.410439589772222,0.0,-969.0,0.0,0.0,0.0,0.0,0.0,2.768554404,4.389674732977289,0.0,2401.0,0.125,7.5,0.0,0.0,0.25,2.1972654,0.5526872062785588,0.0,-0.5600000023841858,-0.800000011920929,-55.869998931884766,0.00445556640625,-9.1552734375E-4,1.0159912109375,35.27000045776367,0.0,3.0,-1.5201416015625,0.8568878173828125,Opening,0.0,0.0,0.0,0.0,0.0,0.0,0.0,0.0,
11.528497000000032,0.0,0.0,1795.0,0.0,0.0,0.0,0.0,0.125,1.383056499,0.5498168668524888,0.0,-9893.0,0.0,0.0,0.0,0.0,0.125,4.903563951000001,4.410439589772222,0.0,-969.0,0.125,0.0,0.0,0.0,0.0,2.768554404,4.389674732977289,0.0,2401.0,0.125,0.0,0.0,0.0,0.25,2.198486103,0.5526872062785588,0.0,-0.550000011920929,-0.75,-55.5,-0.0244140625,-0.0072021484375,1.0135498046875,35.27000045776367,0.0,-8.0,-1.5201416015625,0.854034423828125,Opening,0.0,0.0,0.0,0.0,0.0,0.0,0.0,0.0,
11.62559500000003,0.0,0.0,1795.0,0.0,0.0,0.0,0.0,0.125,1.381835796,0.5498168668524888,0.0,-9893.0,0.0,0.0,0.0,0.0,0.125,4.903563951000001,4.410439589772222,0.0,-969.0,0.125,0.0,0.0,0.0,0.0,2.769775107,4.389674732977289,0.0,2401.0,0.125,0.0,0.0,0.0,0.25,2.1972654,0.5526872062785588,0.0,-0.5199999809265137,-0.8299999833106995,-55.349998474121094,0.01129150390625,-0.001953125,1.1053466796875,35.27000045776367,0.0,8.0,-1.5209197998046875,0.85345458984375,Opening,0.0,0.0,0.0,0.0,0.0,0.0,0.0,0.0,
11.725826000000001,0.0,0.0,1795.0,0.0,0.0,0.0,0.0,0.125,1.381835796,0.5498168668524888,0.0,-9893.0,0.0,0.0,0.0,0.0,0.125,4.903563951000001,4.410439589772222,0.0,-969.0,0.0,0.0,0.0,0.0,0.0,2.769775107,4.389674732977289,0.0,2401.0,0.125,0.0,0.0,0.0,0.25,2.198486103,0.5526872062785588,0.0,-0.6299999952316284,-0.8500000238418579,-55.400001525878906,-0.0655517578125,-0.17724609375,1.00439453125,35.27000045776367,0.0,107.0,-1.521026611328125,0.8505096435546875,Opening,0.0,0.0,0.0,0.0,0.0,0.0,0.0,0.0,
11.827236000000033,0.0,0.0,1795.0,0.0,0.0,0.0,0.0,0.125,1.383056499,0.5498168668524888,0.0,-9893.0,0.0,0.0,0.0,0.0,0.125,4.902343248,4.410439589772222,0.0,-969.0,0.0,0.0,0.0,0.0,0.0,2.769775107,4.389674732977289,0.0,2401.0,0.125,0.0,0.0,0.0,0.25,2.1972654,0.5526872062785588,0.0,-0.6100000143051147,-0.9399999976158142,-55.400001525878906,-0.162353515625,0.05450439453125,0.76336669921875,35.27000045776367,0.0,-136.0,-1.5222930908203125,0.8466033935546875,Opening,0.0,0.0,0.0,0.0,0.0,0.0,0.0,0.0,
11.928222999999997,0.0,0.0,1795.0,0.0,0.0,0.0,0.0,0.125,1.381835796,0.5498168668524888,0.0,-9893.0,0.0,0.0,0.0,0.0,0.125,4.904784654,4.410439589772222,0.0,-969.0,0.0,0.0,0.0,0.0,0.0,2.769775107,4.389674732977289,0.0,2401.0,0.125,0.0,0.0,0.0,0.25,2.198486103,0.5526872062785588,0.0,-0.5,-0.9800000190734863,-55.369998931884766,0.12493896484375,0.156005859375,1.21685791015625,35.279998779296875,0.0,-54.0,-1.5265350341796875,0.844512939453125,Opening,0.0,0.0,0.0,0.0,0.0,0.0,0.0,0.0,
12.028944000000017,0.0,0.0,1795.0,0.0,0.0,0.0,0.0,0.125,1.381835796,0.5498168668524888,0.0,-9893.0,0.0,0.0,0.0,0.0,0.125,4.903563951000001,4.410439589772222,0.0,-969.0,0.0,0.0,0.0,0.0,0.0,2.769775107,4.389674732977289,0.0,2401.0,0.125,0.0,0.0,0.0,0.25,2.1972654,0.5526872062785588,0.0,-0.33000001311302185,-0.8799999952316284,-55.380001068115234,-0.12158203125,0.0323486328125,1.28399658203125,35.279998779296875,0.0,-90.0,-1.5296783447265625,0.8522491455078125,Opening,0.0,0.0,0.0,0.0,0.0,0.0,0.0,0.0,
12.129133000000031,0.0,0.0,1795.0,0.0,0.0,0.0,0.0,0.125,1.383056499,0.5498168668524888,0.0,-9893.0,0.0,0.0,0.0,0.0,0.125,4.903563951000001,4.410439589772222,0.0,-969.0,0.125,0.0,0.0,0.0,0.0,2.769775107,4.389674732977289,0.0,2401.0,0.125,0.0,0.0,0.0,0.25,2.198486103,0.5526872062785588,0.0,-0.4399999976158142,-0.8700000047683716,-55.380001068115234,0.05865478515625,0.162841796875,1.1103515625,35.279998779296875,0.0,-98.0,-1.528656005859375,0.8613128662109375,Opening,0.0,0.0,0.0,0.0,0.0,0.0,0.0,0.0,
