Time,ClimberA1,ClimberA2,FRpos,FRCurrent,FRspeed,FRsetpoint,FRApos,FRACurrent,FREncpos,FREncSetpoint,FREncSpeed,FLpos,FLCurrent,FLspeed,FLsetpoint,FLApos,FLACurrent,FLEncpos,FLEncSetpoint,FLEncSpeed,BRpos,BRCurrent,BRspeed,BRsetpoint,BRApos,BRACurrent,BREncpos,BREncSetpoint,BREncSpeed,BLpos,BLCurrent,BLspeed,BLsetpoint,BLApos,BLACurrent,BLEncpos,BLEncSetpoint,BLEncSpeed,navx_Pitch,navx_Roll,navx_Yaw,navx_XAcc,navx_YAcc,navx_ZAcc,navx_Temp,navx_Bar,navx_Alt,navx_XDis,navx_YDis,GearPlacerState,ShootOutputV,ShootOutputCurrent,ShootEncPos,ShootEncVelocity,ShootSpeed,ShootSetpoint,CarouselSetpoint,CarouselCurrent,
0.12712200000009033,0.0,0.0,1771.0,0.0,0.0,0.0,0.0,0.0,0.8276366340000001,0.01,0.0,-812.0,0.0,0.0,-0.0,0.0,0.0,0.505371042,0.01,0.0,5607.0,0.0,0.0,0.0,0.0,0.125,3.38134731,0.01,0.0,633.0,0.0,0.0,-0.0,0.0,0.0,1.644286941,0.01,0.0,0.25,87.25,-90.47000122070312,0.99908447265625,0.00543212890625,-0.04681396484375,28.899999618530273,0.0,-1.0,1.3535308837890625,-0.1053009033203125,Waiting,0.0,0.0,22.0,0.0,0.0,0.0,0.0,0.0,
0.2490580000000773,0.0,0.0,1771.0,0.0,0.0,0.0,0.0,0.0,0.8288573370000001,0.01,0.0,-812.0,0.0,0.0,-0.0,0.0,0.0,0.506591745,0.01,0.0,5607.0,0.0,0.0,0.0,0.0,0.125,3.38134731,0.01,0.0,633.0,0.0,0.0,-0.0,0.0,0.125,1.643066238,0.01,0.0,0.25,87.25,-90.45999908447266,0.99761962890625,0.00628662109375,-0.0491943359375,28.899999618530273,0.0,-1.0,1.3535308837890625,-0.1053009033203125,Waiting,0.0,0.0,22.0,0.0,0.0,0.0,0.0,0.0,
0.36117500000004654,0.0,0.0,1771.0,0.0,0.0,0.0,0.0,0.0,0.8288573370000001,0.01,0.0,-812.0,0.0,0.0,-0.0,0.0,0.0,0.506591745,0.01,0.0,5607.0,0.0,0.0,0.0,0.0,0.125,3.38134731,0.01,0.0,633.0,0.0,0.0,-0.0,0.0,0.125,1.644286941,0.01,0.0,0.25,87.25,-90.45999908447266,0.9959716796875,0.00738525390625,-0.04461669921875,28.899999618530273,0.0,-3.0,1.3535308837890625,-0.1053009033203125,Waiting,0.0,0.0,22.0,0.0,0.0,0.0,0.0,0.0,
0.48740700000000653,0.0,0.0,1771.0,0.0,0.0,0.0,0.0,0.0,0.8288573370000001,0.01,0.0,-812.0,0.0,0.0,-0.0,0.0,0.0,0.506591745,0.01,0.0,5607.0,0.0,0.0,0.0,0.0,0.125,3.38134731,0.01,0.0,633.0,0.0,0.0,-0.0,0.0,0.125,1.643066238,0.01,0.0,0.25,87.25,-90.45999908447266,0.997802734375,0.0057373046875,-0.04644775390625,28.899999618530273,0.0,-1.0,1.3535308837890625,-0.1053009033203125,Waiting,0.0,0.0,22.0,0.0,0.0,0.0,0.0,0.0,
0.6062760000000708,0.0,0.0,1771.0,0.0,0.0,0.0,0.0,0.0,0.8276366340000001,0.01,0.0,-812.0,0.0,0.0,-0.0,0.0,0.0,0.506591745,0.01,0.0,5607.0,0.0,0.0,0.0,0.0,0.125,3.38134731,0.01,0.0,633.0,0.0,0.0,-0.0,0.0,0.125,1.644286941,0.01,0.0,0.25,87.25,-90.44999694824219,0.99407958984375,0.00494384765625,-0.04833984375,28.899999618530273,0.0,0.0,1.3535308837890625,-0.1053009033203125,Waiting,0.0,0.0,22.0,0.0,0.0,0.0,0.0,0.0,
0.7249830000000075,0.0,0.0,1771.0,0.0,0.0,0.0,0.0,0.0,0.8288573370000001,0.01,0.0,-812.0,0.0,0.0,-0.0,0.0,0.0,0.505371042,0.01,0.0,5607.0,0.0,0.0,0.0,0.0,0.0,3.38134731,0.01,0.0,633.0,0.0,0.0,-0.0,0.0,0.125,1.644286941,0.01,0.0,0.25999999046325684,87.25,-90.44999694824219,0.99774169921875,0.00421142578125,-0.0538330078125,28.950000762939453,0.0,1.0,1.3535308837890625,-0.1053009033203125,Waiting,0.0,0.0,22.0,0.0,0.0,0.0,0.0,0.0,
0.8426080000000075,0.0,0.0,1771.0,0.0,0.0,0.0,0.0,0.0,0.8276366340000001,0.01,0.0,-812.0,0.0,0.0,-0.0,0.0,0.0,0.506591745,0.01,0.0,5607.0,0.0,0.0,0.0,0.0,0.125,3.38134731,0.01,0.0,633.0,0.0,0.0,-0.0,0.0,0.125,1.644286941,0.01,0.0,0.25999999046325684,87.25,-90.44999694824219,0.99822998046875,0.00372314453125,-0.0509033203125,28.950000762939453,0.0,1.0,1.3535308837890625,-0.1053009033203125,Waiting,0.0,0.0,22.0,0.0,0.0,0.0,0.0,0.0,
0.9574629999999889,0.0,0.0,1771.0,0.0,0.0,0.0,0.0,0.0,0.8288573370000001,0.01,0.0,-812.0,0.0,0.0,-0.0,0.0,0.0,0.506591745,0.01,0.0,5607.0,0.0,0.0,0.0,0.0,0.125,3.38134731,0.01,0.0,633.0,0.0,0.0,-0.0,0.0,0.125,1.644286941,0.01,0.0,0.25999999046325684,87.26000213623047,-90.44999694824219,0.99981689453125,0.004150390625,-0.04705810546875,28.950000762939453,0.0,0.0,1.3535308837890625,-0.1053009033203125,Waiting,0.0,0.0,22.0,0.0,0.0,0.0,0.0,0.0,
1.0817960000000895,0.0,0.0,1771.0,0.0,0.0,0.0,0.0,0.0,0.8276366340000001,0.01,0.0,-812.0,0.0,0.0,-0.0,0.0,0.0,0.506591745,0.01,0.0,5607.0,0.0,0.0,0.0,0.0,0.125,3.382568013,0.01,0.0,633.0,0.0,0.0,-0.0,0.0,0.125,1.644286941,0.01,0.0,0.25,87.25,-90.44999694824219,0.996337890625,0.004638671875,-0.04913330078125,28.950000762939453,0.0,0.0,1.3535308837890625,-0.1053009033203125,Waiting,0.0,0.0,22.0,0.0,0.0,0.0,0.0,0.0,
1.1955050000000047,0.0,0.0,1771.0,0.0,0.0,0.0,0.0,0.0,0.8288573370000001,0.01,0.0,-812.0,0.0,0.0,-0.0,0.0,0.0,0.506591745,0.01,0.0,5607.0,0.0,0.0,0.0,0.0,0.125,3.3801266070000002,0.01,0.0,633.0,0.0,0.0,-0.0,0.0,0.125,1.644286941,0.01,0.0,0.25,87.25,-90.44999694824219,0.995849609375,0.0035400390625,-0.0511474609375,28.93000030517578,0.0,1.0,1.3535308837890625,-0.1053009033203125,Waiting,0.0,0.0,22.0,0.0,0.0,0.0,0.0,0.0,
1.3215500000000466,0.0,0.0,1771.0,0.0,0.0,0.0,0.0,0.0,0.8288573370000001,0.01,0.0,-812.0,0.0,0.0,-0.0,0.0,0.0,0.506591745,0.01,0.0,5607.0,0.0,0.0,0.0,0.0,0.125,3.38134731,0.01,0.0,633.0,0.0,0.0,-0.0,0.0,0.125,1.644286941,0.01,0.0,0.25,87.25,-90.45999908447266,0.99432373046875,0.00946044921875,-0.052490234375,28.93000030517578,0.0,-3.0,1.3535308837890625,-0.1053009033203125,Waiting,0.0,0.0,22.0,0.0,0.0,0.0,0.0,0.0,
1.4412100000000791,0.0,0.0,1771.0,0.0,0.0,0.0,0.0,0.0,0.8276366340000001,0.01,0.0,-812.0,0.0,0.0,-0.0,0.0,0.0,0.505371042,0.01,0.0,5607.0,0.0,0.0,0.0,0.0,0.125,3.382568013,0.01,0.0,633.0,0.0,0.0,-0.0,0.0,0.125,1.644286941,0.01,0.0,0.23999999463558197,87.26000213623047,-90.45999908447266,0.9981689453125,-0.0029296875,-0.0484619140625,28.93000030517578,0.0,7.0,1.3535308837890625,-0.1053009033203125,Waiting,0.0,0.0,22.0,0.0,0.0,0.0,0.0,0.0,
1.5546689999999943,0.0,0.0,1771.0,0.0,0.0,0.0,0.0,0.0,0.8276366340000001,0.01,0.0,-812.0,0.0,0.0,-0.0,0.0,0.0,0.505371042,0.01,0.0,5607.0,0.0,0.0,0.0,0.0,0.125,3.382568013,0.01,0.0,633.0,0.0,0.0,-0.0,0.0,0.125,1.5869139,0.01,0.0,0.25,87.25,-90.45999908447266,1.00372314453125,0.00201416015625,-0.06982421875,28.93000030517578,0.0,7.0,1.3535308837890625,-0.1053466796875,Waiting,0.0,0.0,22.0,0.0,0.0,0.0,0.0,0.0,
1.6804610000000102,0.0,0.0,1771.0,0.0,0.0,0.0,0.0,0.0,0.8276366340000001,0.01,0.0,-812.0,0.0,0.0,-0.0,0.0,0.0,0.506591745,0.01,0.0,5607.0,0.0,0.0,0.0,0.0,0.125,3.3789059040000002,0.01,0.0,633.0,0.0,0.0,-0.0,0.0,0.25,1.417236183,0.01,0.0,0.25,87.26000213623047,-90.45999908447266,0.991943359375,-0.00115966796875,-0.02581787109375,28.93000030517578,0.0,0.0,1.3536224365234375,-0.1055908203125,Waiting,0.0,0.0,22.0,0.0,0.0,0.0,0.0,0.0,
1.7979030000000493,0.0,0.0,1771.0,0.0,0.0,0.0,0.0,0.0,0.8288573370000001,0.01,0.0,-812.0,0.0,0.0,-0.0,0.0,0.0,0.506591745,0.01,0.0,5607.0,0.0,0.0,0.0,0.0,0.125,3.38134731,0.01,0.0,633.0,0.0,0.0,-0.0,0.0,0.375,1.533202968,0.01,0.0,0.25999999046325684,87.26000213623047,-90.44999694824219,0.99725341796875,0.0028076171875,-0.03741455078125,28.940000534057617,0.0,0.0,1.3536224365234375,-0.10626220703125,Waiting,0.0,0.0,22.0,0.0,0.0,0.0,0.0,0.0,
1.9162100000000792,0.0,0.0,1771.0,0.0,0.0,0.0,0.0,0.0,0.8288573370000001,0.01,0.0,-812.0,0.0,0.0,-0.0,0.0,0.0,0.505371042,0.01,0.0,5607.0,0.0,0.0,0.0,0.0,0.125,3.38134731,0.01,0.0,633.0,0.0,0.0,-0.0,0.0,0.25,1.667480298,0.01,0.0,0.25,87.27999877929688,-90.45999908447266,0.99822998046875,0.01226806640625,-0.04931640625,28.940000534057617,0.0,-7.0,1.35369873046875,-0.10614013671875,Waiting,0.0,0.0,22.0,0.0,0.0,0.0,0.0,0.0,
2.0347660000000616,0.0,0.0,1771.0,0.0,0.0,0.0,0.0,0.0,0.8288573370000001,0.01,0.0,-812.0,0.0,0.0,-0.0,0.0,0.0,0.505371042,0.01,0.0,5607.0,0.0,0.0,0.0,0.0,0.125,3.382568013,0.01,0.0,633.0,0.0,0.0,-0.0,0.0,0.125,1.69677717,0.01,0.0,0.23999999463558197,87.26000213623047,-90.47000122070312,0.9989013671875,-0.00323486328125,-0.044189453125,28.940000534057617,0.0,6.0,1.35369873046875,-0.1061553955078125,Waiting,0.0,0.0,22.0,0.0,0.0,0.0,0.0,0.0,
2.153362000000081,0.0,0.0,1771.0,0.0,0.0,0.0,0.0,0.0,0.8276366340000001,0.01,0.0,-812.0,0.0,0.0,-0.0,0.0,0.0,0.506591745,0.01,0.0,5607.0,0.0,0.0,0.0,0.0,0.125,3.382568013,0.01,0.0,633.0,0.0,0.0,-0.0,0.0,0.125,1.649169753,0.01,0.0,0.25,87.26000213623047,-90.45999908447266,1.00335693359375,0.00244140625,-0.046142578125,28.940000534057617,0.0,1.0,1.35369873046875,-0.1061553955078125,Waiting,0.0,0.0,22.0,0.0,0.0,0.0,0.0,0.0,
2.274874000000069,0.0,0.0,1771.0,0.0,0.0,0.0,0.0,0.0,0.8276366340000001,0.01,0.0,-812.0,0.0,0.0,-0.0,0.0,0.0,0.506591745,0.01,0.0,5607.0,0.0,0.0,0.0,0.0,0.125,3.38134731,0.01,0.0,633.0,0.0,0.0,-0.0,0.0,0.125,1.624755693,0.01,0.0,0.25,87.26000213623047,-90.44999694824219,0.9986572265625,0.0062255859375,-0.03912353515625,28.940000534057617,0.0,-3.0,1.35369873046875,-0.1061553955078125,Waiting,0.0,0.0,22.0,0.0,0.0,0.0,0.0,0.0,
2.395502000000095,0.0,0.0,1771.0,0.0,0.0,0.0,0.0,0.0,0.8276366340000001,0.01,0.0,-812.0,0.0,0.0,-0.0,0.0,0.0,0.505371042,0.01,0.0,5607.0,0.0,0.0,0.0,0.0,0.125,3.38134731,0.01,0.0,633.0,0.0,0.0,-0.0,0.0,0.0,1.624755693,0.01,0.0,0.23999999463558197,87.25,-90.47000122070312,0.99725341796875,0.00244140625,-0.0439453125,28.940000534057617,0.0,0.0,1.35369873046875,-0.1061553955078125,Waiting,0.0,0.0,22.0,0.0,0.0,0.0,0.0,0.0,
2.5243030000000726,0.0,0.0,1771.0,0.0,0.0,0.0,0.0,0.0,0.8288573370000001,0.01,0.0,-812.0,0.0,0.0,-0.0,0.0,0.0,0.506591745,0.01,0.0,5607.0,0.0,0.0,0.0,0.0,0.125,3.38134731,0.01,0.0,633.0,0.0,0.0,-0.0,0.0,0.0,1.624755693,0.01,0.0,0.25,87.25,-90.45999908447266,0.995849609375,0.00244140625,-0.04486083984375,28.940000534057617,0.0,1.0,1.35369873046875,-0.1061553955078125,Waiting,0.0,0.0,22.0,0.0,0.0,0.0,0.0,0.0,
2.645009000000078,0.0,0.0,1771.0,0.0,0.0,0.0,0.0,0.0,0.8288573370000001,0.01,0.0,-812.0,0.0,0.0,-0.0,0.0,0.0,0.506591745,0.01,0.0,5607.0,0.0,0.0,0.0,0.0,0.125,3.38134731,0.01,0.0,633.0,0.0,0.0,-0.0,0.0,0.0,1.624755693,0.01,0.0,0.23999999463558197,87.25,-90.47000122070312,0.99578857421875,0.005859375,-0.0518798828125,28.940000534057617,0.0,0.0,1.35369873046875,-0.1061553955078125,Waiting,0.0,0.0,22.0,0.0,0.0,0.0,0.0,0.0,
2.7571380000000354,0.0,0.0,1771.0,0.0,0.0,0.0,0.0,0.0,0.8276366340000001,0.01,0.0,-812.0,0.0,0.0,-0.0,0.0,0.0,0.506591745,0.01,0.0,5607.0,0.0,0.0,0.0,0.0,0.125,3.382568013,0.01,0.0,633.0,0.0,0.0,-0.0,0.0,0.0,1.624755693,0.01,0.0,0.23999999463558197,87.25,-90.45999908447266,0.99713134765625,0.00360107421875,-0.04571533203125,28.920000076293945,0.0,0.0,1.35369873046875,-0.1061553955078125,Waiting,0.0,0.0,22.0,0.0,0.0,0.0,0.0,0.0,
2.876614999999991,0.0,0.0,1771.0,0.0,0.0,0.0,0.0,0.0,0.8276366340000001,0.01,0.0,-812.0,0.0,0.0,-0.0,0.0,0.0,0.505371042,0.01,0.0,5607.0,0.0,0.0,0.0,0.0,0.125,3.38134731,0.01,0.0,633.0,0.0,0.0,-0.0,0.0,0.0,1.624755693,0.01,0.0,0.25,87.25,-90.45999908447266,0.996337890625,0.0062255859375,-0.04559326171875,28.920000076293945,0.0,-2.0,1.35369873046875,-0.1061553955078125,Waiting,0.0,0.0,22.0,0.0,0.0,0.0,0.0,0.0,
2.9944060000000756,0.0,0.0,1771.0,0.0,0.0,0.0,0.0,0.0,0.8276366340000001,0.01,0.0,-812.0,0.0,0.0,-0.0,0.0,0.0,0.505371042,0.01,0.0,5607.0,0.0,0.0,0.0,0.0,0.125,3.38134731,0.01,0.0,633.0,0.0,0.0,-0.0,0.0,0.0,1.624755693,0.01,0.0,0.23999999463558197,87.25,-90.47000122070312,0.999755859375,0.00616455078125,-0.046630859375,28.920000076293945,0.0,-2.0,1.35369873046875,-0.1061553955078125,Waiting,0.0,0.0,22.0,0.0,0.0,0.0,0.0,0.0,
3.111716000000015,0.0,0.0,1771.0,0.0,0.0,0.0,0.0,0.0,0.8288573370000001,0.01,0.0,-812.0,0.0,0.0,-0.0,0.0,0.0,0.506591745,0.01,0.0,5607.0,0.0,0.0,0.0,0.0,0.125,3.382568013,0.01,0.0,633.0,0.0,0.0,-0.0,0.0,0.0,1.62353499,0.01,0.0,0.23999999463558197,87.25,-90.47000122070312,0.99688720703125,0.0032958984375,-0.04449462890625,28.920000076293945,0.0,0.0,1.35369873046875,-0.1061553955078125,Waiting,0.0,0.0,22.0,0.0,0.0,0.0,0.0,0.0,
3.2324139999999897,0.0,0.0,1771.0,0.0,0.0,0.0,0.0,0.0,0.8276366340000001,0.01,0.0,-812.0,0.0,0.0,-0.0,0.0,0.0,0.506591745,0.01,0.0,5607.0,0.0,0.0,0.0,0.0,0.125,3.38134731,0.01,0.0,633.0,0.0,0.0,-0.0,0.0,0.0,1.624755693,0.01,0.0,0.25,87.25,-90.47000122070312,0.99615478515625,0.0042724609375,-0.0526123046875,28.920000076293945,0.0,1.0,1.35369873046875,-0.1061553955078125,Waiting,0.0,0.0,22.0,0.0,0.0,0.0,0.0,0.0,
3.3491410000000617,0.0,0.0,1771.0,0.0,0.0,0.0,0.0,0.0,0.8288573370000001,0.01,0.0,-812.0,0.0,0.0,-0.0,0.0,0.0,0.506591745,0.01,0.0,5607.0,0.0,0.0,0.0,0.0,0.125,3.38134731,0.01,0.0,633.0,0.0,0.0,-0.0,0.0,0.0,1.624755693,0.01,0.0,0.25,87.23999786376953,-90.45999908447266,0.99871826171875,0.004638671875,-0.0513916015625,28.940000534057617,0.0,0.0,1.35369873046875,-0.1061553955078125,Waiting,0.0,0.0,22.0,0.0,0.0,0.0,0.0,0.0,
3.468484999999986,0.0,0.0,1771.0,0.0,0.0,0.0,0.0,0.0,0.8288573370000001,0.01,0.0,-812.0,0.0,0.0,-0.0,0.0,0.0,0.506591745,0.01,0.0,5607.0,0.0,0.0,0.0,0.0,0.125,3.38134731,0.01,0.0,633.0,0.0,0.0,-0.0,0.0,0.0,1.624755693,0.01,0.0,0.25,87.25,-90.45999908447266,0.99725341796875,0.0054931640625,-0.0484619140625,28.940000534057617,0.0,0.0,1.35369873046875,-0.1061553955078125,Waiting,0.0,0.0,22.0,0.0,0.0,0.0,0.0,0.0,
3.5933030000000725,0.0,0.0,1771.0,0.0,0.0,0.0,0.0,0.0,0.8276366340000001,0.01,0.0,-812.0,0.0,0.0,-0.0,0.0,0.0,0.505371042,0.01,0.0,5607.0,0.0,0.0,0.0,0.0,0.125,3.38134731,0.01,0.0,633.0,0.0,0.0,-0.0,0.0,0.0,1.624755693,0.01,0.0,0.25,87.23999786376953,-90.45999908447266,0.99871826171875,0.003662109375,-0.04998779296875,28.940000534057617,0.0,1.0,1.35369873046875,-0.1061553955078125,Waiting,0.0,0.0,22.0,0.0,0.0,0.0,0.0,0.0,
3.709087999999989,0.0,0.0,1771.0,0.0,0.0,0.0,0.0,0.0,0.8288573370000001,0.01,0.0,-812.0,0.0,0.0,-0.0,0.0,0.0,0.505371042,0.01,0.0,5607.0,0.0,0.0,0.0,0.0,0.125,3.38134731,0.01,0.0,633.0,0.0,0.0,-0.0,0.0,0.0,1.624755693,0.01,0.0,0.25,87.23999786376953,-90.45999908447266,0.99822998046875,0.00274658203125,-0.0462646484375,28.940000534057617,0.0,1.0,1.35369873046875,-0.1061553955078125,Waiting,0.0,0.0,22.0,0.0,0.0,0.0,0.0,0.0,
3.8302200000000886,0.0,0.0,1771.0,0.0,0.0,0.0,0.0,0.0,0.8288573370000001,0.01,0.0,-812.0,0.0,0.0,-0.0,0.0,0.0,0.506591745,0.01,0.0,5607.0,0.0,0.0,0.0,0.0,0.125,3.38134731,0.01,0.0,633.0,0.0,0.0,-0.0,0.0,0.0,1.624755693,0.01,0.0,0.25,87.23999786376953,-90.45999908447266,0.99700927734375,0.00238037109375,-0.0467529296875,28.950000762939453,0.0,1.0,1.35369873046875,-0.1061553955078125,Waiting,0.0,0.0,22.0,0.0,0.0,0.0,0.0,0.0,
3.9494350000000558,0.0,0.0,1771.0,0.0,0.0,0.0,0.0,0.0,0.8276366340000001,0.01,0.0,-812.0,0.0,0.0,-0.0,0.0,0.0,0.505371042,0.01,0.0,5607.0,0.0,0.0,0.0,0.0,0.0,3.38134731,0.01,0.0,633.0,0.0,0.0,-0.0,0.0,0.0,1.624755693,0.01,0.0,0.25,87.25,-90.45999908447266,0.9959716796875,0.001953125,-0.0460205078125,28.950000762939453,0.0,1.0,1.35369873046875,-0.1061553955078125,Waiting,0.0,0.0,22.0,0.0,0.0,0.0,0.0,0.0,
4.06814300000004,0.0,0.0,1771.0,0.0,0.0,0.0,0.0,0.0,0.8288573370000001,0.01,0.0,-812.0,0.0,0.0,-0.0,0.0,0.0,0.505371042,0.01,0.0,5607.0,0.0,0.0,0.0,0.0,0.125,3.382568013,0.01,0.0,633.0,0.0,0.0,-0.0,0.0,0.0,1.624755693,0.01,0.0,0.23999999463558197,87.23999786376953,-90.47000122070312,0.99676513671875,0.0052490234375,-0.04803466796875,28.950000762939453,0.0,0.0,1.35369873046875,-0.1061553955078125,Waiting,0.0,0.0,22.0,0.0,0.0,0.0,0.0,0.0,
4.189276000000071,0.0,0.0,1771.0,0.0,0.0,0.0,0.0,0.0,0.8276366340000001,0.01,0.0,-812.0,0.0,0.0,-0.0,0.0,0.0,0.506591745,0.01,0.0,5607.0,0.0,0.0,0.0,0.0,0.0,3.38134731,0.01,0.0,633.0,0.0,0.0,-0.0,0.0,0.0,1.62353499,0.01,0.0,0.25,87.2300033569336,-90.45999908447266,0.994140625,0.0047607421875,-0.0489501953125,28.950000762939453,0.0,0.0,1.35369873046875,-0.1061553955078125,Waiting,0.0,0.0,22.0,0.0,0.0,0.0,0.0,0.0,
4.301818000000087,0.0,0.0,1771.0,0.0,0.0,0.0,0.0,0.0,0.8288573370000001,0.01,0.0,-812.0,0.0,0.0,-0.0,0.0,0.0,0.506591745,0.01,0.0,5607.0,0.0,0.0,0.0,0.0,0.125,3.38134731,0.01,0.0,633.0,0.0,0.0,-0.0,0.0,0.0,1.624755693,0.01,0.0,0.25,87.23999786376953,-90.45999908447266,1.00048828125,0.004150390625,-0.04632568359375,28.959999084472656,0.0,0.0,1.35369873046875,-0.1061553955078125,Waiting,0.0,0.0,22.0,0.0,0.0,0.0,0.0,0.0,
4.421217000000063,0.0,0.0,1771.0,0.0,0.0,0.0,0.0,0.0,0.8288573370000001,0.01,0.0,-812.0,0.0,0.0,-0.0,0.0,0.0,0.506591745,0.01,0.0,5607.0,0.0,0.0,0.0,0.0,0.125,3.382568013,0.01,0.0,633.0,0.0,0.0,-0.0,0.0,0.0,1.624755693,0.01,0.0,0.25,87.23999786376953,-90.45999908447266,0.994873046875,0.0020751953125,-0.04656982421875,28.959999084472656,0.0,2.0,1.35369873046875,-0.1061553955078125,Waiting,0.0,0.0,22.0,0.0,0.0,0.0,0.0,0.0,
4.54478600000008,0.0,0.0,1771.0,0.0,0.0,0.0,0.0,0.0,0.8288573370000001,0.01,0.0,-812.0,0.0,0.0,-0.0,0.0,0.0,0.505371042,0.01,0.0,5607.0,0.0,0.0,0.0,0.0,0.125,3.38134731,0.01,0.0,633.0,0.0,0.0,-0.0,0.0,0.0,1.624755693,0.01,0.0,0.25,87.25,-90.45999908447266,0.997314453125,0.0035400390625,-0.05023193359375,28.959999084472656,0.0,1.0,1.35369873046875,-0.1061553955078125,Waiting,0.0,0.0,22.0,0.0,0.0,0.0,0.0,0.0,
4.670727000000071,0.0,0.0,1771.0,0.0,0.0,0.0,0.0,0.0,0.8276366340000001,0.01,0.0,-812.0,0.0,0.0,-0.0,0.0,0.0,0.506591745,0.01,0.0,5607.0,0.0,0.0,0.0,0.0,0.125,3.38134731,0.01,0.0,633.0,0.0,0.0,-0.0,0.0,0.0,1.624755693,0.01,0.0,0.25,87.25,-90.45999908447266,0.99835205078125,0.0020751953125,-0.04681396484375,28.959999084472656,0.0,2.0,1.35369873046875,-0.1061553955078125,Waiting,0.0,0.0,22.0,0.0,0.0,0.0,0.0,0.0,
4.8065470000000206,0.0,0.0,1771.0,0.0,0.0,0.0,0.0,0.0,0.8288573370000001,0.01,0.0,-812.0,0.0,0.0,-0.0,0.0,0.0,0.506591745,0.01,0.0,5607.0,0.0,0.0,0.0,0.0,0.125,3.38134731,0.01,0.0,633.0,0.0,0.0,-0.0,0.0,0.0,1.624755693,0.01,0.0,0.25999999046325684,87.25,-90.44999694824219,0.994873046875,0.004638671875,-0.04571533203125,28.940000534057617,0.0,0.0,1.35369873046875,-0.1061553955078125,Waiting,0.0,0.0,22.0,0.0,0.0,0.0,0.0,0.0,
4.929443000000086,0.0,0.0,1771.0,0.0,0.0,0.0,0.0,0.0,0.8288573370000001,0.01,0.0,-812.0,0.0,0.0,-0.0,0.0,0.0,0.506591745,0.01,0.0,5607.0,0.0,0.0,0.0,0.0,0.125,3.382568013,0.01,0.0,633.0,0.0,0.0,-0.0,0.0,0.0,1.624755693,0.01,0.0,0.25999999046325684,87.25,-90.44999694824219,0.99664306640625,0.001953125,-0.0440673828125,28.940000534057617,0.0,1.0,1.35369873046875,-0.1061553955078125,Waiting,0.0,0.0,22.0,0.0,0.0,0.0,0.0,0.0,
5.0540050000000045,0.0,0.0,1771.0,0.0,0.0,0.0,0.0,0.0,0.8276366340000001,0.01,0.0,-812.0,0.0,0.0,-0.0,0.0,0.0,0.506591745,0.01,0.0,5607.0,0.0,0.0,0.0,0.0,0.125,3.38134731,0.01,0.0,633.0,0.0,0.0,-0.0,0.0,0.0,1.624755693,0.01,0.0,0.25999999046325684,87.25,-90.44999694824219,0.9954833984375,0.00335693359375,-0.046875,28.940000534057617,0.0,0.0,1.35369873046875,-0.1061553955078125,Waiting,0.0,0.0,22.0,0.0,0.0,0.0,0.0,0.0,
5.174734000000055,0.0,0.0,1771.0,0.0,0.0,0.0,0.0,0.0,0.8276366340000001,0.01,0.0,-812.0,0.0,0.0,-0.0,0.0,0.0,0.505371042,0.01,0.0,5607.0,0.0,0.0,0.0,0.0,0.125,3.38134731,0.01,0.0,633.0,0.0,0.0,-0.0,0.0,0.0,1.624755693,0.01,0.0,0.25999999046325684,87.25,-90.44999694824219,0.9996337890625,0.00469970703125,-0.0433349609375,28.940000534057617,0.0,-1.0,1.35369873046875,-0.1061553955078125,Waiting,0.0,0.0,22.0,0.0,0.0,0.0,0.0,0.0,
5.308895000000018,0.0,0.0,1771.0,0.0,0.0,0.0,0.0,0.0,0.8288573370000001,0.01,0.0,-812.0,0.0,0.0,-0.0,0.0,0.0,0.505371042,0.01,0.0,5607.0,0.0,0.0,0.0,0.0,0.125,3.38134731,0.01,0.0,633.0,0.0,0.0,-0.0,0.0,0.0,1.624755693,0.01,0.0,0.25999999046325684,87.25,-90.44999694824219,0.99737548828125,0.0040283203125,-0.050048828125,28.950000762939453,0.0,1.0,1.35369873046875,-0.1061553955078125,Waiting,0.0,0.0,22.0,0.0,0.0,0.0,0.0,0.0,
5.4322410000000385,0.0,0.0,1771.0,0.0,0.0,0.0,0.0,0.0,0.8288573370000001,0.01,0.0,-812.0,0.0,0.0,-0.0,0.0,0.0,0.505371042,0.01,0.0,5607.0,0.0,0.0,0.0,0.0,0.125,3.38134731,0.01,0.0,633.0,0.0,0.0,-0.0,0.0,0.0,1.624755693,0.01,0.0,0.25,87.23999786376953,-90.45999908447266,0.99566650390625,0.00372314453125,-0.04779052734375,28.950000762939453,0.0,0.0,1.35369873046875,-0.1061553955078125,Waiting,0.0,0.0,22.0,0.0,0.0,0.0,0.0,0.0,
5.566935000000056,0.0,0.0,1771.0,0.0,0.0,0.0,0.0,0.0,0.8276366340000001,0.01,0.0,-812.0,0.0,0.0,-0.0,0.0,0.0,0.506591745,0.01,0.0,5607.0,0.0,0.0,0.0,0.0,0.125,3.38134731,0.01,0.0,633.0,0.0,0.0,-0.0,0.0,0.0,1.624755693,0.01,0.0,0.25,87.23999786376953,-90.45999908447266,0.99737548828125,0.0062255859375,-0.0479736328125,28.950000762939453,0.0,-1.0,1.35369873046875,-0.1061553955078125,Waiting,0.0,0.0,22.0,0.0,0.0,0.0,0.0,0.0,
5.695402000000002,0.0,0.0,1771.0,0.0,0.0,0.0,0.0,0.0,0.8276366340000001,0.01,0.0,-812.0,0.0,0.0,-0.0,0.0,0.0,0.505371042,0.01,0.0,5607.0,0.0,0.0,0.0,0.0,0.125,3.38134731,0.01,0.0,633.0,0.0,0.0,-0.0,0.0,0.0,1.624755693,0.01,0.0,0.25,87.23999786376953,-90.45999908447266,0.9984130859375,0.00567626953125,-0.05096435546875,28.950000762939453,0.0,0.0,1.35369873046875,-0.1061553955078125,Waiting,0.0,0.0,22.0,0.0,0.0,0.0,0.0,0.0,
5.827108000000007,0.0,0.0,1771.0,0.0,0.0,0.0,0.0,0.0,0.8288573370000001,0.01,0.0,-812.0,0.0,0.0,-0.0,0.0,0.0,0.505371042,0.01,0.0,5607.0,0.0,0.0,0.0,0.0,0.125,3.38134731,0.01,0.0,633.0,0.0,0.0,-0.0,0.0,0.0,1.624755693,0.01,0.0,0.25999999046325684,87.23999786376953,-90.44999694824219,0.99853515625,0.00787353515625,-0.05047607421875,28.950000762939453,0.0,-2.0,1.35369873046875,-0.1061553955078125,Waiting,0.0,0.0,22.0,0.0,0.0,0.0,0.0,0.0,
5.95455700000003,0.0,0.0,1771.0,0.0,0.0,0.0,0.0,0.0,0.8288573370000001,0.01,0.0,-812.0,0.0,0.0,-0.0,0.0,0.0,0.506591745,0.01,0.0,5607.0,0.0,0.0,0.0,0.0,0.125,3.38134731,0.01,0.0,633.0,0.0,0.0,-0.0,0.0,0.0,1.624755693,0.01,0.0,0.25999999046325684,87.23999786376953,-90.44999694824219,0.9993896484375,0.0040283203125,-0.0462646484375,28.950000762939453,0.0,0.0,1.35369873046875,-0.1061553955078125,Waiting,0.0,0.0,22.0,0.0,0.0,0.0,0.0,0.0,
6.075425000000046,0.0,0.0,1771.0,0.0,0.0,0.0,0.0,0.0,0.8288573370000001,0.01,0.0,-812.0,0.0,0.0,-0.0,0.0,0.0,0.505371042,0.01,0.0,5607.0,0.0,0.0,0.0,0.0,0.125,3.382568013,0.01,0.0,633.0,0.0,0.0,-0.0,0.0,0.0,1.624755693,0.01,0.0,0.25999999046325684,87.23999786376953,-90.44999694824219,0.997314453125,0.0052490234375,-0.040283203125,28.950000762939453,0.0,-2.0,1.35369873046875,-0.1061553955078125,Waiting,0.0,0.0,22.0,0.0,0.0,0.0,0.0,0.0,
6.208922000000021,0.0,0.0,1771.0,0.0,0.0,0.0,0.0,0.0,0.8288573370000001,0.01,0.0,-812.0,0.0,0.0,-0.0,0.0,0.0,0.506591745,0.01,0.0,5607.0,0.0,0.0,0.0,0.0,0.125,3.38134731,0.01,0.0,633.0,0.0,0.0,-0.0,0.0,0.0,1.62353499,0.01,0.0,0.25999999046325684,87.25,-90.45999908447266,0.99945068359375,0.0052490234375,-0.0467529296875,28.950000762939453,0.0,0.0,1.35369873046875,-0.1061553955078125,Waiting,0.0,0.0,22.0,0.0,0.0,0.0,0.0,0.0,
6.329644000000088,0.0,0.0,1771.0,0.0,0.0,0.0,0.0,0.0,0.8288573370000001,0.01,0.0,-812.0,0.0,0.0,-0.0,0.0,0.0,0.505371042,0.01,0.0,5607.0,0.0,0.0,0.0,0.0,0.125,3.38134731,0.01,0.0,633.0,0.0,0.0,-0.0,0.0,0.0,1.624755693,0.01,0.0,0.25,87.23999786376953,-90.45999908447266,0.99639892578125,0.00341796875,-0.047119140625,28.959999084472656,0.0,0.0,1.35369873046875,-0.1061553955078125,Waiting,0.0,0.0,22.0,0.0,0.0,0.0,0.0,0.0,
6.452163000000058,0.0,0.0,1771.0,0.0,0.0,0.0,0.0,0.0,0.8288573370000001,0.01,0.0,-812.0,0.0,0.0,-0.0,0.0,0.0,0.506591745,0.01,0.0,5607.0,0.0,0.0,0.0,0.0,0.125,3.3801266070000002,0.01,0.0,633.0,0.0,0.0,-0.0,0.0,0.0,1.624755693,0.01,0.0,0.25,87.23999786376953,-90.45999908447266,0.99725341796875,0.00201416015625,-0.0430908203125,28.959999084472656,0.0,1.0,1.35369873046875,-0.1061553955078125,Waiting,0.0,0.0,22.0,0.0,0.0,0.0,0.0,0.0,
6.571234999999986,0.0,0.0,1771.0,0.0,0.0,0.0,0.0,0.0,0.8288573370000001,0.01,0.0,-812.0,0.0,0.0,-0.0,0.0,0.0,0.506591745,0.01,0.0,5607.0,0.0,0.0,0.0,0.0,0.125,3.38134731,0.01,0.0,633.0,0.0,0.0,-0.0,0.0,0.0,1.624755693,0.01,0.0,0.25999999046325684,87.25,-90.44999694824219,0.99786376953125,0.00323486328125,-0.049072265625,28.959999084472656,0.0,1.0,1.35369873046875,-0.1061553955078125,Waiting,0.0,0.0,22.0,0.0,0.0,0.0,0.0,0.0,
6.692183000000077,0.0,0.0,1771.0,0.0,0.0,0.0,0.0,0.0,0.8276366340000001,0.01,0.0,-812.0,0.0,0.0,-0.0,0.0,0.0,0.505371042,0.01,0.0,5607.0,0.0,0.0,0.0,0.0,0.125,3.38134731,0.01,0.0,633.0,0.0,0.0,-0.0,0.0,0.0,1.624755693,0.01,0.0,0.25999999046325684,87.25,-90.44999694824219,0.9974365234375,0.00372314453125,-0.04693603515625,28.959999084472656,0.0,0.0,1.35369873046875,-0.1061553955078125,Waiting,0.0,0.0,22.0,0.0,0.0,0.0,0.0,0.0,
6.809484000000055,0.0,0.0,1771.0,0.0,0.0,0.0,0.0,0.0,0.8276366340000001,0.01,0.0,-812.0,0.0,0.0,-0.0,0.0,0.0,0.506591745,0.01,0.0,5607.0,0.0,0.0,0.0,0.0,0.125,3.38134731,0.01,0.0,633.0,0.0,0.0,-0.0,0.0,0.0,1.624755693,0.01,0.0,0.25999999046325684,87.25,-90.44999694824219,0.99884033203125,0.00384521484375,-0.05047607421875,28.979999542236328,0.0,1.0,1.35369873046875,-0.1061553955078125,Waiting,0.0,0.0,22.0,0.0,0.0,0.0,0.0,0.0,
6.9255190000000875,0.0,0.0,1771.0,0.0,0.0,0.0,0.0,0.0,0.8288573370000001,0.01,0.0,-812.0,0.0,0.0,-0.0,0.0,0.0,0.506591745,0.01,0.0,5607.0,0.0,0.0,0.0,0.0,0.125,3.38134731,0.01,0.0,633.0,0.0,0.0,-0.0,0.0,0.0,1.624755693,0.01,0.0,0.25999999046325684,87.25,-90.44999694824219,0.9986572265625,0.0037841796875,-0.0496826171875,28.979999542236328,0.0,1.0,1.35369873046875,-0.1061553955078125,Waiting,0.0,0.0,22.0,0.0,0.0,0.0,0.0,0.0,
7.046118000000017,0.0,0.0,1771.0,0.0,0.0,0.0,0.0,0.0,0.8288573370000001,0.01,0.0,-812.0,0.0,0.0,-0.0,0.0,0.0,0.505371042,0.01,0.0,5607.0,0.0,0.0,0.0,0.0,0.125,3.38134731,0.01,0.0,633.0,0.0,0.0,-0.0,0.0,0.0,1.624755693,0.01,0.0,0.25999999046325684,87.25,-90.45999908447266,0.99676513671875,0.005126953125,-0.04412841796875,28.979999542236328,0.0,-1.0,1.35369873046875,-0.1061553955078125,Waiting,0.0,0.0,22.0,0.0,0.0,0.0,0.0,0.0,
7.167597000000067,0.0,0.0,1771.0,0.0,0.0,0.0,0.0,0.0,0.8288573370000001,0.01,0.0,-812.0,0.0,0.0,-0.0,0.0,0.0,0.506591745,0.01,0.0,5607.0,0.0,0.0,0.0,0.0,0.125,3.382568013,0.01,0.0,633.0,0.0,0.0,-0.0,0.0,0.0,1.624755693,0.01,0.0,0.25,87.25,-90.45999908447266,0.998046875,0.00543212890625,-0.046875,28.979999542236328,0.0,-1.0,1.35369873046875,-0.1061553955078125,Waiting,0.0,0.0,22.0,0.0,0.0,0.0,0.0,0.0,
7.281480000000098,0.0,0.0,1771.0,0.0,0.0,0.0,0.0,0.0,0.8276366340000001,0.01,0.0,-812.0,0.0,0.0,-0.0,0.0,0.0,0.505371042,0.01,0.0,5607.0,0.0,0.0,0.0,0.0,0.125,3.38134731,0.01,0.0,633.0,0.0,0.0,-0.0,0.0,0.0,1.624755693,0.01,0.0,0.25,87.26000213623047,-90.44999694824219,0.99896240234375,0.00689697265625,-0.0467529296875,28.979999542236328,0.0,-2.0,1.35369873046875,-0.1061553955078125,Waiting,0.0,0.0,22.0,0.0,0.0,0.0,0.0,0.0,
7.397388000000036,0.0,0.0,1771.0,0.0,0.0,0.0,0.0,0.0,0.8276366340000001,0.01,0.0,-812.0,0.0,0.0,-0.0,0.0,0.0,0.505371042,0.01,0.0,5607.0,0.0,0.0,0.0,0.0,0.125,3.38134731,0.01,0.0,633.0,0.0,0.0,-0.0,0.0,0.0,1.624755693,0.01,0.0,0.25999999046325684,87.26000213623047,-90.44999694824219,0.99700927734375,0.00457763671875,-0.04736328125,28.989999771118164,0.0,0.0,1.35369873046875,-0.1061553955078125,Waiting,0.0,0.0,22.0,0.0,0.0,0.0,0.0,0.0,
7.51484600000002,0.0,0.0,1771.0,0.0,0.0,0.0,0.0,0.0,0.8288573370000001,0.01,0.0,-812.0,0.0,0.0,-0.0,0.0,0.0,0.506591745,0.01,0.0,5607.0,0.0,0.0,0.0,0.0,0.125,3.38134731,0.01,0.0,633.0,0.0,0.0,-0.0,0.0,0.0,1.624755693,0.01,0.0,0.25999999046325684,87.26000213623047,-90.44999694824219,0.99920654296875,0.00164794921875,-0.0499267578125,28.989999771118164,0.0,3.0,1.35369873046875,-0.1061553955078125,Waiting,0.0,0.0,22.0,0.0,0.0,0.0,0.0,0.0,
7.636303000000073,0.0,0.0,1771.0,0.0,0.0,0.0,0.0,0.0,0.8288573370000001,0.01,0.0,-812.0,0.0,0.0,-0.0,0.0,0.0,0.506591745,0.01,0.0,5607.0,0.0,0.0,0.0,0.0,0.125,3.38134731,0.01,0.0,633.0,0.0,0.0,-0.0,0.0,0.0,1.624755693,0.01,0.0,0.25999999046325684,87.25,-90.44000244140625,0.99749755859375,0.00579833984375,-0.05340576171875,28.989999771118164,0.0,0.0,1.35369873046875,-0.1061553955078125,Waiting,0.0,0.0,22.0,0.0,0.0,0.0,0.0,0.0,
7.761195000000066,0.0,0.0,1771.0,0.0,0.0,0.0,0.0,0.0,0.8288573370000001,0.01,0.0,-812.0,0.0,0.0,-0.0,0.0,0.0,0.506591745,0.01,0.0,5607.0,0.0,0.0,0.0,0.0,0.125,3.382568013,0.01,0.0,633.0,0.0,0.0,-0.0,0.0,0.0,1.624755693,0.01,0.0,0.25999999046325684,87.25,-90.44999694824219,0.99761962890625,0.0062255859375,-0.04833984375,28.989999771118164,0.0,-1.0,1.35369873046875,-0.1061553955078125,Waiting,0.0,0.0,22.0,0.0,0.0,0.0,0.0,0.0,
7.875823000000091,0.0,0.0,1771.0,0.0,0.0,0.0,0.0,0.0,0.8288573370000001,0.01,0.0,-812.0,0.0,0.0,-0.0,0.0,0.0,0.506591745,0.01,0.0,5607.0,0.0,0.0,0.0,0.0,0.125,3.38134731,0.01,0.0,633.0,0.0,0.0,-0.0,0.0,0.0,1.624755693,0.01,0.0,0.25999999046325684,87.23999786376953,-90.44999694824219,0.99835205078125,0.00531005859375,-0.04736328125,28.959999084472656,0.0,0.0,1.35369873046875,-0.1061553955078125,Waiting,0.0,0.0,22.0,0.0,0.0,0.0,0.0,0.0,
7.995060000000056,0.0,0.0,1771.0,0.0,0.0,0.0,0.0,0.0,0.8276366340000001,0.01,0.0,-812.0,0.0,0.0,-0.0,0.0,0.0,0.506591745,0.01,0.0,5607.0,0.0,0.0,0.0,0.0,0.125,3.382568013,0.01,0.0,633.0,0.0,0.0,-0.0,0.0,0.0,1.624755693,0.01,0.0,0.27000001072883606,87.23999786376953,-90.44000244140625,0.9954833984375,0.00616455078125,-0.0511474609375,28.959999084472656,0.0,0.0,1.35369873046875,-0.1061553955078125,Waiting,0.0,0.0,22.0,0.0,0.0,0.0,0.0,0.0,
8.111144000000088,0.0,0.0,1771.0,0.0,0.0,0.0,0.0,0.0,0.8288573370000001,0.01,0.0,-812.0,0.0,0.0,-0.0,0.0,0.0,0.505371042,0.01,0.0,5607.0,0.0,0.0,0.0,0.0,0.125,3.38134731,0.01,0.0,633.0,0.0,0.0,-0.0,0.0,0.0,1.624755693,0.01,0.0,0.25999999046325684,87.25,-90.45999908447266,0.9765625,0.034912109375,-0.06427001953125,28.959999084472656,0.0,-25.0,1.3536834716796875,-0.10614013671875,Waiting,0.0,0.0,22.0,0.0,0.0,0.0,0.0,0.0,
8.228788000000058,0.0,0.0,1771.0,0.0,0.0,0.0,0.0,0.0,0.8288573370000001,0.01,0.0,-812.0,0.0,0.0,-0.0,0.0,0.0,0.506591745,0.01,0.0,5607.0,0.0,0.0,0.0,0.0,0.125,3.382568013,0.01,0.0,633.0,0.0,0.0,-0.0,0.0,0.0,1.624755693,0.01,0.0,0.25999999046325684,87.25,-90.44000244140625,1.01202392578125,-0.00592041015625,-0.0517578125,28.959999084472656,0.0,11.0,1.3532562255859375,-0.10577392578125,Waiting,0.0,0.0,22.0,0.0,0.0,0.0,0.0,0.0,
8.35325800000003,0.0,0.0,1771.0,0.0,0.0,0.0,0.0,0.0,0.8288573370000001,0.01,0.0,-812.0,0.0,0.0,-0.0,0.0,0.0,0.505371042,0.01,0.0,5607.0,0.0,0.0,0.0,0.0,0.125,3.38134731,0.01,0.0,633.0,0.0,0.0,-0.0,0.0,0.0,1.624755693,0.01,0.0,0.27000001072883606,87.25,-90.44000244140625,1.00189208984375,-0.00146484375,-0.0528564453125,28.969999313354492,0.0,7.0,1.3532562255859375,-0.10577392578125,Waiting,0.0,0.0,22.0,0.0,0.0,0.0,0.0,0.0,
8.47000800000003,0.0,0.0,1771.0,0.0,0.0,0.0,0.0,0.0,0.8288573370000001,0.01,0.0,-812.0,0.0,0.0,-0.0,0.0,0.0,0.506591745,0.01,0.0,5607.0,0.0,0.0,0.0,0.0,0.125,3.38134731,0.01,0.0,633.0,0.0,0.0,-0.0,0.0,0.0,1.62353499,0.01,0.0,0.25999999046325684,87.25,-90.44000244140625,0.996826171875,0.003173828125,-0.05426025390625,28.969999313354492,0.0,3.0,1.3532562255859375,-0.10577392578125,Waiting,0.0,0.0,22.0,0.0,0.0,0.0,0.0,0.0,
8.589889000000083,0.0,0.0,1771.0,0.0,0.0,0.0,0.0,0.0,0.8288573370000001,0.01,0.0,-812.0,0.0,0.0,-0.0,0.0,0.0,0.506591745,0.01,0.0,5607.0,0.0,0.0,0.0,0.0,0.125,3.38134731,0.01,0.0,633.0,0.0,0.0,-0.0,0.0,0.0,1.624755693,0.01,0.0,0.27000001072883606,87.25,-90.44000244140625,0.9954833984375,-0.009033203125,-0.04840087890625,28.969999313354492,0.0,13.0,1.3533477783203125,-0.1057586669921875,Waiting,0.0,0.0,22.0,0.0,0.0,0.0,0.0,0.0,
8.709810000000056,0.0,0.0,1771.0,0.0,0.0,0.0,0.0,0.0,0.8276366340000001,0.01,0.0,-812.0,0.0,0.0,-0.0,0.0,0.0,0.506591745,0.01,0.0,5607.0,0.0,0.0,0.0,0.0,0.125,3.38134731,0.01,0.0,633.0,0.0,0.0,-0.0,0.0,0.0,1.624755693,0.01,0.0,0.2800000011920929,87.25,-90.43000030517578,1.02435302734375,0.00726318359375,0.09698486328125,28.969999313354492,0.0,-39.0,1.3533172607421875,-0.1058502197265625,Waiting,0.0,0.0,22.0,0.0,0.0,0.0,0.0,0.0,
8.827830000000075,0.0,0.0,1771.0,0.0,0.0,0.0,0.0,0.0,0.8276366340000001,0.01,0.0,-812.0,0.0,0.0,-0.0,0.0,0.0,0.506591745,0.01,0.0,5607.0,0.0,0.0,0.0,0.0,0.125,3.38134731,0.01,0.0,633.0,0.0,0.0,-0.0,0.0,0.0,1.62353499,0.01,0.0,0.2800000011920929,87.27999877929688,-90.41999816894531,1.001953125,0.01300048828125,-0.0511474609375,28.969999313354492,0.0,-6.0,1.35321044921875,-0.1077423095703125,Waiting,0.0,0.0,22.0,0.0,0.0,0.0,0.0,0.0,
8.949386000000057,0.0,0.0,1771.0,0.0,0.0,0.0,0.0,0.0,0.8288573370000001,0.01,0.0,-812.0,0.0,0.0,-0.0,0.0,0.0,0.505371042,0.01,0.0,5607.0,0.0,0.0,0.0,0.0,0.125,3.38134731,0.01,0.0,633.0,0.0,0.0,-0.0,0.0,0.0,1.624755693,0.01,0.0,0.2800000011920929,87.29000091552734,-90.41999816894531,0.99456787109375,0.0018310546875,-0.0391845703125,29.0,0.0,1.0,1.35321044921875,-0.1077423095703125,Waiting,0.0,0.0,22.0,0.0,0.0,0.0,0.0,0.0,
9.067369999999995,0.0,0.0,1771.0,0.0,0.0,0.0,0.0,0.0,0.8288573370000001,0.01,0.0,-812.0,0.0,0.0,-0.0,0.0,0.0,0.506591745,0.01,0.0,5607.0,0.0,0.0,0.0,0.0,0.125,3.38134731,0.01,0.0,633.0,0.0,0.0,-0.0,0.0,0.0,1.624755693,0.01,0.0,0.2800000011920929,87.29000091552734,-90.41000366210938,0.99810791015625,0.002685546875,-0.04595947265625,29.0,0.0,2.0,1.35321044921875,-0.1077423095703125,Waiting,0.0,0.0,22.0,0.0,0.0,0.0,0.0,0.0,
9.180709000000032,0.0,0.0,1771.0,0.0,0.0,0.0,0.0,0.0,0.8288573370000001,0.01,0.0,-812.0,0.0,0.0,-0.0,0.0,0.0,0.505371042,0.01,0.0,5607.0,0.0,0.0,0.0,0.0,0.125,3.38134731,0.01,0.0,633.0,0.0,0.0,-0.0,0.0,0.0,1.624755693,0.01,0.0,0.2800000011920929,87.29000091552734,-90.41999816894531,1.000732421875,0.00335693359375,-0.04693603515625,29.0,0.0,1.0,1.35321044921875,-0.1077423095703125,Waiting,0.0,0.0,22.0,0.0,0.0,0.0,0.0,0.0,
9.29683600000001,0.0,0.0,1771.0,0.0,0.0,0.0,0.0,0.0,0.8276366340000001,0.01,0.0,-812.0,0.0,0.0,-0.0,0.0,0.0,0.505371042,0.01,0.0,5607.0,0.0,0.0,0.0,0.0,0.125,3.382568013,0.01,0.0,633.0,0.0,0.0,-0.0,0.0,0.0,1.624755693,0.01,0.0,0.27000001072883606,87.27999877929688,-90.41999816894531,0.99896240234375,0.00286865234375,-0.04888916015625,29.0,0.0,2.0,1.35321044921875,-0.1077423095703125,Waiting,0.0,0.0,22.0,0.0,0.0,0.0,0.0,0.0,
9.420031000000076,0.0,0.0,1771.0,0.0,0.0,0.0,0.0,0.0,0.8288573370000001,0.01,0.0,-812.0,0.0,0.0,-0.0,0.0,0.0,0.505371042,0.01,0.0,5607.0,0.0,0.0,0.0,0.0,0.125,3.38134731,0.01,0.0,633.0,0.0,0.0,-0.0,0.0,0.0,1.624755693,0.01,0.0,0.2800000011920929,87.27999877929688,-90.41999816894531,0.999755859375,0.0074462890625,-0.04425048828125,29.0,0.0,-3.0,1.35321044921875,-0.1077423095703125,Waiting,0.0,0.0,22.0,0.0,0.0,0.0,0.0,0.0,
9.535416000000085,0.0,0.0,1771.0,0.0,0.0,0.0,0.0,0.0,0.8288573370000001,0.01,0.0,-812.0,0.0,0.0,-0.0,0.0,0.0,0.505371042,0.01,0.0,5607.0,0.0,0.0,0.0,0.0,0.0,3.38134731,0.01,0.0,633.0,0.0,0.0,-0.0,0.0,0.0,1.624755693,0.01,0.0,0.2800000011920929,87.27999877929688,-90.41999816894531,0.99676513671875,0.0047607421875,-0.04974365234375,29.0,0.0,0.0,1.35321044921875,-0.1077423095703125,Waiting,0.0,0.0,22.0,0.0,0.0,0.0,0.0,0.0,
9.660505000000004,0.0,0.0,1771.0,0.0,0.0,0.0,0.0,0.0,0.8288573370000001,0.01,0.0,-812.0,0.0,0.0,-0.0,0.0,0.0,0.506591745,0.01,0.0,5607.0,0.0,0.0,0.0,0.0,0.125,3.382568013,0.01,0.0,633.0,0.0,0.0,-0.0,0.0,0.0,1.624755693,0.01,0.0,0.2800000011920929,87.27999877929688,-90.41999816894531,0.99639892578125,0.006103515625,-0.046630859375,29.0,0.0,-1.0,1.35321044921875,-0.1077423095703125,Waiting,0.0,0.0,22.0,0.0,0.0,0.0,0.0,0.0,
9.776625,0.0,0.0,1771.0,0.0,0.0,0.0,0.0,0.0,0.8276366340000001,0.01,0.0,-812.0,0.0,0.0,-0.0,0.0,0.0,0.506591745,0.01,0.0,5607.0,0.0,0.0,0.0,0.0,0.125,3.382568013,0.01,0.0,633.0,0.0,0.0,-0.0,0.0,0.0,1.624755693,0.01,0.0,0.2800000011920929,87.2699966430664,-90.41999816894531,0.99761962890625,0.0050048828125,-0.04180908203125,29.0,0.0,-1.0,1.35321044921875,-0.1077423095703125,Waiting,0.0,0.0,22.0,0.0,0.0,0.0,0.0,0.0,
9.897381000000053,0.0,0.0,1771.0,0.0,0.0,0.0,0.0,0.0,0.8288573370000001,0.01,0.0,-812.0,0.0,0.0,-0.0,0.0,0.0,0.506591745,0.01,0.0,5607.0,0.0,0.0,0.0,0.0,0.125,3.38134731,0.01,0.0,633.0,0.0,0.0,-0.0,0.0,0.0,1.624755693,0.01,0.0,0.27000001072883606,87.2699966430664,-90.43000030517578,0.99676513671875,0.00335693359375,-0.048095703125,29.0,0.0,1.0,1.35321044921875,-0.1077423095703125,Waiting,0.0,0.0,22.0,0.0,0.0,0.0,0.0,0.0,
10.01494000000006,0.0,0.0,1771.0,0.0,0.0,0.0,0.0,0.0,0.8288573370000001,0.01,0.0,-812.0,0.0,0.0,-0.0,0.0,0.0,0.506591745,0.01,0.0,5607.0,0.0,0.0,0.0,0.0,0.125,3.38134731,0.01,0.0,633.0,0.0,0.0,-0.0,0.0,0.0,1.624755693,0.01,0.0,0.2800000011920929,87.2699966430664,-90.41999816894531,0.99774169921875,0.00518798828125,-0.0535888671875,29.0,0.0,1.0,1.35321044921875,-0.1077423095703125,Waiting,0.0,0.0,22.0,0.0,0.0,0.0,0.0,0.0,
10.131783000000054,0.0,0.0,1771.0,0.0,0.0,0.0,0.0,0.0,0.8276366340000001,0.01,0.0,-812.0,0.0,0.0,-0.0,0.0,0.0,0.506591745,0.01,0.0,5607.0,0.0,0.0,0.0,0.0,0.125,3.38134731,0.01,0.0,633.0,0.0,0.0,-0.0,0.0,0.0,1.624755693,0.01,0.0,0.2800000011920929,87.2699966430664,-90.41999816894531,0.99725341796875,0.00592041015625,-0.0504150390625,29.0,0.0,0.0,1.35321044921875,-0.1077423095703125,Waiting,0.0,0.0,22.0,0.0,0.0,0.0,0.0,0.0,
10.252744000000064,0.0,0.0,1771.0,0.0,0.0,0.0,0.0,0.0,0.8276366340000001,0.01,0.0,-812.0,0.0,0.0,-0.0,0.0,0.0,0.506591745,0.01,0.0,5607.0,0.0,0.0,0.0,0.0,0.125,3.382568013,0.01,0.0,633.0,0.0,0.0,-0.0,0.0,0.0,1.624755693,0.01,0.0,0.2800000011920929,87.2699966430664,-90.41999816894531,0.994140625,0.00341796875,-0.04791259765625,29.0,0.0,1.0,1.35321044921875,-0.1077423095703125,Waiting,0.0,0.0,22.0,0.0,0.0,0.0,0.0,0.0,
10.36571100000001,0.0,0.0,1771.0,0.0,0.0,0.0,0.0,0.0,0.8276366340000001,0.01,0.0,-812.0,0.0,0.0,-0.0,0.0,0.0,0.506591745,0.01,0.0,5607.0,0.0,0.0,0.0,0.0,0.0,3.382568013,0.01,0.0,633.0,0.0,0.0,-0.0,0.0,0.0,1.624755693,0.01,0.0,0.2800000011920929,87.2699966430664,-90.41999816894531,0.9947509765625,0.00579833984375,-0.04534912109375,29.0,0.0,-1.0,1.35321044921875,-0.1077423095703125,Waiting,0.0,0.0,22.0,0.0,0.0,0.0,0.0,0.0,
10.484998000000022,0.0,0.0,1771.0,0.0,0.0,0.0,0.0,0.0,0.8288573370000001,0.01,0.0,-812.0,0.0,0.0,-0.0,0.0,0.0,0.506591745,0.01,0.0,5607.0,0.0,0.0,0.0,0.0,0.125,3.382568013,0.01,0.0,633.0,0.0,0.0,-0.0,0.0,0.0,1.624755693,0.01,0.0,0.2800000011920929,87.2699966430664,-90.41999816894531,0.99468994140625,0.005615234375,-0.05352783203125,28.989999771118164,0.0,0.0,1.35321044921875,-0.1077423095703125,Waiting,0.0,0.0,22.0,0.0,0.0,0.0,0.0,0.0,
10.616422000000021,0.0,0.0,1771.0,0.0,0.0,0.0,0.0,0.0,0.8288573370000001,0.01,0.0,-812.0,0.0,0.0,-0.0,0.0,0.0,0.506591745,0.01,0.0,5607.0,0.0,0.0,0.0,0.0,0.125,3.382568013,0.01,0.0,633.0,0.0,0.0,-0.0,0.0,0.0,1.625976396,0.01,0.0,0.2800000011920929,87.2699966430664,-90.41999816894531,0.99554443359375,0.0045166015625,-0.048583984375,28.989999771118164,0.0,0.0,1.35321044921875,-0.1077423095703125,Waiting,0.0,0.0,22.0,0.0,0.0,0.0,0.0,0.0,
10.733298000000069,0.0,0.0,1771.0,0.0,0.0,0.0,0.0,0.0,0.8276366340000001,0.01,0.0,-812.0,0.0,0.0,-0.0,0.0,0.0,0.506591745,0.01,0.0,5607.0,0.0,0.0,0.0,0.0,0.125,3.38134731,0.01,0.0,633.0,0.0,0.0,-0.0,0.0,0.0,1.624755693,0.01,0.0,0.2800000011920929,87.2699966430664,-90.41999816894531,0.99774169921875,0.00225830078125,-0.05255126953125,28.989999771118164,0.0,3.0,1.35321044921875,-0.1077423095703125,Waiting,0.0,0.0,22.0,0.0,0.0,0.0,0.0,0.0,
10.860868000000016,0.0,0.0,1771.0,0.0,0.0,0.0,0.0,0.0,0.8288573370000001,0.01,0.0,-812.0,0.0,0.0,-0.0,0.0,0.0,0.505371042,0.01,0.0,5607.0,0.0,0.0,0.0,0.0,0.125,3.38134731,0.01,0.0,633.0,0.0,0.0,-0.0,0.0,0.0,1.625976396,0.01,0.0,0.27000001072883606,87.2699966430664,-90.43000030517578,0.9964599609375,0.0050048828125,-0.04754638671875,28.989999771118164,0.0,0.0,1.35321044921875,-0.1077423095703125,Waiting,0.0,0.0,22.0,0.0,0.0,0.0,0.0,0.0,
10.982803000000073,0.0,0.0,1771.0,0.0,0.0,0.0,0.0,0.0,0.8276366340000001,0.01,0.0,-812.0,0.0,0.0,-0.0,0.0,0.0,0.506591745,0.01,0.0,5607.0,0.0,0.0,0.0,0.0,0.125,3.38134731,0.01,0.0,633.0,0.0,0.0,-0.0,0.0,0.0,1.624755693,0.01,0.0,0.27000001072883606,87.2699966430664,-90.43000030517578,0.99615478515625,0.0064697265625,-0.04644775390625,29.0,0.0,-1.0,1.35321044921875,-0.1077423095703125,Waiting,0.0,0.0,22.0,0.0,0.0,0.0,0.0,0.0,
11.10705700000003,0.0,0.0,1771.0,0.0,0.0,0.0,0.0,0.0,0.8288573370000001,0.01,0.0,-812.0,0.0,0.0,-0.0,0.0,0.0,0.505371042,0.01,0.0,5607.0,0.0,0.0,0.0,0.0,0.125,3.38134731,0.01,0.0,633.0,0.0,0.0,-0.0,0.0,0.0,1.62353499,0.01,0.0,0.2800000011920929,87.2699966430664,-90.41999816894531,0.994384765625,0.00518798828125,-0.0506591796875,29.0,0.0,0.0,1.35321044921875,-0.1077423095703125,Waiting,0.0,0.0,22.0,0.0,0.0,0.0,0.0,0.0,
11.222704000000027,0.0,0.0,1771.0,0.0,0.0,0.0,0.0,0.0,0.8288573370000001,0.01,0.0,-812.0,0.0,0.0,-0.0,0.0,0.0,0.505371042,0.01,0.0,5607.0,0.0,0.0,0.0,0.0,0.125,3.38134731,0.01,0.0,633.0,0.0,0.0,-0.0,0.0,0.0,1.624755693,0.01,0.0,0.27000001072883606,87.2699966430664,-90.43000030517578,0.9930419921875,0.00244140625,-0.0489501953125,29.0,0.0,2.0,1.35321044921875,-0.1077423095703125,Waiting,0.0,0.0,22.0,0.0,0.0,0.0,0.0,0.0,
11.336070000000065,0.0,0.0,1771.0,0.0,0.0,0.0,0.0,0.0,0.8288573370000001,0.01,0.0,-812.0,0.0,0.0,-0.0,0.0,0.0,0.506591745,0.01,0.0,5607.0,0.0,0.0,0.0,0.0,0.125,3.38134731,0.01,0.0,633.0,0.0,0.0,-0.0,0.0,0.0,1.624755693,0.01,0.0,0.27000001072883606,87.26000213623047,-90.43000030517578,0.99810791015625,0.0029296875,-0.04736328125,29.0,0.0,1.0,1.35321044921875,-0.1077423095703125,Waiting,0.0,0.0,22.0,0.0,0.0,0.0,0.0,0.0,
11.46526000000001,0.0,0.0,1771.0,0.0,0.0,0.0,0.0,0.0,0.8288573370000001,0.01,0.0,-812.0,0.0,0.0,-0.0,0.0,0.0,0.507812448,0.01,0.0,5607.0,0.0,0.0,0.0,0.0,0.125,3.382568013,0.01,0.0,633.0,0.0,0.0,-0.0,0.0,0.0,1.624755693,0.01,0.0,0.27000001072883606,87.26000213623047,-90.43000030517578,0.99737548828125,0.00439453125,-0.04888916015625,29.010000228881836,0.0,0.0,1.35321044921875,-0.1077423095703125,Waiting,0.0,0.0,22.0,0.0,0.0,0.0,0.0,0.0,
11.578177000000025,0.0,0.0,1771.0,0.0,0.0,0.0,0.0,0.0,0.8288573370000001,0.01,0.0,-812.0,0.0,0.0,-0.0,0.0,0.0,0.506591745,0.01,0.0,5607.0,0.0,0.0,0.0,0.0,0.125,3.382568013,0.01,0.0,633.0,0.0,0.0,-0.0,0.0,0.0,1.625976396,0.01,0.0,0.27000001072883606,87.26000213623047,-90.44000244140625,0.998046875,0.001953125,-0.04779052734375,29.010000228881836,0.0,2.0,1.35321044921875,-0.1077423095703125,Waiting,0.0,0.0,22.0,0.0,0.0,0.0,0.0,0.0,
11.702222999999998,0.0,0.0,1771.0,0.0,0.0,0.0,0.0,0.0,0.8276366340000001,0.01,0.0,-812.0,0.0,0.0,-0.0,0.0,0.0,0.506591745,0.01,0.0,5607.0,0.0,0.0,0.0,0.0,0.125,3.38134731,0.01,0.0,633.0,0.0,0.0,-0.0,0.0,0.0,1.624755693,0.01,0.0,0.27000001072883606,87.2699966430664,-90.43000030517578,0.99993896484375,0.00482177734375,-0.04864501953125,29.010000228881836,0.0,0.0,1.35321044921875,-0.1077423095703125,Waiting,0.0,0.0,22.0,0.0,0.0,0.0,0.0,0.0,
11.82795000000007,0.0,0.0,1771.0,0.0,0.0,0.0,0.0,0.0,0.8288573370000001,0.01,0.0,-812.0,0.0,0.0,-0.0,0.0,0.0,0.506591745,0.01,0.0,5607.0,0.0,0.0,0.0,0.0,0.125,3.38134731,0.01,0.0,633.0,0.0,0.0,-0.0,0.0,0.0,1.624755693,0.01,0.0,0.27000001072883606,87.26000213623047,-90.43000030517578,0.9970703125,0.00885009765625,-0.04541015625,29.010000228881836,0.0,-4.0,1.35321044921875,-0.1077423095703125,Waiting,0.0,0.0,22.0,0.0,0.0,0.0,0.0,0.0,
11.951271000000066,0.0,0.0,1771.0,0.0,0.0,0.0,0.0,0.0,0.8276366340000001,0.01,0.0,-812.0,0.0,0.0,-0.0,0.0,0.0,0.505371042,0.01,0.0,5607.0,0.0,0.0,0.0,0.0,0.125,3.38134731,0.01,0.0,633.0,0.0,0.0,-0.0,0.0,0.0,1.624755693,0.01,0.0,0.25999999046325684,87.26000213623047,-90.44000244140625,0.9957275390625,0.003173828125,-0.0455322265625,29.0,0.0,1.0,1.35321044921875,-0.1077423095703125,Waiting,0.0,0.0,22.0,0.0,0.0,0.0,0.0,0.0,
12.074928000000073,0.0,0.0,1771.0,0.0,0.0,0.0,0.0,0.0,0.8288573370000001,0.01,0.0,-812.0,0.0,0.0,-0.0,0.0,0.0,0.506591745,0.01,0.0,5607.0,0.0,0.0,0.0,0.0,0.125,3.38134731,0.01,0.0,633.0,0.0,0.0,-0.0,0.0,0.0,1.624755693,0.01,0.0,0.27000001072883606,87.2699966430664,-90.43000030517578,0.99859619140625,0.00567626953125,-0.04931640625,29.0,0.0,0.0,1.35321044921875,-0.1077423095703125,Waiting,0.0,0.0,22.0,0.0,0.0,0.0,0.0,0.0,
12.202375,0.0,0.0,1771.0,0.0,0.0,0.0,0.0,0.0,0.8288573370000001,0.01,0.0,-812.0,0.0,0.0,-0.0,0.0,0.0,0.505371042,0.01,0.0,5607.0,0.0,0.0,0.0,0.0,0.125,3.38134731,0.01,0.0,633.0,0.0,0.0,-0.0,0.0,0.0,1.624755693,0.01,0.0,0.27000001072883606,87.2699966430664,-90.43000030517578,0.99945068359375,0.00726318359375,-0.04925537109375,29.0,0.0,-1.0,1.35321044921875,-0.1077423095703125,Waiting,0.0,0.0,22.0,0.0,0.0,0.0,0.0,0.0,
12.328261999999988,0.0,0.0,1771.0,0.0,0.0,0.0,0.0,0.0,0.8276366340000001,0.01,0.0,-812.0,0.0,0.0,-0.0,0.0,0.0,0.506591745,0.01,0.0,5607.0,0.0,0.0,0.0,0.0,0.125,3.38134731,0.01,0.0,633.0,0.0,0.0,-0.0,0.0,0.0,1.624755693,0.01,0.0,0.27000001072883606,87.26000213623047,-90.43000030517578,0.99554443359375,0.00201416015625,-0.04864501953125,29.0,0.0,3.0,1.35321044921875,-0.1077423095703125,Waiting,0.0,0.0,22.0,0.0,0.0,0.0,0.0,0.0,
12.453652000000002,0.0,0.0,1771.0,0.0,0.0,0.0,0.0,0.0,0.8276366340000001,0.01,0.0,-812.0,0.0,0.0,-0.0,0.0,0.0,0.505371042,0.01,0.0,5607.0,0.0,0.0,0.0,0.0,0.125,3.382568013,0.01,0.0,633.0,0.0,0.0,-0.0,0.0,0.0,1.624755693,0.01,0.0,0.27000001072883606,87.26000213623047,-90.43000030517578,0.99688720703125,0.004150390625,-0.0511474609375,29.020000457763672,0.0,1.0,1.35321044921875,-0.1077423095703125,Waiting,0.0,0.0,22.0,0.0,0.0,0.0,0.0,0.0,
12.575410000000032,0.0,0.0,1771.0,0.0,0.0,0.0,0.0,0.0,0.8276366340000001,0.01,0.0,-812.0,0.0,0.0,-0.0,0.0,0.0,0.506591745,0.01,0.0,5607.0,0.0,0.0,0.0,0.0,0.125,3.38134731,0.01,0.0,633.0,0.0,0.0,-0.0,0.0,0.0,1.624755693,0.01,0.0,0.27000001072883606,87.26000213623047,-90.43000030517578,0.99755859375,0.002685546875,-0.04437255859375,29.020000457763672,0.0,1.0,1.35321044921875,-0.1077423095703125,Waiting,0.0,0.0,22.0,0.0,0.0,0.0,0.0,0.0,
12.69933600000001,0.0,0.0,1771.0,0.0,0.0,0.0,0.0,0.0,0.8288573370000001,0.01,0.0,-812.0,0.0,0.0,-0.0,0.0,0.0,0.505371042,0.01,0.0,5607.0,0.0,0.0,0.0,0.0,0.125,3.382568013,0.01,0.0,633.0,0.0,0.0,-0.0,0.0,0.0,1.624755693,0.01,0.0,0.27000001072883606,87.25,-90.44000244140625,0.99725341796875,0.0054931640625,-0.052978515625,29.020000457763672,0.0,0.0,1.35321044921875,-0.1077423095703125,Waiting,0.0,0.0,22.0,0.0,0.0,0.0,0.0,0.0,
12.829404000000096,0.0,0.0,1771.0,0.0,0.0,0.0,0.0,0.0,0.8288573370000001,0.01,0.0,-812.0,0.0,0.0,-0.0,0.0,0.0,0.506591745,0.01,0.0,5607.0,0.0,0.0,0.0,0.0,0.125,3.38134731,0.01,0.0,633.0,0.0,0.0,-0.0,0.0,0.0,1.624755693,0.01,0.0,0.27000001072883606,87.26000213623047,-90.44000244140625,0.99591064453125,0.00732421875,-0.05072021484375,29.020000457763672,0.0,-1.0,1.35321044921875,-0.1077423095703125,Waiting,0.0,0.0,22.0,0.0,0.0,0.0,0.0,0.0,
12.967649000000092,0.0,0.0,1771.0,0.0,0.0,0.0,0.0,0.0,0.8288573370000001,0.01,0.0,-812.0,0.0,0.0,-0.0,0.0,0.0,0.506591745,0.01,0.0,5607.0,0.0,0.0,0.0,0.0,0.125,3.38134731,0.01,0.0,633.0,0.0,0.0,-0.0,0.0,0.0,1.624755693,0.01,0.0,0.27000001072883606,87.26000213623047,-90.43000030517578,0.999267578125,0.00787353515625,-0.0489501953125,29.0,0.0,-2.0,1.35321044921875,-0.1077423095703125,Waiting,0.0,0.0,22.0,0.0,0.0,0.0,0.0,0.0,
13.088513000000036,0.0,0.0,1771.0,0.0,0.0,0.0,0.0,0.0,0.8288573370000001,0.01,0.0,-812.0,0.0,0.0,-0.0,0.0,0.0,0.505371042,0.01,0.0,5607.0,0.0,0.0,0.0,0.0,0.125,3.38134731,0.01,0.0,633.0,0.0,0.0,-0.0,0.0,0.0,1.624755693,0.01,0.0,0.2800000011920929,87.25,-90.43000030517578,0.99993896484375,0.00592041015625,-0.0465087890625,29.0,0.0,-1.0,1.35321044921875,-0.1077423095703125,Waiting,0.0,0.0,22.0,0.0,0.0,0.0,0.0,0.0,
13.215568000000086,0.0,0.0,1771.0,0.0,0.0,0.0,0.0,0.0,0.8288573370000001,0.01,0.0,-812.0,0.0,0.0,-0.0,0.0,0.0,0.506591745,0.01,0.0,5607.0,0.0,0.0,0.0,0.0,0.125,3.38134731,0.01,0.0,633.0,0.0,0.0,-0.0,0.0,0.0,1.624755693,0.01,0.0,0.27000001072883606,87.25,-90.44000244140625,0.9937744140625,0.00732421875,-0.04498291015625,29.0,0.0,-3.0,1.35321044921875,-0.1077423095703125,Waiting,0.0,0.0,22.0,0.0,0.0,0.0,0.0,0.0,
13.335937000000035,0.0,0.0,1771.0,0.0,0.0,0.0,0.0,0.0,0.8288573370000001,0.01,0.0,-812.0,0.0,0.0,-0.0,0.0,0.0,0.506591745,0.01,0.0,5607.0,0.0,0.0,0.0,0.0,0.125,3.382568013,0.01,0.0,633.0,0.0,0.0,-0.0,0.0,0.0,1.624755693,0.01,0.0,0.27000001072883606,87.25,-90.44999694824219,0.99481201171875,0.00555419921875,-0.047607421875,29.0,0.0,0.0,1.35321044921875,-0.1077423095703125,Waiting,0.0,0.0,22.0,0.0,0.0,0.0,0.0,0.0,
13.468283999999985,0.0,0.0,1771.0,0.0,0.0,0.0,0.0,0.0,0.8276366340000001,0.01,0.0,-812.0,0.0,0.0,-0.0,0.0,0.0,0.505371042,0.01,0.0,5607.0,0.0,0.0,0.0,0.0,0.125,3.38134731,0.01,0.0,633.0,0.0,0.0,-0.0,0.0,0.0,1.624755693,0.01,0.0,0.27000001072883606,87.25,-90.44999694824219,0.9974365234375,0.007568359375,-0.050048828125,29.030000686645508,0.0,-2.0,1.35321044921875,-0.1077423095703125,Waiting,0.0,0.0,22.0,0.0,0.0,0.0,0.0,0.0,
13.593292000000016,0.0,0.0,1771.0,0.0,0.0,0.0,0.0,0.0,0.8276366340000001,0.01,0.0,-812.0,0.0,0.0,-0.0,0.0,0.0,0.505371042,0.01,0.0,5607.0,0.0,0.0,0.0,0.0,0.125,3.38134731,0.01,0.0,633.0,0.0,0.0,-0.0,0.0,0.0,1.624755693,0.01,0.0,0.25999999046325684,87.25,-90.44999694824219,0.99725341796875,0.00543212890625,-0.0494384765625,29.030000686645508,0.0,0.0,1.35321044921875,-0.1077423095703125,Waiting,0.0,0.0,22.0,0.0,0.0,0.0,0.0,0.0,
13.714374000000069,0.0,0.0,1771.0,0.0,0.0,0.0,0.0,0.0,0.8276366340000001,0.01,0.0,-812.0,0.0,0.0,-0.0,0.0,0.0,0.506591745,0.01,0.0,5607.0,0.0,0.0,0.0,0.0,0.125,3.38134731,0.01,0.0,633.0,0.0,0.0,-0.0,0.0,0.0,1.62353499,0.01,0.0,0.27000001072883606,87.25,-90.44999694824219,0.99664306640625,0.005126953125,-0.0477294921875,29.030000686645508,0.0,0.0,1.35321044921875,-0.1077423095703125,Waiting,0.0,0.0,22.0,0.0,0.0,0.0,0.0,0.0,
13.829783000000054,0.0,0.0,1771.0,0.0,0.0,0.0,0.0,0.0,0.8288573370000001,0.01,0.0,-812.0,0.0,0.0,-0.0,0.0,0.0,0.506591745,0.01,0.0,5607.0,0.0,0.0,0.0,0.0,0.125,3.38134731,0.01,0.0,633.0,0.0,0.0,-0.0,0.0,0.0,1.624755693,0.01,0.0,0.27000001072883606,87.25,-90.43000030517578,0.99908447265625,0.00482177734375,-0.0426025390625,29.030000686645508,0.0,-1.0,1.35321044921875,-0.1077423095703125,Waiting,0.0,0.0,22.0,0.0,0.0,0.0,0.0,0.0,
13.94662400000007,0.0,0.0,1771.0,0.0,0.0,0.0,0.0,0.0,0.8276366340000001,0.01,0.0,-812.0,0.0,0.0,-0.0,0.0,0.0,0.506591745,0.01,0.0,5607.0,0.0,0.0,0.0,0.0,0.125,3.38134731,0.01,0.0,633.0,0.0,0.0,-0.0,0.0,0.0,1.62353499,0.01,0.0,0.2800000011920929,87.25,-90.43000030517578,0.99688720703125,0.00360107421875,-0.04461669921875,29.030000686645508,0.0,0.0,1.35321044921875,-0.1077423095703125,Waiting,0.0,0.0,22.0,0.0,0.0,0.0,0.0,0.0,
14.068391999999992,0.0,0.0,1771.0,0.0,0.0,0.0,0.0,0.0,0.8276366340000001,0.01,0.0,-812.0,0.0,0.0,-0.0,0.0,0.0,0.506591745,0.01,0.0,5607.0,0.0,0.0,0.0,0.0,0.125,3.38134731,0.01,0.0,633.0,0.0,0.0,-0.0,0.0,0.0,1.624755693,0.01,0.0,0.27000001072883606,87.23999786376953,-90.44000244140625,0.99713134765625,0.006591796875,-0.04632568359375,29.030000686645508,0.0,-2.0,1.35321044921875,-0.1077423095703125,Waiting,0.0,0.0,22.0,0.0,0.0,0.0,0.0,0.0,
14.188949000000022,0.0,0.0,1771.0,0.0,0.0,0.0,0.0,0.0,0.8288573370000001,0.01,0.0,-812.0,0.0,0.0,-0.0,0.0,0.0,0.506591745,0.01,0.0,5607.0,0.0,0.0,0.0,0.0,0.125,3.3801266070000002,0.01,0.0,633.0,0.0,0.0,-0.0,0.0,0.0,1.624755693,0.01,0.0,0.27000001072883606,87.23999786376953,-90.44000244140625,0.998291015625,0.01031494140625,-0.04827880859375,29.030000686645508,0.0,-5.0,1.35321044921875,-0.1077423095703125,Waiting,0.0,0.0,22.0,0.0,0.0,0.0,0.0,0.0,
14.309511999999987,0.0,0.0,1771.0,0.0,0.0,0.0,0.0,0.0,0.8288573370000001,0.01,0.0,-812.0,0.0,0.0,-0.0,0.0,0.0,0.506591745,0.01,0.0,5607.0,0.0,0.0,0.0,0.0,0.125,3.382568013,0.01,0.0,633.0,0.0,0.0,-0.0,0.0,0.0,1.624755693,0.01,0.0,0.27000001072883606,87.23999786376953,-90.44000244140625,0.99725341796875,0.005859375,-0.0416259765625,29.030000686645508,0.0,-2.0,1.35321044921875,-0.1077423095703125,Waiting,0.0,0.0,22.0,0.0,0.0,0.0,0.0,0.0,
14.426658000000055,0.0,0.0,1771.0,0.0,0.0,0.0,0.0,0.0,0.8276366340000001,0.01,0.0,-812.0,0.0,0.0,-0.0,0.0,0.0,0.505371042,0.01,0.0,5607.0,0.0,0.0,0.0,0.0,0.125,3.38134731,0.01,0.0,633.0,0.0,0.0,-0.0,0.0,0.0,1.624755693,0.01,0.0,0.27000001072883606,87.23999786376953,-90.44999694824219,0.99664306640625,0.00347900390625,-0.04534912109375,29.030000686645508,0.0,0.0,1.35321044921875,-0.1077423095703125,Waiting,0.0,0.0,22.0,0.0,0.0,0.0,0.0,0.0,
14.54304600000009,0.0,0.0,1771.0,0.0,0.0,0.0,0.0,0.0,0.8288573370000001,0.01,0.0,-812.0,0.0,0.0,-0.0,0.0,0.0,0.506591745,0.01,0.0,5607.0,0.0,0.0,0.0,0.0,0.125,3.38134731,0.01,0.0,633.0,0.0,0.0,-0.0,0.0,0.0,1.624755693,0.01,0.0,0.27000001072883606,87.25,-90.44000244140625,0.99639892578125,0.0050048828125,-0.0457763671875,29.030000686645508,0.0,0.0,1.35321044921875,-0.1077423095703125,Waiting,0.0,0.0,22.0,0.0,0.0,0.0,0.0,0.0,
14.66801000000001,0.0,0.0,1771.0,0.0,0.0,0.0,0.0,0.0,0.8288573370000001,0.01,0.0,-812.0,0.0,0.0,-0.0,0.0,0.0,0.505371042,0.01,0.0,5607.0,0.0,0.0,0.0,0.0,0.125,3.38134731,0.01,0.0,633.0,0.0,0.0,-0.0,0.0,0.0,1.624755693,0.01,0.0,0.27000001072883606,87.25,-90.44000244140625,0.9970703125,0.00579833984375,-0.045654296875,29.030000686645508,0.0,-1.0,1.35321044921875,-0.1077423095703125,Waiting,0.0,0.0,22.0,0.0,0.0,0.0,0.0,0.0,
14.787748000000022,0.0,0.0,1771.0,0.0,0.0,0.0,0.0,0.0,0.8288573370000001,0.01,0.0,-812.0,0.0,0.0,-0.0,0.0,0.0,0.505371042,0.01,0.0,5607.0,0.0,0.0,0.0,0.0,0.125,3.38134731,0.01,0.0,633.0,0.0,0.0,-0.0,0.0,0.0,1.624755693,0.01,0.0,0.25999999046325684,87.25,-90.44000244140625,0.99737548828125,0.0047607421875,-0.045654296875,29.030000686645508,0.0,0.0,1.35321044921875,-0.1077423095703125,Waiting,0.0,0.0,22.0,0.0,0.0,0.0,0.0,0.0,
14.911907000000006,0.0,0.0,1771.0,0.0,0.0,0.0,0.0,0.0,0.8276366340000001,0.01,0.0,-812.0,0.0,0.0,-0.0,0.0,0.0,0.505371042,0.01,0.0,5607.0,0.0,0.0,0.0,0.0,0.125,3.382568013,0.01,0.0,633.0,0.0,0.0,-0.0,0.0,0.0,1.62353499,0.01,0.0,0.25999999046325684,87.25,-90.44000244140625,0.99774169921875,0.00457763671875,-0.0443115234375,29.030000686645508,0.0,0.0,1.35321044921875,-0.1077423095703125,Waiting,0.0,0.0,22.0,0.0,0.0,0.0,0.0,0.0,
15.028746000000043,0.0,0.0,1771.0,0.0,0.0,0.0,0.0,0.0,0.8288573370000001,0.01,0.0,-812.0,0.0,0.0,-0.0,0.0,0.0,0.506591745,0.01,0.0,5607.0,0.0,0.0,0.0,0.0,0.125,3.3801266070000002,0.01,0.0,633.0,0.0,0.0,-0.0,0.0,0.0,1.624755693,0.01,0.0,0.25999999046325684,87.25,-90.44000244140625,0.9979248046875,0.00244140625,-0.04803466796875,29.030000686645508,0.0,2.0,1.35321044921875,-0.1077423095703125,Waiting,0.0,0.0,22.0,0.0,0.0,0.0,0.0,0.0,
15.147950000000069,0.0,0.0,1771.0,0.0,0.0,0.0,0.0,0.0,0.8276366340000001,0.01,0.0,-812.0,0.0,0.0,-0.0,0.0,0.0,0.506591745,0.01,0.0,5607.0,0.0,0.0,0.0,0.0,0.125,3.38134731,0.01,0.0,633.0,0.0,0.0,-0.0,0.0,0.0,1.624755693,0.01,0.0,0.25999999046325684,87.26000213623047,-90.44000244140625,0.998291015625,0.00579833984375,-0.0467529296875,29.030000686645508,0.0,-1.0,1.35321044921875,-0.1077423095703125,Waiting,0.0,0.0,22.0,0.0,0.0,0.0,0.0,0.0,
15.271345000000089,0.0,0.0,1771.0,0.0,0.0,0.0,0.0,0.0,0.8288573370000001,0.01,0.0,-812.0,0.0,0.0,-0.0,0.0,0.0,0.505371042,0.01,0.0,5607.0,0.0,0.0,0.0,0.0,0.125,3.38134731,0.01,0.0,633.0,0.0,0.0,-0.0,0.0,0.0,1.625976396,0.01,0.0,0.25999999046325684,87.26000213623047,-90.44000244140625,0.9986572265625,0.00335693359375,-0.0484619140625,29.030000686645508,0.0,1.0,1.35321044921875,-0.1077423095703125,Waiting,0.0,0.0,22.0,0.0,0.0,0.0,0.0,0.0,
15.39232500000007,0.0,0.0,1771.0,0.0,0.0,0.0,0.0,0.0,0.8288573370000001,0.01,0.0,-812.0,0.0,0.0,-0.0,0.0,0.0,0.506591745,0.01,0.0,5607.0,0.0,0.0,0.0,0.0,0.125,3.38134731,0.01,0.0,633.0,0.0,0.0,-0.0,0.0,0.0,1.624755693,0.01,0.0,0.25999999046325684,87.26000213623047,-90.44000244140625,0.99755859375,0.00433349609375,-0.04534912109375,29.030000686645508,0.0,0.0,1.35321044921875,-0.1077423095703125,Waiting,0.0,0.0,22.0,0.0,0.0,0.0,0.0,0.0,
15.51311400000006,0.0,0.0,1771.0,0.0,0.0,0.0,0.0,0.0,0.826415931,0.01,0.0,-812.0,0.0,0.0,-0.0,0.0,0.0,0.506591745,0.01,0.0,5607.0,0.0,0.0,0.0,0.0,0.125,3.38134731,0.01,0.0,633.0,0.0,0.0,-0.0,0.0,0.0,1.624755693,0.01,0.0,0.25999999046325684,87.26000213623047,-90.44000244140625,0.99658203125,0.00408935546875,-0.04669189453125,29.059999465942383,0.0,0.0,1.35321044921875,-0.1077423095703125,Waiting,0.0,0.0,22.0,0.0,0.0,0.0,0.0,0.0,
15.63223999999999,0.0,0.0,1771.0,0.0,0.0,0.0,0.0,0.0,0.8288573370000001,0.01,0.0,-812.0,0.0,0.0,-0.0,0.0,0.0,0.506591745,0.01,0.0,5607.0,0.0,0.0,0.0,0.0,0.125,3.38134731,0.01,0.0,633.0,0.0,0.0,-0.0,0.0,0.0,1.624755693,0.01,0.0,0.25999999046325684,87.26000213623047,-90.44000244140625,0.996337890625,0.005126953125,-0.050048828125,29.059999465942383,0.0,0.0,1.35321044921875,-0.1077423095703125,Waiting,0.0,0.0,22.0,0.0,0.0,0.0,0.0,0.0,
15.750562000000034,0.0,0.0,1771.0,0.0,0.0,0.0,0.0,0.0,0.8288573370000001,0.01,0.0,-812.0,0.0,0.0,-0.0,0.0,0.0,0.506591745,0.01,0.0,5607.0,0.0,0.0,0.0,0.0,0.125,3.38134731,0.01,0.0,633.0,0.0,0.0,-0.0,0.0,0.0,1.624755693,0.01,0.0,0.27000001072883606,87.25,-90.44000244140625,0.99676513671875,0.0050048828125,-0.04852294921875,29.059999465942383,0.0,0.0,1.35321044921875,-0.1077423095703125,Waiting,0.0,0.0,22.0,0.0,0.0,0.0,0.0,0.0,
15.869915000000038,0.0,0.0,1771.0,0.0,0.0,0.0,0.0,0.0,0.8288573370000001,0.01,0.0,-812.0,0.0,0.0,-0.0,0.0,0.0,0.506591745,0.01,0.0,5607.0,0.0,0.0,0.0,0.0,0.125,3.38134731,0.01,0.0,633.0,0.0,0.0,-0.0,0.0,0.0,1.624755693,0.01,0.0,0.27000001072883606,87.25,-90.44000244140625,0.99407958984375,0.0064697265625,-0.04510498046875,29.059999465942383,0.0,-2.0,1.35321044921875,-0.1077423095703125,Waiting,0.0,0.0,22.0,0.0,0.0,0.0,0.0,0.0,
15.986472999999998,0.0,0.0,1771.0,0.0,0.0,0.0,0.0,0.0,0.8276366340000001,0.01,0.0,-812.0,0.0,0.0,-0.0,0.0,0.0,0.505371042,0.01,0.0,5607.0,0.0,0.0,0.0,0.0,0.125,3.38134731,0.01,0.0,633.0,0.0,0.0,-0.0,0.0,0.0,1.624755693,0.01,0.0,0.27000001072883606,87.25,-90.44000244140625,0.99603271484375,0.0054931640625,-0.04400634765625,29.059999465942383,0.0,-1.0,1.35321044921875,-0.1077423095703125,Waiting,0.0,0.0,22.0,0.0,0.0,0.0,0.0,0.0,
16.10164100000006,0.0,0.0,1771.0,0.0,0.0,0.0,0.0,0.0,0.8288573370000001,0.01,0.0,-812.0,0.0,0.0,-0.0,0.0,0.0,0.505371042,0.01,0.0,5607.0,0.0,0.0,0.0,0.0,0.125,3.382568013,0.01,0.0,633.0,0.0,0.0,-0.0,0.0,0.0,1.624755693,0.01,0.0,0.27000001072883606,87.25,-90.44000244140625,0.9970703125,0.00677490234375,-0.0469970703125,29.030000686645508,0.0,-2.0,1.35321044921875,-0.1077423095703125,Waiting,0.0,0.0,22.0,0.0,0.0,0.0,0.0,0.0,
16.224975000000093,0.0,0.0,1771.0,0.0,0.0,0.0,0.0,0.0,0.8288573370000001,0.01,0.0,-812.0,0.0,0.0,-0.0,0.0,0.0,0.506591745,0.01,0.0,5607.0,0.0,0.0,0.0,0.0,0.125,3.382568013,0.01,0.0,633.0,0.0,0.0,-0.0,0.0,0.0,1.624755693,0.01,0.0,0.25999999046325684,87.25,-90.44000244140625,0.99688720703125,0.0067138671875,-0.0535888671875,29.030000686645508,0.0,0.0,1.35321044921875,-0.1077423095703125,Waiting,0.0,0.0,22.0,0.0,0.0,0.0,0.0,0.0,
16.335623000000023,0.0,0.0,1771.0,0.0,0.0,0.0,0.0,0.0,0.8288573370000001,0.01,0.0,-812.0,0.0,0.0,-0.0,0.0,0.0,0.505371042,0.01,0.0,5607.0,0.0,0.0,0.0,0.0,0.125,3.38134731,0.01,0.0,633.0,0.0,0.0,-0.0,0.0,0.0,1.624755693,0.01,0.0,0.27000001072883606,87.25,-90.44000244140625,0.99639892578125,0.00543212890625,-0.04498291015625,29.030000686645508,0.0,-1.0,1.35321044921875,-0.1077423095703125,Waiting,0.0,0.0,22.0,0.0,0.0,0.0,0.0,0.0,
16.457839000000035,0.0,0.0,1771.0,0.0,0.0,0.0,0.0,0.0,0.8276366340000001,0.01,0.0,-812.0,0.0,0.0,-0.0,0.0,0.0,0.506591745,0.01,0.0,5607.0,0.0,0.0,0.0,0.0,0.125,3.38134731,0.01,0.0,633.0,0.0,0.0,-0.0,0.0,0.0,1.624755693,0.01,0.0,0.27000001072883606,87.25,-90.44000244140625,0.9990234375,0.00439453125,-0.04302978515625,29.030000686645508,0.0,0.0,1.35321044921875,-0.1077423095703125,Waiting,0.0,0.0,22.0,0.0,0.0,0.0,0.0,0.0,
16.578170000000043,0.0,0.0,1771.0,0.0,0.0,0.0,0.0,0.0,0.8276366340000001,0.01,0.0,-812.0,0.0,0.0,-0.0,0.0,0.0,0.506591745,0.01,0.0,5607.0,0.0,0.0,0.0,0.0,0.125,3.38134731,0.01,0.0,633.0,0.0,0.0,-0.0,0.0,0.0,1.624755693,0.01,0.0,0.27000001072883606,87.25,-90.44000244140625,0.9952392578125,0.00482177734375,-0.046630859375,29.040000915527344,0.0,0.0,1.35321044921875,-0.1077423095703125,Waiting,0.0,0.0,22.0,0.0,0.0,0.0,0.0,0.0,
16.69677600000007,0.0,0.0,1771.0,0.0,0.0,0.0,0.0,0.0,0.8288573370000001,0.01,0.0,-812.0,0.0,0.0,-0.0,0.0,0.0,0.506591745,0.01,0.0,5607.0,0.0,0.0,0.0,0.0,0.125,3.38134731,0.01,0.0,633.0,0.0,0.0,-0.0,0.0,0.0,1.624755693,0.01,0.0,0.27000001072883606,87.25,-90.43000030517578,0.996826171875,0.00445556640625,-0.04791259765625,29.040000915527344,0.0,0.0,1.35321044921875,-0.1077423095703125,Waiting,0.0,0.0,22.0,0.0,0.0,0.0,0.0,0.0,
