Time,ClimberA1,ClimberA2,FRpos,FRCurrent,FRspeed,FRsetpoint,FRApos,FRACurrent,FREncpos,FREncSetpoint,FREncSpeed,FLpos,FLCurrent,FLspeed,FLsetpoint,FLApos,FLACurrent,FLEncpos,FLEncSetpoint,FLEncSpeed,BRpos,BRCurrent,BRspeed,BRsetpoint,BRApos,BRACurrent,BREncpos,BREncSetpoint,BREncSpeed,BLpos,BLCurrent,BLspeed,BLsetpoint,BLApos,BLACurrent,BLEncpos,BLEncSetpoint,BLEncSpeed,navx_Pitch,navx_Roll,navx_Yaw,navx_XAcc,navx_YAcc,navx_ZAcc,navx_Temp,navx_Bar,navx_Alt,navx_XDis,navx_YDis,GearPlacerState,ShootOutputV,ShootOutputCurrent,ShootEncPos,ShootEncVelocity,ShootSpeed,ShootSetpoint,CarouselSetpoint,CarouselCurrent,
0.17077300000000015,0.0,0.0,99846.0,0.0,0.0,0.0,0.0,0.125,0.8581542090000001,0.01,0.0,-79971.0,0.0,0.0,0.0,0.0,0.125,0.5163573690000001,0.01,0.0,105423.0,0.0,0.0,0.0,0.0,0.0,3.3728023890000003,0.01,0.0,-81164.0,0.0,0.0,0.0,0.0,0.125,1.596679524,0.01,0.0,-0.3700000047683716,-1.0299999713897705,0.0,-0.0150146484375,-0.00616455078125,1.02203369140625,34.97999954223633,0.0,3.0,0.3390655517578125,1.8061370849609375,Waiting,0.0,0.0,0.0,0.0,0.0,0.0,0.0,0.0,
0.2136229999999996,0.0,0.0,99846.0,0.0,0.0,0.0,0.0,0.125,0.8581542090000001,0.01,0.048154209,-79971.0,0.0,0.0,-0.0,0.0,0.125,0.5163573690000001,0.01,0.008906666000000563,105423.0,0.0,0.0,0.0,0.0,0.0,3.3728023890000003,0.01,0.02158168600000021,-81164.0,0.0,0.0,-0.0,0.0,0.125,1.596679524,0.01,4.933458821,-0.3700000047683716,-1.0299999713897705,0.0,-0.0177001953125,-0.00830078125,1.02142333984375,34.97999954223633,0.0,0.0,0.3390655517578125,1.8061370849609375,Waiting,0.0,0.0,0.0,0.0,0.0,0.0,0.0,0.0,
0.24240200000000003,0.0,0.0,99846.0,0.0,0.0,0.0,0.0,0.25,0.8581542090000001,0.01,0.048154209,-79971.0,0.0,0.0,-0.0,0.0,0.0,0.5163573690000001,0.01,0.008906666000000563,105423.0,0.0,0.0,0.0,0.0,0.0,3.3715816860000003,0.01,0.02158168600000021,-81164.0,0.0,0.0,-0.0,0.0,0.25,1.594238118,0.01,4.933458821,-0.3700000047683716,-1.0299999713897705,0.0,-0.01702880859375,-0.00927734375,1.01678466796875,34.97999954223633,0.0,1.0,0.3390655517578125,1.8061370849609375,Waiting,0.0,0.0,0.0,0.0,0.0,0.0,0.0,0.0,
0.2679269999999997,0.0,0.0,99846.0,0.0,0.0,0.0,0.0,0.25,0.8569335060000001,0.01,0.0,-79971.0,0.0,0.0,-0.0,0.0,0.0,0.5163573690000001,0.01,0.0,105423.0,0.0,0.0,0.0,0.0,0.0,3.3728023890000003,0.01,0.0,-81164.0,0.0,0.0,-0.0,0.0,0.25,1.596679524,0.01,0.0,-0.3700000047683716,-1.0299999713897705,0.0,-0.0185546875,-0.0115966796875,1.017333984375,34.97999954223633,0.0,0.0,0.3390655517578125,1.8061370849609375,Waiting,0.0,0.0,0.0,0.0,0.0,0.0,0.0,0.0,
0.2944219999999996,0.0,0.0,99846.0,0.0,0.0,0.0,0.0,0.25,0.8581542090000001,0.01,0.0,-79971.0,0.0,0.0,-0.0,0.0,0.0,0.5151366660000001,0.01,0.0,105423.0,0.0,0.0,0.0,0.0,0.0,3.3740230920000003,0.01,0.0,-81164.0,0.0,0.0,-0.0,0.0,0.25,1.596679524,0.01,0.0,-0.3799999952316284,-1.0299999713897705,0.0,-0.0184326171875,-0.0078125,1.0150146484375,34.97999954223633,0.0,0.0,0.3390655517578125,1.8061370849609375,Waiting,0.0,0.0,0.0,0.0,0.0,0.0,0.0,0.0,
0.32492199999999954,0.0,0.0,99846.0,0.0,0.0,0.0,0.0,0.25,0.8581542090000001,0.01,-0.0012207029999999897,-79971.0,0.0,0.0,-0.0,0.0,0.0,0.5163573690000001,0.01,0.0,105423.0,0.0,0.0,0.0,0.0,0.0,3.3728023890000003,0.01,0.0,-81164.0,0.0,0.0,-0.0,0.0,0.25,1.596679524,0.01,0.0,-0.3700000047683716,-1.0299999713897705,0.0,-0.02117919921875,-0.0067138671875,1.023681640625,34.97999954223633,0.0,-2.0,0.3390655517578125,1.8061370849609375,Waiting,0.0,0.0,0.0,0.0,0.0,0.0,0.0,0.0,
0.3767610000000004,0.0,0.0,99846.0,0.0,0.0,0.0,0.0,0.25,0.8581542090000001,0.01,0.0012207029999999897,-79971.0,0.0,0.0,-0.0,0.0,0.0,0.5151366660000001,0.01,0.0,105423.0,0.0,0.0,0.0,0.0,0.0,3.3764644980000003,0.01,0.0012207029999999897,-81164.0,0.0,0.0,-0.0,0.0,0.25,1.596679524,0.01,0.0,-0.3799999952316284,-1.0299999713897705,0.0,-0.01806640625,-0.007568359375,1.02239990234375,34.97999954223633,0.0,0.0,0.3390655517578125,1.8061370849609375,Waiting,0.0,0.0,0.0,0.0,0.0,0.0,0.0,0.0,
0.4072470000000003,0.0,0.0,99846.0,0.0,0.0,0.0,0.0,0.25,0.8581542090000001,0.01,0.0012207029999999897,-79971.0,0.0,0.0,-0.0,0.0,0.0,0.5175780720000001,0.01,0.0,105423.0,0.0,0.0,0.0,0.0,0.0,3.3728023890000003,0.01,0.0012207029999999897,-81164.0,0.0,0.0,-0.0,0.0,0.25,1.596679524,0.01,0.0,-0.3700000047683716,-1.0299999713897705,0.0,-0.01318359375,-0.00799560546875,1.0228271484375,34.97999954223633,0.0,5.0,0.3390655517578125,1.8061370849609375,Waiting,0.0,0.0,0.0,0.0,0.0,0.0,0.0,0.0,
0.43108600000000025,0.0,0.0,99846.0,0.0,0.0,0.0,0.0,0.25,0.8581542090000001,0.01,-0.0012207029999999897,-79971.0,0.0,0.0,-0.0,0.0,0.0,0.5163573690000001,0.01,0.0,105423.0,0.0,0.0,0.0,0.0,0.0,3.3728023890000003,0.01,-0.0012207029999999897,-81164.0,0.0,0.0,-0.0,0.0,0.25,1.596679524,0.01,0.0,-0.3700000047683716,-1.0299999713897705,0.0,-0.01837158203125,-0.00689697265625,1.0262451171875,34.97999954223633,0.0,0.0,0.3390655517578125,1.8061370849609375,Waiting,0.0,0.0,0.0,0.0,0.0,0.0,0.0,0.0,
0.4523119999999999,0.0,0.0,99846.0,0.0,0.0,0.0,0.0,0.25,0.8581542090000001,0.01,-0.0012207029999999897,-79971.0,0.0,0.0,-0.0,0.0,0.0,0.518798775,0.01,0.0,105423.0,0.0,0.0,0.0,0.0,0.0,3.3728023890000003,0.01,-0.0012207029999999897,-81164.0,0.0,0.0,-0.0,0.0,0.25,1.596679524,0.01,0.0,-0.3700000047683716,-1.0299999713897705,0.0,-0.0179443359375,-0.00848388671875,1.02056884765625,34.97999954223633,0.0,0.0,0.3390655517578125,1.8061370849609375,Waiting,0.0,0.0,0.0,0.0,0.0,0.0,0.0,0.0,
0.4760550000000003,0.0,0.0,99846.0,0.0,0.0,0.0,0.0,0.25,0.8581542090000001,0.01,0.0012207029999999897,-79971.0,0.0,0.0,-0.0,0.0,0.0,0.5163573690000001,0.01,0.0,105423.0,0.0,0.0,0.0,0.0,0.0,3.3728023890000003,0.01,0.0012207029999999897,-81164.0,0.0,0.0,-0.0,0.0,0.25,1.596679524,0.01,0.0012207029999995456,-0.3700000047683716,-1.0299999713897705,0.0,-0.0186767578125,-0.01031494140625,1.02032470703125,34.97999954223633,0.0,0.0,0.3390655517578125,1.8061370849609375,Waiting,0.0,0.0,0.0,0.0,0.0,0.0,0.0,0.0,
0.5011360000000005,0.0,0.0,99846.0,0.0,0.0,0.0,0.0,0.25,0.8581542090000001,0.01,0.0012207029999999897,-79971.0,0.0,0.0,-0.0,0.0,0.0,0.5163573690000001,0.01,0.0,105423.0,0.0,0.0,0.0,0.0,0.0,3.3715816860000003,0.01,0.0012207029999999897,-81164.0,0.0,0.0,-0.0,0.0,0.25,1.596679524,0.01,0.0012207029999995456,-0.3700000047683716,-1.0299999713897705,0.0,-0.017578125,-0.008544921875,1.02752685546875,34.97999954223633,0.0,0.0,0.3390655517578125,1.8061370849609375,Waiting,0.0,0.0,0.0,0.0,0.0,0.0,0.0,0.0,
0.530482,0.0,0.0,99846.0,0.0,0.0,0.0,0.0,0.25,0.8581542090000001,0.01,-0.0012207029999999897,-79971.0,0.0,0.0,-0.0,0.0,0.0,0.5163573690000001,0.01,0.0,105423.0,0.0,0.0,0.0,0.0,0.0,3.3728023890000003,0.01,0.0,-81164.0,0.0,0.0,-0.0,0.0,0.25,1.596679524,0.01,-0.0012207029999995456,-0.3700000047683716,-1.0299999713897705,0.0,-0.01947021484375,-0.00726318359375,1.02001953125,34.97999954223633,0.0,-1.0,0.3390655517578125,1.8061370849609375,Waiting,0.0,0.0,0.0,0.0,0.0,0.0,0.0,0.0,
0.553326,0.0,0.0,99846.0,0.0,0.0,0.0,0.0,0.25,0.859374912,0.01,-0.0012207029999999897,-79971.0,0.0,0.0,-0.0,0.0,0.0,0.5163573690000001,0.01,0.0,105423.0,0.0,0.0,0.0,0.0,0.0,3.3728023890000003,0.01,0.0,-81164.0,0.0,0.0,-0.0,0.0,0.25,1.596679524,0.01,0.0,-0.3700000047683716,-1.0299999713897705,0.0,-0.01776123046875,-0.00830078125,1.0218505859375,34.97999954223633,0.0,0.0,0.3390655517578125,1.8061370849609375,Waiting,0.0,0.0,0.0,0.0,0.0,0.0,0.0,0.0,
0.5899740000000001,0.0,0.0,99846.0,0.0,0.0,0.0,0.0,0.25,0.847167882,0.01,0.0012207029999999897,-79971.0,0.0,0.0,-0.0,0.0,0.0,0.5151366660000001,0.01,0.0,105423.0,0.0,0.0,0.0,0.0,0.0,3.3728023890000003,0.01,0.0,-81164.0,0.0,0.0,-0.0,0.0,0.25,1.596679524,0.01,0.0,-0.3700000047683716,-1.0299999713897705,0.0,-0.0174560546875,-0.004638671875,1.02398681640625,34.97999954223633,0.0,0.0,0.3390655517578125,1.8061370849609375,Closing,0.0,0.0,0.0,0.0,0.0,0.0,0.0,0.0,
0.6112929999999996,0.0,0.0,99846.0,0.0,0.0,0.0,0.0,0.25,0.8581542090000001,0.01,0.0012207029999999897,-79971.0,0.0,0.0,-0.0,0.0,0.0,0.5163573690000001,0.01,0.0,105423.0,0.0,0.0,0.0,0.0,0.0,3.3728023890000003,0.01,0.0,-81164.0,0.0,0.0,-0.0,0.0,0.25,1.596679524,0.01,0.0,-0.3700000047683716,-1.0299999713897705,0.0,-0.01751708984375,-0.0042724609375,1.02001953125,34.97999954223633,0.0,0.0,0.3390655517578125,1.8061370849609375,Closing,0.0,0.0,0.0,0.0,0.0,0.0,0.0,0.0,
0.6385119999999997,0.0,0.0,99846.0,0.0,0.0,0.0,0.0,0.25,0.8569335060000001,0.01,-0.0012207029999999897,-79971.0,0.0,0.0,-0.0,0.0,0.0,0.5163573690000001,0.01,0.0,105423.0,0.0,0.0,0.0,0.0,0.0,3.3728023890000003,0.01,0.0,-81164.0,0.0,0.0,-0.0,0.0,0.25,1.596679524,0.01,0.0,-0.3700000047683716,-1.0299999713897705,0.0,-0.01593017578125,-0.0064697265625,1.01593017578125,34.97999954223633,0.0,2.0,0.3390655517578125,1.8061370849609375,Closing,0.0,0.0,0.0,0.0,0.0,0.0,0.0,0.0,
0.6598469999999997,0.0,0.0,99846.0,0.0,0.0,0.0,0.0,0.25,0.8581542090000001,0.01,0.0012207029999999897,-79971.0,0.0,0.0,-0.0,0.0,0.0,0.5163573690000001,0.01,0.0,105423.0,0.0,0.0,0.0,0.0,0.0,3.3715816860000003,0.01,0.0,-81164.0,0.0,0.0,-0.0,0.0,0.25,1.596679524,0.01,0.0,-0.3700000047683716,-1.0299999713897705,0.0,-0.01568603515625,-0.01007080078125,1.01983642578125,34.97999954223633,0.0,2.0,0.3390655517578125,1.8061370849609375,Closing,0.0,0.0,0.0,0.0,0.0,0.0,0.0,0.0,
0.686973,0.0,0.0,99846.0,0.0,0.0,0.0,0.0,0.25,0.8581542090000001,0.01,0.0012207029999999897,-79971.0,0.0,0.0,-0.0,0.0,0.0,0.5163573690000001,0.01,0.0,105423.0,0.0,0.0,0.0,0.0,0.0,3.3728023890000003,0.01,0.0,-81164.0,0.0,0.0,-0.0,0.0,0.25,1.596679524,0.01,0.0,-0.3700000047683716,-1.0299999713897705,0.0,-0.019287109375,-0.00775146484375,1.01849365234375,34.97999954223633,0.0,0.0,0.3390655517578125,1.8061370849609375,Closing,0.0,0.0,0.0,0.0,0.0,0.0,0.0,0.0,
0.709246,0.0,0.0,99846.0,0.0,0.0,0.0,0.0,0.25,0.859374912,0.01,0.0012207029999999897,-79971.0,0.0,0.0,-0.0,0.0,0.0,0.5163573690000001,0.01,0.0,105423.0,0.0,0.0,0.0,0.0,0.0,3.3728023890000003,0.01,0.0,-81164.0,0.0,0.0,-0.0,0.0,0.25,1.596679524,0.01,0.0,-0.3700000047683716,-1.0299999713897705,0.0,-0.01837158203125,-0.01007080078125,1.0255126953125,34.97999954223633,0.0,0.0,0.3390655517578125,1.8061370849609375,Closing,0.0,0.0,0.0,0.0,0.0,0.0,0.0,0.0,
0.7384300000000003,0.0,0.0,99846.0,0.0,0.0,0.0,0.0,0.25,0.8581542090000001,0.01,0.0,-79971.0,0.0,0.0,-0.0,0.0,0.0,0.5163573690000001,0.01,0.0,105423.0,0.0,0.0,0.0,0.0,0.0,3.3740230920000003,0.01,0.0,-81164.0,0.0,0.0,-0.0,0.0,0.25,1.596679524,0.01,0.0,-0.3700000047683716,-1.0299999713897705,0.0,-0.02105712890625,-0.00823974609375,1.02215576171875,34.97999954223633,0.0,-2.0,0.3390655517578125,1.8061370849609375,Closing,0.0,0.0,0.0,0.0,0.0,0.0,0.0,0.0,
0.7692060000000002,0.0,0.0,99846.0,0.0,0.0,0.0,0.0,0.25,0.8581542090000001,0.01,0.0,-79971.0,0.0,0.0,-0.0,0.0,0.0,0.5163573690000001,0.01,0.0,105423.0,0.0,0.0,0.0,0.0,0.0,3.3740230920000003,0.01,0.0,-81164.0,0.0,0.0,-0.0,0.0,0.25,1.596679524,0.01,0.0,-0.3700000047683716,-1.0299999713897705,0.0,-0.01910400390625,-0.008544921875,1.0152587890625,34.97999954223633,0.0,0.0,0.3390655517578125,1.8061370849609375,Closing,0.0,0.0,0.0,0.0,0.0,0.0,0.0,0.0,
0.803795,0.0,0.0,99846.0,0.0,0.0,0.0,0.0,0.25,0.8581542090000001,0.01,0.0,-79971.0,0.0,0.0,-0.0,0.0,0.0,0.5163573690000001,0.01,0.0,105423.0,0.0,0.0,0.0,0.0,0.0,3.3715816860000003,0.01,0.0,-81164.0,0.0,0.0,-0.0,0.0,0.25,1.596679524,0.01,0.0,-0.3700000047683716,-1.0299999713897705,0.0,-0.017333984375,-0.00677490234375,1.0201416015625,34.97999954223633,0.0,1.0,0.3390655517578125,1.8061370849609375,Closing,0.0,0.0,0.0,0.0,0.0,0.0,0.0,0.0,
0.8274189999999999,0.0,0.0,99846.0,0.0,0.0,0.0,0.0,0.25,0.8581542090000001,0.01,0.0,-79971.0,0.0,0.0,-0.0,0.0,0.0,0.5163573690000001,0.01,0.0,105423.0,0.0,0.0,0.0,0.0,0.0,3.3728023890000003,0.01,-0.0012207029999999897,-81164.0,0.0,0.0,-0.0,0.0,0.25,1.596679524,0.01,0.0,-0.3700000047683716,-1.0299999713897705,0.0,-0.01824951171875,-0.00543212890625,1.02142333984375,34.97999954223633,0.0,0.0,0.3390655517578125,1.8061370849609375,Closing,0.0,0.0,0.0,0.0,0.0,0.0,0.0,0.0,
0.8547119999999996,0.0,0.0,99846.0,0.0,0.0,0.0,0.0,0.25,0.839843664,0.01,0.0,-79971.0,0.0,0.0,-0.0,0.0,0.0,0.5163573690000001,0.01,0.0,105423.0,0.0,0.0,0.0,0.0,0.0,3.3740230920000003,0.01,-0.0012207029999999897,-81164.0,0.0,0.0,-0.0,0.0,0.25,1.596679524,0.01,0.0012207029999995456,-0.3700000047683716,-1.0299999713897705,0.0,-0.01934814453125,-0.0072021484375,1.0250244140625,34.97999954223633,0.0,0.0,0.3390655517578125,1.8061370849609375,Closing,0.0,0.0,0.0,0.0,0.0,0.0,0.0,0.0,
0.8857600000000002,0.0,0.0,99846.0,0.0,0.0,0.0,0.0,0.25,0.8581542090000001,0.01,-0.0012207029999999897,-79971.0,0.0,0.0,-0.0,0.0,0.0,0.5163573690000001,0.01,0.0,105423.0,0.0,0.0,0.0,0.0,0.0,3.3728023890000003,0.01,0.0012207029999999897,-81164.0,0.0,0.0,-0.0,0.0,0.25,1.595458821,0.01,0.0012207029999995456,-0.3700000047683716,-1.0299999713897705,0.0,-0.0194091796875,-0.00762939453125,1.022216796875,34.95000076293945,0.0,0.0,0.3390655517578125,1.8061370849609375,Closing,0.0,0.0,0.0,0.0,0.0,0.0,0.0,0.0,
0.9101390000000001,0.0,0.0,99846.0,0.0,0.0,0.0,0.0,0.25,0.8581542090000001,0.01,-0.0012207029999999897,-79971.0,0.0,0.0,-0.0,0.0,0.0,0.5163573690000001,0.01,0.0,105423.0,0.0,0.0,0.0,0.0,0.0,3.3728023890000003,0.01,0.0,-81164.0,0.0,0.0,-0.0,0.0,0.25,1.596679524,0.01,-0.0012207029999995456,-0.3700000047683716,-1.0299999713897705,0.0,-0.01800537109375,-0.009765625,1.02056884765625,34.95000076293945,0.0,0.0,0.3390655517578125,1.8061370849609375,Closing,0.0,0.0,0.0,0.0,0.0,0.0,0.0,0.0,
0.9434660000000004,0.0,0.0,99846.0,0.0,0.0,0.0,0.0,0.25,0.8581542090000001,0.01,0.0,-79971.0,0.0,0.0,-0.0,0.0,0.0,0.5163573690000001,0.01,0.0,105423.0,0.0,0.0,0.0,0.0,0.0,3.3740230920000003,0.01,0.0,-81164.0,0.0,0.0,-0.0,0.0,0.25,1.596679524,0.01,-0.0012207029999995456,-0.3700000047683716,-1.0299999713897705,0.0,-0.01824951171875,-0.0068359375,1.01806640625,34.95000076293945,0.0,0.0,0.3390655517578125,1.8061370849609375,Closing,0.0,0.0,0.0,0.0,0.0,0.0,0.0,0.0,
0.9680979999999999,0.0,0.0,99846.0,0.0,0.0,0.0,0.0,0.25,0.859374912,0.01,0.0012207029999999897,-79971.0,0.0,0.0,-0.0,0.0,0.0,0.5175780720000001,0.01,0.0,105423.0,0.0,0.0,0.0,0.0,0.0,3.3728023890000003,0.01,0.0,-81164.0,0.0,0.0,-0.0,0.0,0.25,1.596679524,0.01,0.0,-0.3700000047683716,-1.0299999713897705,0.0,-0.01580810546875,-0.00677490234375,1.0147705078125,34.95000076293945,0.0,2.0,0.3390655517578125,1.8061370849609375,Closing,0.0,0.0,0.0,0.0,0.0,0.0,0.0,0.0,
0.9877479999999996,0.0,0.0,99846.0,0.0,0.0,0.0,0.0,0.25,0.8703612390000001,0.01,0.0012207029999999897,-79971.0,0.0,0.0,-0.0,0.0,0.0,0.5163573690000001,0.01,0.0,105423.0,0.0,0.0,0.0,0.0,0.0,3.3728023890000003,0.01,0.0,-81164.0,0.0,0.0,-0.0,0.0,0.25,1.596679524,0.01,0.0,-0.3700000047683716,-1.0299999713897705,0.0,-0.01611328125,-0.0037841796875,1.0218505859375,34.95000076293945,0.0,2.0,0.3390655517578125,1.8061370849609375,Closing,0.0,0.0,0.0,0.0,0.0,0.0,0.0,0.0,
1.0059790000000002,0.0,0.0,99846.0,0.0,0.0,0.0,0.0,0.25,0.8581542090000001,0.01,0.0012207029999999897,-79971.0,0.0,0.0,-0.0,0.0,0.0,0.5163573690000001,0.01,0.0,105423.0,0.0,0.0,0.0,0.0,0.0,3.3728023890000003,0.01,0.0,-81164.0,0.0,0.0,-0.0,0.0,0.25,1.596679524,0.01,0.0,-0.3700000047683716,-1.0299999713897705,0.0,-0.0196533203125,-0.0064697265625,1.018310546875,34.95000076293945,0.0,-1.0,0.3390655517578125,1.8061370849609375,Closing,0.0,0.0,0.0,0.0,0.0,0.0,0.0,0.0,
1.0283850000000003,0.0,0.0,99846.0,0.0,0.0,0.0,0.0,0.25,0.8581542090000001,0.01,0.0,-79971.0,0.0,0.0,-0.0,0.0,0.0,0.5151366660000001,0.01,0.0,105423.0,0.0,0.0,0.0,0.0,0.0,3.3715816860000003,0.01,-0.0012207029999999897,-81164.0,0.125,0.0,-0.0,0.0,0.25,1.596679524,0.01,0.0,-0.3700000047683716,-1.0299999713897705,0.0,-0.013427734375,-0.00616455078125,1.01934814453125,34.95000076293945,0.0,4.0,0.3390655517578125,1.8061370849609375,Closing,0.0,0.0,0.0,0.0,0.0,0.0,0.0,0.0,
1.0475100000000002,0.0,0.0,99846.0,0.0,0.0,0.0,0.0,0.25,0.8569335060000001,0.01,0.0,-79971.0,0.0,0.0,-0.0,0.0,0.0,0.5163573690000001,0.01,0.0,105423.0,0.0,0.0,0.0,0.0,0.0,3.3728023890000003,0.01,-0.0012207029999999897,-81164.0,0.0,0.0,-0.0,0.0,0.25,1.596679524,0.01,0.0,-0.3700000047683716,-1.0299999713897705,0.0,-0.01715087890625,-0.00604248046875,1.02178955078125,34.95000076293945,0.0,1.0,0.3390655517578125,1.8061370849609375,Closing,0.0,0.0,0.0,0.0,0.0,0.0,0.0,0.0,
1.0675060000000003,0.0,0.0,99846.0,0.0,0.0,0.0,0.0,0.25,0.8581542090000001,0.01,0.0,-79971.0,0.0,0.0,-0.0,0.0,0.0,0.5163573690000001,0.01,0.0,105423.0,0.0,0.0,0.0,0.0,0.0,3.3728023890000003,0.01,0.0012207029999999897,-81164.0,0.0,0.0,-0.0,0.0,0.25,1.596679524,0.01,0.0,-0.3700000047683716,-1.0299999713897705,0.0,-0.01715087890625,-0.00616455078125,1.0157470703125,34.95000076293945,0.0,1.0,0.3390655517578125,1.8061370849609375,Closing,0.0,0.0,0.0,0.0,0.0,0.0,0.0,0.0,
1.0880119999999998,0.0,0.0,99846.0,0.0,0.0,0.0,0.0,0.25,0.859374912,0.01,0.0,-79971.0,0.0,0.0,-0.0,0.0,0.0,0.5163573690000001,0.01,0.0,105423.0,0.0,0.0,0.0,0.0,0.0,3.3728023890000003,0.01,0.0012207029999999897,-81164.0,0.0,0.0,-0.0,0.0,0.25,1.596679524,0.01,0.0,-0.3700000047683716,-1.0299999713897705,0.0,-0.0189208984375,-0.00445556640625,1.017578125,34.95000076293945,0.0,0.0,0.3390655517578125,1.8061370849609375,Closing,0.0,0.0,0.0,0.0,0.0,0.0,0.0,0.0,
1.1079560000000002,0.0,0.0,99846.0,0.0,0.0,0.0,0.0,0.25,0.8581542090000001,0.01,0.0,-79971.0,0.0,0.0,-0.0,0.0,0.0,0.5163573690000001,0.01,0.0,105423.0,0.0,0.0,0.0,0.0,0.0,3.3728023890000003,0.01,0.0012207029999999897,-81164.0,0.0,0.0,-0.0,0.0,0.25,1.593017415,0.01,0.0,-0.3700000047683716,-1.0299999713897705,0.0,-0.0164794921875,-0.00592041015625,1.02154541015625,34.95000076293945,0.0,1.0,0.3390655517578125,1.8061370849609375,Closing,0.0,0.0,0.0,0.0,0.0,0.0,0.0,0.0,
1.129902,0.0,0.0,99846.0,0.0,0.0,0.0,0.0,0.25,0.8581542090000001,0.01,0.0,-79971.0,0.0,0.0,-0.0,0.0,0.0,0.5151366660000001,0.01,0.0,105423.0,0.0,0.0,0.0,0.0,0.0,3.3728023890000003,0.01,0.0,-81164.0,0.0,0.0,-0.0,0.0,0.25,1.596679524,0.01,0.0,-0.3700000047683716,-1.0299999713897705,0.0,-0.01898193359375,-0.00469970703125,1.0185546875,34.95000076293945,0.0,0.0,0.3390655517578125,1.8061370849609375,Closing,0.0,0.0,0.0,0.0,0.0,0.0,0.0,0.0,
1.1481329999999998,0.0,0.0,99846.0,0.0,0.0,0.0,0.0,0.25,0.8581542090000001,0.01,0.0,-79971.0,0.0,0.0,-0.0,0.0,0.0,0.5163573690000001,0.01,0.0,105423.0,0.0,0.0,0.0,0.0,0.0,3.3715816860000003,0.01,0.0,-81164.0,0.0,0.0,-0.0,0.0,0.25,1.596679524,0.01,0.0,-0.3799999952316284,-1.0299999713897705,0.0,-0.0189208984375,-0.00823974609375,1.0235595703125,34.95000076293945,0.0,0.0,0.3390655517578125,1.8061370849609375,Closing,0.0,0.0,0.0,0.0,0.0,0.0,0.0,0.0,
1.1673310000000001,0.0,0.0,99846.0,0.0,0.0,0.0,0.0,0.25,0.859374912,0.01,-0.0012207029999999897,-79971.0,0.0,0.0,-0.0,0.0,0.0,0.5163573690000001,0.01,0.0,105423.0,0.0,0.0,0.0,0.0,0.0,3.3728023890000003,0.01,0.0,-81164.0,0.0,0.0,-0.0,0.0,0.25,1.595458821,0.01,0.0,-0.3799999952316284,-1.0299999713897705,0.0,-0.01885986328125,-0.0069580078125,1.01922607421875,34.95000076293945,0.0,0.0,0.3390655517578125,1.8061370849609375,Closing,0.0,0.0,0.0,0.0,0.0,0.0,0.0,0.0,
1.1877690000000003,0.0,0.0,99846.0,0.0,0.0,0.0,0.0,0.25,0.8581542090000001,0.01,-0.0012207029999999897,-79971.0,0.0,0.0,-0.0,0.0,0.0,0.5151366660000001,0.01,0.0,105423.0,0.0,0.0,0.0,0.0,0.0,3.3715816860000003,0.01,-0.0012207029999999897,-81164.0,0.0,0.0,-0.0,0.0,0.25,1.596679524,0.01,0.0,-0.3700000047683716,-1.0399999618530273,0.0,-0.01763916015625,-0.0048828125,1.01727294921875,34.95000076293945,0.0,0.0,0.3390655517578125,1.8061370849609375,Closing,0.0,0.0,0.0,0.0,0.0,0.0,0.0,0.0,
1.2082879999999996,0.0,0.0,99846.0,0.0,0.0,0.0,0.0,0.25,0.8581542090000001,0.01,-0.0012207029999999897,-79971.0,0.0,0.0,-0.0,0.0,0.0,0.5163573690000001,0.01,0.0,105423.0,0.0,0.0,0.0,0.0,0.0,3.3728023890000003,0.01,-0.0012207029999999897,-81164.0,0.0,0.0,-0.0,0.0,0.25,1.59912093,0.01,0.0,-0.3700000047683716,-1.0299999713897705,0.0,-0.01849365234375,-0.0064697265625,1.02392578125,34.95000076293945,0.0,0.0,0.3390655517578125,1.8061370849609375,Opening,0.0,0.0,0.0,0.0,0.0,0.0,0.0,0.0,
1.2304110000000001,0.0,0.0,99846.0,0.0,0.0,0.0,0.0,0.25,0.8569335060000001,0.01,0.0,-79971.0,0.0,0.0,-0.0,0.0,0.0,0.5163573690000001,0.01,0.0,105423.0,0.0,0.0,0.0,0.0,0.0,3.3728023890000003,0.01,0.0012207029999999897,-81164.0,0.0,0.0,-0.0,0.0,0.25,1.596679524,0.01,0.0,-0.3700000047683716,-1.0299999713897705,0.0,-0.0203857421875,-0.0069580078125,1.01776123046875,34.95000076293945,0.0,-2.0,0.3390655517578125,1.8061370849609375,Opening,0.0,0.0,0.0,0.0,0.0,0.0,0.0,0.0,
1.24941,0.0,0.0,99846.0,0.0,0.0,0.0,0.0,0.25,0.8569335060000001,0.01,0.0,-79971.0,0.0,0.0,-0.0,0.0,0.0,0.5163573690000001,0.01,0.0,105423.0,0.0,0.0,0.0,0.0,0.0,3.3728023890000003,0.01,0.0012207029999999897,-81164.0,0.0,0.0,-0.0,0.0,0.25,1.596679524,0.01,0.0,-0.3700000047683716,-1.0299999713897705,0.0,-0.0235595703125,-0.01434326171875,1.0384521484375,34.95000076293945,0.0,-4.0,0.3390655517578125,1.8061370849609375,Opening,0.0,0.0,0.0,0.0,0.0,0.0,0.0,0.0,
1.2690950000000003,0.0,0.0,99846.0,0.0,0.0,0.0,0.0,0.25,0.8581542090000001,0.01,0.0012207029999999897,-79971.0,0.0,0.0,-0.0,0.0,0.0,0.5151366660000001,0.01,0.0,105423.0,0.0,0.0,0.0,0.0,0.0,3.3728023890000003,0.01,0.0012207029999999897,-81164.0,0.0,0.0,-0.0,0.0,0.25,1.596679524,0.01,0.0,-0.3700000047683716,-1.0299999713897705,0.0,-0.0113525390625,-0.01025390625,1.00164794921875,34.95000076293945,0.0,6.0,0.3390655517578125,1.8061370849609375,Opening,0.0,0.0,0.0,0.0,0.0,0.0,0.0,0.0,
1.289812,0.0,0.0,99846.0,0.0,0.0,0.0,0.0,0.25,0.8581542090000001,0.01,0.0012207029999999897,-79971.0,0.0,0.0,-0.0,0.0,0.0,0.5163573690000001,0.01,0.0,105423.0,0.0,0.0,0.0,0.0,0.0,3.3715816860000003,0.01,0.0,-81164.0,0.0,0.0,-0.0,0.0,0.25,1.595458821,0.01,0.0,-0.3700000047683716,-1.0399999618530273,0.0,0.01361083984375,0.0126953125,1.077880859375,34.95000076293945,0.0,33.0,0.3390960693359375,1.80609130859375,Opening,0.0,0.0,0.0,0.0,0.0,0.0,0.0,0.0,
1.3083850000000001,0.0,0.0,99846.0,0.0,0.0,0.0,0.0,0.25,0.859374912,0.01,0.0012207029999999897,-79971.0,0.0,0.0,-0.0,0.0,0.0,0.5163573690000001,0.01,0.0,105423.0,0.0,0.0,0.0,0.0,0.0,3.3728023890000003,0.01,0.0,-81164.0,0.0,0.0,-0.0,0.0,0.25,1.596679524,0.01,0.0,-0.36000001430511475,-1.0199999809265137,0.0,-0.012451171875,0.0245361328125,1.058837890625,34.95000076293945,0.0,6.0,0.3391265869140625,1.80609130859375,Opening,0.0,0.0,0.0,0.0,0.0,0.0,0.0,0.0,
1.3307240000000002,0.0,0.0,99846.0,0.0,0.0,0.0,0.0,0.25,0.859374912,0.01,0.0,-79971.0,0.0,0.0,-0.0,0.0,0.0,0.5151366660000001,0.01,0.0,105423.0,0.0,0.0,0.0,0.0,0.0,3.3728023890000003,0.01,0.0,-81164.0,0.0,0.0,-0.0,0.0,0.25,1.596679524,0.01,0.0012207029999995456,-0.3700000047683716,-1.0299999713897705,0.0,-0.05633544921875,0.001708984375,1.08447265625,34.95000076293945,0.0,-36.0,0.3391571044921875,1.8061370849609375,Opening,0.0,0.0,0.0,0.0,0.0,0.0,0.0,0.0,
1.3504849999999997,0.0,0.0,99846.0,0.0,0.0,0.0,0.0,0.25,0.8581542090000001,0.01,0.0,-79971.0,0.0,0.0,-0.0,0.0,0.0,0.5163573690000001,0.01,0.0,105423.0,0.0,0.0,0.0,0.0,0.0,3.3728023890000003,0.01,0.0,-81164.0,0.0,0.0,-0.0,0.0,0.25,1.596679524,0.01,0.0012207029999995456,-0.36000001430511475,-1.0199999809265137,0.0,-0.0333251953125,0.01165771484375,1.024658203125,34.95000076293945,0.0,-15.0,0.3392333984375,1.8063507080078125,Opening,0.0,0.0,0.0,0.0,0.0,0.0,0.0,0.0,
1.3690519999999997,0.0,0.0,99846.0,0.0,0.0,0.0,0.0,0.25,0.859374912,0.01,-0.0012207029999999897,-79971.0,0.0,0.0,-0.0,0.0,0.0,0.5163573690000001,0.01,0.0,105423.0,0.0,0.0,0.0,0.0,0.0,3.3728023890000003,0.01,0.0,-81164.0,0.0,0.0,-0.0,0.0,0.25,1.595458821,0.01,-0.0012207029999995456,-0.36000001430511475,-1.0199999809265137,0.0,-0.048828125,0.01513671875,0.9964599609375,34.95000076293945,0.0,-31.0,0.3392333984375,1.8065185546875,Opening,0.0,0.0,0.0,0.0,0.0,0.0,0.0,0.0,
1.389782,0.0,0.0,99846.0,0.0,0.0,0.0,0.0,0.25,0.8581542090000001,0.01,-0.0012207029999999897,-79971.0,0.0,0.0,-0.0,0.0,0.0,0.5151366660000001,0.01,0.0,105423.0,0.0,0.0,0.0,0.0,0.0,3.3728023890000003,0.01,0.0,-81164.0,0.0,0.0,-0.0,0.0,0.25,1.596679524,0.01,-0.0012207029999995456,-0.36000001430511475,-1.0199999809265137,0.0,-0.0316162109375,-0.0137939453125,1.00750732421875,35.0,0.0,-13.0,0.3392181396484375,1.80670166015625,Opening,0.0,0.0,0.0,0.0,0.0,0.0,0.0,0.0,
1.4075339999999996,0.0,0.0,99846.0,0.0,0.0,0.0,0.0,0.25,0.8569335060000001,0.01,-0.0012207029999999897,-79971.0,0.0,0.0,-0.0,0.0,0.0,0.5163573690000001,0.01,0.0,105423.0,0.0,0.0,0.0,0.0,0.0,3.3728023890000003,0.01,0.0,-81164.0,0.0,0.0,-0.0,0.0,0.25,1.596679524,0.01,-0.0012207029999995456,-0.36000001430511475,-1.0199999809265137,0.0,-0.03619384765625,-0.004638671875,1.05963134765625,35.0,0.0,-17.0,0.33917236328125,1.8068695068359375,Opening,0.0,0.0,0.0,0.0,0.0,0.0,0.0,0.0,
1.4294380000000002,0.0,0.0,99846.0,0.0,0.0,0.0,0.0,0.25,0.8581542090000001,0.01,0.0,-79971.0,0.0,0.0,-0.0,0.0,0.0,0.5163573690000001,0.01,0.0,105423.0,0.0,0.0,0.0,0.0,0.0,3.3715816860000003,0.01,0.0,-81164.0,0.0,0.0,-0.0,0.0,0.25,1.596679524,0.01,0.0,-0.36000001430511475,-1.0199999809265137,0.0,-0.21026611328125,-0.09844970703125,1.02874755859375,35.0,0.0,-191.0,0.33905029296875,1.8072052001953125,Opening,0.0,0.0,0.0,0.0,0.0,0.0,0.0,0.0,
1.4488190000000005,0.0,0.0,99846.0,0.0,0.0,0.0,0.0,0.25,0.859374912,0.01,0.0,-79971.0,0.0,0.0,-0.0,0.0,0.0,0.5163573690000001,0.01,0.0,105423.0,0.0,0.0,0.0,0.0,0.0,3.3703609830000003,0.01,0.0,-81164.0,0.0,0.0,-0.0,0.0,0.25,1.595458821,0.01,0.0,-0.4399999976158142,-1.0,0.009999999776482582,0.2064208984375,-0.03106689453125,0.8638916015625,35.0,0.0,221.0,0.338958740234375,1.807281494140625,Opening,0.0,0.0,0.0,0.0,0.0,0.0,0.0,0.0,
1.467615,0.0,0.0,99846.0,0.0,0.0,0.0,0.0,0.25,0.8581542090000001,0.01,0.0012207029999999897,-79971.0,0.0,0.0,-0.0,0.0,0.0,0.5163573690000001,0.01,0.0,105423.0,0.0,0.0,0.0,0.0,0.0,3.3728023890000003,0.01,0.0,-81164.0,0.0,0.0,-0.0,0.0,0.25,1.596679524,0.01,0.0,-0.3400000035762787,-1.0099999904632568,0.0,0.02362060546875,-0.010009765625,1.10595703125,35.0,0.0,43.0,0.3391571044921875,1.8075103759765625,Opening,0.0,0.0,0.0,0.0,0.0,0.0,0.0,0.0,
1.4974290000000001,0.0,0.0,99846.0,0.0,0.0,0.0,0.0,0.25,0.8581542090000001,0.01,0.0012207029999999897,-79971.0,0.0,0.0,-0.0,0.0,0.0,0.5163573690000001,0.01,0.0,105423.0,0.0,0.0,0.0,0.0,0.0,3.3740230920000003,0.01,0.0,-81164.0,0.125,0.0,-0.0,0.0,0.25,1.597900227,0.01,0.0,-0.33000001311302185,-1.0099999904632568,0.0,-0.0440673828125,-0.13037109375,1.05242919921875,35.0,0.0,-25.0,0.3396453857421875,1.8079986572265625,Opening,0.0,0.0,0.0,0.0,0.0,0.0,0.0,0.0,
1.5146080000000002,0.0,0.0,99846.0,0.0,0.0,0.0,0.0,0.25,0.8581542090000001,0.01,0.0012207029999999897,-79971.0,0.0,0.0,-0.0,0.0,0.0,0.5163573690000001,0.01,0.0,105423.0,0.0,0.0,0.0,0.0,0.0,3.3728023890000003,0.01,0.0,-81164.0,0.125,0.0,-0.0,0.0,0.25,1.596679524,0.01,0.0,-0.3700000047683716,-1.0399999618530273,0.0,-0.01287841796875,-0.0343017578125,1.1385498046875,35.0,0.0,7.0,0.3398895263671875,1.80816650390625,Opening,0.0,0.0,0.0,0.0,0.0,0.0,0.0,0.0,
1.5364849999999997,0.0,0.0,99846.0,0.0,0.0,0.0,0.0,0.25,0.8581542090000001,0.01,0.0,-79971.0,0.0,0.0,-0.0,0.0,0.0,0.5163573690000001,0.01,0.0,105423.0,0.0,0.0,0.0,0.0,0.0,3.3740230920000003,0.01,0.0,-81164.0,0.0,0.0,-0.0,0.0,0.25,1.596679524,0.01,0.0,-0.3700000047683716,-0.9900000095367432,0.0,-0.02191162109375,-0.0777587890625,0.94244384765625,35.0,0.0,-5.0,0.34014892578125,1.808258056640625,Opening,0.0,0.0,0.0,0.0,0.0,0.0,0.0,0.0,
1.5554560000000002,0.0,0.0,99846.0,0.0,0.0,0.0,0.0,0.25,0.8581542090000001,0.01,0.0,-79971.0,0.0,0.0,-0.0,0.0,0.0,0.5163573690000001,0.01,0.0,105423.0,0.0,0.0,0.0,0.0,0.0,3.3728023890000003,0.01,0.0,-81164.0,0.0,0.0,-0.0,0.0,0.25,1.596679524,0.01,0.0,-0.38999998569488525,-1.0,0.0,0.002685546875,-0.04119873046875,1.044677734375,35.0,0.0,21.0,0.3404083251953125,1.8082733154296875,Opening,0.0,0.0,0.0,0.0,0.0,0.0,0.0,0.0,
1.5760209999999997,0.0,0.0,99846.0,0.0,0.0,0.0,0.0,0.25,0.8581542090000001,0.01,-0.0012207029999999897,-79971.0,0.0,0.0,-0.0,0.0,0.0,0.5163573690000001,0.01,0.0,105423.0,0.0,0.0,0.0,0.0,0.0,3.3728023890000003,0.01,0.0,-81164.0,0.0,0.0,-0.0,0.0,0.25,1.596679524,0.01,0.0,-0.3799999952316284,-1.0199999809265137,0.0,-0.052734375,0.01544189453125,1.0672607421875,35.0,0.0,-33.0,0.3409881591796875,1.8083038330078125,Opening,0.0,0.0,0.0,0.0,0.0,0.0,0.0,0.0,
1.594335,0.0,0.0,99846.0,0.0,0.0,0.0,0.0,0.25,0.8581542090000001,0.01,-0.0012207029999999897,-79971.0,0.0,0.0,-0.0,0.0,0.0,0.5163573690000001,0.01,0.0,105423.0,0.0,0.0,0.0,0.0,0.0,3.3728023890000003,0.01,0.0,-81164.0,0.0,0.0,-0.0,0.0,0.25,1.596679524,0.01,0.0,-0.3700000047683716,-1.0199999809265137,0.0,-0.009765625,0.03900146484375,1.0198974609375,35.0,0.0,8.0,0.34124755859375,1.808380126953125,Opening,0.0,0.0,0.0,0.0,0.0,0.0,0.0,0.0,
1.612852,0.0,0.0,99846.0,0.0,0.0,0.0,0.0,0.25,0.8581542090000001,0.01,-0.0012207029999999897,-79971.0,0.0,0.0,-0.0,0.0,0.0,0.5163573690000001,0.01,0.0,105423.0,0.0,0.0,0.0,0.0,0.0,3.3728023890000003,0.01,0.0,-81164.0,0.0,0.0,-0.0,0.0,0.25,1.596679524,0.01,0.0,-0.3799999952316284,-1.0,0.0,0.0382080078125,0.0089111328125,0.9002685546875,35.0,0.0,54.0,0.3415679931640625,1.808502197265625,Opening,0.0,0.0,0.0,0.0,0.0,0.0,0.0,0.0,
1.6343819999999996,0.0,0.0,99846.0,0.0,0.0,0.0,0.0,0.25,0.859374912,0.01,0.0012207029999999897,-79971.0,0.0,0.0,-0.0,0.0,0.0,0.5163573690000001,0.01,0.0,105423.0,0.0,0.0,0.0,0.0,0.0,3.3740230920000003,0.01,0.0,-81164.0,0.0,0.0,-0.0,0.0,0.25,1.596679524,0.01,0.0,-0.3499999940395355,-1.0199999809265137,0.0,-0.0260009765625,0.01947021484375,1.13165283203125,35.0,0.0,-5.0,0.3422393798828125,1.808502197265625,Opening,0.0,0.0,0.0,0.0,0.0,0.0,0.0,0.0,
1.652759,0.0,0.0,99846.0,0.0,0.0,0.0,0.0,0.25,0.871581942,0.01,0.0012207029999999897,-79971.0,0.0,0.0,-0.0,0.0,0.0,0.5163573690000001,0.01,0.0,105423.0,0.0,0.0,0.0,0.0,0.0,3.3728023890000003,0.01,0.0,-81164.0,0.0,0.0,-0.0,0.0,0.25,1.596679524,0.01,0.0,-0.3499999940395355,-1.0,0.0,-0.0067138671875,-0.052490234375,1.00543212890625,35.0,0.0,10.0,0.3422393798828125,1.808502197265625,Opening,0.0,0.0,0.0,0.0,0.0,0.0,0.0,0.0,
1.6739390000000003,0.0,0.0,99846.0,0.0,0.0,0.0,0.0,0.25,0.8581542090000001,0.01,0.0,-79971.0,0.0,0.0,-0.0,0.0,0.0,0.5163573690000001,0.01,0.0,105423.0,0.0,0.0,0.0,0.0,0.0,3.3740230920000003,0.01,0.0,-81164.0,0.0,0.0,-0.0,0.0,0.25,1.596679524,0.01,0.0,-0.38999998569488525,-1.0199999809265137,0.0,2.44140625E-4,-1.8310546875E-4,1.007568359375,35.0,0.0,18.0,0.3422393798828125,1.8084716796875,Opening,0.0,0.0,0.0,0.0,0.0,0.0,0.0,0.0,
1.6931180000000003,0.0,0.0,99846.0,0.0,0.0,0.0,0.0,0.25,0.8581542090000001,0.01,0.0,-79971.0,0.0,0.0,-0.0,0.0,0.0,0.5163573690000001,0.01,0.0,105423.0,0.0,0.0,0.0,0.0,0.0,3.3728023890000003,0.01,0.0,-81164.0,0.0,0.0,-0.0,0.0,0.25,1.596679524,0.01,0.0,-0.36000001430511475,-0.9900000095367432,0.0,-0.0289306640625,-0.0274658203125,1.0018310546875,35.0,0.0,-11.0,0.3422393798828125,1.8084564208984375,Opening,0.0,0.0,0.0,0.0,0.0,0.0,0.0,0.0,
1.7158860000000005,0.0,0.0,99846.0,0.0,0.0,0.0,0.0,0.25,0.8581542090000001,0.01,0.0,-79971.0,0.0,0.0,-0.0,0.0,0.0,0.5163573690000001,0.01,0.0,105423.0,0.0,0.0,0.0,0.0,0.0,3.3728023890000003,0.01,0.0,-81164.0,0.0,0.0,-0.0,0.0,0.25,1.596679524,0.01,0.0,-0.36000001430511475,-1.0099999904632568,0.0,-0.00250244140625,-0.00689697265625,1.0135498046875,35.0,0.0,15.0,0.3422393798828125,1.8084259033203125,Opening,0.0,0.0,0.0,0.0,0.0,0.0,0.0,0.0,
1.7411220000000003,0.0,0.0,99846.0,0.0,0.0,0.0,0.0,0.25,0.8581542090000001,0.01,0.0,-79971.0,0.0,0.0,-0.0,0.0,0.0,0.5163573690000001,0.01,0.0,105423.0,0.0,0.0,0.0,0.0,0.0,3.3728023890000003,0.01,0.0,-81164.0,0.0,0.0,-0.0,0.0,0.25,1.594238118,0.01,0.0,-0.3499999940395355,-1.0399999618530273,0.0,-0.15966796875,-0.0394287109375,1.05316162109375,35.0,0.0,-140.0,0.3420867919921875,1.8083038330078125,Opening,0.0,0.0,0.0,0.0,0.0,0.0,0.0,0.0,
1.7593739999999998,0.0,0.0,99846.0,0.0,0.0,0.0,0.0,0.25,0.859374912,0.01,0.0,-79971.0,0.0,0.0,-0.0,0.0,0.0,0.5163573690000001,0.01,0.0,105423.0,0.0,0.0,0.0,0.0,0.0,3.3728023890000003,0.01,0.0,-81164.0,0.0,0.0,-0.0,0.0,0.25,1.596679524,0.01,0.0,-0.3400000035762787,-1.0199999809265137,0.0,0.05352783203125,0.0233154296875,0.90130615234375,35.0,0.0,69.0,0.3419036865234375,1.8082122802734375,Opening,0.0,0.0,0.0,0.0,0.0,0.0,0.0,0.0,
1.7841289999999999,0.0,0.0,99846.0,0.0,0.0,0.0,0.0,0.25,0.8581542090000001,0.01,-0.0012207029999999897,-79971.0,0.0,0.0,-0.0,0.0,0.0,0.5175780720000001,0.01,0.0,105423.0,0.0,0.0,0.0,0.0,0.0,3.3728023890000003,0.01,-0.0012207029999999897,-81164.0,0.0,0.0,-0.0,0.0,0.25,1.596679524,0.01,0.0,-0.33000001311302185,-1.0299999713897705,0.0,0.0244140625,0.048095703125,1.0771484375,35.0,0.0,43.0,0.341796875,1.8081817626953125,Opening,0.0,0.0,0.0,0.0,0.0,0.0,0.0,0.0,
1.8056989999999997,0.0,0.0,99846.0,0.0,0.0,0.0,0.0,0.25,0.8581542090000001,0.01,-0.0012207029999999897,-79971.0,0.0,0.0,-0.0,0.0,0.0,0.5163573690000001,0.01,0.0,105423.0,0.0,0.0,0.0,0.0,0.0,3.3728023890000003,0.01,-0.0012207029999999897,-81164.0,0.0,0.0,-0.0,0.0,0.25,1.596679524,0.01,0.0,-0.3799999952316284,-1.0299999713897705,0.0,-0.02471923828125,0.03045654296875,0.89239501953125,35.0,0.0,-8.0,0.3417205810546875,1.8079986572265625,Opening,0.0,0.0,0.0,0.0,0.0,0.0,0.0,0.0,
1.8252699999999995,0.0,0.0,99846.0,0.0,0.0,0.0,0.0,0.25,0.8581542090000001,0.01,0.0,-79971.0,0.0,0.0,-0.0,0.0,0.0,0.5163573690000001,0.01,0.0,105423.0,0.0,0.0,0.0,0.0,0.0,3.3728023890000003,0.01,0.0,-81164.0,0.0,0.0,-0.0,0.0,0.25,1.595458821,0.01,0.0,-0.3700000047683716,-1.0399999618530273,0.0,-0.00616455078125,0.0189208984375,1.024169921875,35.0,0.0,12.0,0.3417205810546875,1.8079376220703125,Opening,0.0,0.0,0.0,0.0,0.0,0.0,0.0,0.0,
1.8480450000000002,0.0,0.0,99846.0,0.0,0.0,0.0,0.0,0.25,0.8581542090000001,0.01,0.0,-79971.0,0.0,0.0,-0.0,0.0,0.0,0.5163573690000001,0.01,0.0,105423.0,0.0,0.0,0.0,0.0,0.0,3.3715816860000003,0.01,0.0,-81164.0,0.0,0.0,-0.0,0.0,0.25,1.596679524,0.01,0.0,-0.3700000047683716,-1.0399999618530273,0.009999999776482582,-0.01959228515625,0.03240966796875,1.0067138671875,35.0,0.0,-1.0,0.3417205810546875,1.8079071044921875,Opening,0.0,0.0,0.0,0.0,0.0,0.0,0.0,0.0,
1.8711360000000004,0.0,0.0,99846.0,0.0,0.0,0.0,0.0,0.25,0.8581542090000001,0.01,0.0012207029999999897,-79971.0,0.0,0.0,-0.0,0.0,0.0,0.5163573690000001,0.01,0.0,105423.0,0.0,0.0,0.0,0.0,0.0,3.3728023890000003,0.01,0.0012207029999999897,-81164.0,0.0,0.0,-0.0,0.0,0.25,1.596679524,0.01,0.0,-0.3499999940395355,-1.0299999713897705,0.0,-0.0267333984375,-0.02789306640625,0.99700927734375,35.0,0.0,-8.0,0.3417205810546875,1.8079376220703125,Opening,0.0,0.0,0.0,0.0,0.0,0.0,0.0,0.0,
1.8930839999999998,0.0,0.0,99846.0,0.0,0.0,0.0,0.0,0.25,0.8581542090000001,0.01,0.0012207029999999897,-79971.0,0.0,0.0,-0.0,0.0,0.0,0.5151366660000001,0.01,0.0,105423.0,0.0,0.0,0.0,0.0,0.0,3.3728023890000003,0.01,0.0012207029999999897,-81164.0,0.0,0.0,-0.0,0.0,0.25,1.595458821,0.01,0.0,-0.36000001430511475,-1.059999942779541,0.0,-0.029052734375,-0.0087890625,1.09967041015625,35.0,0.0,-8.0,0.3417205810546875,1.8079376220703125,Opening,0.0,0.0,0.0,0.0,0.0,0.0,0.0,0.0,
1.9122240000000001,0.0,0.0,99846.0,0.0,0.0,0.0,0.0,0.25,0.8581542090000001,0.01,0.0012207029999999897,-79971.0,0.0,0.0,-0.0,0.0,0.0,0.5163573690000001,0.01,0.0,105423.0,0.0,0.0,0.0,0.0,0.0,3.3728023890000003,0.01,0.0012207029999999897,-81164.0,0.0,0.0,-0.0,0.0,0.25,1.596679524,0.01,0.0012207029999995456,-0.36000001430511475,-1.0399999618530273,0.0,-0.01629638671875,-0.01739501953125,1.03387451171875,35.0,0.0,2.0,0.3417205810546875,1.8079376220703125,Opening,0.0,0.0,0.0,0.0,0.0,0.0,0.0,0.0,
1.9347809999999999,0.0,0.0,99846.0,0.0,0.0,0.0,0.0,0.25,0.859374912,0.01,-0.0012207029999999897,-79971.0,0.0,0.0,-0.0,0.0,0.0,0.5163573690000001,0.01,0.0,105423.0,0.0,0.0,0.0,0.0,0.0,3.3728023890000003,0.01,0.0,-81164.0,0.0,0.0,-0.0,0.0,0.25,1.596679524,0.01,0.0012207029999995456,-0.3700000047683716,-1.0299999713897705,0.0,0.00933837890625,-0.0164794921875,1.0045166015625,35.0,0.0,27.0,0.34173583984375,1.8079376220703125,Opening,0.0,0.0,0.0,0.0,0.0,0.0,0.0,0.0,
1.9538459999999995,0.0,0.0,99846.0,0.0,0.0,0.0,0.0,0.25,0.8581542090000001,0.01,-0.0012207029999999897,-79971.0,0.0,0.0,-0.0,0.0,0.0,0.5163573690000001,0.01,0.0,105423.0,0.0,0.0,0.0,0.0,0.0,3.3740230920000003,0.01,0.0,-81164.0,0.0,0.0,-0.0,0.0,0.25,1.596679524,0.01,0.0012207029999995456,-0.3700000047683716,-1.0399999618530273,0.0,-0.0340576171875,-0.01092529296875,1.06597900390625,35.0,0.0,-14.0,0.341766357421875,1.8079376220703125,Opening,0.0,0.0,0.0,0.0,0.0,0.0,0.0,0.0,
1.9767089999999998,0.0,0.0,99846.0,0.0,0.0,0.0,0.0,0.25,0.8581542090000001,0.01,0.0,-79971.0,0.0,0.0,-0.0,0.0,0.0,0.5163573690000001,0.01,0.0,105423.0,0.0,0.0,0.0,0.0,0.0,3.3728023890000003,0.01,0.0,-81164.0,0.0,0.0,-0.0,0.0,0.25,1.596679524,0.01,-0.0012207029999995456,-0.3700000047683716,-1.0299999713897705,0.0,-0.0206298828125,0.00244140625,1.046142578125,35.0,0.0,-1.0,0.3417816162109375,1.8079376220703125,Opening,0.0,0.0,0.0,0.0,0.0,0.0,0.0,0.0,
1.9976930000000002,0.0,0.0,99846.0,0.0,0.0,0.0,0.0,0.25,0.8581542090000001,0.01,0.0,-79971.0,0.0,0.0,-0.0,0.0,0.0,0.5163573690000001,0.01,0.0,105423.0,0.0,0.0,0.0,0.0,0.0,3.3728023890000003,0.01,0.0,-81164.0,0.0,0.0,-0.0,0.0,0.25,1.596679524,0.01,-0.0012207029999995456,-0.36000001430511475,-1.0299999713897705,0.0,-0.03125,0.01708984375,1.01641845703125,35.0,0.0,-12.0,0.3417816162109375,1.80804443359375,Opening,0.0,0.0,0.0,0.0,0.0,0.0,0.0,0.0,
2.015446,0.0,0.0,99846.0,0.0,0.0,0.0,0.0,0.25,0.8581542090000001,0.01,0.0012207029999999897,-79971.0,0.0,0.0,-0.0,0.0,0.0,0.5163573690000001,0.01,0.0,105423.0,0.0,0.0,0.0,0.0,0.0,3.3728023890000003,0.01,0.0,-81164.0,0.0,0.0,-0.0,0.0,0.25,1.596679524,0.01,0.0,-0.36000001430511475,-1.0399999618530273,0.0,0.003662109375,-0.03338623046875,1.06463623046875,35.0,0.0,23.0,0.3417816162109375,1.80810546875,Opening,0.0,0.0,0.0,0.0,0.0,0.0,0.0,0.0,
2.037313,0.0,0.0,99846.0,0.0,0.0,0.0,0.0,0.25,0.8581542090000001,0.01,0.0012207029999999897,-79971.0,0.0,0.0,-0.0,0.0,0.0,0.5163573690000001,0.01,0.0,105423.0,0.0,0.0,0.0,0.0,0.0,3.3728023890000003,0.01,0.0,-81164.0,0.0,0.0,-0.0,0.0,0.25,1.596679524,0.01,0.0,-0.3799999952316284,-1.0399999618530273,0.0,-0.01348876953125,-0.0087890625,1.01239013671875,35.0,0.0,4.0,0.34185791015625,1.8081512451171875,Opening,0.0,0.0,0.0,0.0,0.0,0.0,0.0,0.0,
2.0660209999999997,0.0,0.0,99846.0,0.0,0.0,0.0,0.0,0.25,0.859374912,0.01,0.0012207029999999897,-79971.0,0.0,0.0,-0.0,0.0,0.0,0.5151366660000001,0.01,0.0,105423.0,0.0,0.0,0.0,0.0,0.0,3.3728023890000003,0.01,0.0,-81164.0,0.0,0.0,-0.0,0.0,0.25,1.596679524,0.01,0.0,-0.3799999952316284,-1.0299999713897705,0.0,-0.01995849609375,-0.023681640625,1.00982666015625,35.0,0.0,-1.0,0.34185791015625,1.8081512451171875,Opening,0.0,0.0,0.0,0.0,0.0,0.0,0.0,0.0,
2.088791,0.0,0.0,99846.0,0.0,0.0,0.0,0.0,0.25,0.8581542090000001,0.01,0.0,-79971.0,0.0,0.0,-0.0,0.0,0.0,0.5163573690000001,0.01,0.0,105423.0,0.0,0.0,0.0,0.0,0.0,3.3728023890000003,0.01,0.0,-81164.0,0.0,0.0,-0.0,0.0,0.25,1.596679524,0.01,0.0,-0.3700000047683716,-1.0299999713897705,0.0,-0.00225830078125,0.00469970703125,0.99432373046875,35.0,0.0,15.0,0.34185791015625,1.8081512451171875,Opening,0.0,0.0,0.0,0.0,0.0,0.0,0.0,0.0,
2.106371,0.0,0.0,99846.0,0.0,0.0,0.0,0.0,0.25,0.863037021,0.01,0.0,-79971.0,0.0,0.0,-0.0,0.0,0.0,0.5151366660000001,0.01,0.0,105423.0,0.0,0.0,0.0,0.0,0.0,3.3728023890000003,0.01,0.0,-81164.0,0.0,0.0,-0.0,0.0,0.25,1.596679524,0.01,0.0,-0.3700000047683716,-1.0399999618530273,0.0,-0.02484130859375,0.0191650390625,1.04400634765625,35.0,0.0,-5.0,0.34185791015625,1.8081817626953125,Opening,0.0,0.0,0.0,0.0,0.0,0.0,0.0,0.0,
2.130277,0.0,0.0,99846.0,0.0,0.0,0.0,0.0,0.25,0.8569335060000001,0.01,-0.0012207029999999897,-79971.0,0.0,0.0,-0.0,0.0,0.0,0.5163573690000001,0.01,0.0,105423.0,0.0,0.0,0.0,0.0,0.0,3.3728023890000003,0.01,0.0,-81164.0,0.0,0.0,-0.0,0.0,0.25,1.595458821,0.01,0.0012207029999995456,-0.3499999940395355,-1.0399999618530273,0.0,-0.0252685546875,-0.016357421875,1.00323486328125,35.0,0.0,-6.0,0.34185791015625,1.8082122802734375,Opening,0.0,0.0,0.0,0.0,0.0,0.0,0.0,0.0,
2.148273,0.0,0.0,99846.0,0.0,0.0,0.0,0.0,0.25,0.8581542090000001,0.01,-0.0012207029999999897,-79971.0,0.0,0.0,-0.0,0.0,0.0,0.5163573690000001,0.01,0.0,105423.0,0.0,0.0,0.0,0.0,0.0,3.3715816860000003,0.01,0.0,-81164.0,0.0,0.0,-0.0,0.0,0.25,1.596679524,0.01,0.0012207029999995456,-0.36000001430511475,-1.0199999809265137,0.0,0.01190185546875,-0.0513916015625,0.94677734375,35.0,0.0,28.0,0.3418731689453125,1.8082122802734375,Opening,0.0,0.0,0.0,0.0,0.0,0.0,0.0,0.0,
2.1689930000000004,0.0,0.0,99846.0,0.0,0.0,0.0,0.0,0.25,0.8581542090000001,0.01,0.0,-79971.0,0.0,0.0,-0.0,0.0,0.0,0.5163573690000001,0.01,0.0,105423.0,0.0,0.0,0.0,0.0,0.0,3.3728023890000003,0.01,0.0,-81164.0,0.0,0.0,-0.0,0.0,0.25,1.596679524,0.01,-0.0012207029999995456,-0.3700000047683716,-1.0399999618530273,0.0,0.04254150390625,-0.00701904296875,0.9718017578125,35.0,0.0,60.0,0.342010498046875,1.8080902099609375,Opening,0.0,0.0,0.0,0.0,0.0,0.0,0.0,0.0,
2.1909650000000003,0.0,0.0,99846.0,0.0,0.0,0.0,0.0,0.25,0.8581542090000001,0.01,0.0,-79971.0,0.0,0.0,-0.0,0.0,0.0,0.5163573690000001,0.01,0.0,105423.0,0.0,0.0,0.0,0.0,0.0,3.3728023890000003,0.01,0.0,-81164.0,0.0,0.0,-0.0,0.0,0.25,1.596679524,0.01,-0.0012207029999995456,-0.3700000047683716,-1.0399999618530273,0.0,-0.03350830078125,-0.03863525390625,1.02703857421875,35.0,0.0,-14.0,0.3421173095703125,1.8080596923828125,Opening,0.0,0.0,0.0,0.0,0.0,0.0,0.0,0.0,
2.2130360000000002,0.0,0.0,99846.0,0.0,0.0,0.0,0.0,0.25,0.8581542090000001,0.01,0.0,-79971.0,0.0,0.0,-0.0,0.0,0.0,0.5163573690000001,0.01,0.0,105423.0,0.0,0.0,0.0,0.0,0.0,3.3740230920000003,0.01,0.0,-81164.0,0.0,0.0,-0.0,0.0,0.25,1.596679524,0.01,0.0,-0.36000001430511475,-1.0399999618530273,0.0,-0.00250244140625,0.031982421875,1.0234375,35.0,0.0,16.0,0.34222412109375,1.8080291748046875,Opening,0.0,0.0,0.0,0.0,0.0,0.0,0.0,0.0,
2.2396580000000004,0.0,0.0,99846.0,0.0,0.0,0.0,0.0,0.25,0.8569335060000001,0.01,0.0012207029999999897,-79971.0,0.0,0.0,-0.0,0.0,0.0,0.5163573690000001,0.01,0.0,105423.0,0.0,0.0,0.0,0.0,0.0,3.3728023890000003,0.01,0.0,-81164.0,0.0,0.0,-0.0,0.0,0.25,1.596679524,0.01,0.0,-0.3700000047683716,-1.0399999618530273,0.0,-0.0048828125,-0.00439453125,0.99591064453125,35.0,0.0,13.0,0.34222412109375,1.80810546875,Opening,0.0,0.0,0.0,0.0,0.0,0.0,0.0,0.0,
2.256876,0.0,0.0,99846.0,0.0,0.0,0.0,0.0,0.25,0.8581542090000001,0.01,0.0012207029999999897,-79971.0,0.0,0.0,-0.0,0.0,0.0,0.5163573690000001,0.01,0.0,105423.0,0.0,0.0,0.0,0.0,0.0,3.3728023890000003,0.01,0.0,-81164.0,0.0,0.0,-0.0,0.0,0.25,1.596679524,0.01,0.0,-0.36000001430511475,-1.0399999618530273,0.0,-0.0206298828125,-0.01806640625,1.01959228515625,35.0,0.0,-2.0,0.34222412109375,1.80810546875,Opening,0.0,0.0,0.0,0.0,0.0,0.0,0.0,0.0,
2.283088,0.0,0.0,99846.0,0.0,0.0,0.0,0.0,0.25,0.8581542090000001,0.01,-0.0012207029999999897,-79971.0,0.0,0.0,-0.0,0.0,0.0,0.5163573690000001,0.01,0.0,105423.0,0.0,0.0,0.0,0.0,0.0,3.3740230920000003,0.01,0.0,-81164.0,0.0,0.0,-0.0,0.0,0.25,1.596679524,0.01,0.0,-0.3700000047683716,-1.0399999618530273,0.0,-0.02197265625,-0.00103759765625,1.044677734375,35.0,0.0,-2.0,0.34222412109375,1.80810546875,Opening,0.0,0.0,0.0,0.0,0.0,0.0,0.0,0.0,
2.3013909999999997,0.0,0.0,99846.0,0.0,0.0,0.0,0.0,0.25,0.8581542090000001,0.01,-0.0012207029999999897,-79971.0,0.0,0.0,-0.0,0.0,0.0,0.5163573690000001,0.01,0.0,105423.0,0.0,0.0,0.0,0.0,0.0,3.3728023890000003,0.01,0.0,-81164.0,0.0,0.0,-0.0,0.0,0.25,1.596679524,0.01,0.0,-0.3700000047683716,-1.0399999618530273,0.0,-0.02423095703125,-0.00830078125,1.010009765625,35.0,0.0,-5.0,0.34222412109375,1.80810546875,Opening,0.0,0.0,0.0,0.0,0.0,0.0,0.0,0.0,
2.320235,0.0,0.0,99846.0,0.0,0.0,0.0,0.0,0.25,0.8581542090000001,0.01,0.0012207029999999897,-79971.0,0.0,0.0,-0.0,0.0,0.0,0.5175780720000001,0.01,0.0,105423.0,0.0,0.0,0.0,0.0,0.0,3.3728023890000003,0.01,0.0,-81164.0,0.0,0.0,-0.0,0.0,0.25,1.596679524,0.01,0.0,-0.3700000047683716,-1.0499999523162842,0.0,-0.01611328125,-0.00299072265625,1.0352783203125,35.0,0.0,2.0,0.34222412109375,1.80810546875,Opening,0.0,0.0,0.0,0.0,0.0,0.0,0.0,0.0,
2.3424570000000005,0.0,0.0,99846.0,0.0,0.0,0.0,0.0,0.25,0.8581542090000001,0.01,0.0012207029999999897,-79971.0,0.0,0.0,-0.0,0.0,0.0,0.5163573690000001,0.01,0.0,105423.0,0.0,0.0,0.0,0.0,0.0,3.3728023890000003,0.01,0.0,-81164.0,0.0,0.0,-0.0,0.0,0.25,1.596679524,0.01,0.0,-0.3700000047683716,-1.0399999618530273,0.0,-0.021240234375,-0.0076904296875,1.01361083984375,35.0,0.0,-2.0,0.34222412109375,1.80810546875,Opening,0.0,0.0,0.0,0.0,0.0,0.0,0.0,0.0,
2.3612200000000003,0.0,0.0,99846.0,0.0,0.0,0.0,0.0,0.25,0.8422850700000001,0.01,0.0012207029999999897,-79971.0,0.0,0.0,-0.0,0.0,0.0,0.5163573690000001,0.01,0.0,105423.0,0.0,0.0,0.0,0.0,0.0,3.3728023890000003,0.01,0.0,-81164.0,0.0,0.0,-0.0,0.0,0.25,1.596679524,0.01,0.0,-0.36000001430511475,-1.0399999618530273,0.0,-0.01153564453125,-0.01519775390625,1.006591796875,35.0,0.0,6.0,0.34222412109375,1.80810546875,Opening,0.0,0.0,0.0,0.0,0.0,0.0,0.0,0.0,
2.386496,0.0,0.0,99846.0,0.0,0.0,0.0,0.0,0.25,0.8581542090000001,0.01,0.0,-79971.0,0.0,0.0,-0.0,0.0,0.0,0.5151366660000001,0.01,0.0,105423.0,0.0,0.0,0.0,0.0,0.0,3.3728023890000003,0.01,-0.0012207029999999897,-81164.0,0.0,0.0,-0.0,0.0,0.25,1.595458821,0.01,0.0,-0.36000001430511475,-1.0399999618530273,0.0,-0.0279541015625,-0.01104736328125,1.01385498046875,35.0,0.0,-9.0,0.34222412109375,1.80810546875,Opening,0.0,0.0,0.0,0.0,0.0,0.0,0.0,0.0,
2.406755,0.0,0.0,99846.0,0.0,0.0,0.0,0.0,0.25,0.8581542090000001,0.01,0.0,-79971.0,0.0,0.0,-0.0,0.0,0.0,0.5163573690000001,0.01,0.0,105423.0,0.0,0.0,0.0,0.0,0.0,3.3728023890000003,0.01,-0.0012207029999999897,-81164.0,0.0,0.0,-0.0,0.0,0.25,1.595458821,0.01,0.0,-0.3700000047683716,-1.0399999618530273,0.0,-0.01824951171875,-0.0072021484375,1.03717041015625,34.9900016784668,0.0,0.0,0.34222412109375,1.80810546875,Opening,0.0,0.0,0.0,0.0,0.0,0.0,0.0,0.0,
2.4280690000000003,0.0,0.0,99846.0,0.0,0.0,0.0,0.0,0.25,0.859374912,0.01,-0.0012207029999999897,-79971.0,0.0,0.0,-0.0,0.0,0.0,0.5151366660000001,0.01,0.0,105423.0,0.0,0.0,0.0,0.0,0.0,3.3715816860000003,0.01,0.0,-81164.0,0.0,0.0,-0.0,0.0,0.25,1.596679524,0.01,0.0,-0.3700000047683716,-1.0399999618530273,0.0,-0.02520751953125,-0.01336669921875,0.997802734375,34.9900016784668,0.0,-6.0,0.34222412109375,1.80810546875,Opening,0.0,0.0,0.0,0.0,0.0,0.0,0.0,0.0,
2.449191,0.0,0.0,99846.0,0.0,0.0,0.0,0.0,0.25,0.8581542090000001,0.01,-0.0012207029999999897,-79971.0,0.0,0.0,-0.0,0.0,0.0,0.5163573690000001,0.01,0.0,105423.0,0.0,0.0,0.0,0.0,0.0,3.3728023890000003,0.01,0.0,-81164.0,0.0,0.0,-0.0,0.0,0.25,1.595458821,0.01,0.0,-0.3700000047683716,-1.0399999618530273,0.0,-0.0135498046875,-3.0517578125E-4,1.017333984375,34.9900016784668,0.0,5.0,0.34222412109375,1.80810546875,Opening,0.0,0.0,0.0,0.0,0.0,0.0,0.0,0.0,
2.4679729999999998,0.0,0.0,99846.0,0.0,0.0,0.0,0.0,0.25,0.8581542090000001,0.01,-0.0012207029999999897,-79971.0,0.0,0.0,-0.0,0.0,0.0,0.5163573690000001,0.01,0.0,105423.0,0.0,0.0,0.0,0.0,0.0,3.3728023890000003,0.01,0.0,-81164.0,0.0,0.0,-0.0,0.0,0.25,1.596679524,0.01,0.0,-0.3700000047683716,-1.0399999618530273,0.0,-0.0177001953125,-0.0047607421875,1.0145263671875,34.9900016784668,0.0,0.0,0.34222412109375,1.80810546875,Opening,0.0,0.0,0.0,0.0,0.0,0.0,0.0,0.0,
2.4906049999999995,0.0,0.0,99846.0,0.0,0.0,0.0,0.0,0.25,0.8581542090000001,0.01,0.0012207029999999897,-79971.0,0.0,0.0,-0.0,0.0,0.0,0.5151366660000001,0.01,0.0,105423.0,0.0,0.0,0.0,0.0,0.0,3.3728023890000003,0.01,0.0012207029999999897,-81164.0,0.0,0.0,-0.0,0.0,0.25,1.596679524,0.01,0.0,-0.36000001430511475,-1.0399999618530273,0.0,-0.0130615234375,-0.01171875,1.00555419921875,34.9900016784668,0.0,5.0,0.34222412109375,1.80810546875,Opening,0.0,0.0,0.0,0.0,0.0,0.0,0.0,0.0,
2.5090959999999995,0.0,0.0,99846.0,0.0,0.0,0.0,0.0,0.25,0.8581542090000001,0.01,0.0012207029999999897,-79971.0,0.0,0.0,-0.0,0.0,0.0,0.5163573690000001,0.01,0.0,105423.0,0.0,0.0,0.0,0.0,0.0,3.3728023890000003,0.01,0.0012207029999999897,-81164.0,0.0,0.0,-0.0,0.0,0.25,1.596679524,0.01,0.0,-0.36000001430511475,-1.0499999523162842,0.0,-0.021240234375,-0.0118408203125,1.0279541015625,34.9900016784668,0.0,-2.0,0.34222412109375,1.80810546875,Opening,0.0,0.0,0.0,0.0,0.0,0.0,0.0,0.0,
2.5317839999999996,0.0,0.0,99846.0,0.0,0.0,0.0,0.0,0.25,0.8581542090000001,0.01,0.0,-79971.0,0.0,0.0,-0.0,0.0,0.0,0.5163573690000001,0.01,0.0,105423.0,0.0,0.0,0.0,0.0,0.0,3.3728023890000003,0.01,0.0,-81164.0,0.0,0.0,-0.0,0.0,0.25,1.595458821,0.01,0.0012207029999995456,-0.36000001430511475,-1.0399999618530273,0.0,-0.02435302734375,-0.00421142578125,1.02545166015625,34.9900016784668,0.0,-5.0,0.34222412109375,1.80810546875,Opening,0.0,0.0,0.0,0.0,0.0,0.0,0.0,0.0,
2.5525869999999995,0.0,0.0,99846.0,0.0,0.0,0.0,0.0,0.25,0.8581542090000001,0.01,0.0,-79971.0,0.0,0.0,-0.0,0.0,0.0,0.5163573690000001,0.01,0.0,105423.0,0.0,0.0,0.0,0.0,0.0,3.3728023890000003,0.01,0.0,-81164.0,0.0,0.0,-0.0,0.0,0.25,1.596679524,0.01,0.0012207029999995456,-0.36000001430511475,-1.0399999618530273,0.0,-0.01654052734375,-0.00799560546875,1.01434326171875,34.9900016784668,0.0,1.0,0.34222412109375,1.80810546875,Opening,0.0,0.0,0.0,0.0,0.0,0.0,0.0,0.0,
2.572692,0.0,0.0,99846.0,0.0,0.0,0.0,0.0,0.25,0.8581542090000001,0.01,0.0,-79971.0,0.0,0.0,-0.0,0.0,0.0,0.5175780720000001,0.01,0.0,105423.0,0.0,0.0,0.0,0.0,0.0,3.3728023890000003,0.01,0.0,-81164.0,0.0,0.0,-0.0,0.0,0.25,1.596679524,0.01,-0.0012207029999995456,-0.36000001430511475,-1.0399999618530273,0.0,-0.0213623046875,-0.0028076171875,1.02630615234375,34.9900016784668,0.0,-2.0,0.34222412109375,1.80810546875,Opening,0.0,0.0,0.0,0.0,0.0,0.0,0.0,0.0,
2.5942939999999997,0.0,0.0,99846.0,0.0,0.0,0.0,0.0,0.25,0.8581542090000001,0.01,0.0,-79971.0,0.0,0.0,-0.0,0.0,0.0,0.5151366660000001,0.01,0.0,105423.0,0.0,0.0,0.0,0.0,0.0,3.3728023890000003,0.01,0.0,-81164.0,0.0,0.0,-0.0,0.0,0.25,1.596679524,0.01,-0.0012207029999995456,-0.36000001430511475,-1.0399999618530273,0.0,-0.0169677734375,0.0,1.03289794921875,34.9900016784668,0.0,1.0,0.34222412109375,1.80810546875,Opening,0.0,0.0,0.0,0.0,0.0,0.0,0.0,0.0,
2.6149759999999995,0.0,0.0,99846.0,0.0,0.0,0.0,0.0,0.25,0.8581542090000001,0.01,0.0,-79971.0,0.0,0.0,-0.0,0.0,0.0,0.5175780720000001,0.01,0.0,105423.0,0.0,0.0,0.0,0.0,0.0,3.3728023890000003,0.01,0.0,-81164.0,0.0,0.0,-0.0,0.0,0.25,1.596679524,0.01,0.0,-0.36000001430511475,-1.0399999618530273,0.0,-0.01763916015625,-0.0103759765625,1.0118408203125,34.9900016784668,0.0,0.0,0.34222412109375,1.80810546875,Opening,0.0,0.0,0.0,0.0,0.0,0.0,0.0,0.0,
2.6367849999999997,0.0,0.0,99846.0,0.0,0.0,0.0,0.0,0.25,0.8581542090000001,0.01,0.0,-79971.0,0.0,0.0,-0.0,0.0,0.0,0.5163573690000001,0.01,0.0,105423.0,0.0,0.0,0.0,0.0,0.0,3.3728023890000003,0.01,0.0,-81164.0,0.0,0.0,-0.0,0.0,0.25,1.596679524,0.01,0.0,-0.36000001430511475,-1.0399999618530273,0.0,-0.019775390625,-0.0103759765625,1.0323486328125,34.9900016784668,0.0,0.0,0.34222412109375,1.80810546875,Opening,0.0,0.0,0.0,0.0,0.0,0.0,0.0,0.0,
2.6593959999999996,0.0,0.0,99846.0,0.0,0.0,0.0,0.0,0.25,0.8581542090000001,0.01,0.0,-79971.0,0.0,0.0,-0.0,0.0,0.0,0.5151366660000001,0.01,0.0,105423.0,0.0,0.0,0.0,0.0,0.0,3.3728023890000003,0.01,0.0,-81164.0,0.0,0.0,-0.0,0.0,0.25,1.596679524,0.01,0.0,-0.36000001430511475,-1.0399999618530273,0.0,-0.019775390625,-0.00958251953125,1.02020263671875,34.9900016784668,0.0,-1.0,0.34222412109375,1.80810546875,Opening,0.0,0.0,0.0,0.0,0.0,0.0,0.0,0.0,
2.6879560000000002,0.0,0.0,99846.0,0.0,0.0,0.0,0.0,0.25,0.8581542090000001,0.01,0.0,-79971.0,0.0,0.0,-0.0,0.0,0.0,0.5163573690000001,0.01,0.0,105423.0,0.0,0.0,0.0,0.0,0.0,3.3728023890000003,0.01,-0.0012207029999999897,-81164.0,0.125,0.0,-0.0,0.0,0.25,1.596679524,0.01,0.0,-0.36000001430511475,-1.0399999618530273,0.0,-0.0220947265625,-0.0035400390625,1.021728515625,34.9900016784668,0.0,-3.0,0.34222412109375,1.80810546875,Opening,0.0,0.0,0.0,0.0,0.0,0.0,0.0,0.0,
2.707045,0.0,0.0,99846.0,0.0,0.0,0.0,0.0,0.25,0.8581542090000001,0.01,0.0,-79971.0,0.0,0.0,-0.0,0.0,0.0,0.5163573690000001,0.01,0.0,105423.0,0.0,0.0,0.0,0.0,0.0,3.3728023890000003,0.01,-0.0012207029999999897,-81164.0,0.0,0.0,-0.0,0.0,0.25,1.595458821,0.01,0.0,-0.3499999940395355,-1.0299999713897705,0.0,-0.018310546875,-0.00360107421875,1.02191162109375,34.9900016784668,0.0,0.0,0.34222412109375,1.80810546875,Opening,0.0,0.0,0.0,0.0,0.0,0.0,0.0,0.0,
2.728335,0.0,0.0,99846.0,0.0,0.0,0.0,0.0,0.25,0.8581542090000001,0.01,-0.0012207029999999897,-79971.0,0.0,0.0,-0.0,0.0,0.0,0.5175780720000001,0.01,0.0,105423.0,0.0,0.0,0.0,0.0,0.0,3.3728023890000003,0.01,0.0,-81164.0,0.0,0.0,-0.0,0.0,0.25,1.596679524,0.01,0.0,-0.3499999940395355,-1.0299999713897705,0.0,-0.01544189453125,-0.009521484375,1.02044677734375,34.9900016784668,0.0,3.0,0.34222412109375,1.80810546875,Opening,0.0,0.0,0.0,0.0,0.0,0.0,0.0,0.0,
2.7471859999999997,0.0,0.0,99846.0,0.0,0.0,0.0,0.0,0.25,0.8581542090000001,0.01,-0.0012207029999999897,-79971.0,0.0,0.0,-0.0,0.0,0.0,0.5163573690000001,0.01,0.0,105423.0,0.0,0.0,0.0,0.0,0.0,3.3728023890000003,0.01,0.0,-81164.0,0.0,0.0,-0.0,0.0,0.25,1.596679524,0.01,0.0,-0.3499999940395355,-1.0299999713897705,0.0,-0.01983642578125,-0.005859375,1.02020263671875,34.9900016784668,0.0,-1.0,0.34222412109375,1.80810546875,Opening,0.0,0.0,0.0,0.0,0.0,0.0,0.0,0.0,
2.7659499999999997,0.0,0.0,99846.0,0.0,0.0,0.0,0.0,0.25,0.8581542090000001,0.01,-0.0012207029999999897,-79971.0,0.0,0.0,-0.0,0.0,0.0,0.5151366660000001,0.01,0.0,105423.0,0.0,0.0,0.0,0.0,0.0,3.3728023890000003,0.01,0.0,-81164.0,0.0,0.0,-0.0,0.0,0.25,1.595458821,0.01,0.0,-0.3499999940395355,-1.0299999713897705,0.0,-0.01904296875,-0.0072021484375,1.0203857421875,34.9900016784668,0.0,0.0,0.34222412109375,1.80810546875,Opening,0.0,0.0,0.0,0.0,0.0,0.0,0.0,0.0,
2.7868850000000003,0.0,0.0,99846.0,0.0,0.0,0.0,0.0,0.25,0.859374912,0.01,0.0,-79971.0,0.0,0.0,-0.0,0.0,0.0,0.5163573690000001,0.01,0.0,105423.0,0.0,0.0,0.0,0.0,0.0,3.3740230920000003,0.01,0.0,-81164.0,0.0,0.0,-0.0,0.0,0.25,1.595458821,0.01,0.0,-0.3499999940395355,-1.0299999713897705,0.0,-0.01873779296875,-0.00592041015625,1.019775390625,34.9900016784668,0.0,0.0,0.34222412109375,1.80810546875,Opening,0.0,0.0,0.0,0.0,0.0,0.0,0.0,0.0,
2.8053959999999996,0.0,0.0,99846.0,0.0,0.0,0.0,0.0,0.25,0.8581542090000001,0.01,0.0,-79971.0,0.0,0.0,-0.0,0.0,0.0,0.5175780720000001,0.01,0.0,105423.0,0.0,0.0,0.0,0.0,0.0,3.3728023890000003,0.01,0.0,-81164.0,0.0,0.0,-0.0,0.0,0.25,1.596679524,0.01,0.0,-0.3499999940395355,-1.0299999713897705,0.0,-0.02008056640625,-0.00750732421875,1.02130126953125,34.9900016784668,0.0,-1.0,0.34222412109375,1.80810546875,Closing,0.0,0.0,0.0,0.0,0.0,0.0,0.0,0.0,
2.8254529999999995,0.0,0.0,99846.0,0.0,0.0,0.0,0.0,0.25,0.8581542090000001,0.01,0.0012207029999999897,-79971.0,0.0,0.0,-0.0,0.0,0.0,0.5163573690000001,0.01,0.0,105423.0,0.0,0.0,0.0,0.0,0.0,3.3715816860000003,0.01,0.0012207029999999897,-81164.0,0.0,0.0,-0.0,0.0,0.25,1.596679524,0.01,0.0,-0.3499999940395355,-1.0299999713897705,0.0,-0.01898193359375,-0.00396728515625,1.026611328125,34.9900016784668,0.0,0.0,0.34222412109375,1.80810546875,Closing,0.0,0.0,0.0,0.0,0.0,0.0,0.0,0.0,
2.8468459999999998,0.0,0.0,99846.0,0.0,0.0,0.0,0.0,0.25,0.859374912,0.01,0.0012207029999999897,-79971.0,0.0,0.0,-0.0,0.0,0.0,0.5151366660000001,0.01,0.0,105423.0,0.0,0.0,0.0,0.0,0.0,3.3715816860000003,0.01,0.0012207029999999897,-81164.0,0.0,0.0,-0.0,0.0,0.25,1.596679524,0.01,0.0,-0.36000001430511475,-1.0399999618530273,0.0,-0.01922607421875,-0.00567626953125,1.02056884765625,34.9900016784668,0.0,0.0,0.34222412109375,1.80810546875,Closing,0.0,0.0,0.0,0.0,0.0,0.0,0.0,0.0,
2.8665959999999995,0.0,0.0,99846.0,0.0,0.0,0.0,0.0,0.25,0.871581942,0.01,0.0012207029999999897,-79971.0,0.0,0.0,-0.0,0.0,0.0,0.5163573690000001,0.01,0.0,105423.0,0.0,0.0,0.0,0.0,0.0,3.3728023890000003,0.01,0.0012207029999999897,-81164.0,0.0,0.0,-0.0,0.0,0.25,1.596679524,0.01,0.0,-0.3499999940395355,-1.0299999713897705,0.0,-0.0245361328125,-0.01495361328125,1.0341796875,34.9900016784668,0.0,-5.0,0.34222412109375,1.80810546875,Closing,0.0,0.0,0.0,0.0,0.0,0.0,0.0,0.0,
2.8880749999999997,0.0,0.0,99846.0,0.0,0.0,0.0,0.0,0.25,0.8581542090000001,0.01,0.0,-79971.0,0.0,0.0,-0.0,0.0,0.0,0.5163573690000001,0.01,0.0,105423.0,0.0,0.0,0.0,0.0,0.0,3.3728023890000003,0.01,-0.0012207029999999897,-81164.0,0.0,0.0,-0.0,0.0,0.25,1.596679524,0.01,0.0,-0.36000001430511475,-1.0399999618530273,0.0,-0.02642822265625,0.01336669921875,1.06298828125,34.9900016784668,0.0,-7.0,0.34222412109375,1.8081207275390625,Closing,0.0,0.0,0.0,0.0,0.0,0.0,0.0,0.0,
2.906335,0.0,0.0,99846.0,0.0,0.0,0.0,0.0,0.25,0.8581542090000001,0.01,0.0,-79971.0,0.0,0.0,-0.0,0.0,0.0,0.5151366660000001,0.01,0.0,105423.0,0.0,0.0,0.0,0.0,0.0,3.3728023890000003,0.01,-0.0012207029999999897,-81164.0,0.0,0.0,-0.0,0.0,0.25,1.596679524,0.01,0.0,-0.36000001430511475,-1.0399999618530273,0.0,-0.021240234375,0.00860595703125,1.04351806640625,34.97999954223633,0.0,-2.0,0.34222412109375,1.80816650390625,Closing,0.0,0.0,0.0,0.0,0.0,0.0,0.0,0.0,
2.9385600000000003,0.0,0.0,99846.0,0.0,0.0,0.0,0.0,0.25,0.8569335060000001,0.01,-0.0012207029999999897,-79971.0,0.0,0.0,-0.0,0.0,0.0,0.5163573690000001,0.01,0.0,105423.0,0.0,0.0,0.0,0.0,0.0,3.3728023890000003,0.01,0.0,-81164.0,0.0,0.0,-0.0,0.0,0.25,1.596679524,0.01,0.0,-0.36000001430511475,-1.0399999618530273,0.0,-0.0125732421875,-0.009033203125,1.02313232421875,34.97999954223633,0.0,6.0,0.34222412109375,1.8082275390625,Closing,0.0,0.0,0.0,0.0,0.0,0.0,0.0,0.0,
2.96033,0.0,0.0,99846.0,0.0,0.0,0.0,0.0,0.25,0.8581542090000001,0.01,-0.0012207029999999897,-79971.0,0.0,0.0,-0.0,0.0,0.0,0.5151366660000001,0.01,0.0,105423.0,0.0,0.0,0.0,0.0,0.0,3.3740230920000003,0.01,0.0,-81164.0,0.0,0.0,-0.0,0.0,0.25,1.595458821,0.01,0.0,-0.36000001430511475,-1.0399999618530273,0.0,-0.02056884765625,-0.0145263671875,1.03167724609375,34.97999954223633,0.0,-1.0,0.34222412109375,1.8082275390625,Closing,0.0,0.0,0.0,0.0,0.0,0.0,0.0,0.0,
2.982854,0.0,0.0,99846.0,0.0,0.0,0.0,0.0,0.25,0.8581542090000001,0.01,0.0012207029999999897,-79971.0,0.0,0.0,-0.0,0.0,0.0,0.5163573690000001,0.01,0.0,105423.0,0.0,0.0,0.0,0.0,0.0,3.3728023890000003,0.01,0.0012207029999999897,-81164.0,0.0,0.0,-0.0,0.0,0.25,1.596679524,0.01,0.0,-0.3499999940395355,-1.0299999713897705,0.0,-0.02581787109375,-0.0186767578125,1.03265380859375,34.97999954223633,0.0,-7.0,0.34222412109375,1.8082275390625,Closing,0.0,0.0,0.0,0.0,0.0,0.0,0.0,0.0,
3.001134,0.0,0.0,99846.0,0.0,0.0,0.0,0.0,0.25,0.8581542090000001,0.01,0.0012207029999999897,-79971.0,0.0,0.0,-0.0,0.0,0.0,0.5151366660000001,0.01,0.0,105423.0,0.0,0.0,0.0,0.0,0.0,3.3728023890000003,0.01,0.0012207029999999897,-81164.0,0.0,0.0,-0.0,0.0,0.25,1.596679524,0.01,0.0,-0.3499999940395355,-1.0299999713897705,0.0,-0.019775390625,-0.0338134765625,1.023681640625,34.97999954223633,0.0,-1.0,0.34222412109375,1.808197021484375,Closing,0.0,0.0,0.0,0.0,0.0,0.0,0.0,0.0,
3.020637,0.0,0.0,99846.0,0.0,0.0,0.0,0.0,0.25,0.8581542090000001,0.01,0.0012207029999999897,-79971.0,0.0,0.0,-0.0,0.0,0.0,0.5163573690000001,0.01,0.0,105423.0,0.0,0.0,0.0,0.0,0.0,3.3715816860000003,0.01,0.0012207029999999897,-81164.0,0.0,0.0,-0.0,0.0,0.25,1.596679524,0.01,0.0012207029999995456,-0.36000001430511475,-1.0299999713897705,0.0,0.001708984375,0.0074462890625,1.0142822265625,34.97999954223633,0.0,20.0,0.3422393798828125,1.808135986328125,Closing,0.0,0.0,0.0,0.0,0.0,0.0,0.0,0.0,
3.0406189999999995,0.0,0.0,99846.0,0.0,0.0,0.0,0.0,0.25,0.8569335060000001,0.01,0.0,-79971.0,0.0,0.0,-0.0,0.0,0.0,0.5163573690000001,0.01,0.0,105423.0,0.0,0.0,0.0,0.0,0.0,3.3740230920000003,0.01,0.0,-81164.0,0.0,0.0,-0.0,0.0,0.25,1.596679524,0.01,0.0012207029999995456,-0.3499999940395355,-1.0299999713897705,0.0,-0.02923583984375,-0.015625,1.02313232421875,34.97999954223633,0.0,-10.0,0.3422698974609375,1.808135986328125,Closing,0.0,0.0,0.0,0.0,0.0,0.0,0.0,0.0,
3.06109,0.0,0.0,99846.0,0.0,0.0,0.0,0.0,0.25,0.8581542090000001,0.01,0.0,-79971.0,0.0,0.0,-0.0,0.0,0.0,0.5151366660000001,0.01,0.0,105423.0,0.0,0.0,0.0,0.0,0.0,3.3715816860000003,0.01,0.0,-81164.0,0.0,0.0,-0.0,0.0,0.25,1.596679524,0.01,0.0012207029999995456,-0.36000001430511475,-1.0199999809265137,0.0,-0.0150146484375,0.00262451171875,1.02001953125,34.97999954223633,0.0,3.0,0.34228515625,1.808135986328125,Closing,0.0,0.0,0.0,0.0,0.0,0.0,0.0,0.0,
