Time,ClimberA1,ClimberA2,FRpos,FRCurrent,FRspeed,FRsetpoint,FRApos,FRACurrent,FREncpos,FREncSetpoint,FREncSpeed,FLpos,FLCurrent,FLspeed,FLsetpoint,FLApos,FLACurrent,FLEncpos,FLEncSetpoint,FLEncSpeed,BRpos,BRCurrent,BRspeed,BRsetpoint,BRApos,BRACurrent,BREncpos,BREncSetpoint,BREncSpeed,BLpos,BLCurrent,BLspeed,BLsetpoint,BLApos,BLACurrent,BLEncpos,BLEncSetpoint,BLEncSpeed,navx_Pitch,navx_Roll,navx_Yaw,navx_XAcc,navx_YAcc,navx_ZAcc,navx_Temp,navx_Bar,navx_Alt,navx_XDis,navx_YDis,GearPlacerState,ShootOutputV,ShootOutputCurrent,ShootEncPos,ShootEncVelocity,ShootSpeed,ShootSetpoint,CarouselSetpoint,CarouselCurrent,
0.12541499999992084,0.0,0.0,119177.0,6.75,120.0,840.0,0.0,0.375,0.838622961,0.04548631059665681,0.0,-88053.0,9.25,-165.0,-840.0,0.0,0.25,0.495605418,0.04577698579216004,0.0,124834.0,11.625,45.0,840.0,0.0,0.125,3.34472622,0.0455614624786377,0.0,-104554.0,7.625,-157.5,-840.0,0.0,0.25,1.6357420200000001,0.04572377357482911,0.0,-0.4399999976158142,-0.4399999976158142,0.44999998807907104,-0.05267333984375,0.00408935546875,1.1348876953125,35.27000045776367,0.0,-43.0,0.339019775390625,3.02899169921875,Closing,0.0,0.0,0.0,0.0,0.0,0.0,0.0,0.0,
0.25632600000000094,0.0,0.0,119196.0,1.75,60.0,0.0,0.0,0.125,0.849609288,0.01,0.0,-88064.0,2.25,-120.0,-0.0,0.0,0.125,0.5029296360000001,0.01,0.0,124843.0,4.25,75.0,0.0,0.0,0.0,3.343505517,0.01,0.0,-104565.0,2.125,-112.5,-0.0,0.0,0.125,1.627197099,0.01,0.0,-0.5,-1.149999976158142,0.8399999737739563,-0.0015869140625,-0.0439453125,1.0516357421875,35.27000045776367,0.0,19.0,0.332489013671875,3.029815673828125,Closing,0.0,0.0,0.0,0.0,0.0,0.0,0.0,0.0,
0.37659199999994597,0.0,0.0,119196.0,2.5,-7.5,0.0,0.0,0.25,0.848388585,0.01,0.0,-88061.0,3.75,15.0,-0.0,0.0,0.125,0.50048823,0.01,0.0,124843.0,5.25,0.0,0.0,0.0,0.0,3.34472622,0.01,0.0,-104562.0,3.375,15.0,-0.0,0.0,0.125,1.6345213170000001,0.01,0.0,-0.47999998927116394,-0.8899999856948853,0.7599999904632568,-0.018310546875,-0.03399658203125,1.01812744140625,35.27000045776367,0.0,-2.0,0.334381103515625,3.02996826171875,Closing,0.0,0.0,0.0,0.0,0.0,0.0,0.0,0.0,
0.5059149999999208,0.0,0.0,119195.0,2.0,0.0,0.0,0.0,0.25,0.850829991,0.01,0.0,-88061.0,3.875,0.0,-0.0,0.0,0.125,0.5017089330000001,0.01,0.0,124843.0,5.125,0.0,0.0,0.0,0.0,3.343505517,0.01,0.0,-104562.0,3.375,0.0,-0.0,0.0,0.125,1.6357420200000001,0.01,0.0,-0.5,-0.9399999976158142,0.7699999809265137,-0.0318603515625,4.2724609375E-4,0.997802734375,35.27000045776367,0.0,-15.0,0.3374176025390625,3.0295562744140625,Closing,0.0,0.0,0.0,0.0,0.0,0.0,0.0,0.0,
0.6295059999999357,0.0,0.0,119195.0,2.0,0.0,0.0,0.0,0.25,0.849609288,0.01,0.0,-88061.0,3.875,0.0,-0.0,0.0,0.125,0.5017089330000001,0.01,0.0,124843.0,5.375,0.0,0.0,0.0,0.0,3.343505517,0.01,0.0,-104562.0,3.5,0.0,-0.0,0.0,0.125,1.639404129,0.01,0.0,-0.49000000953674316,-0.9399999976158142,0.7699999809265137,-0.0164794921875,-0.01068115234375,1.0238037109375,35.27000045776367,0.0,0.0,0.33856201171875,3.0295867919921875,Closing,0.0,0.0,0.0,0.0,0.0,0.0,0.0,0.0,
0.7552489999999525,0.0,0.0,119195.0,2.0,0.0,0.0,0.0,0.25,0.8178710100000001,0.01,0.0,-88061.0,3.875,0.0,-0.0,0.0,0.125,0.5017089330000001,0.01,0.0,124843.0,5.375,0.0,0.0,0.0,0.0,3.343505517,0.01,0.0,-104562.0,3.5,0.0,-0.0,0.0,0.125,1.6345213170000001,0.01,0.0,-0.4699999988079071,-0.9399999976158142,0.7699999809265137,-0.0147705078125,-0.0018310546875,1.01824951171875,35.279998779296875,0.0,2.0,0.33843994140625,3.0295867919921875,Closing,0.0,0.0,0.0,0.0,0.0,0.0,0.0,0.0,
0.8876689999999944,0.0,0.0,119195.0,2.0,0.0,0.0,0.0,0.25,0.848388585,0.01,0.0,-88061.0,3.875,0.0,-0.0,0.0,0.125,0.5017089330000001,0.01,0.0,124843.0,5.375,0.0,0.0,0.0,0.0,3.343505517,0.01,0.0,-104562.0,3.5,0.0,-0.0,0.0,0.125,1.6357420200000001,0.01,0.0,-0.4699999988079071,-0.9399999976158142,0.7699999809265137,-0.01202392578125,-0.002685546875,1.0224609375,35.279998779296875,0.0,4.0,0.33843994140625,3.0295867919921875,Closing,0.0,0.0,0.0,0.0,0.0,0.0,0.0,0.0,
1.0104760000000241,0.0,0.0,119195.0,2.125,0.0,0.0,0.0,0.25,0.8435057730000001,0.01,0.0,-88061.0,4.0,0.0,-0.0,0.0,0.125,0.5017089330000001,0.01,0.0,124843.0,5.375,0.0,0.0,0.0,0.0,3.342284814,0.01,0.0,-104562.0,3.5,0.0,-0.0,0.0,0.125,1.6357420200000001,0.01,0.0,-0.4699999988079071,-0.9399999976158142,0.7699999809265137,-0.01361083984375,-0.00860595703125,1.0206298828125,35.279998779296875,0.0,3.0,0.33843994140625,3.0295867919921875,Closing,0.0,0.0,0.0,0.0,0.0,0.0,0.0,0.0,
1.2163589999999385,0.0,0.0,119195.0,2.125,0.0,0.0,0.0,0.25,0.848388585,0.01,0.0,-88061.0,4.0,0.0,-0.0,0.0,0.125,0.5017089330000001,0.01,0.0,124843.0,5.25,0.0,0.0,0.0,0.0,3.343505517,0.01,0.0,-104562.0,3.5,0.0,-0.0,0.0,0.125,1.6357420200000001,0.01,0.0,-0.4699999988079071,-0.9200000166893005,0.7699999809265137,-0.015625,-0.009033203125,1.02130126953125,35.310001373291016,0.0,0.0,0.33843994140625,3.0295867919921875,Closing,0.0,0.0,0.0,0.0,0.0,0.0,0.0,0.0,
1.5958159999999917,0.0,0.0,119195.0,2.125,0.0,0.0,0.0,0.25,0.8422850700000001,0.01,0.0,-88061.0,4.0,0.0,-0.0,0.0,0.125,0.5029296360000001,0.01,0.0,124843.0,5.125,0.0,0.0,0.0,0.0,3.343505517,0.01,0.0,-104562.0,3.5,0.0,-0.0,0.0,0.125,1.6357420200000001,0.01,0.0,-0.4699999988079071,-0.9200000166893005,0.7699999809265137,-0.01898193359375,-0.01080322265625,1.01568603515625,35.310001373291016,0.0,-2.0,0.33843994140625,3.0295867919921875,Closing,0.0,0.0,0.0,0.0,0.0,0.0,0.0,0.0,
1.7728979999999284,0.0,0.0,119162.0,5.625,-345.0,-1703.1495451927185,0.0,0.25,0.863037021,4.932250999999998,0.0,-88046.0,7.125,375.0,1703.1495451927185,0.0,0.0,0.5017089330000001,4.963769999999998,0.0,124843.0,6.5,-60.0,-1703.1495451927185,0.0,0.0,3.383788716,0.01,0.0,-104553.0,6.625,330.0,1703.1495451927185,0.0,0.125,1.625976396,0.01,0.0,-0.5400000214576721,-2.319999933242798,0.5600000023841858,-0.31585693359375,0.02386474609375,1.386474609375,35.33000183105469,0.0,-258.0,0.3277587890625,3.029266357421875,Closing,0.0,0.0,0.0,0.0,0.0,0.0,0.0,0.0,
1.9184490000000223,0.0,0.0,119112.0,0.0,-232.5,0.0,0.0,0.25,0.849609288,4.932250999999998,0.0,-87926.0,0.0,270.0,0.0,0.0,0.0,0.5163573690000001,4.963769999999998,0.0,124788.0,0.0,-172.5,0.0,0.0,0.125,3.382568013,0.01,0.0,-104446.0,0.125,240.0,0.0,0.0,0.125,1.678466625,0.01,0.0,-0.5400000214576721,-2.0,0.5099999904632568,0.08270263671875,-0.120849609375,0.93890380859375,35.33000183105469,0.0,114.0,0.3056640625,3.0280609130859375,Closing,0.0,0.0,0.0,0.0,0.0,0.0,0.0,0.0,
2.062765000000014,0.0,0.0,119036.0,0.0,-195.0,0.0,0.0,0.25,0.839843664,4.932250999999998,0.0,-87897.0,0.0,157.5,0.0,0.0,0.125,0.526122993,4.963769999999998,0.0,124751.0,0.0,-210.0,0.0,0.0,0.125,3.382568013,0.01,0.0,-104405.0,0.0,247.5,0.0,0.0,0.25,1.665038892,0.01,0.0,-0.5099999904632568,-1.25,0.5600000023841858,0.09661865234375,-0.02423095703125,1.04620361328125,35.33000183105469,0.0,119.0,0.2960968017578125,3.0284271240234375,Closing,0.0,0.0,0.0,0.0,0.0,0.0,0.0,0.0,
2.2065329999999377,0.0,0.0,118999.0,0.125,-202.5,-462.9921242594719,0.0,0.25,0.839843664,4.932250999999998,0.0,-87870.0,0.25,165.0,462.9921242594719,0.0,0.125,0.539550726,4.963769999999998,0.0,124727.0,0.375,-150.0,-462.9921242594719,0.0,0.125,3.382568013,0.01,0.0,-104383.0,0.875,105.0,462.9921242594719,0.0,0.25,1.6552732680000002,0.01,0.0,-0.4699999988079071,-0.9100000262260437,0.5400000214576721,0.00164794921875,-0.0440673828125,1.1019287109375,35.33000183105469,0.0,18.0,0.2972259521484375,3.0287322998046875,Closing,0.0,0.0,0.0,0.0,0.0,0.0,0.0,0.0,
2.3461509999999546,0.0,0.0,118951.0,24.25,-420.0,-2100.0,0.0,0.25,0.832519446,4.932250999999998,0.0,-87821.0,34.125,457.5,2100.0,0.0,0.25,0.539550726,4.963769999999998,0.0,124678.0,23.75,-277.5,-2100.0,0.0,0.125,3.382568013,0.01,0.0,-104320.0,24.125,607.5,2100.0,0.0,0.25,1.595458821,0.01,0.0,-0.5299999713897705,-3.3499999046325684,0.7300000190734863,-0.379638671875,0.1123046875,1.0421142578125,35.29999923706055,0.0,-316.0,0.27874755859375,3.02984619140625,Closing,0.0,0.0,0.0,0.0,0.0,0.0,0.0,0.0,
2.50833600000001,0.0,0.0,118589.0,4.875,-1305.0,-1240.1575148105621,0.0,0.25,0.839843664,4.932250999999998,0.0,-87501.0,8.75,1215.0,1240.1575148105621,0.0,0.25,0.535888617,4.963769999999998,0.0,124532.0,19.625,-630.0,-1240.1575148105621,0.0,0.125,3.382568013,0.01,0.0,-104022.0,7.375,1207.5,1240.1575148105621,0.0,0.25,1.6064451480000002,0.01,0.0,-0.6800000071525574,-4.75,1.940000057220459,-0.1910400390625,-0.029541015625,1.02056884765625,35.29999923706055,0.0,-106.0,0.1915130615234375,3.0289459228515625,Closing,0.0,0.0,0.0,0.0,0.0,0.0,0.0,0.0,
2.7106049999999815,0.0,0.0,118121.0,0.125,-1402.5,-1091.338562965393,0.0,0.25,0.839843664,4.932250999999998,0.0,-87047.0,0.875,1440.0,1091.338562965393,0.0,0.25,0.545654241,4.963769999999998,0.0,124098.0,6.125,-1402.5,-1091.338562965393,0.0,0.125,3.3789059040000002,0.01,0.0,-103580.0,2.0,1395.0,1091.338562965393,0.0,0.25,1.6540525650000002,0.01,0.0,-0.8999999761581421,-4.300000190734863,3.609999895095825,0.22540283203125,-0.0416259765625,0.74700927734375,35.27000045776367,0.0,278.0,0.04449462890625,3.021484375,Closing,0.0,0.0,0.0,0.0,0.0,0.0,0.0,0.0,
2.9667369999999647,0.0,0.0,117897.0,0.0,-1380.0,-691.4821267684196,0.0,3.375,0.351562464,3.912182201121075,0.0,-86806.0,7.375,1605.0,1887.3362948285717,0.0,0.5,0.443115189,4.6787746679725855,0.0,123860.0,0.375,-1395.0,-691.4821267684196,0.0,6.125,3.876952728,1.0217541430842514,0.0,-103349.0,7.375,1635.0,1887.3362948285717,0.0,0.625,1.7382810720000001,0.2846640469223835,0.0,-0.5699999928474426,-3.6600000858306885,3.4000000953674316,0.20672607421875,0.01617431640625,1.104736328125,35.27000045776367,0.0,278.0,-0.0099029541015625,3.016082763671875,Closing,0.0,0.0,0.0,0.0,0.0,0.0,0.0,0.0,
3.091415999999968,0.0,0.0,117756.0,0.125,-697.5,-687.2350394048451,0.0,0.375,4.598388201000001,3.893984040391285,0.0,-86537.0,5.0,1755.0,1871.874313652225,0.0,0.25,0.18798826200000002,4.676311375067212,0.0,123683.0,2.875,-855.0,-687.2350394048451,0.0,1.125,4.451903841,1.0399823705749962,0.0,-103084.0,6.75,1680.0,1871.874313652225,0.0,0.25,1.934814255,0.28712447643963374,0.0,-0.6100000143051147,-1.840000033378601,-5.53000020980835,-0.0018310546875,-0.1129150390625,1.45355224609375,35.27000045776367,0.0,54.0,-0.0455780029296875,3.0084991455078125,Closing,0.0,0.0,0.0,0.0,0.0,0.0,0.0,0.0,
3.213347999999998,0.0,0.0,117647.0,0.125,-757.5,-687.2350394048451,0.0,0.5,4.3981929090000005,3.893984040391285,0.0,-86239.0,3.125,1905.0,1871.874313652225,0.0,0.25,0.08056639800000001,4.676311375067212,0.0,123562.0,3.5,-832.5,-687.2350394048451,0.0,0.125,4.6533198360000005,1.0399823705749962,0.0,-102797.0,6.0,1785.0,1871.874313652225,0.0,0.25,2.000732217,0.28712447643963374,0.0,-0.8600000143051147,-0.8799999952316284,-17.510000228881836,0.04656982421875,-0.23162841796875,0.60284423828125,35.27000045776367,0.0,120.0,-0.0549468994140625,2.999847412109375,Closing,0.0,0.0,0.0,0.0,0.0,0.0,0.0,0.0,
3.347042999999947,0.0,0.0,117509.0,0.0,-862.5,-683.3617692727296,0.0,0.5,4.622802261,3.875569592285783,0.0,-85936.0,2.5,1882.5,1856.4308344285037,0.0,0.25,0.124511706,4.673807073656249,0.0,123452.0,5.0,-577.5,-683.3617692727296,0.0,0.25,4.465331574,1.0584272427886006,0.0,-102506.0,6.125,1807.5,1856.4308344285037,0.0,0.25,1.9531248,0.28962586679324703,0.0,-1.3600000143051147,-1.5,-34.099998474121094,-0.1983642578125,-0.15130615234375,1.099853515625,35.27000045776367,0.0,-70.0,-0.05712890625,2.97906494140625,Closing,0.0,0.0,0.0,0.0,0.0,0.0,0.0,0.0,
3.4690209999999495,0.0,0.0,117380.0,0.0,-772.5,-512.5984311103821,0.0,2.5,0.30395504700000003,4.932250999999998,0.0,-85634.0,0.0,1507.5,512.5984311103821,0.0,0.75,0.34301754300000004,4.963769999999998,0.0,123353.0,4.375,-540.0,-512.5984311103821,0.0,5.375,3.8500972620000002,0.01,0.0,-102222.0,0.375,1507.5,512.5984311103821,0.0,0.625,1.774902162,0.01,0.0,-2.009999990463257,-1.75,-46.27000045776367,-0.0797119140625,-0.13311767578125,0.8927001953125,35.27000045776367,0.0,37.0,-0.06072998046875,2.947021484375,Closing,0.0,0.0,0.0,0.0,0.0,0.0,0.0,0.0,
3.5911350000000093,0.0,0.0,117279.0,0.125,-615.0,-214.96063694357872,0.0,0.625,0.871581942,4.932250999999998,0.0,-85430.0,1.0,1065.0,214.96063694357872,0.0,0.5,0.506591745,4.963769999999998,0.0,123293.0,3.125,-345.0,-214.96063694357872,0.0,0.375,3.2080074840000004,0.01,0.0,-102004.0,0.5,1177.5,214.96063694357872,0.0,0.25,1.595458821,0.01,0.0,-2.240000009536743,-1.4500000476837158,-51.459999084472656,0.14080810546875,0.072509765625,0.75006103515625,35.27000045776367,0.0,19.0,-0.058380126953125,2.903350830078125,Closing,0.0,0.0,0.0,0.0,0.0,0.0,0.0,0.0,
3.7156169999999693,0.0,0.0,117161.0,0.5,-720.0,-380.31496703624725,0.0,0.25,1.070556531,4.932250999999998,0.0,-85296.0,0.0,615.0,380.31496703624725,0.0,0.0,0.588378846,4.963769999999998,0.0,123212.0,2.625,-585.0,-380.31496703624725,0.0,0.625,3.032226252,0.01,0.0,-101856.0,0.375,630.0,380.31496703624725,0.0,0.25,1.518554532,0.01,0.0,-2.049999952316284,-0.550000011920929,-50.33000183105469,0.3765869140625,-0.02685546875,1.21661376953125,35.27000045776367,0.0,235.0,-0.0523223876953125,2.87493896484375,Closing,0.0,0.0,0.0,0.0,0.0,0.0,0.0,0.0,
3.8353249999999535,0.0,0.0,117075.0,0.125,-457.5,-777.1653592586517,0.0,0.5,0.9497069340000001,4.932250999999998,0.0,-85216.0,1.125,427.5,777.1653592586517,0.0,0.25,0.588378846,4.963769999999998,0.0,123141.0,7.625,-412.5,-777.1653592586517,0.0,0.25,3.347167626,0.01,0.0,-101772.0,2.25,472.5,777.1653592586517,0.0,0.25,1.542968592,0.01,0.0,-2.0799999237060547,0.05000000074505806,-49.29999923706055,-0.0645751953125,-0.05010986328125,0.72235107421875,35.25,0.0,-24.0,-0.0370330810546875,2.8603973388671875,Closing,0.0,0.0,0.0,0.0,0.0,0.0,0.0,0.0,
3.966109999999986,0.0,0.0,117010.0,0.75,-540.0,-1022.1917486013937,0.0,0.25,0.8532713970000001,0.0902281842824269,0.0,-85147.0,2.25,352.5,746.5711684803853,0.0,0.25,0.588378846,0.12457024983209404,0.0,123053.0,11.375,-570.0,-1022.1917486013937,0.0,0.25,3.50341761,4.85002274190245,0.0,-101707.0,4.625,330.0,746.5711684803853,0.0,0.25,1.56249984,4.833574553481019,0.0,-1.909999966621399,-0.550000011920929,-48.4900016784668,-0.2193603515625,-0.03643798828125,1.04241943359375,35.25,0.0,-137.0,-0.0247039794921875,2.8433074951171875,Closing,0.0,0.0,0.0,0.0,0.0,0.0,0.0,0.0,
4.086986999999964,0.0,0.0,116919.0,0.0,-322.5,0.0,0.0,0.25,0.8569335060000001,0.0902281842824269,0.0,-85083.0,0.0,285.0,0.0,0.0,0.25,0.6079100940000001,0.12457024983209404,0.0,122976.0,0.0,-277.5,0.0,0.0,0.25,3.349609032,4.85002274190245,0.0,-101646.0,0.125,270.0,0.0,0.0,0.25,1.573486167,4.833574553481019,0.0,-1.809999942779541,-0.2199999988079071,-48.150001525878906,0.07550048828125,-0.2261962890625,0.90277099609375,35.25,0.0,199.0,-0.0182952880859375,2.8226470947265625,Closing,0.0,0.0,0.0,0.0,0.0,0.0,0.0,0.0,
4.209875999999931,0.0,0.0,116865.0,0.375,-345.0,-181.889770925045,0.0,0.25,0.8691405360000001,4.932250999999998,0.0,-85037.0,0.0,270.0,181.889770925045,0.0,0.25,0.603027282,4.963769999999998,0.0,122962.0,0.125,-105.0,-181.889770925045,0.0,0.0,3.232421544,0.01,0.0,-101564.0,0.25,270.0,181.889770925045,0.0,0.25,1.5820310880000001,0.01,0.0,-1.6200000047683716,0.17000000178813934,-47.599998474121094,0.10919189453125,0.018798828125,1.101318359375,35.25,0.0,34.0,-0.0075836181640625,2.8108673095703125,Closing,0.0,0.0,0.0,0.0,0.0,0.0,0.0,0.0,
4.329405999999959,0.0,0.0,116825.0,15.25,-472.5,-2333.389718914274,0.0,0.875,0.656738214,4.476579829406594,0.0,-85006.0,28.75,547.5,2333.389718914274,0.0,0.875,0.34179684,4.505186913604675,0.0,122930.0,22.125,-247.5,-2333.389718914274,0.0,0.375,3.077392263,4.483975975513075,0.0,-101473.0,20.5,517.5,2333.389718914274,0.0,0.5,1.308593616,4.4999499810933985,0.0,-1.2300000190734863,-1.1299999952316284,-47.15999984741211,-0.584228515625,-0.0645751953125,0.45526123046875,35.2400016784668,0.0,-350.0,-0.001739501953125,2.8045196533203125,Closing,0.0,0.0,0.0,0.0,0.0,0.0,0.0,0.0,
4.455012999999919,0.0,0.0,116714.0,10.875,-802.5,-1513.9119740588455,0.0,0.375,0.281982393,4.409583275996151,0.0,-84763.0,16.25,802.5,1513.9119740588455,0.0,0.25,4.916991684,4.4377622261907215,0.0,122793.0,20.125,-592.5,-1513.9119740588455,0.0,0.25,2.872314159,4.416868731281394,0.0,-101336.0,12.875,750.0,1513.9119740588455,0.0,0.25,1.018066302,4.43260366968123,0.0,0.18000000715255737,-2.2300000190734863,-46.040000915527344,0.10223388671875,0.28424072265625,1.113037109375,35.2400016784668,0.0,-100.0,-0.033050537109375,2.7912139892578125,Closing,0.0,0.0,0.0,0.0,0.0,0.0,0.0,0.0,
4.580191999999923,0.0,0.0,116563.0,8.0,-1095.0,-1409.2642831162948,0.0,0.25,0.23315427300000002,4.455724476299787,0.0,-84571.0,10.875,1132.5,1409.2642831162948,0.0,0.25,4.849853019,4.484198286689504,0.0,122659.0,25.25,-727.5,-1409.2642831162948,0.0,0.0,2.816161821,4.463086165467141,0.0,-101143.0,8.875,1155.0,1409.2642831162948,0.0,0.25,0.969238182,4.478985751839139,0.0,1.7100000381469727,-2.430000066757202,-45.380001068115234,-0.11846923828125,0.07501220703125,1.03448486328125,35.2400016784668,0.0,-83.0,-0.08929443359375,2.79241943359375,Closing,0.0,0.0,0.0,0.0,0.0,0.0,0.0,0.0,
4.704356000000029,0.0,0.0,116360.0,4.25,-1455.0,-1399.9702892841055,0.0,0.25,0.299072235,4.463280332130308,0.0,-84345.0,7.375,1387.5,1399.9702892841055,0.0,0.25,4.852294425,4.491802427374126,0.0,122412.0,14.375,-1470.0,-1399.9702892841055,0.0,0.0,2.838134475,4.4706545049829325,0.0,-100911.0,5.75,1432.5,1399.9702892841055,0.0,0.375,1.1120604330000001,4.486581053296368,0.0,1.9600000381469727,-2.940000057220459,-43.97999954223633,-0.099609375,0.07440185546875,0.7606201171875,35.2400016784668,0.0,-76.0,-0.167083740234375,2.7949371337890625,Closing,0.0,0.0,0.0,0.0,0.0,0.0,0.0,0.0,
4.828922000000021,0.0,0.0,116110.0,1.375,-1627.5,-1399.9702892841055,0.0,0.25,0.33691402800000003,4.463280332130308,0.0,-84091.0,4.25,1560.0,1399.9702892841055,0.0,0.5,4.929198714,4.491802427374126,0.0,122152.0,8.25,-1672.5,-1399.9702892841055,0.0,0.0,2.871093456,4.4706545049829325,0.0,-100657.0,3.375,1590.0,1399.9702892841055,0.0,0.25,1.166992068,4.486581053296368,0.0,1.3300000429153442,-3.549999952316284,-43.209999084472656,0.00872802734375,0.06964111328125,0.99920654296875,35.2599983215332,0.0,19.0,-0.24072265625,2.7911834716796875,Closing,0.0,0.0,0.0,0.0,0.0,0.0,0.0,0.0,
4.952158999999985,0.0,0.0,115847.0,0.125,-1440.0,-248.03150296211243,0.0,1.5,0.495605418,4.932250999999998,0.0,-83884.0,0.0,1335.0,248.03150296211243,0.0,2.375,0.25634763,4.963769999999998,0.0,121907.0,0.125,-1545.0,-248.03150296211243,0.0,1.375,3.0566403120000003,0.01,0.0,-100418.0,0.125,1425.0,248.03150296211243,0.0,1.875,1.408691262,0.01,0.0,0.28999999165534973,-2.9800000190734863,-42.68000030517578,0.10888671875,-0.33636474609375,1.24066162109375,35.2599983215332,0.0,359.0,-0.3132781982421875,2.780242919921875,Closing,0.0,0.0,0.0,0.0,0.0,0.0,0.0,0.0,
5.074040999999968,0.0,0.0,115619.0,0.0,-1312.5,0.0,0.0,0.375,0.8581542090000001,4.932250999999998,0.0,-83689.0,0.0,1252.5,0.0,0.0,0.5,0.550537053,4.963769999999998,0.0,121710.0,0.0,-1252.5,0.0,0.0,0.125,3.436278945,0.01,0.0,-100225.0,0.125,1305.0,0.0,0.0,0.375,1.6882322490000001,0.01,0.0,-1.9500000476837158,-2.299999952316284,-42.61000061035156,0.101806640625,-0.3404541015625,0.63995361328125,35.2599983215332,0.0,309.0,-0.3448486328125,2.758758544921875,Closing,0.0,0.0,0.0,0.0,0.0,0.0,0.0,0.0,
5.192132999999914,0.0,0.0,115425.0,0.0,-1057.5,0.0,0.0,0.25,0.930175686,4.932250999999998,0.0,-83520.0,0.0,1065.0,0.0,0.0,0.25,0.59814447,4.963769999999998,0.0,121545.0,0.0,-1035.0,0.0,0.0,0.125,3.493651986,0.01,0.0,-100056.0,0.125,1057.5,0.0,0.0,0.25,1.7419431810000001,0.01,0.0,-2.799999952316284,-1.75,-42.5,0.00531005859375,0.06280517578125,1.44757080078125,35.2599983215332,0.0,-53.0,-0.354400634765625,2.723297119140625,Closing,0.0,0.0,0.0,0.0,0.0,0.0,0.0,0.0,
5.316292000000016,0.0,0.0,115261.0,0.0,-892.5,-1207.0866644382477,0.0,0.25,0.863037021,4.932250999999998,0.0,-83378.0,0.125,885.0,1207.0866644382477,0.0,0.25,0.57373041,4.963769999999998,0.0,121412.0,0.125,-832.5,-1207.0866644382477,0.0,0.125,3.4118648850000004,0.01,0.0,-99914.0,0.5,892.5,1207.0866644382477,0.0,0.25,1.673583813,0.01,0.0,-2.3299999237060547,-0.6200000047683716,-42.7400016784668,0.217529296875,0.07879638671875,0.96966552734375,35.25,0.0,87.0,-0.3566741943359375,2.698822021484375,Closing,0.0,0.0,0.0,0.0,0.0,0.0,0.0,0.0,
5.434559000000008,0.0,0.0,115132.0,0.125,-682.5,-942.519673705101,0.0,0.25,0.809326089,4.932250999999998,0.0,-83272.0,0.25,652.5,942.519673705101,0.0,0.25,0.531005805,4.963769999999998,0.0,121309.0,0.125,-630.0,-942.519673705101,0.0,0.125,3.3679195770000003,0.01,0.0,-99810.0,0.5,652.5,942.519673705101,0.0,0.25,1.619872881,0.01,0.0,-1.7999999523162842,-0.029999999329447746,-42.59000015258789,0.042236328125,-0.0897216796875,1.1661376953125,35.25,0.0,67.0,-0.358123779296875,2.6873016357421875,Closing,0.0,0.0,0.0,0.0,0.0,0.0,0.0,0.0,
5.559744999999995,0.0,0.0,114931.0,0.125,-607.5,-909.4488233327866,0.0,0.125,0.8020018710000001,4.932250999999998,0.0,-83180.0,0.625,570.0,909.4488233327866,0.0,0.125,0.506591745,4.963769999999998,0.0,121220.0,0.625,-555.0,-909.4488233327866,0.0,0.0,3.3679195770000003,0.01,0.0,-99723.0,1.125,532.5,909.4488233327866,0.0,0.125,1.6113279600000001,0.01,0.0,-1.6799999475479126,0.18000000715255737,-42.459999084472656,-0.046630859375,-0.0203857421875,1.1063232421875,35.25,0.0,-45.0,-0.35693359375,2.6853485107421875,Closing,0.0,0.0,0.0,0.0,0.0,0.0,0.0,0.0,
5.68310699999996,0.0,0.0,114844.0,0.75,-577.5,-859.8425477743149,0.0,0.125,0.8007811680000001,4.932250999999998,0.0,-83086.0,1.5,600.0,859.8425477743149,0.0,0.0,0.505371042,4.963769999999998,0.0,121125.0,1.5,-607.5,-859.8425477743149,0.0,0.0,3.3679195770000003,0.01,0.0,-99628.0,1.75,600.0,859.8425477743149,0.0,0.25,1.6052244450000002,0.01,0.0,-1.5700000524520874,0.11999999731779099,-42.369998931884766,-0.0452880859375,0.01031494140625,1.17669677734375,35.25,0.0,-64.0,-0.3560791015625,2.68609619140625,Closing,0.0,0.0,0.0,0.0,0.0,0.0,0.0,0.0,
5.811069999999948,0.0,0.0,114755.0,2.375,-525.0,-843.3070600032806,0.0,0.125,0.8007811680000001,4.932250999999998,0.0,-83002.0,3.375,510.0,843.3070600032806,0.0,0.0,0.47607417,4.963769999999998,0.0,121046.0,3.25,-487.5,-843.3070600032806,0.0,0.0,3.3679195770000003,0.01,0.0,-99545.0,2.75,517.5,843.3070600032806,0.0,0.25,1.5783689790000002,0.01,0.0,-1.4500000476837158,-0.27000001072883606,-42.34000015258789,-0.095703125,-0.08026123046875,1.0631103515625,35.22999954223633,0.0,-31.0,-0.3602447509765625,2.68511962890625,Closing,0.0,0.0,0.0,0.0,0.0,0.0,0.0,0.0,
5.930733000000007,0.0,0.0,114656.0,2.625,-615.0,-843.3070600032806,0.0,0.125,0.8007811680000001,4.932250999999998,0.0,-82905.0,3.5,622.5,843.3070600032806,0.0,0.25,0.47241206100000005,4.963769999999998,0.0,120986.0,5.25,-360.0,-843.3070600032806,0.0,0.0,3.3679195770000003,0.01,0.0,-99448.0,3.375,607.5,843.3070600032806,0.0,0.25,1.5771482760000002,0.01,0.0,-1.350000023841858,-0.6200000047683716,-42.290000915527344,-0.1181640625,0.01556396484375,0.94647216796875,35.22999954223633,0.0,-105.0,-0.369659423828125,2.6815185546875,Closing,0.0,0.0,0.0,0.0,0.0,0.0,0.0,0.0,
6.053668999999994,0.0,0.0,114530.0,3.25,-765.0,-1008.6614370346069,0.0,0.125,0.8020018710000001,4.932250999999998,0.0,-82784.0,5.0,765.0,1008.6614370346069,0.0,0.25,0.47241206100000005,4.963769999999998,0.0,120916.0,11.375,-532.5,-1008.6614370346069,0.0,0.0,3.3679195770000003,0.01,0.0,-99335.0,4.625,712.5,1008.6614370346069,0.0,0.25,1.616210772,0.01,0.0,-1.409999966621399,-1.1699999570846558,-42.099998474121094,-0.07330322265625,-0.0272216796875,0.793701171875,35.22999954223633,0.0,-37.0,-0.3891754150390625,2.673858642578125,Closing,0.0,0.0,0.0,0.0,0.0,0.0,0.0,0.0,
6.174985999999917,0.0,0.0,114380.0,2.75,-937.5,-1008.6614370346069,0.0,0.125,0.8020018710000001,4.932250999999998,0.0,-82637.0,3.75,937.5,1008.6614370346069,0.0,0.25,0.47241206100000005,4.963769999999998,0.0,120768.0,6.375,-937.5,-1008.6614370346069,0.0,0.0,3.3666988740000003,0.01,0.0,-99194.0,3.75,900.0,1008.6614370346069,0.0,0.125,1.625976396,0.01,0.0,-1.4800000190734863,-1.6699999570846558,-41.880001068115234,-0.17596435546875,-0.0294189453125,0.89239501953125,35.22999954223633,0.0,-107.0,-0.4062957763671875,2.6569366455078125,Closing,0.0,0.0,0.0,0.0,0.0,0.0,0.0,0.0,
6.3078560000000286,0.0,0.0,114213.0,1.375,-1035.0,-1008.6614370346069,0.0,0.125,0.8020018710000001,4.932250999999998,0.0,-82472.0,2.625,1027.5,1008.6614370346069,0.0,0.25,0.47241206100000005,4.963769999999998,0.0,120620.0,6.0,-922.5,-1008.6614370346069,0.0,0.0,3.3691402800000003,0.01,0.0,-99037.0,3.0,997.5,1008.6614370346069,0.0,0.125,1.625976396,0.01,0.0,-1.3700000047683716,-1.899999976158142,-41.81999969482422,-0.0865478515625,0.06488037109375,1.083984375,35.2599983215332,0.0,-98.0,-0.4114227294921875,2.6368865966796875,Closing,0.0,0.0,0.0,0.0,0.0,0.0,0.0,0.0,
6.429669999999925,0.0,0.0,114066.0,0.125,-967.5,-538.3147681777305,0.0,2.375,0.311279265,3.9147634155663287,0.0,-82295.0,6.75,1117.5,1469.6474138901942,0.0,0.25,0.38208003900000004,4.679123281797407,0.0,120453.0,0.875,-1057.5,-538.3147681777305,0.0,5.25,3.868407807,1.0191686639905617,0.0,-98861.0,6.625,1117.5,1469.6474138901942,0.0,0.375,1.799316222,0.28431583833426144,0.0,-1.2200000286102295,-1.9600000381469727,-42.20000076293945,0.057373046875,0.01385498046875,1.0308837890625,35.2599983215332,0.0,44.0,-0.41839599609375,2.6228485107421875,Closing,0.0,0.0,0.0,0.0,0.0,0.0,0.0,0.0,
6.55246100000001,0.0,0.0,113960.0,0.125,-667.5,-479.5275494456291,0.0,5.875,4.754638185,4.932250999999998,0.0,-82110.0,0.0,1110.0,479.5275494456291,0.0,0.5,0.250244115,4.963769999999998,0.0,120329.0,2.375,-570.0,-479.5275494456291,0.0,3.5,4.0856929410000005,0.01,0.0,-98678.0,0.375,1125.0,479.5275494456291,0.0,0.625,1.9152830070000002,0.01,0.0,-1.3700000047683716,-0.18000000715255737,-49.439998626708984,-0.03594970703125,0.07330322265625,1.0714111328125,35.2599983215332,0.0,-96.0,-0.4149322509765625,2.6170654296875,Closing,0.0,0.0,0.0,0.0,0.0,0.0,0.0,0.0,
6.674266999999992,0.0,0.0,113891.0,0.0,-435.0,0.0,0.0,1.75,0.6445311840000001,4.932250999999998,0.0,-81927.0,0.0,1072.5,0.0,0.0,0.5,0.39550777200000004,4.963769999999998,0.0,120269.0,0.0,-247.5,0.0,0.0,1.125,3.435058242,0.01,0.0,-98494.0,0.125,1102.5,0.0,0.0,0.5,1.702880685,0.01,0.0,-1.5099999904632568,-0.3100000023841858,-56.38999938964844,0.0718994140625,-0.08026123046875,0.85760498046875,35.2599983215332,0.0,90.0,-0.3985443115234375,2.621124267578125,Closing,0.0,0.0,0.0,0.0,0.0,0.0,0.0,0.0,
6.798839999999967,0.0,0.0,113835.0,0.0,-360.0,0.0,0.0,0.375,0.9497069340000001,4.932250999999998,0.0,-81817.0,0.0,330.0,0.0,0.0,0.5,0.48706049700000004,4.963769999999998,0.0,120262.0,0.0,-90.0,0.0,0.0,0.125,3.242187168,0.01,0.0,-98361.0,0.125,375.0,0.0,0.0,0.25,1.591796712,0.01,0.0,-1.8700000047683716,2.1500000953674316,-55.81999969482422,0.177001953125,0.2557373046875,0.8509521484375,35.2599983215332,0.0,-152.0,-0.3584747314453125,2.6456146240234375,Closing,0.0,0.0,0.0,0.0,0.0,0.0,0.0,0.0,
6.932511999999988,0.0,0.0,113825.0,7.875,-22.5,-1174.0156888961792,0.0,1.0,1.1608885530000002,0.5498168668524864,0.0,-81850.0,6.5,-390.0,-1174.0156888961792,0.0,0.5,0.27709958100000004,4.41043958977222,0.0,120250.0,8.0,-112.5,-1174.0156888961792,0.0,0.625,2.994384459,4.389674732977291,0.0,-98398.0,4.625,-345.0,-1174.0156888961792,0.0,0.875,1.8969724620000001,0.552687206278561,0.0,-1.7000000476837158,1.4500000476837158,-55.790000915527344,-0.16741943359375,-0.1903076171875,0.88836669921875,35.22999954223633,0.0,28.0,-0.3220672607421875,2.6823577880859375,Closing,0.0,0.0,0.0,0.0,0.0,0.0,0.0,0.0,
7.062863999999943,0.0,0.0,113824.0,0.0,-22.5,0.0,0.0,0.75,1.311035022,0.5498168668524864,0.0,-81884.0,0.0,-52.5,0.0,0.0,0.25,4.854735831,4.41043958977222,0.0,120233.0,0.0,45.0,0.0,0.0,0.125,2.672118867,4.389674732977291,0.0,-98442.0,0.125,-90.0,0.0,0.0,0.875,2.263183362,0.552687206278561,0.0,-1.3700000047683716,1.1200000047683716,-54.2599983215332,-0.0716552734375,-0.00634765625,0.95806884765625,35.22999954223633,0.0,-66.0,-0.2923126220703125,2.71112060546875,Closing,0.0,0.0,0.0,0.0,0.0,0.0,0.0,0.0,
7.187283999999985,0.0,0.0,113823.0,0.0,-7.5,0.0,0.0,0.25,1.312255725,0.5498168668524864,0.0,-81883.0,0.0,0.0,0.0,0.0,0.25,4.783935057,4.41043958977222,0.0,120243.0,0.0,0.0,0.0,0.0,0.25,2.647704807,4.389674732977291,0.0,-98445.0,0.125,-37.5,0.0,0.0,0.25,2.298583749,0.552687206278561,0.0,-1.409999966621399,0.8600000143051147,-53.79999923706055,-0.05712890625,0.00482177734375,1.0157470703125,35.22999954223633,0.0,-66.0,-0.2633514404296875,2.740325927734375,Closing,0.0,0.0,0.0,0.0,0.0,0.0,0.0,0.0,
7.31022100000002,0.0,0.0,113823.0,0.0,0.0,0.0,0.0,0.25,1.325683458,0.5498168668524864,0.0,-81883.0,0.0,0.0,0.0,0.0,0.25,4.83398388,4.41043958977222,0.0,120243.0,0.0,0.0,0.0,0.0,0.125,2.755126671,4.389674732977291,0.0,-98448.0,0.125,0.0,0.0,0.0,0.25,2.231445084,0.552687206278561,0.0,-1.3700000047683716,0.7099999785423279,-53.849998474121094,-0.01763916015625,-0.00909423828125,0.9930419921875,35.22999954223633,0.0,-29.0,-0.240570068359375,2.7462921142578125,Closing,0.0,0.0,0.0,0.0,0.0,0.0,0.0,0.0,
7.4297339999999386,0.0,0.0,113823.0,0.0,0.0,0.0,0.0,0.25,1.325683458,0.5498168668524864,0.0,-81883.0,0.0,0.0,0.0,0.0,0.25,4.8681635640000005,4.41043958977222,0.0,120242.0,0.0,0.0,0.0,0.0,0.125,2.8027340880000002,4.389674732977291,0.0,-98448.0,0.125,0.0,0.0,0.0,0.25,2.203368915,0.552687206278561,0.0,-1.2999999523162842,0.5199999809265137,-53.939998626708984,-0.00335693359375,-0.01971435546875,1.02972412109375,35.209999084472656,0.0,-10.0,-0.2227935791015625,2.7452392578125,Closing,0.0,0.0,0.0,0.0,0.0,0.0,0.0,0.0,
7.551946999999927,0.0,0.0,113808.0,12.125,-165.0,-1537.7952933311462,0.0,0.25,1.35498033,0.5498168668524864,0.0,-81884.0,14.0,-255.0,-1537.7952933311462,0.0,0.25,4.869384267,4.41043958977222,0.0,120242.0,10.625,-90.0,-1537.7952933311462,0.0,0.0,2.8430172870000003,4.389674732977291,0.0,-98448.0,13.5,-255.0,-1537.7952933311462,0.0,0.25,2.203368915,0.552687206278561,0.0,-1.2999999523162842,0.03999999910593033,-52.06999969482422,-0.28900146484375,-0.15887451171875,1.17803955078125,35.209999084472656,0.0,-74.0,-0.22479248046875,2.7415924072265625,Closing,0.0,0.0,0.0,0.0,0.0,0.0,0.0,0.0,
7.674851000000024,0.0,0.0,113751.0,0.0,-382.5,0.0,0.0,0.125,1.353759627,0.5498168668524864,0.0,-82016.0,0.0,-367.5,0.0,0.0,0.25,4.896239733000001,4.41043958977222,0.0,120184.0,0.0,-210.0,0.0,0.0,0.125,2.833251663,4.389674732977291,0.0,-98561.0,0.125,-352.5,0.0,0.0,0.25,2.203368915,0.552687206278561,0.0,-1.1699999570846558,0.05000000074505806,-43.540000915527344,-0.06536865234375,0.0826416015625,1.13836669921875,35.209999084472656,0.0,-121.0,-0.2345428466796875,2.7291717529296875,Closing,0.0,0.0,0.0,0.0,0.0,0.0,0.0,0.0,
7.862758999999961,0.0,0.0,113634.0,0.0,0.0,0.0,0.0,0.125,1.353759627,0.5498168668524864,0.0,-82068.0,0.0,0.0,0.0,0.0,0.125,4.90722606,4.41043958977222,0.0,120129.0,0.0,0.0,0.0,0.0,0.125,2.833251663,4.389674732977291,0.0,-98620.0,0.0,0.0,0.0,0.0,0.25,2.203368915,0.552687206278561,0.0,-0.949999988079071,0.0,-39.75,-0.01348876953125,-0.037353515625,1.0023193359375,35.20000076293945,0.0,2.0,-0.248870849609375,2.7293853759765625,Closing,0.0,0.0,0.0,0.0,0.0,0.0,0.0,0.0,
8.232217999999994,0.0,0.0,113634.0,0.0,0.0,0.0,0.0,0.125,1.353759627,0.5498168668524864,0.0,-82068.0,0.0,0.0,0.0,0.0,0.0,4.908446763000001,4.41043958977222,0.0,120129.0,0.0,0.0,0.0,0.0,0.125,2.833251663,4.389674732977291,0.0,-98620.0,0.125,0.0,0.0,0.0,0.25,2.202148212,0.552687206278561,0.0,-0.9300000071525574,-0.23999999463558197,-40.0,-0.02520751953125,-0.0137939453125,1.02093505859375,35.22999954223633,0.0,-17.0,-0.24920654296875,2.728485107421875,Closing,0.0,0.0,0.0,0.0,0.0,0.0,0.0,0.0,
8.595545999999972,0.0,0.0,113634.0,0.0,0.0,0.0,0.0,0.125,1.353759627,0.5498168668524864,0.0,-82068.0,0.0,0.0,0.0,0.0,0.125,4.910888169000001,4.41043958977222,0.0,120129.0,0.0,0.0,0.0,0.0,0.125,2.833251663,4.389674732977291,0.0,-98620.0,0.125,0.0,0.0,0.0,0.25,2.202148212,0.552687206278561,0.0,-0.8999999761581421,-0.4099999964237213,-40.0,-0.0111083984375,-0.0137939453125,1.01739501953125,35.2400016784668,0.0,-4.0,-0.24920654296875,2.728485107421875,Closing,0.0,0.0,0.0,0.0,0.0,0.0,0.0,0.0,
9.02500199999998,0.0,0.0,113634.0,0.0,0.0,0.0,0.0,0.125,1.353759627,0.5498168668524864,0.0,-82068.0,0.0,0.0,0.0,0.0,0.0,4.909667466,4.41043958977222,0.0,120129.0,0.0,0.0,0.0,0.0,0.125,2.833251663,4.389674732977291,0.0,-98620.0,0.125,0.0,0.0,0.0,0.25,2.203368915,0.552687206278561,0.0,-0.8899999856948853,-0.4699999988079071,-40.0099983215332,-0.0137939453125,-0.012451171875,1.01910400390625,35.2400016784668,0.0,-6.0,-0.24920654296875,2.728485107421875,Closing,0.0,0.0,0.0,0.0,0.0,0.0,0.0,0.0,
9.194677000000025,0.0,0.0,113634.0,0.0,0.0,0.0,0.0,0.125,1.353759627,0.5498168668524864,0.0,-82068.0,0.0,0.0,0.0,0.0,0.0,4.908446763000001,4.41043958977222,0.0,120129.0,0.0,0.0,0.0,0.0,0.125,2.833251663,4.389674732977291,0.0,-98620.0,0.125,0.0,0.0,0.0,0.25,2.203368915,0.552687206278561,0.0,-0.8899999856948853,-0.5099999904632568,-40.0099983215332,-0.012451171875,-0.010986328125,1.016845703125,35.2400016784668,0.0,-5.0,-0.24920654296875,2.728485107421875,Closing,0.0,0.0,0.0,0.0,0.0,0.0,0.0,0.0,
9.331714999999967,0.0,0.0,113634.0,0.0,0.0,0.0,0.0,0.125,1.353759627,0.5498168668524864,0.0,-82068.0,0.0,0.0,0.0,0.0,0.125,4.908446763000001,4.41043958977222,0.0,120129.0,0.0,0.0,0.0,0.0,0.125,2.833251663,4.389674732977291,0.0,-98620.0,0.125,0.0,0.0,0.0,0.25,2.203368915,0.552687206278561,0.0,-0.8799999952316284,-0.550000011920929,-40.0099983215332,-0.01416015625,-0.0150146484375,1.01800537109375,35.2400016784668,0.0,-3.0,-0.24920654296875,2.728485107421875,Closing,0.0,0.0,0.0,0.0,0.0,0.0,0.0,0.0,
9.46767200000002,0.0,0.0,113649.0,3.375,135.0,853.125,0.0,0.125,1.3464354090000001,0.5498168668524888,0.0,-82064.0,4.875,127.5,853.125,0.0,0.0,4.903563951000001,4.410439589772222,0.0,120129.0,4.625,52.5,853.125,0.0,0.125,2.7978512760000003,4.389674732977289,0.0,-98620.0,4.125,120.0,853.125,0.0,0.25,2.154540795,0.5526872062785588,0.0,-0.8500000238418579,-0.5,-41.20000076293945,-0.06475830078125,0.04931640625,1.16680908203125,35.189998626708984,0.0,-84.0,-0.249847412109375,2.7288360595703125,Closing,0.0,0.0,0.0,0.0,0.0,0.0,0.0,0.0,
9.593405999999959,0.0,0.0,113679.0,0.0,142.5,0.0,0.0,0.125,1.3439940030000002,0.5498168668524888,0.0,-82029.0,0.0,120.0,0.0,0.0,0.125,4.909667466,4.410439589772222,0.0,120147.0,0.0,67.5,0.0,0.0,0.0,2.7990719790000003,4.389674732977289,0.0,-98586.0,0.125,105.0,0.0,0.0,0.125,2.149657983,0.5526872062785588,0.0,-0.8100000023841858,-0.6499999761581421,-44.599998474121094,-0.03460693359375,-0.0286865234375,1.04669189453125,35.189998626708984,0.0,-6.0,-0.25042724609375,2.7291717529296875,Closing,0.0,0.0,0.0,0.0,0.0,0.0,0.0,0.0,
9.721726000000023,0.0,0.0,113694.0,0.0,112.5,0.0,0.0,0.125,1.3452147060000001,0.5498168668524888,0.0,-82013.0,0.0,97.5,0.0,0.0,0.0,4.908446763000001,4.410439589772222,0.0,120154.0,0.0,67.5,0.0,0.0,0.0,2.7990719790000003,4.389674732977289,0.0,-98567.0,0.125,97.5,0.0,0.0,0.25,2.144775171,0.5526872062785588,0.0,-0.8299999833106995,-0.5899999737739563,-45.689998626708984,-0.03118896484375,-0.05889892578125,1.06341552734375,35.189998626708984,0.0,17.0,-0.25146484375,2.7306976318359375,Closing,0.0,0.0,0.0,0.0,0.0,0.0,0.0,0.0,
9.846407999999938,0.0,0.0,113697.0,0.0,7.5,0.0,0.0,0.125,1.3452147060000001,0.5498168668524888,0.0,-82007.0,0.0,0.0,0.0,0.0,0.125,4.909667466,4.410439589772222,0.0,120162.0,0.0,0.0,0.0,0.0,0.0,2.7990719790000003,4.389674732977289,0.0,-98562.0,0.125,0.0,0.0,0.0,0.25,2.144775171,0.5526872062785588,0.0,-0.8199999928474426,-0.7200000286102295,-45.29999923706055,-0.0400390625,-0.01007080078125,1.0535888671875,35.189998626708984,0.0,-22.0,-0.2521514892578125,2.7310791015625,Closing,0.0,0.0,0.0,0.0,0.0,0.0,0.0,0.0,
9.96971199999994,0.0,0.0,113697.0,0.0,0.0,0.0,0.0,0.125,1.3452147060000001,0.5498168668524888,0.0,-82007.0,0.0,0.0,0.0,0.0,0.125,4.909667466,4.410439589772222,0.0,120162.0,0.0,0.0,0.0,0.0,0.0,2.7990719790000003,4.389674732977289,0.0,-98562.0,0.0,0.0,0.0,0.0,0.25,2.144775171,0.5526872062785588,0.0,-0.8399999737739563,-0.6700000166893005,-45.11000061035156,-0.01531982421875,3.0517578125E-4,1.0252685546875,35.25,0.0,-13.0,-0.2523956298828125,2.731048583984375,Closing,0.0,0.0,0.0,0.0,0.0,0.0,0.0,0.0,
10.089978999999934,0.0,0.0,113697.0,0.0,0.0,0.0,0.0,0.125,1.3452147060000001,0.5498168668524888,0.0,-82007.0,0.0,0.0,0.0,0.0,0.125,4.909667466,4.410439589772222,0.0,120162.0,0.0,0.0,0.0,0.0,0.0,2.7990719790000003,4.389674732977289,0.0,-98562.0,0.125,0.0,0.0,0.0,0.25,2.143554468,0.5526872062785588,0.0,-0.8299999833106995,-0.7200000286102295,-45.20000076293945,-0.00830078125,-0.0145263671875,1.039306640625,35.25,0.0,3.0,-0.2523956298828125,2.731048583984375,Closing,0.0,0.0,0.0,0.0,0.0,0.0,0.0,0.0,
10.22427299999993,0.0,0.0,113697.0,1.625,-75.0,-578.740131855011,0.0,2.125,1.1657713650000001,4.932250999999998,0.0,-81987.0,1.75,120.0,578.740131855011,0.0,2.875,0.186767559,4.963769999999998,0.0,120152.0,1.75,-30.0,-578.740131855011,0.0,2.125,3.017577816,0.01,0.0,-98543.0,1.625,112.5,578.740131855011,0.0,1.375,1.9201658190000002,0.01,0.0,-0.8399999737739563,-0.9100000262260437,-45.060001373291016,-0.0057373046875,-0.075439453125,0.91107177734375,35.25,0.0,50.0,-0.252716064453125,2.7308197021484375,Closing,0.0,0.0,0.0,0.0,0.0,0.0,0.0,0.0,
10.348648999999975,0.0,0.0,113684.0,6.375,-82.5,-909.4488233327866,0.0,0.75,0.8679198330000001,4.932250999999998,0.0,-81966.0,9.625,82.5,909.4488233327866,0.0,1.0,0.46752924900000004,4.963769999999998,0.0,120124.0,6.375,-172.5,-909.4488233327866,0.0,0.25,3.439941054,0.01,0.0,-98518.0,7.0,157.5,909.4488233327866,0.0,0.5,1.567382652,0.01,0.0,-0.9100000262260437,-1.5499999523162842,-45.08000183105469,-0.1385498046875,-0.00848388671875,0.9747314453125,35.25,0.0,-84.0,-0.255889892578125,2.7273101806640625,Closing,0.0,0.0,0.0,0.0,0.0,0.0,0.0,0.0,
10.473417999999947,0.0,0.0,113659.0,0.0,-105.0,0.0,0.0,0.25,0.705566334,4.932250999999998,0.0,-81952.0,0.0,112.5,0.0,0.0,0.25,0.588378846,4.963769999999998,0.0,120115.0,0.0,-82.5,0.0,0.0,0.25,3.602294553,0.01,0.0,-98498.0,0.125,120.0,0.0,0.0,0.375,1.4758299270000002,0.01,0.0,-0.8199999928474426,-1.3899999856948853,-45.099998474121094,0.15106201171875,0.00750732421875,0.95733642578125,35.2599983215332,0.0,107.0,-0.26519775390625,2.7166748046875,Closing,0.0,0.0,0.0,0.0,0.0,0.0,0.0,0.0,
10.593718999999924,0.0,0.0,113645.0,0.0,-157.5,0.0,0.0,0.375,0.734863206,4.932250999999998,0.0,-81928.0,0.0,157.5,0.0,0.0,0.25,0.57373041,4.963769999999998,0.0,120111.0,0.0,-22.5,0.0,0.0,0.25,3.4741207380000003,0.01,0.0,-98474.0,0.125,112.5,0.0,0.0,0.375,1.539306483,0.01,0.0,-0.8299999833106995,-0.6899999976158142,-45.22999954223633,0.09814453125,-0.0108642578125,1.1231689453125,35.2599983215332,0.0,74.0,-0.2665557861328125,2.7166748046875,Closing,0.0,0.0,0.0,0.0,0.0,0.0,0.0,0.0,
10.717476999999956,0.0,0.0,113628.0,0.0,0.0,0.0,0.0,0.375,0.7788085140000001,4.932250999999998,0.0,-81928.0,0.0,0.0,0.0,0.0,0.25,0.565185489,4.963769999999998,0.0,120111.0,0.0,0.0,0.0,0.0,0.125,3.342284814,0.01,0.0,-98474.0,0.125,0.0,0.0,0.0,0.375,1.6101072570000001,0.01,0.0,-0.7900000214576721,-0.5099999904632568,-45.13999938964844,-0.056640625,-0.00531005859375,1.05279541015625,35.2599983215332,0.0,-39.0,-0.265106201171875,2.720458984375,Closing,0.0,0.0,0.0,0.0,0.0,0.0,0.0,0.0,
10.837521999999996,0.0,0.0,113628.0,0.0,0.0,0.0,0.0,0.125,0.7910155440000001,4.932250999999998,0.0,-81928.0,0.0,0.0,0.0,0.0,0.25,0.550537053,4.963769999999998,0.0,120111.0,0.0,0.0,0.0,0.0,0.0,3.334960596,0.01,0.0,-98474.0,0.125,0.0,0.0,0.0,0.25,1.619872881,0.01,0.0,-0.8100000023841858,-0.7200000286102295,-45.13999938964844,-0.06036376953125,-0.0025634765625,1.03131103515625,35.2599983215332,0.0,-41.0,-0.265838623046875,2.7186737060546875,Closing,0.0,0.0,0.0,0.0,0.0,0.0,0.0,0.0,
10.962316999999922,0.0,0.0,113628.0,2.25,-112.5,-760.6299340724945,0.0,0.125,0.797119059,4.932250999999998,0.0,-81907.0,3.0,127.5,760.6299340724945,0.0,0.25,0.535888617,4.963769999999998,0.0,120087.0,2.5,-142.5,-760.6299340724945,0.0,0.0,3.333739893,0.01,0.0,-98457.0,3.125,127.5,760.6299340724945,0.0,0.125,1.616210772,0.01,0.0,-0.8700000047683716,-1.2599999904632568,-45.11000061035156,-0.09100341796875,-0.039794921875,0.73394775390625,35.25,0.0,-32.0,-0.2678985595703125,2.712982177734375,Closing,0.0,0.0,0.0,0.0,0.0,0.0,0.0,0.0,
11.08182799999998,0.0,0.0,113568.0,5.25,-210.0,-892.9133981466293,0.0,0.125,0.8044432770000001,4.932250999999998,0.0,-81871.0,7.125,202.5,892.9133981466293,0.0,0.25,0.521240181,4.963769999999998,0.0,120050.0,5.5,-217.5,-892.9133981466293,0.0,0.0,3.3276363780000002,0.01,0.0,-98421.0,6.75,225.0,892.9133981466293,0.0,0.125,1.621093584,0.01,0.0,-0.8100000023841858,-1.0800000429153442,-45.13999938964844,0.56121826171875,-0.00445556640625,1.16827392578125,35.25,0.0,402.0,-0.2761993408203125,2.6992034912109375,Closing,0.0,0.0,0.0,0.0,0.0,0.0,0.0,0.0,
11.207363000000012,0.0,0.0,113572.0,10.625,0.0,-677.9527455568314,0.0,0.125,0.806884683,4.932250999999998,0.0,-81868.0,14.0,15.0,677.9527455568314,0.0,0.125,0.521240181,4.963769999999998,0.0,120046.0,9.875,-22.5,-677.9527455568314,0.0,0.0,3.3276363780000002,0.01,0.0,-98415.0,12.5,0.0,677.9527455568314,0.0,0.125,1.621093584,0.01,0.0,-0.9100000262260437,-1.0099999904632568,-45.13999938964844,-0.074951171875,0.0333251953125,1.13775634765625,35.25,0.0,-75.0,-0.2737274169921875,2.696380615234375,Closing,0.0,0.0,0.0,0.0,0.0,0.0,0.0,0.0,
11.331662999999942,0.0,0.0,113589.0,0.0,105.0,0.0,0.0,0.125,0.806884683,4.932250999999998,0.0,-81883.0,0.0,-97.5,0.0,0.0,0.125,0.520019478,4.963769999999998,0.0,120050.0,0.0,22.5,0.0,0.0,0.0,3.3203121600000003,0.01,0.0,-98424.0,0.125,-82.5,0.0,0.0,0.125,1.621093584,0.01,0.0,-0.9100000262260437,-0.49000000953674316,-45.29999923706055,-0.07830810546875,-0.02642822265625,0.81890869140625,35.25,0.0,-40.0,-0.2698822021484375,2.6949920654296875,Closing,0.0,0.0,0.0,0.0,0.0,0.0,0.0,0.0,
11.455481999999959,0.0,0.0,113595.0,0.0,37.5,0.0,0.0,0.125,0.8056639800000001,4.932250999999998,0.0,-81890.0,0.0,-45.0,0.0,0.0,0.125,0.521240181,4.963769999999998,0.0,120057.0,0.0,22.5,0.0,0.0,0.0,3.3190914570000003,0.01,0.0,-98436.0,0.125,-60.0,0.0,0.0,0.125,1.621093584,0.01,0.0,-0.7699999809265137,-0.8899999856948853,-45.16999816894531,-0.09503173828125,-0.12677001953125,1.1192626953125,35.25,0.0,24.0,-0.269012451171875,2.693634033203125,Closing,0.0,0.0,0.0,0.0,0.0,0.0,0.0,0.0,
11.586863000000012,0.0,0.0,113595.0,0.0,0.0,0.0,0.0,0.125,0.8056639800000001,4.932250999999998,0.0,-81891.0,0.0,0.0,0.0,0.0,0.125,0.521240181,4.963769999999998,0.0,120057.0,0.0,0.0,0.0,0.0,0.0,3.3264156750000002,0.01,0.0,-98437.0,0.125,0.0,0.0,0.0,0.125,1.618652178,0.01,0.0,-0.7400000095367432,-0.9700000286102295,-45.16999816894531,-0.00640869140625,0.02740478515625,1.09173583984375,35.25,0.0,-20.0,-0.2699127197265625,2.6893463134765625,Closing,0.0,0.0,0.0,0.0,0.0,0.0,0.0,0.0,
11.704498999999952,0.0,0.0,113595.0,0.0,0.0,0.0,0.0,0.125,0.806884683,4.932250999999998,0.0,-81891.0,0.0,0.0,0.0,0.0,0.125,0.520019478,4.963769999999998,0.0,120057.0,0.0,0.0,0.0,0.0,0.0,3.333739893,0.01,0.0,-98437.0,0.125,0.0,0.0,0.0,0.125,1.621093584,0.01,0.0,-0.8299999833106995,-0.8299999833106995,-45.209999084472656,-0.00335693359375,0.02001953125,1.0003662109375,35.25,0.0,-16.0,-0.27020263671875,2.688629150390625,Closing,0.0,0.0,0.0,0.0,0.0,0.0,0.0,0.0,
11.829044999999926,0.0,0.0,113579.0,7.375,-97.5,-1312.5,0.0,5.625,0.44189448600000003,3.6991882500000015,0.0,-81916.0,11.25,-187.5,-1312.5,0.0,8.25,0.79345695,1.2409425000000012,0.0,120056.0,10.25,-15.0,-1312.5,0.0,5.75,3.046874688,3.7053000000000016,0.0,-98423.0,9.375,105.0,1312.5,0.0,6.75,1.260986199,3.7185000000000015,0.0,-0.8199999928474426,-1.1399999856948853,-44.84000015258789,0.09051513671875,-0.20318603515625,0.66253662109375,35.25,0.0,210.0,-0.2706298828125,2.6883697509765625,Closing,0.0,0.0,0.0,0.0,0.0,0.0,0.0,0.0,
11.94922100000002,0.0,0.0,113574.0,12.125,-22.5,-885.9375,0.0,2.5,4.702147956,3.6991882500000015,0.0,-81924.0,13.0,-67.5,-885.9375,0.0,1.5,1.593017415,1.2409425000000012,0.0,120049.0,13.375,-37.5,-885.9375,0.0,2.375,2.316894294,3.7053000000000016,0.0,-98407.0,12.375,112.5,885.9375,0.0,1.5,0.48095698200000003,3.7185000000000015,0.0,-0.5099999904632568,-0.7400000095367432,-44.93000030517578,-0.1427001953125,0.1827392578125,0.931884765625,35.25,0.0,-227.0,-0.2706756591796875,2.6921844482421875,Closing,0.0,0.0,0.0,0.0,0.0,0.0,0.0,0.0,
12.071321999999927,0.0,0.0,113534.0,13.5,-225.0,-803.90625,0.0,0.25,4.2956538570000005,3.6991882500000015,0.0,-81974.0,13.25,-412.5,-803.90625,0.0,0.25,2.131347438,1.2409425000000012,0.0,120039.0,17.25,-187.5,-803.90625,0.0,0.625,1.7932127070000001,3.7053000000000016,0.0,-98365.0,12.25,375.0,803.90625,0.0,0.25,4.956054180000001,3.7185000000000015,0.0,0.9100000262260437,-0.5699999928474426,-45.08000183105469,-0.034912109375,0.2586669921875,0.92681884765625,35.25,0.0,-190.0,-0.2818145751953125,2.709320068359375,Closing,0.0,0.0,0.0,0.0,0.0,0.0,0.0,0.0,
12.195839999999967,0.0,0.0,113425.0,8.625,-682.5,-803.90625,0.0,0.375,4.379882364,3.6991882500000015,0.0,-82069.0,10.875,-622.5,-803.90625,0.0,0.5,2.0654294760000003,1.2409425000000012,0.0,119957.0,13.625,-607.5,-803.90625,0.0,0.375,1.938476364,3.7053000000000016,0.0,-98285.0,11.75,555.0,803.90625,0.0,0.625,0.172119123,3.7185000000000015,0.0,1.190000057220459,-0.3700000047683716,-46.04999923706055,-0.12371826171875,1.220703125E-4,0.8812255859375,35.25,0.0,-68.0,-0.2974395751953125,2.7370452880859375,Closing,0.0,0.0,0.0,0.0,0.0,0.0,0.0,0.0,
12.324187999999966,0.0,0.0,113307.0,4.625,-735.0,-525.0,0.0,0.375,4.532470239,3.6991882500000015,0.0,-82168.0,6.875,-630.0,-525.0,0.0,0.5,1.857909966,1.2409425000000012,0.0,119839.0,7.125,-757.5,-525.0,0.0,0.125,2.143554468,3.7053000000000016,0.0,-98180.0,5.875,712.5,525.0,0.0,0.375,0.45288081300000005,3.7185000000000015,0.0,1.4500000476837158,-1.1399999856948853,-46.16999816894531,-0.13616943359375,0.1187744140625,0.961181640625,35.25,0.0,-149.0,-0.3163299560546875,2.7620391845703125,Closing,0.0,0.0,0.0,0.0,0.0,0.0,0.0,0.0,
12.446912000000012,0.0,0.0,113199.0,0.0,-630.0,0.0,0.0,0.25,4.571532735,3.6991882500000015,0.0,-82284.0,0.0,-630.0,0.0,0.0,0.25,1.699218576,1.2409425000000012,0.0,119719.0,0.0,-645.0,0.0,0.0,0.125,2.186279073,3.7053000000000016,0.0,-98067.0,0.125,577.5,0.0,0.0,0.25,0.5017089330000001,3.7185000000000015,0.0,1.1100000143051147,-1.1699999570846558,-46.15999984741211,0.08123779296875,-0.19482421875,0.76123046875,35.2599983215332,0.0,218.0,-0.3422088623046875,2.78271484375,Closing,0.0,0.0,0.0,0.0,0.0,0.0,0.0,0.0,
12.57333899999992,0.0,0.0,113102.0,0.0,-607.5,0.0,0.0,0.25,4.570312032,3.6991882500000015,0.0,-82378.0,0.0,-592.5,0.0,0.0,0.25,1.6564939710000002,1.2409425000000012,0.0,119643.0,0.0,-525.0,0.0,0.0,0.125,2.1667478250000003,3.7053000000000016,0.0,-97966.0,0.125,607.5,0.0,0.0,0.25,0.45288081300000005,3.7185000000000015,0.0,0.4699999988079071,-1.059999942779541,-45.5099983215332,-0.015625,-0.173828125,1.0882568359375,35.2599983215332,0.0,133.0,-0.3504486083984375,2.79290771484375,Closing,0.0,0.0,0.0,0.0,0.0,0.0,0.0,0.0,
12.696351999999955,0.0,0.0,113037.0,0.0,-382.5,0.0,0.0,0.25,4.537353051,3.6991882500000015,0.0,-82452.0,0.0,-390.0,0.0,0.0,0.25,1.669921704,1.2409425000000012,0.0,119566.0,0.0,-390.0,0.0,0.0,0.125,2.128906032,3.7053000000000016,0.0,-97884.0,0.125,375.0,0.0,0.0,0.25,0.38940425700000003,3.7185000000000015,0.0,-0.5299999713897705,-0.9100000262260437,-45.33000183105469,-0.026611328125,-0.266357421875,0.87274169921875,35.2599983215332,0.0,174.0,-0.34649658203125,2.79412841796875,Closing,0.0,0.0,0.0,0.0,0.0,0.0,0.0,0.0,
12.817396999999998,0.0,0.0,113013.0,0.0,-67.5,0.0,0.0,0.25,4.527587427,3.6991882500000015,0.0,-82486.0,0.0,-60.0,0.0,0.0,0.25,1.6894529520000001,1.2409425000000012,0.0,119536.0,0.0,-37.5,0.0,0.0,0.0,2.12402322,3.7053000000000016,0.0,-97847.0,0.125,75.0,0.0,0.0,0.125,0.3662109,3.7185000000000015,0.0,-1.6100000143051147,-1.0700000524520874,-45.2599983215332,0.0032958984375,-0.08343505859375,1.0594482421875,35.2599983215332,0.0,54.0,-0.3281402587890625,2.7802734375,Closing,0.0,0.0,0.0,0.0,0.0,0.0,0.0,0.0,
12.939974999999977,0.0,0.0,113013.0,0.0,30.0,0.0,0.0,0.125,4.530028833,3.6991882500000015,0.0,-82486.0,0.0,22.5,0.0,0.0,0.25,1.719970527,1.2409425000000012,0.0,119536.0,0.0,0.0,0.0,0.0,0.0,2.12402322,3.7053000000000016,0.0,-97847.0,0.125,-15.0,0.0,0.0,0.125,0.3662109,3.7185000000000015,0.0,-1.3899999856948853,-1.0299999713897705,-45.27000045776367,-0.0291748046875,0.07965087890625,1.035400390625,35.2599983215332,0.0,-81.0,-0.3060455322265625,2.7625732421875,Closing,0.0,0.0,0.0,0.0,0.0,0.0,0.0,0.0,
13.060816999999922,0.0,0.0,113024.0,0.0,37.5,0.0,0.0,0.125,4.52880813,3.6991882500000015,0.0,-82477.0,0.0,15.0,0.0,0.0,0.125,1.7321775570000002,1.2409425000000012,0.0,119543.0,0.0,22.5,0.0,0.0,0.0,2.12402322,3.7053000000000016,0.0,-97856.0,0.125,-30.0,0.0,0.0,0.125,0.3662109,3.7185000000000015,0.0,-0.9200000166893005,-1.0199999809265137,-45.29999923706055,-0.0103759765625,-0.00537109375,1.01336669921875,35.2599983215332,0.0,-2.0,-0.2879791259765625,2.7491912841796875,Closing,0.0,0.0,0.0,0.0,0.0,0.0,0.0,0.0,
13.185645000000019,0.0,0.0,113024.0,0.0,0.0,0.0,0.0,0.125,4.527587427,3.6991882500000015,0.0,-82477.0,0.0,0.0,0.0,0.0,0.125,1.7333982600000002,1.2409425000000012,0.0,119543.0,0.0,0.0,0.0,0.0,0.0,2.12402322,3.7053000000000016,0.0,-97857.0,0.125,0.0,0.0,0.0,0.125,0.3662109,3.7185000000000015,0.0,-0.9700000286102295,-1.0199999809265137,-45.29999923706055,-0.00738525390625,-0.00335693359375,1.013671875,35.2599983215332,0.0,-2.0,-0.2862091064453125,2.7490386962890625,Closing,0.0,0.0,0.0,0.0,0.0,0.0,0.0,0.0,
13.304447999999974,0.0,0.0,113024.0,0.0,0.0,0.0,0.0,0.125,4.527587427,3.6991882500000015,0.0,-82477.0,0.0,0.0,0.0,0.0,0.125,1.7321775570000002,1.2409425000000012,0.0,119543.0,0.0,0.0,0.0,0.0,0.0,2.122802517,3.7053000000000016,0.0,-97857.0,0.125,0.0,0.0,0.0,0.125,0.367431603,3.7185000000000015,0.0,-0.8999999761581421,-1.0199999809265137,-45.29999923706055,-0.0123291015625,-0.01190185546875,1.0125732421875,35.2599983215332,0.0,1.0,-0.2865142822265625,2.7490386962890625,Closing,0.0,0.0,0.0,0.0,0.0,0.0,0.0,0.0,
13.42811699999997,0.0,0.0,113024.0,0.0,0.0,0.0,0.0,0.125,4.52880813,3.6991882500000015,0.0,-82477.0,0.0,0.0,0.0,0.0,0.125,1.7321775570000002,1.2409425000000012,0.0,119543.0,0.0,0.0,0.0,0.0,0.0,2.12402322,3.7053000000000016,0.0,-97857.0,0.125,0.0,0.0,0.0,0.125,0.3662109,3.7185000000000015,0.0,-0.8600000143051147,-1.0199999809265137,-45.29999923706055,-0.01885986328125,-0.00408935546875,1.01531982421875,35.2599983215332,0.0,-8.0,-0.2865142822265625,2.7490386962890625,Closing,0.0,0.0,0.0,0.0,0.0,0.0,0.0,0.0,
13.547927999999956,0.0,0.0,113024.0,0.0,0.0,0.0,0.0,0.125,4.52880813,3.6991882500000015,0.0,-82477.0,0.0,0.0,0.0,0.0,0.125,1.7321775570000002,1.2409425000000012,0.0,119543.0,0.0,0.0,0.0,0.0,0.0,2.1191404080000003,3.7053000000000016,0.0,-97857.0,0.125,0.0,0.0,0.0,0.125,0.3662109,3.7185000000000015,0.0,-0.8199999928474426,-1.0199999809265137,-45.29999923706055,-0.017822265625,-0.010498046875,1.016845703125,35.220001220703125,0.0,-2.0,-0.2865142822265625,2.7490386962890625,Closing,0.0,0.0,0.0,0.0,0.0,0.0,0.0,0.0,
13.673984999999986,0.0,0.0,113035.0,2.875,225.0,909.4488233327866,0.0,3.375,4.213866756,3.015942366852486,0.0,-82476.0,5.75,217.5,909.4488233327866,0.0,5.5,1.978759563,1.92855458977222,0.0,119543.0,5.125,-45.0,-909.4488233327866,0.0,0.875,2.5830075480000003,4.389674732977291,0.0,-97857.0,5.25,75.0,909.4488233327866,0.0,3.875,0.052490229,3.031687206278561,0.0,-0.8799999952316284,-1.100000023841858,-45.029998779296875,0.10675048828125,-0.23175048828125,0.86163330078125,35.220001220703125,0.0,241.0,-0.2861175537109375,2.748291015625,Closing,0.0,0.0,0.0,0.0,0.0,0.0,0.0,0.0,
13.795155000000028,0.0,0.0,113059.0,0.0,0.0,0.0,0.0,0.5,3.7353511800000003,3.015942366852486,0.0,-82447.0,0.0,-45.0,0.0,0.0,0.75,2.4841306050000003,1.92855458977222,0.0,119530.0,0.0,-22.5,0.0,0.0,0.25,2.988280944,4.389674732977291,0.0,-97843.0,0.125,0.0,0.0,0.0,0.875,4.5483393780000005,3.031687206278561,0.0,-0.8100000023841858,-1.0700000524520874,-44.88999938964844,-0.0218505859375,-0.04327392578125,0.98907470703125,35.220001220703125,0.0,18.0,-0.2833404541015625,2.7479400634765625,Closing,0.0,0.0,0.0,0.0,0.0,0.0,0.0,0.0,
13.931380000000004,0.0,0.0,113058.0,0.0,0.0,0.0,0.0,0.375,3.671874624,3.015942366852486,0.0,-82456.0,0.0,0.0,0.0,0.0,0.25,2.659911837,1.92855458977222,0.0,119530.0,0.0,0.0,0.0,0.0,0.125,2.9455563390000004,4.389674732977291,0.0,-97843.0,0.125,0.0,0.0,0.0,0.375,4.525146021,3.031687206278561,0.0,-0.7099999785423279,-1.059999942779541,-44.689998626708984,-0.04962158203125,-0.01177978515625,1.02508544921875,35.20000076293945,0.0,-22.0,-0.283966064453125,2.7497100830078125,Closing,0.0,0.0,0.0,0.0,0.0,0.0,0.0,0.0,
14.095731999999959,0.0,0.0,113058.0,0.0,0.0,0.0,0.0,0.375,3.924560145,3.015942366852486,0.0,-82456.0,0.0,0.0,0.0,0.0,0.25,2.353515384,1.92855458977222,0.0,119532.0,0.0,7.5,0.0,0.0,0.25,2.663573946,4.389674732977291,0.0,-97843.0,0.125,0.0,0.0,0.0,0.375,4.748534670000001,3.031687206278561,0.0,-0.6700000166893005,-1.0499999523162842,-44.75,-0.01947021484375,-0.00250244140625,1.03143310546875,35.20000076293945,0.0,-7.0,-0.2842254638671875,2.751861572265625,Closing,0.0,0.0,0.0,0.0,0.0,0.0,0.0,0.0,
14.442079999999958,0.0,0.0,112985.0,8.75,-195.0,-951.5625,0.0,0.375,3.8354488260000004,3.0159423668524887,0.0,-82512.0,12.375,-112.5,-951.5625,0.0,0.25,2.354736087,1.9285545897722227,0.0,119622.0,8.5,157.5,951.5625,0.0,0.375,2.7941891670000003,4.389674732977289,0.0,-97891.0,16.75,-45.0,-951.5625,0.0,0.25,4.676513193,3.0316872062785585,0.0,-0.6399999856948853,-0.8500000238418579,-47.709999084472656,-0.01068115234375,0.0244140625,0.93902587890625,35.22999954223633,0.0,-23.0,-0.2739410400390625,2.7540130615234375,Closing,0.0,0.0,0.0,0.0,0.0,0.0,0.0,0.0,
14.756959999999962,0.0,0.0,112990.0,0.0,0.0,0.0,0.0,0.125,3.809814063,3.0159423668524887,0.0,-82510.0,0.0,0.0,0.0,0.0,0.25,2.491454823,1.9285545897722227,0.0,119628.0,0.0,-7.5,0.0,0.0,0.0,2.833251663,4.389674732977289,0.0,-97881.0,0.125,0.0,0.0,0.0,0.25,4.6557612420000005,3.0316872062785585,0.0,-0.6299999952316284,-1.0,-47.040000915527344,-0.00653076171875,0.0159912109375,0.9747314453125,35.22999954223633,0.0,-12.0,-0.276092529296875,2.7423858642578125,Closing,0.0,0.0,0.0,0.0,0.0,0.0,0.0,0.0,
15.183601000000024,0.0,0.0,112990.0,0.125,7.5,115.74803106486797,0.0,0.125,3.80859336,3.015942366852486,0.0,-82508.0,0.125,7.5,115.74803106486797,0.0,0.25,2.459716545,1.92855458977222,0.0,119623.0,0.125,-15.0,-115.74803106486797,0.0,0.125,2.833251663,4.389674732977291,0.0,-97880.0,0.375,0.0,115.74803106486797,0.0,0.125,4.656981945,3.031687206278561,0.0,-0.5799999833106995,-1.0399999618530273,-46.9900016784668,-0.00787353515625,0.00189208984375,1.04345703125,35.22999954223633,0.0,-1.0,-0.2764129638671875,2.7424774169921875,Closing,0.0,0.0,0.0,0.0,0.0,0.0,0.0,0.0,
15.383812999999966,0.0,0.0,112992.0,0.375,15.0,148.8189049065113,0.0,0.125,3.807372657,3.015942366852486,0.0,-82496.0,0.25,37.5,148.8189049065113,0.0,0.125,2.451171624,1.92855458977222,0.0,119611.0,0.125,-75.0,-148.8189049065113,0.0,0.125,2.833251663,4.389674732977291,0.0,-97873.0,0.375,45.0,148.8189049065113,0.0,0.125,4.649657727,3.031687206278561,0.0,-0.5600000023841858,-1.0499999523162842,-46.93000030517578,-0.02630615234375,-0.00982666015625,1.0133056640625,35.22999954223633,0.0,-5.0,-0.2764129638671875,2.7424774169921875,Closing,0.0,0.0,0.0,0.0,0.0,0.0,0.0,0.0,
15.514423999999998,0.0,0.0,113005.0,0.0,60.0,0.0,0.0,0.125,3.80859336,3.015942366852486,0.0,-82489.0,0.0,37.5,0.0,0.0,0.125,2.451171624,1.92855458977222,0.0,119610.0,0.0,0.0,0.0,0.0,0.125,2.833251663,4.389674732977291,0.0,-97872.0,0.125,0.0,0.0,0.0,0.125,4.652099133,3.031687206278561,0.0,-0.5400000214576721,-1.0199999809265137,-46.84000015258789,-0.01995849609375,0.003662109375,1.00604248046875,35.25,0.0,-10.0,-0.2764129638671875,2.7424774169921875,Closing,0.0,0.0,0.0,0.0,0.0,0.0,0.0,0.0,
15.646726999999956,0.0,0.0,113005.0,0.0,0.0,0.0,0.0,0.125,3.80859336,3.015942366852486,0.0,-82489.0,0.0,0.0,0.0,0.0,0.125,2.451171624,1.92855458977222,0.0,119610.0,0.0,0.0,0.0,0.0,0.125,2.833251663,4.389674732977291,0.0,-97872.0,0.125,0.0,0.0,0.0,0.125,4.650878430000001,3.031687206278561,0.0,-0.5299999713897705,-1.0299999713897705,-46.83000183105469,-0.0162353515625,-0.00152587890625,1.0257568359375,35.25,0.0,-4.0,-0.2764129638671875,2.7424774169921875,Closing,0.0,0.0,0.0,0.0,0.0,0.0,0.0,0.0,
15.77685699999996,0.0,0.0,113005.0,0.0,0.0,0.0,0.0,0.125,3.807372657,3.015942366852486,0.0,-82489.0,0.0,0.0,0.0,0.0,0.125,2.451171624,1.92855458977222,0.0,119610.0,0.0,0.0,0.0,0.0,0.125,2.833251663,4.389674732977291,0.0,-97872.0,0.125,0.0,0.0,0.0,0.125,4.6557612420000005,3.031687206278561,0.0,-0.5199999809265137,-1.0199999809265137,-46.83000183105469,-0.0238037109375,-0.0107421875,1.02667236328125,35.25,0.0,-2.0,-0.2764129638671875,2.7424774169921875,Closing,0.0,0.0,0.0,0.0,0.0,0.0,0.0,0.0,
15.91587300000002,0.0,0.0,113005.0,0.0,0.0,0.0,0.0,0.125,3.80859336,3.015942366852486,0.0,-82489.0,0.0,0.0,0.0,0.0,0.125,2.451171624,1.92855458977222,0.0,119610.0,0.0,0.0,0.0,0.0,0.125,2.833251663,4.389674732977291,0.0,-97872.0,0.125,0.0,0.0,0.0,0.125,4.656981945,3.031687206278561,0.0,-0.5,-1.0199999809265137,-46.81999969482422,-0.017822265625,-0.0057373046875,1.02197265625,35.25,0.0,-2.0,-0.2764129638671875,2.7424774169921875,Closing,0.0,0.0,0.0,0.0,0.0,0.0,0.0,0.0,
16.048613999999944,0.0,0.0,113005.0,0.0,0.0,0.0,0.0,0.125,3.80859336,3.015942366852486,0.0,-82489.0,0.0,0.0,0.0,0.0,0.125,2.451171624,1.92855458977222,0.0,119610.0,0.0,0.0,0.0,0.0,0.125,2.833251663,4.389674732977291,0.0,-97872.0,0.125,0.0,0.0,0.0,0.125,4.6557612420000005,3.031687206278561,0.0,-0.49000000953674316,-1.0199999809265137,-46.81999969482422,-0.01953125,-0.00665283203125,1.017578125,35.220001220703125,0.0,-2.0,-0.2764129638671875,2.7424774169921875,Closing,0.0,0.0,0.0,0.0,0.0,0.0,0.0,0.0,
16.176473999999928,0.0,0.0,113005.0,0.0,0.0,0.0,0.0,0.125,3.80859336,3.015942366852486,0.0,-82489.0,0.0,0.0,0.0,0.0,0.125,2.451171624,1.92855458977222,0.0,119610.0,0.0,0.0,0.0,0.0,0.125,2.833251663,4.389674732977291,0.0,-97872.0,0.125,0.0,0.0,0.0,0.125,4.652099133,3.031687206278561,0.0,-0.47999998927116394,-1.0199999809265137,-46.810001373291016,-0.017333984375,-0.0037841796875,1.01995849609375,35.220001220703125,0.0,-2.0,-0.2764129638671875,2.7424774169921875,Closing,0.0,0.0,0.0,0.0,0.0,0.0,0.0,0.0,
16.30823300000001,0.0,0.0,113005.0,0.0,0.0,0.0,0.0,0.125,3.80859336,3.015942366852486,0.0,-82489.0,0.0,0.0,0.0,0.0,0.125,2.451171624,1.92855458977222,0.0,119610.0,0.0,0.0,0.0,0.0,0.125,2.833251663,4.389674732977291,0.0,-97872.0,0.125,0.0,0.0,0.0,0.125,4.652099133,3.031687206278561,0.0,-0.4699999988079071,-1.0199999809265137,-46.810001373291016,-0.0208740234375,-0.0054931640625,1.020263671875,35.220001220703125,0.0,-3.0,-0.2764129638671875,2.7424774169921875,Closing,0.0,0.0,0.0,0.0,0.0,0.0,0.0,0.0,
16.434437999999965,0.0,0.0,113005.0,0.0,0.0,0.0,0.0,0.125,3.80859336,3.015942366852486,0.0,-82489.0,0.0,0.0,0.0,0.0,0.125,2.451171624,1.92855458977222,0.0,119610.0,0.0,0.0,0.0,0.0,0.125,2.833251663,4.389674732977291,0.0,-97872.0,0.125,0.0,0.0,0.0,0.125,4.652099133,3.031687206278561,0.0,-0.4699999988079071,-1.0199999809265137,-46.810001373291016,-0.01702880859375,-0.00762939453125,1.0203857421875,35.220001220703125,0.0,0.0,-0.2764129638671875,2.7424774169921875,Closing,0.0,0.0,0.0,0.0,0.0,0.0,0.0,0.0,
16.568159999999917,0.0,0.0,113005.0,0.0,0.0,0.0,0.0,0.125,3.80859336,3.015942366852486,0.0,-82489.0,0.0,0.0,0.0,0.0,0.125,2.452392327,1.92855458977222,0.0,119610.0,0.0,0.0,0.0,0.0,0.125,2.83203096,4.389674732977291,0.0,-97872.0,0.125,0.0,0.0,0.0,0.125,4.656981945,3.031687206278561,0.0,-0.46000000834465027,-1.0199999809265137,-46.810001373291016,-0.0196533203125,-0.00848388671875,1.021484375,35.22999954223633,0.0,0.0,-0.2764129638671875,2.7424774169921875,Closing,0.0,0.0,0.0,0.0,0.0,0.0,0.0,0.0,
