Time,ClimberA1,ClimberA2,FRpos,FRCurrent,FRspeed,FRsetpoint,FRApos,FRACurrent,FREncpos,FREncSetpoint,FREncSpeed,FLpos,FLCurrent,FLspeed,FLsetpoint,FLApos,FLACurrent,FLEncpos,FLEncSetpoint,FLEncSpeed,BRpos,BRCurrent,BRspeed,BRsetpoint,BRApos,BRACurrent,BREncpos,BREncSetpoint,BREncSpeed,BLpos,BLCurrent,BLspeed,BLsetpoint,BLApos,BLACurrent,BLEncpos,BLEncSetpoint,BLEncSpeed,navx_Pitch,navx_Roll,navx_Yaw,navx_XAcc,navx_YAcc,navx_ZAcc,navx_Temp,navx_Bar,navx_Alt,navx_XDis,navx_YDis,GearPlacerState,ShootOutputV,ShootOutputCurrent,ShootEncPos,ShootEncVelocity,ShootSpeed,ShootSetpoint,CarouselSetpoint,CarouselCurrent,
0.12484900000000197,0.0,0.0,5546.0,5.0,37.5,840.0,0.0,0.125,0.771484296,4.915399148688349,0.0,-2323.0,6.875,-90.0,-840.0,0.0,0.125,0.511474557,4.94681045881176,0.0,3426.0,6.125,0.0,840.0,0.0,0.0,3.3190914570000003,4.923520306282044,0.0,-6310.0,5.0,-97.5,-840.0,0.0,0.125,1.616210772,4.941060172971089,0.0,-0.25999999046325684,-0.6899999976158142,0.20999999344348907,0.03564453125,0.0201416015625,0.994140625,35.36000061035156,0.0,47.0,-0.4348297119140625,0.2180328369140625,Waiting,0.0,0.0,0.0,0.0,0.0,0.0,0.0,0.0,
0.19312600000000385,0.0,0.0,5546.0,4.375,45.0,0.0,0.0,0.25,0.771484296,0.01,-0.0012207029999995456,-2323.0,5.0,-97.5,-0.0,0.0,0.0,0.5163573690000001,0.01,0.004882811999999959,3426.0,5.25,7.5,0.0,0.0,0.0,3.3190914570000003,0.01,0.004882811999999959,-6310.0,2.375,-75.0,-0.0,0.0,0.125,1.616210772,0.01,0.004882811999999959,-0.30000001192092896,-0.7599999904632568,0.3199999928474426,-0.2059326171875,-0.05206298828125,0.9786376953125,35.36000061035156,0.0,-193.0,-0.433929443359375,0.21783447265625,Waiting,0.0,0.0,0.0,0.0,0.0,0.0,0.0,0.0,
0.24652900000000955,0.0,0.0,5551.0,1.5,30.0,0.0,0.0,0.25,0.771484296,0.01,0.0,-2330.0,1.0,-52.5,-0.0,0.0,0.0,0.518798775,0.01,0.0,3426.0,1.875,0.0,0.0,0.0,0.0,3.3190914570000003,0.01,0.0,-6317.0,1.0,-52.5,-0.0,0.0,0.125,1.616210772,0.01,0.0,-0.28999999165534973,-1.100000023841858,0.3100000023841858,0.010986328125,-0.01751708984375,0.9727783203125,35.36000061035156,0.0,29.0,-0.4355316162109375,0.217681884765625,Waiting,0.0,0.0,0.0,0.0,0.0,0.0,0.0,0.0,
0.29473700000000824,0.0,0.0,5551.0,1.625,7.5,0.0,0.0,0.25,0.771484296,0.01,0.0,-2330.0,1.25,-7.5,-0.0,0.0,0.0,0.5163573690000001,0.01,0.004882811999999959,3426.0,1.875,0.0,0.0,0.0,0.0,3.3215328630000003,0.01,0.0,-6317.0,1.25,7.5,-0.0,0.0,0.125,1.614990069,0.01,-0.0012207030000004337,-0.3100000023841858,-1.0299999713897705,0.20000000298023224,0.0123291015625,0.01220703125,1.03472900390625,35.36000061035156,0.0,31.0,-0.4369049072265625,0.2176361083984375,Waiting,0.0,0.0,0.0,0.0,0.0,0.0,0.0,0.0,
0.34918700000000535,0.0,0.0,5551.0,1.75,0.0,0.0,0.0,0.25,0.771484296,0.01,-0.0012207030000004337,-2327.0,1.5,15.0,-0.0,0.0,0.0,0.5151366660000001,0.01,0.0,3426.0,1.875,0.0,0.0,0.0,0.0,3.3190914570000003,0.01,0.0,-6314.0,1.375,15.0,-0.0,0.0,0.125,1.619872881,0.01,0.0012207030000004337,-0.2800000011920929,-0.9100000262260437,0.20999999344348907,-0.00830078125,0.004150390625,1.00592041015625,35.36000061035156,0.0,7.0,-0.438018798828125,0.2176971435546875,Waiting,0.0,0.0,0.0,0.0,0.0,0.0,0.0,0.0,
0.3997890000000043,0.0,0.0,5551.0,1.75,0.0,0.0,0.0,0.25,0.76904289,0.01,-0.0012207030000004337,-2327.0,1.625,7.5,-0.0,0.0,0.0,0.5163573690000001,0.01,0.0,3426.0,1.75,0.0,0.0,0.0,0.0,3.3215328630000003,0.01,0.0,-6314.0,1.375,0.0,-0.0,0.0,0.125,1.614990069,0.01,0.0,-0.30000001192092896,-0.9700000286102295,0.23000000417232513,-0.0703125,-0.01727294921875,1.0400390625,35.36000061035156,0.0,-52.0,-0.4381561279296875,0.217742919921875,Waiting,0.0,0.0,0.0,0.0,0.0,0.0,0.0,0.0,
0.4508550000000105,0.0,0.0,5551.0,1.75,0.0,0.0,0.0,0.25,0.7751464050000001,0.01,0.0012207030000004337,-2327.0,1.625,0.0,-0.0,0.0,0.0,0.520019478,0.01,0.0,3426.0,1.875,0.0,0.0,0.0,0.0,3.3203121600000003,0.01,0.0,-6314.0,1.375,0.0,-0.0,0.0,0.125,1.616210772,0.01,0.0,-0.3100000023841858,-0.9800000190734863,0.20000000298023224,-0.00152587890625,-0.001953125,1.04669189453125,35.36000061035156,0.0,16.0,-0.4383087158203125,0.217742919921875,Waiting,0.0,0.0,0.0,0.0,0.0,0.0,0.0,0.0,
0.504544000000009,0.0,0.0,5551.0,1.75,0.0,0.0,0.0,0.25,0.773925702,0.01,-0.0012207030000004337,-2327.0,1.625,0.0,-0.0,0.0,0.0,0.5163573690000001,0.01,0.0,3426.0,1.875,0.0,0.0,0.0,0.0,3.3203121600000003,0.01,0.0,-6314.0,1.375,0.0,-0.0,0.0,0.125,1.614990069,0.01,0.0,-0.28999999165534973,-0.949999988079071,0.20999999344348907,-0.03363037109375,-0.014404296875,1.03955078125,35.36000061035156,0.0,-16.0,-0.4381866455078125,0.217742919921875,Waiting,0.0,0.0,0.0,0.0,0.0,0.0,0.0,0.0,
0.5543650000000052,0.0,0.0,5551.0,1.875,0.0,0.0,0.0,0.25,0.771484296,0.01,0.0,-2327.0,1.75,0.0,-0.0,0.0,0.0,0.5151366660000001,0.01,0.0,3426.0,1.875,0.0,0.0,0.0,0.0,3.3178707540000003,0.01,0.0,-6314.0,1.375,0.0,-0.0,0.0,0.125,1.616210772,0.01,0.0,-0.30000001192092896,-0.9800000190734863,0.20999999344348907,-0.0048828125,0.00408935546875,1.01019287109375,35.36000061035156,0.0,12.0,-0.4381866455078125,0.217742919921875,Waiting,0.0,0.0,0.0,0.0,0.0,0.0,0.0,0.0,
0.60756700000001,0.0,0.0,5551.0,1.875,0.0,0.0,0.0,0.25,0.7653807810000001,0.01,0.0012207030000004337,-2327.0,1.75,0.0,-0.0,0.0,0.0,0.5163573690000001,0.01,0.0,3426.0,1.875,0.0,0.0,0.0,0.0,3.3203121600000003,0.01,0.0,-6314.0,1.5,0.0,-0.0,0.0,0.125,1.616210772,0.01,0.0,-0.30000001192092896,-0.9599999785423279,0.20999999344348907,-0.00701904296875,-0.0115966796875,1.01361083984375,35.36000061035156,0.0,9.0,-0.4381866455078125,0.217742919921875,Waiting,0.0,0.0,0.0,0.0,0.0,0.0,0.0,0.0,
0.6558370000000141,0.0,0.0,5551.0,1.875,0.0,0.0,0.0,0.25,0.7751464050000001,0.01,-0.0012207030000004337,-2327.0,1.75,0.0,-0.0,0.0,0.0,0.507812448,0.01,0.0,3426.0,1.875,0.0,0.0,0.0,0.0,3.3190914570000003,0.01,0.0,-6314.0,1.5,0.0,-0.0,0.0,0.125,1.616210772,0.01,0.0,-0.30000001192092896,-0.9800000190734863,0.20999999344348907,-0.02264404296875,-0.0050048828125,1.012939453125,35.36000061035156,0.0,-5.0,-0.4381866455078125,0.217742919921875,Waiting,0.0,0.0,0.0,0.0,0.0,0.0,0.0,0.0,
0.708625,0.0,0.0,5551.0,1.875,0.0,0.0,0.0,0.25,0.771484296,0.01,0.0012207030000004337,-2327.0,1.75,0.0,-0.0,0.0,0.0,0.5175780720000001,0.01,0.0,3426.0,1.875,0.0,0.0,0.0,0.0,3.3203121600000003,0.01,0.0,-6314.0,1.5,0.0,-0.0,0.0,0.125,1.616210772,0.01,0.0,-0.30000001192092896,-0.9700000286102295,0.20999999344348907,-0.009033203125,-0.00653076171875,1.0118408203125,35.36000061035156,0.0,8.0,-0.4381866455078125,0.217742919921875,Waiting,0.0,0.0,0.0,0.0,0.0,0.0,0.0,0.0,
0.7620050000000047,0.0,0.0,5551.0,1.875,0.0,0.0,0.0,0.25,0.76904289,0.01,-0.0012207030000004337,-2327.0,1.75,0.0,-0.0,0.0,0.0,0.5163573690000001,0.01,0.0,3426.0,1.875,0.0,0.0,0.0,0.0,3.3190914570000003,0.01,-0.0012207030000004337,-6314.0,1.5,0.0,-0.0,0.0,0.125,1.616210772,0.01,0.0,-0.30000001192092896,-0.9599999785423279,0.20999999344348907,-0.024658203125,-0.0013427734375,1.02001953125,35.36000061035156,0.0,-7.0,-0.4381866455078125,0.217742919921875,Waiting,0.0,0.0,0.0,0.0,0.0,0.0,0.0,0.0,
0.8140560000000114,0.0,0.0,5551.0,1.875,0.0,0.0,0.0,0.25,0.7763671080000001,0.01,0.0024414059999999793,-2327.0,1.75,0.0,-0.0,0.0,0.0,0.5163573690000001,0.01,0.0,3426.0,1.875,0.0,0.0,0.0,0.0,3.3203121600000003,0.01,0.0012207030000004337,-6314.0,1.5,0.0,-0.0,0.0,0.125,1.616210772,0.01,0.0,-0.30000001192092896,-0.9800000190734863,0.20999999344348907,-0.0111083984375,-0.0030517578125,1.02557373046875,35.36000061035156,0.0,6.0,-0.4381866455078125,0.217742919921875,Waiting,0.0,0.0,0.0,0.0,0.0,0.0,0.0,0.0,
0.8675070000000124,0.0,0.0,5551.0,1.875,0.0,0.0,0.0,0.25,0.771484296,0.01,0.0,-2327.0,1.75,0.0,-0.0,0.0,0.0,0.5163573690000001,0.01,0.0,3426.0,1.875,0.0,0.0,0.0,0.0,3.3190914570000003,0.01,0.0,-6314.0,1.5,0.0,-0.0,0.0,0.125,1.616210772,0.01,0.0,-0.28999999165534973,-0.9599999785423279,0.20999999344348907,-0.02001953125,-0.001708984375,1.02545166015625,35.36000061035156,0.0,-2.0,-0.4381866455078125,0.217742919921875,Waiting,0.0,0.0,0.0,0.0,0.0,0.0,0.0,0.0,
0.915247000000003,0.0,0.0,5551.0,1.75,-15.0,-1289.7637903690338,0.0,0.25,0.771484296,4.932250999999998,0.0,-2327.0,1.75,7.5,1289.7637903690338,0.0,0.0,0.5163573690000001,4.963769999999998,0.0,3426.0,1.875,0.0,-1289.7637903690338,0.0,0.0,3.3190914570000003,0.01,0.0,-6314.0,1.875,7.5,1289.7637903690338,0.0,0.125,1.616210772,0.01,0.0,-0.28999999165534973,-1.0499999523162842,0.20999999344348907,-0.132568359375,0.01141357421875,0.91668701171875,35.36000061035156,0.0,-115.0,-0.4384002685546875,0.217742919921875,Waiting,0.0,0.0,0.0,0.0,0.0,0.0,0.0,0.0,
0.9681650000000082,0.0,0.0,5514.0,3.5,-142.5,-2100.0,0.0,0.25,0.783691326,4.932250999999998,0.0,-2290.0,4.375,120.0,2100.0,0.0,0.125,0.5163573690000001,4.963769999999998,0.0,3426.0,4.375,0.0,-2100.0,0.0,0.0,3.338622705,0.01,0.0,-6280.0,8.375,225.0,2100.0,0.0,0.125,1.5869139,0.01,0.0,-0.3700000047683716,-1.7999999523162842,0.07000000029802322,-0.19854736328125,0.08465576171875,0.96636962890625,35.36000061035156,0.0,-167.0,-0.4412078857421875,0.2178802490234375,Waiting,0.0,0.0,0.0,0.0,0.0,0.0,0.0,0.0,
1.0166260000000038,0.0,0.0,5514.0,11.375,-337.5,-1967.7164733409882,0.0,0.25,0.783691326,4.932250999999998,0.0,-2290.0,17.0,367.5,1967.7164733409882,0.0,0.125,0.5163573690000001,4.963769999999998,0.0,3426.0,14.25,-45.0,-1967.7164733409882,0.0,0.0,3.347167626,0.01,0.0,-6280.0,14.125,345.0,1967.7164733409882,0.0,0.25,1.5869139,0.01,0.0,-0.25,-2.3499999046325684,-0.10999999940395355,-0.312255859375,-0.091796875,1.04547119140625,35.36000061035156,0.0,-268.0,-0.4466094970703125,0.2183837890625,Waiting,0.0,0.0,0.0,0.0,0.0,0.0,0.0,0.0,
1.0693650000000052,0.0,0.0,5449.0,9.75,-367.5,-1372.44091629982,0.0,0.25,0.797119059,4.932250999999998,0.0,-2221.0,13.75,420.0,1372.44091629982,0.0,0.125,0.5163573690000001,4.963769999999998,0.0,3406.0,17.375,-97.5,-1372.44091629982,0.0,0.0,3.353271141,0.01,0.0,-6212.0,13.0,390.0,1372.44091629982,0.0,0.25,1.591796712,0.01,0.0,-0.23999999463558197,-3.0399999618530273,0.05000000074505806,-0.3104248046875,-0.079345703125,0.80780029296875,35.36000061035156,0.0,-267.0,-0.459320068359375,0.21905517578125,Waiting,0.0,0.0,0.0,0.0,0.0,0.0,0.0,0.0,
1.1205770000000048,0.0,0.0,5449.0,7.0,-562.5,-1339.3700659275055,0.0,0.125,0.794677653,4.932250999999998,0.0,-2221.0,9.5,547.5,1339.3700659275055,0.0,0.125,0.5041503390000001,4.963769999999998,0.0,3406.0,15.125,-135.0,-1339.3700659275055,0.0,0.0,3.3630367650000004,0.01,0.0,-6212.0,9.25,525.0,1339.3700659275055,0.0,0.25,1.5869139,0.01,0.0,-0.23999999463558197,-3.359999895095825,0.20999999344348907,-0.24755859375,-0.0548095703125,1.1712646484375,35.36000061035156,0.0,-178.0,-0.4677734375,0.2195281982421875,Waiting,0.0,0.0,0.0,0.0,0.0,0.0,0.0,0.0,
1.172041000000012,0.0,0.0,5449.0,5.125,-720.0,-1008.6614370346069,0.0,0.125,0.7897948410000001,4.932250999999998,0.0,-2221.0,6.75,750.0,1008.6614370346069,0.0,0.0,0.511474557,4.963769999999998,0.0,3359.0,13.875,-232.5,-1008.6614370346069,0.0,0.0,3.3630367650000004,0.01,0.0,-6087.0,6.5,705.0,1008.6614370346069,0.0,0.25,1.591796712,0.01,0.0,-0.2199999988079071,-3.7799999713897705,0.47999998927116394,-0.092041015625,0.0679931640625,1.108642578125,35.36000061035156,0.0,-18.0,-0.487762451171875,0.221099853515625,Waiting,0.0,0.0,0.0,0.0,0.0,0.0,0.0,0.0,
1.2432120000000142,0.0,0.0,5314.0,0.5,-855.0,-148.8189049065113,0.0,0.125,0.797119059,4.932250999999998,0.0,-2091.0,1.5,847.5,148.8189049065113,0.0,0.0,0.521240181,4.963769999999998,0.0,3359.0,6.75,-382.5,-148.8189049065113,0.0,0.0,3.353271141,0.01,0.0,-6087.0,1.625,817.5,148.8189049065113,0.0,0.25,1.639404129,0.01,0.0,-0.2800000011920929,-3.75,0.8199999928474426,-0.03973388671875,-0.06781005859375,0.655029296875,35.36000061035156,0.0,2.0,-0.5211334228515625,0.2228546142578125,Waiting,0.0,0.0,0.0,0.0,0.0,0.0,0.0,0.0,
1.3069010000000125,0.0,0.0,5314.0,0.0,-765.0,0.0,0.0,0.125,0.797119059,4.932250999999998,-0.0024414059999999793,-1972.0,0.125,750.0,0.0,0.0,0.0,0.521240181,4.963769999999998,0.009765623999999917,3271.0,0.5,-510.0,0.0,0.0,0.0,3.353271141,0.01,0.0,-5966.0,0.125,720.0,0.0,0.0,0.125,1.6589353770000002,0.01,-4.909171880000001,-0.4000000059604645,-3.2799999713897705,0.9100000262260437,-0.10675048828125,-0.1697998046875,0.98980712890625,35.36000061035156,0.0,-52.0,-0.536651611328125,0.2230377197265625,Waiting,0.0,0.0,0.0,0.0,0.0,0.0,0.0,0.0,
1.3552550000000048,0.0,0.0,5191.0,0.0,-772.5,0.0,0.0,0.125,0.797119059,4.932250999999998,0.0012207030000004337,-1972.0,0.0,727.5,0.0,0.0,0.125,0.521240181,4.963769999999998,0.0,3271.0,0.0,-562.5,0.0,0.0,0.0,3.353271141,0.01,0.0,-5966.0,0.125,757.5,0.0,0.0,0.125,1.6601560800000001,0.01,0.019531248000000057,-0.46000000834465027,-3.240000009536743,0.8700000047683716,-0.033447265625,0.01171875,1.23974609375,35.36000061035156,0.0,37.0,-0.551116943359375,0.222259521484375,Waiting,0.0,0.0,0.0,0.0,0.0,0.0,0.0,0.0,
1.4085170000000071,0.0,0.0,5191.0,0.0,-877.5,0.0,0.0,0.125,0.797119059,4.932250999999998,0.0,-1972.0,0.0,817.5,0.0,0.0,0.125,0.521240181,4.963769999999998,0.0,3271.0,0.0,-555.0,0.0,0.0,0.0,3.353271141,0.01,0.0,-5966.0,0.125,825.0,0.0,0.0,0.25,1.6589353770000002,0.01,0.0,-0.36000001430511475,-2.609999895095825,0.7400000095367432,0.22930908203125,0.0841064453125,0.55633544921875,35.36000061035156,0.0,255.0,-0.563873291015625,0.2216949462890625,Waiting,0.0,0.0,0.0,0.0,0.0,0.0,0.0,0.0,
1.461541000000012,0.0,0.0,5069.0,0.875,-720.0,-264.56692814826965,0.0,0.125,0.795898356,4.932250999999998,0.0,-1845.0,1.125,772.5,264.56692814826965,0.0,0.125,0.521240181,4.963769999999998,0.0,3178.0,0.5,-570.0,-264.56692814826965,0.0,0.0,3.353271141,0.01,0.0,-5841.0,1.0,750.0,264.56692814826965,0.0,0.25,1.6638181890000001,0.01,0.0,-0.3499999940395355,-2.2899999618530273,0.5400000214576721,0.38323974609375,0.14520263671875,0.91778564453125,35.36000061035156,0.0,421.0,-0.5771026611328125,0.2209625244140625,Waiting,0.0,0.0,0.0,0.0,0.0,0.0,0.0,0.0,
1.5115290000000094,0.0,0.0,5069.0,1.125,-570.0,-363.77954185009,0.0,0.125,0.795898356,4.932250999999998,0.0,-1845.0,2.0,652.5,363.77954185009,0.0,0.125,0.521240181,4.963769999999998,0.0,3178.0,0.875,-615.0,-363.77954185009,0.0,0.0,3.352050438,0.01,0.0,-5841.0,1.5,660.0,363.77954185009,0.0,0.25,1.665038892,0.01,0.0,-0.2199999988079071,-1.399999976158142,0.4399999976158142,0.36712646484375,-0.001953125,0.89404296875,35.36000061035156,0.0,388.0,-0.5823516845703125,0.2212371826171875,Waiting,0.0,0.0,0.0,0.0,0.0,0.0,0.0,0.0,
1.5640110000000131,0.0,0.0,5006.0,0.5,-465.0,-380.31496703624725,0.0,0.125,0.795898356,4.932250999999998,0.0,-1780.0,0.75,427.5,380.31496703624725,0.0,0.125,0.521240181,4.963769999999998,0.0,3108.0,0.625,-465.0,-380.31496703624725,0.0,0.0,3.352050438,0.01,0.0,-5772.0,0.75,457.5,380.31496703624725,0.0,0.25,1.665038892,0.01,0.0,-0.1899999976158142,-0.6100000143051147,0.3700000047683716,0.312744140625,-0.03125,0.8541259765625,35.369998931884766,0.0,321.0,-0.5828704833984375,0.2222137451171875,Waiting,0.0,0.0,0.0,0.0,0.0,0.0,0.0,0.0,
1.611649000000005,0.0,0.0,5006.0,0.125,-300.0,-380.31496703624725,0.0,0.125,0.795898356,4.932250999999998,0.0,-1780.0,0.125,307.5,380.31496703624725,0.0,0.125,0.521240181,4.963769999999998,0.0,3108.0,0.25,-292.5,-380.31496703624725,0.0,0.0,3.352050438,0.01,0.0,-5772.0,0.375,322.5,380.31496703624725,0.0,0.25,1.6638181890000001,0.01,0.0,-0.17000000178813934,-0.3100000023841858,0.3199999928474426,0.199462890625,0.004638671875,1.18206787109375,35.369998931884766,0.0,205.0,-0.579681396484375,0.222747802734375,Waiting,0.0,0.0,0.0,0.0,0.0,0.0,0.0,0.0,
1.6659040000000096,0.0,0.0,5006.0,0.125,-187.5,-380.31496703624725,0.0,0.125,0.795898356,4.932250999999998,0.0,-1764.0,0.0,142.5,380.31496703624725,0.0,0.125,0.521240181,4.963769999999998,0.0,3094.0,0.125,-120.0,-380.31496703624725,0.0,0.0,3.3618160620000004,0.01,0.0,-5756.0,0.125,142.5,380.31496703624725,0.0,0.25,1.6638181890000001,0.01,0.0,-0.1599999964237213,-0.009999999776482582,0.3400000035762787,0.010009765625,-0.00433349609375,1.18212890625,35.369998931884766,0.0,10.0,-0.572662353515625,0.2228240966796875,Waiting,0.0,0.0,0.0,0.0,0.0,0.0,0.0,0.0,
1.714550000000003,0.0,0.0,4988.0,0.125,-82.5,-396.8503922224045,0.0,0.125,0.797119059,4.932250999999998,0.0,-1764.0,0.0,60.0,396.8503922224045,0.0,0.125,0.523681587,4.963769999999998,0.0,3094.0,0.125,-52.5,-396.8503922224045,0.0,0.0,3.352050438,0.01,0.0,-5756.0,0.375,60.0,396.8503922224045,0.0,0.25,1.6638181890000001,0.01,0.0,-0.1599999964237213,0.1599999964237213,0.4099999964237213,0.0286865234375,-0.0052490234375,0.90728759765625,35.369998931884766,0.0,25.0,-0.56658935546875,0.2228240966796875,Waiting,0.0,0.0,0.0,0.0,0.0,0.0,0.0,0.0,
1.7675130000000063,0.0,0.0,4988.0,0.125,-37.5,-413.3858174085617,0.0,0.125,0.7897948410000001,4.932250999999998,0.0,-1764.0,0.25,15.0,413.3858174085617,0.0,0.125,0.521240181,4.963769999999998,0.0,3094.0,0.375,-22.5,-413.3858174085617,0.0,0.0,3.353271141,0.01,0.0,-5756.0,0.5,22.5,413.3858174085617,0.0,0.25,1.665038892,0.01,0.0,-0.1599999964237213,0.14000000059604645,0.44999998807907104,0.010009765625,0.0015869140625,0.942626953125,35.369998931884766,0.0,7.0,-0.558197021484375,0.2228240966796875,Waiting,0.0,0.0,0.0,0.0,0.0,0.0,0.0,0.0,
1.8159560000000057,0.0,0.0,4974.0,0.125,-90.0,-578.740131855011,0.0,0.125,0.786132732,4.932250999999998,0.0,-1764.0,1.0,7.5,578.740131855011,0.0,0.125,0.521240181,4.963769999999998,0.0,3086.0,0.625,-52.5,-578.740131855011,0.0,0.0,3.353271141,0.01,0.0,-5745.0,0.75,75.0,578.740131855011,0.0,0.25,1.6601560800000001,0.01,0.0,-0.1599999964237213,0.019999999552965164,0.41999998688697815,-0.05120849609375,-0.03070068359375,1.03094482421875,35.369998931884766,0.0,-51.0,-0.5583953857421875,0.222808837890625,Waiting,0.0,0.0,0.0,0.0,0.0,0.0,0.0,0.0,
1.8695080000000017,0.0,0.0,4974.0,1.0,-150.0,-661.4173203706741,0.0,0.125,0.795898356,4.932250999999998,0.0,-1764.0,1.625,97.5,661.4173203706741,0.0,0.125,0.521240181,4.963769999999998,0.0,3086.0,2.0,-82.5,-661.4173203706741,0.0,0.0,3.353271141,0.01,0.0,-5745.0,1.5,135.0,661.4173203706741,0.0,0.25,1.6638181890000001,0.01,0.0,-0.1599999964237213,-0.30000001192092896,0.47999998927116394,-0.228515625,-0.04254150390625,0.88641357421875,35.369998931884766,0.0,-224.0,-0.5599822998046875,0.222442626953125,Waiting,0.0,0.0,0.0,0.0,0.0,0.0,0.0,0.0,
1.916070000000007,0.0,0.0,4956.0,1.625,-105.0,-694.4881707429886,0.0,0.125,0.795898356,4.932250999999998,0.0,-1733.0,3.125,195.0,694.4881707429886,0.0,0.125,0.521240181,4.963769999999998,0.0,3078.0,3.5,-45.0,-694.4881707429886,0.0,0.0,3.34472622,0.01,0.0,-5727.0,2.5,105.0,694.4881707429886,0.0,0.25,1.6564939710000002,0.01,0.0,-0.18000000715255737,-0.6399999856948853,0.44999998807907104,-0.12677001953125,0.00579833984375,1.1064453125,35.369998931884766,0.0,-114.0,-0.56463623046875,0.2211151123046875,Waiting,0.0,0.0,0.0,0.0,0.0,0.0,0.0,0.0,
1.9707320000000037,0.0,0.0,4956.0,3.25,-105.0,-793.700784444809,0.0,0.125,0.794677653,4.932250999999998,0.0,-1733.0,3.5,150.0,793.700784444809,0.0,0.125,0.521240181,4.963769999999998,0.0,3078.0,5.5,-45.0,-793.700784444809,0.0,0.0,3.352050438,0.01,0.0,-5727.0,3.875,105.0,793.700784444809,0.0,0.25,1.625976396,0.01,0.0,-0.20999999344348907,-0.8500000238418579,0.46000000834465027,-0.14971923828125,0.0035400390625,1.07769775390625,35.369998931884766,0.0,-133.0,-0.570037841796875,0.21978759765625,Waiting,0.0,0.0,0.0,0.0,0.0,0.0,0.0,0.0,
2.0213810000000083,0.0,0.0,4956.0,4.375,-172.5,-793.700784444809,0.0,0.125,0.795898356,4.932250999999998,0.0,-1733.0,5.0,165.0,793.700784444809,0.0,0.125,0.5175780720000001,4.963769999999998,0.0,3078.0,7.125,-105.0,-793.700784444809,0.0,0.0,3.352050438,0.01,0.0,-5685.0,4.875,210.0,793.700784444809,0.0,0.125,1.6040037420000002,0.01,0.0,-0.20999999344348907,-1.25,0.4699999988079071,-0.1856689453125,0.0245361328125,1.0494384765625,35.36000061035156,0.0,-162.0,-0.5801849365234375,0.219696044921875,Waiting,0.0,0.0,0.0,0.0,0.0,0.0,0.0,0.0,
2.0719310000000113,0.0,0.0,4914.0,4.75,-292.5,-810.2362096309662,0.0,0.125,0.794677653,4.932250999999998,0.0,-1691.0,6.125,300.0,810.2362096309662,0.0,0.125,0.5163573690000001,4.963769999999998,0.0,3059.0,8.0,-112.5,-810.2362096309662,0.0,0.0,3.353271141,0.01,0.0,-5685.0,5.125,285.0,810.2362096309662,0.0,0.25,1.6064451480000002,0.01,0.0,-0.20999999344348907,-1.6200000047683716,0.47999998927116394,-0.16094970703125,-0.02471923828125,0.96563720703125,35.36000061035156,0.0,-133.0,-0.5903778076171875,0.2194976806640625,Waiting,0.0,0.0,0.0,0.0,0.0,0.0,0.0,0.0,
2.127296000000002,0.0,0.0,4914.0,4.5,-435.0,-810.2362096309662,0.0,0.125,0.798339762,4.932250999999998,0.0,-1691.0,5.75,435.0,810.2362096309662,0.0,0.125,0.5175780720000001,4.963769999999998,0.0,3059.0,9.75,-120.0,-810.2362096309662,0.0,0.0,3.353271141,0.01,0.0,-5685.0,5.0,412.5,810.2362096309662,0.0,0.25,1.6052244450000002,0.01,0.0,-0.2199999988079071,-2.009999990463257,0.5799999833106995,-0.140625,0.00506591796875,1.01885986328125,35.36000061035156,0.0,-104.0,-0.6073760986328125,0.2187652587890625,Waiting,0.0,0.0,0.0,0.0,0.0,0.0,0.0,0.0,
2.1751260000000037,0.0,0.0,4830.0,4.0,-532.5,-810.2362096309662,0.0,0.125,0.794677653,4.932250999999998,0.0,-1608.0,5.125,517.5,810.2362096309662,0.0,0.125,0.5163573690000001,4.963769999999998,0.0,3027.0,10.125,-202.5,-810.2362096309662,0.0,0.0,3.353271141,0.01,0.0,-5606.0,4.75,502.5,810.2362096309662,0.0,0.25,1.6101072570000001,0.01,0.0,-0.23000000417232513,-2.319999933242798,0.7200000286102295,-0.23773193359375,0.0123291015625,1.007568359375,35.36000061035156,0.0,-196.0,-0.62774658203125,0.2181854248046875,Waiting,0.0,0.0,0.0,0.0,0.0,0.0,0.0,0.0,
2.230121000000014,0.0,0.0,4830.0,3.375,-622.5,-810.2362096309662,0.0,0.125,0.794677653,4.932250999999998,0.0,-1608.0,4.625,637.5,810.2362096309662,0.0,0.125,0.5163573690000001,4.963769999999998,0.0,3027.0,10.375,-322.5,-810.2362096309662,0.0,0.0,3.353271141,0.01,0.0,-5606.0,3.75,630.0,810.2362096309662,0.0,0.25,1.6113279600000001,0.01,0.0,-0.2199999988079071,-2.509999990463257,0.800000011920929,-0.1568603515625,0.00323486328125,0.869140625,35.36000061035156,0.0,-118.0,-0.6450958251953125,0.21807861328125,Waiting,0.0,0.0,0.0,0.0,0.0,0.0,0.0,0.0,
2.2905750000000116,0.0,0.0,4708.0,2.875,-727.5,-810.2362096309662,0.0,0.125,0.795898356,4.932250999999998,0.0,-1490.0,3.625,712.5,810.2362096309662,0.0,0.125,0.5163573690000001,4.963769999999998,0.0,2964.0,10.5,-367.5,-810.2362096309662,0.0,0.0,3.352050438,0.01,0.0,-5487.0,3.25,750.0,810.2362096309662,0.0,0.25,1.6101072570000001,0.01,0.0,-0.23999999463558197,-2.7200000286102295,0.8899999856948853,-0.14007568359375,-0.015380859375,1.158447265625,35.36000061035156,0.0,-84.0,-0.66357421875,0.2179718017578125,Waiting,0.0,0.0,0.0,0.0,0.0,0.0,0.0,0.0,
2.342728000000003,0.0,0.0,4708.0,2.0,-810.0,-810.2362096309662,0.0,0.125,0.795898356,4.932250999999998,0.0,-1490.0,2.875,795.0,810.2362096309662,0.0,0.125,0.5163573690000001,4.963769999999998,0.0,2964.0,10.75,-480.0,-810.2362096309662,0.0,0.0,3.353271141,0.01,0.0,-5487.0,2.625,810.0,810.2362096309662,0.0,0.25,1.619872881,0.01,0.0,-0.1599999964237213,-2.7899999618530273,1.0,-0.08001708984375,-0.00494384765625,1.2296142578125,35.36000061035156,0.0,-19.0,-0.6891937255859375,0.2183074951171875,Waiting,0.0,0.0,0.0,0.0,0.0,0.0,0.0,0.0,
2.3933090000000083,0.0,0.0,4567.0,1.625,-862.5,-810.2362096309662,0.0,0.125,0.795898356,4.932250999999998,0.0,-1351.0,2.5,840.0,810.2362096309662,0.0,0.125,0.521240181,4.963769999999998,0.0,2874.0,10.25,-555.0,-810.2362096309662,0.0,0.0,3.353271141,0.01,0.0,-5348.0,2.0,862.5,810.2362096309662,0.0,0.25,1.619872881,0.01,0.0,-0.18000000715255737,-2.8499999046325684,1.1799999475479126,-0.14141845703125,-0.008544921875,0.986328125,35.36000061035156,0.0,-92.0,-0.6893310546875,0.2190704345703125,Waiting,0.0,0.0,0.0,0.0,0.0,0.0,0.0,0.0,
2.451551000000007,0.0,0.0,4567.0,0.75,-915.0,-810.2362096309662,0.0,0.125,0.797119059,4.932250999999998,0.0,-1351.0,1.75,900.0,810.2362096309662,0.0,0.125,0.52490229,4.963769999999998,0.006103515000000392,2874.0,10.5,-592.5,-810.2362096309662,0.0,0.0,3.352050438,0.01,0.0,-5348.0,1.625,892.5,810.2362096309662,0.0,0.125,1.6345213170000001,0.01,0.0,-0.20999999344348907,-2.8299999237060547,1.309999942779541,-0.1268310546875,0.007568359375,1.0751953125,35.36000061035156,0.0,-73.0,-0.690277099609375,0.2192535400390625,Waiting,0.0,0.0,0.0,0.0,0.0,0.0,0.0,0.0,
2.50156700000001,0.0,0.0,4567.0,0.625,-960.0,-810.2362096309662,0.0,0.125,0.794677653,4.932250999999998,-0.0012207030000004337,-1351.0,1.375,915.0,810.2362096309662,0.0,0.125,0.526122993,4.963769999999998,0.0,2874.0,10.75,-637.5,-810.2362096309662,0.0,0.0,3.350829735,0.01,0.0,-5194.0,0.875,945.0,810.2362096309662,0.0,0.125,1.645507644,0.01,0.0,-0.27000001072883606,-2.9600000381469727,1.4500000476837158,-0.0660400390625,0.0303955078125,1.070556640625,35.36000061035156,0.0,-61.0,-0.69219970703125,0.218658447265625,Waiting,0.0,0.0,0.0,0.0,0.0,0.0,0.0,0.0,
2.552595000000001,0.0,0.0,4409.0,0.125,-990.0,-682.2426860575589,0.0,0.125,0.795898356,4.797758046492631,0.0012207030000004337,-1202.0,1.125,937.5,955.326272834785,0.0,0.125,0.531005805,4.867341521792839,0.004882811999999959,2771.0,10.125,-630.0,-682.2426860575589,0.0,0.0,3.353271141,0.1347151609899431,0.0,-5194.0,1.125,967.5,955.326272834785,0.0,0.125,1.649169753,0.09631638753429425,0.0,-0.28999999165534973,-2.930000066757202,1.6399999856948853,-0.04339599609375,-0.0086669921875,1.03143310546875,35.31999969482422,0.0,9.0,-0.693206787109375,0.21826171875,Waiting,0.0,0.0,0.0,0.0,0.0,0.0,0.0,0.0,
2.605912000000011,0.0,0.0,4409.0,0.125,-952.5,-606.1674530896322,0.0,0.25,0.7763671080000001,4.667051393542096,0.0,-1202.0,1.5,982.5,1067.6439517986619,0.0,0.25,0.531005805,4.814211951449734,0.0,2771.0,8.75,-645.0,-606.1674530896322,0.0,0.125,3.392333637,0.2656377657472481,0.0,-5194.0,1.5,997.5,1067.6439517986619,0.0,0.25,1.645507644,0.1493841988472907,0.0,-0.3400000035762787,-2.819999933242798,1.7400000095367432,0.03204345703125,0.01617431640625,1.1666259765625,35.31999969482422,0.0,90.0,-0.6941375732421875,0.2172698974609375,Waiting,0.0,0.0,0.0,0.0,0.0,0.0,0.0,0.0,
2.6562690000000004,0.0,0.0,4264.0,0.0,-892.5,-598.0045600578654,0.0,0.375,0.701904225,4.6484958399842276,0.0,-1033.0,1.625,1057.5,1081.983367799297,0.0,0.25,0.477294873,4.8083525397546785,-0.0024414059999999793,2652.0,7.5,-757.5,-598.0045600578654,0.0,0.25,3.488769174,0.2842239765457846,0.0,-5030.0,1.625,1027.5,1081.983367799297,0.0,0.25,1.678466625,0.1552367994279158,0.0,-0.3799999952316284,-2.559999942779541,1.6699999570846558,0.09136962890625,0.04656982421875,0.6802978515625,35.31999969482422,0.0,123.0,-0.6946868896484375,0.2162017822265625,Waiting,0.0,0.0,0.0,0.0,0.0,0.0,0.0,0.0,
2.7105330000000105,0.0,0.0,4264.0,0.0,-945.0,-598.0045600578654,0.0,0.375,0.59814447,4.6484958399842276,0.0,-1033.0,1.5,1072.5,1081.983367799297,0.0,0.25,0.438232377,4.8083525397546785,0.0,2652.0,6.5,-825.0,-598.0045600578654,0.0,0.125,3.560790651,0.2842239765457846,0.0,-5030.0,1.5,1065.0,1081.983367799297,0.0,0.25,1.7321775570000002,0.1552367994279158,0.0,-0.3700000047683716,-2.369999885559082,1.1799999475479126,0.052978515625,0.17291259765625,0.619140625,35.31999969482422,0.0,82.0,-0.6943359375,0.2149200439453125,Waiting,0.0,0.0,0.0,0.0,0.0,0.0,0.0,0.0,
2.7637050000000016,0.0,0.0,4114.0,0.0,-952.5,-598.0045600578654,0.0,0.25,0.531005805,4.6484958399842276,0.0,-856.0,1.125,1095.0,1081.983367799297,0.0,0.25,0.384521445,4.8083525397546785,0.0,2507.0,5.625,-892.5,-598.0045600578654,0.0,0.125,3.6206050980000004,0.2842239765457846,0.0,-4853.0,1.125,1095.0,1081.983367799297,0.0,0.375,1.778564271,0.1552367994279158,0.0,-0.27000001072883606,-2.319999933242798,0.25,-0.04534912109375,-0.037353515625,1.44439697265625,35.31999969482422,0.0,13.0,-0.6925506591796875,0.214111328125,Waiting,0.0,0.0,0.0,0.0,0.0,0.0,0.0,0.0,
2.8124260000000065,0.0,0.0,4114.0,0.125,-847.5,-598.0045600578654,0.0,0.25,0.49926752700000004,4.6484958399842276,0.0,-856.0,1.0,1117.5,1081.983367799297,0.0,0.25,0.345458949,4.8083525397546785,0.0,2507.0,5.25,-900.0,-598.0045600578654,0.0,0.125,3.648681267,0.2842239765457846,0.0,-4853.0,0.875,1125.0,1081.983367799297,0.0,0.375,1.7883298950000002,0.1552367994279158,0.0,-0.28999999165534973,-2.069999933242798,-1.25,0.00390625,0.01580810546875,1.25616455078125,35.31999969482422,0.0,48.0,-0.6894683837890625,0.2129974365234375,Waiting,0.0,0.0,0.0,0.0,0.0,0.0,0.0,0.0,
2.865063000000009,0.0,0.0,4114.0,0.125,-750.0,-598.0045600578654,0.0,0.125,0.49926752700000004,4.6484958399842276,0.0,-856.0,0.75,1110.0,1081.983367799297,0.0,0.25,0.327148404,4.8083525397546785,0.0,2381.0,5.25,-825.0,-598.0045600578654,0.0,0.125,3.6791988420000004,0.2842239765457846,0.0,-4673.0,0.875,1125.0,1081.983367799297,0.0,0.25,1.7895505980000002,0.1552367994279158,0.0,-0.36000001430511475,-1.8300000429153442,-3.7100000381469727,0.03057861328125,-0.0830078125,1.06378173828125,35.31999969482422,0.0,69.0,-0.683868408203125,0.2107696533203125,Waiting,0.0,0.0,0.0,0.0,0.0,0.0,0.0,0.0,
2.9143870000000023,0.0,0.0,4004.0,0.125,-667.5,-613.4992734257354,0.0,0.125,0.498046824,4.655978436424609,0.0,-675.0,0.5,1140.0,1098.2046007153915,0.0,0.0,0.327148404,4.810677564387351,0.0,2381.0,5.25,-765.0,-613.4992734257354,0.0,0.125,3.6779781390000004,0.27672901745833006,0.0,-4673.0,0.75,1132.5,1098.2046007153915,0.0,0.25,1.7944334100000001,0.152914477457157,0.0,-0.47999998927116394,-1.7300000190734863,-6.170000076293945,-0.0389404296875,-0.111083984375,1.06634521484375,35.31999969482422,0.0,4.0,-0.6768646240234375,0.2067108154296875,Waiting,0.0,0.0,0.0,0.0,0.0,0.0,0.0,0.0,
2.968830000000002,0.0,0.0,4004.0,0.125,-645.0,-613.4992734257354,0.0,0.25,0.5029296360000001,4.655978436424609,0.0,-675.0,0.375,1222.5,1098.2046007153915,0.0,0.125,0.328369107,4.810677564387351,0.0,2381.0,5.625,-720.0,-613.4992734257354,0.0,0.125,3.6730953270000004,0.27672901745833006,0.0,-4673.0,0.5,1200.0,1098.2046007153915,0.0,0.25,1.809081846,0.152914477457157,0.0,-0.550000011920929,-1.6799999475479126,-7.96999979019165,-0.0560302734375,-0.0067138671875,1.29144287109375,35.31999969482422,0.0,-18.0,-0.67083740234375,0.2028961181640625,Waiting,0.0,0.0,0.0,0.0,0.0,0.0,0.0,0.0,
3.0239140000000044,0.0,0.0,3901.0,0.125,-637.5,-613.4992734257354,0.0,0.25,0.522460884,4.655978436424609,0.0,-479.0,0.25,1200.0,1098.2046007153915,0.0,0.125,0.328369107,4.810677564387351,0.0,2267.0,5.75,-697.5,-613.4992734257354,0.0,0.125,3.668212515,0.27672901745833006,0.0,-4481.0,0.5,1177.5,1098.2046007153915,0.0,0.25,1.8151853610000002,0.152914477457157,0.0,-0.6100000143051147,-1.5,-10.329999923706055,0.04534912109375,-0.04443359375,1.0908203125,35.31999969482422,0.0,78.0,-0.6622467041015625,0.1975555419921875,Waiting,0.0,0.0,0.0,0.0,0.0,0.0,0.0,0.0,
3.075719000000012,0.0,0.0,3901.0,0.125,-607.5,-613.4992734257354,0.0,0.25,0.513915963,4.655978436424609,0.0,-479.0,0.25,1177.5,1098.2046007153915,0.0,0.125,0.327148404,4.810677564387351,0.0,2267.0,5.75,-682.5,-613.4992734257354,0.0,0.125,3.668212515,0.27672901745833006,0.0,-4481.0,0.5,1162.5,1098.2046007153915,0.0,0.25,1.8188474700000001,0.152914477457157,0.0,-0.7200000286102295,-1.4500000476837158,-12.649999618530273,0.0185546875,-0.0794677734375,1.053955078125,35.33000183105469,0.0,58.0,-0.6522216796875,0.191162109375,Waiting,0.0,0.0,0.0,0.0,0.0,0.0,0.0,0.0,
3.131570000000007,0.0,0.0,3806.0,0.125,-592.5,-613.4992734257354,0.0,0.125,0.511474557,4.655978436424609,0.0,-294.0,0.25,1162.5,1098.2046007153915,0.0,0.125,0.328369107,4.810677564387351,0.0,2162.0,5.875,-660.0,-613.4992734257354,0.0,0.125,3.666991812,0.27672901745833006,0.0,-4296.0,0.5,1147.5,1098.2046007153915,0.0,0.25,1.809081846,0.152914477457157,0.0,-0.800000011920929,-1.4500000476837158,-14.350000381469727,0.02777099609375,-0.04241943359375,1.17529296875,35.33000183105469,0.0,62.0,-0.6439056396484375,0.185638427734375,Waiting,0.0,0.0,0.0,0.0,0.0,0.0,0.0,0.0,
3.1877780000000056,0.0,0.0,3806.0,0.125,-577.5,-613.4992734257354,0.0,0.125,0.5151366660000001,4.655978436424609,0.0,-294.0,0.375,1125.0,1098.2046007153915,0.0,0.125,0.328369107,4.810677564387351,0.0,2162.0,6.0,-630.0,-613.4992734257354,0.0,0.125,3.668212515,0.27672901745833006,0.0,-4296.0,0.5,1125.0,1098.2046007153915,0.0,0.25,1.805419737,0.152914477457157,0.0,-0.8799999952316284,-1.350000023841858,-16.020000457763672,0.056884765625,0.0032958984375,0.84814453125,35.33000183105469,0.0,69.0,-0.635009765625,0.179779052734375,Waiting,0.0,0.0,0.0,0.0,0.0,0.0,0.0,0.0,
3.244589000000007,0.0,0.0,3715.0,0.125,-570.0,-613.4992734257354,0.0,0.125,0.51269526,4.655978436424609,0.0,-118.0,0.5,1102.5,1098.2046007153915,0.0,0.125,0.327148404,4.810677564387351,0.0,2064.0,6.25,-615.0,-613.4992734257354,0.0,0.125,3.668212515,0.27672901745833006,0.0,-4118.0,0.5,1110.0,1098.2046007153915,0.0,0.25,1.805419737,0.152914477457157,0.0,-0.9800000190734863,-1.3200000524520874,-18.209999084472656,-0.00238037109375,-0.072998046875,0.80120849609375,35.33000183105469,0.0,33.0,-0.62225341796875,0.1716766357421875,Waiting,0.0,0.0,0.0,0.0,0.0,0.0,0.0,0.0,
3.3050680000000137,0.0,0.0,3715.0,0.125,-577.5,-613.4992734257354,0.0,0.125,0.51269526,4.655978436424609,0.0,-118.0,0.5,1087.5,1098.2046007153915,0.0,0.125,0.32958981000000004,4.810677564387351,0.0,2064.0,6.625,-555.0,-613.4992734257354,0.0,0.125,3.668212515,0.27672901745833006,0.0,-4118.0,0.75,1095.0,1098.2046007153915,0.0,0.25,1.804199034,0.152914477457157,0.0,-1.0499999523162842,-1.2999999523162842,-20.350000381469727,0.03704833984375,-0.04632568359375,1.1810302734375,35.33000183105469,0.0,68.0,-0.608673095703125,0.1624298095703125,Waiting,0.0,0.0,0.0,0.0,0.0,0.0,0.0,0.0,
3.3582830000000103,0.0,0.0,3620.0,0.125,-585.0,-613.4992734257354,0.0,0.125,0.51269526,4.655978436424609,0.0,56.0,0.5,1087.5,1098.2046007153915,0.0,0.125,0.327148404,4.810677564387351,0.0,1980.0,7.25,-517.5,-613.4992734257354,0.0,0.125,3.668212515,0.27672901745833006,0.0,-3946.0,0.75,1072.5,1098.2046007153915,0.0,0.25,1.805419737,0.152914477457157,0.0,-1.1200000047683716,-1.2799999713897705,-22.479999542236328,-0.0572509765625,-0.0523681640625,1.26568603515625,35.33000183105469,0.0,-16.0,-0.60150146484375,0.1522979736328125,Waiting,0.0,0.0,0.0,0.0,0.0,0.0,0.0,0.0,
3.4153840000000053,0.0,0.0,3620.0,0.125,-577.5,-613.4992734257354,0.0,0.125,0.51269526,4.655978436424609,0.0,56.0,0.625,1080.0,1098.2046007153915,0.0,0.125,0.328369107,4.810677564387351,0.0,1980.0,7.25,-547.5,-613.4992734257354,0.0,0.125,3.666991812,0.27672901745833006,0.0,-3946.0,0.75,1080.0,1098.2046007153915,0.0,0.25,1.7895505980000002,0.152914477457157,0.0,-1.1399999856948853,-1.3700000047683716,-24.600000381469727,-0.0443115234375,-0.083984375,1.33013916015625,35.33000183105469,0.0,12.0,-0.6010894775390625,0.1414337158203125,Waiting,0.0,0.0,0.0,0.0,0.0,0.0,0.0,0.0,
3.4704850000000005,0.0,0.0,3529.0,0.125,-570.0,-613.4992734257354,0.0,0.125,0.531005805,4.655978436424609,0.0,227.0,0.625,1072.5,1098.2046007153915,0.0,0.125,0.32348629500000003,4.810677564387351,0.0,1880.0,7.0,-615.0,-613.4992734257354,0.0,0.125,3.6828609510000003,0.27672901745833006,0.0,-3774.0,0.75,1080.0,1098.2046007153915,0.0,0.25,1.795654113,0.152914477457157,0.0,-1.2000000476837158,-1.25,-26.15999984741211,-0.047607421875,-0.0289306640625,0.90740966796875,35.33000183105469,0.0,-20.0,-0.600311279296875,0.1325531005859375,Waiting,0.0,0.0,0.0,0.0,0.0,0.0,0.0,0.0,
3.526724000000002,0.0,0.0,3529.0,0.125,-570.0,-613.4992734257354,0.0,0.125,0.51269526,4.655978436424609,0.0,227.0,0.75,1065.0,1098.2046007153915,0.0,0.125,0.327148404,4.810677564387351,0.0,1880.0,6.5,-630.0,-613.4992734257354,0.0,0.125,3.666991812,0.27672901745833006,0.0,-3774.0,0.875,1057.5,1098.2046007153915,0.0,0.25,1.804199034,0.152914477457157,0.0,-1.2100000381469727,-1.1399999856948853,-28.200000762939453,-0.056884765625,-0.07916259765625,1.0390625,35.33000183105469,0.0,-4.0,-0.599029541015625,0.1202392578125,Waiting,0.0,0.0,0.0,0.0,0.0,0.0,0.0,0.0,
3.585569000000003,0.0,0.0,3436.0,0.125,-577.5,-613.4992734257354,0.0,0.125,0.51269526,4.655978436424609,0.0,398.0,0.75,1065.0,1098.2046007153915,0.0,0.125,0.328369107,4.810677564387351,0.0,1880.0,6.625,-615.0,-613.4992734257354,0.0,0.125,3.668212515,0.27672901745833006,0.0,-3602.0,0.875,1065.0,1098.2046007153915,0.0,0.25,1.804199034,0.152914477457157,0.0,-1.2599999904632568,-1.2200000286102295,-30.290000915527344,0.0294189453125,-0.0445556640625,1.14447021484375,35.31999969482422,0.0,56.0,-0.5968475341796875,0.1071624755859375,Waiting,0.0,0.0,0.0,0.0,0.0,0.0,0.0,0.0,
3.6356240000000106,0.0,0.0,3436.0,0.125,-577.5,-613.4992734257354,0.0,0.125,0.5297851020000001,4.655978436424609,0.0,398.0,0.75,1057.5,1098.2046007153915,0.0,0.125,0.327148404,4.810677564387351,0.0,1780.0,6.5,-615.0,-613.4992734257354,0.0,0.125,3.668212515,0.27672901745833006,0.0,-3602.0,0.875,1080.0,1098.2046007153915,0.0,0.25,1.799316222,0.152914477457157,0.0,-1.2799999713897705,-1.190000057220459,-31.8799991607666,-0.08917236328125,-0.0035400390625,0.946044921875,35.31999969482422,0.0,-10.0,-0.5939788818359375,0.0934906005859375,Waiting,0.0,0.0,0.0,0.0,0.0,0.0,0.0,0.0,
3.694528000000006,0.0,0.0,3436.0,0.125,-577.5,-613.4992734257354,0.0,0.125,0.51269526,4.655978436424609,0.0,398.0,0.75,1057.5,1098.2046007153915,0.0,0.125,0.327148404,4.810677564387351,0.0,1780.0,6.5,-622.5,-613.4992734257354,0.0,0.125,3.660888297,0.27672901745833006,0.0,-3602.0,0.875,1072.5,1098.2046007153915,0.0,0.25,1.7907713010000001,0.152914477457157,0.0,-1.2999999523162842,-1.149999976158142,-33.970001220703125,-0.056640625,-0.0599365234375,1.2105712890625,35.31999969482422,0.0,-8.0,-0.5919342041015625,0.082733154296875,Waiting,0.0,0.0,0.0,0.0,0.0,0.0,0.0,0.0,
3.7499310000000112,0.0,0.0,3342.0,0.125,-577.5,-613.4992734257354,0.0,0.125,0.5151366660000001,4.655978436424609,-0.0012207029999995456,568.0,0.875,1065.0,1098.2046007153915,0.0,0.125,0.327148404,4.810677564387351,0.0,1680.0,6.5,-622.5,-613.4992734257354,0.0,0.125,3.669433218,0.27672901745833006,0.0,-3434.0,1.125,1035.0,1098.2046007153915,0.0,0.25,1.7895505980000002,0.152914477457157,0.0,-1.350000023841858,-1.190000057220459,-36.040000915527344,-0.09161376953125,-0.06805419921875,1.25665283203125,35.31999969482422,0.0,-30.0,-0.58892822265625,0.0681304931640625,Waiting,0.0,0.0,0.0,0.0,0.0,0.0,0.0,0.0,
3.8064490000000077,0.0,0.0,3342.0,0.375,-585.0,-826.7716348171234,0.0,0.125,0.51269526,4.932250999999998,0.0024414059999999793,568.0,0.75,1065.0,826.7716348171234,0.0,0.125,0.325927701,4.963769999999998,0.0,1680.0,8.0,-622.5,-826.7716348171234,0.0,0.125,3.666991812,0.01,0.0,-3434.0,0.75,1050.0,826.7716348171234,0.0,0.25,1.7883298950000002,0.01,0.0,-1.4199999570846558,-1.3300000429153442,-38.060001373291016,-0.05316162109375,-0.0731201171875,1.103759765625,35.31999969482422,0.0,6.0,-0.58563232421875,0.05389404296875,Waiting,0.0,0.0,0.0,0.0,0.0,0.0,0.0,0.0,
3.855807000000001,0.0,0.0,3238.0,0.625,-652.5,-826.7716348171234,0.0,0.75,0.584716737,4.932250999999998,0.0,732.0,0.25,1027.5,826.7716348171234,0.0,0.25,0.35644527600000003,4.963769999999998,0.0,1578.0,9.25,-645.0,-826.7716348171234,0.0,0.625,3.566894166,0.01,0.0,-3268.0,0.5,1020.0,826.7716348171234,0.0,0.5,1.7614744290000002,0.01,0.0,-1.5399999618530273,-1.1299999952316284,-39.52000045776367,0.0069580078125,-0.03668212890625,0.97833251953125,35.31999969482422,0.0,26.0,-0.5856170654296875,0.04669189453125,Waiting,0.0,0.0,0.0,0.0,0.0,0.0,0.0,0.0,
3.913771000000008,0.0,0.0,3238.0,0.75,-697.5,-826.7716348171234,0.0,0.375,0.715331958,4.932250999999998,0.0,732.0,0.375,997.5,826.7716348171234,0.0,0.25,0.418701129,4.963769999999998,0.0,1578.0,9.75,-652.5,-826.7716348171234,0.0,0.25,3.4741207380000003,0.01,0.0,-3268.0,0.5,1005.0,826.7716348171234,0.0,0.25,1.697997873,0.01,0.0,-1.5399999618530273,-1.2100000381469727,-41.279998779296875,0.03192138671875,-0.1251220703125,0.91656494140625,35.31999969482422,0.0,104.0,-0.5855560302734375,0.046173095703125,Waiting,0.0,0.0,0.0,0.0,0.0,0.0,0.0,0.0,
3.968195000000007,0.0,0.0,3132.0,0.75,-652.5,-826.7716348171234,0.0,0.375,0.8020018710000001,4.932250999999998,0.0,890.0,0.25,982.5,826.7716348171234,0.0,0.25,0.477294873,4.963769999999998,0.0,1470.0,10.0,-660.0,-826.7716348171234,0.0,0.25,3.399657855,0.01,0.0,-3107.0,0.5,1005.0,826.7716348171234,0.0,0.25,1.645507644,0.01,0.0,-1.6299999952316284,-1.2799999713897705,-42.209999084472656,-0.08587646484375,-0.03570556640625,0.84100341796875,35.31999969482422,0.0,-41.0,-0.5854339599609375,0.04534912109375,Waiting,0.0,0.0,0.0,0.0,0.0,0.0,0.0,0.0,
4.017933000000005,0.0,0.0,3132.0,0.75,-697.5,-826.7716348171234,0.0,0.25,0.825195228,4.932250999999998,0.0,890.0,0.25,915.0,826.7716348171234,0.0,0.25,0.521240181,4.963769999999998,0.0,1470.0,9.125,-735.0,-826.7716348171234,0.0,0.125,3.391112934,0.01,0.0,-3107.0,0.5,937.5,826.7716348171234,0.0,0.25,1.619872881,0.01,0.0,-1.75,-1.4199999570846558,-42.65999984741211,-0.07269287109375,-0.16339111328125,1.0146484375,35.31999969482422,0.0,54.0,-0.58526611328125,0.043121337890625,Waiting,0.0,0.0,0.0,0.0,0.0,0.0,0.0,0.0,
4.072447,0.0,0.0,3005.0,0.375,-780.0,-578.740131855011,0.0,0.125,0.833740149,4.932250999999998,0.0,1024.0,0.25,870.0,578.740131855011,0.0,0.25,0.526122993,4.963769999999998,0.0,1332.0,7.25,-817.5,-578.740131855011,0.0,0.125,3.391112934,0.01,0.0,-2974.0,0.375,840.0,578.740131855011,0.0,0.125,1.624755693,0.01,0.0,-1.75,-1.3899999856948853,-42.52000045776367,0.0828857421875,0.01416015625,0.946044921875,35.29999923706055,0.0,48.0,-0.5846099853515625,0.0401763916015625,Waiting,0.0,0.0,0.0,0.0,0.0,0.0,0.0,0.0,
4.128313000000009,0.0,0.0,3005.0,0.125,-772.5,-496.06300592422485,0.0,0.25,0.8435057730000001,4.932250999999998,0.0,1024.0,0.125,802.5,496.06300592422485,0.0,0.125,0.527343696,4.963769999999998,0.0,1332.0,3.875,-885.0,-496.06300592422485,0.0,0.125,3.397216449,0.01,0.0,-2974.0,0.5,795.0,496.06300592422485,0.0,0.125,1.619872881,0.01,0.0,-1.7300000190734863,-1.2599999904632568,-42.349998474121094,0.0482177734375,0.0452880859375,0.98828125,35.29999923706055,0.0,1.0,-0.583892822265625,0.03826904296875,Waiting,0.0,0.0,0.0,0.0,0.0,0.0,0.0,0.0,
4.186650000000009,0.0,0.0,2897.0,0.125,-660.0,-496.06300592422485,0.0,0.25,0.8435057730000001,4.932250999999998,0.0,1145.0,0.125,765.0,496.06300592422485,0.0,0.125,0.526122993,4.963769999999998,0.0,1199.0,3.0,-847.5,-496.06300592422485,0.0,0.125,3.392333637,0.01,0.0,-2854.0,0.5,757.5,496.06300592422485,0.0,0.125,1.619872881,0.01,0.0,-1.659999966621399,-1.0499999523162842,-42.189998626708984,0.01153564453125,0.05419921875,0.9718017578125,35.29999923706055,0.0,-33.0,-0.58197021484375,0.0368499755859375,Waiting,0.0,0.0,0.0,0.0,0.0,0.0,0.0,0.0,
4.244744000000006,0.0,0.0,2897.0,0.125,-675.0,-479.5275494456291,0.0,0.25,0.8435057730000001,4.932250999999998,0.0,1145.0,0.125,735.0,479.5275494456291,0.0,0.125,0.527343696,4.963769999999998,0.0,1199.0,2.625,-787.5,-479.5275494456291,0.0,0.125,3.392333637,0.01,0.0,-2854.0,0.5,727.5,479.5275494456291,0.0,0.125,1.624755693,0.01,0.0,-1.590000033378601,-0.8899999856948853,-42.029998779296875,0.01934814453125,0.04193115234375,0.980712890625,35.29999923706055,0.0,-20.0,-0.5797882080078125,0.037109375,Waiting,0.0,0.0,0.0,0.0,0.0,0.0,0.0,0.0,
4.296254000000001,0.0,0.0,2897.0,0.125,-727.5,-479.5275494456291,0.0,0.25,0.8435057730000001,4.932250999999998,0.0,1145.0,0.125,675.0,479.5275494456291,0.0,0.125,0.526122993,4.963769999999998,0.0,1199.0,2.5,-750.0,-479.5275494456291,0.0,0.125,3.394775043,0.01,0.0,-2854.0,0.5,690.0,479.5275494456291,0.0,0.125,1.624755693,0.01,0.0,-1.5800000429153442,-0.6600000262260437,-41.86000061035156,0.09759521484375,0.08135986328125,0.81976318359375,35.29999923706055,0.0,10.0,-0.5779571533203125,0.039337158203125,Waiting,0.0,0.0,0.0,0.0,0.0,0.0,0.0,0.0,
4.354172000000006,0.0,0.0,2786.0,0.125,-660.0,-479.5275494456291,0.0,0.25,0.8435057730000001,4.932250999999998,0.0,1247.0,0.125,622.5,479.5275494456291,0.0,0.125,0.526122993,4.963769999999998,0.0,1084.0,2.5,-697.5,-479.5275494456291,0.0,0.125,3.392333637,0.01,0.0,-2749.0,0.5,622.5,479.5275494456291,0.0,0.125,1.6284178020000002,0.01,0.0,-1.5199999809265137,-0.5,-41.7599983215332,0.10369873046875,-0.0560302734375,0.99981689453125,35.29999923706055,0.0,103.0,-0.577423095703125,0.0429229736328125,Waiting,0.0,0.0,0.0,0.0,0.0,0.0,0.0,0.0,
4.410865000000006,0.0,0.0,2786.0,0.125,-615.0,-611.8110448122025,0.0,0.25,0.837402258,4.932250999999998,0.0,1247.0,0.25,592.5,611.8110448122025,0.0,0.125,0.521240181,4.963769999999998,0.0,1084.0,2.875,-645.0,-611.8110448122025,0.0,0.125,3.392333637,0.01,0.0,-2749.0,0.5,570.0,611.8110448122025,0.0,0.125,1.625976396,0.01,0.0,-1.4800000190734863,-0.38999998569488525,-41.689998626708984,0.01043701171875,0.087158203125,0.97650146484375,35.29999923706055,0.0,-61.0,-0.5763092041015625,0.046356201171875,Waiting,0.0,0.0,0.0,0.0,0.0,0.0,0.0,0.0,
4.467583000000014,0.0,0.0,2691.0,0.125,-577.5,-628.3464699983597,0.0,0.25,0.8435057730000001,4.932250999999998,0.0,1338.0,0.125,555.0,628.3464699983597,0.0,0.125,0.521240181,4.963769999999998,0.0,983.0,3.875,-615.0,-628.3464699983597,0.0,0.125,3.392333637,0.01,0.0,-2661.0,0.375,540.0,628.3464699983597,0.0,0.125,1.625976396,0.01,0.0,-1.409999966621399,-0.3100000023841858,-41.58000183105469,0.00469970703125,-0.05157470703125,1.07470703125,35.29999923706055,0.0,24.0,-0.5748443603515625,0.049163818359375,Waiting,0.0,0.0,0.0,0.0,0.0,0.0,0.0,0.0,
4.520460000000006,0.0,0.0,2691.0,0.125,-562.5,-628.3464699983597,0.0,0.25,0.8435057730000001,4.932250999999998,0.0,1338.0,0.125,525.0,628.3464699983597,0.0,0.125,0.52490229,4.963769999999998,0.0,983.0,4.5,-577.5,-628.3464699983597,0.0,0.125,3.39355434,0.01,0.0,-2661.0,0.375,517.5,628.3464699983597,0.0,0.125,1.617431475,0.01,0.0,-1.350000023841858,-0.3199999928474426,-41.45000076293945,0.02099609375,-0.0333251953125,0.905029296875,35.29999923706055,0.0,27.0,-0.5734710693359375,0.0493621826171875,Waiting,0.0,0.0,0.0,0.0,0.0,0.0,0.0,0.0,
4.573705000000002,0.0,0.0,2603.0,0.125,-547.5,-644.8818951845169,0.0,0.25,0.8435057730000001,4.932250999999998,0.0,1420.0,0.25,510.0,644.8818951845169,0.0,0.125,0.526122993,4.963769999999998,0.0,893.0,4.875,-562.5,-644.8818951845169,0.0,0.125,3.391112934,0.01,0.0,-2578.0,0.375,510.0,644.8818951845169,0.0,0.125,1.624755693,0.01,0.0,-1.340000033378601,-0.2800000011920929,-41.38999938964844,-0.01300048828125,-0.0052490234375,1.064453125,35.31999969482422,0.0,-18.0,-0.5724945068359375,0.049407958984375,Waiting,0.0,0.0,0.0,0.0,0.0,0.0,0.0,0.0,
4.629123000000007,0.0,0.0,2603.0,0.125,-562.5,-661.4173203706741,0.0,0.25,0.8422850700000001,4.932250999999998,0.0,1420.0,0.375,510.0,661.4173203706741,0.0,0.125,0.521240181,4.963769999999998,0.0,893.0,5.375,-562.5,-661.4173203706741,0.0,0.125,3.392333637,0.01,0.0,-2578.0,0.5,510.0,661.4173203706741,0.0,0.125,1.621093584,0.01,0.0,-1.3300000429153442,-0.3499999940395355,-41.279998779296875,-0.0274658203125,0.04583740234375,1.0999755859375,35.31999969482422,0.0,-62.0,-0.5721893310546875,0.0496673583984375,Waiting,0.0,0.0,0.0,0.0,0.0,0.0,0.0,0.0,
4.685275000000009,0.0,0.0,2509.0,0.125,-577.5,-661.4173203706741,0.0,0.25,0.8435057730000001,4.932250999999998,0.0,1505.0,0.5,525.0,661.4173203706741,0.0,0.125,0.526122993,4.963769999999998,0.0,800.0,5.625,-570.0,-661.4173203706741,0.0,0.125,3.392333637,0.01,0.0,-2494.0,0.75,517.5,661.4173203706741,0.0,0.125,1.619872881,0.01,0.0,-1.2799999713897705,-0.3400000035762787,-41.18000030517578,-0.02130126953125,-0.0931396484375,0.86083984375,35.31999969482422,0.0,36.0,-0.572265625,0.05023193359375,Waiting,0.0,0.0,0.0,0.0,0.0,0.0,0.0,0.0,
4.733952000000005,0.0,0.0,2509.0,0.125,-592.5,-677.9527455568314,0.0,0.25,0.8435057730000001,4.932250999999998,0.0,1505.0,0.625,547.5,677.9527455568314,0.0,0.125,0.521240181,4.963769999999998,0.0,800.0,5.75,-585.0,-677.9527455568314,0.0,0.125,3.387450825,0.01,0.0,-2494.0,0.75,540.0,677.9527455568314,0.0,0.125,1.621093584,0.01,0.0,-1.2699999809265137,-0.38999998569488525,-41.06999969482422,0.02874755859375,0.07049560546875,0.9019775390625,35.31999969482422,0.0,-33.0,-0.572296142578125,0.050567626953125,Waiting,0.0,0.0,0.0,0.0,0.0,0.0,0.0,0.0,
4.790757000000013,0.0,0.0,2409.0,0.125,-607.5,-711.0235959291458,0.0,0.25,0.8435057730000001,4.932250999999998,0.0,1598.0,0.625,562.5,711.0235959291458,0.0,0.125,0.526122993,4.963769999999998,0.0,704.0,6.0,-592.5,-711.0235959291458,0.0,0.125,3.394775043,0.01,0.0,-2406.0,0.875,547.5,711.0235959291458,0.0,0.125,1.625976396,0.01,0.0,-1.2300000190734863,-0.4099999964237213,-40.97999954223633,-0.02117919921875,-0.0152587890625,1.15985107421875,35.31999969482422,0.0,-15.0,-0.5724334716796875,0.0507659912109375,Waiting,0.0,0.0,0.0,0.0,0.0,0.0,0.0,0.0,
4.841533999999999,0.0,0.0,2409.0,0.125,-637.5,-711.0235959291458,0.0,0.25,0.8435057730000001,4.932250999999998,0.0,1598.0,0.75,592.5,711.0235959291458,0.0,0.125,0.526122993,4.963769999999998,0.0,704.0,6.25,-607.5,-711.0235959291458,0.0,0.125,3.392333637,0.01,0.0,-2406.0,1.125,555.0,711.0235959291458,0.0,0.125,1.621093584,0.01,0.0,-1.2000000476837158,-0.49000000953674316,-40.869998931884766,-0.0240478515625,-0.0506591796875,0.93701171875,35.31999969482422,0.0,8.0,-0.572601318359375,0.0506744384765625,Waiting,0.0,0.0,0.0,0.0,0.0,0.0,0.0,0.0,
4.891688000000009,0.0,0.0,2409.0,0.375,-652.5,-744.0945088863373,0.0,0.25,0.8447264760000001,4.932250999999998,0.0,1598.0,0.625,622.5,744.0945088863373,0.0,0.125,0.526122993,4.963769999999998,0.0,704.0,6.625,-615.0,-744.0945088863373,0.0,0.125,3.392333637,0.01,0.0,-2406.0,1.125,577.5,744.0945088863373,0.0,0.125,1.619872881,0.01,0.0,-1.1699999570846558,-0.49000000953674316,-40.72999954223633,-0.07037353515625,-0.050537109375,0.8355712890625,35.31999969482422,0.0,-26.0,-0.5732574462890625,0.050048828125,Waiting,0.0,0.0,0.0,0.0,0.0,0.0,0.0,0.0,
4.947167000000001,0.0,0.0,2307.0,0.375,-645.0,-744.0945088863373,0.0,0.25,0.8435057730000001,4.932250999999998,0.0,1702.0,0.75,645.0,744.0945088863373,0.0,0.125,0.526122993,4.963769999999998,0.0,600.0,6.875,-645.0,-744.0945088863373,0.0,0.125,3.392333637,0.01,0.0,-2305.0,1.125,637.5,744.0945088863373,0.0,0.125,1.621093584,0.01,0.0,-1.159999966621399,-0.6200000047683716,-40.63999938964844,-0.00286865234375,-0.09844970703125,1.03594970703125,35.31999969482422,0.0,56.0,-0.5743408203125,0.04888916015625,Waiting,0.0,0.0,0.0,0.0,0.0,0.0,0.0,0.0,
4.992714000000007,0.0,0.0,2307.0,0.625,-622.5,-744.0945088863373,0.0,0.25,0.8435057730000001,4.932250999999998,0.0,1702.0,0.875,630.0,744.0945088863373,0.0,0.125,0.526122993,4.963769999999998,0.0,600.0,6.75,-675.0,-744.0945088863373,0.0,0.125,3.392333637,0.01,0.0,-2305.0,1.125,667.5,744.0945088863373,0.0,0.125,1.624755693,0.01,0.0,-1.159999966621399,-0.7300000190734863,-40.54999923706055,-0.05218505859375,0.0152587890625,0.98199462890625,35.31999969482422,0.0,-52.0,-0.575408935546875,0.0476226806640625,Waiting,0.0,0.0,0.0,0.0,0.0,0.0,0.0,0.0,
5.038593000000008,0.0,0.0,2203.0,0.625,-630.0,-744.0945088863373,0.0,0.25,0.8447264760000001,4.932250999999998,0.0,1802.0,1.0,622.5,744.0945088863373,0.0,0.125,0.526122993,4.963769999999998,0.0,487.0,6.625,-690.0,-744.0945088863373,0.0,0.125,3.392333637,0.01,0.0,-2203.0,1.25,637.5,744.0945088863373,0.0,0.125,1.625976396,0.01,0.0,-1.159999966621399,-0.7900000214576721,-40.43000030517578,-0.0185546875,-0.04443359375,0.9178466796875,35.31999969482422,0.0,12.0,-0.577056884765625,0.0474700927734375,Waiting,0.0,0.0,0.0,0.0,0.0,0.0,0.0,0.0,
5.090583000000013,0.0,0.0,2203.0,0.625,-660.0,-744.0945088863373,0.0,0.25,0.8435057730000001,4.932250999999998,0.0,1802.0,1.125,645.0,744.0945088863373,0.0,0.125,0.52490229,4.963769999999998,0.0,487.0,6.375,-697.5,-744.0945088863373,0.0,0.125,3.391112934,0.01,0.0,-2203.0,1.5,615.0,744.0945088863373,0.0,0.125,1.625976396,0.01,0.0,-1.1699999570846558,-0.8600000143051147,-40.33000183105469,-0.05963134765625,0.01239013671875,1.08251953125,35.29999923706055,0.0,-55.0,-0.5783843994140625,0.047271728515625,Waiting,0.0,0.0,0.0,0.0,0.0,0.0,0.0,0.0,
5.14372600000001,0.0,0.0,2203.0,0.625,-682.5,-744.0945088863373,0.0,0.25,0.8435057730000001,4.932250999999998,0.0,1802.0,1.125,660.0,744.0945088863373,0.0,0.125,0.526122993,4.963769999999998,0.0,371.0,6.375,-712.5,-744.0945088863373,0.0,0.125,3.392333637,0.01,0.0,-2098.0,1.625,630.0,744.0945088863373,0.0,0.125,1.625976396,0.01,0.0,-1.1699999570846558,-0.8799999952316284,-40.20000076293945,-0.04449462890625,0.0369873046875,1.04718017578125,35.29999923706055,0.0,-59.0,-0.5807647705078125,0.0472869873046875,Waiting,0.0,0.0,0.0,0.0,0.0,0.0,0.0,0.0,
5.192956000000006,0.0,0.0,2092.0,0.375,-705.0,-744.0945088863373,0.0,0.25,0.8557128030000001,4.932250999999998,0.0,1910.0,1.125,675.0,744.0945088863373,0.0,0.125,0.52490229,4.963769999999998,0.0,371.0,6.0,-757.5,-744.0945088863373,0.0,0.125,3.392333637,0.01,0.0,-2098.0,1.5,667.5,744.0945088863373,0.0,0.125,1.621093584,0.01,0.0,-1.1299999952316284,-0.9399999976158142,-40.09000015258789,-0.01171875,0.0640869140625,1.01910400390625,35.29999923706055,0.0,-50.0,-0.5815887451171875,0.047607421875,Waiting,0.0,0.0,0.0,0.0,0.0,0.0,0.0,0.0,
5.249501000000004,0.0,0.0,2092.0,0.375,-712.5,-744.0945088863373,0.0,0.25,0.8435057730000001,4.932250999999998,0.0,1910.0,1.125,682.5,744.0945088863373,0.0,0.125,0.526122993,4.963769999999998,0.0,371.0,5.625,-780.0,-744.0945088863373,0.0,0.125,3.392333637,0.01,0.0,-2098.0,1.5,682.5,744.0945088863373,0.0,0.125,1.621093584,0.01,0.0,-1.1100000143051147,-0.9700000286102295,-39.939998626708984,-0.04681396484375,0.00836181640625,0.90325927734375,35.29999923706055,0.0,-40.0,-0.582427978515625,0.0483245849609375,Waiting,0.0,0.0,0.0,0.0,0.0,0.0,0.0,0.0,
5.299374000000011,0.0,0.0,1975.0,0.375,-727.5,-744.0945088863373,0.0,0.25,0.8435057730000001,4.932250999999998,0.0,2022.0,1.125,705.0,744.0945088863373,0.0,0.125,0.526122993,4.963769999999998,0.0,242.0,5.125,-802.5,-744.0945088863373,0.0,0.125,3.392333637,0.01,0.0,-1983.0,1.5,705.0,744.0945088863373,0.0,0.125,1.625976396,0.01,0.0,-1.1200000047683716,-1.0,-39.810001373291016,0.01666259765625,-0.0040283203125,1.22998046875,35.29999923706055,0.0,16.0,-0.5832672119140625,0.0488128662109375,Waiting,0.0,0.0,0.0,0.0,0.0,0.0,0.0,0.0,
5.3506560000000025,0.0,0.0,1975.0,0.375,-750.0,-744.0945088863373,0.0,0.25,0.8435057730000001,4.932250999999998,-0.0012207029999999897,2022.0,1.0,720.0,744.0945088863373,0.0,0.125,0.526122993,4.963769999999998,0.0,242.0,4.625,-810.0,-744.0945088863373,0.0,0.125,3.394775043,0.01,0.0,-1983.0,1.5,712.5,744.0945088863373,0.0,0.125,1.624755693,0.01,0.004882811999999959,-1.0700000524520874,-1.0099999904632568,-39.630001068115234,-0.0836181640625,-0.0511474609375,1.094482421875,35.29999923706055,0.0,-29.0,-0.5833587646484375,0.049041748046875,Waiting,0.0,0.0,0.0,0.0,0.0,0.0,0.0,0.0,
5.407501000000003,0.0,0.0,1851.0,0.125,-765.0,-744.0945088863373,0.0,0.25,0.8435057730000001,4.932250999999998,0.0,2141.0,0.875,735.0,744.0945088863373,0.0,0.125,0.526122993,4.963769999999998,0.0,113.0,4.375,-802.5,-744.0945088863373,0.0,0.125,3.391112934,0.01,0.0,-1872.0,1.5,705.0,744.0945088863373,0.0,0.125,1.627197099,0.01,0.0,-1.0299999713897705,-0.9300000071525574,-39.4900016784668,-0.01446533203125,-0.0384521484375,0.98876953125,35.29999923706055,0.0,14.0,-0.5837860107421875,0.049072265625,Waiting,0.0,0.0,0.0,0.0,0.0,0.0,0.0,0.0,
5.456221000000005,0.0,0.0,1851.0,0.125,-765.0,-638.3340979191136,0.0,0.25,0.8435057730000001,4.814778672210334,0.0,2141.0,1.125,750.0,862.2572655950866,0.0,0.125,0.526122993,4.876397092603011,0.0,113.0,3.875,-802.5,-638.3340979191136,0.0,0.125,3.392333637,0.11766641401908928,0.0,-1872.0,1.5,712.5,862.2572655950866,0.0,0.125,1.625976396,0.0872713431271533,0.0,-1.0199999809265137,-0.9800000190734863,-39.45000076293945,-0.019775390625,0.04034423828125,1.15203857421875,35.29999923706055,0.0,-38.0,-0.5837249755859375,0.0489654541015625,Waiting,0.0,0.0,0.0,0.0,0.0,0.0,0.0,0.0,
5.5097610000000135,0.0,0.0,1851.0,0.125,-757.5,-505.18736285587033,0.0,0.375,0.8300780400000001,4.499951600796099,0.0,2268.0,2.5,772.5,1090.2271797879812,0.0,0.25,0.521240181,4.770279738870801,0.0,-14.0,2.5,-787.5,-505.18736285587033,0.0,0.0,3.397216449,0.43301363856522135,0.0,-1744.0,2.875,772.5,1090.2271797879812,0.0,0.25,1.6357420200000001,0.19326534361555156,0.0,-1.0299999713897705,-1.0199999809265137,-39.439998626708984,0.0067138671875,-0.02923583984375,1.05126953125,35.29999923706055,0.0,26.0,-0.583404541015625,0.0484771728515625,Waiting,0.0,0.0,0.0,0.0,0.0,0.0,0.0,0.0,
5.561806000000011,0.0,0.0,1735.0,0.125,-675.0,-498.65329428016594,0.0,1.0,0.72021477,4.031262042481679,-0.019531248000000057,2268.0,4.5,810.0,1361.642567954697,0.0,0.25,0.496826121,4.694793646430701,-0.009765623999999917,-14.0,1.875,-780.0,-498.65329428016594,0.0,0.75,3.4802242530000003,0.9024775595815204,0.0,-1744.0,4.25,810.0,1361.642567954697,0.0,0.375,1.645507644,0.2686636892919264,0.0,-1.0299999713897705,-1.0700000524520874,-39.5,0.0447998046875,0.045654296875,0.79144287109375,35.29999923706055,0.0,7.0,-0.5834197998046875,0.048370361328125,Waiting,0.0,0.0,0.0,0.0,0.0,0.0,0.0,0.0,
5.6114570000000095,0.0,0.0,1735.0,1.125,-585.0,771.09375,0.0,3.25,0.41381831700000005,0.5498168668524888,0.0,2268.0,5.75,862.5,771.09375,0.0,0.25,0.40039058400000005,4.410439589772222,-0.029296871999999752,-14.0,0.875,-780.0,771.09375,0.0,3.125,3.77197227,4.389674732977289,0.0,-1744.0,4.125,832.5,771.09375,0.0,0.375,1.7321775570000002,0.5526872062785588,0.0,-0.9200000166893005,-1.1299999952316284,-39.810001373291016,-0.001220703125,0.04052734375,0.9189453125,35.310001373291016,0.0,-22.0,-0.5835723876953125,0.04827880859375,Waiting,0.0,0.0,0.0,0.0,0.0,0.0,0.0,0.0,
5.664509000000005,0.0,0.0,1656.0,1.875,-487.5,164.0625,0.0,7.625,0.364990197,0.5498168668524888,0.0,2408.0,0.875,870.0,164.0625,0.0,0.875,0.22094724300000002,4.410439589772222,0.0,-103.0,0.375,-525.0,164.0625,0.0,7.625,3.71093712,4.389674732977289,0.0,-1614.0,1.25,795.0,164.0625,0.0,1.25,1.9433591760000002,0.5526872062785588,0.0,-0.800000011920929,-0.49000000953674316,-41.11000061035156,0.17230224609375,-0.3580322265625,1.249267578125,35.310001373291016,0.0,361.0,-0.582183837890625,0.05047607421875,Waiting,0.0,0.0,0.0,0.0,0.0,0.0,0.0,0.0,
5.714925000000003,0.0,0.0,1656.0,0.25,-435.0,0.0,0.0,5.125,0.767822187,0.5498168668524888,0.048828119999999586,2408.0,0.125,720.0,0.0,0.0,0.5,0.031738278,4.410439589772222,-0.19531248000000012,-103.0,0.0,-127.5,0.0,0.0,2.5,3.338622705,4.389674732977289,-0.0927734280000001,-1614.0,0.125,682.5,0.0,0.0,0.625,2.149657983,0.5526872062785588,0.20996091600000022,-0.9700000286102295,-0.009999999776482582,-43.5,0.03240966796875,0.018310546875,1.4781494140625,35.310001373291016,0.0,-6.0,-0.5756072998046875,0.0556640625,Waiting,0.0,0.0,0.0,0.0,0.0,0.0,0.0,0.0,
5.769448000000004,0.0,0.0,1588.0,0.0,-427.5,0.0,0.0,1.625,1.177978395,0.5498168668524888,-4.514770574,2526.0,0.0,705.0,0.0,0.0,0.25,4.8730463760000005,4.410439589772222,3.1030270260000004,-114.0,0.0,-67.5,0.0,0.0,1.75,2.9589840720000002,4.389674732977289,4.5583199610000005,-1495.0,0.125,735.0,0.0,0.0,0.375,2.24609352,0.5526872062785588,0.21362302499999974,-1.090000033378601,0.5899999737739563,-44.95000076293945,0.4473876953125,0.03924560546875,1.0428466796875,35.310001373291016,0.0,267.0,-0.568023681640625,0.061187744140625,Waiting,0.0,0.0,0.0,0.0,0.0,0.0,0.0,0.0,
5.8248940000000005,0.0,0.0,1588.0,0.0,-382.5,0.0,0.0,0.875,1.436767431,0.5498168668524888,0.364990197,2526.0,0.0,712.5,0.0,0.0,3.875,0.08544921,4.410439589772222,1.5759275730000004,-114.0,0.0,-15.0,0.0,0.0,0.5,2.7441403440000003,4.389674732977289,-0.36010738500000006,-1495.0,0.125,562.5,0.0,0.0,0.25,2.248534926,0.5526872062785588,0.09033202200000012,-1.0499999523162842,1.8600000143051147,-46.369998931884766,0.48577880859375,0.10107421875,0.9609375,35.310001373291016,0.0,227.0,-0.5526885986328125,0.07427978515625,Waiting,0.0,0.0,0.0,0.0,0.0,0.0,0.0,0.0,
5.876111000000004,0.0,0.0,1589.0,0.0,-112.5,0.0,0.0,0.5,1.540527186,0.5498168668524888,0.26855465999999995,2568.0,0.0,420.0,0.0,0.0,0.5,0.173339826,4.410439589772222,-4.755858888000001,-109.0,0.0,22.5,0.0,0.0,0.25,2.681884491,4.389674732977289,-0.209960916,-1471.0,0.125,150.0,0.0,0.0,0.25,2.2229001630000003,0.5526872062785588,0.006103514999999948,-1.059999942779541,2.049999952316284,-47.36000061035156,-0.08154296875,0.02996826171875,1.19427490234375,35.310001373291016,0.0,-122.0,-0.5325164794921875,0.0924530029296875,Waiting,0.0,0.0,0.0,0.0,0.0,0.0,0.0,0.0,
