Time,ClimberA1,ClimberA2,FRpos,FRCurrent,FRspeed,FRsetpoint,FRApos,FRACurrent,FREncpos,FREncSetpoint,FREncSpeed,FLpos,FLCurrent,FLspeed,FLsetpoint,FLApos,FLACurrent,FLEncpos,FLEncSetpoint,FLEncSpeed,BRpos,BRCurrent,BRspeed,BRsetpoint,BRApos,BRACurrent,BREncpos,BREncSetpoint,BREncSpeed,BLpos,BLCurrent,BLspeed,BLsetpoint,BLApos,BLACurrent,BLEncpos,BLEncSetpoint,BLEncSpeed,navx_Pitch,navx_Roll,navx_Yaw,navx_XAcc,navx_YAcc,navx_ZAcc,navx_Temp,navx_Bar,navx_Alt,navx_XDis,navx_YDis,GearPlacerState,ShootOutputV,ShootOutputCurrent,ShootEncPos,ShootEncVelocity,ShootSpeed,ShootSetpoint,CarouselSetpoint,CarouselCurrent,
0.22818500000000494,0.0,0.0,0.0,0.0,0.0,0.0,0.0,0.125,0.838622961,0.01,0.0,0.0,0.0,0.0,0.0,0.0,0.125,3.016357113,0.01,0.0,0.0,0.0,0.0,0.0,0.0,0.0,3.349609032,0.01,0.0,0.0,0.125,0.0,0.0,0.0,0.125,1.650390456,0.01,0.0,-0.6000000238418579,-0.949999988079071,0.0,-0.0179443359375,-0.01043701171875,1.01776123046875,35.439998626708984,0.0,-1.0,0.0,0.0,Waiting,0.0,0.0,0.0,0.0,0.0,0.0,0.0,0.0,
0.2935330000000031,0.0,0.0,0.0,0.0,0.0,0.0,0.0,0.125,0.838622961,0.01,0.0,0.0,0.0,0.0,-0.0,0.0,0.125,3.016357113,0.01,0.0,0.0,0.0,0.0,0.0,0.0,0.0,3.348388329,0.01,0.0,0.0,0.125,0.0,-0.0,0.0,0.125,1.649169753,0.01,0.0,-0.6000000238418579,-0.949999988079071,0.0,-0.02032470703125,-0.01025390625,1.018310546875,35.439998626708984,0.0,-3.0,0.0,0.0,Waiting,0.0,0.0,0.0,0.0,0.0,0.0,0.0,0.0,
0.32280099999999945,0.0,0.0,0.0,0.0,0.0,0.0,0.0,0.125,0.838622961,0.01,0.027402257999999957,0.0,0.0,0.0,-0.0,0.0,0.125,3.016357113,0.01,2.5089064100000007,0.0,0.0,0.0,0.0,0.0,0.0,3.347167626,0.01,4.937567626,0.0,0.125,0.0,-0.0,0.0,0.25,1.650390456,0.01,0.02916975299999991,-0.6000000238418579,-0.949999988079071,0.0,-0.01837158203125,-0.0103759765625,1.0196533203125,35.439998626708984,0.0,-1.0,0.0,0.0,Waiting,0.0,0.0,0.0,0.0,0.0,0.0,0.0,0.0,
0.3482790000000023,0.0,0.0,0.0,0.0,0.0,0.0,0.0,0.125,0.838622961,0.01,0.027402257999999957,0.0,0.0,0.0,-0.0,0.0,6.375,3.0541989060000003,0.01,2.5089064100000007,0.0,0.0,0.0,0.0,0.0,0.0,3.348388329,0.01,4.937567626,0.0,0.125,0.0,-0.0,0.0,0.25,1.650390456,0.01,0.02916975299999991,-0.6000000238418579,-0.949999988079071,0.0,-0.0181884765625,-0.0167236328125,1.02459716796875,35.439998626708984,0.0,-1.0,0.0,0.0,Waiting,0.0,0.0,0.0,0.0,0.0,0.0,0.0,0.0,
0.37375100000000383,0.0,0.0,0.0,0.0,0.0,0.0,0.0,0.125,0.838622961,0.01,0.0,0.0,0.0,0.0,-0.0,0.0,8.125,3.2678219310000003,0.01,0.013427732999999886,0.0,0.0,0.0,0.0,0.0,0.0,3.348388329,0.01,0.0,0.0,0.125,0.0,-0.0,0.0,0.25,1.649169753,0.01,0.0,-0.5899999737739563,-0.9599999785423279,0.0,-0.0135498046875,-0.078857421875,1.04339599609375,35.439998626708984,0.0,3.0,1.068115234375E-4,-1.373291015625E-4,Waiting,0.0,0.0,0.0,0.0,0.0,0.0,0.0,0.0,
0.3955699999999997,0.0,0.0,0.0,0.0,0.0,0.0,0.0,0.125,0.838622961,0.01,0.0,0.0,0.0,0.0,-0.0,0.0,4.5,3.463134411,0.01,0.013427732999999886,0.0,0.0,0.0,0.0,0.0,0.0,3.347167626,0.01,0.0,0.0,0.125,0.0,-0.0,0.0,0.25,1.649169753,0.01,0.0,-0.6000000238418579,-0.9399999976158142,0.009999999776482582,-0.0142822265625,0.0235595703125,0.98931884765625,35.41999816894531,0.0,2.0,1.8310546875E-4,-2.74658203125E-4,Waiting,0.0,0.0,0.0,0.0,0.0,0.0,0.0,0.0,
0.4248480000000054,0.0,0.0,0.0,0.0,0.0,0.0,0.0,0.125,0.838622961,0.01,0.0,0.0,0.0,0.0,-0.0,0.0,1.5,3.6755367330000004,0.01,0.49682612100000023,0.0,0.0,0.0,0.0,0.0,0.0,3.348388329,0.01,0.0,0.0,0.125,0.0,-0.0,0.0,0.25,1.649169753,0.01,0.0,-0.6100000143051147,-0.949999988079071,0.019999999552965164,0.01483154296875,-0.01446533203125,1.08441162109375,35.41999816894531,0.0,32.0,3.0517578125E-4,-4.730224609375E-4,Waiting,0.0,0.0,0.0,0.0,0.0,0.0,0.0,0.0,
0.45144900000000054,0.0,0.0,0.0,0.0,0.0,0.0,0.0,0.125,0.838622961,0.01,0.0,0.0,0.0,0.0,-0.0,0.0,1.75,3.8806148370000004,0.01,0.49682612100000023,0.0,0.0,0.0,0.0,0.0,0.0,3.348388329,0.01,0.0012207030000004337,0.0,0.125,0.0,-0.0,0.0,0.25,1.650390456,0.01,0.0,-0.5799999833106995,-0.9100000262260437,0.029999999329447746,0.0125732421875,0.0283203125,1.007568359375,35.41999816894531,0.0,28.0,5.645751953125E-4,-5.79833984375E-4,Waiting,0.0,0.0,0.0,0.0,0.0,0.0,0.0,0.0,
0.48676699999999984,0.0,0.0,0.0,0.0,0.0,0.0,0.0,0.125,0.838622961,0.01,0.0012207029999999897,0.0,0.0,-7.5,-0.0,0.0,1.75,4.173583557000001,0.01,0.24169919399999973,0.0,0.0,0.0,0.0,0.0,0.0,3.348388329,0.01,0.0012207030000004337,0.0,0.125,0.0,-0.0,0.0,0.25,1.649169753,0.01,0.0,-0.5799999833106995,-0.8999999761581421,0.03999999910593033,-0.01324462890625,-0.00665283203125,1.04998779296875,35.41999816894531,0.0,3.0,7.476806640625E-4,-6.103515625E-4,Waiting,0.0,0.0,0.0,0.0,0.0,0.0,0.0,0.0,
0.5117520000000004,0.0,0.0,0.0,0.0,0.0,0.0,0.0,0.125,0.838622961,0.01,-0.0012207029999999897,0.0,0.0,-37.5,-0.0,0.0,1.75,4.3981929090000005,0.01,0.47973627899999993,0.0,0.0,0.0,0.0,0.0,0.0,3.348388329,0.01,0.0,0.0,0.125,0.0,-0.0,0.0,0.25,1.650390456,0.01,0.0,-0.5799999833106995,-0.8899999856948853,0.03999999910593033,-0.0274658203125,0.0068359375,1.0113525390625,35.41999816894531,0.0,-11.0,6.866455078125E-4,-6.561279296875E-4,Waiting,0.0,0.0,0.0,0.0,0.0,0.0,0.0,0.0,
0.5408919999999998,0.0,0.0,0.0,0.0,0.0,0.0,0.0,0.125,0.838622961,0.01,-0.0012207029999999897,-8.0,0.0,-45.0,-0.0,0.0,1.5,4.6081538250000005,0.01,0.47973627899999993,0.0,0.0,0.0,0.0,0.0,0.0,3.348388329,0.01,0.0,0.0,0.125,0.0,-0.0,0.0,0.25,1.649169753,0.01,0.0,-0.5699999928474426,-0.9200000166893005,0.019999999552965164,-0.04547119140625,-0.010009765625,1.06884765625,35.41999816894531,0.0,-28.0,5.645751953125E-4,-7.781982421875E-4,Waiting,0.0,0.0,0.0,0.0,0.0,0.0,0.0,0.0,
0.5710540000000037,0.0,0.0,0.0,0.0,0.0,0.0,0.0,0.125,0.838622961,0.01,0.0012207029999999897,-8.0,0.0,-52.5,-0.0,0.0,1.5,4.830321771,0.01,0.4138183170000005,0.0,0.0,0.0,0.0,0.0,0.0,3.348388329,0.01,0.0,0.0,0.125,0.0,-0.0,0.0,0.25,1.649169753,0.01,0.0,-0.5600000023841858,-0.9399999976158142,-0.019999999552965164,-0.0223388671875,-0.0013427734375,0.9794921875,35.41999816894531,0.0,-6.0,3.0517578125E-4,-8.544921875E-4,Waiting,0.0,0.0,0.0,0.0,0.0,0.0,0.0,0.0,
0.5923700000000026,0.0,0.0,0.0,0.0,0.0,0.0,0.0,0.125,0.839843664,0.01,0.0012207029999999897,-8.0,0.0,-45.0,-0.0,0.0,1.5,0.050048823000000006,0.01,0.4138183170000005,0.0,0.0,0.0,0.0,0.0,0.0,3.348388329,0.01,0.0,0.0,0.125,0.0,-0.0,0.0,0.25,1.649169753,0.01,0.0,-0.5400000214576721,-0.949999988079071,-0.03999999910593033,-0.01947021484375,-4.2724609375E-4,1.0162353515625,35.41999816894531,0.0,-2.0,3.0517578125E-4,-8.544921875E-4,Waiting,0.0,0.0,0.0,0.0,0.0,0.0,0.0,0.0,
0.6141180000000022,0.0,0.0,0.0,0.0,0.0,0.0,0.0,0.125,0.838622961,0.01,-0.0012207029999999897,-8.0,0.0,-37.5,-0.0,0.0,1.0,0.260009739,0.01,-4.5507807840000005,0.0,0.0,0.0,0.0,0.0,0.0,3.347167626,0.01,-0.0012207030000004337,0.0,0.125,0.0,-0.0,0.0,0.25,1.649169753,0.01,0.0,-0.5299999713897705,-0.9599999785423279,-0.05999999865889549,-0.0159912109375,-0.0244140625,1.0277099609375,35.41999816894531,0.0,1.0,3.0517578125E-4,-8.544921875E-4,Waiting,0.0,0.0,0.0,0.0,0.0,0.0,0.0,0.0,
0.6472490000000034,0.0,0.0,0.0,0.0,0.0,0.0,0.0,0.125,0.838622961,0.01,-0.0012207029999999897,-8.0,0.0,-15.0,-0.0,0.0,0.75,0.346679652,0.01,-4.5507807840000005,0.0,0.0,0.0,0.0,0.0,0.0,3.348388329,0.01,-0.0012207030000004337,0.0,0.125,0.0,-0.0,0.0,0.25,1.649169753,0.01,0.0,-0.5799999833106995,-0.9599999785423279,-0.09000000357627869,-0.026123046875,-0.04595947265625,1.0302734375,35.41999816894531,0.0,-8.0,3.0517578125E-4,-9.918212890625E-4,Waiting,0.0,0.0,0.0,0.0,0.0,0.0,0.0,0.0,
0.6738840000000055,0.0,0.0,0.0,0.0,0.0,0.0,0.0,0.125,0.838622961,0.01,0.0,-10.0,0.0,-15.0,-0.0,0.0,0.5,0.429687456,0.01,0.2783202840000003,0.0,0.0,0.0,0.0,0.0,0.0,3.348388329,0.01,0.0,0.0,0.125,0.0,-0.0,0.0,0.25,1.649169753,0.01,0.0,-0.6000000238418579,-0.9800000190734863,-0.11999999731779099,-0.0325927734375,-0.00677490234375,1.00665283203125,35.41999816894531,0.0,-15.0,3.0517578125E-4,-0.0011138916015625,Waiting,0.0,0.0,0.0,0.0,0.0,0.0,0.0,0.0,
0.6951589999999996,0.0,0.0,0.0,0.0,0.0,0.0,0.0,0.125,0.838622961,0.01,0.0,-10.0,0.0,-7.5,-0.0,0.0,0.5,0.47241206100000005,0.01,0.2783202840000003,0.0,0.0,0.0,0.0,0.0,0.0,3.347167626,0.01,0.0,0.0,0.125,0.0,-0.0,0.0,0.25,1.649169753,0.01,0.0,-0.6000000238418579,-0.9800000190734863,-0.12999999523162842,-0.0196533203125,4.2724609375E-4,1.02935791015625,35.41999816894531,0.0,-1.0,3.0517578125E-4,-0.0011138916015625,Waiting,0.0,0.0,0.0,0.0,0.0,0.0,0.0,0.0,
0.7239040000000023,0.0,0.0,0.0,0.0,0.0,0.0,0.0,0.125,0.838622961,0.01,0.0,-10.0,0.0,0.0,-0.0,0.0,0.5,0.482177685,0.01,0.08789061600000014,0.0,0.0,0.0,0.0,0.0,0.0,3.348388329,0.01,0.0,0.0,0.125,0.0,-0.0,0.0,0.25,1.649169753,0.01,0.0,-0.5799999833106995,-0.9800000190734863,-0.12999999523162842,-0.01568603515625,-9.765625E-4,1.016845703125,35.41999816894531,0.0,1.0,3.0517578125E-4,-0.0011138916015625,Waiting,0.0,0.0,0.0,0.0,0.0,0.0,0.0,0.0,
0.7477150000000038,0.0,0.0,0.0,0.0,0.0,0.0,0.0,0.125,0.838622961,0.01,0.0,-10.0,0.0,0.0,-0.0,0.0,0.25,0.482177685,0.01,0.08789061600000014,0.0,0.0,0.0,0.0,0.0,0.0,3.348388329,0.01,0.0,0.0,0.125,0.0,-0.0,0.0,0.25,1.649169753,0.01,0.0,-0.5699999928474426,-0.9800000190734863,-0.12999999523162842,-0.0096435546875,0.00103759765625,1.0311279296875,35.41999816894531,0.0,8.0,3.0517578125E-4,-0.0011138916015625,Waiting,0.0,0.0,0.0,0.0,0.0,0.0,0.0,0.0,
0.772226999999999,0.0,0.0,0.0,0.0,0.0,0.0,0.0,0.125,0.838622961,0.01,0.0012207029999999897,-10.0,0.0,0.0,-0.0,0.0,0.25,0.483398388,0.01,0.004882811999999959,0.0,0.0,0.0,0.0,0.0,0.0,3.348388329,0.01,0.0,0.0,0.125,0.0,-0.0,0.0,0.25,1.649169753,0.01,0.0,-0.5799999833106995,-0.949999988079071,-0.12999999523162842,0.005859375,-0.026123046875,1.00445556640625,35.41999816894531,0.0,22.0,3.204345703125E-4,-0.0011138916015625,Waiting,0.0,0.0,0.0,0.0,0.0,0.0,0.0,0.0,
0.8058400000000038,0.0,0.0,0.0,0.0,0.0,0.0,0.0,0.125,0.838622961,0.01,0.0012207029999999897,-10.0,0.0,0.0,-0.0,0.0,0.25,0.482177685,0.01,0.004882811999999959,0.0,0.0,0.0,0.0,0.0,0.0,3.349609032,0.01,0.0,0.0,0.125,0.0,-0.0,0.0,0.25,1.649169753,0.01,0.0,-0.6000000238418579,-0.9300000071525574,-0.11999999731779099,0.00213623046875,-0.0064697265625,1.02630615234375,35.41999816894531,0.0,18.0,4.57763671875E-4,-0.0011138916015625,Waiting,0.0,0.0,0.0,0.0,0.0,0.0,0.0,0.0,
0.8365920000000042,0.0,0.0,0.0,0.0,0.0,0.0,0.0,0.125,0.839843664,0.01,-0.0012207029999999897,-10.0,0.0,0.0,-0.0,0.0,0.25,0.482177685,0.01,0.0,0.0,0.0,0.0,0.0,0.0,0.0,3.349609032,0.01,0.0,0.0,0.125,0.0,-0.0,0.0,0.25,1.649169753,0.01,0.0,-0.5899999737739563,-0.9100000262260437,-0.12999999523162842,-0.0126953125,-0.00372314453125,1.02886962890625,35.41999816894531,0.0,3.0,4.57763671875E-4,-0.0011138916015625,Waiting,0.0,0.0,0.0,0.0,0.0,0.0,0.0,0.0,
0.8626000000000058,0.0,0.0,0.0,0.0,0.0,0.0,0.0,0.125,0.839843664,0.01,0.0012207029999999897,-10.0,0.0,0.0,-0.0,0.0,0.25,0.482177685,0.01,0.0,0.0,0.0,0.0,0.0,0.0,0.0,3.345946923,0.01,0.0,0.0,0.125,0.0,-0.0,0.0,0.25,1.649169753,0.01,0.0,-0.5799999833106995,-0.9100000262260437,-0.14000000059604645,-0.0196533203125,-0.00445556640625,1.01763916015625,35.41999816894531,0.0,-3.0,4.57763671875E-4,-0.0011138916015625,Waiting,0.0,0.0,0.0,0.0,0.0,0.0,0.0,0.0,
0.8879180000000051,0.0,0.0,0.0,0.0,0.0,0.0,0.0,0.125,0.838622961,0.01,0.0012207029999999897,-10.0,0.0,0.0,-0.0,0.0,0.25,0.482177685,0.01,0.0,0.0,0.0,0.0,0.0,0.0,0.0,3.348388329,0.01,0.0,0.0,0.125,0.0,-0.0,0.0,0.25,1.650390456,0.01,0.0,-0.5799999833106995,-0.9100000262260437,-0.15000000596046448,-0.0301513671875,-0.008544921875,1.0223388671875,35.41999816894531,0.0,-13.0,4.57763671875E-4,-0.0011138916015625,Waiting,0.0,0.0,0.0,0.0,0.0,0.0,0.0,0.0,
0.9139069999999992,0.0,0.0,0.0,0.0,0.0,0.0,0.0,0.125,0.838622961,0.01,-0.0012207029999999897,-10.0,0.0,0.0,-0.0,0.0,0.25,0.482177685,0.01,0.0,0.0,0.0,0.0,0.0,0.0,0.0,3.347167626,0.01,0.0,0.0,0.125,0.0,-0.0,0.0,0.25,1.649169753,0.01,0.0,-0.5799999833106995,-0.9300000071525574,-0.15000000596046448,-0.030029296875,-0.0211181640625,1.02655029296875,35.439998626708984,0.0,-16.0,4.57763671875E-4,-0.0011138916015625,Waiting,0.0,0.0,0.0,0.0,0.0,0.0,0.0,0.0,
0.9493150000000024,0.0,0.0,0.0,0.0,0.0,0.0,0.0,0.125,0.838622961,0.01,-0.0012207029999999897,-10.0,0.0,0.0,-0.0,0.0,0.25,0.482177685,0.01,0.0,0.0,0.0,0.0,0.0,0.0,0.0,3.347167626,0.01,0.0,0.0,0.125,0.0,-0.0,0.0,0.25,1.650390456,0.01,0.0,-0.5899999737739563,-0.949999988079071,-0.12999999523162842,-0.029541015625,-0.0101318359375,1.0164794921875,35.439998626708984,0.0,-12.0,4.57763671875E-4,-0.0011138916015625,Waiting,0.0,0.0,0.0,0.0,0.0,0.0,0.0,0.0,
0.9846229999999996,0.0,0.0,0.0,0.0,0.0,0.0,0.0,0.125,0.838622961,0.01,0.0,-10.0,0.0,0.0,-0.0,0.0,0.25,0.482177685,0.01,0.0,0.0,0.0,0.0,0.0,0.0,0.0,3.348388329,0.01,0.0,0.0,0.125,0.0,-0.0,0.0,0.25,1.649169753,0.01,0.0,-0.5899999737739563,-0.9599999785423279,-0.12999999523162842,-0.02264404296875,-0.0020751953125,1.02783203125,35.439998626708984,0.0,-5.0,4.57763671875E-4,-0.0011138916015625,Waiting,0.0,0.0,0.0,0.0,0.0,0.0,0.0,0.0,
1.0021640000000043,0.0,0.0,0.0,0.0,0.0,0.0,0.0,0.125,0.838622961,0.01,0.0,-10.0,0.0,0.0,-0.0,0.0,0.25,0.482177685,0.01,0.0,0.0,0.0,0.0,0.0,0.0,0.0,3.347167626,0.01,0.0,0.0,0.125,0.0,-0.0,0.0,0.25,1.650390456,0.01,0.0,-0.5799999833106995,-0.9599999785423279,-0.14000000059604645,-0.0120849609375,-0.009765625,1.022705078125,35.439998626708984,0.0,5.0,4.57763671875E-4,-0.0011138916015625,Waiting,0.0,0.0,0.0,0.0,0.0,0.0,0.0,0.0,
1.0226500000000014,0.0,0.0,0.0,0.0,0.0,0.0,0.0,0.125,0.838622961,0.01,0.0,-10.0,0.0,0.0,-0.0,0.0,0.25,0.482177685,0.01,0.0,0.0,0.0,0.0,0.0,0.0,0.0,3.348388329,0.01,0.0,0.0,0.125,0.0,-0.0,0.0,0.25,1.649169753,0.01,0.0,-0.5799999833106995,-0.9599999785423279,-0.14000000059604645,-0.00640869140625,-0.00909423828125,1.019287109375,35.439998626708984,0.0,10.0,4.57763671875E-4,-0.0011138916015625,Waiting,0.0,0.0,0.0,0.0,0.0,0.0,0.0,0.0,
1.0404010000000052,0.0,0.0,0.0,0.0,0.0,0.0,0.0,0.125,0.838622961,0.01,0.0,-10.0,0.0,0.0,-0.0,0.0,0.25,0.482177685,0.01,0.0,0.0,0.0,0.0,0.0,0.0,0.0,3.347167626,0.01,0.0,0.0,0.125,0.0,-0.0,0.0,0.25,1.650390456,0.01,0.0,-0.5799999833106995,-0.949999988079071,-0.14000000059604645,-0.00982666015625,-0.01336669921875,1.022216796875,35.439998626708984,0.0,7.0,4.57763671875E-4,-0.0011138916015625,Waiting,0.0,0.0,0.0,0.0,0.0,0.0,0.0,0.0,
1.0603420000000041,0.0,0.0,0.0,0.0,0.0,0.0,0.0,0.125,0.838622961,0.01,0.0,-10.0,0.0,0.0,-0.0,0.0,0.25,0.483398388,0.01,0.0,0.0,0.0,0.0,0.0,0.0,0.0,3.348388329,0.01,0.0,0.0,0.125,0.0,-0.0,0.0,0.25,1.649169753,0.01,0.0,-0.5799999833106995,-0.9399999976158142,-0.12999999523162842,-0.00640869140625,-0.0111083984375,1.017822265625,35.439998626708984,0.0,10.0,4.57763671875E-4,-0.0011138916015625,Waiting,0.0,0.0,0.0,0.0,0.0,0.0,0.0,0.0,
1.0807130000000034,0.0,0.0,0.0,0.0,0.0,0.0,0.0,0.125,0.838622961,0.01,0.0,-10.0,0.0,0.0,-0.0,0.0,0.25,0.482177685,0.01,0.0,0.0,0.0,0.0,0.0,0.0,0.0,3.348388329,0.01,0.0,0.0,0.125,0.0,-0.0,0.0,0.25,1.646728347,0.01,0.0,-0.5799999833106995,-0.9300000071525574,-0.12999999523162842,-0.01068115234375,-0.00982666015625,1.02008056640625,35.439998626708984,0.0,6.0,4.57763671875E-4,-0.0011138916015625,Waiting,0.0,0.0,0.0,0.0,0.0,0.0,0.0,0.0,
1.100428,0.0,0.0,0.0,0.0,0.0,0.0,0.0,0.125,0.838622961,0.01,0.0,-10.0,0.0,0.0,-0.0,0.0,0.25,0.482177685,0.01,0.0,0.0,0.0,0.0,0.0,0.0,0.0,3.348388329,0.01,0.0,0.0,0.125,0.0,-0.0,0.0,0.25,1.649169753,0.01,0.0,-0.5799999833106995,-0.9300000071525574,-0.12999999523162842,-0.01641845703125,-0.008544921875,1.02056884765625,35.439998626708984,0.0,0.0,4.57763671875E-4,-0.0011138916015625,Waiting,0.0,0.0,0.0,0.0,0.0,0.0,0.0,0.0,
1.122020000000004,0.0,0.0,0.0,0.0,0.0,0.0,0.0,0.125,0.839843664,0.01,0.0,-10.0,0.0,0.0,-0.0,0.0,0.25,0.482177685,0.01,0.0,0.0,0.0,0.0,0.0,0.0,0.0,3.347167626,0.01,0.0,0.0,0.125,0.0,-0.0,0.0,0.25,1.651611159,0.01,0.0,-0.5799999833106995,-0.9300000071525574,-0.14000000059604645,-0.021484375,-0.01025390625,1.01953125,35.439998626708984,0.0,-4.0,4.57763671875E-4,-0.0011138916015625,Waiting,0.0,0.0,0.0,0.0,0.0,0.0,0.0,0.0,
1.1410420000000012,0.0,0.0,0.0,0.0,0.0,0.0,0.0,0.125,0.838622961,0.01,0.0,-10.0,0.0,0.0,-0.0,0.0,0.25,0.482177685,0.01,0.0,0.0,0.0,0.0,0.0,0.0,0.0,3.347167626,0.01,0.0,0.0,0.125,0.0,-0.0,0.0,0.25,1.649169753,0.01,0.0,-0.5799999833106995,-0.9300000071525574,-0.14000000059604645,-0.021484375,-0.01025390625,1.01953125,35.439998626708984,0.0,-4.0,4.57763671875E-4,-0.0011138916015625,Waiting,0.0,0.0,0.0,0.0,0.0,0.0,0.0,0.0,
1.1604880000000048,0.0,0.0,0.0,0.0,0.0,0.0,0.0,0.125,0.838622961,0.01,0.0,-10.0,0.0,0.0,-0.0,0.0,0.25,0.482177685,0.01,0.0,0.0,0.0,0.0,0.0,0.0,0.0,3.348388329,0.01,0.0,0.0,0.0,0.0,-0.0,0.0,0.25,1.649169753,0.01,0.0,-0.5799999833106995,-0.9300000071525574,-0.15000000596046448,-0.0233154296875,-0.01080322265625,1.01153564453125,35.439998626708984,0.0,-6.0,4.57763671875E-4,-0.0011138916015625,Waiting,0.0,0.0,0.0,0.0,0.0,0.0,0.0,0.0,
1.180395000000004,0.0,0.0,0.0,0.0,0.0,0.0,0.0,0.125,0.838622961,0.01,0.0,-10.0,0.0,0.0,-0.0,0.0,0.25,0.48095698200000003,0.01,0.0,0.0,0.0,0.0,0.0,0.0,0.0,3.345946923,0.01,0.0,0.0,0.0,0.0,-0.0,0.0,0.25,1.650390456,0.01,0.0,-0.5799999833106995,-0.949999988079071,-0.15000000596046448,-0.024169921875,-0.01458740234375,1.025390625,35.439998626708984,0.0,-7.0,4.57763671875E-4,-0.0011138916015625,Waiting,0.0,0.0,0.0,0.0,0.0,0.0,0.0,0.0,
1.2001900000000023,0.0,0.0,0.0,0.0,0.0,0.0,0.0,0.125,0.838622961,0.01,0.0,-10.0,0.0,0.0,-0.0,0.0,0.25,0.482177685,0.01,0.0,0.0,0.0,0.0,0.0,0.0,0.0,3.347167626,0.01,0.0,0.0,0.0,0.0,-0.0,0.0,0.25,1.649169753,0.01,0.0,-0.5899999737739563,-0.949999988079071,-0.15000000596046448,-0.0245361328125,-0.01171875,1.014892578125,35.439998626708984,0.0,-7.0,4.57763671875E-4,-0.0011138916015625,Waiting,0.0,0.0,0.0,0.0,0.0,0.0,0.0,0.0,
1.2219860000000045,0.0,0.0,0.0,0.0,0.0,0.0,0.0,0.125,0.838622961,0.01,0.0,-10.0,0.0,0.0,-0.0,0.0,0.25,0.482177685,0.01,0.0012207029999995456,0.0,0.0,0.0,0.0,0.0,0.0,3.348388329,0.01,0.0,0.0,0.125,0.0,-0.0,0.0,0.25,1.649169753,0.01,0.0,-0.5899999737739563,-0.9599999785423279,-0.15000000596046448,-0.02374267578125,-0.0108642578125,1.02081298828125,35.439998626708984,0.0,0.0,4.57763671875E-4,-0.0011138916015625,Waiting,0.0,0.0,0.0,0.0,0.0,0.0,0.0,0.0,
1.2405970000000015,0.0,0.0,0.0,0.0,0.0,0.0,0.0,0.125,0.838622961,0.01,0.0,-10.0,0.0,0.0,-0.0,0.0,0.25,0.48095698200000003,0.01,0.0012207029999995456,0.0,0.0,0.0,0.0,0.0,0.0,3.348388329,0.01,0.0,0.0,0.125,0.0,-0.0,0.0,0.25,1.650390456,0.01,0.0,-0.5899999737739563,-0.9599999785423279,-0.14000000059604645,-0.0172119140625,-0.00665283203125,1.02020263671875,35.439998626708984,0.0,0.0,4.57763671875E-4,-0.0011138916015625,Waiting,0.0,0.0,0.0,0.0,0.0,0.0,0.0,0.0,
1.2607870000000039,0.0,0.0,0.0,0.0,0.0,0.0,0.0,0.125,0.837402258,0.01,0.0,-10.0,0.0,0.0,-0.0,0.0,0.25,0.482177685,0.01,0.0012207029999995456,0.0,0.0,0.0,0.0,0.0,0.0,3.347167626,0.01,0.0,0.0,0.125,0.0,-0.0,0.0,0.25,1.650390456,0.01,0.0,-0.5799999833106995,-0.9599999785423279,-0.14000000059604645,-0.01544189453125,-0.011474609375,1.0208740234375,35.439998626708984,0.0,1.0,4.57763671875E-4,-0.0011138916015625,Waiting,0.0,0.0,0.0,0.0,0.0,0.0,0.0,0.0,
1.2807950000000055,0.0,0.0,0.0,0.0,0.0,0.0,0.0,0.125,0.838622961,0.01,0.0,-10.0,0.0,0.0,-0.0,0.0,0.25,0.482177685,0.01,-0.0012207029999995456,0.0,0.0,0.0,0.0,0.0,0.0,3.348388329,0.01,0.0,0.0,0.125,0.0,-0.0,0.0,0.25,1.650390456,0.01,0.0,-0.5899999737739563,-0.9599999785423279,-0.14000000059604645,-0.01007080078125,-0.0091552734375,1.02001953125,35.439998626708984,0.0,7.0,4.57763671875E-4,-0.0011138916015625,Waiting,0.0,0.0,0.0,0.0,0.0,0.0,0.0,0.0,
1.3003570000000035,0.0,0.0,0.0,0.0,0.0,0.0,0.0,0.125,0.838622961,0.01,0.0,-10.0,0.0,0.0,-0.0,0.0,0.25,0.482177685,0.01,-0.0012207029999995456,0.0,0.0,0.0,0.0,0.0,0.0,3.348388329,0.01,0.0,0.0,0.125,0.0,-0.0,0.0,0.25,1.649169753,0.01,0.0,-0.5799999833106995,-0.949999988079071,-0.15000000596046448,-0.0115966796875,-0.0118408203125,1.02227783203125,35.439998626708984,0.0,5.0,4.57763671875E-4,-0.0011138916015625,Waiting,0.0,0.0,0.0,0.0,0.0,0.0,0.0,0.0,
1.322586000000003,0.0,0.0,0.0,0.0,0.0,0.0,0.0,0.125,0.838622961,0.01,0.0,-10.0,0.0,0.0,-0.0,0.0,0.25,0.48095698200000003,0.01,0.0,0.0,0.0,0.0,0.0,0.0,0.0,3.347167626,0.01,0.0,0.0,0.125,0.0,-0.0,0.0,0.25,1.649169753,0.01,0.0,-0.5899999737739563,-0.9399999976158142,-0.15000000596046448,-0.01312255859375,-0.0078125,1.021484375,35.439998626708984,0.0,3.0,4.57763671875E-4,-0.0011138916015625,Waiting,0.0,0.0,0.0,0.0,0.0,0.0,0.0,0.0,
1.3411480000000011,0.0,0.0,0.0,0.0,0.0,0.0,0.0,0.125,0.838622961,0.01,0.0,-10.0,0.0,0.0,-0.0,0.0,0.25,0.482177685,0.01,0.0,0.0,0.0,0.0,0.0,0.0,0.0,3.348388329,0.01,0.0,0.0,0.125,0.0,-0.0,0.0,0.25,1.650390456,0.01,0.0,-0.5799999833106995,-0.9399999976158142,-0.14000000059604645,-0.01336669921875,-0.0091552734375,1.0169677734375,35.439998626708984,0.0,0.0,4.57763671875E-4,-0.0011138916015625,Waiting,0.0,0.0,0.0,0.0,0.0,0.0,0.0,0.0,
1.3609259999999994,0.0,0.0,0.0,0.0,0.0,0.0,0.0,0.125,0.838622961,0.01,0.0,-10.0,0.0,0.0,-0.0,0.0,0.25,0.482177685,0.01,0.0,0.0,0.0,0.0,0.0,0.0,0.0,3.348388329,0.01,0.0,0.0,0.125,0.0,-0.0,0.0,0.25,1.649169753,0.01,0.0,-0.5799999833106995,-0.9399999976158142,-0.15000000596046448,-0.01898193359375,-0.01080322265625,1.0216064453125,35.439998626708984,0.0,-2.0,4.57763671875E-4,-0.0011138916015625,Waiting,0.0,0.0,0.0,0.0,0.0,0.0,0.0,0.0,
1.3833420000000043,0.0,0.0,0.0,0.0,0.0,0.0,0.0,0.125,0.838622961,0.01,0.0,-10.0,0.0,0.0,-0.0,0.0,0.25,0.482177685,0.01,0.0,0.0,0.0,0.0,0.0,0.0,0.0,3.348388329,0.01,0.0,0.0,0.125,0.0,-0.0,0.0,0.25,1.649169753,0.01,0.0,-0.5799999833106995,-0.9399999976158142,-0.15000000596046448,-0.01824951171875,-0.0084228515625,1.0198974609375,35.439998626708984,0.0,-1.0,4.57763671875E-4,-0.0011138916015625,Waiting,0.0,0.0,0.0,0.0,0.0,0.0,0.0,0.0,
1.4012300000000033,0.0,0.0,0.0,0.0,0.0,0.0,0.0,0.125,0.838622961,0.01,0.0,-10.0,0.0,0.0,-0.0,0.0,0.25,0.482177685,0.01,0.0,0.0,0.0,0.0,0.0,0.0,0.0,3.347167626,0.01,0.0,0.0,0.125,0.0,-0.0,0.0,0.25,1.649169753,0.01,0.0,-0.5899999737739563,-0.9399999976158142,-0.15000000596046448,-0.0208740234375,-0.01068115234375,1.01885986328125,35.439998626708984,0.0,-4.0,4.57763671875E-4,-0.0011138916015625,Waiting,0.0,0.0,0.0,0.0,0.0,0.0,0.0,0.0,
1.4223570000000036,0.0,0.0,0.0,0.0,0.0,0.0,0.0,0.125,0.838622961,0.01,0.0,-10.0,0.0,0.0,-0.0,0.0,0.25,0.482177685,0.01,0.0,0.0,0.0,0.0,0.0,0.0,0.0,3.348388329,0.01,0.0,0.0,0.125,0.0,-0.0,0.0,0.25,1.649169753,0.01,0.0,-0.5899999737739563,-0.949999988079071,-0.15000000596046448,-0.01995849609375,-0.01153564453125,1.02349853515625,35.439998626708984,0.0,-2.0,4.57763671875E-4,-0.0011138916015625,Waiting,0.0,0.0,0.0,0.0,0.0,0.0,0.0,0.0,
1.4405240000000048,0.0,0.0,0.0,0.0,0.0,0.0,0.0,0.125,0.838622961,0.01,0.0,-10.0,0.0,0.0,-0.0,0.0,0.25,0.48095698200000003,0.01,0.0,0.0,0.0,0.0,0.0,0.0,0.0,3.348388329,0.01,0.0,0.0,0.125,0.0,-0.0,0.0,0.25,1.650390456,0.01,0.0,-0.5899999737739563,-0.949999988079071,-0.15000000596046448,-0.01898193359375,-0.008544921875,1.02044677734375,35.439998626708984,0.0,-1.0,4.57763671875E-4,-0.0011138916015625,Waiting,0.0,0.0,0.0,0.0,0.0,0.0,0.0,0.0,
1.4598290000000052,0.0,0.0,0.0,0.0,0.0,0.0,0.0,0.125,0.838622961,0.01,0.0,-10.0,0.0,0.0,-0.0,0.0,0.25,0.482177685,0.01,0.0,0.0,0.0,0.0,0.0,0.0,0.0,3.348388329,0.01,0.0,0.0,0.125,0.0,-0.0,0.0,0.25,1.649169753,0.01,0.0,-0.5799999833106995,-0.949999988079071,-0.15000000596046448,-0.01751708984375,-0.01043701171875,1.02789306640625,35.439998626708984,0.0,0.0,4.57763671875E-4,-0.0011138916015625,Waiting,0.0,0.0,0.0,0.0,0.0,0.0,0.0,0.0,
1.4803430000000009,0.0,0.0,0.0,0.0,0.0,-132.28346407413483,0.0,0.125,0.838622961,4.930195895335007,0.0,-10.0,0.0,0.0,132.28346407413483,0.0,0.25,0.482177685,4.961701762417819,0.0,0.0,0.0,0.0,-132.28346407413483,0.0,0.0,3.347167626,4.938341499918206,0.0,0.0,0.25,0.0,132.28346407413483,0.0,0.25,1.649169753,4.955934166584581,0.0,-0.5799999833106995,-0.949999988079071,-0.15000000596046448,-0.0146484375,-0.01025390625,1.0194091796875,35.439998626708984,0.0,2.0,4.57763671875E-4,-0.0011138916015625,Waiting,0.0,0.0,0.0,0.0,0.0,0.0,0.0,0.0,
1.5000900000000037,0.0,0.0,0.0,0.125,0.0,-413.3858174085617,0.0,0.125,0.838622961,4.930195895335007,0.0,-10.0,0.0,0.0,413.3858174085617,0.0,0.25,0.482177685,4.961701762417819,0.0,0.0,0.125,0.0,-413.3858174085617,0.0,0.0,3.349609032,4.938341499918206,0.0,0.0,0.25,0.0,413.3858174085617,0.0,0.25,1.649169753,4.955934166584581,0.0,-0.5799999833106995,-0.949999988079071,-0.15000000596046448,-0.01318359375,-0.0089111328125,1.02374267578125,35.439998626708984,0.0,3.0,4.57763671875E-4,-0.0011138916015625,Waiting,0.0,0.0,0.0,0.0,0.0,0.0,0.0,0.0,
1.5302020000000047,0.0,0.0,0.0,0.125,-7.5,-1074.8031377792356,0.0,0.125,0.8312987430000001,4.930195895335007,0.0012207029999999897,-10.0,0.5,0.0,1074.8031377792356,0.0,0.25,0.482177685,4.961701762417819,0.0,0.0,0.375,0.0,-1074.8031377792356,0.0,0.0,3.3605953590000004,4.938341499918206,0.0,0.0,0.5,0.0,1074.8031377792356,0.0,0.25,1.649169753,4.955934166584581,0.0,-0.5799999833106995,-0.9399999976158142,-0.15000000596046448,-0.023681640625,-0.02154541015625,1.0198974609375,35.439998626708984,0.0,-6.0,4.57763671875E-4,-0.0011138916015625,Waiting,0.0,0.0,0.0,0.0,0.0,0.0,0.0,0.0,
1.5494890000000014,0.0,0.0,0.0,1.25,-22.5,-1984.2520236968992,0.0,0.25,0.838622961,4.930195895335007,0.0,-10.0,2.25,7.5,1984.2520236968992,0.0,0.125,0.482177685,4.961701762417819,0.0,0.0,1.5,0.0,-1984.2520236968992,0.0,0.0,3.348388329,4.938341499918206,0.0,0.0,1.625,22.5,1984.2520236968992,0.0,0.25,1.650390456,4.955934166584581,0.0,-0.5799999833106995,-0.9599999785423279,-0.15000000596046448,-0.0087890625,-0.0521240234375,1.0465087890625,35.439998626708984,0.0,8.0,4.57763671875E-4,-0.00115966796875,Waiting,0.0,0.0,0.0,0.0,0.0,0.0,0.0,0.0,
1.5680330000000031,0.0,0.0,0.0,1.25,-22.5,-1984.2520236968992,0.0,0.25,0.838622961,4.930195895335007,0.0,-10.0,10.5,37.5,1984.2520236968992,0.0,0.125,0.482177685,4.961701762417819,0.0,0.0,6.375,0.0,-1984.2520236968992,0.0,0.0,3.348388329,4.938341499918206,0.0,0.0,5.75,67.5,1984.2520236968992,0.0,0.25,1.6113279600000001,4.955934166584581,0.0,-0.5799999833106995,-0.9800000190734863,-0.17000000178813934,-0.22650146484375,-0.0078125,1.1171875,35.439998626708984,0.0,-207.0,3.35693359375E-4,-0.001220703125,Waiting,0.0,0.0,0.0,0.0,0.0,0.0,0.0,0.0,
1.5885020000000003,0.0,0.0,0.0,6.0,-75.0,-2100.0,0.0,0.25,0.838622961,4.929373853673165,0.0,-10.0,21.125,75.0,2100.0,0.0,0.125,0.47973627900000004,4.960874467590405,0.0,0.0,10.625,-7.5,-2100.0,0.0,0.0,3.348388329,4.93751810008998,0.0,0.0,12.125,135.0,2100.0,0.0,0.25,1.6015623360000002,4.955107833423633,4.911613286000001,-0.5699999928474426,-1.7799999713897705,-0.23000000417232513,-0.3658447265625,0.05267333984375,1.2178955078125,35.439998626708984,0.0,-327.0,-0.0010528564453125,-0.001708984375,Waiting,0.0,0.0,0.0,0.0,0.0,0.0,0.0,0.0,
1.608277000000002,0.0,0.0,0.0,11.625,-127.5,-1967.7164733409882,0.0,0.25,0.839843664,4.929099839581728,0.0,-10.0,21.125,75.0,1967.7164733409882,0.0,0.125,0.482177685,4.960598702442473,0.0,0.0,16.75,-37.5,-1967.7164733409882,0.0,0.0,3.348388329,4.937243633276077,0.0,0.0,18.75,217.5,1967.7164733409882,0.0,0.25,1.597900227,4.954832388831429,0.0,-0.6100000143051147,-2.0799999237060547,-0.25999999046325684,-0.64453125,0.07257080078125,0.75994873046875,35.439998626708984,0.0,-616.0,-0.0026092529296875,-0.0019073486328125,Waiting,0.0,0.0,0.0,0.0,0.0,0.0,0.0,0.0,
1.630322,0.0,0.0,-40.0,17.25,-180.0,-1521.259868144989,0.0,0.25,0.839843664,4.928688818852885,0.0,23.0,33.875,187.5,1521.259868144989,0.0,0.125,0.48095698200000003,4.960185055131498,0.0,-14.0,20.25,-67.5,-1521.259868144989,0.0,0.0,3.347167626,4.9368319334642115,0.0,51.0,22.625,292.5,1521.259868144989,0.0,0.125,1.596679524,4.954419222353566,-0.0024414059999999793,-0.5400000214576721,-2.6600000858306885,-0.30000001192092896,-0.464599609375,-0.03631591796875,1.13922119140625,35.439998626708984,0.0,-410.0,-0.007598876953125,-0.0023193359375,Waiting,0.0,0.0,0.0,0.0,0.0,0.0,0.0,0.0,
1.647382000000005,0.0,0.0,-40.0,20.625,-232.5,-727.55908370018,0.0,0.25,0.8447264760000001,4.928140790670011,0.0,23.0,33.875,187.5,727.55908370018,0.0,0.125,0.483398388,4.959633524835635,0.0,-14.0,20.25,-67.5,-727.55908370018,0.0,0.0,3.347167626,4.936282999836409,0.0,51.0,22.625,367.5,727.55908370018,0.0,0.125,1.596679524,4.953868333169159,0.0012207029999995456,-0.5600000023841858,-2.890000104904175,-0.2800000011920929,-0.40069580078125,-0.01458740234375,1.37188720703125,35.439998626708984,0.0,-330.0,-0.007598876953125,-0.0023193359375,Waiting,0.0,0.0,0.0,0.0,0.0,0.0,0.0,0.0,
1.6698680000000021,0.0,0.0,-40.0,17.125,-292.5,0.0,0.0,0.25,0.838622961,4.928140790670011,0.0,23.0,29.5,255.0,0.0,0.0,0.125,0.482177685,4.959633524835635,0.0,-14.0,14.25,-150.0,0.0,0.0,0.0,3.348388329,4.936282999836409,0.0,51.0,14.25,427.5,0.0,0.0,0.125,1.596679524,4.953868333169159,-0.0012207029999995456,-0.550000011920929,-3.049999952316284,-0.23999999463558197,-0.1904296875,0.077880859375,1.07537841796875,35.439998626708984,0.0,-133.0,-0.014434814453125,-0.002777099609375,Waiting,0.0,0.0,0.0,0.0,0.0,0.0,0.0,0.0,
1.6877380000000048,0.0,0.0,-40.0,10.375,-337.5,0.0,0.0,0.25,0.838622961,4.928140790670011,0.0,23.0,19.875,330.0,0.0,0.0,0.125,0.496826121,4.959633524835635,0.0,-14.0,14.25,-150.0,0.0,0.0,0.0,3.348388329,4.936282999836409,0.0,51.0,14.25,427.5,0.0,0.0,0.125,1.6052244450000002,4.953868333169159,-0.0012207029999995456,-0.550000011920929,-3.049999952316284,-0.23999999463558197,-0.1904296875,0.077880859375,1.07537841796875,35.439998626708984,0.0,-133.0,-0.014434814453125,-0.002777099609375,Waiting,0.0,0.0,0.0,0.0,0.0,0.0,0.0,0.0,
1.7054650000000038,0.0,0.0,-40.0,4.375,-390.0,0.0,0.0,0.25,0.839843664,4.928140790670011,0.0,23.0,9.375,397.5,0.0,0.0,0.125,0.496826121,4.959633524835635,0.0,-14.0,7.875,-195.0,0.0,0.0,0.0,3.348388329,4.936282999836409,0.0,51.0,7.125,457.5,0.0,0.0,0.25,1.6113279600000001,4.953868333169159,-0.0012207029999995456,-0.5899999737739563,-3.0899999141693115,-0.1899999976158142,0.07470703125,0.0255126953125,0.77978515625,35.439998626708984,0.0,116.0,-0.0218353271484375,-0.0032806396484375,Waiting,0.0,0.0,0.0,0.0,0.0,0.0,0.0,0.0,
1.725786,0.0,0.0,-40.0,0.625,-420.0,0.0,0.0,0.25,0.838622961,4.928140790670011,0.0,23.0,2.5,420.0,0.0,0.0,0.125,0.49194330900000005,4.959633524835635,0.010986326999999463,-14.0,2.375,-225.0,0.0,0.0,0.0,3.348388329,4.936282999836409,0.0,51.0,1.875,435.0,0.0,0.0,0.25,1.619872881,4.953868333169159,0.0183105449999994,-0.6100000143051147,-3.0799999237060547,-0.15000000596046448,-0.0958251953125,0.05694580078125,1.1683349609375,35.439998626708984,0.0,-32.0,-0.02545166015625,-0.00347900390625,Waiting,0.0,0.0,0.0,0.0,0.0,0.0,0.0,0.0,
1.7424270000000033,0.0,0.0,-106.0,0.0,-435.0,0.0,0.0,0.25,0.838622961,4.928140790670011,0.0,81.0,0.0,397.5,0.0,0.0,0.125,0.49194330900000005,4.959633524835635,0.010986326999999463,-53.0,0.0,-240.0,0.0,0.0,0.0,3.347167626,4.936282999836409,0.0,113.0,0.125,390.0,0.0,0.0,0.125,1.625976396,4.953868333169159,0.0183105449999994,-0.6100000143051147,-2.9800000190734863,-0.11999999731779099,0.15960693359375,-0.14306640625,1.30377197265625,35.439998626708984,0.0,227.0,-0.0289459228515625,-0.00372314453125,Waiting,0.0,0.0,0.0,0.0,0.0,0.0,0.0,0.0,
1.7604089999999997,0.0,0.0,-106.0,0.0,-412.5,0.0,0.0,0.25,0.838622961,4.928140790670011,0.0,81.0,0.0,367.5,0.0,0.0,0.125,0.49194330900000005,4.959633524835635,0.010986326999999463,-53.0,0.0,-247.5,0.0,0.0,0.0,3.343505517,4.936282999836409,0.0,113.0,0.125,367.5,0.0,0.0,0.125,1.6296385050000002,4.953868333169159,0.010986327000000351,-0.5899999737739563,-2.700000047683716,-0.05000000074505806,0.18487548828125,-0.01495361328125,1.07196044921875,35.439998626708984,0.0,235.0,-0.0321197509765625,-0.004058837890625,Waiting,0.0,0.0,0.0,0.0,0.0,0.0,0.0,0.0,
1.7811150000000053,0.0,0.0,-106.0,0.0,-390.0,0.0,0.0,0.25,0.838622961,4.928140790670011,0.0,81.0,0.0,352.5,0.0,0.0,0.125,0.49194330900000005,4.959633524835635,-0.0012207029999995456,-53.0,0.0,-240.0,0.0,0.0,0.0,3.342284814,4.936282999836409,0.0,113.0,0.125,375.0,0.0,0.0,0.125,1.638183426,4.953868333169159,0.010986327000000351,-0.6100000143051147,-2.4100000858306885,0.0,0.11517333984375,-0.05712890625,0.83966064453125,35.439998626708984,0.0,150.0,-0.037445068359375,-0.0048828125,Waiting,0.0,0.0,0.0,0.0,0.0,0.0,0.0,0.0,
1.8006280000000043,0.0,0.0,-106.0,0.0,-390.0,0.0,0.0,0.25,0.838622961,4.928140790670011,0.0,81.0,0.0,382.5,0.0,0.0,0.125,0.496826121,4.959633524835635,-0.0012207029999995456,-53.0,0.0,-225.0,0.0,0.0,0.0,3.348388329,4.936282999836409,0.0,113.0,0.125,420.0,0.0,0.0,0.125,1.644286941,4.953868333169159,0.010986327000000351,-0.5299999713897705,-2.490000009536743,-0.03999999910593033,-0.05963134765625,0.03314208984375,1.3046875,35.439998626708984,0.0,-2.0,-0.03985595703125,-0.0053253173828125,Waiting,0.0,0.0,0.0,0.0,0.0,0.0,0.0,0.0,
1.8217360000000045,0.0,0.0,-106.0,0.0,-412.5,0.0,0.0,0.25,0.838622961,4.928140790670011,0.0,81.0,0.0,427.5,0.0,0.0,0.125,0.496826121,4.959633524835635,0.004882811999999959,-53.0,0.0,-225.0,0.0,0.0,0.0,3.343505517,4.936282999836409,-0.0012207029999995456,113.0,0.125,465.0,0.0,0.0,0.25,1.645507644,4.953868333169159,-4.938468752,-0.5299999713897705,-2.190000057220459,-0.15000000596046448,0.01611328125,-0.09063720703125,0.98162841796875,35.439998626708984,0.0,53.0,-0.04443359375,-0.0064544677734375,Waiting,0.0,0.0,0.0,0.0,0.0,0.0,0.0,0.0,
1.8407119999999995,0.0,0.0,-106.0,0.0,-412.5,0.0,0.0,0.25,0.838622961,4.928140790670011,0.0,81.0,0.0,472.5,0.0,0.0,0.0,0.495605418,4.959633524835635,0.004882811999999959,-53.0,0.0,-247.5,0.0,0.0,0.0,3.347167626,4.936282999836409,-0.0012207029999995456,113.0,0.125,495.0,0.0,0.0,0.25,1.649169753,4.953868333169159,-4.938468752,-0.5199999809265137,-2.0899999141693115,-0.1599999964237213,0.04840087890625,0.06536865234375,0.7352294921875,35.439998626708984,0.0,75.0,-0.04656982421875,-0.007080078125,Waiting,0.0,0.0,0.0,0.0,0.0,0.0,0.0,0.0,
1.8611870000000053,0.0,0.0,-183.0,0.0,-457.5,0.0,0.0,0.25,0.838622961,4.928140790670011,0.0,161.0,0.0,487.5,0.0,0.0,0.0,0.496826121,4.959633524835635,0.004882811999999959,-97.0,0.0,-270.0,0.0,0.0,0.0,3.343505517,4.936282999836409,0.0012207029999995456,188.0,0.125,480.0,0.0,0.0,0.25,1.649169753,4.953868333169159,0.004882811999999959,-0.49000000953674316,-2.0799999237060547,-0.12999999523162842,0.127685546875,0.05609130859375,1.02532958984375,35.439998626708984,0.0,164.0,-0.048553466796875,-0.0076141357421875,Waiting,0.0,0.0,0.0,0.0,0.0,0.0,0.0,0.0,
1.881158000000003,0.0,0.0,-183.0,0.0,-480.0,0.0,0.0,0.25,0.838622961,4.928140790670011,0.0,161.0,0.0,487.5,0.0,0.0,0.0,0.496826121,4.959633524835635,0.0,-97.0,0.0,-292.5,0.0,0.0,0.0,3.347167626,4.936282999836409,0.0012207029999995456,188.0,0.125,427.5,0.0,0.0,0.25,1.649169753,4.953868333169159,0.004882811999999959,-0.5099999904632568,-1.8899999856948853,-0.03999999910593033,0.086181640625,-0.005126953125,1.0572509765625,35.439998626708984,0.0,121.0,-0.052032470703125,-0.0084075927734375,Waiting,0.0,0.0,0.0,0.0,0.0,0.0,0.0,0.0,
1.9000849999999991,0.0,0.0,-183.0,0.0,-480.0,0.0,0.0,0.25,0.838622961,4.928140790670011,0.0,161.0,0.0,465.0,0.0,0.0,0.0,0.496826121,4.959633524835635,0.0,-97.0,0.0,-292.5,0.0,0.0,0.0,3.342284814,4.936282999836409,0.0012207029999995456,188.0,0.125,382.5,0.0,0.0,0.25,1.649169753,4.953868333169159,0.004882811999999959,-0.5400000214576721,-1.7599999904632568,-0.029999999329447746,0.08770751953125,-0.07452392578125,0.982177734375,35.439998626708984,0.0,117.0,-0.05352783203125,-0.008819580078125,Waiting,0.0,0.0,0.0,0.0,0.0,0.0,0.0,0.0,
1.9230940000000045,0.0,0.0,-183.0,0.0,-442.5,0.0,0.0,0.25,0.838622961,4.928140790670011,0.0,161.0,0.0,420.0,0.0,0.0,0.0,0.496826121,4.959633524835635,0.0,-97.0,0.0,-300.0,0.0,0.0,0.0,3.348388329,4.936282999836409,-0.0024414059999999793,188.0,0.125,360.0,0.0,0.0,0.25,1.649169753,4.953868333169159,0.0,-0.5799999833106995,-1.6799999475479126,-0.03999999910593033,0.13177490234375,-0.0360107421875,0.98626708984375,35.439998626708984,0.0,160.0,-0.0548553466796875,-0.0092926025390625,Waiting,0.0,0.0,0.0,0.0,0.0,0.0,0.0,0.0,
1.9402160000000004,0.0,0.0,-183.0,0.0,-390.0,0.0,0.0,0.25,0.839843664,4.928140790670011,0.0,161.0,0.0,390.0,0.0,0.0,0.0,0.496826121,4.959633524835635,0.0,-97.0,0.0,-292.5,0.0,0.0,0.0,3.347167626,4.936282999836409,-0.0024414059999999793,188.0,0.125,360.0,0.0,0.0,0.25,1.649169753,4.953868333169159,0.0,-0.550000011920929,-1.559999942779541,-0.10000000149011612,0.06134033203125,0.01593017578125,1.1409912109375,35.41999816894531,0.0,92.0,-0.0570220947265625,-0.01025390625,Waiting,0.0,0.0,0.0,0.0,0.0,0.0,0.0,0.0,
1.9607050000000017,0.0,0.0,-183.0,0.0,-352.5,0.0,0.0,0.25,0.838622961,4.928140790670011,0.0,161.0,0.0,375.0,0.0,0.0,0.0,0.495605418,4.959633524835635,0.0,-97.0,0.0,-277.5,0.0,0.0,0.0,3.348388329,4.936282999836409,-0.0024414059999999793,188.0,0.125,352.5,0.0,0.0,0.25,1.650390456,4.953868333169159,0.0,-0.5699999928474426,-1.4900000095367432,-0.11999999731779099,0.05133056640625,-0.0401611328125,1.03070068359375,35.41999816894531,0.0,78.0,-0.0579376220703125,-0.0107269287109375,Waiting,0.0,0.0,0.0,0.0,0.0,0.0,0.0,0.0,
1.9815869999999995,0.0,0.0,-231.0,0.0,-322.5,0.0,0.0,0.25,0.838622961,4.928140790670011,0.0,215.0,0.0,360.0,0.0,0.0,0.0,0.496826121,4.959633524835635,0.0,-137.0,0.0,-270.0,0.0,0.0,0.0,3.348388329,4.936282999836409,0.0012207030000004337,242.0,0.125,352.5,0.0,0.0,0.25,1.649169753,4.953868333169159,0.0,-0.5799999833106995,-1.4299999475479126,-0.12999999523162842,0.0816650390625,0.03594970703125,0.95050048828125,35.41999816894531,0.0,105.0,-0.0587158203125,-0.011199951171875,Waiting,0.0,0.0,0.0,0.0,0.0,0.0,0.0,0.0,
2.000609000000004,0.0,0.0,-231.0,0.0,-307.5,0.0,0.0,0.25,0.838622961,4.928140790670011,0.0,215.0,0.0,345.0,0.0,0.0,0.0,0.496826121,4.959633524835635,0.0,-137.0,0.0,-255.0,0.0,0.0,0.0,3.348388329,4.936282999836409,0.0012207030000004337,242.0,0.125,345.0,0.0,0.0,0.25,1.649169753,4.953868333169159,0.0,-0.5199999809265137,-1.309999942779541,-0.17000000178813934,0.10211181640625,0.01275634765625,1.0745849609375,35.41999816894531,0.0,126.0,-0.0597686767578125,-0.0118560791015625,Waiting,0.0,0.0,0.0,0.0,0.0,0.0,0.0,0.0,
2.023925000000003,0.0,0.0,-231.0,0.0,-292.5,-198.42519611120227,0.0,0.25,0.839843664,4.929921881447727,0.0,215.0,0.0,315.0,198.42519611120227,0.0,0.0,0.506591745,4.961425997475348,0.0,-137.0,0.0,-240.0,-198.42519611120227,0.0,0.0,3.347167626,4.938067033308798,0.0,242.0,0.125,322.5,198.42519611120227,0.0,0.25,1.649169753,4.955658722197598,0.0,-0.5,-1.2200000286102295,-0.20999999344348907,0.0849609375,0.01470947265625,1.07147216796875,35.41999816894531,0.0,107.0,-0.0600433349609375,-0.012115478515625,Waiting,0.0,0.0,0.0,0.0,0.0,0.0,0.0,0.0,
2.040162000000004,0.0,0.0,-231.0,0.125,-270.0,-363.77954185009,0.0,0.25,0.838622961,4.929373853673165,0.0,215.0,0.0,292.5,363.77954185009,0.0,0.0,0.511474557,4.960874467590405,0.009765623999999917,-137.0,0.0,-195.0,-363.77954185009,0.0,0.0,3.348388329,4.93751810008998,-0.0012207030000004337,242.0,0.25,300.0,363.77954185009,0.0,0.25,1.650390456,4.955107833423633,0.0,-0.5199999809265137,-1.1200000047683716,-0.23000000417232513,0.104248046875,-0.011474609375,0.9364013671875,35.41999816894531,0.0,122.0,-0.0601654052734375,-0.0123443603515625,Waiting,0.0,0.0,0.0,0.0,0.0,0.0,0.0,0.0,
2.060228999999999,0.0,0.0,-231.0,0.125,-247.5,-628.3464699983597,0.0,0.25,0.838622961,4.929099839581728,-0.0012207029999999897,215.0,0.0,270.0,628.3464699983597,0.0,0.0,0.511474557,4.960598702442473,0.004882811999999959,-137.0,0.125,-157.5,-628.3464699983597,0.0,0.0,3.349609032,4.937243633276077,0.0,242.0,0.25,270.0,628.3464699983597,0.0,0.25,1.649169753,4.954832388831429,0.0,-0.550000011920929,-0.9900000095367432,-0.23000000417232513,0.05108642578125,-0.04669189453125,1.06414794921875,35.41999816894531,0.0,69.0,-0.0599517822265625,-0.0128173828125,Waiting,0.0,0.0,0.0,0.0,0.0,0.0,0.0,0.0,
2.0814170000000014,0.0,0.0,-231.0,0.125,-217.5,-777.1653592586517,0.0,0.25,0.838622961,4.929099839581728,0.0,215.0,0.0,240.0,777.1653592586517,0.0,0.0,0.511474557,4.960598702442473,0.0012207029999995456,-137.0,0.375,-120.0,-777.1653592586517,0.0,0.0,3.348388329,4.937243633276077,0.0,242.0,0.375,232.5,777.1653592586517,0.0,0.25,1.649169753,4.954832388831429,0.0,-0.5699999928474426,-0.9100000262260437,-0.1899999976158142,0.08245849609375,-0.02606201171875,1.03118896484375,35.41999816894531,0.0,99.0,-0.059661865234375,-0.0130767822265625,Waiting,0.0,0.0,0.0,0.0,0.0,0.0,0.0,0.0,
2.1010780000000016,0.0,0.0,-266.0,0.125,-202.5,-826.7716348171233,0.0,0.25,0.838622961,4.929647867560445,-0.0012207029999999897,248.0,0.375,210.0,826.7716348171233,0.0,0.0,0.51269526,4.9611502325328765,-0.0012207029999995456,-153.0,0.625,-97.5,-826.7716348171233,0.0,0.0,3.345946923,4.937792566699388,0.0012207030000004337,270.0,0.75,202.5,826.7716348171233,0.0,0.25,1.649169753,4.955383277810616,0.0,-0.5699999928474426,-0.8700000047683716,-0.15000000596046448,0.0850830078125,-0.01898193359375,0.9736328125,35.41999816894531,0.0,99.0,-0.059234619140625,-0.0130767822265625,Waiting,0.0,0.0,0.0,0.0,0.0,0.0,0.0,0.0,
2.1243150000000024,0.0,0.0,-266.0,0.375,-210.0,-826.7716348171233,0.0,0.25,0.839843664,4.930743923313725,0.0,248.0,0.75,202.5,826.7716348171233,0.0,0.0,0.506591745,4.962253292508221,0.0,-153.0,0.875,-97.5,-826.7716348171233,0.0,0.0,3.345946923,4.938890433341515,0.0,270.0,1.25,180.0,826.7716348171233,0.0,0.25,1.649169753,4.956485055563767,0.0,-0.5600000023841858,-0.8299999833106995,-0.09000000357627869,0.03070068359375,0.0272216796875,1.06610107421875,35.41999816894531,0.0,46.0,-0.0581512451171875,-0.0130615234375,Waiting,0.0,0.0,0.0,0.0,0.0,0.0,0.0,0.0,
2.1408179999999994,0.0,0.0,-266.0,0.625,-240.0,-826.7716348171234,0.0,0.25,0.838622961,4.9310179372010055,0.0,248.0,1.0,225.0,826.7716348171234,0.0,0.0,0.511474557,4.962529057450692,0.0,-153.0,1.25,-112.5,-826.7716348171234,0.0,0.0,3.348388329,4.939164899950925,0.0012207030000004337,270.0,1.75,172.5,826.7716348171234,0.0,0.25,1.649169753,4.95676049995075,0.0,-0.550000011920929,-0.7699999809265137,-0.07000000029802322,0.0357666015625,-6.103515625E-5,0.99163818359375,35.41999816894531,0.0,49.0,-0.057525634765625,-0.01300048828125,Waiting,0.0,0.0,0.0,0.0,0.0,0.0,0.0,0.0,
2.1602830000000033,0.0,0.0,-266.0,1.0,-300.0,-826.7716348171235,0.0,0.25,0.8435057730000001,4.931291951190364,0.0,248.0,1.5,270.0,826.7716348171235,0.0,0.0,0.510253854,4.962804822495893,0.0,-153.0,2.25,-135.0,-826.7716348171235,0.0,0.0,3.348388329,4.9394393666625795,0.0012207029999995456,270.0,2.0,195.0,826.7716348171235,0.0,0.25,1.649169753,4.957035944440342,0.0,-0.5600000023841858,-0.8399999737739563,-0.05999999865889549,-0.215576171875,0.01666259765625,0.79998779296875,35.41999816894531,0.0,-203.0,-0.0569915771484375,-0.0129241943359375,Waiting,0.0,0.0,0.0,0.0,0.0,0.0,0.0,0.0,
2.181228999999999,0.0,0.0,-266.0,1.375,-330.0,-826.7716348171235,0.0,0.25,0.847167882,4.931565965128684,0.0,248.0,2.0,307.5,826.7716348171235,0.0,0.0,0.510253854,4.9630805874897295,0.0012207029999995456,-153.0,2.75,-157.5,-826.7716348171235,0.0,0.0,3.343505517,4.939713833323111,-0.0024414059999999793,270.0,2.125,240.0,826.7716348171235,0.0,0.25,1.639404129,4.95731138887863,0.0,-0.5099999904632568,-1.0499999523162842,-0.019999999552965164,-0.03936767578125,0.0650634765625,0.84149169921875,35.41999816894531,0.0,-23.0,-0.056304931640625,-0.0127105712890625,Waiting,0.0,0.0,0.0,0.0,0.0,0.0,0.0,0.0,
2.2006790000000036,0.0,0.0,-266.0,1.875,-337.5,-826.7716348171235,0.0,0.25,0.838622961,4.931976986061683,0.0,248.0,2.5,315.0,826.7716348171235,0.0,0.0,0.511474557,4.963494235006166,-0.0012207029999995456,-153.0,3.625,-165.0,-826.7716348171235,0.0,0.0,3.342284814,4.9401255333394705,0.0,270.0,2.375,285.0,826.7716348171235,0.0,0.25,1.616210772,4.957724555561715,-0.004882811999999959,-0.550000011920929,-1.0700000524520874,-0.019999999552965164,-0.16876220703125,-0.11676025390625,0.737060546875,35.41999816894531,0.0,-154.0,-0.0561065673828125,-0.0126190185546875,Waiting,0.0,0.0,0.0,0.0,0.0,0.0,0.0,0.0,
2.224056000000004,0.0,0.0,-314.0,2.0,-315.0,-826.7716348171235,0.0,0.25,0.838622961,4.931976986061683,0.0,296.0,2.875,300.0,826.7716348171235,0.0,0.0,0.510253854,4.963494235006166,0.0,-182.0,4.0,-172.5,-826.7716348171235,0.0,0.0,3.343505517,4.9401255333394705,0.0,321.0,2.625,315.0,826.7716348171235,0.0,0.25,1.616210772,4.957724555561715,0.0,-0.5600000023841858,-1.2400000095367432,-0.05000000074505806,-0.120849609375,0.02398681640625,1.21820068359375,35.41999816894531,0.0,-94.0,-0.055999755859375,-0.01239013671875,Waiting,0.0,0.0,0.0,0.0,0.0,0.0,0.0,0.0,
2.241247000000003,0.0,0.0,-314.0,2.0,-315.0,-826.7716348171235,0.0,0.25,0.839843664,4.931565965128684,0.0,296.0,3.125,270.0,826.7716348171235,0.0,0.0,0.511474557,4.9630805874897295,-0.0012207029999995456,-182.0,4.5,-172.5,-826.7716348171235,0.0,0.0,3.343505517,4.939713833323111,0.0,321.0,3.0,330.0,826.7716348171235,0.0,0.125,1.6113279600000001,4.95731138887863,0.0,-0.5799999833106995,-1.2699999809265137,-0.07000000029802322,-0.16778564453125,-0.0482177734375,0.94696044921875,35.41999816894531,0.0,-146.0,-0.05615234375,-0.012237548828125,Waiting,0.0,0.0,0.0,0.0,0.0,0.0,0.0,0.0,
2.2601140000000015,0.0,0.0,-314.0,2.25,-270.0,-694.4881707429886,0.0,0.25,0.839843664,4.931291951190364,0.0,296.0,3.125,270.0,694.4881707429886,0.0,0.0,0.511474557,4.962804822495893,0.0,-182.0,4.5,-172.5,-694.4881707429886,0.0,0.0,3.345946923,4.9394393666625795,0.0012207029999995456,321.0,2.875,315.0,694.4881707429886,0.0,0.125,1.6113279600000001,4.957035944440342,-0.004882811999999959,-0.6000000238418579,-1.3700000047683716,-0.09000000357627869,-0.084228515625,-0.00897216796875,0.8411865234375,35.41999816894531,0.0,-64.0,-0.05645751953125,-0.012115478515625,Waiting,0.0,0.0,0.0,0.0,0.0,0.0,0.0,0.0,
2.280520000000004,0.0,0.0,-314.0,2.375,-232.5,-694.4881707429886,0.0,0.25,0.823974525,4.9310179372010055,0.0,296.0,3.625,240.0,694.4881707429886,0.0,0.0,0.511474557,4.962529057450692,0.0,-182.0,4.75,-172.5,-694.4881707429886,0.0,0.0,3.348388329,4.939164899950925,0.0012207030000004337,321.0,2.875,285.0,694.4881707429886,0.0,0.125,1.6064451480000002,4.95676049995075,0.0,-0.6200000047683716,-1.440000057220459,-0.07999999821186066,-0.1763916015625,-0.00885009765625,1.07171630859375,35.41999816894531,0.0,-149.0,-0.056884765625,-0.011993408203125,Waiting,0.0,0.0,0.0,0.0,0.0,0.0,0.0,0.0,
2.300313000000002,0.0,0.0,-314.0,2.5,-225.0,-694.4881707429886,0.0,0.25,0.838622961,4.931565965128684,0.0012207029999999897,296.0,3.75,240.0,694.4881707429886,0.0,0.0,0.511474557,4.9630805874897295,-0.0012207029999995456,-182.0,4.875,-187.5,-694.4881707429886,0.0,0.0,3.348388329,4.939713833323111,0.0012207029999995456,321.0,3.0,262.5,694.4881707429886,0.0,0.125,1.6015623360000002,4.95731138887863,-0.0012207030000004337,-0.6000000238418579,-1.5399999618530273,0.0,-0.0589599609375,-0.0655517578125,1.0177001953125,35.41999816894531,0.0,-31.0,-0.058197021484375,-0.011688232421875,Waiting,0.0,0.0,0.0,0.0,0.0,0.0,0.0,0.0,
2.324628000000004,0.0,0.0,-314.0,2.625,-240.0,-694.4881707429886,0.0,0.25,0.848388585,4.932250999999998,0.0,296.0,4.125,285.0,694.4881707429886,0.0,0.0,0.511474557,4.963769999999998,0.0,-182.0,4.875,-195.0,-694.4881707429886,0.0,0.0,3.349609032,0.01,0.0,321.0,3.25,255.0,694.4881707429886,0.0,0.125,1.6064451480000002,0.01,0.0,-0.6100000143051147,-1.5700000524520874,0.03999999910593033,-0.1390380859375,0.05755615234375,0.94537353515625,35.41999816894531,0.0,-112.0,-0.058990478515625,-0.01153564453125,Waiting,0.0,0.0,0.0,0.0,0.0,0.0,0.0,0.0,
2.3405060000000013,0.0,0.0,-367.0,2.75,-285.0,-677.9527455568314,0.0,0.25,0.8422850700000001,0.01,0.0,347.0,4.125,285.0,677.9527455568314,0.0,0.0,0.511474557,0.01,0.0,-219.0,4.875,-195.0,-677.9527455568314,0.0,0.0,3.349609032,0.01,0.0,371.0,3.25,255.0,677.9527455568314,0.0,0.25,1.596679524,0.01,0.004882811999999959,-0.6000000238418579,-1.7000000476837158,0.09000000357627869,-0.17071533203125,-0.02490234375,0.99066162109375,35.41999816894531,0.0,-141.0,-0.0599517822265625,-0.0113525390625,Waiting,0.0,0.0,0.0,0.0,0.0,0.0,0.0,0.0,
2.360619000000006,0.0,0.0,-367.0,2.875,-315.0,-677.9527455568314,0.0,0.25,0.838622961,0.01,0.0,347.0,4.375,300.0,677.9527455568314,0.0,0.0,0.518798775,0.01,0.0,-219.0,5.0,-210.0,-677.9527455568314,0.0,0.0,3.348388329,0.01,0.0,371.0,3.5,277.5,677.9527455568314,0.0,0.25,1.600341633,0.01,-0.007324217999999938,-0.6100000143051147,-1.809999942779541,0.1599999964237213,-0.14794921875,0.04461669921875,1.04327392578125,35.41999816894531,0.0,-114.0,-0.06231689453125,-0.011077880859375,Waiting,0.0,0.0,0.0,0.0,0.0,0.0,0.0,0.0,
2.380784,0.0,0.0,-367.0,2.75,-345.0,-677.9527455568314,0.0,0.25,0.838622961,0.01,0.0,347.0,4.125,322.5,677.9527455568314,0.0,0.0,0.510253854,0.01,0.0,-219.0,5.25,-232.5,-677.9527455568314,0.0,0.0,3.354491844,0.01,0.0012207030000004337,371.0,3.5,315.0,677.9527455568314,0.0,0.25,1.600341633,0.01,0.0024414059999999793,-0.5899999737739563,-1.8600000143051147,0.1899999976158142,-0.13067626953125,0.0074462890625,1.04962158203125,35.41999816894531,0.0,-96.0,-0.063720703125,-0.0108795166015625,Waiting,0.0,0.0,0.0,0.0,0.0,0.0,0.0,0.0,
2.4002890000000043,0.0,0.0,-367.0,2.75,-382.5,-661.4173203706741,0.0,0.125,0.838622961,0.01,-0.0012207029999999897,347.0,4.0,345.0,661.4173203706741,0.0,0.125,0.510253854,0.01,0.0024414059999999793,-219.0,5.375,-262.5,-661.4173203706741,0.0,0.0,3.347167626,0.01,0.0,371.0,3.5,345.0,661.4173203706741,0.0,0.25,1.600341633,0.01,0.0,-0.5299999713897705,-1.909999966621399,0.23999999463558197,-0.20941162109375,-0.0892333984375,1.15594482421875,35.41999816894531,0.0,-171.0,-0.0652923583984375,-0.0107269287109375,Waiting,0.0,0.0,0.0,0.0,0.0,0.0,0.0,0.0,
2.4234290000000036,0.0,0.0,-367.0,2.625,-405.0,-661.417320370674,0.0,0.125,0.839843664,0.01,0.0,347.0,3.875,375.0,661.417320370674,0.0,0.125,0.5041503390000001,0.01,0.0,-219.0,5.5,-307.5,-661.417320370674,0.0,0.0,3.348388329,0.01,0.0,371.0,3.5,382.5,661.417320370674,0.0,0.25,1.600341633,0.01,0.0,-0.5899999737739563,-2.0399999618530273,0.3100000023841858,-0.12579345703125,-0.02447509765625,1.07122802734375,35.41999816894531,0.0,-87.0,-0.06890869140625,-0.010498046875,Waiting,0.0,0.0,0.0,0.0,0.0,0.0,0.0,0.0,
2.4408420000000044,0.0,0.0,-367.0,2.375,-435.0,-661.4173203706741,0.0,0.125,0.838622961,0.01,0.0,347.0,3.875,405.0,661.4173203706741,0.0,0.0,0.511474557,0.01,-0.0012207030000004337,-219.0,5.375,-352.5,-661.4173203706741,0.0,0.0,3.349609032,0.01,0.0,371.0,3.5,405.0,661.4173203706741,0.0,0.25,1.6088865540000001,0.01,0.0,-0.5699999928474426,-2.0799999237060547,0.3400000035762787,-0.13067626953125,-0.01275634765625,0.97735595703125,35.47999954223633,0.0,-95.0,-0.070892333984375,-0.010498046875,Waiting,0.0,0.0,0.0,0.0,0.0,0.0,0.0,0.0,
2.4605699999999997,0.0,0.0,-447.0,2.375,-457.5,-661.4173203706741,0.0,0.125,0.839843664,0.01,0.0,425.0,3.875,442.5,661.4173203706741,0.0,0.0,0.506591745,0.01,0.0012207030000004337,-288.0,5.125,-397.5,-661.4173203706741,0.0,0.0,3.348388329,0.01,0.0,443.0,3.5,427.5,661.4173203706741,0.0,0.25,1.600341633,0.01,0.0,-0.550000011920929,-2.109999895095825,0.38999998569488525,-0.15435791015625,-0.06915283203125,0.9495849609375,35.47999954223633,0.0,-119.0,-0.075286865234375,-0.0106048583984375,Waiting,0.0,0.0,0.0,0.0,0.0,0.0,0.0,0.0,
2.4809910000000017,0.0,0.0,-447.0,2.375,-487.5,-661.4173203706741,0.0,0.125,0.8435057730000001,0.01,0.0,425.0,3.75,472.5,661.4173203706741,0.0,0.0,0.506591745,0.01,0.0,-288.0,4.875,-427.5,-661.4173203706741,0.0,0.0,3.348388329,0.01,0.0,443.0,3.25,442.5,661.4173203706741,0.0,0.25,1.6015623360000002,0.01,0.0,-0.6000000238418579,-2.2300000190734863,0.47999998927116394,-0.12091064453125,-0.05438232421875,1.040283203125,35.47999954223633,0.0,-80.0,-0.077606201171875,-0.01068115234375,Waiting,0.0,0.0,0.0,0.0,0.0,0.0,0.0,0.0,
2.5000090000000053,0.0,0.0,-447.0,2.25,-517.5,-661.4173203706741,0.0,0.125,0.838622961,0.01,0.0,425.0,3.375,502.5,661.4173203706741,0.0,0.0,0.511474557,0.01,-0.0024414059999999793,-288.0,4.75,-450.0,-661.4173203706741,0.0,0.0,3.348388329,0.01,0.0,443.0,3.25,465.0,661.4173203706741,0.0,0.25,1.600341633,0.01,0.0,-0.6100000143051147,-2.2699999809265137,0.5299999713897705,-0.05706787109375,-0.01104736328125,1.00970458984375,35.47999954223633,0.0,-16.0,-0.0800018310546875,-0.01080322265625,Waiting,0.0,0.0,0.0,0.0,0.0,0.0,0.0,0.0,
2.523684000000001,0.0,0.0,-447.0,2.25,-540.0,-661.4173203706741,0.0,0.125,0.837402258,0.01,0.0,425.0,3.125,525.0,661.4173203706741,0.0,0.0,0.506591745,0.01,0.0,-288.0,4.75,-465.0,-661.4173203706741,0.0,0.0,3.347167626,0.01,0.0,443.0,3.125,487.5,661.4173203706741,0.0,0.25,1.596679524,0.01,0.0,-0.6200000047683716,-2.2899999618530273,0.6200000047683716,-0.11956787109375,-0.016357421875,1.0081787109375,35.47999954223633,0.0,-79.0,-0.08502197265625,-0.0109100341796875,Waiting,0.0,0.0,0.0,0.0,0.0,0.0,0.0,0.0,
2.541178,0.0,0.0,-447.0,2.0,-562.5,-661.4173203706741,0.0,0.125,0.838622961,0.01,0.0,425.0,3.0,540.0,661.4173203706741,0.0,0.0,0.506591745,0.01,-0.0012207030000004337,-288.0,4.75,-480.0,-661.4173203706741,0.0,0.0,3.347167626,0.01,0.0,443.0,3.125,517.5,661.4173203706741,0.0,0.25,1.594238118,0.01,0.0,-0.6200000047683716,-2.319999933242798,0.6499999761581421,-0.0413818359375,-0.015869140625,1.016845703125,35.47999954223633,0.0,0.0,-0.0876312255859375,-0.0109405517578125,Waiting,0.0,0.0,0.0,0.0,0.0,0.0,0.0,0.0,
2.5604310000000043,0.0,0.0,-447.0,1.875,-585.0,-661.4173203706741,0.0,0.125,0.839843664,0.01,0.0,425.0,3.0,555.0,661.4173203706741,0.0,0.0,0.505371042,0.01,-0.0012207029999995456,-288.0,4.625,-495.0,-661.4173203706741,0.0,0.0,3.348388329,0.01,0.0,443.0,3.125,540.0,661.4173203706741,0.0,0.25,1.6027830390000002,0.01,0.0,-0.6499999761581421,-2.3399999141693115,0.699999988079071,-0.04461669921875,-0.00115966796875,1.00689697265625,35.47999954223633,0.0,-3.0,-0.0876312255859375,-0.0109405517578125,Waiting,0.0,0.0,0.0,0.0,0.0,0.0,0.0,0.0,
2.580442000000003,0.0,0.0,-548.0,1.625,-600.0,-628.3464699983597,0.0,0.125,0.838622961,0.01,0.0,519.0,2.875,570.0,628.3464699983597,0.0,0.0,0.505371042,0.01,0.0,-376.0,4.5,-525.0,-628.3464699983597,0.0,0.0,3.347167626,0.01,0.0,534.0,2.875,555.0,628.3464699983597,0.0,0.25,1.6015623360000002,0.01,0.0,-0.6299999952316284,-2.390000104904175,0.8100000023841858,-0.07012939453125,-0.018310546875,0.98553466796875,35.47999954223633,0.0,-28.0,-0.087646484375,-0.0109405517578125,Waiting,0.0,0.0,0.0,0.0,0.0,0.0,0.0,0.0,
2.601251000000004,0.0,0.0,-548.0,1.375,-622.5,-611.8110448122025,0.0,0.125,0.838622961,0.011097564782661893,0.0,519.0,2.625,592.5,611.8110448122025,0.0,0.125,0.506591745,0.011168482532870614,-0.0012207029999995456,-376.0,4.375,-547.5,-611.8110448122025,0.0,0.0,3.348388329,0.011115900032715856,0.0,534.0,2.75,562.5,611.8110448122025,0.0,0.25,1.6101072570000001,0.011155500032832406,0.0,-0.6600000262260437,-2.369999885559082,0.8700000047683716,-0.139404296875,-0.01763916015625,1.01708984375,35.47999954223633,0.0,-97.0,-0.087738037109375,-0.0109405517578125,Waiting,0.0,0.0,0.0,0.0,0.0,0.0,0.0,0.0,
2.6214310000000043,0.0,0.0,-548.0,1.25,-645.0,-611.8110448122025,0.0,0.125,0.838622961,0.011919606648660234,0.0,519.0,2.375,607.5,611.8110448122025,0.0,0.125,0.5029296360000001,0.011995777565744364,0.0,-376.0,4.125,-555.0,-611.8110448122025,0.0,0.0,3.349609032,0.011939300065434833,0.0,534.0,2.5,577.5,611.8110448122025,0.0,0.25,1.6064451480000002,0.011981833399001275,0.0,-0.6299999952316284,-2.4200000762939453,0.9800000190734863,-0.05682373046875,-0.10101318359375,1.13092041015625,35.47999954223633,0.0,-10.0,-0.0881195068359375,-0.010986328125,Waiting,0.0,0.0,0.0,0.0,0.0,0.0,0.0,0.0,
2.640117000000006,0.0,0.0,-548.0,0.75,-660.0,-611.8110448122023,0.0,0.125,0.838622961,0.013426683539094724,-0.0012207029999999897,519.0,2.25,615.0,611.8110448122023,0.0,0.125,0.507812448,0.013512485262986863,0.0012207029999995456,-376.0,3.875,-555.0,-611.8110448122023,0.0,0.0,3.348388329,0.013448866928415357,0.0,534.0,2.25,600.0,611.8110448122023,0.0,0.25,1.6101072570000001,0.01349677804045894,0.003662109000000413,-0.6899999976158142,-2.4600000381469727,1.0199999809265137,-0.024658203125,0.0343017578125,1.0880126953125,35.47999954223633,0.0,22.0,-0.08831787109375,-0.0110626220703125,Waiting,0.0,0.0,0.0,0.0,0.0,0.0,0.0,0.0,
2.6606630000000004,0.0,0.0,-548.0,0.75,-660.0,-611.8110448122025,0.0,0.125,0.838622961,0.01397471090534349,0.0,519.0,2.125,630.0,611.8110448122025,0.0,0.125,0.5041503390000001,0.014064014737006867,-0.0012207029999995456,-376.0,3.75,-547.5,-611.8110448122025,0.0,0.0,3.348388329,0.01399779973824507,0.0,534.0,2.25,615.0,611.8110448122025,0.0,0.25,1.616210772,0.014047666403979243,0.0,-0.6899999976158142,-2.440000057220459,1.059999942779541,0.00787353515625,-0.0091552734375,0.9822998046875,35.47999954223633,0.0,49.0,-0.0884552001953125,-0.0111083984375,Waiting,0.0,0.0,0.0,0.0,0.0,0.0,0.0,0.0,
2.680297000000006,0.0,0.0,-548.0,0.75,-675.0,-611.8110448122025,0.0,0.125,0.838622961,0.014522738271593037,0.0,519.0,2.125,630.0,611.8110448122025,0.0,0.125,0.506591745,0.014615544211027655,0.0,-376.0,3.75,-532.5,-611.8110448122025,0.0,0.0,3.347167626,0.014546732548075562,0.0012207030000004337,534.0,2.125,630.0,611.8110448122025,0.0,0.125,1.619872881,0.01459855476750033,0.0,-0.6499999761581421,-2.359999895095825,1.100000023841858,0.0155029296875,-0.1026611328125,0.9783935546875,35.47999954223633,0.0,54.0,-0.088531494140625,-0.0112152099609375,Waiting,0.0,0.0,0.0,0.0,0.0,0.0,0.0,0.0,
2.700204000000005,0.0,0.0,-659.0,0.625,-682.5,-611.8110448122025,0.0,0.125,0.838622961,0.015618794637340951,-0.0012207029999999897,626.0,2.0,645.0,611.8110448122025,0.0,0.125,0.510253854,0.01571860480275515,0.0,-460.0,3.75,-532.5,-611.8110448122025,0.0,0.0,3.347167626,0.015644599803683802,-0.0012207030000004337,639.0,2.125,645.0,611.8110448122025,0.0,0.125,1.643066238,0.015700333136317766,0.0024414059999999793,-0.699999988079071,-2.4100000858306885,1.190000057220459,-0.01678466796875,-0.02691650390625,1.13189697265625,35.47999954223633,0.0,30.0,-0.0885009765625,-0.0115814208984375,Waiting,0.0,0.0,0.0,0.0,0.0,0.0,0.0,0.0,
2.721208000000006,0.0,0.0,-659.0,0.625,-690.0,-562.2047066688538,0.0,0.125,0.8422850700000001,0.016303830478402292,0.0,626.0,1.75,652.5,562.2047066688538,0.0,0.125,0.506591745,0.01640801828896764,0.0,-460.0,3.875,-525.0,-562.2047066688538,0.0,0.0,3.348388329,0.016330767451919758,0.0,639.0,1.875,652.5,562.2047066688538,0.0,0.125,1.638183426,0.016388945232494973,0.0,-0.699999988079071,-2.440000057220459,1.2400000095367432,-0.02313232421875,-0.0062255859375,1.1097412109375,35.47999954223633,0.0,24.0,-0.088409423828125,-0.0115814208984375,Waiting,0.0,0.0,0.0,0.0,0.0,0.0,0.0,0.0,
2.740351000000002,0.0,0.0,-659.0,0.625,-690.0,-512.5984311103821,0.0,0.125,0.838622961,0.01698886468621247,0.0,626.0,1.5,667.5,512.5984311103821,0.0,0.125,0.507812448,0.017097430131491863,0.0,-460.0,3.875,-525.0,-512.5984311103821,0.0,0.0,3.349609032,0.01701693346420612,0.0,639.0,1.625,660.0,512.5984311103821,0.0,0.125,1.639404129,0.01707755568689457,0.004882811999999959,-0.7300000190734863,-2.380000114440918,1.2699999809265137,-0.0570068359375,-0.0478515625,0.9163818359375,35.47999954223633,0.0,-19.0,-0.0883331298828125,-0.0116119384765625,Waiting,0.0,0.0,0.0,0.0,0.0,0.0,0.0,0.0,
2.760165000000001,0.0,0.0,-659.0,0.375,-697.5,-446.45669907331467,0.0,0.125,0.838622961,0.017947912577147812,0.0,626.0,1.375,675.0,446.45669907331467,0.0,0.125,0.506591745,0.01806260671102687,0.0,-460.0,3.75,-525.0,-446.45669907331467,0.0,0.0,3.348388329,0.017977565881408114,0.0,639.0,1.625,660.0,446.45669907331467,0.0,0.125,1.639404129,0.018041610323055103,0.0,-0.7599999904632568,-2.359999895095825,1.340000033378601,0.0052490234375,0.0479736328125,1.03826904296875,35.47999954223633,0.0,49.0,-0.0882568359375,-0.01171875,Waiting,0.0,0.0,0.0,0.0,0.0,0.0,0.0,0.0,
