Time,ClimberA1,ClimberA2,FRpos,FRCurrent,FRspeed,FRsetpoint,FRApos,FRACurrent,FREncpos,FREncSetpoint,FREncSpeed,FLpos,FLCurrent,FLspeed,FLsetpoint,FLApos,FLACurrent,FLEncpos,FLEncSetpoint,FLEncSpeed,BRpos,BRCurrent,BRspeed,BRsetpoint,BRApos,BRACurrent,BREncpos,BREncSetpoint,BREncSpeed,BLpos,BLCurrent,BLspeed,BLsetpoint,BLApos,BLACurrent,BLEncpos,BLEncSetpoint,BLEncSpeed,navx_Pitch,navx_Roll,navx_Yaw,navx_XAcc,navx_YAcc,navx_ZAcc,navx_Temp,navx_Bar,navx_Alt,navx_XDis,navx_YDis,GearPlacerState,ShootOutputV,ShootOutputCurrent,ShootEncPos,ShootEncVelocity,ShootSpeed,ShootSetpoint,CarouselSetpoint,CarouselCurrent,
0.1451909999999916,0.0,0.0,29953.0,0.0,0.0,0.0,0.0,0.5,1.1608885530000002,0.01,0.0,-27205.0,0.0,0.0,-0.0,0.0,0.5,2.2192380540000003,0.01,0.0,22494.0,0.0,0.0,0.0,0.0,0.125,3.8989253820000003,0.01,0.0,-14925.0,0.125,0.0,-0.0,0.0,0.625,1.777343568,0.01,0.0,-0.41999998688697815,-0.9599999785423279,0.0,-0.01641845703125,-0.00640869140625,1.021240234375,35.56999969482422,0.0,0.0,-4.8950958251953125,2.11212158203125,Opening,0.0,0.0,0.0,0.0,0.0,0.0,0.0,0.0,
0.23255800000001908,0.0,0.0,29953.0,0.0,0.0,0.0,0.0,0.75,1.064453016,0.01,0.0,-27205.0,0.0,0.0,-0.0,0.0,9.0,1.992187296,0.01,0.0,22494.0,0.0,0.0,0.0,0.0,1.875,3.7329097740000003,0.01,0.0,-14925.0,0.125,0.0,-0.0,0.0,0.5,1.722411933,0.01,0.0,-0.4399999976158142,-0.9800000190734863,0.0,-0.01580810546875,-0.00555419921875,1.00701904296875,35.540000915527344,0.0,1.0,-4.8951873779296875,2.1120452880859375,Opening,0.0,0.0,0.0,0.0,0.0,0.0,0.0,0.0,
0.32360399999999206,0.0,0.0,29953.0,0.0,0.0,0.0,0.0,0.375,0.888671784,0.01,-0.10620116100000021,-27205.0,0.0,0.0,-0.0,0.0,1.125,1.331786973,0.01,-0.2526855210000001,22494.0,0.0,0.0,0.0,0.0,0.25,3.4216305090000003,0.01,-0.1684570139999999,-14923.0,0.125,7.5,-0.0,0.0,0.25,1.6882322490000001,0.01,0.0,-0.4300000071525574,-0.9800000190734863,-0.03999999910593033,0.01507568359375,0.01513671875,1.02703857421875,35.540000915527344,0.0,32.0,-4.8950653076171875,2.1123504638671875,Opening,0.0,0.0,0.0,0.0,0.0,0.0,0.0,0.0,
0.41053100000001724,0.0,0.0,29953.0,0.0,0.0,0.0,0.0,0.375,0.7751464050000001,0.01,-0.1806640439999999,-27205.0,0.0,0.0,-0.0,0.0,1.125,0.666503838,0.01,-0.7067870369999998,22494.0,0.0,0.0,0.0,0.0,0.25,3.248290683,0.01,-0.3332519190000003,-14923.0,0.125,7.5,-0.0,0.0,0.25,1.645507644,0.01,-0.03417968399999993,-0.4099999964237213,-0.9800000190734863,-0.07000000029802322,-0.0211181640625,-0.02081298828125,1.00592041015625,35.540000915527344,0.0,-3.0,-4.894805908203125,2.113037109375,Opening,0.0,0.0,0.0,0.0,0.0,0.0,0.0,0.0,
0.4938859999999986,0.0,0.0,29953.0,0.0,0.0,0.0,0.0,0.25,0.797119059,0.01,0.0,-27205.0,0.0,0.0,-0.0,0.0,0.25,0.45288081300000005,0.01,0.0,22494.0,0.0,0.0,0.0,0.0,0.0,3.297118803,0.01,0.0,-14922.0,0.125,0.0,-0.0,0.0,0.25,1.639404129,0.01,0.0,-0.41999998688697815,-0.9200000166893005,-0.07999999821186066,-0.00390625,0.0147705078125,0.989013671875,35.540000915527344,0.0,12.0,-4.894744873046875,2.1129302978515625,Opening,0.0,0.0,0.0,0.0,0.0,0.0,0.0,0.0,
0.5867880000000004,0.0,0.0,29953.0,0.0,0.0,0.0,0.0,0.125,0.8154296040000001,0.01,0.0,-27205.0,0.0,0.0,-0.0,0.0,0.25,0.456542922,0.01,0.0,22494.0,0.0,-7.5,0.0,0.0,0.125,3.334960596,0.01,0.0,-14922.0,0.125,0.0,-0.0,0.0,0.125,1.639404129,0.01,0.0,-0.4099999964237213,-0.949999988079071,-0.07000000029802322,-0.01995849609375,-0.02728271484375,0.98492431640625,35.540000915527344,0.0,-3.0,-4.8948516845703125,2.113006591796875,Opening,0.0,0.0,0.0,0.0,0.0,0.0,0.0,0.0,
0.6728450000000302,0.0,0.0,29953.0,0.0,0.0,0.0,0.0,0.125,0.8154296040000001,0.01,0.013427732999999442,-27205.0,0.0,0.0,-0.0,0.0,0.25,0.506591745,0.01,0.0,22493.0,0.0,0.0,0.0,0.0,0.0,3.343505517,0.01,0.0,-14922.0,0.125,0.0,-0.0,0.0,0.125,1.640624832,0.01,0.0,-0.4000000059604645,-0.9300000071525574,-0.07000000029802322,-0.00750732421875,-0.0081787109375,1.00799560546875,35.52000045776367,0.0,9.0,-4.8948516845703125,2.112945556640625,Opening,0.0,0.0,0.0,0.0,0.0,0.0,0.0,0.0,
0.7616390000000247,0.0,0.0,29953.0,0.0,0.0,0.0,0.0,0.125,0.8154296040000001,0.01,0.0,-27205.0,0.0,0.0,-0.0,0.0,0.125,0.535888617,0.01,0.04272460500000008,22493.0,0.0,0.0,0.0,0.0,0.0,3.34472622,0.01,0.009765623999999917,-14922.0,0.125,0.0,-0.0,0.0,0.125,1.641845535,0.01,0.0,-0.4000000059604645,-0.949999988079071,-0.07000000029802322,-0.02972412109375,-0.00335693359375,1.03631591796875,35.52000045776367,0.0,-12.0,-4.8948516845703125,2.112945556640625,Opening,0.0,0.0,0.0,0.0,0.0,0.0,0.0,0.0,
0.851179999999993,0.0,0.0,29953.0,0.0,0.0,0.0,0.0,0.125,0.8154296040000001,0.01,0.0,-27205.0,0.0,0.0,-0.0,0.0,0.125,0.535888617,0.01,0.0,22493.0,0.0,0.0,0.0,0.0,0.0,3.34472622,0.01,0.0,-14922.0,0.125,0.0,-0.0,0.0,0.125,1.640624832,0.01,0.0,-0.4099999964237213,-0.9399999976158142,-0.07000000029802322,-0.014892578125,-0.00726318359375,1.01361083984375,35.52000045776367,0.0,1.0,-4.8948516845703125,2.112945556640625,Opening,0.0,0.0,0.0,0.0,0.0,0.0,0.0,0.0,
0.9337629999999771,0.0,0.0,29953.0,0.0,0.0,0.0,0.0,0.125,0.8154296040000001,0.01,0.0,-27205.0,0.0,0.0,-0.0,0.0,0.125,0.535888617,0.01,0.0,22493.0,0.0,0.0,0.0,0.0,0.0,3.343505517,0.01,0.0,-14922.0,0.125,0.0,-0.0,0.0,0.125,1.641845535,0.01,0.0,-0.4000000059604645,-0.9399999976158142,-0.07000000029802322,-0.016845703125,-0.010498046875,1.02557373046875,35.52000045776367,0.0,0.0,-4.8948516845703125,2.112945556640625,Opening,0.0,0.0,0.0,0.0,0.0,0.0,0.0,0.0,
1.0231230000000213,0.0,0.0,29953.0,0.0,0.0,0.0,0.0,0.125,0.8154296040000001,0.01,0.0,-27205.0,0.0,0.0,-0.0,0.0,0.125,0.534667914,0.01,0.0,22493.0,0.0,0.0,0.0,0.0,0.0,3.34472622,0.01,0.0,-14922.0,0.125,0.0,-0.0,0.0,0.125,1.640624832,0.01,0.0,-0.4000000059604645,-0.9300000071525574,-0.07000000029802322,-0.02069091796875,-0.00396728515625,1.017578125,35.52000045776367,0.0,-4.0,-4.8948516845703125,2.112945556640625,Opening,0.0,0.0,0.0,0.0,0.0,0.0,0.0,0.0,
1.1107370000000227,0.0,0.0,29953.0,0.0,0.0,0.0,0.0,0.125,0.8154296040000001,0.01,0.0,-27205.0,0.0,0.0,-0.0,0.0,0.125,0.534667914,0.01,0.0,22493.0,0.0,0.0,0.0,0.0,0.0,3.34472622,0.01,0.0,-14922.0,0.125,0.0,-0.0,0.0,0.125,1.640624832,0.01,0.0,-0.4000000059604645,-0.9399999976158142,-0.07000000029802322,-0.01177978515625,-0.00872802734375,1.02496337890625,35.52000045776367,0.0,5.0,-4.8948516845703125,2.112945556640625,Opening,0.0,0.0,0.0,0.0,0.0,0.0,0.0,0.0,
1.194204000000027,0.0,0.0,29953.0,0.0,0.0,0.0,0.0,0.125,0.8154296040000001,0.01,0.0,-27205.0,0.0,0.0,-0.0,0.0,0.125,0.535888617,0.01,0.0,22493.0,0.0,0.0,0.0,0.0,0.0,3.343505517,0.01,0.0,-14922.0,0.125,0.0,-0.0,0.0,0.125,1.640624832,0.01,0.0,-0.38999998569488525,-0.9399999976158142,-0.07000000029802322,-0.02069091796875,-0.00634765625,1.0174560546875,35.560001373291016,0.0,-3.0,-4.8948516845703125,2.112945556640625,Opening,0.0,0.0,0.0,0.0,0.0,0.0,0.0,0.0,
1.2876159999999799,0.0,0.0,29953.0,0.125,-15.0,-314.17323499917984,0.0,0.25,0.8154296040000001,4.932250999999998,0.0,-27201.0,0.5,0.0,314.17323499917984,0.0,0.25,0.535888617,4.963769999999998,0.0,22493.0,0.375,0.0,-314.17323499917984,0.0,0.0,3.348388329,0.01,0.0,-14916.0,0.5,30.0,314.17323499917984,0.0,0.125,1.640624832,0.01,0.0,-0.38999998569488525,-0.9399999976158142,-0.07000000029802322,-0.015869140625,-0.00909423828125,1.01953125,35.560001373291016,0.0,0.0,-4.8948516845703125,2.112945556640625,Opening,0.0,0.0,0.0,0.0,0.0,0.0,0.0,0.0,
1.3770659999999917,0.0,0.0,29936.0,1.25,-105.0,-628.3464699983597,0.0,0.125,0.819091713,4.932250999999998,0.0,-27201.0,2.0,142.5,628.3464699983597,0.0,0.25,0.534667914,4.963769999999998,0.0,22488.0,1.5,-60.0,-628.3464699983597,0.0,0.0,3.3728023890000003,0.01,0.0,-14916.0,1.75,142.5,628.3464699983597,0.0,0.125,1.6296385050000002,0.01,0.0,-0.4699999988079071,-1.25,-0.10000000149011612,-0.02801513671875,0.01593017578125,1.2698974609375,35.560001373291016,0.0,0.0,-4.8955078125,2.112579345703125,Opening,0.0,0.0,0.0,0.0,0.0,0.0,0.0,0.0,
1.4683209999999962,0.0,0.0,29920.0,2.5,-90.0,-628.3464699983597,0.0,0.125,0.8154296040000001,4.932250999999998,0.0,-27172.0,2.75,157.5,628.3464699983597,0.0,0.25,0.526122993,4.963769999999998,0.0,22478.0,2.875,-60.0,-628.3464699983597,0.0,0.0,3.3740230920000003,0.01,0.0,-14893.0,2.625,127.5,628.3464699983597,0.0,0.125,1.639404129,0.01,0.0,-0.49000000953674316,-1.5399999618530273,-0.15000000596046448,-0.12017822265625,-0.038330078125,0.9508056640625,35.560001373291016,0.0,-94.0,-4.899261474609375,2.1121673583984375,Opening,0.0,0.0,0.0,0.0,0.0,0.0,0.0,0.0,
1.5570970000000088,0.0,0.0,29920.0,0.0,-120.0,0.0,0.0,0.125,0.8154296040000001,4.932250999999998,0.0,-27153.0,0.0,120.0,0.0,0.0,0.25,0.531005805,4.963769999999998,-0.009765623999999917,22474.0,0.125,-22.5,0.0,0.0,0.0,3.3728023890000003,0.01,0.0,-14869.0,0.75,142.5,0.0,0.0,0.125,1.640624832,0.01,-0.004882811999999959,-0.4099999964237213,-1.5700000524520874,-0.10000000149011612,0.0103759765625,-0.047119140625,1.17388916015625,35.560001373291016,0.0,42.0,-4.90606689453125,2.1122283935546875,Opening,0.0,0.0,0.0,0.0,0.0,0.0,0.0,0.0,
1.6414959999999845,0.0,0.0,29911.0,0.0,-15.0,0.0,0.0,0.125,0.8154296040000001,4.932250999999998,0.0,-27153.0,0.0,30.0,0.0,0.0,0.125,0.531005805,4.963769999999998,0.0,22474.0,0.0,0.0,0.0,0.0,0.0,3.3728023890000003,0.01,0.0,-14861.0,0.125,30.0,0.0,0.0,0.125,1.645507644,0.01,0.0,-0.3700000047683716,-1.1799999475479126,-0.17000000178813934,0.14227294921875,0.0220947265625,0.88507080078125,35.560001373291016,0.0,160.0,-4.9102020263671875,2.11273193359375,Opening,0.0,0.0,0.0,0.0,0.0,0.0,0.0,0.0,
1.729933000000019,0.0,0.0,29896.0,0.0,-105.0,0.0,0.0,0.125,0.8154296040000001,4.932250999999998,0.0,-27141.0,0.0,82.5,0.0,0.0,0.125,0.531005805,4.963769999999998,0.0,22470.0,0.0,-30.0,0.0,0.0,0.0,3.3740230920000003,0.01,0.0,-14861.0,0.125,75.0,0.0,0.0,0.25,1.645507644,0.01,0.0,-0.3799999952316284,-0.8600000143051147,-0.12999999523162842,0.0731201171875,0.0115966796875,1.01190185546875,35.54999923706055,0.0,88.0,-4.9092864990234375,2.1130828857421875,Opening,0.0,0.0,0.0,0.0,0.0,0.0,0.0,0.0,
1.8141030000000027,0.0,0.0,29896.0,0.0,-7.5,0.0,0.0,0.125,0.8166503070000001,4.932250999999998,0.0,-27140.0,0.0,0.0,0.0,0.0,0.125,0.531005805,4.963769999999998,0.0,22468.0,0.0,-15.0,0.0,0.0,0.0,3.3740230920000003,0.01,0.0,-14856.0,0.125,7.5,0.0,0.0,0.25,1.645507644,0.01,0.0,-0.3499999940395355,-0.699999988079071,-0.14000000059604645,-0.01885986328125,0.010009765625,0.99365234375,35.54999923706055,0.0,-6.0,-4.9065093994140625,2.1131744384765625,Opening,0.0,0.0,0.0,0.0,0.0,0.0,0.0,0.0,
1.8976969999999855,0.0,0.0,29896.0,0.0,0.0,0.0,0.0,0.125,0.8154296040000001,4.932250999999998,0.0,-27140.0,0.0,0.0,0.0,0.0,0.125,0.5297851020000001,4.963769999999998,0.0,22468.0,0.0,0.0,0.0,0.0,0.0,3.3740230920000003,0.01,0.0,-14856.0,0.125,0.0,0.0,0.0,0.25,1.645507644,0.01,0.0,-0.3799999952316284,-0.8100000023841858,-0.14000000059604645,-0.0479736328125,-0.0145263671875,1.06658935546875,35.54999923706055,0.0,-32.0,-4.9069671630859375,2.1132354736328125,Opening,0.0,0.0,0.0,0.0,0.0,0.0,0.0,0.0,
1.9889259999999775,0.0,0.0,29896.0,0.0,0.0,0.0,0.0,0.125,0.8154296040000001,4.932250999999998,0.0,-27140.0,0.0,0.0,0.0,0.0,0.125,0.531005805,4.963769999999998,0.0,22468.0,0.0,0.0,0.0,0.0,0.0,3.3740230920000003,0.01,0.0,-14856.0,0.125,0.0,0.0,0.0,0.25,1.644286941,0.01,0.0,-0.3700000047683716,-0.8899999856948853,-0.10999999940395355,-0.03131103515625,-0.0079345703125,0.982421875,35.54999923706055,0.0,-15.0,-4.908660888671875,2.1132354736328125,Opening,0.0,0.0,0.0,0.0,0.0,0.0,0.0,0.0,
2.075411000000022,0.0,0.0,29889.0,0.125,-37.5,-363.77954185009,0.0,0.125,0.809326089,4.932250999999998,0.0,-27140.0,0.5,0.0,363.77954185009,0.0,0.125,0.5297851020000001,4.963769999999998,0.0,22468.0,0.375,-15.0,-363.77954185009,0.0,0.0,3.3728023890000003,0.01,0.0,-14856.0,0.75,0.0,363.77954185009,0.0,0.25,1.645507644,0.01,0.0,-0.3799999952316284,-0.9399999976158142,-0.12999999523162842,-0.0177001953125,-0.00372314453125,1.0255126953125,35.54999923706055,0.0,0.0,-4.9090423583984375,2.1132354736328125,Opening,0.0,0.0,0.0,0.0,0.0,0.0,0.0,0.0,
2.162585000000021,0.0,0.0,29889.0,0.75,-135.0,-479.5275494456291,0.0,0.125,0.8154296040000001,4.932250999999998,0.0,-27118.0,1.0,127.5,479.5275494456291,0.0,0.125,0.526122993,4.963769999999998,0.0,22433.0,1.0,-202.5,-479.5275494456291,0.0,0.0,3.3789059040000002,0.01,0.0,-14841.0,1.25,112.5,479.5275494456291,0.0,0.25,1.644286941,0.01,0.0,-0.38999998569488525,-1.1399999856948853,-0.07000000029802322,-0.02685546875,-0.07098388671875,1.09912109375,35.54999923706055,0.0,-4.0,-4.910003662109375,2.11279296875,Opening,0.0,0.0,0.0,0.0,0.0,0.0,0.0,0.0,
2.2477280000000026,0.0,0.0,29871.0,1.625,-67.5,-479.5275494456291,0.0,0.125,0.8154296040000001,4.932250999999998,0.0,-27118.0,1.75,105.0,479.5275494456291,0.0,0.125,0.531005805,4.963769999999998,0.0,22433.0,1.0,-142.5,-479.5275494456291,0.0,0.125,3.3776852010000002,0.01,0.0,-14825.0,1.75,105.0,479.5275494456291,0.0,0.25,1.6357420200000001,0.01,0.0,-0.38999998569488525,-1.25,-0.12999999523162842,-0.043212890625,7.32421875E-4,0.986572265625,35.54999923706055,0.0,-21.0,-4.9137725830078125,2.1125335693359375,Opening,0.0,0.0,0.0,0.0,0.0,0.0,0.0,0.0,
2.3343649999999907,0.0,0.0,29851.0,2.25,-127.5,-496.06300592422485,0.0,0.125,0.8154296040000001,4.932250999999998,0.0,-27102.0,2.875,142.5,496.06300592422485,0.0,0.125,0.5175780720000001,4.963769999999998,0.0,22419.0,2.25,-82.5,-496.06300592422485,0.0,0.125,3.386230122,0.01,0.0,-14825.0,2.5,127.5,496.06300592422485,0.0,0.125,1.619872881,0.01,0.0,-0.41999998688697815,-1.5700000524520874,-0.11999999731779099,-0.08941650390625,-0.0360107421875,1.04229736328125,35.54999923706055,0.0,-60.0,-4.9204254150390625,2.1123809814453125,Opening,0.0,0.0,0.0,0.0,0.0,0.0,0.0,0.0,
2.423467000000004,0.0,0.0,29812.0,2.375,-217.5,-496.06300592422485,0.0,0.125,0.8178710100000001,4.932250999999998,0.0,-27070.0,3.25,232.5,496.06300592422485,0.0,0.125,0.505371042,4.963769999999998,0.0,22394.0,2.875,-157.5,-496.06300592422485,0.0,0.125,3.3789059040000002,0.01,0.0,-14796.0,2.875,225.0,496.06300592422485,0.0,0.125,1.621093584,0.01,0.0,-0.4099999964237213,-1.8300000429153442,-0.09000000357627869,-0.0970458984375,0.00592041015625,1.0118408203125,35.54999923706055,0.0,-64.0,-4.928924560546875,2.1122283935546875,Opening,0.0,0.0,0.0,0.0,0.0,0.0,0.0,0.0,
2.5153460000000196,0.0,0.0,29812.0,2.375,-345.0,-529.1338562965393,0.0,0.125,0.8166503070000001,4.932250999999998,0.0,-27014.0,3.25,330.0,529.1338562965393,0.0,0.125,0.511474557,4.963769999999998,0.0,22337.0,2.875,-292.5,-529.1338562965393,0.0,0.125,3.3789059040000002,0.01,0.0,-14746.0,3.0,322.5,529.1338562965393,0.0,0.125,1.616210772,0.01,0.0,-0.4399999976158142,-2.200000047683716,-0.05000000074505806,-0.05902099609375,0.028564453125,0.95556640625,35.54999923706055,0.0,-22.0,-4.9453125,2.1115875244140625,Opening,0.0,0.0,0.0,0.0,0.0,0.0,0.0,0.0,
2.60450900000002,0.0,0.0,29748.0,2.125,-435.0,-529.1338562965393,0.0,0.125,0.8154296040000001,4.932250999999998,0.0,-27014.0,2.625,427.5,529.1338562965393,0.0,0.0,0.511474557,4.963769999999998,0.0,22337.0,2.5,-427.5,-529.1338562965393,0.0,0.125,3.3789059040000002,0.01,0.0,-14676.0,2.625,412.5,529.1338562965393,0.0,0.125,1.616210772,0.01,0.0,-0.4000000059604645,-2.359999895095825,-0.009999999776482582,-0.05377197265625,0.02508544921875,0.93206787109375,35.54999923706055,0.0,-15.0,-4.9629058837890625,2.1110992431640625,Opening,0.0,0.0,0.0,0.0,0.0,0.0,0.0,0.0,
2.6905499999999885,0.0,0.0,29669.0,1.875,-495.0,-529.1338562965393,0.0,0.125,0.806884683,4.932250999999998,0.0,-26938.0,2.0,517.5,529.1338562965393,0.0,0.0,0.511474557,4.963769999999998,0.0,22261.0,2.25,-495.0,-529.1338562965393,0.0,0.125,3.3776852010000002,0.01,0.0,-14676.0,2.25,495.0,529.1338562965393,0.0,0.125,1.625976396,0.01,0.0,-0.3700000047683716,-2.4800000190734863,-0.05000000074505806,-0.03216552734375,0.01171875,1.0601806640625,35.54999923706055,0.0,13.0,-4.981964111328125,2.1114501953125,Opening,0.0,0.0,0.0,0.0,0.0,0.0,0.0,0.0,
2.779690000000002,0.0,0.0,29580.0,1.25,-540.0,-529.1338562965393,0.0,0.125,0.8154296040000001,4.932250999999998,0.0,-26849.0,1.5,562.5,529.1338562965393,0.0,0.0,0.509033151,4.963769999999998,0.0,22173.0,1.875,-540.0,-529.1338562965393,0.0,0.125,3.3764644980000003,0.01,0.0,-14590.0,1.875,555.0,529.1338562965393,0.0,0.125,1.640624832,0.01,0.0,-0.36000001430511475,-2.5199999809265137,-0.05999999865889549,-0.09490966796875,-0.02099609375,1.082763671875,35.540000915527344,0.0,-47.0,-5.00177001953125,2.1114959716796875,Opening,0.0,0.0,0.0,0.0,0.0,0.0,0.0,0.0,
2.8687669999999925,0.0,0.0,29580.0,1.0,-577.5,-529.1338562965393,0.0,0.125,0.8020018710000001,4.932250999999998,0.0,-26752.0,1.25,600.0,529.1338562965393,0.0,0.0,0.511474557,4.963769999999998,0.0,22173.0,1.5,-577.5,-529.1338562965393,0.0,0.125,3.3776852010000002,0.01,0.0,-14499.0,1.75,562.5,529.1338562965393,0.0,0.125,1.640624832,0.01,0.0,-0.38999998569488525,-2.450000047683716,-0.09000000357627869,-0.02264404296875,-0.00653076171875,1.05718994140625,35.540000915527344,0.0,22.0,-5.021270751953125,2.1112213134765625,Opening,0.0,0.0,0.0,0.0,0.0,0.0,0.0,0.0,
2.953097000000009,0.0,0.0,29487.0,0.75,-585.0,-529.1338562965393,0.0,0.125,0.8166503070000001,4.932250999999998,0.0,-26752.0,0.875,615.0,529.1338562965393,0.0,0.0,0.510253854,4.963769999999998,0.0,22080.0,1.25,-585.0,-529.1338562965393,0.0,0.125,3.3776852010000002,0.01,0.0,-14404.0,1.5,585.0,529.1338562965393,0.0,0.125,1.640624832,0.01,0.0,-0.3700000047683716,-2.369999885559082,-0.17000000178813934,-0.06390380859375,0.058837890625,1.04888916015625,35.540000915527344,0.0,-20.0,-5.036865234375,2.110992431640625,Opening,0.0,0.0,0.0,0.0,0.0,0.0,0.0,0.0,
3.0361520000000017,0.0,0.0,29392.0,0.625,-585.0,-529.1338562965393,0.0,0.125,0.8166503070000001,4.932250999999998,0.0,-26655.0,0.75,592.5,529.1338562965393,0.0,0.0,0.526122993,4.963769999999998,0.0,21986.0,1.0,-585.0,-529.1338562965393,0.0,0.125,3.3776852010000002,0.01,0.0,-14404.0,1.125,607.5,529.1338562965393,0.0,0.125,1.640624832,0.01,0.0,-0.41999998688697815,-2.2200000286102295,-0.20000000298023224,-0.0089111328125,-0.0172119140625,0.8975830078125,35.540000915527344,0.0,25.0,-5.0547637939453125,2.1112518310546875,Opening,0.0,0.0,0.0,0.0,0.0,0.0,0.0,0.0,
3.128533999999985,0.0,0.0,29392.0,0.625,-585.0,-529.1338562965393,0.0,0.125,0.8154296040000001,4.932250999999998,0.0,-26560.0,0.75,592.5,529.1338562965393,0.0,0.125,0.526122993,4.963769999999998,0.0,21891.0,0.875,-592.5,-529.1338562965393,0.0,0.125,3.3764644980000003,0.01,0.0,-14308.0,1.125,592.5,529.1338562965393,0.0,0.25,1.644286941,0.01,0.0,-0.38999998569488525,-2.1600000858306885,-0.17000000178813934,-0.00738525390625,-0.01220703125,1.030517578125,35.540000915527344,0.0,31.0,-5.06829833984375,2.111419677734375,Opening,0.0,0.0,0.0,0.0,0.0,0.0,0.0,0.0,
3.214686999999976,0.0,0.0,29299.0,0.625,-570.0,-529.1338562965393,0.0,0.125,0.8154296040000001,4.932250999999998,0.0,-26468.0,0.75,577.5,529.1338562965393,0.0,0.125,0.526122993,4.963769999999998,0.0,21891.0,0.875,-577.5,-529.1338562965393,0.0,0.125,3.3776852010000002,0.01,0.0,-14217.0,1.125,570.0,529.1338562965393,0.0,0.125,1.640624832,0.01,0.0,-0.4300000071525574,-2.0199999809265137,-0.15000000596046448,-0.00408935546875,-0.01068115234375,1.1123046875,35.540000915527344,0.0,35.0,-5.083343505859375,2.11114501953125,Opening,0.0,0.0,0.0,0.0,0.0,0.0,0.0,0.0,
3.307177000000025,0.0,0.0,29209.0,0.625,-562.5,-529.1338562965393,0.0,0.125,0.8166503070000001,4.932250999999998,0.0,-26468.0,0.75,562.5,529.1338562965393,0.0,0.125,0.526122993,4.963769999999998,0.0,21799.0,0.875,-562.5,-529.1338562965393,0.0,0.125,3.3789059040000002,0.01,0.0,-14217.0,1.125,555.0,529.1338562965393,0.0,0.125,1.644286941,0.01,0.0,-0.46000000834465027,-1.7799999713897705,-0.12999999523162842,-0.00579833984375,0.04046630859375,0.87359619140625,35.529998779296875,0.0,21.0,-5.096893310546875,2.110748291015625,Opening,0.0,0.0,0.0,0.0,0.0,0.0,0.0,0.0,
3.394935999999987,0.0,0.0,29120.0,0.625,-555.0,-529.1338562965393,0.0,0.125,0.8154296040000001,4.932250999999998,0.0,-26380.0,0.75,532.5,529.1338562965393,0.0,0.125,0.531005805,4.963769999999998,0.0,21710.0,0.875,-547.5,-529.1338562965393,0.0,0.125,3.3776852010000002,0.01,0.0,-14128.0,1.25,540.0,529.1338562965393,0.0,0.125,1.645507644,0.01,0.0,-0.41999998688697815,-1.6799999475479126,-0.019999999552965164,0.0189208984375,0.03533935546875,1.02215576171875,35.529998779296875,0.0,48.0,-5.1103057861328125,2.1107330322265625,Opening,0.0,0.0,0.0,0.0,0.0,0.0,0.0,0.0,
3.4895580000000193,0.0,0.0,29120.0,0.625,-540.0,-529.1338562965393,0.0,0.125,0.8154296040000001,4.932250999999998,0.0,-26294.0,0.75,532.5,529.1338562965393,0.0,0.125,0.531005805,4.963769999999998,0.0,21624.0,0.875,-540.0,-529.1338562965393,0.0,0.125,3.3789059040000002,0.01,0.0,-14042.0,1.25,532.5,529.1338562965393,0.0,0.25,1.645507644,0.01,0.0,-0.4099999964237213,-1.559999942779541,-0.029999999329447746,0.00543212890625,0.02374267578125,1.09722900390625,35.529998779296875,0.0,35.0,-5.1206207275390625,2.1110992431640625,Opening,0.0,0.0,0.0,0.0,0.0,0.0,0.0,0.0,
3.576358999999997,0.0,0.0,29035.0,0.625,-525.0,-529.1338562965393,0.0,0.125,0.8154296040000001,4.932250999999998,0.0,-26211.0,0.875,517.5,529.1338562965393,0.0,0.125,0.532226508,4.963769999999998,0.0,21624.0,0.875,-525.0,-529.1338562965393,0.0,0.125,3.3789059040000002,0.01,0.0,-13959.0,1.25,510.0,529.1338562965393,0.0,0.25,1.645507644,0.01,0.0,-0.3799999952316284,-1.4800000190734863,-0.019999999552965164,-0.0538330078125,-0.0279541015625,1.00421142578125,35.529998779296875,0.0,-27.0,-5.1219635009765625,2.1112518310546875,Opening,0.0,0.0,0.0,0.0,0.0,0.0,0.0,0.0,
3.665809999999998,0.0,0.0,28949.0,0.625,-532.5,-529.1338562965393,0.0,0.125,0.8178710100000001,4.932250999999998,0.0,-26211.0,1.0,510.0,529.1338562965393,0.0,0.125,0.5297851020000001,4.963769999999998,0.0,21539.0,0.875,-532.5,-529.1338562965393,0.0,0.125,3.3789059040000002,0.01,0.0,-13959.0,1.5,502.5,529.1338562965393,0.0,0.25,1.645507644,0.01,0.0,-0.36000001430511475,-1.3799999952316284,0.07000000029802322,-0.02850341796875,-0.00323486328125,0.9462890625,35.529998779296875,0.0,-5.0,-5.1208953857421875,2.1110687255859375,Opening,0.0,0.0,0.0,0.0,0.0,0.0,0.0,0.0,
3.755489000000001,0.0,0.0,28867.0,0.625,-510.0,-529.1338562965393,0.0,0.125,0.8154296040000001,4.932250999999998,0.0,-26129.0,1.0,510.0,529.1338562965393,0.0,0.125,0.531005805,4.963769999999998,0.0,21457.0,1.0,-502.5,-529.1338562965393,0.0,0.125,3.3776852010000002,0.01,0.0,-13878.0,1.5,525.0,529.1338562965393,0.0,0.25,1.645507644,0.01,0.0,-0.3799999952316284,-1.340000033378601,0.029999999329447746,-0.01129150390625,-0.05889892578125,0.87457275390625,35.52000045776367,0.0,9.0,-5.120849609375,2.1112060546875,Opening,0.0,0.0,0.0,0.0,0.0,0.0,0.0,0.0,
3.847532999999996,0.0,0.0,28867.0,0.75,-517.5,-529.1338562965393,0.0,0.125,0.8142089010000001,4.932250999999998,0.0,-26048.0,1.125,502.5,529.1338562965393,0.0,0.125,0.531005805,4.963769999999998,0.0,21374.0,1.0,-510.0,-529.1338562965393,0.0,0.125,3.3789059040000002,0.01,0.0,-13793.0,1.5,510.0,529.1338562965393,0.0,0.25,1.646728347,0.01,0.0,-0.4399999976158142,-1.3700000047683716,0.09000000357627869,-0.03265380859375,0.02935791015625,0.952392578125,35.52000045776367,0.0,-9.0,-5.1207275390625,2.110809326171875,Opening,0.0,0.0,0.0,0.0,0.0,0.0,0.0,0.0,
3.9343830000000306,0.0,0.0,28786.0,0.75,-502.5,-529.1338562965393,0.0,0.125,0.8142089010000001,4.932250999999998,0.0,-25966.0,1.125,510.0,529.1338562965393,0.0,0.125,0.531005805,4.963769999999998,0.0,21374.0,1.0,-510.0,-529.1338562965393,0.0,0.125,3.3789059040000002,0.01,0.0,-13711.0,1.5,510.0,529.1338562965393,0.0,0.25,1.645507644,0.01,0.0,-0.4699999988079071,-1.3200000524520874,0.07999999821186066,0.01409912109375,0.02679443359375,0.9605712890625,35.52000045776367,0.0,36.0,-5.120635986328125,2.1102752685546875,Opening,0.0,0.0,0.0,0.0,0.0,0.0,0.0,0.0,
4.026129000000015,0.0,0.0,28703.0,0.75,-510.0,-529.1338562965393,0.0,0.125,0.8166503070000001,4.932250999999998,0.0,-25966.0,1.125,517.5,529.1338562965393,0.0,0.125,0.531005805,4.963769999999998,0.0,21292.0,1.0,-517.5,-529.1338562965393,0.0,0.125,3.3789059040000002,0.01,0.0,-13711.0,1.625,510.0,529.1338562965393,0.0,0.25,1.645507644,0.01,0.0,-0.46000000834465027,-1.2400000095367432,0.09000000357627869,-0.01885986328125,-0.0247802734375,0.92791748046875,35.52000045776367,0.0,1.0,-5.12017822265625,2.1100616455078125,Opening,0.0,0.0,0.0,0.0,0.0,0.0,0.0,0.0,
4.111989999999991,0.0,0.0,28620.0,0.75,-517.5,-529.1338562965393,0.0,0.125,0.798339762,4.932250999999998,0.0,-25882.0,1.0,525.0,529.1338562965393,0.0,0.125,0.531005805,4.963769999999998,0.0,21208.0,1.0,-517.5,-529.1338562965393,0.0,0.125,3.3789059040000002,0.01,0.0,-13627.0,1.5,525.0,529.1338562965393,0.0,0.25,1.651611159,0.01,0.0,-0.4300000071525574,-1.2200000286102295,0.10000000149011612,-0.0235595703125,-0.03704833984375,0.9764404296875,35.52000045776367,0.0,-2.0,-5.12017822265625,2.1100311279296875,Opening,0.0,0.0,0.0,0.0,0.0,0.0,0.0,0.0,
4.1955260000000125,0.0,0.0,28620.0,0.75,-525.0,-529.1338562965393,0.0,0.125,0.8154296040000001,4.932250999999998,0.0,-25797.0,1.0,525.0,529.1338562965393,0.0,0.125,0.52490229,4.963769999999998,0.0,21123.0,1.0,-525.0,-529.1338562965393,0.0,0.125,3.3776852010000002,0.01,0.0,-13542.0,1.5,532.5,529.1338562965393,0.0,0.25,1.646728347,0.01,0.0,-0.46000000834465027,-1.190000057220459,0.11999999731779099,0.01837158203125,-0.023193359375,1.04351806640625,35.52000045776367,0.0,40.0,-5.1202239990234375,2.1100921630859375,Opening,0.0,0.0,0.0,0.0,0.0,0.0,0.0,0.0,
4.286791000000027,0.0,0.0,28535.0,0.625,-532.5,-529.1338562965393,0.0,0.125,0.8154296040000001,4.932250999999998,0.0,-25797.0,1.0,525.0,529.1338562965393,0.0,0.125,0.526122993,4.963769999999998,0.0,21123.0,0.875,-540.0,-529.1338562965393,0.0,0.125,3.3776852010000002,0.01,0.0,-13459.0,1.5,525.0,529.1338562965393,0.0,0.25,1.645507644,0.01,0.0,-0.4699999988079071,-1.1100000143051147,0.17000000178813934,-0.01202392578125,-0.01275634765625,0.93853759765625,35.54999923706055,0.0,6.0,-5.1199798583984375,2.1099700927734375,Opening,0.0,0.0,0.0,0.0,0.0,0.0,0.0,0.0,
4.372141000000004,0.0,0.0,28449.0,0.625,-525.0,-529.1338562965393,0.0,0.125,0.8166503070000001,4.932250999999998,0.0,-25713.0,0.875,532.5,529.1338562965393,0.0,0.125,0.526122993,4.963769999999998,0.0,21035.0,0.875,-540.0,-529.1338562965393,0.0,0.125,3.3801266070000002,0.01,0.0,-13459.0,1.5,510.0,529.1338562965393,0.0,0.25,1.644286941,0.01,0.0,-0.47999998927116394,-1.0199999809265137,0.1599999964237213,-0.021728515625,-0.04095458984375,0.874267578125,35.54999923706055,0.0,-6.0,-5.119842529296875,2.1100921630859375,Opening,0.0,0.0,0.0,0.0,0.0,0.0,0.0,0.0,
4.455943000000028,0.0,0.0,28364.0,0.75,-525.0,-529.1338562965393,0.0,0.125,0.8166503070000001,4.932250999999998,0.0,-25627.0,0.875,532.5,529.1338562965393,0.0,0.125,0.526122993,4.963769999999998,0.0,20950.0,0.875,-532.5,-529.1338562965393,0.0,0.125,3.3789059040000002,0.01,0.0,-13376.0,1.5,525.0,529.1338562965393,0.0,0.25,1.644286941,0.01,0.0,-0.47999998927116394,-1.0299999713897705,0.14000000059604645,0.00286865234375,-0.06756591796875,0.98486328125,35.54999923706055,0.0,20.0,-5.1199188232421875,2.1103363037109375,Opening,0.0,0.0,0.0,0.0,0.0,0.0,0.0,0.0,
4.548164999999979,0.0,0.0,28364.0,0.625,-532.5,-529.1338562965393,0.0,0.125,0.8154296040000001,4.932250999999998,0.0,-25542.0,0.875,525.0,529.1338562965393,0.0,0.125,0.526122993,4.963769999999998,0.0,20863.0,0.875,-540.0,-529.1338562965393,0.0,0.125,3.3715816860000003,0.01,0.0,-13290.0,1.5,532.5,529.1338562965393,0.0,0.25,1.644286941,0.01,0.0,-0.49000000953674316,-1.0099999904632568,0.17000000178813934,-0.03570556640625,-0.0050048828125,1.1280517578125,35.54999923706055,0.0,-15.0,-5.1197967529296875,2.1103515625,Opening,0.0,0.0,0.0,0.0,0.0,0.0,0.0,0.0,
4.6348850000000095,0.0,0.0,28278.0,0.625,-540.0,-529.1338562965393,0.0,0.25,0.8142089010000001,4.932250999999998,0.0,-25542.0,0.875,525.0,529.1338562965393,0.0,0.125,0.532226508,4.963769999999998,0.0,20863.0,0.875,-532.5,-529.1338562965393,0.0,0.125,3.3776852010000002,0.01,0.0,-13205.0,1.5,532.5,529.1338562965393,0.0,0.25,1.645507644,0.01,0.0,-0.5199999809265137,-0.9800000190734863,0.18000000715255737,-0.020263671875,0.0240478515625,1.0311279296875,35.54999923706055,0.0,-2.0,-5.1198272705078125,2.10968017578125,Opening,0.0,0.0,0.0,0.0,0.0,0.0,0.0,0.0,
4.727630000000005,0.0,0.0,28191.0,0.625,-532.5,-529.1338562965393,0.0,0.125,0.8154296040000001,4.932250999999998,0.0,-25457.0,0.875,532.5,529.1338562965393,0.0,0.125,0.520019478,4.963769999999998,0.0,20777.0,0.875,-532.5,-529.1338562965393,0.0,0.125,3.3776852010000002,0.01,0.0,-13205.0,1.5,517.5,529.1338562965393,0.0,0.25,1.645507644,0.01,0.0,-0.5,-0.9200000166893005,0.1899999976158142,0.0152587890625,-0.03338623046875,1.11663818359375,35.54999923706055,0.0,33.0,-5.1191864013671875,2.109100341796875,Opening,0.0,0.0,0.0,0.0,0.0,0.0,0.0,0.0,
4.8137179999999935,0.0,0.0,28106.0,0.625,-532.5,-529.1338562965393,0.0,0.125,0.8154296040000001,4.932250999999998,0.0,-25372.0,1.0,525.0,529.1338562965393,0.0,0.125,0.5297851020000001,4.963769999999998,0.0,20692.0,0.875,-525.0,-529.1338562965393,0.0,0.125,3.3776852010000002,0.01,0.0,-13121.0,1.625,517.5,529.1338562965393,0.0,0.25,1.644286941,0.01,0.0,-0.5,-0.8700000047683716,0.20999999344348907,-0.0611572265625,-2.44140625E-4,0.95684814453125,35.54999923706055,0.0,-46.0,-5.1184844970703125,2.10858154296875,Opening,0.0,0.0,0.0,0.0,0.0,0.0,0.0,0.0,
4.903015000000014,0.0,0.0,28106.0,0.625,-525.0,-529.1338562965393,0.0,0.125,0.809326089,4.932250999999998,0.0,-25289.0,1.0,510.0,529.1338562965393,0.0,0.125,0.520019478,4.963769999999998,0.0,20692.0,0.875,-532.5,-529.1338562965393,0.0,0.125,3.3776852010000002,0.01,0.0,-13037.0,1.5,525.0,529.1338562965393,0.0,0.25,1.645507644,0.01,0.0,-0.46000000834465027,-0.8600000143051147,0.20999999344348907,-0.00543212890625,-0.0689697265625,0.89910888671875,35.54999923706055,0.0,7.0,-5.1185150146484375,2.108245849609375,Opening,0.0,0.0,0.0,0.0,0.0,0.0,0.0,0.0,
4.994697999999975,0.0,0.0,28022.0,0.0,-457.5,0.0,0.0,0.125,0.8154296040000001,4.932250999999998,0.0,-25289.0,0.25,480.0,0.0,0.0,0.125,0.526122993,4.963769999999998,0.0,20606.0,0.0,-495.0,0.0,0.0,0.125,3.3728023890000003,0.01,0.0,-12982.0,0.125,450.0,0.0,0.0,0.25,1.645507644,0.01,0.0,-0.5,-0.7900000214576721,0.23999999463558197,0.0242919921875,0.07757568359375,1.1497802734375,35.54999923706055,0.0,40.0,-5.1179046630859375,2.1082000732421875,Opening,0.0,0.0,0.0,0.0,0.0,0.0,0.0,0.0,
5.085041000000026,0.0,0.0,27969.0,0.0,-307.5,0.0,0.0,0.125,0.8166503070000001,4.932250999999998,0.0012207029999995456,-25236.0,0.0,315.0,0.0,0.0,0.125,0.531005805,4.963769999999998,-0.0024414059999999793,20550.0,0.0,-292.5,0.0,0.0,0.0,3.3776852010000002,0.01,0.0,-12982.0,0.125,352.5,0.0,0.0,0.25,1.645507644,0.01,0.0,-0.44999998807907104,-0.28999999165534973,0.17000000178813934,0.0748291015625,-0.04498291015625,1.239501953125,35.54999923706055,0.0,80.0,-5.1102752685546875,2.10821533203125,Opening,0.0,0.0,0.0,0.0,0.0,0.0,0.0,0.0,
5.17243200000003,0.0,0.0,27969.0,0.0,-367.5,0.0,0.0,0.125,0.8154296040000001,4.932250999999998,0.0,-25177.0,0.0,300.0,0.0,0.0,0.125,0.531005805,4.963769999999998,0.004882811999999959,20504.0,0.0,-285.0,0.0,0.0,0.125,3.3740230920000003,0.01,0.004882811999999959,-12923.0,0.125,255.0,0.0,0.0,0.25,1.645507644,0.01,0.0,-0.49000000953674316,0.12999999523162842,0.20999999344348907,0.11016845703125,0.01611328125,0.9849853515625,35.54999923706055,0.0,107.0,-5.097198486328125,2.108123779296875,Opening,0.0,0.0,0.0,0.0,0.0,0.0,0.0,0.0,
5.257277000000002,0.0,0.0,27930.0,0.0,-157.5,0.0,0.0,0.125,0.8154296040000001,4.932250999999998,0.0,-25148.0,0.0,195.0,0.0,0.0,0.125,0.531005805,4.963769999999998,0.0,20504.0,0.0,-187.5,0.0,0.0,0.0,3.3728023890000003,0.01,0.0,-12889.0,0.125,187.5,0.0,0.0,0.25,1.649169753,0.01,0.0,-0.4300000071525574,0.44999998807907104,0.18000000715255737,0.09893798828125,0.02874755859375,1.1365966796875,35.56999969482422,0.0,89.0,-5.07977294921875,2.1085205078125,Opening,0.0,0.0,0.0,0.0,0.0,0.0,0.0,0.0,
5.348949000000022,0.0,0.0,27908.0,0.0,-67.5,0.0,0.0,0.125,0.8154296040000001,4.932250999999998,0.0,-25148.0,0.0,82.5,0.0,0.0,0.125,0.5297851020000001,4.963769999999998,0.0,20483.0,0.0,-60.0,0.0,0.0,0.0,3.3740230920000003,0.01,0.0,-12881.0,0.125,82.5,0.0,0.0,0.25,1.649169753,0.01,0.0,-0.4000000059604645,0.8399999737739563,0.14000000059604645,0.10845947265625,0.00439453125,1.00750732421875,35.56999969482422,0.0,93.0,-5.0579681396484375,2.1088409423828125,Opening,0.0,0.0,0.0,0.0,0.0,0.0,0.0,0.0,
5.441265000000014,0.0,0.0,27908.0,0.0,0.0,0.0,0.0,0.125,0.8154296040000001,4.932250999999998,0.0,-25142.0,0.0,0.0,0.0,0.0,0.125,0.531005805,4.963769999999998,0.0,20480.0,0.0,0.0,0.0,0.0,0.0,3.3740230920000003,0.01,0.0,-12881.0,0.125,0.0,0.0,0.0,0.25,1.644286941,0.01,0.0,-0.4099999964237213,0.800000011920929,0.20000000298023224,-0.02099609375,-0.004150390625,0.99212646484375,35.56999969482422,0.0,-34.0,-5.0460968017578125,2.108734130859375,Opening,0.0,0.0,0.0,0.0,0.0,0.0,0.0,0.0,
5.532918000000005,0.0,0.0,27908.0,0.0,0.0,0.0,0.0,0.125,0.8166503070000001,4.932250999999998,0.0,-25142.0,0.0,0.0,0.0,0.0,0.125,0.531005805,4.963769999999998,0.0012207029999995456,20480.0,0.0,0.0,0.0,0.0,0.0,3.3728023890000003,0.01,0.0,-12881.0,0.125,0.0,0.0,0.0,0.25,1.650390456,0.01,0.0,-0.38999998569488525,0.6000000238418579,0.20000000298023224,-0.0433349609375,-0.00775146484375,1.02642822265625,35.56999969482422,0.0,-54.0,-5.0483551025390625,2.108734130859375,Opening,0.0,0.0,0.0,0.0,0.0,0.0,0.0,0.0,
5.625851000000024,0.0,0.0,27908.0,0.0,0.0,0.0,0.0,0.125,0.8166503070000001,4.932250999999998,0.0,-25142.0,0.0,0.0,0.0,0.0,0.125,0.531005805,4.963769999999998,0.0,20480.0,0.0,0.0,0.0,0.0,0.0,3.3728023890000003,0.01,0.0,-12881.0,0.125,0.0,0.0,0.0,0.25,1.650390456,0.01,0.0,-0.4099999964237213,0.41999998688697815,0.18000000715255737,-0.02484130859375,-0.01080322265625,1.01800537109375,35.56999969482422,0.0,-32.0,-5.052947998046875,2.108734130859375,Opening,0.0,0.0,0.0,0.0,0.0,0.0,0.0,0.0,
5.716205000000016,0.0,0.0,27908.0,0.0,0.0,0.0,0.0,0.125,0.8154296040000001,4.932250999999998,0.0,-25142.0,0.0,0.0,0.0,0.0,0.125,0.5297851020000001,4.963769999999998,-0.0024414059999999793,20480.0,0.0,0.0,0.0,0.0,0.0,3.3728023890000003,0.01,0.0,-12881.0,0.125,0.0,0.0,0.0,0.25,1.650390456,0.01,0.0,-0.4099999964237213,0.36000001430511475,0.20999999344348907,-0.00262451171875,-0.00531005859375,1.01300048828125,35.56999969482422,0.0,-9.0,-5.0578460693359375,2.108734130859375,Opening,0.0,0.0,0.0,0.0,0.0,0.0,0.0,0.0,
5.811276000000013,0.0,0.0,27908.0,0.0,0.0,0.0,0.0,0.125,0.8154296040000001,4.932250999999998,0.0,-25142.0,0.0,0.0,0.0,0.0,0.125,0.531005805,4.963769999999998,0.0,20480.0,0.0,0.0,0.0,0.0,0.0,3.3740230920000003,0.01,0.0,-12881.0,0.125,0.0,0.0,0.0,0.25,1.644286941,0.01,0.0,-0.4099999964237213,0.33000001311302185,0.18000000715255737,-0.00213623046875,-0.0074462890625,1.02044677734375,35.52000045776367,0.0,-8.0,-5.0578460693359375,2.108734130859375,Opening,0.0,0.0,0.0,0.0,0.0,0.0,0.0,0.0,
5.902016000000003,0.0,0.0,27908.0,0.0,0.0,0.0,0.0,0.125,0.8154296040000001,4.932250999999998,0.0,-25142.0,0.0,0.0,0.0,0.0,0.125,0.531005805,4.963769999999998,0.0,20480.0,0.0,0.0,0.0,0.0,0.0,3.3728023890000003,0.01,0.0,-12881.0,0.125,0.0,0.0,0.0,0.25,1.650390456,0.01,0.0,-0.4000000059604645,0.27000001072883606,0.20000000298023224,-0.0135498046875,-0.0084228515625,1.01666259765625,35.52000045776367,0.0,-18.0,-5.0578460693359375,2.108734130859375,Opening,0.0,0.0,0.0,0.0,0.0,0.0,0.0,0.0,
5.995229999999982,0.0,0.0,27908.0,0.0,0.0,0.0,0.0,0.125,0.8154296040000001,4.932250999999998,0.0,-25142.0,0.0,0.0,0.0,0.0,0.125,0.531005805,4.963769999999998,0.0,20480.0,0.0,0.0,0.0,0.0,0.0,3.3728023890000003,0.01,0.0,-12881.0,0.125,0.0,0.0,0.0,0.25,1.650390456,0.01,0.0,-0.4099999964237213,0.17000000178813934,0.1899999976158142,-0.0185546875,-0.00604248046875,1.01434326171875,35.52000045776367,0.0,-21.0,-5.0584564208984375,2.108734130859375,Opening,0.0,0.0,0.0,0.0,0.0,0.0,0.0,0.0,
6.09409600000002,0.0,0.0,27908.0,0.0,0.0,0.0,0.0,0.125,0.8154296040000001,4.932250999999998,0.0,-25142.0,0.0,0.0,0.0,0.0,0.125,0.531005805,4.963769999999998,0.0,20480.0,0.0,0.0,0.0,0.0,0.0,3.3728023890000003,0.01,0.0,-12881.0,0.125,0.0,0.0,0.0,0.25,1.649169753,0.01,0.0,-0.4099999964237213,0.11999999731779099,0.20000000298023224,-0.00830078125,-0.00494384765625,1.02423095703125,35.52000045776367,0.0,-10.0,-5.05889892578125,2.108734130859375,Opening,0.0,0.0,0.0,0.0,0.0,0.0,0.0,0.0,
6.192744999999995,0.0,0.0,27908.0,0.0,0.0,0.0,0.0,0.125,0.8154296040000001,4.932250999999998,0.0,-25142.0,0.0,0.0,0.0,0.0,0.125,0.531005805,4.963769999999998,0.0,20480.0,0.0,0.0,0.0,0.0,0.0,3.3728023890000003,0.01,0.0,-12881.0,0.125,0.0,0.0,0.0,0.25,1.650390456,0.01,0.0,-0.4099999964237213,0.07000000029802322,0.20000000298023224,-0.0142822265625,-0.00750732421875,1.02215576171875,35.52000045776367,0.0,-15.0,-5.05889892578125,2.108734130859375,Opening,0.0,0.0,0.0,0.0,0.0,0.0,0.0,0.0,
6.3077480000000214,0.0,0.0,27908.0,0.0,0.0,0.0,0.0,0.25,0.8166503070000001,4.932250999999998,0.0,-25142.0,0.0,0.0,0.0,0.0,0.125,0.5297851020000001,4.963769999999998,0.0,20480.0,0.0,0.0,0.0,0.0,0.0,3.3728023890000003,0.01,0.0,-12881.0,0.125,0.0,0.0,0.0,0.25,1.645507644,0.01,0.0,-0.4099999964237213,0.0,0.1899999976158142,-0.013427734375,-0.0111083984375,1.0283203125,35.5099983215332,0.0,-13.0,-5.05889892578125,2.108734130859375,Opening,0.0,0.0,0.0,0.0,0.0,0.0,0.0,0.0,
6.403944000000018,0.0,0.0,27908.0,0.0,0.0,0.0,0.0,0.125,0.8154296040000001,4.932250999999998,0.0,-25142.0,0.0,0.0,0.0,0.0,0.125,0.531005805,4.963769999999998,0.0,20480.0,0.0,0.0,0.0,0.0,0.0,3.3728023890000003,0.01,0.0,-12881.0,0.125,0.0,0.0,0.0,0.25,1.650390456,0.01,0.0,-0.4099999964237213,-0.05000000074505806,0.1899999976158142,-0.008056640625,-0.00787353515625,1.01922607421875,35.5099983215332,0.0,-7.0,-5.05889892578125,2.108734130859375,Opening,0.0,0.0,0.0,0.0,0.0,0.0,0.0,0.0,
6.498765000000014,0.0,0.0,27908.0,0.0,0.0,0.0,0.0,0.125,0.8154296040000001,4.932250999999998,0.0,-25142.0,0.0,0.0,0.0,0.0,0.125,0.531005805,4.963769999999998,0.0,20480.0,0.0,0.0,0.0,0.0,0.0,3.3740230920000003,0.01,0.0,-12881.0,0.125,0.0,0.0,0.0,0.25,1.650390456,0.01,0.0,-0.4099999964237213,-0.09000000357627869,0.1899999976158142,-0.0107421875,-0.01019287109375,1.0213623046875,35.5099983215332,0.0,-9.0,-5.05889892578125,2.108734130859375,Opening,0.0,0.0,0.0,0.0,0.0,0.0,0.0,0.0,
6.595988000000012,0.0,0.0,27908.0,0.0,0.0,0.0,0.0,0.125,0.8154296040000001,4.932250999999998,0.0,-25142.0,0.0,0.0,0.0,0.0,0.125,0.531005805,4.963769999999998,0.0,20480.0,0.0,0.0,0.0,0.0,0.0,3.3740230920000003,0.01,0.0,-12881.0,0.125,0.0,0.0,0.0,0.25,1.644286941,0.01,0.0,-0.4099999964237213,-0.12999999523162842,0.1899999976158142,-0.0111083984375,-0.0054931640625,1.01849365234375,35.5099983215332,0.0,-8.0,-5.05889892578125,2.108734130859375,Opening,0.0,0.0,0.0,0.0,0.0,0.0,0.0,0.0,
6.688090000000026,0.0,0.0,27908.0,0.0,0.0,0.0,0.0,0.125,0.8154296040000001,4.932250999999998,0.0,-25142.0,0.0,0.0,0.0,0.0,0.125,0.526122993,4.963769999999998,-0.0012207029999995456,20480.0,0.0,0.0,0.0,0.0,0.0,3.3740230920000003,0.01,0.0,-12881.0,0.125,0.0,0.0,0.0,0.25,1.650390456,0.01,0.0,-0.4099999964237213,-0.1599999964237213,0.1899999976158142,-0.012939453125,-0.00360107421875,1.0234375,35.5099983215332,0.0,-10.0,-5.05889892578125,2.108734130859375,Opening,0.0,0.0,0.0,0.0,0.0,0.0,0.0,0.0,
6.7755929999999935,0.0,0.0,27908.0,0.0,0.0,0.0,0.0,0.125,0.8166503070000001,4.932250999999998,0.0,-25142.0,0.0,0.0,0.0,0.0,0.125,0.531005805,4.963769999999998,0.0,20480.0,0.0,0.0,0.0,0.0,0.0,3.3728023890000003,0.01,0.0,-12881.0,0.125,0.0,0.0,0.0,0.25,1.649169753,0.01,0.0012207029999999897,-0.4099999964237213,-0.1899999976158142,0.20000000298023224,-0.0125732421875,-0.009033203125,1.02001953125,35.5099983215332,0.0,-9.0,-5.05889892578125,2.108734130859375,Opening,0.0,0.0,0.0,0.0,0.0,0.0,0.0,0.0,
6.8704120000000115,0.0,0.0,27908.0,0.0,0.0,0.0,0.0,0.125,0.8154296040000001,4.932250999999998,0.0,-25142.0,0.0,0.0,0.0,0.0,0.125,0.531005805,4.963769999999998,0.0,20480.0,0.0,0.0,0.0,0.0,0.0,3.3728023890000003,0.01,0.0,-12881.0,0.125,0.0,0.0,0.0,0.25,1.649169753,0.01,0.0,-0.4099999964237213,-0.23999999463558197,0.1899999976158142,-0.0146484375,-0.0081787109375,1.02313232421875,35.529998779296875,0.0,-10.0,-5.05889892578125,2.108734130859375,Opening,0.0,0.0,0.0,0.0,0.0,0.0,0.0,0.0,
6.957487000000023,0.0,0.0,27908.0,0.0,0.0,0.0,0.0,0.125,0.8154296040000001,4.932250999999998,0.0,-25142.0,0.0,0.0,0.0,0.0,0.125,0.531005805,4.963769999999998,0.0,20480.0,0.0,0.0,0.0,0.0,0.0,3.3740230920000003,0.01,0.0,-12881.0,0.125,0.0,0.0,0.0,0.25,1.650390456,0.01,0.0,-0.4099999964237213,-0.25999999046325684,0.1899999976158142,-0.012939453125,-0.0087890625,1.02276611328125,35.529998779296875,0.0,-8.0,-5.05889892578125,2.108734130859375,Opening,0.0,0.0,0.0,0.0,0.0,0.0,0.0,0.0,
7.052142999999981,0.0,0.0,27908.0,0.0,0.0,0.0,0.0,0.125,0.8154296040000001,4.932250999999998,0.0,-25142.0,0.0,0.0,0.0,0.0,0.125,0.531005805,4.963769999999998,0.0,20480.0,0.0,0.0,0.0,0.0,0.0,3.3728023890000003,0.01,0.0,-12881.0,0.125,0.0,0.0,0.0,0.25,1.650390456,0.01,0.0,-0.41999998688697815,-0.28999999165534973,0.1899999976158142,-0.01416015625,-0.0057373046875,1.02105712890625,35.529998779296875,0.0,-8.0,-5.05889892578125,2.108734130859375,Opening,0.0,0.0,0.0,0.0,0.0,0.0,0.0,0.0,
7.140140000000014,0.0,0.0,27908.0,0.0,0.0,0.0,0.0,0.125,0.8154296040000001,4.932250999999998,0.0,-25142.0,0.0,0.0,0.0,0.0,0.125,0.531005805,4.963769999999998,0.0,20480.0,0.0,0.0,0.0,0.0,0.0,3.3728023890000003,0.01,0.0,-12881.0,0.125,0.0,0.0,0.0,0.25,1.645507644,0.01,0.0,-0.4099999964237213,-0.3199999928474426,0.1899999976158142,-0.01153564453125,-0.00531005859375,1.01812744140625,35.529998779296875,0.0,-5.0,-5.05889892578125,2.108734130859375,Opening,0.0,0.0,0.0,0.0,0.0,0.0,0.0,0.0,
7.231648999999976,0.0,0.0,27908.0,0.0,0.0,0.0,0.0,0.125,0.8154296040000001,4.932250999999998,0.0,-25142.0,0.0,0.0,0.0,0.0,0.125,0.531005805,4.963769999999998,0.0,20480.0,0.0,0.0,0.0,0.0,0.0,3.3740230920000003,0.01,0.0,-12881.0,0.125,0.0,0.0,0.0,0.25,1.649169753,0.01,0.0012207029999999897,-0.41999998688697815,-0.3400000035762787,0.1899999976158142,-0.01104736328125,-0.01019287109375,1.0205078125,35.529998779296875,0.0,-4.0,-5.05889892578125,2.108734130859375,Opening,0.0,0.0,0.0,0.0,0.0,0.0,0.0,0.0,
7.314184000000008,0.0,0.0,27908.0,0.0,0.0,0.0,0.0,0.125,0.8154296040000001,4.932250999999998,0.0,-25142.0,0.0,0.0,0.0,0.0,0.125,0.531005805,4.963769999999998,0.0,20480.0,0.0,0.0,0.0,0.0,0.0,3.3728023890000003,0.01,0.0,-12881.0,0.125,0.0,0.0,0.0,0.25,1.649169753,0.01,0.0,-0.41999998688697815,-0.3700000047683716,0.1899999976158142,-0.01483154296875,-0.0093994140625,1.01751708984375,35.54999923706055,0.0,-8.0,-5.05889892578125,2.108734130859375,Opening,0.0,0.0,0.0,0.0,0.0,0.0,0.0,0.0,
7.404534999999974,0.0,0.0,27908.0,0.0,0.0,0.0,0.0,0.125,0.8154296040000001,4.932250999999998,0.0,-25142.0,0.0,0.0,0.0,0.0,0.125,0.531005805,4.963769999999998,0.0,20480.0,0.0,0.0,0.0,0.0,0.0,3.3740230920000003,0.01,0.0,-12881.0,0.125,0.0,0.0,0.0,0.25,1.650390456,0.01,0.0,-0.41999998688697815,-0.38999998569488525,0.1899999976158142,-0.01263427734375,-0.0087890625,1.02032470703125,35.54999923706055,0.0,-5.0,-5.05889892578125,2.108734130859375,Opening,0.0,0.0,0.0,0.0,0.0,0.0,0.0,0.0,
7.492128000000026,0.0,0.0,27908.0,0.0,0.0,0.0,0.0,0.125,0.8166503070000001,4.932250999999998,0.0,-25142.0,0.0,0.0,0.0,0.0,0.125,0.531005805,4.963769999999998,0.0,20480.0,0.0,0.0,0.0,0.0,0.0,3.3740230920000003,0.01,0.0,-12881.0,0.125,0.0,0.0,0.0,0.25,1.649169753,0.01,0.0,-0.41999998688697815,-0.4099999964237213,0.1899999976158142,-0.01153564453125,-0.0076904296875,1.0194091796875,35.54999923706055,0.0,-4.0,-5.05889892578125,2.108734130859375,Opening,0.0,0.0,0.0,0.0,0.0,0.0,0.0,0.0,
7.581715000000026,0.0,0.0,27908.0,0.0,0.0,0.0,0.0,0.125,0.8154296040000001,4.932250999999998,0.0,-25142.0,0.0,0.0,0.0,0.0,0.125,0.5297851020000001,4.963769999999998,0.0012207029999995456,20480.0,0.0,0.0,0.0,0.0,0.0,3.3740230920000003,0.01,0.0,-12881.0,0.125,0.0,0.0,0.0,0.25,1.649169753,0.01,0.0,-0.41999998688697815,-0.4300000071525574,0.1899999976158142,-0.01214599609375,-0.00787353515625,1.0233154296875,35.54999923706055,0.0,-4.0,-5.05889892578125,2.108734130859375,Opening,0.0,0.0,0.0,0.0,0.0,0.0,0.0,0.0,
7.674530000000028,0.0,0.0,27908.0,0.0,0.0,0.0,0.0,0.125,0.8154296040000001,4.932250999999998,0.0,-25142.0,0.0,0.0,0.0,0.0,0.125,0.531005805,4.963769999999998,0.0,20480.0,0.0,0.0,0.0,0.0,0.0,3.3740230920000003,0.01,0.0,-12881.0,0.125,0.0,0.0,0.0,0.25,1.650390456,0.01,0.0,-0.41999998688697815,-0.4399999976158142,0.1899999976158142,-0.012451171875,-0.00927734375,1.01837158203125,35.54999923706055,0.0,-4.0,-5.05889892578125,2.108734130859375,Opening,0.0,0.0,0.0,0.0,0.0,0.0,0.0,0.0,
7.765353000000003,0.0,0.0,27908.0,0.0,0.0,0.0,0.0,0.125,0.8154296040000001,4.932250999999998,0.0,-25142.0,0.0,0.0,0.0,0.0,0.125,0.531005805,4.963769999999998,0.0,20480.0,0.0,0.0,0.0,0.0,0.0,3.3740230920000003,0.01,0.0,-12881.0,0.125,0.0,0.0,0.0,0.25,1.650390456,0.01,0.0,-0.41999998688697815,-0.44999998807907104,0.1899999976158142,-0.0128173828125,-0.0076904296875,1.02276611328125,35.54999923706055,0.0,-4.0,-5.05889892578125,2.108734130859375,Opening,0.0,0.0,0.0,0.0,0.0,0.0,0.0,0.0,
7.85224099999998,0.0,0.0,27908.0,0.0,0.0,0.0,0.0,0.125,0.8154296040000001,4.932250999999998,0.0,-25142.0,0.0,0.0,0.0,0.0,0.125,0.526122993,4.963769999999998,0.0,20480.0,0.0,0.0,0.0,0.0,0.0,3.3740230920000003,0.01,0.0,-12881.0,0.125,0.0,0.0,0.0,0.25,1.649169753,0.01,0.0,-0.4300000071525574,-0.4699999988079071,0.1899999976158142,-0.01171875,-0.0087890625,1.01629638671875,35.52000045776367,0.0,-3.0,-5.05889892578125,2.108734130859375,Opening,0.0,0.0,0.0,0.0,0.0,0.0,0.0,0.0,
7.939907000000007,0.0,0.0,27908.0,0.0,0.0,0.0,0.0,0.25,0.8154296040000001,4.932250999999998,0.0,-25142.0,0.0,0.0,0.0,0.0,0.125,0.531005805,4.963769999999998,0.0012207029999995456,20480.0,0.0,0.0,0.0,0.0,0.0,3.3728023890000003,0.01,0.0,-12881.0,0.125,0.0,0.0,0.0,0.25,1.650390456,0.01,0.0,-0.4300000071525574,-0.47999998927116394,0.1899999976158142,-0.01300048828125,-0.00762939453125,1.0172119140625,35.52000045776367,0.0,-4.0,-5.05889892578125,2.108734130859375,Opening,0.0,0.0,0.0,0.0,0.0,0.0,0.0,0.0,
8.026614000000002,0.0,0.0,27908.0,0.0,0.0,0.0,0.0,0.125,0.8154296040000001,4.932250999999998,0.0,-25142.0,0.0,0.0,0.0,0.0,0.125,0.531005805,4.963769999999998,0.0,20480.0,0.0,0.0,0.0,0.0,0.0,3.3728023890000003,0.01,0.0,-12881.0,0.125,0.0,0.0,0.0,0.25,1.650390456,0.01,0.0,-0.41999998688697815,-0.5,0.1899999976158142,-0.0145263671875,-0.00775146484375,1.0157470703125,35.52000045776367,0.0,-5.0,-5.05889892578125,2.108734130859375,Opening,0.0,0.0,0.0,0.0,0.0,0.0,0.0,0.0,
8.11130900000001,0.0,0.0,27908.0,0.0,0.0,0.0,0.0,0.125,0.8154296040000001,4.932250999999998,0.0,-25142.0,0.0,0.0,0.0,0.0,0.125,0.531005805,4.963769999999998,0.0,20480.0,0.0,0.0,0.0,0.0,0.0,3.3728023890000003,0.01,0.0,-12881.0,0.125,0.0,0.0,0.0,0.25,1.650390456,0.01,0.0,-0.41999998688697815,-0.5,0.1899999976158142,-0.01483154296875,-0.0078125,1.026123046875,35.52000045776367,0.0,-5.0,-5.05889892578125,2.108734130859375,Opening,0.0,0.0,0.0,0.0,0.0,0.0,0.0,0.0,
8.19513400000002,0.0,0.0,27908.0,0.0,0.0,0.0,0.0,0.125,0.8166503070000001,4.932250999999998,0.0,-25142.0,0.0,0.0,0.0,0.0,0.125,0.531005805,4.963769999999998,0.0,20480.0,0.0,0.0,0.0,0.0,0.0,3.3728023890000003,0.01,0.0,-12881.0,0.125,0.0,0.0,0.0,0.25,1.650390456,0.01,0.0,-0.4300000071525574,-0.5199999809265137,0.1899999976158142,-0.00860595703125,-0.004638671875,1.02496337890625,35.52000045776367,0.0,0.0,-5.05889892578125,2.108734130859375,Opening,0.0,0.0,0.0,0.0,0.0,0.0,0.0,0.0,
8.28568200000003,0.0,0.0,27908.0,0.0,0.0,0.0,0.0,0.125,0.8166503070000001,4.932250999999998,0.0,-25142.0,0.0,0.0,0.0,0.0,0.125,0.531005805,4.963769999999998,0.0,20480.0,0.0,0.0,0.0,0.0,0.0,3.3740230920000003,0.01,0.0,-12881.0,0.125,0.0,0.0,0.0,0.25,1.644286941,0.01,0.0,-0.41999998688697815,-0.5199999809265137,0.18000000715255737,-0.010986328125,-0.01116943359375,1.02008056640625,35.52000045776367,0.0,-1.0,-5.05889892578125,2.108734130859375,Opening,0.0,0.0,0.0,0.0,0.0,0.0,0.0,0.0,
8.372217999999993,0.0,0.0,27908.0,0.0,0.0,0.0,0.0,0.125,0.8154296040000001,4.932250999999998,0.0,-25142.0,0.0,0.0,0.0,0.0,0.125,0.526122993,4.963769999999998,0.0,20480.0,0.0,0.0,0.0,0.0,0.0,3.3728023890000003,0.01,0.0,-12881.0,0.125,0.0,0.0,0.0,0.25,1.650390456,0.01,0.0,-0.41999998688697815,-0.5299999713897705,0.18000000715255737,-0.0108642578125,-0.00384521484375,1.017578125,35.52000045776367,0.0,-1.0,-5.05889892578125,2.108734130859375,Opening,0.0,0.0,0.0,0.0,0.0,0.0,0.0,0.0,
8.455994000000006,0.0,0.0,27908.0,0.0,0.0,0.0,0.0,0.125,0.8166503070000001,4.932250999999998,0.0,-25142.0,0.0,0.0,0.0,0.0,0.125,0.5297851020000001,4.963769999999998,0.0,20480.0,0.0,0.0,0.0,0.0,0.0,3.3728023890000003,0.01,0.0,-12881.0,0.125,0.0,0.0,0.0,0.25,1.649169753,0.01,0.0,-0.41999998688697815,-0.550000011920929,0.18000000715255737,-0.01300048828125,-0.00531005859375,1.02313232421875,35.52000045776367,0.0,-3.0,-5.05889892578125,2.108734130859375,Opening,0.0,0.0,0.0,0.0,0.0,0.0,0.0,0.0,
8.545272999999986,0.0,0.0,27908.0,0.0,0.0,0.0,0.0,0.125,0.8166503070000001,4.932250999999998,0.0,-25142.0,0.0,0.0,0.0,0.0,0.125,0.531005805,4.963769999999998,0.0,20480.0,0.0,0.0,0.0,0.0,0.0,3.3728023890000003,0.01,0.0,-12881.0,0.125,0.0,0.0,0.0,0.25,1.650390456,0.01,0.0,-0.41999998688697815,-0.550000011920929,0.18000000715255737,-0.0106201171875,-0.009521484375,1.01202392578125,35.52000045776367,0.0,0.0,-5.05889892578125,2.108734130859375,Opening,0.0,0.0,0.0,0.0,0.0,0.0,0.0,0.0,
8.634280000000029,0.0,0.0,27908.0,0.0,0.0,0.0,0.0,0.125,0.8154296040000001,4.932250999999998,0.0,-25142.0,0.0,0.0,0.0,0.0,0.125,0.531005805,4.963769999999998,0.0,20480.0,0.0,0.0,0.0,0.0,0.0,3.3728023890000003,0.01,0.0,-12881.0,0.125,0.0,0.0,0.0,0.25,1.650390456,0.01,0.0,-0.41999998688697815,-0.5600000023841858,0.17000000178813934,-0.01324462890625,-0.0081787109375,1.022705078125,35.52000045776367,0.0,-3.0,-5.05889892578125,2.108734130859375,Opening,0.0,0.0,0.0,0.0,0.0,0.0,0.0,0.0,
8.724576,0.0,0.0,27908.0,0.0,0.0,0.0,0.0,0.25,0.8154296040000001,4.932250999999998,0.0,-25142.0,0.0,0.0,0.0,0.0,0.125,0.531005805,4.963769999999998,0.0,20480.0,0.0,0.0,0.0,0.0,0.0,3.3740230920000003,0.01,0.0,-12881.0,0.125,0.0,0.0,0.0,0.25,1.650390456,0.01,0.0,-0.41999998688697815,-0.5699999928474426,0.17000000178813934,-0.0123291015625,-0.01123046875,1.017578125,35.52000045776367,0.0,-2.0,-5.05889892578125,2.108734130859375,Opening,0.0,0.0,0.0,0.0,0.0,0.0,0.0,0.0,
8.81121000000002,0.0,0.0,27908.0,0.0,0.0,0.0,0.0,0.125,0.8166503070000001,4.932250999999998,0.0,-25142.0,0.0,0.0,0.0,0.0,0.125,0.531005805,4.963769999999998,0.0,20480.0,0.0,0.0,0.0,0.0,0.0,3.3740230920000003,0.01,0.0,-12881.0,0.125,0.0,0.0,0.0,0.25,1.650390456,0.01,0.0,-0.41999998688697815,-0.5699999928474426,0.17000000178813934,-0.0115966796875,-0.0048828125,1.01611328125,35.52000045776367,0.0,-1.0,-5.05889892578125,2.108734130859375,Opening,0.0,0.0,0.0,0.0,0.0,0.0,0.0,0.0,
8.899825000000012,0.0,0.0,27908.0,0.0,0.0,0.0,0.0,0.125,0.8166503070000001,4.932250999999998,0.0,-25142.0,0.0,0.0,0.0,0.0,0.125,0.5297851020000001,4.963769999999998,0.0,20480.0,0.0,0.0,0.0,0.0,0.0,3.3740230920000003,0.01,0.0,-12881.0,0.125,0.0,0.0,0.0,0.25,1.650390456,0.01,0.0,-0.41999998688697815,-0.5799999833106995,0.17000000178813934,-0.011962890625,-0.00921630859375,1.0155029296875,35.54999923706055,0.0,-1.0,-5.05889892578125,2.108734130859375,Opening,0.0,0.0,0.0,0.0,0.0,0.0,0.0,0.0,
8.988381999999984,0.0,0.0,27908.0,0.0,0.0,0.0,0.0,0.25,0.8154296040000001,4.932250999999998,0.0,-25142.0,0.0,0.0,0.0,0.0,0.125,0.531005805,4.963769999999998,0.0012207029999995456,20480.0,0.0,0.0,0.0,0.0,0.0,3.3728023890000003,0.01,0.0,-12881.0,0.125,0.0,0.0,0.0,0.25,1.650390456,0.01,0.0,-0.4300000071525574,-0.5899999737739563,0.17000000178813934,-0.01092529296875,-0.010009765625,1.02056884765625,35.54999923706055,0.0,0.0,-5.05889892578125,2.108734130859375,Opening,0.0,0.0,0.0,0.0,0.0,0.0,0.0,0.0,
9.073700000000011,0.0,0.0,27908.0,0.0,0.0,0.0,0.0,0.125,0.8154296040000001,4.932250999999998,0.0,-25142.0,0.0,0.0,0.0,0.0,0.125,0.526122993,4.963769999999998,0.0,20480.0,0.0,0.0,0.0,0.0,0.0,3.3740230920000003,0.01,0.0,-12881.0,0.125,0.0,0.0,0.0,0.25,1.650390456,0.01,0.0,-0.4300000071525574,-0.5899999737739563,0.17000000178813934,-0.01300048828125,-0.00830078125,1.02203369140625,35.54999923706055,0.0,-2.0,-5.05889892578125,2.108734130859375,Opening,0.0,0.0,0.0,0.0,0.0,0.0,0.0,0.0,
9.158522999999986,0.0,0.0,27908.0,0.0,0.0,0.0,0.0,0.125,0.8154296040000001,4.932250999999998,0.0,-25142.0,0.0,0.0,0.0,0.0,0.125,0.531005805,4.963769999999998,0.0,20480.0,0.0,0.0,0.0,0.0,0.0,3.3728023890000003,0.01,0.0,-12881.0,0.125,0.0,0.0,0.0,0.25,1.650390456,0.01,0.0,-0.4300000071525574,-0.5899999737739563,0.17000000178813934,-0.0133056640625,-0.010498046875,1.0255126953125,35.54999923706055,0.0,-2.0,-5.05889892578125,2.108734130859375,Opening,0.0,0.0,0.0,0.0,0.0,0.0,0.0,0.0,
9.248319000000018,0.0,0.0,27908.0,0.0,0.0,0.0,0.0,0.25,0.8154296040000001,4.932250999999998,0.0,-25142.0,0.0,0.0,0.0,0.0,0.125,0.531005805,4.963769999999998,0.0,20480.0,0.0,0.0,0.0,0.0,0.0,3.3740230920000003,0.01,0.0,-12881.0,0.125,0.0,0.0,0.0,0.25,1.650390456,0.01,0.0,-0.4300000071525574,-0.6000000238418579,0.17000000178813934,-0.01397705078125,-0.00555419921875,1.01953125,35.54999923706055,0.0,-3.0,-5.05889892578125,2.108734130859375,Opening,0.0,0.0,0.0,0.0,0.0,0.0,0.0,0.0,
9.335270000000019,0.0,0.0,27908.0,0.0,0.0,0.0,0.0,0.125,0.8154296040000001,4.932250999999998,0.0,-25142.0,0.0,0.0,0.0,0.0,0.125,0.531005805,4.963769999999998,0.0,20480.0,0.0,0.0,0.0,0.0,0.0,3.3740230920000003,0.01,0.0,-12881.0,0.125,0.0,0.0,0.0,0.25,1.650390456,0.01,0.0,-0.4300000071525574,-0.6000000238418579,0.17000000178813934,-0.0128173828125,-0.0079345703125,1.02020263671875,35.54999923706055,0.0,-2.0,-5.05889892578125,2.108734130859375,Opening,0.0,0.0,0.0,0.0,0.0,0.0,0.0,0.0,
9.417956999999994,0.0,0.0,27908.0,0.0,0.0,0.0,0.0,0.125,0.8154296040000001,4.932250999999998,0.0,-25142.0,0.0,0.0,0.0,0.0,0.125,0.531005805,4.963769999999998,0.0,20480.0,0.0,0.0,0.0,0.0,0.0,3.3728023890000003,0.01,0.0,-12881.0,0.125,0.0,0.0,0.0,0.25,1.650390456,0.01,0.0,-0.4399999976158142,-0.6100000143051147,0.17000000178813934,-0.01055908203125,-0.00738525390625,1.01654052734375,35.52000045776367,0.0,0.0,-5.05889892578125,2.108734130859375,Opening,0.0,0.0,0.0,0.0,0.0,0.0,0.0,0.0,
9.509168000000004,0.0,0.0,27908.0,0.0,0.0,0.0,0.0,0.125,0.8154296040000001,4.932250999999998,0.0,-25142.0,0.0,0.0,0.0,0.0,0.125,0.531005805,4.963769999999998,0.0,20480.0,0.0,0.0,0.0,0.0,0.0,3.3740230920000003,0.01,0.0,-12881.0,0.125,0.0,0.0,0.0,0.25,1.650390456,0.01,0.0,-0.4399999976158142,-0.6100000143051147,0.17000000178813934,-0.01220703125,-0.00860595703125,1.0244140625,35.52000045776367,0.0,-1.0,-5.05889892578125,2.108734130859375,Opening,0.0,0.0,0.0,0.0,0.0,0.0,0.0,0.0,
9.595733999999997,0.0,0.0,27908.0,0.0,0.0,0.0,0.0,0.125,0.8154296040000001,4.932250999999998,0.0,-25142.0,0.0,0.0,0.0,0.0,0.125,0.531005805,4.963769999999998,0.0012207029999995456,20480.0,0.0,0.0,0.0,0.0,0.0,3.3728023890000003,0.01,0.0,-12881.0,0.125,0.0,0.0,0.0,0.25,1.650390456,0.01,0.0,-0.4399999976158142,-0.6100000143051147,0.17000000178813934,-0.0133056640625,-0.0054931640625,1.0191650390625,35.52000045776367,0.0,-2.0,-5.05889892578125,2.108734130859375,Opening,0.0,0.0,0.0,0.0,0.0,0.0,0.0,0.0,
9.687891000000004,0.0,0.0,27908.0,0.0,0.0,0.0,0.0,0.125,0.8154296040000001,4.932250999999998,0.0,-25142.0,0.0,0.0,0.0,0.0,0.125,0.531005805,4.963769999999998,0.0,20480.0,0.0,0.0,0.0,0.0,0.0,3.3740230920000003,0.01,0.0,-12881.0,0.125,0.0,0.0,0.0,0.25,1.650390456,0.01,0.0012207029999999897,-0.4300000071525574,-0.6200000047683716,0.17000000178813934,-0.01409912109375,-0.00909423828125,1.02239990234375,35.52000045776367,0.0,-3.0,-5.05889892578125,2.108734130859375,Opening,0.0,0.0,0.0,0.0,0.0,0.0,0.0,0.0,
9.783614000000002,0.0,0.0,27908.0,0.0,0.0,0.0,0.0,0.125,0.8166503070000001,4.932250999999998,0.0,-25142.0,0.0,0.0,0.0,0.0,0.125,0.531005805,4.963769999999998,0.0,20480.0,0.0,0.0,0.0,0.0,0.0,3.3740230920000003,0.01,0.0,-12881.0,0.125,0.0,0.0,0.0,0.25,1.650390456,0.01,0.0,-0.4300000071525574,-0.6200000047683716,0.17000000178813934,-0.0140380859375,-0.00689697265625,1.01708984375,35.52000045776367,0.0,-2.0,-5.05889892578125,2.108734130859375,Opening,0.0,0.0,0.0,0.0,0.0,0.0,0.0,0.0,
9.86948999999999,0.0,0.0,27908.0,0.0,0.0,0.0,0.0,0.125,0.8154296040000001,4.932250999999998,0.0,-25142.0,0.0,0.0,0.0,0.0,0.125,0.5297851020000001,4.963769999999998,0.0,20480.0,0.0,0.0,0.0,0.0,0.0,3.3740230920000003,0.01,0.0,-12881.0,0.125,0.0,0.0,0.0,0.25,1.650390456,0.01,0.0,-0.4399999976158142,-0.6200000047683716,0.17000000178813934,-0.01446533203125,-0.00848388671875,1.02252197265625,35.52000045776367,0.0,-3.0,-5.05889892578125,2.108734130859375,Opening,0.0,0.0,0.0,0.0,0.0,0.0,0.0,0.0,
9.952898999999976,0.0,0.0,27908.0,0.0,0.0,0.0,0.0,0.125,0.8154296040000001,4.932250999999998,0.0,-25142.0,0.0,0.0,0.0,0.0,0.125,0.52490229,4.963769999999998,0.0,20480.0,0.0,0.0,0.0,0.0,0.0,3.3740230920000003,0.01,0.0,-12881.0,0.125,0.0,0.0,0.0,0.25,1.649169753,0.01,0.0,-0.4300000071525574,-0.6299999952316284,0.17000000178813934,-0.01025390625,-0.00408935546875,1.02069091796875,35.52000045776367,0.0,1.0,-5.05889892578125,2.108734130859375,Opening,0.0,0.0,0.0,0.0,0.0,0.0,0.0,0.0,
10.042819000000017,0.0,0.0,27908.0,0.0,0.0,0.0,0.0,0.125,0.8154296040000001,4.932250999999998,0.0,-25142.0,0.0,0.0,0.0,0.0,0.125,0.531005805,4.963769999999998,0.0,20480.0,0.0,0.0,0.0,0.0,0.0,3.3728023890000003,0.01,0.0,-12881.0,0.125,0.0,0.0,0.0,0.25,1.650390456,0.01,0.0,-0.41999998688697815,-0.6299999952316284,0.17000000178813934,-0.0118408203125,-0.00927734375,1.02099609375,35.52000045776367,0.0,0.0,-5.05889892578125,2.108734130859375,Opening,0.0,0.0,0.0,0.0,0.0,0.0,0.0,0.0,
10.13041200000001,0.0,0.0,27908.0,0.0,0.0,0.0,0.0,0.125,0.8166503070000001,4.932250999999998,0.0,-25142.0,0.0,0.0,0.0,0.0,0.125,0.531005805,4.963769999999998,0.0,20480.0,0.0,0.0,0.0,0.0,0.0,3.3740230920000003,0.01,0.0,-12881.0,0.125,0.0,0.0,0.0,0.25,1.650390456,0.01,0.0,-0.41999998688697815,-0.6299999952316284,0.17000000178813934,-0.01397705078125,-0.00665283203125,1.02410888671875,35.52000045776367,0.0,-2.0,-5.05889892578125,2.108734130859375,Opening,0.0,0.0,0.0,0.0,0.0,0.0,0.0,0.0,
10.21408500000002,0.0,0.0,27908.0,0.0,0.0,0.0,0.0,0.125,0.8154296040000001,4.932250999999998,0.0,-25142.0,0.0,0.0,0.0,0.0,0.125,0.531005805,4.963769999999998,0.0,20480.0,0.0,0.0,0.0,0.0,0.0,3.3728023890000003,0.01,0.0,-12881.0,0.125,0.0,0.0,0.0,0.25,1.651611159,0.01,0.0,-0.4300000071525574,-0.6399999856948853,0.17000000178813934,-0.0120849609375,-0.00823974609375,1.02215576171875,35.52000045776367,0.0,0.0,-5.05889892578125,2.108734130859375,Opening,0.0,0.0,0.0,0.0,0.0,0.0,0.0,0.0,
10.306693000000028,0.0,0.0,27908.0,0.0,0.0,0.0,0.0,0.125,0.8154296040000001,4.932250999999998,0.0,-25142.0,0.0,0.0,0.0,0.0,0.125,0.531005805,4.963769999999998,0.0,20480.0,0.0,0.0,0.0,0.0,0.0,3.3728023890000003,0.01,0.0,-12881.0,0.125,0.0,0.0,0.0,0.25,1.650390456,0.01,0.0,-0.4300000071525574,-0.6399999856948853,0.17000000178813934,-0.00970458984375,-0.00750732421875,1.01934814453125,35.52000045776367,0.0,1.0,-5.05889892578125,2.108734130859375,Opening,0.0,0.0,0.0,0.0,0.0,0.0,0.0,0.0,
10.391401000000013,0.0,0.0,27908.0,0.0,0.0,0.0,0.0,0.125,0.8154296040000001,4.932250999999998,0.0,-25142.0,0.0,0.0,0.0,0.0,0.125,0.531005805,4.963769999999998,0.0,20480.0,0.0,0.0,0.0,0.0,0.0,3.3740230920000003,0.01,0.0,-12881.0,0.125,0.0,0.0,0.0,0.25,1.649169753,0.01,0.0,-0.4300000071525574,-0.6399999856948853,0.17000000178813934,-0.01220703125,-0.0084228515625,1.01678466796875,35.54999923706055,0.0,0.0,-5.05889892578125,2.108734130859375,Opening,0.0,0.0,0.0,0.0,0.0,0.0,0.0,0.0,
