Time,ClimberA1,ClimberA2,FRpos,FRCurrent,FRspeed,FRsetpoint,FRApos,FRACurrent,FREncpos,FREncSetpoint,FREncSpeed,FLpos,FLCurrent,FLspeed,FLsetpoint,FLApos,FLACurrent,FLEncpos,FLEncSetpoint,FLEncSpeed,BRpos,BRCurrent,BRspeed,BRsetpoint,BRApos,BRACurrent,BREncpos,BREncSetpoint,BREncSpeed,BLpos,BLCurrent,BLspeed,BLsetpoint,BLApos,BLACurrent,BLEncpos,BLEncSetpoint,BLEncSpeed,navx_Pitch,navx_Roll,navx_Yaw,navx_XAcc,navx_YAcc,navx_ZAcc,navx_Temp,navx_Bar,navx_Alt,navx_XDis,navx_YDis,GearPlacerState,ShootOutputV,ShootOutputCurrent,ShootEncPos,ShootEncVelocity,ShootSpeed,ShootSetpoint,CarouselSetpoint,CarouselCurrent,
0.19335599999999978,0.0,0.0,88677.0,0.0,0.0,0.0,0.0,0.125,0.8666991300000001,0.01,0.0,-85538.0,0.0,0.0,0.0,0.0,0.125,0.62255853,0.01,0.0,92138.0,0.0,0.0,0.0,0.0,0.0,3.3776852010000002,0.01,0.0,-85368.0,0.0,0.0,0.0,0.0,0.125,1.7126463090000001,0.01,0.0,-0.49000000953674316,-0.6100000143051147,0.0,-0.01190185546875,-0.007568359375,1.01885986328125,33.08000183105469,0.0,-1.0,1.19390869140625,-0.7319488525390625,Waiting,0.0,0.0,22.0,0.0,0.0,0.0,0.0,0.0,
0.2530489999999991,0.0,0.0,88677.0,0.0,0.0,0.0,0.0,0.125,0.8666991300000001,0.01,0.0,-85538.0,0.0,0.0,-0.0,0.0,0.125,0.6213378270000001,0.01,0.0,92138.0,0.0,0.0,0.0,0.0,0.0,3.3776852010000002,0.01,0.0,-85368.0,0.0,0.0,-0.0,0.0,0.125,1.7126463090000001,0.01,0.0,-0.49000000953674316,-0.6100000143051147,0.0,-0.01116943359375,-0.00927734375,1.0208740234375,33.08000183105469,0.0,0.0,1.19390869140625,-0.7319488525390625,Waiting,0.0,0.0,22.0,0.0,0.0,0.0,0.0,0.0,
0.2745879999999997,0.0,0.0,88677.0,0.0,0.0,0.0,0.0,0.125,0.8679198330000001,0.01,0.0,-85538.0,0.0,0.0,-0.0,0.0,0.125,0.6213378270000001,0.01,0.115107827000001,92138.0,0.0,0.0,0.0,0.0,0.0,3.3789059040000002,0.01,0.02768520100000016,-85368.0,0.0,0.0,-0.0,0.0,0.125,1.7126463090000001,0.01,0.09142560600000005,-0.49000000953674316,-0.6100000143051147,0.0,-0.0081787109375,-0.0103759765625,1.0233154296875,33.08000183105469,0.0,2.0,1.19390869140625,-0.7319488525390625,Waiting,0.0,0.0,22.0,0.0,0.0,0.0,0.0,0.0,
0.30584999999999857,0.0,0.0,88677.0,0.0,0.0,0.0,0.0,0.125,0.8679198330000001,0.01,0.05669913000000004,-85538.0,0.0,0.0,-0.0,0.0,0.25,0.612792906,0.01,0.115107827000001,92138.0,0.0,0.0,0.0,0.0,0.125,3.3776852010000002,0.01,0.02768520100000016,-85368.0,0.0,0.0,-0.0,0.0,0.25,1.7114256060000002,0.01,0.09142560600000005,-0.49000000953674316,-0.6100000143051147,0.0,-0.01080322265625,-0.00579833984375,1.0185546875,33.08000183105469,0.0,0.0,1.19390869140625,-0.7319488525390625,Waiting,0.0,0.0,22.0,0.0,0.0,0.0,0.0,0.0,
0.32771500000000015,0.0,0.0,88677.0,0.0,0.0,0.0,0.0,0.25,0.8679198330000001,0.01,0.05669913000000004,-85538.0,0.0,0.0,-0.0,0.0,0.25,0.599365173,0.01,-0.014648436000000764,92138.0,0.0,0.0,0.0,0.0,0.125,3.3776852010000002,0.01,-0.0012207029999999897,-85368.0,0.0,0.0,-0.0,0.0,0.25,1.7126463090000001,0.01,0.0,-0.49000000953674316,-0.6100000143051147,0.0,-0.01361083984375,-0.0098876953125,1.0224609375,33.08000183105469,0.0,-2.0,1.19390869140625,-0.7319488525390625,Waiting,0.0,0.0,22.0,0.0,0.0,0.0,0.0,0.0,
0.35213399999999817,0.0,0.0,88677.0,0.0,0.0,0.0,0.0,0.25,0.8666991300000001,0.01,0.0,-85538.0,0.0,0.0,-0.0,0.0,0.0,0.588378846,0.01,-0.014648436000000764,92138.0,0.0,0.0,0.0,0.0,0.125,3.3776852010000002,0.01,-0.0012207029999999897,-85368.0,0.0,0.0,-0.0,0.0,0.25,1.7126463090000001,0.01,0.0012207029999999897,-0.49000000953674316,-0.6100000143051147,0.0,-0.012451171875,-0.00762939453125,1.022216796875,33.08000183105469,0.0,-1.0,1.19390869140625,-0.7319488525390625,Waiting,0.0,0.0,22.0,0.0,0.0,0.0,0.0,0.0,
0.4015109999999986,0.0,0.0,88677.0,0.0,0.0,0.0,0.0,0.25,0.863037021,0.01,0.0,-85538.0,0.0,0.0,-0.0,0.0,0.0,0.5688475980000001,0.01,-0.013427732999999442,92138.0,0.0,0.0,0.0,0.0,0.125,3.3776852010000002,0.01,0.0012207029999999897,-85368.0,0.0,0.0,-0.0,0.0,0.25,1.697997873,0.01,0.0012207029999999897,-0.49000000953674316,-0.6100000143051147,0.0,-0.01983642578125,-0.00225830078125,1.01947021484375,33.08000183105469,0.0,-8.0,1.19390869140625,-0.7319488525390625,Waiting,0.0,0.0,22.0,0.0,0.0,0.0,0.0,0.0,
0.42729599999999845,0.0,0.0,88677.0,0.0,0.0,0.0,0.0,0.125,0.8581542090000001,0.01,0.0,-85538.0,0.0,0.0,-0.0,0.0,0.25,0.563964786,0.01,-0.024414059999999793,92138.0,0.0,0.0,0.0,0.0,0.125,3.3776852010000002,0.01,-0.0012207029999999897,-85368.0,0.0,0.0,-0.0,0.0,0.25,1.6882322490000001,0.01,-0.017089842000000077,-0.49000000953674316,-0.6100000143051147,0.0,-0.008544921875,-0.0048828125,1.01788330078125,33.099998474121094,0.0,2.0,1.19390869140625,-0.7319488525390625,Waiting,0.0,0.0,22.0,0.0,0.0,0.0,0.0,0.0,
0.45147799999999916,0.0,0.0,88677.0,0.0,0.0,0.0,0.0,0.125,0.8581542090000001,0.01,-0.009765624000000028,-85538.0,0.0,0.0,-0.0,0.0,0.25,0.563964786,0.01,-0.024414059999999793,92138.0,0.0,0.0,0.0,0.0,0.125,3.3776852010000002,0.01,-0.0012207029999999897,-85368.0,0.0,0.0,-0.0,0.0,0.25,1.6833494370000002,0.01,-0.017089842000000077,-0.49000000953674316,-0.6100000143051147,-0.009999999776482582,-0.00958251953125,-0.0086669921875,1.01519775390625,33.099998474121094,0.0,1.0,1.19390869140625,-0.7319488525390625,Waiting,0.0,0.0,22.0,0.0,0.0,0.0,0.0,0.0,
0.4722380000000012,0.0,0.0,88677.0,0.0,0.0,0.0,0.0,0.125,0.859374912,0.01,-0.009765624000000028,-85538.0,0.0,0.0,-0.0,0.0,0.0,0.565185489,0.01,-0.024414059999999793,92138.0,0.0,0.0,0.0,0.0,0.125,3.3776852010000002,0.01,0.0012207029999999897,-85368.0,0.0,0.0,-0.0,0.0,0.25,1.6833494370000002,0.01,-0.012207029999999897,-0.49000000953674316,-0.6100000143051147,-0.009999999776482582,-0.00677490234375,-0.01275634765625,1.02001953125,33.099998474121094,0.0,4.0,1.19390869140625,-0.7319488525390625,Waiting,0.0,0.0,22.0,0.0,0.0,0.0,0.0,0.0,
0.49849499999999897,0.0,0.0,88677.0,0.0,0.0,0.0,0.0,0.125,0.8569335060000001,0.01,0.0,-85538.0,0.0,0.0,-0.0,0.0,0.0,0.563964786,0.01,-0.004882812000000847,92138.0,0.0,0.0,0.0,0.0,0.125,3.3776852010000002,0.01,0.0012207029999999897,-85368.0,0.0,0.0,-0.0,0.0,0.25,1.6833494370000002,0.01,-0.012207029999999897,-0.49000000953674316,-0.6100000143051147,-0.009999999776482582,-0.0089111328125,-0.0111083984375,1.02392578125,33.099998474121094,0.0,2.0,1.19390869140625,-0.7319488525390625,Waiting,0.0,0.0,22.0,0.0,0.0,0.0,0.0,0.0,
0.5223410000000004,0.0,0.0,88677.0,0.0,0.0,0.0,0.0,0.125,0.8581542090000001,0.01,0.0,-85538.0,0.0,0.0,-0.0,0.0,0.0,0.565185489,0.01,-0.004882812000000847,92138.0,0.0,0.0,0.0,0.0,0.125,3.3776852010000002,0.01,0.0012207029999999897,-85368.0,0.0,0.0,-0.0,0.0,0.25,1.6833494370000002,0.01,0.0,-0.49000000953674316,-0.6100000143051147,-0.009999999776482582,-0.01019287109375,-0.0072021484375,1.02215576171875,33.099998474121094,0.0,0.0,1.19390869140625,-0.7319488525390625,Waiting,0.0,0.0,22.0,0.0,0.0,0.0,0.0,0.0,
0.5484160000000011,0.0,0.0,88677.0,0.0,0.0,0.0,0.0,0.125,0.8581542090000001,0.01,0.0012207029999999897,-85538.0,0.0,0.0,-0.0,0.0,0.0,0.563964786,0.01,0.0,92138.0,0.0,0.0,0.0,0.0,0.125,3.3776852010000002,0.01,0.0,-85368.0,0.0,0.0,-0.0,0.0,0.25,1.6833494370000002,0.01,0.0,-0.47999998927116394,-0.6000000238418579,-0.009999999776482582,-0.01019287109375,-0.00628662109375,1.02301025390625,33.099998474121094,0.0,0.0,1.19390869140625,-0.7319488525390625,Waiting,0.0,0.0,22.0,0.0,0.0,0.0,0.0,0.0,
0.5695989999999983,0.0,0.0,88677.0,0.0,0.0,-925.9842485189438,0.0,0.125,0.839843664,4.932113993030843,-0.0012207029999999897,-85538.0,0.0,0.0,925.9842485189438,0.0,0.0,0.565185489,4.963632117503084,0.0,92138.0,0.0,0.0,-925.9842485189438,0.0,0.125,3.3764644980000003,4.940262766669736,-0.0012207029999999897,-85368.0,0.75,0.0,925.9842485189438,0.0,0.25,1.6833494370000002,4.957862277780858,0.0,-0.47999998927116394,-0.6100000143051147,-0.009999999776482582,-0.010986328125,-0.00750732421875,1.01824951171875,33.099998474121094,0.0,0.0,1.19390869140625,-0.7319488525390625,Waiting,0.0,0.0,22.0,0.0,0.0,0.0,0.0,0.0,
0.5960139999999993,0.0,0.0,88677.0,1.25,0.0,-1438.5826170444489,0.0,0.125,0.863037021,4.932113993030843,0.0,-85531.0,0.5,0.0,1438.5826170444489,0.0,0.0,0.565185489,4.963632117503084,0.0,92138.0,2.625,0.0,-1438.5826170444489,0.0,0.125,3.382568013,4.940262766669736,0.0012207029999999897,-85359.0,2.625,15.0,1438.5826170444489,0.0,0.25,1.6821287340000002,4.957862277780858,0.0012207029999999897,-0.49000000953674316,-0.6399999856948853,0.0,-0.107421875,0.05853271484375,0.9927978515625,33.099998474121094,0.0,-96.0,1.1937255859375,-0.7319793701171875,Waiting,0.0,0.0,22.0,0.0,0.0,0.0,0.0,0.0,
0.6274979999999996,0.0,0.0,88663.0,3.125,-37.5,-1967.7164733409882,0.0,0.125,0.863037021,4.932250999999998,0.0,-85531.0,4.25,67.5,1967.7164733409882,0.0,0.0,0.563964786,4.963769999999998,0.0,92138.0,4.75,0.0,-1967.7164733409882,0.0,0.125,3.4167476970000004,0.01,0.0,-85359.0,5.875,82.5,1967.7164733409882,0.0,0.25,1.6638181890000001,0.01,0.0,-0.6600000262260437,-1.309999942779541,-0.03999999910593033,-0.84014892578125,0.02606201171875,1.9766845703125,33.099998474121094,0.0,-794.0,1.1919097900390625,-0.7320098876953125,Waiting,0.0,0.0,22.0,0.0,0.0,0.0,0.0,0.0,
0.6523889999999992,0.0,0.0,88663.0,7.125,-120.0,-1240.1575148105621,0.0,0.125,0.861816318,4.931702972123363,0.004882811999999959,-85531.0,13.375,157.5,1240.1575148105621,0.0,0.0,0.563964786,4.96321847001233,0.0,92138.0,9.875,-22.5,-1240.1575148105621,0.0,0.125,3.406982073,4.939851066678939,0.021972653999999814,-85359.0,11.75,225.0,1240.1575148105621,0.0,0.25,1.6052244450000002,4.9574491111234265,-0.017089841999999855,-0.6499999761581421,-1.5800000429153442,-0.03999999910593033,-0.38397216796875,-0.0751953125,0.84552001953125,33.099998474121094,0.0,-360.0,1.1898193359375,-0.7320556640625,Waiting,0.0,0.0,22.0,0.0,0.0,0.0,0.0,0.0,
0.6740639999999984,0.0,0.0,88663.0,13.125,-300.0,-446.4566990733147,0.0,0.125,0.863037021,4.931565965128684,0.0,-85531.0,17.875,240.0,446.4566990733147,0.0,0.0,0.560302677,4.9630805874897295,0.0,92138.0,11.75,-60.0,-446.4566990733147,0.0,0.125,3.406982073,4.939713833323111,0.0,-85359.0,17.5,285.0,446.4566990733147,0.0,0.25,1.590576009,4.95731138887863,0.0,-0.5400000214576721,-1.9900000095367432,-0.07000000029802322,-0.51171875,-0.2041015625,0.67254638671875,33.099998474121094,0.0,-487.0,1.184234619140625,-0.7321929931640625,Waiting,0.0,0.0,22.0,0.0,0.0,0.0,0.0,0.0,
0.7048970000000009,0.0,0.0,88663.0,10.125,-337.5,0.0,0.0,0.125,0.861816318,4.931565965128684,0.0,-85531.0,9.625,345.0,0.0,0.0,0.0,0.5297851020000001,4.9630805874897295,0.0,92138.0,7.625,-210.0,0.0,0.0,0.125,3.406982073,4.939713833323111,0.0,-85307.0,12.0,322.5,0.0,0.0,0.25,1.590576009,4.95731138887863,0.0,-0.6100000143051147,-2.130000114440918,0.0,-0.08624267578125,0.076904296875,1.27239990234375,33.099998474121094,0.0,-38.0,1.1773834228515625,-0.732391357421875,Waiting,0.0,0.0,22.0,0.0,0.0,0.0,0.0,0.0,
0.7262489999999998,0.0,0.0,88608.0,3.125,-352.5,0.0,0.0,0.25,0.863037021,4.931565965128684,0.0,-85473.0,3.0,337.5,0.0,0.0,0.0,0.535888617,4.9630805874897295,0.0,92096.0,2.875,-270.0,0.0,0.0,0.125,3.392333637,4.939713833323111,-0.004882811999999959,-85307.0,4.75,315.0,0.0,0.0,0.25,1.5820310880000001,4.95731138887863,-0.010986326999999463,-0.6100000143051147,-2.130000114440918,0.0,-0.08624267578125,0.076904296875,1.27239990234375,33.099998474121094,0.0,-38.0,1.1773834228515625,-0.732391357421875,Waiting,0.0,0.0,22.0,0.0,0.0,0.0,0.0,0.0,
0.7509819999999999,0.0,0.0,88608.0,0.25,-315.0,0.0,0.0,0.25,0.861816318,4.931565965128684,0.0,-85473.0,0.5,300.0,0.0,0.0,0.0,0.545654241,4.9630805874897295,-0.03417968399999971,92096.0,1.0,-277.5,0.0,0.0,0.125,3.392333637,4.939713833323111,-0.004882811999999959,-85307.0,0.25,225.0,0.0,0.0,0.25,1.6015623360000002,4.95731138887863,-0.010986326999999463,-0.5299999713897705,-1.9299999475479126,0.1599999964237213,0.14190673828125,-0.03167724609375,0.87432861328125,33.099998474121094,0.0,171.0,1.1673583984375,-0.7320098876953125,Waiting,0.0,0.0,22.0,0.0,0.0,0.0,0.0,0.0,
0.7942309999999998,0.0,0.0,88608.0,0.0,-232.5,0.0,0.0,0.25,0.8532713970000001,4.931565965128684,0.0,-85473.0,0.0,195.0,0.0,0.0,0.25,0.548095647,4.9630805874897295,0.012207029999999897,92096.0,0.0,-157.5,0.0,0.0,0.125,3.3630367650000004,4.939713833323111,-0.009765623999999917,-85307.0,0.0,195.0,0.0,0.0,0.25,1.6015623360000002,4.95731138887863,-0.0024414059999999793,-0.46000000834465027,-1.7999999523162842,0.23999999463558197,0.09259033203125,-0.02215576171875,1.097900390625,33.099998474121094,0.0,127.0,1.161712646484375,-0.731903076171875,Waiting,0.0,0.0,22.0,0.0,0.0,0.0,0.0,0.0,
0.8181660000000011,0.0,0.0,88608.0,0.0,-217.5,0.0,0.0,0.25,0.845947179,4.931565965128684,0.0,-85473.0,0.0,180.0,0.0,0.0,0.0,0.5407714290000001,4.9630805874897295,0.012207029999999897,92096.0,0.0,-75.0,0.0,0.0,0.125,3.353271141,4.939713833323111,-0.009765623999999917,-85307.0,0.0,202.5,0.0,0.0,0.25,1.590576009,4.95731138887863,-0.0024414059999999793,-0.5199999809265137,-1.5800000429153442,0.27000001072883606,0.01434326171875,0.05169677734375,0.92315673828125,33.099998474121094,0.0,40.0,1.1591339111328125,-0.73187255859375,Waiting,0.0,0.0,22.0,0.0,0.0,0.0,0.0,0.0,
0.8445760000000009,0.0,0.0,88564.0,0.0,-240.0,0.0,0.0,0.25,0.848388585,4.931565965128684,-0.008544920999999928,-85439.0,0.0,195.0,0.0,0.0,0.0,0.539550726,4.9630805874897295,-0.0024414059999999793,92094.0,0.0,-30.0,0.0,0.0,0.125,3.353271141,4.939713833323111,4.908661722,-85267.0,0.0,232.5,0.0,0.0,0.25,1.6015623360000002,4.95731138887863,0.012207029999999897,-0.47999998927116394,-1.399999976158142,0.23000000417232513,0.13189697265625,-0.05487060546875,1.06622314453125,33.099998474121094,0.0,157.0,1.1545257568359375,-0.7316436767578125,Waiting,0.0,0.0,22.0,0.0,0.0,0.0,0.0,0.0,
0.8753149999999987,0.0,0.0,88564.0,0.0,-270.0,0.0,0.0,0.25,0.8435057730000001,4.931565965128684,-0.008544920999999928,-85439.0,0.0,255.0,0.0,0.0,0.0,0.5407714290000001,4.9630805874897295,0.0,92094.0,0.0,-22.5,0.0,0.0,0.0,3.3630367650000004,4.939713833323111,-0.0024414059999999793,-85267.0,0.0,285.0,0.0,0.0,0.25,1.6064451480000002,4.95731138887863,0.008544920999999484,-0.44999998807907104,-1.159999966621399,0.2800000011920929,0.01519775390625,0.0263671875,0.84112548828125,33.099998474121094,0.0,32.0,1.148712158203125,-0.7313385009765625,Waiting,0.0,0.0,22.0,0.0,0.0,0.0,0.0,0.0,
0.9060600000000013,0.0,0.0,88564.0,0.0,-315.0,-248.0315029621124,0.0,0.25,0.8435057730000001,0.01,-0.0012207029999999897,-85439.0,0.0,270.0,248.0315029621124,0.0,0.0,0.5407714290000001,0.01,0.0,92094.0,0.0,-37.5,-248.0315029621124,0.0,0.0,3.3630367650000004,0.01,-4.934296484999999,-85267.0,0.0,270.0,248.0315029621124,0.0,0.125,1.621093584,0.01,0.0012207030000004337,-0.44999998807907104,-1.090000033378601,0.3400000035762787,0.1416015625,-0.027587890625,0.9583740234375,33.099998474121094,0.0,159.0,1.1470184326171875,-0.7311859130859375,Waiting,0.0,0.0,22.0,0.0,0.0,0.0,0.0,0.0,
0.9426800000000003,0.0,0.0,88564.0,0.0,-277.5,-975.5905240774155,0.0,0.25,0.8435057730000001,0.01,0.0,-85439.0,0.125,217.5,975.5905240774155,0.0,0.125,0.5407714290000001,0.01,0.0,92094.0,0.125,-82.5,-975.5905240774155,0.0,0.0,3.3630367650000004,0.01,0.0,-85267.0,0.125,180.0,975.5905240774155,0.0,0.125,1.621093584,0.01,0.0,-0.4699999988079071,-0.8999999761581421,0.5099999904632568,0.122314453125,-0.0115966796875,0.87158203125,33.09000015258789,0.0,135.0,1.1430206298828125,-0.730865478515625,Waiting,0.0,0.0,22.0,0.0,0.0,0.0,0.0,0.0,
0.9659269999999996,0.0,0.0,88530.0,0.375,-225.0,-1306.299215555191,0.0,0.25,0.8435057730000001,0.01,0.0,-85408.0,0.875,187.5,1306.299215555191,0.0,0.125,0.5407714290000001,0.01,0.0,92075.0,1.25,-105.0,-1306.299215555191,0.0,0.0,3.3642574680000004,0.01,0.0,-85243.0,1.125,157.5,1306.299215555191,0.0,0.125,1.6064451480000002,0.01,0.0,-0.46000000834465027,-0.7400000095367432,0.5400000214576721,0.1160888671875,-0.03338623046875,0.84686279296875,33.09000015258789,0.0,126.0,1.1420135498046875,-0.730804443359375,Waiting,0.0,0.0,22.0,0.0,0.0,0.0,0.0,0.0,
0.9851810000000005,0.0,0.0,88530.0,1.0,-187.5,-1455.11816740036,0.0,0.25,0.8435057730000001,0.01,0.0,-85408.0,2.25,202.5,1455.11816740036,0.0,0.125,0.5407714290000001,0.01,0.0,92075.0,2.75,-120.0,-1455.11816740036,0.0,0.0,3.3776852010000002,0.01,0.0,-85243.0,2.75,165.0,1455.11816740036,0.0,0.125,1.596679524,0.01,0.0,-0.4699999988079071,-0.7300000190734863,0.5400000214576721,0.06890869140625,-0.08367919921875,1.01898193359375,33.09000015258789,0.0,81.0,1.141143798828125,-0.7308197021484375,Waiting,0.0,0.0,22.0,0.0,0.0,0.0,0.0,0.0,
1.0047609999999987,0.0,0.0,88530.0,2.875,-217.5,-1471.6535925865173,0.0,0.25,0.8288573370000001,0.01,0.0024414059999999793,-85408.0,4.625,262.5,1471.6535925865173,0.0,0.125,0.5407714290000001,0.01,0.0012207030000004337,92075.0,5.375,-150.0,-1471.6535925865173,0.0,0.0,3.3789059040000002,0.01,0.013427732999999886,-85243.0,4.25,225.0,1471.6535925865173,0.0,0.25,1.571044761,0.01,-0.009765623999999917,-0.550000011920929,-0.8999999761581421,0.5099999904632568,-0.3536376953125,0.12225341796875,1.20697021484375,33.09000015258789,0.0,-333.0,1.1392364501953125,-0.7309112548828125,Waiting,0.0,0.0,22.0,0.0,0.0,0.0,0.0,0.0,
1.025928,0.0,0.0,88530.0,5.0,-285.0,-1471.6535925865173,0.0,0.25,0.849609288,0.01,0.0012207029999999897,-85408.0,8.25,337.5,1471.6535925865173,0.0,0.125,0.539550726,0.01,-0.0012207030000004337,92075.0,8.25,-172.5,-1471.6535925865173,0.0,0.0,3.3776852010000002,0.01,0.0012207029999999897,-85243.0,6.75,300.0,1471.6535925865173,0.0,0.25,1.572265464,0.01,0.0,-0.47999998927116394,-1.2899999618530273,0.5199999809265137,-0.27471923828125,-0.2510986328125,1.03179931640625,33.09000015258789,0.0,-144.0,1.1360015869140625,-0.7311859130859375,Waiting,0.0,0.0,22.0,0.0,0.0,0.0,0.0,0.0,
1.0482819999999993,0.0,0.0,88530.0,6.875,-352.5,-959.0550988912584,0.0,0.25,0.848388585,0.01,0.0012207029999999897,-85408.0,10.75,397.5,959.0550988912584,0.0,0.125,0.539550726,0.01,0.0012207030000004337,92075.0,11.25,-210.0,-959.0550988912584,0.0,0.125,3.3776852010000002,0.01,-0.0012207029999999897,-85243.0,9.125,375.0,959.0550988912584,0.0,0.25,1.572265464,0.01,-0.0012207030000004337,-0.49000000953674316,-1.6299999952316284,0.5199999809265137,-0.54150390625,0.1614990234375,0.69476318359375,33.09000015258789,0.0,-519.0,1.1338043212890625,-0.7312469482421875,Waiting,0.0,0.0,22.0,0.0,0.0,0.0,0.0,0.0,
1.0673299999999981,0.0,0.0,88530.0,7.875,-405.0,-479.5275494456292,0.0,0.25,0.8410643670000001,0.01,-0.0012207029999999897,-85408.0,11.0,427.5,479.5275494456292,0.0,0.125,0.5407714290000001,0.01,-0.0012207030000004337,92075.0,11.0,-225.0,-479.5275494456292,0.0,0.125,3.3764644980000003,0.01,0.0,-85243.0,9.125,427.5,479.5275494456292,0.0,0.25,1.5771482760000002,0.01,0.0012207030000004337,-0.4099999964237213,-1.840000033378601,0.5600000023841858,-0.26519775390625,0.05963134765625,1.26123046875,33.09000015258789,0.0,-223.0,1.131103515625,-0.7311553955078125,Waiting,0.0,0.0,22.0,0.0,0.0,0.0,0.0,0.0,
1.0906719999999988,0.0,0.0,88458.0,6.25,-427.5,-214.96063694357872,0.0,0.25,0.850829991,0.01,0.0,-85336.0,7.75,427.5,214.96063694357872,0.0,0.125,0.5407714290000001,0.01,0.0,92037.0,8.0,-232.5,-214.96063694357872,0.0,0.125,3.3776852010000002,0.01,0.0,-85171.0,6.625,442.5,214.96063694357872,0.0,0.125,1.5820310880000001,0.01,0.0,-0.46000000834465027,-1.8200000524520874,0.7300000190734863,0.02862548828125,0.01031494140625,1.04705810546875,33.09000015258789,0.0,62.0,1.1251983642578125,-0.7309417724609375,Waiting,0.0,0.0,22.0,0.0,0.0,0.0,0.0,0.0,
1.111887999999999,0.0,0.0,88458.0,3.875,-420.0,0.0,0.0,0.25,0.848388585,0.01,0.0,-85336.0,4.375,397.5,0.0,0.0,0.125,0.5407714290000001,0.01,0.0,92037.0,4.375,-232.5,0.0,0.0,0.125,3.3776852010000002,0.01,0.0,-85171.0,3.375,412.5,0.0,0.0,0.125,1.5869139,0.01,0.0,-0.5,-1.8600000143051147,0.8199999928474426,-0.05169677734375,-0.0458984375,0.6932373046875,33.09000015258789,0.0,-29.0,1.1222381591796875,-0.730865478515625,Waiting,0.0,0.0,22.0,0.0,0.0,0.0,0.0,0.0,
1.130440999999999,0.0,0.0,88458.0,1.125,-405.0,0.0,0.0,0.25,0.847167882,0.01,0.0,-85336.0,1.5,367.5,0.0,0.0,0.125,0.539550726,0.01,0.0,92037.0,1.375,-247.5,0.0,0.0,0.125,3.3764644980000003,0.01,0.0,-85171.0,1.125,345.0,0.0,0.0,0.125,1.591796712,0.01,0.009765623999999917,-0.5099999904632568,-1.9700000286102295,0.949999988079071,0.01812744140625,0.051513671875,1.0791015625,33.09000015258789,0.0,56.0,1.11651611328125,-0.7305908203125,Waiting,0.0,0.0,22.0,0.0,0.0,0.0,0.0,0.0,
1.152275999999998,0.0,0.0,88458.0,0.125,-397.5,0.0,0.0,0.25,0.849609288,0.01,0.0,-85336.0,0.25,345.0,0.0,0.0,0.125,0.5407714290000001,0.01,0.0,92037.0,0.5,-270.0,0.0,0.0,0.125,3.3764644980000003,0.01,0.0,-85171.0,0.375,270.0,0.0,0.0,0.125,1.595458821,0.01,0.009765623999999917,-0.5099999904632568,-1.7999999523162842,1.0,0.20513916015625,-0.03277587890625,0.9549560546875,33.09000015258789,0.0,234.0,1.1138916015625,-0.7303924560546875,Waiting,0.0,0.0,22.0,0.0,0.0,0.0,0.0,0.0,
1.1701620000000004,0.0,0.0,88458.0,0.0,-405.0,0.0,0.0,0.25,0.849609288,0.01,0.0,-85336.0,0.0,307.5,0.0,0.0,0.125,0.5407714290000001,0.01,0.0,92037.0,0.0,-300.0,0.0,0.0,0.125,3.3789059040000002,0.01,0.0,-85171.0,0.125,232.5,0.0,0.0,0.125,1.6015623360000002,0.01,0.009765623999999917,-0.47999998927116394,-1.6200000047683716,1.0499999523162842,0.06781005859375,-0.02301025390625,1.12945556640625,33.09000015258789,0.0,99.0,1.1114959716796875,-0.7302398681640625,Waiting,0.0,0.0,22.0,0.0,0.0,0.0,0.0,0.0,
1.192310999999998,0.0,0.0,88458.0,0.0,-390.0,0.0,0.0,0.25,0.847167882,0.01,0.0,-85295.0,0.0,255.0,0.0,0.0,0.125,0.539550726,0.01,0.0,91989.0,0.0,-322.5,0.0,0.0,0.125,3.3776852010000002,0.01,-0.0012207029999999897,-85119.0,0.0,240.0,0.0,0.0,0.125,1.6113279600000001,0.01,0.012207029999999897,-0.4399999976158142,-1.5099999904632568,1.1399999856948853,0.1021728515625,0.05596923828125,0.96209716796875,33.09000015258789,0.0,128.0,1.1070556640625,-0.730194091796875,Waiting,0.0,0.0,22.0,0.0,0.0,0.0,0.0,0.0,
1.211165000000001,0.0,0.0,88412.0,0.0,-345.0,0.0,0.0,0.25,0.848388585,0.01,0.0,-85295.0,0.0,232.5,0.0,0.0,0.125,0.5407714290000001,0.01,0.0,91989.0,0.0,-307.5,0.0,0.0,0.125,3.3776852010000002,0.01,-0.0012207029999999897,-85119.0,0.0,285.0,0.0,0.0,0.125,1.619872881,0.01,0.012207029999999897,-0.41999998688697815,-1.5099999904632568,1.159999966621399,0.0452880859375,0.004150390625,1.0072021484375,33.09000015258789,0.0,72.0,1.10504150390625,-0.7301177978515625,Waiting,0.0,0.0,22.0,0.0,0.0,0.0,0.0,0.0,
1.2288029999999999,0.0,0.0,88412.0,0.0,-300.0,0.0,0.0,0.25,0.848388585,0.01,0.0,-85295.0,0.0,232.5,0.0,0.0,0.125,0.539550726,0.01,0.0,91989.0,0.0,-270.0,0.0,0.0,0.125,3.3666988740000003,0.01,-0.004882811999999959,-85119.0,0.0,345.0,0.0,0.0,0.125,1.6345213170000001,0.01,0.021972653999999814,-0.44999998807907104,-1.4299999475479126,1.1399999856948853,0.02679443359375,-0.0177001953125,0.94927978515625,33.09000015258789,0.0,50.0,1.1031036376953125,-0.7300262451171875,Waiting,0.0,0.0,22.0,0.0,0.0,0.0,0.0,0.0,
1.2515910000000003,0.0,0.0,88412.0,0.0,-270.0,0.0,0.0,0.25,0.848388585,0.01,0.0,-85295.0,0.0,277.5,0.0,0.0,0.125,0.5407714290000001,0.01,0.0,91989.0,0.0,-210.0,0.0,0.0,0.0,3.3679195770000003,0.01,-0.004882811999999959,-85119.0,0.0,375.0,0.0,0.0,0.125,1.644286941,0.01,0.021972653999999814,-0.38999998569488525,-1.1799999475479126,1.0099999904632568,0.18109130859375,-0.17266845703125,1.010498046875,33.09000015258789,0.0,199.0,1.0996246337890625,-0.729736328125,Waiting,0.0,0.0,22.0,0.0,0.0,0.0,0.0,0.0,
1.2704429999999993,0.0,0.0,88412.0,0.0,-277.5,0.0,0.0,0.25,0.847167882,0.01,0.0,-85295.0,0.0,277.5,0.0,0.0,0.125,0.5407714290000001,0.01,0.0,91989.0,0.0,-165.0,0.0,0.0,0.0,3.3679195770000003,0.01,-0.004882811999999959,-85119.0,0.0,375.0,0.0,0.0,0.125,1.6345213170000001,0.01,0.021972653999999814,-0.3700000047683716,-1.059999942779541,0.9900000095367432,0.1474609375,0.0579833984375,1.086181640625,33.09000015258789,0.0,168.0,1.098236083984375,-0.7296600341796875,Waiting,0.0,0.0,22.0,0.0,0.0,0.0,0.0,0.0,
1.2918940000000003,0.0,0.0,88412.0,0.0,-300.0,147.65625,0.0,0.25,0.848388585,0.5498168668524888,0.0,-85295.0,0.0,315.0,147.65625,0.0,0.125,0.5407714290000001,4.410439589772222,0.0,91989.0,0.0,-165.0,147.65625,0.0,0.0,3.3679195770000003,4.389674732977289,-0.0012207029999999897,-85119.0,0.0,337.5,147.65625,0.0,0.25,1.6308592080000002,0.5526872062785588,4.943351564,-0.4099999964237213,-1.0099999904632568,1.0,-0.0426025390625,-0.03192138671875,0.9351806640625,33.09000015258789,0.0,-26.0,1.0969390869140625,-0.7295684814453125,Waiting,0.0,0.0,22.0,0.0,0.0,0.0,0.0,0.0,
1.310898000000001,0.0,0.0,88412.0,0.125,-315.0,508.59375,0.0,0.25,0.847167882,0.5498168668524888,0.0012207029999999897,-85295.0,0.0,337.5,508.59375,0.0,0.125,0.535888617,4.410439589772222,-0.004882811999999959,91959.0,0.0,-157.5,508.59375,0.0,0.0,3.3666988740000003,4.389674732977289,0.0,-85083.0,0.125,285.0,508.59375,0.0,0.25,1.6589353770000002,0.5526872062785588,-4.954337891,-0.4300000071525574,-0.9900000095367432,1.0700000524520874,0.11175537109375,-0.03741455078125,0.995849609375,33.09000015258789,0.0,128.0,1.0945281982421875,-0.72955322265625,Waiting,0.0,0.0,22.0,0.0,0.0,0.0,0.0,0.0,
1.3293050000000002,0.0,0.0,88369.0,1.125,-307.5,803.90625,0.0,0.25,0.847167882,0.5498168668524888,0.0,-85248.0,0.0,330.0,803.90625,0.0,0.125,0.535888617,4.410439589772222,0.0,91959.0,0.125,-180.0,803.90625,0.0,0.0,3.3679195770000003,4.389674732977289,0.0,-85083.0,0.125,240.0,803.90625,0.0,0.25,1.6564939710000002,0.5526872062785588,0.0,-0.4399999976158142,-0.800000011920929,1.1100000143051147,0.3563232421875,0.090576171875,1.02008056640625,33.09000015258789,0.0,372.0,1.0937347412109375,-0.729522705078125,Waiting,0.0,0.0,22.0,0.0,0.0,0.0,0.0,0.0,
1.3512479999999996,0.0,0.0,88369.0,3.25,-262.5,1132.03125,0.0,0.25,0.832519446,0.5498168668524888,-0.009765624000000028,-85248.0,0.0,285.0,1132.03125,0.0,0.125,0.534667914,4.410439589772222,0.0,91959.0,1.375,-195.0,1132.03125,0.0,0.0,3.338622705,4.389674732977289,0.0012207029999999897,-85083.0,0.75,232.5,1132.03125,0.0,1.375,1.639404129,0.5526872062785588,-0.00854492100000015,-0.4099999964237213,-0.5400000214576721,1.1100000143051147,0.267333984375,0.0263671875,0.937255859375,33.09000015258789,0.0,276.0,1.0933685302734375,-0.72943115234375,Waiting,0.0,0.0,22.0,0.0,0.0,0.0,0.0,0.0,
1.369934000000001,0.0,0.0,88369.0,6.25,-180.0,1132.03125,0.0,1.25,0.8935545960000001,0.5498168668524888,0.015869139000000088,-85248.0,0.375,247.5,1132.03125,0.0,2.625,0.477294873,4.410439589772222,-0.0183105449999994,91959.0,3.75,-195.0,1132.03125,0.0,1.625,3.2702633370000003,4.389674732977289,4.887909771,-85083.0,0.75,232.5,1132.03125,0.0,1.875,1.7077634970000002,0.5526872062785588,-0.006103514999999948,-0.3499999940395355,-0.20999999344348907,0.8899999856948853,0.22515869140625,0.104736328125,1.070556640625,33.09000015258789,0.0,230.0,1.093719482421875,-0.7289886474609375,Waiting,0.0,0.0,22.0,0.0,0.0,0.0,0.0,0.0,
1.3904539999999979,0.0,0.0,88369.0,9.25,-97.5,1230.46875,0.0,1.75,0.954589746,0.5498168668524888,0.0634765559999999,-85248.0,1.375,247.5,1230.46875,0.0,3.0,0.39550777200000004,4.410439589772222,-0.08178710100000064,91959.0,7.125,-165.0,1230.46875,0.0,2.0,3.177489909,4.389674732977289,-0.08544921000000016,-85083.0,1.875,247.5,1230.46875,0.0,2.0,1.7858884890000002,0.5526872062785588,0.08056639799999998,-0.30000001192092896,-0.10000000149011612,0.7099999785423279,0.15277099609375,0.05316162109375,0.99896240234375,33.09000015258789,0.0,155.0,1.0943145751953125,-0.7285919189453125,Waiting,0.0,0.0,22.0,0.0,0.0,0.0,0.0,0.0,
1.4080190000000001,0.0,0.0,88369.0,9.25,-97.5,1230.46875,0.0,2.0,1.01318349,0.5498168668524888,0.05981444700000005,-85248.0,2.375,277.5,1230.46875,0.0,3.25,0.328369107,4.410439589772222,-0.07324218000000027,91959.0,11.0,-112.5,1230.46875,0.0,2.0,3.1103512440000003,4.389674732977289,-0.07568358599999936,-85083.0,2.875,285.0,1230.46875,0.0,2.0,1.8469236390000001,0.5526872062785588,0.07324218000000005,-0.25,-0.07000000029802322,0.5099999904632568,0.02191162109375,-0.0457763671875,0.90777587890625,33.09000015258789,0.0,22.0,1.0950469970703125,-0.7281951904296875,Waiting,0.0,0.0,22.0,0.0,0.0,0.0,0.0,0.0,
1.4264520000000012,0.0,0.0,88369.0,11.625,-22.5,1230.46875,0.0,1.25,1.070556531,0.5498168668524888,0.05004882299999991,-85248.0,4.375,315.0,1230.46875,0.0,0.875,0.25146481800000003,4.410439589772222,-0.056152337999999524,91959.0,13.875,-45.0,1230.46875,0.0,0.625,3.041991876,4.389674732977289,-0.05859374400000039,-85083.0,5.125,315.0,1230.46875,0.0,1.0,1.9238279280000001,0.5526872062785588,0.06225585299999992,-0.3100000023841858,-0.10000000149011612,0.27000001072883606,0.0538330078125,0.01763916015625,1.05023193359375,33.09000015258789,0.0,55.0,1.0958099365234375,-0.7277984619140625,Waiting,0.0,0.0,22.0,0.0,0.0,0.0,0.0,0.0,
1.4501630000000005,0.0,0.0,88390.0,13.0,30.0,1230.46875,0.0,1.0,1.1389158990000001,0.5498168668524888,0.07568358600000002,-85196.0,6.125,345.0,1230.46875,0.0,0.875,0.175781232,4.410439589772222,-0.08544921000000016,91965.0,15.375,0.0,1230.46875,0.0,0.375,2.9492184480000003,4.389674732977289,-0.08666991299999971,-85033.0,6.625,337.5,1230.46875,0.0,0.75,2.019042762,0.5526872062785588,0.0927734280000001,-0.33000001311302185,0.0,-0.27000001072883606,0.0576171875,-0.01123046875,0.7218017578125,33.08000183105469,0.0,57.0,1.0974884033203125,-0.7271270751953125,Waiting,0.0,0.0,22.0,0.0,0.0,0.0,0.0,0.0,
1.4688029999999999,0.0,0.0,88390.0,13.875,90.0,1230.46875,0.0,0.75,1.20849597,0.5498168668524888,0.06958007100000008,-85196.0,8.25,337.5,1230.46875,0.0,0.875,0.111083973,4.410439589772222,0.0,91965.0,18.375,105.0,1230.46875,0.0,0.25,2.862548535,4.389674732977289,0.0,-85033.0,8.625,270.0,1230.46875,0.0,0.375,2.08740213,0.5526872062785588,0.0,-0.33000001311302185,0.0,-0.8899999856948853,-0.0128173828125,-0.0626220703125,1.140380859375,33.08000183105469,0.0,-12.0,1.099365234375,-0.7264404296875,Waiting,0.0,0.0,22.0,0.0,0.0,0.0,0.0,0.0,
1.5021059999999997,0.0,0.0,88390.0,15.5,225.0,1230.46875,0.0,0.625,1.2670897140000001,0.5498168668524888,0.06591796200000011,-85196.0,11.5,240.0,1230.46875,0.0,0.875,0.087890616,4.410439589772222,-0.04516601100000006,91965.0,19.75,165.0,1230.46875,0.0,0.125,2.81982393,4.389674732977289,-0.07202147699999983,-85033.0,9.75,210.0,1230.46875,0.0,0.375,2.1203611110000002,0.5526872062785588,0.06225585299999992,-0.36000001430511475,0.0,-1.25,-0.08172607421875,-0.0938720703125,1.006103515625,33.08000183105469,0.0,-79.0,1.100250244140625,-0.7261962890625,Waiting,0.0,0.0,22.0,0.0,0.0,0.0,0.0,0.0,
1.5184979999999997,0.0,0.0,88390.0,16.25,277.5,1230.46875,0.0,0.375,1.286620962,0.5498168668524888,0.03295898099999994,-85196.0,11.5,240.0,1230.46875,0.0,0.5,0.075683586,4.410439589772222,-0.028076169000000206,91965.0,19.75,165.0,1230.46875,0.0,0.0,2.774657919,4.389674732977289,-0.0402831990000001,-85033.0,11.25,180.0,1230.46875,0.0,0.25,2.135009547,0.5526872062785588,0.030517575000000186,-0.49000000953674316,-0.07000000029802322,-2.109999895095825,-0.10455322265625,-0.14947509765625,0.923828125,33.08000183105469,0.0,-98.0,1.1016387939453125,-0.726165771484375,Waiting,0.0,0.0,22.0,0.0,0.0,0.0,0.0,0.0,
1.5411739999999992,0.0,0.0,88390.0,16.5,315.0,1099.21875,0.0,0.375,1.304931507,0.5498168668524888,0.0,-85196.0,13.625,202.5,1099.21875,0.0,0.5,0.063476556,4.410439589772222,0.0,91965.0,20.0,225.0,1099.21875,0.0,0.0,2.7514645620000002,4.389674732977289,0.0,-85033.0,12.5,187.5,1099.21875,0.0,0.25,2.149657983,0.5526872062785588,0.0,-0.5400000214576721,-0.17000000178813934,-2.640000104904175,-0.06610107421875,-0.0792236328125,1.0887451171875,33.08000183105469,0.0,-59.0,1.1021575927734375,-0.72637939453125,Waiting,0.0,0.0,22.0,0.0,0.0,0.0,0.0,0.0,
1.5596159999999981,0.0,0.0,88390.0,16.75,345.0,1066.40625,0.0,0.375,1.3159178340000002,0.5498168668524888,0.019531247999999835,-85152.0,15.5,202.5,1066.40625,0.0,0.25,0.050048823000000006,4.410439589772222,-0.010986327000000351,92018.0,19.625,270.0,1066.40625,0.0,0.0,2.7453610470000003,4.389674732977289,-0.024414059999999793,-84988.0,12.75,255.0,1066.40625,0.0,0.25,2.153320092,0.5526872062785588,0.012207029999999897,-0.5699999928474426,-0.30000001192092896,-3.259999990463257,-0.03326416015625,0.0068359375,1.12579345703125,33.08000183105469,0.0,-28.0,1.1026153564453125,-0.7266387939453125,Waiting,0.0,0.0,22.0,0.0,0.0,0.0,0.0,0.0,
1.5764379999999982,0.0,0.0,88455.0,16.75,375.0,916.0059794096946,0.0,0.25,1.307372913,0.6670678184525642,0.004882811999999959,-85152.0,15.875,255.0,1214.5879668228974,0.0,0.25,0.039062496,4.488002781576707,0.0,92018.0,19.0,315.0,899.178062317224,0.0,0.0,2.7453610470000003,4.285258343842494,0.0,-84988.0,12.875,330.0,1201.9476538473812,0.0,0.25,2.154540795,0.4630042746942932,0.0,-0.6200000047683716,-0.23000000417232513,-4.78000020980835,-0.00555419921875,-0.054443359375,0.92108154296875,33.08000183105469,0.0,2.0,1.10357666015625,-0.7271270751953125,Waiting,0.0,0.0,22.0,0.0,0.0,0.0,0.0,0.0,
1.5984089999999997,0.0,0.0,88455.0,15.0,412.5,910.4998702066051,0.0,0.25,1.307372913,0.6812734192714646,0.0,-85152.0,15.375,330.0,1231.6234534292018,0.0,0.25,0.025634763,4.490352220236918,-0.009765623999999917,92018.0,17.375,337.5,883.470327647457,0.0,0.0,2.7453610470000003,4.278615160573636,0.0,-84988.0,12.875,330.0,1211.7780891005305,0.0,0.25,2.158202904,0.45360161116983244,-0.0024414059999999793,-0.6100000143051147,-0.25,-5.710000038146973,-0.02130126953125,0.1708984375,1.13641357421875,33.08000183105469,0.0,-34.0,1.10406494140625,-0.7272796630859375,Waiting,0.0,0.0,22.0,0.0,0.0,0.0,0.0,0.0,
1.6152180000000007,0.0,0.0,88455.0,15.0,412.5,878.9995808508636,0.0,0.25,1.33056627,0.7098312942589571,0.00732421800000016,-85152.0,14.75,420.0,1246.1099854324739,0.0,0.125,0.023193357,4.49951413216206,-0.009765623999999917,92018.0,15.5,352.5,840.762295305215,0.0,0.125,2.7404782350000003,4.25794000391167,-0.0012207029999995456,-84988.0,12.625,427.5,1219.4388339992374,0.0,0.25,2.149657983,0.4371316801167038,-0.0012207029999999897,-0.550000011920929,-0.30000001192092896,-6.739999771118164,0.08941650390625,-0.07403564453125,1.05194091796875,33.08000183105469,0.0,101.0,1.1045989990234375,-0.7273406982421875,Waiting,0.0,0.0,22.0,0.0,0.0,0.0,0.0,0.0,
1.6357210000000013,0.0,0.0,88455.0,13.25,472.5,882.7854288086834,0.0,0.375,1.337890488,0.7119302951331422,0.0,-85152.0,15.125,517.5,1248.1713204168548,0.0,0.125,0.021972654,4.49700965019661,0.0,92018.0,13.875,360.0,837.699043744386,0.0,0.125,2.7380368290000003,4.2609755563320055,0.0,-84988.0,12.625,525.0,1216.7009573779758,0.0,0.25,2.139892359,0.43485187569045497,0.0,-0.5799999833106995,-0.3400000035762787,-9.140000343322754,-0.02032470703125,-0.087890625,0.86334228515625,33.08000183105469,0.0,-2.0,1.105560302734375,-0.7276611328125,Waiting,0.0,0.0,22.0,0.0,0.0,0.0,0.0,0.0,
1.654518,0.0,0.0,88455.0,11.75,540.0,795.8329921088003,0.0,0.375,1.362304548,0.7369829445821867,0.017089842000000077,-85152.0,15.125,622.5,1154.8649169605567,0.0,0.125,0.021972654,4.497981702355082,0.0,92018.0,12.875,352.5,733.7306728801109,0.0,0.125,2.730712611,4.252115264870634,-0.003662109000000413,-84988.0,12.125,622.5,1112.9795709816817,0.0,0.25,2.130126735,0.41878528504239576,-0.010986326999999907,-0.6299999952316284,-0.3499999940395355,-10.470000267028809,0.0125732421875,0.11529541015625,1.10772705078125,33.08000183105469,0.0,-4.0,1.10601806640625,-0.7278289794921875,Waiting,0.0,0.0,22.0,0.0,0.0,0.0,0.0,0.0,
1.6724619999999994,0.0,0.0,88455.0,10.125,615.0,565.1255015955574,0.0,0.375,1.3696287660000002,0.8214367752465261,0.018310545000000067,-85152.0,13.5,735.0,912.884146614361,0.0,0.125,0.021972654,4.516982203807712,0.0,92078.0,12.125,345.0,489.178950483316,0.0,0.125,2.720946987,4.190253950412136,-0.008544921000000372,-84855.0,10.625,727.5,867.9208939656646,0.0,0.25,2.1154782990000003,0.37698329961484794,-0.008544920999999928,-0.6000000238418579,-0.3499999940395355,-11.920000076293945,0.01654052734375,0.00994873046875,1.2149658203125,33.08000183105469,0.0,18.0,1.10601806640625,-0.7278900146484375,Waiting,0.0,0.0,22.0,0.0,0.0,0.0,0.0,0.0,
1.6934939999999987,0.0,0.0,88578.0,8.125,690.0,350.1544467495712,0.0,0.375,1.3977049350000001,1.0150520999736816,0.019531247999999835,-85016.0,10.375,832.5,671.848012422166,0.0,0.25,0.023193357,4.549017822525232,0.0,92078.0,10.75,352.5,253.1839806954593,0.0,0.125,2.711181363,4.011090541657233,-0.007324217999999938,-84855.0,8.625,825.0,626.7964129587177,0.0,0.25,2.103271269,0.3022768527306653,-0.014648435999999876,-0.6299999952316284,-0.2800000011920929,-13.460000038146973,-0.0174560546875,-0.025146484375,0.8917236328125,33.08000183105469,0.0,-9.0,1.10601806640625,-0.7279510498046875,Waiting,0.0,0.0,22.0,0.0,0.0,0.0,0.0,0.0,
1.7115459999999985,0.0,0.0,88578.0,5.75,765.0,-218.0769529089661,0.0,0.375,1.4196775890000002,4.320569017849651,0.021972654000000036,-85016.0,10.375,832.5,387.4503195865746,0.0,0.25,0.013427733,4.642517293413823,0.0,92078.0,10.75,352.5,-155.97016955778616,0.0,0.125,2.6965329270000002,0.08050581780247626,-0.014648435999999876,-84855.0,6.0,907.5,356.21185627315094,0.0,0.25,2.080077912,0.03532570724717873,-0.010986327000000351,-0.6899999976158142,-0.3700000047683716,-16.65999984741211,-0.0614013671875,0.01348876953125,1.04376220703125,33.08000183105469,0.0,-59.0,1.1059722900390625,-0.7279815673828125,Waiting,0.0,0.0,22.0,0.0,0.0,0.0,0.0,0.0,
1.7298420000000005,0.0,0.0,88578.0,2.875,832.5,-264.56692814826965,0.0,0.5,1.4489744610000002,4.703997386368342,0.024414060000000015,-85016.0,6.375,915.0,264.56692814826965,0.0,0.25,4.94384715,4.7340577571039235,4.932860823,92078.0,8.375,382.5,-264.56692814826965,0.0,0.125,2.681884491,4.711769268760684,0.0,-84855.0,3.125,975.0,264.56692814826965,0.0,0.25,2.0690915850000002,4.728554779879255,0.0,-0.6899999976158142,-0.5199999809265137,-18.280000686645508,-0.08038330078125,0.0718994140625,1.2403564453125,33.08000183105469,0.0,-92.0,1.1058349609375,-0.727935791015625,Waiting,0.0,0.0,22.0,0.0,0.0,0.0,0.0,0.0,
1.7503839999999982,0.0,0.0,88578.0,1.25,877.5,-330.70866018533707,0.0,0.5,1.4807127390000001,4.681802245370259,0.037841793000000123,-85016.0,3.125,975.0,330.70866018533707,0.0,0.0,4.93164012,4.711720780532363,-0.024414059999999793,92078.0,5.125,435.0,-330.70866018533707,0.0,0.125,2.672118867,4.689537457243604,-0.01342773300000033,-84855.0,1.5,997.5,330.70866018533707,0.0,2.125,2.0581052580000003,4.706243768321146,-0.023193356999999803,-0.6299999952316284,-0.550000011920929,-19.90999984741211,-0.20697021484375,0.0660400390625,1.15411376953125,33.08000183105469,0.0,-210.0,1.1054840087890625,-0.72784423828125,Waiting,0.0,0.0,22.0,0.0,0.0,0.0,0.0,0.0,
1.7691769999999998,0.0,0.0,88578.0,0.25,885.0,-330.70866018533707,0.0,5.0,1.417236183,4.637823019830288,-0.00976562400000014,-85016.0,1.125,997.5,330.70866018533707,0.0,0.5,4.93164012,4.667460510655882,0.0,92078.0,2.625,487.5,-330.70866018533707,0.0,0.5,2.707519254,4.645485569807691,0.0,-84855.0,1.5,997.5,330.70866018533707,0.0,3.0,1.990966593,4.662034947596658,-0.009765624000000361,-0.6000000238418579,-0.5099999904632568,-21.489999771118164,-0.1690673828125,0.00616455078125,0.8802490234375,33.08000183105469,0.0,-155.0,1.104888916015625,-0.727783203125,Waiting,0.0,0.0,22.0,0.0,0.0,0.0,0.0,0.0,
1.7898119999999982,0.0,0.0,88578.0,0.125,840.0,-462.9921242594719,0.0,6.5,1.286620962,4.616586923456641,0.0,-85016.0,0.25,975.0,462.9921242594719,0.0,0.5,4.935302229,4.646088707376483,0.0,92078.0,1.125,532.5,-462.9921242594719,0.0,1.375,2.774657919,4.6242143874359165,0.0,-84709.0,0.875,960.0,462.9921242594719,0.0,3.375,1.851806451,4.640687987391157,0.0,-0.5099999904632568,-0.5199999809265137,-24.489999771118164,-0.12542724609375,-0.26800537109375,1.2724609375,33.08000183105469,0.0,2.0,1.1032867431640625,-0.7274932861328125,Waiting,0.0,0.0,22.0,0.0,0.0,0.0,0.0,0.0,
1.8089710000000014,0.0,0.0,88699.0,0.125,772.5,-727.55908370018,0.0,6.75,1.154785038,4.596720928163622,-0.15380857800000003,-84873.0,0.125,922.5,727.55908370018,0.0,0.5,0.030517575,4.6260957606558835,0.024414059999999793,92175.0,0.375,577.5,-727.55908370018,0.0,1.5,2.824706742,4.604315569807691,0.06835936800000031,-84709.0,0.5,907.5,727.55908370018,0.0,3.375,1.7663572410000001,4.620718280929992,-0.12207029999999985,-0.5899999737739563,-0.6600000262260437,-25.850000381469727,-0.1728515625,0.18035888671875,0.899169921875,33.08000183105469,0.0,-228.0,1.102294921875,-0.727508544921875,Waiting,0.0,0.0,22.0,0.0,0.0,0.0,0.0,0.0,
1.8276719999999986,0.0,0.0,88699.0,0.125,772.5,-727.55908370018,0.0,2.625,1.0351561440000001,4.578087971579158,-0.10009764599999982,-84873.0,0.125,885.0,727.55908370018,0.0,0.25,0.05981444700000001,4.607343732240203,-4.91943309,92175.0,0.125,615.0,-727.55908370018,0.0,1.125,2.885741892,4.5856518280983005,0.05493163499999998,-84709.0,0.75,870.0,727.55908370018,0.0,1.5,1.6589353770000002,4.601988050301872,-0.10375975500000001,-0.4399999976158142,-0.6800000071525574,-27.139999389648438,-0.046142578125,-0.10711669921875,1.238525390625,33.08000183105469,0.0,16.0,1.101165771484375,-0.7275238037109375,Waiting,0.0,0.0,22.0,0.0,0.0,0.0,0.0,0.0,
1.849744999999999,0.0,0.0,88699.0,0.75,712.5,-760.6299340724946,0.0,1.25,0.898437408,4.543973238631664,-0.11230467600000016,-84873.0,0.375,870.0,760.6299340724946,0.0,0.25,0.09887694300000001,4.573010992896083,0.0402831990000001,92175.0,0.125,637.5,-760.6299340724946,0.0,0.25,2.9455563390000004,4.551480731239321,0.056152337999999524,-84709.0,1.125,847.5,760.6299340724946,0.0,0.625,1.533202968,4.567695220120751,4.840812512,-0.47999998927116394,-0.7099999785423279,-28.34000015258789,-0.1524658203125,-0.22796630859375,0.9976806640625,33.08000183105469,0.0,-18.0,1.10003662109375,-0.727783203125,Waiting,0.0,0.0,22.0,0.0,0.0,0.0,0.0,0.0,
1.8677229999999982,0.0,0.0,88699.0,1.5,660.0,-793.700784444809,0.0,0.875,0.8154296040000001,4.543973238631664,-0.144042954,-84873.0,0.625,885.0,793.700784444809,0.0,0.25,0.115966785,4.573010992896083,0.028076168999999318,92175.0,0.125,637.5,-793.700784444809,0.0,0.125,2.973632508,4.551480731239321,0.048828120000000474,-84709.0,1.875,840.0,793.700784444809,0.0,0.5,1.461181491,4.567695220120751,-0.10375975500000045,-0.5799999833106995,-0.8199999928474426,-30.260000228881836,-0.07366943359375,0.03314208984375,0.9154052734375,33.08000183105469,0.0,-73.0,1.0975799560546875,-0.72857666015625,Waiting,0.0,0.0,22.0,0.0,0.0,0.0,0.0,0.0,
1.8899219999999988,0.0,0.0,88699.0,2.125,600.0,-793.700784444809,0.0,0.875,0.705566334,4.5176678989197185,0.0,-84873.0,0.75,922.5,793.700784444809,0.0,0.25,0.12939451800000001,4.546537551844123,0.0,92175.0,0.625,600.0,-793.700784444809,0.0,0.125,3.0029293800000003,4.525131930192315,0.0,-84709.0,2.25,847.5,793.700784444809,0.0,0.25,1.361083845,4.541252552403347,0.0,-0.5799999833106995,-0.8799999952316284,-30.950000762939453,-0.14105224609375,0.00396728515625,0.98870849609375,33.08000183105469,0.0,-115.0,1.0961761474609375,-0.72900390625,Waiting,0.0,0.0,22.0,0.0,0.0,0.0,0.0,0.0,
1.9083420000000006,0.0,0.0,88699.0,2.625,532.5,-793.700784444809,0.0,0.625,0.639648372,4.5082144105194235,-0.1269531119999998,-84873.0,1.0,945.0,793.700784444809,0.0,0.25,0.13427733,4.5370236519804035,0.014648435999999876,92175.0,1.25,517.5,-793.700784444809,0.0,0.25,3.017577816,4.5156628228632645,0.030517575000000186,-84592.0,2.75,832.5,793.700784444809,0.0,0.25,1.313476428,4.531749711714854,-0.10131834899999959,-0.5099999904632568,-0.9900000095367432,-31.420000076293945,-0.1153564453125,-0.08184814453125,1.14703369140625,33.08000183105469,0.0,-44.0,1.09466552734375,-0.7295379638671875,Waiting,0.0,0.0,22.0,0.0,0.0,0.0,0.0,0.0,
1.926608,0.0,0.0,88738.0,2.75,442.5,-793.700784444809,0.0,0.75,0.584716737,4.501775092232501,-0.051269526000000454,-84732.0,1.875,915.0,793.700784444809,0.0,0.0,0.137939439,4.530543183948043,0.0012207030000004337,92229.0,1.5,397.5,-793.700784444809,0.0,0.125,3.0078121920000003,4.509212865619663,0.007324217999999938,-84592.0,3.125,780.0,793.700784444809,0.0,0.25,1.274413932,4.525276776727043,-0.04516601100000006,-0.5600000023841858,-1.0199999809265137,-31.65999984741211,-0.11224365234375,-0.0318603515625,0.9876708984375,33.08000183105469,0.0,-68.0,1.0930633544921875,-0.730194091796875,Waiting,0.0,0.0,22.0,0.0,0.0,0.0,0.0,0.0,
1.949525999999998,0.0,0.0,88738.0,2.75,307.5,-793.7007844448091,0.0,0.625,0.538330023,4.498486928035009,-0.04760741700000004,-84732.0,2.75,810.0,793.7007844448091,0.0,0.0,0.137939439,4.527234007103923,-0.0012207030000004337,92229.0,1.75,262.5,-793.7007844448091,0.0,0.125,3.02734344,4.505919268760684,0.0,-84592.0,3.875,697.5,793.7007844448091,0.0,0.125,1.234130733,4.521971446545922,-0.0402831990000001,-0.6100000143051147,-1.0299999713897705,-31.729999542236328,-0.02996826171875,0.0567626953125,0.74725341796875,33.08000183105469,0.0,-48.0,1.091400146484375,-0.730865478515625,Waiting,0.0,0.0,22.0,0.0,0.0,0.0,0.0,0.0,
1.9671569999999992,0.0,0.0,88738.0,2.375,150.0,-793.700784444809,0.0,0.5,0.49926752700000004,4.49862393814307,-0.048828119999999586,-84732.0,4.125,652.5,793.700784444809,0.0,0.0,0.13427733,4.527371892759803,0.0,92229.0,1.625,142.5,-793.700784444809,0.0,0.125,3.037109064,4.506056505235039,0.01342773300000033,-84592.0,4.875,615.0,793.700784444809,0.0,0.125,1.2145994850000001,4.522109171920355,-0.03662108999999969,-0.5899999737739563,-1.3300000429153442,-31.459999084472656,-0.14910888671875,-0.02886962890625,1.24798583984375,33.08000183105469,0.0,-94.0,1.087310791015625,-0.732421875,Waiting,0.0,0.0,22.0,0.0,0.0,0.0,0.0,0.0,
1.9848309999999982,0.0,0.0,88738.0,1.875,0.0,-793.700784444809,0.0,0.375,0.46386714,4.5012270779322545,0.0,-84732.0,5.125,495.0,793.700784444809,0.0,0.0,0.137939439,4.529991667623523,0.0,92229.0,1.375,45.0,-793.700784444809,0.0,0.125,3.02734344,4.508663945897423,0.0,-84592.0,6.25,525.0,793.700784444809,0.0,0.125,1.202392455,4.524725901497737,0.0,-0.550000011920929,-1.3700000047683716,-31.219999313354492,-0.04791259765625,-0.01751708984375,1.20849609375,33.08000183105469,0.0,-13.0,1.0850677490234375,-0.7333221435546875,Waiting,0.0,0.0,22.0,0.0,0.0,0.0,0.0,0.0,
2.006721999999998,0.0,0.0,88738.0,1.625,-135.0,-793.700784444809,0.0,0.375,0.437011674,4.504515242129747,-0.035400387000000144,-84732.0,5.125,495.0,793.700784444809,0.0,0.0,0.133056627,4.533300844467642,0.0,92229.0,0.875,-30.0,-793.700784444809,0.0,0.125,3.0126950040000002,4.511957542756401,-0.009765623999999917,-84592.0,7.625,442.5,793.700784444809,0.0,0.125,1.180419801,4.528031231678859,-0.02075195100000027,-0.550000011920929,-1.350000023841858,-31.020000457763672,-0.10113525390625,0.18304443359375,0.80596923828125,33.08000183105469,0.0,-168.0,1.0826873779296875,-0.734161376953125,Waiting,0.0,0.0,22.0,0.0,0.0,0.0,0.0,0.0,
2.025732,0.0,0.0,88738.0,1.375,-240.0,-793.700784444809,0.0,0.25,0.412597614,4.509310465251921,-0.021972653999999814,-84732.0,6.75,352.5,793.700784444809,0.0,0.0,0.128173815,4.538126710928443,0.0,92229.0,0.875,-30.0,-793.700784444809,0.0,0.125,3.0029293800000003,4.516760688482924,-0.009765623999999917,-84592.0,8.5,382.5,793.700784444809,0.0,0.25,1.157226444,4.532851488441894,-0.013427732999999442,-0.3700000047683716,-1.4800000190734863,-30.799999237060547,-0.09124755859375,0.038818359375,1.115234375,33.08000183105469,0.0,-77.0,1.077392578125,-0.7356719970703125,Waiting,0.0,0.0,22.0,0.0,0.0,0.0,0.0,0.0,
2.047633999999998,0.0,0.0,88683.0,1.0,-300.0,-793.700784444809,0.0,0.25,0.40771480200000004,4.5102695360083604,-0.01342773300000033,-84690.0,8.875,270.0,793.700784444809,0.0,0.0,0.133056627,4.539091910519602,-0.0012207029999995456,92205.0,0.375,-90.0,-793.700784444809,0.0,0.125,2.988280944,4.517721343803409,0.0,-84533.0,9.375,345.0,793.700784444809,0.0,0.125,1.088867076,4.53381556606293,-0.030517575000000186,-0.30000001192092896,-1.5,-30.809999465942383,-0.06591796875,0.0872802734375,1.07244873046875,33.08000183105469,0.0,-80.0,1.0745697021484375,-0.73638916015625,Waiting,0.0,0.0,22.0,0.0,0.0,0.0,0.0,0.0,
2.066321,0.0,0.0,88683.0,0.75,-330.0,-793.7007844448091,0.0,0.25,0.412597614,4.510132525900298,-0.010986326999999463,-84690.0,11.0,262.5,793.7007844448091,0.0,0.0,0.13427733,4.538954024863722,0.0,92205.0,0.125,-150.0,-793.7007844448091,0.0,0.125,2.97851532,4.5175841073290535,-0.009765623999999917,-84533.0,10.25,345.0,793.7007844448091,0.0,0.125,1.0827635610000002,4.533677840688496,-0.06225585299999992,-0.23999999463558197,-1.5299999713897705,-30.889999389648438,-0.10662841796875,0.0753173828125,1.016845703125,33.08000183105469,0.0,-108.0,1.071624755859375,-0.7370452880859375,Waiting,0.0,0.0,22.0,0.0,0.0,0.0,0.0,0.0,
2.0846889999999987,0.0,0.0,88683.0,0.75,-337.5,-793.700784444809,0.0,0.25,0.406494099,4.5075293861111145,0.0,-84690.0,12.25,307.5,793.700784444809,0.0,0.0,0.131835924,4.536334250000003,0.0,92205.0,0.125,-217.5,-793.700784444809,0.0,0.125,2.967528993,4.51497666666667,0.0,-84533.0,11.0,375.0,793.700784444809,0.0,0.125,1.079101452,4.531061111111114,0.0,-0.14000000059604645,-1.690000057220459,-31.110000610351562,-0.22174072265625,0.11328125,0.968994140625,33.08000183105469,0.0,-224.0,1.064971923828125,-0.7383880615234375,Waiting,0.0,0.0,22.0,0.0,0.0,0.0,0.0,0.0,
2.106007999999998,0.0,0.0,88683.0,0.75,-337.5,-793.700784444809,0.0,0.125,0.40161128700000004,4.506022301054427,-0.0024414059999999793,-84690.0,12.875,382.5,793.700784444809,0.0,0.0,0.13549803300000002,4.534817534084323,0.0012207029999995456,92205.0,0.375,-285.0,-793.700784444809,0.0,0.125,2.967528993,4.513467091623944,-0.004882811999999959,-84533.0,11.0,375.0,793.700784444809,0.0,0.25,1.0839842640000001,4.5295461582607714,0.0012207029999995456,-0.09000000357627869,-1.7799999713897705,-31.170000076293945,-0.09857177734375,0.04180908203125,1.0128173828125,33.08000183105469,0.0,-79.0,1.061279296875,-0.7390594482421875,Waiting,0.0,0.0,22.0,0.0,0.0,0.0,0.0,0.0,
2.1248179999999994,0.0,0.0,88683.0,0.75,-360.0,-793.7007844448091,0.0,0.125,0.40161128700000004,4.505200266538056,0.0,-84690.0,12.625,457.5,793.7007844448091,0.0,0.0,0.128173815,4.533990246448043,-0.004882811999999959,92205.0,0.625,-345.0,-793.7007844448091,0.0,0.125,2.963866884,4.512643698952996,-0.006103515000000392,-84533.0,11.625,420.0,793.7007844448091,0.0,0.25,1.088867076,4.528719832282598,-0.0012207029999995456,-0.05999999865889549,-1.840000033378601,-31.200000762939453,-0.23626708984375,0.00885009765625,1.02032470703125,33.08000183105469,0.0,-179.0,1.0574188232421875,-0.7397918701171875,Waiting,0.0,0.0,22.0,0.0,0.0,0.0,0.0,0.0,
2.1470989999999985,0.0,0.0,88683.0,0.75,-397.5,-793.700784444809,0.0,0.125,0.40161128700000004,4.5050632564299935,0.0,-84690.0,12.375,517.5,793.700784444809,0.0,0.0,0.12573240900000002,4.533852360792163,0.0,92205.0,0.625,-382.5,-793.700784444809,0.0,0.125,2.9589840720000002,4.512506462478641,0.0,-84533.0,11.875,457.5,793.700784444809,0.0,0.25,1.104736215,4.528582106908166,0.0,0.0,-1.9600000381469727,-31.110000610351562,-0.1251220703125,0.150390625,1.01806640625,33.08000183105469,0.0,-154.0,1.0491485595703125,-0.7414093017578125,Waiting,0.0,0.0,22.0,0.0,0.0,0.0,0.0,0.0,
2.1657839999999995,0.0,0.0,88604.0,0.75,-450.0,-793.700784444809,0.0,0.125,0.40771480200000004,4.506022301054427,0.0012207029999995456,-84598.0,11.75,555.0,793.700784444809,0.0,0.0,0.12939451800000001,4.534817534084323,-0.0012207029999995456,92135.0,0.375,-405.0,-793.700784444809,0.0,0.125,2.9541012600000003,4.513467091623944,-0.004882811999999959,-84450.0,11.625,487.5,793.700784444809,0.0,0.25,1.1132811360000001,4.5295461582607714,0.010986327000000351,0.05999999865889549,-2.0199999809265137,-31.020000457763672,-0.098876953125,-0.033203125,1.0274658203125,33.08000183105469,0.0,-35.0,1.0447998046875,-0.7421875,Waiting,0.0,0.0,22.0,0.0,0.0,0.0,0.0,0.0,
2.1850819999999986,0.0,0.0,88604.0,0.75,-502.5,-793.7007844448088,0.0,0.125,0.404052693,4.507255365894989,0.0,-84598.0,11.375,570.0,793.7007844448088,0.0,0.0,0.128173815,4.536058478688243,0.0,92135.0,0.125,-427.5,-793.7007844448088,0.0,0.125,2.9541012600000003,4.51470219371796,0.0,-84450.0,11.375,510.0,793.7007844448088,0.0,0.25,1.12304676,4.5307856603622465,0.0,0.10000000149011612,-2.1500000953674316,-30.8700008392334,-0.0404052734375,0.04913330078125,0.92205810546875,33.08000183105469,0.0,-29.0,1.0359649658203125,-0.743927001953125,Waiting,0.0,0.0,22.0,0.0,0.0,0.0,0.0,0.0,
2.205477999999999,0.0,0.0,88604.0,0.75,-502.5,-793.700784444809,0.0,0.125,0.40283199000000003,4.509310465251921,0.0012207029999995456,-84598.0,10.875,585.0,793.700784444809,0.0,0.0,0.130615221,4.538126710928443,0.0012207029999995456,92135.0,0.125,-435.0,-793.700784444809,0.0,0.125,2.9541012600000003,4.516760688482924,0.0,-84450.0,11.0,540.0,793.700784444809,0.0,0.25,1.127929572,4.532851488441894,0.009765623999999917,0.17000000178813934,-2.1700000762939453,-30.809999465942383,-0.10748291015625,0.05047607421875,1.0087890625,33.08000183105469,0.0,-83.0,1.0314483642578125,-0.7447662353515625,Waiting,0.0,0.0,22.0,0.0,0.0,0.0,0.0,0.0,
2.224023000000001,0.0,0.0,88604.0,0.625,-547.5,-793.7007844448091,0.0,0.125,0.40161128700000004,4.510132525900298,-0.0012207029999995456,-84598.0,10.125,600.0,793.7007844448091,0.0,0.0,0.126953112,4.538954024863722,-0.0012207029999995456,92135.0,0.125,-450.0,-793.7007844448091,0.0,0.125,2.9492184480000003,4.5175841073290535,0.0,-84450.0,11.0,570.0,793.7007844448091,0.0,0.25,1.1364744930000001,4.533677840688496,0.006103515000000392,0.2199999988079071,-2.2300000190734863,-30.780000686645508,-0.10308837890625,0.0091552734375,1.24017333984375,33.08000183105469,0.0,-49.0,1.02685546875,-0.7456207275390625,Waiting,0.0,0.0,22.0,0.0,0.0,0.0,0.0,0.0,
2.2451100000000004,0.0,0.0,88604.0,0.625,-585.0,-793.700784444809,0.0,0.125,0.40283199000000003,4.510543530092481,0.0,-84598.0,10.0,622.5,793.700784444809,0.0,0.0,0.128173815,4.539367655532363,0.0,92135.0,0.125,-472.5,-793.700784444809,0.0,0.125,2.9492184480000003,4.517995790576938,0.0,-84450.0,10.625,600.0,793.700784444809,0.0,0.25,1.142578008,4.534090990543368,0.0,0.27000001072883606,-2.299999952316284,-30.75,-0.1317138671875,-0.005859375,1.18927001953125,33.08000183105469,0.0,-66.0,1.0221710205078125,-0.7465362548828125,Waiting,0.0,0.0,22.0,0.0,0.0,0.0,0.0,0.0,
2.2647069999999987,0.0,0.0,88604.0,0.375,-607.5,-793.700784444809,0.0,0.125,0.404052693,4.511091570524733,0.0,-84598.0,9.625,652.5,793.700784444809,0.0,0.0,0.128173815,4.539919198155883,0.0012207029999995456,92135.0,0.375,-502.5,-793.700784444809,0.0,0.125,2.9492184480000003,4.518544736474358,-0.003662108999999525,-84450.0,10.375,630.0,793.700784444809,0.0,0.25,1.141357305,4.534641892041104,0.004882811999999959,0.3100000023841858,-2.359999895095825,-30.739999771118164,-0.15740966796875,-0.0997314453125,0.82147216796875,33.08000183105469,0.0,-52.0,1.012603759765625,-0.7484588623046875,Waiting,0.0,0.0,22.0,0.0,0.0,0.0,0.0,0.0,
2.290940999999999,0.0,0.0,88496.0,0.375,-652.5,-793.700784444809,0.0,0.125,0.411376911,4.511091570524733,0.0,-84483.0,9.375,690.0,793.700784444809,0.0,0.0,0.12939451800000001,4.539919198155883,0.0,92044.0,0.375,-540.0,-793.700784444809,0.0,0.125,2.9492184480000003,4.518544736474358,0.0,-84341.0,9.875,667.5,793.700784444809,0.0,0.25,1.146240117,4.534641892041104,0.0,0.3100000023841858,-2.4700000286102295,-30.719999313354492,-0.11822509765625,0.04541015625,1.02655029296875,33.08000183105469,0.0,-83.0,1.002593994140625,-0.74957275390625,Waiting,0.0,0.0,22.0,0.0,0.0,0.0,0.0,0.0,
2.3090030000000006,0.0,0.0,88496.0,0.375,-652.5,-793.700784444809,0.0,0.125,0.40283199000000003,4.5113655907408585,0.0,-84483.0,8.875,727.5,793.700784444809,0.0,0.0,0.128173815,4.540194969467643,0.0012207029999995456,92044.0,0.125,-570.0,-793.700784444809,0.0,0.125,2.9492184480000003,4.518819209423069,-0.0012207030000004337,-84341.0,9.5,697.5,793.700784444809,0.0,0.125,1.145019414,4.534917342789971,0.003662108999999525,0.3499999940395355,-2.4800000190734863,-30.719999313354492,-0.03729248046875,-0.0614013671875,0.95562744140625,33.08000183105469,0.0,37.0,0.99749755859375,-0.749603271484375,Waiting,0.0,0.0,22.0,0.0,0.0,0.0,0.0,0.0,
2.327901999999998,0.0,0.0,88496.0,0.125,-675.0,-793.700784444809,0.0,0.125,0.396728475,4.5113655907408585,-0.0012207029999995456,-84483.0,8.25,757.5,793.700784444809,0.0,0.0,0.130615221,4.540194969467643,0.0,92044.0,0.125,-607.5,-793.700784444809,0.0,0.125,2.9492184480000003,4.518819209423069,0.0,-84341.0,9.0,727.5,793.700784444809,0.0,0.125,1.151122929,4.534917342789971,0.004882811999999959,0.3100000023841858,-2.5299999713897705,-30.709999084472656,-0.1414794921875,0.0111083984375,0.95709228515625,33.08000183105469,0.0,-88.0,0.99237060546875,-0.7497100830078125,Waiting,0.0,0.0,22.0,0.0,0.0,0.0,0.0,0.0,
2.35016,0.0,0.0,88496.0,0.125,-697.5,-793.700784444809,0.0,0.125,0.40283199000000003,4.511776594933042,0.0012207029999995456,-84483.0,7.875,787.5,793.700784444809,0.0,0.0,0.12573240900000002,4.5406086001362835,-0.0012207029999995456,92044.0,0.125,-637.5,-793.700784444809,0.0,0.125,2.9504391510000003,4.519230892670953,0.0,-84341.0,8.625,757.5,793.700784444809,0.0,0.125,1.156005741,4.535330492644843,0.0024414059999999793,0.3700000047683716,-2.619999885559082,-30.670000076293945,-0.07379150390625,0.01995849609375,1.056396484375,33.08000183105469,0.0,-28.0,0.9820098876953125,-0.749908447265625,Waiting,0.0,0.0,22.0,0.0,0.0,0.0,0.0,0.0,
2.3687669999999996,0.0,0.0,88496.0,0.125,-720.0,-793.7007844448088,0.0,0.125,0.40283199000000003,4.512050615149167,-0.0012207029999995456,-84483.0,7.25,810.0,793.7007844448088,0.0,0.0,0.124511706,4.540884371448042,0.0,92044.0,0.125,-667.5,-793.7007844448088,0.0,0.125,2.9528805570000003,4.519505365619662,0.0,-84341.0,8.25,780.0,793.7007844448088,0.0,0.125,1.154785038,4.535605943393709,0.0024414059999999793,0.3799999952316284,-2.609999895095825,-30.649999618530273,-0.03656005859375,-0.00189208984375,0.87298583984375,33.08000183105469,0.0,6.0,0.976806640625,-0.75,Waiting,0.0,0.0,22.0,0.0,0.0,0.0,0.0,0.0,
2.3900900000000003,0.0,0.0,88496.0,0.125,-735.0,-661.4173203706741,0.0,0.125,0.40161128700000004,4.512324635365292,0.0,-84483.0,6.875,825.0,661.4173203706741,0.0,0.0,0.12329100300000001,4.541160142759803,0.0,92044.0,0.125,-690.0,-661.4173203706741,0.0,0.125,2.9467770420000003,4.519779838568372,0.0,-84211.0,8.125,795.0,661.4173203706741,0.0,0.125,1.1621092560000001,4.535881394142577,0.0,0.36000001430511475,-2.6500000953674316,-30.6299991607666,-0.13702392578125,-0.02423095703125,1.175537109375,33.08000183105469,0.0,-54.0,0.971588134765625,-0.7501373291015625,Waiting,0.0,0.0,22.0,0.0,0.0,0.0,0.0,0.0,
2.409379000000001,0.0,0.0,88377.0,0.125,-742.5,-628.3464699983597,0.0,0.125,0.40283199000000003,4.512872649665538,-0.0012207029999995456,-84346.0,6.0,847.5,628.3464699983597,0.0,0.0,0.12329100300000001,4.5417116590843225,0.0,91930.0,0.125,-705.0,-628.3464699983597,0.0,0.125,2.9492184480000003,4.520328758290611,0.0012207030000004337,-84211.0,7.375,802.5,628.3464699983597,0.0,0.125,1.1657713650000001,4.536432269371883,0.0,0.41999998688697815,-2.6500000953674316,-30.59000015258789,-0.0029296875,-0.002685546875,0.92034912109375,33.08000183105469,0.0,39.0,0.96099853515625,-0.750518798828125,Waiting,0.0,0.0,22.0,0.0,0.0,0.0,0.0,0.0,
2.4276209999999994,0.0,0.0,88377.0,0.125,-742.5,-628.3464699983597,0.0,0.125,0.412597614,4.513146669881665,0.0,-84346.0,5.125,855.0,628.3464699983597,0.0,0.0,0.117187488,4.541987430396082,0.0,91930.0,0.125,-720.0,-628.3464699983597,0.0,0.125,2.9492184480000003,4.520603231239321,0.0,-84211.0,6.625,810.0,628.3464699983597,0.0,0.125,1.168212771,4.53670772012075,0.004882811999999959,0.4000000059604645,-2.6700000762939453,-30.56999969482422,0.00927734375,-7.9345703125E-4,0.8126220703125,33.08000183105469,0.0,43.0,0.955780029296875,-0.750518798828125,Waiting,0.0,0.0,22.0,0.0,0.0,0.0,0.0,0.0,
2.4493739999999997,0.0,0.0,88377.0,0.125,-735.0,-479.5275494456291,0.0,0.125,0.399169881,4.513420690097791,0.0,-84346.0,5.125,855.0,479.5275494456291,0.0,0.0,0.115966785,4.5422632017078435,-0.009765623999999917,91930.0,0.125,-720.0,-479.5275494456291,0.0,0.125,2.9492184480000003,4.520877704188032,-0.0012207030000004337,-84211.0,5.625,817.5,479.5275494456291,0.0,0.125,1.175536989,4.536983170869618,0.004882811999999959,0.4000000059604645,-2.700000047683716,-30.559999465942383,-0.0291748046875,0.08355712890625,1.0093994140625,33.08000183105469,0.0,-22.0,0.9505615234375,-0.7504425048828125,Waiting,0.0,0.0,22.0,0.0,0.0,0.0,0.0,0.0,
