Time,ClimberA1,ClimberA2,FRpos,FRCurrent,FRspeed,FRsetpoint,FRApos,FRACurrent,FREncpos,FREncSetpoint,FREncSpeed,FLpos,FLCurrent,FLspeed,FLsetpoint,FLApos,FLACurrent,FLEncpos,FLEncSetpoint,FLEncSpeed,BRpos,BRCurrent,BRspeed,BRsetpoint,BRApos,BRACurrent,BREncpos,BREncSetpoint,BREncSpeed,BLpos,BLCurrent,BLspeed,BLsetpoint,BLApos,BLACurrent,BLEncpos,BLEncSetpoint,BLEncSpeed,navx_Pitch,navx_Roll,navx_Yaw,navx_XAcc,navx_YAcc,navx_ZAcc,navx_Temp,navx_Bar,navx_Alt,navx_XDis,navx_YDis,GearPlacerState,ShootOutputV,ShootOutputCurrent,ShootEncPos,ShootEncVelocity,ShootSpeed,ShootSetpoint,CarouselSetpoint,CarouselCurrent,
0.1503679999999986,0.0,0.0,27719.0,0.0,0.0,0.0,0.0,0.25,0.782470623,0.01,0.0,-26469.0,0.0,0.0,-0.0,0.0,0.25,0.482177685,0.01,0.0,21767.0,0.0,0.0,0.0,0.0,0.0,3.3154293480000003,0.01,0.0,-11663.0,0.125,0.0,-0.0,0.0,0.25,1.6113279600000001,0.01,0.0,-0.5799999833106995,-1.1100000143051147,0.0,-0.019287109375,-0.00994873046875,1.02093505859375,36.34000015258789,0.0,0.0,-5.011016845703125,0.8520965576171875,Opening,0.0,0.0,0.0,0.0,0.0,0.0,0.0,0.0,
0.2128299999999981,0.0,0.0,27719.0,0.0,0.0,0.0,0.0,0.25,0.782470623,0.01,0.0,-26469.0,0.0,0.0,-0.0,0.0,0.25,0.48583979400000005,0.01,0.0,21767.0,0.0,0.0,0.0,0.0,0.0,3.3154293480000003,0.01,0.003662109000000413,-11663.0,0.125,0.0,-0.0,0.0,0.25,1.6101072570000001,0.01,0.0,-0.5799999833106995,-1.1100000143051147,0.0,-0.0201416015625,-0.00970458984375,1.01727294921875,36.34000015258789,0.0,0.0,-5.011016845703125,0.8520965576171875,Opening,0.0,0.0,0.0,0.0,0.0,0.0,0.0,0.0,
0.2530169999999998,0.0,0.0,27719.0,0.0,0.0,0.0,0.0,0.25,0.78124992,0.01,0.0,-26469.0,0.0,0.0,-0.0,0.0,0.25,0.48706049700000004,0.01,0.008544921000000372,21767.0,0.0,0.0,0.0,0.0,0.0,3.3154293480000003,0.01,0.0,-11663.0,0.125,0.0,-0.0,0.0,0.25,1.6113279600000001,0.01,0.0,-0.5799999833106995,-1.1100000143051147,0.0,-0.01922607421875,-0.01287841796875,1.02099609375,36.34000015258789,0.0,0.0,-5.011016845703125,0.8520965576171875,Opening,0.0,0.0,0.0,0.0,0.0,0.0,0.0,0.0,
0.3139549999999981,0.0,0.0,27719.0,0.0,0.0,0.0,0.0,0.25,0.782470623,0.01,-0.0012207029999995456,-26469.0,0.0,0.0,-0.0,0.0,0.25,0.48706049700000004,0.01,0.004882811999999959,21767.0,0.0,0.0,0.0,0.0,0.0,3.3154293480000003,0.01,0.0,-11663.0,0.125,0.0,-0.0,0.0,0.125,1.6113279600000001,0.01,-0.0012207029999995456,-0.5799999833106995,-1.1100000143051147,0.0,-0.01800537109375,-0.01239013671875,1.01959228515625,36.36000061035156,0.0,1.0,-5.011016845703125,0.8520965576171875,Opening,0.0,0.0,0.0,0.0,0.0,0.0,0.0,0.0,
0.3569029999999984,0.0,0.0,27719.0,0.0,0.0,0.0,0.0,0.25,0.782470623,0.01,0.0012207029999995456,-26469.0,0.0,0.0,-0.0,0.0,0.25,0.48706049700000004,0.01,0.0,21767.0,0.0,0.0,0.0,0.0,0.0,3.3154293480000003,0.01,0.0012207029999995456,-11663.0,0.125,0.0,-0.0,0.0,0.25,1.6113279600000001,0.01,-0.0012207029999995456,-0.5799999833106995,-1.1100000143051147,0.0,-0.02288818359375,-0.0076904296875,1.02020263671875,36.36000061035156,0.0,-2.0,-5.011016845703125,0.8520965576171875,Opening,0.0,0.0,0.0,0.0,0.0,0.0,0.0,0.0,
0.3985509999999995,0.0,0.0,27719.0,0.0,0.0,0.0,0.0,0.25,0.782470623,0.01,0.0,-26469.0,0.0,0.0,-0.0,0.0,0.25,0.48706049700000004,0.01,0.0,21767.0,0.0,0.0,0.0,0.0,0.0,3.3154293480000003,0.01,-0.0012207029999995456,-11663.0,0.0,0.0,-0.0,0.0,0.25,1.6113279600000001,0.01,0.0,-0.5799999833106995,-1.1100000143051147,0.0,-0.01922607421875,-0.00927734375,1.0203857421875,36.36000061035156,0.0,0.0,-5.011016845703125,0.8520965576171875,Opening,0.0,0.0,0.0,0.0,0.0,0.0,0.0,0.0,
0.4407469999999994,0.0,0.0,27719.0,0.0,0.0,0.0,0.0,0.25,0.782470623,0.01,0.0,-26469.0,0.0,0.0,-0.0,0.0,0.25,0.48706049700000004,0.01,0.0,21767.0,0.0,0.0,0.0,0.0,0.0,3.3142086450000003,0.01,0.0,-11663.0,0.0,0.0,-0.0,0.0,0.25,1.6113279600000001,0.01,0.0,-0.5799999833106995,-1.1100000143051147,0.0,-0.02166748046875,-0.009521484375,1.02056884765625,36.36000061035156,0.0,-1.0,-5.011016845703125,0.8520965576171875,Opening,0.0,0.0,0.0,0.0,0.0,0.0,0.0,0.0,
0.48243599999999787,0.0,0.0,27719.0,0.0,0.0,0.0,0.0,0.25,0.783691326,0.01,-0.0012207029999995456,-26469.0,0.0,0.0,-0.0,0.0,0.25,0.484619091,0.01,0.0012207029999995456,21767.0,0.0,0.0,0.0,0.0,0.0,3.3154293480000003,0.01,0.0,-11663.0,0.125,0.0,-0.0,0.0,0.25,1.6113279600000001,0.01,0.0,-0.5799999833106995,-1.1100000143051147,0.0,-0.0203857421875,-0.01025390625,1.0213623046875,36.36000061035156,0.0,0.0,-5.011016845703125,0.8520965576171875,Opening,0.0,0.0,0.0,0.0,0.0,0.0,0.0,0.0,
0.5193220000000001,0.0,0.0,27719.0,0.0,0.0,0.0,0.0,0.25,0.782470623,0.01,-0.0012207029999995456,-26469.0,0.0,0.0,-0.0,0.0,0.25,0.48706049700000004,0.01,0.0012207029999995456,21767.0,0.0,0.0,0.0,0.0,0.0,3.3142086450000003,0.01,0.0,-11663.0,0.125,0.0,-0.0,0.0,0.25,1.6113279600000001,0.01,0.0,-0.5799999833106995,-1.1100000143051147,0.0,-0.0189208984375,-0.01177978515625,1.0234375,36.36000061035156,0.0,1.0,-5.011016845703125,0.8520965576171875,Opening,0.0,0.0,0.0,0.0,0.0,0.0,0.0,0.0,
0.5632510000000002,0.0,0.0,27719.0,0.0,0.0,0.0,0.0,0.25,0.782470623,0.01,0.0012207029999995456,-26469.0,0.0,0.0,-0.0,0.0,0.25,0.48706049700000004,0.01,-0.0012207029999995456,21767.0,0.0,0.0,0.0,0.0,0.0,3.3142086450000003,0.01,0.0,-11663.0,0.125,0.0,-0.0,0.0,0.25,1.6113279600000001,0.01,0.0,-0.5799999833106995,-1.1100000143051147,0.0,-0.02252197265625,-0.00921630859375,1.01690673828125,36.36000061035156,0.0,-2.0,-5.011016845703125,0.8520965576171875,Opening,0.0,0.0,0.0,0.0,0.0,0.0,0.0,0.0,
0.6057170000000005,0.0,0.0,27719.0,0.0,0.0,0.0,0.0,0.25,0.782470623,0.01,0.0,-26469.0,0.0,0.0,-0.0,0.0,0.25,0.4882812,0.01,0.0,21767.0,0.0,0.0,0.0,0.0,0.0,3.3154293480000003,0.01,0.0,-11663.0,0.125,0.0,-0.0,0.0,0.25,1.6113279600000001,0.01,0.0,-0.5799999833106995,-1.1100000143051147,0.0,-0.01776123046875,-0.00872802734375,1.02154541015625,36.36000061035156,0.0,2.0,-5.011016845703125,0.8520965576171875,Opening,0.0,0.0,0.0,0.0,0.0,0.0,0.0,0.0,
0.656214,0.0,0.0,27719.0,0.0,0.0,0.0,0.0,0.25,0.782470623,0.01,0.0,-26469.0,0.0,0.0,-0.0,0.0,0.25,0.4882812,0.01,0.0,21767.0,0.0,0.0,0.0,0.0,0.0,3.3154293480000003,0.01,0.0,-11663.0,0.125,0.0,-0.0,0.0,0.25,1.6113279600000001,0.01,0.0,-0.5799999833106995,-1.1100000143051147,0.0,-0.01971435546875,-0.0125732421875,1.01708984375,36.36000061035156,0.0,0.0,-5.011016845703125,0.8520965576171875,Opening,0.0,0.0,0.0,0.0,0.0,0.0,0.0,0.0,
0.6915949999999975,0.0,0.0,27719.0,0.0,0.0,0.0,0.0,0.25,0.8032225740000001,0.01,0.0,-26469.0,0.0,0.0,-0.0,0.0,0.25,0.48583979400000005,0.01,0.0,21767.0,0.0,0.0,0.0,0.0,0.0,3.3142086450000003,0.01,0.0,-11663.0,0.125,0.0,-0.0,0.0,0.25,1.6113279600000001,0.01,0.0,-0.5799999833106995,-1.1100000143051147,0.0,-0.01873779296875,-0.00823974609375,1.02178955078125,36.36000061035156,0.0,1.0,-5.011016845703125,0.8520965576171875,Opening,0.0,0.0,0.0,0.0,0.0,0.0,0.0,0.0,
0.7415409999999975,0.0,0.0,27719.0,0.0,0.0,0.0,0.0,0.25,0.783691326,0.01,0.0,-26469.0,0.0,0.0,-0.0,0.0,0.25,0.48706049700000004,0.01,0.0,21767.0,0.0,0.0,0.0,0.0,0.0,3.3154293480000003,0.01,0.0,-11663.0,0.0,0.0,-0.0,0.0,0.25,1.6113279600000001,0.01,0.0,-0.5799999833106995,-1.1100000143051147,0.0,-0.01953125,-0.0072021484375,1.02117919921875,36.36000061035156,0.0,0.0,-5.011016845703125,0.8520965576171875,Opening,0.0,0.0,0.0,0.0,0.0,0.0,0.0,0.0,
0.7840540000000001,0.0,0.0,27719.0,0.0,0.0,0.0,0.0,0.25,0.782470623,0.01,-0.0012207029999995456,-26469.0,0.0,0.0,-0.0,0.0,0.25,0.48706049700000004,0.01,0.0,21767.0,0.0,0.0,0.0,0.0,0.0,3.3142086450000003,0.01,0.0,-11663.0,0.125,0.0,-0.0,0.0,0.25,1.6113279600000001,0.01,0.0,-0.5699999928474426,-1.1100000143051147,0.0,-0.018310546875,-0.00750732421875,1.01904296875,36.36000061035156,0.0,1.0,-5.011016845703125,0.8520965576171875,Opening,0.0,0.0,0.0,0.0,0.0,0.0,0.0,0.0,
0.8156859999999979,0.0,0.0,27719.0,0.0,0.0,0.0,0.0,0.25,0.7775878110000001,0.01,-0.0012207029999995456,-26469.0,0.0,0.0,-0.0,0.0,0.25,0.48706049700000004,0.01,0.0,21767.0,0.0,0.0,0.0,0.0,0.0,3.3154293480000003,0.01,0.0,-11663.0,0.125,0.0,-0.0,0.0,0.25,1.6113279600000001,0.01,0.0,-0.5699999928474426,-1.1100000143051147,0.0,-0.01971435546875,-0.0103759765625,1.02105712890625,36.36000061035156,0.0,0.0,-5.011016845703125,0.8520965576171875,Opening,0.0,0.0,0.0,0.0,0.0,0.0,0.0,0.0,
0.8507180000000008,0.0,0.0,27719.0,0.0,0.0,0.0,0.0,0.25,0.783691326,0.01,0.0012207029999995456,-26469.0,0.0,0.0,-0.0,0.0,0.25,0.48706049700000004,0.01,0.0,21767.0,0.0,0.0,0.0,0.0,0.0,3.3154293480000003,0.01,0.0,-11663.0,0.125,0.0,-0.0,0.0,0.25,1.6101072570000001,0.01,0.0,-0.5699999928474426,-1.1100000143051147,0.0,-0.024658203125,-0.0120849609375,1.02227783203125,36.349998474121094,0.0,-4.0,-5.011016845703125,0.8520965576171875,Opening,0.0,0.0,0.0,0.0,0.0,0.0,0.0,0.0,
0.8803260000000009,0.0,0.0,27719.0,0.0,0.0,0.0,0.0,0.25,0.782470623,0.01,0.0012207029999995456,-26469.0,0.0,0.0,-0.0,0.0,0.25,0.48706049700000004,0.01,0.0,21767.0,0.0,0.0,0.0,0.0,0.0,3.3154293480000003,0.01,0.0,-11663.0,0.125,0.0,-0.0,0.0,0.25,1.6113279600000001,0.01,0.0,-0.5699999928474426,-1.1200000047683716,0.0,-0.0186767578125,-0.01129150390625,1.02349853515625,36.349998474121094,0.0,1.0,-5.011016845703125,0.8520965576171875,Opening,0.0,0.0,0.0,0.0,0.0,0.0,0.0,0.0,
0.9150910000000003,0.0,0.0,27719.0,0.125,0.0,-562.2047066688538,0.0,0.25,0.784912029,4.932250999999998,0.0,-26469.0,0.125,0.0,562.2047066688538,0.0,0.25,0.484619091,4.963769999999998,0.0,21767.0,0.375,0.0,-562.2047066688538,0.0,0.0,3.3203121600000003,0.01,0.0012207029999995456,-11663.0,0.125,0.0,562.2047066688538,0.0,0.25,1.6113279600000001,0.01,0.0,-0.5699999928474426,-1.1100000143051147,0.0,-0.0201416015625,-0.01275634765625,1.01885986328125,36.349998474121094,0.0,0.0,-5.011016845703125,0.8520965576171875,Opening,0.0,0.0,0.0,0.0,0.0,0.0,0.0,0.0,
0.9512880000000005,0.0,0.0,27719.0,0.375,0.0,-1091.338562965393,0.0,0.25,0.782470623,4.932250999999998,0.0,-26469.0,0.625,7.5,1091.338562965393,0.0,0.125,0.49194330900000005,4.963769999999998,0.0,21767.0,0.625,0.0,-1091.338562965393,0.0,0.0,3.3203121600000003,0.01,0.0,-11663.0,0.75,7.5,1091.338562965393,0.0,0.25,1.6113279600000001,0.01,0.0,-0.5699999928474426,-1.2400000095367432,0.019999999552965164,-0.09088134765625,-0.03802490234375,0.999267578125,36.349998474121094,0.0,-69.0,-5.0113677978515625,0.8520050048828125,Opening,0.0,0.0,0.0,0.0,0.0,0.0,0.0,0.0,
0.9825489999999991,0.0,0.0,27695.0,6.625,-112.5,-2260.5526462795688,0.0,0.125,0.8044432770000001,4.634888443779878,0.0,-26469.0,6.875,127.5,2260.5526462795688,0.0,0.125,0.49194330900000005,4.66450718152447,0.0,21767.0,3.625,0.0,-2260.5526462795688,0.0,0.0,3.34472622,4.642546145289465,0.0,-11663.0,8.625,112.5,2260.5526462795688,0.0,0.25,1.593017415,4.659085051482707,0.0,-0.5699999928474426,-1.4199999570846558,0.07000000029802322,-0.6121826171875,-0.22430419921875,1.07574462890625,36.349998474121094,0.0,-585.0,-5.0124053955078125,0.851776123046875,Opening,0.0,0.0,0.0,0.0,0.0,0.0,0.0,0.0,
1.0175380000000005,0.0,0.0,27695.0,14.25,-210.0,-2685.2175082116255,0.0,0.375,0.7788085140000001,4.405041796011198,0.019531247999999835,-26469.0,16.75,240.0,2685.2175082116255,0.0,0.25,0.47607417,4.433191724384364,0.0,21767.0,15.25,-15.0,-2685.2175082116255,0.0,0.375,3.334960596,4.412319747923154,0.03173827799999973,-11609.0,15.625,210.0,2685.2175082116255,0.0,0.5,1.542968592,4.428038480730912,-0.02075195100000027,-0.6399999856948853,-2.4100000858306885,0.10999999940395355,-0.158447265625,-0.01953125,1.25445556640625,36.349998474121094,0.0,-105.0,-5.0158843994140625,0.8511505126953125,Opening,0.0,0.0,0.0,0.0,0.0,0.0,0.0,0.0,
1.0526640000000007,0.0,0.0,27695.0,31.375,-360.0,-2511.817771181859,0.0,0.5,0.745849533,4.477457890369698,0.0,-26400.0,36.75,420.0,2511.817771181859,0.0,0.5,0.48095698200000003,4.506070585718446,-0.009765623999999917,21767.0,19.375,-37.5,-2511.817771181859,0.0,0.375,3.280028961,4.484855487196912,0.0,-11609.0,31.75,412.5,2511.817771181859,0.0,0.5,1.486816254,4.500832626006455,-0.052490229,-0.5699999928474426,-2.859999895095825,0.05000000074505806,-0.48065185546875,-0.001220703125,0.68511962890625,36.349998474121094,0.0,-445.0,-5.021453857421875,0.850433349609375,Opening,0.0,0.0,0.0,0.0,0.0,0.0,0.0,0.0,
1.088382999999998,0.0,0.0,27617.0,32.75,-420.0,-1486.1190527843519,0.0,1.0,0.653076105,4.52455241534539,0.0,-26400.0,38.5,517.5,1486.1190527843519,0.0,0.875,0.405273396,4.553466063004293,0.0,21751.0,20.0,-105.0,-1486.1190527843519,0.0,0.875,3.183593424,4.532027821125155,0.0,-11609.0,29.0,532.5,1486.1190527843519,0.0,0.625,1.3684080630000002,4.548173009703367,0.0,-0.4000000059604645,-3.7300000190734863,0.14000000059604645,-0.61480712890625,0.275146484375,1.80999755859375,36.349998474121094,0.0,-494.0,-5.035125732421875,0.8498077392578125,Opening,0.0,0.0,0.0,0.0,0.0,0.0,0.0,0.0,
1.1259860000000008,0.0,0.0,27617.0,27.0,-465.0,0.0,0.0,1.0,0.571289004,4.52455241534539,0.0,-26400.0,31.625,562.5,0.0,0.0,0.5,0.302734344,4.553466063004293,0.0,21751.0,12.0,-195.0,0.0,0.0,0.625,3.095702808,4.532027821125155,0.0,-11609.0,23.25,592.5,0.0,0.0,0.5,1.308593616,4.548173009703367,-0.10742186399999998,-0.1599999964237213,-3.940000057220459,0.3400000035762787,-0.2061767578125,0.3427734375,0.602294921875,36.349998474121094,0.0,-162.0,-5.0472259521484375,0.85076904296875,Opening,0.0,0.0,0.0,0.0,0.0,0.0,0.0,0.0,
1.1558479999999982,0.0,0.0,27617.0,6.5,-600.0,0.0,0.0,0.5,0.495605418,4.52455241534539,-0.09521483400000008,-26299.0,7.375,675.0,0.0,0.0,0.25,0.216064431,4.553466063004293,-0.09033202200000012,21751.0,5.375,-247.5,0.0,0.0,0.375,3.020019222,4.532027821125155,-0.09521483400000008,-11501.0,6.125,675.0,0.0,0.0,0.25,1.2646483080000002,4.548173009703367,-0.10742186399999998,0.20000000298023224,-3.9000000953674316,0.6700000166893005,0.127197265625,0.44232177734375,1.58319091796875,36.349998474121094,0.0,239.0,-5.0653839111328125,0.8549346923828125,Opening,0.0,0.0,0.0,0.0,0.0,0.0,0.0,0.0,
1.1956939999999996,0.0,0.0,27617.0,0.0,-600.0,0.0,0.0,0.375,0.42846675300000003,4.52455241534539,-0.15991209299999998,-26299.0,0.0,600.0,0.0,0.0,0.25,0.12939451800000001,4.553466063004293,-0.20141599500000051,21702.0,0.0,-307.5,0.0,0.0,0.25,2.940673527,4.532027821125155,-0.18310545000000022,-11501.0,0.0,615.0,0.0,0.0,0.25,1.229247921,4.548173009703367,-0.104980458,0.3100000023841858,-2.9700000286102295,0.75,0.2618408203125,0.2161865234375,0.9996337890625,36.349998474121094,0.0,316.0,-5.074493408203125,0.8589019775390625,Opening,0.0,0.0,0.0,0.0,0.0,0.0,0.0,0.0,
1.2309150000000009,0.0,0.0,27510.0,0.0,-645.0,0.0,0.0,0.25,0.404052693,4.52455241534539,-0.15991209299999998,-26299.0,0.0,517.5,0.0,0.0,0.25,0.095214834,4.553466063004293,-0.07934569499999977,21702.0,0.0,-307.5,0.0,0.0,0.125,2.911376655,4.532027821125155,-0.06103515000000037,-11501.0,0.125,592.5,0.0,0.0,0.25,1.225585812,4.548173009703367,-0.030517575000000186,0.5600000023841858,-3.009999990463257,0.699999988079071,0.16912841796875,0.0498046875,0.958251953125,36.349998474121094,0.0,219.0,-5.0819244384765625,0.863250732421875,Opening,0.0,0.0,0.0,0.0,0.0,0.0,0.0,0.0,
1.2622659999999997,0.0,0.0,27510.0,0.0,-712.5,0.0,0.0,0.125,0.399169881,4.52455241534539,-0.04760741700000004,-26299.0,0.0,540.0,0.0,0.0,0.125,0.086669913,4.553466063004293,-0.07934569499999977,21702.0,0.0,-300.0,0.0,0.0,0.0,2.877196971,4.532027821125155,-0.06103515000000037,-11406.0,0.125,622.5,0.0,0.0,0.25,1.219482297,4.548173009703367,-0.030517575000000186,0.44999998807907104,-2.609999895095825,0.550000011920929,0.0108642578125,-0.05023193359375,0.897216796875,36.349998474121094,0.0,51.0,-5.091278076171875,0.869964599609375,Opening,0.0,0.0,0.0,0.0,0.0,0.0,0.0,0.0,
1.2942019999999974,0.0,0.0,27510.0,0.0,-787.5,0.0,0.0,0.125,0.399169881,4.52455241534539,-0.019531247999999835,-26201.0,0.0,622.5,0.0,0.0,0.125,0.08056639800000001,4.553466063004293,-0.024414059999999793,21645.0,0.0,-315.0,0.0,0.0,0.0,2.875976268,4.532027821125155,-0.05981444699999994,-11406.0,0.125,645.0,0.0,0.0,0.125,1.219482297,4.548173009703367,-0.009765623999999917,0.3799999952316284,-2.299999952316284,0.5099999904632568,0.1881103515625,-0.16546630859375,0.663818359375,36.349998474121094,0.0,213.0,-5.096527099609375,0.8739166259765625,Opening,0.0,0.0,0.0,0.0,0.0,0.0,0.0,0.0,
1.3282880000000004,0.0,0.0,27413.0,0.0,-735.0,0.0,0.0,0.125,0.399169881,4.52455241534539,-0.019531247999999835,-26201.0,0.0,630.0,0.0,0.0,0.125,0.08056639800000001,4.553466063004293,-0.024414059999999793,21645.0,0.0,-345.0,0.0,0.0,0.0,2.877196971,4.532027821125155,0.004882811999999959,-11406.0,0.125,622.5,0.0,0.0,0.125,1.219482297,4.548173009703367,0.0,0.2199999988079071,-2.4100000858306885,0.5,0.03704833984375,-0.1478271484375,1.56744384765625,36.33000183105469,0.0,101.0,-5.100921630859375,0.8771209716796875,Opening,0.0,0.0,0.0,0.0,0.0,0.0,0.0,0.0,
1.3606339999999981,0.0,0.0,27413.0,0.0,-525.0,0.0,0.0,0.125,0.39428706900000005,4.52455241534539,0.0,-26201.0,0.0,547.5,0.0,0.0,0.125,0.07934569500000001,4.553466063004293,-0.004882811999999959,21645.0,0.0,-405.0,0.0,0.0,0.125,2.88085908,4.532027821125155,0.004882811999999959,-11406.0,0.125,577.5,0.0,0.0,0.125,1.219482297,4.548173009703367,0.0,0.019999999552965164,-1.9199999570846558,0.4099999964237213,0.2105712890625,-0.04046630859375,0.57196044921875,36.33000183105469,0.0,229.0,-5.1044769287109375,0.879669189453125,Opening,0.0,0.0,0.0,0.0,0.0,0.0,0.0,0.0,
1.3890319999999992,0.0,0.0,27413.0,0.0,-427.5,0.0,0.0,0.125,0.39428706900000005,4.52455241534539,-0.004882811999999959,-26201.0,0.0,510.0,0.0,0.0,0.125,0.08056639800000001,4.553466063004293,0.0,21645.0,0.0,-420.0,0.0,0.0,0.125,2.885741892,4.532027821125155,0.008544921000000372,-11330.0,0.125,510.0,0.0,0.0,0.125,1.219482297,4.548173009703367,0.0,-0.029999999329447746,-1.940000057220459,0.2800000011920929,0.11419677734375,-0.0855712890625,1.20379638671875,36.33000183105469,0.0,154.0,-5.1069183349609375,0.8819427490234375,Opening,0.0,0.0,0.0,0.0,0.0,0.0,0.0,0.0,
1.4216859999999978,0.0,0.0,27413.0,0.0,-300.0,0.0,0.0,0.125,0.39428706900000005,4.52455241534539,-0.004882811999999959,-26127.0,0.0,480.0,0.0,0.0,0.125,0.08056639800000001,4.553466063004293,0.0,21589.0,0.0,-382.5,0.0,0.0,0.0,2.886962595,4.532027821125155,0.008544921000000372,-11330.0,0.125,465.0,0.0,0.0,0.125,1.219482297,4.548173009703367,0.0,-0.17000000178813934,-1.5800000429153442,0.14000000059604645,0.13433837890625,-0.09393310546875,0.86041259765625,36.33000183105469,0.0,157.0,-5.10845947265625,0.883758544921875,Opening,0.0,0.0,0.0,0.0,0.0,0.0,0.0,0.0,
1.4525930000000007,0.0,0.0,27368.0,0.0,-277.5,0.0,0.0,0.125,0.39062496,4.52455241534539,0.0,-26127.0,0.0,405.0,0.0,0.0,0.125,0.08056639800000001,4.553466063004293,0.0,21589.0,0.0,-307.5,0.0,0.0,0.0,2.8918454070000004,4.532027821125155,0.0,-11330.0,0.125,330.0,0.0,0.0,0.125,1.219482297,4.548173009703367,0.0,-0.36000001430511475,-1.4299999475479126,0.05000000074505806,0.0826416015625,-0.1522216796875,1.15045166015625,36.33000183105469,0.0,111.0,-5.1090087890625,0.88525390625,Opening,0.0,0.0,0.0,0.0,0.0,0.0,0.0,0.0,
1.490326000000001,0.0,0.0,27368.0,0.0,-277.5,0.0,0.0,0.125,0.391845663,4.52455241534539,-0.004882812000000847,-26127.0,0.0,300.0,0.0,0.0,0.125,0.08056639800000001,4.553466063004293,0.0,21589.0,0.0,-262.5,0.0,0.0,0.0,2.8918454070000004,4.532027821125155,0.006103515000000392,-11296.0,0.125,247.5,0.0,0.0,0.125,1.219482297,4.548173009703367,0.0,-0.5099999904632568,-1.1299999952316284,0.05999999865889549,0.12713623046875,-0.13104248046875,0.8883056640625,36.33000183105469,0.0,144.0,-5.10845947265625,0.885467529296875,Opening,0.0,0.0,0.0,0.0,0.0,0.0,0.0,0.0,
1.5225409999999975,0.0,0.0,27368.0,0.0,-255.0,0.0,0.0,0.125,0.38940425700000003,4.52455241534539,-0.004882812000000847,-26098.0,0.0,247.5,0.0,0.0,0.125,0.08056639800000001,4.553466063004293,0.0,21589.0,0.0,-225.0,0.0,0.0,0.0,2.8918454070000004,4.532027821125155,0.006103515000000392,-11296.0,0.125,217.5,0.0,0.0,0.125,1.220703,4.548173009703367,0.0,-0.6499999761581421,-1.0099999904632568,0.07999999821186066,0.09716796875,-0.10968017578125,1.07196044921875,36.33000183105469,0.0,115.0,-5.107147216796875,0.885040283203125,Opening,0.0,0.0,0.0,0.0,0.0,0.0,0.0,0.0,
1.553048999999999,0.0,0.0,27368.0,0.0,-165.0,0.0,0.0,0.125,0.39062496,4.52455241534539,0.0,-26098.0,0.0,142.5,0.0,0.0,0.125,0.08056639800000001,4.553466063004293,0.0,21567.0,0.0,-157.5,0.0,0.0,0.0,2.8906247040000004,4.532027821125155,-0.0012207030000004337,-11296.0,0.125,127.5,0.0,0.0,0.125,1.220703,4.548173009703367,0.0,-0.7099999785423279,-0.9100000262260437,0.09000000357627869,0.12677001953125,-0.09161376953125,0.9918212890625,36.33000183105469,0.0,142.0,-5.1062164306640625,0.8846282958984375,Opening,0.0,0.0,0.0,0.0,0.0,0.0,0.0,0.0,
1.585857,0.0,0.0,27355.0,0.125,-112.5,-198.4251961112022,0.0,0.125,0.38940425700000003,0.01,0.0,-26098.0,0.0,97.5,198.4251961112022,0.0,0.125,0.08056639800000001,0.01,0.0,21567.0,0.125,-82.5,-198.4251961112022,0.0,0.0,2.8918454070000004,0.01,0.0,-11296.0,0.25,82.5,198.4251961112022,0.0,0.125,1.219482297,0.01,0.0,-0.7900000214576721,-0.7099999785423279,0.09000000357627869,0.0821533203125,-0.06573486328125,1.0274658203125,36.33000183105469,0.0,94.0,-5.103790283203125,0.883544921875,Opening,0.0,0.0,0.0,0.0,0.0,0.0,0.0,0.0,
1.6151539999999986,0.0,0.0,27355.0,0.375,-37.5,-1488.1890177726746,0.0,1.125,0.40771480200000004,0.01,-0.0012207029999995456,-26098.0,0.5,30.0,1488.1890177726746,0.0,1.25,0.08544921,0.01,-0.0012207030000004337,21567.0,0.875,-45.0,-1488.1890177726746,0.0,0.875,2.940673527,0.01,0.0,-11291.0,2.375,30.0,1488.1890177726746,0.0,1.25,1.229247921,0.01,0.0,-0.8299999833106995,-0.6800000071525574,0.07999999821186066,0.00250244140625,-0.0267333984375,1.005859375,36.33000183105469,0.0,14.0,-5.100982666015625,0.8822479248046875,Opening,0.0,0.0,0.0,0.0,0.0,0.0,0.0,0.0,
1.6492609999999985,0.0,0.0,27355.0,3.625,-30.0,-1851.9684970378876,0.0,1.25,0.523681587,0.01,0.0,-26078.0,3.75,30.0,1851.9684970378876,0.0,1.5,0.11840819100000001,0.01,0.0,21567.0,6.625,-15.0,-1851.9684970378876,0.0,1.5,3.0627438270000003,0.01,0.0,-11291.0,5.0,45.0,1851.9684970378876,0.0,1.375,1.337890488,0.01,0.0,-0.8100000023841858,-0.7200000286102295,0.1599999964237213,-0.08294677734375,-0.01812744140625,1.057861328125,36.33000183105469,0.0,-69.0,-5.096771240234375,0.881561279296875,Opening,0.0,0.0,0.0,0.0,0.0,0.0,0.0,0.0,
1.6784809999999997,0.0,0.0,27355.0,12.0,-150.0,-2100.0,0.0,0.75,0.577392519,0.01,0.10620116100000043,-26078.0,16.625,165.0,2100.0,0.0,0.75,0.18310545,0.01,0.043945308000000516,21561.0,10.875,-22.5,-2100.0,0.0,0.75,3.1640621760000003,0.01,0.1171874879999999,-11291.0,15.375,180.0,2100.0,0.0,0.625,1.408691262,0.01,0.0,-0.5299999713897705,-1.659999966621399,0.15000000596046448,-0.22967529296875,0.15277099609375,1.12371826171875,36.33000183105469,0.0,-196.0,-5.0960540771484375,0.88189697265625,Opening,0.0,0.0,0.0,0.0,0.0,0.0,0.0,0.0,
1.7130769999999975,0.0,0.0,27320.0,21.625,-277.5,-2099.9999999999995,0.0,0.5,0.6591796200000001,0.01,0.07080077400000029,-26078.0,23.875,247.5,2099.9999999999995,0.0,0.75,0.241699194,0.01,0.07202147699999983,21561.0,18.0,-82.5,-2099.9999999999995,0.0,0.125,3.2739254460000002,0.01,0.1330566270000002,-11291.0,21.375,240.0,2099.9999999999995,0.0,0.375,1.470947115,0.01,0.08300780400000018,-0.3499999940395355,-2.0399999618530273,0.11999999731779099,-0.5338134765625,-0.05377197265625,0.92974853515625,36.33000183105469,0.0,-500.0,-5.09747314453125,0.883148193359375,Opening,0.0,0.0,0.0,0.0,0.0,0.0,0.0,0.0,
1.7434670000000005,0.0,0.0,27320.0,23.375,-322.5,-2100.0,0.0,0.375,0.715331958,0.01,0.0,-26078.0,31.875,330.0,2100.0,0.0,1.0,0.29785153200000003,0.01,0.0,21561.0,21.875,-120.0,-2100.0,0.0,0.125,3.348388329,0.01,0.0,-11225.0,25.75,330.0,2100.0,0.0,0.375,1.5246580470000002,0.01,0.0,-0.3100000023841858,-2.5899999141693115,0.15000000596046448,-0.436767578125,0.01373291015625,1.2020263671875,36.33000183105469,0.0,-381.0,-5.10137939453125,0.8845367431640625,Opening,0.0,0.0,0.0,0.0,0.0,0.0,0.0,0.0,
1.7736719999999986,0.0,0.0,27320.0,24.625,-352.5,-1868.5039222240448,0.0,0.375,0.7788085140000001,0.01,0.07080077400000029,-26014.0,32.75,360.0,1868.5039222240448,0.0,0.75,0.327148404,0.01,0.05981444699999994,21561.0,24.5,-195.0,-1868.5039222240448,0.0,0.125,3.382568013,0.01,0.07568358600000025,-11225.0,26.25,375.0,1868.5039222240448,0.0,0.375,1.540527186,0.01,0.051269525999999566,-0.3199999928474426,-3.180000066757202,0.10000000149011612,-0.454833984375,-0.0274658203125,0.7777099609375,36.33000183105469,0.0,-410.0,-5.107269287109375,0.885955810546875,Opening,0.0,0.0,0.0,0.0,0.0,0.0,0.0,0.0,
1.808025999999998,0.0,0.0,27224.0,24.875,-457.5,-1074.8031377792358,0.0,0.25,0.808105386,0.01,0.0,-26014.0,29.75,495.0,1074.8031377792358,0.0,0.5,0.36132808800000005,0.01,0.0,21525.0,22.75,-217.5,-1074.8031377792358,0.0,0.125,3.406982073,0.01,0.0,-11225.0,22.875,555.0,1074.8031377792358,0.0,0.375,1.5771482760000002,0.01,0.0,-0.5199999809265137,-3.7699999809265137,-0.029999999329447746,-0.414306640625,-0.06756591796875,1.1693115234375,36.33000183105469,0.0,-336.0,-5.1154632568359375,0.8869476318359375,Opening,0.0,0.0,0.0,0.0,0.0,0.0,0.0,0.0,
1.835780999999999,0.0,0.0,27224.0,12.5,-667.5,0.0,0.0,0.25,0.8056639800000001,0.01,0.02685546600000066,-26014.0,23.625,615.0,0.0,0.0,0.5,0.380859336,0.01,0.03295898099999928,21525.0,12.125,-277.5,0.0,0.0,0.125,3.397216449,0.01,0.019531247999999835,-11225.0,16.5,675.0,0.0,0.0,0.25,1.5869139,0.01,0.0183105449999994,-0.6200000047683716,-4.059999942779541,-0.18000000715255737,-0.20379638671875,-0.1451416015625,1.174072265625,36.31999969482422,0.0,-119.0,-5.1307373046875,0.8874359130859375,Opening,0.0,0.0,0.0,0.0,0.0,0.0,0.0,0.0,
1.8722000000000008,0.0,0.0,27224.0,5.0,-727.5,0.0,0.0,0.25,0.806884683,0.01,0.02685546600000066,-25895.0,6.5,787.5,0.0,0.0,0.5,0.40039058400000005,0.01,0.03295898099999928,21525.0,5.625,-307.5,0.0,0.0,0.125,3.39355434,0.01,0.019531247999999835,-11099.0,3.0,802.5,0.0,0.0,0.25,1.6015623360000002,0.01,0.0183105449999994,-0.6800000071525574,-3.880000114440918,-0.28999999165534973,-0.0439453125,-0.1129150390625,0.9998779296875,36.31999969482422,0.0,24.0,-5.141265869140625,0.887054443359375,Opening,0.0,0.0,0.0,0.0,0.0,0.0,0.0,0.0,
1.9040550000000003,0.0,0.0,27224.0,0.0,-682.5,0.0,0.0,0.125,0.8056639800000001,0.01,-0.003662109000000413,-25895.0,1.75,735.0,0.0,0.0,0.5,0.429687456,0.01,0.04272460500000008,21470.0,0.0,-345.0,0.0,0.0,0.125,3.3642574680000004,0.01,-0.009765623999999917,-11099.0,0.125,765.0,0.0,0.0,0.25,1.6308592080000002,0.01,0.03173827800000062,-0.800000011920929,-3.5199999809265137,-0.46000000834465027,0.60028076171875,0.05218505859375,1.29693603515625,36.31999969482422,0.0,678.0,-5.15118408203125,0.886322021484375,Opening,0.0,0.0,0.0,0.0,0.0,0.0,0.0,0.0,
1.9333499999999986,0.0,0.0,27126.0,0.0,-622.5,0.0,0.0,0.125,0.8056639800000001,0.01,0.0,-25895.0,0.0,697.5,0.0,0.0,0.25,0.44799800100000003,0.01,0.02929687200000064,21470.0,0.0,-345.0,0.0,0.0,0.125,3.358153953,0.01,-0.029296871999999752,-11099.0,0.125,690.0,0.0,0.0,0.25,1.650390456,0.01,0.029296871999999752,-0.800000011920929,-3.180000066757202,-0.699999988079071,-0.2186279296875,0.2515869140625,0.8448486328125,36.31999969482422,0.0,-174.0,-5.15948486328125,0.8855133056640625,Opening,0.0,0.0,0.0,0.0,0.0,0.0,0.0,0.0,
1.968089,0.0,0.0,27126.0,0.0,-585.0,0.0,0.0,0.125,0.806884683,0.01,0.0,-25895.0,0.0,682.5,0.0,0.0,0.25,0.47241206100000005,0.01,0.02929687200000064,21470.0,0.0,-337.5,0.0,0.0,0.0,3.359374656,0.01,-0.029296871999999752,-11099.0,0.125,720.0,0.0,0.0,0.125,1.6601560800000001,0.01,0.029296871999999752,-0.7799999713897705,-3.0799999237060547,-0.9300000071525574,0.1065673828125,-0.06494140625,1.22235107421875,36.31999969482422,0.0,172.0,-5.167633056640625,0.8845672607421875,Opening,0.0,0.0,0.0,0.0,0.0,0.0,0.0,0.0,
1.993614999999998,0.0,0.0,27126.0,0.0,-622.5,0.0,0.0,0.125,0.806884683,0.01,0.0,-25777.0,0.0,735.0,0.0,0.0,0.25,0.490722606,0.01,0.037841792999999235,21470.0,0.0,-352.5,0.0,0.0,0.0,3.3630367650000004,0.01,4.935517188,-10991.0,0.125,750.0,0.0,0.0,0.125,1.665038892,0.01,-4.928703128,-0.8700000047683716,-2.7899999618530273,-1.100000023841858,0.070068359375,-0.1495361328125,0.97882080078125,36.31999969482422,0.0,120.0,-5.175201416015625,0.883392333984375,Opening,0.0,0.0,0.0,0.0,0.0,0.0,0.0,0.0,
2.0286849999999976,0.0,0.0,27126.0,0.0,-667.5,0.0,0.0,0.125,0.806884683,0.01,0.0,-25777.0,0.0,757.5,0.0,0.0,0.25,0.496826121,0.01,0.037841792999999235,21405.0,0.0,-397.5,0.0,0.0,0.0,3.3618160620000004,0.01,4.935517188,-10991.0,0.125,757.5,0.0,0.0,0.25,1.6638181890000001,0.01,0.004882811999999959,-0.9399999976158142,-2.4000000953674316,-1.1299999952316284,0.22186279296875,-0.00628662109375,0.75634765625,36.31999969482422,0.0,253.0,-5.181884765625,0.8818359375,Opening,0.0,0.0,0.0,0.0,0.0,0.0,0.0,0.0,
2.059125,0.0,0.0,27021.0,0.0,-667.5,0.0,0.0,0.125,0.810546792,0.01,0.0,-25777.0,0.0,690.0,0.0,0.0,0.125,0.506591745,0.01,0.019531248000000723,21405.0,0.0,-420.0,0.0,0.0,0.0,3.3630367650000004,0.01,-4.936737891,-10991.0,0.125,705.0,0.0,0.0,0.25,1.640624832,0.01,0.004882811999999959,-0.8799999952316284,-2.2200000286102295,-1.2400000095367432,0.10736083984375,0.0401611328125,1.10968017578125,36.31999969482422,0.0,149.0,-5.190185546875,0.8792572021484375,Opening,0.0,0.0,0.0,0.0,0.0,0.0,0.0,0.0,
2.0907069999999983,0.0,0.0,27021.0,0.0,-585.0,0.0,0.0,0.125,0.810546792,0.01,0.004882811999999959,-25777.0,0.0,600.0,0.0,0.0,0.125,0.506591745,0.01,0.014648435999999876,21405.0,0.0,-457.5,0.0,0.0,0.0,3.3642574680000004,0.01,0.0012207029999999897,-10889.0,0.125,652.5,0.0,0.0,0.125,1.640624832,0.01,-0.024414060000000015,-0.8199999928474426,-1.8600000143051147,-1.2999999523162842,0.13763427734375,0.05438232421875,1.11285400390625,36.31999969482422,0.0,172.0,-5.1942901611328125,0.8774566650390625,Opening,0.0,0.0,0.0,0.0,0.0,0.0,0.0,0.0,
2.126097999999998,0.0,0.0,27021.0,0.0,-555.0,0.0,0.0,0.125,0.820312416,0.01,0.004882811999999959,-25686.0,0.0,585.0,0.0,0.0,0.125,0.5163573690000001,0.01,0.014648435999999876,21405.0,0.0,-465.0,0.0,0.0,0.0,3.3630367650000004,0.01,0.0012207029999999897,-10889.0,0.125,600.0,0.0,0.0,0.125,1.645507644,0.01,0.0,-0.800000011920929,-1.7400000095367432,-1.309999942779541,0.17071533203125,0.06121826171875,0.99908447265625,36.31999969482422,0.0,199.0,-5.1973114013671875,0.87591552734375,Opening,0.0,0.0,0.0,0.0,0.0,0.0,0.0,0.0,
2.163035,0.0,0.0,26944.0,0.125,-510.0,-446.45669907331467,0.0,0.125,0.820312416,4.914303087422852,-4.927368188,-25686.0,0.0,532.5,446.45669907331467,0.0,0.125,0.5163573690000001,4.9457073932889735,0.009765623999999917,21329.0,0.0,-472.5,-446.45669907331467,0.0,0.0,3.3642574680000004,4.922422434118592,0.0024414059999999793,-10889.0,0.25,532.5,446.45669907331467,0.0,0.125,1.6345213170000001,4.939958389676945,0.004882811999999959,-0.7900000214576721,-1.5700000524520874,-1.350000023841858,0.01470947265625,-0.009033203125,1.23065185546875,36.31999969482422,0.0,48.0,-5.199432373046875,0.8746337890625,Opening,0.0,0.0,0.0,0.0,0.0,0.0,0.0,0.0,
2.1929909999999984,0.0,0.0,26944.0,0.125,-450.0,-628.3464699983597,0.0,0.25,0.820312416,4.913344037898667,0.0,-25686.0,0.0,495.0,628.3464699983597,0.0,0.125,0.5175780720000001,4.944742215065751,0.0,21329.0,0.125,-442.5,-628.3464699983597,0.0,0.125,3.3630367650000004,4.921461800065441,0.0,-10889.0,0.25,502.5,628.3464699983597,0.0,0.125,1.640624832,4.938994333399007,0.0,-0.7699999809265137,-1.1799999475479126,-1.399999976158142,0.1748046875,0.01336669921875,1.06646728515625,36.31999969482422,0.0,196.0,-5.201141357421875,0.8743743896484375,Opening,0.0,0.0,0.0,0.0,0.0,0.0,0.0,0.0,
2.2288329999999985,0.0,0.0,26944.0,0.125,-420.0,-727.55908370018,0.0,0.25,0.820312416,4.913070024215542,0.0,-25686.0,0.125,427.5,727.55908370018,0.0,0.25,0.5163573690000001,4.94446645032874,0.0,21329.0,0.125,-420.0,-727.55908370018,0.0,0.125,3.3630367650000004,4.921187333660526,0.0012207029999999897,-10822.0,0.375,405.0,727.55908370018,0.0,0.25,1.6320799110000002,4.938718889217246,0.0,-0.7900000214576721,-1.1200000047683716,-1.3600000143051147,0.1378173828125,-0.07373046875,1.0703125,36.31999969482422,0.0,160.0,-5.2010650634765625,0.8738861083984375,Opening,0.0,0.0,0.0,0.0,0.0,0.0,0.0,0.0,
2.268278999999999,0.0,0.0,26944.0,0.125,-360.0,-876.377972960472,0.0,0.25,0.820312416,4.91361805158179,0.0,-25625.0,0.375,367.5,876.377972960472,0.0,0.25,0.5163573690000001,4.94501797980276,0.0012207030000004337,21272.0,0.125,-367.5,-876.377972960472,0.0,0.125,3.3630367650000004,4.921736266470355,-0.0012207029999999897,-10822.0,0.75,292.5,876.377972960472,0.0,0.25,1.644286941,4.939269777580767,4.948234376,-0.7599999904632568,-0.8999999761581421,-1.2799999713897705,0.08154296875,-0.040771484375,0.97418212890625,36.31999969482422,0.0,97.0,-5.1999053955078125,0.873321533203125,Opening,0.0,0.0,0.0,0.0,0.0,0.0,0.0,0.0,
2.3101990000000003,0.0,0.0,26887.0,0.375,-352.5,-892.9133981466294,0.0,0.25,0.820312416,4.914714107947539,0.0,-25625.0,0.75,352.5,892.9133981466294,0.0,0.25,0.5163573690000001,4.946121040394488,0.0,21272.0,0.625,-345.0,-892.9133981466294,0.0,0.125,3.3630367650000004,4.9228341337259645,0.0,-10822.0,1.125,345.0,892.9133981466294,0.0,0.25,1.6296385050000002,4.940371555949585,0.0,-0.7400000095367432,-0.8500000238418579,-1.2699999809265137,0.0169677734375,0.03375244140625,1.06475830078125,36.31999969482422,0.0,31.0,-5.198638916015625,0.873077392578125,Opening,0.0,0.0,0.0,0.0,0.0,0.0,0.0,0.0,
2.3398199999999996,0.0,0.0,26887.0,0.625,-420.0,-892.9133981466293,0.0,0.25,0.820312416,4.9148511147891005,0.0,-25625.0,1.25,420.0,892.9133981466293,0.0,0.25,0.5163573690000001,4.9462589227629925,0.0,21272.0,0.875,-360.0,-892.9133981466293,0.0,0.125,3.3679195770000003,4.922971366928421,0.0,-10761.0,1.25,382.5,892.9133981466293,0.0,0.25,1.625976396,4.940509278040464,0.0,-0.7900000214576721,-0.8799999952316284,-1.2999999523162842,-0.09613037109375,-0.001708984375,0.98760986328125,36.33000183105469,0.0,-81.0,-5.1965789794921875,0.87298583984375,Opening,0.0,0.0,0.0,0.0,0.0,0.0,0.0,0.0,
2.3764140000000005,0.0,0.0,26887.0,1.25,-435.0,-892.9133981466293,0.0,0.25,0.821533119,4.914440094264414,0.0,-25557.0,1.75,442.5,892.9133981466293,0.0,0.25,0.5163573690000001,4.945845275657478,0.0,21207.0,1.0,-382.5,-892.9133981466293,0.0,0.125,3.392333637,4.922559667321049,0.009765623999999917,-10761.0,2.0,405.0,892.9133981466293,0.0,0.25,1.621093584,4.940096111767824,-0.004882811999999959,-0.75,-0.9700000286102295,-1.2899999618530273,-0.0313720703125,0.02728271484375,0.9459228515625,36.33000183105469,0.0,-16.0,-5.1952056884765625,0.873291015625,Opening,0.0,0.0,0.0,0.0,0.0,0.0,0.0,0.0,
2.420761999999999,0.0,0.0,26825.0,2.125,-397.5,-892.9133981466293,0.0,0.25,0.820312416,4.9148511147891005,4.931030297,-25557.0,2.5,397.5,892.9133981466293,0.0,0.25,0.511474557,4.9462589227629925,0.0,21207.0,2.25,-412.5,-892.9133981466293,0.0,0.125,3.39355434,4.922971366928421,0.020751950999999824,-10761.0,2.625,345.0,892.9133981466293,0.0,0.25,1.6052244450000002,4.940509278040464,-0.009765623999999917,-0.75,-0.9599999785423279,-1.25,-0.08587646484375,-0.01629638671875,1.13006591796875,36.33000183105469,0.0,-66.0,-5.194000244140625,0.873626708984375,Opening,0.0,0.0,0.0,0.0,0.0,0.0,0.0,0.0,
2.448429,0.0,0.0,26825.0,2.625,-322.5,-892.9133981466292,0.0,0.25,0.820312416,4.915536148996912,0.0,-25557.0,3.625,315.0,892.9133981466292,0.0,0.125,0.5163573690000001,4.946948334605518,0.0,21207.0,2.625,-382.5,-892.9133981466292,0.0,0.125,3.392333637,4.923657532940709,0.0,-10710.0,3.125,292.5,892.9133981466292,0.0,0.25,1.596679524,4.941197888494866,0.0,-0.7300000190734863,-1.1200000047683716,-1.1799999475479126,-0.1424560546875,-0.05670166015625,0.96142578125,36.33000183105469,0.0,-122.0,-5.1928863525390625,0.8742523193359375,Opening,0.0,0.0,0.0,0.0,0.0,0.0,0.0,0.0,
2.4814300000000005,0.0,0.0,26825.0,3.125,-315.0,-892.9133981466293,0.0,0.25,0.8166503070000001,4.916084177996411,0.0,-25504.0,4.25,300.0,892.9133981466293,0.0,0.125,0.509033151,4.947499865723226,0.0,21207.0,2.875,-360.0,-892.9133981466293,0.0,0.125,3.387450825,4.924206467386488,-0.0024414059999999793,-10710.0,4.25,300.0,892.9133981466293,0.0,0.125,1.596679524,4.941748778500163,0.0,-0.75,-1.2599999904632568,-1.2000000476837158,-0.05364990234375,0.0234375,1.08770751953125,36.33000183105469,0.0,-30.0,-5.192840576171875,0.8744659423828125,Opening,0.0,0.0,0.0,0.0,0.0,0.0,0.0,0.0,
2.5142069999999985,0.0,0.0,26825.0,4.125,-345.0,-892.9133981466294,0.0,0.25,0.825195228,4.915810162680036,-4.931030297,-25504.0,5.5,345.0,892.9133981466294,0.0,0.125,0.511474557,4.947224099342527,0.0,21156.0,3.875,-322.5,-892.9133981466294,0.0,0.125,3.382568013,4.923931999345623,-0.0024414059999999793,-10710.0,4.625,337.5,892.9133981466294,0.0,0.125,1.590576009,4.941473332676625,-0.0012207029999995456,-0.7300000190734863,-1.3899999856948853,-1.2200000286102295,-0.14654541015625,-0.02435302734375,1.03704833984375,36.33000183105469,0.0,-121.0,-5.1932525634765625,0.8747100830078125,Opening,0.0,0.0,0.0,0.0,0.0,0.0,0.0,0.0,
2.546210999999999,0.0,0.0,26766.0,4.375,-360.0,-892.9133981466292,0.0,0.25,0.826415931,4.915536148996912,0.0,-25504.0,5.875,367.5,892.9133981466292,0.0,0.125,0.511474557,4.946948334605518,0.0,21156.0,4.75,-307.5,-892.9133981466292,0.0,0.125,3.382568013,4.923657532940709,0.0,-10710.0,4.625,390.0,892.9133981466292,0.0,0.125,1.591796712,4.941197888494866,0.0,-0.7099999785423279,-1.5499999523162842,-1.1799999475479126,-0.1455078125,-0.06829833984375,1.209228515625,36.33000183105469,0.0,-111.0,-5.1941986083984375,0.8746795654296875,Opening,0.0,0.0,0.0,0.0,0.0,0.0,0.0,0.0,
2.582274999999998,0.0,0.0,26766.0,4.875,-412.5,-892.9133981466292,0.0,0.25,0.823974525,4.916632205362659,0.0,-25504.0,6.25,420.0,892.9133981466292,0.0,0.125,0.511474557,4.948051395197245,0.0,21156.0,5.0,-307.5,-892.9133981466292,0.0,0.125,3.383788716,4.924755400196316,0.0,-10640.0,5.0,427.5,892.9133981466292,0.0,0.125,1.591796712,4.942299666863682,0.0,-0.6800000071525574,-1.7100000381469727,-1.0399999618530273,-0.1478271484375,-0.089599609375,0.93280029296875,36.33000183105469,0.0,-118.0,-5.1968231201171875,0.874603271484375,Opening,0.0,0.0,0.0,0.0,0.0,0.0,0.0,0.0,
2.6148849999999983,0.0,0.0,26766.0,4.875,-487.5,-892.9133981466294,0.0,0.25,0.822753822,4.918002275411531,-0.0012207029999999897,-25429.0,6.375,450.0,892.9133981466294,0.0,0.125,0.510253854,4.949430220525983,-0.0012207029999995456,21104.0,6.0,-307.5,-892.9133981466294,0.0,0.125,3.382568013,4.926127733856839,0.0,-10640.0,5.375,450.0,892.9133981466294,0.0,0.125,1.591796712,4.9436768894142595,0.0012207029999995456,-0.699999988079071,-1.909999966621399,-0.9599999785423279,-0.21478271484375,0.067626953125,1.03997802734375,36.33000183105469,0.0,-181.0,-5.1996307373046875,0.8743743896484375,Opening,0.0,0.0,0.0,0.0,0.0,0.0,0.0,0.0,
2.661161,0.0,0.0,26675.0,4.625,-562.5,-892.9133981466293,0.0,0.25,0.798339762,4.919098330960654,0.0,-25429.0,6.375,547.5,892.9133981466293,0.0,0.125,0.511474557,4.950533280295867,0.0,21104.0,6.625,-330.0,-892.9133981466293,0.0,0.125,3.3789059040000002,4.927225600294474,0.0,-10640.0,5.375,540.0,892.9133981466293,0.0,0.125,1.591796712,4.944778666962189,0.0,-0.6700000166893005,-2.0899999141693115,-0.8299999833106995,-0.05853271484375,-0.07989501953125,0.87835693359375,36.33000183105469,0.0,-25.0,-5.2052154541015625,0.87432861328125,Opening,0.0,0.0,0.0,0.0,0.0,0.0,0.0,0.0,
2.6926709999999985,0.0,0.0,26675.0,4.375,-600.0,-892.9133981466292,0.0,0.25,0.825195228,4.920879421534213,0.0,-25429.0,6.25,577.5,892.9133981466292,0.0,0.125,0.510253854,4.952325752730118,0.0,21104.0,6.875,-360.0,-892.9133981466292,0.0,0.125,3.3776852010000002,4.9290096335623685,0.0,-10542.0,5.375,570.0,892.9133981466292,0.0,0.125,1.591796712,4.946569055785407,0.0,-0.6299999952316284,-2.2799999713897705,-0.7200000286102295,-0.232666015625,-0.07562255859375,1.0916748046875,36.33000183105469,0.0,-188.0,-5.2094573974609375,0.8741302490234375,Opening,0.0,0.0,0.0,0.0,0.0,0.0,0.0,0.0,
2.728106,0.0,0.0,26675.0,4.0,-675.0,-892.9133981466293,0.0,0.25,0.825195228,4.922386497608024,0.0,-25323.0,6.0,645.0,892.9133981466293,0.0,0.125,0.511474557,4.953842459605518,-0.0012207029999995456,21104.0,7.25,-435.0,-892.9133981466293,0.0,0.125,3.3776852010000002,4.930519199607375,0.0,-10542.0,5.375,630.0,892.9133981466293,0.0,0.125,1.591796712,4.948083999605977,0.0012207029999995456,-0.6200000047683716,-2.369999885559082,-0.6600000262260437,-0.05926513671875,-0.04498291015625,1.10565185546875,36.33000183105469,0.0,-13.0,-5.2118072509765625,0.8739471435546875,Opening,0.0,0.0,0.0,0.0,0.0,0.0,0.0,0.0,
2.763650999999998,0.0,0.0,26549.0,3.875,-712.5,-892.9133981466292,0.0,0.25,0.825195228,4.924852623206018,-0.0012207029999999897,-25323.0,5.75,675.0,892.9133981466292,0.0,0.125,0.511474557,4.9563243447041385,0.0,21023.0,7.25,-510.0,-892.9133981466292,0.0,0.125,3.3789059040000002,4.932989399705532,0.0,-10542.0,5.125,652.5,892.9133981466292,0.0,0.125,1.591796712,4.950562999704482,-0.0012207029999995456,-0.6100000143051147,-2.4700000286102295,-0.4699999988079071,-0.230224609375,-0.07244873046875,1.13043212890625,36.33000183105469,0.0,-180.0,-5.2195587158203125,0.8736724853515625,Opening,0.0,0.0,0.0,0.0,0.0,0.0,0.0,0.0,
2.794259999999998,0.0,0.0,26549.0,3.375,-780.0,-892.9133981466292,0.0,0.25,0.825195228,4.925811672321891,0.0,-25323.0,5.375,720.0,892.9133981466292,0.0,0.125,0.511474557,4.957289522516439,0.0,21023.0,7.25,-540.0,-892.9133981466292,0.0,0.125,3.3776852010000002,4.933950033349696,0.0,-10542.0,4.75,712.5,892.9133981466292,0.0,0.25,1.590576009,4.951527055571976,0.0,-0.5899999737739563,-2.630000114440918,-0.3199999928474426,-0.10101318359375,0.0196533203125,0.87115478515625,36.33000183105469,0.0,-61.0,-5.2256927490234375,0.8735809326171875,Opening,0.0,0.0,0.0,0.0,0.0,0.0,0.0,0.0,
2.830633999999998,0.0,0.0,26549.0,3.0,-847.5,-892.9133981466293,0.0,0.125,0.825195228,4.928825825694448,0.0012207029999999897,-25323.0,4.875,780.0,892.9133981466293,0.0,0.125,0.511474557,4.9603229375000035,0.0012207029999995456,21023.0,7.125,-577.5,-892.9133981466293,0.0,0.125,3.3776852010000002,4.93696916666667,0.0,-10420.0,4.875,735.0,892.9133981466293,0.0,0.25,1.591796712,4.954556944444447,0.0,-0.6200000047683716,-2.680000066757202,-0.18000000715255737,-0.0838623046875,-0.05450439453125,1.00604248046875,36.33000183105469,0.0,-36.0,-5.232177734375,0.873382568359375,Opening,0.0,0.0,0.0,0.0,0.0,0.0,0.0,0.0,
2.8678269999999975,0.0,0.0,26549.0,2.75,-900.0,-892.9133981466292,0.0,0.125,0.822753822,4.9308809302573655,0.0,-25193.0,4.625,802.5,892.9133981466292,0.0,0.125,0.510253854,4.962391174979457,-0.0012207029999995456,20921.0,7.25,-622.5,-892.9133981466292,0.0,0.125,3.3789059040000002,4.93902766664622,0.0,-10420.0,4.25,795.0,892.9133981466292,0.0,0.25,1.591796712,4.956622777757259,-0.0012207029999995456,-0.5799999833106995,-2.880000114440918,0.07000000029802322,0.03314208984375,-0.10076904296875,0.93438720703125,36.290000915527344,0.0,79.0,-5.2423095703125,0.8730621337890625,Opening,0.0,0.0,0.0,0.0,0.0,0.0,0.0,0.0,
2.895544999999998,0.0,0.0,26399.0,2.0,-922.5,-611.8110448122026,0.0,0.125,0.823974525,0.01,0.0,-25193.0,4.0,855.0,611.8110448122026,0.0,0.125,0.511474557,0.01,0.0,20921.0,6.625,-652.5,-611.8110448122026,0.0,0.125,3.3789059040000002,0.01,0.0,-10420.0,3.375,847.5,611.8110448122026,0.0,0.25,1.6064451480000002,0.01,0.0,-0.6100000143051147,-2.9000000953674316,0.23000000417232513,-0.08447265625,0.030029296875,1.08099365234375,36.290000915527344,0.0,-29.0,-5.249114990234375,0.87274169921875,Opening,0.0,0.0,0.0,0.0,0.0,0.0,0.0,0.0,
2.934387999999999,0.0,0.0,26399.0,0.75,-952.5,-462.9921242594719,0.0,0.125,0.825195228,0.01,0.0012207029999999897,-25193.0,2.125,885.0,462.9921242594719,0.0,0.0,0.5151366660000001,0.01,0.0,20921.0,4.75,-720.0,-462.9921242594719,0.0,0.125,3.3776852010000002,0.01,0.0,-10279.0,1.75,885.0,462.9921242594719,0.0,0.25,1.6015623360000002,0.01,0.0,-0.5600000023841858,-2.880000114440918,0.4699999988079071,-0.01275634765625,0.01885986328125,1.2430419921875,36.290000915527344,0.0,50.0,-5.259368896484375,0.8726348876953125,Opening,0.0,0.0,0.0,0.0,0.0,0.0,0.0,0.0,
2.9710819999999987,0.0,0.0,26399.0,0.125,-945.0,-602.3512181292037,0.0,0.125,0.825195228,4.187938973316758,0.0,-25052.0,1.125,885.0,602.3512181292037,0.0,0.0,0.521240181,4.21470153031152,0.009765623999999917,20921.0,3.125,-780.0,-602.3512181292037,0.0,0.125,3.3728023890000003,4.19485823081066,0.0,-10279.0,1.25,870.0,602.3512181292037,0.0,0.25,1.596679524,4.209802264666678,-0.004882811999999959,-0.5600000023841858,-2.7799999713897705,0.5899999737739563,-0.0269775390625,0.06219482421875,0.694580078125,36.290000915527344,0.0,7.0,-5.265960693359375,0.8727874755859375,Opening,0.0,0.0,0.0,0.0,0.0,0.0,0.0,0.0,
2.9984259999999994,0.0,0.0,26261.0,0.125,-900.0,-872.6401683893213,0.0,0.125,0.797119059,3.980498179782666,0.0,-25052.0,0.875,862.5,872.6401683893213,0.0,6.5,0.520019478,4.00593510951892,0.0,20792.0,3.625,-802.5,-872.6401683893213,0.0,4.25,3.3251949720000002,3.9870747063355623,0.0,-10279.0,1.875,787.5,872.6401683893213,0.0,2.125,1.6064451480000002,4.001278518745793,0.0,-0.5400000214576721,-2.809999942779541,0.7300000190734863,-0.0299072265625,-0.02001953125,1.1795654296875,36.290000915527344,0.0,27.0,-5.272491455078125,0.8730010986328125,Opening,0.0,0.0,0.0,0.0,0.0,0.0,0.0,0.0,
3.0418839999999983,0.0,0.0,26261.0,0.625,-855.0,-975.5404998468485,0.0,5.75,0.577392519,3.884553317457173,0.0,-25052.0,1.5,855.0,975.5404998468485,0.0,9.25,0.28442379900000003,3.90937712224994,0.0,20792.0,4.375,-795.0,-975.5404998468485,0.0,5.625,3.077392263,3.8909713251749385,0.0,-10279.0,3.0,757.5,975.5404998468485,0.0,6.75,1.413574074,3.904832772693981,0.0,-0.47999998927116394,-2.6700000762939453,0.9700000286102295,0.03277587890625,0.06268310546875,0.78692626953125,36.290000915527344,0.0,70.0,-5.2819671630859375,0.87396240234375,Opening,0.0,0.0,0.0,0.0,0.0,0.0,0.0,0.0,
3.075851999999999,0.0,0.0,26261.0,0.625,-870.0,-1058.300011748773,0.0,6.25,0.3662109,3.810856269082557,-0.23315427300000025,-24896.0,1.75,892.5,1058.300011748773,0.0,3.875,0.081787101,3.835209121105946,-0.24780270900000012,20792.0,6.5,-765.0,-1058.300011748773,0.0,2.5,2.872314159,3.817152515509747,-0.23925778799999975,-10144.0,3.125,802.5,1058.300011748773,0.0,6.375,1.181640504,3.830750986134184,-0.1916503710000006,-0.15000000596046448,-2.640000104904175,1.1200000047683716,0.08624267578125,0.4437255859375,1.183349609375,36.290000915527344,0.0,149.0,-5.287841796875,0.8755645751953125,Opening,0.0,0.0,0.0,0.0,0.0,0.0,0.0,0.0,
3.111904999999999,0.0,0.0,26261.0,1.375,-960.0,-1132.03125,0.0,1.5,0.102539052,3.7149440514789074,-0.2746581749999999,-24896.0,2.375,990.0,1132.03125,0.0,1.125,4.791259275,3.7386839871712643,2.9931637560000004,20673.0,8.0,-750.0,-1132.03125,0.0,1.375,2.6330563710000003,3.7210818330061453,-0.2587890359999996,-10144.0,3.0,990.0,1132.03125,0.0,1.5,0.9362792010000001,3.7343380552272016,-0.27587887799999944,0.4399999976158142,-2.1600000858306885,1.1200000047683716,0.23004150390625,0.3153076171875,1.05645751953125,36.290000915527344,0.0,275.0,-5.292755126953125,0.8793792724609375,Opening,0.0,0.0,0.0,0.0,0.0,0.0,0.0,0.0,
3.1408970000000007,0.0,0.0,26109.0,3.25,-952.5,-1246.875,0.0,0.75,4.803466305000001,3.714533030954221,0.0,-24896.0,3.125,1035.0,1246.875,0.0,0.5,4.5483393780000005,3.7382703400657493,0.0,20673.0,12.0,-727.5,-1246.875,0.0,1.0,2.403564207,3.720670133398773,0.0,-10144.0,3.75,1080.0,1246.875,0.0,1.0,0.6713866500000001,3.7339248889545615,0.0,1.1699999570846558,-1.3300000429153442,0.8700000047683716,0.53802490234375,0.37579345703125,1.2010498046875,36.290000915527344,0.0,571.0,-5.295989990234375,0.8889312744140625,Opening,0.0,0.0,0.0,0.0,0.0,0.0,0.0,0.0,
3.1754500000000005,0.0,0.0,26109.0,4.125,-877.5,-1345.3125,0.0,0.375,4.641112806000001,3.711107856648665,-0.25451710399999916,-24896.0,3.5,1027.5,1345.3125,0.0,0.25,4.411620642,3.734823277565749,-0.24536130300000014,20673.0,15.125,-690.0,-1345.3125,0.0,0.75,2.283935313,3.71723930006544,-0.22338864900000033,-9994.0,4.75,1035.0,1345.3125,0.0,1.0,0.544433538,3.730481833399006,-0.2563476300000005,1.3899999856948853,-0.9300000071525574,0.7400000095367432,0.54547119140625,0.22894287109375,1.509521484375,36.290000915527344,0.0,572.0,-5.2955474853515625,0.89306640625,Opening,0.0,0.0,0.0,0.0,0.0,0.0,0.0,0.0,
3.210642,0.0,0.0,26109.0,6.625,-720.0,-1394.53125,0.0,0.125,4.523925318,3.707408668659985,0.0,-24740.0,5.125,982.5,1394.53125,0.0,0.0,4.289550342,3.7311004503287393,0.0,20673.0,17.625,-600.0,-1394.53125,0.0,0.25,2.177734152,3.7135340003271913,0.0,-9994.0,7.5,847.5,1394.53125,0.0,0.5,0.430908159,3.7267633336616903,0.0,1.5399999618530273,0.3400000035762787,0.3700000047683716,0.43145751953125,0.29705810546875,0.7210693359375,36.290000915527344,0.0,428.0,-5.28985595703125,0.90655517578125,Opening,0.0,0.0,0.0,0.0,0.0,0.0,0.0,0.0,
3.237052,0.0,0.0,26109.0,8.375,-690.0,-1427.34375,0.0,0.25,4.5056147730000005,3.704257508037554,0.0,-24740.0,5.75,975.0,1427.34375,0.0,0.25,4.256591361,3.727929152565749,0.0,20586.0,21.25,-547.5,-1427.34375,0.0,0.125,2.147216577,3.710377633398773,0.0,-9994.0,8.875,780.0,1427.34375,0.0,0.5,0.40039058400000005,3.723595722287895,0.0,1.840000033378601,0.5600000023841858,0.3199999928474426,0.18780517578125,0.1824951171875,1.33795166015625,36.290000915527344,0.0,175.0,-5.2837066650390625,0.9172515869140625,Opening,0.0,0.0,0.0,0.0,0.0,0.0,0.0,0.0,
3.275131999999998,0.0,0.0,25997.0,10.625,-735.0,-1427.34375,0.0,0.125,4.5031733670000005,3.703846487104555,-0.014648435999999876,-24740.0,7.375,997.5,1427.34375,0.0,0.25,4.232177301,3.727515505049312,-0.037841793000000123,20586.0,24.5,-577.5,-1427.34375,0.0,0.125,2.143554468,3.7099659333824135,-0.02929687200000064,-9994.0,11.375,757.5,1427.34375,0.0,0.25,0.385742148,3.7231825556048106,-0.034179684000000154,2.0799999237060547,0.7799999713897705,0.36000001430511475,0.2276611328125,0.4019775390625,0.93609619140625,36.290000915527344,0.0,217.0,-5.2767181396484375,0.9291229248046875,Opening,0.0,0.0,0.0,0.0,0.0,0.0,0.0,0.0,
3.311339,0.0,0.0,25997.0,10.75,-825.0,-1427.34375,0.0,0.125,4.50439407,3.704257508037554,0.0012207029999995456,-24571.0,8.5,1020.0,1427.34375,0.0,0.125,4.230956598000001,3.727929152565749,-0.01586913899999942,20586.0,26.0,-750.0,-1427.34375,0.0,0.125,2.144775171,3.710377633398773,0.0,-9859.0,12.0,802.5,1427.34375,0.0,0.125,0.31738278000000003,3.723595722287895,0.0,2.440000057220459,0.6000000238418579,0.41999998688697815,0.1153564453125,0.15338134765625,0.8055419921875,36.290000915527344,0.0,107.0,-5.26593017578125,0.9491729736328125,Opening,0.0,0.0,0.0,0.0,0.0,0.0,0.0,0.0,
3.3459789999999994,0.0,0.0,25997.0,10.75,-877.5,-1427.34375,0.0,0.125,4.50439407,3.7049425426536775,0.0,-24571.0,8.25,1027.5,1427.34375,0.0,0.125,4.230956598000001,3.728618564819196,0.0,20428.0,24.375,-952.5,-1427.34375,0.0,0.125,2.143554468,3.7110637998200473,0.0,-9859.0,11.5,915.0,1427.34375,0.0,0.25,0.30395504700000003,3.7242843331527395,0.0,2.569999933242798,0.36000001430511475,0.38999998569488525,-0.1309814453125,0.3321533203125,1.38507080078125,36.290000915527344,0.0,-137.0,-5.258514404296875,0.96343994140625,Opening,0.0,0.0,0.0,0.0,0.0,0.0,0.0,0.0,
3.3773549999999997,0.0,0.0,25827.0,10.0,-1020.0,-1427.34375,0.0,0.125,4.50439407,3.7045315217206785,0.0,-24571.0,8.625,1065.0,1427.34375,0.0,0.0,4.230956598000001,3.728204917302759,0.0,20428.0,22.0,-1035.0,-1427.34375,0.0,0.125,2.143554468,3.710652099803688,0.0,-9859.0,11.375,975.0,1427.34375,0.0,0.25,0.308837859,3.723871166469655,-0.010986326999999463,2.890000104904175,0.5,0.4300000071525574,0.116455078125,0.19976806640625,0.3250732421875,36.290000915527344,0.0,114.0,-5.2512359619140625,0.97918701171875,Opening,0.0,0.0,0.0,0.0,0.0,0.0,0.0,0.0,
3.4122429999999984,0.0,0.0,25827.0,9.375,-1140.0,-1427.34375,0.0,0.125,4.50439407,3.705764584519676,0.0012207029999995456,-24571.0,8.625,1110.0,1427.34375,0.0,0.0,4.230956598000001,3.7294458598520697,0.0,20428.0,18.875,-1185.0,-1427.34375,0.0,0.125,2.141113062,3.7118871998527663,0.0,-9665.0,10.375,1110.0,1427.34375,0.0,0.25,0.325927701,3.7251106665189084,0.009765623999999917,3.3499999046325684,0.20000000298023224,0.7099999785423279,-0.12396240234375,0.039306640625,1.6905517578125,36.290000915527344,0.0,-130.0,-5.240020751953125,1.004608154296875,Opening,0.0,0.0,0.0,0.0,0.0,0.0,0.0,0.0,
3.446597999999998,0.0,0.0,25827.0,8.75,-1215.0,-1427.34375,0.0,0.125,4.5031733670000005,3.7089157447337944,0.0,-24373.0,8.125,1215.0,1427.34375,0.0,0.0,4.230956598000001,3.732617157204138,0.0,20209.0,16.75,-1312.5,-1427.34375,0.0,0.125,2.145995874,3.7150435663721977,0.0,-9665.0,9.375,1237.5,1427.34375,0.0,0.25,0.34179684,3.7282782774822594,0.0,3.549999952316284,0.5600000023841858,1.0299999713897705,0.46417236328125,0.22906494140625,0.5794677734375,36.290000915527344,0.0,461.0,-5.232757568359375,1.02166748046875,Opening,0.0,0.0,0.0,0.0,0.0,0.0,0.0,0.0,
3.4871270000000005,0.0,0.0,25620.0,8.25,-1245.0,-1427.34375,0.0,0.125,4.510497585,3.714807044637345,0.0012207029999995456,-24373.0,7.625,1290.0,1427.34375,0.0,0.0,4.216308162,3.7385461048027593,0.0,20209.0,15.375,-1357.5,-1427.34375,0.0,0.125,2.144775171,3.720944599803688,0.0,-9665.0,7.875,1350.0,1427.34375,0.0,0.25,0.357665979,3.7342003331363216,0.0,3.690000057220459,0.20000000298023224,1.4600000381469727,-0.07147216796875,0.257080078125,0.93463134765625,36.290000915527344,0.0,-69.0,-5.22174072265625,1.047607421875,Opening,0.0,0.0,0.0,0.0,0.0,0.0,0.0,0.0,
3.5198819999999977,0.0,0.0,25620.0,7.625,-1312.5,-1427.34375,0.0,0.125,4.5031733670000005,3.7191912684670863,0.0,-24373.0,6.875,1312.5,1427.34375,0.0,0.125,4.196776914,3.7429583455259814,-0.014648436000000764,20209.0,13.625,-1387.5,-1427.34375,0.0,0.0,2.143554468,3.725336067190172,0.0,-9665.0,7.25,1402.5,1427.34375,0.0,0.25,0.367431603,3.738607444969815,0.009765623999999917,3.759999990463257,0.23999999463558197,1.6799999475479126,-0.09783935546875,0.24530029296875,1.46343994140625,36.290000915527344,0.0,-99.0,-5.215087890625,1.06524658203125,Opening,0.0,0.0,0.0,0.0,0.0,0.0,0.0,0.0,
3.5506620000000004,0.0,0.0,25620.0,7.5,-1350.0,-1427.34375,0.0,0.125,4.50439407,3.722205420614705,0.0,-24145.0,5.75,1380.0,1427.34375,0.0,0.125,4.197997617,3.7459917592767793,0.0,20209.0,13.375,-1357.5,-1427.34375,0.0,0.0,2.143554468,3.7283551992801844,0.0,-9427.0,6.25,1477.5,1427.34375,0.0,0.25,0.37597652400000003,3.741637332610953,0.0,3.7799999713897705,0.1899999976158142,1.9199999570846558,0.05999755859375,0.15399169921875,0.90069580078125,36.290000915527344,0.0,60.0,-5.208526611328125,1.08319091796875,Opening,0.0,0.0,0.0,0.0,0.0,0.0,0.0,0.0,
3.583630999999998,0.0,0.0,25620.0,6.25,-1432.5,-1427.34375,0.0,0.25,4.50439407,3.7254935880786983,-0.0012207029999995456,-24145.0,5.0,1455.0,1427.34375,0.0,0.25,4.207763241,3.749300939408274,0.0,20007.0,14.0,-1267.5,-1427.34375,0.0,0.0,2.143554468,3.7316487994110603,0.0,-9427.0,5.0,1522.5,1427.34375,0.0,0.25,0.380859336,3.7449426660756284,0.0,3.9100000858306885,0.07000000029802322,2.25,-0.12652587890625,0.1539306640625,1.484375,36.290000915527344,0.0,-126.0,-5.197845458984375,1.1107940673828125,Opening,0.0,0.0,0.0,0.0,0.0,0.0,0.0,0.0,
3.6238019999999995,0.0,0.0,25382.0,5.75,-1470.0,-1427.34375,0.0,0.25,4.5031733670000005,3.7300148187500017,0.0,-24145.0,4.375,1492.5,1427.34375,0.0,0.25,4.217528865,3.7538510625000017,0.008544920999999484,20007.0,14.875,-1282.5,-1427.34375,0.0,0.0,2.144775171,3.736177500000002,0.0,-9427.0,4.5,1545.0,1427.34375,0.0,0.25,0.385742148,3.7494875000000016,0.004882811999999959,4.099999904632568,0.18000000715255737,2.440000057220459,0.04498291015625,0.03289794921875,0.88580322265625,36.290000915527344,0.0,40.0,-5.1905059814453125,1.1294403076171875,Opening,0.0,0.0,0.0,0.0,0.0,0.0,0.0,0.0,
3.652524999999998,0.0,0.0,25382.0,4.75,-1530.0,-1427.34375,0.0,0.25,4.50439407,3.732617952006184,0.0,-24145.0,3.5,1537.5,1427.34375,0.0,0.25,4.237060113,3.7564708307889716,0.0,20007.0,14.625,-1372.5,-1427.34375,0.0,0.0,2.143554468,3.7387849341185904,0.0,-9164.0,3.75,1612.5,1427.34375,0.0,0.25,0.38208003900000004,3.7521042230102766,0.0,4.03000020980835,0.09000000357627869,2.6600000858306885,-0.01434326171875,0.1339111328125,1.048095703125,36.290000915527344,0.0,-13.0,-5.183258056640625,1.1480255126953125,Opening,0.0,0.0,0.0,0.0,0.0,0.0,0.0,0.0,
3.688399999999998,0.0,0.0,25382.0,4.0,-1582.5,-1427.34375,0.0,0.25,4.5056147730000005,3.735632105787053,0.0,-23896.0,3.25,1560.0,1427.34375,0.0,0.25,4.2382808160000005,3.7595042461834565,0.0,20007.0,12.875,-1567.5,-1427.34375,0.0,0.0,2.143554468,3.7418040678445514,0.0,-9164.0,3.625,1642.5,1427.34375,0.0,0.25,0.39062496,3.755134112293192,0.0,4.170000076293945,0.0,2.8299999237060547,0.0264892578125,-0.08489990234375,1.138671875,36.290000915527344,0.0,18.0,-5.176177978515625,1.1666259765625,Opening,0.0,0.0,0.0,0.0,0.0,0.0,0.0,0.0,
3.725434999999998,0.0,0.0,25120.0,3.875,-1597.5,-1427.34375,0.0,0.25,4.50439407,3.739331293775733,-0.0012207029999995456,-23896.0,3.0,1560.0,1427.34375,0.0,0.25,4.245605034,3.7632270734204667,0.0,19767.0,11.75,-1567.5,-1427.34375,0.0,0.0,2.142333765,3.7455093675827995,-0.0012207030000004337,-9164.0,2.625,1672.5,1427.34375,0.0,0.25,0.417480426,3.7588526120305077,0.009765624000000361,4.019999980926514,-0.019999999552965164,3.0999999046325684,0.023193359375,-0.02484130859375,0.6983642578125,36.290000915527344,0.0,19.0,-5.1655731201171875,1.1939849853515625,Opening,0.0,0.0,0.0,0.0,0.0,0.0,0.0,0.0,
3.752440999999999,0.0,0.0,25120.0,2.875,-1635.0,-1427.34375,0.0,0.25,4.509276882,3.7416604100822903,0.0,-23896.0,2.375,1560.0,1427.34375,0.0,0.125,4.245605034,3.765571073685052,0.0,19767.0,11.625,-1372.5,-1427.34375,0.0,0.0,2.143554468,3.747842332024576,0.0,-9164.0,1.625,1687.5,1427.34375,0.0,0.125,0.418701129,3.761193887575469,0.0,3.930000066757202,-0.14000000059604645,3.259999990463257,0.12799072265625,0.17132568359375,1.02447509765625,36.290000915527344,0.0,136.0,-5.158538818359375,1.2118682861328125,Opening,0.0,0.0,0.0,0.0,0.0,0.0,0.0,0.0,
3.789952999999998,0.0,0.0,25120.0,2.25,-1650.0,-1427.34375,0.0,0.25,4.515380397,3.743852522813786,0.003662109000000413,-23896.0,2.25,1567.5,1427.34375,0.0,0.125,4.251708549,3.767777194868507,0.0,19767.0,13.75,-1230.0,-1427.34375,0.0,0.0,2.138671656,3.7500380665357924,0.0,-8893.0,1.5,1695.0,1427.34375,0.0,0.125,0.380859336,3.763397444313104,0.0,4.019999980926514,-0.11999999731779099,3.4000000953674316,0.02374267578125,0.09075927734375,1.2725830078125,36.290000915527344,0.0,26.0,-5.1516265869140625,1.2299957275390625,Opening,0.0,0.0,0.0,0.0,0.0,0.0,0.0,0.0,
3.8249209999999985,0.0,0.0,25120.0,1.625,-1665.0,-1427.34375,0.0,0.25,4.525146021,3.7457706218621576,0.009765623999999917,-23639.0,1.75,1597.5,1427.34375,0.0,0.25,4.256591361,3.7697075513149514,0.004882811999999959,19544.0,14.625,-1260.0,-1427.34375,0.0,0.0,2.144775171,3.7519593346420943,0.0,-8893.0,1.25,1695.0,1427.34375,0.0,0.125,0.399169881,3.7653255568689787,-0.035400387000000144,3.869999885559082,-0.33000001311302185,3.680000066757202,-0.0986328125,0.04754638671875,1.345458984375,36.290000915527344,0.0,-93.0,-5.14202880859375,1.2562713623046875,Opening,0.0,0.0,0.0,0.0,0.0,0.0,0.0,0.0,
3.8621470000000007,0.0,0.0,24851.0,1.25,-1680.0,-1509.0207767857178,0.0,0.25,4.527587427,3.694642605345704,0.0,-23639.0,2.0,1590.0,1521.156563595808,0.0,0.25,4.237060113,3.8227896941585047,0.0,19544.0,13.875,-1492.5,-1339.834391019098,0.0,0.0,2.141113062,3.700171891845196,0.0,-8893.0,0.875,1657.5,1353.4880056938641,0.0,0.375,0.44189448600000003,3.8307942475599153,0.0,3.6600000858306885,-0.4000000059604645,3.9000000953674316,-0.01031494140625,-0.1424560546875,0.98583984375,36.290000915527344,0.0,-17.0,-5.1362762451171875,1.272857666015625,Opening,0.0,0.0,0.0,0.0,0.0,0.0,0.0,0.0,
3.8993629999999975,0.0,0.0,24851.0,1.25,-1687.5,-1574.0396182686727,0.0,0.25,4.527587427,3.660006796406872,0.0,-23639.0,1.875,1567.5,1595.555062412768,0.0,0.25,4.26025347,3.8585133752376106,0.0,19544.0,10.0,-1710.0,-1278.4119443472098,0.0,0.125,2.144775171,3.6569679176118277,0.0,-8631.0,0.75,1627.5,1304.8112264849792,0.0,0.375,0.449218704,3.8846382765122422,0.0,3.4700000286102295,-0.5400000214576721,4.119999885559082,-0.036376953125,0.0487060546875,0.9771728515625,36.279998779296875,0.0,-27.0,-5.1309356689453125,1.2883453369140625,Opening,0.0,0.0,0.0,0.0,0.0,0.0,0.0,0.0,
