Time,ClimberA1,ClimberA2,FRpos,FRCurrent,FRspeed,FRsetpoint,FRApos,FRACurrent,FREncpos,FREncSetpoint,FREncSpeed,FLpos,FLCurrent,FLspeed,FLsetpoint,FLApos,FLACurrent,FLEncpos,FLEncSetpoint,FLEncSpeed,BRpos,BRCurrent,BRspeed,BRsetpoint,BRApos,BRACurrent,BREncpos,BREncSetpoint,BREncSpeed,BLpos,BLCurrent,BLspeed,BLsetpoint,BLApos,BLACurrent,BLEncpos,BLEncSetpoint,BLEncSpeed,navx_Pitch,navx_Roll,navx_Yaw,navx_XAcc,navx_YAcc,navx_ZAcc,navx_Temp,navx_Bar,navx_Alt,navx_XDis,navx_YDis,GearPlacerState,ShootOutputV,ShootOutputCurrent,ShootEncPos,ShootEncVelocity,ShootSpeed,ShootSetpoint,CarouselSetpoint,CarouselCurrent,
0.1802850000000035,0.0,0.0,91236.0,0.0,0.0,0.0,0.0,0.25,0.8435057730000001,0.01,0.0,-84483.0,0.0,0.0,-0.0,0.0,0.0,0.5554198650000001,0.01,0.0,95257.0,0.0,0.0,0.0,0.0,0.125,3.382568013,0.01,0.0,-84345.0,0.0,0.0,-0.0,0.0,0.25,1.6357420200000001,0.01,0.0,-0.4399999976158142,-0.800000011920929,0.0,-0.0118408203125,-0.01092529296875,1.02056884765625,33.2599983215332,0.0,2.0,0.483978271484375,-1.5935211181640625,Waiting,0.0,0.0,22.0,0.0,0.0,0.0,0.0,0.0,
0.2308729999999923,0.0,0.0,91236.0,0.0,0.0,0.0,0.0,0.125,0.833740149,0.01,-0.08056639799999998,-84483.0,0.0,0.0,-0.0,0.0,0.25,0.535888617,0.01,-0.07080077400000029,95257.0,0.0,0.0,0.0,0.0,0.125,3.3728023890000003,0.01,-0.08544921000000016,-84344.0,0.0,0.0,-0.0,0.0,0.125,1.616210772,0.01,4.86034376,-0.4300000071525574,-0.8100000023841858,-0.009999999776482582,-0.0203857421875,-0.0072021484375,1.015869140625,33.2599983215332,0.0,-5.0,0.483978271484375,-1.5935211181640625,Waiting,0.0,0.0,22.0,0.0,0.0,0.0,0.0,0.0,
0.2849310000000114,0.0,0.0,91236.0,0.0,0.0,0.0,0.0,0.125,0.837402258,0.01,-0.008544921000000039,-84483.0,0.0,0.0,-0.0,0.0,0.125,0.535888617,0.01,-0.01586913900000031,95257.0,0.0,0.0,0.0,0.0,0.0,3.3715816860000003,0.01,-0.007324217999999938,-84344.0,0.0,0.0,-0.0,0.0,0.125,1.616210772,0.01,-0.014648435999999876,-0.44999998807907104,-0.8199999928474426,-0.009999999776482582,-0.018310546875,-0.00750732421875,1.0308837890625,33.2599983215332,0.0,-3.0,0.483978271484375,-1.5935211181640625,Waiting,0.0,0.0,22.0,0.0,0.0,0.0,0.0,0.0,
0.3186840000000084,0.0,0.0,91236.0,0.0,0.0,0.0,0.0,0.125,0.838622961,0.01,0.003662108999999969,-84483.0,0.0,0.0,-0.0,0.0,0.125,0.535888617,0.01,0.0,95257.0,0.0,0.0,0.0,0.0,0.0,3.3728023890000003,0.01,0.0,-84344.0,0.0,0.0,-0.0,0.0,0.125,1.614990069,0.01,0.0,-0.4399999976158142,-0.8199999928474426,0.0,-0.00628662109375,-0.006591796875,1.0128173828125,33.2599983215332,0.0,8.0,0.483978271484375,-1.5935211181640625,Waiting,0.0,0.0,22.0,0.0,0.0,0.0,0.0,0.0,
0.36470800000001324,0.0,0.0,91236.0,0.0,0.0,0.0,0.0,0.125,0.838622961,0.01,0.0,-84483.0,0.0,0.0,-0.0,0.0,0.125,0.535888617,0.01,0.0,95257.0,0.0,0.0,0.0,0.0,0.0,3.3728023890000003,0.01,0.0,-84344.0,0.0,0.0,-0.0,0.0,0.125,1.616210772,0.01,0.0,-0.4300000071525574,-0.800000011920929,0.0,-0.0103759765625,-0.01031494140625,1.02178955078125,33.2599983215332,0.0,4.0,0.483978271484375,-1.5935211181640625,Waiting,0.0,0.0,22.0,0.0,0.0,0.0,0.0,0.0,
0.4062730000000156,0.0,0.0,91236.0,0.0,0.0,0.0,0.0,0.125,0.838622961,0.01,0.0,-84483.0,0.0,0.0,-0.0,0.0,0.125,0.535888617,0.01,0.0,95257.0,0.0,0.0,0.0,0.0,0.0,3.3728023890000003,0.01,0.0,-84344.0,0.0,0.0,-0.0,0.0,0.125,1.614990069,0.01,0.0,-0.4399999976158142,-0.800000011920929,0.0,-0.0223388671875,-0.01104736328125,1.0244140625,33.2599983215332,0.0,-7.0,0.483978271484375,-1.5935211181640625,Waiting,0.0,0.0,22.0,0.0,0.0,0.0,0.0,0.0,
0.44706599999999164,0.0,0.0,91236.0,0.0,0.0,0.0,0.0,0.125,0.838622961,0.01,0.0,-84483.0,0.0,0.0,-0.0,0.0,0.125,0.535888617,0.01,0.0,95257.0,0.0,0.0,0.0,0.0,0.0,3.3715816860000003,0.01,0.0,-84344.0,0.0,0.0,-0.0,0.0,0.125,1.616210772,0.01,0.0,-0.4399999976158142,-0.8100000023841858,0.0,-0.020751953125,-0.0050048828125,1.022216796875,33.2599983215332,0.0,-6.0,0.483978271484375,-1.5935211181640625,Waiting,0.0,0.0,22.0,0.0,0.0,0.0,0.0,0.0,
0.4881989999999932,0.0,0.0,91236.0,0.0,0.0,0.0,0.0,0.125,0.838622961,0.01,0.0,-84483.0,0.0,0.0,-0.0,0.0,0.125,0.534667914,0.01,0.0,95257.0,0.0,0.0,0.0,0.0,0.0,3.3715816860000003,0.01,0.0,-84344.0,0.0,0.0,-0.0,0.0,0.125,1.616210772,0.01,0.0,-0.4300000071525574,-0.8100000023841858,0.0,-0.0137939453125,-0.00628662109375,1.02044677734375,33.2599983215332,0.0,0.0,0.483978271484375,-1.5935211181640625,Waiting,0.0,0.0,22.0,0.0,0.0,0.0,0.0,0.0,
0.5292719999999972,0.0,0.0,91236.0,0.0,0.0,0.0,0.0,0.125,0.838622961,0.01,0.0,-84483.0,0.0,0.0,-0.0,0.0,0.125,0.535888617,0.01,0.0,95257.0,0.0,0.0,0.0,0.0,0.0,3.3728023890000003,0.01,0.0,-84344.0,0.0,0.0,-0.0,0.0,0.125,1.616210772,0.01,0.0,-0.4300000071525574,-0.800000011920929,0.0,-0.01153564453125,-0.00775146484375,1.01953125,33.2599983215332,0.0,2.0,0.483978271484375,-1.5935211181640625,Waiting,0.0,0.0,22.0,0.0,0.0,0.0,0.0,0.0,
0.5670819999999949,0.0,0.0,91236.0,0.0,0.0,0.0,0.0,0.125,0.838622961,0.01,0.0,-84483.0,0.0,0.0,-0.0,0.0,0.125,0.535888617,0.01,0.0,95257.0,0.0,0.0,0.0,0.0,0.0,3.3728023890000003,0.01,0.0012207029999999897,-84344.0,0.0,0.0,-0.0,0.0,0.125,1.616210772,0.01,0.0,-0.4300000071525574,-0.800000011920929,0.0,-0.0133056640625,-0.007568359375,1.0220947265625,33.2599983215332,0.0,1.0,0.483978271484375,-1.5935211181640625,Waiting,0.0,0.0,22.0,0.0,0.0,0.0,0.0,0.0,
0.6089880000000121,0.0,0.0,91236.0,0.0,0.0,0.0,0.0,0.125,0.838622961,0.01,0.0,-84483.0,0.0,0.0,-0.0,0.0,0.125,0.535888617,0.01,0.0,95257.0,0.0,0.0,0.0,0.0,0.0,3.3728023890000003,0.01,0.0,-84344.0,0.0,0.0,-0.0,0.0,0.125,1.614990069,0.01,0.0,-0.4300000071525574,-0.8100000023841858,0.0,-0.0140380859375,-0.00628662109375,1.017822265625,33.2599983215332,0.0,0.0,0.483978271484375,-1.5935211181640625,Waiting,0.0,0.0,22.0,0.0,0.0,0.0,0.0,0.0,
0.6493110000000161,0.0,0.0,91236.0,0.0,0.0,0.0,0.0,0.125,0.838622961,0.01,0.0,-84483.0,0.0,0.0,-0.0,0.0,0.0,0.535888617,0.01,0.0,95257.0,0.0,0.0,0.0,0.0,0.0,3.3728023890000003,0.01,-0.0012207029999999897,-84344.0,0.0,0.0,-0.0,0.0,0.125,1.616210772,0.01,0.0,-0.4300000071525574,-0.8100000023841858,0.0,-0.01214599609375,-0.00732421875,1.0203857421875,33.2599983215332,0.0,2.0,0.483978271484375,-1.5935211181640625,Waiting,0.0,0.0,22.0,0.0,0.0,0.0,0.0,0.0,
0.689752999999997,0.0,0.0,91236.0,0.0,0.0,0.0,0.0,0.125,0.838622961,0.01,0.0,-84483.0,0.0,0.0,-0.0,0.0,0.125,0.535888617,0.01,0.0,95257.0,0.0,0.0,0.0,0.0,0.0,3.3728023890000003,0.01,-0.0012207029999999897,-84344.0,0.0,0.0,-0.0,0.0,0.125,1.616210772,0.01,0.0,-0.4300000071525574,-0.8100000023841858,0.0,-0.01287841796875,-0.00933837890625,1.016357421875,33.2599983215332,0.0,1.0,0.483978271484375,-1.5935211181640625,Waiting,0.0,0.0,22.0,0.0,0.0,0.0,0.0,0.0,
0.7298190000000176,0.0,0.0,91236.0,0.0,0.0,0.0,0.0,0.125,0.838622961,0.01,0.0,-84483.0,0.0,0.0,-0.0,0.0,0.125,0.534667914,0.01,0.0,95257.0,0.0,0.0,0.0,0.0,0.0,3.3728023890000003,0.01,0.0,-84344.0,0.0,0.0,-0.0,0.0,0.125,1.616210772,0.01,0.0,-0.4300000071525574,-0.8100000023841858,0.0,-0.01885986328125,-0.00970458984375,1.02069091796875,33.2599983215332,0.0,-4.0,0.483978271484375,-1.5935211181640625,Waiting,0.0,0.0,22.0,0.0,0.0,0.0,0.0,0.0,
0.7677780000000203,0.0,0.0,91236.0,0.0,0.0,0.0,0.0,0.125,0.838622961,0.01,0.0,-84483.0,0.0,0.0,-0.0,0.0,0.125,0.535888617,0.01,0.0,95257.0,0.0,0.0,0.0,0.0,0.0,3.3728023890000003,0.01,0.0012207029999999897,-84344.0,0.0,0.0,-0.0,0.0,0.125,1.616210772,0.01,0.0,-0.4399999976158142,-0.8199999928474426,0.0,-0.01446533203125,-0.0103759765625,1.02496337890625,33.2599983215332,0.0,0.0,0.483978271484375,-1.5935211181640625,Waiting,0.0,0.0,22.0,0.0,0.0,0.0,0.0,0.0,
0.8098600000000151,0.0,0.0,91236.0,0.0,0.0,0.0,0.0,0.125,0.838622961,0.01,0.0,-84483.0,0.0,0.0,-0.0,0.0,0.125,0.535888617,0.01,0.0,95257.0,0.0,0.0,0.0,0.0,0.0,3.3728023890000003,0.01,0.0,-84344.0,0.0,0.0,-0.0,0.0,0.125,1.614990069,0.01,0.0,-0.4399999976158142,-0.8199999928474426,0.0,-0.01239013671875,-0.00726318359375,1.0255126953125,33.2599983215332,0.0,2.0,0.483978271484375,-1.5935211181640625,Waiting,0.0,0.0,22.0,0.0,0.0,0.0,0.0,0.0,
0.8504040000000096,0.0,0.0,91236.0,0.0,0.0,0.0,0.0,0.125,0.837402258,0.01,0.0,-84483.0,0.0,0.0,-0.0,0.0,0.125,0.534667914,0.01,0.0,95257.0,0.0,0.0,0.0,0.0,0.0,3.3728023890000003,0.01,-0.0012207029999999897,-84344.0,0.0,0.0,-0.0,0.0,0.125,1.616210772,0.01,0.0,-0.4300000071525574,-0.8100000023841858,0.0,-0.01507568359375,-0.00714111328125,1.02545166015625,33.2599983215332,0.0,0.0,0.483978271484375,-1.5935211181640625,Waiting,0.0,0.0,22.0,0.0,0.0,0.0,0.0,0.0,
0.8918630000000121,0.0,0.0,91236.0,0.0,0.0,0.0,0.0,0.125,0.838622961,0.01,0.0,-84483.0,0.0,0.0,-0.0,0.0,0.125,0.535888617,0.01,0.0,95257.0,0.0,0.0,0.0,0.0,0.0,3.3728023890000003,0.01,-0.0012207029999999897,-84344.0,0.0,0.0,-0.0,0.0,0.125,1.614990069,0.01,0.0,-0.4300000071525574,-0.8100000023841858,0.0,-0.01513671875,-0.00921630859375,1.02099609375,33.2599983215332,0.0,0.0,0.483978271484375,-1.5935211181640625,Waiting,0.0,0.0,22.0,0.0,0.0,0.0,0.0,0.0,
0.9328999999999942,0.0,0.0,91236.0,0.0,0.0,0.0,0.0,0.125,0.838622961,0.01,0.0,-84483.0,0.0,0.0,-0.0,0.0,0.125,0.535888617,0.01,0.0,95257.0,0.0,0.0,0.0,0.0,0.0,3.3740230920000003,0.01,0.0012207029999999897,-84344.0,0.0,0.0,-0.0,0.0,0.125,1.614990069,0.01,0.0,-0.4399999976158142,-0.8199999928474426,0.0,-0.01324462890625,-0.00616455078125,1.0174560546875,33.2599983215332,0.0,1.0,0.483978271484375,-1.5935211181640625,Waiting,0.0,0.0,22.0,0.0,0.0,0.0,0.0,0.0,
0.9716440000000003,0.0,0.0,91236.0,0.0,0.0,0.0,0.0,0.125,0.838622961,0.01,0.0,-84483.0,0.0,0.0,-0.0,0.0,0.125,0.534667914,0.01,0.0,95257.0,0.0,0.0,0.0,0.0,0.0,3.3728023890000003,0.01,0.0,-84344.0,0.0,0.0,-0.0,0.0,0.125,1.614990069,0.01,0.0,-0.4399999976158142,-0.8100000023841858,0.0,-0.01287841796875,-0.00738525390625,1.02215576171875,33.2599983215332,0.0,1.0,0.483978271484375,-1.5935211181640625,Waiting,0.0,0.0,22.0,0.0,0.0,0.0,0.0,0.0,
1.0131119999999938,0.0,0.0,91236.0,0.0,0.0,-248.03150296211243,0.0,0.25,0.838622961,4.932250999999998,0.0,-84483.0,0.0,0.0,248.03150296211243,0.0,0.25,0.534667914,4.963769999999998,0.0,95257.0,0.125,0.0,-248.03150296211243,0.0,0.0,3.3728023890000003,0.01,0.0,-84344.0,0.125,0.0,248.03150296211243,0.0,0.125,1.621093584,0.01,0.0,-0.4399999976158142,-0.8100000023841858,0.0,-0.0137939453125,-0.0086669921875,1.02117919921875,33.25,0.0,0.0,0.483978271484375,-1.5935211181640625,Waiting,0.0,0.0,22.0,0.0,0.0,0.0,0.0,0.0,
1.0553420000000042,0.0,0.0,91236.0,0.125,-7.5,-1140.9448385238647,0.0,0.25,0.838622961,4.932250999999998,0.0,-84476.0,1.5,0.0,1140.9448385238647,0.0,0.25,0.535888617,4.963769999999998,0.0,95257.0,1.875,0.0,-1140.9448385238647,0.0,0.0,3.3728023890000003,0.01,0.0,-84335.0,1.5,0.0,1140.9448385238647,0.0,0.125,1.614990069,0.01,0.0,-0.4399999976158142,-0.8199999928474426,0.0,-0.01220703125,-0.01043701171875,1.0201416015625,33.25,0.0,2.0,0.483978271484375,-1.5935211181640625,Waiting,0.0,0.0,22.0,0.0,0.0,0.0,0.0,0.0,
1.1000789999999978,0.0,0.0,91212.0,6.5,-165.0,-1306.299215555191,0.0,0.25,0.839843664,4.932250999999998,0.0,-84476.0,6.0,105.0,1306.299215555191,0.0,0.25,0.534667914,4.963769999999998,0.0,95257.0,5.875,0.0,-1306.299215555191,0.0,0.0,3.3679195770000003,0.01,0.0,-84335.0,5.625,105.0,1306.299215555191,0.0,0.125,1.591796712,0.01,0.0,-0.4699999988079071,-1.399999976158142,0.019999999552965164,-0.297119140625,-0.255859375,1.14599609375,33.25,0.0,-269.0,0.482421875,-1.594146728515625,Waiting,0.0,0.0,22.0,0.0,0.0,0.0,0.0,0.0,
1.1454429999999993,0.0,0.0,91212.0,8.25,-225.0,-1422.0471918582916,0.0,0.25,0.8435057730000001,4.932250999999998,0.00488281200000007,-84476.0,12.5,270.0,1422.0471918582916,0.0,0.25,0.535888617,4.963769999999998,0.0,95257.0,11.375,-15.0,-1422.0471918582916,0.0,0.0,3.3679195770000003,0.01,-0.003662108999999969,-84335.0,9.5,240.0,1422.0471918582916,0.0,0.125,1.53808578,0.01,-0.024414059999999793,-0.5799999833106995,-1.909999966621399,0.009999999776482582,-0.29376220703125,0.10089111328125,1.2216796875,33.25,0.0,-252.0,0.4776611328125,-1.5955352783203125,Waiting,0.0,0.0,22.0,0.0,0.0,0.0,0.0,0.0,
1.1879560000000056,0.0,0.0,91212.0,11.875,-300.0,-2100.0,0.0,0.25,0.847167882,4.932250999999998,0.0,-84404.0,18.5,360.0,2100.0,0.0,0.25,0.534667914,4.963769999999998,0.0,95232.0,18.25,-67.5,-2100.0,0.0,0.0,3.3679195770000003,0.01,0.0012207029999999897,-84275.0,13.125,315.0,2100.0,0.0,0.25,1.53808578,0.01,-0.051269526000000454,-0.5899999737739563,-2.5999999046325684,0.12999999523162842,-0.5498046875,-0.0816650390625,0.79412841796875,33.25,0.0,-513.0,0.4693145751953125,-1.59661865234375,Waiting,0.0,0.0,22.0,0.0,0.0,0.0,0.0,0.0,
1.2270979999999982,0.0,0.0,91152.0,17.75,-382.5,-1008.6614370346069,0.0,0.25,0.8447264760000001,4.932250999999998,0.0,-84404.0,24.375,427.5,1008.6614370346069,0.0,0.25,0.535888617,4.963769999999998,0.0,95232.0,21.5,-210.0,-1008.6614370346069,0.0,0.0,3.3679195770000003,0.01,0.0,-84275.0,18.625,405.0,1008.6614370346069,0.0,0.25,1.542968592,0.01,0.0,-0.5600000023841858,-3.2899999618530273,0.20000000298023224,-0.3963623046875,0.12896728515625,1.1270751953125,33.25,0.0,-330.0,0.4610595703125,-1.597381591796875,Waiting,0.0,0.0,22.0,0.0,0.0,0.0,0.0,0.0,
1.2671510000000126,0.0,0.0,91152.0,8.75,-562.5,0.0,0.0,0.25,0.8447264760000001,4.932250999999998,0.0,-84404.0,9.0,577.5,0.0,0.0,0.25,0.535888617,4.963769999999998,0.0,95232.0,9.5,-337.5,0.0,0.0,0.0,3.3679195770000003,0.01,0.0,-84275.0,10.375,585.0,0.0,0.0,0.25,1.567382652,0.01,0.004882811999999959,-0.6600000262260437,-3.559999942779541,0.49000000953674316,-0.021728515625,0.0059814453125,1.14471435546875,33.25,0.0,49.0,0.4460906982421875,-1.5987091064453125,Waiting,0.0,0.0,22.0,0.0,0.0,0.0,0.0,0.0,
1.3260160000000032,0.0,0.0,91049.0,0.0,-682.5,0.0,0.0,0.25,0.834960852,4.932250999999998,0.0,-84326.0,0.0,525.0,0.0,0.0,0.25,0.535888617,4.963769999999998,0.0,95197.0,0.0,-195.0,0.0,0.0,0.0,3.3679195770000003,0.01,0.0012207029999999897,-84182.0,0.0,570.0,0.0,0.0,0.25,1.669921704,0.01,0.029296871999999752,-0.6299999952316284,-3.2300000190734863,0.9700000286102295,0.277587890625,0.2591552734375,1.0126953125,33.25,0.0,338.0,0.4266815185546875,-1.600860595703125,Waiting,0.0,0.0,22.0,0.0,0.0,0.0,0.0,0.0,
1.368524000000005,0.0,0.0,91049.0,0.0,-622.5,0.0,0.0,0.25,0.838622961,4.932250999999998,-0.009765624000000028,-84326.0,0.0,540.0,0.0,0.0,0.25,0.535888617,4.963769999999998,0.0,95197.0,0.0,-105.0,0.0,0.0,0.0,3.3666988740000003,0.01,0.0,-84182.0,0.0,517.5,0.0,0.0,0.125,1.679687328,0.01,-4.861564463000001,-0.6800000071525574,-2.990000009536743,1.0199999809265137,0.110595703125,0.08056640625,1.0567626953125,33.25,0.0,167.0,0.41485595703125,-1.6016693115234375,Waiting,0.0,0.0,22.0,0.0,0.0,0.0,0.0,0.0,
1.411122000000003,0.0,0.0,91049.0,0.0,-675.0,0.0,0.0,0.25,0.838622961,4.932250999999998,0.004882811999999959,-84326.0,0.0,645.0,0.0,0.0,0.25,0.535888617,4.963769999999998,0.0,95197.0,0.0,-135.0,0.0,0.0,0.0,3.3679195770000003,0.01,0.0,-84078.0,0.0,592.5,0.0,0.0,0.125,1.678466625,0.01,0.009765623999999917,-0.6899999976158142,-2.5299999713897705,0.9200000166893005,0.166259765625,0.08990478515625,0.723876953125,33.25,0.0,199.0,0.4043731689453125,-1.6023406982421875,Waiting,0.0,0.0,22.0,0.0,0.0,0.0,0.0,0.0,
1.4518850000000094,0.0,0.0,90932.0,0.0,-742.5,0.0,0.0,0.25,0.8435057730000001,4.932250999999998,0.00488281200000007,-84215.0,0.0,652.5,0.0,0.0,0.0,0.535888617,4.963769999999998,0.0,95165.0,0.0,-225.0,0.0,0.0,0.0,3.3679195770000003,0.01,0.0,-84078.0,0.0,652.5,0.0,0.0,0.25,1.678466625,0.01,0.0,-0.6000000238418579,-2.5299999713897705,0.9399999976158142,0.04681396484375,0.00750732421875,1.2044677734375,33.25,0.0,100.0,0.39569091796875,-1.6024932861328125,Waiting,0.0,0.0,22.0,0.0,0.0,0.0,0.0,0.0,
1.4939530000000085,0.0,0.0,90932.0,0.0,-622.5,0.0,0.0,0.25,0.838622961,4.932250999999998,0.00488281200000007,-84215.0,0.0,607.5,0.0,0.0,0.0,0.535888617,4.963769999999998,0.0,95165.0,0.0,-345.0,0.0,0.0,0.0,3.3691402800000003,0.01,0.0,-84078.0,0.0,600.0,0.0,0.0,0.25,1.669921704,0.01,0.0,-0.550000011920929,-2.0999999046325684,0.8399999737739563,0.091064453125,0.00921630859375,1.00299072265625,33.25,0.0,128.0,0.390716552734375,-1.602447509765625,Waiting,0.0,0.0,22.0,0.0,0.0,0.0,0.0,0.0,
1.532808000000019,0.0,0.0,90932.0,0.0,-480.0,0.0,0.0,0.25,0.839843664,4.932250999999998,0.0,-84215.0,0.0,570.0,0.0,0.0,0.25,0.535888617,4.963769999999998,0.0,95165.0,0.0,-397.5,0.0,0.0,0.0,3.3679195770000003,0.01,0.0,-84078.0,0.0,570.0,0.0,0.0,0.25,1.6638181890000001,0.01,0.0,-0.550000011920929,-1.9500000476837158,0.7099999785423279,0.06671142578125,-0.07037353515625,1.1964111328125,33.27000045776367,0.0,106.0,0.38470458984375,-1.60235595703125,Waiting,0.0,0.0,22.0,0.0,0.0,0.0,0.0,0.0,
1.5692119999999996,0.0,0.0,90858.0,0.0,-465.0,0.0,0.0,0.25,0.838622961,4.932250999999998,-0.00488281200000007,-84128.0,0.0,540.0,0.0,0.0,0.25,0.535888617,4.963769999999998,0.0,95096.0,0.0,-427.5,0.0,0.0,0.0,3.3679195770000003,0.01,0.0,-83989.0,0.0,510.0,0.0,0.0,0.25,1.6540525650000002,0.01,-0.017089841999999855,-0.5699999928474426,-1.6799999475479126,0.6600000262260437,0.038818359375,0.0435791015625,0.97320556640625,33.27000045776367,0.0,67.0,0.3813934326171875,-1.6024322509765625,Waiting,0.0,0.0,22.0,0.0,0.0,0.0,0.0,0.0,
1.6094990000000107,0.0,0.0,90858.0,0.0,-457.5,0.0,0.0,0.25,0.839843664,4.932250999999998,0.0,-84128.0,0.0,472.5,0.0,0.0,0.25,0.535888617,4.963769999999998,0.0,95096.0,0.0,-405.0,0.0,0.0,0.0,3.3691402800000003,0.01,0.0,-83989.0,0.0,435.0,0.0,0.0,0.25,1.6540525650000002,0.01,-0.007324217999999938,-0.5600000023841858,-1.559999942779541,0.6800000071525574,0.0784912109375,-0.00128173828125,1.19793701171875,33.27000045776367,0.0,111.0,0.3774871826171875,-1.602325439453125,Waiting,0.0,0.0,22.0,0.0,0.0,0.0,0.0,0.0,
1.669277000000002,0.0,0.0,90804.0,0.0,-360.0,0.0,0.0,0.25,0.838622961,4.932250999999998,0.0,-84072.0,0.0,375.0,0.0,0.0,0.25,0.535888617,4.963769999999998,0.0,95040.0,0.0,-360.0,0.0,0.0,0.0,3.3679195770000003,0.01,-0.0012207029999999897,-83935.0,0.0,337.5,0.0,0.0,0.25,1.6552732680000002,0.01,0.0,-0.5299999713897705,-1.149999976158142,0.7200000286102295,0.0814208984375,0.00732421875,1.0543212890625,33.27000045776367,0.0,102.0,0.374664306640625,-1.6021881103515625,Waiting,0.0,0.0,22.0,0.0,0.0,0.0,0.0,0.0,
1.7130070000000124,0.0,0.0,90804.0,0.0,-315.0,0.0,0.0,0.25,0.839843664,4.932250999999998,0.0,-84072.0,0.0,315.0,0.0,0.0,0.25,0.535888617,4.963769999999998,0.0,95040.0,0.0,-315.0,0.0,0.0,0.0,3.3679195770000003,0.01,0.0012207029999999897,-83935.0,0.0,292.5,0.0,0.0,0.25,1.6540525650000002,0.01,0.0,-0.5,-0.9599999785423279,0.7099999785423279,0.06146240234375,-0.02947998046875,1.00115966796875,33.27000045776367,0.0,77.0,0.3740692138671875,-1.6021270751953125,Waiting,0.0,0.0,22.0,0.0,0.0,0.0,0.0,0.0,
1.7554040000000095,0.0,0.0,90804.0,0.0,-270.0,0.0,0.0,0.25,0.838622961,4.932250999999998,0.0,-84072.0,0.0,270.0,0.0,0.0,0.25,0.535888617,4.963769999999998,0.0,95040.0,0.0,-232.5,0.0,0.0,0.0,3.3679195770000003,0.01,-0.0012207029999999897,-83935.0,0.0,240.0,0.0,0.0,0.25,1.6540525650000002,0.01,0.0,-0.5,-0.800000011920929,0.6700000166893005,0.09423828125,0.0059814453125,1.03253173828125,33.27000045776367,0.0,108.0,0.3745574951171875,-1.60211181640625,Waiting,0.0,0.0,22.0,0.0,0.0,0.0,0.0,0.0,
1.7991849999999976,0.0,0.0,90771.0,0.0,-217.5,0.0,0.0,0.25,0.838622961,4.932250999999998,0.0,-84037.0,0.0,225.0,0.0,0.0,0.25,0.535888617,4.963769999999998,0.0,95008.0,0.0,-210.0,0.0,0.0,0.0,3.3679195770000003,0.01,0.0012207029999999897,-83902.0,0.0,195.0,0.0,0.0,0.25,1.6540525650000002,0.01,0.0,-0.49000000953674316,-0.6000000238418579,0.6499999761581421,0.11029052734375,-0.01239013671875,1.02911376953125,33.27000045776367,0.0,121.0,0.37628173828125,-1.60211181640625,Waiting,0.0,0.0,22.0,0.0,0.0,0.0,0.0,0.0,
1.845948000000004,0.0,0.0,90771.0,0.375,-172.5,-843.3070600032806,0.0,0.25,0.838622961,4.932250999999998,0.0,-84037.0,0.125,180.0,843.3070600032806,0.0,0.0,0.534667914,4.963769999999998,0.0,95008.0,0.125,-157.5,-843.3070600032806,0.0,0.0,3.3691402800000003,0.01,-0.0012207029999999897,-83902.0,0.75,150.0,843.3070600032806,0.0,0.25,1.652831862,0.01,0.0,-0.49000000953674316,-0.41999998688697815,0.6700000166893005,-0.02294921875,-0.02044677734375,0.998291015625,33.27000045776367,0.0,-15.0,0.3792266845703125,-1.60211181640625,Waiting,0.0,0.0,22.0,0.0,0.0,0.0,0.0,0.0,
1.8883330000000134,0.0,0.0,90771.0,4.75,-210.0,-1829.1195030718409,0.0,0.25,0.8312987430000001,4.797816386729236,0.0,-84037.0,3.0,172.5,1829.1195030718409,0.0,0.0,0.531005805,4.8284762973244835,0.0,95008.0,2.125,-105.0,-1829.1195030718409,0.0,0.0,3.3679195770000003,4.805743275635632,0.0012207029999999897,-83902.0,5.0,180.0,1829.1195030718409,0.0,0.25,1.6552732680000002,4.8228635658249255,0.0,-0.5,-0.4000000059604645,0.6899999976158142,0.0711669921875,0.0545654296875,1.024169921875,33.27000045776367,0.0,79.0,0.38153076171875,-1.602142333984375,Waiting,0.0,0.0,22.0,0.0,0.0,0.0,0.0,0.0,
1.9288090000000084,0.0,0.0,90718.0,16.625,-345.0,-2266.6764801411337,0.0,0.25,0.8447264760000001,4.629336142491898,0.0,-83982.0,17.5,307.5,2266.6764801411337,0.0,0.25,0.526122993,4.658919398874268,0.0,94998.0,10.25,-60.0,-2266.6764801411337,0.0,0.125,3.3630367650000004,4.636984670562583,0.0,-83851.0,15.75,352.5,2266.6764801411337,0.0,0.5,1.567382652,4.653503764199111,0.0,-0.5099999904632568,-1.4299999475479126,0.7400000095367432,-0.4095458984375,0.04718017578125,0.999267578125,33.27000045776367,0.0,-383.0,0.3800048828125,-1.6026611328125,Waiting,0.0,0.0,22.0,0.0,0.0,0.0,0.0,0.0,
1.9688859999999986,0.0,0.0,90718.0,24.875,-427.5,-2266.6764801411337,0.0,0.25,0.826415931,4.629336142491898,0.0,-83982.0,33.625,442.5,2266.6764801411337,0.0,0.5,0.46020503100000004,4.658919398874268,0.0,94998.0,20.625,-60.0,-2266.6764801411337,0.0,0.375,3.331298487,4.636984670562583,0.0,-83851.0,24.125,495.0,2266.6764801411337,0.0,0.625,1.4648436,4.653503764199111,0.0,-0.5,-2.430000066757202,0.75,-0.5604248046875,-0.0223388671875,1.3043212890625,33.27000045776367,0.0,-504.0,0.3718414306640625,-1.6026458740234375,Waiting,0.0,0.0,22.0,0.0,0.0,0.0,0.0,0.0,
2.0111290000000155,0.0,0.0,90718.0,27.125,-510.0,-2266.6764801411337,0.0,0.5,0.758056563,4.629336142491898,0.0,-83982.0,35.25,517.5,2266.6764801411337,0.0,0.25,0.384521445,4.658919398874268,0.0,94998.0,32.625,-172.5,-2266.6764801411337,0.0,0.625,3.286132476,4.636984670562583,0.0,-83740.0,24.875,607.5,2266.6764801411337,0.0,0.125,1.3757322810000001,4.653503764199111,0.0,-0.47999998927116394,-2.930000066757202,0.8999999761581421,-0.4842529296875,0.10858154296875,0.6280517578125,33.27000045776367,0.0,-449.0,0.3630523681640625,-1.6021728515625,Waiting,0.0,0.0,22.0,0.0,0.0,0.0,0.0,0.0,
2.053410999999993,0.0,0.0,90596.0,28.25,-757.5,-2266.6764801411337,0.0,0.375,0.692138601,4.629336142491898,0.0,-83871.0,38.0,682.5,2266.6764801411337,0.0,0.25,0.34179684,4.658919398874268,0.0,94967.0,35.125,-195.0,-2266.6764801411337,0.0,0.375,3.232421544,4.636984670562583,0.0,-83740.0,26.25,802.5,2266.6764801411337,0.0,0.125,1.357421736,4.653503764199111,0.0,0.10999999940395355,-3.990000009536743,1.4199999570846558,-0.503662109375,0.289306640625,0.69476318359375,33.279998779296875,0.0,-446.0,0.3391265869140625,-1.5977020263671875,Waiting,0.0,0.0,22.0,0.0,0.0,0.0,0.0,0.0,
2.095933000000019,0.0,0.0,90596.0,25.875,-1050.0,-2266.6764801411337,0.0,0.25,0.638427669,4.629336142491898,-0.06835936799999942,-83871.0,37.875,960.0,2266.6764801411337,0.0,0.25,0.307617156,4.658919398874268,-0.04760741700000004,94967.0,33.5,-150.0,-2266.6764801411337,0.0,0.25,3.19824186,4.636984670562583,0.0,-83740.0,26.25,1035.0,2266.6764801411337,0.0,0.25,1.337890488,4.653503764199111,0.0,0.3700000047683716,-4.420000076293945,1.7999999523162842,-0.2161865234375,0.11370849609375,1.03009033203125,33.279998779296875,0.0,-132.0,0.3241729736328125,-1.5931243896484375,Waiting,0.0,0.0,22.0,0.0,0.0,0.0,0.0,0.0,
2.137292000000016,0.0,0.0,90596.0,22.0,-1305.0,-1947.0529717387979,0.0,0.25,0.5957030640000001,4.455060669020158,-0.048828120000000474,-83643.0,34.875,1215.0,2829.443242377453,0.0,0.25,0.28442379900000003,4.644672190819449,-0.030517575000000186,94938.0,31.875,-127.5,-1620.24483365233,0.0,0.25,3.1689449880000002,4.810682198044594,-0.037841793000000123,-83525.0,27.5,1252.5,2615.3254306215154,0.0,0.25,1.2951658830000001,4.8775771935208985,-0.026855465999999772,0.7200000286102295,-5.019999980926514,2.309999942779541,-0.27593994140625,0.04925537109375,1.678466796875,33.279998779296875,0.0,-126.0,0.2991485595703125,-1.5844879150390625,Waiting,0.0,0.0,22.0,0.0,0.0,0.0,0.0,0.0,
2.1825310000000173,0.0,0.0,90357.0,14.125,-1515.0,-1569.0037754207212,0.0,0.25,0.5566405680000001,4.045525348357822,0.0,-83643.0,40.0,1470.0,3804.440056100023,0.0,0.25,0.274658175,4.661863868225632,0.0,94938.0,29.875,-180.0,-1197.2265191087613,0.0,0.0,3.1628414730000003,0.7680942857404152,0.0,-83525.0,31.75,1500.0,3666.7891446374642,0.0,1.875,1.3464354090000001,0.21621488785464207,0.0,1.090000033378601,-5.039999961853027,2.5899999141693115,-0.45184326171875,0.34033203125,1.0830078125,33.279998779296875,0.0,-340.0,0.2810821533203125,-1.5766448974609375,Waiting,0.0,0.0,22.0,0.0,0.0,0.0,0.0,0.0,
2.2196330000000017,0.0,0.0,90357.0,7.375,-1650.0,-1363.377408837348,0.0,0.375,0.465087843,3.7936573202061825,0.0,-83643.0,41.75,1732.5,3636.2048832292235,0.0,0.25,0.26855466,4.662449602429386,0.0,94938.0,21.375,-307.5,1363.377408837348,0.0,4.125,3.0993649170000004,3.610674849242948,0.0,-83525.0,32.875,1747.5,3636.2048832292235,0.0,2.375,1.495361175,0.30097013583528354,0.0,1.2000000476837158,-5.650000095367432,2.8299999237060547,-0.33990478515625,0.11981201171875,0.982421875,33.279998779296875,0.0,-236.0,0.250732421875,-1.5628204345703125,Waiting,0.0,0.0,22.0,0.0,0.0,0.0,0.0,0.0,
2.265649999999994,0.0,0.0,90357.0,4.375,-1740.0,-1406.3869541769675,0.0,3.625,0.196533183,3.483262805701371,0.0,-83297.0,39.875,1980.0,3136.3318975443945,0.0,0.25,0.26489255100000003,4.611250944231659,0.0,94875.0,4.625,-367.5,1406.3869541769675,0.0,5.125,2.83203096,3.921582193467638,0.0,-83204.0,32.625,1957.5,3136.3318975443945,0.0,0.75,1.6833494370000002,0.3521092795394296,0.0,1.2599999904632568,-5.690000057220459,2.509999990463257,-0.29595947265625,0.22833251953125,1.03826904296875,33.279998779296875,0.0,-182.0,0.216766357421875,-1.5487823486328125,Waiting,0.0,0.0,22.0,0.0,0.0,0.0,0.0,0.0,
2.308054999999993,0.0,0.0,90074.0,4.125,-1762.5,-1522.0550874577557,0.0,1.75,4.838866692,3.326276544679587,0.0,-83297.0,36.125,2220.0,2856.1412141675946,0.0,0.25,0.249023412,4.573734111331551,0.0,94875.0,0.125,-427.5,1522.0550874577557,0.0,0.5,2.5891110630000003,4.0788278251177745,0.0,-83204.0,32.0,2160.0,2856.1412141675946,0.0,0.625,1.833495906,0.389582502013222,0.0,1.4800000190734863,-5.269999980926514,0.8999999761581421,-0.09259033203125,-0.29180908203125,1.05157470703125,33.279998779296875,0.0,0.0,0.1832122802734375,-1.5342864990234375,Waiting,0.0,0.0,22.0,0.0,0.0,0.0,0.0,0.0,
2.349439000000013,0.0,0.0,90074.0,3.375,-1710.0,-740.3532375063457,0.0,0.875,4.549560081,3.7149281601195963,-0.31311084799999955,-83297.0,32.125,2475.0,1919.44865513665,0.0,0.25,0.225830055,4.65100978246883,-0.019531248000000723,94875.0,0.0,-480.0,740.3532375063457,0.0,0.25,2.4816891990000003,3.6895340846086597,0.0,-83204.0,27.375,2310.0,1919.44865513665,0.0,0.625,1.9238279280000001,0.3123966578869564,0.0,1.4600000381469727,-4.28000020980835,-2.4100000858306885,0.24810791015625,-0.5623779296875,1.04815673828125,33.279998779296875,0.0,350.0,0.15362548828125,-1.52197265625,Waiting,0.0,0.0,22.0,0.0,0.0,0.0,0.0,0.0,
2.3914040000000094,0.0,0.0,89845.0,1.875,-1552.5,-637.4631774893868,0.0,0.5,4.311522996,4.68055008224683,-0.3063964529999996,-82857.0,17.875,2692.5,1100.1415592781746,0.0,0.0,0.208740213,4.818680965059116,-0.02319335699999936,94796.0,0.625,-525.0,-637.4631774893868,0.0,0.75,2.3791501470000003,0.25211677468720906,-0.09155272499999967,-82825.0,14.75,2355.0,1100.1415592781746,0.0,0.375,1.958007612,0.14492038012174321,0.09399413100000009,1.100000023841858,-3.4000000953674316,-7.46999979019165,0.62347412109375,-0.6331787109375,0.97015380859375,33.279998779296875,0.0,758.0,0.130523681640625,-1.512969970703125,Waiting,0.0,0.0,22.0,0.0,0.0,0.0,0.0,0.0,
2.4334120000000112,0.0,0.0,89845.0,0.125,-1335.0,396.8503922224045,0.0,3.125,4.305419481,2.4661254999999977,-0.16723631099999992,-82857.0,4.0,2707.5,396.8503922224045,0.0,0.25,0.216064431,4.963769999999998,0.0,94796.0,10.125,-457.5,-396.8503922224045,0.0,7.125,2.468261466,0.01,-0.10864256700000041,-82825.0,3.75,2287.5,396.8503922224045,0.0,0.25,1.9531248,0.01,0.0,0.6899999976158142,-2.130000114440918,-13.649999618530273,0.48394775390625,-0.4013671875,1.34869384765625,33.279998779296875,0.0,617.0,0.1155548095703125,-1.50823974609375,Waiting,0.0,0.0,22.0,0.0,0.0,0.0,0.0,0.0,
2.483176999999996,0.0,0.0,89845.0,0.0,-1147.5,0.0,0.0,13.25,4.527587427,2.4661254999999977,0.0646972589999999,-82857.0,0.0,2212.5,0.0,0.0,0.25,0.22094724300000002,4.963769999999998,0.004882811999999959,94796.0,6.0,-262.5,0.0,0.0,4.25,2.818603227,0.01,0.1391601420000006,-82825.0,0.25,2077.5,0.0,0.0,0.25,1.9140623040000002,0.01,-0.004882811999999959,0.10999999940395355,-1.6399999856948853,-19.809999465942383,0.275146484375,-0.1934814453125,1.0257568359375,33.279998779296875,0.0,352.0,0.106048583984375,-1.506378173828125,Waiting,0.0,0.0,22.0,0.0,0.0,0.0,0.0,0.0,
2.526444000000018,0.0,0.0,89651.0,0.0,-1155.0,0.0,0.0,11.25,4.222411677,2.4661254999999977,0.12817381500000025,-82543.0,0.0,1950.0,0.0,0.0,0.25,0.23925778800000003,4.963769999999998,0.003662108999999525,94774.0,0.0,-127.5,0.0,0.0,0.5,3.089599293,0.01,0.3210448889999995,-82537.0,0.0,1800.0,0.0,0.0,0.5,1.8139646580000002,0.01,-0.03906249600000011,-0.1899999976158142,-1.0800000429153442,-25.329999923706055,0.29876708984375,-0.30694580078125,0.36376953125,33.22999954223633,0.0,406.0,0.10003662109375,-1.507080078125,Waiting,0.0,0.0,22.0,0.0,0.0,0.0,0.0,0.0,
2.5662050000000165,0.0,0.0,89651.0,0.0,-1260.0,0.0,0.0,1.0,3.872069916,2.4661254999999977,-0.33569332500000026,-82543.0,0.0,1852.5,0.0,0.0,0.5,0.294189423,4.963769999999998,0.024414059999999793,94774.0,0.0,-22.5,0.0,0.0,0.125,3.276366852,0.01,0.28320309600000027,-82537.0,0.0,1620.0,0.0,0.0,0.25,1.704101388,0.01,-0.10742186399999998,-0.36000001430511475,-1.409999966621399,-28.670000076293945,-0.14239501953125,-0.15765380859375,1.7508544921875,33.22999954223633,0.0,-16.0,0.0974578857421875,-1.5086822509765625,Waiting,0.0,0.0,22.0,0.0,0.0,0.0,0.0,0.0,
2.609271000000008,0.0,0.0,89651.0,0.375,-1192.5,-475.78125,0.0,0.625,3.541259403,3.0159423668524887,0.0,-82543.0,2.875,1680.0,475.78125,0.0,1.0,0.333251919,4.410439589772222,0.0,94774.0,0.125,7.5,475.78125,0.0,0.125,3.353271141,4.389674732977289,0.0,-82330.0,2.75,1530.0,475.78125,0.0,0.125,1.644286941,0.5526872062785588,0.0,-0.7900000214576721,-1.100000023841858,-33.95000076293945,0.50799560546875,-0.62109375,1.13189697265625,33.22999954223633,0.0,777.0,0.0943756103515625,-1.513427734375,Waiting,0.0,0.0,22.0,0.0,0.0,0.0,0.0,0.0,
2.6515230000000156,0.0,0.0,89554.0,1.25,-795.0,-1471.213925926076,0.0,0.25,3.4838863620000002,3.0956912663987377,-0.3369140279999998,-82328.0,6.5,1245.0,1823.7355123411764,0.0,1.125,0.327148404,4.475145436474229,0.03906249599999967,94775.0,3.5,0.0,1471.213925926076,0.0,1.875,3.248290683,4.3097940733518385,0.0,-82330.0,5.875,1252.5,1823.7355123411764,0.0,1.875,1.717529121,0.4880565751355873,0.0,-0.8700000047683716,-0.6600000262260437,-35.43000030517578,0.196533203125,-0.5943603515625,1.0972900390625,33.22999954223633,0.0,505.0,0.09515380859375,-1.516693115234375,Waiting,0.0,0.0,22.0,0.0,0.0,0.0,0.0,0.0,
2.6930169999999927,0.0,0.0,89554.0,2.0,-300.0,-1134.1836973862503,0.0,1.125,3.5192867490000004,3.1269573699749555,-0.007324217999999938,-82328.0,1.25,757.5,1510.6220882492564,0.0,0.875,0.29785153200000003,4.494200441213086,-0.014648435999999876,94775.0,8.75,7.5,1134.1836973862503,0.0,0.875,3.066405936,4.278476312331982,-0.12207029999999985,-82330.0,2.375,915.0,1510.6220882492564,0.0,0.875,1.85546856,0.4690237203709115,0.07446288300000004,-1.5499999523162842,-0.4300000071525574,-36.560001373291016,0.27313232421875,-0.4417724609375,1.003173828125,33.22999954223633,0.0,472.0,0.09942626953125,-1.523101806640625,Waiting,0.0,0.0,22.0,0.0,0.0,0.0,0.0,0.0,
2.7341870000000053,0.0,0.0,89554.0,2.0,-90.0,-198.21249429964033,0.0,0.875,3.663329703,3.9211953047620596,0.07690428899999979,-82328.0,0.625,525.0,541.4497377562584,0.0,0.25,0.216064431,4.6799912349424195,0.0,94780.0,8.875,22.5,198.21249429964033,0.0,0.5,2.872314159,3.482926148112398,-0.18676755900000064,-82226.0,0.375,712.5,541.4497377562584,0.0,0.375,1.9763181570000001,0.28344889411787516,0.0,-2.0199999809265137,0.25999999046325684,-37.75,0.326416015625,-0.1082763671875,1.13250732421875,33.22999954223633,0.0,295.0,0.1082763671875,-1.5301361083984375,Waiting,0.0,0.0,22.0,0.0,0.0,0.0,0.0,0.0,
2.7737859999999928,0.0,0.0,89534.0,1.0,-120.0,479.5275494456291,0.0,2.125,3.7878414090000003,2.4661254999999977,0.0,-82255.0,0.0,472.5,479.5275494456291,0.0,0.75,0.185546856,4.963769999999998,0.0,94780.0,2.125,37.5,-479.5275494456291,0.0,2.625,2.812499712,0.01,0.0,-82226.0,0.125,547.5,479.5275494456291,0.0,1.0,1.981200969,0.01,0.0,-2.109999895095825,0.6800000071525574,-38.689998626708984,0.20599365234375,0.01593017578125,0.84368896484375,33.22999954223633,0.0,123.0,0.1203765869140625,-1.5355224609375,Waiting,0.0,0.0,22.0,0.0,0.0,0.0,0.0,0.0,
2.814820000000007,0.0,0.0,89534.0,0.75,-75.0,677.9527455568314,0.0,2.375,3.651122673,2.4661254999999977,0.0,-82255.0,0.125,292.5,677.9527455568314,0.0,0.75,0.191650371,4.963769999999998,0.0,94780.0,0.125,22.5,-677.9527455568314,0.0,3.125,2.973632508,0.01,0.0,-82226.0,0.125,277.5,677.9527455568314,0.0,1.25,1.9152830070000002,0.01,0.0,-2.130000114440918,0.7799999713897705,-39.099998474121094,-0.09136962890625,-0.01654052734375,1.0904541015625,33.22999954223633,0.0,-97.0,0.1337127685546875,-1.5398101806640625,Waiting,0.0,0.0,22.0,0.0,0.0,0.0,0.0,0.0,
2.857986999999994,0.0,0.0,89534.0,2.0,67.5,1025.1968622207642,0.0,0.5,3.4802242530000003,2.4661254999999977,0.0,-82239.0,2.125,135.0,1025.1968622207642,0.0,0.25,0.255126927,4.963769999999998,0.0,94780.0,0.625,7.5,-1025.1968622207642,0.0,0.875,3.1542965520000004,0.01,0.0,-82218.0,2.0,82.5,1025.1968622207642,0.0,0.25,1.804199034,0.01,0.0,-2.140000104904175,0.6000000238418579,-39.029998779296875,-0.1470947265625,0.105224609375,0.91754150390625,33.22999954223633,0.0,-209.0,0.1419830322265625,-1.54290771484375,Waiting,0.0,0.0,22.0,0.0,0.0,0.0,0.0,0.0,
2.9038559999999998,0.0,0.0,89558.0,5.625,150.0,1918.1101977825165,0.0,0.25,3.35693325,2.4661254999999977,0.0,-82239.0,10.625,120.0,1918.1101977825165,0.0,0.5,0.32958981000000004,4.963769999999998,0.0,94780.0,4.75,-7.5,-1918.1101977825165,0.0,0.375,3.2739254460000002,0.01,0.0,-82218.0,8.875,112.5,1918.1101977825165,0.0,0.25,1.6821287340000002,0.01,0.0,-1.909999966621399,0.2199999988079071,-38.439998626708984,-0.27130126953125,-0.10235595703125,1.10321044921875,33.22999954223633,0.0,-175.0,0.1526641845703125,-1.5477752685546875,Waiting,0.0,0.0,22.0,0.0,0.0,0.0,0.0,0.0,
2.94575,0.0,0.0,89558.0,15.125,210.0,2100.0,0.0,0.125,3.277587555,2.4661254999999977,-0.12084959699999986,-82239.0,31.5,202.5,2100.0,0.0,0.75,0.35644527600000003,4.963769999999998,0.07324218000000027,94780.0,10.25,-15.0,-2100.0,0.0,0.125,3.382568013,0.01,0.13183592399999977,-82218.0,21.5,232.5,2100.0,0.0,0.125,1.639404129,0.01,-0.12207029999999985,-1.899999976158142,-0.6600000262260437,-38.09000015258789,-0.394775390625,0.23236083984375,0.6998291015625,33.22999954223633,0.0,-461.0,0.16015625,-1.554107666015625,Waiting,0.0,0.0,22.0,0.0,0.0,0.0,0.0,0.0,
2.988100999999995,0.0,0.0,89558.0,24.5,277.5,2100.0,0.0,0.0,3.2189938110000003,2.4661254999999977,0.0,-82179.0,38.75,300.0,2100.0,0.0,0.75,0.371093712,4.963769999999998,0.0,94772.0,17.125,-37.5,-2100.0,0.0,0.125,3.4204098060000003,0.01,-4.837860948,-82154.0,27.25,322.5,2100.0,0.0,0.125,1.547851404,0.01,0.0,-1.7799999713897705,-1.5700000524520874,-38.2400016784668,-0.51385498046875,-0.05560302734375,0.96868896484375,33.22999954223633,0.0,-366.0,0.163055419921875,-1.5625,Waiting,0.0,0.0,22.0,0.0,0.0,0.0,0.0,0.0,
3.029130999999994,0.0,0.0,89621.0,28.375,405.0,2100.0,0.0,0.25,3.2189938110000003,2.4661254999999977,0.0,-82179.0,39.5,472.5,2100.0,0.0,0.5,0.371093712,4.963769999999998,0.0,94772.0,23.0,-67.5,-2100.0,0.0,0.125,3.435058242,0.01,0.0,-82154.0,29.0,457.5,2100.0,0.0,0.25,1.4794920360000001,0.01,0.0,-1.6799999475479126,-2.190000057220459,-38.459999084472656,-0.47265625,0.1422119140625,1.1317138671875,33.22999954223633,0.0,-445.0,0.1624298095703125,-1.5698089599609375,Waiting,0.0,0.0,22.0,0.0,0.0,0.0,0.0,0.0,
3.069319000000018,0.0,0.0,89621.0,27.375,570.0,512.5984311103821,0.0,0.25,3.2080074840000004,2.4661254999999977,0.0,-82179.0,32.375,780.0,512.5984311103821,0.0,0.5,0.380859336,4.963769999999998,0.0,94772.0,22.0,-105.0,-512.5984311103821,0.0,0.125,3.436278945,0.01,0.0,-82154.0,22.125,727.5,512.5984311103821,0.0,0.25,1.495361175,0.01,0.0,-1.5700000524520874,-3.140000104904175,-38.7599983215332,-0.2806396484375,0.064453125,1.31695556640625,33.209999084472656,0.0,-225.0,0.1577911376953125,-1.5833587646484375,Waiting,0.0,0.0,22.0,0.0,0.0,0.0,0.0,0.0,
3.1128800000000045,0.0,0.0,89758.0,10.25,765.0,0.0,0.0,0.25,3.223876623,2.4661254999999977,0.0024414059999999793,-82020.0,8.375,975.0,0.0,0.0,0.25,0.410156208,4.963769999999998,0.014648435999999876,94744.0,8.75,-157.5,0.0,0.0,0.125,3.4289547270000003,0.01,0.0,-82012.0,5.125,885.0,0.0,0.0,0.25,1.544189295,0.01,0.013427732999999442,-1.5,-3.180000066757202,-38.790000915527344,-0.033447265625,0.1029052734375,0.84588623046875,33.209999084472656,0.0,-67.0,0.1507568359375,-1.5977630615234375,Waiting,0.0,0.0,22.0,0.0,0.0,0.0,0.0,0.0,
3.154766000000003,0.0,0.0,89758.0,0.625,862.5,0.0,0.0,0.25,3.233642247,2.4661254999999977,0.007324217999999938,-82020.0,0.125,952.5,0.0,0.0,0.25,0.44799800100000003,4.963769999999998,0.026855465999999772,94744.0,1.0,-247.5,0.0,0.0,0.125,3.408202776,0.01,-0.004882811999999959,-82012.0,0.625,862.5,0.0,0.0,0.25,1.6052244450000002,0.01,0.048828120000000474,-1.4800000190734863,-3.069999933242798,-38.77000045776367,0.27740478515625,-0.193603515625,0.91876220703125,33.209999084472656,0.0,360.0,0.14398193359375,-1.6115570068359375,Waiting,0.0,0.0,22.0,0.0,0.0,0.0,0.0,0.0,
3.1963740000000107,0.0,0.0,89758.0,0.0,825.0,0.0,0.0,0.25,3.245849277,2.4661254999999977,0.007324217999999938,-82020.0,0.0,802.5,0.0,0.0,0.25,0.482177685,4.963769999999998,0.026855465999999772,94744.0,0.0,-352.5,0.0,0.0,0.125,3.397216449,0.01,-0.01953124800000028,-82012.0,0.0,810.0,0.0,0.0,0.25,1.6296385050000002,0.01,0.048828120000000474,-1.6100000143051147,-2.6600000858306885,-38.7599983215332,0.3658447265625,-0.10150146484375,0.967041015625,33.209999084472656,0.0,366.0,0.14129638671875,-1.6203765869140625,Waiting,0.0,0.0,22.0,0.0,0.0,0.0,0.0,0.0,
3.2407149999999967,0.0,0.0,89885.0,0.0,780.0,0.0,0.0,0.25,3.251952792,2.4661254999999977,0.008544920999999928,-81891.0,0.0,787.5,0.0,0.0,0.0,0.5017089330000001,4.963769999999998,0.035400387000000144,94673.0,0.0,-435.0,0.0,0.0,0.125,3.387450825,0.01,-0.01953124800000028,-81868.0,0.0,900.0,0.0,0.0,0.25,1.6589353770000002,0.01,0.05981444699999994,-1.690000057220459,-2.4700000286102295,-38.970001220703125,0.0693359375,-0.123779296875,0.82427978515625,33.209999084472656,0.0,144.0,0.1394195556640625,-1.6329498291015625,Waiting,0.0,0.0,22.0,0.0,0.0,0.0,0.0,0.0,
3.2875310000000173,0.0,0.0,89885.0,1.375,795.0,-393.75,0.0,1.0,3.304443021,3.0159423668524887,0.0,-81891.0,0.375,840.0,393.75,0.0,2.375,0.496826121,4.410439589772222,0.0,94673.0,2.0,-480.0,393.75,0.0,0.125,3.3776852010000002,4.389674732977289,0.0,-81868.0,1.0,900.0,393.75,0.0,0.625,1.722411933,0.5526872062785588,0.0,-1.7400000095367432,-2.180000066757202,-39.15999984741211,0.0384521484375,-0.10028076171875,0.997314453125,33.209999084472656,0.0,103.0,0.1385955810546875,-1.6451873779296875,Waiting,0.0,0.0,22.0,0.0,0.0,0.0,0.0,0.0,
3.3284120000000113,0.0,0.0,89885.0,6.5,720.0,-1771.875,0.0,2.0,3.496093392,3.0159423668524887,0.0,-81891.0,1.625,772.5,1771.875,0.0,2.625,0.379638633,4.410439589772222,0.0,94673.0,13.25,-510.0,1771.875,0.0,1.25,3.3178707540000003,4.389674732977289,0.0,-81868.0,2.125,750.0,1771.875,0.0,1.625,1.885986135,0.5526872062785588,0.0,-1.7200000286102295,-1.2000000476837158,-39.38999938964844,0.33880615234375,0.0430908203125,0.97314453125,33.209999084472656,0.0,231.0,0.1408538818359375,-1.6541748046875,Waiting,0.0,0.0,22.0,0.0,0.0,0.0,0.0,0.0,
3.368664000000019,0.0,0.0,89908.0,24.5,337.5,-2100.0,0.0,0.375,3.654784782,3.0159423668524887,0.0,-81783.0,2.125,660.0,2100.0,0.0,0.25,0.225830055,4.410439589772222,0.0,94594.0,42.875,-487.5,2100.0,0.0,1.875,3.1628414730000003,4.389674732977289,0.0,-81760.0,2.25,682.5,2100.0,0.0,0.375,2.0178220590000002,0.5526872062785588,0.0,-1.5800000429153442,-0.23999999463558197,-40.33000183105469,0.28375244140625,0.149169921875,1.2767333984375,33.209999084472656,0.0,101.0,0.14739990234375,-1.65789794921875,Waiting,0.0,0.0,22.0,0.0,0.0,0.0,0.0,0.0,
3.4110830000000134,0.0,0.0,89908.0,19.875,-442.5,-410.15625000000006,0.0,0.25,3.769530864,3.0159423668524887,0.0,-81783.0,3.75,727.5,410.15625000000006,0.0,0.25,0.111083973,4.410439589772222,0.0,94594.0,59.5,-367.5,410.15625000000006,0.0,0.375,2.9980465680000004,4.389674732977289,0.0,-81760.0,2.125,705.0,410.15625000000006,0.0,0.25,2.1154782990000003,0.5526872062785588,0.0,-1.399999976158142,0.41999998688697815,-42.2599983215332,0.50146484375,-0.29583740234375,0.7265625,33.209999084472656,0.0,553.0,0.15667724609375,-1.6571502685546875,Waiting,0.0,0.0,22.0,0.0,0.0,0.0,0.0,0.0,
3.4530299999999987,0.0,0.0,89908.0,10.25,-607.5,396.8503922224045,0.0,0.375,3.80859336,2.4661254999999977,0.09521483399999964,-81783.0,1.25,675.0,396.8503922224045,0.0,0.25,0.065917962,4.963769999999998,-0.0988769430000005,94594.0,30.375,-202.5,-396.8503922224045,0.0,0.125,2.8918454070000004,0.01,0.0,-81696.0,0.875,615.0,396.8503922224045,0.0,0.25,2.177734152,0.01,0.0,-1.5399999618530273,0.6299999952316284,-44.529998779296875,0.36236572265625,-0.2705078125,1.086669921875,33.209999084472656,0.0,418.0,0.1688690185546875,-1.655181884765625,Waiting,0.0,0.0,22.0,0.0,0.0,0.0,0.0,0.0,
3.4960010000000183,0.0,0.0,89808.0,1.125,-540.0,1091.338562965393,0.0,2.0,3.7402339920000003,2.4661254999999977,0.04638671400000005,-81708.0,0.375,397.5,1091.338562965393,0.0,1.5,0.06469725900000001,4.963769999999998,-0.04638671399999961,94584.0,6.5,-30.0,-1091.338562965393,0.0,1.25,2.8906247040000004,0.01,0.0,-81696.0,0.75,330.0,1091.338562965393,0.0,2.125,2.092284942,0.01,0.05126952600000001,-1.7899999618530273,0.550000011920929,-46.11000061035156,-0.10882568359375,-0.19586181640625,1.1253662109375,33.209999084472656,0.0,32.0,0.18292236328125,-1.653350830078125,Waiting,0.0,0.0,22.0,0.0,0.0,0.0,0.0,0.0,
3.543945000000007,0.0,0.0,89808.0,4.25,-210.0,1570.8661437034607,0.0,1.625,3.554687136,2.4661254999999977,-0.1171874879999999,-81708.0,4.875,225.0,1570.8661437034607,0.0,0.75,0.153808578,4.963769999999998,0.009765623999999917,94584.0,1.25,105.0,-1570.8661437034607,0.0,1.875,3.031005549,0.01,0.02075195100000027,-81696.0,4.125,262.5,1570.8661437034607,0.0,0.875,1.962890424,0.01,-0.07934569500000022,-2.009999990463257,0.25999999046325684,-46.869998931884766,-0.3011474609375,-0.24078369140625,1.20440673828125,33.209999084472656,0.0,-64.0,0.192230224609375,-1.6540069580078125,Waiting,0.0,0.0,22.0,0.0,0.0,0.0,0.0,0.0,
3.5884470000000146,0.0,0.0,89816.0,8.75,-7.5,1736.220520734787,0.0,0.375,3.410644182,2.4661254999999977,0.0,-81636.0,13.875,375.0,1736.220520734787,0.0,0.75,0.249023412,4.963769999999998,0.0,94601.0,2.5,142.5,-1736.220520734787,0.0,0.25,3.175048503,0.01,0.0,-81614.0,13.0,517.5,1736.220520734787,0.0,0.25,1.7675779440000001,0.01,0.0,-1.7599999904632568,-0.6200000047683716,-47.869998931884766,-0.22930908203125,0.11419677734375,1.16217041015625,33.18000030517578,0.0,-256.0,0.207275390625,-1.6572265625,Waiting,0.0,0.0,22.0,0.0,0.0,0.0,0.0,0.0,
3.636478999999992,0.0,0.0,89816.0,11.625,67.5,1769.2913711071014,0.0,0.25,3.352050438,2.4661254999999977,0.0,-81636.0,24.625,502.5,1769.2913711071014,0.0,0.5,0.327148404,4.963769999999998,0.0,94601.0,7.25,15.0,-1769.2913711071014,0.0,0.125,3.2653805250000003,0.01,0.0,-81614.0,17.25,495.0,1769.2913711071014,0.0,0.125,1.593017415,0.01,0.0,-1.5499999523162842,-1.0499999523162842,-48.459999084472656,-0.3084716796875,-0.0439453125,1.031005859375,33.18000030517578,0.0,-179.0,0.214385986328125,-1.6611785888671875,Waiting,0.0,0.0,22.0,0.0,0.0,0.0,0.0,0.0,
3.680880999999994,0.0,0.0,89816.0,15.25,127.5,1769.2913711071014,0.0,0.25,3.337402002,2.4661254999999977,0.0,-81636.0,29.25,495.0,1769.2913711071014,0.0,0.5,0.35644527600000003,4.963769999999998,0.0,94601.0,8.875,-105.0,-1769.2913711071014,0.0,0.125,3.304443021,0.01,0.0,-81614.0,21.25,472.5,1769.2913711071014,0.0,0.125,1.5563963250000001,0.01,0.0,-1.6100000143051147,-1.7300000190734863,-48.81999969482422,-0.384521484375,-0.0286865234375,1.02880859375,33.18000030517578,0.0,-232.0,0.2191009521484375,-1.6676025390625,Waiting,0.0,0.0,22.0,0.0,0.0,0.0,0.0,0.0,
3.7262240000000166,0.0,0.0,89885.0,17.125,427.5,1769.2913711071014,0.0,0.25,3.3251949720000002,2.4661254999999977,0.0,-81541.0,33.75,570.0,1769.2913711071014,0.0,0.5,0.352783167,4.963769999999998,0.0,94559.0,9.625,-247.5,-1769.2913711071014,0.0,0.0,3.3679195770000003,0.01,0.0,-81521.0,25.375,570.0,1769.2913711071014,0.0,0.25,1.5576170280000001,0.01,0.0,-1.6200000047683716,-2.380000114440918,-48.93000030517578,-0.318603515625,-0.008056640625,0.88531494140625,33.18000030517578,0.0,-197.0,0.2212677001953125,-1.6772003173828125,Waiting,0.0,0.0,22.0,0.0,0.0,0.0,0.0,0.0,
3.7706570000000066,0.0,0.0,89885.0,16.75,645.0,1769.2913711071014,0.0,0.25,3.330077784,2.4661254999999977,0.0,-81541.0,35.25,712.5,1769.2913711071014,0.0,0.5,0.360107385,4.963769999999998,0.0,94559.0,10.0,-487.5,-1769.2913711071014,0.0,0.0,3.3715816860000003,0.01,0.0,-81521.0,27.125,772.5,1769.2913711071014,0.0,0.25,1.5576170280000001,0.01,0.0,-1.5099999904632568,-3.0199999809265137,-49.0,-0.34295654296875,-0.2269287109375,1.08074951171875,33.18000030517578,0.0,-37.0,0.2207183837890625,-1.6897735595703125,Waiting,0.0,0.0,22.0,0.0,0.0,0.0,0.0,0.0,
3.8140899999999966,0.0,0.0,89885.0,15.75,832.5,1769.2913711071014,0.0,0.25,3.281249664,2.4661254999999977,0.0,-81369.0,33.875,892.5,1769.2913711071014,0.0,0.5,0.36132808800000005,4.963769999999998,0.0,94452.0,11.0,-630.0,-1769.2913711071014,0.0,0.0,3.3776852010000002,0.01,0.0,-81360.0,26.0,937.5,1769.2913711071014,0.0,0.25,1.567382652,0.01,0.0,-1.5399999618530273,-3.5799999237060547,-49.16999816894531,-0.2542724609375,-0.0206298828125,0.9296875,33.18000030517578,0.0,-131.0,0.2183685302734375,-1.7057952880859375,Waiting,0.0,0.0,22.0,0.0,0.0,0.0,0.0,0.0,
3.857197000000015,0.0,0.0,90044.0,14.875,1005.0,1769.2913711071014,0.0,0.125,3.277587555,2.4661254999999977,0.0,-81369.0,28.875,1215.0,1769.2913711071014,0.0,0.5,0.36254879100000004,4.963769999999998,0.0,94452.0,11.5,-757.5,-1769.2913711071014,0.0,0.0,3.3764644980000003,0.01,0.0,-81360.0,24.125,1125.0,1769.2913711071014,0.0,0.25,1.5795896820000002,0.01,0.0,-1.4600000381469727,-4.039999961853027,-49.459999084472656,-0.2650146484375,-0.0050048828125,1.0838623046875,33.18000030517578,0.0,-139.0,0.2149505615234375,-1.7238616943359375,Waiting,0.0,0.0,22.0,0.0,0.0,0.0,0.0,0.0,
3.9070540000000036,0.0,0.0,90044.0,12.625,1155.0,1405.5117666721344,0.0,0.125,3.276366852,2.4661254999999977,-0.004882811999999959,-81369.0,21.875,1395.0,1405.5117666721344,0.0,0.5,0.371093712,4.963769999999998,0.0,94452.0,10.125,-862.5,-1405.5117666721344,0.0,0.125,3.3776852010000002,0.01,0.0,-81360.0,20.375,1305.0,1405.5117666721344,0.0,0.25,1.591796712,0.01,0.0,-1.3700000047683716,-4.46999979019165,-49.849998474121094,-0.1353759765625,-0.00341796875,0.75445556640625,33.18000030517578,0.0,-60.0,0.2102508544921875,-1.7430877685546875,Waiting,0.0,0.0,22.0,0.0,0.0,0.0,0.0,0.0,
3.9503360000000103,0.0,0.0,90257.0,8.625,1275.0,1289.7637903690338,0.0,0.125,3.277587555,2.4661254999999977,0.0012207029999999897,-81123.0,17.625,1515.0,1289.7637903690338,0.0,0.5,0.38818355400000004,4.963769999999998,0.009765623999999917,94293.0,7.625,-960.0,-1289.7637903690338,0.0,0.125,3.3801266070000002,0.01,0.0,-81126.0,13.375,1440.0,1289.7637903690338,0.0,0.125,1.6015623360000002,0.01,0.0,-1.3799999952316284,-4.550000190734863,-50.2599983215332,-0.19921875,-0.01995849609375,0.80120849609375,33.18000030517578,0.0,-86.0,0.20477294921875,-1.7637786865234375,Waiting,0.0,0.0,22.0,0.0,0.0,0.0,0.0,0.0,
3.9945200000000187,0.0,0.0,90257.0,6.375,1350.0,1289.7637903690338,0.0,0.125,3.276366852,2.4661254999999977,-0.0012207029999999897,-81123.0,9.375,1597.5,1289.7637903690338,0.0,0.25,0.40893550500000003,4.963769999999998,0.019531247999999835,94293.0,6.5,-1065.0,-1289.7637903690338,0.0,0.125,3.3776852010000002,0.01,0.0,-81126.0,9.5,1537.5,1289.7637903690338,0.0,0.125,1.6113279600000001,0.01,0.009765623999999917,-1.3300000429153442,-4.78000020980835,-50.70000076293945,-0.03448486328125,-0.33685302734375,1.17486572265625,33.18000030517578,0.0,279.0,0.1987762451171875,-1.7851409912109375,Waiting,0.0,0.0,22.0,0.0,0.0,0.0,0.0,0.0,
4.0379320000000005,0.0,0.0,90257.0,4.875,1425.0,1289.7637903690338,0.0,0.125,3.276366852,2.4661254999999977,0.0,-81123.0,7.25,1650.0,1289.7637903690338,0.0,0.25,0.438232377,4.963769999999998,0.0,94293.0,5.875,-1162.5,-1289.7637903690338,0.0,0.125,3.3776852010000002,0.01,0.0,-81126.0,7.625,1597.5,1289.7637903690338,0.0,0.25,1.6101072570000001,0.01,0.0,-1.5199999809265137,-4.730000019073486,-51.04999923706055,-0.1954345703125,-0.13043212890625,0.82830810546875,33.18000030517578,0.0,4.0,0.1950531005859375,-1.8072662353515625,Waiting,0.0,0.0,22.0,0.0,0.0,0.0,0.0,0.0,
4.076561000000016,0.0,0.0,90504.0,3.625,1500.0,1289.7637903690338,0.0,0.125,3.277587555,2.4661254999999977,0.0,-80854.0,5.375,1680.0,1289.7637903690338,0.0,0.25,0.46630854600000005,4.963769999999998,0.0,94089.0,4.875,-1260.0,-1289.7637903690338,0.0,0.125,3.3764644980000003,0.01,0.0,-80865.0,6.25,1620.0,1289.7637903690338,0.0,0.25,1.6113279600000001,0.01,0.0,-1.559999942779541,-4.670000076293945,-51.310001373291016,-0.054931640625,-0.106689453125,0.90142822265625,33.18000030517578,0.0,75.0,0.19537353515625,-1.8301544189453125,Waiting,0.0,0.0,22.0,0.0,0.0,0.0,0.0,0.0,
4.124981,0.0,0.0,90504.0,3.0,1552.5,1256.6929399967194,0.0,0.125,3.276366852,2.4661254999999977,0.0,-80854.0,4.125,1695.0,1256.6929399967194,0.0,0.0,0.47241206100000005,4.963769999999998,0.0,94089.0,4.0,-1350.0,-1256.6929399967194,0.0,0.125,3.3776852010000002,0.01,0.0,-80865.0,5.0,1650.0,1256.6929399967194,0.0,0.25,1.616210772,0.01,0.0,-1.600000023841858,-4.670000076293945,-51.5,-0.07562255859375,-0.13507080078125,1.0291748046875,33.18000030517578,0.0,88.0,0.19580078125,-1.8530120849609375,Waiting,0.0,0.0,22.0,0.0,0.0,0.0,0.0,0.0,
4.169091000000015,0.0,0.0,90504.0,1.25,1575.0,1256.6929399967194,0.0,0.125,3.276366852,2.4661254999999977,0.0,-80854.0,3.125,1687.5,1256.6929399967194,0.0,0.0,0.477294873,4.963769999999998,0.0,94089.0,3.25,-1417.5,-1256.6929399967194,0.0,0.125,3.3776852010000002,0.01,0.0,-80602.0,4.25,1650.0,1256.6929399967194,0.0,0.125,1.625976396,0.01,0.0,-1.6200000047683716,-4.599999904632568,-51.63999938964844,0.08740234375,-0.0595703125,1.11712646484375,33.18000030517578,0.0,131.0,0.196441650390625,-1.87554931640625,Waiting,0.0,0.0,22.0,0.0,0.0,0.0,0.0,0.0,
4.211524999999994,0.0,0.0,90756.0,0.75,1575.0,1256.6929399967194,0.0,0.125,3.276366852,2.4661254999999977,0.0,-80586.0,2.25,1672.5,1256.6929399967194,0.0,0.0,0.48706049700000004,4.963769999999998,0.0,93852.0,1.875,-1507.5,-1256.6929399967194,0.0,0.125,3.3776852010000002,0.01,0.0,-80602.0,3.125,1635.0,1256.6929399967194,0.0,0.125,1.644286941,0.01,0.0,-1.649999976158142,-4.420000076293945,-51.790000915527344,-0.08099365234375,-0.10455322265625,1.23779296875,33.18000030517578,0.0,63.0,0.1968841552734375,-1.896942138671875,Waiting,0.0,0.0,22.0,0.0,0.0,0.0,0.0,0.0,
4.254964999999997,0.0,0.0,90756.0,0.75,1567.5,1256.6929399967194,0.0,0.125,3.276366852,2.4661254999999977,0.0,-80586.0,1.5,1635.0,1256.6929399967194,0.0,0.0,0.490722606,4.963769999999998,0.0,93852.0,1.0,-1552.5,-1256.6929399967194,0.0,0.125,3.3764644980000003,0.01,0.0,-80602.0,2.625,1642.5,1256.6929399967194,0.0,0.125,1.649169753,0.01,0.0,-1.649999976158142,-4.210000038146973,-51.939998626708984,0.03472900390625,-0.05511474609375,0.90423583984375,33.18000030517578,0.0,85.0,0.1970977783203125,-1.917999267578125,Waiting,0.0,0.0,22.0,0.0,0.0,0.0,0.0,0.0,
4.307409000000014,0.0,0.0,90756.0,0.5,1545.0,1256.6929399967194,0.0,0.125,3.281249664,2.4661254999999977,0.0,-80325.0,1.125,1627.5,1256.6929399967194,0.0,0.125,0.48706049700000004,4.963769999999998,0.0,93601.0,0.625,-1575.0,-1256.6929399967194,0.0,0.125,3.3789059040000002,0.01,0.0,-80344.0,2.0,1620.0,1256.6929399967194,0.0,0.25,1.638183426,0.01,0.0,-1.5800000429153442,-4.03000020980835,-52.20000076293945,-0.07513427734375,-0.14190673828125,1.09210205078125,33.18000030517578,0.0,89.0,0.1979522705078125,-1.9377288818359375,Waiting,0.0,0.0,22.0,0.0,0.0,0.0,0.0,0.0,
4.349504000000016,0.0,0.0,90999.0,0.375,1507.5,1240.1575148105621,0.0,0.125,3.284911773,2.4661254999999977,0.007324217999999938,-80325.0,0.875,1612.5,1240.1575148105621,0.0,0.125,0.49316401200000004,4.963769999999998,0.0,93601.0,0.625,-1545.0,-1240.1575148105621,0.0,0.125,3.3776852010000002,0.01,0.0,-80344.0,1.625,1575.0,1240.1575148105621,0.0,0.25,1.639404129,0.01,-0.009765623999999917,-1.6399999856948853,-3.8399999141693115,-52.33000183105469,0.08990478515625,0.08367919921875,0.82818603515625,33.18000030517578,0.0,3.0,0.1989288330078125,-1.950103759765625,Waiting,0.0,0.0,22.0,0.0,0.0,0.0,0.0,0.0,
4.392644000000001,0.0,0.0,90999.0,0.375,1477.5,1240.1575148105621,0.0,0.125,3.282470367,2.4661254999999977,-0.0024414059999999793,-80325.0,0.75,1575.0,1240.1575148105621,0.0,0.125,0.5017089330000001,4.963769999999998,0.009765623999999917,93601.0,0.375,-1500.0,-1240.1575148105621,0.0,0.125,3.3776852010000002,0.01,0.0012207029999999897,-80344.0,1.625,1537.5,1240.1575148105621,0.0,0.125,1.665038892,0.01,0.0,-1.5800000429153442,-3.6700000762939453,-52.52000045776367,0.14666748046875,-0.1685791015625,0.94512939453125,33.18000030517578,0.0,239.0,0.2008514404296875,-1.9675750732421875,Waiting,0.0,0.0,22.0,0.0,0.0,0.0,0.0,0.0,
4.436887000000017,0.0,0.0,91233.0,0.375,1455.0,1240.1575148105621,0.0,0.125,3.288573882,2.4661254999999977,0.0,-80085.0,0.75,1507.5,1240.1575148105621,0.0,0.0,0.50048823,4.963769999999998,0.0,93367.0,0.375,-1462.5,-1240.1575148105621,0.0,0.125,3.3789059040000002,0.01,0.0,-80105.0,1.5,1492.5,1240.1575148105621,0.0,0.25,1.6589353770000002,0.01,0.0,-1.6399999856948853,-3.559999942779541,-52.650001525878906,0.05804443359375,-0.0667724609375,1.114013671875,33.18000030517578,0.0,105.0,0.2038421630859375,-1.9840087890625,Waiting,0.0,0.0,22.0,0.0,0.0,0.0,0.0,0.0,
4.479358999999997,0.0,0.0,91233.0,0.375,1462.5,1240.1575148105621,0.0,0.125,3.291015288,2.4661254999999977,0.0,-80085.0,0.75,1440.0,1240.1575148105621,0.0,0.0,0.5017089330000001,4.963769999999998,0.0,93367.0,0.375,-1440.0,-1240.1575148105621,0.0,0.125,3.3789059040000002,0.01,0.0,-80105.0,1.125,1470.0,1240.1575148105621,0.0,0.25,1.6638181890000001,0.01,0.0,-1.6100000143051147,-3.259999990463257,-52.75,0.158203125,-0.09405517578125,1.04766845703125,33.18000030517578,0.0,183.0,0.20758056640625,-1.9992828369140625,Waiting,0.0,0.0,22.0,0.0,0.0,0.0,0.0,0.0,
4.527423999999999,0.0,0.0,91233.0,0.375,1455.0,1240.1575148105621,0.0,0.125,3.292235991,2.4661254999999977,0.0,-80085.0,0.625,1440.0,1240.1575148105621,0.0,0.0,0.5017089330000001,4.963769999999998,0.0,93367.0,0.375,-1417.5,-1240.1575148105621,0.0,0.125,3.3776852010000002,0.01,0.0,-80105.0,0.875,1500.0,1240.1575148105621,0.0,0.25,1.6638181890000001,0.01,0.0,-1.6200000047683716,-3.0899999141693115,-52.869998931884766,0.030029296875,-0.09381103515625,0.67327880859375,33.18000030517578,0.0,99.0,0.21221923828125,-2.0139007568359375,Waiting,0.0,0.0,22.0,0.0,0.0,0.0,0.0,0.0,
4.57104800000001,0.0,0.0,91462.0,0.375,1425.0,1240.1575148105621,0.0,0.125,3.282470367,2.4661254999999977,0.0,-79850.0,0.5,1470.0,1240.1575148105621,0.0,0.0,0.505371042,4.963769999999998,0.0,93144.0,0.375,-1380.0,-1240.1575148105621,0.0,0.125,3.3776852010000002,0.01,0.0,-79865.0,0.75,1477.5,1240.1575148105621,0.0,0.25,1.6638181890000001,0.01,0.0,-1.590000033378601,-2.9100000858306885,-53.0099983215332,0.15155029296875,0.0318603515625,0.9874267578125,33.189998626708984,0.0,74.0,0.2170562744140625,-2.0276336669921875,Waiting,0.0,0.0,22.0,0.0,0.0,0.0,0.0,0.0,
4.613588000000018,0.0,0.0,91462.0,0.375,1395.0,1240.1575148105621,0.0,0.125,3.291015288,2.4661254999999977,0.0,-79850.0,0.375,1462.5,1240.1575148105621,0.0,0.0,0.5017089330000001,4.963769999999998,0.0,93144.0,0.375,-1372.5,-1240.1575148105621,0.0,0.125,3.3776852010000002,0.01,0.0,-79865.0,0.75,1417.5,1240.1575148105621,0.0,0.25,1.6638181890000001,0.01,0.0,-1.5199999809265137,-2.7699999809265137,-53.150001525878906,0.12603759765625,-0.04345703125,1.2032470703125,33.189998626708984,0.0,119.0,0.222259521484375,-2.03961181640625,Waiting,0.0,0.0,22.0,0.0,0.0,0.0,0.0,0.0,
4.656831000000006,0.0,0.0,91462.0,0.375,1372.5,1240.1575148105621,0.0,0.125,3.291015288,2.4661254999999977,0.0,-79628.0,0.375,1395.0,1240.1575148105621,0.0,0.0,0.5017089330000001,4.963769999999998,0.0,92928.0,0.375,-1357.5,-1240.1575148105621,0.0,0.125,3.3789059040000002,0.01,0.0,-79642.0,0.75,1395.0,1240.1575148105621,0.0,0.25,1.649169753,0.01,0.0,-1.5499999523162842,-2.569999933242798,-53.2400016784668,0.09552001953125,-0.19439697265625,1.110107421875,33.189998626708984,0.0,218.0,0.228118896484375,-2.050201416015625,Waiting,0.0,0.0,22.0,0.0,0.0,0.0,0.0,0.0,
4.705991000000009,0.0,0.0,91678.0,0.125,1350.0,1240.1575148105621,0.0,0.125,3.291015288,2.4661254999999977,-0.0012207029999999897,-79628.0,0.375,1365.0,1240.1575148105621,0.0,0.0,0.5017089330000001,4.963769999999998,-0.0012207029999995456,92928.0,0.375,-1335.0,-1240.1575148105621,0.0,0.125,3.3776852010000002,0.01,0.0,-79642.0,0.75,1380.0,1240.1575148105621,0.0,0.25,1.6638181890000001,0.01,0.0,-1.590000033378601,-2.4100000858306885,-53.290000915527344,0.1058349609375,-0.020751953125,0.87298583984375,33.189998626708984,0.0,82.0,0.2356109619140625,-2.0598907470703125,Waiting,0.0,0.0,22.0,0.0,0.0,0.0,0.0,0.0,
4.749366000000009,0.0,0.0,91678.0,0.125,1320.0,1240.1575148105621,0.0,0.125,3.289794585,2.4661254999999977,0.0012207029999999897,-79628.0,0.625,1335.0,1240.1575148105621,0.0,0.0,0.5017089330000001,4.963769999999998,0.0012207029999995456,92928.0,0.375,-1312.5,-1240.1575148105621,0.0,0.125,3.3776852010000002,0.01,0.0012207029999999897,-79642.0,0.875,1350.0,1240.1575148105621,0.0,0.25,1.674804516,0.01,0.025634763000000005,-1.5700000524520874,-2.1700000762939453,-53.310001373291016,0.00616455078125,-0.00482177734375,1.12451171875,33.189998626708984,0.0,8.0,0.241180419921875,-2.068634033203125,Waiting,0.0,0.0,22.0,0.0,0.0,0.0,0.0,0.0,
4.792595000000001,0.0,0.0,91882.0,0.125,1290.0,1240.1575148105621,0.0,0.125,3.28369107,2.4661254999999977,-0.0012207029999999897,-79421.0,0.75,1297.5,1240.1575148105621,0.0,0.0,0.5017089330000001,4.963769999999998,-0.0012207029999995456,92720.0,0.375,-1297.5,-1240.1575148105621,0.0,0.125,3.3789059040000002,0.01,0.0,-79430.0,0.875,1327.5,1240.1575148105621,0.0,0.25,1.674804516,0.01,0.0,-1.5399999618530273,-1.9700000286102295,-53.33000183105469,-0.0577392578125,-0.08148193359375,0.91107177734375,33.189998626708984,0.0,30.0,0.24188232421875,-2.0764617919921875,Waiting,0.0,0.0,22.0,0.0,0.0,0.0,0.0,0.0,
4.844024999999994,0.0,0.0,91882.0,0.375,1252.5,1223.622089624405,0.0,0.125,3.291015288,2.4661254999999977,0.0,-79421.0,0.75,1267.5,1223.622089624405,0.0,0.0,0.5017089330000001,4.963769999999998,0.0,92720.0,0.375,-1282.5,-1223.622089624405,0.0,0.125,3.3764644980000003,0.01,0.0,-79430.0,0.875,1305.0,1223.622089624405,0.0,0.25,1.665038892,0.01,0.0,-1.5399999618530273,-1.899999976158142,-53.400001525878906,0.05914306640625,-0.07147216796875,1.17608642578125,33.189998626708984,0.0,90.0,0.2428131103515625,-2.0832672119140625,Waiting,0.0,0.0,22.0,0.0,0.0,0.0,0.0,0.0,
