Time,ClimberA1,ClimberA2,FRpos,FRCurrent,FRspeed,FRsetpoint,FRApos,FRACurrent,FREncpos,FREncSetpoint,FREncSpeed,FLpos,FLCurrent,FLspeed,FLsetpoint,FLApos,FLACurrent,FLEncpos,FLEncSetpoint,FLEncSpeed,BRpos,BRCurrent,BRspeed,BRsetpoint,BRApos,BRACurrent,BREncpos,BREncSetpoint,BREncSpeed,BLpos,BLCurrent,BLspeed,BLsetpoint,BLApos,BLACurrent,BLEncpos,BLEncSetpoint,BLEncSpeed,navx_Pitch,navx_Roll,navx_Yaw,navx_XAcc,navx_YAcc,navx_ZAcc,navx_Temp,navx_Bar,navx_Alt,navx_XDis,navx_YDis,GearPlacerState,ShootOutputV,ShootOutputCurrent,ShootEncPos,ShootEncVelocity,ShootSpeed,ShootSetpoint,CarouselSetpoint,CarouselCurrent,
0.14674300000001678,0.0,0.0,21169.0,0.0,0.0,0.0,0.0,0.125,0.810546792,0.01,0.0,-30007.0,0.0,0.0,-0.0,0.0,0.0,0.510253854,0.01,0.0,22640.0,0.0,0.0,0.0,0.0,0.125,3.383788716,0.01,0.0,-1118.0,0.125,0.0,-0.0,0.0,0.25,1.6064451480000002,0.01,0.0,-0.019999999552965164,-0.7699999809265137,0.0,-0.01361083984375,-0.00286865234375,1.01885986328125,36.61000061035156,0.0,0.0,-4.844512939453125,1.811798095703125,Closing,0.0,0.0,0.0,0.0,0.0,0.0,0.0,0.0,
0.19190100000001256,0.0,0.0,21169.0,0.0,0.0,0.0,0.0,0.125,0.810546792,0.01,0.0,-30007.0,0.0,0.0,-0.0,0.0,0.0,0.511474557,0.01,0.0,22640.0,0.0,0.0,0.0,0.0,0.125,3.383788716,0.01,0.0,-1118.0,0.125,0.0,-0.0,0.0,0.25,1.6064451480000002,0.01,0.0,-0.019999999552965164,-0.7699999809265137,0.0,-0.013916015625,0.00250244140625,1.022216796875,36.56999969482422,0.0,0.0,-4.844512939453125,1.811798095703125,Closing,0.0,0.0,0.0,0.0,0.0,0.0,0.0,0.0,
0.22965600000001724,0.0,0.0,21169.0,0.0,0.0,0.0,0.0,0.125,0.810546792,0.01,0.0,-30007.0,0.0,0.0,-0.0,0.0,0.0,0.511474557,0.01,0.0,22640.0,0.0,0.0,0.0,0.0,0.125,3.382568013,0.01,-0.004882811999999959,-1118.0,0.0,0.0,-0.0,0.0,0.25,1.6064451480000002,0.01,0.0,-0.019999999552965164,-0.7699999809265137,0.0,-0.01458740234375,-9.1552734375E-4,1.01983642578125,36.56999969482422,0.0,0.0,-4.844512939453125,1.811798095703125,Closing,0.0,0.0,0.0,0.0,0.0,0.0,0.0,0.0,
0.2707260000000242,0.0,0.0,21169.0,0.0,0.0,0.0,0.0,0.125,0.809326089,0.01,0.0,-30007.0,0.0,0.0,-0.0,0.0,0.0,0.511474557,0.01,0.0,22640.0,0.0,0.0,0.0,0.0,0.125,3.382568013,0.01,0.0,-1118.0,0.0,0.0,-0.0,0.0,0.25,1.6064451480000002,0.01,0.0,-0.019999999552965164,-0.7699999809265137,0.0,-0.0126953125,-4.2724609375E-4,1.0189208984375,36.56999969482422,0.0,1.0,-4.844512939453125,1.811798095703125,Closing,0.0,0.0,0.0,0.0,0.0,0.0,0.0,0.0,
0.3115540000000037,0.0,0.0,21169.0,0.0,0.0,0.0,0.0,0.125,0.809326089,0.01,0.0,-30007.0,0.0,0.0,-0.0,0.0,0.0,0.511474557,0.01,0.0,22640.0,0.0,0.0,0.0,0.0,0.125,3.382568013,0.01,0.0,-1118.0,0.125,0.0,-0.0,0.0,0.25,1.6064451480000002,0.01,0.0,-0.019999999552965164,-0.7699999809265137,0.0,-0.01177978515625,-0.001708984375,1.0137939453125,36.56999969482422,0.0,1.0,-4.844512939453125,1.811798095703125,Closing,0.0,0.0,0.0,0.0,0.0,0.0,0.0,0.0,
0.3520050000000047,0.0,0.0,21169.0,0.0,0.0,0.0,0.0,0.125,0.810546792,0.01,0.0,-30007.0,0.0,0.0,-0.0,0.0,0.0,0.51269526,0.01,0.0,22640.0,0.0,0.0,0.0,0.0,0.125,3.383788716,0.01,0.0,-1118.0,0.125,0.0,-0.0,0.0,0.25,1.6064451480000002,0.01,0.0,-0.019999999552965164,-0.7699999809265137,0.0,-0.0142822265625,0.002197265625,1.01654052734375,36.56999969482422,0.0,0.0,-4.844512939453125,1.811798095703125,Closing,0.0,0.0,0.0,0.0,0.0,0.0,0.0,0.0,
0.39147200000000887,0.0,0.0,21169.0,0.0,0.0,0.0,0.0,0.125,0.810546792,0.01,0.0,-30007.0,0.0,0.0,-0.0,0.0,0.0,0.511474557,0.01,0.0,22640.0,0.0,0.0,0.0,0.0,0.125,3.383788716,0.01,0.0,-1118.0,0.125,0.0,-0.0,0.0,0.25,1.6064451480000002,0.01,0.0,-0.019999999552965164,-0.7699999809265137,0.0,-0.01495361328125,-0.00213623046875,1.01568603515625,36.56999969482422,0.0,-1.0,-4.844512939453125,1.811798095703125,Closing,0.0,0.0,0.0,0.0,0.0,0.0,0.0,0.0,
0.4296840000000084,0.0,0.0,21169.0,0.0,0.0,0.0,0.0,0.125,0.810546792,0.01,0.0,-30007.0,0.0,0.0,-0.0,0.0,0.0,0.510253854,0.01,0.0,22640.0,0.0,0.0,0.0,0.0,0.125,3.382568013,0.01,0.0,-1118.0,0.125,0.0,-0.0,0.0,0.25,1.6064451480000002,0.01,0.0,-0.019999999552965164,-0.7699999809265137,0.0,-0.0147705078125,0.001953125,1.01953125,36.56999969482422,0.0,-1.0,-4.844512939453125,1.811798095703125,Closing,0.0,0.0,0.0,0.0,0.0,0.0,0.0,0.0,
0.46991400000001887,0.0,0.0,21169.0,0.0,0.0,0.0,0.0,0.125,0.810546792,0.01,0.0,-30007.0,0.0,0.0,-0.0,0.0,0.0,0.511474557,0.01,0.0,22640.0,0.0,0.0,0.0,0.0,0.125,3.382568013,0.01,0.0,-1118.0,0.125,0.0,-0.0,0.0,0.25,1.6064451480000002,0.01,0.0,-0.009999999776482582,-0.7599999904632568,0.0,-0.0130615234375,-1.8310546875E-4,1.0213623046875,36.56999969482422,0.0,0.0,-4.844512939453125,1.811798095703125,Closing,0.0,0.0,0.0,0.0,0.0,0.0,0.0,0.0,
0.5114340000000084,0.0,0.0,21169.0,0.0,0.0,0.0,0.0,0.125,0.809326089,0.01,0.0,-30007.0,0.0,0.0,-0.0,0.0,0.0,0.511474557,0.01,0.0,22640.0,0.0,0.0,0.0,0.0,0.125,3.382568013,0.01,0.0,-1118.0,0.0,0.0,-0.0,0.0,0.25,1.6064451480000002,0.01,0.0,-0.009999999776482582,-0.7599999904632568,0.0,-0.01287841796875,-0.00128173828125,1.018310546875,36.56999969482422,0.0,0.0,-4.844512939453125,1.811798095703125,Closing,0.0,0.0,0.0,0.0,0.0,0.0,0.0,0.0,
0.551869000000006,0.0,0.0,21169.0,0.0,0.0,0.0,0.0,0.125,0.809326089,0.01,0.0,-30007.0,0.0,0.0,-0.0,0.0,0.0,0.511474557,0.01,0.0,22640.0,0.0,0.0,0.0,0.0,0.125,3.383788716,0.01,0.0,-1118.0,0.0,0.0,-0.0,0.0,0.25,1.6064451480000002,0.01,0.0,-0.009999999776482582,-0.7599999904632568,0.0,-0.0130615234375,4.8828125E-4,1.0203857421875,36.56999969482422,0.0,0.0,-4.844512939453125,1.811798095703125,Closing,0.0,0.0,0.0,0.0,0.0,0.0,0.0,0.0,
0.5919840000000258,0.0,0.0,21169.0,0.0,0.0,0.0,0.0,0.125,0.809326089,0.01,0.0,-30007.0,0.0,0.0,-0.0,0.0,0.0,0.511474557,0.01,0.0,22640.0,0.0,0.0,0.0,0.0,0.125,3.383788716,0.01,0.0,-1118.0,0.125,0.0,-0.0,0.0,0.25,1.6064451480000002,0.01,0.0,-0.009999999776482582,-0.7599999904632568,0.0,-0.01556396484375,4.2724609375E-4,1.01885986328125,36.56999969482422,0.0,-1.0,-4.844512939453125,1.811798095703125,Closing,0.0,0.0,0.0,0.0,0.0,0.0,0.0,0.0,
0.6294380000000237,0.0,0.0,21169.0,0.0,0.0,0.0,0.0,0.125,0.810546792,0.01,0.0,-30007.0,0.0,0.0,-0.0,0.0,0.0,0.511474557,0.01,0.0,22640.0,0.0,0.0,0.0,0.0,0.125,3.382568013,0.01,0.0,-1118.0,0.125,0.0,-0.0,0.0,0.25,1.6064451480000002,0.01,0.0,-0.009999999776482582,-0.7599999904632568,0.0,-0.0142822265625,-0.00238037109375,1.01800537109375,36.56999969482422,0.0,0.0,-4.844512939453125,1.811798095703125,Closing,0.0,0.0,0.0,0.0,0.0,0.0,0.0,0.0,
0.6712160000000149,0.0,0.0,21169.0,0.0,0.0,0.0,0.0,0.125,0.809326089,0.01,0.0,-30007.0,0.0,0.0,-0.0,0.0,0.0,0.511474557,0.01,0.0,22640.0,0.0,0.0,0.0,0.0,0.125,3.382568013,0.01,0.0,-1118.0,0.125,0.0,-0.0,0.0,0.25,1.6064451480000002,0.01,0.0,-0.009999999776482582,-0.7599999904632568,0.0,-0.012939453125,-0.00128173828125,1.02117919921875,36.56999969482422,0.0,0.0,-4.844512939453125,1.811798095703125,Closing,0.0,0.0,0.0,0.0,0.0,0.0,0.0,0.0,
0.7122740000000048,0.0,0.0,21169.0,0.0,0.0,0.0,0.0,0.125,0.810546792,0.01,0.0,-30007.0,0.0,0.0,-0.0,0.0,0.0,0.511474557,0.01,0.0,22640.0,0.0,0.0,0.0,0.0,0.125,3.383788716,0.01,0.0,-1118.0,0.125,0.0,-0.0,0.0,0.25,1.6064451480000002,0.01,0.0,-0.009999999776482582,-0.7599999904632568,0.0,-0.01409912109375,0.00128173828125,1.02142333984375,36.630001068115234,0.0,0.0,-4.844512939453125,1.811798095703125,Closing,0.0,0.0,0.0,0.0,0.0,0.0,0.0,0.0,
0.7529729999999981,0.0,0.0,21169.0,0.0,0.0,0.0,0.0,0.125,0.810546792,0.01,0.0,-30007.0,0.0,0.0,-0.0,0.0,0.0,0.511474557,0.01,0.0,22640.0,0.0,0.0,0.0,0.0,0.125,3.383788716,0.01,0.0,-1118.0,0.125,0.0,-0.0,0.0,0.25,1.6064451480000002,0.01,0.0,-0.009999999776482582,-0.7599999904632568,0.0,-0.0118408203125,-0.00115966796875,1.017333984375,36.630001068115234,0.0,1.0,-4.844512939453125,1.811798095703125,Closing,0.0,0.0,0.0,0.0,0.0,0.0,0.0,0.0,
0.7939610000000102,0.0,0.0,21169.0,0.0,0.0,0.0,0.0,0.125,0.810546792,0.01,0.0,-30007.0,0.0,0.0,-0.0,0.0,0.0,0.511474557,0.01,0.0,22640.0,0.0,0.0,0.0,0.0,0.125,3.383788716,0.01,0.0,-1118.0,0.125,0.0,-0.0,0.0,0.25,1.6064451480000002,0.01,0.0,-0.009999999776482582,-0.7599999904632568,0.0,-0.0162353515625,7.9345703125E-4,1.02001953125,36.630001068115234,0.0,-2.0,-4.844512939453125,1.811798095703125,Closing,0.0,0.0,0.0,0.0,0.0,0.0,0.0,0.0,
0.8362250000000058,0.0,0.0,21169.0,0.0,0.0,0.0,0.0,0.125,0.810546792,0.01,0.0,-30007.0,0.0,0.0,-0.0,0.0,0.0,0.511474557,0.01,0.0,22640.0,0.0,0.0,0.0,0.0,0.125,3.383788716,0.01,0.0,-1118.0,0.125,0.0,-0.0,0.0,0.25,1.6064451480000002,0.01,0.0,-0.009999999776482582,-0.7599999904632568,0.0,-0.01318359375,-0.0025634765625,1.01995849609375,36.630001068115234,0.0,0.0,-4.844512939453125,1.811798095703125,Closing,0.0,0.0,0.0,0.0,0.0,0.0,0.0,0.0,
0.8757309999999998,0.0,0.0,21169.0,0.0,0.0,0.0,0.0,0.125,0.810546792,0.01,0.0,-30007.0,0.0,0.0,-0.0,0.0,0.0,0.511474557,0.01,0.0,22640.0,0.0,0.0,0.0,0.0,0.125,3.382568013,0.01,0.0,-1118.0,0.125,0.0,-0.0,0.0,0.25,1.6064451480000002,0.01,0.0,-0.019999999552965164,-0.7699999809265137,0.0,-0.01458740234375,3.0517578125E-4,1.02008056640625,36.630001068115234,0.0,0.0,-4.844512939453125,1.811798095703125,Closing,0.0,0.0,0.0,0.0,0.0,0.0,0.0,0.0,
0.9165940000000119,0.0,0.0,21169.0,0.0,0.0,0.0,0.0,0.125,0.809326089,0.01,0.0,-30007.0,0.0,0.0,-0.0,0.0,0.0,0.511474557,0.01,0.0,22640.0,0.0,0.0,0.0,0.0,0.125,3.382568013,0.01,0.0,-1118.0,0.125,0.0,-0.0,0.0,0.25,1.6064451480000002,0.01,0.0,-0.019999999552965164,-0.7699999809265137,0.0,-0.01336669921875,-0.002197265625,1.01422119140625,36.630001068115234,0.0,0.0,-4.844512939453125,1.811798095703125,Closing,0.0,0.0,0.0,0.0,0.0,0.0,0.0,0.0,
0.9588820000000123,0.0,0.0,21169.0,0.0,0.0,0.0,0.0,0.125,0.809326089,0.01,0.0,-30007.0,0.0,0.0,-0.0,0.0,0.0,0.511474557,0.01,0.0,22640.0,0.0,0.0,0.0,0.0,0.125,3.383788716,0.01,0.0,-1118.0,0.125,0.0,-0.0,0.0,0.25,1.6064451480000002,0.01,0.0,-0.019999999552965164,-0.7699999809265137,0.0,-0.0142822265625,-3.0517578125E-4,1.0208740234375,36.630001068115234,0.0,0.0,-4.844512939453125,1.811798095703125,Closing,0.0,0.0,0.0,0.0,0.0,0.0,0.0,0.0,
1.0020840000000026,0.0,0.0,21169.0,0.0,0.0,0.0,0.0,0.125,0.809326089,0.01,0.0,-30007.0,0.0,0.0,-0.0,0.0,0.0,0.511474557,0.01,0.0,22640.0,0.0,0.0,0.0,0.0,0.125,3.382568013,0.01,0.0,-1118.0,0.125,0.0,-0.0,0.0,0.25,1.6064451480000002,0.01,0.0,-0.019999999552965164,-0.7699999809265137,0.0,-0.0133056640625,-0.00238037109375,1.01873779296875,36.630001068115234,0.0,0.0,-4.844512939453125,1.811798095703125,Closing,0.0,0.0,0.0,0.0,0.0,0.0,0.0,0.0,
1.0428820000000123,0.0,0.0,21169.0,0.0,0.0,0.0,0.0,0.125,0.810546792,0.01,0.0,-30007.0,0.0,0.0,-0.0,0.0,0.0,0.511474557,0.01,0.0,22640.0,0.0,0.0,0.0,0.0,0.125,3.382568013,0.01,0.0,-1118.0,0.0,0.0,-0.0,0.0,0.25,1.6064451480000002,0.01,0.0,-0.019999999552965164,-0.7699999809265137,0.0,-0.01495361328125,0.00103759765625,1.0206298828125,36.630001068115234,0.0,-1.0,-4.844512939453125,1.811798095703125,Closing,0.0,0.0,0.0,0.0,0.0,0.0,0.0,0.0,
1.0829900000000199,0.0,0.0,21169.0,0.0,0.0,0.0,0.0,0.125,0.810546792,0.01,0.0,-30007.0,0.0,0.0,-0.0,0.0,0.0,0.511474557,0.01,0.0,22640.0,0.0,0.0,0.0,0.0,0.125,3.383788716,0.01,0.0,-1118.0,0.0,0.0,-0.0,0.0,0.25,1.6064451480000002,0.01,0.0,-0.009999999776482582,-0.7699999809265137,0.0,-0.01416015625,0.00177001953125,1.01531982421875,36.630001068115234,0.0,0.0,-4.844512939453125,1.811798095703125,Closing,0.0,0.0,0.0,0.0,0.0,0.0,0.0,0.0,
1.1265010000000184,0.0,0.0,21169.0,0.0,0.0,0.0,0.0,0.125,0.810546792,0.01,0.0,-30007.0,0.0,0.0,-0.0,0.0,0.0,0.51269526,0.01,0.0,22640.0,0.0,0.0,0.0,0.0,0.125,3.383788716,0.01,0.0,-1118.0,0.0,0.0,-0.0,0.0,0.25,1.6064451480000002,0.01,0.0,-0.019999999552965164,-0.7699999809265137,0.0,-0.01422119140625,6.103515625E-4,1.02130126953125,36.630001068115234,0.0,0.0,-4.844512939453125,1.811798095703125,Closing,0.0,0.0,0.0,0.0,0.0,0.0,0.0,0.0,
1.1669619999999996,0.0,0.0,21169.0,0.0,0.0,0.0,0.0,0.125,0.809326089,0.01,0.0,-30007.0,0.0,0.0,-0.0,0.0,0.0,0.511474557,0.01,0.0,22640.0,0.0,0.0,0.0,0.0,0.125,3.382568013,0.01,0.0,-1118.0,0.125,0.0,-0.0,0.0,0.25,1.6064451480000002,0.01,0.0,-0.019999999552965164,-0.7699999809265137,0.0,-0.0125732421875,0.00103759765625,1.01947021484375,36.630001068115234,0.0,1.0,-4.844512939453125,1.811798095703125,Closing,0.0,0.0,0.0,0.0,0.0,0.0,0.0,0.0,
1.2087150000000255,0.0,0.0,21169.0,0.0,0.0,0.0,0.0,0.125,0.810546792,0.01,0.0,-30007.0,0.0,0.0,-0.0,0.0,0.0,0.511474557,0.01,0.0,22640.0,0.0,0.0,0.0,0.0,0.125,3.383788716,0.01,0.0,-1118.0,0.125,0.0,-0.0,0.0,0.25,1.6076658510000001,0.01,0.0,-0.019999999552965164,-0.7699999809265137,0.0,-0.01312255859375,-0.0013427734375,1.01953125,36.599998474121094,0.0,0.0,-4.844512939453125,1.811798095703125,Closing,0.0,0.0,0.0,0.0,0.0,0.0,0.0,0.0,
1.2498570000000182,0.0,0.0,21169.0,0.0,0.0,0.0,0.0,0.125,0.810546792,0.01,0.0,-30007.0,0.0,0.0,-0.0,0.0,0.0,0.511474557,0.01,0.0,22640.0,0.0,0.0,0.0,0.0,0.125,3.385009419,0.01,0.0,-1118.0,0.125,0.0,-0.0,0.0,0.25,1.6064451480000002,0.01,0.0,-0.009999999776482582,-0.7699999809265137,0.0,-0.013427734375,-6.103515625E-5,1.02252197265625,36.599998474121094,0.0,0.0,-4.844512939453125,1.811798095703125,Closing,0.0,0.0,0.0,0.0,0.0,0.0,0.0,0.0,
1.3005470000000205,0.0,0.0,21169.0,0.0,0.0,0.0,0.0,0.125,0.809326089,0.01,0.0,-30007.0,0.0,0.0,-0.0,0.0,0.0,0.511474557,0.01,0.0,22640.0,0.0,0.0,0.0,0.0,0.125,3.382568013,0.01,0.0,-1118.0,0.125,0.0,-0.0,0.0,0.25,1.6064451480000002,0.01,0.0,-0.019999999552965164,-0.7699999809265137,0.0,-0.01251220703125,-0.00140380859375,1.02362060546875,36.599998474121094,0.0,1.0,-4.844512939453125,1.811798095703125,Closing,0.0,0.0,0.0,0.0,0.0,0.0,0.0,0.0,
1.382866000000009,0.0,0.0,21169.0,0.0,0.0,0.0,0.0,0.125,0.810546792,0.01,0.0,-30007.0,0.0,0.0,-0.0,0.0,0.0,0.511474557,0.01,0.0,22640.0,0.0,0.0,0.0,0.0,0.125,3.383788716,0.01,0.0,-1118.0,0.125,0.0,-0.0,0.0,0.25,1.6064451480000002,0.01,0.0,-0.009999999776482582,-0.7699999809265137,-0.009999999776482582,-0.01556396484375,-0.001708984375,1.01556396484375,36.599998474121094,0.0,-1.0,-4.844512939453125,1.811798095703125,Closing,0.0,0.0,0.0,0.0,0.0,0.0,0.0,0.0,
1.4656110000000044,0.0,0.0,21162.0,4.0,-45.0,-902.3437500000001,0.0,6.125,0.5419921320000001,3.699051243030842,0.0,-30007.0,4.25,-187.5,-902.3437500000001,0.0,6.125,0.9191893590000001,1.2408046175030831,0.0,22640.0,4.375,30.0,902.3437500000001,0.0,6.375,3.773192973,1.2349627666697354,0.0,-1106.0,4.5,75.0,902.3437500000001,0.0,2.25,1.181640504,3.718362277780858,0.0,-0.10000000149011612,-0.7300000190734863,0.0,0.07818603515625,-0.08441162109375,0.98028564453125,36.599998474121094,0.0,90.0,-4.84564208984375,1.8119354248046875,Closing,0.0,0.0,0.0,0.0,0.0,0.0,0.0,0.0,
1.6095620000000053,0.0,0.0,21174.0,0.0,150.0,0.0,0.0,2.125,4.542235863,3.699051243030842,0.0,-30039.0,0.0,0.0,0.0,0.0,1.0,1.906738086,1.2408046175030831,0.0,22643.0,0.0,-37.5,0.0,0.0,1.125,4.6533198360000005,1.2349627666697354,0.0,-1107.0,0.125,-30.0,0.0,0.0,1.875,0.34301754300000004,3.718362277780858,0.0,-0.10999999940395355,-0.800000011920929,-0.07999999821186066,-0.0411376953125,-0.0631103515625,0.935546875,36.599998474121094,0.0,-10.0,-4.8502960205078125,1.8123321533203125,Closing,0.0,0.0,0.0,0.0,0.0,0.0,0.0,0.0,
1.731878000000026,0.0,0.0,21188.0,0.0,105.0,0.0,0.0,2.125,4.215087459,3.699051243030842,-0.8453373559999995,-30039.0,0.0,7.5,0.0,0.0,2.125,2.155761498,1.2408046175030831,0.9313963889999997,22636.0,0.0,-45.0,0.0,0.0,1.125,4.921874496,1.2349627666697354,0.8239745250000006,-1107.0,0.125,-22.5,0.0,0.0,1.0,0.140380845,3.718362277780858,-0.789794841,-0.10999999940395355,-0.8199999928474426,-0.019999999552965164,0.0142822265625,-0.0089111328125,1.08575439453125,36.61000061035156,0.0,29.0,-4.8509521484375,1.81231689453125,Closing,0.0,0.0,0.0,0.0,0.0,0.0,0.0,0.0,
1.7752050000000164,0.0,0.0,21188.0,0.0,0.0,0.0,0.0,0.625,4.276122609000001,3.699051243030842,-0.25756833300000004,-30039.0,0.0,0.0,0.0,0.0,0.875,2.000732217,1.2408046175030831,0.18798826199999974,22633.0,0.0,-22.5,0.0,0.0,0.375,4.842528801,1.2349627666697354,0.22705075799999985,-1107.0,0.125,0.0,0.0,0.0,0.375,0.250244115,3.718362277780858,0.0,-0.07999999821186066,-0.7799999713897705,0.0,0.00189208984375,0.00665283203125,0.99835205078125,36.61000061035156,0.0,15.0,-4.8504486083984375,1.8126220703125,Closing,0.0,0.0,0.0,0.0,0.0,0.0,0.0,0.0,
1.8528040000000037,0.0,0.0,21188.0,5.125,0.0,-2017.96875,0.0,0.5,4.4006343150000005,3.6991882500000015,0.09399413100000054,-30039.0,3.375,0.0,-2017.96875,0.0,0.25,1.9506833940000001,1.2409425000000012,0.0,22633.0,4.625,-7.5,2017.96875,0.0,0.25,4.691161629000001,1.2351000000000012,-0.09765624000000006,-1107.0,5.25,7.5,2017.96875,0.0,0.375,0.318603483,3.7185000000000015,0.0,-0.07000000029802322,-0.8100000023841858,-0.029999999329447746,-0.04351806640625,0.06011962890625,0.99285888671875,36.61000061035156,0.0,-29.0,-4.849853515625,1.8126373291015625,Closing,0.0,0.0,0.0,0.0,0.0,0.0,0.0,0.0,
1.9288080000000192,0.0,0.0,21132.0,8.75,-307.5,-1230.46875,0.0,0.375,4.581298359,3.698777229092522,0.0,-30083.0,10.75,-405.0,-1230.46875,0.0,0.25,1.826171688,1.2405288525092468,0.0,22646.0,13.75,150.0,1230.46875,0.0,0.125,4.490966337000001,1.2346883000092035,0.0,-1075.0,9.875,352.5,1230.46875,0.0,0.25,0.357665979,3.71808683334257,0.0,1.4700000286102295,-0.7099999785423279,-0.029999999329447746,0.01763916015625,0.21380615234375,1.0343017578125,36.61000061035156,0.0,30.0,-4.8477630615234375,1.832916259765625,Closing,0.0,0.0,0.0,0.0,0.0,0.0,0.0,0.0,
2.0748430000000226,0.0,0.0,21072.0,0.0,-337.5,0.0,0.0,0.25,4.560546408,3.698777229092522,0.0,-30160.0,0.0,-405.0,0.0,0.0,0.25,1.799316222,1.2405288525092468,0.0,22694.0,0.0,337.5,0.0,0.0,0.125,4.531249536000001,1.2346883000092035,0.0,-941.0,0.125,390.0,0.0,0.0,0.25,0.419921832,3.71808683334257,0.0,1.1299999952316284,-0.7200000286102295,0.14000000059604645,-0.01416015625,-0.1632080078125,0.908935546875,36.61000061035156,0.0,-3.0,-4.8478546142578125,1.8648529052734375,Closing,0.0,0.0,0.0,0.0,0.0,0.0,0.0,0.0,
2.234510000000009,0.0,0.0,20967.0,0.0,-202.5,0.0,0.0,0.25,4.512938991,3.698777229092522,0.0,-30268.0,0.0,-210.0,0.0,0.0,0.25,1.7895505980000002,1.2405288525092468,0.0,22776.0,0.0,217.5,0.0,0.0,0.0,4.597167498,1.2346883000092035,0.0,-888.0,0.0,240.0,0.0,0.0,0.25,0.40039058400000005,3.71808683334257,0.0,-0.1599999964237213,-0.7900000214576721,0.05000000074505806,-7.32421875E-4,-0.14813232421875,1.05828857421875,36.599998474121094,0.0,13.0,-4.8469696044921875,1.8773956298828125,Closing,0.0,0.0,0.0,0.0,0.0,0.0,0.0,0.0,
2.3785440000000233,0.0,0.0,20967.0,0.0,-60.0,0.0,0.0,0.125,4.5056147730000005,3.698777229092522,0.0,-30287.0,0.0,-60.0,0.0,0.0,0.25,1.7895505980000002,1.2405288525092468,0.0,22784.0,0.0,45.0,0.0,0.0,0.125,4.613036637,1.2346883000092035,0.0,-867.0,0.125,60.0,0.0,0.0,0.25,0.40039058400000005,3.71808683334257,0.0,-0.6700000166893005,-0.7799999713897705,0.07999999821186066,-0.00933837890625,-0.03326416015625,1.00244140625,36.599998474121094,0.0,4.0,-4.8468017578125,1.8684539794921875,Closing,0.0,0.0,0.0,0.0,0.0,0.0,0.0,0.0,
2.5028590000000257,0.0,0.0,20958.0,4.0,0.0,1554.3307185173035,0.0,0.125,4.5007319610000005,3.7002843057532777,0.0,-30276.0,4.0,0.0,1554.3307185173035,0.0,0.25,1.7895505980000002,1.242045559975343,0.0,22784.0,4.125,0.0,-1554.3307185173035,0.0,0.125,4.6533198360000005,1.2361978666421258,0.0,-868.0,5.25,-7.5,-1554.3307185173035,0.0,0.25,0.40039058400000005,3.7196017777531494,0.0,-1.090000033378601,-0.800000011920929,0.1599999964237213,-0.02508544921875,-0.25982666015625,0.9520263671875,36.599998474121094,0.0,-12.0,-4.8468017578125,1.8601837158203125,Closing,0.0,0.0,0.0,0.0,0.0,0.0,0.0,0.0,
2.566722000000009,0.0,0.0,20978.0,4.5,135.0,0.0,0.0,0.125,4.487304228,3.7002843057532777,-0.025634763000000227,-30276.0,9.0,112.5,0.0,0.0,0.25,1.7846677860000002,1.242045559975343,0.0,22780.0,4.875,-37.5,0.0,0.0,0.125,4.633788588,1.2361978666421258,0.03906249599999967,-868.0,7.875,-112.5,0.0,0.0,0.25,0.40039058400000005,3.7196017777531494,0.0,-1.2300000190734863,-0.7699999809265137,0.11999999731779099,-0.08526611328125,-0.31561279296875,1.27264404296875,36.599998474121094,0.0,-68.0,-4.84625244140625,1.8497314453125,Closing,0.0,0.0,0.0,0.0,0.0,0.0,0.0,0.0,
2.622749000000011,0.0,0.0,20978.0,0.0,67.5,0.0,0.0,0.25,4.494628446,3.7002843057532777,0.010986327000000351,-30273.0,0.0,52.5,0.0,0.0,0.25,1.781005677,1.242045559975343,-0.004882811999999959,22780.0,0.0,-37.5,0.0,0.0,0.125,4.631347182,1.2361978666421258,-0.019531247999999835,-885.0,0.125,-82.5,0.0,0.0,0.25,0.39062496,3.7196017777531494,0.0,-1.100000023841858,-0.7699999809265137,0.1599999964237213,-0.00140380859375,0.09246826171875,0.76568603515625,36.599998474121094,0.0,9.0,-4.846282958984375,1.8419036865234375,Closing,0.0,0.0,0.0,0.0,0.0,0.0,0.0,0.0,
2.669094000000012,0.0,0.0,20983.0,0.0,0.0,0.0,0.0,0.125,4.49218704,3.7002843057532777,0.004882811999999959,-30273.0,0.0,0.0,0.0,0.0,0.25,1.77001935,1.242045559975343,-0.004882811999999959,22777.0,0.0,-15.0,0.0,0.0,0.125,4.617919449,1.2361978666421258,0.0,-885.0,0.125,-15.0,0.0,0.0,0.125,0.386962851,3.7196017777531494,-0.008544920999999928,-0.7900000214576721,-0.800000011920929,0.1599999964237213,-0.00360107421875,0.104248046875,1.172119140625,36.599998474121094,0.0,13.0,-4.846160888671875,1.8355865478515625,Closing,0.0,0.0,0.0,0.0,0.0,0.0,0.0,0.0,
2.7234500000000117,0.0,0.0,20983.0,0.0,37.5,0.0,0.0,0.125,4.494628446,3.7002843057532777,0.0,-30273.0,0.0,67.5,0.0,0.0,0.25,1.77001935,1.242045559975343,-0.009765623999999917,22777.0,0.0,-7.5,0.0,0.0,0.125,4.609374528,1.2361978666421258,-0.014648435999999876,-893.0,0.125,-22.5,0.0,0.0,0.125,0.39062496,3.7196017777531494,-0.004882811999999959,-0.5400000214576721,-0.7799999713897705,0.18000000715255737,-0.0484619140625,0.1224365234375,1.011474609375,36.599998474121094,0.0,-34.0,-4.8458251953125,1.8311767578125,Closing,0.0,0.0,0.0,0.0,0.0,0.0,0.0,0.125,
2.762137000000017,0.0,0.0,20983.0,0.0,67.5,0.0,0.0,0.125,4.493407743000001,3.7002843057532777,0.0,-30259.0,0.0,97.5,0.0,0.0,0.125,1.771240053,1.242045559975343,0.0,22773.0,0.0,-22.5,0.0,0.0,0.125,4.6081538250000005,1.2361978666421258,-0.014648435999999876,-893.0,0.125,-52.5,0.0,0.0,0.125,0.39062496,3.7196017777531494,0.004882811999999959,-0.30000001192092896,-0.7799999713897705,0.17000000178813934,-0.00201416015625,0.1048583984375,0.99871826171875,36.61000061035156,0.0,11.0,-4.8457183837890625,1.828521728515625,Closing,0.0,0.0,0.0,0.0,0.0,0.0,0.0,0.0,
2.807132000000012,0.0,0.0,20988.0,0.0,52.5,0.0,0.0,0.125,4.494628446,3.7002843057532777,0.0,-30259.0,0.0,52.5,0.0,0.0,0.125,1.771240053,1.242045559975343,0.0,22773.0,0.0,-22.5,0.0,0.0,0.125,4.609374528,1.2361978666421258,-0.009765623999999917,-893.0,0.125,-37.5,0.0,0.0,0.125,0.39062496,3.7196017777531494,0.004882811999999959,-0.2199999988079071,-0.7599999904632568,0.15000000596046448,-0.02093505859375,0.00653076171875,1.03411865234375,36.61000061035156,0.0,-7.0,-4.8457183837890625,1.8267822265625,Closing,0.0,0.0,0.0,0.0,0.0,0.0,0.0,0.0,
2.8500540000000036,0.0,0.0,20988.0,0.0,15.0,0.0,0.0,0.125,4.494628446,3.7002843057532777,0.0,-30259.0,0.0,0.0,0.0,0.0,0.125,1.771240053,1.242045559975343,0.0,22773.0,0.0,-7.5,0.0,0.0,0.125,4.6081538250000005,1.2361978666421258,0.0,-893.0,0.0,0.0,0.0,0.0,0.125,0.391845663,3.7196017777531494,0.0,-0.23999999463558197,-0.7900000214576721,0.10999999940395355,0.0137939453125,-0.01214599609375,0.97406005859375,36.61000061035156,0.0,27.0,-4.845794677734375,1.8251190185546875,Closing,0.0,0.0,0.0,0.0,0.0,0.0,0.0,0.0,
2.891779999999999,0.0,0.0,20988.0,0.0,0.0,0.0,0.0,0.125,4.493407743000001,3.7002843057532777,0.0,-30259.0,0.0,0.0,0.0,0.0,0.125,1.772460756,1.242045559975343,0.0,22773.0,0.0,0.0,0.0,0.0,0.125,4.609374528,1.2361978666421258,0.0,-893.0,0.0,0.0,0.0,0.0,0.125,0.39062496,3.7196017777531494,0.0,-0.27000001072883606,-0.7699999809265137,0.14000000059604645,-0.01025390625,-0.01220703125,1.025634765625,36.61000061035156,0.0,3.0,-4.84576416015625,1.8232879638671875,Closing,0.0,0.0,0.0,0.0,0.0,0.0,0.0,0.0,
2.9299710000000196,0.0,0.0,20988.0,0.0,0.0,0.0,0.0,0.125,4.494628446,3.7002843057532777,0.0,-30259.0,0.0,0.0,0.0,0.0,0.125,1.771240053,1.242045559975343,0.0,22773.0,0.0,0.0,0.0,0.0,0.125,4.609374528,1.2361978666421258,-0.0012207030000004337,-893.0,0.0,0.0,0.0,0.0,0.125,0.39062496,3.7196017777531494,0.0,-0.28999999165534973,-0.7699999809265137,0.15000000596046448,-0.02838134765625,-0.0137939453125,1.04730224609375,36.61000061035156,0.0,-14.0,-4.84576416015625,1.8232879638671875,Closing,0.0,0.0,0.0,0.0,0.0,0.0,0.0,0.0,
2.970316000000021,0.0,0.0,20988.0,0.0,0.0,0.0,0.0,0.125,4.493407743000001,3.7002843057532777,-0.0012207030000004337,-30259.0,0.0,0.0,0.0,0.0,0.125,1.771240053,1.242045559975343,0.0,22773.0,0.0,0.0,0.0,0.0,0.125,4.606933122,1.2361978666421258,0.0,-893.0,0.0,0.0,0.0,0.0,0.125,0.39062496,3.7196017777531494,0.0,-0.2800000011920929,-0.7900000214576721,0.14000000059604645,-0.00750732421875,0.00213623046875,1.00811767578125,36.61000061035156,0.0,6.0,-4.84576416015625,1.8232879638671875,Closing,0.0,0.0,0.0,0.0,0.0,0.0,0.0,0.0,
3.0135580000000193,0.0,0.0,20988.0,0.75,0.0,1058.2677125930786,0.0,0.125,4.494628446,3.7012433546649945,0.0012207030000004337,-30259.0,0.5,0.0,1058.2677125930786,0.0,0.125,1.771240053,1.2430107375821828,0.0,22773.0,0.625,0.0,-1058.2677125930786,0.0,0.125,4.6081538250000005,1.237158500081796,0.0,-893.0,1.25,0.0,-1058.2677125930786,0.0,0.125,0.383300742,3.720565833415421,0.0,-0.28999999165534973,-0.7699999809265137,0.15000000596046448,-0.0118408203125,-0.0103759765625,1.05169677734375,36.61000061035156,0.0,2.0,-4.84576416015625,1.8232879638671875,Closing,0.0,0.0,0.0,0.0,0.0,0.0,0.0,0.0,
3.0558640000000015,0.0,0.0,21009.0,5.375,67.5,2017.3228740692136,0.0,0.125,4.4958491490000005,3.7012433546649945,0.0,-30259.0,5.75,75.0,2017.3228740692136,0.0,0.125,1.7663572410000001,1.2430107375821828,0.0,22773.0,5.375,-7.5,-2017.3228740692136,0.0,0.125,4.61425734,1.237158500081796,0.0,-893.0,7.0,-82.5,-2017.3228740692136,0.0,0.125,0.405273396,3.720565833415421,0.0,-0.6899999976158142,-0.7400000095367432,0.1899999976158142,-0.01690673828125,-0.47735595703125,1.53973388671875,36.61000061035156,0.0,1.0,-4.8455963134765625,1.8225860595703125,Closing,0.0,0.0,0.0,0.0,0.0,0.0,0.0,0.0,
3.099015000000014,0.0,0.0,21009.0,12.0,255.0,1488.1890177726743,0.0,0.25,4.473876495,3.7017913824395556,0.0,-30259.0,19.5,232.5,1488.1890177726743,0.0,0.125,1.7663572410000001,1.2435622674671247,-0.004882811999999959,22773.0,12.375,-120.0,-1488.1890177726743,0.0,0.125,4.613036637,1.2377074333006128,0.0,-931.0,16.5,-225.0,-1488.1890177726743,0.0,0.125,0.410156208,3.721116722189385,0.01464843600000032,-1.309999942779541,-0.6299999952316284,0.2199999988079071,-0.0235595703125,-0.29742431640625,0.7540283203125,36.61000061035156,0.0,-16.0,-4.845489501953125,1.8183746337890625,Closing,0.0,0.0,0.0,0.0,0.0,0.0,0.0,0.0,
3.1377920000000157,0.0,0.0,21009.0,7.625,345.0,181.889770925045,0.0,0.25,4.475097198,3.702202403372555,0.0,-30212.0,14.625,315.0,181.889770925045,0.0,0.125,1.7614744290000002,1.2439759149835616,0.0,22717.0,12.625,-292.5,-181.889770925045,0.0,0.125,4.6081538250000005,1.2381191333169723,0.0,-931.0,8.75,-307.5,-181.889770925045,0.0,0.25,0.405273396,3.7215298888724697,0.0,-1.6399999856948853,-0.6899999976158142,0.1899999976158142,-0.05828857421875,-0.1795654296875,1.40960693359375,36.61000061035156,0.0,-41.0,-4.845428466796875,1.81365966796875,Closing,0.0,0.0,0.0,0.0,0.0,0.0,0.0,0.0,
3.1897580000000016,0.0,0.0,21059.0,0.75,307.5,0.0,0.0,0.25,4.47998001,3.702202403372555,0.0,-30212.0,2.875,285.0,0.0,0.0,0.0,1.743163884,1.2439759149835616,-0.01831054500000029,22717.0,0.375,-382.5,0.0,0.0,0.125,4.609374528,1.2381191333169723,-0.004882811999999959,-931.0,0.625,-292.5,0.0,0.0,0.25,0.411376911,3.7215298888724697,-0.003662108999999525,-1.5099999904632568,-0.6800000071525574,0.18000000715255737,-0.02362060546875,0.0511474609375,1.01397705078125,36.61000061035156,0.0,-11.0,-4.845367431640625,1.8061370849609375,Closing,0.0,0.0,0.0,0.0,0.0,0.0,0.0,0.0,
3.2321570000000066,0.0,0.0,21059.0,0.0,270.0,0.0,0.0,0.25,4.478759307,3.702202403372555,0.0024414059999999793,-30173.0,0.0,255.0,0.0,0.0,0.0,1.743163884,1.2439759149835616,-0.004882811999999959,22717.0,0.0,-322.5,0.0,0.0,0.125,4.593505389000001,1.2381191333169723,0.0,-978.0,0.125,-270.0,0.0,0.0,0.25,0.40039058400000005,3.7215298888724697,0.003662108999999525,-1.3600000143051147,-0.6299999952316284,0.23999999463558197,0.0223388671875,0.0516357421875,0.78204345703125,36.61000061035156,0.0,31.0,-4.845550537109375,1.7994232177734375,Closing,0.0,0.0,0.0,0.0,0.0,0.0,0.0,0.0,
3.273585000000021,0.0,0.0,21059.0,0.0,232.5,0.0,0.0,0.25,4.478759307,3.702202403372555,0.0,-30173.0,0.0,202.5,0.0,0.0,0.0,1.7419431810000001,1.2439759149835616,0.0,22679.0,0.0,-217.5,0.0,0.0,0.125,4.583739765000001,1.2381191333169723,-0.013427732999999442,-978.0,0.125,-195.0,0.0,0.0,0.25,0.40161128700000004,3.7215298888724697,-0.010986326999999907,-0.9700000286102295,-0.7099999785423279,0.23000000417232513,-0.00347900390625,0.09765625,1.12310791015625,36.59000015258789,0.0,11.0,-4.8455810546875,1.79425048828125,Closing,0.0,0.0,0.0,0.0,0.0,0.0,0.0,0.0,
3.314958000000013,0.0,0.0,21093.0,0.0,195.0,0.0,0.0,0.25,4.477538604,3.702202403372555,0.0,-30173.0,0.0,232.5,0.0,0.0,0.0,1.743163884,1.2439759149835616,0.0,22679.0,0.0,-105.0,0.0,0.0,0.0,4.583739765000001,1.2381191333169723,-0.013427732999999442,-978.0,0.125,-202.5,0.0,0.0,0.25,0.38208003900000004,3.7215298888724697,0.0012207029999999897,-0.7300000190734863,-0.699999988079071,0.25,-0.033203125,0.0238037109375,1.0301513671875,36.59000015258789,0.0,-20.0,-4.8455810546875,1.791015625,Closing,0.0,0.0,0.0,0.0,0.0,0.0,0.0,0.0,
3.358103000000003,0.0,0.0,21093.0,0.0,225.0,0.0,0.0,0.25,4.477538604,3.702202403372555,0.0,-30131.0,0.0,277.5,0.0,0.0,0.0,1.7419431810000001,1.2439759149835616,0.0,22679.0,0.0,-52.5,0.0,0.0,0.0,4.584960468,1.2381191333169723,-0.009765623999999917,-1010.0,0.125,-217.5,0.0,0.0,0.25,0.377197227,3.7215298888724697,0.0012207029999999897,-0.6200000047683716,-0.7099999785423279,0.2800000011920929,-0.04132080078125,0.1044921875,1.094482421875,36.59000015258789,0.0,-27.0,-4.845672607421875,1.7895050048828125,Closing,0.0,0.0,0.0,0.0,0.0,0.0,0.0,0.0,
3.402561000000016,0.0,0.0,21125.0,0.0,247.5,0.0,0.0,0.25,4.466552277,3.702202403372555,0.0,-30131.0,0.0,195.0,0.0,0.0,0.0,1.7419431810000001,1.2439759149835616,0.0,22670.0,0.0,-67.5,0.0,0.0,0.0,4.583739765000001,1.2381191333169723,0.0,-1010.0,0.125,-217.5,0.0,0.0,0.125,0.363769494,3.7215298888724697,-0.01831054500000029,-0.3799999952316284,-0.7400000095367432,0.3199999928474426,-0.0223388671875,0.17724609375,1.098876953125,36.59000015258789,0.0,-6.0,-4.8457794189453125,1.788482666015625,Closing,0.0,0.0,0.0,0.0,0.0,0.0,0.0,0.0,
3.441374000000011,0.0,0.0,21125.0,0.0,172.5,0.0,0.0,0.25,4.497069852,3.702202403372555,0.0,-30131.0,0.0,90.0,0.0,0.0,0.0,1.743163884,1.2439759149835616,0.0,22670.0,0.0,-75.0,0.0,0.0,0.0,4.580077656,1.2381191333169723,0.0,-1028.0,0.125,-150.0,0.0,0.0,0.25,0.36132808800000005,3.7215298888724697,-0.019531247999999835,-0.11999999731779099,-0.6899999976158142,0.25999999046325684,0.00372314453125,0.09783935546875,1.1142578125,36.59000015258789,0.0,17.0,-4.8457183837890625,1.78924560546875,Closing,0.0,0.0,0.0,0.0,0.0,0.0,0.0,0.0,
3.4848630000000123,0.0,0.0,21125.0,0.0,90.0,0.0,0.0,0.25,4.477538604,3.702202403372555,0.0,-30123.0,0.0,60.0,0.0,0.0,0.0,1.7419431810000001,1.2439759149835616,0.0,22661.0,0.0,-67.5,0.0,0.0,0.0,4.578856953,1.2381191333169723,-0.004882812000000847,-1028.0,0.125,-105.0,0.0,0.0,0.25,0.36254879100000004,3.7215298888724697,0.0012207030000004337,0.05999999865889549,-0.6800000071525574,0.25999999046325684,-0.02130126953125,0.1075439453125,1.0885009765625,36.59000015258789,0.0,-7.0,-4.8454742431640625,1.791229248046875,Closing,0.0,0.0,0.0,0.0,0.0,0.0,0.0,0.0,
3.527970000000001,0.0,0.0,21129.0,0.0,45.0,0.0,0.0,0.25,4.477538604,3.702202403372555,0.0,-30123.0,0.0,30.0,0.0,0.0,0.0,1.743163884,1.2439759149835616,0.0,22661.0,0.0,-37.5,0.0,0.0,0.0,4.580077656,1.2381191333169723,0.0,-1028.0,0.125,-22.5,0.0,0.0,0.25,0.36254879100000004,3.7215298888724697,-0.0012207030000004337,0.17000000178813934,-0.6899999976158142,0.27000001072883606,-0.00360107421875,0.00909423828125,0.9510498046875,36.59000015258789,0.0,7.0,-4.84539794921875,1.794281005859375,Closing,0.0,0.0,0.0,0.0,0.0,0.0,0.0,0.0,
3.5697750000000235,0.0,0.0,21129.0,0.0,15.0,-114.84375000000001,0.0,0.25,4.477538604,3.7028874383969943,0.0,-30123.0,0.0,0.0,-114.84375000000001,0.0,0.0,1.7419431810000001,1.2446653276479334,0.0,22661.0,0.125,-7.5,114.84375000000001,0.0,0.0,4.580077656,1.2388053001472368,0.0,-1028.0,0.25,0.0,114.84375000000001,0.0,0.25,0.36254879100000004,3.7222185001477617,0.0,0.18000000715255737,-0.6899999976158142,0.23000000417232513,-0.01092529296875,0.0045166015625,0.98748779296875,36.59000015258789,0.0,1.0,-4.84539794921875,1.7976531982421875,Closing,0.0,0.0,0.0,0.0,0.0,0.0,0.0,0.0,
3.612466000000015,0.0,0.0,21129.0,0.125,0.0,-787.5,0.0,0.25,4.477538604,3.7023394104182765,0.0,-30123.0,0.0,0.0,-787.5,0.0,0.125,1.746825993,1.2441137975575307,0.0,22661.0,0.75,0.0,787.5,0.0,0.0,4.578856953,1.2382563667239266,0.0,-1028.0,0.375,0.0,787.5,0.0,0.25,0.357665979,3.721667611168575,0.0,0.15000000596046448,-0.6899999976158142,0.25,-0.01983642578125,-0.013916015625,1.04400634765625,36.59000015258789,0.0,-7.0,-4.84539794921875,1.8009490966796875,Closing,0.0,0.0,0.0,0.0,0.0,0.0,0.0,0.0,
3.6533250000000117,0.0,0.0,21118.0,1.25,-22.5,-672.65625,0.0,0.25,4.482421416,3.7026134243055573,0.0,-30123.0,2.625,-37.5,-672.65625,0.0,0.0,1.751708805,1.2443895625000014,0.004882811999999959,22661.0,2.125,7.5,672.65625,0.0,0.0,4.578856953,1.2385308333333347,0.0,-1028.0,2.25,45.0,672.65625,0.0,0.25,0.347900355,3.721943055555557,-0.006103515000000392,0.3799999952316284,-0.6899999976158142,0.25999999046325684,-0.0386962890625,0.03106689453125,1.02337646484375,36.59000015258789,0.0,-26.0,-4.84564208984375,1.8047332763671875,Closing,0.0,0.0,0.0,0.0,0.0,0.0,0.0,0.0,
3.6967180000000224,0.0,0.0,21118.0,0.75,-97.5,0.0,0.0,0.25,4.482421416,3.7026134243055573,0.006103515000000392,-30138.0,2.0,-90.0,0.0,0.0,0.0,1.7614744290000002,1.2443895625000014,0.0,22661.0,1.0,22.5,0.0,0.0,0.0,4.584960468,1.2385308333333347,0.0,-1014.0,1.0,90.0,0.0,0.0,0.25,0.357665979,3.721943055555557,-0.008544920999999928,0.49000000953674316,-0.6899999976158142,0.23000000417232513,-0.02801513671875,0.003173828125,1.1165771484375,36.59000015258789,0.0,-13.0,-4.8458251953125,1.8097686767578125,Closing,0.0,0.0,0.0,0.0,0.0,0.0,0.0,0.0,
3.741018000000011,0.0,0.0,21118.0,0.0,-75.0,0.0,0.0,0.25,4.483642119000001,3.7026134243055573,-0.0012207030000004337,-30138.0,0.125,-82.5,0.0,0.0,0.125,1.7614744290000002,1.2443895625000014,0.01464843600000032,22666.0,0.0,30.0,0.0,0.0,0.0,4.593505389000001,1.2385308333333347,0.004882812000000847,-1014.0,0.125,67.5,0.0,0.0,0.25,0.36254879100000004,3.721943055555557,0.009765624000000361,0.4099999964237213,-0.6800000071525574,0.23000000417232513,0.0262451171875,-0.118896484375,1.07757568359375,36.59000015258789,0.0,38.0,-4.8457794189453125,1.8129425048828125,Closing,0.0,0.0,0.0,0.0,0.0,0.0,0.0,0.0,
3.787,0.0,0.0,21115.0,0.0,-15.0,0.0,0.0,0.25,4.482421416,3.7026134243055573,0.0,-30138.0,0.0,-37.5,0.0,0.0,0.125,1.7614744290000002,1.2443895625000014,0.0,22666.0,0.0,15.0,0.0,0.0,0.0,4.598388201000001,1.2385308333333347,0.009765623999999917,-1014.0,0.125,22.5,0.0,0.0,0.25,0.36254879100000004,3.721943055555557,0.003662108999999525,0.30000001192092896,-0.6800000071525574,0.25999999046325684,-0.02532958984375,-0.09228515625,0.9527587890625,36.58000183105469,0.0,-14.0,-4.8455657958984375,1.8168182373046875,Closing,0.0,0.0,0.0,0.0,0.0,0.0,0.0,0.0,
3.8299580000000133,0.0,0.0,21115.0,0.0,0.0,0.0,0.0,0.25,4.481200713000001,3.7026134243055573,0.0,-30138.0,0.0,0.0,0.0,0.0,0.125,1.7614744290000002,1.2443895625000014,-0.0012207029999999897,22666.0,0.0,0.0,0.0,0.0,0.0,4.597167498,1.2385308333333347,0.003662108999999525,-1014.0,0.125,0.0,0.0,0.0,0.25,0.367431603,3.721943055555557,0.0012207030000004337,0.15000000596046448,-0.7200000286102295,0.25,0.01202392578125,-0.0460205078125,0.96905517578125,36.58000183105469,0.0,24.0,-4.845703125,1.82098388671875,Closing,0.0,0.0,0.0,0.0,0.0,0.0,0.0,0.0,
3.8739560000000055,0.0,0.0,21115.0,0.0,0.0,0.0,0.0,0.25,4.482421416,3.7026134243055573,0.0,-30138.0,0.0,0.0,0.0,0.0,0.125,1.7614744290000002,1.2443895625000014,0.0,22666.0,0.0,0.0,0.0,0.0,0.0,4.598388201000001,1.2385308333333347,0.0012207030000004337,-1014.0,0.125,0.0,0.0,0.0,0.125,0.372314415,3.721943055555557,0.003662108999999525,0.05000000074505806,-0.699999988079071,0.25,0.00921630859375,-0.05328369140625,1.0008544921875,36.58000183105469,0.0,21.0,-4.84576416015625,1.823394775390625,Closing,0.0,0.0,0.0,0.0,0.0,0.0,0.0,0.0,
3.9208099999999977,0.0,0.0,21115.0,0.0,0.0,0.0,0.0,0.25,4.482421416,3.7026134243055573,0.0,-30138.0,0.0,0.0,0.0,0.0,0.125,1.7614744290000002,1.2443895625000014,0.0,22666.0,0.0,0.0,0.0,0.0,0.0,4.598388201000001,1.2385308333333347,0.0,-1014.0,0.125,0.0,0.0,0.0,0.125,0.372314415,3.721943055555557,0.004882811999999959,-0.03999999910593033,-0.699999988079071,0.25,-0.0257568359375,-0.01641845703125,1.0235595703125,36.58000183105469,0.0,-13.0,-4.845733642578125,1.8252105712890625,Closing,0.0,0.0,0.0,0.0,0.0,0.0,0.0,0.0,
3.9686630000000003,0.0,0.0,21115.0,0.0,0.0,0.0,0.0,0.25,4.482421416,3.7026134243055573,0.0,-30138.0,0.0,0.0,0.0,0.0,0.125,1.7614744290000002,1.2443895625000014,0.0,22666.0,0.0,0.0,0.0,0.0,0.0,4.598388201000001,1.2385308333333347,0.0,-1014.0,0.125,0.0,0.0,0.0,0.125,0.372314415,3.721943055555557,0.0,-0.05999999865889549,-0.7200000286102295,0.2800000011920929,-0.01519775390625,0.00537109375,1.01715087890625,36.58000183105469,0.0,-2.0,-4.845733642578125,1.8252105712890625,Closing,0.0,0.0,0.0,0.0,0.0,0.0,0.0,0.0,
4.010456000000006,0.0,0.0,21115.0,0.0,0.0,0.0,0.0,0.25,4.483642119000001,3.7026134243055573,0.0,-30138.0,0.0,0.0,0.0,0.0,0.125,1.7614744290000002,1.2443895625000014,0.0,22666.0,0.0,0.0,0.0,0.0,0.0,4.599608904,1.2385308333333347,0.0,-1014.0,0.125,0.0,0.0,0.0,0.125,0.372314415,3.721943055555557,0.0,-0.03999999910593033,-0.7099999785423279,0.28999999165534973,0.0023193359375,0.0133056640625,1.0452880859375,36.58000183105469,0.0,15.0,-4.845733642578125,1.8252105712890625,Closing,0.0,0.0,0.0,0.0,0.0,0.0,0.0,0.0,
4.051771000000008,0.0,0.0,21115.0,0.0,0.0,0.0,0.0,0.25,4.482421416,3.7026134243055573,0.0,-30138.0,0.0,0.0,0.0,0.0,0.125,1.7614744290000002,1.2443895625000014,0.0,22666.0,0.0,0.0,0.0,0.0,0.0,4.598388201000001,1.2385308333333347,-0.0012207030000004337,-1014.0,0.125,0.0,0.0,0.0,0.125,0.372314415,3.721943055555557,0.0,-0.019999999552965164,-0.699999988079071,0.2800000011920929,-0.01800537109375,0.01141357421875,1.0269775390625,36.58000183105469,0.0,-5.0,-4.845733642578125,1.8252105712890625,Closing,0.0,0.0,0.0,0.0,0.0,0.0,0.0,0.0,
4.093048999999999,0.0,0.0,21115.0,0.0,0.0,0.0,0.0,0.25,4.483642119000001,3.7026134243055573,0.0,-30138.0,0.0,0.0,0.0,0.0,0.125,1.7614744290000002,1.2443895625000014,0.0,22666.0,0.0,0.0,0.0,0.0,0.0,4.598388201000001,1.2385308333333347,0.0,-1014.0,0.125,0.0,0.0,0.0,0.125,0.372314415,3.721943055555557,0.0,0.0,-0.7200000286102295,0.27000001072883606,-0.01947021484375,-0.0030517578125,1.02447509765625,36.58000183105469,0.0,-6.0,-4.845733642578125,1.8252105712890625,Closing,0.0,0.0,0.0,0.0,0.0,0.0,0.0,0.0,
4.135609000000025,0.0,0.0,21115.0,0.0,0.0,0.0,0.0,0.25,4.482421416,3.7026134243055573,0.0,-30138.0,0.0,0.0,0.0,0.0,0.125,1.7614744290000002,1.2443895625000014,0.0,22666.0,0.0,0.0,0.0,0.0,0.0,4.599608904,1.2385308333333347,0.0012207030000004337,-1014.0,0.125,0.0,0.0,0.0,0.125,0.372314415,3.721943055555557,0.0,0.0,-0.7099999785423279,0.27000001072883606,-0.01031494140625,-4.2724609375E-4,1.0272216796875,36.58000183105469,0.0,2.0,-4.845733642578125,1.8252105712890625,Closing,0.0,0.0,0.0,0.0,0.0,0.0,0.0,0.0,
4.184601000000024,0.0,0.0,21115.0,0.0,0.0,0.0,0.0,0.25,4.482421416,3.7026134243055573,0.0,-30138.0,0.0,0.0,0.0,0.0,0.125,1.7614744290000002,1.2443895625000014,0.0012207029999999897,22666.0,0.0,0.0,0.0,0.0,0.0,4.598388201000001,1.2385308333333347,0.0,-1014.0,0.125,0.0,0.0,0.0,0.125,0.371093712,3.721943055555557,0.0,-0.009999999776482582,-0.7099999785423279,0.27000001072883606,-0.02093505859375,-0.0015869140625,1.03125,36.58000183105469,0.0,-8.0,-4.845733642578125,1.8252105712890625,Closing,0.0,0.0,0.0,0.0,0.0,0.0,0.0,0.0,
4.2296040000000215,0.0,0.0,21115.0,0.0,0.0,0.0,0.0,0.25,4.482421416,3.7026134243055573,0.0,-30138.0,0.0,0.0,0.0,0.0,0.125,1.7614744290000002,1.2443895625000014,-0.0012207029999999897,22666.0,0.0,0.0,0.0,0.0,0.0,4.598388201000001,1.2385308333333347,-0.0012207030000004337,-1014.0,0.125,0.0,0.0,0.0,0.125,0.372314415,3.721943055555557,0.0,-0.009999999776482582,-0.7200000286102295,0.27000001072883606,-0.0106201171875,6.103515625E-4,1.0291748046875,36.58000183105469,0.0,2.0,-4.845733642578125,1.8252105712890625,Closing,0.0,0.0,0.0,0.0,0.0,0.0,0.0,0.0,
4.274956000000006,0.0,0.0,21115.0,0.375,0.0,-672.65625,0.0,0.25,4.483642119000001,3.7028874383969943,0.0,-30138.0,0.125,0.0,-672.65625,0.0,0.125,1.754150211,1.2446653276479334,0.0,22666.0,0.875,7.5,672.65625,0.0,0.0,4.597167498,1.2388053001472368,0.0,-1007.0,0.5,0.0,672.65625,0.0,0.125,0.371093712,3.7222185001477617,0.0,0.0,-0.7099999785423279,0.27000001072883606,-0.0140380859375,0.0,1.0220947265625,36.599998474121094,0.0,-1.0,-4.845733642578125,1.8252105712890625,Closing,0.0,0.0,0.0,0.0,0.0,0.0,0.0,0.0,
4.319706000000005,0.0,0.0,21115.0,5.875,-105.0,-1591.40625,0.0,0.25,4.482421416,3.7028874383969943,0.0,-30157.0,6.75,-105.0,-1591.40625,0.0,0.125,1.7663572410000001,1.2446653276479334,0.0,22690.0,4.875,75.0,1591.40625,0.0,0.0,4.580077656,1.2388053001472368,0.0,-1007.0,7.125,120.0,1591.40625,0.0,0.125,0.352783167,3.7222185001477617,0.0,0.019999999552965164,-0.7300000190734863,0.27000001072883606,-0.03460693359375,0.65264892578125,0.94708251953125,36.599998474121094,0.0,-19.0,-4.845733642578125,1.8256683349609375,Closing,0.0,0.0,0.0,0.0,0.0,0.0,0.0,0.0,
4.371766000000004,0.0,0.0,21080.0,6.75,-225.0,0.0,0.0,0.25,4.499511258,3.7028874383969943,0.0,-30157.0,11.0,-225.0,0.0,0.0,0.125,1.7663572410000001,1.2446653276479334,0.0012207029999999897,22690.0,7.875,180.0,0.0,0.0,0.0,4.575194844,1.2388053001472368,-0.023193357000000248,-1007.0,8.25,225.0,0.0,0.0,0.25,0.358886682,3.7222185001477617,-0.025634762999999783,0.7900000214576721,-0.6200000047683716,0.2199999988079071,0.0875244140625,0.50531005859375,0.73236083984375,36.599998474121094,0.0,97.0,-4.8460693359375,1.830078125,Closing,0.0,0.0,0.0,0.0,0.0,0.0,0.0,0.0,
4.41469200000001,0.0,0.0,21080.0,0.625,-187.5,0.0,0.0,0.25,4.499511258,3.7028874383969943,0.0,-30157.0,2.25,-202.5,0.0,0.0,0.125,1.7663572410000001,1.2446653276479334,0.0,22690.0,1.5,172.5,0.0,0.0,0.0,4.573974141,1.2388053001472368,-0.023193357000000248,-980.0,0.5,180.0,0.0,0.0,0.25,0.377197227,3.7222185001477617,0.01220703000000034,0.7599999904632568,-0.6899999976158142,0.20999999344348907,-0.03558349609375,-0.10595703125,1.0562744140625,36.599998474121094,0.0,-23.0,-4.8462677001953125,1.835418701171875,Closing,0.0,0.0,0.0,0.0,0.0,0.0,0.0,0.0,
4.45917300000001,0.0,0.0,21080.0,0.0,-45.0,0.0,0.0,0.125,4.493407743000001,3.7028874383969943,0.01586913900000031,-30172.0,0.0,-60.0,0.0,0.0,0.125,1.7663572410000001,1.2446653276479334,0.0,22696.0,0.0,75.0,0.0,0.0,0.0,4.575194844,1.2388053001472368,0.0,-980.0,0.125,52.5,0.0,0.0,0.25,0.39062496,3.7222185001477617,0.01220703000000034,0.5699999928474426,-0.7099999785423279,0.25,-0.05792236328125,-0.0965576171875,1.09649658203125,36.599998474121094,0.0,-44.0,-4.84619140625,1.839691162109375,Closing,0.0,0.0,0.0,0.0,0.0,0.0,0.0,0.125,
4.505143000000011,0.0,0.0,21080.0,0.0,-7.5,0.0,0.0,0.125,4.493407743000001,3.7028874383969943,-0.004882811999999959,-30172.0,0.0,-7.5,0.0,0.0,0.125,1.7651365380000001,1.2446653276479334,0.0,22696.0,0.0,7.5,0.0,0.0,0.0,4.575194844,1.2388053001472368,0.0,-980.0,0.125,30.0,0.0,0.0,0.125,0.39550777200000004,3.7222185001477617,0.0183105449999994,0.30000001192092896,-0.6800000071525574,0.2800000011920929,-0.00579833984375,-0.043701171875,0.85687255859375,36.599998474121094,0.0,4.0,-4.846160888671875,1.842071533203125,Closing,0.0,0.0,0.0,0.0,0.0,0.0,0.0,0.0,
4.550629000000016,0.0,0.0,21080.0,0.0,-67.5,0.0,0.0,0.125,4.494628446,3.7028874383969943,0.0,-30185.0,0.0,-60.0,0.0,0.0,0.125,1.7663572410000001,1.2446653276479334,0.0,22696.0,0.0,22.5,0.0,0.0,0.0,4.573974141,1.2388053001472368,0.0012207030000004337,-968.0,0.125,75.0,0.0,0.0,0.125,0.40039058400000005,3.7222185001477617,0.01953124800000028,0.09000000357627869,-0.6899999976158142,0.23000000417232513,0.0079345703125,-0.0936279296875,1.1453857421875,36.599998474121094,0.0,21.0,-4.84613037109375,1.843170166015625,Closing,0.0,0.0,0.0,0.0,0.0,0.0,0.0,0.0,
4.59138400000002,0.0,0.0,21080.0,0.0,-97.5,0.0,0.0,0.125,4.49218704,3.7028874383969943,0.0,-30185.0,0.0,-82.5,0.0,0.0,0.125,1.7663572410000001,1.2446653276479334,0.0,22702.0,0.0,37.5,0.0,0.0,0.0,4.575194844,1.2388053001472368,0.0,-968.0,0.125,75.0,0.0,0.0,0.25,0.399169881,3.7222185001477617,0.003662108999999969,-0.12999999523162842,-0.6800000071525574,0.2199999988079071,-0.02008056640625,-0.10089111328125,1.0029296875,36.599998474121094,0.0,-8.0,-4.8460845947265625,1.842926025390625,Closing,0.0,0.0,0.0,0.0,0.0,0.0,0.0,0.0,
4.634562000000005,0.0,0.0,21068.0,0.0,-60.0,0.0,0.0,0.125,4.493407743000001,3.7028874383969943,0.0,-30185.0,0.0,-30.0,0.0,0.0,0.125,1.7663572410000001,1.2446653276479334,0.0,22702.0,0.0,22.5,0.0,0.0,0.0,4.575194844,1.2388053001472368,-0.0012207030000004337,-967.0,0.125,30.0,0.0,0.0,0.25,0.399169881,3.7222185001477617,0.0,-0.23999999463558197,-0.699999988079071,0.27000001072883606,-0.0208740234375,-0.0106201171875,0.97100830078125,36.599998474121094,0.0,-8.0,-4.8460845947265625,1.8417510986328125,Closing,0.0,0.0,0.0,0.0,0.0,0.0,0.0,0.0,
4.677978000000003,0.0,0.0,21068.0,0.0,0.0,0.0,0.0,0.125,4.493407743000001,3.7028874383969943,0.0,-30186.0,0.0,-7.5,0.0,0.0,0.125,1.7651365380000001,1.2446653276479334,0.0,22702.0,0.0,0.0,0.0,0.0,0.0,4.573974141,1.2388053001472368,0.0,-967.0,0.0,0.0,0.0,0.0,0.25,0.40039058400000005,3.7222185001477617,0.0,-0.20999999344348907,-0.7099999785423279,0.28999999165534973,-0.0172119140625,0.006591796875,1.09820556640625,36.599998474121094,0.0,-3.0,-4.8460845947265625,1.84130859375,Closing,0.0,0.0,0.0,0.0,0.0,0.0,0.0,0.0,
4.730010000000009,0.0,0.0,21068.0,0.0,0.0,0.0,0.0,0.125,4.493407743000001,3.7028874383969943,0.0,-30186.0,0.0,0.0,0.0,0.0,0.125,1.7663572410000001,1.2446653276479334,0.0,22702.0,0.0,0.0,0.0,0.0,0.0,4.573974141,1.2388053001472368,0.0,-967.0,0.125,0.0,0.0,0.0,0.25,0.40039058400000005,3.7222185001477617,0.0,-0.1899999976158142,-0.6800000071525574,0.27000001072883606,-0.0145263671875,0.0042724609375,1.0347900390625,36.599998474121094,0.0,-2.0,-4.8460845947265625,1.84130859375,Closing,0.0,0.0,0.0,0.0,0.0,0.0,0.0,0.0,
4.772899000000005,0.0,0.0,21068.0,0.0,0.0,0.0,0.0,0.125,4.494628446,3.7028874383969943,0.0,-30186.0,0.0,0.0,0.0,0.0,0.125,1.7663572410000001,1.2446653276479334,0.0,22702.0,0.0,0.0,0.0,0.0,0.0,4.573974141,1.2388053001472368,0.0,-967.0,0.125,0.0,0.0,0.0,0.25,0.40039058400000005,3.7222185001477617,0.0,-0.1599999964237213,-0.699999988079071,0.27000001072883606,-0.01177978515625,0.009521484375,0.9915771484375,36.59000015258789,0.0,0.0,-4.8461761474609375,1.8414459228515625,Closing,0.0,0.0,0.0,0.0,0.0,0.0,0.0,0.0,
4.816524000000005,0.0,0.0,21068.0,0.0,0.0,0.0,0.0,0.125,4.494628446,3.7028874383969943,0.0,-30186.0,0.0,0.0,0.0,0.0,0.125,1.7663572410000001,1.2446653276479334,0.0,22702.0,0.0,0.0,0.0,0.0,0.0,4.575194844,1.2388053001472368,0.0,-967.0,0.125,0.0,0.0,0.0,0.25,0.40039058400000005,3.7222185001477617,0.0,-0.11999999731779099,-0.699999988079071,0.28999999165534973,-0.00897216796875,0.0325927734375,1.01568603515625,36.59000015258789,0.0,3.0,-4.8461761474609375,1.841522216796875,Closing,0.0,0.0,0.0,0.0,0.0,0.0,0.0,0.0,
4.8637750000000235,0.0,0.0,21068.0,0.0,0.0,0.0,0.0,0.125,4.493407743000001,3.7028874383969943,0.0,-30186.0,0.0,0.0,0.0,0.0,0.125,1.7651365380000001,1.2446653276479334,0.0,22702.0,0.0,0.0,0.0,0.0,0.0,4.575194844,1.2388053001472368,0.0,-967.0,0.125,0.0,0.0,0.0,0.25,0.40039058400000005,3.7222185001477617,0.0,-0.07999999821186066,-0.699999988079071,0.27000001072883606,-0.013916015625,0.007568359375,1.02349853515625,36.59000015258789,0.0,-1.0,-4.8461761474609375,1.8419036865234375,Closing,0.0,0.0,0.0,0.0,0.0,0.0,0.0,0.0,
4.910091000000015,0.0,0.0,21068.0,0.0,0.0,0.0,0.0,0.125,4.493407743000001,3.7028874383969943,0.0,-30186.0,0.0,0.0,0.0,0.0,0.125,1.7663572410000001,1.2446653276479334,0.0,22702.0,0.0,0.0,0.0,0.0,0.0,4.580077656,1.2388053001472368,0.0,-967.0,0.0,0.0,0.0,0.0,0.25,0.399169881,3.7222185001477617,0.0,-0.07999999821186066,-0.699999988079071,0.27000001072883606,-0.00927734375,-0.01409912109375,0.9935302734375,36.59000015258789,0.0,2.0,-4.8461761474609375,1.8419036865234375,Closing,0.0,0.0,0.0,0.0,0.0,0.0,0.0,0.0,
4.95302900000001,0.0,0.0,21068.0,0.0,0.0,0.0,0.0,0.125,4.494628446,3.7028874383969943,0.0,-30186.0,0.0,0.0,0.0,0.0,0.125,1.7663572410000001,1.2446653276479334,0.0,22702.0,0.0,0.0,0.0,0.0,0.0,4.573974141,1.2388053001472368,0.0,-967.0,0.125,0.0,0.0,0.0,0.25,0.40039058400000005,3.7222185001477617,0.0,-0.10000000149011612,-0.699999988079071,0.27000001072883606,-0.008544921875,-0.0067138671875,0.9998779296875,36.59000015258789,0.0,3.0,-4.8461761474609375,1.8419036865234375,Closing,0.0,0.0,0.0,0.0,0.0,0.0,0.0,0.0,
4.9929239999999995,0.0,0.0,21068.0,0.0,0.0,0.0,0.0,0.125,4.493407743000001,3.7028874383969943,0.0,-30186.0,0.0,0.0,0.0,0.0,0.125,1.7663572410000001,1.2446653276479334,0.0,22702.0,0.0,0.0,0.0,0.0,0.0,4.575194844,1.2388053001472368,0.0,-967.0,0.125,0.0,0.0,0.0,0.25,0.399169881,3.7222185001477617,0.0,-0.10000000149011612,-0.7099999785423279,0.27000001072883606,-0.0172119140625,-3.0517578125E-4,1.02520751953125,36.59000015258789,0.0,-4.0,-4.8461761474609375,1.8419036865234375,Closing,0.0,0.0,0.0,0.0,0.0,0.0,0.0,0.0,
5.036297000000021,0.0,0.0,21068.0,0.0,0.0,0.0,0.0,0.125,4.493407743000001,3.7028874383969943,0.0,-30186.0,0.0,0.0,0.0,0.0,0.125,1.7663572410000001,1.2446653276479334,0.0,22702.0,0.0,0.0,0.0,0.0,0.0,4.575194844,1.2388053001472368,0.0012207030000004337,-967.0,0.125,0.0,0.0,0.0,0.25,0.399169881,3.7222185001477617,0.0,-0.07999999821186066,-0.699999988079071,0.27000001072883606,-0.00799560546875,0.007080078125,1.02294921875,36.59000015258789,0.0,4.0,-4.8461761474609375,1.8419036865234375,Closing,0.0,0.0,0.0,0.0,0.0,0.0,0.0,0.0,
5.089020000000018,0.0,0.0,21068.0,0.0,0.0,0.0,0.0,0.125,4.494628446,3.7028874383969943,0.0,-30186.0,0.0,0.0,0.0,0.0,0.125,1.7663572410000001,1.2446653276479334,0.0,22702.0,0.0,0.0,0.0,0.0,0.0,4.573974141,1.2388053001472368,-0.0012207030000004337,-967.0,0.125,0.0,0.0,0.0,0.25,0.399169881,3.7222185001477617,0.0,-0.07999999821186066,-0.699999988079071,0.27000001072883606,-0.016845703125,-0.00341796875,1.00933837890625,36.59000015258789,0.0,-4.0,-4.8461761474609375,1.8419036865234375,Closing,0.0,0.0,0.0,0.0,0.0,0.0,0.0,0.0,
5.131953000000008,0.0,0.0,21068.0,0.0,0.0,0.0,0.0,0.125,4.49218704,3.7028874383969943,0.0,-30186.0,0.0,0.0,0.0,0.0,0.125,1.7663572410000001,1.2446653276479334,0.0,22702.0,0.0,0.0,0.0,0.0,0.0,4.575194844,1.2388053001472368,0.0012207030000004337,-967.0,0.125,0.0,0.0,0.0,0.25,0.399169881,3.7222185001477617,0.0,-0.07999999821186066,-0.7099999785423279,0.27000001072883606,-0.01171875,-0.0050048828125,1.0142822265625,36.59000015258789,0.0,0.0,-4.8461761474609375,1.8419036865234375,Closing,0.0,0.0,0.0,0.0,0.0,0.0,0.0,0.0,
5.175607000000018,0.0,0.0,21068.0,0.0,0.0,0.0,0.0,0.125,4.494628446,3.7028874383969943,0.0,-30186.0,0.0,0.0,0.0,0.0,0.125,1.7663572410000001,1.2446653276479334,0.0,22702.0,0.0,0.0,0.0,0.0,0.0,4.575194844,1.2388053001472368,-0.0012207030000004337,-967.0,0.125,0.0,0.0,0.0,0.25,0.399169881,3.7222185001477617,0.0,-0.07999999821186066,-0.7099999785423279,0.27000001072883606,-0.01397705078125,0.0032958984375,1.0238037109375,36.59000015258789,0.0,-1.0,-4.8461761474609375,1.8419036865234375,Closing,0.0,0.0,0.0,0.0,0.0,0.0,0.0,0.0,
5.222776000000013,0.0,0.0,21068.0,0.0,0.0,0.0,0.0,0.125,4.493407743000001,3.7028874383969943,0.0,-30186.0,0.0,0.0,0.0,0.0,0.125,1.7663572410000001,1.2446653276479334,0.0,22702.0,0.0,0.0,0.0,0.0,0.0,4.580077656,1.2388053001472368,-0.0012207030000004337,-967.0,0.125,0.0,0.0,0.0,0.25,0.40039058400000005,3.7222185001477617,0.0,-0.07000000029802322,-0.7099999785423279,0.2800000011920929,-0.01531982421875,0.0010986328125,1.02105712890625,36.59000015258789,0.0,-2.0,-4.8461761474609375,1.8419036865234375,Closing,0.0,0.0,0.0,0.0,0.0,0.0,0.0,0.0,
5.268648000000016,0.0,0.0,21068.0,0.0,0.0,0.0,0.0,0.125,4.494628446,3.7028874383969943,0.0,-30186.0,0.0,0.0,0.0,0.0,0.125,1.7663572410000001,1.2446653276479334,0.0,22702.0,0.0,0.0,0.0,0.0,0.0,4.575194844,1.2388053001472368,0.0,-967.0,0.125,0.0,0.0,0.0,0.25,0.40039058400000005,3.7222185001477617,0.0,-0.07000000029802322,-0.7099999785423279,0.27000001072883606,-0.0103759765625,-0.004638671875,1.0150146484375,36.59000015258789,0.0,2.0,-4.8461761474609375,1.8419036865234375,Closing,0.0,0.0,0.0,0.0,0.0,0.0,0.0,0.0,
5.31431700000001,0.0,0.0,21068.0,0.0,0.0,0.0,0.0,0.125,4.494628446,3.7028874383969943,0.0,-30186.0,0.0,0.0,0.0,0.0,0.125,1.7663572410000001,1.2446653276479334,0.0,22702.0,0.0,0.0,0.0,0.0,0.0,4.573974141,1.2388053001472368,0.0,-967.0,0.125,0.0,0.0,0.0,0.25,0.40039058400000005,3.7222185001477617,0.0,-0.07000000029802322,-0.7099999785423279,0.27000001072883606,-0.014892578125,3.662109375E-4,1.01885986328125,36.599998474121094,0.0,-2.0,-4.8461761474609375,1.8419036865234375,Closing,0.0,0.0,0.0,0.0,0.0,0.0,0.0,0.0,
5.359336999999999,0.0,0.0,21068.0,0.0,0.0,0.0,0.0,0.125,4.493407743000001,3.7028874383969943,0.0,-30186.0,0.0,0.0,0.0,0.0,0.125,1.7663572410000001,1.2446653276479334,0.0,22702.0,0.0,0.0,0.0,0.0,0.0,4.575194844,1.2388053001472368,0.0,-967.0,0.125,0.0,0.0,0.0,0.25,0.40039058400000005,3.7222185001477617,0.0,-0.07000000029802322,-0.7099999785423279,0.2800000011920929,-0.0125732421875,0.002197265625,1.018310546875,36.599998474121094,0.0,0.0,-4.8461761474609375,1.8419036865234375,Closing,0.0,0.0,0.0,0.0,0.0,0.0,0.0,0.0,
5.409885000000009,0.0,0.0,21068.0,0.0,0.0,0.0,0.0,0.125,4.494628446,3.7028874383969943,0.0,-30186.0,0.0,0.0,0.0,0.0,0.125,1.7663572410000001,1.2446653276479334,0.0,22702.0,0.0,0.0,0.0,0.0,0.0,4.573974141,1.2388053001472368,0.0,-967.0,0.125,0.0,0.0,0.0,0.25,0.399169881,3.7222185001477617,0.0,-0.07000000029802322,-0.7099999785423279,0.2800000011920929,-0.01141357421875,9.765625E-4,1.02313232421875,36.599998474121094,0.0,1.0,-4.8461761474609375,1.8419036865234375,Closing,0.0,0.0,0.0,0.0,0.0,0.0,0.0,0.125,
5.45296100000001,0.0,0.0,21068.0,0.0,0.0,0.0,0.0,0.125,4.493407743000001,3.7028874383969943,0.0,-30186.0,0.0,0.0,0.0,0.0,0.125,1.7663572410000001,1.2446653276479334,0.0,22702.0,0.0,0.0,0.0,0.0,0.0,4.575194844,1.2388053001472368,0.0,-967.0,0.125,0.0,0.0,0.0,0.25,0.40039058400000005,3.7222185001477617,0.0,-0.05999999865889549,-0.7200000286102295,0.27000001072883606,-0.01153564453125,-8.544921875E-4,1.0169677734375,36.599998474121094,0.0,1.0,-4.8461761474609375,1.8419036865234375,Closing,0.0,0.0,0.0,0.0,0.0,0.0,0.0,0.0,
5.527315000000002,0.0,0.0,21068.0,0.0,0.0,0.0,0.0,0.125,4.493407743000001,3.7028874383969943,0.0,-30186.0,0.0,0.0,0.0,0.0,0.125,1.7663572410000001,1.2446653276479334,0.0,22702.0,0.0,0.0,0.0,0.0,0.0,4.575194844,1.2388053001472368,0.0,-967.0,0.125,0.0,0.0,0.0,0.25,0.40039058400000005,3.7222185001477617,0.0,-0.07000000029802322,-0.7099999785423279,0.2800000011920929,-0.0130615234375,0.00286865234375,1.01678466796875,36.599998474121094,0.0,0.0,-4.8461761474609375,1.8419036865234375,Closing,0.0,0.0,0.0,0.0,0.0,0.0,0.0,0.0,
5.568042000000016,0.0,0.0,21068.0,0.0,0.0,0.0,0.0,0.125,4.493407743000001,3.7028874383969943,0.0,-30186.0,0.0,0.0,0.0,0.0,0.125,1.7663572410000001,1.2446653276479334,0.0,22702.0,0.0,0.0,0.0,0.0,0.0,4.573974141,1.2388053001472368,-0.0012207030000004337,-967.0,0.125,0.0,0.0,0.0,0.25,0.40039058400000005,3.7222185001477617,0.0,-0.05999999865889549,-0.7200000286102295,0.27000001072883606,-0.01318359375,0.003662109375,1.021728515625,36.599998474121094,0.0,0.0,-4.8461761474609375,1.8419036865234375,Closing,0.0,0.0,0.0,0.0,0.0,0.0,0.0,0.0,
5.613619000000006,0.0,0.0,21068.0,0.0,0.0,0.0,0.0,0.125,4.493407743000001,3.7028874383969943,0.0,-30186.0,0.0,0.0,0.0,0.0,0.125,1.7663572410000001,1.2446653276479334,0.0,22702.0,0.0,0.0,0.0,0.0,0.0,4.575194844,1.2388053001472368,0.0,-967.0,0.125,0.0,0.0,0.0,0.25,0.40039058400000005,3.7222185001477617,0.0,-0.05999999865889549,-0.7099999785423279,0.27000001072883606,-0.011474609375,-0.005615234375,1.02020263671875,36.599998474121094,0.0,1.0,-4.8461761474609375,1.8419036865234375,Closing,0.0,0.0,0.0,0.0,0.0,0.0,0.0,0.0,
5.654535000000004,0.0,0.0,21068.0,0.0,0.0,0.0,0.0,0.125,4.494628446,3.7028874383969943,0.0,-30186.0,0.0,0.0,0.0,0.0,0.125,1.7663572410000001,1.2446653276479334,0.0,22702.0,0.0,0.0,0.0,0.0,0.0,4.573974141,1.2388053001472368,0.0,-967.0,0.125,0.0,0.0,0.0,0.25,0.40161128700000004,3.7222185001477617,0.0,-0.05999999865889549,-0.7200000286102295,0.27000001072883606,-0.01470947265625,-0.0037841796875,1.01715087890625,36.599998474121094,0.0,-1.0,-4.8461761474609375,1.8419036865234375,Closing,0.0,0.0,0.0,0.0,0.0,0.0,0.0,0.0,
5.6945190000000006,0.0,0.0,21068.0,0.0,0.0,0.0,0.0,0.125,4.493407743000001,3.7028874383969943,0.0,-30186.0,0.0,0.0,0.0,0.0,0.125,1.7663572410000001,1.2446653276479334,0.0,22702.0,0.0,0.0,0.0,0.0,0.0,4.573974141,1.2388053001472368,0.0012207030000004337,-967.0,0.0,0.0,0.0,0.0,0.25,0.40039058400000005,3.7222185001477617,0.0,-0.05999999865889549,-0.7200000286102295,0.2800000011920929,-0.01226806640625,0.0,1.02252197265625,36.599998474121094,0.0,0.0,-4.8461761474609375,1.8419036865234375,Closing,0.0,0.0,0.0,0.0,0.0,0.0,0.0,0.0,
5.735803000000015,0.0,0.0,21068.0,0.0,0.0,0.0,0.0,0.125,4.493407743000001,3.7028874383969943,0.0,-30186.0,0.0,0.0,0.0,0.0,0.125,1.7663572410000001,1.2446653276479334,0.0,22702.0,0.0,0.0,0.0,0.0,0.0,4.575194844,1.2388053001472368,0.0012207029999995456,-967.0,0.0,0.0,0.0,0.0,0.25,0.40039058400000005,3.7222185001477617,0.0,-0.05999999865889549,-0.7200000286102295,0.2800000011920929,-0.01361083984375,3.0517578125E-4,1.0233154296875,36.599998474121094,0.0,0.0,-4.8461761474609375,1.8419036865234375,Closing,0.0,0.0,0.0,0.0,0.0,0.0,0.0,0.0,
5.7779330000000195,0.0,0.0,21068.0,0.0,0.0,0.0,0.0,0.125,4.493407743000001,3.7028874383969943,0.0,-30186.0,0.0,0.0,0.0,0.0,0.125,1.7663572410000001,1.2446653276479334,0.0,22702.0,0.0,0.0,0.0,0.0,0.0,4.575194844,1.2388053001472368,-0.0024414059999999793,-967.0,0.0,0.0,0.0,0.0,0.25,0.40039058400000005,3.7222185001477617,0.0,-0.05999999865889549,-0.7200000286102295,0.2800000011920929,-0.01409912109375,-3.662109375E-4,1.01910400390625,36.599998474121094,0.0,-1.0,-4.8461761474609375,1.8419036865234375,Closing,0.0,0.0,0.0,0.0,0.0,0.0,0.0,0.0,
5.819256000000023,0.0,0.0,21068.0,0.0,0.0,0.0,0.0,0.125,4.493407743000001,3.7028874383969943,0.0,-30186.0,0.0,0.0,0.0,0.0,0.125,1.7663572410000001,1.2446653276479334,0.0,22702.0,0.0,0.0,0.0,0.0,0.0,4.575194844,1.2388053001472368,-0.0024414059999999793,-967.0,0.125,0.0,0.0,0.0,0.25,0.40039058400000005,3.7222185001477617,0.0,-0.05999999865889549,-0.7200000286102295,0.2800000011920929,-0.00946044921875,-3.0517578125E-4,1.0224609375,36.59000015258789,0.0,3.0,-4.8461761474609375,1.8419036865234375,Closing,0.0,0.0,0.0,0.0,0.0,0.0,0.0,0.0,
5.8606260000000185,0.0,0.0,21068.0,0.0,0.0,0.0,0.0,0.125,4.493407743000001,3.7028874383969943,0.0,-30186.0,0.0,0.0,0.0,0.0,0.125,1.7651365380000001,1.2446653276479334,0.0,22702.0,0.0,0.0,0.0,0.0,0.0,4.575194844,1.2388053001472368,0.003662109000000413,-967.0,0.125,0.0,0.0,0.0,0.25,0.40039058400000005,3.7222185001477617,0.0,-0.05000000074505806,-0.7300000190734863,0.2800000011920929,-0.01544189453125,0.00140380859375,1.01556396484375,36.59000015258789,0.0,-2.0,-4.8461761474609375,1.8419036865234375,Closing,0.0,0.0,0.0,0.0,0.0,0.0,0.0,0.0,
