Time,ClimberA1,ClimberA2,FRpos,FRCurrent,FRspeed,FRsetpoint,FRApos,FRACurrent,FREncpos,FREncSetpoint,FREncSpeed,FLpos,FLCurrent,FLspeed,FLsetpoint,FLApos,FLACurrent,FLEncpos,FLEncSetpoint,FLEncSpeed,BRpos,BRCurrent,BRspeed,BRsetpoint,BRApos,BRACurrent,BREncpos,BREncSetpoint,BREncSpeed,BLpos,BLCurrent,BLspeed,BLsetpoint,BLApos,BLACurrent,BLEncpos,BLEncSetpoint,BLEncSpeed,navx_Pitch,navx_Roll,navx_Yaw,navx_XAcc,navx_YAcc,navx_ZAcc,navx_Temp,navx_Bar,navx_Alt,navx_XDis,navx_YDis,GearPlacerState,ShootOutputV,ShootOutputCurrent,ShootEncPos,ShootEncVelocity,ShootSpeed,ShootSetpoint,CarouselSetpoint,CarouselCurrent,
0.13798600000003353,0.0,0.0,150996.0,0.0,0.0,0.0,0.0,0.125,0.834960852,0.01,0.0,-148347.0,0.0,0.0,-0.0,0.0,0.25,0.560302677,0.01,0.0,150933.0,0.0,0.0,0.0,0.0,0.0,3.3251949720000002,0.01,0.0,-102996.0,0.125,0.0,-0.0,0.0,0.25,1.699218576,0.01,0.0,-0.38999998569488525,-0.6100000143051147,0.0,-0.01458740234375,-0.0079345703125,1.01739501953125,36.650001525878906,0.0,-3.0,-4.4435882568359375,3.00201416015625,Opening,0.0,0.0,0.0,0.0,0.0,0.0,0.0,0.0,
0.26973399999999675,0.0,0.0,150996.0,0.0,0.0,0.0,0.0,0.125,0.834960852,0.01,0.0,-148347.0,0.0,0.0,0.0,0.0,0.25,0.560302677,0.01,0.0,150933.0,0.0,0.0,0.0,0.0,0.0,3.328857081,0.01,0.0,-102996.0,0.125,0.0,0.0,0.0,0.25,1.697997873,0.01,0.0,-0.38999998569488525,-0.6100000143051147,0.0,-0.00946044921875,-0.0062255859375,1.02313232421875,36.650001525878906,0.0,1.0,-4.4435882568359375,3.00201416015625,Opening,0.0,0.0,0.0,0.0,0.0,0.0,0.0,0.0,
0.40921900000004097,0.0,0.0,150996.0,0.0,0.0,0.0,0.0,0.125,0.834960852,0.01,0.0,-148347.0,0.0,0.0,0.0,0.0,0.25,0.560302677,0.01,0.0,150933.0,0.0,0.0,0.0,0.0,0.0,3.3239742690000003,0.01,0.0,-102996.0,0.125,0.0,0.0,0.0,0.5,1.699218576,0.01,0.0,-0.38999998569488525,-0.6100000143051147,0.0,-0.0093994140625,-0.00677490234375,1.01806640625,36.650001525878906,0.0,1.0,-4.4435882568359375,3.00201416015625,Opening,0.0,0.0,0.0,0.0,0.0,0.0,0.0,0.0,
0.5427150000000256,0.0,0.0,150996.0,0.0,0.0,0.0,0.0,0.125,0.834960852,0.01,0.0,-148347.0,0.0,0.0,0.0,0.0,0.25,0.560302677,0.01,0.0,150933.0,0.0,0.0,0.0,0.0,0.0,3.3251949720000002,0.01,0.0,-102996.0,0.125,0.0,0.0,0.0,0.25,1.69677717,0.01,0.0,-0.38999998569488525,-0.6100000143051147,0.0,-0.01171875,-0.00677490234375,1.02362060546875,36.650001525878906,0.0,0.0,-4.4435882568359375,3.00201416015625,Opening,0.0,0.0,0.0,0.0,0.0,0.0,0.0,0.0,
0.6712609999999986,0.0,0.0,150996.0,0.0,0.0,0.0,0.0,0.125,0.834960852,0.01,0.0,-148347.0,0.0,0.0,0.0,0.0,0.25,0.560302677,0.01,0.0,150933.0,0.0,0.0,0.0,0.0,0.0,3.3251949720000002,0.01,0.0,-102996.0,0.125,0.0,0.0,0.0,0.5,1.697997873,0.01,0.0,-0.38999998569488525,-0.6200000047683716,0.0,-0.01043701171875,-0.00640869140625,1.0205078125,36.630001068115234,0.0,0.0,-4.4435882568359375,3.00201416015625,Opening,0.0,0.0,0.0,0.0,0.0,0.0,0.0,0.0,
0.8103710000000428,0.0,0.0,150996.0,0.0,0.0,0.0,0.0,0.125,0.837402258,0.01,0.0,-148347.0,0.0,0.0,0.0,0.0,0.25,0.559081974,0.01,0.0,150933.0,0.0,0.0,0.0,0.0,0.0,3.3264156750000002,0.01,0.0,-102996.0,0.125,0.0,0.0,0.0,0.25,1.699218576,0.01,0.0,-0.3799999952316284,-0.6100000143051147,0.009999999776482582,-0.0091552734375,-0.0057373046875,1.02203369140625,36.630001068115234,0.0,1.0,-4.4435882568359375,3.00201416015625,Opening,0.0,0.0,0.0,0.0,0.0,0.0,0.0,0.0,
0.9492580000000307,0.0,0.0,150996.0,0.0,0.0,0.0,0.0,0.125,0.834960852,0.01,0.0,-148347.0,0.0,0.0,0.0,0.0,0.25,0.560302677,0.01,0.0,150933.0,0.0,0.0,0.0,0.0,0.0,3.3251949720000002,0.01,0.0,-102996.0,0.125,0.0,0.0,0.0,0.25,1.697997873,0.01,0.0,-0.3799999952316284,-0.6100000143051147,0.009999999776482582,-0.01068115234375,-0.00738525390625,1.01708984375,36.630001068115234,0.0,0.0,-4.4435882568359375,3.00201416015625,Opening,0.0,0.0,0.0,0.0,0.0,0.0,0.0,0.0,
1.0860400000000372,0.0,0.0,150996.0,0.0,0.0,0.0,0.0,0.125,0.832519446,0.01,0.0,-148347.0,0.0,0.0,-0.0,0.0,0.25,0.560302677,0.01,0.0,150933.0,0.0,0.0,0.0,0.0,0.0,3.3251949720000002,0.01,0.0,-102996.0,0.125,0.0,-0.0,0.0,0.25,1.697997873,0.01,0.0,-0.38999998569488525,-0.6100000143051147,0.009999999776482582,-0.0091552734375,-0.0084228515625,1.01971435546875,36.630001068115234,0.0,1.0,-4.4435882568359375,3.00201416015625,Opening,0.0,0.0,0.0,0.0,0.0,0.0,0.0,0.0,
1.2168400000000257,0.0,0.0,150996.0,0.0,0.0,0.0,0.0,0.125,0.833740149,0.01,0.0,-148347.0,0.0,0.0,-0.0,0.0,0.25,0.560302677,0.01,0.0,150933.0,0.0,0.0,0.0,0.0,0.0,3.3251949720000002,0.01,0.0,-102996.0,0.125,0.0,-0.0,0.0,0.25,1.697997873,0.01,0.0,-0.3799999952316284,-0.6100000143051147,0.009999999776482582,-0.0126953125,-0.0050048828125,1.0164794921875,36.61000061035156,0.0,-1.0,-4.4435882568359375,3.00201416015625,Opening,0.0,0.0,0.0,0.0,0.0,0.0,0.0,0.0,
1.3632119999999994,0.0,0.0,150996.0,0.0,0.0,0.0,0.0,0.125,0.833740149,0.01,0.0,-148347.0,0.0,0.0,-0.0,0.0,0.25,0.560302677,0.01,0.0,150933.0,0.0,0.0,0.0,0.0,0.0,3.3251949720000002,0.01,0.0,-102996.0,0.125,0.0,-0.0,0.0,0.25,1.697997873,0.01,0.0,-0.3799999952316284,-0.6100000143051147,0.009999999776482582,-0.0125732421875,-0.00286865234375,1.0242919921875,36.61000061035156,0.0,-1.0,-4.4435882568359375,3.00201416015625,Opening,0.0,0.0,0.0,0.0,0.0,0.0,0.0,0.0,
1.4946410000000032,0.0,0.0,150996.0,0.0,0.0,0.0,0.0,0.125,0.834960852,0.01,0.0,-148347.0,0.0,0.0,-0.0,0.0,0.25,0.559081974,0.01,0.0,150933.0,0.0,0.0,0.0,0.0,0.0,3.3239742690000003,0.01,0.0,-102996.0,0.125,0.0,-0.0,0.0,0.25,1.697997873,0.01,0.0,-0.38999998569488525,-0.6200000047683716,0.009999999776482582,-0.0098876953125,-0.00726318359375,1.019287109375,36.61000061035156,0.0,1.0,-4.4435882568359375,3.00201416015625,Opening,0.0,0.0,0.0,0.0,0.0,0.0,0.0,0.0,
1.6286810000000405,0.0,0.0,150996.0,0.0,0.0,0.0,0.0,0.125,0.834960852,0.01,0.0,-148347.0,0.0,0.0,-0.0,0.0,0.25,0.560302677,0.01,0.0,150933.0,0.0,0.0,0.0,0.0,0.0,3.3251949720000002,0.01,0.0,-102996.0,0.125,0.0,-0.0,0.0,0.25,1.697997873,0.01,0.0,-0.38999998569488525,-0.6200000047683716,0.009999999776482582,-0.01031494140625,-0.00714111328125,1.026123046875,36.61000061035156,0.0,0.0,-4.4435882568359375,3.00201416015625,Opening,0.0,0.0,0.0,0.0,0.0,0.0,0.0,0.0,
1.7674839999999967,0.0,0.0,150996.0,0.0,0.0,0.0,0.0,0.125,0.834960852,0.01,0.0,-148347.0,0.0,0.0,-0.0,0.0,0.25,0.560302677,0.01,0.0,150933.0,0.0,0.0,0.0,0.0,0.0,3.3251949720000002,0.01,0.0,-102996.0,0.125,0.0,-0.0,0.0,0.25,1.697997873,0.01,0.0,-0.38999998569488525,-0.6200000047683716,0.009999999776482582,-0.01348876953125,-0.009521484375,1.02069091796875,36.61000061035156,0.0,-2.0,-4.4435882568359375,3.00201416015625,Opening,0.0,0.0,0.0,0.0,0.0,0.0,0.0,0.0,
1.9065460000000312,0.0,0.0,150996.0,0.0,0.0,0.0,0.0,0.125,0.834960852,0.01,0.0,-148347.0,0.0,0.0,-0.0,0.0,0.25,0.560302677,0.01,0.0,150933.0,0.0,0.0,0.0,0.0,0.0,3.3264156750000002,0.01,0.0,-102996.0,0.125,0.0,-0.0,0.0,0.25,1.697997873,0.01,0.0,-0.38999998569488525,-0.6200000047683716,0.009999999776482582,-0.01177978515625,-0.003173828125,1.01666259765625,36.61000061035156,0.0,0.0,-4.4435882568359375,3.00201416015625,Opening,0.0,0.0,0.0,0.0,0.0,0.0,0.0,0.0,
2.0378620000000227,0.0,0.0,150996.0,0.0,0.0,0.0,0.0,0.125,0.834960852,0.01,0.0,-148347.0,0.0,0.0,-0.0,0.0,0.25,0.559081974,0.01,0.0,150933.0,0.0,0.0,0.0,0.0,0.0,3.3251949720000002,0.01,0.0,-102996.0,0.125,0.0,-0.0,0.0,0.25,1.697997873,0.01,0.0,-0.38999998569488525,-0.6299999952316284,0.0,-0.006591796875,-0.02862548828125,1.0184326171875,36.61000061035156,0.0,4.0,-4.4435882568359375,3.001983642578125,Closing,0.0,0.0,0.0,0.0,0.0,0.0,0.0,0.0,
2.1733369999999996,0.0,0.0,150996.0,0.0,0.0,0.0,0.0,0.125,0.833740149,0.01,0.0,-148347.0,0.0,0.0,-0.0,0.0,0.25,0.560302677,0.01,0.0,150933.0,0.0,0.0,0.0,0.0,0.0,3.3251949720000002,0.01,0.0,-102996.0,0.125,0.0,-0.0,0.0,0.25,1.697997873,0.01,0.0,-0.4000000059604645,-0.6299999952316284,0.0,-0.02105712890625,-0.00714111328125,1.05181884765625,36.59000015258789,0.0,-9.0,-4.4435882568359375,3.001861572265625,Closing,0.0,0.0,0.0,0.0,0.0,0.0,0.0,0.0,
2.310149000000034,0.0,0.0,150996.0,0.0,0.0,0.0,0.0,0.125,0.834960852,0.01,0.0,-148347.0,0.0,0.0,-0.0,0.0,0.25,0.559081974,0.01,0.0,150933.0,0.0,0.0,0.0,0.0,0.0,3.3251949720000002,0.01,0.0,-102996.0,0.125,0.0,-0.0,0.0,0.25,1.697997873,0.01,0.0,-0.38999998569488525,-0.6299999952316284,0.0,-0.01287841796875,-0.02239990234375,1.03564453125,36.59000015258789,0.0,-1.0,-4.4435882568359375,3.0018768310546875,Closing,0.0,0.0,0.0,0.0,0.0,0.0,0.0,0.0,
2.4493060000000404,0.0,0.0,150996.0,0.0,0.0,0.0,0.0,0.125,0.834960852,0.01,0.0,-148347.0,0.0,0.0,-0.0,0.0,0.25,0.560302677,0.01,0.0,150933.0,0.0,0.0,0.0,0.0,0.0,3.3251949720000002,0.01,0.0,-102996.0,0.125,0.0,-0.0,0.0,0.25,1.695556467,0.01,0.0,-0.4000000059604645,-0.6299999952316284,-0.009999999776482582,-0.02130126953125,0.00421142578125,1.072265625,36.59000015258789,0.0,-9.0,-4.4435882568359375,3.0018768310546875,Closing,0.0,0.0,0.0,0.0,0.0,0.0,0.0,0.0,
2.584080000000016,0.0,0.0,150996.0,0.0,0.0,0.0,0.0,0.125,0.834960852,0.01,0.0,-148347.0,0.0,0.0,-0.0,0.0,0.25,0.559081974,0.01,0.0,150933.0,0.0,0.0,0.0,0.0,0.0,3.3264156750000002,0.01,0.0,-102996.0,0.125,0.0,-0.0,0.0,0.25,1.697997873,0.01,0.0,-0.4099999964237213,-0.6299999952316284,-0.019999999552965164,-0.00360107421875,-0.00152587890625,1.01568603515625,36.59000015258789,0.0,7.0,-4.4435882568359375,3.0018768310546875,Closing,0.0,0.0,0.0,0.0,0.0,0.0,0.0,0.0,
2.723863000000012,0.0,0.0,150996.0,0.0,0.0,0.0,0.0,0.125,0.833740149,0.01,0.0,-148347.0,0.0,0.0,-0.0,0.0,0.25,0.559081974,0.01,0.0,150933.0,0.0,0.0,0.0,0.0,0.0,3.3264156750000002,0.01,0.0,-102996.0,0.125,0.0,-0.0,0.0,0.25,1.697997873,0.01,0.0,-0.4099999964237213,-0.6299999952316284,-0.019999999552965164,-0.013916015625,-0.00469970703125,1.0191650390625,36.61000061035156,0.0,-2.0,-4.4435882568359375,3.001739501953125,Closing,0.0,0.0,0.0,0.0,0.0,0.0,0.0,0.0,
2.8613470000000087,0.0,0.0,150996.0,0.0,0.0,0.0,0.0,0.125,0.833740149,0.01,0.0,-148347.0,0.0,0.0,-0.0,0.0,0.25,0.559081974,0.01,0.0,150933.0,0.0,0.0,0.0,0.0,0.0,3.328857081,0.01,0.0,-102996.0,0.125,0.0,-0.0,0.0,0.25,1.699218576,0.01,0.0,-0.4000000059604645,-0.6299999952316284,-0.029999999329447746,-0.00958251953125,-0.00225830078125,1.02825927734375,36.61000061035156,0.0,1.0,-4.4435882568359375,3.0018463134765625,Closing,0.0,0.0,0.0,0.0,0.0,0.0,0.0,0.0,
2.9933319999999948,0.0,0.0,150996.0,0.0,0.0,0.0,0.0,0.125,0.834960852,0.01,0.0,-148347.0,0.0,0.0,-0.0,0.0,0.25,0.560302677,0.01,0.0,150933.0,0.0,0.0,0.0,0.0,0.0,3.3251949720000002,0.01,0.0,-102996.0,0.125,0.0,-0.0,0.0,0.25,1.697997873,0.01,0.0,-0.38999998569488525,-0.6200000047683716,-0.03999999910593033,-0.007568359375,0.01434326171875,1.0316162109375,36.61000061035156,0.0,3.0,-4.4435882568359375,3.0019683837890625,Closing,0.0,0.0,0.0,0.0,0.0,0.0,0.0,0.0,
3.127649000000034,0.0,0.0,150996.0,0.0,0.0,0.0,0.0,0.125,0.834960852,0.01,0.0,-148347.0,0.0,0.0,-0.0,0.0,0.25,0.560302677,0.01,0.0,150933.0,0.0,0.0,0.0,0.0,0.0,3.3251949720000002,0.01,0.0,-102996.0,0.125,0.0,-0.0,0.0,0.5,1.695556467,0.01,0.0,-0.4000000059604645,-0.6299999952316284,-0.03999999910593033,-0.01556396484375,-0.01190185546875,1.01690673828125,36.61000061035156,0.0,-4.0,-4.4435882568359375,3.001953125,Closing,0.0,0.0,0.0,0.0,0.0,0.0,0.0,0.0,
3.266217000000004,0.0,0.0,150996.0,0.0,0.0,0.0,0.0,0.125,0.834960852,0.01,0.0,-148347.0,0.0,0.0,-0.0,0.0,0.25,0.560302677,0.01,0.0,150933.0,0.0,0.0,0.0,0.0,0.0,3.3251949720000002,0.01,0.0,-102996.0,0.125,0.0,-0.0,0.0,0.25,1.699218576,0.01,0.0,-0.4000000059604645,-0.6299999952316284,-0.03999999910593033,-0.01446533203125,-0.01165771484375,1.01226806640625,36.61000061035156,0.0,-3.0,-4.4435882568359375,3.001953125,Closing,0.0,0.0,0.0,0.0,0.0,0.0,0.0,0.0,
3.404829000000027,0.0,0.0,150996.0,0.0,0.0,0.0,0.0,0.125,0.834960852,0.01,0.0,-148347.0,0.0,0.0,-0.0,0.0,0.25,0.560302677,0.01,0.0,150933.0,0.0,0.0,0.0,0.0,0.0,3.3251949720000002,0.01,0.0,-102996.0,0.125,0.0,-0.0,0.0,0.25,1.697997873,0.01,0.0,-0.4000000059604645,-0.6299999952316284,-0.05000000074505806,-0.00994873046875,-0.00750732421875,1.01629638671875,36.61000061035156,0.0,1.0,-4.4435882568359375,3.001953125,Closing,0.0,0.0,0.0,0.0,0.0,0.0,0.0,0.0,
3.5338120000000344,0.0,0.0,150996.0,0.0,0.0,0.0,0.0,0.125,0.834960852,0.01,0.0,-148347.0,0.0,0.0,-0.0,0.0,0.25,0.560302677,0.01,0.0,150933.0,0.0,0.0,0.0,0.0,0.0,3.3264156750000002,0.01,0.0,-102996.0,0.125,0.0,-0.0,0.0,0.25,1.697997873,0.01,0.0,-0.4000000059604645,-0.6299999952316284,-0.05000000074505806,-0.00970458984375,-0.00787353515625,1.0181884765625,36.61000061035156,0.0,1.0,-4.4435882568359375,3.001953125,Closing,0.0,0.0,0.0,0.0,0.0,0.0,0.0,0.0,
3.674,0.0,0.0,150996.0,0.0,0.0,0.0,0.0,0.125,0.834960852,0.01,0.0,-148347.0,0.0,0.0,-0.0,0.0,0.25,0.560302677,0.01,0.0,150933.0,0.0,0.0,0.0,0.0,0.0,3.3251949720000002,0.01,0.0,-102996.0,0.125,0.0,-0.0,0.0,0.25,1.699218576,0.01,0.0,-0.4099999964237213,-0.6299999952316284,-0.05999999865889549,-0.00994873046875,-0.00714111328125,1.0186767578125,36.59000015258789,0.0,1.0,-4.4435882568359375,3.001953125,Closing,0.0,0.0,0.0,0.0,0.0,0.0,0.0,0.0,
3.80864300000004,0.0,0.0,150996.0,0.0,0.0,0.0,0.0,0.125,0.834960852,0.01,0.0,-148347.0,0.0,0.0,-0.0,0.0,0.25,0.560302677,0.01,0.0,150933.0,0.0,0.0,0.0,0.0,0.0,3.3276363780000002,0.01,0.0,-102996.0,0.125,0.0,-0.0,0.0,0.25,1.699218576,0.01,0.0,-0.4099999964237213,-0.6299999952316284,-0.07000000029802322,-0.01165771484375,-0.00701904296875,1.015869140625,36.59000015258789,0.0,0.0,-4.4435882568359375,3.001953125,Closing,0.0,0.0,0.0,0.0,0.0,0.0,0.0,0.0,
3.94901800000004,0.0,0.0,150996.0,0.0,0.0,0.0,0.0,0.125,0.834960852,0.01,0.0,-148347.0,0.0,0.0,-0.0,0.0,0.25,0.559081974,0.01,0.0,150933.0,0.0,0.0,0.0,0.0,0.0,3.3251949720000002,0.01,0.0,-102996.0,0.125,0.0,-0.0,0.0,0.25,1.697997873,0.01,0.0,-0.4099999964237213,-0.6299999952316284,-0.07000000029802322,-0.00885009765625,-0.0093994140625,1.0179443359375,36.59000015258789,0.0,2.0,-4.4435882568359375,3.001953125,Closing,0.0,0.0,0.0,0.0,0.0,0.0,0.0,0.0,
4.085652999999991,0.0,0.0,150994.0,0.375,-7.5,-314.17323499917984,0.0,0.25,0.832519446,4.932250999999998,0.0,-148347.0,0.875,0.0,314.17323499917984,0.0,0.25,0.560302677,4.963769999999998,0.0,150933.0,0.625,0.0,-314.17323499917984,0.0,0.0,3.3215328630000003,0.01,0.0,-102996.0,1.0,0.0,314.17323499917984,0.0,0.25,1.699218576,0.01,0.0,-0.4000000059604645,-0.6299999952316284,-0.07000000029802322,-0.00726318359375,-0.0081787109375,1.02020263671875,36.59000015258789,0.0,4.0,-4.4435882568359375,3.001953125,Closing,0.0,0.0,0.0,0.0,0.0,0.0,0.0,0.0,
4.226451000000001,0.0,0.0,150954.0,17.75,-172.5,-1653.5432696342468,0.0,0.25,0.833740149,4.932250999999998,0.0,-148338.0,24.0,180.0,1653.5432696342468,0.0,0.25,0.565185489,4.963769999999998,0.0,150932.0,15.5,-22.5,-1653.5432696342468,0.0,0.0,3.330077784,0.01,0.0,-102993.0,19.5,180.0,1653.5432696342468,0.0,0.25,1.5808103850000002,0.01,0.0,-0.5,-2.1700000762939453,0.009999999776482582,-0.48175048828125,-0.0665283203125,1.0618896484375,36.61000061035156,0.0,-441.0,-4.452911376953125,3.000030517578125,Closing,0.0,0.0,0.0,0.0,0.0,0.0,0.0,0.0,
4.366311000000045,0.0,0.0,150823.0,11.0,-862.5,-1405.5117666721344,0.0,0.25,0.833740149,4.932250999999998,0.0,-148265.0,17.0,840.0,1405.5117666721344,0.0,0.25,0.5566405680000001,4.963769999999998,0.0,150899.0,19.375,-292.5,-1405.5117666721344,0.0,0.0,3.328857081,0.01,0.0,-102795.0,13.875,810.0,1405.5117666721344,0.0,0.25,1.564941246,0.01,0.0,-0.4099999964237213,-3.950000047683716,0.7099999785423279,-0.2747802734375,-0.0660400390625,0.87188720703125,36.61000061035156,0.0,-214.0,-4.498504638671875,2.9963226318359375,Closing,0.0,0.0,0.0,0.0,0.0,0.0,0.0,0.0,
4.504271000000008,0.0,0.0,150617.0,4.375,-1327.5,-1256.6929399967194,0.0,0.25,0.811767495,4.932250999999998,0.0,-147900.0,8.375,1215.0,1256.6929399967194,0.0,0.25,0.550537053,4.963769999999998,0.0,150834.0,21.75,-412.5,-1256.6929399967194,0.0,0.0,3.330077784,0.01,0.0,-102605.0,7.875,1162.5,1256.6929399967194,0.0,0.25,1.5783689790000002,0.01,0.0,-0.3199999928474426,-4.980000019073486,2.6500000953674316,-0.155517578125,0.07135009765625,1.0955810546875,36.61000061035156,0.0,-55.0,-4.5751800537109375,2.9935760498046875,Closing,0.0,0.0,0.0,0.0,0.0,0.0,0.0,0.0,
4.64326800000004,0.0,0.0,150383.0,0.0,-1410.0,-886.4528859513548,0.0,0.375,0.6726073530000001,4.714080183050748,0.0,-147661.0,5.75,1477.5,1449.9959108304874,0.0,0.25,0.438232377,4.830631332173187,0.0,150716.0,23.0,-367.5,-886.4528859513548,0.0,0.125,3.4692379260000004,0.21853127589331647,0.0,-102377.0,6.0,1455.0,1449.9959108304874,0.0,0.375,1.7163084180000001,0.13298390438826474,0.0,0.2800000011920929,-5.0,4.269999980926514,-0.05670166015625,-0.10443115234375,1.06695556640625,36.61000061035156,0.0,28.0,-4.6593017578125,3.0001373291015625,Closing,0.0,0.0,0.0,0.0,0.0,0.0,0.0,0.0,
4.784633000000031,0.0,0.0,150150.0,0.0,-1335.0,-750.6108072480018,0.0,0.5,0.371093712,4.40743632569842,0.0,-147373.0,3.25,1830.0,1755.6482268384514,0.0,0.25,0.30395504700000003,4.7518751487245545,0.0,150629.0,25.5,-525.0,-750.6108072480018,0.0,0.25,3.825683202,0.5256817661792815,0.0,-102107.0,4.25,1800.0,1755.6482268384514,0.0,0.375,1.8103025490000002,0.21164853984444454,0.0,0.07000000029802322,-4.400000095367432,0.46000000834465027,0.12469482421875,-0.083984375,0.56488037109375,36.59000015258789,0.0,167.0,-4.7281951904296875,3.0087738037109375,Closing,0.0,0.0,0.0,0.0,0.0,0.0,0.0,0.0,
4.926069000000018,0.0,0.0,149961.0,0.0,-997.5,-747.4948757938815,0.0,0.25,0.18310545,4.390555486977327,0.0,-147067.0,0.75,1950.0,1770.559252884102,0.0,0.0,0.229492164,4.748808929631201,0.0,150528.0,31.375,-645.0,-747.4948757938815,0.0,0.125,4.0283199000000005,0.5425904951992948,0.0,-101797.0,1.125,1965.0,1770.559252884102,0.0,0.25,1.8383787180000002,0.21471119469445693,0.0,-0.10000000149011612,-3.3399999141693115,-10.279999732971191,0.14959716796875,-0.14434814453125,1.02337646484375,36.59000015258789,0.0,231.0,-4.7808685302734375,3.0062103271484375,Closing,0.0,0.0,0.0,0.0,0.0,0.0,0.0,0.0,
5.063092999999993,0.0,0.0,149665.0,0.125,-907.5,-734.8180759921669,0.0,0.25,0.16113279600000002,4.37931012042482,0.0,-146729.0,0.0,2092.5,1754.6378147649702,0.0,0.25,0.24047849100000002,4.746808073752938,0.0,150424.0,34.25,-645.0,-734.8180759921669,0.0,0.125,4.044189039,0.5538544411979893,0.0,-101475.0,0.375,2062.5,1754.6378147649702,0.0,0.125,1.8371580150000002,0.2167097247319953,0.0,-0.6600000262260437,-2.7899999618530273,-24.68000030517578,-0.306884765625,-0.073486328125,0.98895263671875,36.59000015258789,0.0,-208.0,-4.8184967041015625,2.9792327880859375,Closing,0.0,0.0,0.0,0.0,0.0,0.0,0.0,0.0,
5.207786000000022,0.0,0.0,149524.0,0.375,-877.5,-1124.4094133377075,0.0,2.5,0.44189448600000003,4.932250999999998,0.0,-146405.0,0.0,1807.5,1124.4094133377075,0.0,0.5,0.26489255100000003,4.963769999999998,0.0,150317.0,41.25,-652.5,-1124.4094133377075,0.0,3.875,3.77197227,0.01,0.0,-100858.0,0.125,1845.0,1124.4094133377075,0.0,0.5,1.804199034,0.01,0.0,-1.2300000190734863,-2.140000104904175,-36.380001068115234,0.1578369140625,0.0479736328125,0.7298583984375,36.56999969482422,0.0,111.0,-4.8391265869140625,2.938385009765625,Closing,0.0,0.0,0.0,0.0,0.0,0.0,0.0,0.0,
5.345521000000008,0.0,0.0,149396.0,0.0,-817.5,-715.3624742648133,0.0,0.375,0.47973627900000004,4.296383145325691,0.0,-145881.0,0.375,1597.5,1798.7652974297375,0.0,0.0,0.404052693,4.732933471283942,0.0,150212.0,38.0,-660.0,-715.3624742648133,0.0,0.125,3.7280269620000004,0.6369184271507995,0.0,-100600.0,0.5,1620.0,1798.7652974297375,0.0,0.25,1.7663572410000001,0.23056819904512402,0.0,-1.6399999856948853,-2.7300000190734863,-43.41999816894531,-0.01416015625,-0.14569091796875,0.71044921875,36.56999969482422,0.0,100.0,-4.8496856689453125,2.8919219970703125,Closing,0.0,0.0,0.0,0.0,0.0,0.0,0.0,0.0,
5.485931000000041,0.0,0.0,149106.0,0.125,-847.5,-777.1653592586517,0.0,0.5,0.729980394,4.932250999999998,0.0,-145656.0,0.0,1282.5,777.1653592586517,0.0,0.25,0.443115189,4.963769999999998,0.0,149988.0,42.125,-780.0,-777.1653592586517,0.0,0.75,3.4802242530000003,0.01,0.0,-100151.0,0.125,1350.0,777.1653592586517,0.0,0.5,1.6296385050000002,0.01,0.0,-1.6299999952316284,-2.140000104904175,-52.38999938964844,-0.14306640625,-0.0987548828125,0.9549560546875,36.56999969482422,0.0,-8.0,-4.843109130859375,2.819976806640625,Closing,0.0,0.0,0.0,0.0,0.0,0.0,0.0,0.0,
5.738475000000035,0.0,0.0,148655.0,0.0,-727.5,0.0,0.0,0.125,0.954589746,4.932250999999998,0.0,-145057.0,0.0,630.0,0.0,0.0,0.25,0.496826121,4.963769999999998,0.0,149657.0,0.0,-667.5,0.0,0.0,0.125,3.179931315,0.01,0.0,-99729.0,0.125,622.5,0.0,0.0,0.125,1.560058434,0.01,0.0,-1.340000033378601,0.20000000298023224,-51.310001373291016,0.198974609375,0.01129150390625,0.97906494140625,36.58000183105469,0.0,95.0,-4.8191680908203125,2.765899658203125,Closing,0.0,0.0,0.0,0.0,0.0,0.0,0.0,0.0,
6.085716000000015,0.0,0.0,148578.0,0.0,-345.0,0.0,0.0,0.375,0.8923338930000001,4.932250999999998,0.0,-145006.0,0.0,307.5,0.0,0.0,0.125,0.5017089330000001,4.963769999999998,0.0,149522.0,0.0,-322.5,0.0,0.0,0.125,3.2714840400000003,0.01,0.0,-99670.0,0.125,307.5,0.0,0.0,0.25,1.5795896820000002,0.01,0.0,-1.2300000190734863,1.350000023841858,-51.0099983215332,0.16729736328125,-0.011962890625,1.04486083984375,36.58000183105469,0.0,81.0,-4.7976837158203125,2.780181884765625,Closing,0.0,0.0,0.0,0.0,0.0,0.0,0.0,0.0,
6.231860000000045,0.0,0.0,148550.0,0.125,-45.0,-214.96063694357872,0.0,0.25,0.819091713,4.932250999999998,0.0,-144996.0,0.125,22.5,214.96063694357872,0.0,0.0,0.5017089330000001,4.963769999999998,0.0,149511.0,0.125,-60.0,-214.96063694357872,0.0,0.125,3.3642574680000004,0.01,0.0,-99654.0,0.375,22.5,214.96063694357872,0.0,0.25,1.593017415,0.01,0.0,-1.1399999856948853,1.7699999809265137,-50.880001068115234,-0.02960205078125,-0.02252197265625,1.0458984375,36.54999923706055,0.0,-37.0,-4.7794036865234375,2.8098297119140625,Closing,0.0,0.0,0.0,0.0,0.0,0.0,0.0,0.0,
6.378934000000008,0.0,0.0,148534.0,0.125,-75.0,-231.49606212973595,0.0,0.125,0.822753822,4.932250999999998,0.0,-144996.0,0.75,0.0,231.49606212973595,0.0,0.0,0.5017089330000001,4.963769999999998,0.0,149511.0,0.375,0.0,-231.49606212973595,0.0,0.0,3.3789059040000002,0.01,0.0,-99653.0,0.5,45.0,231.49606212973595,0.0,0.25,1.6040037420000002,0.01,0.0,-1.0299999713897705,1.2899999618530273,-50.849998474121094,-0.07525634765625,-0.0076904296875,1.02490234375,36.54999923706055,0.0,-70.0,-4.78436279296875,2.83819580078125,Closing,0.0,0.0,0.0,0.0,0.0,0.0,0.0,0.0,
6.526342000000004,0.0,0.0,148526.0,2.625,-52.5,-529.1338562965393,0.0,0.125,0.808105386,4.932250999999998,0.0,-144963.0,3.0,187.5,529.1338562965393,0.0,0.0,0.5017089330000001,4.963769999999998,0.0,149504.0,2.5,-127.5,-529.1338562965393,0.0,0.125,3.382568013,0.01,0.0,-99629.0,2.75,75.0,529.1338562965393,0.0,0.25,1.6064451480000002,0.01,0.0,-0.9700000286102295,0.5299999713897705,-50.86000061035156,-0.121337890625,-0.04595947265625,1.140380859375,36.54999923706055,0.0,-62.0,-4.799072265625,2.85821533203125,Closing,0.0,0.0,0.0,0.0,0.0,0.0,0.0,0.0,
6.680597000000009,0.0,0.0,148495.0,4.75,-300.0,-744.0945088863373,0.0,0.125,0.810546792,4.932250999999998,0.0,-144917.0,6.25,307.5,744.0945088863373,0.0,0.0,0.5017089330000001,4.963769999999998,0.0,149464.0,7.125,-97.5,-744.0945088863373,0.0,0.125,3.398437152,0.01,0.0,-99592.0,6.125,300.0,744.0945088863373,0.0,0.25,1.6015623360000002,0.01,0.0,-0.9599999785423279,-0.6399999856948853,-50.7599983215332,-0.1549072265625,-0.00469970703125,0.97198486328125,36.56999969482422,0.0,-100.0,-4.832000732421875,2.86474609375,Closing,0.0,0.0,0.0,0.0,0.0,0.0,0.0,0.0,
6.8393060000000405,0.0,0.0,148344.0,0.625,-510.0,-330.70866018533707,0.0,0.125,0.8154296040000001,4.932250999999998,0.0,-144841.0,1.25,495.0,330.70866018533707,0.0,0.0,0.505371042,4.963769999999998,0.0,149393.0,2.5,-465.0,-330.70866018533707,0.0,0.125,3.398437152,0.01,0.0,-99521.0,1.625,480.0,330.70866018533707,0.0,0.25,1.616210772,0.01,0.0,-0.8600000143051147,-0.949999988079071,-50.65999984741211,-0.0155029296875,-0.00665283203125,1.1298828125,36.56999969482422,0.0,-5.0,-4.8740692138671875,2.8627777099609375,Closing,0.0,0.0,0.0,0.0,0.0,0.0,0.0,0.0,
6.988444000000018,0.0,0.0,148263.0,0.125,-510.0,-297.6378098130226,0.0,0.125,0.811767495,4.932250999999998,0.0,-144760.0,0.625,457.5,297.6378098130226,0.0,0.0,0.506591745,4.963769999999998,0.0,149311.0,1.0,-502.5,-297.6378098130226,0.0,0.125,3.391112934,0.01,0.0,-99379.0,1.125,420.0,297.6378098130226,0.0,0.125,1.6357420200000001,0.01,0.0,-0.8299999833106995,-0.8199999928474426,-50.779998779296875,0.022705078125,0.0384521484375,1.1663818359375,36.56999969482422,0.0,-17.0,-4.907745361328125,2.8627471923828125,Closing,0.0,0.0,0.0,0.0,0.0,0.0,0.0,0.0,
7.136228999999992,0.0,0.0,148193.0,0.125,-427.5,-297.6378098130226,0.0,0.125,0.810546792,4.932250999999998,0.0,-144621.0,0.5,427.5,297.6378098130226,0.0,0.0,0.5163573690000001,4.963769999999998,0.0,149234.0,0.625,-442.5,-297.6378098130226,0.0,0.125,3.388671528,0.01,0.0,-99302.0,0.5,487.5,297.6378098130226,0.0,0.125,1.645507644,0.01,0.0,-0.7699999809265137,-0.6399999856948853,-50.90999984741211,0.0330810546875,0.02716064453125,1.06781005859375,36.56999969482422,0.0,-3.0,-4.906982421875,2.8663482666015625,Closing,0.0,0.0,0.0,0.0,0.0,0.0,0.0,0.0,
7.28489300000004,0.0,0.0,148124.0,0.375,-465.0,-446.45669907331467,0.0,0.125,0.810546792,4.932250999999998,0.0,-144546.0,0.625,465.0,446.45669907331467,0.0,0.0,0.511474557,4.963769999999998,0.0,149101.0,1.5,-405.0,-446.45669907331467,0.0,0.125,3.391112934,0.01,0.0,-99226.0,0.75,480.0,446.45669907331467,0.0,0.25,1.650390456,0.01,0.0,-0.6800000071525574,-0.5600000023841858,-50.970001220703125,-0.018310546875,-0.01202392578125,1.06591796875,36.560001373291016,0.0,-5.0,-4.9071197509765625,2.8714447021484375,Closing,0.0,0.0,0.0,0.0,0.0,0.0,0.0,0.0,
7.422735000000044,0.0,0.0,148056.0,1.25,-412.5,-578.740131855011,0.0,0.125,0.810546792,4.932250999999998,0.0,-144471.0,1.5,472.5,578.740131855011,0.0,0.0,0.511474557,4.963769999999998,0.0,149037.0,2.75,-390.0,-578.740131855011,0.0,0.125,3.39355434,0.01,0.0,-99150.0,1.75,457.5,578.740131855011,0.0,0.25,1.621093584,0.01,0.0,-0.6200000047683716,-0.7300000190734863,-51.0099983215332,-0.05517578125,-0.0155029296875,1.2032470703125,36.560001373291016,0.0,-23.0,-4.9082489013671875,2.8705291748046875,Closing,0.0,0.0,0.0,0.0,0.0,0.0,0.0,0.0,
7.561977000000014,0.0,0.0,147987.0,2.0,-465.0,-611.8110448122025,0.0,0.125,0.819091713,4.932250999999998,0.0,-144397.0,2.125,472.5,611.8110448122025,0.0,0.0,0.511474557,4.963769999999998,0.0,148962.0,3.25,-472.5,-611.8110448122025,0.0,0.125,3.39355434,0.01,0.0,-99080.0,2.375,465.0,611.8110448122025,0.0,0.125,1.600341633,0.01,0.0,-0.5600000023841858,-1.0,-50.9900016784668,-0.060791015625,0.02789306640625,1.0706787109375,36.560001373291016,0.0,-56.0,-4.9134674072265625,2.86962890625,Closing,0.0,0.0,0.0,0.0,0.0,0.0,0.0,0.0,
7.694329000000027,0.0,0.0,147821.0,1.875,-547.5,-628.3464699983597,0.0,0.125,0.810546792,4.932250999999998,0.0,-144315.0,2.125,532.5,628.3464699983597,0.0,0.0,0.506591745,4.963769999999998,0.0,148875.0,3.125,-547.5,-628.3464699983597,0.0,0.125,3.39355434,0.01,0.0,-99001.0,2.5,532.5,628.3464699983597,0.0,0.25,1.6064451480000002,0.01,0.0,-0.5199999809265137,-1.3200000524520874,-50.95000076293945,-0.09130859375,-0.1075439453125,1.04522705078125,36.560001373291016,0.0,33.0,-4.9237213134765625,2.8672637939453125,Closing,0.0,0.0,0.0,0.0,0.0,0.0,0.0,0.0,
7.83782699999999,0.0,0.0,147732.0,2.25,-555.0,-628.3464699983597,0.0,0.125,0.8056639800000001,4.932250999999998,0.0,-144224.0,2.625,540.0,628.3464699983597,0.0,0.0,0.5017089330000001,4.963769999999998,0.0,148781.0,3.625,-585.0,-628.3464699983597,0.0,0.125,3.391112934,0.01,0.0,-98842.0,3.125,517.5,628.3464699983597,0.0,0.25,1.6027830390000002,0.01,0.0,-0.36000001430511475,0.38999998569488525,-50.959999084472656,0.688720703125,0.06219482421875,1.02349853515625,36.540000915527344,0.0,375.0,-4.928497314453125,2.8707275390625,Closing,0.0,0.0,0.0,0.0,0.0,0.0,0.0,0.0,
7.985156000000017,0.0,0.0,147759.0,0.0,270.0,0.0,0.0,0.125,0.806884683,4.932250999999998,0.0,-144210.0,0.0,-195.0,0.0,0.0,0.0,0.5017089330000001,4.963769999999998,0.0,148718.0,0.0,-112.5,0.0,0.0,0.125,3.3740230920000003,0.01,0.0,-98875.0,0.125,-195.0,0.0,0.0,0.25,1.600341633,0.01,0.0,-0.47999998927116394,1.4700000286102295,-51.150001525878906,-0.06341552734375,0.09332275390625,1.00335693359375,36.540000915527344,0.0,-135.0,-4.9085693359375,2.907196044921875,Closing,0.0,0.0,0.0,0.0,0.0,0.0,0.0,0.0,
8.121710000000022,0.0,0.0,147791.0,0.0,217.5,0.0,0.0,0.125,0.797119059,4.932250999999998,0.0,-144240.0,0.0,-225.0,0.0,0.0,0.0,0.496826121,4.963769999999998,0.0,148724.0,0.0,187.5,0.0,0.0,0.0,3.3691402800000003,0.01,0.0,-98911.0,0.125,-187.5,0.0,0.0,0.25,1.6015623360000002,0.01,0.0,-0.49000000953674316,0.7300000190734863,-51.22999954223633,-0.10137939453125,-0.0081787109375,0.9168701171875,36.540000915527344,0.0,-70.0,-4.8931121826171875,2.9072418212890625,Closing,0.0,0.0,0.0,0.0,0.0,0.0,0.0,0.0,
8.256236000000033,0.0,0.0,147833.0,11.75,300.0,1653.5432696342468,0.0,5.25,0.477294873,3.6991882499999984,0.0,-144305.0,12.75,-442.5,-1653.5432696342468,0.0,2.375,0.22094724300000002,3.7228274999999984,0.0,148747.0,21.625,-15.0,-1653.5432696342468,0.0,1.0,4.038085524,1.2350999999999985,0.0,-98959.0,13.5,-345.0,-1653.5432696342468,0.0,6.375,1.313476428,3.7184999999999984,0.0,-0.5199999809265137,0.8799999952316284,-50.4900016784668,0.04840087890625,0.0858154296875,1.01043701171875,36.540000915527344,0.0,-52.0,-4.885528564453125,2.8938446044921875,Closing,0.0,0.0,0.0,0.0,0.0,0.0,0.0,0.0,
8.39262400000001,0.0,0.0,147865.0,0.0,52.5,0.0,0.0,1.75,4.478759307,3.6991882499999984,0.0,-144325.0,0.0,-30.0,0.0,0.0,1.5,4.206542538,3.7228274999999984,0.0,148753.0,0.0,45.0,0.0,0.0,0.625,4.730224125,1.2350999999999985,0.0,-98974.0,0.125,0.0,0.0,0.0,1.5,0.33691402800000003,3.7184999999999984,0.0,-0.47999998927116394,-0.019999999552965164,-50.04999923706055,-0.1571044921875,0.04248046875,1.14288330078125,36.540000915527344,0.0,-140.0,-4.8793487548828125,2.8744659423828125,Closing,0.0,0.0,0.0,0.0,0.0,0.0,0.0,0.0,
8.531938000000023,0.0,0.0,147875.0,0.0,60.0,0.0,0.0,0.375,4.1833491810000005,3.6991882499999984,0.0,-144325.0,0.0,0.0,0.0,0.0,0.25,3.961181235,3.7228274999999984,0.0,148750.0,0.0,-15.0,0.0,0.0,0.125,4.842528801,1.2350999999999985,0.0,-98973.0,0.125,0.0,0.0,0.0,0.375,0.021972654,3.7184999999999984,0.0,-0.3799999952316284,-0.029999999329447746,-49.93000030517578,-0.05291748046875,0.0244140625,1.03167724609375,36.540000915527344,0.0,-57.0,-4.8816070556640625,2.85125732421875,Closing,0.0,0.0,0.0,0.0,0.0,0.0,0.0,0.0,
8.671625,0.0,0.0,147875.0,0.0,0.0,0.0,0.0,0.5,4.362792522,3.6991882499999984,0.0,-144325.0,0.0,0.0,0.0,0.0,0.5,4.014892167,3.7228274999999984,0.0,148750.0,0.0,0.0,0.0,0.0,0.25,4.685058114,1.2350999999999985,0.0,-98973.0,0.125,0.0,0.0,0.0,0.875,0.18798826200000002,3.7184999999999984,0.0,-0.2800000011920929,-0.11999999731779099,-49.9900016784668,-0.02197265625,-0.0208740234375,1.064697265625,36.540000915527344,0.0,0.0,-4.883697509765625,2.8513336181640625,Closing,0.0,0.0,0.0,0.0,0.0,0.0,0.0,0.125,
8.807861000000033,0.0,0.0,147863.0,2.125,-82.5,-689.0625,0.0,2.125,4.271239797000001,3.0159423668524887,0.0,-144324.0,3.5,82.5,689.0625,0.0,4.0,4.584960468,4.410439589772222,0.0,148748.0,2.5,-37.5,-689.0625,0.0,0.875,0.06469725900000001,1.9194747329772885,0.0,-98989.0,2.75,-112.5,-689.0625,0.0,1.5,0.14892576600000001,3.031687206278559,0.0,-0.25999999046325684,-0.18000000715255737,-50.33000183105469,-0.086181640625,-0.05731201171875,1.01885986328125,36.560001373291016,0.0,-12.0,-4.8852996826171875,2.85247802734375,Closing,0.0,0.0,0.0,0.0,0.0,0.0,0.0,0.0,
8.945956999999995,0.0,0.0,147862.0,0.0,7.5,0.0,0.0,1.0,3.854980074,3.0159423668524887,0.0,-144312.0,0.0,0.0,0.0,0.0,0.75,0.075683586,4.410439589772222,0.0,148743.0,0.0,0.0,0.0,0.0,0.5,0.40893550500000003,1.9194747329772885,0.0,-98985.0,0.125,22.5,0.0,0.0,1.25,4.643554212000001,3.031687206278559,0.0,-0.3499999940395355,-0.3199999928474426,-50.7599983215332,-0.03643798828125,-0.00823974609375,0.96990966796875,36.560001373291016,0.0,-17.0,-4.8863525390625,2.8530120849609375,Closing,0.0,0.0,0.0,0.0,0.0,0.0,0.0,0.0,
9.087101000000024,0.0,0.0,147886.0,6.5,225.0,1140.9448385238647,0.0,0.875,4.158935121,3.6991882499999984,0.0,-144345.0,9.125,-240.0,-1140.9448385238647,0.0,1.75,4.685058114,3.7228274999999984,0.0,148736.0,8.625,-30.0,-1140.9448385238647,0.0,1.375,0.021972654,1.2350999999999985,0.0,-99000.0,8.25,-142.5,-1140.9448385238647,0.0,0.625,0.025634763,3.7184999999999984,0.0,-0.6899999976158142,-0.44999998807907104,-51.290000915527344,-0.05511474609375,-0.18402099609375,1.15850830078125,36.560001373291016,0.0,103.0,-4.8855133056640625,2.84893798828125,Closing,0.0,0.0,0.0,0.0,0.0,0.0,0.0,0.0,
9.231782999999997,0.0,0.0,147899.0,0.0,-7.5,0.0,0.0,0.625,4.508056179,3.6991882499999984,0.0,-144338.0,0.0,60.0,0.0,0.0,0.5,4.155273012,3.7228274999999984,0.0,148741.0,0.0,45.0,0.0,0.0,2.25,4.129638249,1.2350999999999985,0.0,-99009.0,0.125,22.5,0.0,0.0,0.75,0.457763625,3.7184999999999984,0.0,-0.4300000071525574,-0.44999998807907104,-51.0,-0.00457763671875,0.0201416015625,1.16156005859375,36.560001373291016,0.0,-19.0,-4.8870391845703125,2.8426361083984375,Closing,0.0,0.0,0.0,0.0,0.0,0.0,0.0,0.0,
9.371697000000044,0.0,0.0,147917.0,1.625,120.0,611.8110448122025,0.0,0.25,4.637450697,3.6991882499999984,0.0,-144355.0,1.875,-150.0,-611.8110448122025,0.0,0.5,3.983153889,3.7228274999999984,0.0,148743.0,2.5,-7.5,-611.8110448122025,0.0,1.625,3.8354488260000004,1.2350999999999985,0.0,-99011.0,1.75,-127.5,-611.8110448122025,0.0,0.25,0.523681587,3.7184999999999984,0.0,-0.7599999904632568,-0.6299999952316284,-50.709999084472656,-0.01690673828125,-0.11895751953125,1.05963134765625,36.52000045776367,0.0,77.0,-4.8852386474609375,2.8342437744140625,Closing,0.0,0.0,0.0,0.0,0.0,0.0,0.0,0.0,
9.508987000000023,0.0,0.0,147930.0,1.375,82.5,330.70866018533707,0.0,0.375,4.56542922,3.6991882499999984,0.0,-144374.0,1.875,-82.5,-330.70866018533707,0.0,0.25,4.1284175460000005,3.7228274999999984,0.0,148727.0,1.875,-97.5,-330.70866018533707,0.0,1.875,4.521483912,1.2350999999999985,0.0,-99035.0,1.625,-82.5,-330.70866018533707,0.0,0.5,0.462646437,3.7184999999999984,0.0,-0.44999998807907104,-0.5400000214576721,-50.560001373291016,-0.02069091796875,-0.02667236328125,0.99005126953125,36.52000045776367,0.0,7.0,-4.8809661865234375,2.8213958740234375,Closing,0.0,0.0,0.0,0.0,0.0,0.0,0.0,0.0,
9.646078000000038,0.0,0.0,147940.0,1.625,60.0,264.56692814826965,0.0,0.25,4.519042506,3.6991882499999984,0.0,-144384.0,2.25,-60.0,-264.56692814826965,0.0,0.25,4.250487846,3.7228274999999984,0.0,148706.0,2.0,-112.5,-264.56692814826965,0.0,0.0,4.8181147410000005,1.2350999999999985,0.0,-99058.0,2.0,-60.0,-264.56692814826965,0.0,0.25,0.404052693,3.7184999999999984,0.0,-0.7200000286102295,-0.5899999737739563,-50.689998626708984,-0.02508544921875,-0.07147216796875,1.032958984375,36.52000045776367,0.0,36.0,-4.88043212890625,2.8155670166015625,Closing,0.0,0.0,0.0,0.0,0.0,0.0,0.0,0.125,
9.78629800000001,0.0,0.0,147953.0,0.0,45.0,0.0,0.0,0.125,4.499511258,3.6991882499999984,0.0,-144402.0,0.0,-30.0,0.0,0.0,0.125,4.277343312,3.7228274999999984,0.0,148698.0,0.0,0.0,0.0,0.0,0.375,4.72412061,1.2350999999999985,0.0,-99063.0,0.125,-22.5,0.0,0.0,0.25,0.385742148,3.7184999999999984,0.0,-0.6700000166893005,-0.6200000047683716,-50.849998474121094,-0.015869140625,0.0296630859375,0.9051513671875,36.560001373291016,0.0,-35.0,-4.8794708251953125,2.8161773681640625,Closing,0.0,0.0,0.0,0.0,0.0,0.0,0.0,0.0,
9.925948000000034,0.0,0.0,147953.0,0.0,0.0,0.0,0.0,0.125,4.497069852,3.6991882499999984,0.0,-144402.0,0.0,0.0,0.0,0.0,0.25,4.270019094,3.7228274999999984,0.0,148698.0,0.0,0.0,0.0,0.0,0.125,4.5581050020000005,1.2350999999999985,0.0,-99065.0,0.125,-7.5,0.0,0.0,0.125,0.380859336,3.7184999999999984,0.0,-0.25999999046325684,-0.6800000071525574,-50.86000061035156,-0.0162353515625,0.06463623046875,0.97344970703125,36.560001373291016,0.0,-56.0,-4.88531494140625,2.8212890625,Closing,0.0,0.0,0.0,0.0,0.0,0.0,0.0,0.0,
10.06443100000004,0.0,0.0,147958.0,0.875,142.5,493.54820342108206,0.0,0.875,4.9230951990000005,4.214166581367008,0.0,-144423.0,1.125,-142.5,-493.54820342108206,0.0,0.5,3.9013667880000003,3.2045582570337303,0.0,148695.0,6.0,-15.0,-947.7518733156747,0.0,0.125,4.720458501,1.4892671728540616,0.0,-99091.0,4.875,-195.0,-947.7518733156747,0.0,0.5,0.202636698,3.4634273655958117,0.0,-0.75,-0.6399999856948853,-51.060001373291016,0.0281982421875,-0.15618896484375,1.06689453125,36.560001373291016,0.0,135.0,-4.893218994140625,2.8192138671875,Closing,0.0,0.0,0.0,0.0,0.0,0.0,0.0,0.0,
10.201091000000014,0.0,0.0,147981.0,0.0,15.0,0.0,0.0,0.375,0.166015608,4.214166581367008,0.0,-144428.0,0.0,-15.0,0.0,0.0,0.25,3.6425777520000002,3.2045582570337303,0.0,148694.0,0.0,0.0,0.0,0.0,0.125,4.886474109,1.4892671728540616,0.0,-99101.0,0.125,-15.0,0.0,0.0,0.25,0.09399413100000001,3.4634273655958117,0.0,-0.6200000047683716,-0.75,-51.83000183105469,-0.03167724609375,0.07257080078125,0.9508056640625,36.560001373291016,0.0,-76.0,-4.8921356201171875,2.80902099609375,Closing,0.0,0.0,0.0,0.0,0.0,0.0,0.0,0.0,
10.339439000000013,0.0,0.0,147980.0,0.0,0.0,0.0,0.0,0.25,0.131835924,4.214166581367008,0.0,-144428.0,0.0,0.0,0.0,0.0,0.25,3.6267086130000004,3.2045582570337303,0.0,148686.0,0.0,-45.0,0.0,0.0,0.125,4.908446763000001,1.4892671728540616,0.0,-99112.0,0.125,-52.5,0.0,0.0,0.25,0.075683586,3.4634273655958117,0.0,-0.2800000011920929,-0.7200000286102295,-52.27000045776367,-0.04248046875,0.07318115234375,1.0322265625,36.540000915527344,0.0,-79.0,-4.8934783935546875,2.8027801513671875,Closing,0.0,0.0,0.0,0.0,0.0,0.0,0.0,0.0,
10.486453000000038,0.0,0.0,147971.0,2.875,-60.0,-754.6875,0.0,3.625,4.56542922,3.0159423668524887,0.0,-144430.0,3.0,-165.0,-754.6875,0.0,3.0,3.1164547590000002,1.9285545897722227,0.0,148684.0,2.75,-30.0,-754.6875,0.0,0.375,0.09399413100000001,1.9194747329772885,0.0,-99137.0,2.625,-150.0,-754.6875,0.0,0.625,4.798583493000001,3.0316872062785585,0.0,-0.46000000834465027,-0.800000011920929,-52.36000061035156,-0.03826904296875,-0.22344970703125,1.07257080078125,36.540000915527344,0.0,155.0,-4.896087646484375,2.8004302978515625,Closing,0.0,0.0,0.0,0.0,0.0,0.0,0.0,0.0,
10.627212,0.0,0.0,147997.0,0.0,187.5,0.0,0.0,1.125,3.720702744,3.0159423668524887,0.0,-144451.0,0.0,7.5,0.0,0.0,0.875,2.338866948,1.9285545897722227,0.0,148670.0,0.0,-60.0,0.0,0.0,0.375,0.314941374,1.9194747329772885,0.0,-99141.0,0.125,-7.5,0.0,0.0,0.5,4.573974141,3.0316872062785585,0.0,-0.33000001311302185,-0.8700000047683716,-53.189998626708984,-0.03424072265625,0.12664794921875,0.95867919921875,36.540000915527344,0.0,-117.0,-4.892547607421875,2.7933807373046875,Closing,0.0,0.0,0.0,0.0,0.0,0.0,0.0,0.0,
10.766171000000032,0.0,0.0,148000.0,0.0,0.0,0.0,0.0,0.25,3.662109,3.0159423668524887,0.0,-144451.0,0.0,0.0,0.0,0.0,0.5,2.045898228,1.9285545897722227,0.0,148667.0,0.0,0.0,0.0,0.0,0.0,0.35400387,1.9194747329772885,0.0,-99141.0,0.125,0.0,0.0,0.0,0.25,4.622802261,3.0316872062785585,0.0,-0.38999998569488525,-0.7599999904632568,-53.68000030517578,0.0169677734375,-0.0345458984375,0.947265625,36.540000915527344,0.0,40.0,-4.89349365234375,2.7924957275390625,Closing,0.0,0.0,0.0,0.0,0.0,0.0,0.0,0.0,
10.901532000000007,0.0,0.0,148000.0,0.0,0.0,0.0,0.0,0.375,3.7792964880000004,3.0159423668524887,0.0,-144451.0,0.0,0.0,0.0,0.0,0.5,2.2766110950000003,1.9285545897722227,0.0,148667.0,0.0,0.0,0.0,0.0,0.125,0.35522457300000004,1.9194747329772885,0.0,-99141.0,0.125,0.0,0.0,0.0,0.25,4.635009291,3.0316872062785585,0.0,-0.3199999928474426,-0.8899999856948853,-53.68000030517578,0.0086669921875,-0.04425048828125,1.00384521484375,36.54999923706055,0.0,45.0,-4.8931732177734375,2.79229736328125,Closing,0.0,0.0,0.0,0.0,0.0,0.0,0.0,0.125,
11.034253000000026,0.0,0.0,148000.0,0.0,0.0,0.0,0.0,0.25,3.826903905,3.0159423668524887,0.0,-144451.0,0.0,0.0,0.0,0.0,0.5,2.497558338,1.9285545897722227,0.0,148667.0,0.0,0.0,0.0,0.0,0.125,0.35522457300000004,1.9194747329772885,0.0,-99141.0,0.125,0.0,0.0,0.0,0.25,4.650878430000001,3.0316872062785585,0.0,-0.33000001311302185,-0.8899999856948853,-53.43000030517578,-0.04315185546875,0.0079345703125,1.015869140625,36.54999923706055,0.0,-27.0,-4.89251708984375,2.79229736328125,Closing,0.0,0.0,0.0,0.0,0.0,0.0,0.0,0.0,
11.175889000000025,0.0,0.0,147967.0,3.75,-165.0,-951.5625,0.0,0.125,3.8281246080000004,3.0159423668524887,0.0,-144461.0,6.125,-112.5,-951.5625,0.0,0.25,2.5341794280000003,1.9285545897722227,0.0,148665.0,5.875,-22.5,-951.5625,0.0,0.125,0.35644527600000003,1.9194747329772885,0.0,-99145.0,4.125,-195.0,-951.5625,0.0,0.125,4.661864757,3.0316872062785585,0.0,-0.41999998688697815,-0.8600000143051147,-54.52000045776367,-0.05987548828125,0.0673828125,1.1583251953125,36.54999923706055,0.0,-86.0,-4.8906707763671875,2.7928924560546875,Closing,0.0,0.0,0.0,0.0,0.0,0.0,0.0,0.0,
11.32349900000001,0.0,0.0,147949.0,0.0,-105.0,0.0,0.0,0.125,3.8281246080000004,3.0159423668524887,0.0,-144490.0,0.0,-97.5,0.0,0.0,0.25,2.5305173190000003,1.9285545897722227,0.0,148642.0,0.0,-105.0,0.0,0.0,0.125,0.35644527600000003,1.9194747329772885,0.0,-99210.0,0.125,-112.5,0.0,0.0,0.125,4.619140152,3.0316872062785585,0.0,-0.4000000059604645,-0.9900000095367432,-58.79999923706055,0.00537109375,0.106201171875,1.02630615234375,36.529998779296875,0.0,-85.0,-4.88665771484375,2.791259765625,Closing,0.0,0.0,0.0,0.0,0.0,0.0,0.0,0.0,
11.465860000000044,0.0,0.0,147906.0,0.75,-262.5,-656.25,0.0,0.125,3.8415523410000003,3.0159423668524887,0.0,-144543.0,1.25,-240.0,-656.25,0.0,0.25,2.518310289,1.9285545897722227,0.0,148641.0,2.625,-22.5,-656.25,0.0,0.125,0.35522457300000004,1.9194747329772885,0.0,-99243.0,1.0,-195.0,-656.25,0.0,0.25,4.619140152,3.0316872062785585,0.0,-0.4300000071525574,-0.7099999785423279,-59.79999923706055,-0.108642578125,0.0010986328125,0.92803955078125,36.529998779296875,0.0,-55.0,-4.8835601806640625,2.7913055419921875,Closing,0.0,0.0,0.0,0.0,0.0,0.0,0.0,0.0,
11.599879000000016,0.0,0.0,147895.0,0.0,-22.5,0.0,0.0,0.125,3.8281246080000004,3.0159423668524887,0.0,-144545.0,0.0,0.0,0.0,0.0,0.25,2.51464818,1.9285545897722227,0.0,148631.0,0.0,-22.5,0.0,0.0,0.125,0.35522457300000004,1.9194747329772885,0.0,-99248.0,0.125,-7.5,0.0,0.0,0.25,4.60205031,3.0316872062785585,0.0,-0.36000001430511475,-1.0199999809265137,-61.119998931884766,0.00384521484375,0.0264892578125,1.04150390625,36.529998779296875,0.0,-18.0,-4.8792877197265625,2.79052734375,Closing,0.0,0.0,0.0,0.0,0.0,0.0,0.0,0.0,
11.746929000000003,0.0,0.0,147895.0,0.0,0.0,0.0,0.0,0.125,3.826903905,3.0159423668524887,0.0,-144545.0,0.0,0.0,0.0,0.0,0.25,2.515868883,1.9285545897722227,0.0,148631.0,0.0,0.0,0.0,0.0,0.125,0.35522457300000004,1.9194747329772885,0.0,-99248.0,0.125,0.0,0.0,0.0,0.25,4.604491716,3.0316872062785585,0.0,-0.49000000953674316,-0.8500000238418579,-60.869998931884766,-0.0281982421875,-0.00994873046875,1.0203857421875,36.529998779296875,0.0,-5.0,-4.87530517578125,2.7902069091796875,Closing,0.0,0.0,0.0,0.0,0.0,0.0,0.0,0.0,
11.886728000000003,0.0,0.0,147924.0,0.375,105.0,380.31496703624725,0.0,0.125,3.8281246080000004,3.015942366852486,0.0,-144545.0,0.75,22.5,380.31496703624725,0.0,0.25,2.509765368,1.92855458977222,0.0,148642.0,0.5,120.0,380.31496703624725,0.0,0.125,0.35522457300000004,1.9194747329772914,0.0,-99246.0,0.5,112.5,380.31496703624725,0.0,0.25,4.627685073,3.031687206278561,0.0,-0.4000000059604645,-1.0800000429153442,-60.349998474121094,0.07421875,-0.103271484375,1.100830078125,36.560001373291016,0.0,129.0,-4.8766632080078125,2.78948974609375,Closing,0.0,0.0,0.0,0.0,0.0,0.0,0.0,0.0,
12.032889000000024,0.0,0.0,147927.0,0.0,22.5,0.0,0.0,0.125,3.8281246080000004,3.015942366852486,0.0,-144520.0,0.0,60.0,0.0,0.0,0.25,2.467040763,1.92855458977222,0.0,148655.0,0.0,15.0,0.0,0.0,0.125,0.35522457300000004,1.9194747329772914,0.0,-99224.0,0.125,0.0,0.0,0.0,0.25,4.632567885,3.031687206278561,0.0,-0.4300000071525574,-0.9100000262260437,-59.66999816894531,-0.044921875,0.01318359375,0.96942138671875,36.560001373291016,0.0,-32.0,-4.8757171630859375,2.79046630859375,Closing,0.0,0.0,0.0,0.0,0.0,0.0,0.0,0.0,
12.169570999999996,0.0,0.0,147927.0,0.0,0.0,0.0,0.0,0.125,3.8281246080000004,3.015942366852486,0.0,-144520.0,0.0,0.0,0.0,0.0,0.25,2.456054436,1.92855458977222,0.0,148655.0,0.0,0.0,0.0,0.0,0.125,0.35522457300000004,1.9194747329772914,0.0,-99224.0,0.125,0.0,0.0,0.0,0.125,4.631347182,3.031687206278561,0.0,-0.4399999976158142,-1.0099999904632568,-59.779998779296875,0.01226806640625,0.00286865234375,1.00958251953125,36.560001373291016,0.0,5.0,-4.876953125,2.7898406982421875,Closing,0.0,0.0,0.0,0.0,0.0,0.0,0.0,0.0,
12.30682699999999,0.0,0.0,147928.0,0.375,7.5,264.56692814826965,0.0,0.125,3.8281246080000004,3.0159423668524865,0.0,-144517.0,0.5,0.0,264.56692814826965,0.0,0.125,2.456054436,1.92855458977222,0.0,148655.0,0.5,0.0,264.56692814826965,0.0,0.125,0.34912105800000004,1.919474732977291,0.0,-99224.0,0.5,0.0,264.56692814826965,0.0,0.25,4.631347182,3.031687206278561,0.0,-0.46000000834465027,-1.0199999809265137,-59.779998779296875,-0.0146484375,-0.0198974609375,1.02227783203125,36.560001373291016,0.0,11.0,-4.876953125,2.7899322509765625,Closing,0.0,0.0,0.0,0.0,0.0,0.0,0.0,0.125,
12.447625999999989,0.0,0.0,147930.0,0.0,0.0,0.0,0.0,0.125,3.8281246080000004,3.0159423668524865,0.0,-144517.0,0.0,0.0,0.0,0.0,0.125,2.456054436,1.92855458977222,0.0,148659.0,0.0,7.5,0.0,0.0,0.125,0.35522457300000004,1.919474732977291,0.0,-99218.0,0.125,15.0,0.0,0.0,0.25,4.631347182,3.031687206278561,0.0,-0.44999998807907104,-1.0,-59.68000030517578,-0.03741455078125,-0.02569580078125,1.0186767578125,36.540000915527344,0.0,5.0,-4.8769378662109375,2.7900238037109375,Closing,0.0,0.0,0.0,0.0,0.0,0.0,0.0,0.0,
12.586709000000031,0.0,0.0,147930.0,0.0,0.0,0.0,0.0,0.125,3.8281246080000004,3.0159423668524865,0.0,-144517.0,0.0,0.0,0.0,0.0,0.125,2.456054436,1.92855458977222,0.0,148658.0,0.0,0.0,0.0,0.0,0.125,0.35522457300000004,1.919474732977291,0.0,-99219.0,0.125,-7.5,0.0,0.0,0.125,4.632567885,3.031687206278561,0.0,-0.4399999976158142,-1.0,-59.70000076293945,-0.02435302734375,-0.012451171875,1.03106689453125,36.540000915527344,0.0,0.0,-4.8769378662109375,2.789886474609375,Closing,0.0,0.0,0.0,0.0,0.0,0.0,0.0,0.0,
12.725427000000025,0.0,0.0,147930.0,0.0,0.0,0.0,0.0,0.125,3.8293453110000004,3.0159423668524865,0.0,-144517.0,0.0,0.0,0.0,0.0,0.125,2.456054436,1.92855458977222,0.0,148658.0,0.0,0.0,0.0,0.0,0.125,0.35644527600000003,1.919474732977291,0.0,-99219.0,0.125,0.0,0.0,0.0,0.25,4.632567885,3.031687206278561,0.0,-0.44999998807907104,-1.0099999904632568,-59.720001220703125,-0.01849365234375,-0.01019287109375,1.02001953125,36.540000915527344,0.0,1.0,-4.8769378662109375,2.789886474609375,Closing,0.0,0.0,0.0,0.0,0.0,0.0,0.0,0.0,
12.866486000000034,0.0,0.0,147937.0,1.125,30.0,429.92127388715744,0.0,1.875,3.5681148690000004,2.4661254999999977,0.0,-144520.0,0.75,-142.5,-429.92127388715744,0.0,0.75,2.6306149650000004,2.481884999999998,0.0,148660.0,1.625,15.0,429.92127388715744,0.0,0.75,0.782470623,2.4702000000000024,0.0,-99239.0,0.75,-127.5,-429.92127388715744,0.0,0.875,4.191894102,2.4790000000000023,0.0,-0.49000000953674316,-1.159999966621399,-59.59000015258789,-0.04876708984375,-0.039306640625,1.05401611328125,36.540000915527344,0.0,12.0,-4.877655029296875,2.78863525390625,Closing,0.0,0.0,0.0,0.0,0.0,0.0,0.0,0.0,
13.018815999999992,0.0,0.0,147954.0,2.0,112.5,429.92127388715744,0.0,0.5,3.248290683,2.4661254999999977,0.0,-144558.0,2.125,-75.0,-429.92127388715744,0.0,0.75,3.035888361,2.481884999999998,0.0,148660.0,2.875,45.0,429.92127388715744,0.0,0.125,0.9875487270000001,2.4702000000000024,0.0,-99249.0,2.0,-52.5,-429.92127388715744,0.0,0.5,4.108886298,2.4790000000000023,0.0,-0.5,-1.440000057220459,-59.529998779296875,-0.11090087890625,-0.02392578125,0.9775390625,36.540000915527344,0.0,-30.0,-4.878509521484375,2.7830047607421875,Closing,0.0,0.0,0.0,0.0,0.0,0.0,0.0,0.0,
13.167330000000016,0.0,0.0,147978.0,2.375,180.0,446.45669907331467,0.0,0.25,3.195800454,2.4661254999999977,0.0,-144596.0,2.5,-232.5,-446.45669907331467,0.0,0.25,3.135986007,2.481884999999998,0.0,148711.0,3.625,172.5,446.45669907331467,0.0,0.125,0.95214834,2.4702000000000024,0.0,-99277.0,2.25,-195.0,-446.45669907331467,0.0,0.125,4.099120674,2.4790000000000023,0.0,-0.550000011920929,-1.909999966621399,-59.68000030517578,-0.1488037109375,0.01141357421875,1.03350830078125,36.540000915527344,0.0,-76.0,-4.883056640625,2.7706451416015625,Closing,0.0,0.0,0.0,0.0,0.0,0.0,0.0,0.0,
13.311562000000034,0.0,0.0,148020.0,2.5,307.5,446.45669907331467,0.0,0.375,3.2067867810000004,2.4661254999999977,0.0,-144643.0,3.25,-270.0,-446.45669907331467,0.0,0.25,3.087157887,2.481884999999998,0.0,148762.0,3.25,315.0,446.45669907331467,0.0,0.125,0.888671784,2.4702000000000024,0.0,-99322.0,3.0,-262.5,-446.45669907331467,0.0,0.125,4.099120674,2.4790000000000023,0.0,-0.6499999761581421,-1.149999976158142,-58.86000061035156,0.27886962890625,0.01373291015625,1.0111083984375,36.540000915527344,0.0,133.0,-4.8885650634765625,2.7555084228515625,Closing,0.0,0.0,0.0,0.0,0.0,0.0,0.0,0.0,
13.466247000000033,0.0,0.0,148062.0,6.75,-15.0,446.45669907331467,0.0,0.375,3.2055660780000004,2.4661254999999977,0.0,-144652.0,12.375,0.0,-446.45669907331467,0.0,0.25,3.045653985,2.481884999999998,0.0,148779.0,7.25,15.0,446.45669907331467,0.0,0.0,0.875244051,2.4702000000000024,0.0,-99336.0,10.125,0.0,-446.45669907331467,0.0,0.125,4.097899971,2.4790000000000023,0.0,-0.5299999713897705,-1.0099999904632568,-58.81999969482422,-0.0484619140625,-0.0291748046875,1.0364990234375,36.560001373291016,0.0,1.0,-4.886871337890625,2.75909423828125,Closing,0.0,0.0,0.0,0.0,0.0,0.0,0.0,0.0,
13.617765000000015,0.0,0.0,148067.0,11.25,30.0,496.06300592422485,0.0,0.375,3.2055660780000004,2.4661254999999977,0.0,-144655.0,17.0,-15.0,-496.06300592422485,0.0,0.25,3.045653985,2.481884999999998,0.0,148784.0,14.875,37.5,496.06300592422485,0.0,0.0,0.875244051,2.4702000000000024,0.0,-99340.0,15.25,-22.5,-496.06300592422485,0.0,0.125,4.097899971,2.4790000000000023,0.0,-0.47999998927116394,-1.0099999904632568,-58.66999816894531,-0.00518798828125,-0.02374267578125,0.9996337890625,36.560001373291016,0.0,19.0,-4.88726806640625,2.7600555419921875,Closing,0.0,0.0,0.0,0.0,0.0,0.0,0.0,0.0,
13.769242000000027,0.0,0.0,148076.0,35.0,82.5,1322.8346407413483,0.0,0.375,3.2116695930000003,2.4661254999999977,0.0,-144668.0,50.25,-82.5,-1322.8346407413483,0.0,0.25,3.046874688,2.481884999999998,0.0,148804.0,25.875,82.5,1322.8346407413483,0.0,0.0,0.871581942,2.4702000000000024,0.0,-99350.0,45.5,-67.5,-1322.8346407413483,0.0,0.125,4.099120674,2.4790000000000023,0.0,-0.4300000071525574,-0.9399999976158142,-58.310001373291016,-0.02227783203125,0.10284423828125,0.8944091796875,36.560001373291016,0.0,-97.0,-4.8884735107421875,2.76043701171875,Closing,0.0,0.0,0.0,0.0,0.0,0.0,0.0,0.0,
13.923454000000026,0.0,0.0,148087.0,45.375,7.5,1537.7952933311462,0.0,0.375,3.2055660780000004,2.4661254999999977,0.0,-144675.0,62.625,-30.0,-1537.7952933311462,0.0,0.25,3.044433282,2.481884999999998,0.0,148828.0,25.625,150.0,1537.7952933311462,0.0,0.0,0.8410643670000001,2.4702000000000024,0.0,-99353.0,50.875,-15.0,-1537.7952933311462,0.0,0.125,4.097899971,2.4790000000000023,0.0,-0.36000001430511475,-0.9399999976158142,-58.310001373291016,-0.0714111328125,-0.17010498046875,1.0450439453125,36.540000915527344,0.0,110.0,-4.8930511474609375,2.7625885009765625,Closing,0.0,0.0,0.0,0.0,0.0,0.0,0.0,0.125,
14.07021000000002,0.0,0.0,148063.0,0.0,-165.0,0.0,0.0,0.375,3.226318029,2.4661254999999977,0.0,-144658.0,0.0,202.5,0.0,0.0,0.25,3.016357113,2.481884999999998,0.0,148858.0,0.0,15.0,0.0,0.0,0.0,0.8557128030000001,2.4702000000000024,0.0,-99309.0,0.125,307.5,0.0,0.0,0.125,4.097899971,2.4790000000000023,0.0,-0.30000001192092896,-0.25,-58.58000183105469,-0.03533935546875,-0.0555419921875,0.86309814453125,36.540000915527344,0.0,27.0,-4.8961029052734375,2.769989013671875,Closing,0.0,0.0,0.0,0.0,0.0,0.0,0.0,0.0,
14.21310500000004,0.0,0.0,148026.0,0.0,-97.5,0.0,0.0,0.375,3.251952792,2.4661254999999977,0.0,-144628.0,0.0,97.5,0.0,0.0,0.25,3.0114743010000002,2.481884999999998,0.0,148848.0,0.0,-22.5,0.0,0.0,0.0,0.8557128030000001,2.4702000000000024,0.0,-99308.0,0.125,7.5,0.0,0.0,0.125,4.099120674,2.4790000000000023,0.0,-0.3400000035762787,-0.9399999976158142,-58.630001068115234,-0.08551025390625,-0.04888916015625,0.98138427734375,36.540000915527344,0.0,0.0,-4.9019012451171875,2.7722625732421875,Closing,0.0,0.0,0.0,0.0,0.0,0.0,0.0,0.0,
14.372125,0.0,0.0,148026.0,0.0,0.0,0.0,0.0,0.125,3.2678219310000003,2.4661254999999977,0.0,-144628.0,0.0,0.0,0.0,0.0,0.125,3.0114743010000002,2.481884999999998,0.0,148844.0,0.0,0.0,0.0,0.0,0.0,0.8569335060000001,2.4702000000000024,0.0,-99307.0,0.125,0.0,0.0,0.0,0.125,4.099120674,2.4790000000000023,0.0,-0.4300000071525574,-1.149999976158142,-58.630001068115234,-0.00885009765625,-0.00274658203125,1.0316162109375,36.54999923706055,0.0,5.0,-4.90191650390625,2.7706298828125,Closing,0.0,0.0,0.0,0.0,0.0,0.0,0.0,0.0,
14.523588000000046,0.0,0.0,148061.0,1.5,202.5,611.8110448122025,0.0,0.125,3.2678219310000003,2.4661254999999977,0.0,-144641.0,2.375,-120.0,-611.8110448122025,0.0,0.125,3.0078121920000003,2.481884999999998,0.0,148845.0,3.0,7.5,611.8110448122025,0.0,0.0,0.8557128030000001,2.4702000000000024,0.0,-99319.0,1.875,-135.0,-611.8110448122025,0.0,0.125,4.099120674,2.4790000000000023,0.0,-0.49000000953674316,-1.4600000381469727,-58.5099983215332,-0.050048828125,0.037353515625,1.075927734375,36.54999923706055,0.0,-51.0,-4.9025421142578125,2.76776123046875,Closing,0.0,0.0,0.0,0.0,0.0,0.0,0.0,0.0,
14.669439000000013,0.0,0.0,148086.0,6.125,172.5,876.3779729604721,0.0,0.125,3.2678219310000003,2.4661254999999977,0.0,-144661.0,11.25,-112.5,-876.3779729604721,0.0,0.125,3.0126950040000002,2.481884999999998,0.0,148868.0,7.375,165.0,876.3779729604721,0.0,0.0,0.8557128030000001,2.4702000000000024,0.0,-99337.0,6.875,-90.0,-876.3779729604721,0.0,0.125,4.099120674,2.4790000000000023,0.0,-0.4300000071525574,-1.0,-57.900001525878906,0.01104736328125,0.037353515625,1.0682373046875,36.54999923706055,0.0,-22.0,-4.9019012451171875,2.7708892822265625,Closing,0.0,0.0,0.0,0.0,0.0,0.0,0.0,0.0,
14.805238000000012,0.0,0.0,148088.0,9.875,7.5,595.2756196260452,0.0,0.125,3.2678219310000003,2.4661254999999977,0.0,-144668.0,16.625,0.0,-595.2756196260452,0.0,0.125,3.0114743010000002,2.481884999999998,0.0,148883.0,12.875,15.0,595.2756196260452,0.0,0.0,0.8557128030000001,2.4702000000000024,0.0,-99347.0,11.625,0.0,-595.2756196260452,0.0,0.125,4.099120674,2.4790000000000023,0.0,-0.44999998807907104,-0.9900000095367432,-57.91999816894531,-0.0618896484375,-0.00830078125,1.0418701171875,36.54999923706055,0.0,-23.0,-4.9015045166015625,2.7786102294921875,Closing,0.0,0.0,0.0,0.0,0.0,0.0,0.0,0.0,
14.94592100000003,0.0,0.0,148079.0,0.0,-105.0,0.0,0.0,0.125,3.2678219310000003,2.4661254999999977,0.0,-144652.0,0.0,82.5,0.0,0.0,0.125,2.991943053,2.481884999999998,0.0,148887.0,0.0,7.5,0.0,0.0,0.0,0.8557128030000001,2.4702000000000024,0.0,-99327.0,0.125,142.5,0.0,0.0,0.125,4.097899971,2.4790000000000023,0.0,-0.4099999964237213,-0.550000011920929,-58.22999954223633,-0.05413818359375,-0.1077880859375,0.94989013671875,36.529998779296875,0.0,62.0,-4.8985137939453125,2.7835540771484375,Closing,0.0,0.0,0.0,0.0,0.0,0.0,0.0,0.0,
15.084780000000029,0.0,0.0,148057.0,0.0,-67.5,0.0,0.0,0.125,3.2678219310000003,2.4661254999999977,0.0,-144647.0,0.0,45.0,0.0,0.0,0.0,2.991943053,2.481884999999998,0.0,148883.0,0.0,-22.5,0.0,0.0,0.0,0.8557128030000001,2.4702000000000024,0.0,-99324.0,0.125,15.0,0.0,0.0,0.125,4.097899971,2.4790000000000023,0.0,-0.44999998807907104,-1.090000033378601,-58.31999969482422,-0.09149169921875,-0.01422119140625,0.9739990234375,36.529998779296875,0.0,-32.0,-4.8958282470703125,2.7834014892578125,Closing,0.0,0.0,0.0,0.0,0.0,0.0,0.0,0.0,
15.220589000000036,0.0,0.0,148056.0,0.0,0.0,0.0,0.0,0.125,3.2678219310000003,2.4661254999999977,0.0,-144647.0,0.0,0.0,0.0,0.0,0.0,2.991943053,2.481884999999998,0.0,148883.0,0.0,0.0,0.0,0.0,0.0,0.8557128030000001,2.4702000000000024,0.0,-99324.0,0.125,0.0,0.0,0.0,0.125,4.099120674,2.4790000000000023,0.0,-0.47999998927116394,-1.0700000524520874,-58.279998779296875,0.032470703125,-0.00714111328125,0.950927734375,36.529998779296875,0.0,25.0,-4.895660400390625,2.7790374755859375,Closing,0.0,0.0,0.0,0.0,0.0,0.0,0.0,0.0,
15.352675000000046,0.0,0.0,148056.0,0.0,0.0,0.0,0.0,0.125,3.2678219310000003,2.4661254999999977,0.0,-144647.0,0.0,0.0,0.0,0.0,0.0,2.991943053,2.481884999999998,0.0,148883.0,0.0,0.0,0.0,0.0,0.0,0.8544921000000001,2.4702000000000024,0.0,-99324.0,0.125,0.0,0.0,0.0,0.125,4.100341377,2.4790000000000023,0.0,-0.46000000834465027,-0.949999988079071,-58.310001373291016,-0.032958984375,-0.0234375,1.0030517578125,36.529998779296875,0.0,4.0,-4.8953704833984375,2.77783203125,Closing,0.0,0.0,0.0,0.0,0.0,0.0,0.0,0.0,
15.493090000000025,0.0,0.0,148056.0,0.0,0.0,0.0,0.0,0.125,3.2678219310000003,2.4661254999999977,0.0,-144647.0,0.0,0.0,0.0,0.0,0.0,2.993163756,2.481884999999998,0.0,148883.0,0.0,0.0,0.0,0.0,0.0,0.8569335060000001,2.4702000000000024,0.0,-99324.0,0.125,0.0,0.0,0.0,0.125,4.097899971,2.4790000000000023,0.0,-0.4699999988079071,-1.0399999618530273,-58.29999923706055,-0.0032958984375,-0.01220703125,1.01312255859375,36.52000045776367,0.0,11.0,-4.8955535888671875,2.7773895263671875,Closing,0.0,0.0,0.0,0.0,0.0,0.0,0.0,0.0,
15.644463000000046,0.0,0.0,148056.0,0.0,0.0,0.0,0.0,0.125,3.2678219310000003,2.4661254999999977,0.0,-144647.0,0.0,0.0,0.0,0.0,0.0,2.993163756,2.481884999999998,0.0,148883.0,0.0,0.0,0.0,0.0,0.0,0.8569335060000001,2.4702000000000024,0.0,-99324.0,0.125,0.0,0.0,0.0,0.125,4.097899971,2.4790000000000023,0.0,-0.46000000834465027,-1.0199999809265137,-58.310001373291016,-0.02899169921875,-0.01873779296875,1.005859375,36.52000045776367,0.0,3.0,-4.8955535888671875,2.7773895263671875,Closing,0.0,0.0,0.0,0.0,0.0,0.0,0.0,0.0,
15.785429000000004,0.0,0.0,148071.0,8.375,157.5,1207.0866644382477,0.0,0.125,3.2690426340000003,2.4661254999999977,0.0,-144669.0,12.25,-90.0,-1207.0866644382477,0.0,0.0,3.016357113,2.481884999999998,0.0,148883.0,9.125,7.5,1207.0866644382477,0.0,0.0,0.8532713970000001,2.4702000000000024,0.0,-99343.0,8.375,-97.5,-1207.0866644382477,0.0,0.125,4.091796456,2.4790000000000023,0.0,-0.6399999856948853,-1.7400000095367432,-58.16999816894531,-0.1612548828125,0.007568359375,1.2098388671875,36.52000045776367,0.0,-83.0,-4.896881103515625,2.772735595703125,Closing,0.0,0.0,0.0,0.0,0.0,0.0,0.0,0.0,
15.922113000000012,0.0,0.0,148103.0,23.375,142.5,1554.3307185173035,0.0,0.125,3.2641598220000003,2.4661254999999977,0.0,-144684.0,36.25,-97.5,-1554.3307185173035,0.0,0.25,3.016357113,2.481884999999998,0.0,148888.0,23.25,202.5,1554.3307185173035,0.0,0.0,0.8557128030000001,2.4702000000000024,0.0,-99354.0,31.125,-52.5,-1554.3307185173035,0.0,0.125,4.099120674,2.4790000000000023,0.0,-0.4000000059604645,-0.9100000262260437,-57.38999938964844,0.0384521484375,0.02972412109375,1.0191650390625,36.540000915527344,0.0,-1.0,-4.8952789306640625,2.7665557861328125,Closing,0.0,0.0,0.0,0.0,0.0,0.0,0.0,0.0,
16.054032999999997,0.0,0.0,148106.0,20.125,0.0,462.9921242594719,0.0,0.125,3.2678219310000003,2.4661254999999977,0.0,-144686.0,29.25,-15.0,-462.9921242594719,0.0,0.25,3.016357113,2.481884999999998,0.0,148961.0,14.125,225.0,462.9921242594719,0.0,0.0,0.8557128030000001,2.4702000000000024,0.0,-99355.0,24.75,0.0,-462.9921242594719,0.0,0.125,4.099120674,2.4790000000000023,0.0,-0.47999998927116394,-0.9700000286102295,-57.40999984741211,0.0260009765625,0.00494384765625,1.011474609375,36.540000915527344,0.0,11.0,-4.8946990966796875,2.7650299072265625,Closing,0.0,0.0,0.0,0.0,0.0,0.0,0.0,0.0,
16.19255600000004,0.0,0.0,148104.0,0.0,-180.0,0.0,0.0,0.125,3.2666012280000003,2.4661254999999977,0.0,-144671.0,0.0,127.5,0.0,0.0,0.25,3.0065914890000003,2.481884999999998,0.0,148949.0,0.0,-75.0,0.0,0.0,0.0,0.8557128030000001,2.4702000000000024,0.0,-99332.0,0.125,232.5,0.0,0.0,0.125,4.099120674,2.4790000000000023,0.0,-0.41999998688697815,-0.5,-57.72999954223633,-0.05474853515625,-0.075439453125,0.89361572265625,36.540000915527344,0.0,33.0,-4.8925628662109375,2.770172119140625,Closing,0.0,0.0,0.0,0.0,0.0,0.0,0.0,0.0,
