Time,ClimberA1,ClimberA2,FRpos,FRCurrent,FRspeed,FRsetpoint,FRApos,FRACurrent,FREncpos,FREncSetpoint,FREncSpeed,FLpos,FLCurrent,FLspeed,FLsetpoint,FLApos,FLACurrent,FLEncpos,FLEncSetpoint,FLEncSpeed,BRpos,BRCurrent,BRspeed,BRsetpoint,BRApos,BRACurrent,BREncpos,BREncSetpoint,BREncSpeed,BLpos,BLCurrent,BLspeed,BLsetpoint,BLApos,BLACurrent,BLEncpos,BLEncSetpoint,BLEncSpeed,navx_Pitch,navx_Roll,navx_Yaw,navx_XAcc,navx_YAcc,navx_ZAcc,navx_Temp,navx_Bar,navx_Alt,navx_XDis,navx_YDis,GearPlacerState,ShootOutputV,ShootOutputCurrent,ShootEncPos,ShootEncVelocity,ShootSpeed,ShootSetpoint,CarouselSetpoint,CarouselCurrent,
0.11509499999997207,0.0,0.0,32018.0,0.0,0.0,0.0,0.0,0.25,0.771484296,0.01,0.0,-56551.0,0.0,0.0,-0.0,0.0,0.25,0.462646437,0.01,0.0,37145.0,0.0,0.0,0.0,0.0,0.0,3.330077784,0.01,0.0,-8347.0,0.125,0.0,-0.0,0.0,0.25,1.595458821,0.01,0.0,-0.36000001430511475,-0.9700000286102295,0.0,-0.01513671875,-0.00482177734375,1.01727294921875,36.29999923706055,0.0,2.0,-5.7093505859375,3.054656982421875,Opening,0.0,0.0,0.0,0.0,0.0,0.0,0.0,0.0,
0.22800799999997254,0.0,0.0,32018.0,0.0,0.0,0.0,0.0,0.25,0.772704999,0.01,0.0,-56551.0,0.0,0.0,-0.0,0.0,0.25,0.46142573400000003,0.01,0.0,37145.0,0.0,0.0,0.0,0.0,0.0,3.330077784,0.01,0.0,-8347.0,0.125,0.0,-0.0,0.0,0.25,1.596679524,0.01,0.0,-0.3499999940395355,-0.9700000286102295,0.0,-0.01715087890625,-0.00665283203125,1.020263671875,36.2599983215332,0.0,0.0,-5.7093505859375,3.054656982421875,Opening,0.0,0.0,0.0,0.0,0.0,0.0,0.0,0.0,
0.34789499999996043,0.0,0.0,32018.0,0.0,0.0,0.0,0.0,0.25,0.7653807810000001,0.01,0.0,-56551.0,0.0,0.0,-0.0,0.0,0.25,0.46142573400000003,0.01,0.0,37145.0,0.0,0.0,0.0,0.0,0.0,3.328857081,0.01,0.0,-8347.0,0.125,0.0,-0.0,0.0,0.25,1.596679524,0.01,0.0,-0.3499999940395355,-0.9700000286102295,-0.009999999776482582,-0.01678466796875,-0.00274658203125,1.0174560546875,36.2599983215332,0.0,0.0,-5.7093505859375,3.054656982421875,Opening,0.0,0.0,0.0,0.0,0.0,0.0,0.0,0.0,
0.47134799999999816,0.0,0.0,32018.0,0.0,0.0,0.0,0.0,0.25,0.771484296,0.01,0.0,-56551.0,0.0,0.0,-0.0,0.0,0.25,0.462646437,0.01,0.0,37145.0,0.0,0.0,0.0,0.0,0.0,3.330077784,0.01,0.0,-8347.0,0.125,0.0,-0.0,0.0,0.25,1.596679524,0.01,0.0,-0.3499999940395355,-0.9700000286102295,-0.009999999776482582,-0.0169677734375,-0.00543212890625,1.01898193359375,36.2599983215332,0.0,0.0,-5.7093505859375,3.054656982421875,Opening,0.0,0.0,0.0,0.0,0.0,0.0,0.0,0.0,
0.5913939999999711,0.0,0.0,32018.0,0.0,0.0,0.0,0.0,0.25,0.772704999,0.01,0.0,-56551.0,0.0,0.0,-0.0,0.0,0.25,0.462646437,0.01,0.0,37145.0,0.0,0.0,0.0,0.0,0.0,3.330077784,0.01,0.0,-8347.0,0.125,0.0,-0.0,0.0,0.25,1.597900227,0.01,0.0,-0.3499999940395355,-0.9700000286102295,-0.019999999552965164,-0.0152587890625,-0.00567626953125,1.02069091796875,36.2599983215332,0.0,2.0,-5.7093505859375,3.054656982421875,Opening,0.0,0.0,0.0,0.0,0.0,0.0,0.0,0.0,
0.7150909999999567,0.0,0.0,32018.0,0.0,0.0,0.0,0.0,0.25,0.771484296,0.01,0.0,-56551.0,0.0,0.0,-0.0,0.0,0.25,0.462646437,0.01,0.0,37145.0,0.0,0.0,0.0,0.0,0.0,3.330077784,0.01,0.0,-8347.0,0.125,0.0,-0.0,0.0,0.25,1.597900227,0.01,0.0,-0.3499999940395355,-0.9700000286102295,-0.019999999552965164,-0.016845703125,-0.00518798828125,1.02117919921875,36.279998779296875,0.0,0.0,-5.7093505859375,3.054656982421875,Opening,0.0,0.0,0.0,0.0,0.0,0.0,0.0,0.0,
0.8347609999999986,0.0,0.0,32018.0,0.0,0.0,0.0,0.0,0.25,0.773925702,0.01,0.0,-56551.0,0.0,0.0,-0.0,0.0,0.25,0.462646437,0.01,0.0,37145.0,0.0,0.0,0.0,0.0,0.0,3.328857081,0.01,0.0,-8347.0,0.125,0.0,-0.0,0.0,0.25,1.596679524,0.01,0.0,-0.3499999940395355,-0.9700000286102295,-0.019999999552965164,-0.01690673828125,-0.0054931640625,1.02020263671875,36.279998779296875,0.0,0.0,-5.7093505859375,3.054656982421875,Opening,0.0,0.0,0.0,0.0,0.0,0.0,0.0,0.0,
0.9546819999999716,0.0,0.0,32018.0,0.0,0.0,0.0,0.0,0.25,0.770263593,0.01,0.0,-56551.0,0.0,0.0,-0.0,0.0,0.25,0.462646437,0.01,0.0,37145.0,0.0,0.0,0.0,0.0,0.0,3.330077784,0.01,0.0,-8347.0,0.125,0.0,-0.0,0.0,0.25,1.596679524,0.01,0.0,-0.3499999940395355,-0.9700000286102295,-0.019999999552965164,-0.02020263671875,-0.00811767578125,1.021240234375,36.279998779296875,0.0,-2.0,-5.7093505859375,3.054656982421875,Opening,0.0,0.0,0.0,0.0,0.0,0.0,0.0,0.0,
1.0759709999999614,0.0,0.0,32018.0,0.0,0.0,0.0,0.0,0.25,0.771484296,0.01,0.0,-56551.0,0.0,0.0,-0.0,0.0,0.25,0.462646437,0.01,0.0,37145.0,0.0,0.0,0.0,0.0,0.0,3.330077784,0.01,0.0,-8347.0,0.125,0.0,-0.0,0.0,0.25,1.596679524,0.01,0.0,-0.36000001430511475,-0.9700000286102295,-0.019999999552965164,-0.016845703125,-0.01019287109375,1.02069091796875,36.279998779296875,0.0,0.0,-5.7093505859375,3.054656982421875,Opening,0.0,0.0,0.0,0.0,0.0,0.0,0.0,0.0,
1.1950739999999642,0.0,0.0,32018.0,0.0,0.0,0.0,0.0,0.25,0.770263593,0.01,0.0,-56551.0,0.0,0.0,-0.0,0.0,0.25,0.462646437,0.01,0.0,37145.0,0.0,0.0,0.0,0.0,0.0,3.331298487,0.01,0.0,-8347.0,0.125,0.0,-0.0,0.0,0.25,1.596679524,0.01,0.0,-0.36000001430511475,-0.9700000286102295,-0.019999999552965164,-0.01690673828125,-0.0078125,1.0184326171875,36.27000045776367,0.0,0.0,-5.7093505859375,3.054656982421875,Opening,0.0,0.0,0.0,0.0,0.0,0.0,0.0,0.125,
1.3293829999999724,0.0,0.0,32016.0,2.375,-240.0,-859.8425477743149,0.0,0.25,0.7788085140000001,4.932250999999998,0.0,-56518.0,3.5,232.5,859.8425477743149,0.0,0.25,0.462646437,4.963769999999998,0.0,37090.0,2.375,-225.0,-859.8425477743149,0.0,0.0,3.3642574680000004,0.01,0.0,-8318.0,3.625,225.0,859.8425477743149,0.0,0.25,1.596679524,0.01,0.0,-0.33000001311302185,-1.590000033378601,-0.12999999523162842,-0.08465576171875,0.09698486328125,0.60784912109375,36.27000045776367,0.0,-67.0,-5.7133331298828125,3.0542449951171875,Opening,0.0,0.0,0.0,0.0,0.0,0.0,0.0,0.0,
1.4522119999999996,0.0,0.0,31970.0,21.125,-382.5,-2100.0,0.0,0.25,0.787353435,4.932250999999998,0.0,-56454.0,30.5,427.5,2100.0,0.0,0.25,0.458984328,4.963769999999998,0.0,37035.0,17.75,-367.5,-2100.0,0.0,0.0,3.3630367650000004,0.01,0.0,-8270.0,24.75,457.5,2100.0,0.0,0.375,1.591796712,0.01,0.0,-0.33000001311302185,-3.25,-0.47999998927116394,-0.43267822265625,0.1015625,1.09295654296875,36.27000045776367,0.0,-370.0,-5.7360687255859375,3.0558319091796875,Opening,0.0,0.0,0.0,0.0,0.0,0.0,0.0,0.0,
1.58160699999996,0.0,0.0,31875.0,0.0,-570.0,0.0,0.0,0.125,0.795898356,4.932250999999998,0.0,-56360.0,0.0,585.0,0.0,0.0,0.25,0.5017089330000001,4.963769999999998,0.0,36963.0,0.0,-450.0,0.0,0.0,0.0,3.358153953,0.01,0.0,-8170.0,0.125,615.0,0.0,0.0,0.25,1.665038892,0.01,0.0,-0.4300000071525574,-3.130000114440918,-0.3799999952316284,0.25921630859375,-0.0572509765625,0.70166015625,36.27000045776367,0.0,297.0,-5.785797119140625,3.05474853515625,Opening,0.0,0.0,0.0,0.0,0.0,0.0,0.0,0.0,
1.707524999999965,0.0,0.0,31772.0,0.0,-667.5,0.0,0.0,0.125,0.795898356,4.932250999999998,0.0,-56237.0,0.0,697.5,0.0,0.0,0.0,0.511474557,4.963769999999998,0.0,36883.0,0.0,-487.5,0.0,0.0,0.0,3.35693325,0.01,0.0,-8057.0,0.125,630.0,0.0,0.0,0.25,1.669921704,0.01,0.0,-0.4699999988079071,-2.369999885559082,-0.699999988079071,0.09979248046875,0.02923583984375,0.6405029296875,36.279998779296875,0.0,125.0,-5.814605712890625,3.0535125732421875,Opening,0.0,0.0,0.0,0.0,0.0,0.0,0.0,0.125,
1.831134999999951,0.0,0.0,31686.0,0.0,-457.5,0.0,0.0,0.125,0.795898356,4.932250999999998,0.0,-56149.0,0.0,517.5,0.0,0.0,0.0,0.51269526,4.963769999999998,0.0,36836.0,0.0,-292.5,0.0,0.0,0.0,3.3642574680000004,0.01,0.0,-7964.0,0.125,502.5,0.0,0.0,0.25,1.665038892,0.01,0.0,-0.3499999940395355,-1.6299999952316284,-0.9399999976158142,0.0806884765625,0.02105712890625,0.9266357421875,36.279998779296875,0.0,106.0,-5.8337249755859375,3.0534210205078125,Opening,0.0,0.0,0.0,0.0,0.0,0.0,0.0,0.0,
1.9512189999999827,0.0,0.0,31612.0,0.0,-345.0,0.0,0.0,0.125,0.795898356,4.932250999999998,0.0,-56086.0,0.0,375.0,0.0,0.0,0.0,0.511474557,4.963769999999998,0.0,36792.0,0.0,-277.5,0.0,0.0,0.0,3.358153953,0.01,0.0,-7897.0,0.125,360.0,0.0,0.0,0.25,1.665038892,0.01,0.0,-0.3499999940395355,-1.1399999856948853,-1.0199999809265137,0.0487060546875,-0.01397705078125,0.98321533203125,36.279998779296875,0.0,68.0,-5.83917236328125,3.0540008544921875,Opening,0.0,0.0,0.0,0.0,0.0,0.0,0.0,0.0,
2.073207999999984,0.0,0.0,31563.0,0.0,-217.5,0.0,0.0,0.125,0.795898356,4.932250999999998,0.0,-56049.0,0.0,210.0,0.0,0.0,0.0,0.5163573690000001,4.963769999999998,0.0,36760.0,0.0,-180.0,0.0,0.0,0.0,3.359374656,0.01,0.0,-7857.0,0.125,202.5,0.0,0.0,0.25,1.665038892,0.01,0.0,-0.27000001072883606,-0.6499999761581421,-1.0199999809265137,0.09637451171875,0.01678466796875,1.03741455078125,36.279998779296875,0.0,107.0,-5.837432861328125,3.05487060546875,Opening,0.0,0.0,0.0,0.0,0.0,0.0,0.0,0.0,
2.1944169999999574,0.0,0.0,31531.0,0.0,-45.0,0.0,0.0,0.125,0.797119059,4.932250999999998,0.0,-56033.0,0.0,67.5,0.0,0.0,0.125,0.5163573690000001,4.963769999999998,0.0,36752.0,0.0,-45.0,0.0,0.0,0.0,3.358153953,0.01,0.0,-7838.0,0.125,60.0,0.0,0.0,0.25,1.6638181890000001,0.01,0.0,-0.27000001072883606,-0.20000000298023224,-1.1100000143051147,0.02288818359375,-0.0072021484375,1.045166015625,36.2400016784668,0.0,26.0,-5.8271026611328125,3.0555419921875,Opening,0.0,0.0,0.0,0.0,0.0,0.0,0.0,0.0,
2.3207739999999757,0.0,0.0,31531.0,0.0,0.0,0.0,0.0,0.125,0.795898356,4.932250999999998,0.0,-56033.0,0.0,0.0,0.0,0.0,0.125,0.5163573690000001,4.963769999999998,0.0,36752.0,0.0,0.0,0.0,0.0,0.0,3.358153953,0.01,0.0,-7837.0,0.125,0.0,0.0,0.0,0.25,1.665038892,0.01,0.0,-0.27000001072883606,-0.23999999463558197,-1.059999942779541,-0.03631591796875,-4.2724609375E-4,0.99700927734375,36.2400016784668,0.0,-32.0,-5.825653076171875,3.0555419921875,Opening,0.0,0.0,0.0,0.0,0.0,0.0,0.0,0.0,
2.4497229999999983,0.0,0.0,31530.0,0.125,0.0,-181.889770925045,0.0,0.25,0.7922362470000001,4.932250999999998,0.0,-56033.0,0.25,0.0,181.889770925045,0.0,0.125,0.5163573690000001,4.963769999999998,0.0,36752.0,0.375,0.0,-181.889770925045,0.0,0.0,3.3605953590000004,0.01,0.0,-7837.0,0.375,0.0,181.889770925045,0.0,0.25,1.665038892,0.01,0.0,-0.2800000011920929,-0.4300000071525574,-1.0299999713897705,-0.0294189453125,-7.9345703125E-4,1.01104736328125,36.2400016784668,0.0,-21.0,-5.8285064697265625,3.0555419921875,Opening,0.0,0.0,0.0,0.0,0.0,0.0,0.0,0.0,
2.5837019999999904,0.0,0.0,31509.0,1.0,-112.5,-512.5984311103821,0.0,0.125,0.795898356,4.932250999999998,0.0,-56026.0,2.0,165.0,512.5984311103821,0.0,0.125,0.5163573690000001,4.963769999999998,0.0,36734.0,1.25,-172.5,-512.5984311103821,0.0,0.0,3.3630367650000004,0.01,0.0,-7836.0,1.75,135.0,512.5984311103821,0.0,0.25,1.6601560800000001,0.01,0.0,-0.3100000023841858,-0.7799999713897705,-1.0800000429153442,-0.03759765625,-0.01019287109375,0.912353515625,36.2400016784668,0.0,-24.0,-5.830902099609375,3.05487060546875,Opening,0.0,0.0,0.0,0.0,0.0,0.0,0.0,0.0,
2.707930999999982,0.0,0.0,31488.0,2.125,-127.5,-512.5984311103821,0.0,0.125,0.795898356,4.932250999999998,0.0,-56001.0,3.125,120.0,512.5984311103821,0.0,0.125,0.496826121,4.963769999999998,0.0,36709.0,2.125,-150.0,-512.5984311103821,0.0,0.0,3.3642574680000004,0.01,0.0,-7812.0,2.875,127.5,512.5984311103821,0.0,0.25,1.627197099,0.01,0.0,-0.36000001430511475,-1.1799999475479126,-1.090000033378601,-0.127685546875,0.00164794921875,1.04937744140625,36.279998779296875,0.0,-106.0,-5.840484619140625,3.0515289306640625,Opening,0.0,0.0,0.0,0.0,0.0,0.0,0.0,0.0,
2.830426999999967,0.0,0.0,31447.0,2.375,-255.0,-529.1338562965393,0.0,0.125,0.794677653,4.932250999999998,0.0,-55968.0,3.5,270.0,529.1338562965393,0.0,0.125,0.496826121,4.963769999999998,0.0,36678.0,2.75,-240.0,-529.1338562965393,0.0,0.0,3.3642574680000004,0.01,0.0,-7783.0,3.375,262.5,529.1338562965393,0.0,0.125,1.6333006140000002,0.01,0.0,-0.4000000059604645,-1.649999976158142,-1.1699999570846558,-0.1044921875,0.00634765625,1.0614013671875,36.279998779296875,0.0,-73.0,-5.8573760986328125,3.0502166748046875,Opening,0.0,0.0,0.0,0.0,0.0,0.0,0.0,0.0,
2.9518129999999654,0.0,0.0,31386.0,0.625,-382.5,-281.1023533344269,0.0,0.125,0.787353435,4.932250999999998,0.0,-55911.0,1.125,382.5,281.1023533344269,0.0,0.125,0.506591745,4.963769999999998,0.0,36621.0,0.875,-390.0,-281.1023533344269,0.0,0.0,3.3630367650000004,0.01,0.0,-7675.0,1.5,345.0,281.1023533344269,0.0,0.125,1.6357420200000001,0.01,0.0,-0.3799999952316284,-1.7300000190734863,-1.2699999809265137,3.662109375E-4,-0.01446533203125,0.9525146484375,36.279998779296875,0.0,29.0,-5.879302978515625,3.050445556640625,Opening,0.0,0.0,0.0,0.0,0.0,0.0,0.0,0.0,
3.0767799999999697,0.0,0.0,31339.0,0.0,-255.0,0.0,0.0,0.125,0.795898356,4.932250999999998,0.0,-55848.0,0.0,225.0,0.0,0.0,0.0,0.511474557,4.963769999999998,0.0,36559.0,0.0,-307.5,0.0,0.0,0.0,3.359374656,0.01,0.0,-7631.0,0.125,255.0,0.0,0.0,0.125,1.669921704,0.01,0.0,-0.41999998688697815,-1.309999942779541,-1.2999999523162842,0.06170654296875,0.0865478515625,0.91107177734375,36.279998779296875,0.0,80.0,-5.8990631103515625,3.0503997802734375,Opening,0.0,0.0,0.0,0.0,0.0,0.0,0.0,0.0,
3.1993219999999853,0.0,0.0,31300.0,0.0,-262.5,0.0,0.0,0.125,0.795898356,4.932250999999998,0.0,-55814.0,0.0,247.5,0.0,0.0,0.0,0.5163573690000001,4.963769999999998,0.0,36538.0,0.0,-157.5,0.0,0.0,0.0,3.358153953,0.01,0.0,-7602.0,0.125,240.0,0.0,0.0,0.25,1.665038892,0.01,0.0,-0.3700000047683716,-0.7699999809265137,-1.4500000476837158,0.10296630859375,-0.00799560546875,1.01446533203125,36.279998779296875,0.0,116.0,-5.910125732421875,3.0514373779296875,Opening,0.0,0.0,0.0,0.0,0.0,0.0,0.0,0.0,
3.32923199999996,0.0,0.0,31282.0,0.0,-97.5,0.0,0.0,0.125,0.795898356,4.932250999999998,0.0,-55790.0,0.0,75.0,0.0,0.0,0.125,0.521240181,4.963769999999998,0.0,36519.0,0.0,-60.0,0.0,0.0,0.0,3.359374656,0.01,0.0,-7594.0,0.125,60.0,0.0,0.0,0.25,1.665038892,0.01,0.0,-0.3199999928474426,-0.2199999988079071,-1.3600000143051147,0.072021484375,0.0316162109375,1.0269775390625,36.25,0.0,75.0,-5.9133148193359375,3.052337646484375,Opening,0.0,0.0,0.0,0.0,0.0,0.0,0.0,0.0,
3.4498279999999797,0.0,0.0,31281.0,0.0,0.0,0.0,0.0,0.25,0.795898356,4.932250999999998,0.0,-55784.0,0.0,0.0,0.0,0.0,0.125,0.522460884,4.963769999999998,0.0,36517.0,0.0,0.0,0.0,0.0,0.0,3.358153953,0.01,0.0,-7594.0,0.125,0.0,0.0,0.0,0.25,1.665038892,0.01,0.0,-0.33000001311302185,-0.14000000059604645,-1.3899999856948853,-0.025146484375,-0.01287841796875,1.02655029296875,36.25,0.0,-22.0,-5.9119415283203125,3.0526275634765625,Opening,0.0,0.0,0.0,0.0,0.0,0.0,0.0,0.0,
3.573314999999944,0.0,0.0,31281.0,0.0,0.0,0.0,0.0,0.25,0.795898356,4.932250999999998,0.0,-55784.0,0.0,0.0,0.0,0.0,0.125,0.521240181,4.963769999999998,0.0,36517.0,0.0,0.0,0.0,0.0,0.0,3.359374656,0.01,0.0,-7594.0,0.125,0.0,0.0,0.0,0.25,1.665038892,0.01,0.0,-0.33000001311302185,-0.3100000023841858,-1.399999976158142,-0.0325927734375,-0.00750732421875,1.022705078125,36.25,0.0,-26.0,-5.9141845703125,3.0526275634765625,Opening,0.0,0.0,0.0,0.0,0.0,0.0,0.0,0.0,
3.73086599999998,0.0,0.0,31281.0,0.0,0.0,0.0,0.0,0.125,0.795898356,4.932250999999998,0.0,-55784.0,0.0,0.0,0.0,0.0,0.125,0.521240181,4.963769999999998,0.0,36517.0,0.0,0.0,0.0,0.0,0.0,3.359374656,0.01,0.0,-7594.0,0.125,0.0,0.0,0.0,0.25,1.665038892,0.01,0.0,-0.33000001311302185,-0.4300000071525574,-1.409999966621399,-0.00848388671875,-0.0279541015625,1.01055908203125,36.2599983215332,0.0,0.0,-5.9177398681640625,3.0527191162109375,Closing,0.0,0.0,0.0,0.0,0.0,0.0,0.0,0.0,
3.9726969999999855,0.0,0.0,31281.0,0.0,0.0,0.0,0.0,0.125,0.795898356,4.932250999999998,0.0,-55784.0,0.0,0.0,0.0,0.0,0.125,0.521240181,4.963769999999998,0.0,36517.0,0.0,0.0,0.0,0.0,0.0,3.359374656,0.01,0.0,-7594.0,0.125,0.0,0.0,0.0,0.25,1.665038892,0.01,0.0,-0.33000001311302185,-0.5400000214576721,-1.409999966621399,-0.02777099609375,0.00494384765625,1.05029296875,36.25,0.0,-18.0,-5.9177398681640625,3.0527496337890625,Closing,0.0,0.0,0.0,0.0,0.0,0.0,0.0,0.0,
4.362585999999952,0.0,0.0,31281.0,0.0,0.0,0.0,0.0,0.125,0.797119059,4.932250999999998,0.0,-55784.0,0.0,0.0,0.0,0.0,0.125,0.521240181,4.963769999999998,0.0,36517.0,0.0,0.0,0.0,0.0,0.0,3.359374656,0.01,0.0,-7594.0,0.125,0.0,0.0,0.0,0.25,1.665038892,0.01,0.0,-0.33000001311302185,-0.6399999856948853,-1.4299999475479126,-0.01812744140625,-0.0191650390625,1.0108642578125,36.25,0.0,-6.0,-5.917816162109375,3.052734375,Closing,0.0,0.0,0.0,0.0,0.0,0.0,0.0,0.0,
4.791679999999993,0.0,0.0,31281.0,0.0,0.0,0.0,0.0,0.125,0.795898356,4.932250999999998,0.0,-55784.0,0.0,0.0,0.0,0.0,0.125,0.521240181,4.963769999999998,0.0,36517.0,0.0,0.0,0.0,0.0,0.0,3.359374656,0.01,0.0,-7594.0,0.125,0.0,0.0,0.0,0.25,1.665038892,0.01,0.0,-0.3199999928474426,-0.6600000262260437,-1.440000057220459,-0.0093994140625,0.0267333984375,1.033935546875,36.27000045776367,0.0,1.0,-5.917816162109375,3.0524749755859375,Closing,0.0,0.0,0.0,0.0,0.0,0.0,0.0,0.0,
5.050140999999945,0.0,0.0,31281.0,0.0,0.0,0.0,0.0,0.125,0.797119059,4.932250999999998,0.0,-55784.0,0.0,0.0,0.0,0.0,0.125,0.521240181,4.963769999999998,0.0,36517.0,0.0,0.0,0.0,0.0,0.0,3.358153953,0.01,0.0,-7594.0,0.125,0.0,0.0,0.0,0.25,1.665038892,0.01,0.0,-0.33000001311302185,-0.6800000071525574,-1.4500000476837158,-0.02001953125,-1.8310546875E-4,1.04296875,36.27000045776367,0.0,-7.0,-5.9177703857421875,3.052032470703125,Closing,0.0,0.0,0.0,0.0,0.0,0.0,0.0,0.0,
5.173635999999998,0.0,0.0,31281.0,0.0,0.0,0.0,0.0,0.125,0.795898356,4.932250999999998,0.0,-55784.0,0.0,0.0,0.0,0.0,0.125,0.521240181,4.963769999999998,0.0,36517.0,0.0,0.0,0.0,0.0,0.0,3.358153953,0.01,0.0,-7594.0,0.125,0.0,0.0,0.0,0.25,1.665038892,0.01,0.0,-0.3400000035762787,-0.699999988079071,-1.4500000476837158,-0.01763916015625,-0.0086669921875,1.03277587890625,36.27000045776367,0.0,-4.0,-5.9177703857421875,3.052032470703125,Closing,0.0,0.0,0.0,0.0,0.0,0.0,0.0,0.0,
5.294080999999947,0.0,0.0,31281.0,0.0,0.0,0.0,0.0,0.125,0.795898356,4.932250999999998,0.0,-55784.0,0.0,0.0,0.0,0.0,0.125,0.521240181,4.963769999999998,0.0,36517.0,0.0,0.0,0.0,0.0,0.0,3.358153953,0.01,0.0,-7594.0,0.125,0.0,0.0,0.0,0.25,1.665038892,0.01,0.0,-0.3400000035762787,-0.7200000286102295,-1.4600000381469727,-0.01470947265625,-0.0076904296875,1.01666259765625,36.25,0.0,-1.0,-5.9177703857421875,3.052032470703125,Closing,0.0,0.0,0.0,0.0,0.0,0.0,0.0,0.0,
5.417264999999956,0.0,0.0,31281.0,0.0,0.0,0.0,0.0,0.125,0.795898356,4.932250999999998,0.0,-55784.0,0.0,0.0,0.0,0.0,0.125,0.521240181,4.963769999999998,0.0,36517.0,0.0,0.0,0.0,0.0,0.0,3.358153953,0.01,0.0,-7594.0,0.125,0.0,0.0,0.0,0.25,1.665038892,0.01,0.0,-0.33000001311302185,-0.7300000190734863,-1.4700000286102295,-0.012939453125,-0.00836181640625,1.0218505859375,36.25,0.0,0.0,-5.9177703857421875,3.052032470703125,Closing,0.0,0.0,0.0,0.0,0.0,0.0,0.0,0.0,
5.547140999999945,0.0,0.0,31281.0,0.0,0.0,0.0,0.0,0.125,0.795898356,4.932250999999998,0.0,-55784.0,0.0,0.0,0.0,0.0,0.125,0.521240181,4.963769999999998,0.0,36517.0,0.0,0.0,0.0,0.0,0.0,3.358153953,0.01,0.0,-7594.0,0.125,0.0,0.0,0.0,0.25,1.665038892,0.01,0.0,-0.33000001311302185,-0.75,-1.4700000286102295,-0.0184326171875,-0.00787353515625,1.025146484375,36.25,0.0,-4.0,-5.9177703857421875,3.052032470703125,Closing,0.0,0.0,0.0,0.0,0.0,0.0,0.0,0.0,
5.668573999999964,0.0,0.0,31281.0,0.0,0.0,0.0,0.0,0.125,0.795898356,4.932250999999998,0.0,-55784.0,0.0,0.0,0.0,0.0,0.125,0.521240181,4.963769999999998,0.0,36517.0,0.0,0.0,0.0,0.0,0.0,3.359374656,0.01,0.0,-7594.0,0.125,0.0,0.0,0.0,0.25,1.665038892,0.01,0.0,-0.3400000035762787,-0.7599999904632568,-1.4700000286102295,-0.01361083984375,-0.0076904296875,1.0269775390625,36.25,0.0,0.0,-5.9177703857421875,3.052032470703125,Closing,0.0,0.0,0.0,0.0,0.0,0.0,0.0,0.0,
5.804594999999972,0.0,0.0,31281.0,0.0,0.0,0.0,0.0,0.125,0.795898356,4.932250999999998,0.0,-55784.0,0.0,0.0,0.0,0.0,0.125,0.521240181,4.963769999999998,0.0,36517.0,0.0,0.0,0.0,0.0,0.0,3.359374656,0.01,0.0,-7594.0,0.125,0.0,0.0,0.0,0.25,1.665038892,0.01,0.0,-0.3400000035762787,-0.7699999809265137,-1.4700000286102295,-0.0166015625,-0.00286865234375,1.02294921875,36.2599983215332,0.0,-2.0,-5.9177703857421875,3.052032470703125,Closing,0.0,0.0,0.0,0.0,0.0,0.0,0.0,0.0,
5.9357359999999755,0.0,0.0,31266.0,1.25,-90.0,-562.2047066688538,0.0,0.125,0.8032225740000001,4.932250999999998,0.0,-55780.0,1.375,150.0,562.2047066688538,0.0,0.125,0.5163573690000001,4.963769999999998,0.0,36513.0,1.5,-52.5,-562.2047066688538,0.0,0.0,3.3642574680000004,0.01,0.0,-7593.0,1.625,120.0,562.2047066688538,0.0,0.25,1.6601560800000001,0.01,0.0,-0.2800000011920929,-1.0399999618530273,-1.4800000190734863,-0.07110595703125,-0.00140380859375,0.74560546875,36.2599983215332,0.0,-57.0,-5.918792724609375,3.0522918701171875,Closing,0.0,0.0,0.0,0.0,0.0,0.0,0.0,0.0,
6.066306999999972,0.0,0.0,31244.0,3.875,-165.0,-760.6299340724945,0.0,0.125,0.795898356,4.932250999999998,0.0,-55756.0,5.75,157.5,760.6299340724945,0.0,0.125,0.505371042,4.963769999999998,0.0,36493.0,4.375,-150.0,-760.6299340724945,0.0,0.0,3.3630367650000004,0.01,0.0,-7572.0,5.125,165.0,760.6299340724945,0.0,0.25,1.597900227,0.01,0.0,-0.28999999165534973,-1.659999966621399,-1.4800000190734863,-0.1767578125,0.04229736328125,1.1072998046875,36.2599983215332,0.0,-145.0,-5.9282379150390625,3.052459716796875,Closing,0.0,0.0,0.0,0.0,0.0,0.0,0.0,0.0,
6.195424999999989,0.0,0.0,31185.0,6.5,-420.0,-975.5905240774155,0.0,0.125,0.795898356,4.932250999999998,0.0,-55714.0,9.0,412.5,975.5905240774155,0.0,0.0,0.506591745,4.963769999999998,0.0,36454.0,7.625,-322.5,-975.5905240774155,0.0,0.0,3.3642574680000004,0.01,0.0,-7463.0,7.625,405.0,975.5905240774155,0.0,0.25,1.597900227,0.01,0.0,-0.41999998688697815,-2.5999999046325684,-1.350000023841858,-0.20343017578125,-0.0323486328125,0.9599609375,36.2599983215332,0.0,-158.0,-5.9539031982421875,3.050689697265625,Closing,0.0,0.0,0.0,0.0,0.0,0.0,0.0,0.0,
6.332864000000002,0.0,0.0,31080.0,5.375,-712.5,-975.5905240774155,0.0,0.125,0.795898356,4.932250999999998,0.0,-55505.0,7.375,712.5,975.5905240774155,0.0,0.0,0.506591745,4.963769999999998,0.0,36367.0,7.75,-420.0,-975.5905240774155,0.0,0.0,3.3618160620000004,0.01,0.0,-7343.0,6.375,712.5,975.5905240774155,0.0,0.25,1.596679524,0.01,0.0,-0.4300000071525574,-3.359999895095825,-1.2799999713897705,-0.06512451171875,0.0133056640625,0.98431396484375,36.2400016784668,0.0,-7.0,-5.997711181640625,3.0462646484375,Closing,0.0,0.0,0.0,0.0,0.0,0.0,0.0,0.0,
6.46227999999997,0.0,0.0,30941.0,3.375,-960.0,-975.5905240774155,0.0,0.125,0.795898356,4.932250999999998,0.0,-55350.0,4.375,945.0,975.5905240774155,0.0,0.0,0.5029296360000001,4.963769999999998,0.0,36325.0,13.375,-472.5,-975.5905240774155,0.0,0.0,3.35693325,0.01,0.0,-7194.0,4.375,945.0,975.5905240774155,0.0,0.25,1.596679524,0.01,0.0,-0.2800000011920929,-3.7799999713897705,-0.8799999952316284,-0.20068359375,-0.0791015625,1.41845703125,36.2400016784668,0.0,-105.0,-6.052215576171875,3.041839599609375,Closing,0.0,0.0,0.0,0.0,0.0,0.0,0.0,0.0,
6.596079999999958,0.0,0.0,30772.0,1.375,-1110.0,-975.5905240774155,0.0,0.25,0.795898356,4.932250999999998,0.0,-55175.0,2.5,1087.5,975.5905240774155,0.0,0.0,0.522460884,4.963769999999998,0.0,36053.0,9.375,-945.0,-975.5905240774155,0.0,0.0,3.3642574680000004,0.01,0.0,-7023.0,2.875,1080.0,975.5905240774155,0.0,0.25,1.6308592080000002,0.01,0.0,-0.3199999928474426,-3.75,-0.5099999904632568,-0.1058349609375,-0.085205078125,1.11285400390625,36.2400016784668,0.0,-31.0,-6.1051177978515625,3.0395050048828125,Closing,0.0,0.0,0.0,0.0,0.0,0.0,0.0,0.0,
6.732067999999971,0.0,0.0,30586.0,0.375,-1192.5,-975.5905240774155,0.0,0.125,0.795898356,4.932250999999998,0.0,-54992.0,1.125,1147.5,975.5905240774155,0.0,0.125,0.526122993,4.963769999999998,0.0,35859.0,5.125,-1207.5,-975.5905240774155,0.0,0.0,3.3642574680000004,0.01,0.0,-6841.0,1.625,1147.5,975.5905240774155,0.0,0.125,1.6552732680000002,0.01,0.0,-0.41999998688697815,-3.369999885559082,-0.18000000715255737,-0.04388427734375,-0.121337890625,0.9686279296875,36.2400016784668,0.0,13.0,-6.172027587890625,3.03759765625,Closing,0.0,0.0,0.0,0.0,0.0,0.0,0.0,0.0,
6.865136999999988,0.0,0.0,30396.0,0.75,-1245.0,-1232.5479750581628,0.0,0.375,0.886230378,0.12955323492557497,0.0,-54824.0,0.375,1005.0,762.7508595203384,0.0,0.25,0.6323241540000001,0.21227616449525313,0.0,35661.0,6.75,-1230.0,-1232.5479750581628,0.0,0.25,3.291015288,4.810632718929692,0.0,-6670.0,0.5,1012.5,762.7508595203384,0.0,0.5,1.4770506300000001,4.7459705901829725,0.0,-0.46000000834465027,-3.049999952316284,0.1899999976158142,0.1453857421875,0.04815673828125,1.151123046875,36.2599983215332,0.0,206.0,-6.2277679443359375,3.03277587890625,Closing,0.0,0.0,0.0,0.0,0.0,0.0,0.0,0.0,
6.996886999999988,0.0,0.0,29978.0,0.375,-1327.5,-1261.1043595396407,0.0,0.375,0.9619139640000001,0.1400554435037677,0.0,-54659.0,0.25,975.0,744.5310237595047,0.0,0.25,0.799560465,0.24121097357456467,0.0,35467.0,5.875,-1177.5,-1261.1043595396407,0.0,0.125,3.2092281870000003,4.800113158741108,0.0,-6503.0,0.375,922.5,744.5310237595047,0.0,0.25,1.337890488,4.717069415588818,0.0,-0.4000000059604645,-2.7100000381469727,3.9000000953674316,0.03680419921875,0.06121826171875,1.00616455078125,36.2599983215332,0.0,88.0,-6.2678680419921875,3.0287933349609375,Closing,0.0,0.0,0.0,0.0,0.0,0.0,0.0,0.0,
7.136632999999972,0.0,0.0,29748.0,0.375,-1447.5,-1406.855838535535,0.0,0.25,0.9973143510000001,0.18608545411892174,0.0,-54528.0,0.25,795.0,670.6897151972878,0.0,0.25,0.8569335060000001,0.40691922449074086,0.0,35260.0,7.25,-1350.0,-1406.855838535535,0.0,0.125,3.184814127,4.7540070979499784,0.0,-6375.0,0.75,742.5,670.6897151972878,0.0,0.5,1.2426756540000001,4.551553787740953,0.0,-0.10999999940395355,-2.6700000762939453,10.819999694824219,0.07073974609375,0.22735595703125,1.05511474609375,36.2599983215332,0.0,160.0,-6.3072052001953125,3.030792236328125,Closing,0.0,0.0,0.0,0.0,0.0,0.0,0.0,0.0,
7.2695479999999515,0.0,0.0,29500.0,0.625,-1545.0,-1678.3901975768993,0.0,0.25,1.0302733320000002,0.24836973842912252,0.0,-54402.0,0.125,727.5,632.0803088305945,0.0,0.5,1.19628894,0.7681441301683589,0.0,35053.0,11.75,-1275.0,-1678.3901975768993,0.0,0.125,3.1579586610000003,4.691619908367349,0.0,-6154.0,0.75,675.0,632.0803088305945,0.0,0.625,0.9082030320000001,4.190748778171687,0.0,0.23999999463558197,-2.450000047683716,19.770000457763672,0.02117919921875,0.19598388671875,0.9512939453125,36.25,0.0,123.0,-6.34283447265625,3.0435333251953125,Closing,0.0,0.0,0.0,0.0,0.0,0.0,0.0,0.0,
7.4090749999999534,0.0,0.0,29230.0,0.125,-1747.5,-1678.3901975768993,0.0,0.125,1.048583877,0.24836973842912252,0.0,-54175.0,0.125,690.0,632.0803088305945,0.0,0.25,1.4001463410000001,0.7681441301683589,0.0,34811.0,9.125,-1627.5,-1678.3901975768993,0.0,0.125,3.144530928,4.691619908367349,0.0,-6060.0,1.5,585.0,632.0803088305945,0.0,0.25,0.78124992,4.190748778171687,0.0,0.44999998807907104,-2.309999942779541,31.459999084472656,-0.1336669921875,-0.01873779296875,0.766357421875,36.25,0.0,-100.0,-6.3630523681640625,3.0633697509765625,Closing,0.0,0.0,0.0,0.0,0.0,0.0,0.0,0.0,
7.545659999999974,0.0,0.0,28945.0,0.0,-1762.5,-1694.1127159971581,0.0,0.125,1.048583877,0.24598575245139495,0.0,-54054.0,0.25,750.0,641.5415676818315,0.0,0.25,1.3940428260000002,0.7513196942221335,0.0,34540.0,7.625,-1807.5,-1694.1127159971581,0.0,0.125,3.133544601,4.694007833135242,0.0,-5961.0,1.75,607.5,641.5415676818315,0.0,0.25,0.820312416,4.207553657008012,0.0,0.7300000190734863,-2.5399999618530273,42.45000076293945,-0.00836181640625,0.17510986328125,1.3577880859375,36.25,0.0,144.0,-6.3748779296875,3.089324951171875,Closing,0.0,0.0,0.0,0.0,0.0,0.0,0.0,0.0,
7.668460999999952,0.0,0.0,28665.0,0.0,-1740.0,-1694.1127159971581,0.0,0.125,1.048583877,0.24598575245139495,0.0,-53935.0,0.125,742.5,641.5415676818315,0.0,0.25,1.35498033,0.7513196942221335,0.0,34248.0,6.5,-1785.0,-1694.1127159971581,0.0,0.125,3.135986007,4.694007833135242,0.0,-5883.0,2.875,495.0,641.5415676818315,0.0,0.25,0.8691405360000001,4.207553657008012,0.0,1.0700000524520874,-2.8299999237060547,54.47999954223633,-0.1529541015625,0.1414794921875,1.35723876953125,36.25,0.0,44.0,-6.3783111572265625,3.125,Closing,0.0,0.0,0.0,0.0,0.0,0.0,0.0,0.0,
7.7923179999999705,0.0,0.0,28390.0,0.0,-1627.5,-1246.7307061900135,0.0,0.375,1.071777234,0.339277384854103,0.0,-53821.0,0.125,720.0,533.049979074111,0.0,1.5,1.483154145,1.4004405237072204,0.0,33965.0,1.875,-1672.5,-1246.7307061900135,0.0,0.125,3.085937184,4.600562065528861,0.0,-5804.0,2.5,487.5,533.049979074111,0.0,3.875,0.5419921320000001,3.5591873804506657,0.0,1.3600000143051147,-2.7899999618530273,64.36000061035156,0.118408203125,0.05792236328125,0.9346923828125,36.2599983215332,0.0,103.0,-6.3713531494140625,3.158843994140625,Closing,0.0,0.0,0.0,0.0,0.0,0.0,0.0,0.0,
7.917664999999979,0.0,0.0,28147.0,0.125,-1500.0,-826.7716348171234,0.0,0.375,1.2915037740000002,0.5498168668524864,0.0,-53722.0,0.375,622.5,826.7716348171234,0.0,1.0,2.408447019,1.92855458977222,0.0,33512.0,0.875,-1365.0,-826.7716348171234,0.0,0.25,2.858886426,4.389674732977291,0.0,-5728.0,6.0,487.5,826.7716348171234,0.0,1.375,4.6032710130000005,3.031687206278561,0.0,1.3700000047683716,-1.850000023841858,74.44000244140625,0.33984375,0.093505859375,0.984375,36.2599983215332,0.0,167.0,-6.34991455078125,3.18243408203125,Closing,0.0,0.0,0.0,0.0,0.0,0.0,0.0,0.0,
8.050881999999984,0.0,0.0,27916.0,0.375,-1080.0,-1719.68509554863,0.0,0.375,1.444091649,0.5498168668524864,0.0,-53601.0,9.0,750.0,1719.68509554863,0.0,0.25,3.095702808,1.92855458977222,0.0,33360.0,13.875,-960.0,-1719.68509554863,0.0,0.125,2.7490231560000002,4.389674732977291,0.0,-5628.0,24.625,667.5,1719.68509554863,0.0,0.25,4.283446827000001,3.031687206278561,0.0,1.6799999475479126,-0.09000000357627869,85.48999786376953,0.26251220703125,0.16912841796875,0.84698486328125,36.2599983215332,0.0,164.0,-6.311553955078125,3.1768646240234375,Closing,0.0,0.0,0.0,0.0,0.0,0.0,0.0,0.0,
8.172056999999972,0.0,0.0,27757.0,0.75,-765.0,-1041.7322874069216,0.0,0.375,1.4489744610000002,0.5498168668524864,0.0,-53501.0,7.25,600.0,1041.7322874069216,0.0,0.875,2.882079783,1.92855458977222,0.0,33250.0,14.375,-720.0,-1041.7322874069216,0.0,0.0,2.756347374,4.389674732977291,0.0,-5499.0,14.0,817.5,1041.7322874069216,0.0,0.625,4.454345247,3.031687206278561,0.0,1.9900000095367432,-0.3199999928474426,93.63999938964844,0.02020263671875,-0.047119140625,1.16107177734375,36.2599983215332,0.0,-89.0,-6.269927978515625,3.155364990234375,Closing,0.0,0.0,0.0,0.0,0.0,0.0,0.0,0.0,
8.29681799999997,0.0,0.0,27674.0,0.0,-262.5,0.0,0.0,0.375,1.412353371,0.5498168668524864,0.0,-53407.0,0.0,585.0,0.0,0.0,0.25,2.340087651,1.92855458977222,0.0,33189.0,0.0,-435.0,0.0,0.0,0.0,2.774657919,4.389674732977291,0.0,-5412.0,0.125,480.0,0.0,0.0,0.375,4.744872561,3.031687206278561,0.0,1.7699999809265137,-0.8799999952316284,100.5,-0.095947265625,-0.03271484375,1.13214111328125,36.2599983215332,0.0,-52.0,-6.229705810546875,3.136566162109375,Closing,0.0,0.0,0.0,0.0,0.0,0.0,0.0,0.0,
8.426871999999975,0.0,0.0,27640.0,0.0,-322.5,0.0,0.0,0.25,1.381835796,0.5498168668524864,0.0,-53326.0,0.0,375.0,0.0,0.0,0.25,2.263183362,1.92855458977222,0.0,33151.0,0.0,-240.0,0.0,0.0,0.0,2.785644246,4.389674732977291,0.0,-5329.0,0.125,262.5,0.0,0.0,0.25,4.754638185,3.031687206278561,0.0,1.4700000286102295,-1.659999966621399,104.79000091552734,0.0477294921875,0.0357666015625,1.11004638671875,36.2400016784668,0.0,-13.0,-6.1929931640625,3.1273193359375,Closing,0.0,0.0,0.0,0.0,0.0,0.0,0.0,0.0,
8.55290599999996,0.0,0.0,27590.0,0.0,-150.0,0.0,0.0,0.125,1.381835796,0.5498168668524864,0.0,-53316.0,0.0,60.0,0.0,0.0,0.25,2.299804452,1.92855458977222,0.0,33142.0,0.0,-45.0,0.0,0.0,0.0,2.775878622,4.389674732977291,0.0,-5321.0,0.125,37.5,0.0,0.0,0.5,4.71191358,3.031687206278561,0.0,1.5499999523162842,-1.2300000190734863,105.18000030517578,-0.125732421875,-0.02850341796875,0.98333740234375,36.2400016784668,0.0,-25.0,-6.1934661865234375,3.116943359375,Closing,0.0,0.0,0.0,0.0,0.0,0.0,0.0,0.0,
8.676810999999987,0.0,0.0,27546.0,6.375,-135.0,-1174.0156888961792,0.0,0.125,1.381835796,0.5498168668524864,0.0,-53296.0,8.875,180.0,1174.0156888961792,0.0,0.5,2.353515384,1.92855458977222,0.0,33136.0,7.25,-45.0,-1174.0156888961792,0.0,0.0,2.8002926820000003,4.389674732977291,0.0,-5305.0,7.375,210.0,1174.0156888961792,0.0,0.25,4.670409678,3.031687206278561,0.0,1.3600000143051147,-1.3899999856948853,105.98999786376953,-0.0936279296875,-0.06231689453125,1.17431640625,36.2400016784668,0.0,-68.0,-6.194671630859375,3.1081390380859375,Closing,0.0,0.0,0.0,0.0,0.0,0.0,0.0,0.0,
8.806712,0.0,0.0,27436.0,10.875,-615.0,-1570.8661437034607,0.0,0.125,1.381835796,0.5498168668524864,0.0,-53238.0,16.25,570.0,1570.8661437034607,0.0,0.25,2.36816382,1.92855458977222,0.0,33074.0,14.375,-442.5,-1570.8661437034607,0.0,0.0,2.808837603,4.389674732977291,0.0,-5256.0,14.75,555.0,1570.8661437034607,0.0,0.125,4.588622577000001,3.031687206278561,0.0,0.9900000095367432,-1.5700000524520874,111.76000213623047,-0.12261962890625,-0.00567626953125,0.986083984375,36.2400016784668,0.0,14.0,-6.1992645263671875,3.1071929931640625,Closing,0.0,0.0,0.0,0.0,0.0,0.0,0.0,0.0,
8.934237999999954,0.0,0.0,27298.0,0.0,-840.0,0.0,0.0,0.25,1.383056499,0.5498168668524864,0.0,-53093.0,0.0,840.0,0.0,0.0,0.25,2.46582006,1.92855458977222,0.0,32949.0,0.0,-735.0,0.0,0.0,0.0,2.7941891670000003,4.389674732977291,0.0,-5133.0,0.125,742.5,0.0,0.0,0.375,4.6557612420000005,3.031687206278561,0.0,0.800000011920929,-2.0199999809265137,125.25,0.00885009765625,-0.19146728515625,1.34539794921875,36.209999084472656,0.0,-204.0,-6.2010040283203125,3.10919189453125,Closing,0.0,0.0,0.0,0.0,0.0,0.0,0.0,0.125,
9.056132999999972,0.0,0.0,27173.0,0.0,-780.0,0.0,0.0,0.125,1.381835796,0.5498168668524864,0.0,-52967.0,0.0,742.5,0.0,0.0,0.25,2.496337635,1.92855458977222,0.0,32856.0,0.0,-615.0,0.0,0.0,0.0,2.7941891670000003,4.389674732977291,0.0,-5002.0,0.125,705.0,0.0,0.0,0.125,4.694823738,3.031687206278561,0.0,0.7099999785423279,-2.359999895095825,135.83999633789062,-0.07720947265625,0.1068115234375,1.326171875,36.209999084472656,0.0,78.0,-6.199066162109375,3.1104583740234375,Closing,0.0,0.0,0.0,0.0,0.0,0.0,0.0,0.0,
9.177368999999947,0.0,0.0,27092.0,0.0,-495.0,0.0,0.0,0.125,1.381835796,0.5498168668524864,0.0,-52872.0,0.0,487.5,0.0,0.0,0.25,2.491454823,1.92855458977222,0.0,32765.0,0.0,-517.5,0.0,0.0,0.0,2.7941891670000003,4.389674732977291,0.0,-4903.0,0.125,502.5,0.0,0.0,0.25,4.689940926,3.031687206278561,0.0,0.6000000238418579,-2.4000000953674316,142.1300048828125,-0.02923583984375,0.03106689453125,1.2186279296875,36.209999084472656,0.0,-6.0,-6.198211669921875,3.1103973388671875,Closing,0.0,0.0,0.0,0.0,0.0,0.0,0.0,0.0,
9.308814999999944,0.0,0.0,27046.0,0.0,-262.5,0.0,0.0,0.125,1.383056499,0.5498168668524864,0.0,-52810.0,0.0,262.5,0.0,0.0,0.25,2.46582006,1.92855458977222,0.0,32706.0,0.0,-285.0,0.0,0.0,0.0,2.7954098700000003,4.389674732977291,0.0,-4832.0,0.125,270.0,0.0,0.0,0.25,4.676513193,3.031687206278561,0.0,0.4399999976158142,-2.380000114440918,145.75,0.0682373046875,0.014404296875,0.91064453125,36.209999084472656,0.0,-83.0,-6.1999359130859375,3.108795166015625,Closing,0.0,0.0,0.0,0.0,0.0,0.0,0.0,0.0,
9.432207999999985,0.0,0.0,27034.0,0.0,-45.0,0.0,0.0,0.25,1.380615093,0.5498168668524864,0.0,-52783.0,0.0,60.0,0.0,0.0,0.25,2.460937248,1.92855458977222,0.0,32684.0,0.0,-67.5,0.0,0.0,0.0,2.7954098700000003,4.389674732977291,0.0,-4798.0,0.125,52.5,0.0,0.0,0.25,4.67529249,3.031687206278561,0.0,0.4399999976158142,-2.2300000190734863,146.27999877929688,0.00140380859375,0.027587890625,1.1246337890625,36.25,0.0,-27.0,-6.2011566162109375,3.1065521240234375,Closing,0.0,0.0,0.0,0.0,0.0,0.0,0.0,0.0,
9.555051999999966,0.0,0.0,27034.0,0.0,0.0,0.0,0.0,0.125,1.381835796,0.5498168668524864,0.0,-52781.0,0.0,0.0,0.0,0.0,0.125,2.460937248,1.92855458977222,0.0,32684.0,0.0,0.0,0.0,0.0,0.0,2.7905270580000003,4.389674732977291,0.0,-4794.0,0.125,0.0,0.0,0.0,0.25,4.676513193,3.031687206278561,0.0,0.5699999928474426,-2.109999895095825,145.77000427246094,-0.002685546875,-0.2095947265625,1.02203369140625,36.25,0.0,-152.0,-6.201995849609375,3.104583740234375,Closing,0.0,0.0,0.0,0.0,0.0,0.0,0.0,0.0,
9.68893399999995,0.0,0.0,27034.0,0.0,0.0,0.0,0.0,0.125,1.383056499,0.5498168668524864,0.0,-52781.0,0.0,0.0,0.0,0.0,0.125,2.460937248,1.92855458977222,0.0,32684.0,0.0,0.0,0.0,0.0,0.0,2.7954098700000003,4.389674732977291,0.0,-4794.0,0.125,0.0,0.0,0.0,0.25,4.676513193,3.031687206278561,0.0,0.699999988079071,-1.9800000190734863,145.5500030517578,0.0067138671875,0.12591552734375,0.94903564453125,36.25,0.0,31.0,-6.205963134765625,3.102569580078125,Closing,0.0,0.0,0.0,0.0,0.0,0.0,0.0,0.0,
9.81068299999996,0.0,0.0,27034.0,0.0,0.0,0.0,0.0,0.125,1.381835796,0.5498168668524864,0.0,-52781.0,0.0,0.0,0.0,0.0,0.125,2.460937248,1.92855458977222,0.0,32684.0,0.0,0.0,0.0,0.0,0.0,2.7880856520000004,4.389674732977291,0.0,-4794.0,0.125,0.0,0.0,0.0,0.25,4.676513193,3.031687206278561,0.0,0.8100000023841858,-1.840000033378601,145.58999633789062,-0.03619384765625,-0.03204345703125,1.12799072265625,36.22999954223633,0.0,-26.0,-6.213592529296875,3.0874176025390625,Closing,0.0,0.0,0.0,0.0,0.0,0.0,0.0,0.0,
10.18268399999995,0.0,0.0,27034.0,0.0,0.0,0.0,0.0,0.125,1.381835796,0.5498168668524864,0.0,-52781.0,0.0,0.0,0.0,0.0,0.25,2.460937248,1.92855458977222,0.0,32684.0,0.0,0.0,0.0,0.0,0.0,2.7941891670000003,4.389674732977291,0.0,-4794.0,0.125,0.0,0.0,0.0,0.25,4.677733896,3.031687206278561,0.0,0.75,-1.5800000429153442,145.5800018310547,-0.0799560546875,0.04901123046875,1.03521728515625,36.2400016784668,0.0,62.0,-6.2362060546875,3.0750579833984375,Closing,0.0,0.0,0.0,0.0,0.0,0.0,0.0,0.0,
10.552696999999986,0.0,0.0,27034.0,0.0,0.0,0.0,0.0,0.125,1.37939439,0.5498168668524864,0.0,-52781.0,0.0,0.0,0.0,0.0,0.25,2.460937248,1.92855458977222,0.0,32684.0,0.0,0.0,0.0,0.0,0.0,2.7954098700000003,4.389674732977291,0.0,-4794.0,0.125,0.0,0.0,0.0,0.25,4.676513193,3.031687206278561,0.0,0.6299999952316284,-1.5299999713897705,145.55999755859375,-0.061279296875,0.0946044921875,1.02667236328125,36.2400016784668,0.0,74.0,-6.2316741943359375,3.065948486328125,Closing,0.0,0.0,0.0,0.0,0.0,0.0,0.0,0.0,
10.956382999999972,0.0,0.0,27034.0,0.0,0.0,0.0,0.0,0.25,1.381835796,0.5498168668524864,0.0,-52781.0,0.0,0.0,0.0,0.0,0.25,2.460937248,1.92855458977222,0.0,32684.0,0.0,0.0,0.0,0.0,0.0,2.7941891670000003,4.389674732977291,0.0,-4794.0,0.125,0.0,0.0,0.0,0.25,4.676513193,3.031687206278561,0.0,0.5699999928474426,-1.5099999904632568,145.5500030517578,-0.01519775390625,-0.08203125,0.96209716796875,36.2599983215332,0.0,-60.0,-6.228912353515625,3.0620574951171875,Closing,0.0,0.0,0.0,0.0,0.0,0.0,0.0,0.0,
11.168275999999954,0.0,0.0,27034.0,0.0,0.0,0.0,0.0,0.25,1.381835796,0.5498168668524864,0.0,-52781.0,0.0,0.0,0.0,0.0,0.125,2.459716545,1.92855458977222,0.0,32684.0,0.0,0.0,0.0,0.0,0.0,2.7954098700000003,4.389674732977291,0.0,-4794.0,0.125,0.0,0.0,0.0,0.25,4.677733896,3.031687206278561,0.0,0.550000011920929,-1.4500000476837158,145.5500030517578,-0.0225830078125,-0.0087890625,1.11627197265625,36.2599983215332,0.0,-15.0,-6.2266082763671875,3.060638427734375,Closing,0.0,0.0,0.0,0.0,0.0,0.0,0.0,0.0,
11.29406699999998,0.0,0.0,27034.0,0.0,0.0,0.0,0.0,0.125,1.381835796,0.5498168668524864,0.0,-52781.0,0.0,0.0,0.0,0.0,0.125,2.460937248,1.92855458977222,0.0,32684.0,0.0,0.0,0.0,0.0,0.0,2.7941891670000003,4.389674732977291,0.0,-4794.0,0.125,0.0,0.0,0.0,0.25,4.676513193,3.031687206278561,0.0,0.6299999952316284,-1.409999966621399,145.5500030517578,-0.01348876953125,0.016845703125,1.27581787109375,36.2599983215332,0.0,-13.0,-6.22601318359375,3.05816650390625,Closing,0.0,0.0,0.0,0.0,0.0,0.0,0.0,0.0,
11.416212999999988,0.0,0.0,27034.0,0.0,0.0,0.0,0.0,0.125,1.383056499,0.5498168668524864,0.0,-52781.0,0.0,0.0,0.0,0.0,0.125,2.460937248,1.92855458977222,0.0,32684.0,0.0,0.0,0.0,0.0,0.0,2.7954098700000003,4.389674732977291,0.0,-4794.0,0.125,0.0,0.0,0.0,0.25,4.677733896,3.031687206278561,0.0,0.6200000047683716,-1.3300000429153442,145.5399932861328,0.0469970703125,0.20721435546875,1.01470947265625,36.2400016784668,0.0,-17.0,-6.2262420654296875,3.0554046630859375,Closing,0.0,0.0,0.0,0.0,0.0,0.0,0.0,0.0,
11.541379999999947,0.0,0.0,27034.0,0.0,0.0,0.0,0.0,0.25,1.383056499,0.5498168668524864,0.0,-52781.0,0.0,0.0,0.0,0.0,0.25,2.460937248,1.92855458977222,0.0,32684.0,0.0,0.0,0.0,0.0,0.0,2.7941891670000003,4.389674732977291,0.0,-4794.0,0.125,0.0,0.0,0.0,0.25,4.676513193,3.031687206278561,0.0,0.7699999809265137,-1.309999942779541,145.52999877929688,-0.07220458984375,-0.05938720703125,0.94549560546875,36.2400016784668,0.0,0.0,-6.2274932861328125,3.0516357421875,Closing,0.0,0.0,0.0,0.0,0.0,0.0,0.0,0.0,
11.67042499999999,0.0,0.0,27034.0,0.0,0.0,0.0,0.0,0.125,1.381835796,0.5498168668524864,0.0,-52781.0,0.0,0.0,0.0,0.0,0.25,2.460937248,1.92855458977222,0.0,32684.0,0.0,0.0,0.0,0.0,0.0,2.7941891670000003,4.389674732977291,0.0,-4794.0,0.125,0.0,0.0,0.0,0.25,4.676513193,3.031687206278561,0.0,0.7099999785423279,-1.2699999809265137,145.52999877929688,-0.08343505859375,0.04534912109375,0.85986328125,36.2400016784668,0.0,72.0,-6.2283935546875,3.047698974609375,Closing,0.0,0.0,0.0,0.0,0.0,0.0,0.0,0.0,
11.794223999999987,0.0,0.0,27034.0,0.0,0.0,0.0,0.0,0.125,1.383056499,0.5498168668524864,0.0,-52781.0,0.0,0.0,0.0,0.0,0.125,2.460937248,1.92855458977222,0.0,32684.0,0.0,0.0,0.0,0.0,0.0,2.7941891670000003,4.389674732977291,0.0,-4794.0,0.125,0.0,0.0,0.0,0.25,4.676513193,3.031687206278561,0.0,0.7300000190734863,-1.2599999904632568,145.52000427246094,-0.0228271484375,0.00250244140625,0.999755859375,36.2400016784668,0.0,-5.0,-6.2290191650390625,3.044708251953125,Closing,0.0,0.0,0.0,0.0,0.0,0.0,0.0,0.0,
11.915897999999986,0.0,0.0,27034.0,0.0,0.0,0.0,0.0,0.125,1.381835796,0.5498168668524864,0.0,-52781.0,0.0,0.0,0.0,0.0,0.125,2.460937248,1.92855458977222,0.0,32684.0,0.0,0.0,0.0,0.0,0.0,2.7941891670000003,4.389674732977291,0.0,-4794.0,0.125,0.0,0.0,0.0,0.25,4.67529249,3.031687206278561,0.0,0.6899999976158142,-1.2599999904632568,145.52000427246094,-0.0133056640625,0.005126953125,1.0145263671875,36.209999084472656,0.0,-11.0,-6.2290191650390625,3.044708251953125,Closing,0.0,0.0,0.0,0.0,0.0,0.0,0.0,0.0,
12.039565999999992,0.0,0.0,27034.0,0.0,0.0,0.0,0.0,0.125,1.381835796,0.5498168668524864,0.0,-52781.0,0.0,0.0,0.0,0.0,0.125,2.460937248,1.92855458977222,0.0,32684.0,0.0,0.0,0.0,0.0,0.0,2.7941891670000003,4.389674732977291,0.0,-4794.0,0.125,0.0,0.0,0.0,0.25,4.67529249,3.031687206278561,0.0,0.6600000262260437,-1.2699999809265137,145.50999450683594,-0.0260009765625,0.00372314453125,1.0164794921875,36.209999084472656,0.0,-1.0,-6.2290191650390625,3.044708251953125,Closing,0.0,0.0,0.0,0.0,0.0,0.0,0.0,0.0,
12.161361999999965,0.0,0.0,27034.0,0.0,0.0,0.0,0.0,0.125,1.381835796,0.5498168668524864,0.0,-52781.0,0.0,0.0,0.0,0.0,0.125,2.460937248,1.92855458977222,0.0,32684.0,0.0,0.0,0.0,0.0,0.0,2.7954098700000003,4.389674732977291,0.0,-4794.0,0.125,0.0,0.0,0.0,0.25,4.676513193,3.031687206278561,0.0,0.6299999952316284,-1.2799999713897705,145.50999450683594,-0.02471923828125,0.00390625,1.01776123046875,36.209999084472656,0.0,-2.0,-6.2290191650390625,3.044708251953125,Closing,0.0,0.0,0.0,0.0,0.0,0.0,0.0,0.0,
12.285362999999954,0.0,0.0,27034.0,0.0,0.0,0.0,0.0,0.125,1.381835796,0.5498168668524864,0.0,-52781.0,0.0,0.0,0.0,0.0,0.125,2.460937248,1.92855458977222,0.0,32684.0,0.0,0.0,0.0,0.0,0.0,2.7880856520000004,4.389674732977291,0.0,-4794.0,0.125,0.0,0.0,0.0,0.25,4.676513193,3.031687206278561,0.0,0.5699999928474426,-1.340000033378601,145.50999450683594,0.0338134765625,4.2724609375E-4,0.829345703125,36.209999084472656,0.0,-48.0,-6.2294921875,3.04400634765625,Closing,0.0,0.0,0.0,0.0,0.0,0.0,0.0,0.0,
12.412362999999955,0.0,0.0,27034.0,0.0,0.0,0.0,0.0,0.125,1.383056499,0.5498168668524864,0.0,-52781.0,0.0,0.0,0.0,0.0,0.25,2.460937248,1.92855458977222,0.0,32684.0,0.0,0.0,0.0,0.0,0.0,2.7954098700000003,4.389674732977291,0.0,-4794.0,0.125,0.0,0.0,0.0,0.25,4.677733896,3.031687206278561,0.0,0.5299999713897705,-1.340000033378601,145.50999450683594,-0.07269287109375,0.05999755859375,1.01739501953125,36.2400016784668,0.0,68.0,-6.2298126220703125,3.04461669921875,Closing,0.0,0.0,0.0,0.0,0.0,0.0,0.0,0.0,
12.534062999999966,0.0,0.0,27034.0,0.0,0.0,0.0,0.0,0.125,1.381835796,0.5498168668524864,0.0,-52781.0,0.0,0.0,0.0,0.0,0.25,2.459716545,1.92855458977222,0.0,32684.0,0.0,0.0,0.0,0.0,0.0,2.7941891670000003,4.389674732977291,0.0,-4794.0,0.125,0.0,0.0,0.0,0.25,4.67529249,3.031687206278561,0.0,0.5199999809265137,-1.3700000047683716,145.50999450683594,0.05902099609375,0.0452880859375,1.0406494140625,36.2400016784668,0.0,-48.0,-6.22784423828125,3.0435943603515625,Closing,0.0,0.0,0.0,0.0,0.0,0.0,0.0,0.0,
12.65602799999999,0.0,0.0,27034.0,0.0,0.0,0.0,0.0,0.125,1.381835796,0.5498168668524864,0.0,-52781.0,0.0,0.0,0.0,0.0,0.25,2.460937248,1.92855458977222,0.0,32684.0,0.0,0.0,0.0,0.0,0.0,2.7941891670000003,4.389674732977291,0.0,-4794.0,0.125,0.0,0.0,0.0,0.25,4.677733896,3.031687206278561,0.0,0.6100000143051147,-1.2999999523162842,145.50999450683594,-0.0374755859375,0.01226806640625,0.8758544921875,36.2400016784668,0.0,15.0,-6.2261962890625,3.0410003662109375,Closing,0.0,0.0,0.0,0.0,0.0,0.0,0.0,0.0,
12.777477999999945,0.0,0.0,27034.0,0.0,0.0,0.0,0.0,0.125,1.383056499,0.5498168668524864,0.0,-52781.0,0.0,0.0,0.0,0.0,0.125,2.460937248,1.92855458977222,0.0,32684.0,0.0,0.0,0.0,0.0,0.0,2.7941891670000003,4.389674732977291,0.0,-4794.0,0.125,0.0,0.0,0.0,0.25,4.676513193,3.031687206278561,0.0,0.5199999809265137,-1.2699999809265137,145.5,0.008056640625,-1.8310546875E-4,1.21026611328125,36.2400016784668,0.0,-35.0,-6.225799560546875,3.03875732421875,Closing,0.0,0.0,0.0,0.0,0.0,0.0,0.0,0.125,
12.909989000000001,0.0,0.0,27034.0,0.0,0.0,0.0,0.0,0.25,1.381835796,0.5498168668524864,0.0,-52781.0,0.0,0.0,0.0,0.0,0.25,2.460937248,1.92855458977222,0.0,32684.0,0.0,0.0,0.0,0.0,0.0,2.7941891670000003,4.389674732977291,0.0,-4794.0,0.125,0.0,0.0,0.0,0.25,4.67529249,3.031687206278561,0.0,0.46000000834465027,-1.2799999713897705,145.5,-0.03173828125,-0.00927734375,0.991455078125,36.220001220703125,0.0,-1.0,-6.226043701171875,3.0388336181640625,Closing,0.0,0.0,0.0,0.0,0.0,0.0,0.0,0.0,
13.028320999999996,0.0,0.0,27034.0,0.0,0.0,0.0,0.0,0.125,1.381835796,0.5498168668524864,0.0,-52781.0,0.0,0.0,0.0,0.0,0.125,2.460937248,1.92855458977222,0.0,32684.0,0.0,0.0,0.0,0.0,0.0,2.7941891670000003,4.389674732977291,0.0,-4794.0,0.125,0.0,0.0,0.0,0.25,4.67529249,3.031687206278561,0.0,0.44999998807907104,-1.2799999713897705,145.49000549316406,-0.0230712890625,0.00927734375,1.0186767578125,36.220001220703125,0.0,0.0,-6.2260589599609375,3.0388336181640625,Closing,0.0,0.0,0.0,0.0,0.0,0.0,0.0,0.0,
13.150614000000001,0.0,0.0,27034.0,0.0,0.0,0.0,0.0,0.125,1.383056499,0.5498168668524864,0.0,-52781.0,0.0,0.0,0.0,0.0,0.25,2.460937248,1.92855458977222,0.0,32684.0,0.0,0.0,0.0,0.0,0.0,2.7954098700000003,4.389674732977291,0.0,-4794.0,0.125,0.0,0.0,0.0,0.25,4.677733896,3.031687206278561,0.0,0.4399999976158142,-1.2899999618530273,145.49000549316406,-0.02069091796875,0.00543212890625,1.016845703125,36.220001220703125,0.0,-3.0,-6.2260589599609375,3.0388336181640625,Closing,0.0,0.0,0.0,0.0,0.0,0.0,0.0,0.0,
13.273775999999954,0.0,0.0,27034.0,0.0,0.0,0.0,0.0,0.125,1.381835796,0.5498168668524864,0.0,-52781.0,0.0,0.0,0.0,0.0,0.125,2.462157951,1.92855458977222,0.0,32684.0,0.0,0.0,0.0,0.0,0.0,2.7941891670000003,4.389674732977291,0.0,-4794.0,0.125,0.0,0.0,0.0,0.25,4.676513193,3.031687206278561,0.0,0.4300000071525574,-1.2899999618530273,145.47999572753906,-0.02490234375,0.0015869140625,1.02264404296875,36.220001220703125,0.0,-1.0,-6.2260589599609375,3.0388336181640625,Closing,0.0,0.0,0.0,0.0,0.0,0.0,0.0,0.0,
13.416497999999963,0.0,0.0,27034.0,0.0,0.0,0.0,0.0,0.25,1.383056499,0.5498168668524864,0.0,-52781.0,0.0,0.0,0.0,0.0,0.125,2.460937248,1.92855458977222,0.0,32684.0,0.0,0.0,0.0,0.0,0.0,2.7941891670000003,4.389674732977291,0.0,-4794.0,0.125,0.0,0.0,0.0,0.375,4.676513193,3.031687206278561,0.0,0.41999998688697815,-1.2999999523162842,145.47999572753906,-0.024658203125,0.00433349609375,1.02191162109375,36.220001220703125,0.0,0.0,-6.2260589599609375,3.0388336181640625,Closing,0.0,0.0,0.0,0.0,0.0,0.0,0.0,0.0,
13.551766999999993,0.0,0.0,27034.0,0.0,0.0,0.0,0.0,0.25,1.381835796,0.5498168668524864,0.0,-52781.0,0.0,0.0,0.0,0.0,0.25,2.460937248,1.92855458977222,0.0,32684.0,0.0,0.0,0.0,0.0,0.0,2.7941891670000003,4.389674732977291,0.0,-4794.0,0.125,0.0,0.0,0.0,0.25,4.677733896,3.031687206278561,0.0,0.4099999964237213,-1.2899999618530273,145.47999572753906,-0.0244140625,0.0068359375,1.0216064453125,36.220001220703125,0.0,0.0,-6.2260589599609375,3.0388336181640625,Closing,0.0,0.0,0.0,0.0,0.0,0.0,0.0,0.0,
13.681969999999971,0.0,0.0,27034.0,0.0,0.0,0.0,0.0,0.25,1.381835796,0.5498168668524864,0.0,-52781.0,0.0,0.0,0.0,0.0,0.125,2.460937248,1.92855458977222,0.0,32684.0,0.0,0.0,0.0,0.0,0.0,2.7941891670000003,4.389674732977291,0.0,-4794.0,0.125,0.0,0.0,0.0,0.25,4.677733896,3.031687206278561,0.0,0.4099999964237213,-1.2899999618530273,145.47999572753906,-0.02490234375,0.00335693359375,1.01580810546875,36.220001220703125,0.0,0.0,-6.2260589599609375,3.0388336181640625,Closing,0.0,0.0,0.0,0.0,0.0,0.0,0.0,0.0,
13.815273999999976,0.0,0.0,27034.0,0.0,0.0,0.0,0.0,0.125,1.383056499,0.5498168668524864,0.0,-52781.0,0.0,0.0,0.0,0.0,0.25,2.459716545,1.92855458977222,0.0,32684.0,0.0,0.0,0.0,0.0,0.0,2.7941891670000003,4.389674732977291,0.0,-4794.0,0.125,0.0,0.0,0.0,0.25,4.677733896,3.031687206278561,0.0,0.4000000059604645,-1.2999999523162842,145.47000122070312,-0.0230712890625,0.0023193359375,1.01788330078125,36.220001220703125,0.0,-2.0,-6.2260589599609375,3.0388336181640625,Closing,0.0,0.0,0.0,0.0,0.0,0.0,0.0,0.0,
13.951506999999983,0.0,0.0,27043.0,0.375,37.5,295.3125,0.0,0.125,1.381835796,0.5498168668524888,0.0,-52784.0,0.25,-30.0,-295.3125,0.0,0.125,2.460937248,1.9285545897722227,0.0,32690.0,0.5,52.5,295.3125,0.0,0.0,2.7941891670000003,4.389674732977289,0.0,-4796.0,0.375,-52.5,-295.3125,0.0,0.25,4.67529249,3.0316872062785585,0.0,0.4000000059604645,-1.2799999713897705,145.44000244140625,-0.00360107421875,-0.00250244140625,1.04547119140625,36.20000076293945,0.0,-21.0,-6.2260894775390625,3.0388336181640625,Closing,0.0,0.0,0.0,0.0,0.0,0.0,0.0,0.0,
14.08502099999995,0.0,0.0,27045.0,0.0,7.5,0.0,0.0,0.25,1.383056499,0.5498168668524888,0.0,-52789.0,0.0,0.0,0.0,0.0,0.125,2.460937248,1.9285545897722227,0.0,32696.0,0.0,7.5,0.0,0.0,0.0,2.7941891670000003,4.389674732977289,0.0,-4806.0,0.125,0.0,0.0,0.0,0.25,4.67529249,3.0316872062785585,0.0,0.3799999952316284,-1.2899999618530273,145.07000732421875,-0.01318359375,0.00555419921875,0.96026611328125,36.20000076293945,0.0,-7.0,-6.2260894775390625,3.039031982421875,Closing,0.0,0.0,0.0,0.0,0.0,0.0,0.0,0.0,
14.21927899999998,0.0,0.0,27045.0,0.0,0.0,0.0,0.0,0.25,1.381835796,0.5498168668524888,0.0,-52789.0,0.0,0.0,0.0,0.0,0.125,2.460937248,1.9285545897722227,0.0,32695.0,0.0,0.0,0.0,0.0,0.0,2.7941891670000003,4.389674732977289,0.0,-4806.0,0.125,0.0,0.0,0.0,0.25,4.67529249,3.0316872062785585,0.0,0.3700000047683716,-1.309999942779541,145.2100067138672,-0.0279541015625,-0.0045166015625,1.033203125,36.20000076293945,0.0,-2.0,-6.2261810302734375,3.039031982421875,Closing,0.0,0.0,0.0,0.0,0.0,0.0,0.0,0.0,
14.361127999999967,0.0,0.0,27056.0,4.875,142.5,1033.59375,0.0,0.125,1.36718736,0.5498168668524888,0.0,-52790.0,7.0,-135.0,-1033.59375,0.0,0.125,2.4804684960000003,1.9285545897722227,0.0,32695.0,5.75,52.5,1033.59375,0.0,0.0,2.766112998,4.389674732977289,0.0,-4832.0,6.125,-127.5,-1033.59375,0.0,0.25,4.681396005,3.0316872062785585,0.0,0.44999998807907104,-1.1799999475479126,143.69000244140625,-0.11700439453125,-0.00390625,1.05078125,36.20000076293945,0.0,69.0,-6.226318359375,3.03900146484375,Closing,0.0,0.0,0.0,0.0,0.0,0.0,0.0,0.0,
14.504937999999965,0.0,0.0,27094.0,0.0,157.5,0.0,0.0,0.25,1.36718736,0.5498168668524888,0.0,-52858.0,0.0,-157.5,0.0,0.0,0.25,2.441406,1.9285545897722227,0.0,32732.0,0.0,285.0,0.0,0.0,0.0,2.77099581,4.389674732977289,0.0,-4868.0,0.125,-202.5,0.0,0.0,0.25,4.632567885,3.0316872062785585,0.0,0.4300000071525574,-1.2000000476837158,138.25,-0.028564453125,-0.07470703125,0.985107421875,36.189998626708984,0.0,-48.0,-6.2263641357421875,3.039459228515625,Closing,0.0,0.0,0.0,0.0,0.0,0.0,0.0,0.0,
14.64177899999998,0.0,0.0,27135.0,6.125,465.0,1542.1875,0.0,0.125,1.358642439,0.5498168668524888,0.0,-52936.0,9.0,-532.5,-1542.1875,0.0,0.0,2.456054436,1.9285545897722227,0.0,32873.0,7.5,645.0,1542.1875,0.0,0.0,2.760009483,4.389674732977289,0.0,-4936.0,8.0,-465.0,-1542.1875,0.0,0.25,4.686278817,3.0316872062785585,0.0,0.5,-0.949999988079071,133.91000366210938,0.0439453125,-0.0411376953125,1.066650390625,36.189998626708984,0.0,-79.0,-6.2286834716796875,3.042572021484375,Closing,0.0,0.0,0.0,0.0,0.0,0.0,0.0,0.0,
14.78578899999999,0.0,0.0,27224.0,0.0,360.0,0.0,0.0,0.25,1.363525251,0.5498168668524888,0.0,-52993.0,0.0,-352.5,0.0,0.0,0.125,2.403564207,1.9285545897722227,0.0,32948.0,0.0,480.0,0.0,0.0,0.0,2.77099581,4.389674732977289,0.0,-5012.0,0.125,-397.5,0.0,0.0,0.25,4.637450697,3.0316872062785585,0.0,0.4099999964237213,-0.8799999952316284,126.05999755859375,-0.04071044921875,0.04351806640625,1.05535888671875,36.189998626708984,0.0,43.0,-6.236572265625,3.0491180419921875,Closing,0.0,0.0,0.0,0.0,0.0,0.0,0.0,0.0,
14.912469999999972,0.0,0.0,27289.0,0.0,457.5,0.0,0.0,0.125,1.362304548,0.5498168668524888,0.0,-53068.0,0.0,-367.5,0.0,0.0,0.25,2.397460692,1.9285545897722227,0.0,33002.0,0.0,345.0,0.0,0.0,0.0,2.77099581,4.389674732977289,0.0,-5086.0,0.125,-330.0,0.0,0.0,0.125,4.627685073,3.0316872062785585,0.0,0.44999998807907104,-0.7300000190734863,121.2300033569336,-0.16302490234375,-0.0711669921875,1.12445068359375,36.189998626708984,0.0,8.0,-6.23822021484375,3.049468994140625,Closing,0.0,0.0,0.0,0.0,0.0,0.0,0.0,0.0,
15.035212,0.0,0.0,27356.0,0.75,180.0,-198.42519611120224,0.0,0.125,1.363525251,0.5498168668524864,0.0,-53107.0,1.875,-142.5,198.42519611120224,0.0,0.25,2.398681395,1.92855458977222,0.0,33032.0,1.25,165.0,-198.42519611120224,0.0,0.0,2.779540731,4.389674732977291,0.0,-5118.0,1.25,-127.5,198.42519611120224,0.0,0.25,4.627685073,3.031687206278561,0.0,0.30000001192092896,-0.8100000023841858,119.30000305175781,-0.04779052734375,0.0101318359375,0.93255615234375,36.2400016784668,0.0,21.0,-6.239044189453125,3.0496826171875,Closing,0.0,0.0,0.0,0.0,0.0,0.0,0.0,0.0,
15.161024999999965,0.0,0.0,27327.0,2.5,-112.5,-595.2756196260452,0.0,0.25,1.365966657,0.5498168668524864,0.0,-53096.0,3.5,157.5,595.2756196260452,0.0,0.25,2.398681395,1.92855458977222,0.0,33016.0,2.75,-127.5,-595.2756196260452,0.0,0.0,2.7990719790000003,4.389674732977291,0.0,-5117.0,3.25,112.5,595.2756196260452,0.0,0.25,4.621581558,3.031687206278561,0.0,0.25,-0.9200000166893005,120.97000122070312,-0.06707763671875,0.0406494140625,1.02313232421875,36.2400016784668,0.0,57.0,-6.2401885986328125,3.049835205078125,Closing,0.0,0.0,0.0,0.0,0.0,0.0,0.0,0.0,
15.287233999999996,0.0,0.0,27304.0,0.0,-195.0,0.0,0.0,0.125,1.3720701720000001,0.5498168668524864,0.0,-53061.0,0.0,127.5,0.0,0.0,0.25,2.4230954550000003,1.92855458977222,0.0,32988.0,0.0,-127.5,0.0,0.0,0.0,2.8039547910000002,4.389674732977291,0.0,-5080.0,0.125,112.5,0.0,0.0,0.25,4.6557612420000005,3.031687206278561,0.0,0.3700000047683716,-0.9800000190734863,125.16999816894531,-0.002685546875,0.05523681640625,0.9178466796875,36.2400016784668,0.0,32.0,-6.2406158447265625,3.0516510009765625,Closing,0.0,0.0,0.0,0.0,0.0,0.0,0.0,0.0,
15.413487999999955,0.0,0.0,27263.0,0.125,-247.5,-496.06300592422485,0.0,0.25,1.3720701720000001,0.5498168668524864,0.0,-53035.0,0.375,225.0,496.06300592422485,0.0,0.0,2.4365231880000002,1.92855458977222,0.0,32973.0,0.625,-112.5,-496.06300592422485,0.0,0.0,2.8039547910000002,4.389674732977291,0.0,-5062.0,0.5,247.5,496.06300592422485,0.0,0.125,4.650878430000001,3.031687206278561,0.0,0.3700000047683716,-1.0800000429153442,127.16000366210938,0.00640869140625,0.0068359375,1.10760498046875,36.2400016784668,0.0,-16.0,-6.2395477294921875,3.05242919921875,Closing,0.0,0.0,0.0,0.0,0.0,0.0,0.0,0.125,
15.553767999999982,0.0,0.0,27243.0,0.0,-90.0,0.0,0.0,0.125,1.3745115780000001,0.5498168668524864,0.0,-53004.0,0.0,45.0,0.0,0.0,0.0,2.4365231880000002,1.92855458977222,0.0,32963.0,0.0,-22.5,0.0,0.0,0.0,2.8039547910000002,4.389674732977291,0.0,-5023.0,0.125,45.0,0.0,0.0,0.125,4.6557612420000005,3.031687206278561,0.0,0.3700000047683716,-1.0199999809265137,128.5,-0.02099609375,0.00469970703125,1.0025634765625,36.25,0.0,0.0,-6.238525390625,3.0527191162109375,Closing,0.0,0.0,0.0,0.0,0.0,0.0,0.0,0.125,
15.68325099999999,0.0,0.0,27243.0,0.0,0.0,0.0,0.0,0.125,1.3732908750000001,0.5498168668524864,0.0,-53004.0,0.0,0.0,0.0,0.0,0.0,2.4365231880000002,1.92855458977222,0.0,32963.0,0.0,0.0,0.0,0.0,0.0,2.8039547910000002,4.389674732977291,0.0,-5023.0,0.125,0.0,0.0,0.0,0.125,4.6606440540000005,3.031687206278561,0.0,0.4099999964237213,-1.0700000524520874,128.77999877929688,0.00439453125,-0.00299072265625,1.03033447265625,36.25,0.0,-22.0,-6.238006591796875,3.0528411865234375,Closing,0.0,0.0,0.0,0.0,0.0,0.0,0.0,0.0,
15.810909999999975,0.0,0.0,27243.0,0.125,0.0,-115.74803106486797,0.0,1.75,1.143798711,4.932250999999998,0.0,-53004.0,0.0,0.0,-115.74803106486797,0.0,2.875,2.650146213,2.481884999999998,0.0,32963.0,0.125,0.0,-115.74803106486797,0.0,0.75,3.199462563,0.01,0.0,-5023.0,0.25,0.0,-115.74803106486797,0.0,2.625,4.367675334,2.4790000000000023,0.0,0.3799999952316284,-1.0299999713897705,128.47000122070312,-0.0308837890625,-0.00445556640625,0.98895263671875,36.25,0.0,0.0,-6.2393646240234375,3.053253173828125,Closing,0.0,0.0,0.0,0.0,0.0,0.0,0.0,0.0,
15.934042999999948,0.0,0.0,27209.0,2.5,-135.0,-479.5275494456291,0.0,0.5,0.445556595,4.932250999999998,0.0,-53049.0,2.25,-180.0,-479.5275494456291,0.0,0.5,3.448485975,2.481884999999998,0.0,32925.0,2.375,-150.0,-479.5275494456291,0.0,0.125,3.653564079,0.01,0.0,-5050.0,2.875,-135.0,-479.5275494456291,0.0,0.625,3.659667594,2.4790000000000023,0.0,0.4300000071525574,-1.5399999618530273,128.16000366210938,0.10223388671875,-0.0594482421875,0.97283935546875,36.220001220703125,0.0,-131.0,-6.2295379638671875,3.061187744140625,Closing,0.0,0.0,0.0,0.0,0.0,0.0,0.0,0.0,
16.28171399999998,0.0,0.0,27189.0,7.125,-195.0,-479.5275494456291,0.0,0.875,1.018066302,4.932250999999998,0.0,-53095.0,10.5,-127.5,-479.5275494456291,0.0,1.75,2.9064938430000002,2.481884999999998,0.0,32884.0,8.0,-120.0,-479.5275494456291,0.0,0.375,3.281249664,0.01,0.0,-5095.0,8.0,-195.0,-479.5275494456291,0.0,0.75,4.389647988,2.4790000000000023,0.0,0.28999999165534973,-2.2200000286102295,128.44000244140625,-0.24652099609375,-0.0823974609375,0.99591064453125,36.22999954223633,0.0,60.0,-6.218292236328125,3.049774169921875,Closing,0.0,0.0,0.0,0.0,0.0,0.0,0.0,0.125,
16.610799,0.0,0.0,27115.0,0.0,-172.5,0.0,0.0,0.375,0.877685457,4.932250999999998,0.0,-53151.0,0.0,-142.5,0.0,0.0,0.25,2.814941118,2.481884999999998,0.0,32848.0,0.0,-60.0,0.0,0.0,0.125,3.2226559200000002,0.01,0.0,-5167.0,0.125,-142.5,0.0,0.0,0.5,4.2382808160000005,2.4790000000000023,0.0,0.4300000071525574,-0.6399999856948853,128.00999450683594,0.1607666015625,0.04620361328125,1.00787353515625,36.22999954223633,0.0,-75.0,-6.211090087890625,3.0523529052734375,Closing,0.0,0.0,0.0,0.0,0.0,0.0,0.0,0.0,
16.78702099999995,0.0,0.0,27110.0,0.0,45.0,0.0,0.0,0.25,0.799560465,4.932250999999998,0.0,-53152.0,0.0,0.0,0.0,0.0,0.5,3.08837859,2.481884999999998,0.0,32847.0,0.0,0.0,0.0,0.0,0.125,3.397216449,0.01,0.0,-5165.0,0.125,7.5,0.0,0.0,0.5,3.9965816220000003,2.4790000000000023,0.0,0.3400000035762787,-0.9100000262260437,128.14999389648438,-0.0548095703125,0.01708984375,1.05316162109375,36.22999954223633,0.0,31.0,-6.2238616943359375,3.020263671875,Closing,0.0,0.0,0.0,0.0,0.0,0.0,0.0,0.0,
17.091648999999975,0.0,0.0,27110.0,0.0,0.0,0.0,0.0,0.25,0.795898356,4.932250999999998,0.0,-53152.0,0.0,0.0,0.0,0.0,0.25,3.040771173,2.481884999999998,0.0,32847.0,0.0,0.0,0.0,0.0,0.125,3.402099261,0.01,0.0,-5164.0,0.125,0.0,0.0,0.0,0.25,4.068603099000001,2.4790000000000023,0.0,0.3400000035762787,-0.8999999761581421,128.14999389648438,0.00518798828125,-0.007568359375,1.02374267578125,36.22999954223633,0.0,-23.0,-6.2246551513671875,3.0191192626953125,Closing,0.0,0.0,0.0,0.0,0.0,0.0,0.0,0.0,
