Time,ClimberA1,ClimberA2,FRpos,FRCurrent,FRspeed,FRsetpoint,FRApos,FRACurrent,FREncpos,FREncSetpoint,FREncSpeed,FLpos,FLCurrent,FLspeed,FLsetpoint,FLApos,FLACurrent,FLEncpos,FLEncSetpoint,FLEncSpeed,BRpos,BRCurrent,BRspeed,BRsetpoint,BRApos,BRACurrent,BREncpos,BREncSetpoint,BREncSpeed,BLpos,BLCurrent,BLspeed,BLsetpoint,BLApos,BLACurrent,BLEncpos,BLEncSetpoint,BLEncSpeed,navx_Pitch,navx_Roll,navx_Yaw,navx_XAcc,navx_YAcc,navx_ZAcc,navx_Temp,navx_Bar,navx_Alt,navx_XDis,navx_YDis,GearPlacerState,ShootOutputV,ShootOutputCurrent,ShootEncPos,ShootEncVelocity,ShootSpeed,ShootSetpoint,CarouselSetpoint,CarouselCurrent,
0.14919399999998859,0.0,0.0,103927.0,0.0,0.0,0.0,0.0,0.25,0.787353435,0.01,0.0,-85664.0,0.0,0.0,-0.0,0.0,0.25,0.49194330900000005,0.01,0.0,107827.0,0.0,0.0,0.0,0.0,0.0,3.358153953,0.01,0.0,-87616.0,0.0,0.0,-0.0,0.0,0.375,1.5771482760000002,0.01,0.0,-0.3799999952316284,-0.949999988079071,0.0,-0.01580810546875,-0.007080078125,1.018310546875,34.97999954223633,0.0,1.0,0.4497528076171875,0.436553955078125,Waiting,0.0,0.0,0.0,0.0,0.0,0.0,0.0,0.0,
0.20398199999998906,0.0,0.0,103927.0,0.0,0.0,0.0,0.0,0.25,0.786132732,0.01,0.003662109000000413,-85664.0,0.0,0.0,-0.0,0.0,0.125,0.496826121,0.01,0.028076169000000206,107827.0,0.0,0.0,0.0,0.0,0.0,3.35693325,0.01,0.0183105449999994,-87616.0,0.0,0.0,-0.0,0.0,0.375,1.5759275730000002,0.01,0.029296871999999752,-0.3799999952316284,-0.949999988079071,0.0,-0.02001953125,-0.00701904296875,1.01483154296875,34.97999954223633,0.0,-3.0,0.4497528076171875,0.436553955078125,Waiting,0.0,0.0,0.0,0.0,0.0,0.0,0.0,0.0,
0.2446840000000084,0.0,0.0,103927.0,0.0,0.0,0.0,0.0,0.25,0.787353435,0.01,0.0012207029999995456,-85664.0,0.0,0.0,-0.0,0.0,0.125,0.496826121,0.01,0.004882811999999959,107827.0,0.0,0.0,0.0,0.0,0.0,3.358153953,0.01,0.0,-87616.0,0.0,0.0,-0.0,0.0,0.25,1.5771482760000002,0.01,0.0,-0.3799999952316284,-0.949999988079071,0.0,-0.0137939453125,-0.00640869140625,1.0213623046875,34.97999954223633,0.0,3.0,0.4497528076171875,0.436553955078125,Waiting,0.0,0.0,0.0,0.0,0.0,0.0,0.0,0.0,
0.28474499999999536,0.0,0.0,103927.0,0.0,0.0,0.0,0.0,0.25,0.787353435,0.01,-0.0012207029999995456,-85664.0,0.0,0.0,-0.0,0.0,0.125,0.496826121,0.01,0.0,107827.0,0.0,0.0,0.0,0.0,0.0,3.359374656,0.01,0.0,-87616.0,0.0,0.0,-0.0,0.0,0.25,1.5783689790000002,0.01,0.0,-0.3700000047683716,-0.9399999976158142,0.0,-0.0166015625,-0.00714111328125,1.02154541015625,34.97999954223633,0.0,0.0,0.4497528076171875,0.436553955078125,Waiting,0.0,0.0,0.0,0.0,0.0,0.0,0.0,0.0,
0.3268580000000075,0.0,0.0,103927.0,0.0,0.0,0.0,0.0,0.25,0.787353435,0.01,0.0,-85664.0,0.0,0.0,-0.0,0.0,0.125,0.496826121,0.01,0.0,107827.0,0.0,0.0,0.0,0.0,0.0,3.358153953,0.01,0.0,-87616.0,0.0,0.0,-0.0,0.0,0.25,1.5771482760000002,0.01,0.0,-0.3700000047683716,-0.9399999976158142,0.0,-0.01739501953125,-0.00494384765625,1.02392578125,34.97999954223633,0.0,0.0,0.4497528076171875,0.436553955078125,Waiting,0.0,0.0,0.0,0.0,0.0,0.0,0.0,0.0,
0.36590599999998813,0.0,0.0,103927.0,0.0,0.0,0.0,0.0,0.25,0.787353435,0.01,0.0,-85664.0,0.0,0.0,-0.0,0.0,0.125,0.496826121,0.01,0.0,107827.0,0.0,0.0,0.0,0.0,0.0,3.358153953,0.01,0.0,-87616.0,0.0,0.0,-0.0,0.0,0.25,1.5783689790000002,0.01,0.0,-0.3700000047683716,-0.9399999976158142,0.0,-0.0146484375,-0.00494384765625,1.0245361328125,34.97999954223633,0.0,2.0,0.4497528076171875,0.436553955078125,Waiting,0.0,0.0,0.0,0.0,0.0,0.0,0.0,0.0,
0.40704899999999905,0.0,0.0,103927.0,0.0,0.0,0.0,0.0,0.25,0.787353435,0.01,0.0012207029999995456,-85664.0,0.0,0.0,-0.0,0.0,0.125,0.496826121,0.01,0.0,107827.0,0.0,0.0,0.0,0.0,0.0,3.35693325,0.01,0.0,-87616.0,0.0,0.0,-0.0,0.0,0.25,1.5783689790000002,0.01,0.0,-0.3700000047683716,-0.9399999976158142,0.0,-0.01690673828125,-0.0084228515625,1.02862548828125,34.97999954223633,0.0,0.0,0.4497528076171875,0.436553955078125,Waiting,0.0,0.0,0.0,0.0,0.0,0.0,0.0,0.0,
0.4446330000000016,0.0,0.0,103927.0,0.0,0.0,0.0,0.0,0.25,0.787353435,0.01,-0.0012207029999995456,-85664.0,0.0,0.0,-0.0,0.0,0.125,0.496826121,0.01,0.0,107827.0,0.0,0.0,0.0,0.0,0.0,3.358153953,0.01,0.0,-87616.0,0.0,0.0,-0.0,0.0,0.25,1.5771482760000002,0.01,0.0,-0.3700000047683716,-0.9399999976158142,0.0,-0.0179443359375,-0.0089111328125,1.02056884765625,34.97999954223633,0.0,-1.0,0.4497528076171875,0.436553955078125,Waiting,0.0,0.0,0.0,0.0,0.0,0.0,0.0,0.0,
0.4865620000000054,0.0,0.0,103927.0,0.0,0.0,0.0,0.0,0.25,0.787353435,0.01,0.0,-85664.0,0.0,0.0,-0.0,0.0,0.125,0.496826121,0.01,0.0,107827.0,0.0,0.0,0.0,0.0,0.0,3.359374656,0.01,0.0,-87616.0,0.0,0.0,-0.0,0.0,0.25,1.5771482760000002,0.01,0.0,-0.3700000047683716,-0.9399999976158142,0.0,-0.01617431640625,-0.00750732421875,1.022705078125,34.97999954223633,0.0,0.0,0.4497528076171875,0.436553955078125,Waiting,0.0,0.0,0.0,0.0,0.0,0.0,0.0,0.0,
0.5272740000000049,0.0,0.0,103927.0,0.0,0.0,0.0,0.0,0.25,0.787353435,0.01,0.0012207029999995456,-85664.0,0.0,0.0,-0.0,0.0,0.125,0.496826121,0.01,0.0,107827.0,0.0,0.0,0.0,0.0,0.0,3.358153953,0.01,0.0,-87616.0,0.0,0.0,-0.0,0.0,0.25,1.5783689790000002,0.01,0.0,-0.3700000047683716,-0.9399999976158142,0.0,-0.01727294921875,-0.00457763671875,1.02484130859375,34.97999954223633,0.0,0.0,0.4497528076171875,0.436553955078125,Waiting,0.0,0.0,0.0,0.0,0.0,0.0,0.0,0.0,
0.567505999999994,0.0,0.0,103927.0,0.0,0.0,0.0,0.0,0.25,0.787353435,0.01,0.0012207029999995456,-85664.0,0.0,0.0,-0.0,0.0,0.125,0.496826121,0.01,0.0,107827.0,0.0,0.0,0.0,0.0,0.0,3.358153953,0.01,0.0,-87616.0,0.0,0.0,-0.0,0.0,0.25,1.5771482760000002,0.01,0.0,-0.3700000047683716,-0.9399999976158142,0.0,-0.01641845703125,-0.00604248046875,1.017822265625,34.97999954223633,0.0,0.0,0.4497528076171875,0.436553955078125,Waiting,0.0,0.0,0.0,0.0,0.0,0.0,0.0,0.0,
0.608140000000014,0.0,0.0,103927.0,0.0,0.0,0.0,0.0,0.25,0.787353435,0.01,-0.0012207029999995456,-85664.0,0.0,0.0,-0.0,0.0,0.125,0.496826121,0.01,0.0,107827.0,0.0,0.0,0.0,0.0,0.0,3.358153953,0.01,0.0,-87616.0,0.125,0.0,-0.0,0.0,0.25,1.5771482760000002,0.01,0.0,-0.3700000047683716,-0.9399999976158142,0.0,-0.01483154296875,-0.008056640625,1.0174560546875,34.97999954223633,0.0,1.0,0.4497528076171875,0.436553955078125,Waiting,0.0,0.0,0.0,0.0,0.0,0.0,0.0,0.0,
0.6469139999999898,0.0,0.0,103927.0,0.0,0.0,0.0,0.0,0.25,0.787353435,0.01,0.0012207029999995456,-85664.0,0.0,0.0,-0.0,0.0,0.125,0.496826121,0.01,0.0,107827.0,0.0,0.0,0.0,0.0,0.0,3.358153953,0.01,0.0,-87616.0,0.0,0.0,-0.0,0.0,0.25,1.5771482760000002,0.01,0.0,-0.3700000047683716,-0.9399999976158142,0.0,-0.01617431640625,-0.00506591796875,1.02490234375,34.97999954223633,0.0,0.0,0.4497528076171875,0.436553955078125,Waiting,0.0,0.0,0.0,0.0,0.0,0.0,0.0,0.0,
0.6905599999999976,0.0,0.0,103927.0,0.0,0.0,0.0,0.0,0.25,0.7885741380000001,0.01,0.0,-85664.0,0.0,0.0,-0.0,0.0,0.125,0.496826121,0.01,0.0,107827.0,0.0,0.0,0.0,0.0,0.0,3.35693325,0.01,0.0,-87616.0,0.0,0.0,-0.0,0.0,0.25,1.5783689790000002,0.01,0.0,-0.3700000047683716,-0.9300000071525574,0.0,-0.01513671875,-0.00714111328125,1.01715087890625,34.97999954223633,0.0,1.0,0.4497528076171875,0.436553955078125,Waiting,0.0,0.0,0.0,0.0,0.0,0.0,0.0,0.0,
0.7323450000000011,0.0,0.0,103927.0,0.0,0.0,0.0,0.0,0.25,0.787353435,0.01,0.0,-85664.0,0.0,0.0,-0.0,0.0,0.125,0.496826121,0.01,0.0,107827.0,0.0,0.0,0.0,0.0,0.0,3.35693325,0.01,0.0,-87616.0,0.0,0.0,-0.0,0.0,0.25,1.5771482760000002,0.01,0.0,-0.3700000047683716,-0.9300000071525574,0.0,-0.01519775390625,-0.00775146484375,1.01788330078125,34.97999954223633,0.0,1.0,0.4497528076171875,0.436553955078125,Waiting,0.0,0.0,0.0,0.0,0.0,0.0,0.0,0.0,
0.774695000000007,0.0,0.0,103927.0,0.0,0.0,0.0,0.0,0.25,0.786132732,0.01,-0.0012207029999995456,-85664.0,0.0,0.0,-0.0,0.0,0.125,0.496826121,0.01,0.0,107827.0,0.0,0.0,0.0,0.0,0.0,3.35693325,0.01,0.0,-87616.0,0.0,0.0,-0.0,0.0,0.25,1.5771482760000002,0.01,-0.0012207029999995456,-0.3700000047683716,-0.9300000071525574,0.0,-0.01873779296875,-0.00933837890625,1.020263671875,34.97999954223633,0.0,-2.0,0.4497528076171875,0.436553955078125,Waiting,0.0,0.0,0.0,0.0,0.0,0.0,0.0,0.0,
0.8189400000000023,0.0,0.0,103927.0,0.0,0.0,0.0,0.0,0.25,0.787353435,0.01,0.0012207029999995456,-85664.0,0.0,0.0,-0.0,0.0,0.125,0.495605418,0.01,0.0,107827.0,0.0,0.0,0.0,0.0,0.0,3.358153953,0.01,0.0,-87616.0,0.0,0.0,-0.0,0.0,0.25,1.5771482760000002,0.01,0.0012207029999995456,-0.3700000047683716,-0.9300000071525574,0.0,-0.01666259765625,-0.0078125,1.01715087890625,34.97999954223633,0.0,0.0,0.4497528076171875,0.436553955078125,Waiting,0.0,0.0,0.0,0.0,0.0,0.0,0.0,0.0,
0.8671959999999963,0.0,0.0,103927.0,0.75,0.0,-892.9133981466293,0.0,0.25,0.787353435,4.932250999999998,0.0,-85664.0,1.375,0.0,892.9133981466293,0.0,0.125,0.496826121,4.963769999999998,0.0,107827.0,1.0,0.0,-892.9133981466293,0.0,0.0,3.354491844,0.01,0.0,-87616.0,0.75,0.0,892.9133981466293,0.0,0.25,1.5771482760000002,0.01,0.0,-0.3700000047683716,-0.9300000071525574,0.0,-0.0928955078125,-0.03875732421875,1.02545166015625,34.97999954223633,0.0,-76.0,0.44970703125,0.4365234375,Waiting,0.0,0.0,0.0,0.0,0.0,0.0,0.0,0.0,
0.9104049999999988,0.0,0.0,103927.0,5.875,-75.0,-2100.0,0.0,0.125,0.8020018710000001,4.932250999999998,0.0,-85664.0,8.25,127.5,2100.0,0.0,0.125,0.496826121,4.963769999999998,0.0,107824.0,7.375,0.0,-2100.0,0.0,0.0,3.3728023890000003,0.01,-4.9355171879999995,-87584.0,5.375,67.5,2100.0,0.0,0.25,1.5783689790000002,0.01,0.0,-0.2800000011920929,-1.2699999809265137,-0.03999999910593033,-0.9757080078125,-0.214111328125,1.113037109375,34.97999954223633,0.0,-950.0,0.447967529296875,0.4365997314453125,Waiting,0.0,0.0,0.0,0.0,0.0,0.0,0.0,0.0,
0.9525050000000047,0.0,0.0,103887.0,19.125,-255.0,-2100.0,0.0,0.125,0.811767495,4.932250999999998,0.0,-85627.0,25.125,300.0,2100.0,0.0,0.0,0.5017089330000001,4.963769999999998,0.0,107824.0,15.25,-30.0,-2100.0,0.0,0.0,3.3776852010000002,0.01,0.0,-87584.0,18.625,240.0,2100.0,0.0,0.25,1.5771482760000002,0.01,0.0,-0.25999999046325684,-2.2200000286102295,-0.1899999976158142,-0.80279541015625,-0.11895751953125,0.7493896484375,34.97999954223633,0.0,-772.0,0.4402618408203125,0.4381561279296875,Waiting,0.0,0.0,0.0,0.0,0.0,0.0,0.0,0.0,
0.9918390000000072,0.0,0.0,103887.0,20.875,-375.0,-248.03150296211243,0.0,0.125,0.810546792,4.932250999999998,0.0,-85627.0,21.625,397.5,248.03150296211243,0.0,0.0,0.509033151,4.963769999999998,0.0,107824.0,14.75,-120.0,-248.03150296211243,0.0,0.125,3.3764644980000003,0.01,0.0,-87584.0,22.625,382.5,248.03150296211243,0.0,0.25,1.591796712,0.01,0.0,-0.4000000059604645,-3.119999885559082,-0.18000000715255737,0.06884765625,-0.09063720703125,1.2847900390625,34.97999954223633,0.0,139.0,0.4274444580078125,0.439910888671875,Waiting,0.0,0.0,0.0,0.0,0.0,0.0,0.0,0.0,
1.0352470000000031,0.0,0.0,103887.0,5.0,-405.0,0.0,0.0,0.125,0.810546792,4.932250999999998,0.0,-85555.0,2.875,412.5,0.0,0.0,0.0,0.511474557,4.963769999999998,0.007324217999999938,107776.0,5.375,-247.5,0.0,0.0,0.125,3.3715816860000003,0.01,-0.0012207029999999897,-87518.0,0.875,427.5,0.0,0.0,0.25,1.6064451480000002,0.01,0.012207029999999897,-0.4399999976158142,-3.0199999809265137,0.07999999821186066,-0.09771728515625,-0.0269775390625,1.05462646484375,34.97999954223633,0.0,-42.0,0.414154052734375,0.4415740966796875,Waiting,0.0,0.0,0.0,0.0,0.0,0.0,0.0,0.0,
1.0801600000000036,0.0,0.0,103813.0,0.125,-450.0,0.0,0.0,0.125,0.811767495,4.932250999999998,0.0,-85555.0,0.125,450.0,0.0,0.0,0.0,0.5163573690000001,4.963769999999998,0.004882811999999959,107776.0,0.375,-322.5,0.0,0.0,0.125,3.3728023890000003,0.01,-0.004882811999999959,-87518.0,0.0,390.0,0.0,0.0,0.25,1.6345213170000001,0.01,0.01586913900000031,-0.4399999976158142,-2.8499999046325684,0.1899999976158142,0.20654296875,-0.042236328125,0.96771240234375,34.97999954223633,0.0,254.0,0.401397705078125,0.4432525634765625,Waiting,0.0,0.0,0.0,0.0,0.0,0.0,0.0,0.0,
1.125784000000014,0.0,0.0,103813.0,0.0,-420.0,0.0,0.0,0.125,0.810546792,4.932250999999998,0.0,-85555.0,0.0,405.0,0.0,0.0,0.0,0.5151366660000001,4.963769999999998,0.004882811999999959,107776.0,0.0,-300.0,0.0,0.0,0.0,3.3679195770000003,0.01,0.0012207029999999897,-87518.0,0.0,382.5,0.0,0.0,0.25,1.650390456,0.01,-4.928703128,-0.36000001430511475,-2.309999942779541,0.10999999940395355,0.09088134765625,-0.0159912109375,0.894287109375,35.0,0.0,126.0,0.3916015625,0.444915771484375,Waiting,0.0,0.0,0.0,0.0,0.0,0.0,0.0,0.0,
1.1675659999999917,0.0,0.0,103813.0,0.0,-405.0,0.0,0.0,0.125,0.810546792,4.932250999999998,0.0,-85488.0,0.0,382.5,0.0,0.0,0.125,0.5163573690000001,4.963769999999998,0.004882811999999959,107740.0,0.0,-232.5,0.0,0.0,0.0,3.3740230920000003,0.01,0.0012207029999999897,-87446.0,0.0,427.5,0.0,0.0,0.125,1.650390456,0.01,-4.928703128,-0.3100000023841858,-2.380000114440918,0.009999999776482582,0.02728271484375,0.0648193359375,1.11669921875,35.0,0.0,73.0,0.3860626220703125,0.4459686279296875,Waiting,0.0,0.0,0.0,0.0,0.0,0.0,0.0,0.0,
1.2145190000000001,0.0,0.0,103743.0,0.0,-450.0,0.0,0.0,0.125,0.811767495,4.932250999999998,0.0,-85488.0,0.0,435.0,0.0,0.0,0.125,0.5163573690000001,4.963769999999998,0.0,107740.0,0.0,-247.5,0.0,0.0,0.0,3.3728023890000003,0.01,-0.004882811999999959,-87446.0,0.0,472.5,0.0,0.0,0.25,1.6552732680000002,0.01,0.004882812000000181,-0.3799999952316284,-2.0,0.05000000074505806,0.1646728515625,-0.025634765625,0.6998291015625,35.0,0.0,189.0,0.378753662109375,0.4477081298828125,Waiting,0.0,0.0,0.0,0.0,0.0,0.0,0.0,0.0,
1.2594649999999965,0.0,0.0,103743.0,0.0,-427.5,0.0,0.0,0.125,0.811767495,4.932250999999998,0.0,-85488.0,0.0,420.0,0.0,0.0,0.125,0.5163573690000001,4.963769999999998,0.0,107740.0,0.0,-322.5,0.0,0.0,0.0,3.3728023890000003,0.01,0.003662108999999969,-87389.0,0.0,427.5,0.0,0.0,0.25,1.6552732680000002,0.01,0.004882812000000181,-0.3700000047683716,-1.9199999570846558,0.07999999821186066,1.220703125E-4,0.023681640625,1.123046875,35.0,0.0,37.0,0.3730010986328125,0.4492034912109375,Waiting,0.0,0.0,0.0,0.0,0.0,0.0,0.0,0.0,
1.3158140000000131,0.0,0.0,103686.0,0.0,-367.5,0.0,0.0,0.125,0.810546792,4.932250999999998,0.0,-85429.0,0.0,360.0,0.0,0.0,0.125,0.5151366660000001,4.963769999999998,0.0,107683.0,0.0,-360.0,0.0,0.0,0.0,3.3728023890000003,0.01,0.0012207029999999897,-87389.0,0.0,375.0,0.0,0.0,0.25,1.6552732680000002,0.01,0.0,-0.2800000011920929,-1.649999976158142,0.009999999776482582,0.05303955078125,0.0262451171875,1.11492919921875,35.0,0.0,85.0,0.3669281005859375,0.45233154296875,Waiting,0.0,0.0,0.0,0.0,0.0,0.0,0.0,0.0,
1.349893000000011,0.0,0.0,103686.0,0.0,-330.0,0.0,0.0,0.125,0.811767495,4.932250999999998,0.0,-85429.0,0.0,330.0,0.0,0.0,0.125,0.5163573690000001,4.963769999999998,0.0,107683.0,0.0,-315.0,0.0,0.0,0.0,3.3728023890000003,0.01,-0.0012207029999999897,-87389.0,0.0,315.0,0.0,0.0,0.25,1.6540525650000002,0.01,0.0,-0.25999999046325684,-1.3700000047683716,-0.09000000357627869,0.0550537109375,-0.01080322265625,1.0540771484375,35.0,0.0,80.0,0.36370849609375,0.455352783203125,Waiting,0.0,0.0,0.0,0.0,0.0,0.0,0.0,0.0,
1.391847000000009,0.0,0.0,103686.0,0.0,-277.5,0.0,0.0,0.125,0.811767495,4.932250999999998,0.0,-85386.0,0.0,300.0,0.0,0.0,0.125,0.5163573690000001,4.963769999999998,0.0,107646.0,0.0,-255.0,0.0,0.0,0.0,3.3715816860000003,0.01,0.0,-87345.0,0.0,262.5,0.0,0.0,0.25,1.6552732680000002,0.01,0.0,-0.3100000023841858,-1.190000057220459,-0.11999999731779099,0.0950927734375,-0.05224609375,1.01153564453125,35.0,0.0,116.0,0.3617095947265625,0.458099365234375,Waiting,0.0,0.0,0.0,0.0,0.0,0.0,0.0,0.0,
1.4337779999999911,0.0,0.0,103650.0,0.0,-225.0,0.0,0.0,0.125,0.810546792,4.932250999999998,0.0,-85386.0,0.0,240.0,0.0,0.0,0.125,0.5151366660000001,4.963769999999998,0.0,107646.0,0.0,-210.0,0.0,0.0,0.0,3.3728023890000003,0.01,0.0,-87345.0,0.0,202.5,0.0,0.0,0.25,1.6540525650000002,0.01,0.0,-0.33000001311302185,-1.090000033378601,-0.09000000357627869,0.03985595703125,0.01019287109375,1.0198974609375,35.0,0.0,59.0,0.3610076904296875,0.4597320556640625,Waiting,0.0,0.0,0.0,0.0,0.0,0.0,0.0,0.0,
1.476002999999997,0.0,0.0,103650.0,0.0,-180.0,0.0,0.0,0.125,0.811767495,4.932250999999998,0.0,-85386.0,0.0,187.5,0.0,0.0,0.125,0.5163573690000001,4.963769999999998,0.0,107646.0,0.0,-180.0,0.0,0.0,0.0,3.3728023890000003,0.01,0.0,-87345.0,0.0,157.5,0.0,0.0,0.25,1.6552732680000002,0.01,0.0,-0.2800000011920929,-0.9599999785423279,-0.03999999910593033,0.08258056640625,0.01654052734375,0.99639892578125,35.0,0.0,99.0,0.360748291015625,0.459747314453125,Waiting,0.0,0.0,0.0,0.0,0.0,0.0,0.0,0.0,
1.520097000000009,0.0,0.0,103650.0,0.0,-142.5,0.0,0.0,0.125,0.811767495,4.932250999999998,0.0,-85367.0,0.0,135.0,0.0,0.0,0.125,0.5163573690000001,4.963769999999998,0.0,107627.0,0.0,-135.0,0.0,0.0,0.0,3.3715816860000003,0.01,0.0,-87327.0,0.0,135.0,0.0,0.0,0.25,1.6540525650000002,0.01,0.0,-0.23000000417232513,-0.7699999809265137,-0.03999999910593033,0.098876953125,0.0130615234375,0.98541259765625,35.0,0.0,112.0,0.361328125,0.4598846435546875,Waiting,0.0,0.0,0.0,0.0,0.0,0.0,0.0,0.0,
1.5620009999999893,0.0,0.0,103634.0,0.0,-90.0,0.0,0.0,0.125,0.810546792,4.932250999999998,0.0,-85367.0,0.0,90.0,0.0,0.0,0.125,0.5163573690000001,4.963769999999998,0.0,107627.0,0.0,-82.5,0.0,0.0,0.0,3.3728023890000003,0.01,0.0,-87327.0,0.0,90.0,0.0,0.0,0.25,1.6552732680000002,0.01,0.0,-0.2199999988079071,-0.6000000238418579,-0.12999999523162842,0.072998046875,-0.0283203125,1.008544921875,35.0,0.0,83.0,0.3630828857421875,0.459869384765625,Waiting,0.0,0.0,0.0,0.0,0.0,0.0,0.0,0.0,
1.602024000000005,0.0,0.0,103634.0,0.0,-45.0,0.0,0.0,0.125,0.811767495,4.932250999999998,0.0,-85367.0,0.0,52.5,0.0,0.0,0.125,0.5163573690000001,4.963769999999998,0.0,107627.0,0.0,-37.5,0.0,0.0,0.0,3.3728023890000003,0.01,0.0,-87327.0,0.0,52.5,0.0,0.0,0.25,1.6552732680000002,0.01,0.0,-0.25999999046325684,-0.49000000953674316,-0.17000000178813934,0.01434326171875,-0.03369140625,1.01055908203125,35.0,0.0,23.0,0.36572265625,0.4597015380859375,Waiting,0.0,0.0,0.0,0.0,0.0,0.0,0.0,0.0,
1.6497280000000027,0.0,0.0,103634.0,0.125,-7.5,-115.74803106486797,0.0,0.125,0.810546792,4.932250999999998,0.0,-85365.0,0.0,15.0,115.74803106486797,0.0,0.125,0.5151366660000001,4.963769999999998,0.0,107626.0,0.125,0.0,-115.74803106486797,0.0,0.0,3.3728023890000003,0.01,0.0,-87324.0,0.125,7.5,115.74803106486797,0.0,0.25,1.6540525650000002,0.01,0.0,-0.25999999046325684,-0.49000000953674316,-0.10000000149011612,-0.00823974609375,-4.2724609375E-4,1.0482177734375,35.0,0.0,0.0,0.3676300048828125,0.459503173828125,Waiting,0.0,0.0,0.0,0.0,0.0,0.0,0.0,0.0,
1.693203999999998,0.0,0.0,103634.0,2.75,-7.5,-1190.5512392520905,0.0,0.125,0.811767495,4.932250999999998,0.0,-85365.0,3.0,30.0,1190.5512392520905,0.0,0.125,0.5151366660000001,4.963769999999998,0.0,107626.0,3.0,0.0,-1190.5512392520905,0.0,0.0,3.3728023890000003,0.01,0.0,-87324.0,2.625,7.5,1190.5512392520905,0.0,0.25,1.6540525650000002,0.01,0.0,-0.23999999463558197,-0.5099999904632568,-0.05000000074505806,-0.0228271484375,-0.00799560546875,1.0142822265625,35.0,0.0,-13.0,0.3676300048828125,0.459503173828125,Waiting,0.0,0.0,0.0,0.0,0.0,0.0,0.0,0.0,
1.7363720000000031,0.0,0.0,103634.0,11.25,-127.5,-1957.0547154150026,0.0,0.25,0.809326089,4.813344327396732,0.0,-85365.0,15.0,187.5,1957.0547154150026,0.0,0.125,0.506591745,4.84410346756523,0.0,107626.0,10.25,-22.5,-1957.0547154150026,0.0,0.0,3.3728023890000003,4.8212968713617395,0.0,-87288.0,9.625,120.0,1957.0547154150026,0.0,0.25,1.595458821,4.838472570684864,0.0,-0.2199999988079071,-1.100000023841858,-0.10999999940395355,-0.49725341796875,0.00946044921875,1.00225830078125,35.0,0.0,-477.0,0.3663787841796875,0.45941162109375,Waiting,0.0,0.0,0.0,0.0,0.0,0.0,0.0,0.0,
1.7850230000000156,0.0,0.0,103591.0,24.0,-270.0,-2260.5526462795688,0.0,0.25,0.811767495,4.634614429841559,0.0,-85325.0,30.125,315.0,2260.5526462795688,0.0,0.25,0.5041503390000001,4.664231416530633,0.0,107613.0,18.875,-105.0,-2260.5526462795688,0.0,0.125,3.359374656,4.6422716786289335,0.0,-87288.0,22.75,285.0,2260.5526462795688,0.0,0.25,1.5576170280000001,4.65880960704442,0.0,-0.20999999344348907,-1.9700000286102295,-0.18000000715255737,-0.57733154296875,-0.09039306640625,0.68768310546875,35.0,0.0,-552.0,0.3602447509765625,0.4591522216796875,Waiting,0.0,0.0,0.0,0.0,0.0,0.0,0.0,0.0,
1.8277460000000136,0.0,0.0,103591.0,27.75,-382.5,-2266.6764801411337,0.0,0.625,0.7885741380000001,4.629336142491898,-0.003662108999999525,-85325.0,36.25,397.5,2266.6764801411337,0.0,0.25,0.506591745,4.658919398874268,0.0,107613.0,26.875,-210.0,-2266.6764801411337,0.0,0.5,3.294677397,4.636984670562583,0.0,-87288.0,29.25,412.5,2266.6764801411337,0.0,0.25,1.4758299270000002,4.653503764199111,0.0,-0.1599999964237213,-2.9000000953674316,-0.029999999329447746,-0.486572265625,0.261962890625,1.1783447265625,35.0,0.0,-426.0,0.3480072021484375,0.458282470703125,Waiting,0.0,0.0,0.0,0.0,0.0,0.0,0.0,0.0,
1.8721760000000067,0.0,0.0,103591.0,29.375,-555.0,-2266.6764801411337,0.0,0.5,0.718994067,4.629336142491898,-0.03906249600000056,-85208.0,40.25,585.0,2266.6764801411337,0.0,0.25,0.46630854600000005,4.658919398874268,0.0,107554.0,29.0,-307.5,-2266.6764801411337,0.0,0.375,3.2214352170000002,4.636984670562583,0.0,-87175.0,28.625,577.5,2266.6764801411337,0.0,0.25,1.40380845,4.653503764199111,0.0,-0.029999999329447746,-3.9000000953674316,0.2199999988079071,-0.55072021484375,0.17657470703125,1.294921875,35.0,0.0,-460.0,0.3302001953125,0.458465576171875,Waiting,0.0,0.0,0.0,0.0,0.0,0.0,0.0,0.0,
1.9166670000000159,0.0,0.0,103455.0,28.125,-855.0,-2266.6764801411337,0.0,0.375,0.656738214,4.629336142491898,-0.06225585299999992,-85208.0,39.375,870.0,2266.6764801411337,0.0,0.25,0.386962851,4.658919398874268,-0.05615233800000041,107554.0,31.875,-420.0,-2266.6764801411337,0.0,0.25,3.1677242850000003,4.636984670562583,-0.06835936799999942,-87175.0,28.375,847.5,2266.6764801411337,0.0,0.25,1.361083845,4.653503764199111,-0.07202147699999983,0.33000001311302185,-4.5,0.699999988079071,-0.21160888671875,0.2532958984375,0.76470947265625,35.0,0.0,-147.0,0.307586669921875,0.4606781005859375,Waiting,0.0,0.0,0.0,0.0,0.0,0.0,0.0,0.0,
1.966610000000015,0.0,0.0,103455.0,25.375,-1132.5,-2272.902240468464,0.0,0.375,0.6213378270000001,4.624086534634047,-0.05371093200000043,-85208.0,36.125,1132.5,2272.902240468464,0.0,0.25,0.33691402800000003,4.653636243982807,0.0,107554.0,32.0,-510.0,-2272.902240468464,0.0,0.125,3.126220383,4.631726389371921,-0.04760741700000004,-87175.0,25.875,1215.0,2272.902240468464,0.0,0.25,1.3415525970000002,4.648226750567967,0.0,0.699999988079071,-5.199999809265137,1.2699999809265137,-0.08740234375,0.30865478515625,0.8916015625,35.0,0.0,0.0,0.281341552734375,0.4649810791015625,Waiting,0.0,0.0,0.0,0.0,0.0,0.0,0.0,0.0,
2.0105070000000125,0.0,0.0,103202.0,23.125,-1380.0,-2272.902240468464,0.0,0.375,0.576171816,4.624086534634047,0.0,-84974.0,32.875,1380.0,2272.902240468464,0.0,0.25,0.30395504700000003,4.653636243982807,0.0,107456.0,30.5,-577.5,-2272.902240468464,0.0,0.125,3.1091305410000003,4.631726389371921,0.0,-86950.0,23.375,1425.0,2272.902240468464,0.0,0.25,1.303710804,4.648226750567967,0.0,1.5399999618530273,-5.360000133514404,1.8200000524520874,-0.1251220703125,0.499755859375,1.56695556640625,35.0,0.0,36.0,0.2530670166015625,0.473846435546875,Waiting,0.0,0.0,0.0,0.0,0.0,0.0,0.0,0.0,
2.0498250000000118,0.0,0.0,103202.0,20.625,-1605.0,-2185.9750544039985,0.0,0.125,0.562744083,4.711360155711129,0.0,-84974.0,29.5,1590.0,2185.9750544039985,0.0,0.125,0.273437472,4.741467577403143,0.0,107456.0,29.875,-630.0,-2185.9750544039985,0.0,0.0,3.1054684320000003,4.719144202773797,0.0,-86950.0,20.25,1642.5,2185.9750544039985,0.0,0.25,1.307372913,4.735955986833552,0.0,2.2899999618530273,-5.480000019073486,2.380000114440918,-0.2529296875,0.1025390625,0.87518310546875,35.0,0.0,-165.0,0.224365234375,0.4882965087890625,Waiting,0.0,0.0,0.0,0.0,0.0,0.0,0.0,0.0,
2.093301000000007,0.0,0.0,103202.0,10.875,-1867.5,-892.9133981466293,0.0,0.25,0.570068301,4.932250999999998,0.0,-84974.0,13.625,1830.0,892.9133981466293,0.0,0.125,0.269775363,4.963769999999998,0.0,107456.0,30.0,-735.0,-892.9133981466293,0.0,0.0,3.118896165,0.01,0.0,-86950.0,13.0,1822.5,892.9133981466293,0.0,0.375,1.3427733000000002,0.01,0.0,2.5399999618530273,-5.760000228881836,3.0199999809265137,-0.244140625,0.45367431640625,1.03668212890625,35.0,0.0,-117.0,0.193756103515625,0.504913330078125,Waiting,0.0,0.0,0.0,0.0,0.0,0.0,0.0,0.0,
2.1384070000000066,0.0,0.0,102892.0,0.5,-1942.5,0.0,0.0,0.5,0.628662045,4.932250999999998,0.0012207030000004337,-84680.0,1.5,1830.0,0.0,0.0,0.5,0.32348629500000003,4.963769999999998,-0.004882811999999959,107325.0,15.375,-855.0,0.0,0.0,0.25,3.183593424,0.01,0.014648435999999876,-86650.0,1.875,1875.0,0.0,0.0,0.75,1.4514158670000001,0.01,0.0341796840000006,2.559999942779541,-5.909999847412109,3.8399999141693115,0.0469970703125,-0.0738525390625,1.33123779296875,35.0099983215332,0.0,174.0,0.162445068359375,0.523284912109375,Waiting,0.0,0.0,0.0,0.0,0.0,0.0,0.0,0.0,
2.1849049999999988,0.0,0.0,102892.0,0.0,-1860.0,0.0,0.0,0.375,0.7385253150000001,4.932250999999998,0.06591796199999944,-84680.0,0.0,1642.5,0.0,0.0,0.25,0.39550777200000004,4.963769999999998,0.048828119999999586,107325.0,0.0,-997.5,0.0,0.0,0.125,3.3203121600000003,0.01,0.0,-86376.0,0.0,1702.5,0.0,0.0,0.375,1.625976396,0.01,0.0,1.4299999475479126,-5.199999809265137,4.769999980926514,0.0504150390625,-0.31134033203125,1.2823486328125,35.0099983215332,0.0,54.0,0.09637451171875,0.55755615234375,Waiting,0.0,0.0,0.0,0.0,0.0,0.0,0.0,0.0,
2.2853060000000114,0.0,0.0,102589.0,0.0,-1920.0,0.0,0.0,0.375,0.8300780400000001,4.932250999999998,0.1452636570000001,-84412.0,0.0,1740.0,0.0,0.0,0.25,0.49194330900000005,4.963769999999998,0.11596678500000035,107165.0,0.0,-1035.0,0.0,0.0,0.125,3.391112934,0.01,0.1452636570000001,-86376.0,0.0,1762.5,0.0,0.0,0.375,1.6882322490000001,0.01,0.1757812320000003,0.5600000023841858,-4.619999885559082,4.829999923706055,0.0133056640625,-0.21173095703125,0.95794677734375,35.0099983215332,0.0,71.0,0.070709228515625,0.5655364990234375,Waiting,0.0,0.0,0.0,0.0,0.0,0.0,0.0,0.0,
2.3284739999999875,0.0,0.0,102589.0,0.0,-1897.5,0.0,0.0,0.125,0.8581542090000001,4.932250999999998,0.1452636570000001,-84412.0,0.0,1770.0,0.0,0.0,0.25,0.526122993,4.963769999999998,0.11596678500000035,107165.0,0.0,-1072.5,0.0,0.0,0.0,3.39355434,0.01,0.1452636570000001,-86376.0,0.0,1755.0,0.0,0.0,0.125,1.7138670120000001,0.01,0.1757812320000003,0.2199999988079071,-4.440000057220459,4.760000228881836,0.09295654296875,-0.24957275390625,1.4150390625,35.0099983215332,0.0,180.0,0.05450439453125,0.5687103271484375,Waiting,0.0,0.0,0.0,0.0,0.0,0.0,0.0,0.0,
2.3697669999999924,0.0,0.0,102589.0,0.0,-1800.0,0.0,0.0,0.25,0.859374912,4.932250999999998,-4.87121585,-84134.0,0.0,1755.0,0.0,0.0,0.0,0.560302677,4.963769999999998,0.06835936799999942,106972.0,0.0,-1155.0,0.0,0.0,0.125,3.400878558,0.01,-4.881806256,-86100.0,0.0,1717.5,0.0,0.0,0.25,1.7126463090000001,0.01,-4.89696485,-0.18000000715255737,-3.990000009536743,4.650000095367432,0.10107421875,-0.0374755859375,1.0196533203125,35.0099983215332,0.0,168.0,0.03167724609375,0.5710601806640625,Waiting,0.0,0.0,0.0,0.0,0.0,0.0,0.0,0.0,
2.411,0.0,0.0,102313.0,0.0,-1710.0,0.0,0.0,0.25,0.872802645,4.932250999999998,0.014648435999999987,-84134.0,0.0,1710.0,0.0,0.0,0.25,0.574951113,4.963769999999998,0.06225585299999992,106972.0,0.0,-1222.5,0.0,0.0,0.125,3.410644182,0.01,0.014648435999999876,-86100.0,0.0,1680.0,0.0,0.0,0.25,1.722411933,0.01,0.021972654000000036,-0.3400000035762787,-3.569999933242798,4.570000171661377,0.18023681640625,-0.115478515625,0.9349365234375,35.0099983215332,0.0,228.0,0.0106658935546875,0.571868896484375,Waiting,0.0,0.0,0.0,0.0,0.0,0.0,0.0,0.0,
2.4485430000000052,0.0,0.0,102313.0,0.0,-1650.0,0.0,0.0,0.25,0.872802645,4.932250999999998,0.018310544999999956,-84134.0,0.0,1665.0,0.0,0.0,0.25,0.574951113,4.963769999999998,0.009765624000000805,106972.0,0.0,-1237.5,0.0,0.0,0.125,3.4118648850000004,0.01,0.009765623999999917,-86100.0,0.0,1635.0,0.0,0.0,0.25,1.722411933,0.01,0.014648435999999876,-0.3799999952316284,-3.380000114440918,4.539999961853027,0.1094970703125,-0.1494140625,1.2396240234375,35.0099983215332,0.0,170.0,-0.0082855224609375,0.5718231201171875,Waiting,0.0,0.0,0.0,0.0,0.0,0.0,0.0,0.0,
2.490671000000002,0.0,0.0,102085.0,5.25,-1605.0,377.34375,0.0,0.25,0.8300780400000001,0.5498168668524888,0.0,-83876.0,2.25,1620.0,377.34375,0.0,0.25,0.57373041,4.410439589772222,0.0,106775.0,1.125,-1215.0,377.34375,0.0,0.125,3.392333637,4.389674732977289,0.0,-85845.0,5.5,1552.5,377.34375,0.0,0.375,1.7114256060000002,0.5526872062785588,0.0,-0.4000000059604645,-3.059999942779541,4.5,0.1583251953125,0.20648193359375,0.933837890625,35.0099983215332,0.0,224.0,-0.0196685791015625,0.5714874267578125,Waiting,0.0,0.0,0.0,0.0,0.0,0.0,0.0,0.0,
2.535705000000016,0.0,0.0,102085.0,23.625,-1012.5,1050.0,0.0,1.625,0.9350584980000001,0.5498168668524888,0.0,-83876.0,6.25,1110.0,1050.0,0.0,2.625,0.46386714,4.410439589772222,0.0,106775.0,29.25,-1275.0,1050.0,0.0,2.25,3.2055660780000004,4.389674732977289,0.0,-85845.0,8.25,1320.0,1050.0,0.0,1.5,1.804199034,0.5526872062785588,0.0,-0.07000000029802322,-1.5199999809265137,4.289999961853027,1.389404296875,-0.10186767578125,1.15985107421875,35.0099983215332,0.0,1408.0,-0.02972412109375,0.57147216796875,Waiting,0.0,0.0,0.0,0.0,0.0,0.0,0.0,0.0,
2.5775929999999936,0.0,0.0,102085.0,22.0,-562.5,1082.8125,0.0,1.625,1.068115125,0.5498168668524888,0.12329100299999995,-83876.0,2.25,772.5,1082.8125,0.0,1.125,0.294189423,4.410439589772222,0.0,106775.0,53.25,-1140.0,1082.8125,0.0,0.875,3.02734344,4.389674732977289,0.0,-85698.0,2.25,1050.0,1082.8125,0.0,0.625,1.92871074,0.5526872062785588,0.0,0.1599999964237213,-0.11999999731779099,3.640000104904175,0.67059326171875,-0.56719970703125,0.6258544921875,35.0099983215332,0.0,634.0,-0.0266571044921875,0.5725250244140625,Waiting,0.0,0.0,0.0,0.0,0.0,0.0,0.0,0.0,
2.620146000000008,0.0,0.0,102180.0,16.375,337.5,803.90625,0.0,0.75,1.1889647220000001,0.5498168668524888,0.13916014200000004,-83797.0,0.0,420.0,803.90625,0.0,0.5,0.128173815,4.410439589772222,-0.16845701399999946,106639.0,59.375,-675.0,803.90625,0.0,0.25,2.91748017,4.389674732977289,-0.1818847469999998,-85698.0,1.25,877.5,803.90625,0.0,0.375,2.049560337,0.5526872062785588,0.12939451800000001,0.14000000059604645,0.4300000071525574,2.740000009536743,0.5286865234375,-0.2130126953125,1.701171875,35.0099983215332,0.0,504.0,-0.0195770263671875,0.573760986328125,Waiting,0.0,0.0,0.0,0.0,0.0,0.0,0.0,0.0,
2.6621210000000137,0.0,0.0,102180.0,8.125,615.0,147.65625,0.0,0.5,1.286620962,0.5498168668524888,0.0,-83797.0,0.25,592.5,147.65625,0.0,0.25,0.017089842,4.410439589772222,0.0,106639.0,50.375,-427.5,147.65625,0.0,0.125,2.8393551780000004,4.389674732977289,0.0,-85698.0,3.375,772.5,147.65625,0.0,0.375,2.122802517,0.5526872062785588,0.0,0.009999999776482582,1.5,0.8199999928474426,0.298095703125,0.16522216796875,1.30126953125,35.0,0.0,266.0,-0.0013580322265625,0.5753326416015625,Waiting,0.0,0.0,0.0,0.0,0.0,0.0,0.0,0.0,
2.702494000000006,0.0,0.0,102180.0,0.5,247.5,0.0,0.0,0.5,1.3208006460000001,0.5498168668524888,0.08178710099999997,-83797.0,1.5,697.5,0.0,0.0,0.25,4.945067853,4.410439589772222,-0.10375975500000045,106639.0,9.0,0.0,0.0,0.0,0.125,2.817382524,4.389674732977289,-0.07812499199999934,-85613.0,2.75,577.5,0.0,0.0,0.375,2.149657983,0.5526872062785588,0.07812499200000023,-0.18000000715255737,2.700000047683716,-0.8700000047683716,0.16290283203125,0.06732177734375,0.58880615234375,35.0,0.0,133.0,0.0221099853515625,0.5772857666015625,Waiting,0.0,0.0,0.0,0.0,0.0,0.0,0.0,0.0,
2.7476689999999944,0.0,0.0,102200.0,0.25,187.5,0.0,0.0,0.375,1.340331894,0.5498168668524888,0.0402831990000001,-83718.0,0.625,480.0,0.0,0.0,0.25,4.941405744,4.410439589772222,4.927978011,106645.0,2.25,37.5,0.0,0.0,0.0,2.7990719790000003,4.389674732977289,-0.02685546600000066,-85613.0,0.0,450.0,0.0,0.0,0.25,2.149657983,0.5526872062785588,0.024414059999999793,-0.28999999165534973,2.3399999141693115,-2.0199999809265137,-0.00225830078125,-0.0819091796875,1.0909423828125,35.0,0.0,-44.0,0.0468902587890625,0.5791168212890625,Waiting,0.0,0.0,0.0,0.0,0.0,0.0,0.0,0.0,
2.7890570000000006,0.0,0.0,102200.0,0.125,127.5,459.375,0.0,0.25,1.3439940030000002,0.5498168668524888,0.0,-83718.0,0.0,300.0,459.375,0.0,0.25,4.941405744,4.410439589772222,0.0,106645.0,0.0,52.5,459.375,0.0,0.0,2.779540731,4.389674732977289,0.0,-85613.0,0.125,352.5,459.375,0.0,0.25,2.149657983,0.5526872062785588,0.0,-0.41999998688697815,2.2200000286102295,-2.819999933242798,-0.0498046875,-0.04254150390625,0.7266845703125,35.0,0.0,-75.0,0.070220947265625,0.5803985595703125,Waiting,0.0,0.0,0.0,0.0,0.0,0.0,0.0,0.0,
2.828831999999995,0.0,0.0,102200.0,1.125,90.0,1525.78125,0.0,0.125,1.3452147060000001,0.5498168668524888,0.003662109000000191,-83718.0,0.875,150.0,1525.78125,0.0,0.125,4.930419417,4.410439589772222,0.0,106645.0,2.75,37.5,1525.78125,0.0,0.0,2.779540731,4.389674732977289,-0.019531247999999835,-85586.0,0.375,285.0,1525.78125,0.0,0.25,2.152099389,0.5526872062785588,0.0,-0.33000001311302185,1.8700000047683716,-3.0199999809265137,-0.12335205078125,0.081787109375,1.13330078125,35.0,0.0,-164.0,0.084747314453125,0.581207275390625,Waiting,0.0,0.0,0.0,0.0,0.0,0.0,0.0,0.0,
2.869356,0.0,0.0,102245.0,7.375,202.5,1837.5,0.0,0.125,1.340331894,0.5498168668524888,0.0,-83698.0,6.75,150.0,1837.5,0.0,0.125,4.914550278,4.410439589772222,-0.024414059999999793,106658.0,11.625,75.0,1837.5,0.0,0.0,2.774657919,4.389674732977289,-0.004882811999999959,-85586.0,5.25,157.5,1837.5,0.0,0.25,2.149657983,0.5526872062785588,0.0,-0.12999999523162842,1.850000023841858,-3.2799999713897705,-0.29022216796875,0.1309814453125,1.40179443359375,35.0,0.0,-342.0,0.105712890625,0.58319091796875,Waiting,0.0,0.0,0.0,0.0,0.0,0.0,0.0,0.0,
2.9083830000000015,0.0,0.0,102245.0,15.25,352.5,2034.375,0.0,0.125,1.340331894,0.5498168668524888,0.0,-83698.0,16.875,375.0,2034.375,0.0,0.0,4.910888169000001,4.410439589772222,0.0,106658.0,24.0,127.5,2034.375,0.0,0.0,2.774657919,4.389674732977289,0.0,-85586.0,13.5,225.0,2034.375,0.0,0.25,2.149657983,0.5526872062785588,0.0,-0.1899999976158142,1.809999942779541,-4.880000114440918,0.1258544921875,0.00201416015625,1.00799560546875,35.0,0.0,93.0,0.1260223388671875,0.5862274169921875,Waiting,0.0,0.0,0.0,0.0,0.0,0.0,0.0,0.0,
2.948125999999989,0.0,0.0,102245.0,15.75,420.0,1214.0625,0.0,0.125,1.352538924,0.5498168668524888,0.0,-83698.0,19.125,570.0,1214.0625,0.0,0.0,4.912108872,4.410439589772222,0.0,106682.0,24.25,150.0,1214.0625,0.0,0.0,2.773437216,4.389674732977289,0.0,-85499.0,17.0,405.0,1214.0625,0.0,0.25,2.149657983,0.5526872062785588,0.0,-0.4000000059604645,1.8300000429153442,-7.800000190734863,-0.07501220703125,-0.02294921875,0.9420166015625,35.0,0.0,-102.0,0.1470794677734375,0.5887603759765625,Waiting,0.0,0.0,0.0,0.0,0.0,0.0,0.0,0.0,
2.9887129999999886,0.0,0.0,102338.0,7.0,547.5,0.0,0.0,0.125,1.340331894,0.5498168668524888,-0.0012207029999999897,-83590.0,8.75,660.0,0.0,0.0,0.0,4.902343248,4.410439589772222,-0.003662108999999525,106682.0,12.5,165.0,0.0,0.0,0.0,2.778320028,4.389674732977289,0.0,-85499.0,8.875,562.5,0.0,0.0,0.25,2.149657983,0.5526872062785588,-0.0012207029999999897,-0.5699999928474426,1.7699999809265137,-10.359999656677246,0.035400390625,0.08050537109375,0.9349365234375,35.0,0.0,-9.0,0.1609649658203125,0.5901641845703125,Waiting,0.0,0.0,0.0,0.0,0.0,0.0,0.0,0.0,
3.0294860000000043,0.0,0.0,102338.0,0.75,675.0,0.0,0.0,0.125,1.340331894,0.5498168668524888,-0.0012207029999999897,-83590.0,0.875,705.0,0.0,0.0,0.0,4.903563951000001,4.410439589772222,-0.003662108999999525,106682.0,1.25,232.5,0.0,0.0,0.0,2.779540731,4.389674732977289,0.0,-85499.0,1.25,667.5,0.0,0.0,0.25,2.149657983,0.5526872062785588,-0.0012207029999999897,-0.6600000262260437,1.600000023841858,-14.449999809265137,0.016845703125,0.03778076171875,1.05853271484375,35.0,0.0,-24.0,0.1806182861328125,0.5923309326171875,Waiting,0.0,0.0,0.0,0.0,0.0,0.0,0.0,0.0,
3.0708580000000074,0.0,0.0,102338.0,0.0,622.5,0.0,0.0,0.125,1.340331894,0.5498168668524888,0.0,-83484.0,0.0,637.5,0.0,0.0,0.125,4.903563951000001,4.410439589772222,-0.006103515000000392,106723.0,0.0,255.0,0.0,0.0,0.0,2.779540731,4.389674732977289,0.004882811999999959,-85381.0,0.0,652.5,0.0,0.0,0.25,2.149657983,0.5526872062785588,0.0012207029999999897,-0.7599999904632568,1.5399999618530273,-17.940000534057617,-0.0750732421875,-0.11785888671875,0.91424560546875,35.0,0.0,-62.0,0.1983795166015625,0.594268798828125,Waiting,0.0,0.0,0.0,0.0,0.0,0.0,0.0,0.0,
3.110103999999992,0.0,0.0,102441.0,0.0,637.5,0.0,0.0,0.125,1.340331894,0.5498168668524888,0.0,-83484.0,0.0,630.0,0.0,0.0,0.125,4.909667466,4.410439589772222,0.0024414059999999793,106723.0,0.0,247.5,0.0,0.0,0.0,2.779540731,4.389674732977289,0.0,-85381.0,0.0,720.0,0.0,0.0,0.25,2.149657983,0.5526872062785588,0.0,-0.9800000190734863,1.3700000047683716,-20.030000686645508,-0.0146484375,0.04803466796875,1.07110595703125,35.0,0.0,-60.0,0.209442138671875,0.595428466796875,Waiting,0.0,0.0,0.0,0.0,0.0,0.0,0.0,0.0,
3.1500689999999887,0.0,0.0,102441.0,0.75,727.5,131.25,0.0,0.125,1.340331894,0.5498168668524888,0.0,-83484.0,0.75,675.0,131.25,0.0,0.125,4.90722606,4.410439589772222,0.0,106723.0,0.125,285.0,131.25,0.0,0.0,2.773437216,4.389674732977289,0.0,-85381.0,0.75,757.5,131.25,0.0,0.25,2.149657983,0.5526872062785588,0.0,-1.1100000143051147,1.4199999570846558,-23.959999084472656,0.14935302734375,0.158935546875,0.94036865234375,34.959999084472656,0.0,43.0,0.230560302734375,0.5980987548828125,Waiting,0.0,0.0,0.0,0.0,0.0,0.0,0.0,0.0,
3.191481999999989,0.0,0.0,102441.0,2.25,577.5,1870.3125,0.0,0.125,1.339111191,0.5498168668524887,0.0,-83389.0,2.625,607.5,1870.3125,0.0,0.125,4.898681139000001,4.410439589772222,0.0,106773.0,3.375,322.5,1870.3125,0.0,0.0,2.785644246,4.389674732977289,0.0,-85299.0,2.625,577.5,1870.3125,0.0,0.25,2.149657983,0.5526872062785588,0.0,-1.149999976158142,1.3600000143051147,-25.329999923706055,-0.16552734375,0.32110595703125,1.01116943359375,34.959999084472656,0.0,-317.0,0.2406158447265625,0.5991973876953125,Waiting,0.0,0.0,0.0,0.0,0.0,0.0,0.0,0.0,
3.2326039999999923,0.0,0.0,102525.0,2.75,487.5,2100.0,0.0,0.125,1.340331894,0.5498168668524888,0.0,-83389.0,3.375,585.0,2100.0,0.0,0.125,4.898681139000001,4.410439589772222,-0.009765623999999917,106773.0,4.625,307.5,2100.0,0.0,0.0,2.779540731,4.389674732977289,0.0,-85299.0,4.375,472.5,2100.0,0.0,0.25,2.144775171,0.5526872062785588,0.0,-1.100000023841858,1.190000057220459,-26.940000534057617,0.2301025390625,0.20599365234375,1.08251953125,34.959999084472656,0.0,82.0,0.25482177734375,0.6009521484375,Waiting,0.0,0.0,0.0,0.0,0.0,0.0,0.0,0.0,
3.2726719999999916,0.0,0.0,102525.0,7.0,540.0,1000.7812499999999,0.0,0.125,1.333007676,0.5498168668524888,0.0012207029999999897,-83389.0,8.125,675.0,1000.7812499999999,0.0,0.125,4.898681139000001,4.410439589772222,0.0,106773.0,13.125,240.0,1000.7812499999999,0.0,0.0,2.779540731,4.389674732977289,0.0,-85299.0,6.0,615.0,1000.7812499999999,0.0,0.25,2.144775171,0.5526872062785588,-0.004882811999999959,-1.090000033378601,1.2400000095367432,-28.6200008392334,0.1978759765625,-0.03570556640625,1.01873779296875,34.959999084472656,0.0,161.0,0.2641448974609375,0.6023101806640625,Waiting,0.0,0.0,0.0,0.0,0.0,0.0,0.0,0.0,
3.3176080000000074,0.0,0.0,102525.0,1.375,690.0,0.0,0.0,0.125,1.340331894,0.5498168668524888,-0.0012207029999999897,-83284.0,0.75,660.0,0.0,0.0,0.125,4.893798327,4.410439589772222,-0.004882811999999959,106828.0,3.625,307.5,0.0,0.0,0.0,2.778320028,4.389674732977289,0.0,-85195.0,2.125,667.5,0.0,0.0,0.25,2.14843728,0.5526872062785588,0.0012207029999999897,-1.159999966621399,1.2300000190734863,-32.58000183105469,-0.11956787109375,-0.0498046875,0.8515625,34.959999084472656,0.0,-98.0,0.283050537109375,0.60546875,Waiting,0.0,0.0,0.0,0.0,0.0,0.0,0.0,0.0,
3.3556179999999878,0.0,0.0,102626.0,0.0,577.5,0.0,0.0,0.125,1.339111191,0.5498168668524888,0.0012207029999999897,-83284.0,0.0,517.5,0.0,0.0,0.125,4.893798327,4.410439589772222,0.0,106828.0,0.0,397.5,0.0,0.0,0.0,2.779540731,4.389674732977289,0.0,-85195.0,0.125,502.5,0.0,0.0,0.25,2.149657983,0.5526872062785588,0.0012207029999999897,-1.1799999475479126,1.0,-34.5099983215332,0.13275146484375,0.17706298828125,1.1207275390625,34.959999084472656,0.0,-20.0,0.2918548583984375,0.6070098876953125,Waiting,0.0,0.0,0.0,0.0,0.0,0.0,0.0,0.0,
3.3963550000000104,0.0,0.0,102626.0,0.0,502.5,0.0,0.0,0.125,1.340331894,0.5498168668524888,-0.0012207029999999897,-83284.0,0.0,435.0,0.0,0.0,0.125,4.893798327,4.410439589772222,0.0,106828.0,0.0,345.0,0.0,0.0,0.0,2.778320028,4.389674732977289,0.0,-85195.0,0.0,420.0,0.0,0.0,0.25,2.149657983,0.5526872062785588,0.003662108999999969,-1.2200000286102295,0.9800000190734863,-37.04999923706055,0.02166748046875,-0.0355224609375,0.6146240234375,34.959999084472656,0.0,22.0,0.3046417236328125,0.60931396484375,Waiting,0.0,0.0,0.0,0.0,0.0,0.0,0.0,0.0,
3.4382540000000152,0.0,0.0,102626.0,0.0,412.5,0.0,0.0,0.125,1.339111191,0.5498168668524888,0.0,-83208.0,0.0,457.5,0.0,0.0,0.125,4.893798327,4.410439589772222,0.0,106866.0,0.0,240.0,0.0,0.0,0.0,2.778320028,4.389674732977289,0.0,-85115.0,0.0,517.5,0.0,0.0,0.25,2.149657983,0.5526872062785588,0.0,-1.340000033378601,0.7099999785423279,-39.15999984741211,-0.077392578125,-0.0035400390625,1.327392578125,34.959999084472656,0.0,-90.0,0.317291259765625,0.61102294921875,Waiting,0.0,0.0,0.0,0.0,0.0,0.0,0.0,0.0,
3.4818060000000113,0.0,0.0,102688.0,0.0,375.0,0.0,0.0,0.125,1.340331894,0.5498168668524888,0.0,-83208.0,0.0,480.0,0.0,0.0,0.125,4.893798327,4.410439589772222,0.0,106866.0,0.0,202.5,0.0,0.0,0.0,2.778320028,4.389674732977289,0.0,-85115.0,0.0,517.5,0.0,0.0,0.25,2.149657983,0.5526872062785588,0.0,-1.3700000047683716,0.7799999713897705,-41.029998779296875,0.02789306640625,0.17999267578125,0.98455810546875,34.959999084472656,0.0,-122.0,0.32958984375,0.6125946044921875,Waiting,0.0,0.0,0.0,0.0,0.0,0.0,0.0,0.0,
3.523459999999992,0.0,0.0,102688.0,0.0,375.0,0.0,0.0,0.125,1.340331894,0.5498168668524888,0.0,-83208.0,0.0,465.0,0.0,0.0,0.125,4.892577624,4.410439589772222,0.0,106866.0,0.0,187.5,0.0,0.0,0.0,2.779540731,4.389674732977289,0.0,-85115.0,0.0,360.0,0.0,0.0,0.25,2.149657983,0.5526872062785588,0.0,-1.3200000524520874,0.7699999809265137,-42.06999969482422,-0.0120849609375,-0.08221435546875,0.95257568359375,34.959999084472656,0.0,21.0,0.3376617431640625,0.6138153076171875,Waiting,0.0,0.0,0.0,0.0,0.0,0.0,0.0,0.0,
3.5671939999999887,0.0,0.0,102688.0,0.375,375.0,-231.49606212973595,0.0,0.625,1.335449082,4.932250999999998,0.0,-83158.0,0.0,337.5,231.49606212973595,0.0,0.125,4.891356921,4.963769999999998,0.0,106895.0,0.125,187.5,-231.49606212973595,0.0,0.0,2.780761434,0.01,0.0,-85065.0,0.125,315.0,231.49606212973595,0.0,0.25,2.149657983,0.01,0.0,-1.309999942779541,0.699999988079071,-42.9900016784668,-0.04376220703125,-0.0469970703125,1.07403564453125,34.959999084472656,0.0,-26.0,0.34576416015625,0.61480712890625,Waiting,0.0,0.0,0.0,0.0,0.0,0.0,0.0,0.0,
3.606328999999998,0.0,0.0,102733.0,1.875,292.5,-661.4173203706741,0.0,2.0,1.201171752,4.932250999999998,0.0,-83158.0,0.0,285.0,661.4173203706741,0.0,1.75,4.899901842,4.963769999999998,0.0,106895.0,1.0,165.0,-661.4173203706741,0.0,1.375,2.8479000990000003,0.01,0.0,-85065.0,0.375,277.5,661.4173203706741,0.0,1.0,2.149657983,0.01,0.0,-1.3899999856948853,0.5199999809265137,-44.02000045776367,-0.0157470703125,0.0733642578125,0.89501953125,34.959999084472656,0.0,-83.0,0.357421875,0.61553955078125,Waiting,0.0,0.0,0.0,0.0,0.0,0.0,0.0,0.0,
3.648428000000014,0.0,0.0,102733.0,4.75,180.0,-843.3070600032806,0.0,0.875,1.054687392,4.932250999999998,0.0,-83158.0,0.375,262.5,843.3070600032806,0.0,3.125,0.07934569500000001,4.963769999999998,0.0,106895.0,4.75,37.5,-843.3070600032806,0.0,2.125,3.046874688,0.01,0.0,-85065.0,0.75,202.5,843.3070600032806,0.0,2.125,2.00195292,0.01,0.0,-1.3600000143051147,0.30000001192092896,-44.279998779296875,0.018310546875,-0.025146484375,1.0054931640625,34.959999084472656,0.0,10.0,0.3680877685546875,0.6154022216796875,Waiting,0.0,0.0,0.0,0.0,0.0,0.0,0.0,0.0,
3.6913159999999916,0.0,0.0,102728.0,7.0,60.0,-859.8425477743149,0.0,0.75,0.954589746,4.932250999999998,0.0,-83115.0,1.25,255.0,859.8425477743149,0.0,1.0,0.249023412,4.963769999999998,0.0,106894.0,6.0,-7.5,-859.8425477743149,0.0,0.375,3.2202145140000002,0.01,0.0,-85028.0,1.875,232.5,859.8425477743149,0.0,0.625,1.828613094,0.01,0.0,-1.3200000524520874,0.12999999523162842,-43.959999084472656,-0.156005859375,-0.015869140625,0.90240478515625,34.970001220703125,0.0,-117.0,0.3780670166015625,0.614593505859375,Waiting,0.0,0.0,0.0,0.0,0.0,0.0,0.0,0.0,
3.7320720000000147,0.0,0.0,102728.0,7.875,-52.5,-992.1260118484497,0.0,0.5,0.8825682690000001,4.932250999999998,-0.09643553699999996,-83115.0,3.125,240.0,992.1260118484497,0.0,1.0,0.339355434,4.963769999999998,0.15380857799999959,106894.0,6.75,-30.0,-992.1260118484497,0.0,0.25,3.3251949720000002,0.01,0.0,-85028.0,3.125,247.5,992.1260118484497,0.0,0.5,1.7102049030000002,0.01,0.0,-1.3200000524520874,-0.10999999940395355,-43.54999923706055,-0.11822509765625,-6.103515625E-5,1.0987548828125,34.970001220703125,0.0,-101.0,0.3867340087890625,0.61285400390625,Waiting,0.0,0.0,0.0,0.0,0.0,0.0,0.0,0.0,
3.7737479999999923,0.0,0.0,102728.0,9.75,-157.5,-1355.9054911136627,0.0,0.375,0.848388585,4.932250999999998,-0.06103515000000004,-83115.0,6.125,157.5,1355.9054911136627,0.0,1.0,0.384521445,4.963769999999998,0.08666991299999971,106894.0,9.5,-112.5,-1355.9054911136627,0.0,0.125,3.402099261,0.01,0.11474608199999992,-85028.0,6.125,180.0,1355.9054911136627,0.0,0.5,1.639404129,0.01,-0.11840819099999988,-1.3600000143051147,-0.28999999165534973,-43.34000015258789,-0.19207763671875,0.00537109375,0.9227294921875,34.970001220703125,0.0,-155.0,0.3918914794921875,0.610992431640625,Waiting,0.0,0.0,0.0,0.0,0.0,0.0,0.0,0.0,
3.814293000000005,0.0,0.0,102683.0,14.625,-240.0,-1488.1890177726746,0.0,0.25,0.838622961,4.932250999999998,0.0,-83088.0,13.25,150.0,1488.1890177726746,0.0,0.75,0.40283199000000003,4.963769999999998,0.0,106859.0,13.375,-202.5,-1488.1890177726746,0.0,0.125,3.410644182,0.01,-4.878144147,-84997.0,10.25,217.5,1488.1890177726746,0.0,0.125,1.568603355,0.01,0.0,-1.3700000047683716,-0.9100000262260437,-43.459999084472656,-0.3814697265625,-0.01910400390625,0.894287109375,34.970001220703125,0.0,-268.0,0.397552490234375,0.6064300537109375,Waiting,0.0,0.0,0.0,0.0,0.0,0.0,0.0,0.0,
3.8540519999999963,0.0,0.0,102683.0,20.375,-300.0,-1488.1890177726746,0.0,0.25,0.839843664,4.932250999999998,0.0,-83088.0,17.75,307.5,1488.1890177726746,0.0,0.5,0.40039058400000005,4.963769999999998,0.0,106859.0,16.625,-270.0,-1488.1890177726746,0.0,0.125,3.435058242,0.01,0.0,-84997.0,12.625,397.5,1488.1890177726746,0.0,0.25,1.5026853930000001,0.01,0.0,-1.309999942779541,-1.659999966621399,-43.75,-0.337158203125,-0.0048828125,1.2572021484375,34.970001220703125,0.0,-233.0,0.3998565673828125,0.598541259765625,Waiting,0.0,0.0,0.0,0.0,0.0,0.0,0.0,0.0,
3.894686000000016,0.0,0.0,102683.0,21.875,-412.5,-1488.1890177726746,0.0,0.25,0.8410643670000001,4.932250999999998,0.0,-83088.0,18.875,510.0,1488.1890177726746,0.0,0.25,0.399169881,4.963769999999998,0.0,106859.0,19.5,-367.5,-1488.1890177726746,0.0,0.125,3.435058242,0.01,0.0,-84997.0,12.625,570.0,1488.1890177726746,0.0,0.25,1.494140472,0.01,0.0,-1.25,-2.319999933242798,-43.779998779296875,-0.2686767578125,0.1768798828125,0.88714599609375,34.970001220703125,0.0,-303.0,0.398834228515625,0.58770751953125,Waiting,0.0,0.0,0.0,0.0,0.0,0.0,0.0,0.0,
3.9352829999999956,0.0,0.0,102565.0,21.125,-607.5,-1355.9054911136627,0.0,0.25,0.839843664,4.932250999999998,0.0012207029999999897,-82976.0,17.0,690.0,1355.9054911136627,0.0,0.25,0.399169881,4.963769999999998,0.0,106798.0,19.5,-412.5,-1355.9054911136627,0.0,0.125,3.4228512120000003,0.01,0.0,-84890.0,11.75,712.5,1355.9054911136627,0.0,0.375,1.523437344,0.01,0.0,-1.1299999952316284,-2.8299999237060547,-43.540000915527344,-0.0875244140625,-0.10577392578125,0.85467529296875,34.970001220703125,0.0,28.0,0.3946685791015625,0.57476806640625,Waiting,0.0,0.0,0.0,0.0,0.0,0.0,0.0,0.0,
3.979290000000008,0.0,0.0,102565.0,17.375,-832.5,-1355.9054911136627,0.0,0.25,0.839843664,4.932250999999998,-0.0012207029999999897,-82976.0,14.375,840.0,1355.9054911136627,0.0,0.25,0.399169881,4.963769999999998,0.0,106798.0,19.875,-382.5,-1355.9054911136627,0.0,0.125,3.4301754300000002,0.01,0.0,-84890.0,10.125,832.5,1355.9054911136627,0.0,0.25,1.560058434,0.01,0.0,-1.1799999475479126,-3.130000114440918,-43.2599983215332,-0.28753662109375,-0.01239013671875,1.07598876953125,34.970001220703125,0.0,-173.0,0.391143798828125,0.5650482177734375,Waiting,0.0,0.0,0.0,0.0,0.0,0.0,0.0,0.0,
4.022953999999998,0.0,0.0,102565.0,13.875,-1020.0,-1355.9054911136627,0.0,0.25,0.8581542090000001,4.932250999999998,0.0,-82976.0,12.125,967.5,1355.9054911136627,0.0,0.5,0.404052693,4.963769999999998,0.0,106798.0,21.125,-480.0,-1355.9054911136627,0.0,0.125,3.4240719150000003,0.01,0.0,-84728.0,9.75,892.5,1355.9054911136627,0.0,0.25,1.591796712,0.01,0.035400387000000144,-1.190000057220459,-3.4100000858306885,-42.81999969482422,-0.42120361328125,-0.04608154296875,0.996337890625,34.970001220703125,0.0,-248.0,0.383880615234375,0.5490264892578125,Waiting,0.0,0.0,0.0,0.0,0.0,0.0,0.0,0.0,
4.064133000000002,0.0,0.0,102366.0,11.5,-1177.5,-1355.9054911136627,0.0,0.25,0.839843664,4.932250999999998,0.0,-82802.0,10.75,1087.5,1355.9054911136627,0.0,0.5,0.405273396,4.963769999999998,0.0,106675.0,20.625,-772.5,-1355.9054911136627,0.0,0.125,3.4252926180000003,0.01,0.0,-84728.0,8.75,1020.0,1355.9054911136627,0.0,0.25,1.6101072570000001,0.01,0.0,-1.159999966621399,-3.8299999237060547,-42.439998626708984,-0.17041015625,-0.10845947265625,1.019287109375,34.970001220703125,0.0,-16.0,0.374359130859375,0.530792236328125,Waiting,0.0,0.0,0.0,0.0,0.0,0.0,0.0,0.0,
4.105401000000013,0.0,0.0,102366.0,10.0,-1297.5,-1355.9054911136627,0.0,0.25,0.8410643670000001,4.932250999999998,0.0,-82802.0,9.0,1207.5,1355.9054911136627,0.0,0.25,0.405273396,4.963769999999998,0.0,106675.0,17.625,-1005.0,-1355.9054911136627,0.0,0.125,3.4191891030000003,0.01,0.0,-84728.0,7.875,1140.0,1355.9054911136627,0.0,0.25,1.616210772,0.01,0.0,-1.25,-4.0,-42.13999938964844,-0.1317138671875,0.044189453125,1.14935302734375,34.970001220703125,0.0,-84.0,0.364013671875,0.510498046875,Waiting,0.0,0.0,0.0,0.0,0.0,0.0,0.0,0.0,
4.146874000000011,0.0,0.0,102366.0,8.625,-1387.5,-1355.9054911136627,0.0,0.25,0.838622961,4.932250999999998,0.0,-82802.0,7.25,1320.0,1355.9054911136627,0.0,0.25,0.405273396,4.963769999999998,0.0,106675.0,16.5,-1072.5,-1355.9054911136627,0.0,0.125,3.4216305090000003,0.01,0.0,-84516.0,6.75,1245.0,1355.9054911136627,0.0,0.25,1.616210772,0.01,0.0,-1.2999999523162842,-4.150000095367432,-42.060001373291016,-0.22088623046875,-0.0775146484375,0.48931884765625,34.970001220703125,0.0,-93.0,0.3564910888671875,0.4963531494140625,Waiting,0.0,0.0,0.0,0.0,0.0,0.0,0.0,0.0,
4.187067999999999,0.0,0.0,102132.0,7.5,-1447.5,-1355.9054911136627,0.0,0.25,0.839843664,4.932250999999998,-0.0012207029999999897,-82580.0,5.625,1410.0,1355.9054911136627,0.0,0.25,0.40893550500000003,4.963769999999998,0.0,106503.0,16.125,-1080.0,-1355.9054911136627,0.0,0.125,3.4216305090000003,0.01,0.0,-84516.0,5.25,1342.5,1355.9054911136627,0.0,0.125,1.614990069,0.01,0.0,-1.2100000381469727,-4.230000019073486,-41.939998626708984,-0.02423095703125,-0.01806640625,1.36199951171875,34.93000030517578,0.0,49.0,0.3450469970703125,0.4746856689453125,Waiting,0.0,0.0,0.0,0.0,0.0,0.0,0.0,0.0,
4.227985000000015,0.0,0.0,102132.0,6.375,-1500.0,-1355.9054911136627,0.0,0.25,0.834960852,4.932250999999998,0.0,-82580.0,4.25,1470.0,1355.9054911136627,0.0,0.25,0.40893550500000003,4.963769999999998,0.004882811999999959,106503.0,16.875,-1095.0,-1355.9054911136627,0.0,0.125,3.4167476970000004,0.01,0.0,-84516.0,4.0,1440.0,1355.9054911136627,0.0,0.125,1.621093584,0.01,-0.0012207029999995456,-1.149999976158142,-4.369999885559082,-41.849998474121094,-0.0614013671875,-0.10614013671875,0.908935546875,34.93000030517578,0.0,64.0,0.3331298828125,0.4532318115234375,Waiting,0.0,0.0,0.0,0.0,0.0,0.0,0.0,0.0,
4.267701000000001,0.0,0.0,102132.0,5.125,-1545.0,-1355.9054911136627,0.0,0.25,0.833740149,4.932250999999998,0.0,-82580.0,3.0,1515.0,1355.9054911136627,0.0,0.25,0.40893550500000003,4.963769999999998,0.0,106503.0,17.125,-1147.5,-1355.9054911136627,0.0,0.125,3.4155269940000004,0.01,-0.004882811999999959,-84272.0,3.375,1500.0,1355.9054911136627,0.0,0.125,1.621093584,0.01,0.0,-1.1299999952316284,-4.269999980926514,-41.779998779296875,-0.18463134765625,0.01641845703125,1.41986083984375,34.93000030517578,0.0,-88.0,0.3209228515625,0.431854248046875,Waiting,0.0,0.0,0.0,0.0,0.0,0.0,0.0,0.0,
4.306695000000007,0.0,0.0,101877.0,4.25,-1590.0,-1355.9054911136627,0.0,0.25,0.833740149,4.932250999999998,0.0,-82332.0,2.25,1560.0,1355.9054911136627,0.0,0.25,0.40283199000000003,4.963769999999998,0.0,106309.0,16.75,-1222.5,-1355.9054911136627,0.0,0.125,3.4167476970000004,0.01,0.0,-84272.0,2.625,1522.5,1355.9054911136627,0.0,0.125,1.6308592080000002,0.01,0.0,-1.159999966621399,-4.150000095367432,-41.689998626708984,-0.03143310546875,0.12371826171875,1.35943603515625,34.93000030517578,0.0,-50.0,0.3124237060546875,0.4180755615234375,Waiting,0.0,0.0,0.0,0.0,0.0,0.0,0.0,0.0,
4.348304000000004,0.0,0.0,101877.0,3.375,-1627.5,-1322.8346407413483,0.0,0.25,0.833740149,4.932250999999998,0.0,-82332.0,1.5,1582.5,1322.8346407413483,0.0,0.25,0.412597614,4.963769999999998,0.0,106309.0,15.625,-1335.0,-1322.8346407413483,0.0,0.125,3.4155269940000004,0.01,0.0,-84272.0,1.625,1545.0,1322.8346407413483,0.0,0.125,1.644286941,0.01,0.0,-1.0399999618530273,-4.110000133514404,-41.529998779296875,0.0208740234375,0.12628173828125,1.2491455078125,34.93000030517578,0.0,-16.0,0.30010986328125,0.4114837646484375,Waiting,0.0,0.0,0.0,0.0,0.0,0.0,0.0,0.0,
4.389084000000002,0.0,0.0,101877.0,2.0,-1657.5,-1289.7637903690338,0.0,0.25,0.8312987430000001,4.932250999999998,-0.0012207029999999897,-82080.0,0.875,1582.5,1289.7637903690338,0.0,0.25,0.418701129,4.963769999999998,0.0,106055.0,13.75,-1500.0,-1289.7637903690338,0.0,0.125,3.4155269940000004,0.01,0.0,-84020.0,1.125,1575.0,1289.7637903690338,0.0,0.125,1.649169753,0.01,0.0,-0.8199999928474426,-3.859999895095825,-41.43000030517578,0.01312255859375,-0.04376220703125,0.967529296875,34.93000030517578,0.0,78.0,0.287872314453125,0.412872314453125,Waiting,0.0,0.0,0.0,0.0,0.0,0.0,0.0,0.0,
4.430635999999999,0.0,0.0,101610.0,1.25,-1657.5,-1289.7637903690338,0.0,0.25,0.834960852,4.932250999999998,0.0,-82080.0,0.75,1575.0,1289.7637903690338,0.0,0.25,0.418701129,4.963769999999998,0.004882811999999959,106055.0,12.5,-1590.0,-1289.7637903690338,0.0,0.125,3.4167476970000004,0.01,0.0,-84020.0,0.875,1567.5,1289.7637903690338,0.0,0.25,1.649169753,0.01,0.004882811999999959,-0.8899999856948853,-3.990000009536743,-41.43000030517578,-0.0467529296875,0.06561279296875,0.6181640625,34.93000030517578,0.0,-52.0,0.2760162353515625,0.41473388671875,Waiting,0.0,0.0,0.0,0.0,0.0,0.0,0.0,0.0,
4.470899000000005,0.0,0.0,101610.0,1.0,-1650.0,-1289.7637903690338,0.0,0.25,0.834960852,4.932250999999998,0.0,-82080.0,0.75,1545.0,1289.7637903690338,0.0,0.25,0.418701129,4.963769999999998,0.0012207029999995456,106055.0,10.125,-1695.0,-1289.7637903690338,0.0,0.125,3.4155269940000004,0.01,0.0,-84020.0,0.75,1522.5,1289.7637903690338,0.0,0.25,1.67236311,0.01,0.0,-0.8500000238418579,-3.869999885559082,-41.5,0.010009765625,-0.03729248046875,1.33624267578125,34.93000030517578,0.0,86.0,0.2681121826171875,0.4160919189453125,Waiting,0.0,0.0,0.0,0.0,0.0,0.0,0.0,0.0,
4.509149999999994,0.0,0.0,101610.0,0.625,-1635.0,-1240.1575148105621,0.0,0.25,0.826415931,4.932250999999998,0.0,-81826.0,0.5,1537.5,1240.1575148105621,0.0,0.25,0.424804644,4.963769999999998,0.0,105861.0,9.375,-1470.0,-1240.1575148105621,0.0,0.125,3.4155269940000004,0.01,0.0,-83770.0,0.5,1537.5,1240.1575148105621,0.0,0.25,1.6857908430000001,0.01,0.0,-0.9100000262260437,-3.7899999618530273,-41.63999938964844,-0.1217041015625,-0.162841796875,0.94207763671875,34.93000030517578,0.0,53.0,0.25653076171875,0.4185638427734375,Waiting,0.0,0.0,0.0,0.0,0.0,0.0,0.0,0.0,
4.549921999999992,0.0,0.0,101353.0,0.375,-1620.0,-1223.622089624405,0.0,0.25,0.8410643670000001,4.932250999999998,0.0,-81826.0,0.125,1590.0,1223.622089624405,0.0,0.25,0.42236323800000003,4.963769999999998,0.0,105861.0,11.625,-945.0,-1223.622089624405,0.0,0.125,3.410644182,0.01,0.0,-83770.0,0.5,1597.5,1223.622089624405,0.0,0.25,1.673583813,0.01,0.0,-1.0,-3.6700000762939453,-41.72999954223633,-0.079345703125,0.10797119140625,1.29400634765625,34.93000030517578,0.0,-84.0,0.2493133544921875,0.42034912109375,Waiting,0.0,0.0,0.0,0.0,0.0,0.0,0.0,0.0,
4.592274000000005,0.0,0.0,101353.0,0.125,-1582.5,-1223.622089624405,0.0,0.25,0.836181555,4.932250999999998,0.0,-81826.0,0.0,1627.5,1223.622089624405,0.0,0.25,0.42846675300000003,4.963769999999998,0.0,105861.0,15.875,-735.0,-1223.622089624405,0.0,0.125,3.4130855880000004,0.01,0.0,-83770.0,0.375,1627.5,1223.622089624405,0.0,0.25,1.668701001,0.01,0.0,-1.0499999523162842,-3.549999952316284,-41.83000183105469,0.0238037109375,-0.0313720703125,0.7901611328125,34.93000030517578,0.0,65.0,0.238983154296875,0.4230194091796875,Waiting,0.0,0.0,0.0,0.0,0.0,0.0,0.0,0.0,
4.632917000000016,0.0,0.0,101353.0,0.125,-1522.5,-1207.0866644382477,0.0,0.25,0.8581542090000001,4.932250999999998,0.0,-81572.0,0.0,1612.5,1207.0866644382477,0.0,0.25,0.42846675300000003,4.963769999999998,0.004882811999999959,105751.0,20.375,-712.5,-1207.0866644382477,0.0,0.125,3.410644182,0.01,0.0,-83513.0,0.375,1612.5,1207.0866644382477,0.0,0.25,1.665038892,0.01,0.0,-1.0,-3.380000114440918,-41.810001373291016,0.17938232421875,-0.14874267578125,0.951416015625,34.93000030517578,0.0,263.0,0.2291107177734375,0.4259490966796875,Waiting,0.0,0.0,0.0,0.0,0.0,0.0,0.0,0.0,
4.674048999999999,0.0,0.0,101118.0,0.125,-1470.0,-1174.0156888961792,0.0,0.25,0.839843664,4.932250999999998,0.0,-81572.0,0.0,1582.5,1174.0156888961792,0.0,0.25,0.42846675300000003,4.963769999999998,0.0,105751.0,23.25,-742.5,-1174.0156888961792,0.0,0.125,3.404540667,0.01,0.0,-83513.0,0.375,1582.5,1174.0156888961792,0.0,0.25,1.6540525650000002,0.01,-0.008544920999999928,-1.0399999618530273,-3.359999895095825,-41.7599983215332,-0.251953125,-0.11993408203125,1.03424072265625,34.93000030517578,0.0,-75.0,0.2229461669921875,0.4277496337890625,Waiting,0.0,0.0,0.0,0.0,0.0,0.0,0.0,0.0,
4.714625,0.0,0.0,101118.0,0.0,-1485.0,-1025.1968622207642,0.0,0.25,0.833740149,4.932250999999998,0.0,-81572.0,0.0,1545.0,1025.1968622207642,0.0,0.25,0.42846675300000003,4.963769999999998,0.0,105751.0,23.125,-795.0,-1025.1968622207642,0.0,0.125,3.410644182,0.01,0.0,-83513.0,0.375,1560.0,1025.1968622207642,0.0,0.25,1.6601560800000001,0.01,0.0,-1.1799999475479126,-3.3299999237060547,-41.619998931884766,0.14208984375,0.03997802734375,0.33502197265625,34.90999984741211,0.0,89.0,0.2141876220703125,0.429962158203125,Waiting,0.0,0.0,0.0,0.0,0.0,0.0,0.0,0.0,
4.7603600000000155,0.0,0.0,101118.0,0.0,-1567.5,-909.4488233327866,0.0,0.25,0.834960852,4.932250999999998,0.0,-81336.0,0.0,1507.5,909.4488233327866,0.0,0.25,0.42846675300000003,4.963769999999998,0.0,105630.0,21.875,-727.5,-909.4488233327866,0.0,0.125,3.410644182,0.01,0.0,-83271.0,0.375,1522.5,909.4488233327866,0.0,0.25,1.6589353770000002,0.01,0.0,-0.9399999976158142,-3.0299999713897705,-41.380001068115234,0.21044921875,-0.0137939453125,1.4542236328125,34.90999984741211,0.0,208.0,0.2056884765625,0.434112548828125,Waiting,0.0,0.0,0.0,0.0,0.0,0.0,0.0,0.0,
4.8054890000000015,0.0,0.0,100867.0,0.0,-1545.0,-810.2362096309662,0.0,0.25,0.825195228,4.932250999999998,0.0,-81336.0,0.0,1447.5,810.2362096309662,0.0,0.25,0.438232377,4.963769999999998,0.0,105630.0,22.25,-622.5,-810.2362096309662,0.0,0.125,3.4118648850000004,0.01,0.0,-83271.0,0.25,1455.0,810.2362096309662,0.0,0.25,1.6589353770000002,0.01,0.0,-0.800000011920929,-2.6600000858306885,-41.060001373291016,0.02410888671875,0.06298828125,0.7147216796875,34.90999984741211,0.0,-4.0,0.20074462890625,0.4407958984375,Waiting,0.0,0.0,0.0,0.0,0.0,0.0,0.0,0.0,
