Time,ClimberA1,ClimberA2,FRpos,FRCurrent,FRspeed,FRsetpoint,FRApos,FRACurrent,FREncpos,FREncSetpoint,FREncSpeed,FLpos,FLCurrent,FLspeed,FLsetpoint,FLApos,FLACurrent,FLEncpos,FLEncSetpoint,FLEncSpeed,BRpos,BRCurrent,BRspeed,BRsetpoint,BRApos,BRACurrent,BREncpos,BREncSetpoint,BREncSpeed,BLpos,BLCurrent,BLspeed,BLsetpoint,BLApos,BLACurrent,BLEncpos,BLEncSetpoint,BLEncSpeed,navx_Pitch,navx_Roll,navx_Yaw,navx_XAcc,navx_YAcc,navx_ZAcc,navx_Temp,navx_Bar,navx_Alt,navx_XDis,navx_YDis,GearPlacerState,ShootOutputV,ShootOutputCurrent,ShootEncPos,ShootEncVelocity,ShootSpeed,ShootSetpoint,CarouselSetpoint,CarouselCurrent,
0.13186200000002282,0.0,0.0,1771.0,0.0,0.0,0.0,0.0,0.0,0.8288573370000001,0.01,0.0,-811.0,0.0,0.0,-0.0,0.0,0.0,0.351562464,0.01,0.0,5607.0,0.0,0.0,0.0,0.0,0.125,3.38134731,0.01,0.0,629.0,0.0,0.0,-0.0,0.0,0.125,1.590576009,0.01,0.0,0.25,87.30000305175781,95.52999877929688,0.99896240234375,0.00592041015625,-0.050048828125,28.450000762939453,0.0,3.0,1.3522491455078125,-0.1066436767578125,Waiting,0.0,0.0,22.0,0.0,0.0,0.0,0.0,0.0,
0.21469699999998557,0.0,0.0,1771.0,0.0,0.0,0.0,0.0,0.0,0.8288573370000001,0.01,0.0,-811.0,0.0,0.0,-0.0,0.0,0.25,0.38940425700000003,0.01,0.0,5607.0,0.0,0.0,0.0,0.0,0.125,3.382568013,0.01,0.0,629.0,0.0,0.0,-0.0,0.0,0.125,1.59912093,0.01,0.0,0.25999999046325684,87.29000091552734,95.55000305175781,0.99951171875,-7.32421875E-4,-0.05023193359375,28.450000762939453,0.0,0.0,1.3522491455078125,-0.1066436767578125,Waiting,0.0,0.0,22.0,0.0,0.0,0.0,0.0,0.0,
0.3053610000000335,0.0,0.0,1771.0,0.0,0.0,0.0,0.0,0.0,0.8288573370000001,0.01,0.0,-811.0,0.0,0.0,-0.0,0.0,0.0,0.48706049700000004,0.01,0.0,5607.0,0.0,0.0,0.0,0.0,0.125,3.38134731,0.01,0.0,629.0,0.0,0.0,-0.0,0.0,0.125,1.590576009,0.01,0.0,0.25999999046325684,87.30000305175781,95.52999877929688,0.995849609375,0.00177001953125,-0.04840087890625,28.450000762939453,0.0,0.0,1.3522491455078125,-0.1066436767578125,Waiting,0.0,0.0,22.0,0.0,0.0,0.0,0.0,0.0,
0.3899949999999953,0.0,0.0,1771.0,0.0,0.0,0.0,0.0,0.0,0.8276366340000001,0.01,0.0,-811.0,0.0,0.0,-0.0,0.0,0.0,0.5541991620000001,0.01,0.0988769430000005,5607.0,0.0,0.0,0.0,0.0,0.125,3.38134731,0.01,0.0,629.0,0.0,0.0,-0.0,0.0,0.125,1.591796712,0.01,0.0,0.25,87.30000305175781,95.52999877929688,0.9979248046875,0.005859375,-0.0479736328125,28.450000762939453,0.0,1.0,1.3522491455078125,-0.1066436767578125,Waiting,0.0,0.0,22.0,0.0,0.0,0.0,0.0,0.0,
0.47367200000002047,0.0,0.0,1771.0,0.0,0.0,0.0,0.0,0.0,0.8288573370000001,0.01,0.0,-811.0,0.0,0.0,-0.0,0.0,0.0,0.560302677,0.01,0.0,5607.0,0.0,0.0,0.0,0.0,0.125,3.38134731,0.01,0.0,629.0,0.0,0.0,-0.0,0.0,0.125,1.588134603,0.01,0.0,0.25,87.29000091552734,95.54000091552734,0.99188232421875,0.00225830078125,-0.04638671875,28.450000762939453,0.0,-1.0,1.3522491455078125,-0.1066436767578125,Waiting,0.0,0.0,22.0,0.0,0.0,0.0,0.0,0.0,
0.5609800000000396,0.0,0.0,1771.0,0.0,0.0,0.0,0.0,0.0,0.8276366340000001,0.01,0.0,-811.0,0.0,0.0,-0.0,0.0,0.0,0.5407714290000001,0.01,0.0,5607.0,0.0,0.0,0.0,0.0,0.125,3.38134731,0.01,0.0,629.0,0.0,0.0,-0.0,0.0,0.125,1.590576009,0.01,0.0,0.25,87.30000305175781,95.52999877929688,1.00048828125,0.0084228515625,-0.0478515625,28.450000762939453,0.0,2.0,1.3522491455078125,-0.1066436767578125,Waiting,0.0,0.0,22.0,0.0,0.0,0.0,0.0,0.0,
0.6438809999999939,0.0,0.0,1771.0,0.0,0.0,0.0,0.0,0.0,0.8276366340000001,0.01,0.0,-811.0,0.0,0.0,-0.0,0.0,0.0,0.52490229,0.01,-0.01831054500000029,5607.0,0.0,0.0,0.0,0.0,0.125,3.38134731,0.01,0.0,629.0,0.0,0.0,-0.0,0.0,0.125,1.590576009,0.01,0.0,0.25,87.29000091552734,95.52999877929688,0.998046875,-7.32421875E-4,-0.05517578125,28.450000762939453,0.0,5.0,1.3522491455078125,-0.1066436767578125,Waiting,0.0,0.0,22.0,0.0,0.0,0.0,0.0,0.0,
0.7358919999999926,0.0,0.0,1771.0,0.0,0.0,0.0,0.0,0.0,0.8276366340000001,0.01,0.0,-811.0,0.0,0.0,-0.0,0.0,0.0,0.52490229,0.01,-0.014648435999999876,5607.0,0.0,0.0,0.0,0.0,0.125,3.38134731,0.01,0.0,629.0,0.0,0.0,-0.0,0.0,0.125,1.591796712,0.01,0.0,0.25,87.29000091552734,95.52999877929688,0.99371337890625,0.00244140625,-0.045654296875,28.450000762939453,0.0,-1.0,1.3522491455078125,-0.1066436767578125,Waiting,0.0,0.0,22.0,0.0,0.0,0.0,0.0,0.0,
0.8167950000000419,0.0,0.0,1771.0,0.0,0.0,0.0,0.0,0.0,0.8288573370000001,0.01,0.0,-811.0,0.0,0.0,-0.0,0.0,0.0,0.526122993,0.01,0.0,5607.0,0.0,0.0,0.0,0.0,0.125,3.38134731,0.01,0.0,629.0,0.0,0.0,-0.0,0.0,0.125,1.590576009,0.01,0.0,0.25,87.29000091552734,95.52999877929688,0.99530029296875,0.0045166015625,-0.052734375,28.479999542236328,0.0,5.0,1.3522491455078125,-0.1066436767578125,Waiting,0.0,0.0,22.0,0.0,0.0,0.0,0.0,0.0,
0.9072750000000233,0.0,0.0,1771.0,0.0,0.0,0.0,0.0,0.0,0.8288573370000001,0.01,0.0,-811.0,0.0,0.0,-0.0,0.0,0.0,0.52490229,0.01,0.0,5607.0,0.0,0.0,0.0,0.0,0.125,3.38134731,0.01,0.0,629.0,0.0,0.0,-0.0,0.0,0.125,1.590576009,0.01,0.0,0.25,87.27999877929688,95.55999755859375,0.998291015625,0.0052490234375,-0.04656982421875,28.479999542236328,0.0,0.0,1.3522491455078125,-0.1066436767578125,Waiting,0.0,0.0,22.0,0.0,0.0,0.0,0.0,0.0,
0.9915560000000405,0.0,0.0,1771.0,0.0,0.0,0.0,0.0,0.0,0.8288573370000001,0.01,0.0,-811.0,0.0,0.0,-0.0,0.0,0.0,0.52490229,0.01,0.0,5607.0,0.0,0.0,0.0,0.0,0.125,3.382568013,0.01,0.0,629.0,0.0,0.0,-0.0,0.0,0.125,1.590576009,0.01,0.0,0.25,87.29000091552734,95.52999877929688,0.99603271484375,0.005859375,-0.05426025390625,28.479999542236328,0.0,7.0,1.3522491455078125,-0.1066436767578125,Waiting,0.0,0.0,22.0,0.0,0.0,0.0,0.0,0.0,
1.070469000000041,0.0,0.0,1771.0,0.0,0.0,0.0,0.0,0.0,0.8276366340000001,0.01,0.0,-811.0,0.0,0.0,-0.0,0.0,0.0,0.52490229,0.01,0.0,5607.0,0.0,0.0,0.0,0.0,0.125,3.38134731,0.01,0.0,629.0,0.0,0.0,-0.0,0.0,0.125,1.590576009,0.01,0.0,0.25,87.30000305175781,95.52999877929688,0.998779296875,0.00555419921875,-0.0426025390625,28.479999542236328,0.0,-3.0,1.3522491455078125,-0.1066436767578125,Waiting,0.0,0.0,22.0,0.0,0.0,0.0,0.0,0.0,
1.1551140000000013,0.0,0.0,1771.0,0.0,0.0,0.0,0.0,0.0,0.8288573370000001,0.01,0.0,-811.0,0.0,0.0,-0.0,0.0,0.0,0.526122993,0.01,0.0,5607.0,0.0,0.0,0.0,0.0,0.125,3.382568013,0.01,0.0,629.0,0.0,0.0,-0.0,0.0,0.125,1.591796712,0.01,0.0,0.25,87.30000305175781,95.52999877929688,0.994873046875,0.0062255859375,-0.04656982421875,28.479999542236328,0.0,0.0,1.3522491455078125,-0.1066436767578125,Waiting,0.0,0.0,22.0,0.0,0.0,0.0,0.0,0.0,
1.2472910000000266,0.0,0.0,1771.0,0.0,0.0,0.0,0.0,0.0,0.8276366340000001,0.01,0.0,-811.0,0.0,0.0,-0.0,0.0,0.0,0.526122993,0.01,0.0,5607.0,0.0,0.0,0.0,0.0,0.0,3.382568013,0.01,0.0,629.0,0.0,0.0,-0.0,0.0,0.125,1.590576009,0.01,0.0,0.25999999046325684,87.29000091552734,95.55000305175781,1.00030517578125,0.005859375,-0.04638671875,28.479999542236328,0.0,0.0,1.3522491455078125,-0.1066436767578125,Waiting,0.0,0.0,22.0,0.0,0.0,0.0,0.0,0.0,
1.3331130000000122,0.0,0.0,1771.0,0.0,0.0,0.0,0.0,0.0,0.8288573370000001,0.01,0.0,-811.0,0.0,0.0,-0.0,0.0,0.0,0.526122993,0.01,0.0,5607.0,0.0,0.0,0.0,0.0,0.125,3.38134731,0.01,-0.0012207029999999897,629.0,0.0,0.0,-0.0,0.0,0.125,1.591796712,0.01,0.0,0.25,87.29000091552734,95.52999877929688,0.99755859375,0.00738525390625,-0.04754638671875,28.479999542236328,0.0,1.0,1.3522491455078125,-0.1066436767578125,Waiting,0.0,0.0,22.0,0.0,0.0,0.0,0.0,0.0,
1.4238099999999976,0.0,0.0,1771.0,0.0,0.0,0.0,0.0,0.0,0.8276366340000001,0.01,0.0,-811.0,0.0,0.0,-0.0,0.0,0.0,0.526122993,0.01,0.0,5607.0,0.0,0.0,0.0,0.0,0.0,3.38134731,0.01,0.0,629.0,0.0,0.0,-0.0,0.0,0.125,1.591796712,0.01,0.0,0.25,87.30000305175781,95.52999877929688,0.99920654296875,0.0052490234375,-0.0450439453125,28.479999542236328,0.0,-1.0,1.3522491455078125,-0.1066436767578125,Waiting,0.0,0.0,22.0,0.0,0.0,0.0,0.0,0.0,
1.5102110000000102,0.0,0.0,1771.0,0.0,0.0,0.0,0.0,0.0,0.8276366340000001,0.01,0.0,-811.0,0.0,0.0,-0.0,0.0,0.0,0.52490229,0.01,0.0,5607.0,0.0,0.0,0.0,0.0,0.0,3.38134731,0.01,0.0,629.0,0.0,0.0,-0.0,0.0,0.125,1.590576009,0.01,0.0,0.25,87.30000305175781,95.52999877929688,1.00006103515625,0.00531005859375,-0.047607421875,28.479999542236328,0.0,0.0,1.3522491455078125,-0.1066436767578125,Waiting,0.0,0.0,22.0,0.0,0.0,0.0,0.0,0.0,
1.5939070000000066,0.0,0.0,1771.0,0.0,0.0,0.0,0.0,0.0,0.8288573370000001,0.01,0.0,-811.0,0.0,0.0,-0.0,0.0,0.0,0.52490229,0.01,0.0,5607.0,0.0,0.0,0.0,0.0,0.125,3.38134731,0.01,0.0012207029999999897,629.0,0.0,0.0,-0.0,0.0,0.125,1.591796712,0.01,0.0,0.23999999463558197,87.30000305175781,95.51000213623047,0.99737548828125,0.00628662109375,-0.04095458984375,28.479999542236328,0.0,-4.0,1.3522491455078125,-0.1066436767578125,Waiting,0.0,0.0,22.0,0.0,0.0,0.0,0.0,0.0,
1.6785119999999878,0.0,0.0,1771.0,0.0,0.0,0.0,0.0,0.0,0.8276366340000001,0.01,0.0,-811.0,0.0,0.0,-0.0,0.0,0.0,0.526122993,0.01,0.0,5607.0,0.0,0.0,0.0,0.0,0.125,3.382568013,0.01,0.0,629.0,0.0,0.0,-0.0,0.0,0.125,1.590576009,0.01,0.0,0.23999999463558197,87.30999755859375,95.5,0.9993896484375,0.0029296875,-0.045166015625,28.479999542236328,0.0,-2.0,1.3522491455078125,-0.1066436767578125,Waiting,0.0,0.0,22.0,0.0,0.0,0.0,0.0,0.0,
1.7649770000000136,0.0,0.0,1771.0,0.0,0.0,0.0,0.0,0.0,0.8276366340000001,0.01,0.0,-811.0,0.0,0.0,-0.0,0.0,0.0,0.526122993,0.01,0.0,5607.0,0.0,0.0,0.0,0.0,0.125,3.382568013,0.01,0.0,629.0,0.0,0.0,-0.0,0.0,0.125,1.590576009,0.01,0.0,0.23999999463558197,87.30999755859375,95.5,1.00018310546875,0.00537109375,-0.04608154296875,28.479999542236328,0.0,0.0,1.3522491455078125,-0.1066436767578125,Waiting,0.0,0.0,22.0,0.0,0.0,0.0,0.0,0.0,
1.8530109999999986,0.0,0.0,1771.0,0.0,0.0,0.0,0.0,0.0,0.8276366340000001,0.01,0.0,-811.0,0.0,0.0,-0.0,0.0,0.0,0.526122993,0.01,0.0,5607.0,0.0,0.0,0.0,0.0,0.125,3.38134731,0.01,0.0,629.0,0.0,0.0,-0.0,0.0,0.125,1.590576009,0.01,0.0,0.23999999463558197,87.30999755859375,95.48999786376953,0.99505615234375,0.00531005859375,-0.04754638671875,28.479999542236328,0.0,1.0,1.3522491455078125,-0.1066436767578125,Waiting,0.0,0.0,22.0,0.0,0.0,0.0,0.0,0.0,
1.9415560000000405,0.0,0.0,1771.0,0.0,0.0,0.0,0.0,0.0,0.8288573370000001,0.01,0.0,-811.0,0.0,0.0,-0.0,0.0,0.0,0.526122993,0.01,0.0,5607.0,0.0,0.0,0.0,0.0,0.125,3.38134731,0.01,0.0,629.0,0.0,0.0,-0.0,0.0,0.125,1.590576009,0.01,0.0,0.25,87.30999755859375,95.5,0.99591064453125,0.003173828125,-0.046142578125,28.479999542236328,0.0,0.0,1.3522491455078125,-0.1066436767578125,Waiting,0.0,0.0,22.0,0.0,0.0,0.0,0.0,0.0,
2.0247600000000094,0.0,0.0,1771.0,0.0,0.0,0.0,0.0,0.0,0.8276366340000001,0.01,0.0,-811.0,0.0,0.0,-0.0,0.0,0.0,0.52490229,0.01,0.0,5607.0,0.0,0.0,0.0,0.0,0.125,3.382568013,0.01,0.0,629.0,0.0,0.0,-0.0,0.0,0.125,1.591796712,0.01,0.0,0.25,87.30999755859375,95.5,0.9970703125,0.00421142578125,-0.04632568359375,28.479999542236328,0.0,0.0,1.3522491455078125,-0.1066436767578125,Waiting,0.0,0.0,22.0,0.0,0.0,0.0,0.0,0.0,
2.108587999999989,0.0,0.0,1771.0,0.0,0.0,0.0,0.0,0.0,0.8288573370000001,0.01,0.0,-811.0,0.0,0.0,-0.0,0.0,0.0,0.526122993,0.01,0.0,5607.0,0.0,0.0,0.0,0.0,0.125,3.38134731,0.01,0.0,629.0,0.0,0.0,-0.0,0.0,0.125,1.590576009,0.01,0.0,0.25,87.30999755859375,95.5,0.99658203125,0.0078125,-0.047119140625,28.479999542236328,0.0,2.0,1.3522491455078125,-0.1066436767578125,Waiting,0.0,0.0,22.0,0.0,0.0,0.0,0.0,0.0,
2.1923190000000177,0.0,0.0,1771.0,0.0,0.0,0.0,0.0,0.0,0.8276366340000001,0.01,0.0,-811.0,0.0,0.0,-0.0,0.0,0.0,0.52490229,0.01,0.0,5607.0,0.0,0.0,0.0,0.0,0.125,3.38134731,0.01,0.0012207029999999897,629.0,0.0,0.0,-0.0,0.0,0.125,1.590576009,0.01,0.0,0.25,87.30999755859375,95.5,0.99493408203125,0.01025390625,-0.0430908203125,28.479999542236328,0.0,0.0,1.3522491455078125,-0.1066436767578125,Waiting,0.0,0.0,22.0,0.0,0.0,0.0,0.0,0.0,
2.284966000000015,0.0,0.0,1771.0,0.0,0.0,0.0,0.0,0.0,0.8288573370000001,0.01,0.0,-811.0,0.0,0.0,-0.0,0.0,0.0,0.526122993,0.01,0.0,5607.0,0.0,0.0,0.0,0.0,0.0,3.38134731,0.01,0.0,629.0,0.0,0.0,-0.0,0.0,0.125,1.590576009,0.01,0.0,0.25,87.30000305175781,95.52999877929688,0.9935302734375,0.01043701171875,-0.053955078125,28.479999542236328,0.0,9.0,1.3522491455078125,-0.1066436767578125,Waiting,0.0,0.0,22.0,0.0,0.0,0.0,0.0,0.0,
2.369364999999991,0.0,0.0,1771.0,0.0,0.0,0.0,0.0,0.0,0.8288573370000001,0.01,0.0,-811.0,0.0,0.0,-0.0,0.0,0.0,0.49194330900000005,0.01,0.0,5607.0,0.0,0.0,0.0,0.0,0.125,3.38134731,0.01,0.0,629.0,0.0,0.0,-0.0,0.0,0.125,1.590576009,0.01,0.0,0.25,87.29000091552734,95.54000091552734,0.99566650390625,0.00421142578125,-0.0496826171875,28.450000762939453,0.0,2.0,1.3523712158203125,-0.1066436767578125,Waiting,0.0,0.0,22.0,0.0,0.0,0.0,0.0,0.0,
2.4539830000000076,0.0,0.0,1771.0,0.0,0.0,0.0,0.0,0.0,0.8288573370000001,0.01,0.0,-811.0,0.0,0.0,-0.0,0.0,0.0,0.33691402800000003,0.01,-0.03906249599999967,5607.0,0.0,0.0,0.0,0.0,0.125,3.38134731,0.01,0.0,629.0,0.0,0.0,-0.0,0.0,0.125,1.591796712,0.01,0.0,0.27000001072883606,87.33999633789062,95.44999694824219,1.00311279296875,0.01019287109375,-0.0433349609375,28.450000762939453,0.0,0.0,1.3523712158203125,-0.1065826416015625,Waiting,0.0,0.0,22.0,0.0,0.0,0.0,0.0,0.0,
2.543042000000016,0.0,0.0,1771.0,0.0,0.0,0.0,0.0,0.0,0.8288573370000001,0.01,0.0,-811.0,0.0,0.0,-0.0,0.0,0.75,0.162353499,0.01,-0.1611327960000004,5607.0,0.0,0.0,0.0,0.0,0.125,3.38134731,0.01,0.0,629.0,0.0,0.0,-0.0,0.0,0.125,1.590576009,0.01,0.0,0.23999999463558197,87.33000183105469,95.44999694824219,0.99005126953125,-2.44140625E-4,-0.04736328125,28.450000762939453,0.0,0.0,1.352325439453125,-0.106536865234375,Waiting,0.0,0.0,22.0,0.0,0.0,0.0,0.0,0.0,
2.6277140000000365,0.0,0.0,1771.0,0.0,0.0,0.0,0.0,0.0,0.8276366340000001,0.01,0.0,-811.0,0.0,0.0,-0.0,0.0,1.0,0.33691402800000003,0.01,0.0,5607.0,0.0,0.0,0.0,0.0,0.125,3.38134731,0.01,0.0,629.0,0.0,0.0,-0.0,0.0,0.125,1.590576009,0.01,0.0,0.25,87.3499984741211,95.41000366210938,1.0040283203125,0.01025390625,-0.07061767578125,28.450000762939453,0.0,24.0,1.352447509765625,-0.1067047119140625,Waiting,0.0,0.0,22.0,0.0,0.0,0.0,0.0,0.0,
2.7136630000000004,0.0,0.0,1771.0,0.0,0.0,0.0,0.0,0.0,0.8276366340000001,0.01,0.0,-811.0,0.0,0.0,-0.0,0.0,0.25,0.6860350860000001,0.01,0.0,5607.0,0.0,0.0,0.0,0.0,0.125,3.38134731,0.01,0.0,629.0,0.0,0.0,-0.0,0.0,0.125,1.590576009,0.01,0.0,0.23000000417232513,87.37000274658203,95.37000274658203,0.99493408203125,-0.01312255859375,-0.0294189453125,28.450000762939453,0.0,-22.0,1.3524017333984375,-0.106719970703125,Waiting,0.0,0.0,22.0,0.0,0.0,0.0,0.0,0.0,
2.798510000000009,0.0,0.0,1771.0,0.0,0.0,0.0,0.0,0.0,0.8288573370000001,0.01,0.0,-811.0,0.0,0.0,-0.0,0.0,0.5,0.7788085140000001,0.01,0.3430175430000002,5607.0,0.0,0.0,0.0,0.0,0.125,3.38134731,0.01,0.0,629.0,0.0,0.0,-0.0,0.0,0.125,1.591796712,0.01,0.0,0.20999999344348907,87.30999755859375,95.47000122070312,1.003662109375,0.02020263671875,-0.02325439453125,28.450000762939453,0.0,-13.0,1.352386474609375,-0.106536865234375,Waiting,0.0,0.0,22.0,0.0,0.0,0.0,0.0,0.0,
2.8844519999999902,0.0,0.0,1771.0,0.0,0.0,0.0,0.0,0.0,0.8288573370000001,0.01,0.0,-811.0,0.0,0.0,-0.0,0.0,0.25,0.6469725900000001,0.01,0.0,5607.0,0.0,0.0,0.0,0.0,0.125,3.38134731,0.01,0.0,629.0,0.0,0.0,-0.0,0.0,0.125,1.590576009,0.01,0.0,0.23000000417232513,87.36000061035156,95.38999938964844,1.012939453125,0.01513671875,-0.07940673828125,28.510000228881836,0.0,34.0,1.35205078125,-0.1064453125,Waiting,0.0,0.0,22.0,0.0,0.0,0.0,0.0,0.0,
2.9698790000000153,0.0,0.0,1771.0,0.0,0.0,0.0,0.0,0.0,0.8288573370000001,0.01,0.0,-811.0,0.0,0.0,-0.0,0.0,0.0,0.437011674,0.01,0.0,5607.0,0.0,0.0,0.0,0.0,0.125,3.38134731,0.01,0.0,629.0,0.0,0.0,-0.0,0.0,0.125,1.590576009,0.01,0.0,0.2199999988079071,87.33999633789062,95.41999816894531,0.99969482421875,-0.01043701171875,-0.05303955078125,28.510000228881836,0.0,0.0,1.3517608642578125,-0.1064453125,Waiting,0.0,0.0,22.0,0.0,0.0,0.0,0.0,0.0,
3.0558450000000303,0.0,0.0,1771.0,0.0,0.0,0.0,0.0,0.0,0.8288573370000001,0.01,0.0,-811.0,0.0,0.0,-0.0,0.0,0.0,0.3662109,0.01,-0.20263669800000006,5607.0,0.0,0.0,0.0,0.0,0.125,3.38134731,0.01,0.0,629.0,0.0,0.0,-0.0,0.0,0.125,1.591796712,0.01,0.0,0.25,87.30000305175781,95.51000213623047,0.991455078125,0.0123291015625,-0.0478515625,28.510000228881836,0.0,4.0,1.3517608642578125,-0.1064453125,Waiting,0.0,0.0,22.0,0.0,0.0,0.0,0.0,0.0,
3.1402480000000215,0.0,0.0,1771.0,0.0,0.0,0.0,0.0,0.0,0.8288573370000001,0.01,0.0,-811.0,0.0,0.0,-0.0,0.0,0.0,0.418701129,0.01,-0.0646972589999999,5607.0,0.0,0.0,0.0,0.0,0.125,3.382568013,0.01,0.0,629.0,0.0,0.0,-0.0,0.0,0.125,1.590576009,0.01,0.0,0.23000000417232513,87.30999755859375,95.48999786376953,0.9984130859375,-0.00201416015625,-0.04486083984375,28.510000228881836,0.0,-4.0,1.3518524169921875,-0.1064453125,Waiting,0.0,0.0,22.0,0.0,0.0,0.0,0.0,0.0,
3.2262420000000276,0.0,0.0,1771.0,0.0,0.0,0.0,0.0,0.0,0.8276366340000001,0.01,0.0,-811.0,0.0,0.0,-0.0,0.0,0.25,0.49194330900000005,0.01,0.0,5607.0,0.0,0.0,0.0,0.0,0.125,3.38134731,0.01,0.0,629.0,0.0,0.0,-0.0,0.0,0.125,1.590576009,0.01,0.0,0.23999999463558197,87.33000183105469,95.44999694824219,0.99639892578125,0.01251220703125,-0.035888671875,28.510000228881836,0.0,-5.0,1.3518524169921875,-0.1064453125,Waiting,0.0,0.0,22.0,0.0,0.0,0.0,0.0,0.0,
3.312744000000006,0.0,0.0,1771.0,0.0,0.0,0.0,0.0,0.0,0.8288573370000001,0.01,0.0,-811.0,0.0,0.0,-0.0,0.0,0.0,0.52490229,0.01,0.0,5607.0,0.0,0.0,0.0,0.0,0.125,3.38134731,0.01,0.0,629.0,0.0,0.0,-0.0,0.0,0.125,1.590576009,0.01,0.0,0.25,87.30000305175781,95.5199966430664,0.99676513671875,0.00140380859375,-0.05682373046875,28.510000228881836,0.0,7.0,1.3518524169921875,-0.1064453125,Waiting,0.0,0.0,22.0,0.0,0.0,0.0,0.0,0.0,
3.398048999999999,0.0,0.0,1771.0,0.0,0.0,0.0,0.0,0.0,0.8276366340000001,0.01,0.0,-811.0,0.0,0.0,-0.0,0.0,0.0,0.526122993,0.01,0.029296871999999752,5607.0,0.0,0.0,0.0,0.0,0.125,3.382568013,0.01,0.0012207029999999897,629.0,0.0,0.0,-0.0,0.0,0.125,1.590576009,0.01,0.0,0.23999999463558197,87.30000305175781,95.5,0.99822998046875,0.0040283203125,-0.042236328125,28.479999542236328,0.0,-4.0,1.3518524169921875,-0.1064453125,Waiting,0.0,0.0,22.0,0.0,0.0,0.0,0.0,0.0,
3.4865190000000292,0.0,0.0,1771.0,0.0,0.0,0.0,0.0,0.0,0.8288573370000001,0.01,0.0,-811.0,0.0,0.0,-0.0,0.0,0.0,0.526122993,0.01,0.0,5607.0,0.0,0.0,0.0,0.0,0.125,3.38134731,0.01,0.0,629.0,0.0,0.0,-0.0,0.0,0.125,1.590576009,0.01,0.0,0.23999999463558197,87.31999969482422,95.47000122070312,0.9974365234375,0.0028076171875,-0.0447998046875,28.479999542236328,0.0,-2.0,1.3518524169921875,-0.1064453125,Waiting,0.0,0.0,22.0,0.0,0.0,0.0,0.0,0.0,
3.567933000000019,0.0,0.0,1771.0,0.0,0.0,0.0,0.0,0.0,0.8276366340000001,0.01,0.0,-811.0,0.0,0.0,-0.0,0.0,0.0,0.526122993,0.01,0.0,5607.0,0.0,0.0,0.0,0.0,0.125,3.38134731,0.01,0.0,629.0,0.0,0.0,-0.0,0.0,0.125,1.591796712,0.01,0.0,0.23999999463558197,87.29000091552734,95.52999877929688,0.9954833984375,0.006103515625,-0.05499267578125,28.479999542236328,0.0,8.0,1.3518524169921875,-0.1064453125,Waiting,0.0,0.0,22.0,0.0,0.0,0.0,0.0,0.0,
3.652195000000007,0.0,0.0,1771.0,0.0,0.0,0.0,0.0,0.0,0.8276366340000001,0.01,0.0,-811.0,0.0,0.0,-0.0,0.0,0.0,0.527343696,0.01,0.0,5607.0,0.0,0.0,0.0,0.0,0.0,3.38134731,0.01,0.0,629.0,0.0,0.0,-0.0,0.0,0.125,1.591796712,0.01,0.0,0.25,87.30000305175781,95.5199966430664,1.00201416015625,0.00396728515625,-0.044921875,28.479999542236328,0.0,-2.0,1.3518524169921875,-0.1064453125,Waiting,0.0,0.0,22.0,0.0,0.0,0.0,0.0,0.0,
3.7407580000000307,0.0,0.0,1771.0,0.0,0.0,0.0,0.0,0.0,0.8276366340000001,0.01,0.0,-811.0,0.0,0.0,-0.0,0.0,0.0,0.526122993,0.01,0.0,5607.0,0.0,0.0,0.0,0.0,0.125,3.38134731,0.01,0.0,629.0,0.0,0.0,-0.0,0.0,0.125,1.590576009,0.01,0.0,0.23000000417232513,87.30999755859375,95.48999786376953,0.9949951171875,0.00360107421875,-0.04608154296875,28.479999542236328,0.0,0.0,1.3518524169921875,-0.1064453125,Waiting,0.0,0.0,22.0,0.0,0.0,0.0,0.0,0.0,
3.8259800000000395,0.0,0.0,1771.0,0.0,0.0,0.0,0.0,0.0,0.8288573370000001,0.01,0.0,-811.0,0.0,0.0,-0.0,0.0,0.0,0.526122993,0.01,0.0,5607.0,0.0,0.0,0.0,0.0,0.125,3.382568013,0.01,0.0,629.0,0.0,0.0,-0.0,0.0,0.125,1.590576009,0.01,0.0,0.23999999463558197,87.31999969482422,95.47000122070312,1.00048828125,0.0169677734375,-0.041748046875,28.479999542236328,0.0,1.0,1.3518524169921875,-0.1064453125,Waiting,0.0,0.0,22.0,0.0,0.0,0.0,0.0,0.0,
3.912058000000019,0.0,0.0,1771.0,0.0,0.0,0.0,0.0,0.0,0.8288573370000001,0.01,0.0,-811.0,0.0,0.0,-0.0,0.0,0.0,0.665283135,0.01,0.0,5607.0,0.0,0.0,0.0,0.0,0.125,3.38134731,0.01,0.0,629.0,0.0,0.0,-0.0,0.0,0.125,1.590576009,0.01,0.0,0.23999999463558197,87.30000305175781,95.5199966430664,0.97894287109375,0.03857421875,0.011474609375,28.479999542236328,0.0,-35.0,1.3519744873046875,-0.106170654296875,Waiting,0.0,0.0,22.0,0.0,0.0,0.0,0.0,0.0,
4.005820000000007,0.0,0.0,1771.0,0.0,0.0,0.0,0.0,0.0,0.8288573370000001,0.01,0.0,-811.0,0.0,0.0,-0.0,0.0,0.25,0.7250975820000001,0.01,0.1391601419999997,5607.0,0.0,0.0,0.0,0.0,0.125,3.38134731,0.01,0.0,629.0,0.0,0.0,-0.0,0.0,0.125,1.590576009,0.01,0.0,0.20000000298023224,87.30000305175781,95.4800033569336,1.007080078125,-0.0081787109375,-0.06884765625,28.479999542236328,0.0,13.0,1.3529205322265625,-0.106292724609375,Waiting,0.0,0.0,22.0,0.0,0.0,0.0,0.0,0.0,
4.089883000000031,0.0,0.0,1771.0,0.0,0.0,0.0,0.0,0.0,0.8288573370000001,0.01,0.0,-811.0,0.0,0.0,-0.0,0.0,0.25,0.6457518870000001,0.01,0.056152337999999524,5607.0,0.0,0.0,0.0,0.0,0.125,3.382568013,0.01,0.0,629.0,0.0,0.0,-0.0,0.0,0.125,1.590576009,0.01,0.0,0.23000000417232513,87.33999633789062,95.43000030517578,1.0010986328125,0.002685546875,-0.0731201171875,28.479999542236328,0.0,23.0,1.3538055419921875,-0.10626220703125,Waiting,0.0,0.0,22.0,0.0,0.0,0.0,0.0,0.0,
4.171362000000022,0.0,0.0,1771.0,0.0,0.0,0.0,0.0,0.0,0.8276366340000001,0.01,0.0,-811.0,0.0,0.0,-0.0,0.0,0.0,0.482177685,0.01,0.0,5607.0,0.0,0.0,0.0,0.0,0.125,3.38134731,0.01,0.0,629.0,0.0,0.0,-0.0,0.0,0.125,1.590576009,0.01,0.0,0.2199999988079071,87.31999969482422,95.4800033569336,0.989990234375,0.0098876953125,-0.059814453125,28.479999542236328,0.0,14.0,1.3544464111328125,-0.10626220703125,Waiting,0.0,0.0,22.0,0.0,0.0,0.0,0.0,0.0,
4.258438000000024,0.0,0.0,1771.0,0.0,0.0,0.0,0.0,0.0,0.8288573370000001,0.01,0.0,-811.0,0.0,0.0,-0.0,0.0,0.0,0.429687456,0.01,0.0,5607.0,0.0,0.0,0.0,0.0,0.125,3.38134731,0.01,0.0,629.0,0.0,0.0,-0.0,0.0,0.125,1.590576009,0.01,0.0,0.23999999463558197,87.31999969482422,95.4800033569336,0.99786376953125,0.01470947265625,-0.04071044921875,28.479999542236328,0.0,0.0,1.3544464111328125,-0.10626220703125,Waiting,0.0,0.0,22.0,0.0,0.0,0.0,0.0,0.0,
4.347581000000005,0.0,0.0,1771.0,0.0,0.0,0.0,0.0,0.0,0.8288573370000001,0.01,0.0,-811.0,0.0,0.0,-0.0,0.0,0.0,0.42846675300000003,0.01,-0.04760741700000004,5607.0,0.0,0.0,0.0,0.0,0.0,3.38134731,0.01,0.0,629.0,0.0,0.0,-0.0,0.0,0.125,1.590576009,0.01,0.0,0.23000000417232513,87.31999969482422,95.47000122070312,1.00146484375,0.00555419921875,-0.043701171875,28.479999542236328,0.0,-1.0,1.3544464111328125,-0.10626220703125,Waiting,0.0,0.0,22.0,0.0,0.0,0.0,0.0,0.0,
4.432118000000017,0.0,0.0,1771.0,0.0,0.0,0.0,0.0,0.0,0.8288573370000001,0.01,0.0,-811.0,0.0,0.0,-0.0,0.0,0.0,0.438232377,0.01,0.0,5607.0,0.0,0.0,0.0,0.0,0.125,3.38134731,0.01,0.0,629.0,0.0,0.0,-0.0,0.0,0.125,1.590576009,0.01,0.0,0.25,87.30999755859375,95.5,0.99542236328125,0.005615234375,-0.0518798828125,28.520000457763672,0.0,5.0,1.3544464111328125,-0.10626220703125,Waiting,0.0,0.0,22.0,0.0,0.0,0.0,0.0,0.0,
4.514885000000009,0.0,0.0,1771.0,0.0,0.0,0.0,0.0,0.0,0.8288573370000001,0.01,0.0,-811.0,0.0,0.0,-0.0,0.0,0.0,0.48095698200000003,0.01,0.0,5607.0,0.0,0.0,0.0,0.0,0.0,3.38134731,0.01,0.0,629.0,0.0,0.0,-0.0,0.0,0.125,1.590576009,0.01,0.0,0.23999999463558197,87.30999755859375,95.48999786376953,0.99810791015625,0.0045166015625,-0.04571533203125,28.520000457763672,0.0,0.0,1.3544464111328125,-0.10626220703125,Waiting,0.0,0.0,22.0,0.0,0.0,0.0,0.0,0.0,
4.606775000000023,0.0,0.0,1771.0,0.0,0.0,0.0,0.0,0.0,0.8288573370000001,0.01,0.0,-811.0,0.0,0.0,-0.0,0.0,0.0,0.506591745,0.01,0.0402831990000001,5607.0,0.0,0.0,0.0,0.0,0.125,3.38134731,0.01,0.0,629.0,0.0,0.0,-0.0,0.0,0.125,1.590576009,0.01,0.0,0.23999999463558197,87.31999969482422,95.45999908447266,0.99444580078125,0.00152587890625,-0.05059814453125,28.520000457763672,0.0,2.0,1.3544464111328125,-0.10626220703125,Waiting,0.0,0.0,22.0,0.0,0.0,0.0,0.0,0.0,
4.691869999999995,0.0,0.0,1771.0,0.0,0.0,0.0,0.0,0.0,0.8276366340000001,0.01,0.0,-811.0,0.0,0.0,-0.0,0.0,0.0,0.505371042,0.01,0.021972653999999814,5607.0,0.0,0.0,0.0,0.0,0.125,3.38134731,0.01,0.0,629.0,0.0,0.0,-0.0,0.0,0.125,1.591796712,0.01,0.0,0.23999999463558197,87.30999755859375,95.48999786376953,0.995849609375,-0.00115966796875,-0.05694580078125,28.520000457763672,0.0,6.0,1.3544464111328125,-0.10626220703125,Waiting,0.0,0.0,22.0,0.0,0.0,0.0,0.0,0.0,
4.773477000000013,0.0,0.0,1771.0,0.0,0.0,0.0,0.0,0.0,0.8288573370000001,0.01,0.0,-811.0,0.0,0.0,-0.0,0.0,0.0,0.505371042,0.01,0.0,5607.0,0.0,0.0,0.0,0.0,0.125,3.38134731,0.01,0.0,629.0,0.0,0.0,-0.0,0.0,0.125,1.590576009,0.01,0.0,0.23999999463558197,87.31999969482422,95.4800033569336,0.998291015625,0.00396728515625,-0.04815673828125,28.520000457763672,0.0,1.0,1.3544464111328125,-0.10626220703125,Waiting,0.0,0.0,22.0,0.0,0.0,0.0,0.0,0.0,
4.85808600000001,0.0,0.0,1771.0,0.0,0.0,0.0,0.0,0.0,0.8276366340000001,0.01,0.0,-811.0,0.0,0.0,-0.0,0.0,0.0,0.506591745,0.01,0.0,5607.0,0.0,0.0,0.0,0.0,0.125,3.38134731,0.01,0.0,629.0,0.0,0.0,-0.0,0.0,0.125,1.590576009,0.01,0.0,0.23999999463558197,87.31999969482422,95.47000122070312,0.99615478515625,0.0042724609375,-0.04193115234375,28.520000457763672,0.0,-3.0,1.3544464111328125,-0.10626220703125,Waiting,0.0,0.0,22.0,0.0,0.0,0.0,0.0,0.0,
4.948957999999984,0.0,0.0,1771.0,0.0,0.0,0.0,0.0,0.0,0.8288573370000001,0.01,0.0,-811.0,0.0,0.0,-0.0,0.0,0.0,0.506591745,0.01,0.0,5607.0,0.0,0.0,0.0,0.0,0.0,3.38134731,0.01,0.0,629.0,0.0,0.0,-0.0,0.0,0.125,1.590576009,0.01,0.0,0.23999999463558197,87.31999969482422,95.4800033569336,0.9920654296875,0.0068359375,-0.05206298828125,28.510000228881836,0.0,6.0,1.3544464111328125,-0.10626220703125,Waiting,0.0,0.0,22.0,0.0,0.0,0.0,0.0,0.0,
5.0285460000000315,0.0,0.0,1771.0,0.0,0.0,0.0,0.0,0.0,0.8288573370000001,0.01,0.0,-811.0,0.0,0.0,-0.0,0.0,0.0,0.506591745,0.01,0.0,5607.0,0.0,0.0,0.0,0.0,0.125,3.38134731,0.01,0.0,629.0,0.0,0.0,-0.0,0.0,0.125,1.590576009,0.01,0.0,0.23999999463558197,87.30999755859375,95.48999786376953,0.9962158203125,0.003662109375,-0.0439453125,28.510000228881836,0.0,-2.0,1.3544464111328125,-0.10626220703125,Waiting,0.0,0.0,22.0,0.0,0.0,0.0,0.0,0.0,
5.112271000000008,0.0,0.0,1771.0,0.0,0.0,0.0,0.0,0.0,0.8276366340000001,0.01,0.0,-811.0,0.0,0.0,-0.0,0.0,0.0,0.506591745,0.01,0.0,5607.0,0.0,0.0,0.0,0.0,0.0,3.38134731,0.01,0.0,629.0,0.0,0.0,-0.0,0.0,0.125,1.591796712,0.01,0.0,0.23999999463558197,87.30999755859375,95.5,0.999267578125,0.00372314453125,-0.04156494140625,28.510000228881836,0.0,-4.0,1.3544464111328125,-0.10626220703125,Waiting,0.0,0.0,22.0,0.0,0.0,0.0,0.0,0.0,
5.1963680000000165,0.0,0.0,1771.0,0.0,0.0,0.0,0.0,0.0,0.8288573370000001,0.01,0.0,-811.0,0.0,0.0,-0.0,0.0,0.0,0.506591745,0.01,0.0,5607.0,0.0,0.0,0.0,0.0,0.125,3.382568013,0.01,0.0,629.0,0.0,0.0,-0.0,0.0,0.125,1.590576009,0.01,0.0,0.23000000417232513,87.25,95.61000061035156,0.98095703125,0.00115966796875,-0.031982421875,28.510000228881836,0.0,-14.0,1.35467529296875,-0.10626220703125,Waiting,0.0,0.0,22.0,0.0,0.0,0.0,0.0,0.0,
5.292092000000004,0.0,0.0,1771.0,0.0,0.0,0.0,0.0,0.0,0.8276366340000001,0.01,0.0,-812.0,0.0,0.0,-0.0,0.0,0.0,0.506591745,0.01,0.0,5607.0,0.0,0.0,0.0,0.0,0.125,3.38134731,0.01,0.0,629.0,0.0,0.0,-0.0,0.0,0.125,1.591796712,0.01,0.0,0.23999999463558197,87.2699966430664,95.58000183105469,1.00067138671875,0.03741455078125,-0.04010009765625,28.510000228881836,0.0,8.0,1.3552093505859375,-0.106170654296875,Waiting,0.0,0.0,22.0,0.0,0.0,0.0,0.0,0.0,
5.380600000000035,0.0,0.0,1771.0,0.0,0.0,0.0,0.0,0.0,0.8288573370000001,0.01,0.0,-812.0,0.0,0.0,-0.0,0.0,0.0,0.506591745,0.01,0.0,5607.0,0.0,0.0,0.0,0.0,0.125,3.38134731,0.01,0.0,629.0,0.0,0.0,-0.0,0.0,0.125,1.591796712,0.01,0.0,0.23999999463558197,87.26000213623047,95.58999633789062,0.99346923828125,0.0035400390625,-0.04180908203125,28.510000228881836,0.0,-5.0,1.355194091796875,-0.1061248779296875,Waiting,0.0,0.0,22.0,0.0,0.0,0.0,0.0,0.0,
5.467891000000003,0.0,0.0,1771.0,0.0,0.0,0.0,0.0,0.0,0.8288573370000001,0.01,0.0,-812.0,0.0,0.0,-0.0,0.0,0.0,0.505371042,0.01,0.0,5607.0,0.0,0.0,0.0,0.0,0.125,3.38134731,0.01,0.0,629.0,0.0,0.0,-0.0,0.0,0.125,1.591796712,0.01,0.0,0.23999999463558197,87.26000213623047,95.58999633789062,0.99298095703125,0.01019287109375,-0.045166015625,28.510000228881836,0.0,0.0,1.355194091796875,-0.1061248779296875,Waiting,0.0,0.0,22.0,0.0,0.0,0.0,0.0,0.0,
5.552282999999996,0.0,0.0,1771.0,0.0,0.0,0.0,0.0,0.0,0.8276366340000001,0.01,0.0,-812.0,0.0,0.0,-0.0,0.0,0.0,0.506591745,0.01,0.0,5607.0,0.0,0.0,0.0,0.0,0.125,3.38134731,0.01,0.0,629.0,0.0,0.0,-0.0,0.0,0.125,1.590576009,0.01,0.0,0.23999999463558197,87.29000091552734,95.54000091552734,0.96771240234375,-0.0126953125,-0.06695556640625,28.510000228881836,0.0,11.0,1.3542938232421875,-0.10601806640625,Waiting,0.0,0.0,22.0,0.0,0.0,0.0,0.0,0.0,
5.631493000000017,0.0,0.0,1771.0,0.0,0.0,0.0,0.0,0.0,0.8276366340000001,0.01,0.0,-812.0,0.0,0.0,-0.0,0.0,0.0,0.506591745,0.01,0.0,5607.0,0.0,0.0,0.0,0.0,0.125,3.38134731,0.01,0.0,629.0,0.0,0.0,-0.0,0.0,0.125,1.590576009,0.01,0.0,0.23000000417232513,87.30000305175781,95.51000213623047,0.9945068359375,0.0029296875,-0.06744384765625,28.510000228881836,0.0,17.0,1.3534393310546875,-0.1062469482421875,Waiting,0.0,0.0,22.0,0.0,0.0,0.0,0.0,0.0,
5.71534500000003,0.0,0.0,1771.0,0.0,0.0,0.0,0.0,0.0,0.8288573370000001,0.01,0.0,-812.0,0.0,0.0,-0.0,0.0,0.0,0.506591745,0.01,0.0,5607.0,0.0,0.0,0.0,0.0,0.125,3.38134731,0.01,0.0,629.0,0.0,0.0,-0.0,0.0,0.125,1.591796712,0.01,0.0,0.23999999463558197,87.27999877929688,95.55000305175781,0.99560546875,0.002197265625,-0.0474853515625,28.510000228881836,0.0,0.0,1.353302001953125,-0.1062469482421875,Waiting,0.0,0.0,22.0,0.0,0.0,0.0,0.0,0.0,
5.803531000000017,0.0,0.0,1771.0,0.0,0.0,0.0,0.0,0.0,0.8276366340000001,0.01,0.0,-812.0,0.0,0.0,-0.0,0.0,0.0,0.506591745,0.01,0.0,5607.0,0.0,0.0,0.0,0.0,0.125,3.38134731,0.01,0.0,629.0,0.0,0.0,-0.0,0.0,0.125,1.590576009,0.01,0.0,0.23000000417232513,87.29000091552734,95.52999877929688,0.994384765625,0.00555419921875,-0.04241943359375,28.510000228881836,0.0,-3.0,1.353302001953125,-0.1062469482421875,Waiting,0.0,0.0,22.0,0.0,0.0,0.0,0.0,0.0,
5.887908999999985,0.0,0.0,1771.0,0.0,0.0,0.0,0.0,0.0,0.8288573370000001,0.01,0.0,-812.0,0.0,0.0,-0.0,0.0,0.0,0.506591745,0.01,0.0,5607.0,0.0,0.0,0.0,0.0,0.125,3.38134731,0.01,0.0,629.0,0.0,0.0,-0.0,0.0,0.125,1.590576009,0.01,0.0,0.23999999463558197,87.27999877929688,95.55000305175781,0.99603271484375,0.00152587890625,-0.04046630859375,28.5,0.0,-7.0,1.353302001953125,-0.1062469482421875,Waiting,0.0,0.0,22.0,0.0,0.0,0.0,0.0,0.0,
5.972777999999991,0.0,0.0,1771.0,0.0,0.0,0.0,0.0,0.0,0.8288573370000001,0.01,0.0,-812.0,0.0,0.0,-0.0,0.0,0.0,0.505371042,0.01,0.0,5607.0,0.0,0.0,0.0,0.0,0.125,3.38134731,0.01,0.0,629.0,0.0,0.0,-0.0,0.0,0.125,1.590576009,0.01,0.0,0.23999999463558197,87.27999877929688,95.55999755859375,0.99853515625,0.00262451171875,-0.0531005859375,28.5,0.0,4.0,1.353302001953125,-0.1062469482421875,Waiting,0.0,0.0,22.0,0.0,0.0,0.0,0.0,0.0,
6.068070000000007,0.0,0.0,1771.0,0.0,0.0,0.0,0.0,0.0,0.8276366340000001,0.01,0.0,-812.0,0.0,0.0,-0.0,0.0,0.0,0.506591745,0.01,0.0,5607.0,0.0,0.0,0.0,0.0,0.125,3.38134731,0.01,0.0,629.0,0.0,0.0,-0.0,0.0,0.125,1.590576009,0.01,0.0,0.23999999463558197,87.2699966430664,95.55999755859375,0.99322509765625,0.00347900390625,-0.05169677734375,28.5,0.0,3.0,1.353302001953125,-0.1062469482421875,Waiting,0.0,0.0,22.0,0.0,0.0,0.0,0.0,0.0,
6.156239000000001,0.0,0.0,1771.0,0.0,0.0,0.0,0.0,0.0,0.8288573370000001,0.01,0.0,-812.0,0.0,0.0,-0.0,0.0,0.0,0.505371042,0.01,0.0,5607.0,0.0,0.0,0.0,0.0,0.125,3.38134731,0.01,0.0,629.0,0.0,0.0,-0.0,0.0,0.125,1.591796712,0.01,0.0,0.23999999463558197,87.2699966430664,95.58000183105469,0.99871826171875,0.0018310546875,-0.052001953125,28.5,0.0,3.0,1.353302001953125,-0.1062469482421875,Waiting,0.0,0.0,22.0,0.0,0.0,0.0,0.0,0.0,
6.249461999999999,0.0,0.0,1771.0,0.0,0.0,0.0,0.0,0.0,0.8288573370000001,0.01,0.0,-812.0,0.0,0.0,-0.0,0.0,0.0,0.506591745,0.01,0.0,5607.0,0.0,0.0,0.0,0.0,0.125,3.38134731,0.01,0.0,629.0,0.0,0.0,-0.0,0.0,0.125,1.590576009,0.01,0.0,0.23999999463558197,87.2699966430664,95.55999755859375,0.99468994140625,0.00506591796875,-0.04754638671875,28.5,0.0,0.0,1.353302001953125,-0.1062469482421875,Waiting,0.0,0.0,22.0,0.0,0.0,0.0,0.0,0.0,
6.335513000000035,0.0,0.0,1771.0,0.0,0.0,0.0,0.0,0.0,0.8288573370000001,0.01,0.0,-812.0,0.0,0.0,-0.0,0.0,0.0,0.505371042,0.01,0.0,5607.0,0.0,0.0,0.0,0.0,0.125,3.3801266070000002,0.01,0.0,629.0,0.0,0.0,-0.0,0.0,0.125,1.591796712,0.01,0.0,0.23999999463558197,87.2699966430664,95.58999633789062,0.998291015625,0.003662109375,-0.04461669921875,28.5,0.0,-2.0,1.353302001953125,-0.1062469482421875,Waiting,0.0,0.0,22.0,0.0,0.0,0.0,0.0,0.0,
6.433960000000021,0.0,0.0,1771.0,0.0,0.0,0.0,0.0,0.0,0.8288573370000001,0.01,0.0,-812.0,0.0,0.0,-0.0,0.0,0.0,0.505371042,0.01,0.0,5607.0,0.0,0.0,0.0,0.0,0.125,3.38134731,0.01,0.0,629.0,0.0,0.0,-0.0,0.0,0.125,1.591796712,0.01,0.0,0.23999999463558197,87.2699966430664,95.55999755859375,0.99798583984375,0.00506591796875,-0.04681396484375,28.489999771118164,0.0,0.0,1.353302001953125,-0.1062469482421875,Waiting,0.0,0.0,22.0,0.0,0.0,0.0,0.0,0.0,
6.529092000000004,0.0,0.0,1771.0,0.0,0.0,0.0,0.0,0.0,0.8276366340000001,0.01,0.0,-812.0,0.0,0.0,-0.0,0.0,0.0,0.506591745,0.01,0.0,5607.0,0.0,0.0,0.0,0.0,0.125,3.382568013,0.01,0.0,629.0,0.0,0.0,-0.0,0.0,0.125,1.590576009,0.01,0.0,0.23999999463558197,87.2699966430664,95.55999755859375,0.99542236328125,0.0064697265625,-0.05303955078125,28.489999771118164,0.0,6.0,1.353302001953125,-0.1062469482421875,Waiting,0.0,0.0,22.0,0.0,0.0,0.0,0.0,0.0,
6.623831000000005,0.0,0.0,1771.0,0.0,0.0,0.0,0.0,0.0,0.8288573370000001,0.01,0.0,-812.0,0.0,0.0,-0.0,0.0,0.0,0.506591745,0.01,0.0,5607.0,0.0,0.0,0.0,0.0,0.0,3.382568013,0.01,0.0,629.0,0.0,0.0,-0.0,0.0,0.125,1.590576009,0.01,0.0,0.25,87.2699966430664,95.58000183105469,0.9959716796875,0.0048828125,-0.04632568359375,28.489999771118164,0.0,0.0,1.353302001953125,-0.1062469482421875,Waiting,0.0,0.0,22.0,0.0,0.0,0.0,0.0,0.0,
6.712334000000031,0.0,0.0,1771.0,0.0,0.0,0.0,0.0,0.0,0.8288573370000001,0.01,0.0,-812.0,0.0,0.0,-0.0,0.0,0.0,0.506591745,0.01,0.0,5607.0,0.0,0.0,0.0,0.0,0.125,3.38134731,0.01,0.0,629.0,0.0,0.0,-0.0,0.0,0.125,1.590576009,0.01,0.0,0.25,87.2699966430664,95.58000183105469,0.99456787109375,0.00140380859375,-0.04693603515625,28.489999771118164,0.0,-1.0,1.353302001953125,-0.1062469482421875,Waiting,0.0,0.0,22.0,0.0,0.0,0.0,0.0,0.0,
6.806753000000026,0.0,0.0,1771.0,0.0,0.0,0.0,0.0,0.0,0.8288573370000001,0.01,0.0,-812.0,0.0,0.0,-0.0,0.0,0.0,0.505371042,0.01,0.0,5607.0,0.0,0.0,0.0,0.0,0.0,3.38134731,0.01,0.0,629.0,0.0,0.0,-0.0,0.0,0.125,1.590576009,0.01,0.0,0.25,87.2699966430664,95.58000183105469,0.99444580078125,0.00299072265625,-0.052001953125,28.489999771118164,0.0,3.0,1.353302001953125,-0.1062469482421875,Waiting,0.0,0.0,22.0,0.0,0.0,0.0,0.0,0.0,
6.895049999999989,0.0,0.0,1771.0,0.0,0.0,0.0,0.0,0.0,0.8288573370000001,0.01,0.0,-812.0,0.0,0.0,-0.0,0.0,0.0,0.506591745,0.01,0.0,5607.0,0.0,0.0,0.0,0.0,0.125,3.38134731,0.01,0.0,629.0,0.0,0.0,-0.0,0.0,0.125,1.590576009,0.01,0.0,0.25,87.2699966430664,95.58000183105469,0.997314453125,0.001953125,-0.0484619140625,28.489999771118164,0.0,0.0,1.353302001953125,-0.1062469482421875,Waiting,0.0,0.0,22.0,0.0,0.0,0.0,0.0,0.0,
6.983133000000031,0.0,0.0,1771.0,0.0,0.0,0.0,0.0,0.0,0.8276366340000001,0.01,0.0,-812.0,0.0,0.0,-0.0,0.0,0.0,0.506591745,0.01,0.0,5607.0,0.0,0.0,0.0,0.0,0.125,3.38134731,0.01,0.0,629.0,0.0,0.0,-0.0,0.0,0.125,1.590576009,0.01,0.0,0.23999999463558197,87.27999877929688,95.55000305175781,0.99859619140625,0.003662109375,-0.0450439453125,28.520000457763672,0.0,-2.0,1.353302001953125,-0.1062469482421875,Waiting,0.0,0.0,22.0,0.0,0.0,0.0,0.0,0.0,
7.072047000000021,0.0,0.0,1771.0,0.0,0.0,0.0,0.0,0.0,0.8288573370000001,0.01,0.0,-812.0,0.0,0.0,-0.0,0.0,0.0,0.506591745,0.01,0.0,5607.0,0.0,0.0,0.0,0.0,0.125,3.38134731,0.01,0.0,629.0,0.0,0.0,-0.0,0.0,0.125,1.590576009,0.01,0.0,0.25,87.27999877929688,95.55000305175781,0.99713134765625,0.0037841796875,-0.04534912109375,28.520000457763672,0.0,-1.0,1.353302001953125,-0.1062469482421875,Waiting,0.0,0.0,22.0,0.0,0.0,0.0,0.0,0.0,
7.167122000000032,0.0,0.0,1771.0,0.0,0.0,0.0,0.0,0.0,0.8288573370000001,0.01,0.0,-812.0,0.0,0.0,-0.0,0.0,0.0,0.506591745,0.01,0.0,5607.0,0.0,0.0,0.0,0.0,0.0,3.38134731,0.01,0.0,629.0,0.0,0.0,-0.0,0.0,0.125,1.590576009,0.01,0.0,0.23999999463558197,87.27999877929688,95.56999969482422,0.99603271484375,0.0028076171875,-0.04547119140625,28.520000457763672,0.0,-2.0,1.353302001953125,-0.1062469482421875,Waiting,0.0,0.0,22.0,0.0,0.0,0.0,0.0,0.0,
7.25273000000004,0.0,0.0,1771.0,0.0,0.0,0.0,0.0,0.0,0.8276366340000001,0.01,0.0,-812.0,0.0,0.0,-0.0,0.0,0.0,0.505371042,0.01,0.0,5607.0,0.0,0.0,0.0,0.0,0.125,3.38134731,0.01,0.0,629.0,0.0,0.0,-0.0,0.0,0.125,1.590576009,0.01,0.0,0.25,87.27999877929688,95.55000305175781,0.996826171875,0.00238037109375,-0.03948974609375,28.520000457763672,0.0,-7.0,1.353302001953125,-0.1062469482421875,Waiting,0.0,0.0,22.0,0.0,0.0,0.0,0.0,0.0,
7.346190999999991,0.0,0.0,1771.0,0.0,0.0,0.0,0.0,0.0,0.8288573370000001,0.01,0.0,-812.0,0.0,0.0,-0.0,0.0,0.0,0.506591745,0.01,0.0,5607.0,0.0,0.0,0.0,0.0,0.125,3.38134731,0.01,0.0,629.0,0.0,0.0,-0.0,0.0,0.125,1.614990069,0.01,0.0,0.25,87.2699966430664,95.58000183105469,0.9970703125,0.007568359375,-0.05535888671875,28.520000457763672,0.0,8.0,1.353302001953125,-0.1062469482421875,Waiting,0.0,0.0,22.0,0.0,0.0,0.0,0.0,0.0,
7.431873000000022,0.0,0.0,1771.0,0.0,0.0,0.0,0.0,0.0,0.8288573370000001,0.01,0.0,-812.0,0.0,0.0,-0.0,0.0,0.0,0.506591745,0.01,0.0,5607.0,0.0,0.0,0.0,0.0,0.125,3.382568013,0.01,0.0,629.0,0.0,0.0,-0.0,0.0,0.0,1.6589353770000002,0.01,0.0,0.23999999463558197,87.2699966430664,95.58000183105469,0.9998779296875,-0.00262451171875,-0.07379150390625,28.530000686645508,0.0,20.0,1.3534698486328125,-0.105926513671875,Waiting,0.0,0.0,22.0,0.0,0.0,0.0,0.0,0.0,
7.526139000000025,0.0,0.0,1771.0,0.0,0.0,0.0,0.0,0.0,0.8288573370000001,0.01,0.0,-812.0,0.0,0.0,-0.0,0.0,0.0,0.506591745,0.01,0.0,5607.0,0.0,0.0,0.0,0.0,0.125,3.38134731,0.01,0.0,629.0,0.0,0.0,-0.0,0.0,0.125,1.668701001,0.01,0.0,0.23999999463558197,87.29000091552734,95.54000091552734,1.001708984375,-0.0042724609375,-0.044189453125,28.530000686645508,0.0,-6.0,1.353668212890625,-0.1053619384765625,Waiting,0.0,0.0,22.0,0.0,0.0,0.0,0.0,0.0,
7.613348999999987,0.0,0.0,1771.0,0.0,0.0,0.0,0.0,0.0,0.8288573370000001,0.01,0.0,-812.0,0.0,0.0,-0.0,0.0,0.0,0.505371042,0.01,0.0,5607.0,0.0,0.0,0.0,0.0,0.125,3.382568013,0.01,0.0,629.0,0.0,0.0,-0.0,0.0,0.125,1.668701001,0.01,0.0,0.23999999463558197,87.27999877929688,95.55000305175781,0.99798583984375,0.00347900390625,-0.05078125,28.530000686645508,0.0,2.0,1.353607177734375,-0.1053619384765625,Waiting,0.0,0.0,22.0,0.0,0.0,0.0,0.0,0.0,
7.7007550000000045,0.0,0.0,1771.0,0.0,0.0,0.0,0.0,0.0,0.8288573370000001,0.01,0.0,-812.0,0.0,0.0,-0.0,0.0,0.0,0.506591745,0.01,0.0,5607.0,0.0,0.0,0.0,0.0,0.125,3.38134731,0.01,0.0,629.0,0.0,0.0,-0.0,0.0,0.125,1.6345213170000001,0.01,0.0,0.25,87.26000213623047,95.5999984741211,0.99310302734375,0.0078125,-0.039306640625,28.530000686645508,0.0,-5.0,1.353607177734375,-0.1053619384765625,Waiting,0.0,0.0,22.0,0.0,0.0,0.0,0.0,0.0,
7.786532999999996,0.0,0.0,1771.0,0.0,0.0,0.0,0.0,0.0,0.8288573370000001,0.01,0.0,-812.0,0.0,0.0,-0.0,0.0,0.0,0.506591745,0.01,0.0,5607.0,0.0,0.0,0.0,0.0,0.125,3.382568013,0.01,0.0,629.0,0.0,0.0,-0.0,0.0,0.125,1.571044761,0.01,0.0,0.25,87.30000305175781,95.52999877929688,0.9842529296875,0.02532958984375,-0.04473876953125,28.530000686645508,0.0,8.0,1.353607177734375,-0.1053619384765625,Waiting,0.0,0.0,22.0,0.0,0.0,0.0,0.0,0.0,
7.871244999999996,0.0,0.0,1771.0,0.0,0.0,0.0,0.0,0.0,0.8288573370000001,0.01,0.0,-812.0,0.0,0.0,-0.0,0.0,0.0,0.506591745,0.01,0.0,5607.0,0.0,0.0,0.0,0.0,0.125,3.38134731,0.01,0.0,629.0,0.0,0.0,-0.0,0.0,0.125,1.5771482760000002,0.01,0.0,0.25999999046325684,87.29000091552734,95.55999755859375,0.9984130859375,0.00799560546875,-0.056884765625,28.530000686645508,0.0,10.0,1.353607177734375,-0.1052703857421875,Waiting,0.0,0.0,22.0,0.0,0.0,0.0,0.0,0.0,
7.965277999999991,0.0,0.0,1771.0,0.0,0.0,0.0,0.0,0.0,0.8288573370000001,0.01,0.0,-812.0,0.0,0.0,-0.0,0.0,0.0,0.506591745,0.01,0.0,5607.0,0.0,0.0,0.0,0.0,0.125,3.38134731,0.01,0.0,629.0,0.0,0.0,-0.0,0.0,0.125,1.5771482760000002,0.01,0.004882811999999959,0.25999999046325684,87.29000091552734,95.55999755859375,0.99810791015625,0.0047607421875,-0.0447998046875,28.530000686645508,0.0,-1.0,1.353607177734375,-0.1052703857421875,Waiting,0.0,0.0,22.0,0.0,0.0,0.0,0.0,0.0,
8.04975099999999,0.0,0.0,1771.0,0.0,0.0,0.0,0.0,0.0,0.8276366340000001,0.01,0.0,-812.0,0.0,0.0,-0.0,0.0,0.0,0.506591745,0.01,0.0,5607.0,0.0,0.0,0.0,0.0,0.0,3.38134731,0.01,0.0,629.0,0.0,0.0,-0.0,0.0,0.125,1.5771482760000002,0.01,0.0,0.25,87.29000091552734,95.55000305175781,1.0,0.010498046875,-0.04266357421875,28.530000686645508,0.0,-1.0,1.353607177734375,-0.1052703857421875,Waiting,0.0,0.0,22.0,0.0,0.0,0.0,0.0,0.0,
8.130771000000008,0.0,0.0,1771.0,0.0,0.0,0.0,0.0,0.0,0.8288573370000001,0.01,0.0,-812.0,0.0,0.0,-0.0,0.0,0.0,0.506591745,0.01,0.0,5607.0,0.0,0.0,0.0,0.0,0.125,3.38134731,0.01,0.0,629.0,0.0,0.0,-0.0,0.0,0.125,1.5771482760000002,0.01,0.0,0.25999999046325684,87.27999877929688,95.56999969482422,0.9931640625,0.0042724609375,-0.052001953125,28.530000686645508,0.0,4.0,1.353607177734375,-0.1052703857421875,Waiting,0.0,0.0,22.0,0.0,0.0,0.0,0.0,0.0,
8.215004000000015,0.0,0.0,1771.0,0.0,0.0,0.0,0.0,0.0,0.8276366340000001,0.01,0.0,-812.0,0.0,0.0,-0.0,0.0,0.0,0.506591745,0.01,0.0,5607.0,0.0,0.0,0.0,0.0,0.125,3.38134731,0.01,0.0,629.0,0.0,0.0,-0.0,0.0,0.125,1.5759275730000002,0.01,0.0,0.25999999046325684,87.29000091552734,95.55999755859375,0.99761962890625,0.00457763671875,-0.0479736328125,28.530000686645508,0.0,0.0,1.353607177734375,-0.1052703857421875,Waiting,0.0,0.0,22.0,0.0,0.0,0.0,0.0,0.0,
8.30475,0.0,0.0,1771.0,0.0,0.0,0.0,0.0,0.0,0.8276366340000001,0.01,0.0,-812.0,0.0,0.0,-0.0,0.0,0.0,0.506591745,0.01,0.0,5607.0,0.0,0.0,0.0,0.0,0.125,3.38134731,0.01,0.0,629.0,0.0,0.0,-0.0,0.0,0.125,1.5771482760000002,0.01,0.0,0.25,87.29000091552734,95.55000305175781,0.997314453125,0.00408935546875,-0.04290771484375,28.530000686645508,0.0,-3.0,1.353607177734375,-0.1052703857421875,Waiting,0.0,0.0,22.0,0.0,0.0,0.0,0.0,0.0,
8.385753000000026,0.0,0.0,1771.0,0.0,0.0,0.0,0.0,0.0,0.8288573370000001,0.01,0.0,-812.0,0.0,0.0,-0.0,0.0,0.0,0.506591745,0.01,0.0,5607.0,0.0,0.0,0.0,0.0,0.125,3.38134731,0.01,0.0,629.0,0.0,0.0,-0.0,0.0,0.125,1.5759275730000002,0.01,0.0,0.25,87.27999877929688,95.56999969482422,0.997314453125,0.00677490234375,-0.05364990234375,28.530000686645508,0.0,6.0,1.353607177734375,-0.1052703857421875,Waiting,0.0,0.0,22.0,0.0,0.0,0.0,0.0,0.0,
8.472625,0.0,0.0,1771.0,0.0,0.0,0.0,0.0,0.0,0.8276366340000001,0.01,0.0,-812.0,0.0,0.0,-0.0,0.0,0.0,0.506591745,0.01,0.0,5607.0,0.0,0.0,0.0,0.0,0.125,3.382568013,0.01,0.0,629.0,0.0,0.0,-0.0,0.0,0.125,1.5771482760000002,0.01,0.0,0.25999999046325684,87.27999877929688,95.55999755859375,0.9967041015625,0.00360107421875,-0.0465087890625,28.540000915527344,0.0,0.0,1.353607177734375,-0.1052703857421875,Waiting,0.0,0.0,22.0,0.0,0.0,0.0,0.0,0.0,
8.556589000000036,0.0,0.0,1771.0,0.0,0.0,0.0,0.0,0.0,0.8288573370000001,0.01,0.0,-812.0,0.0,0.0,-0.0,0.0,0.0,0.506591745,0.01,0.0,5607.0,0.0,0.0,0.0,0.0,0.125,3.38134731,0.01,0.0,629.0,0.0,0.0,-0.0,0.0,0.125,1.5771482760000002,0.01,0.0,0.25,87.29000091552734,95.55999755859375,0.99755859375,0.0040283203125,-0.04351806640625,28.540000915527344,0.0,-3.0,1.353607177734375,-0.1052703857421875,Waiting,0.0,0.0,22.0,0.0,0.0,0.0,0.0,0.0,
8.636434000000008,0.0,0.0,1771.0,0.0,0.0,0.0,0.0,0.0,0.8276366340000001,0.01,0.0,-812.0,0.0,0.0,-0.0,0.0,0.0,0.505371042,0.01,0.0,5607.0,0.0,0.0,0.0,0.0,0.125,3.38134731,0.01,0.0,629.0,0.0,0.0,-0.0,0.0,0.125,1.5771482760000002,0.01,0.0,0.25,87.29000091552734,95.54000091552734,0.9954833984375,0.006591796875,-0.05047607421875,28.540000915527344,0.0,4.0,1.353607177734375,-0.1052703857421875,Waiting,0.0,0.0,22.0,0.0,0.0,0.0,0.0,0.0,
8.723152999999991,0.0,0.0,1771.0,0.0,0.0,0.0,0.0,0.0,0.8276366340000001,0.01,0.0,-812.0,0.0,0.0,-0.0,0.0,0.0,0.506591745,0.01,0.0,5607.0,0.0,0.0,0.0,0.0,0.125,3.382568013,0.01,0.0,629.0,0.0,0.0,-0.0,0.0,0.125,1.5771482760000002,0.01,0.0,0.25999999046325684,87.27999877929688,95.58000183105469,0.9967041015625,0.00341796875,-0.04736328125,28.540000915527344,0.0,0.0,1.353607177734375,-0.1052703857421875,Waiting,0.0,0.0,22.0,0.0,0.0,0.0,0.0,0.0,
8.80976900000003,0.0,0.0,1771.0,0.0,0.0,0.0,0.0,0.0,0.8288573370000001,0.01,0.0,-812.0,0.0,0.0,-0.0,0.0,0.0,0.506591745,0.01,0.0,5607.0,0.0,0.0,0.0,0.0,0.0,3.38134731,0.01,0.0,629.0,0.0,0.0,-0.0,0.0,0.125,1.5771482760000002,0.01,0.0,0.25,87.29000091552734,95.55000305175781,0.99737548828125,0.00634765625,-0.04815673828125,28.540000915527344,0.0,1.0,1.353607177734375,-0.1052703857421875,Waiting,0.0,0.0,22.0,0.0,0.0,0.0,0.0,0.0,
8.893502000000037,0.0,0.0,1771.0,0.0,0.0,0.0,0.0,0.0,0.8276366340000001,0.01,0.0,-812.0,0.0,0.0,-0.0,0.0,0.0,0.505371042,0.01,0.0,5607.0,0.0,0.0,0.0,0.0,0.125,3.382568013,0.01,0.0,629.0,0.0,0.0,-0.0,0.0,0.125,1.5771482760000002,0.01,0.0,0.25,87.29000091552734,95.55000305175781,1.00030517578125,0.004150390625,-0.04534912109375,28.540000915527344,0.0,-1.0,1.353607177734375,-0.1052703857421875,Waiting,0.0,0.0,22.0,0.0,0.0,0.0,0.0,0.0,
8.980828000000038,0.0,0.0,1771.0,0.0,0.0,0.0,0.0,0.0,0.8288573370000001,0.01,0.0,-812.0,0.0,0.0,-0.0,0.0,0.0,0.506591745,0.01,0.0,5607.0,0.0,0.0,0.0,0.0,0.125,3.3801266070000002,0.01,0.0,629.0,0.0,0.0,-0.0,0.0,0.125,1.5759275730000002,0.01,0.0,0.25999999046325684,87.27999877929688,95.55999755859375,0.9974365234375,0.00567626953125,-0.0479736328125,28.540000915527344,0.0,1.0,1.353607177734375,-0.1052703857421875,Waiting,0.0,0.0,22.0,0.0,0.0,0.0,0.0,0.0,
9.067361000000034,0.0,0.0,1771.0,0.0,0.0,0.0,0.0,0.0,0.8288573370000001,0.01,0.0,-812.0,0.0,0.0,-0.0,0.0,0.0,0.506591745,0.01,0.0,5607.0,0.0,0.0,0.0,0.0,0.125,3.38134731,0.01,0.0,629.0,0.0,0.0,-0.0,0.0,0.125,1.5771482760000002,0.01,0.0,0.25,87.29000091552734,95.55000305175781,0.9990234375,0.0040283203125,-0.04150390625,28.540000915527344,0.0,-5.0,1.353607177734375,-0.1052703857421875,Waiting,0.0,0.0,22.0,0.0,0.0,0.0,0.0,0.0,
9.151537000000012,0.0,0.0,1771.0,0.0,0.0,0.0,0.0,0.0,0.8288573370000001,0.01,0.0,-812.0,0.0,0.0,-0.0,0.0,0.0,0.506591745,0.01,0.0,5607.0,0.0,0.0,0.0,0.0,0.125,3.38134731,0.01,0.0,629.0,0.0,0.0,-0.0,0.0,0.125,1.5759275730000002,0.01,0.0,0.25,87.29000091552734,95.55000305175781,0.994140625,0.004638671875,-0.04742431640625,28.540000915527344,0.0,0.0,1.353607177734375,-0.1052703857421875,Waiting,0.0,0.0,22.0,0.0,0.0,0.0,0.0,0.0,
9.239734999999985,0.0,0.0,1771.0,0.0,0.0,0.0,0.0,0.0,0.8276366340000001,0.01,0.0,-812.0,0.0,0.0,-0.0,0.0,0.0,0.505371042,0.01,0.0,5607.0,0.0,0.0,0.0,0.0,0.125,3.38134731,0.01,0.0,629.0,0.0,0.0,-0.0,0.0,0.125,1.5771482760000002,0.01,0.0,0.25,87.29000091552734,95.54000091552734,0.9970703125,0.00714111328125,-0.044921875,28.540000915527344,0.0,0.0,1.353607177734375,-0.1052703857421875,Waiting,0.0,0.0,22.0,0.0,0.0,0.0,0.0,0.0,
9.328288,0.0,0.0,1771.0,0.0,0.0,0.0,0.0,0.0,0.8288573370000001,0.01,0.0,-812.0,0.0,0.0,-0.0,0.0,0.0,0.505371042,0.01,0.0,5607.0,0.0,0.0,0.0,0.0,0.125,3.38134731,0.01,0.0,629.0,0.0,0.0,-0.0,0.0,0.125,1.5759275730000002,0.01,0.0,0.25,87.29000091552734,95.55000305175781,0.996826171875,0.003662109375,-0.04461669921875,28.540000915527344,0.0,-2.0,1.353607177734375,-0.1052703857421875,Waiting,0.0,0.0,22.0,0.0,0.0,0.0,0.0,0.0,
9.412470000000031,0.0,0.0,1771.0,0.0,0.0,0.0,0.0,0.0,0.8276366340000001,0.01,0.0,-812.0,0.0,0.0,-0.0,0.0,0.0,0.505371042,0.01,0.0,5607.0,0.0,0.0,0.0,0.0,0.125,3.38134731,0.01,0.0,629.0,0.0,0.0,-0.0,0.0,0.125,1.5771482760000002,0.01,0.0,0.25999999046325684,87.30000305175781,95.52999877929688,0.99334716796875,0.0047607421875,-0.0509033203125,28.540000915527344,0.0,3.0,1.353607177734375,-0.1052703857421875,Waiting,0.0,0.0,22.0,0.0,0.0,0.0,0.0,0.0,
9.498821999999986,0.0,0.0,1771.0,0.0,0.0,0.0,0.0,0.0,0.8276366340000001,0.01,0.0,-812.0,0.0,0.0,-0.0,0.0,0.0,0.506591745,0.01,0.0,5607.0,0.0,0.0,0.0,0.0,0.125,3.382568013,0.01,0.0,629.0,0.0,0.0,-0.0,0.0,0.125,1.5759275730000002,0.01,0.0,0.25,87.29000091552734,95.55000305175781,0.99609375,0.0054931640625,-0.05029296875,28.559999465942383,0.0,3.0,1.353607177734375,-0.1052703857421875,Waiting,0.0,0.0,22.0,0.0,0.0,0.0,0.0,0.0,
9.585870999999985,0.0,0.0,1771.0,0.0,0.0,0.0,0.0,0.0,0.8288573370000001,0.01,0.0,-812.0,0.0,0.0,-0.0,0.0,0.0,0.506591745,0.01,0.0,5607.0,0.0,0.0,0.0,0.0,0.125,3.38134731,0.01,0.0,629.0,0.0,0.0,-0.0,0.0,0.125,1.5771482760000002,0.01,0.0,0.25999999046325684,87.30000305175781,95.52999877929688,0.99639892578125,0.00439453125,-0.0484619140625,28.559999465942383,0.0,1.0,1.353607177734375,-0.1052703857421875,Waiting,0.0,0.0,22.0,0.0,0.0,0.0,0.0,0.0,
9.672070999999995,0.0,0.0,1771.0,0.0,0.0,0.0,0.0,0.0,0.8288573370000001,0.01,0.0,-812.0,0.0,0.0,-0.0,0.0,0.0,0.506591745,0.01,0.0,5607.0,0.0,0.0,0.0,0.0,0.125,3.38134731,0.01,0.0,629.0,0.0,0.0,-0.0,0.0,0.125,1.5771482760000002,0.01,0.0,0.25999999046325684,87.29000091552734,95.55999755859375,1.00177001953125,0.00634765625,-0.04638671875,28.559999465942383,0.0,0.0,1.353607177734375,-0.1052703857421875,Waiting,0.0,0.0,22.0,0.0,0.0,0.0,0.0,0.0,
9.76085500000004,0.0,0.0,1771.0,0.0,0.0,0.0,0.0,0.0,0.8288573370000001,0.01,0.0,-812.0,0.0,0.0,-0.0,0.0,0.0,0.505371042,0.01,0.0,5607.0,0.0,0.0,0.0,0.0,0.125,3.38134731,0.01,0.0,629.0,0.0,0.0,-0.0,0.0,0.125,1.5771482760000002,0.01,0.0,0.25999999046325684,87.29000091552734,95.55999755859375,0.99920654296875,0.00238037109375,-0.05279541015625,28.559999465942383,0.0,4.0,1.353607177734375,-0.1052703857421875,Waiting,0.0,0.0,22.0,0.0,0.0,0.0,0.0,0.0,
9.843417000000017,0.0,0.0,1771.0,0.0,0.0,0.0,0.0,0.0,0.8288573370000001,0.01,0.0,-812.0,0.0,0.0,-0.0,0.0,0.0,0.506591745,0.01,0.0,5607.0,0.0,0.0,0.0,0.0,0.125,3.382568013,0.01,0.0,629.0,0.0,0.0,-0.0,0.0,0.125,1.5759275730000002,0.01,0.0,0.25999999046325684,87.29000091552734,95.54000091552734,0.99591064453125,0.00677490234375,-0.0458984375,28.559999465942383,0.0,0.0,1.353607177734375,-0.1052703857421875,Waiting,0.0,0.0,22.0,0.0,0.0,0.0,0.0,0.0,
9.929619999999995,0.0,0.0,1771.0,0.0,0.0,0.0,0.0,0.0,0.8276366340000001,0.01,0.0,-812.0,0.0,0.0,-0.0,0.0,0.0,0.506591745,0.01,0.0,5607.0,0.0,0.0,0.0,0.0,0.125,3.38134731,0.01,0.0,629.0,0.0,0.0,-0.0,0.0,0.125,1.5759275730000002,0.01,0.0,0.25999999046325684,87.29000091552734,95.55000305175781,0.99407958984375,0.0064697265625,-0.04937744140625,28.559999465942383,0.0,3.0,1.353607177734375,-0.1052703857421875,Waiting,0.0,0.0,22.0,0.0,0.0,0.0,0.0,0.0,
10.013054999999992,0.0,0.0,1771.0,0.0,0.0,0.0,0.0,0.0,0.8276366340000001,0.01,0.0,-812.0,0.0,0.0,-0.0,0.0,0.0,0.506591745,0.01,0.0,5607.0,0.0,0.0,0.0,0.0,0.125,3.38134731,0.01,0.0,629.0,0.0,0.0,-0.0,0.0,0.125,1.5771482760000002,0.01,0.0,0.25999999046325684,87.27999877929688,95.56999969482422,0.996826171875,0.00506591796875,-0.046875,28.559999465942383,0.0,0.0,1.353607177734375,-0.1052703857421875,Waiting,0.0,0.0,22.0,0.0,0.0,0.0,0.0,0.0,
10.09142300000001,0.0,0.0,1771.0,0.0,0.0,0.0,0.0,0.0,0.8276366340000001,0.01,0.0,-812.0,0.0,0.0,-0.0,0.0,0.0,0.505371042,0.01,0.0,5607.0,0.0,0.0,0.0,0.0,0.125,3.38134731,0.01,0.0,629.0,0.0,0.0,-0.0,0.0,0.125,1.5771482760000002,0.01,0.0,0.25999999046325684,87.29000091552734,95.54000091552734,0.9962158203125,0.004638671875,-0.05010986328125,28.559999465942383,0.0,2.0,1.353607177734375,-0.1052703857421875,Waiting,0.0,0.0,22.0,0.0,0.0,0.0,0.0,0.0,
10.174594000000042,0.0,0.0,1771.0,0.0,0.0,0.0,0.0,0.0,0.8288573370000001,0.01,0.0,-812.0,0.0,0.0,-0.0,0.0,0.0,0.506591745,0.01,0.0,5607.0,0.0,0.0,0.0,0.0,0.125,3.382568013,0.01,0.0,629.0,0.0,0.0,-0.0,0.0,0.125,1.5771482760000002,0.01,0.0,0.25999999046325684,87.29000091552734,95.54000091552734,0.99835205078125,0.0081787109375,-0.04510498046875,28.559999465942383,0.0,0.0,1.353607177734375,-0.1052703857421875,Waiting,0.0,0.0,22.0,0.0,0.0,0.0,0.0,0.0,
10.264435999999987,0.0,0.0,1771.0,0.0,0.0,0.0,0.0,0.0,0.8288573370000001,0.01,0.0,-812.0,0.0,0.0,-0.0,0.0,0.0,0.506591745,0.01,0.0,5607.0,0.0,0.0,0.0,0.0,0.125,3.38134731,0.01,0.0,629.0,0.0,0.0,-0.0,0.0,0.125,1.5771482760000002,0.01,0.0,0.25999999046325684,87.29000091552734,95.54000091552734,0.99664306640625,0.0057373046875,-0.04693603515625,28.559999465942383,0.0,0.0,1.353607177734375,-0.1052703857421875,Waiting,0.0,0.0,22.0,0.0,0.0,0.0,0.0,0.0,
10.349692000000038,0.0,0.0,1771.0,0.0,0.0,0.0,0.0,0.0,0.8288573370000001,0.01,0.0,-812.0,0.0,0.0,-0.0,0.0,0.0,0.506591745,0.01,0.0,5607.0,0.0,0.0,0.0,0.0,0.125,3.38134731,0.01,0.0,629.0,0.0,0.0,-0.0,0.0,0.125,1.5771482760000002,0.01,0.0,0.25999999046325684,87.29000091552734,95.54000091552734,0.99688720703125,0.0037841796875,-0.0498046875,28.559999465942383,0.0,2.0,1.353607177734375,-0.1052703857421875,Waiting,0.0,0.0,22.0,0.0,0.0,0.0,0.0,0.0,
10.435140000000015,0.0,0.0,1771.0,0.0,0.0,0.0,0.0,0.0,0.8276366340000001,0.01,0.0,-812.0,0.0,0.0,-0.0,0.0,0.0,0.506591745,0.01,0.0,5607.0,0.0,0.0,0.0,0.0,0.125,3.38134731,0.01,0.0,629.0,0.0,0.0,-0.0,0.0,0.125,1.5759275730000002,0.01,0.0,0.25999999046325684,87.29000091552734,95.55000305175781,0.9931640625,0.00604248046875,-0.0467529296875,28.559999465942383,0.0,0.0,1.353607177734375,-0.1052703857421875,Waiting,0.0,0.0,22.0,0.0,0.0,0.0,0.0,0.0,
10.527579000000028,0.0,0.0,1771.0,0.0,0.0,0.0,0.0,0.0,0.8288573370000001,0.01,0.0,-812.0,0.0,0.0,-0.0,0.0,0.0,0.506591745,0.01,0.0,5607.0,0.0,0.0,0.0,0.0,0.125,3.38134731,0.01,0.0,629.0,0.0,0.0,-0.0,0.0,0.125,1.5771482760000002,0.01,0.0,0.25999999046325684,87.29000091552734,95.55999755859375,0.99688720703125,0.0064697265625,-0.0462646484375,28.56999969482422,0.0,0.0,1.353607177734375,-0.1052703857421875,Waiting,0.0,0.0,22.0,0.0,0.0,0.0,0.0,0.0,
10.611869999999996,0.0,0.0,1771.0,0.0,0.0,0.0,0.0,0.0,0.8288573370000001,0.01,0.0,-812.0,0.0,0.0,-0.0,0.0,0.0,0.506591745,0.01,0.0,5607.0,0.0,0.0,0.0,0.0,0.125,3.38134731,0.01,0.0,629.0,0.0,0.0,-0.0,0.0,0.125,1.5759275730000002,0.01,0.0,0.25999999046325684,87.29000091552734,95.54000091552734,0.99468994140625,0.00506591796875,-0.04425048828125,28.56999969482422,0.0,-1.0,1.353607177734375,-0.1052703857421875,Waiting,0.0,0.0,22.0,0.0,0.0,0.0,0.0,0.0,
10.691484999999986,0.0,0.0,1771.0,0.0,0.0,0.0,0.0,0.0,0.8276366340000001,0.01,0.0,-812.0,0.0,0.0,-0.0,0.0,0.0,0.505371042,0.01,0.0,5607.0,0.0,0.0,0.0,0.0,0.125,3.38134731,0.01,0.0,629.0,0.0,0.0,-0.0,0.0,0.125,1.5759275730000002,0.01,0.0,0.25999999046325684,87.30000305175781,95.52999877929688,0.998046875,0.0023193359375,-0.04534912109375,28.56999969482422,0.0,-2.0,1.353607177734375,-0.1052703857421875,Waiting,0.0,0.0,22.0,0.0,0.0,0.0,0.0,0.0,
10.777160000000032,0.0,0.0,1771.0,0.0,0.0,0.0,0.0,0.0,0.8276366340000001,0.01,0.0,-812.0,0.0,0.0,-0.0,0.0,0.0,0.506591745,0.01,0.0,5607.0,0.0,0.0,0.0,0.0,0.125,3.38134731,0.01,0.0,629.0,0.0,0.0,-0.0,0.0,0.125,1.5771482760000002,0.01,0.0,0.25999999046325684,87.29000091552734,95.54000091552734,0.99859619140625,0.0068359375,-0.04791259765625,28.56999969482422,0.0,1.0,1.353607177734375,-0.1052703857421875,Waiting,0.0,0.0,22.0,0.0,0.0,0.0,0.0,0.0,
10.865715000000026,0.0,0.0,1771.0,0.0,0.0,0.0,0.0,0.0,0.8288573370000001,0.01,0.0,-812.0,0.0,0.0,-0.0,0.0,0.0,0.506591745,0.01,0.0,5607.0,0.0,0.0,0.0,0.0,0.125,3.38134731,0.01,0.0,629.0,0.0,0.0,-0.0,0.0,0.125,1.5771482760000002,0.01,0.0,0.25999999046325684,87.29000091552734,95.54000091552734,0.99761962890625,0.00360107421875,-0.04205322265625,28.56999969482422,0.0,-4.0,1.353607177734375,-0.1052703857421875,Waiting,0.0,0.0,22.0,0.0,0.0,0.0,0.0,0.0,
10.948042000000015,0.0,0.0,1771.0,0.0,0.0,0.0,0.0,0.0,0.8288573370000001,0.01,0.0,-812.0,0.0,0.0,-0.0,0.0,0.0,0.505371042,0.01,0.0,5607.0,0.0,0.0,0.0,0.0,0.125,3.38134731,0.01,0.0,629.0,0.0,0.0,-0.0,0.0,0.125,1.5759275730000002,0.01,0.0,0.25999999046325684,87.29000091552734,95.54000091552734,0.9947509765625,0.00469970703125,-0.04534912109375,28.56999969482422,0.0,-1.0,1.353607177734375,-0.1052703857421875,Waiting,0.0,0.0,22.0,0.0,0.0,0.0,0.0,0.0,
11.032464000000036,0.0,0.0,1771.0,0.0,0.0,0.0,0.0,0.0,0.8276366340000001,0.01,0.0,-812.0,0.0,0.0,-0.0,0.0,0.0,0.505371042,0.01,0.0,5607.0,0.0,0.0,0.0,0.0,0.125,3.38134731,0.01,0.0,629.0,0.0,0.0,-0.0,0.0,0.125,1.5771482760000002,0.01,0.0,0.25999999046325684,87.30000305175781,95.52999877929688,0.99481201171875,0.006591796875,-0.0484619140625,28.540000915527344,0.0,2.0,1.353607177734375,-0.1052703857421875,Waiting,0.0,0.0,22.0,0.0,0.0,0.0,0.0,0.0,
11.120693000000028,0.0,0.0,1771.0,0.0,0.0,0.0,0.0,0.0,0.8276366340000001,0.01,0.0,-812.0,0.0,0.0,-0.0,0.0,0.0,0.505371042,0.01,0.0,5607.0,0.0,0.0,0.0,0.0,0.125,3.38134731,0.01,0.0,629.0,0.0,0.0,-0.0,0.0,0.125,1.5771482760000002,0.01,0.0,0.25999999046325684,87.30000305175781,95.52999877929688,0.995849609375,0.0040283203125,-0.0516357421875,28.540000915527344,0.0,4.0,1.353607177734375,-0.1052703857421875,Waiting,0.0,0.0,22.0,0.0,0.0,0.0,0.0,0.0,
11.208530000000028,0.0,0.0,1771.0,0.0,0.0,0.0,0.0,0.0,0.8288573370000001,0.01,0.0,-812.0,0.0,0.0,-0.0,0.0,0.0,0.506591745,0.01,0.0,5607.0,0.0,0.0,0.0,0.0,0.125,3.38134731,0.01,0.0,629.0,0.0,0.0,-0.0,0.0,0.125,1.5759275730000002,0.01,0.0,0.25999999046325684,87.29000091552734,95.54000091552734,0.99810791015625,0.00994873046875,-0.0494384765625,28.540000915527344,0.0,4.0,1.353607177734375,-0.1052703857421875,Waiting,0.0,0.0,22.0,0.0,0.0,0.0,0.0,0.0,
11.290378000000025,0.0,0.0,1771.0,0.0,0.0,0.0,0.0,0.0,0.8276366340000001,0.01,0.0,-812.0,0.0,0.0,-0.0,0.0,0.0,0.506591745,0.01,0.0,5607.0,0.0,0.0,0.0,0.0,0.125,3.38134731,0.01,0.0,629.0,0.0,0.0,-0.0,0.0,0.125,1.5759275730000002,0.01,0.0,0.25999999046325684,87.30000305175781,95.52999877929688,0.9981689453125,0.00531005859375,-0.0478515625,28.540000915527344,0.0,1.0,1.353607177734375,-0.1052703857421875,Waiting,0.0,0.0,22.0,0.0,0.0,0.0,0.0,0.0,
11.374622000000032,0.0,0.0,1771.0,0.0,0.0,0.0,0.0,0.0,0.8288573370000001,0.01,0.0,-812.0,0.0,0.0,-0.0,0.0,0.0,0.505371042,0.01,0.0,5607.0,0.0,0.0,0.0,0.0,0.125,3.382568013,0.01,0.0012207029999999897,629.0,0.0,0.0,-0.0,0.0,0.125,1.5771482760000002,0.01,0.0,0.25999999046325684,87.30999755859375,95.5199966430664,0.9990234375,0.00543212890625,-0.05224609375,28.540000915527344,0.0,5.0,1.353607177734375,-0.1052703857421875,Waiting,0.0,0.0,22.0,0.0,0.0,0.0,0.0,0.0,
11.464918000000004,0.0,0.0,1771.0,0.0,0.0,0.0,0.0,0.0,0.8288573370000001,0.01,0.0,-812.0,0.0,0.0,-0.0,0.0,0.0,0.506591745,0.01,0.0,5607.0,0.0,0.0,0.0,0.0,0.125,3.38134731,0.01,0.0,629.0,0.0,0.0,-0.0,0.0,0.125,1.5771482760000002,0.01,0.0,0.27000001072883606,87.30000305175781,95.55000305175781,0.9932861328125,0.00299072265625,-0.0455322265625,28.540000915527344,0.0,-1.0,1.353607177734375,-0.1052703857421875,Waiting,0.0,0.0,22.0,0.0,0.0,0.0,0.0,0.0,
11.548299999999989,0.0,0.0,1771.0,0.0,0.0,0.0,0.0,0.0,0.8288573370000001,0.01,0.0,-812.0,0.0,0.0,-0.0,0.0,0.0,0.505371042,0.01,0.0,5607.0,0.0,0.0,0.0,0.0,0.125,3.38134731,0.01,0.0,629.0,0.0,0.0,-0.0,0.0,0.125,1.5771482760000002,0.01,0.0,0.27000001072883606,87.30999755859375,95.52999877929688,0.9993896484375,0.00372314453125,-0.04400634765625,28.549999237060547,0.0,-2.0,1.353607177734375,-0.1052703857421875,Waiting,0.0,0.0,22.0,0.0,0.0,0.0,0.0,0.0,
11.631772999999987,0.0,0.0,1771.0,0.0,0.0,0.0,0.0,0.0,0.8276366340000001,0.01,0.0,-812.0,0.0,0.0,-0.0,0.0,0.0,0.505371042,0.01,0.0,5607.0,0.0,0.0,0.0,0.0,0.125,3.38134731,0.01,0.0,629.0,0.0,0.0,-0.0,0.0,0.125,1.5771482760000002,0.01,0.0,0.27000001072883606,87.30999755859375,95.52999877929688,0.99822998046875,0.004638671875,-0.04779052734375,28.549999237060547,0.0,0.0,1.353607177734375,-0.1052703857421875,Waiting,0.0,0.0,22.0,0.0,0.0,0.0,0.0,0.0,
11.72646000000002,0.0,0.0,1771.0,0.0,0.0,0.0,0.0,0.0,0.8288573370000001,0.01,0.0,-812.0,0.0,0.0,-0.0,0.0,0.0,0.506591745,0.01,0.0,5607.0,0.0,0.0,0.0,0.0,0.125,3.38134731,0.01,0.0,629.0,0.0,0.0,-0.0,0.0,0.125,1.5771482760000002,0.01,0.0,0.27000001072883606,87.30000305175781,95.54000091552734,0.99493408203125,0.0067138671875,-0.05328369140625,28.549999237060547,0.0,6.0,1.353607177734375,-0.1052703857421875,Waiting,0.0,0.0,22.0,0.0,0.0,0.0,0.0,0.0,
