Time,ClimberA1,ClimberA2,FRpos,FRCurrent,FRspeed,FRsetpoint,FRApos,FRACurrent,FREncpos,FREncSetpoint,FREncSpeed,FLpos,FLCurrent,FLspeed,FLsetpoint,FLApos,FLACurrent,FLEncpos,FLEncSetpoint,FLEncSpeed,BRpos,BRCurrent,BRspeed,BRsetpoint,BRApos,BRACurrent,BREncpos,BREncSetpoint,BREncSpeed,BLpos,BLCurrent,BLspeed,BLsetpoint,BLApos,BLACurrent,BLEncpos,BLEncSetpoint,BLEncSpeed,navx_Pitch,navx_Roll,navx_Yaw,navx_XAcc,navx_YAcc,navx_ZAcc,navx_Temp,navx_Bar,navx_Alt,navx_XDis,navx_YDis,GearPlacerState,ShootOutputV,ShootOutputCurrent,ShootEncPos,ShootEncVelocity,ShootSpeed,ShootSetpoint,CarouselSetpoint,CarouselCurrent,
0.14559799999999815,0.0,0.0,23160.0,0.0,0.0,0.0,0.0,0.25,0.872802645,0.01,0.0,-31738.0,0.0,0.0,-0.0,0.0,0.25,0.462646437,0.01,0.0,24544.0,0.0,0.0,0.0,0.0,0.0,3.3203121600000003,0.01,0.0,-3021.0,0.0,0.0,-0.0,0.0,0.25,1.593017415,0.01,0.0,-0.20999999344348907,-0.9399999976158142,0.0,-0.01605224609375,-0.00433349609375,1.01812744140625,36.68000030517578,0.0,0.0,-5.4703369140625,1.8466339111328125,Opening,0.0,0.0,0.0,0.0,0.0,0.0,0.0,0.0,
0.21466900000000896,0.0,0.0,23160.0,0.0,0.0,0.0,0.0,0.25,0.872802645,0.01,0.0,-31738.0,0.0,0.0,-0.0,0.0,0.25,0.462646437,0.01,0.0,24544.0,0.0,0.0,0.0,0.0,0.0,3.3203121600000003,0.01,0.0,-3021.0,0.0,0.0,-0.0,0.0,0.25,1.591796712,0.01,0.0,-0.20999999344348907,-0.9399999976158142,0.0,-0.0146484375,-0.00469970703125,1.017822265625,36.68000030517578,0.0,2.0,-5.4703369140625,1.8466339111328125,Opening,0.0,0.0,0.0,0.0,0.0,0.0,0.0,0.0,
0.25523700000000826,0.0,0.0,23160.0,0.0,0.0,0.0,0.0,0.25,0.875244051,0.01,0.0,-31738.0,0.0,0.0,-0.0,0.0,0.25,0.462646437,0.01,-0.0012207030000004337,24544.0,0.0,0.0,0.0,0.0,0.0,3.3203121600000003,0.01,0.0,-3021.0,0.125,0.0,-0.0,0.0,0.375,1.591796712,0.01,0.0,-0.20999999344348907,-0.9399999976158142,0.0,-0.01495361328125,-0.002197265625,1.0218505859375,36.68000030517578,0.0,1.0,-5.4703369140625,1.8466339111328125,Opening,0.0,0.0,0.0,0.0,0.0,0.0,0.0,0.0,
0.2918570000000036,0.0,0.0,23160.0,0.0,0.0,0.0,0.0,0.25,0.872802645,0.01,0.0,-31738.0,0.0,0.0,-0.0,0.0,0.25,0.462646437,0.01,0.0,24544.0,0.0,0.0,0.0,0.0,0.0,3.3203121600000003,0.01,0.0,-3021.0,0.0,0.0,-0.0,0.0,0.25,1.591796712,0.01,0.0,-0.20000000298023224,-0.9399999976158142,0.0,-0.0162353515625,-0.00335693359375,1.0181884765625,36.68000030517578,0.0,2.0,-5.4703369140625,1.8466339111328125,Opening,0.0,0.0,0.0,0.0,0.0,0.0,0.0,0.0,
0.3417719999999972,0.0,0.0,23160.0,0.0,0.0,0.0,0.0,0.25,0.874023348,0.01,0.0,-31738.0,0.0,0.0,-0.0,0.0,0.25,0.462646437,0.01,0.0,24544.0,0.0,0.0,0.0,0.0,0.0,3.3203121600000003,0.01,0.0012207029999995456,-3021.0,0.0,0.0,-0.0,0.0,0.25,1.593017415,0.01,0.0,-0.20000000298023224,-0.9399999976158142,0.0,-0.01788330078125,-0.00238037109375,1.01904296875,36.68000030517578,0.0,-1.0,-5.4703369140625,1.8466339111328125,Opening,0.0,0.0,0.0,0.0,0.0,0.0,0.0,0.0,
0.3877430000000022,0.0,0.0,23160.0,0.0,0.0,0.0,0.0,0.25,0.872802645,0.01,0.0012207029999999897,-31738.0,0.0,0.0,-0.0,0.0,0.25,0.46386714,0.01,0.0012207030000004337,24544.0,0.0,0.0,0.0,0.0,0.0,3.3203121600000003,0.01,0.0,-3021.0,0.0,0.0,-0.0,0.0,0.375,1.593017415,0.01,0.0,-0.20000000298023224,-0.9399999976158142,0.0,-0.017333984375,-0.00732421875,1.01727294921875,36.68000030517578,0.0,0.0,-5.4703369140625,1.8466339111328125,Opening,0.0,0.0,0.0,0.0,0.0,0.0,0.0,0.0,
0.42936999999999537,0.0,0.0,23160.0,0.0,0.0,0.0,0.0,0.25,0.872802645,0.01,-0.0012207029999999897,-31738.0,0.0,0.0,-0.0,0.0,0.25,0.462646437,0.01,0.0,24544.0,0.0,0.0,0.0,0.0,0.0,3.3203121600000003,0.01,-0.0012207029999995456,-3021.0,0.125,0.0,-0.0,0.0,0.25,1.593017415,0.01,0.0,-0.20000000298023224,-0.9399999976158142,0.0,-0.01605224609375,-0.00506591796875,1.01751708984375,36.68000030517578,0.0,0.0,-5.4703369140625,1.8466339111328125,Opening,0.0,0.0,0.0,0.0,0.0,0.0,0.0,0.0,
0.4709640000000072,0.0,0.0,23160.0,0.0,0.0,0.0,0.0,0.25,0.874023348,0.01,-0.0012207029999999897,-31738.0,0.0,0.0,-0.0,0.0,0.25,0.46386714,0.01,0.0,24544.0,0.0,0.0,0.0,0.0,0.0,3.3203121600000003,0.01,-0.0012207029999995456,-3021.0,0.125,0.0,-0.0,0.0,0.25,1.593017415,0.01,0.0,-0.20000000298023224,-0.9399999976158142,0.0,-0.01849365234375,-0.00537109375,1.0164794921875,36.68000030517578,0.0,-1.0,-5.4703369140625,1.8466339111328125,Opening,0.0,0.0,0.0,0.0,0.0,0.0,0.0,0.0,
0.509849000000002,0.0,0.0,23160.0,0.0,0.0,0.0,0.0,0.25,0.872802645,0.01,0.0012207029999999897,-31738.0,0.0,0.0,-0.0,0.0,0.25,0.46386714,0.01,-0.0012207030000004337,24544.0,0.0,0.0,0.0,0.0,0.0,3.3203121600000003,0.01,0.0,-3021.0,0.0,0.0,-0.0,0.0,0.25,1.593017415,0.01,0.0,-0.20000000298023224,-0.9399999976158142,0.0,-0.0152587890625,-0.0045166015625,1.0189208984375,36.68000030517578,0.0,1.0,-5.4703369140625,1.8466339111328125,Opening,0.0,0.0,0.0,0.0,0.0,0.0,0.0,0.0,
0.5657639999999956,0.0,0.0,23160.0,0.0,0.0,0.0,0.0,0.25,0.872802645,0.01,0.0,-31738.0,0.0,0.0,-0.0,0.0,0.25,0.46386714,0.01,0.0,24544.0,0.0,0.0,0.0,0.0,0.0,3.3203121600000003,0.01,0.0,-3021.0,0.125,0.0,-0.0,0.0,0.375,1.593017415,0.01,0.0,-0.20000000298023224,-0.9300000071525574,0.0,-0.0167236328125,-0.00396728515625,1.0194091796875,36.66999816894531,0.0,0.0,-5.4703369140625,1.8466339111328125,Opening,0.0,0.0,0.0,0.0,0.0,0.0,0.0,0.0,
0.6882459999999991,0.0,0.0,23160.0,0.0,0.0,0.0,0.0,0.25,0.8703612390000001,0.01,-0.0012207029999999897,-31738.0,0.0,0.0,-0.0,0.0,0.25,0.462646437,0.01,0.0,24544.0,0.0,0.0,0.0,0.0,0.0,3.3215328630000003,0.01,0.0,-3021.0,0.125,0.0,-0.0,0.0,0.25,1.591796712,0.01,0.0,-0.20000000298023224,-0.9300000071525574,0.0,-0.0172119140625,-0.0054931640625,1.0230712890625,36.66999816894531,0.0,0.0,-5.4703369140625,1.8466339111328125,Opening,0.0,0.0,0.0,0.0,0.0,0.0,0.0,0.0,
0.7802930000000051,0.0,0.0,23160.0,0.0,0.0,0.0,0.0,0.25,0.872802645,0.01,0.0,-31738.0,0.0,0.0,-0.0,0.0,0.25,0.462646437,0.01,-0.0012207030000004337,24544.0,0.0,0.0,0.0,0.0,0.0,3.3215328630000003,0.01,0.0012207029999995456,-3021.0,0.0,0.0,-0.0,0.0,0.375,1.593017415,0.01,0.0,-0.20000000298023224,-0.9300000071525574,0.0,-0.0164794921875,-0.00372314453125,1.01812744140625,36.66999816894531,0.0,0.0,-5.4703369140625,1.8466339111328125,Opening,0.0,0.0,0.0,0.0,0.0,0.0,0.0,0.0,
0.8307010000000009,0.0,0.0,23160.0,0.0,0.0,0.0,0.0,0.25,0.871581942,0.01,0.0,-31738.0,0.0,0.0,-0.0,0.0,0.25,0.462646437,0.01,0.0,24544.0,0.0,0.0,0.0,0.0,0.0,3.3203121600000003,0.01,0.0,-3021.0,0.125,0.0,-0.0,0.0,0.25,1.591796712,0.01,0.0,-0.20000000298023224,-0.9300000071525574,0.0,-0.0155029296875,-0.007080078125,1.018798828125,36.66999816894531,0.0,1.0,-5.4703369140625,1.8466339111328125,Opening,0.0,0.0,0.0,0.0,0.0,0.0,0.0,0.0,
0.874226999999999,0.0,0.0,23160.0,0.0,0.0,0.0,0.0,0.25,0.872802645,0.01,0.0,-31738.0,0.0,0.0,-0.0,0.0,0.25,0.462646437,0.01,0.0,24544.0,0.0,0.0,0.0,0.0,0.0,3.3203121600000003,0.01,-0.0012207029999995456,-3021.0,0.0,0.0,-0.0,0.0,0.25,1.591796712,0.01,0.0,-0.20000000298023224,-0.9300000071525574,0.0,-0.0162353515625,-0.00238037109375,1.0238037109375,36.66999816894531,0.0,0.0,-5.4703369140625,1.8466339111328125,Opening,0.0,0.0,0.0,0.0,0.0,0.0,0.0,0.0,
0.921398000000001,0.0,0.0,23160.0,0.0,0.0,0.0,0.0,0.25,0.871581942,0.01,0.0,-31738.0,0.0,0.0,-0.0,0.0,0.25,0.462646437,0.01,0.0,24544.0,0.0,0.0,0.0,0.0,0.0,3.3203121600000003,0.01,0.0012207029999995456,-3021.0,0.125,0.0,-0.0,0.0,0.25,1.593017415,0.01,0.0,-0.20000000298023224,-0.9300000071525574,0.0,-0.01947021484375,-0.005859375,1.01763916015625,36.66999816894531,0.0,-2.0,-5.4703369140625,1.8466339111328125,Opening,0.0,0.0,0.0,0.0,0.0,0.0,0.0,0.0,
0.9641120000000083,0.0,0.0,23160.0,0.0,0.0,0.0,0.0,0.25,0.875244051,0.01,-0.0012207029999999897,-31738.0,0.0,0.0,-0.0,0.0,0.25,0.462646437,0.01,-0.0012207030000004337,24544.0,0.0,0.0,0.0,0.0,0.0,3.3203121600000003,0.01,0.0,-3021.0,0.125,0.0,-0.0,0.0,0.25,1.593017415,0.01,0.0,-0.20000000298023224,-0.9300000071525574,0.0,-0.0150146484375,-0.003662109375,1.0213623046875,36.66999816894531,0.0,1.0,-5.4703369140625,1.8466339111328125,Opening,0.0,0.0,0.0,0.0,0.0,0.0,0.0,0.0,
1.0648040000000036,0.0,0.0,23160.0,0.0,0.0,0.0,0.0,0.25,0.872802645,0.01,0.0012207029999999897,-31738.0,0.0,0.0,-0.0,0.0,0.25,0.462646437,0.01,0.0,24544.0,0.0,0.0,0.0,0.0,0.0,3.3203121600000003,0.01,0.0,-3021.0,0.125,0.0,-0.0,0.0,0.25,1.591796712,0.01,0.0,-0.20000000298023224,-0.9300000071525574,0.0,-0.0179443359375,-0.0040283203125,1.0220947265625,36.68000030517578,0.0,-1.0,-5.4703369140625,1.8466339111328125,Opening,0.0,0.0,0.0,0.0,0.0,0.0,0.0,0.0,
1.1201940000000032,0.0,0.0,23160.0,0.0,0.0,0.0,0.0,0.25,0.871581942,0.01,0.0,-31738.0,0.0,0.0,-0.0,0.0,0.25,0.462646437,0.01,0.0,24544.0,0.0,0.0,0.0,0.0,0.0,3.3203121600000003,0.01,0.0,-3021.0,0.125,0.0,-0.0,0.0,0.25,1.591796712,0.01,0.0,-0.20000000298023224,-0.9300000071525574,0.0,-0.01593017578125,-0.00555419921875,1.020263671875,36.68000030517578,0.0,0.0,-5.4703369140625,1.8466339111328125,Opening,0.0,0.0,0.0,0.0,0.0,0.0,0.0,0.0,
1.1655299999999988,0.0,0.0,23160.0,0.0,0.0,0.0,0.0,0.25,0.90332022,0.01,0.0,-31738.0,0.0,0.0,-0.0,0.0,0.25,0.462646437,0.01,0.0012207030000004337,24544.0,0.0,0.0,0.0,0.0,0.0,3.3203121600000003,0.01,0.0,-3021.0,0.125,0.0,-0.0,0.0,0.25,1.593017415,0.01,0.0,-0.20000000298023224,-0.9300000071525574,0.0,-0.01861572265625,-0.00543212890625,1.0177001953125,36.68000030517578,0.0,-2.0,-5.4703369140625,1.8466339111328125,Opening,0.0,0.0,0.0,0.0,0.0,0.0,0.0,0.0,
1.2716469999999973,0.0,0.0,23160.0,0.0,0.0,0.0,0.0,0.25,0.872802645,0.01,0.0,-31738.0,0.0,0.0,-0.0,0.0,0.25,0.462646437,0.01,0.0,24544.0,0.0,0.0,0.0,0.0,0.0,3.3203121600000003,0.01,0.0,-3021.0,0.125,0.0,-0.0,0.0,0.25,1.593017415,0.01,0.0,-0.20000000298023224,-0.9300000071525574,0.0,-0.0155029296875,-0.003173828125,1.02142333984375,36.68000030517578,0.0,1.0,-5.4703369140625,1.8466339111328125,Opening,0.0,0.0,0.0,0.0,0.0,0.0,0.0,0.0,
1.3920099999999949,0.0,0.0,23160.0,0.0,0.0,0.0,0.0,0.25,0.872802645,0.01,0.0,-31738.0,0.0,0.0,-0.0,0.0,0.25,0.465087843,0.01,0.0,24544.0,0.0,0.0,0.0,0.0,0.0,3.3203121600000003,0.01,0.0,-3021.0,0.0,0.0,-0.0,0.0,0.25,1.591796712,0.01,0.0,-0.20000000298023224,-0.9300000071525574,0.0,-0.01739501953125,-0.00201416015625,1.02215576171875,36.68000030517578,0.0,0.0,-5.4703369140625,1.8466339111328125,Opening,0.0,0.0,0.0,0.0,0.0,0.0,0.0,0.0,
1.5182550000000046,0.0,0.0,23160.0,0.0,0.0,0.0,0.0,0.25,0.872802645,0.01,0.0,-31738.0,0.0,0.0,-0.0,0.0,0.25,0.462646437,0.01,0.0,24544.0,0.0,0.0,0.0,0.0,0.0,3.3203121600000003,0.01,0.0,-3021.0,0.0,0.0,-0.0,0.0,0.25,1.593017415,0.01,0.0,-0.20000000298023224,-0.9300000071525574,0.0,-0.01434326171875,-0.003173828125,1.0235595703125,36.68000030517578,0.0,2.0,-5.4703369140625,1.8466339111328125,Opening,0.0,0.0,0.0,0.0,0.0,0.0,0.0,0.0,
1.5883870000000024,0.0,0.0,23160.0,0.0,0.0,0.0,0.0,0.25,0.875244051,0.01,0.0,-31738.0,0.0,0.0,-0.0,0.0,0.25,0.46386714,0.01,0.0,24544.0,0.0,0.0,0.0,0.0,0.0,3.3203121600000003,0.01,0.0,-3021.0,0.125,0.0,-0.0,0.0,0.25,1.591796712,0.01,0.0,-0.20000000298023224,-0.9300000071525574,0.0,-0.01751708984375,-0.00457763671875,1.0177001953125,36.65999984741211,0.0,0.0,-5.4703369140625,1.8466339111328125,Opening,0.0,0.0,0.0,0.0,0.0,0.0,0.0,0.0,
1.6889330000000045,0.0,0.0,23160.0,0.0,0.0,0.0,0.0,0.25,0.872802645,0.01,0.0,-31738.0,0.0,0.0,-0.0,0.0,0.25,0.462646437,0.01,0.0,24544.0,0.0,0.0,0.0,0.0,0.0,3.3215328630000003,0.01,0.0012207029999995456,-3021.0,0.125,0.0,-0.0,0.0,0.25,1.593017415,0.01,0.0,-0.20999999344348907,-0.9300000071525574,0.0,-0.01800537109375,-0.00274658203125,1.02252197265625,36.65999984741211,0.0,-1.0,-5.4703369140625,1.8466339111328125,Opening,0.0,0.0,0.0,0.0,0.0,0.0,0.0,0.0,
1.7865590000000084,0.0,0.0,23160.0,0.0,0.0,0.0,0.0,0.25,0.872802645,0.01,0.0012207029999999897,-31738.0,0.0,0.0,-0.0,0.0,0.25,0.462646437,0.01,0.0012207030000004337,24544.0,0.0,0.0,0.0,0.0,0.0,3.3203121600000003,0.01,-0.0012207029999995456,-3021.0,0.125,0.0,-0.0,0.0,0.25,1.593017415,0.01,0.0,-0.20999999344348907,-0.9300000071525574,0.0,-0.01519775390625,-0.003173828125,1.01812744140625,36.65999984741211,0.0,1.0,-5.4703369140625,1.8466339111328125,Opening,0.0,0.0,0.0,0.0,0.0,0.0,0.0,0.0,
1.886377999999997,0.0,0.0,23160.0,0.0,0.0,0.0,0.0,0.25,0.871581942,0.01,0.0,-31738.0,0.0,0.0,-0.0,0.0,0.25,0.462646437,0.01,0.0,24544.0,0.0,0.0,0.0,0.0,0.0,3.3203121600000003,0.01,0.0012207029999995456,-3021.0,0.125,0.0,-0.0,0.0,0.25,1.591796712,0.01,0.0,-0.20999999344348907,-0.9300000071525574,-0.009999999776482582,-0.0146484375,-0.0067138671875,1.023193359375,36.65999984741211,0.0,1.0,-5.4703369140625,1.8466339111328125,Opening,0.0,0.0,0.0,0.0,0.0,0.0,0.0,0.0,
1.9733669999999983,0.0,0.0,23160.0,1.875,-15.0,-925.9842485189438,0.0,0.25,0.872802645,4.932113993030843,0.0,-31733.0,2.25,7.5,925.9842485189438,0.0,0.25,0.46142573400000003,4.963632117503084,0.0,24544.0,1.875,0.0,-925.9842485189438,0.0,0.0,3.3203121600000003,4.940262766669736,0.0,-3017.0,3.0,22.5,925.9842485189438,0.0,0.25,1.588134603,4.957862277780858,0.0,-0.20999999344348907,-1.190000057220459,-0.03999999910593033,-0.14837646484375,-0.00201416015625,0.9322509765625,36.65999984741211,0.0,-128.0,-5.4714508056640625,1.8466644287109375,Opening,0.0,0.0,0.0,0.0,0.0,0.0,0.0,0.0,
2.070407999999996,0.0,0.0,23141.0,6.5,-112.5,-1355.9054911136627,0.0,0.25,0.8679198330000001,4.931702972123363,0.0,-31733.0,9.375,82.5,1355.9054911136627,0.0,0.25,0.462646437,4.96321847001233,0.0,24539.0,8.125,-45.0,-1355.9054911136627,0.0,0.0,3.359374656,4.939851066678939,0.0,-3017.0,10.75,135.0,1355.9054911136627,0.0,0.25,1.593017415,4.9574491111234265,0.0,-0.1599999964237213,-1.8600000143051147,0.10000000149011612,-0.281005859375,0.0013427734375,1.12420654296875,36.68000030517578,0.0,-244.0,-5.4771270751953125,1.8475494384765625,Opening,0.0,0.0,0.0,0.0,0.0,0.0,0.0,0.0,
2.147099000000002,0.0,0.0,23141.0,8.5,-232.5,-611.8110448122025,0.0,0.25,0.8666991300000001,0.01,0.0,-31693.0,14.875,217.5,611.8110448122025,0.0,0.25,0.462646437,0.01,0.0,24517.0,11.0,-67.5,-611.8110448122025,0.0,0.0,3.359374656,0.01,0.0,-2987.0,9.75,232.5,611.8110448122025,0.0,0.25,1.597900227,0.01,0.0,-0.1899999976158142,-2.4100000858306885,0.12999999523162842,-0.251953125,-0.00823974609375,1.00689697265625,36.68000030517578,0.0,-209.0,-5.4847412109375,1.8475494384765625,Opening,0.0,0.0,0.0,0.0,0.0,0.0,0.0,0.0,
2.1796880000000094,0.0,0.0,23141.0,6.625,-285.0,-545.6692814826965,0.0,0.25,0.8679198330000001,0.01,0.0,-31693.0,11.875,277.5,545.6692814826965,0.0,0.25,0.462646437,0.01,0.0,24517.0,8.0,-157.5,-545.6692814826965,0.0,0.0,3.358153953,0.01,0.0,-2987.0,7.125,292.5,545.6692814826965,0.0,0.25,1.596679524,0.01,0.0,-0.23000000417232513,-2.5899999141693115,0.18000000715255737,-0.1881103515625,-0.02252197265625,1.026611328125,36.68000030517578,0.0,-141.0,-5.4911346435546875,1.8474273681640625,Opening,0.0,0.0,0.0,0.0,0.0,0.0,0.0,0.0,
2.2141800000000074,0.0,0.0,23080.0,3.0,-390.0,-529.1338562965393,0.0,0.25,0.8691405360000001,0.01,0.0,-31693.0,4.75,390.0,529.1338562965393,0.0,0.25,0.46386714,0.01,0.0,24517.0,5.5,-225.0,-529.1338562965393,0.0,0.0,3.359374656,0.01,0.0,-2987.0,3.625,382.5,529.1338562965393,0.0,0.25,1.6027830390000002,0.01,0.0,-0.25999999046325684,-2.680000066757202,0.25999999046325684,-0.09832763671875,-0.0458984375,1.052001953125,36.68000030517578,0.0,-49.0,-5.4979705810546875,1.8470306396484375,Opening,0.0,0.0,0.0,0.0,0.0,0.0,0.0,0.0,
2.2472850000000033,0.0,0.0,23080.0,2.375,-480.0,-529.1338562965393,0.0,0.25,0.8679198330000001,0.01,0.0,-31612.0,3.375,472.5,529.1338562965393,0.0,0.25,0.462646437,0.01,0.0,24517.0,4.25,-360.0,-529.1338562965393,0.0,0.0,3.358153953,0.01,0.0,-2912.0,2.625,465.0,529.1338562965393,0.0,0.25,1.6076658510000001,0.01,0.0,-0.25,-2.759999990463257,0.3199999928474426,-0.06756591796875,-0.0474853515625,1.04718017578125,36.68000030517578,0.0,-17.0,-5.5086517333984375,1.84674072265625,Opening,0.0,0.0,0.0,0.0,0.0,0.0,0.0,0.0,
2.2869110000000075,0.0,0.0,23080.0,2.25,-517.5,-529.1338562965393,0.0,0.25,0.863037021,0.01,0.0,-31612.0,2.75,532.5,529.1338562965393,0.0,0.25,0.462646437,0.01,0.0,24446.0,3.625,-435.0,-529.1338562965393,0.0,0.0,3.359374656,0.01,0.0,-2912.0,2.5,502.5,529.1338562965393,0.0,0.25,1.616210772,0.01,0.0,-0.2800000011920929,-2.7699999809265137,0.33000001311302185,-0.08428955078125,0.0596923828125,1.0186767578125,36.68000030517578,0.0,-34.0,-5.5159912109375,1.8466949462890625,Opening,0.0,0.0,0.0,0.0,0.0,0.0,0.0,0.0,
2.323497000000003,0.0,0.0,22990.0,1.625,-555.0,-529.1338562965393,0.0,0.25,0.839843664,0.01,-0.004882811999999959,-31612.0,2.5,562.5,529.1338562965393,0.0,0.25,0.456542922,0.01,0.0,24446.0,3.375,-450.0,-529.1338562965393,0.0,0.0,3.359374656,0.01,0.0,-2912.0,2.25,547.5,529.1338562965393,0.0,0.25,1.621093584,0.01,0.0,-0.28999999165534973,-2.809999942779541,0.3700000047683716,-0.057861328125,-0.060791015625,1.1138916015625,36.68000030517578,0.0,-3.0,-5.5197296142578125,1.84661865234375,Opening,0.0,0.0,0.0,0.0,0.0,0.0,0.0,0.0,
2.365850000000006,0.0,0.0,22990.0,1.875,-592.5,-777.1653592586517,0.0,0.25,0.847167882,0.01,0.0,-31514.0,2.5,600.0,777.1653592586517,0.0,0.25,0.462646437,0.01,0.0,24446.0,3.75,-540.0,-777.1653592586517,0.0,0.0,3.358153953,0.01,0.0,-2817.0,2.5,600.0,777.1653592586517,0.0,0.125,1.625976396,0.01,0.0,-0.2800000011920929,-2.819999933242798,0.3799999952316284,-0.1513671875,-0.06793212890625,1.0379638671875,36.68000030517578,0.0,-100.0,-5.51995849609375,1.845794677734375,Opening,0.0,0.0,0.0,0.0,0.0,0.0,0.0,0.0,
2.4130599999999975,0.0,0.0,22990.0,2.5,-607.5,-793.700784444809,0.0,0.25,0.8691405360000001,0.01,0.0,-31514.0,3.125,615.0,793.700784444809,0.0,0.25,0.462646437,0.01,0.0,24349.0,4.375,-592.5,-793.700784444809,0.0,0.0,3.359374656,0.01,0.0,-2817.0,2.625,615.0,793.700784444809,0.0,0.125,1.6113279600000001,0.01,0.0,-0.3100000023841858,-2.890000104904175,0.38999998569488525,-0.0814208984375,0.022216796875,1.0399169921875,36.68000030517578,0.0,-28.0,-5.5204010009765625,1.845001220703125,Opening,0.0,0.0,0.0,0.0,0.0,0.0,0.0,0.0,
2.445724000000002,0.0,0.0,22887.0,2.75,-637.5,-793.700784444809,0.0,0.25,0.8569335060000001,0.01,0.0,-31514.0,3.625,645.0,793.700784444809,0.0,0.25,0.46142573400000003,0.01,0.0,24349.0,4.375,-615.0,-793.700784444809,0.0,0.0,3.35693325,0.01,0.0,-2817.0,2.875,652.5,793.700784444809,0.0,0.125,1.6064451480000002,0.01,0.0,-0.25999999046325684,-2.950000047683716,0.38999998569488525,-0.09210205078125,-0.035888671875,1.12994384765625,36.68000030517578,0.0,-33.0,-5.52105712890625,1.84417724609375,Opening,0.0,0.0,0.0,0.0,0.0,0.0,0.0,0.0,
2.478316000000006,0.0,0.0,22887.0,2.75,-652.5,-793.700784444809,0.0,0.25,0.8581542090000001,0.01,0.0,-31514.0,3.5,682.5,793.700784444809,0.0,0.25,0.46752924900000004,0.01,-0.0012207030000004337,24349.0,4.25,-652.5,-793.700784444809,0.0,0.0,3.358153953,0.01,0.0,-2707.0,2.875,675.0,793.700784444809,0.0,0.125,1.6015623360000002,0.01,0.0,-0.2800000011920929,-3.0299999713897705,0.41999998688697815,-0.10772705078125,0.02825927734375,1.1390380859375,36.68000030517578,0.0,-47.0,-5.5223236083984375,1.842559814453125,Opening,0.0,0.0,0.0,0.0,0.0,0.0,0.0,0.0,
2.515201000000001,0.0,0.0,22887.0,2.625,-682.5,-793.7007844448088,0.0,0.25,0.875244051,0.01,0.0,-31401.0,3.25,697.5,793.7007844448088,0.0,0.25,0.462646437,0.01,0.0012207030000004337,24238.0,4.0,-682.5,-793.7007844448088,0.0,0.0,3.358153953,0.01,0.0,-2707.0,3.0,690.0,793.7007844448088,0.0,0.25,1.600341633,0.01,-0.004882811999999959,-0.28999999165534973,-3.0399999618530273,0.47999998927116394,-0.09161376953125,0.10906982421875,0.81109619140625,36.68000030517578,0.0,-47.0,-5.5233154296875,1.841552734375,Opening,0.0,0.0,0.0,0.0,0.0,0.0,0.0,0.0,
2.549066000000006,0.0,0.0,22769.0,2.5,-720.0,-793.7007844448091,0.0,0.25,0.8532713970000001,0.01,0.0,-31401.0,3.0,727.5,793.7007844448091,0.0,0.25,0.462646437,0.01,0.0,24238.0,4.0,-697.5,-793.7007844448091,0.0,0.0,3.358153953,0.01,0.0,-2707.0,2.875,712.5,793.7007844448091,0.0,0.25,1.6015623360000002,0.01,0.0,-0.27000001072883606,-3.059999942779541,0.5400000214576721,-0.1143798828125,-0.0308837890625,1.0478515625,36.68000030517578,0.0,-58.0,-5.5245819091796875,1.8406982421875,Opening,0.0,0.0,0.0,0.0,0.0,0.0,0.0,0.0,
2.5821790000000036,0.0,0.0,22769.0,2.5,-735.0,-793.700784444809,0.0,0.25,0.8569335060000001,0.01,0.0,-31401.0,3.0,750.0,793.700784444809,0.0,0.25,0.46386714,0.01,0.0,24238.0,3.875,-735.0,-793.700784444809,0.0,0.0,3.358153953,0.01,0.0,-2707.0,2.875,727.5,793.700784444809,0.0,0.25,1.6076658510000001,0.01,0.0,-0.3100000023841858,-3.0999999046325684,0.6100000143051147,-0.0196533203125,-0.0286865234375,1.153076171875,36.689998626708984,0.0,42.0,-5.5260162353515625,1.839935302734375,Opening,0.0,0.0,0.0,0.0,0.0,0.0,0.0,0.0,
2.614710999999996,0.0,0.0,22769.0,2.0,-765.0,-810.2362096309662,0.0,0.25,0.8581542090000001,0.01,0.0,-31274.0,2.875,772.5,810.2362096309662,0.0,0.25,0.462646437,0.01,0.0,24238.0,3.75,-750.0,-810.2362096309662,0.0,0.0,3.355712547,0.01,0.0,-2586.0,2.75,742.5,810.2362096309662,0.0,0.25,1.6076658510000001,0.01,0.004882811999999959,-0.28999999165534973,-3.0799999237060547,0.6800000071525574,-0.0318603515625,-0.04315185546875,0.81365966796875,36.689998626708984,0.0,11.0,-5.527313232421875,1.8390655517578125,Opening,0.0,0.0,0.0,0.0,0.0,0.0,0.0,0.0,
2.647928,0.0,0.0,22769.0,1.875,-795.0,-810.2362096309663,0.0,0.25,0.8581542090000001,0.01,0.0,-31274.0,2.75,787.5,810.2362096309663,0.0,0.25,0.462646437,0.01,0.0,24109.0,3.5,-795.0,-810.2362096309663,0.0,0.0,3.358153953,0.01,0.0,-2586.0,2.625,772.5,810.2362096309663,0.0,0.25,1.6027830390000002,0.01,0.0,-0.27000001072883606,-3.140000104904175,0.7599999904632568,-0.0135498046875,-0.020263671875,1.10577392578125,36.689998626708984,0.0,46.0,-5.52886962890625,1.838165283203125,Opening,0.0,0.0,0.0,0.0,0.0,0.0,0.0,0.0,
2.6859919999999984,0.0,0.0,22639.0,1.875,-802.5,-810.2362096309662,0.0,0.25,0.8569335060000001,0.010412529758225743,0.0,-31274.0,2.75,795.0,810.2362096309662,0.0,0.25,0.46630854600000005,0.010479069868501866,0.0,24109.0,3.375,-832.5,-810.2362096309662,0.0,0.0,3.358153953,0.010429733202454309,0.0,-2586.0,2.625,787.5,810.2362096309662,0.0,0.25,1.6015623360000002,0.010466888757543612,0.0,-0.23999999463558197,-3.130000114440918,0.8199999928474426,-0.06805419921875,0.00244140625,0.9576416015625,36.689998626708984,0.0,-15.0,-5.5296478271484375,1.8376922607421875,Opening,0.0,0.0,0.0,0.0,0.0,0.0,0.0,0.0,
2.7154590000000027,0.0,0.0,22639.0,1.625,-825.0,-810.2362096309662,0.0,0.25,0.8581542090000001,0.01164559296553585,0.0,-31274.0,2.625,810.0,810.2362096309662,0.0,0.25,0.462646437,0.011720012828734363,0.0012207030000004337,24109.0,3.125,-840.0,-810.2362096309662,0.0,0.0,3.359374656,0.011664833660519977,0.0,-2458.0,2.625,802.5,810.2362096309662,0.0,0.25,1.6015623360000002,0.011706389217241122,0.0,-0.23999999463558197,-3.109999895095825,0.8799999952316284,-0.0682373046875,0.038330078125,1.021728515625,36.689998626708984,0.0,-11.0,-5.5296478271484375,1.8376312255859375,Opening,0.0,0.0,0.0,0.0,0.0,0.0,0.0,0.0,
2.7472130000000035,0.0,0.0,22639.0,1.375,-832.5,-810.2362096309662,0.0,0.25,0.8581542090000001,0.012467634831534192,0.0,-31142.0,2.5,817.5,810.2362096309662,0.0,0.25,0.46142573400000003,0.012547307861608112,0.0,23972.0,3.0,-847.5,-810.2362096309662,0.0,0.0,3.3630367650000004,0.012488233693238954,0.0,-2458.0,2.625,810.0,810.2362096309662,0.0,0.25,1.6015623360000002,0.012532722583409992,0.0,-0.20999999344348907,-3.109999895095825,0.9800000190734863,-0.052978515625,0.072021484375,0.96368408203125,36.689998626708984,0.0,0.0,-5.529541015625,1.83746337890625,Opening,0.0,0.0,0.0,0.0,0.0,0.0,0.0,0.0,
2.7768849999999947,0.0,0.0,22639.0,1.25,-855.0,-810.2362096309661,0.0,0.25,0.8569335060000001,0.013426683539094724,0.0012207029999999897,-31142.0,2.375,840.0,810.2362096309661,0.0,0.25,0.465087843,0.013512485262986863,-0.0012207030000004337,23972.0,3.0,-855.0,-810.2362096309661,0.0,0.0,3.359374656,0.013448866928415357,0.0,-2458.0,2.625,810.0,810.2362096309661,0.0,0.25,1.6015623360000002,0.01349677804045894,0.0,-0.23999999463558197,-3.059999942779541,1.059999942779541,-0.043212890625,0.0772705078125,0.88592529296875,36.689998626708984,0.0,5.0,-5.5294647216796875,1.8373870849609375,Opening,0.0,0.0,0.0,0.0,0.0,0.0,0.0,0.0,
2.812072,0.0,0.0,22500.0,1.25,-862.5,-810.2362096309661,0.0,0.25,0.8447264760000001,0.014522738271593037,0.0,-31142.0,2.25,840.0,810.2362096309661,0.0,0.25,0.462646437,0.014615544211027655,0.0,23972.0,3.0,-862.5,-810.2362096309661,0.0,0.0,3.359374656,0.014546732548075562,0.0,-2458.0,2.5,810.0,810.2362096309661,0.0,0.25,1.600341633,0.01459855476750033,0.0,-0.20000000298023224,-3.049999952316284,1.149999976158142,0.01025390625,-0.05755615234375,1.05218505859375,36.689998626708984,0.0,65.0,-5.5293731689453125,1.837371826171875,Opening,0.0,0.0,0.0,0.0,0.0,0.0,0.0,0.0,
2.8404919999999985,0.0,0.0,22500.0,1.0,-870.0,-810.2362096309663,0.0,0.25,0.8581542090000001,0.015755801478902366,0.0,-31142.0,2.125,855.0,810.2362096309663,0.0,0.25,0.46142573400000003,0.015856487171259367,0.0,23972.0,2.875,-870.0,-810.2362096309663,0.0,0.0,3.358153953,0.01578183300614045,0.0,-2327.0,2.5,810.0,810.2362096309663,0.0,0.25,1.6040037420000002,0.01583805522719706,0.0,-0.1899999976158142,-3.009999990463257,1.2100000381469727,-0.10845947265625,0.01019287109375,0.9837646484375,36.689998626708984,0.0,-56.0,-5.52911376953125,1.8372650146484375,Opening,0.0,0.0,0.0,0.0,0.0,0.0,0.0,0.0,
2.872798999999999,0.0,0.0,22500.0,1.0,-870.0,-826.7716348171233,0.0,0.25,0.8569335060000001,0.016577844161525898,0.0,-31005.0,2.125,855.0,826.7716348171233,0.0,0.25,0.471191358,0.01668378302597686,-0.0012207030000004337,23830.0,2.75,-885.0,-826.7716348171233,0.0,0.0,3.358153953,0.016605233856833834,0.0,-2327.0,2.375,825.0,826.7716348171233,0.0,0.25,1.596679524,0.01666438941425434,0.004882811999999959,-0.20000000298023224,-2.9700000286102295,1.2699999809265137,0.01080322265625,0.03643798828125,0.99493408203125,36.689998626708984,0.0,63.0,-5.5288238525390625,1.837371826171875,Opening,0.0,0.0,0.0,0.0,0.0,0.0,0.0,0.0,
2.905824999999997,0.0,0.0,22360.0,1.0,-870.0,-826.7716348171234,0.0,0.25,0.8569335060000001,0.017399885210899826,0.0,-31005.0,1.875,855.0,826.7716348171234,0.0,0.25,0.46386714,0.01751107723700765,0.0,23830.0,2.75,-885.0,-826.7716348171234,0.0,0.0,3.3654781710000004,0.017428633071579182,0.0,-2327.0,2.375,847.5,826.7716348171234,0.0,0.25,1.600341633,0.01749072195953558,0.0,-0.20000000298023224,-2.9600000381469727,1.2999999523162842,-0.01055908203125,0.03173828125,1.16058349609375,36.689998626708984,0.0,50.0,-5.528350830078125,1.8376007080078125,Opening,0.0,0.0,0.0,0.0,0.0,0.0,0.0,0.0,
2.9346399999999995,0.0,0.0,22360.0,1.0,-870.0,-826.7716348171234,0.0,0.25,0.8581542090000001,0.0178109057355864,0.0,-31005.0,1.875,862.5,826.7716348171234,0.0,0.25,0.46142573400000003,0.017924724342522656,0.0,23830.0,2.625,-877.5,-826.7716348171234,0.0,0.0,3.3605953590000004,0.01784033267895147,0.0,-2327.0,2.375,855.0,826.7716348171234,0.0,0.25,1.6064451480000002,0.01790388823217581,0.0,-0.18000000715255737,-2.880000114440918,1.340000033378601,-0.0172119140625,0.00860595703125,0.76947021484375,36.689998626708984,0.0,21.0,-5.527740478515625,1.8380584716796875,Opening,0.0,0.0,0.0,0.0,0.0,0.0,0.0,0.0,
2.9688169999999956,0.0,0.0,22360.0,1.0,-870.0,-826.7716348171234,0.0,0.25,0.8544921000000001,0.018632948418209932,-0.0012207029999999897,-30865.0,1.75,862.5,826.7716348171234,0.0,0.25,0.462646437,0.01875202019724015,0.0,23830.0,2.625,-877.5,-826.7716348171234,0.0,0.0,3.358153953,0.01866373352964485,0.0,-2189.0,2.25,847.5,826.7716348171234,0.0,0.25,1.612548663,0.018730222419233094,0.004882811999999959,-0.17000000178813934,-2.8299999237060547,1.3899999856948853,-0.05438232421875,0.08184814453125,1.14935302734375,36.689998626708984,0.0,4.0,-5.52691650390625,1.8387603759765625,Opening,0.0,0.0,0.0,0.0,0.0,0.0,0.0,0.125,
2.9960240000000047,0.0,0.0,22360.0,0.75,-870.0,-826.7716348171234,0.0,0.25,0.8581542090000001,0.019591996309145276,0.0,-30865.0,1.75,870.0,826.7716348171234,0.0,0.25,0.46752924900000004,0.019717196776775154,0.0,23688.0,2.375,-885.0,-826.7716348171234,0.0,0.0,3.358153953,0.01962436594684685,0.0,-2189.0,2.25,840.0,826.7716348171234,0.0,0.25,1.616210772,0.019694277055393627,0.0,-0.1599999964237213,-2.7699999809265137,1.5,-0.08111572265625,0.01763916015625,0.9010009765625,36.689998626708984,0.0,-36.0,-5.5253448486328125,1.8402099609375,Opening,0.0,0.0,0.0,0.0,0.0,0.0,0.0,0.0,
3.0346619999999964,0.0,0.0,22220.0,0.75,-870.0,-826.7716348171233,0.0,0.25,0.8557128030000001,0.020551045833330218,-0.0012207029999999897,-30865.0,1.625,870.0,826.7716348171233,0.0,0.25,0.46752924900000004,0.020682374999996866,0.003662108999999525,23688.0,2.375,-885.0,-826.7716348171233,0.0,0.0,3.358153953,0.02058499999999688,0.0,-2189.0,2.375,840.0,826.7716348171233,0.0,0.25,1.6113279600000001,0.0206583333333302,0.0,-0.1899999976158142,-2.680000066757202,1.559999942779541,-0.01641845703125,0.03765869140625,0.9462890625,36.689998626708984,0.0,29.0,-5.5241546630859375,1.841522216796875,Opening,0.0,0.0,0.0,0.0,0.0,0.0,0.0,0.0,
3.0694419999999956,0.0,0.0,22220.0,0.75,-877.5,-826.7716348171234,0.0,0.25,0.865478427,0.02137308688270415,0.0,-30865.0,1.5,870.0,826.7716348171234,0.0,0.25,0.47241206100000005,0.021509669211027656,0.0012207030000004337,23688.0,2.125,-885.0,-826.7716348171234,0.0,0.0,3.358153953,0.02140839921474223,0.0,-2054.0,2.25,840.0,826.7716348171234,0.0,0.25,1.616210772,0.02148466587861144,0.0012207029999995456,-0.20999999344348907,-2.6500000953674316,1.600000023841858,-0.00970458984375,0.013427734375,1.20318603515625,36.689998626708984,0.0,46.0,-5.5226287841796875,1.8427734375,Opening,0.0,0.0,0.0,0.0,0.0,0.0,0.0,0.0,
3.0972750000000087,0.0,0.0,22220.0,0.75,-877.5,-826.7716348171234,0.0,0.25,0.8581542090000001,0.021921115882202517,0.0,-30726.0,1.5,870.0,826.7716348171234,0.0,0.25,0.47241206100000005,0.022061200328734362,0.0,23688.0,2.125,-885.0,-826.7716348171234,0.0,0.0,3.3605953590000004,0.021957333660519978,0.0,-2054.0,2.25,840.0,826.7716348171234,0.0,0.25,1.616210772,0.02203555588390779,0.0,-0.20999999344348907,-2.4800000190734863,1.659999966621399,0.03253173828125,-0.02520751953125,0.89263916015625,36.65999984741211,0.0,70.0,-5.52001953125,1.8447723388671875,Opening,0.0,0.0,0.0,0.0,0.0,0.0,0.0,0.0,
3.1317119999999994,0.0,0.0,22220.0,0.75,-870.0,-826.7716348171234,0.0,0.25,0.8581542090000001,0.022743156931576445,0.0,-30726.0,1.5,870.0,826.7716348171234,0.0,0.25,0.47241206100000005,0.02288849453976515,-0.0012207030000004337,23547.0,2.125,-885.0,-826.7716348171234,0.0,0.0,3.359374656,0.022780732875265327,0.0,-2054.0,2.25,847.5,826.7716348171234,0.0,0.25,1.621093584,0.02286188842918903,0.0,-0.25999999046325684,-2.490000009536743,1.6699999570846558,-0.00543212890625,0.0145263671875,1.27423095703125,36.65999984741211,0.0,26.0,-5.51800537109375,1.8461151123046875,Opening,0.0,0.0,0.0,0.0,0.0,0.0,0.0,0.0,
3.1684360000000016,0.0,0.0,22081.0,0.75,-870.0,-826.7716348171234,0.0,0.25,0.8825682690000001,0.02301717061470005,0.0,-30726.0,1.5,862.5,826.7716348171234,0.0,0.25,0.477294873,0.02316425927677437,0.004882812000000847,23547.0,1.875,-877.5,-826.7716348171234,0.0,0.0,3.359374656,0.023055199280179402,0.0,-2054.0,2.0,855.0,826.7716348171234,0.0,0.25,1.617431475,0.0231373326109484,0.004882811999999959,-0.23000000417232513,-2.369999885559082,1.7300000190734863,-0.028564453125,-0.0084228515625,0.898193359375,36.65999984741211,0.0,8.0,-5.515838623046875,1.847442626953125,Opening,0.0,0.0,0.0,0.0,0.0,0.0,0.0,0.0,
3.195008000000002,0.0,0.0,22081.0,0.75,-862.5,-826.7716348171234,0.0,0.25,0.8569335060000001,0.02370220645576139,0.0,-30726.0,1.5,862.5,826.7716348171234,0.0,0.25,0.484619091,0.023853672762986864,0.0,23547.0,1.875,-870.0,-826.7716348171234,0.0,0.0,3.359374656,0.02374136692841536,0.0,-1917.0,2.0,855.0,826.7716348171234,0.0,0.25,1.616210772,0.023825944707125606,0.0,-0.17000000178813934,-2.380000114440918,1.7699999809265137,-0.02618408203125,-0.02813720703125,1.146728515625,36.65999984741211,0.0,20.0,-5.5135650634765625,1.848785400390625,Opening,0.0,0.0,0.0,0.0,0.0,0.0,0.0,0.0,
3.229595000000001,0.0,0.0,22081.0,0.75,-870.0,-826.7716348171235,0.0,0.25,0.8581542090000001,0.024250233822010157,0.0,-30587.0,1.5,862.5,826.7716348171235,0.0,0.25,0.47973627900000004,0.024405202237006866,0.003662109000000413,23407.0,1.875,-877.5,-826.7716348171235,0.0,0.0,3.358153953,0.02429029973824507,0.0,-1917.0,2.0,855.0,826.7716348171235,0.0,0.25,1.621093584,0.02437683307064591,0.0,-0.18000000715255737,-2.299999952316284,1.840000033378601,-0.06011962890625,-0.0185546875,1.0003662109375,36.65999984741211,0.0,-20.0,-5.51116943359375,1.8500518798828125,Opening,0.0,0.0,0.0,0.0,0.0,0.0,0.0,0.0,
3.256300000000003,0.0,0.0,22081.0,0.625,-870.0,-826.7716348171234,0.0,0.125,0.8581542090000001,0.02520928334619666,0.0,-30587.0,1.375,870.0,826.7716348171234,0.0,0.25,0.482177685,0.025370380460230144,0.0,23407.0,1.875,-877.5,-826.7716348171234,0.0,0.0,3.359374656,0.025250933791396663,0.0,-1917.0,2.0,840.0,826.7716348171234,0.0,0.25,1.616210772,0.025340889348584052,0.004882811999999959,-0.1599999964237213,-2.299999952316284,1.899999976158142,0.0792236328125,-0.0499267578125,1.09527587890625,36.65999984741211,0.0,121.0,-5.5086669921875,1.8513336181640625,Opening,0.0,0.0,0.0,0.0,0.0,0.0,0.0,0.0,
3.2907620000000026,0.0,0.0,21941.0,0.625,-870.0,-826.7716348171234,0.0,0.125,0.8532713970000001,0.02603132439556903,0.0,-30587.0,1.375,870.0,826.7716348171234,0.0,0.25,0.48095698200000003,0.026197674671259368,0.0,23407.0,1.75,-877.5,-826.7716348171234,0.0,0.0,3.359374656,0.02607433300614045,0.0,-1917.0,2.0,832.5,826.7716348171234,0.0,0.25,1.6308592080000002,0.026167221893863727,0.0,-0.15000000596046448,-2.2200000286102295,1.9600000381469727,-0.02410888671875,0.03436279296875,1.02923583984375,36.65999984741211,0.0,17.0,-5.50579833984375,1.8525390625,Opening,0.0,0.0,0.0,0.0,0.0,0.0,0.0,0.0,
3.3256630000000005,0.0,0.0,21941.0,0.625,-862.5,-826.7716348171234,0.0,0.125,0.8544921000000001,0.02726438760287914,-0.006103515000000059,-30587.0,1.375,862.5,826.7716348171234,0.0,0.25,0.482177685,0.027438617631491864,0.0,23407.0,1.75,-877.5,-826.7716348171234,0.0,0.0,3.359374656,0.02730943346420612,0.0,-1782.0,2.0,832.5,826.7716348171234,0.0,0.25,1.621093584,0.027406722353561237,-4.943351563999999,-0.15000000596046448,-2.1600000858306885,2.009999990463257,0.0074462890625,-0.016845703125,0.9898681640625,36.65999984741211,0.0,44.0,-5.502716064453125,1.85357666015625,Opening,0.0,0.0,0.0,0.0,0.0,0.0,0.0,0.0,
3.352796000000002,0.0,0.0,21941.0,0.625,-862.5,-826.7716348171234,0.0,0.125,0.8532713970000001,0.027812414969127907,0.0,-30449.0,1.375,862.5,826.7716348171234,0.0,0.25,0.4882812,0.02799014710551187,0.0,23267.0,1.75,-870.0,-826.7716348171234,0.0,0.0,3.358153953,0.02785836627403583,0.0,-1782.0,2.0,832.5,826.7716348171234,0.0,0.25,1.62353499,0.02795761071708154,0.0,-0.15000000596046448,-2.1700000762939453,2.059999942779541,-0.00921630859375,-0.0264892578125,1.03204345703125,36.65999984741211,0.0,28.0,-5.4996185302734375,1.8546142578125,Opening,0.0,0.0,0.0,0.0,0.0,0.0,0.0,0.0,
3.386726999999999,0.0,0.0,21803.0,0.625,-862.5,-826.7716348171234,0.0,0.125,0.8532713970000001,0.028634456018501054,0.0,-30449.0,1.375,847.5,826.7716348171234,0.0,0.25,0.48583979400000005,0.028817441316541875,0.0,23267.0,1.75,-870.0,-826.7716348171234,0.0,0.0,3.358153953,0.0286817654887804,0.0,-1782.0,2.0,847.5,826.7716348171234,0.0,0.25,1.616210772,0.028783943262361996,0.0,-0.10999999940395355,-2.0999999046325684,2.119999885559082,-0.07208251953125,-0.04095458984375,0.95135498046875,36.65999984741211,0.0,-38.0,-5.49468994140625,1.856231689453125,Opening,0.0,0.0,0.0,0.0,0.0,0.0,0.0,0.0,
3.4252119999999997,0.0,0.0,21803.0,0.625,-862.5,-826.7716348171233,0.0,0.125,0.8532713970000001,0.029045476543188408,0.0,-30449.0,1.375,840.0,826.7716348171233,0.0,0.25,0.4882812,0.029231088422057662,0.004882811999999959,23267.0,1.75,-855.0,-826.7716348171233,0.0,0.0,3.358153953,0.029093465096153463,0.0,-1782.0,2.0,847.5,826.7716348171233,0.0,0.25,1.621093584,0.02919710953500301,-0.004882811999999959,-0.10999999940395355,-2.0,2.180000066757202,-0.03582763671875,-0.049072265625,0.976806640625,36.65999984741211,0.0,-3.0,-5.4914093017578125,1.857330322265625,Opening,0.0,0.0,0.0,0.0,0.0,0.0,0.0,0.0,
3.4520920000000044,0.0,0.0,21803.0,0.625,-862.5,-677.9527455568314,0.0,0.125,0.8532713970000001,0.029867520859061546,0.0,-30314.0,1.375,840.0,677.9527455568314,0.0,0.25,0.49194330900000005,0.03005838592046186,0.0,23267.0,1.75,-855.0,-677.9527455568314,0.0,0.0,3.358153953,0.029916867582794885,0.0,-1648.0,2.0,832.5,677.9527455568314,0.0,0.25,1.621093584,0.030023445363836335,0.0,-0.09000000357627869,-2.0399999618530273,2.240000009536743,0.01055908203125,0.005615234375,1.16033935546875,36.65999984741211,0.0,52.0,-5.4878692626953125,1.8578338623046875,Opening,0.0,0.0,0.0,0.0,0.0,0.0,0.0,0.0,
3.4858439999999975,0.0,0.0,21803.0,0.375,-855.0,-529.1338562965393,0.0,0.125,0.859374912,0.030689561908435473,0.0,-30314.0,0.875,832.5,529.1338562965393,0.0,0.25,0.49194330900000005,0.03088568013149265,0.003662108999999525,23130.0,1.0,-847.5,-529.1338562965393,0.0,0.0,3.359374656,0.030740266797540234,0.0,-1648.0,1.625,825.0,529.1338562965393,0.0,0.25,1.622314287,0.030849777909117575,0.0,-0.12999999523162842,-1.7899999618530273,2.299999952316284,0.07513427734375,-0.060546875,0.79541015625,36.65999984741211,0.0,97.0,-5.4820709228515625,1.8577880859375,Opening,0.0,0.0,0.0,0.0,0.0,0.0,0.0,0.0,
3.5205590000000084,0.0,0.0,21671.0,0.0,-832.5,0.0,0.0,0.125,0.8532713970000001,0.030689561908435473,0.0,-30314.0,0.375,817.5,0.0,0.0,0.25,0.496826121,0.03088568013149265,0.0,23130.0,0.625,-840.0,0.0,0.0,0.0,3.359374656,0.030740266797540234,0.0,-1648.0,0.375,787.5,0.0,0.0,0.25,1.621093584,0.030849777909117575,0.0,-0.05999999865889549,-1.8700000047683716,2.3399999141693115,-0.0748291015625,0.015869140625,1.337890625,36.65999984741211,0.0,-30.0,-5.477935791015625,1.8575897216796875,Opening,0.0,0.0,0.0,0.0,0.0,0.0,0.0,0.0,
3.5539400000000025,0.0,0.0,21671.0,0.0,-765.0,0.0,0.0,0.125,0.852050694,0.030689561908435473,0.0,-30314.0,0.0,742.5,0.0,0.0,0.25,0.5017089330000001,0.03088568013149265,0.009765623999999917,23130.0,0.125,-802.5,0.0,0.0,0.0,3.358153953,0.030740266797540234,0.0,-1548.0,0.125,682.5,0.0,0.0,0.25,1.616210772,0.030849777909117575,-0.0012207029999995456,-0.12999999523162842,-1.590000033378601,2.369999885559082,0.2071533203125,-0.0789794921875,0.674560546875,36.65999984741211,0.0,222.0,-5.4737091064453125,1.8574066162109375,Opening,0.0,0.0,0.0,0.0,0.0,0.0,0.0,0.0,
3.5877660000000033,0.0,0.0,21671.0,0.0,-705.0,0.0,0.0,0.125,0.8532713970000001,0.030689561908435473,0.0,-30214.0,0.0,682.5,0.0,0.0,0.25,0.5017089330000001,0.03088568013149265,0.009765623999999917,23030.0,0.0,-705.0,0.0,0.0,0.0,3.353271141,0.030740266797540234,0.0,-1548.0,0.125,645.0,0.0,0.0,0.25,1.621093584,0.030849777909117575,0.0012207029999995456,-0.07999999821186066,-1.5099999904632568,2.4700000286102295,0.06390380859375,-0.0440673828125,1.16748046875,36.65999984741211,0.0,92.0,-5.4685821533203125,1.8568878173828125,Opening,0.0,0.0,0.0,0.0,0.0,0.0,0.0,0.0,
3.624297999999995,0.0,0.0,21671.0,0.0,-615.0,0.0,0.0,0.125,0.8532713970000001,0.030689561908435473,0.0,-30214.0,0.0,607.5,0.0,0.0,0.25,0.506591745,0.03088568013149265,-0.0012207029999995456,23030.0,0.0,-637.5,0.0,0.0,0.0,3.34472622,0.030740266797540234,0.0,-1548.0,0.125,682.5,0.0,0.0,0.25,1.616210772,0.030849777909117575,0.0012207029999995456,-0.029999999329447746,-1.2799999713897705,2.5,0.087158203125,0.01483154296875,0.94378662109375,36.65999984741211,0.0,108.0,-5.4626007080078125,1.856048583984375,Opening,0.0,0.0,0.0,0.0,0.0,0.0,0.0,0.0,
3.653423999999999,0.0,0.0,21567.0,0.0,-652.5,0.0,0.0,0.125,0.8532713970000001,0.030689561908435473,0.0,-30214.0,0.0,637.5,0.0,0.0,0.25,0.522460884,0.03088568013149265,0.004882811999999959,23030.0,0.0,-502.5,0.0,0.0,0.0,3.354491844,0.030740266797540234,-0.014648435999999876,-1548.0,0.125,705.0,0.0,0.0,0.25,1.621093584,0.030849777909117575,-0.004882811999999959,-0.019999999552965164,-1.1699999570846558,2.440000057220459,0.1497802734375,0.0897216796875,1.0364990234375,36.65999984741211,0.0,172.0,-5.452362060546875,1.8546142578125,Opening,0.0,0.0,0.0,0.0,0.0,0.0,0.0,0.0,
3.6867670000000072,0.0,0.0,21567.0,0.0,-690.0,0.0,0.0,0.125,0.8532713970000001,0.030689561908435473,0.0,-30214.0,0.0,660.0,0.0,0.0,0.25,0.521240181,0.03088568013149265,0.004882811999999959,23030.0,0.0,-465.0,0.0,0.0,0.0,3.353271141,0.030740266797540234,-0.014648435999999876,-1432.0,0.125,675.0,0.0,0.0,0.25,1.6320799110000002,0.030849777909117575,0.004882811999999959,-0.10000000149011612,-0.8700000047683716,2.559999942779541,0.02978515625,0.113037109375,0.84326171875,36.65999984741211,0.0,47.0,-5.44500732421875,1.85369873046875,Opening,0.0,0.0,0.0,0.0,0.0,0.0,0.0,0.0,
3.722150999999998,0.0,0.0,21567.0,0.0,-667.5,0.0,0.0,0.125,0.8532713970000001,0.030689561908435473,0.0,-30108.0,0.0,630.0,0.0,0.0,0.125,0.521240181,0.03088568013149265,0.014648435999999876,22952.0,0.0,-465.0,0.0,0.0,0.0,3.353271141,0.030740266797540234,0.009765623999999917,-1432.0,0.125,615.0,0.0,0.0,0.25,1.6320799110000002,0.030849777909117575,0.004882811999999959,-0.03999999910593033,-0.8199999928474426,2.6500000953674316,0.10382080078125,-0.07122802734375,1.01495361328125,36.65999984741211,0.0,115.0,-5.437225341796875,1.852813720703125,Opening,0.0,0.0,0.0,0.0,0.0,0.0,0.0,0.0,
3.752001000000004,0.0,0.0,21479.0,0.0,-607.5,0.0,0.0,0.125,0.8532713970000001,0.030689561908435473,0.0,-30108.0,0.0,585.0,0.0,0.0,0.125,0.521240181,0.03088568013149265,0.0,22952.0,0.0,-517.5,0.0,0.0,0.0,3.358153953,0.030740266797540234,0.0,-1432.0,0.125,585.0,0.0,0.0,0.25,1.6320799110000002,0.030849777909117575,-4.948234375999999,-0.05999999865889549,-0.6299999952316284,2.6700000762939453,0.35870361328125,-0.1455078125,0.96759033203125,36.65999984741211,0.0,362.0,-5.4286346435546875,1.8517303466796875,Opening,0.0,0.0,0.0,0.0,0.0,0.0,0.0,0.0,
3.785627999999997,0.0,0.0,21479.0,0.0,-510.0,0.0,0.0,0.125,0.8532713970000001,0.030689561908435473,0.0,-30108.0,0.0,532.5,0.0,0.0,0.125,0.521240181,0.03088568013149265,0.0,22952.0,0.0,-525.0,0.0,0.0,0.0,3.358153953,0.030740266797540234,0.0,-1347.0,0.125,517.5,0.0,0.0,0.25,1.645507644,0.030849777909117575,0.0,-0.009999999776482582,-0.4300000071525574,2.740000009536743,0.076904296875,-0.11163330078125,0.87738037109375,36.65999984741211,0.0,78.0,-5.418914794921875,1.850341796875,Opening,0.0,0.0,0.0,0.0,0.0,0.0,0.0,0.0,
3.818328999999998,0.0,0.0,21479.0,0.0,-502.5,0.0,0.0,0.125,0.8532713970000001,0.030689561908435473,0.0,-30032.0,0.0,502.5,0.0,0.0,0.125,0.521240181,0.03088568013149265,0.0,22952.0,0.0,-510.0,0.0,0.0,0.0,3.348388329,0.030740266797540234,0.004882811999999959,-1347.0,0.125,487.5,0.0,0.0,0.25,1.645507644,0.030849777909117575,0.0,-0.03999999910593033,-0.36000001430511475,2.7699999809265137,0.04669189453125,0.10504150390625,1.16021728515625,36.65999984741211,0.0,59.0,-5.40875244140625,1.8487396240234375,Opening,0.0,0.0,0.0,0.0,0.0,0.0,0.0,0.0,
3.8486199999999955,0.0,0.0,21479.0,0.0,-487.5,0.0,0.0,0.125,0.852050694,0.030689561908435473,0.0,-30032.0,0.0,457.5,0.0,0.0,0.125,0.521240181,0.03088568013149265,0.0,22878.0,0.0,-465.0,0.0,0.0,0.0,3.348388329,0.030740266797540234,-0.009765623999999917,-1347.0,0.125,442.5,0.0,0.0,0.25,1.640624832,0.030849777909117575,0.014648435999999876,0.0,-0.1899999976158142,2.75,0.25787353515625,-0.0611572265625,0.93621826171875,36.65999984741211,0.0,257.0,-5.3927459716796875,1.846405029296875,Opening,0.0,0.0,0.0,0.0,0.0,0.0,0.0,0.125,
3.882475999999995,0.0,0.0,21407.0,0.0,-465.0,0.0,0.0,0.125,0.8532713970000001,0.030689561908435473,0.0,-30032.0,0.0,435.0,0.0,0.0,0.125,0.521240181,0.03088568013149265,0.0,22878.0,0.0,-412.5,0.0,0.0,0.0,3.348388329,0.030740266797540234,-0.009765623999999917,-1347.0,0.125,420.0,0.0,0.0,0.125,1.640624832,0.030849777909117575,-0.004882811999999959,0.009999999776482582,-0.009999999776482582,2.7899999618530273,0.07867431640625,-0.0460205078125,1.14947509765625,36.65999984741211,0.0,76.0,-5.3811798095703125,1.8446044921875,Opening,0.0,0.0,0.0,0.0,0.0,0.0,0.0,0.0,
3.913998000000007,0.0,0.0,21407.0,0.0,-390.0,0.0,0.0,0.125,0.8532713970000001,0.030689561908435473,0.0,-30032.0,0.0,390.0,0.0,0.0,0.125,0.521240181,0.03088568013149265,0.0,22878.0,0.0,-382.5,0.0,0.0,0.0,3.349609032,0.030740266797540234,0.0,-1298.0,0.125,345.0,0.0,0.0,0.125,1.6357420200000001,0.030849777909117575,-0.004882811999999959,0.009999999776482582,0.07999999821186066,2.809999942779541,0.00726318359375,0.05218505859375,1.004150390625,36.65999984741211,0.0,8.0,-5.3692474365234375,1.8428192138671875,Opening,0.0,0.0,0.0,0.0,0.0,0.0,0.0,0.0,
3.9454550000000017,0.0,0.0,21407.0,0.0,-360.0,0.0,0.0,0.125,0.8532713970000001,0.030689561908435473,0.0,-29977.0,0.0,360.0,0.0,0.0,0.125,0.521240181,0.03088568013149265,0.0,22878.0,0.0,-322.5,0.0,0.0,0.0,3.348388329,0.030740266797540234,0.0,-1298.0,0.125,307.5,0.0,0.0,0.125,1.6345213170000001,0.030849777909117575,-0.004882811999999959,0.019999999552965164,0.2199999988079071,2.819999933242798,0.10595703125,0.05731201171875,1.0111083984375,36.65999984741211,0.0,104.0,-5.3569793701171875,1.8411865234375,Opening,0.0,0.0,0.0,0.0,0.0,0.0,0.0,0.0,
3.9744349999999975,0.0,0.0,21407.0,0.0,-315.0,0.0,0.0,0.125,0.8544921000000001,0.030689561908435473,0.0,-29977.0,0.0,300.0,0.0,0.0,0.125,0.521240181,0.03088568013149265,0.0,22832.0,0.0,-292.5,0.0,0.0,0.0,3.348388329,0.030740266797540234,0.0,-1298.0,0.125,292.5,0.0,0.0,0.125,1.640624832,0.030849777909117575,-0.004882811999999959,0.009999999776482582,0.30000001192092896,2.8399999141693115,0.0869140625,-0.042236328125,0.81475830078125,36.65999984741211,0.0,80.0,-5.3506622314453125,1.84039306640625,Opening,0.0,0.0,0.0,0.0,0.0,0.0,0.0,0.0,
4.007862000000008,0.0,0.0,21362.0,0.0,-285.0,0.0,0.0,0.125,0.8532713970000001,0.030689561908435473,0.0,-29977.0,0.0,270.0,0.0,0.0,0.125,0.521240181,0.03088568013149265,0.0,22832.0,0.0,-247.5,0.0,0.0,0.0,3.348388329,0.030740266797540234,0.0,-1298.0,0.125,277.5,0.0,0.0,0.125,1.650390456,0.030849777909117575,0.004882811999999959,0.029999999329447746,0.3499999940395355,2.8499999046325684,0.0296630859375,-0.00152587890625,1.1024169921875,36.65999984741211,0.0,22.0,-5.337615966796875,1.8388824462890625,Opening,0.0,0.0,0.0,0.0,0.0,0.0,0.0,0.0,
4.035444000000004,0.0,0.0,21362.0,0.0,-232.5,0.0,0.0,0.125,0.8532713970000001,0.030689561908435473,0.0,-29977.0,0.0,225.0,0.0,0.0,0.125,0.521240181,0.03088568013149265,0.0,22832.0,0.0,-225.0,0.0,0.0,0.0,3.348388329,0.030740266797540234,0.0,-1266.0,0.125,225.0,0.0,0.0,0.125,1.650390456,0.030849777909117575,0.009765623999999917,0.019999999552965164,0.4699999988079071,2.8499999046325684,0.109375,0.02349853515625,0.91619873046875,36.65999984741211,0.0,102.0,-5.3242645263671875,1.838134765625,Opening,0.0,0.0,0.0,0.0,0.0,0.0,0.0,0.0,
4.070015,0.0,0.0,21362.0,0.0,-210.0,0.0,0.0,0.125,0.8532713970000001,0.030689561908435473,0.0,-29947.0,0.0,202.5,0.0,0.0,0.125,0.521240181,0.03088568013149265,0.0,22807.0,0.0,-180.0,0.0,0.0,0.0,3.353271141,0.030740266797540234,0.0,-1266.0,0.125,195.0,0.0,0.0,0.125,1.650390456,0.030849777909117575,0.009765623999999917,0.03999999910593033,0.6100000143051147,2.8399999141693115,0.10125732421875,-0.024169921875,1.016845703125,36.65999984741211,0.0,88.0,-5.303466796875,1.8381195068359375,Opening,0.0,0.0,0.0,0.0,0.0,0.0,0.0,0.0,
4.099023000000001,0.0,0.0,21362.0,0.0,-150.0,0.0,0.0,0.125,0.8532713970000001,0.030689561908435473,0.0,-29947.0,0.0,157.5,0.0,0.0,0.125,0.521240181,0.03088568013149265,0.0,22807.0,0.0,-150.0,0.0,0.0,0.0,3.353271141,0.030740266797540234,0.004882811999999959,-1266.0,0.0,120.0,0.0,0.0,0.125,1.6564939710000002,0.030849777909117575,0.0,0.05000000074505806,0.7099999785423279,2.8499999046325684,0.1085205078125,0.03741455078125,1.091552734375,36.65999984741211,0.0,96.0,-5.28900146484375,1.8380889892578125,Opening,0.0,0.0,0.0,0.0,0.0,0.0,0.0,0.0,
4.134036999999997,0.0,0.0,21342.0,0.0,-127.5,-132.28346407413483,0.0,0.125,0.852050694,0.039046985776729916,0.0,-29947.0,0.0,135.0,132.28346407413483,0.0,0.125,0.521240181,0.03929651118504687,0.0,22807.0,0.0,-97.5,-132.28346407413483,0.0,0.0,3.353271141,0.039111498691237825,0.0,-1266.0,0.0,90.0,132.28346407413483,0.0,0.125,1.650390456,0.03925083201990874,0.0,0.07000000029802322,0.8899999856948853,2.8399999141693115,0.14166259765625,0.00958251953125,1.00262451171875,36.66999816894531,0.0,126.0,-5.2739410400390625,1.838134765625,Opening,0.0,0.0,0.0,0.0,0.0,0.0,0.0,0.0,
4.168622000000003,0.0,0.0,21342.0,0.125,-82.5,-165.35433009266853,0.0,0.125,0.8532713970000001,0.038909978935167726,0.0,-29940.0,0.0,82.5,165.35433009266853,0.0,0.125,0.521240181,0.03915862881654188,0.0,22807.0,0.125,-67.5,-165.35433009266853,0.0,0.0,3.354491844,0.0389742654887804,0.0,-1257.0,0.25,60.0,165.35433009266853,0.0,0.125,1.6552732680000002,0.03911310992902867,-0.0012207029999999897,0.07000000029802322,1.0099999904632568,2.8299999237060547,0.06842041015625,-0.01361083984375,1.074951171875,36.66999816894531,0.0,48.0,-5.25830078125,1.838134765625,Opening,0.0,0.0,0.0,0.0,0.0,0.0,0.0,0.0,
4.196271999999997,0.0,0.0,21342.0,0.125,-60.0,-214.96063694357872,0.0,0.125,0.865478427,0.038772972093606306,0.0,-29940.0,0.0,30.0,214.96063694357872,0.0,0.125,0.521240181,0.03902074644803766,0.0,22805.0,0.125,-22.5,-214.96063694357872,0.0,0.0,3.35693325,0.03883703228632375,0.0,-1257.0,0.375,45.0,214.96063694357872,0.0,0.125,1.6552732680000002,0.03897538783814937,0.0,0.05000000074505806,1.0700000524520874,2.8299999237060547,0.02362060546875,-0.00140380859375,0.9708251953125,36.66999816894531,0.0,5.0,-5.2423858642578125,1.83807373046875,Opening,0.0,0.0,0.0,0.0,0.0,0.0,0.0,0.0,
4.230675000000003,0.0,0.0,21339.0,0.125,-15.0,-231.49606212973598,0.0,0.125,0.849609288,0.038772972093606306,0.0,-29940.0,0.0,7.5,231.49606212973598,0.0,0.125,0.520019478,0.03902074644803766,0.0012207030000004337,22805.0,0.125,-7.5,-231.49606212973598,0.0,0.0,3.354491844,0.03883703228632375,0.0,-1257.0,0.375,7.5,231.49606212973598,0.0,0.125,1.650390456,0.03897538783814937,0.0,0.05000000074505806,1.0099999904632568,2.8399999141693115,-0.01666259765625,0.0069580078125,1.06353759765625,36.66999816894531,0.0,-35.0,-5.2265472412109375,1.8380126953125,Opening,0.0,0.0,0.0,0.0,0.0,0.0,0.0,0.0,
4.262100999999995,0.0,0.0,21339.0,0.125,-7.5,-231.49606212973592,0.0,0.125,0.860595615,0.038909978935167726,0.0,-29940.0,0.125,0.0,231.49606212973592,0.0,0.125,0.521240181,0.03915862881654188,0.0,22805.0,0.125,0.0,-231.49606212973592,0.0,0.0,3.354491844,0.0389742654887804,0.0,-1257.0,0.375,0.0,231.49606212973592,0.0,0.125,1.649169753,0.03911310992902867,0.0,0.05999999865889549,0.9700000286102295,2.869999885559082,-0.02783203125,0.01263427734375,1.00189208984375,36.66999816894531,0.0,-54.0,-5.2032012939453125,1.8380126953125,Opening,0.0,0.0,0.0,0.0,0.0,0.0,0.0,0.0,
4.296869999999996,0.0,0.0,21339.0,0.125,-22.5,-248.03150296211243,0.0,0.125,0.8532713970000001,0.039458009567918034,0.0,-29939.0,0.375,0.0,248.03150296211243,0.0,0.125,0.521240181,0.039710161577937636,0.0,22805.0,0.125,0.0,-248.03150296211243,0.0,0.0,3.352050438,0.03952320157050852,0.0,-1257.0,0.5,0.0,248.03150296211243,0.0,0.125,1.645507644,0.039664001576103405,0.0,0.07000000029802322,0.8600000143051147,2.890000104904175,-0.03314208984375,-0.00140380859375,1.00177001953125,36.66999816894531,0.0,-48.0,-5.1880035400390625,1.8380126953125,Opening,0.0,0.0,0.0,0.0,0.0,0.0,0.0,0.0,
4.332862999999998,0.0,0.0,21339.0,0.125,-60.0,-330.70866018533707,0.0,0.125,0.8532713970000001,0.039458009567918034,0.0,-29939.0,0.375,15.0,330.70866018533707,0.0,0.125,0.5175780720000001,0.039710161577937636,0.0,22804.0,0.125,0.0,-330.70866018533707,0.0,0.0,3.343505517,0.03952320157050852,0.0,-1257.0,0.75,0.0,330.70866018533707,0.0,0.125,1.645507644,0.039664001576103405,0.0,0.05999999865889549,0.7799999713897705,2.869999885559082,-0.0465087890625,-0.0159912109375,1.021240234375,36.66999816894531,0.0,-61.0,-5.1730804443359375,1.8380126953125,Opening,0.0,0.0,0.0,0.0,0.0,0.0,0.0,0.0,
4.368070999999996,0.0,0.0,21327.0,0.125,-75.0,-363.77954185009,0.0,0.125,0.8532713970000001,0.039320999459854296,0.0,-29939.0,0.5,37.5,363.77954185009,0.0,0.125,0.520019478,0.03957227592205688,0.0,22804.0,0.375,-22.5,-363.77954185009,0.0,0.0,3.354491844,0.039385965096152685,0.0,-1257.0,0.875,0.0,363.77954185009,0.0,0.125,1.645507644,0.039526276201668896,-0.0012207029999999897,0.03999999910593033,0.6299999952316284,2.869999885559082,-0.0635986328125,0.0093994140625,0.9976806640625,36.66999816894531,0.0,-74.0,-5.1513824462890625,1.8380126953125,Opening,0.0,0.0,0.0,0.0,0.0,0.0,0.0,0.0,
4.393671000000002,0.0,0.0,21327.0,0.375,-67.5,-363.77954185009,0.0,0.125,0.860595615,0.039320999459854296,0.0,-29939.0,0.75,105.0,363.77954185009,0.0,0.125,0.521240181,0.03957227592205688,0.0,22804.0,0.375,-45.0,-363.77954185009,0.0,0.0,3.359374656,0.039385965096152685,0.0,-1255.0,1.25,7.5,363.77954185009,0.0,0.125,1.645507644,0.039526276201668896,0.0,0.029999999329447746,0.5199999809265137,2.880000114440918,-0.2113037109375,-0.0697021484375,1.03265380859375,36.66999816894531,0.0,-224.0,-5.1374664306640625,1.838043212890625,Opening,0.0,0.0,0.0,0.0,0.0,0.0,0.0,0.0,
4.428842000000004,0.0,0.0,21327.0,0.375,-60.0,-363.77954185009,0.0,0.125,0.850829991,0.039458009567918034,0.0,-29921.0,1.0,120.0,363.77954185009,0.0,0.125,0.521240181,0.039710161577937636,0.0012207030000004337,22784.0,0.875,-105.0,-363.77954185009,0.0,0.0,3.358153953,0.03952320157050852,0.004882811999999959,-1255.0,1.375,7.5,363.77954185009,0.0,0.125,1.645507644,0.039664001576103405,-0.0024414059999999793,0.03999999910593033,0.3799999952316284,2.9100000858306885,-0.081787109375,-0.0294189453125,1.06011962890625,36.66999816894531,0.0,-90.0,-5.1242218017578125,1.8380584716796875,Opening,0.0,0.0,0.0,0.0,0.0,0.0,0.0,0.0,
4.458415999999997,0.0,0.0,21327.0,0.75,-37.5,-363.77954185009,0.0,0.125,0.8435057730000001,0.039869030092604604,0.0,-29921.0,1.25,97.5,363.77954185009,0.0,0.125,0.5175780720000001,0.04012380868345264,0.0,22784.0,0.875,-127.5,-363.77954185009,0.0,0.0,3.358153953,0.03993490117788081,0.0,-1255.0,1.625,37.5,363.77954185009,0.0,0.125,1.640624832,0.040077167848743635,0.0024414059999999793,0.019999999552965164,0.3100000023841858,2.930000066757202,-0.03924560546875,0.0125732421875,0.99951171875,36.66999816894531,0.0,-44.0,-5.1114044189453125,1.8379669189453125,Opening,0.0,0.0,0.0,0.0,0.0,0.0,0.0,0.0,
4.490445999999996,0.0,0.0,21319.0,1.0,-45.0,-380.31496703624725,0.0,0.125,0.8532713970000001,0.040143043775728214,0.0,-29921.0,1.25,75.0,380.31496703624725,0.0,0.125,0.521240181,0.04039957342046186,0.0,22784.0,0.875,-120.0,-380.31496703624725,0.0,0.0,3.359374656,0.040209367582794885,0.0,-1255.0,1.625,67.5,380.31496703624725,0.0,0.125,1.646728347,0.040352612030503,0.0,0.009999999776482582,0.23999999463558197,2.930000066757202,-0.036376953125,-0.0120849609375,1.03424072265625,36.66999816894531,0.0,-41.0,-5.098785400390625,1.837921142578125,Opening,0.0,0.0,0.0,0.0,0.0,0.0,0.0,0.0,
4.526125,0.0,0.0,21319.0,1.25,-75.0,-380.31496703624725,0.0,0.125,0.8532713970000001,0.040143043775728214,0.0,-29921.0,1.75,60.0,380.31496703624725,0.0,0.125,0.521240181,0.04039957342046186,0.0012207030000004337,22784.0,1.0,-105.0,-380.31496703624725,0.0,0.0,3.358153953,0.040209367582794885,0.0,-1229.0,1.5,150.0,380.31496703624725,0.0,0.125,1.6308592080000002,0.040352612030503,0.0024414059999999793,0.0,0.1899999976158142,2.9000000953674316,-0.07623291015625,-0.00933837890625,1.0416259765625,36.66999816894531,0.0,-80.0,-5.0865020751953125,1.837921142578125,Opening,0.0,0.0,0.0,0.0,0.0,0.0,0.0,0.0,
4.554021000000008,0.0,0.0,21319.0,1.25,-82.5,-380.3149670362473,0.0,0.125,0.852050694,0.039732023251042414,0.0,-29908.0,1.875,75.0,380.3149670362473,0.0,0.125,0.521240181,0.039985926314947635,0.0,22769.0,1.5,-90.0,-380.3149670362473,0.0,0.0,3.358153953,0.03979766797542338,0.0,-1229.0,1.5,172.5,380.3149670362473,0.0,0.25,1.6308592080000002,0.039939445757863554,0.0,0.009999999776482582,0.07000000029802322,2.8499999046325684,-0.06787109375,0.00787353515625,1.07696533203125,36.66999816894531,0.0,-68.0,-5.0746002197265625,1.837860107421875,Opening,0.0,0.0,0.0,0.0,0.0,0.0,0.0,0.0,
4.588,0.0,0.0,21302.0,1.625,-90.0,-396.8503922224045,0.0,0.125,0.852050694,0.038909978935167726,0.0012207030000001007,-29908.0,2.25,97.5,396.8503922224045,0.0,0.125,0.518798775,0.03915862881654188,0.0,22769.0,1.5,-90.0,-396.8503922224045,0.0,0.0,3.358153953,0.0389742654887804,0.0,-1229.0,1.75,142.5,396.8503922224045,0.0,0.25,1.6296385050000002,0.03911310992902867,0.0,0.009999999776482582,0.0,2.8399999141693115,-0.03790283203125,-0.01263427734375,1.00830078125,36.66999816894531,0.0,-38.0,-5.05731201171875,1.8380279541015625,Opening,0.0,0.0,0.0,0.0,0.0,0.0,0.0,0.0,
4.6200020000000075,0.0,0.0,21302.0,1.625,-97.5,-396.8503922224045,0.0,0.25,0.847167882,0.038909978935167726,0.0,-29908.0,2.5,112.5,396.8503922224045,0.0,0.125,0.521240181,0.03915862881654188,0.0,22769.0,1.875,-105.0,-396.8503922224045,0.0,0.0,3.358153953,0.0389742654887804,0.0,-1229.0,1.875,112.5,396.8503922224045,0.0,0.25,1.6320799110000002,0.03911310992902867,0.0,0.009999999776482582,-0.09000000357627869,2.880000114440918,-0.05499267578125,-0.02142333984375,1.009765625,36.63999938964844,0.0,-54.0,-5.0462493896484375,1.8380279541015625,Opening,0.0,0.0,0.0,0.0,0.0,0.0,0.0,0.0,
4.648445000000007,0.0,0.0,21302.0,2.0,-127.5,-413.38581740856176,0.0,0.125,0.860595615,0.039458009567918034,0.0,-29885.0,2.75,127.5,413.38581740856176,0.0,0.125,0.521240181,0.039710161577937636,0.0,22769.0,2.0,-120.0,-413.38581740856176,0.0,0.0,3.359374656,0.03952320157050852,0.0,-1210.0,2.125,105.0,413.38581740856176,0.0,0.25,1.618652178,0.039664001576103405,0.0,0.0,-0.18000000715255737,2.9200000762939453,-0.0537109375,-0.00238037109375,1.0321044921875,36.63999938964844,0.0,-50.0,-5.0355224609375,1.8380279541015625,Opening,0.0,0.0,0.0,0.0,0.0,0.0,0.0,0.0,
4.681703000000009,0.0,0.0,21302.0,2.0,-142.5,-413.3858174085617,0.0,0.125,0.8532713970000001,0.0400060369341668,0.0,-29885.0,2.875,142.5,413.3858174085617,0.0,0.125,0.521240181,0.04026169105195764,0.0012207030000004337,22748.0,2.125,-120.0,-413.3858174085617,0.0,0.0,3.358153953,0.040072134380338235,0.0,-1210.0,2.625,187.5,413.3858174085617,0.0,0.25,1.616210772,0.04021488993962371,0.0,-0.009999999776482582,-0.3199999928474426,2.930000066757202,-0.08465576171875,0.00830078125,1.04071044921875,36.63999938964844,0.0,-78.0,-5.0251312255859375,1.8379364013671875,Opening,0.0,0.0,0.0,0.0,0.0,0.0,0.0,0.125,
4.723046000000002,0.0,0.0,21271.0,2.125,-172.5,-413.3858174085617,0.0,0.125,0.8532713970000001,0.039869030092604604,0.0012207030000001007,-29885.0,2.875,157.5,413.3858174085617,0.0,0.125,0.521240181,0.04012380868345264,-0.0012207030000004337,22748.0,2.375,-135.0,-413.3858174085617,0.0,0.0,3.359374656,0.03993490117788081,0.0,-1210.0,2.75,217.5,413.3858174085617,0.0,0.25,1.614990069,0.040077167848743635,-0.008544921000000372,0.0,-0.49000000953674316,2.890000104904175,-0.0628662109375,-0.01336669921875,1.1630859375,36.63999938964844,0.0,-53.0,-5.010345458984375,1.837890625,Opening,0.0,0.0,0.0,0.0,0.0,0.0,0.0,0.125,
4.751233999999997,0.0,0.0,21271.0,2.125,-202.5,-413.38581740856165,0.0,0.125,0.852050694,0.03959501640947945,0.0,-29885.0,3.125,202.5,413.38581740856165,0.0,0.125,0.521240181,0.039848043946441855,0.0,22748.0,2.5,-150.0,-413.38581740856165,0.0,0.0,3.359374656,0.03966043477296517,0.0,-1173.0,2.5,225.0,413.38581740856165,0.0,0.25,1.616210772,0.039801723666982695,0.0,-0.019999999552965164,-0.550000011920929,2.9000000953674316,-0.0517578125,0.02154541015625,0.97882080078125,36.63999938964844,0.0,-41.0,-5.00103759765625,1.8378448486328125,Opening,0.0,0.0,0.0,0.0,0.0,0.0,0.0,0.0,
4.7869070000000065,0.0,0.0,21271.0,2.125,-217.5,-413.3858174085617,0.0,0.125,0.8532713970000001,0.039732023251042414,0.0012207030000001007,-29845.0,3.125,225.0,413.3858174085617,0.0,0.125,0.521240181,0.039985926314947635,0.0,22748.0,2.5,-202.5,-413.3858174085617,0.0,0.0,3.358153953,0.03979766797542338,0.0,-1173.0,2.5,225.0,413.3858174085617,0.0,0.25,1.614990069,0.039939445757863554,0.0,-0.019999999552965164,-0.6800000071525574,2.9600000381469727,-0.1019287109375,-0.0087890625,1.0230712890625,36.63999938964844,0.0,-89.0,-4.9921112060546875,1.8378143310546875,Opening,0.0,0.0,0.0,0.0,0.0,0.0,0.0,0.0,
