Time,ClimberA1,ClimberA2,FRpos,FRCurrent,FRspeed,FRsetpoint,FRApos,FRACurrent,FREncpos,FREncSetpoint,FREncSpeed,FLpos,FLCurrent,FLspeed,FLsetpoint,FLApos,FLACurrent,FLEncpos,FLEncSetpoint,FLEncSpeed,BRpos,BRCurrent,BRspeed,BRsetpoint,BRApos,BRACurrent,BREncpos,BREncSetpoint,BREncSpeed,BLpos,BLCurrent,BLspeed,BLsetpoint,BLApos,BLACurrent,BLEncpos,BLEncSetpoint,BLEncSpeed,navx_Pitch,navx_Roll,navx_Yaw,navx_XAcc,navx_YAcc,navx_ZAcc,navx_Temp,navx_Bar,navx_Alt,navx_XDis,navx_YDis,GearPlacerState,ShootOutputV,ShootOutputCurrent,ShootEncPos,ShootEncVelocity,ShootSpeed,ShootSetpoint,CarouselSetpoint,CarouselCurrent,
0.4104519999999902,0.0,0.0,96206.0,0.0,0.0,0.0,0.0,0.125,0.8142089010000001,0.01,0.0,-80404.0,0.0,0.0,-0.0,0.0,0.125,0.506591745,0.01,0.0,93045.0,0.0,0.0,0.0,0.0,0.125,3.3776852010000002,0.01,0.0,-80536.0,0.0,0.0,-0.0,0.0,0.125,1.621093584,0.01,0.0,-0.5600000023841858,-0.949999988079071,0.0,-0.01849365234375,-0.01031494140625,1.01580810546875,33.779998779296875,0.0,-1.0,0.2821044921875,-1.4230804443359375,Waiting,0.0,0.0,35.0,0.0,0.0,0.0,0.0,0.0,
0.48386499999999066,0.0,0.0,96206.0,0.0,0.0,0.0,0.0,0.125,0.8154296040000001,0.01,0.0,-80404.0,0.0,0.0,-0.0,0.0,0.125,0.506591745,0.01,-0.0012207029999995456,93045.0,0.0,0.0,0.0,0.0,0.125,3.3776852010000002,0.01,-0.0024414059999999793,-80536.0,0.0,0.0,-0.0,0.0,0.125,1.621093584,0.01,0.0,-0.5600000023841858,-0.9399999976158142,0.0,-0.01708984375,-0.009765625,1.0238037109375,33.790000915527344,0.0,0.0,0.2821044921875,-1.4230804443359375,Waiting,0.0,0.0,35.0,0.0,0.0,0.0,0.0,0.0,
0.5483740000000107,0.0,0.0,96206.0,0.0,0.0,0.0,0.0,0.125,0.8154296040000001,0.01,0.0,-80404.0,0.0,0.0,-0.0,0.0,0.125,0.506591745,0.01,0.0,93045.0,0.0,0.0,0.0,0.0,0.125,3.3776852010000002,0.01,-0.0012207029999999897,-80536.0,0.0,0.0,-0.0,0.0,0.125,1.621093584,0.01,0.0,-0.5600000023841858,-0.949999988079071,0.0,-0.01641845703125,-0.0118408203125,1.02197265625,33.790000915527344,0.0,0.0,0.2821044921875,-1.4230804443359375,Waiting,0.0,0.0,35.0,0.0,0.0,0.0,0.0,0.0,
0.6124990000000107,0.0,0.0,96206.0,0.0,0.0,0.0,0.0,0.125,0.8142089010000001,0.01,0.0,-80404.0,0.0,0.0,-0.0,0.0,0.125,0.506591745,0.01,0.0,93045.0,0.0,0.0,0.0,0.0,0.125,3.3776852010000002,0.01,-0.0012207029999999897,-80536.0,0.0,0.0,-0.0,0.0,0.125,1.621093584,0.01,0.0,-0.550000011920929,-0.949999988079071,0.0,-0.0169677734375,-0.00823974609375,1.02435302734375,33.790000915527344,0.0,0.0,0.2821044921875,-1.4230804443359375,Waiting,0.0,0.0,35.0,0.0,0.0,0.0,0.0,0.0,
0.674445000000007,0.0,0.0,96206.0,2.0,-15.0,-959.0550988912582,0.0,0.125,0.823974525,4.932250999999998,0.0,-80404.0,2.375,37.5,959.0550988912582,0.0,0.0,0.506591745,4.963769999999998,0.0,93045.0,2.375,0.0,-959.0550988912582,0.0,0.125,3.392333637,0.01,0.0,-80536.0,2.25,7.5,959.0550988912582,0.0,0.125,1.614990069,0.01,0.0,-0.5600000023841858,-0.949999988079071,0.0,-0.57781982421875,-0.0875244140625,0.99981689453125,33.790000915527344,0.0,-560.0,0.28173828125,-1.423126220703125,Waiting,0.0,0.0,35.0,0.0,0.0,0.0,0.0,0.0,
0.7374679999999935,0.0,0.0,96182.0,2.875,-150.0,-496.06300592422485,0.0,0.125,0.825195228,4.932250999999998,0.0,-80383.0,4.75,142.5,496.06300592422485,0.0,0.0,0.507812448,4.963769999999998,0.0,93033.0,2.75,-67.5,-496.06300592422485,0.0,0.125,3.391112934,0.01,0.0,-80517.0,2.875,135.0,496.06300592422485,0.0,0.125,1.616210772,0.01,0.0,-0.5600000023841858,-1.6200000047683716,0.0,-0.0191650390625,0.00128173828125,1.2109375,33.790000915527344,0.0,15.0,0.2767181396484375,-1.4231719970703125,Waiting,0.0,0.0,35.0,0.0,0.0,0.0,0.0,0.0,
0.8052449999999953,0.0,0.0,96182.0,0.25,-150.0,0.0,0.0,0.125,0.825195228,4.932250999999998,0.0,-80383.0,0.875,135.0,0.0,0.0,0.0,0.506591745,4.963769999999998,0.0,93033.0,0.25,-120.0,0.0,0.0,0.125,3.392333637,0.01,0.0,-80517.0,0.375,150.0,0.0,0.0,0.125,1.619872881,0.01,0.0,-0.5799999833106995,-1.5800000429153442,-0.03999999910593033,0.025634765625,-0.1221923828125,0.8846435546875,33.790000915527344,0.0,50.0,0.27252197265625,-1.423675537109375,Waiting,0.0,0.0,35.0,0.0,0.0,0.0,0.0,0.0,
0.8685989999999875,0.0,0.0,96171.0,0.0,-82.5,0.0,0.0,0.125,0.825195228,4.932250999999998,0.0,-80372.0,0.0,52.5,0.0,0.0,0.0,0.506591745,4.963769999999998,0.0,93020.0,0.0,-75.0,0.0,0.0,0.125,3.392333637,0.01,0.0,-80505.0,0.0,60.0,0.0,0.0,0.125,1.619872881,0.01,0.004882811999999959,-0.5899999737739563,-1.409999966621399,-0.14000000059604645,0.00250244140625,-0.0096435546875,0.90283203125,33.790000915527344,0.0,24.0,0.2737884521484375,-1.4241180419921875,Waiting,0.0,0.0,35.0,0.0,0.0,0.0,0.0,0.0,
0.9314729999999981,0.0,0.0,96171.0,0.0,0.0,0.0,0.0,0.125,0.823974525,4.932250999999998,0.0,-80372.0,0.0,0.0,0.0,0.0,0.0,0.506591745,4.963769999999998,0.0,93020.0,0.0,-7.5,0.0,0.0,0.125,3.391112934,0.01,-0.0012207029999999897,-80505.0,0.0,15.0,0.0,0.0,0.125,1.6345213170000001,0.01,0.0,-0.5799999833106995,-1.1699999570846558,-0.029999999329447746,0.06109619140625,-0.0252685546875,0.98272705078125,33.790000915527344,0.0,81.0,0.276458740234375,-1.4242095947265625,Waiting,0.0,0.0,35.0,0.0,0.0,0.0,0.0,0.0,
0.9928099999999976,0.0,0.0,96170.0,0.0,0.0,0.0,0.0,0.125,0.825195228,4.932250999999998,0.0,-80368.0,0.0,30.0,0.0,0.0,0.0,0.506591745,4.963769999999998,0.0,93020.0,0.0,0.0,0.0,0.0,0.125,3.387450825,0.01,0.0,-80500.0,0.0,37.5,0.0,0.0,0.125,1.6345213170000001,0.01,-4.943351564,-0.5600000023841858,-0.8199999928474426,-0.07999999821186066,0.0374755859375,-0.00189208984375,1.024169921875,33.779998779296875,0.0,52.0,0.282867431640625,-1.4243316650390625,Waiting,0.0,0.0,35.0,0.0,0.0,0.0,0.0,0.0,
1.061445000000007,0.0,0.0,96170.0,0.0,0.0,-115.74803106486797,0.0,0.125,0.825195228,4.932250999999998,0.0,-80368.0,0.0,22.5,115.74803106486797,0.0,0.0,0.506591745,4.963769999999998,0.0,93020.0,0.125,-22.5,-115.74803106486797,0.0,0.125,3.387450825,0.01,0.0,-80498.0,0.125,15.0,115.74803106486797,0.0,0.125,1.6345213170000001,0.01,0.0,-0.5600000023841858,-0.800000011920929,-0.09000000357627869,-0.0035400390625,-0.00640869140625,1.0440673828125,33.779998779296875,0.0,11.0,0.2845306396484375,-1.42431640625,Waiting,0.0,0.0,35.0,0.0,0.0,0.0,0.0,0.0,
1.1261059999999707,0.0,0.0,96170.0,0.375,-15.0,-462.9921242594719,0.0,0.125,0.825195228,4.932250999999998,0.0,-80367.0,0.5,7.5,462.9921242594719,0.0,0.0,0.506591745,4.963769999999998,0.0,93017.0,0.125,-7.5,-462.9921242594719,0.0,0.125,3.392333637,0.01,0.0,-80498.0,0.5,15.0,462.9921242594719,0.0,0.125,1.6345213170000001,0.01,0.0,-0.5699999928474426,-0.8399999737739563,-0.029999999329447746,-0.0347900390625,-0.0113525390625,1.04962158203125,33.779998779296875,0.0,-19.0,0.284576416015625,-1.42431640625,Waiting,0.0,0.0,35.0,0.0,0.0,0.0,0.0,0.0,
1.1883989999999758,0.0,0.0,96170.0,1.375,-150.0,-661.4173203706741,0.0,0.125,0.825195228,4.932250999999998,0.0,-80367.0,1.75,127.5,661.4173203706741,0.0,0.0,0.506591745,4.963769999999998,0.0,93017.0,1.75,-67.5,-661.4173203706741,0.0,0.125,3.392333637,0.01,0.0,-80477.0,2.125,120.0,661.4173203706741,0.0,0.125,1.619872881,0.01,0.0,-0.5600000023841858,-1.190000057220459,-0.05000000074505806,-0.10260009765625,-0.088623046875,1.190673828125,33.779998779296875,0.0,-77.0,0.2835845947265625,-1.42437744140625,Waiting,0.0,0.0,35.0,0.0,0.0,0.0,0.0,0.0,
1.2499629999999888,0.0,0.0,96144.0,5.125,-157.5,-1124.4094133377075,0.0,0.125,0.825195228,4.932250999999998,0.0,-80344.0,5.5,150.0,1124.4094133377075,0.0,0.0,0.506591745,4.963769999999998,0.0,92995.0,4.375,-165.0,-1124.4094133377075,0.0,0.125,3.388671528,0.01,0.0,-80477.0,5.75,150.0,1124.4094133377075,0.0,0.125,1.616210772,0.01,0.0,-0.5899999737739563,-1.5,-0.03999999910593033,-0.27691650390625,-0.0947265625,1.0924072265625,33.779998779296875,0.0,-248.0,0.279144287109375,-1.4250030517578125,Waiting,0.0,0.0,35.0,0.0,0.0,0.0,0.0,0.0,
1.3158580000000075,0.0,0.0,96098.0,9.25,-187.5,-1157.480263710022,0.0,0.125,0.823974525,4.932250999999998,0.0,-80300.0,12.75,240.0,1157.480263710022,0.0,0.0,0.507812448,4.963769999999998,0.0,92958.0,9.0,-210.0,-1157.480263710022,0.0,0.125,3.388671528,0.01,0.0,-80437.0,9.625,217.5,1157.480263710022,0.0,0.125,1.616210772,0.01,0.0,-0.6299999952316284,-2.299999952316284,-0.10000000149011612,-0.25872802734375,0.04400634765625,1.06695556640625,33.779998779296875,0.0,-215.0,0.2664947509765625,-1.426361083984375,Waiting,0.0,0.0,35.0,0.0,0.0,0.0,0.0,0.0,
1.384685999999987,0.0,0.0,96098.0,12.375,-397.5,-1405.5117666721344,0.0,0.125,0.823974525,4.932250999999998,0.0,-80300.0,16.875,450.0,1405.5117666721344,0.0,0.0,0.506591745,4.963769999999998,0.0,92958.0,11.625,-397.5,-1405.5117666721344,0.0,0.125,3.387450825,0.01,0.0,-80437.0,12.0,427.5,1405.5117666721344,0.0,0.125,1.6320799110000002,0.01,0.0,-0.699999988079071,-3.049999952316284,-0.11999999731779099,-0.27606201171875,-0.00555419921875,1.0087890625,33.779998779296875,0.0,-221.0,0.2495880126953125,-1.4279327392578125,Waiting,0.0,0.0,35.0,0.0,0.0,0.0,0.0,0.0,
1.4477060000000055,0.0,0.0,95975.0,13.75,-652.5,-1504.7244429588318,0.0,0.125,0.823974525,4.932250999999998,0.0,-80184.0,17.875,705.0,1504.7244429588318,0.0,0.0,0.49316401200000004,4.963769999999998,0.0,92862.0,13.625,-577.5,-1504.7244429588318,0.0,0.125,3.392333637,0.01,0.0,-80325.0,13.625,682.5,1504.7244429588318,0.0,0.125,1.616210772,0.01,0.0,-0.7400000095367432,-3.7699999809265137,-0.12999999523162842,-0.46441650390625,-0.090576171875,0.95928955078125,33.779998779296875,0.0,-400.0,0.22698974609375,-1.42950439453125,Waiting,0.0,0.0,35.0,0.0,0.0,0.0,0.0,0.0,
1.513185999999987,0.0,0.0,95975.0,12.375,-922.5,-1504.7244429588318,0.0,0.125,0.825195228,4.932250999999998,0.0,-80184.0,15.5,960.0,1504.7244429588318,0.0,0.0,0.506591745,4.963769999999998,0.0,92862.0,13.5,-772.5,-1504.7244429588318,0.0,0.125,3.385009419,0.01,0.0,-80325.0,12.375,937.5,1504.7244429588318,0.0,0.125,1.614990069,0.01,0.0,-0.8299999833106995,-4.570000171661377,-0.10000000149011612,-0.25299072265625,-0.0306396484375,0.8360595703125,33.77000045776367,0.0,-185.0,0.1902923583984375,-1.4315338134765625,Waiting,0.0,0.0,35.0,0.0,0.0,0.0,0.0,0.0,
1.5766109999999753,0.0,0.0,95782.0,10.125,-1155.0,-1504.7244429588318,0.0,0.125,0.825195228,4.932250999999998,0.0,-79993.0,12.625,1200.0,1504.7244429588318,0.0,0.0,0.506591745,4.963769999999998,0.0,92712.0,13.125,-937.5,-1504.7244429588318,0.0,0.125,3.388671528,0.01,0.0,-80142.0,10.375,1147.5,1504.7244429588318,0.0,0.125,1.616210772,0.01,0.0,-0.8799999952316284,-4.940000057220459,-0.029999999329447746,-0.17352294921875,-0.13629150390625,0.9068603515625,33.77000045776367,0.0,-94.0,0.1569976806640625,-1.433502197265625,Waiting,0.0,0.0,35.0,0.0,0.0,0.0,0.0,0.0,
1.6434959999999845,0.0,0.0,95782.0,8.375,-1327.5,-1504.7244429588318,0.0,0.125,0.825195228,4.932250999999998,0.0,-79993.0,9.5,1365.0,1504.7244429588318,0.0,0.0,0.506591745,4.963769999999998,0.0,92712.0,12.75,-1080.0,-1504.7244429588318,0.0,0.125,3.388671528,0.01,0.0,-80142.0,8.5,1327.5,1504.7244429588318,0.0,0.125,1.614990069,0.01,0.0,-0.8700000047683716,-5.309999942779541,-0.019999999552965164,-0.05303955078125,0.06024169921875,0.995849609375,33.77000045776367,0.0,39.0,0.121734619140625,-1.435577392578125,Waiting,0.0,0.0,35.0,0.0,0.0,0.0,0.0,0.0,
1.7102649999999557,0.0,0.0,95544.0,7.0,-1455.0,-1504.7244429588318,0.0,0.125,0.825195228,4.932250999999998,0.0,-79756.0,7.25,1485.0,1504.7244429588318,0.0,0.0,0.507812448,4.963769999999998,0.0,92519.0,12.375,-1215.0,-1504.7244429588318,0.0,0.125,3.391112934,0.01,0.0,-79910.0,6.0,1492.5,1504.7244429588318,0.0,0.125,1.614990069,0.01,0.0,-0.9700000286102295,-5.539999961853027,0.05000000074505806,-0.1627197265625,-0.0128173828125,0.725830078125,33.77000045776367,0.0,-91.0,0.074737548828125,-1.4373321533203125,Waiting,0.0,0.0,35.0,0.0,0.0,0.0,0.0,0.0,
1.773201000000001,0.0,0.0,95544.0,4.625,-1605.0,-1504.7244429588318,0.0,0.125,0.8276366340000001,4.932250999999998,0.0,-79756.0,5.5,1582.5,1504.7244429588318,0.0,0.0,0.505371042,4.963769999999998,0.0,92519.0,11.25,-1342.5,-1504.7244429588318,0.0,0.125,3.387450825,0.01,0.0,-79910.0,4.75,1582.5,1504.7244429588318,0.0,0.125,1.644286941,0.01,0.0,-0.9399999976158142,-5.599999904632568,0.17000000178813934,-0.07049560546875,0.0799560546875,1.073486328125,33.77000045776367,0.0,34.0,0.0365753173828125,-1.43865966796875,Waiting,0.0,0.0,35.0,0.0,0.0,0.0,0.0,0.0,
1.835932999999961,0.0,0.0,95276.0,3.75,-1687.5,-1504.7244429588318,0.0,0.125,0.823974525,4.932250999999998,0.0,-79495.0,3.75,1650.0,1504.7244429588318,0.0,0.0,0.510253854,4.963769999999998,0.0,92290.0,10.0,-1462.5,-1504.7244429588318,0.0,0.125,3.392333637,0.01,0.0,-79650.0,4.0,1665.0,1504.7244429588318,0.0,0.25,1.644286941,0.01,0.0,-0.9700000286102295,-5.579999923706055,0.25,0.0103759765625,-0.0821533203125,1.09130859375,33.77000045776367,0.0,116.0,-0.0108489990234375,-1.440521240234375,Waiting,0.0,0.0,35.0,0.0,0.0,0.0,0.0,0.0,
1.902920999999973,0.0,0.0,95276.0,2.25,-1702.5,-1504.7244429588318,0.0,0.125,0.825195228,4.932250999999998,0.0,-79495.0,2.625,1702.5,1504.7244429588318,0.0,0.0,0.5163573690000001,4.963769999999998,0.0,92290.0,8.625,-1582.5,-1504.7244429588318,0.0,0.125,3.392333637,0.01,0.0,-79374.0,2.25,1710.0,1504.7244429588318,0.0,0.25,1.665038892,0.01,0.0,-1.090000033378601,-5.619999885559082,0.20000000298023224,-0.0350341796875,-0.0235595703125,1.0589599609375,33.77000045776367,0.0,66.0,-0.0572052001953125,-1.44268798828125,Waiting,0.0,0.0,35.0,0.0,0.0,0.0,0.0,0.0,
1.971277000000002,0.0,0.0,95003.0,1.625,-1702.5,-1504.7244429588318,0.0,0.125,0.825195228,4.932250999999998,0.0,-79222.0,1.5,1710.0,1504.7244429588318,0.0,0.125,0.5163573690000001,4.963769999999998,0.0,92029.0,7.25,-1665.0,-1504.7244429588318,0.0,0.125,3.391112934,0.01,0.0,-79374.0,1.5,1732.5,1504.7244429588318,0.0,0.25,1.668701001,0.01,0.0,-1.0499999523162842,-5.21999979019165,0.12999999523162842,-0.06103515625,-0.1124267578125,1.15325927734375,33.77000045776367,0.0,43.0,-0.0927581787109375,-1.44256591796875,Waiting,0.0,0.0,35.0,0.0,0.0,0.0,0.0,0.0,
2.0349830000000075,0.0,0.0,95003.0,0.625,-1717.5,-1306.299215555191,0.0,0.125,0.825195228,4.932250999999998,0.0,-78953.0,0.75,1702.5,1306.299215555191,0.0,0.125,0.520019478,4.963769999999998,0.0,91753.0,4.75,-1732.5,-1306.299215555191,0.0,0.125,3.39355434,0.01,0.0,-79105.0,0.875,1695.0,1306.299215555191,0.0,0.25,1.6833494370000002,0.01,0.0,-1.1299999952316284,-5.0,0.09000000357627869,-0.03082275390625,0.06329345703125,1.02154541015625,33.7599983215332,0.0,58.0,-0.12677001953125,-1.4426422119140625,Waiting,0.0,0.0,35.0,0.0,0.0,0.0,0.0,0.0,
2.100820000000007,0.0,0.0,94730.0,0.0,-1665.0,0.0,0.0,0.125,0.825195228,4.932250999999998,0.0,-78953.0,0.25,1582.5,0.0,0.0,0.125,0.521240181,4.963769999999998,0.003662108999999525,91753.0,0.375,-1732.5,0.0,0.0,0.125,3.392333637,0.01,0.0,-79105.0,0.125,1590.0,0.0,0.0,0.25,1.6833494370000002,0.01,0.0,-1.090000033378601,-4.440000057220459,-0.05999999865889549,0.0986328125,0.05816650390625,1.0521240234375,33.7599983215332,0.0,179.0,-0.16571044921875,-1.442535400390625,Waiting,0.0,0.0,35.0,0.0,0.0,0.0,0.0,0.0,
2.169777999999991,0.0,0.0,94489.0,0.0,-1485.0,0.0,0.0,0.125,0.825195228,4.932250999999998,0.0012207029999999897,-78698.0,0.0,1590.0,0.0,0.0,0.125,0.526122993,4.963769999999998,0.0,91489.0,0.0,-1657.5,0.0,0.0,0.125,3.3789059040000002,0.01,0.0,-78848.0,0.0,1627.5,0.0,0.0,0.25,1.6638181890000001,0.01,0.0,-1.0499999523162842,-3.9200000762939453,-0.3400000035762787,0.13726806640625,0.0557861328125,1.0609130859375,33.7599983215332,0.0,209.0,-0.185821533203125,-1.442413330078125,Waiting,0.0,0.0,35.0,0.0,0.0,0.0,0.0,0.0,
2.2338349999999627,0.0,0.0,94489.0,0.0,-1500.0,0.0,0.0,0.125,0.825195228,4.932250999999998,-0.0012207029999999897,-78698.0,0.0,1612.5,0.0,0.0,0.125,0.52490229,4.963769999999998,0.004882811999999959,91489.0,0.0,-1552.5,0.0,0.0,0.125,3.392333637,0.01,-0.014648435999999876,-78848.0,0.0,1575.0,0.0,0.0,0.25,1.649169753,0.01,-0.019531248000000057,-1.0299999713897705,-3.369999885559082,-0.7599999904632568,-0.0782470703125,-0.0372314453125,1.40582275390625,33.7599983215332,0.0,4.0,-0.2142333984375,-1.4420623779296875,Waiting,0.0,0.0,35.0,0.0,0.0,0.0,0.0,0.0,
2.296866999999969,0.0,0.0,94264.0,0.0,-1395.0,0.0,0.0,0.125,0.825195228,4.932250999999998,0.0,-78455.0,0.0,1515.0,0.0,0.0,0.125,0.526122993,4.963769999999998,0.0,91254.0,0.0,-1470.0,0.0,0.0,0.125,3.392333637,0.01,0.014648435999999876,-78606.0,0.0,1470.0,0.0,0.0,0.25,1.644286941,0.01,0.0,-1.0199999809265137,-3.0399999618530273,-0.9399999976158142,-0.03057861328125,-0.02972412109375,1.425537109375,33.7599983215332,0.0,45.0,-0.2329864501953125,-1.441802978515625,Waiting,0.0,0.0,35.0,0.0,0.0,0.0,0.0,0.0,
2.3793519999999555,0.0,0.0,94264.0,0.0,-1365.0,0.0,0.0,0.125,0.825195228,4.932250999999998,0.0,-78455.0,0.0,1380.0,0.0,0.0,0.125,0.520019478,4.963769999999998,0.0,91254.0,0.0,-1357.5,0.0,0.0,0.125,3.391112934,0.01,0.0,-78606.0,0.0,1365.0,0.0,0.0,0.25,1.644286941,0.01,-0.004882811999999959,-1.0299999713897705,-2.509999990463257,-1.0,0.001220703125,0.11962890625,1.21728515625,33.7599983215332,0.0,52.0,-0.251251220703125,-1.441009521484375,Waiting,0.0,0.0,35.0,0.0,0.0,0.0,0.0,0.0,
2.437030999999959,0.0,0.0,94061.0,0.0,-1260.0,0.0,0.0,0.125,0.825195228,4.932250999999998,0.0,-78243.0,0.0,1297.5,0.0,0.0,0.0,0.535888617,4.963769999999998,-0.004882811999999959,91047.0,0.0,-1260.0,0.0,0.0,0.125,3.387450825,0.01,0.0,-78396.0,0.0,1290.0,0.0,0.0,0.25,1.644286941,0.01,0.0,-0.9900000095367432,-2.0799999237060547,-1.2699999809265137,0.14886474609375,-0.02789306640625,0.73028564453125,33.7599983215332,0.0,175.0,-0.2647247314453125,-1.4387359619140625,Waiting,0.0,0.0,35.0,0.0,0.0,0.0,0.0,0.0,
2.5001809999999822,0.0,0.0,94061.0,0.0,-1162.5,0.0,0.0,0.125,0.825195228,4.932250999999998,0.0,-78243.0,0.0,1222.5,0.0,0.0,0.25,0.535888617,4.963769999999998,0.014648435999999876,91047.0,0.0,-1170.0,0.0,0.0,0.125,3.3679195770000003,0.01,-0.004882811999999959,-78209.0,0.0,1215.0,0.0,0.0,0.25,1.644286941,0.01,0.0,-1.0099999904632568,-1.7200000286102295,-1.4900000095367432,0.1500244140625,-0.06494140625,0.4427490234375,33.7599983215332,0.0,164.0,-0.2726593017578125,-1.4382781982421875,Waiting,0.0,0.0,35.0,0.0,0.0,0.0,0.0,0.0,
2.5691109999999755,0.0,0.0,93884.0,0.0,-1087.5,0.0,0.0,0.125,0.825195228,4.932250999999998,0.0,-78054.0,0.0,1117.5,0.0,0.0,0.25,0.534667914,4.963769999999998,0.0,90865.0,0.0,-1095.0,0.0,0.0,0.125,3.386230122,0.01,-0.018310544999999845,-78209.0,0.0,1132.5,0.0,0.0,0.25,1.644286941,0.01,0.0,-1.059999942779541,-1.399999976158142,-1.5299999713897705,0.04949951171875,-0.06707763671875,0.58038330078125,33.72999954223633,0.0,65.0,-0.278167724609375,-1.43829345703125,Waiting,0.0,0.0,35.0,0.0,0.0,0.0,0.0,0.0,
2.6309469999999857,0.0,0.0,93884.0,0.0,-1027.5,0.0,0.0,0.125,0.823974525,4.932250999999998,0.0,-77896.0,0.0,1020.0,0.0,0.0,0.25,0.535888617,4.963769999999998,0.0,90707.0,0.0,-1020.0,0.0,0.0,0.0,3.387450825,0.01,0.018310544999999845,-78050.0,0.0,1035.0,0.0,0.0,0.25,1.645507644,0.01,0.0,-1.0399999618530273,-1.100000023841858,-1.5099999904632568,0.1527099609375,-0.08197021484375,0.76953125,33.72999954223633,0.0,169.0,-0.2820892333984375,-1.438079833984375,Waiting,0.0,0.0,35.0,0.0,0.0,0.0,0.0,0.0,
2.692185999999987,0.0,0.0,93725.0,0.0,-975.0,0.0,0.0,0.125,0.823974525,4.932250999999998,0.0,-77896.0,0.0,945.0,0.0,0.0,0.25,0.534667914,4.963769999999998,0.0,90707.0,0.0,-930.0,0.0,0.0,0.125,3.387450825,0.01,0.0,-78050.0,0.0,937.5,0.0,0.0,0.25,1.644286941,0.01,0.0,-0.9800000190734863,-0.8500000238418579,-1.5499999523162842,0.1546630859375,-0.063720703125,0.85760498046875,33.72999954223633,0.0,168.0,-0.2825927734375,-1.4371795654296875,Waiting,0.0,0.0,35.0,0.0,0.0,0.0,0.0,0.0,
2.754103000000003,0.0,0.0,93598.0,0.0,-840.0,0.0,0.0,0.125,0.825195228,4.932250999999998,0.0,-77762.0,0.0,870.0,0.0,0.0,0.25,0.535888617,4.963769999999998,0.0,90578.0,0.0,-832.5,0.0,0.0,0.125,3.387450825,0.01,0.0,-77911.0,0.0,877.5,0.0,0.0,0.25,1.619872881,0.01,0.0,-0.7699999809265137,0.7799999713897705,-1.8200000524520874,1.91815185546875,0.1956787109375,0.98583984375,33.72999954223633,0.0,1896.0,-0.276580810546875,-1.43511962890625,Waiting,0.0,0.0,35.0,0.0,0.0,0.0,0.0,0.0,
2.8245139999999664,0.0,0.0,93598.0,0.0,-607.5,0.0,0.0,0.125,0.825195228,4.932250999999998,0.0,-77762.0,0.0,705.0,0.0,0.0,0.25,0.534667914,4.963769999999998,0.0,90578.0,0.0,-712.5,0.0,0.0,0.125,3.382568013,0.01,0.0012207029999999897,-77911.0,0.0,705.0,0.0,0.0,0.125,1.6101072570000001,0.01,4.93358594,-0.8899999856948853,3.240000009536743,-2.4200000762939453,0.3167724609375,-0.27557373046875,1.36376953125,33.72999954223633,0.0,249.0,-0.2354736328125,-1.42401123046875,Waiting,0.0,0.0,35.0,0.0,0.0,0.0,0.0,0.0,
2.8879219999999624,0.0,0.0,93648.0,0.0,150.0,0.0,0.0,0.125,0.820312416,4.932250999999998,0.0,-77766.0,0.0,105.0,0.0,0.0,0.25,0.535888617,4.963769999999998,-0.0012207029999995456,90513.0,0.0,-472.5,0.0,0.0,0.125,3.3728023890000003,0.01,-0.004882811999999959,-77927.0,0.0,-187.5,0.0,0.0,0.25,1.591796712,0.01,-0.009765623999999917,-1.159999966621399,3.440000057220459,-2.549999952316284,0.0953369140625,-0.24578857421875,-0.1707763671875,33.72999954223633,0.0,116.0,-0.20904541015625,-1.4188232421875,Waiting,0.0,0.0,35.0,0.0,0.0,0.0,0.0,0.0,
2.950795999999973,0.0,0.0,93648.0,0.0,562.5,0.0,0.0,0.125,0.810546792,4.932250999999998,0.0,-77766.0,0.0,-345.0,0.0,0.0,0.25,0.534667914,4.963769999999998,0.0012207029999995456,90513.0,0.0,-135.0,0.0,0.0,0.0,3.3679195770000003,0.01,-0.009765623999999917,-77927.0,0.0,-352.5,0.0,0.0,0.25,1.5820310880000001,0.01,0.0,-1.059999942779541,2.8499999046325684,-2.5299999713897705,-0.07855224609375,0.1256103515625,0.4267578125,33.72999954223633,0.0,-105.0,-0.1671142578125,-1.4121246337890625,Waiting,0.0,0.0,35.0,0.0,0.0,0.0,0.0,0.0,
3.016024999999965,0.0,0.0,93680.0,0.0,240.0,0.0,0.0,0.125,0.8166503070000001,4.932250999999998,4.918823267,-77819.0,0.0,-337.5,0.0,0.0,0.25,0.531005805,4.963769999999998,0.0,90519.0,0.0,75.0,0.0,0.0,0.0,3.3679195770000003,0.01,-0.006103514999999948,-77982.0,0.0,-330.0,0.0,0.0,0.25,1.5820310880000001,0.01,-0.010986326999999463,-1.0199999809265137,2.119999885559082,-2.640000104904175,-0.19256591796875,-0.09619140625,1.2025146484375,33.72999954223633,0.0,-233.0,-0.137664794921875,-1.405303955078125,Waiting,0.0,0.0,35.0,0.0,0.0,0.0,0.0,0.0,
3.080304000000004,0.0,0.0,93680.0,0.0,150.0,0.0,0.0,0.125,0.8154296040000001,4.932250999999998,0.006103515000000392,-77819.0,0.0,-232.5,0.0,0.0,0.25,0.531005805,4.963769999999998,-0.004882811999999959,90519.0,0.0,202.5,0.0,0.0,0.0,3.3679195770000003,0.01,0.0,-77982.0,0.0,-240.0,0.0,0.0,0.25,1.595458821,0.01,0.0,-1.0499999523162842,1.7200000286102295,-2.700000047683716,-0.12066650390625,0.0032958984375,1.1600341796875,33.709999084472656,0.0,-156.0,-0.1118621826171875,-1.4039154052734375,Waiting,0.0,0.0,35.0,0.0,0.0,0.0,0.0,0.0,
3.1438979999999863,0.0,0.0,93712.0,0.0,202.5,0.0,0.0,0.125,0.810546792,4.932250999999998,-0.0012207030000004337,-77850.0,0.0,-195.0,0.0,0.0,0.125,0.526122993,4.963769999999998,0.0,90551.0,0.0,172.5,0.0,0.0,0.0,3.3691402800000003,0.01,0.0,-78012.0,0.0,-172.5,0.0,0.0,0.25,1.6052244450000002,0.01,0.014648435999999876,-1.0299999713897705,1.4800000190734863,-2.7100000381469727,-0.169189453125,-0.0072021484375,1.05682373046875,33.709999084472656,0.0,-196.0,-0.0890045166015625,-1.4039154052734375,Waiting,0.0,0.0,35.0,0.0,0.0,0.0,0.0,0.0,
3.2083679999999584,0.0,0.0,93712.0,0.0,90.0,0.0,0.0,0.125,0.810546792,4.932250999999998,-0.004882811999999959,-77850.0,0.0,-135.0,0.0,0.0,0.125,0.52490229,4.963769999999998,-0.004882811999999959,90551.0,0.0,127.5,0.0,0.0,0.0,3.3679195770000003,0.01,0.0012207029999999897,-78012.0,0.0,-105.0,0.0,0.0,0.25,1.6064451480000002,0.01,0.0,-1.0,1.0299999713897705,-2.7200000286102295,-0.1175537109375,0.01983642578125,1.05963134765625,33.709999084472656,0.0,-138.0,-0.064727783203125,-1.403656005859375,Waiting,0.0,0.0,35.0,0.0,0.0,0.0,0.0,0.0,
3.271603999999992,0.0,0.0,93721.0,0.0,52.5,0.0,0.0,0.125,0.810546792,4.932250999999998,0.0,-77859.0,0.0,-30.0,0.0,0.0,0.125,0.526122993,4.963769999999998,0.0,90561.0,0.0,30.0,0.0,0.0,0.0,3.3666988740000003,0.01,-0.0012207029999999897,-78023.0,0.0,-37.5,0.0,0.0,0.25,1.6064451480000002,0.01,0.0,-0.9800000190734863,0.7799999713897705,-2.7200000286102295,-0.04119873046875,-0.04443359375,1.03289794921875,33.709999084472656,0.0,-54.0,-0.0483245849609375,-1.4032745361328125,Waiting,0.0,0.0,35.0,0.0,0.0,0.0,0.0,0.0,
3.3356300000000045,0.0,0.0,93721.0,0.0,0.0,0.0,0.0,0.125,0.810546792,4.932250999999998,0.0,-77859.0,0.0,0.0,0.0,0.0,0.125,0.526122993,4.963769999999998,0.0,90561.0,0.0,0.0,0.0,0.0,0.0,3.3691402800000003,0.01,0.0,-78023.0,0.0,0.0,0.0,0.0,0.25,1.6064451480000002,0.01,0.0,-1.0,0.6700000166893005,-2.7100000381469727,-0.02978515625,0.01617431640625,1.0452880859375,33.709999084472656,0.0,-43.0,-0.0333099365234375,-1.403289794921875,Waiting,0.0,0.0,35.0,0.0,0.0,0.0,0.0,0.0,
3.3968539999999923,0.0,0.0,93721.0,0.0,0.0,0.0,0.0,0.125,0.810546792,4.932250999999998,0.0,-77859.0,0.0,0.0,0.0,0.0,0.125,0.526122993,4.963769999999998,0.0,90561.0,0.0,0.0,0.0,0.0,0.0,3.3679195770000003,0.01,0.0,-78023.0,0.0,0.0,0.0,0.0,0.25,1.6064451480000002,0.01,0.0,-0.949999988079071,0.6000000238418579,-2.75,-0.020751953125,-0.0220947265625,1.01806640625,33.709999084472656,0.0,-31.0,-0.0191192626953125,-1.4029083251953125,Waiting,0.0,0.0,35.0,0.0,0.0,0.0,0.0,0.0,
3.4653979999999867,0.0,0.0,93721.0,0.0,0.0,0.0,0.0,0.125,0.811767495,4.932250999999998,0.0,-77859.0,0.0,0.0,0.0,0.0,0.125,0.526122993,4.963769999999998,0.0,90561.0,0.0,0.0,0.0,0.0,0.0,3.3728023890000003,0.01,0.0,-78023.0,0.0,0.0,0.0,0.0,0.25,1.6064451480000002,0.01,0.0,-0.9800000190734863,0.5699999928474426,-2.700000047683716,0.01275634765625,-0.01165771484375,1.0281982421875,33.709999084472656,0.0,2.0,-0.0121917724609375,-1.4030303955078125,Waiting,0.0,0.0,35.0,0.0,0.0,0.0,0.0,0.0,
3.5289020000000018,0.0,0.0,93721.0,0.0,0.0,0.0,0.0,0.125,0.810546792,4.932250999999998,0.0,-77859.0,0.0,0.0,0.0,0.0,0.125,0.52490229,4.963769999999998,0.0,90561.0,0.0,0.0,0.0,0.0,0.0,3.3728023890000003,0.01,0.006103514999999948,-78023.0,0.0,0.0,0.0,0.0,0.25,1.6064451480000002,0.01,0.0,-0.9399999976158142,0.5600000023841858,-2.7300000190734863,0.00299072265625,-0.0067138671875,1.01763916015625,33.709999084472656,0.0,-7.0,-0.0121917724609375,-1.4030303955078125,Waiting,0.0,0.0,35.0,0.0,0.0,0.0,0.0,0.0,
3.59124099999998,0.0,0.0,93721.0,0.0,0.0,0.0,0.0,0.125,0.810546792,4.932250999999998,0.0,-77859.0,0.0,0.0,0.0,0.0,0.125,0.52490229,4.963769999999998,0.0,90561.0,0.0,0.0,0.0,0.0,0.0,3.3728023890000003,0.01,0.0,-78023.0,0.0,0.0,0.0,0.0,0.25,1.6064451480000002,0.01,0.0,-0.949999988079071,0.5099999904632568,-2.7300000190734863,-0.009033203125,-0.01361083984375,1.0299072265625,33.7400016784668,0.0,-18.0,-0.0121917724609375,-1.4030303955078125,Waiting,0.0,0.0,35.0,0.0,0.0,0.0,0.0,0.0,
3.6539899999999905,0.0,0.0,93721.0,0.0,0.0,0.0,0.0,0.125,0.810546792,4.932250999999998,0.0,-77859.0,0.0,0.0,0.0,0.0,0.125,0.526122993,4.963769999999998,0.0,90561.0,0.0,0.0,0.0,0.0,0.0,3.3728023890000003,0.01,-0.0012207029999999897,-78023.0,0.0,0.0,0.0,0.0,0.25,1.6052244450000002,0.01,0.0,-0.9300000071525574,0.46000000834465027,-2.7200000286102295,-0.0211181640625,-0.0130615234375,1.0220947265625,33.7400016784668,0.0,-29.0,-0.0122833251953125,-1.4030303955078125,Waiting,0.0,0.0,35.0,0.0,0.0,0.0,0.0,0.0,
3.7214369999999763,0.0,0.0,93721.0,0.0,0.0,0.0,0.0,0.125,0.811767495,4.932250999999998,0.0,-77859.0,0.0,0.0,0.0,0.0,0.0,0.526122993,4.963769999999998,0.0,90561.0,0.0,0.0,0.0,0.0,0.0,3.3740230920000003,0.01,0.0012207029999999897,-78023.0,0.0,0.0,0.0,0.0,0.25,1.6064451480000002,0.01,0.0,-0.9300000071525574,0.3700000047683716,-2.75,-0.02789306640625,-0.0145263671875,1.0177001953125,33.7400016784668,0.0,-34.0,-0.012969970703125,-1.4030303955078125,Waiting,0.0,0.0,35.0,0.0,0.0,0.0,0.0,0.0,
3.787984999999986,0.0,0.0,93721.0,0.0,0.0,0.0,0.0,0.125,0.811767495,4.932250999999998,0.0,-77859.0,0.0,0.0,0.0,0.0,0.125,0.52490229,4.963769999999998,0.0,90561.0,0.0,0.0,0.0,0.0,0.0,3.3728023890000003,0.01,0.0,-78023.0,0.0,0.0,0.0,0.0,0.25,1.6064451480000002,0.01,0.0,-0.9200000166893005,0.2800000011920929,-2.7300000190734863,-0.01904296875,-0.0167236328125,1.02899169921875,33.7400016784668,0.0,-24.0,-0.0148162841796875,-1.4030303955078125,Waiting,0.0,0.0,35.0,0.0,0.0,0.0,0.0,0.0,
3.850043000000005,0.0,0.0,93721.0,0.0,0.0,0.0,0.0,0.125,0.811767495,4.932250999999998,0.0,-77859.0,0.0,0.0,0.0,0.0,0.125,0.526122993,4.963769999999998,0.0,90561.0,0.0,0.0,0.0,0.0,0.0,3.3728023890000003,0.01,0.0,-78023.0,0.0,0.0,0.0,0.0,0.25,1.6064451480000002,0.01,0.0,-0.9100000262260437,0.25,-2.740000009536743,-0.01416015625,-0.01300048828125,1.02557373046875,33.7400016784668,0.0,-18.0,-0.0157928466796875,-1.4030303955078125,Waiting,0.0,0.0,35.0,0.0,0.0,0.0,0.0,0.0,
3.916262999999977,0.0,0.0,93721.0,0.0,0.0,0.0,0.0,0.125,0.811767495,4.932250999999998,0.0,-77859.0,0.0,0.0,0.0,0.0,0.125,0.526122993,4.963769999999998,0.0,90561.0,0.0,0.0,0.0,0.0,0.0,3.3728023890000003,0.01,0.0,-78023.0,0.0,0.0,0.0,0.0,0.25,1.6052244450000002,0.01,0.0,-0.8999999761581421,0.20000000298023224,-2.740000009536743,-0.01220703125,-0.01593017578125,1.02447509765625,33.7400016784668,0.0,-15.0,-0.0157928466796875,-1.4030303955078125,Waiting,0.0,0.0,35.0,0.0,0.0,0.0,0.0,0.0,
3.9882629999999772,0.0,0.0,93721.0,0.125,0.0,-115.74803106486797,0.0,0.125,0.811767495,4.932250999999998,0.0,-77859.0,0.0,0.0,115.74803106486797,0.0,0.125,0.526122993,4.963769999999998,0.0,90561.0,0.125,0.0,-115.74803106486797,0.0,0.0,3.3728023890000003,0.01,0.0,-78023.0,0.125,0.0,115.74803106486797,0.0,0.25,1.6064451480000002,0.01,0.0,-0.8999999761581421,0.12999999523162842,-2.75,-0.02044677734375,-0.0140380859375,1.01605224609375,33.7400016784668,0.0,-22.0,-0.0159759521484375,-1.4030303955078125,Waiting,0.0,0.0,35.0,0.0,0.0,0.0,0.0,0.0,
4.052446999999986,0.0,0.0,93721.0,0.0,0.0,-132.28346407413483,0.0,0.125,0.808105386,4.932250999999998,0.0,-77859.0,0.0,0.0,132.28346407413483,0.0,0.125,0.526122993,4.963769999999998,0.0,90561.0,0.125,0.0,-132.28346407413483,0.0,0.0,3.3715816860000003,0.01,0.0,-78023.0,0.125,0.0,132.28346407413483,0.0,0.25,1.6064451480000002,0.01,0.0,-0.8899999856948853,0.07999999821186066,-2.740000009536743,-0.01776123046875,-0.01666259765625,1.02166748046875,33.72999954223633,0.0,-19.0,-0.01666259765625,-1.4030303955078125,Waiting,0.0,0.0,35.0,0.0,0.0,0.0,0.0,0.0,
4.126400999999954,0.0,0.0,93717.0,0.0,-22.5,-132.28346407413483,0.0,0.125,0.810546792,4.932250999999998,0.0,-77859.0,0.125,0.0,132.28346407413483,0.0,0.125,0.526122993,4.963769999999998,0.0,90561.0,0.125,0.0,-132.28346407413483,0.0,0.0,3.3740230920000003,0.01,0.0,-78023.0,0.375,0.0,132.28346407413483,0.0,0.25,1.6064451480000002,0.01,0.0,-0.8799999952316284,0.019999999552965164,-2.75,-0.0113525390625,-0.0152587890625,1.0194091796875,33.72999954223633,0.0,-11.0,-0.01666259765625,-1.4030303955078125,Waiting,0.0,0.0,35.0,0.0,0.0,0.0,0.0,0.0,
4.190974999999977,0.0,0.0,93717.0,0.125,-22.5,-248.03150296211243,0.0,0.125,0.808105386,4.932250999999998,0.0,-77853.0,0.375,15.0,248.03150296211243,0.0,0.125,0.526122993,4.963769999999998,0.0,90555.0,0.125,-22.5,-248.03150296211243,0.0,0.0,3.3728023890000003,0.01,0.0,-78021.0,0.375,0.0,248.03150296211243,0.0,0.25,1.6064451480000002,0.01,0.0,-0.8799999952316284,0.0,-2.740000009536743,-0.01690673828125,-0.01434326171875,1.02349853515625,33.72999954223633,0.0,-16.0,-0.01666259765625,-1.4030303955078125,Waiting,0.0,0.0,35.0,0.0,0.0,0.0,0.0,0.0,
4.257193999999959,0.0,0.0,93709.0,0.375,-60.0,-380.31496703624725,0.0,0.125,0.8154296040000001,4.932250999999998,0.0,-77853.0,1.0,75.0,380.31496703624725,0.0,0.125,0.526122993,4.963769999999998,0.0,90555.0,0.625,-82.5,-380.31496703624725,0.0,0.0,3.383788716,0.01,0.0,-78021.0,0.875,67.5,380.31496703624725,0.0,0.25,1.6052244450000002,0.01,0.0,-0.8799999952316284,-0.18000000715255737,-2.7300000190734863,-0.0941162109375,-0.023193359375,0.9146728515625,33.72999954223633,0.0,-90.0,-0.01806640625,-1.4032440185546875,Waiting,0.0,0.0,35.0,0.0,0.0,0.0,0.0,0.0,
4.334073999999964,0.0,0.0,93701.0,1.625,-52.5,-429.92127388715744,0.0,0.125,0.8178710100000001,4.932250999999998,0.0,-77842.0,1.75,60.0,429.92127388715744,0.0,0.125,0.526122993,4.963769999999998,0.0,90542.0,1.5,-67.5,-429.92127388715744,0.0,0.125,3.387450825,0.01,0.0,-78004.0,1.625,97.5,429.92127388715744,0.0,0.25,1.6052244450000002,0.01,0.0,-0.8700000047683716,-0.41999998688697815,-2.759999990463257,-0.07122802734375,-0.01361083984375,1.05511474609375,33.72999954223633,0.0,-63.0,-0.0226287841796875,-1.40350341796875,Waiting,0.0,0.0,35.0,0.0,0.0,0.0,0.0,0.0,
4.404643999999971,0.0,0.0,93701.0,1.875,-90.0,-429.92127388715744,0.0,0.125,0.825195228,4.932250999999998,0.0,-77842.0,2.125,82.5,429.92127388715744,0.0,0.125,0.521240181,4.963769999999998,0.0,90542.0,1.875,-82.5,-429.92127388715744,0.0,0.125,3.387450825,0.01,0.0,-78004.0,2.0,97.5,429.92127388715744,0.0,0.25,1.6064451480000002,0.01,0.0,-0.8700000047683716,-0.6600000262260437,-2.7300000190734863,-0.0994873046875,-0.03857421875,0.97607421875,33.72999954223633,0.0,-86.0,-0.0297088623046875,-1.4035186767578125,Waiting,0.0,0.0,35.0,0.0,0.0,0.0,0.0,0.0,
4.472973999999987,0.0,0.0,93676.0,2.25,-165.0,-429.92127388715744,0.0,0.125,0.8300780400000001,4.932250999999998,0.0,-77820.0,3.125,150.0,429.92127388715744,0.0,0.125,0.521240181,4.963769999999998,0.0,90520.0,2.0,-150.0,-429.92127388715744,0.0,0.125,3.388671528,0.01,0.0,-77983.0,2.125,142.5,429.92127388715744,0.0,0.25,1.6052244450000002,0.01,0.0,-0.9100000262260437,-0.949999988079071,-2.7300000190734863,-0.11700439453125,-0.03009033203125,1.0447998046875,33.72999954223633,0.0,-98.0,-0.0396881103515625,-1.4037322998046875,Waiting,0.0,0.0,35.0,0.0,0.0,0.0,0.0,0.0,
4.547217000000004,0.0,0.0,93676.0,2.125,-225.0,-429.92127388715744,0.0,0.125,0.822753822,4.932250999999998,0.0,-77780.0,2.875,210.0,429.92127388715744,0.0,0.125,0.511474557,4.963769999999998,0.0,90481.0,2.125,-225.0,-429.92127388715744,0.0,0.125,3.391112934,0.01,0.0,-77943.0,2.25,240.0,429.92127388715744,0.0,0.25,1.6064451480000002,0.01,0.0,-0.9100000262260437,-1.2200000286102295,-2.75,-0.11798095703125,-0.02020263671875,1.0174560546875,33.75,0.0,-95.0,-0.05242919921875,-1.4040679931640625,Waiting,0.0,0.0,35.0,0.0,0.0,0.0,0.0,0.0,
4.62300099999999,0.0,0.0,93634.0,2.125,-277.5,-429.92127388715744,0.0,0.125,0.825195228,4.932250999999998,0.0,-77780.0,2.625,300.0,429.92127388715744,0.0,0.0,0.511474557,4.963769999999998,0.0,90481.0,2.0,-285.0,-429.92127388715744,0.0,0.125,3.387450825,0.01,0.0,-77943.0,2.0,300.0,429.92127388715744,0.0,0.25,1.6064451480000002,0.01,0.0,-0.8899999856948853,-1.4199999570846558,-2.7899999618530273,-0.080322265625,-0.0927734375,1.0977783203125,33.75,0.0,-49.0,-0.067657470703125,-1.4044342041015625,Waiting,0.0,0.0,35.0,0.0,0.0,0.0,0.0,0.0,
4.6915019999999785,0.0,0.0,93578.0,2.0,-352.5,-429.92127388715744,0.0,0.125,0.823974525,4.932250999999998,0.0,-77725.0,2.875,345.0,429.92127388715744,0.0,0.0,0.511474557,4.963769999999998,0.0,90425.0,2.125,-352.5,-429.92127388715744,0.0,0.125,3.387450825,0.01,0.0,-77886.0,2.375,337.5,429.92127388715744,0.0,0.25,1.6064451480000002,0.01,0.0,-1.0199999809265137,-0.41999998688697815,-2.549999952316284,0.845947265625,-0.0428466796875,0.9801025390625,33.75,0.0,853.0,-0.0771636962890625,-1.405487060546875,Waiting,0.0,0.0,35.0,0.0,0.0,0.0,0.0,0.0,
4.756898999999976,0.0,0.0,93578.0,3.5,-195.0,-429.92127388715744,0.0,0.125,0.825195228,4.932250999999998,0.0,-77725.0,5.875,135.0,429.92127388715744,0.0,0.0,0.511474557,4.963769999999998,0.0,90425.0,3.0,-300.0,-429.92127388715744,0.0,0.125,3.388671528,0.01,0.0,-77886.0,5.0,127.5,429.92127388715744,0.0,0.25,1.614990069,0.01,0.0,-0.75,0.11999999731779099,-2.549999952316284,-0.3291015625,-0.0322265625,1.00762939453125,33.75,0.0,-330.0,-0.075897216796875,-1.405181884765625,Waiting,0.0,0.0,35.0,0.0,0.0,0.0,0.0,0.0,
4.831963999999978,0.0,0.0,93587.0,6.25,52.5,-429.92127388715744,0.0,0.125,0.826415931,4.932250999999998,0.0,-77725.0,9.75,-22.5,429.92127388715744,0.0,0.0,0.511474557,4.963769999999998,0.0,90399.0,4.25,-105.0,-429.92127388715744,0.0,0.125,3.397216449,0.01,0.0,-77888.0,8.125,-30.0,429.92127388715744,0.0,0.25,1.6064451480000002,0.01,0.0,-0.9599999785423279,-0.5299999713897705,-2.5299999713897705,-0.0506591796875,-0.04541015625,1.0430908203125,33.75,0.0,-39.0,-0.080596923828125,-1.4052886962890625,Waiting,0.0,0.0,35.0,0.0,0.0,0.0,0.0,0.0,
4.898139999999956,0.0,0.0,93587.0,8.75,-45.0,-429.92127388715744,0.0,0.125,0.823974525,4.932250999999998,0.0,-77725.0,11.625,15.0,429.92127388715744,0.0,0.0,0.5041503390000001,4.963769999999998,0.0,90399.0,5.75,-52.5,-429.92127388715744,0.0,0.125,3.388671528,0.01,0.0,-77882.0,9.625,15.0,429.92127388715744,0.0,0.25,1.6064451480000002,0.01,0.0,-0.7699999809265137,-0.23999999463558197,-2.5,0.137939453125,0.02325439453125,1.04107666015625,33.75,0.0,140.0,-0.0847320556640625,-1.4052886962890625,Waiting,0.0,0.0,35.0,0.0,0.0,0.0,0.0,0.0,
4.971714999999968,0.0,0.0,93578.0,10.75,-30.0,-429.92127388715744,0.0,0.125,0.823974525,4.932250999999998,0.0,-77718.0,15.375,30.0,429.92127388715744,0.0,0.0,0.511474557,4.963769999999998,0.0,90388.0,8.625,-37.5,-429.92127388715744,0.0,0.125,3.387450825,0.01,0.0,-77882.0,12.0,22.5,429.92127388715744,0.0,0.25,1.596679524,0.01,0.0,-0.8899999856948853,-0.30000001192092896,-2.5199999809265137,-0.09283447265625,-0.048828125,0.93768310546875,33.75,0.0,-86.0,-0.0875396728515625,-1.4050445556640625,Waiting,0.0,0.0,35.0,0.0,0.0,0.0,0.0,0.0,
5.040002999999968,0.0,0.0,93578.0,12.25,0.0,-429.92127388715744,0.0,0.125,0.825195228,4.932250999999998,0.0,-77718.0,18.625,0.0,429.92127388715744,0.0,0.0,0.511474557,4.963769999999998,0.0,90386.0,10.375,-15.0,-429.92127388715744,0.0,0.125,3.387450825,0.01,0.0,-77880.0,13.375,7.5,429.92127388715744,0.0,0.25,1.6052244450000002,0.01,0.0,-0.7699999809265137,-0.3400000035762787,-2.5299999713897705,-0.0260009765625,-0.04437255859375,1.0740966796875,33.75,0.0,-18.0,-0.0920867919921875,-1.404541015625,Waiting,0.0,0.0,35.0,0.0,0.0,0.0,0.0,0.0,
5.111143999999971,0.0,0.0,93578.0,15.75,0.0,-429.92127388715744,0.0,0.125,0.825195228,4.932250999999998,0.0,-77718.0,22.125,7.5,429.92127388715744,0.0,0.0,0.511474557,4.963769999999998,0.0,90386.0,13.875,-7.5,-429.92127388715744,0.0,0.125,3.389892231,0.01,0.0,-77880.0,16.75,15.0,429.92127388715744,0.0,0.25,1.6076658510000001,0.01,0.0,-0.8399999737739563,-0.4000000059604645,-2.5,-0.01373291015625,0.02764892578125,1.0162353515625,33.75,0.0,-8.0,-0.096832275390625,-1.40435791015625,Waiting,0.0,0.0,35.0,0.0,0.0,0.0,0.0,0.0,
5.187559999999998,0.0,0.0,93585.0,6.75,7.5,0.0,0.0,0.125,0.820312416,4.932250999999998,-0.0012207029999999897,-77720.0,6.5,-52.5,0.0,0.0,0.0,0.505371042,4.963769999999998,-0.0012207029999995456,90383.0,4.75,-7.5,0.0,0.0,0.125,3.386230122,0.01,-0.0012207029999999897,-77878.0,8.625,-22.5,0.0,0.0,0.25,1.6052244450000002,0.01,0.0,-0.8399999737739563,0.12999999523162842,-2.509999990463257,0.195556640625,-0.12451171875,0.94256591796875,33.75,0.0,197.0,-0.0959014892578125,-1.40350341796875,Waiting,0.0,0.0,35.0,0.0,0.0,0.0,0.0,0.0,
5.253451000000001,0.0,0.0,93585.0,0.0,187.5,0.0,0.0,0.125,0.811767495,4.932250999999998,4.923706079,-77720.0,0.0,-202.5,0.0,0.0,0.0,0.506591745,4.963769999999998,-0.004882811999999959,90383.0,0.0,60.0,0.0,0.0,0.125,3.382568013,0.01,0.0,-77878.0,0.0,-150.0,0.0,0.0,0.25,1.6064451480000002,0.01,0.0,-0.8299999833106995,0.019999999552965164,-2.549999952316284,-0.1279296875,-0.01287841796875,0.927001953125,33.75,0.0,-128.0,-0.090911865234375,-1.40277099609375,Waiting,0.0,0.0,35.0,0.0,0.0,0.0,0.0,0.0,
5.328425999999977,0.0,0.0,93604.0,0.0,75.0,0.0,0.0,0.125,0.810546792,4.932250999999998,-0.004882811999999959,-77747.0,0.0,-37.5,0.0,0.0,0.0,0.506591745,4.963769999999998,0.0,90399.0,0.0,75.0,0.0,0.0,0.125,3.382568013,0.01,-0.003662108999999969,-77903.0,0.0,-82.5,0.0,0.0,0.25,1.6052244450000002,0.01,0.0,-0.8899999856948853,-0.27000001072883606,-2.5199999809265137,-0.14208984375,0.00286865234375,0.9659423828125,33.75,0.0,-138.0,-0.08740234375,-1.40277099609375,Waiting,0.0,0.0,35.0,0.0,0.0,0.0,0.0,0.0,
5.393923999999999,0.0,0.0,93612.0,0.0,60.0,0.0,0.0,0.125,0.810546792,4.932250999999998,0.0,-77750.0,0.0,-15.0,0.0,0.0,0.0,0.506591745,4.963769999999998,0.0,90402.0,0.0,22.5,0.0,0.0,0.125,3.38134731,0.01,-0.0012207029999999897,-77913.0,0.0,-67.5,0.0,0.0,0.25,1.6064451480000002,0.01,0.0,-0.8299999833106995,-0.5799999833106995,-2.559999942779541,-0.053466796875,0.01531982421875,0.963134765625,33.75,0.0,-44.0,-0.0874176025390625,-1.402557373046875,Waiting,0.0,0.0,35.0,0.0,0.0,0.0,0.0,0.0,
5.462920999999973,0.0,0.0,93612.0,0.0,0.0,0.0,0.0,0.125,0.810546792,4.932250999999998,0.0,-77750.0,0.0,-7.5,0.0,0.0,0.0,0.505371042,4.963769999999998,0.0,90402.0,0.0,0.0,0.0,0.0,0.125,3.38134731,0.01,0.0,-77913.0,0.0,0.0,0.0,0.0,0.25,1.6052244450000002,0.01,0.0,-0.8600000143051147,-0.6899999976158142,-2.5399999618530273,-0.0274658203125,-0.0125732421875,1.0059814453125,33.75,0.0,-15.0,-0.089263916015625,-1.4023895263671875,Waiting,0.0,0.0,35.0,0.0,0.0,0.0,0.0,0.0,
5.535986999999965,0.0,0.0,93612.0,0.0,0.0,0.0,0.0,0.125,0.811767495,4.932250999999998,0.0,-77750.0,0.0,0.0,0.0,0.0,0.0,0.506591745,4.963769999999998,0.0,90402.0,0.0,0.0,0.0,0.0,0.125,3.382568013,0.01,0.0,-77913.0,0.0,0.0,0.0,0.0,0.25,1.6064451480000002,0.01,0.0,-0.8399999737739563,-0.6600000262260437,-2.559999942779541,-0.001708984375,-0.00616455078125,1.00286865234375,33.75,0.0,9.0,-0.089263916015625,-1.4023895263671875,Waiting,0.0,0.0,35.0,0.0,0.0,0.0,0.0,0.0,
5.606396000000008,0.0,0.0,93612.0,0.0,0.0,0.0,0.0,0.125,0.810546792,4.932250999999998,0.0,-77750.0,0.0,0.0,0.0,0.0,0.0,0.506591745,4.963769999999998,0.0,90402.0,0.0,0.0,0.0,0.0,0.125,3.382568013,0.01,0.0,-77913.0,0.0,0.0,0.0,0.0,0.25,1.6064451480000002,0.01,0.0,-0.8500000238418579,-0.6200000047683716,-2.5399999618530273,0.01043701171875,-0.013427734375,1.0,33.720001220703125,0.0,21.0,-0.08905029296875,-1.4023895263671875,Waiting,0.0,0.0,35.0,0.0,0.0,0.0,0.0,0.0,
5.6719969999999735,0.0,0.0,93612.0,0.0,0.0,0.0,0.0,0.125,0.810546792,4.932250999999998,0.0,-77750.0,0.0,0.0,0.0,0.0,0.0,0.506591745,4.963769999999998,0.0,90402.0,0.0,0.0,0.0,0.0,0.125,3.382568013,0.01,0.0,-77913.0,0.0,0.0,0.0,0.0,0.25,1.6052244450000002,0.01,0.0,-0.8399999737739563,-0.5600000023841858,-2.549999952316284,-0.00115966796875,-0.00970458984375,1.0179443359375,33.720001220703125,0.0,8.0,-0.088775634765625,-1.4023895263671875,Waiting,0.0,0.0,35.0,0.0,0.0,0.0,0.0,0.0,
5.73313500000001,0.0,0.0,93612.0,0.0,0.0,0.0,0.0,0.125,0.811767495,4.932250999999998,0.0,-77750.0,0.0,0.0,0.0,0.0,0.0,0.506591745,4.963769999999998,0.0,90402.0,0.0,0.0,0.0,0.0,0.125,3.382568013,0.01,0.0,-77913.0,0.0,0.0,0.0,0.0,0.25,1.6052244450000002,0.01,0.0,-0.8299999833106995,-0.550000011920929,-2.5399999618530273,-0.01678466796875,-0.0169677734375,1.02313232421875,33.720001220703125,0.0,-6.0,-0.088775634765625,-1.4023895263671875,Waiting,0.0,0.0,35.0,0.0,0.0,0.0,0.0,0.0,
5.794388999999966,0.0,0.0,93612.0,0.0,0.0,0.0,0.0,0.125,0.810546792,4.932250999999998,0.0,-77750.0,0.0,0.0,0.0,0.0,0.0,0.506591745,4.963769999999998,0.0,90402.0,0.0,0.0,0.0,0.0,0.125,3.382568013,0.01,-0.0012207029999999897,-77913.0,0.0,0.0,0.0,0.0,0.25,1.6064451480000002,0.01,0.0,-0.8399999737739563,-0.5699999928474426,-2.549999952316284,-0.02484130859375,-0.01312255859375,1.02520751953125,33.720001220703125,0.0,-16.0,-0.088775634765625,-1.4023895263671875,Waiting,0.0,0.0,35.0,0.0,0.0,0.0,0.0,0.0,
5.865964999999967,0.0,0.0,93612.0,0.125,0.0,-165.35433009266853,0.0,0.125,0.811767495,4.932250999999998,0.0,-77750.0,0.0,0.0,165.35433009266853,0.0,0.0,0.506591745,4.963769999999998,0.0,90401.0,0.125,0.0,-165.35433009266853,0.0,0.125,3.38134731,0.01,0.0,-77913.0,0.125,0.0,165.35433009266853,0.0,0.25,1.6052244450000002,0.01,0.0,-0.8299999833106995,-0.6299999952316284,-2.549999952316284,-0.02239990234375,-0.017822265625,1.0262451171875,33.720001220703125,0.0,-10.0,-0.088775634765625,-1.4023895263671875,Waiting,0.0,0.0,35.0,0.0,0.0,0.0,0.0,0.0,
5.930978999999992,0.0,0.0,93612.0,0.125,0.0,-281.1023533344269,0.0,0.125,0.811767495,4.932250999999998,0.0,-77750.0,0.25,0.0,281.1023533344269,0.0,0.0,0.506591745,4.963769999999998,0.0,90401.0,0.125,-15.0,-281.1023533344269,0.0,0.125,3.383788716,0.01,0.0,-77913.0,0.375,15.0,281.1023533344269,0.0,0.25,1.6064451480000002,0.01,0.0,-0.8399999737739563,-0.6600000262260437,-2.5399999618530273,-0.02117919921875,-0.008544921875,1.02239990234375,33.720001220703125,0.0,-9.0,-0.088775634765625,-1.4023895263671875,Waiting,0.0,0.0,35.0,0.0,0.0,0.0,0.0,0.0,
5.993706999999995,0.0,0.0,93596.0,1.875,-67.5,-661.4173203706741,0.0,0.125,0.821533119,4.932250999999998,0.0,-77738.0,3.0,82.5,661.4173203706741,0.0,0.0,0.507812448,4.963769999999998,0.0,90391.0,1.875,-52.5,-661.4173203706741,0.0,0.125,3.387450825,0.01,0.0,-77900.0,1.875,67.5,661.4173203706741,0.0,0.25,1.6064451480000002,0.01,0.0,-0.8600000143051147,-0.9399999976158142,-2.549999952316284,-0.10406494140625,0.05126953125,0.9954833984375,33.720001220703125,0.0,-90.0,-0.0896759033203125,-1.4026031494140625,Waiting,0.0,0.0,35.0,0.0,0.0,0.0,0.0,0.0,
6.068217000000004,0.0,0.0,93596.0,2.5,-127.5,-661.4173203706741,0.0,0.125,0.8276366340000001,4.932250999999998,0.0,-77738.0,4.25,97.5,661.4173203706741,0.0,0.0,0.506591745,4.963769999999998,0.0,90391.0,2.625,-82.5,-661.4173203706741,0.0,0.125,3.387450825,0.01,0.0,-77900.0,3.125,105.0,661.4173203706741,0.0,0.25,1.6052244450000002,0.01,0.0,-0.8600000143051147,-1.1299999952316284,-2.5199999809265137,0.0089111328125,-0.0130615234375,1.015625,33.720001220703125,0.0,28.0,-0.092987060546875,-1.4035186767578125,Waiting,0.0,0.0,35.0,0.0,0.0,0.0,0.0,0.0,
6.130267999999981,0.0,0.0,93580.0,3.875,-112.5,-661.4173203706741,0.0,0.125,0.822753822,4.932250999999998,0.0,-77721.0,6.5,105.0,661.4173203706741,0.0,0.0,0.50048823,4.963769999999998,0.0,90371.0,4.375,-127.5,-661.4173203706741,0.0,0.125,3.386230122,0.01,0.0,-77884.0,5.125,105.0,661.4173203706741,0.0,0.25,1.6064451480000002,0.01,0.0,-0.8199999928474426,-0.5600000023841858,-2.440000057220459,0.1243896484375,0.00640869140625,1.02947998046875,33.720001220703125,0.0,133.0,-0.0949859619140625,-1.4053192138671875,Waiting,0.0,0.0,35.0,0.0,0.0,0.0,0.0,0.0,
6.192975999999966,0.0,0.0,93580.0,6.5,-52.5,-661.4173203706741,0.0,0.125,0.823974525,4.932250999999998,0.0,-77721.0,10.125,45.0,661.4173203706741,0.0,0.0,0.506591745,4.963769999999998,0.0,90371.0,6.625,-67.5,-661.4173203706741,0.0,0.125,3.387450825,0.01,0.0,-77884.0,8.375,37.5,661.4173203706741,0.0,0.25,1.6064451480000002,0.01,0.0,-0.8399999737739563,-0.7200000286102295,-2.4700000286102295,-0.10479736328125,-0.0257568359375,1.017578125,33.720001220703125,0.0,-91.0,-0.094696044921875,-1.4057769775390625,Waiting,0.0,0.0,35.0,0.0,0.0,0.0,0.0,0.0,
6.25416399999999,0.0,0.0,93579.0,8.625,0.0,-661.4173203706741,0.0,0.125,0.825195228,4.932250999999998,0.0,-77719.0,13.25,7.5,661.4173203706741,0.0,0.0,0.506591745,4.963769999999998,0.0,90369.0,9.375,-7.5,-661.4173203706741,0.0,0.125,3.387450825,0.01,0.0,-77883.0,10.875,7.5,661.4173203706741,0.0,0.25,1.6052244450000002,0.01,0.0,-0.8199999928474426,-0.7599999904632568,-2.4600000381469727,-0.04388427734375,-0.00946044921875,1.029541015625,33.720001220703125,0.0,-30.0,-0.09539794921875,-1.4058990478515625,Waiting,0.0,0.0,35.0,0.0,0.0,0.0,0.0,0.0,
6.323565000000002,0.0,0.0,93579.0,11.125,-7.5,-512.5984311103821,0.0,0.125,0.826415931,4.932250999999998,0.0,-77719.0,16.125,15.0,512.5984311103821,0.0,0.0,0.505371042,4.963769999999998,0.0,90369.0,12.0,-15.0,-512.5984311103821,0.0,0.125,3.387450825,0.01,0.0,-77883.0,12.125,30.0,512.5984311103821,0.0,0.25,1.6015623360000002,0.01,0.0,-0.8500000238418579,-0.6899999976158142,-2.4700000286102295,-1.220703125E-4,0.0015869140625,1.02996826171875,33.720001220703125,0.0,11.0,-0.0959320068359375,-1.405975341796875,Waiting,0.0,0.0,35.0,0.0,0.0,0.0,0.0,0.0,
6.391815000000002,0.0,0.0,93578.0,12.25,0.0,-396.8503922224045,0.0,0.125,0.826415931,4.932250999999998,0.0,-77717.0,18.125,7.5,396.8503922224045,0.0,0.0,0.506591745,4.963769999999998,0.0,90367.0,12.75,-7.5,-396.8503922224045,0.0,0.125,3.386230122,0.01,0.0,-77879.0,13.125,0.0,396.8503922224045,0.0,0.25,1.6064451480000002,0.01,0.0,-0.8199999928474426,-0.75,-2.4600000381469727,-0.00274658203125,-0.00177001953125,1.00164794921875,33.720001220703125,0.0,8.0,-0.096160888671875,-1.40582275390625,Waiting,0.0,0.0,35.0,0.0,0.0,0.0,0.0,0.0,
6.454892999999982,0.0,0.0,93578.0,11.125,-7.5,-115.74803106486797,0.0,0.125,0.825195228,4.932250999999998,0.0,-77717.0,15.875,0.0,115.74803106486797,0.0,0.0,0.505371042,4.963769999999998,0.0,90367.0,11.625,0.0,-115.74803106486797,0.0,0.125,3.386230122,0.01,0.0,-77879.0,10.875,0.0,115.74803106486797,0.0,0.25,1.6015623360000002,0.01,0.0,-0.8500000238418579,-0.7300000190734863,-2.4600000381469727,-0.0203857421875,-0.00311279296875,1.02410888671875,33.720001220703125,0.0,-7.0,-0.096160888671875,-1.40582275390625,Waiting,0.0,0.0,35.0,0.0,0.0,0.0,0.0,0.0,
6.5256979999999745,0.0,0.0,93577.0,3.5,22.5,0.0,0.0,0.125,0.825195228,4.932250999999998,0.0,-77717.0,7.75,-15.0,0.0,0.0,0.0,0.505371042,4.963769999999998,0.0,90367.0,1.125,7.5,0.0,0.0,0.125,3.387450825,0.01,0.0,-77879.0,2.125,-45.0,0.0,0.0,0.25,1.6064451480000002,0.01,-0.0012207030000004337,-0.8600000143051147,-0.25999999046325684,-2.450000047683716,0.1527099609375,-0.08660888671875,0.87188720703125,33.720001220703125,0.0,159.0,-0.094482421875,-1.4056854248046875,Waiting,0.0,0.0,35.0,0.0,0.0,0.0,0.0,0.0,
6.588720999999961,0.0,0.0,93577.0,0.0,135.0,0.0,0.0,0.125,0.810546792,4.932250999999998,-0.003662108999999969,-77745.0,0.0,-172.5,0.0,0.0,0.0,0.506591745,4.963769999999998,0.0,90380.0,0.0,60.0,0.0,0.0,0.125,3.3776852010000002,0.01,-0.0012207029999999897,-77899.0,0.0,-105.0,0.0,0.0,0.25,1.6052244450000002,0.01,0.003662109000000413,-0.8500000238418579,-0.38999998569488525,-2.5299999713897705,-0.09808349609375,-0.00994873046875,0.78216552734375,33.720001220703125,0.0,-92.0,-0.0911712646484375,-1.4053802490234375,Waiting,0.0,0.0,35.0,0.0,0.0,0.0,0.0,0.0,
6.65153899999999,0.0,0.0,93602.0,0.0,112.5,0.0,0.0,0.125,0.811767495,4.932250999999998,4.922485376,-77745.0,0.0,-127.5,0.0,0.0,0.0,0.506591745,4.963769999999998,0.0,90380.0,0.0,67.5,0.0,0.0,0.125,3.3789059040000002,0.01,-0.008544920999999928,-77899.0,0.0,-82.5,0.0,0.0,0.25,1.6052244450000002,0.01,0.0,-0.8500000238418579,-0.6000000238418579,-2.490000009536743,-0.07781982421875,-0.04949951171875,0.97479248046875,33.7400016784668,0.0,-65.0,-0.089813232421875,-1.40484619140625,Waiting,0.0,0.0,35.0,0.0,0.0,0.0,0.0,0.0,
6.720027999999991,0.0,0.0,93606.0,0.0,52.5,0.0,0.0,0.125,0.810546792,4.932250999999998,0.0,-77745.0,0.0,0.0,0.0,0.0,0.0,0.505371042,4.963769999999998,0.0,90385.0,0.0,37.5,0.0,0.0,0.125,3.3776852010000002,0.01,0.0,-77906.0,0.0,-60.0,0.0,0.0,0.25,1.6064451480000002,0.01,0.0,-0.8799999952316284,-0.8299999833106995,-2.5,-0.0849609375,0.003173828125,1.03857421875,33.7400016784668,0.0,-70.0,-0.090362548828125,-1.4048309326171875,Waiting,0.0,0.0,35.0,0.0,0.0,0.0,0.0,0.0,
6.78589499999996,0.0,0.0,93606.0,0.0,0.0,0.0,0.0,0.125,0.810546792,4.932250999999998,0.0,-77745.0,0.0,0.0,0.0,0.0,0.0,0.506591745,4.963769999999998,0.0,90385.0,0.0,7.5,0.0,0.0,0.125,3.3715816860000003,0.01,0.0012207029999999897,-77906.0,0.0,-7.5,0.0,0.0,0.25,1.6052244450000002,0.01,0.0,-0.8399999737739563,-0.9200000166893005,-2.5,-0.0238037109375,-0.03253173828125,1.0262451171875,33.7400016784668,0.0,-6.0,-0.0921478271484375,-1.4046173095703125,Waiting,0.0,0.0,35.0,0.0,0.0,0.0,0.0,0.0,
6.847571999999985,0.0,0.0,93606.0,0.0,0.0,0.0,0.0,0.125,0.809326089,4.932250999999998,0.0,-77745.0,0.0,0.0,0.0,0.0,0.0,0.505371042,4.963769999999998,0.0,90385.0,0.0,0.0,0.0,0.0,0.0,3.3728023890000003,0.01,-0.004882811999999959,-77906.0,0.0,0.0,0.0,0.0,0.25,1.6064451480000002,0.01,0.0,-0.8700000047683716,-0.9100000262260437,-2.509999990463257,0.0013427734375,-0.0224609375,1.034423828125,33.7400016784668,0.0,18.0,-0.0921478271484375,-1.4046173095703125,Waiting,0.0,0.0,35.0,0.0,0.0,0.0,0.0,0.0,
6.9092999999999885,0.0,0.0,93606.0,0.0,0.0,0.0,0.0,0.125,0.810546792,4.932250999999998,0.0,-77745.0,0.0,0.0,0.0,0.0,0.0,0.506591745,4.963769999999998,0.0,90385.0,0.0,0.0,0.0,0.0,0.0,3.3728023890000003,0.01,0.0,-77906.0,0.0,0.0,0.0,0.0,0.25,1.6064451480000002,0.01,0.0,-0.8299999833106995,-0.8600000143051147,-2.490000009536743,0.0050048828125,-0.01348876953125,1.050048828125,33.7400016784668,0.0,20.0,-0.0918731689453125,-1.4046173095703125,Waiting,0.0,0.0,35.0,0.0,0.0,0.0,0.0,0.0,
6.973311999999976,0.0,0.0,93606.0,0.0,0.0,0.0,0.0,0.125,0.810546792,4.932250999999998,0.0,-77745.0,0.0,0.0,0.0,0.0,0.0,0.506591745,4.963769999999998,0.0,90385.0,0.0,0.0,0.0,0.0,0.0,3.3728023890000003,0.01,0.0,-77906.0,0.0,0.0,0.0,0.0,0.25,1.6064451480000002,0.01,0.0,-0.8299999833106995,-0.7799999713897705,-2.5,0.0078125,-0.01806640625,1.02490234375,33.7400016784668,0.0,21.0,-0.0908355712890625,-1.4046173095703125,Waiting,0.0,0.0,35.0,0.0,0.0,0.0,0.0,0.0,
7.035320999999996,0.0,0.0,93606.0,0.0,0.0,0.0,0.0,0.125,0.810546792,4.932250999999998,0.0,-77745.0,0.0,0.0,0.0,0.0,0.0,0.506591745,4.963769999999998,0.0,90385.0,0.0,0.0,0.0,0.0,0.0,3.3740230920000003,0.01,0.0,-77906.0,0.0,0.0,0.0,0.0,0.25,1.6052244450000002,0.01,0.0,-0.8399999737739563,-0.7599999904632568,-2.5,-0.01666259765625,-0.01495361328125,1.0257568359375,33.7400016784668,0.0,-2.0,-0.090240478515625,-1.4046173095703125,Waiting,0.0,0.0,35.0,0.0,0.0,0.0,0.0,0.0,
7.095228000000003,0.0,0.0,93606.0,0.0,0.0,0.0,0.0,0.125,0.810546792,4.932250999999998,0.0,-77745.0,0.0,0.0,0.0,0.0,0.0,0.506591745,4.963769999999998,0.0,90385.0,0.0,0.0,0.0,0.0,0.0,3.3728023890000003,0.01,0.0,-77906.0,0.0,0.0,0.0,0.0,0.25,1.6052244450000002,0.01,0.0,-0.8299999833106995,-0.7900000214576721,-2.5,-0.030029296875,-0.00921630859375,1.02886962890625,33.7400016784668,0.0,-16.0,-0.090240478515625,-1.4046173095703125,Waiting,0.0,0.0,35.0,0.0,0.0,0.0,0.0,0.0,
7.157139999999956,0.0,0.0,93606.0,0.0,0.0,0.0,0.0,0.125,0.810546792,4.932250999999998,0.0,-77745.0,0.0,0.0,0.0,0.0,0.0,0.506591745,4.963769999999998,0.0,90385.0,0.0,0.0,0.0,0.0,0.0,3.3715816860000003,0.01,0.0,-77906.0,0.0,0.0,0.0,0.0,0.25,1.6064451480000002,0.01,0.0,-0.8399999737739563,-0.8199999928474426,-2.509999990463257,-0.027587890625,-0.0167236328125,1.03033447265625,33.709999084472656,0.0,-12.0,-0.090240478515625,-1.4046173095703125,Waiting,0.0,0.0,35.0,0.0,0.0,0.0,0.0,0.0,
7.228724999999977,0.0,0.0,93606.0,0.0,0.0,0.0,0.0,0.125,0.810546792,4.932250999999998,0.0,-77745.0,0.0,0.0,0.0,0.0,0.0,0.506591745,4.963769999999998,0.0,90385.0,0.0,0.0,0.0,0.0,0.0,3.3728023890000003,0.01,0.0,-77906.0,0.0,0.0,0.0,0.0,0.25,1.6064451480000002,0.01,0.0,-0.8299999833106995,-0.8399999737739563,-2.5,-0.00958251953125,-0.01422119140625,1.0162353515625,33.709999084472656,0.0,5.0,-0.090240478515625,-1.4046173095703125,Waiting,0.0,0.0,35.0,0.0,0.0,0.0,0.0,0.0,
7.291275999999955,0.0,0.0,93606.0,0.0,0.0,0.0,0.0,0.125,0.809326089,4.932250999999998,0.0,-77745.0,0.0,0.0,0.0,0.0,0.0,0.506591745,4.963769999999998,0.0,90385.0,0.0,0.0,0.0,0.0,0.0,3.3728023890000003,0.01,0.0,-77906.0,0.0,0.0,0.0,0.0,0.25,1.6052244450000002,0.01,0.0,-0.8199999928474426,-0.8199999928474426,-2.5,-0.0081787109375,-0.014404296875,1.022705078125,33.709999084472656,0.0,6.0,-0.090240478515625,-1.4046173095703125,Waiting,0.0,0.0,35.0,0.0,0.0,0.0,0.0,0.0,
7.35311599999998,0.0,0.0,93606.0,0.0,0.0,0.0,0.0,0.125,0.810546792,4.932250999999998,0.0,-77745.0,0.0,0.0,0.0,0.0,0.0,0.506591745,4.963769999999998,0.0,90385.0,0.0,0.0,0.0,0.0,0.0,3.3728023890000003,0.01,0.0,-77906.0,0.0,0.0,0.0,0.0,0.25,1.6052244450000002,0.01,0.0,-0.8299999833106995,-0.8100000023841858,-2.5,-0.014404296875,-0.0146484375,1.0213623046875,33.709999084472656,0.0,0.0,-0.090240478515625,-1.4046173095703125,Waiting,0.0,0.0,35.0,0.0,0.0,0.0,0.0,0.0,
7.41502999999997,0.0,0.0,93606.0,0.0,0.0,0.0,0.0,0.125,0.810546792,4.932250999999998,0.0,-77745.0,0.0,0.0,0.0,0.0,0.0,0.506591745,4.963769999999998,0.0,90385.0,0.0,0.0,0.0,0.0,0.0,3.3728023890000003,0.01,0.0,-77906.0,0.0,0.0,0.0,0.0,0.25,1.6064451480000002,0.01,0.0,-0.8299999833106995,-0.8299999833106995,-2.5,-0.01971435546875,-0.012451171875,1.019287109375,33.709999084472656,0.0,-4.0,-0.090240478515625,-1.4046173095703125,Waiting,0.0,0.0,35.0,0.0,0.0,0.0,0.0,0.0,
7.482822999999975,0.0,0.0,93606.0,0.0,0.0,0.0,0.0,0.125,0.810546792,4.932250999999998,0.0012207029999995456,-77745.0,0.0,0.0,0.0,0.0,0.0,0.506591745,4.963769999999998,0.0,90385.0,0.0,0.0,0.0,0.0,0.0,3.3728023890000003,0.01,0.0,-77906.0,0.0,0.0,0.0,0.0,0.25,1.6064451480000002,0.01,0.0,-0.8199999928474426,-0.8399999737739563,-2.5,-0.0133056640625,-0.013671875,1.01348876953125,33.709999084472656,0.0,1.0,-0.090240478515625,-1.4046173095703125,Waiting,0.0,0.0,35.0,0.0,0.0,0.0,0.0,0.0,
7.5472490000000105,0.0,0.0,93606.0,0.0,0.0,0.0,0.0,0.125,0.810546792,4.932250999999998,0.0,-77745.0,0.0,0.0,0.0,0.0,0.0,0.506591745,4.963769999999998,0.0,90385.0,0.0,0.0,0.0,0.0,0.0,3.3728023890000003,0.01,0.0,-77906.0,0.0,0.0,0.0,0.0,0.25,1.6052244450000002,0.01,0.0,-0.8199999928474426,-0.8399999737739563,-2.5,-0.01336669921875,-0.011962890625,1.02117919921875,33.709999084472656,0.0,1.0,-0.090240478515625,-1.4046173095703125,Waiting,0.0,0.0,35.0,0.0,0.0,0.0,0.0,0.0,
7.608755000000005,0.0,0.0,93606.0,0.0,0.0,0.0,0.0,0.125,0.810546792,4.932250999999998,0.0,-77745.0,0.0,0.0,0.0,0.0,0.0,0.506591745,4.963769999999998,0.0,90385.0,0.0,0.0,0.0,0.0,0.0,3.3740230920000003,0.01,0.0,-77906.0,0.0,0.0,0.0,0.0,0.25,1.6064451480000002,0.01,0.0,-0.8100000023841858,-0.8399999737739563,-2.5,-0.0155029296875,-0.017333984375,1.02020263671875,33.709999084472656,0.0,0.0,-0.090240478515625,-1.4046173095703125,Waiting,0.0,0.0,35.0,0.0,0.0,0.0,0.0,0.0,
7.6720779999999795,0.0,0.0,93606.0,0.0,0.0,0.0,0.0,0.125,0.810546792,4.932250999999998,0.0,-77745.0,0.0,0.0,0.0,0.0,0.0,0.506591745,4.963769999999998,0.0,90385.0,0.0,0.0,0.0,0.0,0.0,3.3740230920000003,0.01,0.0,-77906.0,0.0,0.0,0.0,0.0,0.25,1.6064451480000002,0.01,0.0,-0.8199999928474426,-0.8399999737739563,-2.5,-0.01861572265625,-0.01495361328125,1.0230712890625,33.7400016784668,0.0,-3.0,-0.090240478515625,-1.4046173095703125,Waiting,0.0,0.0,35.0,0.0,0.0,0.0,0.0,0.0,
7.735548000000009,0.0,0.0,93606.0,0.0,0.0,0.0,0.0,0.125,0.810546792,4.932250999999998,0.0,-77745.0,0.0,0.0,0.0,0.0,0.0,0.506591745,4.963769999999998,0.0,90385.0,0.0,0.0,0.0,0.0,0.0,3.3728023890000003,0.01,-0.0012207029999999897,-77906.0,0.0,0.0,0.0,0.0,0.25,1.6064451480000002,0.01,0.0,-0.8199999928474426,-0.8500000238418579,-2.5,-0.01617431640625,-0.01348876953125,1.01959228515625,33.7400016784668,0.0,-1.0,-0.090240478515625,-1.4046173095703125,Waiting,0.0,0.0,35.0,0.0,0.0,0.0,0.0,0.0,
7.799502999999968,0.0,0.0,93606.0,0.0,0.0,0.0,0.0,0.125,0.811767495,4.932250999999998,0.0,-77745.0,0.0,0.0,0.0,0.0,0.0,0.506591745,4.963769999999998,0.0,90385.0,0.0,0.0,0.0,0.0,0.0,3.3728023890000003,0.01,0.0012207029999999897,-77906.0,0.0,0.0,0.0,0.0,0.25,1.6064451480000002,0.01,0.0,-0.8199999928474426,-0.8500000238418579,-2.5,-0.0130615234375,-0.01409912109375,1.0211181640625,33.7400016784668,0.0,2.0,-0.090240478515625,-1.4046173095703125,Waiting,0.0,0.0,35.0,0.0,0.0,0.0,0.0,0.0,
7.864079999999958,0.0,0.0,93606.0,0.0,0.0,0.0,0.0,0.125,0.810546792,4.932250999999998,0.0,-77745.0,0.0,0.0,0.0,0.0,0.0,0.506591745,4.963769999999998,0.0,90385.0,0.0,0.0,0.0,0.0,0.0,3.3728023890000003,0.01,0.0,-77906.0,0.0,0.0,0.0,0.0,0.25,1.6064451480000002,0.01,0.0,-0.8199999928474426,-0.8399999737739563,-2.5,-0.01806640625,-0.0146484375,1.0220947265625,33.7400016784668,0.0,-2.0,-0.090240478515625,-1.4046173095703125,Waiting,0.0,0.0,35.0,0.0,0.0,0.0,0.0,0.0,
7.93041399999999,0.0,0.0,93606.0,0.0,0.0,0.0,0.0,0.125,0.810546792,4.932250999999998,0.0,-77745.0,0.0,0.0,0.0,0.0,0.0,0.506591745,4.963769999999998,0.0,90385.0,0.0,0.0,0.0,0.0,0.0,3.3728023890000003,0.01,0.0,-77906.0,0.0,0.0,0.0,0.0,0.25,1.6064451480000002,0.01,0.0,-0.8100000023841858,-0.8399999737739563,-2.5,-0.01861572265625,-0.01226806640625,1.0272216796875,33.7400016784668,0.0,-3.0,-0.090240478515625,-1.4046173095703125,Waiting,0.0,0.0,35.0,0.0,0.0,0.0,0.0,0.0,
