Time,ClimberA1,ClimberA2,FRpos,FRCurrent,FRspeed,FRsetpoint,FRApos,FRACurrent,FREncpos,FREncSetpoint,FREncSpeed,FLpos,FLCurrent,FLspeed,FLsetpoint,FLApos,FLACurrent,FLEncpos,FLEncSetpoint,FLEncSpeed,BRpos,BRCurrent,BRspeed,BRsetpoint,BRApos,BRACurrent,BREncpos,BREncSetpoint,BREncSpeed,BLpos,BLCurrent,BLspeed,BLsetpoint,BLApos,BLACurrent,BLEncpos,BLEncSetpoint,BLEncSpeed,navx_Pitch,navx_Roll,navx_Yaw,navx_XAcc,navx_YAcc,navx_ZAcc,navx_Temp,navx_Bar,navx_Alt,navx_XDis,navx_YDis,GearPlacerState,ShootOutputV,ShootOutputCurrent,ShootEncPos,ShootEncVelocity,ShootSpeed,ShootSetpoint,CarouselSetpoint,CarouselCurrent,
0.14072499999997673,0.0,0.0,6989.0,0.0,0.0,0.0,0.0,0.25,0.834960852,0.01,0.0,-16373.0,0.0,0.0,-0.0,0.0,0.25,0.631103451,0.01,0.0,2964.0,0.0,0.0,0.0,0.0,0.0,3.354491844,0.01,0.0,-4915.0,0.125,0.0,-0.0,0.0,0.25,1.6052244450000002,0.01,0.0,-0.3499999940395355,-0.8799999952316284,-0.009999999776482582,-0.0152587890625,-0.0068359375,1.0172119140625,35.599998474121094,0.0,0.0,-4.08258056640625,2.09600830078125,Opening,0.0,0.0,0.0,0.0,0.0,0.0,0.0,0.0,
0.3068959999999497,0.0,0.0,6989.0,0.0,0.0,0.0,0.0,0.125,0.834960852,0.01,0.0,-16373.0,0.0,0.0,0.0,0.0,0.25,0.583496034,0.01,0.0,2964.0,0.0,0.0,0.0,0.0,0.0,3.359374656,0.01,0.0,-4915.0,0.125,0.0,0.0,0.0,0.25,1.6052244450000002,0.01,0.0,-0.3499999940395355,-0.8799999952316284,-0.009999999776482582,-0.0145263671875,-0.00360107421875,1.02960205078125,35.599998474121094,0.0,1.0,-4.08258056640625,2.09600830078125,Opening,0.0,0.0,0.0,0.0,0.0,0.0,0.0,0.0,
0.4692569999999832,0.0,0.0,6989.0,0.0,0.0,0.0,0.0,0.125,0.834960852,0.01,0.0,-16372.0,0.0,0.0,0.0,0.0,0.25,0.57373041,0.01,0.0,2964.0,0.0,0.0,0.0,0.0,0.0,3.359374656,0.01,0.0,-4915.0,0.125,0.0,0.0,0.0,0.25,1.6064451480000002,0.01,0.0,-0.3499999940395355,-0.8799999952316284,-0.009999999776482582,-0.01617431640625,-0.00665283203125,1.01580810546875,35.630001068115234,0.0,0.0,-4.08258056640625,2.09600830078125,Opening,0.0,0.0,0.0,0.0,0.0,0.0,0.0,0.0,
0.643371999999974,0.0,0.0,6989.0,0.0,0.0,0.0,0.0,0.125,0.834960852,0.01,0.0,-16372.0,0.0,0.0,0.0,0.0,0.25,0.550537053,0.01,0.0,2964.0,0.0,0.0,0.0,0.0,0.0,3.358153953,0.01,0.0,-4915.0,0.125,0.0,0.0,0.0,0.25,1.6052244450000002,0.01,0.0,-0.3499999940395355,-0.8799999952316284,-0.019999999552965164,-0.02142333984375,-0.00653076171875,1.02288818359375,35.630001068115234,0.0,-5.0,-4.08258056640625,2.09600830078125,Opening,0.0,0.0,0.0,0.0,0.0,0.0,0.0,0.0,
0.8073809999999357,0.0,0.0,6989.0,0.0,0.0,0.0,0.0,0.125,0.833740149,0.01,0.0,-16372.0,0.0,0.0,0.0,0.0,0.25,0.54931635,0.01,0.0,2964.0,0.0,0.0,0.0,0.0,0.0,3.358153953,0.01,0.0,-4915.0,0.125,0.0,0.0,0.0,0.25,1.6064451480000002,0.01,0.0,-0.3499999940395355,-0.8799999952316284,-0.019999999552965164,-0.014404296875,-0.00390625,1.02044677734375,35.630001068115234,0.0,1.0,-4.08258056640625,2.09600830078125,Opening,0.0,0.0,0.0,0.0,0.0,0.0,0.0,0.0,
0.9704349999999394,0.0,0.0,6989.0,0.0,0.0,0.0,0.0,0.125,0.834960852,0.01,0.0,-16372.0,0.0,0.0,0.0,0.0,0.25,0.54931635,0.01,0.0,2964.0,0.0,0.0,0.0,0.0,0.0,3.35693325,0.01,0.0,-4915.0,0.125,0.0,0.0,0.0,0.25,1.6064451480000002,0.01,0.0,-0.3499999940395355,-0.8799999952316284,-0.029999999329447746,-0.01708984375,-0.0091552734375,1.0162353515625,35.630001068115234,0.0,-1.0,-4.08258056640625,2.09600830078125,Opening,0.0,0.0,0.0,0.0,0.0,0.0,0.0,0.0,
1.1339619999999413,0.0,0.0,6989.0,0.0,0.0,0.0,0.0,0.125,0.834960852,0.01,0.0,-16372.0,0.0,0.0,0.0,0.0,0.25,0.550537053,0.01,0.0,2964.0,0.0,0.0,0.0,0.0,0.0,3.359374656,0.01,0.0,-4915.0,0.125,0.0,0.0,0.0,0.25,1.6064451480000002,0.01,0.0,-0.3499999940395355,-0.8799999952316284,-0.029999999329447746,-0.01641845703125,-0.006103515625,1.01861572265625,35.630001068115234,0.0,0.0,-4.08258056640625,2.09600830078125,Opening,0.0,0.0,0.0,0.0,0.0,0.0,0.0,0.0,
1.3088510000000242,0.0,0.0,6989.0,0.0,0.0,0.0,0.0,0.125,0.834960852,0.01,0.0,-16372.0,0.0,0.0,0.0,0.0,0.25,0.54931635,0.01,0.0,2964.0,0.0,0.0,0.0,0.0,0.0,3.359374656,0.01,0.0,-4915.0,0.125,0.0,0.0,0.0,0.25,1.6052244450000002,0.01,0.0,-0.36000001430511475,-0.8899999856948853,-0.029999999329447746,-0.0150146484375,-0.00408935546875,1.02081298828125,35.630001068115234,0.0,0.0,-4.08258056640625,2.09600830078125,Opening,0.0,0.0,0.0,0.0,0.0,0.0,0.0,0.0,
1.4724619999999413,0.0,0.0,6989.0,0.0,0.0,0.0,0.0,0.125,0.834960852,0.01,0.0,-16372.0,0.0,0.0,0.0,0.0,0.25,0.550537053,0.01,0.0,2964.0,0.0,0.0,0.0,0.0,0.0,3.3630367650000004,0.01,0.0,-4915.0,0.125,0.0,0.0,0.0,0.25,1.6052244450000002,0.01,0.0,-0.3499999940395355,-0.8999999761581421,-0.029999999329447746,-0.01544189453125,-0.0076904296875,1.02239990234375,35.630001068115234,0.0,0.0,-4.08258056640625,2.09600830078125,Opening,0.0,0.0,0.0,0.0,0.0,0.0,0.0,0.0,
1.6355509999999776,0.0,0.0,6935.0,23.25,-420.0,-2100.0,0.0,0.25,0.864257724,4.932250999999998,0.0,-16328.0,29.875,510.0,2100.0,0.0,0.25,0.545654241,4.963769999999998,0.0,2932.0,19.75,-570.0,-2100.0,0.0,0.0,3.395995746,0.01,0.0,-4875.0,23.625,472.5,2100.0,0.0,0.25,1.600341633,0.01,0.0,-0.6000000238418579,-3.430000066757202,0.009999999776482582,-0.51177978515625,0.048828125,0.8486328125,35.630001068115234,0.0,-459.0,-4.1123199462890625,2.090789794921875,Opening,0.0,0.0,0.0,0.0,0.0,0.0,0.0,0.0,
1.8085400000000373,0.0,0.0,6816.0,0.0,-682.5,0.0,0.0,0.25,0.8532713970000001,4.932250999999998,0.0,-16123.0,0.0,667.5,0.0,0.0,0.25,0.544433538,4.963769999999998,0.0,2690.0,0.0,-585.0,0.0,0.0,0.125,3.383788716,0.01,0.0,-4674.0,0.125,720.0,0.0,0.0,0.25,1.6601560800000001,0.01,0.0,-0.46000000834465027,-3.2799999713897705,0.7300000190734863,0.1102294921875,-0.0234375,1.48931884765625,35.630001068115234,0.0,195.0,-4.17022705078125,2.0836334228515625,Opening,0.0,0.0,0.0,0.0,0.0,0.0,0.0,0.0,
1.9724860000000335,0.0,0.0,6598.0,0.0,-585.0,0.0,0.0,0.25,0.848388585,4.932250999999998,0.0,-16025.0,0.0,615.0,0.0,0.0,0.25,0.544433538,4.963769999999998,0.0,2592.0,0.0,-577.5,0.0,0.0,0.125,3.3789059040000002,0.01,0.0,-4580.0,0.125,600.0,0.0,0.0,0.25,1.6638181890000001,0.01,0.0,-0.3499999940395355,-2.2300000190734863,0.9800000190734863,0.218505859375,-0.03265380859375,1.3697509765625,35.630001068115234,0.0,271.0,-4.2133331298828125,2.0775146484375,Opening,0.0,0.0,0.0,0.0,0.0,0.0,0.0,0.0,
2.140896999999997,0.0,0.0,6534.0,0.375,-255.0,-198.42519611120224,0.0,0.25,0.848388585,4.932250999999998,0.0,-15905.0,0.375,277.5,198.42519611120224,0.0,0.25,0.538330023,4.963769999999998,0.0,2548.0,0.125,-210.0,-198.42519611120224,0.0,0.125,3.3776852010000002,0.01,0.0,-4452.0,0.625,307.5,198.42519611120224,0.0,0.25,1.6638181890000001,0.01,0.0,-0.28999999165534973,-0.44999998807907104,0.8799999952316284,0.23919677734375,0.00714111328125,0.8841552734375,35.630001068115234,0.0,246.0,-4.221771240234375,2.077362060546875,Opening,0.0,0.0,0.0,0.0,0.0,0.0,0.0,0.0,
2.311484999999986,0.0,0.0,6420.0,17.0,-442.5,-2050.3937244415283,0.0,0.25,0.8447264760000001,4.932250999999998,0.0,-15840.0,25.5,427.5,2050.3937244415283,0.0,0.25,0.544433538,4.963769999999998,0.0,2460.0,23.125,-405.0,-2050.3937244415283,0.0,0.125,3.383788716,0.01,0.0,-4391.0,18.75,480.0,2050.3937244415283,0.0,0.25,1.600341633,0.01,0.0,-0.46000000834465027,-2.680000066757202,1.149999976158142,-0.3150634765625,-0.00323486328125,0.845947265625,35.630001068115234,0.0,-274.0,-4.23101806640625,2.0737152099609375,Opening,0.0,0.0,0.0,0.0,0.0,0.0,0.0,0.0,
2.4776300000000044,0.0,0.0,6325.0,0.0,-585.0,0.0,0.0,0.25,0.8447264760000001,4.932250999999998,0.0,-15762.0,0.0,607.5,0.0,0.0,0.25,0.545654241,4.963769999999998,0.0,2344.0,0.0,-547.5,0.0,0.0,0.125,3.3789059040000002,0.01,0.0,-4212.0,0.125,570.0,0.0,0.0,0.25,1.6601560800000001,0.01,0.0,-0.47999998927116394,-2.2799999713897705,1.5399999618530273,0.05633544921875,-0.0155029296875,1.05682373046875,35.65999984741211,0.0,98.0,-4.2716827392578125,2.0759735107421875,Opening,0.0,0.0,0.0,0.0,0.0,0.0,0.0,0.0,
2.652491000000038,0.0,0.0,6218.0,0.0,-457.5,0.0,0.0,0.25,0.8447264760000001,4.932250999999998,0.0,-15565.0,0.0,532.5,0.0,0.0,0.25,0.544433538,4.963769999999998,0.0,2210.0,0.0,-457.5,0.0,0.0,0.125,3.3776852010000002,0.01,0.0,-4125.0,0.125,510.0,0.0,0.0,0.25,1.6589353770000002,0.01,0.0,-0.4099999964237213,-1.4600000381469727,1.6699999570846558,0.11822509765625,-0.0283203125,0.979248046875,35.65999984741211,0.0,142.0,-4.2906951904296875,2.0860595703125,Opening,0.0,0.0,0.0,0.0,0.0,0.0,0.0,0.0,
2.8167979999999515,0.0,0.0,6092.0,0.0,-337.5,0.0,0.0,0.25,0.8447264760000001,4.932250999999998,0.0,-15503.0,0.0,315.0,0.0,0.0,0.25,0.545654241,4.963769999999998,0.0,2171.0,0.0,-262.5,0.0,0.0,0.125,3.382568013,0.01,0.0,-4059.0,0.125,315.0,0.0,0.0,0.25,1.6601560800000001,0.01,0.0,-0.3700000047683716,-0.7200000286102295,1.7200000286102295,0.1005859375,-0.00830078125,1.075439453125,35.65999984741211,0.0,114.0,-4.2896270751953125,2.08880615234375,Opening,0.0,0.0,0.0,0.0,0.0,0.0,0.0,0.0,
2.9807480000000215,0.0,0.0,6060.0,0.0,-127.5,0.0,0.0,0.25,0.8435057730000001,4.932250999999998,0.0,-15450.0,0.0,120.0,0.0,0.0,0.25,0.545654241,4.963769999999998,0.0,2138.0,0.0,-112.5,0.0,0.0,0.125,3.3776852010000002,0.01,0.0,-4002.0,0.125,112.5,0.0,0.0,0.25,1.6589353770000002,0.01,0.0,-0.28999999165534973,-0.09000000357627869,1.6799999475479126,0.11334228515625,0.00201416015625,1.01165771484375,35.619998931884766,0.0,115.0,-4.272308349609375,2.089752197265625,Closing,0.0,0.0,0.0,0.0,0.0,0.0,0.0,0.0,
3.1529469999999273,0.0,0.0,6052.0,0.0,-7.5,0.0,0.0,0.25,0.8447264760000001,4.932250999999998,0.0,-15449.0,0.0,0.0,0.0,0.0,0.25,0.545654241,4.963769999999998,0.0,2127.0,0.0,0.0,0.0,0.0,0.125,3.383788716,0.01,0.0,-4000.0,0.125,0.0,0.0,0.0,0.25,1.6601560800000001,0.01,0.0,-0.27000001072883606,0.05999999865889549,1.7300000190734863,-0.0283203125,-0.00909423828125,1.02886962890625,35.619998931884766,0.0,-29.0,-4.260009765625,2.0898284912109375,Closing,0.0,0.0,0.0,0.0,0.0,0.0,0.0,0.0,
3.3197870000000114,0.0,0.0,6052.0,0.0,0.0,0.0,0.0,0.25,0.8447264760000001,4.932250999999998,0.0,-15449.0,0.0,0.0,0.0,0.0,0.25,0.545654241,4.963769999999998,0.0,2127.0,0.0,0.0,0.0,0.0,0.125,3.38134731,0.01,0.0,-4000.0,0.125,0.0,0.0,0.0,0.25,1.6589353770000002,0.01,0.0,-0.2800000011920929,-0.15000000596046448,1.7100000381469727,-0.02008056640625,0.00164794921875,1.019287109375,35.619998931884766,0.0,-17.0,-4.26361083984375,2.0898284912109375,Closing,0.0,0.0,0.0,0.0,0.0,0.0,0.0,0.0,
3.486798999999999,0.0,0.0,6052.0,0.0,0.0,0.0,0.0,0.25,0.8447264760000001,4.932250999999998,0.0,-15449.0,0.0,0.0,0.0,0.0,0.25,0.544433538,4.963769999999998,0.0,2127.0,0.0,0.0,0.0,0.0,0.125,3.382568013,0.01,0.0,-4000.0,0.125,0.0,0.0,0.0,0.25,1.6589353770000002,0.01,0.0,-0.2800000011920929,-0.2199999988079071,1.7100000381469727,-0.00579833984375,-0.0048828125,1.01239013671875,35.630001068115234,0.0,-1.0,-4.2653656005859375,2.0897674560546875,Closing,0.0,0.0,0.0,0.0,0.0,0.0,0.0,0.0,
3.65244299999997,0.0,0.0,6052.0,0.0,0.0,0.0,0.0,0.25,0.8435057730000001,4.932250999999998,0.0,-15449.0,0.0,0.0,0.0,0.0,0.25,0.544433538,4.963769999999998,0.0,2127.0,0.0,0.0,0.0,0.0,0.125,3.382568013,0.01,0.0,-4000.0,0.125,0.0,0.0,0.0,0.25,1.6601560800000001,0.01,0.0,-0.25999999046325684,-0.28999999165534973,1.7000000476837158,-0.027587890625,-0.0142822265625,1.02825927734375,35.630001068115234,0.0,-22.0,-4.2654876708984375,2.0897369384765625,Closing,0.0,0.0,0.0,0.0,0.0,0.0,0.0,0.0,
3.8250629999999655,0.0,0.0,6052.0,0.0,0.0,0.0,0.0,0.25,0.8435057730000001,4.932250999999998,0.0,-15449.0,0.0,0.0,0.0,0.0,0.25,0.544433538,4.963769999999998,0.0,2127.0,0.0,0.0,0.0,0.0,0.125,3.383788716,0.01,0.0,-4000.0,0.125,0.0,0.0,0.0,0.25,1.6601560800000001,0.01,0.0,-0.25999999046325684,-0.3499999940395355,1.690000057220459,-0.01861572265625,-0.00762939453125,1.03057861328125,35.630001068115234,0.0,-12.0,-4.265655517578125,2.08978271484375,Closing,0.0,0.0,0.0,0.0,0.0,0.0,0.0,0.0,
3.9898979999999282,0.0,0.0,6052.0,0.0,0.0,0.0,0.0,0.25,0.8435057730000001,4.932250999999998,0.0,-15449.0,0.0,0.0,0.0,0.0,0.25,0.544433538,4.963769999999998,0.0,2127.0,0.0,0.0,0.0,0.0,0.125,3.382568013,0.01,0.0,-4000.0,0.125,0.0,0.0,0.0,0.25,1.6601560800000001,0.01,0.0,-0.27000001072883606,-0.41999998688697815,1.6799999475479126,-0.00958251953125,-0.01495361328125,1.0205078125,35.58000183105469,0.0,-2.0,-4.2657623291015625,2.089691162109375,Closing,0.0,0.0,0.0,0.0,0.0,0.0,0.0,0.0,
4.155592999999993,0.0,0.0,6052.0,0.0,0.0,0.0,0.0,0.25,0.8447264760000001,4.932250999999998,0.0,-15449.0,0.0,0.0,0.0,0.0,0.25,0.544433538,4.963769999999998,0.0,2127.0,0.0,0.0,0.0,0.0,0.125,3.382568013,0.01,0.0,-4000.0,0.125,0.0,0.0,0.0,0.25,1.6601560800000001,0.01,0.0,-0.2800000011920929,-0.44999998807907104,1.6799999475479126,-0.01470947265625,-7.9345703125E-4,1.018310546875,35.58000183105469,0.0,-6.0,-4.2657623291015625,2.089691162109375,Closing,0.0,0.0,0.0,0.0,0.0,0.0,0.0,0.0,
4.32913500000001,0.0,0.0,6052.0,0.0,0.0,0.0,0.0,0.25,0.8447264760000001,4.932250999999998,0.0,-15449.0,0.0,0.0,0.0,0.0,0.25,0.545654241,4.963769999999998,0.0,2127.0,0.0,0.0,0.0,0.0,0.125,3.383788716,0.01,0.0,-4000.0,0.125,0.0,0.0,0.0,0.25,1.6601560800000001,0.01,0.0,-0.2800000011920929,-0.5,1.6699999570846558,-0.012939453125,-0.00848388671875,1.01483154296875,35.58000183105469,0.0,-4.0,-4.2657623291015625,2.089691162109375,Closing,0.0,0.0,0.0,0.0,0.0,0.0,0.0,0.0,
4.508108999999939,0.0,0.0,6052.0,0.0,0.0,0.0,0.0,0.25,0.8435057730000001,4.932250999999998,0.0,-15449.0,0.0,0.0,0.0,0.0,0.25,0.544433538,4.963769999999998,0.0,2127.0,0.0,0.0,0.0,0.0,0.125,3.3776852010000002,0.01,0.0,-4000.0,0.125,0.0,0.0,0.0,0.25,1.6589353770000002,0.01,0.0,-0.28999999165534973,-0.5299999713897705,1.659999966621399,-0.0123291015625,-0.00885009765625,1.0220947265625,35.599998474121094,0.0,-2.0,-4.2657623291015625,2.089691162109375,Closing,0.0,0.0,0.0,0.0,0.0,0.0,0.0,0.0,
4.68767499999993,0.0,0.0,6052.0,0.0,0.0,0.0,0.0,0.25,0.8447264760000001,4.932250999999998,0.0,-15449.0,0.0,0.0,0.0,0.0,0.25,0.544433538,4.963769999999998,0.0,2127.0,0.0,0.0,0.0,0.0,0.125,3.382568013,0.01,0.0,-4000.0,0.125,0.0,0.0,0.0,0.25,1.6589353770000002,0.01,0.0,-0.28999999165534973,-0.5699999928474426,1.659999966621399,-0.01416015625,-0.00604248046875,1.0184326171875,35.599998474121094,0.0,-3.0,-4.2657623291015625,2.089691162109375,Closing,0.0,0.0,0.0,0.0,0.0,0.0,0.0,0.0,
4.86664300000004,0.0,0.0,6092.0,24.0,262.5,1968.7499999999998,0.0,1.0,1.1132811360000001,0.5498168668524888,0.0,-15413.0,34.25,270.0,1968.7499999999998,0.0,1.5,0.186767559,4.410439589772222,0.0,2133.0,35.875,97.5,1968.7499999999998,0.0,0.625,2.965087587,4.389674732977289,0.0,-3969.0,27.375,292.5,1968.7499999999998,0.0,0.875,1.986083781,0.5526872062785588,0.0,-0.20999999344348907,-0.8199999928474426,-0.8500000238418579,-0.12054443359375,0.0341796875,1.300537109375,35.599998474121094,0.0,-102.0,-4.2662353515625,2.0862884521484375,Closing,0.0,0.0,0.0,0.0,0.0,0.0,0.0,0.0,
5.049594999999972,0.0,0.0,6358.0,32.25,960.0,2100.0,0.0,0.5,1.3488768150000001,0.5498168668524888,0.0,-15216.0,41.625,1072.5,2100.0,0.0,0.25,4.912108872,4.410439589772222,0.0,2244.0,34.0,457.5,2100.0,0.0,0.125,2.6977536300000002,4.389674732977289,0.0,-3796.0,35.125,900.0,2100.0,0.0,0.375,2.2656247680000003,0.5526872062785588,0.0,-0.5099999904632568,-0.5699999928474426,-12.699999809265137,-0.14044189453125,-0.34051513671875,1.052490234375,35.59000015258789,0.0,-53.0,-4.269805908203125,2.0782318115234375,Closing,0.0,0.0,0.0,0.0,0.0,0.0,0.0,0.0,
5.228733999999939,0.0,0.0,6655.0,20.375,2040.0,2100.0,0.0,0.125,1.407470559,0.5498168668524888,0.0,-14922.0,18.25,2145.0,2100.0,0.0,0.125,4.858397940000001,4.410439589772222,0.0,2350.0,23.5,765.0,2100.0,0.0,0.125,2.6916501150000003,4.389674732977289,0.0,-3539.0,20.125,2062.5,2100.0,0.0,0.25,2.208251727,0.5526872062785588,0.0,-0.3700000047683716,-0.4099999964237213,-45.880001068115234,-0.00225830078125,0.0697021484375,0.40313720703125,35.59000015258789,0.0,-51.0,-4.271575927734375,2.0583343505859375,Closing,0.0,0.0,0.0,0.0,0.0,0.0,0.0,0.0,
5.414339999999967,0.0,0.0,7358.0,0.0,2190.0,0.0,0.0,0.25,1.392822123,0.5498168668524888,0.0,-14208.0,0.0,2107.5,0.0,0.0,0.25,4.862060049,4.410439589772222,0.0,2718.0,0.0,1260.0,0.0,0.0,0.125,2.7954098700000003,4.389674732977289,0.0,-2857.0,0.125,2017.5,0.0,0.0,0.25,2.130126735,0.5526872062785588,0.0,0.20999999344348907,-0.6499999761581421,-90.62999725341797,-0.1297607421875,-0.09881591796875,0.5462646484375,35.59000015258789,0.0,102.0,-4.287750244140625,2.0294952392578125,Closing,0.0,0.0,0.0,0.0,0.0,0.0,0.0,0.0,
5.593415999999968,0.0,0.0,7676.0,0.0,1965.0,0.0,0.0,0.25,1.383056499,0.5498168668524888,0.0,-13869.0,0.0,1972.5,0.0,0.0,0.25,4.882812,4.410439589772222,0.0,2948.0,0.0,1515.0,0.0,0.0,0.0,2.818603227,4.389674732977289,0.0,-2293.0,0.125,1695.0,0.0,0.0,0.25,2.13623025,0.5526872062785588,0.0,0.0,-0.6399999856948853,-125.55000305175781,-0.1741943359375,0.01641845703125,1.32666015625,35.59000015258789,0.0,79.0,-4.3069610595703125,1.9846649169921875,Closing,0.0,0.0,0.0,0.0,0.0,0.0,0.0,0.0,
5.770008000000031,0.0,0.0,7965.0,0.0,1635.0,0.0,0.0,0.25,1.386718608,0.5498168668524888,0.0,-13320.0,0.0,1620.0,0.0,0.0,0.25,4.853515128000001,4.410439589772222,0.0,3434.0,0.0,1477.5,0.0,0.0,0.125,2.81982393,4.389674732977289,0.0,-2068.0,0.125,1372.5,0.0,0.0,0.25,2.13623025,0.5526872062785588,0.0,-0.07000000029802322,-0.5899999737739563,-151.97000122070312,0.02642822265625,0.06085205078125,0.688720703125,35.59000015258789,0.0,-58.0,-4.31768798828125,1.930633544921875,Closing,0.0,0.0,0.0,0.0,0.0,0.0,0.0,0.0,
5.932636999999988,0.0,0.0,8433.0,0.0,1327.5,0.0,0.0,0.25,1.386718608,0.5498168668524888,0.0,-13102.0,0.0,1282.5,0.0,0.0,0.25,4.882812,4.410439589772222,0.0,3628.0,0.0,1155.0,0.0,0.0,0.125,2.818603227,4.389674732977289,0.0,-1876.0,0.125,1095.0,0.0,0.0,0.375,2.131347438,0.5526872062785588,0.0,-0.03999999910593033,-0.8399999737739563,-173.1699981689453,-0.11895751953125,-0.10693359375,1.09210205078125,35.59000015258789,0.0,114.0,-4.32244873046875,1.8685302734375,Closing,0.0,0.0,0.0,0.0,0.0,0.0,0.0,0.0,
6.108521999999997,0.0,0.0,8607.0,0.0,952.5,0.0,0.0,0.25,1.381835796,0.5498168668524888,0.0,-12775.0,0.0,922.5,0.0,0.0,0.25,4.902343248,4.410439589772222,0.0,3791.0,0.0,862.5,0.0,0.0,0.125,2.818603227,4.389674732977289,0.0,-1581.0,0.125,840.0,0.0,0.0,0.25,2.13623025,0.5526872062785588,0.0,-0.1599999964237213,-0.949999988079071,170.80999755859375,-0.0811767578125,-0.04437255859375,0.937744140625,35.59000015258789,0.0,58.0,-4.3189697265625,1.8088226318359375,Closing,0.0,0.0,0.0,0.0,0.0,0.0,0.0,0.0,
6.276158999999985,0.0,0.0,8835.0,0.0,622.5,0.0,0.0,0.25,1.386718608,0.5498168668524888,0.0,-12666.0,0.0,645.0,0.0,0.0,0.125,4.904784654,4.410439589772222,0.0,4010.0,0.0,555.0,0.0,0.0,0.125,2.818603227,4.389674732977289,0.0,-1483.0,0.125,577.5,0.0,0.0,0.25,2.135009547,0.5526872062785588,0.0,-0.17000000178813934,-0.8999999761581421,159.94000244140625,-0.03387451171875,0.04669189453125,0.9254150390625,35.59000015258789,0.0,35.0,-4.3162078857421875,1.7536163330078125,Closing,0.0,0.0,0.0,0.0,0.0,0.0,0.0,0.0,
6.436613999999943,0.0,0.0,8898.0,0.0,337.5,0.0,0.0,0.25,1.386718608,0.5498168668524888,0.0,-12591.0,0.0,367.5,0.0,0.0,0.125,4.902343248,4.410439589772222,0.0,4071.0,0.0,292.5,0.0,0.0,0.125,2.818603227,4.389674732977289,0.0,-1362.0,0.125,330.0,0.0,0.0,0.375,2.135009547,0.5526872062785588,0.0,-0.15000000596046448,-0.8999999761581421,153.25,-0.02130126953125,-0.0045166015625,1.05169677734375,35.59000015258789,0.0,3.0,-4.3134002685546875,1.714385986328125,Closing,0.0,0.0,0.0,0.0,0.0,0.0,0.0,0.0,
6.611699000000022,0.0,0.0,8932.0,0.0,90.0,0.0,0.0,0.25,1.386718608,0.5498168668524888,0.0,-12532.0,0.0,67.5,0.0,0.0,0.125,4.903563951000001,4.410439589772222,0.0,4115.0,0.0,75.0,0.0,0.0,0.125,2.818603227,4.389674732977289,0.0,-1347.0,0.125,75.0,0.0,0.0,0.25,2.135009547,0.5526872062785588,0.0,-0.17000000178813934,-0.8899999856948853,151.57000732421875,-0.035400390625,-0.01007080078125,0.9962158203125,35.54999923706055,0.0,14.0,-4.3133087158203125,1.714630126953125,Closing,0.0,0.0,0.0,0.0,0.0,0.0,0.0,0.0,
6.779405000000028,0.0,0.0,8939.0,0.0,0.0,0.0,0.0,0.25,1.383056499,0.5498168668524888,0.0,-12532.0,0.0,0.0,0.0,0.0,0.125,4.902343248,4.410439589772222,0.0,4115.0,0.0,0.0,0.0,0.0,0.125,2.817382524,4.389674732977289,0.0,-1347.0,0.125,0.0,0.0,0.0,0.25,2.135009547,0.5526872062785588,0.0,-0.09000000357627869,-0.9100000262260437,152.17999267578125,0.00384521484375,0.0032958984375,1.00927734375,35.54999923706055,0.0,-15.0,-4.313232421875,1.71405029296875,Closing,0.0,0.0,0.0,0.0,0.0,0.0,0.0,0.0,
6.944704000000027,0.0,0.0,8939.0,0.0,0.0,0.0,0.0,0.25,1.387939311,0.5498168668524888,0.0,-12532.0,0.0,0.0,0.0,0.0,0.125,4.904784654,4.410439589772222,0.0,4115.0,0.0,0.0,0.0,0.0,0.125,2.818603227,4.389674732977289,0.0,-1347.0,0.125,0.0,0.0,0.0,0.375,2.135009547,0.5526872062785588,0.0,-0.019999999552965164,-0.949999988079071,152.14999389648438,-0.01568603515625,0.00860595703125,1.0164794921875,35.54999923706055,0.0,3.0,-4.3130645751953125,1.71405029296875,Closing,0.0,0.0,0.0,0.0,0.0,0.0,0.0,0.0,
7.110297999999951,0.0,0.0,8939.0,0.0,0.0,0.0,0.0,0.25,1.387939311,0.5498168668524888,0.0,-12532.0,0.0,0.0,0.0,0.0,0.125,4.904784654,4.410439589772222,0.0,4115.0,0.0,0.0,0.0,0.0,0.125,2.81982393,4.389674732977289,0.0,-1347.0,0.125,0.0,0.0,0.0,0.25,2.135009547,0.5526872062785588,0.0,0.029999999329447746,-0.9399999976158142,152.14999389648438,-0.0218505859375,0.00616455078125,1.0166015625,35.59000015258789,0.0,7.0,-4.3130645751953125,1.71405029296875,Closing,0.0,0.0,0.0,0.0,0.0,0.0,0.0,0.0,
7.273070999999996,0.0,0.0,8939.0,0.0,0.0,0.0,0.0,0.25,1.387939311,0.5498168668524888,0.0,-12532.0,0.0,0.0,0.0,0.0,0.125,4.904784654,4.410439589772222,0.0,4115.0,0.0,0.0,0.0,0.0,0.125,2.818603227,4.389674732977289,0.0,-1347.0,0.125,0.0,0.0,0.0,0.25,2.135009547,0.5526872062785588,0.0,0.07999999821186066,-0.9399999976158142,152.13999938964844,-0.02166748046875,0.01483154296875,1.00128173828125,35.59000015258789,0.0,10.0,-4.3130645751953125,1.71392822265625,Closing,0.0,0.0,0.0,0.0,0.0,0.0,0.0,0.0,
7.438809000000008,0.0,0.0,8939.0,0.0,0.0,0.0,0.0,0.25,1.383056499,0.5498168668524888,0.0,-12532.0,0.0,0.0,0.0,0.0,0.125,4.904784654,4.410439589772222,0.0,4115.0,0.0,0.0,0.0,0.0,0.125,2.818603227,4.389674732977289,0.0,-1347.0,0.125,0.0,0.0,0.0,0.25,2.13623025,0.5526872062785588,0.0,0.11999999731779099,-0.9399999976158142,152.13999938964844,-0.01837158203125,0.01043701171875,1.025146484375,35.59000015258789,0.0,5.0,-4.3130645751953125,1.71392822265625,Closing,0.0,0.0,0.0,0.0,0.0,0.0,0.0,0.0,
7.613927000000025,0.0,0.0,8939.0,0.0,0.0,0.0,0.0,0.25,1.386718608,0.5498168668524888,0.0,-12532.0,0.0,0.0,0.0,0.0,0.125,4.904784654,4.410439589772222,0.0,4115.0,0.0,0.0,0.0,0.0,0.125,2.81982393,4.389674732977289,0.0,-1347.0,0.125,0.0,0.0,0.0,0.25,2.13623025,0.5526872062785588,0.0,0.17000000178813934,-0.9399999976158142,152.1300048828125,-0.0181884765625,0.01080322265625,1.0220947265625,35.58000183105469,0.0,4.0,-4.3130645751953125,1.71392822265625,Closing,0.0,0.0,0.0,0.0,0.0,0.0,0.0,0.0,
7.780631999999983,0.0,0.0,8939.0,0.0,0.0,0.0,0.0,0.25,1.387939311,0.5498168668524888,0.0,-12532.0,0.0,0.0,0.0,0.0,0.125,4.902343248,4.410439589772222,0.0,4115.0,0.0,0.0,0.0,0.0,0.125,2.818603227,4.389674732977289,0.0,-1347.0,0.125,0.0,0.0,0.0,0.25,2.135009547,0.5526872062785588,0.0,0.20000000298023224,-0.9399999976158142,152.1300048828125,-0.02069091796875,0.00701904296875,1.02093505859375,35.58000183105469,0.0,4.0,-4.3130645751953125,1.71392822265625,Closing,0.0,0.0,0.0,0.0,0.0,0.0,0.0,0.0,
7.947996999999974,0.0,0.0,8939.0,0.0,0.0,0.0,0.0,0.25,1.383056499,0.5498168668524888,0.0,-12532.0,0.0,0.0,0.0,0.0,0.125,4.903563951000001,4.410439589772222,0.0,4115.0,0.0,0.0,0.0,0.0,0.125,2.818603227,4.389674732977289,0.0,-1347.0,0.125,0.0,0.0,0.0,0.375,2.13623025,0.5526872062785588,0.0,0.23999999463558197,-0.9399999976158142,152.1199951171875,-0.0185546875,0.0108642578125,1.02301025390625,35.58000183105469,0.0,4.0,-4.3130645751953125,1.71392822265625,Closing,0.0,0.0,0.0,0.0,0.0,0.0,0.0,0.0,
8.114437000000034,0.0,0.0,8939.0,0.0,0.0,0.0,0.0,0.25,1.386718608,0.5498168668524888,0.0,-12532.0,0.0,0.0,0.0,0.0,0.125,4.903563951000001,4.410439589772222,0.0,4115.0,0.0,0.0,0.0,0.0,0.125,2.81982393,4.389674732977289,0.0,-1347.0,0.125,0.0,0.0,0.0,0.375,2.135009547,0.5526872062785588,0.0,0.25999999046325684,-0.949999988079071,152.1199951171875,-0.01544189453125,0.0089111328125,1.01812744140625,35.59000015258789,0.0,1.0,-4.3130645751953125,1.71392822265625,Closing,0.0,0.0,0.0,0.0,0.0,0.0,0.0,0.0,
8.27744200000004,0.0,0.0,8939.0,0.0,0.0,0.0,0.0,0.25,1.386718608,0.5498168668524888,0.0,-12532.0,0.0,0.0,0.0,0.0,0.125,4.903563951000001,4.410439589772222,0.0,4115.0,0.0,0.0,0.0,0.0,0.125,2.818603227,4.389674732977289,0.0,-1347.0,0.125,0.0,0.0,0.0,0.375,2.132568141,0.5526872062785588,0.0,0.28999999165534973,-0.949999988079071,152.11000061035156,-0.01470947265625,0.0052490234375,1.0225830078125,35.59000015258789,0.0,-2.0,-4.3130645751953125,1.71392822265625,Closing,0.0,0.0,0.0,0.0,0.0,0.0,0.0,0.0,
8.450157999999938,0.0,0.0,8939.0,0.0,0.0,0.0,0.0,0.25,1.386718608,0.5498168668524888,0.0,-12532.0,0.0,0.0,0.0,0.0,0.125,4.903563951000001,4.410439589772222,0.0,4115.0,0.0,0.0,0.0,0.0,0.125,2.81982393,4.389674732977289,0.0,-1347.0,0.125,0.0,0.0,0.0,0.375,2.135009547,0.5526872062785588,0.0,0.3100000023841858,-0.949999988079071,152.11000061035156,-0.02056884765625,0.00775146484375,1.0206298828125,35.59000015258789,0.0,4.0,-4.3130645751953125,1.71392822265625,Closing,0.0,0.0,0.0,0.0,0.0,0.0,0.0,0.0,
8.617951999999931,0.0,0.0,8939.0,0.0,0.0,0.0,0.0,0.25,1.386718608,0.5498168668524888,0.0,-12532.0,0.0,0.0,0.0,0.0,0.125,4.906005357000001,4.410439589772222,0.0,4115.0,0.0,0.0,0.0,0.0,0.125,2.81982393,4.389674732977289,0.0,-1347.0,0.125,0.0,0.0,0.0,0.25,2.135009547,0.5526872062785588,0.0,0.33000001311302185,-0.949999988079071,152.10000610351562,-0.01629638671875,0.00933837890625,1.013671875,35.630001068115234,0.0,1.0,-4.3130645751953125,1.71392822265625,Closing,0.0,0.0,0.0,0.0,0.0,0.0,0.0,0.0,
8.790474999999976,0.0,0.0,8939.0,0.0,0.0,0.0,0.0,0.25,1.383056499,0.5498168668524888,0.0,-12532.0,0.0,0.0,0.0,0.0,0.125,4.904784654,4.410439589772222,0.0,4115.0,0.0,0.0,0.0,0.0,0.125,2.818603227,4.389674732977289,0.0,-1347.0,0.125,0.0,0.0,0.0,0.25,2.13623025,0.5526872062785588,0.0,0.3400000035762787,-0.9599999785423279,152.08999633789062,-0.01763916015625,0.00885009765625,1.01885986328125,35.630001068115234,0.0,1.0,-4.3130645751953125,1.71392822265625,Closing,0.0,0.0,0.0,0.0,0.0,0.0,0.0,0.0,
8.955378000000026,0.0,0.0,8939.0,0.0,0.0,0.0,0.0,0.25,1.386718608,0.5498168668524888,0.0,-12532.0,0.0,0.0,0.0,0.0,0.125,4.902343248,4.410439589772222,0.0,4115.0,0.0,0.0,0.0,0.0,0.125,2.818603227,4.389674732977289,0.0,-1347.0,0.125,0.0,0.0,0.0,0.25,2.135009547,0.5526872062785588,0.0,0.36000001430511475,-0.9599999785423279,152.0800018310547,-0.01605224609375,0.00665283203125,1.02508544921875,35.630001068115234,0.0,0.0,-4.3130645751953125,1.71392822265625,Closing,0.0,0.0,0.0,0.0,0.0,0.0,0.0,0.0,
9.127954999999957,0.0,0.0,8939.0,0.0,0.0,0.0,0.0,0.25,1.387939311,0.5498168668524888,0.0,-12532.0,0.0,0.0,0.0,0.0,0.125,4.902343248,4.410439589772222,0.0,4115.0,0.0,0.0,0.0,0.0,0.125,2.817382524,4.389674732977289,0.0,-1347.0,0.125,0.0,0.0,0.0,0.25,2.13623025,0.5526872062785588,0.0,0.36000001430511475,-0.9599999785423279,152.0800018310547,-0.016357421875,0.0052490234375,1.01983642578125,35.56999969482422,0.0,-1.0,-4.3130645751953125,1.71392822265625,Closing,0.0,0.0,0.0,0.0,0.0,0.0,0.0,0.0,
9.291415000000038,0.0,0.0,8939.0,0.0,0.0,0.0,0.0,0.25,1.381835796,0.5498168668524888,0.0,-12532.0,0.0,0.0,0.0,0.0,0.125,4.904784654,4.410439589772222,0.0,4115.0,0.0,0.0,0.0,0.0,0.125,2.81982393,4.389674732977289,0.0,-1347.0,0.125,0.0,0.0,0.0,0.25,2.13623025,0.5526872062785588,0.0,0.3700000047683716,-0.9599999785423279,152.0800018310547,-0.0181884765625,0.00665283203125,1.0194091796875,35.56999969482422,0.0,0.0,-4.3130645751953125,1.71392822265625,Closing,0.0,0.0,0.0,0.0,0.0,0.0,0.0,0.0,
9.462062999999965,0.0,0.0,8939.0,0.0,0.0,0.0,0.0,0.25,1.383056499,0.5498168668524888,0.0,-12532.0,0.0,0.0,0.0,0.0,0.125,4.903563951000001,4.410439589772222,0.0,4115.0,0.0,0.0,0.0,0.0,0.125,2.818603227,4.389674732977289,0.0,-1347.0,0.125,0.0,0.0,0.0,0.25,2.13623025,0.5526872062785588,0.0,0.3799999952316284,-0.9599999785423279,152.0800018310547,-0.0150146484375,0.00775146484375,1.0228271484375,35.56999969482422,0.0,-1.0,-4.3130645751953125,1.71392822265625,Closing,0.0,0.0,0.0,0.0,0.0,0.0,0.0,0.0,
9.629810999999988,0.0,0.0,8939.0,0.0,0.0,0.0,0.0,0.25,1.387939311,0.5498168668524888,0.0,-12532.0,0.0,0.0,0.0,0.0,0.125,4.903563951000001,4.410439589772222,0.0,4115.0,0.0,0.0,0.0,0.0,0.125,2.818603227,4.389674732977289,0.0,-1347.0,0.125,0.0,0.0,0.0,0.375,2.135009547,0.5526872062785588,0.0,0.38999998569488525,-0.9599999785423279,152.07000732421875,-0.01397705078125,0.004638671875,1.0157470703125,35.619998931884766,0.0,-3.0,-4.3130645751953125,1.71392822265625,Closing,0.0,0.0,0.0,0.0,0.0,0.0,0.0,0.0,
9.793559999999939,0.0,0.0,8939.0,0.0,0.0,0.0,0.0,0.25,1.387939311,0.5498168668524888,0.0,-12532.0,0.0,0.0,0.0,0.0,0.125,4.902343248,4.410439589772222,0.0,4115.0,0.0,0.0,0.0,0.0,0.125,2.818603227,4.389674732977289,0.0,-1347.0,0.125,0.0,0.0,0.0,0.25,2.13623025,0.5526872062785588,0.0,0.4000000059604645,-0.9599999785423279,152.07000732421875,-0.0164794921875,0.0067138671875,1.01922607421875,35.619998931884766,0.0,0.0,-4.3130645751953125,1.71392822265625,Closing,0.0,0.0,0.0,0.0,0.0,0.0,0.0,0.0,
9.969682000000029,0.0,0.0,8939.0,0.0,0.0,0.0,0.0,0.25,1.386718608,0.5498168668524888,0.0,-12532.0,0.0,0.0,0.0,0.0,0.125,4.903563951000001,4.410439589772222,0.0,4115.0,0.0,0.0,0.0,0.0,0.125,2.81982393,4.389674732977289,0.0,-1347.0,0.125,0.0,0.0,0.0,0.375,2.135009547,0.5526872062785588,0.0,0.4099999964237213,-0.9599999785423279,152.05999755859375,-0.0174560546875,0.00823974609375,1.01849365234375,35.619998931884766,0.0,0.0,-4.3130645751953125,1.71392822265625,Closing,0.0,0.0,0.0,0.0,0.0,0.0,0.0,0.0,
10.13455700000003,0.0,0.0,8939.0,0.0,0.0,0.0,0.0,0.25,1.381835796,0.5498168668524888,0.0,-12532.0,0.0,0.0,0.0,0.0,0.125,4.904784654,4.410439589772222,0.0,4115.0,0.0,0.0,0.0,0.0,0.125,2.818603227,4.389674732977289,0.0,-1347.0,0.125,0.0,0.0,0.0,0.375,2.135009547,0.5526872062785588,0.0,0.41999998688697815,-0.9599999785423279,152.05999755859375,-0.01873779296875,0.0106201171875,1.01580810546875,35.619998931884766,0.0,2.0,-4.3130645751953125,1.71392822265625,Closing,0.0,0.0,0.0,0.0,0.0,0.0,0.0,0.0,
10.300339999999967,0.0,0.0,8939.0,0.0,0.0,0.0,0.0,0.25,1.386718608,0.5498168668524888,0.0,-12532.0,0.0,0.0,0.0,0.0,0.125,4.903563951000001,4.410439589772222,0.0,4115.0,0.0,0.0,0.0,0.0,0.125,2.818603227,4.389674732977289,0.0,-1347.0,0.125,0.0,0.0,0.0,0.375,2.13623025,0.5526872062785588,0.0,0.4300000071525574,-0.9599999785423279,152.05999755859375,-0.01702880859375,0.00982666015625,1.01861572265625,35.619998931884766,0.0,0.0,-4.3130645751953125,1.71392822265625,Closing,0.0,0.0,0.0,0.0,0.0,0.0,0.0,0.0,
10.475795999999972,0.0,0.0,8939.0,0.0,0.0,0.0,0.0,0.25,1.384277202,0.5498168668524888,0.0,-12532.0,0.0,0.0,0.0,0.0,0.125,4.902343248,4.410439589772222,0.0,4115.0,0.0,0.0,0.0,0.0,0.125,2.818603227,4.389674732977289,0.0,-1347.0,0.125,0.0,0.0,0.0,0.375,2.135009547,0.5526872062785588,0.0,0.4300000071525574,-0.9599999785423279,152.0500030517578,-0.01690673828125,0.00640869140625,1.02105712890625,35.619998931884766,0.0,0.0,-4.3130645751953125,1.71392822265625,Closing,0.0,0.0,0.0,0.0,0.0,0.0,0.0,0.0,
10.646478999999934,0.0,0.0,8939.0,0.0,0.0,0.0,0.0,0.25,1.381835796,0.5498168668524888,0.0,-12532.0,0.0,0.0,0.0,0.0,0.125,4.902343248,4.410439589772222,0.0,4115.0,0.0,0.0,0.0,0.0,0.125,2.818603227,4.389674732977289,0.0,-1347.0,0.125,0.0,0.0,0.0,0.375,2.135009547,0.5526872062785588,0.0,0.4300000071525574,-0.9599999785423279,152.0399932861328,-0.01934814453125,0.00750732421875,1.0194091796875,35.59000015258789,0.0,1.0,-4.3130645751953125,1.71392822265625,Closing,0.0,0.0,0.0,0.0,0.0,0.0,0.0,0.0,
10.813625999999932,0.0,0.0,8939.0,0.0,0.0,0.0,0.0,0.25,1.386718608,0.5498168668524888,0.0,-12532.0,0.0,0.0,0.0,0.0,0.125,4.903563951000001,4.410439589772222,0.0,4115.0,0.0,0.0,0.0,0.0,0.125,2.818603227,4.389674732977289,0.0,-1347.0,0.125,0.0,0.0,0.0,0.25,2.135009547,0.5526872062785588,0.0,0.4399999976158142,-0.9599999785423279,152.0399932861328,-0.0186767578125,0.00616455078125,1.01702880859375,35.59000015258789,0.0,0.0,-4.3130645751953125,1.71392822265625,Closing,0.0,0.0,0.0,0.0,0.0,0.0,0.0,0.0,
10.982045999999974,0.0,0.0,8939.0,0.0,0.0,0.0,0.0,0.25,1.386718608,0.5498168668524888,0.0,-12532.0,0.0,0.0,0.0,0.0,0.125,4.903563951000001,4.410439589772222,0.0,4115.0,0.0,0.0,0.0,0.0,0.125,2.818603227,4.389674732977289,0.0,-1347.0,0.125,0.0,0.0,0.0,0.375,2.13623025,0.5526872062785588,0.0,0.4399999976158142,-0.9700000286102295,152.02999877929688,-0.01806640625,0.00787353515625,1.0162353515625,35.59000015258789,0.0,0.0,-4.3130645751953125,1.71392822265625,Closing,0.0,0.0,0.0,0.0,0.0,0.0,0.0,0.0,
11.15058600000001,0.0,0.0,8939.0,0.0,0.0,0.0,0.0,0.25,1.381835796,0.5498168668524888,0.0,-12532.0,0.0,0.0,0.0,0.0,0.125,4.903563951000001,4.410439589772222,0.0,4115.0,0.0,0.0,0.0,0.0,0.125,2.81982393,4.389674732977289,0.0,-1347.0,0.125,0.0,0.0,0.0,0.375,2.135009547,0.5526872062785588,0.0,0.4399999976158142,-0.9800000190734863,152.02999877929688,-0.0145263671875,0.009765625,1.01690673828125,35.56999969482422,0.0,-1.0,-4.3130645751953125,1.71392822265625,Closing,0.0,0.0,0.0,0.0,0.0,0.0,0.0,0.0,
11.313820999999995,0.0,0.0,8939.0,0.0,0.0,0.0,0.0,0.25,1.386718608,0.5498168668524888,0.0,-12532.0,0.0,0.0,0.0,0.0,0.125,4.902343248,4.410439589772222,0.0,4115.0,0.0,0.0,0.0,0.0,0.125,2.818603227,4.389674732977289,0.0,-1347.0,0.125,0.0,0.0,0.0,0.25,2.135009547,0.5526872062785588,0.0,0.4399999976158142,-0.9700000286102295,152.02000427246094,-0.01971435546875,0.00982666015625,1.0216064453125,35.56999969482422,0.0,2.0,-4.3130645751953125,1.71392822265625,Closing,0.0,0.0,0.0,0.0,0.0,0.0,0.0,0.0,
11.489888000000036,0.0,0.0,8939.0,0.0,0.0,0.0,0.0,0.25,1.381835796,0.5498168668524888,0.0,-12532.0,0.0,0.0,0.0,0.0,0.125,4.903563951000001,4.410439589772222,0.0,4115.0,0.0,0.0,0.0,0.0,0.125,2.817382524,4.389674732977289,0.0,-1347.0,0.125,0.0,0.0,0.0,0.25,2.135009547,0.5526872062785588,0.0,0.44999998807907104,-0.9800000190734863,152.02000427246094,-0.02294921875,0.10394287109375,1.087646484375,35.56999969482422,0.0,48.0,-4.313201904296875,1.7132415771484375,Closing,0.0,0.0,0.0,0.0,0.0,0.0,0.0,0.0,
11.667118000000016,0.0,0.0,8939.0,0.0,0.0,0.0,0.0,0.25,1.385497905,0.5498168668524888,0.0,-12532.0,0.0,0.0,0.0,0.0,0.125,4.902343248,4.410439589772222,0.0,4115.0,0.0,0.0,0.0,0.0,0.125,2.818603227,4.389674732977289,0.0,-1347.0,0.125,0.0,0.0,0.0,0.375,2.13623025,0.5526872062785588,0.0,0.47999998927116394,-0.9700000286102295,152.0,-0.01641845703125,-7.32421875E-4,1.06451416015625,35.59000015258789,0.0,-6.0,-4.3135223388671875,1.7135009765625,Closing,0.0,0.0,0.0,0.0,0.0,0.0,0.0,0.0,
11.847398999999976,0.0,0.0,8939.0,0.0,0.0,0.0,0.0,0.25,1.386718608,0.5498168668524888,0.0,-12532.0,0.0,0.0,0.0,0.0,0.125,4.903563951000001,4.410439589772222,0.0,4115.0,0.0,0.0,0.0,0.0,0.125,2.81982393,4.389674732977289,0.0,-1347.0,0.125,0.0,0.0,0.0,0.25,2.135009547,0.5526872062785588,0.0,0.47999998927116394,-0.9599999785423279,152.0,-0.0137939453125,0.01715087890625,1.0166015625,35.59000015258789,0.0,1.0,-4.3135223388671875,1.7136993408203125,Closing,0.0,0.0,0.0,0.0,0.0,0.0,0.0,0.0,
12.030390999999945,0.0,0.0,8939.0,0.0,0.0,0.0,0.0,0.25,1.386718608,0.5498168668524888,0.0,-12532.0,0.0,0.0,0.0,0.0,0.125,4.903563951000001,4.410439589772222,0.0,4115.0,0.0,0.0,0.0,0.0,0.125,2.81982393,4.389674732977289,0.0,-1347.0,0.125,0.0,0.0,0.0,0.375,2.13623025,0.5526872062785588,0.0,0.4699999988079071,-0.9599999785423279,152.0,-0.0169677734375,0.00335693359375,1.023681640625,35.59000015258789,0.0,-2.0,-4.3135223388671875,1.7136993408203125,Closing,0.0,0.0,0.0,0.0,0.0,0.0,0.0,0.0,
12.208440999999992,0.0,0.0,8939.0,0.0,0.0,0.0,0.0,0.25,1.386718608,0.5498168668524888,0.0,-12532.0,0.0,0.0,0.0,0.0,0.125,4.903563951000001,4.410439589772222,0.0,4115.0,0.0,0.0,0.0,0.0,0.125,2.818603227,4.389674732977289,0.0,-1347.0,0.125,0.0,0.0,0.0,0.375,2.135009547,0.5526872062785588,0.0,0.46000000834465027,-0.9599999785423279,151.99000549316406,-0.0130615234375,0.0091552734375,1.0198974609375,35.619998931884766,0.0,-3.0,-4.3135223388671875,1.7136993408203125,Closing,0.0,0.0,0.0,0.0,0.0,0.0,0.0,0.0,
12.389836999999941,0.0,0.0,8939.0,0.0,0.0,0.0,0.0,0.25,1.387939311,0.5498168668524888,0.0,-12532.0,0.0,0.0,0.0,0.0,0.125,4.904784654,4.410439589772222,0.0,4115.0,0.0,0.0,0.0,0.0,0.125,2.81982393,4.389674732977289,0.0,-1347.0,0.125,0.0,0.0,0.0,0.375,2.135009547,0.5526872062785588,0.0,0.46000000834465027,-0.9700000286102295,151.99000549316406,-0.01214599609375,0.0037841796875,1.016357421875,35.619998931884766,0.0,-6.0,-4.3135223388671875,1.7136993408203125,Closing,0.0,0.0,0.0,0.0,0.0,0.0,0.0,0.0,
12.570277000000003,0.0,0.0,8939.0,0.0,0.0,0.0,0.0,0.25,1.383056499,0.5498168668524888,0.0,-12532.0,0.0,0.0,0.0,0.0,0.125,4.903563951000001,4.410439589772222,0.0,4115.0,0.0,0.0,0.0,0.0,0.125,2.81982393,4.389674732977289,0.0,-1347.0,0.125,0.0,0.0,0.0,0.25,2.13623025,0.5526872062785588,0.0,0.44999998807907104,-0.9700000286102295,151.97999572753906,-0.0174560546875,0.005615234375,1.01898193359375,35.619998931884766,0.0,-1.0,-4.3135223388671875,1.7136993408203125,Closing,0.0,0.0,0.0,0.0,0.0,0.0,0.0,0.0,
12.74894499999995,0.0,0.0,8939.0,0.0,0.0,0.0,0.0,0.25,1.387939311,0.5498168668524888,0.0,-12532.0,0.0,0.0,0.0,0.0,0.125,4.906005357000001,4.410439589772222,0.0,4115.0,0.0,0.0,0.0,0.0,0.125,2.818603227,4.389674732977289,0.0,-1347.0,0.125,0.0,0.0,0.0,0.25,2.135009547,0.5526872062785588,0.0,0.44999998807907104,-0.9599999785423279,151.97000122070312,-0.0155029296875,0.00689697265625,1.0174560546875,35.61000061035156,0.0,-2.0,-4.3135223388671875,1.7136993408203125,Closing,0.0,0.0,0.0,0.0,0.0,0.0,0.0,0.0,
12.929175999999977,0.0,0.0,8939.0,0.0,0.0,0.0,0.0,0.25,1.386718608,0.5498168668524888,0.0,-12532.0,0.0,0.0,0.0,0.0,0.125,4.904784654,4.410439589772222,0.0,4115.0,0.0,0.0,0.0,0.0,0.125,2.818603227,4.389674732977289,0.0,-1347.0,0.125,0.0,0.0,0.0,0.25,2.135009547,0.5526872062785588,0.0,0.44999998807907104,-0.9599999785423279,151.97000122070312,-0.016845703125,0.00799560546875,1.02252197265625,35.61000061035156,0.0,0.0,-4.3135223388671875,1.7136993408203125,Closing,0.0,0.0,0.0,0.0,0.0,0.0,0.0,0.0,
13.089890999999945,0.0,0.0,8939.0,0.0,0.0,0.0,0.0,0.25,1.381835796,0.5498168668524888,0.0,-12532.0,0.0,0.0,0.0,0.0,0.125,4.902343248,4.410439589772222,0.0,4115.0,0.0,0.0,0.0,0.0,0.125,2.81982393,4.389674732977289,0.0,-1347.0,0.125,0.0,0.0,0.0,0.375,2.135009547,0.5526872062785588,0.0,0.46000000834465027,-0.9599999785423279,151.97000122070312,-0.01641845703125,0.00604248046875,1.0194091796875,35.59000015258789,0.0,-1.0,-4.3135223388671875,1.7136993408203125,Closing,0.0,0.0,0.0,0.0,0.0,0.0,0.0,0.0,
13.255136999999987,0.0,0.0,8939.0,0.0,0.0,0.0,0.0,0.25,1.383056499,0.5498168668524888,0.0,-12532.0,0.0,0.0,0.0,0.0,0.125,4.903563951000001,4.410439589772222,0.0,4115.0,0.0,0.0,0.0,0.0,0.125,2.818603227,4.389674732977289,0.0,-1347.0,0.125,0.0,0.0,0.0,0.375,2.13623025,0.5526872062785588,0.0,0.46000000834465027,-0.9700000286102295,151.97000122070312,-0.01708984375,0.0074462890625,1.01556396484375,35.59000015258789,0.0,0.0,-4.3135223388671875,1.7136993408203125,Closing,0.0,0.0,0.0,0.0,0.0,0.0,0.0,0.0,
13.427758000000031,0.0,0.0,8939.0,0.0,0.0,0.0,0.0,0.25,1.381835796,0.5498168668524888,0.0,-12532.0,0.0,0.0,0.0,0.0,0.125,4.903563951000001,4.410439589772222,0.0,4115.0,0.0,0.0,0.0,0.0,0.125,2.81982393,4.389674732977289,0.0,-1347.0,0.125,0.0,0.0,0.0,0.375,2.135009547,0.5526872062785588,0.0,0.46000000834465027,-0.9599999785423279,151.9600067138672,-0.0147705078125,0.0087890625,1.01641845703125,35.59000015258789,0.0,-1.0,-4.3135223388671875,1.7136993408203125,Closing,0.0,0.0,0.0,0.0,0.0,0.0,0.0,0.0,
13.603270000000018,0.0,0.0,8939.0,0.0,0.0,0.0,0.0,0.25,1.386718608,0.5498168668524888,0.0,-12532.0,0.0,0.0,0.0,0.0,0.125,4.908446763000001,4.410439589772222,0.0,4115.0,0.0,0.0,0.0,0.0,0.125,2.818603227,4.389674732977289,0.0,-1347.0,0.125,0.0,0.0,0.0,0.25,2.135009547,0.5526872062785588,0.0,0.4300000071525574,-0.9800000190734863,151.92999267578125,-0.0194091796875,-0.06903076171875,1.01654052734375,35.59000015258789,0.0,-34.0,-4.31353759765625,1.7138214111328125,Closing,0.0,0.0,0.0,0.0,0.0,0.0,0.0,0.0,
13.768006999999983,0.0,0.0,8939.0,0.0,0.0,0.0,0.0,0.25,1.386718608,0.5498168668524888,0.0,-12532.0,0.0,0.0,0.0,0.0,0.125,4.904784654,4.410439589772222,0.0,4115.0,0.0,0.0,0.0,0.0,0.125,2.81982393,4.389674732977289,0.0,-1347.0,0.125,0.0,0.0,0.0,0.25,2.13623025,0.5526872062785588,0.0,0.41999998688697815,-0.949999988079071,151.6699981689453,-0.038330078125,0.02081298828125,1.0262451171875,35.619998931884766,0.0,24.0,-4.31365966796875,1.7135467529296875,Closing,0.0,0.0,0.0,0.0,0.0,0.0,0.0,0.0,
13.934657000000007,0.0,0.0,8939.0,0.0,0.0,0.0,0.0,0.25,1.381835796,0.5498168668524888,0.0,-12532.0,0.0,0.0,0.0,0.0,0.125,4.904784654,4.410439589772222,0.0,4115.0,0.0,0.0,0.0,0.0,0.125,2.81982393,4.389674732977289,0.0,-1347.0,0.125,0.0,0.0,0.0,0.25,2.135009547,0.5526872062785588,0.0,0.46000000834465027,-0.9100000262260437,151.6699981689453,-0.02734375,0.0018310546875,1.012939453125,35.619998931884766,0.0,6.0,-4.3136749267578125,1.713409423828125,Closing,0.0,0.0,0.0,0.0,0.0,0.0,0.0,0.0,
14.106016999999992,0.0,0.0,8939.0,0.0,0.0,0.0,0.0,0.25,1.381835796,0.5498168668524888,0.0,-12532.0,0.0,0.0,0.0,0.0,0.125,4.902343248,4.410439589772222,0.0,4115.0,0.0,0.0,0.0,0.0,0.125,2.818603227,4.389674732977289,0.0,-1347.0,0.125,0.0,0.0,0.0,0.375,2.135009547,0.5526872062785588,0.0,0.46000000834465027,-0.9300000071525574,151.67999267578125,-0.01373291015625,0.015380859375,1.0252685546875,35.619998931884766,0.0,0.0,-4.3136749267578125,1.713409423828125,Closing,0.0,0.0,0.0,0.0,0.0,0.0,0.0,0.0,
14.270331999999936,0.0,0.0,8939.0,0.0,0.0,0.0,0.0,0.25,1.383056499,0.5498168668524888,0.0,-12532.0,0.0,0.0,0.0,0.0,0.125,4.902343248,4.410439589772222,0.0,4115.0,0.0,0.0,0.0,0.0,0.125,2.81982393,4.389674732977289,0.0,-1347.0,0.125,0.0,0.0,0.0,0.25,2.135009547,0.5526872062785588,0.0,0.46000000834465027,-0.9399999976158142,151.6699981689453,-0.013671875,0.00946044921875,1.02215576171875,35.61000061035156,0.0,-2.0,-4.3136749267578125,1.713409423828125,Closing,0.0,0.0,0.0,0.0,0.0,0.0,0.0,0.0,
14.43464599999995,0.0,0.0,8939.0,0.0,0.0,0.0,0.0,0.25,1.386718608,0.5498168668524888,0.0,-12532.0,0.0,0.0,0.0,0.0,0.125,4.904784654,4.410439589772222,0.0,4115.0,0.0,0.0,0.0,0.0,0.125,2.81982393,4.389674732977289,0.0,-1347.0,0.125,0.0,0.0,0.0,0.25,2.135009547,0.5526872062785588,0.0,0.4399999976158142,-0.9700000286102295,151.6699981689453,-0.0047607421875,-3.662109375E-4,1.00592041015625,35.61000061035156,0.0,-14.0,-4.3143768310546875,1.713958740234375,Closing,0.0,0.0,0.0,0.0,0.0,0.0,0.0,0.0,
14.60719299999997,0.0,0.0,8939.0,0.0,0.0,0.0,0.0,0.25,1.386718608,0.5498168668524888,0.0,-12532.0,0.0,0.0,0.0,0.0,0.125,4.902343248,4.410439589772222,0.0,4115.0,0.0,0.0,0.0,0.0,0.125,2.818603227,4.389674732977289,0.0,-1347.0,0.125,0.0,0.0,0.0,0.375,2.135009547,0.5526872062785588,0.0,0.41999998688697815,-0.9700000286102295,151.82000732421875,-0.014892578125,0.03338623046875,1.0152587890625,35.61000061035156,0.0,10.0,-4.3143768310546875,1.713836669921875,Closing,0.0,0.0,0.0,0.0,0.0,0.0,0.0,0.0,
14.780498000000021,0.0,0.0,8939.0,0.0,0.0,0.0,0.0,0.25,1.381835796,0.5498168668524888,0.0,-12532.0,0.0,0.0,0.0,0.0,0.125,4.903563951000001,4.410439589772222,0.0,4115.0,0.0,0.0,0.0,0.0,0.125,2.81982393,4.389674732977289,0.0,-1347.0,0.125,0.0,0.0,0.0,0.25,2.13623025,0.5526872062785588,0.0,0.4399999976158142,-0.9700000286102295,151.8000030517578,-0.01910400390625,0.0093994140625,1.02203369140625,35.61000061035156,0.0,2.0,-4.3143768310546875,1.7137451171875,Closing,0.0,0.0,0.0,0.0,0.0,0.0,0.0,0.0,
14.950255999999936,0.0,0.0,8939.0,0.0,0.0,0.0,0.0,0.25,1.381835796,0.5498168668524888,0.0,-12532.0,0.0,0.0,0.0,0.0,0.125,4.904784654,4.410439589772222,0.0,4115.0,0.0,0.0,0.0,0.0,0.125,2.818603227,4.389674732977289,0.0,-1347.0,0.125,0.0,0.0,0.0,0.375,2.135009547,0.5526872062785588,0.0,0.4399999976158142,-0.9700000286102295,151.7899932861328,-0.01849365234375,0.01263427734375,1.01849365234375,35.61000061035156,0.0,3.0,-4.3143768310546875,1.7137451171875,Closing,0.0,0.0,0.0,0.0,0.0,0.0,0.0,0.0,
15.11179700000002,0.0,0.0,8939.0,0.0,0.0,0.0,0.0,0.25,1.387939311,0.5498168668524888,0.0,-12532.0,0.0,0.0,0.0,0.0,0.125,4.904784654,4.410439589772222,0.0,4115.0,0.0,0.0,0.0,0.0,0.125,2.81982393,4.389674732977289,0.0,-1347.0,0.125,0.0,0.0,0.0,0.375,2.135009547,0.5526872062785588,0.0,0.4399999976158142,-0.9700000286102295,151.8000030517578,-0.01727294921875,0.01025390625,1.0118408203125,35.61000061035156,0.0,1.0,-4.3143768310546875,1.7137451171875,Closing,0.0,0.0,0.0,0.0,0.0,0.0,0.0,0.0,
15.281209000000032,0.0,0.0,8939.0,0.0,0.0,0.0,0.0,0.25,1.387939311,0.5498168668524888,0.0,-12532.0,0.0,0.0,0.0,0.0,0.125,4.903563951000001,4.410439589772222,0.0,4115.0,0.0,0.0,0.0,0.0,0.125,2.818603227,4.389674732977289,0.0,-1347.0,0.125,0.0,0.0,0.0,0.25,2.13623025,0.5526872062785588,0.0,0.4399999976158142,-0.9700000286102295,151.7899932861328,-0.01611328125,0.00933837890625,1.0213623046875,35.619998931884766,0.0,0.0,-4.3143768310546875,1.7137451171875,Closing,0.0,0.0,0.0,0.0,0.0,0.0,0.0,0.0,
15.447853999999934,0.0,0.0,8939.0,0.0,0.0,0.0,0.0,0.25,1.387939311,0.5498168668524888,0.0,-12532.0,0.0,0.0,0.0,0.0,0.125,4.904784654,4.410439589772222,0.0,4115.0,0.0,0.0,0.0,0.0,0.125,2.818603227,4.389674732977289,0.0,-1347.0,0.125,0.0,0.0,0.0,0.25,2.135009547,0.5526872062785588,0.0,0.4300000071525574,-0.9900000095367432,151.75999450683594,-0.0628662109375,-4.2724609375E-4,1.1051025390625,35.619998931884766,0.0,34.0,-4.3143310546875,1.71392822265625,Closing,0.0,0.0,0.0,0.0,0.0,0.0,0.0,0.0,
15.618734999999987,0.0,0.0,8939.0,0.0,0.0,0.0,0.0,0.25,1.381835796,0.5498168668524888,0.0,-12532.0,0.0,0.0,0.0,0.0,0.125,4.903563951000001,4.410439589772222,0.0,4115.0,0.0,0.0,0.0,0.0,0.125,2.818603227,4.389674732977289,0.0,-1347.0,0.125,0.0,0.0,0.0,0.375,2.13623025,0.5526872062785588,0.0,0.36000001430511475,-0.9800000190734863,151.7899932861328,-0.07183837890625,0.01507568359375,0.955322265625,35.619998931884766,0.0,53.0,-4.3134002685546875,1.7142486572265625,Closing,0.0,0.0,0.0,0.0,0.0,0.0,0.0,0.0,
15.791967999999994,0.0,0.0,8939.0,0.0,0.0,0.0,0.0,0.25,1.384277202,0.5498168668524888,0.0,-12532.0,0.0,0.0,0.0,0.0,0.125,4.90722606,4.410439589772222,0.0,4115.0,0.0,0.0,0.0,0.0,0.125,2.818603227,4.389674732977289,0.0,-1347.0,0.125,0.0,0.0,0.0,0.25,2.135009547,0.5526872062785588,0.0,0.20999999344348907,-1.0099999904632568,151.80999755859375,-0.0137939453125,0.0216064453125,0.9046630859375,35.61000061035156,0.0,6.0,-4.31573486328125,1.713897705078125,Closing,0.0,0.0,0.0,0.0,0.0,0.0,0.0,0.0,
15.957175999999977,0.0,0.0,8939.0,0.0,0.0,0.0,0.0,0.25,1.386718608,0.5498168668524888,0.0,-12532.0,0.0,0.0,0.0,0.0,0.0,4.908446763000001,4.410439589772222,0.0,4115.0,0.0,0.0,0.0,0.0,0.125,2.81982393,4.389674732977289,0.0,-1347.0,0.125,0.0,0.0,0.0,0.375,2.135009547,0.5526872062785588,0.0,0.23000000417232513,-1.059999942779541,151.82000732421875,0.02978515625,-0.02545166015625,1.024169921875,35.61000061035156,0.0,-56.0,-4.31414794921875,1.7143096923828125,Closing,0.0,0.0,0.0,0.0,0.0,0.0,0.0,0.0,
16.130707999999984,0.0,0.0,8939.0,0.0,0.0,0.0,0.0,0.25,1.386718608,0.5498168668524888,0.0,-12532.0,0.0,0.0,0.0,0.0,0.0,4.909667466,4.410439589772222,0.0,4115.0,0.0,0.0,0.0,0.0,0.125,2.818603227,4.389674732977289,0.0,-1347.0,0.125,0.0,0.0,0.0,0.25,2.13623025,0.5526872062785588,0.0,0.27000001072883606,-1.0399999618530273,151.82000732421875,0.0028076171875,0.00115966796875,1.00567626953125,35.61000061035156,0.0,-20.0,-4.3135223388671875,1.713836669921875,Closing,0.0,0.0,0.0,0.0,0.0,0.0,0.0,0.0,
16.294022,0.0,0.0,8939.0,0.0,0.0,0.0,0.0,0.25,1.381835796,0.5498168668524888,0.0,-12532.0,0.0,0.0,0.0,0.0,0.0,4.909667466,4.410439589772222,0.0,4115.0,0.0,0.0,0.0,0.0,0.125,2.818603227,4.389674732977289,0.0,-1347.0,0.125,0.0,0.0,0.0,0.25,2.13623025,0.5526872062785588,0.0,0.2800000011920929,-1.0499999523162842,151.80999755859375,-0.01434326171875,-0.00860595703125,1.03582763671875,35.630001068115234,0.0,-6.0,-4.31390380859375,1.7138824462890625,Closing,0.0,0.0,0.0,0.0,0.0,0.0,0.0,0.0,
16.457348,0.0,0.0,8939.0,0.0,0.0,0.0,0.0,0.25,1.386718608,0.5498168668524888,0.0,-12532.0,0.0,0.0,0.0,0.0,0.0,4.90722606,4.410439589772222,0.0,4115.0,0.0,0.0,0.0,0.0,0.125,2.818603227,4.389674732977289,0.0,-1347.0,0.125,0.0,0.0,0.0,0.25,2.135009547,0.5526872062785588,0.0,0.30000001192092896,-1.0399999618530273,151.80999755859375,-0.01593017578125,-4.2724609375E-4,1.02325439453125,35.630001068115234,0.0,-5.0,-4.31390380859375,1.7138824462890625,Closing,0.0,0.0,0.0,0.0,0.0,0.0,0.0,0.0,
16.631456999999937,0.0,0.0,8939.0,0.0,0.0,0.0,0.0,0.25,1.386718608,0.5498168668524888,0.0,-12532.0,0.0,0.0,0.0,0.0,0.0,4.90722606,4.410439589772222,0.0,4115.0,0.0,0.0,0.0,0.0,0.125,2.818603227,4.389674732977289,0.0,-1347.0,0.125,0.0,0.0,0.0,0.25,2.13623025,0.5526872062785588,0.0,0.3100000023841858,-1.0299999713897705,151.80999755859375,-0.01898193359375,0.0045166015625,1.025634765625,35.630001068115234,0.0,0.0,-4.31390380859375,1.7138824462890625,Closing,0.0,0.0,0.0,0.0,0.0,0.0,0.0,0.0,
16.80494200000004,0.0,0.0,8939.0,0.0,0.0,0.0,0.0,0.25,1.387939311,0.5498168668524888,0.0,-12532.0,0.0,0.0,0.0,0.0,0.125,4.908446763000001,4.410439589772222,0.0,4115.0,0.0,0.0,0.0,0.0,0.125,2.81982393,4.389674732977289,0.0,-1347.0,0.125,0.0,0.0,0.0,0.25,2.135009547,0.5526872062785588,0.0,0.3400000035762787,-1.0099999904632568,151.77999877929688,-0.01837158203125,-0.002685546875,1.01568603515625,35.59000015258789,0.0,-3.0,-4.31390380859375,1.7137908935546875,Closing,0.0,0.0,0.0,0.0,0.0,0.0,0.0,0.0,
16.968091999999945,0.0,0.0,8939.0,0.0,0.0,0.0,0.0,0.25,1.386718608,0.5498168668524888,0.0,-12532.0,0.0,0.0,0.0,0.0,0.0,4.908446763000001,4.410439589772222,0.0,4115.0,0.0,0.0,0.0,0.0,0.125,2.81982393,4.389674732977289,0.0,-1347.0,0.125,0.0,0.0,0.0,0.375,2.135009547,0.5526872062785588,0.0,0.30000001192092896,-1.0399999618530273,151.77999877929688,-0.016845703125,0.01593017578125,1.0196533203125,35.59000015258789,0.0,3.0,-4.3136749267578125,1.71441650390625,Closing,0.0,0.0,0.0,0.0,0.0,0.0,0.0,0.0,
17.133405999999958,0.0,0.0,8939.0,0.0,0.0,0.0,0.0,0.25,1.383056499,0.5498168668524888,0.0,-12532.0,0.0,0.0,0.0,0.0,0.0,4.908446763000001,4.410439589772222,0.0,4115.0,0.0,0.0,0.0,0.0,0.125,2.81982393,4.389674732977289,0.0,-1347.0,0.125,0.0,0.0,0.0,0.25,2.135009547,0.5526872062785588,0.0,0.3199999928474426,-1.0499999523162842,151.7899932861328,-0.056884765625,0.0350341796875,0.89996337890625,35.59000015258789,0.0,49.0,-4.3134765625,1.7144317626953125,Closing,0.0,0.0,0.0,0.0,0.0,0.0,0.0,0.0,
17.30534899999993,0.0,0.0,8939.0,0.0,0.0,0.0,0.0,0.25,1.381835796,0.5498168668524888,0.0,-12532.0,0.0,0.0,0.0,0.0,0.125,4.909667466,4.410439589772222,0.0,4115.0,0.0,0.0,0.0,0.0,0.125,2.818603227,4.389674732977289,0.0,-1347.0,0.125,0.0,0.0,0.0,0.375,2.13623025,0.5526872062785588,0.0,0.25,-1.059999942779541,151.77999877929688,-0.05145263671875,0.02325439453125,1.1156005859375,35.61000061035156,0.0,35.0,-4.3132781982421875,1.716278076171875,Closing,0.0,0.0,0.0,0.0,0.0,0.0,0.0,0.0,
17.468717999999992,0.0,0.0,8939.0,0.0,0.0,0.0,0.0,0.25,1.386718608,0.5498168668524888,0.0,-12532.0,0.0,0.0,0.0,0.0,0.0,4.909667466,4.410439589772222,0.0,4115.0,0.0,0.0,0.0,0.0,0.125,2.818603227,4.389674732977289,0.0,-1347.0,0.125,0.0,0.0,0.0,0.25,2.13623025,0.5526872062785588,0.0,0.27000001072883606,-1.0499999523162842,151.7899932861328,-0.0335693359375,0.0068359375,1.01416015625,35.61000061035156,0.0,14.0,-4.3133697509765625,1.7159271240234375,Closing,0.0,0.0,0.0,0.0,0.0,0.0,0.0,0.0,
17.644074999999955,0.0,0.0,8939.0,0.0,0.0,0.0,0.0,0.25,1.386718608,0.5498168668524888,0.0,-12532.0,0.0,0.0,0.0,0.0,0.0,4.908446763000001,4.410439589772222,0.0,4115.0,0.0,0.0,0.0,0.0,0.125,2.818603227,4.389674732977289,0.0,-1347.0,0.125,0.0,0.0,0.0,0.375,2.135009547,0.5526872062785588,0.0,0.28999999165534973,-1.0399999618530273,151.7899932861328,-0.02276611328125,-6.103515625E-5,1.00909423828125,35.61000061035156,0.0,1.0,-4.3133697509765625,1.7159271240234375,Closing,0.0,0.0,0.0,0.0,0.0,0.0,0.0,0.0,
17.80943499999994,0.0,0.0,8939.0,0.0,0.0,0.0,0.0,0.25,1.386718608,0.5498168668524888,0.0,-12532.0,0.0,0.0,0.0,0.0,0.0,4.909667466,4.410439589772222,0.0,4115.0,0.0,0.0,0.0,0.0,0.125,2.818603227,4.389674732977289,0.0,-1347.0,0.125,0.0,0.0,0.0,0.375,2.135009547,0.5526872062785588,0.0,0.3100000023841858,-1.0399999618530273,151.77999877929688,-0.02081298828125,0.00927734375,1.019287109375,35.58000183105469,0.0,3.0,-4.3133697509765625,1.7159271240234375,Closing,0.0,0.0,0.0,0.0,0.0,0.0,0.0,0.0,
17.98084600000002,0.0,0.0,8939.0,0.0,0.0,0.0,0.0,0.25,1.386718608,0.5498168668524888,0.0,-12532.0,0.0,0.0,0.0,0.0,0.0,4.908446763000001,4.410439589772222,0.0,4115.0,0.0,0.0,0.0,0.0,0.125,2.81982393,4.389674732977289,0.0,-1347.0,0.125,0.0,0.0,0.0,0.25,2.135009547,0.5526872062785588,0.0,0.3199999928474426,-1.0299999713897705,151.77999877929688,-0.020751953125,0.00518798828125,1.023193359375,35.58000183105469,0.0,1.0,-4.3133697509765625,1.7159271240234375,Closing,0.0,0.0,0.0,0.0,0.0,0.0,0.0,0.0,
18.151525999999954,0.0,0.0,8939.0,0.0,0.0,0.0,0.0,0.25,1.386718608,0.5498168668524888,0.0,-12532.0,0.0,0.0,0.0,0.0,0.0,4.908446763000001,4.410439589772222,0.0,4115.0,0.0,0.0,0.0,0.0,0.125,2.81982393,4.389674732977289,0.0,-1347.0,0.125,0.0,0.0,0.0,0.375,2.135009547,0.5526872062785588,0.0,0.3400000035762787,-1.0299999713897705,151.77000427246094,-0.01739501953125,0.0074462890625,1.02191162109375,35.58000183105469,0.0,0.0,-4.3133697509765625,1.7159271240234375,Closing,0.0,0.0,0.0,0.0,0.0,0.0,0.0,0.0,
18.313329999999958,0.0,0.0,8939.0,0.0,0.0,0.0,0.0,0.25,1.386718608,0.5498168668524888,0.0,-12532.0,0.0,0.0,0.0,0.0,0.0,4.90722606,4.410439589772222,0.0,4115.0,0.0,0.0,0.0,0.0,0.125,2.81982393,4.389674732977289,0.0,-1347.0,0.125,0.0,0.0,0.0,0.25,2.135009547,0.5526872062785588,0.0,0.3499999940395355,-1.0199999809265137,151.77000427246094,-0.01983642578125,0.006103515625,1.02716064453125,35.599998474121094,0.0,1.0,-4.3133697509765625,1.7159271240234375,Closing,0.0,0.0,0.0,0.0,0.0,0.0,0.0,0.0,
18.488733000000007,0.0,0.0,8939.0,0.0,0.0,0.0,0.0,0.25,1.386718608,0.5498168668524888,0.0,-12532.0,0.0,0.0,0.0,0.0,0.125,4.90722606,4.410439589772222,0.0,4115.0,0.0,0.0,0.0,0.0,0.125,2.81982393,4.389674732977289,0.0,-1347.0,0.125,0.0,0.0,0.0,0.25,2.13623025,0.5526872062785588,0.0,0.3700000047683716,-1.0299999713897705,151.75999450683594,-0.02044677734375,0.01025390625,1.02099609375,35.599998474121094,0.0,3.0,-4.3133697509765625,1.7159271240234375,Closing,0.0,0.0,0.0,0.0,0.0,0.0,0.0,0.0,
18.65660499999998,0.0,0.0,8939.0,0.0,0.0,0.0,0.0,0.25,1.387939311,0.5498168668524888,0.0,-12532.0,0.0,0.0,0.0,0.0,0.0,4.908446763000001,4.410439589772222,0.0,4115.0,0.0,0.0,0.0,0.0,0.125,2.81982393,4.389674732977289,0.0,-1347.0,0.125,0.0,0.0,0.0,0.25,2.13623025,0.5526872062785588,0.0,0.3799999952316284,-1.0199999809265137,151.75999450683594,-0.0166015625,0.00897216796875,1.02032470703125,35.599998474121094,0.0,0.0,-4.3133697509765625,1.7159271240234375,Closing,0.0,0.0,0.0,0.0,0.0,0.0,0.0,0.0,
18.835189999999944,0.0,0.0,8939.0,0.0,0.0,0.0,0.0,0.25,1.381835796,0.5498168668524888,0.0,-12532.0,0.0,0.0,0.0,0.0,0.0,4.90722606,4.410439589772222,0.0,4115.0,0.0,0.0,0.0,0.0,0.125,2.81982393,4.389674732977289,0.0,-1347.0,0.125,0.0,0.0,0.0,0.25,2.135009547,0.5526872062785588,0.0,0.38999998569488525,-1.0099999904632568,151.75999450683594,-0.019287109375,0.00897216796875,1.0216064453125,35.59000015258789,0.0,1.0,-4.3133697509765625,1.7159271240234375,Closing,0.0,0.0,0.0,0.0,0.0,0.0,0.0,0.0,
19.014245999999925,0.0,0.0,8939.0,0.0,0.0,0.0,0.0,0.25,1.386718608,0.5498168668524888,0.0,-12532.0,0.0,0.0,0.0,0.0,0.0,4.908446763000001,4.410439589772222,0.0,4115.0,0.0,0.0,0.0,0.0,0.125,2.818603227,4.389674732977289,0.0,-1347.0,0.125,0.0,0.0,0.0,0.375,2.135009547,0.5526872062785588,0.0,0.4000000059604645,-1.0,151.75999450683594,-0.01708984375,0.00537109375,1.02203369140625,35.59000015258789,0.0,-1.0,-4.3133697509765625,1.7159271240234375,Closing,0.0,0.0,0.0,0.0,0.0,0.0,0.0,0.0,
19.19012300000002,0.0,0.0,8939.0,0.0,0.0,0.0,0.0,0.25,1.386718608,0.5498168668524888,0.0,-12532.0,0.0,0.0,0.0,0.0,0.125,4.90722606,4.410439589772222,0.0,4115.0,0.0,0.0,0.0,0.0,0.125,2.81982393,4.389674732977289,0.0,-1347.0,0.125,0.0,0.0,0.0,0.25,2.135009547,0.5526872062785588,0.0,0.4000000059604645,-1.0,151.75,-0.0220947265625,0.0120849609375,1.01422119140625,35.59000015258789,0.0,6.0,-4.3133697509765625,1.7159271240234375,Closing,0.0,0.0,0.0,0.0,0.0,0.0,0.0,0.0,
19.368868999999947,0.0,0.0,8939.0,0.0,0.0,0.0,0.0,0.25,1.387939311,0.5498168668524888,0.0,-12532.0,0.0,0.0,0.0,0.0,0.125,4.908446763000001,4.410439589772222,0.0,4115.0,0.0,0.0,0.0,0.0,0.125,2.818603227,4.389674732977289,0.0,-1347.0,0.125,0.0,0.0,0.0,0.25,2.13623025,0.5526872062785588,0.0,0.4099999964237213,-1.0,151.75,-0.01708984375,0.00885009765625,1.01898193359375,35.599998474121094,0.0,0.0,-4.3133697509765625,1.7159271240234375,Closing,0.0,0.0,0.0,0.0,0.0,0.0,0.0,0.0,
19.55026000000001,0.0,0.0,8939.0,0.0,0.0,0.0,0.0,0.25,1.384277202,0.5498168668524888,0.0,-12532.0,0.0,0.0,0.0,0.0,0.125,4.908446763000001,4.410439589772222,0.0,4115.0,0.0,0.0,0.0,0.0,0.125,2.818603227,4.389674732977289,0.0,-1347.0,0.125,0.0,0.0,0.0,0.375,2.135009547,0.5526872062785588,0.0,0.4099999964237213,-0.9900000095367432,151.74000549316406,-0.01922607421875,0.010009765625,1.0203857421875,35.599998474121094,0.0,2.0,-4.3133697509765625,1.7159271240234375,Closing,0.0,0.0,0.0,0.0,0.0,0.0,0.0,0.0,
19.733312999999967,0.0,0.0,8939.0,0.0,0.0,0.0,0.0,0.25,1.386718608,0.5498168668524888,0.0,-12532.0,0.0,0.0,0.0,0.0,0.125,4.909667466,4.410439589772222,0.0,4115.0,0.0,0.0,0.0,0.0,0.125,2.818603227,4.389674732977289,0.0,-1347.0,0.125,0.0,0.0,0.0,0.25,2.135009547,0.5526872062785588,0.0,0.41999998688697815,-0.9900000095367432,151.74000549316406,-0.01861572265625,0.0074462890625,1.0234375,35.59000015258789,0.0,0.0,-4.3133697509765625,1.7159271240234375,Closing,0.0,0.0,0.0,0.0,0.0,0.0,0.0,0.0,
19.91494200000004,0.0,0.0,8939.0,0.0,0.0,0.0,0.0,0.25,1.386718608,0.5498168668524888,0.0,-12532.0,0.0,0.0,0.0,0.0,0.0,4.908446763000001,4.410439589772222,0.0,4115.0,0.0,0.0,0.0,0.0,0.125,2.81982393,4.389674732977289,0.0,-1347.0,0.125,0.0,0.0,0.0,0.25,2.135009547,0.5526872062785588,0.0,0.41999998688697815,-0.9900000095367432,151.74000549316406,-0.0166015625,0.0067138671875,1.01788330078125,35.59000015258789,0.0,-1.0,-4.3133697509765625,1.7159271240234375,Closing,0.0,0.0,0.0,0.0,0.0,0.0,0.0,0.0,
20.09639799999993,0.0,0.0,8939.0,0.0,0.0,0.0,0.0,0.25,1.386718608,0.5498168668524888,0.0,-12532.0,0.0,0.0,0.0,0.0,0.0,4.909667466,4.410439589772222,0.0,4115.0,0.0,0.0,0.0,0.0,0.125,2.81982393,4.389674732977289,0.0,-1347.0,0.125,0.0,0.0,0.0,0.25,2.135009547,0.5526872062785588,0.0,0.4300000071525574,-0.9900000095367432,151.74000549316406,-0.01611328125,0.00714111328125,1.01593017578125,35.59000015258789,0.0,-1.0,-4.3133697509765625,1.7159271240234375,Closing,0.0,0.0,0.0,0.0,0.0,0.0,0.0,0.0,
20.265292000000017,0.0,0.0,8939.0,0.0,0.0,0.0,0.0,0.25,1.383056499,0.5498168668524888,0.0,-12532.0,0.0,0.0,0.0,0.0,0.125,4.909667466,4.410439589772222,0.0,4115.0,0.0,0.0,0.0,0.0,0.125,2.81982393,4.389674732977289,0.0,-1347.0,0.125,0.0,0.0,0.0,0.25,2.135009547,0.5526872062785588,0.0,0.4300000071525574,-0.9900000095367432,151.72000122070312,-0.01763916015625,0.00860595703125,1.0155029296875,35.59000015258789,0.0,0.0,-4.3133697509765625,1.7159271240234375,Closing,0.0,0.0,0.0,0.0,0.0,0.0,0.0,0.0,
