Time,ClimberA1,ClimberA2,FRpos,FRCurrent,FRspeed,FRsetpoint,FRApos,FRACurrent,FREncpos,FREncSetpoint,FREncSpeed,FLpos,FLCurrent,FLspeed,FLsetpoint,FLApos,FLACurrent,FLEncpos,FLEncSetpoint,FLEncSpeed,BRpos,BRCurrent,BRspeed,BRsetpoint,BRApos,BRACurrent,BREncpos,BREncSetpoint,BREncSpeed,BLpos,BLCurrent,BLspeed,BLsetpoint,BLApos,BLACurrent,BLEncpos,BLEncSetpoint,BLEncSpeed,navx_Pitch,navx_Roll,navx_Yaw,navx_XAcc,navx_YAcc,navx_ZAcc,navx_Temp,navx_Bar,navx_Alt,navx_XDis,navx_YDis,GearPlacerState,ShootOutputV,ShootOutputCurrent,ShootEncPos,ShootEncVelocity,ShootSpeed,ShootSetpoint,CarouselSetpoint,CarouselCurrent,
0.22864600000000063,0.0,0.0,102122.0,0.0,0.0,0.0,0.0,0.125,0.861816318,0.01,0.0,-85408.0,0.0,0.0,0.0,0.0,0.125,0.531005805,0.01,0.0,98566.0,0.0,0.0,0.0,0.0,0.0,3.392333637,0.01,0.0,-86814.0,0.0,0.0,0.0,0.0,0.125,1.64794905,0.01,0.0,-0.41999998688697815,-0.8899999856948853,-0.009999999776482582,-0.017822265625,-0.00970458984375,1.01983642578125,35.209999084472656,0.0,-1.0,0.2855224609375,0.2146759033203125,Waiting,0.0,0.0,0.0,0.0,0.0,0.0,0.0,0.0,
0.292903999999995,0.0,0.0,102122.0,0.0,0.0,0.0,0.0,0.125,0.863037021,0.01,0.0,-85408.0,0.0,0.0,-0.0,0.0,0.125,0.531005805,0.01,0.0,98566.0,0.0,0.0,0.0,0.0,0.0,3.387450825,0.01,0.0,-86814.0,0.0,0.0,-0.0,0.0,0.125,1.649169753,0.01,0.0,-0.41999998688697815,-0.8899999856948853,-0.009999999776482582,-0.0162353515625,-0.00592041015625,1.01702880859375,35.209999084472656,0.0,0.0,0.2855224609375,0.2146759033203125,Waiting,0.0,0.0,0.0,0.0,0.0,0.0,0.0,0.0,
0.3302869999999966,0.0,0.0,102122.0,0.0,0.0,0.0,0.0,0.25,0.861816318,0.01,0.05303702099999996,-85408.0,0.0,0.0,-0.0,0.0,0.125,0.531005805,0.01,0.02355510200000044,98566.0,0.0,0.0,0.0,0.0,0.125,3.391112934,0.01,0.038671528000000066,-86814.0,0.0,0.0,-0.0,0.0,0.25,1.649169753,0.01,0.02916975299999991,-0.41999998688697815,-0.8899999856948853,-0.009999999776482582,-0.0162353515625,-0.0101318359375,1.01800537109375,35.209999084472656,0.0,0.0,0.2855224609375,0.2146759033203125,Waiting,0.0,0.0,0.0,0.0,0.0,0.0,0.0,0.0,
0.3692959999999948,0.0,0.0,102122.0,0.0,0.0,0.0,0.0,0.25,0.848388585,0.01,0.0,-85408.0,0.0,0.0,-0.0,0.0,0.125,0.531005805,0.01,0.0,98566.0,0.0,0.0,0.0,0.0,0.125,3.387450825,0.01,-0.0012207029999999897,-86814.0,0.0,0.0,-0.0,0.0,0.25,1.649169753,0.01,0.0,-0.41999998688697815,-0.8899999856948853,-0.009999999776482582,-0.0172119140625,-0.006103515625,1.0225830078125,35.209999084472656,0.0,-1.0,0.2855224609375,0.2146759033203125,Waiting,0.0,0.0,0.0,0.0,0.0,0.0,0.0,0.0,
0.39284599999999775,0.0,0.0,102122.0,0.0,0.0,0.0,0.0,0.25,0.860595615,0.01,0.0,-85408.0,0.0,0.0,-0.0,0.0,0.125,0.531005805,0.01,0.0,98566.0,0.0,0.0,0.0,0.0,0.125,3.386230122,0.01,-0.0012207029999999897,-86814.0,0.0,0.0,-0.0,0.0,0.25,1.650390456,0.01,0.0,-0.41999998688697815,-0.8899999856948853,-0.009999999776482582,-0.0145263671875,-0.00714111328125,1.0167236328125,35.209999084472656,0.0,1.0,0.2855224609375,0.2146759033203125,Waiting,0.0,0.0,0.0,0.0,0.0,0.0,0.0,0.0,
0.41396399999999994,0.0,0.0,102122.0,0.0,0.0,0.0,0.0,0.25,0.863037021,0.01,-0.0012207029999999897,-85408.0,0.0,0.0,-0.0,0.0,0.125,0.531005805,0.01,0.0,98566.0,0.0,0.0,0.0,0.0,0.125,3.392333637,0.01,0.0024414059999999793,-86814.0,0.0,0.0,-0.0,0.0,0.25,1.649169753,0.01,0.0,-0.41999998688697815,-0.8899999856948853,-0.009999999776482582,-0.01806640625,-0.0079345703125,1.02069091796875,35.209999084472656,0.0,0.0,0.2855224609375,0.2146759033203125,Waiting,0.0,0.0,0.0,0.0,0.0,0.0,0.0,0.0,
0.47106699999999546,0.0,0.0,102122.0,0.0,0.0,0.0,0.0,0.25,0.863037021,0.01,0.0012207029999999897,-85408.0,0.0,0.0,-0.0,0.0,0.125,0.531005805,0.01,0.0,98566.0,0.0,0.0,0.0,0.0,0.125,3.392333637,0.01,0.0,-86814.0,0.0,0.0,-0.0,0.0,0.25,1.650390456,0.01,0.0,-0.41999998688697815,-0.8899999856948853,-0.009999999776482582,-0.01702880859375,-0.0079345703125,1.02325439453125,35.20000076293945,0.0,-1.0,0.2855224609375,0.2146759033203125,Waiting,0.0,0.0,0.0,0.0,0.0,0.0,0.0,0.0,
0.49566300000000046,0.0,0.0,102122.0,0.0,0.0,0.0,0.0,0.25,0.863037021,0.01,0.0012207029999999897,-85408.0,0.0,0.0,-0.0,0.0,0.125,0.531005805,0.01,0.0,98566.0,0.0,0.0,0.0,0.0,0.125,3.387450825,0.01,0.0,-86814.0,0.0,0.0,-0.0,0.0,0.25,1.650390456,0.01,0.0,-0.41999998688697815,-0.8899999856948853,0.0,-0.01556396484375,-0.00543212890625,1.02020263671875,35.20000076293945,0.0,0.0,0.2855224609375,0.2146759033203125,Waiting,0.0,0.0,0.0,0.0,0.0,0.0,0.0,0.0,
0.5248339999999952,0.0,0.0,102122.0,0.0,0.0,0.0,0.0,0.25,0.863037021,0.01,-0.0012207029999999897,-85408.0,0.0,0.0,-0.0,0.0,0.125,0.531005805,0.01,0.0,98566.0,0.0,0.0,0.0,0.0,0.125,3.392333637,0.01,-0.003662108999999969,-86814.0,0.0,0.0,-0.0,0.0,0.25,1.650390456,0.01,0.0,-0.41999998688697815,-0.8899999856948853,-0.009999999776482582,-0.0179443359375,-0.009033203125,1.01708984375,35.20000076293945,0.0,-2.0,0.2855224609375,0.2146759033203125,Waiting,0.0,0.0,0.0,0.0,0.0,0.0,0.0,0.0,
0.5474749999999985,0.0,0.0,102122.0,0.0,0.0,0.0,0.0,0.25,0.863037021,0.01,-0.0012207029999999897,-85408.0,0.0,0.0,-0.0,0.0,0.125,0.531005805,0.01,0.0,98566.0,0.0,0.0,0.0,0.0,0.125,3.388671528,0.01,-0.003662108999999969,-86814.0,0.0,0.0,-0.0,0.0,0.25,1.650390456,0.01,0.0,-0.41999998688697815,-0.8899999856948853,-0.009999999776482582,-0.0159912109375,-0.00787353515625,1.02099609375,35.20000076293945,0.0,0.0,0.2855224609375,0.2146759033203125,Waiting,0.0,0.0,0.0,0.0,0.0,0.0,0.0,0.0,
0.5710439999999944,0.0,0.0,102122.0,0.0,0.0,0.0,0.0,0.25,0.864257724,0.01,0.0012207029999999897,-85408.0,0.0,0.0,-0.0,0.0,0.125,0.531005805,0.01,0.0,98566.0,0.0,0.0,0.0,0.0,0.125,3.392333637,0.01,0.003662108999999969,-86814.0,0.0,0.0,-0.0,0.0,0.25,1.649169753,0.01,0.0,-0.41999998688697815,-0.8899999856948853,-0.009999999776482582,-0.01727294921875,-0.00836181640625,1.01239013671875,35.20000076293945,0.0,-1.0,0.2855224609375,0.2146759033203125,Waiting,0.0,0.0,0.0,0.0,0.0,0.0,0.0,0.0,
0.5927239999999947,0.0,0.0,102122.0,0.0,0.0,0.0,0.0,0.25,0.863037021,0.01,0.0012207029999999897,-85408.0,0.0,0.0,-0.0,0.0,0.125,0.5297851020000001,0.01,0.0,98566.0,0.0,0.0,0.0,0.0,0.125,3.387450825,0.01,0.003662108999999969,-86814.0,0.0,0.0,-0.0,0.0,0.25,1.650390456,0.01,0.0,-0.4099999964237213,-0.8999999761581421,-0.009999999776482582,-0.01513671875,-0.00701904296875,1.02093505859375,35.20000076293945,0.0,0.0,0.2855224609375,0.2146759033203125,Waiting,0.0,0.0,0.0,0.0,0.0,0.0,0.0,0.0,
0.6157779999999984,0.0,0.0,102122.0,0.0,0.0,0.0,0.0,0.25,0.863037021,0.01,0.0,-85408.0,0.0,0.0,-0.0,0.0,0.125,0.531005805,0.01,0.0,98566.0,0.0,0.0,0.0,0.0,0.125,3.388671528,0.01,0.0012207029999999897,-86814.0,0.0,0.0,-0.0,0.0,0.25,1.645507644,0.01,0.0,-0.41999998688697815,-0.8899999856948853,-0.009999999776482582,-0.01629638671875,-0.00885009765625,1.021728515625,35.20000076293945,0.0,0.0,0.2855224609375,0.2146759033203125,Waiting,0.0,0.0,0.0,0.0,0.0,0.0,0.0,0.0,
0.6460459999999948,0.0,0.0,102122.0,0.0,0.0,0.0,0.0,0.25,0.863037021,0.01,0.0,-85408.0,0.0,0.0,-0.0,0.0,0.125,0.531005805,0.01,0.0,98566.0,0.0,0.0,0.0,0.0,0.125,3.388671528,0.01,0.0012207029999999897,-86814.0,0.0,0.0,-0.0,0.0,0.25,1.649169753,0.01,0.0,-0.41999998688697815,-0.8899999856948853,-0.009999999776482582,-0.01611328125,-0.00640869140625,1.02349853515625,35.20000076293945,0.0,0.0,0.2855224609375,0.2146759033203125,Waiting,0.0,0.0,0.0,0.0,0.0,0.0,0.0,0.0,
0.6713819999999978,0.0,0.0,102122.0,0.0,0.0,0.0,0.0,0.25,0.8581542090000001,0.01,-0.0012207029999999897,-85408.0,0.0,0.0,-0.0,0.0,0.125,0.5297851020000001,0.01,0.0,98566.0,0.0,0.0,0.0,0.0,0.125,3.387450825,0.01,-0.0024414059999999793,-86814.0,0.0,0.0,-0.0,0.0,0.25,1.650390456,0.01,0.0,-0.41999998688697815,-0.8899999856948853,-0.009999999776482582,-0.0186767578125,-0.0076904296875,1.01824951171875,35.20000076293945,0.0,-2.0,0.2855224609375,0.2146759033203125,Waiting,0.0,0.0,0.0,0.0,0.0,0.0,0.0,0.0,
0.6945999999999986,0.0,0.0,102122.0,0.0,0.0,0.0,0.0,0.25,0.8581542090000001,0.01,-0.0012207029999999897,-85408.0,0.0,0.0,-0.0,0.0,0.125,0.531005805,0.01,0.0,98566.0,0.0,0.0,0.0,0.0,0.125,3.387450825,0.01,-0.0024414059999999793,-86814.0,0.0,0.0,-0.0,0.0,0.25,1.650390456,0.01,0.0,-0.41999998688697815,-0.8899999856948853,-0.009999999776482582,-0.0166015625,-0.00701904296875,1.0145263671875,35.20000076293945,0.0,0.0,0.2855224609375,0.2146759033203125,Waiting,0.0,0.0,0.0,0.0,0.0,0.0,0.0,0.0,
0.7225579999999973,0.0,0.0,102122.0,0.0,0.0,0.0,0.0,0.25,0.8532713970000001,0.01,-0.004882811999999959,-85408.0,0.0,0.0,-0.0,0.0,0.125,0.531005805,0.01,0.0,98566.0,0.0,0.0,0.0,0.0,0.125,3.387450825,0.01,-0.0012207029999999897,-86814.0,0.0,0.0,-0.0,0.0,0.25,1.649169753,0.01,0.0,-0.41999998688697815,-0.8899999856948853,-0.009999999776482582,-0.01806640625,-0.00970458984375,1.02362060546875,35.20000076293945,0.0,0.0,0.2855224609375,0.2146759033203125,Waiting,0.0,0.0,0.0,0.0,0.0,0.0,0.0,0.0,
0.7494989999999961,0.0,0.0,102122.0,0.0,0.0,0.0,0.0,0.25,0.852050694,0.01,-0.004882811999999959,-85408.0,0.0,0.0,-0.0,0.0,0.125,0.5297851020000001,0.01,0.0,98566.0,0.0,0.0,0.0,0.0,0.125,3.388671528,0.01,-0.0012207029999999897,-86814.0,0.0,0.0,-0.0,0.0,0.25,1.650390456,0.01,0.0,-0.41999998688697815,-0.8899999856948853,-0.009999999776482582,-0.02117919921875,-0.00830078125,1.01873779296875,35.20000076293945,0.0,-5.0,0.2855224609375,0.2146759033203125,Waiting,0.0,0.0,0.0,0.0,0.0,0.0,0.0,0.0,
0.7725819999999949,0.0,0.0,102122.0,0.0,0.0,0.0,0.0,0.25,0.8532713970000001,0.01,-0.003662108999999969,-85408.0,0.0,0.0,-0.0,0.0,0.125,0.5297851020000001,0.01,0.0,98566.0,0.0,0.0,0.0,0.0,0.125,3.387450825,0.01,0.0012207029999999897,-86814.0,0.0,0.0,-0.0,0.0,0.25,1.649169753,0.01,0.0,-0.41999998688697815,-0.8899999856948853,-0.009999999776482582,-0.013916015625,-0.00970458984375,1.018798828125,35.20000076293945,0.0,2.0,0.2855224609375,0.2146759033203125,Waiting,0.0,0.0,0.0,0.0,0.0,0.0,0.0,0.0,
0.7986610000000001,0.0,0.0,102122.0,0.0,0.0,0.0,0.0,0.25,0.8544921000000001,0.01,-0.003662108999999969,-85408.0,0.0,0.0,-0.0,0.0,0.125,0.5297851020000001,0.01,0.0,98566.0,0.0,0.0,0.0,0.0,0.125,3.387450825,0.01,0.0012207029999999897,-86814.0,0.0,0.0,-0.0,0.0,0.25,1.650390456,0.01,0.0,-0.41999998688697815,-0.8899999856948853,-0.009999999776482582,-0.01605224609375,-0.00897216796875,1.02117919921875,35.20000076293945,0.0,0.0,0.2855224609375,0.2146759033203125,Waiting,0.0,0.0,0.0,0.0,0.0,0.0,0.0,0.0,
0.8433469999999943,0.0,0.0,102122.0,0.0,0.0,0.0,0.0,0.25,0.8532713970000001,0.01,0.0,-85408.0,0.0,0.0,-0.0,0.0,0.125,0.531005805,0.01,0.0,98566.0,0.0,0.0,0.0,0.0,0.125,3.386230122,0.01,0.0,-86814.0,0.0,0.0,-0.0,0.0,0.25,1.650390456,0.01,0.0,-0.41999998688697815,-0.8899999856948853,-0.019999999552965164,-0.01531982421875,-0.00811767578125,1.021240234375,35.20000076293945,0.0,0.0,0.2855224609375,0.2146759033203125,Waiting,0.0,0.0,0.0,0.0,0.0,0.0,0.0,0.0,
0.8765040000000008,0.0,0.0,102122.0,0.0,0.0,0.0,0.0,0.25,0.8532713970000001,0.01,0.0,-85408.0,0.0,0.0,-0.0,0.0,0.125,0.531005805,0.01,0.0,98566.0,0.0,0.0,0.0,0.0,0.125,3.392333637,0.01,-0.0012207029999999897,-86814.0,0.0,0.0,-0.0,0.0,0.25,1.650390456,0.01,0.0,-0.41999998688697815,-0.8899999856948853,-0.019999999552965164,-0.015869140625,-0.00897216796875,1.0216064453125,35.20000076293945,0.0,0.0,0.2855224609375,0.2146759033203125,Waiting,0.0,0.0,0.0,0.0,0.0,0.0,0.0,0.0,
0.8993469999999943,0.0,0.0,102122.0,0.0,0.0,0.0,0.0,0.25,0.8532713970000001,0.01,0.0,-85408.0,0.0,0.0,-0.0,0.0,0.125,0.531005805,0.01,0.0,98566.0,0.0,0.0,0.0,0.0,0.125,3.392333637,0.01,-0.0012207029999999897,-86814.0,0.0,0.0,-0.0,0.0,0.25,1.649169753,0.01,0.0,-0.41999998688697815,-0.8899999856948853,-0.019999999552965164,-0.01678466796875,-0.00799560546875,1.02471923828125,35.20000076293945,0.0,0.0,0.2855224609375,0.2146759033203125,Waiting,0.0,0.0,0.0,0.0,0.0,0.0,0.0,0.0,
0.9260190000000003,0.0,0.0,102122.0,0.0,0.0,0.0,0.0,0.25,0.8532713970000001,0.01,0.0,-85408.0,0.0,0.0,-0.0,0.0,0.125,0.531005805,0.01,0.0,98566.0,0.0,0.0,0.0,0.0,0.125,3.388671528,0.01,0.003662108999999969,-86814.0,0.0,0.0,-0.0,0.0,0.25,1.650390456,0.01,0.0,-0.4099999964237213,-0.8899999856948853,-0.019999999552965164,-0.01861572265625,-0.00714111328125,1.0164794921875,35.20000076293945,0.0,-2.0,0.2855224609375,0.2146759033203125,Waiting,0.0,0.0,0.0,0.0,0.0,0.0,0.0,0.0,
0.9644769999999989,0.0,0.0,102122.0,0.0,0.0,0.0,0.0,0.25,0.8532713970000001,0.01,0.0,-85408.0,0.0,0.0,-0.0,0.0,0.125,0.531005805,0.01,0.0,98566.0,0.0,0.0,0.0,0.0,0.125,3.387450825,0.01,0.0,-86814.0,0.0,0.0,-0.0,0.0,0.25,1.650390456,0.01,0.0,-0.41999998688697815,-0.8899999856948853,-0.019999999552965164,-0.0142822265625,-0.0072021484375,1.01763916015625,35.20000076293945,0.0,1.0,0.2855224609375,0.2146759033203125,Waiting,0.0,0.0,0.0,0.0,0.0,0.0,0.0,0.0,
0.9888439999999973,0.0,0.0,102122.0,0.0,0.0,0.0,0.0,0.25,0.8532713970000001,0.01,0.0,-85408.0,0.0,0.0,-0.0,0.0,0.125,0.531005805,0.01,0.0,98566.0,0.0,0.0,0.0,0.0,0.125,3.392333637,0.01,0.0,-86814.0,0.0,0.0,-0.0,0.0,0.25,1.650390456,0.01,0.0,-0.4099999964237213,-0.8899999856948853,-0.019999999552965164,-0.01824951171875,-0.0093994140625,1.01953125,35.20000076293945,0.0,-2.0,0.2855224609375,0.2146759033203125,Waiting,0.0,0.0,0.0,0.0,0.0,0.0,0.0,0.0,
1.022331999999995,0.0,0.0,102122.0,0.0,0.0,0.0,0.0,0.25,0.8532713970000001,0.01,0.0,-85408.0,0.0,0.0,-0.0,0.0,0.125,0.531005805,0.01,0.0,98566.0,0.0,0.0,0.0,0.0,0.125,3.387450825,0.01,-0.0024414059999999793,-86814.0,0.0,0.0,-0.0,0.0,0.25,1.649169753,0.01,0.0,-0.41999998688697815,-0.8899999856948853,-0.009999999776482582,-0.01788330078125,-0.0067138671875,1.022216796875,35.20000076293945,0.0,-1.0,0.2855224609375,0.2146759033203125,Waiting,0.0,0.0,0.0,0.0,0.0,0.0,0.0,0.0,
1.0403379999999962,0.0,0.0,102122.0,0.0,0.0,0.0,0.0,0.25,0.8532713970000001,0.01,0.0,-85408.0,0.0,0.0,-0.0,0.0,0.125,0.5285643990000001,0.01,0.0,98566.0,0.0,0.0,0.0,0.0,0.125,3.388671528,0.01,-0.0024414059999999793,-86814.0,0.0,0.0,-0.0,0.0,0.25,1.649169753,0.01,0.0,-0.4099999964237213,-0.8899999856948853,-0.019999999552965164,-0.01690673828125,-0.00653076171875,1.020751953125,35.20000076293945,0.0,-1.0,0.2855224609375,0.2146759033203125,Waiting,0.0,0.0,0.0,0.0,0.0,0.0,0.0,0.0,
1.0642339999999968,0.0,0.0,102122.0,0.0,0.0,0.0,0.0,0.25,0.8532713970000001,0.01,0.0,-85408.0,0.0,0.0,-0.0,0.0,0.125,0.531005805,0.01,0.0,98566.0,0.0,0.0,0.0,0.0,0.125,3.392333637,0.01,0.0,-86814.0,0.0,0.0,-0.0,0.0,0.25,1.650390456,0.01,0.0,-0.41999998688697815,-0.8899999856948853,-0.019999999552965164,-0.01837158203125,-0.00994873046875,1.0174560546875,35.20000076293945,0.0,-2.0,0.2855224609375,0.2146759033203125,Waiting,0.0,0.0,0.0,0.0,0.0,0.0,0.0,0.0,
1.0879079999999959,0.0,0.0,102122.0,0.0,0.0,0.0,0.0,0.25,0.8532713970000001,0.01,0.0,-85408.0,0.0,0.0,-0.0,0.0,0.125,0.531005805,0.01,0.0,98566.0,0.0,0.0,0.0,0.0,0.125,3.387450825,0.01,0.0,-86814.0,0.0,0.0,-0.0,0.0,0.25,1.649169753,0.01,0.0,-0.41999998688697815,-0.8899999856948853,-0.019999999552965164,-0.01666259765625,-0.00634765625,1.0196533203125,35.20000076293945,0.0,0.0,0.2855224609375,0.2146759033203125,Waiting,0.0,0.0,0.0,0.0,0.0,0.0,0.0,0.0,
1.1074649999999966,0.0,0.0,102122.0,0.0,0.0,0.0,0.0,0.25,0.8544921000000001,0.01,0.0,-85408.0,0.0,0.0,-0.0,0.0,0.125,0.531005805,0.01,0.0,98566.0,0.0,0.0,0.0,0.0,0.125,3.392333637,0.01,0.0,-86814.0,0.0,0.0,-0.0,0.0,0.25,1.650390456,0.01,0.0,-0.41999998688697815,-0.8899999856948853,-0.019999999552965164,-0.0150146484375,-0.00689697265625,1.01373291015625,35.20000076293945,0.0,0.0,0.2855224609375,0.2146759033203125,Waiting,0.0,0.0,0.0,0.0,0.0,0.0,0.0,0.0,
1.1297409999999946,0.0,0.0,102122.0,0.0,0.0,0.0,0.0,0.25,0.8544921000000001,0.01,0.0,-85408.0,0.0,0.0,-0.0,0.0,0.125,0.531005805,0.01,0.0,98566.0,0.0,0.0,0.0,0.0,0.125,3.392333637,0.01,0.0,-86814.0,0.0,0.0,-0.0,0.0,0.25,1.649169753,0.01,0.0,-0.41999998688697815,-0.8899999856948853,-0.009999999776482582,-0.01715087890625,-0.00555419921875,1.02557373046875,35.20000076293945,0.0,-1.0,0.2855224609375,0.2146759033203125,Waiting,0.0,0.0,0.0,0.0,0.0,0.0,0.0,0.0,
1.1494979999999997,0.0,0.0,102122.0,0.0,0.0,0.0,0.0,0.25,0.8532713970000001,0.01,0.0,-85408.0,0.0,0.0,-0.0,0.0,0.125,0.531005805,0.01,0.0,98566.0,0.0,0.0,0.0,0.0,0.125,3.387450825,0.01,0.0,-86814.0,0.0,0.0,-0.0,0.0,0.25,1.649169753,0.01,0.0,-0.41999998688697815,-0.8899999856948853,-0.019999999552965164,-0.01483154296875,-0.0087890625,1.021728515625,35.20000076293945,0.0,1.0,0.2855224609375,0.2146759033203125,Waiting,0.0,0.0,0.0,0.0,0.0,0.0,0.0,0.0,
1.1721499999999943,0.0,0.0,102122.0,0.0,0.0,0.0,0.0,0.25,0.8532713970000001,0.01,0.0,-85408.0,0.0,0.0,-0.0,0.0,0.125,0.531005805,0.01,0.0,98566.0,0.0,0.0,0.0,0.0,0.125,3.387450825,0.01,0.0024414059999999793,-86814.0,0.0,0.0,-0.0,0.0,0.25,1.649169753,0.01,0.0,-0.41999998688697815,-0.8899999856948853,-0.019999999552965164,-0.0179443359375,-0.00738525390625,1.02032470703125,35.20000076293945,0.0,-1.0,0.2855224609375,0.2146759033203125,Waiting,0.0,0.0,0.0,0.0,0.0,0.0,0.0,0.0,
1.1903699999999953,0.0,0.0,102122.0,0.0,0.0,0.0,0.0,0.25,0.8532713970000001,0.01,0.0,-85408.0,0.0,0.0,-0.0,0.0,0.125,0.531005805,0.01,0.0,98566.0,0.0,0.0,0.0,0.0,0.125,3.387450825,0.01,0.0024414059999999793,-86814.0,0.0,0.0,-0.0,0.0,0.25,1.649169753,0.01,0.0,-0.41999998688697815,-0.8899999856948853,-0.019999999552965164,-0.0157470703125,-0.005615234375,1.0206298828125,35.20000076293945,0.0,0.0,0.2855224609375,0.2146759033203125,Waiting,0.0,0.0,0.0,0.0,0.0,0.0,0.0,0.0,
1.2090879999999962,0.0,0.0,102122.0,0.0,0.0,0.0,0.0,0.25,0.8532713970000001,0.01,0.0,-85408.0,0.0,0.0,-0.0,0.0,0.125,0.531005805,0.01,0.0,98566.0,0.0,0.0,0.0,0.0,0.125,3.387450825,0.01,0.0024414059999999793,-86814.0,0.0,0.0,-0.0,0.0,0.25,1.649169753,0.01,0.0,-0.41999998688697815,-0.8899999856948853,-0.019999999552965164,-0.01678466796875,-0.007080078125,1.02142333984375,35.20000076293945,0.0,0.0,0.2855224609375,0.2146759033203125,Waiting,0.0,0.0,0.0,0.0,0.0,0.0,0.0,0.0,
1.2312289999999995,0.0,0.0,102122.0,0.0,0.0,0.0,0.0,0.25,0.8544921000000001,0.01,0.0,-85408.0,0.0,0.0,-0.0,0.0,0.125,0.531005805,0.01,0.0,98566.0,0.0,0.0,0.0,0.0,0.125,3.391112934,0.01,-0.0024414059999999793,-86814.0,0.0,0.0,-0.0,0.0,0.25,1.649169753,0.01,0.0,-0.41999998688697815,-0.8899999856948853,-0.019999999552965164,-0.0191650390625,-0.0064697265625,1.02301025390625,35.20000076293945,0.0,1.0,0.2855224609375,0.2146759033203125,Waiting,0.0,0.0,0.0,0.0,0.0,0.0,0.0,0.0,
1.2510869999999996,0.0,0.0,102122.0,0.0,0.0,0.0,0.0,0.25,0.8532713970000001,0.01,0.0,-85408.0,0.0,0.0,-0.0,0.0,0.125,0.531005805,0.01,0.0,98566.0,0.0,0.0,0.0,0.0,0.125,3.386230122,0.01,-0.0024414059999999793,-86814.0,0.0,0.0,-0.0,0.0,0.25,1.650390456,0.01,0.0,-0.41999998688697815,-0.8899999856948853,-0.019999999552965164,-0.01715087890625,-0.00775146484375,1.0198974609375,35.20000076293945,0.0,-1.0,0.2855224609375,0.2146759033203125,Waiting,0.0,0.0,0.0,0.0,0.0,0.0,0.0,0.0,
1.2725829999999987,0.0,0.0,102122.0,0.0,0.0,0.0,0.0,0.25,0.8544921000000001,0.01,0.0,-85408.0,0.0,0.0,-0.0,0.0,0.125,0.531005805,0.01,0.0,98566.0,0.0,0.0,0.0,0.0,0.125,3.392333637,0.01,-0.0012207029999999897,-86814.0,0.0,0.0,-0.0,0.0,0.25,1.650390456,0.01,0.0,-0.41999998688697815,-0.8899999856948853,-0.019999999552965164,-0.01837158203125,-0.00982666015625,1.01824951171875,35.20000076293945,0.0,-2.0,0.2855224609375,0.2146759033203125,Waiting,0.0,0.0,0.0,0.0,0.0,0.0,0.0,0.0,
1.2931179999999949,0.0,0.0,102122.0,0.0,0.0,-231.49606212973598,0.0,0.25,0.8532713970000001,4.931976986061683,0.0,-85408.0,0.0,0.0,231.49606212973598,0.0,0.125,0.531005805,4.963494235006166,0.0,98566.0,0.0,0.0,-231.49606212973598,0.0,0.125,3.387450825,4.9401255333394705,0.0012207029999999897,-86814.0,0.0,0.0,231.49606212973598,0.0,0.25,1.649169753,4.957724555561715,0.0,-0.41999998688697815,-0.8899999856948853,-0.019999999552965164,-0.01422119140625,-0.009521484375,1.01953125,35.20000076293945,0.0,1.0,0.2855224609375,0.2146759033203125,Waiting,0.0,0.0,0.0,0.0,0.0,0.0,0.0,0.0,
1.3124699999999938,0.0,0.0,102122.0,0.125,0.0,-595.2756196260452,0.0,0.25,0.8544921000000001,4.931976986061683,0.0,-85408.0,0.0,0.0,595.2756196260452,0.0,0.125,0.532226508,4.963494235006166,0.0,98566.0,0.125,0.0,-595.2756196260452,0.0,0.125,3.392333637,4.9401255333394705,0.0,-86814.0,0.125,0.0,595.2756196260452,0.0,0.25,1.649169753,4.957724555561715,0.0,-0.41999998688697815,-0.8899999856948853,-0.019999999552965164,-0.020751953125,-0.0081787109375,1.02716064453125,35.20000076293945,0.0,-4.0,0.2855224609375,0.2146759033203125,Waiting,0.0,0.0,0.0,0.0,0.0,0.0,0.0,0.0,
1.3341549999999989,0.0,0.0,102122.0,0.125,0.0,-843.3070600032805,0.0,0.25,0.847167882,4.931976986061683,-0.0012207030000001007,-85408.0,0.625,0.0,843.3070600032805,0.0,0.125,0.534667914,4.963494235006166,0.0,98566.0,0.375,0.0,-843.3070600032805,0.0,0.125,3.391112934,4.9401255333394705,0.0024414059999999793,-86814.0,0.375,0.0,843.3070600032805,0.0,0.25,1.64794905,4.957724555561715,0.0,-0.4099999964237213,-0.8999999761581421,-0.019999999552965164,-0.021484375,-0.00506591796875,1.02056884765625,35.20000076293945,0.0,-5.0,0.2855224609375,0.2146759033203125,Waiting,0.0,0.0,0.0,0.0,0.0,0.0,0.0,0.0,
1.3547969999999987,0.0,0.0,102122.0,0.625,0.0,-1041.7322874069216,0.0,0.25,0.8544921000000001,4.931976986061683,0.0,-85408.0,1.125,30.0,1041.7322874069216,0.0,0.125,0.531005805,4.963494235006166,0.0,98566.0,1.0,0.0,-1041.7322874069216,0.0,0.125,3.392333637,4.9401255333394705,0.0,-86800.0,1.125,0.0,1041.7322874069216,0.0,0.25,1.651611159,4.957724555561715,0.0,-0.41999998688697815,-0.8999999761581421,-0.019999999552965164,-0.017333984375,-0.008056640625,1.02239990234375,35.20000076293945,0.0,-1.0,0.2855224609375,0.2146759033203125,Waiting,0.0,0.0,0.0,0.0,0.0,0.0,0.0,0.0,
1.3809239999999992,0.0,0.0,102122.0,1.625,-37.5,-1107.8739881515503,0.0,0.25,0.859374912,4.931976986061683,0.0,-85383.0,2.5,90.0,1107.8739881515503,0.0,0.125,0.531005805,4.963494235006166,0.0,98561.0,2.75,-15.0,-1107.8739881515503,0.0,0.125,3.4216305090000003,4.9401255333394705,0.003662108999999969,-86800.0,2.0,30.0,1107.8739881515503,0.0,0.25,1.645507644,4.957724555561715,0.0,-0.4000000059604645,-1.1200000047683716,-0.019999999552965164,-0.31396484375,0.2076416015625,0.9710693359375,35.20000076293945,0.0,-294.0,0.2851104736328125,0.2147369384765625,Waiting,0.0,0.0,0.0,0.0,0.0,0.0,0.0,0.0,
1.4006519999999947,0.0,0.0,102092.0,3.125,-105.0,-1107.8739881515503,0.0,0.25,0.8532713970000001,4.931976986061683,0.0024414060000000903,-85383.0,4.875,150.0,1107.8739881515503,0.0,0.125,0.5285643990000001,4.963494235006166,0.0,98561.0,4.25,-30.0,-1107.8739881515503,0.0,0.125,3.4191891030000003,4.9401255333394705,0.025634763000000227,-86800.0,3.125,90.0,1107.8739881515503,0.0,0.25,1.645507644,4.957724555561715,-0.004882811999999959,-0.41999998688697815,-1.3700000047683716,-0.019999999552965164,-0.126220703125,0.11224365234375,1.1285400390625,35.20000076293945,0.0,-99.0,0.2845001220703125,0.215057373046875,Waiting,0.0,0.0,0.0,0.0,0.0,0.0,0.0,0.0,
1.421913999999997,0.0,0.0,102092.0,4.625,-172.5,-909.4488233327867,0.0,0.25,0.8532713970000001,4.931976986061683,0.0,-85383.0,7.25,195.0,909.4488233327867,0.0,0.125,0.531005805,4.963494235006166,0.0,98561.0,6.375,-60.0,-909.4488233327867,0.0,0.125,3.4204098060000003,4.9401255333394705,0.0,-86800.0,4.75,217.5,909.4488233327867,0.0,0.25,1.644286941,4.957724555561715,0.0,-0.36000001430511475,-1.4600000381469727,0.0,-0.213134765625,-0.08648681640625,0.7938232421875,35.20000076293945,0.0,-192.0,0.28369140625,0.21539306640625,Waiting,0.0,0.0,0.0,0.0,0.0,0.0,0.0,0.0,
1.4453179999999992,0.0,0.0,102092.0,4.875,-225.0,-512.5984311103822,0.0,0.25,0.8544921000000001,0.01,0.0,-85383.0,8.5,217.5,512.5984311103822,0.0,0.125,0.5297851020000001,0.01,-0.0012207030000004337,98561.0,7.625,-90.0,-512.5984311103822,0.0,0.125,3.4216305090000003,0.01,0.003662108999999969,-86800.0,5.0,217.5,512.5984311103822,0.0,0.25,1.644286941,0.01,0.0,-0.3700000047683716,-1.690000057220459,0.029999999329447746,-0.2135009765625,0.04791259765625,1.36517333984375,35.20000076293945,0.0,-172.0,0.2813262939453125,0.215850830078125,Waiting,0.0,0.0,0.0,0.0,0.0,0.0,0.0,0.0,
1.4626089999999967,0.0,0.0,102092.0,4.0,-255.0,-165.35433009266853,0.0,0.25,0.8544921000000001,0.01,0.0,-85383.0,6.875,217.5,165.35433009266853,0.0,0.125,0.52490229,0.01,0.0,98561.0,6.875,-120.0,-165.35433009266853,0.0,0.125,3.4167476970000004,0.01,0.0,-86800.0,4.625,240.0,165.35433009266853,0.0,0.25,1.644286941,0.01,0.0,-0.4000000059604645,-1.659999966621399,0.05000000074505806,-0.0845947265625,0.0113525390625,0.9954833984375,35.20000076293945,0.0,-55.0,0.2798614501953125,0.2161407470703125,Waiting,0.0,0.0,0.0,0.0,0.0,0.0,0.0,0.0,
1.4894779999999954,0.0,0.0,102092.0,2.0,-255.0,0.0,0.0,0.25,0.8544921000000001,0.01,0.0,-85356.0,4.25,202.5,0.0,0.0,0.125,0.531005805,0.01,0.0,98532.0,4.75,-142.5,0.0,0.0,0.125,3.410644182,0.01,0.0,-86764.0,1.375,217.5,0.0,0.0,0.25,1.645507644,0.01,0.0,-0.4000000059604645,-1.7799999713897705,0.05000000074505806,0.002197265625,0.02777099609375,1.073486328125,35.189998626708984,0.0,35.0,0.2770843505859375,0.216522216796875,Waiting,0.0,0.0,0.0,0.0,0.0,0.0,0.0,0.0,
1.5075149999999995,0.0,0.0,102066.0,0.5,-225.0,0.0,0.0,0.25,0.852050694,0.01,0.0,-85356.0,1.875,187.5,0.0,0.0,0.125,0.526122993,0.01,0.0,98532.0,2.125,-165.0,0.0,0.0,0.125,3.40576137,0.01,0.0,-86764.0,1.375,217.5,0.0,0.0,0.25,1.644286941,0.01,0.0,-0.4300000071525574,-1.7599999904632568,0.029999999329447746,0.04559326171875,-0.00201416015625,1.0938720703125,35.189998626708984,0.0,79.0,0.2758331298828125,0.2167205810546875,Waiting,0.0,0.0,0.0,0.0,0.0,0.0,0.0,0.0,
1.5283070000000007,0.0,0.0,102066.0,0.0,-195.0,0.0,0.0,0.25,0.8544921000000001,0.01,0.0,-85356.0,0.5,180.0,0.0,0.0,0.125,0.535888617,0.01,-0.004882811999999959,98532.0,0.625,-180.0,0.0,0.0,0.125,3.402099261,0.01,-0.009765624000000361,-86764.0,0.375,187.5,0.0,0.0,0.25,1.649169753,0.01,0.0,-0.4399999976158142,-1.6799999475479126,0.009999999776482582,0.00787353515625,0.05743408203125,0.94549560546875,35.189998626708984,0.0,35.0,0.2746429443359375,0.2169647216796875,Waiting,0.0,0.0,0.0,0.0,0.0,0.0,0.0,0.0,
1.5463129999999947,0.0,0.0,102066.0,0.0,-172.5,0.0,0.0,0.25,0.849609288,0.01,0.0,-85356.0,0.125,172.5,0.0,0.0,0.125,0.5407714290000001,0.01,-0.004882811999999959,98532.0,0.0,-180.0,0.0,0.0,0.125,3.397216449,0.01,-0.009765624000000361,-86764.0,0.125,150.0,0.0,0.0,0.25,1.6577146740000002,0.01,0.0,-0.44999998807907104,-1.6100000143051147,-0.05000000074505806,0.0743408203125,-0.06011962890625,1.05908203125,35.189998626708984,0.0,103.0,0.2725982666015625,0.2174835205078125,Waiting,0.0,0.0,0.0,0.0,0.0,0.0,0.0,0.0,
1.564029999999999,0.0,0.0,102066.0,0.0,-150.0,0.0,0.0,0.25,0.8544921000000001,0.01,0.0,-85356.0,0.0,135.0,0.0,0.0,0.125,0.5407714290000001,0.01,0.014648435999999876,98532.0,0.0,-157.5,0.0,0.0,0.125,3.397216449,0.01,-0.009765623999999917,-86764.0,0.0,127.5,0.0,0.0,0.25,1.673583813,0.01,0.00976562400000014,-0.4300000071525574,-1.5499999523162842,-0.07000000029802322,0.098876953125,-0.04486083984375,1.0450439453125,35.189998626708984,0.0,127.0,0.2718048095703125,0.2176666259765625,Waiting,0.0,0.0,0.0,0.0,0.0,0.0,0.0,0.0,
1.598653999999995,0.0,0.0,102066.0,0.0,-112.5,0.0,0.0,0.25,0.8532713970000001,0.01,0.0,-85356.0,0.0,97.5,0.0,0.0,0.125,0.5407714290000001,0.01,0.014648435999999876,98532.0,0.0,-112.5,0.0,0.0,0.125,3.392333637,0.01,-0.009765623999999917,-86747.0,0.0,75.0,0.0,0.0,0.25,1.6833494370000002,0.01,0.00976562400000014,-0.4300000071525574,-1.5499999523162842,-0.07000000029802322,0.098876953125,-0.04486083984375,1.0450439453125,35.189998626708984,0.0,127.0,0.2718048095703125,0.2176666259765625,Waiting,0.0,0.0,0.0,0.0,0.0,0.0,0.0,0.0,
1.6228839999999982,0.0,0.0,102066.0,0.0,-60.0,0.0,0.0,0.25,0.8532713970000001,0.01,0.0,-85341.0,0.0,67.5,0.0,0.0,0.125,0.5407714290000001,0.01,0.0,98525.0,0.0,-37.5,0.0,0.0,0.125,3.391112934,0.01,-0.004882811999999959,-86747.0,0.0,90.0,0.0,0.0,0.25,1.6833494370000002,0.01,0.029296871999999974,-0.4099999964237213,-1.2400000095367432,0.0,0.1177978515625,-0.0018310546875,0.99932861328125,35.189998626708984,0.0,139.0,0.270355224609375,0.218414306640625,Waiting,0.0,0.0,0.0,0.0,0.0,0.0,0.0,0.0,
1.640640999999996,0.0,0.0,102052.0,0.0,-60.0,0.0,0.0,0.25,0.8544921000000001,0.01,0.0,-85341.0,0.0,67.5,0.0,0.0,0.125,0.5407714290000001,0.01,0.0,98525.0,0.0,-37.5,0.0,0.0,0.125,3.392333637,0.01,-0.004882811999999959,-86747.0,0.0,120.0,0.0,0.0,0.25,1.693115061,0.01,0.029296871999999974,-0.4000000059604645,-1.1799999475479126,-0.009999999776482582,0.0272216796875,0.027099609375,1.0863037109375,35.189998626708984,0.0,49.0,0.2701873779296875,0.218719482421875,Waiting,0.0,0.0,0.0,0.0,0.0,0.0,0.0,0.0,
1.6605609999999942,0.0,0.0,102052.0,0.0,-75.0,0.0,0.0,0.25,0.8544921000000001,0.01,0.0,-85341.0,0.0,90.0,0.0,0.0,0.125,0.5407714290000001,0.01,0.0,98525.0,0.0,-15.0,0.0,0.0,0.125,3.392333637,0.01,-0.004882811999999959,-86747.0,0.0,135.0,0.0,0.0,0.25,1.697997873,0.01,0.029296871999999974,-0.4000000059604645,-1.159999966621399,-0.029999999329447746,0.068115234375,-0.01611328125,1.01617431640625,35.189998626708984,0.0,88.0,0.2700958251953125,0.21905517578125,Waiting,0.0,0.0,0.0,0.0,0.0,0.0,0.0,0.0,
1.6809879999999975,0.0,0.0,102052.0,0.0,-105.0,0.0,0.0,0.25,0.8532713970000001,0.01,0.0,-85341.0,0.0,120.0,0.0,0.0,0.125,0.5407714290000001,0.01,0.0,98525.0,0.0,-15.0,0.0,0.0,0.125,3.392333637,0.01,0.0,-86747.0,0.0,150.0,0.0,0.0,0.25,1.693115061,0.01,0.009765623999999917,-0.4000000059604645,-1.0099999904632568,-0.05000000074505806,0.00762939453125,-0.0115966796875,1.00933837890625,35.189998626708984,0.0,25.0,0.270263671875,0.2195587158203125,Waiting,0.0,0.0,0.0,0.0,0.0,0.0,0.0,0.0,
1.6998389999999999,0.0,0.0,102052.0,0.0,-127.5,0.0,0.0,0.25,0.8532713970000001,0.01,0.0,-85341.0,0.0,142.5,0.0,0.0,0.125,0.5407714290000001,0.01,0.0,98525.0,0.0,-22.5,0.0,0.0,0.125,3.392333637,0.01,0.0,-86747.0,0.0,135.0,0.0,0.0,0.25,1.6894529520000001,0.01,0.009765623999999917,-0.38999998569488525,-0.9800000190734863,-0.029999999329447746,0.05780029296875,0.00775146484375,1.040771484375,35.189998626708984,0.0,75.0,0.27044677734375,0.21978759765625,Waiting,0.0,0.0,0.0,0.0,0.0,0.0,0.0,0.0,
1.7231589999999997,0.0,0.0,102052.0,0.0,-135.0,-214.96063694357872,0.0,0.25,0.8532713970000001,4.931839979092523,0.0,-85341.0,0.0,142.5,214.96063694357872,0.0,0.125,0.539550726,4.963356352509249,0.0,98525.0,0.0,-37.5,-214.96063694357872,0.0,0.125,3.392333637,4.939988300009205,0.0,-86734.0,0.125,105.0,214.96063694357872,0.0,0.25,1.6833494370000002,4.957586833342571,0.0,-0.4000000059604645,-0.8999999761581421,0.0,0.0621337890625,-0.0379638671875,1.02532958984375,35.189998626708984,0.0,78.0,0.271209716796875,0.2197723388671875,Waiting,0.0,0.0,0.0,0.0,0.0,0.0,0.0,0.0,
1.7409909999999946,0.0,0.0,102052.0,0.125,-120.0,-545.6692814826965,0.0,0.25,0.8544921000000001,4.932250999999998,0.0,-85325.0,0.0,120.0,545.6692814826965,0.0,0.25,0.5407714290000001,4.963769999999998,0.0,98519.0,0.125,-45.0,-545.6692814826965,0.0,0.125,3.39355434,0.01,0.0012207029999999897,-86734.0,0.375,82.5,545.6692814826965,0.0,0.25,1.679687328,0.01,-0.004882811999999959,-0.38999998569488525,-0.8199999928474426,0.0,0.11395263671875,0.01318359375,1.00177001953125,35.189998626708984,0.0,128.0,0.27178955078125,0.2197265625,Waiting,0.0,0.0,0.0,0.0,0.0,0.0,0.0,0.0,
1.7606630000000005,0.0,0.0,102042.0,0.125,-90.0,-843.3070600032806,0.0,0.25,0.8544921000000001,4.932250999999998,0.0,-85325.0,0.0,90.0,843.3070600032806,0.0,0.25,0.539550726,4.963769999999998,0.0,98519.0,0.125,-37.5,-843.3070600032806,0.0,0.125,3.392333637,0.01,0.0,-86734.0,0.375,82.5,843.3070600032806,0.0,0.25,1.674804516,0.01,-0.004882812000000181,-0.3799999952316284,-0.7300000190734863,0.0,0.09478759765625,0.01318359375,0.9625244140625,35.189998626708984,0.0,107.0,0.2725372314453125,0.2197265625,Waiting,0.0,0.0,0.0,0.0,0.0,0.0,0.0,0.0,
1.7801399999999994,0.0,0.0,102042.0,0.375,-60.0,-925.9842485189438,0.0,0.25,0.8544921000000001,4.932113993030843,0.0012207029999999897,-85325.0,0.5,75.0,925.9842485189438,0.0,0.25,0.5407714290000001,4.963632117503084,0.0,98519.0,0.875,-37.5,-925.9842485189438,0.0,0.125,3.392333637,4.940262766669736,0.0,-86734.0,0.75,67.5,925.9842485189438,0.0,0.25,1.6638181890000001,4.957862277780858,-0.007324217999999938,-0.3400000035762787,-0.6700000166893005,-0.029999999329447746,0.03692626953125,-0.0257568359375,1.05517578125,35.189998626708984,0.0,49.0,0.2742919921875,0.219818115234375,Waiting,0.0,0.0,0.0,0.0,0.0,0.0,0.0,0.0,
1.7998469999999942,0.0,0.0,102042.0,1.0,-60.0,-942.519673705101,0.0,0.25,0.8544921000000001,4.931839979092523,-0.0012207029999999897,-85325.0,1.375,82.5,942.519673705101,0.0,0.25,0.5407714290000001,4.963356352509249,0.0,98519.0,1.75,-37.5,-942.519673705101,0.0,0.125,3.392333637,4.939988300009205,-0.0012207029999999897,-86734.0,1.5,82.5,942.519673705101,0.0,0.25,1.665038892,4.957586833342571,-0.006103514999999948,-0.33000001311302185,-0.6499999761581421,-0.05000000074505806,0.01416015625,-0.02117919921875,1.1107177734375,35.189998626708984,0.0,26.0,0.2752532958984375,0.2198638916015625,Waiting,0.0,0.0,0.0,0.0,0.0,0.0,0.0,0.0,
1.8207569999999977,0.0,0.0,102042.0,1.875,-120.0,-942.519673705101,0.0,0.25,0.8544921000000001,4.931565965128684,0.0,-85325.0,2.125,127.5,942.519673705101,0.0,0.25,0.539550726,4.9630805874897295,0.0,98519.0,3.125,-37.5,-942.519673705101,0.0,0.125,3.392333637,4.939713833323111,0.0,-86734.0,2.25,120.0,942.519673705101,0.0,0.25,1.644286941,4.95731138887863,0.0,-0.38999998569488525,-0.699999988079071,-0.03999999910593033,-0.19384765625,-0.04827880859375,0.9219970703125,35.189998626708984,0.0,-182.0,0.2761077880859375,0.2198638916015625,Waiting,0.0,0.0,0.0,0.0,0.0,0.0,0.0,0.0,
1.8400659999999989,0.0,0.0,102042.0,2.75,-187.5,-942.519673705101,0.0,0.25,0.850829991,4.932250999999998,0.0,-85325.0,3.875,187.5,942.519673705101,0.0,0.25,0.5407714290000001,4.963769999999998,0.0,98519.0,4.625,-45.0,-942.519673705101,0.0,0.125,3.392333637,0.01,0.0012207029999999897,-86701.0,2.75,172.5,942.519673705101,0.0,0.25,1.640624832,0.01,-0.019531248000000057,-0.2800000011920929,-1.1799999475479126,0.05999999865889549,-0.153564453125,0.169677734375,0.9080810546875,35.189998626708984,0.0,-134.0,0.276702880859375,0.22003173828125,Waiting,0.0,0.0,0.0,0.0,0.0,0.0,0.0,0.0,
1.860476999999999,0.0,0.0,102042.0,3.375,-247.5,-810.2362096309662,0.0,0.25,0.8557128030000001,0.01,0.0,-85290.0,5.125,232.5,810.2362096309662,0.0,0.25,0.5407714290000001,0.01,0.0,98509.0,6.0,-52.5,-810.2362096309662,0.0,0.125,3.391112934,0.01,0.0,-86701.0,3.25,217.5,810.2362096309662,0.0,0.25,1.6552732680000002,0.01,-0.006103514999999948,-0.30000001192092896,-1.25,0.09000000357627869,-0.28765869140625,-0.2166748046875,0.628662109375,35.189998626708984,0.0,-274.0,0.27655029296875,0.2201690673828125,Waiting,0.0,0.0,0.0,0.0,0.0,0.0,0.0,0.0,
1.8802649999999994,0.0,0.0,101998.0,3.5,-270.0,-793.7007844448088,0.0,0.25,0.8532713970000001,0.01,0.0,-85290.0,5.625,247.5,793.7007844448088,0.0,0.25,0.5407714290000001,0.01,0.0,98509.0,6.25,-60.0,-793.7007844448088,0.0,0.125,3.392333637,0.01,0.0,-86701.0,3.5,232.5,793.7007844448088,0.0,0.25,1.6552732680000002,0.01,0.0,-0.2800000011920929,-1.350000023841858,0.14000000059604645,-0.14361572265625,0.061767578125,1.21649169921875,35.189998626708984,0.0,-114.0,0.276123046875,0.2201995849609375,Waiting,0.0,0.0,0.0,0.0,0.0,0.0,0.0,0.0,
1.8998979999999939,0.0,0.0,101998.0,3.125,-270.0,-793.700784444809,0.0,0.25,0.8532713970000001,0.01,-0.0012207029999999897,-85290.0,5.0,240.0,793.700784444809,0.0,0.125,0.539550726,0.01,0.0,98509.0,6.25,-60.0,-793.700784444809,0.0,0.125,3.392333637,0.01,-0.0012207029999999897,-86701.0,3.5,225.0,793.700784444809,0.0,0.25,1.646728347,0.01,-0.00732421800000016,-0.3499999940395355,-1.4500000476837158,0.1899999976158142,-0.11553955078125,-0.0057373046875,1.0609130859375,35.189998626708984,0.0,-88.0,0.2746429443359375,0.220123291015625,Waiting,0.0,0.0,0.0,0.0,0.0,0.0,0.0,0.0,
1.9226109999999972,0.0,0.0,101998.0,2.875,-247.5,-793.700784444809,0.0,0.25,0.8532713970000001,0.01,0.0,-85290.0,4.375,217.5,793.700784444809,0.0,0.125,0.538330023,0.01,0.0,98509.0,6.375,-52.5,-793.700784444809,0.0,0.125,3.392333637,0.01,0.0,-86701.0,3.625,210.0,793.700784444809,0.0,0.25,1.6296385050000002,0.01,0.0,-0.36000001430511475,-1.600000023841858,0.20000000298023224,-0.14508056640625,0.0418701171875,0.81011962890625,35.189998626708984,0.0,-122.0,0.273681640625,0.2200775146484375,Waiting,0.0,0.0,0.0,0.0,0.0,0.0,0.0,0.0,
1.9396839999999937,0.0,0.0,101998.0,3.125,-225.0,-793.700784444809,0.0,0.25,0.8544921000000001,0.01,0.0,-85290.0,4.5,202.5,793.700784444809,0.0,0.125,0.5407714290000001,0.01,0.0,98509.0,7.0,-52.5,-793.700784444809,0.0,0.125,3.391112934,0.01,0.0,-86701.0,3.875,202.5,793.700784444809,0.0,0.125,1.624755693,0.01,4.953117188,-0.3400000035762787,-1.7200000286102295,0.1899999976158142,-0.16827392578125,-0.027099609375,1.05059814453125,35.189998626708984,0.0,-136.0,0.27252197265625,0.2200469970703125,Waiting,0.0,0.0,0.0,0.0,0.0,0.0,0.0,0.0,
1.9598489999999946,0.0,0.0,101998.0,3.375,-232.5,-777.1653592586517,0.0,0.25,0.8532713970000001,0.01,0.0,-85290.0,4.5,225.0,777.1653592586517,0.0,0.125,0.5407714290000001,0.01,0.0,98509.0,7.625,-67.5,-777.1653592586517,0.0,0.125,3.392333637,0.01,0.0012207029999999897,-86657.0,4.0,217.5,777.1653592586517,0.0,0.125,1.616210772,0.01,-0.004882811999999959,-0.3799999952316284,-1.9299999475479126,0.18000000715255737,-0.16925048828125,-0.023193359375,1.03131103515625,35.189998626708984,0.0,-134.0,0.269378662109375,0.2199859619140625,Waiting,0.0,0.0,0.0,0.0,0.0,0.0,0.0,0.0,
1.9801189999999989,0.0,0.0,101998.0,3.75,-270.0,-744.0945088863374,0.0,0.25,0.8532713970000001,0.01,0.0,-85243.0,5.125,225.0,744.0945088863374,0.0,0.125,0.5407714290000001,0.01,0.0,98493.0,8.0,-90.0,-744.0945088863374,0.0,0.125,3.392333637,0.01,0.0,-86657.0,4.125,255.0,744.0945088863374,0.0,0.125,1.6101072570000001,0.01,-0.009765623999999917,-0.3799999952316284,-2.009999990463257,0.1899999976158142,-0.09478759765625,-0.00506591796875,1.06365966796875,35.189998626708984,0.0,-57.0,0.267547607421875,0.2199859619140625,Waiting,0.0,0.0,0.0,0.0,0.0,0.0,0.0,0.0,
1.9994049999999988,0.0,0.0,101945.0,3.75,-315.0,-727.55908370018,0.0,0.25,0.861816318,0.01,0.0,-85243.0,5.5,270.0,727.55908370018,0.0,0.125,0.5407714290000001,0.01,0.0,98493.0,8.0,-90.0,-727.55908370018,0.0,0.125,3.392333637,0.01,0.0,-86657.0,4.125,307.5,727.55908370018,0.0,0.125,1.6064451480000002,0.01,0.0,-0.3799999952316284,-2.119999885559082,0.20999999344348907,-0.20428466796875,0.029541015625,1.08404541015625,35.189998626708984,0.0,-163.0,0.2655487060546875,0.2200164794921875,Waiting,0.0,0.0,0.0,0.0,0.0,0.0,0.0,0.0,
2.021341999999997,0.0,0.0,101945.0,3.625,-360.0,-727.55908370018,0.0,0.25,0.8532713970000001,0.01,0.0,-85243.0,5.375,322.5,727.55908370018,0.0,0.125,0.5407714290000001,0.01,0.0,98493.0,8.5,-142.5,-727.55908370018,0.0,0.125,3.391112934,0.01,0.0,-86657.0,4.0,345.0,727.55908370018,0.0,0.125,1.6015623360000002,0.01,0.0,-0.3799999952316284,-2.319999933242798,0.30000001192092896,-0.20489501953125,-0.09063720703125,0.884765625,35.20000076293945,0.0,-169.0,0.261016845703125,0.220184326171875,Waiting,0.0,0.0,0.0,0.0,0.0,0.0,0.0,0.0,
2.0405999999999986,0.0,0.0,101945.0,3.625,-360.0,-727.55908370018,0.0,0.25,0.8532713970000001,0.01,0.0,-85243.0,5.125,367.5,727.55908370018,0.0,0.125,0.539550726,0.01,0.0,98493.0,8.5,-142.5,-727.55908370018,0.0,0.125,3.392333637,0.01,0.0,-86657.0,3.875,382.5,727.55908370018,0.0,0.25,1.6064451480000002,0.01,-0.004882811999999959,-0.4000000059604645,-2.380000114440918,0.36000001430511475,-0.17742919921875,-0.033447265625,0.98858642578125,35.20000076293945,0.0,-136.0,0.2584381103515625,0.2201690673828125,Waiting,0.0,0.0,0.0,0.0,0.0,0.0,0.0,0.0,
2.0605799999999945,0.0,0.0,101945.0,3.25,-405.0,-727.55908370018,0.0,0.25,0.8569335060000001,0.01,0.0,-85243.0,4.875,405.0,727.55908370018,0.0,0.125,0.5407714290000001,0.01,0.0,98493.0,8.625,-150.0,-727.55908370018,0.0,0.125,3.392333637,0.01,0.0,-86657.0,3.75,420.0,727.55908370018,0.0,0.25,1.600341633,0.01,0.004882811999999959,-0.41999998688697815,-2.5399999618530273,0.49000000953674316,-0.12445068359375,0.0484619140625,1.09234619140625,35.20000076293945,0.0,-75.0,0.252685546875,0.22021484375,Waiting,0.0,0.0,0.0,0.0,0.0,0.0,0.0,0.0,
2.0803629999999975,0.0,0.0,101945.0,3.0,-457.5,-727.55908370018,0.0,0.25,0.8581542090000001,0.01,0.0,-85243.0,4.75,442.5,727.55908370018,0.0,0.125,0.5407714290000001,0.01,0.0,98493.0,8.75,-150.0,-727.55908370018,0.0,0.125,3.392333637,0.01,0.0,-86577.0,3.5,457.5,727.55908370018,0.0,0.25,1.6064451480000002,0.01,0.0,-0.4000000059604645,-2.5899999141693115,0.550000011920929,-0.17303466796875,-0.05682373046875,0.9603271484375,35.20000076293945,0.0,-129.0,0.2495880126953125,0.22027587890625,Waiting,0.0,0.0,0.0,0.0,0.0,0.0,0.0,0.0,
2.100729999999996,0.0,0.0,101945.0,2.875,-502.5,-727.5590837001799,0.0,0.25,0.8557128030000001,0.01,0.0024414060000000903,-85161.0,4.625,472.5,727.5590837001799,0.0,0.125,0.535888617,0.01,0.0,98470.0,9.25,-135.0,-727.5590837001799,0.0,0.125,3.392333637,0.01,0.0012207029999999897,-86577.0,3.5,487.5,727.5590837001799,0.0,0.25,1.6064451480000002,0.01,-0.0012207030000004337,-0.38999998569488525,-2.680000066757202,0.5899999737739563,-0.25140380859375,-0.05120849609375,1.017822265625,35.20000076293945,0.0,-203.0,0.2462615966796875,0.2202606201171875,Waiting,0.0,0.0,0.0,0.0,0.0,0.0,0.0,0.0,
2.120238999999994,0.0,0.0,101850.0,2.625,-547.5,-711.0235959291458,0.0,0.25,0.8532713970000001,0.01,0.0,-85161.0,4.375,510.0,711.0235959291458,0.0,0.125,0.535888617,0.01,0.0,98470.0,10.125,-135.0,-711.0235959291458,0.0,0.125,3.392333637,0.01,0.0,-86577.0,3.25,525.0,711.0235959291458,0.0,0.25,1.614990069,0.01,0.0,-0.38999998569488525,-2.819999933242798,0.7099999785423279,-0.21075439453125,-0.02166748046875,1.0684814453125,35.20000076293945,0.0,-158.0,0.239044189453125,0.2202911376953125,Waiting,0.0,0.0,0.0,0.0,0.0,0.0,0.0,0.0,
2.1403469999999944,0.0,0.0,101850.0,2.375,-592.5,-694.4881707429886,0.0,0.25,0.8532713970000001,0.01,0.0,-85161.0,4.0,547.5,694.4881707429886,0.0,0.125,0.5297851020000001,0.01,-0.0012207029999995456,98470.0,10.5,-180.0,-694.4881707429886,0.0,0.125,3.392333637,0.01,0.0,-86577.0,3.25,555.0,694.4881707429886,0.0,0.125,1.624755693,0.01,0.0,-0.4300000071525574,-2.859999895095825,0.7699999809265137,-0.10040283203125,0.04266357421875,1.0181884765625,35.20000076293945,0.0,-48.0,0.2352142333984375,0.2203369140625,Waiting,0.0,0.0,0.0,0.0,0.0,0.0,0.0,0.0,
2.159827999999994,0.0,0.0,101850.0,2.25,-630.0,-694.4881707429886,0.0,0.25,0.848388585,0.010549536599787935,0.0,-85161.0,3.5,585.0,694.4881707429886,0.0,0.125,0.531005805,0.010616952237006868,-0.003662109000000413,98470.0,10.5,-270.0,-694.4881707429886,0.0,0.125,3.392333637,0.010566966404911737,0.0,-86577.0,3.0,555.0,694.4881707429886,0.0,0.125,1.6296385050000002,0.010604610848423688,0.009765623999999917,-0.4300000071525574,-2.930000066757202,0.8399999737739563,-0.110595703125,0.048828125,0.9368896484375,35.20000076293945,0.0,-61.0,0.231292724609375,0.2204742431640625,Waiting,0.0,0.0,0.0,0.0,0.0,0.0,0.0,0.0,
2.179844999999994,0.0,0.0,101850.0,1.625,-660.0,-644.8818951845169,0.0,0.25,0.860595615,0.011508585307349247,0.0,-85161.0,3.125,615.0,644.8818951845169,0.0,0.125,0.531005805,0.011582129638386401,0.0,98470.0,9.875,-397.5,-644.8818951845169,0.0,0.125,3.392333637,0.01152759964008892,0.0,-86577.0,2.875,592.5,644.8818951845169,0.0,0.125,1.6308592080000002,0.011568666305473416,0.0,-0.4000000059604645,-3.0299999713897705,0.949999988079071,-0.1322021484375,-0.03692626953125,1.10943603515625,35.20000076293945,0.0,-73.0,0.2232513427734375,0.220794677734375,Waiting,0.0,0.0,0.0,0.0,0.0,0.0,0.0,0.0,
2.1999329999999975,0.0,0.0,101850.0,1.25,-690.0,-562.2047066688538,0.0,0.25,0.8532713970000001,0.013015662197782957,0.0012207030000001007,-85161.0,2.625,652.5,562.2047066688538,0.0,0.125,0.531005805,0.013098837335628116,0.0,98470.0,8.875,-532.5,-562.2047066688538,0.0,0.125,3.392333637,0.013037166503068666,0.0,-86470.0,2.5,622.5,562.2047066688538,0.0,0.125,1.6308592080000002,0.013083610946930297,0.0,-0.4300000071525574,-3.009999990463257,0.9900000095367432,-0.05230712890625,0.0372314453125,0.9490966796875,35.20000076293945,0.0,-1.0,0.2191314697265625,0.220947265625,Waiting,0.0,0.0,0.0,0.0,0.0,0.0,0.0,0.0,
2.2206719999999986,0.0,0.0,101850.0,1.0,-720.0,-545.6692814826965,0.0,0.25,0.8703612390000001,0.013563690380656915,0.0,-85048.0,2.0,682.5,545.6692814826965,0.0,0.125,0.552978459,0.013650367631491864,0.0,98359.0,7.25,-637.5,-545.6692814826965,0.0,0.125,3.391112934,0.013586100130872785,0.0,-86470.0,2.125,652.5,545.6692814826965,0.0,0.125,1.645507644,0.013634500131339015,0.0,-0.46000000834465027,-3.049999952316284,1.0700000524520874,0.01947021484375,0.0576171875,1.11175537109375,35.20000076293945,0.0,79.0,0.2109832763671875,0.2213592529296875,Waiting,0.0,0.0,0.0,0.0,0.0,0.0,0.0,0.0,
2.240334999999999,0.0,0.0,101731.0,0.625,-735.0,-529.1338562965393,0.0,0.25,0.8532713970000001,0.01465974674640561,0.0012207030000001007,-85048.0,1.375,712.5,529.1338562965393,0.0,0.125,0.5407714290000001,0.014753428223220143,0.0,98359.0,5.75,-697.5,-529.1338562965393,0.0,0.125,3.392333637,0.014683967386481806,0.0,-86470.0,1.875,675.0,529.1338562965393,0.0,0.125,1.649169753,0.014736278500157234,-4.943351564,-0.4699999988079071,-3.0,1.100000023841858,-0.06390380859375,-0.020263671875,0.97247314453125,35.20000076293945,0.0,-13.0,0.20697021484375,0.22161865234375,Waiting,0.0,0.0,0.0,0.0,0.0,0.0,0.0,0.0,
2.260976999999999,0.0,0.0,101731.0,0.375,-742.5,-529.1338562965393,0.0,0.25,0.8666991300000001,0.015070767271092186,0.0,-85048.0,0.875,735.0,529.1338562965393,0.0,0.125,0.546874944,0.015167075328735145,0.008544920999999484,98359.0,4.625,-697.5,-529.1338562965393,0.0,0.125,3.392333637,0.01509566699385409,0.0,-86470.0,1.5,690.0,529.1338562965393,0.0,0.125,1.649169753,0.015149444772797461,0.004882811999999959,-0.4699999988079071,-3.0,1.100000023841858,-0.06390380859375,-0.020263671875,0.97247314453125,35.20000076293945,0.0,-13.0,0.20697021484375,0.22161865234375,Waiting,0.0,0.0,0.0,0.0,0.0,0.0,0.0,0.0,
2.2795429999999977,0.0,0.0,101731.0,0.125,-742.5,-529.1338562965393,0.0,0.25,0.8410643670000001,0.015070767271092186,0.0,-85048.0,0.75,742.5,529.1338562965393,0.0,0.125,0.552978459,0.015167075328735145,0.004882811999999959,98359.0,4.125,-645.0,-529.1338562965393,0.0,0.125,3.392333637,0.01509566699385409,0.0,-86470.0,1.125,697.5,529.1338562965393,0.0,0.125,1.650390456,0.015149444772797461,0.0,-0.47999998927116394,-2.9800000190734863,1.1200000047683716,-0.00830078125,-0.09967041015625,0.95196533203125,35.20000076293945,0.0,39.0,0.2029876708984375,0.2218170166015625,Waiting,0.0,0.0,0.0,0.0,0.0,0.0,0.0,0.0,
2.299916999999994,0.0,0.0,101731.0,0.125,-742.5,-529.1338562965393,0.0,0.25,0.8532713970000001,0.015481787795777982,-0.0012207030000001007,-85048.0,0.625,742.5,529.1338562965393,0.0,0.125,0.545654241,0.015580722434249366,0.0,98359.0,4.0,-570.0,-529.1338562965393,0.0,0.125,3.392333637,0.015507366601225593,0.0,-86470.0,0.875,697.5,529.1338562965393,0.0,0.125,1.649169753,0.015562611045436906,0.0012207029999999897,-0.49000000953674316,-2.930000066757202,1.1399999856948853,-0.03887939453125,-0.083984375,1.1912841796875,35.20000076293945,0.0,20.0,0.1951446533203125,0.2220306396484375,Waiting,0.0,0.0,0.0,0.0,0.0,0.0,0.0,0.0,
2.3212839999999995,0.0,0.0,101731.0,0.125,-727.5,-435.02998305109844,0.0,0.25,0.8532713970000001,4.797945339484876,0.0,-85048.0,0.625,735.0,633.7231874874657,0.0,0.125,0.545654241,4.871224936507598,0.0,98359.0,4.375,-502.5,-439.10513820635225,0.0,0.125,3.388671528,0.17169279346153649,0.0,-86363.0,0.875,697.5,636.5275442626615,0.0,0.125,1.650390456,0.1183643510686717,0.0,-0.5400000214576721,-2.890000104904175,1.159999966621399,-0.05224609375,-0.072509765625,1.01629638671875,35.20000076293945,0.0,-2.0,0.1912384033203125,0.2220306396484375,Waiting,0.0,0.0,0.0,0.0,0.0,0.0,0.0,0.0,
2.3405829999999987,0.0,0.0,101731.0,0.125,-712.5,-364.57051521890105,0.0,0.25,0.8544921000000001,4.579238975282628,0.0012207029999999897,-84933.0,0.625,720.0,746.737349409375,0.0,0.25,0.539550726,4.79482434481171,-0.0012207030000004337,98287.0,4.5,-450.0,-374.3809647345259,0.0,0.125,3.392333637,0.3941351941917527,0.0012207029999999897,-86363.0,1.125,682.5,751.5757547922354,0.0,0.25,1.649169753,0.19073312393953062,0.0,-0.5699999928474426,-2.880000114440918,1.2400000095367432,0.00201416015625,-0.0196533203125,0.94635009765625,35.20000076293945,0.0,49.0,0.1835479736328125,0.2220611572265625,Waiting,0.0,0.0,0.0,0.0,0.0,0.0,0.0,0.0,
2.3608899999999995,0.0,0.0,101620.0,0.125,-697.5,-338.9607798260658,0.0,0.25,0.832519446,4.405949397561801,-0.006103515000000059,-84933.0,0.75,705.0,819.9411141876418,0.0,0.25,0.526122993,4.758547490630262,-0.008544920999999484,98287.0,4.625,-435.0,-353.64588146385455,0.0,0.0,3.406982073,0.567084818629935,0.0,-86363.0,1.25,660.0,826.1201062504915,0.0,0.25,1.6601560800000001,0.22612735352477004,0.0012207029999999897,-0.5299999713897705,-2.869999885559082,1.2899999618530273,-0.04571533203125,-0.02154541015625,1.16766357421875,35.20000076293945,0.0,12.0,0.179779052734375,0.222076416015625,Waiting,0.0,0.0,0.0,0.0,0.0,0.0,0.0,0.0,
2.380284999999996,0.0,0.0,101620.0,0.125,-675.0,-335.7760174179692,0.0,0.5,0.810546792,4.369175540171482,0.0,-84933.0,1.0,712.5,834.6775355118054,0.0,0.25,0.511474557,4.752344169817695,-0.010986327000000351,98287.0,4.25,-457.5,-351.89550335707935,0.0,0.125,3.4252926180000003,0.6041399120521315,0.0,-86363.0,2.0,652.5,841.291566401281,0.0,0.25,1.668701001,0.232733574868638,0.0,-0.5600000023841858,-2.799999952316284,1.340000033378601,-0.05621337890625,-0.1029052734375,1.120849609375,35.20000076293945,0.0,-3.0,0.179779052734375,0.2220306396484375,Waiting,0.0,0.0,0.0,0.0,0.0,0.0,0.0,0.0,
2.399379999999997,0.0,0.0,101620.0,0.0,-667.5,-333.3409802075926,0.0,0.5,0.7629393750000001,4.331780607858932,4.911499049,-84933.0,1.0,712.5,849.4632478952435,0.0,0.25,0.496826121,4.7463563363672,-0.01586913900000031,98287.0,3.875,-502.5,-350.93315255456076,0.0,0.75,3.449706678,0.6414822728736782,0.01464843600000032,-86363.0,2.25,660.0,856.5195140805957,0.0,0.375,1.673583813,0.239105425291872,0.004882811999999959,-0.5299999713897705,-2.680000066757202,1.399999976158142,-0.03143310546875,0.02423095703125,0.9442138671875,35.20000076293945,0.0,13.0,0.179931640625,0.22210693359375,Waiting,0.0,0.0,0.0,0.0,0.0,0.0,0.0,0.0,
2.4225509999999995,0.0,0.0,101620.0,0.0,-675.0,-310.4401964474506,0.0,1.625,0.649413996,4.231877475071641,0.0,-84933.0,1.375,780.0,832.8016911687841,0.0,0.25,0.469970655,4.731177638342957,0.0,98287.0,3.375,-555.0,-329.66115919162866,0.0,1.25,3.55224573,0.7378341427953355,0.0,-86363.0,2.375,690.0,840.1559504775428,0.0,0.375,1.6833494370000002,0.25411162223498385,0.0,-0.5,-2.75,1.409999966621399,0.0582275390625,-0.02197265625,1.1697998046875,35.20000076293945,0.0,113.0,0.18011474609375,0.22222900390625,Waiting,0.0,0.0,0.0,0.0,0.0,0.0,0.0,0.0,
2.440425999999992,0.0,0.0,101620.0,0.0,-690.0,-300.596425786434,0.0,1.625,0.577392519,4.197732533329587,-0.09643553699999963,-84933.0,1.375,780.0,817.0893885825158,0.0,0.25,0.44799800100000003,4.726242759902358,-0.02441406000000068,98287.0,3.375,-555.0,-319.90060553320507,0.0,1.375,3.6242672070000004,0.7701545403570623,0.09643553700000007,-86228.0,2.0,750.0,824.3865932674315,0.0,0.375,1.6882322490000001,0.2588292275018395,0.00854492100000015,-0.49000000953674316,-2.680000066757202,1.3799999952316284,-0.0269775390625,-0.07440185546875,1.17633056640625,35.20000076293945,0.0,26.0,0.180389404296875,0.2222747802734375,Waiting,0.0,0.0,0.0,0.0,0.0,0.0,0.0,0.0,
2.4593879999999917,0.0,0.0,101620.0,0.0,-690.0,-293.9277143420589,0.0,1.875,0.48095698200000003,4.117313649851202,-0.08544921000000016,-84799.0,1.5,817.5,816.6978967895585,0.0,0.25,0.43945308000000005,4.714732223382501,-0.024414059999999793,98194.0,2.875,-600.0,-313.34367467723536,0.0,1.25,3.7255855560000004,0.844707533201894,0.0817871010000002,-86228.0,1.625,825.0,823.8848292221278,0.0,0.375,1.717529121,0.2690569137025949,0.006103514999999948,-0.47999998927116394,-2.4700000286102295,1.2100000381469727,0.11383056640625,0.08074951171875,0.781982421875,35.20000076293945,0.0,149.0,0.1812591552734375,0.2223968505859375,Waiting,0.0,0.0,0.0,0.0,0.0,0.0,0.0,0.0,
2.4804909999999945,0.0,0.0,101509.0,0.0,-705.0,-298.3420600116582,0.0,1.0,0.35644527600000003,4.072963595441608,0.0,-84799.0,1.375,840.0,832.3908445184876,0.0,0.25,0.418701129,4.707651706150767,-0.003662108999999525,98194.0,2.5,-600.0,-315.84811069071736,0.0,0.875,3.8403316380000003,0.883022538536749,0.0,-86228.0,1.25,885.0,838.824512215217,0.0,0.25,1.756591617,0.2732583333123286,0.0,-0.4399999976158142,-2.4800000190734863,1.0199999809265137,0.0579833984375,0.0169677734375,1.25048828125,35.20000076293945,0.0,112.0,0.1819610595703125,0.222564697265625,Waiting,0.0,0.0,0.0,0.0,0.0,0.0,0.0,0.0,
2.5001609999999928,0.0,0.0,101509.0,0.0,-705.0,-303.8263356584732,0.0,0.875,0.274658175,4.029865480130834,-0.104980458,-84799.0,1.25,847.5,848.1999092963989,0.0,0.25,0.39062496,4.700691073096073,-0.023193357000000248,98194.0,2.375,-555.0,-318.94036288200044,0.0,0.75,3.9392085810000004,0.9204945195813223,0.12451170599999983,-86228.0,1.25,922.5,853.7304018049646,0.0,0.25,1.7858884890000002,0.2771726760139004,0.03417968399999993,-0.4099999964237213,-2.380000114440918,0.75,0.162109375,0.0391845703125,1.33013916015625,35.20000076293945,0.0,217.0,0.1828765869140625,0.2227783203125,Waiting,0.0,0.0,0.0,0.0,0.0,0.0,0.0,0.0,
2.521207999999999,0.0,0.0,101509.0,0.0,-675.0,-313.5235649221355,0.0,0.5,0.179443341,3.9852857669806285,0.0,-84799.0,1.0,832.5,865.3004142224864,0.0,0.25,0.35644527600000003,4.6909370735783975,0.0,98194.0,2.625,-472.5,-319.42039485447674,0.0,0.375,4.036864821,0.9540601978923436,0.0,-86228.0,1.5,907.5,867.4544194026058,0.0,0.25,1.8127439550000002,0.27791081930096384,0.0,-0.36000001430511475,-1.8600000143051147,-0.07000000029802322,0.2303466796875,-0.072998046875,0.586181640625,35.189998626708984,0.0,249.0,0.1856842041015625,0.2234344482421875,Waiting,0.0,0.0,0.0,0.0,0.0,0.0,0.0,0.0,
2.540103999999992,0.0,0.0,101509.0,0.0,-615.0,-325.4247528318412,0.0,0.375,0.107421864,3.869720733843882,-0.0988769429999996,-84799.0,1.0,825.0,882.0062935137876,0.0,0.25,0.33691402800000003,4.672591689516941,-0.030517575000000186,98194.0,3.125,-375.0,-324.3595794938867,0.0,0.25,4.105224189,1.0637157833066884,0.10253905199999958,-86228.0,1.5,862.5,881.6138433870668,0.0,0.375,1.8395994210000002,0.2899290009660395,0.03295898099999994,-0.3400000035762787,-1.8200000524520874,-0.6200000047683716,0.14202880859375,-0.03607177734375,1.1617431640625,35.189998626708984,0.0,179.0,0.18756103515625,0.2237091064453125,Waiting,0.0,0.0,0.0,0.0,0.0,0.0,0.0,0.0,
2.5606440000000004,0.0,0.0,101509.0,0.0,-532.5,-346.15126520151165,0.0,0.25,0.028076169,3.801590177917319,-0.06958007099999985,-84799.0,1.0,825.0,914.6667985316619,0.0,0.25,0.327148404,4.6598974669984665,-0.014648435999999876,98194.0,3.75,-300.0,-336.5736412120245,0.0,0.25,4.171142151000001,1.1295926995970782,0.06958007099999985,-86105.0,1.875,802.5,911.0853252545962,0.0,0.375,1.861572075,0.29576233085587145,0.019531248000000057,-0.3700000047683716,-1.75,-1.2200000286102295,0.05419921875,-0.01953125,1.34075927734375,35.189998626708984,0.0,95.0,0.189605712890625,0.2239532470703125,Waiting,0.0,0.0,0.0,0.0,0.0,0.0,0.0,0.0,
2.5804619999999994,0.0,0.0,101509.0,0.0,-450.0,350.77710592740937,0.0,0.375,4.897460436,1.3339373125670342,0.0,-84663.0,1.25,840.0,916.3616657589272,0.0,0.25,0.307617156,4.656137549264793,-0.019531247999999835,98149.0,4.75,-270.0,-331.931417347627,0.0,0.25,4.230956598000001,1.128287496417397,0.0,-86105.0,1.875,802.5,909.3143517244581,0.0,0.375,1.87988262,0.29201118870177684,0.0,-0.4300000071525574,-1.4600000381469727,-2.5799999237060547,0.137939453125,-0.1011962890625,0.84423828125,35.189998626708984,0.0,163.0,0.194122314453125,0.2241363525390625,Waiting,0.0,0.0,0.0,0.0,0.0,0.0,0.0,0.0,
2.6000869999999994,0.0,0.0,101453.0,0.125,-390.0,-370.4401170263133,0.0,6.125,4.942626447,3.7672048252690415,1.79443341,-84663.0,1.375,855.0,935.7960858017512,0.0,0.25,0.289306611,4.643514124100736,-0.014648435999999876,98149.0,5.125,-285.0,-330.4153585581743,0.0,0.125,4.276122609000001,1.1586936175901188,0.06103515000000037,-86105.0,1.875,757.5,920.6860176360543,0.0,0.375,1.8908689470000002,0.28821828282046885,0.015869139000000088,-0.46000000834465027,-1.4600000381469727,-3.2799999713897705,0.04010009765625,-0.09368896484375,1.1336669921875,35.189998626708984,0.0,73.0,0.196624755859375,0.22406005859375,Waiting,0.0,0.0,0.0,0.0,0.0,0.0,0.0,0.0,
2.622275999999998,0.0,0.0,101453.0,0.125,-337.5,-385.5521999738194,0.0,8.375,0.17456052900000002,3.7383661767888836,0.0,-84663.0,1.5,855.0,953.4367997457211,0.0,0.25,0.269775363,4.635322385797208,0.0,98149.0,5.375,-315.0,-334.5370046766402,0.0,0.25,4.334716353,1.1898668666090744,0.0,-86105.0,1.875,772.5,933.9733613453484,0.0,0.375,1.901855274,0.2885629031495604,0.0,-0.6100000143051147,-1.3300000429153442,-4.710000038146973,0.09161376953125,-0.04632568359375,0.7926025390625,35.189998626708984,0.0,112.0,0.2018585205078125,0.223419189453125,Waiting,0.0,0.0,0.0,0.0,0.0,0.0,0.0,0.0,
2.6404320000000006,0.0,0.0,101453.0,0.125,-307.5,-406.8048569768678,0.0,8.5,0.27099606600000004,3.7106011528754324,0.18554685599999932,-84663.0,1.5,855.0,973.0789277402979,0.0,0.25,0.253906224,4.623071342911937,-0.01586913899999942,98149.0,5.25,-345.0,-333.49499904166083,0.0,0.25,4.368896037,1.2211550379897465,0.06103514999999948,-86105.0,1.875,772.5,944.781097576595,0.0,0.375,1.906738086,0.28462630623832536,0.009765623999999917,-0.6700000166893005,-1.25,-5.420000076293945,0.02288818359375,0.00445556640625,1.03204345703125,35.189998626708984,0.0,43.0,0.204620361328125,0.2230224609375,Waiting,0.0,0.0,0.0,0.0,0.0,0.0,0.0,0.0,
2.659880999999994,0.0,0.0,101453.0,0.125,-300.0,-412.30834639043076,0.0,5.875,0.22338864900000002,3.7095187930296225,0.04760741700000004,-84663.0,1.5,855.0,974.9527308903336,0.0,0.25,0.24047849100000002,4.618849324327907,-0.019531248000000723,98149.0,5.125,-352.5,-327.97665546115695,0.0,0.25,4.409179236,1.222091519684259,0.029296871999999752,-86105.0,1.875,832.5,942.3923500829122,0.0,0.125,1.910400195,0.28045323839814607,0.004882811999999959,-0.6200000047683716,-1.2799999713897705,-6.130000114440918,-0.02191162109375,-0.0186767578125,1.19329833984375,35.189998626708984,0.0,5.0,0.207427978515625,0.2226409912109375,Waiting,0.0,0.0,0.0,0.0,0.0,0.0,0.0,0.0,
2.685656999999992,0.0,0.0,101453.0,0.125,-322.5,-434.08271803435207,0.0,4.0,0.151367172,3.684144904371681,-0.08178710099999975,-84515.0,1.5,862.5,994.5328906101341,0.0,0.25,0.22094724300000002,4.607016980507647,-0.019531247999999835,98105.0,4.875,-330.0,-327.45576653882756,0.0,0.25,4.461669465,1.2550756704820965,0.05737304099999996,-85949.0,1.625,892.5,952.8353181157746,0.0,0.125,1.9250486310000001,0.2767326055653246,0.00854492100000015,-0.7599999904632568,-1.25,-7.570000171661377,0.02618408203125,-0.0955810546875,0.81829833984375,35.189998626708984,0.0,54.0,0.213134765625,0.2218780517578125,Waiting,0.0,0.0,0.0,0.0,0.0,0.0,0.0,0.0,
2.7028699999999954,0.0,0.0,101453.0,0.125,-352.5,-439.58399783415626,0.0,3.625,0.062255853,3.6830921513678003,-0.05371093200000043,-84515.0,1.375,892.5,996.3166548727999,0.0,0.25,0.21118161900000001,4.602860737407666,-0.009765623999999917,98105.0,4.875,-292.5,-321.98769039818063,0.0,0.125,4.489745634,1.257112353078814,0.0402831990000001,-85949.0,1.5,952.5,950.3098749318672,0.0,0.125,1.929931443,0.2726507560127836,0.010986326999999907,-0.7400000095367432,-1.25,-8.279999732971191,0.0216064453125,-0.11138916015625,1.0523681640625,35.189998626708984,0.0,58.0,0.2160797119140625,0.2213592529296875,Waiting,0.0,0.0,0.0,0.0,0.0,0.0,0.0,0.0,
