Time,ClimberA1,ClimberA2,FRpos,FRCurrent,FRspeed,FRsetpoint,FRApos,FRACurrent,FREncpos,FREncSetpoint,FREncSpeed,FLpos,FLCurrent,FLspeed,FLsetpoint,FLApos,FLACurrent,FLEncpos,FLEncSetpoint,FLEncSpeed,BRpos,BRCurrent,BRspeed,BRsetpoint,BRApos,BRACurrent,BREncpos,BREncSetpoint,BREncSpeed,BLpos,BLCurrent,BLspeed,BLsetpoint,BLApos,BLACurrent,BLEncpos,BLEncSetpoint,BLEncSpeed,navx_Pitch,navx_Roll,navx_Yaw,navx_XAcc,navx_YAcc,navx_ZAcc,navx_Temp,navx_Bar,navx_Alt,navx_XDis,navx_YDis,GearPlacerState,ShootOutputV,ShootOutputCurrent,ShootEncPos,ShootEncVelocity,ShootSpeed,ShootSetpoint,CarouselSetpoint,CarouselCurrent,
0.48715200000000186,0.0,0.0,36243.0,0.0,0.0,0.0,0.0,0.25,0.848388585,0.01,0.0,-48785.0,0.0,0.0,-0.0,0.0,0.125,0.49194330900000005,0.01,0.0,44885.0,0.0,0.0,0.0,0.0,0.0,3.3630367650000004,0.01,0.0,-498.0,0.0,0.0,-0.0,0.0,0.125,1.625976396,0.01,0.0,-0.23999999463558197,-1.5700000524520874,-0.009999999776482582,-0.02484130859375,-0.0042724609375,1.01824951171875,36.95000076293945,0.0,3.0,-6.3571014404296875,3.0549163818359375,Closing,0.0,0.0,0.0,0.0,0.0,0.0,0.0,0.0,
0.8720779999999795,0.0,0.0,36243.0,0.0,0.0,0.0,0.0,0.25,0.848388585,0.01,0.0,-48785.0,0.0,0.0,-0.0,0.0,0.125,0.49194330900000005,0.01,0.0,44885.0,0.0,0.0,0.0,0.0,0.0,3.3642574680000004,0.01,0.0,-498.0,0.0,0.0,-0.0,0.0,0.125,1.627197099,0.01,0.0,-0.23999999463558197,-1.5700000524520874,-0.009999999776482582,-0.028564453125,-0.007080078125,1.01837158203125,36.9900016784668,0.0,0.0,-6.3571014404296875,3.0549163818359375,Closing,0.0,0.0,0.0,0.0,0.0,0.0,0.0,0.0,
1.0389229999999516,0.0,0.0,36243.0,0.0,0.0,0.0,0.0,0.25,0.848388585,0.01,0.0,-48785.0,0.0,0.0,-0.0,0.0,0.125,0.49194330900000005,0.01,0.0,44885.0,0.0,0.0,0.0,0.0,0.0,3.3630367650000004,0.01,0.0,-498.0,0.125,0.0,-0.0,0.0,0.125,1.625976396,0.01,0.0,-0.23999999463558197,-1.5700000524520874,-0.009999999776482582,-0.027587890625,-0.0054931640625,1.017822265625,36.9900016784668,0.0,0.0,-6.3571014404296875,3.0549163818359375,Closing,0.0,0.0,0.0,0.0,0.0,0.0,0.0,0.0,
1.169565999999875,0.0,0.0,36243.0,0.0,0.0,0.0,0.0,0.25,0.847167882,0.01,0.0,-48785.0,0.0,0.0,-0.0,0.0,0.125,0.49194330900000005,0.01,0.0,44885.0,0.0,0.0,0.0,0.0,0.0,3.3642574680000004,0.01,0.0,-498.0,0.125,0.0,-0.0,0.0,0.125,1.625976396,0.01,0.0,-0.23999999463558197,-1.5700000524520874,-0.009999999776482582,-0.02630615234375,-0.00335693359375,1.016845703125,36.9900016784668,0.0,1.0,-6.3571014404296875,3.0549163818359375,Closing,0.0,0.0,0.0,0.0,0.0,0.0,0.0,0.0,
1.3045829999998677,0.0,0.0,36243.0,0.0,0.0,0.0,0.0,0.25,0.847167882,0.01,0.0,-48785.0,0.0,0.0,-0.0,0.0,0.125,0.49194330900000005,0.01,0.0,44885.0,0.0,0.0,0.0,0.0,0.0,3.3630367650000004,0.01,0.0,-498.0,0.0,0.0,-0.0,0.0,0.125,1.625976396,0.01,0.0,-0.23999999463558197,-1.5700000524520874,-0.009999999776482582,-0.027587890625,-0.00408935546875,1.01800537109375,37.0,0.0,0.0,-6.3571014404296875,3.0549163818359375,Closing,0.0,0.0,0.0,0.0,0.0,0.0,0.0,0.0,
1.4402290000000504,0.0,0.0,36239.0,8.75,-165.0,-1240.1575148105621,0.0,0.25,0.863037021,4.932250999999998,0.0,-48766.0,12.625,150.0,1240.1575148105621,0.0,0.125,0.490722606,4.963769999999998,0.0,44860.0,8.125,-150.0,-1240.1575148105621,0.0,0.0,3.397216449,0.01,0.0,-482.0,9.375,150.0,1240.1575148105621,0.0,0.125,1.56249984,0.01,0.0,-0.2199999988079071,-2.490000009536743,0.05000000074505806,-0.2462158203125,-0.02325439453125,1.18365478515625,37.0,0.0,-194.0,-6.3626556396484375,3.0552215576171875,Closing,0.0,0.0,0.0,0.0,0.0,0.0,0.0,0.0,
1.5778329999998677,0.0,0.0,36195.0,5.5,-442.5,-859.8425477743149,0.0,0.25,0.8581542090000001,4.932250999999998,0.0,-48707.0,8.875,427.5,859.8425477743149,0.0,0.125,0.49194330900000005,4.963769999999998,0.0,44800.0,6.125,-375.0,-859.8425477743149,0.0,0.125,3.398437152,0.01,0.0,-431.0,6.875,435.0,859.8425477743149,0.0,0.25,1.591796712,0.01,0.0,-0.33000001311302185,-3.4200000762939453,0.14000000059604645,-0.2216796875,0.09326171875,0.94622802734375,37.0,0.0,-164.0,-6.3862762451171875,3.055084228515625,Closing,0.0,0.0,0.0,0.0,0.0,0.0,0.0,0.0,
1.714278999999864,0.0,0.0,35979.0,13.875,-787.5,-1620.4724192619324,0.0,0.25,0.8557128030000001,4.932250999999998,0.0,-48605.0,20.25,825.0,1620.4724192619324,0.0,0.125,0.49194330900000005,4.963769999999998,0.0,44722.0,17.625,-517.5,-1620.4724192619324,0.0,0.125,3.398437152,0.01,0.0,-336.0,17.0,817.5,1620.4724192619324,0.0,0.25,1.6064451480000002,0.01,0.0,-0.3400000035762787,-4.739999771118164,0.41999998688697815,-0.3197021484375,0.0389404296875,1.1788330078125,37.0,0.0,-220.0,-6.42742919921875,3.0547332763671875,Closing,0.0,0.0,0.0,0.0,0.0,0.0,0.0,0.0,
1.8519799999999813,0.0,0.0,35781.0,6.375,-1207.5,-1256.6929399967194,0.0,0.25,0.848388585,4.932250999999998,0.0,-48436.0,9.625,1192.5,1256.6929399967194,0.0,0.125,0.49194330900000005,4.963769999999998,0.0,44617.0,16.375,-697.5,-1256.6929399967194,0.0,0.125,3.398437152,0.01,0.0,-180.0,8.125,1207.5,1256.6929399967194,0.0,0.25,1.6064451480000002,0.01,0.0,-0.49000000953674316,-5.539999961853027,0.9300000071525574,-0.117919921875,0.15875244140625,1.00445556640625,36.9900016784668,0.0,-17.0,-6.487579345703125,3.0558319091796875,Closing,0.0,0.0,0.0,0.0,0.0,0.0,0.0,0.0,
1.9896820000000297,0.0,0.0,35549.0,2.5,-1462.5,-1256.6929399967194,0.0,0.25,0.849609288,4.932250999999998,0.0,-48224.0,5.375,1417.5,1256.6929399967194,0.0,0.125,0.49194330900000005,4.963769999999998,0.0,44476.0,15.75,-1020.0,-1256.6929399967194,0.0,0.125,3.408202776,0.01,0.0,251.0,4.625,1402.5,1256.6929399967194,0.0,0.25,1.6064451480000002,0.01,0.0,-0.3799999952316284,-5.900000095367432,1.6799999475479126,-0.1458740234375,-0.035400390625,1.27410888671875,36.9900016784668,0.0,-14.0,-6.5497589111328125,3.058990478515625,Closing,0.0,0.0,0.0,0.0,0.0,0.0,0.0,0.0,
2.124810000000056,0.0,0.0,35301.0,0.375,-1530.0,-1174.0156888961792,0.0,0.25,0.838622961,4.932250999999998,0.0,-47763.0,2.375,1447.5,1174.0156888961792,0.0,0.125,0.49194330900000005,4.963769999999998,0.0,44285.0,10.875,-1365.0,-1174.0156888961792,0.0,0.125,3.398437152,0.01,0.0,486.0,1.875,1462.5,1174.0156888961792,0.0,0.25,1.6113279600000001,0.01,0.0,-0.5199999809265137,-5.489999771118164,2.890000104904175,-0.03662109375,-0.212890625,0.7149658203125,36.9900016784668,0.0,21.0,-6.6154632568359375,3.06085205078125,Closing,0.0,0.0,0.0,0.0,0.0,0.0,0.0,0.0,
2.260249000000069,0.0,0.0,35063.0,0.125,-1537.5,-1296.1894733785816,0.0,0.25,0.848388585,0.08406796569326737,0.0,-47544.0,0.375,1365.0,970.0010606065483,0.0,0.25,0.545654241,0.11322718260978694,0.0,44043.0,7.375,-1620.0,-1296.1894733785816,0.0,0.125,3.330077784,4.856193138323452,0.0,702.0,0.5,1342.5,970.0010606065483,0.0,0.25,1.594238118,4.844904435262044,0.0,-0.5099999904632568,-4.960000038146973,3.7899999618530273,0.0595703125,0.146484375,1.28125,36.9900016784668,0.0,180.0,-6.66510009765625,3.061614990234375,Closing,0.0,0.0,0.0,0.0,0.0,0.0,0.0,0.0,
2.3950470000000204,0.0,0.0,34807.0,0.375,-1597.5,-1551.906434264894,0.0,0.375,0.9204100620000001,0.1684060947993019,0.0,-47330.0,0.0,1320.0,803.5507327143492,0.0,0.5,0.7495116420000001,0.33474522535791174,0.0,43543.0,9.5,-1515.0,-1551.906434264894,0.0,0.125,3.2177731080000003,4.771715666873711,0.0,926.0,0.375,1312.5,803.5507327143492,0.0,0.5,1.365966657,4.623643890163217,0.0,-0.3799999952316284,-4.260000228881836,6.070000171661377,0.068359375,0.22503662109375,1.226318359375,36.93000030517578,0.0,183.0,-6.703094482421875,3.0633392333984375,Closing,0.0,0.0,0.0,0.0,0.0,0.0,0.0,0.0,
2.5345989999999294,0.0,0.0,34549.0,0.0,-1740.0,-1551.906434264894,0.0,0.375,1.019287005,0.1684060947993019,0.0,-47165.0,0.25,952.5,803.5507327143492,0.0,0.25,0.9484862310000001,0.33474522535791174,0.0,43295.0,8.75,-1567.5,-1551.906434264894,0.0,0.125,3.1628414730000003,4.771715666873711,0.0,1101.0,0.5,922.5,803.5507327143492,0.0,0.25,1.166992068,4.623643890163217,0.0,-0.2800000011920929,-3.490000009536743,13.8100004196167,0.02838134765625,0.092529296875,0.6966552734375,36.93000030517578,0.0,91.0,-6.7238922119140625,3.070526123046875,Closing,0.0,0.0,0.0,0.0,0.0,0.0,0.0,0.125,
2.670905000000028,0.0,0.0,33977.0,0.0,-1770.0,-1551.906434264894,0.0,0.25,1.022949114,0.1684060947993019,0.0,-47029.0,0.375,825.0,803.5507327143492,0.0,0.25,0.93994131,0.33474522535791174,0.0,43039.0,7.375,-1590.0,-1551.906434264894,0.0,0.0,3.150634443,4.771715666873711,0.0,1230.0,0.75,750.0,803.5507327143492,0.0,0.375,1.2426756540000001,4.623643890163217,0.0,-0.05999999865889549,-3.2699999809265137,23.860000610351562,-0.09039306640625,0.079833984375,1.30328369140625,36.93000030517578,0.0,18.0,-6.7323455810546875,3.0873565673828125,Closing,0.0,0.0,0.0,0.0,0.0,0.0,0.0,0.0,
2.8082879999999424,0.0,0.0,33712.0,0.0,-1650.0,-1551.906434264894,0.0,0.25,1.024169817,0.1684060947993019,0.0,-46898.0,0.375,825.0,803.5507327143492,0.0,0.25,0.90332022,0.33474522535791174,0.0,42780.0,7.25,-1680.0,-1551.906434264894,0.0,0.0,3.1555172550000004,4.771715666873711,0.0,1473.0,0.875,765.0,803.5507327143492,0.0,0.25,1.3232420520000001,4.623643890163217,0.0,0.1899999976158142,-3.2300000190734863,34.439998626708984,-0.02252197265625,0.07659912109375,1.11328125,36.939998626708984,0.0,74.0,-6.7307891845703125,3.11676025390625,Closing,0.0,0.0,0.0,0.0,0.0,0.0,0.0,0.0,
2.9688240000000223,0.0,0.0,33461.0,0.0,-1530.0,-1379.5614091478512,0.0,0.375,0.9716795880000001,0.1156404293095205,0.0,-46634.0,0.75,825.0,907.0904140021493,0.0,0.25,0.7629393750000001,0.17785643481490962,0.0,42515.0,5.375,-1560.0,-1379.5614091478512,0.0,0.0,3.194579751,4.824568511099546,0.0,1602.0,1.5,802.5,907.0904140021493,0.0,0.375,1.405029153,4.780350309580758,0.0,0.44999998807907104,-2.9600000381469727,41.18000030517578,-0.030517578125,0.279296875,1.1241455078125,36.939998626708984,0.0,198.0,-6.71856689453125,3.14849853515625,Closing,0.0,0.0,0.0,0.0,0.0,0.0,0.0,0.0,
3.109256000000052,0.0,0.0,33232.0,0.0,-1350.0,-1124.4094133377075,0.0,0.375,0.8581542090000001,4.932250999999998,0.0,-46484.0,1.75,937.5,1124.4094133377075,0.0,0.25,0.563964786,4.963769999999998,0.0,42064.0,4.0,-1357.5,-1124.4094133377075,0.0,0.125,3.294677397,0.01,0.0,1732.0,3.875,825.0,1124.4094133377075,0.0,0.375,1.535644374,0.01,0.0,0.7200000286102295,-2.700000047683716,47.20000076293945,0.0289306640625,0.12591552734375,0.87310791015625,36.939998626708984,0.0,131.0,-6.6929168701171875,3.168121337890625,Closing,0.0,0.0,0.0,0.0,0.0,0.0,0.0,0.0,
3.2476669999998995,0.0,0.0,33035.0,0.0,-1110.0,-1124.4094133377075,0.0,0.25,0.806884683,4.932250999999998,0.0,-46328.0,1.75,960.0,1124.4094133377075,0.0,0.25,0.496826121,4.963769999999998,0.0,41880.0,5.75,-1147.5,-1124.4094133377075,0.0,0.0,3.388671528,0.01,0.0,1875.0,4.0,930.0,1124.4094133377075,0.0,0.375,1.6601560800000001,0.01,0.0,0.6600000262260437,-2.4200000762939453,48.90999984741211,-0.0516357421875,-0.07623291015625,0.60443115234375,36.939998626708984,0.0,-79.0,-6.65972900390625,3.1675567626953125,Closing,0.0,0.0,0.0,0.0,0.0,0.0,0.0,0.0,
3.3805740000000224,0.0,0.0,32701.0,0.125,-1020.0,-1124.4094133377075,0.0,0.125,0.8007811680000001,4.932250999999998,0.0,-46159.0,1.5,1057.5,1124.4094133377075,0.0,0.125,0.48706049700000004,4.963769999999998,0.0,41721.0,8.0,-990.0,-1124.4094133377075,0.0,0.125,3.4167476970000004,0.01,0.0,2044.0,3.125,1072.5,1124.4094133377075,0.0,0.25,1.694335764,0.01,0.0,0.36000001430511475,-2.240000009536743,48.400001525878906,0.008056640625,-0.02789306640625,0.9837646484375,36.93000030517578,0.0,5.0,-6.62542724609375,3.16119384765625,Closing,0.0,0.0,0.0,0.0,0.0,0.0,0.0,0.0,
3.516902999999933,0.0,0.0,32544.0,0.0,-990.0,0.0,0.0,0.125,0.8007811680000001,4.932250999999998,0.0,-46001.0,0.0,885.0,0.0,0.0,0.125,0.48706049700000004,4.963769999999998,0.0,41571.0,0.0,-862.5,0.0,0.0,0.125,3.392333637,0.01,0.0,2212.0,0.0,922.5,0.0,0.0,0.25,1.699218576,0.01,0.0,0.44999998807907104,-1.6200000047683716,47.5099983215332,-0.0509033203125,-0.0218505859375,1.0843505859375,36.93000030517578,0.0,-36.0,-6.593353271484375,3.1488800048828125,Closing,0.0,0.0,0.0,0.0,0.0,0.0,0.0,0.0,
3.655337999999989,0.0,0.0,32477.0,5.125,-330.0,131.25,0.0,1.75,1.068115125,0.5498168668524888,0.0,-45864.0,3.375,472.5,131.25,0.0,1.125,0.216064431,4.410439589772222,0.0,41474.0,4.25,-562.5,131.25,0.0,1.0,3.0529782030000003,4.389674732977289,0.0,2431.0,4.625,615.0,131.25,0.0,0.875,1.9165037100000002,0.5526872062785588,0.0,0.6000000238418579,0.949999988079071,46.2599983215332,0.32037353515625,0.100830078125,1.57476806640625,36.93000030517578,0.0,263.0,-6.5390167236328125,3.1128997802734375,Closing,0.0,0.0,0.0,0.0,0.0,0.0,0.0,0.0,
3.7957579999999145,0.0,0.0,32474.0,2.125,37.5,147.65625,0.0,0.375,1.516113126,0.5498168668524888,0.0,-45825.0,0.75,45.0,147.65625,0.0,0.5,4.848632316000001,4.410439589772222,0.0,41414.0,3.875,-150.0,147.65625,0.0,0.125,2.622070044,4.389674732977289,0.0,2430.0,0.625,0.0,147.65625,0.0,0.375,2.280273204,0.5526872062785588,0.0,0.3199999928474426,1.6799999475479126,45.540000915527344,-0.20794677734375,0.01983642578125,1.02606201171875,36.93000030517578,0.0,-156.0,-6.4557647705078125,3.0469970703125,Closing,0.0,0.0,0.0,0.0,0.0,0.0,0.0,0.0,
3.932771999999881,0.0,0.0,32478.0,0.0,-22.5,0.0,0.0,0.375,1.4648436,0.5498168668524888,0.0,-45818.0,0.0,22.5,0.0,0.0,0.25,4.835204583,4.410439589772222,0.0,41415.0,0.0,22.5,0.0,0.0,0.125,2.672118867,4.389674732977289,0.0,2435.0,0.125,30.0,0.0,0.0,0.25,2.241210708,0.5526872062785588,0.0,0.28999999165534973,1.2400000095367432,45.349998474121094,0.13031005859375,-0.01104736328125,1.0025634765625,36.90999984741211,0.0,64.0,-6.380584716796875,2.9872589111328125,Closing,0.0,0.0,0.0,0.0,0.0,0.0,0.0,0.0,
4.070831999999936,0.0,0.0,32482.0,5.25,60.0,902.34375,0.0,1.25,1.699218576,1.2330627500000013,0.0,-45790.0,5.25,202.5,902.34375,0.0,1.75,4.559325705,3.7228275000000015,0.0,41394.0,4.5,-105.0,-902.34375,0.0,0.875,2.4243161580000003,3.7053000000000016,0.0,2429.0,4.875,-60.0,-902.34375,0.0,1.375,2.601318093,1.2395000000000012,0.0,0.3799999952316284,0.9300000071525574,45.36000061035156,-0.077392578125,-0.02252197265625,0.89056396484375,36.90999984741211,0.0,-84.0,-6.3065338134765625,2.929534912109375,Closing,0.0,0.0,0.0,0.0,0.0,0.0,0.0,0.0,
4.20998499999987,0.0,0.0,32488.0,15.5,165.0,1197.65625,0.0,0.625,2.0690915850000002,1.2330627500000013,0.0,-45760.0,14.875,217.5,1197.65625,0.0,0.25,4.173583557000001,3.7228275000000015,0.0,41375.0,13.875,-127.5,-1197.65625,0.0,0.5,2.09960916,3.7053000000000016,0.0,2408.0,13.875,-187.5,-1197.65625,0.0,0.375,2.977294617,1.2395000000000012,0.0,1.2000000476837158,0.7900000214576721,45.34000015258789,-0.04376220703125,0.30035400390625,0.91729736328125,36.90999984741211,0.0,13.0,-6.2940216064453125,2.876068115234375,Closing,0.0,0.0,0.0,0.0,0.0,0.0,0.0,0.0,
4.349591000000015,0.0,0.0,32642.0,15.625,570.0,1214.0625,0.0,0.25,2.188720479,1.2330627500000013,0.0,-45672.0,14.75,682.5,1214.0625,0.0,0.25,4.042968336,3.7228275000000015,0.0,41301.0,16.5,-480.0,-1214.0625,0.0,0.0,1.98974589,3.7053000000000016,0.0,2341.0,14.75,-630.0,-1214.0625,0.0,0.5,3.1530758490000004,1.2395000000000012,0.0,2.319999933242798,0.20999999344348907,45.02000045776367,-0.06329345703125,0.0897216796875,0.882568359375,36.90999984741211,0.0,-9.0,-6.2782135009765625,2.8526153564453125,Closing,0.0,0.0,0.0,0.0,0.0,0.0,0.0,0.0,
4.483517999999924,0.0,0.0,32798.0,12.0,960.0,1214.0625,0.0,0.25,2.083740021,1.2330627500000013,0.0,-45533.0,11.875,945.0,1214.0625,0.0,0.25,4.051513257,3.7228275000000015,0.0,41199.0,18.875,-712.5,-1214.0625,0.0,0.0,2.071532991,3.7053000000000016,0.0,2218.0,13.75,-862.5,-1214.0625,0.0,0.5,2.9577633690000003,1.2395000000000012,0.0,2.7200000286102295,0.1899999976158142,44.099998474121094,-0.0511474609375,0.08966064453125,1.3770751953125,36.90999984741211,0.0,-23.0,-6.259246826171875,2.8431854248046875,Closing,0.0,0.0,0.0,0.0,0.0,0.0,0.0,0.0,
4.620384000000079,0.0,0.0,32984.0,9.375,1185.0,1214.0625,0.0,0.25,2.027587683,1.2330627500000013,0.0,-45363.0,9.5,1170.0,1214.0625,0.0,0.5,4.123534734000001,3.7228275000000015,0.0,41050.0,14.375,-1027.5,-1214.0625,0.0,0.0,2.135009547,3.7053000000000016,0.0,1868.0,10.125,-1177.5,-1214.0625,0.0,0.25,2.813720415,1.2395000000000012,0.0,3.359999895095825,0.3100000023841858,44.56999969482422,-0.01611328125,0.1934814453125,0.8544921875,36.90999984741211,0.0,85.0,-6.228363037109375,2.8394012451171875,Closing,0.0,0.0,0.0,0.0,0.0,0.0,0.0,0.0,
4.760862999999896,0.0,0.0,33195.0,6.625,1365.0,1214.0625,0.0,0.125,2.0153806530000002,1.2330627500000013,0.0,-45164.0,5.125,1395.0,1214.0625,0.0,0.25,4.232177301,3.7228275000000015,0.0,40869.0,11.375,-1230.0,-1214.0625,0.0,0.125,2.143554468,3.7053000000000016,0.0,1630.0,4.75,-1485.0,-1214.0625,0.0,0.25,2.8039547910000002,1.2395000000000012,0.0,3.740000009536743,0.1599999964237213,45.689998626708984,0.04144287109375,0.08831787109375,1.4468994140625,36.90999984741211,0.0,21.0,-6.196807861328125,2.8421173095703125,Closing,0.0,0.0,0.0,0.0,0.0,0.0,0.0,0.0,
4.900212999999988,0.0,0.0,33434.0,3.125,1530.0,1214.0625,0.0,0.25,2.0153806530000002,1.2330627500000013,0.0,-44704.0,3.0,1455.0,1214.0625,0.0,0.0,4.270019094,3.7228275000000015,0.0,40427.0,8.125,-1410.0,-1214.0625,0.0,0.125,2.14843728,3.7053000000000016,0.0,1383.0,2.25,-1537.5,-1214.0625,0.0,0.25,2.8466793960000003,1.2395000000000012,0.0,3.4600000381469727,-0.09000000357627869,46.66999816894531,0.0709228515625,0.0577392578125,0.9287109375,36.880001068115234,0.0,50.0,-6.1591796875,2.847808837890625,Closing,0.0,0.0,0.0,0.0,0.0,0.0,0.0,0.0,
5.044615999999921,0.0,0.0,33684.0,0.875,1560.0,1214.0625,0.0,0.25,2.0153806530000002,1.2330627500000013,0.0,-44466.0,1.0,1507.5,1214.0625,0.0,0.25,4.274901906,3.7228275000000015,0.0,40176.0,4.625,-1575.0,-1214.0625,0.0,0.125,2.14843728,3.7053000000000016,0.0,1144.0,1.0,-1470.0,-1214.0625,0.0,0.125,2.866210644,1.2395000000000012,0.0,2.75,-0.3700000047683716,46.88999938964844,0.14141845703125,0.04974365234375,1.24835205078125,36.880001068115234,0.0,94.0,-6.130096435546875,2.8517303466796875,Closing,0.0,0.0,0.0,0.0,0.0,0.0,0.0,0.0,
5.190960999999894,0.0,0.0,34142.0,0.0,1327.5,0.0,0.0,0.25,2.025146277,1.2330627500000013,0.0,-44229.0,0.0,1425.0,0.0,0.0,0.25,4.270019094,3.7228275000000015,0.0,39926.0,0.0,-1500.0,0.0,0.0,0.125,2.133788844,3.7053000000000016,0.0,904.0,0.0,-1440.0,0.0,0.0,0.125,2.866210644,1.2395000000000012,0.0,1.809999942779541,-0.36000001430511475,46.810001373291016,0.043701171875,-0.14373779296875,0.95123291015625,36.880001068115234,0.0,-92.0,-6.1135406494140625,2.848114013671875,Closing,0.0,0.0,0.0,0.0,0.0,0.0,0.0,0.0,
5.334122999999905,0.0,0.0,34354.0,0.0,1275.0,0.0,0.0,0.125,2.031249792,1.2330627500000013,0.0,-44015.0,0.0,1252.5,0.0,0.0,0.25,4.271239797000001,3.7228275000000015,0.0,39703.0,0.0,-1312.5,0.0,0.0,0.0,2.14843728,3.7053000000000016,0.0,495.0,0.125,-1237.5,0.0,0.0,0.125,2.871093456,1.2395000000000012,0.0,0.9900000095367432,-0.25,46.56999969482422,0.050537109375,-0.04095458984375,0.7947998046875,36.880001068115234,0.0,-2.0,-6.1103057861328125,2.8299407958984375,Closing,0.0,0.0,0.0,0.0,0.0,0.0,0.0,0.0,
5.483158000000054,0.0,0.0,34511.0,0.375,787.5,820.3125000000001,0.0,0.75,1.572265464,0.5498168668524888,0.0,-43718.0,0.5,817.5,820.3125000000001,0.0,1.0,4.659423351,4.410439589772222,0.0,39511.0,23.125,-900.0,820.3125000000001,0.0,0.875,2.623290747,4.389674732977289,0.0,398.0,29.875,-457.5,820.3125000000001,0.0,1.0,2.3193357000000003,0.5526872062785588,0.0,-2.2799999713897705,0.41999998688697815,45.349998474121094,0.0804443359375,-0.33154296875,0.96966552734375,36.88999938964844,0.0,-156.0,-6.138336181640625,2.776519775390625,Closing,0.0,0.0,0.0,0.0,0.0,0.0,0.0,0.0,
5.632500999999931,0.0,0.0,34608.0,0.0,397.5,0.0,0.0,0.375,1.248779169,0.5498168668524888,0.0,-43684.0,0.0,195.0,0.0,0.0,0.5,0.081787101,4.410439589772222,0.0,39389.0,0.0,-15.0,0.0,0.0,0.125,2.965087587,4.389674732977289,0.0,400.0,0.0,82.5,0.0,0.0,0.5,1.987304484,0.5526872062785588,0.0,-2.680000066757202,-0.5400000214576721,40.90999984741211,-0.0443115234375,-0.10870361328125,1.05340576171875,36.88999938964844,0.0,-64.0,-6.2153472900390625,2.67303466796875,Closing,0.0,0.0,0.0,0.0,0.0,0.0,0.0,0.0,
5.835183999999892,0.0,0.0,34645.0,0.0,0.0,0.0,0.0,0.375,1.376952984,0.5498168668524888,0.0,-43661.0,0.0,0.0,0.0,0.0,0.25,4.956054180000001,4.410439589772222,0.0,39404.0,0.0,0.0,0.0,0.0,0.25,2.72216769,4.389674732977289,0.0,428.0,0.0,0.0,0.0,0.0,0.375,2.236327896,0.5526872062785588,0.0,-2.359999895095825,-0.49000000953674316,41.25,-0.02947998046875,-0.02001953125,0.9954833984375,36.81999969482422,0.0,-1.0,-6.3099517822265625,2.5108642578125,Closing,0.0,0.0,0.0,0.0,0.0,0.0,0.0,0.0,
6.1603540000000505,0.0,0.0,34645.0,0.0,0.0,0.0,0.0,0.25,1.402587747,0.5498168668524888,0.0,-43661.0,0.0,0.0,0.0,0.0,0.25,4.908446763000001,4.410439589772222,0.0,39404.0,0.0,0.0,0.0,0.0,0.0,2.761230186,4.389674732977289,0.0,428.0,0.125,0.0,0.0,0.0,0.25,2.208251727,0.5526872062785588,0.0,-2.0999999046325684,-0.47999998927116394,41.43000030517578,-0.04180908203125,-0.02490234375,1.0234375,36.81999969482422,0.0,-16.0,-6.308380126953125,2.4679718017578125,Closing,0.0,0.0,0.0,0.0,0.0,0.0,0.0,0.0,
6.307501999999862,0.0,0.0,34645.0,0.0,0.0,0.0,0.0,0.25,1.383056499,0.5498168668524888,0.0,-43661.0,0.0,0.0,0.0,0.0,0.0,4.908446763000001,4.410439589772222,0.0,39404.0,0.0,0.0,0.0,0.0,0.0,2.785644246,4.389674732977289,0.0,428.0,0.125,0.0,0.0,0.0,0.25,2.177734152,0.5526872062785588,0.0,-1.899999976158142,-0.5099999904632568,41.369998931884766,-0.017578125,-0.0103759765625,1.01654052734375,36.81999969482422,0.0,9.0,-6.307403564453125,2.469757080078125,Closing,0.0,0.0,0.0,0.0,0.0,0.0,0.0,0.0,
6.474054000000003,0.0,0.0,34643.0,0.375,0.0,-148.8189049065113,0.0,1.0,4.654540539,4.932250999999998,0.0,-43661.0,0.375,45.0,148.8189049065113,0.0,1.0,1.621093584,4.963769999999998,0.0,39375.0,0.125,-52.5,-148.8189049065113,0.0,1.0,4.594726092,0.01,0.0,456.0,0.5,45.0,148.8189049065113,0.0,1.25,0.521240181,0.01,0.0,-1.4900000095367432,-0.5299999713897705,41.040000915527344,0.00433349609375,0.02783203125,1.03033447265625,36.81999969482422,0.0,46.0,-6.3058013916015625,2.472503662109375,Closing,0.0,0.0,0.0,0.0,0.0,0.0,0.0,0.0,
6.955327999999979,0.0,0.0,34624.0,3.25,-105.0,-462.9921242594719,0.0,1.375,0.5676268950000001,4.932250999999998,0.0,-43642.0,4.125,30.0,462.9921242594719,0.0,2.375,0.9582518550000001,4.963769999999998,0.0,39384.0,0.75,112.5,462.9921242594719,0.0,1.625,0.27709958100000004,2.4702000000000024,0.0,476.0,2.625,30.0,462.9921242594719,0.0,1.5,1.413574074,0.01,0.0,-1.1200000047683716,-0.7599999904632568,41.29999923706055,-0.0758056640625,0.00787353515625,1.06121826171875,36.79999923706055,0.0,-27.0,-6.3031005859375,2.4807281494140625,Closing,0.0,0.0,0.0,0.0,0.0,0.0,0.0,0.0,
7.141000999999931,0.0,0.0,34545.0,3.5,-285.0,-462.9921242594719,0.0,0.375,1.153564335,4.932250999999998,0.0,-43605.0,5.75,300.0,462.9921242594719,0.0,0.5,0.14892576600000001,4.963769999999998,0.0,39437.0,1.375,247.5,462.9921242594719,0.0,0.75,1.4733885210000002,2.4702000000000024,0.0,497.0,5.0,270.0,462.9921242594719,0.0,0.625,1.9494626910000001,0.01,0.0,-1.399999976158142,-1.7300000190734863,42.0,-0.08502197265625,-0.10028076171875,0.95587158203125,36.79999923706055,0.0,-33.0,-6.3149261474609375,2.5053253173828125,Closing,0.0,0.0,0.0,0.0,0.0,0.0,0.0,0.0,
7.374540000000037,0.0,0.0,34517.0,6.0,-195.0,-462.9921242594719,0.0,0.75,1.075439343,4.932250999999998,0.0,-43540.0,4.625,412.5,462.9921242594719,0.0,0.5,0.111083973,4.963769999999998,0.0,39477.0,1.75,247.5,462.9921242594719,0.0,0.625,1.350097518,2.4702000000000024,0.0,624.0,3.75,450.0,462.9921242594719,0.0,0.5,1.8640134810000002,0.01,0.0,-1.3799999952316284,-1.309999942779541,39.619998931884766,-0.033935546875,0.085205078125,1.09857177734375,36.79999923706055,0.0,64.0,-6.3254241943359375,2.517059326171875,Closing,0.0,0.0,0.0,0.0,0.0,0.0,0.0,0.0,
7.516847999999998,0.0,0.0,34494.0,9.0,-172.5,-479.5275494456291,0.0,0.625,0.877685457,4.932250999999998,0.0,-43482.0,6.875,307.5,479.5275494456291,0.0,1.5,0.35644527600000003,4.963769999999998,0.0,39519.0,2.5,247.5,479.5275494456291,0.0,0.375,0.826415931,2.4702000000000024,0.0,676.0,5.0,315.0,479.5275494456291,0.0,0.5,1.563720543,0.01,0.0,-1.100000023841858,-1.5,38.630001068115234,-0.10888671875,-0.04010009765625,0.91961669921875,36.79999923706055,0.0,-80.0,-6.328582763671875,2.529296875,Closing,0.0,0.0,0.0,0.0,0.0,0.0,0.0,0.0,
7.653592999999877,0.0,0.0,34443.0,8.0,-405.0,-545.6692814826965,0.0,0.25,0.758056563,4.932250999999998,0.0,-43364.0,8.0,397.5,545.6692814826965,0.0,0.25,0.559081974,4.963769999999998,0.0,39560.0,2.75,345.0,545.6692814826965,0.0,0.125,0.552978459,2.4702000000000024,0.0,742.0,6.0,405.0,545.6692814826965,0.0,0.375,1.390380717,0.01,0.0,-0.8199999928474426,-2.319999933242798,38.81999969482422,-0.1256103515625,0.06622314453125,1.18267822265625,36.79999923706055,0.0,-8.0,-6.3342132568359375,2.5505828857421875,Closing,0.0,0.0,0.0,0.0,0.0,0.0,0.0,0.0,
7.788197999999858,0.0,0.0,34346.0,4.625,-705.0,-578.740131855011,0.0,0.25,0.770263593,4.932250999999998,0.0,-43280.0,7.375,517.5,578.740131855011,0.0,0.25,0.5688475980000001,4.963769999999998,0.0,39757.0,0.875,712.5,578.740131855011,0.0,0.25,0.8056639800000001,2.4702000000000024,0.0,824.0,5.25,532.5,578.740131855011,0.0,0.375,1.563720543,0.01,0.0,-0.8199999928474426,-2.859999895095825,40.66999816894531,-0.04779052734375,-0.09368896484375,0.979736328125,36.79999923706055,0.0,-50.0,-6.3486328125,2.581451416015625,Closing,0.0,0.0,0.0,0.0,0.0,0.0,0.0,0.0,
7.9268189999999015,0.0,0.0,34222.0,2.75,-787.5,-578.740131855011,0.0,0.25,0.810546792,4.932250999999998,0.0,-43166.0,3.875,742.5,578.740131855011,0.0,0.25,0.563964786,4.963769999999998,0.0,39870.0,0.5,697.5,578.740131855011,0.0,0.125,0.989990133,2.4702000000000024,0.0,930.0,2.875,727.5,578.740131855011,0.0,0.375,1.697997873,0.01,0.0,-1.1299999952316284,-2.8499999046325684,41.27000045776367,-0.10369873046875,-0.02593994140625,0.96002197265625,36.83000183105469,0.0,-46.0,-6.3712310791015625,2.609832763671875,Closing,0.0,0.0,0.0,0.0,0.0,0.0,0.0,0.0,
8.070122999999905,0.0,0.0,34096.0,2.5,-742.5,-578.740131855011,0.0,0.125,0.820312416,4.932250999999998,0.0,-43040.0,2.0,795.0,578.740131855011,0.0,0.25,0.545654241,4.963769999999998,0.0,39982.0,0.375,697.5,578.740131855011,0.0,0.125,0.991210836,2.4702000000000024,0.0,1055.0,1.5,787.5,578.740131855011,0.0,0.25,1.694335764,0.01,0.0,-1.1200000047683716,-2.740000009536743,40.58000183105469,0.1959228515625,0.103759765625,0.94024658203125,36.83000183105469,0.0,262.0,-6.3896942138671875,2.636383056640625,Closing,0.0,0.0,0.0,0.0,0.0,0.0,0.0,0.0,
8.194030000000028,0.0,0.0,34005.0,0.0,45.0,0.0,0.0,0.125,0.820312416,4.932250999999998,0.0,-42943.0,0.0,232.5,0.0,0.0,0.25,0.535888617,4.963769999999998,0.0,40071.0,0.0,502.5,0.0,0.0,0.125,0.899658111,2.4702000000000024,0.0,1147.0,0.0,-97.5,0.0,0.0,0.25,1.6601560800000001,0.01,0.0,-0.75,1.0700000524520874,40.2599983215332,-0.19549560546875,0.0477294921875,1.619384765625,36.83000183105469,0.0,-127.0,-6.343231201171875,2.6273651123046875,Closing,0.0,0.0,0.0,0.0,0.0,0.0,0.0,0.0,
8.330196999999927,0.0,0.0,34060.0,0.0,352.5,0.0,0.0,0.125,0.811767495,4.932250999999998,0.0,-43003.0,0.0,-337.5,0.0,0.0,0.25,0.52490229,4.963769999999998,0.0,40078.0,0.0,-30.0,0.0,0.0,0.125,0.850829991,2.4702000000000024,0.0,1084.0,0.125,-345.0,0.0,0.0,0.25,1.616210772,0.01,0.0,-0.8999999761581421,0.4699999988079071,40.2599983215332,-0.2586669921875,-0.0333251953125,1.424560546875,36.83000183105469,0.0,-213.0,-6.2948760986328125,2.6128997802734375,Closing,0.0,0.0,0.0,0.0,0.0,0.0,0.0,0.0,
8.468301999999909,0.0,0.0,34096.0,0.0,217.5,0.0,0.0,0.125,0.806884683,4.932250999999998,0.0,-43046.0,0.0,-195.0,0.0,0.0,0.125,0.520019478,4.963769999999998,0.0,40060.0,0.0,-150.0,0.0,0.0,0.0,0.845947179,2.4702000000000024,0.0,1011.0,0.125,-172.5,0.0,0.0,0.25,1.6064451480000002,0.01,0.0,-0.8799999952316284,0.0,40.209999084472656,-0.09588623046875,0.0052490234375,1.0206298828125,36.79999923706055,0.0,-59.0,-6.2568511962890625,2.60748291015625,Closing,0.0,0.0,0.0,0.0,0.0,0.0,0.0,0.0,
8.608081999999937,0.0,0.0,34106.0,0.0,60.0,0.0,0.0,0.125,0.8056639800000001,4.932250999999998,0.0,-43074.0,0.0,-37.5,0.0,0.0,0.125,0.5163573690000001,4.963769999999998,0.0,40040.0,0.0,-30.0,0.0,0.0,0.0,0.8410643670000001,2.4702000000000024,0.0,1005.0,0.125,-30.0,0.0,0.0,0.25,1.6064451480000002,0.01,0.0,-0.8299999833106995,-0.6100000143051147,40.150001525878906,-0.06243896484375,-0.0281982421875,1.0137939453125,36.79999923706055,0.0,-48.0,-6.2227935791015625,2.6117706298828125,Closing,0.0,0.0,0.0,0.0,0.0,0.0,0.0,0.0,
8.746891999999992,0.0,0.0,34107.0,0.125,0.0,-115.74803106486797,0.0,0.125,0.8056639800000001,4.932250999999998,0.0,-43074.0,0.0,0.0,115.74803106486797,0.0,0.125,0.5175780720000001,4.963769999999998,0.0,40039.0,0.125,0.0,115.74803106486797,0.0,0.0,0.845947179,2.4702000000000024,0.0,1005.0,0.25,0.0,115.74803106486797,0.0,0.25,1.6064451480000002,0.01,0.0,-0.7699999809265137,-0.6299999952316284,40.18000030517578,0.00555419921875,-0.0316162109375,1.02587890625,36.79999923706055,0.0,1.0,-6.2168731689453125,2.6167755126953125,Closing,0.0,0.0,0.0,0.0,0.0,0.0,0.0,0.0,
8.883624000000069,0.0,0.0,34107.0,0.125,0.0,-115.74803106486797,0.0,0.125,0.8032225740000001,4.932250999999998,0.0,-43074.0,0.25,0.0,115.74803106486797,0.0,0.125,0.5163573690000001,4.963769999999998,0.0,40040.0,0.125,0.0,115.74803106486797,0.0,0.0,0.850829991,2.4702000000000024,0.0,1005.0,0.375,0.0,115.74803106486797,0.0,0.25,1.6064451480000002,0.01,0.0,-0.7300000190734863,-0.5600000023841858,40.209999084472656,-0.00872802734375,-0.012939453125,1.03192138671875,36.79999923706055,0.0,1.0,-6.2163848876953125,2.61663818359375,Closing,0.0,0.0,0.0,0.0,0.0,0.0,0.0,0.0,
9.017084999999962,0.0,0.0,34097.0,0.125,-52.5,-132.28346407413483,0.0,0.125,0.810546792,4.932250999999998,0.0,-43074.0,0.625,0.0,132.28346407413483,0.0,0.125,0.5163573690000001,4.963769999999998,0.0,40046.0,0.375,30.0,132.28346407413483,0.0,0.0,0.850829991,2.4702000000000024,0.0,1005.0,0.5,15.0,132.28346407413483,0.0,0.25,1.6064451480000002,0.01,0.0,-0.7200000286102295,-0.6600000262260437,40.22999954223633,-0.0262451171875,0.0106201171875,1.026611328125,36.810001373291016,0.0,4.0,-6.2165679931640625,2.6168975830078125,Closing,0.0,0.0,0.0,0.0,0.0,0.0,0.0,0.0,
9.162064999999943,0.0,0.0,34095.0,0.375,-7.5,-165.35433009266853,0.0,0.125,0.8154296040000001,4.932250999999998,0.0,-43073.0,0.625,30.0,165.35433009266853,0.0,0.125,0.5151366660000001,4.963769999999998,0.0,40046.0,0.75,0.0,165.35433009266853,0.0,0.0,0.849609288,2.4702000000000024,0.0,1011.0,0.875,22.5,165.35433009266853,0.0,0.25,1.6064451480000002,0.01,0.0,-0.7200000286102295,-0.7400000095367432,40.189998626708984,-0.02935791015625,-0.00140380859375,1.066162109375,36.810001373291016,0.0,-4.0,-6.2166290283203125,2.6175384521484375,Closing,0.0,0.0,0.0,0.0,0.0,0.0,0.0,0.0,
9.293918000000064,0.0,0.0,34082.0,2.25,-82.5,-479.5275494456291,0.0,0.125,0.820312416,4.932250999999998,0.0,-43062.0,3.5,90.0,479.5275494456291,0.0,0.125,0.5163573690000001,4.963769999999998,0.0,40055.0,2.625,75.0,479.5275494456291,0.0,0.0,0.859374912,2.4702000000000024,0.0,1033.0,3.125,90.0,479.5275494456291,0.0,0.25,1.6015623360000002,0.01,0.0,-0.6800000071525574,-1.2599999904632568,40.209999084472656,-0.12628173828125,0.02923583984375,0.8828125,36.810001373291016,0.0,-55.0,-6.220001220703125,2.6211090087890625,Closing,0.0,0.0,0.0,0.0,0.0,0.0,0.0,0.0,
9.433075999999884,0.0,0.0,34050.0,2.5,-247.5,-479.5275494456291,0.0,0.125,0.820312416,4.932250999999998,0.0,-43041.0,3.625,225.0,479.5275494456291,0.0,0.125,0.5163573690000001,4.963769999999998,0.0,40077.0,3.0,202.5,479.5275494456291,0.0,0.0,0.850829991,2.4702000000000024,0.0,1073.0,3.375,232.5,479.5275494456291,0.0,0.25,1.6064451480000002,0.01,0.0,-0.6800000071525574,-1.840000033378601,40.33000183105469,-0.18817138671875,-0.02215576171875,1.09478759765625,36.810001373291016,0.0,-122.0,-6.23138427734375,2.632568359375,Closing,0.0,0.0,0.0,0.0,0.0,0.0,0.0,0.0,
9.572486999999965,0.0,0.0,33991.0,2.125,-397.5,-479.5275494456291,0.0,0.125,0.820312416,4.932250999999998,0.0,-42932.0,3.0,397.5,479.5275494456291,0.0,0.125,0.509033151,4.963769999999998,0.0,40119.0,2.75,390.0,479.5275494456291,0.0,0.0,0.849609288,2.4702000000000024,0.0,1136.0,2.875,397.5,479.5275494456291,0.0,0.25,1.6113279600000001,0.01,0.0,-0.6899999976158142,-1.7400000095367432,40.459999084472656,0.88006591796875,0.07232666015625,1.03240966796875,36.81999969482422,0.0,748.0,-6.2489013671875,2.64892578125,Closing,0.0,0.0,0.0,0.0,0.0,0.0,0.0,0.0,
9.71340100000007,0.0,0.0,33954.0,7.5,45.0,-479.5275494456291,0.0,0.125,0.821533119,4.932250999999998,0.0,-42933.0,9.125,0.0,479.5275494456291,0.0,0.0,0.511474557,4.963769999999998,0.0,40203.0,5.0,217.5,479.5275494456291,0.0,0.0,0.850829991,2.4702000000000024,0.0,1141.0,7.875,-37.5,479.5275494456291,0.0,0.25,1.6076658510000001,0.01,0.0,-0.75,-0.9100000262260437,40.369998931884766,-0.1964111328125,0.07269287109375,1.0419921875,36.81999969482422,0.0,-81.0,-6.2440032958984375,2.6463165283203125,Closing,0.0,0.0,0.0,0.0,0.0,0.0,0.0,0.0,
9.847695000000066,0.0,0.0,33954.0,11.5,-45.0,-479.5275494456291,0.0,0.125,0.819091713,4.932250999999998,0.0,-42922.0,16.625,60.0,479.5275494456291,0.0,0.0,0.506591745,4.963769999999998,0.0,40208.0,10.875,30.0,479.5275494456291,0.0,0.0,0.850829991,2.4702000000000024,0.0,1151.0,14.5,52.5,479.5275494456291,0.0,0.25,1.6064451480000002,0.01,0.0,-0.6800000071525574,-0.6800000071525574,40.310001373291016,-0.10113525390625,-0.0057373046875,1.035400390625,36.81999969482422,0.0,-63.0,-6.2447052001953125,2.6484527587890625,Closing,0.0,0.0,0.0,0.0,0.0,0.0,0.0,0.0,
9.986230999999913,0.0,0.0,33953.0,16.5,0.0,-479.5275494456291,0.0,0.125,0.819091713,4.932250999999998,0.0,-42922.0,22.625,0.0,479.5275494456291,0.0,0.0,0.510253854,4.963769999999998,0.0,40208.0,16.25,0.0,479.5275494456291,0.0,0.0,0.850829991,2.4702000000000024,0.0,1151.0,21.75,0.0,479.5275494456291,0.0,0.25,1.6064451480000002,0.01,0.0,-0.6600000262260437,-0.7400000095367432,40.310001373291016,-0.0067138671875,0.031005859375,0.99542236328125,36.79999923706055,0.0,32.0,-6.245208740234375,2.6490325927734375,Closing,0.0,0.0,0.0,0.0,0.0,0.0,0.0,0.0,
10.12732899999991,0.0,0.0,33952.0,21.125,-7.5,-479.5275494456291,0.0,0.125,0.819091713,4.932250999999998,0.0,-42922.0,28.125,0.0,479.5275494456291,0.0,0.0,0.511474557,4.963769999999998,0.0,40212.0,22.0,15.0,479.5275494456291,0.0,0.0,0.850829991,2.4702000000000024,0.0,1152.0,26.625,0.0,479.5275494456291,0.0,0.25,1.6064451480000002,0.01,0.0,-0.6100000143051147,-0.75,40.33000183105469,-0.0211181640625,-0.01629638671875,1.00103759765625,36.79999923706055,0.0,-9.0,-6.245330810546875,2.6492156982421875,Closing,0.0,0.0,0.0,0.0,0.0,0.0,0.0,0.0,
10.268524999999906,0.0,0.0,33980.0,0.0,195.0,0.0,0.0,0.125,0.820312416,4.932250999999998,0.0,-42928.0,0.0,-157.5,0.0,0.0,0.0,0.521240181,4.963769999999998,0.0,40212.0,0.0,-60.0,0.0,0.0,0.0,0.850829991,2.4702000000000024,0.0,1127.0,0.125,-172.5,0.0,0.0,0.25,1.6064451480000002,0.01,0.0,-0.5099999904632568,-0.4099999964237213,40.25,-0.0721435546875,-0.06640625,0.912841796875,36.79999923706055,0.0,-87.0,-6.2400665283203125,2.6458587646484375,Closing,0.0,0.0,0.0,0.0,0.0,0.0,0.0,0.0,
10.407996999999973,0.0,0.0,33983.0,0.0,0.0,0.0,0.0,0.125,0.819091713,4.932250999999998,0.0,-42948.0,0.0,-30.0,0.0,0.0,0.125,0.521240181,4.963769999999998,0.0,40201.0,0.0,0.0,0.0,0.0,0.0,0.850829991,2.4702000000000024,0.0,1125.0,0.0,-7.5,0.0,0.0,0.25,1.6052244450000002,0.01,0.0,-0.5199999809265137,-0.8999999761581421,40.27000045776367,-0.07269287109375,0.01708984375,1.0557861328125,36.79999923706055,0.0,-25.0,-6.236053466796875,2.6461029052734375,Closing,0.0,0.0,0.0,0.0,0.0,0.0,0.0,0.0,
10.544072999999859,0.0,0.0,33983.0,0.0,0.0,0.0,0.0,0.125,0.819091713,4.932250999999998,0.0,-42948.0,0.0,0.0,0.0,0.0,0.125,0.52490229,4.963769999999998,0.0,40201.0,0.0,0.0,0.0,0.0,0.0,0.850829991,2.4702000000000024,0.0,1125.0,0.125,0.0,0.0,0.0,0.25,1.6064451480000002,0.01,0.0,-0.5400000214576721,-0.9300000071525574,40.36000061035156,0.01611328125,-0.0208740234375,0.9969482421875,36.790000915527344,0.0,17.0,-6.235992431640625,2.6468505859375,Closing,0.0,0.0,0.0,0.0,0.0,0.0,0.0,0.0,
10.679175999999977,0.0,0.0,33983.0,0.0,0.0,0.0,0.0,0.125,0.820312416,4.932250999999998,0.0,-42948.0,0.0,0.0,0.0,0.0,0.125,0.526122993,4.963769999999998,0.0,40201.0,0.0,0.0,0.0,0.0,0.0,0.850829991,2.4702000000000024,0.0,1125.0,0.125,0.0,0.0,0.0,0.25,1.6064451480000002,0.01,0.0,-0.5099999904632568,-0.7699999809265137,40.310001373291016,-0.01922607421875,-0.0238037109375,1.02899169921875,36.790000915527344,0.0,-13.0,-6.2345733642578125,2.6465301513671875,Closing,0.0,0.0,0.0,0.0,0.0,0.0,0.0,0.0,
10.82315100000007,0.0,0.0,33983.0,0.5,105.0,396.8503922224045,0.0,6.75,0.39550777200000004,3.6991882499999984,0.0,-42948.0,1.125,0.0,396.8503922224045,0.0,2.625,0.982665915,1.2409424999999985,0.0,40192.0,0.625,-45.0,-396.8503922224045,0.0,3.125,0.40771480200000004,1.2350999999999985,0.0,1118.0,0.75,-90.0,-396.8503922224045,0.0,4.625,1.19628894,3.7184999999999984,0.0,-0.49000000953674316,-0.7599999904632568,40.290000915527344,0.09979248046875,0.073486328125,0.92657470703125,36.790000915527344,0.0,138.0,-6.23431396484375,2.6463775634765625,Closing,0.0,0.0,0.0,0.0,0.0,0.0,0.0,0.0,
10.95439500000002,0.0,0.0,34020.0,1.5,105.0,462.9921242594719,0.0,1.5,4.478759307,3.6991882499999984,0.0,-42942.0,5.25,7.5,462.9921242594719,0.0,2.625,1.776122865,1.2409424999999985,0.0,40191.0,2.25,-7.5,-462.9921242594719,0.0,1.125,4.5507807840000005,1.2350999999999985,0.0,1112.0,2.5,-15.0,-462.9921242594719,0.0,1.875,0.31738278000000003,3.7184999999999984,0.0,-0.7599999904632568,-0.7799999713897705,40.25,-0.01904296875,-0.09637451171875,1.10186767578125,36.790000915527344,0.0,-55.0,-6.2346038818359375,2.6438140869140625,Closing,0.0,0.0,0.0,0.0,0.0,0.0,0.0,0.0,
11.092706000000005,0.0,0.0,34053.0,2.375,210.0,512.5984311103821,0.0,0.375,4.213866756,3.6991882499999984,0.0,-42936.0,5.375,150.0,512.5984311103821,0.0,0.25,1.964111127,1.2409424999999985,0.0,40174.0,3.125,-135.0,-512.5984311103821,0.0,0.0,4.305419481,1.2350999999999985,0.0,1105.0,3.625,-150.0,-512.5984311103821,0.0,0.25,0.091552725,3.7184999999999984,0.0,-1.3600000143051147,-1.190000057220459,40.29999923706055,-0.1014404296875,-0.0352783203125,0.959228515625,36.81999969482422,0.0,-70.0,-6.243865966796875,2.634918212890625,Closing,0.0,0.0,0.0,0.0,0.0,0.0,0.0,0.0,
11.229335999999893,0.0,0.0,34102.0,2.75,300.0,529.1338562965393,0.0,0.625,4.378661661000001,3.6991882499999984,0.0,-42894.0,5.5,300.0,529.1338562965393,0.0,0.25,1.9494626910000001,1.2409424999999985,0.0,40160.0,6.375,-75.0,-529.1338562965393,0.0,0.25,4.437255405,1.2350999999999985,0.0,1035.0,4.375,-232.5,-529.1338562965393,0.0,0.625,0.212402322,3.7184999999999984,0.0,-1.3799999952316284,-0.9900000095367432,40.880001068115234,-0.03717041015625,0.074951171875,0.9835205078125,36.81999969482422,0.0,49.0,-6.2584075927734375,2.6249237060546875,Closing,0.0,0.0,0.0,0.0,0.0,0.0,0.0,0.0,
11.370560000000056,0.0,0.0,34127.0,0.0,52.5,0.0,0.0,0.375,4.5556635960000005,3.6991882499999984,0.0,-42844.0,0.0,75.0,0.0,0.0,0.5,1.8383787180000002,1.2409424999999985,0.0,40133.0,0.0,-142.5,0.0,0.0,0.125,4.633788588,1.2350999999999985,0.0,1022.0,0.125,-82.5,0.0,0.0,0.375,0.367431603,3.7184999999999984,0.0,-0.699999988079071,-0.949999988079071,40.900001525878906,-0.00213623046875,0.12371826171875,1.0206298828125,36.81999969482422,0.0,99.0,-6.26513671875,2.6209716796875,Closing,0.0,0.0,0.0,0.0,0.0,0.0,0.0,0.0,
11.503675999999977,0.0,0.0,34127.0,0.0,0.0,0.0,0.0,0.25,4.552001487,3.6991882499999984,0.0,-42844.0,0.0,0.0,0.0,0.0,0.25,1.8188474700000001,1.2409424999999985,0.0,40127.0,0.0,0.0,0.0,0.0,0.125,4.633788588,1.2350999999999985,0.0,1022.0,0.0,0.0,0.0,0.0,0.125,0.40039058400000005,3.7184999999999984,0.0,-0.4300000071525574,-0.9300000071525574,40.810001373291016,0.004638671875,-0.04779052734375,1.0015869140625,36.79999923706055,0.0,-10.0,-6.2639923095703125,2.6263275146484375,Closing,0.0,0.0,0.0,0.0,0.0,0.0,0.0,0.0,
11.644220999999904,0.0,0.0,34127.0,0.125,-45.0,-347.2440853714943,0.0,2.5,0.17456052900000002,4.932250999999998,0.0,-42847.0,0.5,-45.0,-347.2440853714943,0.0,1.75,2.393798583,2.481884999999998,0.0,40127.0,1.125,0.0,347.2440853714943,0.0,2.125,0.302734344,2.4702000000000024,0.0,1025.0,1.0,7.5,347.2440853714943,0.0,2.75,1.0327147380000001,0.01,0.0,-0.5099999904632568,-0.9399999976158142,40.849998474121094,-0.00677490234375,-0.0274658203125,1.00933837890625,36.79999923706055,0.0,-4.0,-6.26470947265625,2.630218505859375,Closing,0.0,0.0,0.0,0.0,0.0,0.0,0.0,0.0,
11.782939999999945,0.0,0.0,34108.0,1.625,-67.5,-462.9921242594719,0.0,1.125,0.9082030320000001,4.932250999999998,0.0,-42869.0,1.875,-127.5,-462.9921242594719,0.0,0.75,3.1567379580000003,2.481884999999998,0.0,40125.0,2.75,-7.5,462.9921242594719,0.0,1.125,1.041259659,2.4702000000000024,0.0,1019.0,3.375,-7.5,462.9921242594719,0.0,1.25,1.805419737,0.01,0.0,-0.5,-1.0199999809265137,40.70000076293945,-0.02447509765625,-0.0347900390625,0.94891357421875,36.79999923706055,0.0,-22.0,-6.265380859375,2.634307861328125,Closing,0.0,0.0,0.0,0.0,0.0,0.0,0.0,0.0,
11.92327099999995,0.0,0.0,34096.0,4.125,-30.0,-462.9921242594719,0.0,0.375,1.168212771,4.932250999999998,0.0,-42883.0,4.625,-45.0,-462.9921242594719,0.0,0.5,3.331298487,2.481884999999998,0.0,40123.0,5.125,0.0,462.9921242594719,0.0,0.25,1.210937376,2.4702000000000024,0.0,1019.0,5.875,15.0,462.9921242594719,0.0,0.25,1.756591617,0.01,0.0,-0.5299999713897705,-0.9900000095367432,40.59000015258789,-0.02142333984375,0.02215576171875,1.02178955078125,36.79999923706055,0.0,17.0,-6.26544189453125,2.6345672607421875,Closing,0.0,0.0,0.0,0.0,0.0,0.0,0.0,0.0,
12.05682799999998,0.0,0.0,34096.0,6.375,0.0,-330.70866018533707,0.0,0.5,0.8447264760000001,4.932250999999998,0.0,-42885.0,8.0,0.0,-330.70866018533707,0.0,0.5,3.0505367970000004,2.481884999999998,0.0,40131.0,6.25,30.0,330.70866018533707,0.0,0.375,0.865478427,2.4702000000000024,0.0,1025.0,7.75,15.0,330.70866018533707,0.0,0.25,1.6015623360000002,0.01,0.0,-0.5400000214576721,-1.0499999523162842,40.52000045776367,-0.03228759765625,-0.018310546875,1.006591796875,36.779998779296875,0.0,-16.0,-6.2655181884765625,2.6346588134765625,Closing,0.0,0.0,0.0,0.0,0.0,0.0,0.0,0.0,
12.262766999999993,0.0,0.0,34111.0,0.0,0.0,0.0,0.0,0.125,0.733642503,4.932250999999998,0.0,-42876.0,0.0,0.0,0.0,0.0,0.25,2.9541012600000003,2.481884999999998,0.0,40126.0,0.0,0.0,0.0,0.0,0.0,0.7629393750000001,2.4702000000000024,0.0,1016.0,0.0,0.0,0.0,0.0,0.25,1.563720543,0.01,0.0,-0.5600000023841858,-1.0,40.52000045776367,-0.06195068359375,-0.01806640625,1.0089111328125,36.779998779296875,0.0,-38.0,-6.26263427734375,2.63189697265625,Closing,0.0,0.0,0.0,0.0,0.0,0.0,0.0,0.0,
12.653602999999887,0.0,0.0,34111.0,0.0,0.0,0.0,0.0,0.375,0.8288573370000001,4.932250999999998,0.0,-42876.0,0.0,0.0,0.0,0.0,0.25,2.97851532,2.481884999999998,0.0,40126.0,0.0,0.0,0.0,0.0,0.125,0.996093648,2.4702000000000024,0.0,1015.0,0.125,0.0,0.0,0.0,0.375,1.625976396,0.01,0.0,-0.5799999833106995,-1.0299999713897705,40.540000915527344,-0.02276611328125,-0.01080322265625,1.01959228515625,36.779998779296875,0.0,-3.0,-6.26300048828125,2.6320037841796875,Closing,0.0,0.0,0.0,0.0,0.0,0.0,0.0,0.0,
13.187652999999933,0.0,0.0,34111.0,0.0,0.0,0.0,0.0,0.25,0.833740149,4.932250999999998,0.0,-42876.0,0.0,0.0,0.0,0.0,0.0,2.983398132,2.481884999999998,0.0,40125.0,0.0,0.0,0.0,0.0,0.125,0.89111319,2.4702000000000024,0.0,1015.0,0.125,0.0,0.0,0.0,0.125,1.625976396,0.01,0.0,-0.5899999737739563,-1.0299999713897705,40.52000045776367,-0.01739501953125,-0.018310546875,1.01513671875,36.779998779296875,0.0,-4.0,-6.26300048828125,2.6320037841796875,Closing,0.0,0.0,0.0,0.0,0.0,0.0,0.0,0.0,
13.373256999999983,0.0,0.0,34111.0,0.0,0.0,0.0,0.0,0.25,0.833740149,4.932250999999998,0.0,-42876.0,0.0,0.0,0.0,0.0,0.0,2.982177429,2.481884999999998,0.0,40125.0,0.0,0.0,0.0,0.0,0.0,0.850829991,2.4702000000000024,0.0,1015.0,0.125,0.0,0.0,0.0,0.125,1.625976396,0.01,0.0,-0.5899999737739563,-1.0299999713897705,40.52000045776367,-0.01837158203125,-0.0123291015625,1.019775390625,36.779998779296875,0.0,-1.0,-6.26300048828125,2.6320037841796875,Closing,0.0,0.0,0.0,0.0,0.0,0.0,0.0,0.0,
13.633567000000038,0.0,0.0,34138.0,4.625,187.5,951.5625,0.0,2.375,1.376952984,1.2330627500000013,0.0,-42883.0,8.25,-37.5,-951.5625,0.0,3.0,2.471923575,1.2409425000000012,0.0,40128.0,5.375,60.0,951.5625,0.0,2.875,0.30395504700000003,1.2351000000000012,0.0,1029.0,6.25,82.5,951.5625,0.0,3.0,1.119384651,3.7185000000000015,0.0,-0.550000011920929,-1.1299999952316284,40.18000030517578,-0.03778076171875,-0.0562744140625,0.9732666015625,36.79999923706055,0.0,-44.0,-6.26422119140625,2.6322174072265625,Closing,0.0,0.0,0.0,0.0,0.0,0.0,0.0,0.0,
13.784500999999931,0.0,0.0,34140.0,11.75,90.0,967.96875,0.0,1.0,2.083740021,1.2330627500000013,0.0,-42897.0,16.75,-67.5,-967.96875,0.0,2.625,1.8469236390000001,1.2409425000000012,0.0,40158.0,13.25,97.5,967.96875,0.0,1.25,4.593505389000001,1.2351000000000012,0.0,1052.0,12.375,150.0,967.96875,0.0,0.625,0.28076169,3.7185000000000015,0.0,-0.12999999523162842,-1.0399999618530273,39.72999954223633,-0.06976318359375,0.15570068359375,1.1500244140625,36.79999923706055,0.0,63.0,-6.2623748779296875,2.6344146728515625,Closing,0.0,0.0,0.0,0.0,0.0,0.0,0.0,0.0,
13.925138000000036,0.0,0.0,34172.0,15.0,337.5,967.96875,0.0,0.375,2.34374976,1.2330627500000013,0.0,-42958.0,18.125,-412.5,-967.96875,0.0,0.25,1.545409998,1.2409425000000012,0.0,40215.0,15.5,367.5,967.96875,0.0,0.0,4.282226124,1.2351000000000012,0.0,1104.0,13.0,532.5,967.96875,0.0,0.375,0.12939451800000001,3.7185000000000015,0.0,1.309999942779541,-0.7200000286102295,40.400001525878906,0.064208984375,0.1646728515625,0.95947265625,36.79999923706055,0.0,150.0,-6.2415313720703125,2.6547088623046875,Closing,0.0,0.0,0.0,0.0,0.0,0.0,0.0,0.0,
14.074923999999882,0.0,0.0,34335.0,16.625,592.5,967.96875,0.0,0.375,2.152099389,1.2330627500000013,0.0,-43063.0,15.75,-690.0,-967.96875,0.0,0.25,1.563720543,1.2409425000000012,0.0,40290.0,17.625,517.5,967.96875,0.0,0.5,4.368896037,1.2351000000000012,0.0,1217.0,10.125,802.5,967.96875,0.0,0.625,0.274658175,3.7185000000000015,0.0,1.7400000095367432,-0.7699999809265137,42.34000015258789,-0.02392578125,0.15521240234375,1.07122802734375,36.810001373291016,0.0,75.0,-6.2137451171875,2.6785736083984375,Closing,0.0,0.0,0.0,0.0,0.0,0.0,0.0,0.0,
14.228314999999943,0.0,0.0,34425.0,0.0,502.5,0.0,0.0,0.25,1.954345503,1.2330627500000013,0.0,-43179.0,0.0,-525.0,0.0,0.0,0.25,1.728515448,1.2409425000000012,0.0,40405.0,0.0,675.0,0.0,0.0,0.125,4.6081538250000005,1.2351000000000012,0.0,1426.0,0.125,540.0,0.0,0.0,0.375,0.40771480200000004,3.7185000000000015,0.0,0.23000000417232513,-0.7099999785423279,42.91999816894531,-0.02850341796875,-0.5823974609375,1.0997314453125,36.810001373291016,0.0,-410.0,-6.18597412109375,2.7014312744140625,Closing,0.0,0.0,0.0,0.0,0.0,0.0,0.0,0.0,
14.361050000000047,0.0,0.0,34462.0,0.0,90.0,0.0,0.0,0.375,1.982421672,1.2330627500000013,0.0,-43262.0,0.0,-195.0,0.0,0.0,0.125,1.809081846,1.2409425000000012,0.0,40498.0,0.0,382.5,0.0,0.0,0.125,4.686278817,1.2351000000000012,0.0,1427.0,0.125,15.0,0.0,0.0,0.25,0.424804644,3.7185000000000015,0.0,-1.5700000524520874,-1.350000023841858,42.58000183105469,-0.003173828125,-0.0897216796875,1.150146484375,36.810001373291016,0.0,-21.0,-6.19610595703125,2.6911773681640625,Closing,0.0,0.0,0.0,0.0,0.0,0.0,0.0,0.0,
14.492251999999862,0.0,0.0,34440.0,0.0,-157.5,0.0,0.0,0.25,2.031249792,1.2330627500000013,0.0,-43228.0,0.0,157.5,0.0,0.0,0.25,1.795654113,1.2409425000000012,0.0,40528.0,0.0,-60.0,0.0,0.0,0.125,4.648437024000001,1.2351000000000012,0.0,1403.0,0.0,-142.5,0.0,0.0,0.25,0.43334956500000005,3.7185000000000015,0.0,-0.9200000166893005,-1.190000057220459,42.619998931884766,-0.06829833984375,0.13726806640625,0.985107421875,36.810001373291016,0.0,68.0,-6.208282470703125,2.6797027587890625,Closing,0.0,0.0,0.0,0.0,0.0,0.0,0.0,0.0,
14.629879999999888,0.0,0.0,34434.0,0.0,-15.0,0.0,0.0,0.125,2.044677525,1.2330627500000013,0.0,-43225.0,0.0,22.5,0.0,0.0,0.25,1.7858884890000002,1.2409425000000012,0.0,40513.0,0.0,0.0,0.0,0.0,0.125,4.598388201000001,1.2351000000000012,0.0,1402.0,0.125,0.0,0.0,0.0,0.25,0.43457026800000004,3.7185000000000015,0.0,-0.6399999856948853,-1.1100000143051147,42.65999984741211,-0.06622314453125,-0.02252197265625,0.9942626953125,36.779998779296875,0.0,-42.0,-6.213134765625,2.6791839599609375,Closing,0.0,0.0,0.0,0.0,0.0,0.0,0.0,0.0,
14.768940999999876,0.0,0.0,34430.0,4.0,-255.0,-940.6321719915751,0.0,0.375,2.033691198,1.0943476891749773,0.0,-43193.0,5.5,247.5,940.6321719915751,0.0,0.25,1.776122865,1.1013409960474592,0.0,40495.0,4.0,-82.5,-940.6321719915751,0.0,0.25,4.511718288,1.0961557559824222,0.0,1376.0,4.5,-210.0,-940.6321719915751,0.0,0.5,0.306396453,3.579060772034825,0.0,-1.2799999713897705,-1.100000023841858,42.77000045776367,-0.0087890625,-0.17340087890625,0.909912109375,36.779998779296875,0.0,-97.0,-6.2164306640625,2.67730712890625,Closing,0.0,0.0,0.0,0.0,0.0,0.0,0.0,0.0,
14.906420999999856,0.0,0.0,34318.0,8.125,-345.0,-1106.392221494048,0.0,0.375,1.954345503,1.1034223311086986,0.0,-43148.0,10.625,382.5,1106.392221494048,0.0,0.25,1.671142407,1.1104736284685075,0.0,40442.0,8.125,-367.5,-1106.392221494048,0.0,0.125,4.461669465,1.1052453909197677,0.0,1344.0,8.75,-360.0,-1106.392221494048,0.0,0.25,0.23071286700000002,3.5881827884746595,0.0,-2.2899999618530273,-1.309999942779541,42.75,-0.07293701171875,-0.207763671875,0.9984130859375,36.779998779296875,0.0,-150.0,-6.231201171875,2.665313720703125,Closing,0.0,0.0,0.0,0.0,0.0,0.0,0.0,0.0,
15.044570999999996,0.0,0.0,34265.0,0.0,-360.0,0.0,0.0,0.25,1.901855274,1.1034223311086986,0.0,-43085.0,0.0,345.0,0.0,0.0,0.25,1.560058434,1.1104736284685075,0.0,40356.0,0.0,-517.5,0.0,0.0,0.0,4.4458003260000005,1.1052453909197677,0.0,1267.0,0.125,-397.5,0.0,0.0,0.125,0.22705075800000002,3.5881827884746595,0.0,-1.9299999475479126,-1.2699999809265137,42.40999984741211,-0.04412841796875,0.16259765625,1.0509033203125,36.779998779296875,0.0,118.0,-6.2532196044921875,2.6494140625,Closing,0.0,0.0,0.0,0.0,0.0,0.0,0.0,0.0,
15.175949999999954,0.0,0.0,34203.0,0.0,-262.5,0.0,0.0,0.125,1.901855274,1.1034223311086986,0.0,-43016.0,0.0,247.5,0.0,0.0,0.25,1.5502928100000002,1.1104736284685075,0.0,40295.0,0.0,-292.5,0.0,0.0,0.0,4.447021029,1.1052453909197677,0.0,1155.0,0.125,-285.0,0.0,0.0,0.25,0.21118161900000001,3.5881827884746595,0.0,-0.9399999976158142,-0.9800000190734863,41.79999923706055,0.0506591796875,0.212646484375,0.83734130859375,36.7400016784668,0.0,199.0,-6.25677490234375,2.6448974609375,Closing,0.0,0.0,0.0,0.0,0.0,0.0,0.0,0.0,
15.33047900000005,0.0,0.0,34199.0,0.875,-7.5,344.53125,0.0,1.875,1.667480298,0.5498168668524888,0.0,-42993.0,1.0,-7.5,-344.53125,0.0,8.0,2.0117185440000003,1.9285545897722223,0.0,40265.0,0.125,-60.0,-344.53125,0.0,5.0,4.859618643,1.9194747329772885,0.0,1147.0,0.375,-45.0,-344.53125,0.0,1.875,4.921874496,3.031687206278559,0.0,-0.09000000357627869,-0.8500000238418579,41.54999923706055,-0.0260009765625,-0.043212890625,1.0574951171875,36.7400016784668,0.0,-35.0,-6.242584228515625,2.6551055908203125,Closing,0.0,0.0,0.0,0.0,0.0,0.0,0.0,0.0,
15.47053199999989,0.0,0.0,34211.0,0.0,30.0,0.0,0.0,0.625,1.3452147060000001,0.5498168668524888,0.0,-43000.0,0.0,-52.5,0.0,0.0,0.75,2.574462627,1.9285545897722223,0.0,40252.0,0.0,-37.5,0.0,0.0,0.875,0.39428706900000005,1.9194747329772885,0.0,1140.0,0.125,-37.5,0.0,0.0,0.625,4.616698746,3.031687206278559,0.0,-0.4000000059604645,-0.9399999976158142,41.189998626708984,-0.01934814453125,-0.04290771484375,1.0101318359375,36.7400016784668,0.0,-25.0,-6.228363037109375,2.6659088134765625,Closing,0.0,0.0,0.0,0.0,0.0,0.0,0.0,0.0,
15.608430999999866,0.0,0.0,34212.0,0.375,67.5,262.5,0.0,0.125,1.282958853,0.5498168668524888,0.0,-43000.0,0.375,0.0,-262.5,0.0,0.25,2.5781247360000004,1.9285545897722227,0.0,40237.0,0.125,-90.0,-262.5,0.0,0.125,0.457763625,1.9194747329772885,0.0,1139.0,0.375,-22.5,-262.5,0.0,0.375,4.595946795000001,3.0316872062785585,0.0,-0.33000001311302185,-0.9300000071525574,40.720001220703125,-0.0157470703125,-0.0174560546875,1.01220703125,36.77000045776367,0.0,-6.0,-6.2257080078125,2.67449951171875,Closing,0.0,0.0,0.0,0.0,0.0,0.0,0.0,0.0,
15.748945999999997,0.0,0.0,34225.0,0.0,7.5,0.0,0.0,0.25,1.33056627,0.5498168668524888,0.0,-43002.0,0.0,-7.5,0.0,0.0,0.25,2.5280759130000003,1.9285545897722227,0.0,40229.0,0.0,-30.0,0.0,0.0,0.125,0.383300742,1.9194747329772885,0.0,1130.0,0.125,-7.5,0.0,0.0,0.25,4.642333509,3.0316872062785585,0.0,-0.4000000059604645,-0.9800000190734863,40.459999084472656,-0.0247802734375,0.00537109375,0.98321533203125,36.77000045776367,0.0,1.0,-6.2262725830078125,2.674468994140625,Closing,0.0,0.0,0.0,0.0,0.0,0.0,0.0,0.0,
15.887658000000053,0.0,0.0,34224.0,0.0,-7.5,0.0,0.0,0.125,1.363525251,0.5498168668524888,0.0,-43002.0,0.0,0.0,0.0,0.0,0.25,2.440185297,1.9285545897722227,0.0,40229.0,0.0,0.0,0.0,0.0,0.125,0.345458949,1.9194747329772885,0.0,1130.0,0.125,0.0,0.0,0.0,0.125,4.666747569,3.0316872062785585,0.0,-0.4099999964237213,-0.949999988079071,40.59000015258789,-0.02764892578125,9.1552734375E-4,1.0242919921875,36.77000045776367,0.0,-2.0,-6.2262725830078125,2.674285888671875,Closing,0.0,0.0,0.0,0.0,0.0,0.0,0.0,0.0,
16.014628000000027,0.0,0.0,34224.0,0.0,0.0,0.0,0.0,0.125,1.363525251,0.5498168668524888,0.0,-43002.0,0.0,0.0,0.0,0.0,0.0,2.4328610790000003,1.9285545897722227,0.0,40229.0,0.0,0.0,0.0,0.0,0.125,0.345458949,1.9194747329772885,0.0,1130.0,0.125,0.0,0.0,0.0,0.125,4.665526866,3.0316872062785585,0.0,-0.41999998688697815,-0.9599999785423279,40.58000183105469,-0.01397705078125,-0.0030517578125,1.0247802734375,36.77000045776367,0.0,5.0,-6.2262725830078125,2.6744232177734375,Closing,0.0,0.0,0.0,0.0,0.0,0.0,0.0,0.0,
16.151840000000085,0.0,0.0,34224.0,0.0,0.0,0.0,0.0,0.125,1.364745954,0.5498168668524888,0.0,-43002.0,0.0,0.0,0.0,0.0,0.0,2.4316403760000003,1.9285545897722227,0.0,40229.0,0.0,0.0,0.0,0.0,0.125,0.345458949,1.9194747329772885,0.0,1130.0,0.125,0.0,0.0,0.0,0.125,4.666747569,3.0316872062785585,0.0,-0.4300000071525574,-0.9800000190734863,40.58000183105469,-0.0140380859375,-0.00726318359375,1.015625,36.75,0.0,2.0,-6.2262725830078125,2.6744232177734375,Closing,0.0,0.0,0.0,0.0,0.0,0.0,0.0,0.0,
16.28786400000006,0.0,0.0,34224.0,0.0,0.0,0.0,0.0,0.125,1.362304548,0.5498168668524888,0.0,-43002.0,0.0,0.0,0.0,0.0,0.0,2.4328610790000003,1.9285545897722227,0.0,40229.0,0.0,0.0,0.0,0.0,0.125,0.346679652,1.9194747329772885,0.0,1130.0,0.125,0.0,0.0,0.0,0.125,4.665526866,3.0316872062785585,0.0,-0.4300000071525574,-0.9800000190734863,40.59000015258789,-0.01611328125,-0.01031494140625,1.01837158203125,36.75,0.0,0.0,-6.2262725830078125,2.6744232177734375,Closing,0.0,0.0,0.0,0.0,0.0,0.0,0.0,0.0,
16.429321999999928,0.0,0.0,34231.0,8.125,15.0,803.90625,0.0,1.75,2.0605466640000003,1.2330627500000013,0.0,-43030.0,8.625,-7.5,-803.90625,0.0,2.0,1.7370603690000002,1.2409425000000012,0.0,40247.0,4.875,172.5,803.90625,0.0,1.0,4.477538604,1.2351000000000012,0.0,1170.0,6.625,90.0,803.90625,0.0,1.375,0.670165947,3.7185000000000015,0.0,0.23000000417232513,-1.0,41.06999969482422,-0.0023193359375,0.1202392578125,1.02032470703125,36.75,0.0,87.0,-6.223358154296875,2.681884765625,Closing,0.0,0.0,0.0,0.0,0.0,0.0,0.0,0.0,
16.665169999999925,0.0,0.0,34337.0,8.5,480.0,803.90625,0.0,0.25,2.158202904,1.2330627500000013,0.0,-43173.0,8.875,-495.0,-803.90625,0.0,0.25,1.564941246,1.2409425000000012,0.0,40338.0,8.625,397.5,803.90625,0.0,0.125,4.407958533,1.2351000000000012,0.0,1285.0,8.875,427.5,803.90625,0.0,0.5,0.5029296360000001,3.7185000000000015,0.0,0.8299999833106995,-0.9200000166893005,39.720001220703125,-0.02459716796875,0.02301025390625,1.01898193359375,36.72999954223633,0.0,-1.0,-6.2032928466796875,2.7155609130859375,Closing,0.0,0.0,0.0,0.0,0.0,0.0,0.0,0.0,
16.909038999999872,0.0,0.0,34399.0,0.0,150.0,0.0,0.0,0.375,2.077636506,1.2330627500000013,0.0,-43203.0,0.0,-120.0,0.0,0.0,0.25,1.6076658510000001,1.2409425000000012,0.0,40455.0,0.0,322.5,0.0,0.0,0.125,4.571532735,1.2351000000000012,0.0,1329.0,0.125,157.5,0.0,0.0,0.25,0.28320309600000004,3.7185000000000015,0.0,-0.49000000953674316,-1.0800000429153442,39.939998626708984,-0.1671142578125,-0.2415771484375,1.2294921875,36.72999954223633,0.0,-258.0,-6.1951904296875,2.730316162109375,Closing,0.0,0.0,0.0,0.0,0.0,0.0,0.0,0.0,
17.056310999999987,0.0,0.0,34411.0,0.0,0.0,0.0,0.0,0.25,2.054443149,1.2330627500000013,0.0,-43209.0,0.0,0.0,0.0,0.0,0.25,1.7419431810000001,1.2409425000000012,0.0,40461.0,0.0,7.5,0.0,0.0,0.0,4.624022964,1.2351000000000012,0.0,1343.0,0.0,0.0,0.0,0.0,0.25,0.273437472,3.7185000000000015,0.0,-1.100000023841858,-1.0700000524520874,39.97999954223633,-0.00665283203125,0.0133056640625,0.9664306640625,36.72999954223633,0.0,29.0,-6.203887939453125,2.7243804931640625,Closing,0.0,0.0,0.0,0.0,0.0,0.0,0.0,0.0,
17.194631999999984,0.0,0.0,34404.0,0.0,-45.0,0.0,0.0,0.125,2.054443149,1.2330627500000013,0.0,-43209.0,0.0,0.0,0.0,0.0,0.0,1.795654113,1.2409425000000012,0.0,40460.0,0.0,0.0,0.0,0.0,0.125,4.61425734,1.2351000000000012,0.0,1337.0,0.125,-52.5,0.0,0.0,0.25,0.33081051300000003,3.7185000000000015,0.0,-0.550000011920929,-1.059999942779541,39.95000076293945,-0.0146484375,0.02984619140625,0.97900390625,36.7400016784668,0.0,27.0,-6.2003021240234375,2.720367431640625,Closing,0.0,0.0,0.0,0.0,0.0,0.0,0.0,0.0,
17.33375900000008,0.0,0.0,34415.0,3.375,75.0,754.6875,0.0,0.125,2.036132604,1.2330627500000013,0.0,-43211.0,4.25,-60.0,-754.6875,0.0,0.25,1.795654113,1.2409425000000012,0.0,40462.0,3.25,30.0,754.6875,0.0,0.125,4.599608904,1.2351000000000012,0.0,1334.0,3.375,60.0,754.6875,0.0,0.25,0.351562464,3.7185000000000015,0.0,-0.25999999046325684,-1.0199999809265137,39.90999984741211,-0.0167236328125,0.059326171875,0.99249267578125,36.7400016784668,0.0,41.0,-6.192474365234375,2.7215576171875,Closing,0.0,0.0,0.0,0.0,0.0,0.0,0.0,0.0,
17.470597000000065,0.0,0.0,34421.0,0.0,0.0,0.0,0.0,0.125,2.044677525,1.2330627500000013,0.0,-43223.0,0.0,0.0,0.0,0.0,0.25,1.779784974,1.2409425000000012,0.0,40475.0,0.0,15.0,0.0,0.0,0.0,4.599608904,1.2351000000000012,0.0,1349.0,0.125,-7.5,0.0,0.0,0.25,0.351562464,3.7185000000000015,0.0,-0.7699999809265137,-1.1100000143051147,39.939998626708984,0.007080078125,0.009033203125,1.10546875,36.7400016784668,0.0,37.0,-6.1941680908203125,2.718048095703125,Closing,0.0,0.0,0.0,0.0,0.0,0.0,0.0,0.0,
17.627862999999895,0.0,0.0,34412.0,0.0,-45.0,0.0,0.0,0.125,2.054443149,1.2330627500000013,0.0,-43216.0,0.0,45.0,0.0,0.0,0.25,1.771240053,1.2409425000000012,0.0,40468.0,0.0,-37.5,0.0,0.0,0.0,4.598388201000001,1.2351000000000012,0.0,1341.0,0.0,-45.0,0.0,0.0,0.25,0.35644527600000003,3.7185000000000015,0.0,-0.5099999904632568,-1.0499999523162842,39.95000076293945,0.0050048828125,0.03277587890625,1.03411865234375,36.709999084472656,0.0,45.0,-6.1979217529296875,2.7131805419921875,Closing,0.0,0.0,0.0,0.0,0.0,0.0,0.0,0.0,
17.767643999999855,0.0,0.0,34410.0,0.0,0.0,0.0,0.0,0.125,2.055663852,1.2330627500000013,0.0,-43215.0,0.0,0.0,0.0,0.0,0.125,1.771240053,1.2409425000000012,0.0,40468.0,0.0,0.0,0.0,0.0,0.0,4.599608904,1.2351000000000012,0.0,1340.0,0.125,0.0,0.0,0.0,0.25,0.351562464,3.7185000000000015,0.0,-0.5099999904632568,-1.0299999713897705,39.959999084472656,-0.0107421875,0.01593017578125,1.00396728515625,36.709999084472656,0.0,21.0,-6.1987762451171875,2.712432861328125,Closing,0.0,0.0,0.0,0.0,0.0,0.0,0.0,0.0,
17.89952600000007,0.0,0.0,34410.0,0.0,0.0,0.0,0.0,0.25,2.054443149,1.2330627500000013,0.0,-43215.0,0.0,0.0,0.0,0.0,0.125,1.77001935,1.2409425000000012,0.0,40468.0,0.0,0.0,0.0,0.0,0.0,4.598388201000001,1.2351000000000012,0.0,1340.0,0.125,0.0,0.0,0.0,0.25,0.351562464,3.7185000000000015,0.0,-0.49000000953674316,-1.0399999618530273,39.95000076293945,-0.0250244140625,0.0010986328125,1.02423095703125,36.709999084472656,0.0,1.0,-6.19866943359375,2.712432861328125,Closing,0.0,0.0,0.0,0.0,0.0,0.0,0.0,0.0,
