Time,ClimberA1,ClimberA2,FRpos,FRCurrent,FRspeed,FRsetpoint,FRApos,FRACurrent,FREncpos,FREncSetpoint,FREncSpeed,FLpos,FLCurrent,FLspeed,FLsetpoint,FLApos,FLACurrent,FLEncpos,FLEncSetpoint,FLEncSpeed,BRpos,BRCurrent,BRspeed,BRsetpoint,BRApos,BRACurrent,BREncpos,BREncSetpoint,BREncSpeed,BLpos,BLCurrent,BLspeed,BLsetpoint,BLApos,BLACurrent,BLEncpos,BLEncSetpoint,BLEncSpeed,navx_Pitch,navx_Roll,navx_Yaw,navx_XAcc,navx_YAcc,navx_ZAcc,navx_Temp,navx_Bar,navx_Alt,navx_XDis,navx_YDis,GearPlacerState,ShootOutputV,ShootOutputCurrent,ShootEncPos,ShootEncVelocity,ShootSpeed,ShootSetpoint,CarouselSetpoint,CarouselCurrent,
0.18048299999994924,0.0,0.0,22102.0,0.0,0.0,0.0,0.0,0.125,0.8142089010000001,0.01,0.0,-41021.0,0.0,0.0,-0.0,0.0,0.25,0.49194330900000005,0.01,0.0,21410.0,0.0,0.0,0.0,0.0,0.0,3.330077784,0.01,0.0,-1686.0,0.125,0.0,-0.0,0.0,0.25,1.5832517910000001,0.01,0.0,-0.3700000047683716,-1.0800000429153442,0.0,-0.0198974609375,-0.00634765625,1.02239990234375,36.52000045776367,0.0,0.0,-5.071258544921875,2.4247589111328125,Opening,0.0,0.0,0.0,0.0,0.0,0.0,0.0,0.0,
0.27436799999995853,0.0,0.0,22102.0,0.0,0.0,0.0,0.0,0.125,0.8142089010000001,0.01,0.0,-41021.0,0.0,0.0,-0.0,0.0,0.125,0.5017089330000001,0.01,0.0,21410.0,0.0,0.0,0.0,0.0,0.0,3.330077784,0.01,0.0,-1686.0,0.125,0.0,-0.0,0.0,0.25,1.5832517910000001,0.01,0.0,-0.36000001430511475,-1.0800000429153442,0.0,-0.01885986328125,-0.00531005859375,1.01409912109375,36.52000045776367,0.0,0.0,-5.071258544921875,2.4247589111328125,Opening,0.0,0.0,0.0,0.0,0.0,0.0,0.0,0.0,
0.35403599999996366,0.0,0.0,22102.0,0.0,0.0,0.0,0.0,0.125,0.8142089010000001,0.01,0.0,-41021.0,0.0,0.0,-0.0,0.0,0.125,0.5017089330000001,0.01,0.009765623999999917,21410.0,0.0,0.0,0.0,0.0,0.0,3.330077784,0.01,0.0,-1686.0,0.125,0.0,-0.0,0.0,0.25,1.5832517910000001,0.01,0.0,-0.3700000047683716,-1.0800000429153442,0.0,-0.0224609375,-0.00372314453125,1.0189208984375,36.52000045776367,0.0,-3.0,-5.071258544921875,2.4247589111328125,Opening,0.0,0.0,0.0,0.0,0.0,0.0,0.0,0.0,
0.4268879999999772,0.0,0.0,22102.0,0.0,0.0,0.0,0.0,0.125,0.8166503070000001,0.01,0.0,-41021.0,0.0,0.0,-0.0,0.0,0.125,0.5017089330000001,0.01,0.0,21410.0,0.0,0.0,0.0,0.0,0.0,3.330077784,0.01,0.0,-1686.0,0.125,0.0,-0.0,0.0,0.25,1.5832517910000001,0.01,0.0,-0.3700000047683716,-1.090000033378601,0.0,-0.01995849609375,-0.0068359375,1.0224609375,36.52000045776367,0.0,0.0,-5.071258544921875,2.4247589111328125,Opening,0.0,0.0,0.0,0.0,0.0,0.0,0.0,0.0,
0.501994000000006,0.0,0.0,22102.0,0.0,0.0,0.0,0.0,0.125,0.8142089010000001,0.01,0.0,-41021.0,0.0,0.0,-0.0,0.0,0.125,0.5017089330000001,0.01,0.0,21410.0,0.0,0.0,0.0,0.0,0.0,3.330077784,0.01,-0.0012207029999995456,-1686.0,0.125,0.0,-0.0,0.0,0.25,1.5832517910000001,0.01,0.0,-0.3700000047683716,-1.090000033378601,0.0,-0.01922607421875,-0.00640869140625,1.0167236328125,36.52000045776367,0.0,0.0,-5.071258544921875,2.4247589111328125,Opening,0.0,0.0,0.0,0.0,0.0,0.0,0.0,0.0,
0.5735489999999991,0.0,0.0,22102.0,0.0,0.0,0.0,0.0,0.125,0.8142089010000001,0.01,0.0,-41021.0,0.0,0.0,-0.0,0.0,0.125,0.5029296360000001,0.01,0.0,21410.0,0.0,0.0,0.0,0.0,0.0,3.330077784,0.01,0.0,-1686.0,0.125,0.0,-0.0,0.0,0.25,1.5832517910000001,0.01,0.0,-0.3700000047683716,-1.090000033378601,0.0,-0.021728515625,-0.0050048828125,1.018798828125,36.52000045776367,0.0,-2.0,-5.071258544921875,2.4247589111328125,Opening,0.0,0.0,0.0,0.0,0.0,0.0,0.0,0.0,
0.6534649999999674,0.0,0.0,22102.0,0.0,0.0,0.0,0.0,0.125,0.8142089010000001,0.01,0.0,-41021.0,0.0,0.0,-0.0,0.0,0.125,0.5017089330000001,0.01,0.0012207029999995456,21410.0,0.0,0.0,0.0,0.0,0.0,3.330077784,0.01,0.0,-1686.0,0.125,0.0,-0.0,0.0,0.25,1.5832517910000001,0.01,0.0,-0.3700000047683716,-1.090000033378601,0.0,-0.018798828125,-0.00732421875,1.02435302734375,36.52000045776367,0.0,0.0,-5.071258544921875,2.4247589111328125,Opening,0.0,0.0,0.0,0.0,0.0,0.0,0.0,0.0,
0.7281829999999608,0.0,0.0,22102.0,0.0,0.0,0.0,0.0,0.125,0.8142089010000001,0.01,0.0,-41021.0,0.0,0.0,-0.0,0.0,0.125,0.5017089330000001,0.01,0.0,21410.0,0.0,0.0,0.0,0.0,0.0,3.331298487,0.01,0.0,-1686.0,0.125,0.0,-0.0,0.0,0.25,1.5832517910000001,0.01,0.0,-0.36000001430511475,-1.090000033378601,0.0,-0.01806640625,-0.00799560546875,1.01763916015625,36.52000045776367,0.0,1.0,-5.071258544921875,2.4247589111328125,Opening,0.0,0.0,0.0,0.0,0.0,0.0,0.0,0.0,
0.8067429999999586,0.0,0.0,22102.0,0.0,0.0,0.0,0.0,0.125,0.8154296040000001,0.01,0.0,-41021.0,0.0,0.0,-0.0,0.0,0.125,0.5017089330000001,0.01,0.0012207029999995456,21410.0,0.0,0.0,0.0,0.0,0.0,3.330077784,0.01,0.0,-1686.0,0.125,0.0,-0.0,0.0,0.25,1.5832517910000001,0.01,0.0,-0.36000001430511475,-1.090000033378601,0.0,-0.01947021484375,-0.00457763671875,1.01800537109375,36.52000045776367,0.0,0.0,-5.071258544921875,2.4247589111328125,Opening,0.0,0.0,0.0,0.0,0.0,0.0,0.0,0.0,
0.8823859999999986,0.0,0.0,22102.0,0.0,0.0,0.0,0.0,0.125,0.812988198,0.01,0.0,-41021.0,0.0,0.0,-0.0,0.0,0.125,0.5017089330000001,0.01,0.0,21410.0,0.0,0.0,0.0,0.0,0.0,3.328857081,0.01,0.0,-1686.0,0.0,0.0,-0.0,0.0,0.25,1.5832517910000001,0.01,0.0,-0.36000001430511475,-1.090000033378601,0.0,-0.0189208984375,-0.00811767578125,1.02020263671875,36.52000045776367,0.0,0.0,-5.071258544921875,2.4247589111328125,Opening,0.0,0.0,0.0,0.0,0.0,0.0,0.0,0.0,
0.9675499999999884,0.0,0.0,22102.0,0.0,0.0,0.0,0.0,0.25,0.8154296040000001,0.01,0.0,-41021.0,0.0,0.0,-0.0,0.0,0.125,0.5017089330000001,0.01,0.0,21410.0,0.0,0.0,0.0,0.0,0.0,3.330077784,0.01,0.0,-1686.0,0.125,0.0,-0.0,0.0,0.25,1.5832517910000001,0.01,0.0,-0.36000001430511475,-1.090000033378601,0.0,-0.0185546875,-0.00677490234375,1.01898193359375,36.52000045776367,0.0,0.0,-5.071258544921875,2.4247589111328125,Opening,0.0,0.0,0.0,0.0,0.0,0.0,0.0,0.0,
1.049076000000001,0.0,0.0,22102.0,0.0,0.0,0.0,0.0,0.125,0.8142089010000001,0.01,0.0,-41021.0,0.0,0.0,-0.0,0.0,0.125,0.5017089330000001,0.01,0.0,21410.0,0.0,0.0,0.0,0.0,0.0,3.330077784,0.01,0.0,-1686.0,0.125,0.0,-0.0,0.0,0.25,1.5832517910000001,0.01,0.0,-0.36000001430511475,-1.100000023841858,0.0,-0.01971435546875,-0.00775146484375,1.0203857421875,36.52000045776367,0.0,0.0,-5.071258544921875,2.4247589111328125,Opening,0.0,0.0,0.0,0.0,0.0,0.0,0.0,0.0,
1.1273699999999953,0.0,0.0,22102.0,0.0,0.0,0.0,0.0,0.125,0.8142089010000001,0.01,0.0,-41021.0,0.0,0.0,-0.0,0.0,0.125,0.5017089330000001,0.01,0.0,21410.0,0.0,0.0,0.0,0.0,0.0,3.331298487,0.01,0.0,-1686.0,0.125,0.0,-0.0,0.0,0.25,1.5832517910000001,0.01,0.0,-0.36000001430511475,-1.100000023841858,0.0,-0.01953125,-0.00433349609375,1.01568603515625,36.52000045776367,0.0,0.0,-5.071258544921875,2.4247589111328125,Opening,0.0,0.0,0.0,0.0,0.0,0.0,0.0,0.0,
1.2097660000000032,0.0,0.0,22102.0,0.0,0.0,0.0,0.0,0.125,0.8142089010000001,0.01,0.0,-41021.0,0.0,0.0,-0.0,0.0,0.125,0.50048823,0.01,0.0,21410.0,0.0,0.0,0.0,0.0,0.0,3.330077784,0.01,0.0,-1686.0,0.0,0.0,-0.0,0.0,0.25,1.5832517910000001,0.01,0.0,-0.36000001430511475,-1.100000023841858,0.0,-0.0220947265625,-0.00823974609375,1.018798828125,36.529998779296875,0.0,-2.0,-5.071258544921875,2.4247589111328125,Opening,0.0,0.0,0.0,0.0,0.0,0.0,0.0,0.0,
1.2932719999999973,0.0,0.0,22102.0,0.0,0.0,0.0,0.0,0.125,0.8142089010000001,0.01,0.0,-41021.0,0.0,0.0,-0.0,0.0,0.125,0.5017089330000001,0.01,0.0,21410.0,0.0,0.0,0.0,0.0,0.0,3.330077784,0.01,0.0,-1686.0,0.125,0.0,-0.0,0.0,0.25,1.5820310880000001,0.01,0.0,-0.3700000047683716,-1.090000033378601,0.0,-0.01922607421875,-0.00640869140625,1.01885986328125,36.529998779296875,0.0,0.0,-5.071258544921875,2.4247589111328125,Opening,0.0,0.0,0.0,0.0,0.0,0.0,0.0,0.0,
1.3735889999999782,0.0,0.0,22102.0,0.0,0.0,0.0,0.0,0.125,0.8142089010000001,0.01,0.0,-41021.0,0.0,0.0,-0.0,0.0,0.125,0.50048823,0.01,0.0,21410.0,0.0,0.0,0.0,0.0,0.0,3.330077784,0.01,0.0,-1686.0,0.0,0.0,-0.0,0.0,0.25,1.5820310880000001,0.01,0.0,-0.3700000047683716,-1.090000033378601,0.0,-0.02093505859375,-0.00958251953125,1.01165771484375,36.529998779296875,0.0,-1.0,-5.071258544921875,2.4247589111328125,Opening,0.0,0.0,0.0,0.0,0.0,0.0,0.0,0.0,
1.4743729999999633,0.0,0.0,22102.0,0.0,0.0,0.0,0.0,0.125,0.8142089010000001,0.01,0.0,-41021.0,0.0,0.0,-0.0,0.0,0.125,0.5017089330000001,0.01,0.0,21410.0,0.0,0.0,0.0,0.0,0.0,3.331298487,0.01,0.0,-1686.0,0.125,0.0,-0.0,0.0,0.25,1.5832517910000001,0.01,0.0,-0.3700000047683716,-1.090000033378601,0.0,-0.0181884765625,-0.0069580078125,1.01690673828125,36.529998779296875,0.0,1.0,-5.071258544921875,2.4247589111328125,Opening,0.0,0.0,0.0,0.0,0.0,0.0,0.0,0.0,
1.5563619999999647,0.0,0.0,22102.0,0.0,0.0,0.0,0.0,0.125,0.8154296040000001,0.01,0.0,-41021.0,0.0,0.0,-0.0,0.0,0.125,0.5017089330000001,0.01,0.0,21410.0,0.0,0.0,0.0,0.0,0.0,3.330077784,0.01,-0.0012207029999995456,-1686.0,0.125,0.0,-0.0,0.0,0.25,1.5832517910000001,0.01,0.0,-0.3700000047683716,-1.090000033378601,0.0,-0.01898193359375,-0.00665283203125,1.0186767578125,36.529998779296875,0.0,0.0,-5.071258544921875,2.4247589111328125,Opening,0.0,0.0,0.0,0.0,0.0,0.0,0.0,0.0,
1.6336149999999907,0.0,0.0,22102.0,0.0,0.0,0.0,0.0,0.125,0.8154296040000001,0.01,0.0,-41021.0,0.0,0.0,-0.0,0.0,0.125,0.5017089330000001,0.01,0.0,21410.0,0.0,0.0,0.0,0.0,0.0,3.331298487,0.01,0.0,-1686.0,0.125,0.0,-0.0,0.0,0.25,1.5832517910000001,0.01,0.0,-0.3700000047683716,-1.090000033378601,0.0,-0.01556396484375,-0.00262451171875,1.03265380859375,36.529998779296875,0.0,4.0,-5.071258544921875,2.4247589111328125,Closing,0.0,0.0,0.0,0.0,0.0,0.0,0.0,0.0,
1.7147019999999902,0.0,0.0,22102.0,0.0,0.0,0.0,0.0,0.125,0.8142089010000001,0.01,0.0,-41021.0,0.0,0.0,-0.0,0.0,0.125,0.5017089330000001,0.01,0.0,21410.0,0.0,0.0,0.0,0.0,0.0,3.330077784,0.01,0.0,-1686.0,0.125,0.0,-0.0,0.0,0.25,1.5832517910000001,0.01,0.0,-0.3700000047683716,-1.090000033378601,0.0,-0.02288818359375,1.8310546875E-4,1.01971435546875,36.540000915527344,0.0,-3.0,-5.071258544921875,2.4247589111328125,Closing,0.0,0.0,0.0,0.0,0.0,0.0,0.0,0.0,
1.7968239999999642,0.0,0.0,22102.0,0.0,0.0,0.0,0.0,0.125,0.8154296040000001,0.01,0.0,-41021.0,0.0,0.0,-0.0,0.0,0.125,0.5017089330000001,0.01,0.0,21410.0,0.0,0.0,0.0,0.0,0.0,3.330077784,0.01,-0.0012207029999995456,-1686.0,0.125,0.0,-0.0,0.0,0.25,1.5808103850000002,0.01,0.0,-0.3799999952316284,-1.090000033378601,0.0,-0.012939453125,-0.007568359375,1.01812744140625,36.540000915527344,0.0,6.0,-5.071258544921875,2.4245147705078125,Closing,0.0,0.0,0.0,0.0,0.0,0.0,0.0,0.0,
1.8753959999999497,0.0,0.0,22102.0,0.0,0.0,0.0,0.0,0.125,0.8142089010000001,0.01,0.0,-41021.0,0.0,0.0,-0.0,0.0,0.125,0.5017089330000001,0.01,0.0,21410.0,0.0,0.0,0.0,0.0,0.0,3.328857081,0.01,0.0,-1686.0,0.125,0.0,-0.0,0.0,0.25,1.5832517910000001,0.01,0.0,-0.3799999952316284,-1.100000023841858,0.0,-0.01495361328125,-0.01470947265625,1.01739501953125,36.540000915527344,0.0,4.0,-5.071258544921875,2.4244842529296875,Closing,0.0,0.0,0.0,0.0,0.0,0.0,0.0,0.0,
1.9579789999999921,0.0,0.0,22102.0,0.0,0.0,0.0,0.0,0.125,0.8142089010000001,0.01,0.0,-41021.0,0.0,0.0,-0.0,0.0,0.125,0.50048823,0.01,-0.0012207029999995456,21410.0,0.0,0.0,0.0,0.0,0.0,3.330077784,0.01,-0.0012207029999995456,-1686.0,0.125,0.0,-0.0,0.0,0.25,1.5820310880000001,0.01,0.0,-0.3799999952316284,-1.090000033378601,0.0,-0.027587890625,-0.01531982421875,1.02178955078125,36.540000915527344,0.0,-8.0,-5.071258544921875,2.4244842529296875,Closing,0.0,0.0,0.0,0.0,0.0,0.0,0.0,0.0,
2.0376539999999803,0.0,0.0,22102.0,0.0,0.0,0.0,0.0,0.125,0.8142089010000001,0.01,0.0,-41021.0,0.0,0.0,-0.0,0.0,0.125,0.5017089330000001,0.01,0.0,21410.0,0.0,0.0,0.0,0.0,0.0,3.331298487,0.01,0.0,-1686.0,0.125,0.0,-0.0,0.0,0.25,1.5832517910000001,0.01,0.0,-0.3799999952316284,-1.100000023841858,-0.009999999776482582,-0.01263427734375,-0.00286865234375,1.01708984375,36.540000915527344,0.0,6.0,-5.071258544921875,2.4244842529296875,Closing,0.0,0.0,0.0,0.0,0.0,0.0,0.0,0.0,
2.115195999999996,0.0,0.0,22102.0,0.0,0.0,0.0,0.0,0.125,0.8142089010000001,0.01,0.0,-41021.0,0.0,0.0,-0.0,0.0,0.125,0.5017089330000001,0.01,0.0,21410.0,0.0,0.0,0.0,0.0,0.0,3.330077784,0.01,0.0012207029999995456,-1686.0,0.0,0.0,-0.0,0.0,0.25,1.5808103850000002,0.01,0.0,-0.3799999952316284,-1.090000033378601,-0.009999999776482582,-0.0240478515625,-0.00469970703125,1.0067138671875,36.540000915527344,0.0,-4.0,-5.071258544921875,2.4244842529296875,Closing,0.0,0.0,0.0,0.0,0.0,0.0,0.0,0.0,
2.19535699999996,0.0,0.0,22102.0,0.0,0.0,0.0,0.0,0.125,0.812988198,0.01,0.0,-41021.0,0.0,0.0,-0.0,0.0,0.125,0.5017089330000001,0.01,0.0,21410.0,0.0,0.0,0.0,0.0,0.0,3.330077784,0.01,0.0,-1686.0,0.125,0.0,-0.0,0.0,0.25,1.5832517910000001,0.01,0.0,-0.38999998569488525,-1.090000033378601,-0.009999999776482582,-0.01953125,0.00811767578125,1.01654052734375,36.540000915527344,0.0,0.0,-5.071258544921875,2.4246673583984375,Closing,0.0,0.0,0.0,0.0,0.0,0.0,0.0,0.0,
2.275043000000005,0.0,0.0,22102.0,0.0,0.0,0.0,0.0,0.125,0.8142089010000001,0.01,0.0,-41021.0,0.0,0.0,-0.0,0.0,0.125,0.5017089330000001,0.01,0.0,21410.0,0.0,0.0,0.0,0.0,0.0,3.330077784,0.01,0.0,-1686.0,0.125,0.0,-0.0,0.0,0.25,1.5832517910000001,0.01,0.0,-0.3700000047683716,-1.090000033378601,-0.009999999776482582,-0.01458740234375,-0.005859375,1.0164794921875,36.54999923706055,0.0,4.0,-5.071258544921875,2.4247589111328125,Closing,0.0,0.0,0.0,0.0,0.0,0.0,0.0,0.0,
2.3647789999999804,0.0,0.0,22102.0,0.0,0.0,0.0,0.0,0.25,0.8166503070000001,0.01,0.0,-41021.0,0.0,0.0,-0.0,0.0,0.125,0.5017089330000001,0.01,-0.0012207029999995456,21410.0,0.0,0.0,0.0,0.0,0.0,3.330077784,0.01,0.0012207029999995456,-1686.0,0.125,0.0,-0.0,0.0,0.25,1.5832517910000001,0.01,-0.0012207030000004337,-0.3700000047683716,-1.090000033378601,-0.009999999776482582,-0.0155029296875,-0.0106201171875,0.98944091796875,36.54999923706055,0.0,3.0,-5.071258544921875,2.4247283935546875,Closing,0.0,0.0,0.0,0.0,0.0,0.0,0.0,0.0,
2.4469949999999954,0.0,0.0,22102.0,0.0,0.0,0.0,0.0,0.125,0.8154296040000001,0.01,0.0,-41021.0,0.0,0.0,-0.0,0.0,0.125,0.5017089330000001,0.01,0.0,21410.0,0.0,0.0,0.0,0.0,0.0,3.331298487,0.01,0.0,-1686.0,0.125,0.0,-0.0,0.0,0.25,1.5832517910000001,0.01,0.0,-0.3700000047683716,-1.090000033378601,-0.009999999776482582,-0.0228271484375,0.009521484375,0.99859619140625,36.54999923706055,0.0,-3.0,-5.071258544921875,2.424713134765625,Closing,0.0,0.0,0.0,0.0,0.0,0.0,0.0,0.0,
2.5276889999999548,0.0,0.0,22102.0,0.0,0.0,0.0,0.0,0.125,0.8142089010000001,0.01,0.0,-41021.0,0.0,0.0,-0.0,0.0,0.125,0.5017089330000001,0.01,0.0012207029999995456,21410.0,0.0,0.0,0.0,0.0,0.0,3.330077784,0.01,0.0,-1686.0,0.125,0.0,-0.0,0.0,0.25,1.5832517910000001,0.01,0.0,-0.3700000047683716,-1.090000033378601,-0.009999999776482582,-0.02374267578125,-0.0166015625,1.01251220703125,36.54999923706055,0.0,-4.0,-5.071258544921875,2.424713134765625,Closing,0.0,0.0,0.0,0.0,0.0,0.0,0.0,0.0,
2.606084999999963,0.0,0.0,22102.0,0.0,0.0,0.0,0.0,0.125,0.8154296040000001,0.01,-0.0012207030000004337,-41021.0,0.0,0.0,-0.0,0.0,0.125,0.5017089330000001,0.01,0.0,21410.0,0.0,0.0,0.0,0.0,0.0,3.330077784,0.01,0.0,-1686.0,0.125,0.0,-0.0,0.0,0.25,1.5832517910000001,0.01,0.0,-0.3700000047683716,-1.090000033378601,-0.019999999552965164,-0.018310546875,-0.0106201171875,1.0098876953125,36.54999923706055,0.0,0.0,-5.071258544921875,2.4246826171875,Closing,0.0,0.0,0.0,0.0,0.0,0.0,0.0,0.0,
2.685967000000004,0.0,0.0,22102.0,0.0,0.0,0.0,0.0,0.125,0.8142089010000001,0.01,0.0,-41021.0,0.0,0.0,-0.0,0.0,0.125,0.50048823,0.01,0.0,21410.0,0.0,0.0,0.0,0.0,0.0,3.330077784,0.01,0.0,-1686.0,0.125,0.0,-0.0,0.0,0.25,1.5832517910000001,0.01,0.0,-0.3700000047683716,-1.090000033378601,-0.019999999552965164,-0.013427734375,-0.01959228515625,1.024169921875,36.54999923706055,0.0,6.0,-5.071258544921875,2.4246826171875,Closing,0.0,0.0,0.0,0.0,0.0,0.0,0.0,0.0,
2.7626569999999484,0.0,0.0,22102.0,0.0,0.0,0.0,0.0,0.125,0.8142089010000001,0.01,0.0,-41021.0,0.0,0.0,-0.0,0.0,0.125,0.5029296360000001,0.01,0.0012207029999995456,21410.0,0.0,0.0,0.0,0.0,0.0,3.330077784,0.01,0.0,-1686.0,0.125,0.0,-0.0,0.0,0.25,1.5820310880000001,0.01,0.0,-0.3700000047683716,-1.090000033378601,-0.019999999552965164,-0.0220947265625,-0.028564453125,0.98931884765625,36.54999923706055,0.0,-3.0,-5.071258544921875,2.424652099609375,Closing,0.0,0.0,0.0,0.0,0.0,0.0,0.0,0.0,
2.8344869999999647,0.0,0.0,22102.0,0.0,0.0,0.0,0.0,0.125,0.8142089010000001,0.01,0.0,-41021.0,0.0,0.0,-0.0,0.0,0.125,0.5017089330000001,0.01,0.0,21410.0,0.0,0.0,0.0,0.0,0.0,3.330077784,0.01,0.0,-1686.0,0.125,0.0,-0.0,0.0,0.25,1.5832517910000001,0.01,0.0,-0.36000001430511475,-1.0800000429153442,-0.019999999552965164,-0.0269775390625,0.00897216796875,1.02545166015625,36.54999923706055,0.0,-7.0,-5.071258544921875,2.42462158203125,Closing,0.0,0.0,0.0,0.0,0.0,0.0,0.0,0.0,
2.9139130000000004,0.0,0.0,22102.0,0.0,0.0,0.0,0.0,0.125,0.8142089010000001,0.01,0.0,-41021.0,0.0,0.0,-0.0,0.0,0.125,0.50048823,0.01,0.0,21410.0,0.0,0.0,0.0,0.0,0.0,3.330077784,0.01,0.0012207029999995456,-1686.0,0.125,0.0,-0.0,0.0,0.25,1.5832517910000001,0.01,0.0,-0.36000001430511475,-1.0800000429153442,-0.019999999552965164,-0.0140380859375,-0.0023193359375,0.98504638671875,36.54999923706055,0.0,4.0,-5.071258544921875,2.42462158203125,Closing,0.0,0.0,0.0,0.0,0.0,0.0,0.0,0.0,
2.990953999999969,0.0,0.0,22102.0,0.0,0.0,0.0,0.0,0.125,0.8142089010000001,0.01,0.0,-41021.0,0.0,0.0,-0.0,0.0,0.125,0.5017089330000001,0.01,0.0,21410.0,0.0,0.0,0.0,0.0,0.0,3.330077784,0.01,0.0,-1686.0,0.125,0.0,-0.0,0.0,0.25,1.5820310880000001,0.01,0.0,-0.3700000047683716,-1.090000033378601,-0.019999999552965164,-0.00665283203125,-0.009033203125,1.0439453125,36.54999923706055,0.0,13.0,-5.071258544921875,2.4244232177734375,Closing,0.0,0.0,0.0,0.0,0.0,0.0,0.0,0.0,
3.0671030000000026,0.0,0.0,22102.0,0.0,0.0,0.0,0.0,0.125,0.8142089010000001,0.01,0.0,-41021.0,0.0,0.0,-0.0,0.0,0.125,0.5017089330000001,0.01,-0.0012207029999995456,21410.0,0.0,0.0,0.0,0.0,0.0,3.330077784,0.01,0.0,-1686.0,0.125,0.0,-0.0,0.0,0.25,1.5832517910000001,0.01,0.0,-0.36000001430511475,-1.0800000429153442,-0.019999999552965164,-0.01025390625,-0.0189208984375,1.008056640625,36.54999923706055,0.0,8.0,-5.071258544921875,2.424468994140625,Closing,0.0,0.0,0.0,0.0,0.0,0.0,0.0,0.0,
3.1436989999999643,0.0,0.0,22102.0,0.0,0.0,0.0,0.0,0.125,0.8166503070000001,0.01,0.0,-41021.0,0.0,0.0,-0.0,0.0,0.125,0.5017089330000001,0.01,0.0,21410.0,0.0,0.0,0.0,0.0,0.0,3.330077784,0.01,0.0,-1686.0,0.125,0.0,-0.0,0.0,0.25,1.5832517910000001,0.01,0.0,-0.36000001430511475,-1.0800000429153442,-0.019999999552965164,-0.01239013671875,-0.0142822265625,1.02764892578125,36.54999923706055,0.0,7.0,-5.071258544921875,2.4244384765625,Closing,0.0,0.0,0.0,0.0,0.0,0.0,0.0,0.0,
3.214125,0.0,0.0,22102.0,0.0,0.0,0.0,0.0,0.125,0.8142089010000001,0.01,0.0,-41021.0,0.0,0.0,-0.0,0.0,0.125,0.5017089330000001,0.01,0.0012207029999995456,21410.0,0.0,0.0,0.0,0.0,0.0,3.330077784,0.01,0.0,-1686.0,0.125,0.0,-0.0,0.0,0.25,1.5832517910000001,0.01,0.0,-0.3700000047683716,-1.090000033378601,-0.019999999552965164,-0.02392578125,-0.01116943359375,1.02459716796875,36.54999923706055,0.0,-4.0,-5.071258544921875,2.4244384765625,Closing,0.0,0.0,0.0,0.0,0.0,0.0,0.0,0.0,
3.2877669999999926,0.0,0.0,22102.0,0.0,0.0,0.0,0.0,0.125,0.8154296040000001,0.01,0.0,-41021.0,0.0,0.0,-0.0,0.0,0.125,0.5017089330000001,0.01,0.0,21410.0,0.0,0.0,0.0,0.0,0.0,3.330077784,0.01,0.0,-1686.0,0.125,0.0,-0.0,0.0,0.25,1.5820310880000001,0.01,0.0,-0.36000001430511475,-1.0800000429153442,-0.019999999552965164,-0.01934814453125,-0.01031494140625,1.01373291015625,36.540000915527344,0.0,0.0,-5.071258544921875,2.4244384765625,Closing,0.0,0.0,0.0,0.0,0.0,0.0,0.0,0.0,
3.3688530000000028,0.0,0.0,22102.0,0.0,0.0,0.0,0.0,0.125,0.8154296040000001,0.01,0.0,-41021.0,0.0,0.0,-0.0,0.0,0.125,0.5017089330000001,0.01,0.0,21410.0,0.0,0.0,0.0,0.0,0.0,3.330077784,0.01,-0.0012207029999995456,-1686.0,0.125,0.0,-0.0,0.0,0.25,1.5832517910000001,0.01,0.0,-0.36000001430511475,-1.0800000429153442,-0.019999999552965164,-0.01873779296875,-0.00872802734375,1.021728515625,36.540000915527344,0.0,0.0,-5.071258544921875,2.4244384765625,Closing,0.0,0.0,0.0,0.0,0.0,0.0,0.0,0.0,
3.447951000000001,0.0,0.0,22102.0,0.0,0.0,0.0,0.0,0.125,0.8142089010000001,0.01,0.0,-41021.0,0.0,0.0,-0.0,0.0,0.125,0.5017089330000001,0.01,0.0,21410.0,0.0,0.0,0.0,0.0,0.0,3.330077784,0.01,0.0,-1686.0,0.125,0.0,-0.0,0.0,0.25,1.5832517910000001,0.01,0.0,-0.36000001430511475,-1.0800000429153442,-0.019999999552965164,-0.0225830078125,-0.0057373046875,1.02154541015625,36.540000915527344,0.0,-3.0,-5.071258544921875,2.4244384765625,Closing,0.0,0.0,0.0,0.0,0.0,0.0,0.0,0.0,
3.5201539999999802,0.0,0.0,22102.0,0.0,0.0,0.0,0.0,0.125,0.8154296040000001,0.01,0.0,-41021.0,0.0,0.0,-0.0,0.0,0.125,0.50048823,0.01,0.0,21410.0,0.0,0.0,0.0,0.0,0.0,3.330077784,0.01,0.0,-1686.0,0.125,0.0,-0.0,0.0,0.25,1.5869139,0.01,0.0,-0.3499999940395355,-1.090000033378601,-0.019999999552965164,-0.0225830078125,-0.00579833984375,1.01690673828125,36.540000915527344,0.0,-3.0,-5.071258544921875,2.4244384765625,Closing,0.0,0.0,0.0,0.0,0.0,0.0,0.0,0.0,
3.5992280000000028,0.0,0.0,22102.0,0.0,0.0,0.0,0.0,0.125,0.8142089010000001,0.01,0.0,-41021.0,0.0,0.0,-0.0,0.0,0.125,0.5017089330000001,0.01,0.0,21410.0,0.0,0.0,0.0,0.0,0.0,3.330077784,0.01,0.0,-1686.0,0.125,0.0,-0.0,0.0,0.25,1.5832517910000001,0.01,0.0,-0.36000001430511475,-1.090000033378601,-0.019999999552965164,-0.01898193359375,-0.0047607421875,1.01824951171875,36.540000915527344,0.0,0.0,-5.071258544921875,2.4244384765625,Closing,0.0,0.0,0.0,0.0,0.0,0.0,0.0,0.0,
3.6730259999999544,0.0,0.0,22102.0,0.0,0.0,0.0,0.0,0.25,0.8142089010000001,0.01,0.0,-41021.0,0.0,0.0,-0.0,0.0,0.125,0.50048823,0.01,0.0012207029999995456,21410.0,0.0,0.0,0.0,0.0,0.0,3.330077784,0.01,0.0012207029999995456,-1686.0,0.125,0.0,-0.0,0.0,0.25,1.5820310880000001,0.01,0.0,-0.36000001430511475,-1.090000033378601,-0.019999999552965164,-0.0198974609375,-0.00604248046875,1.0184326171875,36.540000915527344,0.0,0.0,-5.071258544921875,2.4244384765625,Closing,0.0,0.0,0.0,0.0,0.0,0.0,0.0,0.0,
3.752281999999948,0.0,0.0,22102.0,0.0,0.0,0.0,0.0,0.125,0.8142089010000001,0.01,0.0,-41021.0,0.0,0.0,-0.0,0.0,0.125,0.5017089330000001,0.01,0.0,21410.0,0.0,0.0,0.0,0.0,0.0,3.330077784,0.01,0.0,-1686.0,0.0,0.0,-0.0,0.0,0.25,1.5832517910000001,0.01,0.0,-0.36000001430511475,-1.0800000429153442,-0.019999999552965164,-0.018310546875,-0.00823974609375,1.01776123046875,36.540000915527344,0.0,1.0,-5.071258544921875,2.4244384765625,Closing,0.0,0.0,0.0,0.0,0.0,0.0,0.0,0.0,
3.8266900000000024,0.0,0.0,22102.0,0.0,0.0,0.0,0.0,0.125,0.8154296040000001,0.01,0.0,-41021.0,0.0,0.0,-0.0,0.0,0.125,0.5017089330000001,0.01,-0.0012207029999995456,21410.0,0.0,0.0,0.0,0.0,0.0,3.330077784,0.01,0.0,-1686.0,0.125,0.0,-0.0,0.0,0.25,1.5832517910000001,0.01,0.0,-0.36000001430511475,-1.0800000429153442,-0.019999999552965164,-0.02044677734375,-0.00494384765625,1.021240234375,36.5099983215332,0.0,-1.0,-5.071258544921875,2.4244384765625,Closing,0.0,0.0,0.0,0.0,0.0,0.0,0.0,0.0,
3.9083919999999925,0.0,0.0,22102.0,0.0,0.0,0.0,0.0,0.125,0.8142089010000001,0.01,0.0,-41021.0,0.0,0.0,-0.0,0.0,0.125,0.5017089330000001,0.01,0.0,21410.0,0.0,0.0,0.0,0.0,0.0,3.331298487,0.01,0.0012207029999995456,-1686.0,0.125,0.0,-0.0,0.0,0.25,1.5820310880000001,0.01,0.0,-0.3700000047683716,-1.090000033378601,-0.019999999552965164,-0.01654052734375,-0.00726318359375,1.02398681640625,36.5099983215332,0.0,3.0,-5.071258544921875,2.4244384765625,Closing,0.0,0.0,0.0,0.0,0.0,0.0,0.0,0.0,
3.9815050000000047,0.0,0.0,22102.0,0.0,0.0,0.0,0.0,0.125,0.8154296040000001,0.01,0.0,-41021.0,0.0,0.0,-0.0,0.0,0.125,0.5017089330000001,0.01,0.0,21410.0,0.0,0.0,0.0,0.0,0.0,3.330077784,0.01,0.0,-1686.0,0.125,0.0,-0.0,0.0,0.25,1.5820310880000001,0.01,0.0,-0.3700000047683716,-1.090000033378601,-0.029999999329447746,-0.02081298828125,-0.0069580078125,1.02337646484375,36.5099983215332,0.0,-1.0,-5.071258544921875,2.4244384765625,Closing,0.0,0.0,0.0,0.0,0.0,0.0,0.0,0.0,
4.058173999999999,0.0,0.0,22102.0,0.0,0.0,0.0,0.0,0.125,0.8154296040000001,0.01,0.0,-41021.0,0.0,0.0,-0.0,0.0,0.125,0.5017089330000001,0.01,0.0,21410.0,0.0,0.0,0.0,0.0,0.0,3.330077784,0.01,0.0012207029999995456,-1686.0,0.125,0.0,-0.0,0.0,0.25,1.5820310880000001,0.01,0.0,-0.36000001430511475,-1.0800000429153442,-0.029999999329447746,-0.020263671875,-0.006591796875,1.0147705078125,36.5099983215332,0.0,0.0,-5.071258544921875,2.4244384765625,Closing,0.0,0.0,0.0,0.0,0.0,0.0,0.0,0.0,
4.130353000000003,0.0,0.0,22102.0,0.0,0.0,0.0,0.0,0.25,0.8142089010000001,0.01,0.0,-41021.0,0.0,0.0,-0.0,0.0,0.125,0.5017089330000001,0.01,0.0012207029999995456,21410.0,0.0,0.0,0.0,0.0,0.0,3.330077784,0.01,0.0,-1686.0,0.125,0.0,-0.0,0.0,0.25,1.5832517910000001,0.01,0.0,-0.36000001430511475,-1.0800000429153442,-0.029999999329447746,-0.01641845703125,-0.00762939453125,1.01788330078125,36.5099983215332,0.0,2.0,-5.071258544921875,2.4244384765625,Closing,0.0,0.0,0.0,0.0,0.0,0.0,0.0,0.0,
4.209125,0.0,0.0,22102.0,0.0,0.0,0.0,0.0,0.125,0.8142089010000001,0.01,0.0,-41021.0,0.0,0.0,-0.0,0.0,0.125,0.5017089330000001,0.01,-0.0012207029999995456,21410.0,0.0,0.0,0.0,0.0,0.0,3.330077784,0.01,0.0,-1686.0,0.125,0.0,-0.0,0.0,0.25,1.5832517910000001,0.01,0.0,-0.36000001430511475,-1.0800000429153442,-0.029999999329447746,-0.01947021484375,-0.0032958984375,1.01580810546875,36.5099983215332,0.0,0.0,-5.071258544921875,2.4244384765625,Closing,0.0,0.0,0.0,0.0,0.0,0.0,0.0,0.0,
4.284257999999973,0.0,0.0,22102.0,0.0,0.0,0.0,0.0,0.125,0.8142089010000001,0.01,0.0,-41021.0,0.0,0.0,-0.0,0.0,0.125,0.5017089330000001,0.01,0.0,21410.0,0.0,0.0,0.0,0.0,0.0,3.330077784,0.01,0.0,-1686.0,0.125,0.0,-0.0,0.0,0.25,1.5832517910000001,0.01,0.0,-0.36000001430511475,-1.0800000429153442,-0.03999999910593033,-0.0185546875,-0.0069580078125,1.01641845703125,36.529998779296875,0.0,0.0,-5.071258544921875,2.4244384765625,Closing,0.0,0.0,0.0,0.0,0.0,0.0,0.0,0.0,
4.363043999999994,0.0,0.0,22102.0,0.0,0.0,0.0,0.0,0.125,0.8154296040000001,0.01,0.0,-41021.0,0.0,0.0,-0.0,0.0,0.125,0.5017089330000001,0.01,0.0,21410.0,0.0,0.0,0.0,0.0,0.0,3.330077784,0.01,0.0,-1686.0,0.125,0.0,-0.0,0.0,0.25,1.5832517910000001,0.01,0.0,-0.36000001430511475,-1.090000033378601,-0.03999999910593033,-0.01788330078125,-0.00946044921875,1.02069091796875,36.529998779296875,0.0,1.0,-5.071258544921875,2.4244384765625,Closing,0.0,0.0,0.0,0.0,0.0,0.0,0.0,0.0,
4.449055999999982,0.0,0.0,22102.0,0.0,0.0,0.0,0.0,0.125,0.8142089010000001,0.01,0.0,-41021.0,0.0,0.0,-0.0,0.0,0.125,0.5029296360000001,0.01,0.0,21410.0,0.0,0.0,0.0,0.0,0.0,3.331298487,0.01,0.0,-1686.0,0.125,0.0,-0.0,0.0,0.25,1.5832517910000001,0.01,0.0,-0.3700000047683716,-1.090000033378601,-0.03999999910593033,-0.01904296875,-0.0074462890625,1.0184326171875,36.529998779296875,0.0,0.0,-5.071258544921875,2.4244384765625,Closing,0.0,0.0,0.0,0.0,0.0,0.0,0.0,0.0,
4.546691999999981,0.0,0.0,22102.0,0.0,0.0,0.0,0.0,0.125,0.8142089010000001,0.01,0.0,-41021.0,0.0,0.0,-0.0,0.0,0.125,0.5017089330000001,0.01,0.0,21410.0,0.0,0.0,0.0,0.0,0.0,3.330077784,0.01,0.0,-1686.0,0.125,0.0,-0.0,0.0,0.25,1.5832517910000001,0.01,0.0,-0.3700000047683716,-1.090000033378601,-0.03999999910593033,-0.01727294921875,-0.0059814453125,1.01849365234375,36.529998779296875,0.0,2.0,-5.071258544921875,2.4244384765625,Closing,0.0,0.0,0.0,0.0,0.0,0.0,0.0,0.0,
4.633290999999969,0.0,0.0,22102.0,0.0,0.0,0.0,0.0,0.125,0.8142089010000001,0.01,0.0,-41021.0,0.0,0.0,-0.0,0.0,0.125,0.5017089330000001,0.01,0.0,21410.0,0.0,0.0,0.0,0.0,0.0,3.331298487,0.01,0.0,-1686.0,0.125,0.0,-0.0,0.0,0.25,1.5832517910000001,0.01,0.0,-0.3700000047683716,-1.090000033378601,-0.03999999910593033,-0.019775390625,-0.00732421875,1.015625,36.529998779296875,0.0,0.0,-5.071258544921875,2.4244384765625,Closing,0.0,0.0,0.0,0.0,0.0,0.0,0.0,0.0,
4.843585999999952,0.0,0.0,22102.0,0.0,0.0,0.0,0.0,0.125,0.8142089010000001,0.01,0.0,-41021.0,0.0,0.0,-0.0,0.0,0.125,0.5017089330000001,0.01,0.0,21410.0,0.0,0.0,0.0,0.0,0.0,3.330077784,0.01,0.0,-1686.0,0.125,0.0,-0.0,0.0,0.25,1.5832517910000001,0.01,0.0,-0.3700000047683716,-1.090000033378601,-0.03999999910593033,-0.0220947265625,-0.02813720703125,1.02423095703125,36.52000045776367,0.0,-2.0,-5.0711669921875,2.424468994140625,Opening,0.0,0.0,0.0,0.0,0.0,0.0,0.0,0.0,
5.044758999999962,0.0,0.0,22102.0,0.0,0.0,0.0,0.0,0.125,0.8142089010000001,0.01,0.0,-41021.0,0.0,0.0,-0.0,0.0,0.125,0.5017089330000001,0.01,0.0,21410.0,0.0,0.0,0.0,0.0,0.0,3.328857081,0.01,0.0,-1686.0,0.125,0.0,-0.0,0.0,0.25,1.5820310880000001,0.01,0.0,-0.3499999940395355,-1.090000033378601,-0.03999999910593033,-0.01458740234375,0.0267333984375,0.9935302734375,36.52000045776367,0.0,4.0,-5.0711669921875,2.425140380859375,Opening,0.0,0.0,0.0,0.0,0.0,0.0,0.0,0.0,
5.173175999999978,0.0,0.0,22102.0,0.0,0.0,0.0,0.0,0.125,0.8142089010000001,0.01,0.0,-41021.0,0.0,0.0,-0.0,0.0,0.125,0.5017089330000001,0.01,0.0,21410.0,0.0,0.0,0.0,0.0,0.0,3.330077784,0.01,0.0,-1686.0,0.125,0.0,-0.0,0.0,0.25,1.5832517910000001,0.01,0.0,-0.3499999940395355,-1.090000033378601,-0.03999999910593033,-0.02227783203125,0.01361083984375,1.01263427734375,36.52000045776367,0.0,-2.0,-5.0711669921875,2.425262451171875,Opening,0.0,0.0,0.0,0.0,0.0,0.0,0.0,0.0,
5.290081999999995,0.0,0.0,22102.0,0.0,0.0,0.0,0.0,0.125,0.8166503070000001,0.01,0.0,-41021.0,0.0,0.0,-0.0,0.0,0.125,0.5017089330000001,0.01,0.0,21410.0,0.0,0.0,0.0,0.0,0.0,3.328857081,0.01,0.0,-1686.0,0.125,0.0,-0.0,0.0,0.25,1.5832517910000001,0.01,0.0,-0.3499999940395355,-1.090000033378601,-0.03999999910593033,-0.0140380859375,6.7138671875E-4,1.0185546875,36.52000045776367,0.0,5.0,-5.0711669921875,2.42529296875,Opening,0.0,0.0,0.0,0.0,0.0,0.0,0.0,0.0,
5.411637999999977,0.0,0.0,22102.0,0.0,0.0,0.0,0.0,0.125,0.8142089010000001,0.01,0.0,-41021.0,0.0,0.0,-0.0,0.0,0.125,0.5029296360000001,0.01,0.0,21410.0,0.0,0.0,0.0,0.0,0.0,3.330077784,0.01,0.0,-1686.0,0.125,0.0,-0.0,0.0,0.25,1.5832517910000001,0.01,0.0,-0.3499999940395355,-1.090000033378601,-0.05000000074505806,-0.02099609375,-0.02593994140625,0.9990234375,36.52000045776367,0.0,-1.0,-5.0711669921875,2.425445556640625,Opening,0.0,0.0,0.0,0.0,0.0,0.0,0.0,0.0,
5.572048999999999,0.0,0.0,22102.0,0.0,0.0,0.0,0.0,0.125,0.8142089010000001,0.01,0.0,-41021.0,0.0,0.0,-0.0,0.0,0.125,0.5017089330000001,0.01,0.0,21410.0,0.0,0.0,0.0,0.0,0.0,3.328857081,0.01,0.0,-1686.0,0.0,0.0,-0.0,0.0,0.25,1.5820310880000001,0.01,0.0,-0.36000001430511475,-1.100000023841858,-0.05000000074505806,-0.0140380859375,-0.0137939453125,0.99652099609375,36.52000045776367,0.0,-3.0,-5.0711669921875,2.42510986328125,Opening,0.0,0.0,0.0,0.0,0.0,0.0,0.0,0.0,
5.757790999999968,0.0,0.0,22102.0,0.0,0.0,0.0,0.0,0.125,0.8142089010000001,0.01,0.0,-41021.0,0.0,0.0,-0.0,0.0,0.125,0.5017089330000001,0.01,0.0,21410.0,0.0,0.0,0.0,0.0,0.0,3.331298487,0.01,0.0,-1686.0,0.125,0.0,-0.0,0.0,0.25,1.5832517910000001,0.01,0.0,-0.36000001430511475,-1.1100000143051147,-0.05000000074505806,-0.0205078125,0.00213623046875,1.010498046875,36.52000045776367,0.0,0.0,-5.0711669921875,2.4254608154296875,Opening,0.0,0.0,0.0,0.0,0.0,0.0,0.0,0.0,
5.976517999999982,0.0,0.0,22102.0,0.0,0.0,0.0,0.0,0.125,0.8154296040000001,0.01,0.0,-41021.0,0.0,0.0,-0.0,0.0,0.125,0.5017089330000001,0.01,0.0,21410.0,0.0,0.0,0.0,0.0,0.0,3.330077784,0.01,-0.0012207029999995456,-1686.0,0.0,0.0,-0.0,0.0,0.25,1.5832517910000001,0.01,0.0,-0.36000001430511475,-1.1100000143051147,-0.05000000074505806,-0.02294921875,-0.0052490234375,1.0233154296875,36.52000045776367,0.0,-3.0,-5.0711669921875,2.4254608154296875,Opening,0.0,0.0,0.0,0.0,0.0,0.0,0.0,0.0,
6.055378999999957,0.0,0.0,22102.0,0.0,0.0,0.0,0.0,0.125,0.8154296040000001,0.01,0.0,-41021.0,0.0,0.0,-0.0,0.0,0.125,0.5017089330000001,0.01,0.0,21410.0,0.0,0.0,0.0,0.0,0.0,3.330077784,0.01,0.0,-1686.0,0.125,0.0,-0.0,0.0,0.25,1.5820310880000001,0.01,0.0,-0.36000001430511475,-1.1100000143051147,-0.05000000074505806,-0.01617431640625,-0.00701904296875,1.01483154296875,36.52000045776367,0.0,3.0,-5.0711669921875,2.4254608154296875,Opening,0.0,0.0,0.0,0.0,0.0,0.0,0.0,0.0,
6.130157999999996,0.0,0.0,22102.0,0.0,0.0,0.0,0.0,0.125,0.8142089010000001,0.01,0.0,-41021.0,0.0,0.0,-0.0,0.0,0.125,0.5017089330000001,0.01,0.0,21410.0,0.0,0.0,0.0,0.0,0.0,3.330077784,0.01,0.0012207029999995456,-1686.0,0.125,0.0,-0.0,0.0,0.25,1.5832517910000001,0.01,0.0,-0.36000001430511475,-1.100000023841858,-0.05000000074505806,-0.0211181640625,-0.0096435546875,1.02886962890625,36.52000045776367,0.0,-1.0,-5.0711669921875,2.4254608154296875,Opening,0.0,0.0,0.0,0.0,0.0,0.0,0.0,0.0,
6.206599999999977,0.0,0.0,22102.0,0.0,0.0,0.0,0.0,0.125,0.8142089010000001,0.01,0.0,-41021.0,0.0,0.0,-0.0,0.0,0.125,0.5017089330000001,0.01,0.0,21410.0,0.0,0.0,0.0,0.0,0.0,3.330077784,0.01,-0.0012207029999995456,-1686.0,0.125,0.0,-0.0,0.0,0.25,1.5844724940000001,0.01,0.0,-0.36000001430511475,-1.1100000143051147,-0.05000000074505806,-0.01959228515625,0.0115966796875,1.00714111328125,36.52000045776367,0.0,0.0,-5.0711669921875,2.4254608154296875,Closing,0.0,0.0,0.0,0.0,0.0,0.0,0.0,0.0,
6.276949999999953,0.0,0.0,22102.0,0.0,0.0,0.0,0.0,0.125,0.8154296040000001,0.01,0.0,-41021.0,0.0,0.0,-0.0,0.0,0.125,0.5017089330000001,0.01,-0.0012207029999995456,21410.0,0.0,0.0,0.0,0.0,0.0,3.330077784,0.01,0.0,-1686.0,0.125,0.0,-0.0,0.0,0.25,1.5820310880000001,0.01,0.0,-0.36000001430511475,-1.1100000143051147,-0.05000000074505806,-0.01556396484375,-0.01177978515625,1.00439453125,36.52000045776367,0.0,3.0,-5.0711669921875,2.425323486328125,Closing,0.0,0.0,0.0,0.0,0.0,0.0,0.0,0.0,
6.354887999999977,0.0,0.0,22102.0,0.0,0.0,0.0,0.0,0.125,0.8154296040000001,0.01,0.0,-41021.0,0.0,0.0,-0.0,0.0,0.125,0.50048823,0.01,0.0,21410.0,0.0,0.0,0.0,0.0,0.0,3.330077784,0.01,0.0,-1686.0,0.125,0.0,-0.0,0.0,0.25,1.5832517910000001,0.01,-0.0012207030000004337,-0.36000001430511475,-1.1100000143051147,-0.05000000074505806,-0.027099609375,-0.009765625,1.04296875,36.540000915527344,0.0,-6.0,-5.0711669921875,2.4252166748046875,Closing,0.0,0.0,0.0,0.0,0.0,0.0,0.0,0.0,
6.429121999999974,0.0,0.0,22102.0,0.0,0.0,0.0,0.0,0.125,0.8154296040000001,0.01,0.0,-41021.0,0.0,0.0,-0.0,0.0,0.125,0.5017089330000001,0.01,0.0,21410.0,0.0,0.0,0.0,0.0,0.0,3.330077784,0.01,0.0,-1686.0,0.125,0.0,-0.0,0.0,0.25,1.5832517910000001,0.01,0.0,-0.3700000047683716,-1.100000023841858,-0.05000000074505806,-0.0113525390625,3.0517578125E-4,1.02935791015625,36.540000915527344,0.0,8.0,-5.0711669921875,2.4251861572265625,Closing,0.0,0.0,0.0,0.0,0.0,0.0,0.0,0.0,
6.5075069999999835,0.0,0.0,22102.0,0.0,0.0,0.0,0.0,0.25,0.8142089010000001,0.01,0.0,-41021.0,0.0,0.0,-0.0,0.0,0.125,0.5017089330000001,0.01,0.0,21410.0,0.0,0.0,0.0,0.0,0.0,3.330077784,0.01,0.0,-1686.0,0.0,0.0,-0.0,0.0,0.25,1.5832517910000001,0.01,0.0,-0.36000001430511475,-1.100000023841858,-0.05000000074505806,-0.0361328125,-0.01971435546875,1.0223388671875,36.540000915527344,0.0,-16.0,-5.0711669921875,2.4251708984375,Closing,0.0,0.0,0.0,0.0,0.0,0.0,0.0,0.0,
6.58059699999995,0.0,0.0,22102.0,0.0,0.0,0.0,0.0,0.125,0.8166503070000001,0.01,0.0,-41021.0,0.0,0.0,-0.0,0.0,0.125,0.50048823,0.01,0.0,21410.0,0.0,0.0,0.0,0.0,0.0,3.330077784,0.01,0.0,-1686.0,0.125,0.0,-0.0,0.0,0.25,1.5820310880000001,0.01,0.0,-0.3799999952316284,-1.100000023841858,-0.05000000074505806,-0.01611328125,-4.8828125E-4,1.01959228515625,36.540000915527344,0.0,3.0,-5.0711669921875,2.4251708984375,Closing,0.0,0.0,0.0,0.0,0.0,0.0,0.0,0.0,
6.659195999999996,0.0,0.0,22102.0,0.0,0.0,0.0,0.0,0.125,0.8166503070000001,0.01,0.0,-41021.0,0.0,0.0,-0.0,0.0,0.125,0.5017089330000001,0.01,0.0,21410.0,0.0,0.0,0.0,0.0,0.0,3.330077784,0.01,0.0,-1686.0,0.125,0.0,-0.0,0.0,0.25,1.5820310880000001,0.01,0.0,-0.3700000047683716,-1.090000033378601,-0.05000000074505806,-0.01776123046875,-0.02789306640625,1.022216796875,36.540000915527344,0.0,1.0,-5.0711669921875,2.4253387451171875,Closing,0.0,0.0,0.0,0.0,0.0,0.0,0.0,0.0,
6.733059999999997,0.0,0.0,22102.0,0.0,0.0,0.0,0.0,0.125,0.8154296040000001,0.01,0.0,-41021.0,0.0,0.0,-0.0,0.0,0.125,0.5017089330000001,0.01,0.0012207029999995456,21410.0,0.0,0.0,0.0,0.0,0.0,3.330077784,0.01,0.0,-1686.0,0.125,0.0,-0.0,0.0,0.25,1.5832517910000001,0.01,0.0,-0.3700000047683716,-1.100000023841858,-0.05000000074505806,-0.01971435546875,-0.0137939453125,0.97918701171875,36.540000915527344,0.0,0.0,-5.0711212158203125,2.4253997802734375,Closing,0.0,0.0,0.0,0.0,0.0,0.0,0.0,0.0,
6.8103629999999535,0.0,0.0,22102.0,0.0,0.0,0.0,0.0,0.125,0.8142089010000001,0.01,0.0,-41021.0,0.0,0.0,-0.0,0.0,0.125,0.5017089330000001,0.01,-0.0012207029999995456,21410.0,0.0,0.0,0.0,0.0,0.0,3.330077784,0.01,0.0,-1686.0,0.125,0.0,-0.0,0.0,0.25,1.5820310880000001,0.01,0.0,-0.3700000047683716,-1.100000023841858,-0.05000000074505806,-0.0107421875,-0.0087890625,1.00604248046875,36.540000915527344,0.0,8.0,-5.07110595703125,2.4252471923828125,Closing,0.0,0.0,0.0,0.0,0.0,0.0,0.0,0.0,
6.885375999999989,0.0,0.0,22102.0,0.0,0.0,0.0,0.0,0.125,0.8142089010000001,0.01,0.0,-41021.0,0.0,0.0,-0.0,0.0,0.125,0.5017089330000001,0.01,0.0,21410.0,0.0,0.0,0.0,0.0,0.0,3.330077784,0.01,0.0,-1686.0,0.125,0.0,-0.0,0.0,0.25,1.5820310880000001,0.01,0.0,-0.3700000047683716,-1.100000023841858,-0.05000000074505806,-0.023193359375,-0.0087890625,1.02288818359375,36.529998779296875,0.0,-3.0,-5.07110595703125,2.4252471923828125,Closing,0.0,0.0,0.0,0.0,0.0,0.0,0.0,0.0,
6.965212999999989,0.0,0.0,22102.0,0.0,0.0,0.0,0.0,0.125,0.8142089010000001,0.01,0.0,-41021.0,0.0,0.0,-0.0,0.0,0.125,0.5017089330000001,0.01,0.0012207029999995456,21410.0,0.0,0.0,0.0,0.0,0.0,3.330077784,0.01,0.0,-1686.0,0.125,0.0,-0.0,0.0,0.25,1.5832517910000001,0.01,0.0,-0.3700000047683716,-1.100000023841858,-0.05000000074505806,-0.0281982421875,-0.01531982421875,1.00726318359375,36.529998779296875,0.0,-8.0,-5.07110595703125,2.425323486328125,Closing,0.0,0.0,0.0,0.0,0.0,0.0,0.0,0.0,
7.035210999999952,0.0,0.0,22102.0,0.0,0.0,0.0,0.0,0.125,0.8154296040000001,0.01,0.0,-41021.0,0.0,0.0,-0.0,0.0,0.125,0.5017089330000001,0.01,-0.0012207029999995456,21410.0,0.0,0.0,0.0,0.0,0.0,3.328857081,0.01,0.0,-1686.0,0.125,0.0,-0.0,0.0,0.25,1.5820310880000001,0.01,0.0,-0.3700000047683716,-1.090000033378601,-0.05000000074505806,-0.02032470703125,-0.0125732421875,1.02423095703125,36.529998779296875,0.0,0.0,-5.07110595703125,2.4253387451171875,Closing,0.0,0.0,0.0,0.0,0.0,0.0,0.0,0.0,
7.112440000000002,0.0,0.0,22102.0,0.0,0.0,0.0,0.0,0.125,0.812988198,0.01,0.0,-41021.0,0.0,0.0,-0.0,0.0,0.125,0.5017089330000001,0.01,0.0,21410.0,0.0,0.0,0.0,0.0,0.0,3.331298487,0.01,0.0012207029999995456,-1686.0,0.125,0.0,-0.0,0.0,0.25,1.5832517910000001,0.01,0.0,-0.3700000047683716,-1.090000033378601,-0.05000000074505806,-0.00982666015625,-0.01470947265625,1.0089111328125,36.529998779296875,0.0,9.0,-5.07110595703125,2.42529296875,Closing,0.0,0.0,0.0,0.0,0.0,0.0,0.0,0.0,
7.186957999999984,0.0,0.0,22102.0,0.0,0.0,0.0,0.0,0.25,0.8142089010000001,0.01,0.0,-41021.0,0.0,0.0,-0.0,0.0,0.125,0.5017089330000001,0.01,0.0,21410.0,0.0,0.0,0.0,0.0,0.0,3.3276363780000002,0.01,0.0,-1686.0,0.0,0.0,-0.0,0.0,0.25,1.5820310880000001,0.01,0.0,-0.36000001430511475,-1.100000023841858,-0.05000000074505806,-0.0086669921875,0.01129150390625,1.03564453125,36.529998779296875,0.0,11.0,-5.07110595703125,2.42529296875,Closing,0.0,0.0,0.0,0.0,0.0,0.0,0.0,0.0,
7.263038000000001,0.0,0.0,22102.0,0.0,0.0,0.0,0.0,0.125,0.8142089010000001,0.01,0.0,-41021.0,0.0,0.0,-0.0,0.0,0.125,0.5017089330000001,0.01,0.0,21410.0,0.0,0.0,0.0,0.0,0.0,3.330077784,0.01,0.0,-1686.0,0.125,0.0,-0.0,0.0,0.25,1.5832517910000001,0.01,0.0,-0.36000001430511475,-1.100000023841858,-0.05000000074505806,-0.02081298828125,-0.02783203125,0.99853515625,36.529998779296875,0.0,-1.0,-5.07110595703125,2.425262451171875,Closing,0.0,0.0,0.0,0.0,0.0,0.0,0.0,0.0,
7.333313999999955,0.0,0.0,22102.0,0.0,0.0,0.0,0.0,0.125,0.8154296040000001,0.01,0.0,-41021.0,0.0,0.0,-0.0,0.0,0.125,0.50048823,0.01,0.0,21410.0,0.0,0.0,0.0,0.0,0.0,3.330077784,0.01,0.0,-1686.0,0.125,0.0,-0.0,0.0,0.25,1.5832517910000001,0.01,0.0,-0.3499999940395355,-1.090000033378601,-0.05000000074505806,-0.01336669921875,-0.00518798828125,1.0279541015625,36.529998779296875,0.0,6.0,-5.07110595703125,2.425140380859375,Closing,0.0,0.0,0.0,0.0,0.0,0.0,0.0,0.0,
7.411391000000004,0.0,0.0,22102.0,0.0,0.0,0.0,0.0,0.125,0.8142089010000001,0.01,0.0,-41021.0,0.0,0.0,-0.0,0.0,0.125,0.5017089330000001,0.01,0.0,21410.0,0.0,0.0,0.0,0.0,0.0,3.330077784,0.01,0.0012207029999995456,-1686.0,0.0,0.0,-0.0,0.0,0.25,1.5832517910000001,0.01,0.0,-0.3499999940395355,-1.090000033378601,-0.05000000074505806,-0.02264404296875,-0.02490234375,1.03350830078125,36.529998779296875,0.0,-2.0,-5.07110595703125,2.425262451171875,Closing,0.0,0.0,0.0,0.0,0.0,0.0,0.0,0.0,
7.487985999999975,0.0,0.0,22102.0,0.0,0.0,0.0,0.0,0.25,0.8142089010000001,0.01,0.0,-41021.0,0.0,0.0,-0.0,0.0,0.125,0.5017089330000001,0.01,0.0,21410.0,0.0,0.0,0.0,0.0,0.0,3.330077784,0.01,0.0,-1686.0,0.125,0.0,-0.0,0.0,0.25,1.5820310880000001,0.01,0.0,-0.3499999940395355,-1.090000033378601,-0.05000000074505806,-0.011474609375,-0.00262451171875,1.026611328125,36.529998779296875,0.0,8.0,-5.07110595703125,2.4252777099609375,Closing,0.0,0.0,0.0,0.0,0.0,0.0,0.0,0.0,
7.567299999999988,0.0,0.0,22102.0,0.0,0.0,0.0,0.0,0.125,0.8142089010000001,0.01,0.0,-41021.0,0.0,0.0,-0.0,0.0,0.125,0.5017089330000001,0.01,0.0,21410.0,0.0,0.0,0.0,0.0,0.0,3.330077784,0.01,0.0,-1686.0,0.125,0.0,-0.0,0.0,0.25,1.5844724940000001,0.01,0.0,-0.3499999940395355,-1.090000033378601,-0.05000000074505806,-0.028564453125,0.008056640625,1.02423095703125,36.529998779296875,0.0,6.0,-5.07110595703125,2.4252166748046875,Closing,0.0,0.0,0.0,0.0,0.0,0.0,0.0,0.0,
7.6423910000000035,0.0,0.0,22102.0,0.0,0.0,0.0,0.0,0.125,0.8154296040000001,0.01,0.0,-41021.0,0.0,0.0,-0.0,0.0,0.125,0.50048823,0.01,0.0,21410.0,0.0,0.0,0.0,0.0,0.0,3.331298487,0.01,0.0,-1686.0,0.125,0.0,-0.0,0.0,0.25,1.5832517910000001,0.01,0.0,-0.3499999940395355,-1.090000033378601,-0.05000000074505806,-0.01593017578125,3.662109375E-4,1.02337646484375,36.529998779296875,0.0,3.0,-5.07110595703125,2.4252777099609375,Closing,0.0,0.0,0.0,0.0,0.0,0.0,0.0,0.0,
7.72174099999998,0.0,0.0,22102.0,0.0,0.0,0.0,0.0,0.125,0.8142089010000001,0.01,0.0,-41021.0,0.0,0.0,-0.0,0.0,0.125,0.5017089330000001,0.01,0.0,21410.0,0.0,0.0,0.0,0.0,0.0,3.330077784,0.01,0.0012207029999995456,-1686.0,0.125,0.0,-0.0,0.0,0.25,1.5832517910000001,0.01,0.0,-0.3499999940395355,-1.090000033378601,-0.05000000074505806,-0.02362060546875,-0.00439453125,1.01617431640625,36.529998779296875,0.0,-4.0,-5.07110595703125,2.4252777099609375,Closing,0.0,0.0,0.0,0.0,0.0,0.0,0.0,0.0,
7.794253999999957,0.0,0.0,22102.0,0.0,0.0,0.0,0.0,0.125,0.8142089010000001,0.01,0.0,-41021.0,0.0,0.0,-0.0,0.0,0.125,0.50048823,0.01,0.0,21410.0,0.0,0.0,0.0,0.0,0.0,3.330077784,0.01,0.0,-1686.0,0.125,0.0,-0.0,0.0,0.25,1.5832517910000001,0.01,0.0,-0.3499999940395355,-1.090000033378601,-0.05000000074505806,-0.0164794921875,0.00360107421875,1.0235595703125,36.529998779296875,0.0,3.0,-5.07110595703125,2.4252777099609375,Closing,0.0,0.0,0.0,0.0,0.0,0.0,0.0,0.0,
7.871968999999983,0.0,0.0,22102.0,0.0,0.0,0.0,0.0,0.25,0.8142089010000001,0.01,0.0,-41021.0,0.0,0.0,-0.0,0.0,0.125,0.5017089330000001,0.01,0.0,21410.0,0.0,0.0,0.0,0.0,0.0,3.330077784,0.01,0.0012207029999995456,-1686.0,0.125,0.0,-0.0,0.0,0.25,1.5820310880000001,0.01,0.0,-0.3499999940395355,-1.090000033378601,-0.05000000074505806,-0.01971435546875,-0.00750732421875,1.01873779296875,36.52000045776367,0.0,0.0,-5.07110595703125,2.4252777099609375,Closing,0.0,0.0,0.0,0.0,0.0,0.0,0.0,0.0,
7.947039999999979,0.0,0.0,22102.0,0.0,0.0,0.0,0.0,0.125,0.8142089010000001,0.01,0.0,-41021.0,0.0,0.0,-0.0,0.0,0.125,0.5017089330000001,0.01,0.0,21410.0,0.0,0.0,0.0,0.0,0.0,3.330077784,0.01,0.0,-1686.0,0.0,0.0,-0.0,0.0,0.25,1.5832517910000001,0.01,0.0,-0.3499999940395355,-1.090000033378601,-0.05000000074505806,-0.01971435546875,-0.00457763671875,1.01788330078125,36.52000045776367,0.0,0.0,-5.07110595703125,2.4252777099609375,Closing,0.0,0.0,0.0,0.0,0.0,0.0,0.0,0.0,
8.025826,0.0,0.0,22102.0,0.0,0.0,0.0,0.0,0.125,0.8154296040000001,0.01,0.0,-41021.0,0.0,0.0,-0.0,0.0,0.125,0.5017089330000001,0.01,0.0,21410.0,0.0,0.0,0.0,0.0,0.0,3.330077784,0.01,0.0,-1686.0,0.125,0.0,-0.0,0.0,0.25,1.5832517910000001,0.01,0.0,-0.36000001430511475,-1.100000023841858,-0.05000000074505806,-0.01751708984375,-0.00775146484375,1.0201416015625,36.52000045776367,0.0,2.0,-5.07110595703125,2.4252777099609375,Closing,0.0,0.0,0.0,0.0,0.0,0.0,0.0,0.0,
8.09644499999995,0.0,0.0,22102.0,0.0,0.0,0.0,0.0,0.125,0.8142089010000001,0.01,0.0,-41021.0,0.0,0.0,-0.0,0.0,0.125,0.5017089330000001,0.01,0.0,21410.0,0.0,0.0,0.0,0.0,0.0,3.330077784,0.01,0.0,-1686.0,0.0,0.0,-0.0,0.0,0.25,1.5820310880000001,0.01,0.0,-0.36000001430511475,-1.100000023841858,-0.05000000074505806,-0.02105712890625,-0.00885009765625,1.0196533203125,36.52000045776367,0.0,-1.0,-5.07110595703125,2.4252777099609375,Closing,0.0,0.0,0.0,0.0,0.0,0.0,0.0,0.0,
8.185922999999951,0.0,0.0,22102.0,0.0,0.0,0.0,0.0,0.125,0.8154296040000001,0.01,0.0,-41021.0,0.0,0.0,-0.0,0.0,0.125,0.5017089330000001,0.01,0.0012207029999995456,21410.0,0.0,0.0,0.0,0.0,0.0,3.330077784,0.01,0.0,-1686.0,0.125,0.0,-0.0,0.0,0.25,1.5832517910000001,0.01,0.0,-0.36000001430511475,-1.100000023841858,-0.05000000074505806,-0.02099609375,-0.00927734375,1.02239990234375,36.52000045776367,0.0,-1.0,-5.07110595703125,2.4252777099609375,Closing,0.0,0.0,0.0,0.0,0.0,0.0,0.0,0.0,
8.268206000000006,0.0,0.0,22102.0,0.0,0.0,0.0,0.0,0.125,0.8142089010000001,0.01,0.0,-41021.0,0.0,0.0,-0.0,0.0,0.125,0.5017089330000001,0.01,-0.0012207029999995456,21410.0,0.0,0.0,0.0,0.0,0.0,3.328857081,0.01,0.0,-1686.0,0.125,0.0,-0.0,0.0,0.25,1.5820310880000001,0.01,0.0,-0.36000001430511475,-1.100000023841858,-0.05000000074505806,-0.02117919921875,-0.0035400390625,1.02001953125,36.52000045776367,0.0,-1.0,-5.07110595703125,2.4252777099609375,Closing,0.0,0.0,0.0,0.0,0.0,0.0,0.0,0.0,
8.346859999999985,0.0,0.0,22102.0,0.0,0.0,0.0,0.0,0.125,0.8142089010000001,0.01,0.0,-41021.0,0.0,0.0,-0.0,0.0,0.125,0.50048823,0.01,0.0,21410.0,0.0,0.0,0.0,0.0,0.0,3.328857081,0.01,0.0,-1686.0,0.125,0.0,-0.0,0.0,0.25,1.5832517910000001,0.01,0.0,-0.36000001430511475,-1.100000023841858,-0.05000000074505806,-0.0166015625,-0.00653076171875,1.01824951171875,36.529998779296875,0.0,3.0,-5.07110595703125,2.4252777099609375,Closing,0.0,0.0,0.0,0.0,0.0,0.0,0.0,0.0,
8.431066999999981,0.0,0.0,22102.0,0.0,0.0,0.0,0.0,0.125,0.8154296040000001,0.01,0.0,-41021.0,0.0,0.0,-0.0,0.0,0.125,0.5017089330000001,0.01,0.0,21410.0,0.0,0.0,0.0,0.0,0.0,3.330077784,0.01,0.0012207029999995456,-1686.0,0.125,0.0,-0.0,0.0,0.25,1.5832517910000001,0.01,0.0,-0.3700000047683716,-1.090000033378601,-0.05000000074505806,-0.02197265625,-0.00555419921875,1.0172119140625,36.529998779296875,0.0,-2.0,-5.07110595703125,2.4252777099609375,Closing,0.0,0.0,0.0,0.0,0.0,0.0,0.0,0.0,
8.512358999999996,0.0,0.0,22102.0,0.0,0.0,0.0,0.0,0.125,0.8142089010000001,0.01,0.0,-41021.0,0.0,0.0,-0.0,0.0,0.125,0.5017089330000001,0.01,0.0,21410.0,0.0,0.0,0.0,0.0,0.0,3.333739893,0.01,0.0,-1686.0,0.125,0.0,-0.0,0.0,0.25,1.5832517910000001,0.01,0.0,-0.3700000047683716,-1.090000033378601,-0.05000000074505806,-0.0201416015625,-0.0068359375,1.02349853515625,36.529998779296875,0.0,0.0,-5.07110595703125,2.4252777099609375,Closing,0.0,0.0,0.0,0.0,0.0,0.0,0.0,0.0,
8.591497999999962,0.0,0.0,22102.0,0.0,0.0,0.0,0.0,0.25,0.8142089010000001,0.01,0.0,-41021.0,0.0,0.0,-0.0,0.0,0.125,0.5017089330000001,0.01,0.0,21410.0,0.0,0.0,0.0,0.0,0.0,3.330077784,0.01,0.0,-1686.0,0.0,0.0,-0.0,0.0,0.25,1.5832517910000001,0.01,0.0,-0.3700000047683716,-1.090000033378601,-0.05000000074505806,-0.01702880859375,-0.00927734375,1.0186767578125,36.529998779296875,0.0,2.0,-5.07110595703125,2.4252777099609375,Closing,0.0,0.0,0.0,0.0,0.0,0.0,0.0,0.0,
8.675184999999997,0.0,0.0,22102.0,0.0,0.0,0.0,0.0,0.125,0.8142089010000001,0.01,0.0,-41021.0,0.0,0.0,-0.0,0.0,0.125,0.5017089330000001,0.01,0.0,21410.0,0.0,0.0,0.0,0.0,0.0,3.330077784,0.01,0.0,-1686.0,0.125,0.0,-0.0,0.0,0.25,1.5832517910000001,0.01,0.0,-0.3700000047683716,-1.090000033378601,-0.05000000074505806,-0.01702880859375,-0.01031494140625,1.01708984375,36.529998779296875,0.0,2.0,-5.07110595703125,2.4252777099609375,Closing,0.0,0.0,0.0,0.0,0.0,0.0,0.0,0.0,
8.760892999999982,0.0,0.0,22102.0,0.0,0.0,0.0,0.0,0.125,0.8142089010000001,0.01,0.0,-41021.0,0.0,0.0,-0.0,0.0,0.125,0.5017089330000001,0.01,0.0,21410.0,0.0,0.0,0.0,0.0,0.0,3.330077784,0.01,-0.0012207029999995456,-1686.0,0.0,0.0,-0.0,0.0,0.25,1.5844724940000001,0.01,0.0,-0.36000001430511475,-1.0800000429153442,-0.05000000074505806,-0.01959228515625,-0.00616455078125,1.0135498046875,36.529998779296875,0.0,0.0,-5.07110595703125,2.4252777099609375,Closing,0.0,0.0,0.0,0.0,0.0,0.0,0.0,0.0,
8.843005999999994,0.0,0.0,22102.0,0.0,0.0,0.0,0.0,0.125,0.8154296040000001,0.01,0.0,-41021.0,0.0,0.0,-0.0,0.0,0.125,0.5017089330000001,0.01,0.0,21410.0,0.0,0.0,0.0,0.0,0.0,3.330077784,0.01,0.0,-1686.0,0.125,0.0,-0.0,0.0,0.25,1.5832517910000001,0.01,0.0,-0.36000001430511475,-1.0800000429153442,-0.05000000074505806,-0.0167236328125,-0.009033203125,1.01983642578125,36.529998779296875,0.0,2.0,-5.07110595703125,2.4252777099609375,Closing,0.0,0.0,0.0,0.0,0.0,0.0,0.0,0.0,
8.92789499999996,0.0,0.0,22102.0,0.0,0.0,0.0,0.0,0.125,0.8142089010000001,0.01,0.0,-41021.0,0.0,0.0,-0.0,0.0,0.125,0.5017089330000001,0.01,-0.0012207029999995456,21410.0,0.0,0.0,0.0,0.0,0.0,3.331298487,0.01,-0.0012207029999995456,-1686.0,0.125,0.0,-0.0,0.0,0.25,1.5832517910000001,0.01,0.0,-0.36000001430511475,-1.0800000429153442,-0.05999999865889549,-0.0198974609375,-0.0040283203125,1.01739501953125,36.540000915527344,0.0,0.0,-5.07110595703125,2.4252777099609375,Closing,0.0,0.0,0.0,0.0,0.0,0.0,0.0,0.0,
9.00870199999999,0.0,0.0,22102.0,0.0,0.0,0.0,0.0,0.125,0.8142089010000001,0.01,0.0,-41021.0,0.0,0.0,-0.0,0.0,0.125,0.5017089330000001,0.01,0.0,21410.0,0.0,0.0,0.0,0.0,0.0,3.330077784,0.01,0.0,-1686.0,0.125,0.0,-0.0,0.0,0.25,1.5820310880000001,0.01,0.0,-0.36000001430511475,-1.0800000429153442,-0.05999999865889549,-0.01849365234375,-0.00701904296875,1.02227783203125,36.540000915527344,0.0,0.0,-5.07110595703125,2.4252777099609375,Closing,0.0,0.0,0.0,0.0,0.0,0.0,0.0,0.0,
9.086925999999977,0.0,0.0,22102.0,0.0,0.0,0.0,0.0,0.25,0.8142089010000001,0.01,0.0,-41021.0,0.0,0.0,-0.0,0.0,0.125,0.5017089330000001,0.01,0.0,21410.0,0.0,0.0,0.0,0.0,0.0,3.330077784,0.01,0.0,-1686.0,0.0,0.0,-0.0,0.0,0.25,1.5832517910000001,0.01,0.0,-0.36000001430511475,-1.0800000429153442,-0.05999999865889549,-0.019775390625,-0.00494384765625,1.01702880859375,36.540000915527344,0.0,0.0,-5.07110595703125,2.4252777099609375,Closing,0.0,0.0,0.0,0.0,0.0,0.0,0.0,0.125,
9.168876999999979,0.0,0.0,22102.0,0.0,0.0,0.0,0.0,0.125,0.8142089010000001,0.01,0.0,-41021.0,0.0,0.0,-0.0,0.0,0.125,0.5017089330000001,0.01,0.0,21410.0,0.0,0.0,0.0,0.0,0.0,3.330077784,0.01,0.0,-1686.0,0.125,0.0,-0.0,0.0,0.25,1.5832517910000001,0.01,0.0,-0.36000001430511475,-1.0800000429153442,-0.05999999865889549,-0.02447509765625,-0.00299072265625,1.0216064453125,36.540000915527344,0.0,-5.0,-5.07110595703125,2.4252777099609375,Closing,0.0,0.0,0.0,0.0,0.0,0.0,0.0,0.0,
9.248652000000002,0.0,0.0,22102.0,0.0,0.0,0.0,0.0,0.125,0.812988198,0.01,0.0,-41021.0,0.0,0.0,-0.0,0.0,0.125,0.5017089330000001,0.01,0.0,21410.0,0.0,0.0,0.0,0.0,0.0,3.328857081,0.01,0.0,-1686.0,0.125,0.0,-0.0,0.0,0.25,1.5820310880000001,0.01,0.0,-0.36000001430511475,-1.0800000429153442,-0.07000000029802322,-0.0177001953125,-0.00750732421875,1.02020263671875,36.540000915527344,0.0,1.0,-5.07110595703125,2.4252777099609375,Closing,0.0,0.0,0.0,0.0,0.0,0.0,0.0,0.0,
9.331489000000001,0.0,0.0,22102.0,0.0,0.0,0.0,0.0,0.25,0.8142089010000001,0.01,0.0,-41021.0,0.0,0.0,-0.0,0.0,0.125,0.5029296360000001,0.01,0.0,21410.0,0.0,0.0,0.0,0.0,0.0,3.330077784,0.01,0.0012207029999995456,-1686.0,0.125,0.0,-0.0,0.0,0.25,1.5832517910000001,0.01,0.0,-0.36000001430511475,-1.0800000429153442,-0.07000000029802322,-0.01934814453125,-0.00628662109375,1.0181884765625,36.540000915527344,0.0,0.0,-5.07110595703125,2.4252777099609375,Closing,0.0,0.0,0.0,0.0,0.0,0.0,0.0,0.0,
9.421173999999999,0.0,0.0,22102.0,0.0,0.0,0.0,0.0,0.125,0.8142089010000001,0.01,0.0,-41021.0,0.0,0.0,-0.0,0.0,0.125,0.5029296360000001,0.01,0.0,21410.0,0.0,0.0,0.0,0.0,0.0,3.330077784,0.01,-0.0012207029999995456,-1686.0,0.125,0.0,-0.0,0.0,0.25,1.5820310880000001,0.01,0.0,-0.36000001430511475,-1.0800000429153442,-0.07000000029802322,-0.01800537109375,-0.006591796875,1.0164794921875,36.54999923706055,0.0,1.0,-5.07110595703125,2.4252777099609375,Closing,0.0,0.0,0.0,0.0,0.0,0.0,0.0,0.0,
9.501039999999978,0.0,0.0,22102.0,0.0,0.0,0.0,0.0,0.125,0.8142089010000001,0.01,0.0,-41021.0,0.0,0.0,-0.0,0.0,0.125,0.5017089330000001,0.01,0.0,21410.0,0.0,0.0,0.0,0.0,0.0,3.330077784,0.01,0.0,-1686.0,0.125,0.0,-0.0,0.0,0.25,1.5832517910000001,0.01,0.0,-0.36000001430511475,-1.0800000429153442,-0.05999999865889549,-0.02001953125,-0.005859375,1.02020263671875,36.54999923706055,0.0,0.0,-5.07110595703125,2.4252777099609375,Closing,0.0,0.0,0.0,0.0,0.0,0.0,0.0,0.0,
9.586733999999996,0.0,0.0,22102.0,0.0,0.0,0.0,0.0,0.125,0.8142089010000001,0.01,0.0,-41021.0,0.0,0.0,-0.0,0.0,0.125,0.5017089330000001,0.01,0.0,21410.0,0.0,0.0,0.0,0.0,0.0,3.330077784,0.01,0.0,-1686.0,0.125,0.0,-0.0,0.0,0.25,1.5820310880000001,0.01,0.0,-0.36000001430511475,-1.0800000429153442,-0.07000000029802322,-0.01727294921875,-0.0054931640625,1.02069091796875,36.54999923706055,0.0,2.0,-5.07110595703125,2.4252777099609375,Closing,0.0,0.0,0.0,0.0,0.0,0.0,0.0,0.0,
9.669298999999999,0.0,0.0,22102.0,0.0,0.0,0.0,0.0,0.125,0.8142089010000001,0.01,0.0,-41021.0,0.0,0.0,-0.0,0.0,0.125,0.5017089330000001,0.01,0.0,21410.0,0.0,0.0,0.0,0.0,0.0,3.330077784,0.01,0.0,-1686.0,0.125,0.0,-0.0,0.0,0.25,1.5832517910000001,0.01,0.0,-0.36000001430511475,-1.0800000429153442,-0.07000000029802322,-0.02197265625,-0.00762939453125,1.01629638671875,36.54999923706055,0.0,-2.0,-5.07110595703125,2.4252777099609375,Closing,0.0,0.0,0.0,0.0,0.0,0.0,0.0,0.0,
9.747272999999986,0.0,0.0,22102.0,0.0,0.0,0.0,0.0,0.125,0.8142089010000001,0.01,0.0,-41021.0,0.0,0.0,-0.0,0.0,0.125,0.5017089330000001,0.01,0.0,21410.0,0.0,0.0,0.0,0.0,0.0,3.330077784,0.01,0.0,-1686.0,0.0,0.0,-0.0,0.0,0.25,1.5832517910000001,0.01,0.0,-0.36000001430511475,-1.0800000429153442,-0.05999999865889549,-0.01971435546875,-0.0052490234375,1.0233154296875,36.54999923706055,0.0,0.0,-5.07110595703125,2.4252777099609375,Closing,0.0,0.0,0.0,0.0,0.0,0.0,0.0,0.0,
9.833157999999996,0.0,0.0,22102.0,0.0,0.0,0.0,0.0,0.125,0.8154296040000001,0.01,0.0,-41021.0,0.0,0.0,-0.0,0.0,0.125,0.50048823,0.01,0.0,21410.0,0.0,0.0,0.0,0.0,0.0,3.330077784,0.01,0.0012207029999995456,-1686.0,0.125,0.0,-0.0,0.0,0.25,1.5820310880000001,0.01,0.0,-0.36000001430511475,-1.0800000429153442,-0.05999999865889549,-0.019287109375,-0.00665283203125,1.0216064453125,36.54999923706055,0.0,0.0,-5.07110595703125,2.4252777099609375,Closing,0.0,0.0,0.0,0.0,0.0,0.0,0.0,0.125,
9.91118399999995,0.0,0.0,22102.0,0.0,0.0,0.0,0.0,0.125,0.8142089010000001,0.01,0.0,-41021.0,0.0,0.0,-0.0,0.0,0.125,0.5017089330000001,0.01,0.0,21410.0,0.0,0.0,0.0,0.0,0.0,3.330077784,0.01,-0.0012207029999995456,-1686.0,0.125,0.0,-0.0,0.0,0.25,1.5820310880000001,0.01,0.0,-0.36000001430511475,-1.0800000429153442,-0.07000000029802322,-0.0206298828125,-0.01068115234375,1.0157470703125,36.56999969482422,0.0,-1.0,-5.07110595703125,2.4252777099609375,Closing,0.0,0.0,0.0,0.0,0.0,0.0,0.0,0.0,
9.986125,0.0,0.0,22102.0,0.0,0.0,0.0,0.0,0.125,0.8142089010000001,0.01,0.0,-41021.0,0.0,0.0,-0.0,0.0,0.0,0.5017089330000001,0.01,0.0,21410.0,0.0,0.0,0.0,0.0,0.0,3.330077784,0.01,0.0,-1686.0,0.125,0.0,-0.0,0.0,0.125,1.5832517910000001,0.01,0.0,-0.3700000047683716,-1.090000033378601,-0.07000000029802322,-0.021240234375,-0.00689697265625,1.016357421875,36.56999969482422,0.0,-1.0,-5.07110595703125,2.4252777099609375,Closing,0.0,0.0,0.0,0.0,0.0,0.0,0.0,0.0,
