Time,ClimberA1,ClimberA2,FRpos,FRCurrent,FRspeed,FRsetpoint,FRApos,FRACurrent,FREncpos,FREncSetpoint,FREncSpeed,FLpos,FLCurrent,FLspeed,FLsetpoint,FLApos,FLACurrent,FLEncpos,FLEncSetpoint,FLEncSpeed,BRpos,BRCurrent,BRspeed,BRsetpoint,BRApos,BRACurrent,BREncpos,BREncSetpoint,BREncSpeed,BLpos,BLCurrent,BLspeed,BLsetpoint,BLApos,BLACurrent,BLEncpos,BLEncSetpoint,BLEncSpeed,navx_Pitch,navx_Roll,navx_Yaw,navx_XAcc,navx_YAcc,navx_ZAcc,navx_Temp,navx_Bar,navx_Alt,navx_XDis,navx_YDis,GearPlacerState,ShootOutputV,ShootOutputCurrent,ShootEncPos,ShootEncVelocity,ShootSpeed,ShootSetpoint,CarouselSetpoint,CarouselCurrent,
0.1399559999999765,0.0,0.0,46856.0,0.0,0.0,0.0,0.0,0.125,0.836181555,0.01,0.0,36226.0,0.0,0.0,-0.0,0.0,0.125,0.42846675300000003,0.01,0.0,-1331.0,0.0,0.0,0.0,0.0,0.125,3.3776852010000002,0.01,0.0,40780.0,0.125,0.0,-0.0,0.0,0.25,1.5515135130000002,0.01,0.0,-0.46000000834465027,-0.8299999833106995,0.0,-0.013427734375,-0.0050048828125,1.01629638671875,35.31999969482422,0.0,1.0,1.65167236328125,-1.5767822265625,Closing,0.0,0.0,1.0,0.0,0.0,0.0,0.0,0.0,
0.17517599999997766,0.0,0.0,46856.0,0.0,0.0,0.0,0.0,0.125,0.836181555,0.01,0.0,36226.0,0.0,0.0,-0.0,0.0,0.125,0.42846675300000003,0.01,0.0,-1331.0,0.0,0.0,0.0,0.0,0.125,3.3776852010000002,0.01,0.0,40780.0,0.125,0.0,-0.0,0.0,0.25,1.5515135130000002,0.01,-0.008544920999999484,-0.46000000834465027,-0.8299999833106995,0.0,-0.0135498046875,-0.00787353515625,1.015625,35.31999969482422,0.0,1.0,1.65167236328125,-1.5767822265625,Closing,0.0,0.0,1.0,0.0,0.0,0.0,0.0,0.0,
0.21637200000000303,0.0,0.0,46856.0,0.0,0.0,0.0,0.0,0.125,0.836181555,0.01,0.0,36226.0,0.0,0.0,-0.0,0.0,0.125,0.42846675300000003,0.01,0.0,-1331.0,0.0,0.0,0.0,0.0,0.125,3.3789059040000002,0.01,0.0,40780.0,0.125,0.0,-0.0,0.0,0.25,1.5515135130000002,0.01,-0.0012207030000004337,-0.46000000834465027,-0.8299999833106995,0.0,-0.01385498046875,-0.01153564453125,1.0157470703125,35.31999969482422,0.0,0.0,1.65167236328125,-1.5767822265625,Closing,0.0,0.0,1.0,0.0,0.0,0.0,0.0,0.0,
0.25921499999999653,0.0,0.0,46856.0,0.0,0.0,0.0,0.0,0.125,0.836181555,0.01,0.0,36226.0,0.0,0.0,-0.0,0.0,0.125,0.429687456,0.01,0.0,-1331.0,0.0,0.0,0.0,0.0,0.125,3.3789059040000002,0.01,0.0,40780.0,0.125,0.0,-0.0,0.0,0.25,1.5502928100000002,0.01,0.0,-0.46000000834465027,-0.8299999833106995,0.0,-0.01373291015625,-0.0067138671875,1.01788330078125,35.31999969482422,0.0,1.0,1.65167236328125,-1.5767822265625,Closing,0.0,0.0,1.0,0.0,0.0,0.0,0.0,0.0,
0.30199399999997695,0.0,0.0,46856.0,0.0,0.0,0.0,0.0,0.125,0.836181555,0.01,0.0,36226.0,0.0,0.0,-0.0,0.0,0.125,0.42846675300000003,0.01,0.0,-1331.0,0.0,0.0,0.0,0.0,0.125,3.3789059040000002,0.01,0.0,40780.0,0.125,0.0,-0.0,0.0,0.25,1.5563963250000001,0.01,0.0,-0.46000000834465027,-0.8299999833106995,0.0,-0.0150146484375,-0.0103759765625,1.02099609375,35.31999969482422,0.0,0.0,1.65167236328125,-1.5767822265625,Closing,0.0,0.0,1.0,0.0,0.0,0.0,0.0,0.0,
0.34505299999998534,0.0,0.0,46856.0,0.0,0.0,0.0,0.0,0.125,0.836181555,0.01,0.0,36226.0,0.0,0.0,-0.0,0.0,0.125,0.42846675300000003,0.01,0.0,-1331.0,0.0,0.0,0.0,0.0,0.125,3.3776852010000002,0.01,0.0,40780.0,0.125,0.0,-0.0,0.0,0.25,1.560058434,0.01,0.0,-0.46000000834465027,-0.8299999833106995,0.0,-0.011962890625,-0.0068359375,1.02178955078125,35.31999969482422,0.0,2.0,1.65167236328125,-1.5767822265625,Closing,0.0,0.0,1.0,0.0,0.0,0.0,0.0,0.0,
0.38286400000000137,0.0,0.0,46856.0,0.0,0.0,0.0,0.0,0.125,0.836181555,0.01,0.0,36226.0,0.0,0.0,-0.0,0.0,0.125,0.42846675300000003,0.01,0.0,-1331.0,0.0,0.0,0.0,0.0,0.125,3.3776852010000002,0.01,0.0,40780.0,0.125,0.0,-0.0,0.0,0.25,1.561279137,0.01,0.009765623999999917,-0.4699999988079071,-0.8299999833106995,0.0,-0.0146484375,-0.00775146484375,1.01763916015625,35.31999969482422,0.0,0.0,1.65167236328125,-1.5767822265625,Closing,0.0,0.0,1.0,0.0,0.0,0.0,0.0,0.0,
0.42389499999998953,0.0,0.0,46856.0,0.0,0.0,0.0,0.0,0.125,0.836181555,0.01,0.0,36226.0,0.0,0.0,-0.0,0.0,0.125,0.42846675300000003,0.01,0.0,-1331.0,0.0,0.0,0.0,0.0,0.125,3.3789059040000002,0.01,0.0,40780.0,0.125,0.0,-0.0,0.0,0.25,1.561279137,0.01,0.0,-0.4699999988079071,-0.8299999833106995,0.0,-0.01434326171875,-0.00518798828125,1.017578125,35.31999969482422,0.0,0.0,1.65167236328125,-1.5767822265625,Closing,0.0,0.0,1.0,0.0,0.0,0.0,0.0,0.0,
0.4664780000000028,0.0,0.0,46856.0,0.0,0.0,0.0,0.0,0.125,0.837402258,0.01,0.0,36226.0,0.0,0.0,-0.0,0.0,0.125,0.42846675300000003,0.01,0.0,-1331.0,0.0,0.0,0.0,0.0,0.125,3.3776852010000002,0.01,0.0,40780.0,0.125,0.0,-0.0,0.0,0.25,1.560058434,0.01,0.0,-0.4699999988079071,-0.8299999833106995,0.0,-0.0152587890625,-0.00958251953125,1.02032470703125,35.31999969482422,0.0,0.0,1.65167236328125,-1.5767822265625,Closing,0.0,0.0,1.0,0.0,0.0,0.0,0.0,0.0,
0.5070819999999949,0.0,0.0,46856.0,0.0,0.0,0.0,0.0,0.125,0.836181555,0.01,0.0,36226.0,0.0,0.0,-0.0,0.0,0.125,0.429687456,0.01,0.0,-1331.0,0.0,0.0,0.0,0.0,0.125,3.3776852010000002,0.01,0.0,40780.0,0.125,0.0,-0.0,0.0,0.25,1.561279137,0.01,0.0,-0.46000000834465027,-0.8299999833106995,0.0,-0.01531982421875,-0.0103759765625,1.02203369140625,35.31999969482422,0.0,0.0,1.65167236328125,-1.5767822265625,Closing,0.0,0.0,1.0,0.0,0.0,0.0,0.0,0.0,
0.5472550000000047,0.0,0.0,46856.0,0.0,0.0,0.0,0.0,0.125,0.834960852,0.01,0.0,36226.0,0.0,0.0,-0.0,0.0,0.125,0.42846675300000003,0.01,0.0,-1331.0,0.0,0.0,0.0,0.0,0.125,3.3789059040000002,0.01,0.0,40780.0,0.125,0.0,-0.0,0.0,0.25,1.561279137,0.01,0.0,-0.46000000834465027,-0.8299999833106995,0.0,-0.0120849609375,-0.008544921875,1.01873779296875,35.31999969482422,0.0,2.0,1.65167236328125,-1.5767822265625,Closing,0.0,0.0,1.0,0.0,0.0,0.0,0.0,0.0,
0.5884679999999934,0.0,0.0,46856.0,0.0,0.0,0.0,0.0,0.125,0.836181555,0.01,0.0,36226.0,0.0,0.0,-0.0,0.0,0.125,0.42846675300000003,0.01,0.0,-1331.0,0.0,0.0,0.0,0.0,0.125,3.3776852010000002,0.01,0.0,40780.0,0.125,0.0,-0.0,0.0,0.25,1.560058434,0.01,0.0,-0.4699999988079071,-0.8299999833106995,0.0,-0.01324462890625,-0.00823974609375,1.02294921875,35.31999969482422,0.0,1.0,1.65167236328125,-1.5767822265625,Closing,0.0,0.0,1.0,0.0,0.0,0.0,0.0,0.0,
0.6273329999999842,0.0,0.0,46856.0,0.0,0.0,0.0,0.0,0.125,0.837402258,0.01,0.0,36226.0,0.0,0.0,-0.0,0.0,0.125,0.42846675300000003,0.01,0.0,-1331.0,0.0,0.0,0.0,0.0,0.125,3.3789059040000002,0.01,0.0,40780.0,0.125,0.0,-0.0,0.0,0.25,1.561279137,0.01,0.0,-0.46000000834465027,-0.8299999833106995,0.0,-0.01458740234375,-0.00982666015625,1.01397705078125,35.31999969482422,0.0,0.0,1.65167236328125,-1.5767822265625,Closing,0.0,0.0,1.0,0.0,0.0,0.0,0.0,0.0,
0.6671459999999788,0.0,0.0,46856.0,0.0,0.0,0.0,0.0,0.125,0.836181555,0.01,0.0,36226.0,0.0,0.0,-0.0,0.0,0.125,0.42846675300000003,0.01,0.0,-1331.0,0.0,0.0,0.0,0.0,0.125,3.3789059040000002,0.01,0.0,40780.0,0.125,0.0,-0.0,0.0,0.25,1.561279137,0.01,0.0,-0.46000000834465027,-0.8299999833106995,0.0,-0.01373291015625,-0.0108642578125,1.02081298828125,35.31999969482422,0.0,1.0,1.65167236328125,-1.5767822265625,Closing,0.0,0.0,1.0,0.0,0.0,0.0,0.0,0.0,
0.7081169999999983,0.0,0.0,46856.0,0.0,0.0,0.0,0.0,0.125,0.836181555,0.01,0.0,36226.0,0.0,0.0,-0.0,0.0,0.125,0.42846675300000003,0.01,0.0,-1331.0,0.0,0.0,0.0,0.0,0.125,3.3776852010000002,0.01,0.0,40780.0,0.125,0.0,-0.0,0.0,0.25,1.560058434,0.01,0.0,-0.46000000834465027,-0.8299999833106995,0.0,-0.01507568359375,-0.0108642578125,1.01910400390625,35.31999969482422,0.0,0.0,1.65167236328125,-1.5767822265625,Closing,0.0,0.0,1.0,0.0,0.0,0.0,0.0,0.0,
0.7483869999999879,0.0,0.0,46856.0,0.0,0.0,0.0,0.0,0.125,0.834960852,0.01,0.0,36226.0,0.0,0.0,-0.0,0.0,0.125,0.42846675300000003,0.01,0.0,-1331.0,0.0,0.0,0.0,0.0,0.125,3.3776852010000002,0.01,0.0,40780.0,0.125,0.0,-0.0,0.0,0.25,1.561279137,0.01,0.0,-0.46000000834465027,-0.8299999833106995,0.0,-0.01611328125,-0.00946044921875,1.02178955078125,35.31999969482422,0.0,-1.0,1.65167236328125,-1.5767822265625,Closing,0.0,0.0,1.0,0.0,0.0,0.0,0.0,0.0,
0.7902989999999991,0.0,0.0,46856.0,0.0,0.0,0.0,0.0,0.125,0.836181555,0.01,0.0,36226.0,0.0,0.0,-0.0,0.0,0.125,0.429687456,0.01,0.0,-1331.0,0.0,0.0,0.0,0.0,0.125,3.3776852010000002,0.01,0.0,40780.0,0.125,0.0,-0.0,0.0,0.25,1.561279137,0.01,0.0,-0.46000000834465027,-0.8299999833106995,0.0,-0.01324462890625,-0.00860595703125,1.0191650390625,35.31999969482422,0.0,1.0,1.65167236328125,-1.5767822265625,Closing,0.0,0.0,1.0,0.0,0.0,0.0,0.0,0.0,
0.828435999999987,0.0,0.0,46856.0,0.0,0.0,0.0,0.0,0.125,0.836181555,0.01,0.0,36226.0,0.0,0.0,-0.0,0.0,0.125,0.42846675300000003,0.01,0.0,-1331.0,0.0,0.0,0.0,0.0,0.125,3.3789059040000002,0.01,0.0,40780.0,0.125,0.0,-0.0,0.0,0.25,1.561279137,0.01,0.0,-0.46000000834465027,-0.8299999833106995,0.0,-0.01629638671875,-0.00775146484375,1.01666259765625,35.31999969482422,0.0,-1.0,1.65167236328125,-1.5767822265625,Closing,0.0,0.0,1.0,0.0,0.0,0.0,0.0,0.0,
0.8688329999999842,0.0,0.0,46856.0,0.0,0.0,0.0,0.0,0.125,0.834960852,0.01,0.0,36226.0,0.0,0.0,-0.0,0.0,0.125,0.42846675300000003,0.01,0.0,-1331.0,0.0,0.0,0.0,0.0,0.125,3.3789059040000002,0.01,0.0,40780.0,0.125,0.0,-0.0,0.0,0.25,1.561279137,0.01,0.0012207030000004337,-0.46000000834465027,-0.8299999833106995,0.0,-0.0157470703125,-0.00970458984375,1.01763916015625,35.31999969482422,0.0,0.0,1.65167236328125,-1.5767822265625,Closing,0.0,0.0,1.0,0.0,0.0,0.0,0.0,0.0,
0.9101199999999954,0.0,0.0,46856.0,0.0,0.0,0.0,0.0,0.125,0.836181555,0.01,0.0,36226.0,0.0,0.0,-0.0,0.0,0.125,0.42846675300000003,0.01,0.0,-1331.0,0.0,0.0,0.0,0.0,0.125,3.3789059040000002,0.01,0.0,40780.0,0.125,0.0,-0.0,0.0,0.25,1.561279137,0.01,-0.0012207030000004337,-0.46000000834465027,-0.8299999833106995,0.0,-0.01251220703125,-0.00970458984375,1.017578125,35.31999969482422,0.0,2.0,1.65167236328125,-1.5767822265625,Closing,0.0,0.0,1.0,0.0,0.0,0.0,0.0,0.0,
0.9500339999999851,0.0,0.0,46856.0,0.0,0.0,0.0,0.0,0.125,0.836181555,0.01,0.0,36226.0,0.0,0.0,-0.0,0.0,0.125,0.42846675300000003,0.01,0.0,-1331.0,0.0,0.0,0.0,0.0,0.125,3.3776852010000002,0.01,0.0,40780.0,0.125,0.0,-0.0,0.0,0.25,1.561279137,0.01,-0.0012207030000004337,-0.46000000834465027,-0.8299999833106995,0.0,-0.01300048828125,-0.00885009765625,1.0206298828125,35.31999969482422,0.0,1.0,1.65167236328125,-1.5767822265625,Closing,0.0,0.0,1.0,0.0,0.0,0.0,0.0,0.0,
0.9913389999999781,0.0,0.0,46856.0,0.0,0.0,0.0,0.0,0.125,0.836181555,0.01,0.0,36226.0,0.0,0.0,-0.0,0.0,0.125,0.42846675300000003,0.01,0.0,-1331.0,0.0,0.0,0.0,0.0,0.125,3.3776852010000002,0.01,0.0,40780.0,0.125,0.0,-0.0,0.0,0.25,1.561279137,0.01,0.0012207030000004337,-0.46000000834465027,-0.8299999833106995,0.0,-0.01318359375,-0.00799560546875,1.0157470703125,35.31999969482422,0.0,1.0,1.65167236328125,-1.5767822265625,Closing,0.0,0.0,1.0,0.0,0.0,0.0,0.0,0.0,
1.0327639999999956,0.0,0.0,46856.0,0.0,0.0,0.0,0.0,0.125,0.836181555,0.01,0.0,36226.0,0.0,0.0,-0.0,0.0,0.125,0.42846675300000003,0.01,0.0,-1331.0,0.0,0.0,0.0,0.0,0.125,3.3789059040000002,0.01,0.0,40780.0,0.125,0.0,-0.0,0.0,0.25,1.561279137,0.01,-0.0012207030000004337,-0.46000000834465027,-0.8299999833106995,0.0,-0.0137939453125,-0.008056640625,1.02191162109375,35.31999969482422,0.0,1.0,1.65167236328125,-1.5767822265625,Closing,0.0,0.0,1.0,0.0,0.0,0.0,0.0,0.0,
1.06993299999999,0.0,0.0,46856.0,0.0,0.0,0.0,0.0,0.125,0.834960852,0.01,0.0,36226.0,0.0,0.0,-0.0,0.0,0.125,0.42846675300000003,0.01,0.0,-1331.0,0.0,0.0,0.0,0.0,0.125,3.3789059040000002,0.01,0.0,40780.0,0.125,0.0,-0.0,0.0,0.25,1.561279137,0.01,0.0,-0.4699999988079071,-0.8299999833106995,0.0,-0.01605224609375,-0.008544921875,1.017822265625,35.36000061035156,0.0,-1.0,1.65167236328125,-1.5767822265625,Closing,0.0,0.0,1.0,0.0,0.0,0.0,0.0,0.0,
1.110639999999985,0.0,0.0,46856.0,0.0,0.0,0.0,0.0,0.125,0.836181555,0.01,0.0,36226.0,0.0,0.0,-0.0,0.0,0.125,0.42846675300000003,0.01,0.0,-1331.0,0.0,0.0,0.0,0.0,0.125,3.3776852010000002,0.01,0.0,40780.0,0.125,0.0,-0.0,0.0,0.25,1.561279137,0.01,0.0,-0.4699999988079071,-0.8299999833106995,0.0,-0.0157470703125,-0.00860595703125,1.017822265625,35.36000061035156,0.0,0.0,1.65167236328125,-1.5767822265625,Closing,0.0,0.0,1.0,0.0,0.0,0.0,0.0,0.0,
1.1503029999999854,0.0,0.0,46856.0,0.375,0.0,-810.2362096309662,0.0,0.125,0.8557128030000001,0.5498168668524864,0.0,36226.0,0.375,0.0,-810.2362096309662,0.0,0.125,0.424804644,4.41043958977222,0.0,-1331.0,0.125,0.0,-810.2362096309662,0.0,0.125,3.3789059040000002,4.389674732977291,0.0,40780.0,0.125,0.0,-810.2362096309662,0.0,0.25,1.561279137,0.552687206278561,0.0,-0.4699999988079071,-0.8299999833106995,0.0,-0.01324462890625,-0.006103515625,1.0167236328125,35.36000061035156,0.0,1.0,1.65167236328125,-1.5767822265625,Closing,0.0,0.0,1.0,0.0,0.0,0.0,0.0,0.0,
1.192676999999996,0.0,0.0,46856.0,3.125,-60.0,-1455.11816740036,0.0,1.5,0.914306547,0.5498168668524864,0.0,36226.0,5.0,-45.0,-1455.11816740036,0.0,1.75,0.40771480200000004,4.41043958977222,-0.0012207030000004337,-1331.0,6.625,-30.0,-1455.11816740036,0.0,2.375,3.286132476,4.389674732977291,0.0,40780.0,4.25,-90.0,-1455.11816740036,0.0,2.75,1.667480298,0.552687206278561,0.0,-0.49000000953674316,-0.75,0.10999999940395355,0.08587646484375,-0.06439208984375,1.0316162109375,35.36000061035156,0.0,99.0,1.6519622802734375,-1.576690673828125,Closing,0.0,0.0,1.0,0.0,0.0,0.0,0.0,0.0,
1.2350380000000005,0.0,0.0,46823.0,5.5,-202.5,-446.45669907331467,0.0,1.125,1.0351561440000001,0.5498168668524864,0.0,36194.0,12.625,-202.5,-446.45669907331467,0.0,1.5,0.299072235,4.41043958977222,0.0,-1343.0,7.375,-75.0,-446.45669907331467,0.0,1.75,3.1103512440000003,4.389674732977291,0.0,40746.0,5.375,-232.5,-446.45669907331467,0.0,2.125,1.851806451,0.552687206278561,0.0,-0.5400000214576721,-0.6499999761581421,0.8799999952316284,0.13372802734375,0.1910400390625,1.11260986328125,35.36000061035156,0.0,149.0,1.6525421142578125,-1.576324462890625,Closing,0.0,0.0,1.0,0.0,0.0,0.0,0.0,0.0,
1.2887979999999806,0.0,0.0,46823.0,1.875,-232.5,0.0,0.0,0.75,1.148681523,0.5498168668524864,0.11352537899999993,36194.0,1.875,-210.0,0.0,0.0,0.875,0.144042954,4.41043958977222,-0.11962889399999987,-1343.0,1.375,-90.0,0.0,0.0,0.5,2.979736023,4.389674732977291,-0.1696777169999999,40746.0,0.625,-247.5,0.0,0.0,1.0,1.9702146420000002,0.552687206278561,0.17822263800000004,-0.44999998807907104,-0.7099999785423279,1.5,-0.02947998046875,0.1368408203125,1.18817138671875,35.36000061035156,0.0,-10.0,1.653350830078125,-1.57598876953125,Closing,0.0,0.0,1.0,0.0,0.0,0.0,0.0,0.0,
1.3285109999999987,0.0,0.0,46823.0,0.125,-112.5,0.0,0.0,0.875,1.209716673,0.5498168668524864,0.10620116099999999,36194.0,0.0,-112.5,0.0,0.0,0.25,4.958495586000001,4.41043958977222,-0.16601560799999948,-1343.0,0.125,-37.5,0.0,0.0,0.25,2.886962595,4.389674732977291,-0.1391601420000006,40738.0,0.125,-120.0,0.0,0.0,1.0,2.031249792,0.552687206278561,0.12573240900000004,-0.33000001311302185,-0.75,1.4299999475479126,-0.06805419921875,-0.036376953125,1.10394287109375,35.36000061035156,0.0,-54.0,1.65447998046875,-1.5748443603515625,Closing,0.0,0.0,1.0,0.0,0.0,0.0,0.0,0.0,
1.3728549999999813,0.0,0.0,46819.0,0.0,-15.0,0.0,0.0,0.75,1.2390135450000002,0.5498168668524864,0.06347655600000013,36189.0,0.0,-15.0,0.0,0.0,0.25,4.899901842,4.41043958977222,4.832763177,-1342.0,0.0,22.5,0.0,0.0,0.25,2.8503415050000003,4.389674732977291,-0.08544921000000016,40738.0,0.125,-37.5,0.0,0.0,0.75,2.042236119,0.552687206278561,0.05493163499999998,-0.38999998569488525,-0.7400000095367432,1.2699999809265137,-0.03399658203125,-0.073486328125,0.91094970703125,35.36000061035156,0.0,-23.0,1.6546478271484375,-1.5744171142578125,Closing,0.0,0.0,1.0,0.0,0.0,0.0,0.0,0.0,
1.4154929999999877,0.0,0.0,46819.0,0.0,0.0,0.0,0.0,0.625,1.273193229,0.5498168668524864,0.03540038699999992,36189.0,0.0,30.0,0.0,0.0,0.25,4.874267079,4.41043958977222,-0.06103515000000037,-1342.0,0.0,52.5,0.0,0.0,0.125,2.8479000990000003,4.389674732977291,-0.030517574999999297,40738.0,0.125,7.5,0.0,0.0,0.75,2.041015416,0.552687206278561,0.009765623999999917,-0.44999998807907104,-0.8199999928474426,1.1100000143051147,-0.0191650390625,0.00799560546875,1.0985107421875,35.36000061035156,0.0,-3.0,1.6545867919921875,-1.574188232421875,Closing,0.0,0.0,1.0,0.0,0.0,0.0,0.0,0.0,
1.4593059999999822,0.0,0.0,46819.0,0.0,0.0,0.0,0.0,0.5,1.274413932,0.5498168668524864,0.012207030000000119,36196.0,0.0,45.0,0.0,0.0,0.25,4.875487782,4.41043958977222,-0.021972653999999814,-1337.0,0.0,37.5,0.0,0.0,0.125,2.8479000990000003,4.389674732977291,-0.004882811999999959,40741.0,0.125,15.0,0.0,0.0,0.625,2.041015416,0.552687206278561,-0.0012207029999999897,-0.41999998688697815,-0.7599999904632568,1.090000033378601,-0.0059814453125,0.04315185546875,1.008056640625,35.36000061035156,0.0,8.0,1.6545867919921875,-1.5741424560546875,Closing,0.0,0.0,1.0,0.0,0.0,0.0,0.0,0.0,
1.5059539999999978,0.0,0.0,46820.0,0.0,0.0,0.0,0.0,0.5,1.274413932,0.5498168668524864,0.012207030000000119,36196.0,0.0,30.0,0.0,0.0,0.25,4.874267079,4.41043958977222,0.0,-1337.0,0.0,15.0,0.0,0.0,0.125,2.8479000990000003,4.389674732977291,0.0,40741.0,0.125,15.0,0.0,0.0,0.625,2.042236119,0.552687206278561,0.0,-0.38999998569488525,-0.7200000286102295,1.1399999856948853,1.8310546875E-4,-0.030029296875,0.991455078125,35.36000061035156,0.0,12.0,1.6547393798828125,-1.5739288330078125,Closing,0.0,0.0,1.0,0.0,0.0,0.0,0.0,0.0,
1.5491410000000032,0.0,0.0,46820.0,0.0,0.0,0.0,0.0,0.375,1.274413932,0.5498168668524864,0.004882811999999959,36196.0,0.0,7.5,0.0,0.0,0.25,4.874267079,4.41043958977222,0.0,-1337.0,0.0,0.0,0.0,0.0,0.125,2.8479000990000003,4.389674732977291,0.0,40741.0,0.125,0.0,0.0,0.0,0.625,2.041015416,0.552687206278561,0.0,-0.4099999964237213,-0.7300000190734863,1.1399999856948853,-0.0350341796875,-0.016845703125,1.03643798828125,35.36000061035156,0.0,-21.0,1.6547393798828125,-1.5740509033203125,Closing,0.0,0.0,1.0,0.0,0.0,0.0,0.0,0.0,
1.592017999999982,0.0,0.0,46820.0,0.125,0.0,344.53125,0.0,0.375,1.274413932,0.01,0.0012207029999999897,36195.0,0.25,0.0,-344.53125,0.0,0.25,4.8730463760000005,0.01,0.0,-1337.0,0.375,0.0,344.53125,0.0,0.125,2.8479000990000003,0.01,0.0,40741.0,0.375,0.0,-344.53125,0.0,0.625,2.042236119,0.01,0.0012207029999999897,-0.4099999964237213,-0.7799999713897705,1.1299999952316284,-0.00506591796875,-0.015869140625,1.04248046875,35.36000061035156,0.0,9.0,1.6546173095703125,-1.5740509033203125,Closing,0.0,0.0,1.0,0.0,0.0,0.0,0.0,0.0,
1.6414519999999901,0.0,0.0,46820.0,1.125,0.0,820.3125,0.0,1.25,1.209716673,0.01,0.0,36195.0,2.0,-15.0,-820.3125,0.0,2.375,4.879149891,0.01,0.0,-1337.0,1.125,30.0,820.3125,0.0,1.5,2.915038764,0.01,0.0,40741.0,1.875,-7.5,-820.3125,0.0,1.375,1.9750974540000001,0.01,0.0,-0.4099999964237213,-0.7200000286102295,1.149999976158142,0.00921630859375,-0.018310546875,0.97723388671875,35.36000061035156,0.0,21.0,1.6547088623046875,-1.574005126953125,Closing,0.0,0.0,1.0,0.0,0.0,0.0,0.0,0.0,
1.6793269999999902,0.0,0.0,46820.0,2.375,75.0,836.71875,0.0,1.0,1.0864256700000001,0.01,0.0,36195.0,5.75,-45.0,-836.71875,0.0,2.875,0.028076169,0.01,0.0,-1337.0,2.625,142.5,836.71875,0.0,1.75,3.072509451,0.01,0.0,40741.0,3.75,-37.5,-836.71875,0.0,1.375,1.8945310560000002,0.01,0.0,-0.4399999976158142,-0.5799999833106995,1.2799999713897705,0.36456298828125,-0.00628662109375,1.03631591796875,35.36000061035156,0.0,375.0,1.6555938720703125,-1.5740814208984375,Closing,0.0,0.0,1.0,0.0,0.0,0.0,0.0,0.0,
1.729,0.0,0.0,46852.0,3.25,202.5,836.71875,0.0,0.375,0.9985350540000001,0.01,0.0,36178.0,8.125,-105.0,-836.71875,0.0,0.75,0.21972654000000003,0.01,0.0,-1299.0,3.875,247.5,836.71875,0.0,0.375,3.231200841,0.01,0.0,40729.0,5.5,-75.0,-836.71875,0.0,0.5,1.7602537260000002,0.01,0.0,-0.3199999928474426,-0.2199999988079071,1.2599999904632568,0.04388427734375,0.0469970703125,1.1331787109375,35.36000061035156,0.0,49.0,1.6600494384765625,-1.5738983154296875,Closing,0.0,0.0,1.0,0.0,0.0,0.0,0.0,0.0,
1.772421000000002,0.0,0.0,46852.0,3.875,232.5,836.71875,0.0,0.375,0.9326170920000001,0.01,0.0,36178.0,10.25,-157.5,-836.71875,0.0,0.75,0.333251919,0.01,0.0,-1299.0,3.875,232.5,836.71875,0.0,0.375,3.287353179,0.01,0.0,40729.0,6.5,-97.5,-836.71875,0.0,0.5,1.691894358,0.01,0.0,-0.33000001311302185,-0.11999999731779099,1.2100000381469727,0.03643798828125,-0.03289794921875,0.99945068359375,35.36000061035156,0.0,38.0,1.664154052734375,-1.57342529296875,Closing,0.0,0.0,1.0,0.0,0.0,0.0,0.0,0.0,
1.8150069999999832,0.0,0.0,46852.0,5.5,172.5,836.71875,0.0,0.375,0.888671784,0.01,0.0,36146.0,11.25,-180.0,-836.71875,0.0,0.75,0.371093712,0.01,0.0,-1272.0,5.0,172.5,836.71875,0.0,0.125,3.305663724,0.01,0.0,40705.0,7.25,-142.5,-836.71875,0.0,0.25,1.6613767830000001,0.01,0.0,-0.3799999952316284,0.029999999329447746,1.1799999475479126,0.10650634765625,0.02154541015625,1.0184326171875,35.36000061035156,0.0,106.0,1.668670654296875,-1.5733489990234375,Closing,0.0,0.0,1.0,0.0,0.0,0.0,0.0,0.0,
1.860981999999989,0.0,0.0,46886.0,6.25,217.5,836.71875,0.0,0.25,0.864257724,0.01,0.0,36146.0,12.375,-217.5,-836.71875,0.0,0.5,0.37597652400000003,0.01,0.0,-1272.0,6.75,180.0,836.71875,0.0,0.125,3.305663724,0.01,0.0,40705.0,8.5,-195.0,-836.71875,0.0,0.25,1.64794905,0.01,0.0,-0.3700000047683716,0.27000001072883606,1.2300000190734863,0.1798095703125,-0.06109619140625,1.1175537109375,35.36000061035156,0.0,173.0,1.674591064453125,-1.5733184814453125,Closing,0.0,0.0,1.0,0.0,0.0,0.0,0.0,0.0,
1.9066659999999975,0.0,0.0,46886.0,6.875,277.5,836.71875,0.0,0.25,0.821533119,0.01,-0.023193357000000026,36146.0,13.25,-300.0,-836.71875,0.0,0.5,0.379638633,0.01,0.0,-1272.0,7.5,232.5,836.71875,0.0,0.0,3.3081051300000004,0.01,0.0,40705.0,9.0,-277.5,-836.71875,0.0,0.25,1.6320799110000002,0.01,0.0,-0.38999998569488525,0.5799999833106995,1.2699999809265137,0.17926025390625,-0.0440673828125,0.9305419921875,35.36000061035156,0.0,168.0,1.679656982421875,-1.5733642578125,Closing,0.0,0.0,1.0,0.0,0.0,0.0,0.0,0.0,
1.948984999999986,0.0,0.0,46955.0,6.875,375.0,836.71875,0.0,0.25,0.811767495,0.01,-0.04028319899999999,36071.0,13.0,-397.5,-836.71875,0.0,0.25,0.379638633,0.01,0.003662108999999525,-1216.0,7.5,300.0,836.71875,0.0,0.0,3.305663724,0.01,0.0012207030000004337,40641.0,8.625,-382.5,-836.71875,0.0,0.25,1.6284178020000002,0.01,-0.010986326999999907,-0.5,0.8299999833106995,1.2899999618530273,0.1893310546875,0.0081787109375,1.1282958984375,35.36000061035156,0.0,173.0,1.6893310546875,-1.573944091796875,Closing,0.0,0.0,1.0,0.0,0.0,0.0,0.0,0.0,
1.9934049999999988,0.0,0.0,46955.0,6.625,472.5,836.71875,0.0,0.125,0.8032225740000001,0.01,4.9188232670000005,36071.0,12.0,-502.5,-836.71875,0.0,0.25,0.385742148,0.01,0.0,-1216.0,7.375,450.0,836.71875,0.0,0.0,3.3093258330000004,0.01,-0.0012207030000004337,40641.0,8.125,-487.5,-836.71875,0.0,0.25,1.6296385050000002,0.01,-0.00610351500000017,-0.5600000023841858,1.1299999952316284,1.3300000429153442,0.21148681640625,-0.005859375,1.12481689453125,35.36000061035156,0.0,189.0,1.70111083984375,-1.5750885009765625,Closing,0.0,0.0,1.0,0.0,0.0,0.0,0.0,0.0,
2.0358459999999905,0.0,0.0,46955.0,6.125,562.5,836.71875,0.0,0.125,0.8020018710000001,0.01,0.0,36071.0,9.875,-652.5,-836.71875,0.0,0.25,0.385742148,0.01,0.0,-1216.0,6.625,555.0,836.71875,0.0,0.0,3.3129879420000004,0.01,0.0,40641.0,7.375,-600.0,-836.71875,0.0,0.25,1.6284178020000002,0.01,0.0,-0.5899999737739563,1.4800000190734863,1.4500000476837158,0.2012939453125,0.0196533203125,0.93878173828125,35.36000061035156,0.0,177.0,1.715179443359375,-1.5768890380859375,Closing,0.0,0.0,1.0,0.0,0.0,0.0,0.0,0.0,
2.0763340000000023,0.0,0.0,47064.0,5.625,652.5,836.71875,0.0,0.125,0.8032225740000001,0.01,0.0,35952.0,8.375,-742.5,-836.71875,0.0,0.25,0.39062496,0.01,0.0,-1111.0,6.0,652.5,836.71875,0.0,0.0,3.3154293480000003,0.01,0.0,40531.0,6.625,-705.0,-836.71875,0.0,0.25,1.6284178020000002,0.01,0.0,-0.6100000143051147,1.600000023841858,1.559999942779541,0.16424560546875,0.08306884765625,1.12066650390625,35.310001373291016,0.0,135.0,1.7305450439453125,-1.5792388916015625,Closing,0.0,0.0,1.0,0.0,0.0,0.0,0.0,0.0,
2.1198669999999984,0.0,0.0,47064.0,5.0,727.5,836.71875,0.0,0.125,0.8032225740000001,0.01,0.0,35952.0,6.875,-817.5,-836.71875,0.0,0.25,0.40039058400000005,0.01,0.0,-1111.0,5.25,735.0,836.71875,0.0,0.0,3.3203121600000003,0.01,0.0,40531.0,5.875,-787.5,-836.71875,0.0,0.25,1.6296385050000002,0.01,0.0,-0.5799999833106995,1.7200000286102295,1.690000057220459,0.107666015625,0.04290771484375,1.0345458984375,35.310001373291016,0.0,77.0,1.746978759765625,-1.5817108154296875,Closing,0.0,0.0,1.0,0.0,0.0,0.0,0.0,0.0,
2.163410999999993,0.0,0.0,47064.0,4.25,795.0,836.71875,0.0,0.125,0.8032225740000001,0.01,0.0,35952.0,5.625,-877.5,-836.71875,0.0,0.25,0.405273396,0.01,0.0,-1111.0,4.625,795.0,836.71875,0.0,0.0,3.3251949720000002,0.01,0.0,40531.0,5.0,-855.0,-836.71875,0.0,0.25,1.6284178020000002,0.01,0.0,-0.5799999833106995,1.840000033378601,1.8200000524520874,0.10693359375,0.07794189453125,0.60516357421875,35.310001373291016,0.0,90.0,1.764068603515625,-1.5842132568359375,Closing,0.0,0.0,1.0,0.0,0.0,0.0,0.0,0.0,
2.2083800000000045,0.0,0.0,47206.0,3.625,870.0,836.71875,0.0,0.125,0.76904289,0.01,0.0,35806.0,4.625,-922.5,-836.71875,0.0,0.25,0.41381831700000005,0.01,0.0,-976.0,4.0,847.5,836.71875,0.0,0.0,3.3239742690000003,0.01,0.0,40386.0,4.25,-907.5,-836.71875,0.0,0.25,1.6284178020000002,0.01,0.0,-0.5799999833106995,1.75,1.9500000476837158,0.0411376953125,-0.12109375,1.0672607421875,35.310001373291016,0.0,4.0,1.7811431884765625,-1.586761474609375,Closing,0.0,0.0,1.0,0.0,0.0,0.0,0.0,0.0,
2.253183999999979,0.0,0.0,47206.0,3.125,907.5,836.71875,0.0,0.125,0.8032225740000001,0.01,-0.0012207030000004337,35806.0,3.75,-952.5,-836.71875,0.0,0.25,0.419921832,0.01,0.0,-976.0,3.5,892.5,836.71875,0.0,0.0,3.3166500510000003,0.01,0.0,40386.0,3.625,-952.5,-836.71875,0.0,0.25,1.6284178020000002,0.01,0.0,-0.5600000023841858,1.8300000429153442,2.0799999237060547,0.01397705078125,0.11444091796875,1.1221923828125,35.310001373291016,0.0,-17.0,1.7982025146484375,-1.5892333984375,Closing,0.0,0.0,1.0,0.0,0.0,0.0,0.0,0.0,
2.296182000000001,0.0,0.0,47206.0,2.125,945.0,639.84375,0.0,0.125,0.8032225740000001,0.01,0.0012207030000004337,35650.0,2.875,-975.0,-639.84375,0.0,0.25,0.418701129,0.01,0.004882811999999959,-825.0,2.625,922.5,639.84375,0.0,0.0,3.3239742690000003,0.01,-0.0012207029999995456,40226.0,2.625,-982.5,-639.84375,0.0,0.25,1.6284178020000002,0.01,0.0012207030000002117,-0.5,1.8300000429153442,2.200000047683716,-0.00238037109375,0.02313232421875,0.9853515625,35.310001373291016,0.0,-32.0,1.8153533935546875,-1.5909423828125,Closing,0.0,0.0,1.0,0.0,0.0,0.0,0.0,0.0,
2.3466389999999957,0.0,0.0,47359.0,0.75,952.5,131.25,0.0,0.125,0.8020018710000001,0.01,0.0,35650.0,1.25,-967.5,-131.25,0.0,0.125,0.423583941,0.01,0.004882811999999959,-825.0,1.125,952.5,131.25,0.0,0.0,3.3251949720000002,0.01,0.0,40226.0,1.125,-990.0,-131.25,0.0,0.25,1.600341633,0.01,-0.00610351500000017,-0.5,1.659999966621399,2.2699999809265137,-0.07086181640625,0.016845703125,1.21014404296875,35.310001373291016,0.0,-104.0,1.831695556640625,-1.5925140380859375,Closing,0.0,0.0,1.0,0.0,0.0,0.0,0.0,0.0,
2.3902309999999996,0.0,0.0,47359.0,0.125,907.5,0.0,0.0,0.125,0.8032225740000001,0.01,0.0,35650.0,0.25,-885.0,0.0,0.0,0.125,0.423583941,0.01,-0.0012207030000004337,-825.0,0.25,922.5,0.0,0.0,0.0,3.328857081,0.01,0.004882811999999959,40226.0,0.0,-870.0,0.0,0.0,0.125,1.571044761,0.01,4.9311445339999995,-0.46000000834465027,1.4299999475479126,2.2799999713897705,-0.21026611328125,-0.03289794921875,0.83599853515625,35.310001373291016,0.0,-231.0,1.84686279296875,-1.5935516357421875,Closing,0.0,0.0,1.0,0.0,0.0,0.0,0.0,0.0,
2.430986999999994,0.0,0.0,47484.0,0.0,787.5,0.0,0.0,0.125,0.8032225740000001,0.01,0.0,35525.0,0.0,-742.5,0.0,0.0,0.125,0.423583941,0.01,0.0012207030000004337,-705.0,0.0,727.5,0.0,0.0,0.0,3.333739893,0.01,0.0012207029999995456,40101.0,0.125,-765.0,0.0,0.0,0.25,1.5844724940000001,0.01,-0.029296871999999752,-0.5099999904632568,1.0499999523162842,2.200000047683716,-0.138671875,-0.0233154296875,0.8189697265625,35.310001373291016,0.0,-154.0,1.85986328125,-1.593841552734375,Closing,0.0,0.0,1.0,0.0,0.0,0.0,0.0,0.0,
2.4818499999999766,0.0,0.0,47484.0,0.0,750.0,0.0,0.0,0.125,0.8032225740000001,0.01,0.0,35525.0,0.0,-750.0,0.0,0.0,0.125,0.423583941,0.01,0.0,-705.0,0.0,697.5,0.0,0.0,0.0,3.328857081,0.01,0.003662109000000413,40101.0,0.125,-765.0,0.0,0.0,0.25,1.594238118,0.01,0.01586913900000031,-0.5299999713897705,0.7599999904632568,2.1600000858306885,-0.28466796875,0.051513671875,1.10906982421875,35.310001373291016,0.0,-296.0,1.8708953857421875,-1.594818115234375,Closing,0.0,0.0,1.0,0.0,0.0,0.0,0.0,0.0,
2.527487999999983,0.0,0.0,47484.0,0.0,802.5,0.0,0.0,0.125,0.8020018710000001,0.01,0.0,35525.0,0.0,-735.0,0.0,0.0,0.125,0.418701129,0.01,-0.0012207030000004337,-705.0,0.0,750.0,0.0,0.0,0.0,3.330077784,0.01,-0.004882811999999959,40002.0,0.125,-772.5,0.0,0.0,0.125,1.614990069,0.01,0.012207029999999897,-0.5899999737739563,-0.7799999713897705,1.399999976158142,-1.00628662109375,-0.04638671875,1.1224365234375,35.310001373291016,0.0,-991.0,1.875762939453125,-1.595672607421875,Closing,0.0,0.0,1.0,0.0,0.0,0.0,0.0,0.0,
2.571237999999983,0.0,0.0,47600.0,0.0,697.5,0.0,0.0,0.125,0.8032225740000001,0.01,0.0,35442.0,0.0,-510.0,0.0,0.0,0.125,0.419921832,0.01,-0.003662108999999525,-591.0,0.0,675.0,0.0,0.0,0.0,3.331298487,0.01,0.0,40002.0,0.125,-420.0,0.0,0.0,0.125,1.614990069,0.01,-4.938468752,-0.8700000047683716,-2.190000057220459,0.0,-0.555419921875,-0.0318603515625,1.12725830078125,35.310001373291016,0.0,-511.0,1.870269775390625,-1.5977325439453125,Closing,0.0,0.0,1.0,0.0,0.0,0.0,0.0,0.0,
2.6148999999999942,0.0,0.0,47600.0,0.0,517.5,0.0,0.0,0.125,0.8032225740000001,0.01,0.0,35442.0,0.0,-217.5,0.0,0.0,0.125,0.418701129,0.01,0.0,-591.0,0.0,435.0,0.0,0.0,0.0,3.330077784,0.01,0.0,40002.0,0.125,-135.0,0.0,0.0,0.125,1.613769366,0.01,0.0,-0.5099999904632568,-2.619999885559082,-0.4300000071525574,-0.05078125,0.437744140625,0.95849609375,35.34000015258789,0.0,-10.0,1.8594818115234375,-1.598968505859375,Closing,0.0,0.0,1.0,0.0,0.0,0.0,0.0,0.0,
2.659350999999995,0.0,0.0,47600.0,0.0,202.5,0.0,0.0,0.125,0.8020018710000001,0.01,0.0,35448.0,0.0,-15.0,0.0,0.0,0.125,0.418701129,0.01,0.0,-585.0,0.0,67.5,0.0,0.0,0.0,3.3642574680000004,0.01,0.0,40013.0,0.125,37.5,0.0,0.0,0.125,1.638183426,0.01,0.0,-0.25,-2.619999885559082,0.0,0.02667236328125,0.00958251953125,1.15179443359375,35.34000015258789,0.0,79.0,1.848175048828125,-1.5980987548828125,Closing,0.0,0.0,1.0,0.0,0.0,0.0,0.0,0.0,
2.7063499999999765,0.0,0.0,47594.0,0.0,-120.0,0.0,0.0,0.125,0.806884683,0.01,0.0,35448.0,0.0,37.5,0.0,0.0,0.125,0.424804644,0.01,0.0,-585.0,0.0,-22.5,0.0,0.0,0.0,3.359374656,0.01,0.029296871999999752,40013.0,0.125,97.5,0.0,0.0,0.125,1.639404129,0.01,0.024414060000000015,-0.5400000214576721,-2.299999952316284,0.3700000047683716,0.066162109375,-0.05322265625,0.931884765625,35.34000015258789,0.0,103.0,1.8382568359375,-1.59942626953125,Closing,0.0,0.0,1.0,0.0,0.0,0.0,0.0,0.0,
2.750191999999981,0.0,0.0,47594.0,0.0,-240.0,0.0,0.0,0.125,0.811767495,0.01,0.0,35448.0,0.0,82.5,0.0,0.0,0.125,0.423583941,0.01,0.0,-585.0,0.0,-52.5,0.0,0.0,0.0,3.359374656,0.01,0.029296871999999752,40013.0,0.125,105.0,0.0,0.0,0.25,1.638183426,0.01,0.024414060000000015,-0.5299999713897705,-2.0799999237060547,0.36000001430511475,-0.03912353515625,0.09466552734375,1.07208251953125,35.34000015258789,0.0,0.0,1.8304290771484375,-1.6021881103515625,Closing,0.0,0.0,1.0,0.0,0.0,0.0,0.0,0.0,
2.7918399999999965,0.0,0.0,47578.0,0.0,-157.5,0.0,0.0,0.125,0.811767495,0.01,0.009765623999999917,35463.0,0.0,97.5,0.0,0.0,0.125,0.423583941,0.01,0.004882811999999959,-603.0,0.0,-120.0,0.0,0.0,0.0,3.359374656,0.01,0.0,40028.0,0.125,97.5,0.0,0.0,0.25,1.639404129,0.01,0.0,-0.3499999940395355,-1.899999976158142,0.20000000298023224,0.0184326171875,0.04998779296875,1.0975341796875,35.34000015258789,0.0,55.0,1.823760986328125,-1.60418701171875,Closing,0.0,0.0,1.0,0.0,0.0,0.0,0.0,0.0,
2.8315939999999826,0.0,0.0,47578.0,0.0,-60.0,0.0,0.0,0.125,0.812988198,0.01,0.0,35463.0,0.0,75.0,0.0,0.0,0.125,0.43334956500000005,0.01,0.0,-603.0,0.0,-67.5,0.0,0.0,0.0,3.359374656,0.01,0.0,40028.0,0.125,67.5,0.0,0.0,0.25,1.638183426,0.01,0.0,-0.4099999964237213,-1.6799999475479126,0.11999999731779099,0.06982421875,-0.06195068359375,0.96844482421875,35.34000015258789,0.0,98.0,1.8180999755859375,-1.60601806640625,Closing,0.0,0.0,1.0,0.0,0.0,0.0,0.0,0.0,
2.8744860000000045,0.0,0.0,47578.0,0.0,-15.0,0.0,0.0,0.125,0.811767495,0.01,0.0,35463.0,0.0,37.5,0.0,0.0,0.125,0.43334956500000005,0.01,0.009765623999999917,-603.0,0.0,-7.5,0.0,0.0,0.0,3.358153953,0.01,0.0,40028.0,0.125,30.0,0.0,0.0,0.25,1.639404129,0.01,0.0,-0.5199999809265137,-1.6200000047683716,0.20999999344348907,0.0029296875,0.0223388671875,0.9610595703125,35.34000015258789,0.0,30.0,1.8133087158203125,-1.6084442138671875,Closing,0.0,0.0,1.0,0.0,0.0,0.0,0.0,0.0,
2.9159529999999796,0.0,0.0,47578.0,0.0,0.0,0.0,0.0,0.125,0.811767495,0.01,0.0,35465.0,0.0,7.5,0.0,0.0,0.125,0.43334956500000005,0.01,0.0,-603.0,0.0,0.0,0.0,0.0,0.0,3.358153953,0.01,0.0,40029.0,0.125,0.0,0.0,0.0,0.25,1.638183426,0.01,0.0,-0.4399999976158142,-1.600000023841858,0.25,-0.00823974609375,0.07818603515625,1.0030517578125,35.34000015258789,0.0,20.0,1.8103485107421875,-1.60986328125,Opening,0.0,0.0,1.0,0.0,0.0,0.0,0.0,0.0,
2.9674229999999806,0.0,0.0,47578.0,0.0,0.0,0.0,0.0,0.125,0.811767495,0.01,0.0,35465.0,0.0,0.0,0.0,0.0,0.125,0.43334956500000005,0.01,0.0,-603.0,0.0,0.0,0.0,0.0,0.0,3.354491844,0.01,0.0,40029.0,0.125,0.0,0.0,0.0,0.25,1.638183426,0.01,0.0,-0.3700000047683716,-1.5499999523162842,0.23000000417232513,-7.32421875E-4,0.0169677734375,1.031982421875,35.34000015258789,0.0,27.0,1.8061065673828125,-1.611358642578125,Opening,0.0,0.0,1.0,0.0,0.0,0.0,0.0,0.0,
3.011548999999999,0.0,0.0,47578.0,0.0,0.0,0.0,0.0,0.125,0.811767495,0.01,0.0,35465.0,0.0,0.0,0.0,0.0,0.125,0.42846675300000003,0.01,-0.003662109000000413,-603.0,0.0,0.0,0.0,0.0,0.0,3.353271141,0.01,-0.004882811999999959,40029.0,0.125,0.0,0.0,0.0,0.25,1.639404129,0.01,0.0,-0.49000000953674316,-1.5299999713897705,0.18000000715255737,-0.00946044921875,-0.079345703125,1.02435302734375,35.34000015258789,0.0,17.0,1.802154541015625,-1.6131744384765625,Opening,0.0,0.0,1.0,0.0,0.0,0.0,0.0,0.0,
3.0521689999999944,0.0,0.0,47578.0,0.0,0.0,0.0,0.0,0.125,0.811767495,0.01,0.0,35465.0,0.0,0.0,0.0,0.0,0.125,0.42846675300000003,0.01,-0.003662109000000413,-603.0,0.0,0.0,0.0,0.0,0.0,3.354491844,0.01,-0.004882811999999959,40029.0,0.125,0.0,0.0,0.0,0.25,1.638183426,0.01,0.0,-0.5299999713897705,-1.5499999523162842,0.15000000596046448,-0.04718017578125,0.0404052734375,1.00677490234375,35.34000015258789,0.0,-19.0,1.7994842529296875,-1.6147308349609375,Opening,0.0,0.0,1.0,0.0,0.0,0.0,0.0,0.0,
3.0923499999999766,0.0,0.0,47578.0,0.0,0.0,0.0,0.0,0.125,0.811767495,0.01,0.0,35465.0,0.0,0.0,0.0,0.0,0.125,0.42846675300000003,0.01,-0.0012207029999995456,-603.0,0.0,0.0,0.0,0.0,0.0,3.354491844,0.01,0.0,40029.0,0.125,0.0,0.0,0.0,0.25,1.6369627230000001,0.01,0.0,-0.4000000059604645,-1.590000033378601,0.15000000596046448,-0.0289306640625,0.062255859375,1.01971435546875,35.34000015258789,0.0,0.0,1.7953338623046875,-1.6166839599609375,Opening,0.0,0.0,1.0,0.0,0.0,0.0,0.0,0.0,
3.130554999999993,0.0,0.0,47578.0,0.0,0.0,0.0,0.0,0.125,0.811767495,0.01,-0.0012207030000004337,35465.0,0.0,0.0,0.0,0.0,0.125,0.42846675300000003,0.01,0.0,-603.0,0.0,0.0,0.0,0.0,0.0,3.353271141,0.01,0.0,40029.0,0.125,0.0,0.0,0.0,0.25,1.638183426,0.01,0.0,-0.3700000047683716,-1.5800000429153442,0.1899999976158142,0.00482177734375,-0.06719970703125,1.07293701171875,35.29999923706055,0.0,34.0,1.7913970947265625,-1.6172332763671875,Opening,0.0,0.0,1.0,0.0,0.0,0.0,0.0,0.0,
3.1712339999999966,0.0,0.0,47578.0,0.0,0.0,0.0,0.0,0.125,0.811767495,0.01,-0.0012207029999995456,35465.0,0.0,0.0,0.0,0.0,0.125,0.42846675300000003,0.01,0.0,-603.0,0.0,0.0,0.0,0.0,0.0,3.354491844,0.01,0.0,40029.0,0.125,0.0,0.0,0.0,0.25,1.638183426,0.01,0.0,-0.5099999904632568,-1.5399999618530273,0.1899999976158142,-0.0284423828125,-0.00982666015625,0.9483642578125,35.29999923706055,0.0,-2.0,1.788909912109375,-1.6178436279296875,Opening,0.0,0.0,1.0,0.0,0.0,0.0,0.0,0.0,
3.213764999999985,0.0,0.0,47578.0,0.0,0.0,0.0,0.0,0.125,0.811767495,0.01,0.0012207029999995456,35465.0,0.0,0.0,0.0,0.0,0.125,0.42846675300000003,0.01,0.0,-603.0,0.0,0.0,0.0,0.0,0.0,3.354491844,0.01,0.0,40029.0,0.125,0.0,0.0,0.0,0.25,1.638183426,0.01,0.0,-0.4699999988079071,-1.5099999904632568,0.1599999964237213,0.01751708984375,0.04156494140625,0.97296142578125,35.29999923706055,0.0,43.0,1.7889862060546875,-1.61846923828125,Opening,0.0,0.0,1.0,0.0,0.0,0.0,0.0,0.0,
3.2548679999999877,0.0,0.0,47578.0,0.0,0.0,0.0,0.0,0.125,0.812988198,0.01,0.0012207029999995456,35465.0,0.0,0.0,0.0,0.0,0.125,0.42846675300000003,0.01,0.0,-603.0,0.0,0.0,0.0,0.0,0.0,3.353271141,0.01,0.0,40029.0,0.125,0.0,0.0,0.0,0.25,1.638183426,0.01,0.0,-0.4099999964237213,-1.4900000095367432,0.1599999964237213,-0.05902099609375,0.0648193359375,0.94805908203125,35.29999923706055,0.0,-34.0,1.7892608642578125,-1.6185302734375,Opening,0.0,0.0,1.0,0.0,0.0,0.0,0.0,0.0,
3.2953789999999863,0.0,0.0,47578.0,0.0,0.0,0.0,0.0,0.125,0.806884683,0.01,0.0012207030000004337,35465.0,0.0,0.0,0.0,0.0,0.125,0.42846675300000003,0.01,0.0,-603.0,0.0,0.0,0.0,0.0,0.0,3.353271141,0.01,0.0,40029.0,0.125,0.0,0.0,0.0,0.25,1.638183426,0.01,0.0,-0.41999998688697815,-1.4600000381469727,0.18000000715255737,0.04010009765625,-0.08343505859375,0.92962646484375,35.29999923706055,0.0,63.0,1.7894134521484375,-1.61846923828125,Opening,0.0,0.0,1.0,0.0,0.0,0.0,0.0,0.0,
3.332832999999984,0.0,0.0,47578.0,0.0,0.0,0.0,0.0,0.125,0.811767495,0.01,-0.0012207030000004337,35465.0,0.0,0.0,0.0,0.0,0.125,0.429687456,0.01,0.0,-603.0,0.0,0.0,0.0,0.0,0.0,3.353271141,0.01,0.0,40029.0,0.125,0.0,0.0,0.0,0.25,1.638183426,0.01,0.0,-0.5299999713897705,-1.4299999475479126,0.18000000715255737,0.05596923828125,-0.09686279296875,0.8372802734375,35.29999923706055,0.0,76.0,1.7895660400390625,-1.61907958984375,Opening,0.0,0.0,1.0,0.0,0.0,0.0,0.0,0.0,
3.3735,0.0,0.0,47578.0,0.0,0.0,0.0,0.0,0.125,0.811767495,0.01,0.0012207030000004337,35465.0,0.0,0.0,0.0,0.0,0.125,0.42846675300000003,0.01,0.0,-603.0,0.0,0.0,0.0,0.0,0.0,3.353271141,0.01,0.0,40029.0,0.125,0.0,0.0,0.0,0.25,1.638183426,0.01,0.0,-0.49000000953674316,-1.4800000190734863,0.18000000715255737,-0.053466796875,0.0498046875,1.18756103515625,35.29999923706055,0.0,-22.0,1.7896728515625,-1.6196136474609375,Opening,0.0,0.0,1.0,0.0,0.0,0.0,0.0,0.0,
3.4149029999999914,0.0,0.0,47578.0,0.0,0.0,0.0,0.0,0.125,0.806884683,0.01,-0.0024414059999999793,35465.0,0.0,0.0,0.0,0.0,0.125,0.429687456,0.01,0.0,-603.0,0.0,0.0,0.0,0.0,0.0,3.353271141,0.01,0.0,40029.0,0.125,0.0,0.0,0.0,0.25,1.638183426,0.01,0.0,-0.4300000071525574,-1.440000057220459,0.18000000715255737,-0.02545166015625,0.0159912109375,1.09820556640625,35.29999923706055,0.0,2.0,1.789764404296875,-1.620025634765625,Opening,0.0,0.0,1.0,0.0,0.0,0.0,0.0,0.0,
3.4545229999999867,0.0,0.0,47578.0,0.0,0.0,0.0,0.0,0.125,0.811767495,0.01,-0.0024414059999999793,35465.0,0.0,0.0,0.0,0.0,0.125,0.42846675300000003,0.01,0.0,-603.0,0.0,0.0,0.0,0.0,0.0,3.353271141,0.01,0.0,40029.0,0.125,0.0,0.0,0.0,0.25,1.638183426,0.01,0.0,-0.44999998807907104,-1.409999966621399,0.18000000715255737,-0.00225830078125,-0.00543212890625,1.012939453125,35.29999923706055,0.0,22.0,1.789825439453125,-1.6201324462890625,Opening,0.0,0.0,1.0,0.0,0.0,0.0,0.0,0.0,
3.4936349999999803,0.0,0.0,47578.0,0.0,0.0,0.0,0.0,0.125,0.811767495,0.01,0.0012207029999995456,35465.0,0.0,0.0,0.0,0.0,0.125,0.429687456,0.01,0.0,-603.0,0.0,0.0,0.0,0.0,0.0,3.353271141,0.01,0.0,40029.0,0.125,0.0,0.0,0.0,0.25,1.638183426,0.01,0.0,-0.47999998927116394,-1.399999976158142,0.18000000715255737,-0.06201171875,-0.00836181640625,1.0538330078125,35.29999923706055,0.0,-36.0,1.78997802734375,-1.620269775390625,Opening,0.0,0.0,1.0,0.0,0.0,0.0,0.0,0.0,
3.5302669999999927,0.0,0.0,47578.0,0.0,0.0,0.0,0.0,0.125,0.811767495,0.01,0.0012207030000004337,35465.0,0.0,0.0,0.0,0.0,0.125,0.42846675300000003,0.01,0.0,-603.0,0.0,0.0,0.0,0.0,0.0,3.354491844,0.01,0.0,40029.0,0.125,0.0,0.0,0.0,0.25,1.638183426,0.01,0.0,-0.47999998927116394,-1.3799999952316284,0.18000000715255737,-0.022216796875,0.04913330078125,1.12567138671875,35.29999923706055,0.0,5.0,1.790130615234375,-1.6206207275390625,Opening,0.0,0.0,1.0,0.0,0.0,0.0,0.0,0.0,
3.5700920000000043,0.0,0.0,47578.0,0.0,0.0,0.0,0.0,0.125,0.811767495,0.01,0.0,35465.0,0.0,0.0,0.0,0.0,0.125,0.42846675300000003,0.01,0.0,-603.0,0.0,0.0,0.0,0.0,0.0,3.353271141,0.01,0.0,40029.0,0.125,0.0,0.0,0.0,0.25,1.638183426,0.01,0.0,-0.4399999976158142,-1.350000023841858,0.18000000715255737,-0.021728515625,0.03118896484375,1.04791259765625,35.29999923706055,0.0,3.0,1.790191650390625,-1.62060546875,Opening,0.0,0.0,1.0,0.0,0.0,0.0,0.0,0.0,
3.6144009999999835,0.0,0.0,47578.0,0.0,0.0,0.0,0.0,0.125,0.811767495,0.01,0.0,35465.0,0.0,0.0,0.0,0.0,0.125,0.429687456,0.01,0.0,-603.0,0.0,0.0,0.0,0.0,0.0,3.353271141,0.01,0.0,40029.0,0.125,0.0,0.0,0.0,0.25,1.638183426,0.01,0.0,-0.44999998807907104,-1.309999942779541,0.18000000715255737,-0.01080322265625,-0.03656005859375,0.98883056640625,35.290000915527344,0.0,11.0,1.790374755859375,-1.6205291748046875,Opening,0.0,0.0,1.0,0.0,0.0,0.0,0.0,0.0,
3.655032999999996,0.0,0.0,47578.0,0.0,0.0,0.0,0.0,0.125,0.811767495,0.01,0.0,35465.0,0.0,0.0,0.0,0.0,0.125,0.42846675300000003,0.01,0.0,-603.0,0.0,0.0,0.0,0.0,0.0,3.353271141,0.01,0.0,40029.0,0.125,0.0,0.0,0.0,0.25,1.639404129,0.01,0.0,-0.4699999988079071,-1.3200000524520874,0.18000000715255737,-0.03289794921875,-0.01556396484375,0.9840087890625,35.290000915527344,0.0,-10.0,1.79046630859375,-1.620697021484375,Opening,0.0,0.0,1.0,0.0,0.0,0.0,0.0,0.0,
3.696073999999993,0.0,0.0,47578.0,0.0,0.0,0.0,0.0,0.125,0.811767495,0.01,0.0,35465.0,0.0,0.0,0.0,0.0,0.125,0.42846675300000003,0.01,0.0,-603.0,0.0,0.0,0.0,0.0,0.0,3.353271141,0.01,0.0,40029.0,0.125,0.0,0.0,0.0,0.25,1.638183426,0.01,0.0,-0.5,-1.2999999523162842,0.18000000715255737,-0.0341796875,0.025146484375,0.97442626953125,35.290000915527344,0.0,-11.0,1.79046630859375,-1.620635986328125,Opening,0.0,0.0,1.0,0.0,0.0,0.0,0.0,0.0,
3.7353040000000037,0.0,0.0,47578.0,0.0,0.0,0.0,0.0,0.125,0.811767495,0.01,-0.0012207030000004337,35465.0,0.0,0.0,0.0,0.0,0.125,0.42846675300000003,0.01,0.0,-603.0,0.0,0.0,0.0,0.0,0.0,3.354491844,0.01,0.0,40029.0,0.125,0.0,0.0,0.0,0.25,1.638183426,0.01,0.0,-0.44999998807907104,-1.2899999618530273,0.18000000715255737,-0.03509521484375,-0.026611328125,1.07177734375,35.290000915527344,0.0,-10.0,1.7905426025390625,-1.6202239990234375,Opening,0.0,0.0,1.0,0.0,0.0,0.0,0.0,0.0,
3.7761759999999778,0.0,0.0,47578.0,0.0,0.0,0.0,0.0,0.125,0.811767495,0.01,0.0,35465.0,0.0,0.0,0.0,0.0,0.125,0.429687456,0.01,0.0,-603.0,0.0,0.0,0.0,0.0,0.0,3.353271141,0.01,0.0,40029.0,0.125,0.0,0.0,0.0,0.25,1.638183426,0.01,0.0,-0.46000000834465027,-1.2699999809265137,0.18000000715255737,-0.0096435546875,-0.0352783203125,0.9742431640625,35.290000915527344,0.0,11.0,1.7905426025390625,-1.6198883056640625,Opening,0.0,0.0,1.0,0.0,0.0,0.0,0.0,0.0,
3.8175749999999824,0.0,0.0,47578.0,1.375,0.0,-1074.8031377792358,0.0,0.125,0.812988198,4.932250999999998,0.0,35465.0,0.625,15.0,1074.8031377792358,0.0,0.125,0.423583941,4.963769999999998,0.0,-603.0,2.125,0.0,-1074.8031377792358,0.0,0.0,3.353271141,0.01,0.0,40029.0,2.5,7.5,1074.8031377792358,0.0,0.25,1.627197099,0.01,0.0,-0.49000000953674316,-1.2599999904632568,0.18000000715255737,0.011962890625,0.00970458984375,0.96820068359375,35.290000915527344,0.0,33.0,1.790557861328125,-1.6197357177734375,Opening,0.0,0.0,1.0,0.0,0.0,0.0,0.0,0.0,
3.860345000000001,0.0,0.0,47578.0,7.875,-97.5,-1918.1101977825165,0.0,0.125,0.821533119,4.932250999999998,0.0,35499.0,16.25,157.5,1918.1101977825165,0.0,0.0,0.424804644,4.963769999999998,0.0,-611.0,8.0,-22.5,-1918.1101977825165,0.0,0.0,3.358153953,0.01,0.0,40061.0,10.375,142.5,1918.1101977825165,0.0,0.25,1.569824058,0.01,0.0,-0.5199999809265137,-1.899999976158142,0.12999999523162842,-0.459716796875,0.24090576171875,1.12884521484375,35.290000915527344,0.0,-421.0,1.7891845703125,-1.619171142578125,Opening,0.0,0.0,1.0,0.0,0.0,0.0,0.0,0.0,
3.906300999999978,0.0,0.0,47548.0,18.875,-232.5,-2083.464574813843,0.0,0.125,0.825195228,4.932250999999998,-4.917602564,35499.0,24.25,247.5,2083.464574813843,0.0,0.125,0.423583941,4.963769999999998,0.0,-611.0,15.875,-202.5,-2083.464574813843,0.0,0.0,3.358153953,0.01,0.004882811999999959,40061.0,20.25,307.5,2083.464574813843,0.0,0.25,1.5563963250000001,0.01,4.894523444,-0.3799999952316284,-2.7100000381469727,-0.05999999865889549,-0.57916259765625,-0.0142822265625,0.9503173828125,35.290000915527344,0.0,-533.0,1.7829742431640625,-1.6176910400390625,Opening,0.0,0.0,1.0,0.0,0.0,0.0,0.0,0.0,
3.9484489999999934,0.0,0.0,47548.0,22.625,-330.0,-2100.0,0.0,0.125,0.819091713,4.932250999999998,-0.0012207029999999897,35499.0,34.25,390.0,2100.0,0.0,0.125,0.423583941,4.963769999999998,0.0,-611.0,20.25,-525.0,-2100.0,0.0,0.0,3.359374656,0.01,0.0,40061.0,23.625,435.0,2100.0,0.0,0.25,1.5576170280000001,0.01,-0.013427732999999442,-0.3100000023841858,-3.630000114440918,-0.10000000149011612,-0.4632568359375,-0.0147705078125,0.76361083984375,35.290000915527344,0.0,-413.0,1.7712554931640625,-1.6158599853515625,Opening,0.0,0.0,1.0,0.0,0.0,0.0,0.0,0.0,
3.9909739999999876,0.0,0.0,47443.0,24.875,-472.5,-2100.0,0.0,0.125,0.8312987430000001,4.932250999999998,0.0,35604.0,38.125,517.5,2100.0,0.0,0.125,0.429687456,4.963769999999998,0.0,-755.0,20.0,-690.0,-2100.0,0.0,0.0,3.3703609830000003,0.01,0.0,40163.0,25.25,600.0,2100.0,0.0,0.25,1.5576170280000001,0.01,0.0,-0.25,-4.53000020980835,-0.05000000074505806,-0.4691162109375,-0.09527587890625,1.05157470703125,35.290000915527344,0.0,-384.0,1.754150390625,-1.6138153076171875,Opening,0.0,0.0,1.0,0.0,0.0,0.0,0.0,0.0,
4.028712,0.0,0.0,47443.0,25.875,-757.5,-2100.0,0.0,0.125,0.832519446,4.932250999999998,0.0,35604.0,38.875,765.0,2100.0,0.0,0.125,0.417480426,4.963769999999998,0.0,-755.0,17.375,-952.5,-2100.0,0.0,0.0,3.359374656,0.01,0.0,40163.0,25.5,855.0,2100.0,0.0,0.25,1.5502928100000002,0.01,0.0,-0.25999999046325684,-4.949999809265137,-0.05000000074505806,-0.30511474609375,0.0062255859375,1.14654541015625,35.290000915527344,0.0,-80.0,1.7326202392578125,-1.612823486328125,Opening,0.0,0.0,1.0,0.0,0.0,0.0,0.0,0.0,
4.069152999999991,0.0,0.0,47443.0,24.375,-1020.0,-2100.0,0.0,0.125,0.821533119,4.932250999999998,0.0,35604.0,35.5,1042.5,2100.0,0.0,0.125,0.419921832,4.963769999999998,0.0,-755.0,15.625,-1155.0,-2100.0,0.0,0.0,3.358153953,0.01,0.0,40163.0,24.625,1102.5,2100.0,0.0,0.25,1.56249984,0.01,0.0,-0.18000000715255737,-5.550000190734863,-0.07999999821186066,-0.38824462890625,0.0123291015625,0.611083984375,35.290000915527344,0.0,-327.0,1.71697998046875,-1.6132049560546875,Opening,0.0,0.0,1.0,0.0,0.0,0.0,0.0,0.0,
4.108758000000002,0.0,0.0,47227.0,22.5,-1237.5,-2100.0,0.0,0.125,0.8276366340000001,4.932250999999998,-0.0012207029999999897,35836.0,31.5,1305.0,2100.0,0.0,0.125,0.424804644,4.963769999999998,0.0,-991.0,14.0,-1357.5,-2100.0,0.0,0.0,3.35693325,0.01,0.0,40377.0,22.25,1222.5,2100.0,0.0,0.25,1.561279137,0.01,0.0,-0.1899999976158142,-5.980000019073486,-0.09000000357627869,-0.2666015625,-0.1201171875,1.24468994140625,35.290000915527344,0.0,-135.0,1.6998748779296875,-1.613433837890625,Opening,0.0,0.0,1.0,0.0,0.0,0.0,0.0,0.0,
4.149443999999988,0.0,0.0,47227.0,16.0,-1432.5,-1273.2283651828766,0.0,0.125,0.8276366340000001,4.932250999999998,0.0,35836.0,24.125,1515.0,1273.2283651828766,0.0,0.125,0.424804644,4.963769999999998,0.0,-991.0,11.625,-1530.0,-1273.2283651828766,0.0,0.0,3.358153953,0.01,0.0,40377.0,17.75,1440.0,1273.2283651828766,0.0,0.25,1.567382652,0.01,0.0,-0.20999999344348907,-6.21999979019165,-0.09000000357627869,-0.3084716796875,-0.2044677734375,0.94659423828125,35.31999969482422,0.0,-203.0,1.6817474365234375,-1.6136016845703125,Opening,0.0,0.0,1.0,0.0,0.0,0.0,0.0,0.0,
4.191440000000003,0.0,0.0,47227.0,4.375,-1567.5,-115.74803106486797,0.0,0.125,0.826415931,4.932250999999998,0.0,35836.0,9.25,1642.5,115.74803106486797,0.0,0.125,0.423583941,4.963769999999998,0.0,-991.0,4.375,-1650.0,-115.74803106486797,0.0,0.0,3.358153953,0.01,0.0,40377.0,7.625,1567.5,115.74803106486797,0.0,0.25,1.595458821,0.01,0.0,-0.2199999988079071,-6.289999961853027,-0.029999999329447746,-0.21051025390625,-0.11566162109375,1.02178955078125,35.31999969482422,0.0,-97.0,1.6531219482421875,-1.6141815185546875,Opening,0.0,0.0,1.0,0.0,0.0,0.0,0.0,0.0,
4.2326379999999775,0.0,0.0,46997.0,0.0,-1522.5,0.0,0.0,0.125,0.821533119,4.932250999999998,0.0,36066.0,0.875,1575.0,0.0,0.0,0.125,0.424804644,4.963769999999998,0.0,-1233.0,0.375,-1620.0,0.0,0.0,0.0,3.359374656,0.01,0.0,40615.0,0.125,1485.0,0.0,0.0,0.125,1.6540525650000002,0.01,0.030517575000000186,-0.44999998807907104,-5.809999942779541,0.03999999910593033,0.630126953125,-0.07012939453125,0.85833740234375,35.31999969482422,0.0,713.0,1.617340087890625,-1.6155242919921875,Opening,0.0,0.0,1.0,0.0,0.0,0.0,0.0,0.0,
4.274876999999979,0.0,0.0,46997.0,0.0,-1357.5,0.0,0.0,0.125,0.826415931,4.932250999999998,-0.0012207029999999897,36066.0,0.0,1395.0,0.0,0.0,0.125,0.423583941,4.963769999999998,0.0,-1233.0,0.0,-1417.5,0.0,0.0,0.0,3.358153953,0.01,0.0,40615.0,0.125,1387.5,0.0,0.0,0.25,1.652831862,0.01,-4.900626959,-0.550000011920929,-5.260000228881836,0.0,0.0087890625,-0.13092041015625,0.9266357421875,35.31999969482422,0.0,93.0,1.6024932861328125,-1.617431640625,Opening,0.0,0.0,1.0,0.0,0.0,0.0,0.0,0.0,
4.315647999999986,0.0,0.0,46997.0,0.0,-1320.0,0.0,0.0,0.125,0.825195228,4.932250999999998,-0.0012207029999999897,36066.0,0.0,1365.0,0.0,0.0,0.125,0.423583941,4.963769999999998,0.0,-1233.0,0.0,-1320.0,0.0,0.0,0.0,3.359374656,0.01,0.0,40615.0,0.125,1417.5,0.0,0.0,0.25,1.649169753,0.01,0.0,-0.5400000214576721,-5.170000076293945,-0.2800000011920929,-0.11920166015625,0.15582275390625,1.41729736328125,35.31999969482422,0.0,8.0,1.58233642578125,-1.621337890625,Opening,0.0,0.0,1.0,0.0,0.0,0.0,0.0,0.0,
4.356579999999987,0.0,0.0,46778.0,0.0,-1365.0,0.0,0.0,0.125,0.826415931,4.932250999999998,-0.0012207029999999897,36304.0,0.0,1447.5,0.0,0.0,0.125,0.42236323800000003,4.963769999999998,0.0,-1445.0,0.0,-1342.5,0.0,0.0,0.0,3.359374656,0.01,0.0,40842.0,0.125,1440.0,0.0,0.0,0.25,1.638183426,0.01,-0.004882811999999959,-0.5699999928474426,-4.46999979019165,-0.5600000023841858,0.14727783203125,0.07293701171875,0.74615478515625,35.31999969482422,0.0,204.0,1.564208984375,-1.62481689453125,Opening,0.0,0.0,1.0,0.0,0.0,0.0,0.0,0.0,
4.397547999999981,0.0,0.0,46778.0,0.0,-1312.5,0.0,0.0,0.125,0.826415931,4.932250999999998,0.0,36304.0,0.0,1417.5,0.0,0.0,0.125,0.423583941,4.963769999999998,0.0,-1445.0,0.0,-1305.0,0.0,0.0,0.0,3.359374656,0.01,0.0,40842.0,0.125,1410.0,0.0,0.0,0.25,1.6333006140000002,0.01,-0.004882811999999959,-0.5699999928474426,-4.5,-0.7799999713897705,0.1239013671875,0.27325439453125,1.2899169921875,35.31999969482422,0.0,221.0,1.55352783203125,-1.6268768310546875,Opening,0.0,0.0,1.0,0.0,0.0,0.0,0.0,0.0,
4.4349569999999945,0.0,0.0,46778.0,0.0,-1230.0,0.0,0.0,0.125,0.826415931,4.932250999999998,0.0012207029999999897,36304.0,0.0,1357.5,0.0,0.0,0.125,0.423583941,4.963769999999998,0.0,-1445.0,0.0,-1222.5,0.0,0.0,0.0,3.358153953,0.01,0.0,40842.0,0.125,1342.5,0.0,0.0,0.25,1.6284178020000002,0.01,-0.014648435999999876,-0.5799999833106995,-3.9100000858306885,-1.0399999618530273,0.052978515625,0.122314453125,0.9827880859375,35.31999969482422,0.0,117.0,1.5399322509765625,-1.6290130615234375,Opening,0.0,0.0,1.0,0.0,0.0,0.0,0.0,0.0,
4.4756259999999894,0.0,0.0,46583.0,0.0,-1222.5,0.0,0.0,0.125,0.826415931,4.932250999999998,-0.0024414059999999793,36510.0,0.0,1297.5,0.0,0.0,0.125,0.423583941,4.963769999999998,0.0,-1633.0,0.0,-1185.0,0.0,0.0,0.0,3.358153953,0.01,0.0,41052.0,0.125,1305.0,0.0,0.0,0.25,1.6284178020000002,0.01,-0.004882811999999959,-0.4300000071525574,-3.450000047683716,-1.1799999475479126,-0.06732177734375,-0.04150390625,1.020751953125,35.31999969482422,0.0,-4.0,1.5291900634765625,-1.6303558349609375,Opening,0.0,0.0,1.0,0.0,0.0,0.0,0.0,0.0,
4.515456999999995,0.0,0.0,46583.0,0.0,-1207.5,0.0,0.0,0.125,0.822753822,4.932250999999998,0.0024414059999999793,36510.0,0.0,1230.0,0.0,0.0,0.125,0.424804644,4.963769999999998,0.0,-1633.0,0.0,-1147.5,0.0,0.0,0.0,3.358153953,0.01,0.0,41052.0,0.125,1230.0,0.0,0.0,0.25,1.6284178020000002,0.01,0.0,-0.46000000834465027,-3.440000057220459,-1.309999942779541,0.08343505859375,-0.06170654296875,1.36749267578125,35.31999969482422,0.0,166.0,1.5200653076171875,-1.6318359375,Opening,0.0,0.0,1.0,0.0,0.0,0.0,0.0,0.0,
4.5601289999999866,0.0,0.0,46583.0,0.0,-1155.0,0.0,0.0,0.125,0.826415931,4.932250999999998,0.0024414059999999793,36510.0,0.0,1155.0,0.0,0.0,0.125,0.423583941,4.963769999999998,0.0,-1633.0,0.0,-1110.0,0.0,0.0,0.0,3.358153953,0.01,0.0,41052.0,0.125,1185.0,0.0,0.0,0.25,1.6284178020000002,0.01,0.0,-0.46000000834465027,-3.0399999618530273,-1.3799999952316284,0.18072509765625,-0.02691650390625,0.8521728515625,35.31999969482422,0.0,226.0,1.515045166015625,-1.632904052734375,Opening,0.0,0.0,1.0,0.0,0.0,0.0,0.0,0.0,
4.603650999999983,0.0,0.0,46416.0,0.0,-1072.5,0.0,0.0,0.125,0.825195228,4.932250999999998,0.0,36686.0,0.0,1087.5,0.0,0.0,0.125,0.423583941,4.963769999999998,0.0,-1804.0,0.0,-1057.5,0.0,0.0,0.0,3.358153953,0.01,0.0,41234.0,0.125,1117.5,0.0,0.0,0.25,1.6284178020000002,0.01,0.0,-0.49000000953674316,-2.859999895095825,-1.5,-0.0386962890625,0.10516357421875,1.28076171875,35.31999969482422,0.0,22.0,1.5090179443359375,-1.6345062255859375,Opening,0.0,0.0,1.0,0.0,0.0,0.0,0.0,0.0,
4.642837999999989,0.0,0.0,46416.0,0.0,-997.5,0.0,0.0,0.125,0.826415931,4.932250999999998,0.0,36686.0,0.0,1035.0,0.0,0.0,0.125,0.423583941,4.963769999999998,0.0,-1804.0,0.0,-982.5,0.0,0.0,0.0,3.359374656,0.01,0.0,41234.0,0.125,1042.5,0.0,0.0,0.25,1.6284178020000002,0.01,0.0,-0.4699999988079071,-2.390000104904175,-1.649999976158142,0.11322021484375,-0.05023193359375,0.845947265625,35.290000915527344,0.0,149.0,1.5043487548828125,-1.635528564453125,Opening,0.0,0.0,1.0,0.0,0.0,0.0,0.0,0.0,
4.67993299999999,0.0,0.0,46416.0,0.0,-960.0,0.0,0.0,0.125,0.826415931,4.932250999999998,-0.0012207029999999897,36686.0,0.0,990.0,0.0,0.0,0.125,0.423583941,4.963769999999998,0.0,-1804.0,0.0,-922.5,0.0,0.0,0.0,3.358153953,0.01,0.0,41234.0,0.125,975.0,0.0,0.0,0.25,1.6284178020000002,0.01,0.0,-0.46000000834465027,-2.190000057220459,-1.7799999713897705,0.1861572265625,0.0299072265625,0.933837890625,35.290000915527344,0.0,220.0,1.5013427734375,-1.6363677978515625,Opening,0.0,0.0,1.0,0.0,0.0,0.0,0.0,0.0,
4.728934999999998,0.0,0.0,46269.0,0.0,-930.0,0.0,0.0,0.125,0.826415931,4.932250999999998,0.0012207029999999897,36838.0,0.0,930.0,0.0,0.0,0.125,0.423583941,4.963769999999998,0.0,-1947.0,0.0,-877.5,0.0,0.0,0.0,3.358153953,0.01,0.0,41383.0,0.125,922.5,0.0,0.0,0.25,1.6296385050000002,0.01,0.0,-0.49000000953674316,-1.9199999570846558,-1.899999976158142,0.0618896484375,0.11346435546875,0.94671630859375,35.290000915527344,0.0,89.0,1.4998931884765625,-1.6373291015625,Opening,0.0,0.0,1.0,0.0,0.0,0.0,0.0,0.0,
4.769869999999996,0.0,0.0,46269.0,0.0,-877.5,0.0,0.0,0.125,0.826415931,4.932250999999998,0.0012207029999999897,36838.0,0.0,870.0,0.0,0.0,0.125,0.423583941,4.963769999999998,0.0,-1947.0,0.0,-832.5,0.0,0.0,0.0,3.359374656,0.01,0.0,41383.0,0.125,870.0,0.0,0.0,0.25,1.627197099,0.01,0.0,-0.4399999976158142,-1.7200000286102295,-2.0,0.068603515625,0.06036376953125,0.96234130859375,35.290000915527344,0.0,95.0,1.499603271484375,-1.6375732421875,Opening,0.0,0.0,1.0,0.0,0.0,0.0,0.0,0.0,
4.809362999999983,0.0,0.0,46269.0,0.0,-810.0,0.0,0.0,0.125,0.826415931,4.932250999999998,0.0012207029999999897,36838.0,0.0,840.0,0.0,0.0,0.125,0.424804644,4.963769999999998,0.0,-1947.0,0.0,-802.5,0.0,0.0,0.0,3.359374656,0.01,0.0,41383.0,0.125,825.0,0.0,0.0,0.25,1.627197099,0.01,0.0,-0.5099999904632568,-1.4600000381469727,-2.140000104904175,0.135986328125,-0.0279541015625,1.02557373046875,35.290000915527344,0.0,162.0,1.5001983642578125,-1.637481689453125,Opening,0.0,0.0,1.0,0.0,0.0,0.0,0.0,0.0,
4.850145999999979,0.0,0.0,46153.0,0.0,-735.0,0.0,0.0,0.125,0.826415931,4.932250999999998,0.0,36963.0,0.0,787.5,0.0,0.0,0.125,0.423583941,4.963769999999998,0.0,-2067.0,0.0,-750.0,0.0,0.0,0.0,3.358153953,0.01,0.0,41508.0,0.125,757.5,0.0,0.0,0.25,1.6284178020000002,0.01,0.0,-0.5,-1.0800000429153442,-2.259999990463257,0.094970703125,-0.062255859375,0.7227783203125,35.290000915527344,0.0,110.0,1.5022430419921875,-1.6370849609375,Opening,0.0,0.0,1.0,0.0,0.0,0.0,0.0,0.0,
4.887731999999989,0.0,0.0,46153.0,0.0,-675.0,0.0,0.0,0.125,0.821533119,4.932250999999998,0.0,36963.0,0.0,735.0,0.0,0.0,0.125,0.423583941,4.963769999999998,0.0,-2067.0,0.0,-697.5,0.0,0.0,0.0,3.35693325,0.01,0.0,41508.0,0.125,712.5,0.0,0.0,0.25,1.6284178020000002,0.01,0.0,-0.47999998927116394,-1.0299999713897705,-2.299999952316284,0.08233642578125,0.04217529296875,1.22216796875,35.290000915527344,0.0,102.0,1.504486083984375,-1.636505126953125,Opening,0.0,0.0,1.0,0.0,0.0,0.0,0.0,0.0,
4.9290179999999815,0.0,0.0,46153.0,0.0,-637.5,0.0,0.0,0.125,0.826415931,4.932250999999998,-0.0024414059999999793,36963.0,0.0,675.0,0.0,0.0,0.125,0.424804644,4.963769999999998,0.0,-2067.0,0.0,-637.5,0.0,0.0,0.0,3.359374656,0.01,0.0,41508.0,0.125,630.0,0.0,0.0,0.25,1.6284178020000002,0.01,0.0,-0.4399999976158142,-0.6899999976158142,-2.369999885559082,0.13604736328125,-0.05279541015625,1.118896484375,35.290000915527344,0.0,151.0,1.5088348388671875,-1.63543701171875,Opening,0.0,0.0,1.0,0.0,0.0,0.0,0.0,0.0,
4.969842000000004,0.0,0.0,46058.0,0.0,-592.5,0.0,0.0,0.125,0.826415931,4.932250999999998,0.0,37061.0,0.0,607.5,0.0,0.0,0.125,0.423583941,4.963769999999998,0.0,-2162.0,0.0,-592.5,0.0,0.0,0.0,3.359374656,0.01,0.0,41606.0,0.125,562.5,0.0,0.0,0.25,1.6284178020000002,0.01,0.0,-0.49000000953674316,-0.5,-2.380000114440918,0.06573486328125,0.0418701171875,0.89215087890625,35.290000915527344,0.0,71.0,1.514617919921875,-1.6341552734375,Opening,0.0,0.0,1.0,0.0,0.0,0.0,0.0,0.0,
5.010404999999999,0.0,0.0,46058.0,0.0,-532.5,0.0,0.0,0.125,0.826415931,4.932250999999998,0.0,37061.0,0.0,547.5,0.0,0.0,0.125,0.424804644,4.963769999999998,0.0,-2162.0,0.0,-540.0,0.0,0.0,0.0,3.358153953,0.01,0.0,41606.0,0.125,532.5,0.0,0.0,0.25,1.6284178020000002,0.01,0.0,-0.46000000834465027,-0.3799999952316284,-2.4200000762939453,0.09185791015625,-0.05029296875,1.10247802734375,35.290000915527344,0.0,100.0,1.519073486328125,-1.633209228515625,Opening,0.0,0.0,1.0,0.0,0.0,0.0,0.0,0.0,
5.050595000000001,0.0,0.0,46058.0,0.0,-502.5,0.0,0.0,0.125,0.821533119,4.932250999999998,0.0012207029999999897,37061.0,0.0,495.0,0.0,0.0,0.125,0.423583941,4.963769999999998,0.0,-2162.0,0.0,-487.5,0.0,0.0,0.0,3.358153953,0.01,0.0,41606.0,0.125,495.0,0.0,0.0,0.25,1.6284178020000002,0.01,0.0,-0.44999998807907104,-0.1599999964237213,-2.4600000381469727,0.0718994140625,-0.01483154296875,1.01519775390625,35.290000915527344,0.0,75.0,1.526885986328125,-1.6318359375,Opening,0.0,0.0,1.0,0.0,0.0,0.0,0.0,0.0,
5.089209000000003,0.0,0.0,45989.0,0.0,-450.0,0.0,0.0,0.125,0.826415931,4.932250999999998,0.0,37132.0,0.0,435.0,0.0,0.0,0.125,0.423583941,4.963769999999998,0.0,-2233.0,0.0,-435.0,0.0,0.0,0.0,3.358153953,0.01,0.0,41678.0,0.125,442.5,0.0,0.0,0.25,1.6284178020000002,0.01,0.0,-0.4399999976158142,0.0,-2.4700000286102295,0.1214599609375,0.0931396484375,1.008544921875,35.290000915527344,0.0,116.0,1.535797119140625,-1.6304473876953125,Opening,0.0,0.0,1.0,0.0,0.0,0.0,0.0,0.0,
5.128058999999979,0.0,0.0,45989.0,0.0,-390.0,0.0,0.0,0.125,0.821533119,4.932250999999998,0.0,37132.0,0.0,382.5,0.0,0.0,0.125,0.423583941,4.963769999999998,0.0,-2233.0,0.0,-375.0,0.0,0.0,0.0,3.358153953,0.01,0.0,41678.0,0.125,390.0,0.0,0.0,0.25,1.6284178020000002,0.01,0.0,-0.44999998807907104,0.15000000596046448,-2.5199999809265137,0.10791015625,-0.0601806640625,1.0079345703125,35.290000915527344,0.0,107.0,1.5424041748046875,-1.6294403076171875,Opening,0.0,0.0,1.0,0.0,0.0,0.0,0.0,0.0,
5.168032999999996,0.0,0.0,45989.0,0.0,-337.5,0.0,0.0,0.125,0.821533119,4.932250999999998,0.0,37132.0,0.0,330.0,0.0,0.0,0.125,0.423583941,4.963769999999998,0.0,-2233.0,0.0,-315.0,0.0,0.0,0.0,3.359374656,0.01,0.0,41678.0,0.125,337.5,0.0,0.0,0.25,1.6284178020000002,0.01,0.0,-0.46000000834465027,0.3199999928474426,-2.5799999237060547,0.12786865234375,-0.02813720703125,0.9654541015625,35.27000045776367,0.0,123.0,1.55322265625,-1.6285858154296875,Opening,0.0,0.0,1.0,0.0,0.0,0.0,0.0,0.0,
