Time,ClimberA1,ClimberA2,FRpos,FRCurrent,FRspeed,FRsetpoint,FRApos,FRACurrent,FREncpos,FREncSetpoint,FREncSpeed,FLpos,FLCurrent,FLspeed,FLsetpoint,FLApos,FLACurrent,FLEncpos,FLEncSetpoint,FLEncSpeed,BRpos,BRCurrent,BRspeed,BRsetpoint,BRApos,BRACurrent,BREncpos,BREncSetpoint,BREncSpeed,BLpos,BLCurrent,BLspeed,BLsetpoint,BLApos,BLACurrent,BLEncpos,BLEncSetpoint,BLEncSpeed,navx_Pitch,navx_Roll,navx_Yaw,navx_XAcc,navx_YAcc,navx_ZAcc,navx_Temp,navx_Bar,navx_Alt,navx_XDis,navx_YDis,GearPlacerState,ShootOutputV,ShootOutputCurrent,ShootEncPos,ShootEncVelocity,ShootSpeed,ShootSetpoint,CarouselSetpoint,CarouselCurrent,
0.16383400000000028,0.0,0.0,4577.0,0.0,0.0,0.0,0.0,0.125,1.353759627,0.01,0.0,-10139.0,0.0,0.0,0.0,0.0,0.125,4.877929188,0.01,0.0,7171.0,0.0,0.0,0.0,0.0,0.0,2.6965329270000002,0.01,0.0,-8264.0,0.0,0.0,0.0,0.0,0.125,4.6606440540000005,0.01,0.0,-0.23999999463558197,-1.25,0.0,-0.02325439453125,-0.0037841796875,1.017822265625,36.63999938964844,0.0,0.0,0.59417724609375,-2.478790283203125,Waiting,0.0,0.0,-1026431.0,0.0,0.0,0.0,0.0,0.0,
0.21677200000000038,0.0,0.0,4577.0,0.0,0.0,0.0,0.0,0.125,1.359863142,0.01,0.543759627,-10139.0,0.0,0.0,-0.0,0.0,0.25,4.879149891,0.01,4.441699188,7171.0,0.0,0.0,0.0,0.0,1.125,2.701415739,0.01,4.386932927,-8264.0,0.0,0.0,-0.0,0.0,1.875,4.666747569,0.01,3.056981945,-0.23999999463558197,-1.25,0.0,-0.02374267578125,-0.004638671875,1.021728515625,36.63999938964844,0.0,-1.0,0.59417724609375,-2.478790283203125,Waiting,0.0,0.0,-1026431.0,0.0,0.0,0.0,0.0,0.0,
0.24334200000000009,0.0,0.0,4577.0,0.0,0.0,0.0,0.0,1.25,1.286620962,0.01,0.543759627,-10139.0,0.0,0.0,-0.0,0.0,2.125,4.921874496,0.01,4.441699188,7171.0,0.0,0.0,0.0,0.0,2.0,2.7990719790000003,0.01,4.386932927,-8264.0,0.0,0.0,-0.0,0.0,6.625,4.816894038,0.01,0.007324217999999938,-0.23999999463558197,-1.25,0.0,-0.0335693359375,-0.0157470703125,1.004638671875,36.66999816894531,0.0,-11.0,0.59417724609375,-2.478790283203125,Waiting,0.0,0.0,-1026431.0,0.0,0.0,0.0,0.0,0.0,
0.27350400000000036,0.0,0.0,4577.0,0.0,0.0,0.0,0.0,2.0,1.174316286,0.01,-0.018310545000000067,-10139.0,0.0,0.0,-0.0,0.0,2.375,0.101318349,0.01,0.0012207029999995456,7171.0,0.0,0.0,0.0,0.0,1.5,2.968749696,0.01,0.014648435999999876,-8264.0,0.0,0.0,-0.0,0.0,6.75,0.163574202,0.01,0.007324217999999938,-0.25,-1.2799999713897705,0.0,-0.01470947265625,0.0267333984375,0.96807861328125,36.66999816894531,0.0,53.0,0.5939788818359375,-2.4786834716796875,Waiting,0.0,0.0,-1026431.0,0.0,0.0,0.0,0.0,0.0,
0.30888300000000024,0.0,0.0,4577.0,0.0,0.0,0.0,0.0,1.125,1.038818253,0.01,-0.234374976,-10139.0,0.0,0.0,-0.0,0.0,1.0,0.224609352,0.01,-4.727782719,7171.0,0.0,0.0,0.0,0.0,0.875,3.085937184,0.01,0.2880859080000002,-8264.0,0.0,0.0,-0.0,0.0,2.0,0.36132808800000005,0.01,0.4841235049999999,-0.28999999165534973,-1.2899999618530273,0.009999999776482582,0.0048828125,-0.06854248046875,0.91510009765625,36.66999816894531,0.0,25.0,0.5939788818359375,-2.478607177734375,Waiting,0.0,0.0,-1026431.0,0.0,0.0,0.0,0.0,0.0,
0.3292320000000004,0.0,0.0,4577.0,0.0,0.0,0.0,0.0,0.875,0.9729002910000001,0.01,-0.234374976,-10139.0,0.0,0.0,-0.0,0.0,0.75,0.28442379900000003,0.01,-4.727782719,7171.0,0.0,0.0,0.0,0.0,0.625,3.145751631,0.01,0.2880859080000002,-8264.0,0.0,0.0,-0.0,0.0,1.625,0.52490229,0.01,0.4841235049999999,-0.3199999928474426,-1.2899999618530273,0.029999999329447746,-0.019775390625,0.0067138671875,1.00128173828125,36.66999816894531,0.0,2.0,0.593994140625,-2.4786529541015625,Waiting,0.0,0.0,-1026431.0,0.0,0.0,0.0,0.0,0.0,
0.3760440000000003,0.0,0.0,4577.0,0.0,0.0,0.0,0.0,0.375,0.9069823290000001,0.01,-0.10620116099999999,-10139.0,0.0,0.0,-0.0,0.0,0.5,0.380859336,0.01,0.10864256700000041,7171.0,0.0,0.0,0.0,0.0,0.25,3.232421544,0.01,0.11474608199999992,-8266.0,0.0,-7.5,-0.0,0.0,2.0,0.9069823290000001,0.01,0.21728513399999994,-0.28999999165534973,-1.2699999809265137,0.07999999821186066,-0.021240234375,0.01025390625,1.03765869140625,36.66999816894531,0.0,1.0,0.593994140625,-2.4786529541015625,Waiting,0.0,0.0,-1026431.0,0.0,0.0,0.0,0.0,0.0,
0.40949800000000003,0.0,0.0,4577.0,0.0,0.0,0.0,0.0,0.375,0.865478427,0.01,-0.117187488,-10139.0,0.0,0.0,-0.0,0.0,0.5,0.404052693,0.01,0.12451170599999983,7171.0,0.0,0.0,0.0,0.0,0.25,3.253173495,0.01,0.12329100300000029,-8266.0,0.0,-30.0,-0.0,0.0,1.875,1.12304676,0.01,0.5261229930000004,-0.27000001072883606,-1.25,0.09000000357627869,-0.00677490234375,0.0299072265625,1.02874755859375,36.66999816894531,0.0,15.0,0.593994140625,-2.4786224365234375,Waiting,0.0,0.0,-1026431.0,0.0,0.0,0.0,0.0,0.0,
0.43029500000000054,0.0,0.0,4577.0,0.0,0.0,0.0,0.0,0.375,0.8544921000000001,0.01,-0.117187488,-10139.0,0.0,0.0,-0.0,0.0,0.25,0.404052693,0.01,0.12451170599999983,7171.0,0.0,0.0,0.0,0.0,0.125,3.250732089,0.01,0.12329100300000029,-8266.0,0.125,-45.0,-0.0,0.0,1.5,1.2634276050000002,0.01,0.5261229930000004,-0.25999999046325684,-1.2599999904632568,0.09000000357627869,-0.0184326171875,0.00360107421875,1.03485107421875,36.66999816894531,0.0,4.0,0.593994140625,-2.47857666015625,Waiting,0.0,0.0,-1026431.0,0.0,0.0,0.0,0.0,0.0,
0.4500390000000002,0.0,0.0,4577.0,0.0,0.0,0.0,0.0,0.25,0.8532713970000001,0.01,-0.117187488,-10139.0,0.0,0.0,-0.0,0.0,0.25,0.405273396,0.01,0.019531247999999835,7171.0,0.0,0.0,0.0,0.0,0.0,3.250732089,0.01,0.014648435999999876,-8266.0,0.125,-60.0,-0.0,0.0,1.25,1.412353371,0.01,0.3576659790000001,-0.25999999046325684,-1.2699999809265137,0.09000000357627869,-0.03387451171875,-0.0172119140625,0.97882080078125,36.66999816894531,0.0,-12.0,0.593994140625,-2.478515625,Waiting,0.0,0.0,-1026431.0,0.0,0.0,0.0,0.0,0.0,
0.47367300000000023,0.0,0.0,4577.0,0.0,0.0,0.0,0.0,0.25,0.8544921000000001,0.01,-0.024414059999999904,-10139.0,0.0,0.0,-0.0,0.0,0.25,0.405273396,0.01,0.019531247999999835,7171.0,0.0,0.0,0.0,0.0,0.0,3.253173495,0.01,0.014648435999999876,-8275.0,0.125,-60.0,-0.0,0.0,0.875,1.495361175,0.01,0.3576659790000001,-0.25999999046325684,-1.2799999713897705,0.10000000149011612,-0.04736328125,-0.023193359375,1.02032470703125,36.66999816894531,0.0,-24.0,0.593963623046875,-2.478515625,Waiting,0.0,0.0,-1026431.0,0.0,0.0,0.0,0.0,0.0,
0.4947260000000001,0.0,0.0,4577.0,0.0,0.0,0.0,0.0,0.25,0.8544921000000001,0.01,-0.024414059999999904,-10139.0,0.0,0.0,-0.0,0.0,0.25,0.404052693,0.01,0.019531247999999835,7171.0,0.0,0.0,0.0,0.0,0.0,3.251952792,0.01,0.0,-8275.0,0.125,-52.5,-0.0,0.0,0.625,1.561279137,0.01,0.209960916,-0.2800000011920929,-1.2999999523162842,0.10999999940395355,-0.01739501953125,-0.01129150390625,1.0211181640625,36.66999816894531,0.0,5.0,0.5938720703125,-2.478515625,Waiting,0.0,0.0,-1026431.0,0.0,0.0,0.0,0.0,0.0,
0.5248350000000005,0.0,0.0,4577.0,0.0,0.0,0.0,0.0,0.25,0.8544921000000001,0.01,0.0,-10139.0,0.0,0.0,-0.0,0.0,0.25,0.404052693,0.01,0.0,7171.0,0.0,0.0,0.0,0.0,0.0,3.251952792,0.01,0.0,-8275.0,0.125,-37.5,-0.0,0.0,0.375,1.595458821,0.01,0.209960916,-0.2800000011920929,-1.309999942779541,0.11999999731779099,-0.0224609375,-0.00439453125,1.022705078125,36.66999816894531,0.0,1.0,0.5938720703125,-2.478515625,Waiting,0.0,0.0,-1026431.0,0.0,0.0,0.0,0.0,0.0,
0.5466960000000004,0.0,0.0,4577.0,0.0,0.0,0.0,0.0,0.25,0.8544921000000001,0.01,0.0,-10139.0,0.0,0.0,-0.0,0.0,0.25,0.404052693,0.01,0.0,7171.0,0.0,0.0,0.0,0.0,0.0,3.250732089,0.01,0.0,-8275.0,0.125,-15.0,-0.0,0.0,0.375,1.6101072570000001,0.01,0.09765624000000006,-0.27000001072883606,-1.309999942779541,0.14000000059604645,-0.027099609375,7.9345703125E-4,1.02838134765625,36.66999816894531,0.0,-3.0,0.5938720703125,-2.478515625,Waiting,0.0,0.0,-1026431.0,0.0,0.0,0.0,0.0,0.0,
0.5756020000000003,0.0,0.0,4577.0,0.0,0.0,0.0,0.0,0.25,0.8532713970000001,0.01,0.0,-10139.0,0.0,0.0,-0.0,0.0,0.25,0.405273396,0.01,0.0,7171.0,0.0,0.0,0.0,0.0,0.0,3.253173495,0.01,0.0,-8275.0,0.125,-7.5,-0.0,0.0,0.25,1.6052244450000002,0.01,0.09765624000000006,-0.27000001072883606,-1.309999942779541,0.14000000059604645,-0.01275634765625,-0.0135498046875,1.01239013671875,36.66999816894531,0.0,10.0,0.5938720703125,-2.478515625,Waiting,0.0,0.0,-1026431.0,0.0,0.0,0.0,0.0,0.0,
0.5997900000000004,0.0,0.0,4577.0,0.0,0.0,0.0,0.0,0.25,0.8532713970000001,0.01,0.0,-10139.0,0.0,0.0,-0.0,0.0,0.25,0.405273396,0.01,0.0,7171.0,0.0,0.0,0.0,0.0,0.0,3.251952792,0.01,0.0,-8276.0,0.125,-7.5,-0.0,0.0,0.125,1.595458821,0.01,0.004882811999999959,-0.2800000011920929,-1.2999999523162842,0.15000000596046448,-0.0167236328125,-0.0106201171875,1.0130615234375,36.66999816894531,0.0,6.0,0.5938720703125,-2.478515625,Waiting,0.0,0.0,-1026431.0,0.0,0.0,0.0,0.0,0.0,
0.6280440000000003,0.0,0.0,4577.0,0.0,0.0,0.0,0.0,0.25,0.8532713970000001,0.01,0.0,-10139.0,0.0,0.0,-0.0,0.0,0.25,0.405273396,0.01,0.0,7171.0,0.0,0.0,0.0,0.0,0.0,3.253173495,0.01,0.0,-8276.0,0.125,0.0,-0.0,0.0,0.125,1.585693197,0.01,0.004882811999999959,-0.2800000011920929,-1.2899999618530273,0.1599999964237213,-0.0074462890625,-0.01226806640625,1.006103515625,36.66999816894531,0.0,15.0,0.5938720703125,-2.478515625,Waiting,0.0,0.0,-1026431.0,0.0,0.0,0.0,0.0,0.0,
0.649547,0.0,0.0,4577.0,0.0,0.0,0.0,0.0,0.25,0.8544921000000001,0.01,0.0,-10139.0,0.0,0.0,-0.0,0.0,0.25,0.404052693,0.01,0.0,7171.0,0.0,0.0,0.0,0.0,0.0,3.251952792,0.01,-0.0012207030000004337,-8276.0,0.125,0.0,-0.0,0.0,0.125,1.571044761,0.01,-0.023193357000000248,-0.28999999165534973,-1.2799999713897705,0.1599999964237213,-0.01611328125,0.0028076171875,1.015625,36.66999816894531,0.0,6.0,0.5938720703125,-2.478515625,Waiting,0.0,0.0,-1026431.0,0.0,0.0,0.0,0.0,0.0,
0.6740300000000002,0.0,0.0,4577.0,0.0,0.0,0.0,0.0,0.25,0.8544921000000001,0.01,0.0,-10139.0,0.0,0.0,-0.0,0.0,0.25,0.404052693,0.01,0.0,7171.0,0.0,0.0,0.0,0.0,0.0,3.251952792,0.01,-0.0012207030000004337,-8276.0,0.125,0.0,-0.0,0.0,0.25,1.5576170280000001,0.01,-0.023193357000000248,-0.2800000011920929,-1.2699999809265137,0.15000000596046448,-0.02618408203125,0.00445556640625,1.02490234375,36.66999816894531,0.0,-3.0,0.5938720703125,-2.478515625,Waiting,0.0,0.0,-1026431.0,0.0,0.0,0.0,0.0,0.0,
0.6956140000000001,0.0,0.0,4577.0,0.0,0.0,0.0,0.0,0.25,0.8544921000000001,0.01,0.0,-10139.0,0.0,0.0,-0.0,0.0,0.25,0.405273396,0.01,0.0,7171.0,0.0,0.0,0.0,0.0,0.0,3.253173495,0.01,0.0012207030000004337,-8276.0,0.125,0.0,-0.0,0.0,0.25,1.542968592,0.01,-0.024414059999999793,-0.27000001072883606,-1.2799999713897705,0.15000000596046448,-0.03131103515625,0.0018310546875,1.02154541015625,36.66999816894531,0.0,-8.0,0.5938720703125,-2.478515625,Waiting,0.0,0.0,-1026431.0,0.0,0.0,0.0,0.0,0.0,
0.7463600000000001,0.0,0.0,4577.0,0.0,0.0,0.0,0.0,0.25,0.8532713970000001,0.01,0.0,-10139.0,0.0,0.0,-0.0,0.0,0.25,0.405273396,0.01,0.0,7171.0,0.0,0.0,0.0,0.0,0.0,3.251952792,0.01,0.0,-8276.0,0.125,0.0,-0.0,0.0,0.25,1.540527186,0.01,-0.014648435999999876,-0.2800000011920929,-1.2899999618530273,0.15000000596046448,-0.02325439453125,-0.0062255859375,1.01495361328125,36.66999816894531,0.0,0.0,0.5938720703125,-2.478515625,Waiting,0.0,0.0,-1026431.0,0.0,0.0,0.0,0.0,0.0,
0.7817370000000006,0.0,0.0,4577.0,0.0,0.0,-132.28346407413483,0.0,0.25,0.8544921000000001,0.5498168668524864,0.0,-10139.0,0.0,0.0,-132.28346407413483,0.0,0.25,0.404052693,4.41043958977222,0.0,7171.0,0.0,0.0,-132.28346407413483,0.0,0.0,3.251952792,4.389674732977291,0.0,-8276.0,0.125,0.0,-132.28346407413483,0.0,0.25,1.546630701,0.552687206278561,0.0,-0.2800000011920929,-1.2899999618530273,0.15000000596046448,-0.01849365234375,-0.00238037109375,1.0220947265625,36.66999816894531,0.0,4.0,0.5938720703125,-2.478515625,Waiting,0.0,0.0,-1026431.0,0.0,0.0,0.0,0.0,0.0,
0.8045769999999998,0.0,0.0,4577.0,0.125,0.0,-925.9842485189438,0.0,0.25,0.8532713970000001,0.5498168668524864,0.0,-10139.0,0.0,0.0,-925.9842485189438,0.0,0.25,0.405273396,4.41043958977222,0.0,7171.0,0.125,0.0,-925.9842485189438,0.0,0.0,3.251952792,4.389674732977291,0.0,-8276.0,0.625,0.0,-925.9842485189438,0.0,0.25,1.5515135130000002,0.5526872062785609,0.0,-0.2800000011920929,-1.2799999713897705,0.15000000596046448,-0.01556396484375,-0.0023193359375,1.01519775390625,36.66999816894531,0.0,7.0,0.5938720703125,-2.478515625,Waiting,0.0,0.0,-1026431.0,0.0,0.0,0.0,0.0,0.0,
0.8278250000000003,0.0,0.0,4577.0,1.0,0.0,-1719.68509554863,0.0,0.25,0.874023348,0.5498168668524864,0.0,-10139.0,1.0,0.0,-1719.68509554863,0.0,1.75,0.35644527600000003,4.41043958977222,-0.010986326999999463,7171.0,1.25,0.0,-1719.68509554863,0.0,1.5,3.193359048,4.389674732977291,-0.012207029999999897,-8286.0,1.375,-7.5,-1719.68509554863,0.0,2.375,1.6052244450000002,0.552687206278561,0.009765623999999917,-0.27000001072883606,-1.2899999618530273,0.15000000596046448,-0.03485107421875,-0.04888916015625,1.0093994140625,36.66999816894531,0.0,-12.0,0.5938720703125,-2.4785308837890625,Waiting,0.0,0.0,-1026431.0,0.0,0.0,0.0,0.0,0.0,
0.8702570000000001,0.0,0.0,4577.0,8.625,-97.5,-2100.0,0.0,1.5,1.0302733320000002,0.5498168668524864,0.10009764599999993,-10166.0,8.625,-112.5,-2100.0,0.0,2.0,0.313720671,4.41043958977222,-0.0805663980000002,7171.0,7.125,0.0,-2100.0,0.0,1.875,3.0566403120000003,4.389674732977291,0.0,-8286.0,7.75,-127.5,-2100.0,0.0,3.25,1.783447083,0.552687206278561,0.0,-0.27000001072883606,-1.2999999523162842,0.41999998688697815,-0.1556396484375,0.350341796875,1.42156982421875,36.66999816894531,0.0,-116.0,0.5924224853515625,-2.47967529296875,Waiting,0.0,0.0,-1026431.0,0.0,0.0,0.0,0.0,0.0,
0.8912549999999997,0.0,0.0,4547.0,14.875,-180.0,-1306.299215555191,0.0,1.5,1.102294809,0.5498168668524864,0.11230467600000005,-10166.0,17.5,-225.0,-1306.299215555191,0.0,0.25,0.253906224,4.41043958977222,-0.024414059999999793,7171.0,13.625,0.0,-1306.299215555191,0.0,0.5,2.993163756,4.389674732977291,-0.11230467599999994,-8286.0,12.0,-210.0,-1306.299215555191,0.0,1.5,1.8444822330000001,0.552687206278561,0.12695311200000003,-0.5,-1.3700000047683716,0.8100000023841858,-0.0506591796875,-0.3226318359375,0.74395751953125,36.66999816894531,0.0,-37.0,0.59130859375,-2.480224609375,Waiting,0.0,0.0,-1026431.0,0.0,0.0,0.0,0.0,0.0,
0.9267930000000001,0.0,0.0,4547.0,16.5,-255.0,-777.1653592586516,0.0,0.375,1.193847534,0.5498168668524864,0.07080077400000007,-10166.0,22.75,-472.5,-777.1653592586516,0.0,0.5,0.156249984,4.41043958977222,-0.08544921000000016,7171.0,17.75,-52.5,-777.1653592586516,0.0,0.5,2.9003903280000003,4.389674732977291,-0.07934569499999977,-8286.0,13.375,-292.5,-777.1653592586516,0.0,1.0,1.927490037,0.552687206278561,0.079345695,-0.6499999761581421,-1.440000057220459,2.549999952316284,-0.02130126953125,-0.1419677734375,1.18597412109375,36.66999816894531,0.0,2.0,0.5871124267578125,-2.4829254150390625,Waiting,0.0,0.0,-1026431.0,0.0,0.0,0.0,0.0,0.0,
0.9495549999999998,0.0,0.0,4547.0,14.25,-307.5,0.0,0.0,0.375,1.2377928420000002,0.5498168668524864,0.07080077400000007,-10166.0,14.875,-570.0,0.0,0.0,0.5,0.095214834,4.41043958977222,-0.08544921000000016,7171.0,13.375,-90.0,0.0,0.0,0.375,2.8479000990000003,4.389674732977291,-0.07934569499999977,-8351.0,11.625,-375.0,0.0,0.0,1.25,1.9763181570000001,0.552687206278561,0.05371093199999999,-0.699999988079071,-1.3899999856948853,3.200000047683716,-0.13348388671875,-0.037841796875,0.85638427734375,36.66999816894531,0.0,-113.0,0.5855255126953125,-2.484039306640625,Waiting,0.0,0.0,-1026431.0,0.0,0.0,0.0,0.0,0.125,
0.9717230000000004,0.0,0.0,4547.0,6.75,-337.5,0.0,0.0,0.5,1.278076041,0.5498168668524864,0.07080077399999984,-10257.0,6.125,-615.0,0.0,0.0,0.875,0.030517575,4.41043958977222,-0.06103515000000037,7146.0,7.0,-135.0,0.0,0.0,0.5,2.7893063550000003,4.389674732977291,-0.06347655600000035,-8351.0,3.125,-367.5,0.0,0.0,0.875,2.027587683,0.552687206278561,0.05371093199999999,-0.6100000143051147,-1.399999976158142,4.539999961853027,0.0418701171875,0.09832763671875,0.96881103515625,36.66999816894531,0.0,74.0,0.582305908203125,-2.4859619140625,Waiting,0.0,0.0,-1026431.0,0.0,0.0,0.0,0.0,0.0,
0.9902639999999997,0.0,0.0,4547.0,2.625,-337.5,0.0,0.0,0.5,1.297607289,0.5498168668524864,0.07080077399999984,-10257.0,2.25,-585.0,0.0,0.0,0.5,4.957274883,4.41043958977222,-0.06103515000000037,7146.0,3.125,-157.5,0.0,0.0,0.375,2.756347374,4.389674732977291,-0.06347655600000035,-8351.0,3.125,-367.5,0.0,0.0,0.75,2.056884555,0.552687206278561,0.05371093199999999,-0.5899999737739563,-1.399999976158142,5.159999847412109,0.0098876953125,0.0648193359375,1.0634765625,36.66999816894531,0.0,42.0,0.580810546875,-2.4867401123046875,Waiting,0.0,0.0,-1026431.0,0.0,0.0,0.0,0.0,0.0,
1.0127050000000004,0.0,0.0,4508.0,0.625,-300.0,0.0,0.0,0.5,1.312255725,0.5498168668524864,0.09399413100000009,-10257.0,0.25,-495.0,0.0,0.0,0.5,4.91943309,4.41043958977222,4.79736279,7146.0,0.875,-150.0,0.0,0.0,0.125,2.720946987,4.389674732977291,-0.14648435999999965,-8351.0,0.0,-292.5,0.0,0.0,0.625,2.094726348,0.552687206278561,0.1342773300000002,-0.4300000071525574,-1.2300000190734863,6.21999979019165,-0.0157470703125,0.08514404296875,1.10614013671875,36.66999816894531,0.0,18.0,0.5782012939453125,-2.487762451171875,Waiting,0.0,0.0,-1026431.0,0.0,0.0,0.0,0.0,0.0,
1.0307779999999998,0.0,0.0,4508.0,0.0,-247.5,0.0,0.0,0.375,1.3159178340000002,0.5498168668524864,0.09399413100000009,-10257.0,0.0,-375.0,0.0,0.0,0.25,4.89501903,4.41043958977222,4.79736279,7146.0,0.0,-120.0,0.0,0.0,0.125,2.706298551,4.389674732977291,-0.14648435999999965,-8351.0,0.0,-292.5,0.0,0.0,0.375,2.09960916,0.552687206278561,0.1342773300000002,-0.3499999940395355,-1.2699999809265137,6.619999885559082,-0.03271484375,0.0240478515625,1.007080078125,36.66999816894531,0.0,-6.0,0.5769500732421875,-2.4880828857421875,Waiting,0.0,0.0,-1026431.0,0.0,0.0,0.0,0.0,0.0,
1.0491089999999998,0.0,0.0,4508.0,0.0,-202.5,0.0,0.0,0.375,1.3171385370000002,0.5498168668524864,0.09399413100000009,-10257.0,0.0,-247.5,0.0,0.0,0.25,4.877929188,4.41043958977222,4.79736279,7146.0,0.0,-75.0,0.0,0.0,0.125,2.6965329270000002,4.389674732977291,-0.14648435999999965,-8351.0,0.0,-255.0,0.0,0.0,0.375,2.1142575960000003,0.552687206278561,0.1342773300000002,-0.3400000035762787,-1.350000023841858,6.960000038146973,-0.0394287109375,-0.02020263671875,1.02130126953125,36.66999816894531,0.0,-16.0,0.5769500732421875,-2.4884033203125,Waiting,0.0,0.0,-1026431.0,0.0,0.0,0.0,0.0,0.0,
1.0712109999999997,0.0,0.0,4508.0,0.0,-172.5,0.0,0.0,0.375,1.3171385370000002,0.5498168668524864,0.014648436000000098,-10257.0,0.0,-172.5,0.0,0.0,0.25,4.864501455,4.41043958977222,-0.056152337999999524,7146.0,0.0,-37.5,0.0,0.0,0.125,2.6977536300000002,4.389674732977291,-0.04272460500000008,-8384.0,0.0,-217.5,0.0,0.0,0.375,2.128906032,0.552687206278561,0.04638671399999961,-0.3799999952316284,-1.3700000047683716,7.260000228881836,-0.0299072265625,0.0120849609375,0.9686279296875,36.66999816894531,0.0,-67.0,0.576904296875,-2.4887237548828125,Waiting,0.0,0.0,-1026431.0,0.0,0.0,0.0,0.0,0.0,
1.0893430000000004,0.0,0.0,4508.0,0.0,-165.0,0.0,0.0,0.25,1.3159178340000002,0.5498168668524864,0.014648436000000098,-10281.0,0.0,-150.0,0.0,0.0,0.25,4.8632807520000005,4.41043958977222,-0.056152337999999524,7146.0,0.0,-7.5,0.0,0.0,0.0,2.6965329270000002,4.389674732977291,-0.04272460500000008,-8384.0,0.0,-210.0,0.0,0.0,0.375,2.128906032,0.552687206278561,0.04638671399999961,-0.36000001430511475,-1.3899999856948853,7.75,-0.0703125,-0.00579833984375,0.98785400390625,36.66999816894531,0.0,-45.0,0.5767822265625,-2.4887237548828125,Waiting,0.0,0.0,-1026431.0,0.0,0.0,0.0,0.0,0.0,
1.1138910000000002,0.0,0.0,4480.0,0.0,-165.0,0.0,0.0,0.25,1.3159178340000002,0.5498168668524864,0.0,-10281.0,0.0,-165.0,0.0,0.0,0.25,4.864501455,4.41043958977222,-0.019531247999999835,7146.0,0.0,0.0,0.0,0.0,0.0,2.6965329270000002,4.389674732977291,-0.006103515000000392,-8384.0,0.0,-210.0,0.0,0.0,0.25,2.128906032,0.552687206278561,0.01831054500000029,-0.4300000071525574,-1.4500000476837158,8.100000381469727,-0.061279296875,-0.0423583984375,1.0230712890625,36.66999816894531,0.0,-39.0,0.5762939453125,-2.4888153076171875,Waiting,0.0,0.0,-1026431.0,0.0,0.0,0.0,0.0,0.0,
1.1340310000000005,0.0,0.0,4480.0,0.0,-180.0,0.0,0.0,0.25,1.3159178340000002,0.5498168668524864,0.0,-10281.0,0.0,-172.5,0.0,0.0,0.125,4.8632807520000005,4.41043958977222,-0.019531247999999835,7146.0,0.0,0.0,0.0,0.0,0.0,2.6965329270000002,4.389674732977291,-0.006103515000000392,-8384.0,0.0,-187.5,0.0,0.0,0.25,2.127685329,0.552687206278561,0.01831054500000029,-0.4300000071525574,-1.4600000381469727,8.229999542236328,-0.0059814453125,0.001220703125,0.94598388671875,36.66999816894531,0.0,19.0,0.5760040283203125,-2.4888916015625,Waiting,0.0,0.0,-1026431.0,0.0,0.0,0.0,0.0,0.0,
1.1525300000000003,0.0,0.0,4480.0,0.0,-165.0,0.0,0.0,0.25,1.3159178340000002,0.5498168668524864,0.0,-10281.0,0.0,-150.0,0.0,0.0,0.125,4.864501455,4.41043958977222,0.0,7146.0,0.0,0.0,0.0,0.0,0.0,2.6965329270000002,4.389674732977291,0.0,-8384.0,0.0,-187.5,0.0,0.0,0.25,2.128906032,0.552687206278561,0.0012207029999999897,-0.4300000071525574,-1.4500000476837158,8.319999694824219,-0.02880859375,-0.02886962890625,1.00238037109375,36.66999816894531,0.0,-6.0,0.5760040283203125,-2.488983154296875,Waiting,0.0,0.0,-1026431.0,0.0,0.0,0.0,0.0,0.0,
1.174078,0.0,0.0,4480.0,0.0,-142.5,0.0,0.0,0.25,1.3171385370000002,0.5498168668524864,0.0012207029999999897,-10281.0,0.0,-112.5,0.0,0.0,0.125,4.862060049,4.41043958977222,0.0,7146.0,0.0,0.0,0.0,0.0,0.0,2.6965329270000002,4.389674732977291,0.0,-8384.0,0.0,-142.5,0.0,0.0,0.25,2.128906032,0.552687206278561,0.0012207029999999897,-0.4300000071525574,-1.409999966621399,8.420000076293945,0.02386474609375,-0.01605224609375,1.033935546875,36.66999816894531,0.0,47.0,0.5760498046875,-2.4891510009765625,Waiting,0.0,0.0,-1026431.0,0.0,0.0,0.0,0.0,0.0,
1.193694,0.0,0.0,4480.0,0.0,-105.0,0.0,0.0,0.25,1.3159178340000002,0.5498168668524864,0.0012207029999999897,-10281.0,0.0,-67.5,0.0,0.0,0.125,4.8632807520000005,4.41043958977222,0.0,7146.0,0.0,0.0,0.0,0.0,0.0,2.6965329270000002,4.389674732977291,0.0,-8391.0,0.0,-90.0,0.0,0.0,0.25,2.128906032,0.552687206278561,0.0012207029999999897,-0.41999998688697815,-1.3899999856948853,8.420000076293945,0.01885986328125,0.01751708984375,1.0120849609375,36.66999816894531,0.0,46.0,0.5761566162109375,-2.4891510009765625,Waiting,0.0,0.0,-1026431.0,0.0,0.0,0.0,0.0,0.0,
1.2205660000000003,0.0,0.0,4480.0,0.0,-82.5,0.0,0.0,0.25,1.3171385370000002,0.5498168668524864,0.0,-10286.0,0.0,-45.0,0.0,0.0,0.125,4.864501455,4.41043958977222,0.0,7146.0,0.0,0.0,0.0,0.0,0.0,2.6965329270000002,4.389674732977291,0.0,-8391.0,0.0,-30.0,0.0,0.0,0.25,2.128906032,0.552687206278561,0.0,-0.4000000059604645,-1.3899999856948853,8.399999618530273,-0.011474609375,0.02606201171875,1.037353515625,36.66999816894531,0.0,18.0,0.5763092041015625,-2.4891204833984375,Waiting,0.0,0.0,-1026431.0,0.0,0.0,0.0,0.0,0.0,
1.2364240000000004,0.0,0.0,4474.0,0.0,-60.0,0.0,0.0,0.25,1.3159178340000002,0.5498168668524864,0.0,-10286.0,0.0,-30.0,0.0,0.0,0.125,4.8632807520000005,4.41043958977222,0.0,7146.0,0.0,0.0,0.0,0.0,0.0,2.6977536300000002,4.389674732977291,0.0,-8391.0,0.0,-30.0,0.0,0.0,0.25,2.128906032,0.552687206278561,0.0,-0.3700000047683716,-1.350000023841858,8.300000190734863,-0.013427734375,0.0238037109375,1.0140380859375,36.68000030517578,0.0,14.0,0.57672119140625,-2.4889373779296875,Waiting,0.0,0.0,-1026431.0,0.0,0.0,0.0,0.0,0.0,
1.2551550000000002,0.0,0.0,4474.0,0.0,-37.5,0.0,0.0,0.25,1.3159178340000002,0.5498168668524864,-0.0012207029999999897,-10286.0,0.0,-15.0,0.0,0.0,0.125,4.862060049,4.41043958977222,0.0,7146.0,0.0,0.0,0.0,0.0,0.0,2.6965329270000002,4.389674732977291,0.0,-8391.0,0.0,-15.0,0.0,0.0,0.25,2.128906032,0.552687206278561,0.0012207029999999897,-0.3499999940395355,-1.350000023841858,8.25,-0.01666259765625,-0.0068359375,1.06243896484375,36.68000030517578,0.0,8.0,0.5769500732421875,-2.4888153076171875,Waiting,0.0,0.0,-1026431.0,0.0,0.0,0.0,0.0,0.0,
1.2809150000000005,0.0,0.0,4474.0,0.0,-22.5,0.0,0.0,0.25,1.3159178340000002,0.5498168668524864,-0.0012207029999999897,-10286.0,0.0,-7.5,0.0,0.0,0.125,4.859618643,4.41043958977222,0.0,7146.0,0.0,0.0,0.0,0.0,0.0,2.6977536300000002,4.389674732977291,0.0,-8391.0,0.0,-7.5,0.0,0.0,0.25,2.128906032,0.552687206278561,0.0012207029999999897,-0.3700000047683716,-1.340000033378601,8.130000114440918,-0.03289794921875,-0.02276611328125,0.98345947265625,36.68000030517578,0.0,-11.0,0.5769500732421875,-2.4886932373046875,Waiting,0.0,0.0,-1026431.0,0.0,0.0,0.0,0.0,0.0,
1.2993660000000005,0.0,0.0,4474.0,0.0,-7.5,0.0,0.0,0.25,1.331786973,0.5498168668524864,-0.0012207029999999897,-10286.0,0.0,0.0,0.0,0.0,0.125,4.858397940000001,4.41043958977222,-0.004882811999999959,7146.0,0.0,0.0,0.0,0.0,0.0,2.6965329270000002,4.389674732977291,0.0,-8391.0,0.0,0.0,0.0,0.0,0.25,2.128906032,0.552687206278561,0.0,-0.3799999952316284,-1.3600000143051147,8.069999694824219,-0.04443359375,-0.02508544921875,1.04681396484375,36.68000030517578,0.0,-21.0,0.5769195556640625,-2.4886932373046875,Waiting,0.0,0.0,-1026431.0,0.0,0.0,0.0,0.0,0.0,
1.3237900000000005,0.0,0.0,4474.0,0.0,0.0,0.0,0.0,0.25,1.3171385370000002,0.5498168668524864,0.0,-10286.0,0.0,0.0,0.0,0.0,0.125,4.857177237,4.41043958977222,-0.004882811999999959,7146.0,0.0,0.0,0.0,0.0,0.0,2.6965329270000002,4.389674732977291,0.0,-8391.0,0.0,0.0,0.0,0.0,0.25,2.133788844,0.552687206278561,0.0,-0.38999998569488525,-1.3600000143051147,8.020000457763672,-0.03887939453125,-0.02294921875,1.01898193359375,36.68000030517578,0.0,-16.0,0.576873779296875,-2.4886932373046875,Waiting,0.0,0.0,-1026431.0,0.0,0.0,0.0,0.0,0.0,
1.338065,0.0,0.0,4474.0,0.0,0.0,0.0,0.0,0.25,1.3171385370000002,0.5498168668524864,0.0,-10286.0,0.0,0.0,0.0,0.0,0.125,4.860839346000001,4.41043958977222,-0.004882811999999959,7146.0,0.0,0.0,0.0,0.0,0.0,2.6965329270000002,4.389674732977291,0.0,-8391.0,0.0,0.0,0.0,0.0,0.25,2.130126735,0.552687206278561,0.0,-0.4000000059604645,-1.3700000047683716,7.980000019073486,-0.0364990234375,-0.01336669921875,1.01275634765625,36.68000030517578,0.0,-12.0,0.5767974853515625,-2.4886932373046875,Waiting,0.0,0.0,-1026431.0,0.0,0.0,0.0,0.0,0.0,
1.3603409999999998,0.0,0.0,4474.0,0.0,0.0,0.0,0.0,0.25,1.3159178340000002,0.5498168668524864,0.0,-10286.0,0.0,0.0,0.0,0.0,0.125,4.859618643,4.41043958977222,0.0,7146.0,0.0,0.0,0.0,0.0,0.0,2.6977536300000002,4.389674732977291,0.0,-8391.0,0.0,0.0,0.0,0.0,0.25,2.133788844,0.552687206278561,-0.0012207029999999897,-0.38999998569488525,-1.3899999856948853,7.940000057220459,-0.02618408203125,-0.001220703125,0.998046875,36.68000030517578,0.0,-1.0,0.5767974853515625,-2.4886932373046875,Waiting,0.0,0.0,-1026431.0,0.0,0.0,0.0,0.0,0.0,
1.3858070000000002,0.0,0.0,4474.0,0.0,0.0,0.0,0.0,0.25,1.3159178340000002,0.5498168668524864,0.0,-10286.0,0.0,0.0,0.0,0.0,0.125,4.859618643,4.41043958977222,0.0,7146.0,0.0,0.0,0.0,0.0,0.0,2.6965329270000002,4.389674732977291,0.0,-8391.0,0.0,0.0,0.0,0.0,0.25,2.128906032,0.552687206278561,-0.0012207029999999897,-0.38999998569488525,-1.3899999856948853,7.920000076293945,-0.01690673828125,0.0096435546875,1.02978515625,36.68000030517578,0.0,10.0,0.5767974853515625,-2.4886932373046875,Waiting,0.0,0.0,-1026431.0,0.0,0.0,0.0,0.0,0.0,
1.4034230000000003,0.0,0.0,4474.0,0.0,0.0,0.0,0.0,0.25,1.3159178340000002,0.5498168668524864,0.0,-10286.0,0.0,0.0,0.0,0.0,0.125,4.858397940000001,4.41043958977222,0.0,7146.0,0.0,0.0,0.0,0.0,0.0,2.6965329270000002,4.389674732977291,0.0,-8391.0,0.0,0.0,0.0,0.0,0.25,2.128906032,0.552687206278561,0.0,-0.3700000047683716,-1.3700000047683716,7.929999828338623,-0.008544921875,0.01104736328125,1.00628662109375,36.68000030517578,0.0,17.0,0.5767974853515625,-2.4886932373046875,Waiting,0.0,0.0,-1026431.0,0.0,0.0,0.0,0.0,0.0,
1.4282190000000006,0.0,0.0,4474.0,0.0,0.0,0.0,0.0,0.25,1.3171385370000002,0.5498168668524864,0.0,-10286.0,0.0,0.0,0.0,0.0,0.125,4.858397940000001,4.41043958977222,0.0,7146.0,0.0,0.0,0.0,0.0,0.0,2.6965329270000002,4.389674732977291,0.0,-8391.0,0.0,0.0,0.0,0.0,0.25,2.128906032,0.552687206278561,0.0,-0.3700000047683716,-1.3600000143051147,7.940000057220459,-0.00506591796875,-0.001708984375,1.0126953125,36.68000030517578,0.0,19.0,0.5767974853515625,-2.4886932373046875,Waiting,0.0,0.0,-1026431.0,0.0,0.0,0.0,0.0,0.0,
1.4473579999999997,0.0,0.0,4474.0,0.0,0.0,0.0,0.0,0.25,1.3159178340000002,0.5498168668524864,0.0,-10286.0,0.0,0.0,0.0,0.0,0.125,4.858397940000001,4.41043958977222,0.0,7146.0,0.0,0.0,0.0,0.0,0.0,2.6965329270000002,4.389674732977291,0.0,-8391.0,0.0,0.0,0.0,0.0,0.25,2.128906032,0.552687206278561,0.0,-0.3700000047683716,-1.350000023841858,7.949999809265137,-0.00927734375,-0.009765625,1.03509521484375,36.68000030517578,0.0,14.0,0.5767974853515625,-2.4886932373046875,Waiting,0.0,0.0,-1026431.0,0.0,0.0,0.0,0.0,0.0,
1.47314,0.0,0.0,4474.0,0.0,0.0,0.0,0.0,0.25,1.3159178340000002,0.5498168668524864,0.0,-10286.0,0.0,0.0,0.0,0.0,0.125,4.859618643,4.41043958977222,0.0,7146.0,0.0,0.0,0.0,0.0,0.0,2.6965329270000002,4.389674732977291,0.0,-8391.0,0.0,0.0,0.0,0.0,0.25,2.128906032,0.552687206278561,0.0,-0.3700000047683716,-1.340000033378601,7.96999979019165,-0.02142333984375,-0.0108642578125,1.0189208984375,36.68000030517578,0.0,1.0,0.5767974853515625,-2.4886932373046875,Waiting,0.0,0.0,-1026431.0,0.0,0.0,0.0,0.0,0.0,
1.5012010000000005,0.0,0.0,4474.0,0.0,0.0,0.0,0.0,0.25,1.3159178340000002,0.5498168668524864,0.0,-10286.0,0.0,0.0,0.0,0.0,0.125,4.858397940000001,4.41043958977222,0.0,7146.0,0.0,0.0,0.0,0.0,0.0,2.6965329270000002,4.389674732977291,0.0,-8391.0,0.0,0.0,0.0,0.0,0.25,2.128906032,0.552687206278561,0.0012207029999999897,-0.3799999952316284,-1.350000023841858,7.989999771118164,-0.0341796875,-0.00750732421875,1.01654052734375,36.68000030517578,0.0,-10.0,0.5767974853515625,-2.4886932373046875,Waiting,0.0,0.0,-1026431.0,0.0,0.0,0.0,0.0,0.0,
1.523114,0.0,0.0,4474.0,0.0,0.0,0.0,0.0,0.25,1.3171385370000002,0.5498168668524864,-0.0012207030000002117,-10286.0,0.0,0.0,0.0,0.0,0.125,4.858397940000001,4.41043958977222,0.0,7146.0,0.0,0.0,0.0,0.0,0.0,2.6965329270000002,4.389674732977291,0.0,-8391.0,0.0,0.0,0.0,0.0,0.25,2.128906032,0.552687206278561,0.0012207029999999897,-0.3799999952316284,-1.350000023841858,8.0,-0.03253173828125,-0.00506591796875,1.0159912109375,36.68000030517578,0.0,-8.0,0.5767974853515625,-2.4886932373046875,Waiting,0.0,0.0,-1026431.0,0.0,0.0,0.0,0.0,0.0,
1.5451240000000002,0.0,0.0,4474.0,0.0,0.0,-281.1023533344269,0.0,0.25,1.2915037740000002,1.3426683277777762,0.0,-10286.0,0.0,0.0,-281.1023533344269,0.0,0.125,4.854735831,3.8331334999999984,0.0,7146.0,0.0,0.0,281.1023533344269,0.0,0.0,2.6953122240000003,3.8150866666666654,0.0,-8391.0,0.375,0.0,281.1023533344269,0.0,0.25,2.128906032,1.3496777777777762,-0.0012207029999999897,-0.3799999952316284,-1.3600000143051147,8.0,-0.03692626953125,-0.00469970703125,1.013427734375,36.68000030517578,0.0,-2.0,0.5767974853515625,-2.4886932373046875,Waiting,0.0,0.0,-1026431.0,0.0,0.0,0.0,0.0,0.0,
1.5693660000000005,0.0,0.0,4474.0,0.125,0.0,-496.06300592422485,0.0,2.375,1.33056627,1.3428053378858393,0.0,-10287.0,0.125,0.0,-496.06300592422485,0.0,0.125,4.855956534000001,3.8332713856558787,0.0,7146.0,0.375,0.0,496.06300592422485,0.0,0.0,2.6916501150000003,3.8152239031410202,0.0,-8391.0,0.375,0.0,496.06300592422485,0.0,0.25,2.191161885,1.3498155031522099,0.0,-0.3799999952316284,-1.3600000143051147,8.0,-0.0101318359375,-0.001953125,1.023193359375,36.68000030517578,0.0,14.0,0.5767974853515625,-2.4886932373046875,Waiting,0.0,0.0,-1026431.0,0.0,0.0,0.0,0.0,0.0,
1.5900130000000003,0.0,0.0,4474.0,0.125,-7.5,-1008.6614370346069,0.0,2.375,1.417236183,1.3426683277777762,0.06469725900000012,-10287.0,0.125,0.0,-1008.6614370346069,0.0,2.625,4.796142087000001,3.8331334999999984,-0.02441406000000068,7146.0,0.5,0.0,1008.6614370346069,0.0,1.5,2.6367184800000003,3.8150866666666654,-0.01831054500000029,-8391.0,0.5,0.0,1008.6614370346069,0.0,4.875,2.263183362,1.3496777777777762,0.06225585299999992,-0.3799999952316284,-1.3600000143051147,8.0,-0.0101318359375,-0.001953125,1.023193359375,36.68000030517578,0.0,14.0,0.5767974853515625,-2.4886932373046875,Waiting,0.0,0.0,-1026431.0,0.0,0.0,0.0,0.0,0.0,
1.608024,0.0,0.0,4469.0,1.0,-15.0,-1008.6614370346069,0.0,4.75,1.564941246,1.3426683277777762,0.0,-10287.0,0.375,-15.0,-1008.6614370346069,0.0,3.25,4.719237798,3.8331334999999984,0.0,7146.0,2.125,0.0,1008.6614370346069,0.0,2.0,2.546386458,3.8150866666666654,0.0,-8391.0,2.0,15.0,1008.6614370346069,0.0,6.0,2.407226316,1.3496777777777762,0.0,-0.3700000047683716,-1.350000023841858,7.989999771118164,-0.01116943359375,-0.16448974609375,1.05029296875,36.68000030517578,0.0,-8.0,0.5767974853515625,-2.4888458251953125,Waiting,0.0,0.0,-1026431.0,0.0,0.0,0.0,0.0,0.0,
1.6290499999999997,0.0,0.0,4469.0,2.5,-60.0,-1504.7244429588318,0.0,5.5,1.6625974860000001,1.3425313176697133,0.130615221,-10287.0,2.125,-60.0,-1504.7244429588318,0.0,3.25,4.656981945,3.8329956143441186,-0.0830078039999993,7146.0,2.125,0.0,1504.7244429588318,0.0,2.125,2.463378654,3.81494943019231,-0.10131834899999959,-8391.0,3.375,37.5,1504.7244429588318,0.0,6.0,2.498779041,1.3495400524033425,0.1440429540000001,-0.4399999976158142,-1.3300000429153442,7.989999771118164,0.24310302734375,-0.357177734375,1.1689453125,36.68000030517578,0.0,219.0,0.5769500732421875,-2.489349365234375,Waiting,0.0,0.0,-1026431.0,0.0,0.0,0.0,0.0,0.0,
1.648658,0.0,0.0,4469.0,5.375,-120.0,-1885.039347410202,0.0,3.625,1.7687986470000001,1.3425313176697133,0.08911131900000013,-10287.0,5.375,-127.5,-1885.039347410202,0.0,1.125,4.6032710130000005,3.8329956143441186,-0.046386714000000495,7146.0,4.625,0.0,1885.039347410202,0.0,0.75,2.3815915530000002,3.81494943019231,-0.06713866499999988,-8391.0,6.75,52.5,1885.039347410202,0.0,2.0,2.5939938750000002,1.3495400524033425,0.08422850699999973,-0.6899999976158142,-1.2300000190734863,7.980000019073486,-0.0052490234375,-0.173095703125,0.9949951171875,36.68000030517578,0.0,-6.0,0.577239990234375,-2.490234375,Waiting,0.0,0.0,-1026431.0,0.0,0.0,0.0,0.0,0.0,
1.6704400000000001,0.0,0.0,4469.0,9.625,-187.5,-1885.0393474102018,0.0,1.125,1.856689263,1.3430793450359622,0.1171874879999999,-10287.0,12.625,-187.5,-1885.0393474102018,0.0,1.125,4.5532221900000005,3.8335471438181385,-0.0646972589999999,7146.0,9.125,0.0,1885.0393474102018,0.0,0.25,2.298583749,3.8154983630021397,-0.09643553700000052,-8377.0,11.5,67.5,1885.0393474102018,0.0,1.0,2.6855466000000003,1.3500909407668629,0.10864256699999997,-0.9800000190734863,-1.25,8.109999656677246,-0.03759765625,-0.2481689453125,0.856201171875,36.68000030517578,0.0,-51.0,0.5775909423828125,-2.4928436279296875,Waiting,0.0,0.0,-1026431.0,0.0,0.0,0.0,0.0,0.0,
1.6891030000000005,0.0,0.0,4469.0,13.75,-255.0,-2000.7874488830566,0.0,0.5,1.92871074,1.3441753997684596,0.0927734280000001,-10332.0,20.25,-240.0,-2000.7874488830566,0.0,1.125,4.526366724,3.8346502027661784,-0.04638671399999961,7147.0,14.875,0.0,2000.7874488830566,0.0,0.125,2.210693133,3.8165962286217994,-0.09155272499999967,-8377.0,17.25,82.5,2000.7874488830566,0.0,0.875,2.729491908,1.3511927174939034,0.07446288300000026,-1.2100000381469727,-1.2899999618530273,8.239999771118164,-0.1112060546875,-0.35595703125,1.194580078125,36.68000030517578,0.0,-130.0,0.5775909423828125,-2.494659423828125,Waiting,0.0,0.0,-1026431.0,0.0,0.0,0.0,0.0,0.0,
1.708899,0.0,0.0,4469.0,15.75,-322.5,-1587.401568889618,0.0,0.375,1.9970701080000002,1.345956491975269,0.0,-10332.0,26.75,-270.0,-1587.401568889618,0.0,1.125,4.493407743000001,3.8364426768441184,0.0,7147.0,20.875,0.0,1587.401568889618,0.0,0.125,2.1630857160000003,3.8183802635256434,0.0,-8377.0,23.5,97.5,1587.401568889618,0.0,0.875,2.785644246,1.352983107958898,0.0,-1.649999976158142,-1.3899999856948853,8.5600004196167,-0.0416259765625,-0.3515625,0.859375,36.68000030517578,0.0,-69.0,0.57708740234375,-2.4997406005859375,Waiting,0.0,0.0,-1026431.0,0.0,0.0,0.0,0.0,0.0,
1.7286830000000004,0.0,0.0,4404.0,15.75,-322.5,-810.2362096309661,0.0,0.375,2.043456822,1.3503407239712621,0.07080077400000007,-10332.0,29.0,-292.5,-810.2362096309661,0.0,1.125,4.481200713000001,3.8408549257857785,-0.026855465999999772,7147.0,24.375,7.5,810.2362096309661,0.0,0.0,2.12402322,3.8227717390918716,-0.052490229,-8377.0,25.375,127.5,810.2362096309661,0.0,0.75,2.810058306,1.357390228001275,0.0573730410000004,-1.8899999856948853,-1.4199999570846558,8.710000038146973,-0.04522705078125,-0.38690185546875,1.0091552734375,36.68000030517578,0.0,-73.0,0.5766754150390625,-2.502960205078125,Waiting,0.0,0.0,-1026431.0,0.0,0.0,0.0,0.0,0.0,
1.750043,0.0,0.0,4404.0,11.0,-427.5,-214.9606369435787,0.0,0.375,2.083740021,1.352395823328194,0.04272460500000008,-10332.0,27.625,-322.5,-214.9606369435787,0.0,0.875,4.468993683,3.8429231580259784,-0.01342773300000033,7147.0,22.875,22.5,214.9606369435787,0.0,0.125,2.109374784,3.8248302338568356,-0.028076169000000206,-8377.0,20.875,180.0,214.9606369435787,0.0,0.75,2.838134475,1.3594560560809226,0.026855465999999772,-2.0299999713897705,-1.4500000476837158,8.8100004196167,0.103271484375,-0.26165771484375,1.18017578125,36.68000030517578,0.0,97.0,0.576263427734375,-2.5065765380859375,Waiting,0.0,0.0,-1026431.0,0.0,0.0,0.0,0.0,0.0,
1.7722289999999998,0.0,0.0,4404.0,5.75,-472.5,0.0,0.0,0.375,2.1166990020000003,1.352395823328194,0.0,-10332.0,19.75,-375.0,0.0,0.0,0.875,4.451903841,3.8429231580259784,0.0,7147.0,17.375,52.5,0.0,0.0,0.0,2.094726348,3.8248302338568356,0.0,-8377.0,12.25,247.5,0.0,0.0,0.625,2.872314159,1.3594560560809226,0.0,-2.25,-1.2400000095367432,8.920000076293945,0.0531005859375,-0.14166259765625,0.8277587890625,36.66999816894531,0.0,53.0,0.5758819580078125,-2.514434814453125,Waiting,0.0,0.0,-1026431.0,0.0,0.0,0.0,0.0,0.0,
1.7901460000000002,0.0,0.0,4404.0,5.75,-472.5,0.0,0.0,0.375,2.132568141,1.352395823328194,0.0,-10332.0,10.625,-427.5,0.0,0.0,0.875,4.437255405,3.8429231580259784,0.0,7147.0,10.5,112.5,0.0,0.0,0.0,2.094726348,3.8248302338568356,0.0,-8321.0,12.25,247.5,0.0,0.0,0.375,2.8918454070000004,1.3594560560809226,0.0,-2.180000066757202,-1.2200000286102295,8.930000305175781,0.0927734375,0.0467529296875,0.96337890625,36.66999816894531,0.0,124.0,0.5758819580078125,-2.5184783935546875,Waiting,0.0,0.0,-1026431.0,0.0,0.0,0.0,0.0,0.0,
1.8110750000000002,0.0,0.0,4404.0,2.5,-495.0,0.0,0.0,0.375,2.145995874,1.352395823328194,0.07202147699999983,-10403.0,2.75,-457.5,0.0,0.0,0.5,4.417724157,3.8429231580259784,-0.04638671399999961,7191.0,4.25,195.0,0.0,0.0,0.0,2.094726348,3.8248302338568356,-0.024414059999999793,-8321.0,1.0,345.0,0.0,0.0,0.375,2.915038764,1.3594560560809226,0.07446288300000026,-2.1500000953674316,-1.2300000190734863,8.920000076293945,-0.036376953125,0.10174560546875,1.1732177734375,36.66999816894531,0.0,11.0,0.575958251953125,-2.522369384765625,Waiting,0.0,0.0,-1026431.0,0.0,0.0,0.0,0.0,0.0,
1.8295679999999999,0.0,0.0,4404.0,0.375,-487.5,0.0,0.0,0.25,2.150878686,1.352395823328194,0.07202147699999983,-10403.0,0.75,-442.5,0.0,0.0,0.5,4.3981929090000005,3.8429231580259784,-0.04638671399999961,7191.0,1.375,277.5,0.0,0.0,0.0,2.094726348,3.8248302338568356,-0.024414059999999793,-8321.0,1.0,345.0,0.0,0.0,0.375,2.930907903,1.3594560560809226,0.07446288300000026,-2.0399999618530273,-1.2300000190734863,8.899999618530273,-0.016357421875,0.0572509765625,1.10699462890625,36.66999816894531,0.0,22.0,0.5760650634765625,-2.5261077880859375,Waiting,0.0,0.0,-1026431.0,0.0,0.0,0.0,0.0,0.0,
1.848511,0.0,0.0,4343.0,0.0,-442.5,0.0,0.0,0.125,2.152099389,1.352395823328194,0.07202147699999983,-10403.0,0.0,-367.5,0.0,0.0,0.25,4.387206582,3.8429231580259784,-0.04638671399999961,7191.0,0.0,330.0,0.0,0.0,0.0,2.094726348,3.8248302338568356,-0.024414059999999793,-8321.0,0.0,345.0,0.0,0.0,0.375,2.939452824,1.3594560560809226,0.07446288300000026,-1.9199999570846558,-1.2200000286102295,8.90999984741211,-0.02008056640625,0.259765625,0.95147705078125,36.66999816894531,0.0,45.0,0.5762786865234375,-2.5330810546875,Waiting,0.0,0.0,-1026431.0,0.0,0.0,0.0,0.0,0.0,
1.8705520000000002,0.0,0.0,4343.0,0.0,-367.5,0.0,0.0,0.125,2.150878686,1.352395823328194,0.013427732999999886,-10403.0,0.0,-292.5,0.0,0.0,0.25,4.367675334,3.8429231580259784,-0.035400387000000144,7191.0,0.0,337.5,0.0,0.0,0.0,2.095947051,3.8248302338568356,-0.0012207030000004337,-8321.0,0.0,315.0,0.0,0.0,0.375,2.9492184480000003,1.3594560560809226,0.03784179299999968,-1.6699999570846558,-1.2799999713897705,8.920000076293945,-0.02349853515625,0.268798828125,0.95489501953125,36.66999816894531,0.0,44.0,0.5764312744140625,-2.536041259765625,Waiting,0.0,0.0,-1026431.0,0.0,0.0,0.0,0.0,0.0,
1.889288,0.0,0.0,4343.0,0.0,-307.5,0.0,0.0,0.125,2.149657983,1.352395823328194,0.013427732999999886,-10403.0,0.0,-255.0,0.0,0.0,0.25,4.354247601,3.8429231580259784,-0.035400387000000144,7191.0,0.0,307.5,0.0,0.0,0.0,2.094726348,3.8248302338568356,-0.0012207030000004337,-8321.0,0.0,285.0,0.0,0.0,0.375,2.9541012600000003,1.3594560560809226,0.03784179299999968,-1.4600000381469727,-1.2899999618530273,8.9399995803833,-0.039306640625,-0.06524658203125,1.0947265625,36.66999816894531,0.0,-20.0,0.5766143798828125,-2.5388336181640625,Waiting,0.0,0.0,-1026431.0,0.0,0.0,0.0,0.0,0.0,
1.9095719999999996,0.0,0.0,4343.0,0.0,-285.0,0.0,0.0,0.125,2.150878686,1.352395823328194,0.0012207029999999897,-10403.0,0.0,-262.5,0.0,0.0,0.25,4.337157759,3.8429231580259784,-0.043945308000000516,7191.0,0.0,232.5,0.0,0.0,0.0,2.09960916,3.8248302338568356,0.0012207030000004337,-8273.0,0.0,277.5,0.0,0.0,0.125,2.9577633690000003,1.3594560560809226,0.025634763000000227,-1.340000033378601,-1.2200000286102295,9.020000457763672,0.00616455078125,0.0228271484375,0.92694091796875,36.66999816894531,0.0,32.0,0.5769805908203125,-2.544097900390625,Waiting,0.0,0.0,-1026431.0,0.0,0.0,0.0,0.0,0.0,
1.9298600000000001,0.0,0.0,4343.0,0.0,-307.5,0.0,0.0,0.125,2.150878686,1.352395823328194,0.0012207029999999897,-10449.0,0.0,-292.5,0.0,0.0,0.25,4.328612838000001,3.8429231580259784,-0.043945308000000516,7210.0,0.0,157.5,0.0,0.0,0.0,2.09960916,3.8248302338568356,0.0012207030000004337,-8273.0,0.0,300.0,0.0,0.0,0.125,2.9589840720000002,1.3594560560809226,0.025634763000000227,-1.2699999809265137,-1.2599999904632568,9.069999694824219,-0.0657958984375,0.13299560546875,0.944091796875,36.66999816894531,0.0,-20.0,0.577178955078125,-2.5465240478515625,Waiting,0.0,0.0,-1026431.0,0.0,0.0,0.0,0.0,0.0,
1.949918,0.0,0.0,4343.0,0.0,-352.5,0.0,0.0,0.125,2.150878686,1.352395823328194,0.0012207029999999897,-10449.0,0.0,-330.0,0.0,0.0,0.25,4.318847214,3.8429231580259784,-0.043945308000000516,7210.0,0.0,97.5,0.0,0.0,0.0,2.09960916,3.8248302338568356,0.0012207030000004337,-8273.0,0.0,322.5,0.0,0.0,0.125,2.963866884,1.3594560560809226,0.025634763000000227,-1.2200000286102295,-1.3300000429153442,9.119999885559082,-0.0323486328125,0.027587890625,1.0855712890625,36.66999816894531,0.0,1.0,0.577362060546875,-2.548797607421875,Waiting,0.0,0.0,-1026431.0,0.0,0.0,0.0,0.0,0.125,
1.9716230000000001,0.0,0.0,4284.0,0.0,-382.5,0.0,0.0,0.125,2.150878686,1.352395823328194,-0.0012207029999999897,-10449.0,0.0,-345.0,0.0,0.0,0.25,4.30908159,3.8429231580259784,-0.026855465999999772,7210.0,0.0,52.5,0.0,0.0,0.0,2.09960916,3.8248302338568356,0.004882811999999959,-8273.0,0.0,330.0,0.0,0.0,0.125,2.972411805,1.3594560560809226,0.008544920999999928,-1.0499999523162842,-1.2799999713897705,9.170000076293945,-0.01934814453125,0.12933349609375,0.94927978515625,36.66999816894531,0.0,25.0,0.577392578125,-2.5528411865234375,Waiting,0.0,0.0,-1026431.0,0.0,0.0,0.0,0.0,0.0,
1.9891169999999998,0.0,0.0,4284.0,0.0,-382.5,0.0,0.0,0.125,2.149657983,1.352395823328194,-0.0012207029999999897,-10449.0,0.0,-345.0,0.0,0.0,0.25,4.304198778,3.8429231580259784,-0.026855465999999772,7210.0,0.0,30.0,0.0,0.0,0.0,2.104491972,3.8248302338568356,0.004882811999999959,-8273.0,0.0,315.0,0.0,0.0,0.125,2.973632508,1.3594560560809226,0.008544920999999928,-0.9700000286102295,-1.2999999523162842,9.180000305175781,-0.052978515625,0.05999755859375,1.002197265625,36.66999816894531,0.0,-17.0,0.577423095703125,-2.554595947265625,Waiting,0.0,0.0,-1026431.0,0.0,0.0,0.0,0.0,0.0,
2.0095180000000004,0.0,0.0,4284.0,0.0,-337.5,0.0,0.0,0.125,2.150878686,1.352395823328194,0.0,-10449.0,0.0,-330.0,0.0,0.0,0.25,4.300536669,3.8429231580259784,-0.024414059999999793,7210.0,0.0,30.0,0.0,0.0,0.0,2.105712675,3.8248302338568356,0.004882811999999959,-8273.0,0.0,277.5,0.0,0.0,0.125,2.97851532,1.3594560560809226,0.012207029999999897,-0.8999999761581421,-1.340000033378601,9.1899995803833,-0.03924560546875,0.0985107421875,0.99652099609375,36.66999816894531,0.0,2.0,0.5774383544921875,-2.5562286376953125,Waiting,0.0,0.0,-1026431.0,0.0,0.0,0.0,0.0,0.0,
2.029314,0.0,0.0,4284.0,0.0,-277.5,0.0,0.0,0.125,2.150878686,1.352395823328194,0.0,-10449.0,0.0,-285.0,0.0,0.0,0.125,4.300536669,3.8429231580259784,-0.024414059999999793,7210.0,0.0,30.0,0.0,0.0,0.0,2.104491972,3.8248302338568356,0.004882811999999959,-8239.0,0.0,240.0,0.0,0.0,0.25,2.97851532,1.3594560560809226,0.012207029999999897,-0.75,-1.3799999952316284,9.199999809265137,-0.02069091796875,0.06512451171875,1.01025390625,36.66999816894531,0.0,16.0,0.5774383544921875,-2.5589752197265625,Waiting,0.0,0.0,-1026431.0,0.0,0.0,0.0,0.0,0.0,
2.0473129999999995,0.0,0.0,4284.0,0.0,-232.5,0.0,0.0,0.125,2.150878686,1.352395823328194,0.0,-10485.0,0.0,-247.5,0.0,0.0,0.125,4.2956538570000005,3.8429231580259784,-0.024414059999999793,7226.0,0.0,52.5,0.0,0.0,0.0,2.105712675,3.8248302338568356,0.004882811999999959,-8239.0,0.0,217.5,0.0,0.0,0.25,2.979736023,1.3594560560809226,0.012207029999999897,-0.6899999976158142,-1.3700000047683716,9.199999809265137,-0.03936767578125,0.10455322265625,1.14093017578125,36.66999816894531,0.0,7.0,0.5774383544921875,-2.5601348876953125,Waiting,0.0,0.0,-1026431.0,0.0,0.0,0.0,0.0,0.0,
2.0691610000000007,0.0,0.0,4284.0,0.0,-195.0,0.0,0.0,0.125,2.150878686,1.352395823328194,0.0012207029999999897,-10485.0,0.0,-225.0,0.0,0.0,0.125,4.2956538570000005,3.8429231580259784,-0.003662109000000413,7226.0,0.0,82.5,0.0,0.0,0.0,2.104491972,3.8248302338568356,0.0,-8239.0,0.0,202.5,0.0,0.0,0.25,2.97851532,1.3594560560809226,0.003662108999999969,-0.6200000047683716,-1.3799999952316284,9.199999809265137,-0.04656982421875,0.077880859375,1.00384521484375,36.66999816894531,0.0,-7.0,0.5774383544921875,-2.5611572265625,Waiting,0.0,0.0,-1026431.0,0.0,0.0,0.0,0.0,0.0,
2.0913920000000004,0.0,0.0,4256.0,0.0,-180.0,0.0,0.0,0.125,2.150878686,1.352395823328194,0.0012207029999999897,-10485.0,0.0,-210.0,0.0,0.0,0.125,4.294433154,3.8429231580259784,-0.003662109000000413,7226.0,0.0,112.5,0.0,0.0,0.0,2.105712675,3.8248302338568356,0.0,-8239.0,0.0,187.5,0.0,0.0,0.25,2.97851532,1.3594560560809226,0.003662108999999969,-0.46000000834465027,-1.399999976158142,9.229999542236328,-0.03564453125,0.13299560546875,1.0228271484375,36.66999816894531,0.0,12.0,0.5775146484375,-2.5627593994140625,Waiting,0.0,0.0,-1026431.0,0.0,0.0,0.0,0.0,0.0,
2.1113489999999997,0.0,0.0,4256.0,0.0,-165.0,0.0,0.0,0.125,2.150878686,1.352395823328194,-0.0012207029999999897,-10485.0,0.0,-187.5,0.0,0.0,0.125,4.294433154,3.8429231580259784,0.0,7226.0,0.0,127.5,0.0,0.0,0.0,2.104491972,3.8248302338568356,0.0,-8239.0,0.0,157.5,0.0,0.0,0.25,2.97851532,1.3594560560809226,0.0,-0.3700000047683716,-1.409999966621399,9.239999771118164,-0.01953125,0.09844970703125,1.0777587890625,36.66999816894531,0.0,23.0,0.5775909423828125,-2.56329345703125,Waiting,0.0,0.0,-1026431.0,0.0,0.0,0.0,0.0,0.0,
2.131142,0.0,0.0,4256.0,0.0,-142.5,0.0,0.0,0.125,2.150878686,1.352395823328194,-0.0012207029999999897,-10485.0,0.0,-157.5,0.0,0.0,0.125,4.2956538570000005,3.8429231580259784,0.0,7226.0,0.0,127.5,0.0,0.0,0.0,2.104491972,3.8248302338568356,0.0,-8239.0,0.0,127.5,0.0,0.0,0.25,2.97851532,1.3594560560809226,0.0,-0.30000001192092896,-1.3799999952316284,9.260000228881836,-0.021728515625,0.14923095703125,1.041748046875,36.66999816894531,0.0,28.0,0.57769775390625,-2.5636749267578125,Waiting,0.0,0.0,-1026431.0,0.0,0.0,0.0,0.0,0.0,
2.1491979999999997,0.0,0.0,4256.0,0.0,-112.5,0.0,0.0,0.125,2.150878686,1.352395823328194,-0.0012207029999999897,-10485.0,0.0,-127.5,0.0,0.0,0.125,4.2956538570000005,3.8429231580259784,0.0,7226.0,0.0,105.0,0.0,0.0,0.0,2.104491972,3.8248302338568356,0.0,-8226.0,0.0,105.0,0.0,0.0,0.25,2.979736023,1.3594560560809226,0.0,-0.12999999523162842,-1.3899999856948853,9.260000228881836,-0.03125,0.120849609375,1.0166015625,36.66999816894531,0.0,13.0,0.57806396484375,-2.5637969970703125,Waiting,0.0,0.0,-1026431.0,0.0,0.0,0.0,0.0,0.0,
2.1707100000000006,0.0,0.0,4256.0,0.0,-82.5,0.0,0.0,0.125,2.150878686,1.352395823328194,0.0,-10497.0,0.0,-105.0,0.0,0.0,0.125,4.294433154,3.8429231580259784,0.0,7234.0,0.0,75.0,0.0,0.0,0.0,2.105712675,3.8248302338568356,0.0,-8226.0,0.0,75.0,0.0,0.0,0.25,2.97851532,1.3594560560809226,0.0,-0.05000000074505806,-1.409999966621399,9.25,-0.04437255859375,0.0791015625,1.04644775390625,36.66999816894531,0.0,-5.0,0.5782623291015625,-2.5636138916015625,Waiting,0.0,0.0,-1026431.0,0.0,0.0,0.0,0.0,0.0,
2.1893480000000003,0.0,0.0,4256.0,0.0,-82.5,-264.56692814826965,0.0,0.125,2.150878686,1.359794199305554,0.0,-10497.0,0.0,-67.5,-264.56692814826965,0.0,0.125,4.304198778,3.8503688124999984,0.0,7234.0,0.0,52.5,264.56692814826965,0.0,0.0,2.104491972,3.8322408333333318,0.0,-8226.0,0.0,75.0,264.56692814826965,0.0,0.25,2.979736023,1.366893055555554,0.0,0.0,-1.409999966621399,9.239999771118164,-0.03704833984375,0.07489013671875,1.01483154296875,36.66999816894531,0.0,0.0,0.5782623291015625,-2.5633392333984375,Waiting,0.0,0.0,-1026431.0,0.0,0.0,0.0,0.0,0.0,
2.207783,0.0,0.0,4250.0,0.125,-60.0,-578.740131855011,0.0,0.125,2.150878686,1.3596571891974911,0.0,-10497.0,0.0,-45.0,-578.740131855011,0.0,0.125,4.2956538570000005,3.8502309268441186,0.0,7234.0,0.125,30.0,578.740131855011,0.0,0.0,2.104491972,3.832103596858977,0.0,-8226.0,0.375,37.5,578.740131855011,0.0,0.125,2.97851532,1.3667553301811202,0.0,0.05000000074505806,-1.4199999570846558,9.239999771118164,-0.0313720703125,0.0447998046875,1.06195068359375,36.66999816894531,0.0,2.0,0.5782623291015625,-2.56256103515625,Waiting,0.0,0.0,-1026431.0,0.0,0.0,0.0,0.0,0.0,
2.230208,0.0,0.0,4250.0,0.125,-37.5,-892.9133981466292,0.0,0.125,2.150878686,1.3596571891974911,0.0012207029999999897,-10497.0,0.5,-30.0,-892.9133981466292,0.0,0.125,4.2956538570000005,3.8502309268441186,-0.0012207029999995456,7234.0,0.375,15.0,892.9133981466292,0.0,0.0,2.094726348,3.832103596858977,0.0,-8226.0,0.375,37.5,892.9133981466292,0.0,0.125,2.97851532,1.3667553301811202,0.0012207029999999897,0.05999999865889549,-1.4199999570846558,9.239999771118164,-0.01385498046875,0.0274658203125,1.0045166015625,36.66999816894531,0.0,15.0,0.5782623291015625,-2.562103271484375,Waiting,0.0,0.0,-1026431.0,0.0,0.0,0.0,0.0,0.0,
2.2495450000000003,0.0,0.0,4250.0,0.375,-22.5,-892.9133981466292,0.0,0.125,2.152099389,1.3596571891974911,-0.0012207029999999897,-10497.0,1.125,-37.5,-892.9133981466292,0.0,0.0,4.2907710450000005,3.8502309268441186,0.0012207029999995456,7234.0,1.375,7.5,892.9133981466292,0.0,0.0,2.105712675,3.832103596858977,0.0,-8226.0,0.875,22.5,892.9133981466292,0.0,0.125,2.97851532,1.3667553301811202,-0.0012207029999999897,0.05999999865889549,-1.399999976158142,9.229999542236328,0.00244140625,0.01300048828125,0.9888916015625,36.66999816894531,0.0,28.0,0.5782928466796875,-2.561614990234375,Waiting,0.0,0.0,-1026431.0,0.0,0.0,0.0,0.0,0.0,
2.271913,0.0,0.0,4250.0,1.0,-30.0,-942.519673705101,0.0,0.125,2.150878686,1.3595201790894282,0.0012207029999999897,-10497.0,2.625,-97.5,-942.519673705101,0.0,0.0,4.291991748,3.8500930411882384,-0.004882811999999959,7234.0,2.25,7.5,942.519673705101,0.0,0.0,2.105712675,3.8319663603846217,0.0,-8204.0,2.5,67.5,942.519673705101,0.0,0.125,2.962646181,1.3666176048066865,0.0,0.05999999865889549,-1.3899999856948853,9.239999771118164,-0.05859375,-0.51031494140625,1.02667236328125,36.619998931884766,0.0,-115.0,0.578338623046875,-2.56097412109375,Waiting,0.0,0.0,-1026431.0,0.0,0.0,0.0,0.0,0.0,
2.291819,0.0,0.0,4250.0,1.875,-75.0,-942.5196737051009,0.0,0.125,2.1630857160000003,1.3596571891974911,-0.0012207029999999897,-10526.0,4.875,-165.0,-942.5196737051009,0.0,0.0,4.289550342,3.8502309268441186,0.0,7243.0,3.75,30.0,942.5196737051009,0.0,0.0,2.105712675,3.832103596858977,0.0,-8204.0,2.5,67.5,942.5196737051009,0.0,0.125,2.974853211,1.3667553301811202,0.0012207029999999897,-0.1899999976158142,-1.3600000143051147,9.260000228881836,0.07086181640625,0.0606689453125,1.03668212890625,36.619998931884766,0.0,104.0,0.57830810546875,-2.561126708984375,Waiting,0.0,0.0,-1026431.0,0.0,0.0,0.0,0.0,0.125,
2.3121789999999995,0.0,0.0,4216.0,2.875,-142.5,-677.9527455568314,0.0,0.125,2.150878686,1.36020521656374,0.0,-10526.0,6.625,-210.0,-677.9527455568314,0.0,0.0,4.2907710450000005,3.8507824563181385,0.0,7243.0,5.0,52.5,677.9527455568314,0.0,0.0,2.104491972,3.8326525296688065,0.0,-8204.0,3.625,180.0,677.9527455568314,0.0,0.125,2.963866884,1.3673062185446405,0.0,-0.5400000214576721,-1.3300000429153442,9.279999732971191,-0.01678466796875,-0.278564453125,0.8768310546875,36.619998931884766,0.0,-40.0,0.5783538818359375,-2.5626678466796875,Waiting,0.0,0.0,-1026431.0,0.0,0.0,0.0,0.0,0.125,
2.3315210000000004,0.0,0.0,4216.0,3.375,-210.0,-479.5275494456291,0.0,0.125,2.150878686,1.36020521656374,-0.0012207029999999897,-10526.0,6.75,-225.0,-479.5275494456291,0.0,0.0,4.289550342,3.8507824563181385,0.0,7243.0,5.75,82.5,479.5275494456291,0.0,0.0,2.104491972,3.8326525296688065,0.0,-8204.0,3.375,217.5,479.5275494456291,0.0,0.125,2.965087587,1.3673062185446405,-0.009765623999999917,-0.699999988079071,-1.3700000047683716,9.289999961853027,-0.02850341796875,-0.137451171875,1.31231689453125,36.619998931884766,0.0,-16.0,0.5783233642578125,-2.5639801025390625,Waiting,0.0,0.0,-1026431.0,0.0,0.0,0.0,0.0,0.0,
2.350597,0.0,0.0,4216.0,3.125,-240.0,-396.8503922224045,0.0,0.125,2.150878686,1.3603422266718028,0.0,-10526.0,5.375,-217.5,-396.8503922224045,0.0,0.0,4.2883296390000005,3.8509203419740183,0.0,7243.0,5.0,112.5,396.8503922224045,0.0,0.0,2.104491972,3.832789766143162,0.0,-8204.0,3.375,217.5,396.8503922224045,0.0,0.125,2.965087587,1.3674439439190742,0.0,-0.8299999833106995,-1.3700000047683716,9.300000190734863,-0.07281494140625,-0.021484375,1.13677978515625,36.619998931884766,0.0,-45.0,0.5782470703125,-2.56536865234375,Waiting,0.0,0.0,-1026431.0,0.0,0.0,0.0,0.0,0.0,
2.371052,0.0,0.0,4216.0,2.375,-240.0,-396.8503922224044,0.0,0.125,2.150878686,1.3604792367798657,0.0,-10526.0,3.875,-187.5,-396.8503922224044,0.0,0.0,4.291991748,3.8510582276298986,0.0,7243.0,3.875,142.5,396.8503922224044,0.0,0.0,2.104491972,3.8329270026175166,0.0,-8204.0,2.5,225.0,396.8503922224044,0.0,0.125,2.963866884,1.367581669293508,-0.0012207029999999897,-0.800000011920929,-1.2899999618530273,9.289999961853027,0.02117919921875,-0.19366455078125,0.88739013671875,36.619998931884766,0.0,11.0,0.578155517578125,-2.56689453125,Waiting,0.0,0.0,-1026431.0,0.0,0.0,0.0,0.0,0.0,
2.391029,0.0,0.0,4216.0,1.375,-217.5,-380.31496703624725,0.0,0.125,2.152099389,1.3604792367798657,0.0012207029999999897,-10526.0,2.875,-165.0,-380.31496703624725,0.0,0.0,4.283446827000001,3.8510582276298986,0.0,7243.0,2.875,157.5,380.31496703624725,0.0,0.0,2.104491972,3.8329270026175166,-0.0012207030000004337,-8175.0,1.625,210.0,380.31496703624725,0.0,0.125,2.9589840720000002,1.367581669293508,0.0012207029999999897,-0.8899999856948853,-1.3799999952316284,9.300000190734863,-0.05133056640625,-0.166748046875,1.056884765625,36.619998931884766,0.0,-49.0,0.5778045654296875,-2.571990966796875,Waiting,0.0,0.0,-1026431.0,0.0,0.0,0.0,0.0,0.0,
2.4117630000000005,0.0,0.0,4216.0,0.75,-195.0,-363.77954185009,0.0,0.125,2.150878686,1.3604792367798657,0.0,-10557.0,2.625,-172.5,-363.77954185009,0.0,0.0,4.2883296390000005,3.8510582276298986,0.0,7273.0,2.125,172.5,363.77954185009,0.0,0.0,2.103271269,3.8329270026175166,0.0,-8175.0,1.25,187.5,363.77954185009,0.0,0.125,2.9589840720000002,1.367581669293508,0.0,-0.9399999976158142,-1.309999942779541,9.3100004196167,-0.03570556640625,-0.08526611328125,0.96514892578125,36.619998931884766,0.0,-24.0,0.5776214599609375,-2.573883056640625,Waiting,0.0,0.0,-1026431.0,0.0,0.0,0.0,0.0,0.0,
2.432028,0.0,0.0,4180.0,0.75,-187.5,-363.77954185009,0.0,0.125,2.150878686,1.3606162468879288,0.0,-10557.0,2.625,-172.5,-363.77954185009,0.0,0.0,4.289550342,3.8511961132857784,0.0,7273.0,1.875,187.5,363.77954185009,0.0,0.0,2.104491972,3.833064239091872,0.0,-8175.0,1.25,187.5,363.77954185009,0.0,0.125,2.9589840720000002,1.3677193946679418,-0.0012207029999999897,-0.9399999976158142,-1.309999942779541,9.3100004196167,-0.03570556640625,-0.08526611328125,0.96514892578125,36.619998931884766,0.0,-24.0,0.5776214599609375,-2.573883056640625,Waiting,0.0,0.0,-1026431.0,0.0,0.0,0.0,0.0,0.0,
2.4506650000000003,0.0,0.0,4180.0,0.75,-210.0,-363.77954185009,0.0,0.125,2.152099389,1.3608902540380516,0.0,-10557.0,2.5,-210.0,-363.77954185009,0.0,0.0,4.2907710450000005,3.8514718714480383,0.0,7273.0,1.875,187.5,363.77954185009,0.0,0.0,2.105712675,3.8333386989529914,0.0,-8175.0,1.25,210.0,363.77954185009,0.0,0.125,2.9589840720000002,1.3679948322825946,-0.0012207029999999897,-1.0099999904632568,-1.3300000429153442,9.380000114440918,-0.01348876953125,-0.0223388671875,0.99615478515625,36.619998931884766,0.0,8.0,0.5774078369140625,-2.5799102783203125,Waiting,0.0,0.0,-1026431.0,0.0,0.0,0.0,0.0,0.0,
2.4717100000000003,0.0,0.0,4180.0,0.75,-240.0,-363.7795418500901,0.0,0.125,2.139892359,1.3615752915123633,0.0,-10557.0,2.375,-240.0,-363.7795418500901,0.0,0.0,4.2858882330000005,3.8521612865779384,0.0,7273.0,1.875,187.5,363.7795418500901,0.0,0.0,2.105712675,3.8340248682371763,0.0,-8175.0,1.375,232.5,363.7795418500901,0.0,0.125,2.9589840720000002,1.3686834460205486,0.0012207029999999897,-1.0199999809265137,-1.3200000524520874,9.399999618530273,-0.01812744140625,-0.0594482421875,0.9588623046875,36.619998931884766,0.0,-2.0,0.5774078369140625,-2.5819854736328125,Waiting,0.0,0.0,-1026431.0,0.0,0.0,0.0,0.0,0.0,
2.4906330000000003,0.0,0.0,4180.0,0.625,-255.0,-363.77954185009,0.0,0.125,2.150878686,1.3618492986624862,0.0,-10557.0,2.125,-255.0,-363.77954185009,0.0,0.0,4.289550342,3.8524370447401983,0.0,7273.0,1.875,187.5,363.77954185009,0.0,0.0,2.104491972,3.8342993280982958,0.0,-8175.0,1.5,240.0,363.77954185009,0.0,0.125,2.9589840720000002,1.3689588836352016,-0.0012207029999999897,-1.0,-1.2999999523162842,9.399999618530273,-0.03515625,-0.0543212890625,1.06988525390625,36.619998931884766,0.0,-16.0,0.5774078369140625,-2.5841217041015625,Waiting,0.0,0.0,-1026431.0,0.0,0.0,0.0,0.0,0.0,
2.508468,0.0,0.0,4180.0,0.625,-262.5,-363.77954185009,0.0,0.125,2.153320092,1.3618492986624862,0.0,-10557.0,2.0,-270.0,-363.77954185009,0.0,0.0,4.2907710450000005,3.8524370447401983,0.0,7273.0,2.0,180.0,363.77954185009,0.0,0.0,2.105712675,3.8342993280982958,0.0,-8135.0,1.5,247.5,363.77954185009,0.0,0.125,2.9565426660000003,1.3689588836352016,0.0,-1.0099999904632568,-1.2999999523162842,9.399999618530273,-0.00213623046875,-0.01995849609375,1.02752685546875,36.619998931884766,0.0,20.0,0.577423095703125,-2.586273193359375,Waiting,0.0,0.0,-1026431.0,0.0,0.0,0.0,0.0,0.0,
2.5295620000000003,0.0,0.0,4180.0,0.625,-277.5,-363.77954185009,0.0,0.125,2.16064431,1.3618492986624862,0.0,-10604.0,1.875,-285.0,-363.77954185009,0.0,0.0,4.2907710450000005,3.8524370447401983,-0.0012207029999995456,7301.0,2.125,172.5,363.77954185009,0.0,0.0,2.104491972,3.8342993280982958,0.0,-8135.0,1.5,247.5,363.77954185009,0.0,0.125,2.9589840720000002,1.3689588836352016,0.0012207029999999897,-1.0299999713897705,-1.2999999523162842,9.399999618530273,-0.037841796875,-0.0194091796875,0.9659423828125,36.619998931884766,0.0,-15.0,0.577423095703125,-2.586273193359375,Waiting,0.0,0.0,-1026431.0,0.0,0.0,0.0,0.0,0.0,
2.5481979999999997,0.0,0.0,4180.0,0.625,-285.0,-363.77954185009,0.0,0.125,2.150878686,1.361986308770549,0.0,-10604.0,1.875,-292.5,-363.77954185009,0.0,0.0,4.289550342,3.8525749303960786,0.0012207029999995456,7301.0,2.125,172.5,363.77954185009,0.0,0.0,2.104491972,3.8344365645726506,0.0,-8135.0,1.25,247.5,363.77954185009,0.0,0.125,2.9602047750000002,1.3690966090096353,0.0,-1.0199999809265137,-1.340000033378601,9.420000076293945,-0.04241943359375,-0.04931640625,1.046875,36.619998931884766,0.0,-22.0,0.5773162841796875,-2.5862884521484375,Waiting,0.0,0.0,-1026431.0,0.0,0.0,0.0,0.0,0.0,
