Time,ClimberA1,ClimberA2,FRpos,FRCurrent,FRspeed,FRsetpoint,FRApos,FRACurrent,FREncpos,FREncSetpoint,FREncSpeed,FLpos,FLCurrent,FLspeed,FLsetpoint,FLApos,FLACurrent,FLEncpos,FLEncSetpoint,FLEncSpeed,BRpos,BRCurrent,BRspeed,BRsetpoint,BRApos,BRACurrent,BREncpos,BREncSetpoint,BREncSpeed,BLpos,BLCurrent,BLspeed,BLsetpoint,BLApos,BLACurrent,BLEncpos,BLEncSetpoint,BLEncSpeed,navx_Pitch,navx_Roll,navx_Yaw,navx_XAcc,navx_YAcc,navx_ZAcc,navx_Temp,navx_Bar,navx_Alt,navx_XDis,navx_YDis,GearPlacerState,ShootOutputV,ShootOutputCurrent,ShootEncPos,ShootEncVelocity,ShootSpeed,ShootSetpoint,CarouselSetpoint,CarouselCurrent,
0.17524699999997392,0.0,0.0,6593.0,0.0,0.0,0.0,0.0,0.125,0.826415931,0.01,0.0,-7603.0,0.0,75.0,-0.0,0.0,1.5,1.307372913,0.01,0.0,5952.0,0.0,0.0,0.0,0.0,0.0,3.253173495,0.01,0.0,-6230.0,0.0,0.0,-0.0,0.0,0.25,1.616210772,0.01,0.0,0.07000000029802322,-1.2999999523162842,0.03999999910593033,0.003662109375,0.01654052734375,1.0426025390625,36.0,0.0,27.0,-1.308258056640625,-0.38970947265625,Waiting,0.0,0.0,-141016.0,0.0,0.0,0.0,0.0,0.0,
0.2789699999999721,0.0,0.0,6593.0,0.0,0.0,0.0,0.0,0.125,0.826415931,0.01,0.0,-7589.0,0.0,75.0,-0.0,0.0,1.125,0.637206966,0.01,-1.094970591,5952.0,0.0,0.0,0.0,0.0,0.0,3.251952792,0.01,0.0,-6230.0,0.0,0.0,-0.0,0.0,0.125,1.616210772,0.01,0.0,0.07000000029802322,-1.2699999809265137,0.03999999910593033,-0.012451171875,-0.0277099609375,0.99267578125,35.970001220703125,0.0,9.0,-1.307708740234375,-0.389801025390625,Waiting,0.0,0.0,-141016.0,0.0,0.0,0.0,0.0,0.0,
0.3536199999999953,0.0,0.0,6593.0,0.0,0.0,0.0,0.0,0.125,0.826415931,0.01,0.0,-7582.0,0.0,37.5,-0.0,0.0,0.5,0.274658175,0.01,-0.629882748,5952.0,0.0,0.0,0.0,0.0,0.0,3.251952792,0.01,0.0,-6230.0,0.0,0.0,-0.0,0.0,0.125,1.616210772,0.01,0.0,0.07999999821186066,-1.309999942779541,0.009999999776482582,-0.0496826171875,0.0311279296875,1.02850341796875,35.970001220703125,0.0,-26.0,-1.30780029296875,-0.3898162841796875,Waiting,0.0,0.0,-141016.0,0.0,0.0,0.0,0.0,0.0,
0.43068099999998233,0.0,0.0,6593.0,0.0,0.0,0.0,0.0,0.125,0.826415931,0.01,0.0,-7582.0,0.0,30.0,-0.0,0.0,0.25,0.21728513400000002,0.01,-0.3552245730000001,5952.0,0.0,0.0,0.0,0.0,0.0,3.251952792,0.01,0.0,-6230.0,0.0,0.0,-0.0,0.0,0.125,1.614990069,0.01,0.0,0.07999999821186066,-1.3300000429153442,0.029999999329447746,-0.02264404296875,0.00146484375,1.0318603515625,35.970001220703125,0.0,1.0,-1.307891845703125,-0.3895721435546875,Waiting,0.0,0.0,-141016.0,0.0,0.0,0.0,0.0,0.0,
0.5051949999999488,0.0,0.0,6593.0,0.0,0.0,0.0,0.0,0.125,0.825195228,0.01,0.0,-7581.0,0.0,0.0,-0.0,0.0,0.25,0.312499968,0.01,-0.04272460500000008,5952.0,0.0,0.0,0.0,0.0,0.0,3.251952792,0.01,0.0012207030000004337,-6230.0,0.0,0.0,-0.0,0.0,0.125,1.614990069,0.01,0.0,0.07999999821186066,-1.3200000524520874,0.009999999776482582,-0.01910400390625,-0.00213623046875,1.0125732421875,35.970001220703125,0.0,4.0,-1.307891845703125,-0.3895721435546875,Waiting,0.0,0.0,-141016.0,0.0,0.0,0.0,0.0,0.0,
0.5759429999999702,0.0,0.0,6593.0,0.0,0.0,0.0,0.0,0.125,0.825195228,0.01,0.0,-7581.0,0.0,0.0,-0.0,0.0,0.25,0.327148404,0.01,0.0,5952.0,0.0,0.0,0.0,0.0,0.0,3.251952792,0.01,-0.0012207030000004337,-6230.0,0.0,0.0,-0.0,0.0,0.125,1.616210772,0.01,0.0,0.07999999821186066,-1.309999942779541,0.029999999329447746,-0.02178955078125,0.00372314453125,1.030517578125,35.970001220703125,0.0,1.0,-1.307891845703125,-0.3895721435546875,Waiting,0.0,0.0,-141016.0,0.0,0.0,0.0,0.0,0.0,
0.6505359999999637,0.0,0.0,6593.0,0.0,0.0,0.0,0.0,0.125,0.825195228,0.01,0.0,-7581.0,0.0,0.0,-0.0,0.0,0.25,0.37475582100000004,0.01,0.009765623999999917,5952.0,0.0,0.0,0.0,0.0,0.0,3.251952792,0.01,0.0012207030000004337,-6230.0,0.0,0.0,-0.0,0.0,0.125,1.614990069,0.01,0.0,0.07999999821186066,-1.3200000524520874,0.009999999776482582,-0.0233154296875,-3.662109375E-4,1.00933837890625,35.970001220703125,0.0,0.0,-1.307891845703125,-0.3895721435546875,Waiting,0.0,0.0,-141016.0,0.0,0.0,0.0,0.0,0.0,
0.7223169999999227,0.0,0.0,6593.0,0.0,0.0,0.0,0.0,0.125,0.826415931,0.01,0.0,-7581.0,0.0,0.0,-0.0,0.0,0.25,0.404052693,0.01,0.0,5952.0,0.0,0.0,0.0,0.0,0.0,3.251952792,0.01,0.0,-6230.0,0.0,0.0,-0.0,0.0,0.125,1.614990069,0.01,0.0,0.07999999821186066,-1.3200000524520874,0.019999999552965164,-0.02056884765625,0.00860595703125,1.02398681640625,35.970001220703125,0.0,3.0,-1.307891845703125,-0.3895721435546875,Waiting,0.0,0.0,-141016.0,0.0,0.0,0.0,0.0,0.0,
0.7953680000000167,0.0,0.0,6593.0,0.0,0.0,0.0,0.0,0.125,0.825195228,0.01,0.0,-7581.0,0.0,0.0,-0.0,0.0,0.25,0.410156208,0.01,0.024414059999999793,5952.0,0.0,0.0,0.0,0.0,0.0,3.251952792,0.01,-0.0012207030000004337,-6230.0,0.0,0.0,-0.0,0.0,0.125,1.616210772,0.01,0.0,0.07000000029802322,-1.3200000524520874,0.009999999776482582,-0.0238037109375,-0.00213623046875,1.0205078125,36.02000045776367,0.0,0.0,-1.307891845703125,-0.3895721435546875,Waiting,0.0,0.0,-141016.0,0.0,0.0,0.0,0.0,0.0,
0.8686219999999739,0.0,0.0,6593.0,0.0,0.0,0.0,0.0,0.125,0.825195228,0.01,0.0,-7581.0,0.0,0.0,-0.0,0.0,0.25,0.410156208,0.01,0.0,5952.0,0.0,0.0,0.0,0.0,0.0,3.253173495,0.01,0.0,-6230.0,0.0,0.0,-0.0,0.0,0.125,1.616210772,0.01,0.0,0.07999999821186066,-1.3200000524520874,0.009999999776482582,-0.02008056640625,0.0052490234375,1.0211181640625,36.02000045776367,0.0,3.0,-1.307891845703125,-0.3895721435546875,Waiting,0.0,0.0,-141016.0,0.0,0.0,0.0,0.0,0.0,
0.9482539999999572,0.0,0.0,6593.0,0.0,0.0,0.0,0.0,0.125,0.826415931,0.01,0.0,-7581.0,0.0,0.0,-0.0,0.0,0.25,0.410156208,0.01,0.0,5952.0,0.0,0.0,0.0,0.0,0.0,3.251952792,0.01,0.0,-6230.0,0.0,0.0,-0.0,0.0,0.125,1.614990069,0.01,0.0,0.07999999821186066,-1.3200000524520874,0.009999999776482582,-0.02349853515625,6.7138671875E-4,1.02655029296875,36.02000045776367,0.0,0.0,-1.307891845703125,-0.3895721435546875,Waiting,0.0,0.0,-141016.0,0.0,0.0,0.0,0.0,0.0,
1.0162550000000046,0.0,0.0,6593.0,0.0,0.0,0.0,0.0,0.125,0.8276366340000001,0.01,0.0,-7581.0,0.0,0.0,-0.0,0.0,0.25,0.410156208,0.01,0.0,5952.0,0.0,0.0,0.0,0.0,0.0,3.251952792,0.01,0.0,-6230.0,0.0,0.0,-0.0,0.0,0.125,1.616210772,0.01,0.0,0.07999999821186066,-1.309999942779541,0.009999999776482582,-0.0245361328125,0.001953125,1.02362060546875,36.02000045776367,0.0,0.0,-1.307891845703125,-0.3895721435546875,Waiting,0.0,0.0,-141016.0,0.0,0.0,0.0,0.0,0.0,
1.0936089999999385,0.0,0.0,6593.0,0.0,0.0,0.0,0.0,0.125,0.826415931,0.01,0.0,-7581.0,0.0,0.0,-0.0,0.0,0.25,0.410156208,0.01,0.0,5952.0,0.0,0.0,0.0,0.0,0.0,3.251952792,0.01,0.0012207030000004337,-6230.0,0.0,0.0,-0.0,0.0,0.125,1.616210772,0.01,0.0,0.07999999821186066,-1.309999942779541,0.009999999776482582,-0.023193359375,-4.8828125E-4,1.0211181640625,36.02000045776367,0.0,0.0,-1.307891845703125,-0.3895721435546875,Waiting,0.0,0.0,-141016.0,0.0,0.0,0.0,0.0,0.0,
1.167289999999921,0.0,0.0,6593.0,0.0,0.0,0.0,0.0,0.125,0.825195228,0.01,0.0,-7581.0,0.0,0.0,-0.0,0.0,0.25,0.40893550500000003,0.01,0.0,5952.0,0.0,0.0,0.0,0.0,0.0,3.251952792,0.01,0.0,-6230.0,0.0,0.0,-0.0,0.0,0.125,1.616210772,0.01,0.0,0.07999999821186066,-1.309999942779541,0.009999999776482582,-0.02105712890625,-0.001220703125,1.020263671875,36.02000045776367,0.0,2.0,-1.307891845703125,-0.3895721435546875,Waiting,0.0,0.0,-141016.0,0.0,0.0,0.0,0.0,0.0,
1.2436699999999254,0.0,0.0,6593.0,0.0,0.0,0.0,0.0,0.125,0.826415931,0.01,0.0,-7581.0,0.0,0.0,-0.0,0.0,0.25,0.410156208,0.01,0.0,5952.0,0.0,0.0,0.0,0.0,0.0,3.251952792,0.01,-0.0012207030000004337,-6230.0,0.0,0.0,-0.0,0.0,0.125,1.616210772,0.01,0.0,0.07999999821186066,-1.309999942779541,0.009999999776482582,-0.025390625,0.00213623046875,1.0220947265625,36.02000045776367,0.0,-1.0,-1.307891845703125,-0.3895721435546875,Waiting,0.0,0.0,-141016.0,0.0,0.0,0.0,0.0,0.0,
1.315393999999971,0.0,0.0,6593.0,0.0,0.0,0.0,0.0,0.125,0.826415931,0.01,0.0,-7581.0,0.0,0.0,-0.0,0.0,0.25,0.410156208,0.01,0.0,5952.0,0.0,0.0,0.0,0.0,0.0,3.251952792,0.01,0.0,-6230.0,0.0,0.0,-0.0,0.0,0.125,1.616210772,0.01,0.0,0.07999999821186066,-1.309999942779541,0.009999999776482582,-0.0224609375,0.0030517578125,1.01934814453125,35.9900016784668,0.0,0.0,-1.307891845703125,-0.3895721435546875,Waiting,0.0,0.0,-141016.0,0.0,0.0,0.0,0.0,0.0,
1.3925289999999804,0.0,0.0,6593.0,0.0,0.0,0.0,0.0,0.125,0.826415931,0.01,0.0,-7581.0,0.0,0.0,-0.0,0.0,0.25,0.410156208,0.01,0.0,5952.0,0.0,0.0,0.0,0.0,0.0,3.251952792,0.01,0.0012207030000004337,-6230.0,0.0,0.0,-0.0,0.0,0.125,1.614990069,0.01,0.0,0.07999999821186066,-1.309999942779541,0.009999999776482582,-0.0233154296875,0.001220703125,1.0181884765625,35.9900016784668,0.0,0.0,-1.307891845703125,-0.3895721435546875,Waiting,0.0,0.0,-141016.0,0.0,0.0,0.0,0.0,0.0,
1.4670540000000036,0.0,0.0,6593.0,0.0,0.0,0.0,0.0,0.125,0.825195228,0.01,0.0,-7581.0,0.0,0.0,-0.0,0.0,0.25,0.40893550500000003,0.01,0.0,5952.0,0.0,0.0,0.0,0.0,0.0,3.251952792,0.01,0.0,-6230.0,0.0,0.0,-0.0,0.0,0.125,1.614990069,0.01,0.0,0.07999999821186066,-1.309999942779541,0.009999999776482582,-0.02288818359375,0.00140380859375,1.0198974609375,35.9900016784668,0.0,0.0,-1.307891845703125,-0.3895721435546875,Waiting,0.0,0.0,-141016.0,0.0,0.0,0.0,0.0,0.0,
1.5444589999999152,0.0,0.0,6593.0,0.0,0.0,0.0,0.0,0.125,0.825195228,0.01,0.0,-7581.0,0.0,0.0,-0.0,0.0,0.25,0.410156208,0.01,0.0,5952.0,0.0,0.0,0.0,0.0,0.0,3.251952792,0.01,-0.0012207030000004337,-6230.0,0.0,0.0,-0.0,0.0,0.125,1.614990069,0.01,0.0,0.07999999821186066,-1.309999942779541,0.009999999776482582,-0.021728515625,0.00140380859375,1.0218505859375,35.9900016784668,0.0,1.0,-1.307891845703125,-0.3895721435546875,Waiting,0.0,0.0,-141016.0,0.0,0.0,0.0,0.0,0.0,
1.6202609999999404,0.0,0.0,6593.0,0.0,0.0,0.0,0.0,0.125,0.826415931,0.01,0.0,-7581.0,0.0,0.0,-0.0,0.0,0.25,0.40893550500000003,0.01,0.0,5952.0,0.0,0.0,0.0,0.0,0.0,3.250732089,0.01,0.0,-6230.0,0.0,0.0,-0.0,0.0,0.125,1.616210772,0.01,0.0,0.07999999821186066,-1.309999942779541,0.009999999776482582,-0.02239990234375,0.00360107421875,1.0244140625,35.9900016784668,0.0,1.0,-1.307891845703125,-0.3895721435546875,Waiting,0.0,0.0,-141016.0,0.0,0.0,0.0,0.0,0.0,
1.7015699999999487,0.0,0.0,6592.0,0.125,0.0,-248.03150296211243,0.0,1.375,0.887451081,0.5498168668524864,0.0,-7581.0,0.25,0.0,-248.03150296211243,0.0,1.75,0.404052693,4.41043958977222,0.0,5952.0,0.125,0.0,-248.03150296211243,0.0,1.875,3.1689449880000002,4.389674732977291,0.0,-6230.0,0.125,0.0,-248.03150296211243,0.0,2.125,1.697997873,0.552687206278561,0.0,0.07999999821186066,-1.309999942779541,0.009999999776482582,-0.03131103515625,-3.0517578125E-4,1.00787353515625,35.9900016784668,0.0,-8.0,-1.307891845703125,-0.3895721435546875,Waiting,0.0,0.0,-141016.0,0.0,0.0,0.0,0.0,0.0,
1.781576999999932,0.0,0.0,6591.0,0.0,-7.5,0.0,0.0,0.75,1.1645506620000001,0.5498168668524864,0.0,-7582.0,0.25,-15.0,0.0,0.0,0.5,0.124511706,4.41043958977222,0.0,5952.0,0.0,-7.5,0.0,0.0,0.5,2.862548535,4.389674732977291,0.0,-6235.0,0.0,-30.0,0.0,0.0,0.75,2.019042762,0.552687206278561,0.0,0.10000000149011612,-1.25,0.11999999731779099,0.01336669921875,-0.01519775390625,1.00201416015625,35.9900016784668,0.0,35.0,-1.30853271484375,-0.3888092041015625,Waiting,0.0,0.0,-141016.0,0.0,0.0,0.0,0.0,0.0,
1.856472999999998,0.0,0.0,6591.0,0.0,0.0,0.0,0.0,0.625,1.312255725,0.5498168668524864,0.2734374719999999,-7582.0,0.0,15.0,0.0,0.0,0.5,4.835204583,4.41043958977222,-0.28930661099999977,5952.0,0.0,37.5,0.0,0.0,0.375,2.6831051940000004,4.389674732977291,0.0,-6235.0,0.0,-22.5,0.0,0.0,0.75,2.191161885,0.552687206278561,0.0,0.14000000059604645,-1.2100000381469727,0.03999999910593033,-0.026611328125,-0.01397705078125,1.0224609375,35.9900016784668,0.0,-4.0,-1.3092498779296875,-0.3880767822265625,Waiting,0.0,0.0,-141016.0,0.0,0.0,0.0,0.0,0.0,
1.9357920000000157,0.0,0.0,6591.0,0.0,0.0,0.0,0.0,0.5,1.350097518,0.5498168668524864,0.130615221,-7582.0,0.0,0.0,0.0,0.0,0.125,4.722899907,4.41043958977222,4.705810065,5959.0,0.0,37.5,0.0,0.0,0.0,2.6318356680000004,4.389674732977291,-0.1818847469999998,-6239.0,0.0,-15.0,0.0,0.0,0.375,2.211913836,0.552687206278561,0.17578123199999984,0.10000000149011612,-1.3300000429153442,0.0,-0.052001953125,-0.01434326171875,1.01690673828125,35.9900016784668,0.0,-28.0,-1.31048583984375,-0.388153076171875,Waiting,0.0,0.0,-141016.0,0.0,0.0,0.0,0.0,0.0,
2.012548999999999,0.0,0.0,6591.0,0.0,0.0,0.0,0.0,0.125,1.3488768150000001,0.5498168668524864,0.0,-7582.0,0.0,0.0,0.0,0.0,0.25,4.766845215,4.41043958977222,0.0,5960.0,0.0,0.0,0.0,0.0,0.0,2.662353243,4.389674732977291,0.0,-6239.0,0.0,0.0,0.0,0.0,0.25,2.158202904,0.552687206278561,0.0,0.11999999731779099,-1.3200000524520874,0.03999999910593033,-0.00341796875,0.01239013671875,0.98919677734375,35.9900016784668,0.0,19.0,-1.31109619140625,-0.3882293701171875,Waiting,0.0,0.0,-141016.0,0.0,0.0,0.0,0.0,0.0,
2.108150999999954,0.0,0.0,6591.0,0.0,0.0,0.0,0.0,0.125,1.350097518,0.5498168668524864,0.0,-7582.0,0.0,0.0,0.0,0.0,0.25,4.824218256,4.41043958977222,0.04638671399999961,5960.0,0.0,0.0,0.0,0.0,0.0,2.6867673030000003,4.389674732977291,0.035400387000000144,-6239.0,0.0,0.0,0.0,0.0,0.125,2.1154782990000003,0.552687206278561,-0.05371093199999999,0.10000000149011612,-1.340000033378601,0.05000000074505806,-0.0413818359375,0.0042724609375,1.01788330078125,35.9900016784668,0.0,-17.0,-1.31109619140625,-0.3882293701171875,Waiting,0.0,0.0,-141016.0,0.0,0.0,0.0,0.0,0.0,
2.1880629999999655,0.0,0.0,6591.0,0.0,0.0,0.0,0.0,0.125,1.350097518,0.5498168668524864,0.0,-7582.0,0.0,0.0,0.0,0.0,0.125,4.844970207,4.41043958977222,0.05615233800000041,5960.0,0.0,0.0,0.0,0.0,0.0,2.6867673030000003,4.389674732977291,0.019531247999999835,-6239.0,0.0,0.0,0.0,0.0,0.25,2.098388457,0.552687206278561,-0.04394530799999963,0.10999999940395355,-1.3300000429153442,0.05999999865889549,-0.010498046875,0.0050048828125,1.0157470703125,35.9900016784668,0.0,13.0,-1.31109619140625,-0.3882293701171875,Waiting,0.0,0.0,-141016.0,0.0,0.0,0.0,0.0,0.0,
2.2674859999999173,0.0,0.0,6584.0,1.25,-22.5,-595.2756196260452,0.0,0.125,1.350097518,0.5498168668524864,0.0,-7591.0,1.875,-30.0,-595.2756196260452,0.0,0.0,4.848632316000001,4.41043958977222,0.0,5960.0,1.0,0.0,-595.2756196260452,0.0,0.0,2.6916501150000003,4.389674732977291,0.0,-6250.0,0.75,-52.5,-595.2756196260452,0.0,0.25,2.09960916,0.552687206278561,0.0,0.03999999910593033,-1.350000023841858,0.2199999988079071,0.10174560546875,0.031005859375,0.9000244140625,35.97999954223633,0.0,123.0,-1.310882568359375,-0.3884735107421875,Waiting,0.0,0.0,-141016.0,0.0,0.0,0.0,0.0,0.0,
2.350932999999961,0.0,0.0,6584.0,0.0,-75.0,0.0,0.0,0.125,1.350097518,0.5498168668524864,0.0,-7591.0,1.125,-97.5,0.0,0.0,0.0,4.8730463760000005,4.41043958977222,0.004882812000000847,5960.0,0.0,0.0,0.0,0.0,0.0,2.6916501150000003,4.389674732977291,0.004882811999999959,-6250.0,0.0,-195.0,0.0,0.0,0.25,2.135009547,0.552687206278561,0.0,0.07999999821186066,-1.309999942779541,1.2599999904632568,-0.0504150390625,-0.0595703125,1.1885986328125,35.97999954223633,0.0,-24.0,-1.30902099609375,-0.3888397216796875,Waiting,0.0,0.0,-141016.0,0.0,0.0,0.0,0.0,0.0,
2.4346899999999443,0.0,0.0,6579.0,0.0,-7.5,0.0,0.0,0.125,1.350097518,0.5498168668524864,-0.0012207029999999897,-7598.0,0.0,-15.0,0.0,0.0,0.25,4.8730463760000005,4.41043958977222,0.024414059999999793,5960.0,0.0,0.0,0.0,0.0,0.0,2.6928708180000003,4.389674732977291,0.0,-6269.0,0.0,0.0,0.0,0.0,0.125,2.149657983,0.552687206278561,0.031738278000000175,0.07999999821186066,-1.2999999523162842,1.5,-0.03277587890625,-0.00738525390625,0.97967529296875,35.97999954223633,0.0,-10.0,-1.307098388671875,-0.38885498046875,Waiting,0.0,0.0,-141016.0,0.0,0.0,0.0,0.0,0.0,
2.5119799999999812,0.0,0.0,6579.0,0.0,0.0,0.0,0.0,0.125,1.350097518,0.5498168668524864,0.0012207029999999897,-7598.0,0.0,0.0,0.0,0.0,0.25,4.869384267,4.41043958977222,0.0,5960.0,0.0,0.0,0.0,0.0,0.0,2.6916501150000003,4.389674732977291,0.0,-6269.0,0.0,0.0,0.0,0.0,0.125,2.14843728,0.552687206278561,0.0,0.05999999865889549,-1.3600000143051147,1.2100000381469727,-0.02288818359375,-0.0023193359375,1.0396728515625,35.97999954223633,0.0,1.0,-1.3059234619140625,-0.388946533203125,Waiting,0.0,0.0,-141016.0,0.0,0.0,0.0,0.0,0.0,
2.5914839999999386,0.0,0.0,6579.0,0.0,0.0,0.0,0.0,0.125,1.350097518,0.5498168668524864,0.0,-7598.0,0.0,0.0,0.0,0.0,0.125,4.864501455,4.41043958977222,-0.004882811999999959,5960.0,0.0,0.0,0.0,0.0,0.0,2.6916501150000003,4.389674732977291,0.0,-6269.0,0.0,0.0,0.0,0.0,0.125,2.14843728,0.552687206278561,0.0,0.09000000357627869,-1.2999999523162842,0.8299999833106995,0.0023193359375,-0.02777099609375,0.99658203125,35.97999954223633,0.0,24.0,-1.3057403564453125,-0.388885498046875,Waiting,0.0,0.0,-141016.0,0.0,0.0,0.0,0.0,0.0,
2.6681819999999132,0.0,0.0,6575.0,9.0,-52.5,-1603.9369940757751,0.0,0.125,1.351318221,0.5498168668524864,0.0,-7598.0,10.375,-37.5,-1603.9369940757751,0.0,0.125,4.8632807520000005,4.41043958977222,0.0,5960.0,12.125,0.0,-1603.9369940757751,0.0,0.0,2.6916501150000003,4.389674732977291,0.0,-6269.0,11.375,-67.5,-1603.9369940757751,0.0,0.125,2.210693133,0.552687206278561,0.0,0.03999999910593033,-1.2400000095367432,1.7999999523162842,-0.0013427734375,-0.14312744140625,0.891845703125,35.97999954223633,0.0,13.0,-1.3055267333984375,-0.388580322265625,Waiting,0.0,0.0,-141016.0,0.0,0.0,0.0,0.0,0.0,
2.7512330000000076,0.0,0.0,6528.0,1.375,-315.0,0.0,0.0,0.125,1.364745954,0.5498168668524864,0.009765623999999917,-7655.0,6.875,-360.0,0.0,0.0,0.125,4.8730463760000005,4.41043958977222,0.0,5943.0,5.625,-67.5,0.0,0.0,0.0,2.6916501150000003,4.389674732977291,0.0,-6315.0,0.0,-300.0,0.0,0.0,0.25,2.211913836,0.552687206278561,0.06713866500000032,0.019999999552965164,-1.440000057220459,5.099999904632568,-0.02398681640625,-0.00341796875,0.96014404296875,35.97999954223633,0.0,0.0,-1.306060791015625,-0.38873291015625,Waiting,0.0,0.0,-141016.0,0.0,0.0,0.0,0.0,0.0,
2.8321849999999396,0.0,0.0,6528.0,0.0,-262.5,0.0,0.0,0.125,1.359863142,0.5498168668524864,0.0,-7655.0,0.0,-292.5,0.0,0.0,0.25,4.8730463760000005,4.41043958977222,0.0,5943.0,0.0,-82.5,0.0,0.0,0.0,2.6867673030000003,4.389674732977291,0.0,-6315.0,0.0,-345.0,0.0,0.0,0.25,2.186279073,0.552687206278561,0.0,0.0,-1.3600000143051147,8.779999732971191,-0.13482666015625,-0.071044921875,1.28216552734375,36.0,0.0,-113.0,-1.3055419921875,-0.38873291015625,Waiting,0.0,0.0,-141016.0,0.0,0.0,0.0,0.0,0.0,
2.9099109999999637,0.0,0.0,6488.0,0.0,-247.5,0.0,0.0,0.125,1.358642439,0.5498168668524864,-0.0012207029999999897,-7698.0,0.0,-225.0,0.0,0.0,0.25,4.8730463760000005,4.41043958977222,0.0,5937.0,0.0,-45.0,0.0,0.0,0.0,2.6867673030000003,4.389674732977291,-0.003662108999999525,-6367.0,0.0,-262.5,0.0,0.0,0.25,2.1728513400000002,0.552687206278561,-0.024414059999999793,-0.07000000029802322,-1.5499999523162842,10.15999984741211,-0.04058837890625,-0.05487060546875,1.1041259765625,36.0,0.0,-19.0,-1.3072662353515625,-0.3893280029296875,Waiting,0.0,0.0,-141016.0,0.0,0.0,0.0,0.0,0.0,
2.9897399999999905,0.0,0.0,6481.0,0.0,-60.0,0.0,0.0,0.125,1.359863142,0.5498168668524864,0.0,-7704.0,0.0,-37.5,0.0,0.0,0.25,4.874267079,4.41043958977222,0.0,5935.0,0.0,-7.5,0.0,0.0,0.0,2.6867673030000003,4.389674732977291,-0.0012207030000004337,-6377.0,0.0,-52.5,0.0,0.0,0.25,2.1728513400000002,0.552687206278561,-0.013427732999999886,-0.07000000029802322,-1.399999976158142,9.970000267028809,-0.0745849609375,0.03857421875,1.04345703125,36.0,0.0,-41.0,-1.3088531494140625,-0.38983154296875,Waiting,0.0,0.0,-141016.0,0.0,0.0,0.0,0.0,0.0,
3.0675209999999495,0.0,0.0,6481.0,0.0,0.0,0.0,0.0,0.125,1.358642439,0.5498168668524864,0.0,-7704.0,0.0,0.0,0.0,0.0,0.25,4.858397940000001,4.41043958977222,0.0,5935.0,0.0,0.0,0.0,0.0,0.0,2.6879880060000003,4.389674732977291,0.0,-6377.0,0.0,0.0,0.0,0.0,0.25,2.1728513400000002,0.552687206278561,0.0,-0.019999999552965164,-1.4299999475479126,9.34000015258789,-0.0311279296875,-0.018310546875,1.12786865234375,36.0,0.0,-5.0,-1.31048583984375,-0.389373779296875,Waiting,0.0,0.0,-141016.0,0.0,0.0,0.0,0.0,0.0,
3.1486620000000114,0.0,0.0,6481.0,0.0,0.0,0.0,0.0,0.125,1.359863142,0.5498168668524864,0.0,-7704.0,0.0,0.0,0.0,0.0,0.125,4.858397940000001,4.41043958977222,-0.014648435999999876,5935.0,0.0,0.0,0.0,0.0,0.0,2.6867673030000003,4.389674732977291,-0.0012207030000004337,-6377.0,0.0,0.0,0.0,0.0,0.25,2.1716306370000003,0.552687206278561,0.0,-0.029999999329447746,-1.4299999475479126,9.130000114440918,-0.02288818359375,-6.103515625E-5,1.05145263671875,36.0,0.0,3.0,-1.3119049072265625,-0.389373779296875,Waiting,0.0,0.0,-141016.0,0.0,0.0,0.0,0.0,0.0,
3.2255599999999394,0.0,0.0,6448.0,9.125,-82.5,-1736.220520734787,0.0,0.125,1.359863142,0.5498168668524864,0.0,-7738.0,17.375,-135.0,-1736.220520734787,0.0,0.125,4.862060049,4.41043958977222,0.0,5930.0,9.875,-7.5,-1736.220520734787,0.0,0.0,2.6916501150000003,4.389674732977291,0.0,-6395.0,9.5,-60.0,-1736.220520734787,0.0,0.25,2.1716306370000003,0.552687206278561,0.0,-0.23999999463558197,-1.350000023841858,9.539999961853027,-0.1165771484375,0.38336181640625,0.8916015625,36.0,0.0,-29.0,-1.31396484375,-0.390411376953125,Waiting,0.0,0.0,-141016.0,0.0,0.0,0.0,0.0,0.0,
3.304326000000001,0.0,0.0,6448.0,2.125,-367.5,0.0,0.0,0.125,1.364745954,0.5498168668524864,0.0,-7738.0,9.625,-420.0,0.0,0.0,0.125,4.874267079,4.41043958977222,0.003662108999999525,5930.0,7.75,-120.0,0.0,0.0,0.0,2.6916501150000003,4.389674732977291,0.004882811999999959,-6395.0,0.75,-300.0,0.0,0.0,0.25,2.1716306370000003,0.552687206278561,0.0,-0.1899999976158142,-1.5399999618530273,13.630000114440918,0.181884765625,-0.01641845703125,0.62066650390625,36.0099983215332,0.0,189.0,-1.31787109375,-0.390411376953125,Waiting,0.0,0.0,-141016.0,0.0,0.0,0.0,0.0,0.0,
3.3744769999999553,0.0,0.0,6395.0,0.0,-285.0,0.0,0.0,0.125,1.364745954,0.5498168668524864,0.0,-7794.0,0.0,-292.5,0.0,0.0,0.25,4.874267079,4.41043958977222,0.0,5911.0,0.0,-105.0,0.0,0.0,0.0,2.6916501150000003,4.389674732977291,0.0,-6457.0,0.0,-390.0,0.0,0.0,0.25,2.1728513400000002,0.552687206278561,0.0,-0.1899999976158142,-1.2999999523162842,17.219999313354492,-0.18292236328125,0.09136962890625,1.2938232421875,36.0099983215332,0.0,-118.0,-1.31768798828125,-0.3904266357421875,Waiting,0.0,0.0,-141016.0,0.0,0.0,0.0,0.0,0.0,
3.4530749999999535,0.0,0.0,6395.0,0.0,-277.5,0.0,0.0,0.125,1.364745954,0.5498168668524864,0.0,-7794.0,0.0,-262.5,0.0,0.0,0.25,4.8730463760000005,4.41043958977222,0.0,5906.0,0.0,-45.0,0.0,0.0,0.0,2.6867673030000003,4.389674732977291,-0.0012207029999995456,-6489.0,0.0,-315.0,0.0,0.0,0.25,2.1716306370000003,0.552687206278561,0.0,-0.20999999344348907,-1.6299999952316284,18.75,0.00750732421875,-0.0943603515625,1.1361083984375,36.0099983215332,0.0,8.0,-1.317626953125,-0.3887786865234375,Waiting,0.0,0.0,-141016.0,0.0,0.0,0.0,0.0,0.0,
3.5308809999999355,0.0,0.0,6371.0,0.0,-75.0,0.0,0.0,0.125,1.364745954,0.5498168668524864,0.0,-7825.0,0.0,-97.5,0.0,0.0,0.25,4.874267079,4.41043958977222,0.0,5906.0,0.0,0.0,0.0,0.0,0.0,2.6916501150000003,4.389674732977291,0.0,-6489.0,0.0,-37.5,0.0,0.0,0.25,2.1716306370000003,0.552687206278561,0.0,-0.25,-1.3700000047683716,18.729999542236328,-0.0430908203125,0.02801513671875,1.08697509765625,36.0099983215332,0.0,-5.0,-1.316925048828125,-0.3880615234375,Waiting,0.0,0.0,-141016.0,0.0,0.0,0.0,0.0,0.0,
3.604353000000003,0.0,0.0,6364.0,0.0,-45.0,0.0,0.0,0.125,1.364745954,0.5498168668524864,-0.0012207029999999897,-7826.0,0.0,0.0,0.0,0.0,0.25,4.8730463760000005,4.41043958977222,0.0,5906.0,0.0,0.0,0.0,0.0,0.0,2.6867673030000003,4.389674732977291,-0.0024414059999999793,-6490.0,0.0,0.0,0.0,0.0,0.25,2.1716306370000003,0.552687206278561,0.0,-0.17000000178813934,-1.440000057220459,18.15999984741211,-0.0509033203125,-0.00665283203125,0.97088623046875,36.0099983215332,0.0,-26.0,-1.317230224609375,-0.3873291015625,Waiting,0.0,0.0,-141016.0,0.0,0.0,0.0,0.0,0.0,
3.6739769999999554,0.0,0.0,6364.0,0.0,0.0,0.0,0.0,0.125,1.364745954,0.5498168668524864,0.0,-7826.0,0.0,0.0,0.0,0.0,0.25,4.859618643,4.41043958977222,0.0,5906.0,0.0,0.0,0.0,0.0,0.0,2.6867673030000003,4.389674732977291,0.0,-6490.0,0.0,0.0,0.0,0.0,0.25,2.1728513400000002,0.552687206278561,0.0,-0.1599999964237213,-1.4900000095367432,17.790000915527344,0.0,-0.0089111328125,1.0430908203125,36.0099983215332,0.0,24.0,-1.31756591796875,-0.387237548828125,Waiting,0.0,0.0,-141016.0,0.0,0.0,0.0,0.0,0.0,
3.7512089999999154,0.0,0.0,6364.0,0.0,0.0,0.0,0.0,0.125,1.359863142,0.5498168668524864,0.0,-7826.0,0.0,0.0,0.0,0.0,0.125,4.859618643,4.41043958977222,-0.014648435999999876,5906.0,0.0,0.0,0.0,0.0,0.0,2.6867673030000003,4.389674732977291,-0.0012207030000004337,-6490.0,0.0,0.0,0.0,0.0,0.25,2.1716306370000003,0.552687206278561,0.0,-0.17000000178813934,-1.3899999856948853,17.670000076293945,-0.00408935546875,-0.01812744140625,1.03289794921875,36.0099983215332,0.0,15.0,-1.3169708251953125,-0.3873291015625,Waiting,0.0,0.0,-141016.0,0.0,0.0,0.0,0.0,0.0,
3.824767999999924,0.0,0.0,6364.0,0.0,0.0,0.0,0.0,0.125,1.364745954,0.5498168668524864,0.0,-7826.0,0.0,0.0,0.0,0.0,0.125,4.859618643,4.41043958977222,0.0,5906.0,0.0,0.0,0.0,0.0,0.0,2.6867673030000003,4.389674732977291,0.0,-6490.0,0.0,0.0,0.0,0.0,0.25,2.1716306370000003,0.552687206278561,0.0,-0.1599999964237213,-1.4299999475479126,17.719999313354492,-0.04449462890625,0.014892578125,1.02191162109375,36.029998779296875,0.0,-12.0,-1.3170928955078125,-0.3873748779296875,Waiting,0.0,0.0,-141016.0,0.0,0.0,0.0,0.0,0.0,
3.9010109999999405,0.0,0.0,6364.0,0.0,0.0,0.0,0.0,0.125,1.363525251,0.5498168668524864,0.0,-7826.0,0.0,0.0,0.0,0.0,0.125,4.858397940000001,4.41043958977222,0.0,5906.0,0.0,0.0,0.0,0.0,0.0,2.6867673030000003,4.389674732977291,0.0024414059999999793,-6490.0,0.0,0.0,0.0,0.0,0.25,2.1716306370000003,0.552687206278561,-0.0012207029999999897,-0.14000000059604645,-1.440000057220459,17.780000686645508,-0.006103515625,-0.0155029296875,1.017578125,36.029998779296875,0.0,14.0,-1.3170928955078125,-0.3872528076171875,Waiting,0.0,0.0,-141016.0,0.0,0.0,0.0,0.0,0.0,
3.977560999999987,0.0,0.0,6366.0,0.125,7.5,410.15625,0.0,2.0,1.229247921,0.01,0.0,-7827.0,0.5,-30.0,-410.15625,0.0,2.625,0.013427733,0.01,0.0,5906.0,0.5,0.0,410.15625,0.0,2.125,2.872314159,0.01,0.0,-6490.0,0.375,-7.5,-410.15625,0.0,2.625,1.937255661,0.01,0.0,-0.17000000178813934,-1.3899999856948853,17.739999771118164,0.003662109375,-0.01898193359375,1.0224609375,36.029998779296875,0.0,22.0,-1.3171234130859375,-0.3874053955078125,Waiting,0.0,0.0,-141016.0,0.0,0.0,0.0,0.0,0.0,
4.053945999999996,0.0,0.0,6366.0,6.75,172.5,1410.9375,0.0,0.5,0.96435537,0.01,0.0,-7827.0,11.25,-157.5,-1410.9375,0.0,0.5,0.288085908,0.01,0.0,5906.0,8.25,0.0,1410.9375,0.0,0.75,3.140868819,0.01,0.0,-6510.0,6.125,-60.0,-1410.9375,0.0,0.625,1.702880685,0.01,0.0,-0.17000000178813934,-0.8600000143051147,17.860000610351562,0.1531982421875,-0.164794921875,1.28131103515625,36.029998779296875,0.0,114.0,-1.315216064453125,-0.3885955810546875,Waiting,0.0,0.0,-141016.0,0.0,0.0,0.0,0.0,0.0,
4.131833999999915,0.0,0.0,6401.0,3.5,202.5,0.0,0.0,0.25,0.836181555,0.01,0.0,-7869.0,4.375,-270.0,0.0,0.0,0.25,0.44799800100000003,0.01,0.0,5907.0,2.5,-7.5,0.0,0.0,0.5,3.242187168,0.01,0.0,-6510.0,2.625,-157.5,0.0,0.0,0.25,1.6101072570000001,0.01,0.0,-0.09000000357627869,-0.49000000953674316,18.219999313354492,0.13165283203125,-0.0250244140625,0.97515869140625,36.029998779296875,0.0,125.0,-1.30615234375,-0.39215087890625,Waiting,0.0,0.0,-141016.0,0.0,0.0,0.0,0.0,0.0,
4.206698999999906,0.0,0.0,6412.0,0.0,37.5,0.0,0.0,0.125,0.8020018710000001,0.01,-0.11108397300000006,-7882.0,0.0,-90.0,0.0,0.0,0.0,0.48095698200000003,0.01,0.1452636570000001,5905.0,0.0,0.0,0.0,0.0,0.125,3.276366852,0.01,0.09643553699999963,-6521.0,0.0,-52.5,0.0,0.0,0.125,1.590576009,0.01,-0.08178710099999997,-0.17000000178813934,-0.9200000166893005,18.100000381469727,-0.14776611328125,-0.0972900390625,0.78759765625,36.029998779296875,0.0,-74.0,-1.2971343994140625,-0.3964691162109375,Waiting,0.0,0.0,-141016.0,0.0,0.0,0.0,0.0,0.0,
4.2762330000000075,0.0,0.0,6412.0,0.0,142.5,0.0,0.0,0.125,0.8032225740000001,0.01,0.0,-7882.0,0.0,-82.5,0.0,0.0,0.25,0.48095698200000003,0.01,0.0,5905.0,0.0,120.0,0.0,0.0,0.125,3.287353179,0.01,0.0,-6521.0,0.0,-90.0,0.0,0.0,0.125,1.5869139,0.01,0.0,-0.07000000029802322,-1.340000033378601,17.940000534057617,-0.14422607421875,0.001708984375,0.91033935546875,36.029998779296875,0.0,-116.0,-1.294158935546875,-0.3981170654296875,Waiting,0.0,0.0,-141016.0,0.0,0.0,0.0,0.0,0.0,
4.352980999999913,0.0,0.0,6425.0,0.0,45.0,0.0,0.0,0.125,0.8032225740000001,0.01,0.0,-7896.0,0.0,-60.0,0.0,0.0,0.25,0.48095698200000003,0.01,0.0,5920.0,0.0,30.0,0.0,0.0,0.125,3.286132476,0.01,0.009765623999999917,-6535.0,0.0,-37.5,0.0,0.0,0.25,1.585693197,0.01,-0.0024414059999999793,-0.10000000149011612,-1.559999942779541,18.010000228881836,-0.058837890625,0.02825927734375,0.98321533203125,35.9900016784668,0.0,-21.0,-1.294189453125,-0.3981475830078125,Waiting,0.0,0.0,-141016.0,0.0,0.0,0.0,0.0,0.0,
4.433066999999923,0.0,0.0,6425.0,0.0,0.0,0.0,0.0,0.125,0.8020018710000001,0.01,0.0,-7896.0,0.0,0.0,0.0,0.0,0.25,0.482177685,0.01,0.0,5920.0,0.0,0.0,0.0,0.0,0.125,3.284911773,0.01,0.0,-6535.0,0.0,0.0,0.0,0.0,0.25,1.5869139,0.01,0.0,-0.09000000357627869,-1.559999942779541,18.030000686645508,-0.00616455078125,-0.0250244140625,1.00518798828125,35.9900016784668,0.0,13.0,-1.294464111328125,-0.39752197265625,Waiting,0.0,0.0,-141016.0,0.0,0.0,0.0,0.0,0.0,
4.507180999999982,0.0,0.0,6425.0,0.0,0.0,0.0,0.0,0.125,0.8032225740000001,0.01,0.0,-7896.0,0.0,0.0,0.0,0.0,0.25,0.482177685,0.01,0.0,5920.0,0.0,0.0,0.0,0.0,0.125,3.284911773,0.01,0.0,-6535.0,0.0,0.0,0.0,0.0,0.25,1.5869139,0.01,0.0,-0.05999999865889549,-1.4800000190734863,18.030000686645508,0.00390625,0.0076904296875,0.98760986328125,35.9900016784668,0.0,30.0,-1.2940521240234375,-0.3974456787109375,Waiting,0.0,0.0,-141016.0,0.0,0.0,0.0,0.0,0.0,
4.57569299999997,0.0,0.0,6426.0,0.375,7.5,328.125,0.0,0.125,0.8020018710000001,0.01,0.0,-7897.0,0.25,-7.5,-328.125,0.0,0.25,0.48095698200000003,0.01,0.0,5920.0,0.375,0.0,328.125,0.0,0.125,3.284911773,0.01,0.0,-6535.0,0.375,0.0,-328.125,0.0,0.25,1.5869139,0.01,0.0,-0.10000000149011612,-1.399999976158142,18.040000915527344,0.00274658203125,0.00579833984375,1.0545654296875,35.9900016784668,0.0,29.0,-1.292633056640625,-0.39776611328125,Waiting,0.0,0.0,-141016.0,0.0,0.0,0.0,0.0,0.0,
4.6519059999999595,0.0,0.0,6426.0,0.0,37.5,0.0,0.0,0.125,0.8020018710000001,0.01,0.0,-7897.0,0.0,-105.0,0.0,0.0,0.25,0.48095698200000003,0.01,0.0,5920.0,0.0,37.5,0.0,0.0,0.125,3.284911773,0.01,0.0,-6536.0,0.0,0.0,0.0,0.0,0.25,1.585693197,0.01,0.0,-0.05999999865889549,-1.340000033378601,18.030000686645508,-0.0159912109375,-2.44140625E-4,0.96234130859375,35.9900016784668,0.0,6.0,-1.2907867431640625,-0.3977813720703125,Waiting,0.0,0.0,-141016.0,0.0,0.0,0.0,0.0,0.0,
4.725843999999925,0.0,0.0,6431.0,0.0,7.5,0.0,0.0,0.125,0.8032225740000001,0.01,0.0,-7911.0,0.0,-30.0,0.0,0.0,0.25,0.482177685,0.01,0.0,5926.0,0.0,22.5,0.0,0.0,0.125,3.284911773,0.01,0.0,-6536.0,0.0,0.0,0.0,0.0,0.25,1.5869139,0.01,0.0,-0.05000000074505806,-1.3799999952316284,18.020000457763672,-0.0379638671875,-0.0107421875,0.98577880859375,35.9900016784668,0.0,-16.0,-1.29034423828125,-0.3976287841796875,Waiting,0.0,0.0,-141016.0,0.0,0.0,0.0,0.0,0.0,
4.79891399999999,0.0,0.0,6431.0,0.0,0.0,0.0,0.0,0.125,0.8032225740000001,0.01,0.0,-7911.0,0.0,0.0,0.0,0.0,0.25,0.48095698200000003,0.01,0.0,5926.0,0.0,0.0,0.0,0.0,0.125,3.284911773,0.01,0.0,-6536.0,0.0,0.0,0.0,0.0,0.25,1.5869139,0.01,0.0,-0.03999999910593033,-1.440000057220459,18.020000457763672,-0.023681640625,0.00732421875,1.0211181640625,35.9900016784668,0.0,4.0,-1.2906646728515625,-0.3976287841796875,Waiting,0.0,0.0,-141016.0,0.0,0.0,0.0,0.0,0.0,
4.872456000000006,0.0,0.0,6431.0,9.75,75.0,1919.53125,0.0,0.125,0.773925702,0.01,0.0,-7911.0,16.625,-75.0,-1919.53125,0.0,0.25,0.482177685,0.01,0.0,5926.0,11.375,0.0,1919.53125,0.0,0.125,3.2714840400000003,0.01,0.0,-6536.0,13.625,-127.5,-1919.53125,0.0,0.25,1.591796712,0.01,0.0,-0.2800000011920929,-0.800000011920929,18.059999465942383,0.28717041015625,-0.315185546875,1.10089111328125,36.02000045776367,0.0,191.0,-1.2898101806640625,-0.3985748291015625,Waiting,0.0,0.0,-141016.0,0.0,0.0,0.0,0.0,0.0,
4.95179999999993,0.0,0.0,6477.0,11.75,315.0,607.03125,0.0,0.25,0.7763671080000001,0.01,0.0,-8004.0,6.25,-712.5,-607.03125,0.0,0.25,0.531005805,0.01,0.0,5932.0,11.375,52.5,607.03125,0.0,0.0,3.2751461490000002,0.01,0.0,-6577.0,9.875,-352.5,-607.03125,0.0,0.125,1.585693197,0.01,0.0,-0.05999999865889549,0.0,17.959999084472656,0.0987548828125,0.12799072265625,1.1956787109375,36.02000045776367,0.0,133.0,-1.2808990478515625,-0.4061737060546875,Waiting,0.0,0.0,-141016.0,0.0,0.0,0.0,0.0,0.0,
5.028332999999984,0.0,0.0,6531.0,0.25,397.5,0.0,0.0,0.25,0.783691326,0.01,0.0,-8055.0,0.0,-420.0,0.0,0.0,0.25,0.539550726,0.01,0.0,5938.0,0.625,37.5,0.0,0.0,0.0,3.291015288,0.01,0.0,-6626.0,0.25,-330.0,0.0,0.0,0.25,1.5869139,0.01,0.0,0.0,0.14000000059604645,17.68000030517578,-0.0687255859375,0.0235595703125,0.95672607421875,36.02000045776367,0.0,-60.0,-1.268463134765625,-0.41424560546875,Waiting,0.0,0.0,-141016.0,0.0,0.0,0.0,0.0,0.0,
5.100297999999952,0.0,0.0,6531.0,0.0,292.5,0.0,0.0,0.25,0.798339762,0.01,0.009765623999999917,-8055.0,0.0,-255.0,0.0,0.0,0.25,0.5407714290000001,0.01,0.009765623999999917,5938.0,0.0,22.5,0.0,0.0,0.125,3.294677397,0.01,0.015869138999999866,-6626.0,0.0,-270.0,0.0,0.0,0.25,1.585693197,0.01,0.0,0.0,-0.33000001311302185,17.489999771118164,-0.1090087890625,-0.025390625,1.0257568359375,36.02000045776367,0.0,-105.0,-1.2608184814453125,-0.4223480224609375,Waiting,0.0,0.0,-141016.0,0.0,0.0,0.0,0.0,0.0,
5.170376999999979,0.0,0.0,6585.0,0.0,360.0,0.0,0.0,0.125,0.798339762,0.01,0.009765623999999917,-8104.0,0.0,-330.0,0.0,0.0,0.25,0.510253854,0.01,0.0,5970.0,0.0,195.0,0.0,0.0,0.125,3.2958981,0.01,0.004882811999999959,-6679.0,0.0,-322.5,0.0,0.0,0.25,1.585693197,0.01,0.0,-0.07000000029802322,-0.7300000190734863,17.31999969482422,-0.19415283203125,0.02972412109375,1.0740966796875,36.02000045776367,0.0,-162.0,-1.2577362060546875,-0.4299163818359375,Waiting,0.0,0.0,-141016.0,0.0,0.0,0.0,0.0,0.0,
5.246765000000014,0.0,0.0,6585.0,0.0,292.5,0.0,0.0,0.125,0.798339762,0.01,0.0,-8104.0,0.0,-225.0,0.0,0.0,0.25,0.468749952,0.01,-0.03417968399999971,5970.0,0.0,225.0,0.0,0.0,0.125,3.2958981,0.01,0.0,-6679.0,0.0,-240.0,0.0,0.0,0.25,1.585693197,0.01,0.0,-0.019999999552965164,-0.9900000095367432,17.190000534057617,-0.08453369140625,0.00189208984375,0.84515380859375,36.02000045776367,0.0,-66.0,-1.257598876953125,-0.43560791015625,Waiting,0.0,0.0,-141016.0,0.0,0.0,0.0,0.0,0.0,
5.313685999999987,0.0,0.0,6625.0,0.0,210.0,0.0,0.0,0.125,0.797119059,0.01,0.0,-8138.0,0.0,-187.5,0.0,0.0,0.125,0.457763625,0.01,-0.03906249599999967,5995.0,0.0,120.0,0.0,0.0,0.125,3.294677397,0.01,0.0,-6713.0,0.0,-195.0,0.0,0.0,0.25,1.585693197,0.01,0.0,-0.05999999865889549,-1.2000000476837158,17.190000534057617,-0.0850830078125,0.0125732421875,0.94189453125,36.02000045776367,0.0,-58.0,-1.2593536376953125,-0.43658447265625,Waiting,0.0,0.0,-141016.0,0.0,0.0,0.0,0.0,0.0,
5.391589999999967,0.0,0.0,6641.0,0.0,127.5,0.0,0.0,0.125,0.798339762,0.01,0.0,-8156.0,0.0,-120.0,0.0,0.0,0.125,0.457763625,0.01,0.0,5998.0,0.0,22.5,0.0,0.0,0.125,3.2958981,0.01,0.0,-6732.0,0.0,-120.0,0.0,0.0,0.25,1.585693197,0.01,0.0,-0.009999999776482582,-1.5700000524520874,17.170000076293945,-0.14227294921875,0.010986328125,1.048095703125,35.9900016784668,0.0,-104.0,-1.26513671875,-0.4352874755859375,Waiting,0.0,0.0,-141016.0,0.0,0.0,0.0,0.0,0.0,
5.469431999999913,0.0,0.0,6641.0,0.0,37.5,0.0,0.0,0.125,0.798339762,0.01,0.0,-8156.0,0.0,-30.0,0.0,0.0,0.125,0.457763625,0.01,0.0,5998.0,0.0,0.0,0.0,0.0,0.125,3.294677397,0.01,0.0,-6732.0,0.0,-37.5,0.0,0.0,0.25,1.590576009,0.01,0.0,-0.019999999552965164,-1.7999999523162842,17.190000534057617,-0.0478515625,0.008056640625,1.02288818359375,35.9900016784668,0.0,-12.0,-1.2729644775390625,-0.4344024658203125,Waiting,0.0,0.0,-141016.0,0.0,0.0,0.0,0.0,0.0,
5.547179999999935,0.0,0.0,6641.0,0.0,0.0,0.0,0.0,0.125,0.798339762,0.01,0.0,-8156.0,0.0,0.0,0.0,0.0,0.125,0.457763625,0.01,0.0,5998.0,0.0,0.0,0.0,0.0,0.125,3.2958981,0.01,0.0,-6733.0,0.0,0.0,0.0,0.0,0.25,1.5869139,0.01,0.0,-0.009999999776482582,-1.7699999809265137,17.170000076293945,9.1552734375E-4,-0.00543212890625,1.024169921875,35.9900016784668,0.0,29.0,-1.2745513916015625,-0.4343414306640625,Waiting,0.0,0.0,-141016.0,0.0,0.0,0.0,0.0,0.0,
5.615921999999904,0.0,0.0,6641.0,0.0,0.0,0.0,0.0,0.125,0.798339762,0.01,0.0,-8156.0,0.0,0.0,0.0,0.0,0.125,0.457763625,0.01,0.0,5998.0,0.0,0.0,0.0,0.0,0.125,3.294677397,0.01,0.0,-6733.0,0.0,0.0,0.0,0.0,0.25,1.5869139,0.01,0.0,-0.009999999776482582,-1.659999966621399,17.190000534057617,0.00689697265625,0.00738525390625,1.01153564453125,35.9900016784668,0.0,36.0,-1.2735443115234375,-0.4343414306640625,Waiting,0.0,0.0,-141016.0,0.0,0.0,0.0,0.0,0.0,
5.694128999999958,0.0,0.0,6641.0,0.0,0.0,0.0,0.0,0.125,0.798339762,0.01,0.0,-8156.0,0.0,0.0,0.0,0.0,0.125,0.45532221900000003,0.01,0.0,5998.0,0.0,0.0,0.0,0.0,0.125,3.2958981,0.01,0.0,-6733.0,0.0,0.0,0.0,0.0,0.25,1.585693197,0.01,0.0,0.0,-1.5700000524520874,17.18000030517578,-4.2724609375E-4,-0.0023193359375,1.005126953125,35.9900016784668,0.0,25.0,-1.27191162109375,-0.4343414306640625,Waiting,0.0,0.0,-141016.0,0.0,0.0,0.0,0.0,0.0,
5.765952999999979,0.0,0.0,6641.0,0.0,0.0,0.0,0.0,0.125,0.798339762,0.01,0.0,-8156.0,0.0,0.0,0.0,0.0,0.125,0.456542922,0.01,0.0,5998.0,0.0,0.0,0.0,0.0,0.125,3.297118803,0.01,0.0,-6733.0,0.0,0.0,0.0,0.0,0.25,1.585693197,0.01,0.0,-0.009999999776482582,-1.5399999618530273,17.18000030517578,-0.02490234375,0.004638671875,1.02301025390625,35.9900016784668,0.0,3.0,-1.2708892822265625,-0.4343414306640625,Waiting,0.0,0.0,-141016.0,0.0,0.0,0.0,0.0,0.0,
5.843092999999993,0.0,0.0,6641.0,0.0,0.0,0.0,0.0,0.125,0.798339762,0.01,0.0,-8156.0,0.0,0.0,0.0,0.0,0.125,0.457763625,0.01,0.0,5998.0,0.0,0.0,0.0,0.0,0.125,3.294677397,0.01,0.0,-6733.0,0.0,0.0,0.0,0.0,0.25,1.5869139,0.01,0.0,0.0,-1.5499999523162842,17.170000076293945,-0.03472900390625,5.4931640625E-4,1.0252685546875,35.9900016784668,0.0,-6.0,-1.2708892822265625,-0.4343414306640625,Waiting,0.0,0.0,-141016.0,0.0,0.0,0.0,0.0,0.0,
5.912225999999908,0.0,0.0,6641.0,0.0,0.0,0.0,0.0,0.125,0.798339762,0.01,0.0,-8156.0,0.0,0.0,0.0,0.0,0.125,0.457763625,0.01,0.0,5998.0,0.0,0.0,0.0,0.0,0.125,3.2958981,0.01,0.0,-6733.0,0.0,0.0,0.0,0.0,0.25,1.585693197,0.01,0.0,0.0,-1.559999942779541,17.170000076293945,-0.0250244140625,0.00701904296875,1.0167236328125,36.0099983215332,0.0,4.0,-1.2708892822265625,-0.4343414306640625,Waiting,0.0,0.0,-141016.0,0.0,0.0,0.0,0.0,0.0,
5.984649999999907,0.0,0.0,6641.0,0.0,0.0,0.0,0.0,0.125,0.798339762,0.01,0.0,-8156.0,0.0,0.0,0.0,0.0,0.125,0.457763625,0.01,0.0,5998.0,0.0,0.0,0.0,0.0,0.125,3.2958981,0.01,0.0,-6733.0,0.0,0.0,0.0,0.0,0.25,1.585693197,0.01,0.0,0.009999999776482582,-1.5299999713897705,17.170000076293945,-0.00189208984375,0.001220703125,1.017822265625,36.0099983215332,0.0,24.0,-1.2708587646484375,-0.4343414306640625,Waiting,-10.15,66.0,-141019.0,0.0,-7.5,-2000.0,0.0,0.0,
6.0651119999999645,0.0,0.0,6641.0,0.0,0.0,0.0,0.0,0.125,0.798339762,0.01,0.0,-8156.0,0.0,0.0,0.0,0.0,0.125,0.457763625,0.01,0.0,5998.0,0.0,0.0,0.0,0.0,0.125,3.2958981,0.01,0.0,-6733.0,0.0,0.0,0.0,0.0,0.25,1.590576009,0.01,0.0012207030000004337,0.009999999776482582,-1.5,17.15999984741211,-0.0306396484375,-0.013916015625,1.08868408203125,36.0099983215332,0.0,-6.0,-1.2705230712890625,-0.4343414306640625,Waiting,-10.15,71.875,-141019.0,0.0,-210.0,-2000.0,0.0,0.0,
6.135243999999948,0.0,0.0,6641.0,0.0,0.0,0.0,0.0,0.125,0.798339762,0.01,0.0,-8156.0,0.0,0.0,0.0,0.0,0.125,0.457763625,0.01,0.0,5998.0,0.0,0.0,0.0,0.0,0.125,3.2958981,0.01,0.0,-6733.0,0.0,0.0,0.0,0.0,0.25,1.5869139,0.01,0.0012207029999995456,0.009999999776482582,-1.5,17.15999984741211,-0.02301025390625,0.022216796875,0.9700927734375,36.0099983215332,0.0,8.0,-1.2703704833984375,-0.4344024658203125,Waiting,-10.25,68.25,-141075.0,-36.0,-420.0,-2000.0,0.0,0.0,
6.2126969999999275,0.0,0.0,6641.0,0.0,0.0,0.0,0.0,0.125,0.797119059,0.01,0.0,-8156.0,0.0,0.0,0.0,0.0,0.125,0.457763625,0.01,0.0,5998.0,0.0,0.0,0.0,0.0,0.125,3.2958981,0.01,0.0,-6733.0,0.0,0.0,0.0,0.0,0.25,1.585693197,0.01,-0.0024414059999999793,0.03999999910593033,-1.4800000190734863,17.15999984741211,-0.0357666015625,-0.01568603515625,1.00787353515625,36.0099983215332,0.0,-14.0,-1.269561767578125,-0.4344482421875,Waiting,-10.4,65.75,-141193.0,-89.0,-697.5,-2000.0,0.0,0.0,
6.290376999999979,0.0,0.0,6641.0,0.0,0.0,0.0,0.0,0.125,0.798339762,0.01,0.0,-8156.0,0.0,0.0,0.0,0.0,0.125,0.457763625,0.01,0.0,5998.0,0.0,0.0,0.0,0.0,0.125,3.294677397,0.01,0.0,-6733.0,0.0,0.0,0.0,0.0,0.25,1.585693197,0.01,0.0,0.07000000029802322,-1.4199999570846558,17.15999984741211,-0.07000732421875,-0.05670166015625,1.03509521484375,36.0099983215332,0.0,-59.0,-1.2679290771484375,-0.4345703125,Waiting,-10.4,61.875,-141193.0,-89.0,-885.0,-2000.0,0.0,0.0,
6.3619099999999165,0.0,0.0,6641.0,0.0,0.0,0.0,0.0,0.125,0.798339762,0.01,0.0,-8156.0,0.0,0.0,0.0,0.0,0.125,0.457763625,0.01,0.0,5998.0,0.0,0.0,0.0,0.0,0.125,3.2958981,0.01,0.0,-6733.0,0.0,0.0,0.0,0.0,0.25,1.5844724940000001,0.01,0.0012207029999995456,0.019999999552965164,-1.4199999570846558,17.15999984741211,-0.05712890625,-0.04248046875,0.94171142578125,35.9900016784668,0.0,-44.0,-1.2666473388671875,-0.43487548828125,Waiting,-10.5,58.875,-141367.0,-137.0,-1125.0,-2000.0,0.0,0.0,
6.435282000000006,0.0,0.0,6641.0,0.0,0.0,0.0,0.0,0.125,0.798339762,0.01,0.0,-8156.0,0.0,0.0,0.0,0.0,0.125,0.457763625,0.01,0.0,5998.0,0.0,0.0,0.0,0.0,0.125,3.294677397,0.01,0.0,-6733.0,0.0,0.0,0.0,0.0,0.25,1.5869139,0.01,0.0,0.03999999910593033,-1.399999976158142,17.149999618530273,-0.07574462890625,-0.00775146484375,0.96142578125,35.9900016784668,0.0,-52.0,-1.2659912109375,-0.4356536865234375,Waiting,-10.5,55.75,-141367.0,-179.0,-1342.5,-2000.0,0.0,0.0,
6.513421999999904,0.0,0.0,6641.0,0.0,0.0,0.0,0.0,0.125,0.798339762,0.01,0.0,-8156.0,0.0,0.0,0.0,0.0,0.125,0.456542922,0.01,0.0,5998.0,0.0,0.0,0.0,0.0,0.125,3.2958981,0.01,0.0,-6733.0,0.0,0.0,0.0,0.0,0.25,1.585693197,0.01,0.0,0.009999999776482582,-1.3799999952316284,17.149999618530273,-0.0419921875,0.00775146484375,0.9564208984375,35.9900016784668,0.0,-15.0,-1.2658538818359375,-0.43585205078125,Waiting,-10.65,53.75,-141590.0,-179.0,-1492.5,-2000.0,0.0,0.0,
6.588243999999948,0.0,0.0,6641.0,0.0,0.0,0.0,0.0,0.125,0.797119059,0.01,0.0,-8156.0,0.0,0.0,0.0,0.0,0.125,0.457763625,0.01,0.0,5998.0,0.0,0.0,0.0,0.0,0.125,3.294677397,0.01,0.0,-6733.0,0.0,0.0,0.0,0.0,0.25,1.585693197,0.01,0.0,-0.019999999552965164,-1.5,17.149999618530273,-0.1116943359375,-0.0919189453125,0.70697021484375,35.9900016784668,0.0,-115.0,-1.26727294921875,-0.4367523193359375,Waiting,-10.75,51.125,-141858.0,-216.0,-1680.0,-2000.0,0.0,0.0,
6.6654949999999955,0.0,0.0,6641.0,0.0,0.0,0.0,0.0,0.125,0.798339762,0.01,0.0,-8156.0,0.0,0.0,0.0,0.0,0.125,0.456542922,0.01,0.0,5998.0,0.0,0.0,0.0,0.0,0.125,3.294677397,0.01,0.0,-6733.0,0.0,0.0,0.0,0.0,0.25,1.585693197,0.01,0.0,-0.009999999776482582,-1.5199999809265137,17.149999618530273,-0.0234375,-0.06158447265625,1.3284912109375,35.9900016784668,0.0,-6.0,-1.2705841064453125,-0.437591552734375,Waiting,-10.75,49.0,-141858.0,-216.0,-1807.5,-2000.0,0.0,0.0,
6.734,0.0,0.0,6641.0,0.0,0.0,0.0,0.0,0.125,0.798339762,0.01,0.0,-8156.0,0.0,0.0,0.0,0.0,0.125,0.456542922,0.01,0.0,5998.0,0.0,0.0,0.0,0.0,0.125,3.2958981,0.01,0.0,-6733.0,0.0,0.0,0.0,0.0,0.25,1.589355306,0.01,0.0,-0.05999999865889549,-1.5499999523162842,17.149999618530273,0.0401611328125,0.084716796875,1.11553955078125,35.9900016784668,0.0,92.0,-1.2706298828125,-0.4374542236328125,Waiting,-9.813196480938416,39.75,-142163.0,-249.0,-1965.0,-2000.0,0.0,0.0,
6.811271999999997,0.0,0.0,6641.0,0.0,0.0,0.0,0.0,0.125,0.797119059,0.01,0.0,-8156.0,0.0,0.0,0.0,0.0,0.125,0.457763625,0.01,0.0,5998.0,0.0,0.0,0.0,0.0,0.125,3.294677397,0.01,0.0,-6733.0,0.0,0.0,0.0,0.0,0.25,1.5844724940000001,0.01,0.0,-0.029999999329447746,-1.5,17.149999618530273,-0.1077880859375,-0.045654296875,0.73480224609375,35.9900016784668,0.0,-97.0,-1.270233154296875,-0.4373016357421875,Waiting,-8.552443792766374,25.125,-142499.0,-276.0,-2062.5,-2000.0,0.0,0.0,
6.883527000000002,0.0,0.0,6641.0,0.0,0.0,0.0,0.0,0.125,0.798339762,0.01,0.0,-8156.0,0.0,0.0,0.0,0.0,0.125,0.457763625,0.01,0.0,5998.0,0.0,0.0,0.0,0.0,0.125,3.2958981,0.01,0.0,-6733.0,0.0,0.0,0.0,0.0,0.25,1.585693197,0.01,0.0,0.019999999552965164,-1.4600000381469727,17.149999618530273,0.06378173828125,0.08447265625,1.05743408203125,35.97999954223633,0.0,111.0,-1.2693023681640625,-0.4364166259765625,Waiting,-7.083382209188661,12.25,-142499.0,-276.0,-2152.5,-2000.0,0.0,0.0,
6.957217999999994,0.0,0.0,6641.0,0.0,0.0,0.0,0.0,0.125,0.798339762,0.01,0.0,-8156.0,0.0,0.0,0.0,0.0,0.125,0.458984328,0.01,0.0012207030000004337,5998.0,0.0,0.0,0.0,0.0,0.125,3.2958981,0.01,0.0,-6733.0,0.0,0.0,0.0,0.0,0.25,1.5869139,0.01,0.0,0.0,-1.4500000476837158,17.139999389648438,0.07958984375,-0.0762939453125,1.17626953125,35.97999954223633,0.0,82.0,-1.268341064453125,-0.4358978271484375,Waiting,-6.481720430107527,8.75,-142848.0,-289.0,-2175.0,-2000.0,0.0,0.0,
7.031169999999926,0.0,0.0,6641.0,0.0,0.0,0.0,0.0,0.125,0.798339762,0.01,0.0,-8156.0,0.0,0.0,0.0,0.0,0.125,0.457763625,0.01,0.0,5998.0,0.0,0.0,0.0,0.0,0.125,3.2958981,0.01,0.0,-6733.0,0.0,0.0,0.0,0.0,0.25,1.5869139,0.01,0.0,0.019999999552965164,-1.399999976158142,17.139999389648438,-0.1544189453125,-0.00311279296875,0.9862060546875,35.97999954223633,0.0,-125.0,-1.267303466796875,-0.4355010986328125,Waiting,-6.174193548387096,6.5,-142848.0,-289.0,-2190.0,-2000.0,0.0,0.0,
7.108025999999954,0.0,0.0,6641.0,0.0,0.0,0.0,0.0,0.125,0.797119059,0.01,0.0,-8156.0,0.0,0.0,0.0,0.0,0.125,0.457763625,0.01,-0.0012207030000004337,5998.0,0.0,0.0,0.0,0.0,0.125,3.2958981,0.01,0.0,-6733.0,0.0,0.0,0.0,0.0,0.25,1.5869139,0.01,0.0,-0.029999999329447746,-1.4500000476837158,17.139999389648438,-0.06817626953125,0.17138671875,0.91851806640625,35.97999954223633,0.0,7.0,-1.26702880859375,-0.4347076416015625,Waiting,-6.253470185728251,6.25,-143198.0,-292.0,-2182.5,-2000.0,0.0,0.0,
7.1768129999999655,0.0,0.0,6641.0,0.0,0.0,0.0,0.0,0.125,0.799560465,0.01,0.0,-8156.0,0.0,0.0,0.0,0.0,0.125,0.457763625,0.01,0.0,5998.0,0.0,0.0,0.0,0.0,0.125,3.2958981,0.01,0.0,-6733.0,0.0,0.0,0.0,0.0,0.25,1.585693197,0.01,0.0,0.03999999910593033,-1.4600000381469727,17.139999389648438,-0.06201171875,-0.00152587890625,1.1031494140625,35.97999954223633,0.0,-32.0,-1.2672119140625,-0.4344482421875,Waiting,-6.19208211143695,6.25,-143547.0,-290.0,-2175.0,-2000.0,0.0,0.0,
7.25402099999995,0.0,0.0,6641.0,0.0,0.0,0.0,0.0,0.125,0.797119059,0.01,0.0,-8156.0,0.0,0.0,0.0,0.0,0.125,0.457763625,0.01,0.0,5998.0,0.0,0.0,0.0,0.0,0.125,3.2958981,0.01,0.0,-6733.0,0.0,0.0,0.0,0.0,0.25,1.5869139,0.01,0.0,0.029999999329447746,-1.4500000476837158,17.139999389648438,-0.12713623046875,-0.01214599609375,0.8951416015625,35.97999954223633,0.0,-103.0,-1.267425537109375,-0.434600830078125,Waiting,-6.19208211143695,6.25,-143547.0,-290.0,-2167.5,-2000.0,0.0,0.0,
7.32700299999991,0.0,0.0,6641.0,0.0,0.0,0.0,0.0,0.125,0.798339762,0.01,0.0,-8156.0,0.0,0.0,0.0,0.0,0.125,0.457763625,0.01,0.0,5998.0,0.0,0.0,0.0,0.0,0.125,3.294677397,0.01,0.0,-6733.0,0.0,0.0,0.0,0.0,0.25,1.585693197,0.01,0.0,0.0,-1.4199999570846558,17.1200008392334,-0.0782470703125,0.17169189453125,0.934814453125,35.97999954223633,0.0,-1.0,-1.2682952880859375,-0.43463134765625,Waiting,-6.193108504398827,6.25,-143896.0,-288.0,-2160.0,-2000.0,0.0,0.0,
7.398486999999965,0.0,0.0,6641.0,0.0,0.0,0.0,0.0,0.125,0.798339762,0.01,0.0,-8156.0,0.0,0.0,0.0,0.0,0.125,0.456542922,0.01,0.0,5998.0,0.0,0.0,0.0,0.0,0.125,3.2958981,0.01,0.0,-6733.0,0.0,0.0,0.0,0.0,0.25,1.5869139,0.01,0.0,0.03999999910593033,-1.3799999952316284,17.1200008392334,0.0489501953125,0.23126220703125,1.14923095703125,35.9900016784668,0.0,141.0,-1.2686004638671875,-0.4343414306640625,Waiting,-6.3259042033235575,6.25,-143896.0,-288.0,-2152.5,-2000.0,0.0,0.0,
7.471951999999932,0.0,0.0,6641.0,0.0,0.0,0.0,0.0,0.125,0.797119059,0.01,0.0,-8156.0,0.0,0.0,0.0,0.0,0.125,0.457763625,0.01,0.0,5998.0,0.0,0.0,0.0,0.0,0.125,3.2958981,0.01,0.0,-6733.0,0.0,0.0,0.0,0.0,0.25,1.5869139,0.01,0.0,0.12999999523162842,-1.309999942779541,17.1299991607666,0.0386962890625,-0.1209716796875,1.15972900390625,35.9900016784668,0.0,25.0,-1.266937255859375,-0.4339599609375,Waiting,-6.2051808406647115,6.25,-144237.0,-286.0,-2145.0,-2000.0,0.0,0.0,
7.550385000000009,0.0,0.0,6641.0,0.0,0.0,0.0,0.0,0.125,0.798339762,0.01,0.0,-8156.0,0.0,0.0,0.0,0.0,0.125,0.456542922,0.01,0.0,5998.0,0.0,0.0,0.0,0.0,0.125,3.2958981,0.01,0.0,-6733.0,0.0,0.0,0.0,0.0,0.25,1.5869139,0.01,0.0,0.10000000149011612,-1.3300000429153442,17.1200008392334,0.08013916015625,0.0985107421875,1.011474609375,35.9900016784668,0.0,127.0,-1.2631683349609375,-0.4342041015625,Waiting,-6.2051808406647115,6.25,-144579.0,-285.0,-2137.5,-2000.0,0.0,0.0,
7.62255999999994,0.0,0.0,6641.0,0.0,0.0,0.0,0.0,0.125,0.798339762,0.01,0.0,-8156.0,0.0,0.0,0.0,0.0,0.125,0.456542922,0.01,0.0,5998.0,0.0,0.0,0.0,0.0,0.125,3.2958981,0.01,0.0,-6733.0,0.0,0.0,0.0,0.0,0.25,1.5869139,0.01,0.0,0.03999999910593033,-1.2899999618530273,17.1200008392334,-0.0498046875,0.16552734375,0.9703369140625,35.9900016784668,0.0,21.0,-1.2591400146484375,-0.4342041015625,Waiting,-6.193108504398827,6.375,-144579.0,-285.0,-2130.0,-2000.0,0.0,0.0,
7.707744999999996,0.0,0.0,6641.0,0.0,0.0,0.0,0.0,0.125,0.797119059,0.01,0.0,-8156.0,0.0,0.0,0.0,0.0,0.125,0.457763625,0.01,0.0,5998.0,0.0,0.0,0.0,0.0,0.125,3.2958981,0.01,0.0,-6733.0,0.0,0.0,0.0,0.0,0.25,1.585693197,0.01,0.0,0.11999999731779099,-1.2400000095367432,17.110000610351562,-0.019287109375,-0.18719482421875,0.8983154296875,35.9900016784668,0.0,-55.0,-1.25469970703125,-0.4342041015625,Waiting,-6.2303030303030305,6.25,-144920.0,-284.0,-2122.5,-2000.0,0.0,0.0,
7.781018999999971,0.0,0.0,6641.0,0.125,-7.5,-446.45669907331467,0.0,0.125,0.795898356,4.932250999999998,0.0,-8148.0,1.0,22.5,446.45669907331467,0.0,0.125,0.45288081300000005,4.963769999999998,0.0,5998.0,0.375,0.0,-446.45669907331467,0.0,0.125,3.2958981,0.01,0.0,-6726.0,0.75,15.0,446.45669907331467,0.0,0.25,1.585693197,0.01,0.0,0.07999999821186066,-1.309999942779541,17.110000610351562,-0.3681640625,0.017578125,1.1278076171875,35.9900016784668,0.0,-322.0,-1.2510833740234375,-0.4344024658203125,Waiting,-6.204105571847507,6.25,-145259.0,-282.0,-2115.0,-2000.0,0.0,0.0,
7.855824999999953,0.0,0.0,6634.0,0.0,-52.5,0.0,0.0,0.125,0.798339762,4.932250999999998,0.0,-8148.0,0.875,60.0,0.0,0.0,0.125,0.45288081300000005,4.963769999999998,-0.004882811999999959,5998.0,0.125,0.0,0.0,0.0,0.125,3.2958981,0.01,0.0,-6726.0,0.125,52.5,0.0,0.0,0.25,1.5869139,0.01,0.0,0.17000000178813934,-1.4299999475479126,17.100000381469727,0.0164794921875,0.0928955078125,1.12371826171875,35.9900016784668,0.0,68.0,-1.2498626708984375,-0.4332427978515625,Waiting,-6.10791788856305,6.0,-145259.0,-282.0,-2115.0,-2000.0,0.0,0.0,
7.930250999999931,0.0,0.0,6633.0,0.0,-7.5,0.0,0.0,0.125,0.798339762,4.932250999999998,0.0,-8148.0,0.0,0.0,0.0,0.0,0.125,0.45288081300000005,4.963769999999998,0.0,5998.0,0.0,0.0,0.0,0.0,0.125,3.294677397,0.01,0.0,-6725.0,0.0,0.0,0.0,0.0,0.25,1.5820310880000001,0.01,0.0,0.10000000149011612,-1.3300000429153442,17.139999389648438,-0.1004638671875,-0.020263671875,0.77960205078125,36.0,0.0,-85.0,-1.2476959228515625,-0.43133544921875,Waiting,-6.156891495601173,6.375,-145597.0,-281.0,-2107.5,-2000.0,0.0,0.0,
8.006315999999991,0.0,0.0,6633.0,0.0,0.0,0.0,0.0,0.125,0.797119059,4.932250999999998,0.0,-8148.0,0.0,0.0,0.0,0.0,0.125,0.45288081300000005,4.963769999999998,0.0,5998.0,0.0,0.0,0.0,0.0,0.125,3.2958981,0.01,0.0,-6725.0,0.0,0.0,0.0,0.0,0.25,1.5820310880000001,0.01,-0.004882811999999959,0.0,-1.2200000286102295,17.1200008392334,-0.08697509765625,-9.765625E-4,0.64300537109375,36.0,0.0,-70.0,-1.2457733154296875,-0.430023193359375,Waiting,-6.217253176930596,6.25,-145597.0,-281.0,-2100.0,-2000.0,0.0,0.0,
8.073551999999909,0.0,0.0,6633.0,0.0,0.0,0.0,0.0,0.125,0.797119059,4.932250999999998,0.0,-8148.0,0.0,0.0,0.0,0.0,0.125,0.45288081300000005,4.963769999999998,0.0012207030000004337,5998.0,0.0,0.0,0.0,0.0,0.125,3.2958981,0.01,0.0,-6725.0,0.0,0.0,0.0,0.0,0.25,1.5869139,0.01,0.0,0.0,-1.2899999618530273,17.09000015258789,0.0467529296875,0.04327392578125,1.30621337890625,36.0,0.0,85.0,-1.24554443359375,-0.42913818359375,Waiting,-6.133333333333334,6.125,-145936.0,-280.0,-2100.0,-2000.0,0.0,0.0,
8.15092499999993,0.0,0.0,6633.0,0.0,0.0,0.0,0.0,0.125,0.797119059,4.932250999999998,0.0,-8148.0,0.0,0.0,0.0,0.0,0.125,0.45288081300000005,4.963769999999998,-0.0012207030000004337,5998.0,0.0,0.0,0.0,0.0,0.125,3.294677397,0.01,0.0,-6725.0,0.0,0.0,0.0,0.0,0.25,1.585693197,0.01,0.004882811999999959,0.0,-1.409999966621399,17.1200008392334,-4.2724609375E-4,-0.03729248046875,1.219482421875,36.0,0.0,17.0,-1.2464599609375,-0.42822265625,Waiting,-6.156891495601173,6.25,-146274.0,-279.0,-2092.5,-2000.0,0.0,0.0,
8.222456999999936,0.0,0.0,6633.0,4.875,-37.5,-1157.480263710022,0.0,0.125,0.797119059,4.932250999999998,0.0,-8148.0,8.875,45.0,1157.480263710022,0.0,0.125,0.45166011,4.963769999999998,0.0,5998.0,4.5,0.0,-1157.480263710022,0.0,0.125,3.300780912,0.01,0.0,-6725.0,5.375,45.0,1157.480263710022,0.0,0.25,1.518554532,0.01,0.0,-0.09000000357627869,-1.9500000476837158,17.079999923706055,-0.28472900390625,0.258056640625,1.3291015625,36.0,0.0,-152.0,-1.2489166259765625,-0.427154541015625,Waiting,-6.2051808406647115,5.375,-146274.0,-279.0,-2085.0,-2000.0,0.0,0.0,
8.304741999999969,0.0,0.0,6611.0,1.25,-135.0,0.0,0.0,0.125,0.798339762,4.932250999999998,0.0,-8123.0,1.375,142.5,0.0,0.0,0.125,0.45288081300000005,4.963769999999998,0.0,5997.0,1.125,-7.5,0.0,0.0,0.125,3.291015288,0.01,0.004882811999999959,-6702.0,0.625,142.5,0.0,0.0,0.25,1.518554532,0.01,-0.06713866499999988,0.05999999865889549,-2.2699999809265137,17.25,0.07598876953125,-0.1728515625,1.32684326171875,36.0,0.0,71.0,-1.262054443359375,-0.420623779296875,Waiting,-5.885043988269795,6.125,-146602.0,-278.0,-2077.5,-2000.0,0.0,0.0,
8.374007999999915,0.0,0.0,6611.0,0.0,-60.0,0.0,0.0,0.125,0.787353435,4.932250999999998,0.0,-8123.0,0.0,37.5,0.0,0.0,0.125,0.44799800100000003,4.963769999999998,0.0012207030000004337,5996.0,0.0,-7.5,0.0,0.0,0.125,3.2702633370000003,0.01,-0.009765623999999917,-6689.0,0.0,60.0,0.0,0.0,0.25,1.5563963250000001,0.01,0.0,-0.009999999776482582,-1.7799999713897705,17.299999237060547,-0.00885009765625,-0.03070068359375,0.72918701171875,36.0,0.0,4.0,-1.2692718505859375,-0.41668701171875,Waiting,-6.337976539589443,6.625,-146935.0,-276.0,-2070.0,-2000.0,0.0,0.0,
8.450105999999913,0.0,0.0,6591.0,0.0,-157.5,0.0,0.0,0.125,0.7885741380000001,4.932250999999998,-0.009765623999999917,-8113.0,0.0,112.5,0.0,0.0,0.125,0.437011674,4.963769999999998,-0.009765623999999917,5996.0,0.0,-15.0,0.0,0.0,0.0,3.2714840400000003,0.01,-0.019531247999999835,-6689.0,0.0,120.0,0.0,0.0,0.25,1.585693197,0.01,0.037841793000000123,-0.009999999776482582,-1.3899999856948853,17.350000381469727,0.05853271484375,-0.1392822265625,0.5877685546875,36.040000915527344,0.0,28.0,-1.2716522216796875,-0.4134368896484375,Waiting,-6.265542521994135,6.75,-146935.0,-276.0,-2070.0,-2000.0,0.0,0.0,
8.519708999999915,0.0,0.0,6586.0,0.0,-67.5,0.0,0.0,0.125,0.7885741380000001,4.932250999999998,0.0,-8107.0,0.0,45.0,0.0,0.0,0.0,0.43945308000000005,4.963769999999998,-0.004882811999999959,5991.0,0.0,-30.0,0.0,0.0,0.0,3.2714840400000003,0.01,0.0,-6683.0,0.0,37.5,0.0,0.0,0.25,1.590576009,0.01,0.029296871999999752,0.0,-1.0199999809265137,17.40999984741211,0.0721435546875,-0.09423828125,0.90496826171875,36.040000915527344,0.0,56.0,-1.2692718505859375,-0.411651611328125,Waiting,-6.193108504398827,6.5,-147267.0,-276.0,-2070.0,-2000.0,0.0,0.0,
8.597579999999958,0.0,0.0,6586.0,0.0,-7.5,0.0,0.0,0.125,0.7885741380000001,4.932250999999998,0.0,-8107.0,0.0,0.0,0.0,0.0,0.0,0.438232377,4.963769999999998,0.0,5991.0,0.0,0.0,0.0,0.0,0.0,3.2702633370000003,0.01,0.0,-6683.0,0.0,0.0,0.0,0.0,0.125,1.591796712,0.01,0.0,0.0,-1.0700000524520874,17.31999969482422,-0.04791259765625,0.023681640625,0.92633056640625,36.040000915527344,0.0,-22.0,-1.2638702392578125,-0.4092254638671875,Waiting,-6.1206744868035186,6.125,-147267.0,-276.0,-2070.0,-2000.0,0.0,0.0,
8.673279999999911,0.0,0.0,6586.0,0.0,0.0,0.0,0.0,0.125,0.7897948410000001,4.932250999999998,0.0012207030000004337,-8107.0,0.0,0.0,0.0,0.0,0.0,0.43945308000000005,4.963769999999998,0.0,5991.0,0.0,0.0,0.0,0.0,0.0,3.2702633370000003,0.01,0.0,-6683.0,0.0,0.0,0.0,0.0,0.125,1.590576009,0.01,0.0,-0.05999999865889549,-1.1200000047683716,17.360000610351562,0.0386962890625,0.00408935546875,1.30743408203125,36.040000915527344,0.0,63.0,-1.26055908203125,-0.4078826904296875,Waiting,-6.2303030303030305,6.25,-147598.0,-276.0,-2062.5,-2000.0,0.0,0.0,
8.750040999999968,0.0,0.0,6586.0,0.0,0.0,0.0,0.0,0.125,0.7885741380000001,4.932250999999998,0.0,-8107.0,0.0,0.0,0.0,0.0,0.0,0.43945308000000005,4.963769999999998,0.0,5991.0,0.0,0.0,0.0,0.0,0.0,3.2751461490000002,0.01,0.0,-6683.0,0.0,0.0,0.0,0.0,0.125,1.590576009,0.01,0.0,0.019999999552965164,-1.1399999856948853,17.31999969482422,0.02734375,0.0177001953125,1.26885986328125,36.040000915527344,0.0,55.0,-1.258941650390625,-0.4057159423828125,Waiting,-6.157575757575757,6.125,-147928.0,-275.0,-2062.5,-2000.0,0.0,0.0,
8.817626999999979,0.0,0.0,6586.0,0.0,0.0,0.0,0.0,0.125,0.7885741380000001,4.932250999999998,0.0,-8107.0,0.0,0.0,0.0,0.0,0.0,0.438232377,4.963769999999998,0.0,5991.0,0.0,0.0,0.0,0.0,0.125,3.2751461490000002,0.01,0.004882811999999959,-6683.0,0.0,0.0,0.0,0.0,0.25,1.590576009,0.01,-0.0012207029999995456,0.05000000074505806,-1.1699999570846558,17.31999969482422,0.041259765625,0.049560546875,1.271728515625,36.040000915527344,0.0,78.0,-1.2592926025390625,-0.403717041015625,Waiting,-6.242424242424242,6.375,-147928.0,-275.0,-2055.0,-2000.0,0.0,0.0,
8.896547999999951,0.0,0.0,6586.0,0.0,0.0,0.0,0.0,0.125,0.7885741380000001,4.932250999999998,0.0,-8107.0,0.0,0.0,0.0,0.0,0.0,0.438232377,4.963769999999998,0.0,5991.0,0.0,0.0,0.0,0.0,0.125,3.276366852,0.01,0.0,-6683.0,0.0,0.0,0.0,0.0,0.125,1.591796712,0.01,0.0,0.10000000149011612,-1.190000057220459,17.34000015258789,0.041259765625,0.0625,1.4019775390625,36.040000915527344,0.0,85.0,-1.259429931640625,-0.4034881591796875,Waiting,-6.181818181818182,6.25,-148258.0,-274.0,-2055.0,-2000.0,0.0,0.0,
8.97270299999998,0.0,0.0,6586.0,0.0,0.0,0.0,0.0,0.125,0.7885741380000001,4.932250999999998,0.0,-8107.0,0.0,0.0,0.0,0.0,0.0,0.438232377,4.963769999999998,0.0,5991.0,0.0,0.0,0.0,0.0,0.125,3.276366852,0.01,0.0,-6683.0,0.0,0.0,0.0,0.0,0.125,1.591796712,0.01,0.0,0.07999999821186066,-1.2300000190734863,17.31999969482422,0.0428466796875,-0.0030517578125,1.192626953125,36.0,0.0,64.0,-1.260284423828125,-0.4031219482421875,Waiting,-6.121212121212121,6.125,-148589.0,-274.0,-2055.0,-2000.0,0.0,0.0,
9.052314000000013,0.0,0.0,6586.0,0.0,0.0,0.0,0.0,0.125,0.783691326,4.932250999999998,0.0,-8107.0,0.0,0.0,0.0,0.0,0.0,0.438232377,4.963769999999998,0.0,5991.0,0.0,0.0,0.0,0.0,0.125,3.2751461490000002,0.01,0.0,-6683.0,0.0,0.0,0.0,0.0,0.125,1.590576009,0.01,0.0,0.07000000029802322,-1.25,17.34000015258789,0.01507568359375,0.0235595703125,1.02032470703125,36.0,0.0,42.0,-1.2622833251953125,-0.4021453857421875,Waiting,-6.206060606060606,6.375,-148589.0,-274.0,-2047.5,-2000.0,0.7,6.0,
9.128512999999918,0.0,0.0,6586.0,0.0,0.0,0.0,0.0,0.125,0.7897948410000001,4.932250999999998,0.0012207030000004337,-8107.0,0.0,0.0,0.0,0.0,0.0,0.438232377,4.963769999999998,0.0,5991.0,0.0,0.0,0.0,0.0,0.125,3.2751461490000002,0.01,0.0,-6683.0,0.0,0.0,0.0,0.0,0.125,1.590576009,0.01,0.0,0.07000000029802322,-1.2200000286102295,17.329999923706055,-0.04046630859375,-0.026611328125,0.9029541015625,36.0,0.0,-28.0,-1.2634124755859375,-0.4015960693359375,Waiting,-6.10791788856305,6.125,-148914.0,-273.0,-2047.5,-2000.0,0.7,5.0,
9.20844499999995,0.0,0.0,6586.0,0.0,0.0,0.0,0.0,0.125,0.7885741380000001,4.932250999999998,-0.0012207030000004337,-8107.0,0.0,0.0,0.0,0.0,0.0,0.438232377,4.963769999999998,0.0,5991.0,0.0,0.0,0.0,0.0,0.125,3.2751461490000002,0.01,0.0,-6683.0,0.0,0.0,0.0,0.0,0.125,1.590576009,0.01,0.0,0.09000000357627869,-1.2599999904632568,17.31999969482422,-0.0166015625,-0.03759765625,1.19598388671875,36.0,0.0,-2.0,-1.26409912109375,-0.4012298583984375,Waiting,-6.204105571847507,6.125,-149242.0,-272.0,-2040.0,-2000.0,0.7,4.0,
