Time,ClimberA1,ClimberA2,FRpos,FRCurrent,FRspeed,FRsetpoint,FRApos,FRACurrent,FREncpos,FREncSetpoint,FREncSpeed,FLpos,FLCurrent,FLspeed,FLsetpoint,FLApos,FLACurrent,FLEncpos,FLEncSetpoint,FLEncSpeed,BRpos,BRCurrent,BRspeed,BRsetpoint,BRApos,BRACurrent,BREncpos,BREncSetpoint,BREncSpeed,BLpos,BLCurrent,BLspeed,BLsetpoint,BLApos,BLACurrent,BLEncpos,BLEncSetpoint,BLEncSpeed,navx_Pitch,navx_Roll,navx_Yaw,navx_XAcc,navx_YAcc,navx_ZAcc,navx_Temp,navx_Bar,navx_Alt,navx_XDis,navx_YDis,GearPlacerState,ShootOutputV,ShootOutputCurrent,ShootEncPos,ShootEncVelocity,ShootSpeed,ShootSetpoint,CarouselSetpoint,CarouselCurrent,
0.2496569999998901,0.0,0.0,6798.0,0.0,0.0,0.0,0.0,0.125,0.799560465,0.01,0.0,-8279.0,0.0,0.0,-0.0,0.0,0.0,0.443115189,0.01,0.0,5934.0,0.0,0.0,0.0,0.0,0.0,3.2714840400000003,0.01,0.0,-6839.0,0.0,0.0,-0.0,0.0,0.25,1.5759275730000002,0.01,0.0,0.05999999865889549,-1.2400000095367432,0.0,-0.018310546875,0.00189208984375,1.018798828125,36.52000045776367,0.0,3.0,-1.08905029296875,-0.19891357421875,Waiting,0.0,0.0,-297490.0,0.0,0.0,0.0,0.0,0.0,
0.4340879999999888,0.0,0.0,6798.0,0.0,0.0,0.0,0.0,0.125,0.798339762,0.01,0.0,-8279.0,0.0,0.0,-0.0,0.0,0.0,0.443115189,0.01,0.0,5934.0,0.0,0.0,0.0,0.0,0.0,3.2714840400000003,0.01,0.0,-6839.0,0.0,0.0,-0.0,0.0,0.25,1.5759275730000002,0.01,0.0,0.05999999865889549,-1.2400000095367432,0.0,-0.02294921875,0.00189208984375,1.02325439453125,36.52000045776367,0.0,0.0,-1.08905029296875,-0.19891357421875,Waiting,0.0,0.0,-297490.0,0.0,0.0,0.0,0.0,0.0,
0.5515779999999795,0.0,0.0,6798.0,0.0,0.0,0.0,0.0,0.125,0.798339762,0.01,0.0,-8279.0,0.0,0.0,-0.0,0.0,0.0,0.443115189,0.01,0.0,5934.0,0.0,0.0,0.0,0.0,0.0,3.2714840400000003,0.01,0.0,-6839.0,0.0,0.0,-0.0,0.0,0.25,1.5759275730000002,0.01,0.0,0.05999999865889549,-1.2400000095367432,-0.009999999776482582,-0.020263671875,0.00341796875,1.02398681640625,36.529998779296875,0.0,1.0,-1.08905029296875,-0.19891357421875,Waiting,0.0,0.0,-297490.0,0.0,0.0,0.0,0.0,0.0,
0.6700219999998808,0.0,0.0,6798.0,0.0,0.0,0.0,0.0,0.125,0.799560465,0.01,0.0,-8279.0,0.0,0.0,-0.0,0.0,0.0,0.443115189,0.01,0.0,5934.0,0.0,0.0,0.0,0.0,0.0,3.2702633370000003,0.01,0.0,-6839.0,0.0,0.0,-0.0,0.0,0.25,1.57470687,0.01,0.0,0.05999999865889549,-1.2400000095367432,-0.009999999776482582,-0.02081298828125,6.7138671875E-4,1.01983642578125,36.529998779296875,0.0,1.0,-1.08905029296875,-0.19891357421875,Waiting,0.0,0.125,-297490.0,0.0,0.0,0.0,0.0,0.125,
0.7851589999999851,0.0,0.0,6798.0,0.0,0.0,0.0,0.0,0.125,0.799560465,0.01,0.0,-8279.0,0.0,0.0,-0.0,0.0,0.0,0.443115189,0.01,0.0,5934.0,0.0,0.0,0.0,0.0,0.0,3.2714840400000003,0.01,0.0,-6839.0,0.0,0.0,-0.0,0.0,0.25,1.57470687,0.01,0.0,0.05999999865889549,-1.2400000095367432,-0.009999999776482582,-0.023193359375,-6.103515625E-4,1.02423095703125,36.529998779296875,0.0,0.0,-1.08905029296875,-0.19891357421875,Waiting,0.0,0.0,-297490.0,0.0,0.0,0.0,0.0,0.0,
0.9030969999998342,0.0,0.0,6798.0,0.0,0.0,0.0,0.0,0.125,0.799560465,0.01,0.0,-8279.0,0.0,0.0,-0.0,0.0,0.0,0.443115189,0.01,0.0,5934.0,0.0,0.0,0.0,0.0,0.0,3.2714840400000003,0.01,0.0,-6839.0,0.0,0.0,-0.0,0.0,0.25,1.57470687,0.01,0.0,0.05999999865889549,-1.2400000095367432,-0.009999999776482582,-0.020751953125,0.0,1.02178955078125,36.529998779296875,0.0,1.0,-1.08905029296875,-0.19891357421875,Waiting,0.0,0.0,-297490.0,0.0,0.0,0.0,0.0,0.0,
1.0126909999998752,0.0,0.0,6798.0,0.0,0.0,0.0,0.0,0.125,0.798339762,0.01,0.0,-8279.0,0.0,0.0,-0.0,0.0,0.0,0.443115189,0.01,0.0,5934.0,0.0,0.0,0.0,0.0,0.0,3.2714840400000003,0.01,0.0,-6839.0,0.0,0.0,-0.0,0.0,0.25,1.5759275730000002,0.01,0.0,0.05999999865889549,-1.2400000095367432,-0.009999999776482582,-0.02264404296875,7.9345703125E-4,1.017822265625,36.529998779296875,0.0,0.0,-1.08905029296875,-0.19891357421875,Waiting,0.0,0.0,-297490.0,0.0,0.0,0.0,0.0,0.0,
1.1290149999998975,0.0,0.0,6798.0,0.0,0.0,0.0,0.0,0.125,0.798339762,0.01,0.0,-8279.0,0.0,0.0,-0.0,0.0,0.0,0.443115189,0.01,0.0,5934.0,0.0,0.0,0.0,0.0,0.0,3.2702633370000003,0.01,0.0,-6839.0,0.0,0.0,-0.0,0.0,0.25,1.5759275730000002,0.01,0.0,0.05999999865889549,-1.2400000095367432,-0.009999999776482582,-0.021484375,0.001708984375,1.01934814453125,36.529998779296875,0.0,0.0,-1.08905029296875,-0.19891357421875,Waiting,0.0,0.0,-297490.0,0.0,0.0,0.0,0.0,0.0,
1.2490459999998567,0.0,0.0,6798.0,0.0,0.0,0.0,0.0,0.125,0.798339762,0.01,0.0,-8279.0,0.0,0.0,-0.0,0.0,0.0,0.443115189,0.01,0.0,5934.0,0.0,0.0,0.0,0.0,0.0,3.2714840400000003,0.01,0.0,-6839.0,0.0,0.0,-0.0,0.0,0.25,1.5759275730000002,0.01,0.0,0.05999999865889549,-1.2400000095367432,-0.009999999776482582,-0.02288818359375,0.0020751953125,1.01641845703125,36.529998779296875,0.0,0.0,-1.08905029296875,-0.19891357421875,Waiting,0.0,0.0,-297490.0,0.0,0.0,0.0,0.0,0.0,
1.367750999999931,0.0,0.0,6798.0,0.0,0.0,0.0,0.0,0.125,0.798339762,0.01,0.0,-8279.0,0.0,0.0,-0.0,0.0,0.0,0.443115189,0.01,0.0,5934.0,0.0,0.0,0.0,0.0,0.0,3.2702633370000003,0.01,0.0,-6839.0,0.0,0.0,-0.0,0.0,0.25,1.5759275730000002,0.01,0.0,0.05000000074505806,-1.2400000095367432,-0.009999999776482582,-0.03509521484375,0.014404296875,1.05133056640625,36.529998779296875,0.0,-12.0,-1.08905029296875,-0.19891357421875,Waiting,-10.25,72.875,-297505.0,-6.0,-67.5,-1650.0,0.0,0.0,
1.4841059999999124,0.0,0.0,6798.0,0.0,0.0,0.0,0.0,0.125,0.798339762,0.01,0.0,-8279.0,0.0,0.0,-0.0,0.0,0.0,0.444335892,0.01,0.0,5934.0,0.0,0.0,0.0,0.0,0.0,3.2714840400000003,0.01,0.0,-6839.0,0.0,0.0,-0.0,0.0,0.25,1.5759275730000002,0.01,0.0,0.09000000357627869,-1.2200000286102295,-0.009999999776482582,-0.00408935546875,0.06463623046875,1.1591796875,36.529998779296875,0.0,20.0,-1.0892333984375,-0.198760986328125,Waiting,-10.350000000000001,67.875,-297581.0,-53.0,-390.0,-1650.0,0.0,0.125,
1.6001350000000094,0.0,0.0,6798.0,0.0,0.0,0.0,0.0,0.125,0.798339762,0.01,0.0,-8279.0,0.0,0.0,-0.0,0.0,0.0,0.443115189,0.01,0.0,5934.0,0.0,0.0,0.0,0.0,0.0,3.2714840400000003,0.01,0.0,-6839.0,0.0,0.0,-0.0,0.0,0.25,1.57470687,0.01,0.0,0.07000000029802322,-1.2000000476837158,-0.009999999776482582,-0.02740478515625,-0.0235595703125,1.01708984375,36.540000915527344,0.0,-5.0,-1.088531494140625,-0.197906494140625,Waiting,-10.5,62.75,-297714.0,-103.0,-780.0,-1650.0,0.0,0.125,
1.7135659999998751,0.0,0.0,6798.0,0.0,0.0,0.0,0.0,0.125,0.798339762,0.01,0.0,-8279.0,0.0,0.0,-0.0,0.0,0.0,0.44189448600000003,0.01,0.0,5934.0,0.0,0.0,0.0,0.0,0.0,3.2714840400000003,0.01,0.0,-6839.0,0.0,0.0,-0.0,0.0,0.25,1.57470687,0.01,0.0,0.05999999865889549,-1.1799999475479126,-0.019999999552965164,-0.0159912109375,0.0140380859375,0.96905517578125,36.540000915527344,0.0,4.0,-1.0887451171875,-0.197418212890625,Waiting,-10.600000000000001,58.375,-297903.0,-149.0,-1080.0,-1650.0,0.0,0.125,
1.8307739999999757,0.0,0.0,6798.0,0.0,0.0,0.0,0.0,0.125,0.798339762,0.01,0.0,-8279.0,0.0,0.0,-0.0,0.0,0.0,0.443115189,0.01,0.0,5934.0,0.0,0.0,0.0,0.0,0.0,3.2714840400000003,0.01,0.0,-6839.0,0.0,0.0,-0.0,0.0,0.25,1.57470687,0.01,0.0,0.03999999910593033,-1.1699999570846558,-0.019999999552965164,0.0858154296875,0.13177490234375,0.904296875,36.540000915527344,0.0,104.0,-1.08795166015625,-0.19598388671875,Waiting,-10.185532746823071,49.125,-297903.0,-190.0,-1410.0,-1650.0,0.0,0.0,
1.9505119999998715,0.0,0.0,6798.0,0.0,0.0,0.0,0.0,0.125,0.797119059,0.01,0.0,-8279.0,0.0,0.0,-0.0,0.0,0.0,0.443115189,0.01,0.0,5934.0,0.0,0.0,0.0,0.0,0.0,3.2702633370000003,0.01,0.0,-6839.0,0.0,0.0,-0.0,0.0,0.25,1.57470687,0.01,0.0,0.14000000059604645,-1.1299999952316284,-0.019999999552965164,-0.05450439453125,0.15557861328125,0.8944091796875,36.540000915527344,0.0,-36.0,-1.08660888671875,-0.1943359375,Waiting,-7.079227761485826,15.5,-298411.0,-222.0,-1665.0,-1650.0,0.0,0.0,
2.0711389999999663,0.0,0.0,6798.0,0.0,0.0,0.0,0.0,0.125,0.798339762,0.01,0.0,-8279.0,0.0,0.0,-0.0,0.0,0.0,0.443115189,0.01,0.0,5934.0,0.0,0.0,0.0,0.0,0.0,3.2714840400000003,0.01,0.0,-6839.0,0.0,0.0,-0.0,0.0,0.25,1.5759275730000002,0.01,0.0,0.20999999344348907,-1.0700000524520874,-0.019999999552965164,0.00347900390625,-0.021484375,1.168701171875,36.52000045776367,0.0,25.0,-1.0872039794921875,-0.1862030029296875,Waiting,-2.8369990224828934,5.5,-298692.0,-233.0,-1755.0,-1650.0,0.0,0.0,
2.20190699999989,0.0,0.0,6798.0,0.0,0.0,0.0,0.0,0.125,0.8007811680000001,0.01,0.0,-8279.0,0.0,0.0,-0.0,0.0,0.0,0.443115189,0.01,0.0,5934.0,0.0,0.0,0.0,0.0,0.0,3.2714840400000003,0.01,0.0,-6839.0,0.0,0.0,-0.0,0.0,0.25,1.5759275730000002,0.01,0.0,0.20999999344348907,-1.0700000524520874,-0.019999999552965164,0.19378662109375,-0.0628662109375,1.2061767578125,36.52000045776367,0.0,216.0,-1.0886383056640625,-0.1824951171875,Waiting,-5.115151515151515,4.375,-298973.0,-234.0,-1755.0,-1650.0,0.0,0.0,
2.3269259999999776,0.0,0.0,6798.0,0.0,0.0,0.0,0.0,0.125,0.798339762,0.01,0.0,-8279.0,0.0,0.0,-0.0,0.0,0.0,0.443115189,0.01,0.0,5934.0,0.0,0.0,0.0,0.0,0.0,3.2714840400000003,0.01,0.0,-6839.0,0.0,0.0,-0.0,0.0,0.25,1.5759275730000002,0.01,0.0,0.11999999731779099,-1.149999976158142,-0.019999999552965164,-0.1771240234375,-0.03466796875,0.67852783203125,36.52000045776367,0.0,-163.0,-1.0850830078125,-0.185302734375,Waiting,-5.1030303030303035,4.25,-299253.0,-233.0,-1747.5,-1650.0,0.0,0.0,
2.4512600000000093,0.0,0.0,6798.0,0.0,0.0,0.0,0.0,0.125,0.798339762,0.01,0.0,-8279.0,0.0,0.0,-0.0,0.0,0.0,0.443115189,0.01,0.0,5934.0,0.0,0.0,0.0,0.0,0.0,3.2702633370000003,0.01,0.0,-6839.0,0.0,0.0,-0.0,0.0,0.25,1.5759275730000002,0.01,0.0,0.2199999988079071,-1.0,-0.019999999552965164,-0.03350830078125,0.01177978515625,0.98370361328125,36.529998779296875,0.0,-16.0,-1.0934600830078125,-0.1920928955078125,Waiting,-5.220967741935484,4.5,-299532.0,-232.0,-1732.5,-1650.0,0.0,0.0,
2.6117029999999795,0.0,0.0,6798.0,0.0,0.0,0.0,0.0,0.125,0.798339762,0.01,0.0,-8279.0,0.0,0.0,-0.0,0.0,0.0,0.443115189,0.01,0.0,5934.0,0.0,0.0,0.0,0.0,0.0,3.2714840400000003,0.01,0.0,-6839.0,0.0,0.0,-0.0,0.0,0.25,1.5759275730000002,0.01,0.0,0.20999999344348907,-1.1100000143051147,-0.019999999552965164,0.0238037109375,-0.0224609375,1.06658935546875,36.529998779296875,0.0,44.0,-1.0989990234375,-0.1922454833984375,Waiting,-5.233137829912025,4.25,-299811.0,-231.0,-1732.5,-1650.0,0.0,0.0,
2.7351809999998657,0.0,0.0,6798.0,0.0,0.0,0.0,0.0,0.125,0.799560465,0.01,0.0,-8279.0,0.0,0.0,-0.0,0.0,0.0,0.443115189,0.01,0.0,5934.0,0.0,0.0,0.0,0.0,0.0,3.2714840400000003,0.01,0.0,-6839.0,0.0,0.0,-0.0,0.0,0.25,1.57470687,0.01,0.0,0.05000000074505806,-1.2699999809265137,-0.019999999552965164,0.04046630859375,-0.02313232421875,1.08563232421875,36.529998779296875,0.0,64.0,-1.1005859375,-0.192962646484375,Waiting,-5.257478005865103,4.625,-300085.0,-230.0,-1717.5,-1650.0,0.0,0.0,
2.862835999999894,0.0,0.0,6798.0,0.0,0.0,0.0,0.0,0.125,0.798339762,0.01,0.0,-8279.0,0.0,0.0,-0.0,0.0,0.0,0.443115189,0.01,0.0,5934.0,0.0,0.0,0.0,0.0,0.0,3.2739254460000002,0.01,0.0,-6839.0,0.0,0.0,-0.0,0.0,0.25,1.57470687,0.01,0.0,-0.07000000029802322,-1.4299999475479126,-0.019999999552965164,0.0084228515625,0.053955078125,1.00982666015625,36.529998779296875,0.0,33.0,-1.0968475341796875,-0.1945343017578125,Waiting,-5.464369501466276,5.625,-300358.0,-228.0,-1702.5,-1650.0,0.0,0.0,
2.98852099999995,0.0,0.0,6798.0,0.0,0.0,0.0,0.0,0.125,0.798339762,0.01,0.0,-8279.0,0.0,0.0,-0.0,0.0,0.0,0.443115189,0.01,0.0,5934.0,0.0,0.0,0.0,0.0,0.0,3.2714840400000003,0.01,0.0,-6839.0,0.0,0.0,-0.0,0.0,0.25,1.5759275730000002,0.01,0.0,0.0,-1.4500000476837158,-0.019999999552965164,-0.0316162109375,0.03314208984375,1.16851806640625,36.529998779296875,0.0,-1.0,-1.086181640625,-0.19305419921875,Waiting,-5.503030303030304,5.875,-300630.0,-227.0,-1695.0,-1650.0,0.0,0.0,
3.112522999999812,0.0,0.0,6798.0,0.0,0.0,0.0,0.0,0.125,0.798339762,0.01,0.0,-8279.0,0.0,0.0,-0.0,0.0,0.0,0.443115189,0.01,0.0,5934.0,0.0,0.0,0.0,0.0,0.0,3.2641598220000003,0.01,0.0,-6839.0,0.0,0.0,-0.0,0.0,0.25,1.5759275730000002,0.01,0.0,0.07000000029802322,-1.3200000524520874,-0.019999999552965164,-0.01727294921875,-0.03277587890625,1.02423095703125,36.540000915527344,0.0,6.0,-1.0851287841796875,-0.192169189453125,Waiting,-5.43030303030303,5.625,-300902.0,-226.0,-1695.0,-1650.0,0.0,0.0,
3.2323009999999774,0.0,0.0,6798.0,0.0,0.0,0.0,0.0,0.125,0.799560465,0.01,0.0,-8279.0,0.0,0.0,-0.0,0.0,0.0,0.443115189,0.01,0.0,5934.0,0.0,0.0,0.0,0.0,0.0,3.2714840400000003,0.01,0.0,-6839.0,0.0,0.0,-0.0,0.0,0.25,1.573486167,0.01,0.0,0.18000000715255737,-1.2000000476837158,-0.019999999552965164,-0.080078125,-0.02874755859375,0.86962890625,36.540000915527344,0.0,-61.0,-1.0849609375,-0.19036865234375,Waiting,-5.314369501466276,5.25,-301175.0,-226.0,-1695.0,-1650.0,0.7,3.5,
3.3645089999998454,0.0,0.0,6798.0,0.0,0.0,0.0,0.0,0.125,0.798339762,0.01,0.0,-8279.0,0.0,0.0,-0.0,0.0,0.0,0.443115189,0.01,0.0,5934.0,0.0,0.0,0.0,0.0,0.0,3.2702633370000003,0.01,0.0,-6839.0,0.0,0.0,-0.0,0.0,0.25,1.57470687,0.01,0.0,0.09000000357627869,-1.2100000381469727,-0.019999999552965164,-0.1368408203125,-0.07965087890625,0.66400146484375,36.540000915527344,0.0,-122.0,-1.0916290283203125,-0.1900634765625,Waiting,-5.398533724340177,5.5,-301446.0,-225.0,-1687.5,-1650.0,0.7,3.5,
3.4886409999998285,0.0,0.0,6798.0,0.0,0.0,0.0,0.0,0.125,0.798339762,0.01,0.0,-8279.0,0.0,0.0,-0.0,0.0,0.0,0.443115189,0.01,0.0,5934.0,0.0,0.0,0.0,0.0,0.0,3.2714840400000003,0.01,0.0,-6839.0,0.0,0.0,-0.0,0.0,0.25,1.5759275730000002,0.01,0.0,0.10999999940395355,-1.2799999713897705,-0.019999999552965164,0.059326171875,0.07720947265625,0.9697265625,36.540000915527344,0.0,121.0,-1.1050262451171875,-0.19281005859375,Waiting,-5.33841642228739,5.125,-301716.0,-225.0,-1687.5,-1650.0,0.7,3.875,
3.613498999999836,0.0,0.0,6798.0,0.0,0.0,0.0,0.0,0.125,0.798339762,0.01,0.0,-8279.0,0.0,0.0,-0.0,0.0,0.0,0.443115189,0.01,0.0,5934.0,0.0,0.0,0.0,0.0,0.0,3.2727047430000002,0.01,0.0,-6839.0,0.0,0.0,-0.0,0.0,0.25,1.5759275730000002,0.01,0.0,0.23999999463558197,-1.1100000143051147,-0.019999999552965164,0.010986328125,-0.0848388671875,1.13690185546875,36.52000045776367,0.0,33.0,-1.1102294921875,-0.1955413818359375,Waiting,-5.278299120234605,5.0,-301987.0,-225.0,-1687.5,-1650.0,0.7,4.0,
3.7337600000000095,0.0,0.0,6798.0,0.0,0.0,0.0,0.0,0.125,0.798339762,0.01,0.0,-8279.0,0.0,0.0,-0.0,0.0,0.0,0.443115189,0.01,0.0,5934.0,0.0,0.0,0.0,0.0,0.0,3.2714840400000003,0.01,0.0,-6839.0,0.0,0.0,-0.0,0.0,0.25,1.5759275730000002,0.01,0.0,0.09000000357627869,-1.149999976158142,-0.019999999552965164,-0.1468505859375,0.05841064453125,1.10028076171875,36.52000045776367,0.0,-124.0,-1.1103668212890625,-0.2010955810546875,Waiting,-5.374486803519062,5.375,-302257.0,-225.0,-1680.0,-1650.0,0.7,3.75,
3.8654299999999346,0.0,0.0,6798.0,0.0,0.0,0.0,0.0,0.125,0.798339762,0.01,0.0,-8279.0,0.0,0.0,-0.0,0.0,0.0,0.43945308000000005,0.01,0.0,5934.0,0.0,0.0,0.0,0.0,0.0,3.2714840400000003,0.01,0.0,-6839.0,0.0,0.0,-0.0,0.0,0.25,1.5759275730000002,0.01,0.0,0.07999999821186066,-1.1799999475479126,-0.019999999552965164,-0.021728515625,0.073486328125,1.06134033203125,36.52000045776367,0.0,0.0,-1.115478515625,-0.204345703125,Waiting,-5.3263929618768335,5.125,-302527.0,-224.0,-1680.0,-1650.0,0.7,4.0,
3.9838269999998155,0.0,0.0,6798.0,0.0,0.0,0.0,0.0,0.125,0.798339762,0.01,0.0,-8279.0,0.0,0.0,-0.0,0.0,0.0,0.44189448600000003,0.01,0.0,5934.0,0.0,0.0,0.0,0.0,0.0,3.2714840400000003,0.01,0.0,-6839.0,0.0,0.0,-0.0,0.0,0.25,1.5759275730000002,0.01,0.0,0.07999999821186066,-1.2000000476837158,-0.019999999552965164,0.078125,-0.0672607421875,1.15606689453125,36.52000045776367,0.0,102.0,-1.1142730712890625,-0.2026824951171875,Waiting,-5.278299120234605,5.0,-302798.0,-224.0,-1680.0,-1650.0,0.7,4.875,
4.094893999999854,0.0,0.0,6798.0,0.0,0.0,0.0,0.0,0.125,0.8056639800000001,0.01,0.0,-8279.0,0.0,0.0,-0.0,0.0,0.0,0.443115189,0.01,0.0,5934.0,0.0,0.0,0.0,0.0,0.0,3.2702633370000003,0.01,0.0,-6839.0,0.0,0.0,-0.0,0.0,0.25,1.5759275730000002,0.01,0.0,-0.019999999552965164,-1.2699999809265137,-0.019999999552965164,-0.04327392578125,0.00653076171875,1.1865234375,36.5099983215332,0.0,-16.0,-1.1086883544921875,-0.20404052734375,Waiting,-5.208944281524927,4.875,-303065.0,-224.0,-1680.0,-1650.0,0.7,6.25,
4.213376999999862,0.0,0.0,6798.0,0.0,0.0,0.0,0.0,0.125,0.798339762,0.01,0.0,-8279.0,0.0,0.0,-0.0,0.0,0.0,0.443115189,0.01,0.0,5934.0,0.0,0.0,0.0,0.0,0.0,3.2714840400000003,0.01,0.0,-6839.0,0.0,0.0,-0.0,0.0,0.25,1.5759275730000002,0.01,0.0,0.10999999940395355,-1.2000000476837158,-0.019999999552965164,-0.06512451171875,-0.06036376953125,0.84246826171875,36.5099983215332,0.0,-47.0,-1.1017608642578125,-0.203857421875,Waiting,-5.173020527859237,4.75,-303335.0,-224.0,-1680.0,-1650.0,0.7,4.375,
4.330147999999812,0.0,0.0,6798.0,0.0,0.0,0.0,0.0,0.125,0.798339762,0.01,0.0,-8279.0,0.0,0.0,-0.0,0.0,0.0,0.443115189,0.01,0.0,5934.0,0.0,0.0,0.0,0.0,0.0,3.2714840400000003,0.01,0.0,-6839.0,0.0,0.0,-0.0,0.0,0.25,1.5759275730000002,0.01,0.0,0.03999999910593033,-1.2300000190734863,-0.019999999552965164,-0.037841796875,-0.0804443359375,0.71881103515625,36.5099983215332,0.0,-22.0,-1.0998077392578125,-0.2062225341796875,Waiting,-5.290322580645161,4.75,-303604.0,-224.0,-1672.5,-1650.0,0.7,3.875,
4.447751999999862,0.0,0.0,6798.0,0.0,0.0,0.0,0.0,0.125,0.799560465,0.01,0.0,-8279.0,0.0,0.0,-0.0,0.0,0.0,0.443115189,0.01,0.0,5934.0,0.0,0.0,0.0,0.0,0.0,3.2751461490000002,0.01,0.0,-6839.0,0.0,0.0,-0.0,0.0,0.25,1.57470687,0.01,0.0,0.07000000029802322,-1.2200000286102295,-0.019999999552965164,-0.01800537109375,0.0074462890625,0.9788818359375,36.5099983215332,0.0,2.0,-1.1006317138671875,-0.2103729248046875,Waiting,-7.879276637341153,12.0,-303870.0,-223.0,-1522.5,-1650.0,0.7,4.625,
4.568195999999996,0.0,0.0,6798.0,0.0,0.0,0.0,0.0,0.125,0.798339762,0.01,0.0,-8279.0,0.0,0.0,-0.0,0.0,0.0,0.443115189,0.01,0.0,5934.0,0.0,0.0,0.0,0.0,0.0,3.2714840400000003,0.01,0.0,-6839.0,0.0,0.0,-0.0,0.0,0.25,1.5759275730000002,0.01,0.0,0.05999999865889549,-1.2200000286102295,-0.019999999552965164,0.02783203125,0.02001953125,1.2550048828125,36.529998779296875,0.0,54.0,-1.1011505126953125,-0.2113494873046875,Waiting,-7.868621700879765,20.625,-304108.0,-199.0,-1537.5,-1650.0,0.7,4.625,
4.680923999999883,0.0,0.0,6798.0,0.0,0.0,0.0,0.0,0.125,0.798339762,0.01,0.0,-8279.0,0.0,0.0,-0.0,0.0,0.0,0.443115189,0.01,0.0,5934.0,0.0,0.0,0.0,0.0,0.0,3.286132476,0.01,0.0,-6839.0,0.0,0.0,-0.0,0.0,0.25,1.57470687,0.01,0.0,0.05999999865889549,-1.159999966621399,-0.029999999329447746,-0.098876953125,0.003173828125,1.04522705078125,36.529998779296875,0.0,-77.0,-1.100189208984375,-0.2120513916015625,Waiting,-3.387585532746823,8.625,-304365.0,-210.0,-1650.0,-1650.0,0.7,4.0,
4.80814599999995,0.0,0.0,6798.0,0.0,0.0,0.0,0.0,0.125,0.79345695,0.01,0.0,-8279.0,0.0,0.0,-0.0,0.0,0.0,0.443115189,0.01,0.0,5934.0,0.0,0.0,0.0,0.0,0.0,3.2714840400000003,0.01,0.0,-6839.0,0.0,0.0,-0.0,0.0,0.25,1.5759275730000002,0.01,0.0,0.0,-1.1799999475479126,-0.029999999329447746,-0.04998779296875,-0.1365966796875,0.62213134765625,36.529998779296875,0.0,-36.0,-1.10284423828125,-0.21466064453125,Waiting,-5.24731182795699,5.75,-304633.0,-222.0,-1680.0,-1650.0,0.7,3.5,
4.920125999999931,0.0,0.0,6798.0,0.0,0.0,0.0,0.0,0.125,0.798339762,0.01,0.0,-8279.0,0.0,0.0,-0.0,0.0,0.0,0.443115189,0.01,0.0,5934.0,0.0,0.0,0.0,0.0,0.0,3.2714840400000003,0.01,0.0,-6839.0,0.0,0.0,-0.0,0.0,0.25,1.5759275730000002,0.01,0.0,-0.05999999865889549,-1.309999942779541,-0.019999999552965164,0.1004638671875,-0.09613037109375,1.0721435546875,36.529998779296875,0.0,125.0,-1.107147216796875,-0.2206878662109375,Waiting,-5.208944281524927,4.875,-304903.0,-225.0,-1687.5,-1650.0,0.7,3.625,
5.035278999999864,0.0,0.0,6798.0,0.0,0.0,0.0,0.0,0.125,0.798339762,0.01,0.0,-8279.0,0.0,0.0,-0.0,0.0,0.0,0.443115189,0.01,0.0,5934.0,0.0,0.0,0.0,0.0,0.0,3.2714840400000003,0.01,0.0,-6839.0,0.0,0.0,-0.0,0.0,0.25,1.573486167,0.01,0.0,0.03999999910593033,-1.1699999570846558,-0.029999999329447746,-0.019775390625,0.03515625,1.0582275390625,36.529998779296875,0.0,1.0,-1.1019287109375,-0.2265167236328125,Waiting,-5.335972629521017,5.0,-305174.0,-225.0,-1680.0,-1650.0,0.7,3.375,
5.155457999999868,0.0,0.0,6798.0,0.0,0.0,0.0,0.0,0.125,0.798339762,0.01,0.0,-8279.0,0.0,0.0,-0.0,0.0,0.0,0.443115189,0.01,0.0,5934.0,0.0,0.0,0.0,0.0,0.0,3.2702633370000003,0.01,0.0,-6839.0,0.0,0.0,-0.0,0.0,0.25,1.5759275730000002,0.01,0.0,-0.05000000074505806,-1.1799999475479126,-0.029999999329447746,-0.0648193359375,-0.09356689453125,1.053955078125,36.5099983215332,0.0,-42.0,-1.0924224853515625,-0.2294464111328125,Waiting,-5.266275659824047,5.0,-305443.0,-224.0,-1680.0,-1650.0,0.7,3.5,
5.273571999999928,0.0,0.0,6798.0,0.0,0.0,0.0,0.0,0.125,0.798339762,0.01,0.0,-8279.0,0.0,0.0,-0.0,0.0,0.0,0.443115189,0.01,0.0,5934.0,0.0,0.0,0.0,0.0,0.0,3.2702633370000003,0.01,0.0,-6839.0,0.0,0.0,-0.0,0.0,0.25,1.57470687,0.01,0.0,-0.019999999552965164,-1.2100000381469727,-0.019999999552965164,-0.00958251953125,0.11163330078125,1.08734130859375,36.5099983215332,0.0,13.0,-1.0868377685546875,-0.2277069091796875,Waiting,-5.506744868035192,5.625,-305716.0,-225.0,-1665.0,-1650.0,0.7,3.375,
5.389325999999884,0.0,0.0,6798.0,0.0,0.0,0.0,0.0,0.125,0.798339762,0.01,0.0,-8279.0,0.0,0.0,-0.0,0.0,0.0,0.443115189,0.01,0.0,5934.0,0.0,0.0,0.0,0.0,0.0,3.2714840400000003,0.01,0.0,-6839.0,0.0,0.0,-0.0,0.0,0.25,1.5759275730000002,0.01,0.0,-0.029999999329447746,-1.190000057220459,-0.019999999552965164,-0.06182861328125,-0.09716796875,0.708251953125,36.5099983215332,0.0,-47.0,-1.082427978515625,-0.2221527099609375,Waiting,-8.31603128054741,19.75,-305964.0,-213.0,-1515.0,-1650.0,0.7,3.0,
5.5082029999999795,0.0,0.0,6798.0,0.0,0.0,0.0,0.0,0.125,0.798339762,0.01,0.0,-8279.0,0.0,0.0,-0.0,0.0,0.0,0.443115189,0.01,0.0,5934.0,0.0,0.0,0.0,0.0,0.0,3.2714840400000003,0.01,0.0,-6839.0,0.0,0.0,-0.0,0.0,0.25,1.57470687,0.01,0.0,-0.03999999910593033,-1.2400000095367432,-0.019999999552965164,0.0023193359375,0.04913330078125,1.08587646484375,36.5099983215332,0.0,-46.0,-1.0758819580078125,-0.218414306640625,Waiting,-6.397849462365591,11.875,-306216.0,-206.0,-1620.0,-1650.0,0.7,3.25,
5.6239549999998415,0.0,0.0,6798.0,0.0,0.0,0.0,0.0,0.125,0.798339762,0.01,0.0,-8279.0,0.0,0.0,-0.0,0.0,0.0,0.443115189,0.01,0.0,5934.0,0.0,0.0,0.0,0.0,0.0,3.2714840400000003,0.01,0.0,-6839.0,0.0,0.0,-0.0,0.0,0.25,1.57470687,0.01,0.0,-0.07999999821186066,-1.2100000381469727,-0.019999999552965164,-0.01300048828125,-0.025634765625,0.7381591796875,36.529998779296875,0.0,2.0,-1.0729522705078125,-0.21929931640625,Waiting,-5.4023460410557185,6.375,-306484.0,-221.0,-1680.0,-1650.0,0.7,3.25,
5.737820999999996,0.0,0.0,6798.0,0.0,0.0,0.0,0.0,0.125,0.799560465,0.01,0.0,-8279.0,0.0,0.0,-0.0,0.0,0.0,0.443115189,0.01,0.0,5934.0,0.0,0.0,0.0,0.0,0.0,3.2702633370000003,0.01,0.0,-6839.0,0.0,0.0,-0.0,0.0,0.25,1.57470687,0.01,0.0,-0.05000000074505806,-1.2599999904632568,-0.019999999552965164,0.020751953125,-0.04229736328125,1.02069091796875,36.529998779296875,0.0,43.0,-1.0745697021484375,-0.2226715087890625,Waiting,-10.629765395894427,14.125,-306744.0,-222.0,-1552.5,-1650.0,0.7,3.125,
5.861673999999883,0.0,0.0,6798.0,0.0,0.0,0.0,0.0,0.125,0.798339762,0.01,0.0,-8279.0,0.0,0.0,-0.0,0.0,0.0,0.443115189,0.01,0.0,5934.0,0.0,0.0,0.0,0.0,0.0,3.2702633370000003,0.01,0.0,-6839.0,0.0,0.0,-0.0,0.0,0.25,1.5759275730000002,0.01,0.0,-0.05000000074505806,-1.2899999618530273,-0.029999999329447746,-0.0491943359375,0.01690673828125,1.350341796875,36.529998779296875,0.0,-18.0,-1.0775299072265625,-0.222991943359375,Waiting,-7.621700879765396,22.125,-306985.0,-198.0,-1545.0,-1650.0,0.7,3.125,
5.977195999999997,0.0,0.0,6798.0,0.0,0.0,0.0,0.0,0.125,0.799560465,0.01,0.0,-8279.0,0.0,0.0,-0.0,0.0,0.0,0.444335892,0.01,0.0,5934.0,0.0,0.0,0.0,0.0,0.0,3.2702633370000003,0.01,0.0,-6839.0,0.0,0.0,-0.0,0.0,0.25,1.5759275730000002,0.01,0.0,-0.05999999865889549,-1.25,-0.019999999552965164,0.0550537109375,0.03564453125,1.14093017578125,36.529998779296875,0.0,79.0,-1.07965087890625,-0.2227020263671875,Waiting,-6.170087976539589,9.25,-307245.0,-214.0,-1650.0,-1650.0,0.7,3.125,
6.095074999999953,0.0,0.0,6798.0,0.0,0.0,0.0,0.0,0.125,0.798339762,0.01,0.0,-8279.0,0.0,0.0,-0.0,0.0,0.0,0.443115189,0.01,0.0,5934.0,0.0,0.0,0.0,0.0,0.0,3.2702633370000003,0.01,0.0,-6839.0,0.0,0.0,-0.0,0.0,0.25,1.5759275730000002,0.01,0.0,0.0,-1.2000000476837158,-0.029999999329447746,-0.0439453125,0.0452880859375,1.1639404296875,36.5,0.0,-19.0,-1.080596923828125,-0.222381591796875,Waiting,-5.356451612903227,5.875,-307515.0,-224.0,-1695.0,-1650.0,0.7,3.25,
6.214210999999894,0.0,0.0,6798.0,0.0,0.0,0.0,0.0,0.125,0.797119059,0.01,0.0,-8279.0,0.0,0.0,-0.0,0.0,0.0,0.443115189,0.01,0.0,5934.0,0.0,0.0,0.0,0.0,0.0,3.2727047430000002,0.01,0.0,-6839.0,0.0,0.0,-0.0,0.0,0.25,1.57470687,0.01,0.0,0.019999999552965164,-1.1399999856948853,-0.029999999329447746,-0.135986328125,-0.04132080078125,0.6181640625,36.5,0.0,-123.0,-1.08599853515625,-0.2234954833984375,Waiting,-5.306940371456501,5.25,-307788.0,-226.0,-1695.0,-1650.0,0.7,3.25,
6.33032899999991,0.0,0.0,6798.0,0.0,0.0,0.0,0.0,0.125,0.798339762,0.01,0.0,-8279.0,0.0,0.0,-0.0,0.0,0.0,0.443115189,0.01,0.0,5934.0,0.0,0.0,0.0,0.0,0.0,3.2714840400000003,0.01,0.0,-6839.0,0.0,0.0,-0.0,0.0,0.25,1.57470687,0.01,0.0,-0.07999999821186066,-1.2100000381469727,-0.019999999552965164,-0.0369873046875,-0.0716552734375,0.6627197265625,36.5,0.0,-22.0,-1.09661865234375,-0.2263946533203125,Waiting,-5.268817204301075,5.0,-308059.0,-226.0,-1695.0,-1650.0,0.7,3.125,
6.44731799999997,0.0,0.0,6798.0,0.0,0.0,0.0,0.0,0.125,0.798339762,0.01,0.0,-8279.0,0.0,0.0,-0.0,0.0,0.0,0.443115189,0.01,0.0,5934.0,0.0,0.0,0.0,0.0,0.0,3.2702633370000003,0.01,0.0,-6839.0,0.0,0.0,-0.0,0.0,0.25,1.57470687,0.01,0.0,-0.09000000357627869,-1.309999942779541,-0.029999999329447746,0.0452880859375,-0.06085205078125,0.9029541015625,36.5,0.0,66.0,-1.11260986328125,-0.232269287109375,Waiting,-5.352639296187683,5.25,-308330.0,-225.0,-1687.5,-1650.0,0.7,3.25,
6.5692029999999795,0.0,0.0,6798.0,0.0,0.0,0.0,0.0,0.125,0.798339762,0.01,0.0,-8279.0,0.0,0.0,-0.0,0.0,0.0,0.443115189,0.01,0.0,5934.0,0.0,0.0,0.0,0.0,0.0,3.2714840400000003,0.01,0.0,-6839.0,0.0,0.0,-0.0,0.0,0.25,1.5759275730000002,0.01,0.0,-0.009999999776482582,-1.2400000095367432,-0.019999999552965164,0.11920166015625,-0.03643798828125,1.056640625,36.5,0.0,142.0,-1.1240234375,-0.2356109619140625,Waiting,-5.292766373411535,5.125,-308600.0,-225.0,-1687.5,-1650.0,0.7,3.125,
6.685775999999838,0.0,0.0,6798.0,0.0,0.0,0.0,0.0,0.125,0.798339762,0.01,0.0,-8279.0,0.0,0.0,-0.0,0.0,0.0,0.443115189,0.01,0.0,5934.0,0.0,0.0,0.0,0.0,0.0,3.2702633370000003,0.01,0.0,-6839.0,0.0,0.0,-0.0,0.0,0.25,1.57470687,0.01,0.0,-0.09000000357627869,-1.2200000286102295,-0.019999999552965164,-0.09356689453125,0.01373291015625,1.12176513671875,36.52000045776367,0.0,-69.0,-1.1328887939453125,-0.2364501953125,Waiting,-5.232893450635386,5.0,-308870.0,-225.0,-1687.5,-1650.0,0.7,3.125,
6.804913999999873,0.0,0.0,6798.0,0.0,0.0,0.0,0.0,0.125,0.798339762,0.01,0.0,-8279.0,0.0,0.0,-0.0,0.0,0.0,0.443115189,0.01,0.0,5934.0,0.0,0.0,0.0,0.0,0.0,3.2714840400000003,0.01,0.0,-6839.0,0.0,0.0,-0.0,0.0,0.25,1.57470687,0.01,0.0,-0.10999999940395355,-1.3200000524520874,-0.029999999329447746,-0.02734375,0.05218505859375,1.18701171875,36.52000045776367,0.0,0.0,-1.1473236083984375,-0.2357940673828125,Waiting,-5.340664711632454,5.375,-309140.0,-224.0,-1680.0,-1650.0,0.7,3.25,
6.926039999999804,0.0,0.0,6798.0,0.0,0.0,0.0,0.0,0.125,0.794677653,0.01,0.0,-8279.0,0.0,0.0,-0.0,0.0,0.0,0.443115189,0.01,0.0,5934.0,0.0,0.0,0.0,0.0,0.0,3.2702633370000003,0.01,0.0,-6839.0,0.0,0.0,-0.0,0.0,0.25,1.57470687,0.01,0.0,0.0,-1.2799999713897705,-0.019999999552965164,0.0614013671875,0.01202392578125,1.2958984375,36.52000045776367,0.0,90.0,-1.16326904296875,-0.2293701171875,Waiting,-5.280791788856305,5.125,-309410.0,-224.0,-1680.0,-1650.0,0.7,3.125,
7.049578999999911,0.0,0.0,6798.0,0.0,0.0,0.0,0.0,0.125,0.798339762,0.01,0.0,-8279.0,0.0,0.0,-0.0,0.0,0.0,0.443115189,0.01,0.0,5934.0,0.0,0.0,0.0,0.0,0.0,3.2714840400000003,0.01,0.0,-6839.0,0.0,0.0,-0.0,0.0,0.25,1.5759275730000002,0.01,0.0,-0.10999999940395355,-1.350000023841858,-0.029999999329447746,0.01953125,-0.030517578125,1.22357177734375,36.52000045776367,0.0,48.0,-1.1739501953125,-0.2285614013671875,Waiting,-5.287683284457478,5.0,-309680.0,-224.0,-1680.0,-1650.0,0.7,3.125,
7.1697899999998045,0.0,0.0,6798.0,0.0,0.0,0.0,0.0,0.125,0.798339762,0.01,0.0,-8279.0,0.0,0.0,-0.0,0.0,0.0,0.444335892,0.01,0.0,5934.0,0.0,0.0,0.0,0.0,0.0,3.2714840400000003,0.01,0.0,-6839.0,0.0,0.0,-0.0,0.0,0.25,1.5759275730000002,0.01,0.0,-0.1599999964237213,-1.2699999809265137,-0.029999999329447746,-0.21002197265625,0.1292724609375,0.8858642578125,36.529998779296875,0.0,-190.0,-1.1810455322265625,-0.2287139892578125,Waiting,0.0,0.0,-309948.0,-224.0,-1665.0,0.0,0.0,0.0,
7.287282999999821,0.0,0.0,6798.0,0.0,0.0,0.0,0.0,0.125,0.798339762,0.01,0.0,-8279.0,0.0,0.0,-0.0,0.0,0.0,0.443115189,0.01,0.0,5934.0,0.0,0.0,0.0,0.0,0.0,3.2714840400000003,0.01,0.0,-6839.0,0.0,0.0,-0.0,0.0,0.25,1.57470687,0.01,0.0,-0.09000000357627869,-1.309999942779541,-0.029999999329447746,-0.09814453125,-0.01690673828125,1.1939697265625,36.529998779296875,0.0,-70.0,-1.187652587890625,-0.2278289794921875,Waiting,0.0,0.0,-310207.0,-217.0,-1597.5,0.0,0.0,0.0,
7.398807999999961,0.0,0.0,6798.0,0.0,0.0,0.0,0.0,0.125,0.799560465,0.01,0.0,-8279.0,0.0,0.0,-0.0,0.0,0.0,0.443115189,0.01,0.0,5934.0,0.0,0.0,0.0,0.0,0.0,3.2702633370000003,0.01,0.0,-6839.0,0.0,0.0,-0.0,0.0,0.25,1.5759275730000002,0.01,0.0,-0.09000000357627869,-1.2899999618530273,-0.03999999910593033,0.0106201171875,-0.10931396484375,0.9599609375,36.529998779296875,0.0,32.0,-1.1929931640625,-0.2259979248046875,Waiting,0.0,0.0,-310454.0,-207.0,-1530.0,0.0,0.0,0.0,
7.5151669999999,0.0,0.0,6798.0,0.0,0.0,0.0,0.0,0.125,0.798339762,0.01,0.0,-8279.0,0.0,0.0,-0.0,0.0,0.0,0.443115189,0.01,0.0,5934.0,0.0,0.0,0.0,0.0,0.0,3.2714840400000003,0.01,0.0,-6839.0,0.0,0.0,-0.0,0.0,0.25,1.57470687,0.01,0.0,-0.07000000029802322,-1.2400000095367432,-0.03999999910593033,0.02752685546875,-0.0621337890625,0.96307373046875,36.529998779296875,0.0,48.0,-1.1972808837890625,-0.225189208984375,Waiting,0.0,0.0,-310688.0,-197.0,-1447.5,0.0,0.0,0.0,
7.63328199999989,0.0,0.0,6798.0,0.0,0.0,0.0,0.0,0.125,0.798339762,0.01,0.0,-8279.0,0.0,0.0,-0.0,0.0,0.0,0.443115189,0.01,0.0,5934.0,0.0,0.0,0.0,0.0,0.0,3.2714840400000003,0.01,0.0,-6839.0,0.0,0.0,-0.0,0.0,0.25,1.57470687,0.01,0.0,0.029999999329447746,-1.2400000095367432,-0.05000000074505806,-0.055908203125,-0.1466064453125,1.0594482421875,36.529998779296875,0.0,-32.0,-1.2041778564453125,-0.2246551513671875,Waiting,0.0,0.125,-310911.0,-187.0,-1380.0,0.0,0.0,0.0,
7.752210999999894,0.0,0.0,6798.0,0.0,0.0,0.0,0.0,0.125,0.798339762,0.01,0.0,-8279.0,0.0,0.0,-0.0,0.0,0.0,0.443115189,0.01,0.0,5934.0,0.0,0.0,0.0,0.0,0.0,3.2714840400000003,0.01,0.0,-6839.0,0.0,0.0,-0.0,0.0,0.25,1.57470687,0.01,0.0,-0.009999999776482582,-1.2799999713897705,-0.05000000074505806,0.01580810546875,-0.0924072265625,1.02374267578125,36.529998779296875,0.0,38.0,-1.210662841796875,-0.2235107421875,Waiting,0.0,0.0,-311122.0,-177.0,-1305.0,0.0,0.0,0.0,
7.872462999999989,0.0,0.0,6798.0,0.0,0.0,0.0,0.0,0.125,0.798339762,0.01,0.0,-8279.0,0.0,0.0,-0.0,0.0,0.0,0.443115189,0.01,0.0,5934.0,0.0,0.0,0.0,0.0,0.0,3.2714840400000003,0.01,0.0,-6839.0,0.0,0.0,-0.0,0.0,0.25,1.5759275730000002,0.01,0.0,-0.029999999329447746,-1.2999999523162842,-0.05000000074505806,-0.00469970703125,0.099853515625,1.196044921875,36.529998779296875,0.0,22.0,-1.216644287109375,-0.223358154296875,Waiting,0.0,0.125,-311323.0,-168.0,-1252.5,0.0,0.0,0.0,
7.986160999999847,0.0,0.0,6798.0,0.0,0.0,0.0,0.0,0.125,0.798339762,0.01,0.0,-8279.0,0.0,0.0,-0.0,0.0,0.0,0.44189448600000003,0.01,0.0,5934.0,0.0,0.0,0.0,0.0,0.0,3.2714840400000003,0.01,0.0,-6839.0,0.0,0.0,-0.0,0.0,0.25,1.5759275730000002,0.01,0.0,-0.029999999329447746,-1.3200000524520874,-0.05000000074505806,-0.06207275390625,0.12286376953125,0.96148681640625,36.529998779296875,0.0,-40.0,-1.2234039306640625,-0.2240447998046875,Waiting,0.0,0.0,-311512.0,-159.0,-1177.5,0.0,0.0,0.0,
8.102858999999938,0.0,0.0,6798.0,0.0,0.0,0.0,0.0,0.125,0.798339762,0.01,0.0,-8279.0,0.0,0.0,-0.0,0.0,0.0,0.443115189,0.01,0.0,5934.0,0.0,0.0,0.0,0.0,0.0,3.2714840400000003,0.01,0.0,-6839.0,0.0,0.0,-0.0,0.0,0.25,1.57470687,0.01,0.0,0.009999999776482582,-1.2899999618530273,-0.05000000074505806,-0.00860595703125,-0.0389404296875,0.955810546875,36.529998779296875,0.0,12.0,-1.2288055419921875,-0.22503662109375,Waiting,0.0,0.125,-311691.0,-150.0,-1110.0,0.0,0.0,0.0,
8.225462999999989,0.0,0.0,6798.0,0.0,0.0,0.0,0.0,0.125,0.798339762,0.01,0.0,-8279.0,0.0,0.0,-0.0,0.0,0.0,0.443115189,0.01,0.0,5934.0,0.0,0.0,0.0,0.0,0.0,3.2714840400000003,0.01,0.0,-6839.0,0.0,0.0,-0.0,0.0,0.25,1.5759275730000002,0.01,0.0,0.019999999552965164,-1.2799999713897705,-0.05000000074505806,-0.061767578125,-0.0634765625,0.92962646484375,36.529998779296875,0.0,-40.0,-1.22882080078125,-0.2251739501953125,Waiting,0.0,0.125,-311860.0,-142.0,-1057.5,0.0,0.0,0.0,
8.335500999999931,0.0,0.0,6798.0,0.0,0.0,0.0,0.0,0.125,0.798339762,0.01,0.0,-8279.0,0.0,0.0,-0.0,0.0,0.0,0.443115189,0.01,0.0,5934.0,0.0,0.0,0.0,0.0,0.0,3.2714840400000003,0.01,0.0,-6839.0,0.0,0.0,-0.0,0.0,0.25,1.57470687,0.01,0.0,0.019999999552965164,-1.2799999713897705,-0.05000000074505806,0.03668212890625,-0.00140380859375,0.89483642578125,36.529998779296875,0.0,56.0,-1.22857666015625,-0.22503662109375,Waiting,0.0,0.0,-312019.0,-133.0,-990.0,0.0,0.0,0.125,
8.45200599999982,0.0,0.0,6798.0,0.0,0.0,0.0,0.0,0.125,0.798339762,0.01,0.0,-8279.0,0.0,0.0,-0.0,0.0,0.0,0.443115189,0.01,0.0,5934.0,0.0,0.0,0.0,0.0,0.0,3.2714840400000003,0.01,0.0,-6839.0,0.0,0.0,-0.0,0.0,0.25,1.5759275730000002,0.01,0.0,0.03999999910593033,-1.2599999904632568,-0.05999999865889549,-0.04705810546875,0.01226806640625,0.95977783203125,36.529998779296875,0.0,-25.0,-1.2264862060546875,-0.2249603271484375,Waiting,0.0,0.0,-312168.0,-125.0,-937.5,0.0,0.0,0.0,
8.573613999999827,0.0,0.0,6798.0,0.0,0.0,0.0,0.0,0.125,0.798339762,0.01,0.0,-8279.0,0.0,0.0,-0.0,0.0,0.0,0.443115189,0.01,0.0,5934.0,0.0,0.0,0.0,0.0,0.0,3.2702633370000003,0.01,0.0,-6839.0,0.0,0.0,-0.0,0.0,0.25,1.5759275730000002,0.01,0.0,0.03999999910593033,-1.25,-0.07000000029802322,0.02392578125,-0.02716064453125,0.95574951171875,36.529998779296875,0.0,44.0,-1.2240753173828125,-0.2251434326171875,Waiting,0.0,0.0,-312307.0,-117.0,-870.0,0.0,0.0,0.0,
8.690083999999798,0.0,0.0,6798.0,0.0,0.0,0.0,0.0,0.125,0.798339762,0.01,0.0,-8279.0,0.0,0.0,-0.0,0.0,0.0,0.443115189,0.01,0.0,5934.0,0.0,0.0,0.0,0.0,0.0,3.2714840400000003,0.01,0.0,-6839.0,0.0,0.0,-0.0,0.0,0.25,1.5759275730000002,0.01,0.0,0.029999999329447746,-1.2400000095367432,-0.05999999865889549,-0.0257568359375,-0.0020751953125,0.8819580078125,36.540000915527344,0.0,-6.0,-1.2220306396484375,-0.2259979248046875,Waiting,0.0,0.125,-312437.0,-109.0,-817.5,0.0,0.0,0.0,
8.80647499999986,0.0,0.0,6798.0,0.0,0.0,0.0,0.0,0.125,0.798339762,0.01,0.0,-8279.0,0.0,0.0,-0.0,0.0,0.0,0.443115189,0.01,0.0,5934.0,0.0,0.0,0.0,0.0,0.0,3.2714840400000003,0.01,0.0,-6839.0,0.0,0.0,-0.0,0.0,0.25,1.57470687,0.01,0.0,0.07000000029802322,-1.2599999904632568,-0.07000000029802322,0.00189208984375,0.03302001953125,1.0823974609375,36.540000915527344,0.0,25.0,-1.222259521484375,-0.2270965576171875,Waiting,0.0,0.125,-312557.0,-101.0,-757.5,0.0,0.0,0.0,
8.924310999999987,0.0,0.0,6798.0,0.0,0.0,0.0,0.0,0.125,0.799560465,0.01,0.0,-8279.0,0.0,0.0,-0.0,0.0,0.0,0.443115189,0.01,0.0,5934.0,0.0,0.0,0.0,0.0,0.0,3.2702633370000003,0.01,0.0,-6839.0,0.0,0.0,-0.0,0.0,0.25,1.57470687,0.01,0.0,0.05000000074505806,-1.2599999904632568,-0.05999999865889549,-0.02685546875,-0.033935546875,1.071533203125,36.540000915527344,0.0,-3.0,-1.221588134765625,-0.22802734375,Waiting,0.0,0.125,-312668.0,-93.0,-690.0,0.0,0.0,0.0,
9.03999599999981,0.0,0.0,6798.0,0.0,0.0,0.0,0.0,0.125,0.798339762,0.01,0.0,-8279.0,0.0,0.0,-0.0,0.0,0.0,0.443115189,0.01,0.0,5934.0,0.0,0.0,0.0,0.0,0.0,3.2714840400000003,0.01,0.0,-6839.0,0.0,0.0,-0.0,0.0,0.25,1.57470687,0.01,0.0,0.029999999329447746,-1.2799999713897705,-0.07000000029802322,-0.02191162109375,-0.013671875,1.0546875,36.540000915527344,0.0,1.0,-1.2216796875,-0.2291717529296875,Waiting,0.0,0.0,-312769.0,-85.0,-645.0,0.0,0.0,0.0,
9.155219999999971,0.0,0.0,6798.0,0.0,0.0,0.0,0.0,0.125,0.798339762,0.01,0.0,-8279.0,0.0,0.0,-0.0,0.0,0.0,0.444335892,0.01,0.0,5934.0,0.0,0.0,0.0,0.0,0.0,3.2702633370000003,0.01,0.0,-6839.0,0.0,0.0,-0.0,0.0,0.25,1.5759275730000002,0.01,0.0,0.05000000074505806,-1.2400000095367432,-0.07000000029802322,-0.00103759765625,-0.00341796875,1.02215576171875,36.52000045776367,0.0,21.0,-1.2213134765625,-0.2291259765625,Waiting,0.0,0.125,-312861.0,-78.0,-585.0,0.0,0.0,0.0,
9.285730999999913,0.0,0.0,6798.0,0.0,0.0,0.0,0.0,0.125,0.799560465,0.01,0.0,-8279.0,0.0,0.0,-0.0,0.0,0.0,0.443115189,0.01,0.0,5934.0,0.0,0.0,0.0,0.0,0.0,3.2714840400000003,0.01,0.0,-6839.0,0.0,0.0,-0.0,0.0,0.25,1.57470687,0.01,0.0,0.07000000029802322,-1.2200000286102295,-0.07000000029802322,-0.03125,-0.01397705078125,1.022216796875,36.52000045776367,0.0,-9.0,-1.2213897705078125,-0.2292022705078125,Waiting,0.0,0.125,-312945.0,-71.0,-525.0,0.0,0.0,0.0,
9.395423999999883,0.0,0.0,6798.0,0.0,0.0,0.0,0.0,0.125,0.798339762,0.01,0.0,-8279.0,0.0,0.0,-0.0,0.0,0.0,0.443115189,0.01,0.0,5934.0,0.0,0.0,0.0,0.0,0.0,3.2714840400000003,0.01,0.0,-6839.0,0.0,0.0,-0.0,0.0,0.25,1.5759275730000002,0.01,0.0,0.07000000029802322,-1.2000000476837158,-0.07000000029802322,-0.0086669921875,0.00274658203125,1.014404296875,36.52000045776367,0.0,12.0,-1.2216339111328125,-0.2291717529296875,Waiting,0.0,0.125,-313020.0,-63.0,-480.0,0.0,0.0,0.0,
9.514879999999888,0.0,0.0,6798.0,0.0,0.0,0.0,0.0,0.125,0.798339762,0.01,0.0,-8279.0,0.0,0.0,-0.0,0.0,0.0,0.443115189,0.01,0.0,5934.0,0.0,0.0,0.0,0.0,0.0,3.2702633370000003,0.01,0.0,-6839.0,0.0,0.0,-0.0,0.0,0.25,1.5759275730000002,0.01,0.0,0.05999999865889549,-1.2200000286102295,-0.07000000029802322,0.01593017578125,-0.0263671875,1.03271484375,36.52000045776367,0.0,38.0,-1.2216796875,-0.2293701171875,Waiting,0.0,0.125,-313087.0,-56.0,-420.0,0.0,0.0,0.0,
9.63513599999994,0.0,0.0,6798.0,0.0,0.0,0.0,0.0,0.125,0.799560465,0.01,0.0,-8279.0,0.0,0.0,-0.0,0.0,0.0,0.443115189,0.01,0.0,5934.0,0.0,0.0,0.0,0.0,0.0,3.2727047430000002,0.01,0.0,-6839.0,0.0,0.0,-0.0,0.0,0.25,1.57470687,0.01,0.0,0.009999999776482582,-1.2599999904632568,-0.07000000029802322,-0.03564453125,0.01007080078125,0.973388671875,36.52000045776367,0.0,-14.0,-1.2217559814453125,-0.2293548583984375,Waiting,0.0,0.0,-313144.0,-49.0,-367.5,0.0,0.0,0.0,
9.759665999999969,0.0,0.0,6798.0,0.0,0.0,0.0,0.0,0.125,0.798339762,0.01,0.0,-8279.0,0.0,0.0,-0.0,0.0,0.0,0.443115189,0.01,0.0,5934.0,0.0,0.0,0.0,0.0,0.0,3.2702633370000003,0.01,0.0,-6839.0,0.0,0.0,-0.0,0.0,0.25,1.57470687,0.01,0.0,0.019999999552965164,-1.2400000095367432,-0.07000000029802322,0.015869140625,0.016845703125,1.126220703125,36.529998779296875,0.0,40.0,-1.2215728759765625,-0.2293243408203125,Waiting,-10.4,66.25,-313215.0,-52.0,-420.0,-1650.0,0.0,0.0,
9.888483999999938,0.0,0.0,6798.0,0.0,0.0,0.0,0.0,0.125,0.798339762,0.01,0.0,-8279.0,0.0,0.0,-0.0,0.0,0.0,0.443115189,0.01,0.0,5934.0,0.0,0.0,0.0,0.0,0.0,3.2714840400000003,0.01,0.0,-6839.0,0.0,0.0,-0.0,0.0,0.25,1.5759275730000002,0.01,0.0,0.0,-1.25,-0.07999999821186066,-0.0318603515625,0.05364990234375,1.14593505859375,36.529998779296875,0.0,-6.0,-1.22076416015625,-0.2295379638671875,Waiting,-10.5,61.125,-313343.0,-98.0,-787.5,-1650.0,0.0,0.0,
10.013585999999894,0.0,0.0,6798.0,0.0,0.0,0.0,0.0,0.125,0.798339762,0.01,0.0,-8279.0,0.0,0.0,-0.0,0.0,0.0,0.443115189,0.01,0.0,5934.0,0.0,0.0,0.0,0.0,0.0,3.2714840400000003,0.01,0.0,-6839.0,0.0,0.0,-0.0,0.0,0.25,1.57470687,0.01,0.0,0.029999999329447746,-1.2100000381469727,-0.07999999821186066,7.9345703125E-4,-0.06689453125,1.019775390625,36.529998779296875,0.0,22.0,-1.2202606201171875,-0.2296295166015625,Waiting,-10.384995112414467,57.0,-313522.0,-142.0,-1117.5,-1650.0,0.0,0.0,
10.135941999999806,0.0,0.0,6798.0,0.0,0.0,0.0,0.0,0.125,0.798339762,0.01,0.0,-8279.0,0.0,0.0,-0.0,0.0,0.0,0.444335892,0.01,0.0,5934.0,0.0,0.0,0.0,0.0,0.0,3.2714840400000003,0.01,0.0,-6839.0,0.0,0.0,-0.0,0.0,0.25,1.5759275730000002,0.01,0.0,0.0,-1.2300000190734863,-0.07999999821186066,-0.10540771484375,0.1212158203125,0.52117919921875,36.529998779296875,0.0,-94.0,-1.2194976806640625,-0.2299041748046875,Waiting,-6.831671554252199,37.0,-313744.0,-179.0,-1402.5,-1650.0,0.0,0.0,
10.260070999999996,0.0,0.0,6798.0,0.0,0.0,0.0,0.0,0.125,0.798339762,0.01,0.0,-8279.0,0.0,0.0,-0.0,0.0,0.0,0.443115189,0.01,0.0,5934.0,0.0,0.0,0.0,0.0,0.0,3.2714840400000003,0.01,0.0,-6839.0,0.0,0.0,-0.0,0.0,0.25,1.5759275730000002,0.01,0.0,0.029999999329447746,-1.2599999904632568,-0.07999999821186066,0.078369140625,0.0443115234375,1.25732421875,36.5,0.0,106.0,-1.2189178466796875,-0.2293548583984375,Waiting,-6.328054740957967,12.625,-313996.0,-206.0,-1582.5,-1650.0,0.0,0.0,
10.390460999999894,0.0,0.0,6798.0,0.0,0.0,0.0,0.0,0.125,0.798339762,0.01,0.0,-8279.0,0.0,0.0,-0.0,0.0,0.0,0.443115189,0.01,0.0,5934.0,0.0,0.0,0.0,0.0,0.0,3.2714840400000003,0.01,0.0,-6839.0,0.0,0.0,-0.0,0.0,0.25,1.5759275730000002,0.01,0.0,0.05000000074505806,-1.25,-0.07999999821186066,0.0048828125,0.00469970703125,0.877685546875,36.5,0.0,24.0,-1.2187652587890625,-0.2288818359375,Waiting,-5.400537634408602,6.25,-314260.0,-218.0,-1650.0,-1650.0,0.0,0.0,
10.512409999999916,0.0,0.0,6798.0,0.0,0.0,0.0,0.0,0.125,0.799560465,0.01,0.0,-8279.0,0.0,0.0,-0.0,0.0,0.0,0.443115189,0.01,0.0,5934.0,0.0,0.0,0.0,0.0,0.0,3.2714840400000003,0.01,0.0,-6839.0,0.0,0.0,-0.0,0.0,0.25,1.5759275730000002,0.01,0.0,0.029999999329447746,-1.2000000476837158,-0.07999999821186066,-0.0159912109375,-0.04541015625,0.99853515625,36.5,0.0,5.0,-1.21661376953125,-0.2290802001953125,Waiting,-5.142815249266862,4.75,-314526.0,-221.0,-1665.0,-1650.0,0.0,0.125,
10.635102999999887,0.0,0.0,6798.0,0.0,0.0,0.0,0.0,0.125,0.798339762,0.01,0.0,-8279.0,0.0,0.0,-0.0,0.0,0.0,0.443115189,0.01,0.0,5934.0,0.0,0.0,0.0,0.0,0.0,3.2714840400000003,0.01,0.0,-6839.0,0.0,0.0,-0.0,0.0,0.25,1.57470687,0.01,0.0,0.07000000029802322,-1.2100000381469727,-0.07999999821186066,0.02557373046875,0.0677490234375,1.2210693359375,36.5,0.0,51.0,-1.2156829833984375,-0.2308502197265625,Waiting,-5.13939393939394,4.75,-314793.0,-222.0,-1665.0,-1650.0,0.0,0.0,
10.753923999999882,0.0,0.0,6798.0,0.0,0.0,0.0,0.0,0.125,0.798339762,0.01,0.0,-8279.0,0.0,0.0,-0.0,0.0,0.0,0.443115189,0.01,0.0,5934.0,0.0,0.0,0.0,0.0,0.0,3.2702633370000003,0.01,0.0,-6839.0,0.0,0.0,-0.0,0.0,0.25,1.5759275730000002,0.01,0.0,0.05999999865889549,-1.2400000095367432,-0.07999999821186066,-0.025634765625,0.033203125,1.32891845703125,36.529998779296875,0.0,3.0,-1.2135009765625,-0.2298736572265625,Waiting,-5.094525904203324,4.5,-315059.0,-222.0,-1665.0,-1650.0,0.0,0.0,
10.888863999999828,0.0,0.0,6798.0,0.0,0.0,0.0,0.0,0.125,0.798339762,0.01,0.0,-8279.0,0.0,0.0,-0.0,0.0,0.0,0.443115189,0.01,0.0,5934.0,0.0,0.0,0.0,0.0,0.0,3.2702633370000003,0.01,0.0,-6839.0,0.0,0.0,-0.0,0.0,0.25,1.568603355,0.01,0.0,0.05999999865889549,-1.2000000476837158,-0.07999999821186066,-0.06011962890625,-0.12445068359375,0.7052001953125,36.529998779296875,0.0,-45.0,-1.2109375,-0.229736328125,Waiting,-5.248484848484848,5.125,-315326.0,-221.0,-1657.5,-1650.0,0.0,0.0,
11.013378999999958,0.0,0.0,6798.0,0.0,0.0,0.0,0.0,0.125,0.798339762,0.01,0.0,-8279.0,0.0,0.0,-0.0,0.0,0.0,0.443115189,0.01,0.0,5934.0,0.0,0.0,0.0,0.0,0.0,3.2714840400000003,0.01,0.0,-6839.0,0.0,0.0,-0.0,0.0,0.25,1.57470687,0.01,0.0,0.12999999523162842,-1.149999976158142,-0.09000000357627869,-0.0804443359375,-0.0643310546875,0.897705078125,36.529998779296875,0.0,-62.0,-1.2099151611328125,-0.230621337890625,Waiting,-5.078787878787879,4.625,-315592.0,-221.0,-1665.0,-1650.0,0.0,0.125,
11.139209999999963,0.0,0.0,6798.0,0.0,0.0,0.0,0.0,0.125,0.798339762,0.01,0.0,-8279.0,0.0,0.0,-0.0,0.0,0.0,0.443115189,0.01,0.0,5934.0,0.0,0.0,0.0,0.0,0.0,3.2714840400000003,0.01,0.0,-6839.0,0.0,0.0,-0.0,0.0,0.25,1.5759275730000002,0.01,0.0,0.09000000357627869,-1.2200000286102295,-0.07999999821186066,-0.01824951171875,0.05023193359375,1.12200927734375,36.529998779296875,0.0,5.0,-1.20892333984375,-0.230865478515625,Waiting,-5.1280547409579675,4.75,-315858.0,-221.0,-1657.5,-1650.0,0.7,3.375,
11.256701999999816,0.0,0.0,6798.0,0.0,0.0,0.0,0.0,0.125,0.798339762,0.01,0.0,-8279.0,0.0,0.0,-0.0,0.0,0.0,0.443115189,0.01,0.0,5934.0,0.0,0.0,0.0,0.0,0.0,3.2714840400000003,0.01,0.0,-6839.0,0.0,0.0,-0.0,0.0,0.25,1.5759275730000002,0.01,0.0,0.07999999821186066,-1.2300000190734863,-0.07999999821186066,0.01263427734375,-0.00482177734375,1.12811279296875,36.54999923706055,0.0,36.0,-1.20751953125,-0.229156494140625,Waiting,-5.137096774193548,4.875,-316126.0,-221.0,-1657.5,-1650.0,0.7,3.125,
11.375089999999851,0.0,0.0,6798.0,0.0,0.0,0.0,0.0,0.125,0.798339762,0.01,0.0,-8279.0,0.0,0.0,-0.0,0.0,0.0,0.443115189,0.01,0.0,5934.0,0.0,0.0,0.0,0.0,0.0,3.2702633370000003,0.01,0.0,-6839.0,0.0,0.0,-0.0,0.0,0.25,1.5759275730000002,0.01,0.0,0.10000000149011612,-1.2000000476837158,-0.09000000357627869,-0.1258544921875,-0.03900146484375,0.83758544921875,36.54999923706055,0.0,-108.0,-1.208343505859375,-0.2299346923828125,Waiting,-5.1460410557184755,4.75,-316390.0,-221.0,-1657.5,-1650.0,0.7,3.25,
11.493461999999825,0.0,0.0,6798.0,0.0,0.0,0.0,0.0,0.125,0.798339762,0.01,0.0,-8279.0,0.0,0.0,-0.0,0.0,0.0,0.443115189,0.01,0.0,5934.0,0.0,0.0,0.0,0.0,0.0,3.2702633370000003,0.01,0.0,-6839.0,0.0,0.0,-0.0,0.0,0.25,1.5832517910000001,0.01,0.0,0.07999999821186066,-1.2100000381469727,-0.09000000357627869,0.02325439453125,-0.04083251953125,0.91802978515625,36.54999923706055,0.0,42.0,-1.2124786376953125,-0.233428955078125,Waiting,-5.134017595307919,4.625,-316656.0,-221.0,-1657.5,-1650.0,0.7,3.125,
11.610826999999816,0.0,0.0,6798.0,0.0,0.0,0.0,0.0,0.125,0.797119059,0.01,0.0,-8279.0,0.0,0.0,-0.0,0.0,0.0,0.443115189,0.01,0.0,5934.0,0.0,0.0,0.0,0.0,0.0,3.2714840400000003,0.01,0.0,-6839.0,0.0,0.0,-0.0,0.0,0.25,1.57470687,0.01,0.0,0.05000000074505806,-1.2300000190734863,-0.09000000357627869,-0.09014892578125,0.02294921875,1.094970703125,36.54999923706055,0.0,-66.0,-1.2149810791015625,-0.239990234375,Waiting,-5.10117302052786,4.625,-316922.0,-221.0,-1657.5,-1650.0,0.7,3.125,
11.730466999999946,0.0,0.0,6798.0,0.0,0.0,0.0,0.0,0.125,0.798339762,0.01,0.0,-8279.0,0.0,0.0,-0.0,0.0,0.0,0.443115189,0.01,0.0,5934.0,0.0,0.0,0.0,0.0,0.0,3.2714840400000003,0.01,0.0,-6839.0,0.0,0.0,-0.0,0.0,0.25,1.57470687,0.01,0.0,0.07999999821186066,-1.2200000286102295,-0.09000000357627869,-0.00750732421875,-0.00897216796875,0.88037109375,36.5099983215332,0.0,11.0,-1.2191009521484375,-0.24407958984375,Waiting,-5.130742913000978,4.5,-317188.0,-221.0,-1657.5,-1650.0,0.7,3.125,
11.845856999999844,0.0,0.0,6798.0,0.0,0.0,0.0,0.0,0.125,0.798339762,0.01,0.0,-8279.0,0.0,0.0,-0.0,0.0,0.0,0.443115189,0.01,0.0,5934.0,0.0,0.0,0.0,0.0,0.0,3.2714840400000003,0.01,0.0,-6839.0,0.0,0.0,-0.0,0.0,0.25,1.57470687,0.01,0.0,0.05999999865889549,-1.2400000095367432,-0.10000000149011612,-0.04595947265625,0.012939453125,1.05584716796875,36.5099983215332,0.0,-23.0,-1.2198638916015625,-0.2451171875,Waiting,-5.097947214076247,4.375,-317457.0,-222.0,-1657.5,-1650.0,0.7,3.0,
11.957851999999955,0.0,0.0,6798.0,0.0,0.0,0.0,0.0,0.125,0.798339762,0.01,0.0,-8279.0,0.0,0.0,-0.0,0.0,0.0,0.443115189,0.01,0.0,5934.0,0.0,0.0,0.0,0.0,0.0,3.278808258,0.01,0.0,-6839.0,0.0,0.0,-0.0,0.0,0.25,1.5759275730000002,0.01,0.0,0.019999999552965164,-1.2599999904632568,-0.09000000357627869,0.04205322265625,-0.128662109375,0.95330810546875,36.5099983215332,0.0,63.0,-1.222900390625,-0.247100830078125,Waiting,-4.941642228739003,5.25,-317721.0,-221.0,-1657.5,-1650.0,0.7,3.125,
12.08237599999993,0.0,0.0,6798.0,0.0,0.0,0.0,0.0,0.125,0.798339762,0.01,0.0,-8279.0,0.0,0.0,-0.0,0.0,0.0,0.443115189,0.01,0.0,5934.0,0.0,0.0,0.0,0.0,0.0,3.2739254460000002,0.01,0.0,-6839.0,0.0,0.0,-0.0,0.0,0.25,1.5759275730000002,0.01,0.0,0.05999999865889549,-1.2000000476837158,-0.09000000357627869,-0.0709228515625,0.01617431640625,1.03277587890625,36.5099983215332,0.0,22.0,-1.2265625,-0.2538299560546875,Waiting,-5.061876832844575,4.375,-317987.0,-221.0,-1657.5,-1650.0,0.7,3.25,
12.206202999999979,0.0,0.0,6798.0,0.0,0.0,0.0,0.0,0.125,0.799560465,0.01,0.0,-8279.0,0.0,0.0,-0.0,0.0,0.0,0.443115189,0.01,0.0,5934.0,0.0,0.0,0.0,0.0,0.0,3.2702633370000003,0.01,0.0,-6839.0,0.0,0.0,-0.0,0.0,0.25,1.5759275730000002,0.01,0.0,0.10000000149011612,-1.2000000476837158,-0.10000000149011612,-0.020751953125,0.0355224609375,0.8056640625,36.54999923706055,0.0,-3.0,-1.22979736328125,-0.2544708251953125,Waiting,-5.0498533724340176,4.25,-318254.0,-221.0,-1657.5,-1650.0,0.7,3.25,
12.328201999999816,0.0,0.0,6798.0,0.0,0.0,0.0,0.0,0.125,0.798339762,0.01,0.0,-8279.0,0.0,0.0,-0.0,0.0,0.0,0.443115189,0.01,0.0,5934.0,0.0,0.0,0.0,0.0,0.0,3.2702633370000003,0.01,0.0,-6839.0,0.0,0.0,-0.0,0.0,0.25,1.57470687,0.01,0.0,0.07000000029802322,-1.2400000095367432,-0.10000000149011612,-0.02716064453125,7.32421875E-4,1.19305419921875,36.54999923706055,0.0,-1.0,-1.231231689453125,-0.25274658203125,Waiting,-5.0378299120234615,4.25,-318520.0,-222.0,-1657.5,-1650.0,0.7,3.125,
12.447669999999926,0.0,0.0,6798.0,0.0,0.0,0.0,0.0,0.125,0.798339762,0.01,0.0,-8279.0,0.0,0.0,-0.0,0.0,0.0,0.443115189,0.01,0.0,5934.0,0.0,0.0,0.0,0.0,0.0,3.2714840400000003,0.01,0.0,-6839.0,0.0,0.0,-0.0,0.0,0.25,1.57470687,0.01,0.0,0.07000000029802322,-1.25,-0.10000000149011612,-0.01202392578125,-0.05377197265625,0.8900146484375,36.54999923706055,0.0,7.0,-1.233001708984375,-0.253082275390625,Waiting,-5.191104594330401,4.625,-318785.0,-221.0,-1650.0,-1650.0,0.7,3.125,
12.56253199999989,0.0,0.0,6798.0,0.0,0.0,0.0,0.0,0.125,0.798339762,0.01,0.0,-8279.0,0.0,0.0,-0.0,0.0,0.0,0.443115189,0.01,0.0,5934.0,0.0,0.0,0.0,0.0,0.0,3.2702633370000003,0.01,0.0,-6839.0,0.0,0.0,-0.0,0.0,0.25,1.5759275730000002,0.01,0.0,0.07000000029802322,-1.25,-0.10000000149011612,-0.0692138671875,0.01806640625,1.1353759765625,36.54999923706055,0.0,-44.0,-1.2319488525390625,-0.255035400390625,Waiting,-5.3263929618768335,5.375,-319049.0,-219.0,-1642.5,-1650.0,0.7,3.125,
12.682787000000012,0.0,0.0,6798.0,0.0,0.0,0.0,0.0,0.125,0.8020018710000001,0.01,0.0,-8279.0,0.0,0.0,-0.0,0.0,0.0,0.443115189,0.01,0.0,5934.0,0.0,0.0,0.0,0.0,0.0,3.2702633370000003,0.01,0.0,-6839.0,0.0,0.0,-0.0,0.0,0.25,1.5759275730000002,0.01,0.0,0.07999999821186066,-1.2599999904632568,-0.10000000149011612,-0.0316162109375,0.01123046875,0.93548583984375,36.54999923706055,0.0,-11.0,-1.2325439453125,-0.2573089599609375,Waiting,-5.161045943304008,5.25,-319313.0,-219.0,-1650.0,-1650.0,0.7,3.25,
12.794897999999812,0.0,0.0,6798.0,0.0,0.0,0.0,0.0,0.125,0.798339762,0.01,0.0,-8279.0,0.0,0.0,-0.0,0.0,0.0,0.44189448600000003,0.01,0.0,5934.0,0.0,0.0,0.0,0.0,0.0,3.2714840400000003,0.01,0.0,-6839.0,0.0,0.0,-0.0,0.0,0.25,1.57470687,0.01,0.0,0.05999999865889549,-1.2400000095367432,-0.10000000149011612,-0.1080322265625,0.01751708984375,0.859130859375,36.5099983215332,0.0,-89.0,-1.2319488525390625,-0.25927734375,Waiting,-5.161045943304008,4.875,-319577.0,-220.0,-1650.0,-1650.0,0.7,3.25,
12.913398999999975,0.0,0.0,6798.0,0.0,0.0,0.0,0.0,0.125,0.798339762,0.01,0.0,-8279.0,0.0,0.0,-0.0,0.0,0.0,0.445556595,0.01,0.0,5934.0,0.0,0.0,0.0,0.0,0.0,3.2702633370000003,0.01,0.0,-6839.0,0.0,0.0,-0.0,0.0,0.25,1.5759275730000002,0.01,0.0,0.05999999865889549,-1.2300000190734863,-0.10000000149011612,-0.02496337890625,-0.05194091796875,0.901123046875,36.5099983215332,0.0,-5.0,-1.2317962646484375,-0.261566162109375,Waiting,-5.33841642228739,5.375,-319841.0,-219.0,-1642.5,-1650.0,0.7,3.25,
13.037066999999807,0.0,0.0,6798.0,0.0,0.0,0.0,0.0,0.125,0.799560465,0.01,0.0,-8279.0,0.0,0.0,-0.0,0.0,0.0,0.444335892,0.01,0.0,5934.0,0.0,0.0,0.0,0.0,0.0,3.2714840400000003,0.01,0.0,-6839.0,0.0,0.0,-0.0,0.0,0.25,1.5759275730000002,0.01,0.0,0.05000000074505806,-1.2599999904632568,-0.10999999940395355,0.01141357421875,0.053466796875,1.2119140625,36.5099983215332,0.0,37.0,-1.229644775390625,-0.262786865234375,Waiting,-5.206158357771262,4.875,-320105.0,-220.0,-1650.0,-1650.0,0.7,3.125,
13.165935999999986,0.0,0.0,6798.0,0.0,0.0,0.0,0.0,0.125,0.798339762,0.01,0.0,-8279.0,0.0,0.0,-0.0,0.0,0.0,0.443115189,0.01,0.0,5934.0,0.0,0.0,0.0,0.0,0.0,3.2702633370000003,0.01,0.0,-6839.0,0.0,0.0,-0.0,0.0,0.25,1.57470687,0.01,0.0,0.05000000074505806,-1.2599999904632568,-0.10999999940395355,-0.023681640625,0.08660888671875,1.2049560546875,36.5099983215332,0.0,2.0,-1.22613525390625,-0.2606353759765625,Waiting,-5.184995112414467,4.875,-320372.0,-220.0,-1650.0,-1650.0,0.7,3.125,
13.285769999999786,0.0,0.0,6798.0,0.0,0.0,0.0,0.0,0.125,0.798339762,0.01,0.0,-8279.0,0.0,0.0,-0.0,0.0,0.0,0.443115189,0.01,0.0,5934.0,0.0,0.0,0.0,0.0,0.0,3.2751461490000002,0.01,0.0,-6839.0,0.0,0.0,-0.0,0.0,0.25,1.5783689790000002,0.01,0.0,0.029999999329447746,-1.2699999809265137,-0.10999999940395355,0.05426025390625,0.03125,1.0440673828125,36.529998779296875,0.0,77.0,-1.224029541015625,-0.25775146484375,Waiting,-5.184995112414467,5.0,-320633.0,-219.0,-1650.0,-1650.0,0.7,3.25,
13.396829999999841,0.0,0.0,6798.0,0.0,0.0,0.0,0.0,0.125,0.798339762,0.01,0.0,-8279.0,0.0,0.0,-0.0,0.0,0.0,0.443115189,0.01,0.0,5934.0,0.0,0.0,0.0,0.0,0.0,3.2714840400000003,0.01,0.0,-6839.0,0.0,0.0,-0.0,0.0,0.25,1.5759275730000002,0.01,0.0,0.03999999910593033,-1.2599999904632568,-0.10999999940395355,-0.0830078125,-0.05682373046875,0.9879150390625,36.529998779296875,0.0,-61.0,-1.222900390625,-0.257415771484375,Waiting,-5.206158357771262,4.875,-320898.0,-220.0,-1650.0,-1650.0,0.7,3.25,
13.512910999999848,0.0,0.0,6798.0,0.0,0.0,0.0,0.0,0.125,0.798339762,0.01,0.0,-8279.0,0.0,0.0,-0.0,0.0,0.0,0.443115189,0.01,0.0,5934.0,0.0,0.0,0.0,0.0,0.0,3.2702633370000003,0.01,0.0,-6839.0,0.0,0.0,-0.0,0.0,0.25,1.5759275730000002,0.01,0.0,0.05000000074505806,-1.2400000095367432,-0.10999999940395355,0.0155029296875,0.00140380859375,1.0347900390625,36.529998779296875,0.0,37.0,-1.221405029296875,-0.2570648193359375,Waiting,-5.206158357771262,4.75,-321163.0,-220.0,-1650.0,-1650.0,0.7,3.0,
13.632670999999856,0.0,0.0,6798.0,0.0,0.0,0.0,0.0,0.125,0.799560465,0.01,0.0,-8279.0,0.0,0.0,-0.0,0.0,0.0,0.443115189,0.01,0.0,5934.0,0.0,0.0,0.0,0.0,0.0,3.2714840400000003,0.01,0.0,-6839.0,0.0,0.0,-0.0,0.0,0.25,1.5759275730000002,0.01,0.0,0.03999999910593033,-1.2000000476837158,-0.10999999940395355,-0.08544921875,-0.04376220703125,0.735107421875,36.529998779296875,0.0,-69.0,-1.216766357421875,-0.2542572021484375,Waiting,-5.070381231671554,4.25,-321428.0,-221.0,-1657.5,-1650.0,0.7,3.0,
13.754736999999965,0.0,0.0,6798.0,0.0,0.0,0.0,0.0,0.125,0.798339762,0.01,0.0,-8279.0,0.0,0.0,-0.0,0.0,0.0,0.443115189,0.01,0.0,5934.0,0.0,0.0,0.0,0.0,0.0,3.2702633370000003,0.01,0.0,-6839.0,0.0,0.0,-0.0,0.0,0.25,1.57470687,0.01,0.0,0.03999999910593033,-1.2000000476837158,-0.10999999940395355,0.01544189453125,-0.02685546875,0.8546142578125,36.560001373291016,0.0,33.0,-1.2163543701171875,-0.2523956298828125,Waiting,-5.0378299120234615,4.25,-321694.0,-221.0,-1657.5,-1650.0,0.7,3.125,
13.869804000000004,0.0,0.0,6798.0,0.0,0.0,0.0,0.0,0.125,0.798339762,0.01,0.0,-8279.0,0.0,0.0,-0.0,0.0,0.0,0.44189448600000003,0.01,0.0,5934.0,0.0,0.0,0.0,0.0,0.0,3.2714840400000003,0.01,0.0,-6839.0,0.0,0.0,-0.0,0.0,0.25,1.57470687,0.01,0.0,0.07999999821186066,-1.190000057220459,-0.10999999940395355,-0.08660888671875,-0.00439453125,1.06451416015625,36.560001373291016,0.0,-64.0,-1.2136077880859375,-0.250640869140625,Waiting,-5.0462365591397855,4.25,-321959.0,-221.0,-1657.5,-1650.0,0.7,3.125,
13.987903999999864,0.0,0.0,6798.0,0.0,0.0,0.0,0.0,0.125,0.798339762,0.01,0.0,-8279.0,0.0,0.0,-0.0,0.0,0.0,0.443115189,0.01,0.0,5934.0,0.0,0.0,0.0,0.0,0.0,3.2702633370000003,0.01,0.0,-6839.0,0.0,0.0,-0.0,0.0,0.25,1.57470687,0.01,0.0,0.03999999910593033,-1.2000000476837158,-0.10999999940395355,-0.01947021484375,0.03289794921875,0.950927734375,36.560001373291016,0.0,0.0,-1.2108917236328125,-0.2471466064453125,Waiting,-5.170087976539589,4.375,-322224.0,-221.0,-1657.5,-1650.0,0.7,3.0,
14.103554999999934,0.0,0.0,6798.0,0.0,0.0,0.0,0.0,0.125,0.7922362470000001,0.01,0.0,-8279.0,0.0,0.0,-0.0,0.0,0.0,0.444335892,0.01,0.0,5934.0,0.0,0.0,0.0,0.0,0.0,3.2714840400000003,0.01,0.0,-6839.0,0.0,0.0,-0.0,0.0,0.25,1.5759275730000002,0.01,0.0,0.07000000029802322,-1.2000000476837158,-0.11999999731779099,-0.04254150390625,0.0155029296875,1.06689453125,36.560001373291016,0.0,-20.0,-1.2056121826171875,-0.2407379150390625,Waiting,-5.013782991202347,4.5,-322490.0,-220.0,-1650.0,-1650.0,0.7,3.0,
14.230267999999924,0.0,0.0,6798.0,0.0,0.0,0.0,0.0,0.125,0.798339762,0.01,0.0,-8279.0,0.0,0.0,-0.0,0.0,0.0,0.443115189,0.01,0.0,5934.0,0.0,0.0,0.0,0.0,0.0,3.2714840400000003,0.01,0.0,-6839.0,0.0,0.0,-0.0,0.0,0.25,1.5759275730000002,0.01,0.0,0.07999999821186066,-1.1799999475479126,-0.10999999940395355,0.05181884765625,0.0343017578125,1.03509521484375,36.540000915527344,0.0,73.0,-1.2027587890625,-0.2350616455078125,Waiting,-5.001759530791789,4.25,-322755.0,-221.0,-1657.5,-1650.0,0.7,3.0,
14.349378999999956,0.0,0.0,6798.0,0.0,0.0,0.0,0.0,0.125,0.799560465,0.01,0.0,-8279.0,0.0,0.0,-0.0,0.0,0.0,0.443115189,0.01,0.0,5934.0,0.0,0.0,0.0,0.0,0.0,3.2714840400000003,0.01,0.0,-6839.0,0.0,0.0,-0.0,0.0,0.25,1.5759275730000002,0.01,0.0,0.019999999552965164,-1.2599999904632568,-0.11999999731779099,-0.06964111328125,0.1156005859375,1.33599853515625,36.540000915527344,0.0,-40.0,-1.20343017578125,-0.2320098876953125,Waiting,-5.001759530791789,4.25,-323020.0,-221.0,-1657.5,-1650.0,0.7,2.875,
14.465127999999794,0.0,0.0,6798.0,0.0,0.0,0.0,0.0,0.125,0.799560465,0.01,0.0,-8279.0,0.0,0.0,-0.0,0.0,0.0,0.443115189,0.01,0.0,5934.0,0.0,0.0,0.0,0.0,0.0,3.2714840400000003,0.01,0.0,-6839.0,0.0,0.0,-0.0,0.0,0.25,1.5759275730000002,0.01,0.0,0.019999999552965164,-1.2699999809265137,-0.11999999731779099,0.00390625,-0.0123291015625,1.1812744140625,36.540000915527344,0.0,30.0,-1.204559326171875,-0.2247467041015625,Waiting,-4.989736070381231,4.125,-323285.0,-221.0,-1657.5,-1650.0,0.7,2.875,
14.585649999999907,0.0,0.0,6798.0,0.0,0.0,0.0,0.0,0.125,0.799560465,0.01,0.0,-8279.0,0.0,0.0,-0.0,0.0,0.0,0.443115189,0.01,0.0,5934.0,0.0,0.0,0.0,0.0,0.0,3.2714840400000003,0.01,0.0,-6839.0,0.0,0.0,-0.0,0.0,0.25,1.5759275730000002,0.01,0.0,0.05999999865889549,-1.2300000190734863,-0.11999999731779099,-0.00921630859375,-0.07073974609375,0.7772216796875,36.540000915527344,0.0,7.0,-1.20428466796875,-0.2234954833984375,Waiting,-5.142815249266862,4.625,-323550.0,-220.0,-1650.0,-1650.0,0.7,3.0,
14.702506999999983,0.0,0.0,6798.0,0.0,0.0,0.0,0.0,0.125,0.798339762,0.01,0.0,-8279.0,0.0,0.0,-0.0,0.0,0.0,0.443115189,0.01,0.0,5934.0,0.0,0.0,0.0,0.0,0.0,3.2714840400000003,0.01,0.0,-6839.0,0.0,0.0,-0.0,0.0,0.25,1.5759275730000002,0.01,0.0,0.07000000029802322,-1.2000000476837158,-0.11999999731779099,-0.0775146484375,-0.0545654296875,0.818603515625,36.540000915527344,0.0,-60.0,-1.20489501953125,-0.225189208984375,Waiting,-5.278299120234605,5.125,-323813.0,-219.0,-1642.5,-1650.0,0.7,3.0,
14.81728199999989,0.0,0.0,6798.0,0.0,0.0,0.0,0.0,0.125,0.798339762,0.01,0.0,-8279.0,0.0,0.0,-0.0,0.0,0.0,0.443115189,0.01,0.0,5934.0,0.0,0.0,0.0,0.0,0.0,3.2714840400000003,0.01,0.0,-6839.0,0.0,0.0,-0.0,0.0,0.25,1.5759275730000002,0.01,0.0,0.10000000149011612,-1.2100000381469727,-0.12999999523162842,-0.022216796875,0.0511474609375,0.85693359375,36.54999923706055,0.0,-4.0,-1.2066650390625,-0.2269439697265625,Waiting,-5.290322580645161,5.25,-324077.0,-219.0,-1642.5,-1650.0,0.7,2.875,
14.938175999999977,0.0,0.0,6798.0,0.0,0.0,0.0,0.0,0.125,0.799560465,0.01,0.0,-8279.0,0.0,0.0,-0.0,0.0,0.0,0.443115189,0.01,0.0,5934.0,0.0,0.0,0.0,0.0,0.0,3.2714840400000003,0.01,0.0,-6839.0,0.0,0.0,-0.0,0.0,0.25,1.57470687,0.01,0.0,0.10999999940395355,-1.2200000286102295,-0.12999999523162842,-0.09320068359375,-0.043212890625,0.9190673828125,36.54999923706055,0.0,-73.0,-1.20697021484375,-0.227020263671875,Waiting,-5.302346041055719,5.25,-324340.0,-219.0,-1642.5,-1650.0,0.7,2.875,
15.054335999999894,0.0,0.0,6798.0,0.0,0.0,0.0,0.0,0.125,0.799560465,0.01,0.0,-8279.0,0.0,0.0,-0.0,0.0,0.0,0.444335892,0.01,0.0,5934.0,0.0,0.0,0.0,0.0,0.0,3.2714840400000003,0.01,0.0,-6839.0,0.0,0.0,-0.0,0.0,0.25,1.57470687,0.01,0.0,0.07999999821186066,-1.2200000286102295,-0.12999999523162842,-0.01910400390625,-0.10125732421875,0.9058837890625,36.54999923706055,0.0,0.0,-1.209197998046875,-0.22930908203125,Waiting,-5.314369501466276,5.25,-324604.0,-219.0,-1650.0,-1650.0,0.7,2.875,
