Time,ClimberA1,ClimberA2,FRpos,FRCurrent,FRspeed,FRsetpoint,FRApos,FRACurrent,FREncpos,FREncSetpoint,FREncSpeed,FLpos,FLCurrent,FLspeed,FLsetpoint,FLApos,FLACurrent,FLEncpos,FLEncSetpoint,FLEncSpeed,BRpos,BRCurrent,BRspeed,BRsetpoint,BRApos,BRACurrent,BREncpos,BREncSetpoint,BREncSpeed,BLpos,BLCurrent,BLspeed,BLsetpoint,BLApos,BLACurrent,BLEncpos,BLEncSetpoint,BLEncSpeed,navx_Pitch,navx_Roll,navx_Yaw,navx_XAcc,navx_YAcc,navx_ZAcc,navx_Temp,navx_Bar,navx_Alt,navx_XDis,navx_YDis,GearPlacerState,ShootOutputV,ShootOutputCurrent,ShootEncPos,ShootEncVelocity,ShootSpeed,ShootSetpoint,CarouselSetpoint,CarouselCurrent,
0.12785000000003494,0.0,0.0,40963.0,0.0,0.0,0.0,0.0,0.125,1.3464354090000001,0.5498168668524864,0.0,-6477.0,0.0,0.0,0.0,0.0,0.0,4.846190910000001,4.41043958977222,0.0,-1197.0,0.0,0.0,0.0,0.0,0.0,2.8039547910000002,4.389674732977291,0.0,-12934.0,0.125,0.0,0.0,0.0,0.25,2.1740720430000002,0.5526872062785609,0.0,-0.49000000953674316,-1.0499999523162842,0.0,-0.1295166015625,-0.03350830078125,1.11383056640625,35.20000076293945,0.0,-109.0,3.6368560791015625,-6.5903778076171875,Waiting,0.0,0.0,-1253985.0,0.0,0.0,0.0,0.0,0.0,
0.2499800000000396,0.0,0.0,40963.0,0.0,0.0,0.0,0.0,0.125,1.3464354090000001,0.5498168668524864,0.0,-6477.0,0.0,0.0,0.0,0.0,0.0,4.843749504,4.41043958977222,0.0,-1197.0,0.125,0.0,0.0,0.0,0.0,2.8039547910000002,4.389674732977291,0.0,-12934.0,0.125,0.0,0.0,0.0,0.25,2.1728513400000002,0.5526872062785609,0.0,-0.47999998927116394,-1.0199999809265137,0.0,0.04052734375,-0.0037841796875,1.0301513671875,35.20000076293945,0.0,59.0,3.6354827880859375,-6.59228515625,Waiting,0.0,0.0,-1253985.0,0.0,0.0,0.0,0.0,0.0,
0.3668080000000191,0.0,0.0,40963.0,0.0,0.0,0.0,0.0,0.125,1.3452147060000001,0.5498168668524864,0.0,-6477.0,0.0,0.0,0.0,0.0,0.0,4.843749504,4.41043958977222,0.0,-1197.0,0.125,0.0,0.0,0.0,0.0,2.8027340880000002,4.389674732977291,0.0,-12934.0,0.125,0.0,0.0,0.0,0.25,2.175292746,0.5526872062785609,0.0,-0.4699999988079071,-1.0399999618530273,0.0,-0.0126953125,-0.0028076171875,1.05029296875,35.20000076293945,0.0,6.0,3.6360321044921875,-6.5951995849609375,Waiting,0.0,0.0,-1253985.0,0.0,0.0,0.0,0.0,0.0,
0.4857920000000158,0.0,0.0,40963.0,0.0,0.0,0.0,0.0,0.125,1.3452147060000001,0.5498168668524864,0.0,-6477.0,0.0,0.0,0.0,0.0,0.0,4.843749504,4.41043958977222,0.0,-1197.0,0.125,0.0,0.0,0.0,0.0,2.8039547910000002,4.389674732977291,0.0,-12934.0,0.125,0.0,0.0,0.0,0.25,2.175292746,0.5526872062785609,0.0,-0.47999998927116394,-1.0499999523162842,0.0,-0.0242919921875,-0.00787353515625,1.02288818359375,35.20000076293945,0.0,-5.0,3.6360321044921875,-6.595184326171875,Waiting,0.0,0.0,-1253985.0,0.0,0.0,0.0,0.0,0.125,
0.6047239999999874,0.0,0.0,40963.0,0.0,0.0,0.0,0.0,0.125,1.3464354090000001,0.5498168668524864,0.0,-6477.0,0.0,0.0,0.0,0.0,0.0,4.843749504,4.41043958977222,0.0,-1197.0,0.0,0.0,0.0,0.0,0.0,2.8039547910000002,4.389674732977291,0.0,-12934.0,0.125,0.0,0.0,0.0,0.25,2.1728513400000002,0.5526872062785609,0.0,-0.47999998927116394,-1.0499999523162842,-0.009999999776482582,-0.02154541015625,-0.00823974609375,1.01318359375,35.20000076293945,0.0,-2.0,3.6360321044921875,-6.595184326171875,Waiting,0.0,0.0,-1253985.0,0.0,0.0,0.0,0.0,0.0,
0.7291680000000051,0.0,0.0,40963.0,0.0,0.0,0.0,0.0,0.125,1.3452147060000001,0.5498168668524864,0.0,-6477.0,0.0,0.0,0.0,0.0,0.0,4.844970207,4.41043958977222,0.0,-1197.0,0.0,0.0,0.0,0.0,0.0,2.8039547910000002,4.389674732977291,0.0,-12934.0,0.125,0.0,0.0,0.0,0.25,2.1728513400000002,0.5526872062785609,0.0,-0.47999998927116394,-1.059999942779541,-0.009999999776482582,-0.01922607421875,-0.012451171875,1.02496337890625,35.20000076293945,0.0,0.0,3.6360321044921875,-6.595184326171875,Waiting,0.0,0.0,-1253985.0,0.0,0.0,0.0,0.0,0.0,
0.8480380000000005,0.0,0.0,40963.0,0.125,0.0,131.25,0.0,4.0,1.6076658510000001,1.2329257430308413,0.0,-6477.0,0.125,0.0,131.25,0.0,5.0,4.562987814,3.7226896175030837,0.0,-1197.0,0.125,0.0,-131.25,0.0,3.625,2.473144278,3.7051627666697358,0.0,-12934.0,0.375,0.0,-131.25,0.0,2.125,2.442626703,1.2393622777808573,0.0,-0.5,-1.059999942779541,-0.009999999776482582,-0.01043701171875,-0.0272216796875,0.96148681640625,35.20000076293945,0.0,7.0,3.6360321044921875,-6.59515380859375,Waiting,0.0,0.0,-1253985.0,0.0,0.0,0.0,0.0,0.0,
0.9686170000000275,0.0,0.0,40971.0,1.625,52.5,475.78125000000006,0.0,1.125,2.033691198,1.2329257430308413,0.0,-6449.0,1.25,210.0,475.78125000000006,0.0,0.5,4.110107001,3.7226896175030837,0.0,-1197.0,1.875,0.0,-475.78125000000006,0.0,0.5,2.100829863,3.7051627666697358,0.0,-12952.0,1.0,-150.0,-475.78125000000006,0.0,0.75,2.8979489220000003,1.2393622777808573,0.0,-0.25,-1.0399999618530273,-0.009999999776482582,-0.01654052734375,0.06109619140625,1.0509033203125,35.20000076293945,0.0,2.0,3.6367950439453125,-6.5940093994140625,Waiting,0.0,0.0,-1253985.0,0.0,0.0,0.0,0.0,0.0,
1.0908060000000406,0.0,0.0,40985.0,1.125,75.0,229.6875,0.0,0.5,2.2229001630000003,1.2327887360616814,0.0,-6435.0,0.75,82.5,229.6875,0.0,0.5,3.9489742050000003,3.7225517350061654,0.0,-1199.0,1.25,-37.5,-229.6875,0.0,0.125,1.9482419880000001,3.70502553333947,0.0,-12969.0,0.625,-67.5,-229.6875,0.0,0.5,3.02734344,1.2392245555617134,0.0,-0.019999999552965164,-1.0,0.05000000074505806,-0.0184326171875,0.00823974609375,1.03948974609375,35.20000076293945,0.0,0.0,3.6369476318359375,-6.587127685546875,Waiting,0.0,0.0,-1253985.0,0.0,0.0,0.0,0.0,0.0,
1.2097030000000377,0.0,0.0,41008.0,1.125,142.5,229.6875,0.0,0.375,2.159423607,1.2337477848713203,0.0,-6409.0,1.0,157.5,229.6875,0.0,0.25,3.963622641,3.7235169125102745,0.0,-1213.0,1.75,-52.5,-229.6875,0.0,0.125,2.037353307,3.705986166676893,0.0,-12996.0,0.625,-187.5,-229.6875,0.0,0.5,2.9602047750000002,1.2401886111213736,0.0,-0.20999999344348907,-1.1100000143051147,0.15000000596046448,0.021240234375,-0.05523681640625,1.10833740234375,35.20000076293945,0.0,42.0,3.6367034912109375,-6.5892333984375,Waiting,0.0,0.0,-1253985.0,0.0,0.0,0.0,0.0,0.0,
1.3405890000000362,0.0,0.0,41024.0,1.625,97.5,229.68749999999997,0.0,0.25,2.043456822,1.2351178546649972,0.0,-6392.0,2.125,90.0,229.68749999999997,0.0,0.5,4.067382396,3.724895737582186,0.0,-1217.0,2.625,-7.5,-229.68749999999997,0.0,0.125,2.14843728,3.7073585000817992,0.0,-13010.0,1.0,-37.5,-229.68749999999997,0.0,0.25,2.8491208020000003,1.2415658334154236,0.0,-0.23999999463558197,-1.0800000429153442,0.20999999344348907,-0.0301513671875,9.1552734375E-4,1.0411376953125,35.20000076293945,0.0,-10.0,3.63812255859375,-6.593994140625,Waiting,0.0,0.0,-1253985.0,0.0,0.0,0.0,0.0,0.0,
1.4644800000000395,0.0,0.0,41043.0,1.625,105.0,229.6875,0.0,0.125,2.019042762,1.2359398963268393,0.0,-6375.0,2.25,112.5,229.6875,0.0,0.5,4.10156208,3.725723032409599,0.0,-1237.0,2.75,-112.5,-229.6875,0.0,0.125,2.196044697,3.7081818999100244,0.0,-13011.0,1.75,-67.5,-229.6875,0.0,0.125,2.824706742,1.2423921665763704,0.0,-0.11999999731779099,-1.059999942779541,0.3199999928474426,-0.03369140625,0.064208984375,0.9432373046875,35.20000076293945,0.0,-15.0,3.6383056640625,-6.5972137451171875,Waiting,0.0,0.0,-1253985.0,0.0,0.0,0.0,0.0,0.0,
1.587460000000021,0.0,0.0,41072.0,1.625,180.0,229.6875,0.0,0.25,2.0178220590000002,1.237583980262992,0.0,-6348.0,2.125,187.5,229.6875,0.0,0.25,4.114989813,3.727377622680807,0.0,-1265.0,2.375,-157.5,-229.6875,0.0,0.125,2.191161885,3.709828700179956,0.0,-13059.0,0.625,-300.0,-229.6875,0.0,0.125,2.825927445,1.24404483351393,0.0,0.1599999964237213,-1.0700000524520874,0.5699999928474426,-0.01910400390625,0.0970458984375,1.077392578125,35.20000076293945,0.0,2.0,3.6382904052734375,-6.5956268310546875,Waiting,0.0,0.0,-1253985.0,0.0,0.0,0.0,0.0,0.0,
1.7072600000000093,0.0,0.0,41115.0,1.25,262.5,229.68750000000003,0.0,0.25,2.0141599500000003,1.240872147318673,0.0,-6309.0,1.125,270.0,229.68750000000003,0.0,0.25,4.125976140000001,3.7306868024013804,0.0,-1315.0,2.0,-285.0,-229.68750000000003,0.0,0.125,2.156982201,3.713122299901845,0.0,-13092.0,1.25,-157.5,-229.68750000000003,0.0,0.25,2.824706742,1.2473501665681614,0.0,0.27000001072883606,-1.0800000429153442,0.8399999737739563,0.01898193359375,-0.06854248046875,0.91400146484375,35.209999084472656,0.0,35.0,3.638092041015625,-6.5905609130859375,Waiting,0.0,0.0,-1253985.0,0.0,0.0,0.0,0.0,0.0,
1.831896000000008,0.0,0.0,41138.0,0.0,127.5,0.0,0.0,0.25,2.023925574,1.240872147318673,0.0,-6269.0,0.0,127.5,0.0,0.0,0.25,4.149169497,3.7306868024013804,0.0,-1341.0,0.0,-210.0,0.0,0.0,0.125,2.147216577,3.713122299901845,0.0,-13136.0,0.125,-292.5,0.0,0.0,0.25,2.825927445,1.2473501665681614,0.0,-0.019999999552965164,-1.0399999618530273,1.1699999570846558,-0.06439208984375,-0.28216552734375,0.89990234375,35.209999084472656,0.0,-53.0,3.6394500732421875,-6.586395263671875,Waiting,0.0,0.0,-1253985.0,0.0,0.0,0.0,0.0,0.0,
1.950942000000039,0.0,0.0,41162.0,0.0,150.0,0.0,0.0,0.25,2.022704871,1.240872147318673,0.0,-6251.0,0.0,157.5,0.0,0.0,0.125,4.152831606,3.7306868024013804,0.0,-1357.0,0.125,-90.0,0.0,0.0,0.125,2.14843728,3.713122299901845,0.0,-13169.0,0.125,-187.5,0.0,0.0,0.25,2.824706742,1.2473501665681614,0.0,-0.5099999904632568,-1.090000033378601,1.340000033378601,-0.05120849609375,-0.09490966796875,1.12933349609375,35.209999084472656,0.0,-31.0,3.639434814453125,-6.5911407470703125,Waiting,0.0,0.0,-1253985.0,0.0,0.0,0.0,0.0,0.0,
2.0702690000000294,0.0,0.0,41174.0,0.0,67.5,0.0,0.0,0.25,2.023925574,1.240872147318673,0.0,-6236.0,0.0,60.0,0.0,0.0,0.125,4.154052309,3.7306868024013804,0.0,-1359.0,0.0,-30.0,0.0,0.0,0.125,2.147216577,3.713122299901845,0.0,-13189.0,0.0,-90.0,0.0,0.0,0.25,2.824706742,1.2473501665681614,0.0,-0.8500000238418579,-1.0700000524520874,1.3899999856948853,-0.0286865234375,-0.0587158203125,1.00457763671875,35.209999084472656,0.0,-10.0,3.6393280029296875,-6.600738525390625,Waiting,0.0,0.0,-1253985.0,0.0,0.0,0.0,0.0,0.125,
2.186872000000032,0.0,0.0,41174.0,0.0,0.0,0.0,0.0,0.25,2.028808386,1.240872147318673,0.0,-6235.0,0.0,0.0,0.0,0.0,0.125,4.154052309,3.7306868024013804,0.0,-1359.0,0.125,0.0,0.0,0.0,0.125,2.147216577,3.713122299901845,0.0,-13193.0,0.125,0.0,0.0,0.0,0.25,2.824706742,1.2473501665681614,0.0,-0.9599999785423279,-1.0800000429153442,1.3799999952316284,-0.02752685546875,-0.0091552734375,1.0018310546875,35.20000076293945,0.0,-8.0,3.6393280029296875,-6.605926513671875,Waiting,0.0,0.0,-1253985.0,0.0,0.0,0.0,0.0,0.0,
2.306155000000028,0.0,0.0,41174.0,0.0,0.0,0.0,0.0,0.125,2.023925574,1.240872147318673,0.0,-6235.0,0.0,0.0,0.0,0.0,0.125,4.154052309,3.7306868024013804,0.0,-1359.0,0.125,0.0,0.0,0.0,0.125,2.14843728,3.713122299901845,0.0,-13193.0,0.125,0.0,0.0,0.0,0.25,2.825927445,1.2473501665681614,0.0,-0.8500000238418579,-1.090000033378601,1.3600000143051147,-0.019775390625,0.01104736328125,1.021728515625,35.20000076293945,0.0,0.0,3.6393280029296875,-6.60504150390625,Waiting,0.0,0.0,-1253985.0,0.0,0.0,0.0,0.0,0.0,
2.4243090000000085,0.0,0.0,41174.0,0.0,0.0,0.0,0.0,0.125,2.028808386,1.240872147318673,0.0,-6235.0,0.0,0.0,0.0,0.0,0.125,4.154052309,3.7306868024013804,0.0,-1359.0,0.125,0.0,0.0,0.0,0.125,2.147216577,3.713122299901845,0.0,-13193.0,0.125,0.0,0.0,0.0,0.25,2.824706742,1.2473501665681614,0.0,-0.7699999809265137,-1.090000033378601,1.3700000047683716,-0.0155029296875,-0.00921630859375,1.02203369140625,35.20000076293945,0.0,4.0,3.6393280029296875,-6.6038360595703125,Waiting,0.0,0.0,-1253985.0,0.0,0.0,0.0,0.0,0.0,
2.54993200000003,0.0,0.0,41174.0,0.0,0.0,0.0,0.0,0.125,2.028808386,1.240872147318673,0.0,-6235.0,0.0,0.0,0.0,0.0,0.125,4.152831606,3.7306868024013804,0.0,-1359.0,0.0,0.0,0.0,0.0,0.125,2.14843728,3.713122299901845,0.0,-13193.0,0.125,0.0,0.0,0.0,0.25,2.825927445,1.2473501665681614,0.0,-0.7799999713897705,-1.090000033378601,1.3700000047683716,-0.0198974609375,-0.01824951171875,1.0159912109375,35.20000076293945,0.0,0.0,3.6393280029296875,-6.6038360595703125,Waiting,0.0,0.0,-1253985.0,0.0,0.0,0.0,0.0,0.0,
2.669826000000001,0.0,0.0,41185.0,0.375,75.0,360.9375,0.0,3.0,1.5759275730000002,0.018769955259774457,0.0,-6230.0,0.625,135.0,360.9375,0.0,2.375,3.714599229,2.5007749025657477,0.0,-1358.0,0.875,7.5,360.9375,0.0,4.0,2.6965329270000002,0.01880096673210462,0.0,-13193.0,0.625,-7.5,-360.9375,0.0,2.5,2.2216794600000003,0.018867944510115513,0.0,-0.7799999713897705,-1.0399999618530273,1.2699999809265137,0.02490234375,-0.01019287109375,0.88824462890625,35.209999084472656,0.0,41.0,3.638824462890625,-6.6053619384765625,Waiting,0.0,0.0,-1253985.0,0.0,0.0,0.0,0.0,0.0,
2.792521000000008,0.0,0.0,41213.0,1.5,157.5,557.8125,0.0,0.75,0.786132732,0.017399885210902164,0.0,-6204.0,3.25,97.5,557.8125,0.0,0.875,2.9296872,2.49939607723701,0.0,-1358.0,3.0,0.0,557.8125,0.0,0.875,3.4704586290000004,0.017428633071581528,0.0,-13195.0,3.25,0.0,-557.8125,0.0,1.0,1.5270994530000002,0.017490721959537932,0.0,-0.6200000047683716,-0.6899999976158142,0.7799999713897705,0.076416015625,-0.01397705078125,0.97625732421875,35.209999084472656,0.0,88.0,3.639129638671875,-6.6041412353515625,Waiting,0.0,0.0,-1253985.0,0.0,0.0,0.0,0.0,0.0,
2.9144490000000225,0.0,0.0,41247.0,2.125,217.5,557.8125,0.0,0.375,0.562744083,0.010686543441353242,0.0,-6177.0,4.875,240.0,557.8125,0.0,0.25,2.5866696570000003,2.492639834605515,0.0,-1344.0,5.875,75.0,557.8125,0.0,0.125,3.605956662,0.010704199607372284,0.0,-13200.0,4.125,-135.0,-557.8125,0.0,0.25,1.37939439,0.010742332939306895,0.0,-0.8999999761581421,-0.23000000417232513,0.800000011920929,-0.02264404296875,-0.073974609375,1.00762939453125,35.209999084472656,0.0,-19.0,3.6478424072265625,-6.60321044921875,Waiting,0.0,0.0,-1253985.0,0.0,0.0,0.0,0.0,0.0,
3.0464800000000394,0.0,0.0,41284.0,4.25,225.0,631.161039523591,0.0,3.0,0.810546792,0.3931726216623878,0.0,-6126.0,5.75,375.0,631.161039523591,0.0,4.5,2.756347374,2.877570147456833,0.0,-1321.0,8.375,142.5,631.161039523591,0.0,0.125,3.604735959,0.3938222162782999,0.0,-13239.0,4.75,-330.0,-631.161039523591,0.0,2.5,1.6589353770000002,0.39522519397372896,0.0,-0.8399999737739563,-0.1899999976158142,1.840000033378601,0.0035400390625,0.02703857421875,0.95526123046875,35.209999084472656,0.0,8.0,3.648468017578125,-6.6074981689453125,Waiting,0.0,0.0,-1253985.0,0.0,0.0,0.0,0.0,0.0,
3.1726660000000266,0.0,0.0,41316.0,6.375,255.0,639.0018499643115,0.0,1.0,1.1621092560000001,0.4252351993133871,0.0,-6064.0,6.625,450.0,639.0018499643115,0.0,0.75,3.3605953590000004,2.9098376174348815,0.0,-1291.0,11.375,165.0,639.0018499643115,0.0,0.125,3.719482041,0.425937767296891,0.0,-13379.0,4.125,-457.5,-639.0018499643115,0.0,0.375,2.1203611110000002,0.4274551555052193,0.0,-0.009999999776482582,0.25999999046325684,3.0199999809265137,0.1212158203125,0.1312255859375,0.96923828125,35.209999084472656,0.0,123.0,3.656158447265625,-6.60308837890625,Waiting,0.0,0.0,-1253985.0,0.0,0.0,0.0,0.0,0.125,
3.310918000000005,0.0,0.0,41387.0,3.25,600.0,558.7767401319601,0.0,0.375,1.4282225100000001,0.5933273020778085,0.0,-5884.0,3.875,585.0,558.7767401319601,0.0,0.25,3.660888297,3.0790038940373803,0.0,-1222.0,7.875,562.5,558.7767401319601,0.0,0.25,3.8879390550000004,0.5943075896148037,0.0,-13473.0,3.0,-577.5,-558.7767401319601,0.0,0.375,2.316894294,0.5964247893511044,0.0,0.9300000071525574,0.2199999988079071,2.5199999809265137,-0.0384521484375,0.22967529296875,1.023193359375,35.209999084472656,0.0,-33.0,3.66998291015625,-6.5842742919921875,Waiting,0.0,0.0,-1253985.0,0.0,0.0,0.0,0.0,0.125,
3.4481660000000267,0.0,0.0,41507.0,1.5,787.5,603.2504726997735,0.0,0.375,1.519775235,0.6510571317386805,0.0,-5765.0,1.875,735.0,603.2504726997735,0.0,0.25,3.704833605,3.137102639737011,0.0,-1122.0,6.0,675.0,603.2504726997735,0.0,0.125,4.05273396,0.6521327997382488,0.0,-13576.0,2.875,-652.5,-603.2504726997735,0.0,0.25,2.388915771,0.6544559997373163,0.0,1.2300000190734863,-0.029999999329447746,1.4700000286102295,-0.08404541015625,0.19329833984375,1.14190673828125,35.209999084472656,0.0,-78.0,3.671905517578125,-6.5513763427734375,Waiting,0.0,0.0,-1253985.0,0.0,0.0,0.0,0.0,0.0,
3.5747399999999905,0.0,0.0,41632.0,0.5,795.0,591.7632261473439,0.0,0.25,1.5270994530000002,0.6520614306830954,0.0,-5644.0,0.75,757.5,591.7632261473439,0.0,0.25,3.6853023570000003,3.138113356541836,0.0,-1002.0,3.75,772.5,591.7632261473439,0.0,0.125,4.055175366,0.6531387579721235,0.0,-13694.0,1.25,-742.5,-591.7632261473439,0.0,0.5,2.291259531,0.655465541661766,0.0,1.1200000047683716,0.009999999776482582,1.3200000524520874,0.0517578125,-0.08074951171875,0.95452880859375,35.209999084472656,0.0,49.0,3.670654296875,-6.5194854736328125,Waiting,0.0,0.0,-1253985.0,0.0,0.0,0.0,0.0,0.0,
3.7088890000000245,0.0,0.0,41889.0,1.25,802.5,796.5061186647046,0.0,0.375,1.413574074,0.4617227821600301,0.0,-5512.0,0.875,847.5,796.5061186647046,0.0,0.25,3.4765621440000003,2.946558370110826,0.0,-876.0,5.25,772.5,796.5061186647046,0.0,0.25,3.9355464720000004,0.46248563444630303,0.0,-13819.0,1.875,-780.0,-796.5061186647046,0.0,0.5,2.1203611110000002,0.4641332231367441,0.0,0.6000000238418579,0.10000000149011612,1.590000033378601,0.10858154296875,-0.1507568359375,0.99505615234375,35.18000030517578,0.0,102.0,3.6718902587890625,-6.4871063232421875,Waiting,0.0,0.0,-1253985.0,0.0,0.0,0.0,0.0,0.0,
3.843094000000041,0.0,0.0,42022.0,2.75,817.5,998.0880770604929,0.0,0.375,1.199951049,0.3684306368923245,0.0,-5376.0,2.625,847.5,998.0880770604929,0.0,0.25,3.331298487,2.852670051792176,0.0,-756.0,7.625,825.0,998.0880770604929,0.0,0.25,3.72314415,0.369039353127576,0.0,-13955.0,3.25,-847.5,-998.0880770604929,0.0,0.25,1.9470212850000002,0.370354042750895,0.0,0.05999999865889549,0.5099999904632568,1.8200000524520874,0.11785888671875,-0.14312744140625,0.97607421875,35.18000030517578,0.0,104.0,3.679412841796875,-6.470855712890625,Waiting,0.0,0.0,-1253985.0,0.0,0.0,0.0,0.0,0.0,
3.97213400000002,0.0,0.0,42174.0,2.625,930.0,1027.8486164413086,0.0,0.125,1.105956918,0.36087147013105153,0.0,-5230.0,2.75,930.0,1027.8486164413086,0.0,0.25,3.2580563070000004,2.8450625790186694,0.0,-457.0,6.75,960.0,1027.8486164413086,0.0,0.0,3.645019158,0.3614676972107557,0.0,-14093.0,3.75,-892.5,-1027.8486164413086,0.0,0.125,1.9140623040000002,0.362755413078076,0.0,-0.4099999964237213,0.8399999737739563,1.5099999904632568,0.03521728515625,-0.056884765625,0.7818603515625,35.18000030517578,0.0,22.0,3.6962738037109375,-6.4609832763671875,Waiting,0.0,0.0,-1253985.0,0.0,0.0,0.0,0.0,0.0,
4.105874000000011,0.0,0.0,42339.0,2.875,1020.0,1133.3382400705668,0.0,0.25,1.105956918,0.3236029101830001,0.0,-5072.0,3.125,1020.0,1133.3382400705668,0.0,0.125,3.244628574,2.8075558584942395,0.0,-301.0,7.875,975.0,1133.3382400705668,0.0,0.0,3.645019158,0.32413756263987653,0.0,-14245.0,4.125,-990.0,-1133.3382400705668,0.0,0.125,1.926269334,0.3252922912251048,0.0,-0.2800000011920929,0.800000011920929,1.350000023841858,0.0372314453125,7.9345703125E-4,1.12164306640625,35.18000030517578,0.0,21.0,3.71466064453125,-6.4554901123046875,Waiting,0.0,0.0,-1253985.0,0.0,0.0,0.0,0.0,0.0,
4.231032999999996,0.0,0.0,42518.0,2.625,1117.5,1178.0555765354409,0.0,0.375,1.0595702040000001,0.1948924396805397,0.0,-4893.0,2.25,1140.0,1178.0555765354409,0.0,0.25,3.194579751,2.6780228780830644,0.0,-214.0,13.375,517.5,1178.0555765354409,0.0,0.125,3.5827633050000003,0.19521443839693853,0.0,-14416.0,3.625,-1125.0,-1178.0555765354409,0.0,0.25,1.8420408270000002,0.19590988291879627,0.0,-0.28999999165534973,0.9399999976158142,1.3600000143051147,-0.033935546875,-0.034423828125,1.01446533203125,35.189998626708984,0.0,-51.0,3.736907958984375,-6.45648193359375,Waiting,0.0,0.0,-1253985.0,0.0,0.0,0.0,0.0,0.0,
4.364980000000039,0.0,0.0,42709.0,1.25,1252.5,1216.4988223445287,0.0,0.25,0.9838866180000001,0.1569757986844894,0.0,-4708.0,1.75,1200.0,1216.4988223445287,0.0,0.25,3.132323898,2.6398639350209687,0.0,-76.0,18.125,937.5,1216.4988223445287,0.0,0.125,3.489989877,0.1572351520271072,0.0,-14598.0,3.625,-1177.5,-1216.4988223445287,0.0,0.25,1.752929508,0.15779529668658354,0.0,-0.550000011920929,1.3600000143051147,0.6800000071525574,0.1705322265625,-0.120849609375,0.64654541015625,35.189998626708984,0.0,18.0,3.7671051025390625,-6.4669036865234375,Waiting,0.0,0.0,-1253985.0,0.0,0.0,0.0,0.0,0.0,
4.50489300000004,0.0,0.0,42922.0,0.5,1335.0,1246.8750000000002,0.0,0.375,0.887451081,0.01,0.0,-4512.0,1.125,1267.5,1246.8750000000002,0.0,0.25,3.034667658,2.489882184769884,0.0,131.0,12.375,1387.5,1246.8750000000002,0.0,0.125,3.399657855,0.01,0.0,-14990.0,3.25,-1245.0,-1246.8750000000002,0.0,0.5,1.6540525650000002,0.01,0.0,-0.8700000047683716,1.3799999952316284,-0.3700000047683716,0.03338623046875,-0.0494384765625,1.1832275390625,35.189998626708984,0.0,4.0,3.794281005859375,-6.4799652099609375,Waiting,0.0,0.0,-1253985.0,0.0,0.0,0.0,0.0,0.0,
4.628725000000035,0.0,0.0,43139.0,0.75,1350.0,1312.5,0.0,0.25,0.809326089,4.927181741962448,0.0,-4307.0,1.375,1290.0,1312.5,0.0,0.25,2.9565426660000003,2.4767833474342527,0.0,366.0,9.875,1462.5,1312.5,0.0,0.125,3.3630367650000004,4.935322366601229,0.0,-15198.0,3.625,-1282.5,-1312.5,0.0,0.25,1.591796712,4.952904277712107,0.0,-1.350000023841858,1.3300000429153442,-1.5499999523162842,-0.05157470703125,-0.095458984375,0.9312744140625,35.189998626708984,0.0,-71.0,3.804107666015625,-6.503173828125,Waiting,0.0,0.0,-1253985.0,0.0,0.0,0.0,0.0,0.0,
4.752004000000015,0.0,0.0,43360.0,0.375,1387.5,1312.5,0.0,0.125,0.79345695,4.9110149199588555,0.0,-4095.0,1.125,1327.5,1312.5,0.0,0.25,2.910155952,2.460513213157475,0.0,598.0,9.25,1425.0,1312.5,0.0,0.125,3.35693325,4.919128833987713,0.0,-15414.0,3.125,-1342.5,-1312.5,0.0,0.125,1.5771482760000002,4.936653056212267,0.0,-1.3799999952316284,0.9800000190734863,-1.9700000286102295,-0.0364990234375,-0.054931640625,1.084228515625,35.16999816894531,0.0,-54.0,3.7994537353515625,-6.52685546875,Waiting,0.0,0.0,-1253985.0,0.0,0.0,0.0,0.0,0.0,
4.871412000000011,0.0,0.0,43580.0,0.375,1350.0,1312.5,0.0,0.125,0.810546792,4.905260626080242,0.0,-3884.0,1.0,1320.0,1312.5,0.0,0.125,2.911376655,2.454722147105515,0.0,813.0,9.875,1342.5,1312.5,0.0,0.125,3.3605953590000004,4.913365032940706,0.0,-15635.0,2.25,-1380.0,-1312.5,0.0,0.125,1.5771482760000002,4.930868721828196,0.0,-1.2899999618530273,0.699999988079071,-1.9900000095367432,-0.0986328125,-0.0352783203125,0.96612548828125,35.16999816894531,0.0,-109.0,3.7921142578125,-6.5479736328125,Waiting,0.0,0.0,-1253985.0,0.0,0.0,0.0,0.0,0.0,
4.996597000000009,0.0,0.0,43798.0,0.375,1357.5,1328.90625,0.0,0.125,0.7653807810000001,4.904986612397118,0.0,-3458.0,1.125,1312.5,1328.90625,0.0,0.125,2.910155952,2.454446382368505,0.0,1034.0,9.875,1395.0,1328.90625,0.0,0.125,3.358153953,4.913090566535791,0.0,-15851.0,2.5,-1350.0,-1328.90625,0.0,0.125,1.5771482760000002,4.930593277646436,0.0,-1.1399999856948853,0.3799999952316284,-2.2300000190734863,-0.10418701171875,-0.0472412109375,1.14349365234375,35.16999816894531,0.0,-110.0,3.7784271240234375,-6.556884765625,Waiting,0.0,0.0,-1253985.0,0.0,0.0,0.0,0.0,0.0,
5.114090000000026,0.0,0.0,44013.0,0.5,1342.5,1378.125,0.0,0.125,0.7641600780000001,4.901698444933125,0.0,-3458.0,1.125,1357.5,1378.125,0.0,0.125,2.910155952,2.45113720223701,0.0,1258.0,9.625,1387.5,1378.125,0.0,0.125,3.3618160620000004,4.909796966404915,0.0,-16074.0,2.5,-1380.0,-1378.125,0.0,0.125,1.57470687,4.92728794418176,0.0,-1.1100000143051147,0.05000000074505806,-2.0199999809265137,-0.0516357421875,0.05157470703125,1.3873291015625,35.16999816894531,0.0,-55.0,3.7609100341796875,-6.5585174560546875,Waiting,0.0,0.0,-1253985.0,0.0,0.0,0.0,0.0,0.0,
5.233177000000025,0.0,0.0,44229.0,0.75,1365.0,1427.34375,0.0,0.125,0.7629393750000001,4.904575591872431,0.0,-3011.0,1.125,1402.5,1427.34375,0.0,0.125,2.911376655,2.45403273526299,0.0,1480.0,10.5,1395.0,1427.34375,0.0,0.125,3.3605953590000004,4.9126788669284185,0.0,-16296.0,2.875,-1380.0,-1427.34375,0.0,0.125,1.5771482760000002,4.9301801113737955,0.0,-0.9300000071525574,0.05000000074505806,-1.809999942779541,-0.0208740234375,-5.4931640625E-4,1.06378173828125,35.150001525878906,0.0,-22.0,3.73846435546875,-6.5597991943359375,Waiting,0.0,0.0,-1253985.0,0.0,0.0,0.0,0.0,0.0,
5.357415000000037,0.0,0.0,44448.0,1.125,1342.5,1443.75,0.0,0.125,0.7641600780000001,4.907452738811738,0.0,-2783.0,1.125,1417.5,1443.75,0.0,0.125,2.911376655,2.45692826828897,0.0,1710.0,10.125,1425.0,1443.75,0.0,0.125,3.35693325,4.915560767451923,0.0,-16521.0,3.125,-1402.5,-1443.75,0.0,0.125,1.5771482760000002,4.933072278565831,0.0,-0.9300000071525574,-0.029999999329447746,-1.600000023841858,0.111572265625,-0.07647705078125,0.9366455078125,35.150001525878906,0.0,113.0,3.71966552734375,-6.559906005859375,Waiting,0.0,0.0,-1253985.0,0.0,0.0,0.0,0.0,0.0,
5.47893200000003,0.0,0.0,44666.0,2.0,1395.0,1537.6594877863067,0.0,0.375,0.6091307970000001,4.634564069469106,0.0,-2548.0,1.625,1477.5,1537.6594877863067,0.0,0.25,2.756347374,2.1822957343358356,0.0,1940.0,10.875,1440.0,1537.6594877863067,0.0,0.375,3.135986007,4.642221235051738,0.0,-16749.0,4.0,-1425.0,-1537.6594877863067,0.0,0.5,1.385497905,4.658758983763768,0.0,-1.3200000524520874,-0.17000000178813934,-1.4299999475479126,-0.13311767578125,-0.251220703125,0.8587646484375,35.150001525878906,0.0,-124.0,3.7002410888671875,-6.561920166015625,Waiting,0.0,0.0,-1253985.0,0.0,0.0,0.0,0.0,0.0,
5.610085000000021,0.0,0.0,44895.0,2.0,1440.0,1561.655251910988,0.0,0.25,0.45532221900000003,4.605257180204023,0.0,-2322.0,3.25,1395.0,1561.655251910988,0.0,0.25,2.606200905,2.152801562663037,0.0,2154.0,13.0,1147.5,1561.655251910988,0.0,0.125,2.926025091,4.612865925331042,0.0,-16973.0,5.0,-1402.5,-1561.655251910988,0.0,0.25,1.210937376,4.629299096792022,0.0,-2.6700000762939453,-0.5299999713897705,-2.5399999618530273,-0.00830078125,-0.29547119140625,1.17236328125,35.150001525878906,0.0,13.0,3.674102783203125,-6.58734130859375,Waiting,0.0,0.0,-1253985.0,0.0,0.0,0.0,0.0,0.0,
5.730774000000034,0.0,0.0,45132.0,0.375,1365.0,958.838859587867,0.0,0.375,0.294189423,4.354240208364394,0.0,-2126.0,0.125,1222.5,958.838859587867,0.0,0.25,2.412109128,1.9001804948567962,0.0,2371.0,4.625,1455.0,958.838859587867,0.0,0.125,2.8039547910000002,4.361434226563785,0.0,-17193.0,0.625,-1387.5,-958.838859587867,0.0,0.5,1.042480362,4.376971681504179,0.0,-3.0799999237060547,-1.0099999904632568,-4.050000190734863,-0.31536865234375,-0.15753173828125,0.924560546875,35.150001525878906,0.0,-290.0,3.6460113525390625,-6.6201324462890625,Waiting,0.0,0.0,-1253985.0,0.0,0.0,0.0,0.0,0.0,
5.854763000000036,0.0,0.0,45345.0,0.125,1380.0,380.31496703624725,0.0,1.875,4.727782719,3.643700423636798,0.0,-1926.0,0.0,1215.0,380.31496703624725,0.0,6.0,1.939697067,1.1851000848700985,0.0,2601.0,0.375,1402.5,380.31496703624725,0.0,2.875,2.406005613,3.6497204973824804,0.0,-17395.0,0.125,-1260.0,-380.31496703624725,0.0,3.125,0.5297851020000001,3.6627224973731556,0.0,-3.200000047683716,-2.549999952316284,-5.800000190734863,-0.48101806640625,-0.19097900390625,1.03826904296875,35.150001525878906,0.0,-418.0,3.5980224609375,-6.6289520263671875,Waiting,0.0,0.0,-1253985.0,0.0,0.0,0.0,0.0,0.0,
5.978810999999987,0.0,0.0,45534.0,0.0,975.0,0.0,0.0,0.375,4.396972206,3.643700423636798,0.0,-1791.0,0.0,907.5,0.0,0.0,0.5,1.569824058,1.1851000848700985,0.0,2781.0,0.125,1027.5,0.0,0.0,0.125,1.9152830070000002,3.6497204973824804,0.0,-17551.0,0.125,-960.0,0.0,0.0,0.25,0.142822251,3.6627224973731556,0.0,-2.359999895095825,-5.289999961853027,-7.050000190734863,-0.30682373046875,0.21343994140625,0.75323486328125,35.150001525878906,0.0,-264.0,3.5098419189453125,-6.627838134765625,Waiting,0.0,0.0,-1253985.0,0.0,0.0,0.0,0.0,0.0,
6.105652999999991,0.0,0.0,45672.0,0.0,690.0,0.0,0.0,0.375,4.294433154,3.643700423636798,0.0,-1671.0,0.0,750.0,0.0,0.0,0.25,1.408691262,1.1851000848700985,0.0,2922.0,0.0,727.5,0.0,0.0,0.5,1.7590330230000002,3.6497204973824804,0.0,-17672.0,0.0,-735.0,0.0,0.0,0.75,0.07446288300000001,3.6627224973731556,0.0,-1.4700000286102295,-5.579999923706055,-7.539999961853027,-0.010498046875,0.10125732421875,1.062255859375,35.150001525878906,0.0,75.0,3.398468017578125,-6.6152801513671875,Waiting,0.0,0.0,-1253985.0,0.0,0.0,0.0,0.0,0.0,
6.227513000000036,0.0,0.0,45780.0,0.0,540.0,0.0,0.0,0.375,4.3933100970000005,3.643700423636798,0.0,-1581.0,0.0,562.5,0.0,0.0,0.5,1.519775235,1.1851000848700985,0.0,3029.0,0.125,592.5,0.0,0.0,0.25,1.9775388600000001,3.6497204973824804,0.0,-17770.0,0.125,-585.0,0.0,0.0,0.375,0.235595679,3.6627224973731556,0.0,-0.9800000190734863,-4.730000019073486,-7.940000057220459,0.1014404296875,-0.00799560546875,0.943115234375,35.09000015258789,0.0,176.0,3.2916107177734375,-6.5902557373046875,Waiting,0.0,0.0,-1253985.0,0.0,0.0,0.0,0.0,0.0,
6.349804999999993,0.0,0.0,45859.0,0.125,397.5,810.2362096309662,0.0,2.5,4.244384331,3.0159423668524865,0.0,-1515.0,0.375,412.5,810.2362096309662,0.0,5.75,1.779784974,1.92855458977222,0.0,3107.0,10.75,330.0,-810.2362096309662,0.0,4.25,2.3718259290000003,4.389674732977291,0.0,-17828.0,13.125,-270.0,810.2362096309662,0.0,3.0,0.14526365700000002,3.031687206278561,0.0,0.28999999165534973,-4.010000228881836,-7.889999866485596,0.032958984375,0.323974609375,1.05133056640625,35.09000015258789,0.0,61.0,3.2078704833984375,-6.5459442138671875,Waiting,0.0,0.0,-1253985.0,0.0,0.0,0.0,0.0,0.0,
6.470241000000038,0.0,0.0,45919.0,2.5,247.5,826.7716348171234,0.0,0.5,3.864745698,3.015942366852486,0.0,-1481.0,5.5,180.0,826.7716348171234,0.0,1.5,2.285156016,1.92855458977222,0.0,3134.0,13.5,-52.5,-826.7716348171234,0.0,0.125,2.8942868130000003,4.389674732977291,0.0,-17818.0,12.375,82.5,826.7716348171234,0.0,0.625,4.637450697,3.031687206278561,0.0,0.5899999737739563,-3.9100000858306885,-6.730000019073486,-0.07537841796875,-0.18914794921875,1.104736328125,35.09000015258789,0.0,23.0,3.2086029052734375,-6.486785888671875,Waiting,0.0,0.0,-1253985.0,0.0,0.0,0.0,0.0,0.0,
6.591758000000031,0.0,0.0,45951.0,2.625,427.5,826.7716348171234,0.0,0.25,3.6816402480000003,3.015942366852486,0.0,-1424.0,7.75,420.0,826.7716348171234,0.0,0.25,2.40478491,1.92855458977222,0.0,3114.0,15.875,-75.0,-826.7716348171234,0.0,0.125,2.973632508,4.389674732977291,0.0,-17766.0,11.5,352.5,826.7716348171234,0.0,0.125,4.389647988,3.031687206278561,0.0,-0.3499999940395355,-3.950000047683716,-1.5800000429153442,-0.04754638671875,0.0184326171875,0.92498779296875,35.09000015258789,0.0,15.0,3.210296630859375,-6.4351043701171875,Waiting,0.0,0.0,-1253985.0,0.0,0.0,0.0,0.0,0.0,
6.7161149999999905,0.0,0.0,46162.0,0.875,727.5,826.7716348171234,0.0,0.5,3.651122673,3.015942366852486,0.0,-1300.0,2.625,795.0,826.7716348171234,0.0,0.25,2.401122801,1.92855458977222,0.0,3087.0,15.0,-157.5,-826.7716348171234,0.0,0.25,2.9003903280000003,4.389674732977291,0.0,-17665.0,9.125,652.5,826.7716348171234,0.0,0.375,4.437255405,3.031687206278561,0.0,-0.7599999904632568,-3.7799999713897705,8.529999732971191,0.00152587890625,0.1580810546875,0.9901123046875,35.09000015258789,0.0,91.0,3.2162017822265625,-6.3788604736328125,Waiting,0.0,0.0,-1253985.0,0.0,0.0,0.0,0.0,0.0,
6.846435999999987,0.0,0.0,46256.0,0.375,630.0,396.8503922224045,0.0,0.625,3.696288684,3.0159423668524865,0.0,-1190.0,0.25,615.0,396.8503922224045,0.0,0.25,2.421874752,1.92855458977222,0.0,3017.0,5.375,-1057.5,-396.8503922224045,0.0,0.125,2.8479000990000003,4.389674732977291,0.0,-17553.0,3.875,705.0,396.8503922224045,0.0,0.625,4.582519062,3.031687206278561,0.0,-0.8399999737739563,-3.630000114440918,17.6299991607666,0.066162109375,0.130615234375,1.01287841796875,35.09000015258789,0.0,168.0,3.2279052734375,-6.3231201171875,Waiting,0.0,0.0,-1253985.0,0.0,0.0,0.0,0.0,0.0,
6.968629000000015,0.0,0.0,46355.0,0.0,615.0,0.0,0.0,0.375,3.7927242210000003,3.0159423668524865,0.0,-1105.0,0.0,532.5,0.0,0.0,0.25,2.412109128,1.92855458977222,0.0,2859.0,0.125,-255.0,0.0,0.0,0.125,2.8076169,4.389674732977291,0.0,-17457.0,0.125,480.0,0.0,0.0,0.25,4.652099133,3.031687206278561,0.0,-1.2200000286102295,-3.440000057220459,24.600000381469727,-0.04937744140625,-0.0452880859375,1.14129638671875,35.09000015258789,0.0,8.0,3.2431793212890625,-6.2730560302734375,Waiting,0.0,0.0,-1253985.0,0.0,0.0,0.0,0.0,0.0,
7.086546000000031,0.0,0.0,46423.0,0.0,465.0,0.0,0.0,0.125,3.8415523410000003,3.0159423668524865,0.0,-1031.0,0.0,427.5,0.0,0.0,0.25,2.402343504,1.92855458977222,0.0,2840.0,0.125,-270.0,0.0,0.0,0.0,2.779540731,4.389674732977291,0.0,-17382.0,0.125,435.0,0.0,0.0,0.25,4.719237798,3.031687206278561,0.0,-1.340000033378601,-3.259999990463257,30.270000457763672,-0.04095458984375,0.00128173828125,1.136962890625,35.09000015258789,0.0,34.0,3.26348876953125,-6.2158660888671875,Waiting,0.0,0.0,-1253985.0,0.0,0.0,0.0,0.0,0.0,
7.206552000000025,0.0,0.0,46467.0,0.0,292.5,0.0,0.0,0.125,3.8415523410000003,3.0159423668524865,0.0,-984.0,0.0,247.5,0.0,0.0,0.25,2.397460692,1.92855458977222,0.0,2780.0,0.0,-292.5,0.0,0.0,0.0,2.7893063550000003,4.389674732977291,0.0,-17331.0,0.125,300.0,0.0,0.0,0.25,4.689940926,3.031687206278561,0.0,-1.440000057220459,-3.0199999809265137,33.779998779296875,0.0145263671875,-0.05279541015625,1.06353759765625,35.09000015258789,0.0,44.0,3.28741455078125,-6.20916748046875,Waiting,0.0,0.0,-1253985.0,0.0,0.0,0.0,0.0,0.0,
7.3213969999999975,0.0,0.0,46477.0,0.0,75.0,0.0,0.0,0.125,3.8415523410000003,3.0159423668524865,0.0,-963.0,0.0,112.5,0.0,0.0,0.25,2.397460692,1.92855458977222,0.0,2744.0,0.125,-75.0,0.0,0.0,0.0,2.7941891670000003,4.389674732977291,0.0,-17305.0,0.125,112.5,0.0,0.0,0.25,4.650878430000001,3.031687206278561,0.0,-1.340000033378601,-2.8299999237060547,35.060001373291016,-0.0504150390625,-0.01776123046875,0.9910888671875,35.13999938964844,0.0,2.0,3.315521240234375,-6.209381103515625,Waiting,0.0,0.0,-1253985.0,0.0,0.0,0.0,0.0,0.125,
7.449576000000001,0.0,0.0,46428.0,14.25,-277.5,-1673.4374999999998,0.0,0.125,3.8415523410000003,3.0159423668524887,0.0,-986.0,23.125,-202.5,-1673.4374999999998,0.0,0.25,2.397460692,1.9285545897722227,0.0,2738.0,15.5,82.5,1673.4374999999998,0.0,0.0,2.764892295,4.389674732977289,0.0,-17318.0,13.0,-217.5,-1673.4374999999998,0.0,0.25,4.645995618000001,3.0316872062785585,0.0,-1.100000023841858,-2.5199999809265137,32.22999954223633,-0.03680419921875,-0.03460693359375,1.17498779296875,35.13999938964844,0.0,6.0,3.3234405517578125,-6.210906982421875,Waiting,0.0,0.0,-1253985.0,0.0,0.0,0.0,0.0,0.0,
7.573040000000037,0.0,0.0,46335.0,0.0,-607.5,0.0,0.0,0.125,3.826903905,3.0159423668524887,0.0,-1088.0,0.0,-622.5,0.0,0.0,0.25,2.3779294440000003,1.9285545897722227,0.0,2766.0,0.0,270.0,0.0,0.0,0.0,2.764892295,4.389674732977289,0.0,-17402.0,0.125,-525.0,0.0,0.0,0.125,4.60205031,3.0316872062785585,0.0,-0.8600000143051147,-2.509999990463257,22.920000076293945,-0.1630859375,-0.3245849609375,1.18157958984375,35.13999938964844,0.0,-221.0,3.33465576171875,-6.2152099609375,Waiting,0.0,0.0,-1253985.0,0.0,0.0,0.0,0.0,0.0,
7.6947220000000085,0.0,0.0,46234.0,0.0,-630.0,0.0,0.0,0.125,3.826903905,3.0159423668524887,0.0,-1184.0,0.0,-622.5,0.0,0.0,0.125,2.36816382,1.9285545897722227,0.0,2811.0,0.125,502.5,0.0,0.0,0.0,2.766112998,4.389674732977289,0.0,-17498.0,0.125,-540.0,0.0,0.0,0.25,4.598388201000001,3.0316872062785585,0.0,-0.7099999785423279,-2.430000066757202,15.59000015258789,-0.09368896484375,-0.09466552734375,1.0933837890625,35.13999938964844,0.0,-66.0,3.34503173828125,-6.2203826904296875,Waiting,0.0,0.0,-1253985.0,0.0,0.0,0.0,0.0,0.0,
7.813222999999998,0.0,0.0,46169.0,0.0,-427.5,0.0,0.0,0.125,3.826903905,3.0159423668524887,0.0,-1260.0,0.0,-420.0,0.0,0.0,0.0,2.36816382,1.9285545897722227,0.0,2932.0,0.0,270.0,0.0,0.0,0.0,2.766112998,4.389674732977289,0.0,-17563.0,0.125,-375.0,0.0,0.0,0.25,4.598388201000001,3.0316872062785585,0.0,-0.6899999976158142,-2.380000114440918,10.119999885559082,-0.04949951171875,0.00994873046875,0.94818115234375,35.130001068115234,0.0,-5.0,3.3548736572265625,-6.225433349609375,Waiting,0.0,0.0,-1253985.0,0.0,0.0,0.0,0.0,0.0,
7.935075000000012,0.0,0.0,46137.0,0.0,-202.5,0.0,0.0,0.125,3.8281246080000004,3.0159423668524887,0.0,-1304.0,0.0,-202.5,0.0,0.0,0.0,2.36816382,1.9285545897722227,0.0,2955.0,0.0,202.5,0.0,0.0,0.0,2.764892295,4.389674732977289,0.0,-17607.0,0.125,-202.5,0.0,0.0,0.25,4.597167498,3.0316872062785585,0.0,-0.6499999761581421,-2.299999952316284,7.860000133514404,-0.03021240234375,-0.00933837890625,0.98687744140625,35.130001068115234,0.0,9.0,3.358978271484375,-6.2291107177734375,Waiting,0.0,0.0,-1253985.0,0.0,0.0,0.0,0.0,0.0,
8.060410000000033,0.0,0.0,46132.0,0.0,-22.5,0.0,0.0,0.125,3.826903905,3.0159423668524887,0.0,-1316.0,0.0,-45.0,0.0,0.0,0.0,2.36816382,1.9285545897722227,0.0,2955.0,0.125,0.0,0.0,0.0,0.0,2.766112998,4.389674732977289,0.0,-17620.0,0.125,-22.5,0.0,0.0,0.25,4.592284686,3.0316872062785585,0.0,-0.7400000095367432,-2.2899999618530273,7.789999961853027,-0.01678466796875,-0.0296630859375,1.01458740234375,35.130001068115234,0.0,21.0,3.3589935302734375,-6.229461669921875,Waiting,0.0,0.0,-1253985.0,0.0,0.0,0.0,0.0,0.125,
8.177706999999995,0.0,0.0,46132.0,0.0,0.0,0.0,0.0,0.25,3.826903905,3.0159423668524887,0.0,-1316.0,0.0,0.0,0.0,0.0,0.0,2.36816382,1.9285545897722227,0.0,2955.0,0.125,0.0,0.0,0.0,0.0,2.764892295,4.389674732977289,0.0,-17620.0,0.125,0.0,0.0,0.0,0.25,4.593505389000001,3.0316872062785585,0.0,-0.7300000190734863,-2.2100000381469727,8.449999809265137,-0.0357666015625,-0.01434326171875,1.02362060546875,35.130001068115234,0.0,3.0,3.359619140625,-6.2296142578125,Waiting,0.0,0.0,-1253985.0,0.0,0.0,0.0,0.0,0.0,
8.30679700000002,0.0,0.0,46132.0,0.0,0.0,0.0,0.0,0.125,3.823241796,3.0159423668524887,0.0,-1316.0,0.0,0.0,0.0,0.0,0.0,2.36816382,1.9285545897722227,0.0,2955.0,0.125,0.0,0.0,0.0,0.0,2.764892295,4.389674732977289,0.0,-17620.0,0.125,0.0,0.0,0.0,0.25,4.592284686,3.0316872062785585,0.0,-0.7300000190734863,-2.1600000858306885,8.600000381469727,-0.002685546875,0.037109375,1.093505859375,35.130001068115234,0.0,45.0,3.359893798828125,-6.230010986328125,Waiting,0.0,0.0,-1253985.0,0.0,0.0,0.0,0.0,0.0,
8.427526000000013,12.625,11.375,46132.0,0.0,0.0,0.0,0.0,0.125,3.823241796,3.0159423668524887,0.0,-1316.0,0.0,0.0,0.0,0.0,0.0,2.36816382,1.9285545897722227,0.0,2955.0,0.0,0.0,0.0,0.0,0.0,2.764892295,4.389674732977289,0.0,-17620.0,0.125,0.0,0.0,0.0,0.25,4.592284686,3.0316872062785585,0.0,-0.75,-2.0899999141693115,8.529999732971191,-0.010498046875,0.00872802734375,1.01470947265625,35.130001068115234,0.0,29.0,3.3613739013671875,-6.22967529296875,Waiting,0.0,0.0,-1253985.0,0.0,0.0,0.0,0.0,0.0,
8.546921000000031,0.0,0.0,46132.0,0.0,0.0,0.0,0.0,0.125,3.826903905,3.0159423668524887,0.0,-1316.0,0.0,0.0,0.0,0.0,0.0,2.36816382,1.9285545897722227,0.0,2955.0,0.125,0.0,0.0,0.0,0.0,2.764892295,4.389674732977289,0.0,-17620.0,0.125,0.0,0.0,0.0,0.25,4.592284686,3.0316872062785585,0.0,-0.7300000190734863,-2.0399999618530273,8.579999923706055,-0.01123046875,-0.01812744140625,1.01983642578125,35.130001068115234,0.0,24.0,3.362060546875,-6.2294921875,Waiting,0.0,0.0,-1253985.0,0.0,0.0,0.0,0.0,0.0,
8.670841000000015,0.0,0.0,46132.0,0.0,0.0,0.0,0.0,0.125,3.826903905,3.0159423668524887,0.0,-1316.0,0.0,0.0,0.0,0.0,0.0,2.36816382,1.9285545897722227,0.0,2955.0,0.125,0.0,0.0,0.0,0.0,2.766112998,4.389674732977289,0.0,-17620.0,0.125,0.0,0.0,0.0,0.25,4.593505389000001,3.0316872062785585,0.0,-0.75,-2.0,8.550000190734863,-0.02862548828125,-0.02001953125,1.007568359375,35.130001068115234,0.0,5.0,3.3622589111328125,-6.2294921875,Waiting,0.0,0.0,-1253985.0,0.0,0.0,0.0,0.0,0.0,
8.793130000000005,0.0,0.0,46132.0,0.0,0.0,0.0,0.0,0.125,3.822021093,3.0159423668524887,0.0,-1316.0,0.0,0.0,0.0,0.0,0.0,2.36816382,1.9285545897722227,0.0,2955.0,0.0,0.0,0.0,0.0,0.0,2.766112998,4.389674732977289,0.0,-17620.0,0.125,0.0,0.0,0.0,0.375,4.592284686,3.0316872062785585,0.0,-0.75,-1.9600000381469727,8.569999694824219,-0.0345458984375,-0.0107421875,1.013671875,35.13999938964844,0.0,0.0,3.3622589111328125,-6.2294921875,Waiting,0.0,0.0,-1253985.0,0.0,0.0,0.0,0.0,0.0,
8.922733000000008,0.0,0.0,46132.0,0.0,0.0,0.0,0.0,0.125,3.826903905,3.0159423668524887,0.0,-1316.0,0.0,0.0,0.0,0.0,0.0,2.369384523,1.9285545897722227,0.0,2955.0,0.0,0.0,0.0,0.0,0.0,2.764892295,4.389674732977289,0.0,-17620.0,0.125,0.0,0.0,0.0,0.25,4.592284686,3.0316872062785585,0.0,-0.75,-1.9299999475479126,8.5600004196167,-0.02532958984375,-0.0128173828125,1.01373291015625,35.13999938964844,0.0,8.0,3.3622589111328125,-6.2294921875,Waiting,0.0,0.0,-1253985.0,0.0,0.0,0.0,0.0,0.0,
9.038614,0.0,0.0,46132.0,0.0,0.0,0.0,0.0,0.125,3.8281246080000004,3.0159423668524887,0.0,-1316.0,0.0,0.0,0.0,0.0,0.0,2.369384523,1.9285545897722227,0.0,2955.0,0.125,0.0,0.0,0.0,0.0,2.763671592,4.389674732977289,0.0,-17620.0,0.125,0.0,0.0,0.0,0.25,4.592284686,3.0316872062785585,0.0,-0.75,-1.899999976158142,8.5600004196167,-0.02667236328125,-0.01123046875,1.02703857421875,35.13999938964844,0.0,7.0,3.3622589111328125,-6.2294921875,Waiting,0.0,0.0,-1253985.0,0.0,0.0,0.0,0.0,0.125,
9.166064000000013,0.0,0.0,46132.0,0.125,0.0,-246.09375,0.0,5.0,4.19921832,3.8164662239712652,0.0,-1317.0,0.25,-45.0,-246.09375,0.0,3.0,2.208251727,1.3589699257857812,0.0,2955.0,0.375,0.0,-246.09375,0.0,1.875,2.574462627,3.8227717390918747,0.0,-17620.0,0.375,37.5,246.09375,0.0,5.125,0.07080077400000001,3.836390228001278,0.0,-0.75,-1.909999966621399,8.569999694824219,-0.0479736328125,0.02581787109375,0.99871826171875,35.13999938964844,0.0,-8.0,3.3621063232421875,-6.229400634765625,Waiting,0.0,0.0,-1253985.0,0.0,0.0,0.0,0.0,0.0,
9.283271000000008,0.0,0.0,46115.0,0.125,-135.0,-262.5,0.0,0.75,4.692382332,3.816603221013325,0.0,-1324.0,1.0,-7.5,-262.5,0.0,0.5,1.774902162,1.3591077982921613,0.0,2948.0,0.875,-37.5,-262.5,0.0,0.5,2.210693133,3.8229089624786394,0.0,-17614.0,0.875,0.0,262.5,0.0,1.0,0.584716737,3.8365279402414973,0.0,-0.550000011920929,-1.850000023841858,8.59000015258789,0.00140380859375,0.05523681640625,0.99359130859375,35.150001525878906,0.0,42.0,3.362579345703125,-6.226470947265625,Waiting,0.0,0.0,-1253985.0,0.0,0.0,0.0,0.0,0.0,
9.411119000000006,0.0,0.0,46096.0,0.125,-105.0,-262.5,0.0,0.375,4.816894038,3.816603221013325,0.0,-1333.0,1.5,-90.0,-262.5,0.0,0.25,1.5795896820000002,1.3591077982921613,0.0,2935.0,1.0,-97.5,-262.5,0.0,0.0,2.048339634,3.8229089624786394,0.0,-17611.0,1.25,82.5,262.5,0.0,0.5,0.6872557890000001,3.8365279402414973,0.0,-0.3100000023841858,-1.8799999952316284,8.569999694824219,-0.07470703125,0.134521484375,0.98870849609375,35.150001525878906,0.0,-20.0,3.36279296875,-6.2247467041015625,Waiting,0.0,0.0,-1253985.0,0.0,0.0,0.0,0.0,0.0,
9.543174999999989,0.0,0.0,46069.0,0.625,-180.0,-311.71875,0.0,0.375,4.698485847000001,3.816603221013325,0.0,-1353.0,2.0,-165.0,-311.71875,0.0,0.25,1.6015623360000002,1.3591077982921613,0.0,2912.0,1.25,-142.5,-311.71875,0.0,0.125,2.135009547,3.8229089624786394,0.0,-17589.0,1.375,157.5,311.71875,0.0,0.5,0.562744083,3.8365279402414973,0.0,-0.3100000023841858,-1.8600000143051147,8.569999694824219,-0.04205322265625,-0.05828857421875,0.98785400390625,35.150001525878906,0.0,-17.0,3.3631591796875,-6.2228546142578125,Waiting,0.0,0.0,-1253985.0,0.0,0.0,0.0,0.0,0.0,
9.666437000000034,0.0,0.0,46046.0,1.0,-142.5,-328.125,0.0,0.25,4.606933122,3.816603221013325,0.0,-1379.0,2.75,-165.0,-328.125,0.0,0.5,1.751708805,1.3591077982921613,0.0,2885.0,1.75,-172.5,-328.125,0.0,0.125,2.254638441,3.8229089624786394,0.0,-17563.0,1.75,180.0,328.125,0.0,0.25,0.444335892,3.8365279402414973,0.0,-0.25,-1.7799999713897705,8.710000038146973,-0.05120849609375,-0.00958251953125,1.003173828125,35.150001525878906,0.0,-20.0,3.363616943359375,-6.2215423583984375,Waiting,0.0,0.0,-1253985.0,0.0,0.0,0.0,0.0,0.0,
9.789216000000016,0.0,0.0,46013.0,1.0,-232.5,-328.125,0.0,0.125,4.6008296070000005,3.8187953304783204,0.0,-1409.0,2.75,-255.0,-328.125,0.0,0.25,1.851806451,1.3613139161882415,0.0,2844.0,1.5,-270.0,-328.125,0.0,0.125,2.288818125,3.8251046937179582,0.0,-17490.0,1.75,240.0,328.125,0.0,0.25,0.40039058400000005,3.8387314936955783,0.0,0.05000000074505806,-1.8700000047683716,8.890000343322754,-0.058349609375,0.03558349609375,1.03997802734375,35.150001525878906,0.0,-18.0,3.3636627197265625,-6.215728759765625,Waiting,0.0,0.0,-1253985.0,0.0,0.0,0.0,0.0,0.0,
9.910478000000003,0.0,0.0,45966.0,0.75,-322.5,-360.9375,0.0,0.25,4.60205031,3.820987453009318,0.0,-1455.0,2.125,-345.0,-360.9375,0.0,0.25,1.857909966,1.3635200472338211,0.0,2789.0,1.0,-360.0,-360.9375,0.0,0.125,2.288818125,3.8273004380448676,0.0,-17434.0,1.5,330.0,360.9375,0.0,0.25,0.44067378300000004,3.8409350602838743,0.0,0.23000000417232513,-1.8700000047683716,9.1899995803833,-0.04962158203125,0.05108642578125,0.98834228515625,35.150001525878906,0.0,-9.0,3.3636322021484375,-6.211639404296875,Waiting,0.0,0.0,-1253985.0,0.0,0.0,0.0,0.0,0.0,
10.034969000000041,0.0,0.0,45910.0,1.0,-390.0,-459.37499999999994,0.0,0.25,4.60205031,3.8250976517231825,0.0,-1580.0,2.5,-405.0,-459.37499999999994,0.0,0.25,1.854247857,1.3676565117142214,0.0,2723.0,1.25,-412.5,-459.37499999999994,0.0,0.125,2.2790525010000002,3.831417427574795,0.0,-17369.0,1.625,412.5,459.37499999999994,0.0,0.25,0.477294873,3.8450667164431693,0.0,0.3700000047683716,-1.8300000429153442,9.34000015258789,-0.0555419921875,0.0045166015625,0.92547607421875,35.150001525878906,0.0,-25.0,3.363250732421875,-6.211578369140625,Waiting,0.0,0.0,-1253985.0,0.0,0.0,0.0,0.0,0.0,
10.167475000000035,0.0,0.0,45840.0,0.75,-442.5,-459.375,0.0,0.25,4.6008296070000005,3.827152764146118,0.0,-1656.0,1.75,-465.0,-459.375,0.0,0.25,1.857909966,1.3697247571039213,0.0,2651.0,1.0,-465.0,-459.375,0.0,0.125,2.263183362,3.8334759354273493,0.0,-17293.0,1.5,465.0,459.375,0.0,0.125,0.49194330900000005,3.8471325576570314,0.0,0.4699999988079071,-1.8600000143051147,9.4399995803833,0.00518798828125,-0.053955078125,1.07281494140625,35.150001525878906,0.0,29.0,3.3629913330078125,-6.2113494873046875,Waiting,0.0,0.0,-1253985.0,0.0,0.0,0.0,0.0,0.0,
10.28987400000001,0.0,0.0,45767.0,0.625,-480.0,-459.37499999999994,0.0,0.25,4.60205031,3.8285228260287383,0.0,-1737.0,1.375,-495.0,-459.37499999999994,0.0,0.25,1.848144342,1.3711035742142215,0.0,2573.0,0.625,-487.5,-459.37499999999994,0.0,0.125,2.263183362,3.8348482609081285,0.0,-17217.0,1.25,472.5,459.37499999999994,0.0,0.125,0.5175780720000001,3.848509771998725,0.0,0.49000000953674316,-1.8700000047683716,9.350000381469727,-0.00701904296875,-0.0875244140625,0.98046875,35.15999984741211,0.0,9.0,3.3628387451171875,-6.211700439453125,Waiting,0.0,0.0,-1253985.0,0.0,0.0,0.0,0.0,0.0,
10.423323000000034,0.0,0.0,45688.0,0.375,-487.5,-459.37500000000006,0.0,0.25,4.6008296070000005,3.8272897742541807,0.0,-1817.0,1.125,-495.0,-459.37500000000006,0.0,0.25,1.833495906,1.3698626427598013,0.0,2493.0,0.625,-495.0,-459.37500000000006,0.0,0.125,2.259521253,3.8336131719017046,0.0,-17141.0,1.125,472.5,459.37500000000006,0.0,0.25,0.5297851020000001,3.8472702830314653,0.0,0.3700000047683716,-1.9299999475479126,9.220000267028809,-0.0614013671875,-0.002685546875,0.96063232421875,35.15999984741211,0.0,-30.0,3.3618621826171875,-6.2134552001953125,Waiting,0.0,0.0,-1253985.0,0.0,0.0,0.0,0.0,0.0,
10.552058000000018,0.0,0.0,45530.0,0.375,-495.0,-459.375,0.0,0.25,4.6081538250000005,3.8255086820473716,0.0,-1895.0,1.125,-480.0,-459.375,0.0,0.125,1.828613094,1.3680701686818615,0.0,2416.0,0.625,-472.5,-459.375,0.0,0.125,2.25830055,3.8318291369978605,0.0,-17065.0,1.125,472.5,459.375,0.0,0.25,0.51269526,3.8454798925664706,0.0,0.25999999046325684,-1.840000033378601,9.119999885559082,-0.02313232421875,0.03564453125,0.97735595703125,35.15999984741211,0.0,13.0,3.362060546875,-6.2142333984375,Waiting,0.0,0.0,-1253985.0,0.0,0.0,0.0,0.0,0.0,
10.674591000000015,0.0,0.0,45456.0,0.375,-457.5,-459.37499999999994,0.0,0.25,4.6057124190000005,3.824138607098748,0.0,-1970.0,1.25,-457.5,-459.37499999999994,0.0,0.125,1.828613094,1.3666913384220614,0.0,2341.0,0.875,-457.5,-459.37499999999994,0.0,0.125,2.259521253,3.830456798429491,0.0,-16989.0,1.125,465.0,459.37499999999994,0.0,0.25,0.498046824,3.8441026650905625,0.0,0.23000000417232513,-1.840000033378601,9.100000381469727,-0.02740478515625,0.0076904296875,1.0191650390625,35.15999984741211,0.0,5.0,3.3628692626953125,-6.216217041015625,Waiting,0.0,0.0,-1253985.0,0.0,0.0,0.0,0.0,0.0,
10.81218100000004,0.0,0.0,45386.0,0.625,-442.5,-459.375,0.0,0.25,4.6057124190000005,3.8238645999486254,0.0,-2044.0,1.375,-450.0,-459.375,0.0,0.25,1.828613094,1.3664155802598013,0.0,2193.0,0.875,-465.0,-459.375,0.0,0.125,2.259521253,3.8301823385683713,0.0,-16916.0,1.25,435.0,459.375,0.0,0.125,0.5017089330000001,3.8438272274759098,0.0,0.11999999731779099,-1.8799999952316284,9.149999618530273,-0.04266357421875,-0.05926513671875,0.957763671875,35.119998931884766,0.0,-20.0,3.3628387451171875,-6.219940185546875,Waiting,0.0,0.0,-1253985.0,0.0,0.0,0.0,0.0,0.0,
10.940037000000011,0.0,0.0,45314.0,0.625,-450.0,-459.37500000000006,0.0,0.25,4.6057124190000005,3.824549624356934,0.0,-2118.0,1.375,-457.5,-459.37500000000006,0.0,0.25,1.827392391,1.3671049822402017,0.0,2122.0,0.875,-442.5,-459.37500000000006,0.0,0.125,2.25830055,3.8308684947649656,0.0,-16845.0,1.25,442.5,459.37500000000006,0.0,0.25,0.5017089330000001,3.844515828079649,0.0,0.11999999731779099,-1.8600000143051147,9.0600004196167,-0.01416015625,-0.01513671875,1.0277099609375,35.119998931884766,0.0,16.0,3.36370849609375,-6.2252197265625,Waiting,0.0,0.0,-1253985.0,0.0,0.0,0.0,0.0,0.0,
11.074900000000023,0.0,0.0,45243.0,0.625,-435.0,-459.37500000000006,0.0,0.25,4.615478043,3.8233165725823763,0.0,-2189.0,1.5,-450.0,-459.37500000000006,0.0,0.25,1.8408201240000002,1.365864050785781,0.0,2050.0,0.875,-450.0,-459.37500000000006,0.0,0.125,2.254638441,3.8296334057585417,0.0,-16772.0,1.25,450.0,459.37500000000006,0.0,0.25,0.49438471500000003,3.843276339112389,0.0,0.10999999940395355,-1.840000033378601,9.020000457763672,-0.05621337890625,-0.00164794921875,1.103759765625,35.119998931884766,0.0,-20.0,3.3640899658203125,-6.2269439697265625,Waiting,0.0,0.0,-1253985.0,0.0,0.0,0.0,0.0,0.0,
11.205326000000001,0.0,0.0,45170.0,0.625,-450.0,-459.375,0.0,0.125,4.606933122,3.8227685452161277,0.0,-2262.0,1.375,-450.0,-459.375,0.0,0.25,1.833495906,1.3653125213117614,0.0,1976.0,0.875,-465.0,-459.375,0.0,0.125,2.261962659,3.8290844729487117,0.0,-16700.0,1.25,450.0,459.375,0.0,0.125,0.47363276400000004,3.842725450748869,0.0,0.05999999865889549,-1.899999976158142,9.100000381469727,-0.0286865234375,0.0140380859375,1.07684326171875,35.119998931884766,0.0,9.0,3.3639984130859375,-6.2291107177734375,Waiting,0.0,0.0,-1253985.0,0.0,0.0,0.0,0.0,0.0,
11.332499000000011,0.0,0.0,45099.0,0.625,-450.0,-459.375,0.0,0.125,4.611815934,3.824001596990685,0.0,-2336.0,1.375,-457.5,-459.375,0.0,0.25,1.828613094,1.3665534527661813,0.0,1898.0,0.625,-487.5,-459.375,0.0,0.125,2.259521253,3.830319561955136,0.0,-16627.0,1.25,465.0,459.375,0.0,0.125,0.5029296360000001,3.8439649397161286,0.0,0.10000000149011612,-1.909999966621399,9.220000267028809,0.01983642578125,0.00994873046875,1.09478759765625,35.13999938964844,0.0,56.0,3.3640899658203125,-6.2294158935546875,Waiting,0.0,0.0,-1253985.0,0.0,0.0,0.0,0.0,0.0,
11.458716000000015,0.0,0.0,45025.0,0.625,-465.0,-459.375,0.0,0.125,4.6105952310000005,3.8255086820473716,0.0,-2410.0,1.25,-472.5,-459.375,0.0,0.125,1.828613094,1.3680701686818615,0.0,1822.0,0.625,-472.5,-459.375,0.0,0.125,2.25830055,3.8318291369978605,0.0,-16476.0,1.125,472.5,459.375,0.0,0.25,0.5029296360000001,3.8454798925664706,0.0,0.09000000357627869,-1.8799999952316284,9.170000076293945,-0.08209228515625,0.0218505859375,1.086669921875,35.13999938964844,0.0,-42.0,3.3651580810546875,-6.229522705078125,Waiting,0.0,0.0,-1253985.0,0.0,0.0,0.0,0.0,0.0,
11.588231000000029,0.0,0.0,44948.0,0.375,-472.5,-459.37500000000006,0.0,0.125,4.613036637,3.8248236445730597,0.0,-2487.0,1.125,-472.5,-459.37500000000006,0.0,0.125,1.8212888760000001,1.3673807535519613,0.0,1744.0,0.625,-487.5,-459.37500000000006,0.0,0.125,2.25830055,3.8311429677136757,0.0,-16398.0,0.875,480.0,459.37500000000006,0.0,0.25,0.5017089330000001,3.8447912788285166,0.0,0.05000000074505806,-1.8700000047683716,9.210000038146973,-0.0487060546875,0.02978515625,0.89324951171875,35.13999938964844,0.0,-14.0,3.3651275634765625,-6.2295379638671875,Waiting,0.0,0.0,-1253985.0,0.0,0.0,0.0,0.0,0.0,
11.715559999999998,0.0,0.0,44872.0,0.375,-472.5,-459.375,0.0,0.125,4.6105952310000005,3.8253716719393087,0.0,-2641.0,1.0,-480.0,-459.375,0.0,0.125,1.833495906,1.3679322830259812,0.0,1664.0,0.375,-495.0,-459.375,0.0,0.125,2.259521253,3.8316919005235053,0.0,-16321.0,0.875,480.0,459.375,0.0,0.25,0.5017089330000001,3.8453421671920367,0.0,0.029999999329447746,-1.840000033378601,9.300000190734863,-0.00799560546875,-0.05084228515625,1.04205322265625,35.13999938964844,0.0,16.0,3.36529541015625,-6.2298583984375,Waiting,0.0,0.0,-1253985.0,0.0,0.0,0.0,0.0,0.0,
11.84735500000004,0.0,0.0,44795.0,0.375,-472.5,-459.37499999999994,0.0,0.125,4.6105952310000005,3.826604736779869,0.0,-2718.0,0.875,-480.0,-459.37499999999994,0.0,0.125,1.833495906,1.3691732276299013,0.0,1585.0,0.375,-487.5,-459.37499999999994,0.0,0.125,2.259521253,3.8329270026175197,0.0,-16243.0,0.875,480.0,459.37499999999994,0.0,0.125,0.506591745,3.8465816692935113,0.0,-0.019999999552965164,-1.8200000524520874,9.300000190734863,-0.01763916015625,0.04473876953125,0.868408203125,35.15999984741211,0.0,17.0,3.3653564453125,-6.2312774658203125,Waiting,0.0,0.0,-1253985.0,0.0,0.0,0.0,0.0,0.0,
11.97173999999999,0.0,0.0,44720.0,0.375,-465.0,-459.37499999999994,0.0,0.125,4.611815934,3.826604736779869,0.0,-2793.0,1.0,-465.0,-459.37499999999994,0.0,0.125,1.833495906,1.3691732276299013,0.0,1509.0,0.375,-472.5,-459.37499999999994,0.0,0.125,2.259521253,3.8329270026175197,0.0,-16168.0,0.875,465.0,459.37499999999994,0.0,0.25,0.506591745,3.8465816692935113,0.0,-0.05000000074505806,-1.8300000429153442,9.380000114440918,-0.0216064453125,-0.02001953125,1.04473876953125,35.15999984741211,0.0,8.0,3.365203857421875,-6.2334136962890625,Waiting,0.0,0.0,-1253985.0,0.0,0.0,0.0,0.0,0.0,
12.09271100000001,0.0,0.0,44645.0,0.375,-457.5,-459.37499999999994,0.0,0.125,4.609374528,3.8277007915123664,0.0,-2868.0,0.875,-465.0,-459.37499999999994,0.0,0.25,1.833495906,1.3702762865779412,0.0,1433.0,0.375,-465.0,-459.37499999999994,0.0,0.125,2.259521253,3.8340248682371794,0.0,-16094.0,0.875,450.0,459.37499999999994,0.0,0.25,0.506591745,3.8476834460205516,0.0,-0.11999999731779099,-1.809999942779541,9.430000305175781,-0.018310546875,0.027099609375,1.114013671875,35.15999984741211,0.0,21.0,3.3651123046875,-6.236572265625,Waiting,0.0,0.0,-1253985.0,0.0,0.0,0.0,0.0,0.0,
12.213520000000019,0.0,0.0,44572.0,0.375,-457.5,-459.37500000000006,0.0,0.125,4.609374528,3.8283858289866783,0.0,-2942.0,1.0,-457.5,-459.37500000000006,0.0,0.125,1.833495906,1.3709657017078414,0.0,1359.0,0.375,-465.0,-459.37500000000006,0.0,0.0,2.259521253,3.834711037521364,0.0,-16021.0,0.875,457.5,459.37500000000006,0.0,0.25,0.507812448,3.8483720597585056,0.0,-0.15000000596046448,-1.75,9.449999809265137,-0.03411865234375,-0.0731201171875,1.068115234375,35.15999984741211,0.0,-12.0,3.3651275634765625,-6.2403106689453125,Waiting,0.0,0.0,-1253985.0,0.0,0.0,0.0,0.0,0.0,
12.340339000000036,0.0,0.0,44498.0,0.125,-397.5,-278.90625,0.0,0.25,4.611815934,3.828659836136801,0.0,-3007.0,0.125,-405.0,-278.90625,0.0,0.125,1.832275203,1.3712414598701015,0.0,1285.0,0.375,-412.5,-278.90625,0.0,0.0,2.259521253,3.8349854973824837,0.0,-15955.0,0.5,405.0,278.90625,0.0,0.25,0.507812448,3.848647497373159,0.0,-0.27000001072883606,-1.7200000286102295,9.460000038146973,-0.0235595703125,-0.04376220703125,0.95147705078125,35.150001525878906,0.0,-1.0,3.365203857421875,-6.2422027587890625,Waiting,0.0,0.0,-1253985.0,0.0,0.0,0.0,0.0,0.0,
12.467167000000016,0.0,0.0,44440.0,0.0,-292.5,0.0,0.0,0.25,4.6105952310000005,3.828659836136801,0.0,-3046.0,0.0,-270.0,0.0,0.0,0.125,1.828613094,1.3712414598701015,0.0,1229.0,0.125,-277.5,0.0,0.0,0.0,2.259521253,3.8349854973824837,0.0,-15907.0,0.125,292.5,0.0,0.0,0.25,0.506591745,3.848647497373159,0.0,-0.6399999856948853,-1.690000057220459,9.460000038146973,0.015625,-0.2532958984375,1.00018310546875,35.150001525878906,0.0,4.0,3.3654327392578125,-6.2488555908203125,Waiting,0.0,0.0,-1253985.0,0.0,0.0,0.0,0.0,0.0,
12.586645000000019,0.0,0.0,44400.0,0.0,-255.0,0.0,0.0,0.25,4.6105952310000005,3.828659836136801,0.0,-3086.0,0.0,-255.0,0.0,0.0,0.125,1.828613094,1.3712414598701015,0.0,1195.0,0.0,-217.5,0.0,0.0,0.0,2.259521253,3.8349854973824837,0.0,-15863.0,0.125,270.0,0.0,0.0,0.25,0.507812448,3.848647497373159,0.0,-1.0,-1.6699999570846558,9.520000457763672,0.02178955078125,-0.0791015625,1.08251953125,35.150001525878906,0.0,42.0,3.3650360107421875,-6.263671875,Waiting,0.0,0.0,-1253985.0,0.0,0.0,0.0,0.0,0.0,
12.706266000000003,0.0,0.0,44366.0,0.0,-150.0,0.0,0.0,0.25,4.611815934,3.828659836136801,0.0,-3106.0,0.0,-135.0,0.0,0.0,0.125,1.833495906,1.3712414598701015,0.0,1164.0,0.0,-135.0,0.0,0.0,0.0,2.259521253,3.8349854973824837,0.0,-15840.0,0.125,135.0,0.0,0.0,0.25,0.506591745,3.848647497373159,0.0,-1.340000033378601,-1.6299999952316284,9.550000190734863,-0.03466796875,-0.04962158203125,1.0245361328125,35.150001525878906,0.0,-9.0,3.365142822265625,-6.2851104736328125,Waiting,0.0,0.0,-1253985.0,0.0,0.0,0.0,0.0,0.0,
12.821429999999992,0.0,0.0,44351.0,0.125,-75.0,-377.34375,0.0,6.5,4.245605034,2.596967161085423,0.0,-3108.0,2.375,-7.5,377.34375,0.0,8.5,2.1118161900000003,2.6135627901299,0.0,1155.0,1.25,22.5,377.34375,0.0,4.75,2.6916501150000003,0.13105783595085146,0.0,-15835.0,0.75,7.5,-377.34375,0.0,7.25,0.885009675,0.13152472484906516,0.0,-1.7300000190734863,-1.5399999618530273,9.539999961853027,-4.2724609375E-4,-0.040771484375,1.05059814453125,35.150001525878906,0.0,26.0,3.3650970458984375,-6.3123931884765625,Waiting,0.0,0.0,-1253985.0,0.0,0.0,0.0,0.0,0.0,
12.946390000000013,0.0,0.0,44335.0,12.5,-52.5,-1410.9375,0.0,2.25,3.593749632,2.59683015097736,0.0,-3049.0,16.625,337.5,1410.9375,0.0,2.125,2.885741892,2.61342490447402,0.0,1159.0,14.5,15.0,1410.9375,0.0,1.125,3.4155269940000004,0.1309205994764964,0.0,-15872.0,11.0,-262.5,-1410.9375,0.0,1.5,1.6333006140000002,0.13138699947463145,0.0,-1.600000023841858,-0.8999999761581421,9.40999984741211,0.0596923828125,0.13421630859375,1.1639404296875,35.150001525878906,0.0,104.0,3.3710174560546875,-6.3445892333984375,Waiting,0.0,0.0,-1253985.0,0.0,0.0,0.0,0.0,0.125,
13.069826,0.0,0.0,44319.0,17.5,-465.0,-1410.9375,0.0,0.25,3.2141109990000003,2.5940900141461163,0.0,-2911.0,12.5,877.5,1410.9375,0.0,0.5,3.3654781710000004,2.6106672571039202,0.0,1171.0,25.25,165.0,1410.9375,0.0,0.0,3.7927242210000003,0.12817593542734781,0.0,-15923.0,17.375,-382.5,-1410.9375,0.0,0.25,2.086181427,0.12863255765702988,0.0,-0.7799999713897705,0.20000000298023224,8.319999694824219,0.11053466796875,0.3011474609375,1.1461181640625,35.150001525878906,0.0,151.0,3.3978424072265625,-6.3705596923828125,Waiting,0.0,0.0,-1253985.0,0.0,0.0,0.0,0.0,0.0,
13.194775000000023,0.0,0.0,44104.0,20.25,-660.0,-1410.9375,0.0,0.375,3.245849277,2.580115296707768,0.0,-2772.0,17.625,885.0,1410.9375,0.0,0.5,3.347167626,2.59660323579216,0.0,1235.0,27.5,705.0,1410.9375,0.0,0.25,3.616942989,0.11417812914530437,0.0,-16057.0,13.25,-937.5,-1410.9375,0.0,0.5,1.909179492,0.1145848846859402,0.0,-0.3199999928474426,1.0499999523162842,9.970000267028809,0.35528564453125,0.1318359375,0.85186767578125,35.150001525878906,0.0,358.0,3.4442901611328125,-6.3852996826171875,Waiting,0.0,0.0,-1253985.0,0.0,0.0,0.0,0.0,0.0,
13.319390000000014,0.0,0.0,43904.0,16.0,-1140.0,-1410.9375000000002,0.0,0.375,3.338622705,2.6027214549640365,0.0,-2580.0,13.0,1230.0,1410.9375000000002,0.0,0.25,3.1079098380000003,2.61935385618186,0.0,1372.0,21.875,1087.5,1410.9375000000002,0.0,0.125,3.4216305090000003,0.13682163699785868,0.0,-16227.0,13.25,-1102.5,-1410.9375000000002,0.0,0.25,1.693115061,0.13730905923313563,0.0,-0.7699999809265137,2.109999895095825,9.739999771118164,-0.0262451171875,-0.1153564453125,1.1646728515625,35.150001525878906,0.0,-85.0,3.502655029296875,-6.4025421142578125,Waiting,0.0,0.0,-1253985.0,0.0,0.0,0.0,0.0,0.0,
13.44512599999999,0.0,0.0,43641.0,7.5,-1620.0,-1410.9375,0.0,0.25,3.4289547270000003,2.599570287808604,0.0,-2352.0,7.75,1485.0,1410.9375,0.0,0.25,3.0114743010000002,2.61618255184412,0.0,1775.0,16.25,1275.0,1410.9375,0.0,0.125,3.398437152,0.13366526352564495,0.0,-16436.0,11.0,-1372.5,-1410.9375,0.0,0.25,1.668701001,0.13414144129223293,0.0,-0.8700000047683716,2.809999942779541,8.25,-0.02301025390625,-0.0413818359375,1.13482666015625,35.08000183105469,0.0,-81.0,3.5799102783203125,-6.432403564453125,Waiting,0.0,0.0,-1253985.0,0.0,0.0,0.0,0.0,0.0,
