Time,ClimberA1,ClimberA2,FRpos,FRCurrent,FRspeed,FRsetpoint,FRApos,FRACurrent,FREncpos,FREncSetpoint,FREncSpeed,FLpos,FLCurrent,FLspeed,FLsetpoint,FLApos,FLACurrent,FLEncpos,FLEncSetpoint,FLEncSpeed,BRpos,BRCurrent,BRspeed,BRsetpoint,BRApos,BRACurrent,BREncpos,BREncSetpoint,BREncSpeed,BLpos,BLCurrent,BLspeed,BLsetpoint,BLApos,BLACurrent,BLEncpos,BLEncSetpoint,BLEncSpeed,navx_Pitch,navx_Roll,navx_Yaw,navx_XAcc,navx_YAcc,navx_ZAcc,navx_Temp,navx_Bar,navx_Alt,navx_XDis,navx_YDis,GearPlacerState,ShootOutputV,ShootOutputCurrent,ShootEncPos,ShootEncVelocity,ShootSpeed,ShootSetpoint,CarouselSetpoint,CarouselCurrent,
0.1793670000000002,0.0,0.0,41151.0,0.0,0.0,0.0,0.0,0.125,0.759277266,0.01,0.0,38156.0,0.0,0.0,0.0,0.0,0.125,0.384521445,0.01,0.0,-2111.0,0.0,0.0,0.0,0.0,0.0,3.406982073,0.01,0.0,40692.0,0.125,0.0,0.0,0.0,0.125,1.5783689790000002,0.01,0.0,0.3700000047683716,-1.2999999523162842,0.0,-0.02459716796875,0.00323486328125,1.01593017578125,35.90999984741211,0.0,-1.0,1.6605072021484375,0.2805328369140625,Waiting,0.0,0.0,1.0,0.0,0.0,0.0,0.0,0.0,
0.23949200000000018,0.0,0.0,41151.0,0.0,0.0,0.0,0.0,0.25,0.759277266,0.01,4.881528266,38156.0,0.0,0.0,-0.0,0.0,0.25,0.384521445,0.01,-0.05170855500000027,-2111.0,0.0,0.0,0.0,0.0,0.125,3.406982073,0.01,0.05576136999999992,40692.0,0.0,0.0,-0.0,0.0,0.25,1.5783689790000002,0.01,4.9351482760000005,0.3700000047683716,-1.2999999523162842,0.0,-0.02178955078125,0.0074462890625,1.02093505859375,35.90999984741211,0.0,1.0,1.6605072021484375,0.2805328369140625,Waiting,0.0,0.0,1.0,0.0,0.0,0.0,0.0,0.0,
0.2658819999999996,0.0,0.0,41151.0,0.0,0.0,0.0,0.0,0.25,0.759277266,0.01,-0.0012207030000004337,38156.0,0.0,0.0,-0.0,0.0,0.25,0.385742148,0.01,0.0,-2111.0,0.0,0.0,0.0,0.0,0.125,3.406982073,0.01,0.0012207029999999897,40692.0,0.0,0.0,-0.0,0.0,0.25,1.5783689790000002,0.01,0.0,0.3700000047683716,-1.2999999523162842,0.0,-0.02093505859375,0.0076904296875,1.0186767578125,35.90999984741211,0.0,2.0,1.6605072021484375,0.2805328369140625,Waiting,0.0,0.0,1.0,0.0,0.0,0.0,0.0,0.0,
0.2930110000000004,0.0,0.0,41151.0,0.0,0.0,0.0,0.0,0.25,0.759277266,0.01,-0.0012207030000004337,38156.0,0.0,0.0,-0.0,0.0,0.25,0.385742148,0.01,0.0,-2111.0,0.0,0.0,0.0,0.0,0.125,3.406982073,0.01,0.0012207029999999897,40692.0,0.125,0.0,-0.0,0.0,0.25,1.5783689790000002,0.01,0.0,0.3700000047683716,-1.2899999618530273,0.0,-0.02398681640625,0.009765625,1.02606201171875,35.90999984741211,0.0,0.0,1.6605072021484375,0.2805328369140625,Waiting,0.0,0.0,1.0,0.0,0.0,0.0,0.0,0.0,
0.3230429999999997,0.0,0.0,41151.0,0.0,0.0,0.0,0.0,0.375,0.758056563,0.01,0.0012207030000004337,38156.0,0.0,0.0,-0.0,0.0,0.25,0.383300742,0.01,0.0,-2111.0,0.0,0.0,0.0,0.0,0.125,3.40576137,0.01,-0.0012207029999999897,40692.0,0.125,0.0,-0.0,0.0,0.25,1.5783689790000002,0.01,0.0,0.3700000047683716,-1.2999999523162842,0.0,-0.0235595703125,0.00543212890625,1.01995849609375,35.90999984741211,0.0,0.0,1.6605072021484375,0.2805328369140625,Waiting,0.0,0.0,1.0,0.0,0.0,0.0,0.0,0.0,
0.34692699999999965,0.0,0.0,41151.0,0.0,0.0,0.0,0.0,0.375,0.759277266,0.01,0.0012207030000004337,38156.0,0.0,0.0,-0.0,0.0,0.25,0.385742148,0.01,0.0,-2111.0,0.0,0.0,0.0,0.0,0.125,3.406982073,0.01,-0.0012207029999999897,40692.0,0.0,0.0,-0.0,0.0,0.25,1.5783689790000002,0.01,0.0,0.3700000047683716,-1.2899999618530273,0.0,-0.02337646484375,0.00592041015625,1.018310546875,35.90999984741211,0.0,0.0,1.6605072021484375,0.2805328369140625,Waiting,0.0,0.0,1.0,0.0,0.0,0.0,0.0,0.0,
0.3737910000000011,0.0,0.0,41151.0,0.0,0.0,0.0,0.0,0.375,0.759277266,0.01,0.0,38156.0,0.0,0.0,-0.0,0.0,0.25,0.385742148,0.01,0.0,-2111.0,0.0,0.0,0.0,0.0,0.125,3.406982073,0.01,0.0012207029999999897,40692.0,0.0,0.0,-0.0,0.0,0.25,1.5783689790000002,0.01,0.0,0.3700000047683716,-1.2899999618530273,0.0,-0.0228271484375,0.0067138671875,1.02203369140625,35.90999984741211,0.0,0.0,1.6605072021484375,0.2805328369140625,Waiting,0.0,0.0,1.0,0.0,0.0,0.0,0.0,0.0,
0.40231500000000053,0.0,0.0,41151.0,0.0,0.0,0.0,0.0,0.375,0.760497969,0.01,0.0,38156.0,0.0,0.0,-0.0,0.0,0.25,0.384521445,0.01,0.0,-2111.0,0.0,0.0,0.0,0.0,0.125,3.40576137,0.01,0.0012207029999999897,40692.0,0.125,0.0,-0.0,0.0,0.25,1.5783689790000002,0.01,0.0,0.3700000047683716,-1.2999999523162842,0.0,-0.02392578125,0.008056640625,1.0198974609375,35.90999984741211,0.0,0.0,1.6605072021484375,0.2805328369140625,Waiting,0.0,0.0,1.0,0.0,0.0,0.0,0.0,0.0,
0.42942400000000086,0.0,0.0,41151.0,0.0,0.0,0.0,0.0,0.375,0.759277266,0.01,0.0,38156.0,0.0,0.0,-0.0,0.0,0.25,0.384521445,0.01,0.0,-2111.0,0.0,0.0,0.0,0.0,0.125,3.406982073,0.01,-0.0012207029999999897,40692.0,0.125,0.0,-0.0,0.0,0.25,1.5783689790000002,0.01,0.0,0.3700000047683716,-1.2999999523162842,0.0,-0.02349853515625,0.0057373046875,1.01495361328125,35.869998931884766,0.0,0.0,1.6605072021484375,0.2805328369140625,Waiting,0.0,0.0,1.0,0.0,0.0,0.0,0.0,0.0,
0.4498170000000009,0.0,0.0,41151.0,0.0,0.0,0.0,0.0,0.375,0.759277266,0.01,0.0,38156.0,0.0,0.0,-0.0,0.0,0.25,0.385742148,0.01,0.0,-2111.0,0.0,0.0,0.0,0.0,0.125,3.406982073,0.01,-0.0012207029999999897,40692.0,0.0,0.0,-0.0,0.0,0.25,1.5783689790000002,0.01,0.0,0.3700000047683716,-1.2899999618530273,0.0,-0.024169921875,0.00543212890625,1.01898193359375,35.869998931884766,0.0,-1.0,1.6605072021484375,0.2805328369140625,Waiting,0.0,0.0,1.0,0.0,0.0,0.0,0.0,0.0,
0.4734410000000007,0.0,0.0,41151.0,0.0,0.0,0.0,0.0,0.375,0.759277266,0.01,0.0,38156.0,0.0,0.0,-0.0,0.0,0.25,0.384521445,0.01,0.0,-2111.0,0.0,0.0,0.0,0.0,0.125,3.406982073,0.01,0.0012207029999999897,40692.0,0.0,0.0,-0.0,0.0,0.25,1.5783689790000002,0.01,0.0,0.3700000047683716,-1.2899999618530273,0.0,-0.02325439453125,0.00830078125,1.020751953125,35.869998931884766,0.0,0.0,1.6605072021484375,0.2805328369140625,Waiting,0.0,0.0,1.0,0.0,0.0,0.0,0.0,0.0,
0.49545900000000076,0.0,0.0,41151.0,0.0,0.0,0.0,0.0,0.375,0.7629393750000001,0.01,0.0,38156.0,0.0,0.0,-0.0,0.0,0.25,0.384521445,0.01,0.0,-2111.0,0.0,0.0,0.0,0.0,0.125,3.406982073,0.01,0.0012207029999999897,40692.0,0.0,0.0,-0.0,0.0,0.25,1.5783689790000002,0.01,0.0,0.3700000047683716,-1.2899999618530273,0.0,-0.0233154296875,0.00604248046875,1.0164794921875,35.869998931884766,0.0,0.0,1.6605072021484375,0.2805328369140625,Waiting,0.0,0.0,1.0,0.0,0.0,0.0,0.0,0.0,
0.5225750000000007,0.0,0.0,41151.0,0.0,0.0,0.0,0.0,0.375,0.759277266,0.01,0.0,38156.0,0.0,0.0,-0.0,0.0,0.25,0.384521445,0.01,0.0,-2111.0,0.0,0.0,0.0,0.0,0.125,3.406982073,0.01,-0.0012207029999999897,40692.0,0.125,0.0,-0.0,0.0,0.25,1.5771482760000002,0.01,0.0,0.3700000047683716,-1.2899999618530273,0.0,-0.02154541015625,0.007568359375,1.01910400390625,35.869998931884766,0.0,1.0,1.6605072021484375,0.2805328369140625,Waiting,0.0,0.0,1.0,0.0,0.0,0.0,0.0,0.0,
0.5473549999999996,0.0,0.0,41151.0,0.0,0.0,0.0,0.0,0.375,0.759277266,0.01,0.0,38156.0,0.0,0.0,-0.0,0.0,0.25,0.384521445,0.01,0.0,-2111.0,0.0,0.0,0.0,0.0,0.125,3.406982073,0.01,-0.0012207029999999897,40692.0,0.125,0.0,-0.0,0.0,0.25,1.5783689790000002,0.01,0.0,0.3700000047683716,-1.2899999618530273,0.0,-0.02410888671875,0.00531005859375,1.02093505859375,35.869998931884766,0.0,-1.0,1.6605072021484375,0.2805328369140625,Waiting,0.0,0.0,1.0,0.0,0.0,0.0,0.0,0.0,
0.5730920000000006,0.0,0.0,41151.0,0.0,0.0,0.0,0.0,0.375,0.759277266,0.01,0.0,38156.0,0.0,0.0,-0.0,0.0,0.25,0.384521445,0.01,0.0,-2111.0,0.0,0.0,0.0,0.0,0.125,3.406982073,0.01,0.0012207029999999897,40692.0,0.125,0.0,-0.0,0.0,0.25,1.5771482760000002,0.01,0.0,0.3700000047683716,-1.2899999618530273,0.0,-0.02435302734375,0.00567626953125,1.01708984375,35.869998931884766,0.0,-1.0,1.6605072021484375,0.2805328369140625,Waiting,0.0,0.0,1.0,0.0,0.0,0.0,0.0,0.0,
0.5972610000000004,0.0,0.0,41151.0,0.0,0.0,0.0,0.0,0.375,0.759277266,0.01,0.0,38156.0,0.0,0.0,-0.0,0.0,0.25,0.384521445,0.01,0.0,-2111.0,0.0,0.0,0.0,0.0,0.125,3.408202776,0.01,0.0012207029999999897,40692.0,0.125,0.0,-0.0,0.0,0.25,1.5771482760000002,0.01,0.0,0.3700000047683716,-1.2799999713897705,0.0,-0.0245361328125,0.00738525390625,1.02294921875,35.869998931884766,0.0,-1.0,1.6605072021484375,0.2805328369140625,Waiting,0.0,0.0,1.0,0.0,0.0,0.0,0.0,0.0,
0.6253999999999996,0.0,0.0,41151.0,0.0,0.0,0.0,0.0,0.375,0.760497969,0.01,0.0,38156.0,0.0,0.0,-0.0,0.0,0.25,0.385742148,0.01,0.0,-2111.0,0.0,0.0,0.0,0.0,0.125,3.406982073,0.01,0.0,40692.0,0.0,0.0,-0.0,0.0,0.25,1.5771482760000002,0.01,0.0,0.3700000047683716,-1.2899999618530273,0.0,-0.02301025390625,0.00738525390625,1.0230712890625,35.869998931884766,0.0,0.0,1.6605072021484375,0.2805328369140625,Waiting,0.0,0.0,1.0,0.0,0.0,0.0,0.0,0.0,
0.6474210000000002,0.0,0.0,41151.0,0.0,0.0,0.0,0.0,0.375,0.759277266,0.01,0.0,38156.0,0.0,0.0,-0.0,0.0,0.25,0.384521445,0.01,0.0,-2111.0,0.0,0.0,0.0,0.0,0.125,3.406982073,0.01,0.0,40692.0,0.0,0.0,-0.0,0.0,0.25,1.5783689790000002,0.01,0.0,0.3700000047683716,-1.2899999618530273,0.0,-0.0208740234375,0.0047607421875,1.0201416015625,35.869998931884766,0.0,2.0,1.6605072021484375,0.2805328369140625,Waiting,0.0,0.0,1.0,0.0,0.0,0.0,0.0,0.0,
0.667509,0.0,0.0,41151.0,0.0,0.0,0.0,0.0,0.375,0.7495116420000001,0.01,0.0,38156.0,0.0,0.0,-0.0,0.0,0.25,0.384521445,0.01,0.0,-2111.0,0.0,0.0,0.0,0.0,0.125,3.406982073,0.01,0.0,40692.0,0.0,0.0,-0.0,0.0,0.25,1.5783689790000002,0.01,0.0,0.3700000047683716,-1.2899999618530273,0.0,-0.0247802734375,0.00958251953125,1.01788330078125,35.869998931884766,0.0,-1.0,1.6605072021484375,0.2805328369140625,Waiting,0.0,0.0,1.0,0.0,0.0,0.0,0.0,0.0,
0.6898450000000012,0.0,0.0,41151.0,0.0,0.0,0.0,0.0,0.375,0.759277266,0.01,0.0,38156.0,0.0,0.0,-0.0,0.0,0.25,0.384521445,0.01,0.0,-2111.0,0.0,0.0,0.0,0.0,0.125,3.406982073,0.01,0.0,40692.0,0.0,0.0,-0.0,0.0,0.25,1.5783689790000002,0.01,0.0,0.3700000047683716,-1.2899999618530273,0.0,-0.02362060546875,0.0064697265625,1.02032470703125,35.869998931884766,0.0,0.0,1.6605072021484375,0.2805328369140625,Waiting,0.0,0.0,1.0,0.0,0.0,0.0,0.0,0.0,
0.710567000000001,0.0,0.0,41151.0,0.0,0.0,0.0,0.0,0.375,0.759277266,0.01,0.0,38156.0,0.0,0.0,-0.0,0.0,0.25,0.384521445,0.01,0.0,-2111.0,0.0,0.0,0.0,0.0,0.125,3.406982073,0.01,-0.0012207029999999897,40692.0,0.125,0.0,-0.0,0.0,0.25,1.5771482760000002,0.01,0.0,0.3700000047683716,-1.2899999618530273,0.0,-0.0269775390625,9.765625E-4,1.01593017578125,35.869998931884766,0.0,-4.0,1.6605072021484375,0.2805328369140625,Waiting,0.0,0.0,1.0,0.0,0.0,0.0,0.0,0.0,
0.7431810000000005,0.0,0.0,41151.0,0.0,0.0,0.0,0.0,0.375,0.759277266,0.01,0.0,38156.0,0.0,0.0,-0.0,0.0,0.25,0.385742148,0.01,0.0,-2111.0,0.0,0.0,0.0,0.0,0.125,3.406982073,0.01,-0.0012207029999999897,40692.0,0.125,0.0,-0.0,0.0,0.25,1.5783689790000002,0.01,0.0,0.3700000047683716,-1.2899999618530273,0.0,-0.0216064453125,0.00787353515625,1.01971435546875,35.869998931884766,0.0,1.0,1.6605072021484375,0.2805328369140625,Waiting,0.0,0.0,1.0,0.0,0.0,0.0,0.0,0.0,
0.7706080000000002,0.0,0.0,41151.0,0.0,0.0,0.0,0.0,0.375,0.759277266,0.01,0.0,38156.0,0.0,0.0,-0.0,0.0,0.25,0.385742148,0.01,0.0,-2111.0,0.0,0.0,0.0,0.0,0.125,3.406982073,0.01,0.0,40692.0,0.125,0.0,-0.0,0.0,0.25,1.5771482760000002,0.01,0.0,0.3700000047683716,-1.2899999618530273,0.0,-0.02288818359375,0.00848388671875,1.01678466796875,35.869998931884766,0.0,0.0,1.6605072021484375,0.2805328369140625,Waiting,0.0,0.0,1.0,0.0,0.0,0.0,0.0,0.0,
0.7929350000000013,0.0,0.0,41151.0,0.0,0.0,0.0,0.0,0.375,0.759277266,0.01,0.0,38156.0,0.0,0.0,-0.0,0.0,0.25,0.385742148,0.01,0.0,-2111.0,0.0,0.0,0.0,0.0,0.125,3.406982073,0.01,0.0,40692.0,0.125,0.0,-0.0,0.0,0.25,1.5783689790000002,0.01,0.0,0.3700000047683716,-1.2999999523162842,0.0,-0.02203369140625,0.007080078125,1.0162353515625,35.869998931884766,0.0,1.0,1.6605072021484375,0.2805328369140625,Waiting,0.0,0.0,1.0,0.0,0.0,0.0,0.0,0.0,
0.8293630000000012,0.0,0.0,41151.0,0.0,0.0,0.0,0.0,0.375,0.759277266,0.01,0.0,38156.0,0.0,0.0,-0.0,0.0,0.25,0.384521445,0.01,0.0,-2111.0,0.0,0.0,0.0,0.0,0.125,3.406982073,0.01,0.0,40692.0,0.125,0.0,-0.0,0.0,0.25,1.5783689790000002,0.01,0.0,0.3799999952316284,-1.2899999618530273,0.0,-0.02386474609375,0.00604248046875,1.02093505859375,35.869998931884766,0.0,0.0,1.6605072021484375,0.2805328369140625,Waiting,0.0,0.0,1.0,0.0,0.0,0.0,0.0,0.0,
0.8505730000000004,0.0,0.0,41151.0,0.0,0.0,0.0,0.0,0.375,0.782470623,0.01,0.0,38156.0,0.0,0.0,-0.0,0.0,0.25,0.385742148,0.01,0.0,-2111.0,0.0,0.0,0.0,0.0,0.125,3.406982073,0.01,0.0,40692.0,0.125,0.0,-0.0,0.0,0.25,1.5783689790000002,0.01,0.0,0.3700000047683716,-1.2899999618530273,0.0,-0.02099609375,0.00701904296875,1.01873779296875,35.869998931884766,0.0,1.0,1.6605072021484375,0.2805328369140625,Waiting,0.0,0.0,1.0,0.0,0.0,0.0,0.0,0.0,
0.8740990000000002,0.0,0.0,41151.0,0.0,0.0,0.0,0.0,0.375,0.759277266,0.01,0.0,38156.0,0.0,0.0,-0.0,0.0,0.25,0.385742148,0.01,0.0,-2111.0,0.0,0.0,0.0,0.0,0.125,3.406982073,0.01,0.0,40692.0,0.0,0.0,-0.0,0.0,0.25,1.5783689790000002,0.01,0.0,0.3700000047683716,-1.2899999618530273,0.0,-0.02410888671875,0.0086669921875,1.0185546875,35.869998931884766,0.0,-1.0,1.6605072021484375,0.2805328369140625,Waiting,0.0,0.0,1.0,0.0,0.0,0.0,0.0,0.0,
0.895773000000001,0.0,0.0,41151.0,0.0,0.0,0.0,0.0,0.375,0.780029217,0.01,0.0,38156.0,0.0,0.0,-0.0,0.0,0.25,0.384521445,0.01,0.0,-2111.0,0.0,0.0,0.0,0.0,0.125,3.406982073,0.01,0.0,40692.0,0.0,0.0,-0.0,0.0,0.25,1.5820310880000001,0.01,0.0,0.3799999952316284,-1.2899999618530273,0.0,-0.0269775390625,0.0086669921875,1.01983642578125,35.869998931884766,0.0,-3.0,1.6605072021484375,0.2805328369140625,Waiting,0.0,0.0,1.0,0.0,0.0,0.0,0.0,0.0,
0.9145130000000008,0.0,0.0,41151.0,0.0,0.0,0.0,0.0,0.375,0.759277266,0.01,0.0,38156.0,0.0,0.0,-0.0,0.0,0.25,0.384521445,0.01,0.0,-2111.0,0.0,0.0,0.0,0.0,0.125,3.406982073,0.01,0.0,40692.0,0.0,0.0,-0.0,0.0,0.25,1.5783689790000002,0.01,0.0,0.3700000047683716,-1.2899999618530273,0.0,-0.0228271484375,0.00799560546875,1.01995849609375,35.869998931884766,0.0,0.0,1.6605072021484375,0.2805328369140625,Waiting,0.0,0.0,1.0,0.0,0.0,0.0,0.0,0.0,
0.9389850000000006,0.0,0.0,41151.0,0.0,0.0,0.0,0.0,0.375,0.759277266,0.01,0.0,38156.0,0.0,0.0,-0.0,0.0,0.25,0.384521445,0.01,0.0,-2111.0,0.0,0.0,0.0,0.0,0.125,3.406982073,0.01,0.0,40692.0,0.125,0.0,-0.0,0.0,0.25,1.5783689790000002,0.01,0.0,0.3700000047683716,-1.2899999618530273,0.0,-0.0220947265625,0.0089111328125,1.02294921875,35.869998931884766,0.0,0.0,1.6605072021484375,0.2805328369140625,Waiting,0.0,0.0,1.0,0.0,0.0,0.0,0.0,0.0,
0.9574040000000005,0.0,0.0,41151.0,0.0,0.0,0.0,0.0,0.375,0.759277266,0.01,0.0,38156.0,0.0,0.0,-0.0,0.0,0.25,0.38208003900000004,0.01,0.0,-2111.0,0.0,0.0,0.0,0.0,0.125,3.406982073,0.01,0.0,40692.0,0.125,0.0,-0.0,0.0,0.25,1.5783689790000002,0.01,0.0,0.3799999952316284,-1.2899999618530273,0.0,-0.0269775390625,0.00909423828125,1.02264404296875,35.869998931884766,0.0,-3.0,1.6605072021484375,0.2805328369140625,Waiting,0.0,0.0,1.0,0.0,0.0,0.0,0.0,0.0,
0.985514000000001,0.0,0.0,41151.0,0.0,0.0,0.0,0.0,0.375,0.760497969,0.01,-0.0012207030000004337,38156.0,0.0,0.0,-0.0,0.0,0.25,0.385742148,0.01,0.0,-2111.0,0.0,0.0,0.0,0.0,0.125,3.408202776,0.01,0.0,40692.0,0.125,0.0,-0.0,0.0,0.25,1.5783689790000002,0.01,0.0,0.3799999952316284,-1.2899999618530273,0.0,-0.0224609375,0.0064697265625,1.0196533203125,35.869998931884766,0.0,0.0,1.6605072021484375,0.2805328369140625,Waiting,0.0,0.0,1.0,0.0,0.0,0.0,0.0,0.0,
1.0076360000000004,0.0,0.0,41151.0,0.0,0.0,0.0,0.0,0.375,0.759277266,0.01,-0.0012207030000004337,38156.0,0.0,0.0,-0.0,0.0,0.25,0.384521445,0.01,0.0,-2111.0,0.0,0.0,0.0,0.0,0.125,3.406982073,0.01,0.0,40692.0,0.125,0.0,-0.0,0.0,0.25,1.5759275730000002,0.01,0.0,0.3799999952316284,-1.2899999618530273,0.0,-0.02459716796875,0.006591796875,1.02789306640625,35.869998931884766,0.0,-1.0,1.6605072021484375,0.2805328369140625,Waiting,0.0,0.0,1.0,0.0,0.0,0.0,0.0,0.0,
1.0314390000000002,0.0,0.0,41151.0,0.0,0.0,0.0,0.0,0.375,0.759277266,0.01,0.0012207030000004337,38156.0,0.0,0.0,-0.0,0.0,0.25,0.385742148,0.01,0.0,-2111.0,0.0,0.0,0.0,0.0,0.125,3.40576137,0.01,0.0012207029999999897,40692.0,0.0,0.0,-0.0,0.0,0.25,1.5771482760000002,0.01,0.0,0.3799999952316284,-1.2899999618530273,0.0,-0.02215576171875,0.00445556640625,1.01934814453125,35.869998931884766,0.0,0.0,1.6605072021484375,0.2805328369140625,Waiting,0.0,0.0,1.0,0.0,0.0,0.0,0.0,0.0,
1.0513649999999999,0.0,0.0,41151.0,0.0,0.0,0.0,0.0,0.375,0.758056563,0.01,0.0012207030000004337,38156.0,0.0,0.0,-0.0,0.0,0.25,0.385742148,0.01,0.0,-2111.0,0.0,0.0,0.0,0.0,0.125,3.402099261,0.01,0.0012207029999999897,40692.0,0.0,0.0,-0.0,0.0,0.25,1.5783689790000002,0.01,0.0,0.3799999952316284,-1.2899999618530273,0.0,-0.02301025390625,0.00421142578125,1.02313232421875,35.869998931884766,0.0,0.0,1.6605072021484375,0.2805328369140625,Waiting,0.0,0.0,1.0,0.0,0.0,0.0,0.0,0.0,
1.073349,0.0,0.0,41151.0,0.0,0.0,0.0,0.0,0.375,0.759277266,0.01,-0.0012207030000004337,38156.0,0.0,0.0,-0.0,0.0,0.25,0.383300742,0.01,0.0,-2111.0,0.0,0.0,0.0,0.0,0.125,3.406982073,0.01,-0.0012207029999999897,40692.0,0.125,0.0,-0.0,0.0,0.25,1.5783689790000002,0.01,0.0,0.3799999952316284,-1.2899999618530273,0.0,-0.0228271484375,0.0054931640625,1.027099609375,35.869998931884766,0.0,0.0,1.6605072021484375,0.2805328369140625,Waiting,0.0,0.0,1.0,0.0,0.0,0.0,0.0,0.0,
1.0930480000000007,0.0,0.0,41151.0,0.0,0.0,0.0,0.0,0.375,0.759277266,0.01,-0.0012207030000004337,38156.0,0.0,0.0,-0.0,0.0,0.25,0.385742148,0.01,0.0,-2111.0,0.0,0.0,0.0,0.0,0.125,3.406982073,0.01,-0.0012207029999999897,40692.0,0.125,0.0,-0.0,0.0,0.25,1.5783689790000002,0.01,0.0,0.3700000047683716,-1.2899999618530273,0.0,-0.0213623046875,0.00738525390625,1.0172119140625,35.869998931884766,0.0,1.0,1.6605072021484375,0.2805328369140625,Waiting,0.0,0.0,1.0,0.0,0.0,0.0,0.0,0.0,
1.1134719999999998,0.0,0.0,41151.0,0.0,0.0,0.0,0.0,0.375,0.759277266,0.01,-0.0012207030000004337,38156.0,0.0,0.0,-0.0,0.0,0.25,0.385742148,0.01,0.0,-2111.0,0.0,0.0,0.0,0.0,0.125,3.40576137,0.01,0.0,40692.0,0.125,0.0,-0.0,0.0,0.25,1.5783689790000002,0.01,0.0,0.3799999952316284,-1.2899999618530273,0.0,-0.0250244140625,0.0069580078125,1.0189208984375,35.869998931884766,0.0,-1.0,1.6605072021484375,0.2805328369140625,Waiting,0.0,0.0,1.0,0.0,0.0,0.0,0.0,0.0,
1.1404320000000008,0.0,0.0,41151.0,0.0,0.0,0.0,0.0,0.375,0.759277266,0.01,0.0012207030000004337,38156.0,0.0,0.0,-0.0,0.0,0.25,0.385742148,0.01,0.0,-2111.0,0.0,0.0,0.0,0.0,0.125,3.406982073,0.01,0.0,40692.0,0.125,0.0,-0.0,0.0,0.25,1.5783689790000002,0.01,0.0,0.3799999952316284,-1.2899999618530273,0.0,-0.02215576171875,0.0057373046875,1.01776123046875,35.869998931884766,0.0,0.0,1.6605072021484375,0.2805328369140625,Waiting,0.0,0.0,1.0,0.0,0.0,0.0,0.0,0.0,
1.1582880000000004,0.0,0.0,41151.0,0.0,0.0,0.0,0.0,0.375,0.75683586,0.01,0.0012207030000004337,38156.0,0.0,0.0,-0.0,0.0,0.25,0.384521445,0.01,0.0,-2111.0,0.0,0.0,0.0,0.0,0.125,3.406982073,0.01,0.0,40692.0,0.125,0.0,-0.0,0.0,0.25,1.5783689790000002,0.01,0.0,0.3799999952316284,-1.2899999618530273,0.0,-0.02410888671875,0.0057373046875,1.0205078125,35.869998931884766,0.0,0.0,1.6605072021484375,0.2805328369140625,Waiting,0.0,0.0,1.0,0.0,0.0,0.0,0.0,0.0,
1.1837669999999998,0.0,0.0,41151.0,0.0,0.0,0.0,0.0,0.375,0.759277266,0.01,0.0,38156.0,0.0,0.0,-0.0,0.0,0.25,0.384521445,0.01,0.0,-2111.0,0.0,0.0,0.0,0.0,0.125,3.404540667,0.01,0.0012207029999999897,40692.0,0.125,0.0,-0.0,0.0,0.25,1.5783689790000002,0.01,0.0,0.3700000047683716,-1.2899999618530273,0.0,-0.0260009765625,0.00555419921875,1.01910400390625,35.869998931884766,0.0,-2.0,1.6605072021484375,0.2805328369140625,Waiting,0.0,0.0,1.0,0.0,0.0,0.0,0.0,0.0,
1.2040150000000012,0.0,0.0,41151.0,0.0,0.0,0.0,0.0,0.375,0.759277266,0.01,0.0,38156.0,0.0,0.0,-0.0,0.0,0.25,0.384521445,0.01,0.0,-2111.0,0.0,0.0,0.0,0.0,0.125,3.406982073,0.01,0.0012207029999999897,40692.0,0.125,0.0,-0.0,0.0,0.25,1.5783689790000002,0.01,0.0,0.3700000047683716,-1.2899999618530273,0.0,-0.02105712890625,0.007568359375,1.01934814453125,35.869998931884766,0.0,2.0,1.6605072021484375,0.2805328369140625,Waiting,0.0,0.0,1.0,0.0,0.0,0.0,0.0,0.0,
1.229148000000001,0.0,0.0,41151.0,0.0,0.0,0.0,0.0,0.375,0.784912029,0.01,0.0,38156.0,0.0,0.0,-0.0,0.0,0.25,0.384521445,0.01,0.0,-2111.0,0.0,0.0,0.0,0.0,0.125,3.40576137,0.01,0.0,40692.0,0.125,0.0,-0.0,0.0,0.25,1.5771482760000002,0.01,0.0,0.3700000047683716,-1.2999999523162842,0.0,-0.0225830078125,0.00518798828125,1.02032470703125,35.869998931884766,0.0,0.0,1.6605072021484375,0.2805328369140625,Waiting,0.0,0.0,1.0,0.0,0.0,0.0,0.0,0.0,
1.2525609999999996,0.0,0.0,41151.0,0.0,0.0,0.0,0.0,0.375,0.759277266,0.01,0.0,38156.0,0.0,0.0,-0.0,0.0,0.25,0.385742148,0.01,0.0,-2111.0,0.0,0.0,0.0,0.0,0.125,3.406982073,0.01,0.0,40692.0,0.0,0.0,-0.0,0.0,0.25,1.573486167,0.01,0.0,0.3700000047683716,-1.2999999523162842,0.0,-0.0230712890625,0.00604248046875,1.01495361328125,35.869998931884766,0.0,0.0,1.6605072021484375,0.2805328369140625,Waiting,0.0,0.0,1.0,0.0,0.0,0.0,0.0,0.0,
1.2756490000000011,0.0,0.0,41151.0,0.0,0.0,0.0,0.0,0.375,0.759277266,0.01,-0.0012207030000004337,38156.0,0.0,0.0,-0.0,0.0,0.25,0.385742148,0.01,0.0,-2111.0,0.0,0.0,0.0,0.0,0.125,3.406982073,0.01,-0.0012207029999999897,40692.0,0.0,0.0,-0.0,0.0,0.25,1.5783689790000002,0.01,0.0,0.3700000047683716,-1.2899999618530273,0.0,-0.0223388671875,0.00653076171875,1.01953125,35.869998931884766,0.0,0.0,1.6605072021484375,0.2805328369140625,Waiting,0.0,0.0,1.0,0.0,0.0,0.0,0.0,0.0,
1.2958950000000005,0.0,0.0,41151.0,0.0,0.0,0.0,0.0,0.375,0.759277266,0.01,-0.0012207030000004337,38156.0,0.0,0.0,-0.0,0.0,0.25,0.385742148,0.01,0.0,-2111.0,0.0,0.0,0.0,0.0,0.125,3.40576137,0.01,-0.0012207029999999897,40692.0,0.0,0.0,-0.0,0.0,0.25,1.5783689790000002,0.01,0.0,0.3700000047683716,-1.2899999618530273,0.0,-0.02301025390625,0.0069580078125,1.020751953125,35.869998931884766,0.0,0.0,1.6605072021484375,0.2805328369140625,Waiting,0.0,0.0,1.0,0.0,0.0,0.0,0.0,0.0,
1.3145650000000004,0.0,0.0,41151.0,0.0,0.0,0.0,0.0,0.375,0.759277266,0.01,-0.0012207030000004337,38156.0,0.0,0.0,-0.0,0.0,0.25,0.385742148,0.01,0.0,-2111.0,0.0,0.0,0.0,0.0,0.125,3.408202776,0.01,0.0,40692.0,0.0,0.0,-0.0,0.0,0.25,1.5783689790000002,0.01,0.0,0.3700000047683716,-1.2999999523162842,0.0,-0.023193359375,0.0086669921875,1.02008056640625,35.869998931884766,0.0,0.0,1.6605072021484375,0.2805328369140625,Waiting,0.0,0.0,1.0,0.0,0.0,0.0,0.0,0.0,
1.3408140000000004,0.0,0.0,41151.0,0.0,0.0,0.0,0.0,0.375,0.7397460180000001,0.01,0.0012207030000004337,38156.0,0.0,0.0,-0.0,0.0,0.25,0.38940425700000003,0.01,0.0,-2111.0,0.0,0.0,0.0,0.0,0.125,3.406982073,0.01,0.0,40692.0,0.125,0.0,-0.0,0.0,0.25,1.5783689790000002,0.01,0.0,0.3700000047683716,-1.2999999523162842,0.0,-0.0228271484375,0.00665283203125,1.01849365234375,35.869998931884766,0.0,0.0,1.6605072021484375,0.2805328369140625,Waiting,0.0,0.0,1.0,0.0,0.0,0.0,0.0,0.0,
1.3600120000000007,0.0,0.0,41151.0,0.0,0.0,0.0,0.0,0.375,0.761718672,0.01,0.0012207030000004337,38156.0,0.0,0.0,-0.0,0.0,0.25,0.37841793,0.01,0.0,-2111.0,0.0,0.0,0.0,0.0,0.125,3.406982073,0.01,0.0,40692.0,0.125,0.0,-0.0,0.0,0.25,1.5783689790000002,0.01,0.0,0.3700000047683716,-1.2999999523162842,0.0,-0.02362060546875,0.00726318359375,1.02008056640625,35.869998931884766,0.0,0.0,1.6605072021484375,0.2805328369140625,Waiting,0.0,0.0,1.0,0.0,0.0,0.0,0.0,0.0,
1.3871470000000008,0.0,0.0,41151.0,0.0,0.0,0.0,0.0,0.375,0.759277266,0.01,0.0,38156.0,0.0,0.0,-0.0,0.0,0.25,0.384521445,0.01,0.0,-2111.0,0.0,0.0,0.0,0.0,0.125,3.406982073,0.01,0.0,40692.0,0.125,0.0,-0.0,0.0,0.25,1.5771482760000002,0.01,0.0,0.3700000047683716,-1.2999999523162842,0.0,-0.02203369140625,0.00738525390625,1.0216064453125,35.869998931884766,0.0,1.0,1.6605072021484375,0.2805328369140625,Waiting,0.0,0.0,1.0,0.0,0.0,0.0,0.0,0.0,
1.4075959999999996,0.0,0.0,41151.0,0.0,0.0,0.0,0.0,0.375,0.759277266,0.01,0.0,38156.0,0.0,0.0,-0.0,0.0,0.25,0.385742148,0.01,0.0,-2111.0,0.0,0.0,0.0,0.0,0.125,3.406982073,0.01,0.0,40692.0,0.125,0.0,-0.0,0.0,0.25,1.5759275730000002,0.01,0.0,0.3700000047683716,-1.2999999523162842,0.0,-0.0218505859375,0.00799560546875,1.0162353515625,35.869998931884766,0.0,1.0,1.6605072021484375,0.2805328369140625,Opening,0.0,0.0,1.0,0.0,0.0,0.0,0.0,0.0,
1.4314390000000003,0.0,0.0,41151.0,0.0,0.0,0.0,0.0,0.375,0.759277266,0.01,0.0,38156.0,0.0,0.0,-0.0,0.0,0.25,0.384521445,0.01,0.0,-2111.0,0.0,0.0,0.0,0.0,0.125,3.406982073,0.01,0.0012207029999999897,40692.0,0.125,0.0,-0.0,0.0,0.25,1.5783689790000002,0.01,0.0,0.3700000047683716,-1.2999999523162842,0.0,-0.0218505859375,0.00726318359375,1.01885986328125,35.869998931884766,0.0,1.0,1.6605072021484375,0.2805328369140625,Opening,0.0,0.0,1.0,0.0,0.0,0.0,0.0,0.0,
1.4491290000000008,0.0,0.0,41151.0,0.0,0.0,0.0,0.0,0.375,0.759277266,0.01,0.0,38156.0,0.0,0.0,-0.0,0.0,0.25,0.385742148,0.01,0.0,-2111.0,0.0,0.0,0.0,0.0,0.125,3.406982073,0.01,0.0012207029999999897,40692.0,0.125,0.0,-0.0,0.0,0.25,1.5783689790000002,0.01,0.0,0.3700000047683716,-1.2999999523162842,0.0,-0.03118896484375,0.040771484375,1.01019287109375,35.90999984741211,0.0,-8.0,1.6605072021484375,0.280548095703125,Opening,0.0,0.0,1.0,0.0,0.0,0.0,0.0,0.0,
1.4685690000000013,0.0,0.0,41151.0,0.0,0.0,0.0,0.0,0.375,0.759277266,0.01,0.0,38156.0,0.0,0.0,-0.0,0.0,0.25,0.384521445,0.01,0.0,-2111.0,0.0,0.0,0.0,0.0,0.125,3.408202776,0.01,0.0,40692.0,0.0,0.0,-0.0,0.0,0.25,1.5771482760000002,0.01,0.0,0.3700000047683716,-1.2999999523162842,0.0,-0.02813720703125,0.00811767578125,1.02783203125,35.90999984741211,0.0,-4.0,1.6605072021484375,0.2806549072265625,Opening,0.0,0.0,1.0,0.0,0.0,0.0,0.0,0.0,
1.5063060000000006,0.0,0.0,41151.0,0.0,0.0,0.0,0.0,0.375,0.759277266,0.01,0.0,38156.0,0.0,0.0,-0.0,0.0,0.25,0.384521445,0.01,0.0,-2111.0,0.0,0.0,0.0,0.0,0.125,3.406982073,0.01,0.0,40692.0,0.0,0.0,-0.0,0.0,0.25,1.5783689790000002,0.01,0.0,0.3799999952316284,-1.2999999523162842,0.0,-0.011962890625,-0.0316162109375,0.9949951171875,35.90999984741211,0.0,10.0,1.66046142578125,0.2806243896484375,Opening,0.0,0.0,1.0,0.0,0.0,0.0,0.0,0.0,
1.5290979999999998,0.0,0.0,41151.0,0.0,0.0,0.0,0.0,0.375,0.760497969,0.01,-0.0012207030000004337,38156.0,0.0,0.0,-0.0,0.0,0.25,0.385742148,0.01,0.0,-2111.0,0.0,0.0,0.0,0.0,0.125,3.406982073,0.01,0.0,40692.0,0.0,0.0,-0.0,0.0,0.25,1.5783689790000002,0.01,0.0,0.3799999952316284,-1.2999999523162842,0.0,-0.04754638671875,-0.003662109375,1.03253173828125,35.90999984741211,0.0,-23.0,1.6604156494140625,0.2805633544921875,Opening,0.0,0.0,1.0,0.0,0.0,0.0,0.0,0.0,
1.5487080000000006,0.0,0.0,41151.0,0.0,0.0,0.0,0.0,0.375,0.759277266,0.01,-0.0012207030000004337,38156.0,0.0,0.0,-0.0,0.0,0.25,0.386962851,0.01,0.0,-2111.0,0.0,0.0,0.0,0.0,0.125,3.406982073,0.01,0.0,40692.0,0.125,0.0,-0.0,0.0,0.25,1.5783689790000002,0.01,0.0,0.3700000047683716,-1.2999999523162842,0.0,-0.03338623046875,0.02392578125,1.014892578125,35.90999984741211,0.0,-10.0,1.6602935791015625,0.280487060546875,Opening,0.0,0.0,1.0,0.0,0.0,0.0,0.0,0.0,
1.5684979999999995,0.0,0.0,41151.0,0.0,0.0,0.0,0.0,0.375,0.758056563,0.01,0.0012207030000004337,38156.0,0.0,0.0,-0.0,0.0,0.25,0.384521445,0.01,0.0,-2111.0,0.0,0.0,0.0,0.0,0.125,3.406982073,0.01,0.0,40692.0,0.125,0.0,-0.0,0.0,0.25,1.5783689790000002,0.01,0.0,0.3799999952316284,-1.2999999523162842,0.0,-0.058349609375,-0.076904296875,0.94891357421875,35.90999984741211,0.0,-36.0,1.660186767578125,0.2804412841796875,Opening,0.0,0.0,1.0,0.0,0.0,0.0,0.0,0.0,
1.5916769999999998,0.0,0.0,41151.0,0.0,0.0,0.0,0.0,0.375,0.760497969,0.01,0.0012207030000004337,38156.0,0.0,0.0,-0.0,0.0,0.25,0.385742148,0.01,0.0,-2111.0,0.0,0.0,0.0,0.0,0.125,3.408202776,0.01,0.0,40692.0,0.125,0.0,-0.0,0.0,0.25,1.5783689790000002,0.01,0.0,0.3700000047683716,-1.3200000524520874,0.0,-0.14642333984375,0.08367919921875,1.13922119140625,35.90999984741211,0.0,-119.0,1.6600189208984375,0.280242919921875,Opening,0.0,0.0,1.0,0.0,0.0,0.0,0.0,0.0,
1.6122299999999996,0.0,0.0,41151.0,0.0,0.0,0.0,0.0,0.375,0.759277266,0.01,0.0012207030000004337,38156.0,0.0,0.0,-0.0,0.0,0.25,0.38940425700000003,0.01,0.0,-2111.0,0.0,0.0,0.0,0.0,0.125,3.406982073,0.01,0.0,40692.0,0.125,0.0,-0.0,0.0,0.25,1.5783689790000002,0.01,0.0,0.3799999952316284,-1.2899999618530273,0.0,-0.01947021484375,0.07421875,0.7742919921875,35.90999984741211,0.0,-1.0,1.65985107421875,0.2802734375,Opening,0.0,0.0,1.0,0.0,0.0,0.0,0.0,0.0,
1.635875,0.0,0.0,41151.0,0.0,0.0,0.0,0.0,0.375,0.759277266,0.01,0.0,38156.0,0.0,0.0,-0.0,0.0,0.25,0.384521445,0.01,0.0024414059999999793,-2111.0,0.0,0.0,0.0,0.0,0.125,3.406982073,0.01,0.0,40692.0,0.125,0.0,-0.0,0.0,0.25,1.5783689790000002,0.01,0.0,0.3799999952316284,-1.3200000524520874,0.0,-0.0362548828125,-0.0091552734375,1.09674072265625,35.90999984741211,0.0,-10.0,1.6594085693359375,0.280609130859375,Opening,0.0,0.0,1.0,0.0,0.0,0.0,0.0,0.0,
1.6556020000000007,0.0,0.0,41151.0,0.0,0.0,0.0,0.0,0.375,0.759277266,0.01,0.0,38156.0,0.0,0.0,-0.0,0.0,0.25,0.384521445,0.01,0.0024414059999999793,-2111.0,0.0,0.0,0.0,0.0,0.125,3.40576137,0.01,0.0,40692.0,0.125,0.0,-0.0,0.0,0.25,1.5783689790000002,0.01,0.0,0.3700000047683716,-1.309999942779541,0.0,-0.049072265625,0.010009765625,0.99945068359375,35.90999984741211,0.0,-26.0,1.6591339111328125,0.280792236328125,Opening,0.0,0.0,1.0,0.0,0.0,0.0,0.0,0.0,
1.6822200000000012,0.0,0.0,41151.0,0.0,0.0,0.0,0.0,0.375,0.758056563,0.01,0.0,38156.0,0.0,0.0,-0.0,0.0,0.25,0.384521445,0.01,0.0,-2111.0,0.0,0.0,0.0,0.0,0.125,3.406982073,0.01,-0.0012207029999999897,40692.0,0.0,0.0,-0.0,0.0,0.25,1.5783689790000002,0.01,0.0,0.3700000047683716,-1.3200000524520874,0.0,-0.052001953125,-0.00543212890625,0.98614501953125,35.90999984741211,0.0,-29.0,1.65850830078125,0.280792236328125,Opening,0.0,0.0,1.0,0.0,0.0,0.0,0.0,0.0,
1.7035879999999997,0.0,0.0,41151.0,0.0,0.0,0.0,0.0,0.375,0.759277266,0.01,0.0,38156.0,0.0,0.0,-0.0,0.0,0.25,0.38940425700000003,0.01,0.0,-2111.0,0.0,0.0,0.0,0.0,0.125,3.406982073,0.01,-0.0012207029999999897,40692.0,0.0,0.0,-0.0,0.0,0.25,1.5795896820000002,0.01,0.0,0.38999998569488525,-1.3200000524520874,0.0,-0.004638671875,0.0260009765625,1.01776123046875,35.90999984741211,0.0,18.0,1.6581878662109375,0.280792236328125,Opening,0.0,0.0,1.0,0.0,0.0,0.0,0.0,0.0,
1.729479000000001,0.0,0.0,41151.0,0.0,0.0,0.0,0.0,0.375,0.759277266,0.01,0.0,38156.0,0.0,0.0,-0.0,0.0,0.25,0.386962851,0.01,0.0,-2111.0,0.0,0.0,0.0,0.0,0.125,3.408202776,0.01,0.0012207029999999897,40692.0,0.0,0.0,-0.0,0.0,0.25,1.5795896820000002,0.01,0.0012207029999995456,0.4000000059604645,-1.309999942779541,0.0,-0.0440673828125,0.00146484375,1.005615234375,35.90999984741211,0.0,-21.0,1.657501220703125,0.2809295654296875,Opening,0.0,0.0,1.0,0.0,0.0,0.0,0.0,0.0,
1.7481470000000008,0.0,0.0,41151.0,0.0,0.0,0.0,0.0,0.375,0.759277266,0.01,0.0,38156.0,0.0,0.0,-0.0,0.0,0.25,0.384521445,0.01,0.0,-2111.0,0.0,0.0,0.0,0.0,0.125,3.408202776,0.01,0.0012207029999999897,40692.0,0.0,0.0,-0.0,0.0,0.25,1.5783689790000002,0.01,0.0012207029999995456,0.4000000059604645,-1.3200000524520874,0.0,-0.00482177734375,-0.00494384765625,1.05926513671875,35.90999984741211,0.0,19.0,1.6571502685546875,0.281005859375,Opening,0.0,0.0,1.0,0.0,0.0,0.0,0.0,0.0,
1.7677569999999996,0.0,0.0,41151.0,0.0,0.0,0.0,0.0,0.375,0.759277266,0.01,0.0,38156.0,0.0,0.0,-0.0,0.0,0.25,0.38940425700000003,0.01,0.0012207030000004337,-2111.0,0.0,0.0,0.0,0.0,0.125,3.406982073,0.01,-0.0012207029999999897,40692.0,0.125,0.0,-0.0,0.0,0.25,1.5759275730000002,0.01,0.0,0.4099999964237213,-1.309999942779541,0.0,-0.02191162109375,0.04705810546875,1.0577392578125,35.90999984741211,0.0,2.0,1.6568145751953125,0.281036376953125,Opening,0.0,0.0,1.0,0.0,0.0,0.0,0.0,0.0,
1.7897039999999997,0.0,0.0,41151.0,0.0,0.0,0.0,0.0,0.375,0.759277266,0.01,0.0,38156.0,0.0,0.0,-0.0,0.0,0.25,0.383300742,0.01,0.0012207030000004337,-2111.0,0.0,0.0,0.0,0.0,0.125,3.406982073,0.01,-0.0012207029999999897,40692.0,0.125,0.0,-0.0,0.0,0.25,1.5783689790000002,0.01,0.0,0.4000000059604645,-1.2999999523162842,0.0,-0.05059814453125,0.00799560546875,1.0330810546875,35.90999984741211,0.0,-27.0,1.65679931640625,0.281097412109375,Opening,0.0,0.0,1.0,0.0,0.0,0.0,0.0,0.0,
1.8098559999999997,0.0,0.0,41151.0,0.0,0.0,0.0,0.0,0.375,0.759277266,0.01,0.0,38156.0,0.0,0.0,-0.0,0.0,0.25,0.384521445,0.01,0.0012207030000004337,-2111.0,0.0,0.0,0.0,0.0,0.125,3.406982073,0.01,-0.0012207029999999897,40692.0,0.125,0.0,-0.0,0.0,0.25,1.5783689790000002,0.01,-0.0012207029999995456,0.4000000059604645,-1.2999999523162842,0.0,0.014892578125,-0.01751708984375,0.91455078125,35.90999984741211,0.0,35.0,1.6567840576171875,0.2811431884765625,Opening,0.0,0.0,1.0,0.0,0.0,0.0,0.0,0.0,
1.8344030000000002,0.0,0.0,41151.0,0.0,0.0,0.0,0.0,0.375,0.759277266,0.01,0.0,38156.0,0.0,0.0,-0.0,0.0,0.25,0.393066366,0.01,-0.0012207030000004337,-2111.0,0.0,0.0,0.0,0.0,0.125,3.408202776,0.01,0.0012207029999999897,40692.0,0.125,0.0,-0.0,0.0,0.25,1.5783689790000002,0.01,-0.0012207029999995456,0.41999998688697815,-1.309999942779541,0.0,-0.03466796875,0.04425048828125,1.1151123046875,35.90999984741211,0.0,-9.0,1.65679931640625,0.2812042236328125,Opening,0.0,0.0,1.0,0.0,0.0,0.0,0.0,0.0,
1.8535820000000003,0.0,0.0,41151.0,0.0,0.0,0.0,0.0,0.375,0.7653807810000001,0.01,0.0,38156.0,0.0,0.0,-0.0,0.0,0.25,0.384521445,0.01,-0.0012207030000004337,-2111.0,0.0,0.0,0.0,0.0,0.125,3.40576137,0.01,0.0012207029999999897,40692.0,0.0,0.0,-0.0,0.0,0.25,1.5783689790000002,0.01,-0.0012207029999995456,0.4099999964237213,-1.2999999523162842,0.0,-0.0194091796875,0.00189208984375,0.9642333984375,35.90999984741211,0.0,2.0,1.65679931640625,0.2813262939453125,Opening,0.0,0.0,1.0,0.0,0.0,0.0,0.0,0.0,
1.885818000000001,0.0,0.0,41151.0,0.0,0.0,0.0,0.0,0.375,0.759277266,0.01,0.0,38156.0,0.0,0.0,-0.0,0.0,0.25,0.384521445,0.01,-0.0012207029999995456,-2111.0,0.0,0.0,0.0,0.0,0.125,3.406982073,0.01,-0.0012207029999999897,40692.0,0.0,0.0,-0.0,0.0,0.25,1.5771482760000002,0.01,0.0,0.41999998688697815,-1.309999942779541,0.0,-0.05517578125,0.015869140625,1.05615234375,35.90999984741211,0.0,-30.0,1.6567840576171875,0.2813262939453125,Opening,0.0,0.0,1.0,0.0,0.0,0.0,0.0,0.0,
1.907300000000001,0.0,0.0,41151.0,0.0,0.0,0.0,0.0,0.375,0.760497969,0.01,0.0,38156.0,0.0,0.0,-0.0,0.0,0.25,0.39062496,0.01,-0.0012207029999995456,-2111.0,0.0,0.0,0.0,0.0,0.125,3.406982073,0.01,-0.0012207029999999897,40692.0,0.0,0.0,-0.0,0.0,0.25,1.5783689790000002,0.01,0.0,0.41999998688697815,-1.2999999523162842,0.0,-1.220703125E-4,-0.00787353515625,0.9622802734375,35.90999984741211,0.0,21.0,1.6567840576171875,0.2813262939453125,Opening,0.0,0.0,1.0,0.0,0.0,0.0,0.0,0.0,
1.9303240000000006,0.0,0.0,41151.0,0.0,0.0,0.0,0.0,0.375,0.759277266,0.01,-0.0012207030000004337,38156.0,0.0,0.0,-0.0,0.0,0.25,0.38940425700000003,0.01,0.0,-2111.0,0.0,0.0,0.0,0.0,0.125,3.406982073,0.01,0.0,40692.0,0.125,0.0,-0.0,0.0,0.25,1.5783689790000002,0.01,0.0,0.4300000071525574,-1.2999999523162842,0.0,-0.02294921875,-0.014892578125,1.0859375,35.90999984741211,0.0,1.0,1.6568145751953125,0.28131103515625,Opening,0.0,0.0,1.0,0.0,0.0,0.0,0.0,0.0,
1.9495780000000014,0.0,0.0,41151.0,0.0,0.0,0.0,0.0,0.375,0.759277266,0.01,-0.0012207030000004337,38156.0,0.0,0.0,-0.0,0.0,0.25,0.385742148,0.01,0.0,-2111.0,0.0,0.0,0.0,0.0,0.125,3.404540667,0.01,0.0,40692.0,0.125,0.0,-0.0,0.0,0.25,1.5783689790000002,0.01,0.0,0.4300000071525574,-1.309999942779541,0.0,-0.02972412109375,-0.018310546875,0.9881591796875,35.90999984741211,0.0,-7.0,1.656829833984375,0.28125,Opening,0.0,0.0,1.0,0.0,0.0,0.0,0.0,0.0,
1.9686280000000007,0.0,0.0,41151.0,0.0,0.0,0.0,0.0,0.375,0.759277266,0.01,0.0012207030000004337,38156.0,0.0,0.0,-0.0,0.0,0.25,0.39062496,0.01,0.0012207029999995456,-2111.0,0.0,0.0,0.0,0.0,0.125,3.406982073,0.01,0.0012207029999999897,40692.0,0.125,0.0,-0.0,0.0,0.25,1.5771482760000002,0.01,0.0,0.4399999976158142,-1.2999999523162842,0.0,-0.0069580078125,0.04443359375,1.1077880859375,35.869998931884766,0.0,18.0,1.656829833984375,0.2811431884765625,Opening,0.0,0.0,1.0,0.0,0.0,0.0,0.0,0.0,
1.9927530000000007,0.0,0.0,41151.0,0.0,0.0,0.0,0.0,0.375,0.759277266,0.01,0.0012207030000004337,38156.0,0.0,0.0,-0.0,0.0,0.25,0.38940425700000003,0.01,0.0012207029999995456,-2111.0,0.0,0.0,0.0,0.0,0.125,3.406982073,0.01,0.0012207029999999897,40692.0,0.0,0.0,-0.0,0.0,0.25,1.5783689790000002,0.01,0.0,0.4399999976158142,-1.2799999713897705,0.0,-0.00982666015625,0.007568359375,0.994140625,35.869998931884766,0.0,12.0,1.656829833984375,0.2811126708984375,Opening,0.0,0.0,1.0,0.0,0.0,0.0,0.0,0.0,
2.014669,0.0,0.0,41151.0,0.0,0.0,0.0,0.0,0.375,0.760497969,0.01,0.0012207030000004337,38156.0,0.0,0.0,-0.0,0.0,0.25,0.39062496,0.01,-0.0012207029999995456,-2111.0,0.0,0.0,0.0,0.0,0.125,3.406982073,0.01,-0.0012207029999999897,40692.0,0.0,0.0,-0.0,0.0,0.25,1.5783689790000002,0.01,0.0,0.4399999976158142,-1.2799999713897705,0.0,-0.0205078125,0.00726318359375,1.00347900390625,35.869998931884766,0.0,2.0,1.656829833984375,0.2811126708984375,Opening,0.0,0.0,1.0,0.0,0.0,0.0,0.0,0.0,
2.0413500000000004,0.0,0.0,41151.0,0.0,0.0,0.0,0.0,0.375,0.759277266,0.01,-0.0012207030000004337,38156.0,0.0,0.0,-0.0,0.0,0.25,0.38940425700000003,0.01,-0.0012207029999995456,-2111.0,0.0,0.0,0.0,0.0,0.125,3.406982073,0.01,-0.0012207029999999897,40692.0,0.0,0.0,-0.0,0.0,0.25,1.5783689790000002,0.01,0.0,0.44999998807907104,-1.2899999618530273,0.0,-0.01708984375,-0.00421142578125,1.00079345703125,35.869998931884766,0.0,5.0,1.656829833984375,0.2811126708984375,Opening,0.0,0.0,1.0,0.0,0.0,0.0,0.0,0.0,
2.0666190000000006,0.0,0.0,41151.0,0.0,0.0,0.0,0.0,0.375,0.759277266,0.01,-0.0012207030000004337,38156.0,0.0,0.0,-0.0,0.0,0.25,0.38940425700000003,0.01,-0.0012207029999995456,-2111.0,0.0,0.0,0.0,0.0,0.125,3.406982073,0.01,0.0012207029999999897,40692.0,0.0,0.0,-0.0,0.0,0.25,1.5771482760000002,0.01,0.0,0.41999998688697815,-1.2999999523162842,0.0,-0.04071044921875,0.022216796875,1.07135009765625,35.869998931884766,0.0,-16.0,1.6567535400390625,0.2811126708984375,Opening,0.0,0.0,1.0,0.0,0.0,0.0,0.0,0.0,
2.088957,0.0,0.0,41151.0,0.0,0.0,0.0,0.0,0.375,0.759277266,0.01,0.0012207030000004337,38156.0,0.0,0.0,-0.0,0.0,0.25,0.38940425700000003,0.01,0.0024414059999999793,-2111.0,0.0,0.0,0.0,0.0,0.125,3.406982073,0.01,0.0012207029999999897,40692.0,0.0,0.0,-0.0,0.0,0.25,1.5795896820000002,0.01,0.0,0.41999998688697815,-1.2999999523162842,0.0,-0.0447998046875,-0.00360107421875,1.0257568359375,35.869998931884766,0.0,-21.0,1.6566619873046875,0.2811126708984375,Opening,0.0,0.0,1.0,0.0,0.0,0.0,0.0,0.0,
2.1080339999999995,0.0,0.0,41151.0,0.0,0.0,0.0,0.0,0.375,0.759277266,0.01,0.0012207030000004337,38156.0,0.0,0.0,-0.0,0.0,0.25,0.384521445,0.01,0.0024414059999999793,-2111.0,0.0,0.0,0.0,0.0,0.125,3.406982073,0.01,0.0012207029999999897,40692.0,0.125,0.0,-0.0,0.0,0.25,1.5795896820000002,0.01,0.0,0.4300000071525574,-1.2999999523162842,0.0,-0.02215576171875,0.026123046875,1.01300048828125,35.869998931884766,0.0,0.0,1.65655517578125,0.2811126708984375,Opening,0.0,0.0,1.0,0.0,0.0,0.0,0.0,0.0,
2.1302830000000013,0.0,0.0,41151.0,0.0,0.0,0.0,0.0,0.375,0.759277266,0.01,0.0,38156.0,0.0,0.0,-0.0,0.0,0.25,0.39062496,0.01,-0.003662109000000413,-2111.0,0.0,0.0,0.0,0.0,0.125,3.406982073,0.01,0.0,40692.0,0.0,0.0,-0.0,0.0,0.25,1.5820310880000001,0.01,0.0,0.4300000071525574,-1.2999999523162842,0.0,-0.0306396484375,0.01556396484375,1.0167236328125,35.869998931884766,0.0,-7.0,1.65631103515625,0.2812042236328125,Opening,0.0,0.0,1.0,0.0,0.0,0.0,0.0,0.0,
2.148017,0.0,0.0,41151.0,0.0,0.0,0.0,0.0,0.375,0.759277266,0.01,0.0,38156.0,0.0,0.0,-0.0,0.0,0.25,0.38940425700000003,0.01,-0.003662109000000413,-2111.0,0.0,0.0,0.0,0.0,0.125,3.408202776,0.01,0.0,40692.0,0.0,0.0,-0.0,0.0,0.25,1.5783689790000002,0.01,0.0,0.4300000071525574,-1.2999999523162842,0.0,-0.02001953125,0.0072021484375,0.98504638671875,35.869998931884766,0.0,2.0,1.6561737060546875,0.281280517578125,Opening,0.0,0.0,1.0,0.0,0.0,0.0,0.0,0.0,
2.167241,0.0,0.0,41151.0,0.0,0.0,0.0,0.0,0.375,0.759277266,0.01,0.0,38156.0,0.0,0.0,-0.0,0.0,0.25,0.38940425700000003,0.01,-0.003662109000000413,-2111.0,0.0,0.0,0.0,0.0,0.125,3.406982073,0.01,0.0,40692.0,0.0,0.0,-0.0,0.0,0.25,1.5783689790000002,0.01,0.0,0.4300000071525574,-1.2999999523162842,0.0,-0.02911376953125,-0.00299072265625,0.9573974609375,35.869998931884766,0.0,-7.0,1.6561737060546875,0.281280517578125,Opening,0.0,0.0,1.0,0.0,0.0,0.0,0.0,0.0,
2.188947,0.0,0.0,41151.0,0.0,0.0,0.0,0.0,0.375,0.760497969,0.01,0.0,38156.0,0.0,0.0,-0.0,0.0,0.25,0.39428706900000005,0.01,0.003662109000000413,-2111.0,0.0,0.0,0.0,0.0,0.125,3.406982073,0.01,0.0,40692.0,0.0,0.0,-0.0,0.0,0.25,1.5783689790000002,0.01,0.0,0.41999998688697815,-1.2999999523162842,0.0,-0.01751708984375,-0.0186767578125,1.045654296875,35.869998931884766,0.0,6.0,1.6561737060546875,0.28125,Opening,0.0,0.0,1.0,0.0,0.0,0.0,0.0,0.0,
2.2087839999999996,0.0,0.0,41151.0,0.0,0.0,0.0,0.0,0.375,0.760497969,0.01,0.0,38156.0,0.0,0.0,-0.0,0.0,0.25,0.385742148,0.01,0.003662109000000413,-2111.0,0.0,0.0,0.0,0.0,0.125,3.408202776,0.01,0.0,40692.0,0.0,0.0,-0.0,0.0,0.25,1.5783689790000002,0.01,0.0,0.41999998688697815,-1.2999999523162842,0.0,-0.0191650390625,0.05316162109375,1.0216064453125,35.869998931884766,0.0,4.0,1.6561737060546875,0.281158447265625,Opening,0.0,0.0,1.0,0.0,0.0,0.0,0.0,0.0,
2.2310860000000012,0.0,0.0,41151.0,0.0,0.0,0.0,0.0,0.375,0.759277266,0.01,0.0,38156.0,0.0,0.0,-0.0,0.0,0.25,0.386962851,0.01,-0.0024414059999999793,-2111.0,0.0,0.0,0.0,0.0,0.125,3.40576137,0.01,0.0,40692.0,0.0,0.0,-0.0,0.0,0.25,1.5783689790000002,0.01,0.0,0.41999998688697815,-1.2999999523162842,0.0,-0.0316162109375,0.03515625,1.10504150390625,35.869998931884766,0.0,-6.0,1.6561737060546875,0.2811737060546875,Opening,0.0,0.0,1.0,0.0,0.0,0.0,0.0,0.0,
2.251898000000001,0.0,0.0,41151.0,0.0,0.0,0.0,0.0,0.375,0.758056563,0.01,0.0,38156.0,0.0,0.0,-0.0,0.0,0.25,0.38940425700000003,0.01,-0.0024414059999999793,-2111.0,0.0,0.0,0.0,0.0,0.125,3.406982073,0.01,0.0,40692.0,0.0,0.0,-0.0,0.0,0.25,1.5771482760000002,0.01,0.0,0.4300000071525574,-1.2899999618530273,0.0,-0.01751708984375,-0.016357421875,1.0023193359375,35.869998931884766,0.0,5.0,1.6561737060546875,0.2812347412109375,Opening,0.0,0.0,1.0,0.0,0.0,0.0,0.0,0.0,
2.2722960000000003,0.0,0.0,41151.0,0.0,0.0,0.0,0.0,0.375,0.760497969,0.01,0.0,38156.0,0.0,0.0,-0.0,0.0,0.25,0.38940425700000003,0.01,0.0,-2111.0,0.0,0.0,0.0,0.0,0.125,3.40576137,0.01,-0.0012207029999999897,40692.0,0.125,0.0,-0.0,0.0,0.25,1.5783689790000002,0.01,0.0,0.41999998688697815,-1.2999999523162842,0.0,-0.0101318359375,-0.0126953125,1.0067138671875,35.869998931884766,0.0,12.0,1.6561737060546875,0.2812652587890625,Opening,0.0,0.0,1.0,0.0,0.0,0.0,0.0,0.0,
2.2940810000000003,0.0,0.0,41151.0,0.0,0.0,0.0,0.0,0.375,0.759277266,0.01,0.0,38156.0,0.0,0.0,-0.0,0.0,0.25,0.38940425700000003,0.01,0.0,-2111.0,0.0,0.0,0.0,0.0,0.125,3.408202776,0.01,-0.0012207029999999897,40692.0,0.125,0.0,-0.0,0.0,0.25,1.5771482760000002,0.01,0.0,0.41999998688697815,-1.2999999523162842,0.0,-0.01959228515625,0.00323486328125,1.01397705078125,35.869998931884766,0.0,3.0,1.6561737060546875,0.28125,Opening,0.0,0.0,1.0,0.0,0.0,0.0,0.0,0.0,
2.3130110000000004,0.0,0.0,41151.0,0.0,0.0,0.0,0.0,0.375,0.759277266,0.01,0.0,38156.0,0.0,0.0,-0.0,0.0,0.25,0.38208003900000004,0.01,0.0,-2111.0,0.0,0.0,0.0,0.0,0.125,3.406982073,0.01,0.0,40692.0,0.125,0.0,-0.0,0.0,0.25,1.5783689790000002,0.01,0.0,0.41999998688697815,-1.2999999523162842,0.0,-0.02386474609375,0.0164794921875,1.00927734375,35.869998931884766,0.0,0.0,1.6561737060546875,0.2812652587890625,Opening,0.0,0.0,1.0,0.0,0.0,0.0,0.0,0.0,
2.3363190000000014,0.0,0.0,41151.0,0.0,0.0,0.0,0.0,0.375,0.760497969,0.01,0.0,38156.0,0.0,0.0,-0.0,0.0,0.25,0.385742148,0.01,0.0024414059999999793,-2111.0,0.0,0.0,0.0,0.0,0.125,3.406982073,0.01,0.0,40692.0,0.125,0.0,-0.0,0.0,0.25,1.5783689790000002,0.01,0.0,0.41999998688697815,-1.2999999523162842,0.0,-0.0238037109375,0.0118408203125,1.0279541015625,35.869998931884766,0.0,0.0,1.6561737060546875,0.2812652587890625,Opening,0.0,0.0,1.0,0.0,0.0,0.0,0.0,0.0,
2.3558209999999997,0.0,0.0,41151.0,0.0,0.0,0.0,0.0,0.375,0.759277266,0.01,0.0,38156.0,0.0,0.0,-0.0,0.0,0.25,0.38940425700000003,0.01,0.0024414059999999793,-2111.0,0.0,0.0,0.0,0.0,0.125,3.406982073,0.01,0.0,40692.0,0.125,0.0,-0.0,0.0,0.25,1.5783689790000002,0.01,0.0,0.4300000071525574,-1.2999999523162842,0.0,-0.029296875,0.00970458984375,1.01519775390625,35.869998931884766,0.0,-6.0,1.6561737060546875,0.2812652587890625,Opening,0.0,0.0,1.0,0.0,0.0,0.0,0.0,0.0,
2.381347,0.0,0.0,41151.0,0.0,0.0,0.0,0.0,0.375,0.7507323450000001,0.01,0.0,38156.0,0.0,0.0,-0.0,0.0,0.25,0.39062496,0.01,-0.0024414059999999793,-2111.0,0.0,0.0,0.0,0.0,0.125,3.406982073,0.01,0.0,40692.0,0.125,0.0,-0.0,0.0,0.25,1.5771482760000002,0.01,0.0,0.4300000071525574,-1.2999999523162842,0.0,-0.0208740234375,4.8828125E-4,1.0252685546875,35.869998931884766,0.0,2.0,1.6561737060546875,0.2812652587890625,Opening,0.0,0.0,1.0,0.0,0.0,0.0,0.0,0.0,
2.4010550000000004,0.0,0.0,41151.0,0.0,0.0,0.0,0.0,0.375,0.759277266,0.01,0.0,38156.0,0.0,0.0,-0.0,0.0,0.25,0.384521445,0.01,-0.0024414059999999793,-2111.0,0.0,0.0,0.0,0.0,0.125,3.406982073,0.01,0.0,40692.0,0.125,0.0,-0.0,0.0,0.25,1.5783689790000002,0.01,0.0,0.41999998688697815,-1.2999999523162842,0.0,-0.02117919921875,0.0098876953125,1.0203857421875,35.869998931884766,0.0,2.0,1.6561737060546875,0.2812652587890625,Opening,0.0,0.0,1.0,0.0,0.0,0.0,0.0,0.0,
2.4194899999999997,0.0,0.0,41151.0,0.0,0.0,0.0,0.0,0.375,0.760497969,0.01,0.0,38156.0,0.0,0.0,-0.0,0.0,0.25,0.39062496,0.01,0.003662108999999525,-2111.0,0.0,0.0,0.0,0.0,0.125,3.406982073,0.01,0.0,40692.0,0.0,0.0,-0.0,0.0,0.25,1.5783689790000002,0.01,0.0,0.41999998688697815,-1.2999999523162842,0.0,-0.0194091796875,0.00726318359375,1.01953125,35.869998931884766,0.0,3.0,1.6561737060546875,0.2812652587890625,Opening,0.0,0.0,1.0,0.0,0.0,0.0,0.0,0.0,
2.4468019999999995,0.0,0.0,41151.0,0.0,0.0,0.0,0.0,0.375,0.759277266,0.01,0.0,38156.0,0.0,0.0,-0.0,0.0,0.25,0.385742148,0.01,0.003662108999999525,-2111.0,0.0,0.0,0.0,0.0,0.125,3.406982073,0.01,0.0,40692.0,0.0,0.0,-0.0,0.0,0.25,1.5783689790000002,0.01,0.0,0.41999998688697815,-1.2999999523162842,0.0,-0.0316162109375,0.014892578125,1.0157470703125,35.869998931884766,0.0,-8.0,1.6561737060546875,0.2812652587890625,Opening,0.0,0.0,1.0,0.0,0.0,0.0,0.0,0.0,
2.4679440000000015,0.0,0.0,41151.0,0.0,0.0,0.0,0.0,0.375,0.759277266,0.01,0.0,38156.0,0.0,0.0,-0.0,0.0,0.25,0.39062496,0.01,0.003662108999999525,-2111.0,0.0,0.0,0.0,0.0,0.125,3.406982073,0.01,0.0012207029999999897,40692.0,0.0,0.0,-0.0,0.0,0.25,1.5783689790000002,0.01,0.0,0.41999998688697815,-1.2999999523162842,0.0,-0.02508544921875,0.00909423828125,1.0115966796875,35.880001068115234,0.0,-2.0,1.6561737060546875,0.2812652587890625,Opening,0.0,0.0,1.0,0.0,0.0,0.0,0.0,0.0,
2.4899809999999998,0.0,0.0,41151.0,0.0,0.0,0.0,0.0,0.375,0.759277266,0.01,0.0,38156.0,0.0,0.0,-0.0,0.0,0.25,0.39062496,0.01,0.0,-2111.0,0.0,0.0,0.0,0.0,0.125,3.406982073,0.01,0.0012207029999999897,40692.0,0.125,0.0,-0.0,0.0,0.25,1.5832517910000001,0.01,0.0,0.41999998688697815,-1.2999999523162842,0.0,-0.01715087890625,0.01025390625,1.01580810546875,35.880001068115234,0.0,-2.0,1.6561737060546875,0.2812652587890625,Opening,0.0,0.0,1.0,0.0,0.0,0.0,0.0,0.0,
2.508452000000001,0.0,0.0,41151.0,0.0,0.0,0.0,0.0,0.375,0.759277266,0.01,0.0,38156.0,0.0,0.0,-0.0,0.0,0.25,0.384521445,0.01,0.0,-2111.0,0.0,0.0,0.0,0.0,0.125,3.406982073,0.01,0.0012207029999999897,40692.0,0.0,0.0,-0.0,0.0,0.25,1.5795896820000002,0.01,0.0,0.41999998688697815,-1.2999999523162842,0.0,-0.01837158203125,-0.00396728515625,1.00732421875,35.880001068115234,0.0,4.0,1.6561737060546875,0.2812652587890625,Opening,0.0,0.0,1.0,0.0,0.0,0.0,0.0,0.0,
2.530336000000001,0.0,0.0,41151.0,0.0,0.0,0.0,0.0,0.375,0.759277266,0.01,-0.0012207030000004337,38156.0,0.0,0.0,-0.0,0.0,0.25,0.384521445,0.01,-0.0024414059999999793,-2111.0,0.0,0.0,0.0,0.0,0.125,3.406982073,0.01,0.0,40692.0,0.0,0.0,-0.0,0.0,0.25,1.5783689790000002,0.01,0.0,0.4099999964237213,-1.2899999618530273,0.0,-0.01641845703125,0.0035400390625,1.01898193359375,35.880001068115234,0.0,6.0,1.6561737060546875,0.2812652587890625,Opening,0.0,0.0,1.0,0.0,0.0,0.0,0.0,0.0,
2.548978000000001,0.0,0.0,41151.0,0.0,0.0,0.0,0.0,0.375,0.759277266,0.01,-0.0012207030000004337,38156.0,0.0,0.0,-0.0,0.0,0.25,0.38208003900000004,0.01,-0.0024414059999999793,-2111.0,0.0,0.0,0.0,0.0,0.125,3.406982073,0.01,0.0,40692.0,0.0,0.0,-0.0,0.0,0.25,1.5783689790000002,0.01,0.0,0.4099999964237213,-1.2899999618530273,0.0,-0.02777099609375,0.0081787109375,1.032470703125,35.880001068115234,0.0,-4.0,1.6561737060546875,0.2812652587890625,Opening,0.0,0.0,1.0,0.0,0.0,0.0,0.0,0.0,
2.57334,0.0,0.0,41151.0,0.0,0.0,0.0,0.0,0.375,0.759277266,0.01,0.0012207030000004337,38156.0,0.0,0.0,-0.0,0.0,0.25,0.384521445,0.01,-0.0012207029999995456,-2111.0,0.0,0.0,0.0,0.0,0.125,3.406982073,0.01,0.0,40692.0,0.0,0.0,-0.0,0.0,0.25,1.5783689790000002,0.01,0.0012207029999995456,0.4099999964237213,-1.2999999523162842,0.0,-0.02337646484375,0.01287841796875,1.01385498046875,35.880001068115234,0.0,0.0,1.6561737060546875,0.2812652587890625,Opening,0.0,0.0,1.0,0.0,0.0,0.0,0.0,0.0,
2.5939860000000006,0.0,0.0,41151.0,0.0,0.0,0.0,0.0,0.375,0.759277266,0.01,0.0012207030000004337,38156.0,0.0,0.0,-0.0,0.0,0.25,0.38940425700000003,0.01,-0.0012207029999995456,-2111.0,0.0,0.0,0.0,0.0,0.125,3.406982073,0.01,0.0,40692.0,0.125,0.0,-0.0,0.0,0.25,1.5783689790000002,0.01,0.0012207029999995456,0.4099999964237213,-1.2899999618530273,0.0,-0.02374267578125,0.00933837890625,1.01495361328125,35.880001068115234,0.0,0.0,1.6561737060546875,0.2812652587890625,Opening,0.0,0.0,1.0,0.0,0.0,0.0,0.0,0.0,
2.6143940000000003,0.0,0.0,41151.0,0.0,0.0,0.0,0.0,0.375,0.759277266,0.01,0.0012207030000004337,38156.0,0.0,0.0,-0.0,0.0,0.25,0.385742148,0.01,-0.0012207029999995456,-2111.0,0.0,0.0,0.0,0.0,0.125,3.40576137,0.01,0.0,40692.0,0.125,0.0,-0.0,0.0,0.25,1.5783689790000002,0.01,-0.0012207029999995456,0.4099999964237213,-1.2899999618530273,0.0,-0.01800537109375,0.00390625,1.00970458984375,35.880001068115234,0.0,4.0,1.6561737060546875,0.2812652587890625,Opening,0.0,0.0,1.0,0.0,0.0,0.0,0.0,0.0,
2.6383060000000005,0.0,0.0,41151.0,0.0,0.0,0.0,0.0,0.375,0.759277266,0.01,-0.0012207030000004337,38156.0,0.0,0.0,-0.0,0.0,0.25,0.39062496,0.01,-0.0012207030000004337,-2111.0,0.0,0.0,0.0,0.0,0.125,3.408202776,0.01,0.0,40692.0,0.0,0.0,-0.0,0.0,0.25,1.5783689790000002,0.01,-0.0012207029999995456,0.4099999964237213,-1.2899999618530273,0.0,-0.022705078125,0.0089111328125,1.02667236328125,35.880001068115234,0.0,0.0,1.6561737060546875,0.2812652587890625,Opening,0.0,0.0,1.0,0.0,0.0,0.0,0.0,0.0,
2.665741,0.0,0.0,41151.0,0.0,0.0,0.0,0.0,0.375,0.760497969,0.01,-0.0012207030000004337,38156.0,0.0,0.0,-0.0,0.0,0.25,0.39062496,0.01,-0.0012207030000004337,-2111.0,0.0,0.0,0.0,0.0,0.125,3.406982073,0.01,0.0,40692.0,0.0,0.0,-0.0,0.0,0.25,1.5783689790000002,0.01,-0.0012207029999995456,0.4099999964237213,-1.2899999618530273,0.0,-0.02166748046875,0.0096435546875,1.01287841796875,35.880001068115234,0.0,1.0,1.6561737060546875,0.2812652587890625,Opening,0.0,0.0,1.0,0.0,0.0,0.0,0.0,0.0,
2.687787,0.0,0.0,41151.0,0.0,0.0,0.0,0.0,0.375,0.759277266,0.01,0.0012207030000004337,38156.0,0.0,0.0,-0.0,0.0,0.25,0.38940425700000003,0.01,0.0024414059999999793,-2111.0,0.0,0.0,0.0,0.0,0.125,3.406982073,0.01,0.0,40692.0,0.0,0.0,-0.0,0.0,0.25,1.5808103850000002,0.01,0.0,0.41999998688697815,-1.2999999523162842,0.0,-0.02423095703125,0.00982666015625,1.0272216796875,35.880001068115234,0.0,0.0,1.6561737060546875,0.2812652587890625,Opening,0.0,0.0,1.0,0.0,0.0,0.0,0.0,0.0,
2.707032000000001,0.0,0.0,41151.0,0.0,0.0,0.0,0.0,0.375,0.7629393750000001,0.01,0.0012207030000004337,38156.0,0.0,0.0,-0.0,0.0,0.25,0.39062496,0.01,0.0024414059999999793,-2111.0,0.0,0.0,0.0,0.0,0.125,3.406982073,0.01,0.0,40692.0,0.125,0.0,-0.0,0.0,0.25,1.585693197,0.01,0.0,0.41999998688697815,-1.2999999523162842,0.0,-0.0211181640625,0.0067138671875,1.01568603515625,35.880001068115234,0.0,2.0,1.6561737060546875,0.2812652587890625,Opening,0.0,0.0,1.0,0.0,0.0,0.0,0.0,0.0,
2.7287160000000004,0.0,0.0,41151.0,0.0,0.0,0.0,0.0,0.375,0.754394454,0.01,0.0,38156.0,0.0,0.0,-0.0,0.0,0.25,0.39062496,0.01,-0.0012207029999995456,-2111.0,0.0,0.0,0.0,0.0,0.125,3.406982073,0.01,0.0,40692.0,0.125,0.0,-0.0,0.0,0.25,1.5783689790000002,0.01,0.0012207029999995456,0.41999998688697815,-1.2999999523162842,0.0,-0.0208740234375,0.002685546875,1.02032470703125,35.880001068115234,0.0,2.0,1.6561737060546875,0.2812652587890625,Opening,0.0,0.0,1.0,0.0,0.0,0.0,0.0,0.0,
2.7468600000000007,0.0,0.0,41151.0,0.0,0.0,0.0,0.0,0.375,0.759277266,0.01,0.0,38156.0,0.0,0.0,-0.0,0.0,0.25,0.384521445,0.01,-0.0012207029999995456,-2111.0,0.0,0.0,0.0,0.0,0.125,3.408202776,0.01,0.0,40692.0,0.125,0.0,-0.0,0.0,0.25,1.5771482760000002,0.01,0.0012207029999995456,0.4099999964237213,-1.2899999618530273,0.0,-0.02447509765625,0.0067138671875,1.0218505859375,35.880001068115234,0.0,-1.0,1.6561737060546875,0.2812652587890625,Opening,0.0,0.0,1.0,0.0,0.0,0.0,0.0,0.0,
2.765402,0.0,0.0,41151.0,0.0,0.0,0.0,0.0,0.375,0.759277266,0.01,0.0,38156.0,0.0,0.0,-0.0,0.0,0.25,0.384521445,0.01,-0.0012207029999995456,-2111.0,0.0,0.0,0.0,0.0,0.125,3.406982073,0.01,0.0,40692.0,0.125,0.0,-0.0,0.0,0.25,1.5783689790000002,0.01,0.0012207029999995456,0.4099999964237213,-1.2899999618530273,0.0,-0.02301025390625,0.00494384765625,1.01318359375,35.880001068115234,0.0,0.0,1.6561737060546875,0.2812652587890625,Opening,0.0,0.0,1.0,0.0,0.0,0.0,0.0,0.0,
2.787277,0.0,0.0,41151.0,0.0,0.0,0.0,0.0,0.375,0.760497969,0.01,0.0,38156.0,0.0,0.0,-0.0,0.0,0.25,0.39062496,0.01,0.0,-2111.0,0.0,0.0,0.0,0.0,0.125,3.406982073,0.01,0.0,40692.0,0.125,0.0,-0.0,0.0,0.25,1.5783689790000002,0.01,0.0,0.4099999964237213,-1.2899999618530273,0.0,-0.0185546875,0.0098876953125,1.020751953125,35.880001068115234,0.0,4.0,1.6561737060546875,0.2812652587890625,Opening,0.0,0.0,1.0,0.0,0.0,0.0,0.0,0.0,
2.805097,0.0,0.0,41151.0,0.0,0.0,0.0,0.0,0.375,0.759277266,0.01,0.0,38156.0,0.0,0.0,-0.0,0.0,0.25,0.38940425700000003,0.01,0.0,-2111.0,0.0,0.0,0.0,0.0,0.125,3.406982073,0.01,0.0,40692.0,0.125,0.0,-0.0,0.0,0.25,1.5783689790000002,0.01,0.0,0.4099999964237213,-1.2899999618530273,0.0,-0.0250244140625,0.0054931640625,1.01898193359375,35.880001068115234,0.0,-1.0,1.6561737060546875,0.2812652587890625,Opening,0.0,0.0,1.0,0.0,0.0,0.0,0.0,0.0,
2.821697,0.0,0.0,41151.0,0.0,0.0,0.0,0.0,0.375,0.759277266,0.01,-0.0012207030000004337,38156.0,0.0,0.0,-0.0,0.0,0.25,0.39062496,0.01,0.0012207029999995456,-2111.0,0.0,0.0,0.0,0.0,0.125,3.406982073,0.01,-0.0012207029999999897,40692.0,0.125,0.0,-0.0,0.0,0.25,1.5783689790000002,0.01,-0.0012207029999995456,0.4099999964237213,-1.2899999618530273,0.0,-0.02130126953125,0.00946044921875,1.02691650390625,35.880001068115234,0.0,1.0,1.6561737060546875,0.2812652587890625,Opening,0.0,0.0,1.0,0.0,0.0,0.0,0.0,0.0,
2.841193000000001,0.0,0.0,41151.0,0.0,0.0,0.0,0.0,0.375,0.761718672,0.01,-0.0012207030000004337,38156.0,0.0,0.0,-0.0,0.0,0.25,0.385742148,0.01,0.0012207029999995456,-2111.0,0.0,0.0,0.0,0.0,0.125,3.406982073,0.01,-0.0012207029999999897,40692.0,0.0,0.0,-0.0,0.0,0.25,1.5759275730000002,0.01,-0.0012207029999995456,0.4099999964237213,-1.2899999618530273,0.0,-0.0218505859375,0.00677490234375,1.02093505859375,35.880001068115234,0.0,1.0,1.6561737060546875,0.2812652587890625,Opening,0.0,0.0,1.0,0.0,0.0,0.0,0.0,0.0,
2.860482,0.0,0.0,41151.0,0.0,0.0,0.0,0.0,0.375,0.759277266,0.01,-0.0012207030000004337,38156.0,0.0,0.0,-0.0,0.0,0.25,0.39062496,0.01,0.0012207029999995456,-2111.0,0.0,0.0,0.0,0.0,0.125,3.40576137,0.01,-0.0012207029999999897,40692.0,0.0,0.0,-0.0,0.0,0.25,1.5771482760000002,0.01,-0.0012207029999995456,0.4099999964237213,-1.2899999618530273,0.0,-0.02294921875,0.00634765625,1.009521484375,35.880001068115234,0.0,0.0,1.6561737060546875,0.2812652587890625,Opening,0.0,0.0,1.0,0.0,0.0,0.0,0.0,0.0,
2.8870280000000004,0.0,0.0,41151.0,0.0,0.0,0.0,0.0,0.375,0.7397460180000001,0.01,0.0012207030000004337,38156.0,0.0,0.0,-0.0,0.0,0.25,0.384521445,0.01,0.0,-2111.0,0.0,0.0,0.0,0.0,0.125,3.406982073,0.01,0.0,40692.0,0.0,0.0,-0.0,0.0,0.25,1.5783689790000002,0.01,0.0,0.4099999964237213,-1.2899999618530273,0.0,-0.02294921875,0.0078125,1.0283203125,35.880001068115234,0.0,0.0,1.6561737060546875,0.2812652587890625,Opening,0.0,0.0,1.0,0.0,0.0,0.0,0.0,0.0,
2.9064089999999996,0.0,0.0,41151.0,0.0,0.0,0.0,0.0,0.375,0.759277266,0.01,0.0012207030000004337,38156.0,0.0,0.0,-0.0,0.0,0.25,0.385742148,0.01,0.0,-2111.0,0.0,0.0,0.0,0.0,0.125,3.406982073,0.01,0.0,40692.0,0.0,0.0,-0.0,0.0,0.25,1.5783689790000002,0.01,0.0,0.4099999964237213,-1.2899999618530273,0.0,-0.02447509765625,0.00506591796875,1.018798828125,35.880001068115234,0.0,-1.0,1.6561737060546875,0.2812652587890625,Opening,0.0,0.0,1.0,0.0,0.0,0.0,0.0,0.0,
2.926943000000001,0.0,0.0,41151.0,0.0,0.0,0.0,0.0,0.375,0.759277266,0.01,-0.0012207030000004337,38156.0,0.0,0.0,-0.0,0.0,0.25,0.38940425700000003,0.01,-0.0012207029999995456,-2111.0,0.0,0.0,0.0,0.0,0.125,3.408202776,0.01,0.0012207029999999897,40692.0,0.0,0.0,-0.0,0.0,0.25,1.5783689790000002,0.01,0.0,0.4099999964237213,-1.2899999618530273,0.0,-0.0216064453125,0.00640869140625,1.02752685546875,35.880001068115234,0.0,1.0,1.6561737060546875,0.2812652587890625,Opening,0.0,0.0,1.0,0.0,0.0,0.0,0.0,0.0,
2.9462710000000008,0.0,0.0,41151.0,0.0,0.0,0.0,0.0,0.375,0.759277266,0.01,-0.0012207030000004337,38156.0,0.0,0.0,-0.0,0.0,0.25,0.39062496,0.01,-0.0012207029999995456,-2111.0,0.0,0.0,0.0,0.0,0.125,3.406982073,0.01,0.0012207029999999897,40692.0,0.0,0.0,-0.0,0.0,0.25,1.5783689790000002,0.01,0.0,0.4099999964237213,-1.2899999618530273,0.0,-0.0235595703125,0.00701904296875,1.0159912109375,35.880001068115234,0.0,0.0,1.6561737060546875,0.2812652587890625,Opening,0.0,0.0,1.0,0.0,0.0,0.0,0.0,0.0,
2.963901,0.0,0.0,41151.0,0.0,0.0,0.0,0.0,0.375,0.759277266,0.01,-0.0012207030000004337,38156.0,0.0,0.0,-0.0,0.0,0.25,0.38818355400000004,0.01,-0.0012207029999995456,-2111.0,0.0,0.0,0.0,0.0,0.125,3.406982073,0.01,0.0012207029999999897,40692.0,0.0,0.0,-0.0,0.0,0.25,1.5783689790000002,0.01,0.0,0.4099999964237213,-1.2899999618530273,0.0,-0.02032470703125,0.00543212890625,1.0133056640625,35.880001068115234,0.0,2.0,1.6561737060546875,0.2812652587890625,Opening,0.0,0.0,1.0,0.0,0.0,0.0,0.0,0.0,
2.9837700000000003,0.0,0.0,41151.0,0.0,0.0,0.0,0.0,0.375,0.759277266,0.01,0.0,38156.0,0.0,0.0,-0.0,0.0,0.25,0.39062496,0.01,0.0012207029999995456,-2111.0,0.0,0.0,0.0,0.0,0.125,3.406982073,0.01,-0.0012207029999999897,40692.0,0.0,0.0,-0.0,0.0,0.25,1.5783689790000002,0.01,0.0,0.4000000059604645,-1.2899999618530273,0.0,-0.02288818359375,0.003173828125,1.01904296875,35.880001068115234,0.0,0.0,1.6561737060546875,0.2812652587890625,Opening,0.0,0.0,1.0,0.0,0.0,0.0,0.0,0.0,
3.0003500000000005,0.0,0.0,41151.0,0.0,0.0,0.0,0.0,0.375,0.760497969,0.01,0.0,38156.0,0.0,0.0,-0.0,0.0,0.25,0.384521445,0.01,0.0012207029999995456,-2111.0,0.0,0.0,0.0,0.0,0.125,3.406982073,0.01,-0.0012207029999999897,40692.0,0.0,0.0,-0.0,0.0,0.25,1.5783689790000002,0.01,0.0,0.4000000059604645,-1.2899999618530273,0.0,-0.0242919921875,0.00384521484375,1.0111083984375,35.880001068115234,0.0,-1.0,1.6561737060546875,0.2812652587890625,Opening,0.0,0.0,1.0,0.0,0.0,0.0,0.0,0.0,
3.019888000000001,0.0,0.0,41151.0,0.0,0.0,0.0,0.0,0.375,0.760497969,0.01,0.0,38156.0,0.0,0.0,-0.0,0.0,0.25,0.39062496,0.01,0.0012207029999995456,-2111.0,0.0,0.0,0.0,0.0,0.125,3.406982073,0.01,0.0,40692.0,0.0,0.0,-0.0,0.0,0.25,1.5783689790000002,0.01,0.0,0.4000000059604645,-1.2899999618530273,0.0,-0.02056884765625,0.0078125,1.02197265625,35.880001068115234,0.0,2.0,1.6561737060546875,0.2812652587890625,Opening,0.0,0.0,1.0,0.0,0.0,0.0,0.0,0.0,
3.0404580000000005,0.0,0.0,41151.0,0.0,0.0,0.0,0.0,0.375,0.755615157,0.01,0.0012207030000004337,38156.0,0.0,0.0,-0.0,0.0,0.25,0.38940425700000003,0.01,-0.0012207029999995456,-2111.0,0.0,0.0,0.0,0.0,0.125,3.408202776,0.01,0.0,40692.0,0.0,0.0,-0.0,0.0,0.25,1.5771482760000002,0.01,0.0,0.4000000059604645,-1.2899999618530273,0.0,-0.0234375,0.0081787109375,1.0242919921875,35.880001068115234,0.0,0.0,1.6561737060546875,0.2812652587890625,Opening,0.0,0.0,1.0,0.0,0.0,0.0,0.0,0.0,
3.0603770000000003,0.0,0.0,41151.0,0.0,0.0,0.0,0.0,0.375,0.759277266,0.01,0.0012207030000004337,38156.0,0.0,0.0,-0.0,0.0,0.25,0.39062496,0.01,-0.0012207029999995456,-2111.0,0.0,0.0,0.0,0.0,0.125,3.406982073,0.01,0.0,40692.0,0.125,0.0,-0.0,0.0,0.25,1.5783689790000002,0.01,0.0,0.4000000059604645,-1.2899999618530273,0.0,-0.0220947265625,0.006591796875,1.014404296875,35.880001068115234,0.0,0.0,1.6561737060546875,0.2812652587890625,Opening,0.0,0.0,1.0,0.0,0.0,0.0,0.0,0.0,
