Time,ClimberA1,ClimberA2,FRpos,FRCurrent,FRspeed,FRsetpoint,FRApos,FRACurrent,FREncpos,FREncSetpoint,FREncSpeed,FLpos,FLCurrent,FLspeed,FLsetpoint,FLApos,FLACurrent,FLEncpos,FLEncSetpoint,FLEncSpeed,BRpos,BRCurrent,BRspeed,BRsetpoint,BRApos,BRACurrent,BREncpos,BREncSetpoint,BREncSpeed,BLpos,BLCurrent,BLspeed,BLsetpoint,BLApos,BLACurrent,BLEncpos,BLEncSetpoint,BLEncSpeed,navx_Pitch,navx_Roll,navx_Yaw,navx_XAcc,navx_YAcc,navx_ZAcc,navx_Temp,navx_Bar,navx_Alt,navx_XDis,navx_YDis,GearPlacerState,ShootOutputV,ShootOutputCurrent,ShootEncPos,ShootEncVelocity,ShootSpeed,ShootSetpoint,CarouselSetpoint,CarouselCurrent,
0.12842699999990873,0.0,0.0,127845.0,0.0,0.0,0.0,0.0,0.25,3.861083589,3.015942366852486,0.0,87151.0,0.125,0.0,0.0,0.0,0.125,4.859618643,4.41043958977222,0.0,113425.0,0.125,0.0,0.0,0.0,0.125,0.360107385,1.9194747329772914,0.0,-26687.0,0.125,0.0,0.0,0.0,0.125,4.632567885,3.031687206278561,0.0,-0.6200000047683716,-1.4500000476837158,0.0,-0.02545166015625,-0.0113525390625,1.013671875,34.56999969482422,0.0,0.0,12.4989013671875,-7.378814697265625,Closing,0.0,0.125,-362420.0,0.0,0.0,0.0,0.0,0.0,
0.2911950000000652,0.0,0.0,127845.0,0.0,0.0,0.0,0.0,0.25,3.859862886,3.015942366852486,0.0,87151.0,0.125,0.0,0.0,0.0,0.125,4.859618643,4.41043958977222,0.0,113425.0,0.125,0.0,0.0,0.0,0.125,0.364990197,1.9194747329772914,0.0,-26687.0,0.125,0.0,0.0,0.0,0.125,4.631347182,3.031687206278561,0.0,-0.6299999952316284,-1.4500000476837158,0.0,-0.02716064453125,-0.01019287109375,1.01416015625,34.56999969482422,0.0,1.0,12.4989013671875,-7.378814697265625,Closing,0.0,0.125,-362420.0,0.0,0.0,0.0,0.0,0.0,
0.4563079999999609,0.0,0.0,127814.0,7.0,-195.0,-1082.8125,0.0,1.0,4.432372593,3.6991882500000015,0.0,87172.0,11.5,165.0,1082.8125,0.0,1.125,4.304198778,3.7228275000000015,0.0,113432.0,9.25,75.0,1082.8125,0.0,1.0,4.68749952,1.2351000000000012,0.0,-26666.0,9.5,90.0,1082.8125,0.0,1.5,0.29052731400000004,3.7185000000000015,0.0,-0.18000000715255737,-1.4199999570846558,-0.11999999731779099,0.06256103515625,0.03424072265625,0.804931640625,34.54999923706055,0.0,82.0,12.498687744140625,-7.374359130859375,Closing,0.0,0.125,-362420.0,0.0,0.0,0.0,0.0,0.0,
0.6266610000000801,0.0,0.0,127778.0,4.0,-330.0,-525.0,0.0,0.25,4.669188975,3.6991882500000015,0.0,87205.0,5.75,337.5,525.0,0.0,0.25,4.024657791,3.7228275000000015,0.0,113462.0,4.625,292.5,525.0,0.0,0.125,4.4531245440000005,1.2351000000000012,0.0,-26603.0,5.0,375.0,525.0,0.0,0.375,0.458984328,3.7185000000000015,0.0,0.800000011920929,-1.5199999809265137,0.1899999976158142,-0.06182861328125,0.1798095703125,1.14703369140625,34.54999923706055,0.0,-30.0,12.499618530273438,-7.3525390625,Closing,0.0,0.125,-362420.0,0.0,0.0,0.0,0.0,0.0,
0.7942600000000093,0.0,0.0,127678.0,0.125,-187.5,0.0,0.0,0.375,4.586181171000001,3.6991882500000015,0.0,87306.0,0.125,195.0,0.0,0.0,0.25,4.017333573,3.7228275000000015,0.0,113558.0,0.125,240.0,0.0,0.0,0.125,4.506835476,1.2351000000000012,0.0,-26552.0,0.25,270.0,0.0,0.0,0.25,0.457763625,3.7185000000000015,0.0,-0.25999999046325684,-1.440000057220459,0.8299999833106995,0.0391845703125,-0.13385009765625,0.928955078125,34.54999923706055,0.0,60.0,12.499099731445312,-7.329254150390625,Closing,0.0,0.125,-362420.0,0.0,0.0,0.0,0.0,0.0,
0.9665870000000577,0.0,0.0,127631.0,2.125,-285.0,-820.3125,0.0,0.375,4.514159694,3.6991882500000015,0.0,87355.0,3.625,285.0,820.3125,0.0,0.75,4.041747633,3.7228275000000015,0.0,113586.0,3.0,187.5,820.3125,0.0,0.125,4.584960468,1.2351000000000012,0.0,-26467.0,3.0,255.0,820.3125,0.0,0.5,0.36254879100000004,3.7185000000000015,0.0,-0.41999998688697815,-1.4299999475479126,0.9300000071525574,-0.033935546875,0.07244873046875,1.0220947265625,34.529998779296875,0.0,-7.0,12.498703002929688,-7.3297271728515625,Closing,0.0,0.125,-362420.0,0.0,0.0,0.0,0.0,0.0,
1.133820000000065,0.0,0.0,127513.0,15.75,-427.5,-1542.1875,0.0,0.25,4.5031733670000005,3.6991882500000015,0.0,87476.0,19.875,547.5,1542.1875,0.0,0.5,4.045409742,3.7228275000000015,0.0,113669.0,17.875,307.5,1542.1875,0.0,0.0,4.6008296070000005,1.2351000000000012,0.0,-26404.0,14.5,555.0,1542.1875,0.0,0.25,0.2441406,3.7185000000000015,0.0,1.4600000381469727,-1.2599999904632568,1.409999966621399,0.03863525390625,0.346923828125,0.78765869140625,34.529998779296875,0.0,64.0,12.499801635742188,-7.30731201171875,Closing,0.0,0.125,-362420.0,0.0,0.0,0.0,0.0,0.0,
1.3078319999999366,0.0,0.0,127356.0,12.75,-1110.0,-1542.1875,0.0,0.25,4.5056147730000005,3.6991882500000015,0.0,87637.0,14.125,1192.5,1542.1875,0.0,0.5,4.05273396,3.7228275000000015,0.0,113743.0,26.75,562.5,1542.1875,0.0,0.0,4.6032710130000005,1.2351000000000012,0.0,-26029.0,7.875,1282.5,1542.1875,0.0,0.25,0.327148404,3.7185000000000015,0.0,3.5,-1.059999942779541,3.6700000762939453,0.07061767578125,0.27337646484375,0.6529541015625,34.529998779296875,0.0,97.0,12.515121459960938,-7.2293548583984375,Closing,0.0,0.125,-362420.0,0.0,0.0,0.0,0.0,0.0,
1.4819310000000987,0.0,0.0,127140.0,7.5,-1567.5,-1542.1875,0.0,0.25,4.50439407,3.6991882500000015,0.0,88121.0,6.125,1612.5,1542.1875,0.0,0.25,4.10156208,3.7228275000000015,0.0,114011.0,33.75,952.5,1542.1875,0.0,0.125,4.6032710130000005,1.2351000000000012,0.0,-25762.0,2.375,1702.5,1542.1875,0.0,0.25,0.385742148,3.7185000000000015,0.0,4.260000228881836,-1.350000023841858,5.710000038146973,0.052001953125,0.1939697265625,0.79052734375,34.529998779296875,0.0,83.0,12.536117553710938,-7.1326751708984375,Closing,0.0,0.125,-362420.0,0.0,0.0,0.0,0.0,0.0,
1.6525860000001267,0.0,0.0,126635.0,0.0,-1500.0,0.0,0.0,0.125,4.499511258,3.6991882500000015,0.0,88363.0,0.125,1485.0,0.0,0.0,0.25,4.1284175460000005,3.7228275000000015,0.0,114218.0,0.125,1320.0,0.0,0.0,0.125,4.627685073,1.2351000000000012,0.0,-25493.0,0.125,1657.5,0.0,0.0,0.375,0.385742148,3.7185000000000015,0.0,3.0999999046325684,-1.7400000095367432,6.940000057220459,0.04241943359375,-0.1221923828125,1.21588134765625,34.529998779296875,0.0,56.0,12.555099487304688,-7.0362396240234375,Closing,0.0,0.125,-362420.0,0.0,0.0,0.0,0.0,0.0,
1.8240770000000484,0.0,0.0,126383.0,0.125,-1470.0,0.0,0.0,0.25,4.499511258,3.6991882500000015,0.0,88614.0,0.125,1432.5,0.0,0.0,0.25,4.129638249,3.7228275000000015,0.0,114430.0,0.125,1380.0,0.0,0.0,0.125,4.613036637,1.2351000000000012,0.0,-24976.0,0.25,1537.5,0.0,0.0,0.25,0.385742148,3.7185000000000015,0.0,2.0999999046325684,-1.850000023841858,7.980000019073486,-0.150146484375,-0.08099365234375,1.39544677734375,34.529998779296875,0.0,-122.0,12.5679931640625,-6.9785614013671875,Closing,0.0,0.125,-362420.0,0.0,0.0,0.0,0.0,0.0,
1.9912609999999404,0.0,0.0,125953.0,0.0,-1275.0,0.0,0.0,0.25,4.499511258,3.6991882500000015,0.0,89039.0,0.125,1245.0,0.0,0.0,0.25,4.129638249,3.7228275000000015,0.0,114874.0,0.125,1342.5,0.0,0.0,0.125,4.6032710130000005,1.2351000000000012,0.0,-24751.0,0.25,1335.0,0.0,0.0,0.25,0.385742148,3.7185000000000015,0.0,1.2300000190734863,-1.7100000381469727,9.09000015258789,0.05810546875,-0.128662109375,1.2161865234375,34.540000915527344,0.0,68.0,12.572052001953125,-6.9440460205078125,Closing,0.0,0.125,-362420.0,0.0,0.0,0.0,0.0,0.0,
2.1543719999999738,0.0,0.0,125773.0,0.0,-1087.5,0.0,0.0,0.25,4.499511258,3.6991882500000015,0.0,89217.0,0.125,1057.5,0.0,0.0,0.25,4.1284175460000005,3.7228275000000015,0.0,115069.0,0.125,1147.5,0.0,0.0,0.125,4.6032710130000005,1.2351000000000012,0.0,-24358.0,0.125,1215.0,0.0,0.0,0.25,0.385742148,3.7185000000000015,0.0,0.4399999976158142,-1.6699999570846558,10.319999694824219,0.08349609375,-0.042236328125,0.91748046875,34.540000915527344,0.0,99.0,12.57342529296875,-6.93231201171875,Closing,0.0,0.125,-362420.0,0.0,0.0,0.0,0.0,0.0,
2.3254229999999514,0.0,0.0,125614.0,0.0,-900.0,0.0,0.0,0.25,4.4982905550000005,3.6991882500000015,0.0,89522.0,0.125,907.5,0.0,0.0,0.25,4.134521061,3.7228275000000015,0.0,115402.0,0.125,990.0,0.0,0.0,0.125,4.604491716,1.2351000000000012,0.0,-24193.0,0.25,1012.5,0.0,0.0,0.25,0.385742148,3.7185000000000015,0.0,-0.1899999976158142,-1.7599999904632568,11.510000228881836,-0.056884765625,-0.08062744140625,1.08685302734375,34.540000915527344,0.0,-38.0,12.5732421875,-6.9382171630859375,Closing,0.0,0.125,-362420.0,0.0,0.0,0.0,0.0,0.0,
2.4909550000000746,0.0,0.0,125355.0,0.125,-727.5,0.0,0.0,0.25,4.499511258,3.6991882500000015,0.0,89643.0,0.125,720.0,0.0,0.0,0.125,4.1333003580000005,3.7228275000000015,0.0,115536.0,0.125,787.5,0.0,0.0,0.125,4.6032710130000005,1.2351000000000012,0.0,-24053.0,0.25,787.5,0.0,0.0,0.25,0.385742148,3.7185000000000015,0.0,-0.800000011920929,-1.75,12.40999984741211,-0.0074462890625,-0.09912109375,0.962890625,34.5099983215332,0.0,3.0,12.5699462890625,-6.9610443115234375,Closing,0.0,0.125,-362420.0,0.0,0.0,0.0,0.0,0.0,
2.6625190000000876,0.0,0.0,125286.0,6.0,-127.5,496.06300592422485,0.0,0.25,4.481200713000001,3.6991882499999984,0.0,89727.0,10.75,172.5,-496.06300592422485,0.0,0.125,4.134521061,3.7228274999999984,0.0,115642.0,9.25,307.5,-496.06300592422485,0.0,0.125,4.6032710130000005,1.2350999999999985,0.0,-23899.0,7.625,157.5,-496.06300592422485,0.0,0.375,0.40039058400000005,3.7184999999999984,0.0,-3.569999933242798,-1.6100000143051147,12.8100004196167,-0.0098876953125,-0.27972412109375,0.8831787109375,34.5099983215332,0.0,-35.0,12.558502197265625,-7.017578125,Closing,0.0,0.125,-362420.0,0.0,0.0,0.0,0.0,0.0,
2.834537999999942,0.0,0.0,125358.0,3.125,382.5,512.5984311103821,0.0,0.25,4.483642119000001,3.6991882499999984,0.0,89671.0,4.75,-397.5,-512.5984311103821,0.0,0.125,4.1931148050000004,3.7228274999999984,0.0,115641.0,7.0,-165.0,-512.5984311103821,0.0,0.125,4.6032710130000005,1.2350999999999985,0.0,-23947.0,3.375,-420.0,-512.5984311103821,0.0,0.25,0.43457026800000004,3.7184999999999984,0.0,-4.300000190734863,-1.7300000190734863,12.630000114440918,-0.00775146484375,-0.08203125,1.0390625,34.5099983215332,0.0,22.0,12.535232543945312,-7.124237060546875,Closing,0.0,0.125,-362420.0,0.0,0.0,0.0,0.0,0.0,
3.010125,0.0,0.0,125413.0,0.0,352.5,0.0,0.0,0.25,4.484862822,3.6991882499999984,0.0,89616.0,0.125,-367.5,0.0,0.0,0.25,4.206542538,3.7228274999999984,0.0,115595.0,0.125,-277.5,0.0,0.0,0.125,4.575194844,1.2350999999999985,0.0,-24081.0,0.125,-322.5,0.0,0.0,0.25,0.385742148,3.7184999999999984,0.0,-3.390000104904175,-1.7999999523162842,12.890000343322754,-0.0489501953125,1.220703125E-4,1.344970703125,34.470001220703125,0.0,19.0,12.51336669921875,-7.2214508056640625,Closing,0.0,0.125,-362420.0,0.0,0.0,0.0,0.0,0.0,
3.174948000000091,0.0,0.0,125521.0,0.125,240.0,0.0,0.0,0.25,4.482421416,3.6991882499999984,0.0,89508.0,0.125,-262.5,0.0,0.0,0.25,4.1906733990000005,3.7228274999999984,0.0,115524.0,0.125,-180.0,0.0,0.0,0.0,4.575194844,1.2350999999999985,0.0,-24122.0,0.25,-232.5,0.0,0.0,0.25,0.36132808800000005,3.7184999999999984,0.0,-2.2899999618530273,-1.7400000095367432,12.949999809265137,-0.02960205078125,0.1429443359375,1.03704833984375,34.470001220703125,0.0,43.0,12.510086059570312,-7.2758636474609375,Closing,0.0,0.125,-362420.0,0.0,0.0,0.0,0.0,0.0,
3.3479729999999983,0.0,0.0,125537.0,0.0,75.0,0.0,0.0,0.25,4.483642119000001,3.6991882499999984,0.0,89489.0,0.125,-75.0,0.0,0.0,0.25,4.1882319930000005,3.7228274999999984,0.0,115506.0,0.125,-67.5,0.0,0.0,0.0,4.573974141,1.2350999999999985,0.0,-24148.0,0.25,-75.0,0.0,0.0,0.125,0.36132808800000005,3.7184999999999984,0.0,-1.4700000286102295,-1.7100000381469727,12.949999809265137,-0.02264404296875,0.0947265625,1.0560302734375,34.470001220703125,0.0,36.0,12.512527465820312,-7.3152923583984375,Closing,0.0,0.125,-362420.0,0.0,0.0,0.0,0.0,0.0,
3.512473999999929,0.0,0.0,125538.0,0.125,0.0,0.0,0.0,0.25,4.483642119000001,3.6991882499999984,0.0,89487.0,0.125,0.0,0.0,0.0,0.25,4.18701129,3.7228274999999984,0.0,115506.0,0.125,0.0,0.0,0.0,0.0,4.575194844,1.2350999999999985,0.0,-24154.0,0.25,0.0,0.0,0.0,0.25,0.357665979,3.7184999999999984,0.0,-1.2100000381469727,-1.7200000286102295,12.960000038146973,-0.0311279296875,-0.023193359375,1.0054931640625,34.45000076293945,0.0,-3.0,12.514236450195312,-7.33544921875,Closing,0.0,0.125,-362420.0,0.0,0.0,0.0,0.0,0.0,
3.680848999999929,0.0,0.0,125538.0,0.125,0.0,0.0,0.0,0.25,4.483642119000001,3.6991882499999984,0.0,89487.0,0.125,0.0,0.0,0.0,0.25,4.18701129,3.7228274999999984,0.0,115506.0,0.125,0.0,0.0,0.0,0.0,4.573974141,1.2350999999999985,0.0,-24154.0,0.25,0.0,0.0,0.0,0.125,0.35644527600000003,3.7184999999999984,0.0,-1.2100000381469727,-1.7300000190734863,12.960000038146973,-0.03973388671875,-0.01226806640625,1.023193359375,34.45000076293945,0.0,-6.0,12.51416015625,-7.33544921875,Closing,0.0,0.125,-362420.0,0.0,0.0,0.0,0.0,0.0,
3.8562569999999834,0.0,0.0,125538.0,0.0,0.0,0.0,0.0,0.25,4.482421416,3.6991882499999984,0.0,89487.0,0.125,0.0,0.0,0.0,0.25,4.18701129,3.7228274999999984,0.0,115506.0,0.125,0.0,0.0,0.0,0.0,4.575194844,1.2350999999999985,0.0,-24154.0,0.25,0.0,0.0,0.0,0.125,0.35644527600000003,3.7184999999999984,0.0,-1.0499999523162842,-1.7400000095367432,12.960000038146973,-0.03704833984375,-0.00146484375,1.015625,34.45000076293945,0.0,-2.0,12.51416015625,-7.3344268798828125,Closing,0.0,0.125,-362420.0,0.0,0.0,0.0,0.0,0.0,
4.0272960000000895,0.0,0.0,125538.0,0.125,0.0,0.0,0.0,0.25,4.484862822,3.6991882499999984,0.0,89487.0,0.125,0.0,0.0,0.0,0.25,4.18701129,3.7228274999999984,0.0,115506.0,0.125,0.0,0.0,0.0,0.0,4.575194844,1.2350999999999985,0.0,-24154.0,0.125,0.0,0.0,0.0,0.125,0.357665979,3.7184999999999984,0.0,-0.9800000190734863,-1.7400000095367432,12.960000038146973,-0.03460693359375,-0.00628662109375,1.017333984375,34.470001220703125,0.0,0.0,12.51416015625,-7.334197998046875,Closing,0.0,0.125,-362420.0,0.0,0.0,0.0,0.0,0.0,
4.193586000000127,0.0,0.0,125538.0,0.125,0.0,0.0,0.0,0.25,4.483642119000001,3.6991882499999984,0.0,89487.0,0.125,0.0,0.0,0.0,0.25,4.18701129,3.7228274999999984,0.0,115506.0,0.125,0.0,0.0,0.0,0.0,4.575194844,1.2350999999999985,0.0,-24154.0,0.25,0.0,0.0,0.0,0.125,0.357665979,3.7184999999999984,0.0,-0.8799999952316284,-1.7400000095367432,12.960000038146973,-0.02899169921875,-0.00811767578125,1.02056884765625,34.470001220703125,0.0,3.0,12.51416015625,-7.334197998046875,Closing,0.0,0.125,-362420.0,0.0,0.0,0.0,0.0,0.0,
4.361610000000103,0.0,0.0,125538.0,0.0,0.0,0.0,0.0,0.25,4.482421416,3.6991882499999984,0.0,89487.0,0.125,0.0,0.0,0.0,0.25,4.18701129,3.7228274999999984,0.0,115506.0,0.125,0.0,0.0,0.0,0.0,4.573974141,1.2350999999999985,0.0,-24154.0,0.125,0.0,0.0,0.0,0.125,0.357665979,3.7184999999999984,0.0,-0.8100000023841858,-1.75,12.960000038146973,-0.03045654296875,-0.00537109375,1.02374267578125,34.470001220703125,0.0,2.0,12.51416015625,-7.334197998046875,Closing,0.0,0.125,-362420.0,0.0,0.0,0.0,0.0,0.0,
4.528462000000058,0.0,0.0,125538.0,0.0,0.0,0.0,0.0,0.25,4.482421416,3.6991882499999984,0.0,89487.0,0.125,0.0,0.0,0.0,0.25,4.1882319930000005,3.7228274999999984,0.0,115506.0,0.125,0.0,0.0,0.0,0.0,4.575194844,1.2350999999999985,0.0,-24154.0,0.25,0.0,0.0,0.0,0.125,0.35644527600000003,3.7184999999999984,0.0,-0.7400000095367432,-1.7599999904632568,12.960000038146973,-0.0302734375,-0.00653076171875,1.02618408203125,34.4900016784668,0.0,2.0,12.51416015625,-7.334197998046875,Closing,0.0,0.125,-362420.0,0.0,0.0,0.0,0.0,0.0,
4.692723999999929,0.0,0.0,125538.0,0.0,0.0,0.0,0.0,0.25,4.483642119000001,3.6991882499999984,0.0,89487.0,0.125,0.0,0.0,0.0,0.25,4.1882319930000005,3.7228274999999984,0.0,115506.0,0.125,0.0,0.0,0.0,0.0,4.575194844,1.2350999999999985,0.0,-24154.0,0.25,0.0,0.0,0.0,0.125,0.357665979,3.7184999999999984,0.0,-0.6899999976158142,-1.7599999904632568,12.960000038146973,-0.033447265625,-0.0050048828125,1.02197265625,34.4900016784668,0.0,0.0,12.51416015625,-7.334197998046875,Closing,0.0,0.125,-362420.0,0.0,0.0,0.0,0.0,0.0,
4.859857000000076,0.0,0.0,125572.0,3.125,142.5,711.0235959291458,0.0,0.25,4.481200713000001,3.6991882499999984,0.0,89455.0,3.875,-150.0,-711.0235959291458,0.0,0.25,4.18701129,3.7228274999999984,0.0,115495.0,4.125,-97.5,-711.0235959291458,0.0,0.0,4.599608904,1.2350999999999985,0.0,-24177.0,3.125,-142.5,-711.0235959291458,0.0,0.125,0.3662109,3.7184999999999984,0.0,-1.3799999952316284,-1.7899999618530273,12.920000076293945,-0.107421875,-0.1046142578125,1.0166015625,34.4900016784668,0.0,-91.0,12.510986328125,-7.3404693603515625,Closing,0.0,0.125,-362420.0,0.0,0.0,0.0,0.0,0.0,
5.0531669999999,0.0,0.0,125618.0,4.625,375.0,777.1653592586517,0.0,0.25,4.482421416,3.6991882499999984,0.0,89413.0,6.0,-405.0,-777.1653592586517,0.0,0.25,4.1882319930000005,3.7228274999999984,0.0,115474.0,7.125,-300.0,-777.1653592586517,0.0,0.0,4.595946795000001,1.2350999999999985,0.0,-24275.0,5.125,-420.0,-777.1653592586517,0.0,0.25,0.367431603,3.7184999999999984,0.0,-2.359999895095825,-1.840000033378601,12.84000015258789,-0.03668212890625,-0.141357421875,1.0947265625,34.5099983215332,0.0,-22.0,12.500885009765625,-7.3677520751953125,Closing,0.0,0.125,-362420.0,0.0,0.0,0.0,0.0,0.0,
5.234638000000035,0.0,0.0,125807.0,4.875,682.5,914.6949669824987,0.0,1.125,3.823241796,3.0223915738899927,0.0,89233.0,7.25,-637.5,-914.6949669824987,0.0,1.125,3.4216305090000003,3.0417058302036795,0.0,115280.0,5.125,-780.0,-914.6949669824987,0.0,0.75,4.027099197,0.5571851293549575,0.0,-24374.0,5.125,-705.0,-914.6949669824987,0.0,0.875,4.726562016,3.0381700816415433,0.0,-2.299999952316284,-2.940000057220459,12.289999961853027,-0.26568603515625,0.17413330078125,0.909912109375,34.5099983215332,0.0,-168.0,12.477096557617188,-7.411041259765625,Closing,0.0,0.125,-362420.0,0.0,0.0,0.0,0.0,0.125,
5.417003000000026,0.0,0.0,125911.0,10.625,675.0,1094.8405045999205,0.0,0.375,3.400878558,2.80887437349599,0.0,88971.0,9.125,-892.5,-1094.8405045999205,0.0,0.25,3.031005549,2.826824171950736,0.0,115051.0,10.5,-675.0,-1094.8405045999205,0.0,0.25,3.448485975,0.3433151586607389,0.0,-24638.0,6.0,-922.5,-1094.8405045999205,0.0,0.5,4.1357417640000005,2.8235382067524784,0.0,-0.8100000023841858,-4.510000228881836,9.65999984741211,-0.2235107421875,-0.00244140625,1.00634765625,34.5099983215332,0.0,-139.0,12.419403076171875,-7.4050750732421875,Closing,0.0,0.125,-362420.0,0.0,0.0,0.0,0.0,0.0,
5.606858999999939,0.0,0.0,126220.0,6.625,1192.5,1192.6162749936516,0.0,0.375,3.3776852010000002,2.6980442337872543,0.0,88802.0,9.0,-1065.0,-1192.6162749936516,0.0,0.25,3.093261402,2.7152857845933145,0.0,114891.0,9.125,-1057.5,-1192.6162749936516,0.0,0.0,3.4252926180000003,0.23230190685805516,0.0,-24797.0,6.625,-1072.5,-1192.6162749936516,0.0,0.375,4.1809077750000005,2.712129474172585,0.0,-0.33000001311302185,-5.210000038146973,10.609999656677246,-0.35968017578125,-0.20281982421875,1.3316650390625,34.470001220703125,0.0,-268.0,12.347640991210938,-7.3788909912109375,Closing,0.0,0.125,-362420.0,0.0,0.0,0.0,0.0,0.0,
5.78738599999994,0.0,0.0,126436.0,3.5,1395.0,1215.326153493053,0.0,0.375,3.492431283,2.6713843257939685,0.0,88393.0,5.125,-1327.5,-1215.326153493053,0.0,0.25,3.171386394,2.688455509430953,0.0,114475.0,5.875,-1335.0,-1215.326153493053,0.0,0.125,3.5815426020000003,0.20559795171667505,0.0,-25187.0,4.0,-1312.5,-1215.326153493053,0.0,0.25,4.365233928,2.685330387136927,0.0,-1.3600000143051147,-5.099999904632568,12.079999923706055,-0.1375732421875,-0.07159423828125,1.38323974609375,34.470001220703125,0.0,-21.0,12.243927001953125,-7.3580474853515625,Closing,0.0,0.125,-362420.0,0.0,0.0,0.0,0.0,0.0,
5.972024999999907,0.0,0.0,126892.0,3.875,1417.5,1381.1788653353394,0.0,0.375,3.7438961010000003,2.9016330620585125,0.0,88153.0,3.125,-1515.0,-1381.1788653353394,0.0,0.25,3.33251919,2.9201756245686163,0.0,114237.0,4.75,-1485.0,-1381.1788653353394,0.0,0.125,3.8305660140000004,0.43622710190415553,0.0,-25413.0,2.875,-1485.0,-1381.1788653353394,0.0,0.375,4.5007319610000005,2.916781145502551,0.0,-2.049999952316284,-4.260000228881836,11.84000015258789,0.0745849609375,-0.01922607421875,0.62091064453125,34.470001220703125,0.0,118.0,12.15594482421875,-7.3572845458984375,Closing,0.0,0.125,-362420.0,0.0,0.0,0.0,0.0,0.125,
6.152990999999922,0.0,0.0,127118.0,4.875,1395.0,1440.102416039166,0.0,0.25,3.826903905,2.9352025884437056,0.0,87670.0,2.625,-1530.0,-1440.102416039166,0.0,0.25,3.4228512120000003,2.9539596732686983,0.0,113761.0,4.75,-1485.0,-1440.102416039166,0.0,0.125,3.9453120960000003,0.4698520914177486,0.0,-25905.0,1.625,-1567.5,-1440.102416039166,0.0,0.25,4.611815934,2.950525922850214,0.0,-2.809999942779541,-3.180000066757202,9.949999809265137,0.01806640625,-0.0181884765625,1.16796875,34.470001220703125,0.0,88.0,12.081695556640625,-7.3875579833984375,Closing,0.0,0.125,-362420.0,0.0,0.0,0.0,0.0,0.0,
6.335986000000034,0.0,0.0,127571.0,4.375,1447.5,1440.102416039166,0.0,0.375,3.7365718830000003,2.9352025884437056,0.0,87426.0,2.0,-1522.5,-1440.102416039166,0.0,0.25,3.4289547270000003,2.9539596732686983,0.0,113519.0,4.0,-1515.0,-1440.102416039166,0.0,0.125,3.8305660140000004,0.4698520914177486,0.0,-26402.0,1.0,-1560.0,-1440.102416039166,0.0,0.25,4.621581558,2.950525922850214,0.0,-2.5999999046325684,-2.990000009536743,8.180000305175781,0.05029296875,0.137451171875,1.29351806640625,34.470001220703125,0.0,144.0,12.024993896484375,-7.4253387451171875,Closing,0.0,0.125,-362420.0,0.0,0.0,0.0,0.0,0.0,
6.523212000000058,0.0,0.0,127814.0,4.375,1567.5,1579.545002913604,0.0,0.25,3.6914058720000003,2.888941233681072,0.0,86934.0,3.0,-1567.5,-1579.545002913604,0.0,0.25,3.386230122,2.907402690477247,0.0,113027.0,4.5,-1552.5,-1579.545002913604,0.0,0.125,3.768310161,0.42351430425539305,0.0,-26659.0,1.25,-1620.0,-1579.545002913604,0.0,0.25,4.5007319610000005,2.9040230589624807,0.0,-2.140000104904175,-3.0,7.900000095367432,-0.15478515625,-0.096435546875,1.255615234375,34.470001220703125,0.0,-94.0,11.977401733398438,-7.4475555419921875,Closing,0.0,0.125,-362420.0,0.0,0.0,0.0,0.0,0.0,
6.694120000000112,0.0,0.0,128324.0,3.625,1597.5,1559.9496829382654,0.0,0.375,3.5791011960000003,2.7555488622301767,0.0,86684.0,2.875,-1552.5,-1559.9496829382654,0.0,0.25,3.249511386,2.7731578899517246,0.0,112776.0,4.25,-1575.0,-1559.9496829382654,0.0,0.125,3.669433218,0.28990154368907095,0.0,-26903.0,2.5,-1470.0,-1559.9496829382654,0.0,0.5,4.354247601,2.7699343076695033,0.0,-1.3799999952316284,-3.190000057220459,8.199999809265137,-0.14422607421875,0.04193115234375,1.16644287109375,34.45000076293945,0.0,-68.0,11.925125122070312,-7.45611572265625,Closing,0.0,0.125,-362420.0,0.0,0.0,0.0,0.0,0.0,
6.866006999999983,0.0,0.0,128580.0,3.625,1560.0,1559.9496829382654,0.0,0.25,3.507079719,2.7555488622301767,0.0,86440.0,2.625,-1575.0,-1559.9496829382654,0.0,0.25,3.171386394,2.7731578899517246,0.0,112525.0,4.375,-1560.0,-1559.9496829382654,0.0,0.125,3.6303707220000003,0.28990154368907095,0.0,-27392.0,1.875,-1545.0,-1559.9496829382654,0.0,0.125,4.301757372,2.7699343076695033,0.0,-0.6899999976158142,-3.2200000286102295,7.929999828338623,-0.0369873046875,3.662109375E-4,1.0889892578125,34.45000076293945,0.0,25.0,11.881301879882812,-7.4406585693359375,Closing,0.0,0.0,-362420.0,0.0,0.0,0.0,0.0,0.0,
7.033175000000046,0.0,0.0,129077.0,3.625,1552.5,1525.0295983027381,0.0,0.375,3.4301754300000002,2.5943666408178334,0.0,85940.0,2.375,-1522.5,-1525.0295983027381,0.0,0.25,3.068847342,2.610945651527535,0.0,112032.0,4.25,-1522.5,-1525.0295983027381,0.0,0.25,3.4838863620000002,0.12845301913800047,0.0,-27643.0,1.375,-1545.0,-1525.0295983027381,0.0,0.25,4.224853083,2.6079106284685873,0.0,-0.44999998807907104,-2.950000047683716,7.480000019073486,0.056396484375,0.26678466796875,0.74481201171875,34.400001525878906,0.0,129.0,11.840133666992188,-7.4146728515625,Closing,0.0,0.125,-362420.0,0.0,0.0,0.0,0.0,0.0,
7.20606799999997,0.0,0.0,129333.0,3.625,1605.0,1610.8261692133035,0.0,0.25,3.339843408,2.5387518933484525,0.0,85691.0,3.625,-1552.5,-1610.8261692133035,0.0,0.25,3.0029293800000003,2.5549755042162796,0.0,111783.0,4.75,-1567.5,-1610.8261692133035,0.0,0.125,3.397216449,0.0727463857169259,0.0,-28148.0,1.875,-1605.0,-1610.8261692133035,0.0,0.25,4.147948794,2.5520055421392036,0.0,0.25,-2.799999952316284,8.0600004196167,-0.10516357421875,0.02227783203125,0.7994384765625,34.400001525878906,0.0,-62.0,11.818756103515625,-7.375152587890625,Closing,0.0,0.125,-362420.0,0.0,0.0,0.0,0.0,0.0,
7.370112999999896,0.0,0.0,129591.0,3.5,1642.5,1641.094844754554,0.0,0.25,3.300780912,2.5215377730632924,0.0,85191.0,3.875,-1582.5,-1641.094844754554,0.0,0.25,2.987060241,2.537651379015054,0.0,111277.0,5.125,-1590.0,-1641.094844754554,0.0,0.0,3.387450825,0.055503824489444804,0.0,-28397.0,2.875,-1567.5,-1641.094844754554,0.0,0.125,4.127196843,2.534701554898119,0.0,0.3700000047683716,-2.7200000286102295,8.539999961853027,-0.0941162109375,-0.1048583984375,1.12811279296875,34.400001525878906,0.0,-56.0,11.824203491210938,-7.33258056640625,Closing,0.0,0.125,-362420.0,0.0,0.0,0.0,0.0,0.125,
7.537631000000053,0.0,0.0,130121.0,3.25,1657.5,1637.0078444480896,0.0,0.25,3.303222318,2.4661254999999977,0.0,84929.0,3.375,-1635.0,-1637.0078444480896,0.0,0.25,2.9504391510000003,2.481884999999998,0.0,111020.0,5.0,-1635.0,-1637.0078444480896,0.0,0.125,3.388671528,0.01,0.0,-28653.0,2.25,-1627.5,-1637.0078444480896,0.0,0.25,4.127196843,2.4790000000000023,0.0,0.3700000047683716,-2.7200000286102295,8.649999618530273,0.03741455078125,0.10015869140625,1.2821044921875,34.400001525878906,0.0,111.0,11.827850341796875,-7.279571533203125,Closing,0.0,0.125,-362420.0,0.0,0.0,0.0,0.0,0.0,
7.711543000000064,0.0,0.0,130388.0,3.0,1672.5,1637.0078444480896,0.0,0.25,3.300780912,2.4661254999999977,0.0,84401.0,3.0,-1657.5,-1637.0078444480896,0.0,0.125,2.9296872,2.481884999999998,0.0,110491.0,4.625,-1650.0,-1637.0078444480896,0.0,0.125,3.387450825,0.01,0.0,-29182.0,1.875,-1657.5,-1637.0078444480896,0.0,0.25,4.1284175460000005,2.4790000000000023,0.0,0.23999999463558197,-2.5299999713897705,8.40999984741211,-0.14453125,0.04583740234375,1.4730224609375,34.41999816894531,0.0,-72.0,11.835418701171875,-7.2314300537109375,Closing,0.0,0.125,-362420.0,0.0,0.0,0.0,0.0,0.0,
7.877461000000126,0.0,0.0,130917.0,3.0,1642.5,1637.0078444480896,0.0,0.25,3.300780912,2.4661254999999977,0.0,84133.0,2.5,-1672.5,-1637.0078444480896,0.0,0.125,2.9296872,2.481884999999998,0.0,110227.0,4.75,-1642.5,-1637.0078444480896,0.0,0.125,3.387450825,0.01,0.0,-29453.0,1.375,-1672.5,-1637.0078444480896,0.0,0.25,4.129638249,2.4790000000000023,0.0,-0.07000000029802322,-2.3399999141693115,7.880000114440918,-0.02197265625,-0.10723876953125,1.2391357421875,34.41999816894531,0.0,13.0,11.847274780273438,-7.1827239990234375,Closing,0.0,0.125,-362420.0,0.0,0.0,0.0,0.0,0.0,
8.051135999999941,0.0,0.0,131168.0,0.75,1470.0,1256.6929399967194,0.0,0.25,3.306884427,2.4661254999999977,0.0,83883.0,0.25,-1522.5,-1256.6929399967194,0.0,0.125,2.9296872,2.481884999999998,0.0,109967.0,1.0,-1552.5,-1256.6929399967194,0.0,0.125,3.387450825,0.01,0.0,-29960.0,0.375,-1507.5,-1256.6929399967194,0.0,0.25,4.121093328000001,2.4790000000000023,0.0,-0.20999999344348907,-1.659999966621399,7.380000114440918,0.1287841796875,-0.0030517578125,0.97149658203125,34.41999816894531,0.0,155.0,11.866607666015625,-7.1418304443359375,Closing,0.0,0.125,-362420.0,0.0,0.0,0.0,0.0,0.0,
8.222487999999895,0.0,0.0,131616.0,0.0,1372.5,0.0,0.0,0.25,3.2958981,2.4661254999999977,0.0,83409.0,0.125,-1425.0,0.0,0.0,0.125,2.930907903,2.481884999999998,0.0,109530.0,0.125,-1170.0,0.0,0.0,0.125,3.3630367650000004,0.01,0.0,-30195.0,0.25,-1432.5,0.0,0.0,0.25,4.094237862,2.4790000000000023,0.0,-0.17000000178813934,-0.800000011920929,6.860000133514404,0.00372314453125,-0.04925537109375,1.26507568359375,34.380001068115234,0.0,16.0,11.905059814453125,-7.1427459716796875,Closing,0.0,0.125,-362420.0,0.0,0.0,0.0,0.0,0.0,
8.389337000000058,0.0,0.0,131807.0,0.0,1147.5,0.0,0.0,0.25,3.305663724,2.4661254999999977,0.0,83209.0,0.125,-1155.0,0.0,0.0,0.125,2.9296872,2.481884999999998,0.0,109341.0,0.125,-1155.0,0.0,0.0,0.0,3.3691402800000003,0.01,0.0,-30586.0,0.25,-1177.5,0.0,0.0,0.25,4.0832515350000005,2.4790000000000023,0.0,-0.4399999976158142,0.07999999821186066,6.820000171661377,0.15875244140625,0.0059814453125,0.88922119140625,34.380001068115234,0.0,157.0,11.956863403320312,-7.1488189697265625,Closing,0.0,0.125,-362420.0,0.0,0.0,0.0,0.0,0.0,
8.56478600000008,0.0,0.0,131960.0,3.0,390.0,165.35433009266853,0.0,1.125,3.9868159980000004,3.6991882499999984,0.0,83025.0,2.75,-187.5,-165.35433009266853,0.0,1.75,3.5156246400000004,3.7228274999999984,0.0,109060.0,6.25,-765.0,-165.35433009266853,0.0,2.875,4.086913644,1.2350999999999985,0.0,-30686.0,9.625,-405.0,165.35433009266853,0.0,1.875,3.3105465360000004,1.2394999999999985,0.0,-0.3499999940395355,3.509999990463257,6.880000114440918,0.6986083984375,-0.10638427734375,0.53857421875,34.380001068115234,0.0,647.0,12.050247192382812,-7.1617889404296875,Closing,0.0,0.125,-362420.0,0.0,0.0,0.0,0.0,0.0,
8.73122900000005,0.0,0.0,131986.0,0.125,-30.0,297.6378098130226,0.0,1.25,4.702147956,3.6991882499999984,0.0,83024.0,0.125,0.0,-297.6378098130226,0.0,1.25,4.484862822,3.7228274999999984,0.0,109056.0,0.625,0.0,-297.6378098130226,0.0,0.625,4.812011226,1.2350999999999985,0.0,-30679.0,6.0,60.0,297.6378098130226,0.0,1.25,2.595214578,1.2394999999999985,0.0,-0.47999998927116394,2.9700000286102295,6.690000057220459,0.1070556640625,-0.06195068359375,0.95062255859375,34.439998626708984,0.0,50.0,12.199249267578125,-7.186492919921875,Closing,0.0,0.125,-362420.0,0.0,0.0,0.0,0.0,0.0,
8.910033999999985,0.0,0.0,131986.0,0.125,0.0,0.0,0.0,0.375,4.755858888000001,3.6991882499999984,0.0,83024.0,0.125,0.0,0.0,0.0,0.25,4.650878430000001,3.7228274999999984,0.0,109048.0,0.125,-30.0,0.0,0.0,0.25,4.862060049,1.2350999999999985,0.0,-30672.0,0.25,-7.5,0.0,0.0,0.375,2.5817868450000003,1.2394999999999985,0.0,-0.4099999964237213,2.5899999141693115,6.550000190734863,-0.0035400390625,0.00537109375,1.06646728515625,34.439998626708984,0.0,-50.0,12.320114135742188,-7.19854736328125,Closing,0.0,0.125,-362420.0,0.0,0.0,0.0,0.0,0.0,
9.075206999999937,0.0,0.0,131986.0,0.125,0.0,0.0,0.0,0.375,4.523925318,3.6991882499999984,0.0,83024.0,0.125,0.0,0.0,0.0,0.5,4.07714802,3.7228274999999984,0.0,109048.0,0.125,0.0,0.0,0.0,0.375,4.5556635960000005,1.2350999999999985,0.0,-30677.0,0.125,-22.5,0.0,0.0,0.625,2.864989941,1.2394999999999985,0.0,-0.5099999904632568,2.2200000286102295,6.710000038146973,0.0386962890625,-0.0030517578125,1.05621337890625,34.439998626708984,0.0,-1.0,12.431289672851562,-7.1989898681640625,Closing,0.0,0.125,-362420.0,0.0,0.0,0.0,0.0,0.0,
9.239253000000026,0.0,0.0,132032.0,24.25,322.5,2066.929149627686,0.0,0.5,3.905028897,3.015942366852486,0.0,82986.0,38.125,-217.5,-2066.929149627686,0.0,1.25,4.4506831380000005,4.41043958977222,0.0,109054.0,33.25,67.5,2066.929149627686,0.0,2.0,0.040283199000000006,1.9194747329772914,0.0,-30739.0,30.0,-255.0,-2066.929149627686,0.0,1.375,2.406005613,0.552687206278561,0.0,-0.14000000059604645,1.7200000286102295,8.289999961853027,-0.067138671875,0.211669921875,1.149169921875,34.369998931884766,0.0,-69.0,12.539382934570312,-7.191864013671875,Closing,0.0,0.125,-362420.0,0.0,0.0,0.0,0.0,0.0,
9.410064000000013,0.0,0.0,132238.0,32.625,720.0,2100.0,0.0,0.25,3.559569948,3.015942366852486,0.0,82863.0,47.875,-532.5,-2100.0,0.0,0.75,4.832763177,4.41043958977222,0.0,109144.0,29.875,375.0,2100.0,0.0,0.25,0.36987300900000003,1.9194747329772914,0.0,-30814.0,40.375,-592.5,-2100.0,0.0,0.5,2.092284942,0.552687206278561,0.0,-0.4300000071525574,0.6700000166893005,16.239999771118164,-0.23626708984375,0.01312255859375,0.81842041015625,34.369998931884766,0.0,-230.0,12.609619140625,-7.18011474609375,Closing,0.0,0.125,-362420.0,0.0,0.0,0.0,0.0,0.0,
9.579148000000044,0.0,0.0,132419.0,0.0,1132.5,0.0,0.0,0.625,3.6865230600000003,3.015942366852486,0.0,82720.0,0.125,-720.0,0.0,0.0,0.125,0.031738278,4.41043958977222,0.0,109251.0,0.125,705.0,0.0,0.0,0.125,0.42724605000000004,1.9194747329772914,0.0,-30938.0,0.25,-802.5,0.0,0.0,0.25,2.0690915850000002,0.552687206278561,0.0,0.2199999988079071,0.20000000298023224,35.959999084472656,-0.055908203125,-0.090087890625,1.22509765625,34.369998931884766,0.0,-104.0,12.68182373046875,-7.1666412353515625,Closing,0.0,0.125,-362420.0,0.0,0.0,0.0,0.0,0.0,
9.75463500000001,0.0,0.0,132531.0,0.375,510.0,942.519673705101,0.0,0.375,3.8378902320000003,3.0159423668524865,0.0,82533.0,0.5,-487.5,-942.519673705101,0.0,0.25,0.01220703,4.41043958977222,0.0,109453.0,0.5,532.5,942.519673705101,0.0,0.125,0.363769494,1.919474732977291,0.0,-31145.0,0.75,-472.5,-942.519673705101,0.0,0.25,2.103271269,0.552687206278561,0.0,0.4399999976158142,0.5099999904632568,46.08000183105469,-0.00323486328125,0.04278564453125,0.927734375,34.41999816894531,0.0,17.0,12.761993408203125,-7.1622161865234375,Closing,0.0,0.125,-362420.0,0.0,0.0,0.0,0.0,0.0,
9.927033000000055,0.0,0.0,132649.0,0.0,127.5,0.0,0.0,0.25,3.905028897,3.0159423668524865,0.0,82488.0,0.125,-202.5,0.0,0.0,0.25,4.893798327,4.41043958977222,0.0,109509.0,0.125,262.5,0.0,0.0,0.125,0.345458949,1.919474732977291,0.0,-31205.0,0.25,-135.0,0.0,0.0,0.25,2.1740720430000002,0.552687206278561,0.0,0.5,0.3499999940395355,50.65999984741211,-0.06170654296875,0.07476806640625,1.02264404296875,34.41999816894531,0.0,7.0,12.844711303710938,-7.1606597900390625,Closing,0.0,0.125,-362420.0,0.0,0.0,0.0,0.0,0.0,
10.098915999999969,0.0,0.0,132687.0,3.125,195.0,793.700784444809,0.0,1.25,4.465331574,3.6991882499999984,0.0,82454.0,4.125,-210.0,-793.700784444809,0.0,2.0,4.420165563,3.7228274999999984,0.0,109519.0,5.375,-30.0,-793.700784444809,0.0,1.125,4.779052245,1.2350999999999985,0.0,-31210.0,6.625,60.0,793.700784444809,0.0,1.5,2.8906247040000004,1.2394999999999985,0.0,0.03999999910593033,0.1899999976158142,50.81999969482422,0.0169677734375,-0.13592529296875,0.91021728515625,34.439998626708984,0.0,-97.0,12.921295166015625,-7.16009521484375,Closing,0.0,0.125,-362420.0,0.0,0.0,0.0,0.0,0.0,
10.273790000000037,0.0,0.0,132748.0,6.375,337.5,793.700784444809,0.0,0.25,4.721679204,3.6991882499999984,0.0,82389.0,8.375,-307.5,-793.700784444809,0.0,0.5,4.0258784940000005,3.7228274999999984,0.0,109471.0,7.875,-247.5,-793.700784444809,0.0,0.25,4.438476108000001,1.2350999999999985,0.0,-31178.0,8.75,330.0,793.700784444809,0.0,0.25,3.0541989060000003,1.2394999999999985,0.0,-1.1200000047683716,0.28999999165534973,50.83000183105469,-0.05523681640625,0.03387451171875,1.07415771484375,34.439998626708984,0.0,4.0,12.974929809570312,-7.1753692626953125,Closing,0.0,0.125,-362420.0,0.0,0.0,0.0,0.0,0.0,
10.437459999999962,0.0,0.0,132821.0,4.0,442.5,545.6692814826965,0.0,0.375,4.5507807840000005,3.6991882499999984,0.0,82323.0,5.75,-405.0,-545.6692814826965,0.0,0.25,4.00390584,3.7228274999999984,0.0,109416.0,6.875,-382.5,-545.6692814826965,0.0,0.125,4.488524931000001,1.2350999999999985,0.0,-31028.0,5.25,472.5,545.6692814826965,0.0,0.5,2.923583685,1.2394999999999985,0.0,-0.8899999856948853,0.10000000149011612,50.52000045776367,-0.0390625,-0.07958984375,0.9932861328125,34.439998626708984,0.0,-75.0,13.016281127929688,-7.1927642822265625,Closing,0.0,0.125,-362420.0,0.0,0.0,0.0,0.0,0.0,
10.61293299999996,0.0,0.0,132914.0,0.0,142.5,0.0,0.0,0.25,4.409179236,3.6991882499999984,0.0,82234.0,0.125,-210.0,0.0,0.0,0.5,4.0808101290000005,3.7228274999999984,0.0,109294.0,0.125,-292.5,0.0,0.0,0.125,4.613036637,1.2350999999999985,0.0,-30986.0,0.125,195.0,0.0,0.0,0.5,2.779540731,1.2394999999999985,0.0,0.029999999329447746,0.009999999776482582,50.11000061035156,0.023193359375,0.08294677734375,1.26153564453125,34.40999984741211,0.0,77.0,13.074844360351562,-7.2034759521484375,Closing,0.0,0.125,-362420.0,0.0,0.0,0.0,0.0,0.0,
10.78608400000003,0.0,0.0,132925.0,0.125,15.0,0.0,0.0,0.375,4.45556595,3.6991882499999984,0.0,82224.0,0.125,-7.5,0.0,0.0,0.25,4.114989813,3.7228274999999984,0.0,109285.0,0.125,-15.0,0.0,0.0,0.125,4.632567885,1.2350999999999985,0.0,-30963.0,0.25,7.5,0.0,0.0,0.25,2.779540731,1.2394999999999985,0.0,0.6700000166893005,0.07999999821186066,50.029998779296875,-0.012939453125,-0.00421142578125,1.0069580078125,34.40999984741211,0.0,-21.0,13.152603149414062,-7.199951171875,Closing,0.0,0.125,-362420.0,0.0,0.0,0.0,0.0,0.0,
10.956304000000003,0.0,0.0,132911.0,1.75,-180.0,-574.21875,0.0,0.375,4.477538604,3.6991882500000015,0.0,82245.0,3.5,97.5,574.21875,0.0,0.25,4.129638249,3.7228275000000015,0.0,109302.0,2.375,67.5,574.21875,0.0,0.125,4.6081538250000005,1.2351000000000012,0.0,-30981.0,2.0,-112.5,-574.21875,0.0,0.25,2.8417965840000003,1.2395000000000012,0.0,0.8600000143051147,0.05000000074505806,50.150001525878906,0.0078125,0.1309814453125,0.8546142578125,34.40999984741211,0.0,95.0,13.228195190429688,-7.198486328125,Closing,0.0,0.125,-362420.0,0.0,0.0,0.0,0.0,0.0,
11.127610000000102,0.0,0.0,132831.0,7.0,-352.5,-1000.78125,0.0,0.25,4.478759307,3.6991882500000015,0.0,82298.0,9.5,390.0,1000.78125,0.0,0.25,4.129638249,3.7228275000000015,0.0,109336.0,8.375,210.0,1000.78125,0.0,0.125,4.593505389000001,1.2351000000000012,0.0,-31019.0,7.375,-427.5,-1000.78125,0.0,0.125,2.9040524370000003,1.2395000000000012,0.0,2.009999990463257,0.0,50.279998779296875,-0.060546875,0.16656494140625,1.1424560546875,34.41999816894531,0.0,58.0,13.243209838867188,-7.184906005859375,Closing,0.0,0.125,-362420.0,0.0,0.0,0.0,0.0,0.0,
11.29488500000001,0.0,0.0,132726.0,3.375,-720.0,-803.90625,0.0,0.25,4.49218704,3.6991882500000015,0.0,82398.0,4.625,742.5,803.90625,0.0,0.25,4.129638249,3.7228275000000015,0.0,109378.0,8.0,562.5,803.90625,0.0,0.0,4.593505389000001,1.2351000000000012,0.0,-31227.0,3.25,-765.0,-803.90625,0.0,0.25,2.875976268,1.2395000000000012,0.0,2.549999952316284,-0.10999999940395355,50.38999938964844,-0.052490234375,0.053955078125,1.072509765625,34.41999816894531,0.0,-27.0,13.268600463867188,-7.159149169921875,Closing,0.0,0.125,-362420.0,0.0,0.0,0.0,0.0,0.0,
11.468631000000052,0.0,0.0,132507.0,0.375,-585.0,-229.6875,0.0,0.875,3.970946859,3.0159423668524887,0.0,82618.0,0.375,540.0,229.6875,0.0,1.25,4.779052245,4.410439589772222,0.0,109587.0,0.25,577.5,-229.6875,0.0,0.625,0.247802709,1.9194747329772885,0.0,-31329.0,0.625,-547.5,229.6875,0.0,1.25,2.2167966480000003,0.5526872062785588,0.0,1.2100000381469727,-0.019999999552965164,50.619998931884766,0.07110595703125,-0.632080078125,0.8065185546875,34.41999816894531,0.0,-456.0,13.289016723632812,-7.13665771484375,Closing,0.0,0.125,-362420.0,0.0,0.0,0.0,0.0,0.0,
11.640399999999907,0.0,0.0,132421.0,17.75,-555.0,-1657.0312499999998,0.0,0.375,3.619384395,3.0159423668524887,0.0,82693.0,28.5,547.5,1657.0312499999998,0.0,0.25,4.958495586000001,4.410439589772222,0.0,109647.0,13.625,37.5,-1657.0312499999998,0.0,0.0,0.535888617,1.9194747329772885,0.0,-31303.0,13.0,390.0,1657.0312499999998,0.0,0.25,1.9152830070000002,0.5526872062785588,0.0,-0.3799999952316284,-0.07000000029802322,44.15999984741211,0.00909423828125,0.03021240234375,1.1165771484375,34.38999938964844,0.0,33.0,13.267898559570312,-7.1540374755859375,Closing,0.0,0.125,-362420.0,0.0,0.0,0.0,0.0,0.0,
11.815131999999982,0.0,0.0,132221.0,0.125,-517.5,0.0,0.0,0.5,3.6926265750000002,3.0159423668524887,0.0,82875.0,0.125,412.5,0.0,0.0,0.25,4.958495586000001,4.410439589772222,0.0,109586.0,0.125,-270.0,0.0,0.0,0.25,0.42724605000000004,1.9194747329772885,0.0,-31228.0,0.25,315.0,0.0,0.0,0.375,2.054443149,0.5526872062785588,0.0,-0.9200000166893005,-0.44999998807907104,33.7400016784668,-0.03570556640625,-0.13201904296875,1.08642578125,34.38999938964844,0.0,-86.0,13.242584228515625,-7.1674041748046875,Closing,0.0,0.125,-362420.0,0.0,0.0,0.0,0.0,0.0,
11.988752000000096,0.0,0.0,132157.0,15.875,-510.0,-1968.7499999999998,0.0,0.375,3.8916011640000003,3.0159423668524887,0.0,82939.0,21.375,547.5,1968.7499999999998,0.0,0.25,4.926757308,4.410439589772222,0.0,109562.0,21.625,-150.0,-1968.7499999999998,0.0,0.25,0.34912105800000004,1.9194747329772885,0.0,-31083.0,17.125,540.0,1968.7499999999998,0.0,0.375,2.1643064190000003,0.5526872062785588,0.0,-0.8899999856948853,-0.4699999988079071,27.610000610351562,-0.054443359375,-0.0357666015625,0.83807373046875,34.38999938964844,0.0,-52.0,13.200881958007812,-7.1863555908203125,Closing,0.0,0.125,-362420.0,0.0,0.0,0.0,0.0,0.0,
12.166711000000127,0.0,0.0,131899.0,0.125,-765.0,0.0,0.0,0.25,3.8513179650000002,3.0159423668524887,0.0,83196.0,0.125,847.5,0.0,0.0,0.25,4.826659662,4.410439589772222,0.0,109430.0,0.125,-502.5,0.0,0.0,0.125,0.288085908,1.9194747329772885,0.0,-30957.0,0.125,802.5,0.0,0.0,0.125,2.193603291,0.5526872062785588,0.0,-0.949999988079071,-0.4699999988079071,11.15999984741211,0.1319580078125,-0.04254150390625,0.93035888671875,34.380001068115234,0.0,131.0,13.158172607421875,-7.200836181640625,Closing,0.0,0.125,-362420.0,0.0,0.0,0.0,0.0,0.125,
12.347936999999918,0.0,0.0,131756.0,7.625,-1005.0,-2100.0,0.0,0.25,3.8305660140000004,3.0159423668524887,0.0,83336.0,10.75,982.5,2100.0,0.0,0.125,4.8107905230000005,4.410439589772222,0.0,109333.0,14.25,-675.0,-2100.0,0.0,0.0,0.306396453,1.9194747329772885,0.0,-30692.0,11.0,922.5,2100.0,0.0,0.25,2.159423607,0.5526872062785588,0.0,-0.949999988079071,-0.4099999964237213,-5.019999980926514,0.025146484375,0.13775634765625,0.513427734375,34.380001068115234,0.0,15.0,13.117965698242188,-7.2145233154296875,Closing,0.0,0.125,-362420.0,0.0,0.0,0.0,0.0,0.0,
12.53037400000007,0.0,0.0,131401.0,0.125,-1072.5,0.0,0.0,0.25,3.8281246080000004,3.0159423668524887,0.0,83665.0,0.125,997.5,0.0,0.0,0.25,4.80956982,4.410439589772222,0.0,109091.0,0.125,-742.5,0.0,0.0,0.0,0.314941374,1.9194747329772885,0.0,-30542.0,0.125,922.5,0.0,0.0,0.125,2.145995874,0.5526872062785588,0.0,-0.6200000047683716,-0.699999988079071,-24.100000381469727,-0.04510498046875,-0.150634765625,0.89617919921875,34.380001068115234,0.0,26.0,13.080047607421875,-7.2177276611328125,Closing,0.0,0.125,-362420.0,0.0,0.0,0.0,0.0,0.0,
12.713649999999907,0.0,0.0,131243.0,5.875,-847.5,-2034.375,0.0,0.75,3.5729976810000004,2.4661255,0.0,83663.0,33.125,-952.5,-2034.375,0.0,1.5,0.08056639800000001,0.01,0.0,108953.0,8.25,-870.0,-2034.375,0.0,1.125,0.655517511,2.4702,0.0,-30439.0,61.625,7.5,-2034.375,0.0,1.5,1.9201658190000002,0.01,0.0,-0.47999998927116394,-0.20999999344348907,-34.119998931884766,0.05682373046875,0.08856201171875,1.2607421875,34.41999816894531,0.0,-4.0,13.040740966796875,-7.217742919921875,Closing,0.0,0.125,-362420.0,0.0,0.0,0.0,0.0,0.0,
12.890909999999916,0.0,0.0,131054.0,25.75,-592.5,-2100.0,0.0,0.5,3.288573882,2.4661255,0.0,83375.0,42.375,-1035.0,-2100.0,0.0,0.75,0.39550777200000004,0.01,0.0,108766.0,27.75,-472.5,-2100.0,0.0,0.375,0.8447264760000001,2.4702,0.0,-30551.0,40.125,-840.0,-2100.0,0.0,0.625,1.6601560800000001,0.01,0.0,-0.8600000143051147,1.7100000381469727,-32.369998931884766,0.38934326171875,-0.2935791015625,1.21466064453125,34.41999816894531,0.0,445.0,13.0191650390625,-7.210479736328125,Closing,0.0,0.125,-362420.0,0.0,0.0,0.0,0.0,0.0,
13.070543999999995,0.0,0.0,130818.0,19.625,-1650.0,-2100.0,0.0,0.25,3.184814127,2.4661255,0.0,83114.0,27.5,-1897.5,-2100.0,0.0,0.25,0.5163573690000001,0.01,0.0,108655.0,27.375,-877.5,-2100.0,0.0,0.0,0.966796776,2.4702,0.0,-31054.0,29.5,-1815.0,-2100.0,0.0,0.25,1.563720543,0.01,0.0,-0.5799999833106995,3.990000009536743,-30.6200008392334,0.04779052734375,0.010009765625,0.97802734375,34.41999816894531,0.0,-27.0,13.056076049804688,-7.17626953125,Closing,0.0,0.125,-362420.0,0.0,0.0,0.0,0.0,0.125,
13.249066000000107,0.0,0.0,130133.0,10.5,-2280.0,-2103.187487290516,0.0,0.25,3.195800454,2.4229019532864924,0.0,82382.0,13.125,-2422.5,-2103.187487290516,0.0,0.25,0.5163573690000001,4.920270238031254,0.0,108159.0,24.0,-1942.5,-2103.187487290516,0.0,0.25,0.9216307650000001,2.4269050399131324,0.0,-31425.0,24.5,-2437.5,-2103.187487290516,0.0,0.125,1.56249984,4.9145508031514265,0.0,-0.6299999952316284,4.960000038146973,-28.68000030517578,0.17962646484375,0.05157470703125,1.75140380859375,34.41999816894531,0.0,-9.0,13.12481689453125,-7.1259765625,Closing,0.0,0.125,-362420.0,0.0,0.0,0.0,0.0,0.0,
13.429736999999964,0.0,0.0,129719.0,5.5,-2632.5,-2288.4704853376174,0.0,0.375,3.034667658,2.1453095510391886,0.0,81960.0,7.375,-2632.5,-2288.4704853376174,0.0,0.5,0.196533183,4.640903912492854,0.0,107766.0,19.75,-2625.0,-2288.4704853376174,0.0,0.375,0.605468688,2.1488540031628576,0.0,-32282.0,15.125,-2722.5,-2288.4704853376174,0.0,0.5,1.3684080630000002,4.635509219431918,0.0,-1.6699999570846558,5.159999847412109,-28.170000076293945,0.1190185546875,-0.50830078125,0.792236328125,34.41999816894531,0.0,269.0,13.216354370117188,-7.0770111083984375,Closing,0.0,0.125,-362420.0,0.0,0.0,0.0,0.0,0.0,
13.608628999999958,0.0,0.0,128849.0,1.25,-2745.0,-2389.927849236091,0.0,0.375,2.8405758810000004,2.07544263953966,0.0,81147.0,8.75,-2572.5,-2389.927849236091,0.0,0.25,0.056152338,4.5705905242865335,0.0,106835.0,10.5,-2970.0,-2389.927849236091,0.0,0.125,0.489501903,2.078871658474343,0.0,-32722.0,11.375,-2760.0,-2389.927849236091,0.0,0.5,1.157226444,4.5652775651193815,0.0,-4.309999942779541,3.5,-29.899999618530273,-0.00762939453125,-0.05010986328125,1.16412353515625,34.41999816894531,0.0,-87.0,13.32574462890625,-7.0917816162109375,Closing,0.0,0.125,-362420.0,0.0,0.0,0.0,0.0,0.0,
13.794039000000106,0.0,0.0,128426.0,0.625,-2640.0,-2326.463348097899,0.0,0.25,2.7490231560000002,1.9569109976282149,0.0,80718.0,4.625,-2572.5,-2326.463348097899,0.0,0.25,4.89501903,4.451301419135402,0.0,106368.0,6.0,-2872.5,-2326.463348097899,0.0,0.25,0.37841793,1.960144180148665,0.0,-33605.0,6.625,-2745.0,-2326.463348097899,0.0,0.25,1.070556531,4.44612712435776,0.0,-4.769999980926514,2.059999942779541,-31.450000762939453,-0.1495361328125,-0.006103515625,1.92401123046875,34.380001068115234,0.0,-266.0,13.404861450195312,-7.141632080078125,Closing,0.0,0.125,-362420.0,0.0,0.0,0.0,0.0,0.0,
13.969229999999982,0.0,0.0,127583.0,0.0,-2595.0,-2295.2217925229097,0.0,0.375,2.595214578,1.738630202133189,0.0,79927.0,4.625,-2422.5,-2295.2217925229097,0.0,0.25,4.7131342830000005,4.23162572455815,0.0,105489.0,2.75,-2692.5,-2295.2217925229097,0.0,0.25,0.152587875,1.7415027440044732,0.0,-34028.0,4.375,-2632.5,-2295.2217925229097,0.0,0.5,0.917968656,4.226706785842073,0.0,-4.710000038146973,0.7400000095367432,-32.869998931884766,-0.2137451171875,-0.14605712890625,0.80108642578125,34.380001068115234,0.0,-144.0,13.461883544921875,-7.2128143310546875,Closing,0.0,0.125,-362420.0,0.0,0.0,0.0,0.0,0.125,
14.135904000000098,5.0,5.25,127190.0,0.125,-2445.0,-2297.362278482529,0.0,0.375,2.403564207,1.6247042743737858,0.0,79558.0,7.0,-2280.0,-2297.362278482529,0.0,0.25,4.5556635960000005,4.116971765861747,0.0,105067.0,1.5,-2587.5,-2297.362278482529,0.0,0.125,4.958495586000001,1.6273885893309672,0.0,-34439.0,5.125,-2452.5,-2297.362278482529,0.0,0.5,0.6994628190000001,4.112186103534721,0.0,-4.900000095367432,-1.2300000190734863,-34.66999816894531,-0.37310791015625,-0.1826171875,1.03594970703125,34.380001068115234,0.0,-234.0,13.48529052734375,-7.3159942626953125,Closing,0.0,0.125,-362420.0,0.0,0.0,0.0,0.0,0.0,
14.305520000000019,4.75,5.0,126813.0,0.375,-2317.5,-2297.362278482529,0.0,0.25,2.352294681,1.6247042743737858,0.0,79180.0,6.0,-2317.5,-2297.362278482529,0.0,0.0,4.4958491490000005,4.116971765861747,0.0,104660.0,1.25,-2520.0,-2297.362278482529,0.0,0.0,4.906005357000001,1.6273885893309672,0.0,-35211.0,5.0,-2407.5,-2297.362278482529,0.0,0.25,0.650634699,4.112186103534721,0.0,-4.75,-2.5,-37.15999984741211,0.219482421875,0.09759521484375,0.56695556640625,34.38999938964844,0.0,107.0,13.48101806640625,-7.4582672119140625,Closing,0.0,0.125,-362420.0,0.0,0.0,0.0,0.0,0.0,
14.472861999999965,3.25,3.625,126079.0,0.375,-2295.0,-2297.362278482529,0.0,0.375,2.3779294440000003,1.6247042743737858,0.0,78452.0,7.75,-2250.0,-2297.362278482529,0.0,0.25,4.50439407,4.116971765861747,0.0,103875.0,1.25,-2437.5,-2297.362278482529,0.0,0.0,4.935302229,1.6273885893309672,0.0,-35594.0,3.75,-2385.0,-2297.362278482529,0.0,0.25,0.709228443,4.112186103534721,0.0,-3.880000114440918,-2.380000114440918,-39.279998779296875,0.1334228515625,0.12408447265625,1.23193359375,34.38999938964844,0.0,11.0,13.471710205078125,-7.5779266357421875,Closing,0.0,0.125,-362420.0,0.0,0.0,0.0,0.0,0.0,
14.641394000000087,3.125,3.5,125715.0,0.625,-2280.0,-2299.0988809326273,0.0,0.375,2.192382588,1.2954707107709826,0.0,78083.0,9.625,-2302.5,-2378.9090114882256,0.0,0.25,4.442138217,3.9372304490484114,0.0,103511.0,0.125,-2122.5,-1916.8789073775165,0.0,0.25,4.730224125,1.3101103609044649,0.0,-36321.0,1.625,-2175.0,-2011.9088364493682,0.0,0.25,0.721435473,3.9730112594628975,0.0,-2.9000000953674316,-2.4700000286102295,-40.220001220703125,-0.2559814453125,-0.02618408203125,0.81011962890625,34.38999938964844,0.0,-178.0,13.473342895507812,-7.683074951171875,Closing,0.0,0.125,-362420.0,0.0,0.0,0.0,0.0,0.0,
14.81121900000004,3.25,3.5,124983.0,2.5,-2310.0,-2517.0126062883073,0.0,0.375,1.958007612,1.207201810415657,0.0,77317.0,14.375,-2467.5,-2672.879097941228,0.0,0.125,4.416503454,3.995147931606438,0.0,102891.0,0.625,-1770.0,-1686.3922865367242,0.0,0.125,4.521483912,1.1964290750001365,0.0,-36661.0,1.25,-2010.0,-1911.242830225248,0.0,0.25,0.675048759,4.106904406752794,0.0,-2.950000047683716,-4.090000152587891,-35.310001373291016,-0.18994140625,-0.10626220703125,0.5067138671875,34.349998474121094,0.0,-79.0,13.44525146484375,-7.79302978515625,Closing,0.0,0.125,-362420.0,0.0,0.0,0.0,0.0,0.0,
14.98960899999994,2.875,3.375,124589.0,9.5,-2505.0,-3078.4626258881153,0.0,0.375,1.8664548870000002,1.0622832155252815,0.0,76889.0,28.125,-2797.5,-3352.6086999056806,0.0,0.25,4.444579623,4.085283604986954,0.0,102629.0,0.375,-1545.0,-1366.5276640641116,0.0,0.25,4.184569884,0.835832816400786,0.0,-37284.0,1.375,-1935.0,-1905.3741922115516,0.0,0.375,1.002197163,4.4235376939665985,0.0,-3.4700000286102295,-5.019999980926514,-26.309999465942383,-0.140625,0.0028076171875,0.67840576171875,34.349998474121094,0.0,-91.0,13.397323608398438,-7.90203857421875,Closing,0.0,0.125,-362420.0,0.0,0.0,0.0,0.0,0.0,
15.156649999999907,2.875,3.375,124166.0,5.5,-2602.5,-2628.472727636879,0.0,0.5,1.5771482760000002,0.7172140635698206,0.0,75976.0,10.875,-2790.0,-2628.472727636879,0.0,0.5,4.582519062,4.24197265993641,0.0,102200.0,7.75,-1275.0,-1723.3152818385952,0.0,1.25,3.1701656910000002,4.6481120183630065,0.0,-37555.0,3.875,-1642.5,-1723.3152818385952,0.0,0.875,2.0629880700000003,0.2933292472180843,0.0,-3.0199999809265137,-5.730000019073486,-6.690000057220459,-0.43841552734375,0.567626953125,0.572021484375,34.349998474121094,0.0,-446.0,13.313095092773438,-8.010955810546875,Closing,0.0,0.125,-362420.0,0.0,0.0,0.0,0.0,0.0,
15.329310000000056,3.25,3.625,123457.0,4.75,-1860.0,-1867.2802009949735,0.0,1.125,1.771240053,1.3952755943710482,0.0,75597.0,3.0,-2190.0,-1839.2969811143719,0.0,0.25,4.57763625,3.812144728010719,0.0,102113.0,21.625,-390.0,2012.4007965497265,0.0,0.25,1.9445798790000002,3.85591249237727,0.0,-37672.0,15.875,315.0,1986.4629373996856,0.0,1.625,3.1542965520000004,1.3220788635391345,0.0,-3.390000104904175,-7.159999847412109,19.520000457763672,-0.35595703125,0.10089111328125,1.50146484375,34.31999969482422,0.0,-92.0,13.160140991210938,-8.063858032226562,Closing,0.0,0.125,-362420.0,0.0,0.0,0.0,0.0,0.0,
15.493543999999995,2.375,3.0,123237.0,0.75,-900.0,262.5,0.0,0.625,1.7370603690000002,0.5498168668524888,0.0,75350.0,0.125,-1035.0,262.5,0.0,0.25,4.566649923,4.410439589772222,0.0,102128.0,0.5,517.5,262.5,0.0,1.0,2.521972398,4.389674732977289,0.0,-37496.0,0.25,652.5,262.5,0.0,1.375,2.5866696570000003,0.5526872062785588,0.0,-3.549999952316284,-6.340000152587891,27.389999389648438,-0.1705322265625,0.18804931640625,1.16998291015625,34.31999969482422,0.0,83.0,13.002655029296875,-8.09906005859375,Closing,0.0,0.125,-362420.0,0.0,0.0,0.0,0.0,0.0,
15.668027000000002,4.0,4.125,123161.0,24.625,75.0,2100.0,0.0,0.625,1.4208982920000002,0.5498168668524888,0.0,75288.0,17.875,592.5,2100.0,0.0,1.0,4.7131342830000005,4.410439589772222,0.0,102265.0,39.25,240.0,2100.0,0.0,0.375,2.911376655,4.389674732977289,0.0,-37386.0,19.25,577.5,2100.0,0.0,0.5,1.929931443,0.5526872062785588,0.0,0.3100000023841858,-5.539999961853027,23.950000762939453,0.21502685546875,-0.15228271484375,0.33251953125,34.31999969482422,0.0,162.0,12.871246337890625,-8.076828002929688,Closing,0.0,0.125,-362420.0,0.0,0.0,0.0,0.0,0.0,
15.837216000000016,0.0,0.0,123277.0,0.0,712.5,0.0,0.0,0.25,1.236572139,0.5498168668524888,0.0,75396.0,0.125,532.5,0.0,0.0,0.5,4.853515128000001,4.410439589772222,0.0,102356.0,0.125,532.5,0.0,0.0,0.125,2.924804388,4.389674732977289,0.0,-37249.0,0.25,360.0,0.0,0.0,0.375,1.8664548870000002,0.5526872062785588,0.0,0.5899999737739563,-4.730000019073486,11.90999984741211,-0.10931396484375,-0.1630859375,0.8433837890625,34.29999923706055,0.0,-73.0,12.777816772460938,-8.0399169921875,Closing,0.0,0.125,-362420.0,0.0,0.0,0.0,0.0,0.0,
16.010179999999934,4.25,4.375,123480.0,14.625,540.0,2100.0,0.0,0.5,1.247558466,0.5498168668524888,0.0,75595.0,20.625,682.5,2100.0,0.0,0.0,4.8730463760000005,4.410439589772222,0.0,102467.0,24.75,262.5,2100.0,0.0,0.125,2.756347374,4.389674732977289,0.0,-37163.0,18.75,622.5,2100.0,0.0,0.625,2.1154782990000003,0.5526872062785588,0.0,0.6899999976158142,-4.400000095367432,4.449999809265137,-0.04608154296875,-0.026123046875,0.816650390625,34.29999923706055,0.0,13.0,12.693038940429688,-8.023651123046875,Closing,0.0,0.125,-362420.0,0.0,0.0,0.0,0.0,0.125,
16.188091999999948,0.0,2.125,123610.0,0.0,795.0,0.0,0.0,0.375,1.298827992,0.5498168668524888,0.0,75719.0,0.125,720.0,0.0,0.0,0.25,4.8681635640000005,4.410439589772222,0.0,102543.0,0.125,585.0,0.0,0.0,0.0,2.7404782350000003,4.389674732977289,0.0,-36916.0,0.25,802.5,0.0,0.0,0.25,2.250976332,0.5526872062785588,0.0,1.0299999713897705,-3.2200000286102295,-10.8100004196167,0.049560546875,0.1280517578125,1.219970703125,34.29999923706055,0.0,96.0,12.62066650390625,-8.015533447265625,Closing,0.0,0.125,-362420.0,0.0,0.0,0.0,0.0,0.125,
16.357926999999908,5.125,5.25,123694.0,32.25,-67.5,-1637.0078444480896,0.0,0.75,1.877441214,1.2330627499999984,0.0,75771.0,38.25,-75.0,-1637.0078444480896,0.0,3.5,4.533690942000001,3.7228274999999984,0.0,102776.0,6.25,750.0,1637.0078444480896,0.0,0.25,2.2155759450000003,3.7052999999999985,0.0,-36828.0,9.25,487.5,1637.0078444480896,0.0,1.0,2.6977536300000002,1.2394999999999985,0.0,0.38999998569488525,-3.140000104904175,-16.549999237060547,-0.04736328125,-0.06170654296875,1.05584716796875,34.29999923706055,0.0,29.0,12.548614501953125,-8.025711059570312,Closing,0.0,0.125,-362420.0,0.0,0.0,0.0,0.0,0.125,
16.530716000000016,2.625,2.875,123623.0,0.125,-82.5,0.0,0.0,0.5,2.097167754,1.2330627499999984,0.0,75755.0,0.125,-45.0,0.0,0.0,0.5,3.969726156,3.7228274999999984,0.0,102804.0,0.125,150.0,0.0,0.0,0.125,1.826171688,3.7052999999999985,0.0,-36811.0,0.25,112.5,0.0,0.0,0.375,3.093261402,1.2394999999999985,0.0,0.5699999928474426,-2.9100000858306885,-15.979999542236328,-0.03106689453125,0.0333251953125,1.05853271484375,34.29999923706055,0.0,15.0,12.4849853515625,-8.041213989257812,Closing,0.0,0.125,-362420.0,0.0,0.0,0.0,0.0,0.0,
16.6962350000001,4.625,5.0,123595.0,0.125,-52.5,0.0,0.0,0.25,2.1215818140000002,1.2330627499999984,0.0,75732.0,0.125,-30.0,0.0,0.0,0.25,3.909911709,3.7228274999999984,0.0,102821.0,0.125,0.0,0.0,0.0,0.25,2.02636698,3.7052999999999985,0.0,-36780.0,0.125,37.5,0.0,0.0,0.5,2.972411805,1.2394999999999985,0.0,1.0399999618530273,-2.680000066757202,-15.920000076293945,0.0181884765625,0.123291015625,1.11248779296875,34.29999923706055,0.0,39.0,12.42388916015625,-8.042709350585938,Closing,0.0,0.125,-362420.0,0.0,0.0,0.0,0.0,0.125,
16.874391000000063,4.0,4.5,123595.0,0.0,0.0,0.0,0.0,0.375,2.092284942,1.2330627499999984,0.0,75732.0,0.125,0.0,0.0,0.0,0.5,4.152831606,3.7228274999999984,0.0,102821.0,0.125,0.0,0.0,0.0,0.125,2.133788844,3.7052999999999985,0.0,-36780.0,0.25,0.0,0.0,0.0,0.5,2.8417965840000003,1.2394999999999985,0.0,0.8799999952316284,-2.549999952316284,-15.859999656677246,-0.01995849609375,0.0609130859375,0.99700927734375,34.33000183105469,0.0,11.0,12.397262573242188,-8.044464111328125,Closing,0.0,0.125,-362420.0,0.0,0.0,0.0,0.0,0.0,
17.045263999999968,4.125,4.5,123579.0,3.625,-150.0,-777.1653592586517,0.0,0.25,2.083740021,1.2330627499999984,0.0,75707.0,4.375,-195.0,-777.1653592586517,0.0,0.0,4.226073786000001,3.7228274999999984,0.0,102830.0,4.25,142.5,777.1653592586517,0.0,0.125,2.14843728,3.7052999999999985,0.0,-36743.0,4.25,180.0,777.1653592586517,0.0,0.125,2.808837603,1.2394999999999985,0.0,-0.09000000357627869,-2.4100000858306885,-15.989999771118164,-0.0438232421875,-0.3082275390625,0.8948974609375,34.33000183105469,0.0,78.0,12.402862548828125,-8.056381225585938,Closing,0.0,0.125,-362420.0,0.0,0.0,0.0,0.0,0.0,
17.214068999999903,4.0,4.375,123534.0,0.125,-52.5,0.0,0.0,0.25,2.077636506,1.2330627499999984,0.0,75664.0,0.125,-52.5,0.0,0.0,0.25,4.216308162,3.7228274999999984,0.0,102876.0,0.125,52.5,0.0,0.0,0.125,2.152099389,3.7052999999999985,0.0,-36725.0,0.25,142.5,0.0,0.0,0.25,2.813720415,1.2394999999999985,0.0,0.07999999821186066,-2.359999895095825,-16.34000015258789,-0.0025634765625,0.13214111328125,0.86578369140625,34.33000183105469,0.0,-5.0,12.412033081054688,-8.079452514648438,Closing,0.0,0.125,-362420.0,0.0,0.0,0.0,0.0,0.0,
17.38807799999998,4.5,4.75,123519.0,0.125,-67.5,0.0,0.0,0.25,2.078857209,1.2330627499999984,0.0,75649.0,0.125,-67.5,0.0,0.0,0.25,4.201659726,3.7228274999999984,0.0,102890.0,0.125,30.0,0.0,0.0,0.125,2.14843728,3.7052999999999985,0.0,-36690.0,0.25,52.5,0.0,0.0,0.25,2.813720415,1.2394999999999985,0.0,0.5199999809265137,-2.2699999809265137,-16.420000076293945,-0.04217529296875,0.160888671875,0.99298095703125,34.310001373291016,0.0,-45.0,12.418899536132812,-8.080520629882812,Closing,0.0,0.125,-362420.0,0.0,0.0,0.0,0.0,0.0,
17.56007700000005,4.125,4.625,123514.0,0.375,-90.0,-248.03150296211243,0.0,0.25,2.078857209,1.2330627499999984,0.0,75629.0,0.25,-60.0,-248.03150296211243,0.0,0.25,4.196776914,3.7228274999999984,0.0,102911.0,0.5,120.0,248.03150296211243,0.0,0.125,2.143554468,3.7052999999999985,0.0,-36678.0,0.625,97.5,248.03150296211243,0.0,0.25,2.813720415,1.2394999999999985,0.0,0.5299999713897705,-2.140000104904175,-16.389999389648438,-0.02862548828125,-0.1263427734375,0.91033935546875,34.310001373291016,0.0,43.0,12.421249389648438,-8.073318481445312,Closing,0.0,0.125,-362420.0,0.0,0.0,0.0,0.0,0.125,
17.730642999999922,5.0,5.375,123409.0,14.75,-765.0,-2100.0,0.0,0.25,2.078857209,1.2330627499999984,0.0,75585.0,38.0,-330.0,-2100.0,0.0,0.25,4.197997617,3.7228274999999984,0.0,102933.0,7.125,300.0,2100.0,0.0,0.125,2.133788844,3.7052999999999985,0.0,-36657.0,31.875,330.0,2100.0,0.0,0.25,2.817382524,1.2394999999999985,0.0,-2.069999933242798,-2.440000057220459,-16.110000610351562,-0.07745361328125,-0.28936767578125,1.1197509765625,34.310001373291016,0.0,40.0,12.429428100585938,-8.093551635742188,Closing,0.0,0.125,-362420.0,0.0,0.0,0.0,0.0,0.0,
17.905097000000065,12.375,11.375,123130.0,0.125,-1642.5,0.0,0.0,0.25,2.078857209,1.2330627499999984,0.0,75516.0,0.125,-532.5,0.0,0.0,0.25,4.195556211,3.7228274999999984,0.0,103046.0,0.125,1072.5,0.0,0.0,0.125,2.138671656,3.7052999999999985,0.0,-36490.0,0.25,615.0,0.0,0.0,0.25,2.818603227,1.2394999999999985,0.0,-6.840000152587891,-2.119999885559082,-16.239999771118164,0.00531005859375,0.11920166015625,1.6280517578125,34.349998474121094,0.0,-24.0,12.442230224609375,-8.131179809570312,Closing,0.0,0.125,-362420.0,0.0,0.0,0.0,0.0,0.0,
18.07385300000012,26.25,23.375,122772.0,0.0,-847.5,0.0,0.0,0.25,2.078857209,1.2330627499999984,0.0,75347.0,0.125,-337.5,0.0,0.0,0.25,4.178466369000001,3.7228274999999984,0.0,103511.0,0.125,1710.0,0.0,0.0,0.125,2.133788844,3.7052999999999985,0.0,-36398.0,0.25,502.5,0.0,0.0,0.25,2.818603227,1.2394999999999985,0.0,-14.989999771118164,-1.850000023841858,-17.059999465942383,-0.1087646484375,-0.0523681640625,0.9677734375,34.349998474121094,0.0,-133.0,12.454910278320312,-8.145706176757812,Closing,0.0,0.125,-362420.0,0.0,0.0,0.0,0.0,0.0,
18.240372999999906,20.375,17.75,122721.0,0.125,-150.0,0.0,0.0,0.25,2.078857209,1.2330627499999984,0.0,75345.0,0.125,0.0,0.0,0.0,0.125,4.172362854,3.7228274999999984,0.0,103766.0,0.125,1327.5,0.0,0.0,0.125,2.156982201,3.7052999999999985,0.0,-36370.0,0.25,0.0,0.0,0.0,0.25,2.818603227,1.2394999999999985,0.0,-21.530000686645508,-1.7799999713897705,-18.09000015258789,-9.1552734375E-4,-0.2880859375,0.57763671875,34.349998474121094,0.0,36.0,12.45550537109375,-8.124343872070312,Closing,0.0,0.125,-362420.0,0.0,0.0,0.0,0.0,0.125,
