Time,ClimberA1,ClimberA2,FRpos,FRCurrent,FRspeed,FRsetpoint,FRApos,FRACurrent,FREncpos,FREncSetpoint,FREncSpeed,FLpos,FLCurrent,FLspeed,FLsetpoint,FLApos,FLACurrent,FLEncpos,FLEncSetpoint,FLEncSpeed,BRpos,BRCurrent,BRspeed,BRsetpoint,BRApos,BRACurrent,BREncpos,BREncSetpoint,BREncSpeed,BLpos,BLCurrent,BLspeed,BLsetpoint,BLApos,BLACurrent,BLEncpos,BLEncSetpoint,BLEncSpeed,navx_Pitch,navx_Roll,navx_Yaw,navx_XAcc,navx_YAcc,navx_ZAcc,navx_Temp,navx_Bar,navx_Alt,navx_XDis,navx_YDis,GearPlacerState,ShootOutputV,ShootOutputCurrent,ShootEncPos,ShootEncVelocity,ShootSpeed,ShootSetpoint,CarouselSetpoint,CarouselCurrent,
0.1700840000000003,0.0,0.0,41151.0,0.0,0.0,0.0,0.0,0.125,0.759277266,0.01,0.0,38156.0,0.0,0.0,0.0,0.0,0.125,0.385742148,0.01,0.0,-2111.0,0.0,0.0,0.0,0.0,0.0,3.408202776,0.01,0.0,40692.0,0.0,0.0,0.0,0.0,0.125,1.5783689790000002,0.01,0.0,0.4000000059604645,-1.2799999713897705,0.0,-0.0240478515625,0.008544921875,1.0205078125,35.9900016784668,0.0,-1.0,1.6547088623046875,0.277984619140625,Waiting,0.0,0.0,1.0,0.0,0.0,0.0,0.0,0.0,
0.2108960000000002,0.0,0.0,41151.0,0.0,0.0,0.0,0.0,0.125,0.759277266,0.01,4.881528266,38156.0,0.0,0.0,-0.0,0.0,0.125,0.385742148,0.01,-0.05048785199999983,-2111.0,0.0,0.0,0.0,0.0,0.0,3.406982073,0.01,0.05698207299999991,40692.0,0.125,0.0,-0.0,0.0,0.125,1.5783689790000002,0.01,4.9351482760000005,0.4000000059604645,-1.2799999713897705,0.0,-0.0240478515625,0.0072021484375,1.021240234375,35.9900016784668,0.0,-1.0,1.6547088623046875,0.277984619140625,Waiting,0.0,0.0,1.0,0.0,0.0,0.0,0.0,0.0,
0.23817699999999967,0.0,0.0,41151.0,0.0,0.0,0.0,0.0,0.25,0.7641600780000001,0.01,4.881528266,38156.0,0.0,0.0,-0.0,0.0,0.25,0.38940425700000003,0.01,-0.05048785199999983,-2111.0,0.0,0.0,0.0,0.0,0.125,3.406982073,0.01,0.05698207299999991,40692.0,0.0,0.0,-0.0,0.0,0.25,1.5808103850000002,0.01,4.9351482760000005,0.38999998569488525,-1.2699999809265137,0.0,-0.02130126953125,0.007080078125,1.01446533203125,35.9900016784668,0.0,1.0,1.6547088623046875,0.277984619140625,Waiting,0.0,0.0,1.0,0.0,0.0,0.0,0.0,0.0,
0.2706729999999998,0.0,0.0,41151.0,0.0,0.0,0.0,0.0,0.25,0.758056563,0.01,0.0,38156.0,0.0,0.0,-0.0,0.0,0.25,0.38940425700000003,0.01,0.0,-2111.0,0.0,0.0,0.0,0.0,0.125,3.406982073,0.01,0.0,40692.0,0.0,0.0,-0.0,0.0,0.25,1.5783689790000002,0.01,0.0,0.38999998569488525,-1.2699999809265137,0.0,-0.0224609375,0.00689697265625,1.0247802734375,35.95000076293945,0.0,0.0,1.6547088623046875,0.277984619140625,Waiting,0.0,0.0,1.0,0.0,0.0,0.0,0.0,0.0,
0.296018,0.0,0.0,41151.0,0.0,0.0,0.0,0.0,0.375,0.759277266,0.01,0.0,38156.0,0.0,0.0,-0.0,0.0,0.25,0.38940425700000003,0.01,0.0,-2111.0,0.0,0.0,0.0,0.0,0.125,3.406982073,0.01,0.0,40692.0,0.0,0.0,-0.0,0.0,0.25,1.5783689790000002,0.01,0.0,0.38999998569488525,-1.2699999809265137,0.0,-0.02301025390625,0.00830078125,1.02020263671875,35.95000076293945,0.0,0.0,1.6547088623046875,0.277984619140625,Waiting,0.0,0.0,1.0,0.0,0.0,0.0,0.0,0.0,
0.3262390000000005,0.0,0.0,41151.0,0.0,0.0,0.0,0.0,0.375,0.759277266,0.01,0.0,38156.0,0.0,0.0,-0.0,0.0,0.25,0.391845663,0.01,0.0012207029999995456,-2111.0,0.0,0.0,0.0,0.0,0.125,3.406982073,0.01,-0.0012207029999999897,40692.0,0.0,0.0,-0.0,0.0,0.25,1.5783689790000002,0.01,0.0,0.38999998569488525,-1.2699999809265137,0.0,-0.0234375,0.00604248046875,1.021240234375,35.95000076293945,0.0,0.0,1.6547088623046875,0.277984619140625,Waiting,0.0,0.0,1.0,0.0,0.0,0.0,0.0,0.0,
0.360558,0.0,0.0,41151.0,0.0,0.0,0.0,0.0,0.375,0.759277266,0.01,0.0,38156.0,0.0,0.0,-0.0,0.0,0.25,0.384521445,0.01,0.0,-2111.0,0.0,0.0,0.0,0.0,0.125,3.406982073,0.01,0.0,40692.0,0.0,0.0,-0.0,0.0,0.25,1.5783689790000002,0.01,0.0,0.38999998569488525,-1.2699999809265137,0.0,-0.0257568359375,0.00616455078125,1.0211181640625,35.95000076293945,0.0,-2.0,1.6547088623046875,0.277984619140625,Waiting,0.0,0.0,1.0,0.0,0.0,0.0,0.0,0.0,
0.3909310000000005,0.0,0.0,41151.0,0.0,0.0,0.0,0.0,0.375,0.759277266,0.01,0.0,38156.0,0.0,0.0,-0.0,0.0,0.25,0.39062496,0.01,0.0,-2111.0,0.0,0.0,0.0,0.0,0.125,3.406982073,0.01,0.0,40692.0,0.125,0.0,-0.0,0.0,0.25,1.5771482760000002,0.01,0.0,0.38999998569488525,-1.2699999809265137,0.0,-0.022705078125,0.00653076171875,1.02423095703125,35.95000076293945,0.0,0.0,1.6547088623046875,0.277984619140625,Waiting,0.0,0.0,1.0,0.0,0.0,0.0,0.0,0.0,
0.42130299999999987,0.0,0.0,41151.0,0.0,0.0,0.0,0.0,0.375,0.759277266,0.01,0.0,38156.0,0.0,0.0,-0.0,0.0,0.25,0.385742148,0.01,0.0,-2111.0,0.0,0.0,0.0,0.0,0.125,3.40576137,0.01,0.0012207029999999897,40692.0,0.125,0.0,-0.0,0.0,0.25,1.5783689790000002,0.01,0.0,0.38999998569488525,-1.2699999809265137,0.0,-0.02215576171875,0.0098876953125,1.0218505859375,35.95000076293945,0.0,0.0,1.6547088623046875,0.277984619140625,Waiting,0.0,0.0,1.0,0.0,0.0,0.0,0.0,0.0,
0.44770899999999986,0.0,0.0,41151.0,0.0,0.0,0.0,0.0,0.375,0.760497969,0.01,0.0,38156.0,0.0,0.0,-0.0,0.0,0.25,0.38940425700000003,0.01,0.0,-2111.0,0.0,0.0,0.0,0.0,0.125,3.406982073,0.01,0.0012207029999999897,40692.0,0.125,0.0,-0.0,0.0,0.25,1.5783689790000002,0.01,0.0,0.38999998569488525,-1.2699999809265137,0.0,-0.02044677734375,0.00823974609375,1.01580810546875,35.95000076293945,0.0,2.0,1.6547088623046875,0.277984619140625,Waiting,0.0,0.0,1.0,0.0,0.0,0.0,0.0,0.0,
0.47185800000000017,0.0,0.0,41151.0,0.0,0.0,0.0,0.0,0.375,0.759277266,0.01,0.0,38156.0,0.0,0.0,-0.0,0.0,0.25,0.385742148,0.01,0.0,-2111.0,0.0,0.0,0.0,0.0,0.125,3.406982073,0.01,0.0,40692.0,0.125,0.0,-0.0,0.0,0.25,1.5783689790000002,0.01,0.0,0.38999998569488525,-1.2699999809265137,0.0,-0.02398681640625,0.0045166015625,1.01690673828125,35.95000076293945,0.0,-1.0,1.6547088623046875,0.277984619140625,Waiting,0.0,0.0,1.0,0.0,0.0,0.0,0.0,0.0,
0.49360800000000016,0.0,0.0,41151.0,0.0,0.0,0.0,0.0,0.375,0.759277266,0.01,0.0,38156.0,0.0,0.0,-0.0,0.0,0.25,0.38940425700000003,0.01,0.0,-2111.0,0.0,0.0,0.0,0.0,0.125,3.406982073,0.01,0.0,40692.0,0.125,0.0,-0.0,0.0,0.25,1.5783689790000002,0.01,0.0,0.38999998569488525,-1.2699999809265137,0.0,-0.02325439453125,0.00732421875,1.02001953125,35.95000076293945,0.0,0.0,1.6547088623046875,0.277984619140625,Waiting,0.0,0.0,1.0,0.0,0.0,0.0,0.0,0.0,
0.5242960000000003,0.0,0.0,41151.0,0.0,0.0,0.0,0.0,0.375,0.761718672,0.01,0.0,38156.0,0.0,0.0,-0.0,0.0,0.25,0.38940425700000003,0.01,0.0012207030000004337,-2111.0,0.0,0.0,0.0,0.0,0.125,3.406982073,0.01,0.0,40692.0,0.125,0.0,-0.0,0.0,0.25,1.5783689790000002,0.01,0.0,0.38999998569488525,-1.2699999809265137,0.0,-0.0235595703125,0.00433349609375,1.0218505859375,35.95000076293945,0.0,0.0,1.6547088623046875,0.277984619140625,Waiting,0.0,0.0,1.0,0.0,0.0,0.0,0.0,0.0,
0.5471850000000004,0.0,0.0,41151.0,0.0,0.0,0.0,0.0,0.375,0.759277266,0.01,0.0,38156.0,0.0,0.0,-0.0,0.0,0.25,0.39062496,0.01,0.0012207030000004337,-2111.0,0.0,0.0,0.0,0.0,0.125,3.406982073,0.01,0.0,40692.0,0.125,0.0,-0.0,0.0,0.25,1.5795896820000002,0.01,0.0,0.38999998569488525,-1.2699999809265137,0.0,-0.024658203125,0.004150390625,1.01605224609375,35.95000076293945,0.0,-1.0,1.6547088623046875,0.277984619140625,Waiting,0.0,0.0,1.0,0.0,0.0,0.0,0.0,0.0,
0.5734660000000004,0.0,0.0,41151.0,0.0,0.0,0.0,0.0,0.375,0.759277266,0.01,0.0,38156.0,0.0,0.0,-0.0,0.0,0.25,0.384521445,0.01,0.0012207029999995456,-2111.0,0.0,0.0,0.0,0.0,0.125,3.40576137,0.01,0.0,40692.0,0.0,0.0,-0.0,0.0,0.25,1.5783689790000002,0.01,0.0,0.38999998569488525,-1.2699999809265137,0.0,-0.0223388671875,0.005859375,1.01434326171875,35.95000076293945,0.0,0.0,1.6547088623046875,0.277984619140625,Waiting,0.0,0.0,1.0,0.0,0.0,0.0,0.0,0.0,
0.6000749999999998,0.0,0.0,41151.0,0.0,0.0,0.0,0.0,0.375,0.760497969,0.01,0.0,38156.0,0.0,0.0,-0.0,0.0,0.25,0.38940425700000003,0.01,0.0012207029999995456,-2111.0,0.0,0.0,0.0,0.0,0.125,3.40576137,0.01,0.0,40692.0,0.0,0.0,-0.0,0.0,0.25,1.5783689790000002,0.01,0.0,0.38999998569488525,-1.2699999809265137,0.0,-0.02618408203125,0.0050048828125,1.01837158203125,35.95000076293945,0.0,-3.0,1.6547088623046875,0.277984619140625,Waiting,0.0,0.0,1.0,0.0,0.0,0.0,0.0,0.0,
0.627174,0.0,0.0,41151.0,0.0,0.0,0.0,0.0,0.375,0.759277266,0.01,0.0,38156.0,0.0,0.0,-0.0,0.0,0.25,0.384521445,0.01,-0.003662108999999525,-2111.0,0.0,0.0,0.0,0.0,0.125,3.406982073,0.01,0.0,40692.0,0.125,0.0,-0.0,0.0,0.25,1.573486167,0.01,0.0012207029999995456,0.38999998569488525,-1.2699999809265137,0.0,-0.0240478515625,0.006591796875,1.02276611328125,35.95000076293945,0.0,-1.0,1.6547088623046875,0.277984619140625,Waiting,0.0,0.0,1.0,0.0,0.0,0.0,0.0,0.0,
0.6473490000000002,0.0,0.0,41151.0,0.0,0.0,0.0,0.0,0.375,0.759277266,0.01,0.0,38156.0,0.0,0.0,-0.0,0.0,0.25,0.384521445,0.01,-0.003662108999999525,-2111.0,0.0,0.0,0.0,0.0,0.125,3.40576137,0.01,0.0,40692.0,0.125,0.0,-0.0,0.0,0.25,1.5783689790000002,0.01,0.0012207029999995456,0.38999998569488525,-1.2699999809265137,0.0,-0.021728515625,0.0050048828125,1.01800537109375,35.95000076293945,0.0,1.0,1.6547088623046875,0.277984619140625,Waiting,0.0,0.0,1.0,0.0,0.0,0.0,0.0,0.0,
0.6715249999999996,0.0,0.0,41151.0,0.0,0.0,0.0,0.0,0.375,0.759277266,0.01,0.0,38156.0,0.0,0.0,-0.0,0.0,0.25,0.385742148,0.01,0.0024414059999999793,-2111.0,0.0,0.0,0.0,0.0,0.125,3.408202776,0.01,0.0,40692.0,0.125,0.0,-0.0,0.0,0.25,1.5783689790000002,0.01,-0.0012207029999995456,0.3799999952316284,-1.2699999809265137,0.0,-0.0255126953125,0.00701904296875,1.0150146484375,35.95000076293945,0.0,-2.0,1.6547088623046875,0.277984619140625,Waiting,0.0,0.0,1.0,0.0,0.0,0.0,0.0,0.0,
0.6944220000000004,0.0,0.0,41151.0,0.0,0.0,0.0,0.0,0.375,0.759277266,0.01,0.0,38156.0,0.0,0.0,-0.0,0.0,0.25,0.39062496,0.01,0.0024414059999999793,-2111.0,0.0,0.0,0.0,0.0,0.125,3.406982073,0.01,0.0,40692.0,0.125,0.0,-0.0,0.0,0.25,1.5783689790000002,0.01,-0.0012207029999995456,0.3799999952316284,-1.2699999809265137,0.0,-0.02191162109375,0.00762939453125,1.01861572265625,35.95000076293945,0.0,0.0,1.6547088623046875,0.277984619140625,Waiting,0.0,0.0,1.0,0.0,0.0,0.0,0.0,0.0,
0.7450749999999998,0.0,0.0,41151.0,0.0,0.0,0.0,0.0,0.375,0.760497969,0.01,0.0,38156.0,0.0,0.0,-0.0,0.0,0.25,0.38208003900000004,0.01,-0.0012207030000004337,-2111.0,0.0,0.0,0.0,0.0,0.125,3.406982073,0.01,-0.0012207029999999897,40692.0,0.0,0.0,-0.0,0.0,0.25,1.5783689790000002,0.01,0.0,0.38999998569488525,-1.2799999713897705,0.0,-0.023681640625,0.00543212890625,1.0166015625,35.95000076293945,0.0,0.0,1.6547088623046875,0.277984619140625,Waiting,0.0,0.0,1.0,0.0,0.0,0.0,0.0,0.0,
0.7824989999999998,0.0,0.0,41151.0,0.0,0.0,0.0,0.0,0.375,0.759277266,0.01,0.0,38156.0,0.0,0.0,-0.0,0.0,0.25,0.38940425700000003,0.01,0.0012207030000004337,-2111.0,0.0,0.0,0.0,0.0,0.125,3.406982073,0.01,0.0012207029999999897,40692.0,0.0,0.0,-0.0,0.0,0.25,1.5783689790000002,0.01,0.0012207029999995456,0.38999998569488525,-1.2799999713897705,0.0,-0.02313232421875,0.00811767578125,1.02496337890625,35.970001220703125,0.0,0.0,1.6547088623046875,0.277984619140625,Waiting,0.0,0.0,1.0,0.0,0.0,0.0,0.0,0.0,
0.8074660000000004,0.0,0.0,41151.0,0.0,0.0,0.0,0.0,0.375,0.760497969,0.01,0.0,38156.0,0.0,0.0,-0.0,0.0,0.25,0.39062496,0.01,0.0012207030000004337,-2111.0,0.0,0.0,0.0,0.0,0.125,3.406982073,0.01,0.0,40692.0,0.0,0.0,-0.0,0.0,0.25,1.5783689790000002,0.01,-0.0012207029999995456,0.38999998569488525,-1.2699999809265137,0.0,-0.02203369140625,0.0069580078125,1.01641845703125,35.970001220703125,0.0,0.0,1.6547088623046875,0.277984619140625,Waiting,0.0,0.0,1.0,0.0,0.0,0.0,0.0,0.0,
0.8315380000000004,0.0,0.0,41151.0,0.0,0.0,0.0,0.0,0.375,0.759277266,0.01,0.0,38156.0,0.0,0.0,-0.0,0.0,0.25,0.384521445,0.01,-0.0024414059999999793,-2111.0,0.0,0.0,0.0,0.0,0.125,3.406982073,0.01,0.0,40692.0,0.0,0.0,-0.0,0.0,0.25,1.57470687,0.01,-0.0012207029999995456,0.38999998569488525,-1.2699999809265137,0.0,-0.02197265625,0.00714111328125,1.01934814453125,35.970001220703125,0.0,0.0,1.6547088623046875,0.277984619140625,Waiting,0.0,0.0,1.0,0.0,0.0,0.0,0.0,0.0,
0.8703770000000004,0.0,0.0,41151.0,0.0,0.0,0.0,0.0,0.375,0.759277266,0.01,0.0,38156.0,0.0,0.0,-0.0,0.0,0.25,0.38940425700000003,0.01,0.0024414059999999793,-2111.0,0.0,0.0,0.0,0.0,0.125,3.408202776,0.01,0.0,40692.0,0.125,0.0,-0.0,0.0,0.25,1.5771482760000002,0.01,0.0,0.38999998569488525,-1.2799999713897705,0.0,-0.02239990234375,0.0076904296875,1.02001953125,35.970001220703125,0.0,0.0,1.6547088623046875,0.277984619140625,Waiting,0.0,0.0,1.0,0.0,0.0,0.0,0.0,0.0,
0.8910470000000005,0.0,0.0,41151.0,0.0,0.0,0.0,0.0,0.375,0.759277266,0.01,0.0,38156.0,0.0,0.0,-0.0,0.0,0.25,0.38940425700000003,0.01,0.0024414059999999793,-2111.0,0.0,0.0,0.0,0.0,0.125,3.406982073,0.01,0.0,40692.0,0.125,0.0,-0.0,0.0,0.25,1.5783689790000002,0.01,0.0,0.38999998569488525,-1.2799999713897705,0.0,-0.02081298828125,0.00799560546875,1.012939453125,35.970001220703125,0.0,1.0,1.6547088623046875,0.277984619140625,Waiting,0.0,0.0,1.0,0.0,0.0,0.0,0.0,0.0,
0.9299229999999997,0.0,0.0,41151.0,0.0,0.0,0.0,0.0,0.375,0.759277266,0.01,0.0,38156.0,0.0,0.0,-0.0,0.0,0.25,0.38940425700000003,0.01,0.0,-2111.0,0.0,0.0,0.0,0.0,0.125,3.406982073,0.01,-0.0012207029999999897,40692.0,0.125,0.0,-0.0,0.0,0.25,1.5783689790000002,0.01,0.0,0.38999998569488525,-1.2699999809265137,0.0,-0.0242919921875,0.008544921875,1.01507568359375,35.970001220703125,0.0,-1.0,1.6547088623046875,0.277984619140625,Waiting,0.0,0.0,1.0,0.0,0.0,0.0,0.0,0.0,
0.9488400000000001,0.0,0.0,41151.0,0.0,0.0,0.0,0.0,0.375,0.759277266,0.01,0.0,38156.0,0.0,0.0,-0.0,0.0,0.25,0.385742148,0.01,0.0,-2111.0,0.0,0.0,0.0,0.0,0.125,3.406982073,0.01,-0.0012207029999999897,40692.0,0.125,0.0,-0.0,0.0,0.25,1.5783689790000002,0.01,0.0,0.38999998569488525,-1.2699999809265137,0.0,-0.021240234375,0.00299072265625,1.01922607421875,35.970001220703125,0.0,1.0,1.6547088623046875,0.277984619140625,Waiting,0.0,0.0,1.0,0.0,0.0,0.0,0.0,0.0,
0.9699650000000002,0.0,0.0,41151.0,0.0,0.0,0.0,0.0,0.375,0.759277266,0.01,0.0,38156.0,0.0,0.0,-0.0,0.0,0.25,0.38940425700000003,0.01,-0.0024414059999999793,-2111.0,0.0,0.0,0.0,0.0,0.125,3.406982073,0.01,0.0012207029999999897,40692.0,0.125,0.0,-0.0,0.0,0.25,1.5783689790000002,0.01,0.0,0.38999998569488525,-1.2699999809265137,0.0,-0.02508544921875,0.008544921875,1.01959228515625,35.970001220703125,0.0,-2.0,1.6547088623046875,0.277984619140625,Waiting,0.0,0.0,1.0,0.0,0.0,0.0,0.0,0.0,
0.9887889999999998,0.0,0.0,41151.0,0.0,0.0,0.0,0.0,0.375,0.759277266,0.01,0.0,38156.0,0.0,0.0,-0.0,0.0,0.25,0.385742148,0.01,-0.0024414059999999793,-2111.0,0.0,0.0,0.0,0.0,0.125,3.406982073,0.01,0.0012207029999999897,40692.0,0.125,0.0,-0.0,0.0,0.25,1.5783689790000002,0.01,0.0,0.4000000059604645,-1.2799999713897705,0.0,-0.0223388671875,0.0013427734375,1.00811767578125,35.970001220703125,0.0,0.0,1.6547088623046875,0.277984619140625,Waiting,0.0,0.0,1.0,0.0,0.0,0.0,0.0,0.0,
1.0081930000000001,0.0,0.0,41151.0,0.0,0.0,0.0,0.0,0.375,0.760497969,0.01,0.0,38156.0,0.0,0.0,-0.0,0.0,0.25,0.38940425700000003,0.01,-0.0024414059999999793,-2111.0,0.0,0.0,0.0,0.0,0.125,3.406982073,0.01,0.0012207029999999897,40692.0,0.0,0.0,-0.0,0.0,0.25,1.5771482760000002,0.01,0.0,0.4000000059604645,-1.2799999713897705,0.0,-0.02484130859375,0.0081787109375,1.01861572265625,35.970001220703125,0.0,-1.0,1.6547088623046875,0.277984619140625,Waiting,0.0,0.0,1.0,0.0,0.0,0.0,0.0,0.0,
1.0303249999999997,0.0,0.0,41151.0,0.0,0.0,0.0,0.0,0.375,0.7519530480000001,0.01,0.0,38156.0,0.0,0.0,-0.0,0.0,0.25,0.384521445,0.01,0.0,-2111.0,0.0,0.0,0.0,0.0,0.125,3.40576137,0.01,0.0,40692.0,0.0,0.0,-0.0,0.0,0.25,1.5783689790000002,0.01,0.0,0.4000000059604645,-1.2799999713897705,0.0,-0.02069091796875,0.00762939453125,1.01806640625,35.970001220703125,0.0,2.0,1.6547088623046875,0.277984619140625,Waiting,0.0,0.0,1.0,0.0,0.0,0.0,0.0,0.0,
1.0482610000000003,0.0,0.0,41151.0,0.0,0.0,0.0,0.0,0.375,0.75683586,0.01,0.0,38156.0,0.0,0.0,-0.0,0.0,0.25,0.39062496,0.01,0.0,-2111.0,0.0,0.0,0.0,0.0,0.125,3.406982073,0.01,0.0,40692.0,0.0,0.0,-0.0,0.0,0.25,1.5808103850000002,0.01,0.0,0.4000000059604645,-1.2799999713897705,0.0,-0.0252685546875,0.00677490234375,1.01959228515625,35.970001220703125,0.0,-2.0,1.6547088623046875,0.277984619140625,Waiting,0.0,0.0,1.0,0.0,0.0,0.0,0.0,0.0,
1.0706589999999996,0.0,0.0,41151.0,0.0,0.0,0.0,0.0,0.375,0.7653807810000001,0.01,0.0,38156.0,0.0,0.0,-0.0,0.0,0.25,0.385742148,0.01,0.0012207029999995456,-2111.0,0.0,0.0,0.0,0.0,0.125,3.408202776,0.01,0.0,40692.0,0.125,0.0,-0.0,0.0,0.25,1.5783689790000002,0.01,0.0,0.4000000059604645,-1.2799999713897705,0.0,-0.022705078125,0.00518798828125,1.0177001953125,35.970001220703125,0.0,0.0,1.6547088623046875,0.277984619140625,Waiting,0.0,0.0,1.0,0.0,0.0,0.0,0.0,0.0,
1.0893649999999997,0.0,0.0,41151.0,0.0,0.0,0.0,0.0,0.375,0.759277266,0.01,0.0,38156.0,0.0,0.0,-0.0,0.0,0.25,0.385742148,0.01,0.0012207029999995456,-2111.0,0.0,0.0,0.0,0.0,0.125,3.408202776,0.01,0.0,40692.0,0.125,0.0,-0.0,0.0,0.25,1.5783689790000002,0.01,0.0,0.4000000059604645,-1.2799999713897705,0.0,-0.0220947265625,0.00634765625,1.01580810546875,35.970001220703125,0.0,0.0,1.6547088623046875,0.277984619140625,Waiting,0.0,0.0,1.0,0.0,0.0,0.0,0.0,0.0,
1.107652,0.0,0.0,41151.0,0.0,0.0,0.0,0.0,0.375,0.759277266,0.01,0.0,38156.0,0.0,0.0,-0.0,0.0,0.25,0.39062496,0.01,0.0012207029999995456,-2111.0,0.0,0.0,0.0,0.0,0.125,3.406982073,0.01,0.0,40692.0,0.125,0.0,-0.0,0.0,0.25,1.5783689790000002,0.01,0.0,0.4000000059604645,-1.2799999713897705,0.0,-0.02142333984375,0.009033203125,1.0181884765625,35.970001220703125,0.0,1.0,1.6547088623046875,0.277984619140625,Waiting,0.0,0.0,1.0,0.0,0.0,0.0,0.0,0.0,
1.132,0.0,0.0,41151.0,0.0,0.0,0.0,0.0,0.375,0.759277266,0.01,0.0,38156.0,0.0,0.0,-0.0,0.0,0.25,0.38940425700000003,0.01,0.0,-2111.0,0.0,0.0,0.0,0.0,0.125,3.406982073,0.01,0.0,40692.0,0.125,0.0,-0.0,0.0,0.25,1.5783689790000002,0.01,0.0012207029999995456,0.4000000059604645,-1.2799999713897705,0.0,-0.02191162109375,0.00457763671875,1.01141357421875,35.970001220703125,0.0,0.0,1.6547088623046875,0.277984619140625,Waiting,0.0,0.0,1.0,0.0,0.0,0.0,0.0,0.0,
1.150629,0.0,0.0,41151.0,0.0,0.0,0.0,0.0,0.375,0.759277266,0.01,0.0,38156.0,0.0,0.0,-0.0,0.0,0.25,0.39062496,0.01,0.0,-2111.0,0.0,0.0,0.0,0.0,0.125,3.406982073,0.01,0.0,40692.0,0.125,0.0,-0.0,0.0,0.25,1.5783689790000002,0.01,0.0012207029999995456,0.4000000059604645,-1.2799999713897705,0.0,-0.02349853515625,0.0064697265625,1.0191650390625,35.970001220703125,0.0,0.0,1.6547088623046875,0.277984619140625,Waiting,0.0,0.0,1.0,0.0,0.0,0.0,0.0,0.0,
1.1724570000000003,0.0,0.0,41151.0,0.0,0.0,0.0,0.0,0.375,0.759277266,0.01,0.0,38156.0,0.0,0.0,-0.0,0.0,0.25,0.39550777200000004,0.01,0.0,-2111.0,0.0,0.0,0.0,0.0,0.125,3.408202776,0.01,0.0,40692.0,0.125,0.0,-0.0,0.0,0.25,1.5783689790000002,0.01,-0.0012207029999995456,0.4000000059604645,-1.2799999713897705,0.0,-0.0245361328125,0.0050048828125,1.0228271484375,35.970001220703125,0.0,-1.0,1.6547088623046875,0.277984619140625,Waiting,0.0,0.0,1.0,0.0,0.0,0.0,0.0,0.0,
1.1927799999999997,0.0,0.0,41151.0,0.0,0.0,0.0,0.0,0.375,0.760497969,0.01,0.0,38156.0,0.0,0.0,-0.0,0.0,0.25,0.385742148,0.01,0.0,-2111.0,0.0,0.0,0.0,0.0,0.125,3.408202776,0.01,0.0,40692.0,0.125,0.0,-0.0,0.0,0.25,1.5783689790000002,0.01,-0.0012207029999995456,0.4000000059604645,-1.2799999713897705,0.0,-0.0242919921875,0.00457763671875,1.0213623046875,35.970001220703125,0.0,-1.0,1.6547088623046875,0.277984619140625,Waiting,0.0,0.0,1.0,0.0,0.0,0.0,0.0,0.0,
1.2146750000000002,0.0,0.0,41151.0,0.0,0.0,0.0,0.0,0.375,0.759277266,0.01,0.0,38156.0,0.0,0.0,-0.0,0.0,0.25,0.39550777200000004,0.01,-0.0012207029999995456,-2111.0,0.0,0.0,0.0,0.0,0.125,3.406982073,0.01,-0.0012207029999999897,40692.0,0.125,0.0,-0.0,0.0,0.25,1.5783689790000002,0.01,0.0,0.4000000059604645,-1.2799999713897705,0.0,-0.0244140625,0.005615234375,1.02166748046875,35.970001220703125,0.0,-1.0,1.6547088623046875,0.277984619140625,Waiting,0.0,0.0,1.0,0.0,0.0,0.0,0.0,0.0,
1.24033,0.0,0.0,41151.0,0.0,0.0,0.0,0.0,0.375,0.758056563,0.01,0.0,38156.0,0.0,0.0,-0.0,0.0,0.25,0.384521445,0.01,-0.0012207029999995456,-2111.0,0.0,0.0,0.0,0.0,0.125,3.406982073,0.01,-0.0012207029999999897,40692.0,0.125,0.0,-0.0,0.0,0.25,1.5783689790000002,0.01,0.0,0.4000000059604645,-1.2799999713897705,0.0,-0.023193359375,0.0042724609375,1.01580810546875,35.970001220703125,0.0,0.0,1.6547088623046875,0.277984619140625,Waiting,0.0,0.0,1.0,0.0,0.0,0.0,0.0,0.0,
1.2609629999999998,0.0,0.0,41151.0,0.0,0.0,0.0,0.0,0.375,0.758056563,0.01,0.0,38156.0,0.0,0.0,-0.0,0.0,0.25,0.38940425700000003,0.01,-0.0012207030000004337,-2111.0,0.0,0.0,0.0,0.0,0.125,3.408202776,0.01,0.0012207029999999897,40692.0,0.125,0.0,-0.0,0.0,0.25,1.5783689790000002,0.01,0.0,0.38999998569488525,-1.2799999713897705,0.0,-0.022705078125,0.006103515625,1.0189208984375,35.970001220703125,0.0,0.0,1.6547088623046875,0.277984619140625,Waiting,0.0,0.0,1.0,0.0,0.0,0.0,0.0,0.0,
1.2903159999999998,0.0,0.0,41151.0,0.0,0.0,0.0,0.0,0.375,0.759277266,0.01,0.0,38156.0,0.0,0.0,-0.0,0.0,0.25,0.384521445,0.01,-0.0012207030000004337,-2111.0,0.0,0.0,0.0,0.0,0.125,3.406982073,0.01,0.0012207029999999897,40692.0,0.0,0.0,-0.0,0.0,0.25,1.5783689790000002,0.01,0.0,0.38999998569488525,-1.2799999713897705,0.0,-0.02154541015625,0.00830078125,1.01873779296875,35.95000076293945,0.0,1.0,1.6547088623046875,0.277984619140625,Waiting,0.0,0.0,1.0,0.0,0.0,0.0,0.0,0.0,
1.309719,0.0,0.0,41151.0,0.0,0.0,0.0,0.0,0.375,0.759277266,0.01,0.0,38156.0,0.0,0.0,-0.0,0.0,0.25,0.385742148,0.01,-0.0012207030000004337,-2111.0,0.0,0.0,0.0,0.0,0.125,3.406982073,0.01,0.0012207029999999897,40692.0,0.0,0.0,-0.0,0.0,0.25,1.5783689790000002,0.01,0.0012207029999995456,0.4000000059604645,-1.2799999713897705,0.0,-0.02362060546875,0.0052490234375,1.0169677734375,35.95000076293945,0.0,0.0,1.6547088623046875,0.277984619140625,Waiting,0.0,0.0,1.0,0.0,0.0,0.0,0.0,0.0,
1.332286,0.0,0.0,41151.0,0.0,0.0,0.0,0.0,0.375,0.759277266,0.01,0.0,38156.0,0.0,0.0,-0.0,0.0,0.25,0.38940425700000003,0.01,0.0012207030000004337,-2111.0,0.0,0.0,0.0,0.0,0.125,3.408202776,0.01,0.0,40692.0,0.0,0.0,-0.0,0.0,0.25,1.5783689790000002,0.01,0.0012207029999995456,0.38999998569488525,-1.2699999809265137,0.0,-0.025634765625,0.0059814453125,1.01788330078125,35.95000076293945,0.0,-2.0,1.6547088623046875,0.277984619140625,Waiting,0.0,0.0,1.0,0.0,0.0,0.0,0.0,0.0,
1.3511549999999997,0.0,0.0,41151.0,0.0,0.0,0.0,0.0,0.375,0.761718672,0.01,0.0,38156.0,0.0,0.0,-0.0,0.0,0.25,0.39062496,0.01,0.0012207030000004337,-2111.0,0.0,0.0,0.0,0.0,0.125,3.406982073,0.01,0.0,40692.0,0.125,0.0,-0.0,0.0,0.25,1.5795896820000002,0.01,0.0012207029999995456,0.38999998569488525,-1.2699999809265137,0.0,-0.02313232421875,0.00860595703125,1.01806640625,35.95000076293945,0.0,0.0,1.6547088623046875,0.277984619140625,Closing,0.0,0.0,1.0,0.0,0.0,0.0,0.0,0.0,
1.37413,0.0,0.0,41151.0,0.0,0.0,0.0,0.0,0.375,0.754394454,0.01,0.0,38156.0,0.0,0.0,-0.0,0.0,0.25,0.385742148,0.01,0.0,-2111.0,0.0,0.0,0.0,0.0,0.125,3.408202776,0.01,0.0,40692.0,0.125,0.0,-0.0,0.0,0.25,1.5783689790000002,0.01,-0.0012207029999995456,0.4000000059604645,-1.2799999713897705,0.0,-0.02178955078125,0.006103515625,1.01373291015625,35.95000076293945,0.0,0.0,1.6547088623046875,0.277984619140625,Closing,0.0,0.0,1.0,0.0,0.0,0.0,0.0,0.0,
1.3939809999999997,0.0,0.0,41151.0,0.0,0.0,0.0,0.0,0.375,0.759277266,0.01,0.0,38156.0,0.0,0.0,-0.0,0.0,0.25,0.384521445,0.01,0.0,-2111.0,0.0,0.0,0.0,0.0,0.125,3.406982073,0.01,0.0,40692.0,0.125,0.0,-0.0,0.0,0.25,1.5783689790000002,0.01,-0.0012207029999995456,0.4000000059604645,-1.2799999713897705,0.0,-0.03326416015625,0.0093994140625,1.0174560546875,35.95000076293945,0.0,-10.0,1.6547088623046875,0.277984619140625,Closing,0.0,0.0,1.0,0.0,0.0,0.0,0.0,0.0,
1.4128580000000002,0.0,0.0,41151.0,0.0,0.0,0.0,0.0,0.375,0.760497969,0.01,0.0,38156.0,0.0,0.0,-0.0,0.0,0.25,0.38940425700000003,0.01,0.0024414059999999793,-2111.0,0.0,0.0,0.0,0.0,0.125,3.406982073,0.01,0.0,40692.0,0.0,0.0,-0.0,0.0,0.25,1.5783689790000002,0.01,0.0,0.38999998569488525,-1.2799999713897705,0.0,-0.01043701171875,0.02655029296875,1.01324462890625,35.95000076293945,0.0,12.0,1.6547088623046875,0.277984619140625,Closing,0.0,0.0,1.0,0.0,0.0,0.0,0.0,0.0,
1.438223,0.0,0.0,41151.0,0.0,0.0,0.0,0.0,0.375,0.759277266,0.01,0.0,38156.0,0.0,0.0,-0.0,0.0,0.25,0.39062496,0.01,0.0024414059999999793,-2111.0,0.0,0.0,0.0,0.0,0.125,3.406982073,0.01,0.0,40692.0,0.0,0.0,-0.0,0.0,0.25,1.5832517910000001,0.01,0.0,0.4000000059604645,-1.2799999713897705,0.0,-0.0267333984375,-0.04376220703125,0.975341796875,35.95000076293945,0.0,-4.0,1.6547088623046875,0.2779541015625,Closing,0.0,0.0,1.0,0.0,0.0,0.0,0.0,0.0,
1.4556840000000002,0.0,0.0,41151.0,0.0,0.0,0.0,0.0,0.375,0.759277266,0.01,0.0,38156.0,0.0,0.0,-0.0,0.0,0.25,0.39062496,0.01,0.0024414059999999793,-2111.0,0.0,0.0,0.0,0.0,0.125,3.406982073,0.01,-0.0012207029999999897,40692.0,0.0,0.0,-0.0,0.0,0.25,1.5783689790000002,0.01,0.0,0.4099999964237213,-1.2799999713897705,0.0,-6.103515625E-5,-0.02435302734375,0.9810791015625,35.95000076293945,0.0,21.0,1.65472412109375,0.277862548828125,Closing,0.0,0.0,1.0,0.0,0.0,0.0,0.0,0.0,
1.4794480000000003,0.0,0.0,41151.0,0.0,0.0,0.0,0.0,0.375,0.759277266,0.01,0.0,38156.0,0.0,0.0,-0.0,0.0,0.25,0.385742148,0.01,-0.0012207030000004337,-2111.0,0.0,0.0,0.0,0.0,0.125,3.406982073,0.01,-0.0012207029999999897,40692.0,0.0,0.0,-0.0,0.0,0.25,1.5783689790000002,0.01,0.0,0.4000000059604645,-1.2799999713897705,0.0,-0.015869140625,0.0072021484375,1.03997802734375,35.95000076293945,0.0,7.0,1.654754638671875,0.2777557373046875,Closing,0.0,0.0,1.0,0.0,0.0,0.0,0.0,0.0,
1.4992269999999999,0.0,0.0,41151.0,0.0,0.0,0.0,0.0,0.375,0.759277266,0.01,0.0,38156.0,0.0,0.0,-0.0,0.0,0.25,0.385742148,0.01,-0.0012207030000004337,-2111.0,0.0,0.0,0.0,0.0,0.125,3.406982073,0.01,-0.0012207029999999897,40692.0,0.0,0.0,-0.0,0.0,0.25,1.5783689790000002,0.01,0.0,0.38999998569488525,-1.2799999713897705,0.0,-0.0245361328125,0.00946044921875,1.02459716796875,35.95000076293945,0.0,-1.0,1.65478515625,0.2776336669921875,Closing,0.0,0.0,1.0,0.0,0.0,0.0,0.0,0.0,
1.5299589999999998,0.0,0.0,41151.0,0.0,0.0,0.0,0.0,0.375,0.759277266,0.01,0.0,38156.0,0.0,0.0,-0.0,0.0,0.25,0.385742148,0.01,0.0,-2111.0,0.0,0.0,0.0,0.0,0.125,3.40576137,0.01,0.0,40692.0,0.0,0.0,-0.0,0.0,0.25,1.5783689790000002,0.01,0.0,0.38999998569488525,-1.2799999713897705,0.0,-0.00830078125,-0.01953125,1.02850341796875,35.95000076293945,0.0,14.0,1.65478515625,0.2775726318359375,Closing,0.0,0.0,1.0,0.0,0.0,0.0,0.0,0.0,
1.5481980000000004,0.0,0.0,41151.0,0.0,0.0,0.0,0.0,0.375,0.755615157,0.01,0.0,38156.0,0.0,0.0,-0.0,0.0,0.25,0.39062496,0.01,0.0,-2111.0,0.0,0.0,0.0,0.0,0.125,3.408202776,0.01,0.0,40692.0,0.0,0.0,-0.0,0.0,0.25,1.5783689790000002,0.01,0.0,0.38999998569488525,-1.2699999809265137,0.0,-0.00653076171875,-0.01239013671875,1.03076171875,35.95000076293945,0.0,16.0,1.65478515625,0.2773895263671875,Closing,0.0,0.0,1.0,0.0,0.0,0.0,0.0,0.0,
1.5676999999999999,0.0,0.0,41151.0,0.0,0.0,0.0,0.0,0.375,0.759277266,0.01,0.0,38156.0,0.0,0.0,-0.0,0.0,0.25,0.38818355400000004,0.01,0.0012207030000004337,-2111.0,0.0,0.0,0.0,0.0,0.125,3.406982073,0.01,0.0012207029999999897,40692.0,0.0,0.0,-0.0,0.0,0.25,1.5783689790000002,0.01,0.0012207029999995456,0.38999998569488525,-1.2799999713897705,0.0,-0.0076904296875,0.0050048828125,0.99603271484375,35.95000076293945,0.0,14.0,1.654754638671875,0.2772064208984375,Closing,0.0,0.0,1.0,0.0,0.0,0.0,0.0,0.0,
1.5907520000000004,0.0,0.0,41151.0,0.0,0.0,0.0,0.0,0.375,0.759277266,0.01,0.0,38156.0,0.0,0.0,-0.0,0.0,0.25,0.385742148,0.01,0.0012207030000004337,-2111.0,0.0,0.0,0.0,0.0,0.125,3.408202776,0.01,0.0012207029999999897,40692.0,0.0,0.0,-0.0,0.0,0.25,1.5783689790000002,0.01,0.0012207029999995456,0.38999998569488525,-1.2799999713897705,0.0,-0.0400390625,0.01470947265625,1.00994873046875,35.95000076293945,0.0,-17.0,1.6547393798828125,0.277130126953125,Closing,0.0,0.0,1.0,0.0,0.0,0.0,0.0,0.0,
1.6100659999999998,0.0,0.0,41151.0,0.0,0.0,0.0,0.0,0.375,0.759277266,0.01,0.0,38156.0,0.0,0.0,-0.0,0.0,0.25,0.384521445,0.01,0.0012207030000004337,-2111.0,0.0,0.0,0.0,0.0,0.125,3.406982073,0.01,0.0012207029999999897,40692.0,0.125,0.0,-0.0,0.0,0.25,1.5783689790000002,0.01,0.0,0.3799999952316284,-1.2899999618530273,0.0,-0.0299072265625,0.0054931640625,1.0042724609375,35.95000076293945,0.0,-7.0,1.6547393798828125,0.277130126953125,Closing,0.0,0.0,1.0,0.0,0.0,0.0,0.0,0.0,
1.6328540000000002,0.0,0.0,41151.0,0.0,0.0,0.0,0.0,0.375,0.759277266,0.01,0.0,38156.0,0.0,0.0,-0.0,0.0,0.25,0.385742148,0.01,-0.0024414059999999793,-2111.0,0.0,0.0,0.0,0.0,0.125,3.406982073,0.01,0.0,40692.0,0.0,0.0,-0.0,0.0,0.25,1.5783689790000002,0.01,0.0,0.3799999952316284,-1.2799999713897705,0.0,-0.0133056640625,-0.005615234375,0.99920654296875,35.95000076293945,0.0,9.0,1.6547393798828125,0.277130126953125,Closing,0.0,0.0,1.0,0.0,0.0,0.0,0.0,0.0,
1.6505900000000002,0.0,0.0,41151.0,0.0,0.0,0.0,0.0,0.375,0.760497969,0.01,0.0,38156.0,0.0,0.0,-0.0,0.0,0.25,0.38940425700000003,0.01,-0.0024414059999999793,-2111.0,0.0,0.0,0.0,0.0,0.125,3.406982073,0.01,0.0,40692.0,0.0,0.0,-0.0,0.0,0.25,1.5783689790000002,0.01,0.0,0.3799999952316284,-1.2799999713897705,0.0,-0.0169677734375,0.00555419921875,1.02142333984375,35.95000076293945,0.0,5.0,1.6547393798828125,0.277130126953125,Closing,0.0,0.0,1.0,0.0,0.0,0.0,0.0,0.0,
1.670255,0.0,0.0,41151.0,0.0,0.0,0.0,0.0,0.375,0.760497969,0.01,0.0,38156.0,0.0,0.0,-0.0,0.0,0.25,0.39062496,0.01,0.0012207029999995456,-2111.0,0.0,0.0,0.0,0.0,0.125,3.406982073,0.01,0.0,40692.0,0.0,0.0,-0.0,0.0,0.25,1.5783689790000002,0.01,0.0,0.3799999952316284,-1.2799999713897705,0.0,-0.02374267578125,0.02294921875,1.02508544921875,35.95000076293945,0.0,0.0,1.6547393798828125,0.277130126953125,Closing,0.0,0.0,1.0,0.0,0.0,0.0,0.0,0.0,
1.6920209999999998,0.0,0.0,41151.0,0.0,0.0,0.0,0.0,0.375,0.759277266,0.01,0.0,38156.0,0.0,0.0,-0.0,0.0,0.25,0.391845663,0.01,0.0012207029999995456,-2111.0,0.0,0.0,0.0,0.0,0.125,3.406982073,0.01,0.0,40692.0,0.0,0.0,-0.0,0.0,0.25,1.5783689790000002,0.01,0.0,0.3799999952316284,-1.2799999713897705,0.0,-0.0361328125,0.01092529296875,1.02435302734375,35.95000076293945,0.0,-13.0,1.6547393798828125,0.277130126953125,Closing,0.0,0.0,1.0,0.0,0.0,0.0,0.0,0.0,
1.7122579999999998,0.0,0.0,41151.0,0.0,0.0,0.0,0.0,0.375,0.759277266,0.01,0.0,38156.0,0.0,0.0,-0.0,0.0,0.25,0.384521445,0.01,0.0012207029999995456,-2111.0,0.0,0.0,0.0,0.0,0.125,3.406982073,0.01,-0.0012207029999999897,40692.0,0.0,0.0,-0.0,0.0,0.25,1.5783689790000002,0.01,-0.0012207029999995456,0.38999998569488525,-1.2899999618530273,0.0,-0.029052734375,-0.03790283203125,1.0037841796875,35.95000076293945,0.0,-6.0,1.6547393798828125,0.277099609375,Closing,0.0,0.0,1.0,0.0,0.0,0.0,0.0,0.0,
1.7346270000000004,0.0,0.0,41151.0,0.0,0.0,0.0,0.0,0.375,0.759277266,0.01,0.0,38156.0,0.0,0.0,-0.0,0.0,0.25,0.39062496,0.01,-0.0012207029999995456,-2111.0,0.0,0.0,0.0,0.0,0.125,3.406982073,0.01,-0.0012207029999999897,40692.0,0.0,0.0,-0.0,0.0,0.25,1.5759275730000002,0.01,-0.0012207029999995456,0.38999998569488525,-1.2899999618530273,0.0,-0.00439453125,-0.01495361328125,1.002197265625,35.95000076293945,0.0,18.0,1.6547393798828125,0.2770233154296875,Closing,0.0,0.0,1.0,0.0,0.0,0.0,0.0,0.0,
1.7534849999999997,0.0,0.0,41151.0,0.0,0.0,0.0,0.0,0.375,0.759277266,0.01,0.0,38156.0,0.0,0.0,-0.0,0.0,0.25,0.39062496,0.01,-0.0012207029999995456,-2111.0,0.0,0.0,0.0,0.0,0.125,3.404540667,0.01,-0.0012207029999999897,40692.0,0.0,0.0,-0.0,0.0,0.25,1.5783689790000002,0.01,-0.0012207029999995456,0.3799999952316284,-1.2799999713897705,0.0,-0.04364013671875,0.001708984375,1.02227783203125,35.95000076293945,0.0,-20.0,1.6547393798828125,0.2769317626953125,Closing,0.0,0.0,1.0,0.0,0.0,0.0,0.0,0.0,
1.775867,0.0,0.0,41151.0,0.0,0.0,0.0,0.0,0.375,0.759277266,0.01,0.0,38156.0,0.0,0.0,-0.0,0.0,0.25,0.38940425700000003,0.01,0.0024414059999999793,-2111.0,0.0,0.0,0.0,0.0,0.125,3.406982073,0.01,0.0,40692.0,0.0,0.0,-0.0,0.0,0.25,1.5783689790000002,0.01,0.0,0.3799999952316284,-1.2799999713897705,0.0,-0.0535888671875,0.04620361328125,1.07537841796875,35.939998626708984,0.0,-29.0,1.65472412109375,0.2768707275390625,Closing,0.0,0.0,1.0,0.0,0.0,0.0,0.0,0.0,
1.7946940000000005,0.0,0.0,41151.0,0.0,0.0,0.0,0.0,0.375,0.759277266,0.01,0.0,38156.0,0.0,0.0,-0.0,0.0,0.25,0.383300742,0.01,0.0024414059999999793,-2111.0,0.0,0.0,0.0,0.0,0.125,3.406982073,0.01,0.0,40692.0,0.0,0.0,-0.0,0.0,0.25,1.5783689790000002,0.01,0.0,0.3799999952316284,-1.2799999713897705,0.0,-0.01416015625,0.01788330078125,0.977294921875,35.939998626708984,0.0,7.0,1.654693603515625,0.2769012451171875,Closing,0.0,0.0,1.0,0.0,0.0,0.0,0.0,0.0,
1.8135029999999996,0.0,0.0,41151.0,0.0,0.0,0.0,0.0,0.375,0.759277266,0.01,0.0,38156.0,0.0,0.0,-0.0,0.0,0.25,0.385742148,0.01,0.0024414059999999793,-2111.0,0.0,0.0,0.0,0.0,0.125,3.406982073,0.01,0.0012207029999999897,40692.0,0.0,0.0,-0.0,0.0,0.25,1.5783689790000002,0.01,0.0,0.38999998569488525,-1.2799999713897705,0.0,-0.0233154296875,-0.00775146484375,1.0003662109375,35.939998626708984,0.0,0.0,1.6546783447265625,0.2769012451171875,Closing,0.0,0.0,1.0,0.0,0.0,0.0,0.0,0.0,
1.8346270000000005,0.0,0.0,41151.0,0.0,0.0,0.0,0.0,0.375,0.758056563,0.01,-0.0012207030000004337,38156.0,0.0,0.0,-0.0,0.0,0.25,0.38940425700000003,0.01,0.0,-2111.0,0.0,0.0,0.0,0.0,0.125,3.406982073,0.01,0.0012207029999999897,40692.0,0.0,0.0,-0.0,0.0,0.25,1.5783689790000002,0.01,0.0,0.4000000059604645,-1.2799999713897705,0.0,-0.01617431640625,0.00244140625,1.0184326171875,35.939998626708984,0.0,6.0,1.6546783447265625,0.2767791748046875,Closing,0.0,0.0,1.0,0.0,0.0,0.0,0.0,0.0,
1.8531689999999998,0.0,0.0,41151.0,0.0,0.0,0.0,0.0,0.375,0.7360839090000001,0.01,-0.0012207030000004337,38156.0,0.0,0.0,-0.0,0.0,0.25,0.380859336,0.01,0.0,-2111.0,0.0,0.0,0.0,0.0,0.125,3.408202776,0.01,0.0012207029999999897,40692.0,0.0,0.0,-0.0,0.0,0.25,1.5771482760000002,0.01,0.0,0.38999998569488525,-1.2699999809265137,0.0,-0.01568603515625,0.0096435546875,1.0244140625,35.939998626708984,0.0,7.0,1.6546783447265625,0.2766876220703125,Closing,0.0,0.0,1.0,0.0,0.0,0.0,0.0,0.0,
1.8777910000000002,0.0,0.0,41151.0,0.0,0.0,0.0,0.0,0.375,0.759277266,0.01,0.0012207030000004337,38156.0,0.0,0.0,-0.0,0.0,0.25,0.39062496,0.01,-0.0012207030000004337,-2111.0,0.0,0.0,0.0,0.0,0.125,3.406982073,0.01,0.0,40692.0,0.0,0.0,-0.0,0.0,0.25,1.5783689790000002,0.01,0.0012207029999995456,0.4000000059604645,-1.2699999809265137,0.0,-0.02056884765625,0.00616455078125,1.02520751953125,35.939998626708984,0.0,2.0,1.6546783447265625,0.2766876220703125,Closing,0.0,0.0,1.0,0.0,0.0,0.0,0.0,0.0,
1.8963779999999997,0.0,0.0,41151.0,0.0,0.0,0.0,0.0,0.375,0.759277266,0.01,0.0012207030000004337,38156.0,0.0,0.0,-0.0,0.0,0.25,0.38940425700000003,0.01,-0.0012207030000004337,-2111.0,0.0,0.0,0.0,0.0,0.125,3.406982073,0.01,0.0,40692.0,0.0,0.0,-0.0,0.0,0.25,1.5783689790000002,0.01,0.0012207029999995456,0.4000000059604645,-1.2799999713897705,0.0,-0.025146484375,0.01153564453125,1.0059814453125,35.939998626708984,0.0,-2.0,1.6546783447265625,0.2766876220703125,Closing,0.0,0.0,1.0,0.0,0.0,0.0,0.0,0.0,
1.9144220000000005,0.0,0.0,41151.0,0.0,0.0,0.0,0.0,0.375,0.759277266,0.01,0.0012207030000004337,38156.0,0.0,0.0,-0.0,0.0,0.25,0.38940425700000003,0.01,0.0012207030000004337,-2111.0,0.0,0.0,0.0,0.0,0.125,3.40576137,0.01,0.0,40692.0,0.0,0.0,-0.0,0.0,0.25,1.5771482760000002,0.01,-0.0012207029999995456,0.4000000059604645,-1.2799999713897705,0.0,-0.03973388671875,-0.0086669921875,1.02239990234375,35.939998626708984,0.0,-16.0,1.6546783447265625,0.2766876220703125,Closing,0.0,0.0,1.0,0.0,0.0,0.0,0.0,0.0,
1.9447740000000004,0.0,0.0,41151.0,0.0,0.0,0.0,0.0,0.375,0.759277266,0.01,0.0,38156.0,0.0,0.0,-0.0,0.0,0.25,0.380859336,0.01,0.0012207030000004337,-2111.0,0.0,0.0,0.0,0.0,0.125,3.406982073,0.01,0.0,40692.0,0.0,0.0,-0.0,0.0,0.25,1.5783689790000002,0.01,-0.0012207029999995456,0.4000000059604645,-1.2699999809265137,0.0,-0.01348876953125,-0.00531005859375,1.01519775390625,35.939998626708984,0.0,9.0,1.6546783447265625,0.2766876220703125,Closing,0.0,0.0,1.0,0.0,0.0,0.0,0.0,0.0,
1.9627970000000006,0.0,0.0,41151.0,0.0,0.0,0.0,0.0,0.375,0.759277266,0.01,0.0,38156.0,0.0,0.0,-0.0,0.0,0.25,0.38940425700000003,0.01,0.0012207030000004337,-2111.0,0.0,0.0,0.0,0.0,0.125,3.40576137,0.01,0.0,40692.0,0.0,0.0,-0.0,0.0,0.25,1.5783689790000002,0.01,-0.0012207029999995456,0.38999998569488525,-1.2799999713897705,0.0,-0.01470947265625,0.01800537109375,1.03057861328125,35.939998626708984,0.0,8.0,1.6546783447265625,0.2766876220703125,Closing,0.0,0.0,1.0,0.0,0.0,0.0,0.0,0.0,
1.9847849999999998,0.0,0.0,41151.0,0.0,0.0,0.0,0.0,0.375,0.759277266,0.01,0.0,38156.0,0.0,0.0,-0.0,0.0,0.25,0.384521445,0.01,-0.0024414059999999793,-2111.0,0.0,0.0,0.0,0.0,0.125,3.40576137,0.01,0.0,40692.0,0.0,0.0,-0.0,0.0,0.25,1.5783689790000002,0.01,0.0,0.38999998569488525,-1.2799999713897705,0.0,-0.04473876953125,0.0230712890625,1.01446533203125,35.939998626708984,0.0,-21.0,1.6546630859375,0.2766876220703125,Closing,0.0,0.0,1.0,0.0,0.0,0.0,0.0,0.0,
2.0016490000000005,0.0,0.0,41151.0,0.0,0.0,0.0,0.0,0.375,0.760497969,0.01,0.0,38156.0,0.0,0.0,-0.0,0.0,0.25,0.38940425700000003,0.01,-0.0024414059999999793,-2111.0,0.0,0.0,0.0,0.0,0.125,3.408202776,0.01,0.0,40692.0,0.0,0.0,-0.0,0.0,0.25,1.5783689790000002,0.01,0.0,0.38999998569488525,-1.2799999713897705,0.0,-0.013427734375,-0.016357421875,0.99969482421875,35.939998626708984,0.0,8.0,1.6546478271484375,0.2766876220703125,Closing,0.0,0.0,1.0,0.0,0.0,0.0,0.0,0.0,
2.0238400000000003,0.0,0.0,41151.0,0.0,0.0,0.0,0.0,0.375,0.759277266,0.01,0.0,38156.0,0.0,0.0,-0.0,0.0,0.25,0.385742148,0.01,-0.0012207030000004337,-2111.0,0.0,0.0,0.0,0.0,0.125,3.406982073,0.01,0.0,40692.0,0.0,0.0,-0.0,0.0,0.25,1.5795896820000002,0.01,0.0,0.38999998569488525,-1.2799999713897705,0.0,-0.0174560546875,0.015380859375,1.02008056640625,35.939998626708984,0.0,5.0,1.6546478271484375,0.276611328125,Closing,0.0,0.0,1.0,0.0,0.0,0.0,0.0,0.0,
2.0416260000000004,0.0,0.0,41151.0,0.0,0.0,0.0,0.0,0.375,0.760497969,0.01,0.0,38156.0,0.0,0.0,-0.0,0.0,0.25,0.38940425700000003,0.01,-0.0012207030000004337,-2111.0,0.0,0.0,0.0,0.0,0.125,3.406982073,0.01,0.0,40692.0,0.0,0.0,-0.0,0.0,0.25,1.5783689790000002,0.01,0.0,0.38999998569488525,-1.2799999713897705,0.0,-0.03350830078125,0.02923583984375,1.04229736328125,35.939998626708984,0.0,-10.0,1.6546478271484375,0.276580810546875,Closing,0.0,0.0,1.0,0.0,0.0,0.0,0.0,0.0,
2.060957,0.0,0.0,41151.0,0.0,0.0,0.0,0.0,0.375,0.759277266,0.01,0.0,38156.0,0.0,0.0,-0.0,0.0,0.25,0.38940425700000003,0.01,-0.0012207030000004337,-2111.0,0.0,0.0,0.0,0.0,0.125,3.406982073,0.01,0.0,40692.0,0.125,0.0,-0.0,0.0,0.25,1.5771482760000002,0.01,0.0,0.38999998569488525,-1.2899999618530273,0.0,-0.0352783203125,0.03057861328125,1.0498046875,35.939998626708984,0.0,-11.0,1.6546478271484375,0.276580810546875,Closing,0.0,0.0,1.0,0.0,0.0,0.0,0.0,0.0,
2.0796580000000002,0.0,0.0,41151.0,0.0,0.0,0.0,0.0,0.375,0.759277266,0.01,0.0,38156.0,0.0,0.0,-0.0,0.0,0.25,0.385742148,0.01,0.003662109000000413,-2111.0,0.0,0.0,0.0,0.0,0.125,3.408202776,0.01,0.0,40692.0,0.125,0.0,-0.0,0.0,0.25,1.5820310880000001,0.01,0.0,0.3799999952316284,-1.2799999713897705,0.0,-0.02764892578125,0.0018310546875,1.01318359375,35.939998626708984,0.0,-4.0,1.6546478271484375,0.2765960693359375,Closing,0.0,0.0,1.0,0.0,0.0,0.0,0.0,0.0,
2.1005730000000002,0.0,0.0,41151.0,0.0,0.0,0.0,0.0,0.375,0.759277266,0.01,0.0,38156.0,0.0,0.0,-0.0,0.0,0.25,0.38940425700000003,0.01,0.003662109000000413,-2111.0,0.0,0.0,0.0,0.0,0.125,3.406982073,0.01,0.0,40692.0,0.0,0.0,-0.0,0.0,0.25,1.5783689790000002,0.01,0.0,0.38999998569488525,-1.2799999713897705,-0.009999999776482582,-0.02838134765625,0.00140380859375,0.9927978515625,35.939998626708984,0.0,-6.0,1.6546478271484375,0.27655029296875,Closing,0.0,0.0,1.0,0.0,0.0,0.0,0.0,0.0,
2.1220650000000005,0.0,0.0,41151.0,0.0,0.0,0.0,0.0,0.375,0.759277266,0.01,0.0,38156.0,0.0,0.0,-0.0,0.0,0.25,0.38940425700000003,0.01,-0.0024414059999999793,-2111.0,0.0,0.0,0.0,0.0,0.125,3.408202776,0.01,0.0,40692.0,0.0,0.0,-0.0,0.0,0.25,1.5783689790000002,0.01,0.0,0.4000000059604645,-1.2799999713897705,-0.009999999776482582,-0.03399658203125,0.0064697265625,1.0537109375,35.939998626708984,0.0,-10.0,1.6546478271484375,0.276519775390625,Closing,0.0,0.0,1.0,0.0,0.0,0.0,0.0,0.0,
2.140273,0.0,0.0,41151.0,0.0,0.0,0.0,0.0,0.375,0.760497969,0.01,0.0,38156.0,0.0,0.0,-0.0,0.0,0.25,0.38940425700000003,0.01,-0.0024414059999999793,-2111.0,0.0,0.0,0.0,0.0,0.125,3.406982073,0.01,0.0,40692.0,0.0,0.0,-0.0,0.0,0.25,1.5783689790000002,0.01,0.0,0.3799999952316284,-1.2799999713897705,-0.009999999776482582,-0.02996826171875,0.09326171875,1.00347900390625,35.939998626708984,0.0,-7.0,1.6546478271484375,0.2765350341796875,Closing,0.0,0.0,1.0,0.0,0.0,0.0,0.0,0.0,
2.160196,0.0,0.0,41151.0,0.0,0.0,0.0,0.0,0.375,0.759277266,0.01,0.0,38156.0,0.0,0.0,-0.0,0.0,0.25,0.38940425700000003,0.01,-0.0024414059999999793,-2111.0,0.0,0.0,0.0,0.0,0.125,3.406982073,0.01,0.0,40692.0,0.0,0.0,-0.0,0.0,0.25,1.5783689790000002,0.01,0.0,0.38999998569488525,-1.2699999809265137,-0.009999999776482582,-0.03192138671875,0.01678466796875,0.98681640625,35.939998626708984,0.0,-9.0,1.654571533203125,0.276702880859375,Closing,0.0,0.0,1.0,0.0,0.0,0.0,0.0,0.0,
2.180366,0.0,0.0,41151.0,0.0,0.0,0.0,0.0,0.375,0.760497969,0.01,0.0,38156.0,0.0,0.0,-0.0,0.0,0.25,0.38940425700000003,0.01,0.0024414059999999793,-2111.0,0.0,0.0,0.0,0.0,0.125,3.406982073,0.01,0.0,40692.0,0.0,0.0,-0.0,0.0,0.25,1.5783689790000002,0.01,0.0,0.3799999952316284,-1.2699999809265137,-0.009999999776482582,-0.01861572265625,-8.544921875E-4,0.98895263671875,35.939998626708984,0.0,3.0,1.654510498046875,0.276702880859375,Closing,0.0,0.0,1.0,0.0,0.0,0.0,0.0,0.0,
2.200776,0.0,0.0,41151.0,0.0,0.0,0.0,0.0,0.375,0.759277266,0.01,0.0,38156.0,0.0,0.0,-0.0,0.0,0.25,0.385742148,0.01,0.0024414059999999793,-2111.0,0.0,0.0,0.0,0.0,0.125,3.406982073,0.01,0.0,40692.0,0.125,0.0,-0.0,0.0,0.25,1.5783689790000002,0.01,0.0,0.38999998569488525,-1.2799999713897705,-0.009999999776482582,-0.031982421875,-0.004638671875,0.98699951171875,35.939998626708984,0.0,-9.0,1.654510498046875,0.276702880859375,Closing,0.0,0.0,1.0,0.0,0.0,0.0,0.0,0.0,
2.219943,0.0,0.0,41151.0,0.0,0.0,0.0,0.0,0.375,0.759277266,0.01,0.0,38156.0,0.0,0.0,-0.0,0.0,0.25,0.38940425700000003,0.01,0.0,-2111.0,0.0,0.0,0.0,0.0,0.125,3.406982073,0.01,0.0,40692.0,0.125,0.0,-0.0,0.0,0.25,1.5783689790000002,0.01,0.0,0.38999998569488525,-1.2699999809265137,-0.009999999776482582,-0.0423583984375,0.01666259765625,0.990966796875,35.939998626708984,0.0,-20.0,1.654510498046875,0.276580810546875,Closing,0.0,0.0,1.0,0.0,0.0,0.0,0.0,0.0,
2.240817,0.0,0.0,41151.0,0.0,0.0,0.0,0.0,0.375,0.7324218,0.01,0.0,38156.0,0.0,0.0,-0.0,0.0,0.25,0.393066366,0.01,0.0,-2111.0,0.0,0.0,0.0,0.0,0.125,3.406982073,0.01,0.0,40692.0,0.125,0.0,-0.0,0.0,0.25,1.5783689790000002,0.01,0.0,0.3799999952316284,-1.2699999809265137,-0.009999999776482582,-0.0361328125,0.050048828125,1.08209228515625,35.939998626708984,0.0,-11.0,1.65447998046875,0.2765350341796875,Closing,0.0,0.0,1.0,0.0,0.0,0.0,0.0,0.0,
2.261674,0.0,0.0,41151.0,0.0,0.0,0.0,0.0,0.375,0.759277266,0.01,0.0,38156.0,0.0,0.0,-0.0,0.0,0.25,0.38940425700000003,0.01,0.0,-2111.0,0.0,0.0,0.0,0.0,0.125,3.406982073,0.01,0.0,40692.0,0.125,0.0,-0.0,0.0,0.25,1.5795896820000002,0.01,0.0,0.38999998569488525,-1.2699999809265137,-0.009999999776482582,-0.02960205078125,0.008056640625,1.01300048828125,35.939998626708984,0.0,-7.0,1.6544342041015625,0.2765350341796875,Closing,0.0,0.0,1.0,0.0,0.0,0.0,0.0,0.0,
2.281414,0.0,0.0,41151.0,0.0,0.0,0.0,0.0,0.375,0.760497969,0.01,0.0,38156.0,0.0,0.0,-0.0,0.0,0.25,0.39062496,0.01,-0.0024414059999999793,-2111.0,0.0,0.0,0.0,0.0,0.125,3.406982073,0.01,0.0,40692.0,0.125,0.0,-0.0,0.0,0.25,1.5783689790000002,0.01,0.0012207029999995456,0.3799999952316284,-1.2799999713897705,-0.009999999776482582,-0.0172119140625,0.01043701171875,1.00152587890625,35.939998626708984,0.0,5.0,1.6544342041015625,0.2765350341796875,Closing,0.0,0.0,1.0,0.0,0.0,0.0,0.0,0.0,
2.3013370000000006,0.0,0.0,41151.0,0.0,0.0,0.0,0.0,0.375,0.759277266,0.01,0.0,38156.0,0.0,0.0,-0.0,0.0,0.25,0.38940425700000003,0.01,-0.0024414059999999793,-2111.0,0.0,0.0,0.0,0.0,0.125,3.406982073,0.01,0.0,40692.0,0.125,0.0,-0.0,0.0,0.25,1.5771482760000002,0.01,0.0012207029999995456,0.3700000047683716,-1.2699999809265137,-0.009999999776482582,-0.00970458984375,0.00152587890625,1.0076904296875,35.97999954223633,0.0,12.0,1.6544342041015625,0.2765350341796875,Closing,0.0,0.0,1.0,0.0,0.0,0.0,0.0,0.0,
2.321999,0.0,0.0,41151.0,0.0,0.0,0.0,0.0,0.375,0.760497969,0.01,0.0,38156.0,0.0,0.0,-0.0,0.0,0.25,0.38940425700000003,0.01,0.0,-2111.0,0.0,0.0,0.0,0.0,0.125,3.406982073,0.01,-0.0012207029999999897,40692.0,0.0,0.0,-0.0,0.0,0.25,1.5783689790000002,0.01,-0.0012207029999995456,0.38999998569488525,-1.2699999809265137,-0.009999999776482582,-0.02996826171875,-0.02740478515625,1.021240234375,35.97999954223633,0.0,-7.0,1.6544342041015625,0.2765045166015625,Closing,0.0,0.0,1.0,0.0,0.0,0.0,0.0,0.0,
2.340729,0.0,0.0,41151.0,0.0,0.0,0.0,0.0,0.375,0.759277266,0.01,0.0,38156.0,0.0,0.0,-0.0,0.0,0.25,0.38940425700000003,0.01,0.0,-2111.0,0.0,0.0,0.0,0.0,0.125,3.406982073,0.01,-0.0012207029999999897,40692.0,0.0,0.0,-0.0,0.0,0.25,1.5783689790000002,0.01,-0.0012207029999995456,0.3799999952316284,-1.2799999713897705,-0.009999999776482582,-0.01727294921875,-0.016845703125,1.03204345703125,35.97999954223633,0.0,5.0,1.6544342041015625,0.2764434814453125,Closing,0.0,0.0,1.0,0.0,0.0,0.0,0.0,0.0,
2.361151,0.0,0.0,41151.0,0.0,0.0,0.0,0.0,0.375,0.759277266,0.01,0.0,38156.0,0.0,0.0,-0.0,0.0,0.25,0.39062496,0.01,0.0,-2111.0,0.0,0.0,0.0,0.0,0.125,3.406982073,0.01,-0.0012207029999999897,40692.0,0.0,0.0,-0.0,0.0,0.25,1.5783689790000002,0.01,-0.0012207029999995456,0.3799999952316284,-1.2699999809265137,-0.009999999776482582,-0.0291748046875,9.1552734375E-4,1.022216796875,35.97999954223633,0.0,-6.0,1.6544342041015625,0.2763824462890625,Closing,0.0,0.0,1.0,0.0,0.0,0.0,0.0,0.0,
2.380133,0.0,0.0,41151.0,0.0,0.0,0.0,0.0,0.375,0.759277266,0.01,0.0,38156.0,0.0,0.0,-0.0,0.0,0.25,0.38818355400000004,0.01,0.0,-2111.0,0.0,0.0,0.0,0.0,0.125,3.406982073,0.01,0.0012207029999999897,40692.0,0.125,0.0,-0.0,0.0,0.25,1.5820310880000001,0.01,0.0,0.3700000047683716,-1.2699999809265137,-0.009999999776482582,-0.01715087890625,0.009765625,1.0389404296875,35.97999954223633,0.0,6.0,1.6544342041015625,0.276336669921875,Closing,0.0,0.0,1.0,0.0,0.0,0.0,0.0,0.0,
2.399459,0.0,0.0,41151.0,0.0,0.0,0.0,0.0,0.375,0.760497969,0.01,0.0,38156.0,0.0,0.0,-0.0,0.0,0.25,0.391845663,0.01,0.0,-2111.0,0.0,0.0,0.0,0.0,0.125,3.406982073,0.01,0.0012207029999999897,40692.0,0.125,0.0,-0.0,0.0,0.25,1.5783689790000002,0.01,0.0,0.3700000047683716,-1.2699999809265137,-0.009999999776482582,-0.03271484375,0.004638671875,1.02667236328125,35.97999954223633,0.0,-9.0,1.6544342041015625,0.2762908935546875,Closing,0.0,0.0,1.0,0.0,0.0,0.0,0.0,0.0,
2.4241900000000003,0.0,0.0,41151.0,0.0,0.0,0.0,0.0,0.375,0.759277266,0.01,0.0,38156.0,0.0,0.0,-0.0,0.0,0.25,0.384521445,0.01,0.0024414059999999793,-2111.0,0.0,0.0,0.0,0.0,0.125,3.406982073,0.01,0.0,40692.0,0.125,0.0,-0.0,0.0,0.25,1.5783689790000002,0.01,0.0012207029999995456,0.3700000047683716,-1.2699999809265137,-0.009999999776482582,-0.02996826171875,0.0164794921875,1.00860595703125,35.97999954223633,0.0,-7.0,1.6544342041015625,0.276275634765625,Closing,0.0,0.0,1.0,0.0,0.0,0.0,0.0,0.0,
2.4408810000000005,0.0,0.0,41151.0,0.0,0.0,0.0,0.0,0.375,0.759277266,0.01,0.0,38156.0,0.0,0.0,-0.0,0.0,0.25,0.384521445,0.01,0.0024414059999999793,-2111.0,0.0,0.0,0.0,0.0,0.125,3.406982073,0.01,0.0,40692.0,0.125,0.0,-0.0,0.0,0.25,1.5783689790000002,0.01,0.0012207029999995456,0.3799999952316284,-1.2799999713897705,-0.009999999776482582,-0.03070068359375,-0.016845703125,0.98974609375,35.97999954223633,0.0,-8.0,1.6544342041015625,0.2762451171875,Closing,0.0,0.0,1.0,0.0,0.0,0.0,0.0,0.0,
2.460528,0.0,0.0,41151.0,0.0,0.0,0.0,0.0,0.375,0.759277266,0.01,0.0,38156.0,0.0,0.0,-0.0,0.0,0.25,0.384521445,0.01,0.0024414059999999793,-2111.0,0.0,0.0,0.0,0.0,0.125,3.406982073,0.01,0.0,40692.0,0.125,0.0,-0.0,0.0,0.25,1.5771482760000002,0.01,0.0012207029999995456,0.3799999952316284,-1.2799999713897705,-0.009999999776482582,-0.01324462890625,0.00225830078125,1.057373046875,35.97999954223633,0.0,10.0,1.6544342041015625,0.2761688232421875,Closing,0.0,0.0,1.0,0.0,0.0,0.0,0.0,0.0,
2.4801720000000005,0.0,0.0,41151.0,0.0,0.0,0.0,0.0,0.375,0.755615157,0.01,0.0,38156.0,0.0,0.0,-0.0,0.0,0.25,0.385742148,0.01,-0.003662109000000413,-2111.0,0.0,0.0,0.0,0.0,0.125,3.406982073,0.01,0.0,40692.0,0.125,0.0,-0.0,0.0,0.25,1.5771482760000002,0.01,-0.0012207029999995456,0.3799999952316284,-1.2699999809265137,-0.009999999776482582,-0.04949951171875,0.005859375,1.00775146484375,35.97999954223633,0.0,-27.0,1.6544189453125,0.2761688232421875,Closing,0.0,0.0,1.0,0.0,0.0,0.0,0.0,0.0,
2.50108,0.0,0.0,41151.0,0.0,0.0,0.0,0.0,0.375,0.759277266,0.01,0.0,38156.0,0.0,0.0,-0.0,0.0,0.25,0.385742148,0.01,-0.003662109000000413,-2111.0,0.0,0.0,0.0,0.0,0.125,3.406982073,0.01,0.0,40692.0,0.125,0.0,-0.0,0.0,0.25,1.5783689790000002,0.01,-0.0012207029999995456,0.3799999952316284,-1.2799999713897705,-0.009999999776482582,-0.01068115234375,0.02197265625,1.01849365234375,35.97999954223633,0.0,12.0,1.6544036865234375,0.2761688232421875,Closing,0.0,0.0,1.0,0.0,0.0,0.0,0.0,0.0,
2.520376,0.0,0.0,41151.0,0.0,0.0,0.0,0.0,0.375,0.759277266,0.01,0.0,38156.0,0.0,0.0,-0.0,0.0,0.25,0.384521445,0.01,0.003662109000000413,-2111.0,0.0,0.0,0.0,0.0,0.125,3.404540667,0.01,-0.0012207029999999897,40692.0,0.125,0.0,-0.0,0.0,0.25,1.5783689790000002,0.01,0.0,0.38999998569488525,-1.2799999713897705,-0.009999999776482582,-0.00762939453125,-0.0159912109375,1.0362548828125,35.97999954223633,0.0,15.0,1.654388427734375,0.276153564453125,Closing,0.0,0.0,1.0,0.0,0.0,0.0,0.0,0.0,
2.5423829999999996,0.0,0.0,41151.0,0.0,0.0,0.0,0.0,0.375,0.758056563,0.01,0.0,38156.0,0.0,0.0,-0.0,0.0,0.25,0.385742148,0.01,0.003662109000000413,-2111.0,0.0,0.0,0.0,0.0,0.125,3.403319964,0.01,-0.0012207029999999897,40692.0,0.125,0.0,-0.0,0.0,0.25,1.5783689790000002,0.01,0.0,0.38999998569488525,-1.2799999713897705,-0.009999999776482582,-0.0235595703125,-6.103515625E-5,0.99652099609375,35.97999954223633,0.0,-1.0,1.654388427734375,0.276123046875,Closing,0.0,0.0,1.0,0.0,0.0,0.0,0.0,0.0,
2.559978,0.0,0.0,41151.0,0.0,0.0,0.0,0.0,0.375,0.7763671080000001,0.01,0.0,38156.0,0.0,0.0,-0.0,0.0,0.25,0.39062496,0.01,0.003662109000000413,-2111.0,0.0,0.0,0.0,0.0,0.125,3.406982073,0.01,-0.0012207029999999897,40692.0,0.125,0.0,-0.0,0.0,0.25,1.5771482760000002,0.01,0.0,0.38999998569488525,-1.2799999713897705,-0.009999999776482582,-0.01629638671875,0.00555419921875,1.0726318359375,35.97999954223633,0.0,7.0,1.654388427734375,0.276092529296875,Closing,0.0,0.0,1.0,0.0,0.0,0.0,0.0,0.0,
2.5805219999999998,0.0,0.0,41151.0,0.0,0.0,0.0,0.0,0.375,0.760497969,0.01,0.0,38156.0,0.0,0.0,-0.0,0.0,0.25,0.384521445,0.01,0.0,-2111.0,0.0,0.0,0.0,0.0,0.125,3.406982073,0.01,0.0012207029999999897,40692.0,0.125,0.0,-0.0,0.0,0.25,1.5783689790000002,0.01,0.0,0.3799999952316284,-1.2799999713897705,-0.009999999776482582,-0.02947998046875,0.00177001953125,1.015869140625,35.97999954223633,0.0,-6.0,1.654388427734375,0.276092529296875,Closing,0.0,0.0,1.0,0.0,0.0,0.0,0.0,0.0,
2.6014459999999997,0.0,0.0,41151.0,0.0,0.0,0.0,0.0,0.375,0.760497969,0.01,0.0,38156.0,0.0,0.0,-0.0,0.0,0.25,0.385742148,0.01,0.0,-2111.0,0.0,0.0,0.0,0.0,0.125,3.406982073,0.01,0.0012207029999999897,40692.0,0.125,0.0,-0.0,0.0,0.25,1.5783689790000002,0.01,0.0,0.3799999952316284,-1.2699999809265137,-0.009999999776482582,-0.01910400390625,0.00140380859375,1.00347900390625,35.97999954223633,0.0,3.0,1.654388427734375,0.276092529296875,Closing,0.0,0.0,1.0,0.0,0.0,0.0,0.0,0.0,
2.6207529999999997,0.0,0.0,41151.0,0.0,0.0,0.0,0.0,0.375,0.759277266,0.01,0.0,38156.0,0.0,0.0,-0.0,0.0,0.25,0.385742148,0.01,0.0,-2111.0,0.0,0.0,0.0,0.0,0.125,3.408202776,0.01,-0.0012207029999999897,40692.0,0.0,0.0,-0.0,0.0,0.25,1.5783689790000002,0.01,0.0,0.3799999952316284,-1.2799999713897705,-0.009999999776482582,-0.025390625,0.0145263671875,1.02166748046875,35.97999954223633,0.0,-2.0,1.654388427734375,0.276092529296875,Closing,0.0,0.0,1.0,0.0,0.0,0.0,0.0,0.0,
2.643486,0.0,0.0,41151.0,0.0,0.0,0.0,0.0,0.375,0.759277266,0.01,0.0,38156.0,0.0,0.0,-0.0,0.0,0.25,0.385742148,0.01,0.0,-2111.0,0.0,0.0,0.0,0.0,0.125,3.406982073,0.01,-0.0012207029999999897,40692.0,0.0,0.0,-0.0,0.0,0.25,1.5783689790000002,0.01,0.0,0.3799999952316284,-1.2699999809265137,-0.009999999776482582,-0.0235595703125,0.00408935546875,1.01727294921875,35.97999954223633,0.0,0.0,1.654388427734375,0.276092529296875,Closing,0.0,0.0,1.0,0.0,0.0,0.0,0.0,0.0,
2.6597690000000003,0.0,0.0,41151.0,0.0,0.0,0.0,0.0,0.375,0.759277266,0.01,0.0,38156.0,0.0,0.0,-0.0,0.0,0.25,0.385742148,0.01,0.0,-2111.0,0.0,0.0,0.0,0.0,0.125,3.408202776,0.01,-0.0012207029999999897,40692.0,0.0,0.0,-0.0,0.0,0.25,1.5783689790000002,0.01,0.0,0.38999998569488525,-1.2799999713897705,-0.009999999776482582,-0.01824951171875,0.0079345703125,1.02490234375,35.97999954223633,0.0,4.0,1.654388427734375,0.276092529296875,Closing,0.0,0.0,1.0,0.0,0.0,0.0,0.0,0.0,
2.6823460000000003,0.0,0.0,41151.0,0.0,0.0,0.0,0.0,0.375,0.760497969,0.01,0.0,38156.0,0.0,0.0,-0.0,0.0,0.25,0.386962851,0.01,-0.0012207030000004337,-2111.0,0.0,0.0,0.0,0.0,0.125,3.406982073,0.01,0.0012207029999999897,40692.0,0.0,0.0,-0.0,0.0,0.25,1.5783689790000002,0.01,0.0,0.38999998569488525,-1.2799999713897705,-0.009999999776482582,-0.03497314453125,0.0125732421875,1.02105712890625,35.97999954223633,0.0,-12.0,1.654388427734375,0.276092529296875,Closing,0.0,0.0,1.0,0.0,0.0,0.0,0.0,0.0,
2.6997020000000003,0.0,0.0,41151.0,0.0,0.0,0.0,0.0,0.375,0.759277266,0.01,0.0,38156.0,0.0,0.0,-0.0,0.0,0.25,0.38818355400000004,0.01,-0.0012207030000004337,-2111.0,0.0,0.0,0.0,0.0,0.125,3.406982073,0.01,0.0012207029999999897,40692.0,0.0,0.0,-0.0,0.0,0.25,1.5771482760000002,0.01,0.0,0.3799999952316284,-1.2699999809265137,-0.009999999776482582,-0.024658203125,0.00518798828125,1.01434326171875,35.97999954223633,0.0,-2.0,1.654388427734375,0.276092529296875,Closing,0.0,0.0,1.0,0.0,0.0,0.0,0.0,0.0,
2.722593,0.0,0.0,41151.0,0.0,0.0,0.0,0.0,0.375,0.758056563,0.01,0.0,38156.0,0.0,0.0,-0.0,0.0,0.25,0.384521445,0.01,0.0,-2111.0,0.0,0.0,0.0,0.0,0.125,3.40576137,0.01,0.0,40692.0,0.0,0.0,-0.0,0.0,0.25,1.5783689790000002,0.01,0.0,0.3799999952316284,-1.2799999713897705,-0.009999999776482582,-0.02703857421875,-0.00201416015625,1.012451171875,35.97999954223633,0.0,-4.0,1.654388427734375,0.276092529296875,Closing,0.0,0.0,1.0,0.0,0.0,0.0,0.0,0.0,
2.7411019999999997,0.0,0.0,41151.0,0.0,0.0,0.0,0.0,0.375,0.7507323450000001,0.01,0.0,38156.0,0.0,0.0,-0.0,0.0,0.25,0.39062496,0.01,0.0,-2111.0,0.0,0.0,0.0,0.0,0.125,3.406982073,0.01,0.0,40692.0,0.0,0.0,-0.0,0.0,0.25,1.5783689790000002,0.01,0.0,0.3799999952316284,-1.2799999713897705,-0.009999999776482582,-0.02203369140625,0.00994873046875,1.01824951171875,35.97999954223633,0.0,0.0,1.654388427734375,0.276092529296875,Closing,0.0,0.0,1.0,0.0,0.0,0.0,0.0,0.0,
2.7599400000000007,0.0,0.0,41151.0,0.0,0.0,0.0,0.0,0.375,0.759277266,0.01,0.0,38156.0,0.0,0.0,-0.0,0.0,0.25,0.39062496,0.01,0.0,-2111.0,0.0,0.0,0.0,0.0,0.125,3.40576137,0.01,0.0,40692.0,0.0,0.0,-0.0,0.0,0.25,1.5783689790000002,0.01,0.0,0.3799999952316284,-1.2799999713897705,-0.009999999776482582,-0.02264404296875,0.00128173828125,1.01959228515625,35.97999954223633,0.0,0.0,1.654388427734375,0.276092529296875,Closing,0.0,0.0,1.0,0.0,0.0,0.0,0.0,0.0,
2.7799440000000004,0.0,0.0,41151.0,0.0,0.0,0.0,0.0,0.375,0.75683586,0.01,0.0,38156.0,0.0,0.0,-0.0,0.0,0.25,0.385742148,0.01,0.0012207030000004337,-2111.0,0.0,0.0,0.0,0.0,0.125,3.406982073,0.01,-0.0012207029999999897,40692.0,0.125,0.0,-0.0,0.0,0.25,1.5771482760000002,0.01,0.0,0.3799999952316284,-1.2799999713897705,-0.009999999776482582,-0.020751953125,0.00970458984375,1.02386474609375,35.97999954223633,0.0,2.0,1.654388427734375,0.276092529296875,Closing,0.0,0.0,1.0,0.0,0.0,0.0,0.0,0.0,
2.800325,0.0,0.0,41151.0,0.0,0.0,0.0,0.0,0.375,0.759277266,0.01,0.0,38156.0,0.0,0.0,-0.0,0.0,0.25,0.385742148,0.01,0.0012207030000004337,-2111.0,0.0,0.0,0.0,0.0,0.125,3.408202776,0.01,-0.0012207029999999897,40692.0,0.125,0.0,-0.0,0.0,0.25,1.5771482760000002,0.01,0.0,0.3799999952316284,-1.2799999713897705,-0.009999999776482582,-0.02691650390625,0.0076904296875,1.01678466796875,35.97999954223633,0.0,-4.0,1.654388427734375,0.276092529296875,Closing,0.0,0.0,1.0,0.0,0.0,0.0,0.0,0.0,
2.8197030000000005,0.0,0.0,41151.0,0.0,0.0,0.0,0.0,0.375,0.759277266,0.01,0.0,38156.0,0.0,0.0,-0.0,0.0,0.25,0.38940425700000003,0.01,-0.0024414059999999793,-2111.0,0.0,0.0,0.0,0.0,0.125,3.406982073,0.01,0.0,40692.0,0.125,0.0,-0.0,0.0,0.25,1.5771482760000002,0.01,0.0,0.3799999952316284,-1.2799999713897705,-0.009999999776482582,-0.02508544921875,0.0072021484375,1.012451171875,35.95000076293945,0.0,-2.0,1.654388427734375,0.276092529296875,Closing,0.0,0.0,1.0,0.0,0.0,0.0,0.0,0.0,
2.8406400000000005,0.0,0.0,41151.0,0.0,0.0,0.0,0.0,0.375,0.759277266,0.01,0.0,38156.0,0.0,0.0,-0.0,0.0,0.25,0.39062496,0.01,-0.0024414059999999793,-2111.0,0.0,0.0,0.0,0.0,0.125,3.406982073,0.01,0.0,40692.0,0.125,0.0,-0.0,0.0,0.25,1.5783689790000002,0.01,0.0,0.3799999952316284,-1.2799999713897705,-0.009999999776482582,-0.0225830078125,0.00738525390625,1.02178955078125,35.95000076293945,0.0,0.0,1.654388427734375,0.276092529296875,Closing,0.0,0.0,1.0,0.0,0.0,0.0,0.0,0.0,
2.86017,0.0,0.0,41151.0,0.0,0.0,0.0,0.0,0.375,0.759277266,0.01,0.0,38156.0,0.0,0.0,-0.0,0.0,0.25,0.39062496,0.01,-0.0024414059999999793,-2111.0,0.0,0.0,0.0,0.0,0.125,3.406982073,0.01,0.0,40692.0,0.125,0.0,-0.0,0.0,0.25,1.5783689790000002,0.01,0.0,0.3799999952316284,-1.2799999713897705,-0.019999999552965164,-0.02056884765625,0.00238037109375,1.017333984375,35.95000076293945,0.0,2.0,1.654388427734375,0.276092529296875,Closing,0.0,0.0,1.0,0.0,0.0,0.0,0.0,0.0,
2.88016,0.0,0.0,41151.0,0.0,0.0,0.0,0.0,0.375,0.759277266,0.01,0.0,38156.0,0.0,0.0,-0.0,0.0,0.25,0.39062496,0.01,0.0012207029999995456,-2111.0,0.0,0.0,0.0,0.0,0.125,3.406982073,0.01,0.0012207029999999897,40692.0,0.125,0.0,-0.0,0.0,0.25,1.5808103850000002,0.01,0.0,0.3799999952316284,-1.2799999713897705,-0.019999999552965164,-0.0235595703125,0.0113525390625,1.01702880859375,35.95000076293945,0.0,0.0,1.654388427734375,0.276092529296875,Closing,0.0,0.0,1.0,0.0,0.0,0.0,0.0,0.0,
2.900343,0.0,0.0,41151.0,0.0,0.0,0.0,0.0,0.375,0.759277266,0.01,0.0,38156.0,0.0,0.0,-0.0,0.0,0.25,0.385742148,0.01,0.0012207029999995456,-2111.0,0.0,0.0,0.0,0.0,0.125,3.40576137,0.01,0.0012207029999999897,40692.0,0.125,0.0,-0.0,0.0,0.25,1.5783689790000002,0.01,0.0,0.3799999952316284,-1.2799999713897705,-0.019999999552965164,-0.02716064453125,0.01153564453125,1.02215576171875,35.95000076293945,0.0,-4.0,1.654388427734375,0.276092529296875,Closing,0.0,0.0,1.0,0.0,0.0,0.0,0.0,0.0,
2.921723,0.0,0.0,41151.0,0.0,0.0,0.0,0.0,0.375,0.759277266,0.01,0.0,38156.0,0.0,0.0,-0.0,0.0,0.25,0.384521445,0.01,0.0012207030000004337,-2111.0,0.0,0.0,0.0,0.0,0.125,3.406982073,0.01,0.0,40692.0,0.125,0.0,-0.0,0.0,0.25,1.5783689790000002,0.01,0.0,0.3799999952316284,-1.2799999713897705,-0.019999999552965164,-0.017822265625,0.0076904296875,1.02099609375,35.95000076293945,0.0,5.0,1.654388427734375,0.276092529296875,Closing,0.0,0.0,1.0,0.0,0.0,0.0,0.0,0.0,
2.94034,0.0,0.0,41151.0,0.0,0.0,0.0,0.0,0.375,0.759277266,0.01,0.0,38156.0,0.0,0.0,-0.0,0.0,0.25,0.38940425700000003,0.01,0.0012207030000004337,-2111.0,0.0,0.0,0.0,0.0,0.125,3.404540667,0.01,0.0,40692.0,0.125,0.0,-0.0,0.0,0.25,1.5783689790000002,0.01,0.0,0.3799999952316284,-1.2799999713897705,-0.019999999552965164,-0.02508544921875,0.00201416015625,1.01678466796875,35.95000076293945,0.0,-2.0,1.654388427734375,0.276092529296875,Closing,0.0,0.0,1.0,0.0,0.0,0.0,0.0,0.0,
2.961148,0.0,0.0,41151.0,0.0,0.0,0.0,0.0,0.375,0.760497969,0.01,0.0,38156.0,0.0,0.0,-0.0,0.0,0.25,0.38940425700000003,0.01,0.0012207030000004337,-2111.0,0.0,0.0,0.0,0.0,0.125,3.406982073,0.01,0.0,40692.0,0.125,0.0,-0.0,0.0,0.25,1.5783689790000002,0.01,0.0,0.3799999952316284,-1.2799999713897705,-0.019999999552965164,-0.022705078125,0.00390625,1.01824951171875,35.95000076293945,0.0,0.0,1.654388427734375,0.276092529296875,Closing,0.0,0.0,1.0,0.0,0.0,0.0,0.0,0.0,
