Time,ClimberA1,ClimberA2,FRpos,FRCurrent,FRspeed,FRsetpoint,FRApos,FRACurrent,FREncpos,FREncSetpoint,FREncSpeed,FLpos,FLCurrent,FLspeed,FLsetpoint,FLApos,FLACurrent,FLEncpos,FLEncSetpoint,FLEncSpeed,BRpos,BRCurrent,BRspeed,BRsetpoint,BRApos,BRACurrent,BREncpos,BREncSetpoint,BREncSpeed,BLpos,BLCurrent,BLspeed,BLsetpoint,BLApos,BLACurrent,BLEncpos,BLEncSetpoint,BLEncSpeed,navx_Pitch,navx_Roll,navx_Yaw,navx_XAcc,navx_YAcc,navx_ZAcc,navx_Temp,navx_Bar,navx_Alt,navx_XDis,navx_YDis,GearPlacerState,ShootOutputV,ShootOutputCurrent,ShootEncPos,ShootEncVelocity,ShootSpeed,ShootSetpoint,CarouselSetpoint,CarouselCurrent,
0.12239999999999418,0.0,0.0,0.0,0.0,0.0,0.0,0.0,0.125,0.783691326,0.01,0.0,0.0,0.0,0.0,-0.0,0.0,0.0,0.399169881,0.01,0.0,0.0,0.0,0.0,0.0,0.0,0.0,3.236083653,0.01,0.0,0.0,0.0,0.0,-0.0,0.0,0.125,1.573486167,0.01,0.0,0.03999999910593033,-0.15000000596046448,0.0,-3.662109375E-4,-1.8310546875E-4,1.02569580078125,26.43000030517578,0.0,2.0,8.85009765625E-4,-0.0010986328125,Waiting,0.0,0.0,1.0,0.0,0.0,0.0,0.0,0.0,
0.15335399999999208,0.0,0.0,0.0,0.0,0.0,0.0,0.0,0.125,0.783691326,0.01,0.0,0.0,0.0,0.0,-0.0,0.0,0.0,0.40039058400000005,0.01,0.0012207029999995456,0.0,0.0,0.0,0.0,0.0,0.0,3.23486295,0.01,0.0,0.0,0.0,0.0,-0.0,0.0,0.125,1.57470687,0.01,-0.0012207029999995456,0.05000000074505806,-0.15000000596046448,0.0,-0.00238037109375,-0.0010986328125,1.03314208984375,26.43000030517578,0.0,0.0,8.85009765625E-4,-0.0010986328125,Waiting,0.0,0.0,1.0,0.0,0.0,0.0,0.0,0.0,
0.18625500000000467,0.0,0.0,0.0,0.0,0.0,0.0,0.0,0.125,0.783691326,0.01,0.0,0.0,0.0,0.0,-0.0,0.0,0.0,0.40039058400000005,0.01,0.0012207029999995456,0.0,0.0,0.0,0.0,0.0,0.0,3.23486295,0.01,0.0,0.0,0.0,0.0,-0.0,0.0,0.125,1.573486167,0.01,-0.0012207029999995456,0.05000000074505806,-0.15000000596046448,0.0,-0.00262451171875,0.002197265625,1.025390625,26.43000030517578,0.0,0.0,8.85009765625E-4,-0.0010986328125,Waiting,0.0,0.0,1.0,0.0,0.0,0.0,0.0,0.0,
0.21261699999999836,0.0,0.0,0.0,0.0,0.0,0.0,0.0,0.125,0.783691326,0.01,0.0,0.0,0.0,0.0,-0.0,0.0,0.0,0.399169881,0.01,0.0,0.0,0.0,0.0,0.0,0.0,0.0,3.23486295,0.01,0.0,0.0,0.0,0.0,-0.0,0.0,0.125,1.573486167,0.01,0.0,0.05000000074505806,-0.15000000596046448,0.0,-0.0029296875,0.00164794921875,1.02862548828125,26.43000030517578,0.0,0.0,8.85009765625E-4,-0.0010986328125,Waiting,0.0,0.0,1.0,0.0,0.0,0.0,0.0,0.0,
0.24632099999999627,0.0,0.0,0.0,0.0,0.0,0.0,0.0,0.125,0.783691326,0.01,0.0,0.0,0.0,0.0,-0.0,0.0,0.0,0.399169881,0.01,0.0,0.0,0.0,0.0,0.0,0.0,0.0,3.23486295,0.01,0.0,0.0,0.0,0.0,-0.0,0.0,0.125,1.57470687,0.01,0.0012207029999995456,0.05000000074505806,-0.15000000596046448,0.0,-0.0020751953125,0.00384521484375,1.02642822265625,26.43000030517578,0.0,0.0,8.85009765625E-4,-0.0010986328125,Waiting,0.0,0.0,1.0,0.0,0.0,0.0,0.0,0.0,
0.27476399999999557,0.0,0.0,0.0,0.0,0.0,0.0,0.0,0.125,0.78124992,0.01,0.0,0.0,0.0,0.0,-0.0,0.0,0.0,0.399169881,0.01,0.0,0.0,0.0,0.0,0.0,0.0,0.0,3.23486295,0.01,0.0,0.0,0.0,0.0,-0.0,0.0,0.125,1.57470687,0.01,0.0012207029999995456,0.05000000074505806,-0.15000000596046448,0.0,-0.0040283203125,0.00225830078125,1.02728271484375,26.43000030517578,0.0,-1.0,8.85009765625E-4,-0.0010986328125,Waiting,0.0,0.0,1.0,0.0,0.0,0.0,0.0,0.0,
0.30722000000000116,0.0,0.0,0.0,0.0,0.0,0.0,0.0,0.125,0.782470623,0.01,0.0,0.0,0.0,0.0,-0.0,0.0,0.0,0.399169881,0.01,0.0,0.0,0.0,0.0,0.0,0.0,0.0,3.236083653,0.01,0.0,0.0,0.0,0.0,-0.0,0.0,0.125,1.57470687,0.01,-0.0012207029999995456,0.05000000074505806,-0.15000000596046448,0.0,-0.0018310546875,-0.00238037109375,1.024658203125,26.43000030517578,0.0,0.0,8.85009765625E-4,-0.0010986328125,Waiting,0.0,0.0,1.0,0.0,0.0,0.0,0.0,0.0,
0.3406359999999986,0.0,0.0,0.0,0.0,0.0,0.0,0.0,0.125,0.784912029,0.01,0.0,0.0,0.0,0.0,-0.0,0.0,0.0,0.399169881,0.01,0.0,0.0,0.0,0.0,0.0,0.0,0.0,3.23486295,0.01,0.0,0.0,0.0,0.0,-0.0,0.0,0.125,1.5783689790000002,0.01,-0.0012207029999995456,0.03999999910593033,-0.15000000596046448,0.0,-0.00274658203125,-8.544921875E-4,1.0283203125,26.43000030517578,0.0,0.0,8.85009765625E-4,-0.0010986328125,Waiting,0.0,0.0,1.0,0.0,0.0,0.0,0.0,0.0,
0.37364999999999415,0.0,0.0,0.0,0.0,0.0,0.0,0.0,0.125,0.783691326,0.01,0.0,0.0,0.0,0.0,-0.0,0.0,0.0,0.40039058400000005,0.01,-0.0012207029999995456,0.0,0.0,0.0,0.0,0.0,0.0,3.236083653,0.01,0.0,0.0,0.0,0.0,-0.0,0.0,0.125,1.57470687,0.01,0.0012207029999995456,0.05000000074505806,-0.15000000596046448,0.0,0.001220703125,1.8310546875E-4,1.03216552734375,26.389999389648438,0.0,3.0,8.85009765625E-4,-0.0010986328125,Waiting,0.0,0.0,1.0,0.0,0.0,0.0,0.0,0.0,
0.40738899999999556,0.0,0.0,0.0,0.0,0.0,0.0,0.0,0.125,0.782470623,0.01,0.0,0.0,0.0,0.0,-0.0,0.0,0.0,0.399169881,0.01,0.0012207029999995456,0.0,0.0,0.0,0.0,0.0,0.0,3.23486295,0.01,0.0,0.0,0.0,0.0,-0.0,0.0,0.125,1.57470687,0.01,-0.0012207029999995456,0.03999999910593033,-0.15000000596046448,0.0,-0.00445556640625,-0.0023193359375,1.02655029296875,26.389999389648438,0.0,-1.0,8.85009765625E-4,-0.0010986328125,Waiting,0.0,0.0,1.0,0.0,0.0,0.0,0.0,0.0,
0.4364770000000135,0.0,0.0,0.0,0.0,0.0,0.0,0.0,0.125,0.783691326,0.01,0.0,0.0,0.0,0.0,-0.0,0.0,0.0,0.397949178,0.01,0.0012207029999995456,0.0,0.0,0.0,0.0,0.0,0.0,3.23486295,0.01,0.0,0.0,0.0,0.0,-0.0,0.0,0.125,1.57470687,0.01,-0.0012207029999995456,0.03999999910593033,-0.15000000596046448,0.0,0.00103759765625,-1.220703125E-4,1.02587890625,26.389999389648438,0.0,3.0,8.85009765625E-4,-0.0010986328125,Waiting,0.0,0.0,1.0,0.0,0.0,0.0,0.0,0.0,
0.47201800000001093,0.0,0.0,0.0,0.0,0.0,0.0,0.0,0.125,0.782470623,0.01,0.0,0.0,0.0,0.0,-0.0,0.0,0.0,0.399169881,0.01,0.0,0.0,0.0,0.0,0.0,0.0,0.0,3.23486295,0.01,0.0,0.0,0.0,0.0,-0.0,0.0,0.125,1.573486167,0.01,0.0012207029999995456,0.03999999910593033,-0.15000000596046448,0.0,-0.0037841796875,0.00311279296875,1.0299072265625,26.389999389648438,0.0,-1.0,8.85009765625E-4,-0.0010986328125,Waiting,0.0,0.0,1.0,0.0,0.0,0.0,0.0,0.0,
0.5022200000000011,0.0,0.0,0.0,0.0,0.0,0.0,0.0,0.125,0.783691326,0.01,0.0,0.0,0.0,0.0,-0.0,0.0,0.0,0.399169881,0.01,0.0,0.0,0.0,0.0,0.0,0.0,0.0,3.23486295,0.01,0.0,0.0,0.0,0.0,-0.0,0.0,0.125,1.57470687,0.01,-0.0012207029999995456,0.03999999910593033,-0.15000000596046448,0.0,-0.001708984375,4.2724609375E-4,1.03057861328125,26.389999389648438,0.0,1.0,8.85009765625E-4,-0.0010986328125,Waiting,0.0,0.0,1.0,0.0,0.0,0.0,0.0,0.0,
0.5340979999999982,0.0,0.0,0.0,0.0,0.0,0.0,0.0,0.125,0.782470623,0.01,0.0,0.0,0.0,0.0,-0.0,0.0,0.0,0.399169881,0.01,0.0,0.0,0.0,0.0,0.0,0.0,0.0,3.236083653,0.01,0.0,0.0,0.0,0.0,-0.0,0.0,0.125,1.57470687,0.01,-0.0012207029999995456,0.03999999910593033,-0.15000000596046448,0.0,-0.00238037109375,9.1552734375E-4,1.02801513671875,26.389999389648438,0.0,0.0,8.85009765625E-4,-0.0010986328125,Waiting,0.0,0.0,1.0,0.0,0.0,0.0,0.0,0.0,
0.5690979999999981,0.0,0.0,0.0,0.0,0.0,0.0,0.0,0.125,0.78124992,0.01,0.0,0.0,0.0,0.0,-0.0,0.0,0.0,0.399169881,0.01,0.0,0.0,0.0,0.0,0.0,0.0,0.0,3.23486295,0.01,0.0,0.0,0.0,0.0,-0.0,0.0,0.125,1.57470687,0.01,0.0,0.03999999910593033,-0.15000000596046448,0.0,-0.00506591796875,6.103515625E-4,1.0238037109375,26.389999389648438,0.0,-2.0,8.85009765625E-4,-0.0010986328125,Waiting,0.0,0.0,1.0,0.0,0.0,0.0,0.0,0.0,
0.5974949999999953,0.0,0.0,0.0,0.0,0.0,0.0,0.0,0.125,0.783691326,0.01,0.0,0.0,0.0,0.0,-0.0,0.0,0.0,0.397949178,0.01,0.0,0.0,0.0,0.0,0.0,0.0,0.0,3.236083653,0.01,0.0,0.0,0.0,0.0,-0.0,0.0,0.125,1.57470687,0.01,0.0012207029999995456,0.03999999910593033,-0.15000000596046448,0.0,-0.00299072265625,9.765625E-4,1.0257568359375,26.389999389648438,0.0,0.0,8.85009765625E-4,-0.0010986328125,Waiting,0.0,0.0,1.0,0.0,0.0,0.0,0.0,0.0,
0.631765000000014,0.0,0.0,0.0,0.0,0.0,0.0,0.0,0.125,0.783691326,0.01,0.0,0.0,0.0,0.0,-0.0,0.0,0.0,0.399169881,0.01,0.0,0.0,0.0,0.0,0.0,0.0,0.0,3.23486295,0.01,0.0,0.0,0.0,0.0,-0.0,0.0,0.125,1.57470687,0.01,0.0012207029999995456,0.03999999910593033,-0.15000000596046448,0.0,-0.00152587890625,4.8828125E-4,1.028076171875,26.389999389648438,0.0,1.0,8.85009765625E-4,-0.0010986328125,Waiting,0.0,0.0,1.0,0.0,0.0,0.0,0.0,0.0,
0.6666350000000093,0.0,0.0,0.0,0.0,0.0,0.0,0.0,0.125,0.783691326,0.01,0.0,0.0,0.0,0.0,-0.0,0.0,0.0,0.399169881,0.01,0.0,0.0,0.0,0.0,0.0,0.0,0.0,3.23486295,0.01,0.0,0.0,0.0,0.0,-0.0,0.0,0.125,1.57470687,0.01,-0.0012207029999995456,0.03999999910593033,-0.15000000596046448,0.0,-0.001708984375,0.00201416015625,1.0257568359375,26.389999389648438,0.0,1.0,8.85009765625E-4,-0.0010986328125,Waiting,0.0,0.0,1.0,0.0,0.0,0.0,0.0,0.0,
0.696176999999996,0.0,0.0,0.0,0.0,0.0,0.0,0.0,0.125,0.783691326,0.01,0.0,0.0,0.0,0.0,-0.0,0.0,0.0,0.399169881,0.01,0.0,0.0,0.0,0.0,0.0,0.0,0.0,3.236083653,0.01,0.0,0.0,0.0,0.0,-0.0,0.0,0.125,1.57470687,0.01,0.0,0.03999999910593033,-0.15000000596046448,0.0,-0.00439453125,0.00103759765625,1.02972412109375,26.389999389648438,0.0,-1.0,8.85009765625E-4,-0.0010986328125,Waiting,0.0,0.0,1.0,0.0,0.0,0.0,0.0,0.0,
0.7313960000000079,0.0,0.0,0.0,0.0,0.0,0.0,0.0,0.125,0.783691326,0.01,0.0,0.0,0.0,0.0,-0.0,0.0,0.0,0.40039058400000005,0.01,0.0,0.0,0.0,0.0,0.0,0.0,0.0,3.236083653,0.01,0.0,0.0,0.0,0.0,-0.0,0.0,0.125,1.57470687,0.01,0.0,0.03999999910593033,-0.15000000596046448,0.0,-0.001708984375,-3.0517578125E-4,1.0281982421875,26.389999389648438,0.0,1.0,8.85009765625E-4,-0.0010986328125,Waiting,0.0,0.0,1.0,0.0,0.0,0.0,0.0,0.0,
0.7657520000000076,0.0,0.0,0.0,0.0,0.0,0.0,0.0,0.125,0.783691326,0.01,0.0,0.0,0.0,0.0,-0.0,0.0,0.0,0.399169881,0.01,0.0,0.0,0.0,0.0,0.0,0.0,0.0,3.23486295,0.01,0.0,0.0,0.0,0.0,-0.0,0.0,0.125,1.57470687,0.01,0.0,0.029999999329447746,-0.15000000596046448,0.0,-0.00244140625,7.32421875E-4,1.0294189453125,26.389999389648438,0.0,0.0,8.85009765625E-4,-0.0010986328125,Waiting,0.0,0.0,1.0,0.0,0.0,0.0,0.0,0.0,
0.8012160000000149,0.0,0.0,0.0,0.0,0.0,0.0,0.0,0.125,0.783691326,0.01,0.0,0.0,0.0,0.0,-0.0,0.0,0.0,0.40039058400000005,0.01,0.0,0.0,0.0,0.0,0.0,0.0,0.0,3.23486295,0.01,0.0,0.0,0.0,0.0,-0.0,0.0,0.125,1.5795896820000002,0.01,0.0,0.029999999329447746,-0.15000000596046448,0.0,-0.0020751953125,0.00311279296875,1.02362060546875,26.389999389648438,0.0,0.0,8.85009765625E-4,-0.0010986328125,Waiting,0.0,0.0,1.0,0.0,0.0,0.0,0.0,0.0,
0.8334869999999938,0.0,0.0,0.0,0.0,0.0,0.0,0.0,0.125,0.782470623,0.01,0.0,0.0,0.0,0.0,-0.0,0.0,0.0,0.40039058400000005,0.01,0.0,0.0,0.0,0.0,0.0,0.0,0.0,3.236083653,0.01,0.0,0.0,0.0,0.0,-0.0,0.0,0.125,1.5759275730000002,0.01,0.0,0.029999999329447746,-0.15000000596046448,0.0,-0.00421142578125,0.00177001953125,1.0308837890625,26.389999389648438,0.0,-1.0,8.85009765625E-4,-0.0010986328125,Waiting,0.0,0.0,1.0,0.0,0.0,0.0,0.0,0.0,
0.8705279999999912,0.0,0.0,0.0,0.0,0.0,0.0,0.0,0.125,0.783691326,0.01,0.0,0.0,0.0,0.0,-0.0,0.0,0.0,0.40161128700000004,0.01,0.0,0.0,0.0,0.0,0.0,0.0,0.0,3.23486295,0.01,0.0,0.0,0.0,0.0,-0.0,0.0,0.125,1.57470687,0.01,0.0,0.029999999329447746,-0.1599999964237213,0.0,-0.00341796875,0.00177001953125,1.02215576171875,26.450000762939453,0.0,0.0,8.85009765625E-4,-0.0010986328125,Waiting,0.0,0.0,1.0,0.0,0.0,0.0,0.0,0.0,
0.896137000000017,0.0,0.0,0.0,0.0,0.0,0.0,0.0,0.125,0.786132732,0.01,0.0,0.0,0.0,0.0,-0.0,0.0,0.0,0.40161128700000004,0.01,0.0,0.0,0.0,0.0,0.0,0.0,0.0,3.23486295,0.01,0.0,0.0,0.0,0.0,-0.0,0.0,0.125,1.57470687,0.01,0.0012207029999995456,0.029999999329447746,-0.1599999964237213,0.0,-0.00274658203125,0.00225830078125,1.02447509765625,26.450000762939453,0.0,0.0,8.85009765625E-4,-0.0010986328125,Waiting,0.0,0.0,1.0,0.0,0.0,0.0,0.0,0.0,
0.9322540000000153,0.0,0.0,0.0,0.0,0.0,0.0,0.0,0.125,0.782470623,0.01,0.0,0.0,0.0,0.0,-0.0,0.0,0.0,0.40039058400000005,0.01,0.0,0.0,0.0,0.0,0.0,0.0,0.0,3.236083653,0.01,0.0,0.0,0.0,0.0,-0.0,0.0,0.125,1.5759275730000002,0.01,0.0012207029999995456,0.03999999910593033,-0.1599999964237213,0.0,-0.00537109375,6.7138671875E-4,1.02899169921875,26.450000762939453,0.0,-2.0,8.85009765625E-4,-0.0010986328125,Waiting,0.0,0.0,1.0,0.0,0.0,0.0,0.0,0.0,
0.9641659999999974,0.0,0.0,0.0,0.0,0.0,0.0,0.0,0.125,0.783691326,0.01,0.0,0.0,0.0,0.0,-0.0,0.0,0.0,0.399169881,0.01,0.0,0.0,0.0,0.0,0.0,0.0,0.0,3.236083653,0.01,0.0,0.0,0.0,0.0,-0.0,0.0,0.125,1.573486167,0.01,-0.0012207029999995456,0.03999999910593033,-0.1599999964237213,0.0,-0.0015869140625,0.0029296875,1.02288818359375,26.450000762939453,0.0,1.0,8.85009765625E-4,-0.0010986328125,Waiting,0.0,0.0,1.0,0.0,0.0,0.0,0.0,0.0,
0.9966100000000151,0.0,0.0,0.0,0.0,0.0,0.0,0.0,0.125,0.782470623,0.01,0.0,0.0,0.0,0.0,-0.0,0.0,0.0,0.397949178,0.01,0.0,0.0,0.0,0.0,0.0,0.0,0.0,3.23486295,0.01,0.0,0.0,0.0,0.0,-0.0,0.0,0.125,1.57470687,0.01,0.0012207029999995456,0.03999999910593033,-0.1599999964237213,0.0,-0.003173828125,0.002197265625,1.0335693359375,26.450000762939453,0.0,0.0,8.85009765625E-4,-0.0010986328125,Waiting,0.0,0.0,1.0,0.0,0.0,0.0,0.0,0.0,
1.0318889999999956,0.0,0.0,0.0,0.0,0.0,0.0,0.0,0.125,0.782470623,0.01,0.0,0.0,0.0,0.0,-0.0,0.0,0.0,0.399169881,0.01,0.0,0.0,0.0,0.0,0.0,0.0,0.0,3.23486295,0.01,0.0,0.0,0.0,0.0,-0.0,0.0,0.125,1.57470687,0.01,0.0012207029999995456,0.03999999910593033,-0.1599999964237213,0.0,-0.0032958984375,4.8828125E-4,1.02459716796875,26.450000762939453,0.0,0.0,8.85009765625E-4,-0.0010986328125,Waiting,0.0,0.0,1.0,0.0,0.0,0.0,0.0,0.0,
1.064600999999995,0.0,0.0,0.0,0.0,0.0,0.0,0.0,0.125,0.783691326,0.01,0.0,0.0,0.0,0.0,-0.0,0.0,0.0,0.399169881,0.01,0.0,0.0,0.0,0.0,0.0,0.0,0.0,3.23486295,0.01,0.0,0.0,0.0,0.0,-0.0,0.0,0.125,1.57470687,0.01,0.0,0.03999999910593033,-0.1599999964237213,0.0,-0.00152587890625,0.001708984375,1.02484130859375,26.450000762939453,0.0,1.0,8.85009765625E-4,-0.0010986328125,Waiting,0.0,0.0,1.0,0.0,0.0,0.0,0.0,0.0,
1.0962270000000136,0.0,0.0,0.0,0.0,0.0,0.0,0.0,0.125,0.782470623,0.01,0.0,0.0,0.0,0.0,-0.0,0.0,0.0,0.399169881,0.01,0.0,0.0,0.0,0.0,0.0,0.0,0.0,3.23486295,0.01,0.0,0.0,0.0,0.0,-0.0,0.0,0.125,1.57470687,0.01,-0.0012207029999995456,0.03999999910593033,-0.1599999964237213,0.0,-0.00543212890625,0.00201416015625,1.02471923828125,26.450000762939453,0.0,-2.0,8.85009765625E-4,-0.0010986328125,Waiting,0.0,0.0,1.0,0.0,0.0,0.0,0.0,0.0,
1.1310109999999987,0.0,0.0,0.0,0.0,0.0,0.0,0.0,0.125,0.783691326,0.01,0.0,0.0,0.0,0.0,-0.0,0.0,0.0,0.399169881,0.01,-0.0012207029999995456,0.0,0.0,0.0,0.0,0.0,0.0,3.23486295,0.01,0.0,0.0,0.0,0.0,-0.0,0.0,0.125,1.5759275730000002,0.01,-0.0012207029999995456,0.05000000074505806,-0.1599999964237213,0.0,-0.001708984375,0.0023193359375,1.02337646484375,26.450000762939453,0.0,1.0,8.85009765625E-4,-0.0010986328125,Waiting,0.0,0.0,1.0,0.0,0.0,0.0,0.0,0.0,
1.164110000000015,0.0,0.0,0.0,0.0,0.0,0.0,0.0,0.125,0.783691326,0.01,0.0,0.0,0.0,0.0,-0.0,0.0,0.0,0.405273396,0.01,0.0012207029999995456,0.0,0.0,0.0,0.0,0.0,0.0,3.236083653,0.01,0.0,0.0,0.0,0.0,-0.0,0.0,0.125,1.57470687,0.01,0.0012207029999995456,0.05000000074505806,-0.1599999964237213,0.0,-0.00360107421875,5.4931640625E-4,1.02362060546875,26.450000762939453,0.0,0.0,8.85009765625E-4,-0.0010986328125,Waiting,0.0,0.0,1.0,0.0,0.0,0.0,0.0,0.0,
1.1964850000000151,0.0,0.0,0.0,0.0,0.0,0.0,0.0,0.125,0.782470623,0.01,0.0,0.0,0.0,0.0,-0.0,0.0,0.0,0.399169881,0.01,0.0012207029999995456,0.0,0.0,0.0,0.0,0.0,0.0,3.236083653,0.01,0.0,0.0,0.0,0.0,-0.0,0.0,0.125,1.57470687,0.01,-0.0012207029999995456,0.05000000074505806,-0.1599999964237213,0.0,-0.0020751953125,4.2724609375E-4,1.0238037109375,26.450000762939453,0.0,0.0,8.85009765625E-4,-0.0010986328125,Waiting,0.0,0.0,1.0,0.0,0.0,0.0,0.0,0.0,
1.2327030000000085,0.0,0.0,0.0,0.0,0.0,0.0,0.0,0.125,0.782470623,0.01,0.0,0.0,0.0,0.0,-0.0,0.0,0.0,0.399169881,0.01,0.0,0.0,0.0,0.0,0.0,0.0,0.0,3.236083653,0.01,0.0,0.0,0.0,0.0,-0.0,0.0,0.125,1.57470687,0.01,-0.0012207029999995456,0.05000000074505806,-0.1599999964237213,0.0,-0.0040283203125,0.00152587890625,1.027099609375,26.450000762939453,0.0,-1.0,8.85009765625E-4,-0.0010986328125,Waiting,0.0,0.0,1.0,0.0,0.0,0.0,0.0,0.0,
1.2633649999999907,0.0,0.0,0.0,0.0,0.0,0.0,0.0,0.125,0.782470623,0.01,0.0,0.0,0.0,0.0,-0.0,0.0,0.0,0.399169881,0.01,0.0,0.0,0.0,0.0,0.0,0.0,0.0,3.233642247,0.01,0.0,0.0,0.0,0.0,-0.0,0.0,0.125,1.57470687,0.01,0.0,0.05000000074505806,-0.1599999964237213,0.0,-0.00238037109375,-4.2724609375E-4,1.02911376953125,26.450000762939453,0.0,0.0,8.85009765625E-4,-0.0010986328125,Waiting,0.0,0.0,1.0,0.0,0.0,0.0,0.0,0.0,
1.2982680000000109,0.0,0.0,0.0,0.0,0.0,0.0,0.0,0.125,0.783691326,0.01,0.0,0.0,0.0,0.0,-0.0,0.0,0.0,0.399169881,0.01,0.0,0.0,0.0,0.0,0.0,0.0,0.0,3.236083653,0.01,0.0,0.0,0.0,0.0,-0.0,0.0,0.125,1.57470687,0.01,0.0,0.05000000074505806,-0.1599999964237213,0.0,-5.4931640625E-4,0.003173828125,1.02716064453125,26.450000762939453,0.0,2.0,8.85009765625E-4,-0.0010986328125,Waiting,0.0,0.0,1.0,0.0,0.0,0.0,0.0,0.0,
1.3320009999999893,0.0,0.0,0.0,0.0,0.0,0.0,0.0,0.125,0.783691326,0.01,0.0,0.0,0.0,0.0,-0.0,0.0,0.0,0.40039058400000005,0.01,-0.0012207029999995456,0.0,0.0,0.0,0.0,0.0,0.0,3.23486295,0.01,0.0,0.0,0.0,0.0,-0.0,0.0,0.125,1.5783689790000002,0.01,0.0,0.05000000074505806,-0.1599999964237213,0.0,-0.0028076171875,0.00537109375,1.02740478515625,26.450000762939453,0.0,0.0,8.85009765625E-4,-0.0010986328125,Waiting,0.0,0.0,1.0,0.0,0.0,0.0,0.0,0.0,
1.3637149999999965,0.0,0.0,0.0,0.0,0.0,0.0,0.0,0.125,0.782470623,0.01,0.0,0.0,0.0,0.0,-0.0,0.0,0.0,0.399169881,0.01,0.0012207029999995456,0.0,0.0,0.0,0.0,0.0,0.0,3.232421544,0.01,0.0,0.0,0.0,0.0,-0.0,0.0,0.125,1.5759275730000002,0.01,0.0,0.05000000074505806,-0.1599999964237213,0.0,-0.00421142578125,-4.8828125E-4,1.03076171875,26.450000762939453,0.0,-1.0,8.85009765625E-4,-0.0010986328125,Waiting,0.0,0.0,1.0,0.0,0.0,0.0,0.0,0.0,
1.3978969999999973,0.0,0.0,0.0,0.0,0.0,0.0,0.0,0.125,0.782470623,0.01,0.0,0.0,0.0,0.0,-0.0,0.0,0.0,0.396728475,0.01,0.0012207029999995456,0.0,0.0,0.0,0.0,0.0,0.0,3.236083653,0.01,0.0,0.0,0.0,0.0,-0.0,0.0,0.125,1.5759275730000002,0.01,0.0012207029999995456,0.05000000074505806,-0.1599999964237213,0.0,-0.0042724609375,-0.0010986328125,1.0281982421875,26.450000762939453,0.0,-1.0,8.85009765625E-4,-0.0010986328125,Waiting,0.0,0.0,1.0,0.0,0.0,0.0,0.0,0.0,
1.4329709999999904,0.0,0.0,0.0,0.0,0.0,0.0,0.0,0.125,0.783691326,0.01,0.0,0.0,0.0,0.0,-0.0,0.0,0.0,0.399169881,0.01,0.0,0.0,0.0,0.0,0.0,0.0,0.0,3.236083653,0.01,0.0,0.0,0.0,0.0,-0.0,0.0,0.125,1.57470687,0.01,0.0012207029999995456,0.05000000074505806,-0.1599999964237213,0.0,-0.00146484375,0.0015869140625,1.0255126953125,26.450000762939453,0.0,1.0,8.85009765625E-4,-0.0010986328125,Waiting,0.0,0.0,1.0,0.0,0.0,0.0,0.0,0.0,
1.465540000000008,0.0,0.0,0.0,0.0,0.0,0.0,0.0,0.125,0.783691326,0.01,0.0,0.0,0.0,0.0,-0.0,0.0,0.0,0.399169881,0.01,0.0,0.0,0.0,0.0,0.0,0.0,0.0,3.23486295,0.01,0.0,0.0,0.0,0.0,-0.0,0.0,0.125,1.57470687,0.01,0.0,0.05000000074505806,-0.1599999964237213,0.0,-0.00164794921875,0.001220703125,1.02398681640625,26.450000762939453,0.0,1.0,8.85009765625E-4,-0.0010986328125,Waiting,0.0,0.0,1.0,0.0,0.0,0.0,0.0,0.0,
1.4972909999999975,0.0,0.0,0.0,0.0,0.0,0.0,0.0,0.125,0.8007811680000001,0.01,0.0012207030000004337,0.0,0.0,0.0,-0.0,0.0,0.0,0.399169881,0.01,0.0,0.0,0.0,0.0,0.0,0.0,0.0,3.236083653,0.01,0.0,0.0,0.0,0.0,-0.0,0.0,0.125,1.573486167,0.01,-0.0012207029999995456,0.05000000074505806,-0.1599999964237213,0.0,-0.00225830078125,-4.2724609375E-4,1.02630615234375,26.450000762939453,0.0,0.0,8.85009765625E-4,-0.0010986328125,Waiting,0.0,0.0,1.0,0.0,0.0,0.0,0.0,0.0,
1.5369200000000127,0.0,0.0,0.0,0.0,0.0,0.0,0.0,0.125,0.78124992,0.01,0.0012207030000004337,0.0,0.0,0.0,-0.0,0.0,0.0,0.399169881,0.01,0.0,0.0,0.0,0.0,0.0,0.0,0.0,3.236083653,0.01,0.0,0.0,0.0,0.0,-0.0,0.0,0.125,1.57470687,0.01,-0.0012207029999995456,0.05000000074505806,-0.1599999964237213,0.0,-0.00201416015625,0.0,1.02642822265625,26.450000762939453,0.0,0.0,8.85009765625E-4,-0.0010986328125,Waiting,0.0,0.0,1.0,0.0,0.0,0.0,0.0,0.0,
1.5726719999999914,0.0,0.0,0.0,0.0,0.0,0.0,0.0,0.125,0.783691326,0.01,-0.0012207030000004337,0.0,0.0,0.0,-0.0,0.0,0.0,0.399169881,0.01,0.0,0.0,0.0,0.0,0.0,0.0,0.0,3.236083653,0.01,0.0,0.0,0.0,0.0,-0.0,0.0,0.125,1.57470687,0.01,0.0,0.05000000074505806,-0.1599999964237213,0.0,-0.00531005859375,0.00164794921875,1.025390625,26.450000762939453,0.0,-2.0,8.85009765625E-4,-0.0010986328125,Waiting,0.0,0.0,1.0,0.0,0.0,0.0,0.0,0.0,
1.6037430000000168,0.0,0.0,0.0,0.0,0.0,0.0,0.0,0.125,0.782470623,0.01,-0.0012207030000004337,0.0,0.0,0.0,-0.0,0.0,0.0,0.399169881,0.01,0.0,0.0,0.0,0.0,0.0,0.0,0.0,3.23486295,0.01,0.0,0.0,0.0,0.0,-0.0,0.0,0.125,1.57470687,0.01,0.0012207029999995456,0.05000000074505806,-0.1599999964237213,0.0,-0.0032958984375,0.00164794921875,1.0291748046875,26.450000762939453,0.0,-1.0,8.85009765625E-4,-0.0010986328125,Waiting,0.0,0.0,1.0,0.0,0.0,0.0,0.0,0.0,
1.6351790000000037,0.0,0.0,0.0,0.0,0.0,0.0,0.0,0.125,0.782470623,0.01,0.0012207030000004337,0.0,0.0,0.0,-0.0,0.0,0.0,0.399169881,0.01,0.0,0.0,0.0,0.0,0.0,0.0,0.0,3.236083653,0.01,0.0,0.0,0.0,0.0,-0.0,0.0,0.125,1.573486167,0.01,0.0012207029999995456,0.05000000074505806,-0.1599999964237213,0.0,-0.0028076171875,-8.544921875E-4,1.026611328125,26.450000762939453,0.0,0.0,8.85009765625E-4,-0.0010986328125,Waiting,0.0,0.0,1.0,0.0,0.0,0.0,0.0,0.0,
1.6694550000000163,0.0,0.0,0.0,0.0,0.0,0.0,0.0,0.125,0.782470623,0.01,-0.0012207030000004337,0.0,0.0,0.0,-0.0,0.0,0.0,0.399169881,0.01,-0.0012207029999995456,0.0,0.0,0.0,0.0,0.0,0.0,3.23486295,0.01,0.0,0.0,0.0,0.0,-0.0,0.0,0.125,1.573486167,0.01,-0.0012207029999995456,0.05000000074505806,-0.1599999964237213,0.0,-0.002685546875,0.00115966796875,1.02862548828125,26.450000762939453,0.0,0.0,8.85009765625E-4,-0.0010986328125,Waiting,0.0,0.0,1.0,0.0,0.0,0.0,0.0,0.0,
1.7105950000000012,0.0,0.0,0.0,0.0,0.0,0.0,0.0,0.125,0.783691326,0.01,0.0,0.0,0.0,0.0,-0.0,0.0,0.0,0.40039058400000005,0.01,0.0012207029999995456,0.0,0.0,0.0,0.0,0.0,0.0,3.23486295,0.01,0.0,0.0,0.0,0.0,-0.0,0.0,0.125,1.57470687,0.01,0.0,0.05000000074505806,-0.1599999964237213,0.0,-0.00482177734375,-9.765625E-4,1.02899169921875,26.450000762939453,0.0,-1.0,8.85009765625E-4,-0.0010986328125,Waiting,0.0,0.0,1.0,0.0,0.0,0.0,0.0,0.0,
1.7464379999999946,0.0,0.0,0.0,0.0,0.0,0.0,0.0,0.125,0.783691326,0.01,0.0,0.0,0.0,0.0,-0.0,0.0,0.0,0.399169881,0.01,0.0012207029999995456,0.0,0.0,0.0,0.0,0.0,0.0,3.236083653,0.01,0.0,0.0,0.0,0.0,-0.0,0.0,0.125,1.57470687,0.01,0.0,0.05000000074505806,-0.1599999964237213,0.0,-0.00384521484375,0.001220703125,1.0250244140625,26.450000762939453,0.0,0.0,8.85009765625E-4,-0.0010986328125,Waiting,0.0,0.0,1.0,0.0,0.0,0.0,0.0,0.0,
1.7761389999999955,0.0,0.0,0.0,0.0,0.0,0.0,0.0,0.125,0.783691326,0.01,0.0,0.0,0.0,0.0,-0.0,0.0,0.0,0.399169881,0.01,-0.0012207029999995456,0.0,0.0,0.0,0.0,0.0,0.0,3.23486295,0.01,0.0,0.0,0.0,0.0,-0.0,0.0,0.125,1.57470687,0.01,0.0,0.05000000074505806,-0.1599999964237213,0.0,-0.0045166015625,4.8828125E-4,1.02923583984375,26.450000762939453,0.0,-1.0,8.85009765625E-4,-0.0010986328125,Waiting,0.0,0.0,1.0,0.0,0.0,0.0,0.0,0.0,
1.8089899999999908,0.0,0.0,0.0,0.0,0.0,0.0,0.0,0.125,0.783691326,0.01,0.0,0.0,0.0,0.0,-0.0,0.0,0.0,0.399169881,0.01,0.0012207029999995456,0.0,0.0,0.0,0.0,0.0,0.0,3.236083653,0.01,0.0,0.0,0.0,0.0,-0.0,0.0,0.125,1.57470687,0.01,0.0,0.05000000074505806,-0.1599999964237213,0.0,-0.00396728515625,0.00213623046875,1.02264404296875,26.450000762939453,0.0,-1.0,8.85009765625E-4,-0.0010986328125,Waiting,0.0,0.0,1.0,0.0,0.0,0.0,0.0,0.0,
1.8433040000000038,0.0,0.0,0.0,0.0,0.0,0.0,0.0,0.125,0.782470623,0.01,0.0,0.0,0.0,0.0,-0.0,0.0,0.0,0.40039058400000005,0.01,0.0012207029999995456,0.0,0.0,0.0,0.0,0.0,0.0,3.232421544,0.01,0.0,0.0,0.0,0.0,-0.0,0.0,0.125,1.573486167,0.01,0.0,0.05000000074505806,-0.1599999964237213,0.0,-0.0032958984375,0.00274658203125,1.0252685546875,26.450000762939453,0.0,0.0,8.85009765625E-4,-0.0010986328125,Waiting,0.0,0.0,1.0,0.0,0.0,0.0,0.0,0.0,
1.8740780000000086,0.0,0.0,0.0,0.0,0.0,0.0,0.0,0.125,0.783691326,0.01,0.0,0.0,0.0,0.0,-0.0,0.0,0.0,0.399169881,0.01,-0.0012207029999995456,0.0,0.0,0.0,0.0,0.0,0.0,3.23486295,0.01,0.0,0.0,0.0,0.0,-0.0,0.0,0.125,1.57470687,0.01,0.0,0.05000000074505806,-0.1599999964237213,0.0,1.8310546875E-4,0.00115966796875,1.02337646484375,26.450000762939453,0.0,3.0,8.85009765625E-4,-0.0010986328125,Waiting,0.0,0.0,1.0,0.0,0.0,0.0,0.0,0.0,
1.9075890000000073,0.0,0.0,0.0,0.0,0.0,0.0,0.0,0.125,0.780029217,0.01,0.0,0.0,0.0,0.0,-0.0,0.0,0.0,0.399169881,0.01,0.0,0.0,0.0,0.0,0.0,0.0,0.0,3.23486295,0.01,0.0,0.0,0.0,0.0,-0.0,0.0,0.125,1.57470687,0.01,0.0012207029999995456,0.05000000074505806,-0.1599999964237213,0.0,-0.00164794921875,2.44140625E-4,1.03387451171875,26.440000534057617,0.0,1.0,8.85009765625E-4,-0.0010986328125,Waiting,0.0,0.0,1.0,0.0,0.0,0.0,0.0,0.0,
1.937578999999998,0.0,0.0,0.0,0.0,0.0,0.0,0.0,0.125,0.783691326,0.01,0.0,0.0,0.0,0.0,-0.0,0.0,0.0,0.39550777200000004,0.01,0.0,0.0,0.0,0.0,0.0,0.0,0.0,3.236083653,0.01,0.0,0.0,0.0,0.0,-0.0,0.0,0.125,1.57470687,0.01,0.0012207029999995456,0.05000000074505806,-0.1599999964237213,0.0,-0.00311279296875,0.00347900390625,1.02215576171875,26.440000534057617,0.0,0.0,8.85009765625E-4,-0.0010986328125,Waiting,0.0,0.0,1.0,0.0,0.0,0.0,0.0,0.0,
1.9760560000000114,0.0,0.0,0.0,0.0,0.0,0.0,0.0,0.125,0.783691326,0.01,0.0,0.0,0.0,0.0,-0.0,0.0,0.0,0.399169881,0.01,0.0012207029999995456,0.0,0.0,0.0,0.0,0.0,0.0,3.23486295,0.01,0.0,0.0,0.0,0.0,-0.0,0.0,0.125,1.573486167,0.01,-0.0012207029999995456,0.05000000074505806,-0.1599999964237213,0.0,-0.00164794921875,0.0042724609375,1.027587890625,26.440000534057617,0.0,1.0,8.85009765625E-4,-0.0010986328125,Waiting,0.0,0.0,1.0,0.0,0.0,0.0,0.0,0.0,
2.008443999999989,0.0,0.0,0.0,0.0,0.0,0.0,0.0,0.125,0.782470623,0.01,0.0,0.0,0.0,0.0,-0.0,0.0,0.0,0.399169881,0.01,-0.0012207029999995456,0.0,0.0,0.0,0.0,0.0,0.0,3.23486295,0.01,0.0,0.0,0.0,0.0,-0.0,0.0,0.125,1.57470687,0.01,0.0012207029999995456,0.05000000074505806,-0.1599999964237213,0.0,-0.00262451171875,0.00103759765625,1.02789306640625,26.440000534057617,0.0,0.0,8.85009765625E-4,-0.0010986328125,Waiting,0.0,0.0,1.0,0.0,0.0,0.0,0.0,0.0,
2.037701000000001,0.0,0.0,0.0,0.0,0.0,0.0,0.0,0.125,0.782470623,0.01,0.0,0.0,0.0,0.0,-0.0,0.0,0.0,0.40283199000000003,0.01,-0.0012207029999995456,0.0,0.0,0.0,0.0,0.0,0.0,3.23486295,0.01,0.0,0.0,0.0,0.0,-0.0,0.0,0.125,1.57470687,0.01,0.0012207029999995456,0.05000000074505806,-0.1599999964237213,0.0,-0.00128173828125,0.00225830078125,1.02508544921875,26.440000534057617,0.0,1.0,8.85009765625E-4,-0.0010986328125,Waiting,0.0,0.0,1.0,0.0,0.0,0.0,0.0,0.0,
2.069861999999994,0.0,0.0,0.0,0.0,0.0,0.0,0.0,0.125,0.783691326,0.01,0.0,0.0,0.0,0.0,-0.0,0.0,0.0,0.399169881,0.01,0.0012207029999995456,0.0,0.0,0.0,0.0,0.0,0.0,3.236083653,0.01,0.0,0.0,0.0,0.0,-0.0,0.0,0.125,1.57470687,0.01,-0.0012207029999995456,0.05000000074505806,-0.1599999964237213,0.0,-0.002197265625,0.003173828125,1.03314208984375,26.440000534057617,0.0,0.0,8.85009765625E-4,-0.0010986328125,Waiting,0.0,0.0,1.0,0.0,0.0,0.0,0.0,0.0,
2.1035769999999903,0.0,0.0,0.0,0.0,0.0,0.0,0.0,0.125,0.782470623,0.01,0.0,0.0,0.0,0.0,-0.0,0.0,0.0,0.399169881,0.01,0.0012207029999995456,0.0,0.0,0.0,0.0,0.0,0.0,3.23486295,0.01,0.0,0.0,0.0,0.0,-0.0,0.0,0.125,1.573486167,0.01,0.0012207029999995456,0.05000000074505806,-0.1599999964237213,0.0,-0.00201416015625,0.00311279296875,1.0279541015625,26.440000534057617,0.0,0.0,8.85009765625E-4,-0.0010986328125,Waiting,0.0,0.0,1.0,0.0,0.0,0.0,0.0,0.0,
2.1337119999999996,0.0,0.0,0.0,0.0,0.0,0.0,0.0,0.125,0.783691326,0.01,0.0,0.0,0.0,0.0,-0.0,0.0,0.0,0.40039058400000005,0.01,-0.0012207029999995456,0.0,0.0,0.0,0.0,0.0,0.0,3.23486295,0.01,0.0,0.0,0.0,0.0,-0.0,0.0,0.125,1.571044761,0.01,0.0012207029999995456,0.05000000074505806,-0.1599999964237213,0.0,-0.00421142578125,0.00238037109375,1.02587890625,26.440000534057617,0.0,-1.0,8.85009765625E-4,-0.0010986328125,Waiting,0.0,0.0,1.0,0.0,0.0,0.0,0.0,0.0,
2.1665830000000135,0.0,0.0,0.0,0.0,0.0,0.0,0.0,0.125,0.783691326,0.01,0.0,0.0,0.0,0.0,-0.0,0.0,0.0,0.396728475,0.01,0.0012207029999995456,0.0,0.0,0.0,0.0,0.0,0.0,3.231200841,0.01,0.0,0.0,0.0,0.0,-0.0,0.0,0.125,1.57470687,0.01,-0.0012207029999995456,0.05000000074505806,-0.1599999964237213,0.0,-0.00335693359375,3.662109375E-4,1.0286865234375,26.440000534057617,0.0,0.0,8.85009765625E-4,-0.0010986328125,Waiting,0.0,0.0,1.0,0.0,0.0,0.0,0.0,0.0,
2.1954640000000074,0.0,0.0,0.0,0.0,0.0,0.0,0.0,0.125,0.7763671080000001,0.01,0.0,0.0,0.0,0.0,-0.0,0.0,0.0,0.399169881,0.01,0.0012207029999995456,0.0,0.0,0.0,0.0,0.0,0.0,3.236083653,0.01,0.0,0.0,0.0,0.0,-0.0,0.0,0.125,1.57470687,0.01,-0.0012207029999995456,0.05000000074505806,-0.1599999964237213,0.0,-0.0028076171875,3.0517578125E-4,1.02801513671875,26.440000534057617,0.0,0.0,8.85009765625E-4,-0.0010986328125,Waiting,0.0,0.0,1.0,0.0,0.0,0.0,0.0,0.0,
2.229222999999998,0.0,0.0,0.0,0.0,0.0,0.0,0.0,0.125,0.782470623,0.01,0.0,0.0,0.0,0.0,-0.0,0.0,0.0,0.399169881,0.01,0.0,0.0,0.0,0.0,0.0,0.0,0.0,3.236083653,0.01,0.0,0.0,0.0,0.0,-0.0,0.0,0.125,1.57470687,0.01,0.0,0.05000000074505806,-0.1599999964237213,0.0,-0.00244140625,0.00347900390625,1.02789306640625,26.440000534057617,0.0,0.0,8.85009765625E-4,-0.0010986328125,Waiting,0.0,0.0,1.0,0.0,0.0,0.0,0.0,0.0,
2.255594000000012,0.0,0.0,0.0,0.0,0.0,0.0,0.0,0.125,0.783691326,0.01,0.0,0.0,0.0,0.0,-0.0,0.0,0.0,0.399169881,0.01,0.0,0.0,0.0,0.0,0.0,0.0,0.0,3.238525059,0.01,0.0,0.0,0.0,0.0,-0.0,0.0,0.125,1.57470687,0.01,0.0,0.05000000074505806,-0.1599999964237213,0.0,-0.0029296875,0.001953125,1.02587890625,26.440000534057617,0.0,0.0,8.85009765625E-4,-0.0010986328125,Waiting,0.0,0.0,1.0,0.0,0.0,0.0,0.0,0.0,
2.2898889999999956,0.0,0.0,0.0,0.0,0.0,0.0,0.0,0.125,0.78124992,0.01,0.0,0.0,0.0,0.0,-0.0,0.0,0.0,0.399169881,0.01,0.0,0.0,0.0,0.0,0.0,0.0,0.0,3.236083653,0.01,0.0,0.0,0.0,0.0,-0.0,0.0,0.125,1.572265464,0.01,0.0,0.05000000074505806,-0.1599999964237213,0.0,-0.00408935546875,-0.0013427734375,1.0255126953125,26.440000534057617,0.0,-1.0,8.85009765625E-4,-0.0010986328125,Waiting,0.0,0.0,1.0,0.0,0.0,0.0,0.0,0.0,
2.31607699999999,0.0,0.0,0.0,0.0,0.0,0.0,0.0,0.125,0.780029217,0.01,0.0,0.0,0.0,0.0,-0.0,0.0,0.0,0.399169881,0.01,0.0,0.0,0.0,0.0,0.0,0.0,0.0,3.236083653,0.01,0.0,0.0,0.0,0.0,-0.0,0.0,0.125,1.57470687,0.01,0.0,0.05000000074505806,-0.1599999964237213,0.0,-0.0042724609375,-4.8828125E-4,1.0263671875,26.440000534057617,0.0,-1.0,8.85009765625E-4,-0.0010986328125,Waiting,0.0,0.0,1.0,0.0,0.0,0.0,0.0,0.0,
2.350361999999994,0.0,0.0,0.0,0.0,0.0,0.0,0.0,0.125,0.782470623,0.01,0.0,0.0,0.0,0.0,-0.0,0.0,0.0,0.399169881,0.01,0.0,0.0,0.0,0.0,0.0,0.0,0.0,3.236083653,0.01,0.0,0.0,0.0,0.0,-0.0,0.0,0.125,1.57470687,0.01,0.0,0.05000000074505806,-0.1599999964237213,0.0,-0.00189208984375,0.00225830078125,1.02978515625,26.440000534057617,0.0,0.0,8.85009765625E-4,-0.0010986328125,Waiting,0.0,0.0,1.0,0.0,0.0,0.0,0.0,0.0,
2.3836780000000144,0.0,0.0,0.0,0.0,0.0,0.0,0.0,0.125,0.783691326,0.01,0.0012207030000004337,0.0,0.0,0.0,-0.0,0.0,0.0,0.399169881,0.01,-0.0012207029999995456,0.0,0.0,0.0,0.0,0.0,0.0,3.236083653,0.01,0.0,0.0,0.0,0.0,-0.0,0.0,0.125,1.573486167,0.01,0.0,0.05000000074505806,-0.1599999964237213,0.0,-0.001220703125,-0.001708984375,1.021728515625,26.459999084472656,0.0,1.0,8.85009765625E-4,-0.0010986328125,Waiting,0.0,0.0,1.0,0.0,0.0,0.0,0.0,0.0,
2.4110290000000094,0.0,0.0,0.0,0.0,0.0,0.0,0.0,0.125,0.782470623,0.01,-0.0012207030000004337,0.0,0.0,0.0,-0.0,0.0,0.0,0.396728475,0.01,0.0012207029999995456,0.0,0.0,0.0,0.0,0.0,0.0,3.236083653,0.01,0.0,0.0,0.0,0.0,-0.0,0.0,0.125,1.57470687,0.01,0.0012207029999995456,0.05000000074505806,-0.1599999964237213,0.0,-0.002685546875,6.7138671875E-4,1.0252685546875,26.459999084472656,0.0,0.0,8.85009765625E-4,-0.0010986328125,Waiting,0.0,0.0,1.0,0.0,0.0,0.0,0.0,0.0,
2.4426059999999996,0.0,0.0,0.0,0.0,0.0,0.0,0.0,0.125,0.78124992,0.01,-0.0012207030000004337,0.0,0.0,0.0,-0.0,0.0,0.0,0.40039058400000005,0.01,0.0012207029999995456,0.0,0.0,0.0,0.0,0.0,0.0,3.236083653,0.01,0.0,0.0,0.0,0.0,-0.0,0.0,0.125,1.572265464,0.01,0.0012207029999995456,0.05000000074505806,-0.1599999964237213,0.0,-0.00115966796875,5.4931640625E-4,1.0294189453125,26.459999084472656,0.0,1.0,8.85009765625E-4,-0.0010986328125,Waiting,0.0,0.0,1.0,0.0,0.0,0.0,0.0,0.0,
2.46930799999999,0.0,0.0,0.0,0.0,0.0,0.0,0.0,0.125,0.782470623,0.01,0.0,0.0,0.0,0.0,-0.0,0.0,0.0,0.399169881,0.01,0.0,0.0,0.0,0.0,0.0,0.0,0.0,3.236083653,0.01,0.0,0.0,0.0,0.0,-0.0,0.0,0.125,1.57470687,0.01,-0.0012207029999995456,0.05000000074505806,-0.15000000596046448,0.0,-4.2724609375E-4,5.4931640625E-4,1.02239990234375,26.459999084472656,0.0,2.0,8.85009765625E-4,-0.0010986328125,Waiting,0.0,0.0,1.0,0.0,0.0,0.0,0.0,0.0,
2.501113000000012,0.0,0.0,0.0,0.0,0.0,0.0,0.0,0.125,0.783691326,0.01,0.0,0.0,0.0,0.0,-0.0,0.0,0.0,0.397949178,0.01,0.0,0.0,0.0,0.0,0.0,0.0,0.0,3.236083653,0.01,0.0,0.0,0.0,0.0,-0.0,0.0,0.125,1.57470687,0.01,0.0,0.05000000074505806,-0.15000000596046448,0.0,-0.001708984375,1.220703125E-4,1.02423095703125,26.459999084472656,0.0,1.0,8.85009765625E-4,-0.0010986328125,Waiting,0.0,0.0,1.0,0.0,0.0,0.0,0.0,0.0,
2.5314109999999928,0.0,0.0,0.0,0.0,0.0,0.0,0.0,0.125,0.783691326,0.01,0.0,0.0,0.0,0.0,-0.0,0.0,0.0,0.399169881,0.01,0.0,0.0,0.0,0.0,0.0,0.0,0.0,3.236083653,0.01,0.0,0.0,0.0,0.0,-0.0,0.0,0.125,1.57470687,0.01,0.0,0.05000000074505806,-0.15000000596046448,0.0,-0.0047607421875,0.00103759765625,1.02496337890625,26.459999084472656,0.0,-2.0,8.85009765625E-4,-0.0010986328125,Waiting,0.0,0.0,1.0,0.0,0.0,0.0,0.0,0.0,
2.561494000000006,0.0,0.0,0.0,0.0,0.0,0.0,0.0,0.125,0.782470623,0.01,0.0,0.0,0.0,0.0,-0.0,0.0,0.0,0.399169881,0.01,0.0,0.0,0.0,0.0,0.0,0.0,0.0,3.23486295,0.01,0.0,0.0,0.0,0.0,-0.0,0.0,0.125,1.57470687,0.01,0.0012207029999995456,0.05000000074505806,-0.15000000596046448,0.0,-0.00531005859375,0.00115966796875,1.0216064453125,26.459999084472656,0.0,-2.0,8.85009765625E-4,-0.0010986328125,Waiting,0.0,0.0,1.0,0.0,0.0,0.0,0.0,0.0,
2.5927119999999997,0.0,0.0,0.0,0.0,0.0,0.0,0.0,0.125,0.783691326,0.01,0.0,0.0,0.0,0.0,-0.0,0.0,0.0,0.399169881,0.01,0.0,0.0,0.0,0.0,0.0,0.0,0.0,3.236083653,0.01,0.0,0.0,0.0,0.0,-0.0,0.0,0.125,1.57470687,0.01,0.0012207029999995456,0.05000000074505806,-0.15000000596046448,0.0,-0.00177001953125,0.0023193359375,1.0263671875,26.459999084472656,0.0,0.0,8.85009765625E-4,-0.0010986328125,Waiting,0.0,0.0,1.0,0.0,0.0,0.0,0.0,0.0,
2.620407999999996,0.0,0.0,0.0,0.0,0.0,0.0,0.0,0.125,0.782470623,0.01,0.0,0.0,0.0,0.0,-0.0,0.0,0.0,0.40039058400000005,0.01,0.0,0.0,0.0,0.0,0.0,0.0,0.0,3.23486295,0.01,0.0,0.0,0.0,0.0,-0.0,0.0,0.125,1.57470687,0.01,-0.0012207029999995456,0.05000000074505806,-0.15000000596046448,0.0,-0.00390625,0.0,1.02606201171875,26.459999084472656,0.0,-1.0,8.85009765625E-4,-0.0010986328125,Waiting,0.0,0.0,1.0,0.0,0.0,0.0,0.0,0.0,
2.652238000000012,0.0,0.0,0.0,0.0,0.0,0.0,0.0,0.125,0.76904289,0.01,0.0,0.0,0.0,0.0,-0.0,0.0,0.0,0.399169881,0.01,0.0,0.0,0.0,0.0,0.0,0.0,0.0,3.236083653,0.01,0.0,0.0,0.0,0.0,-0.0,0.0,0.125,1.5759275730000002,0.01,0.0,0.05000000074505806,-0.15000000596046448,0.0,-0.00445556640625,-3.0517578125E-4,1.02740478515625,26.459999084472656,0.0,-1.0,8.85009765625E-4,-0.0010986328125,Waiting,0.0,0.0,1.0,0.0,0.0,0.0,0.0,0.0,
2.686406000000017,0.0,0.0,0.0,0.0,0.0,0.0,0.0,0.125,0.782470623,0.01,0.0012207030000004337,0.0,0.0,0.0,-0.0,0.0,0.0,0.397949178,0.01,0.0,0.0,0.0,0.0,0.0,0.0,0.0,3.23486295,0.01,0.0,0.0,0.0,0.0,-0.0,0.0,0.125,1.57470687,0.01,0.0,0.05000000074505806,-0.15000000596046448,0.0,-0.00286865234375,6.7138671875E-4,1.0267333984375,26.459999084472656,0.0,0.0,8.85009765625E-4,-0.0010986328125,Waiting,0.0,0.0,1.0,0.0,0.0,0.0,0.0,0.0,
2.7127200000000014,0.0,0.0,0.0,0.0,0.0,0.0,0.0,0.125,0.783691326,0.01,-0.0012207030000004337,0.0,0.0,0.0,-0.0,0.0,0.0,0.399169881,0.01,0.0,0.0,0.0,0.0,0.0,0.0,0.0,3.236083653,0.01,0.0,0.0,0.0,0.0,-0.0,0.0,0.125,1.57470687,0.01,0.0012207029999995456,0.05000000074505806,-0.15000000596046448,0.0,-0.00286865234375,-3.0517578125E-4,1.02630615234375,26.459999084472656,0.0,0.0,8.85009765625E-4,-0.0010986328125,Waiting,-1.9328445747800587,0.125,1.0,0.0,0.0,-100.0,0.0,0.0,
2.746747999999992,0.0,0.0,0.0,0.0,0.0,0.0,0.0,0.125,0.782470623,0.01,-0.0012207030000004337,0.0,0.0,0.0,-0.0,0.0,0.0,0.399169881,0.01,0.0,0.0,0.0,0.0,0.0,0.0,0.0,3.23486295,0.01,0.0,0.0,0.0,0.0,-0.0,0.0,0.125,1.57470687,0.01,0.0012207029999995456,0.05000000074505806,-0.15000000596046448,0.0,-3.662109375E-4,0.0018310546875,1.025634765625,26.459999084472656,0.0,2.0,8.85009765625E-4,-0.0010986328125,Waiting,-1.9785923753665688,0.875,1.0,0.0,0.0,-100.0,0.0,0.0,
2.7780130000000063,0.0,0.0,0.0,0.0,0.0,0.0,0.0,0.125,0.783691326,0.01,0.0,0.0,0.0,0.0,-0.0,0.0,0.0,0.399169881,0.01,0.0,0.0,0.0,0.0,0.0,0.0,0.0,3.23486295,0.01,0.0,0.0,0.0,0.0,-0.0,0.0,0.125,1.57470687,0.01,-0.0012207029999995456,0.05000000074505806,-0.14000000059604645,0.0,-0.00286865234375,0.001708984375,1.02978515625,26.459999084472656,0.0,0.0,8.85009765625E-4,-0.0010986328125,Waiting,-1.9956989247311832,1.5,0.0,0.0,0.0,-100.0,0.0,0.0,
2.8087090000000026,0.0,0.0,0.0,0.0,0.0,0.0,0.0,0.125,0.782470623,0.01,0.0,0.0,0.0,0.0,-0.0,0.0,0.0,0.397949178,0.01,0.0,0.0,0.0,0.0,0.0,0.0,0.0,3.236083653,0.01,0.0,0.0,0.0,0.0,-0.0,0.0,0.125,1.57470687,0.01,0.0,0.05000000074505806,-0.14000000059604645,0.0,-0.00213623046875,0.00152587890625,1.02728271484375,26.459999084472656,0.0,0.0,8.85009765625E-4,-0.0010986328125,Waiting,-1.8823069403714567,1.5,0.0,0.0,-7.5,-100.0,0.0,0.0,
2.838945000000007,0.0,0.0,0.0,0.0,0.0,0.0,0.0,0.125,0.783691326,0.01,0.0012207030000004337,0.0,0.0,0.0,-0.0,0.0,0.0,0.399169881,0.01,0.0,0.0,0.0,0.0,0.0,0.0,0.0,3.23486295,0.01,0.0,0.0,0.0,0.0,-0.0,0.0,0.125,1.57470687,0.01,0.0,0.05000000074505806,-0.14000000059604645,0.0,6.103515625E-5,0.0028076171875,1.0284423828125,26.459999084472656,0.0,2.0,8.85009765625E-4,-0.0010986328125,Waiting,-1.780254154447703,1.625,0.0,0.0,-15.0,-100.0,0.0,0.0,
2.869122999999992,0.0,0.0,0.0,0.0,0.0,0.0,0.0,0.125,0.784912029,0.01,-0.0012207030000004337,0.0,0.0,0.0,-0.0,0.0,0.0,0.399169881,0.01,0.0,0.0,0.0,0.0,0.0,0.0,0.0,3.236083653,0.01,0.0,0.0,0.0,0.0,-0.0,0.0,0.125,1.5759275730000002,0.01,0.0,0.05000000074505806,-0.14000000059604645,0.0,0.00830078125,0.00836181640625,1.0277099609375,26.459999084472656,0.0,10.0,8.85009765625E-4,-0.0010986328125,Waiting,-1.7915933528836756,1.375,0.0,0.0,-15.0,-100.0,0.0,0.0,
2.9015540000000035,0.0,0.0,0.0,0.0,0.0,0.0,0.0,0.125,0.783691326,0.01,-0.0012207030000004337,0.0,0.0,0.0,-0.0,0.0,0.0,0.399169881,0.01,0.0,0.0,0.0,0.0,0.0,0.0,0.0,3.23486295,0.01,0.0,0.0,0.0,0.0,-0.0,0.0,0.125,1.57470687,0.01,0.0,0.05000000074505806,-0.14000000059604645,0.0,-0.00604248046875,-0.00469970703125,1.0281982421875,26.479999542236328,0.0,-3.0,8.85009765625E-4,-0.0010986328125,Waiting,0.0,0.5,-4.0,-3.0,-22.5,0.0,0.0,0.0,
2.9320009999999894,0.0,0.0,0.0,0.0,0.0,0.0,0.0,0.125,0.782470623,0.01,0.0,0.0,0.0,0.0,-0.0,0.0,0.0,0.397949178,0.01,-0.0012207029999995456,0.0,0.0,0.0,0.0,0.0,0.0,3.23486295,0.01,0.0,0.0,0.0,0.0,-0.0,0.0,0.125,1.57470687,0.01,0.0,0.05000000074505806,-0.14000000059604645,0.0,-0.0023193359375,0.0050048828125,1.0186767578125,26.479999542236328,0.0,0.0,8.85009765625E-4,-0.0010986328125,Waiting,0.0,0.25,-4.0,-3.0,-22.5,0.0,0.0,0.0,
2.9607090000000027,0.0,0.0,0.0,0.0,0.0,0.0,0.0,0.125,0.76904289,0.01,0.0,0.0,0.0,0.0,-0.0,0.0,0.0,0.399169881,0.01,0.0012207029999995456,0.0,0.0,0.0,0.0,0.0,0.0,3.23486295,0.01,0.0,0.0,0.0,0.0,-0.0,0.0,0.125,1.573486167,0.01,0.0,0.05000000074505806,-0.14000000059604645,0.0,-0.00341796875,4.8828125E-4,1.02398681640625,26.479999542236328,0.0,0.0,8.85009765625E-4,-0.0010986328125,Waiting,0.0,0.0,-4.0,-3.0,-22.5,0.0,0.0,0.0,
2.9931309999999938,0.0,0.0,0.0,0.0,0.0,0.0,0.0,0.125,0.783691326,0.01,0.0,0.0,0.0,0.0,-0.0,0.0,0.0,0.397949178,0.01,0.0012207029999995456,0.0,0.0,0.0,0.0,0.0,0.0,3.236083653,0.01,0.0,0.0,0.0,0.0,-0.0,0.0,0.125,1.57470687,0.01,0.0,0.05000000074505806,-0.14000000059604645,0.0,-0.0023193359375,-9.765625E-4,1.0240478515625,26.479999542236328,0.0,0.0,8.85009765625E-4,-0.0010986328125,Waiting,0.0,0.0,-4.0,-3.0,-15.0,0.0,0.0,0.0,
3.0293390000000073,0.0,0.0,0.0,0.0,0.0,0.0,0.0,0.125,0.782470623,0.01,0.0,0.0,0.0,0.0,-0.0,0.0,0.0,0.399169881,0.01,0.0,0.0,0.0,0.0,0.0,0.0,0.0,3.233642247,0.01,0.0,0.0,0.0,0.0,-0.0,0.0,0.125,1.573486167,0.01,0.0012207029999995456,0.05000000074505806,-0.12999999523162842,-0.009999999776482582,-0.00335693359375,7.9345703125E-4,1.02496337890625,26.479999542236328,0.0,0.0,8.85009765625E-4,-0.0010986328125,Waiting,0.0,0.0,-5.0,-1.0,0.0,0.0,0.0,0.0,
3.0546600000000037,0.0,0.0,0.0,0.0,0.0,0.0,0.0,0.125,0.782470623,0.01,0.0,0.0,0.0,0.0,-0.0,0.0,0.0,0.399169881,0.01,0.0,0.0,0.0,0.0,0.0,0.0,0.0,3.236083653,0.01,0.0,0.0,0.0,0.0,-0.0,0.0,0.125,1.57470687,0.01,-0.0012207029999995456,0.05000000074505806,-0.12999999523162842,-0.009999999776482582,-0.0020751953125,-8.544921875E-4,1.028564453125,26.479999542236328,0.0,0.0,8.85009765625E-4,-0.0010986328125,Waiting,0.0,0.0,-5.0,-1.0,0.0,0.0,0.0,0.0,
3.088157999999996,0.0,0.0,0.0,0.0,0.0,0.0,0.0,0.125,0.783691326,0.01,0.0,0.0,0.0,0.0,-0.0,0.0,0.0,0.399169881,0.01,0.0,0.0,0.0,0.0,0.0,0.0,0.0,3.23486295,0.01,0.0,0.0,0.0,0.0,-0.0,0.0,0.125,1.573486167,0.01,-0.0012207029999995456,0.05000000074505806,-0.12999999523162842,-0.009999999776482582,-0.00299072265625,0.00628662109375,1.0201416015625,26.479999542236328,0.0,0.0,8.85009765625E-4,-0.0010986328125,Waiting,0.0,0.0,-5.0,-1.0,0.0,0.0,0.0,0.0,
3.114671000000002,0.0,0.0,0.0,0.0,0.0,0.0,0.0,0.125,0.783691326,0.01,0.0,0.0,0.0,0.0,-0.0,0.0,0.0,0.399169881,0.01,0.0,0.0,0.0,0.0,0.0,0.0,0.0,3.236083653,0.01,0.0,0.0,0.0,0.0,-0.0,0.0,0.125,1.57470687,0.01,0.0012207029999995456,0.05000000074505806,-0.14000000059604645,-0.009999999776482582,-0.00494384765625,-0.002685546875,1.026611328125,26.479999542236328,0.0,-2.0,8.85009765625E-4,-0.0010986328125,Waiting,0.0,0.0,-5.0,1.0,0.0,0.0,0.0,0.0,
3.1495430000000053,0.0,0.0,0.0,0.0,0.0,0.0,0.0,0.125,0.782470623,0.01,0.0,0.0,0.0,0.0,-0.0,0.0,0.0,0.399169881,0.01,0.0,0.0,0.0,0.0,0.0,0.0,0.0,3.23486295,0.01,0.0,0.0,0.0,0.0,-0.0,0.0,0.125,1.57470687,0.01,0.0012207029999995456,0.05000000074505806,-0.14000000059604645,-0.009999999776482582,-0.00372314453125,-0.0020751953125,1.02471923828125,26.479999542236328,0.0,-1.0,8.85009765625E-4,-0.0010986328125,Waiting,-2.081524926686217,0.0,-4.0,1.0,7.5,-100.0,0.0,0.0,
3.1845230000000155,0.0,0.0,0.0,0.0,0.0,0.0,0.0,0.125,0.787353435,0.01,0.0,0.0,0.0,0.0,-0.0,0.0,0.0,0.40039058400000005,0.01,0.0,0.0,0.0,0.0,0.0,0.0,0.0,3.236083653,0.01,0.0,0.0,0.0,0.0,-0.0,0.0,0.125,1.57470687,0.01,0.0,0.05000000074505806,-0.14000000059604645,-0.009999999776482582,-0.00555419921875,0.00384521484375,1.023681640625,26.479999542236328,0.0,-2.0,8.85009765625E-4,-0.0010986328125,Waiting,-1.9785923753665688,1.125,-4.0,1.0,0.0,-100.0,0.0,0.0,
3.215758999999991,0.0,0.0,0.0,0.0,0.0,0.0,0.0,0.125,0.782470623,0.01,0.0,0.0,0.0,0.0,-0.0,0.0,0.0,0.397949178,0.01,0.0,0.0,0.0,0.0,0.0,0.0,0.0,3.236083653,0.01,0.0,0.0,0.0,0.0,-0.0,0.0,0.125,1.57470687,0.01,0.0,0.05000000074505806,-0.14000000059604645,-0.009999999776482582,-0.00146484375,0.0020751953125,1.02569580078125,26.479999542236328,0.0,1.0,8.85009765625E-4,-0.0010986328125,Waiting,-2.0129032258064514,1.5,-4.0,1.0,0.0,-100.0,0.0,0.0,
3.2502639999999956,0.0,0.0,0.0,0.0,0.0,0.0,0.0,0.125,0.783691326,0.01,0.0,0.0,0.0,0.0,-0.0,0.0,0.0,0.399169881,0.01,0.0,0.0,0.0,0.0,0.0,0.0,0.0,3.23486295,0.01,0.0,0.0,0.0,0.0,-0.0,0.0,0.125,1.57470687,0.01,0.0,0.05000000074505806,-0.14000000059604645,-0.009999999776482582,-0.00189208984375,9.1552734375E-4,1.027099609375,26.479999542236328,0.0,0.0,8.85009765625E-4,-0.0010986328125,Waiting,-1.8936461388074295,1.375,-6.0,0.0,0.0,-100.0,0.0,0.0,
3.2826149999999905,0.0,0.0,0.0,0.0,0.0,0.0,0.0,0.125,0.783691326,0.01,0.0,0.0,0.0,0.0,-0.0,0.0,0.0,0.399169881,0.01,0.0,0.0,0.0,0.0,0.0,0.0,0.0,3.23486295,0.01,0.0,0.0,0.0,0.0,-0.0,0.0,0.125,1.5771482760000002,0.01,-0.0012207029999995456,0.05000000074505806,-0.14000000059604645,-0.009999999776482582,-0.0023193359375,-8.544921875E-4,1.024658203125,26.479999542236328,0.0,0.0,8.85009765625E-4,-0.0010986328125,Waiting,-1.9276637341153473,1.375,-6.0,0.0,-7.5,-100.0,0.0,0.0,
3.3117280000000027,0.0,0.0,0.0,0.0,0.0,0.0,0.0,0.125,0.782470623,0.01,0.0,0.0,0.0,0.0,-0.0,0.0,0.0,0.399169881,0.01,0.0,0.0,0.0,0.0,0.0,0.0,0.0,3.236083653,0.01,0.0,0.0,0.0,0.0,-0.0,0.0,0.125,1.57470687,0.01,0.0,0.05000000074505806,-0.14000000059604645,-0.009999999776482582,-0.00506591796875,-6.103515625E-5,1.02520751953125,26.479999542236328,0.0,-2.0,8.85009765625E-4,-0.0010986328125,Waiting,-1.8142717497556209,1.25,-6.0,0.0,-15.0,-100.0,0.0,0.0,
3.344673999999999,0.0,0.0,0.0,0.0,0.0,0.0,0.0,0.125,0.783691326,0.01,0.0,0.0,0.0,0.0,-0.0,0.0,0.0,0.399169881,0.01,0.0,0.0,0.0,0.0,0.0,0.0,0.0,3.236083653,0.01,0.0,0.0,0.0,0.0,-0.0,0.0,0.125,1.57470687,0.01,0.0,0.05000000074505806,-0.14000000059604645,-0.009999999776482582,-0.001708984375,2.44140625E-4,1.038330078125,26.479999542236328,0.0,0.0,8.85009765625E-4,-0.0010986328125,Waiting,-1.8482893450635387,1.125,-6.0,0.0,-15.0,-100.0,0.0,0.0,
3.3724789999999922,0.0,0.0,0.0,0.0,0.0,0.0,0.0,0.125,0.782470623,0.01,0.0,0.0,0.0,0.0,-0.0,0.0,0.0,0.399169881,0.01,0.0,0.0,0.0,0.0,0.0,0.0,0.0,3.236083653,0.01,0.0,0.0,0.0,0.0,-0.0,0.0,0.125,1.573486167,0.01,0.0,0.05000000074505806,-0.14000000059604645,-0.009999999776482582,-0.0030517578125,-6.103515625E-4,1.02777099609375,26.479999542236328,0.0,0.0,8.85009765625E-4,-0.0010986328125,Waiting,-1.72355816226784,0.75,-10.0,-3.0,-22.5,-100.0,0.0,0.0,
3.4079409999999917,0.0,0.0,0.0,0.0,0.0,0.0,0.0,0.125,0.78124992,0.01,0.0,0.0,0.0,0.0,-0.0,0.0,0.0,0.40039058400000005,0.01,0.0,0.0,0.0,0.0,0.0,0.0,0.0,3.236083653,0.01,0.0,0.0,0.0,0.0,-0.0,0.0,0.125,1.57470687,0.01,0.0,0.05000000074505806,-0.14000000059604645,-0.009999999776482582,-0.0023193359375,-0.00115966796875,1.02252197265625,26.469999313354492,0.0,0.0,8.85009765625E-4,-0.0010986328125,Waiting,-1.7462365591397853,1.25,-10.0,-3.0,-22.5,-100.0,0.0,0.0,
3.43675,0.0,0.0,0.0,0.0,0.0,0.0,0.0,0.125,0.782470623,0.01,0.0,0.0,0.0,0.0,-0.0,0.0,0.0,0.40039058400000005,0.01,0.0,0.0,0.0,0.0,0.0,0.0,0.0,3.231200841,0.01,0.0,0.0,0.0,0.0,-0.0,0.0,0.125,1.57470687,0.01,0.0,0.05000000074505806,-0.14000000059604645,-0.009999999776482582,-0.00262451171875,4.8828125E-4,1.02484130859375,26.469999313354492,0.0,0.0,8.85009765625E-4,-0.0010986328125,Waiting,-1.780254154447703,1.125,-10.0,-3.0,-22.5,-100.0,0.0,0.0,
3.4662490000000106,0.0,0.0,0.0,0.0,0.0,0.0,0.0,0.125,0.783691326,0.01,0.0012207030000004337,0.0,0.0,0.0,-0.0,0.0,0.0,0.399169881,0.01,0.0,0.0,0.0,0.0,0.0,0.0,0.0,3.23486295,0.01,0.0,0.0,0.0,0.0,-0.0,0.0,0.125,1.57470687,0.01,0.0,0.05000000074505806,-0.14000000059604645,-0.009999999776482582,-0.00274658203125,9.765625E-4,1.02337646484375,26.469999313354492,0.0,0.0,8.85009765625E-4,-0.0010986328125,Waiting,-1.8029325513196484,0.875,-10.0,-3.0,-22.5,-100.0,0.0,0.0,
3.495266000000003,0.0,0.0,0.0,0.0,0.0,0.0,0.0,0.125,0.782470623,0.01,0.0012207030000004337,0.0,0.0,0.0,-0.0,0.0,0.0,0.399169881,0.01,0.0,0.0,0.0,0.0,0.0,0.0,0.0,3.236083653,0.01,0.0,0.0,0.0,0.0,-0.0,0.0,0.125,1.5759275730000002,0.01,0.0,0.05000000074505806,-0.14000000059604645,-0.009999999776482582,-0.00421142578125,0.00103759765625,1.02740478515625,26.469999313354492,0.0,-1.0,8.85009765625E-4,-0.0010986328125,Waiting,-1.8256109481915934,0.875,-14.0,-3.0,-22.5,-100.0,0.0,0.0,
3.5294789999999923,0.0,0.0,0.0,0.0,0.0,0.0,0.0,0.125,0.783691326,0.01,-0.0012207030000004337,0.0,0.0,0.0,-0.0,0.0,0.0,0.397949178,0.01,0.0,0.0,0.0,0.0,0.0,0.0,0.0,3.236083653,0.01,0.0,0.0,0.0,0.0,-0.0,0.0,0.125,1.57470687,0.01,0.0012207029999995456,0.05000000074505806,-0.14000000059604645,-0.009999999776482582,0.00811767578125,-0.0062255859375,1.05230712890625,26.469999313354492,0.0,10.0,8.85009765625E-4,-0.0010986328125,Waiting,-1.8596285434995115,1.375,-14.0,-3.0,-22.5,-100.0,0.0,0.0,
3.555584999999992,0.0,0.0,0.0,0.0,0.0,0.0,0.0,0.125,0.783691326,0.01,-0.0012207030000004337,0.0,0.0,0.0,-0.0,0.0,0.0,0.399169881,0.01,0.0,0.0,0.0,0.0,0.0,0.0,0.0,3.233642247,0.01,0.0,0.0,0.0,0.0,-0.0,0.0,0.125,1.57470687,0.01,0.0012207029999995456,0.05000000074505806,-0.14000000059604645,-0.009999999776482582,-0.00335693359375,-0.00213623046875,1.024658203125,26.469999313354492,0.0,0.0,8.85009765625E-4,-0.0010986328125,Waiting,-1.8823069403714567,1.375,-14.0,-3.0,-22.5,-100.0,0.0,0.0,
3.5894809999999997,0.0,0.0,0.0,0.0,0.0,0.0,0.0,0.125,0.782470623,0.01,0.0012207030000004337,0.0,0.0,0.0,-0.0,0.0,0.0,0.40039058400000005,0.01,-0.0012207029999995456,0.0,0.0,0.0,0.0,0.0,0.0,3.236083653,0.01,0.0,0.0,0.0,0.0,-0.0,0.0,0.125,1.57470687,0.01,0.0,0.05000000074505806,-0.14000000059604645,-0.009999999776482582,-0.00177001953125,0.0,1.0194091796875,26.469999313354492,0.0,0.0,8.85009765625E-4,-0.0010986328125,Waiting,-1.9163245356793748,1.375,-14.0,-3.0,-22.5,-100.0,0.0,0.0,
3.6152719999999974,0.0,0.0,0.0,0.0,0.0,0.0,0.0,0.125,0.782470623,0.01,-0.0012207030000004337,0.0,0.0,0.0,-0.0,0.0,0.0,0.399169881,0.01,0.0,0.0,0.0,0.0,0.0,0.0,0.0,3.236083653,0.01,0.0,0.0,0.0,0.0,-0.0,0.0,0.125,1.573486167,0.01,-0.0012207029999995456,0.05000000074505806,-0.14000000059604645,-0.009999999776482582,0.00390625,9.1552734375E-4,1.0335693359375,26.469999313354492,0.0,6.0,8.85009765625E-4,-0.0010986328125,Waiting,-1.9306451612903228,1.5,-18.0,-3.0,-22.5,-100.0,0.0,0.0,
3.650008999999991,0.0,0.0,0.0,0.0,0.0,0.0,0.0,0.125,0.780029217,0.01,-0.0012207030000004337,0.0,0.0,0.0,-0.0,0.0,0.0,0.399169881,0.01,0.0,0.0,0.0,0.0,0.0,0.0,0.0,3.236083653,0.01,0.0,0.0,0.0,0.0,-0.0,0.0,0.125,1.57470687,0.01,-0.0012207029999995456,0.05000000074505806,-0.14000000059604645,-0.009999999776482582,-0.0030517578125,0.00616455078125,1.02899169921875,26.469999313354492,0.0,0.0,8.85009765625E-4,-0.0010986328125,Waiting,-1.9645161290322581,1.625,-18.0,-3.0,-22.5,-100.0,0.0,0.0,
3.678034000000014,0.0,0.0,0.0,0.0,0.0,0.0,0.0,0.125,0.782470623,0.01,0.0,0.0,0.0,0.0,-0.0,0.0,0.0,0.399169881,0.01,0.0012207029999995456,0.0,0.0,0.0,0.0,0.0,0.0,3.236083653,0.01,0.0,0.0,0.0,0.0,-0.0,0.0,0.125,1.57470687,0.01,0.0012207029999995456,0.05000000074505806,-0.12999999523162842,-0.009999999776482582,-0.00323486328125,-0.0042724609375,1.01458740234375,26.469999313354492,0.0,0.0,8.85009765625E-4,-0.0010986328125,Waiting,-1.9870967741935486,1.5,-18.0,-3.0,-22.5,-100.0,0.0,0.0,
3.7100970000000086,0.0,0.0,0.0,0.0,0.0,0.0,0.0,0.125,0.783691326,0.01,0.0,0.0,0.0,0.0,-0.0,0.0,0.0,0.399169881,0.01,0.0,0.0,0.0,0.0,0.0,0.0,0.0,3.236083653,0.01,0.0,0.0,0.0,0.0,-0.0,0.0,0.125,1.57470687,0.01,0.0,0.05999999865889549,-0.12999999523162842,-0.009999999776482582,-0.003173828125,-9.1552734375E-4,1.031494140625,26.469999313354492,0.0,0.0,8.85009765625E-4,-0.0010986328125,Waiting,-1.8741935483870968,1.375,-18.0,-3.0,-30.0,-100.0,0.0,0.0,
3.7410929999999936,0.0,0.0,0.0,0.0,0.0,0.0,0.0,0.125,0.783691326,0.01,0.0,0.0,0.0,0.0,-0.0,0.0,0.0,0.40039058400000005,0.01,0.0,0.0,0.0,0.0,0.0,0.0,0.0,3.236083653,0.01,0.0,0.0,0.0,0.0,-0.0,0.0,0.125,1.57470687,0.01,0.0,0.05999999865889549,-0.14000000059604645,-0.009999999776482582,-0.003662109375,1.220703125E-4,1.0244140625,26.469999313354492,0.0,-1.0,8.85009765625E-4,-0.0010986328125,Waiting,-1.904985337243402,1.125,-23.0,-4.0,-30.0,-100.0,0.0,0.0,
3.7693159999999915,0.0,0.0,0.0,0.0,0.0,0.0,0.0,0.125,0.7885741380000001,0.01,0.0012207030000004337,0.0,0.0,0.0,-0.0,0.0,0.0,0.399169881,0.01,0.0,0.0,0.0,0.0,0.0,0.0,0.0,3.23486295,0.01,0.0,0.0,0.0,0.0,-0.0,0.0,0.125,1.573486167,0.01,0.0,0.05999999865889549,-0.14000000059604645,-0.009999999776482582,8.544921875E-4,-0.00286865234375,1.02899169921875,26.469999313354492,0.0,3.0,8.85009765625E-4,-0.0010986328125,Waiting,-1.9163245356793748,1.375,-23.0,-4.0,-30.0,-100.0,0.0,0.0,
3.799804999999993,0.0,0.0,0.0,0.0,0.0,0.0,0.0,0.125,0.783691326,0.01,0.0012207030000004337,0.0,0.0,0.0,-0.0,0.0,0.0,0.39062496,0.01,0.0,0.0,0.0,0.0,0.0,0.0,0.0,3.236083653,0.01,0.0,0.0,0.0,0.0,-0.0,0.0,0.125,1.57470687,0.01,0.0,0.05999999865889549,-0.12999999523162842,-0.019999999552965164,4.2724609375E-4,0.0010986328125,1.02178955078125,26.469999313354492,0.0,2.0,8.85009765625E-4,-0.0010986328125,Waiting,-1.9503421309872926,1.5,-23.0,-4.0,-30.0,-100.0,0.0,0.0,
3.8305439999999944,0.0,0.0,0.0,0.0,0.0,0.0,0.0,0.125,0.7885741380000001,0.01,-0.0012207030000004337,0.0,0.0,0.0,-0.0,0.0,0.0,0.399169881,0.01,-0.0012207029999995456,0.0,0.0,0.0,0.0,0.0,0.0,3.236083653,0.01,0.0,0.0,0.0,0.0,-0.0,0.0,0.125,1.57470687,0.01,-0.0012207029999995456,0.05999999865889549,-0.12999999523162842,-0.019999999552965164,-0.001953125,0.00146484375,1.031005859375,26.469999313354492,0.0,0.0,8.85009765625E-4,-0.0010986328125,Waiting,-1.9730205278592379,1.5,-23.0,-4.0,-30.0,-100.0,0.0,0.0,
3.8563980000000155,0.0,0.0,0.0,0.0,0.0,0.0,0.0,0.125,0.782470623,0.01,-0.0012207030000004337,0.0,0.0,0.0,-0.0,0.0,0.0,0.399169881,0.01,-0.0012207029999995456,0.0,0.0,0.0,0.0,0.0,0.0,3.23486295,0.01,0.0,0.0,0.0,0.0,-0.0,0.0,0.125,1.57470687,0.01,0.0012207029999995456,0.05000000074505806,-0.12999999523162842,-0.009999999776482582,-0.00518798828125,9.1552734375E-4,1.02496337890625,26.469999313354492,0.0,-2.0,8.85009765625E-4,-0.0010986328125,Waiting,-1.8403225806451613,1.375,-30.0,-5.0,-37.5,-100.0,0.0,0.0,
3.8898159999999917,0.0,0.0,0.0,0.0,0.0,0.0,0.0,0.125,0.784912029,0.01,-0.0012207029999995456,0.0,0.0,0.0,-0.0,0.0,0.0,0.399169881,0.01,0.0,0.0,0.0,0.0,0.0,0.0,0.0,3.23486295,0.01,0.0,0.0,0.0,0.0,-0.0,0.0,0.125,1.5759275730000002,0.01,0.0012207029999995456,0.05000000074505806,-0.12999999523162842,-0.009999999776482582,-0.00482177734375,3.0517578125E-4,1.0224609375,26.469999313354492,0.0,-2.0,8.85009765625E-4,-0.0010986328125,Waiting,-1.8629032258064517,1.375,-30.0,-5.0,-37.5,-100.0,0.0,0.0,
3.923983999999997,0.0,0.0,0.0,0.0,0.0,0.0,0.0,0.125,0.783691326,0.01,0.0012207029999995456,0.0,0.0,0.0,-0.0,0.0,0.0,0.40039058400000005,0.01,0.0,0.0,0.0,0.0,0.0,0.0,0.0,3.236083653,0.01,0.0,0.0,0.0,0.0,-0.0,0.0,0.125,1.57470687,0.01,-0.0012207029999995456,0.05999999865889549,-0.14000000059604645,-0.009999999776482582,-0.00567626953125,0.009765625,1.02423095703125,26.450000762939453,0.0,-3.0,8.85009765625E-4,-0.0010986328125,Waiting,-1.8967741935483873,1.375,-30.0,-5.0,-37.5,-100.0,0.0,0.0,
3.9653729999999925,0.0,0.0,0.0,0.0,0.0,0.0,0.0,0.125,0.782470623,0.01,0.0,0.0,0.0,0.0,-0.0,0.0,0.0,0.399169881,0.01,0.0012207029999995456,0.0,0.0,0.0,0.0,0.0,0.0,3.236083653,0.01,0.0,0.0,0.0,0.0,-0.0,0.0,0.125,1.5759275730000002,0.01,0.0012207029999995456,0.05999999865889549,-0.14000000059604645,-0.009999999776482582,-0.00506591796875,-0.00274658203125,1.017578125,26.450000762939453,0.0,-2.0,8.85009765625E-4,-0.0010986328125,Waiting,-1.780254154447703,1.25,-37.0,-6.0,-45.0,-100.0,0.0,0.0,
4.009360000000015,0.0,0.0,0.0,0.0,0.0,0.0,0.0,0.125,0.7763671080000001,0.01,0.0,0.0,0.0,0.0,-0.0,0.0,0.0,0.40039058400000005,0.01,0.0,0.0,0.0,0.0,0.0,0.0,0.0,3.23486295,0.01,0.0,0.0,0.0,0.0,-0.0,0.0,0.125,1.57470687,0.01,-0.0012207029999995456,0.05999999865889549,-0.14000000059604645,-0.009999999776482582,0.00286865234375,-0.01043701171875,1.03668212890625,26.450000762939453,0.0,5.0,8.85009765625E-4,-0.0010986328125,Waiting,-1.8029325513196484,1.125,-37.0,-6.0,-45.0,-100.0,0.0,0.0,
4.0373360000000105,0.0,0.0,0.0,0.0,0.0,0.0,0.0,0.125,0.783691326,0.01,0.0,0.0,0.0,0.0,-0.0,0.0,0.0,0.399169881,0.01,0.0,0.0,0.0,0.0,0.0,0.0,0.0,3.23486295,0.01,0.0,0.0,0.0,0.0,-0.0,0.0,0.125,1.5759275730000002,0.01,-0.0012207029999995456,0.05999999865889549,-0.14000000059604645,-0.009999999776482582,-0.00146484375,-0.00225830078125,1.04010009765625,26.450000762939453,0.0,1.0,8.85009765625E-4,-0.0010986328125,Waiting,-1.6782013685239494,1.25,-37.0,-6.0,-45.0,-100.0,0.0,0.0,
4.068644999999989,0.0,0.0,0.0,0.0,0.0,0.0,0.0,0.125,0.783691326,0.01,0.0,0.0,0.0,0.0,-0.0,0.0,0.0,0.399169881,0.01,0.0,0.0,0.0,0.0,0.0,0.0,0.0,3.236083653,0.01,0.0,0.0,0.0,0.0,-0.0,0.0,0.125,1.5759275730000002,0.01,0.0,0.05999999865889549,-0.14000000059604645,-0.009999999776482582,-0.00225830078125,0.0020751953125,1.0035400390625,26.450000762939453,0.0,0.0,8.85009765625E-4,-0.0010986328125,Waiting,-1.7008797653958947,1.125,-37.0,-6.0,-52.5,-100.0,0.0,0.0,
4.097871000000014,0.0,0.0,0.0,0.0,0.0,0.0,0.0,0.125,0.783691326,0.01,0.0,0.0,0.0,0.0,-0.0,0.0,0.0,0.396728475,0.01,0.0,0.0,0.0,0.0,0.0,0.0,0.0,3.236083653,0.01,0.0,0.0,0.0,0.0,-0.0,0.0,0.125,1.57470687,0.01,0.0,0.05999999865889549,-0.14000000059604645,-0.009999999776482582,0.007568359375,-0.00250244140625,1.02093505859375,26.450000762939453,0.0,10.0,8.85009765625E-4,-0.0010986328125,Waiting,-1.7122189638318672,0.75,-46.0,-7.0,-52.5,-100.0,0.0,0.0,
4.1313260000000005,0.0,0.0,0.0,0.0,0.0,0.0,0.0,0.125,0.7775878110000001,0.01,0.0,0.0,0.0,0.0,-0.0,0.0,0.0,0.399169881,0.01,0.0,0.0,0.0,0.0,0.0,0.0,0.0,3.236083653,0.01,0.0,0.0,0.0,0.0,-0.0,0.0,0.125,1.5759275730000002,0.01,0.0,0.07000000029802322,-0.14000000059604645,-0.009999999776482582,-0.00262451171875,0.007080078125,1.04742431640625,26.450000762939453,0.0,0.0,8.85009765625E-4,-0.0010986328125,Waiting,-1.72355816226784,0.75,-46.0,-7.0,-52.5,-100.0,0.0,0.0,
4.1581909999999915,0.0,0.0,0.0,0.0,0.0,0.0,0.0,0.125,0.782470623,0.01,0.0,0.0,0.0,0.0,-0.0,0.0,0.0,0.39550777200000004,0.01,0.0,0.0,0.0,0.0,0.0,0.0,0.0,3.23486295,0.01,0.0,0.0,0.0,0.0,-0.0,0.0,0.125,1.5795896820000002,0.01,0.0012207029999995456,0.05999999865889549,-0.14000000059604645,-0.009999999776482582,1.220703125E-4,-0.00250244140625,1.03369140625,26.450000762939453,0.0,2.0,8.85009765625E-4,-0.0010986328125,Waiting,-1.7462365591397853,1.125,-46.0,-7.0,-52.5,-100.0,0.0,0.0,
4.192853999999992,0.0,0.0,0.0,0.0,0.0,0.0,0.0,0.125,0.782470623,0.01,0.0,0.0,0.0,0.0,-0.0,0.0,0.0,0.40039058400000005,0.01,-0.0012207029999995456,0.0,0.0,0.0,0.0,0.0,0.0,3.236083653,0.01,0.0,0.0,0.0,0.0,-0.0,0.0,0.125,1.57470687,0.01,0.0012207029999995456,0.05999999865889549,-0.14000000059604645,-0.009999999776482582,-0.01116943359375,-9.765625E-4,1.0062255859375,26.450000762939453,0.0,-8.0,8.85009765625E-4,-0.0010986328125,Waiting,-1.7575757575757578,0.875,-46.0,-7.0,-52.5,-100.0,0.0,0.0,
4.220323000000004,0.0,0.0,0.0,0.0,0.0,0.0,0.0,0.125,0.782470623,0.01,0.0012207030000004337,0.0,0.0,0.0,-0.0,0.0,0.0,0.399169881,0.01,0.0012207029999995456,0.0,0.0,0.0,0.0,0.0,0.0,3.23486295,0.01,0.0,0.0,0.0,0.0,-0.0,0.0,0.125,1.5759275730000002,0.01,-0.0012207029999995456,0.05999999865889549,-0.15000000596046448,-0.009999999776482582,-0.006103515625,0.01171875,1.013671875,26.450000762939453,0.0,-3.0,8.85009765625E-4,-0.0010986328125,Waiting,-1.780254154447703,0.875,-55.0,-7.0,-52.5,-100.0,0.0,0.0,
4.253051999999996,0.0,0.0,0.0,0.0,0.0,0.0,0.0,0.125,0.783691326,0.01,0.0012207030000004337,0.0,0.0,0.0,-0.0,0.0,0.0,0.40039058400000005,0.01,0.0012207029999995456,0.0,0.0,0.0,0.0,0.0,0.0,3.236083653,0.01,0.0,0.0,0.0,0.0,-0.0,0.0,0.125,1.5771482760000002,0.01,-0.0012207029999995456,0.05999999865889549,-0.14000000059604645,-0.009999999776482582,-0.00616455078125,0.00225830078125,1.02423095703125,26.450000762939453,0.0,-3.0,8.85009765625E-4,-0.0010986328125,Waiting,-1.7915933528836756,1.125,-55.0,-7.0,-52.5,-100.0,0.0,0.0,
4.2855629999999945,0.0,0.0,0.0,0.0,0.0,0.0,0.0,0.125,0.782470623,0.01,-0.0012207030000004337,0.0,0.0,0.0,-0.0,0.0,0.0,0.40161128700000004,0.01,0.0,0.0,0.0,0.0,0.0,0.0,0.0,3.23486295,0.01,0.0,0.0,0.0,0.0,-0.0,0.0,0.125,1.5795896820000002,0.01,0.0012207029999995456,0.05999999865889549,-0.14000000059604645,-0.009999999776482582,-0.00201416015625,-0.00384521484375,1.03289794921875,26.450000762939453,0.0,0.0,8.85009765625E-4,-0.0010986328125,Waiting,-1.8142717497556209,1.125,-55.0,-7.0,-52.5,-100.0,0.0,0.0,
4.313910999999993,0.0,0.0,0.0,0.0,0.0,0.0,0.0,0.125,0.783691326,0.01,0.0,0.0,0.0,0.0,-0.0,0.0,0.0,0.40161128700000004,0.01,0.0,0.0,0.0,0.0,0.0,0.0,0.0,3.237304356,0.01,0.0,0.0,0.0,0.0,-0.0,0.0,0.125,1.57470687,0.01,-0.0012207029999995456,0.05999999865889549,-0.14000000059604645,-0.009999999776482582,-0.00372314453125,0.006591796875,1.02899169921875,26.450000762939453,0.0,-1.0,8.85009765625E-4,-0.0010986328125,Waiting,-1.6782013685239494,0.75,-55.0,-7.0,-60.0,-100.0,0.0,0.0,
4.347736000000005,0.0,0.0,0.0,0.0,0.0,0.0,0.0,0.125,0.782470623,0.01,0.0,0.0,0.0,0.0,-0.0,0.0,0.0,0.399169881,0.01,0.0,0.0,0.0,0.0,0.0,0.0,0.0,3.23486295,0.01,0.0,0.0,0.0,0.0,-0.0,0.0,0.125,1.57470687,0.01,-0.0012207029999995456,0.05999999865889549,-0.15000000596046448,-0.009999999776482582,-0.00213623046875,-0.00616455078125,1.0211181640625,26.450000762939453,0.0,0.0,8.85009765625E-4,-0.0010986328125,Waiting,-1.5421309872922777,0.75,-66.0,-8.0,-67.5,-100.0,0.0,0.0,
