Time,ClimberA1,ClimberA2,FRpos,FRCurrent,FRspeed,FRsetpoint,FRApos,FRACurrent,FREncpos,FREncSetpoint,FREncSpeed,FLpos,FLCurrent,FLspeed,FLsetpoint,FLApos,FLACurrent,FLEncpos,FLEncSetpoint,FLEncSpeed,BRpos,BRCurrent,BRspeed,BRsetpoint,BRApos,BRACurrent,BREncpos,BREncSetpoint,BREncSpeed,BLpos,BLCurrent,BLspeed,BLsetpoint,BLApos,BLACurrent,BLEncpos,BLEncSetpoint,BLEncSpeed,navx_Pitch,navx_Roll,navx_Yaw,navx_XAcc,navx_YAcc,navx_ZAcc,navx_Temp,navx_Bar,navx_Alt,navx_XDis,navx_YDis,GearPlacerState,ShootOutputV,ShootOutputCurrent,ShootEncPos,ShootEncVelocity,ShootSpeed,ShootSetpoint,CarouselSetpoint,CarouselCurrent,
0.19544799999997486,0.0,0.0,41151.0,0.0,0.0,0.0,0.0,0.25,0.860595615,0.01,0.0,38157.0,0.0,0.0,-0.0,0.0,0.25,0.404052693,0.01,0.0,-2103.0,0.0,0.0,0.0,0.0,0.125,3.3142086450000003,0.01,0.0,40696.0,0.125,0.0,-0.0,0.0,0.25,1.668701001,0.01,0.0,0.3700000047683716,-1.2400000095367432,0.0,-0.0328369140625,0.0068359375,1.019775390625,35.02000045776367,0.0,-10.0,1.6490936279296875,0.268707275390625,Opening,0.0,0.0,1.0,0.0,0.0,0.0,0.0,0.0,
0.30335699999995996,0.0,0.0,41151.0,0.0,0.0,0.0,0.0,0.25,0.860595615,0.01,0.0,38157.0,0.0,0.0,-0.0,0.0,0.25,0.404052693,0.01,0.009765623999999917,-2103.0,0.0,0.0,0.0,0.0,0.0,3.3142086450000003,0.01,0.0,40696.0,0.125,0.0,-0.0,0.0,0.25,1.669921704,0.01,0.0,0.3700000047683716,-1.25,0.0,-0.01397705078125,0.00262451171875,1.0157470703125,35.02000045776367,0.0,8.0,1.6490936279296875,0.268707275390625,Opening,0.0,0.0,1.0,0.0,0.0,0.0,0.0,0.0,
0.38722400000004564,0.0,0.0,41151.0,0.0,0.0,0.0,0.0,0.25,0.859374912,0.01,0.0,38157.0,0.0,0.0,-0.0,0.0,0.25,0.405273396,0.01,0.0,-2103.0,0.0,0.0,0.0,0.0,0.0,3.3142086450000003,0.01,0.0,40696.0,0.125,0.0,-0.0,0.0,0.25,1.671142407,0.01,0.0,0.3700000047683716,-1.2400000095367432,0.0,-0.01422119140625,0.00531005859375,1.01678466796875,35.02000045776367,0.0,10.0,1.6490936279296875,0.268707275390625,Opening,0.0,0.0,1.0,0.0,0.0,0.0,0.0,0.0,
0.47078700000001117,0.0,0.0,41151.0,0.0,0.0,0.0,0.0,0.25,0.859374912,0.01,0.0,38157.0,0.0,0.0,-0.0,0.0,0.25,0.405273396,0.01,0.0,-2103.0,0.0,0.0,0.0,0.0,0.125,3.3142086450000003,0.01,0.0,40696.0,0.125,0.0,-0.0,0.0,0.25,1.669921704,0.01,0.0,0.3799999952316284,-1.2200000286102295,-0.019999999552965164,-0.04217529296875,0.0079345703125,1.0205078125,35.029998779296875,0.0,-20.0,1.6490631103515625,0.268707275390625,Opening,0.0,0.0,1.0,0.0,0.0,0.0,0.0,0.0,
0.552295000000042,0.0,0.0,41151.0,0.0,0.0,0.0,0.0,0.25,0.860595615,0.01,0.0,38157.0,0.0,0.0,-0.0,0.0,0.25,0.404052693,0.01,0.0,-2103.0,0.0,0.0,0.0,0.0,0.0,3.3142086450000003,0.01,0.0,40696.0,0.0,0.0,-0.0,0.0,0.25,1.669921704,0.01,-0.0012207029999999897,0.3700000047683716,-1.2999999523162842,0.0,-0.02593994140625,-3.662109375E-4,1.0159912109375,35.029998779296875,0.0,-2.0,1.6486358642578125,0.268707275390625,Opening,0.0,0.0,1.0,0.0,0.0,0.0,0.0,0.0,
0.6325670000000391,0.0,0.0,41151.0,0.0,0.0,0.0,0.0,0.25,0.859374912,0.01,0.0,38157.0,0.0,0.0,-0.0,0.0,0.25,0.404052693,0.01,0.0,-2103.0,0.0,0.0,0.0,0.0,0.125,3.3154293480000003,0.01,0.0,40696.0,0.0,0.0,-0.0,0.0,0.25,1.669921704,0.01,0.0,0.3799999952316284,-1.2300000190734863,0.0,-0.00494384765625,0.00714111328125,1.02056884765625,35.029998779296875,0.0,17.0,1.649017333984375,0.268707275390625,Opening,0.0,0.0,1.0,0.0,0.0,0.0,0.0,0.0,
0.7169059999999591,0.0,0.0,41151.0,0.0,0.0,0.0,0.0,0.25,0.860595615,0.01,0.0,38157.0,0.0,0.0,-0.0,0.0,0.25,0.405273396,0.01,0.0,-2103.0,0.0,0.0,0.0,0.0,0.125,3.3154293480000003,0.01,0.0,40696.0,0.0,0.0,-0.0,0.0,0.25,1.669921704,0.01,-0.0012207029999999897,0.3700000047683716,-1.2100000381469727,0.009999999776482582,-0.02935791015625,0.004638671875,1.0244140625,35.029998779296875,0.0,-7.0,1.649017333984375,0.268707275390625,Opening,0.0,0.0,1.0,0.0,0.0,0.0,0.0,0.0,
0.8051899999999441,0.0,0.0,41151.0,0.0,0.0,0.0,0.0,0.25,0.860595615,0.01,0.0,38157.0,0.0,0.0,-0.0,0.0,0.25,0.404052693,0.01,0.0,-2103.0,0.0,0.0,0.0,0.0,0.0,3.3142086450000003,0.01,0.0,40696.0,0.125,0.0,-0.0,0.0,0.25,1.669921704,0.01,0.0,0.3799999952316284,-1.25,0.0,-0.0308837890625,0.00390625,1.01690673828125,35.029998779296875,0.0,-8.0,1.649017333984375,0.268707275390625,Opening,0.0,0.0,1.0,0.0,0.0,0.0,0.0,0.0,
0.8877069999999366,0.0,0.0,41151.0,0.0,0.0,0.0,0.0,0.25,0.859374912,0.01,0.0,38157.0,0.0,0.0,-0.0,0.0,0.25,0.405273396,0.01,0.0,-2103.0,0.0,0.0,0.0,0.0,0.125,3.3154293480000003,0.01,0.0,40696.0,0.125,0.0,-0.0,0.0,0.25,1.669921704,0.01,0.0,0.3799999952316284,-1.2300000190734863,0.0,-0.01617431640625,0.0045166015625,1.01806640625,35.029998779296875,0.0,5.0,1.649017333984375,0.268707275390625,Opening,0.0,0.0,1.0,0.0,0.0,0.0,0.0,0.0,
0.9721639999999897,0.0,0.0,41151.0,0.0,0.0,0.0,0.0,0.25,0.8410643670000001,0.01,0.0,38157.0,0.0,0.0,-0.0,0.0,0.25,0.404052693,0.01,0.0,-2103.0,0.0,0.0,0.0,0.0,0.0,3.3142086450000003,0.01,0.0,40696.0,0.0,0.0,-0.0,0.0,0.25,1.669921704,0.01,0.0,0.3799999952316284,-1.2300000190734863,0.0,-0.029541015625,0.0059814453125,1.0169677734375,35.029998779296875,0.0,-7.0,1.649017333984375,0.268707275390625,Opening,0.0,0.0,1.0,0.0,0.0,0.0,0.0,0.0,
1.0555189999999712,0.0,0.0,41151.0,0.0,0.0,0.0,0.0,0.25,0.860595615,0.01,0.0012207029999999897,38157.0,0.0,0.0,-0.0,0.0,0.25,0.404052693,0.01,0.0,-2103.0,0.0,0.0,0.0,0.0,0.125,3.3178707540000003,0.01,0.0,40696.0,0.125,0.0,-0.0,0.0,0.25,1.668701001,0.01,0.0,0.3799999952316284,-1.2400000095367432,0.0,-0.02044677734375,0.00909423828125,1.02154541015625,35.029998779296875,0.0,1.0,1.649017333984375,0.268707275390625,Opening,0.0,0.0,1.0,0.0,0.0,0.0,0.0,0.0,
1.139378000000026,0.0,0.0,41151.0,0.0,0.0,0.0,0.0,0.25,0.860595615,0.01,0.0,38157.0,0.0,0.0,-0.0,0.0,0.25,0.404052693,0.01,0.0,-2103.0,0.0,0.0,0.0,0.0,0.125,3.3154293480000003,0.01,0.0,40696.0,0.125,0.0,-0.0,0.0,0.25,1.669921704,0.01,0.0,0.3799999952316284,-1.2300000190734863,0.0,-0.01983642578125,0.00506591796875,1.02239990234375,35.029998779296875,0.0,2.0,1.649017333984375,0.268707275390625,Opening,0.0,0.0,1.0,0.0,0.0,0.0,0.0,0.0,
1.2261110000000335,0.0,0.0,41151.0,0.0,0.0,0.0,0.0,0.25,0.864257724,0.01,0.0,38157.0,0.0,0.0,-0.0,0.0,0.25,0.405273396,0.01,0.0,-2103.0,0.0,0.0,0.0,0.0,0.125,3.3154293480000003,0.01,0.0,40696.0,0.125,0.0,-0.0,0.0,0.25,1.668701001,0.01,0.0,0.3799999952316284,-1.25,0.0,-0.0234375,0.00982666015625,1.025634765625,35.029998779296875,0.0,0.0,1.649017333984375,0.268707275390625,Opening,0.0,0.0,1.0,0.0,0.0,0.0,0.0,0.0,
1.3118549999999813,0.0,0.0,41151.0,0.0,0.0,0.0,0.0,0.25,0.859374912,0.01,-0.0012207029999999897,38157.0,0.0,0.0,-0.0,0.0,0.25,0.404052693,0.01,0.0,-2103.0,0.0,0.0,0.0,0.0,0.0,3.3154293480000003,0.01,0.0,40696.0,0.0,0.0,-0.0,0.0,0.25,1.667480298,0.01,0.0,0.3799999952316284,-1.25,0.0,-0.02130126953125,0.008056640625,1.02008056640625,35.029998779296875,0.0,1.0,1.649017333984375,0.268707275390625,Opening,0.0,0.0,1.0,0.0,0.0,0.0,0.0,0.0,
1.4036720000000205,0.0,0.0,41151.0,0.0,0.0,0.0,0.0,0.25,0.860595615,0.01,0.0,38157.0,0.0,0.0,-0.0,0.0,0.25,0.404052693,0.01,0.0,-2103.0,0.0,0.0,0.0,0.0,0.0,3.3142086450000003,0.01,0.0,40696.0,0.0,0.0,-0.0,0.0,0.25,1.669921704,0.01,0.0,0.3799999952316284,-1.25,0.0,-0.02227783203125,0.00830078125,1.021484375,35.029998779296875,0.0,0.0,1.649017333984375,0.268707275390625,Opening,0.0,0.0,1.0,0.0,0.0,0.0,0.0,0.0,
1.491503000000026,0.0,0.0,41151.0,0.0,0.0,0.0,0.0,0.25,0.8581542090000001,0.01,0.0,38157.0,0.0,0.0,-0.0,0.0,0.25,0.40161128700000004,0.01,0.0,-2103.0,0.0,0.0,0.0,0.0,0.0,3.3166500510000003,0.01,0.0,40696.0,0.125,0.0,-0.0,0.0,0.25,1.669921704,0.01,0.0,0.3799999952316284,-1.25,0.0,-0.02166748046875,0.00714111328125,1.017822265625,35.02000045776367,0.0,0.0,1.649017333984375,0.268707275390625,Opening,0.0,0.0,1.0,0.0,0.0,0.0,0.0,0.0,
1.6069259999999777,0.0,0.0,41151.0,0.0,0.0,0.0,0.0,0.25,0.860595615,0.01,-0.0012207029999999897,38157.0,0.0,0.0,-0.0,0.0,0.25,0.40771480200000004,0.01,0.0,-2103.0,0.0,0.0,0.0,0.0,0.0,3.3154293480000003,0.01,0.0,40696.0,0.125,0.0,-0.0,0.0,0.25,1.669921704,0.01,-0.0012207029999999897,0.38999998569488525,-1.2599999904632568,0.0,-0.02423095703125,0.003173828125,1.02130126953125,35.02000045776367,0.0,-1.0,1.649017333984375,0.268707275390625,Opening,0.0,0.0,1.0,0.0,0.0,0.0,0.0,0.0,
1.6904100000000326,0.0,0.0,41151.0,0.0,0.0,0.0,0.0,0.25,0.860595615,0.01,0.0,38157.0,0.0,0.0,-0.0,0.0,0.25,0.405273396,0.01,0.0,-2103.0,0.0,0.0,0.0,0.0,0.125,3.3154293480000003,0.01,0.0,40696.0,0.0,0.0,-0.0,0.0,0.25,1.666259595,0.01,0.0,0.38999998569488525,-1.2599999904632568,0.0,-0.0196533203125,0.004638671875,1.0198974609375,35.02000045776367,0.0,2.0,1.649017333984375,0.268707275390625,Opening,0.0,0.0,1.0,0.0,0.0,0.0,0.0,0.0,
1.7766199999999954,0.0,0.0,41151.0,0.0,0.0,0.0,0.0,0.25,0.860595615,0.01,0.0,38157.0,0.0,0.0,-0.0,0.0,0.25,0.405273396,0.01,0.0,-2103.0,0.0,0.0,0.0,0.0,0.0,3.3154293480000003,0.01,0.0,40696.0,0.125,0.0,-0.0,0.0,0.25,1.669921704,0.01,0.0,0.38999998569488525,-1.2599999904632568,0.0,-0.02349853515625,0.01080322265625,1.01702880859375,35.02000045776367,0.0,-1.0,1.649017333984375,0.268707275390625,Opening,0.0,0.0,1.0,0.0,0.0,0.0,0.0,0.0,
1.8692739999999757,0.0,0.0,41151.0,0.0,0.0,0.0,0.0,0.25,0.860595615,0.01,0.0,38157.0,0.0,0.0,-0.0,0.0,0.25,0.404052693,0.01,0.0,-2103.0,0.0,0.0,0.0,0.0,0.0,3.3142086450000003,0.01,0.0,40696.0,0.125,0.0,-0.0,0.0,0.25,1.669921704,0.01,0.0,0.3799999952316284,-1.25,0.0,-0.02252197265625,0.00640869140625,1.02099609375,35.02000045776367,0.0,0.0,1.649017333984375,0.268707275390625,Opening,0.0,0.0,1.0,0.0,0.0,0.0,0.0,0.0,
1.959052000000025,0.0,0.0,41151.0,0.0,0.0,0.0,0.0,0.25,0.859374912,0.01,0.0,38157.0,0.0,0.0,-0.0,0.0,0.25,0.404052693,0.01,0.0,-2103.0,0.0,0.0,0.0,0.0,0.0,3.3142086450000003,0.01,0.0,40696.0,0.125,0.0,-0.0,0.0,0.25,1.668701001,0.01,0.0012207029999999897,0.38999998569488525,-1.2599999904632568,0.0,-0.02197265625,0.0067138671875,1.02325439453125,35.02000045776367,0.0,0.0,1.649017333984375,0.268707275390625,Opening,0.0,0.0,1.0,0.0,0.0,0.0,0.0,0.0,
2.05072100000002,0.0,0.0,41151.0,0.0,0.0,0.0,0.0,0.25,0.8557128030000001,0.01,0.0,38157.0,0.0,0.0,-0.0,0.0,0.25,0.404052693,0.01,0.0,-2103.0,0.0,0.0,0.0,0.0,0.125,3.3154293480000003,0.01,0.0,40696.0,0.125,0.0,-0.0,0.0,0.25,1.669921704,0.01,0.0,0.3799999952316284,-1.25,0.0,-0.02166748046875,0.003662109375,1.01971435546875,35.02000045776367,0.0,0.0,1.649017333984375,0.268707275390625,Opening,0.0,0.0,1.0,0.0,0.0,0.0,0.0,0.0,
2.134927000000025,0.0,0.0,41151.0,0.0,0.0,0.0,0.0,0.25,0.859374912,0.01,0.0,38157.0,0.0,0.0,-0.0,0.0,0.25,0.405273396,0.01,0.0,-2103.0,0.0,0.0,0.0,0.0,0.0,3.3154293480000003,0.01,0.0,40696.0,0.125,0.0,-0.0,0.0,0.25,1.673583813,0.01,0.0,0.3799999952316284,-1.25,0.0,-0.02423095703125,0.0098876953125,1.024658203125,35.02000045776367,0.0,-1.0,1.649017333984375,0.268707275390625,Opening,0.0,0.0,1.0,0.0,0.0,0.0,0.0,0.0,
2.2278319999999368,0.0,0.0,41151.0,0.0,0.0,0.0,0.0,0.25,0.859374912,0.01,0.0,38157.0,0.0,0.0,-0.0,0.0,0.25,0.404052693,0.01,0.0,-2103.0,0.0,0.0,0.0,0.0,0.125,3.3154293480000003,0.01,0.0,40696.0,0.125,0.0,-0.0,0.0,0.25,1.669921704,0.01,0.0,0.3799999952316284,-1.25,0.0,-0.02227783203125,0.004638671875,1.02099609375,35.02000045776367,0.0,0.0,1.649017333984375,0.268707275390625,Opening,0.0,0.0,1.0,0.0,0.0,0.0,0.0,0.0,
2.314932999999961,0.0,0.0,41151.0,0.0,0.0,0.0,0.0,0.25,0.865478427,0.01,0.0,38157.0,0.0,0.0,-0.0,0.0,0.25,0.404052693,0.01,0.0,-2103.0,0.0,0.0,0.0,0.0,0.125,3.3142086450000003,0.01,0.0,40696.0,0.125,0.0,-0.0,0.0,0.25,1.669921704,0.01,0.0,0.38999998569488525,-1.2599999904632568,0.0,-0.02349853515625,0.00921630859375,1.018310546875,35.02000045776367,0.0,-1.0,1.649017333984375,0.268707275390625,Opening,0.0,0.0,1.0,0.0,0.0,0.0,0.0,0.0,
2.404893999999971,0.0,0.0,41151.0,0.0,0.0,0.0,0.0,0.25,0.860595615,0.01,0.0,38157.0,0.0,0.0,-0.0,0.0,0.25,0.405273396,0.01,0.0,-2103.0,0.0,0.0,0.0,0.0,0.0,3.3154293480000003,0.01,0.0,40696.0,0.0,0.0,-0.0,0.0,0.25,1.671142407,0.01,0.0,0.38999998569488525,-1.2599999904632568,0.0,-0.021240234375,0.00433349609375,1.0177001953125,35.02000045776367,0.0,1.0,1.649017333984375,0.268707275390625,Opening,0.0,0.0,1.0,0.0,0.0,0.0,0.0,0.0,
2.4905929999999934,0.0,0.0,41151.0,0.0,0.0,0.0,0.0,0.25,0.864257724,0.01,0.0,38157.0,0.0,0.0,-0.0,0.0,0.25,0.404052693,0.01,0.0,-2103.0,0.0,0.0,0.0,0.0,0.125,3.3154293480000003,0.01,0.0,40696.0,0.125,0.0,-0.0,0.0,0.25,1.669921704,0.01,0.0,0.38999998569488525,-1.25,0.0,-0.01983642578125,0.00732421875,1.01837158203125,35.0099983215332,0.0,2.0,1.649017333984375,0.268707275390625,Opening,0.0,0.0,1.0,0.0,0.0,0.0,0.0,0.0,
2.576140000000014,0.0,0.0,41151.0,0.0,0.0,0.0,0.0,0.25,0.859374912,0.01,0.0,38157.0,0.0,0.0,-0.0,0.0,0.25,0.406494099,0.01,0.0,-2103.0,0.0,0.0,0.0,0.0,0.125,3.3154293480000003,0.01,0.0,40696.0,0.125,0.0,-0.0,0.0,0.25,1.669921704,0.01,0.0,0.38999998569488525,-1.25,0.0,-0.02203369140625,0.0064697265625,1.02001953125,35.0099983215332,0.0,0.0,1.649017333984375,0.268707275390625,Opening,0.0,0.0,1.0,0.0,0.0,0.0,0.0,0.0,
2.6703719999999738,0.0,0.0,41151.0,0.0,0.0,0.0,0.0,0.25,0.859374912,0.01,0.0,38157.0,0.0,0.0,-0.0,0.0,0.25,0.405273396,0.01,0.0,-2103.0,0.0,0.0,0.0,0.0,0.0,3.3154293480000003,0.01,0.0,40696.0,0.125,0.0,-0.0,0.0,0.25,1.668701001,0.01,0.0,0.3799999952316284,-1.25,0.0,-0.022216796875,0.0064697265625,1.01995849609375,35.0099983215332,0.0,0.0,1.649017333984375,0.268707275390625,Opening,0.0,0.0,1.0,0.0,0.0,0.0,0.0,0.0,
2.7566239999999524,0.0,0.0,41151.0,0.0,0.0,0.0,0.0,0.25,0.859374912,0.01,0.0,38157.0,0.0,0.0,-0.0,0.0,0.25,0.404052693,0.01,0.0,-2103.0,0.0,0.0,0.0,0.0,0.0,3.3142086450000003,0.01,0.0,40696.0,0.125,0.0,-0.0,0.0,0.25,1.669921704,0.01,-0.0012207029999999897,0.38999998569488525,-1.2599999904632568,0.0,-0.02337646484375,0.00714111328125,1.0211181640625,35.0099983215332,0.0,0.0,1.649017333984375,0.268707275390625,Opening,0.0,0.0,1.0,0.0,0.0,0.0,0.0,0.0,
2.8457789999999803,0.0,0.0,41151.0,0.0,0.0,0.0,0.0,0.25,0.8557128030000001,0.01,0.0,38157.0,0.0,0.0,-0.0,0.0,0.25,0.404052693,0.01,0.0,-2103.0,0.0,0.0,0.0,0.0,0.125,3.3142086450000003,0.01,0.0,40696.0,0.125,0.0,-0.0,0.0,0.25,1.668701001,0.01,0.0,0.3799999952316284,-1.25,0.0,-0.017822265625,0.00537109375,1.01617431640625,35.0099983215332,0.0,4.0,1.649017333984375,0.268707275390625,Opening,0.0,0.0,1.0,0.0,0.0,0.0,0.0,0.0,
2.940064999999944,0.0,0.0,41151.0,0.0,0.0,0.0,0.0,0.25,0.859374912,0.01,0.0,38157.0,0.0,0.0,-0.0,0.0,0.25,0.404052693,0.01,0.0,-2103.0,0.0,0.0,0.0,0.0,0.125,3.3142086450000003,0.01,0.0,40696.0,0.0,0.0,-0.0,0.0,0.25,1.671142407,0.01,0.0,0.3799999952316284,-1.25,0.0,-0.02349853515625,0.00738525390625,1.023681640625,35.0099983215332,0.0,-1.0,1.649017333984375,0.268707275390625,Opening,0.0,0.0,1.0,0.0,0.0,0.0,0.0,0.0,
3.0315720000000437,0.0,0.0,41151.0,0.0,0.0,0.0,0.0,0.25,0.859374912,0.01,0.0,38157.0,0.0,0.0,-0.0,0.0,0.25,0.404052693,0.01,0.0,-2103.0,0.0,0.0,0.0,0.0,0.125,3.3154293480000003,0.01,0.0,40696.0,0.0,0.0,-0.0,0.0,0.25,1.669921704,0.01,0.0,0.3799999952316284,-1.25,0.0,-0.02484130859375,0.0089111328125,1.022216796875,35.029998779296875,0.0,-2.0,1.649017333984375,0.268707275390625,Opening,0.0,0.0,1.0,0.0,0.0,0.0,0.0,0.0,
3.113920999999973,0.0,0.0,41151.0,0.0,0.0,0.0,0.0,0.25,0.861816318,0.01,0.0,38157.0,0.0,0.0,-0.0,0.0,0.25,0.404052693,0.01,0.0,-2103.0,0.0,0.0,0.0,0.0,0.125,3.3154293480000003,0.01,0.0,40696.0,0.0,0.0,-0.0,0.0,0.25,1.671142407,0.01,0.0,0.3799999952316284,-1.25,0.0,-0.01947021484375,0.00640869140625,1.02008056640625,35.029998779296875,0.0,2.0,1.649017333984375,0.268707275390625,Opening,0.0,0.0,1.0,0.0,0.0,0.0,0.0,0.0,
3.193505999999936,0.0,0.0,41151.0,0.0,0.0,0.0,0.0,0.25,0.8825682690000001,0.01,0.0,38157.0,0.0,0.0,-0.0,0.0,0.25,0.404052693,0.01,0.0,-2103.0,0.0,0.0,0.0,0.0,0.125,3.3154293480000003,0.01,0.0,40696.0,0.125,0.0,-0.0,0.0,0.25,1.669921704,0.01,0.0,0.3700000047683716,-1.25,0.0,-0.0233154296875,0.00531005859375,1.018310546875,35.029998779296875,0.0,-1.0,1.649017333984375,0.268707275390625,Opening,0.0,0.0,1.0,0.0,0.0,0.0,0.0,0.0,
3.2789009999999545,0.0,0.0,41151.0,0.0,0.0,0.0,0.0,0.25,0.859374912,0.01,0.0,38157.0,0.0,0.0,-0.0,0.0,0.25,0.40771480200000004,0.01,0.0,-2103.0,0.0,0.0,0.0,0.0,0.125,3.3154293480000003,0.01,0.0,40696.0,0.125,0.0,-0.0,0.0,0.25,1.668701001,0.01,0.0,0.3700000047683716,-1.25,0.0,-0.022216796875,0.00531005859375,1.02349853515625,35.029998779296875,0.0,0.0,1.649017333984375,0.268707275390625,Opening,0.0,0.0,1.0,0.0,0.0,0.0,0.0,0.0,
3.3695019999999785,0.0,0.0,41151.0,0.0,0.0,0.0,0.0,0.25,0.859374912,0.01,0.0,38157.0,0.0,0.0,-0.0,0.0,0.25,0.405273396,0.01,0.0,-2103.0,0.0,0.0,0.0,0.0,0.125,3.3142086450000003,0.01,0.0,40696.0,0.125,0.0,-0.0,0.0,0.25,1.669921704,0.01,0.0,0.3700000047683716,-1.25,0.0,-0.02398681640625,0.00714111328125,1.02203369140625,35.029998779296875,0.0,-1.0,1.649017333984375,0.268707275390625,Opening,0.0,0.0,1.0,0.0,0.0,0.0,0.0,0.0,
3.45039599999995,0.0,0.0,41151.0,0.0,0.0,0.0,0.0,0.25,0.859374912,0.01,0.0,38157.0,0.0,0.0,-0.0,0.0,0.25,0.40283199000000003,0.01,0.0,-2103.0,0.0,0.0,0.0,0.0,0.125,3.3154293480000003,0.01,0.0,40696.0,0.125,0.0,-0.0,0.0,0.25,1.669921704,0.01,0.0,0.3700000047683716,-1.25,0.0,-0.02117919921875,0.011962890625,1.01275634765625,35.029998779296875,0.0,0.0,1.649017333984375,0.268707275390625,Opening,0.0,0.0,1.0,0.0,0.0,0.0,0.0,0.0,
3.5317939999999943,0.0,0.0,41151.0,0.0,0.0,0.0,0.0,0.25,0.8557128030000001,0.01,0.0,38157.0,0.0,0.0,-0.0,0.0,0.25,0.405273396,0.01,0.0,-2103.0,0.0,0.0,0.0,0.0,0.0,3.3142086450000003,0.01,0.0,40696.0,0.0,0.0,-0.0,0.0,0.25,1.669921704,0.01,0.0,0.3799999952316284,-1.25,0.0,-0.02099609375,0.00799560546875,1.0218505859375,35.0,0.0,1.0,1.649017333984375,0.268707275390625,Opening,0.0,0.0,1.0,0.0,0.0,0.0,0.0,0.0,
3.614920999999973,0.0,0.0,41151.0,0.0,0.0,0.0,0.0,0.25,0.860595615,0.01,0.0,38157.0,0.0,0.0,-0.0,0.0,0.25,0.405273396,0.01,0.0,-2103.0,0.0,0.0,0.0,0.0,0.0,3.3142086450000003,0.01,0.0,40696.0,0.0,0.0,-0.0,0.0,0.25,1.669921704,0.01,0.0,0.3799999952316284,-1.25,0.0,-0.021728515625,0.0052490234375,1.01995849609375,35.0,0.0,0.0,1.649017333984375,0.268707275390625,Opening,0.0,0.0,1.0,0.0,0.0,0.0,0.0,0.0,
3.6961089999999386,0.0,0.0,41151.0,0.0,0.0,0.0,0.0,0.25,0.860595615,0.01,0.0,38157.0,0.0,0.0,-0.0,0.0,0.25,0.405273396,0.01,0.0,-2103.0,0.0,0.0,0.0,0.0,0.0,3.3142086450000003,0.01,0.0,40696.0,0.125,0.0,-0.0,0.0,0.25,1.669921704,0.01,0.0,0.3799999952316284,-1.2400000095367432,-0.009999999776482582,-0.02020263671875,0.005859375,1.01910400390625,35.0,0.0,2.0,1.649017333984375,0.268707275390625,Opening,0.0,0.0,1.0,0.0,0.0,0.0,0.0,0.0,
3.784662000000011,0.0,0.0,41151.0,0.0,0.0,0.0,0.0,0.25,0.859374912,0.01,0.0,38157.0,0.0,0.0,-0.0,0.0,0.25,0.405273396,0.01,0.0,-2103.0,0.0,0.0,0.0,0.0,0.0,3.3154293480000003,0.01,0.0,40696.0,0.0,0.0,-0.0,0.0,0.25,1.669921704,0.01,0.0,0.3799999952316284,-1.2400000095367432,0.0,-0.020751953125,0.00762939453125,1.02276611328125,35.0,0.0,1.0,1.649017333984375,0.268707275390625,Opening,0.0,0.0,1.0,0.0,0.0,0.0,0.0,0.0,
3.8689960000000427,0.0,0.0,41151.0,0.0,0.0,0.0,0.0,0.25,0.860595615,0.01,0.0,38157.0,0.0,0.0,-0.0,0.0,0.25,0.405273396,0.01,0.0,-2103.0,0.0,0.0,0.0,0.0,0.125,3.3142086450000003,0.01,0.0,40696.0,0.0,0.0,-0.0,0.0,0.25,1.669921704,0.01,0.0012207029999999897,0.3799999952316284,-1.2400000095367432,0.0,-0.02288818359375,0.0078125,1.017578125,35.0,0.0,0.0,1.649017333984375,0.268707275390625,Opening,0.0,0.0,1.0,0.0,0.0,0.0,0.0,0.0,
3.9540550000000514,0.0,0.0,41151.0,0.0,0.0,0.0,0.0,0.25,0.860595615,0.01,0.0,38157.0,0.0,0.0,-0.0,0.0,0.25,0.40771480200000004,0.01,0.0,-2103.0,0.0,0.0,0.0,0.0,0.125,3.3154293480000003,0.01,0.0,40696.0,0.125,0.0,-0.0,0.0,0.25,1.669921704,0.01,0.0,0.3799999952316284,-1.2400000095367432,0.0,-0.01934814453125,0.00830078125,1.01898193359375,35.0,0.0,2.0,1.649017333984375,0.268707275390625,Opening,0.0,0.0,1.0,0.0,0.0,0.0,0.0,0.0,
4.03339300000004,0.0,0.0,41151.0,0.0,0.0,0.0,0.0,0.25,0.860595615,0.01,0.0,38157.0,0.0,0.0,-0.0,0.0,0.25,0.404052693,0.01,0.0,-2103.0,0.0,0.0,0.0,0.0,0.0,3.3154293480000003,0.01,0.0,40696.0,0.125,0.0,-0.0,0.0,0.25,1.669921704,0.01,0.0,0.3799999952316284,-1.2400000095367432,0.0,-0.0220947265625,0.00323486328125,1.02178955078125,34.9900016784668,0.0,0.0,1.649017333984375,0.268707275390625,Opening,0.0,0.0,1.0,0.0,0.0,0.0,0.0,0.0,
4.119685999999987,0.0,0.0,41151.0,0.0,0.0,0.0,0.0,0.25,0.859374912,0.01,0.0,38157.0,0.0,0.0,-0.0,0.0,0.25,0.404052693,0.01,0.0,-2103.0,0.0,0.0,0.0,0.0,0.0,3.3154293480000003,0.01,0.0,40696.0,0.0,0.0,-0.0,0.0,0.25,1.669921704,0.01,-0.0012207029999999897,0.3799999952316284,-1.25,0.0,-0.0213623046875,0.00665283203125,1.01861572265625,34.9900016784668,0.0,1.0,1.649017333984375,0.268707275390625,Opening,0.0,0.0,1.0,0.0,0.0,0.0,0.0,0.0,
4.20134600000002,0.0,0.0,41151.0,0.0,0.0,0.0,0.0,0.25,0.860595615,0.01,0.0,38157.0,0.0,0.0,-0.0,0.0,0.25,0.40283199000000003,0.01,0.0,-2103.0,0.0,0.0,0.0,0.0,0.0,3.3154293480000003,0.01,0.0,40696.0,0.125,0.0,-0.0,0.0,0.25,1.669921704,0.01,0.0,0.3700000047683716,-1.25,0.0,-0.01971435546875,0.00616455078125,1.0220947265625,34.9900016784668,0.0,2.0,1.649017333984375,0.268707275390625,Opening,0.0,0.0,1.0,0.0,0.0,0.0,0.0,0.0,
4.289839000000036,0.0,0.0,41151.0,0.0,0.0,0.0,0.0,0.25,0.859374912,0.01,0.0,38157.0,0.0,0.0,-0.0,0.0,0.25,0.404052693,0.01,0.0,-2103.0,0.0,0.0,0.0,0.0,0.0,3.3154293480000003,0.01,0.0,40696.0,0.0,0.0,-0.0,0.0,0.25,1.669921704,0.01,0.0,0.3700000047683716,-1.25,0.0,-0.02069091796875,0.00604248046875,1.01434326171875,34.9900016784668,0.0,1.0,1.649017333984375,0.268707275390625,Opening,0.0,0.0,1.0,0.0,0.0,0.0,0.0,0.0,
4.374040999999968,0.0,0.0,41151.0,0.0,0.0,0.0,0.0,0.25,0.8581542090000001,0.01,-0.0012207029999999897,38157.0,0.0,0.0,-0.0,0.0,0.25,0.404052693,0.01,0.0,-2103.0,0.0,0.0,0.0,0.0,0.125,3.3142086450000003,0.01,0.0,40696.0,0.125,0.0,-0.0,0.0,0.25,1.669921704,0.01,0.0,0.3700000047683716,-1.2400000095367432,0.0,-0.02435302734375,0.00537109375,1.01702880859375,34.9900016784668,0.0,-2.0,1.649017333984375,0.268707275390625,Opening,0.0,0.0,1.0,0.0,0.0,0.0,0.0,0.0,
4.458158999999985,0.0,0.0,41151.0,0.0,0.0,0.0,0.0,0.25,0.859374912,0.01,0.0,38157.0,0.0,0.0,-0.0,0.0,0.25,0.405273396,0.01,0.0,-2103.0,0.0,0.0,0.0,0.0,0.0,3.3154293480000003,0.01,0.0,40696.0,0.125,0.0,-0.0,0.0,0.25,1.669921704,0.01,0.0,0.3700000047683716,-1.25,0.0,-0.02227783203125,0.00732421875,1.024658203125,34.9900016784668,0.0,0.0,1.649017333984375,0.268707275390625,Opening,0.0,0.0,1.0,0.0,0.0,0.0,0.0,0.0,
4.536770000000018,0.0,0.0,41151.0,0.0,0.0,0.0,0.0,0.25,0.838622961,0.01,0.0,38157.0,0.0,0.0,-0.0,0.0,0.25,0.404052693,0.01,0.0,-2103.0,0.0,0.0,0.0,0.0,0.0,3.3154293480000003,0.01,0.0,40696.0,0.125,0.0,-0.0,0.0,0.25,1.671142407,0.01,0.0,0.3799999952316284,-1.2400000095367432,0.0,-0.0250244140625,0.00775146484375,1.023681640625,35.0099983215332,0.0,-2.0,1.649017333984375,0.268707275390625,Opening,0.0,0.0,1.0,0.0,0.0,0.0,0.0,0.0,
4.623721000000019,0.0,0.0,41151.0,0.0,0.0,0.0,0.0,0.25,0.859374912,0.01,0.0,38157.0,0.0,0.0,-0.0,0.0,0.25,0.405273396,0.01,0.0,-2103.0,0.0,0.0,0.0,0.0,0.0,3.3154293480000003,0.01,0.0,40696.0,0.0,0.0,-0.0,0.0,0.25,1.669921704,0.01,0.0,0.3799999952316284,-1.2400000095367432,0.0,-0.02410888671875,0.0084228515625,1.02239990234375,35.0099983215332,0.0,-1.0,1.649017333984375,0.268707275390625,Opening,0.0,0.0,1.0,0.0,0.0,0.0,0.0,0.0,
4.710005999999936,0.0,0.0,41151.0,0.0,0.0,0.0,0.0,0.25,0.8935545960000001,0.01,0.0,38157.0,0.0,0.0,-0.0,0.0,0.25,0.405273396,0.01,0.0,-2103.0,0.0,0.0,0.0,0.0,0.125,3.3154293480000003,0.01,0.0,40696.0,0.125,0.0,-0.0,0.0,0.25,1.669921704,0.01,0.0,0.3799999952316284,-1.2400000095367432,0.0,-0.0206298828125,0.00537109375,1.01910400390625,35.0099983215332,0.0,1.0,1.649017333984375,0.268707275390625,Opening,0.0,0.0,1.0,0.0,0.0,0.0,0.0,0.0,
4.789724999999977,0.0,0.0,41151.0,0.0,0.0,0.0,0.0,0.25,0.860595615,0.01,0.0,38157.0,0.0,0.0,-0.0,0.0,0.25,0.405273396,0.01,0.0,-2103.0,0.0,0.0,0.0,0.0,0.125,3.3154293480000003,0.01,0.0,40696.0,0.125,0.0,-0.0,0.0,0.25,1.669921704,0.01,0.0,0.3799999952316284,-1.2400000095367432,0.0,-0.0205078125,0.00726318359375,1.018798828125,35.0099983215332,0.0,-1.0,1.649017333984375,0.268707275390625,Opening,0.0,0.0,1.0,0.0,0.0,0.0,0.0,0.0,
4.87426800000004,0.0,0.0,41151.0,0.0,0.0,0.0,0.0,0.25,0.863037021,0.01,-0.0012207029999999897,38157.0,0.0,0.0,-0.0,0.0,0.25,0.405273396,0.01,0.0,-2103.0,0.0,0.0,0.0,0.0,0.0,3.3154293480000003,0.01,0.0,40696.0,0.125,0.0,-0.0,0.0,0.25,1.669921704,0.01,-0.0012207029999999897,0.3799999952316284,-1.2400000095367432,0.0,-0.0218505859375,0.00738525390625,1.019775390625,35.0099983215332,0.0,0.0,1.649017333984375,0.268707275390625,Opening,0.0,0.0,1.0,0.0,0.0,0.0,0.0,0.0,
4.9652589999999615,0.0,0.0,41151.0,0.0,0.0,0.0,0.0,0.25,0.859374912,0.01,0.0,38157.0,0.0,0.0,-0.0,0.0,0.25,0.404052693,0.01,0.0,-2103.0,0.0,0.0,0.0,0.0,0.125,3.3154293480000003,0.01,0.0,40696.0,0.125,0.0,-0.0,0.0,0.25,1.671142407,0.01,0.0,0.3799999952316284,-1.2400000095367432,0.0,-0.02008056640625,0.00799560546875,1.02301025390625,35.0099983215332,0.0,2.0,1.649017333984375,0.268707275390625,Opening,0.0,0.0,1.0,0.0,0.0,0.0,0.0,0.0,
5.047334999999963,0.0,0.0,41151.0,0.0,0.0,0.0,0.0,0.25,0.860595615,0.01,0.0,38157.0,0.0,0.0,-0.0,0.0,0.25,0.404052693,0.01,0.0,-2103.0,0.0,0.0,0.0,0.0,0.0,3.3154293480000003,0.01,0.0,40696.0,0.125,0.0,-0.0,0.0,0.25,1.669921704,0.01,0.0,0.3799999952316284,-1.2400000095367432,0.0,-0.02099609375,0.0069580078125,1.02239990234375,35.0099983215332,0.0,1.0,1.649017333984375,0.268707275390625,Opening,0.0,0.0,1.0,0.0,0.0,0.0,0.0,0.0,
5.131922999999952,0.0,0.0,41151.0,0.0,0.0,0.0,0.0,0.25,0.860595615,0.01,-0.0012207029999999897,38157.0,0.0,0.0,-0.0,0.0,0.25,0.405273396,0.01,0.0,-2103.0,0.0,0.0,0.0,0.0,0.125,3.3166500510000003,0.01,0.0,40696.0,0.0,0.0,-0.0,0.0,0.25,1.669921704,0.01,0.0,0.3700000047683716,-1.2400000095367432,0.0,-0.0220947265625,0.0078125,1.0216064453125,35.0099983215332,0.0,0.0,1.649017333984375,0.268707275390625,Opening,0.0,0.0,1.0,0.0,0.0,0.0,0.0,0.0,
5.216285000000033,0.0,0.0,41151.0,0.0,0.0,0.0,0.0,0.25,0.8581542090000001,0.01,0.0,38157.0,0.0,0.0,-0.0,0.0,0.25,0.404052693,0.01,0.0,-2103.0,0.0,0.0,0.0,0.0,0.125,3.3154293480000003,0.01,0.0,40696.0,0.125,0.0,-0.0,0.0,0.25,1.669921704,0.01,-0.0012207029999999897,0.3799999952316284,-1.2400000095367432,0.0,-0.02154541015625,0.0067138671875,1.0167236328125,35.0099983215332,0.0,0.0,1.649017333984375,0.268707275390625,Opening,0.0,0.0,1.0,0.0,0.0,0.0,0.0,0.0,
5.297189000000013,0.0,0.0,41151.0,0.0,0.0,0.0,0.0,0.25,0.860595615,0.01,0.0,38157.0,0.0,0.0,-0.0,0.0,0.25,0.404052693,0.01,0.0,-2103.0,0.0,0.0,0.0,0.0,0.125,3.3154293480000003,0.01,0.0,40696.0,0.125,0.0,-0.0,0.0,0.25,1.669921704,0.01,0.0,0.3799999952316284,-1.2400000095367432,0.0,-0.019775390625,0.005126953125,1.02557373046875,35.0099983215332,0.0,2.0,1.649017333984375,0.268707275390625,Opening,0.0,0.0,1.0,0.0,0.0,0.0,0.0,0.0,
5.38676099999994,0.0,0.0,41151.0,0.0,0.0,0.0,0.0,0.25,0.860595615,0.01,0.0,38157.0,0.0,0.0,-0.0,0.0,0.25,0.405273396,0.01,0.0,-2103.0,0.0,0.0,0.0,0.0,0.125,3.3154293480000003,0.01,0.0,40696.0,0.125,0.0,-0.0,0.0,0.25,1.669921704,0.01,0.0,0.3799999952316284,-1.2400000095367432,0.0,-0.02252197265625,0.00738525390625,1.01837158203125,35.0099983215332,0.0,0.0,1.649017333984375,0.268707275390625,Opening,0.0,0.0,1.0,0.0,0.0,0.0,0.0,0.0,
5.469920999999973,0.0,0.0,41151.0,0.0,0.0,0.0,0.0,0.25,0.859374912,0.01,0.0,38157.0,0.0,0.0,-0.0,0.0,0.25,0.404052693,0.01,0.0,-2103.0,0.0,0.0,0.0,0.0,0.125,3.3154293480000003,0.01,0.0,40696.0,0.125,0.0,-0.0,0.0,0.25,1.671142407,0.01,0.0,0.3799999952316284,-1.2400000095367432,0.0,-0.02142333984375,0.00421142578125,1.0240478515625,35.0099983215332,0.0,0.0,1.649017333984375,0.268707275390625,Opening,0.0,0.0,1.0,0.0,0.0,0.0,0.0,0.0,
5.556692000000039,0.0,0.0,41151.0,0.0,0.0,0.0,0.0,0.25,0.860595615,0.01,0.0,38157.0,0.0,0.0,-0.0,0.0,0.25,0.404052693,0.01,0.0,-2103.0,0.0,0.0,0.0,0.0,0.0,3.3142086450000003,0.01,0.0,40696.0,0.125,0.0,-0.0,0.0,0.25,1.669921704,0.01,0.0,0.3799999952316284,-1.2400000095367432,0.0,-0.02410888671875,0.0098876953125,1.02374267578125,35.0,0.0,-1.0,1.649017333984375,0.268707275390625,Opening,0.0,0.0,1.0,0.0,0.0,0.0,0.0,0.0,
5.6374579999999845,0.0,0.0,41151.0,0.0,0.0,0.0,0.0,0.25,0.860595615,0.01,0.0,38157.0,0.0,0.0,-0.0,0.0,0.25,0.404052693,0.01,0.0,-2103.0,0.0,0.0,0.0,0.0,0.0,3.3154293480000003,0.01,0.0,40696.0,0.125,0.0,-0.0,0.0,0.25,1.669921704,0.01,0.0,0.3799999952316284,-1.2300000190734863,0.0,-0.0191650390625,0.00823974609375,1.01715087890625,35.0,0.0,2.0,1.649017333984375,0.268707275390625,Opening,0.0,0.0,1.0,0.0,0.0,0.0,0.0,0.0,
5.727351999999955,0.0,0.0,41151.0,0.0,0.0,0.0,0.0,0.25,0.860595615,0.01,-0.0024414059999999793,38157.0,0.0,0.0,-0.0,0.0,0.25,0.404052693,0.01,0.0,-2103.0,0.0,0.0,0.0,0.0,0.0,3.3142086450000003,0.01,0.0,40696.0,0.125,0.0,-0.0,0.0,0.25,1.669921704,0.01,0.0,0.3799999952316284,-1.2300000190734863,0.0,-0.02325439453125,0.00518798828125,1.02069091796875,35.0,0.0,-1.0,1.649017333984375,0.268707275390625,Opening,0.0,0.0,1.0,0.0,0.0,0.0,0.0,0.0,
5.811013999999966,0.0,0.0,41151.0,0.0,0.0,0.0,0.0,0.25,0.860595615,0.01,0.0,38157.0,0.0,0.0,-0.0,0.0,0.25,0.404052693,0.01,0.0,-2103.0,0.0,0.0,0.0,0.0,0.125,3.3154293480000003,0.01,0.0,40696.0,0.125,0.0,-0.0,0.0,0.25,1.668701001,0.01,0.0,0.3799999952316284,-1.2300000190734863,0.0,-0.02227783203125,0.0072021484375,1.0223388671875,35.0,0.0,0.0,1.649017333984375,0.268707275390625,Opening,0.0,0.0,1.0,0.0,0.0,0.0,0.0,0.0,
5.892505000000004,0.0,0.0,41151.0,0.0,0.0,0.0,0.0,0.25,0.859374912,0.01,0.0,38157.0,0.0,0.0,-0.0,0.0,0.25,0.404052693,0.01,0.0,-2103.0,0.0,0.0,0.0,0.0,0.0,3.3154293480000003,0.01,0.0,40696.0,0.125,0.0,-0.0,0.0,0.25,1.669921704,0.01,0.0,0.3700000047683716,-1.2200000286102295,0.0,-0.02337646484375,0.00531005859375,1.0167236328125,35.0,0.0,-1.0,1.649017333984375,0.268707275390625,Opening,0.0,0.0,1.0,0.0,0.0,0.0,0.0,0.0,
5.977062999999966,0.0,0.0,41151.0,0.0,0.0,0.0,0.0,0.25,0.860595615,0.01,0.0,38157.0,0.0,0.0,-0.0,0.0,0.25,0.40771480200000004,0.01,0.0,-2103.0,0.0,0.0,0.0,0.0,0.0,3.3166500510000003,0.01,0.0,40696.0,0.125,0.0,-0.0,0.0,0.25,1.669921704,0.01,0.0,0.3799999952316284,-1.2300000190734863,0.0,-0.0218505859375,0.00689697265625,1.02606201171875,35.02000045776367,0.0,0.0,1.649017333984375,0.268707275390625,Opening,0.0,0.0,1.0,0.0,0.0,0.0,0.0,0.0,
6.149898000000045,0.0,0.0,41151.0,0.0,0.0,0.0,0.0,0.25,0.860595615,0.01,0.0,38157.0,0.0,0.0,-0.0,0.0,0.25,0.405273396,0.01,0.0,-2103.0,0.0,0.0,0.0,0.0,0.125,3.3142086450000003,0.01,0.0,40696.0,0.125,0.0,-0.0,0.0,0.25,1.669921704,0.01,0.0,0.3700000047683716,-1.2300000190734863,0.0,-0.0242919921875,0.007568359375,1.0194091796875,35.02000045776367,0.0,-2.0,1.649017333984375,0.268707275390625,Opening,0.0,0.0,1.0,0.0,0.0,0.0,0.0,0.0,
6.334640999999945,0.0,0.0,41151.0,0.0,0.0,0.0,0.0,0.25,0.860595615,0.01,0.0,38157.0,0.0,0.0,-0.0,0.0,0.25,0.404052693,0.01,0.0,-2103.0,0.0,0.0,0.0,0.0,0.0,3.3154293480000003,0.01,0.0,40696.0,0.125,0.0,-0.0,0.0,0.25,1.669921704,0.01,0.0,0.3700000047683716,-1.2300000190734863,0.0,-0.01898193359375,0.00665283203125,1.01763916015625,35.02000045776367,0.0,3.0,1.649017333984375,0.268707275390625,Opening,0.0,0.0,1.0,0.0,0.0,0.0,0.0,0.0,
6.420048999999999,0.0,0.0,41151.0,0.0,0.0,0.0,0.0,0.25,0.860595615,0.01,0.0,38157.0,0.0,0.0,-0.0,0.0,0.25,0.40161128700000004,0.01,0.0,-2103.0,0.0,0.0,0.0,0.0,0.0,3.3154293480000003,0.01,0.0,40696.0,0.125,0.0,-0.0,0.0,0.25,1.669921704,0.01,0.0,0.3700000047683716,-1.2200000286102295,0.0,-0.02130126953125,0.00799560546875,1.0213623046875,35.02000045776367,0.0,0.0,1.649017333984375,0.268707275390625,Opening,0.0,0.0,1.0,0.0,0.0,0.0,0.0,0.0,
6.508079000000027,0.0,0.0,41151.0,0.0,0.0,0.0,0.0,0.25,0.859374912,0.01,0.0,38157.0,0.0,0.0,-0.0,0.0,0.25,0.40161128700000004,0.01,0.0,-2103.0,0.0,0.0,0.0,0.0,0.125,3.3154293480000003,0.01,0.0,40696.0,0.125,0.0,-0.0,0.0,0.25,1.669921704,0.01,0.0,0.3700000047683716,-1.2300000190734863,0.0,-0.02056884765625,0.00848388671875,1.01873779296875,35.02000045776367,0.0,1.0,1.649017333984375,0.268707275390625,Opening,0.0,0.0,1.0,0.0,0.0,0.0,0.0,0.0,
6.589447000000043,0.0,0.0,41151.0,0.0,0.0,0.0,0.0,0.25,0.8581542090000001,0.01,0.0,38157.0,0.0,0.0,-0.0,0.0,0.25,0.405273396,0.01,0.0,-2103.0,0.0,0.0,0.0,0.0,0.125,3.3154293480000003,0.01,0.0,40696.0,0.125,0.0,-0.0,0.0,0.25,1.669921704,0.01,0.0,0.3700000047683716,-1.2300000190734863,-0.009999999776482582,-0.01959228515625,0.0079345703125,1.021728515625,35.0099983215332,0.0,2.0,1.649017333984375,0.268707275390625,Opening,0.0,0.0,1.0,0.0,0.0,0.0,0.0,0.0,
6.673072000000044,0.0,0.0,41151.0,0.0,0.0,0.0,0.0,0.25,0.859374912,0.01,0.0,38157.0,0.0,0.0,-0.0,0.0,0.25,0.404052693,0.01,0.0,-2103.0,0.0,0.0,0.0,0.0,0.125,3.3166500510000003,0.01,0.0,40696.0,0.125,0.0,-0.0,0.0,0.25,1.669921704,0.01,-0.0012207029999999897,0.3700000047683716,-1.2300000190734863,0.0,-0.02264404296875,0.005126953125,1.02154541015625,35.0099983215332,0.0,0.0,1.649017333984375,0.268707275390625,Opening,0.0,0.0,1.0,0.0,0.0,0.0,0.0,0.0,
6.753346999999951,0.0,0.0,41151.0,0.0,0.0,0.0,0.0,0.25,0.860595615,0.01,0.0,38157.0,0.0,0.0,-0.0,0.0,0.25,0.404052693,0.01,0.0,-2103.0,0.0,0.0,0.0,0.0,0.0,3.3154293480000003,0.01,0.0,40696.0,0.0,0.0,-0.0,0.0,0.25,1.669921704,0.01,0.0,0.3700000047683716,-1.2200000286102295,0.0,-0.02593994140625,0.0062255859375,1.0233154296875,35.0099983215332,0.0,-3.0,1.649017333984375,0.268707275390625,Opening,0.0,0.0,1.0,0.0,0.0,0.0,0.0,0.0,
6.838873000000022,0.0,0.0,41151.0,0.0,0.0,0.0,0.0,0.25,0.859374912,0.01,0.0,38157.0,0.0,0.0,-0.0,0.0,0.25,0.406494099,0.01,0.0,-2103.0,0.0,0.0,0.0,0.0,0.125,3.3105465360000004,0.01,0.0,40696.0,0.125,0.0,-0.0,0.0,0.25,1.67236311,0.01,0.0,0.3700000047683716,-1.2200000286102295,0.0,-0.0218505859375,0.0093994140625,1.0224609375,35.0099983215332,0.0,0.0,1.649017333984375,0.268707275390625,Opening,0.0,0.0,1.0,0.0,0.0,0.0,0.0,0.0,
6.9284719999999504,0.0,0.0,41151.0,0.0,0.0,0.0,0.0,0.25,0.860595615,0.01,0.0,38157.0,0.0,0.0,-0.0,0.0,0.25,0.404052693,0.01,0.0,-2103.0,0.0,0.0,0.0,0.0,0.125,3.3154293480000003,0.01,0.0,40696.0,0.125,0.0,-0.0,0.0,0.25,1.669921704,0.01,0.0012207029999999897,0.3700000047683716,-1.2200000286102295,0.0,-0.01953125,0.00537109375,1.0189208984375,35.0099983215332,0.0,2.0,1.649017333984375,0.268707275390625,Opening,0.0,0.0,1.0,0.0,0.0,0.0,0.0,0.0,
7.009081999999936,0.0,0.0,41151.0,0.0,0.0,0.0,0.0,0.25,0.860595615,0.01,0.0,38157.0,0.0,0.0,-0.0,0.0,0.25,0.405273396,0.01,0.0,-2103.0,0.0,0.0,0.0,0.0,0.125,3.3154293480000003,0.01,0.0,40696.0,0.125,0.0,-0.0,0.0,0.25,1.67236311,0.01,0.0,0.3799999952316284,-1.2300000190734863,0.0,-0.0196533203125,0.01080322265625,1.0184326171875,35.0099983215332,0.0,2.0,1.649017333984375,0.268707275390625,Opening,0.0,0.0,1.0,0.0,0.0,0.0,0.0,0.0,
7.0925359999999635,0.0,0.0,41151.0,0.0,0.0,0.0,0.0,0.25,0.861816318,0.01,0.0,38157.0,0.0,0.0,-0.0,0.0,0.25,0.404052693,0.01,0.0,-2103.0,0.0,0.0,0.0,0.0,0.0,3.3154293480000003,0.01,0.0,40696.0,0.125,0.0,-0.0,0.0,0.25,1.669921704,0.01,0.0,0.3799999952316284,-1.2300000190734863,0.0,-0.024169921875,0.005615234375,1.01727294921875,35.02000045776367,0.0,-2.0,1.649017333984375,0.268707275390625,Opening,0.0,0.0,1.0,0.0,0.0,0.0,0.0,0.0,
7.179780000000028,0.0,0.0,41151.0,0.0,0.0,0.0,0.0,0.25,0.860595615,0.01,0.0,38157.0,0.0,0.0,-0.0,0.0,0.25,0.405273396,0.01,0.0,-2103.0,0.0,0.0,0.0,0.0,0.0,3.3154293480000003,0.01,-0.0012207029999995456,40696.0,0.125,0.0,-0.0,0.0,0.25,1.669921704,0.01,0.0012207029999999897,0.3700000047683716,-1.2300000190734863,0.0,-0.022216796875,0.01104736328125,1.02264404296875,35.02000045776367,0.0,0.0,1.649017333984375,0.268707275390625,Opening,0.0,0.0,1.0,0.0,0.0,0.0,0.0,0.0,
7.2677519999999785,0.0,0.0,41151.0,0.0,0.0,0.0,0.0,0.25,0.864257724,0.01,0.0,38157.0,0.0,0.0,-0.0,0.0,0.25,0.405273396,0.01,0.0,-2103.0,0.0,0.0,0.0,0.0,0.125,3.3142086450000003,0.01,0.0,40696.0,0.125,0.0,-0.0,0.0,0.25,1.669921704,0.01,-0.0012207029999999897,0.3799999952316284,-1.2300000190734863,0.0,-0.02105712890625,0.003173828125,1.0224609375,35.02000045776367,0.0,0.0,1.649017333984375,0.268707275390625,Opening,0.0,0.0,1.0,0.0,0.0,0.0,0.0,0.0,
7.348167999999947,0.0,0.0,41151.0,0.0,0.0,0.0,0.0,0.25,0.859374912,0.01,0.0,38157.0,0.0,0.0,-0.0,0.0,0.25,0.405273396,0.01,0.0,-2103.0,0.0,0.0,0.0,0.0,0.125,3.3142086450000003,0.01,0.0,40696.0,0.125,0.0,-0.0,0.0,0.25,1.669921704,0.01,0.0,0.3799999952316284,-1.2300000190734863,-0.009999999776482582,-0.0206298828125,0.0084228515625,1.01483154296875,35.02000045776367,0.0,1.0,1.649017333984375,0.268707275390625,Opening,0.0,0.0,1.0,0.0,0.0,0.0,0.0,0.0,
7.4340370000000116,0.0,0.0,41151.0,0.0,0.0,0.0,0.0,0.25,0.860595615,0.01,-0.0012207029999999897,38157.0,0.0,0.0,-0.0,0.0,0.25,0.405273396,0.01,0.0,-2103.0,0.0,0.0,0.0,0.0,0.0,3.3154293480000003,0.01,0.0,40696.0,0.125,0.0,-0.0,0.0,0.25,1.669921704,0.01,0.0,0.3799999952316284,-1.2300000190734863,0.0,-0.021728515625,0.00518798828125,1.01885986328125,35.02000045776367,0.0,0.0,1.649017333984375,0.268707275390625,Opening,0.0,0.0,1.0,0.0,0.0,0.0,0.0,0.0,
7.521369999999996,0.0,0.0,41151.0,0.0,0.0,0.0,0.0,0.25,0.859374912,0.01,0.0012207029999999897,38157.0,0.0,0.0,-0.0,0.0,0.25,0.404052693,0.01,0.0,-2103.0,0.0,0.0,0.0,0.0,0.0,3.3142086450000003,0.01,0.0,40696.0,0.125,0.0,-0.0,0.0,0.25,1.669921704,0.01,-0.0012207029999999897,0.3799999952316284,-1.2300000190734863,0.0,-0.01763916015625,0.0076904296875,1.021484375,35.02000045776367,0.0,4.0,1.649017333984375,0.268707275390625,Opening,0.0,0.0,1.0,0.0,0.0,0.0,0.0,0.0,
7.599836999999941,0.0,0.0,41151.0,0.0,0.0,0.0,0.0,0.25,0.859374912,0.01,0.0,38157.0,0.0,0.0,-0.0,0.0,0.25,0.404052693,0.01,0.0,-2103.0,0.0,0.0,0.0,0.0,0.0,3.3154293480000003,0.01,0.0,40696.0,0.125,0.0,-0.0,0.0,0.25,1.668701001,0.01,0.0,0.3799999952316284,-1.2300000190734863,0.0,-0.022216796875,0.00360107421875,1.01531982421875,35.02000045776367,0.0,0.0,1.649017333984375,0.268707275390625,Opening,0.0,0.0,1.0,0.0,0.0,0.0,0.0,0.0,
7.688180999999982,0.0,0.0,41151.0,0.0,0.0,0.0,0.0,0.25,0.861816318,0.01,-0.0012207029999999897,38157.0,0.0,0.0,-0.0,0.0,0.25,0.405273396,0.01,0.0,-2103.0,0.0,0.0,0.0,0.0,0.125,3.3154293480000003,0.01,0.0,40696.0,0.125,0.0,-0.0,0.0,0.25,1.671142407,0.01,0.0,0.3799999952316284,-1.2300000190734863,0.0,-0.02313232421875,0.00408935546875,1.02313232421875,35.02000045776367,0.0,0.0,1.649017333984375,0.268707275390625,Opening,0.0,0.0,1.0,0.0,0.0,0.0,0.0,0.0,
7.77261499999999,0.0,0.0,41151.0,0.0,0.0,0.0,0.0,0.25,0.860595615,0.01,0.0,38157.0,0.0,0.0,-0.0,0.0,0.25,0.404052693,0.01,0.0,-2103.0,0.0,0.0,0.0,0.0,0.125,3.3154293480000003,0.01,0.0,40696.0,0.0,0.0,-0.0,0.0,0.25,1.669921704,0.01,-0.0012207029999999897,0.3799999952316284,-1.2300000190734863,0.0,-0.02447509765625,0.0052490234375,1.0186767578125,35.02000045776367,0.0,-2.0,1.649017333984375,0.268707275390625,Opening,0.0,0.0,1.0,0.0,0.0,0.0,0.0,0.0,
7.852927999999956,0.0,0.0,41151.0,0.0,0.0,0.0,0.0,0.25,0.860595615,0.01,0.0,38157.0,0.0,0.0,-0.0,0.0,0.25,0.404052693,0.01,0.0,-2103.0,0.0,0.0,0.0,0.0,0.125,3.3142086450000003,0.01,0.0,40696.0,0.125,0.0,-0.0,0.0,0.25,1.668701001,0.01,0.0,0.3799999952316284,-1.2300000190734863,0.0,-0.0203857421875,0.0045166015625,1.02484130859375,35.02000045776367,0.0,1.0,1.649017333984375,0.268707275390625,Opening,0.0,0.0,1.0,0.0,0.0,0.0,0.0,0.0,
7.9382889999999895,0.0,0.0,41151.0,0.0,0.0,0.0,0.0,0.25,0.859374912,0.01,0.0,38157.0,0.0,0.0,-0.0,0.0,0.25,0.404052693,0.01,0.0,-2103.0,0.0,0.0,0.0,0.0,0.125,3.3154293480000003,0.01,0.0,40696.0,0.0,0.0,-0.0,0.0,0.25,1.669921704,0.01,0.0,0.3799999952316284,-1.2300000190734863,0.0,-0.0238037109375,0.01080322265625,1.0181884765625,35.02000045776367,0.0,-1.0,1.649017333984375,0.268707275390625,Opening,0.0,0.0,1.0,0.0,0.0,0.0,0.0,0.0,
8.025875,0.0,0.0,41151.0,0.0,0.0,0.0,0.0,0.25,0.859374912,0.01,0.0,38157.0,0.0,0.0,-0.0,0.0,0.25,0.406494099,0.01,0.0,-2103.0,0.0,0.0,0.0,0.0,0.125,3.3154293480000003,0.01,0.0,40696.0,0.125,0.0,-0.0,0.0,0.25,1.669921704,0.01,-0.0012207029999999897,0.38999998569488525,-1.2300000190734863,0.0,-0.01904296875,0.00567626953125,1.01837158203125,35.02000045776367,0.0,2.0,1.649017333984375,0.268707275390625,Opening,0.0,0.0,1.0,0.0,0.0,0.0,0.0,0.0,
8.11026899999997,0.0,0.0,41151.0,0.0,0.0,0.0,0.0,0.25,0.859374912,0.01,0.0,38157.0,0.0,0.0,-0.0,0.0,0.25,0.404052693,0.01,0.0,-2103.0,0.0,0.0,0.0,0.0,0.125,3.3142086450000003,0.01,0.0,40696.0,0.125,0.0,-0.0,0.0,0.25,1.669921704,0.01,0.0,0.38999998569488525,-1.2300000190734863,-0.009999999776482582,-0.0245361328125,0.0115966796875,1.02734375,35.0,0.0,-2.0,1.649017333984375,0.268707275390625,Opening,0.0,0.0,1.0,0.0,0.0,0.0,0.0,0.0,
8.191295999999973,0.0,0.0,41151.0,0.0,0.0,0.0,0.0,0.25,0.860595615,0.01,-0.0012207029999999897,38157.0,0.0,0.0,-0.0,0.0,0.25,0.404052693,0.01,0.0,-2103.0,0.0,0.0,0.0,0.0,0.0,3.3154293480000003,0.01,0.0,40696.0,0.125,0.0,-0.0,0.0,0.25,1.669921704,0.01,0.0,0.38999998569488525,-1.2300000190734863,-0.009999999776482582,-0.01995849609375,0.00469970703125,1.01239013671875,35.0,0.0,1.0,1.649017333984375,0.268707275390625,Opening,0.0,0.0,1.0,0.0,0.0,0.0,0.0,0.0,
8.274184000000009,0.0,0.0,41151.0,0.0,0.0,0.0,0.0,0.25,0.860595615,0.01,0.0012207029999999897,38157.0,0.0,0.0,-0.0,0.0,0.25,0.404052693,0.01,0.0,-2103.0,0.0,0.0,0.0,0.0,0.0,3.3154293480000003,0.01,0.0,40696.0,0.125,0.0,-0.0,0.0,0.25,1.669921704,0.01,0.0012207029999999897,0.38999998569488525,-1.2300000190734863,-0.009999999776482582,-0.02362060546875,0.00616455078125,1.02044677734375,35.0,0.0,-1.0,1.649017333984375,0.268707275390625,Opening,0.0,0.0,1.0,0.0,0.0,0.0,0.0,0.0,
8.357469000000041,0.0,0.0,41151.0,0.0,0.0,0.0,0.0,0.25,0.860595615,0.01,0.0,38157.0,0.0,0.0,-0.0,0.0,0.25,0.404052693,0.01,0.0,-2103.0,0.0,0.0,0.0,0.0,0.125,3.3142086450000003,0.01,0.0,40696.0,0.125,0.0,-0.0,0.0,0.25,1.667480298,0.01,0.0,0.38999998569488525,-1.2300000190734863,-0.009999999776482582,-0.021484375,0.00775146484375,1.023193359375,35.0,0.0,0.0,1.649017333984375,0.268707275390625,Opening,0.0,0.0,1.0,0.0,0.0,0.0,0.0,0.0,
8.448831999999937,0.0,0.0,41151.0,0.0,0.0,0.0,0.0,0.25,0.859374912,0.01,0.0,38157.0,0.0,0.0,-0.0,0.0,0.25,0.405273396,0.01,0.0,-2103.0,0.0,0.0,0.0,0.0,0.125,3.3154293480000003,0.01,0.0,40696.0,0.125,0.0,-0.0,0.0,0.25,1.669921704,0.01,0.0,0.38999998569488525,-1.2300000190734863,-0.019999999552965164,-0.01910400390625,0.00531005859375,1.0164794921875,35.0,0.0,2.0,1.649017333984375,0.268707275390625,Opening,0.0,0.0,1.0,0.0,0.0,0.0,0.0,0.0,
8.532824000000023,0.0,0.0,41151.0,0.0,0.0,0.0,0.0,0.25,0.8532713970000001,0.01,0.0,38157.0,0.0,0.0,-0.0,0.0,0.25,0.405273396,0.01,0.0,-2103.0,0.0,0.0,0.0,0.0,0.0,3.3154293480000003,0.01,0.0,40696.0,0.125,0.0,-0.0,0.0,0.25,1.669921704,0.01,0.0,0.38999998569488525,-1.2300000190734863,-0.009999999776482582,-0.02508544921875,0.0052490234375,1.0206298828125,35.0,0.0,-3.0,1.649017333984375,0.268707275390625,Opening,0.0,0.0,1.0,0.0,0.0,0.0,0.0,0.0,
8.617160999999964,0.0,0.0,41151.0,0.0,0.0,0.0,0.0,0.25,0.860595615,0.01,0.0,38157.0,0.0,0.0,-0.0,0.0,0.25,0.405273396,0.01,0.0,-2103.0,0.0,0.0,0.0,0.0,0.0,3.3142086450000003,0.01,0.0,40696.0,0.125,0.0,-0.0,0.0,0.25,1.669921704,0.01,-0.0012207029999999897,0.38999998569488525,-1.2200000286102295,-0.019999999552965164,-0.020751953125,0.00811767578125,1.01800537109375,35.029998779296875,0.0,1.0,1.649017333984375,0.268707275390625,Opening,0.0,0.0,1.0,0.0,0.0,0.0,0.0,0.0,
8.704795999999973,0.0,0.0,41151.0,0.0,0.0,0.0,0.0,0.25,0.860595615,0.01,0.0,38157.0,0.0,0.0,-0.0,0.0,0.25,0.40283199000000003,0.01,0.0,-2103.0,0.0,0.0,0.0,0.0,0.0,3.3154293480000003,0.01,0.0,40696.0,0.125,0.0,-0.0,0.0,0.25,1.669921704,0.01,0.0,0.3799999952316284,-1.2300000190734863,-0.009999999776482582,-0.02447509765625,0.006103515625,1.02044677734375,35.029998779296875,0.0,-2.0,1.649017333984375,0.268707275390625,Opening,0.0,0.0,1.0,0.0,0.0,0.0,0.0,0.0,
8.792768999999971,0.0,0.0,41151.0,0.0,0.0,0.0,0.0,0.25,0.860595615,0.01,0.0,38157.0,0.0,0.0,-0.0,0.0,0.25,0.404052693,0.01,0.0,-2103.0,0.0,0.0,0.0,0.0,0.125,3.3154293480000003,0.01,0.0,40696.0,0.125,0.0,-0.0,0.0,0.25,1.668701001,0.01,0.0,0.38999998569488525,-1.2200000286102295,-0.019999999552965164,-0.01885986328125,0.00433349609375,1.01715087890625,35.029998779296875,0.0,2.0,1.649017333984375,0.268707275390625,Opening,0.0,0.0,1.0,0.0,0.0,0.0,0.0,0.0,
8.877537000000011,0.0,0.0,41151.0,0.0,0.0,0.0,0.0,0.25,0.8557128030000001,0.01,0.0,38157.0,0.0,0.0,-0.0,0.0,0.25,0.404052693,0.01,0.0,-2103.0,0.0,0.0,0.0,0.0,0.125,3.3154293480000003,0.01,0.0,40696.0,0.125,0.0,-0.0,0.0,0.25,1.669921704,0.01,-0.0012207029999999897,0.38999998569488525,-1.2200000286102295,-0.019999999552965164,-0.02117919921875,0.0093994140625,1.0206298828125,35.029998779296875,0.0,0.0,1.649017333984375,0.268707275390625,Opening,0.0,0.0,1.0,0.0,0.0,0.0,0.0,0.0,
8.970168999999995,0.0,0.0,41151.0,0.0,0.0,0.0,0.0,0.25,0.859374912,0.01,0.0,38157.0,0.0,0.0,-0.0,0.0,0.25,0.405273396,0.01,0.0,-2103.0,0.0,0.0,0.0,0.0,0.125,3.3154293480000003,0.01,0.0,40696.0,0.125,0.0,-0.0,0.0,0.25,1.669921704,0.01,0.0,0.3799999952316284,-1.2200000286102295,-0.019999999552965164,-0.018798828125,0.006103515625,1.012451171875,35.029998779296875,0.0,2.0,1.649017333984375,0.268707275390625,Opening,0.0,0.0,1.0,0.0,0.0,0.0,0.0,0.0,
9.054815999999992,0.0,0.0,41151.0,0.0,0.0,0.0,0.0,0.25,0.859374912,0.01,0.0,38157.0,0.0,0.0,-0.0,0.0,0.25,0.40161128700000004,0.01,0.0,-2103.0,0.0,0.0,0.0,0.0,0.0,3.3154293480000003,0.01,0.0,40696.0,0.125,0.0,-0.0,0.0,0.25,1.671142407,0.01,0.0,0.38999998569488525,-1.2200000286102295,-0.019999999552965164,-0.02215576171875,0.00579833984375,1.0220947265625,35.029998779296875,0.0,0.0,1.649017333984375,0.268707275390625,Opening,0.0,0.0,1.0,0.0,0.0,0.0,0.0,0.0,
9.148069999999949,0.0,0.0,41151.0,0.0,0.0,0.0,0.0,0.25,0.859374912,0.01,0.0,38157.0,0.0,0.0,-0.0,0.0,0.25,0.405273396,0.01,0.0,-2103.0,0.0,0.0,0.0,0.0,0.125,3.3154293480000003,0.01,0.0,40696.0,0.125,0.0,-0.0,0.0,0.25,1.669921704,0.01,0.0,0.3799999952316284,-1.2200000286102295,-0.019999999552965164,-0.02093505859375,0.00653076171875,1.01910400390625,35.02000045776367,0.0,0.0,1.649017333984375,0.268707275390625,Closing,0.0,0.0,1.0,0.0,0.0,0.0,0.0,0.0,
9.235871999999974,0.0,0.0,41151.0,0.0,0.0,0.0,0.0,0.25,0.8581542090000001,0.01,-0.0012207029999999897,38157.0,0.0,0.0,-0.0,0.0,0.25,0.405273396,0.01,0.0,-2103.0,0.0,0.0,0.0,0.0,0.125,3.3166500510000003,0.01,0.0,40696.0,0.125,0.0,-0.0,0.0,0.25,1.669921704,0.01,0.0,0.3799999952316284,-1.2200000286102295,-0.019999999552965164,-0.02178955078125,0.00885009765625,1.0223388671875,35.02000045776367,0.0,0.0,1.649017333984375,0.268707275390625,Closing,0.0,0.0,1.0,0.0,0.0,0.0,0.0,0.0,
9.328199000000023,0.0,0.0,41151.0,0.0,0.0,0.0,0.0,0.25,0.860595615,0.01,0.0,38157.0,0.0,0.0,-0.0,0.0,0.25,0.405273396,0.01,0.0,-2103.0,0.0,0.0,0.0,0.0,0.125,3.3154293480000003,0.01,0.0,40696.0,0.125,0.0,-0.0,0.0,0.25,1.665038892,0.01,-0.0012207029999999897,0.3799999952316284,-1.2200000286102295,-0.019999999552965164,-0.02093505859375,0.00445556640625,1.01947021484375,35.02000045776367,0.0,0.0,1.649017333984375,0.268707275390625,Closing,0.0,0.0,1.0,0.0,0.0,0.0,0.0,0.0,
9.413456999999937,0.0,0.0,41151.0,0.0,0.0,0.0,0.0,0.25,0.860595615,0.01,0.0,38157.0,0.0,0.0,-0.0,0.0,0.25,0.405273396,0.01,0.0,-2103.0,0.0,0.0,0.0,0.0,0.0,3.3154293480000003,0.01,0.0,40696.0,0.125,0.0,-0.0,0.0,0.25,1.668701001,0.01,0.0,0.3799999952316284,-1.2200000286102295,-0.019999999552965164,-0.02301025390625,0.00811767578125,1.0216064453125,35.02000045776367,0.0,-1.0,1.649017333984375,0.268707275390625,Closing,0.0,0.0,1.0,0.0,0.0,0.0,0.0,0.0,
9.50790399999998,0.0,0.0,41151.0,0.0,0.0,0.0,0.0,0.25,0.859374912,0.01,0.0,38157.0,0.0,0.0,-0.0,0.0,0.25,0.405273396,0.01,0.0,-2103.0,0.0,0.0,0.0,0.0,0.0,3.3154293480000003,0.01,0.0,40696.0,0.125,0.0,-0.0,0.0,0.25,1.669921704,0.01,0.0,0.3799999952316284,-1.2200000286102295,-0.019999999552965164,-0.02154541015625,0.005859375,1.01422119140625,35.02000045776367,0.0,0.0,1.649017333984375,0.268707275390625,Closing,0.0,0.0,1.0,0.0,0.0,0.0,0.0,0.0,
9.596324999999954,0.0,0.0,41151.0,0.0,0.0,0.0,0.0,0.25,0.860595615,0.01,0.0,38157.0,0.0,0.0,-0.0,0.0,0.25,0.405273396,0.01,0.0,-2103.0,0.0,0.0,0.0,0.0,0.125,3.3154293480000003,0.01,0.0,40696.0,0.125,0.0,-0.0,0.0,0.25,1.666259595,0.01,0.0,0.3799999952316284,-1.2200000286102295,-0.009999999776482582,-0.02227783203125,0.0062255859375,1.0185546875,35.02000045776367,0.0,0.0,1.649017333984375,0.268707275390625,Closing,0.0,0.0,1.0,0.0,0.0,0.0,0.0,0.0,
9.691042999999947,0.0,0.0,41151.0,0.0,0.0,0.0,0.0,0.25,0.860595615,0.01,0.0,38157.0,0.0,0.0,-0.0,0.0,0.25,0.404052693,0.01,0.0,-2103.0,0.0,0.0,0.0,0.0,0.0,3.3154293480000003,0.01,0.0,40696.0,0.0,0.0,-0.0,0.0,0.25,1.669921704,0.01,0.0,0.3799999952316284,-1.2200000286102295,-0.009999999776482582,-0.02069091796875,0.00897216796875,1.02197265625,34.9900016784668,0.0,1.0,1.649017333984375,0.268707275390625,Closing,0.0,0.0,1.0,0.0,0.0,0.0,0.0,0.0,
9.779505999999936,0.0,0.0,41151.0,0.0,0.0,0.0,0.0,0.25,0.859374912,0.01,0.0,38157.0,0.0,0.0,-0.0,0.0,0.25,0.404052693,0.01,0.0,-2103.0,0.0,0.0,0.0,0.0,0.0,3.3142086450000003,0.01,0.0,40696.0,0.125,0.0,-0.0,0.0,0.25,1.669921704,0.01,0.0,0.3799999952316284,-1.2200000286102295,-0.009999999776482582,-0.0223388671875,0.00823974609375,1.0181884765625,34.9900016784668,0.0,0.0,1.649017333984375,0.268707275390625,Closing,0.0,0.0,1.0,0.0,0.0,0.0,0.0,0.0,
9.870248000000021,0.0,0.0,41151.0,0.0,0.0,0.0,0.0,0.25,0.860595615,0.01,0.0,38157.0,0.0,0.0,-0.0,0.0,0.25,0.405273396,0.01,0.0,-2103.0,0.0,0.0,0.0,0.0,0.125,3.3142086450000003,0.01,0.0,40696.0,0.0,0.0,-0.0,0.0,0.25,1.669921704,0.01,0.0,0.38999998569488525,-1.2100000381469727,-0.009999999776482582,-0.0223388671875,0.004638671875,1.02001953125,34.9900016784668,0.0,0.0,1.649017333984375,0.268707275390625,Closing,0.0,0.0,1.0,0.0,0.0,0.0,0.0,0.0,
9.955444000000018,0.0,0.0,41151.0,0.0,0.0,0.0,0.0,0.25,0.859374912,0.01,0.0,38157.0,0.0,0.0,-0.0,0.0,0.25,0.40771480200000004,0.01,0.0,-2103.0,0.0,0.0,0.0,0.0,0.0,3.3117672390000004,0.01,0.0,40696.0,0.0,0.0,-0.0,0.0,0.25,1.669921704,0.01,0.0,0.38999998569488525,-1.2100000381469727,-0.009999999776482582,-0.02008056640625,0.00616455078125,1.0213623046875,34.9900016784668,0.0,1.0,1.649017333984375,0.268707275390625,Closing,0.0,0.0,1.0,0.0,0.0,0.0,0.0,0.0,
10.049481000000029,0.0,0.0,41151.0,0.0,0.0,0.0,0.0,0.25,0.860595615,0.01,0.0,38157.0,0.0,0.0,-0.0,0.0,0.25,0.405273396,0.01,0.0,-2103.0,0.0,0.0,0.0,0.0,0.125,3.3154293480000003,0.01,0.0,40696.0,0.0,0.0,-0.0,0.0,0.25,1.669921704,0.01,0.0,0.3799999952316284,-1.2100000381469727,-0.009999999776482582,-0.02569580078125,0.00885009765625,1.02947998046875,34.9900016784668,0.0,-3.0,1.649017333984375,0.268707275390625,Closing,0.0,0.0,1.0,0.0,0.0,0.0,0.0,0.0,
10.135876000000048,0.0,0.0,41151.0,0.0,0.0,0.0,0.0,0.25,0.860595615,0.01,0.0,38157.0,0.0,0.0,-0.0,0.0,0.25,0.405273396,0.01,0.0,-2103.0,0.0,0.0,0.0,0.0,0.125,3.3154293480000003,0.01,0.0,40696.0,0.125,0.0,-0.0,0.0,0.25,1.669921704,0.01,0.0,0.38999998569488525,-1.2100000381469727,-0.009999999776482582,-0.02374267578125,0.00799560546875,1.02850341796875,35.040000915527344,0.0,-1.0,1.649017333984375,0.268707275390625,Closing,0.0,0.0,1.0,0.0,0.0,0.0,0.0,0.0,
10.23148999999999,0.0,0.0,41151.0,0.0,0.0,0.0,0.0,0.25,0.859374912,0.01,0.0,38157.0,0.0,0.0,-0.0,0.0,0.25,0.404052693,0.01,0.0,-2103.0,0.0,0.0,0.0,0.0,0.0,3.3154293480000003,0.01,0.0,40696.0,0.125,0.0,-0.0,0.0,0.25,1.666259595,0.01,0.0,0.3799999952316284,-1.2200000286102295,-0.009999999776482582,-0.0179443359375,0.00885009765625,1.01812744140625,35.040000915527344,0.0,3.0,1.649017333984375,0.268707275390625,Closing,0.0,0.0,1.0,0.0,0.0,0.0,0.0,0.0,
10.316550000000047,0.0,0.0,41151.0,0.0,0.0,0.0,0.0,0.25,0.860595615,0.01,0.0,38157.0,0.0,0.0,-0.0,0.0,0.25,0.405273396,0.01,0.0,-2103.0,0.0,0.0,0.0,0.0,0.0,3.3154293480000003,0.01,0.0,40696.0,0.125,0.0,-0.0,0.0,0.25,1.668701001,0.01,0.0,0.3799999952316284,-1.2200000286102295,-0.009999999776482582,-0.02313232421875,0.005859375,1.0179443359375,35.040000915527344,0.0,-1.0,1.649017333984375,0.268707275390625,Closing,0.0,0.0,1.0,0.0,0.0,0.0,0.0,0.0,
10.409141999999992,0.0,0.0,41151.0,0.0,0.0,0.0,0.0,0.25,0.860595615,0.01,0.0,38157.0,0.0,0.0,-0.0,0.0,0.25,0.405273396,0.01,0.0,-2103.0,0.0,0.0,0.0,0.0,0.125,3.3142086450000003,0.01,0.0,40696.0,0.125,0.0,-0.0,0.0,0.25,1.669921704,0.01,0.0,0.3799999952316284,-1.2200000286102295,-0.009999999776482582,-0.0186767578125,0.00885009765625,1.0089111328125,35.040000915527344,0.0,2.0,1.649017333984375,0.268707275390625,Closing,0.0,0.0,1.0,0.0,0.0,0.0,0.0,0.0,
10.49081999999995,0.0,0.0,41151.0,0.0,0.0,0.0,0.0,0.25,0.860595615,0.01,0.0,38157.0,0.0,0.0,-0.0,0.0,0.25,0.405273396,0.01,0.0,-2103.0,0.0,0.0,0.0,0.0,0.125,3.3142086450000003,0.01,0.0,40696.0,0.125,0.0,-0.0,0.0,0.25,1.668701001,0.01,0.0,0.3799999952316284,-1.2200000286102295,-0.009999999776482582,-0.023193359375,0.0081787109375,1.02337646484375,35.040000915527344,0.0,-1.0,1.649017333984375,0.268707275390625,Closing,0.0,0.0,1.0,0.0,0.0,0.0,0.0,0.0,
10.58056700000004,0.0,0.0,41151.0,0.0,0.0,0.0,0.0,0.25,0.859374912,0.01,0.0,38157.0,0.0,0.0,-0.0,0.0,0.25,0.405273396,0.01,0.0,-2103.0,0.0,0.0,0.0,0.0,0.125,3.3142086450000003,0.01,0.0,40696.0,0.125,0.0,-0.0,0.0,0.25,1.669921704,0.01,0.0,0.3799999952316284,-1.2200000286102295,0.0,-0.0224609375,0.00885009765625,1.01824951171875,35.040000915527344,0.0,0.0,1.649017333984375,0.268707275390625,Closing,0.0,0.0,1.0,0.0,0.0,0.0,0.0,0.0,
10.664138999999967,0.0,0.0,41151.0,0.0,0.0,0.0,0.0,0.25,0.860595615,0.01,0.0,38157.0,0.0,0.0,-0.0,0.0,0.25,0.40893550500000003,0.01,0.0,-2103.0,0.0,0.0,0.0,0.0,0.125,3.3142086450000003,0.01,0.0,40696.0,0.125,0.0,-0.0,0.0,0.25,1.669921704,0.01,0.0,0.3799999952316284,-1.2200000286102295,0.0,-0.02197265625,0.00390625,1.01654052734375,35.02000045776367,0.0,0.0,1.649017333984375,0.268707275390625,Closing,0.0,0.0,1.0,0.0,0.0,0.0,0.0,0.0,
10.749478000000003,0.0,0.0,41151.0,0.0,0.0,0.0,0.0,0.25,0.849609288,0.01,0.0,38157.0,0.0,0.0,-0.0,0.0,0.25,0.404052693,0.01,0.0,-2103.0,0.0,0.0,0.0,0.0,0.125,3.3154293480000003,0.01,0.0,40696.0,0.125,0.0,-0.0,0.0,0.25,1.669921704,0.01,0.0,0.3799999952316284,-1.2300000190734863,0.0,-0.021484375,0.0054931640625,1.021728515625,35.02000045776367,0.0,0.0,1.649017333984375,0.268707275390625,Closing,0.0,0.0,1.0,0.0,0.0,0.0,0.0,0.0,
10.832092999999993,0.0,0.0,41151.0,0.0,0.0,0.0,0.0,0.25,0.860595615,0.01,-0.0012207029999999897,38157.0,0.0,0.0,-0.0,0.0,0.25,0.404052693,0.01,0.0,-2103.0,0.0,0.0,0.0,0.0,0.125,3.3142086450000003,0.01,0.0,40696.0,0.125,0.0,-0.0,0.0,0.25,1.668701001,0.01,-0.0012207029999999897,0.3799999952316284,-1.2300000190734863,0.0,-0.02178955078125,0.0032958984375,1.0172119140625,35.02000045776367,0.0,0.0,1.649017333984375,0.268707275390625,Closing,0.0,0.0,1.0,0.0,0.0,0.0,0.0,0.0,
10.912464999999967,0.0,0.0,41151.0,0.0,0.0,0.0,0.0,0.25,0.860595615,0.01,0.0,38157.0,0.0,0.0,-0.0,0.0,0.25,0.404052693,0.01,0.0,-2103.0,0.0,0.0,0.0,0.0,0.125,3.3154293480000003,0.01,0.0,40696.0,0.0,0.0,-0.0,0.0,0.25,1.669921704,0.01,0.0,0.3700000047683716,-1.2100000381469727,0.0,-0.01947021484375,0.00543212890625,1.023681640625,35.02000045776367,0.0,2.0,1.649017333984375,0.268707275390625,Closing,0.0,0.0,1.0,0.0,0.0,0.0,0.0,0.0,
10.99459600000002,0.0,0.0,41151.0,0.0,0.0,0.0,0.0,0.25,0.859374912,0.01,0.0,38157.0,0.0,0.0,-0.0,0.0,0.25,0.405273396,0.01,0.0,-2103.0,0.0,0.0,0.0,0.0,0.125,3.3154293480000003,0.01,0.0,40696.0,0.125,0.0,-0.0,0.0,0.25,1.669921704,0.01,0.0,0.3700000047683716,-1.2100000381469727,0.0,-0.02020263671875,0.00628662109375,1.01800537109375,35.02000045776367,0.0,1.0,1.649017333984375,0.268707275390625,Closing,0.0,0.0,1.0,0.0,0.0,0.0,0.0,0.0,
11.088799,0.0,0.0,41151.0,0.0,0.0,0.0,0.0,0.25,0.859374912,0.01,0.0,38157.0,0.0,0.0,-0.0,0.0,0.25,0.404052693,0.01,0.0,-2103.0,0.0,0.0,0.0,0.0,0.125,3.3154293480000003,0.01,0.0,40696.0,0.0,0.0,-0.0,0.0,0.25,1.671142407,0.01,0.0,0.3799999952316284,-1.2200000286102295,-0.009999999776482582,-0.01910400390625,0.00262451171875,1.0252685546875,35.02000045776367,0.0,2.0,1.649017333984375,0.268707275390625,Closing,0.0,0.0,1.0,0.0,0.0,0.0,0.0,0.0,
11.172638000000035,0.0,0.0,41151.0,0.0,0.0,0.0,0.0,0.25,0.859374912,0.01,0.0,38157.0,0.0,0.0,-0.0,0.0,0.25,0.404052693,0.01,0.0,-2103.0,0.0,0.0,0.0,0.0,0.125,3.3142086450000003,0.01,0.0,40696.0,0.125,0.0,-0.0,0.0,0.25,1.669921704,0.01,0.0012207029999999897,0.3700000047683716,-1.2100000381469727,0.0,-0.02264404296875,0.0054931640625,1.0157470703125,35.04999923706055,0.0,-1.0,1.649017333984375,0.268707275390625,Closing,0.0,0.0,1.0,0.0,0.0,0.0,0.0,0.0,
11.254111999999965,0.0,0.0,41151.0,0.0,0.0,0.0,0.0,0.25,0.860595615,0.01,0.0,38157.0,0.0,0.0,-0.0,0.0,0.25,0.404052693,0.01,0.0,-2103.0,0.0,0.0,0.0,0.0,0.125,3.3142086450000003,0.01,0.0,40696.0,0.125,0.0,-0.0,0.0,0.25,1.669921704,0.01,0.0,0.3700000047683716,-1.2200000286102295,-0.009999999776482582,-0.025634765625,0.00714111328125,1.01739501953125,35.04999923706055,0.0,-3.0,1.649017333984375,0.268707275390625,Closing,0.0,0.0,1.0,0.0,0.0,0.0,0.0,0.0,
11.338201000000002,0.0,0.0,41151.0,0.0,0.0,0.0,0.0,0.25,0.8569335060000001,0.01,0.0,38157.0,0.0,0.0,-0.0,0.0,0.25,0.405273396,0.01,0.0,-2103.0,0.0,0.0,0.0,0.0,0.0,3.3142086450000003,0.01,0.0,40696.0,0.125,0.0,-0.0,0.0,0.25,1.669921704,0.01,0.0,0.3700000047683716,-1.2100000381469727,-0.009999999776482582,-0.02099609375,0.00726318359375,1.0179443359375,35.04999923706055,0.0,0.0,1.649017333984375,0.268707275390625,Closing,0.0,0.0,1.0,0.0,0.0,0.0,0.0,0.0,
11.422876999999978,0.0,0.0,41151.0,0.0,0.0,0.0,0.0,0.25,0.8581542090000001,0.01,0.0,38157.0,0.0,0.0,-0.0,0.0,0.25,0.404052693,0.01,0.0,-2103.0,0.0,0.0,0.0,0.0,0.0,3.3154293480000003,0.01,0.0,40696.0,0.125,0.0,-0.0,0.0,0.25,1.669921704,0.01,0.0,0.3700000047683716,-1.2200000286102295,-0.009999999776482582,-0.0245361328125,0.0045166015625,1.01605224609375,35.04999923706055,0.0,-2.0,1.649017333984375,0.268707275390625,Closing,0.0,0.0,1.0,0.0,0.0,0.0,0.0,0.0,
11.508341999999946,0.0,0.0,41151.0,0.0,0.0,0.0,0.0,0.25,0.864257724,0.01,0.0,38157.0,0.0,0.0,-0.0,0.0,0.25,0.40283199000000003,0.01,0.0,-2103.0,0.0,0.0,0.0,0.0,0.0,3.3154293480000003,0.01,0.0,40696.0,0.125,0.0,-0.0,0.0,0.25,1.669921704,0.01,0.0,0.3700000047683716,-1.2200000286102295,-0.019999999552965164,-0.02117919921875,0.00628662109375,1.0230712890625,35.04999923706055,0.0,0.0,1.649017333984375,0.268707275390625,Closing,0.0,0.0,1.0,0.0,0.0,0.0,0.0,0.0,
11.59164500000002,0.0,0.0,41151.0,0.0,0.0,0.0,0.0,0.25,0.8581542090000001,0.01,0.0,38157.0,0.0,0.0,-0.0,0.0,0.25,0.404052693,0.01,0.0,-2103.0,0.0,0.0,0.0,0.0,0.125,3.3142086450000003,0.01,0.0,40696.0,0.125,0.0,-0.0,0.0,0.25,1.669921704,0.01,0.0,0.3700000047683716,-1.2200000286102295,-0.009999999776482582,-0.0211181640625,0.0084228515625,1.0238037109375,35.04999923706055,0.0,0.0,1.649017333984375,0.268707275390625,Closing,0.0,0.0,1.0,0.0,0.0,0.0,0.0,0.0,
11.67456799999997,0.0,0.0,41151.0,0.0,0.0,0.0,0.0,0.25,0.859374912,0.01,0.0,38157.0,0.0,0.0,-0.0,0.0,0.25,0.404052693,0.01,0.0,-2103.0,0.0,0.0,0.0,0.0,0.0,3.3154293480000003,0.01,0.0,40696.0,0.125,0.0,-0.0,0.0,0.25,1.669921704,0.01,0.0012207029999999897,0.3700000047683716,-1.2200000286102295,-0.019999999552965164,-0.02001953125,0.0062255859375,1.01715087890625,35.040000915527344,0.0,1.0,1.649017333984375,0.268707275390625,Closing,0.0,0.0,1.0,0.0,0.0,0.0,0.0,0.0,
11.757925000000046,0.0,0.0,41151.0,0.0,0.0,0.0,0.0,0.25,0.859374912,0.01,0.0,38157.0,0.0,0.0,-0.0,0.0,0.25,0.405273396,0.01,0.0,-2103.0,0.0,0.0,0.0,0.0,0.125,3.3154293480000003,0.01,0.0,40696.0,0.125,0.0,-0.0,0.0,0.25,1.669921704,0.01,0.0,0.36000001430511475,-1.2100000381469727,-0.019999999552965164,-0.020263671875,0.0052490234375,1.023193359375,35.040000915527344,0.0,1.0,1.649017333984375,0.268707275390625,Closing,0.0,0.0,1.0,0.0,0.0,0.0,0.0,0.0,
11.846842999999993,0.0,0.0,41151.0,0.0,0.0,0.0,0.0,0.25,0.859374912,0.01,0.0,38157.0,0.0,0.0,-0.0,0.0,0.25,0.405273396,0.01,0.0,-2103.0,0.0,0.0,0.0,0.0,0.0,3.3154293480000003,0.01,0.0,40696.0,0.125,0.0,-0.0,0.0,0.25,1.669921704,0.01,0.0,0.3700000047683716,-1.2200000286102295,-0.029999999329447746,-0.02349853515625,6.7138671875E-4,1.0186767578125,35.040000915527344,0.0,-1.0,1.649017333984375,0.268707275390625,Closing,0.0,0.0,1.0,0.0,0.0,0.0,0.0,0.0,
