Time,ClimberA1,ClimberA2,FRpos,FRCurrent,FRspeed,FRsetpoint,FRApos,FRACurrent,FREncpos,FREncSetpoint,FREncSpeed,FLpos,FLCurrent,FLspeed,FLsetpoint,FLApos,FLACurrent,FLEncpos,FLEncSetpoint,FLEncSpeed,BRpos,BRCurrent,BRspeed,BRsetpoint,BRApos,BRACurrent,BREncpos,BREncSetpoint,BREncSpeed,BLpos,BLCurrent,BLspeed,BLsetpoint,BLApos,BLACurrent,BLEncpos,BLEncSetpoint,BLEncSpeed,navx_Pitch,navx_Roll,navx_Yaw,navx_XAcc,navx_YAcc,navx_ZAcc,navx_Temp,navx_Bar,navx_Alt,navx_XDis,navx_YDis,GearPlacerState,ShootOutputV,ShootOutputCurrent,ShootEncPos,ShootEncVelocity,ShootSpeed,ShootSetpoint,CarouselSetpoint,CarouselCurrent,
0.10535900000000038,0.0,0.0,41151.0,0.0,0.0,0.0,0.0,0.125,0.859374912,0.01,0.0,38157.0,0.0,0.0,0.0,0.0,0.125,0.404052693,0.01,0.0,-2103.0,0.0,0.0,0.0,0.0,0.0,3.3203121600000003,0.01,0.0,40696.0,0.125,0.0,0.0,0.0,0.125,1.6564939710000002,0.01,0.0,0.3799999952316284,-1.25,0.0,-0.02178955078125,0.00775146484375,1.0216064453125,35.459999084472656,0.0,0.0,1.646392822265625,0.2569732666015625,Waiting,0.0,0.0,1.0,0.0,0.0,0.0,0.0,0.0,
0.1646900000000005,0.0,0.0,41151.0,0.0,0.0,0.0,0.0,0.125,0.8581542090000001,0.01,0.0,38157.0,0.0,0.0,-0.0,0.0,0.125,0.405273396,0.01,0.0,-2103.0,0.0,0.0,0.0,0.0,0.0,3.3154293480000003,0.01,0.0,40696.0,0.125,0.0,-0.0,0.0,0.125,1.6552732680000002,0.01,0.0,0.3799999952316284,-1.25,0.0,-0.02191162109375,0.00970458984375,1.02508544921875,35.459999084472656,0.0,0.0,1.646392822265625,0.2569732666015625,Waiting,0.0,0.0,1.0,0.0,0.0,0.0,0.0,0.0,
0.1878119999999999,0.0,0.0,41151.0,0.0,0.0,0.0,0.0,0.125,0.860595615,0.01,0.0,38157.0,0.0,0.0,-0.0,0.0,0.125,0.404052693,0.01,0.0,-2103.0,0.0,0.0,0.0,0.0,0.0,3.3190914570000003,0.01,0.0,40696.0,0.125,0.0,-0.0,0.0,0.125,1.6552732680000002,0.01,1.6552732680000002,0.3799999952316284,-1.25,0.0,-0.0213623046875,0.00701904296875,1.0194091796875,35.470001220703125,0.0,0.0,1.646392822265625,0.2569732666015625,Waiting,0.0,0.0,1.0,0.0,0.0,0.0,0.0,0.0,
0.2128680000000004,0.0,0.0,41151.0,0.0,0.0,0.0,0.0,1.5,0.825195228,0.01,0.859374912,38157.0,0.0,0.0,-0.0,0.0,0.25,0.393066366,0.01,0.404052693,-2103.0,0.0,0.0,0.0,0.0,5.25,3.402099261,0.01,3.3178707540000003,40696.0,0.125,0.0,-0.0,0.0,6.875,1.5771482760000002,0.01,1.6552732680000002,0.3799999952316284,-1.25,0.0,-0.02618408203125,0.00628662109375,1.02032470703125,35.470001220703125,0.0,-3.0,1.646392822265625,0.2569732666015625,Waiting,0.0,0.0,1.0,0.0,0.0,0.0,0.0,0.0,
0.24136900000000058,0.0,0.0,41151.0,0.0,0.0,0.0,0.0,7.625,0.6347655600000001,0.01,-0.12817381500000002,38157.0,0.0,0.0,-0.0,0.0,5.375,0.307617156,0.01,-0.024414060000000015,-2103.0,0.0,0.0,0.0,0.0,6.875,3.6352535340000003,0.01,0.11962889399999987,40696.0,0.125,0.0,-0.0,0.0,8.875,1.3476561120000001,0.01,-0.09521483400000008,0.3799999952316284,-1.2400000095367432,0.0,0.005126953125,0.02734375,1.03851318359375,35.470001220703125,0.0,27.0,1.646453857421875,0.257110595703125,Waiting,0.0,0.0,1.0,0.0,0.0,0.0,0.0,0.0,
0.27241400000000066,0.0,0.0,41151.0,0.0,0.0,0.0,0.0,7.875,0.443115189,0.01,-0.12817381500000002,38157.0,0.0,0.0,-0.0,0.0,5.625,0.17822263800000002,0.01,-0.024414060000000015,-2103.0,0.0,-7.5,0.0,0.0,7.625,3.82080039,0.01,0.11962889399999987,40696.0,0.125,0.0,-0.0,0.0,9.375,1.176757692,0.01,-0.09521483400000008,0.4000000059604645,-1.2400000095367432,0.0,-0.0125732421875,0.0042724609375,0.997802734375,35.470001220703125,0.0,9.0,1.646514892578125,0.2574310302734375,Waiting,0.0,0.0,1.0,0.0,0.0,0.0,0.0,0.0,
0.30492400000000086,0.0,0.0,41151.0,0.0,0.0,0.0,0.0,4.0,0.209960916,0.01,-0.388183554,38157.0,0.0,0.0,-0.0,0.0,0.875,4.957274883,0.01,-0.25878903600000003,-2103.0,0.0,-37.5,0.0,0.0,2.125,4.072265208,0.01,0.42602534699999994,40696.0,0.125,0.0,-0.0,0.0,3.375,0.9216307650000001,0.01,-0.40283199000000014,0.4099999964237213,-1.2200000286102295,0.009999999776482582,-0.01458740234375,0.05804443359375,0.96575927734375,35.470001220703125,0.0,6.0,1.646453857421875,0.2578887939453125,Waiting,0.0,0.0,1.0,0.0,0.0,0.0,0.0,0.0,
0.33272299999999994,0.0,0.0,41151.0,0.0,0.0,0.0,0.0,1.875,0.03662109,0.01,-0.388183554,38157.0,0.0,0.0,-0.0,0.0,0.25,4.8706049700000005,0.01,-0.25878903600000003,-2103.0,0.0,-52.5,0.0,0.0,2.0,4.320067917,0.01,0.42602534699999994,40697.0,0.125,0.0,-0.0,0.0,3.0,0.705566334,0.01,-0.26489255099999987,0.4399999976158142,-1.1699999570846558,0.07000000029802322,0.037841796875,0.006103515625,1.02947998046875,35.470001220703125,0.0,58.0,1.64642333984375,0.2583770751953125,Waiting,0.0,0.0,1.0,0.0,0.0,0.0,0.0,0.0,
0.3627520000000004,0.0,0.0,41151.0,0.0,0.0,0.0,0.0,1.0,4.851073722000001,0.01,-0.23315427300000002,38157.0,0.0,0.0,-0.0,0.0,0.25,4.830321771,0.01,-5.063489999996146E-4,-2115.0,0.0,-60.0,0.0,0.0,2.0,4.541015160000001,0.01,0.28442379900000025,40697.0,0.0,0.0,-0.0,0.0,2.625,0.5163573690000001,0.01,-0.26489255099999987,0.41999998688697815,-1.149999976158142,0.14000000059604645,-0.02618408203125,0.0101318359375,1.0908203125,35.470001220703125,0.0,-4.0,1.6465301513671875,0.2585906982421875,Waiting,0.0,0.0,1.0,0.0,0.0,0.0,0.0,0.0,
0.3861620000000003,0.0,0.0,41151.0,0.0,0.0,0.0,0.0,0.5,4.8156733350000005,0.01,-0.23315427300000002,38157.0,0.0,0.0,-0.0,0.0,0.0,4.805907711000001,0.01,-5.063489999996146E-4,-2115.0,0.0,-67.5,0.0,0.0,1.875,4.720458501,0.01,0.28442379900000025,40697.0,0.0,0.0,-0.0,0.0,2.5,0.352783167,0.01,-0.26489255099999987,0.4099999964237213,-1.1699999570846558,0.18000000715255737,0.01416015625,-0.05584716796875,1.0423583984375,35.470001220703125,0.0,35.0,1.6466064453125,0.258544921875,Waiting,0.0,0.0,1.0,0.0,0.0,0.0,0.0,0.0,
0.41041799999999967,0.0,0.0,41151.0,0.0,0.0,0.0,0.0,0.5,4.798583493000001,0.01,-0.0664243109999994,38157.0,0.0,0.0,-0.0,0.0,0.25,4.781493651,0.01,-0.08422850699999973,-2115.0,0.0,-67.5,0.0,0.0,1.25,4.903563951000001,0.01,0.46142573399999964,40697.0,0.125,7.5,-0.0,0.0,1.875,0.150146469,0.01,-0.42602534700000005,0.3700000047683716,-1.190000057220459,0.25,-0.06097412109375,0.01171875,1.01312255859375,35.470001220703125,0.0,-39.0,1.646728515625,0.2582855224609375,Waiting,0.0,0.0,1.0,0.0,0.0,0.0,0.0,0.0,
0.43116100000000007,0.0,0.0,41151.0,0.0,0.0,0.0,0.0,0.25,4.793700681000001,0.01,-0.0664243109999994,38157.0,0.0,0.0,-0.0,0.0,0.25,4.776610839,0.01,-0.08422850699999973,-2115.0,0.0,-45.0,0.0,0.0,0.625,4.957274883,0.01,0.46142573399999964,40697.0,0.0,15.0,-0.0,0.0,1.5,4.938964338,0.01,-0.42602534700000005,0.3700000047683716,-1.2100000381469727,0.28999999165534973,-0.0255126953125,-0.0198974609375,1.05157470703125,35.470001220703125,0.0,-3.0,1.6467437744140625,0.2581329345703125,Waiting,0.0,0.0,1.0,0.0,0.0,0.0,0.0,0.0,
0.458255000000001,0.0,0.0,41151.0,0.0,0.0,0.0,0.0,0.25,4.794921384,0.01,-0.03173827799999973,38157.0,0.0,0.0,-0.0,0.0,0.25,4.776610839,0.01,4.7404960979999995,-2117.0,0.0,-30.0,0.0,0.0,0.5,0.052490229,0.01,-4.459734408,40700.0,0.0,22.5,-0.0,0.0,1.375,4.7583002940000005,0.01,-0.33325191900000006,0.3400000035762787,-1.2300000190734863,0.3400000035762787,-0.0604248046875,-0.03466796875,0.9671630859375,35.470001220703125,0.0,-39.0,1.646636962890625,0.257904052734375,Waiting,0.0,0.0,1.0,0.0,0.0,0.0,0.0,0.0,
0.4864179999999997,0.0,0.0,41151.0,0.0,0.0,0.0,0.0,0.125,4.793700681000001,0.01,-0.03173827799999973,38157.0,0.0,0.0,-0.0,0.0,0.25,4.777831542,0.01,4.7404960979999995,-2117.0,0.0,-15.0,0.0,0.0,0.875,0.017089842,0.01,-4.459734408,40700.0,0.0,22.5,-0.0,0.0,1.0,4.704589362,0.01,-0.33325191900000006,0.3199999928474426,-1.2400000095367432,0.33000001311302185,-0.02398681640625,-0.02880859375,1.027587890625,35.470001220703125,0.0,-1.0,1.6465301513671875,0.257537841796875,Waiting,0.0,0.0,1.0,0.0,0.0,0.0,0.0,0.0,
0.5109430000000011,0.0,0.0,41151.0,0.0,0.0,0.0,0.0,0.125,4.793700681000001,0.01,0.0,38157.0,0.0,0.0,-0.0,0.0,0.25,4.786376463,0.01,0.0,-2117.0,0.0,0.0,0.0,0.0,0.625,4.949950665,0.01,-0.10325340600000016,40700.0,0.125,22.5,-0.0,0.0,0.25,4.681396005,0.01,4.616698746,0.3100000023841858,-1.2699999809265137,0.30000001192092896,-0.05126953125,-0.0081787109375,1.0325927734375,35.470001220703125,0.0,-28.0,1.6464996337890625,0.2570037841796875,Waiting,0.0,0.0,1.0,0.0,0.0,0.0,0.0,0.0,
0.532857,0.0,0.0,41151.0,0.0,0.0,0.0,0.0,0.125,4.793700681000001,0.01,0.0,38157.0,0.0,0.0,-0.0,0.0,0.25,4.791259275,0.01,0.0,-2117.0,0.0,0.0,0.0,0.0,0.125,4.937743635,0.01,-0.10325340600000016,40700.0,0.125,15.0,-0.0,0.0,0.375,4.696044441000001,0.01,4.616698746,0.3100000023841858,-1.2799999713897705,0.27000001072883606,-0.0396728515625,-0.00390625,1.08270263671875,35.470001220703125,0.0,-15.0,1.6464385986328125,0.2570037841796875,Waiting,0.0,0.0,1.0,0.0,0.0,0.0,0.0,0.0,
0.5603379999999998,0.0,0.0,41151.0,0.0,0.0,0.0,0.0,0.125,4.793700681000001,0.01,0.0,38157.0,0.0,0.0,-0.0,0.0,0.125,4.79736279,0.01,0.009765623999999917,-2117.0,0.0,0.0,0.0,0.0,0.25,4.929198714,0.01,0.11790184200000003,40700.0,0.125,7.5,-0.0,0.0,0.375,4.72412061,0.01,-0.06958007099999985,0.3199999928474426,-1.2899999618530273,0.23000000417232513,-0.03857421875,0.03466796875,1.0159912109375,35.470001220703125,0.0,-15.0,1.6463775634765625,0.2570648193359375,Waiting,0.0,0.0,1.0,0.0,0.0,0.0,0.0,0.0,
0.5850699999999998,0.0,0.0,41151.0,0.0,0.0,0.0,0.0,0.125,4.794921384,0.01,0.0,38157.0,0.0,0.0,-0.0,0.0,0.125,4.801024899000001,0.01,0.009765623999999917,-2117.0,0.0,0.0,0.0,0.0,0.25,4.886474109,0.01,0.11790184200000003,40701.0,0.125,0.0,-0.0,0.0,0.375,4.7631831060000005,0.01,-0.06958007099999985,0.3499999940395355,-1.2999999523162842,0.20999999344348907,-0.01544189453125,0.05377197265625,1.02154541015625,35.470001220703125,0.0,7.0,1.6463775634765625,0.2571563720703125,Waiting,0.0,0.0,1.0,0.0,0.0,0.0,0.0,0.0,
0.6117630000000008,0.0,0.0,41151.0,0.0,0.0,0.0,0.0,0.125,4.792479978,0.01,0.0,38157.0,0.0,0.0,-0.0,0.0,0.125,4.805907711000001,0.01,-4.771013673,-2117.0,0.0,0.0,0.0,0.0,0.375,4.822997553,0.01,-0.021972653999999814,40701.0,0.125,0.0,-0.0,0.0,0.375,4.816894038,0.01,0.04760741700000004,0.38999998569488525,-1.2799999713897705,0.1899999976158142,-0.02642822265625,0.01025390625,1.04205322265625,35.470001220703125,0.0,-2.0,1.6463775634765625,0.257476806640625,Waiting,0.0,0.0,1.0,0.0,0.0,0.0,0.0,0.0,
0.6331820000000007,0.0,0.0,41151.0,0.0,0.0,0.0,0.0,0.125,4.792479978,0.01,0.0,38157.0,0.0,0.0,-0.0,0.0,0.125,4.8107905230000005,0.01,-4.771013673,-2117.0,0.0,0.0,0.0,0.0,0.25,4.779052245,0.01,-0.021972653999999814,40701.0,0.125,0.0,-0.0,0.0,0.375,4.847411613,0.01,0.04760741700000004,0.41999998688697815,-1.2799999713897705,0.18000000715255737,-0.01885986328125,0.01409912109375,1.03692626953125,35.470001220703125,0.0,4.0,1.6463775634765625,0.257476806640625,Waiting,0.0,0.0,1.0,0.0,0.0,0.0,0.0,0.0,
0.6574899999999998,0.0,0.0,41151.0,0.0,0.0,0.0,0.0,0.125,4.794921384,0.01,0.0,38157.0,0.0,0.0,-0.0,0.0,0.125,4.80956982,0.01,0.008544921000000373,-2117.0,0.0,0.0,0.0,0.0,0.125,4.744872561,0.01,-0.11962889399999987,40701.0,0.125,0.0,-0.0,0.0,0.5,4.860839346000001,0.01,-4.690447275,0.4099999964237213,-1.2699999809265137,0.1899999976158142,-0.0279541015625,0.01531982421875,1.03314208984375,35.470001220703125,0.0,-4.0,1.6463775634765625,0.257476806640625,Waiting,0.0,0.0,1.0,0.0,0.0,0.0,0.0,0.0,
0.6842380000000012,0.0,0.0,41151.0,0.0,0.0,0.0,0.0,0.125,4.793700681000001,0.01,0.0,38157.0,0.0,0.0,-0.0,0.0,0.125,4.8107905230000005,0.01,0.008544921000000373,-2117.0,0.0,7.5,0.0,0.0,0.125,4.744872561,0.01,-0.11962889399999987,40701.0,0.125,0.0,-0.0,0.0,0.5,4.855956534000001,0.01,-4.690447275,0.4099999964237213,-1.2599999904632568,0.20000000298023224,-0.0030517578125,-0.02801513671875,1.02215576171875,35.470001220703125,0.0,19.0,1.6463775634765625,0.2574462890625,Waiting,0.0,0.0,1.0,0.0,0.0,0.0,0.0,0.0,
0.7129220000000005,0.0,0.0,41151.0,0.0,0.0,0.0,0.0,0.125,4.793700681000001,0.01,0.0,38157.0,0.0,0.0,-0.0,0.0,0.25,4.8107905230000005,0.01,0.003662108999999525,-2116.0,0.0,0.0,0.0,0.0,0.0,4.749755373,0.01,4.7209648500000005,40701.0,0.125,0.0,-0.0,0.0,0.25,4.851073722000001,0.01,0.040283199000000096,0.38999998569488525,-1.2400000095367432,0.23000000417232513,-0.021240234375,-0.012939453125,1.01568603515625,35.4900016784668,0.0,0.0,1.6463775634765625,0.2572784423828125,Waiting,0.0,0.0,1.0,0.0,0.0,0.0,0.0,0.0,
0.7404470000000001,0.0,0.0,41151.0,0.0,0.0,0.0,0.0,0.125,4.793700681000001,0.01,0.0,38157.0,0.0,0.0,-0.0,0.0,0.25,4.812011226,0.01,0.003662108999999525,-2116.0,0.0,0.0,0.0,0.0,0.0,4.770507324,0.01,0.009765623999999917,40701.0,0.125,0.0,-0.0,0.0,0.25,4.826659662,0.01,-0.013427732999999442,0.36000001430511475,-1.2400000095367432,0.23000000417232513,-0.03759765625,-0.0091552734375,1.03271484375,35.4900016784668,0.0,-15.0,1.6463775634765625,0.2572784423828125,Waiting,0.0,0.0,1.0,0.0,0.0,0.0,0.0,0.0,
0.7666419999999998,0.0,0.0,41151.0,0.0,0.0,0.0,0.0,0.125,4.794921384,0.01,0.0,38157.0,0.0,0.0,-0.0,0.0,0.25,4.80956982,0.01,0.0,-2116.0,0.0,0.0,0.0,0.0,0.0,4.779052245,0.01,0.009765623999999917,40701.0,0.125,0.0,-0.0,0.0,0.25,4.8132319290000005,0.01,-0.013427732999999442,0.3400000035762787,-1.25,0.2199999988079071,-0.025390625,0.001220703125,1.00238037109375,35.4900016784668,0.0,-3.0,1.6463775634765625,0.2572784423828125,Waiting,0.0,0.0,1.0,0.0,0.0,0.0,0.0,0.0,
0.8034420000000009,0.0,0.0,41151.0,0.0,0.0,0.0,0.0,0.125,4.794921384,0.01,0.0,38157.0,0.0,0.0,-0.0,0.0,0.25,4.8107905230000005,0.01,0.0012207030000004337,-2116.0,0.0,0.0,0.0,0.0,0.0,4.788817869,0.01,0.030517574999999297,40701.0,0.125,0.0,-0.0,0.0,0.25,4.792479978,0.01,-0.03906249600000055,0.3499999940395355,-1.2599999904632568,0.1899999976158142,-0.025146484375,0.00762939453125,1.0201416015625,35.4900016784668,0.0,-2.0,1.6463775634765625,0.2572784423828125,Waiting,0.0,0.0,1.0,0.0,0.0,0.0,0.0,0.0,
0.8330280000000002,0.0,0.0,41151.0,0.0,0.0,0.0,0.0,0.125,4.793700681000001,0.01,0.0,38157.0,0.0,0.0,-0.0,0.0,0.25,4.8107905230000005,0.01,0.0012207030000004337,-2116.0,0.0,0.0,0.0,0.0,0.0,4.788817869,0.01,0.030517574999999297,40701.0,0.0,0.0,-0.0,0.0,0.25,4.79736279,0.01,-0.03906249600000055,0.36000001430511475,-1.2599999904632568,0.17000000178813934,-0.01983642578125,0.02001953125,1.03985595703125,35.4900016784668,0.0,3.0,1.6463775634765625,0.2572784423828125,Waiting,0.0,0.0,1.0,0.0,0.0,0.0,0.0,0.0,
0.8571530000000003,0.0,0.0,41151.0,0.0,0.0,0.0,0.0,0.125,4.793700681000001,0.01,0.0,38157.0,0.0,0.0,-0.0,0.0,0.25,4.8107905230000005,0.01,0.0,-2116.0,0.0,0.0,0.0,0.0,0.0,4.788817869,0.01,0.004882811999999959,40701.0,0.0,0.0,-0.0,0.0,0.25,4.798583493000001,0.01,-0.014648435999999878,0.3700000047683716,-1.2599999904632568,0.15000000596046448,-0.01812744140625,0.02520751953125,0.99932861328125,35.4900016784668,0.0,3.0,1.6463775634765625,0.2572784423828125,Waiting,0.0,0.0,1.0,0.0,0.0,0.0,0.0,0.0,
0.8755590000000011,0.0,0.0,41151.0,0.0,0.0,0.0,0.0,0.125,4.794921384,0.01,0.0,38157.0,0.0,0.0,-0.0,0.0,0.25,4.8107905230000005,0.01,0.0,-2116.0,0.0,0.0,0.0,0.0,0.0,4.788817869,0.01,0.004882811999999959,40701.0,0.0,0.0,-0.0,0.0,0.125,4.803466305000001,0.01,-0.014648435999999878,0.3799999952316284,-1.2599999904632568,0.15000000596046448,-0.01556396484375,0.01776123046875,1.03411865234375,35.4900016784668,0.0,7.0,1.6463775634765625,0.2572784423828125,Waiting,0.0,0.0,1.0,0.0,0.0,0.0,0.0,0.0,
0.8940910000000003,0.0,0.0,41151.0,0.0,0.0,0.0,0.0,0.125,4.793700681000001,0.01,0.0,38157.0,0.0,0.0,-0.0,0.0,0.25,4.8107905230000005,0.01,0.0,-2116.0,0.0,0.0,0.0,0.0,0.0,4.788817869,0.01,0.0,40701.0,0.0,0.0,-0.0,0.0,0.125,4.808349117000001,0.01,0.009765623999999919,0.38999998569488525,-1.2599999904632568,0.15000000596046448,-0.027587890625,0.0142822265625,1.029052734375,35.4900016784668,0.0,-4.0,1.6463775634765625,0.2572784423828125,Waiting,0.0,0.0,1.0,0.0,0.0,0.0,0.0,0.0,
0.9168400000000001,0.0,0.0,41151.0,0.0,0.0,0.0,0.0,0.125,4.794921384,0.01,0.0,38157.0,0.0,0.0,-0.0,0.0,0.25,4.8107905230000005,0.01,0.0,-2116.0,0.0,0.0,0.0,0.0,0.0,4.790038572,0.01,0.0,40701.0,0.125,0.0,-0.0,0.0,0.25,4.812011226,0.01,0.009765623999999919,0.4000000059604645,-1.25,0.1599999964237213,-0.0184326171875,0.0101318359375,1.011474609375,35.4900016784668,0.0,3.0,1.6463775634765625,0.2572784423828125,Waiting,0.0,0.0,1.0,0.0,0.0,0.0,0.0,0.0,
0.9355770000000011,0.0,0.0,41151.0,0.0,0.0,0.0,0.0,0.125,4.793700681000001,0.01,0.0,38157.0,0.0,0.0,-0.0,0.0,0.25,4.8107905230000005,0.01,0.0,-2116.0,0.0,0.0,0.0,0.0,0.0,4.788817869,0.01,0.0,40701.0,0.125,0.0,-0.0,0.0,0.25,4.812011226,0.01,0.009765623999999917,0.4000000059604645,-1.2599999904632568,0.17000000178813934,-0.0257568359375,0.0025634765625,1.03253173828125,35.4900016784668,0.0,-2.0,1.6463775634765625,0.2572784423828125,Waiting,0.0,0.0,1.0,0.0,0.0,0.0,0.0,0.0,
0.9597669999999998,0.0,0.0,41151.0,0.0,0.0,0.0,0.0,0.125,4.793700681000001,0.01,0.0,38157.0,0.0,0.0,-0.0,0.0,0.25,4.812011226,0.01,-0.0012207030000004337,-2116.0,0.0,0.0,0.0,0.0,0.0,4.788817869,0.01,0.0,40701.0,0.125,0.0,-0.0,0.0,0.25,4.812011226,0.01,0.009765623999999917,0.38999998569488525,-1.25,0.17000000178813934,-0.02435302734375,-0.00164794921875,1.01751708984375,35.4900016784668,0.0,-2.0,1.6463775634765625,0.2572784423828125,Waiting,0.0,0.0,1.0,0.0,0.0,0.0,0.0,0.0,
0.9789590000000007,0.0,0.0,41151.0,0.0,0.0,0.0,0.0,0.125,4.793700681000001,0.01,0.0,38157.0,0.0,0.0,-0.0,0.0,0.25,4.812011226,0.01,-0.0012207030000004337,-2116.0,0.0,0.0,0.0,0.0,0.0,4.788817869,0.01,0.0,40701.0,0.0,0.0,-0.0,0.0,0.25,4.812011226,0.01,0.009765623999999917,0.3799999952316284,-1.2599999904632568,0.17000000178813934,-0.0274658203125,-0.00103759765625,1.0291748046875,35.4900016784668,0.0,-4.0,1.6463775634765625,0.2572784423828125,Waiting,0.0,0.0,1.0,0.0,0.0,0.0,0.0,0.0,
0.9973890000000011,0.0,0.0,41151.0,0.0,0.0,0.0,0.0,0.125,4.793700681000001,0.01,0.0,38157.0,0.0,0.0,-0.0,0.0,0.25,4.8107905230000005,0.01,0.0,-2116.0,0.0,0.0,0.0,0.0,0.0,4.788817869,0.01,0.0,40701.0,0.0,0.0,-0.0,0.0,0.25,4.812011226,0.01,0.0,0.3700000047683716,-1.2599999904632568,0.17000000178813934,-0.02166748046875,-0.00396728515625,1.02020263671875,35.4900016784668,0.0,0.0,1.6463775634765625,0.2572784423828125,Waiting,0.0,0.0,1.0,0.0,0.0,0.0,0.0,0.0,
1.0205,0.0,0.0,41151.0,0.0,0.0,0.0,0.0,0.125,4.793700681000001,0.01,0.0,38157.0,0.0,0.0,-0.0,0.0,0.25,4.8107905230000005,0.01,0.0,-2116.0,0.0,0.0,0.0,0.0,0.0,4.787597166,0.01,0.0,40701.0,0.0,0.0,-0.0,0.0,0.25,4.812011226,0.01,0.0,0.3700000047683716,-1.25,0.17000000178813934,-0.0181884765625,-7.9345703125E-4,1.01507568359375,35.4900016784668,0.0,4.0,1.6463775634765625,0.2572784423828125,Waiting,0.0,0.0,1.0,0.0,0.0,0.0,0.0,0.0,
1.0389269999999997,0.0,0.0,41151.0,0.0,0.0,0.0,0.0,0.125,4.794921384,0.01,0.0,38157.0,0.0,0.0,-0.0,0.0,0.25,4.812011226,0.01,0.0,-2116.0,0.0,0.0,0.0,0.0,0.0,4.791259275,0.01,0.0,40701.0,0.0,0.0,-0.0,0.0,0.25,4.8132319290000005,0.01,0.0,0.36000001430511475,-1.2599999904632568,0.15000000596046448,-0.019775390625,0.00592041015625,1.01519775390625,35.4900016784668,0.0,2.0,1.6463775634765625,0.2572784423828125,Waiting,0.0,0.0,1.0,0.0,0.0,0.0,0.0,0.0,
1.059696,0.0,0.0,41151.0,0.0,0.0,0.0,0.0,0.125,4.794921384,0.01,-0.0012207030000004337,38157.0,0.0,0.0,-0.0,0.0,0.25,4.812011226,0.01,0.0,-2116.0,0.0,0.0,0.0,0.0,0.0,4.788817869,0.01,-0.0012207029999995456,40701.0,0.125,0.0,-0.0,0.0,0.25,4.812011226,0.01,0.0,0.36000001430511475,-1.2599999904632568,0.15000000596046448,-0.01947021484375,0.00933837890625,1.01318359375,35.4900016784668,0.0,2.0,1.6463775634765625,0.2572784423828125,Waiting,0.0,0.0,1.0,0.0,0.0,0.0,0.0,0.0,
1.076630000000001,0.0,0.0,41151.0,0.0,0.0,0.0,0.0,0.125,4.794921384,0.01,-0.0012207030000004337,38157.0,0.0,0.0,-0.0,0.0,0.25,4.812011226,0.01,0.0,-2116.0,0.0,0.0,0.0,0.0,0.0,4.788817869,0.01,-0.0012207029999995456,40701.0,0.0,0.0,-0.0,0.0,0.25,4.812011226,0.01,0.0,0.3700000047683716,-1.25,0.14000000059604645,-0.0233154296875,0.01348876953125,1.0343017578125,35.4900016784668,0.0,0.0,1.6463775634765625,0.2572784423828125,Waiting,0.0,0.0,1.0,0.0,0.0,0.0,0.0,0.0,
1.0968289999999998,0.0,0.0,41151.0,0.0,0.0,0.0,0.0,0.125,4.793700681000001,0.01,0.0,38157.0,0.0,0.0,-0.0,0.0,0.25,4.812011226,0.01,0.0012207030000004337,-2116.0,0.0,0.0,0.0,0.0,0.0,4.788817869,0.01,0.0012207029999995456,40701.0,0.0,0.0,-0.0,0.0,0.25,4.8132319290000005,0.01,0.0,0.3799999952316284,-1.2599999904632568,0.12999999523162842,-0.01861572265625,0.0155029296875,1.01800537109375,35.4900016784668,0.0,3.0,1.6463775634765625,0.2572784423828125,Waiting,0.0,0.0,1.0,0.0,0.0,0.0,0.0,0.0,
1.1274850000000005,0.0,0.0,41151.0,0.0,0.0,0.0,0.0,0.125,4.793700681000001,0.01,0.0,38157.0,0.0,0.0,-0.0,0.0,0.25,4.8107905230000005,0.01,0.0012207030000004337,-2116.0,0.0,0.0,0.0,0.0,0.0,4.788817869,0.01,0.0012207029999995456,40701.0,0.0,0.0,-0.0,0.0,0.25,4.812011226,0.01,0.0,0.38999998569488525,-1.25,0.12999999523162842,-0.02001953125,0.01483154296875,1.02264404296875,35.4900016784668,0.0,2.0,1.6463775634765625,0.2572784423828125,Waiting,0.0,0.0,1.0,0.0,0.0,0.0,0.0,0.0,
1.1470110000000004,0.0,0.0,41151.0,0.0,0.0,0.0,0.0,0.125,4.794921384,0.01,0.0,38157.0,0.0,0.0,-0.0,0.0,0.25,4.812011226,0.01,0.0,-2116.0,0.0,0.0,0.0,0.0,0.0,4.788817869,0.01,-0.0012207029999995456,40701.0,0.0,0.0,-0.0,0.0,0.25,4.8132319290000005,0.01,0.0,0.38999998569488525,-1.25,0.12999999523162842,-0.0211181640625,0.00518798828125,1.01739501953125,35.4900016784668,0.0,1.0,1.6463775634765625,0.2572784423828125,Waiting,0.0,0.0,1.0,0.0,0.0,0.0,0.0,0.0,
1.1696239999999998,0.0,0.0,41151.0,0.0,0.0,0.0,0.0,0.125,4.792479978,0.01,0.0012207030000004337,38157.0,0.0,0.0,-0.0,0.0,0.25,4.812011226,0.01,0.0,-2116.0,0.0,0.0,0.0,0.0,0.0,4.790038572,0.01,-0.0012207029999995456,40701.0,0.125,0.0,-0.0,0.0,0.25,4.812011226,0.01,0.0,0.4000000059604645,-1.25,0.12999999523162842,-0.0235595703125,0.0054931640625,1.01849365234375,35.4900016784668,0.0,-1.0,1.6463775634765625,0.2572784423828125,Waiting,0.0,0.0,1.0,0.0,0.0,0.0,0.0,0.0,
1.1877480000000014,0.0,0.0,41151.0,0.0,0.0,0.0,0.0,0.125,4.792479978,0.01,0.0012207030000004337,38157.0,0.0,0.0,-0.0,0.0,0.25,4.80956982,0.01,0.0,-2116.0,0.0,0.0,0.0,0.0,0.0,4.788817869,0.01,-0.0012207029999995456,40701.0,0.125,0.0,-0.0,0.0,0.25,4.8132319290000005,0.01,0.0,0.38999998569488525,-1.2599999904632568,0.12999999523162842,-0.02508544921875,0.0010986328125,1.02203369140625,35.4900016784668,0.0,-2.0,1.6463775634765625,0.2572784423828125,Waiting,0.0,0.0,1.0,0.0,0.0,0.0,0.0,0.0,
1.2102790000000005,0.0,0.0,41151.0,0.0,0.0,0.0,0.0,0.125,4.793700681000001,0.01,0.0,38157.0,0.0,0.0,-0.0,0.0,0.25,4.80956982,0.01,-0.0012207030000004337,-2116.0,0.0,0.0,0.0,0.0,0.0,4.790038572,0.01,0.0012207029999995456,40701.0,0.125,0.0,-0.0,0.0,0.25,4.812011226,0.01,0.0,0.3799999952316284,-1.2599999904632568,0.12999999523162842,-0.025146484375,1.8310546875E-4,1.01953125,35.4900016784668,0.0,-2.0,1.6463775634765625,0.2572784423828125,Waiting,0.0,0.0,1.0,0.0,0.0,0.0,0.0,0.0,
1.2308640000000013,0.0,0.0,41151.0,0.0,0.0,0.0,0.0,0.125,4.793700681000001,0.01,0.0,38157.0,0.0,0.0,-0.0,0.0,0.25,4.80956982,0.01,-0.0012207030000004337,-2116.0,0.0,0.0,0.0,0.0,0.0,4.788817869,0.01,0.0012207029999995456,40701.0,0.125,0.0,-0.0,0.0,0.25,4.8107905230000005,0.01,0.0,0.3799999952316284,-1.2599999904632568,0.12999999523162842,-0.02081298828125,-3.0517578125E-4,1.01898193359375,35.4900016784668,0.0,1.0,1.6463775634765625,0.2572784423828125,Waiting,0.0,0.0,1.0,0.0,0.0,0.0,0.0,0.0,
1.251795,0.0,0.0,41151.0,0.0,0.0,0.0,0.0,0.125,4.792479978,0.01,0.0,38157.0,0.0,0.0,-0.0,0.0,0.25,4.8107905230000005,0.01,0.0012207030000004337,-2116.0,0.0,0.0,0.0,0.0,0.0,4.788817869,0.01,0.0,40701.0,0.125,0.0,-0.0,0.0,0.25,4.812011226,0.01,0.0,0.3700000047683716,-1.25,0.11999999731779099,-0.0191650390625,0.0052490234375,1.02593994140625,35.4900016784668,0.0,3.0,1.6463775634765625,0.2572784423828125,Waiting,0.0,0.0,1.0,0.0,0.0,0.0,0.0,0.0,
1.2721990000000005,0.0,0.0,41151.0,0.0,0.0,0.0,0.0,0.125,4.793700681000001,0.01,0.0,38157.0,0.0,0.0,-0.0,0.0,0.25,4.8107905230000005,0.01,0.0012207030000004337,-2116.0,0.0,0.0,0.0,0.0,0.0,4.788817869,0.01,0.0,40701.0,0.125,0.0,-0.0,0.0,0.25,4.8132319290000005,0.01,0.0,0.3799999952316284,-1.25,0.10999999940395355,-0.02410888671875,0.0074462890625,1.0233154296875,35.4900016784668,0.0,-1.0,1.6463775634765625,0.2572784423828125,Waiting,0.0,0.0,1.0,0.0,0.0,0.0,0.0,0.0,
1.2911720000000004,0.0,0.0,41151.0,0.0,0.0,0.0,0.0,0.125,4.792479978,0.01,0.0,38157.0,0.0,0.0,-0.0,0.0,0.25,4.80956982,0.01,0.0012207030000004337,-2116.0,0.0,0.0,0.0,0.0,0.0,4.788817869,0.01,0.0,40701.0,0.125,0.0,-0.0,0.0,0.25,4.8132319290000005,0.01,0.0,0.3799999952316284,-1.25,0.10000000149011612,-0.0235595703125,0.0108642578125,1.02203369140625,35.4900016784668,0.0,-1.0,1.6463775634765625,0.2572784423828125,Waiting,0.0,0.0,1.0,0.0,0.0,0.0,0.0,0.0,
1.3127300000000013,0.0,0.0,41151.0,0.0,0.0,0.0,0.0,0.125,4.794921384,0.01,0.0,38157.0,0.0,0.0,-0.0,0.0,0.25,4.8107905230000005,0.01,0.0,-2116.0,0.0,0.0,0.0,0.0,0.0,4.788817869,0.01,0.0,40701.0,0.125,0.0,-0.0,0.0,0.25,4.8132319290000005,0.01,0.0,0.3799999952316284,-1.2599999904632568,0.10000000149011612,-0.022705078125,0.01416015625,1.02313232421875,35.4900016784668,0.0,0.0,1.6463775634765625,0.2572784423828125,Waiting,0.0,0.0,1.0,0.0,0.0,0.0,0.0,0.0,
1.3306140000000013,0.0,0.0,41151.0,0.0,0.0,0.0,0.0,0.125,4.792479978,0.01,0.0,38157.0,0.0,0.0,-0.0,0.0,0.25,4.8107905230000005,0.01,0.0,-2116.0,0.0,0.0,0.0,0.0,0.0,4.790038572,0.01,0.0,40701.0,0.125,0.0,-0.0,0.0,0.25,4.812011226,0.01,0.0,0.38999998569488525,-1.25,0.10000000149011612,-0.02093505859375,0.0128173828125,1.02044677734375,35.4900016784668,0.0,1.0,1.6463775634765625,0.2572784423828125,Waiting,0.0,0.0,1.0,0.0,0.0,0.0,0.0,0.0,
1.3510339999999996,0.0,0.0,41151.0,0.0,0.0,0.0,0.0,0.125,4.793700681000001,0.01,0.0,38157.0,0.0,0.0,-0.0,0.0,0.25,4.80956982,0.01,0.0,-2116.0,0.0,0.0,0.0,0.0,0.0,4.788817869,0.01,0.0,40701.0,0.125,0.0,-0.0,0.0,0.25,4.8132319290000005,0.01,0.0,0.38999998569488525,-1.25,0.10000000149011612,-0.02203369140625,0.0064697265625,1.0216064453125,35.4900016784668,0.0,0.0,1.6463775634765625,0.2572784423828125,Waiting,0.0,0.0,1.0,0.0,0.0,0.0,0.0,0.0,
1.380290000000001,0.0,0.0,41151.0,0.0,0.0,0.0,0.0,0.125,4.793700681000001,0.01,0.0,38157.0,0.0,0.0,-0.0,0.0,0.25,4.812011226,0.01,0.0,-2116.0,0.0,0.0,0.0,0.0,0.0,4.788817869,0.01,0.0,40701.0,0.125,0.0,-0.0,0.0,0.25,4.812011226,0.01,0.0,0.38999998569488525,-1.25,0.09000000357627869,-0.0201416015625,0.0091552734375,1.01824951171875,35.4900016784668,0.0,2.0,1.6463775634765625,0.2572784423828125,Waiting,0.0,0.0,1.0,0.0,0.0,0.0,0.0,0.0,
1.3981460000000006,0.0,0.0,41151.0,0.0,0.0,0.0,0.0,0.125,4.794921384,0.01,0.0,38157.0,0.0,0.0,-0.0,0.0,0.25,4.8107905230000005,0.01,-0.0012207030000004337,-2116.0,0.0,0.0,0.0,0.0,0.0,4.788817869,0.01,-0.0012207029999995456,40701.0,0.125,0.0,-0.0,0.0,0.25,4.812011226,0.01,0.0,0.38999998569488525,-1.25,0.09000000357627869,-0.0223388671875,0.00274658203125,1.02288818359375,35.4900016784668,0.0,0.0,1.6463775634765625,0.2572784423828125,Waiting,0.0,0.0,1.0,0.0,0.0,0.0,0.0,0.0,
1.4265879999999997,0.0,0.0,41151.0,0.0,0.0,0.0,0.0,0.125,4.793700681000001,0.01,0.0,38157.0,0.0,0.0,-0.0,0.0,0.25,4.8107905230000005,0.01,-0.0012207030000004337,-2116.0,0.0,0.0,0.0,0.0,0.0,4.788817869,0.01,-0.0012207029999995456,40701.0,0.125,0.0,-0.0,0.0,0.25,4.812011226,0.01,0.0,0.3799999952316284,-1.2599999904632568,0.09000000357627869,-0.0235595703125,0.00225830078125,1.01788330078125,35.4900016784668,0.0,-1.0,1.6463775634765625,0.2572784423828125,Waiting,0.0,0.0,1.0,0.0,0.0,0.0,0.0,0.0,
1.4452020000000012,0.0,0.0,41151.0,0.0,0.0,0.0,0.0,0.125,4.793700681000001,0.01,0.0,38157.0,0.0,0.0,-0.0,0.0,0.25,4.812011226,0.01,0.0,-2116.0,0.0,0.0,0.0,0.0,0.0,4.788817869,0.01,0.0012207029999995456,40701.0,0.125,0.0,-0.0,0.0,0.25,4.812011226,0.01,0.0,0.3799999952316284,-1.25,0.07999999821186066,-0.0218505859375,0.0052490234375,1.02227783203125,35.4900016784668,0.0,0.0,1.6463775634765625,0.2572784423828125,Waiting,0.0,0.0,1.0,0.0,0.0,0.0,0.0,0.0,
1.468487000000001,0.0,0.0,41151.0,0.0,0.0,0.0,0.0,0.125,4.794921384,0.01,-0.0012207030000004337,38157.0,0.0,0.0,-0.0,0.0,0.25,4.8107905230000005,0.01,0.0,-2116.0,0.0,0.0,0.0,0.0,0.0,4.788817869,0.01,0.0012207029999995456,40701.0,0.125,0.0,-0.0,0.0,0.25,4.812011226,0.01,0.0,0.3799999952316284,-1.25,0.07999999821186066,-0.0228271484375,0.00640869140625,1.0189208984375,35.4900016784668,0.0,0.0,1.6463775634765625,0.2572784423828125,Waiting,0.0,0.0,1.0,0.0,0.0,0.0,0.0,0.0,
1.4880630000000001,0.0,0.0,41151.0,0.0,0.0,0.0,0.0,0.125,4.792479978,0.01,-0.0012207030000004337,38157.0,0.0,0.0,-0.0,0.0,0.25,4.8107905230000005,0.01,0.0,-2116.0,0.0,0.0,0.0,0.0,0.0,4.788817869,0.01,0.0012207029999995456,40701.0,0.0,0.0,-0.0,0.0,0.25,4.812011226,0.01,0.0,0.3799999952316284,-1.25,0.07000000029802322,-0.0223388671875,0.00616455078125,1.0164794921875,35.4900016784668,0.0,0.0,1.6463775634765625,0.2572784423828125,Waiting,0.0,0.0,1.0,0.0,0.0,0.0,0.0,0.0,
1.5110130000000008,0.0,0.0,41151.0,0.0,0.0,0.0,0.0,0.125,4.794921384,0.01,0.0012207030000004337,38157.0,0.0,0.0,-0.0,0.0,0.25,4.812011226,0.01,0.0012207030000004337,-2116.0,0.0,0.0,0.0,0.0,0.0,4.788817869,0.01,0.0,40701.0,0.0,0.0,-0.0,0.0,0.25,4.80956982,0.01,0.0,0.3799999952316284,-1.2599999904632568,0.07000000029802322,-0.0224609375,0.00921630859375,1.0218505859375,35.4900016784668,0.0,0.0,1.6463775634765625,0.2572784423828125,Waiting,0.0,0.0,1.0,0.0,0.0,0.0,0.0,0.0,
1.5298230000000004,0.0,0.0,41151.0,0.0,0.0,0.0,0.0,0.125,4.793700681000001,0.01,0.0012207030000004337,38157.0,0.0,0.0,-0.0,0.0,0.25,4.8107905230000005,0.01,0.0012207030000004337,-2116.0,0.0,0.0,0.0,0.0,0.0,4.788817869,0.01,0.0,40701.0,0.0,0.0,-0.0,0.0,0.25,4.8132319290000005,0.01,0.0,0.3799999952316284,-1.2599999904632568,0.07000000029802322,-0.0223388671875,0.00787353515625,1.0185546875,35.4900016784668,0.0,0.0,1.6463775634765625,0.2572784423828125,Waiting,0.0,0.0,1.0,0.0,0.0,0.0,0.0,0.0,
1.5524539999999998,0.0,0.0,41151.0,0.0,0.0,0.0,0.0,0.125,4.793700681000001,0.01,0.0,38157.0,0.0,0.0,-0.0,0.0,0.25,4.812011226,0.01,0.0,-2116.0,0.0,0.0,0.0,0.0,0.0,4.788817869,0.01,0.0,40701.0,0.125,0.0,-0.0,0.0,0.25,4.812011226,0.01,0.0,0.38999998569488525,-1.25,0.05999999865889549,-0.0218505859375,0.00775146484375,1.01824951171875,35.4900016784668,0.0,0.0,1.6463775634765625,0.2572784423828125,Waiting,0.0,0.0,1.0,0.0,0.0,0.0,0.0,0.0,
1.5746800000000003,0.0,0.0,41151.0,0.0,0.0,0.0,0.0,0.125,4.794921384,0.01,0.0,38157.0,0.0,0.0,-0.0,0.0,0.25,4.8107905230000005,0.01,0.0,-2116.0,0.0,0.0,0.0,0.0,0.0,4.790038572,0.01,0.0,40701.0,0.125,0.0,-0.0,0.0,0.25,4.8132319290000005,0.01,0.0,0.38999998569488525,-1.25,0.05999999865889549,-0.0238037109375,0.00347900390625,1.0196533203125,35.4900016784668,0.0,-1.0,1.6463775634765625,0.2572784423828125,Waiting,0.0,0.0,1.0,0.0,0.0,0.0,0.0,0.0,
1.5923680000000004,0.0,0.0,41151.0,0.0,0.0,0.0,0.0,0.125,4.79736279,0.01,0.0,38157.0,0.0,0.0,-0.0,0.0,0.25,4.8107905230000005,0.01,0.0,-2116.0,0.0,0.0,0.0,0.0,0.0,4.788817869,0.01,0.0,40701.0,0.125,0.0,-0.0,0.0,0.25,4.812011226,0.01,0.0,0.3799999952316284,-1.2599999904632568,0.05999999865889549,-0.0228271484375,0.006591796875,1.02105712890625,35.4900016784668,0.0,0.0,1.6463775634765625,0.2572784423828125,Waiting,0.0,0.0,1.0,0.0,0.0,0.0,0.0,0.0,
1.612844000000001,0.0,0.0,41151.0,0.0,0.0,0.0,0.0,0.125,4.794921384,0.01,0.0,38157.0,0.0,0.0,-0.0,0.0,0.25,4.8107905230000005,0.01,0.0,-2116.0,0.0,0.0,0.0,0.0,0.0,4.788817869,0.01,0.0,40701.0,0.125,0.0,-0.0,0.0,0.25,4.812011226,0.01,0.0,0.3799999952316284,-1.2599999904632568,0.05999999865889549,-0.02001953125,0.00640869140625,1.0220947265625,35.4900016784668,0.0,2.0,1.6463775634765625,0.2572784423828125,Waiting,0.0,0.0,1.0,0.0,0.0,0.0,0.0,0.0,
1.630687,0.0,0.0,41151.0,0.0,0.0,0.0,0.0,0.125,4.793700681000001,0.01,0.0,38157.0,0.0,0.0,-0.0,0.0,0.25,4.8107905230000005,0.01,0.0,-2116.0,0.0,0.0,0.0,0.0,0.0,4.787597166,0.01,0.0,40701.0,0.125,0.0,-0.0,0.0,0.25,4.8132319290000005,0.01,0.0,0.3799999952316284,-1.2599999904632568,0.05999999865889549,-0.02154541015625,0.00537109375,1.019775390625,35.4900016784668,0.0,0.0,1.6463775634765625,0.2572784423828125,Waiting,0.0,0.0,1.0,0.0,0.0,0.0,0.0,0.0,
1.6490010000000002,0.0,0.0,41151.0,0.0,0.0,0.0,0.0,0.125,4.793700681000001,0.01,0.0,38157.0,0.0,0.0,-0.0,0.0,0.25,4.8107905230000005,0.01,0.0,-2116.0,0.0,0.0,0.0,0.0,0.0,4.788817869,0.01,0.0,40701.0,0.125,0.0,-0.0,0.0,0.25,4.8132319290000005,0.01,0.0,0.3799999952316284,-1.2599999904632568,0.05000000074505806,-0.0198974609375,0.00555419921875,1.02886962890625,35.4900016784668,0.0,-1.0,1.6463775634765625,0.2572784423828125,Waiting,0.0,0.0,1.0,0.0,0.0,0.0,0.0,0.0,
1.6699570000000004,0.0,0.0,41151.0,0.0,0.0,0.0,0.0,0.125,4.791259275,0.01,0.0,38157.0,0.0,0.0,-0.0,0.0,0.25,4.80956982,0.01,0.0,-2116.0,0.0,0.0,0.0,0.0,0.0,4.788817869,0.01,0.0,40701.0,0.125,0.0,-0.0,0.0,0.25,4.812011226,0.01,0.0,0.3799999952316284,-1.2599999904632568,0.05000000074505806,-0.0240478515625,0.0050048828125,1.021484375,35.4900016784668,0.0,-1.0,1.6463775634765625,0.2572784423828125,Waiting,0.0,0.0,1.0,0.0,0.0,0.0,0.0,0.0,
1.6874430000000011,0.0,0.0,41151.0,0.0,0.0,0.0,0.0,0.125,4.792479978,0.01,0.0,38157.0,0.0,0.0,-0.0,0.0,0.25,4.80956982,0.01,0.0,-2116.0,0.0,0.0,0.0,0.0,0.0,4.791259275,0.01,0.0,40701.0,0.125,0.0,-0.0,0.0,0.25,4.8107905230000005,0.01,0.0,0.3799999952316284,-1.25,0.03999999910593033,-0.0216064453125,0.00909423828125,1.023681640625,35.4900016784668,0.0,0.0,1.6463775634765625,0.2572784423828125,Waiting,0.0,0.0,1.0,0.0,0.0,0.0,0.0,0.0,
1.7096779999999998,0.0,0.0,41151.0,0.0,0.0,0.0,0.0,0.125,4.793700681000001,0.01,-0.0012207030000004337,38157.0,0.0,0.0,-0.0,0.0,0.25,4.8107905230000005,0.01,-0.0012207030000004337,-2116.0,0.0,0.0,0.0,0.0,0.0,4.788817869,0.01,0.0,40701.0,0.125,0.0,-0.0,0.0,0.25,4.8132319290000005,0.01,0.0,0.3799999952316284,-1.2599999904632568,0.03999999910593033,-0.0201416015625,0.00811767578125,1.02374267578125,35.4900016784668,0.0,2.0,1.6463775634765625,0.2572784423828125,Waiting,0.0,0.0,1.0,0.0,0.0,0.0,0.0,0.0,
1.7270470000000004,0.0,0.0,41151.0,0.0,0.0,0.0,0.0,0.125,4.794921384,0.01,-0.0012207030000004337,38157.0,0.0,0.0,-0.0,0.0,0.25,4.8107905230000005,0.01,-0.0012207030000004337,-2116.0,0.0,0.0,0.0,0.0,0.0,4.788817869,0.01,0.0,40701.0,0.125,0.0,-0.0,0.0,0.25,4.8132319290000005,0.01,0.0,0.3799999952316284,-1.25,0.03999999910593033,-0.02313232421875,0.01177978515625,1.020751953125,35.459999084472656,0.0,0.0,1.6463775634765625,0.2572784423828125,Waiting,0.0,0.0,1.0,0.0,0.0,0.0,0.0,0.0,
1.7470330000000012,0.0,0.0,41151.0,0.0,0.0,0.0,0.0,0.125,4.793700681000001,0.01,-0.0012207030000004337,38157.0,0.0,0.0,-0.0,0.0,0.25,4.80956982,0.01,0.0012207030000004337,-2116.0,0.0,0.0,0.0,0.0,0.0,4.788817869,0.01,0.0,40701.0,0.125,0.0,-0.0,0.0,0.25,4.812011226,0.01,0.0,0.3799999952316284,-1.25,0.029999999329447746,-0.02215576171875,0.00531005859375,1.0194091796875,35.459999084472656,0.0,0.0,1.6463775634765625,0.2572784423828125,Waiting,0.0,0.0,1.0,0.0,0.0,0.0,0.0,0.0,
1.767353000000001,0.0,0.0,41151.0,0.0,0.0,0.0,0.0,0.125,4.793700681000001,0.01,0.0012207030000004337,38157.0,0.0,0.0,-0.0,0.0,0.25,4.8107905230000005,0.01,0.0012207030000004337,-2116.0,0.0,0.0,0.0,0.0,0.0,4.790038572,0.01,0.0,40701.0,0.125,0.0,-0.0,0.0,0.25,4.8132319290000005,0.01,0.0,0.38999998569488525,-1.2400000095367432,0.029999999329447746,-0.01983642578125,0.00885009765625,1.017822265625,35.459999084472656,0.0,2.0,1.6463775634765625,0.2572784423828125,Waiting,0.0,0.0,1.0,0.0,0.0,0.0,0.0,0.0,
1.7867579999999998,0.0,0.0,41151.0,0.0,0.0,0.0,0.0,0.125,4.794921384,0.01,0.0012207030000004337,38157.0,0.0,0.0,-0.0,0.0,0.25,4.80956982,0.01,0.0012207030000004337,-2116.0,0.0,0.0,0.0,0.0,0.0,4.788817869,0.01,0.0,40701.0,0.125,0.0,-0.0,0.0,0.25,4.812011226,0.01,0.0,0.38999998569488525,-1.2400000095367432,0.029999999329447746,-0.0247802734375,0.006103515625,1.01953125,35.459999084472656,0.0,-2.0,1.6463775634765625,0.2572784423828125,Waiting,0.0,0.0,1.0,0.0,0.0,0.0,0.0,0.0,
1.8090249999999997,0.0,0.0,41151.0,0.0,0.0,0.0,0.0,0.125,4.794921384,0.01,0.0,38157.0,0.0,0.0,-0.0,0.0,0.25,4.8107905230000005,0.01,0.0,-2116.0,0.0,0.0,0.0,0.0,0.0,4.787597166,0.01,-0.0012207029999995456,40701.0,0.125,0.0,-0.0,0.0,0.25,4.8132319290000005,0.01,0.0,0.38999998569488525,-1.2400000095367432,0.029999999329447746,-0.02313232421875,0.0059814453125,1.01776123046875,35.459999084472656,0.0,0.0,1.6463775634765625,0.2572784423828125,Waiting,0.0,0.0,1.0,0.0,0.0,0.0,0.0,0.0,
1.8268720000000012,0.0,0.0,41151.0,0.0,0.0,0.0,0.0,0.125,4.791259275,0.01,0.0,38157.0,0.0,0.0,-0.0,0.0,0.25,4.80956982,0.01,0.0,-2116.0,0.0,0.0,0.0,0.0,0.0,4.788817869,0.01,-0.0012207029999995456,40701.0,0.125,0.0,-0.0,0.0,0.25,4.812011226,0.01,0.0,0.3799999952316284,-1.25,0.019999999552965164,-0.02252197265625,0.0029296875,1.01641845703125,35.459999084472656,0.0,0.0,1.6463775634765625,0.2572784423828125,Waiting,0.0,0.0,1.0,0.0,0.0,0.0,0.0,0.0,
1.8455030000000006,0.0,0.0,41151.0,0.0,0.0,0.0,0.0,0.125,4.793700681000001,0.01,0.0,38157.0,0.0,0.0,-0.0,0.0,0.25,4.80956982,0.01,0.0,-2116.0,0.0,0.0,0.0,0.0,0.0,4.788817869,0.01,0.0,40701.0,0.125,0.0,-0.0,0.0,0.25,4.8107905230000005,0.01,-0.0012207029999995456,0.3799999952316284,-1.25,0.019999999552965164,-0.0228271484375,0.00836181640625,1.01947021484375,35.459999084472656,0.0,0.0,1.6463775634765625,0.2572784423828125,Waiting,0.0,0.0,1.0,0.0,0.0,0.0,0.0,0.0,
1.8682780000000003,0.0,0.0,41151.0,0.0,0.0,0.0,0.0,0.125,4.793700681000001,0.01,-0.0012207030000004337,38157.0,0.0,0.0,-0.0,0.0,0.25,4.8107905230000005,0.01,-0.0012207030000004337,-2116.0,0.0,0.0,0.0,0.0,0.0,4.788817869,0.01,0.0,40701.0,0.125,0.0,-0.0,0.0,0.25,4.812011226,0.01,-0.0012207029999995456,0.3799999952316284,-1.25,0.009999999776482582,-0.02325439453125,0.006591796875,1.02264404296875,35.459999084472656,0.0,0.0,1.6463775634765625,0.2572784423828125,Waiting,0.0,0.0,1.0,0.0,0.0,0.0,0.0,0.0,
1.8877849999999998,0.0,0.0,41151.0,0.0,0.0,0.0,0.0,0.125,4.793700681000001,0.01,-0.0012207030000004337,38157.0,0.0,0.0,-0.0,0.0,0.25,4.80956982,0.01,-0.0012207030000004337,-2116.0,0.0,0.0,0.0,0.0,0.0,4.788817869,0.01,0.0,40701.0,0.0,0.0,-0.0,0.0,0.25,4.812011226,0.01,-0.0012207029999995456,0.3799999952316284,-1.25,0.009999999776482582,-0.02325439453125,0.00506591796875,1.022216796875,35.459999084472656,0.0,0.0,1.6463775634765625,0.2572784423828125,Waiting,0.0,0.0,1.0,0.0,0.0,0.0,0.0,0.0,
1.9101630000000005,0.0,0.0,41151.0,0.0,0.0,0.0,0.0,0.125,4.793700681000001,0.01,0.0012207030000004337,38157.0,0.0,0.0,-0.0,0.0,0.25,4.8107905230000005,0.01,0.0012207030000004337,-2116.0,0.0,0.0,0.0,0.0,0.0,4.790038572,0.01,0.0012207029999995456,40701.0,0.0,0.0,-0.0,0.0,0.25,4.812011226,0.01,0.0012207029999995456,0.38999998569488525,-1.2400000095367432,0.0,-0.02044677734375,0.0103759765625,1.02044677734375,35.459999084472656,0.0,1.0,1.6463775634765625,0.2572784423828125,Waiting,0.0,0.0,1.0,0.0,0.0,0.0,0.0,0.0,
1.9281890000000004,0.0,0.0,41151.0,0.0,0.0,0.0,0.0,0.125,4.793700681000001,0.01,0.0012207030000004337,38157.0,0.0,0.0,-0.0,0.0,0.25,4.80956982,0.01,0.0012207030000004337,-2116.0,0.0,0.0,0.0,0.0,0.0,4.788817869,0.01,0.0012207029999995456,40701.0,0.0,0.0,-0.0,0.0,0.25,4.8132319290000005,0.01,0.0012207029999995456,0.38999998569488525,-1.2400000095367432,0.0,-0.01971435546875,0.006103515625,1.0233154296875,35.459999084472656,0.0,2.0,1.6463775634765625,0.2572784423828125,Waiting,0.0,0.0,1.0,0.0,0.0,0.0,0.0,0.0,
1.9469770000000008,0.0,0.0,41151.0,0.0,0.0,0.0,0.0,0.125,4.793700681000001,0.01,0.0012207030000004337,38157.0,0.0,0.0,-0.0,0.0,0.25,4.80956982,0.01,0.0,-2116.0,0.0,0.0,0.0,0.0,0.0,4.788817869,0.01,0.0,40701.0,0.125,0.0,-0.0,0.0,0.25,4.812011226,0.01,0.0,0.38999998569488525,-1.2400000095367432,0.0,-0.0225830078125,0.0078125,1.01922607421875,35.459999084472656,0.0,0.0,1.6463775634765625,0.2572784423828125,Waiting,0.0,0.0,1.0,0.0,0.0,0.0,0.0,0.0,
1.9695470000000004,0.0,0.0,41151.0,0.0,0.0,0.0,0.0,0.125,4.793700681000001,0.01,0.0,38157.0,0.0,0.0,-0.0,0.0,0.25,4.8107905230000005,0.01,0.0,-2116.0,0.0,0.0,0.0,0.0,0.0,4.788817869,0.01,0.0,40701.0,0.125,0.0,-0.0,0.0,0.25,4.812011226,0.01,0.0,0.38999998569488525,-1.25,0.0,-0.02215576171875,0.00689697265625,1.025390625,35.459999084472656,0.0,0.0,1.6463775634765625,0.2572784423828125,Waiting,0.0,0.0,1.0,0.0,0.0,0.0,0.0,0.0,
1.9863520000000008,0.0,0.0,41151.0,0.0,0.0,0.0,0.0,0.125,4.793700681000001,0.01,0.0,38157.0,0.0,0.0,-0.0,0.0,0.25,4.812011226,0.01,0.0,-2116.0,0.0,0.0,0.0,0.0,0.0,4.790038572,0.01,0.0,40701.0,0.125,0.0,-0.0,0.0,0.25,4.812011226,0.01,0.0,0.38999998569488525,-1.2400000095367432,0.0,-0.0234375,0.0076904296875,1.02154541015625,35.459999084472656,0.0,-1.0,1.6463775634765625,0.2572784423828125,Waiting,0.0,0.0,1.0,0.0,0.0,0.0,0.0,0.0,
2.007050000000001,0.0,0.0,41151.0,0.0,0.0,0.0,0.0,0.125,4.793700681000001,0.01,-0.0012207030000004337,38157.0,0.0,0.0,-0.0,0.0,0.25,4.8107905230000005,0.01,-0.0012207030000004337,-2116.0,0.0,0.0,0.0,0.0,0.0,4.788817869,0.01,-0.0012207029999995456,40701.0,0.125,0.0,-0.0,0.0,0.25,4.8132319290000005,0.01,0.0,0.38999998569488525,-1.2400000095367432,0.0,-0.01861572265625,0.00762939453125,1.022216796875,35.459999084472656,0.0,3.0,1.6463775634765625,0.2572784423828125,Waiting,0.0,0.0,1.0,0.0,0.0,0.0,0.0,0.0,
2.027268,0.0,0.0,41151.0,0.0,0.0,0.0,0.0,0.125,4.793700681000001,0.01,-0.0012207030000004337,38157.0,0.0,0.0,-0.0,0.0,0.25,4.8107905230000005,0.01,-0.0012207030000004337,-2116.0,0.0,0.0,0.0,0.0,0.0,4.788817869,0.01,-0.0012207029999995456,40701.0,0.125,0.0,-0.0,0.0,0.25,4.812011226,0.01,0.0,0.38999998569488525,-1.2400000095367432,0.0,-0.01959228515625,0.00482177734375,1.01739501953125,35.459999084472656,0.0,2.0,1.6463775634765625,0.2572784423828125,Waiting,0.0,0.0,1.0,0.0,0.0,0.0,0.0,0.0,
2.0464710000000013,0.0,0.0,41151.0,0.0,0.0,0.0,0.0,0.125,4.793700681000001,0.01,-0.0012207030000004337,38157.0,0.0,0.0,-0.0,0.0,0.25,4.8107905230000005,0.01,-0.0012207030000004337,-2116.0,0.0,0.0,0.0,0.0,0.0,4.788817869,0.01,0.0,40701.0,0.125,0.0,-0.0,0.0,0.25,4.812011226,0.01,0.0,0.38999998569488525,-1.2400000095367432,-0.009999999776482582,-0.02178955078125,0.00555419921875,1.02593994140625,35.459999084472656,0.0,0.0,1.6463775634765625,0.2572784423828125,Waiting,0.0,0.0,1.0,0.0,0.0,0.0,0.0,0.0,
2.084406000000001,0.0,0.0,41151.0,0.0,0.0,0.0,0.0,0.125,4.793700681000001,0.01,0.0,38157.0,0.0,0.0,-0.0,0.0,0.25,4.80956982,0.01,0.0,-2116.0,0.0,0.0,0.0,0.0,0.0,4.788817869,0.01,0.0,40701.0,0.125,0.0,-0.0,0.0,0.25,4.8132319290000005,0.01,0.0,0.38999998569488525,-1.2400000095367432,-0.009999999776482582,-0.01837158203125,0.00543212890625,1.01983642578125,35.459999084472656,0.0,3.0,1.6463775634765625,0.2572784423828125,Waiting,0.0,0.0,1.0,0.0,0.0,0.0,0.0,0.0,
2.1025930000000006,0.0,0.0,41151.0,0.0,0.0,0.0,0.0,0.125,4.793700681000001,0.01,0.0,38157.0,0.0,0.0,-0.0,0.0,0.25,4.80956982,0.01,0.0,-2116.0,0.0,0.0,0.0,0.0,0.0,4.788817869,0.01,0.0,40701.0,0.125,0.0,-0.0,0.0,0.25,4.812011226,0.01,-0.0012207029999995456,0.38999998569488525,-1.2400000095367432,-0.019999999552965164,-0.02471923828125,0.00787353515625,1.01666259765625,35.459999084472656,0.0,-2.0,1.6463775634765625,0.2572784423828125,Waiting,0.0,0.0,1.0,0.0,0.0,0.0,0.0,0.0,
2.125728000000001,0.0,0.0,41151.0,0.0,0.0,0.0,0.0,0.125,4.794921384,0.01,0.0,38157.0,0.0,0.0,-0.0,0.0,0.25,4.812011226,0.01,0.0,-2116.0,0.0,0.0,0.0,0.0,0.0,4.788817869,0.01,0.0,40701.0,0.125,0.0,-0.0,0.0,0.25,4.812011226,0.01,-0.0012207029999995456,0.38999998569488525,-1.2400000095367432,-0.019999999552965164,-0.01904296875,0.00653076171875,1.0191650390625,35.459999084472656,0.0,3.0,1.6463775634765625,0.2572784423828125,Waiting,0.0,0.0,1.0,0.0,0.0,0.0,0.0,0.0,
2.143273000000001,0.0,0.0,41151.0,0.0,0.0,0.0,0.0,0.125,4.796142087000001,0.01,0.0,38157.0,0.0,0.0,-0.0,0.0,0.25,4.812011226,0.01,0.0,-2116.0,0.0,0.0,0.0,0.0,0.0,4.788817869,0.01,0.0,40701.0,0.125,0.0,-0.0,0.0,0.25,4.8107905230000005,0.01,-0.0012207029999995456,0.38999998569488525,-1.2400000095367432,-0.019999999552965164,-0.02386474609375,0.00811767578125,1.02386474609375,35.459999084472656,0.0,-1.0,1.6463775634765625,0.2572784423828125,Waiting,0.0,0.0,1.0,0.0,0.0,0.0,0.0,0.0,
2.1643240000000006,0.0,0.0,41151.0,0.0,0.0,0.0,0.0,0.125,4.793700681000001,0.01,0.0,38157.0,0.0,0.0,-0.0,0.0,0.25,4.8107905230000005,0.01,0.0,-2116.0,0.0,0.0,0.0,0.0,0.0,4.788817869,0.01,0.0,40701.0,0.125,0.0,-0.0,0.0,0.25,4.812011226,0.01,0.0012207029999995456,0.38999998569488525,-1.2400000095367432,-0.019999999552965164,-0.019287109375,0.008056640625,1.0159912109375,35.459999084472656,0.0,0.0,1.6463775634765625,0.2572784423828125,Waiting,0.0,0.0,1.0,0.0,0.0,0.0,0.0,0.0,
2.1844980000000014,0.0,0.0,41151.0,0.0,0.0,0.0,0.0,0.125,4.793700681000001,0.01,0.0,38157.0,0.0,0.0,-0.0,0.0,0.25,4.80956982,0.01,0.0,-2116.0,0.0,0.0,0.0,0.0,0.0,4.788817869,0.01,0.0,40701.0,0.125,0.0,-0.0,0.0,0.25,4.812011226,0.01,0.0012207029999995456,0.38999998569488525,-1.2400000095367432,-0.029999999329447746,-0.021240234375,0.00830078125,1.0216064453125,35.459999084472656,0.0,0.0,1.6463775634765625,0.2572784423828125,Waiting,0.0,0.0,1.0,0.0,0.0,0.0,0.0,0.0,
2.205406000000001,0.0,0.0,41151.0,0.0,0.0,0.0,0.0,0.125,4.793700681000001,0.01,0.0,38157.0,0.0,0.0,-0.0,0.0,0.25,4.8107905230000005,0.01,0.0,-2116.0,0.0,0.0,0.0,0.0,0.0,4.788817869,0.01,0.0012207029999995456,40701.0,0.125,0.0,-0.0,0.0,0.25,4.812011226,0.01,0.0,0.38999998569488525,-1.2400000095367432,-0.029999999329447746,-0.02459716796875,0.0050048828125,1.02215576171875,35.459999084472656,0.0,-2.0,1.6463775634765625,0.2572784423828125,Waiting,0.0,0.0,1.0,0.0,0.0,0.0,0.0,0.0,
2.223508,0.0,0.0,41151.0,0.0,0.0,0.0,0.0,0.125,4.793700681000001,0.01,0.0,38157.0,0.0,0.0,-0.0,0.0,0.25,4.8107905230000005,0.01,0.0,-2116.0,0.0,0.0,0.0,0.0,0.0,4.788817869,0.01,0.0012207029999995456,40701.0,0.125,0.0,-0.0,0.0,0.25,4.812011226,0.01,0.0,0.38999998569488525,-1.2400000095367432,-0.03999999910593033,-0.024658203125,0.00347900390625,1.02020263671875,35.470001220703125,0.0,0.0,1.6463775634765625,0.2572784423828125,Waiting,0.0,0.0,1.0,0.0,0.0,0.0,0.0,0.0,
2.2402210000000014,0.0,0.0,41151.0,0.0,0.0,0.0,0.0,0.125,4.793700681000001,0.01,0.0,38157.0,0.0,0.0,-0.0,0.0,0.25,4.812011226,0.01,0.0,-2116.0,0.0,0.0,0.0,0.0,0.0,4.790038572,0.01,0.0012207029999995456,40701.0,0.125,0.0,-0.0,0.0,0.25,4.812011226,0.01,0.0,0.38999998569488525,-1.2400000095367432,-0.03999999910593033,-0.02178955078125,0.00811767578125,1.01806640625,35.470001220703125,0.0,0.0,1.6463775634765625,0.2572784423828125,Waiting,0.0,0.0,1.0,0.0,0.0,0.0,0.0,0.0,
2.259411,0.0,0.0,41151.0,0.0,0.0,0.0,0.0,0.125,4.793700681000001,0.01,0.0012207030000004337,38157.0,0.0,0.0,-0.0,0.0,0.25,4.8107905230000005,0.01,0.0012207030000004337,-2116.0,0.0,0.0,0.0,0.0,0.0,4.790038572,0.01,0.0,40701.0,0.125,0.0,-0.0,0.0,0.25,4.812011226,0.01,0.0,0.38999998569488525,-1.2400000095367432,-0.03999999910593033,-0.02093505859375,0.00543212890625,1.01861572265625,35.470001220703125,0.0,1.0,1.6463775634765625,0.2572784423828125,Waiting,0.0,0.0,1.0,0.0,0.0,0.0,0.0,0.0,
2.2797030000000014,0.0,0.0,41151.0,0.0,0.0,0.0,0.0,0.125,4.793700681000001,0.01,0.0012207030000004337,38157.0,0.0,0.0,-0.0,0.0,0.25,4.812011226,0.01,0.0012207030000004337,-2116.0,0.0,0.0,0.0,0.0,0.0,4.788817869,0.01,0.0,40701.0,0.125,0.0,-0.0,0.0,0.25,4.8132319290000005,0.01,0.0,0.4000000059604645,-1.2400000095367432,-0.05000000074505806,-0.02215576171875,0.0069580078125,1.02459716796875,35.470001220703125,0.0,0.0,1.6463775634765625,0.2572784423828125,Waiting,0.0,0.0,1.0,0.0,0.0,0.0,0.0,0.0,
2.2994940000000006,0.0,0.0,41151.0,0.0,0.0,0.0,0.0,0.125,4.794921384,0.01,0.0012207030000004337,38157.0,0.0,0.0,-0.0,0.0,0.25,4.8107905230000005,0.01,0.0,-2116.0,0.0,0.0,0.0,0.0,0.0,4.788817869,0.01,0.0,40701.0,0.125,0.0,-0.0,0.0,0.25,4.812011226,0.01,0.0,0.38999998569488525,-1.2300000190734863,-0.05999999865889549,-0.0233154296875,0.0093994140625,1.021728515625,35.470001220703125,0.0,-1.0,1.6463775634765625,0.2572784423828125,Waiting,0.0,0.0,1.0,0.0,0.0,0.0,0.0,0.0,
2.3208230000000003,0.0,0.0,41151.0,0.0,0.0,0.0,0.0,0.125,4.794921384,0.01,0.0,38157.0,0.0,0.0,-0.0,0.0,0.25,4.8107905230000005,0.01,0.0,-2116.0,0.0,0.0,0.0,0.0,0.0,4.788817869,0.01,0.0,40701.0,0.125,0.0,-0.0,0.0,0.25,4.812011226,0.01,0.0,0.4000000059604645,-1.2400000095367432,-0.05000000074505806,-0.02471923828125,0.0064697265625,1.01788330078125,35.470001220703125,0.0,-2.0,1.6463775634765625,0.2572784423828125,Waiting,0.0,0.0,1.0,0.0,0.0,0.0,0.0,0.0,
2.339541000000001,0.0,0.0,41151.0,0.0,0.0,0.0,0.0,0.125,4.793700681000001,0.01,0.0,38157.0,0.0,0.0,-0.0,0.0,0.25,4.8107905230000005,0.01,0.0,-2116.0,0.0,0.0,0.0,0.0,0.0,4.788817869,0.01,0.0,40701.0,0.125,0.0,-0.0,0.0,0.25,4.8132319290000005,0.01,0.0,0.4000000059604645,-1.2400000095367432,-0.05000000074505806,-0.0228271484375,0.0106201171875,1.01953125,35.470001220703125,0.0,0.0,1.6463775634765625,0.2572784423828125,Waiting,0.0,0.0,1.0,0.0,0.0,0.0,0.0,0.0,
2.359972,0.0,0.0,41151.0,0.0,0.0,0.0,0.0,0.125,4.794921384,0.01,0.0,38157.0,0.0,0.0,-0.0,0.0,0.25,4.8107905230000005,0.01,0.0,-2116.0,0.0,0.0,0.0,0.0,0.0,4.788817869,0.01,0.0,40701.0,0.125,0.0,-0.0,0.0,0.25,4.812011226,0.01,0.0,0.4000000059604645,-1.2400000095367432,-0.05999999865889549,-0.02276611328125,0.00872802734375,1.01959228515625,35.470001220703125,0.0,0.0,1.6463775634765625,0.2572784423828125,Waiting,0.0,0.0,1.0,0.0,0.0,0.0,0.0,0.0,
2.381919,0.0,0.0,41151.0,0.0,0.0,0.0,0.0,0.125,4.794921384,0.01,0.0,38157.0,0.0,0.0,-0.0,0.0,0.25,4.8107905230000005,0.01,0.0,-2116.0,0.0,0.0,0.0,0.0,0.0,4.790038572,0.01,0.0,40701.0,0.125,0.0,-0.0,0.0,0.25,4.812011226,0.01,0.0,0.4000000059604645,-1.2400000095367432,-0.05999999865889549,-0.0205078125,0.0037841796875,1.02130126953125,35.470001220703125,0.0,1.0,1.6463775634765625,0.2572784423828125,Waiting,0.0,0.0,1.0,0.0,0.0,0.0,0.0,0.0,
2.399488000000001,0.0,0.0,41151.0,0.0,0.0,0.0,0.0,0.125,4.792479978,0.01,0.0,38157.0,0.0,0.0,-0.0,0.0,0.25,4.80956982,0.01,0.0,-2116.0,0.0,0.0,0.0,0.0,0.0,4.790038572,0.01,0.0,40701.0,0.125,0.0,-0.0,0.0,0.25,4.812011226,0.01,0.0,0.4000000059604645,-1.2400000095367432,-0.05999999865889549,-0.02142333984375,0.00567626953125,1.016357421875,35.470001220703125,0.0,0.0,1.6463775634765625,0.2572784423828125,Waiting,0.0,0.0,1.0,0.0,0.0,0.0,0.0,0.0,
2.4199210000000004,0.0,0.0,41151.0,0.0,0.0,0.0,0.0,0.125,4.794921384,0.01,0.0,38157.0,0.0,0.0,-0.0,0.0,0.25,4.812011226,0.01,0.0,-2116.0,0.0,0.0,0.0,0.0,0.0,4.788817869,0.01,0.0,40701.0,0.0,0.0,-0.0,0.0,0.25,4.8132319290000005,0.01,0.0,0.4000000059604645,-1.2400000095367432,-0.07000000029802322,-0.02325439453125,0.0064697265625,1.017333984375,35.470001220703125,0.0,-1.0,1.6463775634765625,0.2572784423828125,Waiting,0.0,0.0,1.0,0.0,0.0,0.0,0.0,0.0,
2.439693000000001,0.0,0.0,41151.0,0.0,0.0,0.0,0.0,0.125,4.793700681000001,0.01,0.0,38157.0,0.0,0.0,-0.0,0.0,0.25,4.812011226,0.01,0.0,-2116.0,0.0,0.0,0.0,0.0,0.0,4.788817869,0.01,0.0,40701.0,0.0,0.0,-0.0,0.0,0.25,4.8132319290000005,0.01,0.0,0.4000000059604645,-1.2400000095367432,-0.07000000029802322,-0.0240478515625,0.0084228515625,1.0194091796875,35.470001220703125,0.0,-1.0,1.6463775634765625,0.2572784423828125,Waiting,0.0,0.0,1.0,0.0,0.0,0.0,0.0,0.0,
2.459363000000001,0.0,0.0,41151.0,0.0,0.0,0.0,0.0,0.125,4.794921384,0.01,0.0,38157.0,0.0,0.0,-0.0,0.0,0.25,4.8132319290000005,0.01,0.0,-2116.0,0.0,0.0,0.0,0.0,0.0,4.788817869,0.01,0.0,40701.0,0.0,0.0,-0.0,0.0,0.25,4.8132319290000005,0.01,0.0,0.38999998569488525,-1.2300000190734863,-0.07999999821186066,-0.02008056640625,0.00494384765625,1.01702880859375,35.470001220703125,0.0,1.0,1.6463775634765625,0.2572784423828125,Waiting,0.0,0.0,1.0,0.0,0.0,0.0,0.0,0.0,
2.4812489999999996,0.0,0.0,41151.0,0.0,0.0,0.0,0.0,0.125,4.793700681000001,0.01,0.0,38157.0,0.0,0.0,-0.0,0.0,0.25,4.8107905230000005,0.01,0.0,-2116.0,0.0,0.0,0.0,0.0,0.0,4.788817869,0.01,0.0,40701.0,0.125,0.0,-0.0,0.0,0.25,4.8132319290000005,0.01,0.0,0.4000000059604645,-1.2300000190734863,-0.07999999821186066,-0.02142333984375,0.0079345703125,1.01416015625,35.470001220703125,0.0,0.0,1.6463775634765625,0.2572784423828125,Waiting,0.0,0.0,1.0,0.0,0.0,0.0,0.0,0.0,
2.499777,0.0,0.0,41151.0,0.0,0.0,0.0,0.0,0.125,4.793700681000001,0.01,0.0,38157.0,0.0,0.0,-0.0,0.0,0.25,4.8107905230000005,0.01,0.0,-2116.0,0.0,0.0,0.0,0.0,0.0,4.787597166,0.01,0.0,40701.0,0.125,0.0,-0.0,0.0,0.25,4.812011226,0.01,0.0,0.4000000059604645,-1.2300000190734863,-0.07999999821186066,-0.02325439453125,0.00994873046875,1.0244140625,35.470001220703125,0.0,-1.0,1.6463775634765625,0.2572784423828125,Waiting,0.0,0.0,1.0,0.0,0.0,0.0,0.0,0.0,
2.519834000000001,0.0,0.0,41151.0,0.0,0.0,0.0,0.0,0.125,4.794921384,0.01,0.0,38157.0,0.0,0.0,-0.0,0.0,0.25,4.812011226,0.01,0.0,-2116.0,0.0,0.0,0.0,0.0,0.0,4.790038572,0.01,0.0,40701.0,0.125,0.0,-0.0,0.0,0.25,4.812011226,0.01,0.0,0.4000000059604645,-1.2300000190734863,-0.09000000357627869,-0.02276611328125,0.0067138671875,1.0184326171875,35.470001220703125,0.0,0.0,1.6463775634765625,0.2572784423828125,Waiting,0.0,0.0,1.0,0.0,0.0,0.0,0.0,0.0,
2.5397520000000005,0.0,0.0,41151.0,0.0,0.0,0.0,0.0,0.125,4.794921384,0.01,0.0,38157.0,0.0,0.0,-0.0,0.0,0.25,4.80956982,0.01,0.0,-2116.0,0.0,0.0,0.0,0.0,0.0,4.788817869,0.01,0.0,40701.0,0.0,0.0,-0.0,0.0,0.25,4.8132319290000005,0.01,0.0,0.4000000059604645,-1.2300000190734863,-0.09000000357627869,-0.02239990234375,0.00787353515625,1.02197265625,35.470001220703125,0.0,0.0,1.6463775634765625,0.2572784423828125,Waiting,0.0,0.0,1.0,0.0,0.0,0.0,0.0,0.0,
2.560317000000001,0.0,0.0,41151.0,0.0,0.0,0.0,0.0,0.125,4.794921384,0.01,0.0,38157.0,0.0,0.0,-0.0,0.0,0.25,4.8107905230000005,0.01,0.0,-2116.0,0.0,0.0,0.0,0.0,0.0,4.788817869,0.01,0.0,40701.0,0.0,0.0,-0.0,0.0,0.25,4.8132319290000005,0.01,0.0,0.4000000059604645,-1.2300000190734863,-0.09000000357627869,-0.02099609375,0.0062255859375,1.015625,35.470001220703125,0.0,0.0,1.6463775634765625,0.2572784423828125,Waiting,0.0,0.0,1.0,0.0,0.0,0.0,0.0,0.0,
2.580767,0.0,0.0,41151.0,0.0,0.0,0.0,0.0,0.125,4.793700681000001,0.01,0.0,38157.0,0.0,0.0,-0.0,0.0,0.25,4.8107905230000005,0.01,0.0,-2116.0,0.0,0.0,0.0,0.0,0.0,4.790038572,0.01,0.0,40701.0,0.0,0.0,-0.0,0.0,0.25,4.812011226,0.01,0.0,0.4000000059604645,-1.2300000190734863,-0.10000000149011612,-0.020751953125,0.0062255859375,1.02142333984375,35.470001220703125,0.0,1.0,1.6463775634765625,0.2572784423828125,Waiting,0.0,0.0,1.0,0.0,0.0,0.0,0.0,0.0,
2.600307000000001,0.0,0.0,41151.0,0.0,0.0,0.0,0.0,0.125,4.791259275,0.01,0.0,38157.0,0.0,0.0,-0.0,0.0,0.25,4.8107905230000005,0.01,0.0,-2116.0,0.0,0.0,0.0,0.0,0.0,4.788817869,0.01,0.0,40701.0,0.125,0.0,-0.0,0.0,0.25,4.812011226,0.01,0.0,0.4000000059604645,-1.2300000190734863,-0.10000000149011612,-0.0220947265625,0.0040283203125,1.02105712890625,35.470001220703125,0.0,0.0,1.6463775634765625,0.2572784423828125,Waiting,0.0,0.0,1.0,0.0,0.0,0.0,0.0,0.0,
2.6200900000000003,0.0,0.0,41151.0,0.0,0.0,0.0,0.0,0.125,4.794921384,0.01,0.0,38157.0,0.0,0.0,-0.0,0.0,0.25,4.8107905230000005,0.01,0.0,-2116.0,0.0,0.0,0.0,0.0,0.0,4.787597166,0.01,0.0,40701.0,0.125,0.0,-0.0,0.0,0.25,4.8132319290000005,0.01,0.0,0.4000000059604645,-1.2300000190734863,-0.10999999940395355,-0.02490234375,0.00543212890625,1.0179443359375,35.470001220703125,0.0,-3.0,1.6463775634765625,0.2572784423828125,Waiting,0.0,0.0,1.0,0.0,0.0,0.0,0.0,0.0,
2.639853000000001,0.0,0.0,41151.0,0.0,0.0,0.0,0.0,0.125,4.793700681000001,0.01,0.0,38157.0,0.0,0.0,-0.0,0.0,0.25,4.8107905230000005,0.01,0.0,-2116.0,0.0,0.0,0.0,0.0,0.0,4.788817869,0.01,0.0,40701.0,0.125,0.0,-0.0,0.0,0.25,4.812011226,0.01,0.0,0.4000000059604645,-1.2300000190734863,-0.10999999940395355,-0.021728515625,0.0072021484375,1.01580810546875,35.470001220703125,0.0,0.0,1.6463775634765625,0.2572784423828125,Waiting,0.0,0.0,1.0,0.0,0.0,0.0,0.0,0.0,
2.6596550000000008,0.0,0.0,41151.0,0.0,0.0,0.0,0.0,0.125,4.794921384,0.01,0.0,38157.0,0.0,0.0,-0.0,0.0,0.25,4.8107905230000005,0.01,-0.0012207030000004337,-2116.0,0.0,0.0,0.0,0.0,0.0,4.787597166,0.01,0.0,40701.0,0.125,0.0,-0.0,0.0,0.25,4.8132319290000005,0.01,0.0,0.4000000059604645,-1.2300000190734863,-0.10999999940395355,-0.0201416015625,0.00445556640625,1.01922607421875,35.470001220703125,0.0,1.0,1.6463775634765625,0.2572784423828125,Waiting,0.0,0.0,1.0,0.0,0.0,0.0,0.0,0.0,
2.6804850000000005,0.0,0.0,41151.0,0.0,0.0,0.0,0.0,0.125,4.793700681000001,0.01,0.0,38157.0,0.0,0.0,-0.0,0.0,0.25,4.8132319290000005,0.01,-0.0012207030000004337,-2116.0,0.0,0.0,0.0,0.0,0.0,4.791259275,0.01,0.0,40701.0,0.125,0.0,-0.0,0.0,0.25,4.812011226,0.01,0.0,0.4000000059604645,-1.2300000190734863,-0.11999999731779099,-0.02178955078125,0.01068115234375,1.02484130859375,35.470001220703125,0.0,0.0,1.6463775634765625,0.2572784423828125,Waiting,0.0,0.0,1.0,0.0,0.0,0.0,0.0,0.0,
2.700108,0.0,0.0,41151.0,0.0,0.0,0.0,0.0,0.125,4.793700681000001,0.01,0.0,38157.0,0.0,0.0,-0.0,0.0,0.25,4.8107905230000005,0.01,0.0,-2116.0,0.0,0.0,0.0,0.0,0.0,4.790038572,0.01,0.0,40701.0,0.125,0.0,-0.0,0.0,0.25,4.812011226,0.01,0.0,0.4000000059604645,-1.2300000190734863,-0.11999999731779099,-0.02374267578125,0.0079345703125,1.01715087890625,35.470001220703125,0.0,-1.0,1.6463775634765625,0.2572784423828125,Waiting,0.0,0.0,1.0,0.0,0.0,0.0,0.0,0.0,
2.721157000000001,0.0,0.0,41151.0,0.0,0.0,0.0,0.0,0.125,4.793700681000001,0.01,0.0,38157.0,0.0,0.0,-0.0,0.0,0.25,4.8107905230000005,0.01,0.0,-2116.0,0.0,0.0,0.0,0.0,0.0,4.790038572,0.01,0.0,40701.0,0.125,0.0,-0.0,0.0,0.25,4.8132319290000005,0.01,0.0,0.4000000059604645,-1.2300000190734863,-0.11999999731779099,-0.0194091796875,0.009033203125,1.0205078125,35.470001220703125,0.0,2.0,1.6463775634765625,0.2572784423828125,Waiting,0.0,0.0,1.0,0.0,0.0,0.0,0.0,0.0,
2.740213,0.0,0.0,41151.0,0.0,0.0,0.0,0.0,0.125,4.794921384,0.01,0.0,38157.0,0.0,0.0,-0.0,0.0,0.25,4.8107905230000005,0.01,0.0,-2116.0,0.0,0.0,0.0,0.0,0.0,4.787597166,0.01,0.0,40701.0,0.125,0.0,-0.0,0.0,0.25,4.812011226,0.01,0.0,0.4000000059604645,-1.2300000190734863,-0.11999999731779099,-0.022705078125,0.007568359375,1.02197265625,35.470001220703125,0.0,0.0,1.6463775634765625,0.2572784423828125,Waiting,0.0,0.0,1.0,0.0,0.0,0.0,0.0,0.0,
2.7610429999999995,0.0,0.0,41151.0,0.0,0.0,0.0,0.0,0.125,4.793700681000001,0.01,0.0,38157.0,0.0,0.0,-0.0,0.0,0.25,4.812011226,0.01,0.0012207030000004337,-2116.0,0.0,0.0,0.0,0.0,0.0,4.788817869,0.01,0.0,40701.0,0.125,0.0,-0.0,0.0,0.25,4.812011226,0.01,0.0,0.4000000059604645,-1.2300000190734863,-0.11999999731779099,-0.01959228515625,0.00872802734375,1.01727294921875,35.470001220703125,0.0,2.0,1.6463775634765625,0.2572784423828125,Waiting,0.0,0.0,1.0,0.0,0.0,0.0,0.0,0.0,
2.7808060000000006,0.0,0.0,41151.0,0.0,0.0,0.0,0.0,0.125,4.793700681000001,0.01,0.0,38157.0,0.0,0.0,-0.0,0.0,0.25,4.812011226,0.01,0.0012207030000004337,-2116.0,0.0,0.0,0.0,0.0,0.0,4.788817869,0.01,0.0,40701.0,0.125,0.0,-0.0,0.0,0.25,4.8132319290000005,0.01,0.0,0.4000000059604645,-1.2300000190734863,-0.12999999523162842,-0.02166748046875,0.00341796875,1.01806640625,35.470001220703125,0.0,0.0,1.6463775634765625,0.2572784423828125,Waiting,0.0,0.0,1.0,0.0,0.0,0.0,0.0,0.0,
2.800398000000001,0.0,0.0,41151.0,0.0,0.0,0.0,0.0,0.125,4.793700681000001,0.01,0.0,38157.0,0.0,0.0,-0.0,0.0,0.25,4.8107905230000005,0.01,0.0,-2116.0,0.0,0.0,0.0,0.0,0.0,4.790038572,0.01,0.0,40701.0,0.125,0.0,-0.0,0.0,0.25,4.812011226,0.01,0.0,0.4000000059604645,-1.2300000190734863,-0.12999999523162842,-0.02294921875,0.01055908203125,1.01715087890625,35.470001220703125,0.0,-1.0,1.6463775634765625,0.2572784423828125,Waiting,0.0,0.0,1.0,0.0,0.0,0.0,0.0,0.0,
2.8196910000000006,0.0,0.0,41151.0,0.0,0.0,0.0,0.0,0.125,4.79736279,0.01,0.0,38157.0,0.0,0.0,-0.0,0.0,0.25,4.8132319290000005,0.01,0.0,-2116.0,0.0,0.0,0.0,0.0,0.0,4.788817869,0.01,0.0,40701.0,0.125,0.0,-0.0,0.0,0.25,4.812011226,0.01,0.0,0.4000000059604645,-1.2300000190734863,-0.12999999523162842,-0.02294921875,0.00714111328125,1.02410888671875,35.470001220703125,0.0,0.0,1.6463775634765625,0.2572784423828125,Waiting,0.0,0.0,1.0,0.0,0.0,0.0,0.0,0.0,
2.840129000000001,0.0,0.0,41151.0,0.0,0.0,0.0,0.0,0.125,4.793700681000001,0.01,0.0,38157.0,0.0,0.0,-0.0,0.0,0.25,4.812011226,0.01,0.0,-2116.0,0.0,0.0,0.0,0.0,0.0,4.790038572,0.01,0.0,40701.0,0.125,0.0,-0.0,0.0,0.25,4.812011226,0.01,0.0,0.4000000059604645,-1.2200000286102295,-0.14000000059604645,-0.022705078125,0.00750732421875,1.01715087890625,35.470001220703125,0.0,0.0,1.6463775634765625,0.2572784423828125,Opening,0.0,0.0,1.0,0.0,0.0,0.0,0.0,0.0,
