Time,ClimberA1,ClimberA2,FRpos,FRCurrent,FRspeed,FRsetpoint,FRApos,FRACurrent,FREncpos,FREncSetpoint,FREncSpeed,FLpos,FLCurrent,FLspeed,FLsetpoint,FLApos,FLACurrent,FLEncpos,FLEncSetpoint,FLEncSpeed,BRpos,BRCurrent,BRspeed,BRsetpoint,BRApos,BRACurrent,BREncpos,BREncSetpoint,BREncSpeed,BLpos,BLCurrent,BLspeed,BLsetpoint,BLApos,BLACurrent,BLEncpos,BLEncSetpoint,BLEncSpeed,navx_Pitch,navx_Roll,navx_Yaw,navx_XAcc,navx_YAcc,navx_ZAcc,navx_Temp,navx_Bar,navx_Alt,navx_XDis,navx_YDis,GearPlacerState,ShootOutputV,ShootOutputCurrent,ShootEncPos,ShootEncVelocity,ShootSpeed,ShootSetpoint,CarouselSetpoint,CarouselCurrent,
0.17407600000000092,0.0,0.0,33640.0,0.0,0.0,0.0,0.0,0.125,1.3415525970000002,0.5498168668524888,0.0,-14483.0,0.0,0.0,0.0,0.0,0.125,4.822997553,4.410439589772222,0.0,-7288.0,0.0,0.0,0.0,0.0,0.0,2.769775107,4.389674732977289,0.0,-20478.0,0.125,0.0,0.0,0.0,0.125,2.139892359,0.5526872062785588,0.0,0.23999999463558197,-1.2599999904632568,0.0,0.01361083984375,-0.09332275390625,0.88836669921875,35.34000015258789,0.0,33.0,4.3294830322265625,-6.7527618408203125,Waiting,0.0,0.0,-1253985.0,0.0,0.0,0.0,0.0,0.0,
0.28920799999998414,0.0,0.0,33640.0,0.0,0.0,0.0,0.0,0.125,1.3464354090000001,0.5498168668524888,0.0,-14483.0,0.0,0.0,0.0,0.0,0.125,4.82177685,4.410439589772222,0.0,-7288.0,0.0,0.0,0.0,0.0,0.0,2.769775107,4.389674732977289,0.0,-20478.0,0.125,0.0,0.0,0.0,0.125,2.139892359,0.5526872062785588,0.0,0.3100000023841858,-1.159999966621399,0.0,-0.001953125,0.015869140625,1.051513671875,35.369998931884766,0.0,19.0,4.3307647705078125,-6.7537841796875,Waiting,0.0,0.0,-1253985.0,0.0,0.0,0.0,0.0,0.0,
0.45498099999997066,0.0,0.0,33640.0,0.0,0.0,0.0,0.0,0.125,1.3464354090000001,0.5498168668524888,0.0,-14483.0,0.0,0.0,0.0,0.0,0.125,4.8205561470000005,4.410439589772222,0.0,-7288.0,0.0,0.0,0.0,0.0,0.0,2.769775107,4.389674732977289,0.0,-20478.0,0.0,0.0,0.0,0.0,0.125,2.139892359,0.5526872062785588,0.0,0.33000001311302185,-1.1399999856948853,-0.009999999776482582,-0.02410888671875,0.01190185546875,1.0245361328125,35.369998931884766,0.0,-3.0,4.3307647705078125,-6.7537384033203125,Waiting,0.0,0.0,-1253985.0,0.0,0.0,0.0,0.0,0.0,
0.6488059999999823,0.0,0.0,33640.0,0.0,0.0,0.0,0.0,0.125,1.340331894,0.5498168668524888,0.0,-14483.0,0.0,0.0,0.0,0.0,0.125,4.8205561470000005,4.410439589772222,0.0,-7288.0,0.125,0.0,0.0,0.0,0.0,2.769775107,4.389674732977289,0.0,-20478.0,0.125,0.0,0.0,0.0,0.125,2.141113062,0.5526872062785588,0.0,0.3400000035762787,-1.159999966621399,-0.009999999776482582,-0.02606201171875,0.00860595703125,1.02362060546875,35.369998931884766,0.0,-5.0,4.3307647705078125,-6.7537384033203125,Waiting,0.0,0.0,-1253985.0,0.0,0.0,0.0,0.0,0.0,
0.7740900000000256,0.0,0.0,33640.0,0.0,0.0,0.0,0.0,0.125,1.3415525970000002,0.5498168668524888,0.0,-14483.0,0.0,0.0,0.0,0.0,0.125,4.819335444,4.410439589772222,0.0,-7288.0,0.0,0.0,0.0,0.0,0.0,2.769775107,4.389674732977289,0.0,-20478.0,0.125,0.0,0.0,0.0,0.125,2.139892359,0.5526872062785588,0.0,0.3400000035762787,-1.1699999570846558,-0.009999999776482582,-0.022705078125,0.00579833984375,1.0169677734375,35.369998931884766,0.0,-1.0,4.3307647705078125,-6.7537384033203125,Waiting,0.0,0.0,-1253985.0,0.0,0.0,0.0,0.0,0.0,
0.8860569999999716,0.0,0.0,33640.0,0.0,0.0,0.0,0.0,0.125,1.3464354090000001,0.5498168668524888,0.0,-14483.0,0.0,0.0,0.0,0.0,0.125,4.819335444,4.410439589772222,0.0,-7288.0,0.0,0.0,0.0,0.0,0.0,2.769775107,4.389674732977289,0.0,-20478.0,0.125,0.0,0.0,0.0,0.125,2.141113062,0.5526872062785588,0.0,0.3400000035762787,-1.1699999570846558,-0.009999999776482582,-0.0213623046875,0.0091552734375,1.02032470703125,35.349998474121094,0.0,0.0,4.3307647705078125,-6.7537384033203125,Waiting,0.0,0.0,-1253985.0,0.0,0.0,0.0,0.0,0.0,
0.9909600000000209,0.0,0.0,33640.0,0.0,0.0,0.0,0.0,0.125,1.3415525970000002,0.5498168668524888,0.0,-14483.0,0.0,0.0,0.0,0.0,0.125,4.8205561470000005,4.410439589772222,0.0,-7288.0,0.0,0.0,0.0,0.0,0.0,2.77099581,4.389674732977289,0.0,-20478.0,0.0,0.0,0.0,0.0,0.125,2.141113062,0.5526872062785588,0.0,0.3499999940395355,-1.1699999570846558,-0.009999999776482582,-0.0208740234375,0.01019287109375,1.02154541015625,35.349998474121094,0.0,0.0,4.3307647705078125,-6.7537384033203125,Waiting,0.0,0.0,-1253985.0,0.0,0.0,0.0,0.0,0.0,
1.0955920000000041,0.0,0.0,33640.0,0.0,0.0,0.0,0.0,0.125,1.3415525970000002,0.5498168668524888,0.0,-14483.0,0.0,0.0,0.0,0.0,0.125,4.8205561470000005,4.410439589772222,0.0,-7288.0,0.0,0.0,0.0,0.0,0.0,2.774657919,4.389674732977289,0.0,-20478.0,0.125,0.0,0.0,0.0,0.125,2.141113062,0.5526872062785588,0.0,0.36000001430511475,-1.1699999570846558,-0.009999999776482582,-0.020263671875,0.007568359375,1.01837158203125,35.349998474121094,0.0,0.0,4.3307647705078125,-6.7537384033203125,Waiting,0.0,0.0,-1253985.0,0.0,0.0,0.0,0.0,0.0,
1.2072839999999851,0.0,0.0,33640.0,0.0,0.0,0.0,0.0,0.125,1.3415525970000002,0.5498168668524888,0.0,-14483.0,0.0,0.0,0.0,0.0,0.125,4.8205561470000005,4.410439589772222,0.0,-7288.0,0.0,0.0,0.0,0.0,0.0,2.769775107,4.389674732977289,0.0,-20478.0,0.125,0.0,0.0,0.0,0.125,2.139892359,0.5526872062785588,0.0,0.36000001430511475,-1.1699999570846558,-0.009999999776482582,-0.02227783203125,0.0069580078125,1.01495361328125,35.349998474121094,0.0,-1.0,4.3307647705078125,-6.7537384033203125,Waiting,0.0,0.0,-1253985.0,0.0,0.0,0.0,0.0,0.0,
1.3110239999999758,0.0,0.0,33640.0,0.0,0.0,0.0,0.0,0.125,1.3415525970000002,0.5498168668524888,0.0,-14483.0,0.0,0.0,0.0,0.0,0.125,4.8205561470000005,4.410439589772222,0.0,-7288.0,0.0,0.0,0.0,0.0,0.0,2.769775107,4.389674732977289,0.0,-20478.0,0.125,0.0,0.0,0.0,0.125,2.141113062,0.5526872062785588,0.0,0.36000001430511475,-1.1799999475479126,-0.009999999776482582,-0.019287109375,0.0059814453125,1.0189208984375,35.380001068115234,0.0,1.0,4.3307647705078125,-6.7537384033203125,Waiting,0.0,0.0,-1253985.0,0.0,0.0,0.0,0.0,0.0,
1.4197509999999893,0.0,0.0,33640.0,0.0,0.0,0.0,0.0,0.125,1.3415525970000002,0.5498168668524888,0.0,-14483.0,0.0,0.0,0.0,0.0,0.125,4.8205561470000005,4.410439589772222,0.0,-7288.0,0.0,0.0,0.0,0.0,0.0,2.769775107,4.389674732977289,0.0,-20478.0,0.125,0.0,0.0,0.0,0.125,2.139892359,0.5526872062785588,0.0,0.3700000047683716,-1.1799999475479126,-0.009999999776482582,-0.0211181640625,0.00640869140625,1.01611328125,35.380001068115234,0.0,0.0,4.3307647705078125,-6.7537384033203125,Waiting,0.0,0.0,-1253985.0,0.0,0.0,0.0,0.0,0.0,
1.547771000000008,0.0,0.0,33640.0,0.0,0.0,0.0,0.0,0.125,1.3464354090000001,0.5498168668524888,0.0,-14483.0,0.0,0.0,0.0,0.0,0.125,4.8205561470000005,4.410439589772222,0.0,-7288.0,0.0,0.0,0.0,0.0,0.0,2.774657919,4.389674732977289,0.0,-20478.0,0.0,0.0,0.0,0.0,0.125,2.141113062,0.5526872062785588,0.0,0.3700000047683716,-1.1799999475479126,-0.009999999776482582,-0.02099609375,0.0054931640625,1.01507568359375,35.380001068115234,0.0,0.0,4.3307647705078125,-6.7537384033203125,Waiting,0.0,0.0,-1253985.0,0.0,0.0,0.0,0.0,0.0,
1.6532189999999827,0.0,0.0,33640.0,0.0,0.0,0.0,0.0,0.125,1.3464354090000001,0.5498168668524888,0.0,-14483.0,0.0,0.0,0.0,0.0,0.125,4.8205561470000005,4.410439589772222,0.0,-7288.0,0.0,0.0,0.0,0.0,0.0,2.77099581,4.389674732977289,0.0,-20478.0,0.125,0.0,0.0,0.0,0.125,2.141113062,0.5526872062785588,0.0,0.30000001192092896,-1.2699999809265137,-0.009999999776482582,-0.03570556640625,0.0673828125,1.248291015625,35.380001068115234,0.0,-7.0,4.3306427001953125,-6.75433349609375,Waiting,0.0,0.0,-1253985.0,0.0,0.0,0.0,0.0,0.0,
1.7655970000000087,0.0,0.0,33640.0,0.0,0.0,0.0,0.0,0.125,1.3415525970000002,0.5498168668524888,0.0,-14483.0,0.0,0.0,0.0,0.0,0.125,4.82177685,4.410439589772222,0.0,-7288.0,0.0,0.0,0.0,0.0,0.0,2.769775107,4.389674732977289,0.0,-20478.0,0.0,0.0,0.0,0.0,0.125,2.141113062,0.5526872062785588,0.0,0.23999999463558197,-1.25,-0.009999999776482582,0.01055908203125,0.069580078125,1.0262451171875,35.380001068115234,0.0,33.0,4.331268310546875,-6.756622314453125,Waiting,0.0,0.0,-1253985.0,0.0,0.0,0.0,0.0,0.0,
1.8708099999999976,0.0,0.0,33640.0,0.0,0.0,0.0,0.0,0.125,1.3427733000000002,0.5498168668524888,0.0,-14483.0,0.0,0.0,0.0,0.0,0.125,4.819335444,4.410439589772222,0.0,-7288.0,0.0,0.0,0.0,0.0,0.0,2.769775107,4.389674732977289,0.0,-20478.0,0.125,0.0,0.0,0.0,0.125,2.139892359,0.5526872062785588,0.0,0.3400000035762787,-1.2200000286102295,-0.009999999776482582,-0.031005859375,0.04071044921875,1.0089111328125,35.38999938964844,0.0,-9.0,4.33148193359375,-6.7580718994140625,Waiting,0.0,0.0,-1253985.0,0.0,0.0,0.0,0.0,0.0,
1.9780750000000116,0.0,0.0,33640.0,0.0,0.0,0.0,0.0,0.125,1.3415525970000002,0.5498168668524888,0.0,-14483.0,0.0,0.0,0.0,0.0,0.125,4.82177685,4.410439589772222,0.0,-7288.0,0.0,0.0,0.0,0.0,0.0,2.769775107,4.389674732977289,0.0,-20478.0,0.0,0.0,0.0,0.0,0.125,2.139892359,0.5526872062785588,0.0,0.3400000035762787,-1.2400000095367432,-0.009999999776482582,-0.03875732421875,0.1231689453125,1.11181640625,35.38999938964844,0.0,-14.0,4.3316497802734375,-6.757476806640625,Waiting,0.0,0.0,-1253985.0,0.0,0.0,0.0,0.0,0.0,
2.0887490000000106,0.0,0.0,33640.0,0.0,0.0,0.0,0.0,0.125,1.3415525970000002,0.5498168668524888,0.0,-14483.0,0.0,0.0,0.0,0.0,0.125,4.819335444,4.410439589772222,0.0,-7288.0,0.0,0.0,0.0,0.0,0.0,2.774657919,4.389674732977289,0.0,-20478.0,0.125,0.0,0.0,0.0,0.125,2.141113062,0.5526872062785588,0.0,0.3499999940395355,-1.2400000095367432,-0.009999999776482582,-0.02398681640625,-0.00750732421875,1.10626220703125,35.38999938964844,0.0,0.0,4.332611083984375,-6.7562255859375,Waiting,0.0,0.0,-1253985.0,0.0,0.0,0.0,0.0,0.0,
2.1937089999999735,0.0,0.0,33640.0,0.0,0.0,0.0,0.0,0.125,1.3415525970000002,0.5498168668524888,0.0,-14483.0,0.0,0.0,0.0,0.0,0.125,4.8205561470000005,4.410439589772222,0.0,-7288.0,0.0,0.0,0.0,0.0,0.0,2.773437216,4.389674732977289,0.0,-20478.0,0.125,0.0,0.0,0.0,0.125,2.139892359,0.5526872062785588,0.0,0.3100000023841858,-1.2100000381469727,-0.009999999776482582,-0.0311279296875,-0.081787109375,0.91082763671875,35.38999938964844,0.0,-11.0,4.3339385986328125,-6.7557373046875,Waiting,0.0,0.0,-1253985.0,0.0,0.0,0.0,0.0,0.125,
2.306032999999996,0.0,0.0,33640.0,0.0,0.0,0.0,0.0,0.125,1.3476561120000001,0.5498168668524888,0.0,-14483.0,0.0,0.0,0.0,0.0,0.125,4.8205561470000005,4.410439589772222,0.0,-7288.0,0.0,0.0,0.0,0.0,0.0,2.774657919,4.389674732977289,0.0,-20478.0,0.125,0.0,0.0,0.0,0.125,2.139892359,0.5526872062785588,0.0,0.2800000011920929,-1.2400000095367432,-0.009999999776482582,-0.12823486328125,-0.00128173828125,1.01885986328125,35.38999938964844,0.0,-106.0,4.3335113525390625,-6.7570953369140625,Waiting,0.0,0.0,-1253985.0,0.0,0.0,0.0,0.0,0.0,
2.414743000000017,0.0,0.0,33640.0,1.875,30.0,639.84375,0.0,0.125,1.3415525970000002,0.5498168668524888,0.0,-14470.0,3.75,82.5,639.84375,0.0,0.125,4.82177685,4.410439589772222,0.0,-7288.0,2.625,0.0,639.84375,0.0,0.0,2.769775107,4.389674732977289,0.0,-20462.0,2.0,105.0,639.84375,0.0,0.125,2.126464626,0.5526872062785588,0.0,0.38999998569488525,-1.2200000286102295,-0.3799999952316284,0.11895751953125,0.111572265625,0.99468994140625,35.369998931884766,0.0,139.0,4.3321380615234375,-6.7553863525390625,Waiting,0.0,0.0,-1253985.0,0.0,0.0,0.0,0.0,0.0,
2.529640000000014,0.0,0.0,33653.0,0.0,82.5,0.0,0.0,0.125,1.3415525970000002,0.5498168668524888,0.0,-14459.0,0.0,82.5,0.0,0.0,0.125,4.8205561470000005,4.410439589772222,0.0,-7288.0,0.0,0.0,0.0,0.0,0.0,2.769775107,4.389674732977289,0.0,-20458.0,0.0,30.0,0.0,0.0,0.25,2.126464626,0.5526872062785588,0.0,0.49000000953674316,-1.149999976158142,-2.049999952316284,-0.04083251953125,-0.01416015625,1.185546875,35.369998931884766,0.0,-16.0,4.33172607421875,-6.7526397705078125,Waiting,0.0,0.0,-1253985.0,0.0,0.0,0.0,0.0,0.0,
2.636851000000024,0.0,0.0,33657.0,0.0,0.0,0.0,0.0,0.125,1.3415525970000002,0.5498168668524888,0.0,-14459.0,0.0,0.0,0.0,0.0,0.125,4.819335444,4.410439589772222,0.0,-7289.0,0.0,0.0,0.0,0.0,0.0,2.769775107,4.389674732977289,0.0,-20458.0,0.125,0.0,0.0,0.0,0.25,2.126464626,0.5526872062785588,0.0,0.550000011920929,-1.1200000047683716,-2.1700000762939453,-0.0709228515625,0.03118896484375,1.00335693359375,35.369998931884766,0.0,-51.0,4.330047607421875,-6.7530364990234375,Waiting,0.0,0.0,-1253985.0,0.0,0.0,0.0,0.0,0.0,
2.7490289999999806,0.0,0.0,33657.0,0.0,0.0,0.0,0.0,0.125,1.3415525970000002,0.5498168668524888,0.0,-14459.0,0.0,0.0,0.0,0.0,0.125,4.8205561470000005,4.410439589772222,0.0,-7289.0,0.0,0.0,0.0,0.0,0.0,2.77099581,4.389674732977289,0.0,-20458.0,0.125,0.0,0.0,0.0,0.25,2.126464626,0.5526872062785588,0.0,0.5899999737739563,-1.0700000524520874,-1.4800000190734863,-0.00543212890625,0.0106201171875,0.98175048828125,35.369998931884766,0.0,13.0,4.3282928466796875,-6.7533111572265625,Waiting,0.0,0.0,-1253985.0,0.0,0.0,0.0,0.0,0.0,
2.859658999999985,0.0,0.0,33657.0,0.125,0.0,131.25,0.0,0.125,1.356201033,0.5498168668524888,0.0,-14459.0,0.125,-15.0,131.25,0.0,0.125,4.805907711000001,4.410439589772222,0.0,-7291.0,0.375,-15.0,131.25,0.0,0.0,2.766112998,4.389674732977289,0.0,-20458.0,0.375,0.0,131.25,0.0,0.25,2.125243923,0.5526872062785588,0.0,0.6800000071525574,-1.1100000143051147,-0.9399999976158142,-0.0902099609375,-0.189208984375,1.0848388671875,35.34000015258789,0.0,-65.0,4.32720947265625,-6.7530517578125,Waiting,0.0,0.0,-1253985.0,0.0,0.0,0.0,0.0,0.0,
2.968433000000019,0.0,0.0,33656.0,0.125,0.0,114.84375,0.0,0.125,1.3464354090000001,0.5498168668524888,0.0,-14462.0,0.25,0.0,114.84375,0.0,0.125,4.8205561470000005,4.410439589772222,0.0,-7292.0,0.375,0.0,114.84375,0.0,0.0,2.772216513,4.389674732977289,0.0,-20458.0,0.375,0.0,114.84375,0.0,0.25,2.1191404080000003,0.5526872062785588,0.0,0.6700000166893005,-1.1399999856948853,-1.100000023841858,0.1263427734375,0.0089111328125,1.16815185546875,35.34000015258789,0.0,149.0,4.32562255859375,-6.753204345703125,Waiting,0.0,0.0,-1253985.0,0.0,0.0,0.0,0.0,0.0,
3.0802189999999827,0.0,0.0,33656.0,0.0,0.0,0.0,0.0,0.125,1.3415525970000002,0.5498168668524888,0.0,-14460.0,0.0,0.0,0.0,0.0,0.125,4.8205561470000005,4.410439589772222,0.0,-7290.0,0.0,7.5,0.0,0.0,0.0,2.774657919,4.389674732977289,0.0,-20458.0,0.125,0.0,0.0,0.0,0.25,2.126464626,0.5526872062785588,0.0,0.7099999785423279,-1.149999976158142,-1.1200000047683716,-0.118896484375,0.12628173828125,0.87677001953125,35.34000015258789,0.0,-103.0,4.32574462890625,-6.7522735595703125,Waiting,0.0,0.0,-1253985.0,0.0,0.0,0.0,0.0,0.0,
3.1922170000000043,0.0,0.0,33656.0,0.0,0.0,0.0,0.0,0.125,1.3415525970000002,0.5498168668524888,0.0,-14460.0,0.0,0.0,0.0,0.0,0.125,4.82177685,4.410439589772222,0.0,-7291.0,0.0,0.0,0.0,0.0,0.0,2.769775107,4.389674732977289,0.0,-20458.0,0.125,0.0,0.0,0.0,0.25,2.126464626,0.5526872062785588,0.0,0.6700000166893005,-1.190000057220459,-1.1299999952316284,-0.00238037109375,0.134033203125,0.923583984375,35.34000015258789,0.0,14.0,4.3247833251953125,-6.7530364990234375,Waiting,0.0,0.0,-1253985.0,0.0,0.0,0.0,0.0,0.0,
3.3030489999999992,0.0,0.0,33656.0,0.0,0.0,0.0,0.0,0.125,1.3464354090000001,0.5498168668524888,0.0,-14460.0,0.0,0.0,0.0,0.0,0.125,4.82177685,4.410439589772222,0.0,-7291.0,0.0,0.0,0.0,0.0,0.0,2.769775107,4.389674732977289,0.0,-20458.0,0.125,0.0,0.0,0.0,0.25,2.126464626,0.5526872062785588,0.0,0.6899999976158142,-1.2599999904632568,-1.1100000143051147,-0.0499267578125,0.05731201171875,0.9100341796875,35.34000015258789,0.0,-30.0,4.32269287109375,-6.7538299560546875,Waiting,0.0,0.0,-1253985.0,0.0,0.0,0.0,0.0,0.0,
3.41683600000001,0.0,0.0,33656.0,0.0,0.0,0.0,0.0,0.125,1.3464354090000001,0.5498168668524888,0.0,-14460.0,0.0,0.0,0.0,0.0,0.125,4.8205561470000005,4.410439589772222,0.0,-7291.0,0.0,0.0,0.0,0.0,0.0,2.769775107,4.389674732977289,0.0,-20458.0,0.125,0.0,0.0,0.0,0.25,2.126464626,0.5526872062785588,0.0,0.5799999833106995,-1.2799999713897705,-1.1100000143051147,-0.0936279296875,-0.01507568359375,1.0137939453125,35.31999969482422,0.0,-70.0,4.3184051513671875,-6.755126953125,Waiting,0.0,0.0,-1253985.0,0.0,0.0,0.0,0.0,0.0,
3.5460050000000045,0.0,0.0,33657.0,0.5,0.0,344.53125,0.0,0.125,1.3415525970000002,0.5498168668524888,0.0,-14460.0,1.375,7.5,344.53125,0.0,0.125,4.82177685,4.410439589772222,0.0,-7287.0,0.75,15.0,344.53125,0.0,0.0,2.766112998,4.389674732977289,0.0,-20458.0,0.875,0.0,344.53125,0.0,0.25,2.126464626,0.5526872062785588,0.0,0.5199999809265137,-1.2799999713897705,-1.2300000190734863,0.06817626953125,-0.126953125,1.0723876953125,35.31999969482422,0.0,95.0,4.3144683837890625,-6.756744384765625,Waiting,0.0,0.0,-1253985.0,0.0,0.0,0.0,0.0,0.0,
3.6586840000000085,0.0,0.0,33660.0,0.0,15.0,0.0,0.0,0.125,1.3415525970000002,0.5498168668524888,0.0,-14456.0,0.0,7.5,0.0,0.0,0.125,4.819335444,4.410439589772222,0.0,-7285.0,0.125,15.0,0.0,0.0,0.0,2.768554404,4.389674732977289,0.0,-20458.0,0.125,0.0,0.0,0.0,0.25,2.126464626,0.5526872062785588,0.0,0.5400000214576721,-1.2400000095367432,-1.5299999713897705,-0.05645751953125,0.231201171875,1.0615234375,35.31999969482422,0.0,-39.0,4.3129119873046875,-6.7580108642578125,Waiting,0.0,0.0,-1253985.0,0.0,0.0,0.0,0.0,0.0,
3.7745040000000154,0.0,0.0,33678.0,8.875,112.5,1378.125,0.0,0.125,1.3415525970000002,0.5498168668524888,0.0,-14447.0,17.125,157.5,1378.125,0.0,0.125,4.819335444,4.410439589772222,0.0,-7280.0,12.25,22.5,1378.125,0.0,0.0,2.769775107,4.389674732977289,0.0,-20457.0,9.5,195.0,1378.125,0.0,0.25,2.126464626,0.5526872062785588,0.0,0.8500000238418579,-1.090000033378601,-2.859999895095825,-0.01007080078125,0.0595703125,1.06060791015625,35.31999969482422,0.0,8.0,4.315399169921875,-6.7541656494140625,Waiting,0.0,0.0,-1253985.0,0.0,0.0,0.0,0.0,0.0,
3.8952320000000182,0.0,0.0,33731.0,0.0,345.0,0.0,0.0,0.125,1.350097518,0.5498168668524888,0.0,-14375.0,0.0,390.0,0.0,0.0,0.125,4.814452632,4.410439589772222,0.0,-7258.0,0.125,127.5,0.0,0.0,0.0,2.784423543,4.389674732977289,0.0,-20393.0,0.125,307.5,0.0,0.0,0.25,2.125243923,0.5526872062785588,0.0,0.7400000095367432,-0.8600000143051147,-9.239999771118164,0.009765625,0.0301513671875,0.74969482421875,35.33000183105469,0.0,17.0,4.3210601806640625,-6.7477569580078125,Waiting,0.0,0.0,-1253985.0,0.0,0.0,0.0,0.0,0.0,
4.015143999999971,0.0,0.0,33798.0,0.0,367.5,0.0,0.0,0.125,1.351318221,0.5498168668524888,0.0,-14321.0,0.0,360.0,0.0,0.0,0.25,4.816894038,4.410439589772222,0.0,-7235.0,0.0,150.0,0.0,0.0,0.0,2.784423543,4.389674732977289,0.0,-20353.0,0.125,300.0,0.0,0.0,0.25,2.125243923,0.5526872062785588,0.0,0.6600000262260437,-0.9700000286102295,-12.489999771118164,-0.0638427734375,-0.0955810546875,1.18341064453125,35.33000183105469,0.0,-19.0,4.3250732421875,-6.749542236328125,Waiting,0.0,0.0,-1253985.0,0.0,0.0,0.0,0.0,0.0,
4.133435999999987,0.0,0.0,33801.0,0.0,15.0,0.0,0.0,0.125,1.3464354090000001,0.5498168668524888,0.0,-14310.0,0.0,37.5,0.0,0.0,0.25,4.8156733350000005,4.410439589772222,0.0,-7235.0,0.0,0.0,0.0,0.0,0.0,2.778320028,4.389674732977289,0.0,-20327.0,0.125,22.5,0.0,0.0,0.25,2.125243923,0.5526872062785588,0.0,0.5199999809265137,-1.0499999523162842,-12.600000381469727,0.01702880859375,-0.0181884765625,1.23919677734375,35.33000183105469,0.0,45.0,4.329559326171875,-6.7581787109375,Waiting,0.0,0.0,-1253985.0,0.0,0.0,0.0,0.0,0.0,
4.253616999999969,0.0,0.0,33801.0,0.125,0.0,114.84375,0.0,0.125,1.3415525970000002,0.5498168668524888,0.0,-14310.0,0.0,0.0,114.84375,0.0,0.25,4.8132319290000005,4.410439589772222,0.0,-7235.0,0.25,0.0,114.84375,0.0,0.0,2.774657919,4.389674732977289,0.0,-20327.0,0.25,0.0,114.84375,0.0,0.25,2.125243923,0.5526872062785588,0.0,0.47999998927116394,-0.9900000095367432,-11.829999923706055,-0.121337890625,0.033935546875,1.095458984375,35.33000183105469,0.0,-105.0,4.3321380615234375,-6.768524169921875,Waiting,0.0,0.0,-1253985.0,0.0,0.0,0.0,0.0,0.0,
4.372107000000018,0.0,0.0,33827.0,16.5,202.5,1853.90625,0.0,0.125,1.3415525970000002,0.5498168668524888,0.0,-14282.0,30.0,382.5,1853.90625,0.0,0.25,4.8156733350000005,4.410439589772222,0.0,-7233.0,21.5,0.0,1853.90625,0.0,0.0,2.769775107,4.389674732977289,0.0,-20324.0,16.25,202.5,1853.90625,0.0,0.25,2.1203611110000002,0.5526872062785588,0.0,0.7900000214576721,-0.8799999952316284,-13.829999923706055,0.13983154296875,-0.04278564453125,1.03594970703125,35.33000183105469,0.0,164.0,4.3365478515625,-6.7775115966796875,Waiting,0.0,0.0,-1253985.0,0.0,0.0,0.0,0.0,0.0,
4.494908999999985,0.0,0.0,33909.0,0.0,525.0,0.0,0.0,0.125,1.3415525970000002,0.5498168668524888,0.0,-14179.0,0.0,622.5,0.0,0.0,0.25,4.8156733350000005,4.410439589772222,0.0,-7201.0,0.0,150.0,0.0,0.0,0.0,2.7929684640000003,4.389674732977289,0.0,-20235.0,0.125,495.0,0.0,0.0,0.25,2.126464626,0.5526872062785588,0.0,0.8100000023841858,-0.41999998688697815,-22.110000610351562,-0.10064697265625,0.02545166015625,0.7845458984375,35.33000183105469,0.0,-90.0,4.346038818359375,-6.782684326171875,Waiting,0.0,0.0,-1253985.0,0.0,0.0,0.0,0.0,0.0,
4.610690999999991,0.0,0.0,33979.0,0.0,435.0,0.0,0.0,0.125,1.3415525970000002,0.5498168668524888,0.0,-14109.0,0.0,420.0,0.0,0.0,0.25,4.8156733350000005,4.410439589772222,0.0,-7132.0,0.0,502.5,0.0,0.0,0.0,2.774657919,4.389674732977289,0.0,-20172.0,0.125,367.5,0.0,0.0,0.25,2.126464626,0.5526872062785588,0.0,0.7900000214576721,-0.41999998688697815,-26.809999465942383,-0.08203125,0.13385009765625,1.21282958984375,35.33000183105469,0.0,-117.0,4.3555145263671875,-6.7893829345703125,Waiting,0.0,0.0,-1253985.0,0.0,0.0,0.0,0.0,0.0,
4.728793999999994,0.0,0.0,34002.0,0.375,142.5,492.18749999999994,0.0,0.125,1.3415525970000002,0.5498168668524888,0.0,-14078.0,0.5,172.5,492.18749999999994,0.0,0.25,4.816894038,4.410439589772222,0.0,-7128.0,0.75,22.5,492.18749999999994,0.0,0.0,2.780761434,4.389674732977289,0.0,-20138.0,0.75,82.5,492.18749999999994,0.0,0.25,2.126464626,0.5526872062785588,0.0,0.5600000023841858,-0.5799999833106995,-27.510000228881836,0.01080322265625,-0.0797119140625,0.92877197265625,35.33000183105469,0.0,59.0,4.3640594482421875,-6.8001708984375,Waiting,0.0,0.0,-1253985.0,0.0,0.0,0.0,0.0,0.0,
4.848355999999971,0.0,0.0,34024.0,2.75,127.5,738.28125,0.0,0.125,1.3415525970000002,0.5498168668524888,0.0,-14053.0,5.625,112.5,738.28125,0.0,0.25,4.8132319290000005,4.410439589772222,0.0,-7115.0,4.25,75.0,738.28125,0.0,0.0,2.77099581,4.389674732977289,0.0,-20133.0,3.625,165.0,738.28125,0.0,0.25,2.127685329,0.5526872062785588,0.0,0.7400000095367432,-0.5,-27.719999313354492,-0.2078857421875,-0.1248779296875,0.98455810546875,35.33000183105469,0.0,-112.0,4.3717803955078125,-6.809173583984375,Waiting,0.0,0.0,-1253985.0,0.0,0.0,0.0,0.0,0.0,
4.9545430000000055,0.0,0.0,34062.0,4.25,180.0,738.28125,0.0,0.125,1.3464354090000001,0.5498168668524888,0.0,-14018.0,8.375,255.0,738.28125,0.0,0.25,4.8156733350000005,4.410439589772222,0.0,-7115.0,5.625,165.0,738.28125,0.0,0.0,2.769775107,4.389674732977289,0.0,-20088.0,3.875,270.0,738.28125,0.0,0.25,2.126464626,0.5526872062785588,0.0,0.699999988079071,-0.47999998927116394,-30.329999923706055,-0.0245361328125,0.05816650390625,0.8316650390625,35.349998474121094,0.0,-39.0,4.376861572265625,-6.8094329833984375,Waiting,0.0,0.0,-1253985.0,0.0,0.0,0.0,0.0,0.0,
5.067282000000007,0.0,0.0,34139.0,3.75,450.0,738.28125,0.0,0.125,1.3415525970000002,0.5498168668524888,0.0,-13943.0,6.375,502.5,738.28125,0.0,0.25,4.814452632,4.410439589772222,0.0,-7073.0,6.0,337.5,738.28125,0.0,0.0,2.769775107,4.389674732977289,0.0,-20032.0,4.125,397.5,738.28125,0.0,0.25,2.128906032,0.5526872062785588,0.0,0.7300000190734863,-0.28999999165534973,-35.779998779296875,-0.09954833984375,0.05645751953125,0.95831298828125,35.349998474121094,0.0,-102.0,4.383209228515625,-6.806121826171875,Waiting,0.0,0.0,-1253985.0,0.0,0.0,0.0,0.0,0.0,
5.193675999999978,0.0,0.0,34239.0,3.125,600.0,738.28125,0.0,0.125,1.335449082,0.5498168668524888,0.0,-13843.0,5.0,630.0,738.28125,0.0,0.25,4.8156733350000005,4.410439589772222,0.0,-7012.0,6.25,510.0,738.28125,0.0,0.0,2.77099581,4.389674732977289,0.0,-19945.0,3.5,547.5,738.28125,0.0,0.25,2.128906032,0.5526872062785588,0.0,0.699999988079071,-0.20000000298023224,-43.16999816894531,0.08160400390625,0.00994873046875,0.85430908203125,35.349998474121094,0.0,62.0,4.385162353515625,-6.8032073974609375,Waiting,0.0,0.0,-1253985.0,0.0,0.0,0.0,0.0,0.0,
5.30766399999999,0.0,0.0,34352.0,2.75,690.0,738.28125,0.0,0.125,1.3415525970000002,0.5498168668524888,0.0,-13724.0,3.375,750.0,738.28125,0.0,0.25,4.814452632,4.410439589772222,0.0,-6918.0,5.5,652.5,738.28125,0.0,0.0,2.769775107,4.389674732977289,0.0,-19833.0,3.375,645.0,738.28125,0.0,0.25,2.126464626,0.5526872062785588,0.0,0.6700000166893005,-0.14000000059604645,-51.4900016784668,0.05853271484375,-0.1033935546875,1.01226806640625,35.349998474121094,0.0,128.0,4.387603759765625,-6.8012847900390625,Waiting,0.0,0.0,-1253985.0,0.0,0.0,0.0,0.0,0.0,
5.415347000000009,0.0,0.0,34352.0,2.75,720.0,738.28125,0.0,0.125,1.3464354090000001,0.5498168668524888,0.0,-13601.0,3.0,757.5,738.28125,0.0,0.25,4.816894038,4.410439589772222,0.0,-6809.0,5.25,682.5,738.28125,0.0,0.0,2.768554404,4.389674732977289,0.0,-19730.0,3.625,675.0,738.28125,0.0,0.25,2.1191404080000003,0.5526872062785588,0.0,0.4399999976158142,-0.1599999964237213,-59.06999969482422,-0.03900146484375,-0.01190185546875,0.891845703125,35.34000015258789,0.0,-2.0,4.390625,-6.800445556640625,Waiting,0.0,0.0,-1253985.0,0.0,0.0,0.0,0.0,0.0,
5.527033999999985,0.0,0.0,34467.0,2.75,712.5,754.6875,0.0,0.125,1.3415525970000002,0.5498168668524888,0.0,-13480.0,3.0,757.5,754.6875,0.0,0.25,4.814452632,4.410439589772222,0.0,-6699.0,5.75,682.5,754.6875,0.0,0.0,2.769775107,4.389674732977289,0.0,-19611.0,3.25,750.0,754.6875,0.0,0.25,2.125243923,0.5526872062785588,0.0,0.33000001311302185,-0.009999999776482582,-67.94999694824219,0.08673095703125,0.0452880859375,1.03533935546875,35.34000015258789,0.0,-3.0,4.3922576904296875,-6.801971435546875,Waiting,0.0,0.0,-1253985.0,0.0,0.0,0.0,0.0,0.0,
5.633716000000015,0.0,0.0,34584.0,2.625,742.5,754.6875,0.0,0.125,1.3415525970000002,0.5498168668524888,0.0,-13355.0,2.625,772.5,754.6875,0.0,0.25,4.816894038,4.410439589772222,0.0,-6605.0,7.375,510.0,754.6875,0.0,0.0,2.769775107,4.389674732977289,0.0,-19494.0,3.5,705.0,754.6875,0.0,0.25,2.126464626,0.5526872062785588,0.0,0.20000000298023224,0.019999999552965164,-75.93000030517578,0.0484619140625,-0.0941162109375,0.76611328125,35.34000015258789,0.0,105.0,4.394744873046875,-6.8026885986328125,Waiting,0.0,0.0,-1253985.0,0.0,0.0,0.0,0.0,0.0,
5.748253000000026,0.0,0.0,34704.0,2.375,765.0,754.6875,0.0,0.125,1.3488768150000001,0.5498168668524888,0.0,-13355.0,1.875,810.0,754.6875,0.0,0.25,4.816894038,4.410439589772222,0.0,-6523.0,9.5,547.5,754.6875,0.0,0.0,2.768554404,4.389674732977289,0.0,-19377.0,3.375,750.0,754.6875,0.0,0.25,2.125243923,0.5526872062785588,0.0,0.2199999988079071,0.20999999344348907,-85.30999755859375,-0.149169921875,-0.0897216796875,1.11004638671875,35.34000015258789,0.0,81.0,4.3993682861328125,-6.803558349609375,Waiting,0.0,0.0,-1253985.0,0.0,0.0,0.0,0.0,0.0,
5.8542249999999765,0.0,0.0,34833.0,2.25,802.5,771.09375,0.0,0.125,1.3415525970000002,0.5498168668524888,0.0,-13224.0,1.875,802.5,771.09375,0.0,0.25,4.8156733350000005,4.410439589772222,0.0,-6439.0,10.375,502.5,771.09375,0.0,0.0,2.77099581,4.389674732977289,0.0,-19256.0,3.5,735.0,771.09375,0.0,0.25,2.126464626,0.5526872062785588,0.0,0.009999999776482582,0.30000001192092896,-92.4800033569336,0.04241943359375,0.1278076171875,0.98382568359375,35.34000015258789,0.0,-129.0,4.40447998046875,-6.8055877685546875,Waiting,0.0,0.0,-1253985.0,0.0,0.0,0.0,0.0,0.0,
5.96695199999999,0.0,0.0,34964.0,2.0,817.5,787.5,0.0,0.125,1.3415525970000002,0.5498168668524888,0.0,-13094.0,1.75,817.5,787.5,0.0,0.25,4.80956982,4.410439589772222,0.0,-6356.0,13.75,517.5,787.5,0.0,0.0,2.769775107,4.389674732977289,0.0,-19256.0,3.5,765.0,787.5,0.0,0.25,2.126464626,0.5526872062785588,0.0,-0.15000000596046448,0.25,-101.02999877929688,-0.03460693359375,0.0018310546875,1.0860595703125,35.34000015258789,0.0,2.0,4.4119415283203125,-6.8108062744140625,Waiting,0.0,0.0,-1253985.0,0.0,0.0,0.0,0.0,0.0,
6.07566399999999,0.0,0.0,35096.0,1.625,832.5,787.5,0.0,0.125,1.3415525970000002,0.5498168668524888,0.0,-12962.0,1.5,817.5,787.5,0.0,0.25,4.816894038,4.410439589772222,0.0,-6272.0,16.375,532.5,787.5,0.0,0.0,2.769775107,4.389674732977289,0.0,-19133.0,3.5,772.5,787.5,0.0,0.25,2.1142575960000003,0.5526872062785588,0.0,-0.2800000011920929,0.2199999988079071,-109.69000244140625,-0.01507568359375,0.04119873046875,1.3603515625,35.34000015258789,0.0,-38.0,4.4194793701171875,-6.817901611328125,Waiting,0.0,0.0,-1253985.0,0.0,0.0,0.0,0.0,0.0,
6.178320000000007,0.0,0.0,35231.0,1.25,840.0,787.5,0.0,0.125,1.3415525970000002,0.5498168668524888,0.0,-12831.0,1.375,817.5,787.5,0.0,0.25,4.8156733350000005,4.410439589772222,0.0,-6225.0,20.25,300.0,787.5,0.0,0.0,2.772216513,4.389674732977289,0.0,-19011.0,3.625,750.0,787.5,0.0,0.25,2.126464626,0.5526872062785588,0.0,-0.5299999713897705,0.4000000059604645,-119.66999816894531,0.03338623046875,-0.01220703125,0.8502197265625,35.34000015258789,0.0,-9.0,4.42718505859375,-6.8281097412109375,Waiting,0.0,0.0,-1253985.0,0.0,0.0,0.0,0.0,0.0,
6.293527000000002,0.0,0.0,35368.0,0.75,847.5,787.5,0.0,0.125,1.3415525970000002,0.5498168668524888,0.0,-12697.0,0.875,825.0,787.5,0.0,0.25,4.808349117000001,4.410439589772222,0.0,-6184.0,30.5,255.0,787.5,0.0,0.0,2.766112998,4.389674732977289,0.0,-18887.0,3.5,765.0,787.5,0.0,0.25,2.125243923,0.5526872062785588,0.0,-0.6100000143051147,0.4099999964237213,-130.05999755859375,0.02569580078125,0.0216064453125,1.13623046875,35.34000015258789,0.0,-37.0,4.4267578125,-6.8393096923828125,Waiting,0.0,0.0,-1253985.0,0.0,0.0,0.0,0.0,0.0,
6.411618000000017,0.0,0.0,35508.0,0.5,877.5,787.5,0.0,0.125,1.3415525970000002,0.5498168668524888,0.0,-12566.0,0.75,825.0,787.5,0.0,0.25,4.80956982,4.410439589772222,0.0,-6095.0,32.0,517.5,787.5,0.0,0.0,2.769775107,4.389674732977289,0.0,-18764.0,3.0,810.0,787.5,0.0,0.25,2.126464626,0.5526872062785588,0.0,-0.6399999856948853,0.4399999976158142,-139.66000366210938,0.01251220703125,0.0189208984375,1.07965087890625,35.369998931884766,0.0,-23.0,4.425384521484375,-6.8506317138671875,Waiting,0.0,0.0,-1253985.0,0.0,0.0,0.0,0.0,0.0,
6.520657999999996,0.0,0.0,35649.0,0.375,877.5,787.5,0.0,0.125,1.3415525970000002,0.5498168668524888,0.0,-12435.0,0.625,810.0,787.5,0.0,0.25,4.8156733350000005,4.410439589772222,0.0,-6095.0,32.5,577.5,787.5,0.0,0.0,2.769775107,4.389674732977289,0.0,-18625.0,2.375,862.5,787.5,0.0,0.25,2.126464626,0.5526872062785588,0.0,-0.8399999737739563,0.3499999940395355,-151.0399932861328,0.07513427734375,0.18292236328125,0.48779296875,35.369998931884766,0.0,-155.0,4.4222564697265625,-6.8668670654296875,Waiting,0.0,0.0,-1253985.0,0.0,0.0,0.0,0.0,0.0,
6.632210000000021,0.0,0.0,35795.0,0.125,877.5,787.5,0.0,0.125,1.3415525970000002,0.5498168668524888,0.0,-12297.0,0.25,870.0,787.5,0.0,0.25,4.8181147410000005,4.410439589772222,0.0,-5983.0,27.5,877.5,787.5,0.0,0.0,2.769775107,4.389674732977289,0.0,-18487.0,2.0,862.5,787.5,0.0,0.25,2.126464626,0.5526872062785588,0.0,-0.800000011920929,0.25,-161.0500030517578,-0.09033203125,0.20123291015625,0.87481689453125,35.369998931884766,0.0,19.0,4.418670654296875,-6.8850250244140625,Waiting,0.0,0.0,-1253985.0,0.0,0.0,0.0,0.0,0.125,
6.748522999999986,0.0,0.0,35795.0,0.125,915.0,787.5,0.0,0.125,1.3439940030000002,0.5498168668524888,0.0,-12158.0,0.25,862.5,787.5,0.0,0.25,4.8156733350000005,4.410439589772222,0.0,-5828.0,21.625,1050.0,787.5,0.0,0.0,2.769775107,4.389674732977289,0.0,-18350.0,2.25,847.5,787.5,0.0,0.25,2.126464626,0.5526872062785588,0.0,-0.8700000047683716,0.0,-171.89999389648438,0.10528564453125,0.06280517578125,1.07269287109375,35.369998931884766,0.0,-115.0,4.416107177734375,-6.906829833984375,Waiting,0.0,0.0,-1253985.0,0.0,0.0,0.0,0.0,0.0,
6.854621999999974,0.0,0.0,35937.0,0.125,847.5,803.90625,0.0,0.125,1.3415525970000002,0.5498168668524888,0.0,-12028.0,0.375,810.0,803.90625,0.0,0.25,4.819335444,4.410439589772222,0.0,-5661.0,20.375,997.5,803.90625,0.0,0.0,2.768554404,4.389674732977289,0.0,-18220.0,2.625,795.0,803.90625,0.0,0.25,2.126464626,0.5526872062785588,0.0,-0.9200000166893005,-0.11999999731779099,179.27999877929688,0.037841796875,-0.0679931640625,0.99652099609375,35.369998931884766,0.0,-40.0,4.4151153564453125,-6.9254302978515625,Waiting,0.0,0.0,-1253985.0,0.0,0.0,0.0,0.0,0.0,
6.966441999999981,0.0,0.0,36071.0,0.375,795.0,820.3125000000001,0.0,0.125,1.3427733000000002,0.5498168668524888,0.0,-11902.0,0.75,780.0,820.3125000000001,0.0,0.25,4.816894038,4.410439589772222,0.0,-5509.0,21.0,915.0,820.3125000000001,0.0,0.0,2.77099581,4.389674732977289,0.0,-18097.0,3.0,780.0,820.3125000000001,0.0,0.25,2.126464626,0.5526872062785588,0.0,-1.0299999713897705,-0.27000001072883606,170.97000122070312,0.0184326171875,0.0341796875,1.07958984375,35.36000061035156,0.0,-14.0,4.4140472412109375,-6.9441986083984375,Waiting,0.0,0.0,-1253985.0,0.0,0.0,0.0,0.0,0.0,
7.0711390000000245,0.0,0.0,36196.0,0.5,787.5,853.125,0.0,0.125,1.3427733000000002,0.5498168668524888,0.0,-11902.0,0.75,810.0,853.125,0.0,0.25,4.816894038,4.410439589772222,0.0,-5358.0,20.875,960.0,853.125,0.0,0.0,2.769775107,4.389674732977289,0.0,-17968.0,3.25,787.5,853.125,0.0,0.25,2.126464626,0.5526872062785588,0.0,-1.0499999523162842,-0.47999998927116394,162.72999572753906,-0.04046630859375,-0.0858154296875,1.01007080078125,35.36000061035156,0.0,10.0,4.413665771484375,-6.9625091552734375,Waiting,0.0,0.0,-1253985.0,0.0,0.0,0.0,0.0,0.0,
7.1689459999999965,0.0,0.0,36330.0,0.375,840.0,853.125,0.0,0.125,1.331786973,0.5498168668524888,0.0,-11769.0,1.0,817.5,853.125,0.0,0.25,4.8132319290000005,4.410439589772222,0.0,-5210.0,20.125,915.0,853.125,0.0,0.0,2.769775107,4.389674732977289,0.0,-17968.0,3.25,802.5,853.125,0.0,0.25,2.126464626,0.5526872062785588,0.0,-1.0700000524520874,-0.550000011920929,155.75,0.1270751953125,-0.104736328125,0.87457275390625,35.36000061035156,0.0,-104.0,4.41326904296875,-6.9679107666015625,Waiting,0.0,0.0,-1253985.0,0.0,0.0,0.0,0.0,0.0,
7.276472000000009,0.0,0.0,36462.0,0.5,817.5,853.125,0.0,0.125,1.351318221,0.5498168668524888,0.0,-11642.0,1.5,765.0,853.125,0.0,0.25,4.814452632,4.410439589772222,0.0,-5065.0,19.875,900.0,853.125,0.0,0.0,2.769775107,4.389674732977289,0.0,-17840.0,3.625,780.0,853.125,0.0,0.25,2.126464626,0.5526872062785588,0.0,-0.9800000190734863,-0.5899999737739563,146.39999389648438,0.0247802734375,-0.093994140625,0.9940185546875,35.36000061035156,0.0,-71.0,4.413299560546875,-6.970123291015625,Waiting,0.0,0.0,-1253985.0,0.0,0.0,0.0,0.0,0.0,
7.392983000000007,0.0,0.0,36594.0,0.5,817.5,853.125,0.0,0.125,1.351318221,0.5498168668524888,0.0,-11516.0,1.5,802.5,853.125,0.0,0.25,4.816894038,4.410439589772222,0.0,-4914.0,18.375,937.5,853.125,0.0,0.0,2.772216513,4.389674732977289,0.0,-17719.0,4.125,772.5,853.125,0.0,0.25,2.126464626,0.5526872062785588,0.0,-0.9599999785423279,-0.6700000166893005,137.91000366210938,0.01708984375,-0.06396484375,1.20587158203125,35.36000061035156,0.0,-52.0,4.4134368896484375,-6.97344970703125,Waiting,0.0,0.0,-1253985.0,0.0,0.0,0.0,0.0,0.0,
7.496266000000003,0.0,0.0,36726.0,0.5,825.0,853.125,0.0,0.125,1.351318221,0.5498168668524888,0.0,-11384.0,1.375,832.5,853.125,0.0,0.25,4.8156733350000005,4.410439589772222,0.0,-4757.0,16.25,975.0,853.125,0.0,0.0,2.769775107,4.389674732977289,0.0,-17589.0,4.25,810.0,853.125,0.0,0.25,2.125243923,0.5526872062785588,0.0,-1.0199999809265137,-0.7300000190734863,126.69000244140625,0.0198974609375,-0.0323486328125,0.88995361328125,35.349998474121094,0.0,-31.0,4.4132537841796875,-6.9786834716796875,Waiting,0.0,0.0,-1253985.0,0.0,0.0,0.0,0.0,0.0,
7.6110869999999995,0.0,0.0,36859.0,0.5,825.0,853.125,0.0,0.125,1.351318221,0.5498168668524888,0.0,-11251.0,1.375,832.5,853.125,0.0,0.25,4.8156733350000005,4.410439589772222,0.0,-4601.0,14.875,967.5,853.125,0.0,0.0,2.769775107,4.389674732977289,0.0,-17458.0,4.375,810.0,853.125,0.0,0.25,2.126464626,0.5526872062785588,0.0,-0.949999988079071,-0.6700000166893005,119.05000305175781,0.06982421875,-0.1531982421875,0.60015869140625,35.349998474121094,0.0,-162.0,4.4134063720703125,-6.979522705078125,Waiting,0.0,0.0,-1253985.0,0.0,0.0,0.0,0.0,0.0,
7.722210000000021,0.0,0.0,36997.0,0.5,855.0,869.53125,0.0,0.125,1.351318221,0.5498168668524888,0.0,-11112.0,1.25,870.0,869.53125,0.0,0.25,4.8156733350000005,4.410439589772222,0.0,-4601.0,13.75,997.5,869.53125,0.0,0.0,2.769775107,4.389674732977289,0.0,-17326.0,4.375,832.5,869.53125,0.0,0.25,2.126464626,0.5526872062785588,0.0,-0.9399999976158142,-0.7799999713897705,109.98999786376953,-0.08819580078125,-0.0718994140625,1.1915283203125,35.349998474121094,0.0,-24.0,4.4126434326171875,-6.9776153564453125,Waiting,0.0,0.0,-1253985.0,0.0,0.0,0.0,0.0,0.0,
7.829806999999971,0.0,0.0,37135.0,0.5,855.0,869.53125,0.0,0.125,1.350097518,0.5498168668524888,0.0,-10973.0,1.125,870.0,869.53125,0.0,0.25,4.8156733350000005,4.410439589772222,0.0,-4443.0,12.875,960.0,869.53125,0.0,0.0,2.77099581,4.389674732977289,0.0,-17193.0,4.875,825.0,869.53125,0.0,0.25,2.125243923,0.5526872062785588,0.0,-0.8199999928474426,-0.8799999952316284,99.5,-0.0338134765625,0.0396728515625,1.13470458984375,35.349998474121094,0.0,57.0,4.4096832275390625,-6.974273681640625,Waiting,0.0,0.0,-1253985.0,0.0,0.0,0.0,0.0,0.0,
7.937906000000018,0.0,0.0,37135.0,0.5,855.0,869.53125,0.0,0.125,1.351318221,0.5498168668524888,0.0,-10832.0,1.0,877.5,869.53125,0.0,0.25,4.8156733350000005,4.410439589772222,0.0,-4287.0,12.75,960.0,869.53125,0.0,0.0,2.768554404,4.389674732977289,0.0,-17057.0,4.625,855.0,869.53125,0.0,0.25,2.126464626,0.5526872062785588,0.0,-0.8500000238418579,-1.0099999904632568,90.31999969482422,-0.1181640625,-0.07440185546875,1.06427001953125,35.36000061035156,0.0,-57.0,4.407073974609375,-6.9713287353515625,Waiting,0.0,0.0,-1253985.0,0.0,0.0,0.0,0.0,0.0,
8.047563000000023,0.0,0.0,37271.0,0.75,847.5,885.9375,0.0,0.125,1.350097518,0.5498168668524888,0.0,-10693.0,1.25,862.5,885.9375,0.0,0.25,4.808349117000001,4.410439589772222,0.0,-4141.0,13.0,915.0,885.9375,0.0,0.0,2.768554404,4.389674732977289,0.0,-16922.0,5.125,840.0,885.9375,0.0,0.25,2.12402322,0.5526872062785588,0.0,-0.7200000286102295,-1.149999976158142,79.8499984741211,0.0357666015625,0.13238525390625,0.81781005859375,35.36000061035156,0.0,149.0,4.40496826171875,-6.9700775146484375,Waiting,0.0,0.0,-1253985.0,0.0,0.0,0.0,0.0,0.0,
8.155570000000006,0.0,0.0,37408.0,0.75,855.0,885.9375,0.0,0.125,1.3488768150000001,0.5498168668524888,0.0,-10552.0,1.125,885.0,885.9375,0.0,0.25,4.8156733350000005,4.410439589772222,0.0,-3989.0,12.125,937.5,885.9375,0.0,0.0,2.769775107,4.389674732977289,0.0,-16785.0,5.25,855.0,885.9375,0.0,0.25,2.1215818140000002,0.5526872062785588,0.0,-0.6600000262260437,-1.399999976158142,70.7300033569336,-0.03192138671875,-0.02154541015625,0.787841796875,35.36000061035156,0.0,-15.0,4.40203857421875,-6.9677276611328125,Waiting,0.0,0.0,-1253985.0,0.0,0.0,0.0,0.0,0.0,
8.269632999999972,0.0,0.0,37547.0,0.75,862.5,885.9375,0.0,0.125,1.351318221,0.5498168668524888,0.0,-10412.0,1.25,870.0,885.9375,0.0,0.25,4.814452632,4.410439589772222,0.0,-3841.0,12.0,922.5,885.9375,0.0,0.0,2.769775107,4.389674732977289,0.0,-16651.0,5.5,840.0,885.9375,0.0,0.25,2.1215818140000002,0.5526872062785588,0.0,-0.5099999904632568,-1.5499999523162842,61.650001525878906,-0.04150390625,0.0291748046875,0.9185791015625,35.36000061035156,0.0,24.0,4.402099609375,-6.9653472900390625,Waiting,0.0,0.0,-1253985.0,0.0,0.0,0.0,0.0,0.0,
8.375354999999981,0.0,0.0,37684.0,0.875,847.5,885.9375,0.0,0.125,1.350097518,0.5498168668524888,0.0,-10412.0,1.25,877.5,885.9375,0.0,0.25,4.8156733350000005,4.410439589772222,0.0,-3692.0,12.0,922.5,885.9375,0.0,0.0,2.769775107,4.389674732977289,0.0,-16513.0,5.625,855.0,885.9375,0.0,0.25,2.126464626,0.5526872062785588,0.0,-0.3499999940395355,-1.590000033378601,51.31999969482422,-0.10443115234375,0.12786865234375,1.28009033203125,35.36000061035156,0.0,63.0,4.401763916015625,-6.960662841796875,Waiting,0.0,0.0,-1253985.0,0.0,0.0,0.0,0.0,0.0,
8.487722000000009,0.0,0.0,37820.0,1.125,847.5,885.9375,0.0,0.125,1.350097518,0.5498168668524888,0.0,-10269.0,1.25,877.5,885.9375,0.0,0.25,4.816894038,4.410439589772222,0.0,-3543.0,11.5,922.5,885.9375,0.0,0.0,2.769775107,4.389674732977289,0.0,-16513.0,5.75,847.5,885.9375,0.0,0.25,2.1215818140000002,0.5526872062785588,0.0,-0.2800000011920929,-1.5099999904632568,43.36000061035156,-0.09710693359375,-0.0313720703125,1.18328857421875,35.369998931884766,0.0,-65.0,4.4014434814453125,-6.9549102783203125,Waiting,0.0,0.0,-1253985.0,0.0,0.0,0.0,0.0,0.0,
8.601118000000017,0.0,0.0,37959.0,1.125,862.5,902.34375,0.0,0.125,1.350097518,0.5498168668524888,0.0,-10128.0,1.25,900.0,902.34375,0.0,0.25,4.814452632,4.410439589772222,0.0,-3393.0,11.125,945.0,902.34375,0.0,0.0,2.769775107,4.389674732977289,0.0,-16375.0,5.75,877.5,902.34375,0.0,0.25,2.1166990020000003,0.5526872062785588,0.0,-0.20000000298023224,-1.5299999713897705,32.59000015258789,-0.0970458984375,0.05133056640625,0.80230712890625,35.369998931884766,0.0,-34.0,4.400482177734375,-6.94635009765625,Waiting,0.0,0.0,-1253985.0,0.0,0.0,0.0,0.0,0.0,
8.707929000000004,0.0,0.0,38098.0,1.25,862.5,902.34375,0.0,0.125,1.358642439,0.5498168668524888,0.0,-9983.0,1.25,885.0,902.34375,0.0,0.25,4.816894038,4.410439589772222,0.0,-3244.0,10.875,930.0,902.34375,0.0,0.0,2.77099581,4.389674732977289,0.0,-16231.0,5.625,885.0,902.34375,0.0,0.25,2.1215818140000002,0.5526872062785588,0.0,-0.15000000596046448,-1.2699999809265137,21.829999923706055,0.116943359375,0.20428466796875,0.62738037109375,35.369998931884766,0.0,198.0,4.39825439453125,-6.9364471435546875,Waiting,0.0,0.0,-1253985.0,0.0,0.0,0.0,0.0,0.0,
8.823680999999983,0.0,0.0,38237.0,1.25,870.0,902.34375,0.0,0.125,1.3464354090000001,0.5498168668524888,0.0,-9840.0,1.25,900.0,902.34375,0.0,0.25,4.814452632,4.410439589772222,0.0,-3092.0,10.375,945.0,902.34375,0.0,0.0,2.769775107,4.389674732977289,0.0,-16091.0,5.75,885.0,902.34375,0.0,0.25,2.1203611110000002,0.5526872062785588,0.0,0.05999999865889549,-1.3200000524520874,12.300000190734863,0.00970458984375,-0.05072021484375,1.05499267578125,35.369998931884766,0.0,22.0,4.3957672119140625,-6.9251861572265625,Waiting,0.0,0.0,-1253985.0,0.0,0.0,0.0,0.0,0.0,
8.933707999999983,0.0,0.0,38379.0,1.5,877.5,918.75,0.0,0.125,1.3464354090000001,0.5498168668524888,0.0,-9695.0,1.5,900.0,918.75,0.0,0.25,4.816894038,4.410439589772222,0.0,-2939.0,10.125,945.0,918.75,0.0,0.0,2.77099581,4.389674732977289,0.0,-15947.0,5.75,900.0,918.75,0.0,0.25,2.1215818140000002,0.5526872062785588,0.0,0.11999999731779099,-1.0499999523162842,1.3600000143051147,0.065673828125,0.1358642578125,0.7606201171875,35.369998931884766,0.0,82.0,4.39208984375,-6.912567138671875,Waiting,0.0,0.0,-1253985.0,0.0,0.0,0.0,0.0,0.0,
9.051396000000008,0.0,0.0,38502.0,0.0,795.0,0.0,0.0,0.125,1.3464354090000001,0.5498168668524888,0.0,-9556.0,0.0,772.5,0.0,0.0,0.25,4.8156733350000005,4.410439589772222,0.0,-2828.0,0.125,870.0,0.0,0.0,0.0,2.769775107,4.389674732977289,0.0,-15806.0,0.125,675.0,0.0,0.0,0.25,2.125243923,0.5526872062785588,0.0,0.5099999904632568,-0.7900000214576721,-7.860000133514404,-0.05126953125,-0.29962158203125,1.302490234375,35.349998474121094,0.0,9.0,4.3912200927734375,-6.898223876953125,Waiting,0.0,0.0,-1253985.0,0.0,0.0,0.0,0.0,0.0,
9.159674999999988,0.0,0.0,38584.0,0.0,532.5,0.0,0.0,0.125,1.3464354090000001,0.5498168668524888,0.0,-9459.0,0.0,562.5,0.0,0.0,0.25,4.814452632,4.410439589772222,0.0,-2760.0,0.0,420.0,0.0,0.0,0.0,2.769775107,4.389674732977289,0.0,-15726.0,0.125,570.0,0.0,0.0,0.25,2.126464626,0.5526872062785588,0.0,0.30000001192092896,-0.7099999785423279,-14.430000305175781,-0.04058837890625,0.13714599609375,0.99676513671875,35.349998474121094,0.0,-60.0,4.3891143798828125,-6.883819580078125,Waiting,0.0,0.0,-1253985.0,0.0,0.0,0.0,0.0,0.0,
9.275890000000015,0.0,0.0,38620.0,0.0,262.5,0.0,0.0,0.125,1.3415525970000002,0.5498168668524888,0.0,-9411.0,0.0,255.0,0.0,0.0,0.25,4.816894038,4.410439589772222,0.0,-2760.0,0.125,270.0,0.0,0.0,0.0,2.769775107,4.389674732977289,0.0,-15664.0,0.0,247.5,0.0,0.0,0.25,2.126464626,0.5526872062785588,0.0,0.2199999988079071,-0.6499999761581421,-17.09000015258789,-0.01708984375,-0.1131591796875,0.99627685546875,35.349998474121094,0.0,28.0,4.3846282958984375,-6.8728179931640625,Waiting,0.0,0.0,-1253985.0,0.0,0.0,0.0,0.0,0.0,
9.387630000000005,0.0,0.0,38620.0,0.0,45.0,0.0,0.0,0.125,1.3415525970000002,0.5498168668524888,0.0,-9403.0,0.0,30.0,0.0,0.0,0.25,4.8156733350000005,4.410439589772222,0.0,-2737.0,0.125,22.5,0.0,0.0,0.0,2.774657919,4.389674732977289,0.0,-15657.0,0.125,15.0,0.0,0.0,0.25,2.126464626,0.5526872062785588,0.0,0.09000000357627869,-0.75,-16.770000457763672,0.00152587890625,-0.01177978515625,1.08709716796875,35.349998474121094,0.0,19.0,4.3781280517578125,-6.8627166748046875,Waiting,0.0,0.0,-1253985.0,0.0,0.0,0.0,0.0,0.0,
9.497706000000006,0.0,0.0,38621.0,14.25,-232.5,-1951.181048154831,0.0,0.125,1.3488768150000001,0.5498168668524864,0.0,-9451.0,24.625,-270.0,-1951.181048154831,0.0,0.25,4.812011226,4.41043958977222,0.0,-2737.0,20.625,-90.0,-1951.181048154831,0.0,0.0,2.808837603,4.389674732977291,0.0,-15682.0,15.75,-225.0,-1951.181048154831,0.0,0.25,2.188720479,0.552687206278561,0.0,-0.019999999552965164,-1.0399999618530273,-14.149999618530273,-0.07073974609375,8.544921875E-4,1.2325439453125,35.36000061035156,0.0,-47.0,4.37750244140625,-6.854949951171875,Waiting,0.0,0.0,-1253985.0,0.0,0.0,0.0,0.0,0.0,
9.609664999999978,0.0,0.0,38536.0,14.5,-877.5,-2100.0,0.0,0.125,1.359863142,0.5498168668524864,0.0,-9624.0,23.875,-930.0,-2100.0,0.0,0.25,4.8107905230000005,4.41043958977222,0.0,-2787.0,25.5,-615.0,-2100.0,0.0,0.0,2.8076169,4.389674732977291,0.0,-15809.0,18.625,-765.0,-2100.0,0.0,0.25,2.192382588,0.552687206278561,0.0,-0.3700000047683716,-1.7000000476837158,-2.2699999809265137,-0.16656494140625,0.02301025390625,1.49786376953125,35.36000061035156,0.0,-123.0,4.37310791015625,-6.8533477783203125,Waiting,0.0,0.0,-1253985.0,0.0,0.0,0.0,0.0,0.0,
9.716488000000012,0.0,0.0,38327.0,8.0,-1635.0,-2100.0,0.0,0.125,1.361083845,0.5498168668524864,0.0,-9890.0,14.875,-1605.0,-2100.0,0.0,0.25,4.816894038,4.41043958977222,0.0,-2936.0,22.875,-1117.5,-2100.0,0.0,0.0,2.806396197,4.389674732977291,0.0,-16037.0,15.25,-1350.0,-2100.0,0.0,0.25,2.193603291,0.552687206278561,0.0,-0.28999999165534973,-1.9299999475479126,11.869999885559082,0.13543701171875,0.190673828125,1.12640380859375,35.36000061035156,0.0,210.0,4.3652801513671875,-6.850616455078125,Waiting,0.0,0.0,-1253985.0,0.0,0.0,0.0,0.0,0.0,
9.831940000000003,0.0,0.0,38029.0,4.0,-2040.0,-2100.0,0.0,0.125,1.361083845,0.5498168668524864,0.0,-10208.0,9.75,-1927.5,-2100.0,0.0,0.25,4.835204583,4.41043958977222,0.0,-3211.0,15.5,-1845.0,-2100.0,0.0,0.0,2.808837603,4.389674732977291,0.0,-16326.0,11.625,-1800.0,-2100.0,0.0,0.25,2.199706806,0.552687206278561,0.0,-0.25,-2.359999895095825,34.97999954223633,-0.2967529296875,-0.07843017578125,1.14373779296875,35.36000061035156,0.0,-246.0,4.35772705078125,-6.836029052734375,Waiting,0.0,0.0,-1253985.0,0.0,0.0,0.0,0.0,0.0,
9.950946999999985,0.0,0.0,37691.0,0.0,-2010.0,0.0,0.0,0.125,1.351318221,0.5498168668524864,0.0,-10497.0,0.0,-1845.0,0.0,0.0,0.125,4.83398388,4.41043958977222,0.0,-3517.0,0.125,-1965.0,0.0,0.0,0.0,2.808837603,4.389674732977291,0.0,-16610.0,0.125,-1777.5,0.0,0.0,0.25,2.196044697,0.552687206278561,0.0,-0.5099999904632568,-2.700000047683716,60.279998779296875,0.301025390625,-0.10601806640625,0.97686767578125,35.36000061035156,0.0,87.0,4.3534393310546875,-6.810333251953125,Waiting,0.0,0.0,-1253985.0,0.0,0.0,0.0,0.0,0.0,
10.060000999999989,0.0,0.0,37382.0,0.0,-1927.5,0.0,0.0,0.125,1.35498033,0.5498168668524864,0.0,-10497.0,0.0,-1807.5,0.0,0.0,0.125,4.83398388,4.41043958977222,0.0,-3801.0,0.0,-1740.0,0.0,0.0,0.0,2.8039547910000002,4.389674732977291,0.0,-16882.0,0.125,-1702.5,0.0,0.0,0.25,2.188720479,0.552687206278561,0.0,-1.1299999952316284,-2.2799999713897705,80.08000183105469,-0.11090087890625,0.4473876953125,1.0264892578125,35.290000915527344,0.0,448.0,4.354248046875,-6.785797119140625,Waiting,0.0,0.0,-1253985.0,0.0,0.0,0.0,0.0,0.0,
10.170032999999997,0.0,0.0,37101.0,0.0,-1672.5,0.0,0.0,0.125,1.351318221,0.5498168668524864,0.0,-10780.0,0.0,-1635.0,0.0,0.0,0.125,4.83398388,4.41043958977222,0.0,-4066.0,0.125,-1620.0,0.0,0.0,0.0,2.8039547910000002,4.389674732977291,0.0,-16882.0,0.125,-1545.0,0.0,0.0,0.25,2.177734152,0.552687206278561,0.0,-1.2699999809265137,-2.0299999713897705,99.95999908447266,-0.1004638671875,0.0504150390625,1.35272216796875,35.290000915527344,0.0,88.0,4.3608245849609375,-6.756500244140625,Waiting,0.0,0.0,-1253985.0,0.0,0.0,0.0,0.0,0.0,
10.276253000000025,0.0,0.0,36856.0,0.0,-1485.0,0.0,0.0,0.125,1.350097518,0.5498168668524864,0.0,-11025.0,0.0,-1425.0,0.0,0.0,0.125,4.835204583,4.41043958977222,0.0,-4296.0,0.125,-1417.5,0.0,0.0,0.0,2.8039547910000002,4.389674732977291,0.0,-17119.0,0.125,-1350.0,0.0,0.0,0.25,2.178954855,0.552687206278561,0.0,-1.3700000047683716,-1.8899999856948853,115.01000213623047,0.028076171875,-0.0679931640625,0.56707763671875,35.290000915527344,0.0,-69.0,4.366607666015625,-6.72894287109375,Waiting,0.0,0.0,-1253985.0,0.0,0.0,0.0,0.0,0.0,
10.387358999999996,0.0,0.0,36646.0,0.0,-1290.0,0.0,0.0,0.125,1.351318221,0.5498168668524864,0.0,-11236.0,0.0,-1222.5,0.0,0.0,0.125,4.83398388,4.41043958977222,0.0,-4490.0,0.125,-1237.5,0.0,0.0,0.0,2.8039547910000002,4.389674732977291,0.0,-17322.0,0.125,-1155.0,0.0,0.0,0.25,2.178954855,0.552687206278561,0.0,-1.4199999570846558,-1.8799999952316284,129.75999450683594,-0.0103759765625,-0.05194091796875,1.3397216796875,35.290000915527344,0.0,-35.0,4.3726348876953125,-6.7003631591796875,Waiting,0.0,0.0,-1253985.0,0.0,0.0,0.0,0.0,0.0,
10.496119000000006,0.0,0.0,36472.0,0.0,-1087.5,0.0,0.0,0.125,1.350097518,0.5498168668524864,0.0,-11415.0,0.0,-1057.5,0.0,0.0,0.125,4.83398388,4.41043958977222,0.0,-4643.0,0.0,-960.0,0.0,0.0,0.0,2.8039547910000002,4.389674732977291,0.0,-17490.0,0.125,-937.5,0.0,0.0,0.25,2.178954855,0.552687206278561,0.0,-1.3600000143051147,-1.6399999856948853,141.85000610351562,-0.00299072265625,0.06524658203125,0.9036865234375,35.27000045776367,0.0,35.0,4.3802947998046875,-6.6758880615234375,Waiting,0.0,0.0,-1253985.0,0.0,0.0,0.0,0.0,0.0,
10.613831999999995,0.0,0.0,36332.0,0.0,-847.5,0.0,0.0,0.125,1.350097518,0.5498168668524864,0.0,-11559.0,0.0,-787.5,0.0,0.0,0.125,4.835204583,4.41043958977222,0.0,-4767.0,0.125,-802.5,0.0,0.0,0.0,2.8039547910000002,4.389674732977291,0.0,-17626.0,0.125,-735.0,0.0,0.0,0.25,2.177734152,0.552687206278561,0.0,-1.2999999523162842,-1.6699999570846558,151.2100067138672,-0.09820556640625,-0.045166015625,1.184814453125,35.27000045776367,0.0,46.0,4.3900909423828125,-6.6520843505859375,Waiting,0.0,0.0,-1253985.0,0.0,0.0,0.0,0.0,0.0,
10.731843999999983,0.0,0.0,36235.0,0.0,-585.0,0.0,0.0,0.125,1.351318221,0.5498168668524864,0.0,-11663.0,0.0,-585.0,0.0,0.0,0.125,4.835204583,4.41043958977222,0.0,-4857.0,0.125,-585.0,0.0,0.0,0.0,2.8039547910000002,4.389674732977291,0.0,-17729.0,0.125,-540.0,0.0,0.0,0.25,2.177734152,0.552687206278561,0.0,-1.2599999904632568,-1.5399999618530273,156.39999389648438,-0.0040283203125,-0.09283447265625,0.980712890625,35.27000045776367,0.0,-49.0,4.396759033203125,-6.6359100341796875,Waiting,0.0,0.0,-1253985.0,0.0,0.0,0.0,0.0,0.0,
10.856379000000015,0.0,0.0,36169.0,0.0,-412.5,0.0,0.0,0.125,1.351318221,0.5498168668524864,0.0,-11735.0,0.0,-382.5,0.0,0.0,0.125,4.835204583,4.41043958977222,0.0,-4912.0,0.125,-345.0,0.0,0.0,0.0,2.8039547910000002,4.389674732977291,0.0,-17798.0,0.125,-330.0,0.0,0.0,0.25,2.177734152,0.552687206278561,0.0,-1.1699999570846558,-1.3300000429153442,161.44000244140625,-0.04119873046875,0.03582763671875,0.85162353515625,35.27000045776367,0.0,37.0,4.4053955078125,-6.6148529052734375,Waiting,0.0,0.0,-1253985.0,0.0,0.0,0.0,0.0,0.0,
10.973477000000013,0.0,0.0,36155.0,4.625,-60.0,771.09375,0.0,0.125,1.3415525970000002,0.5498168668524888,0.0,-11764.0,10.5,-22.5,771.09375,0.0,0.125,4.835204583,4.410439589772222,0.0,-4922.0,5.0,-112.5,771.09375,0.0,0.0,2.774657919,4.389674732977289,0.0,-17833.0,4.625,-22.5,771.09375,0.0,0.25,2.154540795,0.5526872062785588,0.0,-0.7900000214576721,-1.1799999475479126,161.6999969482422,0.00958251953125,-0.03472900390625,1.07635498046875,35.27000045776367,0.0,-36.0,4.4120635986328125,-6.604034423828125,Waiting,0.0,0.0,-1253985.0,0.0,0.0,0.0,0.0,0.0,
11.091267999999982,0.0,0.0,36217.0,2.625,405.0,771.09375,0.0,0.125,1.3464354090000001,0.5498168668524888,0.0,-11720.0,5.75,442.5,771.09375,0.0,0.125,4.832763177,4.410439589772222,0.0,-4908.0,6.125,52.5,771.09375,0.0,0.0,2.769775107,4.389674732977289,0.0,-17804.0,3.0,412.5,771.09375,0.0,0.125,2.1105954870000003,0.5526872062785588,0.0,-0.7599999904632568,-1.1100000143051147,156.5399932861328,0.03155517578125,0.0396728515625,1.05419921875,35.310001373291016,0.0,-26.0,4.4179840087890625,-6.597198486328125,Waiting,0.0,0.0,-1253985.0,0.0,0.0,0.0,0.0,0.0,
11.219140000000014,0.0,0.0,36319.0,1.625,652.5,771.09375,0.0,0.125,1.339111191,0.5498168668524888,0.0,-11623.0,2.75,690.0,771.09375,0.0,0.125,4.829101068,4.410439589772222,0.0,-4853.0,7.125,337.5,771.09375,0.0,0.0,2.769775107,4.389674732977289,0.0,-17724.0,3.125,487.5,771.09375,0.0,0.25,2.1105954870000003,0.5526872062785588,0.0,-0.5600000023841858,-1.0499999523162842,148.67999267578125,0.14373779296875,0.02899169921875,1.14202880859375,35.310001373291016,0.0,-119.0,4.4225006103515625,-6.5962371826171875,Waiting,0.0,0.0,-1253985.0,0.0,0.0,0.0,0.0,0.0,
11.335294999999984,0.0,0.0,36444.0,0.875,772.5,771.09375,0.0,0.125,1.3415525970000002,0.5498168668524888,0.0,-11504.0,1.75,757.5,771.09375,0.0,0.125,4.830321771,4.410439589772222,0.0,-4766.0,7.625,547.5,771.09375,0.0,0.0,2.769775107,4.389674732977289,0.0,-17635.0,2.5,682.5,771.09375,0.0,0.25,2.1203611110000002,0.5526872062785588,0.0,-0.47999998927116394,-0.9399999976158142,139.4499969482422,-0.09405517578125,-0.087646484375,1.224853515625,35.310001373291016,0.0,5.0,4.426544189453125,-6.598236083984375,Waiting,0.0,0.0,-1253985.0,0.0,0.0,0.0,0.0,0.0,
11.455000999999989,0.0,0.0,36575.0,0.5,825.0,771.09375,0.0,0.125,1.3439940030000002,0.5498168668524888,0.0,-11377.0,1.25,802.5,771.09375,0.0,0.125,4.829101068,4.410439589772222,0.0,-4656.0,6.25,667.5,771.09375,0.0,0.0,2.769775107,4.389674732977289,0.0,-17517.0,2.375,742.5,771.09375,0.0,0.25,2.125243923,0.5526872062785588,0.0,-0.5199999809265137,-0.8999999761581421,129.63999938964844,0.14410400390625,0.08447265625,0.69451904296875,35.310001373291016,0.0,-29.0,4.432220458984375,-6.5999908447265625,Waiting,0.0,0.0,-1253985.0,0.0,0.0,0.0,0.0,0.0,
11.575797000000021,0.0,0.0,36718.0,1.875,907.5,1148.4375,0.0,0.125,1.3415525970000002,0.5498168668524888,0.0,-11246.0,4.875,870.0,1148.4375,0.0,0.125,4.829101068,4.410439589772222,0.0,-4634.0,19.0,157.5,1148.4375,0.0,0.0,2.769775107,4.389674732977289,0.0,-17398.0,3.875,885.0,1148.4375,0.0,0.25,2.125243923,0.5526872062785588,0.0,-0.4399999976158142,-0.7900000214576721,117.83999633789062,-0.1578369140625,-0.019287109375,1.12994384765625,35.29999923706055,0.0,57.0,4.4396209716796875,-6.60125732421875,Waiting,0.0,0.0,-1253985.0,0.0,0.0,0.0,0.0,0.0,
11.699821999999985,0.0,0.0,36896.0,3.0,1095.0,1492.96875,0.0,0.125,1.3415525970000002,0.5498168668524888,0.0,-11088.0,7.5,1117.5,1492.96875,0.0,0.125,4.831542474,4.410439589772222,0.0,-4565.0,37.5,397.5,1492.96875,0.0,0.0,2.772216513,4.389674732977289,0.0,-17241.0,6.375,1012.5,1492.96875,0.0,0.25,2.126464626,0.5526872062785588,0.0,-0.2199999988079071,-0.6399999856948853,104.11000061035156,-0.05810546875,-0.071044921875,0.7652587890625,35.29999923706055,0.0,-53.0,4.44775390625,-6.60040283203125,Waiting,0.0,0.0,-1253985.0,0.0,0.0,0.0,0.0,0.0,
11.818079000000028,0.0,0.0,37120.0,0.875,1410.0,1492.96875,0.0,0.125,1.340331894,0.5498168668524888,0.0,-10885.0,3.75,1372.5,1492.96875,0.0,0.125,4.824218256,4.410439589772222,0.0,-4425.0,38.5,877.5,1492.96875,0.0,0.0,2.772216513,4.389674732977289,0.0,-17062.0,5.75,1267.5,1492.96875,0.0,0.25,2.1215818140000002,0.5526872062785588,0.0,-0.029999999329447746,-0.5799999833106995,88.97000122070312,-0.0086669921875,0.17083740234375,1.414794921875,35.29999923706055,0.0,171.0,4.4567108154296875,-6.59796142578125,Waiting,0.0,0.0,-1253985.0,0.0,0.0,0.0,0.0,0.0,
11.935612000000022,0.0,0.0,37371.0,0.125,1575.0,1492.96875,0.0,0.125,1.3427733000000002,0.5498168668524888,0.0,-10648.0,1.5,1515.0,1492.96875,0.0,0.125,4.82177685,4.410439589772222,0.0,-4236.0,35.625,1132.5,1492.96875,0.0,0.0,2.769775107,4.389674732977289,0.0,-16847.0,5.125,1387.5,1492.96875,0.0,0.25,2.1203611110000002,0.5526872062785588,0.0,0.029999999329447746,-0.5699999928474426,66.76000213623047,-0.03619384765625,0.21533203125,0.99298095703125,35.29999923706055,0.0,186.0,4.4672088623046875,-6.5928192138671875,Waiting,0.0,0.0,-1253985.0,0.0,0.0,0.0,0.0,0.0,
12.060477000000013,0.0,0.0,37657.0,0.0,1762.5,1345.3125,0.0,0.125,1.351318221,0.5498168668524888,0.0,-10404.0,0.375,1485.0,1345.3125,0.0,0.125,4.8156733350000005,4.410439589772222,0.0,-3982.0,25.375,1590.0,1345.3125,0.0,0.0,2.773437216,4.389674732977289,0.0,-16619.0,3.625,1440.0,1345.3125,0.0,0.25,2.128906032,0.5526872062785588,0.0,0.17000000178813934,-0.6899999976158142,45.939998626708984,0.1270751953125,0.15948486328125,1.01800537109375,35.2599983215332,0.0,209.0,4.4787750244140625,-6.5839996337890625,Waiting,0.0,0.0,-1253985.0,0.0,0.0,0.0,0.0,0.0,
12.179148999999976,0.0,0.0,37933.0,0.0,1725.0,0.0,0.0,0.125,1.3464354090000001,0.5498168668524888,0.0,-10155.0,0.0,1605.0,0.0,0.0,0.25,4.814452632,4.410439589772222,0.0,-3777.0,0.125,1297.5,0.0,0.0,0.0,2.769775107,4.389674732977289,0.0,-16383.0,0.125,1440.0,0.0,0.0,0.25,2.1203611110000002,0.5526872062785588,0.0,0.46000000834465027,-0.6700000166893005,28.450000762939453,-0.21221923828125,-0.00701904296875,1.03204345703125,35.2599983215332,0.0,-183.0,4.491546630859375,-6.571075439453125,Waiting,0.0,0.0,-1253985.0,0.0,0.0,0.0,0.0,0.0,
12.291848999999987,0.0,0.0,38174.0,0.0,1545.0,0.0,0.0,0.125,1.3464354090000001,0.5498168668524888,0.0,-9913.0,0.0,1447.5,0.0,0.0,0.25,4.8156733350000005,4.410439589772222,0.0,-3777.0,0.0,1222.5,0.0,0.0,0.0,2.769775107,4.389674732977289,0.0,-16165.0,0.125,1267.5,0.0,0.0,0.25,2.125243923,0.5526872062785588,0.0,0.38999998569488525,-0.6399999856948853,13.380000114440918,-0.30548095703125,0.1727294921875,0.9832763671875,35.2599983215332,0.0,-247.0,4.5019683837890625,-6.54986572265625,Waiting,0.0,0.0,-1253985.0,0.0,0.0,0.0,0.0,0.0,
12.39282500000001,0.0,0.0,38374.0,0.0,1260.0,0.0,0.0,0.125,1.3464354090000001,0.5498168668524888,0.0,-9712.0,0.0,1230.0,0.0,0.0,0.25,4.814452632,4.410439589772222,0.0,-3606.0,0.125,300.0,0.0,0.0,0.0,2.773437216,4.389674732977289,0.0,-15987.0,0.0,1042.5,0.0,0.0,0.25,2.125243923,0.5526872062785588,0.0,0.3100000023841858,-0.49000000953674316,0.800000011920929,-0.23095703125,0.03076171875,0.67333984375,35.2599983215332,0.0,-224.0,4.5069427490234375,-6.5257720947265625,Waiting,0.0,0.0,-1253985.0,0.0,0.0,0.0,0.0,0.125,
12.512110999999976,0.0,0.0,38527.0,0.0,1020.0,0.0,0.0,0.125,1.3427733000000002,0.5498168668524888,0.0,-9553.0,0.0,952.5,0.0,0.0,0.25,4.814452632,4.410439589772222,0.0,-3547.0,0.0,810.0,0.0,0.0,0.0,2.769775107,4.389674732977289,0.0,-15846.0,0.125,795.0,0.0,0.0,0.25,2.125243923,0.5526872062785588,0.0,0.28999999165534973,-0.3799999952316284,-10.550000190734863,-0.06878662109375,0.0673828125,1.18878173828125,35.2599983215332,0.0,-71.0,4.50872802734375,-6.4970550537109375,Waiting,0.0,0.0,-1253985.0,0.0,0.0,0.0,0.0,0.0,
12.625423999999999,0.0,0.0,38527.0,0.0,765.0,0.0,0.0,0.125,1.3415525970000002,0.5498168668524888,0.0,-9436.0,0.0,720.0,0.0,0.0,0.25,4.816894038,4.410439589772222,0.0,-3416.0,0.125,690.0,0.0,0.0,0.0,2.77099581,4.389674732977289,0.0,-15741.0,0.125,630.0,0.0,0.0,0.25,2.125243923,0.5526872062785588,0.0,0.3400000035762787,-0.33000001311302185,-17.829999923706055,0.09234619140625,-0.11846923828125,1.14276123046875,35.27000045776367,0.0,132.0,4.507232666015625,-6.4721832275390625,Waiting,0.0,0.0,-1253985.0,0.0,0.0,0.0,0.0,0.0,
12.72982799999998,0.0,0.0,38636.0,0.0,532.5,0.0,0.0,0.125,1.3415525970000002,0.5498168668524888,0.0,-9360.0,0.0,495.0,0.0,0.0,0.25,4.814452632,4.410439589772222,0.0,-3326.0,0.125,450.0,0.0,0.0,0.0,2.768554404,4.389674732977289,0.0,-15667.0,0.125,442.5,0.0,0.0,0.25,2.125243923,0.5526872062785588,0.0,0.12999999523162842,-0.550000011920929,-22.850000381469727,0.0592041015625,0.1292724609375,1.1322021484375,35.27000045776367,0.0,15.0,4.504852294921875,-6.448150634765625,Waiting,0.0,0.0,-1253985.0,0.0,0.0,0.0,0.0,0.0,
