Time,ClimberA1,ClimberA2,FRpos,FRCurrent,FRspeed,FRsetpoint,FRApos,FRACurrent,FREncpos,FREncSetpoint,FREncSpeed,FLpos,FLCurrent,FLspeed,FLsetpoint,FLApos,FLACurrent,FLEncpos,FLEncSetpoint,FLEncSpeed,BRpos,BRCurrent,BRspeed,BRsetpoint,BRApos,BRACurrent,BREncpos,BREncSetpoint,BREncSpeed,BLpos,BLCurrent,BLspeed,BLsetpoint,BLApos,BLACurrent,BLEncpos,BLEncSetpoint,BLEncSpeed,navx_Pitch,navx_Roll,navx_Yaw,navx_XAcc,navx_YAcc,navx_ZAcc,navx_Temp,navx_Bar,navx_Alt,navx_XDis,navx_YDis,GearPlacerState,ShootOutputV,ShootOutputCurrent,ShootEncPos,ShootEncVelocity,ShootSpeed,ShootSetpoint,CarouselSetpoint,CarouselCurrent,
0.1393859999999404,0.0,0.0,6976.0,0.0,0.0,0.0,0.0,0.125,0.8007811680000001,0.01,0.0,-23915.0,0.0,0.0,-0.0,0.0,0.25,0.41381831700000005,0.01,0.0,16663.0,0.0,0.0,0.0,0.0,0.125,3.282470367,0.01,0.0,-7976.0,0.0,0.0,-0.0,0.0,0.125,1.6113279600000001,0.01,0.0,0.07000000029802322,-1.159999966621399,0.0,-0.02178955078125,3.662109375E-4,1.02142333984375,36.70000076293945,0.0,-1.0,2.8280029296875,-2.522918701171875,Waiting,0.0,0.0,-1234795.0,0.0,0.0,0.0,0.0,0.0,
0.20525500000000466,0.0,0.0,6976.0,0.0,0.0,0.0,0.0,0.125,0.799560465,0.01,0.0,-23915.0,0.0,0.0,-0.0,0.0,0.25,0.41381831700000005,0.01,0.0,16663.0,0.0,0.0,0.0,0.0,0.125,3.281249664,0.01,-0.0012207029999999897,-7976.0,0.0,0.0,-0.0,0.0,0.125,1.6113279600000001,0.01,0.0,0.07000000029802322,-1.1699999570846558,0.0,-0.020263671875,-0.00115966796875,1.0152587890625,36.709999084472656,0.0,0.0,2.8280029296875,-2.522918701171875,Waiting,0.0,0.125,-1234795.0,0.0,0.0,0.0,0.0,0.0,
0.26742199999990407,0.0,0.0,6976.0,0.0,0.0,0.0,0.0,0.125,0.8007811680000001,0.01,0.0,-23915.0,0.0,0.0,-0.0,0.0,0.25,0.41381831700000005,0.01,0.0,16663.0,0.0,0.0,0.0,0.0,0.125,3.281249664,0.01,0.0,-7976.0,0.0,0.0,-0.0,0.0,0.125,1.6113279600000001,0.01,0.0,0.07000000029802322,-1.1699999570846558,0.0,-0.0234375,0.00311279296875,1.0184326171875,36.709999084472656,0.0,-2.0,2.8280029296875,-2.522918701171875,Waiting,0.0,0.125,-1234795.0,0.0,0.0,0.0,0.0,0.0,
0.32801199999998787,0.0,0.0,6976.0,0.0,0.0,0.0,0.0,0.125,0.799560465,0.01,0.0,-23915.0,0.0,0.0,-0.0,0.0,0.25,0.41381831700000005,0.01,0.0,16663.0,0.0,0.0,0.0,0.0,0.125,3.280028961,0.01,0.0,-7976.0,0.0,0.0,-0.0,0.0,0.125,1.612548663,0.01,0.0,0.07000000029802322,-1.1699999570846558,0.0,-0.02056884765625,0.00262451171875,1.01580810546875,36.709999084472656,0.0,0.0,2.8280029296875,-2.522918701171875,Waiting,0.0,0.125,-1234795.0,0.0,0.0,0.0,0.0,0.0,
0.39089099999994503,0.0,0.0,6976.0,0.0,0.0,0.0,0.0,0.125,0.8007811680000001,0.01,0.0,-23915.0,0.0,0.0,-0.0,0.0,0.25,0.41381831700000005,0.01,0.0,16663.0,0.0,0.0,0.0,0.0,0.125,3.282470367,0.01,0.0,-7976.0,0.0,0.0,-0.0,0.0,0.125,1.6113279600000001,0.01,0.0,0.07000000029802322,-1.159999966621399,0.0,-0.0205078125,7.9345703125E-4,1.01531982421875,36.709999084472656,0.0,0.0,2.8280029296875,-2.522918701171875,Waiting,0.0,0.125,-1234795.0,0.0,0.0,0.0,0.0,0.0,
0.4520089999999618,0.0,0.0,6976.0,0.0,0.0,0.0,0.0,0.125,0.8007811680000001,0.01,0.0,-23915.0,0.0,0.0,-0.0,0.0,0.25,0.41381831700000005,0.01,0.0,16663.0,0.0,0.0,0.0,0.0,0.125,3.281249664,0.01,0.0,-7976.0,0.0,0.0,-0.0,0.0,0.125,1.6113279600000001,0.01,0.0,0.07000000029802322,-1.159999966621399,0.0,-0.02069091796875,0.00128173828125,1.0167236328125,36.709999084472656,0.0,0.0,2.8280029296875,-2.522918701171875,Waiting,0.0,0.0,-1234795.0,0.0,0.0,0.0,0.0,0.0,
0.5133189999999013,0.0,0.0,6976.0,0.0,0.0,0.0,0.0,0.125,0.799560465,0.01,0.0,-23915.0,0.0,0.0,-0.0,0.0,0.25,0.41381831700000005,0.01,0.0,16663.0,0.0,0.0,0.0,0.0,0.125,3.281249664,0.01,0.0,-7976.0,0.0,0.0,-0.0,0.0,0.125,1.6113279600000001,0.01,0.0,0.07000000029802322,-1.159999966621399,0.0,-0.0206298828125,0.00225830078125,1.01678466796875,36.709999084472656,0.0,0.0,2.8280029296875,-2.522918701171875,Waiting,0.0,0.125,-1234795.0,0.0,0.0,0.0,0.0,0.0,
0.5738659999999217,0.0,0.0,6976.0,0.0,0.0,0.0,0.0,0.125,0.8007811680000001,0.01,0.0,-23915.0,0.0,0.0,-0.0,0.0,0.25,0.41381831700000005,0.01,0.0,16663.0,0.0,0.0,0.0,0.0,0.125,3.281249664,0.01,0.0,-7976.0,0.0,0.0,-0.0,0.0,0.125,1.6113279600000001,0.01,0.0,0.07000000029802322,-1.1699999570846558,0.0,-0.01898193359375,0.0030517578125,1.02294921875,36.709999084472656,0.0,1.0,2.8280029296875,-2.522918701171875,Waiting,0.0,0.125,-1234795.0,0.0,0.0,0.0,0.0,0.0,
0.641247999999905,0.0,0.0,6976.0,0.0,0.0,0.0,0.0,0.125,0.8007811680000001,0.01,0.0,-23915.0,0.0,0.0,-0.0,0.0,0.25,0.41381831700000005,0.01,0.0,16663.0,0.0,0.0,0.0,0.0,0.125,3.281249664,0.01,0.0,-7976.0,0.0,0.0,-0.0,0.0,0.125,1.6113279600000001,0.01,0.0,0.07000000029802322,-1.159999966621399,0.0,-0.01922607421875,-3.662109375E-4,1.0162353515625,36.709999084472656,0.0,1.0,2.8280029296875,-2.522918701171875,Waiting,0.0,0.125,-1234795.0,0.0,0.0,0.0,0.0,0.0,
0.7051269999999786,0.0,0.0,6976.0,0.0,0.0,0.0,0.0,0.125,0.799560465,0.01,0.0,-23915.0,0.0,0.0,-0.0,0.0,0.25,0.41381831700000005,0.01,0.0,16663.0,0.0,0.0,0.0,0.0,0.125,3.281249664,0.01,0.0,-7976.0,0.0,0.0,-0.0,0.0,0.125,1.612548663,0.01,0.0,0.07000000029802322,-1.159999966621399,0.0,-0.021484375,0.00140380859375,1.020263671875,36.720001220703125,0.0,0.0,2.8280029296875,-2.522918701171875,Waiting,0.0,0.125,-1234795.0,0.0,0.0,0.0,0.0,0.0,
0.7654189999999944,0.0,0.0,6976.0,0.0,0.0,0.0,0.0,0.125,0.799560465,0.01,0.0,-23915.0,0.0,0.0,-0.0,0.0,0.25,0.41503902000000004,0.01,0.0,16663.0,0.0,0.0,0.0,0.0,0.125,3.280028961,0.01,0.0,-7976.0,0.0,0.0,-0.0,0.0,0.125,1.6113279600000001,0.01,0.0,0.07000000029802322,-1.159999966621399,0.0,-0.02496337890625,0.0015869140625,1.0189208984375,36.720001220703125,0.0,0.0,2.8280029296875,-2.522918701171875,Waiting,0.0,0.125,-1234795.0,0.0,0.0,0.0,0.0,0.0,
0.826777999999933,0.0,0.0,6976.0,0.0,0.0,0.0,0.0,0.125,0.799560465,0.01,0.0,-23915.0,0.0,0.0,-0.0,0.0,0.25,0.41381831700000005,0.01,0.0,16663.0,0.0,0.0,0.0,0.0,0.125,3.280028961,0.01,0.0,-7976.0,0.0,0.0,-0.0,0.0,0.125,1.6113279600000001,0.01,0.0,0.07000000029802322,-1.1699999570846558,0.0,-0.02105712890625,0.00347900390625,1.01690673828125,36.720001220703125,0.0,0.0,2.8280029296875,-2.522918701171875,Waiting,0.0,0.125,-1234795.0,0.0,0.0,0.0,0.0,0.0,
0.8904259999999776,0.0,0.0,6976.0,0.0,0.0,0.0,0.0,0.125,0.8007811680000001,0.01,0.0,-23915.0,0.0,0.0,-0.0,0.0,0.25,0.41381831700000005,0.01,0.0,16663.0,0.0,0.0,0.0,0.0,0.125,3.281249664,0.01,0.0,-7976.0,0.0,0.0,-0.0,0.0,0.125,1.6113279600000001,0.01,0.0,0.07000000029802322,-1.159999966621399,0.0,-0.02337646484375,7.9345703125E-4,1.01806640625,36.720001220703125,0.0,-2.0,2.8280029296875,-2.522918701171875,Waiting,0.0,0.0,-1234795.0,0.0,0.0,0.0,0.0,0.0,
0.9502949999999255,0.0,0.0,6976.0,0.0,0.0,0.0,0.0,0.125,0.799560465,0.01,0.0,-23915.0,0.0,0.0,-0.0,0.0,0.25,0.41503902000000004,0.01,0.0,16663.0,0.0,0.0,0.0,0.0,0.125,3.281249664,0.01,0.0,-7976.0,0.0,0.0,-0.0,0.0,0.125,1.612548663,0.01,0.0,0.07000000029802322,-1.159999966621399,-0.009999999776482582,-0.01995849609375,0.00360107421875,1.018798828125,36.720001220703125,0.0,0.0,2.8280029296875,-2.522918701171875,Waiting,0.0,0.125,-1234795.0,0.0,0.0,0.0,0.0,0.125,
1.0112579999999143,0.0,0.0,6976.0,0.0,0.0,0.0,0.0,0.125,0.8007811680000001,0.01,0.0,-23915.0,0.0,0.0,-0.0,0.0,0.25,0.412597614,0.01,0.0,16663.0,0.0,0.0,0.0,0.0,0.125,3.281249664,0.01,0.0,-7976.0,0.0,0.0,-0.0,0.0,0.125,1.6113279600000001,0.01,0.0,0.07000000029802322,-1.159999966621399,-0.009999999776482582,-0.01922607421875,8.544921875E-4,1.01788330078125,36.720001220703125,0.0,1.0,2.8280029296875,-2.522918701171875,Waiting,0.0,0.125,-1234795.0,0.0,0.0,0.0,0.0,0.0,
1.0718499999999767,0.0,0.0,6976.0,0.0,0.0,0.0,0.0,0.125,0.8007811680000001,0.01,0.0,-23915.0,0.0,0.0,-0.0,0.0,0.25,0.41381831700000005,0.01,0.0,16663.0,0.0,0.0,0.0,0.0,0.125,3.282470367,0.01,0.0,-7976.0,0.0,0.0,-0.0,0.0,0.125,1.6113279600000001,0.01,0.0,0.07000000029802322,-1.159999966621399,-0.009999999776482582,-0.02191162109375,0.002685546875,1.01397705078125,36.720001220703125,0.0,-1.0,2.8280029296875,-2.522918701171875,Waiting,0.0,0.125,-1234795.0,0.0,0.0,0.0,0.0,0.0,
1.134076999999932,0.0,0.0,6976.0,0.0,0.0,0.0,0.0,0.125,0.799560465,0.01,0.0,-23915.0,0.0,0.0,-0.0,0.0,0.25,0.41503902000000004,0.01,0.0,16663.0,0.0,0.0,0.0,0.0,0.125,3.281249664,0.01,0.0,-7976.0,0.0,0.0,-0.0,0.0,0.125,1.6113279600000001,0.01,0.0,0.07000000029802322,-1.159999966621399,-0.009999999776482582,-0.02069091796875,0.001708984375,1.01202392578125,36.720001220703125,0.0,0.0,2.8280029296875,-2.522918701171875,Waiting,0.0,0.0,-1234795.0,0.0,0.0,0.0,0.0,0.0,
1.1994389999998967,0.0,0.0,6976.0,0.0,0.0,0.0,0.0,0.125,0.799560465,0.01,0.0,-23915.0,0.0,0.0,-0.0,0.0,0.25,0.41503902000000004,0.01,0.0,16663.0,0.0,0.0,0.0,0.0,0.125,3.281249664,0.01,0.0,-7976.0,0.0,0.0,-0.0,0.0,0.125,1.6113279600000001,0.01,0.0,0.07000000029802322,-1.159999966621399,-0.009999999776482582,-0.02044677734375,0.0010986328125,1.01837158203125,36.72999954223633,0.0,0.0,2.8280029296875,-2.522918701171875,Waiting,0.0,0.0,-1234795.0,0.0,0.0,0.0,0.0,0.0,
1.2686509999999545,0.0,0.0,6976.0,0.0,0.0,0.0,0.0,0.125,0.8007811680000001,0.01,0.0,-23915.0,0.0,0.0,-0.0,0.0,0.25,0.41503902000000004,0.01,0.0,16663.0,0.0,0.0,0.0,0.0,0.125,3.281249664,0.01,0.0012207029999999897,-7976.0,0.0,0.0,-0.0,0.0,0.125,1.6113279600000001,0.01,0.0,0.07000000029802322,-1.159999966621399,-0.009999999776482582,-0.02001953125,0.00250244140625,1.0196533203125,36.72999954223633,0.0,0.0,2.8280029296875,-2.522918701171875,Waiting,0.0,0.0,-1234795.0,0.0,0.0,0.0,0.0,0.0,
1.3281169999999693,0.0,0.0,6976.0,0.0,0.0,0.0,0.0,0.125,0.8007811680000001,0.01,0.0,-23915.0,0.0,0.0,-0.0,0.0,0.25,0.41381831700000005,0.01,0.0,16663.0,0.0,0.0,0.0,0.0,0.125,3.281249664,0.01,-0.0012207029999999897,-7976.0,0.0,0.0,-0.0,0.0,0.125,1.6113279600000001,0.01,0.0,0.07000000029802322,-1.159999966621399,0.0,-0.020751953125,0.0010986328125,1.0145263671875,36.72999954223633,0.0,0.0,2.8280029296875,-2.522918701171875,Waiting,0.0,0.0,-1234795.0,0.0,0.0,0.0,0.0,0.0,
1.3929229999999515,0.0,0.0,6976.0,0.0,0.0,0.0,0.0,0.125,0.799560465,0.01,0.0,-23915.0,0.0,0.0,-0.0,0.0,0.25,0.41503902000000004,0.01,0.0,16663.0,0.0,0.0,0.0,0.0,0.125,3.281249664,0.01,0.0,-7976.0,0.0,0.0,-0.0,0.0,0.125,1.612548663,0.01,0.0,0.07000000029802322,-1.159999966621399,0.0,-0.021728515625,9.1552734375E-4,1.01904296875,36.72999954223633,0.0,-1.0,2.8280029296875,-2.522918701171875,Waiting,0.0,0.125,-1234795.0,0.0,0.0,0.0,0.0,0.0,
1.4541179999999003,0.0,0.0,6976.0,0.0,0.0,0.0,0.0,0.125,0.799560465,0.01,0.0,-23915.0,0.0,0.0,-0.0,0.0,0.25,0.41381831700000005,0.01,0.0,16663.0,0.0,0.0,0.0,0.0,0.125,3.282470367,0.01,0.0012207029999999897,-7976.0,0.0,0.0,-0.0,0.0,0.125,1.612548663,0.01,0.0,0.07000000029802322,-1.159999966621399,0.0,-0.01715087890625,9.765625E-4,1.0198974609375,36.72999954223633,0.0,3.0,2.8280029296875,-2.522918701171875,Waiting,0.0,0.125,-1234795.0,0.0,0.0,0.0,0.0,0.0,
1.5142989999999992,0.0,0.0,6976.0,0.0,0.0,0.0,0.0,0.125,0.798339762,0.01,0.0,-23915.0,0.0,0.0,-0.0,0.0,0.25,0.412597614,0.01,0.0,16663.0,0.0,0.0,0.0,0.0,0.125,3.281249664,0.01,-0.0012207029999999897,-7976.0,0.0,0.0,-0.0,0.0,0.125,1.6113279600000001,0.01,0.0,0.07000000029802322,-1.159999966621399,-0.009999999776482582,-0.02154541015625,0.00262451171875,1.0179443359375,36.72999954223633,0.0,0.0,2.8280029296875,-2.522918701171875,Waiting,0.0,0.125,-1234795.0,0.0,0.0,0.0,0.0,0.125,
1.5744919999999694,0.0,0.0,6976.0,0.0,0.0,0.0,0.0,0.125,0.8007811680000001,0.01,0.0,-23915.0,0.0,0.0,-0.0,0.0,0.25,0.41381831700000005,0.01,0.0,16663.0,0.0,0.0,0.0,0.0,0.125,3.281249664,0.01,0.0,-7976.0,0.0,0.0,-0.0,0.0,0.125,1.6113279600000001,0.01,0.0,0.07000000029802322,-1.159999966621399,0.0,-0.0224609375,0.0018310546875,1.01953125,36.72999954223633,0.0,-1.0,2.8280029296875,-2.522918701171875,Waiting,0.0,0.125,-1234795.0,0.0,0.0,0.0,0.0,0.0,
1.6406769999999087,0.0,0.0,6976.0,0.0,0.0,0.0,0.0,0.125,0.8007811680000001,0.01,0.0,-23915.0,0.0,0.0,-0.0,0.0,0.25,0.41503902000000004,0.01,0.0,16663.0,0.0,0.0,0.0,0.0,0.125,3.282470367,0.01,0.0,-7976.0,0.0,0.0,-0.0,0.0,0.125,1.612548663,0.01,0.0,0.07000000029802322,-1.159999966621399,-0.009999999776482582,-0.02197265625,0.00238037109375,1.01959228515625,36.72999954223633,0.0,-1.0,2.8280029296875,-2.522918701171875,Waiting,0.0,0.0,-1234795.0,0.0,0.0,0.0,0.0,0.0,
1.7026819999999134,0.0,0.0,6976.0,0.0,0.0,0.0,0.0,0.125,0.8007811680000001,0.01,0.0,-23915.0,0.0,0.0,-0.0,0.0,0.25,0.41381831700000005,0.01,0.0,16663.0,0.0,0.0,0.0,0.0,0.125,3.281249664,0.01,0.0,-7976.0,0.0,0.0,-0.0,0.0,0.125,1.6113279600000001,0.01,0.0,0.07000000029802322,-1.159999966621399,0.0,-0.017333984375,0.00579833984375,1.01702880859375,36.7400016784668,0.0,3.0,2.8280029296875,-2.522918701171875,Waiting,0.0,0.125,-1234795.0,0.0,0.0,0.0,0.0,0.0,
1.7661459999999498,0.0,0.0,6976.0,0.0,0.0,0.0,0.0,0.125,0.8007811680000001,0.01,0.0,-23915.0,0.0,0.0,-0.0,0.0,0.25,0.412597614,0.01,0.0,16663.0,0.0,0.0,0.0,0.0,0.125,3.282470367,0.01,0.0012207029999999897,-7976.0,0.0,0.0,-0.0,0.0,0.125,1.6113279600000001,0.01,0.0,0.07999999821186066,-1.149999976158142,0.0,-0.0184326171875,6.7138671875E-4,1.02130126953125,36.7400016784668,0.0,2.0,2.8280029296875,-2.522918701171875,Waiting,0.0,0.0,-1234795.0,0.0,0.0,0.0,0.0,0.0,
1.8271209999999265,0.0,0.0,6976.0,0.0,0.0,0.0,0.0,0.125,0.8007811680000001,0.01,0.0,-23915.0,0.0,0.0,-0.0,0.0,0.25,0.41381831700000005,0.01,0.0,16663.0,0.0,0.0,0.0,0.0,0.125,3.281249664,0.01,-0.0012207029999999897,-7976.0,0.0,0.0,-0.0,0.0,0.125,1.612548663,0.01,0.0,0.07000000029802322,-1.159999966621399,-0.009999999776482582,-0.02154541015625,0.00103759765625,1.01983642578125,36.7400016784668,0.0,0.0,2.8280029296875,-2.522918701171875,Waiting,0.0,0.0,-1234795.0,0.0,0.0,0.0,0.0,0.0,
1.8900079999999144,0.0,0.0,6976.0,0.0,0.0,0.0,0.0,0.125,0.799560465,0.01,0.0,-23915.0,0.0,0.0,-0.0,0.0,0.25,0.41381831700000005,0.01,0.0,16663.0,0.0,0.0,0.0,0.0,0.125,3.281249664,0.01,0.0,-7976.0,0.0,0.0,-0.0,0.0,0.125,1.6113279600000001,0.01,0.0,0.07000000029802322,-1.159999966621399,-0.009999999776482582,-0.01904296875,0.00213623046875,1.02099609375,36.7400016784668,0.0,1.0,2.8280029296875,-2.522918701171875,Waiting,0.0,0.0,-1234795.0,0.0,0.0,0.0,0.0,0.125,
1.9650209999999497,0.0,0.0,6976.0,0.0,0.0,0.0,0.0,0.125,0.8007811680000001,0.01,0.0,-23915.0,0.0,0.0,-0.0,0.0,0.25,0.41381831700000005,0.01,0.0,16663.0,0.0,0.0,0.0,0.0,0.125,3.281249664,0.01,0.0,-7976.0,0.0,0.0,-0.0,0.0,0.125,1.612548663,0.01,0.0,0.07000000029802322,-1.159999966621399,-0.009999999776482582,-0.02142333984375,-0.0025634765625,1.0225830078125,36.7400016784668,0.0,0.0,2.8280029296875,-2.522918701171875,Waiting,0.0,0.125,-1234795.0,0.0,0.0,0.0,0.0,0.0,
2.024798999999999,0.0,0.0,6976.0,0.0,0.0,0.0,0.0,0.125,0.8007811680000001,0.01,0.0,-23915.0,0.0,0.0,-0.0,0.0,0.25,0.41503902000000004,0.01,0.0,16663.0,0.0,0.0,0.0,0.0,0.125,3.281249664,0.01,0.0,-7976.0,0.0,0.0,-0.0,0.0,0.125,1.6113279600000001,0.01,0.0,0.07000000029802322,-1.159999966621399,-0.009999999776482582,-0.02423095703125,6.7138671875E-4,1.01806640625,36.7400016784668,0.0,-3.0,2.8280029296875,-2.522918701171875,Waiting,0.0,0.125,-1234795.0,0.0,0.0,0.0,0.0,0.0,
2.088018999999971,0.0,0.0,6976.0,0.0,0.0,0.0,0.0,0.125,0.8007811680000001,0.01,0.0,-23915.0,0.0,0.0,-0.0,0.0,0.25,0.41503902000000004,0.01,0.0,16663.0,0.0,0.0,0.0,0.0,0.125,3.281249664,0.01,0.0,-7976.0,0.0,0.0,-0.0,0.0,0.125,1.6113279600000001,0.01,0.0,0.07000000029802322,-1.1699999570846558,-0.009999999776482582,-0.02044677734375,0.00189208984375,1.0198974609375,36.7400016784668,0.0,0.0,2.8280029296875,-2.522918701171875,Waiting,0.0,0.0,-1234795.0,0.0,0.0,0.0,0.0,0.0,
2.1495050000000044,0.0,0.0,6976.0,0.0,0.0,0.0,0.0,0.125,0.799560465,0.01,0.0,-23915.0,0.0,0.0,-0.0,0.0,0.25,0.41381831700000005,0.01,0.0,16663.0,0.0,0.0,0.0,0.0,0.125,3.281249664,0.01,0.0,-7976.0,0.0,0.0,-0.0,0.0,0.125,1.6113279600000001,0.01,0.0,0.07000000029802322,-1.1699999570846558,-0.009999999776482582,-0.0234375,4.8828125E-4,1.01873779296875,36.7400016784668,0.0,-2.0,2.8280029296875,-2.522918701171875,Waiting,0.0,0.125,-1234795.0,0.0,0.0,0.0,0.0,0.0,
2.2105540000000037,0.0,0.0,6976.0,0.0,0.0,0.0,0.0,0.125,0.799560465,0.01,0.0,-23915.0,0.0,0.0,-0.0,0.0,0.25,0.41381831700000005,0.01,0.0,16663.0,0.0,0.0,0.0,0.0,0.125,3.281249664,0.01,0.0,-7976.0,0.0,0.0,-0.0,0.0,0.125,1.6113279600000001,0.01,0.0,0.07000000029802322,-1.1699999570846558,0.0,-0.0196533203125,0.0032958984375,1.02215576171875,36.709999084472656,0.0,1.0,2.8280029296875,-2.522918701171875,Waiting,0.0,0.0,-1234795.0,0.0,0.0,0.0,0.0,0.0,
2.2716080000000076,0.0,0.0,6976.0,0.0,0.0,0.0,0.0,0.125,0.799560465,0.01,0.0,-23915.0,0.0,0.0,-0.0,0.0,0.25,0.41381831700000005,0.01,0.0,16663.0,0.0,0.0,0.0,0.0,0.125,3.281249664,0.01,0.0,-7976.0,0.0,0.0,-0.0,0.0,0.125,1.612548663,0.01,0.0,0.07000000029802322,-1.1699999570846558,0.0,-0.0179443359375,0.0013427734375,1.02239990234375,36.709999084472656,0.0,2.0,2.8280029296875,-2.522918701171875,Waiting,0.0,0.0,-1234795.0,0.0,0.0,0.0,0.0,0.0,
2.332701000000001,0.0,0.0,6976.0,0.0,0.0,0.0,0.0,0.125,0.799560465,0.01,0.0,-23915.0,0.0,0.0,-0.0,0.0,0.25,0.41381831700000005,0.01,0.0,16663.0,0.0,0.0,0.0,0.0,0.125,3.281249664,0.01,0.0,-7976.0,0.0,0.0,-0.0,0.0,0.125,1.6113279600000001,0.01,0.0,0.07000000029802322,-1.1699999570846558,0.0,-0.02044677734375,-0.0023193359375,1.02105712890625,36.709999084472656,0.0,0.0,2.8280029296875,-2.522918701171875,Waiting,0.0,0.125,-1234795.0,0.0,0.0,0.0,0.0,0.125,
2.3969639999999197,0.0,0.0,6976.0,0.0,0.0,0.0,0.0,0.125,0.799560465,0.01,0.0,-23915.0,0.0,0.0,-0.0,0.0,0.25,0.41503902000000004,0.01,0.0,16663.0,0.0,0.0,0.0,0.0,0.125,3.281249664,0.01,0.0,-7976.0,0.0,0.0,-0.0,0.0,0.125,1.6113279600000001,0.01,0.0,0.07000000029802322,-1.1699999570846558,0.0,-0.0208740234375,0.001953125,1.0186767578125,36.709999084472656,0.0,0.0,2.8280029296875,-2.522918701171875,Waiting,0.0,0.0,-1234795.0,0.0,0.0,0.0,0.0,0.0,
2.4607829999999375,0.0,0.0,6976.0,0.0,0.0,0.0,0.0,0.125,0.799560465,0.01,0.0,-23915.0,0.0,0.0,-0.0,0.0,0.25,0.41381831700000005,0.01,0.0,16663.0,0.0,0.0,0.0,0.0,0.125,3.281249664,0.01,0.0,-7976.0,0.0,0.0,-0.0,0.0,0.125,1.612548663,0.01,0.0,0.07000000029802322,-1.1699999570846558,0.0,-0.0218505859375,-2.44140625E-4,1.01971435546875,36.709999084472656,0.0,-1.0,2.8280029296875,-2.522918701171875,Waiting,0.0,0.0,-1234795.0,0.0,0.0,0.0,0.0,0.0,
2.5237689999999713,0.0,0.0,6976.0,0.0,0.0,0.0,0.0,0.125,0.8007811680000001,0.01,0.0,-23915.0,0.0,0.0,-0.0,0.0,0.25,0.41381831700000005,0.01,0.0,16663.0,0.0,0.0,0.0,0.0,0.125,3.281249664,0.01,0.0,-7976.0,0.0,0.0,-0.0,0.0,0.125,1.6113279600000001,0.01,0.0,0.05999999865889549,-1.1699999570846558,0.0,-0.02264404296875,6.7138671875E-4,1.01824951171875,36.709999084472656,0.0,-1.0,2.8280029296875,-2.522918701171875,Waiting,0.0,0.125,-1234795.0,0.0,0.0,0.0,0.0,0.0,
2.589304000000004,0.0,0.0,6976.0,0.0,0.0,0.0,0.0,0.125,0.799560465,0.01,0.0,-23915.0,0.0,0.0,-0.0,0.0,0.25,0.41381831700000005,0.01,0.0,16663.0,0.0,0.0,0.0,0.0,0.125,3.280028961,0.01,0.0,-7976.0,0.0,0.0,-0.0,0.0,0.125,1.6113279600000001,0.01,0.0,0.05999999865889549,-1.1699999570846558,-0.009999999776482582,-0.02197265625,0.004150390625,1.0185546875,36.709999084472656,0.0,-1.0,2.8280029296875,-2.522918701171875,Waiting,0.0,0.125,-1234795.0,0.0,0.0,0.0,0.0,0.0,
2.650508999999962,0.0,0.0,6976.0,0.0,0.0,0.0,0.0,0.125,0.8007811680000001,0.01,0.0,-23915.0,0.0,0.0,-0.0,0.0,0.25,0.41381831700000005,0.01,0.0,16663.0,0.0,0.0,0.0,0.0,0.125,3.282470367,0.01,0.0,-7976.0,0.0,0.0,-0.0,0.0,0.125,1.6113279600000001,0.01,0.0,0.07000000029802322,-1.1699999570846558,-0.009999999776482582,-0.0218505859375,4.2724609375E-4,1.020263671875,36.709999084472656,0.0,0.0,2.8280029296875,-2.522918701171875,Waiting,0.0,0.125,-1234795.0,0.0,0.0,0.0,0.0,0.0,
2.7105209999999498,0.0,0.0,6976.0,0.0,0.0,0.0,0.0,0.125,0.8007811680000001,0.01,0.0,-23915.0,0.0,0.0,-0.0,0.0,0.25,0.41381831700000005,0.01,0.0,16663.0,0.0,0.0,0.0,0.0,0.125,3.280028961,0.01,0.0,-7976.0,0.0,0.0,-0.0,0.0,0.125,1.6113279600000001,0.01,0.0,0.07000000029802322,-1.1699999570846558,-0.009999999776482582,-0.0206298828125,-1.220703125E-4,1.01666259765625,36.72999954223633,0.0,0.0,2.8280029296875,-2.522918701171875,Waiting,0.0,0.0,-1234795.0,0.0,0.0,0.0,0.0,0.0,
2.7714499999999536,0.0,0.0,6976.0,0.0,0.0,0.0,0.0,0.125,0.8007811680000001,0.01,0.0,-23915.0,0.0,0.0,-0.0,0.0,0.25,0.41381831700000005,0.01,0.0,16663.0,0.0,0.0,0.0,0.0,0.125,3.281249664,0.01,0.0,-7976.0,0.0,0.0,-0.0,0.0,0.125,1.612548663,0.01,0.0,0.07000000029802322,-1.1799999475479126,0.0,-0.02142333984375,-9.1552734375E-4,1.0147705078125,36.72999954223633,0.0,0.0,2.8280029296875,-2.522918701171875,Waiting,0.0,0.125,-1234795.0,0.0,0.0,0.0,0.0,0.125,
2.834146999999997,0.0,0.0,6976.0,0.0,0.0,0.0,0.0,0.125,0.799560465,0.01,0.0,-23915.0,0.0,0.0,-0.0,0.0,0.25,0.41503902000000004,0.01,0.0,16663.0,0.0,0.0,0.0,0.0,0.125,3.281249664,0.01,0.0,-7976.0,0.0,0.0,-0.0,0.0,0.125,1.6113279600000001,0.01,0.0,0.07000000029802322,-1.1799999475479126,0.0,-0.02386474609375,-0.0013427734375,1.02325439453125,36.72999954223633,0.0,-2.0,2.8280029296875,-2.522918701171875,Waiting,0.0,0.125,-1234795.0,0.0,0.0,0.0,0.0,0.0,
2.897966999999946,0.0,0.0,6976.0,0.0,0.0,0.0,0.0,0.125,0.8007811680000001,0.01,0.0,-23915.0,0.0,0.0,-0.0,0.0,0.25,0.41503902000000004,0.01,0.0,16663.0,0.0,0.0,0.0,0.0,0.125,3.281249664,0.01,0.0,-7976.0,0.0,0.0,-0.0,0.0,0.125,1.6113279600000001,0.01,0.0,0.07000000029802322,-1.190000057220459,0.0,-0.0194091796875,0.00238037109375,1.02294921875,36.72999954223633,0.0,1.0,2.8280029296875,-2.522918701171875,Waiting,0.0,0.0,-1234795.0,0.0,0.0,0.0,0.0,0.0,
2.9610169999999925,0.0,0.0,6976.0,0.0,0.0,0.0,0.0,0.125,0.799560465,0.01,0.0,-23915.0,0.0,0.0,-0.0,0.0,0.25,0.41381831700000005,0.01,0.0,16663.0,0.0,0.0,0.0,0.0,0.125,3.280028961,0.01,0.0,-7976.0,0.0,0.0,-0.0,0.0,0.125,1.6113279600000001,0.01,0.0,0.07999999821186066,-1.190000057220459,-0.009999999776482582,-0.01849365234375,0.0018310546875,1.014404296875,36.72999954223633,0.0,2.0,2.8280029296875,-2.522918701171875,Waiting,0.0,0.0,-1234795.0,0.0,0.0,0.0,0.0,0.0,
3.025676999999909,0.0,0.0,6976.0,0.0,0.0,0.0,0.0,0.125,0.8007811680000001,0.01,0.0,-23915.0,0.0,0.0,-0.0,0.0,0.25,0.41503902000000004,0.01,0.0,16663.0,0.0,0.0,0.0,0.0,0.125,3.280028961,0.01,0.0,-7976.0,0.0,0.0,-0.0,0.0,0.125,1.6113279600000001,0.01,0.0,0.07999999821186066,-1.190000057220459,-0.009999999776482582,-0.021484375,6.103515625E-4,1.01934814453125,36.72999954223633,0.0,0.0,2.8280029296875,-2.522918701171875,Waiting,0.0,0.125,-1234795.0,0.0,0.0,0.0,0.0,0.0,
3.089100999999908,0.0,0.0,6976.0,0.0,0.0,0.0,0.0,0.125,0.8007811680000001,0.01,0.0,-23915.0,0.0,0.0,-0.0,0.0,0.25,0.41503902000000004,0.01,0.0,16663.0,0.0,0.0,0.0,0.0,0.125,3.280028961,0.01,0.0,-7976.0,0.0,0.0,-0.0,0.0,0.125,1.6113279600000001,0.01,0.0,0.07999999821186066,-1.1799999475479126,-0.009999999776482582,-0.0205078125,5.4931640625E-4,1.01904296875,36.72999954223633,0.0,0.0,2.8280029296875,-2.522918701171875,Waiting,0.0,0.0,-1234795.0,0.0,0.0,0.0,0.0,0.0,
3.1493839999999618,0.0,0.0,6976.0,0.0,0.0,0.0,0.0,0.125,0.8007811680000001,0.01,0.0,-23915.0,0.0,0.0,-0.0,0.0,0.25,0.41381831700000005,0.01,0.0,16663.0,0.0,0.0,0.0,0.0,0.125,3.281249664,0.01,0.0,-7976.0,0.0,0.0,-0.0,0.0,0.125,1.6113279600000001,0.01,0.0,0.07999999821186066,-1.1799999475479126,-0.009999999776482582,-0.0206298828125,0.00274658203125,1.01904296875,36.72999954223633,0.0,0.0,2.8280029296875,-2.522918701171875,Waiting,0.0,0.125,-1234795.0,0.0,0.0,0.0,0.0,0.0,
3.2111359999999403,0.0,0.0,6976.0,0.0,0.0,0.0,0.0,0.125,0.8007811680000001,0.01,0.0,-23915.0,0.0,0.0,-0.0,0.0,0.25,0.41381831700000005,0.01,0.0,16663.0,0.0,0.0,0.0,0.0,0.125,3.280028961,0.01,0.0,-7976.0,0.0,0.0,-0.0,0.0,0.125,1.6113279600000001,0.01,0.0,0.07999999821186066,-1.1799999475479126,-0.009999999776482582,-0.02130126953125,0.00164794921875,1.02081298828125,36.720001220703125,0.0,0.0,2.8280029296875,-2.522918701171875,Waiting,0.0,0.0,-1234795.0,0.0,0.0,0.0,0.0,0.0,
3.2742309999999124,0.0,0.0,6976.0,0.0,0.0,0.0,0.0,0.125,0.8007811680000001,0.01,0.0,-23915.0,0.0,0.0,-0.0,0.0,0.25,0.41381831700000005,0.01,0.0,16663.0,0.0,0.0,0.0,0.0,0.125,3.281249664,0.01,0.0,-7976.0,0.0,0.0,-0.0,0.0,0.125,1.612548663,0.01,0.0,0.07999999821186066,-1.1699999570846558,0.0,-0.02191162109375,0.00201416015625,1.0213623046875,36.720001220703125,0.0,0.0,2.8280029296875,-2.522918701171875,Waiting,0.0,0.125,-1234795.0,0.0,0.0,0.0,0.0,0.125,
3.3406039999999337,0.0,0.0,6976.0,0.0,0.0,0.0,0.0,0.125,0.799560465,0.01,0.0,-23915.0,0.0,0.0,-0.0,0.0,0.25,0.41503902000000004,0.01,0.0,16663.0,0.0,0.0,0.0,0.0,0.125,3.281249664,0.01,0.0,-7976.0,0.0,0.0,-0.0,0.0,0.125,1.6113279600000001,0.01,0.0,0.07999999821186066,-1.1699999570846558,0.0,-0.0230712890625,0.0015869140625,1.01849365234375,36.720001220703125,0.0,-2.0,2.8280029296875,-2.522918701171875,Waiting,0.0,0.0,-1234795.0,0.0,0.0,0.0,0.0,0.0,
3.4058359999998937,0.0,0.0,6976.0,0.0,0.0,0.0,0.0,0.125,0.8007811680000001,0.01,0.0,-23915.0,0.0,0.0,-0.0,0.0,0.25,0.41381831700000005,0.01,0.0,16663.0,0.0,0.0,0.0,0.0,0.125,3.282470367,0.01,0.0,-7976.0,0.0,0.0,-0.0,0.0,0.125,1.6113279600000001,0.01,0.0,0.07999999821186066,-1.1799999475479126,0.0,-0.02252197265625,0.00164794921875,1.0164794921875,36.720001220703125,0.0,-1.0,2.8280029296875,-2.522918701171875,Waiting,0.0,0.0,-1234795.0,0.0,0.0,0.0,0.0,0.0,
3.4658139999998965,0.0,0.0,6976.0,0.0,0.0,0.0,0.0,0.125,0.8007811680000001,0.01,0.0,-23915.0,0.0,0.0,-0.0,0.0,0.25,0.41503902000000004,0.01,0.0,16663.0,0.0,0.0,0.0,0.0,0.125,3.281249664,0.01,0.0012207029999999897,-7976.0,0.0,0.0,-0.0,0.0,0.125,1.6113279600000001,0.01,0.0,0.07999999821186066,-1.1799999475479126,-0.009999999776482582,-0.02325439453125,-2.44140625E-4,1.017333984375,36.720001220703125,0.0,-2.0,2.8280029296875,-2.522918701171875,Waiting,0.0,0.125,-1234795.0,0.0,0.0,0.0,0.0,0.0,
3.5303869999999877,0.0,0.0,6976.0,0.0,0.0,0.0,0.0,0.125,0.8007811680000001,0.01,0.0,-23915.0,0.0,0.0,-0.0,0.0,0.25,0.41381831700000005,0.01,0.0,16663.0,0.0,0.0,0.0,0.0,0.125,3.280028961,0.01,-0.0012207029999999897,-7976.0,0.0,0.0,-0.0,0.0,0.125,1.6113279600000001,0.01,0.0,0.07999999821186066,-1.1799999475479126,-0.009999999776482582,-0.0228271484375,4.8828125E-4,1.02099609375,36.720001220703125,0.0,-1.0,2.8280029296875,-2.522918701171875,Waiting,0.0,0.0,-1234795.0,0.0,0.0,0.0,0.0,0.0,
3.5973649999999906,0.0,0.0,6976.0,0.0,0.0,0.0,0.0,0.125,0.799560465,0.01,0.0,-23915.0,0.0,0.0,-0.0,0.0,0.25,0.41381831700000005,0.01,0.0,16663.0,0.0,0.0,0.0,0.0,0.125,3.281249664,0.01,0.0,-7976.0,0.0,0.0,-0.0,0.0,0.125,1.612548663,0.01,0.0,0.07000000029802322,-1.1799999475479126,-0.009999999776482582,-0.021240234375,0.00177001953125,1.01885986328125,36.720001220703125,0.0,0.0,2.8280029296875,-2.522918701171875,Waiting,0.0,0.0,-1234795.0,0.0,0.0,0.0,0.0,0.0,
3.666586999999941,0.0,0.0,6976.0,0.0,0.0,0.0,0.0,0.125,0.8007811680000001,0.01,0.0,-23915.0,0.0,0.0,-0.0,0.0,0.25,0.41503902000000004,0.01,0.0,16663.0,0.0,0.0,0.0,0.0,0.125,3.282470367,0.01,0.0012207029999999897,-7976.0,0.0,0.0,-0.0,0.0,0.125,1.6113279600000001,0.01,0.0,0.07000000029802322,-1.1799999475479126,-0.009999999776482582,-0.021484375,-0.003173828125,1.01934814453125,36.720001220703125,0.0,0.0,2.8280029296875,-2.522918701171875,Waiting,0.0,0.125,-1234795.0,0.0,0.0,0.0,0.0,0.0,
3.728798999999999,0.0,0.0,6976.0,0.0,0.0,0.0,0.0,0.125,0.8007811680000001,0.01,0.0,-23915.0,0.0,0.0,-0.0,0.0,0.25,0.412597614,0.01,0.0,16663.0,0.0,0.0,0.0,0.0,0.125,3.281249664,0.01,-0.0012207029999999897,-7976.0,0.0,0.0,-0.0,0.0,0.125,1.6113279600000001,0.01,0.0,0.07000000029802322,-1.1799999475479126,-0.009999999776482582,-0.0223388671875,0.00189208984375,1.02008056640625,36.709999084472656,0.0,-1.0,2.8280029296875,-2.522918701171875,Waiting,0.0,0.125,-1234795.0,0.0,0.0,0.0,0.0,0.0,
3.807191999999923,0.0,0.0,6976.0,0.0,0.0,0.0,0.0,0.125,0.799560465,0.01,0.0,-23915.0,0.0,0.0,-0.0,0.0,0.25,0.41381831700000005,0.01,0.0,16663.0,0.0,0.0,0.0,0.0,0.125,3.281249664,0.01,0.0,-7976.0,0.0,0.0,-0.0,0.0,0.125,1.6113279600000001,0.01,0.0,0.07000000029802322,-1.1699999570846558,-0.009999999776482582,-0.0201416015625,0.0023193359375,1.0225830078125,36.709999084472656,0.0,0.0,2.8280029296875,-2.522918701171875,Waiting,0.0,0.125,-1234795.0,0.0,0.0,0.0,0.0,0.0,
3.870386999999988,0.0,0.0,6976.0,0.0,0.0,0.0,0.0,0.125,0.8007811680000001,0.01,0.0,-23915.0,0.0,0.0,-0.0,0.0,0.25,0.41381831700000005,0.01,0.0,16663.0,0.0,0.0,0.0,0.0,0.125,3.281249664,0.01,0.0,-7976.0,0.0,0.0,-0.0,0.0,0.125,1.612548663,0.01,0.0,0.07000000029802322,-1.1699999570846558,-0.009999999776482582,-0.02081298828125,1.220703125E-4,1.01947021484375,36.709999084472656,0.0,0.0,2.8280029296875,-2.522918701171875,Waiting,0.0,0.125,-1234795.0,0.0,0.0,0.0,0.0,0.0,
3.933920999999973,0.0,0.0,6976.0,0.0,0.0,0.0,0.0,0.125,0.799560465,0.01,0.0,-23915.0,0.0,0.0,-0.0,0.0,0.25,0.41381831700000005,0.01,0.0,16663.0,0.0,0.0,0.0,0.0,0.125,3.281249664,0.01,0.0,-7976.0,0.0,0.0,-0.0,0.0,0.125,1.6113279600000001,0.01,0.0,0.07000000029802322,-1.1699999570846558,-0.009999999776482582,-0.0242919921875,0.00262451171875,1.0150146484375,36.709999084472656,0.0,-3.0,2.8280029296875,-2.522918701171875,Waiting,0.0,0.125,-1234795.0,0.0,0.0,0.0,0.0,0.0,
3.999024999999907,0.0,0.0,6976.0,0.0,0.0,0.0,0.0,0.125,0.8007811680000001,0.01,0.0,-23915.0,0.0,0.0,-0.0,0.0,0.25,0.41381831700000005,0.01,0.0,16663.0,0.0,0.0,0.0,0.0,0.125,3.282470367,0.01,0.0,-7976.0,0.0,0.0,-0.0,0.0,0.125,1.612548663,0.01,0.0,0.07000000029802322,-1.1799999475479126,-0.009999999776482582,-0.02227783203125,0.00201416015625,1.0211181640625,36.709999084472656,0.0,-1.0,2.8280029296875,-2.522918701171875,Waiting,0.0,0.125,-1234795.0,0.0,0.0,0.0,0.0,0.0,
4.064228000000003,0.0,0.0,6976.0,0.0,0.0,0.0,0.0,0.125,0.799560465,0.01,0.0,-23915.0,0.0,0.0,-0.0,0.0,0.25,0.41381831700000005,0.01,0.0,16663.0,0.0,0.0,0.0,0.0,0.125,3.281249664,0.01,0.0,-7976.0,0.0,0.0,-0.0,0.0,0.125,1.6113279600000001,0.01,0.0,0.07000000029802322,-1.1799999475479126,-0.009999999776482582,-0.017333984375,0.00115966796875,1.02142333984375,36.709999084472656,0.0,3.0,2.8280029296875,-2.522918701171875,Waiting,0.0,0.0,-1234795.0,0.0,0.0,0.0,0.0,0.125,
4.128069999999949,0.0,0.0,6976.0,0.0,0.0,0.0,0.0,0.125,0.8007811680000001,0.01,0.0,-23915.0,0.0,0.0,-0.0,0.0,0.25,0.41381831700000005,0.01,0.0,16663.0,0.0,0.0,0.0,0.0,0.125,3.281249664,0.01,0.0,-7976.0,0.0,0.0,-0.0,0.0,0.125,1.6113279600000001,0.01,0.0,0.07000000029802322,-1.1799999475479126,-0.009999999776482582,-0.02264404296875,0.0025634765625,1.0140380859375,36.709999084472656,0.0,-1.0,2.8280029296875,-2.522918701171875,Waiting,0.0,0.0,-1234795.0,0.0,0.0,0.0,0.0,0.125,
4.193717999999993,0.0,0.0,6976.0,0.0,0.0,0.0,0.0,0.125,0.8007811680000001,0.01,0.0,-23915.0,0.0,0.0,-0.0,0.0,0.25,0.41381831700000005,0.01,0.0,16663.0,0.0,0.0,0.0,0.0,0.125,3.281249664,0.01,0.0,-7976.0,0.0,0.0,-0.0,0.0,0.125,1.6113279600000001,0.01,0.0,0.07000000029802322,-1.1799999475479126,-0.009999999776482582,-0.01971435546875,0.00115966796875,1.01959228515625,36.709999084472656,0.0,1.0,2.8280029296875,-2.522918701171875,Waiting,0.0,0.0,-1234795.0,0.0,0.0,0.0,0.0,0.0,
4.262283999999985,0.0,0.0,6976.0,0.0,0.0,0.0,0.0,0.125,0.8007811680000001,0.01,0.0,-23915.0,0.0,0.0,-0.0,0.0,0.25,0.41381831700000005,0.01,0.0,16663.0,0.0,0.0,0.0,0.0,0.125,3.281249664,0.01,0.0,-7976.0,0.0,0.0,-0.0,0.0,0.125,1.6113279600000001,0.01,0.0,0.07000000029802322,-1.1799999475479126,-0.009999999776482582,-0.0205078125,9.765625E-4,1.02044677734375,36.709999084472656,0.0,0.0,2.8280029296875,-2.522918701171875,Waiting,0.0,0.0,-1234795.0,0.0,0.0,0.0,0.0,0.0,
4.328158999999985,0.0,0.0,6976.0,0.0,0.0,0.0,0.0,0.125,0.799560465,0.01,0.0,-23915.0,0.0,0.0,-0.0,0.0,0.25,0.41381831700000005,0.01,0.0,16663.0,0.0,0.0,0.0,0.0,0.125,3.281249664,0.01,0.0,-7976.0,0.0,0.0,-0.0,0.0,0.125,1.612548663,0.01,0.0,0.07000000029802322,-1.1799999475479126,-0.009999999776482582,-0.02325439453125,-0.00262451171875,1.0179443359375,36.709999084472656,0.0,-2.0,2.8280029296875,-2.522918701171875,Waiting,0.0,0.0,-1234795.0,0.0,0.0,0.0,0.0,0.0,
4.394798999999999,0.0,0.0,6976.0,0.0,0.0,0.0,0.0,0.125,0.799560465,0.01,0.0,-23915.0,0.0,0.0,-0.0,0.0,0.25,0.41381831700000005,0.01,0.0,16663.0,0.0,0.0,0.0,0.0,0.125,3.281249664,0.01,0.0,-7976.0,0.0,0.0,-0.0,0.0,0.125,1.612548663,0.01,0.0,0.07999999821186066,-1.190000057220459,-0.009999999776482582,-0.00994873046875,0.00885009765625,1.05963134765625,36.709999084472656,0.0,12.0,2.8280029296875,-2.522918701171875,Waiting,-11.100000000000001,50.5,-1234797.0,0.0,-7.5,-1650.0,0.0,0.0,
4.4660669999999225,0.0,0.0,6976.0,0.0,0.0,0.0,0.0,0.125,0.8007811680000001,0.01,0.0,-23915.0,0.0,0.0,-0.0,0.0,0.25,0.412597614,0.01,0.0,16663.0,0.0,0.0,0.0,0.0,0.125,3.282470367,0.01,-0.0012207029999999897,-7976.0,0.0,0.0,-0.0,0.0,0.125,1.6113279600000001,0.01,0.0,0.09000000357627869,-1.1699999570846558,-0.009999999776482582,-0.01837158203125,-0.0072021484375,1.0806884765625,36.709999084472656,0.0,3.0,2.8280029296875,-2.5228424072265625,Waiting,-11.100000000000001,68.375,-1234797.0,0.0,-105.0,-1650.0,0.0,0.125,
4.529853999999934,0.0,0.0,6976.0,0.0,0.0,0.0,0.0,0.125,0.8007811680000001,0.01,0.0,-23915.0,0.0,0.0,-0.0,0.0,0.25,0.41381831700000005,0.01,0.0,16663.0,0.0,0.0,0.0,0.0,0.125,3.281249664,0.01,0.0,-7976.0,0.0,0.0,-0.0,0.0,0.125,1.6113279600000001,0.01,0.0,0.10999999940395355,-1.1399999856948853,-0.009999999776482582,-0.035888671875,-0.010498046875,1.00811767578125,36.709999084472656,0.0,-15.0,2.8280029296875,-2.5227813720703125,Waiting,-10.05,65.625,-1234839.0,-26.0,-300.0,-1650.0,0.0,0.0,
4.593831000000006,0.0,0.0,6976.0,0.0,0.0,0.0,0.0,0.125,0.8007811680000001,0.01,0.0,-23915.0,0.0,0.0,-0.0,0.0,0.25,0.41503902000000004,0.01,0.0,16663.0,0.0,0.0,0.0,0.0,0.125,3.281249664,0.01,0.0,-7976.0,0.0,0.0,-0.0,0.0,0.125,1.612548663,0.01,0.0,0.09000000357627869,-1.1399999856948853,-0.009999999776482582,-0.0255126953125,0.0400390625,0.98321533203125,36.709999084472656,0.0,-5.0,2.827911376953125,-2.52294921875,Waiting,-10.05,62.625,-1234839.0,-26.0,-562.5,-1650.0,0.0,0.0,
4.664736999999965,0.0,0.0,6976.0,0.0,0.0,0.0,0.0,0.125,0.8007811680000001,0.01,0.0,-23915.0,0.0,0.0,-0.0,0.0,0.25,0.41381831700000005,0.01,0.0,16663.0,0.0,0.0,0.0,0.0,0.125,3.281249664,0.01,0.0,-7976.0,0.0,0.0,-0.0,0.0,0.125,1.6113279600000001,0.01,0.0,0.11999999731779099,-1.1299999952316284,-0.009999999776482582,0.0048828125,-0.0084228515625,1.0235595703125,36.709999084472656,0.0,25.0,2.828216552734375,-2.522796630859375,Waiting,-10.100000000000001,59.75,-1234941.0,-76.0,-750.0,-1650.0,0.0,0.0,
4.7292249999999765,0.0,0.0,6976.0,0.0,0.0,0.0,0.0,0.125,0.8007811680000001,0.01,0.0,-23915.0,0.0,0.0,-0.0,0.0,0.25,0.41381831700000005,0.01,0.0,16663.0,0.0,0.0,0.0,0.0,0.125,3.280028961,0.01,0.0,-7976.0,0.0,0.0,-0.0,0.0,0.125,1.6113279600000001,0.01,0.0,0.10999999940395355,-1.1399999856948853,-0.009999999776482582,-0.00921630859375,0.00982666015625,1.0325927734375,36.709999084472656,0.0,11.0,2.828704833984375,-2.522918701171875,Waiting,-10.25,57.125,-1235097.0,-122.0,-922.5,-1650.0,0.0,0.0,
4.795849999999977,0.0,0.0,6976.0,0.0,0.0,0.0,0.0,0.125,0.799560465,0.01,0.0,-23915.0,0.0,0.0,-0.0,0.0,0.25,0.41381831700000005,0.01,0.0,16663.0,0.0,0.0,0.0,0.0,0.125,3.281249664,0.01,0.0,-7976.0,0.0,0.0,-0.0,0.0,0.125,1.6113279600000001,0.01,0.0,0.14000000059604645,-1.1200000047683716,-0.009999999776482582,-0.0072021484375,-0.10504150390625,1.15655517578125,36.7400016784668,0.0,15.0,2.82928466796875,-2.5229949951171875,Waiting,-10.25,55.25,-1235097.0,-122.0,-1087.5,-1650.0,0.0,0.125,
4.867618999999948,0.0,0.0,6976.0,0.0,0.0,0.0,0.0,0.125,0.8007811680000001,0.01,0.0,-23915.0,0.0,0.0,-0.0,0.0,0.25,0.41381831700000005,0.01,0.0,16663.0,0.0,0.0,0.0,0.0,0.125,3.281249664,0.01,0.0012207029999999897,-7976.0,0.0,0.0,-0.0,0.0,0.125,1.612548663,0.01,0.0,0.11999999731779099,-1.1399999856948853,-0.009999999776482582,0.0284423828125,0.002197265625,1.12469482421875,36.7400016784668,0.0,50.0,2.82977294921875,-2.524078369140625,Waiting,-10.350000000000001,52.375,-1235302.0,-163.0,-1297.5,-1650.0,0.0,0.125,
4.933561999999918,0.0,0.0,6976.0,0.0,0.0,0.0,0.0,0.125,0.799560465,0.01,0.0,-23915.0,0.0,0.0,-0.0,0.0,0.25,0.41381831700000005,0.01,0.0,16663.0,0.0,0.0,0.0,0.0,0.125,3.281249664,0.01,-0.0012207029999999897,-7976.0,0.0,0.0,-0.0,0.0,0.125,1.6101072570000001,0.01,0.0,0.1599999964237213,-1.0700000524520874,-0.009999999776482582,-0.0146484375,-0.02740478515625,1.0830078125,36.7400016784668,0.0,5.0,2.830413818359375,-2.5242156982421875,Waiting,-10.350000000000001,49.375,-1235302.0,-163.0,-1440.0,-1650.0,0.0,0.0,
5.008191999999923,0.0,0.0,6976.0,0.0,0.0,0.0,0.0,0.125,0.799560465,0.01,0.0,-23915.0,0.0,0.0,-0.0,0.0,0.25,0.41381831700000005,0.01,0.0,16663.0,0.0,0.0,0.0,0.0,0.125,3.280028961,0.01,0.0,-7976.0,0.0,0.0,-0.0,0.0,0.125,1.6113279600000001,0.01,0.0,0.18000000715255737,-1.0299999713897705,-0.019999999552965164,-0.0020751953125,0.0177001953125,1.13336181640625,36.7400016784668,0.0,18.0,2.8314208984375,-2.5236053466796875,Waiting,-9.171700879765396,39.75,-1235550.0,-200.0,-1575.0,-1650.0,0.0,0.125,
5.074302999999956,0.0,0.0,6976.0,0.0,0.0,0.0,0.0,0.125,0.8007811680000001,0.01,0.0,-23915.0,0.0,0.0,-0.0,0.0,0.25,0.41381831700000005,0.01,0.0,16663.0,0.0,0.0,0.0,0.0,0.125,3.281249664,0.01,0.0,-7976.0,0.0,0.0,-0.0,0.0,0.125,1.6113279600000001,0.01,0.0,0.25,-0.9399999976158142,-0.019999999552965164,-0.0477294921875,0.11212158203125,0.97332763671875,36.7400016784668,0.0,-31.0,2.8325653076171875,-2.5218658447265625,Waiting,-7.3810850439882705,24.375,-1235550.0,-200.0,-1687.5,-1650.0,0.0,0.0,
5.140792999999947,0.0,0.0,6976.0,0.0,0.0,0.0,0.0,0.125,0.799560465,0.01,0.0,-23915.0,0.0,0.0,-0.0,0.0,0.25,0.41503902000000004,0.01,0.0,16663.0,0.0,0.0,0.0,0.0,0.125,3.276366852,0.01,0.0,-7976.0,0.0,0.0,-0.0,0.0,0.125,1.6113279600000001,0.01,0.0,0.20999999344348907,-1.0199999809265137,-0.019999999552965164,0.097900390625,0.0301513671875,1.21246337890625,36.7400016784668,0.0,119.0,2.832672119140625,-2.5191497802734375,Waiting,-6.6447702834799625,13.25,-1235830.0,-229.0,-1770.0,-1650.0,0.0,0.125,
5.207365999999921,0.0,0.0,6976.0,0.0,0.0,0.0,0.0,0.125,0.8007811680000001,0.01,0.0,-23915.0,0.0,0.0,-0.0,0.0,0.25,0.41381831700000005,0.01,0.0,16663.0,0.0,0.0,0.0,0.0,0.125,3.281249664,0.01,0.0,-7976.0,0.0,0.0,-0.0,0.0,0.125,1.6113279600000001,0.01,0.0,0.2199999988079071,-1.0,-0.019999999552965164,-0.0576171875,-0.07183837890625,0.8138427734375,36.7400016784668,0.0,-43.0,2.833648681640625,-2.5170745849609375,Waiting,-6.064516129032258,8.5,-1236123.0,-243.0,-1815.0,-1650.0,0.0,0.125,
5.267868999999948,0.0,0.0,6976.0,0.0,0.0,0.0,0.0,0.125,0.799560465,0.01,0.0,-23915.0,0.0,0.0,-0.0,0.0,0.25,0.41381831700000005,0.01,0.0,16663.0,0.0,0.0,0.0,0.0,0.125,3.282470367,0.01,0.0,-7976.0,0.0,0.0,-0.0,0.0,0.125,1.6113279600000001,0.01,0.0,0.1899999976158142,-1.0,-0.019999999552965164,-0.0445556640625,-0.01654052734375,1.02996826171875,36.7400016784668,0.0,-26.0,2.83453369140625,-2.5150299072265625,Waiting,-5.478005865102639,6.125,-1236123.0,-243.0,-1837.5,-1650.0,0.0,0.0,
5.329951999999932,0.0,0.0,6976.0,0.0,0.0,0.0,0.0,0.125,0.8007811680000001,0.01,0.0,-23915.0,0.0,0.0,-0.0,0.0,0.25,0.41381831700000005,0.01,0.0,16663.0,0.0,0.0,0.0,0.0,0.125,3.280028961,0.01,0.0,-7976.0,0.0,0.0,-0.0,0.0,0.125,1.612548663,0.01,0.0,0.1599999964237213,-1.0299999713897705,-0.019999999552965164,-0.0992431640625,0.0057373046875,0.84881591796875,36.7400016784668,0.0,-83.0,2.834625244140625,-2.513397216796875,Waiting,-5.356451612903227,4.875,-1236418.0,-245.0,-1837.5,-1650.0,0.0,0.0,
5.388530999999959,0.0,0.0,6976.0,0.0,0.0,0.0,0.0,0.125,0.799560465,0.01,0.0,-23915.0,0.0,0.0,-0.0,0.0,0.25,0.41503902000000004,0.01,0.0,16663.0,0.0,0.0,0.0,0.0,0.125,3.281249664,0.01,0.0,-7976.0,0.0,0.0,-0.0,0.0,0.125,1.6113279600000001,0.01,0.0,0.1899999976158142,-1.0299999713897705,-0.019999999552965164,-0.0142822265625,-0.098388671875,0.94757080078125,36.7400016784668,0.0,2.0,2.834991455078125,-2.510498046875,Waiting,-5.154545454545455,4.375,-1236418.0,-245.0,-1837.5,-1650.0,0.0,0.0,
5.454027000000002,0.0,0.0,6976.0,0.0,0.0,0.0,0.0,0.125,0.8007811680000001,0.01,0.0,-23915.0,0.0,0.0,-0.0,0.0,0.25,0.41503902000000004,0.01,0.0,16663.0,0.0,0.0,0.0,0.0,0.125,3.281249664,0.01,0.0,-7976.0,0.0,0.0,-0.0,0.0,0.125,1.6113279600000001,0.01,0.0,0.23000000417232513,-1.0099999904632568,-0.019999999552965164,-0.00262451171875,-0.0714111328125,1.1839599609375,36.7400016784668,0.0,18.0,2.8358001708984375,-2.5082550048828125,Waiting,-5.151906158357772,4.25,-1236711.0,-244.0,-1830.0,-1650.0,0.0,0.0,
5.516290999999969,0.0,0.0,6976.0,0.0,0.0,0.0,0.0,0.125,0.799560465,0.01,0.0,-23915.0,0.0,0.0,-0.0,0.0,0.25,0.41381831700000005,0.01,0.0,16663.0,0.0,0.0,0.0,0.0,0.125,3.282470367,0.01,0.0,-7976.0,0.0,0.0,-0.0,0.0,0.125,1.6113279600000001,0.01,0.0,0.2199999988079071,-1.0299999713897705,-0.019999999552965164,-0.0308837890625,0.0633544921875,1.20343017578125,36.7400016784668,0.0,-9.0,2.8361968994140625,-2.5069427490234375,Waiting,-5.116129032258065,4.125,-1236711.0,-244.0,-1822.5,-1650.0,0.0,0.0,
5.579490999999922,0.0,0.0,6976.0,0.0,0.0,0.0,0.0,0.125,0.8007811680000001,0.01,0.0,-23915.0,0.0,0.0,-0.0,0.0,0.25,0.41381831700000005,0.01,0.0,16663.0,0.0,0.0,0.0,0.0,0.125,3.281249664,0.01,0.0,-7976.0,0.0,0.0,-0.0,0.0,0.125,1.6113279600000001,0.01,0.0,0.1899999976158142,-1.0499999523162842,-0.019999999552965164,0.0062255859375,-0.01495361328125,1.056884765625,36.7400016784668,0.0,25.0,2.83599853515625,-2.503997802734375,Waiting,-5.0922776148582605,4.0,-1237001.0,-242.0,-1815.0,-1650.0,0.0,0.125,
5.644065999999992,0.0,0.0,6976.0,0.0,0.0,0.0,0.0,0.125,0.8007811680000001,0.01,0.0,-23915.0,0.0,0.0,-0.0,0.0,0.25,0.41381831700000005,0.01,0.0,16663.0,0.0,0.0,0.0,0.0,0.125,3.280028961,0.01,0.0,-7976.0,0.0,0.0,-0.0,0.0,0.125,1.614990069,0.01,0.0,0.20000000298023224,-1.0299999713897705,-0.019999999552965164,-0.06121826171875,-0.08404541015625,0.8997802734375,36.7400016784668,0.0,-44.0,2.8375396728515625,-2.500701904296875,Waiting,-5.175757575757576,4.125,-1237001.0,-242.0,-1800.0,-1650.0,0.0,0.0,
5.711902999999933,0.0,0.0,6976.0,0.0,0.0,0.0,0.0,0.125,0.8007811680000001,0.01,0.0,-23915.0,0.0,0.0,-0.0,0.0,0.25,0.41381831700000005,0.01,0.0,16663.0,0.0,0.0,0.0,0.0,0.125,3.281249664,0.01,0.0,-7976.0,0.0,0.0,-0.0,0.0,0.125,1.612548663,0.01,0.0,0.1899999976158142,-1.059999942779541,-0.019999999552965164,0.00140380859375,0.05694580078125,1.1187744140625,36.7400016784668,0.0,22.0,2.837738037109375,-2.498779296875,Waiting,-5.163831867057674,4.25,-1237289.0,-240.0,-1792.5,-1650.0,0.0,0.125,
5.773778999999981,0.0,0.0,6976.0,0.0,0.0,0.0,0.0,0.125,0.8007811680000001,0.01,0.0,-23915.0,0.0,0.0,-0.0,0.0,0.25,0.41381831700000005,0.01,0.0,16663.0,0.0,0.0,0.0,0.0,0.125,3.281249664,0.01,0.0012207029999999897,-7976.0,0.0,0.0,-0.0,0.0,0.125,1.6113279600000001,0.01,0.0,0.20000000298023224,-1.0800000429153442,-0.019999999552965164,-0.0853271484375,-0.07000732421875,1.086669921875,36.70000076293945,0.0,-64.0,2.837310791015625,-2.4978790283203125,Waiting,-5.151906158357772,4.125,-1237289.0,-240.0,-1785.0,-1650.0,0.0,0.0,
5.84071399999992,0.0,0.0,6976.0,0.0,0.0,0.0,0.0,0.125,0.8007811680000001,0.01,0.0,-23915.0,0.0,0.0,-0.0,0.0,0.25,0.41381831700000005,0.01,0.0,16663.0,0.0,0.0,0.0,0.0,0.125,3.281249664,0.01,-0.0012207029999999897,-7976.0,0.0,0.0,-0.0,0.0,0.125,1.6113279600000001,0.01,0.0,0.1899999976158142,-1.059999942779541,-0.019999999552965164,-0.08941650390625,0.0595703125,1.0726318359375,36.70000076293945,0.0,-69.0,2.836456298828125,-2.4978485107421875,Waiting,-5.187683284457479,4.25,-1237574.0,-238.0,-1777.5,-1650.0,0.0,0.0,
5.907519999999902,0.0,0.0,6976.0,0.0,0.0,0.0,0.0,0.125,0.8007811680000001,0.01,0.0,-23915.0,0.0,0.0,-0.0,0.0,0.25,0.41381831700000005,0.01,0.0,16663.0,0.0,0.0,0.0,0.0,0.125,3.282470367,0.01,0.0,-7976.0,0.0,0.0,-0.0,0.0,0.125,1.6101072570000001,0.01,0.0,0.17000000178813934,-1.1100000143051147,-0.019999999552965164,0.00958251953125,0.01531982421875,1.21728515625,36.70000076293945,0.0,33.0,2.834716796875,-2.4964141845703125,Waiting,-5.187683284457479,4.25,-1237574.0,-238.0,-1770.0,-1650.0,0.0,0.125,
5.969268999999971,0.0,0.0,6976.0,0.0,0.0,0.0,0.0,0.125,0.8007811680000001,0.01,0.0,-23915.0,0.0,0.0,-0.0,0.0,0.25,0.41503902000000004,0.01,0.0,16663.0,0.0,0.0,0.0,0.0,0.125,3.281249664,0.01,0.0,-7976.0,0.0,0.0,-0.0,0.0,0.125,1.612548663,0.01,0.0,0.14000000059604645,-1.1299999952316284,-0.019999999552965164,0.14361572265625,0.10638427734375,1.13983154296875,36.70000076293945,0.0,166.0,2.8341064453125,-2.4949951171875,Waiting,-5.199608993157381,4.25,-1237859.0,-236.0,-1762.5,-1650.0,0.0,0.0,
6.036834999999963,0.0,0.0,6976.0,0.0,0.0,0.0,0.0,0.125,0.8020018710000001,0.01,0.0,-23915.0,0.0,0.0,-0.0,0.0,0.25,0.41503902000000004,0.01,0.0,16663.0,0.0,0.0,0.0,0.0,0.125,3.280028961,0.01,0.0012207029999999897,-7976.0,0.0,0.0,-0.0,0.0,0.125,1.6113279600000001,0.01,0.0,0.1899999976158142,-1.0499999523162842,-0.019999999552965164,-0.06793212890625,-0.089111328125,0.70025634765625,36.70000076293945,0.0,-55.0,2.83612060546875,-2.491455078125,Waiting,-5.211534701857283,4.375,-1237859.0,-236.0,-1755.0,-1650.0,0.0,0.0,
6.1019009999999545,0.0,0.0,6976.0,0.0,0.0,0.0,0.0,0.125,0.8007811680000001,0.01,0.0,-23915.0,0.0,0.0,-0.0,0.0,0.25,0.41381831700000005,0.01,0.0,16663.0,0.0,0.0,0.0,0.0,0.125,3.280028961,0.01,0.0,-7976.0,0.0,0.0,-0.0,0.0,0.125,1.6113279600000001,0.01,0.0,0.1599999964237213,-1.1299999952316284,-0.019999999552965164,-0.07794189453125,-0.040283203125,0.78704833984375,36.70000076293945,0.0,-62.0,2.83734130859375,-2.489410400390625,Waiting,-5.1042033235581625,4.25,-1238139.0,-234.0,-1755.0,-1650.0,0.0,0.0,
6.168541999999899,0.0,0.0,6976.0,0.0,0.0,0.0,0.0,0.125,0.799560465,0.01,0.0,-23915.0,0.0,0.0,-0.0,0.0,0.25,0.41503902000000004,0.01,0.0,16663.0,0.0,0.0,0.0,0.0,0.125,3.281249664,0.01,0.0,-7976.0,0.0,0.0,-0.0,0.0,0.125,1.612548663,0.01,0.0,0.12999999523162842,-1.190000057220459,-0.019999999552965164,-0.076416015625,-0.013916015625,0.9014892578125,36.70000076293945,0.0,-57.0,2.83685302734375,-2.488739013671875,Waiting,-5.130791788856305,4.5,-1238418.0,-233.0,-1747.5,-1650.0,0.0,0.0,
6.229478000000003,0.0,0.0,6976.0,0.0,0.0,0.0,0.0,0.125,0.799560465,0.01,0.0,-23915.0,0.0,0.0,-0.0,0.0,0.25,0.41381831700000005,0.01,0.0,16663.0,0.0,0.0,0.0,0.0,0.125,3.281249664,0.01,0.0,-7976.0,0.0,0.0,-0.0,0.0,0.125,1.6113279600000001,0.01,0.0,0.1599999964237213,-1.1299999952316284,-0.019999999552965164,-0.08013916015625,0.01568603515625,0.83258056640625,36.70000076293945,0.0,-63.0,2.8352508544921875,-2.4888916015625,Waiting,-5.166422287390029,4.375,-1238418.0,-233.0,-1740.0,-1650.0,0.0,0.0,
6.291437999999966,0.0,0.0,6976.0,0.0,0.0,0.0,0.0,0.125,0.799560465,0.01,0.0,-23915.0,0.0,0.0,-0.0,0.0,0.25,0.41381831700000005,0.01,0.0,16663.0,0.0,0.0,0.0,0.0,0.125,3.281249664,0.01,0.0,-7976.0,0.0,0.0,-0.0,0.0,0.125,1.612548663,0.01,0.0,0.23000000417232513,-1.0800000429153442,-0.019999999552965164,-0.02728271484375,-0.01336669921875,1.10760498046875,36.709999084472656,0.0,-6.0,2.83355712890625,-2.489654541015625,Waiting,-5.235386119257087,4.375,-1238696.0,-231.0,-1732.5,-1650.0,0.0,0.125,
6.356845999999903,0.0,0.0,6976.0,0.0,0.0,0.0,0.0,0.125,0.8020018710000001,0.01,0.0,-23915.0,0.0,0.0,-0.0,0.0,0.25,0.41381831700000005,0.01,0.0,16663.0,0.0,0.0,0.0,0.0,0.125,3.280028961,0.01,0.0,-7976.0,0.0,0.0,-0.0,0.0,0.125,1.612548663,0.01,0.0,0.23000000417232513,-1.0800000429153442,-0.019999999552965164,0.01873779296875,-0.016845703125,1.19732666015625,36.709999084472656,0.0,41.0,2.833099365234375,-2.491607666015625,Waiting,-5.163831867057674,4.5,-1238696.0,-231.0,-1732.5,-1650.0,0.0,0.0,
6.423324999999953,0.0,0.0,6976.0,0.0,0.0,0.0,0.0,0.125,0.799560465,0.01,0.0,-23915.0,0.0,0.0,-0.0,0.0,0.25,0.41381831700000005,0.01,0.0,16663.0,0.0,0.0,0.0,0.0,0.125,3.281249664,0.01,0.0,-7976.0,0.0,0.0,-0.0,0.0,0.125,1.612548663,0.01,0.0,0.25999999046325684,-1.100000023841858,-0.019999999552965164,-0.0350341796875,-0.0966796875,1.2357177734375,36.709999084472656,0.0,-11.0,2.833221435546875,-2.492401123046875,Waiting,-5.211534701857283,4.5,-1238972.0,-230.0,-1725.0,-1650.0,0.0,0.0,
6.486173999999999,0.0,0.0,6976.0,0.0,0.0,0.0,0.0,0.125,0.8007811680000001,0.01,0.0,-23915.0,0.0,0.0,-0.0,0.0,0.25,0.41503902000000004,0.01,0.0,16663.0,0.0,0.0,0.0,0.0,0.125,3.282470367,0.01,-0.0012207029999999897,-7976.0,0.0,0.0,-0.0,0.0,0.125,1.6113279600000001,0.01,0.0,0.20999999344348907,-1.1699999570846558,-0.019999999552965164,-0.01251220703125,-0.0501708984375,1.1134033203125,36.709999084472656,0.0,10.0,2.83319091796875,-2.4937286376953125,Waiting,-5.1280547409579675,4.375,-1238972.0,-230.0,-1725.0,-1650.0,0.0,0.0,
6.5485529999999565,0.0,0.0,6976.0,0.0,0.0,0.0,0.0,0.125,0.799560465,0.01,0.0,-23915.0,0.0,0.0,-0.0,0.0,0.25,0.41503902000000004,0.01,0.0,16663.0,0.0,0.0,0.0,0.0,0.125,3.280028961,0.01,0.0012207029999999897,-7976.0,0.0,0.0,-0.0,0.0,0.125,1.612548663,0.01,0.0,0.15000000596046448,-1.2699999809265137,-0.009999999776482582,-0.04107666015625,-0.0125732421875,1.08453369140625,36.709999084472656,0.0,-16.0,2.833099365234375,-2.4966583251953125,Waiting,-5.211534701857283,4.625,-1239248.0,-229.0,-1717.5,-1650.0,0.0,0.0,
6.609640999999945,0.0,0.0,6976.0,0.0,0.0,0.0,0.0,0.125,0.8007811680000001,0.01,0.0,-23915.0,0.0,0.0,-0.0,0.0,0.25,0.412597614,0.01,0.0,16663.0,0.0,0.0,0.0,0.0,0.125,3.281249664,0.01,0.0,-7976.0,0.0,0.0,-0.0,0.0,0.125,1.6101072570000001,0.01,0.0,0.07999999821186066,-1.350000023841858,-0.019999999552965164,-0.03814697265625,-0.08184814453125,1.18829345703125,36.709999084472656,0.0,-9.0,2.83282470703125,-2.5010528564453125,Waiting,-5.13998044965787,4.5,-1239248.0,-229.0,-1717.5,-1650.0,0.0,0.125,
6.66980999999994,0.0,0.0,6976.0,0.0,0.0,0.0,0.0,0.125,0.8007811680000001,0.01,0.0,-23915.0,0.0,0.0,-0.0,0.0,0.25,0.41381831700000005,0.01,0.0,16663.0,0.0,0.0,0.0,0.0,0.125,3.281249664,0.01,0.0,-7976.0,0.0,0.0,-0.0,0.0,0.125,1.6113279600000001,0.01,0.0,0.0,-1.4600000381469727,-0.019999999552965164,-0.04095458984375,-0.09735107421875,1.15643310546875,36.709999084472656,0.0,-11.0,2.832733154296875,-2.5068206787109375,Waiting,-5.232893450635386,4.75,-1239522.0,-228.0,-1710.0,-1650.0,0.0,0.125,
6.730663999999989,0.0,0.0,6976.0,0.0,0.0,0.0,0.0,0.125,0.799560465,0.01,0.0,-23915.0,0.0,0.0,-0.0,0.0,0.25,0.41381831700000005,0.01,0.0,16663.0,0.0,0.0,0.0,0.0,0.125,3.281249664,0.01,0.0,-7976.0,0.0,0.0,-0.0,0.0,0.125,1.6113279600000001,0.01,0.0,-0.10000000149011612,-1.5700000524520874,-0.019999999552965164,-0.01776123046875,-0.08660888671875,1.163818359375,36.709999084472656,0.0,14.0,2.8320159912109375,-2.5154571533203125,Waiting,-5.184995112414467,4.5,-1239522.0,-228.0,-1710.0,-1650.0,0.0,0.125,
6.792158999999985,0.0,0.0,6976.0,0.0,0.0,0.0,0.0,0.125,0.799560465,0.01,0.0,-23915.0,0.0,0.0,-0.0,0.0,0.25,0.41503902000000004,0.01,0.0,16663.0,0.0,0.0,0.0,0.0,0.125,3.278808258,0.01,0.0,-7976.0,0.0,0.0,-0.0,0.0,0.125,1.612548663,0.01,0.0,-0.1599999964237213,-1.649999976158142,-0.009999999776482582,-0.025390625,-0.0396728515625,1.06951904296875,36.7400016784668,0.0,5.0,2.831298828125,-2.5228424072265625,Waiting,-5.24731182795699,4.875,-1239797.0,-227.0,-1702.5,-1650.0,0.0,0.125,
6.8594139999999895,0.0,0.0,6976.0,0.0,0.0,0.0,0.0,0.125,0.799560465,0.01,0.0,-23915.0,0.0,0.0,-0.0,0.0,0.25,0.41381831700000005,0.01,0.0,16663.0,0.0,0.0,0.0,0.0,0.125,3.281249664,0.01,0.0,-7976.0,0.0,0.0,-0.0,0.0,0.125,1.612548663,0.01,0.0,-0.17000000178813934,-1.6699999570846558,-0.009999999776482582,-0.06719970703125,0.013916015625,1.051025390625,36.7400016784668,0.0,-36.0,2.830596923828125,-2.530914306640625,Waiting,-5.187683284457479,4.625,-1239797.0,-227.0,-1702.5,-1650.0,0.0,0.0,
6.9257189999999245,0.0,0.0,6976.0,0.0,0.0,0.0,0.0,0.125,0.8007811680000001,0.01,0.0,-23915.0,0.0,0.0,-0.0,0.0,0.25,0.41381831700000005,0.01,0.0,16663.0,0.0,0.0,0.0,0.0,0.125,3.280028961,0.01,0.0,-7976.0,0.0,0.0,-0.0,0.0,0.125,1.6113279600000001,0.01,0.0,-0.14000000059604645,-1.6799999475479126,-0.019999999552965164,0.00445556640625,-0.06768798828125,1.219482421875,36.7400016784668,0.0,40.0,2.830322265625,-2.542144775390625,Waiting,-5.271163245356794,4.5,-1240068.0,-227.0,-1702.5,-1650.0,0.0,0.125,
6.9871999999999534,0.0,0.0,6976.0,0.0,0.0,0.0,0.0,0.125,0.799560465,0.01,0.0,-23915.0,0.0,0.0,-0.0,0.0,0.25,0.41503902000000004,0.01,0.0,16663.0,0.0,0.0,0.0,0.0,0.125,3.281249664,0.01,0.0,-7976.0,0.0,0.0,-0.0,0.0,0.125,1.612548663,0.01,0.0,-0.11999999731779099,-1.6399999856948853,-0.009999999776482582,0.0137939453125,-0.10321044921875,1.265380859375,36.7400016784668,0.0,50.0,2.83074951171875,-2.550018310546875,Waiting,-5.223460410557185,4.875,-1240068.0,-227.0,-1695.0,-1650.0,0.0,0.125,
7.050835999999894,0.0,0.0,6976.0,0.0,0.0,0.0,0.0,0.125,0.8020018710000001,0.01,0.0,-23915.0,0.0,0.0,-0.0,0.0,0.25,0.412597614,0.01,0.0,16663.0,0.0,0.0,0.0,0.0,0.125,3.280028961,0.01,0.0,-7976.0,0.0,0.0,-0.0,0.0,0.125,1.6113279600000001,0.01,0.0,-0.029999999329447746,-1.5399999618530273,-0.019999999552965164,-0.05584716796875,-0.081787109375,1.1217041015625,36.7400016784668,0.0,-25.0,2.832061767578125,-2.56219482421875,Waiting,-5.175757575757576,4.5,-1240339.0,-226.0,-1695.0,-1650.0,0.0,0.0,
7.1119329999999605,0.0,0.0,6976.0,0.0,0.0,0.0,0.0,0.125,0.8007811680000001,0.01,0.0,-23915.0,0.0,0.0,-0.0,0.0,0.25,0.41381831700000005,0.01,0.0,16663.0,0.0,0.0,0.0,0.0,0.125,3.280028961,0.01,0.0,-7976.0,0.0,0.0,-0.0,0.0,0.125,1.6113279600000001,0.01,0.0,0.019999999552965164,-1.4199999570846558,-0.019999999552965164,-0.1070556640625,-0.04547119140625,0.90252685546875,36.7400016784668,0.0,-84.0,2.8340911865234375,-2.580047607421875,Waiting,-5.283088954056696,5.125,-1240339.0,-226.0,-1687.5,-1650.0,0.0,0.0,
7.173280999999959,0.0,0.0,6976.0,0.0,0.0,0.0,0.0,0.125,0.8007811680000001,0.01,0.0,-23915.0,0.0,0.0,-0.0,0.0,0.25,0.41381831700000005,0.01,0.0,16663.0,0.0,0.0,0.0,0.0,0.125,3.281249664,0.01,0.0,-7976.0,0.0,0.0,-0.0,0.0,0.125,1.612548663,0.01,0.0,-0.009999999776482582,-1.4299999475479126,-0.019999999552965164,-0.10296630859375,-0.02276611328125,0.796630859375,36.7400016784668,0.0,-83.0,2.8347320556640625,-2.5954742431640625,Waiting,-5.24731182795699,4.75,-1240610.0,-225.0,-1687.5,-1650.0,0.0,0.125,
7.233099999999976,0.0,0.0,6976.0,0.0,0.0,0.0,0.0,0.125,0.8007811680000001,0.01,0.0,-23915.0,0.0,0.0,-0.0,0.0,0.25,0.41381831700000005,0.01,0.0,16663.0,0.0,0.0,0.0,0.0,0.125,3.2702633370000003,0.01,0.0,-7976.0,0.0,0.0,-0.0,0.0,0.125,1.6113279600000001,0.01,0.0,-0.07999999821186066,-1.4800000190734863,-0.019999999552965164,-0.0902099609375,0.00250244140625,0.702880859375,36.7400016784668,0.0,-71.0,2.8336181640625,-2.611480712890625,Waiting,-5.211534701857283,4.625,-1240610.0,-225.0,-1687.5,-1650.0,0.0,0.0,
7.2998139999998966,0.0,0.0,6976.0,0.0,0.0,0.0,0.0,0.125,0.794677653,0.01,0.0,-23915.0,0.0,0.0,-0.0,0.0,0.25,0.41381831700000005,0.01,0.0,16663.0,0.0,0.0,0.0,0.0,0.125,3.281249664,0.01,0.0,-7976.0,0.0,0.0,-0.0,0.0,0.125,1.612548663,0.01,0.0,-0.10000000149011612,-1.5099999904632568,-0.019999999552965164,-0.00482177734375,-0.05853271484375,0.86688232421875,36.72999954223633,0.0,18.0,2.8311309814453125,-2.628173828125,Waiting,-5.306940371456501,5.125,-1240879.0,-224.0,-1680.0,-1650.0,0.0,0.125,
7.36577899999998,0.0,0.0,6976.0,0.0,0.0,0.0,0.0,0.125,0.799560465,0.01,0.0,-23915.0,0.0,0.0,-0.0,0.0,0.25,0.41381831700000005,0.01,0.0,16663.0,0.0,0.0,0.0,0.0,0.125,3.280028961,0.01,0.0,-7976.0,0.0,0.0,-0.0,0.0,0.125,1.6113279600000001,0.01,0.0,-0.07000000029802322,-1.4700000286102295,-0.009999999776482582,0.0194091796875,0.0802001953125,0.93572998046875,36.72999954223633,0.0,43.0,2.8288421630859375,-2.644775390625,Waiting,-5.283088954056696,4.875,-1241149.0,-224.0,-1680.0,-1650.0,0.0,0.0,
7.4225579999999605,0.0,0.0,6976.0,0.0,0.0,0.0,0.0,0.125,0.799560465,0.01,0.0,-23915.0,0.0,0.0,-0.0,0.0,0.25,0.41503902000000004,0.01,0.0,16663.0,0.0,0.0,0.0,0.0,0.125,3.280028961,0.01,0.0,-7976.0,0.0,0.0,-0.0,0.0,0.125,1.6113279600000001,0.01,0.0,-0.029999999329447746,-1.3899999856948853,-0.009999999776482582,0.071533203125,0.0478515625,0.9949951171875,36.72999954223633,0.0,95.0,2.82794189453125,-2.66033935546875,Waiting,-5.24731182795699,4.75,-1241149.0,-224.0,-1680.0,-1650.0,0.0,0.125,
7.48807899999991,0.0,0.0,6976.0,0.0,0.0,0.0,0.0,0.125,0.799560465,0.01,0.0,-23915.0,0.0,0.0,-0.0,0.0,0.25,0.41381831700000005,0.01,0.0,16663.0,0.0,0.0,0.0,0.0,0.125,3.281249664,0.01,0.0,-7976.0,0.0,0.0,-0.0,0.0,0.125,1.612548663,0.01,0.0,-0.05999999865889549,-1.3899999856948853,-0.009999999776482582,0.0093994140625,0.0205078125,0.71148681640625,36.72999954223633,0.0,26.0,2.8285064697265625,-2.675048828125,Waiting,-5.223460410557185,4.75,-1241417.0,-224.0,-1680.0,-1650.0,0.0,0.0,
7.554649999999907,0.0,0.0,6976.0,0.0,0.0,0.0,0.0,0.125,0.8007811680000001,0.01,0.0,-23915.0,0.0,0.0,-0.0,0.0,0.25,0.41381831700000005,0.01,0.0,16663.0,0.0,0.0,0.0,0.0,0.125,3.281249664,0.01,0.0,-7976.0,0.0,0.0,-0.0,0.0,0.125,1.6113279600000001,0.01,0.0,-0.07999999821186066,-1.4700000286102295,-0.009999999776482582,4.8828125E-4,0.04559326171875,0.999755859375,36.72999954223633,0.0,26.0,2.8290557861328125,-2.681884765625,Waiting,-5.342717497556207,5.125,-1241417.0,-224.0,-1672.5,-1650.0,0.0,0.0,
7.620244999999995,0.0,0.0,6976.0,0.0,0.0,0.0,0.0,0.125,0.8007811680000001,0.01,0.0,-23915.0,0.0,0.0,-0.0,0.0,0.25,0.41381831700000005,0.01,0.0,16663.0,0.0,0.0,0.0,0.0,0.125,3.281249664,0.01,-0.0012207029999999897,-7976.0,0.0,0.0,-0.0,0.0,0.125,1.6113279600000001,0.01,0.0,-0.029999999329447746,-1.4299999475479126,-0.009999999776482582,-0.017822265625,0.06982421875,1.06103515625,36.72999954223633,0.0,8.0,2.8294219970703125,-2.6803741455078125,Waiting,-5.318866080156403,5.125,-1241690.0,-223.0,-1672.5,-1650.0,0.0,0.0,
7.67697199999995,0.0,0.0,6976.0,0.0,0.0,0.0,0.0,0.125,0.799560465,0.01,0.0,-23915.0,0.0,0.0,-0.0,0.0,0.25,0.41503902000000004,0.01,0.0,16663.0,0.0,0.0,0.0,0.0,0.125,3.281249664,0.01,0.0,-7976.0,0.0,0.0,-0.0,0.0,0.125,1.6113279600000001,0.01,0.0,0.019999999552965164,-1.350000023841858,-0.009999999776482582,-0.01873779296875,-0.0257568359375,1.2332763671875,36.72999954223633,0.0,10.0,2.83026123046875,-2.6775970458984375,Waiting,-5.295014662756598,4.875,-1241690.0,-223.0,-1672.5,-1650.0,0.0,0.125,
7.742775999999955,0.0,0.0,6976.0,0.0,0.0,0.0,0.0,0.125,0.8007811680000001,0.01,0.0,-23915.0,0.0,0.0,-0.0,0.0,0.25,0.41381831700000005,0.01,0.0,16663.0,0.0,0.0,0.0,0.0,0.125,3.281249664,0.01,0.0,-7976.0,0.0,0.0,-0.0,0.0,0.125,1.6113279600000001,0.01,0.0,-0.009999999776482582,-1.3899999856948853,-0.009999999776482582,-0.07373046875,0.03460693359375,1.08343505859375,36.72999954223633,0.0,-47.0,2.83197021484375,-2.6745758056640625,Waiting,-5.271163245356794,4.875,-1241954.0,-223.0,-1672.5,-1650.0,0.0,0.0,
7.809817999999971,0.0,0.0,6976.0,0.0,0.0,0.0,0.0,0.125,0.8007811680000001,0.01,0.0,-23915.0,0.0,0.0,-0.0,0.0,0.25,0.41381831700000005,0.01,0.0,16663.0,0.0,0.0,0.0,0.0,0.125,3.281249664,0.01,0.0,-7976.0,0.0,0.0,-0.0,0.0,0.125,1.6113279600000001,0.01,0.0,0.009999999776482582,-1.399999976158142,-0.009999999776482582,-0.03668212890625,-0.07098388671875,1.30804443359375,36.720001220703125,0.0,-4.0,2.83343505859375,-2.672515869140625,Waiting,-5.24731182795699,4.75,-1241954.0,-223.0,-1672.5,-1650.0,0.0,0.0,
7.869777999999933,0.0,0.0,6976.0,0.0,0.0,0.0,0.0,0.125,0.8007811680000001,0.01,0.0,-23915.0,0.0,0.0,-0.0,0.0,0.25,0.412597614,0.01,0.0,16663.0,0.0,0.0,0.0,0.0,0.125,3.281249664,0.01,0.0,-7976.0,0.0,0.0,-0.0,0.0,0.125,1.6113279600000001,0.01,0.0,0.03999999910593033,-1.2999999523162842,-0.009999999776482582,-0.10693359375,0.00738525390625,0.96368408203125,36.720001220703125,0.0,-84.0,2.8350830078125,-2.6717071533203125,Waiting,-5.344574780058651,5.0,-1242221.0,-222.0,-1665.0,-1650.0,0.0,0.0,
7.930260000000009,0.0,0.0,6976.0,0.0,0.0,0.0,0.0,0.125,0.8007811680000001,0.01,0.0,-23915.0,0.0,0.0,-0.0,0.0,0.25,0.41503902000000004,0.01,0.0,16663.0,0.0,0.0,0.0,0.0,0.125,3.281249664,0.01,0.0,-7976.0,0.0,0.0,-0.0,0.0,0.125,1.612548663,0.01,0.0,0.0,-1.3700000047683716,-0.019999999552965164,-0.06329345703125,-0.05487060546875,0.8934326171875,36.720001220703125,0.0,-41.0,2.8354949951171875,-2.6723785400390625,Waiting,-5.3326979472140765,5.125,-1242221.0,-222.0,-1665.0,-1650.0,0.0,0.0,
