Time,ClimberA1,ClimberA2,FRpos,FRCurrent,FRspeed,FRsetpoint,FRApos,FRACurrent,FREncpos,FREncSetpoint,FREncSpeed,FLpos,FLCurrent,FLspeed,FLsetpoint,FLApos,FLACurrent,FLEncpos,FLEncSetpoint,FLEncSpeed,BRpos,BRCurrent,BRspeed,BRsetpoint,BRApos,BRACurrent,BREncpos,BREncSetpoint,BREncSpeed,BLpos,BLCurrent,BLspeed,BLsetpoint,BLApos,BLACurrent,BLEncpos,BLEncSetpoint,BLEncSpeed,navx_Pitch,navx_Roll,navx_Yaw,navx_XAcc,navx_YAcc,navx_ZAcc,navx_Temp,navx_Bar,navx_Alt,navx_XDis,navx_YDis,GearPlacerState,ShootOutputV,ShootOutputCurrent,ShootEncPos,ShootEncVelocity,ShootSpeed,ShootSetpoint,CarouselSetpoint,CarouselCurrent,
0.23816599999996835,0.0,0.0,0.0,0.0,0.0,0.0,0.0,0.125,0.783691326,0.01,0.0,0.0,0.0,0.0,-0.0,0.0,0.0,0.404052693,0.01,0.0,0.0,0.0,0.0,0.0,0.0,0.0,3.236083653,0.01,0.0,0.0,0.0,0.0,-0.0,0.0,0.125,1.5808103850000002,0.01,0.0,0.09000000357627869,-0.25999999046325684,0.0,-0.0035400390625,0.00213623046875,1.0228271484375,31.290000915527344,0.0,1.0,-0.7133636474609375,1.624664306640625,Waiting,0.0,0.0,-1847.0,0.0,0.0,0.0,0.0,0.0,
0.3704290000000037,0.0,0.0,0.0,0.0,0.0,0.0,0.0,0.125,0.783691326,0.01,0.0,0.0,0.0,0.0,-0.0,0.0,0.0,0.404052693,0.01,0.0,0.0,0.0,0.0,0.0,0.0,0.0,3.236083653,0.01,0.0,0.0,0.0,0.0,-0.0,0.0,0.125,1.5820310880000001,0.01,0.0,0.09000000357627869,-0.25999999046325684,0.0,-0.004150390625,0.00103759765625,1.0201416015625,31.290000915527344,0.0,0.0,-0.7133636474609375,1.624664306640625,Waiting,0.0,0.0,-1847.0,0.0,0.0,0.0,0.0,0.0,
0.447954000000027,0.0,0.0,0.0,0.0,0.0,0.0,0.0,0.125,0.783691326,0.01,0.0,0.0,0.0,0.0,-0.0,0.0,0.0,0.404052693,0.01,0.0,0.0,0.0,0.0,0.0,0.0,0.0,3.236083653,0.01,0.0,0.0,0.0,0.0,-0.0,0.0,0.125,1.5808103850000002,0.01,0.0,0.09000000357627869,-0.25999999046325684,0.0,-0.00506591796875,0.00628662109375,1.0228271484375,31.290000915527344,0.0,0.0,-0.7133636474609375,1.624664306640625,Waiting,0.0,0.0,-1847.0,0.0,0.0,0.0,0.0,0.0,
0.5205960000000196,0.0,0.0,0.0,0.0,0.0,0.0,0.0,0.125,0.784912029,0.01,0.0,0.0,0.0,0.0,-0.0,0.0,0.0,0.40283199000000003,0.01,0.0,0.0,0.0,0.0,0.0,0.0,0.0,3.232421544,0.01,0.0,0.0,0.0,0.0,-0.0,0.0,0.125,1.5808103850000002,0.01,0.0,0.09000000357627869,-0.25999999046325684,0.0,-0.00177001953125,0.00152587890625,1.02667236328125,31.290000915527344,0.0,3.0,-0.7133636474609375,1.624664306640625,Waiting,0.0,0.0,-1847.0,0.0,0.0,0.0,0.0,0.0,
0.606003000000026,0.0,0.0,0.0,0.0,0.0,0.0,0.0,0.125,0.783691326,0.01,-0.0012207030000004337,0.0,0.0,0.0,-0.0,0.0,0.0,0.404052693,0.01,0.0,0.0,0.0,0.0,0.0,0.0,0.0,3.236083653,0.01,0.0012207029999995456,0.0,0.0,0.0,-0.0,0.0,0.125,1.5795896820000002,0.01,0.0012207029999995456,0.09000000357627869,-0.25999999046325684,0.009999999776482582,-0.0042724609375,0.0010986328125,1.027587890625,31.290000915527344,0.0,0.0,-0.7133636474609375,1.624664306640625,Waiting,0.0,0.0,-1847.0,0.0,0.0,0.0,0.0,0.0,
0.6796339999999618,0.0,0.0,0.0,0.0,0.0,0.0,0.0,0.125,0.783691326,0.01,0.0,0.0,0.0,0.0,-0.0,0.0,0.0,0.404052693,0.01,0.0,0.0,0.0,0.0,0.0,0.0,0.0,3.236083653,0.01,0.0,0.0,0.0,0.0,-0.0,0.0,0.125,1.5808103850000002,0.01,0.0,0.09000000357627869,-0.25999999046325684,0.009999999776482582,-0.00799560546875,0.00469970703125,1.02227783203125,31.290000915527344,0.0,-3.0,-0.7133636474609375,1.624664306640625,Waiting,0.0,0.0,-1847.0,0.0,0.0,0.0,0.0,0.0,
0.7568819999999833,0.0,0.0,0.0,0.0,0.0,0.0,0.0,0.125,0.784912029,0.01,0.0,0.0,0.0,0.0,-0.0,0.0,0.0,0.404052693,0.01,0.0012207029999995456,0.0,0.0,0.0,0.0,0.0,0.0,3.229980138,0.01,-0.0024414059999999793,0.0,0.0,0.0,-0.0,0.0,0.125,1.5808103850000002,0.01,0.0012207029999995456,0.09000000357627869,-0.25999999046325684,0.009999999776482582,-0.0048828125,8.544921875E-4,1.0260009765625,31.290000915527344,0.0,0.0,-0.7133636474609375,1.624664306640625,Waiting,0.0,0.0,-1847.0,0.0,0.0,0.0,0.0,0.0,
0.8377260000000242,0.0,0.0,0.0,0.0,0.0,0.0,0.0,0.125,0.784912029,0.01,0.0,0.0,0.0,0.0,-0.0,0.0,0.0,0.405273396,0.01,0.0,0.0,0.0,0.0,0.0,0.0,0.0,3.237304356,0.01,0.0,0.0,0.0,0.0,-0.0,0.0,0.125,1.5844724940000001,0.01,0.0,0.09000000357627869,-0.25999999046325684,0.009999999776482582,-0.00592041015625,0.0018310546875,1.0185546875,31.290000915527344,0.0,-1.0,-0.7133636474609375,1.624664306640625,Waiting,0.0,0.0,-1847.0,0.0,0.0,0.0,0.0,0.0,
0.9130579999999608,0.0,0.0,0.0,0.0,0.0,0.0,0.0,0.125,0.783691326,0.01,0.0,0.0,0.0,0.0,-0.0,0.0,0.0,0.405273396,0.01,0.0,0.0,0.0,0.0,0.0,0.0,0.0,3.236083653,0.01,0.0,0.0,0.0,0.0,-0.0,0.0,0.125,1.5808103850000002,0.01,0.0,0.09000000357627869,-0.25999999046325684,0.009999999776482582,-0.0047607421875,0.00372314453125,1.0263671875,31.280000686645508,0.0,0.0,-0.7133636474609375,1.624664306640625,Waiting,0.0,0.0,-1847.0,0.0,0.0,0.0,0.0,0.0,
0.9947330000000074,0.0,0.0,0.0,0.0,0.0,0.0,0.0,0.125,0.787353435,0.01,0.0,0.0,0.0,0.0,-0.0,0.0,0.0,0.40283199000000003,0.01,0.0,0.0,0.0,0.0,0.0,0.0,0.0,3.236083653,0.01,0.0,0.0,0.0,0.0,-0.0,0.0,0.125,1.5808103850000002,0.01,0.0,0.09000000357627869,-0.25999999046325684,0.019999999552965164,-0.00274658203125,0.0040283203125,1.02496337890625,31.280000686645508,0.0,1.0,-0.7133636474609375,1.624664306640625,Waiting,0.0,0.0,-1847.0,0.0,0.0,0.0,0.0,0.0,
1.071636999999988,0.0,0.0,0.0,0.0,0.0,0.0,0.0,0.125,0.783691326,0.01,0.0,0.0,0.0,0.0,-0.0,0.0,0.0,0.405273396,0.01,0.0,0.0,0.0,0.0,0.0,0.0,0.0,3.236083653,0.01,0.0,0.0,0.0,0.0,-0.0,0.0,0.125,1.5795896820000002,0.01,0.0,0.09000000357627869,-0.25999999046325684,0.019999999552965164,-0.00408935546875,7.9345703125E-4,1.02227783203125,31.280000686645508,0.0,0.0,-0.7133636474609375,1.624664306640625,Waiting,0.0,0.0,-1847.0,0.0,0.0,0.0,0.0,0.0,
1.149347999999998,0.0,0.0,0.0,0.0,0.0,0.0,0.0,0.125,0.786132732,0.01,0.0,0.0,0.0,0.0,-0.0,0.0,0.0,0.404052693,0.01,0.0,0.0,0.0,0.0,0.0,0.0,0.0,3.236083653,0.01,-0.0012207030000004337,0.0,0.0,0.0,-0.0,0.0,0.125,1.5808103850000002,0.01,0.0,0.09000000357627869,-0.25999999046325684,0.019999999552965164,-0.00225830078125,0.0029296875,1.024658203125,31.280000686645508,0.0,2.0,-0.7133636474609375,1.624664306640625,Waiting,0.0,0.0,-1847.0,0.0,0.0,0.0,0.0,0.0,
1.2224370000000344,0.0,0.0,0.0,0.0,0.0,0.0,0.0,0.125,0.783691326,0.01,0.0,0.0,0.0,0.0,-0.0,0.0,0.0,0.404052693,0.01,0.0,0.0,0.0,0.0,0.0,0.0,0.0,3.232421544,0.01,0.0,0.0,0.0,0.0,-0.0,0.0,0.125,1.5820310880000001,0.01,0.0,0.09000000357627869,-0.25999999046325684,0.019999999552965164,-0.00341796875,0.00225830078125,1.020263671875,31.280000686645508,0.0,1.0,-0.7133636474609375,1.624664306640625,Waiting,0.0,0.0,-1847.0,0.0,0.0,0.0,0.0,0.0,
1.2999449999999488,0.0,0.0,0.0,0.0,0.0,0.0,0.0,0.125,0.786132732,0.01,0.0,0.0,0.0,0.0,-0.0,0.0,0.0,0.405273396,0.01,0.0,0.0,0.0,0.0,0.0,0.0,0.0,3.236083653,0.01,-0.0012207030000004337,0.0,0.0,0.0,-0.0,0.0,0.125,1.5795896820000002,0.01,0.0,0.10000000149011612,-0.25999999046325684,0.009999999776482582,-0.0045166015625,0.0025634765625,1.0263671875,31.280000686645508,0.0,0.0,-0.7133636474609375,1.624664306640625,Waiting,0.0,0.0,-1847.0,0.0,0.0,0.0,0.0,0.0,
1.3757510000000475,0.0,0.0,0.0,0.0,0.0,0.0,0.0,0.125,0.783691326,0.01,0.0,0.0,0.0,0.0,-0.0,0.0,0.0,0.404052693,0.01,0.0,0.0,0.0,0.0,0.0,0.0,0.0,3.236083653,0.01,0.0,0.0,0.0,0.0,-0.0,0.0,0.125,1.5795896820000002,0.01,0.0,0.10000000149011612,-0.25999999046325684,0.019999999552965164,-0.00531005859375,7.9345703125E-4,1.02557373046875,31.280000686645508,0.0,0.0,-0.7133636474609375,1.624664306640625,Waiting,0.0,0.0,-1847.0,0.0,0.0,0.0,0.0,0.0,
1.4556940000000176,0.0,0.0,0.0,0.0,0.0,0.0,0.0,0.125,0.783691326,0.01,0.0,0.0,0.0,0.0,-0.0,0.0,0.0,0.404052693,0.01,0.0,0.0,0.0,0.0,0.0,0.0,0.0,3.231200841,0.01,-0.0012207030000004337,0.0,0.0,0.0,-0.0,0.0,0.125,1.5820310880000001,0.01,0.0012207029999995456,0.09000000357627869,-0.25,0.019999999552965164,-0.00274658203125,0.00213623046875,1.02593994140625,31.260000228881836,0.0,1.0,-0.7133636474609375,1.624664306640625,Waiting,0.0,0.0,-1847.0,0.0,0.0,0.0,0.0,0.0,
1.5390139999999666,0.0,0.0,0.0,0.0,0.0,0.0,0.0,0.125,0.784912029,0.01,0.0,0.0,0.0,0.0,-0.0,0.0,0.0,0.404052693,0.01,0.0,0.0,0.0,0.0,0.0,0.0,0.0,3.236083653,0.01,0.0,0.0,0.0,0.0,-0.0,0.0,0.125,1.5795896820000002,0.01,0.0,0.09000000357627869,-0.25,0.019999999552965164,-0.00433349609375,-3.662109375E-4,1.02685546875,31.260000228881836,0.0,0.0,-0.7133636474609375,1.624664306640625,Waiting,0.0,0.0,-1847.0,0.0,0.0,0.0,0.0,0.0,
1.6153170000000392,0.0,0.0,0.0,0.0,0.0,0.0,0.0,0.125,0.783691326,0.01,-0.0012207030000004337,0.0,0.0,0.0,-0.0,0.0,0.0,0.405273396,0.01,0.0,0.0,0.0,0.0,0.0,0.0,0.0,3.236083653,0.01,0.0,0.0,0.0,0.0,-0.0,0.0,0.125,1.5808103850000002,0.01,0.0,0.09000000357627869,-0.25,0.009999999776482582,-0.0059814453125,6.7138671875E-4,1.0201416015625,31.260000228881836,0.0,-1.0,-0.7133636474609375,1.624664306640625,Waiting,0.0,0.0,-1847.0,0.0,0.0,0.0,0.0,0.0,
1.6975320000000065,0.0,0.0,0.0,0.0,0.0,0.0,0.0,0.125,0.784912029,0.01,0.0012207030000004337,0.0,0.0,0.0,-0.0,0.0,0.0,0.405273396,0.01,0.0,0.0,0.0,0.0,0.0,0.0,0.0,3.236083653,0.01,0.0012207030000004337,0.0,0.0,0.0,-0.0,0.0,0.125,1.5795896820000002,0.01,0.0,0.09000000357627869,-0.25,0.009999999776482582,-0.0040283203125,0.0018310546875,1.0277099609375,31.260000228881836,0.0,0.0,-0.7133636474609375,1.624664306640625,Waiting,0.0,0.0,-1847.0,0.0,0.0,0.0,0.0,0.0,
1.7746870000000345,0.0,0.0,0.0,0.0,0.0,0.0,0.0,0.125,0.783691326,0.01,0.0,0.0,0.0,0.0,-0.0,0.0,0.0,0.405273396,0.01,0.0,0.0,0.0,0.0,0.0,0.0,0.0,3.236083653,0.01,0.0,0.0,0.0,0.0,-0.0,0.0,0.125,1.5808103850000002,0.01,0.0,0.11999999731779099,-0.33000001311302185,0.019999999552965164,-6.103515625E-5,0.1036376953125,0.97955322265625,31.260000228881836,0.0,5.0,-0.7138824462890625,1.6249542236328125,Waiting,0.0,0.0,-1847.0,0.0,0.0,0.0,0.0,0.0,
1.8545840000000318,0.0,0.0,0.0,0.0,0.0,0.0,0.0,0.125,0.784912029,0.01,-0.0012207030000004337,0.0,0.0,0.0,-0.0,0.0,0.0,0.404052693,0.01,0.0,0.0,0.0,0.0,0.0,0.0,0.0,3.236083653,0.01,0.0012207029999995456,0.0,0.0,0.0,-0.0,0.0,0.125,1.5808103850000002,0.01,0.0,0.14000000059604645,-0.28999999165534973,0.019999999552965164,-0.03033447265625,0.08306884765625,1.05316162109375,31.260000228881836,0.0,-24.0,-0.7138671875,1.6260528564453125,Waiting,0.0,0.0,-1847.0,0.0,0.0,0.0,0.0,0.0,
1.9299769999999552,0.0,0.0,0.0,0.0,0.0,0.0,0.0,0.125,0.783691326,0.01,0.0,0.0,0.0,0.0,-0.0,0.0,0.0,0.404052693,0.01,0.0,0.0,0.0,0.0,0.0,0.0,0.0,3.236083653,0.01,0.0,0.0,0.0,0.0,-0.0,0.0,0.125,1.5808103850000002,0.01,0.0,0.1899999976158142,-0.27000001072883606,0.019999999552965164,0.01666259765625,0.03302001953125,0.94842529296875,31.260000228881836,0.0,21.0,-0.7133331298828125,1.6271209716796875,Waiting,0.0,0.0,-1847.0,0.0,0.0,0.0,0.0,0.0,
2.009322999999975,0.0,0.0,0.0,0.0,0.0,0.0,0.0,0.125,0.783691326,0.01,0.0,0.0,0.0,0.0,-0.0,0.0,0.0,0.405273396,0.01,0.0,0.0,0.0,0.0,0.0,0.0,0.0,3.23486295,0.01,0.0024414059999999793,0.0,0.0,0.0,-0.0,0.0,0.125,1.5808103850000002,0.01,-0.0012207029999995456,0.27000001072883606,-0.20999999344348907,0.009999999776482582,0.0645751953125,0.035888671875,0.9697265625,31.270000457763672,0.0,68.0,-0.7125396728515625,1.6294708251953125,Waiting,0.0,0.0,-1847.0,0.0,0.0,0.0,0.0,0.0,
2.085773999999976,0.0,0.0,0.0,0.0,0.0,0.0,0.0,0.125,0.783691326,0.01,0.0,0.0,0.0,0.0,-0.0,0.0,0.0,0.405273396,0.01,0.0,0.0,0.0,0.0,0.0,0.0,0.0,3.237304356,0.01,0.0,0.0,0.0,0.0,-0.0,0.0,0.125,1.5808103850000002,0.01,0.0,0.20000000298023224,-0.23000000417232513,0.009999999776482582,0.0572509765625,0.17828369140625,1.08416748046875,31.270000457763672,0.0,61.0,-0.7115478515625,1.6322479248046875,Waiting,0.0,0.0,-1847.0,0.0,0.0,0.0,0.0,0.0,
2.163155000000028,0.0,0.0,0.0,0.0,0.0,0.0,0.0,0.125,0.783691326,0.01,0.0,0.0,0.0,0.0,-0.0,0.0,0.0,0.404052693,0.01,0.0,0.0,0.0,0.0,0.0,0.0,0.0,3.231200841,0.01,0.0,0.0,0.0,0.0,-0.0,0.0,0.125,1.5795896820000002,0.01,0.0012207029999995456,0.17000000178813934,-0.2800000011920929,0.009999999776482582,0.2164306640625,0.115966796875,1.15179443359375,31.270000457763672,0.0,222.0,-0.7107086181640625,1.633056640625,Waiting,0.0,0.0,-1847.0,0.0,0.0,0.0,0.0,0.0,
2.235074000000022,0.0,0.0,0.0,0.0,0.0,0.0,0.0,0.125,0.783691326,0.01,0.0,0.0,0.0,0.0,-0.0,0.0,0.0,0.405273396,0.01,0.0,0.0,0.0,0.0,0.0,0.0,0.0,3.236083653,0.01,0.0,0.0,0.0,0.0,-0.0,0.0,0.125,1.5820310880000001,0.01,0.0,0.23000000417232513,-0.3199999928474426,0.009999999776482582,-0.10205078125,-0.0552978515625,1.39935302734375,31.270000457763672,0.0,-94.0,-0.7061767578125,1.6321563720703125,Waiting,0.0,0.0,-1847.0,0.0,0.0,0.0,0.0,0.0,
2.340665999999968,0.0,0.0,0.0,0.0,0.0,0.0,0.0,0.125,0.784912029,0.01,0.0,0.0,0.0,0.0,-0.0,0.0,0.0,0.404052693,0.01,0.0,0.0,0.0,0.0,0.0,0.0,0.0,3.236083653,0.01,0.0,0.0,0.0,0.0,-0.0,0.0,0.125,1.5808103850000002,0.01,0.0,0.3499999940395355,-0.28999999165534973,0.019999999552965164,0.28240966796875,0.1373291015625,1.0953369140625,31.270000457763672,0.0,288.0,-0.704833984375,1.6323699951171875,Waiting,0.0,0.0,-1847.0,0.0,0.0,0.0,0.0,0.0,
2.4178699999999953,0.0,0.0,0.0,0.0,0.0,0.0,0.0,0.125,0.783691326,0.01,0.0,0.0,0.0,0.0,-0.0,0.0,0.0,0.405273396,0.01,0.0,0.0,0.0,0.0,0.0,0.0,0.0,3.236083653,0.01,-0.0012207030000004337,0.0,0.0,0.0,-0.0,0.0,0.125,1.5808103850000002,0.01,-0.0012207029999995456,0.3499999940395355,-0.27000001072883606,0.009999999776482582,-0.20538330078125,0.02191162109375,1.09375,31.270000457763672,0.0,-200.0,-0.6984405517578125,1.636077880859375,Waiting,0.0,0.0,-1847.0,0.0,0.0,0.0,0.0,0.0,
2.4906269999999786,0.0,0.0,0.0,0.0,0.0,0.0,0.0,0.125,0.783691326,0.01,0.0,0.0,0.0,0.0,-0.0,0.0,0.0,0.405273396,0.01,0.0,0.0,0.0,0.0,0.0,0.0,0.0,3.237304356,0.01,0.0,0.0,0.0,0.0,-0.0,0.0,0.125,1.5808103850000002,0.01,0.0,0.33000001311302185,-0.25999999046325684,0.009999999776482582,-0.42572021484375,-0.39752197265625,0.90679931640625,31.299999237060547,0.0,-421.0,-0.6976470947265625,1.64007568359375,Waiting,0.0,0.0,-1847.0,0.0,0.0,0.0,0.0,0.0,
2.5685350000000327,0.0,0.0,0.0,0.0,0.0,0.0,0.0,0.125,0.783691326,0.01,0.0,0.0,0.0,0.0,-0.0,0.0,0.0,0.40771480200000004,0.01,0.0,0.0,0.0,0.0,0.0,0.0,0.0,3.236083653,0.01,0.0012207029999995456,0.0,0.0,0.0,-0.0,0.0,0.125,1.5808103850000002,0.01,0.0,0.15000000596046448,-0.46000000834465027,0.0,0.2889404296875,0.12225341796875,0.96112060546875,31.299999237060547,0.0,296.0,-0.70245361328125,1.638763427734375,Waiting,0.0,0.0,-1847.0,0.0,0.0,0.0,0.0,0.0,
2.636173999999999,0.0,0.0,0.0,0.0,0.0,0.0,0.0,0.125,0.783691326,0.01,0.0,0.0,0.0,0.0,-0.0,0.0,0.0,0.405273396,0.01,0.0,0.0,0.0,0.0,0.0,0.0,0.0,3.236083653,0.01,0.0,0.0,0.0,0.0,-0.0,0.0,0.125,1.585693197,0.01,0.0,0.18000000715255737,-0.44999998807907104,0.0,0.09222412109375,-0.0242919921875,0.9849853515625,31.299999237060547,0.0,100.0,-0.7034912109375,1.6380157470703125,Waiting,0.0,0.0,-1847.0,0.0,0.0,0.0,0.0,0.0,
2.7120200000000185,0.0,0.0,0.0,0.0,0.0,0.0,0.0,0.125,0.755615157,0.01,0.0,0.0,0.0,0.0,-0.0,0.0,0.0,0.404052693,0.01,0.0,0.0,0.0,0.0,0.0,0.0,0.0,3.237304356,0.01,0.0,0.0,0.0,0.0,-0.0,0.0,0.125,1.5808103850000002,0.01,0.0,0.17000000178813934,-0.4099999964237213,0.0,-0.015380859375,-0.028076171875,0.97076416015625,31.299999237060547,0.0,-8.0,-0.7028961181640625,1.63775634765625,Waiting,0.0,0.0,-1847.0,0.0,0.0,0.0,0.0,0.0,
2.7828619999999646,0.0,0.0,0.0,0.0,0.0,0.0,0.0,0.125,0.783691326,0.01,0.0,0.0,0.0,0.0,-0.0,0.0,0.0,0.405273396,0.01,0.0,0.0,0.0,0.0,0.0,0.0,0.0,3.236083653,0.01,-0.0012207029999995456,0.0,0.0,0.0,-0.0,0.0,0.125,1.5808103850000002,0.01,0.0012207029999995456,0.1599999964237213,-0.41999998688697815,0.0,-0.002197265625,-0.06182861328125,1.003662109375,31.299999237060547,0.0,5.0,-0.7031402587890625,1.637451171875,Waiting,0.0,0.0,-1847.0,0.0,0.0,0.0,0.0,0.0,
2.85373199999996,0.0,0.0,0.0,0.0,0.0,0.0,0.0,0.125,0.783691326,0.01,0.0,0.0,0.0,0.0,-0.0,0.0,0.0,0.404052693,0.01,0.0,0.0,0.0,0.0,0.0,0.0,0.0,3.236083653,0.01,0.0,0.0,0.0,0.0,-0.0,0.0,0.125,1.5795896820000002,0.01,0.0,0.1599999964237213,-0.41999998688697815,0.0,-0.01165771484375,-0.01385498046875,1.0006103515625,31.299999237060547,0.0,-4.0,-0.7032318115234375,1.6370086669921875,Waiting,0.0,0.0,-1847.0,0.0,0.0,0.0,0.0,0.0,
2.927716000000015,0.0,0.0,0.0,0.0,0.0,0.0,0.0,0.125,0.783691326,0.01,0.0012207030000004337,0.0,0.0,0.0,-0.0,0.0,0.0,0.405273396,0.01,0.0,0.0,0.0,0.0,0.0,0.0,0.0,3.237304356,0.01,0.0,0.0,0.0,0.0,-0.0,0.0,0.125,1.5795896820000002,0.01,0.0012207029999995456,0.15000000596046448,-0.41999998688697815,0.0,-0.007568359375,0.0137939453125,1.0361328125,31.299999237060547,0.0,0.0,-0.7032318115234375,1.6370086669921875,Waiting,0.0,0.0,-1847.0,0.0,0.0,0.0,0.0,0.0,
2.9954159999999685,0.0,0.0,0.0,0.0,0.0,0.0,0.0,0.125,0.783691326,0.01,0.0,0.0,0.0,0.0,-0.0,0.0,0.0,0.404052693,0.01,0.0,0.0,0.0,0.0,0.0,0.0,0.0,3.236083653,0.01,0.0,0.0,0.0,0.0,-0.0,0.0,0.125,1.5808103850000002,0.01,0.0,0.1599999964237213,-0.4099999964237213,0.0,-0.001220703125,0.0032958984375,1.02392578125,31.280000686645508,0.0,6.0,-0.7032318115234375,1.6370086669921875,Waiting,0.0,0.0,-1847.0,0.0,0.0,0.0,0.0,0.0,
3.0738610000000337,0.0,0.0,0.0,0.0,0.0,0.0,0.0,0.125,0.783691326,0.01,0.0,0.0,0.0,0.0,-0.0,0.0,0.0,0.396728475,0.01,0.0,0.0,0.0,0.0,0.0,0.0,0.0,3.236083653,0.01,0.0,0.0,0.0,0.0,-0.0,0.0,0.125,1.5808103850000002,0.01,-0.0012207029999995456,0.15000000596046448,-0.4000000059604645,0.009999999776482582,8.544921875E-4,-0.00146484375,1.02069091796875,31.280000686645508,0.0,7.0,-0.7032318115234375,1.6370086669921875,Waiting,0.0,0.0,-1847.0,0.0,0.0,0.0,0.0,0.0,
3.1478410000000148,0.0,0.0,0.0,0.0,0.0,0.0,0.0,0.125,0.784912029,0.01,0.0,0.0,0.0,0.0,-0.0,0.0,0.0,0.404052693,0.01,0.0,0.0,0.0,0.0,0.0,0.0,0.0,3.236083653,0.01,0.0,0.0,0.0,0.0,-0.0,0.0,0.125,1.5808103850000002,0.01,0.0,0.15000000596046448,-0.4000000059604645,0.0,-0.00390625,0.006591796875,1.0206298828125,31.280000686645508,0.0,3.0,-0.7032318115234375,1.6370086669921875,Waiting,0.0,0.0,-1847.0,0.0,0.0,0.0,0.0,0.0,
3.219893999999971,0.0,0.0,0.0,0.0,0.0,0.0,0.0,0.125,0.783691326,0.01,0.0,0.0,0.0,0.0,-0.0,0.0,0.0,0.405273396,0.01,0.0,0.0,0.0,0.0,0.0,0.0,0.0,3.237304356,0.01,-0.0012207029999995456,0.0,0.0,0.0,-0.0,0.0,0.125,1.5795896820000002,0.01,0.0,0.15000000596046448,-0.3799999952316284,0.0,-0.00701904296875,0.00250244140625,1.02923583984375,31.280000686645508,0.0,0.0,-0.7032318115234375,1.6370086669921875,Waiting,0.0,0.0,-1847.0,0.0,0.0,0.0,0.0,0.0,
3.290689000000013,0.0,0.0,0.0,0.0,0.0,0.0,0.0,0.125,0.797119059,0.01,0.0,0.0,0.0,0.0,-0.0,0.0,0.0,0.404052693,0.01,0.0,0.0,0.0,0.0,0.0,0.0,0.0,3.237304356,0.01,0.0,0.0,0.0,0.0,-0.0,0.0,0.125,1.5820310880000001,0.01,0.0,0.12999999523162842,-0.3799999952316284,0.0,-0.0048828125,0.00335693359375,1.02398681640625,31.280000686645508,0.0,2.0,-0.7032318115234375,1.6370086669921875,Waiting,-11.5,47.375,-1847.0,0.0,-7.5,-2400.0,0.0,0.0,
3.368131000000052,0.0,0.0,0.0,0.0,0.0,0.0,0.0,0.125,0.783691326,0.01,0.0,0.0,0.0,0.0,-0.0,0.0,0.0,0.404052693,0.01,0.0,0.0,0.0,0.0,0.0,0.0,0.0,3.231200841,0.01,0.0,0.0,0.0,0.0,-0.0,0.0,0.125,1.5808103850000002,0.01,0.0,0.12999999523162842,-0.3700000047683716,0.009999999776482582,0.01080322265625,0.0098876953125,1.00732421875,31.280000686645508,0.0,17.0,-0.70330810546875,1.6370086669921875,Waiting,-7.75,54.25,-1874.0,-15.0,-105.0,-2400.0,0.0,0.0,
3.436307999999961,0.0,0.0,0.0,0.0,0.0,0.0,0.0,0.125,0.784912029,0.01,0.0,0.0,0.0,0.0,-0.0,0.0,0.0,0.40283199000000003,0.01,0.0,0.0,0.0,0.0,0.0,0.0,0.0,3.236083653,0.01,-0.0012207030000004337,0.0,0.0,0.0,-0.0,0.0,0.125,1.5795896820000002,0.01,0.0,0.12999999523162842,-0.3700000047683716,0.009999999776482582,-0.0108642578125,0.00445556640625,0.9686279296875,31.280000686645508,0.0,0.0,-0.70306396484375,1.637054443359375,Waiting,-7.75,51.375,-1874.0,-15.0,-322.5,-2400.0,0.0,0.0,
3.5108490000000456,0.0,0.0,0.0,0.0,0.0,0.0,0.0,0.125,0.783691326,0.01,0.0,0.0,0.0,0.0,-0.0,0.0,0.0,0.405273396,0.01,0.0,0.0,0.0,0.0,0.0,0.0,0.0,3.236083653,0.01,0.0012207030000004337,0.0,0.0,0.0,-0.0,0.0,0.125,1.5795896820000002,0.01,0.0012207029999995456,0.10999999940395355,-0.3700000047683716,0.009999999776482582,0.00634765625,0.03277587890625,1.071533203125,31.290000915527344,0.0,13.0,-0.70306396484375,1.6370086669921875,Waiting,-7.95,49.5,-1951.0,-56.0,-480.0,-2400.0,0.0,0.0,
3.57916399999999,0.0,0.0,0.0,0.0,0.0,0.0,0.0,0.125,0.784912029,0.01,0.0,0.0,0.0,0.0,-0.0,0.0,0.0,0.404052693,0.01,0.0,0.0,0.0,0.0,0.0,0.0,0.0,3.231200841,0.01,0.0012207029999995456,0.0,0.0,0.0,-0.0,0.0,0.125,1.5808103850000002,0.01,-0.0012207029999995456,0.10999999940395355,-0.3700000047683716,0.009999999776482582,0.00689697265625,-0.0048828125,1.11248779296875,31.290000915527344,0.0,41.0,-0.703399658203125,1.6370849609375,Waiting,-7.95,47.0,-1951.0,-56.0,-682.5,-2400.0,0.0,0.0,
3.655701000000001,0.0,0.0,0.0,0.0,0.0,0.0,0.0,0.125,0.783691326,0.01,0.0,0.0,0.0,0.0,-0.0,0.0,0.0,0.40283199000000003,0.01,0.0,0.0,0.0,0.0,0.0,0.0,0.0,3.237304356,0.01,0.0,0.0,0.0,0.0,-0.0,0.0,0.125,1.5808103850000002,0.01,0.0,0.10000000149011612,-0.36000001430511475,0.009999999776482582,-0.04705810546875,-0.0216064453125,1.03265380859375,31.290000915527344,0.0,-40.0,-0.703216552734375,1.6370086669921875,Waiting,-8.15,45.5,-2073.0,-95.0,-817.5,-2400.0,0.0,0.0,
3.729197999999975,0.0,0.0,0.0,0.0,0.0,0.0,0.0,0.125,0.784912029,0.01,0.0,0.0,0.0,0.0,-0.0,0.0,0.0,0.404052693,0.01,0.0,0.0,0.0,0.0,0.0,0.0,0.0,3.236083653,0.01,0.0024414059999999793,0.0,0.0,0.0,-0.0,0.0,0.125,1.5795896820000002,0.01,0.0012207029999995456,0.11999999731779099,-0.3199999928474426,0.009999999776482582,0.04107666015625,-0.02215576171875,1.138427734375,31.290000915527344,0.0,47.0,-0.7030487060546875,1.6369781494140625,Waiting,-8.3,43.875,-2233.0,-128.0,-990.0,-2400.0,0.0,0.0,
3.79881799999997,0.0,0.0,0.0,0.0,0.0,0.0,0.0,0.125,0.784912029,0.01,0.0,0.0,0.0,0.0,-0.0,0.0,0.0,0.404052693,0.01,0.0,0.0,0.0,0.0,0.0,0.0,0.0,3.237304356,0.01,0.0,0.0,0.0,0.0,-0.0,0.0,0.125,1.5808103850000002,0.01,0.0,0.14000000059604645,-0.3100000023841858,0.009999999776482582,-0.01312255859375,-6.7138671875E-4,1.16522216796875,31.290000915527344,0.0,53.0,-0.703460693359375,1.637115478515625,Waiting,-8.3,42.375,-2233.0,-128.0,-1102.5,-2400.0,0.0,0.0,
3.874158999999985,0.0,0.0,0.0,0.0,0.0,0.0,0.0,0.125,0.784912029,0.01,0.0,0.0,0.0,0.0,-0.0,0.0,0.0,0.405273396,0.01,0.0,0.0,0.0,0.0,0.0,0.0,0.0,3.228759435,0.01,-0.0024414059999999793,0.0,0.0,0.0,-0.0,0.0,0.125,1.5808103850000002,0.01,0.0,0.15000000596046448,-0.3100000023841858,0.009999999776482582,-0.0111083984375,0.0445556640625,1.06744384765625,31.290000915527344,0.0,-5.0,-0.7035675048828125,1.637542724609375,Waiting,-8.45,41.125,-2430.0,-157.0,-1245.0,-2400.0,0.0,0.0,
3.9479100000000327,0.0,0.0,0.0,0.0,0.0,0.0,0.0,0.125,0.782470623,0.01,0.0,0.0,0.0,0.0,-0.0,0.0,0.0,0.404052693,0.01,0.0,0.0,0.0,0.0,0.0,0.0,0.0,3.236083653,0.01,0.0,0.0,0.0,0.0,-0.0,0.0,0.125,1.5808103850000002,0.01,0.0,0.17000000178813934,-0.28999999165534973,0.009999999776482582,-0.02642822265625,-0.0018310546875,1.06689453125,31.290000915527344,0.0,-20.0,-0.7032470703125,1.6381988525390625,Waiting,-8.45,39.5,-2430.0,-157.0,-1342.5,-2400.0,0.0,0.0,
4.019184000000008,0.0,0.0,0.0,0.0,0.0,0.0,0.0,0.125,0.783691326,0.01,0.0,0.0,0.0,0.0,-0.0,0.0,0.0,0.404052693,0.01,0.0,0.0,0.0,0.0,0.0,0.0,0.0,3.231200841,0.01,-0.0024414059999999793,0.0,0.0,0.0,-0.0,0.0,0.125,1.5795896820000002,0.01,0.0,0.15000000596046448,-0.2800000011920929,0.009999999776482582,-0.00982666015625,0.024658203125,1.04083251953125,31.280000686645508,0.0,-4.0,-0.70306396484375,1.6386566162109375,Waiting,-8.600000000000001,38.0,-2653.0,-182.0,-1470.0,-2400.0,0.0,0.0,
4.09126800000004,0.0,0.0,0.0,0.0,0.0,0.0,0.0,0.125,0.783691326,0.01,0.0,0.0,0.0,0.0,-0.0,0.0,0.0,0.404052693,0.01,0.0,0.0,0.0,0.0,0.0,0.0,0.0,3.236083653,0.01,0.0,0.0,0.0,0.0,-0.0,0.0,0.125,1.5808103850000002,0.01,0.0,0.17000000178813934,-0.2800000011920929,0.019999999552965164,-0.0338134765625,0.04913330078125,1.12530517578125,31.280000686645508,0.0,-28.0,-0.7027435302734375,1.6387176513671875,Waiting,-8.7,37.375,-2904.0,-205.0,-1552.5,-2400.0,0.0,0.0,
4.169064000000013,0.0,0.0,0.0,0.0,0.0,0.0,0.0,0.125,0.783691326,0.01,0.0,0.0,0.0,0.0,-0.0,0.0,0.0,0.40283199000000003,0.01,0.0,0.0,0.0,0.0,0.0,0.0,0.0,3.232421544,0.01,0.0,0.0,0.0,0.0,-0.0,0.0,0.125,1.5808103850000002,0.01,0.0012207029999995456,0.18000000715255737,-0.25999999046325684,0.019999999552965164,-0.080078125,0.0382080078125,0.93304443359375,31.280000686645508,0.0,-75.0,-0.7030029296875,1.6389617919921875,Waiting,-8.7,36.125,-2904.0,-205.0,-1665.0,-2400.0,0.0,0.0,
4.246148000000045,0.0,0.0,0.0,0.0,0.0,0.0,0.0,0.125,0.783691326,0.01,0.0,0.0,0.0,0.0,-0.0,0.0,0.0,0.405273396,0.01,0.0,0.0,0.0,0.0,0.0,0.0,0.0,3.231200841,0.01,0.0,0.0,0.0,0.0,-0.0,0.0,0.125,1.5808103850000002,0.01,0.0,0.18000000715255737,-0.23000000417232513,0.019999999552965164,-0.05438232421875,0.00946044921875,0.86920166015625,31.280000686645508,0.0,-50.0,-0.70501708984375,1.639678955078125,Waiting,-8.8,35.25,-3182.0,-226.0,-1740.0,-2400.0,0.0,0.0,
4.320194000000018,0.0,0.0,0.0,0.0,0.0,0.0,0.0,0.125,0.783691326,0.01,0.0,0.0,0.0,0.0,-0.0,0.0,0.0,0.405273396,0.01,0.0,0.0,0.0,0.0,0.0,0.0,0.0,3.237304356,0.01,-0.0024414059999999793,0.0,0.0,0.0,-0.0,0.0,0.125,1.5808103850000002,0.01,0.0,0.18000000715255737,-0.23999999463558197,0.019999999552965164,-0.07562255859375,-0.1004638671875,1.09521484375,31.280000686645508,0.0,-70.0,-0.7071380615234375,1.6401214599609375,Waiting,-8.9,34.125,-3478.0,-245.0,-1837.5,-2400.0,0.0,0.0,
4.391625,0.0,0.0,0.0,0.0,0.0,0.0,0.0,0.125,0.783691326,0.01,0.0,0.0,0.0,0.0,-0.0,0.0,0.0,0.404052693,0.01,0.0,0.0,0.0,0.0,0.0,0.0,0.0,3.237304356,0.01,0.0,0.0,0.0,0.0,-0.0,0.0,0.125,1.5808103850000002,0.01,0.0,0.14000000059604645,-0.25999999046325684,0.019999999552965164,-0.09185791015625,0.0445556640625,1.10186767578125,31.280000686645508,0.0,94.0,-0.710052490234375,1.6400146484375,Waiting,-8.9,33.5,-3478.0,-245.0,-1935.0,-2400.0,0.0,0.0,
4.469689000000013,0.0,0.0,0.0,0.0,0.0,0.0,0.0,0.125,0.784912029,0.01,0.0,0.0,0.0,0.0,-0.0,0.0,0.0,0.405273396,0.01,0.0,0.0,0.0,0.0,0.0,0.0,0.0,3.237304356,0.01,-0.0024414059999999793,0.0,0.0,0.0,-0.0,0.0,0.125,1.5820310880000001,0.01,0.0,0.10000000149011612,-0.28999999165534973,0.019999999552965164,-0.02752685546875,0.04205322265625,0.78662109375,31.280000686645508,0.0,-23.0,-0.71185302734375,1.6405792236328125,Waiting,-8.95,32.625,-3798.0,-262.0,-2002.5,-2400.0,0.0,0.0,
4.54509600000002,0.0,0.0,0.0,0.0,0.0,0.0,0.0,0.125,0.783691326,0.01,0.0,0.0,0.0,0.0,-0.0,0.0,0.0,0.404052693,0.01,0.0,0.0,0.0,0.0,0.0,0.0,0.0,3.236083653,0.01,0.0,0.0,0.0,0.0,-0.0,0.0,0.125,1.5820310880000001,0.01,0.0,0.14000000059604645,-0.23999999463558197,0.019999999552965164,0.08807373046875,0.05010986328125,1.30596923828125,31.270000457763672,0.0,93.0,-0.7145538330078125,1.641448974609375,Waiting,-8.95,32.0,-3798.0,-262.0,-2085.0,-2400.0,0.0,0.0,
4.616307999999961,0.0,0.0,0.0,0.0,0.0,0.0,0.0,0.125,0.783691326,0.01,0.0,0.0,0.0,0.0,-0.0,0.0,0.0,0.40283199000000003,0.01,0.0012207029999995456,0.0,0.0,0.0,0.0,0.0,0.0,3.236083653,0.01,-0.0012207029999995456,0.0,0.0,0.0,-0.0,0.0,0.125,1.5808103850000002,0.01,0.0,0.14000000059604645,-0.20999999344348907,0.019999999552965164,0.12139892578125,0.0677490234375,1.3243408203125,31.270000457763672,0.0,126.0,-0.7161865234375,1.6421661376953125,Waiting,-9.05,31.25,-4136.0,-278.0,-2137.5,-2400.0,0.0,0.0,
4.689243000000017,0.0,0.0,0.0,0.0,0.0,0.0,0.0,0.125,0.783691326,0.01,0.0,0.0,0.0,0.0,-0.0,0.0,0.0,0.404052693,0.01,0.0,0.0,0.0,0.0,0.0,0.0,0.0,3.231200841,0.01,0.0012207029999995456,0.0,0.0,0.0,-0.0,0.0,0.125,1.5795896820000002,0.01,0.0,0.15000000596046448,-0.1899999976158142,0.019999999552965164,0.0279541015625,-0.01165771484375,1.19561767578125,31.270000457763672,0.0,31.0,-0.717864990234375,1.643768310546875,Waiting,-9.100000000000001,30.75,-4490.0,-293.0,-2197.5,-2400.0,0.0,0.0,
4.766099000000046,0.0,0.0,0.0,0.0,0.0,0.0,0.0,0.125,0.783691326,0.01,0.0,0.0,0.0,0.0,-0.0,0.0,0.0,0.405273396,0.01,0.0,0.0,0.0,0.0,0.0,0.0,0.0,3.236083653,0.01,0.0,0.0,0.0,0.0,-0.0,0.0,0.125,1.5808103850000002,0.01,0.0,0.1599999964237213,-0.14000000059604645,0.019999999552965164,0.01324462890625,-0.1082763671875,1.01568603515625,31.270000457763672,0.0,15.0,-0.71990966796875,1.6436309814453125,Waiting,-9.100000000000001,30.125,-4490.0,-293.0,-2265.0,-2400.0,0.0,0.0,
4.835070999999997,0.0,0.0,0.0,0.0,0.0,0.0,0.0,0.125,0.784912029,0.01,0.0,0.0,0.0,0.0,-0.0,0.0,0.0,0.404052693,0.01,0.0,0.0,0.0,0.0,0.0,0.0,0.0,3.236083653,0.01,-0.0012207029999995456,0.0,0.0,0.0,-0.0,0.0,0.125,1.5808103850000002,0.01,0.0,0.1899999976158142,-0.14000000059604645,0.009999999776482582,-0.03594970703125,-0.07293701171875,0.662109375,31.270000457763672,0.0,-34.0,-0.7213897705078125,1.6434326171875,Waiting,-9.15,29.5,-4860.0,-306.0,-2310.0,-2400.0,0.0,0.0,
4.910224000000046,0.0,0.0,0.0,0.0,0.0,0.0,0.0,0.125,0.783691326,0.01,0.0,0.0,0.0,0.0,-0.0,0.0,0.0,0.40283199000000003,0.01,0.0,0.0,0.0,0.0,0.0,0.0,0.0,3.236083653,0.01,0.0,0.0,0.0,0.0,-0.0,0.0,0.125,1.5808103850000002,0.01,0.0,0.20000000298023224,-0.14000000059604645,0.019999999552965164,-0.16754150390625,-0.06268310546875,0.505615234375,31.270000457763672,0.0,-166.0,-0.7228851318359375,1.6434173583984375,Waiting,-9.15,28.875,-4860.0,-306.0,-2370.0,-2400.0,0.0,0.0,
4.98146100000001,0.0,0.0,0.0,0.0,0.0,0.0,0.0,0.125,0.783691326,0.01,0.0,0.0,0.0,0.0,-0.0,0.0,0.0,0.404052693,0.01,0.0,0.0,0.0,0.0,0.0,0.0,0.0,3.236083653,0.01,0.0012207029999995456,0.0,0.0,0.0,-0.0,0.0,0.125,1.5808103850000002,0.01,0.0,0.25,-0.10000000149011612,0.019999999552965164,-0.0479736328125,0.015625,0.6871337890625,31.270000457763672,0.0,-46.0,-0.72479248046875,1.6437530517578125,Waiting,-9.2,28.625,-5243.0,-317.0,-2415.0,-2400.0,0.0,0.0,
5.050445999999996,0.0,0.0,0.0,0.0,0.0,0.0,0.0,0.125,0.784912029,0.01,0.0,0.0,0.0,0.0,-0.0,0.0,0.0,0.404052693,0.01,0.0,0.0,0.0,0.0,0.0,0.0,0.0,3.237304356,0.01,0.0,0.0,0.0,0.0,-0.0,0.0,0.125,1.5808103850000002,0.01,0.0,0.23000000417232513,-0.12999999523162842,0.019999999552965164,-0.22784423828125,-0.0228271484375,0.89654541015625,31.290000915527344,0.0,-225.0,-0.7261810302734375,1.6442108154296875,Waiting,-9.25,28.0,-5639.0,-327.0,-2467.5,-2400.0,0.0,0.0,
5.1268310000000055,0.0,0.0,0.0,0.0,0.0,0.0,0.0,0.125,0.783691326,0.01,0.0,0.0,0.0,0.0,-0.0,0.0,0.0,0.405273396,0.01,0.0,0.0,0.0,0.0,0.0,0.0,0.0,3.237304356,0.01,-0.0012207030000004337,0.0,0.0,0.0,-0.0,0.0,0.125,1.5808103850000002,0.01,0.0,0.23999999463558197,-0.07999999821186066,0.019999999552965164,0.07244873046875,0.05535888671875,0.971923828125,31.290000915527344,0.0,73.0,-0.7273712158203125,1.6440887451171875,Waiting,-9.25,27.75,-5639.0,-327.0,-2505.0,-2400.0,0.0,0.0,
5.194614999999991,0.0,0.0,0.0,0.0,0.0,0.0,0.0,0.125,0.783691326,0.01,0.0,0.0,0.0,0.0,-0.0,0.0,0.0,0.404052693,0.01,0.0,0.0,0.0,0.0,0.0,0.0,0.0,3.236083653,0.01,0.0,0.0,0.0,0.0,-0.0,0.0,0.125,1.5808103850000002,0.01,0.0,0.23999999463558197,-0.07999999821186066,0.019999999552965164,0.15850830078125,-0.04766845703125,1.214599609375,31.290000915527344,0.0,160.0,-0.7274017333984375,1.64398193359375,Waiting,-9.3,27.25,-6045.0,-336.0,-2550.0,-2400.0,0.0,0.0,
5.270841000000015,0.0,0.0,0.0,0.0,0.0,0.0,0.0,0.125,0.784912029,0.01,0.0,0.0,0.0,0.0,-0.0,0.0,0.0,0.404052693,0.01,0.0012207029999995456,0.0,0.0,0.0,0.0,0.0,0.0,3.236083653,0.01,-0.0012207029999995456,0.0,0.0,0.0,-0.0,0.0,0.125,1.5808103850000002,0.01,0.0,0.17000000178813934,-0.20000000298023224,0.019999999552965164,-0.19561767578125,-0.0460205078125,0.5711669921875,31.290000915527344,0.0,-193.0,-0.7288818359375,1.6430816650390625,Waiting,-9.3,27.0,-6045.0,-336.0,-2580.0,-2400.0,0.0,0.0,
5.344802999999956,0.0,0.0,0.0,0.0,0.0,0.0,0.0,0.125,0.784912029,0.01,0.0,0.0,0.0,0.0,-0.0,0.0,0.0,0.405273396,0.01,0.0,0.0,0.0,0.0,0.0,0.0,0.0,3.232421544,0.01,0.0,0.0,0.0,0.0,-0.0,0.0,0.125,1.5808103850000002,0.01,0.0,0.019999999552965164,-0.25,0.019999999552965164,-0.1153564453125,-0.141357421875,0.90032958984375,31.290000915527344,0.0,-111.0,-0.732269287109375,1.6400604248046875,Waiting,-9.350000000000001,26.625,-6461.0,-345.0,-2617.5,-2400.0,0.0,0.0,
5.419201000000001,0.0,0.0,0.0,0.0,0.0,0.0,0.0,0.125,0.784912029,0.01,0.0,0.0,0.0,0.0,-0.0,0.0,0.0,0.404052693,0.01,0.0,0.0,0.0,0.0,0.0,0.0,0.0,3.232421544,0.01,-0.0024414059999999793,0.0,0.0,0.0,-0.0,0.0,0.125,1.5759275730000002,0.01,-0.0012207029999995456,0.0,-0.2199999988079071,0.019999999552965164,0.17236328125,0.02423095703125,1.179443359375,31.290000915527344,0.0,176.0,-0.7358551025390625,1.6358642578125,Waiting,-9.4,26.5,-6886.0,-352.0,-2647.5,-2400.0,0.0,0.0,
5.493944999999949,0.0,0.0,0.0,0.0,0.0,0.0,0.0,0.125,0.783691326,0.01,0.0,0.0,0.0,0.0,-0.0,0.0,0.0,0.404052693,0.01,0.0,0.0,0.0,0.0,0.0,0.0,0.0,3.237304356,0.01,0.0,0.0,0.0,0.0,-0.0,0.0,0.125,1.5808103850000002,0.01,0.0,-0.019999999552965164,-0.23999999463558197,0.019999999552965164,0.36517333984375,-0.1622314453125,1.33087158203125,31.290000915527344,0.0,370.0,-0.739990234375,1.63201904296875,Waiting,-9.4,26.125,-6886.0,-352.0,-2685.0,-2400.0,0.0,0.0,
5.571466999999946,0.0,0.0,0.0,0.0,0.0,0.0,0.0,0.125,0.783691326,0.01,0.0,0.0,0.0,0.0,-0.0,0.0,0.0,0.404052693,0.01,0.0,0.0,0.0,0.0,0.0,0.0,0.0,3.232421544,0.01,0.0024414059999999793,0.0,0.0,0.0,-0.0,0.0,0.125,1.5820310880000001,0.01,0.003662108999999525,-0.009999999776482582,-0.25,0.019999999552965164,0.23626708984375,-0.12762451171875,1.630126953125,31.280000686645508,0.0,243.0,-0.74462890625,1.6269683837890625,Waiting,-9.4,25.875,-7326.0,-359.0,-2707.5,-2400.0,0.0,0.0,
5.646822000000044,0.0,0.0,0.0,0.0,0.0,0.0,0.0,0.125,0.783691326,0.01,0.0,0.0,0.0,0.0,-0.0,0.0,0.0,0.404052693,0.01,0.0,0.0,0.0,0.0,0.0,0.0,0.0,3.236083653,0.01,0.0,0.0,0.0,0.0,-0.0,0.0,0.125,1.5795896820000002,0.01,0.0,0.0,-0.23999999463558197,0.019999999552965164,0.28192138671875,-0.1370849609375,1.37249755859375,31.280000686645508,0.0,287.0,-0.7490692138671875,1.62200927734375,Waiting,-9.45,25.5,-7758.0,-365.0,-2737.5,-2400.0,0.0,0.0,
5.721994999999995,0.0,0.0,0.0,0.0,0.0,0.0,0.0,0.125,0.783691326,0.01,0.0,0.0,0.0,0.0,-0.0,0.0,0.0,0.40039058400000005,0.01,0.0,0.0,0.0,0.0,0.0,0.0,0.0,3.236083653,0.01,-0.0012207030000004337,0.0,0.0,0.0,-0.0,0.0,0.125,1.5759275730000002,0.01,-0.006103515000000392,0.009999999776482582,-0.23000000417232513,0.019999999552965164,0.320068359375,-0.1473388671875,1.180908203125,31.280000686645508,0.0,324.0,-0.7529296875,1.6176910400390625,Waiting,-9.15439882697947,24.5,-7758.0,-365.0,-2767.5,-2400.0,0.0,0.0,
5.79347900000005,0.0,0.0,0.0,0.0,0.0,0.0,0.0,0.125,0.783691326,0.01,0.0,0.0,0.0,0.0,-0.0,0.0,0.0,0.404052693,0.01,0.0,0.0,0.0,0.0,0.0,0.0,0.0,3.228759435,0.01,0.0,0.0,0.0,0.0,-0.0,0.0,0.125,1.5783689790000002,0.01,0.0,0.029999999329447746,-0.25999999046325684,0.019999999552965164,0.31390380859375,-1.8310546875E-4,1.2503662109375,31.280000686645508,0.0,319.0,-0.757049560546875,1.612884521484375,Waiting,-8.903519061583577,21.0,-8203.0,-370.0,-2782.5,-2400.0,0.0,0.0,
5.870540000000037,0.0,0.0,0.0,0.0,0.0,0.0,0.0,0.125,0.784912029,0.01,0.0,0.0,0.0,0.0,-0.0,0.0,0.0,0.40283199000000003,0.01,0.0,0.0,0.0,0.0,0.0,0.0,0.0,3.237304356,0.01,0.0012207029999995456,0.0,0.0,0.0,-0.0,0.0,0.125,1.5808103850000002,0.01,0.0024414060000008675,0.09000000357627869,-0.1899999976158142,0.019999999552965164,-0.05792236328125,-0.01239013671875,1.0115966796875,31.280000686645508,0.0,-54.0,-0.7607269287109375,1.6080322265625,Waiting,-8.353567937438903,18.375,-8203.0,-370.0,-2797.5,-2400.0,0.0,0.0,
5.941005000000005,0.0,0.0,0.0,0.0,0.0,0.0,0.0,0.125,0.783691326,0.01,0.0,0.0,0.0,0.0,-0.0,0.0,0.0,0.404052693,0.01,0.0,0.0,0.0,0.0,0.0,0.0,0.0,3.237304356,0.01,0.0,0.0,0.0,0.0,-0.0,0.0,0.125,1.5808103850000002,0.01,0.0,0.07000000029802322,-0.2199999988079071,0.019999999552965164,0.3687744140625,-0.0860595703125,1.35308837890625,31.280000686645508,0.0,373.0,-0.765838623046875,1.6019744873046875,Waiting,-8.330791788856306,15.625,-8651.0,-373.0,-2797.5,-2400.0,0.0,0.0,
6.027420999999973,0.0,0.0,0.0,0.0,0.0,0.0,0.0,0.125,0.7885741380000001,0.01,0.0,0.0,0.0,0.0,-0.0,0.0,0.0,0.404052693,0.01,0.0,0.0,0.0,0.0,0.0,0.0,0.0,3.236083653,0.01,0.0,0.0,0.0,0.0,-0.0,0.0,0.125,1.5808103850000002,0.01,0.0,0.09000000357627869,-0.23000000417232513,0.019999999552965164,0.10943603515625,0.04193115234375,1.104736328125,31.290000915527344,0.0,113.0,-0.7700653076171875,1.5974884033203125,Waiting,-8.354154447702836,14.875,-9097.0,-372.0,-2782.5,-2400.0,0.0,0.0,
6.096111999999964,0.0,0.0,0.0,0.0,0.0,0.0,0.0,0.125,0.780029217,0.01,0.0,0.0,0.0,0.0,-0.0,0.0,0.0,0.404052693,0.01,0.0,0.0,0.0,0.0,0.0,0.0,0.0,3.236083653,0.01,0.0,0.0,0.0,0.0,-0.0,0.0,0.125,1.5808103850000002,0.01,0.0,0.09000000357627869,-0.2199999988079071,0.019999999552965164,0.0118408203125,-0.07366943359375,1.09979248046875,31.290000915527344,0.0,16.0,-0.7744598388671875,1.5937652587890625,Waiting,-8.304545454545456,14.375,-9097.0,-372.0,-2767.5,-2400.0,0.0,0.0,
6.175873999999952,0.0,0.0,0.0,0.0,0.0,0.0,0.0,0.125,0.784912029,0.01,0.0,0.0,0.0,0.0,-0.0,0.0,0.0,0.404052693,0.01,0.0,0.0,0.0,0.0,0.0,0.0,0.0,3.237304356,0.01,0.0,0.0,0.0,0.0,-0.0,0.0,0.125,1.5808103850000002,0.01,0.0,0.10999999940395355,-0.23000000417232513,0.019999999552965164,-0.0665283203125,-0.0223388671875,1.148681640625,31.290000915527344,0.0,-61.0,-0.7790069580078125,1.589447021484375,Waiting,-8.226050830889541,14.0,-9540.0,-369.0,-2760.0,-2400.0,0.0,0.0,
6.2476840000000085,0.0,0.0,0.0,0.0,0.0,0.0,0.0,0.125,0.783691326,0.01,0.0,0.0,0.0,0.0,-0.0,0.0,0.0,0.404052693,0.01,0.0,0.0,0.0,0.0,0.0,0.0,0.0,3.236083653,0.01,0.0,0.0,0.0,0.0,-0.0,0.0,0.125,1.5808103850000002,0.01,0.0,0.10000000149011612,-0.20999999344348907,0.019999999552965164,-0.11822509765625,0.1055908203125,0.8544921875,31.290000915527344,0.0,-114.0,-0.7823486328125,1.5856475830078125,Waiting,-8.156011730205277,13.875,-9979.0,-366.0,-2745.0,-2400.0,0.0,0.0,
6.3219830000000075,0.0,0.0,0.0,0.0,0.0,0.0,0.0,0.125,0.783691326,0.01,0.0,0.0,0.0,0.0,-0.0,0.0,0.0,0.404052693,0.01,0.0,0.0,0.0,0.0,0.0,0.0,0.0,3.231200841,0.01,0.0012207029999995456,0.0,0.0,0.0,-0.0,0.0,0.125,1.5808103850000002,0.01,0.0,0.09000000357627869,-0.20000000298023224,0.019999999552965164,-0.18267822265625,0.1064453125,0.8902587890625,31.290000915527344,0.0,-179.0,-0.786407470703125,1.5814208984375,Waiting,-8.175953079178885,14.0,-9979.0,-366.0,-2730.0,-2400.0,0.0,0.0,
6.391895999999949,0.0,0.0,0.0,0.0,0.0,0.0,0.0,0.125,0.783691326,0.01,0.0,0.0,0.0,0.0,-0.0,0.0,0.0,0.404052693,0.01,0.0,0.0,0.0,0.0,0.0,0.0,0.0,3.236083653,0.01,0.0,0.0,0.0,0.0,-0.0,0.0,0.125,1.57470687,0.01,0.0,0.05000000074505806,-0.20999999344348907,0.019999999552965164,0.39398193359375,-0.0755615234375,1.482177734375,31.290000915527344,0.0,399.0,-0.7896881103515625,1.577789306640625,Waiting,-8.15542521994135,13.75,-10419.0,-363.0,-2722.5,-2400.0,0.0,0.0,
6.468714999999968,0.0,0.0,0.0,0.0,0.0,0.0,0.0,0.125,0.784912029,0.01,0.0,0.0,0.0,0.0,-0.0,0.0,0.0,0.405273396,0.01,0.0,0.0,0.0,0.0,0.0,0.0,0.0,3.236083653,0.01,0.0,0.0,0.0,0.0,-0.0,0.0,0.125,1.5759275730000002,0.01,0.0,0.009999999776482582,-0.1599999964237213,0.019999999552965164,-0.46820068359375,0.29071044921875,0.5477294921875,31.290000915527344,0.0,-466.0,-0.7939453125,1.57159423828125,Waiting,-8.125219941348973,13.375,-10419.0,-363.0,-2707.5,-2400.0,0.0,0.0,
6.54527899999998,0.0,0.0,0.0,0.0,0.0,0.0,0.0,0.125,0.783691326,0.01,0.0,0.0,0.0,0.0,-0.0,0.0,0.0,0.405273396,0.01,0.0,0.0,0.0,0.0,0.0,0.0,0.0,3.231200841,0.01,0.0,0.0,0.0,0.0,-0.0,0.0,0.125,1.5808103850000002,0.01,0.0012207030000004337,0.029999999329447746,-0.18000000715255737,0.019999999552965164,-0.33856201171875,0.04693603515625,0.8157958984375,31.299999237060547,0.0,-335.0,-0.797943115234375,1.56787109375,Waiting,-8.073607038123168,13.125,-10849.0,-361.0,-2700.0,-2400.0,0.0,0.0,
6.616008000000031,0.0,0.0,0.0,0.0,0.0,0.0,0.0,0.125,0.783691326,0.01,0.0,0.0,0.0,0.0,-0.0,0.0,0.0,0.404052693,0.01,0.0,0.0,0.0,0.0,0.0,0.0,0.0,3.236083653,0.01,0.0,0.0,0.0,0.0,-0.0,0.0,0.125,1.5808103850000002,0.01,0.0024414059999999793,0.10000000149011612,-0.25999999046325684,0.019999999552965164,-0.03082275390625,-0.08837890625,1.15936279296875,31.299999237060547,0.0,-25.0,-0.8025970458984375,1.5640869140625,Waiting,-8.00078201368524,12.875,-11280.0,-359.0,-2692.5,-2400.0,0.0,0.0,
6.68928899999999,0.0,0.0,0.0,0.0,0.0,0.0,0.0,0.125,0.783691326,0.01,0.0,0.0,0.0,0.0,-0.0,0.0,0.0,0.404052693,0.01,0.0,0.0,0.0,0.0,0.0,0.0,0.0,3.23486295,0.01,0.0,0.0,0.0,0.0,-0.0,0.0,0.125,1.5808103850000002,0.01,0.0,0.03999999910593033,-0.18000000715255737,0.019999999552965164,-0.4599609375,0.1243896484375,0.64599609375,31.299999237060547,0.0,-457.0,-0.806549072265625,1.5603485107421875,Waiting,-7.929618768328446,12.375,-11280.0,-359.0,-2685.0,-2400.0,0.0,0.0,
6.759655000000028,0.0,0.0,0.0,0.0,0.0,0.0,0.0,0.125,0.783691326,0.01,0.0,0.0,0.0,0.0,-0.0,0.0,0.0,0.40771480200000004,0.01,0.0,0.0,0.0,0.0,0.0,0.0,0.0,3.236083653,0.01,0.0,0.0,0.0,0.0,-0.0,0.0,0.125,1.57470687,0.01,0.0,0.0,-0.27000001072883606,0.019999999552965164,0.265869140625,-0.1768798828125,1.2794189453125,31.299999237060547,0.0,271.0,-0.81304931640625,1.55419921875,Waiting,-7.827956989247312,12.0,-11709.0,-357.0,-2677.5,-2400.0,0.0,0.0,
6.832871999999974,0.0,0.0,0.0,0.0,0.0,0.0,0.0,0.125,0.783691326,0.01,0.0,0.0,0.0,0.0,-0.0,0.0,0.0,0.404052693,0.01,0.0,0.0,0.0,0.0,0.0,0.0,0.0,3.237304356,0.01,0.0,0.0,0.0,0.0,-0.0,0.0,0.125,1.5795896820000002,0.01,0.0,0.07000000029802322,-0.28999999165534973,0.019999999552965164,0.26861572265625,0.00714111328125,1.17022705078125,31.299999237060547,0.0,274.0,-0.8171844482421875,1.550079345703125,Waiting,-7.766959921798632,11.75,-11709.0,-357.0,-2670.0,-2400.0,0.0,0.0,
6.906788000000058,0.0,0.0,0.0,0.0,0.0,0.0,0.0,0.125,0.784912029,0.01,0.0,0.0,0.0,0.0,-0.0,0.0,0.0,0.404052693,0.01,0.0,0.0,0.0,0.0,0.0,0.0,0.0,3.236083653,0.01,0.0,0.0,0.0,0.0,-0.0,0.0,0.125,1.5808103850000002,0.01,0.0,0.0,-0.25,0.019999999552965164,0.313232421875,-0.21807861328125,1.3111572265625,31.299999237060547,0.0,319.0,-0.822845458984375,1.546112060546875,Waiting,-7.718475073313783,11.375,-12139.0,-356.0,-2662.5,-2400.0,0.0,0.0,
6.983812999999966,0.0,0.0,0.0,0.0,0.0,0.0,0.0,0.125,0.78124992,0.01,0.0012207030000004337,0.0,0.0,0.0,-0.0,0.0,0.0,0.405273396,0.01,0.0,0.0,0.0,0.0,0.0,0.0,0.0,3.23486295,0.01,0.0024414059999999793,0.0,0.0,0.0,-0.0,0.0,0.125,1.5795896820000002,0.01,-0.0012207029999995456,0.10000000149011612,-0.2800000011920929,0.029999999329447746,-0.30810546875,0.051513671875,0.66070556640625,31.299999237060547,0.0,-304.0,-0.828582763671875,1.5421295166015625,Waiting,-7.74017595307918,10.75,-12561.0,-354.0,-2655.0,-2400.0,0.0,0.0,
7.053219999999972,0.0,0.0,0.0,0.0,0.0,0.0,0.0,0.125,0.784912029,0.01,0.0,0.0,0.0,0.0,-0.0,0.0,0.0,0.405273396,0.01,0.0,0.0,0.0,0.0,0.0,0.0,0.0,3.237304356,0.01,0.0,0.0,0.0,0.0,-0.0,0.0,0.125,1.5808103850000002,0.01,0.0,-0.029999999329447746,-0.25999999046325684,0.029999999329447746,0.337646484375,-0.05426025390625,1.2335205078125,31.280000686645508,0.0,343.0,-0.8362274169921875,1.53680419921875,Waiting,-7.6572825024437945,10.25,-12561.0,-354.0,-2647.5,-2400.0,0.0,0.0,
7.130346999999951,0.0,0.0,0.0,0.0,0.0,0.0,0.0,0.125,0.784912029,0.01,0.0,0.0,0.0,0.0,-0.0,0.0,0.0,0.404052693,0.01,0.0,0.0,0.0,0.0,0.0,0.0,0.0,3.231200841,0.01,0.0012207030000004337,0.0,0.0,0.0,-0.0,0.0,0.125,1.5808103850000002,0.01,0.0,0.05999999865889549,-0.20000000298023224,0.029999999329447746,-0.46466064453125,0.13958740234375,0.63433837890625,31.280000686645508,0.0,-462.0,-0.839569091796875,1.5343475341796875,Waiting,-7.579912023460412,10.125,-12985.0,-353.0,-2640.0,-2400.0,0.0,0.0,
7.200584999999963,0.0,0.0,0.0,0.0,0.0,0.0,0.0,0.125,0.7885741380000001,0.01,-0.0012207030000004337,0.0,0.0,0.0,-0.0,0.0,0.0,0.404052693,0.01,0.0,0.0,0.0,0.0,0.0,0.0,0.0,3.236083653,0.01,0.0,0.0,0.0,0.0,-0.0,0.0,0.125,1.5808103850000002,0.01,0.0,0.05000000074505806,-0.28999999165534973,0.019999999552965164,-0.02557373046875,0.04931640625,0.91961669921875,31.280000686645508,0.0,-20.0,-0.8468780517578125,1.5294952392578125,Waiting,-7.543304007820138,10.0,-13406.0,-351.0,-2632.5,-2400.0,0.0,0.0,
7.275320999999996,0.0,0.0,0.0,0.0,0.0,0.0,0.0,0.125,0.7788085140000001,0.01,0.0012207030000004337,0.0,0.0,0.0,-0.0,0.0,0.0,0.404052693,0.01,0.0,0.0,0.0,0.0,0.0,0.0,0.0,3.237304356,0.01,0.0012207030000004337,0.0,0.0,0.0,-0.0,0.0,0.125,1.5808103850000002,0.01,-0.0012207029999995456,-0.019999999552965164,-0.2199999988079071,0.019999999552965164,0.34649658203125,-0.12347412109375,1.6124267578125,31.280000686645508,0.0,352.0,-0.851654052734375,1.52484130859375,Waiting,-7.491495601173021,9.875,-13406.0,-351.0,-2625.0,-2400.0,0.0,0.0,
7.349792000000016,0.0,0.0,0.0,0.0,0.0,0.0,0.0,0.125,0.784912029,0.01,0.0,0.0,0.0,0.0,-0.0,0.0,0.0,0.405273396,0.01,0.0,0.0,0.0,0.0,0.0,0.0,0.0,3.236083653,0.01,0.0,0.0,0.0,0.0,-0.0,0.0,0.125,1.5808103850000002,0.01,0.0,0.11999999731779099,-0.1899999976158142,0.029999999329447746,-0.41259765625,0.146240234375,0.72149658203125,31.280000686645508,0.0,-410.0,-0.8568572998046875,1.519622802734375,Waiting,-7.574389051808408,10.125,-13825.0,-349.0,-2610.0,-2400.0,0.0,0.0,
7.425462999999989,0.0,0.0,0.0,0.0,0.0,0.0,0.0,0.125,0.784912029,0.01,-0.0012207030000004337,0.0,0.0,0.0,-0.0,0.0,0.0,0.404052693,0.01,0.0,0.0,0.0,0.0,0.0,0.0,0.0,3.236083653,0.01,0.0,0.0,0.0,0.0,-0.0,0.0,0.125,1.5795896820000002,0.01,0.0,0.2199999988079071,-0.38999998569488525,0.029999999329447746,0.23126220703125,-0.07666015625,1.3699951171875,31.280000686645508,0.0,240.0,-0.862945556640625,1.5158538818359375,Waiting,-7.6883675464320635,10.75,-13825.0,-349.0,-2595.0,-2400.0,0.0,0.0,
7.493464000000037,0.0,0.0,0.0,0.0,0.0,0.0,0.0,0.125,0.783691326,0.01,0.0012207030000004337,0.0,0.0,0.0,-0.0,0.0,0.0,0.404052693,0.01,0.0,0.0,0.0,0.0,0.0,0.0,0.0,3.236083653,0.01,-0.0012207029999995456,0.0,0.0,0.0,-0.0,0.0,0.125,1.5808103850000002,0.01,-0.0012207029999995456,0.10999999940395355,-0.4000000059604645,0.029999999329447746,-0.12664794921875,0.01025390625,0.71783447265625,31.280000686645508,0.0,-121.0,-0.869415283203125,1.5115509033203125,Waiting,-7.631476050830891,10.875,-14240.0,-346.0,-2587.5,-2400.0,0.0,0.0,
7.570726999999955,0.0,0.0,0.0,0.0,0.0,0.0,0.0,0.125,0.783691326,0.01,-0.0012207030000004337,0.0,0.0,0.0,-0.0,0.0,0.0,0.404052693,0.01,0.0,0.0,0.0,0.0,0.0,0.0,0.0,3.236083653,0.01,0.0,0.0,0.0,0.0,-0.0,0.0,0.125,1.5808103850000002,0.01,0.0,-0.019999999552965164,-0.38999998569488525,0.029999999329447746,-0.0032958984375,-0.0888671875,0.99053955078125,31.31999969482422,0.0,3.0,-0.8757476806640625,1.5059051513671875,Waiting,-7.595307917888563,11.0,-14653.0,-344.0,-2580.0,-2400.0,0.0,0.0,
7.64467200000002,0.0,0.0,0.0,0.0,0.0,0.0,0.0,0.125,0.783691326,0.01,0.0012207030000004337,0.0,0.0,0.0,-0.0,0.0,0.0,0.404052693,0.01,0.0,0.0,0.0,0.0,0.0,0.0,0.0,3.236083653,0.01,0.0012207029999995456,0.0,0.0,0.0,-0.0,0.0,0.125,1.5869139,0.01,0.0,-0.18000000715255737,-0.3400000035762787,0.029999999329447746,-0.01043701171875,-0.01263427734375,0.91180419921875,31.31999969482422,0.0,-5.0,-0.88165283203125,1.4988861083984375,Waiting,-7.718475073313783,11.25,-14653.0,-344.0,-2565.0,-2400.0,0.0,0.0,
7.718712999999989,0.0,0.0,0.0,0.0,0.0,0.0,0.0,0.125,0.784912029,0.01,-0.0012207030000004337,0.0,0.0,0.0,-0.0,0.0,0.0,0.404052693,0.01,0.0,0.0,0.0,0.0,0.0,0.0,0.0,3.236083653,0.01,-0.0012207029999995456,0.0,0.0,0.0,-0.0,0.0,0.125,1.5808103850000002,0.01,0.0,-0.3499999940395355,-0.3100000023841858,0.029999999329447746,-0.1502685546875,-0.023681640625,0.72802734375,31.31999969482422,0.0,-146.0,-0.8816375732421875,1.488006591796875,Waiting,-7.718475073313783,11.375,-15064.0,-342.0,-2557.5,-2400.0,0.0,0.0,
7.792405000000028,0.0,0.0,0.0,0.0,0.0,0.0,0.0,0.125,0.783691326,0.01,0.0012207030000004337,0.0,0.0,0.0,-0.0,0.0,0.0,0.405273396,0.01,0.0,0.0,0.0,0.0,0.0,0.0,0.0,3.237304356,0.01,-0.0012207030000004337,0.0,0.0,0.0,-0.0,0.0,0.125,1.5808103850000002,0.01,-0.0012207029999995456,-0.4000000059604645,-0.3100000023841858,0.029999999329447746,-0.2706298828125,0.0040283203125,0.6092529296875,31.31999969482422,0.0,-267.0,-0.881561279296875,1.47991943359375,Waiting,-7.718475073313783,11.5,-15472.0,-340.0,-2550.0,-2400.0,0.0,0.0,
7.870841000000015,0.0,0.0,0.0,0.0,0.0,0.0,0.0,0.125,0.783691326,0.01,0.0,0.0,0.0,0.0,-0.0,0.0,0.0,0.40039058400000005,0.01,0.0,0.0,0.0,0.0,0.0,0.0,0.0,3.238525059,0.01,0.0012207030000004337,0.0,0.0,0.0,-0.0,0.0,0.125,1.5759275730000002,0.01,0.0012207029999995456,-0.4000000059604645,-0.49000000953674316,0.03999999910593033,-0.36785888671875,0.115966796875,0.49139404296875,31.31999969482422,0.0,-363.0,-0.882537841796875,1.46661376953125,Waiting,-7.691935483870967,11.375,-15472.0,-340.0,-2542.5,-2400.0,0.0,0.0,
7.948994999999996,0.0,0.0,0.0,0.0,0.0,0.0,0.0,0.125,0.783691326,0.01,-0.0012207030000004337,0.0,0.0,0.0,-0.0,0.0,0.0,0.404052693,0.01,0.0,0.0,0.0,0.0,0.0,0.0,0.0,3.236083653,0.01,0.0,0.0,0.0,0.0,-0.0,0.0,0.125,1.5808103850000002,0.01,0.0,-0.3100000023841858,-0.5699999928474426,0.03999999910593033,-0.41131591796875,0.1077880859375,0.5906982421875,31.31999969482422,0.0,-405.0,-0.884063720703125,1.458160400390625,Waiting,-7.73900293255132,11.5,-15879.0,-339.0,-2535.0,-2400.0,0.0,0.0,
8.027993999999948,0.0,0.0,0.0,0.0,0.0,0.0,0.0,0.125,0.7885741380000001,0.01,0.0012207030000004337,0.0,0.0,0.0,-0.0,0.0,0.0,0.405273396,0.01,0.0,0.0,0.0,0.0,0.0,0.0,0.0,3.236083653,0.01,-0.0012207030000004337,0.0,0.0,0.0,-0.0,0.0,0.125,1.5808103850000002,0.01,-0.0012207029999995456,-0.17000000178813934,-0.5600000023841858,0.03999999910593033,-0.256103515625,0.07086181640625,0.775390625,31.31999969482422,0.0,-248.0,-0.886199951171875,1.446075439453125,Waiting,-7.605571847507331,11.375,-15879.0,-339.0,-2535.0,-2400.0,0.0,0.0,
8.10816399999999,0.0,0.0,0.0,0.0,0.0,0.0,0.0,0.125,0.783691326,0.01,0.0,0.0,0.0,0.0,-0.0,0.0,0.0,0.404052693,0.01,0.0,0.0,0.0,0.0,0.0,0.0,0.0,3.23486295,0.01,0.0,0.0,0.0,0.0,-0.0,0.0,0.125,1.5808103850000002,0.01,0.0,-0.10999999940395355,-0.4699999988079071,0.029999999329447746,0.14312744140625,0.03753662109375,1.39794921875,31.31999969482422,0.0,154.0,-0.8867340087890625,1.4372406005859375,Waiting,-7.672727272727274,11.5,-16288.0,-338.0,-2527.5,-2400.0,0.0,0.0,
8.18841300000006,0.0,0.0,0.0,0.0,0.0,0.0,0.0,0.125,0.783691326,0.01,0.0,0.0,0.0,0.0,-0.0,0.0,0.0,0.404052693,0.01,0.0,0.0,0.0,0.0,0.0,0.0,0.0,3.237304356,0.01,0.0,0.0,0.0,0.0,-0.0,0.0,0.125,1.5795896820000002,0.01,0.0012207029999995456,-0.1899999976158142,-0.38999998569488525,0.03999999910593033,0.19842529296875,-0.0609130859375,1.030517578125,31.31999969482422,0.0,205.0,-0.8857269287109375,1.4279022216796875,Waiting,-7.630645161290322,11.375,-16688.0,-336.0,-2520.0,-2400.0,0.0,0.0,
8.263305999999982,0.0,0.0,0.0,0.0,0.0,0.0,0.0,0.125,0.783691326,0.01,0.0,0.0,0.0,0.0,-0.0,0.0,0.0,0.405273396,0.01,0.0,0.0,0.0,0.0,0.0,0.0,0.0,3.236083653,0.01,0.0,0.0,0.0,0.0,-0.0,0.0,0.125,1.5808103850000002,0.01,0.0,-0.23999999463558197,-0.550000011920929,0.029999999329447746,0.3349609375,-0.0516357421875,1.5050048828125,31.31999969482422,0.0,349.0,-0.8853302001953125,1.416412353515625,Waiting,-7.661290322580644,11.375,-17091.0,-335.0,-2512.5,-2400.0,0.0,0.0,
8.349326000000001,0.0,0.0,0.0,0.0,0.0,0.0,0.0,0.125,0.783691326,0.01,0.0,0.0,0.0,0.0,-0.0,0.0,0.0,0.405273396,0.01,0.0,0.0,0.0,0.0,0.0,0.0,0.0,3.236083653,0.01,0.0,0.0,0.0,0.0,-0.0,0.0,0.125,1.5820310880000001,0.01,0.0,-0.10000000149011612,-0.46000000834465027,0.029999999329447746,-0.13836669921875,-0.068115234375,1.10858154296875,31.31999969482422,0.0,-129.0,-0.8850860595703125,1.4083251953125,Waiting,-7.718475073313783,11.5,-17091.0,-335.0,-2505.0,-2400.0,0.0,0.0,
8.43041399999999,0.0,0.0,0.0,0.0,0.0,0.0,0.0,0.125,0.784912029,0.01,0.0,0.0,0.0,0.0,-0.0,0.0,0.0,0.404052693,0.01,0.0,0.0,0.0,0.0,0.0,0.0,0.0,3.237304356,0.01,0.0,0.0,0.0,0.0,-0.0,0.0,0.125,1.5771482760000002,0.01,0.0012207029999995456,-0.1899999976158142,-0.3700000047683716,0.03999999910593033,-0.3465576171875,0.0086669921875,1.16607666015625,31.31999969482422,0.0,212.0,-0.88360595703125,1.3990936279296875,Waiting,-7.6,11.625,-17492.0,-334.0,-2505.0,-2400.0,0.0,0.0,
8.508388000000036,0.0,0.0,0.0,0.0,0.0,0.0,0.0,0.125,0.784912029,0.01,0.0,0.0,0.0,0.0,-0.0,0.0,0.0,0.404052693,0.01,0.0,0.0,0.0,0.0,0.0,0.0,0.0,3.236083653,0.01,0.0,0.0,0.0,0.0,-0.0,0.0,0.125,1.5808103850000002,0.01,0.0,-0.1899999976158142,-0.5199999809265137,0.03999999910593033,-0.22723388671875,0.06256103515625,1.12445068359375,31.31999969482422,0.0,-216.0,-0.8839111328125,1.390777587890625,Waiting,-7.651075268817204,11.875,-17892.0,-333.0,-2497.5,-2400.0,0.0,0.0,
8.58964300000004,0.0,0.0,0.0,0.0,0.0,0.0,0.0,0.125,0.784912029,0.01,0.0,0.0,0.0,0.0,-0.0,0.0,0.0,0.404052693,0.01,0.0,0.0,0.0,0.0,0.0,0.0,0.0,3.23486295,0.01,0.0024414059999999793,0.0,0.0,0.0,-0.0,0.0,0.125,1.5808103850000002,0.01,0.0024414059999999793,-0.1599999964237213,-0.4099999964237213,0.03999999910593033,-0.1864013671875,-0.098388671875,0.70416259765625,31.290000915527344,0.0,-181.0,-0.8837127685546875,1.383575439453125,Waiting,-7.569354838709677,11.5,-17892.0,-333.0,-2497.5,-2400.0,0.0,0.0,
8.667079000000028,0.0,0.0,0.0,0.0,0.0,0.0,0.0,0.125,0.784912029,0.01,0.0,0.0,0.0,0.0,-0.0,0.0,0.0,0.404052693,0.01,0.0,0.0,0.0,0.0,0.0,0.0,0.0,3.231200841,0.01,0.0,0.0,0.0,0.0,-0.0,0.0,0.125,1.5832517910000001,0.01,0.0,-0.1899999976158142,-0.550000011920929,0.03999999910593033,0.29559326171875,-0.0614013671875,1.40216064453125,31.290000915527344,0.0,309.0,-0.88360595703125,1.3754425048828125,Waiting,-7.620430107526881,11.875,-18290.0,-332.0,-2490.0,-2400.0,0.0,0.0,
8.743190999999992,0.0,0.0,0.0,0.0,0.0,0.0,0.0,0.125,0.783691326,0.01,0.0,0.0,0.0,0.0,-0.0,0.0,0.0,0.405273396,0.01,0.0,0.0,0.0,0.0,0.0,0.0,0.0,3.236083653,0.01,-0.0024414059999999793,0.0,0.0,0.0,-0.0,0.0,0.125,1.5759275730000002,0.01,0.0,-0.1899999976158142,-0.41999998688697815,0.03999999910593033,-0.207275390625,-0.096435546875,0.42547607421875,31.290000915527344,0.0,-204.0,-0.8831634521484375,1.3666534423828125,Waiting,-7.6715053763440855,12.125,-18290.0,-332.0,-2482.5,-2400.0,0.0,0.0,
8.822550999999978,0.0,0.0,0.0,0.0,0.0,0.0,0.0,0.125,0.783691326,0.01,0.0,0.0,0.0,0.0,-0.0,0.0,0.0,0.404052693,0.01,0.0,0.0,0.0,0.0,0.0,0.0,0.0,3.232421544,0.01,0.0024414059999999793,0.0,0.0,0.0,-0.0,0.0,0.125,1.5759275730000002,0.01,0.0,-0.20000000298023224,-0.550000011920929,0.03999999910593033,0.30694580078125,0.11773681640625,1.66552734375,31.290000915527344,0.0,323.0,-0.8828125,1.358184814453125,Waiting,-7.705962854349951,12.0,-18688.0,-331.0,-2475.0,-2400.0,0.0,0.0,
8.899467999999993,0.0,0.0,0.0,0.0,0.0,0.0,0.0,0.125,0.783691326,0.01,0.0,0.0,0.0,0.0,-0.0,0.0,0.0,0.404052693,0.01,0.0,0.0,0.0,0.0,0.0,0.0,0.0,3.236083653,0.01,0.0,0.0,0.0,0.0,-0.0,0.0,0.125,1.5820310880000001,0.01,0.0,-0.23999999463558197,-0.4399999976158142,0.03999999910593033,-0.38531494140625,0.15472412109375,0.4588623046875,31.290000915527344,0.0,-381.0,-0.88092041015625,1.3482208251953125,Waiting,-7.814516129032257,12.125,-19088.0,-330.0,-2475.0,-2400.0,0.0,0.0,
8.980082999999984,0.0,0.0,0.0,0.0,0.0,0.0,0.0,0.125,0.783691326,0.01,0.0,0.0,0.0,0.0,-0.0,0.0,0.0,0.405273396,0.01,0.0,0.0,0.0,0.0,0.0,0.0,0.0,3.236083653,0.01,0.0012207030000004337,0.0,0.0,0.0,-0.0,0.0,0.125,1.5795896820000002,0.01,0.0024414059999999793,-0.15000000596046448,-0.4099999964237213,0.03999999910593033,0.0732421875,0.029296875,0.971923828125,31.290000915527344,0.0,80.0,-0.8795013427734375,1.34051513671875,Waiting,-7.753225806451613,12.5,-19088.0,-330.0,-2467.5,-2400.0,0.0,0.0,
9.054359999999987,0.0,0.0,0.0,0.0,0.0,0.0,0.0,0.125,0.784912029,0.01,0.0,0.0,0.0,0.0,-0.0,0.0,0.0,0.405273396,0.01,0.0,0.0,0.0,0.0,0.0,0.0,0.0,3.237304356,0.01,0.0,0.0,0.0,0.0,-0.0,0.0,0.125,1.5795896820000002,0.01,0.0,-0.20000000298023224,-0.5099999904632568,0.03999999910593033,0.27069091796875,-0.05084228515625,1.460693359375,31.290000915527344,0.0,283.0,-0.8779449462890625,1.33233642578125,Waiting,-7.655131964809384,12.25,-19480.0,-329.0,-2460.0,-2400.0,0.0,0.0,
9.133449000000022,0.0,0.0,0.0,0.0,0.0,0.0,0.0,0.125,0.783691326,0.01,0.0,0.0,0.0,0.0,-0.0,0.0,0.0,0.405273396,0.01,0.0,0.0,0.0,0.0,0.0,0.0,0.0,3.237304356,0.01,-0.0024414059999999793,0.0,0.0,0.0,-0.0,0.0,0.125,1.5759275730000002,0.01,0.0,-0.11999999731779099,-0.3799999952316284,0.03999999910593033,0.12200927734375,-0.0625,0.84588623046875,31.309999465942383,0.0,127.0,-0.8763427734375,1.324615478515625,Waiting,-7.736461388074292,12.625,-19874.0,-328.0,-2460.0,-2400.0,0.0,0.0,
9.21040300000005,0.0,0.0,0.0,0.0,0.0,0.0,0.0,0.125,0.784912029,0.01,0.0,0.0,0.0,0.0,-0.0,0.0,0.0,0.404052693,0.01,0.0,0.0,0.0,0.0,0.0,0.0,0.0,3.236083653,0.01,0.0,0.0,0.0,0.0,-0.0,0.0,0.125,1.5759275730000002,0.01,0.0,-0.09000000357627869,-0.4099999964237213,0.03999999910593033,-0.0955810546875,-0.08197021484375,1.14666748046875,31.309999465942383,0.0,-87.0,-0.8748016357421875,1.3170928955078125,Waiting,-7.695796676441838,12.375,-19874.0,-328.0,-2460.0,-2400.0,0.0,0.0,
9.288516999999992,0.0,0.0,0.0,0.0,0.0,0.0,0.0,0.125,0.783691326,0.01,0.0,0.0,0.0,0.0,-0.0,0.0,0.0,0.406494099,0.01,0.0,0.0,0.0,0.0,0.0,0.0,0.0,3.236083653,0.01,-0.0024414059999999793,0.0,0.0,0.0,-0.0,0.0,0.125,1.5771482760000002,0.01,0.003662108999999525,-0.10000000149011612,-0.4000000059604645,0.03999999910593033,0.2825927734375,-0.10406494140625,1.26690673828125,31.309999465942383,0.0,291.0,-0.873443603515625,1.3108673095703125,Waiting,-7.644965786901271,12.125,-20268.0,-328.0,-2460.0,-2400.0,0.0,0.0,
9.370697999999974,0.0,0.0,0.0,0.0,0.0,0.0,0.0,0.125,0.784912029,0.01,0.0,0.0,0.0,0.0,-0.0,0.0,0.0,0.405273396,0.01,0.0,0.0,0.0,0.0,0.0,0.0,0.0,3.236083653,0.01,0.0,0.0,0.0,0.0,-0.0,0.0,0.125,1.5808103850000002,0.01,0.0,-0.029999999329447746,-0.3499999940395355,0.03999999910593033,-0.07989501953125,-0.12017822265625,0.76068115234375,31.309999465942383,0.0,-75.0,-0.8718109130859375,1.3018951416015625,Waiting,-7.594134897360704,11.875,-20662.0,-328.0,-2460.0,-2400.0,0.0,0.0,
9.444751999999978,0.0,0.0,0.0,0.0,0.0,0.0,0.0,0.125,0.783691326,0.01,0.0,0.0,0.0,0.0,-0.0,0.0,0.0,0.404052693,0.01,0.0,0.0,0.0,0.0,0.0,0.0,0.0,3.23486295,0.01,0.0,0.0,0.0,0.0,-0.0,0.0,0.125,1.5808103850000002,0.01,-0.0024414059999999793,-0.09000000357627869,-0.41999998688697815,0.03999999910593033,0.27423095703125,0.1021728515625,1.518798828125,31.309999465942383,0.0,285.0,-0.870574951171875,1.29339599609375,Waiting,-7.543304007820137,11.625,-20662.0,-328.0,-2460.0,-2400.0,0.0,0.0,
9.526454000000028,0.0,0.0,0.0,0.0,0.0,0.0,0.0,0.125,0.784912029,0.01,0.0,0.0,0.0,0.0,-0.0,0.0,0.0,0.405273396,0.01,0.0,0.0,0.0,0.0,0.0,0.0,0.0,3.236083653,0.01,0.0,0.0,0.0,0.0,-0.0,0.0,0.125,1.5808103850000002,0.01,0.0,-0.05999999865889549,-0.3499999940395355,0.03999999910593033,0.19293212890625,-0.1014404296875,1.2030029296875,31.309999465942383,0.0,200.0,-0.8683319091796875,1.2853851318359375,Waiting,-7.518279569892473,11.5,-21056.0,-328.0,-2460.0,-2400.0,0.0,0.0,
9.60321299999999,0.0,0.0,0.0,0.0,0.0,0.0,0.0,0.125,0.783691326,0.01,0.0,0.0,0.0,0.0,-0.0,0.0,0.0,0.40039058400000005,0.01,0.0,0.0,0.0,0.0,0.0,0.0,0.0,3.236083653,0.01,0.0012207030000004337,0.0,0.0,0.0,-0.0,0.0,0.125,1.5808103850000002,0.01,0.0,-0.07999999821186066,-0.33000001311302185,0.03999999910593033,-0.136474609375,-0.0828857421875,0.61236572265625,31.309999465942383,0.0,-132.0,-0.8668975830078125,1.276214599609375,Waiting,-7.502932551319648,11.125,-21450.0,-328.0,-2460.0,-2400.0,0.0,0.0,
9.676319999999949,0.0,0.0,0.0,0.0,0.0,0.0,0.0,0.125,0.783691326,0.01,-0.0012207030000004337,0.0,0.0,0.0,-0.0,0.0,0.0,0.405273396,0.01,0.0,0.0,0.0,0.0,0.0,0.0,0.0,3.236083653,0.01,0.0,0.0,0.0,0.0,-0.0,0.0,0.125,1.57470687,0.01,0.0,-0.10999999940395355,-0.4699999988079071,0.03999999910593033,0.31048583984375,0.09942626953125,1.65496826171875,31.309999465942383,0.0,324.0,-0.8658905029296875,1.2674407958984375,Waiting,-7.461876832844575,10.875,-21450.0,-328.0,-2460.0,-2400.0,0.0,0.0,
9.750152000000002,0.0,0.0,0.0,0.0,0.0,0.0,0.0,0.125,0.783691326,0.01,0.0,0.0,0.0,0.0,-0.0,0.0,0.0,0.404052693,0.01,0.0,0.0,0.0,0.0,0.0,0.0,0.0,3.236083653,0.01,0.0012207029999995456,0.0,0.0,0.0,-0.0,0.0,0.125,1.5759275730000002,0.01,-0.0024414059999999793,-0.09000000357627869,-0.33000001311302185,0.03999999910593033,-0.18377685546875,-0.0963134765625,0.47943115234375,31.309999465942383,0.0,-180.0,-0.864227294921875,1.2605133056640625,Waiting,-7.3117790811339205,10.5,-21848.0,-328.0,-2467.5,-2400.0,0.0,0.0,
