Time,ClimberA1,ClimberA2,FRpos,FRCurrent,FRspeed,FRsetpoint,FRApos,FRACurrent,FREncpos,FREncSetpoint,FREncSpeed,FLpos,FLCurrent,FLspeed,FLsetpoint,FLApos,FLACurrent,FLEncpos,FLEncSetpoint,FLEncSpeed,BRpos,BRCurrent,BRspeed,BRsetpoint,BRApos,BRACurrent,BREncpos,BREncSetpoint,BREncSpeed,BLpos,BLCurrent,BLspeed,BLsetpoint,BLApos,BLACurrent,BLEncpos,BLEncSetpoint,BLEncSpeed,navx_Pitch,navx_Roll,navx_Yaw,navx_XAcc,navx_YAcc,navx_ZAcc,navx_Temp,navx_Bar,navx_Alt,navx_XDis,navx_YDis,GearPlacerState,ShootOutputV,ShootOutputCurrent,ShootEncPos,ShootEncVelocity,ShootSpeed,ShootSetpoint,CarouselSetpoint,CarouselCurrent,
0.1497260000000242,0.0,0.0,103387.0,0.0,0.0,0.0,0.0,0.25,3.333739893,2.5235314548100787,0.0,75622.0,0.125,0.0,0.0,0.0,0.0,2.968749696,2.5396578011627193,0.0,84565.0,0.125,0.0,0.0,0.0,0.0,0.9228514680000001,2.5277008001708983,0.0,-5467.0,0.25,0.0,0.0,0.0,0.25,4.151610903,2.5367056447347003,0.0,0.3700000047683716,-0.9200000166893005,-0.009999999776482582,-0.07403564453125,-0.0211181640625,1.09619140625,34.29999923706055,0.0,-56.0,7.0760498046875,-6.8551788330078125,Closing,0.0,0.125,-247216.0,0.0,0.0,0.0,0.0,0.0,
0.2709539999999106,0.0,0.0,103387.0,0.0,0.0,0.0,0.0,0.25,3.333739893,2.5235314548100787,0.0,75622.0,0.125,0.0,0.0,0.0,0.0,2.968749696,2.5396578011627193,0.0,84565.0,0.125,0.0,0.0,0.0,0.0,0.9228514680000001,2.5277008001708983,0.0,-5467.0,0.25,0.0,0.0,0.0,0.25,4.151610903,2.5367056447347003,0.0,0.27000001072883606,-0.9700000286102295,-0.009999999776482582,-0.11651611328125,0.068115234375,0.8648681640625,34.29999923706055,0.0,-101.0,7.078369140625,-6.8568267822265625,Closing,0.0,0.125,-247216.0,0.0,0.0,0.0,0.0,0.0,
0.390625,0.0,0.0,103387.0,0.0,0.0,0.0,0.0,0.25,3.333739893,2.5235314548100787,0.0,75622.0,0.125,0.0,0.0,0.0,0.0,2.968749696,2.5396578011627193,0.0,84565.0,0.125,0.0,0.0,0.0,0.0,0.924072171,2.5277008001708983,0.0,-5467.0,0.25,0.0,0.0,0.0,0.25,4.152831606,2.5367056447347003,0.0,0.3100000023841858,-0.9800000190734863,-0.009999999776482582,-0.035888671875,-0.03240966796875,1.0733642578125,34.29999923706055,0.0,-17.0,7.0786590576171875,-6.8579254150390625,Closing,0.0,0.125,-247216.0,0.0,0.0,0.0,0.0,0.0,
0.5223659999999217,0.0,0.0,103387.0,0.0,0.0,0.0,0.0,0.25,3.33251919,2.5235314548100787,0.0,75622.0,0.125,0.0,0.0,0.0,0.0,2.968749696,2.5396578011627193,0.0,84565.0,0.125,0.0,0.0,0.0,0.0,0.9228514680000001,2.5277008001708983,0.0,-5467.0,0.25,0.0,0.0,0.0,0.25,4.156493715,2.5367056447347003,0.0,0.28999999165534973,-0.9700000286102295,-0.009999999776482582,-0.0322265625,-0.00787353515625,1.0126953125,34.29999923706055,0.0,-14.0,7.0786895751953125,-6.8578338623046875,Closing,0.0,0.125,-247216.0,0.0,0.0,0.0,0.0,0.0,
0.6483999999999068,0.0,0.0,103387.0,0.0,0.0,0.0,0.0,0.25,3.33251919,2.5235314548100787,0.0,75622.0,0.125,0.0,0.0,0.0,0.0,2.968749696,2.5396578011627193,0.0,84565.0,0.125,0.0,0.0,0.0,0.0,0.9228514680000001,2.5277008001708983,0.0,-5467.0,0.25,0.0,0.0,0.0,0.25,4.1503902,2.5367056447347003,0.0,0.30000001192092896,-0.9700000286102295,-0.009999999776482582,-0.01092529296875,0.01116943359375,1.0328369140625,34.33000183105469,0.0,6.0,7.0786895751953125,-6.8577880859375,Closing,0.0,0.125,-247216.0,0.0,0.0,0.0,0.0,0.0,
0.7703710000000429,0.0,0.0,103387.0,0.0,0.0,0.0,0.0,0.25,3.33251919,2.5235314548100787,0.0,75622.0,0.125,0.0,0.0,0.0,0.0,2.967528993,2.5396578011627193,0.0,84565.0,0.125,0.0,0.0,0.0,0.0,0.9228514680000001,2.5277008001708983,0.0,-5467.0,0.25,0.0,0.0,0.0,0.25,4.151610903,2.5367056447347003,0.0,0.3199999928474426,-0.9599999785423279,-0.019999999552965164,-0.01104736328125,0.00262451171875,1.02508544921875,34.33000183105469,0.0,6.0,7.0786895751953125,-6.857757568359375,Closing,0.0,0.125,-247216.0,0.0,0.0,0.0,0.0,0.0,
0.893655999999959,0.0,0.0,103387.0,0.0,0.0,0.0,0.0,0.25,3.334960596,2.5235314548100787,0.0,75622.0,0.125,0.0,0.0,0.0,0.0,2.968749696,2.5396578011627193,0.0,84565.0,0.125,0.0,0.0,0.0,0.0,0.9228514680000001,2.5277008001708983,0.0,-5467.0,0.25,0.0,0.0,0.0,0.25,4.151610903,2.5367056447347003,0.0,0.33000001311302185,-0.9599999785423279,-0.019999999552965164,-0.0098876953125,0.012939453125,1.01531982421875,34.33000183105469,0.0,7.0,7.0786895751953125,-6.857757568359375,Closing,0.0,0.125,-247216.0,0.0,0.0,0.0,0.0,0.0,
1.0166969999999274,0.0,0.0,103387.0,18.125,-270.0,-1919.53125,0.0,4.875,3.696288684,3.698914236061682,0.0,75689.0,22.125,255.0,1919.53125,0.0,7.375,3.249511386,3.7225517350061654,0.0,84544.0,16.75,-45.0,-1919.53125,0.0,4.0,1.3220213490000001,3.70502553333947,0.0,-5441.0,20.5,202.5,1919.53125,0.0,3.625,4.57763625,3.7182245555617137,0.0,0.5,0.4300000071525574,0.009999999776482582,0.19268798828125,0.2210693359375,1.2191162109375,34.33000183105469,0.0,183.0,7.086181640625,-6.855682373046875,Closing,0.0,0.125,-247216.0,0.0,0.0,0.0,0.0,0.0,
1.1426089999999385,0.0,0.0,103318.0,0.0,-232.5,0.0,0.0,1.625,4.439696811,3.698914236061682,0.0,75726.0,0.125,307.5,0.0,0.0,1.5,4.165038636,3.7225517350061654,0.0,84491.0,0.125,-322.5,0.0,0.0,0.75,2.1716306370000003,3.70502553333947,0.0,-5394.0,0.25,277.5,0.0,0.0,0.875,0.458984328,3.7182245555617137,0.0,1.2400000095367432,-0.9399999976158142,0.6200000047683716,-0.33837890625,-0.09039306640625,0.92059326171875,34.279998779296875,0.0,-324.0,7.098114013671875,-6.83819580078125,Closing,0.0,0.125,-247216.0,0.0,0.0,0.0,0.0,0.0,
1.2706949999998323,0.0,0.0,103241.0,0.0,-315.0,0.0,0.0,0.125,4.8681635640000005,3.698914236061682,0.0,75746.0,0.125,150.0,0.0,0.0,0.25,4.637450697,3.7225517350061654,0.0,84447.0,0.0,-285.0,0.0,0.0,0.25,2.546386458,3.70502553333947,0.0,-5363.0,0.25,67.5,0.0,0.0,0.625,0.7788085140000001,3.7182245555617137,0.0,0.17000000178813934,-1.149999976158142,0.3400000035762787,0.08465576171875,-0.19091796875,1.04986572265625,34.279998779296875,0.0,104.0,7.0871124267578125,-6.831207275390625,Closing,0.0,0.125,-247216.0,0.0,0.0,0.0,0.0,0.0,
1.4041369999998714,0.0,0.0,103250.0,0.125,22.5,0.0,0.0,0.375,4.624022964,3.698914236061682,0.0,75746.0,0.125,0.0,0.0,0.0,0.5,4.346923383,3.7225517350061654,0.0,84454.0,0.125,37.5,0.0,0.0,0.5,2.241210708,3.70502553333947,0.0,-5363.0,0.25,0.0,0.0,0.0,0.5,0.468749952,3.7182245555617137,0.0,0.05000000074505806,-0.9800000190734863,0.4000000059604645,-0.04266357421875,0.07733154296875,1.02020263671875,34.279998779296875,0.0,-24.0,7.0800323486328125,-6.832916259765625,Closing,0.0,0.125,-247216.0,0.0,0.0,0.0,0.0,0.0,
1.5263619999999647,0.0,0.0,103260.0,0.0,75.0,0.0,0.0,0.25,4.473876495,3.698914236061682,0.0,75746.0,0.125,0.0,0.0,0.0,0.25,4.072265208,3.7225517350061654,0.0,84467.0,0.125,67.5,0.0,0.0,0.125,2.036132604,3.70502553333947,0.0,-5363.0,0.25,0.0,0.0,0.0,0.25,0.250244115,3.7182245555617137,0.0,0.17000000178813934,-1.0700000524520874,0.4300000071525574,-0.03375244140625,0.0689697265625,1.01080322265625,34.279998779296875,0.0,-14.0,7.0762481689453125,-6.8319854736328125,Closing,0.0,0.125,-247216.0,0.0,0.0,0.0,0.0,0.0,
1.652060999999987,0.0,0.0,103259.0,1.0,0.0,-344.53125,0.0,0.25,4.486083525000001,3.7049425426536775,0.0,75752.0,1.0,37.5,344.53125,0.0,0.25,4.114989813,3.728618564819196,0.0,84468.0,0.875,0.0,-344.53125,0.0,0.0,2.081298615,3.7110637998200473,0.0,-5361.0,0.875,30.0,344.53125,0.0,0.25,0.32958981000000004,3.7242843331527395,0.0,0.46000000834465027,-1.0700000524520874,0.4099999964237213,-0.01275634765625,0.025146484375,0.9879150390625,34.310001373291016,0.0,5.0,7.0764312744140625,-6.826751708984375,Closing,0.0,0.0,-247216.0,0.0,0.0,0.0,0.0,0.0,
1.7728859999999405,0.0,0.0,103232.0,12.0,-165.0,-1312.5,0.0,0.125,4.5031733670000005,3.7048055358121155,0.0,75778.0,14.875,157.5,1312.5,0.0,0.25,4.1406245760000004,3.728480682450691,0.0,84448.0,12.375,-150.0,-1312.5,0.0,0.125,2.133788844,3.71092656661759,0.0,-5347.0,13.125,150.0,1312.5,0.0,0.375,0.34912105800000004,3.7241466110618595,0.0,1.3300000429153442,-1.0299999713897705,0.3400000035762787,-0.0462646484375,0.1376953125,1.2310791015625,34.310001373291016,0.0,-23.0,7.0775146484375,-6.8136138916015625,Closing,0.0,0.125,-247216.0,0.0,0.0,0.0,0.0,0.0,
1.8945169999999925,0.0,0.0,103173.0,8.75,-360.0,-803.90625,0.0,0.25,4.49218704,3.703846487104555,0.0,75844.0,9.375,412.5,803.90625,0.0,0.125,4.139403873,3.727515505049312,0.0,84396.0,8.625,-345.0,-803.90625,0.0,0.125,2.143554468,3.7099659333824135,0.0,-5304.0,10.125,285.0,803.90625,0.0,0.125,0.35034176100000003,3.7231825556048106,0.0,0.8799999952316284,-0.7799999713897705,-0.38999998569488525,0.02520751953125,-0.16998291015625,1.0062255859375,34.310001373291016,0.0,40.0,7.0808258056640625,-6.810546875,Closing,0.0,0.125,-247216.0,0.0,0.0,0.0,0.0,0.0,
2.0278229999998585,0.0,0.0,103164.0,0.0,-7.5,0.0,0.0,0.25,4.5031733670000005,3.703846487104555,0.0,75871.0,0.125,112.5,0.0,0.0,0.125,4.134521061,3.727515505049312,0.0,84334.0,0.125,-382.5,0.0,0.0,0.125,2.143554468,3.7099659333824135,0.0,-5280.0,0.25,-30.0,0.0,0.0,0.125,0.333251919,3.7231825556048106,0.0,-0.5299999713897705,-1.0299999713897705,-0.8899999856948853,-0.1146240234375,-0.25286865234375,0.8372802734375,34.310001373291016,0.0,-95.0,7.08343505859375,-6.832489013671875,Closing,0.0,0.125,-247216.0,0.0,0.0,0.0,0.0,0.0,
2.148409999999916,0.0,0.0,103202.0,0.0,225.0,0.0,0.0,0.25,4.5031733670000005,3.703846487104555,0.0,75835.0,0.125,-225.0,0.0,0.0,0.25,4.134521061,3.727515505049312,0.0,84330.0,0.125,30.0,0.0,0.0,0.125,2.138671656,3.7099659333824135,0.0,-5304.0,0.25,-217.5,0.0,0.0,0.25,0.347900355,3.7231825556048106,0.0,-0.36000001430511475,-0.949999988079071,-0.9599999785423279,-0.07940673828125,0.05157470703125,0.80548095703125,34.310001373291016,0.0,-66.0,7.0834197998046875,-6.8675079345703125,Closing,0.0,0.125,-247216.0,0.0,0.0,0.0,0.0,0.0,
2.2776689999999946,0.0,0.0,103249.0,1.5,322.5,793.700784444809,0.0,0.25,4.501952664,3.68603558096065,0.0,75793.0,1.375,-307.5,-793.700784444809,0.0,0.125,4.158935121,3.709590780295862,0.0,84368.0,1.875,210.0,793.700784444809,0.0,0.125,2.133788844,3.6921256002944696,0.0,-5338.0,1.625,-307.5,-793.700784444809,0.0,0.125,0.386962851,3.705278666962185,0.0,-0.36000001430511475,-0.9100000262260437,-0.949999988079071,-0.0460205078125,0.0438232421875,0.9619140625,34.310001373291016,0.0,-31.0,7.0829315185546875,-6.8778533935546875,Closing,0.0,0.125,-247216.0,0.0,0.0,0.0,0.0,0.0,
2.3963219999999272,0.0,0.0,103286.0,3.625,232.5,892.9133981466294,0.0,0.125,4.487304228,3.6861725878022127,0.0,75752.0,5.125,-225.0,-892.9133981466294,0.0,0.125,4.168700745000001,3.709728662664367,0.0,84410.0,4.625,307.5,892.9133981466294,0.0,0.125,2.09960916,3.692262833496927,0.0,-5389.0,4.625,-247.5,-892.9133981466294,0.0,0.25,0.39062496,3.705416389053065,0.0,-0.8700000047683716,-0.949999988079071,-1.1299999952316284,-0.04388427734375,-0.13824462890625,1.03924560546875,34.310001373291016,0.0,-24.0,7.081817626953125,-6.8844146728515625,Closing,0.0,0.125,-247216.0,0.0,0.0,0.0,0.0,0.0,
2.524378000000026,0.0,0.0,103356.0,6.375,450.0,1041.7322874069212,0.0,0.25,4.482421416,3.6837064622042175,0.0,75688.0,9.0,-465.0,-1041.7322874069212,0.0,0.125,4.168700745000001,3.707246777565746,0.0,84470.0,7.5,427.5,1041.7322874069212,0.0,0.0,2.09960916,3.68979263339877,0.0,-5441.0,7.0,-487.5,-1041.7322874069212,0.0,0.25,0.391845663,3.7029373889545583,0.0,-1.5399999618530273,-0.9900000095367432,-1.159999966621399,0.03070068359375,-0.21124267578125,0.93243408203125,34.310001373291016,0.0,50.0,7.08148193359375,-6.8998870849609375,Closing,0.0,0.125,-247216.0,0.0,0.0,0.0,0.0,0.0,
2.654060999999987,0.0,0.0,103465.0,5.5,772.5,1041.7322874069214,0.0,0.25,4.482421416,3.682884419521594,0.0,75579.0,7.0,-810.0,-1041.7322874069214,0.0,0.125,4.168700745000001,3.7064194817110283,0.0,84571.0,6.5,742.5,1041.7322874069214,0.0,0.0,2.100829863,3.6889692325480765,0.0,-5673.0,6.0,-787.5,-1041.7322874069214,0.0,0.25,0.38208003900000004,3.702111054767501,0.0,-2.240000009536743,-1.0700000524520874,-1.3600000143051147,0.02886962890625,-0.05908203125,0.98846435546875,34.279998779296875,0.0,47.0,7.0818939208984375,-6.934600830078125,Closing,0.0,0.125,-247216.0,0.0,0.0,0.0,0.0,0.0,
2.7801679999998306,0.0,0.0,103616.0,3.875,990.0,1041.7322874069216,0.0,0.25,4.483642119000001,3.6805553015817862,0.0,75432.0,5.0,-982.5,-1041.7322874069216,0.0,0.25,4.168700745000001,3.7040754798027558,0.0,84710.0,5.25,952.5,1041.7322874069216,0.0,0.0,2.100829863,3.6866362664703516,0.0,-5839.0,4.25,-1005.0,-1041.7322874069216,0.0,0.25,0.377197227,3.699769777580763,0.0,-2.619999885559082,-0.9599999785423279,-1.600000023841858,0.0067138671875,0.02984619140625,0.97869873046875,34.279998779296875,0.0,21.0,7.0820770263671875,-6.97479248046875,Closing,0.0,0.125,-247216.0,0.0,0.0,0.0,0.0,0.0,
2.9107679999999236,0.0,0.0,103790.0,2.5,1132.5,1041.7322874069214,0.0,0.25,4.482421416,3.677130127276231,0.0,75259.0,3.0,-1132.5,-1041.7322874069214,0.0,0.25,4.168700745000001,3.700628417302756,0.0,84879.0,3.375,1110.0,1041.7322874069214,0.0,0.0,2.094726348,3.683205433137018,0.0,-6022.0,3.0,-1110.0,-1041.7322874069214,0.0,0.25,0.377197227,3.6963267220252076,0.0,-2.549999952316284,-0.8799999952316284,-1.7000000476837158,-0.02734375,-0.04888916015625,0.89056396484375,34.279998779296875,0.0,-13.0,7.0823516845703125,-7.0160369873046875,Closing,0.0,0.125,-247216.0,0.0,0.0,0.0,0.0,0.0,
3.0335489999998826,0.0,0.0,103975.0,1.875,1162.5,1058.2677125930786,0.0,0.25,4.493407743000001,3.6757600572273583,0.0,75076.0,2.25,-1155.0,-1058.2677125930786,0.0,0.25,4.168700745000001,3.6992495919740183,0.0,85062.0,2.75,1170.0,1058.2677125930786,0.0,0.0,2.09960916,3.681833099476495,0.0,-6208.0,2.0,-1170.0,-1058.2677125930786,0.0,0.25,0.377197227,3.69494949947463,0.0,-2.2899999618530273,-0.7599999904632568,-1.9199999570846558,0.049072265625,-0.0020751953125,0.760986328125,34.279998779296875,0.0,58.0,7.084014892578125,-7.0154876708984375,Closing,0.0,0.125,-247216.0,0.0,0.0,0.0,0.0,0.0,
3.160939999999944,0.0,0.0,104165.0,2.25,1185.0,1175.4502476454843,0.0,0.375,4.478759307,3.5907348037756948,0.0,74888.0,2.25,-1200.0,-1167.7983068630954,0.0,0.25,4.1833491810000005,3.784430538934065,0.0,85255.0,1.125,1170.0,964.7757907837714,0.0,0.125,2.084960724,3.572739263209548,0.0,-6394.0,0.75,-1162.5,-955.4380813558422,0.0,0.25,0.39428706900000005,3.7937454883265325,0.0,-1.899999976158142,-0.800000011920929,-2.0999999046325684,-0.02679443359375,-0.00567626953125,0.9693603515625,34.2599983215332,0.0,-14.0,7.086700439453125,-7.0099945068359375,Closing,0.0,0.125,-247216.0,0.0,0.0,0.0,0.0,0.0,
3.292601999999955,0.0,0.0,104357.0,1.875,1215.0,1188.1972665074677,0.0,0.375,4.404296424,3.5811251946665537,0.0,74696.0,2.0,-1215.0,-1179.041283714346,0.0,0.25,4.217528865,3.7899832917004255,0.0,85622.0,0.75,1155.0,957.0216987433103,0.0,0.125,1.983642375,3.5581716157120082,0.0,-6563.0,0.75,-1065.0,-945.630020902724,0.0,0.25,0.43945308000000005,3.8021907482749895,0.0,-1.6399999856948853,-1.0299999713897705,-1.5700000524520874,-0.12286376953125,0.00714111328125,1.1644287109375,34.2599983215332,0.0,-102.0,7.0898895263671875,-6.99884033203125,Closing,0.0,0.125,-247216.0,0.0,0.0,0.0,0.0,0.0,
3.4223499999998603,0.0,0.0,104555.0,1.25,1260.0,1186.701807959824,0.0,0.25,4.381103067000001,3.589737877117651,0.0,74299.0,1.375,-1252.5,-1180.6262089750458,0.0,0.125,4.2358394100000005,3.798699878143749,0.0,85793.0,0.75,1072.5,955.0657753524181,0.0,0.0,1.9445798790000002,3.56883638176799,0.0,-6735.0,0.625,-1050.0,-947.5060419613106,0.0,0.125,0.458984328,3.8130104871336323,0.0,-1.25,-1.3200000524520874,0.41999998688697815,-0.11932373046875,-0.03875732421875,1.386962890625,34.2599983215332,0.0,-87.0,7.0893402099609375,-6.9820098876953125,Closing,0.0,0.125,-247216.0,0.0,0.0,0.0,0.0,0.0,
3.5572679999999237,0.0,0.0,104955.0,1.25,1237.5,1194.834129238492,0.0,0.25,4.349364789,3.604381825911945,0.0,74107.0,1.625,-1200.0,-1196.8024753433235,0.0,0.25,4.239501519,3.828406812854894,0.0,85954.0,0.75,1005.0,941.4191706936953,0.0,0.0,1.955566206,3.5845936462729124,0.0,-6898.0,0.75,-997.5,-943.9161104380017,0.0,0.25,0.458984328,3.852454446979006,0.0,-1.0199999809265137,-1.3700000047683716,2.809999942779541,-0.06903076171875,0.00909423828125,1.10443115234375,34.2599983215332,0.0,-40.0,7.086334228515625,-6.9580535888671875,Closing,0.0,0.0,-247216.0,0.0,0.0,0.0,0.0,0.0,
3.690658999999985,0.0,0.0,105146.0,1.625,1185.0,1212.6734229762403,0.0,0.25,4.3957515030000005,3.6180532777431393,0.0,73911.0,1.75,-1222.5,-1227.724569943581,0.0,0.25,4.279784718,3.8709707360907513,0.0,86112.0,0.75,975.0,916.3701964566351,0.0,0.0,2.0080564350000003,3.597608094237012,0.0,-7053.0,0.75,-960.0,-936.1971618223438,0.0,0.25,0.522460884,3.9133885405705535,0.0,-0.8500000238418579,-1.3600000143051147,4.869999885559082,-0.0401611328125,0.1087646484375,1.1412353515625,34.2599983215332,0.0,-2.0,7.08502197265625,-6.92877197265625,Closing,0.0,0.125,-247216.0,0.0,0.0,0.0,0.0,0.0,
3.833832999999868,0.0,0.0,105334.0,3.375,1185.0,1352.800644124109,0.0,0.25,4.420165563,3.5598503346674333,0.0,73716.0,3.875,-1237.5,-1395.7781382902692,0.0,0.25,4.385985879000001,3.9634284769336703,0.0,86262.0,0.5,877.5,813.2214305995859,0.0,0.125,1.9445798790000002,3.4708875406076776,0.0,-7356.0,0.625,-922.5,-882.8681236588409,0.0,0.375,0.682372977,4.108246442938052,0.0,-0.7400000095367432,-1.25,7.619999885559082,-0.13653564453125,0.01513671875,1.34954833984375,34.2599983215332,0.0,-101.0,7.0874481201171875,-6.88739013671875,Closing,0.0,0.0,-247216.0,0.0,0.0,0.0,0.0,0.0,
3.9816599999999163,0.0,0.0,105528.0,1.875,1162.5,1157.480263710022,0.0,1.25,4.132079655,3.0159423668524865,0.0,73515.0,1.5,-1200.0,-1157.480263710022,0.0,0.5,4.671630381,4.41043958977222,0.0,86399.0,16.75,765.0,-1157.480263710022,0.0,1.875,2.420654049,4.389674732977291,0.0,-7428.0,17.75,-502.5,1157.480263710022,0.0,8.0,0.30517575,3.031687206278561,0.0,0.5,-1.4199999570846558,12.020000457763672,0.0653076171875,0.28997802734375,1.1978759765625,34.2599983215332,0.0,151.0,7.0890350341796875,-6.8404693603515625,Closing,0.0,0.125,-247216.0,0.0,0.0,0.0,0.0,0.0,
4.113937999999849,0.0,0.0,105686.0,6.25,810.0,1157.480263710022,0.0,0.375,3.6816402480000003,3.0159423668524865,0.0,73340.0,5.625,-915.0,-1157.480263710022,0.0,0.25,4.953612774000001,4.41043958977222,0.0,86495.0,23.375,375.0,-1157.480263710022,0.0,0.125,3.081054372,4.389674732977291,0.0,-7346.0,9.875,480.0,1157.480263710022,0.0,0.5,4.428710484000001,3.031687206278561,0.0,2.75,-2.2200000286102295,19.469999313354492,-0.26513671875,0.03704833984375,0.81634521484375,34.2400016784668,0.0,-220.0,7.0969696044921875,-6.7542572021484375,Closing,0.0,0.125,-247216.0,0.0,0.0,0.0,0.0,0.0,
4.247543999999994,0.0,0.0,105803.0,9.25,885.0,1157.480263710022,0.0,0.375,3.6303707220000003,3.0159423668524865,0.0,73043.0,8.25,-990.0,-1157.480263710022,0.0,0.25,0.013427733,4.41043958977222,0.0,86468.0,12.125,-240.0,-1157.480263710022,0.0,0.25,2.9968258650000004,4.389674732977291,0.0,-7220.0,7.5,787.5,1157.480263710022,0.0,0.375,4.262694876,3.031687206278561,0.0,1.4900000095367432,-2.880000114440918,30.739999771118164,-0.05999755859375,-0.01226806640625,1.251953125,34.2400016784668,0.0,-20.0,7.1005401611328125,-6.6625823974609375,Closing,0.0,0.125,-247216.0,0.0,0.0,0.0,0.0,0.0,
4.38713599999994,0.0,0.0,105947.0,8.375,810.0,942.519673705101,0.0,1.125,3.6242672070000004,3.0159423668524865,0.0,72885.0,4.375,-1005.0,-942.519673705101,0.0,0.25,4.949950665,4.41043958977222,0.0,86323.0,10.75,-825.0,-942.519673705101,0.0,0.25,2.8039547910000002,4.389674732977291,0.0,-7117.0,10.25,630.0,942.519673705101,0.0,1.0,4.462890168,3.031687206278561,0.0,1.1299999952316284,-3.2300000190734863,40.72999954223633,-0.0213623046875,0.25213623046875,0.88372802734375,34.2400016784668,0.0,174.0,7.098541259765625,-6.5795440673828125,Closing,0.0,0.125,-247216.0,0.0,0.0,0.0,0.0,0.0,
4.515702000000048,0.0,0.0,106159.0,0.0,525.0,0.0,0.0,0.75,3.703612902,3.0159423668524865,0.0,72791.0,0.125,-667.5,0.0,0.0,0.25,4.874267079,4.41043958977222,0.0,86147.0,0.125,-1117.5,0.0,0.0,0.0,2.707519254,4.389674732977291,0.0,-7038.0,0.25,457.5,0.0,0.0,0.375,4.744872561,3.031687206278561,0.0,1.1799999475479126,-3.180000066757202,50.209999084472656,-0.08258056640625,0.1739501953125,0.91839599609375,34.2400016784668,0.0,98.0,7.1025238037109375,-6.5330047607421875,Closing,0.0,0.125,-247216.0,0.0,0.0,0.0,0.0,0.0,
4.650628999999957,0.0,0.0,106207.0,0.125,345.0,380.31496703624725,0.0,0.375,3.826903905,3.015942366852486,0.0,72734.0,0.125,-292.5,-380.31496703624725,0.0,0.25,4.855956534000001,4.41043958977222,0.0,86035.0,1.625,-637.5,-380.31496703624725,0.0,0.125,2.727050502,4.389674732977291,0.0,-6947.0,0.25,247.5,380.31496703624725,0.0,0.25,4.793700681000001,3.031687206278561,0.0,0.800000011920929,-3.2100000381469727,55.02000045776367,0.0069580078125,-0.03863525390625,1.13824462890625,34.29999923706055,0.0,-4.0,7.1139678955078125,-6.533966064453125,Closing,0.0,0.125,-247216.0,0.0,0.0,0.0,0.0,0.0,
4.783347999999998,0.0,0.0,106269.0,18.25,412.5,2100.0,0.0,0.25,3.8354488260000004,3.015942366852486,0.0,72671.0,25.5,-487.5,-2100.0,0.0,0.0,4.853515128000001,4.41043958977222,0.0,85983.0,11.75,-307.5,-2100.0,0.0,0.0,2.81982393,4.389674732977291,0.0,-6916.0,21.375,420.0,2100.0,0.0,0.5,4.691161629000001,3.031687206278561,0.0,0.3799999952316284,-3.5,58.279998779296875,-0.1080322265625,0.07421875,1.16046142578125,34.29999923706055,0.0,37.0,7.1226959228515625,-6.538818359375,Closing,0.0,0.125,-247216.0,0.0,0.0,0.0,0.0,0.0,
4.916194999999832,0.0,0.0,106358.0,0.0,585.0,0.0,0.0,0.25,3.86962851,3.015942366852486,0.0,72579.0,0.125,-570.0,0.0,0.0,0.0,4.854735831,4.41043958977222,0.0,85907.0,0.125,-495.0,0.0,0.0,0.125,2.8479000990000003,4.389674732977291,0.0,-6821.0,0.25,555.0,0.0,0.0,0.25,4.592284686,3.031687206278561,0.0,-0.10000000149011612,-3.3499999046325684,67.72000122070312,0.03594970703125,0.0048828125,0.51385498046875,34.29999923706055,0.0,30.0,7.1300811767578125,-6.539093017578125,Closing,0.0,0.125,-247216.0,0.0,0.0,0.0,0.0,0.0,
5.050054000000004,0.0,0.0,106471.0,0.0,577.5,0.0,0.0,0.25,3.863524995,3.015942366852486,0.0,72477.0,0.125,-585.0,0.0,0.0,0.0,4.854735831,4.41043958977222,0.0,85819.0,0.125,-570.0,0.0,0.0,0.125,2.838134475,4.389674732977291,0.0,-6655.0,0.25,405.0,0.0,0.0,0.25,4.592284686,3.031687206278561,0.0,-0.3499999940395355,-3.2799999713897705,75.76000213623047,0.10394287109375,0.1422119140625,0.85906982421875,34.29999923706055,0.0,180.0,7.1407623291015625,-6.5422515869140625,Closing,0.0,0.125,-247216.0,0.0,0.0,0.0,0.0,0.0,
5.184410999999847,0.0,0.0,106574.0,9.375,727.5,2100.0,0.0,0.25,3.8366695290000004,3.015942366852486,0.0,72375.0,13.125,-825.0,-2100.0,0.0,0.0,4.854735831,4.41043958977222,0.0,85755.0,14.25,-352.5,-2100.0,0.0,0.125,2.829589554,4.389674732977291,0.0,-6535.0,11.75,727.5,2100.0,0.0,0.25,4.583739765000001,3.031687206278561,0.0,-0.5199999809265137,-3.380000114440918,83.2300033569336,-0.2027587890625,0.02618408203125,1.32476806640625,34.279998779296875,0.0,23.0,7.15301513671875,-6.5495147705078125,Closing,0.0,0.125,-247216.0,0.0,0.0,0.0,0.0,0.0,
5.310598999999929,0.0,0.0,106717.0,10.875,1125.0,2100.0,0.0,0.25,3.8317867170000004,3.015942366852486,0.0,72222.0,13.625,-1207.5,-2100.0,0.0,0.0,4.854735831,4.41043958977222,0.0,85675.0,22.375,-675.0,-2100.0,0.0,0.125,2.829589554,4.389674732977291,0.0,-6350.0,15.0,1035.0,2100.0,0.0,0.25,4.560546408,3.031687206278561,0.0,-1.2300000190734863,-3.2799999713897705,96.88999938964844,0.22784423828125,0.12701416015625,1.07562255859375,34.279998779296875,0.0,114.0,7.1633758544921875,-6.5550079345703125,Closing,0.0,0.125,-247216.0,0.0,0.0,0.0,0.0,0.0,
5.431359999999869,0.0,0.0,106951.0,7.625,1657.5,2100.0,0.0,0.25,3.8317867170000004,3.015942366852486,0.0,71984.0,8.375,-1695.0,-2100.0,0.0,0.0,4.859618643,4.41043958977222,0.0,85540.0,27.25,-1087.5,-2100.0,0.0,0.125,2.828368851,4.389674732977291,0.0,-6085.0,11.75,1575.0,2100.0,0.0,0.25,4.593505389000001,3.031687206278561,0.0,-2.0899999141693115,-3.140000104904175,116.93000030517578,-0.2529296875,0.357177734375,0.96270751953125,34.279998779296875,0.0,440.0,7.17626953125,-6.557830810546875,Closing,0.0,0.125,-247216.0,0.0,0.0,0.0,0.0,0.0,
5.55222399999993,0.0,0.0,107250.0,0.5,1867.5,1422.0471918582916,0.0,0.25,3.8500972620000002,3.015942366852486,0.0,71680.0,0.25,-1800.0,-1422.0471918582916,0.0,0.0,4.854735831,4.41043958977222,0.0,85338.0,13.0,-1507.5,-1422.0471918582916,0.0,0.125,2.828368851,4.389674732977291,0.0,-5796.0,1.625,1807.5,1422.0471918582916,0.0,0.25,4.686278817,3.031687206278561,0.0,-2.4100000858306885,-3.0299999713897705,144.05999755859375,-0.1513671875,-0.2015380859375,1.08746337890625,34.279998779296875,0.0,-15.0,7.2004241943359375,-6.5535430908203125,Closing,0.0,0.0,-247216.0,0.0,0.0,0.0,0.0,0.0,
5.681898999999976,0.0,0.0,107557.0,0.0,2025.0,0.0,0.0,0.25,3.8464351530000003,3.015942366852486,0.0,71397.0,0.125,-1845.0,0.0,0.0,0.0,4.853515128000001,4.41043958977222,0.0,85077.0,0.125,-1755.0,0.0,0.0,0.125,2.825927445,4.389674732977291,0.0,-5535.0,0.25,1627.5,0.0,0.0,0.25,4.686278817,3.031687206278561,0.0,-3.069999933242798,-2.5899999141693115,167.5399932861328,0.0806884765625,-0.12945556640625,1.0181884765625,34.279998779296875,0.0,-139.0,7.2326202392578125,-6.5474700927734375,Closing,-11.95,66.625,-247216.0,0.0,-75.0,-1650.0,0.0,0.0,
5.805001999999862,0.0,0.0,107869.0,0.0,1830.0,0.0,0.0,0.25,3.8452144500000003,3.015942366852486,0.0,71111.0,0.125,-1665.0,0.0,0.0,0.0,4.849853019,4.41043958977222,0.0,84799.0,0.125,-1725.0,0.0,0.0,0.125,2.828368851,4.389674732977291,0.0,-5288.0,0.25,1545.0,0.0,0.0,0.25,4.661864757,3.031687206278561,0.0,-3.0999999046325684,-1.6399999856948853,-171.6300048828125,-0.0687255859375,-0.03131103515625,0.9482421875,34.279998779296875,0.0,38.0,7.2448272705078125,-6.54620361328125,Closing,-10.05,61.375,-247330.0,-63.0,-442.5,-1650.0,0.0,0.0,
5.927845999999903,0.0,0.0,108147.0,0.125,1567.5,0.0,0.0,0.125,3.8464351530000003,3.015942366852486,0.0,70855.0,0.125,-1455.0,0.0,0.0,0.0,4.848632316000001,4.41043958977222,0.0,84527.0,0.125,-1500.0,0.0,0.0,0.125,2.828368851,4.389674732977291,0.0,-5074.0,0.25,1335.0,0.0,0.0,0.25,4.648437024000001,3.031687206278561,0.0,-2.759999990463257,-0.8899999856948853,-153.3300018310547,-0.17645263671875,0.0162353515625,0.91326904296875,34.279998779296875,0.0,117.0,7.24139404296875,-6.5507049560546875,Closing,-10.2,57.25,-247472.0,-110.0,-817.5,-1650.0,0.0,0.0,
6.055305999999866,0.0,0.0,108385.0,0.0,1365.0,0.0,0.0,0.25,3.8464351530000003,3.015942366852486,0.0,70422.0,0.125,-1290.0,0.0,0.0,0.0,4.849853019,4.41043958977222,0.0,84103.0,0.125,-1222.5,0.0,0.0,0.125,2.828368851,4.389674732977291,0.0,-4884.0,0.25,1170.0,0.0,0.0,0.125,4.613036637,3.031687206278561,0.0,-2.2799999713897705,-0.47999998927116394,-135.5399932861328,0.00115966796875,0.1357421875,0.89752197265625,34.279998779296875,0.0,-126.0,7.2343597412109375,-6.565521240234375,Closing,-10.350000000000001,53.25,-247664.0,-152.0,-1147.5,-1650.0,0.0,0.0,
6.187030999999959,0.0,0.0,108592.0,0.125,1140.0,0.0,0.0,0.25,3.8464351530000003,3.015942366852486,0.0,70246.0,0.125,-1147.5,0.0,0.0,0.0,4.849853019,4.41043958977222,0.0,83940.0,0.125,-1065.0,0.0,0.0,0.125,2.828368851,4.389674732977291,0.0,-4721.0,0.25,997.5,0.0,0.0,0.25,4.6032710130000005,3.031687206278561,0.0,-1.850000023841858,-0.20000000298023224,-122.12000274658203,-0.0770263671875,0.063720703125,0.77630615234375,34.279998779296875,0.0,-35.0,7.2241058349609375,-6.5852813720703125,Closing,-9.063049853372434,48.625,-247900.0,-190.0,-1447.5,-1650.0,0.0,0.0,
6.306206000000006,0.0,0.0,108767.0,0.125,982.5,0.0,0.0,0.25,3.8464351530000003,3.015942366852486,0.0,70098.0,0.125,-967.5,0.0,0.0,0.0,4.849853019,4.41043958977222,0.0,83804.0,0.125,-885.0,0.0,0.0,0.125,2.829589554,4.389674732977291,0.0,-4582.0,0.25,840.0,0.0,0.0,0.375,4.621581558,3.031687206278561,0.0,-1.25,-0.20999999344348907,-109.6500015258789,-0.183837890625,-0.1107177734375,0.822509765625,34.279998779296875,0.0,148.0,7.2140045166015625,-6.6152496337890625,Closing,-7.932795698924732,24.5,-248172.0,-222.0,-1687.5,-1650.0,0.0,0.0,
6.436648000000044,0.0,0.0,109026.0,0.375,727.5,1091.338562965393,0.0,0.25,3.8464351530000003,3.015942366852486,0.0,69987.0,0.125,-690.0,-1091.338562965393,0.0,0.0,4.843749504,4.41043958977222,0.0,83694.0,0.375,-675.0,-1091.338562965393,0.0,0.125,2.828368851,4.389674732977291,0.0,-4471.0,0.75,645.0,1091.338562965393,0.0,0.125,4.593505389000001,3.031687206278561,0.0,-1.0499999523162842,-0.14000000059604645,-101.0999984741211,-0.03045654296875,-0.02239990234375,0.95257568359375,34.279998779296875,0.0,10.0,7.2078857421875,-6.649810791015625,Closing,-5.945796676441837,8.875,-248466.0,-241.0,-1815.0,-1650.0,0.0,0.0,
6.566665000000037,0.0,0.0,109130.0,0.75,630.0,1058.2677125930786,0.0,0.25,3.8513179650000002,3.0159423668524865,0.0,69887.0,0.75,-615.0,-1058.2677125930786,0.0,0.0,4.849853019,4.41043958977222,0.0,83592.0,0.625,-615.0,-1058.2677125930786,0.0,0.125,2.828368851,4.389674732977291,0.0,-4373.0,1.75,637.5,1058.2677125930786,0.0,0.25,4.593505389000001,3.031687206278561,0.0,-0.7400000095367432,-0.23999999463558197,-93.80999755859375,-0.02630615234375,-0.02142333984375,1.10107421875,34.279998779296875,0.0,8.0,7.205780029296875,-6.671722412109375,Closing,-5.3712609970674485,5.0,-248758.0,-245.0,-1837.5,-1650.0,0.0,0.0,
6.688945999999996,0.0,0.0,109191.0,0.0,412.5,0.0,0.0,0.25,3.8464351530000003,3.0159423668524865,0.0,69815.0,0.125,-517.5,0.0,0.0,0.0,4.853515128000001,4.41043958977222,0.0,83515.0,0.125,-517.5,0.0,0.0,0.125,2.828368851,4.389674732977291,0.0,-4294.0,0.25,315.0,0.0,0.0,0.25,4.617919449,3.031687206278561,0.0,-0.5699999928474426,-0.3199999928474426,-87.80000305175781,0.13983154296875,-0.18414306640625,1.17034912109375,34.2599983215332,0.0,177.0,7.2021026611328125,-6.6730194091796875,Closing,-5.202052785923754,4.25,-249052.0,-245.0,-1830.0,-1650.0,0.0,0.0,
6.812452000000048,0.0,0.0,109257.0,0.125,412.5,0.0,0.0,0.25,3.8464351530000003,3.0159423668524865,0.0,69752.0,0.125,-390.0,0.0,0.0,0.0,4.853515128000001,4.41043958977222,0.0,83483.0,0.125,-202.5,0.0,0.0,0.125,2.828368851,4.389674732977291,0.0,-4252.0,0.25,262.5,0.0,0.0,0.125,4.595946795000001,3.031687206278561,0.0,-0.4000000059604645,-0.4000000059604645,-84.33000183105469,0.07000732421875,0.11761474609375,1.39605712890625,34.2599983215332,0.0,-118.0,7.196685791015625,-6.6743316650390625,Closing,-5.1280547409579675,4.25,-249343.0,-243.0,-1815.0,-1650.0,0.0,0.0,
6.934254999999888,0.0,0.0,109264.0,0.125,37.5,0.0,0.0,0.25,3.8452144500000003,3.0159423668524865,0.0,69737.0,0.125,-105.0,0.0,0.0,0.0,4.848632316000001,4.41043958977222,0.0,83461.0,0.125,-135.0,0.0,0.0,0.125,2.828368851,4.389674732977291,0.0,-4229.0,0.25,97.5,0.0,0.0,0.25,4.597167498,3.031687206278561,0.0,-0.23999999463558197,-0.23000000417232513,-82.81999969482422,-0.0146484375,-0.08221435546875,1.1390380859375,34.2599983215332,0.0,75.0,7.1900634765625,-6.6768035888671875,Closing,-5.1042033235581625,4.125,-249632.0,-240.0,-1800.0,-1650.0,0.0,0.0,
7.056565999999875,0.0,0.0,109265.0,0.125,7.5,0.0,0.0,0.25,3.8464351530000003,3.0159423668524865,0.0,69735.0,0.125,0.0,0.0,0.0,0.0,4.848632316000001,4.41043958977222,0.0,83460.0,0.125,0.0,0.0,0.0,0.125,2.829589554,4.389674732977291,0.0,-4223.0,0.25,0.0,0.0,0.0,0.25,4.598388201000001,3.031687206278561,0.0,-0.20000000298023224,-0.3499999940395355,-83.12999725341797,0.04473876953125,-0.036865234375,1.21221923828125,34.2599983215332,0.0,38.0,7.185394287109375,-6.6777191162109375,Closing,0.0,0.125,-249917.0,-237.0,-1762.5,0.0,0.0,0.0,
7.180391999999992,0.0,0.0,109265.0,0.125,0.0,0.0,0.0,0.25,3.8452144500000003,3.0159423668524865,0.0,69735.0,0.125,0.0,0.0,0.0,0.0,4.849853019,4.41043958977222,0.0,83460.0,0.125,0.0,0.0,0.0,0.125,2.828368851,4.389674732977291,0.0,-4223.0,0.25,0.0,0.0,0.0,0.25,4.598388201000001,3.031687206278561,0.0,-0.1599999964237213,-0.27000001072883606,-83.3499984741211,-0.04327392578125,-0.0125732421875,1.067626953125,34.279998779296875,0.0,5.0,7.1798095703125,-6.6763153076171875,Closing,0.0,0.125,-250191.0,-230.0,-1687.5,0.0,0.0,0.0,
7.3067369999999645,0.0,0.0,109241.0,5.875,-157.5,-1082.8125,0.0,0.25,3.8464351530000003,3.0159423668524887,0.0,69752.0,8.75,157.5,1082.8125,0.0,0.0,4.848632316000001,4.410439589772222,0.0,83464.0,7.5,37.5,1082.8125,0.0,0.125,2.8002926820000003,4.389674732977289,0.0,-4228.0,6.625,-180.0,-1082.8125,0.0,0.25,4.656981945,3.0316872062785585,0.0,-0.05000000074505806,-0.20999999344348907,-84.66000366210938,0.037353515625,0.11077880859375,0.9969482421875,34.279998779296875,0.0,-107.0,7.1750946044921875,-6.67657470703125,Closing,0.0,0.125,-250453.0,-220.0,-1612.5,0.0,0.0,0.0,
7.431239999999991,0.0,0.0,109141.0,18.875,-667.5,-2100.0,0.0,0.25,3.8476558560000003,3.0159423668524887,0.0,69842.0,26.5,742.5,2100.0,0.0,0.0,4.854735831,4.410439589772222,0.0,83505.0,26.25,337.5,2100.0,0.0,0.0,2.7990719790000003,4.389674732977289,0.0,-4279.0,21.25,-697.5,-2100.0,0.0,0.25,4.6557612420000005,3.0316872062785585,0.0,0.019999999552965164,-0.029999999329447746,-92.4800033569336,0.00628662109375,0.051513671875,0.9578857421875,34.279998779296875,0.0,-51.0,7.1729736328125,-6.6747283935546875,Closing,0.0,0.125,-250703.0,-210.0,-1530.0,0.0,0.0,0.0,
7.557486000000034,0.0,0.0,108967.0,0.125,-1080.0,0.0,0.0,0.25,3.8354488260000004,3.0159423668524887,0.0,70026.0,0.125,1080.0,0.0,0.0,0.0,4.849853019,4.410439589772222,0.0,83603.0,0.125,682.5,0.0,0.0,0.0,2.8002926820000003,4.389674732977289,0.0,-4436.0,0.25,-982.5,0.0,0.0,0.25,4.613036637,3.0316872062785585,0.0,-0.4000000059604645,-0.029999999329447746,-109.31999969482422,0.0025634765625,0.343017578125,0.419921875,34.279998779296875,0.0,-327.0,7.172393798828125,-6.6785430908203125,Closing,0.0,0.125,-250942.0,-200.0,-1447.5,0.0,0.0,0.0,
7.68951099999994,0.0,0.0,108787.0,0.0,-1102.5,0.0,0.0,0.25,3.8366695290000004,3.0159423668524887,0.0,70195.0,0.125,1057.5,0.0,0.0,0.0,4.849853019,4.410439589772222,0.0,83745.0,0.125,922.5,0.0,0.0,0.0,2.7941891670000003,4.389674732977289,0.0,-4603.0,0.25,-907.5,0.0,0.0,0.25,4.6081538250000005,3.0316872062785585,0.0,-0.33000001311302185,-0.07999999821186066,-122.20999908447266,-0.07183837890625,0.01702880859375,1.14068603515625,34.29999923706055,0.0,17.0,7.1729736328125,-6.68896484375,Closing,0.0,0.125,-251168.0,-190.0,-1372.5,0.0,0.0,0.0,
7.811204999999842,0.0,0.0,108640.0,0.0,-877.5,0.0,0.0,0.25,3.8366695290000004,3.0159423668524887,0.0,70347.0,0.125,870.0,0.0,0.0,0.0,4.848632316000001,4.410439589772222,0.0,83882.0,0.125,802.5,0.0,0.0,0.0,2.7954098700000003,4.389674732977289,0.0,-4741.0,0.25,-780.0,0.0,0.0,0.25,4.598388201000001,3.0316872062785585,0.0,-0.46000000834465027,-0.23999999463558197,-133.80999755859375,-0.0831298828125,0.0897216796875,1.20733642578125,34.29999923706055,0.0,-17.0,7.1738433837890625,-6.7039337158203125,Closing,0.0,0.125,-251382.0,-180.0,-1297.5,0.0,0.0,0.0,
7.933629999999888,0.0,0.0,108523.0,0.0,-675.0,0.0,0.0,0.25,3.8378902320000003,3.0159423668524887,0.0,70469.0,0.125,675.0,0.0,0.0,0.0,4.848632316000001,4.410439589772222,0.0,83994.0,0.125,615.0,0.0,0.0,0.0,2.7941891670000003,4.389674732977289,0.0,-4857.0,0.25,-630.0,0.0,0.0,0.25,4.597167498,3.0316872062785585,0.0,-0.5799999833106995,-0.30000001192092896,-141.6699981689453,-0.0411376953125,-0.03387451171875,1.05389404296875,34.29999923706055,0.0,42.0,7.1757354736328125,-6.7173004150390625,Closing,-7.423020527859237,15.875,-251586.0,-171.0,-1267.5,-1650.0,0.0,0.0,
8.054044999999926,0.0,0.0,108438.0,0.0,-465.0,0.0,0.0,0.25,3.8366695290000004,3.0159423668524887,0.0,70559.0,0.125,465.0,0.0,0.0,0.0,4.849853019,4.410439589772222,0.0,84076.0,0.125,427.5,0.0,0.0,0.0,2.7954098700000003,4.389674732977289,0.0,-5016.0,0.25,-457.5,0.0,0.0,0.25,4.598388201000001,3.0316872062785585,0.0,-0.7200000286102295,-0.3499999940395355,-147.8300018310547,-0.02587890625,-0.04150390625,1.1324462890625,34.29999923706055,0.0,30.0,7.178436279296875,-6.732940673828125,Closing,-6.107331378299119,11.625,-251797.0,-173.0,-1357.5,-1650.0,0.0,0.0,
8.180359999999869,0.0,0.0,108384.0,0.125,-277.5,0.0,0.0,0.125,3.8366695290000004,3.0159423668524887,0.0,70619.0,0.125,300.0,0.0,0.0,0.0,4.849853019,4.410439589772222,0.0,84131.0,0.125,247.5,0.0,0.0,0.0,2.7941891670000003,4.389674732977289,0.0,-5054.0,0.25,-277.5,0.0,0.0,0.25,4.597167498,3.0316872062785585,0.0,-0.75,-0.4300000071525574,-150.6699981689453,0.01361083984375,-0.08837890625,1.046630859375,34.279998779296875,0.0,17.0,7.181549072265625,-6.7334747314453125,Closing,-3.167155425219941,7.625,-252022.0,-185.0,-1432.5,-1650.0,0.0,0.0,
8.304266999999992,0.0,0.0,108358.0,0.125,-82.5,0.0,0.0,0.25,3.8354488260000004,3.0159423668524887,0.0,70648.0,0.125,105.0,0.0,0.0,0.0,4.849853019,4.410439589772222,0.0,84157.0,0.125,97.5,0.0,0.0,0.0,2.7941891670000003,4.389674732977289,0.0,-5063.0,0.25,-90.0,0.0,0.0,0.25,4.598388201000001,3.0316872062785585,0.0,-0.800000011920929,-0.4000000059604645,-151.75,-0.123046875,0.01025390625,1.17596435546875,34.279998779296875,0.0,88.0,7.18048095703125,-6.733489990234375,Closing,-5.359481915933529,6.5,-252255.0,-193.0,-1470.0,-1650.0,0.0,0.0,
8.429993000000017,0.0,0.0,108356.0,0.125,0.0,0.0,0.0,0.25,3.8366695290000004,3.0159423668524887,0.0,70650.0,0.125,0.0,0.0,0.0,0.0,4.849853019,4.410439589772222,0.0,84160.0,0.125,0.0,0.0,0.0,0.0,2.7941891670000003,4.389674732977289,0.0,-5063.0,0.25,0.0,0.0,0.0,0.25,4.599608904,3.0316872062785585,0.0,-0.8199999928474426,-0.5299999713897705,-151.1999969482422,-0.01129150390625,0.066162109375,0.8807373046875,34.279998779296875,0.0,-35.0,7.1801300048828125,-6.734100341796875,Closing,-5.440860215053763,6.375,-252491.0,-196.0,-1485.0,-1650.0,0.0,0.0,
8.549829999999842,0.0,0.0,108356.0,0.125,0.0,0.0,0.0,0.25,3.8366695290000004,3.0159423668524887,0.0,70650.0,0.125,0.0,0.0,0.0,0.0,4.849853019,4.410439589772222,0.0,84160.0,0.125,0.0,0.0,0.0,0.0,2.7990719790000003,4.389674732977289,0.0,-5063.0,0.25,0.0,0.0,0.0,0.25,4.598388201000001,3.0316872062785585,0.0,-0.7900000214576721,-0.550000011920929,-150.9600067138672,-0.10150146484375,0.05572509765625,1.12982177734375,34.279998779296875,0.0,44.0,7.1804046630859375,-6.7339019775390625,Closing,-5.50967741935484,6.375,-252731.0,-199.0,-1500.0,-1650.0,0.0,0.0,
8.670868000000016,0.0,0.0,108356.0,0.125,0.0,0.0,0.0,0.25,3.8366695290000004,3.0159423668524887,0.0,70650.0,0.125,0.0,0.0,0.0,0.0,4.849853019,4.410439589772222,0.0,84160.0,0.125,0.0,0.0,0.0,0.0,2.7990719790000003,4.389674732977289,0.0,-5063.0,0.25,0.0,0.0,0.0,0.25,4.598388201000001,3.0316872062785585,0.0,-0.7699999809265137,-0.6100000143051147,-151.0399932861328,-0.04937744140625,0.00653076171875,1.0831298828125,34.279998779296875,0.0,22.0,7.1807708740234375,-6.733612060546875,Closing,-5.475219941348974,6.125,-252975.0,-201.0,-1522.5,-1650.0,0.0,0.0,
8.791494999999879,0.0,0.0,108356.0,0.125,0.0,0.0,0.0,0.25,3.8366695290000004,3.0159423668524887,0.0,70650.0,0.125,0.0,0.0,0.0,0.0,4.848632316000001,4.410439589772222,0.0,84160.0,0.125,0.0,0.0,0.0,0.0,2.7990719790000003,4.389674732977289,0.0,-5063.0,0.25,0.0,0.0,0.0,0.25,4.597167498,3.0316872062785585,0.0,-0.7400000095367432,-0.6200000047683716,-151.02000427246094,-0.0244140625,-0.00152587890625,1.06402587890625,34.279998779296875,0.0,5.0,7.180328369140625,-6.7333526611328125,Closing,-5.463343108504398,6.0,-253217.0,-203.0,-1530.0,-1650.0,0.7,3.625,
8.914538999999873,0.0,0.0,108356.0,0.125,0.0,0.0,0.0,0.25,3.8366695290000004,3.0159423668524887,0.0,70650.0,0.125,0.0,0.0,0.0,0.0,4.849853019,4.410439589772222,0.0,84160.0,0.125,0.0,0.0,0.0,0.0,2.7990719790000003,4.389674732977289,0.0,-5063.0,0.25,0.0,0.0,0.0,0.25,4.598388201000001,3.0316872062785585,0.0,-0.6800000071525574,-0.6299999952316284,-151.00999450683594,-0.0128173828125,-0.09405517578125,1.154541015625,34.279998779296875,0.0,38.0,7.1803131103515625,-6.734649658203125,Closing,-5.3372434017595305,5.875,-253463.0,-204.0,-1545.0,-1650.0,0.7,7.0,
9.036591000000016,0.0,0.0,108356.0,0.0,0.0,0.0,0.0,0.25,3.8366695290000004,3.0159423668524887,0.0,70650.0,0.125,0.0,0.0,0.0,0.0,4.849853019,4.410439589772222,0.0,84160.0,0.125,0.0,0.0,0.0,0.0,2.7990719790000003,4.389674732977289,0.0,-5063.0,0.25,0.0,0.0,0.0,0.25,4.598388201000001,3.0316872062785585,0.0,-0.6600000262260437,-0.6399999856948853,-151.02000427246094,0.03436279296875,-0.04815673828125,1.0501708984375,34.279998779296875,0.0,-22.0,7.1797332763671875,-6.737152099609375,Closing,-5.373411534701857,5.875,-253714.0,-206.0,-1552.5,-1650.0,0.7,8.75,
9.155902000000001,0.0,0.0,108356.0,0.0,0.0,0.0,0.0,0.25,3.8354488260000004,3.0159423668524887,0.0,70650.0,0.125,0.0,0.0,0.0,0.0,4.848632316000001,4.410439589772222,0.0,84160.0,0.125,0.0,0.0,0.0,0.0,2.8002926820000003,4.389674732977289,0.0,-5063.0,0.25,0.0,0.0,0.0,0.25,4.597167498,3.0316872062785585,0.0,-0.6899999976158142,-0.9800000190734863,-151.02000427246094,-0.0301513671875,0.21905517578125,0.736572265625,34.279998779296875,0.0,-95.0,7.1806640625,-6.741973876953125,Closing,-5.420136852394916,6.125,-253960.0,-207.0,-1560.0,-1650.0,0.7,6.75,
9.283307000000029,0.0,0.0,108356.0,0.125,0.0,0.0,0.0,0.25,3.8354488260000004,3.0159423668524887,0.0,70650.0,0.125,0.0,0.0,0.0,0.0,4.849853019,4.410439589772222,0.0,84160.0,0.125,0.0,0.0,0.0,0.0,2.7990719790000003,4.389674732977289,0.0,-5063.0,0.25,0.0,0.0,0.0,0.25,4.598388201000001,3.0316872062785585,0.0,-0.6100000143051147,-0.8100000023841858,-150.99000549316406,-0.0567626953125,-0.00634765625,0.85443115234375,34.290000915527344,0.0,37.0,7.1839141845703125,-6.7476043701171875,Closing,-5.4662756598240465,5.875,-254211.0,-208.0,-1567.5,-1650.0,0.7,8.375,
9.402381999999983,0.0,0.0,108356.0,0.125,0.0,0.0,0.0,0.25,3.8354488260000004,3.0159423668524887,0.0,70650.0,0.125,0.0,0.0,0.0,0.0,4.849853019,4.410439589772222,0.0,84160.0,0.125,0.0,0.0,0.0,0.0,2.8002926820000003,4.389674732977289,0.0,-5063.0,0.25,0.0,0.0,0.0,0.25,4.597167498,3.0316872062785585,0.0,-0.6100000143051147,-0.8600000143051147,-151.0,-0.0845947265625,-0.0264892578125,0.86297607421875,34.290000915527344,0.0,70.0,7.1881866455078125,-6.7548828125,Closing,-5.432355816226784,6.125,-254716.0,-210.0,-1575.0,-1650.0,0.0,0.125,
9.530024999999906,0.0,0.0,108356.0,0.0,0.0,0.0,0.0,0.25,3.8366695290000004,3.0159423668524887,0.0,70650.0,0.125,0.0,0.0,0.0,0.0,4.851073722000001,4.410439589772222,0.0,84160.0,0.125,0.0,0.0,0.0,0.0,2.7990719790000003,4.389674732977289,0.0,-5063.0,0.25,0.0,0.0,0.0,0.25,4.598388201000001,3.0316872062785585,0.0,-0.5899999737739563,-0.8899999856948853,-150.99000549316406,-0.0643310546875,0.00823974609375,0.8475341796875,34.290000915527344,0.0,36.0,7.1923828125,-6.7633514404296875,Closing,0.0,0.125,-254965.0,-208.0,-1560.0,0.0,0.0,0.125,
9.652646999999881,0.0,0.0,108356.0,0.125,0.0,0.0,0.0,0.25,3.8366695290000004,3.0159423668524887,0.0,70650.0,0.125,0.0,0.0,0.0,0.0,4.849853019,4.410439589772222,0.0,84160.0,0.125,0.0,0.0,0.0,0.0,2.8002926820000003,4.389674732977289,0.0,-5063.0,0.25,0.0,0.0,0.0,0.25,4.598388201000001,3.0316872062785585,0.0,-0.5699999928474426,-0.8199999928474426,-151.00999450683594,-0.06903076171875,-0.06146240234375,0.98016357421875,34.290000915527344,0.0,72.0,7.1910858154296875,-6.7723388671875,Closing,-3.114076246334311,0.375,-255203.0,-199.0,-1485.0,-1650.0,-0.7,1.75,
9.777707999999867,0.0,0.0,108356.0,0.125,0.0,0.0,0.0,0.25,3.8366695290000004,3.0159423668524887,0.0,70650.0,0.125,0.0,0.0,0.0,0.0,4.849853019,4.410439589772222,0.0,84160.0,0.125,0.0,0.0,0.0,0.0,2.8002926820000003,4.389674732977289,0.0,-5063.0,0.25,0.0,0.0,0.0,0.25,4.598388201000001,3.0316872062785585,0.0,-0.5799999833106995,-0.8799999952316284,-150.97999572753906,-0.00616455078125,-0.02899169921875,1.01788330078125,34.29999923706055,0.0,0.0,7.1913604736328125,-6.7819061279296875,Closing,-7.05483870967742,3.25,-255434.0,-191.0,-1432.5,-1650.0,-0.7,2.0,
9.906163999999873,0.0,0.0,108356.0,0.125,0.0,0.0,0.0,0.25,3.8366695290000004,3.0159423668524887,0.0,70650.0,0.125,0.0,0.0,0.0,0.0,4.848632316000001,4.410439589772222,0.0,84160.0,0.125,0.0,0.0,0.0,0.0,2.7990719790000003,4.389674732977289,0.0,-5063.0,0.25,0.0,0.0,0.0,0.25,4.597167498,3.0316872062785585,0.0,-0.550000011920929,-0.8799999952316284,-151.0,0.0345458984375,0.08282470703125,1.12628173828125,34.29999923706055,0.0,-90.0,7.1916351318359375,-6.789794921875,Closing,-5.2063538611925715,5.5,-255659.0,-189.0,-1417.5,-1650.0,-0.7,2.375,
10.02688699999987,0.0,0.0,108356.0,0.125,0.0,0.0,0.0,0.25,3.8366695290000004,3.0159423668524887,0.0,70650.0,0.125,0.0,0.0,0.0,0.0,4.849853019,4.410439589772222,0.0,84160.0,0.125,0.0,0.0,0.0,0.0,2.7990719790000003,4.389674732977289,0.0,-5063.0,0.25,0.0,0.0,0.0,0.25,4.597167498,3.0316872062785585,0.0,-0.5299999713897705,-0.8500000238418579,-151.0,-0.06182861328125,-0.14141845703125,1.0460205078125,34.29999923706055,0.0,104.0,7.1903533935546875,-6.797576904296875,Closing,-5.406598240469209,6.375,-255889.0,-190.0,-1432.5,-1650.0,-0.7,2.625,
10.150334999999963,0.0,0.0,108356.0,0.125,0.0,0.0,0.0,0.25,3.8366695290000004,3.0159423668524887,0.0,70650.0,0.125,0.0,0.0,0.0,0.0,4.849853019,4.410439589772222,0.0,84160.0,0.125,0.0,0.0,0.0,0.0,2.7990719790000003,4.389674732977289,0.0,-5063.0,0.25,0.0,0.0,0.0,0.25,4.597167498,3.0316872062785585,0.0,-0.5099999904632568,-0.8100000023841858,-150.99000549316406,-0.0401611328125,-0.05462646484375,1.00982666015625,34.29999923706055,0.0,44.0,7.1910858154296875,-6.799835205078125,Closing,-5.429032258064516,6.5,-256121.0,-193.0,-1455.0,-1650.0,-0.7,2.625,
10.272240999999921,0.0,0.0,108356.0,0.125,0.0,0.0,0.0,0.125,3.8354488260000004,3.0159423668524887,0.0,70650.0,0.125,0.0,0.0,0.0,0.0,4.849853019,4.410439589772222,0.0,84160.0,0.0,0.0,0.0,0.0,0.0,2.7990719790000003,4.389674732977289,0.0,-5063.0,0.25,0.0,0.0,0.0,0.25,4.597167498,3.0316872062785585,0.0,-0.4399999976158142,-0.8299999833106995,-151.0,-0.04827880859375,-0.08447265625,1.04058837890625,34.279998779296875,0.0,65.0,7.1923370361328125,-6.79998779296875,Closing,-5.369892473118279,6.5,-256358.0,-196.0,-1477.5,-1650.0,0.0,0.0,
10.393222999999999,0.0,0.0,108356.0,0.125,0.0,0.0,0.0,0.25,3.8366695290000004,3.0159423668524887,0.0,70650.0,0.125,0.0,0.0,0.0,0.0,4.849853019,4.410439589772222,0.0,84160.0,0.125,0.0,0.0,0.0,0.0,2.7990719790000003,4.389674732977289,0.0,-5063.0,0.25,0.0,0.0,0.0,0.25,4.597167498,3.0316872062785585,0.0,-0.38999998569488525,-0.800000011920929,-151.0,-0.01934814453125,-0.0445556640625,1.23486328125,34.279998779296875,0.0,19.0,7.1934967041015625,-6.80126953125,Closing,-5.417204301075269,6.5,-256597.0,-198.0,-1492.5,-1650.0,0.0,0.0,
10.511858999999939,0.0,0.0,108356.0,0.0,0.0,0.0,0.0,0.25,3.8378902320000003,3.0159423668524887,0.0,70650.0,0.125,0.0,0.0,0.0,0.0,4.848632316000001,4.410439589772222,0.0,84160.0,0.125,0.0,0.0,0.0,0.0,2.805175494,4.389674732977289,0.0,-5063.0,0.25,0.0,0.0,0.0,0.25,4.598388201000001,3.0316872062785585,0.0,-0.4000000059604645,-0.7900000214576721,-151.00999450683594,-0.06591796875,-0.0391845703125,0.99603271484375,34.279998779296875,0.0,61.0,7.19378662109375,-6.8036651611328125,Closing,-5.406598240469209,5.875,-256839.0,-201.0,-1507.5,-1650.0,-0.7,5.875,
10.63379799999995,0.0,0.0,108356.0,0.0,0.0,0.0,0.0,0.25,3.8366695290000004,3.0159423668524887,0.0,70650.0,0.125,0.0,0.0,0.0,0.0,4.849853019,4.410439589772222,0.0,84160.0,0.125,0.0,0.0,0.0,0.0,2.7990719790000003,4.389674732977289,0.0,-5063.0,0.25,0.0,0.0,0.0,0.25,4.597167498,3.0316872062785585,0.0,-0.4000000059604645,-0.8399999737739563,-151.00999450683594,-0.07183837890625,-0.03668212890625,0.93218994140625,34.279998779296875,0.0,65.0,7.1959228515625,-6.807159423828125,Closing,-5.4277126099706745,6.25,-257085.0,-202.0,-1522.5,-1650.0,0.0,0.0,
10.75457700000005,0.0,0.0,108356.0,0.0,0.0,0.0,0.0,0.25,3.8366695290000004,3.0159423668524887,0.0,70650.0,0.125,0.0,0.0,0.0,0.0,4.849853019,4.410439589772222,0.0,84160.0,0.125,0.0,0.0,0.0,0.0,2.7990719790000003,4.389674732977289,0.0,-5063.0,0.25,0.0,0.0,0.0,0.25,4.598388201000001,3.0316872062785585,0.0,-0.4099999964237213,-0.800000011920929,-151.0,-0.024169921875,-0.07427978515625,1.05718994140625,34.279998779296875,0.0,40.0,7.195465087890625,-6.809783935546875,Closing,-5.3712609970674485,6.0,-257329.0,-204.0,-1537.5,-1650.0,0.7,2.0,
10.889871999999974,0.0,0.0,108356.0,0.0,0.0,0.0,0.0,0.25,3.8378902320000003,3.0159423668524887,0.0,70650.0,0.125,0.0,0.0,0.0,0.0,4.849853019,4.410439589772222,0.0,84160.0,0.125,0.0,0.0,0.0,0.0,2.7990719790000003,4.389674732977289,0.0,-5063.0,0.25,0.0,0.0,0.0,0.25,4.598388201000001,3.0316872062785585,0.0,-0.3799999952316284,-0.7900000214576721,-151.0,0.0501708984375,-0.0860595703125,1.1334228515625,34.279998779296875,0.0,-19.0,7.194671630859375,-6.8126220703125,Closing,-5.488172043010752,6.125,-257577.0,-206.0,-1545.0,-1650.0,0.7,2.25,
11.030409999999916,0.0,0.0,108356.0,0.0,0.0,0.0,0.0,0.25,3.8366695290000004,3.0159423668524887,0.0,70650.0,0.125,0.0,0.0,0.0,0.0,4.848632316000001,4.410439589772222,0.0,84160.0,0.125,0.0,0.0,0.0,0.0,2.7990719790000003,4.389674732977289,0.0,-5063.0,0.25,0.0,0.0,0.0,0.25,4.598388201000001,3.0316872062785585,0.0,-0.3799999952316284,-0.7599999904632568,-151.0,-0.07037353515625,0.0562744140625,0.71917724609375,34.279998779296875,0.0,23.0,7.1948089599609375,-6.8126983642578125,Closing,-5.439589442815249,5.875,-257827.0,-207.0,-1560.0,-1650.0,0.7,3.0,
11.155435999999987,0.0,0.0,108356.0,0.0,0.0,0.0,0.0,0.25,3.8366695290000004,3.0159423668524887,0.0,70650.0,0.125,0.0,0.0,0.0,0.0,4.849853019,4.410439589772222,0.0,84160.0,0.125,0.0,0.0,0.0,0.0,2.8002926820000003,4.389674732977289,0.0,-5063.0,0.25,0.0,0.0,0.0,0.25,4.598388201000001,3.0316872062785585,0.0,-0.3700000047683716,-0.7799999713897705,-151.02000427246094,-0.09478759765625,0.004638671875,1.1207275390625,34.279998779296875,0.0,63.0,7.194091796875,-6.813140869140625,Closing,0.0,0.125,-258077.0,-208.0,-1537.5,0.0,0.0,0.0,
11.293533999999985,0.0,0.0,108356.0,0.0,0.0,0.0,0.0,0.25,3.8354488260000004,3.0159423668524887,0.0,70650.0,0.125,0.0,0.0,0.0,0.0,4.848632316000001,4.410439589772222,0.0,84160.0,0.125,0.0,0.0,0.0,0.0,2.7990719790000003,4.389674732977289,0.0,-5063.0,0.25,0.0,0.0,0.0,0.25,4.598388201000001,3.0316872062785585,0.0,-0.3799999952316284,-0.8199999928474426,-151.0,-0.12030029296875,-0.04425048828125,1.0186767578125,34.279998779296875,0.0,110.0,7.196044921875,-6.8135528564453125,Closing,0.0,0.125,-258319.0,-203.0,-1470.0,0.0,0.0,0.0,
11.42013699999987,0.0,0.0,108356.0,0.0,0.0,0.0,0.0,0.25,3.8366695290000004,3.0159423668524887,0.0,70650.0,0.125,0.0,0.0,0.0,0.0,4.849853019,4.410439589772222,0.0,84160.0,0.125,0.0,0.0,0.0,0.0,2.7978512760000003,4.389674732977289,0.0,-5063.0,0.25,0.0,0.0,0.0,0.25,4.598388201000001,3.0316872062785585,0.0,-0.36000001430511475,-0.8299999833106995,-151.00999450683594,-0.0072021484375,-0.0242919921875,1.21392822265625,34.279998779296875,0.0,-1.0,7.198394775390625,-6.8133087158203125,Closing,0.0,0.125,-258550.0,-194.0,-1395.0,0.0,0.0,0.0,
11.555592999999877,0.0,0.0,108356.0,0.0,0.0,0.0,0.0,0.25,3.8366695290000004,3.0159423668524887,0.0,70650.0,0.125,0.0,0.0,0.0,0.0,4.848632316000001,4.410439589772222,0.0,84160.0,0.125,0.0,0.0,0.0,0.0,2.7990719790000003,4.389674732977289,0.0,-5063.0,0.25,0.0,0.0,0.0,0.25,4.597167498,3.0316872062785585,0.0,-0.3700000047683716,-0.8600000143051147,-151.0,-0.04400634765625,0.04534912109375,1.20025634765625,34.279998779296875,0.0,-3.0,7.1980438232421875,-6.81207275390625,Closing,0.0,0.125,-258977.0,-175.0,-1305.0,0.0,0.0,0.0,
11.691956999999936,0.0,0.0,108356.0,0.125,0.0,0.0,0.0,0.25,3.8366695290000004,3.0159423668524887,0.0,70650.0,0.125,0.0,0.0,0.0,0.0,4.848632316000001,4.410439589772222,0.0,84160.0,0.125,0.0,0.0,0.0,0.0,2.7990719790000003,4.389674732977289,0.0,-5063.0,0.25,0.0,0.0,0.0,0.25,4.598388201000001,3.0316872062785585,0.0,-0.3799999952316284,-0.8700000047683716,-151.0,-0.07318115234375,0.12896728515625,0.991943359375,34.279998779296875,0.0,-15.0,7.1980438232421875,-6.810699462890625,Closing,0.0,0.125,-259175.0,-166.0,-1237.5,0.0,0.0,0.0,
11.819209999999963,0.0,0.0,108356.0,0.0,0.0,0.0,0.0,0.25,3.8378902320000003,3.0159423668524887,0.0,70650.0,0.125,0.0,0.0,0.0,0.0,4.848632316000001,4.410439589772222,0.0,84160.0,0.125,0.0,0.0,0.0,0.0,2.7990719790000003,4.389674732977289,0.0,-5063.0,0.25,0.0,0.0,0.0,0.25,4.598388201000001,3.0316872062785585,0.0,-0.41999998688697815,-0.8999999761581421,-151.00999450683594,-0.00262451171875,-0.025634765625,0.97149658203125,34.31999969482422,0.0,-2.0,7.1981201171875,-6.8086090087890625,Closing,0.0,0.125,-259361.0,-156.0,-1162.5,0.0,0.0,0.0,
11.94933899999992,0.0,0.0,108356.0,0.125,0.0,0.0,0.0,0.25,3.8354488260000004,3.0159423668524887,0.0,70650.0,0.125,0.0,0.0,0.0,0.0,4.849853019,4.410439589772222,0.0,84160.0,0.125,0.0,0.0,0.0,0.0,2.7990719790000003,4.389674732977289,0.0,-5063.0,0.25,0.0,0.0,0.0,0.25,4.598388201000001,3.0316872062785585,0.0,-0.44999998807907104,-0.9200000166893005,-151.00999450683594,0.00384521484375,0.0457763671875,1.0206298828125,34.31999969482422,0.0,-43.0,7.1981201171875,-6.8048858642578125,Closing,0.0,0.125,-259537.0,-148.0,-1095.0,0.0,0.0,0.0,
12.083868999999948,0.0,0.0,108356.0,0.0,0.0,0.0,0.0,0.25,3.8366695290000004,3.0159423668524887,0.0,70650.0,0.125,0.0,0.0,0.0,0.0,4.848632316000001,4.410439589772222,0.0,84160.0,0.125,0.0,0.0,0.0,0.0,2.8002926820000003,4.389674732977289,0.0,-5063.0,0.25,0.0,0.0,0.0,0.25,4.598388201000001,3.0316872062785585,0.0,-0.3700000047683716,-0.9100000262260437,-151.00999450683594,0.02392578125,-0.08203125,1.00994873046875,34.31999969482422,0.0,1.0,7.197998046875,-6.8024139404296875,Closing,0.0,0.125,-259702.0,-139.0,-1027.5,0.0,0.0,0.0,
12.210209000000031,0.0,0.0,108356.0,0.0,0.0,0.0,0.0,0.25,3.8378902320000003,3.0159423668524887,0.0,70650.0,0.125,0.0,0.0,0.0,0.0,4.849853019,4.410439589772222,0.0,84160.0,0.125,0.0,0.0,0.0,0.0,2.7990719790000003,4.389674732977289,0.0,-5063.0,0.25,0.0,0.0,0.0,0.25,4.597167498,3.0316872062785585,0.0,-0.38999998569488525,-0.8999999761581421,-151.00999450683594,-0.02740478515625,-0.006591796875,1.05340576171875,34.31999969482422,0.0,9.0,7.1978759765625,-6.80120849609375,Closing,0.0,0.125,-259857.0,-130.0,-945.0,0.0,0.0,0.0,
12.341638000000035,0.0,0.0,108356.0,0.125,0.0,0.0,0.0,0.25,3.8354488260000004,3.0159423668524887,0.0,70650.0,0.125,0.0,0.0,0.0,0.0,4.848632316000001,4.410439589772222,0.0,84160.0,0.125,0.0,0.0,0.0,0.0,2.7990719790000003,4.389674732977289,0.0,-5063.0,0.25,0.0,0.0,0.0,0.25,4.597167498,3.0316872062785585,0.0,-0.3400000035762787,-0.9100000262260437,-151.00999450683594,0.02032470703125,-0.028076171875,1.0196533203125,34.310001373291016,0.0,-21.0,7.197357177734375,-6.799835205078125,Closing,0.0,0.0,-260002.0,-122.0,-877.5,0.0,0.0,0.0,
12.475878000000026,0.0,0.0,108356.0,0.0,0.0,0.0,0.0,0.25,3.8354488260000004,3.0159423668524887,0.0,70650.0,0.125,0.0,0.0,0.0,0.0,4.847411613,4.410439589772222,0.0,84160.0,0.125,0.0,0.0,0.0,0.0,2.7990719790000003,4.389674732977289,0.0,-5063.0,0.25,0.0,0.0,0.0,0.25,4.598388201000001,3.0316872062785585,0.0,-0.33000001311302185,-0.8899999856948853,-151.00999450683594,-0.05059814453125,0.02557373046875,1.04510498046875,34.310001373291016,0.0,14.0,7.1961669921875,-6.798492431640625,Closing,0.0,0.125,-260136.0,-113.0,-810.0,0.0,0.0,0.0,
12.604469999999973,0.0,0.0,108356.0,0.0,0.0,0.0,0.0,0.25,3.8366695290000004,3.0159423668524887,0.0,70650.0,0.125,0.0,0.0,0.0,0.0,4.848632316000001,4.410439589772222,0.0,84160.0,0.125,0.0,0.0,0.0,0.0,2.7990719790000003,4.389674732977289,0.0,-5063.0,0.25,0.0,0.0,0.0,0.25,4.598388201000001,3.0316872062785585,0.0,-0.3400000035762787,-0.9100000262260437,-151.00999450683594,-0.0540771484375,6.7138671875E-4,0.94677734375,34.310001373291016,0.0,30.0,7.1961822509765625,-6.7979278564453125,Closing,0.0,0.125,-260261.0,-105.0,-750.0,0.0,0.0,0.0,
12.728290999999968,0.0,0.0,108356.0,0.125,0.0,0.0,0.0,0.25,3.8366695290000004,3.0159423668524887,0.0,70650.0,0.125,0.0,0.0,0.0,0.0,4.849853019,4.410439589772222,0.0,84160.0,0.125,0.0,0.0,0.0,0.0,2.8002926820000003,4.389674732977289,0.0,-5063.0,0.25,0.0,0.0,0.0,0.25,4.597167498,3.0316872062785585,0.0,-0.33000001311302185,-0.9200000166893005,-151.02000427246094,-0.0164794921875,0.0263671875,1.0074462890625,34.310001373291016,0.0,-15.0,7.19659423828125,-6.79833984375,Closing,0.0,0.0,-260376.0,-97.0,-682.5,0.0,0.0,0.0,
12.85255700000003,0.0,0.0,108356.0,0.125,0.0,0.0,0.0,0.25,3.8366695290000004,3.0159423668524887,0.0,70650.0,0.125,0.0,0.0,0.0,0.0,4.849853019,4.410439589772222,0.0,84160.0,0.125,0.0,0.0,0.0,0.0,2.7990719790000003,4.389674732977289,0.0,-5063.0,0.25,0.0,0.0,0.0,0.25,4.599608904,3.0316872062785585,0.0,-0.30000001192092896,-0.8799999952316284,-151.02000427246094,-0.01031494140625,0.009033203125,1.041015625,34.310001373291016,0.0,-12.0,7.196563720703125,-6.799652099609375,Closing,0.0,0.125,-260482.0,-89.0,-622.5,0.0,0.0,0.0,
12.976172999999951,0.0,0.0,108356.0,0.125,0.0,0.0,0.0,0.25,3.8354488260000004,3.0159423668524887,0.0,70650.0,0.125,0.0,0.0,0.0,0.0,4.848632316000001,4.410439589772222,0.0,84160.0,0.125,0.0,0.0,0.0,0.0,2.7990719790000003,4.389674732977289,0.0,-5063.0,0.25,0.0,0.0,0.0,0.25,4.598388201000001,3.0316872062785585,0.0,-0.27000001072883606,-0.8799999952316284,-151.02000427246094,-0.00726318359375,0.01263427734375,0.988525390625,34.310001373291016,0.0,-15.0,7.19647216796875,-6.7997894287109375,Closing,0.0,0.125,-260577.0,-81.0,-562.5,0.0,0.0,0.0,
13.101547000000021,0.0,0.0,108356.0,0.125,0.0,0.0,0.0,0.25,3.8366695290000004,3.0159423668524887,0.0,70650.0,0.125,0.0,0.0,0.0,0.0,4.847411613,4.410439589772222,0.0,84160.0,0.125,0.0,0.0,0.0,0.0,2.7990719790000003,4.389674732977289,0.0,-5063.0,0.25,0.0,0.0,0.0,0.25,4.597167498,3.0316872062785585,0.0,-0.25,-0.8600000143051147,-151.02999877929688,-0.0079345703125,0.0076904296875,1.030517578125,34.310001373291016,0.0,-12.0,7.1963958740234375,-6.80010986328125,Closing,0.0,0.125,-260664.0,-73.0,-510.0,0.0,0.0,0.0,
13.220223999999929,0.0,0.0,108356.0,0.125,0.0,0.0,0.0,0.25,3.8366695290000004,3.0159423668524887,0.0,70650.0,0.125,0.0,0.0,0.0,0.0,4.848632316000001,4.410439589772222,0.0,84160.0,0.125,0.0,0.0,0.0,0.0,2.7990719790000003,4.389674732977289,0.0,-5063.0,0.25,0.0,0.0,0.0,0.25,4.597167498,3.0316872062785585,0.0,-0.25,-0.8700000047683716,-151.02999877929688,-0.01251220703125,0.02423095703125,1.06024169921875,34.310001373291016,0.0,-17.0,7.1965484619140625,-6.7997894287109375,Closing,0.0,0.125,-260741.0,-65.0,-450.0,0.0,0.0,0.0,
13.344785999999846,0.0,0.0,108356.0,0.0,0.0,0.0,0.0,0.25,3.8366695290000004,3.0159423668524887,0.0,70650.0,0.125,0.0,0.0,0.0,0.0,4.849853019,4.410439589772222,0.0,84160.0,0.125,0.0,0.0,0.0,0.0,2.7990719790000003,4.389674732977289,0.0,-5063.0,0.25,0.0,0.0,0.0,0.25,4.598388201000001,3.0316872062785585,0.0,-0.25999999046325684,-0.8799999952316284,-151.02999877929688,-0.04779052734375,0.00421142578125,0.978271484375,34.31999969482422,0.0,24.0,7.196746826171875,-6.800140380859375,Closing,0.0,0.125,-260809.0,-58.0,-390.0,0.0,0.0,0.0,
13.46316799999983,0.0,0.0,108360.0,1.125,75.0,459.375,0.0,4.125,4.3908686910000005,4.096097465252258,0.0,70647.0,1.5,-82.5,-459.375,0.0,0.5,4.704589362,4.122273119331356,0.0,84161.0,1.25,67.5,459.375,0.0,0.375,2.668456758,4.102864983418779,0.0,-5083.0,1.25,-112.5,-459.375,0.0,3.75,0.262451145,4.1174812945895685,0.0,-0.36000001430511475,-0.8700000047683716,-150.97000122070312,-0.0333251953125,-0.03997802734375,0.885498046875,34.31999969482422,0.0,34.0,7.197296142578125,-6.8003387451171875,Closing,0.0,0.125,-260869.0,-50.0,-330.0,0.0,0.0,0.0,
13.588919999999925,0.0,0.0,108380.0,15.5,135.0,1575.0,0.0,0.75,0.114746082,4.097056405348668,0.0,70631.0,21.875,-172.5,-1575.0,0.0,0.5,4.621581558,4.123238187427517,0.0,84178.0,17.625,105.0,1575.0,0.0,0.125,2.421874752,4.103825507863359,0.0,-5129.0,15.625,-255.0,-1575.0,0.0,0.75,0.9069823290000001,4.118445240868459,0.0,-1.4600000381469727,-0.3199999928474426,-150.91000366210938,0.25616455078125,-0.42633056640625,1.21820068359375,34.31999969482422,0.0,-37.0,7.200714111328125,-6.790069580078125,Closing,0.0,0.125,-260920.0,-43.0,-277.5,0.0,0.0,0.0,
13.710433999999893,0.0,0.0,108419.0,0.0,202.5,0.0,0.0,0.375,0.22338864900000002,4.097056405348668,0.0,70579.0,0.125,-217.5,0.0,0.0,0.25,4.564208517,4.123238187427517,0.0,84207.0,0.125,195.0,0.0,0.0,0.125,2.401122801,4.103825507863359,0.0,-5178.0,0.25,-262.5,0.0,0.0,0.5,1.0034178660000002,4.118445240868459,0.0,-0.9399999976158142,-0.1599999964237213,-151.10000610351562,-0.2052001953125,0.2406005859375,0.8895263671875,34.31999969482422,0.0,54.0,7.2004547119140625,-6.76300048828125,Closing,0.0,0.125,-260962.0,-36.0,-217.5,0.0,0.0,0.0,
