Time,ClimberA1,ClimberA2,FRpos,FRCurrent,FRspeed,FRsetpoint,FRApos,FRACurrent,FREncpos,FREncSetpoint,FREncSpeed,FLpos,FLCurrent,FLspeed,FLsetpoint,FLApos,FLACurrent,FLEncpos,FLEncSetpoint,FLEncSpeed,BRpos,BRCurrent,BRspeed,BRsetpoint,BRApos,BRACurrent,BREncpos,BREncSetpoint,BREncSpeed,BLpos,BLCurrent,BLspeed,BLsetpoint,BLApos,BLACurrent,BLEncpos,BLEncSetpoint,BLEncSpeed,navx_Pitch,navx_Roll,navx_Yaw,navx_XAcc,navx_YAcc,navx_ZAcc,navx_Temp,navx_Bar,navx_Alt,navx_XDis,navx_YDis,GearPlacerState,ShootOutputV,ShootOutputCurrent,ShootEncPos,ShootEncVelocity,ShootSpeed,ShootSetpoint,CarouselSetpoint,CarouselCurrent,
0.12852700000000186,0.0,0.0,41151.0,0.0,0.0,0.0,0.0,0.25,0.860595615,0.01,0.0,38157.0,0.0,0.0,-0.0,0.0,0.25,0.405273396,0.01,0.0,-2103.0,0.0,0.0,0.0,0.0,0.0,3.3203121600000003,0.01,0.0,40696.0,0.125,0.0,-0.0,0.0,0.25,1.6552732680000002,0.01,0.0,0.3799999952316284,-1.25,0.0,-0.02392578125,0.00653076171875,1.021728515625,35.08000183105469,0.0,-1.0,1.6462249755859375,0.2573089599609375,Closing,0.0,0.0,1.0,0.0,0.0,0.0,0.0,0.0,
0.24578599999996367,0.0,0.0,41151.0,0.0,0.0,0.0,0.0,0.25,0.859374912,0.01,0.0,38157.0,0.0,0.0,-0.0,0.0,0.25,0.404052693,0.01,0.0,-2103.0,0.0,0.0,0.0,0.0,0.0,3.3178707540000003,0.01,0.0,40696.0,0.125,0.0,-0.0,0.0,0.25,1.6540525650000002,0.01,0.0,0.3799999952316284,-1.25,0.0,-0.02294921875,0.00439453125,1.017333984375,35.08000183105469,0.0,0.0,1.6462249755859375,0.2573089599609375,Closing,0.0,0.0,1.0,0.0,0.0,0.0,0.0,0.0,
0.36478899999998976,0.0,0.0,41151.0,0.0,0.0,0.0,0.0,0.25,0.860595615,0.01,0.0,38157.0,0.0,0.0,-0.0,0.0,0.25,0.404052693,0.01,0.0,-2103.0,0.0,0.0,0.0,0.0,0.0,3.3190914570000003,0.01,0.0,40696.0,0.0,0.0,-0.0,0.0,0.25,1.6552732680000002,0.01,0.0,0.3799999952316284,-1.25,0.0,-0.019775390625,0.0072021484375,1.0203857421875,35.08000183105469,0.0,2.0,1.6462249755859375,0.2573089599609375,Closing,0.0,0.0,1.0,0.0,0.0,0.0,0.0,0.0,
0.4855929999999935,0.0,0.0,41151.0,0.0,0.0,0.0,0.0,0.25,0.863037021,0.01,0.0,38157.0,0.0,0.0,-0.0,0.0,0.25,0.405273396,0.01,0.0,-2103.0,0.0,0.0,0.0,0.0,0.0,3.3142086450000003,0.01,0.0,40696.0,0.125,0.0,-0.0,0.0,0.25,1.6552732680000002,0.01,0.0,0.3799999952316284,-1.25,0.0,-0.02496337890625,0.0076904296875,1.02099609375,35.08000183105469,0.0,-2.0,1.6462249755859375,0.2573089599609375,Closing,0.0,0.0,1.0,0.0,0.0,0.0,0.0,0.0,
0.6016309999999357,0.0,0.0,41151.0,0.0,0.0,0.0,0.0,0.25,0.863037021,0.01,0.0,38157.0,0.0,0.0,-0.0,0.0,0.25,0.405273396,0.01,0.0,-2103.0,0.0,0.0,0.0,0.0,0.0,3.3142086450000003,0.01,0.0,40696.0,0.125,0.0,-0.0,0.0,0.25,1.6564939710000002,0.01,0.0,0.3799999952316284,-1.25,0.0,-0.02001953125,0.007080078125,1.02093505859375,35.06999969482422,0.0,2.0,1.6462249755859375,0.2573089599609375,Closing,0.0,0.0,1.0,0.0,0.0,0.0,0.0,0.0,
0.7149349999999395,0.0,0.0,41151.0,0.0,0.0,0.0,0.0,0.25,0.860595615,0.01,0.0,38157.0,0.0,0.0,-0.0,0.0,0.25,0.40283199000000003,0.01,0.0,-2103.0,0.0,0.0,0.0,0.0,0.0,3.3203121600000003,0.01,0.0,40696.0,0.125,0.0,-0.0,0.0,0.25,1.6552732680000002,0.01,0.0,0.3799999952316284,-1.25,0.0,-0.0211181640625,0.00732421875,1.01336669921875,35.06999969482422,0.0,1.0,1.6462249755859375,0.2573089599609375,Closing,0.0,0.0,1.0,0.0,0.0,0.0,0.0,0.0,
0.8367920000000159,0.0,0.0,41151.0,0.0,0.0,0.0,0.0,0.25,0.847167882,0.01,0.0,38157.0,0.0,0.0,-0.0,0.0,0.25,0.404052693,0.01,0.0,-2103.0,0.0,0.0,0.0,0.0,0.0,3.3190914570000003,0.01,0.0,40696.0,0.0,0.0,-0.0,0.0,0.25,1.6552732680000002,0.01,0.0,0.3799999952316284,-1.2400000095367432,0.0,-0.0238037109375,0.00677490234375,1.0203857421875,35.06999969482422,0.0,-1.0,1.6462249755859375,0.2573089599609375,Opening,0.0,0.0,1.0,0.0,0.0,0.0,0.0,0.0,
0.952094000000041,0.0,0.0,41151.0,0.0,0.0,0.0,0.0,0.25,0.8581542090000001,0.01,0.0,38157.0,0.0,0.0,-0.0,0.0,0.25,0.405273396,0.01,0.0,-2103.0,0.0,0.0,0.0,0.0,0.0,3.3203121600000003,0.01,0.0,40696.0,0.0,0.0,-0.0,0.0,0.25,1.6552732680000002,0.01,0.0,0.3799999952316284,-1.2400000095367432,-0.009999999776482582,-0.01910400390625,0.0050048828125,1.01898193359375,35.06999969482422,0.0,3.0,1.6462249755859375,0.2573089599609375,Opening,0.0,0.0,1.0,0.0,0.0,0.0,0.0,0.0,
1.0691720000000204,0.0,0.0,41151.0,0.0,0.0,0.0,0.0,0.25,0.859374912,0.01,0.0,38157.0,0.0,0.0,-0.0,0.0,0.25,0.40283199000000003,0.01,0.0,-2103.0,0.0,0.0,0.0,0.0,0.0,3.3154293480000003,0.01,0.0,40696.0,0.125,0.0,-0.0,0.0,0.25,1.6552732680000002,0.01,0.0,0.3799999952316284,-1.2400000095367432,-0.009999999776482582,-0.02252197265625,0.005126953125,1.01898193359375,35.08000183105469,0.0,0.0,1.6462249755859375,0.2573089599609375,Opening,0.0,0.0,1.0,0.0,0.0,0.0,0.0,0.0,
1.1901799999999347,0.0,0.0,41151.0,0.0,0.0,0.0,0.0,0.25,0.860595615,0.01,0.0,38157.0,0.0,0.0,-0.0,0.0,0.25,0.404052693,0.01,0.0,-2103.0,0.0,0.0,0.0,0.0,0.0,3.3203121600000003,0.01,0.0,40696.0,0.0,0.0,-0.0,0.0,0.25,1.6552732680000002,0.01,0.0,0.3799999952316284,-1.2400000095367432,-0.009999999776482582,-0.02203369140625,0.0062255859375,1.01959228515625,35.08000183105469,0.0,0.0,1.6462249755859375,0.2573089599609375,Opening,0.0,0.0,1.0,0.0,0.0,0.0,0.0,0.0,
1.3044279999999562,0.0,0.0,41151.0,0.0,0.0,0.0,0.0,0.25,0.859374912,0.01,0.0,38157.0,0.0,0.0,-0.0,0.0,0.25,0.404052693,0.01,0.0,-2103.0,0.0,0.0,0.0,0.0,0.0,3.3203121600000003,0.01,0.0,40696.0,0.125,0.0,-0.0,0.0,0.25,1.6552732680000002,0.01,0.0,0.3799999952316284,-1.2300000190734863,-0.009999999776482582,-0.0208740234375,0.0064697265625,1.02081298828125,35.08000183105469,0.0,1.0,1.6462249755859375,0.2573089599609375,Opening,0.0,0.0,1.0,0.0,0.0,0.0,0.0,0.0,
1.4152199999999722,0.0,0.0,41151.0,0.0,0.0,0.0,0.0,0.25,0.860595615,0.01,0.0,38157.0,0.0,0.0,-0.0,0.0,0.25,0.405273396,0.01,0.0,-2103.0,0.0,0.0,0.0,0.0,0.0,3.3154293480000003,0.01,0.0,40696.0,0.125,0.0,-0.0,0.0,0.25,1.6552732680000002,0.01,0.0,0.3799999952316284,-1.2300000190734863,-0.019999999552965164,-0.02386474609375,0.00640869140625,1.02337646484375,35.08000183105469,0.0,-1.0,1.6462249755859375,0.2573089599609375,Opening,0.0,0.0,1.0,0.0,0.0,0.0,0.0,0.0,
1.5447119999999412,0.0,0.0,41151.0,0.0,0.0,0.0,0.0,0.25,0.860595615,0.01,0.0,38157.0,0.0,0.0,-0.0,0.0,0.25,0.405273396,0.01,0.0,-2103.0,0.0,0.0,0.0,0.0,0.0,3.3154293480000003,0.01,0.0,40696.0,0.125,0.0,-0.0,0.0,0.25,1.6552732680000002,0.01,0.0,0.38999998569488525,-1.2400000095367432,-0.019999999552965164,-0.02313232421875,0.00762939453125,1.01947021484375,35.08000183105469,0.0,0.0,1.6462249755859375,0.2573089599609375,Opening,0.0,0.0,1.0,0.0,0.0,0.0,0.0,0.0,
1.658969000000041,0.0,0.0,41151.0,0.0,0.0,0.0,0.0,0.25,0.860595615,0.01,0.0,38157.0,0.0,0.0,-0.0,0.0,0.25,0.404052693,0.01,0.0,-2103.0,0.0,0.0,0.0,0.0,0.0,3.3203121600000003,0.01,0.0,40696.0,0.125,0.0,-0.0,0.0,0.25,1.6552732680000002,0.01,0.0,0.38999998569488525,-1.2400000095367432,-0.019999999552965164,-0.022216796875,0.006103515625,1.0177001953125,35.08000183105469,0.0,0.0,1.6462249755859375,0.2573089599609375,Opening,0.0,0.0,1.0,0.0,0.0,0.0,0.0,0.0,
1.7731609999999636,0.0,0.0,41151.0,0.0,0.0,0.0,0.0,0.25,0.864257724,0.01,0.0,38157.0,0.0,0.0,-0.0,0.0,0.25,0.40283199000000003,0.01,0.0,-2103.0,0.0,0.0,0.0,0.0,0.125,3.3178707540000003,0.01,0.0,40696.0,0.125,0.0,-0.0,0.0,0.25,1.6552732680000002,0.01,0.0,0.3799999952316284,-1.2300000190734863,-0.019999999552965164,-0.021728515625,0.0029296875,1.0155029296875,35.08000183105469,0.0,0.0,1.6462249755859375,0.2573089599609375,Opening,0.0,0.0,1.0,0.0,0.0,0.0,0.0,0.0,
1.890988000000012,0.0,0.0,41151.0,0.0,0.0,0.0,0.0,0.25,0.860595615,0.01,0.0,38157.0,0.0,0.0,-0.0,0.0,0.25,0.404052693,0.01,0.0,-2103.0,0.0,0.0,0.0,0.0,0.125,3.3203121600000003,0.01,0.0,40696.0,0.0,0.0,-0.0,0.0,0.25,1.6552732680000002,0.01,0.0,0.3799999952316284,-1.2400000095367432,-0.019999999552965164,-0.022705078125,0.00714111328125,1.020751953125,35.08000183105469,0.0,0.0,1.6462249755859375,0.2573089599609375,Opening,0.0,0.0,1.0,0.0,0.0,0.0,0.0,0.0,
2.006709000000032,0.0,0.0,41151.0,0.0,0.0,0.0,0.0,0.25,0.860595615,0.01,0.0,38157.0,0.0,0.0,-0.0,0.0,0.25,0.404052693,0.01,0.0,-2103.0,0.0,0.0,0.0,0.0,0.125,3.3142086450000003,0.01,0.0,40696.0,0.0,0.0,-0.0,0.0,0.25,1.6564939710000002,0.01,0.0,0.3799999952316284,-1.2400000095367432,-0.019999999552965164,-0.025146484375,0.00518798828125,1.022216796875,35.08000183105469,0.0,-2.0,1.6462249755859375,0.2573089599609375,Opening,0.0,0.0,1.0,0.0,0.0,0.0,0.0,0.0,
2.1198159999999917,0.0,0.0,41151.0,0.0,0.0,0.0,0.0,0.25,0.860595615,0.01,0.0,38157.0,0.0,0.0,-0.0,0.0,0.25,0.404052693,0.01,0.0,-2103.0,0.0,0.0,0.0,0.0,0.0,3.3190914570000003,0.01,0.0,40696.0,0.125,0.0,-0.0,0.0,0.25,1.6540525650000002,0.01,0.0,0.3799999952316284,-1.2400000095367432,-0.019999999552965164,-0.0228271484375,0.00738525390625,1.01507568359375,35.08000183105469,0.0,0.0,1.6462249755859375,0.2573089599609375,Opening,0.0,0.0,1.0,0.0,0.0,0.0,0.0,0.0,
2.236076999999932,0.0,0.0,41151.0,0.0,0.0,0.0,0.0,0.25,0.860595615,0.01,0.0,38157.0,0.0,0.0,-0.0,0.0,0.25,0.404052693,0.01,0.0,-2103.0,0.0,0.0,0.0,0.0,0.0,3.3142086450000003,0.01,0.0,40696.0,0.125,0.0,-0.0,0.0,0.25,1.6552732680000002,0.01,0.0,0.3700000047683716,-1.2400000095367432,-0.019999999552965164,-0.02423095703125,0.003662109375,1.02728271484375,35.08000183105469,0.0,-1.0,1.6462249755859375,0.2573089599609375,Opening,0.0,0.0,1.0,0.0,0.0,0.0,0.0,0.0,
2.3618889999999664,0.0,0.0,41151.0,0.0,0.0,0.0,0.0,0.25,0.859374912,0.01,0.0,38157.0,0.0,0.0,-0.0,0.0,0.25,0.405273396,0.01,0.0,-2103.0,0.0,0.0,0.0,0.0,0.0,3.3142086450000003,0.01,0.0,40696.0,0.125,0.0,-0.0,0.0,0.25,1.6552732680000002,0.01,0.0,0.3700000047683716,-1.2400000095367432,-0.019999999552965164,-0.022705078125,0.00506591796875,1.01812744140625,35.08000183105469,0.0,0.0,1.6462249755859375,0.2573089599609375,Opening,0.0,0.0,1.0,0.0,0.0,0.0,0.0,0.0,
2.4733090000000084,0.0,0.0,41151.0,0.0,0.0,0.0,0.0,0.25,0.859374912,0.01,0.0,38157.0,0.0,0.0,-0.0,0.0,0.25,0.405273396,0.01,0.0,-2103.0,0.0,0.0,0.0,0.0,0.0,3.3154293480000003,0.01,0.0,40696.0,0.125,0.0,-0.0,0.0,0.25,1.6552732680000002,0.01,0.0,0.3700000047683716,-1.2400000095367432,-0.019999999552965164,-0.02191162109375,0.006591796875,1.02520751953125,35.08000183105469,0.0,0.0,1.6462249755859375,0.2573089599609375,Opening,0.0,0.0,1.0,0.0,0.0,0.0,0.0,0.0,
2.5936799999999347,0.0,0.0,41151.0,0.0,0.0,0.0,0.0,0.25,0.860595615,0.01,0.0,38157.0,0.0,0.0,-0.0,0.0,0.25,0.404052693,0.01,0.0,-2103.0,0.0,0.0,0.0,0.0,0.0,3.3142086450000003,0.01,0.0,40696.0,0.125,0.0,-0.0,0.0,0.25,1.6552732680000002,0.01,0.0,0.3700000047683716,-1.2400000095367432,-0.019999999552965164,-0.02008056640625,0.005615234375,1.02227783203125,35.04999923706055,0.0,2.0,1.6462249755859375,0.2573089599609375,Opening,0.0,0.0,1.0,0.0,0.0,0.0,0.0,0.0,
2.7114139999999898,0.0,0.0,41151.0,0.0,0.0,0.0,0.0,0.25,0.860595615,0.01,0.0,38157.0,0.0,0.0,-0.0,0.0,0.25,0.405273396,0.01,0.0,-2103.0,0.0,0.0,0.0,0.0,0.0,3.3142086450000003,0.01,0.0,40696.0,0.0,0.0,-0.0,0.0,0.25,1.6552732680000002,0.01,0.0,0.3700000047683716,-1.2400000095367432,-0.029999999329447746,-0.02227783203125,0.00482177734375,1.0164794921875,35.04999923706055,0.0,0.0,1.6462249755859375,0.2573089599609375,Opening,0.0,0.0,1.0,0.0,0.0,0.0,0.0,0.0,
2.834152999999933,0.0,0.0,41151.0,0.0,0.0,0.0,0.0,0.25,0.860595615,0.01,0.0,38157.0,0.0,0.0,-0.0,0.0,0.25,0.404052693,0.01,0.0,-2103.0,0.0,0.0,0.0,0.0,0.0,3.3203121600000003,0.01,0.0,40696.0,0.125,0.0,-0.0,0.0,0.25,1.6552732680000002,0.01,0.0,0.3700000047683716,-1.2400000095367432,-0.029999999329447746,-0.02069091796875,0.00543212890625,1.02392578125,35.04999923706055,0.0,1.0,1.6462249755859375,0.2573089599609375,Opening,0.0,0.0,1.0,0.0,0.0,0.0,0.0,0.0,
2.951750999999931,0.0,0.0,41151.0,0.0,0.0,0.0,0.0,0.25,0.859374912,0.01,0.0,38157.0,0.0,0.0,-0.0,0.0,0.25,0.404052693,0.01,0.0,-2103.0,0.0,0.0,0.0,0.0,0.0,3.3203121600000003,0.01,0.0,40696.0,0.125,0.0,-0.0,0.0,0.25,1.6552732680000002,0.01,0.0,0.3799999952316284,-1.2400000095367432,-0.029999999329447746,-0.0186767578125,0.00506591796875,1.021728515625,35.04999923706055,0.0,3.0,1.6462249755859375,0.2573089599609375,Opening,0.0,0.0,1.0,0.0,0.0,0.0,0.0,0.0,
3.0671940000000175,0.0,0.0,41151.0,0.0,0.0,0.0,0.0,0.25,0.859374912,0.01,0.0,38157.0,0.0,0.0,-0.0,0.0,0.25,0.405273396,0.01,0.0,-2103.0,0.0,0.0,0.0,0.0,0.0,3.3203121600000003,0.01,0.0,40696.0,0.0,0.0,-0.0,0.0,0.25,1.6589353770000002,0.01,0.0,0.3799999952316284,-1.2400000095367432,-0.029999999329447746,-0.0220947265625,0.00640869140625,1.01593017578125,35.04999923706055,0.0,0.0,1.6462249755859375,0.2573089599609375,Opening,0.0,0.0,1.0,0.0,0.0,0.0,0.0,0.0,
3.1863049999999347,0.0,0.0,41151.0,0.0,0.0,0.0,0.0,0.25,0.860595615,0.01,0.0,38157.0,0.0,0.0,-0.0,0.0,0.25,0.404052693,0.01,0.0,-2103.0,0.0,0.0,0.0,0.0,0.0,3.3142086450000003,0.01,0.0,40696.0,0.125,0.0,-0.0,0.0,0.25,1.6552732680000002,0.01,0.0,0.3700000047683716,-1.2300000190734863,-0.029999999329447746,-0.020263671875,0.0072021484375,1.01605224609375,35.060001373291016,0.0,1.0,1.6462249755859375,0.2573089599609375,Opening,0.0,0.0,1.0,0.0,0.0,0.0,0.0,0.0,
3.303180999999982,0.0,0.0,41151.0,0.0,0.0,0.0,0.0,0.25,0.860595615,0.01,0.0,38157.0,0.0,0.0,-0.0,0.0,0.25,0.405273396,0.01,0.0,-2103.0,0.0,0.0,0.0,0.0,0.0,3.3154293480000003,0.01,0.0,40696.0,0.125,0.0,-0.0,0.0,0.25,1.6552732680000002,0.01,0.0,0.3799999952316284,-1.2400000095367432,-0.029999999329447746,-0.02203369140625,0.00408935546875,1.01885986328125,35.060001373291016,0.0,0.0,1.6462249755859375,0.2573089599609375,Opening,0.0,0.0,1.0,0.0,0.0,0.0,0.0,0.0,
3.4127669999999926,0.0,0.0,41151.0,0.0,0.0,0.0,0.0,0.25,0.8544921000000001,0.01,0.0,38157.0,0.0,0.0,-0.0,0.0,0.25,0.404052693,0.01,0.0,-2103.0,0.0,0.0,0.0,0.0,0.0,3.3190914570000003,0.01,0.0,40696.0,0.125,0.0,-0.0,0.0,0.25,1.6552732680000002,0.01,0.0,0.3799999952316284,-1.2300000190734863,-0.029999999329447746,-0.0244140625,0.00433349609375,1.02044677734375,35.060001373291016,0.0,-2.0,1.6462249755859375,0.2573089599609375,Opening,0.0,0.0,1.0,0.0,0.0,0.0,0.0,0.0,
3.5338539999999337,0.0,0.0,41151.0,0.0,0.0,0.0,0.0,0.25,0.859374912,0.01,0.0,38157.0,0.0,0.0,-0.0,0.0,0.25,0.404052693,0.01,0.0,-2103.0,0.0,0.0,0.0,0.0,0.0,3.3203121600000003,0.01,0.0,40696.0,0.0,0.0,-0.0,0.0,0.25,1.6552732680000002,0.01,0.0,0.3799999952316284,-1.2300000190734863,-0.03999999910593033,-0.0216064453125,0.00457763671875,1.022216796875,35.060001373291016,0.0,0.0,1.6462249755859375,0.2573089599609375,Opening,0.0,0.0,1.0,0.0,0.0,0.0,0.0,0.0,
3.649810999999987,0.0,0.0,41151.0,0.0,0.0,0.0,0.0,0.25,0.8557128030000001,0.01,0.0,38157.0,0.0,0.0,-0.0,0.0,0.25,0.405273396,0.01,0.0,-2103.0,0.0,0.0,0.0,0.0,0.0,3.3203121600000003,0.01,0.0,40696.0,0.0,0.0,-0.0,0.0,0.25,1.6564939710000002,0.01,0.0,0.3799999952316284,-1.2300000190734863,-0.03999999910593033,-0.0218505859375,0.010009765625,1.02349853515625,35.119998931884766,0.0,0.0,1.6462249755859375,0.2573089599609375,Opening,0.0,0.0,1.0,0.0,0.0,0.0,0.0,0.0,
3.7678120000000344,0.0,0.0,41151.0,0.0,0.0,0.0,0.0,0.25,0.860595615,0.01,0.0,38157.0,0.0,0.0,-0.0,0.0,0.25,0.404052693,0.01,0.0,-2103.0,0.0,0.0,0.0,0.0,0.0,3.3142086450000003,0.01,0.0,40696.0,0.125,0.0,-0.0,0.0,0.25,1.6552732680000002,0.01,0.0,0.3799999952316284,-1.2300000190734863,-0.03999999910593033,-0.02288818359375,0.0059814453125,1.01690673828125,35.119998931884766,0.0,-1.0,1.6462249755859375,0.2573089599609375,Opening,0.0,0.0,1.0,0.0,0.0,0.0,0.0,0.0,
3.887692000000039,0.0,0.0,41151.0,0.0,0.0,0.0,0.0,0.25,0.859374912,0.01,0.0,38157.0,0.0,0.0,-0.0,0.0,0.25,0.40039058400000005,0.01,0.0,-2103.0,0.0,0.0,0.0,0.0,0.0,3.3190914570000003,0.01,0.0,40696.0,0.125,0.0,-0.0,0.0,0.25,1.6564939710000002,0.01,0.0,0.38999998569488525,-1.2200000286102295,-0.03999999910593033,-0.022705078125,0.0067138671875,1.025390625,35.119998931884766,0.0,0.0,1.6462249755859375,0.2573089599609375,Opening,0.0,0.0,1.0,0.0,0.0,0.0,0.0,0.0,
4.003991999999969,0.0,0.0,41151.0,0.0,0.0,0.0,0.0,0.25,0.859374912,0.01,0.0,38157.0,0.0,0.0,-0.0,0.0,0.25,0.405273396,0.01,0.0,-2103.0,0.0,0.0,0.0,0.0,0.0,3.3227535660000003,0.01,0.0,40696.0,0.0,0.0,-0.0,0.0,0.25,1.6564939710000002,0.01,0.0,0.3799999952316284,-1.2300000190734863,-0.05000000074505806,-0.02386474609375,0.005859375,1.01983642578125,35.119998931884766,0.0,-1.0,1.6462249755859375,0.2573089599609375,Opening,0.0,0.0,1.0,0.0,0.0,0.0,0.0,0.0,
4.126094999999972,0.0,0.0,41151.0,0.0,0.0,0.0,0.0,0.25,0.859374912,0.01,0.0,38157.0,0.0,0.0,-0.0,0.0,0.25,0.405273396,0.01,0.0,-2103.0,0.0,0.0,0.0,0.0,0.0,3.3142086450000003,0.01,0.0,40696.0,0.125,0.0,-0.0,0.0,0.25,1.6552732680000002,0.01,0.0,0.3799999952316284,-1.2300000190734863,-0.05000000074505806,-0.02264404296875,0.00616455078125,1.01959228515625,35.09000015258789,0.0,0.0,1.6462249755859375,0.2573089599609375,Closing,0.0,0.0,1.0,0.0,0.0,0.0,0.0,0.0,
4.246915000000037,0.0,0.0,41151.0,0.0,0.0,0.0,0.0,0.25,0.860595615,0.01,0.0,38157.0,0.0,0.0,-0.0,0.0,0.25,0.404052693,0.01,0.0,-2103.0,0.0,0.0,0.0,0.0,0.0,3.3203121600000003,0.01,0.0,40696.0,0.125,0.0,-0.0,0.0,0.25,1.6552732680000002,0.01,0.0,0.3799999952316284,-1.2300000190734863,-0.05000000074505806,-0.0244140625,0.009765625,1.02105712890625,35.09000015258789,0.0,-2.0,1.6462249755859375,0.2573089599609375,Closing,0.0,0.0,1.0,0.0,0.0,0.0,0.0,0.0,
4.365359999999986,0.0,0.0,41151.0,0.0,0.0,0.0,0.0,0.25,0.860595615,0.01,0.0,38157.0,0.0,0.0,-0.0,0.0,0.25,0.404052693,0.01,0.0,-2103.0,0.0,0.0,0.0,0.0,0.0,3.3154293480000003,0.01,0.0,40696.0,0.125,0.0,-0.0,0.0,0.25,1.6552732680000002,0.01,0.0,0.3799999952316284,-1.2300000190734863,-0.05000000074505806,-0.02508544921875,0.0029296875,1.01800537109375,35.09000015258789,0.0,-3.0,1.6462249755859375,0.2573089599609375,Closing,0.0,0.0,1.0,0.0,0.0,0.0,0.0,0.0,
4.485393999999971,0.0,0.0,41151.0,0.0,0.0,0.0,0.0,0.25,0.859374912,0.01,0.0,38157.0,0.0,0.0,-0.0,0.0,0.25,0.405273396,0.01,0.0,-2103.0,0.0,0.0,0.0,0.0,0.0,3.3154293480000003,0.01,0.0,40696.0,0.125,0.0,-0.0,0.0,0.25,1.6564939710000002,0.01,0.0,0.3799999952316284,-1.2300000190734863,-0.05000000074505806,-0.02337646484375,0.0072021484375,1.02264404296875,35.09000015258789,0.0,-1.0,1.6462249755859375,0.2573089599609375,Closing,0.0,0.0,1.0,0.0,0.0,0.0,0.0,0.0,
4.603917999999947,0.0,0.0,41151.0,0.0,0.0,0.0,0.0,0.25,0.859374912,0.01,0.0,38157.0,0.0,0.0,-0.0,0.0,0.25,0.404052693,0.01,0.0,-2103.0,0.0,0.0,0.0,0.0,0.0,3.3203121600000003,0.01,0.0,40696.0,0.125,0.0,-0.0,0.0,0.25,1.6540525650000002,0.01,0.0,0.3799999952316284,-1.2300000190734863,-0.05000000074505806,-0.02032470703125,0.00689697265625,1.02252197265625,35.09000015258789,0.0,1.0,1.6462249755859375,0.2573089599609375,Opening,0.0,0.0,1.0,0.0,0.0,0.0,0.0,0.0,
4.711689000000013,0.0,0.0,41151.0,0.0,0.0,0.0,0.0,0.25,0.860595615,0.01,0.0,38157.0,0.0,0.0,-0.0,0.0,0.25,0.405273396,0.01,0.0,-2103.0,0.0,0.0,0.0,0.0,0.125,3.3154293480000003,0.01,0.0,40696.0,0.125,0.0,-0.0,0.0,0.25,1.6552732680000002,0.01,0.0,0.3799999952316284,-1.2300000190734863,-0.05000000074505806,-0.02227783203125,0.01239013671875,1.02032470703125,35.08000183105469,0.0,0.0,1.6462249755859375,0.2573089599609375,Opening,0.0,0.0,1.0,0.0,0.0,0.0,0.0,0.0,
4.828309000000008,0.0,0.0,41151.0,0.0,0.0,0.0,0.0,0.25,0.860595615,0.01,0.0,38157.0,0.0,0.0,-0.0,0.0,0.25,0.405273396,0.01,0.0,-2103.0,0.0,0.0,0.0,0.0,0.0,3.3227535660000003,0.01,0.0,40696.0,0.0,0.0,-0.0,0.0,0.25,1.6552732680000002,0.01,0.0,0.3799999952316284,-1.2300000190734863,-0.05000000074505806,-0.020263671875,0.0069580078125,1.02392578125,35.08000183105469,0.0,1.0,1.6462249755859375,0.2573089599609375,Opening,0.0,0.0,1.0,0.0,0.0,0.0,0.0,0.0,
4.948527999999933,0.0,0.0,41151.0,0.0,0.0,0.0,0.0,0.25,0.860595615,0.01,0.0,38157.0,0.0,0.0,-0.0,0.0,0.25,0.404052693,0.01,0.0,-2103.0,0.0,0.0,0.0,0.0,0.0,3.3190914570000003,0.01,0.0,40696.0,0.0,0.0,-0.0,0.0,0.25,1.6540525650000002,0.01,0.0,0.3799999952316284,-1.2300000190734863,-0.05000000074505806,-0.0225830078125,0.00689697265625,1.0177001953125,35.08000183105469,0.0,0.0,1.6462249755859375,0.2573089599609375,Opening,0.0,0.0,1.0,0.0,0.0,0.0,0.0,0.0,
5.065672000000021,0.0,0.0,41151.0,0.0,0.0,0.0,0.0,0.25,0.859374912,0.01,0.0,38157.0,0.0,0.0,-0.0,0.0,0.25,0.404052693,0.01,0.0,-2103.0,0.0,0.0,0.0,0.0,0.0,3.3203121600000003,0.01,0.0,40696.0,0.125,0.0,-0.0,0.0,0.25,1.6552732680000002,0.01,0.0,0.3799999952316284,-1.2300000190734863,-0.05000000074505806,-0.02252197265625,0.00897216796875,1.01885986328125,35.08000183105469,0.0,0.0,1.6462249755859375,0.2573089599609375,Opening,0.0,0.0,1.0,0.0,0.0,0.0,0.0,0.0,
5.181040000000038,0.0,0.0,41151.0,0.0,0.0,0.0,0.0,0.25,0.8312987430000001,0.01,0.0,38157.0,0.0,0.0,-0.0,0.0,0.25,0.406494099,0.01,0.0,-2103.0,0.0,0.0,0.0,0.0,0.0,3.3154293480000003,0.01,0.0,40696.0,0.125,0.0,-0.0,0.0,0.25,1.6552732680000002,0.01,0.0,0.33000001311302185,-1.2599999904632568,-0.05000000074505806,0.04425048828125,0.07769775390625,1.03179931640625,35.08000183105469,0.0,66.0,1.6462554931640625,0.257232666015625,Opening,0.0,0.0,1.0,0.0,0.0,0.0,0.0,0.0,
5.302869999999995,0.0,0.0,41151.0,0.0,0.0,0.0,0.0,0.25,0.860595615,0.01,0.0,38157.0,0.0,0.0,-0.0,0.0,0.25,0.404052693,0.01,0.0,-2103.0,0.0,0.0,0.0,0.0,0.0,3.3203121600000003,0.01,0.0,40696.0,0.125,0.0,-0.0,0.0,0.25,1.6564939710000002,0.01,0.0,0.3499999940395355,-1.2300000190734863,-0.05000000074505806,-0.005859375,0.0181884765625,1.0164794921875,35.08000183105469,0.0,16.0,1.6464080810546875,0.2570343017578125,Opening,0.0,0.0,1.0,0.0,0.0,0.0,0.0,0.0,
5.420168999999994,0.0,0.0,41151.0,0.0,0.0,0.0,0.0,0.25,0.859374912,0.01,0.0,38157.0,0.0,0.0,-0.0,0.0,0.25,0.405273396,0.01,0.0,-2103.0,0.0,0.0,0.0,0.0,0.0,3.3190914570000003,0.01,0.0,40696.0,0.0,0.0,-0.0,0.0,0.25,1.6577146740000002,0.01,0.0,0.3499999940395355,-1.2200000286102295,-0.05000000074505806,-0.01611328125,0.00482177734375,0.9930419921875,35.08000183105469,0.0,5.0,1.646270751953125,0.2570037841796875,Opening,0.0,0.0,1.0,0.0,0.0,0.0,0.0,0.0,
5.548626999999978,0.0,0.0,41151.0,0.0,0.0,0.0,0.0,0.25,0.860595615,0.01,0.0,38157.0,0.0,0.0,-0.0,0.0,0.25,0.404052693,0.01,0.0,-2103.0,0.0,0.0,0.0,0.0,0.0,3.3203121600000003,0.01,0.0,40696.0,0.125,0.0,-0.0,0.0,0.25,1.6552732680000002,0.01,0.0,0.3499999940395355,-1.2200000286102295,-0.05999999865889549,-0.00927734375,0.01495361328125,1.0020751953125,35.08000183105469,0.0,12.0,1.646270751953125,0.2568511962890625,Opening,0.0,0.0,1.0,0.0,0.0,0.0,0.0,0.0,
5.675344000000041,0.0,0.0,41151.0,0.0,0.0,0.0,0.0,0.25,0.860595615,0.01,0.0,38157.0,0.0,0.0,-0.0,0.0,0.25,0.40161128700000004,0.01,0.0,-2103.0,0.0,0.0,0.0,0.0,0.0,3.3203121600000003,0.01,0.0,40696.0,0.125,0.0,-0.0,0.0,0.25,1.6552732680000002,0.01,0.0,0.36000001430511475,-1.2200000286102295,-0.05999999865889549,-0.0250244140625,0.01165771484375,1.022705078125,35.099998474121094,0.0,-3.0,1.646270751953125,0.2568359375,Opening,0.0,0.0,1.0,0.0,0.0,0.0,0.0,0.0,
5.806640999999945,0.0,0.0,41151.0,0.0,0.0,0.0,0.0,0.25,0.860595615,0.01,0.0,38157.0,0.0,0.0,-0.0,0.0,0.25,0.405273396,0.01,0.0,-2103.0,0.0,0.0,0.0,0.0,0.0,3.3105465360000004,0.01,0.0,40696.0,0.125,0.0,-0.0,0.0,0.25,1.6577146740000002,0.01,0.0,0.36000001430511475,-1.2200000286102295,-0.05000000074505806,-0.023681640625,0.01409912109375,1.0341796875,35.099998474121094,0.0,-1.0,1.646270751953125,0.2568359375,Opening,0.0,0.0,1.0,0.0,0.0,0.0,0.0,0.0,
5.929922999999952,0.0,0.0,41151.0,0.0,0.0,0.0,0.0,0.125,0.859374912,0.01,0.0,38157.0,0.0,0.0,-0.0,0.0,0.0,0.405273396,0.01,0.0,-2103.0,0.0,0.0,0.0,0.0,0.0,3.3203121600000003,0.01,0.0,40696.0,0.125,0.0,-0.0,0.0,0.125,1.6540525650000002,0.01,0.0,0.36000001430511475,-1.2200000286102295,-0.05000000074505806,-0.02020263671875,0.0089111328125,1.01422119140625,35.099998474121094,0.0,1.0,1.646270751953125,0.2568359375,Opening,0.0,0.0,1.0,0.0,0.0,0.0,0.0,0.0,
