Time,ClimberA1,ClimberA2,FRpos,FRCurrent,FRspeed,FRsetpoint,FRApos,FRACurrent,FREncpos,FREncSetpoint,FREncSpeed,FLpos,FLCurrent,FLspeed,FLsetpoint,FLApos,FLACurrent,FLEncpos,FLEncSetpoint,FLEncSpeed,BRpos,BRCurrent,BRspeed,BRsetpoint,BRApos,BRACurrent,BREncpos,BREncSetpoint,BREncSpeed,BLpos,BLCurrent,BLspeed,BLsetpoint,BLApos,BLACurrent,BLEncpos,BLEncSetpoint,BLEncSpeed,navx_Pitch,navx_Roll,navx_Yaw,navx_XAcc,navx_YAcc,navx_ZAcc,navx_Temp,navx_Bar,navx_Alt,navx_XDis,navx_YDis,GearPlacerState,ShootOutputV,ShootOutputCurrent,ShootEncPos,ShootEncVelocity,ShootSpeed,ShootSetpoint,CarouselSetpoint,CarouselCurrent,
0.20846099999989384,0.0,0.0,0.0,0.0,0.0,0.0,0.0,0.125,0.784912029,0.01,0.0,0.0,0.0,0.0,-0.0,0.0,0.0,0.405273396,0.01,0.0,0.0,0.0,0.0,0.0,0.0,0.0,3.236083653,0.01,0.0,0.0,0.0,0.0,-0.0,0.0,0.125,1.5808103850000002,0.01,0.0,0.07000000029802322,-0.27000001072883606,0.0,-0.00537109375,0.0023193359375,1.02593994140625,32.15999984741211,0.0,0.0,-0.8404693603515625,1.07757568359375,Waiting,0.0,0.0,-61784.0,0.0,0.0,0.0,0.0,0.0,
0.3440360000000801,0.0,0.0,0.0,0.0,0.0,0.0,0.0,0.125,0.784912029,0.01,0.0,0.0,0.0,0.0,-0.0,0.0,0.0,0.404052693,0.01,0.0,0.0,0.0,0.0,0.0,0.0,0.0,3.232421544,0.01,0.0,0.0,0.0,0.0,-0.0,0.0,0.125,1.5808103850000002,0.01,0.0,0.07000000029802322,-0.2800000011920929,0.0,-0.00494384765625,0.00146484375,1.025146484375,32.15999984741211,0.0,0.0,-0.8404693603515625,1.07757568359375,Waiting,0.0,0.0,-61784.0,0.0,0.0,0.0,0.0,0.0,
0.4402290000000503,0.0,0.0,0.0,0.0,0.0,0.0,0.0,0.125,0.782470623,0.01,0.0,0.0,0.0,0.0,-0.0,0.0,0.0,0.404052693,0.01,0.0,0.0,0.0,0.0,0.0,0.0,0.0,3.23486295,0.01,0.0,0.0,0.0,0.0,-0.0,0.0,0.125,1.5808103850000002,0.01,0.0,0.07000000029802322,-0.27000001072883606,0.0,-0.00445556640625,1.220703125E-4,1.02093505859375,32.15999984741211,0.0,0.0,-0.8404693603515625,1.07757568359375,Waiting,0.0,0.0,-61784.0,0.0,0.0,0.0,0.0,0.0,
0.5348159999998752,0.0,0.0,0.0,0.0,0.0,0.0,0.0,0.125,0.783691326,0.01,0.0,0.0,0.0,0.0,-0.0,0.0,0.0,0.404052693,0.01,0.0,0.0,0.0,0.0,0.0,0.0,0.0,3.237304356,0.01,0.0,0.0,0.0,0.0,-0.0,0.0,0.125,1.5808103850000002,0.01,0.0,0.07999999821186066,-0.2800000011920929,0.0,-0.004150390625,-0.00103759765625,1.01971435546875,32.15999984741211,0.0,0.0,-0.8404693603515625,1.07757568359375,Waiting,0.0,0.0,-61784.0,0.0,0.0,0.0,0.0,0.0,
0.6317409999999217,0.0,0.0,0.0,0.0,0.0,0.0,0.0,0.125,0.7885741380000001,0.01,0.0,0.0,0.0,0.0,-0.0,0.0,0.0,0.404052693,0.01,0.0,0.0,0.0,0.0,0.0,0.0,0.0,3.236083653,0.01,0.0,0.0,0.0,0.0,-0.0,0.0,0.125,1.5820310880000001,0.01,0.0,0.07999999821186066,-0.2800000011920929,0.0,-0.00531005859375,0.0025634765625,1.02117919921875,32.15999984741211,0.0,0.0,-0.8404693603515625,1.07757568359375,Waiting,0.0,0.0,-61784.0,0.0,0.0,0.0,0.0,0.0,
0.730685999999987,0.0,0.0,0.0,0.0,0.0,0.0,0.0,0.125,0.784912029,0.01,0.0,0.0,0.0,0.0,-0.0,0.0,0.0,0.405273396,0.01,0.0,0.0,0.0,0.0,0.0,0.0,0.0,3.231200841,0.01,0.0,0.0,0.0,0.0,-0.0,0.0,0.125,1.5808103850000002,0.01,0.0,0.07000000029802322,-0.27000001072883606,0.0,-0.00396728515625,0.00201416015625,1.023193359375,32.15999984741211,0.0,0.0,-0.8404693603515625,1.07757568359375,Waiting,0.0,0.0,-61784.0,0.0,0.0,0.0,0.0,0.0,
0.8303059999998659,0.0,0.0,0.0,0.0,0.0,0.0,0.0,0.125,0.783691326,0.01,0.0,0.0,0.0,0.0,-0.0,0.0,0.0,0.405273396,0.01,0.0,0.0,0.0,0.0,0.0,0.0,0.0,3.237304356,0.01,0.0,0.0,0.0,0.0,-0.0,0.0,0.125,1.5808103850000002,0.01,0.0,0.07999999821186066,-0.27000001072883606,0.0,-0.03515625,-0.00469970703125,0.97662353515625,32.15999984741211,0.0,-30.0,-0.840484619140625,1.07757568359375,Waiting,-7.7,54.125,-61793.0,-3.0,-30.0,-2400.0,0.0,0.0,
0.933222000000067,0.0,0.0,0.0,0.0,0.0,0.0,0.0,0.125,0.783691326,0.01,0.0,0.0,0.0,0.0,-0.0,0.0,0.0,0.405273396,0.01,0.0,0.0,0.0,0.0,0.0,0.0,0.0,3.236083653,0.01,0.0,0.0,0.0,0.0,-0.0,0.0,0.125,1.5808103850000002,0.01,0.0,0.10000000149011612,-0.25999999046325684,0.0,0.00640869140625,-0.0250244140625,1.07916259765625,32.15999984741211,0.0,11.0,-0.8404388427734375,1.0776824951171875,Waiting,-7.7,49.375,-61793.0,-3.0,-262.5,-2400.0,0.0,0.0,
1.0348319999999367,0.0,0.0,0.0,0.0,0.0,0.0,0.0,0.125,0.783691326,0.01,0.0,0.0,0.0,0.0,-0.0,0.0,0.0,0.405273396,0.01,0.0,0.0,0.0,0.0,0.0,0.0,0.0,3.237304356,0.01,0.0,0.0,0.0,0.0,-0.0,0.0,0.125,1.5808103850000002,0.01,0.0,0.10000000149011612,-0.25999999046325684,0.0,0.014404296875,-0.00909423828125,0.982177734375,32.150001525878906,0.0,18.0,-0.8402252197265625,1.0774688720703125,Waiting,-7.800000000000001,46.875,-61849.0,-39.0,-525.0,-2400.0,0.0,0.0,
1.1349920000000857,0.0,0.0,0.0,0.0,0.0,0.0,0.0,0.125,0.784912029,0.01,0.0,0.0,0.0,0.0,-0.0,0.0,0.0,0.404052693,0.01,0.0,0.0,0.0,0.0,0.0,0.0,0.0,3.236083653,0.01,0.0,0.0,0.0,0.0,-0.0,0.0,0.125,1.5808103850000002,0.01,0.0,0.09000000357627869,-0.25999999046325684,0.0,2.44140625E-4,-0.01202392578125,1.0682373046875,32.150001525878906,0.0,5.0,-0.839508056640625,1.0774383544921875,Waiting,-7.9,44.5,-61950.0,-78.0,-757.5,-2400.0,0.0,0.0,
1.2364129999999423,0.0,0.0,0.0,0.0,0.0,0.0,0.0,0.125,0.784912029,0.01,0.0,0.0,0.0,0.0,-0.0,0.0,0.0,0.404052693,0.01,0.0,0.0,0.0,0.0,0.0,0.0,0.0,3.231200841,0.01,0.0,0.0,0.0,0.0,-0.0,0.0,0.125,1.5820310880000001,0.01,0.0,0.05000000074505806,-0.28999999165534973,0.0,0.0291748046875,0.038818359375,1.05035400390625,32.150001525878906,0.0,34.0,-0.838531494140625,1.077056884765625,Waiting,-8.100000000000001,42.5,-62092.0,-112.0,-930.0,-2400.0,0.0,0.0,
1.3366110000000335,0.0,0.0,0.0,0.0,0.0,0.0,0.0,0.125,0.783691326,0.01,0.0,0.0,0.0,0.0,-0.0,0.0,0.0,0.405273396,0.01,0.0,0.0,0.0,0.0,0.0,0.0,0.0,3.236083653,0.01,0.0,0.0,0.0,0.0,-0.0,0.0,0.125,1.5808103850000002,0.01,0.0,0.05000000074505806,-0.27000001072883606,0.0,0.03753662109375,0.0751953125,1.0794677734375,32.150001525878906,0.0,42.0,-0.837860107421875,1.0769195556640625,Waiting,-8.3,40.125,-62271.0,-143.0,-1132.5,-2400.0,0.0,0.0,
1.4357360000000334,0.0,0.0,0.0,0.0,0.0,0.0,0.0,0.125,0.784912029,0.01,0.0,0.0,0.0,0.0,-0.0,0.0,0.0,0.40283199000000003,0.01,0.0,0.0,0.0,0.0,0.0,0.0,0.0,3.237304356,0.01,0.0,0.0,0.0,0.0,-0.0,0.0,0.125,1.5808103850000002,0.01,0.0,0.07000000029802322,-0.28999999165534973,0.0,-0.02484130859375,0.06341552734375,1.09417724609375,32.150001525878906,0.0,-19.0,-0.8375091552734375,1.0774383544921875,Waiting,-8.45,38.125,-62483.0,-171.0,-1312.5,-2400.0,0.0,0.0,
1.5397229999999982,0.0,0.0,0.0,0.0,0.0,0.0,0.0,0.125,0.783691326,0.01,0.0,0.0,0.0,0.0,-0.0,0.0,0.0,0.405273396,0.01,0.0,0.0,0.0,0.0,0.0,0.0,0.0,3.231200841,0.01,0.0,0.0,0.0,0.0,-0.0,0.0,0.125,1.5808103850000002,0.01,0.0,0.029999999329447746,-0.2800000011920929,0.0,0.03936767578125,-0.00921630859375,1.00146484375,32.16999816894531,0.0,44.0,-0.8363494873046875,1.0768585205078125,Waiting,-8.55,36.5,-62724.0,-196.0,-1470.0,-2400.0,0.0,0.0,
1.6474560000000056,0.0,0.0,0.0,0.0,0.0,0.0,0.0,0.125,0.783691326,0.01,0.0,0.0,0.0,0.0,-0.0,0.0,0.0,0.40161128700000004,0.01,0.0,0.0,0.0,0.0,0.0,0.0,0.0,3.237304356,0.01,0.0,0.0,0.0,0.0,-0.0,0.0,0.125,1.5808103850000002,0.01,0.0,0.07000000029802322,-0.27000001072883606,0.0,-0.0577392578125,-0.00518798828125,0.90496826171875,32.16999816894531,0.0,-53.0,-0.8345184326171875,1.0765380859375,Waiting,-8.55,34.875,-62724.0,-196.0,-1620.0,-2400.0,0.0,0.0,
1.7501959999999963,0.0,0.0,0.0,0.0,0.0,0.0,0.0,0.125,0.783691326,0.01,0.0,0.0,0.0,0.0,-0.0,0.0,0.0,0.404052693,0.01,0.0,0.0,0.0,0.0,0.0,0.0,0.0,3.236083653,0.01,0.0,0.0,0.0,0.0,-0.0,0.0,0.125,1.5808103850000002,0.01,0.0,0.05999999865889549,-0.27000001072883606,0.0,0.04718017578125,-0.06671142578125,1.21759033203125,32.16999816894531,0.0,52.0,-0.8360137939453125,1.0767059326171875,Waiting,-8.65,33.875,-62991.0,-219.0,-1755.0,-2400.0,0.0,0.0,
1.8493300000000745,0.0,0.0,0.0,0.0,0.0,0.0,0.0,0.125,0.784912029,0.01,0.0,0.0,0.0,0.0,-0.0,0.0,0.0,0.405273396,0.01,0.0,0.0,0.0,0.0,0.0,0.0,0.0,3.236083653,0.01,0.0,0.0,0.0,0.0,-0.0,0.0,0.125,1.5808103850000002,0.01,0.0,0.019999999552965164,-0.33000001311302185,0.0,-0.115478515625,0.00396728515625,0.62274169921875,32.16999816894531,0.0,-111.0,-0.837982177734375,1.07452392578125,Waiting,-8.75,32.25,-63282.0,-238.0,-1890.0,-2400.0,0.0,0.0,
1.974685999999987,0.0,0.0,0.0,0.0,0.0,0.0,0.0,0.125,0.783691326,0.01,0.0,0.0,0.0,0.0,-0.0,0.0,0.0,0.405273396,0.01,0.0,0.0,0.0,0.0,0.0,0.0,0.0,3.236083653,0.01,0.0,0.0,0.0,0.0,-0.0,0.0,0.125,1.57470687,0.01,0.0,-0.009999999776482582,-0.3499999940395355,0.0,-0.16802978515625,-0.05419921875,0.4359130859375,32.16999816894531,0.0,-165.0,-0.8414764404296875,1.073638916015625,Waiting,-8.850000000000001,31.375,-63593.0,-256.0,-1980.0,-2400.0,0.0,0.0,
2.0726739999998824,0.0,0.0,0.0,0.0,0.0,0.0,0.0,0.125,0.783691326,0.01,0.0,0.0,0.0,0.0,-0.0,0.0,0.0,0.405273396,0.01,0.0,0.0,0.0,0.0,0.0,0.0,0.0,3.236083653,0.01,0.0,0.0,0.0,0.0,-0.0,0.0,0.125,1.5759275730000002,0.01,0.0,-0.07000000029802322,-0.3700000047683716,0.0,-0.05792236328125,-0.21136474609375,1.04473876953125,32.189998626708984,0.0,-51.0,-0.8468780517578125,1.0720062255859375,Waiting,-8.9,30.5,-63924.0,-272.0,-2085.0,-2400.0,0.0,0.0,
2.1746999999999534,0.0,0.0,0.0,0.0,0.0,0.0,0.0,0.125,0.783691326,0.01,0.0,0.0,0.0,0.0,-0.0,0.0,0.0,0.404052693,0.01,0.0,0.0,0.0,0.0,0.0,0.0,0.0,3.236083653,0.01,0.0,0.0,0.0,0.0,-0.0,0.0,0.125,1.5759275730000002,0.01,0.0,-0.09000000357627869,-0.3499999940395355,0.0,-0.12518310546875,-0.09063720703125,0.59722900390625,32.189998626708984,0.0,-121.0,-0.8529815673828125,1.0699462890625,Waiting,-9.0,29.625,-64272.0,-287.0,-2182.5,-2400.0,0.0,0.0,
2.2802060000000055,0.0,0.0,0.0,0.0,0.0,0.0,0.0,0.125,0.783691326,0.01,0.0,0.0,0.0,0.0,-0.0,0.0,0.0,0.405273396,0.01,0.0,0.0,0.0,0.0,0.0,0.0,0.0,3.236083653,0.01,0.0,0.0,0.0,0.0,-0.0,0.0,0.125,1.5759275730000002,0.01,0.0,-0.03999999910593033,-0.3499999940395355,0.0,-0.08367919921875,-0.03509521484375,1.2362060546875,32.189998626708984,0.0,-75.0,-0.85986328125,1.06982421875,Waiting,-9.05,29.0,-64636.0,-300.0,-2265.0,-2400.0,0.0,0.0,
2.390528999999864,0.0,0.0,0.0,0.0,0.0,0.0,0.0,0.125,0.8007811680000001,0.01,0.0,0.0,0.0,0.0,-0.0,0.0,0.0,0.404052693,0.01,0.0,0.0,0.0,0.0,0.0,0.0,0.0,3.236083653,0.01,0.0,0.0,0.0,0.0,-0.0,0.0,0.125,1.5759275730000002,0.01,0.0,-0.019999999552965164,-0.36000001430511475,0.0,0.095703125,9.1552734375E-4,1.21331787109375,32.189998626708984,0.0,103.0,-0.865997314453125,1.0687713623046875,Waiting,-9.100000000000001,28.125,-65020.0,-312.0,-2340.0,-2400.0,0.0,0.0,
2.488648000000045,0.0,0.0,0.0,0.0,0.0,0.0,0.0,0.125,0.784912029,0.01,0.0,0.0,0.0,0.0,-0.0,0.0,0.0,0.404052693,0.01,0.0,0.0,0.0,0.0,0.0,0.0,0.0,3.237304356,0.01,0.0,0.0,0.0,0.0,-0.0,0.0,0.125,1.5808103850000002,0.01,0.0,-0.029999999329447746,-0.33000001311302185,0.0,-0.1973876953125,0.00958251953125,0.87451171875,32.189998626708984,0.0,-192.0,-0.87060546875,1.0667572021484375,Waiting,-9.100000000000001,27.375,-65020.0,-312.0,-2415.0,-2400.0,0.0,0.0,
2.58669299999997,0.0,0.0,0.0,0.0,0.0,0.0,0.0,0.125,0.783691326,0.01,0.0,0.0,0.0,0.0,-0.0,0.0,0.0,0.404052693,0.01,0.0,0.0,0.0,0.0,0.0,0.0,0.0,3.232421544,0.01,0.0,0.0,0.0,0.0,-0.0,0.0,0.125,1.5808103850000002,0.01,0.0,-0.05000000074505806,-0.3100000023841858,0.0,-0.3226318359375,0.158935546875,0.435546875,32.13999938964844,0.0,-320.0,-0.87481689453125,1.0645904541015625,Waiting,-9.15,27.0,-65404.0,-323.0,-2467.5,-2400.0,0.0,0.0,
2.680933999999892,0.0,0.0,0.0,0.0,0.0,0.0,0.0,0.125,0.784912029,0.01,0.0,0.0,0.0,0.0,-0.0,0.0,0.0,0.405273396,0.01,0.0,0.0,0.0,0.0,0.0,0.0,0.0,3.237304356,0.01,0.0,0.0,0.0,0.0,-0.0,0.0,0.125,1.5820310880000001,0.01,0.0,0.0,-0.3799999952316284,0.0,0.277099609375,-0.0267333984375,1.38775634765625,32.13999938964844,0.0,286.0,-0.878936767578125,1.0646514892578125,Waiting,-9.2,26.5,-65806.0,-333.0,-2527.5,-2400.0,0.0,0.0,
2.7772290000000504,0.0,0.0,0.0,0.0,0.0,0.0,0.0,0.125,0.784912029,0.01,0.0,0.0,0.0,0.0,-0.0,0.0,0.0,0.404052693,0.01,0.0,0.0,0.0,0.0,0.0,0.0,0.0,3.236083653,0.01,0.0,0.0,0.0,0.0,-0.0,0.0,0.125,1.5808103850000002,0.01,0.0,0.019999999552965164,-0.20999999344348907,0.0,-0.2454833984375,0.0723876953125,0.739013671875,32.13999938964844,0.0,-242.0,-0.8827972412109375,1.0648345947265625,Waiting,-9.2,26.0,-66217.0,-341.0,-2572.5,-2400.0,0.0,0.0,
2.8723559999999124,0.0,0.0,0.0,0.0,0.0,0.0,0.0,0.125,0.783691326,0.01,0.0,0.0,0.0,0.0,-0.0,0.0,0.0,0.404052693,0.01,0.0,0.0,0.0,0.0,0.0,0.0,0.0,3.237304356,0.01,0.0,0.0,0.0,0.0,-0.0,0.0,0.125,1.5808103850000002,0.01,0.0,0.12999999523162842,-0.1599999964237213,0.0,-0.39410400390625,0.13592529296875,0.830810546875,32.13999938964844,0.0,-391.0,-0.88494873046875,1.065032958984375,Waiting,-9.25,25.5,-66639.0,-350.0,-2625.0,-2400.0,0.0,0.0,
2.970929000000004,0.0,0.0,0.0,0.0,0.0,0.0,0.0,0.125,0.783691326,0.01,0.0,0.0,0.0,0.0,-0.0,0.0,0.0,0.404052693,0.01,0.0,0.0,0.0,0.0,0.0,0.0,0.0,3.237304356,0.01,0.0,0.0,0.0,0.0,-0.0,0.0,0.125,1.5820310880000001,0.01,-0.0012207029999995456,0.10999999940395355,-0.1599999964237213,0.0,0.1812744140625,-0.1351318359375,0.9986572265625,32.13999938964844,0.0,184.0,-0.887237548828125,1.0656280517578125,Waiting,-9.25,25.25,-66639.0,-350.0,-2662.5,-2400.0,0.0,0.0,
3.0640069999999833,0.0,0.0,0.0,0.0,0.0,0.0,0.0,0.125,0.7788085140000001,0.01,0.0,0.0,0.0,0.0,-0.0,0.0,0.0,0.404052693,0.01,0.0,0.0,0.0,0.0,0.0,0.0,0.0,3.236083653,0.01,0.0,0.0,0.0,0.0,-0.0,0.0,0.125,1.5808103850000002,0.01,0.0,0.11999999731779099,-0.20999999344348907,0.0,0.331787109375,-0.2315673828125,1.2259521484375,32.18000030517578,0.0,336.0,-0.8890380859375,1.0659637451171875,Waiting,-9.3,24.75,-67070.0,-357.0,-2707.5,-2400.0,0.0,0.0,
3.1543580000000073,0.0,0.0,0.0,0.0,0.0,0.0,0.0,0.125,0.784912029,0.01,0.0,0.0,0.0,0.0,-0.0,0.0,0.0,0.404052693,0.01,0.0,0.0,0.0,0.0,0.0,0.0,0.0,3.236083653,0.01,0.0,0.0,0.0,0.0,-0.0,0.0,0.125,1.5808103850000002,0.01,0.0,0.17000000178813934,-0.20999999344348907,0.0,0.1639404296875,-0.05120849609375,1.06304931640625,32.18000030517578,0.0,167.0,-0.8912353515625,1.06805419921875,Waiting,-9.3,24.25,-67507.0,-363.0,-2745.0,-2400.0,0.0,0.0,
3.254793999999994,0.0,0.0,0.0,0.0,0.0,0.0,0.0,0.125,0.783691326,0.01,0.0,0.0,0.0,0.0,-0.0,0.0,0.0,0.404052693,0.01,0.0,0.0,0.0,0.0,0.0,0.0,0.0,3.237304356,0.01,0.0,0.0,0.0,0.0,-0.0,0.0,0.125,1.5808103850000002,0.01,0.0,0.14000000059604645,-0.20999999344348907,0.0,0.292724609375,-0.31121826171875,1.140380859375,32.18000030517578,0.0,296.0,-0.892730712890625,1.0694427490234375,Waiting,-9.01407624633431,23.0,-67952.0,-369.0,-2775.0,-2400.0,0.0,0.0,
3.350311999999918,0.0,0.0,0.0,0.0,0.0,0.0,0.0,0.125,0.784912029,0.01,0.0,0.0,0.0,0.0,-0.0,0.0,0.0,0.404052693,0.01,0.0,0.0,0.0,0.0,0.0,0.0,0.0,3.236083653,0.01,0.0,0.0,0.0,0.0,-0.0,0.0,0.125,1.5808103850000002,0.01,0.0,0.14000000059604645,-0.20000000298023224,0.0,-0.01708984375,0.001220703125,1.07220458984375,32.18000030517578,0.0,-13.0,-0.895050048828125,1.07000732421875,Waiting,-8.723460410557188,18.25,-68401.0,-374.0,-2805.0,-2400.0,0.0,0.0,
3.4495570000000297,0.0,0.0,0.0,0.0,0.0,0.0,0.0,0.125,0.784912029,0.01,0.0,0.0,0.0,0.0,-0.0,0.0,0.0,0.404052693,0.01,0.0,0.0,0.0,0.0,0.0,0.0,0.0,3.231200841,0.01,0.0,0.0,0.0,0.0,-0.0,0.0,0.125,1.5820310880000001,0.01,0.0,0.18000000715255737,-0.23000000417232513,-0.009999999776482582,0.02264404296875,-0.13360595703125,1.1484375,32.18000030517578,0.0,27.0,-0.8979034423828125,1.07080078125,Waiting,-8.05909090909091,14.375,-68401.0,-374.0,-2812.5,-2400.0,0.0,0.0,
3.5478859999999406,0.0,0.0,0.0,0.0,0.0,0.0,0.0,0.125,0.7629393750000001,0.01,0.0,0.0,0.0,0.0,-0.0,0.0,0.0,0.404052693,0.01,0.0,0.0,0.0,0.0,0.0,0.0,0.0,3.237304356,0.01,0.0,0.0,0.0,0.0,-0.0,0.0,0.125,1.5808103850000002,0.01,0.0,0.1599999964237213,-0.28999999165534973,-0.009999999776482582,0.4058837890625,-0.0992431640625,1.4495849609375,32.18000030517578,0.0,413.0,-0.90167236328125,1.069854736328125,Waiting,-7.996480938416422,12.375,-68852.0,-375.0,-2805.0,-2400.0,0.0,0.0,
3.6477590000000784,0.0,0.0,0.0,0.0,0.0,0.0,0.0,0.125,0.7885741380000001,0.01,0.0,0.0,0.0,0.0,-0.0,0.0,0.0,0.404052693,0.01,0.0,0.0,0.0,0.0,0.0,0.0,0.0,3.236083653,0.01,0.0,0.0,0.0,0.0,-0.0,0.0,0.125,1.5808103850000002,0.01,0.0,0.14000000059604645,-0.25999999046325684,-0.009999999776482582,0.22723388671875,-0.17364501953125,1.1878662109375,32.18000030517578,0.0,232.0,-0.9052734375,1.069488525390625,Waiting,-7.954056695992181,11.625,-69299.0,-373.0,-2790.0,-2400.0,0.0,0.0,
3.7445130000000355,0.0,0.0,0.0,0.0,0.0,0.0,0.0,0.125,0.784912029,0.01,0.0,0.0,0.0,0.0,-0.0,0.0,0.0,0.405273396,0.01,0.0,0.0,0.0,0.0,0.0,0.0,0.0,3.237304356,0.01,0.0,0.0,0.0,0.0,-0.0,0.0,0.125,1.5808103850000002,0.01,0.0,0.1899999976158142,-0.2800000011920929,0.0,0.13421630859375,-0.0380859375,1.36175537109375,32.18000030517578,0.0,141.0,-0.9095611572265625,1.06884765625,Waiting,-7.851026392961878,11.375,-69744.0,-371.0,-2775.0,-2400.0,0.0,0.0,
3.8364629999999886,0.0,0.0,0.0,0.0,0.0,0.0,0.0,0.125,0.783691326,0.01,0.0,0.0,0.0,0.0,-0.0,0.0,0.0,0.405273396,0.01,0.0,0.0,0.0,0.0,0.0,0.0,0.0,3.232421544,0.01,0.0,0.0,0.0,0.0,-0.0,0.0,0.125,1.5869139,0.01,0.0,0.10000000149011612,-0.25999999046325684,0.0,-0.46826171875,0.24090576171875,0.5185546875,32.18000030517578,0.0,-465.0,-0.914031982421875,1.06781005859375,Waiting,-7.888954056695993,11.0,-70185.0,-368.0,-2752.5,-2400.0,0.0,0.0,
3.9338300000000745,0.0,0.0,0.0,0.0,0.0,0.0,0.0,0.125,0.783691326,0.01,0.0,0.0,0.0,0.0,-0.0,0.0,0.0,0.405273396,0.01,0.0,0.0,0.0,0.0,0.0,0.0,0.0,3.236083653,0.01,0.0,0.0,0.0,0.0,-0.0,0.0,0.125,1.5808103850000002,0.01,0.0,0.15000000596046448,-0.3199999928474426,0.0,0.374267578125,-0.06903076171875,1.3668212890625,32.18000030517578,0.0,381.0,-0.91778564453125,1.06707763671875,Waiting,-7.787292277614859,11.0,-70185.0,-368.0,-2737.5,-2400.0,0.0,0.0,
4.030381000000052,0.0,0.0,0.0,0.0,0.0,0.0,0.0,0.125,0.784912029,0.01,0.0,0.0,0.0,0.0,-0.0,0.0,0.0,0.404052693,0.01,0.0,0.0,0.0,0.0,0.0,0.0,0.0,3.236083653,0.01,0.0,0.0,0.0,0.0,-0.0,0.0,0.125,1.5808103850000002,0.01,0.0,0.20999999344348907,-0.28999999165534973,0.0,0.1348876953125,-0.0374755859375,1.28485107421875,32.18000030517578,0.0,141.0,-0.9229888916015625,1.0666656494140625,Waiting,-7.736461388074292,10.875,-70623.0,-364.0,-2722.5,-2400.0,0.0,0.0,
4.128842999999877,0.0,0.0,0.0,0.0,0.0,0.0,0.0,0.125,0.783691326,0.01,0.0,0.0,0.0,0.0,-0.0,0.0,0.0,0.405273396,0.01,0.0,0.0,0.0,0.0,0.0,0.0,0.0,3.236083653,0.01,0.0,0.0,0.0,0.0,-0.0,0.0,0.125,1.5795896820000002,0.01,0.0,0.20999999344348907,-0.30000001192092896,0.0,-0.2535400390625,0.1734619140625,0.874755859375,32.13999938964844,0.0,-248.0,-0.9286041259765625,1.0655975341796875,Waiting,-7.797458455522972,11.0,-71060.0,-362.0,-2700.0,-2400.0,0.0,0.0,
4.22778600000008,0.0,0.0,0.0,0.0,0.0,0.0,0.0,0.125,0.783691326,0.01,0.0,0.0,0.0,0.0,-0.0,0.0,0.0,0.404052693,0.01,0.0,0.0,0.0,0.0,0.0,0.0,0.0,3.236083653,0.01,0.0,0.0,0.0,0.0,-0.0,0.0,0.125,1.5808103850000002,0.01,0.0,0.17000000178813934,-0.30000001192092896,0.0,-0.30645751953125,0.103271484375,0.59735107421875,32.13999938964844,0.0,-303.0,-0.9352264404296875,1.064666748046875,Waiting,-7.746627565982405,10.75,-71488.0,-359.0,-2685.0,-2400.0,0.0,0.0,
4.322670999999857,0.0,0.0,0.0,0.0,0.0,0.0,0.0,0.125,0.783691326,0.01,0.0,0.0,0.0,0.0,-0.0,0.0,0.0,0.404052693,0.01,0.0,0.0,0.0,0.0,0.0,0.0,0.0,3.237304356,0.01,0.0,0.0,0.0,0.0,-0.0,0.0,0.125,1.5808103850000002,0.01,0.0,0.12999999523162842,-0.33000001311302185,0.0,0.4501953125,-0.03338623046875,1.617919921875,32.13999938964844,0.0,459.0,-0.94085693359375,1.0645751953125,Waiting,-7.753225806451613,10.625,-71915.0,-357.0,-2670.0,-2400.0,0.0,0.0,
4.415014999999897,0.0,0.0,0.0,0.0,0.0,0.0,0.0,0.125,0.782470623,0.01,0.0,0.0,0.0,0.0,-0.0,0.0,0.0,0.404052693,0.01,0.0,0.0,0.0,0.0,0.0,0.0,0.0,3.236083653,0.01,-0.0024414059999999793,0.0,0.0,0.0,-0.0,0.0,0.125,1.5795896820000002,0.01,0.0,0.1899999976158142,-0.25,0.0,-0.13214111328125,-0.02239990234375,0.92816162109375,32.13999938964844,0.0,-128.0,-0.946533203125,1.0671844482421875,Waiting,-7.763440860215053,10.875,-71915.0,-357.0,-2655.0,-2400.0,0.0,0.0,
4.513851999999956,0.0,0.0,0.0,0.0,0.0,0.0,0.0,0.125,0.783691326,0.01,0.0,0.0,0.0,0.0,-0.0,0.0,0.0,0.404052693,0.01,0.0,0.0,0.0,0.0,0.0,0.0,0.0,3.236083653,0.01,0.0,0.0,0.0,0.0,-0.0,0.0,0.125,1.5808103850000002,0.01,0.0,0.25,-0.3199999928474426,0.0,0.33807373046875,0.0137939453125,1.61163330078125,32.13999938964844,0.0,347.0,-0.951934814453125,1.0697479248046875,Waiting,-7.726295210166178,11.0,-72340.0,-354.0,-2640.0,-2400.0,0.0,0.0,
4.609645000000018,0.0,0.0,0.0,0.0,0.0,0.0,0.0,0.125,0.780029217,0.01,0.0,0.0,0.0,0.0,-0.0,0.0,0.0,0.404052693,0.01,0.0,0.0,0.0,0.0,0.0,0.0,0.0,3.237304356,0.01,0.0,0.0,0.0,0.0,-0.0,0.0,0.125,1.5759275730000002,0.01,0.0,0.17000000178813934,-0.2800000011920929,0.0,-0.15411376953125,0.048095703125,0.84527587890625,32.16999816894531,0.0,-150.0,-0.95660400390625,1.0719757080078125,Waiting,-7.604301075268817,11.0,-72762.0,-351.0,-2632.5,-2400.0,0.0,0.0,
4.705928000000073,0.0,0.0,0.0,0.0,0.0,0.0,0.0,0.125,0.784912029,0.01,0.0,0.0,0.0,0.0,-0.0,0.0,0.0,0.405273396,0.01,0.0,0.0,0.0,0.0,0.0,0.0,0.0,3.237304356,0.01,0.0,0.0,0.0,0.0,-0.0,0.0,0.125,1.5808103850000002,0.01,0.0,0.14000000059604645,-0.2199999988079071,0.0,-0.4539794921875,0.25634765625,0.4786376953125,32.16999816894531,0.0,-452.0,-0.960662841796875,1.0724334716796875,Waiting,-7.691935483870967,10.5,-73182.0,-350.0,-2617.5,-2400.0,0.0,0.0,
4.79713500000001,0.0,0.0,0.0,0.0,0.0,0.0,0.0,0.125,0.783691326,0.01,0.0,0.0,0.0,0.0,-0.0,0.0,0.0,0.405273396,0.01,0.0,0.0,0.0,0.0,0.0,0.0,0.0,3.237304356,0.01,0.0,0.0,0.0,0.0,-0.0,0.0,0.125,1.5808103850000002,0.01,0.0,0.27000001072883606,-0.3400000035762787,0.0,0.07489013671875,-0.08587646484375,1.0074462890625,32.16999816894531,0.0,80.0,-0.9657745361328125,1.076263427734375,Waiting,-7.685630498533725,11.0,-73600.0,-348.0,-2602.5,-2400.0,0.0,0.0,
4.894236999999965,0.0,0.0,0.0,0.0,0.0,0.0,0.0,0.125,0.783691326,0.01,0.0,0.0,0.0,0.0,-0.0,0.0,0.0,0.404052693,0.01,0.0,0.0,0.0,0.0,0.0,0.0,0.0,3.236083653,0.01,0.0,0.0,0.0,0.0,-0.0,0.0,0.125,1.5795896820000002,0.01,0.0,0.019999999552965164,-0.23000000417232513,0.0,-0.1273193359375,-0.09716796875,1.0040283203125,32.16999816894531,0.0,-123.0,-0.970245361328125,1.0775909423828125,Waiting,-7.736461388074292,11.0,-73600.0,-348.0,-2595.0,-2400.0,0.0,0.0,
4.991114999999991,0.0,0.0,0.0,0.0,0.0,0.0,0.0,0.125,0.783691326,0.01,0.0,0.0,0.0,0.0,-0.0,0.0,0.0,0.404052693,0.01,0.0,0.0,0.0,0.0,0.0,0.0,0.0,3.233642247,0.01,0.0,0.0,0.0,0.0,-0.0,0.0,0.125,1.5808103850000002,0.01,0.0,-0.07999999821186066,-0.11999999731779099,0.0,-0.13812255859375,-0.06488037109375,0.996337890625,32.16999816894531,0.0,-135.0,-0.9730072021484375,1.0773468017578125,Waiting,-7.695796676441838,11.25,-74017.0,-345.0,-2580.0,-2400.0,0.0,0.0,
5.087094000000041,0.0,0.0,0.0,0.0,0.0,0.0,0.0,0.125,0.784912029,0.01,0.0,0.0,0.0,0.0,-0.0,0.0,0.0,0.405273396,0.01,0.0,0.0,0.0,0.0,0.0,0.0,0.0,3.237304356,0.01,0.0,0.0,0.0,0.0,-0.0,0.0,0.125,1.5808103850000002,0.01,0.0,-0.12999999523162842,-0.029999999329447746,0.0,0.2486572265625,0.02728271484375,1.30535888671875,32.16999816894531,0.0,249.0,-0.9749908447265625,1.0759735107421875,Waiting,-7.5613880742913,10.75,-74427.0,-344.0,-2580.0,-2400.0,0.0,0.0,
5.183098999999929,0.0,0.0,0.0,0.0,0.0,0.0,0.0,0.125,0.783691326,0.01,0.0,0.0,0.0,0.0,-0.0,0.0,0.0,0.404052693,0.01,0.0,0.0,0.0,0.0,0.0,0.0,0.0,3.236083653,0.01,0.0,0.0,0.0,0.0,-0.0,0.0,0.125,1.5808103850000002,0.01,0.0,-0.029999999329447746,0.10000000149011612,0.0,-0.2960205078125,0.05230712890625,0.8778076171875,32.16999816894531,0.0,-297.0,-0.975250244140625,1.07513427734375,Waiting,-7.563636363636364,10.75,-74838.0,-343.0,-2565.0,-2400.0,0.0,0.0,
5.287301999999909,0.0,0.0,0.0,0.0,0.0,0.0,0.0,0.125,0.783691326,0.01,0.0,0.0,0.0,0.0,-0.0,0.0,0.0,0.404052693,0.01,0.0,0.0,0.0,0.0,0.0,0.0,0.0,3.237304356,0.01,0.0,0.0,0.0,0.0,-0.0,0.0,0.125,1.5808103850000002,0.01,0.0,0.03999999910593033,0.1599999964237213,0.0,-0.2322998046875,0.00506591796875,0.9443359375,32.16999816894531,0.0,-235.0,-0.974090576171875,1.075714111328125,Waiting,-7.5229716520039105,10.625,-75248.0,-341.0,-2557.5,-2400.0,0.0,0.0,
5.387418999999994,0.0,0.0,0.0,0.0,0.0,0.0,0.0,0.125,0.783691326,0.01,0.0,0.0,0.0,0.0,-0.0,0.0,0.0,0.404052693,0.01,0.0,0.0,0.0,0.0,0.0,0.0,0.0,3.232421544,0.01,0.0,0.0,0.0,0.0,-0.0,0.0,0.125,1.5808103850000002,0.01,0.0,-0.05999999865889549,0.23000000417232513,0.0,0.12054443359375,0.017822265625,1.251220703125,32.16999816894531,0.0,115.0,-0.9726715087890625,1.07586669921875,Waiting,-7.5128054740957975,10.75,-75657.0,-340.0,-2550.0,-2400.0,0.0,0.0,
5.484817000000039,0.0,0.0,0.0,0.0,0.0,0.0,0.0,0.125,0.783691326,0.01,0.0,0.0,0.0,0.0,-0.0,0.0,0.0,0.404052693,0.01,0.0,0.0,0.0,0.0,0.0,0.0,0.0,3.237304356,0.01,0.0,0.0,0.0,0.0,-0.0,0.0,0.125,1.573486167,0.01,0.0,-0.3100000023841858,0.28999999165534973,0.009999999776482582,0.13800048828125,-0.0869140625,1.20916748046875,32.16999816894531,0.0,131.0,-0.9694366455078125,1.0725555419921875,Waiting,-7.604301075268817,10.375,-75657.0,-340.0,-2535.0,-2400.0,0.7,3.375,
5.586561999999918,0.0,0.0,0.0,0.0,0.0,0.0,0.0,0.125,0.784912029,0.01,0.0,0.0,0.0,0.0,-0.0,0.0,0.0,0.404052693,0.01,0.0,0.0,0.0,0.0,0.0,0.0,0.0,3.237304356,0.01,0.0,0.0,0.0,0.0,-0.0,0.0,0.125,1.57470687,0.01,0.0,-0.3400000035762787,0.10999999940395355,0.009999999776482582,0.3111572265625,-0.099853515625,1.14654541015625,32.16999816894531,0.0,308.0,-0.9683837890625,1.0675811767578125,Waiting,-7.587683284457478,11.25,-76061.0,-338.0,-2520.0,-2400.0,0.7,3.125,
5.679500999999931,0.0,0.0,0.0,0.0,0.0,0.0,0.0,0.125,0.783691326,0.01,0.0,0.0,0.0,0.0,-0.0,0.0,0.0,0.404052693,0.01,0.0,0.0,0.0,0.0,0.0,0.0,0.0,3.236083653,0.01,0.0,0.0,0.0,0.0,-0.0,0.0,0.125,1.5808103850000002,0.01,0.0,-0.10000000149011612,0.07000000029802322,0.009999999776482582,0.2481689453125,0.16815185546875,1.28790283203125,32.15999984741211,0.0,246.0,-0.969207763671875,1.06463623046875,Waiting,-7.58553274682307,11.75,-76463.0,-335.0,-2505.0,-2400.0,0.7,4.5,
5.774217999999877,0.0,0.0,0.0,0.0,0.0,0.0,0.0,0.125,0.783691326,0.01,0.0,0.0,0.0,0.0,-0.0,0.0,0.0,0.404052693,0.01,0.0,0.0,0.0,0.0,0.0,0.0,0.0,3.231200841,0.01,0.0,0.0,0.0,0.0,-0.0,0.0,0.125,1.5808103850000002,0.01,0.0024414059999999793,0.0,0.20999999344348907,0.009999999776482582,-0.4046630859375,0.0802001953125,0.40667724609375,32.15999984741211,0.0,-406.0,-0.967529296875,1.0649566650390625,Waiting,-7.586510263929618,11.875,-76867.0,-333.0,-2497.5,-2400.0,0.7,5.5,
5.868805999999866,0.0,0.0,0.0,0.0,0.0,0.0,0.0,0.125,0.784912029,0.01,0.0,0.0,0.0,0.0,-0.0,0.0,0.0,0.40771480200000004,0.01,0.0,0.0,0.0,0.0,0.0,0.0,0.0,3.23486295,0.01,0.0012207029999995456,0.0,0.0,0.0,-0.0,0.0,0.125,1.5808103850000002,0.01,0.0,0.10000000149011612,0.07999999821186066,0.009999999776482582,0.0245361328125,-0.09539794921875,1.32476806640625,32.15999984741211,0.0,22.0,-0.967010498046875,1.066619873046875,Waiting,-7.489247311827956,11.5,-77264.0,-333.0,-2497.5,-2400.0,0.7,6.25,
5.960216999999946,0.0,0.0,0.0,0.0,0.0,0.0,0.0,0.125,0.786132732,0.01,0.0,0.0,0.0,0.0,-0.0,0.0,0.0,0.405273396,0.01,0.0,0.0,0.0,0.0,0.0,0.0,0.0,3.236083653,0.01,0.0,0.0,0.0,0.0,-0.0,0.0,0.125,1.5808103850000002,0.01,0.0,0.009999999776482582,0.10999999940395355,0.019999999552965164,-0.39666748046875,0.1353759765625,0.59967041015625,32.15999984741211,0.0,-397.0,-0.9658355712890625,1.0692901611328125,Waiting,-7.382258064516129,10.875,-77264.0,-333.0,-2497.5,-2400.0,0.7,6.875,
6.065310999999987,0.0,0.0,0.0,0.0,0.0,0.0,0.0,0.125,0.771484296,0.01,0.0,0.0,0.0,0.0,-0.0,0.0,0.0,0.405273396,0.01,0.0,0.0,0.0,0.0,0.0,0.0,0.0,3.236083653,0.01,0.0,0.0,0.0,0.0,-0.0,0.0,0.125,1.5808103850000002,0.01,0.0,0.029999999329447746,0.12999999523162842,0.019999999552965164,-0.2108154296875,-0.01275634765625,0.4241943359375,32.15999984741211,0.0,-211.0,-0.963958740234375,1.0748443603515625,Waiting,-7.382258064516129,10.5,-77664.0,-332.0,-2490.0,-2400.0,0.7,7.5,
6.226777000000002,0.0,0.0,0.0,0.0,0.0,0.0,0.0,0.125,0.784912029,0.01,0.0,0.0,0.0,0.0,-0.0,0.0,0.0,0.406494099,0.01,0.0,0.0,0.0,0.0,0.0,0.0,0.0,3.233642247,0.01,0.0,0.0,0.0,0.0,-0.0,0.0,0.125,1.5808103850000002,0.01,0.0,0.07999999821186066,0.0,0.009999999776482582,0.14508056640625,-0.08929443359375,1.00653076171875,32.16999816894531,0.0,144.0,-0.95867919921875,1.086334228515625,Waiting,-7.298435972629522,10.875,-78856.0,-330.0,-2475.0,-2400.0,0.7,7.375,
6.502693999999901,0.0,0.0,0.0,0.0,0.0,0.0,0.0,0.125,0.783691326,0.01,0.0,0.0,0.0,0.0,-0.0,0.0,0.0,0.404052693,0.01,0.0,0.0,0.0,0.0,0.0,0.0,0.0,3.237304356,0.01,0.0,0.0,0.0,0.0,-0.0,0.0,0.125,1.5820310880000001,0.01,0.0,0.15000000596046448,0.03999999910593033,0.009999999776482582,0.07269287109375,0.0318603515625,0.91156005859375,32.16999816894531,0.0,72.0,-0.95806884765625,1.09075927734375,Waiting,-7.393548387096774,11.125,-79252.0,-329.0,-2467.5,-2400.0,0.7,6.625,
6.602818999999902,0.0,0.0,0.0,0.0,0.0,0.0,0.0,0.125,0.783691326,0.01,0.0,0.0,0.0,0.0,-0.0,0.0,0.0,0.404052693,0.01,0.0,0.0,0.0,0.0,0.0,0.0,0.0,3.236083653,0.01,0.0,0.0,0.0,0.0,-0.0,0.0,0.125,1.5795896820000002,0.01,0.0,0.07999999821186066,-0.07999999821186066,0.009999999776482582,0.044921875,0.123046875,1.20281982421875,32.16999816894531,0.0,46.0,-0.9577178955078125,1.095123291015625,Waiting,-7.526881720430108,11.75,-79649.0,-328.0,-2460.0,-2400.0,0.7,4.375,
6.698928000000072,0.0,0.0,0.0,0.0,0.0,0.0,0.0,0.125,0.783691326,0.01,0.0,0.0,0.0,0.0,-0.0,0.0,0.0,0.404052693,0.01,0.0,0.0,0.0,0.0,0.0,0.0,0.0,3.237304356,0.01,0.0,0.0,0.0,0.0,-0.0,0.0,0.125,1.5808103850000002,0.01,0.0,0.09000000357627869,-0.1599999964237213,0.0,-0.09228515625,-0.07049560546875,1.26019287109375,32.189998626708984,0.0,-88.0,-0.95916748046875,1.098052978515625,Waiting,-7.595307917888563,12.5,-80038.0,-327.0,-2452.5,-2400.0,0.7,1.875,
6.796183999999892,0.0,0.0,0.0,0.0,0.0,0.0,0.0,0.125,0.783691326,0.01,0.0,0.0,0.0,0.0,-0.0,0.0,0.0,0.405273396,0.01,0.0,0.0,0.0,0.0,0.0,0.0,0.0,3.237304356,0.01,0.0,0.0,0.0,0.0,-0.0,0.0,0.125,1.5808103850000002,0.01,0.0,0.12999999523162842,-0.12999999523162842,0.009999999776482582,-0.1036376953125,-0.04827880859375,1.304931640625,32.189998626708984,0.0,-100.0,-0.960479736328125,1.101593017578125,Waiting,-7.721700879765396,12.625,-80038.0,-327.0,-2445.0,-2400.0,0.7,3.625,
6.893219999999972,0.0,0.0,0.0,0.0,0.0,0.0,0.0,0.125,0.783691326,0.01,0.0,0.0,0.0,0.0,-0.0,0.0,0.0,0.405273396,0.01,0.0,0.0,0.0,0.0,0.0,0.0,0.0,3.236083653,0.01,0.0,0.0,0.0,0.0,-0.0,0.0,0.125,1.5808103850000002,0.01,0.0,0.05999999865889549,-0.17000000178813934,0.0,0.32403564453125,0.212890625,1.70806884765625,32.189998626708984,0.0,329.0,-0.960968017578125,1.1032257080078125,Waiting,-7.683870967741936,13.25,-80429.0,-325.0,-2437.5,-2400.0,0.7,3.375,
6.9897630000000355,0.0,0.0,0.0,0.0,0.0,0.0,0.0,0.125,0.784912029,0.01,0.0,0.0,0.0,0.0,-0.0,0.0,0.0,0.40283199000000003,0.01,0.0,0.0,0.0,0.0,0.0,0.0,0.0,3.236083653,0.01,0.0,0.0,0.0,0.0,-0.0,0.0,0.125,1.5808103850000002,0.01,0.0,0.15000000596046448,-0.09000000357627869,0.009999999776482582,0.17022705078125,0.18231201171875,1.51031494140625,32.189998626708984,0.0,172.0,-0.9608154296875,1.1047210693359375,Waiting,-7.732160312805474,13.0,-80819.0,-325.0,-2437.5,-2400.0,0.7,3.25,
7.084746000000043,0.0,0.0,0.0,0.0,0.0,0.0,0.0,0.125,0.783691326,0.01,0.0,0.0,0.0,0.0,-0.0,0.0,0.0,0.405273396,0.01,0.0,0.0,0.0,0.0,0.0,0.0,0.0,3.236083653,0.01,0.0,0.0,0.0,0.0,-0.0,0.0,0.125,1.5808103850000002,0.01,0.0,0.11999999731779099,-0.10999999940395355,0.0,-0.30596923828125,0.01483154296875,0.9285888671875,32.189998626708984,0.0,-304.0,-0.961090087890625,1.106536865234375,Waiting,-7.6930596285435,12.75,-81210.0,-325.0,-2437.5,-2400.0,0.7,2.375,
7.184283000000054,0.0,0.0,0.0,0.0,0.0,0.0,0.0,0.125,0.783691326,0.01,0.0,0.0,0.0,0.0,-0.0,0.0,0.0,0.404052693,0.01,0.0,0.0,0.0,0.0,0.0,0.0,0.0,3.237304356,0.01,0.0,0.0,0.0,0.0,-0.0,0.0,0.125,1.5808103850000002,0.01,0.0,0.09000000357627869,-0.12999999523162842,0.009999999776482582,-0.28741455078125,0.0634765625,1.03558349609375,32.16999816894531,0.0,-284.0,-0.9621429443359375,1.110321044921875,Waiting,-7.564516129032259,12.0,-81602.0,-326.0,-2445.0,-2400.0,0.7,2.5,
7.278438000000082,0.0,0.0,0.0,0.0,0.0,0.0,0.0,0.125,0.784912029,0.01,0.0,0.0,0.0,0.0,-0.0,0.0,0.0,0.404052693,0.01,0.0,0.0,0.0,0.0,0.0,0.0,0.0,3.237304356,0.01,0.0012207029999995456,0.0,0.0,0.0,-0.0,0.0,0.125,1.5795896820000002,0.01,0.0012207029999995456,0.27000001072883606,-0.05999999865889549,0.0,0.16424560546875,0.10443115234375,1.25823974609375,32.16999816894531,0.0,165.0,-0.9616546630859375,1.113739013671875,Waiting,-8.674633431085045,15.625,-81602.0,-326.0,-2385.0,-2400.0,0.7,2.625,
7.375555999999866,0.0,0.0,0.0,0.0,0.0,0.0,0.0,0.125,0.784912029,0.01,0.0,0.0,0.0,0.0,-0.0,0.0,0.0,0.404052693,0.01,0.0,0.0,0.0,0.0,0.0,0.0,0.0,3.236083653,0.01,0.0,0.0,0.0,0.0,-0.0,0.0,0.125,1.5808103850000002,0.01,-0.0024414059999999793,0.1899999976158142,-0.09000000357627869,0.009999999776482582,-0.053466796875,0.092041015625,0.958984375,32.16999816894531,0.0,-51.0,-0.9610137939453125,1.11676025390625,Waiting,-9.3,26.875,-81969.0,-310.0,-2242.5,-2400.0,0.7,3.25,
7.475294999999925,0.0,0.0,0.0,0.0,0.0,0.0,0.0,0.125,0.7788085140000001,0.01,0.0,0.0,0.0,0.0,-0.0,0.0,0.0,0.405273396,0.01,0.0,0.0,0.0,0.0,0.0,0.0,0.0,3.236083653,0.01,-0.0024414059999999793,0.0,0.0,0.0,-0.0,0.0,0.125,1.5795896820000002,0.01,0.0024414059999999793,0.18000000715255737,-0.10999999940395355,0.009999999776482582,0.03375244140625,-0.08270263671875,0.71881103515625,32.16999816894531,0.0,35.0,-0.961273193359375,1.1208648681640625,Waiting,-8.9,26.5,-82338.0,-303.0,-2302.5,-2400.0,0.7,3.25,
7.570653999999864,0.0,0.0,0.0,0.0,0.0,0.0,0.0,0.125,0.783691326,0.01,0.0,0.0,0.0,0.0,-0.0,0.0,0.0,0.404052693,0.01,0.0,0.0,0.0,0.0,0.0,0.0,0.0,3.236083653,0.01,0.0,0.0,0.0,0.0,-0.0,0.0,0.125,1.5808103850000002,0.01,0.0,0.2199999988079071,-0.12999999523162842,0.019999999552965164,-0.04583740234375,-0.06414794921875,1.395263671875,32.16999816894531,0.0,-42.0,-0.961822509765625,1.12457275390625,Waiting,-8.381964809384165,22.375,-82715.0,-314.0,-2377.5,-2400.0,0.7,3.5,
7.66986400000006,0.0,0.0,0.0,0.0,0.0,0.0,0.0,0.125,0.783691326,0.01,0.0,0.0,0.0,0.0,-0.0,0.0,0.0,0.405273396,0.01,0.0,0.0,0.0,0.0,0.0,0.0,0.0,3.237304356,0.01,0.0,0.0,0.0,0.0,-0.0,0.0,0.125,1.5808103850000002,0.01,0.0,0.1599999964237213,-0.1599999964237213,0.009999999776482582,0.165283203125,-0.09393310546875,1.41851806640625,32.18000030517578,0.0,114.0,-0.9631500244140625,1.1287994384765625,Waiting,-7.967741935483871,16.5,-83105.0,-323.0,-2415.0,-2400.0,0.7,3.125,
7.76915699999989,0.0,0.0,0.0,0.0,0.0,0.0,0.0,0.125,0.783691326,0.01,0.0,0.0,0.0,0.0,-0.0,0.0,0.0,0.404052693,0.01,0.0,0.0,0.0,0.0,0.0,0.0,0.0,3.237304356,0.01,0.0,0.0,0.0,0.0,-0.0,0.0,0.125,1.57470687,0.01,0.0,0.10000000149011612,-0.20000000298023224,0.009999999776482582,0.16082763671875,0.20245361328125,1.5594482421875,32.18000030517578,0.0,166.0,-0.964691162109375,1.1309814453125,Waiting,-7.4340175953079175,13.25,-83105.0,-323.0,-2445.0,-2400.0,0.7,2.625,
7.8653359999998935,0.0,0.0,0.0,0.0,0.0,0.0,0.0,0.125,0.784912029,0.01,0.0,0.0,0.0,0.0,-0.0,0.0,0.0,0.404052693,0.01,0.0,0.0,0.0,0.0,0.0,0.0,0.0,3.237304356,0.01,0.0,0.0,0.0,0.0,-0.0,0.0,0.125,1.5808103850000002,0.01,0.0,0.019999999552965164,-0.18000000715255737,0.009999999776482582,0.14129638671875,-0.02288818359375,1.2674560546875,32.18000030517578,0.0,145.0,-0.9654998779296875,1.133026123046875,Waiting,-7.528152492668621,12.375,-83498.0,-327.0,-2445.0,-2400.0,0.7,2.625,
7.957412000000011,0.0,0.0,0.0,0.0,0.0,0.0,0.0,0.125,0.783691326,0.01,0.0,0.0,0.0,0.0,-0.0,0.0,0.0,0.405273396,0.01,0.0,0.0,0.0,0.0,0.0,0.0,0.0,3.236083653,0.01,0.0,0.0,0.0,0.0,-0.0,0.0,0.125,1.5808103850000002,0.01,0.0,0.009999999776482582,-0.11999999731779099,0.019999999552965164,0.03900146484375,-0.07855224609375,0.68194580078125,32.18000030517578,0.0,40.0,-0.9649810791015625,1.1368408203125,Waiting,-9.600000000000001,24.0,-83872.0,-318.0,-2272.5,-2400.0,0.7,2.25,
8.057165000000037,0.0,0.0,0.0,0.0,0.0,0.0,0.0,0.125,0.783691326,0.01,0.0,0.0,0.0,0.0,-0.0,0.0,0.0,0.405273396,0.01,0.0,0.0,0.0,0.0,0.0,0.0,0.0,3.237304356,0.01,0.0,0.0,0.0,0.0,-0.0,0.0,0.125,1.5808103850000002,0.01,0.0,0.09000000357627869,-0.20999999344348907,0.019999999552965164,-0.0491943359375,-0.00146484375,1.5107421875,32.18000030517578,0.0,-43.0,-0.962646484375,1.139892578125,Waiting,-8.850000000000001,27.375,-84231.0,-297.0,-2250.0,-2400.0,0.7,2.375,
8.165523000000045,0.0,0.0,0.0,0.0,0.0,0.0,0.0,0.125,0.782470623,0.01,0.0,0.0,0.0,0.0,-0.0,0.0,0.0,0.404052693,0.01,0.0,0.0,0.0,0.0,0.0,0.0,0.0,3.236083653,0.01,0.0,0.0,0.0,0.0,-0.0,0.0,0.125,1.5771482760000002,0.01,0.0,0.019999999552965164,-0.20000000298023224,0.009999999776482582,0.14599609375,0.1500244140625,1.6263427734375,32.189998626708984,0.0,151.0,-0.960968017578125,1.1393585205078125,Waiting,-7.908895405669599,26.375,-84605.0,-309.0,-2325.0,-2400.0,0.7,2.25,
8.268756000000051,0.0,0.0,0.0,0.0,0.0,0.0,0.0,0.125,0.783691326,0.01,0.0,0.0,0.0,0.0,-0.0,0.0,0.0,0.404052693,0.01,0.0,0.0,0.0,0.0,0.0,0.0,0.0,3.23486295,0.01,0.0,0.0,0.0,0.0,-0.0,0.0,0.125,1.5808103850000002,0.01,0.0,0.0,-0.1599999964237213,0.009999999776482582,-0.11968994140625,-0.07769775390625,1.16558837890625,32.189998626708984,0.0,-116.0,-0.9589080810546875,1.1386566162109375,Waiting,-8.416813294232648,20.625,-84993.0,-319.0,-2392.5,-2400.0,0.7,2.25,
8.370621999999974,0.0,0.0,0.0,0.0,0.0,0.0,0.0,0.125,0.783691326,0.01,0.0,0.0,0.0,0.0,-0.0,0.0,0.0,0.404052693,0.01,0.0,0.0,0.0,0.0,0.0,0.0,0.0,3.237304356,0.01,0.0,0.0,0.0,0.0,-0.0,0.0,0.125,1.5759275730000002,0.01,0.0,0.0,-0.14000000059604645,0.009999999776482582,0.02886962890625,-0.02899169921875,1.25177001953125,32.189998626708984,0.0,32.0,-0.9577178955078125,1.1374969482421875,Waiting,-7.80117302052786,16.25,-84993.0,-319.0,-2430.0,-2400.0,0.7,2.5,
8.470761999999871,0.0,0.0,0.0,0.0,0.0,0.0,0.0,0.125,0.783691326,0.01,0.0,0.0,0.0,0.0,-0.0,0.0,0.0,0.404052693,0.01,0.0,0.0,0.0,0.0,0.0,0.0,0.0,3.236083653,0.01,0.0,0.0,0.0,0.0,-0.0,0.0,0.125,1.5759275730000002,0.01,0.0,-0.019999999552965164,-0.17000000178813934,0.019999999552965164,-0.1510009765625,-0.0609130859375,1.267822265625,32.189998626708984,0.0,-147.0,-0.9579620361328125,1.13787841796875,Waiting,-7.888954056695992,15.375,-85381.0,-325.0,-2430.0,-2400.0,0.7,2.5,
8.573013999999967,0.0,0.0,0.0,0.0,0.0,0.0,0.0,0.125,0.78124992,0.01,-0.0012207030000004337,0.0,0.0,0.0,-0.0,0.0,0.0,0.405273396,0.01,0.0,0.0,0.0,0.0,0.0,0.0,0.0,3.236083653,0.01,0.0,0.0,0.0,0.0,-0.0,0.0,0.125,1.5759275730000002,0.01,0.0,-0.10999999940395355,-0.23000000417232513,0.019999999552965164,0.08538818359375,0.2110595703125,0.85589599609375,32.189998626708984,0.0,88.0,-0.9608306884765625,1.1397705078125,Waiting,-9.350000000000001,28.0,-85752.0,-317.0,-2197.5,-2400.0,0.7,2.125,
8.67445900000003,0.0,0.0,0.0,0.0,0.0,0.0,0.0,0.125,0.784912029,0.01,0.0012207030000004337,0.0,0.0,0.0,-0.0,0.0,0.0,0.404052693,0.01,0.0,0.0,0.0,0.0,0.0,0.0,0.0,3.237304356,0.01,0.0,0.0,0.0,0.0,-0.0,0.0,0.125,1.5759275730000002,0.01,0.0,-0.12999999523162842,-0.2199999988079071,0.019999999552965164,-7.9345703125E-4,0.16583251953125,0.5301513671875,32.16999816894531,0.0,1.0,-0.964019775390625,1.1417388916015625,Waiting,-8.8,27.625,-86106.0,-292.0,-2220.0,-2400.0,0.7,2.375,
8.776466000000015,0.0,0.0,0.0,0.0,0.0,0.0,0.0,0.125,0.784912029,0.01,0.0,0.0,0.0,0.0,-0.0,0.0,0.0,0.404052693,0.01,0.0,0.0,0.0,0.0,0.0,0.0,0.0,3.236083653,0.01,0.0,0.0,0.0,0.0,-0.0,0.0,0.125,1.5759275730000002,0.01,0.0,-0.05999999865889549,-0.23999999463558197,0.009999999776482582,0.00323486328125,-0.00262451171875,1.42535400390625,32.16999816894531,0.0,9.0,-0.9670867919921875,1.145477294921875,Waiting,-8.850000000000001,27.125,-86472.0,-303.0,-2287.5,-2400.0,0.7,2.5,
8.88613599999994,0.0,0.0,0.0,0.0,0.0,0.0,0.0,0.125,0.784912029,0.01,0.0,0.0,0.0,0.0,-0.0,0.0,0.0,0.404052693,0.01,0.0,0.0,0.0,0.0,0.0,0.0,0.0,3.237304356,0.01,0.0,0.0,0.0,0.0,-0.0,0.0,0.125,1.5808103850000002,0.01,0.0,-0.07000000029802322,-0.2800000011920929,0.009999999776482582,0.203369140625,0.04156494140625,1.321533203125,32.16999816894531,0.0,209.0,-0.9670562744140625,1.144927978515625,Waiting,-8.9,26.125,-86849.0,-312.0,-2355.0,-2400.0,0.7,2.625,
8.989064000000013,0.0,0.0,0.0,0.0,0.0,0.0,0.0,0.125,0.786132732,0.01,0.0,0.0,0.0,0.0,-0.0,0.0,0.0,0.404052693,0.01,0.0,0.0,0.0,0.0,0.0,0.0,0.0,3.236083653,0.01,0.0,0.0,0.0,0.0,-0.0,0.0,0.125,1.5771482760000002,0.01,0.0,0.0,-0.20000000298023224,0.009999999776482582,0.07818603515625,0.10601806640625,1.33477783203125,32.16999816894531,0.0,82.0,-0.966796875,1.1438140869140625,Waiting,-8.462561094819158,21.875,-87234.0,-320.0,-2407.5,-2400.0,0.7,2.625,
9.091685999999987,0.0,0.0,0.0,0.0,0.0,0.0,0.0,0.125,0.783691326,0.01,0.0,0.0,0.0,0.0,-0.0,0.0,0.0,0.404052693,0.01,0.0,0.0,0.0,0.0,0.0,0.0,0.0,3.233642247,0.01,0.0,0.0,0.0,0.0,-0.0,0.0,0.125,1.5820310880000001,0.01,0.0,0.03999999910593033,-0.18000000715255737,0.019999999552965164,0.0,0.09906005859375,0.88623046875,32.16999816894531,0.0,2.0,-0.966522216796875,1.1423492431640625,Waiting,-8.084848484848484,18.75,-87234.0,-320.0,-2430.0,-2400.0,0.7,2.5,
9.192803000000072,0.0,0.0,0.0,0.0,0.0,0.0,0.0,0.125,0.783691326,0.01,0.0,0.0,0.0,0.0,-0.0,0.0,0.0,0.404052693,0.01,0.0,0.0,0.0,0.0,0.0,0.0,0.0,3.236083653,0.01,0.0,0.0,0.0,0.0,-0.0,0.0,0.25,1.5759275730000002,0.01,0.0,-0.05999999865889549,-0.2199999988079071,0.009999999776482582,0.02392578125,0.16058349609375,0.61798095703125,32.20000076293945,0.0,26.0,-0.9661407470703125,1.14068603515625,Waiting,-9.350000000000001,27.125,-87620.0,-324.0,-2257.5,-2400.0,0.7,2.25,
9.295394000000087,0.0,0.0,0.0,0.0,0.0,0.0,0.0,0.125,0.784912029,0.01,0.0,0.0,0.0,0.0,-0.0,0.0,0.0,0.404052693,0.01,0.0,0.0,0.0,0.0,0.0,0.0,0.0,3.237304356,0.01,0.0,0.0,0.0,0.0,-0.0,0.0,0.125,1.5759275730000002,0.01,0.0,-0.09000000357627869,-0.25999999046325684,0.019999999552965164,-0.06689453125,0.10467529296875,0.5501708984375,32.20000076293945,0.0,-64.0,-0.9663238525390625,1.13897705078125,Waiting,0.0,0.0,-87971.0,-294.0,-2205.0,0.0,0.0,0.0,
9.396638000000035,0.0,0.0,0.0,0.0,0.0,0.0,0.0,0.125,0.783691326,0.01,0.0,0.0,0.0,0.0,-0.0,0.0,0.0,0.404052693,0.01,0.0,0.0,0.0,0.0,0.0,0.0,0.0,3.23486295,0.01,0.0,0.0,0.0,0.0,-0.0,0.0,0.25,1.5808103850000002,0.01,0.0,-0.05000000074505806,-0.25,0.009999999776482582,0.0645751953125,0.06536865234375,1.2578125,32.20000076293945,0.0,70.0,-0.966705322265625,1.1367340087890625,Waiting,0.0,0.0,-88319.0,-291.0,-2137.5,0.0,0.0,0.0,
9.495737999999896,0.0,0.0,0.0,0.0,0.0,0.0,0.0,0.125,0.783691326,0.01,0.0,0.0,0.0,0.0,-0.0,0.0,0.0,0.405273396,0.01,0.0,0.0,0.0,0.0,0.0,0.0,0.0,3.231200841,0.01,0.0,0.0,0.0,0.0,-0.0,0.0,0.125,1.5808103850000002,0.01,0.0,-0.019999999552965164,-0.23999999463558197,0.009999999776482582,0.04388427734375,-0.07269287109375,1.313232421875,32.20000076293945,0.0,49.0,-0.967041015625,1.13671875,Waiting,0.0,0.0,-88650.0,-278.0,-2047.5,0.0,0.0,0.0,
9.599310000000056,0.0,0.0,0.0,0.0,0.0,0.0,0.0,0.125,0.783691326,0.01,0.0,0.0,0.0,0.0,-0.0,0.0,0.0,0.405273396,0.01,0.0,0.0,0.0,0.0,0.0,0.0,0.0,3.237304356,0.01,0.0,0.0,0.0,0.0,-0.0,0.0,0.125,1.5820310880000001,0.01,0.0,0.05999999865889549,-0.17000000178813934,0.0,-0.32861328125,0.111328125,1.09271240234375,32.20000076293945,0.0,-325.0,-0.9661407470703125,1.138519287109375,Waiting,0.0,0.0,-88965.0,-264.0,-1980.0,0.0,0.0,0.0,
9.702222000000067,0.0,0.0,0.0,0.0,0.0,0.0,0.0,0.125,0.7885741380000001,0.01,0.0,0.0,0.0,0.0,-0.0,0.0,0.0,0.404052693,0.01,0.0,0.0,0.0,0.0,0.0,0.0,0.0,3.236083653,0.01,0.0,0.0,0.0,0.0,-0.0,0.0,0.125,1.5808103850000002,0.01,0.0,0.18000000715255737,-0.20000000298023224,0.009999999776482582,-0.007568359375,-0.1138916015625,1.27777099609375,32.209999084472656,0.0,-3.0,-0.96502685546875,1.1408843994140625,Waiting,0.0,0.0,-89265.0,-252.0,-1882.5,0.0,0.0,0.0,
9.807308999999892,0.0,0.0,0.0,0.0,0.0,0.0,0.0,0.125,0.784912029,0.01,0.0,0.0,0.0,0.0,-0.0,0.0,0.0,0.40771480200000004,0.01,0.0,0.0,0.0,0.0,0.0,0.0,0.0,3.237304356,0.01,0.0,0.0,0.0,0.0,-0.0,0.0,0.125,1.5808103850000002,0.01,0.0,0.1599999964237213,-0.23000000417232513,0.0,0.0672607421875,-0.037841796875,1.0240478515625,32.209999084472656,0.0,71.0,-0.9650726318359375,1.142608642578125,Waiting,0.0,0.0,-89265.0,-252.0,-1822.5,0.0,0.0,0.0,
9.90327199999988,0.0,0.0,0.0,0.0,0.0,0.0,0.0,0.125,0.787353435,0.01,0.0,0.0,0.0,0.0,-0.0,0.0,0.0,0.404052693,0.01,0.0,0.0,0.0,0.0,0.0,0.0,0.0,3.232421544,0.01,0.0,0.0,0.0,0.0,-0.0,0.0,0.125,1.5795896820000002,0.01,0.0,0.1599999964237213,-0.25,0.0,0.002685546875,0.09979248046875,0.949951171875,32.209999084472656,0.0,6.0,-0.96435546875,1.142364501953125,Waiting,0.0,0.0,-89552.0,-241.0,-1755.0,0.0,0.0,0.0,
9.99947499999986,0.0,0.0,0.0,0.0,0.0,0.0,0.0,0.125,0.783691326,0.01,0.0,0.0,0.0,0.0,-0.0,0.0,0.0,0.404052693,0.01,0.0,0.0,0.0,0.0,0.0,0.0,0.0,3.237304356,0.01,0.0,0.0,0.0,0.0,-0.0,0.0,0.125,1.5795896820000002,0.01,0.0,0.20999999344348907,-0.2199999988079071,0.009999999776482582,0.1231689453125,-0.061767578125,0.9678955078125,32.209999084472656,0.0,126.0,-0.963470458984375,1.1427001953125,Waiting,0.0,0.0,-89827.0,-230.0,-1702.5,0.0,0.0,0.0,
10.096955000000074,0.0,0.0,0.0,0.0,0.0,0.0,0.0,0.125,0.78124992,0.01,0.0,0.0,0.0,0.0,-0.0,0.0,0.0,0.405273396,0.01,0.0,0.0,0.0,0.0,0.0,0.0,0.0,3.236083653,0.01,0.0,0.0,0.0,0.0,-0.0,0.0,0.125,1.5808103850000002,0.01,0.0,0.20999999344348907,-0.20999999344348907,0.009999999776482582,-0.05096435546875,0.02313232421875,0.98956298828125,32.209999084472656,0.0,-47.0,-0.95953369140625,1.141571044921875,Waiting,0.0,0.0,-90090.0,-220.0,-1635.0,0.0,0.0,0.0,
10.193638000000036,0.0,0.0,0.0,0.0,0.0,0.0,0.0,0.125,0.783691326,0.01,0.0,0.0,0.0,0.0,-0.0,0.0,0.0,0.404052693,0.01,0.0,0.0,0.0,0.0,0.0,0.0,0.0,3.236083653,0.01,0.0,0.0,0.0,0.0,-0.0,0.0,0.125,1.5795896820000002,0.01,0.0,0.20000000298023224,-0.20999999344348907,0.009999999776482582,-0.0885009765625,0.00250244140625,1.0279541015625,32.20000076293945,0.0,-84.0,-0.9569244384765625,1.141326904296875,Waiting,0.0,0.0,-90341.0,-210.0,-1567.5,0.0,0.0,0.0,
10.292246999999973,0.0,0.0,0.0,0.0,0.0,0.0,0.0,0.125,0.783691326,0.01,0.0,0.0,0.0,0.0,-0.0,0.0,0.0,0.404052693,0.01,0.0,0.0,0.0,0.0,0.0,0.0,0.0,3.236083653,0.01,0.0012207029999995456,0.0,0.0,0.0,-0.0,0.0,0.125,1.5808103850000002,0.01,0.0,0.18000000715255737,-0.23000000417232513,0.0,0.06658935546875,0.0201416015625,1.22833251953125,32.20000076293945,0.0,71.0,-0.954559326171875,1.140899658203125,Waiting,0.0,0.0,-90341.0,-210.0,-1522.5,0.0,0.0,0.0,
10.388081000000005,0.0,0.0,0.0,0.0,0.0,0.0,0.0,0.125,0.784912029,0.01,0.0,0.0,0.0,0.0,-0.0,0.0,0.0,0.404052693,0.01,0.0,0.0,0.0,0.0,0.0,0.0,0.0,3.237304356,0.01,0.0,0.0,0.0,0.0,-0.0,0.0,0.125,1.57470687,0.01,0.0,0.1899999976158142,-0.2199999988079071,0.0,0.03076171875,0.146484375,1.3128662109375,32.20000076293945,0.0,35.0,-0.9517822265625,1.1400146484375,Waiting,0.0,0.0,-90580.0,-201.0,-1455.0,0.0,0.0,0.0,
10.477325999999884,0.0,0.0,0.0,0.0,0.0,0.0,0.0,0.125,0.783691326,0.01,0.0,0.0,0.0,0.0,-0.0,0.0,0.0,0.405273396,0.01,0.0,0.0,0.0,0.0,0.0,0.0,0.0,3.237304356,0.01,0.0,0.0,0.0,0.0,-0.0,0.0,0.125,1.5808103850000002,0.01,0.0,0.14000000059604645,-0.27000001072883606,0.0,-0.0694580078125,0.02813720703125,1.2276611328125,32.20000076293945,0.0,-63.0,-0.947998046875,1.138214111328125,Waiting,0.0,0.0,-90808.0,-191.0,-1410.0,0.0,0.0,0.0,
10.586956999999936,0.0,0.0,0.0,0.0,0.0,0.0,0.0,0.125,0.783691326,0.01,0.0,0.0,0.0,0.0,-0.0,0.0,0.0,0.404052693,0.01,0.0,0.0,0.0,0.0,0.0,0.0,0.0,3.236083653,0.01,0.0024414059999999793,0.0,0.0,0.0,-0.0,0.0,0.125,1.5808103850000002,0.01,0.0,0.11999999731779099,-0.27000001072883606,0.0,-0.00830078125,-0.072509765625,0.78460693359375,32.20000076293945,0.0,-4.0,-0.9439697265625,1.136688232421875,Waiting,0.0,0.0,-91025.0,-182.0,-1350.0,0.0,0.0,0.0,
10.685653999999865,0.0,0.0,0.0,0.0,0.0,0.0,0.0,0.125,0.783691326,0.01,0.0,0.0,0.0,0.0,-0.0,0.0,0.0,0.404052693,0.01,0.0,0.0,0.0,0.0,0.0,0.0,0.0,3.236083653,0.01,0.0,0.0,0.0,0.0,-0.0,0.0,0.125,1.5820310880000001,0.01,0.0,0.1899999976158142,-0.2199999988079071,0.0,-0.058349609375,0.11627197265625,1.0849609375,32.20000076293945,0.0,-54.0,-0.9419708251953125,1.1356353759765625,Waiting,0.0,0.0,-91230.0,-172.0,-1282.5,0.0,0.0,0.0,
10.780043999999995,0.0,0.0,0.0,0.0,0.0,0.0,0.0,0.125,0.783691326,0.01,0.0,0.0,0.0,0.0,-0.0,0.0,0.0,0.404052693,0.01,0.0,0.0,0.0,0.0,0.0,0.0,0.0,3.237304356,0.01,0.0,0.0,0.0,0.0,-0.0,0.0,0.125,1.5808103850000002,0.01,0.0,0.20000000298023224,-0.23999999463558197,0.0,0.0341796875,-0.05950927734375,0.94732666015625,32.189998626708984,0.0,38.0,-0.9424285888671875,1.13519287109375,Waiting,0.0,0.0,-91230.0,-172.0,-1230.0,0.0,0.0,0.0,
10.873959999999963,0.0,0.0,0.0,0.0,0.0,0.0,0.0,0.125,0.783691326,0.01,0.0,0.0,0.0,0.0,-0.0,0.0,0.0,0.405273396,0.01,0.0,0.0,0.0,0.0,0.0,0.0,0.0,3.236083653,0.01,0.0,0.0,0.0,0.0,-0.0,0.0,0.125,1.5795896820000002,0.01,0.0,0.1599999964237213,-0.23999999463558197,0.0,0.12652587890625,0.00604248046875,1.07708740234375,32.189998626708984,0.0,131.0,-0.942626953125,1.1344757080078125,Waiting,0.0,0.0,-91424.0,-163.0,-1170.0,0.0,0.0,0.0,
10.969405999999958,0.0,0.0,0.0,0.0,0.0,0.0,0.0,0.125,0.799560465,0.01,0.0,0.0,0.0,0.0,-0.0,0.0,0.0,0.40283199000000003,0.01,0.0,0.0,0.0,0.0,0.0,0.0,0.0,3.236083653,0.01,0.0,0.0,0.0,0.0,-0.0,0.0,0.125,1.5808103850000002,0.01,0.0,0.1899999976158142,-0.23000000417232513,0.0,0.02276611328125,-0.3240966796875,0.6861572265625,32.189998626708984,0.0,25.0,-0.9405517578125,1.1346435546875,Waiting,0.0,0.0,-91606.0,-153.0,-1117.5,0.0,0.0,0.0,
11.062533000000053,0.0,0.0,0.0,0.0,0.0,0.0,0.0,0.125,0.783691326,0.01,0.0,0.0,0.0,0.0,-0.0,0.0,0.0,0.405273396,0.01,0.0,0.0,0.0,0.0,0.0,0.0,0.0,3.236083653,0.01,0.0,0.0,0.0,0.0,-0.0,0.0,0.125,1.5808103850000002,0.01,0.0,0.18000000715255737,-0.25,0.0,-0.0028076171875,0.0467529296875,0.97479248046875,32.189998626708984,0.0,1.0,-0.9367523193359375,1.1347198486328125,Waiting,0.0,0.0,-91778.0,-144.0,-1057.5,0.0,0.0,0.0,
11.156813000000081,0.0,0.0,0.0,0.0,0.0,0.0,0.0,0.125,0.783691326,0.01,0.0,0.0,0.0,0.0,-0.0,0.0,0.0,0.404052693,0.01,0.0,0.0,0.0,0.0,0.0,0.0,0.0,3.237304356,0.01,0.0,0.0,0.0,0.0,-0.0,0.0,0.125,1.5820310880000001,0.01,0.0,0.11999999731779099,-0.2800000011920929,0.0,0.0,0.00408935546875,1.05218505859375,32.189998626708984,0.0,5.0,-0.9376678466796875,1.13458251953125,Waiting