Time,ClimberA1,ClimberA2,FRpos,FRCurrent,FRspeed,FRsetpoint,FRApos,FRACurrent,FREncpos,FREncSetpoint,FREncSpeed,FLpos,FLCurrent,FLspeed,FLsetpoint,FLApos,FLACurrent,FLEncpos,FLEncSetpoint,FLEncSpeed,BRpos,BRCurrent,BRspeed,BRsetpoint,BRApos,BRACurrent,BREncpos,BREncSetpoint,BREncSpeed,BLpos,BLCurrent,BLspeed,BLsetpoint,BLApos,BLACurrent,BLEncpos,BLEncSetpoint,BLEncSpeed,navx_Pitch,navx_Roll,navx_Yaw,navx_XAcc,navx_YAcc,navx_ZAcc,navx_Temp,navx_Bar,navx_Alt,navx_XDis,navx_YDis,GearPlacerState,ShootOutputV,ShootOutputCurrent,ShootEncPos,ShootEncVelocity,ShootSpeed,ShootSetpoint,CarouselSetpoint,CarouselCurrent,
0.12231100000004518,0.0,0.0,52748.0,0.0,0.0,0.0,0.0,0.125,3.803710548,3.0159423668524865,0.0,24716.0,0.125,0.0,0.0,0.0,0.125,4.864501455,4.41043958977222,0.0,-15814.0,0.0,0.0,0.0,0.0,0.125,2.823486039,4.389674732977291,0.0,23086.0,0.125,0.0,0.0,0.0,0.125,2.158202904,0.552687206278561,0.0,-0.3100000023841858,-0.4000000059604645,0.0,-0.00506591796875,-0.01666259765625,1.1925048828125,34.369998931884766,0.0,3.0,0.616668701171875,-0.8292388916015625,Closing,0.0,0.0,1.0,0.0,0.0,0.0,0.0,0.0,
0.17297500000003493,0.0,0.0,52748.0,0.0,0.0,0.0,0.0,0.125,3.803710548,3.0159423668524865,0.0,24716.0,0.125,0.0,0.0,0.0,0.125,4.8632807520000005,4.41043958977222,0.0,-15814.0,0.0,0.0,0.0,0.0,0.125,2.823486039,4.389674732977291,0.0,23086.0,0.125,0.0,0.0,0.0,0.125,2.158202904,0.552687206278561,0.0,-0.28999999165534973,-0.38999998569488525,0.0,-0.03350830078125,0.09075927734375,0.9263916015625,34.369998931884766,0.0,-27.0,0.616363525390625,-0.8289947509765625,Closing,0.0,0.0,1.0,0.0,0.0,0.0,0.0,0.0,
0.22126600000000327,0.0,0.0,52748.0,0.0,0.0,0.0,0.0,0.125,3.804931251,3.0159423668524865,0.0,24716.0,0.125,0.0,0.0,0.0,0.125,4.8632807520000005,4.41043958977222,0.0,-15814.0,0.0,0.0,0.0,0.0,0.125,2.823486039,4.389674732977291,0.0,23086.0,0.125,0.0,0.0,0.0,0.125,2.158202904,0.552687206278561,0.0,-0.4399999976158142,-0.4699999988079071,0.0,-0.06884765625,-0.05316162109375,0.9052734375,34.38999938964844,0.0,-61.0,0.615478515625,-0.8291473388671875,Closing,0.0,0.0,1.0,0.0,0.0,0.0,0.0,0.0,
0.2737060000000056,0.0,0.0,52748.0,0.0,0.0,0.0,0.0,0.125,3.803710548,3.0159423668524865,0.0,24716.0,0.125,0.0,0.0,0.0,0.125,4.864501455,4.41043958977222,0.0,-15814.0,0.0,0.0,0.0,0.0,0.125,2.823486039,4.389674732977291,0.0,23086.0,0.125,0.0,0.0,0.0,0.125,2.159423607,0.552687206278561,0.0,-0.41999998688697815,-0.46000000834465027,0.0,0.0367431640625,-0.04632568359375,0.92486572265625,34.38999938964844,0.0,44.0,0.6137542724609375,-0.8296356201171875,Closing,0.0,0.0,1.0,0.0,0.0,0.0,0.0,0.0,
0.3291040000000503,0.0,0.0,52748.0,0.0,0.0,0.0,0.0,0.125,3.802489845,3.0159423668524865,-0.0012207029999999897,24716.0,0.125,0.0,0.0,0.0,0.125,4.864501455,4.41043958977222,0.0,-15814.0,0.125,0.0,0.0,0.0,0.125,2.823486039,4.389674732977291,0.0012207030000004337,23086.0,0.125,0.0,0.0,0.0,0.125,2.158202904,0.552687206278561,0.0,-0.41999998688697815,-0.4699999988079071,0.0,0.0050048828125,0.0081787109375,1.059326171875,34.38999938964844,0.0,13.0,0.613037109375,-0.83001708984375,Closing,0.0,0.0,1.0,0.0,0.0,0.0,0.0,0.0,
0.38170200000004845,0.0,0.0,52748.0,0.0,0.0,0.0,0.0,0.125,3.803710548,3.0159423668524865,0.0012207029999999897,24716.0,0.125,0.0,0.0,0.0,0.125,4.8632807520000005,4.41043958977222,0.0,-15814.0,0.125,0.0,0.0,0.0,0.125,2.823486039,4.389674732977291,0.0,23086.0,0.125,0.0,0.0,0.0,0.125,2.158202904,0.552687206278561,0.0,-0.41999998688697815,-0.46000000834465027,0.0,0.00872802734375,-0.01068115234375,1.00860595703125,34.38999938964844,0.0,16.0,0.61309814453125,-0.83001708984375,Closing,0.0,0.0,1.0,0.0,0.0,0.0,0.0,0.0,
0.43302600000001257,0.0,0.0,52748.0,0.0,0.0,0.0,0.0,0.125,3.803710548,3.0159423668524865,0.0,24716.0,0.125,0.0,0.0,0.0,0.125,4.8632807520000005,4.41043958977222,0.0,-15814.0,0.0,0.0,0.0,0.0,0.125,2.824706742,4.389674732977291,-0.0012207030000004337,23086.0,0.125,0.0,0.0,0.0,0.125,2.158202904,0.552687206278561,-0.0012207029999999897,-0.4099999964237213,-0.46000000834465027,0.009999999776482582,-0.0120849609375,-0.02362060546875,1.02215576171875,34.38999938964844,0.0,-3.0,0.6131591796875,-0.8300018310546875,Closing,0.0,0.0,1.0,0.0,0.0,0.0,0.0,0.0,
0.486274000000034,0.0,0.0,52748.0,0.0,0.0,0.0,0.0,0.125,3.803710548,3.0159423668524865,0.0,24716.0,0.125,0.0,0.0,0.0,0.125,4.8632807520000005,4.41043958977222,0.0,-15814.0,0.0,0.0,0.0,0.0,0.125,2.822265336,4.389674732977291,0.0012207030000004337,23086.0,0.125,0.0,0.0,0.0,0.125,2.158202904,0.552687206278561,0.0012207029999999897,-0.4099999964237213,-0.4699999988079071,0.009999999776482582,-0.02325439453125,0.00384521484375,1.032958984375,34.38999938964844,0.0,-14.0,0.6131591796875,-0.8300018310546875,Closing,0.0,0.0,1.0,0.0,0.0,0.0,0.0,0.0,
0.5352880000000004,0.0,0.0,52748.0,0.0,0.0,0.0,0.0,0.125,3.804931251,3.0159423668524865,0.0,24716.0,0.125,0.0,0.0,0.0,0.125,4.864501455,4.41043958977222,0.0,-15814.0,0.125,0.0,0.0,0.0,0.125,2.823486039,4.389674732977291,-0.0012207030000004337,23086.0,0.125,0.0,0.0,0.0,0.125,2.158202904,0.552687206278561,-0.0012207029999999897,-0.4099999964237213,-0.4699999988079071,0.019999999552965164,-0.0052490234375,-9.765625E-4,1.03424072265625,34.38999938964844,0.0,3.0,0.6131591796875,-0.8300018310546875,Closing,0.0,0.0,1.0,0.0,0.0,0.0,0.0,0.0,
0.5889220000000205,0.0,0.0,52748.0,0.0,0.0,0.0,0.0,0.125,3.803710548,3.0159423668524865,0.0,24716.0,0.125,0.0,0.0,0.0,0.125,4.8632807520000005,4.41043958977222,0.0,-15814.0,0.125,0.0,0.0,0.0,0.125,2.823486039,4.389674732977291,0.0,23086.0,0.125,0.0,0.0,0.0,0.125,2.158202904,0.552687206278561,0.0012207029999999897,-0.4099999964237213,-0.46000000834465027,0.019999999552965164,-0.00103759765625,-0.00360107421875,1.0191650390625,34.38999938964844,0.0,7.0,0.6131591796875,-0.8300018310546875,Closing,0.0,0.0,1.0,0.0,0.0,0.0,0.0,0.0,
0.6371800000000513,0.0,0.0,52748.0,0.0,0.0,0.0,0.0,0.25,3.803710548,3.0159423668524865,0.0,24716.0,0.125,0.0,0.0,0.0,0.125,4.864501455,4.41043958977222,0.0,-15814.0,0.125,0.0,0.0,0.0,0.125,2.824706742,4.389674732977291,0.0,23086.0,0.125,0.0,0.0,0.0,0.125,2.158202904,0.552687206278561,0.0,-0.4099999964237213,-0.46000000834465027,0.019999999552965164,-0.00946044921875,-0.0120849609375,1.010009765625,34.38999938964844,0.0,-1.0,0.6131591796875,-0.8300018310546875,Closing,0.0,0.0,1.0,0.0,0.0,0.0,0.0,0.0,
0.6898940000000293,0.0,0.0,52748.0,0.0,0.0,0.0,0.0,0.25,3.802489845,3.0159423668524865,0.0,24716.0,0.125,0.0,0.0,0.0,0.125,4.864501455,4.41043958977222,0.0,-15814.0,0.0,0.0,0.0,0.0,0.125,2.823486039,4.389674732977291,0.0012207030000004337,23086.0,0.125,0.0,0.0,0.0,0.125,2.158202904,0.552687206278561,0.0,-0.4099999964237213,-0.46000000834465027,0.019999999552965164,-0.01171875,-0.0057373046875,1.02093505859375,34.38999938964844,0.0,-3.0,0.6131591796875,-0.8300018310546875,Closing,0.0,0.0,1.0,0.0,0.0,0.0,0.0,0.0,
0.741963000000047,0.0,0.0,52748.0,0.0,0.0,0.0,0.0,0.25,3.803710548,3.0159423668524865,0.0,24716.0,0.125,0.0,0.0,0.0,0.125,4.864501455,4.41043958977222,0.0,-15814.0,0.0,0.0,0.0,0.0,0.125,2.823486039,4.389674732977291,0.0,23086.0,0.125,0.0,0.0,0.0,0.125,2.158202904,0.552687206278561,-0.0012207029999999897,-0.4099999964237213,-0.4699999988079071,0.019999999552965164,-0.0087890625,-0.00482177734375,1.01641845703125,34.38999938964844,0.0,0.0,0.6131591796875,-0.8300018310546875,Closing,0.0,0.0,1.0,0.0,0.0,0.0,0.0,0.0,
0.7934020000000018,0.0,0.0,52748.0,0.0,0.0,0.0,0.0,0.125,3.804931251,3.0159423668524865,0.0,24716.0,0.125,0.0,0.0,0.0,0.125,4.8632807520000005,4.41043958977222,0.0,-15814.0,0.0,0.0,0.0,0.0,0.125,2.823486039,4.389674732977291,0.0,23086.0,0.125,0.0,0.0,0.0,0.125,2.158202904,0.552687206278561,0.0,-0.4099999964237213,-0.4699999988079071,0.019999999552965164,-0.012451171875,-0.00567626953125,1.01641845703125,34.38999938964844,0.0,-4.0,0.6131591796875,-0.8300018310546875,Closing,0.0,0.0,1.0,0.0,0.0,0.0,0.0,0.0,
0.8459520000000484,0.0,0.0,52748.0,0.0,0.0,0.0,0.0,0.125,3.803710548,3.0159423668524865,0.0,24716.0,0.125,0.0,0.0,0.0,0.125,4.8632807520000005,4.41043958977222,0.0,-15814.0,0.0,0.0,0.0,0.0,0.125,2.822265336,4.389674732977291,0.0,23086.0,0.125,0.0,0.0,0.0,0.125,2.158202904,0.552687206278561,0.0012207029999999897,-0.4099999964237213,-0.4699999988079071,0.029999999329447746,-0.0086669921875,-0.0084228515625,1.023681640625,34.38999938964844,0.0,0.0,0.6131591796875,-0.8300018310546875,Closing,0.0,0.0,1.0,0.0,0.0,0.0,0.0,0.0,
0.8955450000000419,0.0,0.0,52748.0,0.0,0.0,0.0,0.0,0.125,3.804931251,3.0159423668524865,0.0,24716.0,0.125,0.0,0.0,0.0,0.125,4.864501455,4.41043958977222,0.0,-15814.0,0.0,0.0,0.0,0.0,0.125,2.823486039,4.389674732977291,0.0,23086.0,0.125,0.0,0.0,0.0,0.125,2.158202904,0.552687206278561,0.0,-0.4099999964237213,-0.46000000834465027,0.029999999329447746,-0.010498046875,-0.0087890625,1.0147705078125,34.38999938964844,0.0,-2.0,0.6131591796875,-0.8300018310546875,Closing,0.0,0.0,1.0,0.0,0.0,0.0,0.0,0.0,
0.950591000000015,0.0,0.0,52748.0,0.0,0.0,0.0,0.0,0.125,3.804931251,3.0159423668524865,0.0,24716.0,0.125,0.0,0.0,0.0,0.125,4.8657221580000005,4.41043958977222,0.0,-15814.0,0.0,0.0,0.0,0.0,0.125,2.823486039,4.389674732977291,-0.0012207030000004337,23086.0,0.125,0.0,0.0,0.0,0.125,2.158202904,0.552687206278561,-0.0012207029999999897,-0.4099999964237213,-0.4699999988079071,0.029999999329447746,-0.00836181640625,-0.00775146484375,1.01318359375,34.38999938964844,0.0,0.0,0.6131591796875,-0.8300018310546875,Closing,0.0,0.0,1.0,0.0,0.0,0.0,0.0,0.0,
1.0005910000000149,0.0,0.0,52748.0,0.0,0.0,0.0,0.0,0.125,3.804931251,3.0159423668524865,0.0,24716.0,0.125,0.0,0.0,0.0,0.125,4.864501455,4.41043958977222,0.0,-15814.0,0.0,0.0,0.0,0.0,0.125,2.823486039,4.389674732977291,0.0012207030000004337,23086.0,0.125,0.0,0.0,0.0,0.125,2.158202904,0.552687206278561,0.0012207029999999897,-0.4099999964237213,-0.46000000834465027,0.03999999910593033,-0.00732421875,-0.00616455078125,1.01495361328125,34.38999938964844,0.0,0.0,0.6131591796875,-0.8300018310546875,Closing,0.0,0.0,1.0,0.0,0.0,0.0,0.0,0.0,
1.054570000000007,0.0,0.0,52748.0,0.0,0.0,0.0,0.0,0.25,3.804931251,3.0159423668524865,0.0,24716.0,0.125,0.0,0.0,0.0,0.125,4.864501455,4.41043958977222,0.0,-15814.0,0.0,0.0,0.0,0.0,0.125,2.823486039,4.389674732977291,-0.0012207030000004337,23086.0,0.125,0.0,0.0,0.0,0.125,2.158202904,0.552687206278561,0.0,-0.4099999964237213,-0.46000000834465027,0.03999999910593033,-0.00872802734375,-0.00885009765625,1.01397705078125,34.38999938964844,0.0,0.0,0.6131591796875,-0.8300018310546875,Closing,0.0,0.0,1.0,0.0,0.0,0.0,0.0,0.0,
1.1087060000000055,0.0,0.0,52748.0,0.0,0.0,0.0,0.0,0.125,3.804931251,3.0159423668524865,0.0,24716.0,0.125,0.0,0.0,0.0,0.125,4.862060049,4.41043958977222,0.0,-15814.0,0.125,0.0,0.0,0.0,0.125,2.823486039,4.389674732977291,0.0012207030000004337,23086.0,0.125,0.0,0.0,0.0,0.125,2.159423607,0.552687206278561,0.0,-0.4099999964237213,-0.46000000834465027,0.03999999910593033,-0.00946044921875,-2.44140625E-4,1.0152587890625,34.38999938964844,0.0,-1.0,0.6131591796875,-0.8300018310546875,Closing,0.0,0.0,1.0,0.0,0.0,0.0,0.0,0.0,
1.1578280000000378,0.0,0.0,52748.0,0.0,0.0,0.0,0.0,0.125,3.803710548,3.0159423668524865,0.0,24716.0,0.125,0.0,0.0,0.0,0.125,4.864501455,4.41043958977222,0.0,-15814.0,0.125,0.0,0.0,0.0,0.125,2.822265336,4.389674732977291,0.0,23086.0,0.125,0.0,0.0,0.0,0.125,2.158202904,0.552687206278561,0.0,-0.4099999964237213,-0.46000000834465027,0.03999999910593033,-0.011962890625,-0.00628662109375,1.02532958984375,34.38999938964844,0.0,-3.0,0.6131591796875,-0.8300018310546875,Closing,0.0,0.0,1.0,0.0,0.0,0.0,0.0,0.0,
1.2143479999999982,0.0,0.0,52748.0,0.0,0.0,0.0,0.0,5.25,3.925780848,0.01,-0.0012207029999999897,24716.0,0.125,0.0,-0.0,0.0,2.875,4.954833477,0.01,0.0,-15816.0,0.0,0.0,0.0,0.0,2.25,2.9296872,0.01,0.0,23086.0,0.125,0.0,-0.0,0.0,2.75,1.990966593,0.01,0.0,-0.4000000059604645,-0.46000000834465027,0.05000000074505806,-0.0260009765625,0.01202392578125,1.02252197265625,34.38999938964844,0.0,-27.0,0.613128662109375,-0.8299560546875,Closing,0.0,0.0,1.0,0.0,0.0,0.0,0.0,0.0,
1.2819839999999967,0.0,0.0,52747.0,0.0,-7.5,0.0,0.0,2.5,4.349364789,0.01,0.0,24716.0,0.125,0.0,-0.0,0.0,1.75,0.196533183,0.01,0.0,-15816.0,0.0,-15.0,0.0,0.0,1.75,3.12499968,0.01,0.0,23086.0,0.125,0.0,-0.0,0.0,1.25,1.776122865,0.01,-0.1696777169999999,-0.36000001430511475,-0.4699999988079071,0.14000000059604645,0.00848388671875,-0.001708984375,0.975341796875,34.38999938964844,0.0,16.0,0.6130218505859375,-0.8294219970703125,Closing,0.0,0.0,1.0,0.0,0.0,0.0,0.0,0.0,
1.3315910000000148,0.0,0.0,52747.0,0.125,-37.5,0.0,0.0,1.5,4.71191358,0.01,0.2136230250000004,24716.0,0.125,0.0,-0.0,0.0,1.25,0.377197227,0.01,0.2038574009999996,-15816.0,0.125,-37.5,0.0,0.0,0.75,3.3154293480000003,0.01,0.20507810400000004,23086.0,0.125,0.0,-0.0,0.0,0.625,1.6101072570000001,0.01,-0.2221679459999999,-0.3400000035762787,-0.4300000071525574,0.4000000059604645,0.0072021484375,-0.00469970703125,1.04827880859375,34.38999938964844,0.0,15.0,0.6131439208984375,-0.8291778564453125,Closing,0.0,0.0,1.0,0.0,0.0,0.0,0.0,0.0,
1.3836210000000428,0.0,0.0,52740.0,0.125,-45.0,0.0,0.0,1.625,0.16479490500000002,0.01,0.42114253499999954,24716.0,0.125,0.0,-0.0,0.0,1.0,0.443115189,0.01,0.2038574009999996,-15822.0,0.125,-30.0,0.0,0.0,0.5,3.403319964,0.01,0.16479490499999994,23086.0,0.125,0.0,-0.0,0.0,0.5,1.547851404,0.01,-0.15380857800000003,-0.4099999964237213,-0.3499999940395355,0.800000011920929,0.04541015625,-0.09478759765625,1.04815673828125,34.38999938964844,0.0,50.0,0.61358642578125,-0.82952880859375,Closing,0.0,0.0,1.0,0.0,0.0,0.0,0.0,0.0,
1.4321300000000046,0.0,0.0,52740.0,0.125,-30.0,0.0,0.0,1.625,0.576171816,0.01,0.3405761370000002,24716.0,0.125,0.0,-0.0,0.0,0.5,0.46142573400000003,0.01,0.13671873600000062,-15822.0,0.125,-15.0,0.0,0.0,0.25,3.4216305090000003,0.01,-4.846405869,23086.0,0.125,0.0,-0.0,0.0,0.125,1.53808578,0.01,4.893302741,-0.46000000834465027,-0.3400000035762787,0.949999988079071,-0.01824951171875,-0.0140380859375,1.03228759765625,34.38999938964844,0.0,-12.0,0.613983154296875,-0.8303375244140625,Closing,0.0,0.0,1.0,0.0,0.0,0.0,0.0,0.0,
1.4842970000000204,0.0,0.0,52735.0,0.125,-22.5,0.0,0.0,1.125,0.886230378,0.01,0.4095463849999992,24716.0,0.125,0.0,-0.0,0.0,0.0,0.462646437,0.01,0.009765623999999917,-15822.0,0.0,0.0,0.0,0.0,0.125,3.406982073,0.01,0.010986327000000351,23086.0,0.125,0.0,-0.0,0.0,0.25,1.561279137,0.01,-0.008544921000000372,-0.4000000059604645,-0.4699999988079071,1.0099999904632568,-0.0665283203125,0.0479736328125,1.0152587890625,34.38999938964844,0.0,-57.0,0.613433837890625,-0.831207275390625,Closing,0.0,0.0,1.0,0.0,0.0,0.0,0.0,0.0,
1.5344650000000255,0.0,0.0,52735.0,0.125,-30.0,0.0,0.0,0.5,1.036376847,0.01,-4.628295952999999,24716.0,0.125,0.0,-0.0,0.0,0.125,0.46020503100000004,0.01,0.0,-15822.0,0.0,0.0,0.0,0.0,0.125,3.382568013,0.01,-0.01342773300000033,23086.0,0.125,0.0,-0.0,0.0,0.25,1.590576009,0.01,0.023193357000000248,-0.33000001311302185,-0.550000011920929,1.0399999618530273,-0.0228271484375,-0.0074462890625,0.97509765625,34.38999938964844,0.0,-13.0,0.6123046875,-0.83123779296875,Closing,0.0,0.0,1.0,0.0,0.0,0.0,0.0,0.0,
1.588015000000014,0.0,0.0,52735.0,0.125,-30.0,0.0,0.0,0.375,1.0058592720000001,0.01,0.09521483400000008,24716.0,0.125,0.0,-0.0,0.0,0.125,0.46752924900000004,0.01,0.0024414059999999793,-15822.0,0.0,0.0,0.0,0.0,0.125,3.3642574680000004,0.01,-0.024414059999999793,23086.0,0.125,0.0,-0.0,0.0,0.25,1.614990069,0.01,0.029296871999999752,-0.3799999952316284,-0.5600000023841858,1.0199999809265137,0.017822265625,-0.03607177734375,1.029541015625,34.38999938964844,0.0,27.0,0.61236572265625,-0.8314208984375,Closing,0.0,0.0,1.0,0.0,0.0,0.0,0.0,0.0,
1.6389530000000376,0.0,0.0,52732.0,0.125,-15.0,0.0,0.0,0.375,0.930175686,0.01,-0.036621090000000134,24716.0,0.125,0.0,-0.0,0.0,0.125,0.46752924900000004,0.01,0.0024414060000008675,-15822.0,0.0,0.0,0.0,0.0,0.125,3.359374656,0.01,-0.019531247999999835,23086.0,0.125,0.0,-0.0,0.0,0.125,1.614990069,0.01,-4.93358594,-0.4000000059604645,-0.5099999904632568,0.9700000286102295,0.006591796875,1.220703125E-4,1.0211181640625,34.38999938964844,0.0,15.0,0.6124420166015625,-0.8316802978515625,Closing,0.0,0.0,1.0,0.0,0.0,0.0,0.0,0.0,
1.6914930000000168,0.0,0.0,52732.0,0.125,0.0,0.0,0.0,0.25,0.8581542090000001,0.01,-0.08666991299999993,24716.0,0.125,0.0,-0.0,0.0,0.125,0.46752924900000004,0.01,0.0,-15822.0,0.125,0.0,0.0,0.0,0.0,3.358153953,0.01,-0.0012207029999999897,23086.0,0.125,0.0,-0.0,0.0,0.125,1.614990069,0.01,0.0,-0.36000001430511475,-0.4699999988079071,1.0099999904632568,0.00726318359375,-0.022705078125,1.040283203125,34.38999938964844,0.0,15.0,0.6125946044921875,-0.83154296875,Closing,0.0,0.0,1.0,0.0,0.0,0.0,0.0,0.0,
1.7468520000000134,0.0,0.0,52732.0,0.125,0.0,0.0,0.0,0.25,0.820312416,0.01,-0.06225585299999992,24716.0,0.125,0.0,-0.0,0.0,0.125,0.46752924900000004,0.01,0.0,-15822.0,0.0,0.0,0.0,0.0,0.0,3.3630367650000004,0.01,0.0,23086.0,0.125,0.0,-0.0,0.0,0.125,1.614990069,0.01,0.0,-0.38999998569488525,-0.44999998807907104,1.0399999618530273,-0.008056640625,-0.02105712890625,1.01171875,34.400001525878906,0.0,0.0,0.6125946044921875,-0.83154296875,Closing,0.0,0.0,1.0,0.0,0.0,0.0,0.0,0.0,
1.7952000000000117,0.0,0.0,52732.0,0.125,0.0,0.0,0.0,0.25,0.820312416,0.01,-0.032958981000000054,24716.0,0.125,0.0,-0.0,0.0,0.125,0.46630854600000005,0.01,0.0,-15822.0,0.0,0.0,0.0,0.0,0.0,3.3642574680000004,0.01,-0.0012207029999999897,23086.0,0.125,0.0,-0.0,0.0,0.125,1.616210772,0.01,0.0,-0.3799999952316284,-0.47999998927116394,1.0199999809265137,-0.0211181640625,0.01605224609375,1.01947021484375,34.400001525878906,0.0,-12.0,0.6125946044921875,-0.8315277099609375,Opening,0.0,0.0,1.0,0.0,0.0,0.0,0.0,0.0,
1.8493980000000447,0.0,0.0,52732.0,0.125,0.0,0.0,0.0,0.125,0.820312416,0.01,0.0,24716.0,0.125,0.0,-0.0,0.0,0.125,0.46752924900000004,0.01,0.0,-15822.0,0.125,0.0,0.0,0.0,0.0,3.3642574680000004,0.01,0.0012207029999999897,23086.0,0.125,0.0,-0.0,0.0,0.125,1.614990069,0.01,0.0,-0.3799999952316284,-0.47999998927116394,1.0199999809265137,-0.03363037109375,-0.03045654296875,1.03668212890625,34.400001525878906,0.0,-25.0,0.6125030517578125,-0.83135986328125,Opening,0.0,0.0,1.0,0.0,0.0,0.0,0.0,0.0,
1.900439000000013,0.0,0.0,52732.0,0.125,0.0,0.0,0.0,0.125,0.820312416,0.01,0.0,24716.0,0.125,0.0,-0.0,0.0,0.125,0.46752924900000004,0.01,0.0,-15822.0,0.0,0.0,0.0,0.0,0.0,3.3630367650000004,0.01,0.0012207029999999897,23086.0,0.125,0.0,-0.0,0.0,0.125,1.614990069,0.01,0.0,-0.3799999952316284,-0.44999998807907104,1.0199999809265137,0.005615234375,-0.0128173828125,1.031005859375,34.400001525878906,0.0,13.0,0.612457275390625,-0.8313140869140625,Opening,0.0,0.0,1.0,0.0,0.0,0.0,0.0,0.0,
1.95126800000004,0.0,0.0,52732.0,0.125,0.0,0.0,0.0,0.125,0.819091713,0.01,0.0,24716.0,0.125,0.0,-0.0,0.0,0.125,0.46752924900000004,0.01,0.0,-15822.0,0.0,0.0,0.0,0.0,0.0,3.359374656,0.01,-0.0012207029999999897,23086.0,0.125,0.0,-0.0,0.0,0.125,1.614990069,0.01,0.0,-0.38999998569488525,-0.44999998807907104,1.0299999713897705,-0.008056640625,-0.01361083984375,1.0230712890625,34.400001525878906,0.0,0.0,0.612457275390625,-0.83123779296875,Opening,0.0,0.0,1.0,0.0,0.0,0.0,0.0,0.0,
2.004630999999994,0.0,0.0,52732.0,0.125,0.0,0.0,0.0,0.125,0.820312416,0.01,0.0,24716.0,0.125,0.0,-0.0,0.0,0.125,0.46752924900000004,0.01,0.0,-15822.0,0.0,0.0,0.0,0.0,0.0,3.358153953,0.01,0.0,23086.0,0.125,0.0,-0.0,0.0,0.125,1.616210772,0.01,0.0,-0.3700000047683716,-0.4699999988079071,1.0399999618530273,-0.00701904296875,-0.00653076171875,1.01556396484375,34.400001525878906,0.0,1.0,0.612457275390625,-0.83123779296875,Opening,0.0,0.0,1.0,0.0,0.0,0.0,0.0,0.0,
2.0564250000000466,0.0,0.0,52732.0,0.125,0.0,0.0,0.0,0.125,0.821533119,0.01,0.0,24716.0,0.125,0.0,-0.0,0.0,0.125,0.46630854600000005,0.01,0.0,-15822.0,0.125,0.0,0.0,0.0,0.0,3.3605953590000004,0.01,0.0,23086.0,0.125,0.0,-0.0,0.0,0.125,1.614990069,0.01,0.0,-0.38999998569488525,-0.46000000834465027,1.0299999713897705,0.00213623046875,-0.00457763671875,1.02569580078125,34.400001525878906,0.0,10.0,0.612457275390625,-0.83123779296875,Opening,0.0,0.0,1.0,0.0,0.0,0.0,0.0,0.0,
2.113292000000016,0.0,0.0,52732.0,0.125,0.0,0.0,0.0,0.125,0.821533119,0.01,0.0,24716.0,0.125,0.0,-0.0,0.0,0.125,0.46752924900000004,0.01,0.0,-15822.0,0.0,0.0,0.0,0.0,0.0,3.3642574680000004,0.01,-0.0012207029999999897,23086.0,0.125,0.0,-0.0,0.0,0.125,1.614990069,0.01,0.0,-0.38999998569488525,-0.44999998807907104,1.0399999618530273,-0.0120849609375,-0.002197265625,1.02972412109375,34.400001525878906,0.0,-3.0,0.612457275390625,-0.83123779296875,Opening,0.0,0.0,1.0,0.0,0.0,0.0,0.0,0.0,
2.173985000000044,0.0,0.0,52732.0,0.125,0.0,0.0,0.0,0.25,0.820312416,0.01,0.0,24716.0,0.125,0.0,-0.0,0.0,0.125,0.46630854600000005,0.01,0.0,-15822.0,0.0,0.0,0.0,0.0,0.0,3.358153953,0.01,0.0024414059999999793,23086.0,0.125,0.0,-0.0,0.0,0.125,1.614990069,0.01,0.0,-0.3799999952316284,-0.46000000834465027,1.0399999618530273,-0.0146484375,-0.00537109375,1.026611328125,34.400001525878906,0.0,-6.0,0.612457275390625,-0.83123779296875,Opening,0.0,0.0,1.0,0.0,0.0,0.0,0.0,0.0,
2.2306510000000124,0.0,0.0,52732.0,0.125,0.0,0.0,0.0,0.25,0.820312416,0.01,0.0,24716.0,0.125,0.0,-0.0,0.0,0.125,0.46752924900000004,0.01,0.0,-15822.0,0.0,0.0,0.0,0.0,0.0,3.3618160620000004,0.01,0.0,23086.0,0.125,0.0,-0.0,0.0,0.125,1.614990069,0.01,0.0,-0.38999998569488525,-0.46000000834465027,1.0399999618530273,-0.00390625,-0.003662109375,1.02227783203125,34.38999938964844,0.0,4.0,0.612457275390625,-0.83123779296875,Opening,0.0,0.0,1.0,0.0,0.0,0.0,0.0,0.0,
2.286116000000038,0.0,0.0,52732.0,0.125,0.0,0.0,0.0,0.125,0.820312416,0.01,0.0,24716.0,0.125,0.0,-0.0,0.0,0.125,0.46752924900000004,0.01,0.0,-15822.0,0.125,0.0,0.0,0.0,0.0,3.3630367650000004,0.01,0.0,23086.0,0.125,0.0,-0.0,0.0,0.125,1.614990069,0.01,0.0,-0.3799999952316284,-0.44999998807907104,1.0399999618530273,-0.00921630859375,-0.004638671875,1.02459716796875,34.38999938964844,0.0,0.0,0.612457275390625,-0.83123779296875,Opening,0.0,0.0,1.0,0.0,0.0,0.0,0.0,0.0,
2.3393099999999976,0.0,0.0,52732.0,0.125,0.0,0.0,0.0,0.125,0.820312416,0.01,0.0,24716.0,0.125,0.0,-0.0,0.0,0.125,0.46752924900000004,0.01,0.0,-15822.0,0.125,0.0,0.0,0.0,0.0,3.35693325,0.01,0.0,23086.0,0.125,0.0,-0.0,0.0,0.125,1.616210772,0.01,0.0,-0.3799999952316284,-0.44999998807907104,1.0499999523162842,-0.0074462890625,-0.00665283203125,1.0125732421875,34.38999938964844,0.0,0.0,0.612457275390625,-0.83123779296875,Opening,0.0,0.0,1.0,0.0,0.0,0.0,0.0,0.0,
2.393755999999994,0.0,0.0,52732.0,0.125,0.0,0.0,0.0,0.125,0.820312416,0.01,0.0,24716.0,0.125,0.0,-0.0,0.0,0.125,0.46630854600000005,0.01,0.0,-15822.0,0.125,0.0,0.0,0.0,0.0,3.3618160620000004,0.01,0.0,23086.0,0.125,0.0,-0.0,0.0,0.125,1.614990069,0.01,0.0,-0.3799999952316284,-0.44999998807907104,1.0499999523162842,-0.0067138671875,-0.00775146484375,1.020751953125,34.38999938964844,0.0,1.0,0.612457275390625,-0.83123779296875,Opening,0.0,0.0,1.0,0.0,0.0,0.0,0.0,0.0,
2.4527829999999957,0.0,0.0,52732.0,0.125,0.0,0.0,0.0,0.25,0.820312416,0.01,0.0,24716.0,0.125,0.0,-0.0,0.0,0.125,0.46752924900000004,0.01,0.0,-15822.0,0.0,0.0,0.0,0.0,0.0,3.3630367650000004,0.01,-0.0012207029999999897,23086.0,0.125,0.0,-0.0,0.0,0.125,1.614990069,0.01,0.0,-0.3799999952316284,-0.44999998807907104,1.059999942779541,-0.00445556640625,-0.0079345703125,1.014892578125,34.38999938964844,0.0,3.0,0.612457275390625,-0.83123779296875,Opening,0.0,0.0,1.0,0.0,0.0,0.0,0.0,0.0,
2.5092900000000373,0.0,0.0,52732.0,0.125,0.0,0.0,0.0,0.125,0.821533119,0.01,0.0,24716.0,0.125,0.0,-0.0,0.0,0.125,0.46752924900000004,0.01,0.0,-15822.0,0.125,0.0,0.0,0.0,0.0,3.3630367650000004,0.01,0.0012207029999999897,23086.0,0.125,0.0,-0.0,0.0,0.125,1.614990069,0.01,0.0,-0.3799999952316284,-0.44999998807907104,1.059999942779541,-0.01031494140625,-0.0047607421875,1.01885986328125,34.38999938964844,0.0,-2.0,0.612457275390625,-0.83123779296875,Opening,0.0,0.0,1.0,0.0,0.0,0.0,0.0,0.0,
2.561347000000009,0.0,0.0,52732.0,0.125,0.0,0.0,0.0,0.125,0.820312416,0.01,0.0,24716.0,0.125,0.0,-0.0,0.0,0.125,0.46752924900000004,0.01,0.0,-15822.0,0.0,0.0,0.0,0.0,0.0,3.3642574680000004,0.01,0.0012207029999999897,23086.0,0.125,0.0,-0.0,0.0,0.125,1.614990069,0.01,0.0,-0.3799999952316284,-0.44999998807907104,1.059999942779541,-0.00274658203125,-0.006103515625,1.02032470703125,34.38999938964844,0.0,5.0,0.612457275390625,-0.83123779296875,Opening,0.0,0.0,1.0,0.0,0.0,0.0,0.0,0.0,
2.6152790000000388,0.0,0.0,52732.0,0.125,0.0,0.0,0.0,0.25,0.820312416,0.01,0.0,24716.0,0.125,0.0,-0.0,0.0,0.125,0.46630854600000005,0.01,0.0,-15822.0,0.125,0.0,0.0,0.0,0.0,3.3630367650000004,0.01,-0.0012207029999999897,23086.0,0.125,0.0,-0.0,0.0,0.125,1.614990069,0.01,0.0,-0.38999998569488525,-0.44999998807907104,1.059999942779541,-0.00665283203125,-0.00506591796875,1.017578125,34.38999938964844,0.0,1.0,0.612457275390625,-0.83123779296875,Opening,0.0,0.0,1.0,0.0,0.0,0.0,0.0,0.0,
2.675176000000036,0.0,0.0,52732.0,0.125,0.0,0.0,0.0,0.125,0.820312416,0.01,0.0,24716.0,0.125,0.0,-0.0,0.0,0.125,0.46752924900000004,0.01,0.0,-15822.0,0.125,0.0,0.0,0.0,0.0,3.3642574680000004,0.01,-0.0012207029999999897,23086.0,0.125,0.0,-0.0,0.0,0.125,1.616210772,0.01,0.0,-0.38999998569488525,-0.46000000834465027,1.0700000524520874,-0.008056640625,-0.0054931640625,1.02471923828125,34.38999938964844,0.0,0.0,0.612457275390625,-0.83123779296875,Opening,0.0,0.0,1.0,0.0,0.0,0.0,0.0,0.0,
2.7323880000000353,0.0,0.0,52732.0,0.125,0.0,0.0,0.0,0.125,0.820312416,0.01,0.0,24716.0,0.125,0.0,-0.0,0.0,0.125,0.46752924900000004,0.01,0.0,-15822.0,0.125,0.0,0.0,0.0,0.0,3.3630367650000004,0.01,0.0012207029999999897,23086.0,0.125,0.0,-0.0,0.0,0.125,1.614990069,0.01,0.0,-0.38999998569488525,-0.46000000834465027,1.0700000524520874,-0.002197265625,-0.0015869140625,1.024658203125,34.40999984741211,0.0,6.0,0.612457275390625,-0.83123779296875,Closing,0.0,0.0,1.0,0.0,0.0,0.0,0.0,0.0,
2.789512000000046,0.0,0.0,52732.0,0.125,0.0,0.0,0.0,0.125,0.821533119,0.01,0.0,24716.0,0.125,0.0,-0.0,0.0,0.125,0.46752924900000004,0.01,0.0,-15822.0,0.125,0.0,0.0,0.0,0.0,3.3642574680000004,0.01,-0.0012207029999999897,23086.0,0.125,0.0,-0.0,0.0,0.125,1.614990069,0.01,0.0,-0.38999998569488525,-0.46000000834465027,1.0700000524520874,-0.01806640625,0.02947998046875,0.99609375,34.40999984741211,0.0,-9.0,0.612457275390625,-0.831207275390625,Closing,0.0,0.0,1.0,0.0,0.0,0.0,0.0,0.0,
2.8479300000000514,0.0,0.0,52732.0,0.125,0.0,0.0,0.0,0.125,0.821533119,0.01,0.0,24716.0,0.125,0.0,-0.0,0.0,0.125,0.46630854600000005,0.01,0.0,-15822.0,0.125,0.0,0.0,0.0,0.0,3.3642574680000004,0.01,0.0024414059999999793,23086.0,0.125,0.0,-0.0,0.0,0.125,1.616210772,0.01,0.0,-0.38999998569488525,-0.46000000834465027,1.0800000429153442,-0.0164794921875,-0.0052490234375,1.0045166015625,34.40999984741211,0.0,-8.0,0.612457275390625,-0.8311614990234375,Closing,0.0,0.0,1.0,0.0,0.0,0.0,0.0,0.0,
2.90064300000004,0.0,0.0,52732.0,0.125,0.0,0.0,0.0,0.25,0.820312416,0.01,0.0,24716.0,0.125,0.0,-0.0,0.0,0.125,0.46752924900000004,0.01,0.0,-15822.0,0.0,0.0,0.0,0.0,0.0,3.3630367650000004,0.01,0.0,23086.0,0.125,0.0,-0.0,0.0,0.25,1.617431475,0.01,0.0,-0.4000000059604645,-0.46000000834465027,1.090000033378601,-0.00848388671875,-0.02142333984375,1.00390625,34.40999984741211,0.0,0.0,0.612457275390625,-0.8310546875,Closing,0.0,0.0,1.0,0.0,0.0,0.0,0.0,0.0,
2.954483999999997,0.0,0.0,52732.0,0.125,0.0,0.0,0.0,0.125,0.820312416,0.01,0.0,24716.0,0.125,0.0,-0.0,0.0,0.125,0.46752924900000004,0.01,0.0,-15822.0,0.125,0.0,0.0,0.0,0.0,3.3630367650000004,0.01,0.0,23086.0,0.125,0.0,-0.0,0.0,0.125,1.617431475,0.01,0.0,-0.4000000059604645,-0.4699999988079071,1.090000033378601,-0.01556396484375,0.0020751953125,1.027587890625,34.40999984741211,0.0,-6.0,0.612457275390625,-0.8310546875,Closing,0.0,0.0,1.0,0.0,0.0,0.0,0.0,0.0,
3.0111320000000417,0.0,0.0,52732.0,0.125,0.0,0.0,0.0,0.25,0.820312416,0.01,4.931030297,24716.0,0.125,0.0,-0.0,0.0,0.125,0.46630854600000005,0.01,0.0,-15822.0,0.0,0.0,0.0,0.0,0.0,3.359374656,0.01,0.0,23086.0,0.125,0.0,-0.0,0.0,0.125,1.613769366,0.01,0.0,-0.38999998569488525,-0.46000000834465027,1.090000033378601,-0.0096435546875,-0.0025634765625,1.03765869140625,34.40999984741211,0.0,-1.0,0.612457275390625,-0.8310546875,Closing,0.0,0.0,1.0,0.0,0.0,0.0,0.0,0.0,
3.067883000000031,0.0,0.0,52732.0,0.125,0.0,0.0,0.0,0.125,0.820312416,0.01,-4.931030297,24716.0,0.125,0.0,-0.0,0.0,0.125,0.46752924900000004,0.01,0.0,-15822.0,0.0,0.0,0.0,0.0,0.0,3.3642574680000004,0.01,-0.0012207029999999897,23086.0,0.125,0.0,-0.0,0.0,0.125,1.614990069,0.01,0.0,-0.38999998569488525,-0.46000000834465027,1.090000033378601,-0.0152587890625,-0.00579833984375,1.02069091796875,34.40999984741211,0.0,-6.0,0.612457275390625,-0.8310546875,Closing,0.0,0.0,1.0,0.0,0.0,0.0,0.0,0.0,
3.11850900000002,0.0,0.0,52732.0,0.125,0.0,0.0,0.0,0.125,0.821533119,0.01,0.0,24716.0,0.125,0.0,-0.0,0.0,0.125,0.46752924900000004,0.01,0.0,-15822.0,0.125,0.0,0.0,0.0,0.0,3.3630367650000004,0.01,0.0012207029999999897,23086.0,0.125,0.0,-0.0,0.0,0.125,1.614990069,0.01,0.0,-0.38999998569488525,-0.46000000834465027,1.090000033378601,-0.008056640625,-0.0118408203125,1.02294921875,34.40999984741211,0.0,0.0,0.612457275390625,-0.8310546875,Closing,0.0,0.0,1.0,0.0,0.0,0.0,0.0,0.0,
3.1771020000000134,0.0,0.0,52732.0,0.125,0.0,0.0,0.0,0.125,0.820312416,0.01,0.0,24716.0,0.125,0.0,-0.0,0.0,0.125,0.46752924900000004,0.01,0.0,-15822.0,0.125,0.0,0.0,0.0,0.0,3.359374656,0.01,0.0,23086.0,0.125,0.0,-0.0,0.0,0.125,1.614990069,0.01,0.0,-0.38999998569488525,-0.4699999988079071,1.100000023841858,-0.00726318359375,-0.008056640625,1.0203857421875,34.40999984741211,0.0,-2.0,0.612457275390625,-0.8310546875,Closing,0.0,0.0,1.0,0.0,0.0,0.0,0.0,0.0,
3.236665000000037,0.0,0.0,52732.0,0.125,0.0,0.0,0.0,0.25,0.821533119,0.01,4.931030297,24716.0,0.125,0.0,-0.0,0.0,0.125,0.46630854600000005,0.01,0.0,-15822.0,0.0,0.0,0.0,0.0,0.0,3.3605953590000004,0.01,-0.0012207029999999897,23086.0,0.125,0.0,-0.0,0.0,0.125,1.614990069,0.01,0.0,-0.38999998569488525,-0.4699999988079071,1.100000023841858,-0.01019287109375,-0.005126953125,1.01983642578125,34.43000030517578,0.0,-1.0,0.612457275390625,-0.8310546875,Closing,0.0,0.0,1.0,0.0,0.0,0.0,0.0,0.0,
3.293286000000022,0.0,0.0,52732.0,0.125,0.0,0.0,0.0,0.25,0.820312416,0.01,-4.931030297,24716.0,0.125,0.0,-0.0,0.0,0.125,0.46752924900000004,0.01,0.0,-15822.0,0.125,0.0,0.0,0.0,0.0,3.3630367650000004,0.01,0.0,23086.0,0.125,0.0,-0.0,0.0,0.125,1.614990069,0.01,0.0,-0.38999998569488525,-0.4699999988079071,1.100000023841858,-0.00811767578125,-0.0072021484375,1.01251220703125,34.43000030517578,0.0,0.0,0.612457275390625,-0.8310546875,Closing,0.0,0.0,1.0,0.0,0.0,0.0,0.0,0.0,
3.348642000000051,0.0,0.0,52732.0,0.125,0.0,0.0,0.0,0.125,0.820312416,0.01,0.0,24716.0,0.125,0.0,-0.0,0.0,0.125,0.46752924900000004,0.01,0.0,-15822.0,0.125,0.0,0.0,0.0,0.0,3.3630367650000004,0.01,0.0,23086.0,0.125,0.0,-0.0,0.0,0.125,1.614990069,0.01,0.0,-0.3799999952316284,-0.4699999988079071,1.1100000143051147,-0.00933837890625,-0.0069580078125,1.01239013671875,34.43000030517578,0.0,0.0,0.612457275390625,-0.8310546875,Closing,0.0,0.0,1.0,0.0,0.0,0.0,0.0,0.0,
3.4042980000000096,0.0,0.0,52732.0,0.125,0.0,0.0,0.0,0.125,0.820312416,0.01,0.0,24716.0,0.125,0.0,-0.0,0.0,0.125,0.46752924900000004,0.01,0.0,-15822.0,0.0,0.0,0.0,0.0,0.0,3.3630367650000004,0.01,0.0012207029999999897,23086.0,0.125,0.0,-0.0,0.0,0.125,1.614990069,0.01,0.0,-0.3799999952316284,-0.4699999988079071,1.1100000143051147,-0.0074462890625,-0.00457763671875,1.0172119140625,34.43000030517578,0.0,0.0,0.612457275390625,-0.8310546875,Closing,0.0,0.0,1.0,0.0,0.0,0.0,0.0,0.0,
3.4574120000000113,0.0,0.0,52732.0,0.125,0.0,0.0,0.0,0.125,0.820312416,0.01,0.0,24716.0,0.125,0.0,-0.0,0.0,0.125,0.46752924900000004,0.01,0.0,-15822.0,0.0,0.0,0.0,0.0,0.0,3.359374656,0.01,-0.0012207029999999897,23086.0,0.125,0.0,-0.0,0.0,0.125,1.614990069,0.01,0.0,-0.3799999952316284,-0.4699999988079071,1.1100000143051147,-0.0072021484375,-0.0068359375,1.01959228515625,34.43000030517578,0.0,1.0,0.612457275390625,-0.8310546875,Closing,0.0,0.0,1.0,0.0,0.0,0.0,0.0,0.0,
3.513380999999994,0.0,0.0,52732.0,0.125,0.0,0.0,0.0,0.125,0.820312416,0.01,0.0,24716.0,0.125,0.0,-0.0,0.0,0.125,0.46630854600000005,0.01,0.0,-15822.0,0.0,0.0,0.0,0.0,0.0,3.3630367650000004,0.01,0.0,23086.0,0.125,0.0,-0.0,0.0,0.125,1.616210772,0.01,0.0,-0.3799999952316284,-0.4699999988079071,1.1100000143051147,-0.00946044921875,-0.00262451171875,1.0162353515625,34.43000030517578,0.0,-1.0,0.612457275390625,-0.8310546875,Closing,0.0,0.0,1.0,0.0,0.0,0.0,0.0,0.0,
3.5704010000000124,0.0,0.0,52732.0,0.125,0.0,0.0,0.0,0.125,0.820312416,0.01,0.0,24716.0,0.125,0.0,-0.0,0.0,0.125,0.46752924900000004,0.01,0.0,-15822.0,0.125,0.0,0.0,0.0,0.0,3.3630367650000004,0.01,0.0,23086.0,0.125,0.0,-0.0,0.0,0.125,1.616210772,0.01,0.0,-0.38999998569488525,-0.4699999988079071,1.1100000143051147,-0.01043701171875,-0.007080078125,1.02264404296875,34.43000030517578,0.0,-1.0,0.612457275390625,-0.8310546875,Closing,0.0,0.0,1.0,0.0,0.0,0.0,0.0,0.0,
3.6297800000000278,0.0,0.0,52732.0,0.125,0.0,0.0,0.0,0.125,0.820312416,0.01,0.0,24716.0,0.125,0.0,-0.0,0.0,0.125,0.46752924900000004,0.01,0.0,-15822.0,0.0,0.0,0.0,0.0,0.0,3.3642574680000004,0.01,-0.0012207029999999897,23086.0,0.125,0.0,-0.0,0.0,0.125,1.614990069,0.01,0.0,-0.38999998569488525,-0.4699999988079071,1.1100000143051147,-0.00732421875,-0.00518798828125,1.018310546875,34.43000030517578,0.0,1.0,0.612457275390625,-0.8310546875,Closing,0.0,0.0,1.0,0.0,0.0,0.0,0.0,0.0,
3.68926800000004,0.0,0.0,52732.0,0.125,0.0,0.0,0.0,0.125,0.820312416,0.01,0.0,24716.0,0.125,0.0,-0.0,0.0,0.125,0.46752924900000004,0.01,0.0,-15822.0,0.125,0.0,0.0,0.0,0.0,3.3630367650000004,0.01,0.0024414059999999793,23086.0,0.125,0.0,-0.0,0.0,0.125,1.614990069,0.01,0.0,-0.3799999952316284,-0.4699999988079071,1.1200000047683716,-0.0091552734375,-0.00531005859375,1.0142822265625,34.43000030517578,0.0,0.0,0.612457275390625,-0.8310546875,Closing,0.0,0.0,1.0,0.0,0.0,0.0,0.0,0.0,
3.740235000000044,0.0,0.0,52732.0,0.125,0.0,0.0,0.0,0.25,0.820312416,0.01,0.0,24716.0,0.125,0.0,-0.0,0.0,0.125,0.46752924900000004,0.01,0.0,-15822.0,0.125,0.0,0.0,0.0,0.0,3.3630367650000004,0.01,-0.0012207029999999897,23086.0,0.125,0.0,-0.0,0.0,0.125,1.614990069,0.01,0.0,-0.3799999952316284,-0.4699999988079071,1.1200000047683716,-0.00946044921875,-0.0057373046875,1.01739501953125,34.43000030517578,0.0,-1.0,0.612457275390625,-0.8310546875,Closing,0.0,0.0,1.0,0.0,0.0,0.0,0.0,0.0,
3.7921469999999973,0.0,0.0,52732.0,0.125,0.0,0.0,0.0,0.25,0.820312416,0.01,0.0,24716.0,0.125,0.0,-0.0,0.0,0.125,0.46752924900000004,0.01,0.0,-15822.0,0.125,0.0,0.0,0.0,0.0,3.358153953,0.01,0.0012207029999999897,23086.0,0.125,0.0,-0.0,0.0,0.125,1.614990069,0.01,0.0,-0.3799999952316284,-0.4699999988079071,1.1200000047683716,-0.00933837890625,-0.0069580078125,1.01873779296875,34.439998626708984,0.0,0.0,0.612457275390625,-0.8310546875,Closing,0.0,0.0,1.0,0.0,0.0,0.0,0.0,0.0,
3.8448120000000343,0.0,0.0,52732.0,0.125,0.0,0.0,0.0,0.25,0.820312416,0.01,0.0,24716.0,0.125,0.0,-0.0,0.0,0.125,0.46752924900000004,0.01,0.0,-15822.0,0.0,0.0,0.0,0.0,0.0,3.3630367650000004,0.01,-0.0012207029999999897,23086.0,0.125,0.0,-0.0,0.0,0.125,1.614990069,0.01,0.0,-0.3799999952316284,-0.4699999988079071,1.1299999952316284,-0.0078125,-0.00994873046875,1.01885986328125,34.439998626708984,0.0,0.0,0.612457275390625,-0.8310546875,Closing,0.0,0.0,1.0,0.0,0.0,0.0,0.0,0.0,
3.8933720000000323,0.0,0.0,52732.0,0.125,0.0,0.0,0.0,0.125,0.820312416,0.01,0.0,24716.0,0.125,0.0,-0.0,0.0,0.125,0.46752924900000004,0.01,0.0,-15822.0,0.125,0.0,0.0,0.0,0.0,3.3642574680000004,0.01,-0.0012207029999999897,23086.0,0.125,0.0,-0.0,0.0,0.125,1.616210772,0.01,0.0,-0.3799999952316284,-0.4699999988079071,1.1299999952316284,-0.01116943359375,-0.0081787109375,1.01861572265625,34.439998626708984,0.0,-2.0,0.612457275390625,-0.8310546875,Closing,0.0,0.0,1.0,0.0,0.0,0.0,0.0,0.0,
3.9476469999999972,0.0,0.0,52732.0,0.125,0.0,0.0,0.0,0.125,0.820312416,0.01,0.0,24716.0,0.125,0.0,-0.0,0.0,0.125,0.46630854600000005,0.01,0.0,-15822.0,0.125,0.0,0.0,0.0,0.0,3.3630367650000004,0.01,0.0012207029999999897,23086.0,0.125,0.0,-0.0,0.0,0.125,1.614990069,0.01,0.0,-0.3700000047683716,-0.4699999988079071,1.1299999952316284,-0.00689697265625,-0.00909423828125,1.01861572265625,34.439998626708984,0.0,1.0,0.612457275390625,-0.8310546875,Closing,0.0,0.0,1.0,0.0,0.0,0.0,0.0,0.0,
3.996510000000009,0.0,0.0,52732.0,0.125,0.0,0.0,0.0,0.125,0.820312416,0.01,0.0,24716.0,0.125,0.0,-0.0,0.0,0.125,0.46630854600000005,0.01,0.0,-15822.0,0.0,0.0,0.0,0.0,0.0,3.3630367650000004,0.01,0.0,23086.0,0.125,0.0,-0.0,0.0,0.125,1.616210772,0.01,0.0,-0.3799999952316284,-0.4699999988079071,1.1299999952316284,-0.00970458984375,-0.0047607421875,1.01678466796875,34.439998626708984,0.0,-1.0,0.612457275390625,-0.8310546875,Closing,0.0,0.0,1.0,0.0,0.0,0.0,0.0,0.0,
4.051606000000029,0.0,0.0,52732.0,0.125,0.0,0.0,0.0,0.125,0.820312416,0.01,0.0,24716.0,0.125,0.0,-0.0,0.0,0.125,0.46752924900000004,0.01,0.0,-15822.0,0.0,0.0,0.0,0.0,0.0,3.3630367650000004,0.01,0.0,23086.0,0.125,0.0,-0.0,0.0,0.125,1.614990069,0.01,0.0,-0.3700000047683716,-0.4699999988079071,1.1299999952316284,-0.0068359375,-0.005615234375,1.01971435546875,34.439998626708984,0.0,1.0,0.612457275390625,-0.8310546875,Closing,0.0,0.0,1.0,0.0,0.0,0.0,0.0,0.0,
4.105179000000004,0.0,0.0,52732.0,0.125,0.0,0.0,0.0,0.25,0.820312416,0.01,4.931030297,24716.0,0.125,0.0,-0.0,0.0,0.125,0.468749952,0.01,0.0,-15822.0,0.125,0.0,0.0,0.0,0.0,3.3630367650000004,0.01,0.0,23086.0,0.125,0.0,-0.0,0.0,0.125,1.614990069,0.01,0.0,-0.3700000047683716,-0.4699999988079071,1.1399999856948853,-0.00958251953125,-0.004150390625,1.02227783203125,34.439998626708984,0.0,-1.0,0.612457275390625,-0.8310546875,Closing,0.0,0.0,1.0,0.0,0.0,0.0,0.0,0.0,
4.155064000000013,0.0,0.0,52732.0,0.125,0.0,0.0,0.0,0.125,0.820312416,0.01,-4.931030297,24716.0,0.125,0.0,-0.0,0.0,0.125,0.468749952,0.01,0.0,-15822.0,0.125,0.0,0.0,0.0,0.0,3.3630367650000004,0.01,0.0,23086.0,0.125,0.0,-0.0,0.0,0.125,1.614990069,0.01,0.0,-0.3700000047683716,-0.4699999988079071,1.1399999856948853,-0.0098876953125,-0.00506591796875,1.0223388671875,34.439998626708984,0.0,-1.0,0.612457275390625,-0.8310546875,Closing,0.0,0.0,1.0,0.0,0.0,0.0,0.0,0.0,
4.210019000000029,0.0,0.0,52732.0,0.125,0.0,0.0,0.0,0.125,0.820312416,0.01,0.0,24716.0,0.125,0.0,-0.0,0.0,0.125,0.46752924900000004,0.01,0.0,-15822.0,0.125,0.0,0.0,0.0,0.0,3.3642574680000004,0.01,0.0,23086.0,0.125,0.0,-0.0,0.0,0.125,1.616210772,0.01,0.0,-0.3700000047683716,-0.4699999988079071,1.149999976158142,-0.008544921875,-0.007568359375,1.025146484375,34.439998626708984,0.0,0.0,0.612457275390625,-0.8310546875,Closing,0.0,0.0,1.0,0.0,0.0,0.0,0.0,0.0,
4.263501000000048,0.0,0.0,52732.0,0.125,0.0,0.0,0.0,0.125,0.820312416,0.01,0.0,24716.0,0.125,0.0,-0.0,0.0,0.125,0.46630854600000005,0.01,0.0,-15822.0,0.125,0.0,0.0,0.0,0.0,3.3630367650000004,0.01,-0.0012207029999999897,23086.0,0.125,0.0,-0.0,0.0,0.125,1.614990069,0.01,0.0,-0.3700000047683716,-0.4699999988079071,1.159999966621399,-0.00640869140625,-0.0050048828125,1.02191162109375,34.38999938964844,0.0,2.0,0.612457275390625,-0.8310546875,Closing,0.0,0.0,1.0,0.0,0.0,0.0,0.0,0.0,
4.315385999999998,0.0,0.0,52732.0,0.125,0.0,0.0,0.0,0.125,0.820312416,0.01,0.0,24716.0,0.125,0.0,-0.0,0.0,0.125,0.46752924900000004,0.01,0.0,-15822.0,0.125,0.0,0.0,0.0,0.0,3.3642574680000004,0.01,0.0024414059999999793,23086.0,0.125,0.0,-0.0,0.0,0.125,1.616210772,0.01,0.0,-0.3700000047683716,-0.4699999988079071,1.159999966621399,-0.006103515625,-0.0023193359375,1.0220947265625,34.38999938964844,0.0,2.0,0.612457275390625,-0.8310546875,Closing,0.0,0.0,1.0,0.0,0.0,0.0,0.0,0.0,
4.368787000000011,0.0,0.0,52732.0,0.125,0.0,0.0,0.0,0.25,0.821533119,0.01,0.0,24716.0,0.125,0.0,-0.0,0.0,0.125,0.46752924900000004,0.01,0.0,-15822.0,0.125,0.0,0.0,0.0,0.0,3.3642574680000004,0.01,-0.0012207029999999897,23086.0,0.125,0.0,-0.0,0.0,0.125,1.614990069,0.01,0.0,-0.38999998569488525,-0.4699999988079071,1.159999966621399,-0.0186767578125,0.01959228515625,1.0045166015625,34.38999938964844,0.0,-9.0,0.612457275390625,-0.8311309814453125,Closing,0.0,0.0,1.0,0.0,0.0,0.0,0.0,0.0,
4.416570000000007,0.0,0.0,52732.0,0.125,0.0,0.0,0.0,0.25,0.820312416,0.01,0.0,24716.0,0.125,0.0,-0.0,0.0,0.125,0.46752924900000004,0.01,0.0,-15822.0,0.0,0.0,0.0,0.0,0.0,3.3630367650000004,0.01,0.0,23086.0,0.125,0.0,-0.0,0.0,0.125,1.614990069,0.01,0.0,-0.38999998569488525,-0.4699999988079071,1.190000057220459,0.01025390625,0.0159912109375,1.02618408203125,34.38999938964844,0.0,19.0,0.612457275390625,-0.8311309814453125,Closing,0.0,0.0,1.0,0.0,0.0,0.0,0.0,0.0,
4.468994999999995,0.0,0.0,52732.0,0.125,0.0,0.0,0.0,0.125,0.820312416,0.01,0.0,24716.0,0.125,0.0,-0.0,0.0,0.125,0.46752924900000004,0.01,0.0,-15822.0,0.125,0.0,0.0,0.0,0.0,3.3618160620000004,0.01,0.0,23086.0,0.125,0.0,-0.0,0.0,0.125,1.616210772,0.01,0.0,-0.36000001430511475,-0.46000000834465027,1.2000000476837158,-0.0152587890625,0.019287109375,1.0399169921875,34.38999938964844,0.0,-6.0,0.612457275390625,-0.83099365234375,Closing,0.0,0.0,1.0,0.0,0.0,0.0,0.0,0.0,
4.516774000000034,0.0,0.0,52732.0,0.125,0.0,0.0,0.0,0.25,0.820312416,0.01,0.0,24716.0,0.125,0.0,-0.0,0.0,0.125,0.46752924900000004,0.01,0.0,-15822.0,0.0,0.0,0.0,0.0,0.0,3.3642574680000004,0.01,0.0,23086.0,0.125,0.0,-0.0,0.0,0.125,1.614990069,0.01,0.0,-0.3700000047683716,-0.4699999988079071,1.190000057220459,0.00103759765625,0.0059814453125,1.05560302734375,34.38999938964844,0.0,10.0,0.612457275390625,-0.8308258056640625,Closing,0.0,0.0,1.0,0.0,0.0,0.0,0.0,0.0,
4.5697180000000515,0.0,0.0,52732.0,0.125,0.0,0.0,0.0,0.25,0.820312416,0.01,0.0,24716.0,0.125,0.0,-0.0,0.0,0.125,0.46630854600000005,0.01,0.0,-15822.0,0.125,0.0,0.0,0.0,0.0,3.3642574680000004,0.01,4.9379585939999995,23086.0,0.125,0.0,-0.0,0.0,0.125,1.614990069,0.01,0.0,-0.3700000047683716,-0.4699999988079071,1.2000000476837158,0.02197265625,-0.02685546875,1.001220703125,34.38999938964844,0.0,29.0,0.612548828125,-0.830963134765625,Closing,0.0,0.0,1.0,0.0,0.0,0.0,0.0,0.0,
4.622861000000033,0.0,0.0,52732.0,0.125,0.0,0.0,0.0,0.25,0.820312416,0.01,0.0,24716.0,0.125,0.0,-0.0,0.0,0.125,0.46630854600000005,0.01,0.0,-15822.0,0.125,0.0,0.0,0.0,0.0,3.3630367650000004,0.01,-4.936737891,23086.0,0.125,0.0,-0.0,0.0,0.125,1.614990069,0.01,0.0,-0.3400000035762787,-0.46000000834465027,1.190000057220459,-0.02294921875,1.220703125E-4,0.99591064453125,34.38999938964844,0.0,-14.0,0.61260986328125,-0.831146240234375,Closing,0.0,0.0,1.0,0.0,0.0,0.0,0.0,0.0,
4.674376000000048,0.0,0.0,52732.0,0.125,0.0,0.0,0.0,0.25,0.820312416,0.01,0.0,24716.0,0.125,0.0,-0.0,0.0,0.125,0.46752924900000004,0.01,0.0,-15822.0,0.0,0.0,0.0,0.0,0.0,3.3630367650000004,0.01,0.0,23086.0,0.125,0.0,-0.0,0.0,0.125,1.616210772,0.01,0.0,-0.3400000035762787,-0.46000000834465027,1.1799999475479126,-0.00140380859375,0.02801513671875,1.00323486328125,34.38999938964844,0.0,7.0,0.61260986328125,-0.8311309814453125,Closing,0.0,0.0,1.0,0.0,0.0,0.0,0.0,0.0,
4.730687000000034,0.0,0.0,52732.0,0.125,0.0,0.0,0.0,0.25,0.820312416,0.01,0.0,24716.0,0.125,0.0,-0.0,0.0,0.125,0.46630854600000005,0.01,0.0,-15822.0,0.125,0.0,0.0,0.0,0.0,3.3630367650000004,0.01,-0.0012207029999999897,23086.0,0.125,0.0,-0.0,0.0,0.125,1.614990069,0.01,0.0,-0.36000001430511475,-0.44999998807907104,1.1799999475479126,-0.0125732421875,0.04376220703125,1.048828125,34.38999938964844,0.0,-3.0,0.6125946044921875,-0.8309783935546875,Closing,0.0,0.0,1.0,0.0,0.0,0.0,0.0,0.0,
4.783817000000039,0.0,0.0,52732.0,0.125,0.0,0.0,0.0,0.125,0.820312416,0.01,0.0,24716.0,0.125,0.0,-0.0,0.0,0.125,0.468749952,0.01,0.0,-15822.0,0.125,0.0,0.0,0.0,0.0,3.358153953,0.01,-0.0012207029999999897,23086.0,0.125,0.0,-0.0,0.0,0.125,1.614990069,0.01,0.0,-0.3499999940395355,-0.44999998807907104,1.190000057220459,-0.01507568359375,-0.0313720703125,1.02392578125,34.459999084472656,0.0,-7.0,0.6125946044921875,-0.830810546875,Closing,0.0,0.0,1.0,0.0,0.0,0.0,0.0,0.0,
4.837505999999994,0.0,0.0,52732.0,0.125,0.0,0.0,0.0,0.125,0.820312416,0.01,0.0,24716.0,0.125,0.0,-0.0,0.0,0.125,0.46752924900000004,0.01,0.0,-15822.0,0.0,0.0,0.0,0.0,0.0,3.3642574680000004,0.01,0.0,23086.0,0.125,0.0,-0.0,0.0,0.125,1.614990069,0.01,0.0,-0.36000001430511475,-0.46000000834465027,1.190000057220459,-0.0147705078125,-0.00872802734375,1.02374267578125,34.459999084472656,0.0,-6.0,0.6125946044921875,-0.830902099609375,Closing,0.0,0.0,1.0,0.0,0.0,0.0,0.0,0.0,
4.891342000000004,0.0,0.0,52732.0,0.125,0.0,0.0,0.0,0.125,0.820312416,0.01,0.0,24716.0,0.125,0.0,-0.0,0.0,0.125,0.46630854600000005,0.01,0.0,-15822.0,0.125,0.0,0.0,0.0,0.0,3.3642574680000004,0.01,0.0024414059999999793,23086.0,0.125,0.0,-0.0,0.0,0.125,1.616210772,0.01,0.0,-0.3499999940395355,-0.46000000834465027,1.190000057220459,-0.0086669921875,-5.4931640625E-4,1.02203369140625,34.459999084472656,0.0,0.0,0.6125946044921875,-0.830902099609375,Closing,0.0,0.0,1.0,0.0,0.0,0.0,0.0,0.0,
4.942930000000051,0.0,0.0,52732.0,0.125,0.0,0.0,0.0,0.125,0.821533119,0.01,0.0,24716.0,0.125,0.0,-0.0,0.0,0.125,0.46752924900000004,0.01,0.0,-15822.0,0.125,0.0,0.0,0.0,0.0,3.3630367650000004,0.01,-0.0012207029999999897,23086.0,0.125,0.0,-0.0,0.0,0.125,1.616210772,0.01,0.0,-0.36000001430511475,-0.4399999976158142,1.2000000476837158,-0.008056640625,-0.02484130859375,1.00177001953125,34.459999084472656,0.0,0.0,0.6125946044921875,-0.830902099609375,Closing,0.0,0.0,1.0,0.0,0.0,0.0,0.0,0.0,
4.992717000000004,0.0,0.0,52732.0,0.125,0.0,0.0,0.0,0.25,0.820312416,0.01,0.0,24716.0,0.125,0.0,-0.0,0.0,0.125,0.46630854600000005,0.01,0.0,-15822.0,0.0,0.0,0.0,0.0,0.0,3.3630367650000004,0.01,0.0,23086.0,0.125,0.0,-0.0,0.0,0.125,1.614990069,0.01,0.0,-0.36000001430511475,-0.46000000834465027,1.2000000476837158,-0.00299072265625,-0.005859375,1.02362060546875,34.459999084472656,0.0,5.0,0.6125946044921875,-0.8308563232421875,Closing,0.0,0.0,1.0,0.0,0.0,0.0,0.0,0.0,
5.0449880000000125,0.0,0.0,52732.0,0.125,0.0,0.0,0.0,0.125,0.820312416,0.01,0.0,24716.0,0.125,0.0,-0.0,0.0,0.125,0.46630854600000005,0.01,0.0,-15822.0,0.125,0.0,0.0,0.0,0.0,3.3630367650000004,0.01,0.0,23086.0,0.125,0.0,-0.0,0.0,0.125,1.614990069,0.01,0.0,-0.3499999940395355,-0.46000000834465027,1.2100000381469727,-0.003173828125,-0.00115966796875,1.0247802734375,34.459999084472656,0.0,5.0,0.6125946044921875,-0.8308563232421875,Closing,0.0,0.0,1.0,0.0,0.0,0.0,0.0,0.0,
5.091232000000018,0.0,0.0,52732.0,0.125,0.0,0.0,0.0,0.125,0.820312416,0.01,0.0,24716.0,0.125,0.0,-0.0,0.0,0.125,0.46752924900000004,0.01,0.0,-15822.0,0.0,0.0,0.0,0.0,0.0,3.358153953,0.01,0.0,23086.0,0.125,0.0,-0.0,0.0,0.125,1.614990069,0.01,0.0,-0.3499999940395355,-0.4399999976158142,1.2100000381469727,9.1552734375E-4,-0.0023193359375,1.01824951171875,34.459999084472656,0.0,8.0,0.6125946044921875,-0.8308563232421875,Closing,0.0,0.0,1.0,0.0,0.0,0.0,0.0,0.0,
5.1435500000000465,0.0,0.0,52732.0,0.125,0.0,0.0,0.0,0.125,0.820312416,0.01,0.0,24716.0,0.125,0.0,-0.0,0.0,0.125,0.46752924900000004,0.01,0.0,-15822.0,0.125,0.0,0.0,0.0,0.0,3.3618160620000004,0.01,0.0,23086.0,0.125,0.0,-0.0,0.0,0.125,1.616210772,0.01,0.0,-0.36000001430511475,-0.44999998807907104,1.2100000381469727,-0.00872802734375,-0.0111083984375,1.01019287109375,34.459999084472656,0.0,0.0,0.6125946044921875,-0.8308563232421875,Closing,0.0,0.0,1.0,0.0,0.0,0.0,0.0,0.0,
5.194413000000001,0.0,0.0,52732.0,0.125,0.0,0.0,0.0,0.125,0.820312416,0.01,0.0,24716.0,0.125,0.0,-0.0,0.0,0.125,0.46752924900000004,0.01,0.0,-15822.0,0.0,0.0,0.0,0.0,0.0,3.3630367650000004,0.01,0.0,23086.0,0.125,0.0,-0.0,0.0,0.125,1.614990069,0.01,0.0,-0.3499999940395355,-0.46000000834465027,1.2100000381469727,-0.0068359375,0.00115966796875,1.02203369140625,34.459999084472656,0.0,1.0,0.6125946044921875,-0.8308563232421875,Closing,0.0,0.0,1.0,0.0,0.0,0.0,0.0,0.0,
5.248813000000024,0.0,0.0,52732.0,0.125,0.0,0.0,0.0,0.125,0.820312416,0.01,0.0,24716.0,0.125,0.0,-0.0,0.0,0.125,0.46630854600000005,0.01,0.0,-15822.0,0.0,0.0,0.0,0.0,0.0,3.358153953,0.01,-0.0012207029999999897,23086.0,0.125,0.0,-0.0,0.0,0.125,1.614990069,0.01,0.0,-0.3499999940395355,-0.44999998807907104,1.2100000381469727,-0.0076904296875,-0.0098876953125,1.01507568359375,34.459999084472656,0.0,0.0,0.6125946044921875,-0.8308563232421875,Closing,0.0,0.0,1.0,0.0,0.0,0.0,0.0,0.0,
5.297302000000025,0.0,0.0,52732.0,0.125,0.0,0.0,0.0,0.125,0.820312416,0.01,0.0,24716.0,0.125,0.0,-0.0,0.0,0.125,0.46752924900000004,0.01,0.0,-15822.0,0.0,0.0,0.0,0.0,0.0,3.358153953,0.01,0.0,23086.0,0.125,0.0,-0.0,0.0,0.125,1.614990069,0.01,0.0,-0.36000001430511475,-0.44999998807907104,1.2200000286102295,-0.009765625,-0.00335693359375,1.02191162109375,34.40999984741211,0.0,-1.0,0.6125946044921875,-0.8308563232421875,Closing,0.0,0.0,1.0,0.0,0.0,0.0,0.0,0.0,
5.351371000000043,0.0,0.0,52732.0,0.125,0.0,0.0,0.0,0.25,0.820312416,0.01,0.0,24716.0,0.125,0.0,-0.0,0.0,0.125,0.46752924900000004,0.01,0.0,-15822.0,0.125,0.0,0.0,0.0,0.0,3.3630367650000004,0.01,-0.0012207029999999897,23086.0,0.125,0.0,-0.0,0.0,0.125,1.614990069,0.01,0.0,-0.3499999940395355,-0.44999998807907104,1.2200000286102295,-0.0103759765625,-0.005126953125,1.0203857421875,34.40999984741211,0.0,-2.0,0.6125946044921875,-0.8308563232421875,Closing,0.0,0.0,1.0,0.0,0.0,0.0,0.0,0.0,
5.4025690000000175,0.0,0.0,52732.0,0.125,0.0,0.0,0.0,0.25,0.820312416,0.01,0.0,24716.0,0.125,0.0,-0.0,0.0,0.125,0.46752924900000004,0.01,0.0,-15822.0,0.125,0.0,0.0,0.0,0.0,3.3618160620000004,0.01,0.0024414059999999793,23086.0,0.125,0.0,-0.0,0.0,0.125,1.614990069,0.01,0.0,-0.36000001430511475,-0.44999998807907104,1.2200000286102295,-0.009033203125,-0.0062255859375,1.02069091796875,34.40999984741211,0.0,0.0,0.6125946044921875,-0.8308563232421875,Closing,0.0,0.0,1.0,0.0,0.0,0.0,0.0,0.0,
5.454474000000046,0.0,0.0,52732.0,0.125,0.0,0.0,0.0,0.125,0.820312416,0.01,0.0,24716.0,0.125,0.0,-0.0,0.0,0.125,0.46752924900000004,0.01,0.0,-15822.0,0.0,0.0,0.0,0.0,0.0,3.3642574680000004,0.01,0.0,23086.0,0.125,0.0,-0.0,0.0,0.125,1.614990069,0.01,0.0,-0.36000001430511475,-0.44999998807907104,1.2200000286102295,-0.0052490234375,-0.00457763671875,1.01910400390625,34.40999984741211,0.0,2.0,0.6125946044921875,-0.8308563232421875,Closing,0.0,0.0,1.0,0.0,0.0,0.0,0.0,0.0,
5.509963000000047,0.0,0.0,52732.0,0.125,0.0,0.0,0.0,0.25,0.820312416,0.01,0.0,24716.0,0.125,0.0,-0.0,0.0,0.125,0.46752924900000004,0.01,0.0,-15822.0,0.0,0.0,0.0,0.0,0.0,3.3642574680000004,0.01,0.0,23086.0,0.125,0.0,-0.0,0.0,0.125,1.614990069,0.01,0.0,-0.36000001430511475,-0.44999998807907104,1.2300000190734863,-0.00897216796875,-0.009765625,1.01837158203125,34.40999984741211,0.0,0.0,0.6125946044921875,-0.8308563232421875,Closing,0.0,0.0,1.0,0.0,0.0,0.0,0.0,0.0,
5.557907000000006,0.0,0.0,52732.0,0.125,0.0,0.0,0.0,0.25,0.820312416,0.01,0.0,24716.0,0.125,0.0,-0.0,0.0,0.125,0.46752924900000004,0.01,0.0,-15822.0,0.0,0.0,0.0,0.0,0.0,3.3642574680000004,0.01,0.0,23086.0,0.125,0.0,-0.0,0.0,0.125,1.614990069,0.01,0.0,-0.36000001430511475,-0.44999998807907104,1.2300000190734863,-0.00531005859375,-0.0074462890625,1.02008056640625,34.40999984741211,0.0,2.0,0.6125946044921875,-0.8308563232421875,Closing,0.0,0.0,1.0,0.0,0.0,0.0,0.0,0.0,
5.611376000000048,0.0,0.0,52732.0,0.125,0.0,0.0,0.0,0.125,0.820312416,0.01,0.0,24716.0,0.125,0.0,-0.0,0.0,0.125,0.46752924900000004,0.01,0.0,-15822.0,0.125,0.0,0.0,0.0,0.0,3.3630367650000004,0.01,0.0,23086.0,0.125,0.0,-0.0,0.0,0.125,1.614990069,0.01,0.0,-0.3499999940395355,-0.44999998807907104,1.2300000190734863,-0.009765625,-0.005859375,1.01708984375,34.40999984741211,0.0,-1.0,0.6125946044921875,-0.8308563232421875,Closing,0.0,0.0,1.0,0.0,0.0,0.0,0.0,0.0,
5.657358000000007,0.0,0.0,52732.0,0.125,0.0,0.0,0.0,0.125,0.820312416,0.01,0.0,24716.0,0.125,0.0,-0.0,0.0,0.125,0.46752924900000004,0.01,0.0,-15822.0,0.0,0.0,0.0,0.0,0.0,3.3630367650000004,0.01,0.0,23086.0,0.125,0.0,-0.0,0.0,0.125,1.614990069,0.01,0.0,-0.36000001430511475,-0.44999998807907104,1.2300000190734863,-0.0106201171875,-0.00732421875,1.02044677734375,34.40999984741211,0.0,-2.0,0.6125946044921875,-0.8308563232421875,Closing,0.0,0.0,1.0,0.0,0.0,0.0,0.0,0.0,
5.710423000000009,0.0,0.0,52732.0,0.125,0.0,0.0,0.0,0.25,0.820312416,0.01,0.0,24716.0,0.125,0.0,-0.0,0.0,0.125,0.46752924900000004,0.01,0.0,-15822.0,0.0,0.0,0.0,0.0,0.0,3.3630367650000004,0.01,0.0,23086.0,0.125,0.0,-0.0,0.0,0.125,1.614990069,0.01,0.0,-0.36000001430511475,-0.44999998807907104,1.2300000190734863,-0.00823974609375,-0.0069580078125,1.017578125,34.40999984741211,0.0,0.0,0.6125946044921875,-0.8308563232421875,Closing,0.0,0.0,1.0,0.0,0.0,0.0,0.0,0.0,
5.759438000000023,0.0,0.0,52732.0,0.125,0.0,0.0,0.0,0.25,0.820312416,0.01,0.0,24716.0,0.125,0.0,-0.0,0.0,0.125,0.46752924900000004,0.01,0.0,-15822.0,0.0,0.0,0.0,0.0,0.0,3.3642574680000004,0.01,0.0,23086.0,0.125,0.0,-0.0,0.0,0.125,1.614990069,0.01,0.0,-0.3499999940395355,-0.44999998807907104,1.2300000190734863,-0.00537109375,-0.00738525390625,1.01947021484375,34.40999984741211,0.0,2.0,0.6125946044921875,-0.8308563232421875,Closing,0.0,0.0,1.0,0.0,0.0,0.0,0.0,0.0,
5.811252000000037,0.0,0.0,52732.0,0.125,0.0,0.0,0.0,0.125,0.820312416,0.01,4.931030297,24716.0,0.125,0.0,-0.0,0.0,0.125,0.46752924900000004,0.01,0.0,-15822.0,0.125,0.0,0.0,0.0,0.0,3.3630367650000004,0.01,-0.0012207029999999897,23086.0,0.125,0.0,-0.0,0.0,0.125,1.616210772,0.01,0.0,-0.3499999940395355,-0.44999998807907104,1.2300000190734863,-0.00830078125,-0.0076904296875,1.01751708984375,34.400001525878906,0.0,0.0,0.6125946044921875,-0.8308563232421875,Closing,0.0,0.0,1.0,0.0,0.0,0.0,0.0,0.0,
5.8608830000000305,0.0,0.0,52732.0,0.125,0.0,0.0,0.0,0.125,0.820312416,0.01,-4.931030297,24716.0,0.125,0.0,-0.0,0.0,0.125,0.46752924900000004,0.01,0.0,-15822.0,0.125,0.0,0.0,0.0,0.0,3.3642574680000004,0.01,0.0,23086.0,0.125,0.0,-0.0,0.0,0.125,1.616210772,0.01,0.0,-0.3499999940395355,-0.44999998807907104,1.2400000095367432,-0.009521484375,-0.0072021484375,1.01898193359375,34.400001525878906,0.0,0.0,0.6125946044921875,-0.8308563232421875,Closing,0.0,0.0,1.0,0.0,0.0,0.0,0.0,0.0,
5.9150800000000165,0.0,0.0,52732.0,0.125,0.0,0.0,0.0,0.125,0.820312416,0.01,0.0,24716.0,0.125,0.0,-0.0,0.0,0.125,0.46630854600000005,0.01,0.0,-15822.0,0.125,0.0,0.0,0.0,0.0,3.3630367650000004,0.01,0.0012207029999999897,23086.0,0.125,0.0,-0.0,0.0,0.125,1.614990069,0.01,0.0,-0.36000001430511475,-0.4399999976158142,1.2400000095367432,-0.00408935546875,-0.007568359375,1.02337646484375,34.400001525878906,0.0,3.0,0.6125946044921875,-0.8308563232421875,Closing,0.0,0.0,1.0,0.0,0.0,0.0,0.0,0.0,
5.970213000000047,0.0,0.0,52732.0,0.125,0.0,0.0,0.0,0.125,0.820312416,0.01,0.0,24716.0,0.125,0.0,-0.0,0.0,0.125,0.46752924900000004,0.01,0.0,-15822.0,0.0,0.0,0.0,0.0,0.0,3.3630367650000004,0.01,-0.0024414059999999793,23086.0,0.125,0.0,-0.0,0.0,0.125,1.616210772,0.01,0.0,-0.3499999940395355,-0.4399999976158142,1.25,-0.00897216796875,-0.00439453125,1.017822265625,34.400001525878906,0.0,0.0,0.6125946044921875,-0.8308563232421875,Closing,0.0,0.0,1.0,0.0,0.0,0.0,0.0,0.0,
6.027423999999999,0.0,0.0,52732.0,0.125,0.0,0.0,0.0,0.125,0.819091713,0.01,0.0,24716.0,0.125,0.0,-0.0,0.0,0.125,0.46630854600000005,0.01,0.0,-15822.0,0.0,0.0,0.0,0.0,0.0,3.3630367650000004,0.01,0.0024414059999999793,23086.0,0.125,0.0,-0.0,0.0,0.125,1.614990069,0.01,0.0,-0.3499999940395355,-0.44999998807907104,1.25,-0.00238037109375,-0.0078125,1.02099609375,34.400001525878906,0.0,5.0,0.6125946044921875,-0.8308563232421875,Closing,0.0,0.0,1.0,0.0,0.0,0.0,0.0,0.0,
6.075632000000041,0.0,0.0,52732.0,0.125,0.0,0.0,0.0,0.125,0.820312416,0.01,0.0,24716.0,0.125,0.0,-0.0,0.0,0.125,0.46752924900000004,0.01,0.0,-15822.0,0.125,0.0,0.0,0.0,0.0,3.3642574680000004,0.01,-0.0024414059999999793,23086.0,0.125,0.0,-0.0,0.0,0.25,1.614990069,0.01,0.0,-0.36000001430511475,-0.4399999976158142,1.25,-0.00653076171875,-0.00604248046875,1.02239990234375,34.400001525878906,0.0,1.0,0.6125946044921875,-0.8308563232421875,Closing,0.0,0.0,1.0,0.0,0.0,0.0,0.0,0.0,
6.128869000000006,0.0,0.0,52732.0,0.125,0.0,0.0,0.0,0.25,0.820312416,0.01,0.0,24716.0,0.125,0.0,-0.0,0.0,0.125,0.46630854600000005,0.01,0.0,-15822.0,0.0,0.0,0.0,0.0,0.0,3.3642574680000004,0.01,0.0024414059999999793,23086.0,0.125,0.0,-0.0,0.0,0.125,1.614990069,0.01,0.0,-0.3499999940395355,-0.4399999976158142,1.25,-0.00714111328125,-0.00677490234375,1.0242919921875,34.400001525878906,0.0,0.0,0.6125946044921875,-0.8308563232421875,Closing,0.0,0.0,1.0,0.0,0.0,0.0,0.0,0.0,
6.1812080000000424,0.0,0.0,52732.0,0.125,0.0,0.0,0.0,0.125,0.820312416,0.01,0.0,24716.0,0.125,0.0,-0.0,0.0,0.125,0.46630854600000005,0.01,0.0,-15822.0,0.125,0.0,0.0,0.0,0.0,3.3630367650000004,0.01,0.0,23086.0,0.125,0.0,-0.0,0.0,0.125,1.614990069,0.01,0.0,-0.3499999940395355,-0.44999998807907104,1.25,-0.0072021484375,-0.00762939453125,1.017822265625,34.400001525878906,0.0,0.0,0.6125946044921875,-0.8308563232421875,Closing,0.0,0.0,1.0,0.0,0.0,0.0,0.0,0.0,
6.234502000000036,0.0,0.0,52732.0,0.125,0.0,0.0,0.0,0.25,0.820312416,0.01,0.0,24716.0,0.125,0.0,-0.0,0.0,0.125,0.46752924900000004,0.01,0.0,-15822.0,0.125,0.0,0.0,0.0,0.0,3.3642574680000004,0.01,-0.0024414059999999793,23086.0,0.125,0.0,-0.0,0.0,0.125,1.616210772,0.01,0.0,-0.3499999940395355,-0.44999998807907104,1.25,-0.00250244140625,-0.00628662109375,1.02093505859375,34.400001525878906,0.0,5.0,0.6125946044921875,-0.8308563232421875,Closing,0.0,0.0,1.0,0.0,0.0,0.0,0.0,0.0,
6.289637000000046,0.0,0.0,52732.0,0.125,0.0,0.0,0.0,0.125,0.820312416,0.01,0.0,24716.0,0.125,0.0,-0.0,0.0,0.125,0.46630854600000005,0.01,0.0,-15822.0,0.125,0.0,0.0,0.0,0.0,3.359374656,0.01,0.0024414059999999793,23086.0,0.125,0.0,-0.0,0.0,0.125,1.614990069,0.01,0.0,-0.36000001430511475,-0.4399999976158142,1.2599999904632568,-0.00823974609375,-0.00762939453125,1.00994873046875,34.400001525878906,0.0,0.0,0.6125946044921875,-0.8308563232421875,Closing,0.0,0.0,1.0,0.0,0.0,0.0,0.0,0.0,
6.344610000000044,0.0,0.0,52732.0,0.125,0.0,0.0,0.0,0.25,0.820312416,0.01,0.0,24716.0,0.125,0.0,-0.0,0.0,0.125,0.46752924900000004,0.01,0.0,-15822.0,0.0,0.0,0.0,0.0,0.0,3.3630367650000004,0.01,-0.0024414059999999793,23086.0,0.125,0.0,-0.0,0.0,0.125,1.616210772,0.01,0.0,-0.36000001430511475,-0.4399999976158142,1.2599999904632568,-0.00531005859375,-0.0074462890625,1.016357421875,34.41999816894531,0.0,2.0,0.6125946044921875,-0.8308563232421875,Closing,0.0,0.0,1.0,0.0,0.0,0.0,0.0,0.0,
6.392505999999994,0.0,0.0,52732.0,0.125,0.0,0.0,0.0,0.25,0.820312416,0.01,0.0,24716.0,0.125,0.0,-0.0,0.0,0.125,0.46752924900000004,0.01,0.0,-15822.0,0.125,0.0,0.0,0.0,0.0,3.3630367650000004,0.01,0.0,23086.0,0.125,0.0,-0.0,0.0,0.125,1.614990069,0.01,0.0,-0.36000001430511475,-0.4399999976158142,1.2599999904632568,-0.00933837890625,-0.005859375,1.01922607421875,34.41999816894531,0.0,-1.0,0.6125946044921875,-0.8308563232421875,Closing,0.0,0.0,1.0,0.0,0.0,0.0,0.0,0.0,
6.4450140000000244,0.0,0.0,52732.0,0.125,0.0,0.0,0.0,0.125,0.820312416,0.01,0.0,24716.0,0.125,0.0,-0.0,0.0,0.125,0.46752924900000004,0.01,0.0,-15822.0,0.125,0.0,0.0,0.0,0.0,3.3630367650000004,0.01,0.0024414059999999793,23086.0,0.125,0.0,-0.0,0.0,0.125,1.614990069,0.01,0.0,-0.36000001430511475,-0.4399999976158142,1.2599999904632568,-0.00732421875,-0.00738525390625,1.0196533203125,34.41999816894531,0.0,0.0,0.6125946044921875,-0.8308563232421875,Closing,0.0,0.0,1.0,0.0,0.0,0.0,0.0,0.0,
6.494046000000031,0.0,0.0,52732.0,0.125,0.0,0.0,0.0,0.25,0.819091713,0.01,0.0,24716.0,0.125,0.0,-0.0,0.0,0.125,0.46752924900000004,0.01,0.0,-15822.0,0.125,0.0,0.0,0.0,0.0,3.3630367650000004,0.01,0.0,23086.0,0.125,0.0,-0.0,0.0,0.125,1.614990069,0.01,0.0,-0.36000001430511475,-0.4399999976158142,1.2699999809265137,-0.0059814453125,-0.00787353515625,1.0181884765625,34.41999816894531,0.0,1.0,0.6125946044921875,-0.8308563232421875,Closing,0.0,0.0,1.0,0.0,0.0,0.0,0.0,0.0,
6.548567000000039,0.0,0.0,52732.0,0.125,0.0,0.0,0.0,0.25,0.820312416,0.01,0.0,24716.0,0.125,0.0,-0.0,0.0,0.125,0.46630854600000005,0.01,0.0,-15822.0,0.0,0.0,0.0,0.0,0.0,3.3630367650000004,0.01,-0.0012207029999999897,23086.0,0.125,0.0,-0.0,0.0,0.125,1.614990069,0.01,0.0,-0.36000001430511475,-0.4399999976158142,1.2699999809265137,-0.00787353515625,-0.0087890625,1.01983642578125,34.41999816894531,0.0,0.0,0.6125946044921875,-0.8308563232421875,Closing,0.0,0.0,1.0,0.0,0.0,0.0,0.0,0.0,
