Time,ClimberA1,ClimberA2,FRpos,FRCurrent,FRspeed,FRsetpoint,FRApos,FRACurrent,FREncpos,FREncSetpoint,FREncSpeed,FLpos,FLCurrent,FLspeed,FLsetpoint,FLApos,FLACurrent,FLEncpos,FLEncSetpoint,FLEncSpeed,BRpos,BRCurrent,BRspeed,BRsetpoint,BRApos,BRACurrent,BREncpos,BREncSetpoint,BREncSpeed,BLpos,BLCurrent,BLspeed,BLsetpoint,BLApos,BLACurrent,BLEncpos,BLEncSetpoint,BLEncSpeed,navx_Pitch,navx_Roll,navx_Yaw,navx_XAcc,navx_YAcc,navx_ZAcc,navx_Temp,navx_Bar,navx_Alt,navx_XDis,navx_YDis,GearPlacerState,ShootOutputV,ShootOutputCurrent,ShootEncPos,ShootEncVelocity,ShootSpeed,ShootSetpoint,CarouselSetpoint,CarouselCurrent,
0.18210900000005495,0.0,0.0,41151.0,0.0,0.0,0.0,0.0,0.125,1.380615093,0.5498168668524864,0.0,38161.0,0.0,0.0,0.0,0.0,0.125,4.830321771,4.41043958977222,0.0,-2098.0,0.0,0.0,0.0,0.0,0.0,2.7893063550000003,4.389674732977291,0.0,40689.0,0.125,0.0,0.0,0.0,0.25,2.183837667,0.5526872062785609,0.0,0.38999998569488525,-1.1799999475479126,0.009999999776482582,-0.023193359375,0.00982666015625,1.02142333984375,34.11000061035156,0.0,-2.0,1.6460113525390625,0.2784881591796875,Waiting,0.0,0.0,1.0,0.0,0.0,0.0,0.0,0.0,
0.23274200000002748,0.0,0.0,41151.0,0.0,0.0,0.0,0.0,0.125,1.381835796,0.5498168668524864,0.0,38161.0,0.0,0.0,0.0,0.0,0.125,4.829101068,4.41043958977222,0.0,-2098.0,0.0,0.0,0.0,0.0,0.0,2.7893063550000003,4.389674732977291,0.0,40689.0,0.125,0.0,0.0,0.0,0.25,2.18505837,0.5526872062785609,0.0,0.3799999952316284,-1.1799999475479126,0.009999999776482582,-0.02008056640625,0.0020751953125,1.01971435546875,34.11000061035156,0.0,1.0,1.6460113525390625,0.2784881591796875,Waiting,0.0,0.0,1.0,0.0,0.0,0.0,0.0,0.0,
0.27050400000001534,0.0,0.0,41151.0,0.0,0.0,0.0,0.0,0.125,1.380615093,0.5498168668524864,0.0,38161.0,0.0,0.0,0.0,0.0,0.125,4.830321771,4.41043958977222,0.0,-2098.0,0.0,0.0,0.0,0.0,0.0,2.7893063550000003,4.389674732977291,0.0,40689.0,0.125,0.0,0.0,0.0,0.25,2.183837667,0.5526872062785609,0.0,0.3799999952316284,-1.1799999475479126,0.019999999552965164,-0.02032470703125,0.0057373046875,1.02197265625,34.11000061035156,0.0,0.0,1.6460113525390625,0.2784881591796875,Waiting,0.0,0.0,1.0,0.0,0.0,0.0,0.0,0.0,
0.31175,0.0,0.0,41151.0,0.0,0.0,0.0,0.0,0.125,1.381835796,0.5498168668524864,0.0,38161.0,0.0,0.0,0.0,0.0,0.125,4.829101068,4.41043958977222,0.0,-2098.0,0.0,0.0,0.0,0.0,0.0,2.7893063550000003,4.389674732977291,0.0,40689.0,0.125,0.0,0.0,0.0,0.25,2.183837667,0.5526872062785609,0.0,0.3700000047683716,-1.1799999475479126,0.009999999776482582,-0.01934814453125,0.00421142578125,1.0181884765625,34.11000061035156,0.0,1.0,1.6460113525390625,0.2784881591796875,Waiting,0.0,0.0,1.0,0.0,0.0,0.0,0.0,0.0,
0.3517719999999972,0.0,0.0,41151.0,0.0,0.0,0.0,0.0,0.125,1.380615093,0.5498168668524864,0.0,38161.0,0.0,0.0,0.0,0.0,0.125,4.830321771,4.41043958977222,0.0,-2098.0,0.0,0.0,0.0,0.0,0.0,2.7893063550000003,4.389674732977291,0.0,40689.0,0.125,0.0,0.0,0.0,0.25,2.183837667,0.5526872062785609,0.0,0.3700000047683716,-1.1799999475479126,0.009999999776482582,-0.0228271484375,0.0069580078125,1.01849365234375,34.11000061035156,0.0,-1.0,1.6460113525390625,0.2784881591796875,Waiting,0.0,0.0,1.0,0.0,0.0,0.0,0.0,0.0,
0.39295700000005307,0.0,0.0,41151.0,0.0,0.0,0.0,0.0,0.125,1.381835796,0.5498168668524864,0.0,38161.0,0.0,0.0,0.0,0.0,0.125,4.831542474,4.41043958977222,0.0,-2098.0,0.0,0.0,0.0,0.0,0.0,2.7893063550000003,4.389674732977291,0.0,40689.0,0.125,0.0,0.0,0.0,0.25,2.183837667,0.5526872062785609,0.0,0.3700000047683716,-1.1799999475479126,0.009999999776482582,-0.0228271484375,0.0069580078125,1.01849365234375,34.11000061035156,0.0,-1.0,1.6460113525390625,0.2784881591796875,Waiting,0.0,0.0,1.0,0.0,0.0,0.0,0.0,0.0,
0.432875,0.0,0.0,41151.0,0.0,0.0,0.0,0.0,0.125,1.380615093,0.5498168668524864,0.0,38161.0,0.0,0.0,0.0,0.0,0.125,4.829101068,4.41043958977222,0.0,-2098.0,0.0,0.0,0.0,0.0,0.0,2.7893063550000003,4.389674732977291,0.0,40689.0,0.125,0.0,0.0,0.0,0.25,2.183837667,0.5526872062785609,0.0,0.3799999952316284,-1.1799999475479126,0.009999999776482582,-0.02490234375,0.00408935546875,1.01751708984375,34.11000061035156,0.0,-3.0,1.6460113525390625,0.2784881591796875,Waiting,0.0,0.0,1.0,0.0,0.0,0.0,0.0,0.0,
0.46975300000002607,0.0,0.0,41151.0,0.0,0.0,0.0,0.0,0.125,1.381835796,0.5498168668524864,0.0,38161.0,0.0,0.0,0.0,0.0,0.125,4.829101068,4.41043958977222,0.0,-2098.0,0.0,0.0,0.0,0.0,0.0,2.7893063550000003,4.389674732977291,0.0,40689.0,0.125,0.0,0.0,0.0,0.25,2.183837667,0.5526872062785609,0.0,0.3799999952316284,-1.1799999475479126,0.009999999776482582,-0.019287109375,0.0089111328125,1.02008056640625,34.11000061035156,0.0,1.0,1.6460113525390625,0.2784881591796875,Waiting,0.0,0.0,1.0,0.0,0.0,0.0,0.0,0.0,
0.5116210000000428,0.0,0.0,41151.0,0.0,0.0,0.0,0.0,0.125,1.380615093,0.5498168668524864,0.0,38161.0,0.0,0.0,0.0,0.0,0.125,4.830321771,4.41043958977222,0.0,-2098.0,0.0,0.0,0.0,0.0,0.0,2.7893063550000003,4.389674732977291,0.0,40689.0,0.125,0.0,0.0,0.0,0.25,2.182616964,0.5526872062785609,0.0,0.3700000047683716,-1.1799999475479126,0.009999999776482582,-0.022705078125,0.008056640625,1.02618408203125,34.119998931884766,0.0,-1.0,1.6460113525390625,0.2784881591796875,Waiting,0.0,0.0,1.0,0.0,0.0,0.0,0.0,0.0,
0.5526690000000526,0.0,0.0,41151.0,0.0,0.0,0.0,0.0,0.125,1.381835796,0.5498168668524864,0.0,38161.0,0.0,0.0,0.0,0.0,0.125,4.830321771,4.41043958977222,0.0,-2098.0,0.0,0.0,0.0,0.0,0.0,2.7880856520000004,4.389674732977291,0.0,40689.0,0.125,0.0,0.0,0.0,0.25,2.183837667,0.5526872062785609,0.0,0.3799999952316284,-1.1799999475479126,0.009999999776482582,-0.0201416015625,0.007568359375,1.01922607421875,34.119998931884766,0.0,1.0,1.6460113525390625,0.2784881591796875,Waiting,0.0,0.0,1.0,0.0,0.0,0.0,0.0,0.0,
0.5930599999999977,0.0,0.0,41151.0,0.0,0.0,0.0,0.0,0.125,1.381835796,0.5498168668524864,0.0,38161.0,0.0,0.0,0.0,0.0,0.125,4.829101068,4.41043958977222,0.0,-2098.0,0.0,0.0,0.0,0.0,0.0,2.7880856520000004,4.389674732977291,0.0,40689.0,0.125,0.0,0.0,0.0,0.25,2.18505837,0.5526872062785609,0.0,0.3700000047683716,-1.1799999475479126,0.009999999776482582,-0.01898193359375,0.0037841796875,1.023681640625,34.119998931884766,0.0,2.0,1.6460113525390625,0.2784881591796875,Waiting,0.0,0.0,1.0,0.0,0.0,0.0,0.0,0.0,
0.6324930000000167,0.0,0.0,41151.0,0.0,0.0,0.0,0.0,0.125,1.381835796,0.5498168668524864,0.0,38161.0,0.0,0.0,0.0,0.0,0.125,4.830321771,4.41043958977222,0.0,-2098.0,0.0,0.0,0.0,0.0,0.0,2.7893063550000003,4.389674732977291,0.0,40689.0,0.125,0.0,0.0,0.0,0.25,2.183837667,0.5526872062785609,0.0,0.3700000047683716,-1.1799999475479126,0.009999999776482582,-0.02191162109375,0.00677490234375,1.02081298828125,34.119998931884766,0.0,0.0,1.6460113525390625,0.2784881591796875,Waiting,0.0,0.0,1.0,0.0,0.0,0.0,0.0,0.0,
0.6692760000000125,0.0,0.0,41151.0,0.0,0.0,0.0,0.0,0.125,1.380615093,0.5498168668524864,0.0,38161.0,0.0,0.0,0.0,0.0,0.125,4.829101068,4.41043958977222,0.0,-2098.0,0.0,0.0,0.0,0.0,0.0,2.7893063550000003,4.389674732977291,0.0,40689.0,0.125,0.0,0.0,0.0,0.25,2.183837667,0.5526872062785609,0.0,0.3400000035762787,-1.2100000381469727,0.009999999776482582,-0.01910400390625,-0.01220703125,1.04931640625,34.119998931884766,0.0,3.0,1.6460113525390625,0.2784881591796875,Waiting,0.0,0.0,1.0,0.0,0.0,0.0,0.0,0.0,
0.7081610000000219,0.0,0.0,41151.0,0.0,0.0,0.0,0.0,0.125,1.380615093,0.5498168668524864,0.0,38161.0,0.0,0.0,0.0,0.0,0.125,4.830321771,4.41043958977222,0.0,-2098.0,0.0,0.0,0.0,0.0,0.0,2.7893063550000003,4.389674732977291,0.0,40689.0,0.125,0.0,0.0,0.0,0.25,2.183837667,0.5526872062785609,0.0,0.36000001430511475,-1.2100000381469727,0.0,-0.01727294921875,0.02044677734375,1.03118896484375,34.119998931884766,0.0,4.0,1.6460113525390625,0.278533935546875,Waiting,0.0,0.0,1.0,0.0,0.0,0.0,0.0,0.0,
0.7481060000000289,0.0,0.0,41151.0,0.0,0.0,0.0,0.0,0.125,1.380615093,0.5498168668524864,0.0,38161.0,0.0,0.0,0.0,0.0,0.125,4.829101068,4.41043958977222,0.0,-2098.0,0.0,0.0,0.0,0.0,0.0,2.7893063550000003,4.389674732977291,0.0,40689.0,0.125,0.0,0.0,0.0,0.25,2.18505837,0.5526872062785609,0.0,0.36000001430511475,-1.2000000476837158,0.0,-0.02423095703125,0.00848388671875,1.016845703125,34.119998931884766,0.0,-2.0,1.6460113525390625,0.2785797119140625,Waiting,0.0,0.0,1.0,0.0,0.0,0.0,0.0,0.0,
0.7896050000000396,0.0,0.0,41151.0,0.0,0.0,0.0,0.0,0.125,1.380615093,0.5498168668524864,0.0,38161.0,0.0,0.0,0.0,0.0,0.125,4.830321771,4.41043958977222,0.0,-2098.0,0.0,0.0,0.0,0.0,0.0,2.7893063550000003,4.389674732977291,0.0,40689.0,0.125,0.0,0.0,0.0,0.25,2.183837667,0.5526872062785609,0.0,0.36000001430511475,-1.2100000381469727,0.0,-0.0213623046875,-0.00146484375,1.0233154296875,34.119998931884766,0.0,0.0,1.6460113525390625,0.2785797119140625,Waiting,0.0,0.0,1.0,0.0,0.0,0.0,0.0,0.0,
0.8295480000000098,0.0,0.0,41151.0,0.0,0.0,0.0,0.0,0.125,1.380615093,0.5498168668524864,0.0,38161.0,0.0,0.0,0.0,0.0,0.125,4.829101068,4.41043958977222,0.0,-2098.0,0.0,0.0,0.0,0.0,0.0,2.7893063550000003,4.389674732977291,0.0,40689.0,0.125,0.0,0.0,0.0,0.25,2.18505837,0.5526872062785609,0.0,0.36000001430511475,-1.2100000381469727,0.0,-0.02166748046875,0.007080078125,1.02191162109375,34.119998931884766,0.0,0.0,1.6460113525390625,0.2785797119140625,Waiting,0.0,0.0,1.0,0.0,0.0,0.0,0.0,0.0,
0.8667430000000168,0.0,0.0,41151.0,0.0,0.0,0.0,0.0,0.125,1.380615093,0.5498168668524864,0.0,38161.0,0.0,0.0,0.0,0.0,0.125,4.830321771,4.41043958977222,0.0,-2098.0,0.0,0.0,0.0,0.0,0.0,2.7893063550000003,4.389674732977291,0.0,40689.0,0.125,0.0,0.0,0.0,0.25,2.183837667,0.5526872062785609,0.0,0.3499999940395355,-1.2000000476837158,0.0,-0.02032470703125,0.0108642578125,1.01788330078125,34.119998931884766,0.0,1.0,1.6460113525390625,0.2785797119140625,Waiting,0.0,0.0,1.0,0.0,0.0,0.0,0.0,0.0,
0.9074020000000018,0.0,0.0,41151.0,0.0,0.0,0.0,0.0,0.125,1.380615093,0.5498168668524864,0.0,38161.0,0.0,0.0,0.0,0.0,0.125,4.831542474,4.41043958977222,0.0,-2098.0,0.0,0.0,0.0,0.0,0.0,2.7893063550000003,4.389674732977291,0.0,40689.0,0.125,0.0,0.0,0.0,0.25,2.183837667,0.5526872062785609,0.0,0.36000001430511475,-1.2000000476837158,0.0,-0.02191162109375,0.0064697265625,1.01898193359375,34.119998931884766,0.0,0.0,1.6460113525390625,0.2785797119140625,Waiting,0.0,0.0,1.0,0.0,0.0,0.0,0.0,0.0,
0.947210000000021,0.0,0.0,41151.0,0.0,0.0,0.0,0.0,0.125,1.380615093,0.5498168668524864,0.0,38161.0,0.0,0.0,0.0,0.0,0.125,4.827880365,4.41043958977222,0.0,-2098.0,0.0,0.0,0.0,0.0,0.0,2.7893063550000003,4.389674732977291,0.0,40689.0,0.125,0.0,0.0,0.0,0.25,2.183837667,0.5526872062785609,0.0,0.36000001430511475,-1.2100000381469727,0.0,-0.0208740234375,0.0047607421875,1.02294921875,34.119998931884766,0.0,0.0,1.6460113525390625,0.2785797119140625,Waiting,0.0,0.0,1.0,0.0,0.0,0.0,0.0,0.0,
0.9884150000000372,0.0,0.0,41151.0,0.0,0.0,0.0,0.0,0.125,1.380615093,0.5498168668524864,0.0,38161.0,0.0,0.0,0.0,0.0,0.125,4.829101068,4.41043958977222,0.0,-2098.0,0.0,0.0,0.0,0.0,0.0,2.7880856520000004,4.389674732977291,0.0,40689.0,0.125,0.0,0.0,0.0,0.25,2.183837667,0.5526872062785609,0.0,0.36000001430511475,-1.2100000381469727,0.0,-0.02264404296875,0.01068115234375,1.0206298828125,34.119998931884766,0.0,-1.0,1.6460113525390625,0.2785797119140625,Waiting,0.0,0.0,1.0,0.0,0.0,0.0,0.0,0.0,
1.0293280000000378,0.0,0.0,41151.0,0.0,0.0,0.0,0.0,0.125,1.381835796,0.5498168668524864,0.0,38161.0,0.0,0.0,0.0,0.0,0.125,4.829101068,4.41043958977222,0.0,-2098.0,0.0,0.0,0.0,0.0,0.0,2.7893063550000003,4.389674732977291,0.0,40689.0,0.125,0.0,0.0,0.0,0.25,2.183837667,0.5526872062785609,0.0,0.36000001430511475,-1.2000000476837158,0.0,-0.02349853515625,0.0101318359375,1.0174560546875,34.119998931884766,0.0,-2.0,1.6460113525390625,0.2785797119140625,Waiting,0.0,0.0,1.0,0.0,0.0,0.0,0.0,0.0,
1.06739300000004,0.0,0.0,41151.0,0.0,0.0,0.0,0.0,0.125,1.380615093,0.5498168668524864,0.0,38161.0,0.0,0.0,0.0,0.0,0.125,4.829101068,4.41043958977222,0.0,-2098.0,0.0,0.0,0.0,0.0,0.0,2.7893063550000003,4.389674732977291,0.0,40689.0,0.125,0.0,0.0,0.0,0.25,2.183837667,0.5526872062785609,0.0,0.36000001430511475,-1.2000000476837158,0.0,-0.02001953125,0.00836181640625,1.0169677734375,34.119998931884766,0.0,1.0,1.6460113525390625,0.2785797119140625,Waiting,0.0,0.0,1.0,0.0,0.0,0.0,0.0,0.0,
1.107512000000046,0.0,0.0,41151.0,0.0,0.0,0.0,0.0,0.125,1.381835796,0.5498168668524864,0.0,38161.0,0.0,0.0,0.0,0.0,0.125,4.830321771,4.41043958977222,0.0,-2098.0,0.0,0.0,0.0,0.0,0.0,2.7893063550000003,4.389674732977291,0.0,40689.0,0.125,0.0,0.0,0.0,0.25,2.183837667,0.5526872062785609,0.0,0.36000001430511475,-1.2000000476837158,0.0,-0.022216796875,0.0057373046875,1.0220947265625,34.119998931884766,0.0,0.0,1.6460113525390625,0.2785797119140625,Waiting,0.0,0.0,1.0,0.0,0.0,0.0,0.0,0.0,
1.1478360000000103,0.0,0.0,41151.0,0.0,0.0,0.0,0.0,0.125,1.380615093,0.5498168668524864,0.0,38161.0,0.0,0.0,0.0,0.0,0.125,4.829101068,4.41043958977222,0.0,-2098.0,0.0,0.0,0.0,0.0,0.0,2.7893063550000003,4.389674732977291,0.0,40689.0,0.125,0.0,0.0,0.0,0.25,2.18505837,0.5526872062785609,0.0,0.36000001430511475,-1.2000000476837158,0.0,-0.02227783203125,0.00286865234375,1.021240234375,34.119998931884766,0.0,0.0,1.6460113525390625,0.2785797119140625,Waiting,0.0,0.0,1.0,0.0,0.0,0.0,0.0,0.0,
1.188158000000054,0.0,0.0,41151.0,0.0,0.0,0.0,0.0,0.125,1.380615093,0.5498168668524864,0.0,38161.0,0.0,0.0,0.0,0.0,0.125,4.829101068,4.41043958977222,0.0,-2098.0,0.0,0.0,0.0,0.0,0.0,2.7893063550000003,4.389674732977291,0.0,40689.0,0.125,0.0,0.0,0.0,0.25,2.183837667,0.5526872062785609,0.0,0.36000001430511475,-1.2000000476837158,0.0,-0.02398681640625,0.007568359375,1.01849365234375,34.119998931884766,0.0,-2.0,1.6460113525390625,0.2785797119140625,Waiting,0.0,0.0,1.0,0.0,0.0,0.0,0.0,0.0,
1.229158000000054,0.0,0.0,41151.0,0.0,0.0,0.0,0.0,0.125,1.381835796,0.5498168668524864,0.0,38161.0,0.0,0.0,0.0,0.0,0.125,4.830321771,4.41043958977222,0.0,-2098.0,0.0,0.0,0.0,0.0,0.0,2.7893063550000003,4.389674732977291,0.0,40689.0,0.125,0.0,0.0,0.0,0.25,2.183837667,0.5526872062785609,0.0,0.36000001430511475,-1.2000000476837158,0.0,-0.02020263671875,0.00665283203125,1.020263671875,34.119998931884766,0.0,1.0,1.6460113525390625,0.2785797119140625,Waiting,0.0,0.0,1.0,0.0,0.0,0.0,0.0,0.0,
1.2861300000000047,0.0,0.0,41151.0,0.0,0.0,0.0,0.0,0.125,1.381835796,0.5498168668524864,0.0,38161.0,0.0,0.0,0.0,0.0,0.125,4.829101068,4.41043958977222,0.0,-2098.0,0.0,0.0,0.0,0.0,0.0,2.7893063550000003,4.389674732977291,0.0,40689.0,0.125,0.0,0.0,0.0,0.25,2.183837667,0.5526872062785609,0.0,0.3700000047683716,-1.2000000476837158,0.0,-0.02227783203125,0.0072021484375,1.021728515625,34.119998931884766,0.0,0.0,1.6460113525390625,0.2785797119140625,Waiting,0.0,0.0,1.0,0.0,0.0,0.0,0.0,0.0,
1.324954000000027,0.0,0.0,41151.0,0.0,0.0,0.0,0.0,0.125,1.380615093,0.5498168668524864,0.0,38161.0,0.0,0.0,0.0,0.0,0.125,4.829101068,4.41043958977222,0.0,-2098.0,0.0,0.0,0.0,0.0,0.0,2.7893063550000003,4.389674732977291,0.0,40689.0,0.125,0.0,0.0,0.0,0.25,2.183837667,0.5526872062785609,0.0,0.3700000047683716,-1.2000000476837158,0.0,-0.01953125,0.0130615234375,1.020263671875,34.119998931884766,0.0,1.0,1.6460113525390625,0.2785797119140625,Waiting,0.0,0.0,1.0,0.0,0.0,0.0,0.0,0.0,
1.3653400000000255,0.0,0.0,41151.0,0.0,0.0,0.0,0.0,0.125,1.380615093,0.5498168668524864,0.0,38161.0,0.0,0.0,0.0,0.0,0.125,4.829101068,4.41043958977222,0.0,-2098.0,0.0,0.0,0.0,0.0,0.0,2.7893063550000003,4.389674732977291,0.0,40689.0,0.125,0.0,0.0,0.0,0.25,2.183837667,0.5526872062785609,0.0,0.3700000047683716,-1.2000000476837158,0.0,-0.0206298828125,0.00640869140625,1.01800537109375,34.119998931884766,0.0,0.0,1.6460113525390625,0.2785797119140625,Waiting,0.0,0.0,1.0,0.0,0.0,0.0,0.0,0.0,
1.4065489999999992,0.0,0.0,41151.0,0.0,0.0,0.0,0.0,0.125,1.380615093,0.5498168668524864,0.0,38161.0,0.0,0.0,0.0,0.0,0.125,4.830321771,4.41043958977222,0.0,-2098.0,0.0,0.0,0.0,0.0,0.0,2.7893063550000003,4.389674732977291,0.0,40689.0,0.125,0.0,0.0,0.0,0.25,2.18505837,0.5526872062785609,0.0,0.3700000047683716,-1.2000000476837158,0.0,-0.02032470703125,0.004638671875,1.01959228515625,34.119998931884766,0.0,1.0,1.6460113525390625,0.2785797119140625,Waiting,0.0,0.0,1.0,0.0,0.0,0.0,0.0,0.0,
1.4466690000000526,0.0,0.0,41151.0,0.0,0.0,0.0,0.0,0.125,1.380615093,0.5498168668524864,0.0,38161.0,0.0,0.0,0.0,0.0,0.125,4.829101068,4.41043958977222,0.0,-2098.0,0.0,0.0,0.0,0.0,0.0,2.7893063550000003,4.389674732977291,0.0,40689.0,0.125,0.0,0.0,0.0,0.25,2.183837667,0.5526872062785609,0.0,0.3700000047683716,-1.2000000476837158,0.0,-0.0206298828125,0.00616455078125,1.0172119140625,34.119998931884766,0.0,0.0,1.6460113525390625,0.2785797119140625,Waiting,0.0,0.0,1.0,0.0,0.0,0.0,0.0,0.0,
1.4825920000000041,0.0,0.0,41151.0,0.0,0.0,0.0,0.0,0.125,1.380615093,0.5498168668524864,0.0,38161.0,0.0,0.0,0.0,0.0,0.125,4.830321771,4.41043958977222,0.0,-2098.0,0.0,0.0,0.0,0.0,0.0,2.7893063550000003,4.389674732977291,0.0,40689.0,0.125,0.0,0.0,0.0,0.25,2.183837667,0.5526872062785609,0.0,0.3700000047683716,-1.2000000476837158,0.0,-0.019775390625,0.00311279296875,1.020263671875,34.119998931884766,0.0,1.0,1.6460113525390625,0.2785797119140625,Waiting,0.0,0.0,1.0,0.0,0.0,0.0,0.0,0.0,
1.520484000000055,0.0,0.0,41151.0,0.0,0.0,0.0,0.0,0.125,1.380615093,0.5498168668524864,0.0,38161.0,0.0,0.0,0.0,0.0,0.125,4.829101068,4.41043958977222,0.0,-2098.0,0.0,0.0,0.0,0.0,0.0,2.7880856520000004,4.389674732977291,0.0,40689.0,0.125,0.0,0.0,0.0,0.25,2.183837667,0.5526872062785609,0.0,0.3700000047683716,-1.2000000476837158,0.0,-0.02069091796875,0.00921630859375,1.020263671875,34.150001525878906,0.0,0.0,1.6460113525390625,0.2785797119140625,Waiting,0.0,0.0,1.0,0.0,0.0,0.0,0.0,0.0,
1.5592930000000051,0.0,0.0,41151.0,0.0,0.0,0.0,0.0,0.125,1.380615093,0.5498168668524864,0.0,38161.0,0.0,0.0,0.0,0.0,0.125,4.829101068,4.41043958977222,0.0,-2098.0,0.0,0.0,0.0,0.0,0.0,2.7893063550000003,4.389674732977291,0.0,40689.0,0.125,0.0,0.0,0.0,0.25,2.183837667,0.5526872062785609,0.0,0.3700000047683716,-1.2000000476837158,0.0,-0.0240478515625,0.0042724609375,1.01812744140625,34.150001525878906,0.0,-2.0,1.6460113525390625,0.2785797119140625,Opening,0.0,0.0,1.0,0.0,0.0,0.0,0.0,0.0,
1.5993270000000483,0.0,0.0,41151.0,0.0,0.0,0.0,0.0,0.125,1.380615093,0.5498168668524864,0.0,38161.0,0.0,0.0,0.0,0.0,0.125,4.830321771,4.41043958977222,0.0,-2098.0,0.0,0.0,0.0,0.0,0.0,2.7880856520000004,4.389674732977291,0.0,40689.0,0.125,0.0,0.0,0.0,0.25,2.183837667,0.5526872062785609,0.0,0.36000001430511475,-1.2000000476837158,0.0,-0.0213623046875,0.00262451171875,1.02264404296875,34.150001525878906,0.0,0.0,1.6460113525390625,0.2785797119140625,Opening,0.0,0.0,1.0,0.0,0.0,0.0,0.0,0.0,
1.639046000000031,0.0,0.0,41151.0,0.0,0.0,0.0,0.0,0.125,1.380615093,0.5498168668524864,0.0,38161.0,0.0,0.0,0.0,0.0,0.125,4.830321771,4.41043958977222,0.0,-2098.0,0.0,0.0,0.0,0.0,0.0,2.7893063550000003,4.389674732977291,0.0,40689.0,0.125,0.0,0.0,0.0,0.25,2.18505837,0.5526872062785609,0.0,0.36000001430511475,-1.2000000476837158,0.0,-0.01947021484375,0.00811767578125,1.01971435546875,34.150001525878906,0.0,1.0,1.6460113525390625,0.2785797119140625,Opening,0.0,0.0,1.0,0.0,0.0,0.0,0.0,0.0,
1.6750950000000302,0.0,0.0,41151.0,0.0,0.0,0.0,0.0,0.125,1.380615093,0.5498168668524864,0.0,38161.0,0.0,0.0,0.0,0.0,0.125,4.827880365,4.41043958977222,0.0,-2098.0,0.0,0.0,0.0,0.0,0.0,2.7880856520000004,4.389674732977291,0.0,40689.0,0.125,0.0,0.0,0.0,0.25,2.183837667,0.5526872062785609,0.0,0.3700000047683716,-1.2000000476837158,0.0,-0.0218505859375,0.0103759765625,1.01837158203125,34.150001525878906,0.0,0.0,1.6460113525390625,0.2785797119140625,Opening,0.0,0.0,1.0,0.0,0.0,0.0,0.0,0.0,
1.7163110000000452,0.0,0.0,41151.0,0.0,0.0,0.0,0.0,0.125,1.380615093,0.5498168668524864,0.0,38161.0,0.0,0.0,0.0,0.0,0.125,4.829101068,4.41043958977222,0.0,-2098.0,0.0,0.0,0.0,0.0,0.0,2.7880856520000004,4.389674732977291,0.0,40689.0,0.125,0.0,0.0,0.0,0.25,2.183837667,0.5526872062785609,0.0,0.3700000047683716,-1.2000000476837158,0.0,-0.02154541015625,0.00408935546875,1.0218505859375,34.150001525878906,0.0,0.0,1.6460113525390625,0.2785797119140625,Opening,0.0,0.0,1.0,0.0,0.0,0.0,0.0,0.0,
1.76051800000004,0.0,0.0,41151.0,0.0,0.0,0.0,0.0,0.125,1.380615093,0.5498168668524864,0.0,38161.0,0.0,0.0,0.0,0.0,0.125,4.830321771,4.41043958977222,0.0,-2098.0,0.0,0.0,0.0,0.0,0.0,2.7893063550000003,4.389674732977291,0.0,40689.0,0.125,0.0,0.0,0.0,0.25,2.183837667,0.5526872062785609,0.0,0.3700000047683716,-1.2000000476837158,0.0,-0.0211181640625,0.00543212890625,1.0225830078125,34.150001525878906,0.0,0.0,1.6460113525390625,0.2785797119140625,Opening,0.0,0.0,1.0,0.0,0.0,0.0,0.0,0.0,
1.8011290000000153,0.0,0.0,41151.0,0.0,0.0,0.0,0.0,0.125,1.380615093,0.5498168668524864,0.0,38161.0,0.0,0.0,0.0,0.0,0.125,4.829101068,4.41043958977222,0.0,-2098.0,0.0,0.0,0.0,0.0,0.0,2.7880856520000004,4.389674732977291,0.0,40689.0,0.125,0.0,0.0,0.0,0.25,2.183837667,0.5526872062785609,0.0,0.36000001430511475,-1.190000057220459,0.0,-0.0218505859375,0.010498046875,1.0220947265625,34.150001525878906,0.0,0.0,1.6460113525390625,0.2785797119140625,Opening,0.0,0.0,1.0,0.0,0.0,0.0,0.0,0.0,
1.8451780000000144,0.0,0.0,41151.0,0.0,0.0,0.0,0.0,0.125,1.380615093,0.5498168668524864,0.0,38161.0,0.0,0.0,0.0,0.0,0.125,4.830321771,4.41043958977222,0.0,-2098.0,0.0,0.0,0.0,0.0,0.0,2.7893063550000003,4.389674732977291,0.0,40689.0,0.125,0.0,0.0,0.0,0.25,2.182616964,0.5526872062785609,0.0,0.3700000047683716,-1.190000057220459,0.0,-0.0240478515625,0.01312255859375,1.018310546875,34.150001525878906,0.0,-2.0,1.6460113525390625,0.2785797119140625,Opening,0.0,0.0,1.0,0.0,0.0,0.0,0.0,0.0,
1.8804040000000386,0.0,0.0,41151.0,0.0,0.0,0.0,0.0,0.125,1.380615093,0.5498168668524864,0.0,38161.0,0.0,0.0,0.0,0.0,0.125,4.829101068,4.41043958977222,0.0,-2098.0,0.0,0.0,0.0,0.0,0.0,2.7893063550000003,4.389674732977291,0.0,40689.0,0.125,0.0,0.0,0.0,0.25,2.183837667,0.5526872062785609,0.0,0.3799999952316284,-1.2000000476837158,0.0,-0.02069091796875,0.0054931640625,1.0206298828125,34.150001525878906,0.0,0.0,1.6460113525390625,0.2785797119140625,Opening,0.0,0.0,1.0,0.0,0.0,0.0,0.0,0.0,
1.9205650000000023,0.0,0.0,41151.0,0.0,0.0,0.0,0.0,0.125,1.380615093,0.5498168668524864,0.0,38161.0,0.0,0.0,0.0,0.0,0.125,4.830321771,4.41043958977222,0.0,-2098.0,0.0,0.0,0.0,0.0,0.0,2.7893063550000003,4.389674732977291,0.0,40689.0,0.125,0.0,0.0,0.0,0.25,2.183837667,0.5526872062785609,0.0,0.3700000047683716,-1.190000057220459,0.0,-0.0181884765625,0.00238037109375,1.0208740234375,34.150001525878906,0.0,3.0,1.6460113525390625,0.2785797119140625,Opening,0.0,0.0,1.0,0.0,0.0,0.0,0.0,0.0,
1.9603030000000143,0.0,0.0,41151.0,0.0,0.0,0.0,0.0,0.125,1.380615093,0.5498168668524864,0.0,38161.0,0.0,0.0,0.0,0.0,0.125,4.829101068,4.41043958977222,0.0,-2098.0,0.0,0.0,0.0,0.0,0.0,2.7880856520000004,4.389674732977291,0.0,40689.0,0.125,0.0,0.0,0.0,0.25,2.183837667,0.5526872062785609,0.0,0.36000001430511475,-1.190000057220459,0.0,-0.02008056640625,0.0107421875,1.01959228515625,34.150001525878906,0.0,1.0,1.6460113525390625,0.2785797119140625,Opening,0.0,0.0,1.0,0.0,0.0,0.0,0.0,0.0,
2.000494000000006,0.0,0.0,41151.0,0.0,0.0,0.0,0.0,0.125,1.380615093,0.5498168668524864,0.0,38161.0,0.0,0.0,0.0,0.0,0.125,4.829101068,4.41043958977222,0.0,-2098.0,0.0,0.0,0.0,0.0,0.0,2.7893063550000003,4.389674732977291,0.0,40689.0,0.125,0.0,0.0,0.0,0.25,2.18505837,0.5526872062785609,0.0,0.3700000047683716,-1.2000000476837158,0.0,-0.025146484375,0.0108642578125,1.01837158203125,34.150001525878906,0.0,-3.0,1.6460113525390625,0.2785797119140625,Opening,0.0,0.0,1.0,0.0,0.0,0.0,0.0,0.0,
2.0387940000000526,0.0,0.0,41151.0,0.0,0.0,0.0,0.0,0.125,1.381835796,0.5498168668524864,0.0,38161.0,0.0,0.0,0.0,0.0,0.125,4.830321771,4.41043958977222,0.0,-2098.0,0.0,0.0,0.0,0.0,0.0,2.7893063550000003,4.389674732977291,0.0,40689.0,0.125,0.0,0.0,0.0,0.25,2.183837667,0.5526872062785609,0.0,0.3700000047683716,-1.190000057220459,0.0,-0.02081298828125,0.00823974609375,1.023193359375,34.119998931884766,0.0,0.0,1.6460113525390625,0.2785797119140625,Opening,0.0,0.0,1.0,0.0,0.0,0.0,0.0,0.0,
2.075156000000017,0.0,0.0,41151.0,0.0,0.0,0.0,0.0,0.125,1.381835796,0.5498168668524864,0.0,38161.0,0.0,0.0,0.0,0.0,0.125,4.830321771,4.41043958977222,0.0,-2098.0,0.0,0.0,0.0,0.0,0.0,2.7893063550000003,4.389674732977291,0.0,40689.0,0.0,0.0,0.0,0.0,0.25,2.183837667,0.5526872062785609,0.0,0.3700000047683716,-1.190000057220459,0.0,-0.01715087890625,0.00311279296875,1.0198974609375,34.119998931884766,0.0,4.0,1.6460113525390625,0.2785797119140625,Opening,0.0,0.0,1.0,0.0,0.0,0.0,0.0,0.0,
2.1151140000000015,0.0,0.0,41151.0,0.0,0.0,0.0,0.0,0.125,1.381835796,0.5498168668524864,0.0,38161.0,0.0,0.0,0.0,0.0,0.125,4.829101068,4.41043958977222,0.0,-2098.0,0.0,0.0,0.0,0.0,0.0,2.7893063550000003,4.389674732977291,0.0,40689.0,0.0,0.0,0.0,0.0,0.25,2.183837667,0.5526872062785609,0.0,0.3700000047683716,-1.190000057220459,0.0,-0.02191162109375,0.00634765625,1.02685546875,34.119998931884766,0.0,0.0,1.6460113525390625,0.2785797119140625,Opening,0.0,0.0,1.0,0.0,0.0,0.0,0.0,0.0,
2.155406000000017,0.0,0.0,41151.0,0.0,0.0,0.0,0.0,0.125,1.380615093,0.5498168668524864,0.0,38161.0,0.0,0.0,0.0,0.0,0.125,4.830321771,4.41043958977222,0.0,-2098.0,0.0,0.0,0.0,0.0,0.0,2.7893063550000003,4.389674732977291,0.0,40689.0,0.125,0.0,0.0,0.0,0.25,2.183837667,0.5526872062785609,-0.0012207029999999897,0.3700000047683716,-1.190000057220459,0.0,-0.02410888671875,0.00927734375,1.01593017578125,34.119998931884766,0.0,-2.0,1.6460113525390625,0.2785797119140625,Opening,0.0,0.0,1.0,0.0,0.0,0.0,0.0,0.0,
2.1967119999999993,0.0,0.0,41151.0,0.0,0.0,0.0,0.0,0.125,1.380615093,0.5498168668524864,0.0,38161.0,0.0,0.0,0.0,0.0,0.125,4.829101068,4.41043958977222,0.0,-2098.0,0.0,0.0,0.0,0.0,0.0,2.7893063550000003,4.389674732977291,0.0,40689.0,0.125,0.0,0.0,0.0,0.25,2.183837667,0.5526872062785609,0.0012207029999999897,0.3700000047683716,-1.190000057220459,0.0,-0.02203369140625,0.011474609375,1.02203369140625,34.119998931884766,0.0,0.0,1.6460113525390625,0.2785797119140625,Opening,0.0,0.0,1.0,0.0,0.0,0.0,0.0,0.0,
2.23975,0.0,0.0,41151.0,0.0,0.0,0.0,0.0,0.125,1.380615093,0.5498168668524864,0.0,38161.0,0.0,0.0,0.0,0.0,0.125,4.830321771,4.41043958977222,0.0,-2098.0,0.0,0.0,0.0,0.0,0.0,2.7893063550000003,4.389674732977291,0.0,40689.0,0.125,0.0,0.0,0.0,0.25,2.18505837,0.5526872062785609,0.0012207029999999897,0.3700000047683716,-1.190000057220459,0.0,-0.021240234375,0.00341796875,1.021728515625,34.119998931884766,0.0,0.0,1.6460113525390625,0.2785797119140625,Opening,0.0,0.0,1.0,0.0,0.0,0.0,0.0,0.0,
2.2756600000000327,0.0,0.0,41151.0,0.0,0.0,0.0,0.0,0.125,1.380615093,0.5498168668524864,0.0,38161.0,0.0,0.0,0.0,0.0,0.125,4.829101068,4.41043958977222,0.0,-2098.0,0.0,0.0,0.0,0.0,0.0,2.7880856520000004,4.389674732977291,0.0,40689.0,0.125,0.0,0.0,0.0,0.25,2.183837667,0.5526872062785609,0.0,0.3700000047683716,-1.190000057220459,0.0,-0.0228271484375,0.0050048828125,1.02032470703125,34.119998931884766,0.0,-1.0,1.6460113525390625,0.2785797119140625,Opening,0.0,0.0,1.0,0.0,0.0,0.0,0.0,0.0,
2.3166790000000037,0.0,0.0,41151.0,0.0,0.0,0.0,0.0,0.125,1.381835796,0.5498168668524864,0.0,38161.0,0.0,0.0,0.0,0.0,0.125,4.830321771,4.41043958977222,0.0,-2098.0,0.0,0.0,0.0,0.0,0.0,2.7893063550000003,4.389674732977291,0.0,40689.0,0.125,0.0,0.0,0.0,0.25,2.183837667,0.5526872062785609,0.0,0.3700000047683716,-1.190000057220459,0.0,-0.02142333984375,0.010986328125,1.01910400390625,34.119998931884766,0.0,0.0,1.6460113525390625,0.2785797119140625,Opening,0.0,0.0,1.0,0.0,0.0,0.0,0.0,0.0,
2.3557300000000394,0.0,0.0,41151.0,0.0,0.0,0.0,0.0,0.125,1.381835796,0.5498168668524864,0.0,38161.0,0.0,0.0,0.0,0.0,0.125,4.831542474,4.41043958977222,0.0,-2098.0,0.0,0.0,0.0,0.0,0.0,2.7893063550000003,4.389674732977291,0.0,40689.0,0.125,0.0,0.0,0.0,0.25,2.183837667,0.5526872062785609,0.0,0.3799999952316284,-1.190000057220459,0.0,-0.022705078125,0.00640869140625,1.0198974609375,34.119998931884766,0.0,-1.0,1.6460113525390625,0.2785797119140625,Opening,0.0,0.0,1.0,0.0,0.0,0.0,0.0,0.0,
2.4047240000000456,0.0,0.0,41151.0,0.0,0.0,0.0,0.0,0.125,1.380615093,0.5498168668524864,0.0,38161.0,0.0,0.0,0.0,0.0,0.125,4.829101068,4.41043958977222,0.0,-2098.0,0.0,0.0,0.0,0.0,0.0,2.7893063550000003,4.389674732977291,0.0,40689.0,0.125,0.0,0.0,0.0,0.25,2.183837667,0.5526872062785609,0.0,0.3799999952316284,-1.190000057220459,0.0,-0.0191650390625,0.00518798828125,1.019775390625,34.119998931884766,0.0,2.0,1.6460113525390625,0.2785797119140625,Opening,0.0,0.0,1.0,0.0,0.0,0.0,0.0,0.0,
2.445573000000033,0.0,0.0,41151.0,0.0,0.0,0.0,0.0,0.125,1.380615093,0.5498168668524864,0.0,38161.0,0.0,0.0,0.0,0.0,0.125,4.830321771,4.41043958977222,0.0,-2098.0,0.0,0.0,0.0,0.0,0.0,2.7880856520000004,4.389674732977291,0.0,40689.0,0.125,0.0,0.0,0.0,0.25,2.183837667,0.5526872062785609,0.0,0.3700000047683716,-1.190000057220459,0.0,-0.02142333984375,0.0078125,1.021728515625,34.119998931884766,0.0,0.0,1.6460113525390625,0.2785797119140625,Opening,0.0,0.0,1.0,0.0,0.0,0.0,0.0,0.0,
2.4798479999999983,0.0,0.0,41151.0,0.0,0.0,0.0,0.0,0.125,1.381835796,0.5498168668524864,0.0,38161.0,0.0,0.0,0.0,0.0,0.125,4.829101068,4.41043958977222,0.0,-2098.0,0.0,0.0,0.0,0.0,0.0,2.7893063550000003,4.389674732977291,0.0,40689.0,0.125,0.0,0.0,0.0,0.25,2.18505837,0.5526872062785609,0.0,0.3799999952316284,-1.190000057220459,0.0,-0.02178955078125,0.0086669921875,1.0184326171875,34.119998931884766,0.0,0.0,1.6460113525390625,0.2785797119140625,Opening,0.0,0.0,1.0,0.0,0.0,0.0,0.0,0.0,
2.520381000000052,0.0,0.0,41151.0,0.0,0.0,0.0,0.0,0.125,1.380615093,0.5498168668524864,0.0,38161.0,0.0,0.0,0.0,0.0,0.125,4.829101068,4.41043958977222,0.0,-2098.0,0.0,0.0,0.0,0.0,0.0,2.7893063550000003,4.389674732977291,0.0,40689.0,0.125,0.0,0.0,0.0,0.25,2.183837667,0.5526872062785609,0.0,0.3799999952316284,-1.190000057220459,0.0,-0.02044677734375,0.00848388671875,1.020263671875,34.119998931884766,0.0,0.0,1.6460113525390625,0.2785797119140625,Opening,0.0,0.0,1.0,0.0,0.0,0.0,0.0,0.0,
2.5637270000000134,0.0,0.0,41151.0,0.0,0.0,0.0,0.0,0.125,1.381835796,0.5498168668524864,0.0,38161.0,0.0,0.0,0.0,0.0,0.125,4.830321771,4.41043958977222,0.0,-2098.0,0.0,0.0,0.0,0.0,0.0,2.7880856520000004,4.389674732977291,0.0,40689.0,0.125,0.0,0.0,0.0,0.25,2.183837667,0.5526872062785609,0.0,0.3799999952316284,-1.190000057220459,0.0,-0.0213623046875,0.00848388671875,1.01690673828125,34.13999938964844,0.0,0.0,1.6460113525390625,0.2785797119140625,Opening,0.0,0.0,1.0,0.0,0.0,0.0,0.0,0.0,
2.6071140000000015,0.0,0.0,41151.0,0.0,0.0,0.0,0.0,0.125,1.380615093,0.5498168668524864,0.0,38161.0,0.0,0.0,0.0,0.0,0.125,4.829101068,4.41043958977222,0.0,-2098.0,0.0,0.0,0.0,0.0,0.0,2.7893063550000003,4.389674732977291,0.0,40689.0,0.125,0.0,0.0,0.0,0.25,2.183837667,0.5526872062785609,0.0,0.38999998569488525,-1.190000057220459,0.0,-0.02264404296875,0.00732421875,1.01715087890625,34.13999938964844,0.0,-1.0,1.6460113525390625,0.2785797119140625,Opening,0.0,0.0,1.0,0.0,0.0,0.0,0.0,0.0,
2.648107000000018,0.0,0.0,41151.0,0.0,0.0,0.0,0.0,0.125,1.380615093,0.5498168668524864,0.0,38161.0,0.0,0.0,0.0,0.0,0.125,4.829101068,4.41043958977222,0.0,-2098.0,0.0,0.0,0.0,0.0,0.0,2.7893063550000003,4.389674732977291,0.0,40689.0,0.125,0.0,0.0,0.0,0.25,2.183837667,0.5526872062785609,0.0,0.38999998569488525,-1.190000057220459,0.0,-0.021728515625,0.0072021484375,1.01953125,34.13999938964844,0.0,1.0,1.6460113525390625,0.2785797119140625,Opening,0.0,0.0,1.0,0.0,0.0,0.0,0.0,0.0,
2.6883090000000083,0.0,0.0,41151.0,0.0,0.0,0.0,0.0,0.125,1.381835796,0.5498168668524864,0.0,38161.0,0.0,0.0,0.0,0.0,0.125,4.829101068,4.41043958977222,0.0,-2098.0,0.0,0.0,0.0,0.0,0.0,2.7893063550000003,4.389674732977291,0.0,40689.0,0.0,0.0,0.0,0.0,0.25,2.18505837,0.5526872062785609,0.0,0.38999998569488525,-1.190000057220459,0.0,-0.0224609375,0.00689697265625,1.01715087890625,34.13999938964844,0.0,-1.0,1.6460113525390625,0.2785797119140625,Opening,0.0,0.0,1.0,0.0,0.0,0.0,0.0,0.0,
2.726274000000034,0.0,0.0,41151.0,0.0,0.0,0.0,0.0,0.125,1.380615093,0.5498168668524864,0.0,38161.0,0.0,0.0,0.0,0.0,0.125,4.831542474,4.41043958977222,0.0,-2098.0,0.0,0.0,0.0,0.0,0.0,2.7893063550000003,4.389674732977291,0.0,40689.0,0.125,0.0,0.0,0.0,0.25,2.183837667,0.5526872062785609,0.0,0.3799999952316284,-1.190000057220459,0.009999999776482582,-0.021240234375,0.0020751953125,1.01922607421875,34.13999938964844,0.0,0.0,1.6460113525390625,0.2785797119140625,Opening,0.0,0.0,1.0,0.0,0.0,0.0,0.0,0.0,
2.7672350000000443,0.0,0.0,41151.0,0.0,0.0,0.0,0.0,0.125,1.380615093,0.5498168668524864,0.0,38161.0,0.0,0.0,0.0,0.0,0.125,4.829101068,4.41043958977222,0.0,-2098.0,0.0,0.0,0.0,0.0,0.0,2.7893063550000003,4.389674732977291,0.0,40689.0,0.125,0.0,0.0,0.0,0.25,2.18505837,0.5526872062785609,0.0,0.3799999952316284,-1.190000057220459,0.0,-0.0240478515625,0.00677490234375,1.020751953125,34.13999938964844,0.0,-2.0,1.6460113525390625,0.2785797119140625,Opening,0.0,0.0,1.0,0.0,0.0,0.0,0.0,0.0,
2.8058040000000037,0.0,0.0,41151.0,0.0,0.0,0.0,0.0,0.125,1.381835796,0.5498168668524864,0.0,38161.0,0.0,0.0,0.0,0.0,0.125,4.830321771,4.41043958977222,0.0,-2098.0,0.0,0.0,0.0,0.0,0.0,2.7893063550000003,4.389674732977291,0.0,40689.0,0.125,0.0,0.0,0.0,0.25,2.183837667,0.5526872062785609,0.0,0.3799999952316284,-1.190000057220459,0.0,-0.02032470703125,0.004638671875,1.0186767578125,34.13999938964844,0.0,0.0,1.6460113525390625,0.2785797119140625,Opening,0.0,0.0,1.0,0.0,0.0,0.0,0.0,0.0,
2.8429250000000468,0.0,0.0,41151.0,0.0,0.0,0.0,0.0,0.125,1.380615093,0.5498168668524864,0.0,38161.0,0.0,0.0,0.0,0.0,0.125,4.829101068,4.41043958977222,0.0,-2098.0,0.0,0.0,0.0,0.0,0.0,2.7893063550000003,4.389674732977291,0.0,40689.0,0.125,0.0,0.0,0.0,0.25,2.183837667,0.5526872062785609,0.0,0.3799999952316284,-1.190000057220459,0.009999999776482582,-0.01971435546875,0.00909423828125,1.0225830078125,34.13999938964844,0.0,1.0,1.6460113525390625,0.2785797119140625,Opening,0.0,0.0,1.0,0.0,0.0,0.0,0.0,0.0,
2.8774470000000436,0.0,0.0,41151.0,0.0,0.0,0.0,0.0,0.125,1.381835796,0.5498168668524864,0.0,38161.0,0.0,0.0,0.0,0.0,0.125,4.829101068,4.41043958977222,0.0,-2098.0,0.0,0.0,0.0,0.0,0.0,2.7893063550000003,4.389674732977291,0.0,40689.0,0.125,0.0,0.0,0.0,0.25,2.183837667,0.5526872062785609,0.0,0.38999998569488525,-1.190000057220459,0.009999999776482582,-0.02264404296875,0.00970458984375,1.01861572265625,34.13999938964844,0.0,-1.0,1.6460113525390625,0.2785797119140625,Opening,0.0,0.0,1.0,0.0,0.0,0.0,0.0,0.0,
2.9160060000000523,0.0,0.0,41151.0,0.0,0.0,0.0,0.0,0.125,1.380615093,0.5498168668524864,0.0,38161.0,0.0,0.0,0.0,0.0,0.125,4.829101068,4.41043958977222,0.0,-2098.0,0.0,0.0,0.0,0.0,0.0,2.7880856520000004,4.389674732977291,0.0,40689.0,0.125,0.0,0.0,0.0,0.25,2.183837667,0.5526872062785609,0.0,0.38999998569488525,-1.190000057220459,0.009999999776482582,-0.02130126953125,0.008056640625,1.01513671875,34.13999938964844,0.0,0.0,1.6460113525390625,0.2785797119140625,Opening,0.0,0.0,1.0,0.0,0.0,0.0,0.0,0.0,
2.955624000000011,0.0,0.0,41151.0,0.0,0.0,0.0,0.0,0.125,1.380615093,0.5498168668524864,0.0,38161.0,0.0,0.0,0.0,0.0,0.125,4.830321771,4.41043958977222,0.0,-2098.0,0.0,0.0,0.0,0.0,0.0,2.7893063550000003,4.389674732977291,0.0,40689.0,0.0,0.0,0.0,0.0,0.25,2.183837667,0.5526872062785609,0.0,0.38999998569488525,-1.190000057220459,0.009999999776482582,-0.021240234375,0.0054931640625,1.01971435546875,34.13999938964844,0.0,0.0,1.6460113525390625,0.2785797119140625,Opening,0.0,0.0,1.0,0.0,0.0,0.0,0.0,0.0,
2.9952630000000355,0.0,0.0,41151.0,0.0,0.0,0.0,0.0,0.125,1.380615093,0.5498168668524864,0.0,38161.0,0.0,0.0,0.0,0.0,0.125,4.830321771,4.41043958977222,0.0,-2098.0,0.0,0.0,0.0,0.0,0.0,2.7893063550000003,4.389674732977291,0.0,40689.0,0.125,0.0,0.0,0.0,0.25,2.183837667,0.5526872062785609,0.0,0.38999998569488525,-1.190000057220459,0.009999999776482582,-0.0201416015625,0.00830078125,1.02203369140625,34.13999938964844,0.0,1.0,1.6460113525390625,0.2785797119140625,Opening,0.0,0.0,1.0,0.0,0.0,0.0,0.0,0.0,
3.0408400000000255,0.0,0.0,41151.0,0.0,0.0,0.0,0.0,0.125,1.380615093,0.5498168668524864,0.0,38161.0,0.0,0.0,0.0,0.0,0.125,4.829101068,4.41043958977222,0.0,-2098.0,0.0,0.0,0.0,0.0,0.0,2.7893063550000003,4.389674732977291,0.0,40689.0,0.125,0.0,0.0,0.0,0.25,2.182616964,0.5526872062785609,0.0,0.38999998569488525,-1.190000057220459,0.009999999776482582,-0.02276611328125,0.0068359375,1.0174560546875,34.13999938964844,0.0,-1.0,1.6460113525390625,0.2785797119140625,Opening,0.0,0.0,1.0,0.0,0.0,0.0,0.0,0.0,
3.0792690000000293,0.0,0.0,41151.0,0.0,0.0,0.0,0.0,0.125,1.380615093,0.5498168668524864,0.0,38161.0,0.0,0.0,0.0,0.0,0.125,4.830321771,4.41043958977222,0.0,-2098.0,0.0,0.0,0.0,0.0,0.0,2.7880856520000004,4.389674732977291,0.0,40689.0,0.125,0.0,0.0,0.0,0.25,2.183837667,0.5526872062785609,0.0,0.38999998569488525,-1.190000057220459,0.009999999776482582,-0.02032470703125,0.0086669921875,1.01898193359375,34.130001068115234,0.0,0.0,1.6460113525390625,0.2785797119140625,Opening,0.0,0.0,1.0,0.0,0.0,0.0,0.0,0.0,
3.119002000000037,0.0,0.0,41151.0,0.0,0.0,0.0,0.0,0.125,1.380615093,0.5498168668524864,0.0,38161.0,0.0,0.0,0.0,0.0,0.125,4.829101068,4.41043958977222,0.0,-2098.0,0.0,0.0,0.0,0.0,0.0,2.7893063550000003,4.389674732977291,0.0,40689.0,0.125,0.0,0.0,0.0,0.25,2.182616964,0.5526872062785609,0.0,0.38999998569488525,-1.190000057220459,0.009999999776482582,-0.02337646484375,0.01025390625,1.02154541015625,34.130001068115234,0.0,-2.0,1.6460113525390625,0.2785797119140625,Opening,0.0,0.0,1.0,0.0,0.0,0.0,0.0,0.0,
3.1602480000000215,0.0,0.0,41151.0,0.0,0.0,0.0,0.0,0.125,1.380615093,0.5498168668524864,0.0,38161.0,0.0,0.0,0.0,0.0,0.125,4.829101068,4.41043958977222,0.0,-2098.0,0.0,0.0,0.0,0.0,0.0,2.7893063550000003,4.389674732977291,0.0,40689.0,0.125,0.0,0.0,0.0,0.25,2.183837667,0.5526872062785609,0.0,0.38999998569488525,-1.190000057220459,0.009999999776482582,-0.022705078125,0.00738525390625,1.019775390625,34.130001068115234,0.0,-1.0,1.6460113525390625,0.2785797119140625,Closing,0.0,0.0,1.0,0.0,0.0,0.0,0.0,0.0,
3.2036680000000053,0.0,0.0,41151.0,0.0,0.0,0.0,0.0,0.125,1.380615093,0.5498168668524864,0.0,38161.0,0.0,0.0,0.0,0.0,0.125,4.830321771,4.41043958977222,0.0,-2098.0,0.0,0.0,0.0,0.0,0.0,2.7893063550000003,4.389674732977291,0.0,40689.0,0.125,0.0,0.0,0.0,0.25,2.183837667,0.5526872062785609,0.0,0.38999998569488525,-1.190000057220459,0.009999999776482582,-0.02001953125,0.0052490234375,1.018310546875,34.130001068115234,0.0,1.0,1.6460113525390625,0.2785797119140625,Closing,0.0,0.0,1.0,0.0,0.0,0.0,0.0,0.0,
3.2418050000000513,0.0,0.0,41151.0,0.0,0.0,0.0,0.0,0.125,1.381835796,0.5498168668524864,0.0,38161.0,0.0,0.0,0.0,0.0,0.125,4.829101068,4.41043958977222,0.0,-2098.0,0.0,0.0,0.0,0.0,0.0,2.7893063550000003,4.389674732977291,0.0,40689.0,0.125,0.0,0.0,0.0,0.25,2.183837667,0.5526872062785609,0.0,0.38999998569488525,-1.190000057220459,0.009999999776482582,-0.0194091796875,0.0048828125,1.02252197265625,34.130001068115234,0.0,1.0,1.6460113525390625,0.2785797119140625,Closing,0.0,0.0,1.0,0.0,0.0,0.0,0.0,0.0,
3.2784890000000013,0.0,0.0,41151.0,0.0,0.0,0.0,0.0,0.125,1.380615093,0.5498168668524864,0.0,38161.0,0.0,0.0,0.0,0.0,0.125,4.827880365,4.41043958977222,0.0,-2098.0,0.0,0.0,0.0,0.0,0.0,2.7893063550000003,4.389674732977291,0.0,40689.0,0.125,0.0,0.0,0.0,0.25,2.183837667,0.5526872062785609,0.0,0.38999998569488525,-1.190000057220459,0.009999999776482582,-0.0205078125,0.01068115234375,1.0196533203125,34.130001068115234,0.0,0.0,1.6460113525390625,0.2785797119140625,Closing,0.0,0.0,1.0,0.0,0.0,0.0,0.0,0.0,
3.3205710000000543,0.0,0.0,41151.0,0.0,0.0,0.0,0.0,0.125,1.380615093,0.5498168668524864,0.0,38161.0,0.0,0.0,0.0,0.0,0.125,4.829101068,4.41043958977222,0.0,-2098.0,0.0,0.0,0.0,0.0,0.0,2.7893063550000003,4.389674732977291,0.0,40689.0,0.125,0.0,0.0,0.0,0.25,2.183837667,0.5526872062785609,0.0,0.38999998569488525,-1.190000057220459,0.009999999776482582,-0.02313232421875,0.00531005859375,1.02191162109375,34.130001068115234,0.0,-1.0,1.6460113525390625,0.2785797119140625,Closing,0.0,0.0,1.0,0.0,0.0,0.0,0.0,0.0,
3.3593880000000356,0.0,0.0,41151.0,0.0,0.0,0.0,0.0,0.125,1.380615093,0.5498168668524864,0.0,38161.0,0.0,0.0,0.0,0.0,0.125,4.830321771,4.41043958977222,0.0,-2098.0,0.0,0.0,0.0,0.0,0.0,2.7893063550000003,4.389674732977291,0.0,40689.0,0.125,0.0,0.0,0.0,0.25,2.183837667,0.5526872062785609,0.0,0.38999998569488525,-1.190000057220459,0.009999999776482582,-0.02081298828125,0.00732421875,1.02398681640625,34.130001068115234,0.0,0.0,1.6460113525390625,0.2785797119140625,Closing,0.0,0.0,1.0,0.0,0.0,0.0,0.0,0.0,
3.3970200000000186,0.0,0.0,41151.0,0.0,0.0,0.0,0.0,0.125,1.381835796,0.5498168668524864,0.0,38161.0,0.0,0.0,0.0,0.0,0.125,4.830321771,4.41043958977222,0.0,-2098.0,0.0,0.0,0.0,0.0,0.0,2.7893063550000003,4.389674732977291,0.0,40689.0,0.125,0.0,0.0,0.0,0.25,2.183837667,0.5526872062785609,0.0,0.38999998569488525,-1.190000057220459,0.009999999776482582,-0.0220947265625,9.1552734375E-4,1.02008056640625,34.130001068115234,0.0,0.0,1.6460113525390625,0.2785797119140625,Closing,0.0,0.0,1.0,0.0,0.0,0.0,0.0,0.0,
3.4320900000000254,0.0,0.0,41151.0,0.0,0.0,0.0,0.0,0.125,1.380615093,0.5498168668524864,0.0,38161.0,0.0,0.0,0.0,0.0,0.125,4.830321771,4.41043958977222,0.0012207030000004337,-2098.0,0.0,0.0,0.0,0.0,0.0,2.7905270580000003,4.389674732977291,0.0,40689.0,0.125,0.0,0.0,0.0,0.25,2.18505837,0.5526872062785609,0.0,0.38999998569488525,-1.1799999475479126,0.009999999776482582,-0.02099609375,0.00726318359375,1.01568603515625,34.130001068115234,0.0,0.0,1.6460113525390625,0.2785797119140625,Closing,0.0,0.0,1.0,0.0,0.0,0.0,0.0,0.0,
3.4723670000000273,0.0,0.0,41151.0,0.0,0.0,0.0,0.0,0.125,1.380615093,0.5498168668524864,0.0,38161.0,0.0,0.0,0.0,0.0,0.125,4.831542474,4.41043958977222,-0.0012207030000004337,-2098.0,0.0,0.0,0.0,0.0,0.0,2.7880856520000004,4.389674732977291,0.0,40689.0,0.125,0.0,0.0,0.0,0.25,2.183837667,0.5526872062785609,0.0,0.38999998569488525,-1.190000057220459,0.009999999776482582,-0.02105712890625,0.0064697265625,1.02398681640625,34.130001068115234,0.0,0.0,1.6460113525390625,0.2785797119140625,Closing,0.0,0.0,1.0,0.0,0.0,0.0,0.0,0.0,
3.513406000000017,0.0,0.0,41151.0,0.0,0.0,0.0,0.0,0.125,1.381835796,0.01,0.0,38161.0,0.0,0.0,-0.0,0.0,0.125,4.829101068,0.01,0.0,-2098.0,0.0,0.0,0.0,0.0,1.375,2.7941891670000003,0.01,0.0,40689.0,0.125,0.0,-0.0,0.0,1.75,2.175292746,0.01,0.0,0.38999998569488525,-1.190000057220459,0.009999999776482582,-0.0191650390625,0.003173828125,1.0186767578125,34.130001068115234,0.0,2.0,1.6460113525390625,0.2785797119140625,Closing,0.0,0.0,1.0,0.0,0.0,0.0,0.0,0.0,
3.553573000000033,0.0,0.0,41151.0,0.0,0.0,0.0,0.0,1.875,1.313476428,0.01,0.0,38161.0,0.0,0.0,-0.0,0.0,2.875,4.851073722000001,0.01,0.0,-2098.0,0.0,0.0,0.0,0.0,2.125,2.9455563390000004,0.01,0.009765623999999917,40689.0,0.125,0.0,-0.0,0.0,2.75,2.0153806530000002,0.01,-0.007324217999999938,0.3799999952316284,-1.1799999475479126,0.009999999776482582,-0.05059814453125,-0.0438232421875,1.026123046875,34.130001068115234,0.0,-29.0,1.64599609375,0.2785491943359375,Closing,0.0,0.0,1.0,0.0,0.0,0.0,0.0,0.0,
3.5929980000000215,0.0,0.0,41151.0,0.0,0.0,0.0,0.0,2.5,1.1889647220000001,0.01,0.0,38161.0,0.0,0.0,-0.0,0.0,2.125,0.09033202200000001,0.01,0.0012207030000004337,-2098.0,0.0,0.0,0.0,0.0,1.375,3.12499968,0.01,0.009765623999999917,40689.0,0.125,7.5,-0.0,0.0,1.875,1.8383787180000002,0.01,-0.007324217999999938,0.3700000047683716,-1.2000000476837158,0.009999999776482582,-0.0494384765625,-0.03082275390625,1.02349853515625,34.13999938964844,0.0,-27.0,1.645904541015625,0.278076171875,Closing,0.0,0.0,1.0,0.0,0.0,0.0,0.0,0.0,
3.633079000000027,0.0,0.0,41151.0,0.0,0.0,0.0,0.0,0.875,1.011962787,0.01,-0.23315427300000002,38161.0,0.0,0.0,-0.0,0.0,0.75,0.26855466,0.01,-4.7058100650000005,-2101.0,0.0,-7.5,0.0,0.0,0.625,3.2653805250000003,0.01,0.3515624639999997,40696.0,0.125,30.0,-0.0,0.0,1.0,1.7089842000000002,0.01,-0.3442382460000002,0.36000001430511475,-1.2200000286102295,0.0,-0.00238037109375,0.02386474609375,1.028076171875,34.13999938964844,0.0,19.0,1.645660400390625,0.277435302734375,Closing,0.0,0.0,1.0,0.0,0.0,0.0,0.0,0.0,
3.6709860000000334,0.0,0.0,41151.0,0.0,0.0,0.0,0.0,0.5,0.917968656,0.01,-0.16357420199999995,38161.0,0.0,0.0,-0.0,0.0,0.5,0.35522457300000004,0.01,0.1611327960000004,-2101.0,0.0,-15.0,0.0,0.0,0.25,3.305663724,0.01,0.11596678500000035,40696.0,0.125,37.5,-0.0,0.0,0.5,1.674804516,0.01,-0.12451170599999983,0.3799999952316284,-1.2300000190734863,-0.009999999776482582,-0.02362060546875,-0.00396728515625,0.9708251953125,34.13999938964844,0.0,-2.0,1.6454620361328125,0.27728271484375,Closing,0.0,0.0,1.0,0.0,0.0,0.0,0.0,0.0,
3.710927000000025,0.0,0.0,41151.0,0.0,0.0,0.0,0.0,0.375,0.876464754,0.01,-0.16357420199999995,38161.0,0.0,0.0,-0.0,0.0,0.5,0.385742148,0.01,0.07812499199999934,-2101.0,0.0,-22.5,0.0,0.0,0.125,3.3154293480000003,0.01,0.04272460500000008,40696.0,0.125,30.0,-0.0,0.0,0.5,1.676025219,0.01,-0.034179684000000154,0.38999998569488525,-1.2300000190734863,-0.019999999552965164,-0.01904296875,0.0064697265625,1.0135498046875,34.13999938964844,0.0,2.0,1.645355224609375,0.27728271484375,Closing,0.0,0.0,1.0,0.0,0.0,0.0,0.0,0.0,
3.751064000000013,0.0,0.0,41151.0,0.0,0.0,0.0,0.0,0.375,0.859374912,0.01,-0.08300780400000007,38161.0,0.0,0.0,-0.0,0.0,0.5,0.39062496,0.01,0.07812499199999934,-2102.0,0.0,-15.0,0.0,0.0,0.125,3.3154293480000003,0.01,0.04272460500000008,40697.0,0.125,22.5,-0.0,0.0,0.25,1.673583813,0.01,-0.034179684000000154,0.3700000047683716,-1.2000000476837158,-0.019999999552965164,-0.013671875,-0.0098876953125,1.01129150390625,34.13999938964844,0.0,7.0,1.645355224609375,0.27728271484375,Closing,0.0,0.0,1.0,0.0,0.0,0.0,0.0,0.0,
3.7918190000000176,0.0,0.0,41151.0,0.0,0.0,0.0,0.0,0.375,0.864257724,0.01,-0.039062496,38161.0,0.0,0.0,-0.0,0.0,0.25,0.38940425700000003,0.01,0.025634763000000227,-2102.0,0.0,0.0,0.0,0.0,0.0,3.3154293480000003,0.01,0.006103515000000392,40697.0,0.125,0.0,-0.0,0.0,0.25,1.676025219,0.01,0.0,0.3700000047683716,-1.1799999475479126,-0.019999999552965164,-0.01483154296875,0.0205078125,1.0426025390625,34.13999938964844,0.0,6.0,1.6454925537109375,0.27728271484375,Closing,0.0,0.0,1.0,0.0,0.0,0.0,0.0,0.0,
3.829128000000026,0.0,0.0,41151.0,0.0,0.0,0.0,0.0,0.25,0.861816318,0.01,-0.0012207029999999897,38161.0,0.0,0.0,-0.0,0.0,0.25,0.39062496,0.01,0.0,-2102.0,0.0,0.0,0.0,0.0,0.0,3.3154293480000003,0.01,0.0,40697.0,0.125,0.0,-0.0,0.0,0.25,1.674804516,0.01,0.0,0.38999998569488525,-1.1699999570846558,-0.019999999552965164,-0.02490234375,0.00360107421875,1.020263671875,34.13999938964844,0.0,-4.0,1.6454925537109375,0.27728271484375,Closing,0.0,0.0,1.0,0.0,0.0,0.0,0.0,0.0,
3.8692410000000383,0.0,0.0,41151.0,0.0,0.0,0.0,0.0,0.25,0.861816318,0.01,0.0012207029999999897,38161.0,0.0,0.0,-0.0,0.0,0.25,0.39062496,0.01,0.0,-2102.0,0.0,0.0,0.0,0.0,0.0,3.3154293480000003,0.01,0.0,40697.0,0.125,0.0,-0.0,0.0,0.25,1.674804516,0.01,0.0,0.3799999952316284,-1.1799999475479126,-0.009999999776482582,-0.0328369140625,0.00543212890625,1.0235595703125,34.13999938964844,0.0,-11.0,1.6454925537109375,0.27728271484375,Closing,0.0,0.0,1.0,0.0,0.0,0.0,0.0,0.0,
3.908725000000035,0.0,0.0,41151.0,0.0,0.0,0.0,0.0,0.25,0.861816318,0.01,0.0012207029999999897,38161.0,0.0,0.0,-0.0,0.0,0.25,0.39062496,0.01,0.0,-2102.0,0.0,0.0,0.0,0.0,0.0,3.3154293480000003,0.01,0.0,40697.0,0.125,0.0,-0.0,0.0,0.25,1.674804516,0.01,0.0,0.3799999952316284,-1.1799999475479126,-0.009999999776482582,-0.02545166015625,0.00750732421875,1.0235595703125,34.13999938964844,0.0,-4.0,1.6454925537109375,0.27728271484375,Closing,0.0,0.0,1.0,0.0,0.0,0.0,0.0,0.0,
3.950010000000009,0.0,0.0,41151.0,0.0,0.0,0.0,0.0,0.25,0.860595615,0.01,0.0,38161.0,0.0,0.0,-0.0,0.0,0.25,0.39062496,0.01,0.0,-2102.0,0.0,0.0,0.0,0.0,0.0,3.3142086450000003,0.01,0.0,40697.0,0.125,0.0,-0.0,0.0,0.25,1.676025219,0.01,0.0,0.3799999952316284,-1.1799999475479126,-0.009999999776482582,-0.01214599609375,0.01129150390625,1.01788330078125,34.13999938964844,0.0,8.0,1.6454925537109375,0.27728271484375,Closing,0.0,0.0,1.0,0.0,0.0,0.0,0.0,0.0,
3.9897000000000116,0.0,0.0,41151.0,0.0,0.0,0.0,0.0,0.25,0.872802645,0.01,-0.0012207029999999897,38161.0,0.0,0.0,-0.0,0.0,0.25,0.38940425700000003,0.01,0.0,-2102.0,0.0,0.0,0.0,0.0,0.0,3.3154293480000003,0.01,0.0,40697.0,0.125,0.0,-0.0,0.0,0.25,1.674804516,0.01,0.0,0.38999998569488525,-1.1799999475479126,-0.009999999776482582,-0.01654052734375,0.008056640625,1.0189208984375,34.13999938964844,0.0,4.0,1.6454925537109375,0.27728271484375,Closing,0.0,0.0,1.0,0.0,0.0,0.0,0.0,0.0,
4.026670000000042,0.0,0.0,41151.0,0.0,0.0,0.0,0.0,0.25,0.861816318,0.01,0.0,38161.0,0.0,0.0,-0.0,0.0,0.25,0.39062496,0.01,0.0,-2102.0,0.0,0.0,0.0,0.0,0.125,3.3142086450000003,0.01,0.0,40697.0,0.125,0.0,-0.0,0.0,0.25,1.674804516,0.01,0.0,0.38999998569488525,-1.1799999475479126,-0.009999999776482582,-0.02685546875,0.0040283203125,1.0172119140625,34.13999938964844,0.0,-5.0,1.6454925537109375,0.27728271484375,Closing,0.0,0.0,1.0,0.0,0.0,0.0,0.0,0.0,
4.066488000000012,0.0,0.0,41151.0,0.0,0.0,0.0,0.0,0.25,0.861816318,0.01,0.0,38161.0,0.0,0.0,-0.0,0.0,0.25,0.39062496,0.01,0.0,-2102.0,0.0,0.0,0.0,0.0,0.0,3.3154293480000003,0.01,0.0,40697.0,0.125,0.0,-0.0,0.0,0.25,1.673583813,0.01,0.0,0.38999998569488525,-1.190000057220459,-0.009999999776482582,-0.0250244140625,0.00567626953125,1.02374267578125,34.13999938964844,0.0,-3.0,1.6454925537109375,0.27728271484375,Closing,0.0,0.0,1.0,0.0,0.0,0.0,0.0,0.0,
4.104782000000006,0.0,0.0,41151.0,0.0,0.0,0.0,0.0,0.25,0.861816318,0.01,0.0,38161.0,0.0,0.0,-0.0,0.0,0.25,0.38940425700000003,0.01,0.0,-2102.0,0.0,0.0,0.0,0.0,0.0,3.3142086450000003,0.01,0.0,40697.0,0.125,0.0,-0.0,0.0,0.25,1.674804516,0.01,0.0,0.38999998569488525,-1.190000057220459,-0.009999999776482582,-0.01824951171875,0.0074462890625,1.02099609375,34.130001068115234,0.0,3.0,1.6454925537109375,0.27728271484375,Closing,0.0,0.0,1.0,0.0,0.0,0.0,0.0,0.0,
4.144333000000042,0.0,0.0,41151.0,0.0,0.0,0.0,0.0,0.25,0.860595615,0.01,0.0,38161.0,0.0,0.0,-0.0,0.0,0.25,0.38940425700000003,0.01,0.0,-2102.0,0.0,0.0,0.0,0.0,0.0,3.3142086450000003,0.01,0.0,40697.0,0.125,0.0,-0.0,0.0,0.25,1.674804516,0.01,0.0,0.38999998569488525,-1.190000057220459,-0.009999999776482582,-0.01873779296875,0.00518798828125,1.01531982421875,34.130001068115234,0.0,2.0,1.6454925537109375,0.27728271484375,Closing,0.0,0.0,1.0,0.0,0.0,0.0,0.0,0.0,
4.179721000000019,0.0,0.0,41151.0,0.0,0.0,0.0,0.0,0.25,0.860595615,0.01,0.0,38161.0,0.0,0.0,-0.0,0.0,0.25,0.38940425700000003,0.01,0.0,-2102.0,0.0,0.0,0.0,0.0,0.0,3.3154293480000003,0.01,0.0,40697.0,0.125,0.0,-0.0,0.0,0.25,1.674804516,0.01,0.0,0.3799999952316284,-1.190000057220459,-0.009999999776482582,-0.02398681640625,0.010009765625,1.0146484375,34.130001068115234,0.0,-2.0,1.6454925537109375,0.27728271484375,Closing,0.0,0.0,1.0,0.0,0.0,0.0,0.0,0.0,
4.2197240000000455,0.0,0.0,41151.0,0.0,0.0,0.0,0.0,0.25,0.860595615,0.01,0.0,38161.0,0.0,0.0,-0.0,0.0,0.25,0.39062496,0.01,0.0,-2102.0,0.0,0.0,0.0,0.0,0.0,3.3142086450000003,0.01,0.0,40697.0,0.125,0.0,-0.0,0.0,0.25,1.674804516,0.01,0.0,0.3799999952316284,-1.190000057220459,-0.009999999776482582,-0.0220947265625,0.00634765625,1.02130126953125,34.130001068115234,0.0,0.0,1.6454925537109375,0.27728271484375,Closing,0.0,0.0,1.0,0.0,0.0,0.0,0.0,0.0,
4.259585000000021,0.0,0.0,41151.0,0.0,0.0,0.0,0.0,0.25,0.861816318,0.01,0.0,38161.0,0.0,0.0,-0.0,0.0,0.25,0.39062496,0.01,0.0,-2102.0,0.0,0.0,0.0,0.0,0.0,3.3154293480000003,0.01,0.0,40697.0,0.125,0.0,-0.0,0.0,0.25,1.673583813,0.01,0.0,0.3799999952316284,-1.190000057220459,-0.009999999776482582,-0.02130126953125,0.008056640625,1.0155029296875,34.130001068115234,0.0,0.0,1.6454925537109375,0.27728271484375,Closing,0.0,0.0,1.0,0.0,0.0,0.0,0.0,0.0,
4.303839000000036,0.0,0.0,41151.0,0.0,0.0,0.0,0.0,0.25,0.861816318,0.01,0.0,38161.0,0.0,0.0,-0.0,0.0,0.25,0.39062496,0.01,0.0,-2102.0,0.0,0.0,0.0,0.0,0.0,3.3142086450000003,0.01,0.0,40697.0,0.125,0.0,-0.0,0.0,0.25,1.674804516,0.01,0.0,0.3799999952316284,-1.190000057220459,0.0,-0.02130126953125,0.00836181640625,1.01806640625,34.130001068115234,0.0,0.0,1.6454925537109375,0.27728271484375,Closing,0.0,0.0,1.0,0.0,0.0,0.0,0.0,0.0,
4.34644100000005,0.0,0.0,41151.0,0.0,0.0,0.0,0.0,0.25,0.861816318,0.01,0.0,38161.0,0.0,0.0,-0.0,0.0,0.25,0.39062496,0.01,0.0,-2102.0,0.0,0.0,0.0,0.0,0.0,3.3154293480000003,0.01,0.0,40697.0,0.125,0.0,-0.0,0.0,0.25,1.674804516,0.01,0.0,0.3799999952316284,-1.190000057220459,0.0,-0.02215576171875,0.00970458984375,1.0191650390625,34.130001068115234,0.0,0.0,1.6454925537109375,0.27728271484375,Closing,0.0,0.0,1.0,0.0,0.0,0.0,0.0,0.0,
4.382529000000039,0.0,0.0,41151.0,0.0,0.0,0.0,0.0,0.25,0.860595615,0.01,0.0012207029999999897,38161.0,0.0,0.0,-0.0,0.0,0.25,0.38940425700000003,0.01,0.0,-2102.0,0.0,0.0,0.0,0.0,0.0,3.3154293480000003,0.01,0.0,40697.0,0.125,0.0,-0.0,0.0,0.25,1.674804516,0.01,0.0,0.3799999952316284,-1.190000057220459,0.0,-0.02349853515625,0.00665283203125,1.01287841796875,34.130001068115234,0.0,-2.0,1.6454925537109375,0.27728271484375,Closing,0.0,0.0,1.0,0.0,0.0,0.0,0.0,0.0,
4.41938400000002,0.0,0.0,41151.0,0.0,0.0,0.0,0.0,0.25,0.861816318,0.01,0.0,38161.0,0.0,0.0,-0.0,0.0,0.25,0.38940425700000003,0.01,0.0,-2102.0,0.0,0.0,0.0,0.0,0.0,3.3142086450000003,0.01,0.0,40697.0,0.125,0.0,-0.0,0.0,0.25,1.674804516,0.01,0.0,0.3799999952316284,-1.190000057220459,0.0,-0.02099609375,0.0048828125,1.0189208984375,34.130001068115234,0.0,0.0,1.6454925537109375,0.27728271484375,Closing,0.0,0.0,1.0,0.0,0.0,0.0,0.0,0.0,
4.465276000000013,0.0,0.0,41151.0,0.0,0.0,0.0,0.0,0.25,0.860595615,0.01,0.0,38161.0,0.0,0.0,-0.0,0.0,0.25,0.39062496,0.01,0.0,-2102.0,0.0,0.0,0.0,0.0,0.0,3.3154293480000003,0.01,0.0,40697.0,0.125,0.0,-0.0,0.0,0.25,1.674804516,0.01,0.0012207029999999897,0.3799999952316284,-1.190000057220459,0.0,-0.02313232421875,0.0029296875,1.02032470703125,34.130001068115234,0.0,-1.0,1.6454925537109375,0.27728271484375,Closing,0.0,0.0,1.0,0.0,0.0,0.0,0.0,0.0,
4.507360000000045,0.0,0.0,41151.0,0.0,0.0,0.0,0.0,0.25,0.860595615,0.01,0.0,38161.0,0.0,0.0,-0.0,0.0,0.25,0.384521445,0.01,0.0,-2102.0,0.0,0.0,0.0,0.0,0.0,3.3142086450000003,0.01,0.0,40697.0,0.125,0.0,-0.0,0.0,0.25,1.677245922,0.01,0.0012207029999999897,0.3799999952316284,-1.190000057220459,0.0,-0.02099609375,0.00787353515625,1.0133056640625,34.130001068115234,0.0,0.0,1.6454925537109375,0.27728271484375,Closing,0.0,0.0,1.0,0.0,0.0,0.0,0.0,0.0,
4.547439000000013,0.0,0.0,41151.0,0.0,0.0,0.0,0.0,0.25,0.861816318,0.01,0.0,38161.0,0.0,0.0,-0.0,0.0,0.25,0.39062496,0.01,0.0,-2102.0,0.0,0.0,0.0,0.0,0.0,3.3142086450000003,0.01,0.0,40697.0,0.125,0.0,-0.0,0.0,0.25,1.673583813,0.01,-0.0012207029999999897,0.3799999952316284,-1.190000057220459,0.0,-0.02313232421875,0.00836181640625,1.02508544921875,34.130001068115234,0.0,-1.0,1.6454925537109375,0.27728271484375,Closing,0.0,0.0,1.0,0.0,0.0,0.0,0.0,0.0,
4.590512000000046,0.0,0.0,41151.0,0.0,0.0,0.0,0.0,0.25,0.864257724,0.01,-0.0012207029999999897,38161.0,0.0,0.0,-0.0,0.0,0.25,0.38940425700000003,0.01,0.0,-2102.0,0.0,0.0,0.0,0.0,0.0,3.3142086450000003,0.01,0.0,40697.0,0.125,0.0,-0.0,0.0,0.25,1.677245922,0.01,0.0,0.3799999952316284,-1.190000057220459,0.0,-0.0230712890625,0.00701904296875,1.01690673828125,34.15999984741211,0.0,-1.0,1.6454925537109375,0.27728271484375,Closing,0.0,0.0,1.0,0.0,0.0,0.0,0.0,0.0,
4.628966000000015,0.0,0.0,41151.0,0.0,0.0,0.0,0.0,0.25,0.860595615,0.01,0.0,38161.0,0.0,0.0,-0.0,0.0,0.25,0.38940425700000003,0.01,0.0,-2102.0,0.0,0.0,0.0,0.0,0.0,3.3142086450000003,0.01,0.0,40697.0,0.125,0.0,-0.0,0.0,0.25,1.674804516,0.01,0.0,0.3799999952316284,-1.190000057220459,0.0,-0.020751953125,0.0064697265625,1.02227783203125,34.15999984741211,0.0,0.0,1.6454925537109375,0.27728271484375,Closing,0.0,0.0,1.0,0.0,0.0,0.0,0.0,0.0,
4.6682080000000425,0.0,0.0,41151.0,0.0,0.0,0.0,0.0,0.25,0.863037021,0.01,0.0,38161.0,0.0,0.0,-0.0,0.0,0.25,0.38940425700000003,0.01,0.0,-2102.0,0.0,0.0,0.0,0.0,0.0,3.3166500510000003,0.01,0.0,40697.0,0.125,0.0,-0.0,0.0,0.25,1.674804516,0.01,0.0,0.3799999952316284,-1.190000057220459,0.0,-0.0238037109375,0.00732421875,1.0196533203125,34.15999984741211,0.0,-2.0,1.6454925537109375,0.27728271484375,Closing,0.0,0.0,1.0,0.0,0.0,0.0,0.0,0.0,
4.707684000000008,0.0,0.0,41151.0,0.0,0.0,0.0,0.0,0.25,0.861816318,0.01,0.0,38161.0,0.0,0.0,-0.0,0.0,0.25,0.38818355400000004,0.01,0.0,-2102.0,0.0,0.0,0.0,0.0,0.0,3.3142086450000003,0.01,0.0,40697.0,0.125,0.0,-0.0,0.0,0.25,1.674804516,0.01,0.0,0.3799999952316284,-1.190000057220459,0.0,-0.0208740234375,0.0079345703125,1.02197265625,34.15999984741211,0.0,0.0,1.6454925537109375,0.27728271484375,Closing,0.0,0.0,1.0,0.0,0.0,0.0,0.0,0.0,
4.74772000000003,0.0,0.0,41151.0,0.0,0.0,0.0,0.0,0.25,0.861816318,0.01,0.0,38161.0,0.0,0.0,-0.0,0.0,0.25,0.39062496,0.01,0.0,-2102.0,0.0,0.0,0.0,0.0,0.0,3.3142086450000003,0.01,0.0,40697.0,0.125,0.0,-0.0,0.0,0.25,1.673583813,0.01,0.0,0.3799999952316284,-1.190000057220459,0.0,-0.01995849609375,0.00604248046875,1.0230712890625,34.15999984741211,0.0,1.0,1.6454925537109375,0.27728271484375,Closing,0.0,0.0,1.0,0.0,0.0,0.0,0.0,0.0,
4.78118100000004,0.0,0.0,41151.0,0.0,0.0,0.0,0.0,0.25,0.861816318,0.01,0.0012207029999999897,38161.0,0.0,0.0,-0.0,0.0,0.25,0.39062496,0.01,0.0,-2102.0,0.0,0.0,0.0,0.0,0.0,3.3154293480000003,0.01,0.0,40697.0,0.125,0.0,-0.0,0.0,0.25,1.674804516,0.01,0.0,0.3799999952316284,-1.2000000476837158,0.0,-0.01934814453125,0.00543212890625,1.022216796875,34.15999984741211,0.0,2.0,1.6454925537109375,0.27728271484375,Closing,0.0,0.0,1.0,0.0,0.0,0.0,0.0,0.0,
4.820627000000036,0.0,0.0,41151.0,0.0,0.0,0.0,0.0,0.25,0.860595615,0.01,-0.0012207029999999897,38161.0,0.0,0.0,-0.0,0.0,0.25,0.39062496,0.01,0.0,-2102.0,0.0,0.0,0.0,0.0,0.0,3.3142086450000003,0.01,0.0,40697.0,0.125,0.0,-0.0,0.0,0.25,1.674804516,0.01,0.0,0.3799999952316284,-1.190000057220459,0.0,-0.02362060546875,0.004638671875,1.019287109375,34.15999984741211,0.0,-2.0,1.6454925537109375,0.27728271484375,Closing,0.0,0.0,1.0,0.0,0.0,0.0,0.0,0.0,
4.863157000000006,0.0,0.0,41151.0,0.0,0.0,0.0,0.0,0.25,0.859374912,0.01,-0.0012207029999999897,38161.0,0.0,0.0,-0.0,0.0,0.25,0.38940425700000003,0.01,0.0,-2102.0,0.0,0.0,0.0,0.0,0.0,3.3142086450000003,0.01,0.0,40697.0,0.125,0.0,-0.0,0.0,0.25,1.674804516,0.01,0.0,0.3700000047683716,-1.190000057220459,0.0,-0.01861572265625,0.007080078125,1.01776123046875,34.15999984741211,0.0,2.0,1.6454925537109375,0.27728271484375,Closing,0.0,0.0,1.0,0.0,0.0,0.0,0.0,0.0,
4.900641000000003,0.0,0.0,41151.0,0.0,0.0,0.0,0.0,0.25,0.850829991,0.01,0.0,38161.0,0.0,0.0,-0.0,0.0,0.25,0.386962851,0.01,0.0,-2102.0,0.0,0.0,0.0,0.0,0.0,3.3154293480000003,0.01,0.0,40697.0,0.125,0.0,-0.0,0.0,0.25,1.674804516,0.01,0.0,0.3799999952316284,-1.190000057220459,0.0,-0.02215576171875,0.0089111328125,1.01483154296875,34.15999984741211,0.0,0.0,1.6454925537109375,0.27728271484375,Closing,0.0,0.0,1.0,0.0,0.0,0.0,0.0,0.0,
4.935659000000043,0.0,0.0,41151.0,0.0,0.0,0.0,0.0,0.25,0.861816318,0.01,0.0,38161.0,0.0,0.0,-0.0,0.0,0.25,0.39062496,0.01,0.0,-2102.0,0.0,0.0,0.0,0.0,0.0,3.3142086450000003,0.01,0.0,40697.0,0.125,0.0,-0.0,0.0,0.25,1.674804516,0.01,0.0,0.3799999952316284,-1.1799999475479126,0.0,-0.0211181640625,0.0079345703125,1.0167236328125,34.15999984741211,0.0,0.0,1.6454925537109375,0.27728271484375,Closing,0.0,0.0,1.0,0.0,0.0,0.0,0.0,0.0,
4.977890000000014,0.0,0.0,41151.0,0.0,0.0,0.0,0.0,0.25,0.864257724,0.01,0.0012207029999999897,38161.0,0.0,0.0,-0.0,0.0,0.25,0.39550777200000004,0.01,0.0,-2102.0,0.0,0.0,0.0,0.0,0.0,3.3142086450000003,0.01,0.0,40697.0,0.125,0.0,-0.0,0.0,0.25,1.674804516,0.01,0.0,0.3799999952316284,-1.190000057220459,0.0,-0.02142333984375,0.00457763671875,1.01885986328125,34.15999984741211,0.0,0.0,1.6454925537109375,0.27728271484375,Closing,0.0,0.0,1.0,0.0,0.0,0.0,0.0,0.0,
5.02429800000001,0.0,0.0,41151.0,0.0,0.0,0.0,0.0,0.25,0.861816318,0.01,-0.0012207029999999897,38161.0,0.0,0.0,-0.0,0.0,0.25,0.38940425700000003,0.01,0.0,-2102.0,0.0,0.0,0.0,0.0,0.0,3.3142086450000003,0.01,0.0,40697.0,0.125,0.0,-0.0,0.0,0.25,1.674804516,0.01,0.0,0.38999998569488525,-1.190000057220459,0.0,-0.020263671875,0.0054931640625,1.0224609375,34.15999984741211,0.0,0.0,1.6454925537109375,0.27728271484375,Closing,0.0,0.0,1.0,0.0,0.0,0.0,0.0,0.0,
