Time,ClimberA1,ClimberA2,FRpos,FRCurrent,FRspeed,FRsetpoint,FRApos,FRACurrent,FREncpos,FREncSetpoint,FREncSpeed,FLpos,FLCurrent,FLspeed,FLsetpoint,FLApos,FLACurrent,FLEncpos,FLEncSetpoint,FLEncSpeed,BRpos,BRCurrent,BRspeed,BRsetpoint,BRApos,BRACurrent,BREncpos,BREncSetpoint,BREncSpeed,BLpos,BLCurrent,BLspeed,BLsetpoint,BLApos,BLACurrent,BLEncpos,BLEncSetpoint,BLEncSpeed,navx_Pitch,navx_Roll,navx_Yaw,navx_XAcc,navx_YAcc,navx_ZAcc,navx_Temp,navx_Bar,navx_Alt,navx_XDis,navx_YDis,GearPlacerState,ShootOutputV,ShootOutputCurrent,ShootEncPos,ShootEncVelocity,ShootSpeed,ShootSetpoint,CarouselSetpoint,CarouselCurrent,
0.12022400000004564,0.0,0.0,10019.0,0.0,0.0,0.0,0.0,0.125,0.8007811680000001,0.01,0.0,-29973.0,0.0,0.0,-0.0,0.0,0.25,0.385742148,0.01,0.0,2253.0,0.125,0.0,0.0,0.0,0.0,3.242187168,0.01,0.0,-14256.0,0.0,0.0,-0.0,0.0,0.125,1.596679524,0.01,0.0,-0.6000000238418579,-1.25,0.009999999776482582,-0.0235595703125,-0.01287841796875,1.0224609375,36.40999984741211,0.0,-1.0,2.3848114013671875,-2.61529541015625,Waiting,0.0,0.125,-1253985.0,0.0,0.0,0.0,0.0,0.0,
0.21445299999997952,0.0,0.0,10019.0,0.0,0.0,0.0,0.0,0.125,0.799560465,0.01,0.0,-29973.0,0.0,0.0,-0.0,0.0,0.25,0.386962851,0.01,0.0,2253.0,0.0,0.0,0.0,0.0,0.0,3.243407871,0.01,0.0,-14256.0,0.0,0.0,-0.0,0.0,0.125,1.596679524,0.01,0.0,-0.6000000238418579,-1.25,0.009999999776482582,-0.02130126953125,-0.0103759765625,1.01800537109375,36.40999984741211,0.0,1.0,2.3848114013671875,-2.61529541015625,Waiting,0.0,0.0,-1253985.0,0.0,0.0,0.0,0.0,0.0,
0.3112460000000428,0.0,0.0,10019.0,0.0,0.0,0.0,0.0,0.125,0.798339762,0.01,0.0,-29973.0,0.0,0.0,-0.0,0.0,0.25,0.385742148,0.01,0.0,2253.0,0.0,0.0,0.0,0.0,0.0,3.242187168,0.01,0.0,-14256.0,0.125,0.0,-0.0,0.0,0.125,1.596679524,0.01,0.0,-0.6000000238418579,-1.25,0.009999999776482582,-0.01971435546875,-0.01202392578125,1.01641845703125,36.45000076293945,0.0,2.0,2.3848114013671875,-2.61529541015625,Waiting,0.0,0.125,-1253985.0,0.0,0.0,0.0,0.0,0.0,
0.4056060000000289,0.0,0.0,10019.0,0.0,0.0,0.0,0.0,0.125,0.799560465,0.01,0.0,-29973.0,0.0,0.0,-0.0,0.0,0.25,0.385742148,0.01,0.0,2253.0,0.0,0.0,0.0,0.0,0.0,3.242187168,0.01,0.0,-14256.0,0.0,0.0,-0.0,0.0,0.125,1.595458821,0.01,0.0,-0.6100000143051147,-1.25,0.019999999552965164,-0.0225830078125,-0.01409912109375,1.01708984375,36.45000076293945,0.0,0.0,2.3848114013671875,-2.61529541015625,Waiting,0.0,0.0,-1253985.0,0.0,0.0,0.0,0.0,0.0,
0.5088499999999767,0.0,0.0,10019.0,0.0,0.0,0.0,0.0,0.125,0.799560465,0.01,0.0,-29973.0,0.0,0.0,-0.0,0.0,0.25,0.384521445,0.01,0.0,2253.0,0.0,0.0,0.0,0.0,0.0,3.243407871,0.01,0.0,-14256.0,0.0,0.0,-0.0,0.0,0.125,1.596679524,0.01,0.0,-0.6000000238418579,-1.25,0.019999999552965164,-0.02288818359375,-0.0113525390625,1.024169921875,36.45000076293945,0.0,0.0,2.3848114013671875,-2.61529541015625,Waiting,0.0,0.125,-1253985.0,0.0,0.0,0.0,0.0,0.0,
0.6070899999999674,0.0,0.0,10019.0,0.0,0.0,0.0,0.0,0.125,0.799560465,0.01,0.0,-29973.0,0.0,0.0,-0.0,0.0,0.25,0.385742148,0.01,0.0,2253.0,0.0,0.0,0.0,0.0,0.0,3.242187168,0.01,0.0,-14256.0,0.0,0.0,-0.0,0.0,0.125,1.591796712,0.01,0.0,-0.6000000238418579,-1.25,0.029999999329447746,-0.0216064453125,-0.00872802734375,1.02020263671875,36.45000076293945,0.0,0.0,2.3848114013671875,-2.61529541015625,Waiting,0.0,0.0,-1253985.0,0.0,0.0,0.0,0.0,0.125,
0.697420999999973,0.0,0.0,10019.0,0.0,0.0,0.0,0.0,0.125,0.798339762,0.01,0.0,-29973.0,0.0,0.0,-0.0,0.0,0.25,0.384521445,0.01,0.0,2253.0,0.0,0.0,0.0,0.0,0.0,3.243407871,0.01,0.0,-14256.0,0.0,0.0,-0.0,0.0,0.125,1.596679524,0.01,0.0,-0.6000000238418579,-1.25,0.029999999329447746,-0.0238037109375,-0.00958251953125,1.017822265625,36.45000076293945,0.0,-1.0,2.3848114013671875,-2.61529541015625,Waiting,0.0,0.0,-1253985.0,0.0,0.0,0.0,0.0,0.0,
0.7934890000000596,0.0,0.0,10019.0,0.0,0.0,0.0,0.0,0.125,0.799560465,0.01,0.0,-29973.0,0.0,0.0,-0.0,0.0,0.25,0.384521445,0.01,0.0,2253.0,0.0,0.0,0.0,0.0,0.0,3.242187168,0.01,0.0,-14256.0,0.0,0.0,-0.0,0.0,0.125,1.596679524,0.01,0.0,-0.6000000238418579,-1.2400000095367432,0.03999999910593033,-0.02154541015625,-0.0103759765625,1.022705078125,36.45000076293945,0.0,0.0,2.3848114013671875,-2.61529541015625,Waiting,0.0,0.0,-1253985.0,0.0,0.0,0.0,0.0,0.0,
0.8920139999999664,0.0,0.0,10019.0,0.0,0.0,0.0,0.0,0.125,0.798339762,0.01,0.0,-29973.0,0.0,0.0,-0.0,0.0,0.25,0.384521445,0.01,0.0,2253.0,0.0,0.0,0.0,0.0,0.0,3.242187168,0.01,0.0,-14256.0,0.0,0.0,-0.0,0.0,0.125,1.596679524,0.01,0.0,-0.6000000238418579,-1.2400000095367432,0.05000000074505806,-0.021240234375,-0.012939453125,1.01776123046875,36.41999816894531,0.0,0.0,2.3848114013671875,-2.61529541015625,Waiting,0.0,0.125,-1253985.0,0.0,0.0,0.0,0.0,0.125,
0.9894159999999683,0.0,0.0,10019.0,0.0,0.0,0.0,0.0,0.125,0.797119059,0.01,0.0,-29973.0,0.0,0.0,-0.0,0.0,0.25,0.384521445,0.01,0.0,2253.0,0.0,0.0,0.0,0.0,0.0,3.242187168,0.01,0.0,-14256.0,0.0,0.0,-0.0,0.0,0.125,1.595458821,0.01,0.0,-0.5899999737739563,-1.2400000095367432,0.05000000074505806,-0.02154541015625,-0.01263427734375,1.01824951171875,36.41999816894531,0.0,0.0,2.3848114013671875,-2.61529541015625,Waiting,0.0,0.125,-1253985.0,0.0,0.0,0.0,0.0,0.0,
1.0862000000000698,0.0,0.0,10019.0,0.0,0.0,0.0,0.0,0.125,0.799560465,0.01,0.0,-29973.0,0.0,0.0,-0.0,0.0,0.25,0.385742148,0.01,0.0,2253.0,0.0,0.0,0.0,0.0,0.0,3.243407871,0.01,0.0,-14256.0,0.0,0.0,-0.0,0.0,0.125,1.596679524,0.01,0.0,-0.6000000238418579,-1.2400000095367432,0.05000000074505806,-0.02215576171875,-0.0087890625,1.0155029296875,36.41999816894531,0.0,0.0,2.3848114013671875,-2.61529541015625,Waiting,0.0,0.0,-1253985.0,0.0,0.0,0.0,0.0,0.125,
1.1849660000000148,0.0,0.0,10019.0,0.0,0.0,0.0,0.0,0.125,0.799560465,0.01,0.0,-29973.0,0.0,0.0,-0.0,0.0,0.25,0.385742148,0.01,0.0,2253.0,0.0,0.0,0.0,0.0,0.0,3.243407871,0.01,0.0,-14256.0,0.125,0.0,-0.0,0.0,0.125,1.596679524,0.01,0.0,-0.6000000238418579,-1.2400000095367432,0.05999999865889549,-0.0242919921875,-0.01220703125,1.0196533203125,36.41999816894531,0.0,-2.0,2.3848114013671875,-2.61529541015625,Waiting,0.0,0.0,-1253985.0,0.0,0.0,0.0,0.0,0.0,
1.2846500000000234,0.0,0.0,10019.0,0.0,0.0,0.0,0.0,0.125,0.798339762,0.01,0.0,-29973.0,0.0,0.0,-0.0,0.0,0.25,0.384521445,0.01,0.0,2253.0,0.0,0.0,0.0,0.0,0.0,3.243407871,0.01,0.0,-14256.0,0.0,0.0,-0.0,0.0,0.125,1.596679524,0.01,0.0,-0.6000000238418579,-1.2400000095367432,0.07000000029802322,-0.0198974609375,-0.0118408203125,1.01800537109375,36.41999816894531,0.0,2.0,2.3848114013671875,-2.61529541015625,Waiting,0.0,0.0,-1253985.0,0.0,0.0,0.0,0.0,0.0,
1.3901380000000354,0.0,0.0,10019.0,0.0,0.0,0.0,0.0,0.125,0.799560465,0.01,0.0,-29973.0,0.0,0.0,-0.0,0.0,0.25,0.384521445,0.01,0.0,2253.0,0.0,0.0,0.0,0.0,0.0,3.243407871,0.01,0.0,-14256.0,0.0,0.0,-0.0,0.0,0.125,1.596679524,0.01,0.0,-0.6100000143051147,-1.25,0.07999999821186066,-0.022216796875,-0.01287841796875,1.02215576171875,36.41999816894531,0.0,0.0,2.3848114013671875,-2.61529541015625,Waiting,0.0,0.0,-1253985.0,0.0,0.0,0.0,0.0,0.0,
1.4871480000000448,0.0,0.0,10019.0,0.0,0.0,0.0,0.0,0.125,0.799560465,0.01,0.0,-29973.0,0.0,0.0,-0.0,0.0,0.25,0.385742148,0.01,0.0,2253.0,0.0,0.0,0.0,0.0,0.0,3.243407871,0.01,0.0,-14256.0,0.0,0.0,-0.0,0.0,0.125,1.596679524,0.01,0.0,-0.6100000143051147,-1.25,0.07999999821186066,-0.02276611328125,-0.00885009765625,1.01953125,36.41999816894531,0.0,0.0,2.3848114013671875,-2.61529541015625,Waiting,0.0,0.0,-1253985.0,0.0,0.0,0.0,0.0,0.125,
1.5875050000000046,0.0,0.0,10019.0,0.0,0.0,0.0,0.0,0.125,0.798339762,0.01,0.0,-29973.0,0.0,0.0,-0.0,0.0,0.25,0.384521445,0.01,0.0,2253.0,0.0,0.0,0.0,0.0,0.0,3.243407871,0.01,0.0,-14256.0,0.0,0.0,-0.0,0.0,0.125,1.596679524,0.01,0.0,-0.6000000238418579,-1.2400000095367432,0.09000000357627869,-0.02239990234375,-0.01031494140625,1.019287109375,36.41999816894531,0.0,0.0,2.3848114013671875,-2.61529541015625,Waiting,0.0,0.0,-1253985.0,0.0,0.0,0.0,0.0,0.125,
1.6813989999999759,0.0,0.0,10019.0,0.0,0.0,0.0,0.0,0.125,0.799560465,0.01,0.0,-29973.0,0.0,0.0,-0.0,0.0,0.25,0.385742148,0.01,0.0,2253.0,0.0,0.0,0.0,0.0,0.0,3.242187168,0.01,0.0,-14256.0,0.0,0.0,-0.0,0.0,0.125,1.596679524,0.01,0.0012207029999995456,-0.6100000143051147,-1.25,0.09000000357627869,-0.02197265625,-0.01361083984375,1.01898193359375,36.41999816894531,0.0,0.0,2.3848114013671875,-2.61529541015625,Waiting,0.0,0.0,-1253985.0,0.0,0.0,0.0,0.0,0.0,
1.7799969999999739,0.0,0.0,10019.0,0.0,0.0,0.0,0.0,0.125,0.799560465,0.01,0.0,-29973.0,0.0,0.0,-0.0,0.0,0.25,0.385742148,0.01,0.0,2253.0,0.0,0.0,0.0,0.0,0.0,3.242187168,0.01,0.0,-14256.0,0.0,0.0,-0.0,0.0,0.125,1.595458821,0.01,-0.0012207029999995456,-0.6100000143051147,-1.2400000095367432,0.10000000149011612,-0.02435302734375,-0.0123291015625,1.0162353515625,36.41999816894531,0.0,-2.0,2.3848114013671875,-2.61529541015625,Waiting,0.0,0.125,-1253985.0,0.0,0.0,0.0,0.0,0.0,
1.875484000000055,0.0,0.0,10019.0,0.0,0.0,0.0,0.0,0.125,0.798339762,0.01,0.0,-29973.0,0.0,0.0,-0.0,0.0,0.25,0.385742148,0.01,0.0,2253.0,0.0,0.0,0.0,0.0,0.0,3.242187168,0.01,0.0,-14256.0,0.0,0.0,-0.0,0.0,0.125,1.596679524,0.01,0.0,-0.6100000143051147,-1.2400000095367432,0.10000000149011612,-0.0191650390625,-0.011962890625,1.0184326171875,36.439998626708984,0.0,2.0,2.3848114013671875,-2.61529541015625,Waiting,0.0,0.0,-1253985.0,0.0,0.0,0.0,0.0,0.0,
1.9611219999999738,0.0,0.0,10019.0,0.0,0.0,0.0,0.0,0.125,0.798339762,0.01,0.0,-29973.0,0.0,0.0,-0.0,0.0,0.25,0.384521445,0.01,0.0,2253.0,0.0,0.0,0.0,0.0,0.0,3.243407871,0.01,0.0,-14256.0,0.0,0.0,-0.0,0.0,0.125,1.596679524,0.01,0.0,-0.6100000143051147,-1.2400000095367432,0.10999999940395355,-0.02325439453125,-0.00970458984375,1.020263671875,36.439998626708984,0.0,-1.0,2.3848114013671875,-2.61529541015625,Waiting,0.0,0.0,-1253985.0,0.0,0.0,0.0,0.0,0.125,
2.056633000000031,0.0,0.0,10019.0,0.0,0.0,0.0,0.0,0.125,0.798339762,0.01,0.0,-29973.0,0.0,0.0,-0.0,0.0,0.25,0.385742148,0.01,0.0,2253.0,0.0,0.0,0.0,0.0,0.0,3.242187168,0.01,0.0,-14256.0,0.0,0.0,-0.0,0.0,0.125,1.596679524,0.01,0.0,-0.6100000143051147,-1.2400000095367432,0.10999999940395355,-0.0225830078125,-0.01055908203125,1.0191650390625,36.439998626708984,0.0,0.0,2.3848114013671875,-2.61529541015625,Waiting,0.0,0.0,-1253985.0,0.0,0.0,0.0,0.0,0.125,
2.153619999999995,0.0,0.0,10019.0,0.0,0.0,0.0,0.0,0.125,0.799560465,0.01,0.0,-29973.0,0.0,0.0,-0.0,0.0,0.25,0.384521445,0.01,0.0,2253.0,0.0,0.0,0.0,0.0,0.0,3.242187168,0.01,0.0,-14256.0,0.125,0.0,-0.0,0.0,0.125,1.595458821,0.01,0.0,-0.6100000143051147,-1.2400000095367432,0.11999999731779099,-0.02081298828125,-0.01177978515625,1.02001953125,36.439998626708984,0.0,1.0,2.3848114013671875,-2.61529541015625,Waiting,0.0,0.125,-1253985.0,0.0,0.0,0.0,0.0,0.0,
2.2527240000000455,0.0,0.0,10019.0,0.0,0.0,0.0,0.0,0.125,0.8007811680000001,0.01,0.0,-29973.0,0.0,0.0,-0.0,0.0,0.25,0.385742148,0.01,0.0,2253.0,0.0,0.0,0.0,0.0,0.0,3.243407871,0.01,0.0,-14256.0,0.0,0.0,-0.0,0.0,0.125,1.596679524,0.01,0.0,-0.6100000143051147,-1.2400000095367432,0.11999999731779099,-0.02459716796875,-0.01007080078125,1.019775390625,36.439998626708984,0.0,-2.0,2.3848114013671875,-2.61529541015625,Waiting,0.0,0.125,-1253985.0,0.0,0.0,0.0,0.0,0.125,
2.349927000000025,0.0,0.0,10019.0,0.0,0.0,0.0,0.0,0.125,0.799560465,0.01,0.0,-29973.0,0.0,0.0,-0.0,0.0,0.25,0.385742148,0.01,0.0,2253.0,0.0,0.0,0.0,0.0,0.0,3.245849277,0.01,0.0,-14256.0,0.125,0.0,-0.0,0.0,0.125,1.596679524,0.01,0.0,-0.6100000143051147,-1.2400000095367432,0.12999999523162842,-0.02301025390625,-0.01043701171875,1.0152587890625,36.439998626708984,0.0,0.0,2.3848114013671875,-2.61529541015625,Waiting,0.0,0.0,-1253985.0,0.0,0.0,0.0,0.0,0.125,
2.4470629999999653,0.0,0.0,10019.0,0.0,0.0,0.0,0.0,0.125,0.799560465,0.01,0.0,-29973.0,0.0,0.0,-0.0,0.0,0.25,0.384521445,0.01,0.0,2253.0,0.0,0.0,0.0,0.0,0.0,3.242187168,0.01,0.0,-14256.0,0.0,0.0,-0.0,0.0,0.125,1.595458821,0.01,0.0,-0.6100000143051147,-1.2400000095367432,0.12999999523162842,-0.0216064453125,-0.00946044921875,1.01654052734375,36.41999816894531,0.0,0.0,2.3848114013671875,-2.61529541015625,Waiting,0.0,0.0,-1253985.0,0.0,0.0,0.0,0.0,0.0,
2.5483760000000477,0.0,0.0,10019.0,0.0,0.0,0.0,0.0,0.125,0.799560465,0.01,0.0,-29973.0,0.0,0.0,-0.0,0.0,0.25,0.385742148,0.01,0.0,2253.0,0.0,0.0,0.0,0.0,0.0,3.242187168,0.01,0.0,-14256.0,0.0,0.0,-0.0,0.0,0.125,1.596679524,0.01,0.0,-0.6100000143051147,-1.2400000095367432,0.14000000059604645,-0.02301025390625,-0.01202392578125,1.0213623046875,36.41999816894531,0.0,0.0,2.3848114013671875,-2.61529541015625,Waiting,0.0,0.0,-1253985.0,0.0,0.0,0.0,0.0,0.0,
2.6404599999999627,0.0,0.0,10019.0,0.0,0.0,0.0,0.0,0.125,0.799560465,0.01,0.0,-29973.0,0.0,0.0,-0.0,0.0,0.25,0.384521445,0.01,0.0,2253.0,0.0,0.0,0.0,0.0,0.0,3.242187168,0.01,0.0,-14256.0,0.0,0.0,-0.0,0.0,0.125,1.596679524,0.01,0.0,-0.6100000143051147,-1.2400000095367432,0.15000000596046448,-0.024169921875,-0.0101318359375,1.02081298828125,36.41999816894531,0.0,-1.0,2.3848114013671875,-2.61529541015625,Waiting,0.0,0.125,-1253985.0,0.0,0.0,0.0,0.0,0.0,
2.736765000000014,0.0,0.0,10019.0,0.0,0.0,0.0,0.0,0.125,0.798339762,0.01,0.0,-29973.0,0.0,0.0,-0.0,0.0,0.25,0.385742148,0.01,0.0,2253.0,0.0,0.0,0.0,0.0,0.0,3.242187168,0.01,0.0,-14256.0,0.0,0.0,-0.0,0.0,0.125,1.596679524,0.01,0.0,-0.6000000238418579,-1.2400000095367432,0.15000000596046448,-0.02032470703125,-0.01104736328125,1.01556396484375,36.41999816894531,0.0,1.0,2.3848114013671875,-2.61529541015625,Waiting,0.0,0.125,-1253985.0,0.0,0.0,0.0,0.0,0.0,
2.8331339999999616,0.0,0.0,10019.0,0.0,0.0,0.0,0.0,0.125,0.799560465,0.01,0.0,-29973.0,0.0,0.0,-0.0,0.0,0.25,0.385742148,0.01,0.0,2253.0,0.0,0.0,0.0,0.0,0.0,3.242187168,0.01,0.0,-14256.0,0.125,0.0,-0.0,0.0,0.125,1.596679524,0.01,0.0,-0.6000000238418579,-1.2400000095367432,0.15000000596046448,-0.02099609375,-0.00933837890625,1.02264404296875,36.41999816894531,0.0,1.0,2.3848114013671875,-2.61529541015625,Waiting,0.0,0.0,-1253985.0,0.0,0.0,0.0,0.0,0.0,
2.9309640000000363,0.0,0.0,10019.0,0.0,0.0,0.0,0.0,0.125,0.798339762,0.01,0.0,-29973.0,0.0,0.0,-0.0,0.0,0.25,0.385742148,0.01,0.0,2253.0,0.0,0.0,0.0,0.0,0.0,3.242187168,0.01,0.0,-14256.0,0.0,0.0,-0.0,0.0,0.125,1.596679524,0.01,0.0,-0.6000000238418579,-1.2400000095367432,0.1599999964237213,-0.02337646484375,-0.01068115234375,1.0162353515625,36.41999816894531,0.0,-1.0,2.3848114013671875,-2.61529541015625,Waiting,0.0,0.125,-1253985.0,0.0,0.0,0.0,0.0,0.0,
3.0287090000000316,0.0,0.0,10019.0,0.0,0.0,0.0,0.0,0.125,0.799560465,0.01,0.0,-29973.0,0.0,0.0,-0.0,0.0,0.25,0.385742148,0.01,0.0,2253.0,0.0,0.0,0.0,0.0,0.0,3.240966465,0.01,0.0,-14256.0,0.125,0.0,-0.0,0.0,0.125,1.596679524,0.01,0.0,-0.6000000238418579,-1.2400000095367432,0.17000000178813934,-0.0225830078125,-0.0107421875,1.021484375,36.41999816894531,0.0,0.0,2.3848114013671875,-2.61529541015625,Waiting,0.0,0.0,-1253985.0,0.0,0.0,0.0,0.0,0.0,
3.1201070000000763,0.0,0.0,10019.0,0.0,0.0,0.0,0.0,0.125,0.799560465,0.01,0.0,-29973.0,0.0,0.0,-0.0,0.0,0.25,0.384521445,0.01,0.0,2253.0,0.0,0.0,0.0,0.0,0.0,3.242187168,0.01,0.0,-14256.0,0.0,0.0,-0.0,0.0,0.125,1.596679524,0.01,0.0,-0.6000000238418579,-1.2400000095367432,0.17000000178813934,-0.02154541015625,-0.00848388671875,1.017578125,36.41999816894531,0.0,0.0,2.3848114013671875,-2.61529541015625,Waiting,0.0,0.125,-1253985.0,0.0,0.0,0.0,0.0,0.0,
3.2179250000000468,0.0,0.0,10019.0,0.0,0.0,0.0,0.0,0.125,0.799560465,0.01,0.0,-29973.0,0.0,0.0,-0.0,0.0,0.25,0.384521445,0.01,0.0,2253.0,0.0,0.0,0.0,0.0,0.0,3.242187168,0.01,0.0,-14256.0,0.0,0.0,-0.0,0.0,0.125,1.596679524,0.01,0.0,-0.6000000238418579,-1.2400000095367432,0.17000000178813934,-0.02392578125,-0.01177978515625,1.01904296875,36.41999816894531,0.0,-1.0,2.3848114013671875,-2.61529541015625,Waiting,0.0,0.125,-1253985.0,0.0,0.0,0.0,0.0,0.0,
3.31391399999999,0.0,0.0,10019.0,0.0,0.0,0.0,0.0,0.125,0.799560465,0.01,0.0,-29973.0,0.0,0.0,-0.0,0.0,0.25,0.385742148,0.01,0.0,2253.0,0.0,0.0,0.0,0.0,0.0,3.242187168,0.01,0.0,-14256.0,0.0,0.0,-0.0,0.0,0.125,1.595458821,0.01,0.0,-0.6000000238418579,-1.2400000095367432,0.18000000715255737,-0.02252197265625,-0.01025390625,1.01580810546875,36.41999816894531,0.0,0.0,2.3848114013671875,-2.61529541015625,Waiting,0.0,0.0,-1253985.0,0.0,0.0,0.0,0.0,0.125,
3.413283999999985,0.0,0.0,10019.0,0.0,0.0,0.0,0.0,0.125,0.799560465,0.01,0.0,-29973.0,0.0,0.0,-0.0,0.0,0.25,0.385742148,0.01,0.0,2253.0,0.0,0.0,0.0,0.0,0.0,3.242187168,0.01,0.0,-14256.0,0.0,0.0,-0.0,0.0,0.125,1.596679524,0.01,0.0,-0.6000000238418579,-1.25,0.1899999976158142,-0.02215576171875,-0.0123291015625,1.01953125,36.38999938964844,0.0,0.0,2.3848114013671875,-2.61529541015625,Waiting,0.0,0.0,-1253985.0,0.0,0.0,0.0,0.0,0.0,
3.5102730000000446,0.0,0.0,10019.0,0.0,0.0,0.0,0.0,0.125,0.798339762,0.01,0.0,-29973.0,0.0,0.0,-0.0,0.0,0.25,0.384521445,0.01,0.0,2253.0,0.0,0.0,0.0,0.0,0.0,3.242187168,0.01,0.0,-14256.0,0.0,0.0,-0.0,0.0,0.125,1.596679524,0.01,0.0,-0.6000000238418579,-1.25,0.1899999976158142,-0.02349853515625,-0.0108642578125,1.0189208984375,36.38999938964844,0.0,-1.0,2.3848114013671875,-2.61529541015625,Waiting,0.0,0.0,-1253985.0,0.0,0.0,0.0,0.0,0.0,
3.6081680000000635,0.0,0.0,10019.0,0.0,0.0,0.0,0.0,0.125,0.799560465,0.01,0.0,-29973.0,0.0,0.0,-0.0,0.0,0.25,0.384521445,0.01,0.0,2253.0,0.0,0.0,0.0,0.0,0.0,3.240966465,0.01,0.0,-14256.0,0.0,0.0,-0.0,0.0,0.125,1.596679524,0.01,0.0,-0.6000000238418579,-1.25,0.20000000298023224,-0.02130126953125,-0.01043701171875,1.01904296875,36.38999938964844,0.0,1.0,2.3848114013671875,-2.61529541015625,Waiting,0.0,0.0,-1253985.0,0.0,0.0,0.0,0.0,0.0,
3.7111149999999906,0.0,0.0,10019.0,0.0,0.0,0.0,0.0,0.125,0.799560465,0.01,0.0,-29973.0,0.0,0.0,-0.0,0.0,0.25,0.384521445,0.01,0.0,2253.0,0.0,0.0,0.0,0.0,0.0,3.243407871,0.01,0.0,-14256.0,0.0,0.0,-0.0,0.0,0.125,1.596679524,0.01,0.0,-0.6000000238418579,-1.25,0.20000000298023224,-0.02166748046875,-0.01220703125,1.0234375,36.38999938964844,0.0,0.0,2.3848114013671875,-2.61529541015625,Waiting,0.0,0.0,-1253985.0,0.0,0.0,0.0,0.0,0.125,
3.8081670000000156,0.0,0.0,10019.0,0.0,0.0,0.0,0.0,0.125,0.799560465,0.01,0.0,-29973.0,0.0,0.0,-0.0,0.0,0.25,0.384521445,0.01,0.0,2253.0,0.0,0.0,0.0,0.0,0.0,3.243407871,0.01,0.0,-14256.0,0.0,0.0,-0.0,0.0,0.125,1.596679524,0.01,0.0,-0.6000000238418579,-1.25,0.2199999988079071,-0.0228271484375,-0.00958251953125,1.01824951171875,36.38999938964844,0.0,0.0,2.3848114013671875,-2.61529541015625,Waiting,0.0,0.0,-1253985.0,0.0,0.0,0.0,0.0,0.0,
3.9029429999999703,0.0,0.0,10019.0,0.0,0.0,0.0,0.0,0.125,0.797119059,0.01,0.0,-29973.0,0.0,0.0,-0.0,0.0,0.25,0.385742148,0.01,0.0,2253.0,0.0,0.0,0.0,0.0,0.0,3.243407871,0.01,0.0,-14256.0,0.0,0.0,-0.0,0.0,0.125,1.590576009,0.01,0.0,-0.6000000238418579,-1.25,0.2199999988079071,-0.0201416015625,-0.01129150390625,1.01312255859375,36.380001068115234,0.0,2.0,2.3848114013671875,-2.61529541015625,Waiting,0.0,0.125,-1253985.0,0.0,0.0,0.0,0.0,0.0,
3.9975960000000197,0.0,0.0,10019.0,0.0,0.0,0.0,0.0,0.125,0.798339762,0.01,0.0,-29973.0,0.0,0.0,-0.0,0.0,0.25,0.385742148,0.01,0.0,2253.0,0.0,0.0,0.0,0.0,0.0,3.242187168,0.01,0.0,-14256.0,0.0,0.0,-0.0,0.0,0.125,1.596679524,0.01,0.0,-0.6000000238418579,-1.25,0.2199999988079071,-0.02294921875,-0.00946044921875,1.020751953125,36.380001068115234,0.0,0.0,2.3848114013671875,-2.61529541015625,Waiting,0.0,0.125,-1253985.0,0.0,0.0,0.0,0.0,0.125,
4.094386000000057,0.0,0.0,10019.0,0.0,0.0,0.0,0.0,0.125,0.799560465,0.01,0.0,-29973.0,0.0,0.0,-0.0,0.0,0.25,0.384521445,0.01,0.0,2253.0,0.0,0.0,0.0,0.0,0.0,3.242187168,0.01,0.0,-14256.0,0.125,0.0,-0.0,0.0,0.125,1.595458821,0.01,0.0,-0.6000000238418579,-1.25,0.23999999463558197,-0.022705078125,-0.00970458984375,1.01898193359375,36.380001068115234,0.0,0.0,2.3848114013671875,-2.61529541015625,Waiting,0.0,0.0,-1253985.0,0.0,0.0,0.0,0.0,0.125,
4.192128000000026,0.0,0.0,10019.0,0.0,0.0,0.0,0.0,0.125,0.799560465,0.01,0.0,-29973.0,0.0,0.0,-0.0,0.0,0.25,0.384521445,0.01,0.0,2253.0,0.0,0.0,0.0,0.0,0.0,3.242187168,0.01,0.0,-14256.0,0.0,0.0,-0.0,0.0,0.125,1.595458821,0.01,0.0,-0.6000000238418579,-1.2400000095367432,0.23999999463558197,-0.022216796875,-0.013671875,1.018798828125,36.380001068115234,0.0,0.0,2.3848114013671875,-2.61529541015625,Waiting,0.0,0.0,-1253985.0,0.0,0.0,0.0,0.0,0.0,
4.289482000000076,0.0,0.0,10019.0,0.0,0.0,0.0,0.0,0.125,0.798339762,0.01,0.0,-29973.0,0.0,0.0,-0.0,0.0,0.25,0.385742148,0.01,0.0,2253.0,0.0,0.0,0.0,0.0,0.0,3.243407871,0.01,0.0,-14256.0,0.0,0.0,-0.0,0.0,0.125,1.596679524,0.01,-0.0012207029999995456,-0.6000000238418579,-1.2400000095367432,0.25,-0.02093505859375,-0.01239013671875,1.0203857421875,36.380001068115234,0.0,1.0,2.3848114013671875,-2.61529541015625,Waiting,0.0,0.0,-1253985.0,0.0,0.0,0.0,0.0,0.0,
4.3827989999999994,0.0,0.0,10019.0,0.0,0.0,0.0,0.0,0.125,0.799560465,0.01,0.0,-29973.0,0.0,0.0,-0.0,0.0,0.25,0.385742148,0.01,0.0,2253.0,0.0,0.0,0.0,0.0,0.0,3.243407871,0.01,0.0,-14256.0,0.0,0.0,-0.0,0.0,0.125,1.596679524,0.01,0.0,-0.6000000238418579,-1.2400000095367432,0.25999999046325684,-0.02337646484375,-0.0089111328125,1.02069091796875,36.380001068115234,0.0,-1.0,2.3848114013671875,-2.61529541015625,Waiting,0.0,0.125,-1253985.0,0.0,0.0,0.0,0.0,0.0,
4.483937000000035,0.0,0.0,10019.0,0.0,0.0,0.0,0.0,0.125,0.799560465,0.01,0.0,-29973.0,0.0,0.0,-0.0,0.0,0.25,0.385742148,0.01,0.0,2253.0,0.0,0.0,0.0,0.0,0.0,3.242187168,0.01,0.0,-14256.0,0.0,0.0,-0.0,0.0,0.125,1.596679524,0.01,0.0,-0.6000000238418579,-1.2400000095367432,0.25999999046325684,-0.02447509765625,-0.01300048828125,1.01531982421875,36.400001525878906,0.0,-2.0,2.3848114013671875,-2.61529541015625,Waiting,0.0,0.0,-1253985.0,0.0,0.0,0.0,0.0,0.125,
4.5819120000000115,0.0,0.0,10019.0,0.0,0.0,0.0,0.0,0.125,0.798339762,0.01,0.0,-29973.0,0.0,0.0,-0.0,0.0,0.25,0.385742148,0.01,0.0,2253.0,0.0,0.0,0.0,0.0,0.0,3.243407871,0.01,0.0,-14256.0,0.0,0.0,-0.0,0.0,0.125,1.595458821,0.01,0.0,-0.6000000238418579,-1.2400000095367432,0.27000001072883606,-0.01849365234375,-0.009765625,1.0234375,36.400001525878906,0.0,3.0,2.3848114013671875,-2.61529541015625,Waiting,0.0,0.0,-1253985.0,0.0,0.0,0.0,0.0,0.125,
4.681847000000067,0.0,0.0,10019.0,0.0,0.0,0.0,0.0,0.125,0.799560465,0.01,0.0,-29973.0,0.0,0.0,-0.0,0.0,0.25,0.384521445,0.01,0.0,2253.0,0.0,0.0,0.0,0.0,0.0,3.242187168,0.01,0.0,-14256.0,0.0,0.0,-0.0,0.0,0.125,1.595458821,0.01,0.0,-0.6000000238418579,-1.2400000095367432,0.27000001072883606,-0.0213623046875,-0.01129150390625,1.01806640625,36.400001525878906,0.0,0.0,2.3848114013671875,-2.61529541015625,Waiting,0.0,0.0,-1253985.0,0.0,0.0,0.0,0.0,0.0,
4.785391000000062,0.0,0.0,10019.0,0.0,0.0,0.0,0.0,0.125,0.799560465,0.01,0.0,-29973.0,0.0,0.0,-0.0,0.0,0.25,0.385742148,0.01,0.0,2253.0,0.0,0.0,0.0,0.0,0.0,3.242187168,0.01,0.0,-14256.0,0.0,0.0,-0.0,0.0,0.125,1.596679524,0.01,0.0,-0.6000000238418579,-1.2400000095367432,0.2800000011920929,-0.02264404296875,-0.0126953125,1.02117919921875,36.400001525878906,0.0,0.0,2.3848114013671875,-2.61529541015625,Waiting,0.0,0.0,-1253985.0,0.0,0.0,0.0,0.0,0.0,
4.892927000000025,0.0,0.0,10019.0,0.0,0.0,0.0,0.0,0.125,0.799560465,0.01,0.0,-29973.0,0.0,0.0,-0.0,0.0,0.25,0.384521445,0.01,0.0,2253.0,0.0,0.0,0.0,0.0,0.0,3.242187168,0.01,0.0,-14256.0,0.0,0.0,-0.0,0.0,0.125,1.596679524,0.01,0.0,-0.6000000238418579,-1.2400000095367432,0.28999999165534973,-0.0213623046875,-0.01214599609375,1.023193359375,36.38999938964844,0.0,0.0,2.3848114013671875,-2.61529541015625,Waiting,0.0,0.0,-1253985.0,0.0,0.0,0.0,0.0,0.0,
4.996895000000019,0.0,0.0,10019.0,0.0,0.0,0.0,0.0,0.125,0.799560465,0.01,0.0,-29973.0,0.0,0.0,-0.0,0.0,0.25,0.385742148,0.01,0.0,2253.0,0.0,0.0,0.0,0.0,0.0,3.242187168,0.01,0.0,-14256.0,0.0,0.0,-0.0,0.0,0.125,1.595458821,0.01,0.0,-0.6000000238418579,-1.2400000095367432,0.28999999165534973,-0.0218505859375,-0.0115966796875,1.01873779296875,36.38999938964844,0.0,0.0,2.3848114013671875,-2.61529541015625,Waiting,0.0,0.0,-1253985.0,0.0,0.0,0.0,0.0,0.125,
5.10352800000005,0.0,0.0,10019.0,0.0,0.0,0.0,0.0,0.125,0.798339762,0.01,0.0,-29973.0,0.0,0.0,-0.0,0.0,0.25,0.385742148,0.01,0.0,2253.0,0.0,0.0,0.0,0.0,0.0,3.240966465,0.01,0.0,-14256.0,0.0,0.0,-0.0,0.0,0.125,1.596679524,0.01,0.0,-0.6000000238418579,-1.2400000095367432,0.28999999165534973,-0.02276611328125,-0.01177978515625,1.0166015625,36.38999938964844,0.0,0.0,2.3848114013671875,-2.61529541015625,Waiting,0.0,0.0,-1253985.0,0.0,0.0,0.0,0.0,0.0,
5.207913000000059,0.0,0.0,10008.0,5.75,-45.0,-1157.480263710022,0.0,0.125,0.8154296040000001,4.932250999999998,0.0,-29964.0,12.375,67.5,1157.480263710022,0.0,0.25,0.385742148,4.963769999999998,0.0,2253.0,5.75,-22.5,-1157.480263710022,0.0,0.0,3.276366852,0.01,0.0,-14252.0,6.75,82.5,1157.480263710022,0.0,0.125,1.591796712,0.01,0.0,-0.49000000953674316,-1.8300000429153442,0.30000001192092896,-0.196533203125,-0.06109619140625,1.07330322265625,36.38999938964844,0.0,-162.0,2.3831024169921875,-2.615081787109375,Waiting,0.0,0.0,-1253985.0,0.0,0.0,0.0,0.0,0.0,
5.308459000000032,0.0,0.0,10008.0,14.25,-337.5,-1603.9369940757751,0.0,0.125,0.819091713,4.932250999999998,0.0,-29912.0,27.0,367.5,1603.9369940757751,0.0,0.25,0.377197227,4.963769999999998,0.0,2244.0,17.125,-67.5,-1603.9369940757751,0.0,0.125,3.277587555,0.01,0.0,-14210.0,13.875,367.5,1603.9369940757751,0.0,0.125,1.590576009,0.01,0.0,-0.33000001311302185,-3.309999942779541,0.5,-0.400146484375,-0.09625244140625,1.0274658203125,36.38999938964844,0.0,-340.0,2.36566162109375,-2.6129150390625,Waiting,0.0,0.125,-1253985.0,0.0,0.0,0.0,0.0,0.0,
5.409420000000042,0.0,0.0,9929.0,9.625,-780.0,-1388.9763414859772,0.0,0.125,0.819091713,4.932250999999998,0.0,-29769.0,17.5,870.0,1388.9763414859772,0.0,0.25,0.384521445,4.963769999999998,0.0,2229.0,22.625,-90.0,-1388.9763414859772,0.0,0.125,3.276366852,0.01,0.0,-14088.0,9.875,810.0,1388.9763414859772,0.0,0.125,1.595458821,0.01,0.0,-0.46000000834465027,-4.579999923706055,0.75,-0.32476806640625,-0.05084228515625,1.33544921875,36.400001525878906,0.0,-217.0,2.3268280029296875,-2.6119537353515625,Waiting,0.0,0.125,-1253985.0,0.0,0.0,0.0,0.0,0.0,
5.515116000000038,0.0,0.0,9775.0,6.0,-1155.0,-1388.9763414859772,0.0,0.125,0.8178710100000001,4.932250999999998,0.0,-29572.0,11.5,1170.0,1388.9763414859772,0.0,0.25,0.385742148,4.963769999999998,0.0,2210.0,32.25,-135.0,-1388.9763414859772,0.0,0.125,3.2751461490000002,0.01,0.0,-13904.0,7.25,1140.0,1388.9763414859772,0.0,0.125,1.59912093,0.01,0.0,-0.4699999988079071,-5.130000114440918,1.3300000429153442,-0.37933349609375,-0.40509033203125,0.21929931640625,36.400001525878906,0.0,-367.0,2.272064208984375,-2.611083984375,Waiting,0.0,0.0,-1253985.0,0.0,0.0,0.0,0.0,0.125,
5.617908000000054,0.0,0.0,9554.0,1.0,-1462.5,-1223.622089624405,0.0,0.125,0.8178710100000001,4.932250999999998,0.0,-29572.0,5.875,1335.0,1223.622089624405,0.0,0.25,0.385742148,4.963769999999998,0.0,2160.0,36.0,-375.0,-1223.622089624405,0.0,0.125,3.276366852,0.01,0.0,-13904.0,4.0,1290.0,1223.622089624405,0.0,0.125,1.59912093,0.01,0.0,-0.46000000834465027,-5.599999904632568,2.319999933242798,-0.080322265625,0.0848388671875,0.663818359375,36.400001525878906,0.0,-11.0,2.207611083984375,-2.612548828125,Waiting,0.0,0.0,-1253985.0,0.0,0.0,0.0,0.0,0.0,
5.715145000000018,0.0,0.0,9316.0,0.0,-1492.5,-1074.8031377792358,0.0,0.125,0.8142089010000001,4.932250999999998,0.0,-29351.0,1.625,1357.5,1074.8031377792358,0.0,0.25,0.385742148,4.963769999999998,0.0,2110.0,35.75,-292.5,-1074.8031377792358,0.0,0.125,3.280028961,0.01,0.0,-13692.0,1.625,1357.5,1074.8031377792358,0.0,0.125,1.595458821,0.01,0.0,-0.3700000047683716,-5.46999979019165,3.75,-0.12432861328125,0.117431640625,1.12615966796875,36.400001525878906,0.0,-8.0,2.142120361328125,-2.613525390625,Waiting,0.0,0.0,-1253985.0,0.0,0.0,0.0,0.0,0.0,
5.818148000000044,0.0,0.0,9055.0,0.0,-1627.5,-1058.2677125930786,0.0,0.125,0.808105386,4.932250999999998,0.0,-29141.0,0.5,1327.5,1058.2677125930786,0.0,0.25,0.391845663,4.963769999999998,0.0,2049.0,34.375,-442.5,-1058.2677125930786,0.0,0.125,3.2751461490000002,0.01,0.0,-13481.0,0.5,1387.5,1058.2677125930786,0.0,0.125,1.596679524,0.01,0.0,-0.4399999976158142,-5.369999885559082,5.059999942779541,0.16680908203125,-0.06927490234375,0.99444580078125,36.400001525878906,0.0,252.0,2.1454315185546875,-2.6139068603515625,Waiting,0.0,0.0,-1253985.0,0.0,0.0,0.0,0.0,0.0,
5.914430999999983,0.0,0.0,8792.0,0.0,-1650.0,-959.0550988912582,0.0,0.125,0.809326089,4.932250999999998,0.0,-28912.0,0.0,1410.0,959.0550988912582,0.0,0.25,0.384521445,4.963769999999998,0.0,2049.0,34.375,-390.0,-959.0550988912582,0.0,0.125,3.281249664,0.01,0.0,-13243.0,0.375,1447.5,959.0550988912582,0.0,0.125,1.596679524,0.01,0.0,-0.4399999976158142,-4.809999942779541,6.659999847412109,0.05670166015625,0.10479736328125,0.76849365234375,36.369998931884766,0.0,132.0,2.1561431884765625,-2.61444091796875,Waiting,0.0,0.0,-1253985.0,0.0,0.0,0.0,0.0,0.0,
6.027141000000062,0.0,0.0,8534.0,0.375,-1657.5,-909.4488233327866,0.0,0.125,0.822753822,4.932250999999998,0.0,-28707.0,0.0,1252.5,909.4488233327866,0.0,0.25,0.385742148,4.963769999999998,0.0,1956.0,32.0,-802.5,-909.4488233327866,0.0,0.125,3.288573882,0.01,0.0,-13018.0,0.375,1372.5,909.4488233327866,0.0,0.125,1.596679524,0.01,0.0,-0.3400000035762787,-4.230000019073486,8.800000190734863,0.09783935546875,-0.11737060546875,0.88250732421875,36.369998931884766,0.0,143.0,2.178497314453125,-2.6118927001953125,Waiting,0.0,0.125,-1253985.0,0.0,0.0,0.0,0.0,0.0,
6.142334000000032,0.0,0.0,8534.0,1.25,-1387.5,-892.9133981466293,0.0,0.25,0.8044432770000001,4.932250999999998,0.0,-28522.0,0.0,1140.0,892.9133981466293,0.0,0.25,0.385742148,4.963769999999998,0.0,1849.0,36.0,-495.0,-892.9133981466293,0.0,0.125,3.281249664,0.01,0.0,-12810.0,0.375,1290.0,892.9133981466293,0.0,0.125,1.596679524,0.01,0.0,-0.550000011920929,-3.5999999046325684,10.510000228881836,0.28814697265625,0.31536865234375,1.323486328125,36.369998931884766,0.0,424.0,2.2056427001953125,-2.6127777099609375,Waiting,0.0,0.0,-1253985.0,0.0,0.0,0.0,0.0,0.0,
6.249087000000058,0.0,0.0,8317.0,1.875,-1245.0,-859.8425477743149,0.0,0.125,0.8056639800000001,4.932250999999998,0.0,-28355.0,0.0,1050.0,859.8425477743149,0.0,0.25,0.385742148,4.963769999999998,0.0,1803.0,36.25,-352.5,-859.8425477743149,0.0,0.125,3.281249664,0.01,0.0,-12624.0,0.375,1140.0,859.8425477743149,0.0,0.125,1.596679524,0.01,0.0,-0.10000000149011612,-2.6700000762939453,11.729999542236328,-0.13134765625,-0.2906494140625,1.2747802734375,36.369998931884766,0.0,-128.0,2.2459869384765625,-2.6105804443359375,Waiting,0.0,0.0,-1253985.0,0.0,0.0,0.0,0.0,0.0,
6.352692000000039,0.0,0.0,8130.0,8.125,-1065.0,-281.5882884680299,0.0,3.0,0.9204100620000001,0.6817965849184876,0.0,-28355.0,0.625,825.0,281.5882884680299,0.0,5.0,0.59814447,0.686153529964481,0.0,1715.0,37.875,-427.5,-281.5882884680299,0.0,2.25,3.444823866,0.6829230402368607,0.0,-12472.0,1.125,1005.0,281.5882884680299,0.0,3.25,1.7944334100000001,0.6853559293770454,0.0,-0.20999999344348907,-1.6200000047683716,12.90999984741211,0.288818359375,-0.197021484375,1.2884521484375,36.369998931884766,0.0,274.0,2.2970123291015625,-2.6083831787109375,Waiting,0.0,0.0,-1253985.0,0.0,0.0,0.0,0.0,0.0,
6.453035000000033,0.0,0.0,7984.0,7.75,-847.5,-347.2440853714943,0.0,2.375,1.4245604010000001,1.2330627499999984,0.0,-28236.0,0.0,637.5,347.2440853714943,0.0,1.25,1.1901854250000001,1.2409424999999985,0.0,1653.0,35.625,-390.0,-347.2440853714943,0.0,1.75,4.00390584,1.2350999999999985,0.0,-12472.0,0.75,675.0,347.2440853714943,0.0,3.125,2.346191166,1.2394999999999985,0.0,-1.440000057220459,-0.5799999833106995,13.90999984741211,0.09149169921875,-0.03564453125,1.31939697265625,36.310001373291016,0.0,101.0,2.350921630859375,-2.61639404296875,Waiting,0.0,0.125,-1253985.0,0.0,0.0,0.0,0.0,0.0,
6.5529320000000295,0.0,0.0,7892.0,5.25,-570.0,-413.3858174085617,0.0,0.875,1.9494626910000001,1.2330627499999984,0.0,-28143.0,0.0,457.5,413.3858174085617,0.0,0.25,1.77001935,1.2409424999999985,0.0,1550.0,47.5,-667.5,-413.3858174085617,0.0,0.25,4.587401874,1.2350999999999985,0.0,-12381.0,0.125,472.5,413.3858174085617,0.0,0.875,2.81982393,1.2394999999999985,0.0,-1.899999976158142,1.1200000047683716,14.239999771118164,0.13336181640625,-0.316162109375,1.02099609375,36.310001373291016,0.0,40.0,2.426422119140625,-2.6417388916015625,Waiting,0.0,0.125,-1253985.0,0.0,0.0,0.0,0.0,0.0,
6.65260400000005,0.0,0.0,7829.0,3.625,-390.0,-429.92127388715744,0.0,0.5,2.155761498,1.2330627499999984,0.0,-28083.0,0.0,322.5,429.92127388715744,0.0,0.5,1.934814255,1.2409424999999985,0.0,1415.0,39.5,-960.0,-429.92127388715744,0.0,0.375,4.808349117000001,1.2350999999999985,0.0,-12303.0,0.125,465.0,429.92127388715744,0.0,0.25,3.0480953910000004,1.2394999999999985,0.0,-1.4199999570846558,1.8200000524520874,13.270000457763672,-0.090087890625,0.08013916015625,1.0081787109375,36.310001373291016,0.0,-94.0,2.5201873779296875,-2.6735382080078125,Waiting,0.0,0.0,-1253985.0,0.0,0.0,0.0,0.0,0.125,
6.752906000000076,0.0,0.0,7761.0,0.0,-427.5,0.0,0.0,0.375,2.16064431,1.2330627499999984,0.0,-28032.0,0.0,330.0,0.0,0.0,0.25,1.900634571,1.2409424999999985,0.0,1415.0,0.0,-607.5,0.0,0.0,0.5,4.686278817,1.2350999999999985,0.0,-12242.0,0.0,352.5,0.0,0.0,0.5,2.9992672710000003,1.2394999999999985,0.0,-1.059999942779541,1.6699999570846558,13.279999732971191,-0.09771728515625,0.07403564453125,0.89862060546875,36.310001373291016,0.0,-99.0,2.6172027587890625,-2.699951171875,Waiting,0.0,0.125,-1253985.0,0.0,0.0,0.0,0.0,0.0,
6.8519740000000455,0.0,0.0,7761.0,0.0,-225.0,0.0,0.0,0.375,2.097167754,1.2330627499999984,0.0,-27987.0,0.0,300.0,0.0,0.0,0.25,1.751708805,1.2409424999999985,0.0,1356.0,0.0,-37.5,0.0,0.0,0.25,4.488524931000001,1.2350999999999985,0.0,-12198.0,0.0,270.0,0.0,0.0,0.25,2.888183298,1.2394999999999985,0.0,-0.550000011920929,1.2899999618530273,13.319999694824219,-0.054931640625,0.10009765625,0.95343017578125,36.310001373291016,0.0,-49.0,2.697235107421875,-2.71612548828125,Waiting,0.0,0.0,-1253985.0,0.0,0.0,0.0,0.0,0.0,
6.951253000000026,0.0,0.0,7735.0,0.0,-135.0,0.0,0.0,0.25,2.0629880700000003,1.2330627499999984,0.0,-27987.0,0.0,150.0,0.0,0.0,0.25,1.646728347,1.2409424999999985,0.0,1353.0,0.0,-22.5,0.0,0.0,0.0,4.423827672,1.2350999999999985,0.0,-12181.0,0.125,127.5,0.0,0.0,0.25,2.81982393,1.2394999999999985,0.0,-0.05000000074505806,1.0499999523162842,13.380000114440918,-0.0074462890625,0.1190185546875,1.11065673828125,36.369998931884766,0.0,0.0,2.7882232666015625,-2.7272491455078125,Waiting,0.0,0.0,-1253985.0,0.0,0.0,0.0,0.0,0.125,
7.050322000000044,0.0,0.0,7727.0,0.0,-22.5,0.0,0.0,0.125,2.0642087730000003,1.2330627499999984,-0.028076168999999762,-27969.0,0.0,45.0,0.0,0.0,0.25,1.641845535,1.2409424999999985,-0.09521483400000008,1353.0,0.0,0.0,0.0,0.0,0.0,4.433593296000001,1.2350999999999985,0.0,-12181.0,0.0,15.0,0.0,0.0,0.25,2.821044633,1.2394999999999985,0.0,0.17000000178813934,0.9399999976158142,13.329999923706055,-0.0166015625,0.0162353515625,1.008056640625,36.369998931884766,0.0,-29.0,2.787841796875,-2.7316131591796875,Waiting,0.0,0.0,-1253985.0,0.0,0.0,0.0,0.0,0.0,
7.146888000000035,0.0,0.0,7727.0,0.0,0.0,0.0,0.0,0.125,2.0629880700000003,1.2330627499999984,0.0,-27969.0,0.0,0.0,0.0,0.0,0.25,1.640624832,1.2409424999999985,-0.004882811999999959,1353.0,0.0,0.0,0.0,0.0,0.0,4.439696811,1.2350999999999985,0.010986327000000351,-12181.0,0.125,0.0,0.0,0.0,0.125,2.823486039,1.2394999999999985,0.0,0.05999999865889549,0.800000011920929,13.350000381469727,-0.02728271484375,-0.02532958984375,1.0362548828125,36.369998931884766,0.0,-46.0,2.7854766845703125,-2.732879638671875,Waiting,0.0,0.125,-1253985.0,0.0,0.0,0.0,0.0,0.0,
7.238937000000035,0.0,0.0,7727.0,0.0,0.0,0.0,0.0,0.125,2.0642087730000003,1.2330627499999984,0.0,-27969.0,0.0,0.0,0.0,0.0,0.25,1.6552732680000002,1.2409424999999985,0.0,1353.0,0.0,0.0,0.0,0.0,0.0,4.468993683,1.2350999999999985,0.004882811999999959,-12181.0,0.125,0.0,0.0,0.0,0.125,2.824706742,1.2394999999999985,0.0,-0.05999999865889549,0.6600000262260437,13.350000381469727,-0.003173828125,-0.035400390625,1.012451171875,36.369998931884766,0.0,-22.0,2.7813720703125,-2.7338104248046875,Waiting,0.0,0.0,-1253985.0,0.0,0.0,0.0,0.0,0.125,
7.339969999999972,0.0,0.0,7727.0,21.0,187.5,2100.0,0.0,4.75,2.12402322,2.4661254999999977,0.0,-27931.0,27.875,277.5,2100.0,0.0,6.5,1.534423671,4.963769999999998,0.0,1353.0,14.0,-7.5,-2100.0,0.0,4.125,4.37011674,0.01,0.0,-12159.0,19.5,150.0,2100.0,0.0,4.75,2.6965329270000002,0.01,0.0,-0.4099999964237213,0.7099999785423279,13.180000305175781,0.15594482421875,-0.30938720703125,0.80218505859375,36.369998931884766,0.0,72.0,2.7730255126953125,-2.73883056640625,Waiting,0.0,0.0,-1253985.0,0.0,0.0,0.0,0.0,0.125,
7.438146999999997,0.0,0.0,7754.0,33.375,7.5,1719.6850955486298,0.0,4.125,2.5280759130000003,2.4661254999999977,0.0,-27931.0,30.5,525.0,1719.6850955486298,0.0,1.75,1.072997937,4.963769999999998,0.0,1339.0,18.75,-135.0,-1719.6850955486298,0.0,1.375,3.8806148370000004,0.01,0.0,-12104.0,21.375,285.0,1719.6850955486298,0.0,1.5,2.176513449,0.01,0.0,-0.9300000071525574,0.17000000178813934,12.420000076293945,-0.198486328125,-0.1085205078125,0.7041015625,36.369998931884766,0.0,-216.0,2.763092041015625,-2.74884033203125,Waiting,0.0,0.125,-1253985.0,0.0,0.0,0.0,0.0,0.0,
7.530241000000038,0.0,0.0,7721.0,0.0,-322.5,0.0,0.0,1.5,3.020019222,2.4661254999999977,0.0,-27842.0,3.25,450.0,0.0,0.0,1.125,0.627441342,4.963769999999998,0.0,1302.0,0.0,-210.0,0.0,0.0,0.625,3.4130855880000004,0.01,0.0,-12104.0,0.0,367.5,0.0,0.0,0.875,1.668701001,0.01,0.0,-0.5,-0.36000001430511475,10.460000038146973,0.05389404296875,0.345947265625,1.4122314453125,36.310001373291016,0.0,127.0,2.7422943115234375,-2.76153564453125,Waiting,0.0,0.0,-1253985.0,0.0,0.0,0.0,0.0,0.0,
7.6289189999999945,0.0,0.0,7713.0,0.0,-15.0,0.0,0.0,0.625,3.333739893,2.4661254999999977,0.0,-27819.0,0.0,37.5,0.0,0.0,0.25,0.43457026800000004,4.963769999999998,0.0,1305.0,0.0,7.5,0.0,0.0,0.125,3.2080074840000004,0.01,0.0,-12060.0,0.0,172.5,0.0,0.0,0.25,1.5051267990000001,0.01,0.0,-0.10000000149011612,0.15000000596046448,10.489999771118164,0.17144775390625,-0.18994140625,0.9046630859375,36.310001373291016,0.0,131.0,2.7299957275390625,-2.76409912109375,Waiting,0.0,0.0,-1253985.0,0.0,0.0,0.0,0.0,0.125,
7.727305000000051,0.0,0.0,7713.0,0.0,0.0,0.0,0.0,0.375,3.353271141,2.4661254999999977,0.0,-27814.0,0.0,15.0,0.0,0.0,0.0,0.41381831700000005,4.963769999999998,0.0,1305.0,0.0,-7.5,0.0,0.0,0.125,3.19824186,0.01,0.0,-12048.0,0.0,15.0,0.0,0.0,0.25,1.5527342160000002,0.01,0.0,-0.1899999976158142,0.36000001430511475,10.460000038146973,0.00640869140625,0.03399658203125,1.01300048828125,36.310001373291016,0.0,6.0,2.720672607421875,-2.7720489501953125,Waiting,0.0,0.125,-1253985.0,0.0,0.0,0.0,0.0,0.125,
7.825408000000054,0.0,0.0,7713.0,0.0,0.0,0.0,0.0,0.25,3.3105465360000004,2.4661254999999977,0.0,-27814.0,0.0,0.0,0.0,0.0,0.125,0.41503902000000004,4.963769999999998,0.0,1303.0,0.0,0.0,0.0,0.0,0.0,3.232421544,0.01,0.0,-12049.0,0.0,0.0,0.0,0.0,0.375,1.595458821,0.01,0.0,-0.25,0.17000000178813934,10.430000305175781,-0.03253173828125,0.057373046875,1.01556396484375,36.310001373291016,0.0,-23.0,2.7112274169921875,-2.7799530029296875,Waiting,0.0,0.0,-1253985.0,0.0,0.0,0.0,0.0,0.0,
7.923525000000024,0.0,0.0,7713.0,0.0,0.0,0.0,0.0,0.25,3.281249664,2.4661254999999977,0.0,-27814.0,0.0,0.0,0.0,0.0,0.125,0.41381831700000005,4.963769999999998,0.0,1303.0,0.0,0.0,0.0,0.0,0.0,3.237304356,0.01,0.0,-12049.0,0.0,0.0,0.0,0.0,0.125,1.600341633,0.01,0.0,-0.3499999940395355,0.029999999329447746,10.399999618530273,-0.031982421875,-0.01629638671875,0.98699951171875,36.310001373291016,0.0,-33.0,2.70111083984375,-2.7865447998046875,Waiting,0.0,0.0,-1253985.0,0.0,0.0,0.0,0.0,0.0,
8.023944000000018,0.0,0.0,7713.0,0.125,0.0,148.8189049065113,0.0,0.125,3.281249664,2.4661254999999977,0.0,-27814.0,0.125,0.0,148.8189049065113,0.0,0.125,0.41381831700000005,4.963769999999998,0.0,1303.0,0.125,0.0,-148.8189049065113,0.0,0.0,3.237304356,0.01,0.0,-12050.0,0.375,-7.5,148.8189049065113,0.0,0.125,1.600341633,0.01,0.0,-0.30000001192092896,-0.009999999776482582,10.40999984741211,-0.01483154296875,-0.0595703125,1.01666259765625,36.27000045776367,0.0,-24.0,2.69921875,-2.79400634765625,Waiting,0.0,0.0,-1253985.0,0.0,0.0,0.0,0.0,0.0,
8.121783000000054,0.0,0.0,7732.0,6.5,150.0,1174.0156888961792,0.0,0.125,3.276366852,2.4661254999999977,0.0,-27814.0,12.25,210.0,1174.0156888961792,0.0,0.125,0.41381831700000005,4.963769999999998,0.0,1273.0,6.625,-165.0,-1174.0156888961792,0.0,0.0,3.251952792,0.01,0.0,-12050.0,7.25,202.5,1174.0156888961792,0.0,0.125,1.5771482760000002,0.01,0.0,-0.2800000011920929,-0.8500000238418579,10.369999885559082,-0.28668212890625,0.03857421875,0.955078125,36.27000045776367,0.0,-260.0,2.6962738037109375,-2.8013763427734375,Waiting,0.0,0.0,-1253985.0,0.0,0.0,0.0,0.0,0.125,
8.225277000000002,0.0,0.0,7771.0,1.25,247.5,363.77954185009,0.0,0.125,3.2702633370000003,2.4661254999999977,0.0,-27758.0,1.625,300.0,363.77954185009,0.0,0.125,0.39062496,4.963769999999998,0.0,1231.0,1.5,-255.0,-363.77954185009,0.0,0.0,3.253173495,0.01,0.0,-12007.0,1.625,270.0,363.77954185009,0.0,0.25,1.5808103850000002,0.01,0.0,-0.2800000011920929,-1.3600000143051147,10.4399995803833,-0.0679931640625,-0.032958984375,1.02777099609375,36.27000045776367,0.0,-47.0,2.6815948486328125,-2.806396484375,Waiting,0.0,0.0,-1253985.0,0.0,0.0,0.0,0.0,0.125,
8.327428000000072,0.0,0.0,7810.0,0.0,277.5,0.0,0.0,0.125,3.286132476,2.4661254999999977,0.0,-27710.0,0.0,217.5,0.0,0.0,0.25,0.39428706900000005,4.963769999999998,0.0,1231.0,0.0,-262.5,0.0,0.0,0.0,3.251952792,0.01,0.0,-11962.0,0.0,217.5,0.0,0.0,0.25,1.585693197,0.01,0.0,-0.33000001311302185,-1.0700000524520874,10.670000076293945,0.21502685546875,-0.03228759765625,0.9725341796875,36.27000045776367,0.0,224.0,2.6673126220703125,-2.8115692138671875,Waiting,0.0,0.0,-1253985.0,0.0,0.0,0.0,0.0,0.0,
8.426631000000052,0.0,0.0,7849.0,0.0,255.0,0.0,0.0,0.125,3.292235991,2.4661254999999977,0.0,-27683.0,0.0,180.0,0.0,0.0,0.25,0.40039058400000005,4.963769999999998,0.0,1203.0,0.0,-7.5,0.0,0.0,0.0,3.251952792,0.01,0.0,-11922.0,0.0,270.0,0.0,0.0,0.25,1.600341633,0.01,0.0,-0.3700000047683716,-0.5400000214576721,10.529999732971191,0.1085205078125,0.0118408203125,1.069580078125,36.27000045776367,0.0,120.0,2.66241455078125,-2.8166351318359375,Waiting,0.0,0.0,-1253985.0,0.0,0.0,0.0,0.0,0.125,
8.528886000000057,0.0,0.0,7849.0,0.0,75.0,0.0,0.0,0.125,3.292235991,2.4661254999999977,0.0,-27668.0,0.0,112.5,0.0,0.0,0.25,0.399169881,4.963769999999998,0.0,1200.0,0.0,-37.5,0.0,0.0,0.0,3.251952792,0.01,0.0,-11911.0,0.0,82.5,0.0,0.0,0.125,1.595458821,0.01,0.0,-0.4000000059604645,0.009999999776482582,10.529999732971191,0.14776611328125,-0.023193359375,0.9449462890625,36.33000183105469,0.0,142.0,2.6640625,-2.8168487548828125,Waiting,0.0,0.0,-1253985.0,0.0,0.0,0.0,0.0,0.125,
8.630616999999969,0.0,0.0,7850.0,0.375,15.0,281.1023533344269,0.0,0.125,3.292235991,2.4661254999999977,0.0,-27668.0,0.625,7.5,281.1023533344269,0.0,0.25,0.399169881,4.963769999999998,0.0,1196.0,0.375,-15.0,-281.1023533344269,0.0,0.0,3.253173495,0.01,0.0,-11909.0,0.5,0.0,281.1023533344269,0.0,0.125,1.595458821,0.01,0.0,-0.46000000834465027,0.11999999731779099,10.630000114440918,-0.00665283203125,0.0025634765625,1.06292724609375,36.33000183105469,0.0,-6.0,2.6678924560546875,-2.8173828125,Waiting,0.0,0.125,-1253985.0,0.0,0.0,0.0,0.0,0.125,
8.730415999999968,0.0,0.0,7866.0,1.625,105.0,545.6692814826965,0.0,0.125,3.2958981,2.4661254999999977,0.0,-27659.0,2.875,135.0,545.6692814826965,0.0,0.25,0.40039058400000005,4.963769999999998,0.0,1193.0,2.375,-7.5,-545.6692814826965,0.0,0.0,3.251952792,0.01,0.0,-11909.0,1.625,82.5,545.6692814826965,0.0,0.125,1.5869139,0.01,0.0,-0.4399999976158142,-0.3700000047683716,10.649999618530273,-0.1939697265625,0.00775146484375,0.9407958984375,36.33000183105469,0.0,-181.0,2.6650848388671875,-2.8162841796875,Waiting,0.0,0.125,-1253985.0,0.0,0.0,0.0,0.0,0.0,
8.83005900000001,0.0,0.0,7881.0,2.125,112.5,545.6692814826965,0.0,0.125,3.291015288,2.4661254999999977,0.0,-27643.0,4.625,112.5,545.6692814826965,0.0,0.25,0.399169881,4.963769999999998,0.0,1193.0,4.25,0.0,-545.6692814826965,0.0,0.0,3.253173495,0.01,0.0,-11895.0,2.625,82.5,545.6692814826965,0.0,0.25,1.585693197,0.01,0.0,-0.4300000071525574,-0.8899999856948853,10.789999961853027,-0.13922119140625,-0.0223388671875,1.077880859375,36.33000183105469,0.0,-122.0,2.65350341796875,-2.8155517578125,Waiting,0.0,0.0,-1253985.0,0.0,0.0,0.0,0.0,0.0,
8.92994000000006,0.0,0.0,7921.0,2.5,247.5,545.6692814826965,0.0,0.125,3.291015288,2.4661254999999977,0.0,-27608.0,5.5,247.5,545.6692814826965,0.0,0.25,0.397949178,4.963769999999998,0.0,1179.0,6.25,-45.0,-545.6692814826965,0.0,0.0,3.24706998,0.01,0.0,-11864.0,2.625,262.5,545.6692814826965,0.0,0.25,1.585693197,0.01,0.0,-0.44999998807907104,-1.4700000286102295,10.869999885559082,-0.16790771484375,0.0245361328125,1.00921630859375,36.33000183105469,0.0,-133.0,2.634033203125,-2.8146209716796875,Waiting,0.0,0.0,-1253985.0,0.0,0.0,0.0,0.0,0.0,
9.03151800000004,0.0,0.0,7921.0,1.875,405.0,545.6692814826965,0.0,0.125,3.287353179,2.4661254999999977,0.0,-27546.0,4.25,390.0,545.6692814826965,0.0,0.25,0.40039058400000005,4.963769999999998,0.0,1179.0,6.75,-120.0,-545.6692814826965,0.0,0.0,3.253173495,0.01,0.0,-11809.0,2.5,375.0,545.6692814826965,0.0,0.25,1.585693197,0.01,0.0,-0.38999998569488525,-1.7400000095367432,11.180000305175781,-0.06207275390625,0.01361083984375,1.0224609375,36.34000015258789,0.0,-26.0,2.611602783203125,-2.812042236328125,Waiting,0.0,0.0,-1253985.0,0.0,0.0,0.0,0.0,0.125,
9.128859999999985,0.0,0.0,7994.0,1.125,532.5,545.6692814826965,0.0,0.125,3.287353179,2.4661254999999977,0.0,-27462.0,2.875,510.0,545.6692814826965,0.0,0.25,0.399169881,4.963769999999998,0.0,1163.0,8.875,-127.5,-545.6692814826965,0.0,0.0,3.254394198,0.01,0.0,-11730.0,2.0,480.0,545.6692814826965,0.0,0.25,1.585693197,0.01,0.0,-0.3400000035762787,-2.119999885559082,11.65999984741211,-0.04669189453125,0.0447998046875,1.0291748046875,36.34000015258789,0.0,2.0,2.58062744140625,-2.8102874755859375,Waiting,0.0,0.0,-1253985.0,0.0,0.0,0.0,0.0,0.0,
9.224533000000054,0.0,0.0,8090.0,0.375,645.0,545.6692814826965,0.0,0.125,3.287353179,2.4661254999999977,0.0,-27462.0,2.0,585.0,545.6692814826965,0.0,0.25,0.399169881,4.963769999999998,0.0,1135.0,10.25,-172.5,-545.6692814826965,0.0,0.0,3.253173495,0.01,0.0,-11638.0,1.25,562.5,545.6692814826965,0.0,0.25,1.585693197,0.01,0.0,-0.36000001430511475,-2.2799999713897705,12.119999885559082,-0.05047607421875,0.0155029296875,0.9591064453125,36.34000015258789,0.0,-7.0,2.575714111328125,-2.80908203125,Waiting,0.0,0.0,-1253985.0,0.0,0.0,0.0,0.0,0.125,
9.323773999999975,0.0,0.0,8195.0,0.375,652.5,545.6692814826965,0.0,0.125,3.288573882,2.4661254999999977,0.0,-27364.0,1.25,630.0,545.6692814826965,0.0,0.25,0.386962851,4.963769999999998,0.0,1084.0,10.375,-315.0,-545.6692814826965,0.0,0.0,3.251952792,0.01,0.0,-11638.0,0.875,592.5,545.6692814826965,0.0,0.25,1.585693197,0.01,0.0,-0.3100000023841858,-2.390000104904175,12.710000038146973,-0.11724853515625,-0.03594970703125,1.04583740234375,36.34000015258789,0.0,-78.0,2.5748138427734375,-2.8089447021484375,Waiting,0.0,0.0,-1253985.0,0.0,0.0,0.0,0.0,0.0,
9.420472000000068,0.0,0.0,8313.0,0.375,735.0,545.6692814826965,0.0,0.125,3.292235991,2.4661254999999977,0.0,-27261.0,0.75,637.5,545.6692814826965,0.0,0.25,0.397949178,4.963769999999998,0.0,1032.0,11.375,-315.0,-545.6692814826965,0.0,0.0,3.251952792,0.01,0.0,-11543.0,0.75,592.5,545.6692814826965,0.0,0.25,1.585693197,0.01,0.0,-0.3400000035762787,-2.4200000762939453,13.390000343322754,-0.07080078125,-0.03570556640625,1.02880859375,36.34000015258789,0.0,-33.0,2.5736236572265625,-2.8095245361328125,Waiting,0.0,0.0,-1253985.0,0.0,0.0,0.0,0.0,0.0,
9.51651000000001,0.0,0.0,8441.0,0.125,795.0,545.6692814826965,0.0,0.125,3.302001615,2.4661254999999977,0.0,-27164.0,0.75,600.0,545.6692814826965,0.0,0.25,0.399169881,4.963769999999998,0.0,1032.0,10.375,-487.5,-545.6692814826965,0.0,0.0,3.251952792,0.01,0.0,-11435.0,0.375,690.0,545.6692814826965,0.0,0.25,1.589355306,0.01,0.0,-0.47999998927116394,-2.4000000953674316,14.1899995803833,-0.0875244140625,-0.0750732421875,1.087890625,36.33000183105469,0.0,-56.0,2.5736846923828125,-2.8122100830078125,Waiting,0.0,0.125,-1253985.0,0.0,0.0,0.0,0.0,0.125,
9.61631700000004,0.0,0.0,8441.0,0.125,795.0,545.6692814826965,0.0,0.125,3.297118803,2.4661254999999977,0.0,-27056.0,0.25,675.0,545.6692814826965,0.0,0.25,0.399169881,4.963769999999998,0.0,946.0,10.125,-450.0,-545.6692814826965,0.0,0.0,3.251952792,0.01,0.0,-11327.0,0.375,675.0,545.6692814826965,0.0,0.25,1.585693197,0.01,0.0,-0.4300000071525574,-2.190000057220459,15.039999961853027,0.0069580078125,0.0181884765625,0.797119140625,36.33000183105469,0.0,42.0,2.5744781494140625,-2.8133392333984375,Waiting,0.0,0.0,-1253985.0,0.0,0.0,0.0,0.0,0.125,
9.728945999999997,0.0,0.0,8566.0,0.125,772.5,347.2440853714943,0.0,0.125,3.297118803,2.4661254999999977,0.0,-26955.0,0.125,645.0,347.2440853714943,0.0,0.25,0.40039058400000005,4.963769999999998,0.0,880.0,8.875,-517.5,-347.2440853714943,0.0,0.0,3.253173495,0.01,0.0,-11219.0,0.5,667.5,347.2440853714943,0.0,0.25,1.585693197,0.01,0.0,-0.550000011920929,-2.069999933242798,15.779999732971191,0.021728515625,-0.035400390625,0.93048095703125,36.33000183105469,0.0,46.0,2.575469970703125,-2.813629150390625,Waiting,0.0,0.0,-1253985.0,0.0,0.0,0.0,0.0,0.0,
9.828631000000053,0.0,0.0,8682.0,0.0,735.0,0.0,0.0,0.125,3.297118803,2.4661254999999977,0.0,-26955.0,0.0,592.5,0.0,0.0,0.25,0.399169881,4.963769999999998,0.0,758.0,0.0,-697.5,0.0,0.0,0.0,3.243407871,0.01,0.0,-11124.0,0.125,607.5,0.0,0.0,0.25,1.585693197,0.01,0.0,-0.5,-1.600000023841858,16.239999771118164,0.1605224609375,0.1796875,1.19287109375,36.33000183105469,0.0,239.0,2.5789794921875,-2.8160552978515625,Waiting,0.0,0.0,-1253985.0,0.0,0.0,0.0,0.0,0.125,
9.927668000000063,0.0,0.0,8791.0,0.0,540.0,0.0,0.0,0.125,3.2958981,2.4661254999999977,0.0,-26862.0,0.0,502.5,0.0,0.0,0.25,0.399169881,4.963769999999998,0.0,701.0,0.0,-367.5,0.0,0.0,0.0,3.251952792,0.01,0.0,-11124.0,0.0,510.0,0.0,0.0,0.25,1.614990069,0.01,0.0,-0.5099999904632568,-0.9599999785423279,16.239999771118164,0.17987060546875,0.0120849609375,1.14990234375,36.33000183105469,0.0,197.0,2.5928497314453125,-2.8204498291015625,Waiting,0.0,0.0,-1253985.0,0.0,0.0,0.0,0.0,0.125,
10.027974000000045,0.0,0.0,8837.0,0.0,292.5,0.0,0.0,0.125,3.297118803,2.4661254999999977,0.0,-26795.0,0.0,315.0,0.0,0.0,0.25,0.399169881,4.963769999999998,0.0,659.0,0.0,-285.0,0.0,0.0,0.0,3.253173495,0.01,0.0,-11055.0,0.0,337.5,0.0,0.0,0.125,1.6296385050000002,0.01,0.0,-0.5899999737739563,-0.10999999940395355,16.1299991607666,0.1822509765625,-0.0206298828125,1.0009765625,36.349998474121094,0.0,174.0,2.613433837890625,-2.8270111083984375,Waiting,0.0,0.0,-1253985.0,0.0,0.0,0.0,0.0,0.0,
10.12824900000007,0.0,0.0,8855.0,0.0,142.5,0.0,0.0,0.125,3.297118803,2.4661254999999977,0.0,-26766.0,0.0,142.5,0.0,0.0,0.25,0.40039058400000005,4.963769999999998,0.0,659.0,0.0,-105.0,0.0,0.0,0.0,3.251952792,0.01,0.0,-11022.0,0.0,120.0,0.0,0.0,0.25,1.6296385050000002,0.01,0.0,-0.5899999737739563,0.5299999713897705,16.139999389648438,0.14874267578125,0.01666259765625,0.96099853515625,36.349998474121094,0.0,141.0,2.6466827392578125,-2.8364105224609375,Waiting,0.0,0.125,-1253985.0,0.0,0.0,0.0,0.0,0.0,
10.22870299999998,0.0,0.0,8855.0,2.375,-45.0,-820.3125000000001,0.0,2.125,3.5156246400000004,3.0159423668524887,0.0,-26736.0,4.5,157.5,820.3125000000001,0.0,2.375,0.235595679,4.410439589772222,0.0,649.0,3.75,7.5,820.3125000000001,0.0,2.0,3.02734344,4.389674732977289,0.0,-11012.0,2.5,97.5,820.3125000000001,0.0,2.0,1.8383787180000002,0.5526872062785588,0.0,-0.5699999928474426,0.5899999737739563,16.010000228881836,-0.0770263671875,-0.062744140625,0.86932373046875,36.349998474121094,0.0,-97.0,2.686126708984375,-2.8372039794921875,Waiting,0.0,0.0,-1253985.0,0.0,0.0,0.0,0.0,0.0,
10.327618000000017,0.0,0.0,8835.0,4.75,-202.5,-935.15625,0.0,0.375,3.7902828150000003,3.0159423668524887,0.0,-26717.0,12.0,142.5,935.15625,0.0,0.5,4.9255366050000005,4.410439589772222,0.0,664.0,8.0,150.0,935.15625,0.0,0.25,2.711181363,4.389674732977289,0.0,-10990.0,5.375,127.5,935.15625,0.0,0.625,2.12402322,0.5526872062785588,0.0,-0.5699999928474426,0.33000001311302185,14.329999923706055,-0.10162353515625,-0.039306640625,1.03607177734375,36.349998474121094,0.0,-111.0,2.7235565185546875,-2.8375091552734375,Waiting,0.0,0.125,-1253985.0,0.0,0.0,0.0,0.0,0.0,
10.426342999999994,0.0,0.0,8795.0,6.25,-330.0,-935.15625,0.0,0.25,3.8989253820000003,3.0159423668524887,0.0,-26717.0,14.5,315.0,935.15625,0.0,0.25,4.826659662,4.410439589772222,0.0,703.0,9.125,240.0,935.15625,0.0,0.0,2.574462627,4.389674732977289,0.0,-10927.0,6.875,300.0,935.15625,0.0,0.25,2.25830055,0.5526872062785588,0.0,-0.6600000262260437,0.12999999523162842,11.020000457763672,0.01373291015625,-0.01416015625,1.03302001953125,36.349998474121094,0.0,10.0,2.7525177001953125,-2.8373870849609375,Waiting,0.0,0.125,-1253985.0,0.0,0.0,0.0,0.0,0.0,
10.523285999999963,0.0,0.0,8708.0,5.375,-585.0,-935.15625,0.0,0.375,3.905028897,3.0159423668524887,0.0,-26633.0,8.625,727.5,935.15625,0.0,0.125,4.825438959,4.410439589772222,0.0,732.0,11.75,172.5,935.15625,0.0,0.125,2.5939938750000002,4.389674732977289,0.0,-10927.0,5.25,637.5,935.15625,0.0,0.25,2.2204587570000003,0.5526872062785588,0.0,-0.7099999785423279,0.1899999976158142,3.569999933242798,-0.0362548828125,-0.01007080078125,0.9853515625,36.29999923706055,0.0,-39.0,2.7527313232421875,-2.8368988037109375,Waiting,0.0,0.125,-1253985.0,0.0,0.0,0.0,0.0,0.0,
10.617131999999984,0.0,0.0,8587.0,0.375,-765.0,-393.75,0.0,0.25,3.859862886,3.0159423668524887,0.0,-26496.0,0.75,810.0,393.75,0.0,0.125,4.825438959,4.410439589772222,0.0,787.0,7.875,270.0,393.75,0.0,0.125,2.628173559,4.389674732977289,0.0,-10804.0,1.125,772.5,393.75,0.0,0.25,2.1655271220000003,0.5526872062785588,0.0,-0.8199999928474426,0.14000000059604645,-4.449999809265137,-0.05889892578125,-0.1102294921875,0.74066162109375,36.29999923706055,0.0,-52.0,2.7525482177734375,-2.835968017578125,Waiting,0.0,0.0,-1253985.0,0.0,0.0,0.0,0.0,0.0,
10.716080000000074,0.0,0.0,8482.0,0.0,-660.0,0.0,0.0,0.25,3.818358984,3.0159423668524887,0.0,-26388.0,0.0,667.5,0.0,0.0,0.125,4.82177685,4.410439589772222,0.0,787.0,0.0,390.0,0.0,0.0,0.125,2.662353243,4.389674732977289,0.0,-10689.0,0.0,735.0,0.0,0.0,0.125,2.125243923,0.5526872062785588,0.0,-0.8199999928474426,0.009999999776482582,-11.819999694824219,-0.10052490234375,-0.1005859375,1.09130859375,36.29999923706055,0.0,-81.0,2.750274658203125,-2.8336181640625,Waiting,0.0,0.0,-1253985.0,0.0,0.0,0.0,0.0,0.125,
10.81981799999997,0.0,0.0,8482.0,0.0,-570.0,0.0,0.0,0.125,3.818358984,3.0159423668524887,0.0,-26290.0,0.0,592.5,0.0,0.0,0.125,4.8205561470000005,4.410439589772222,0.0,840.0,0.0,270.0,0.0,0.0,0.0,2.677001679,4.389674732977289,0.0,-10591.0,0.125,577.5,0.0,0.0,0.25,2.12402322,0.5526872062785588,0.0,-1.0299999713897705,-0.25,-18.559999465942383,-0.0792236328125,-0.0419921875,1.15313720703125,36.29999923706055,0.0,-63.0,2.7461090087890625,-2.8301849365234375,Waiting,0.0,0.125,-1253985.0,0.0,0.0,0.0,0.0,0.0,
10.92745000000007,0.0,0.0,8399.0,0.0,-345.0,0.0,0.0,0.125,3.818358984,3.0159423668524887,0.0,-26236.0,0.0,390.0,0.0,0.0,0.125,4.819335444,4.410439589772222,0.0,876.0,0.0,120.0,0.0,0.0,0.0,2.678222382,4.389674732977289,0.0,-10540.0,0.0,330.0,0.0,0.0,0.25,2.12402322,0.5526872062785588,0.0,-1.0399999618530273,-0.1899999976158142,-21.829999923706055,-0.05413818359375,0.0010986328125,1.050537109375,36.29999923706055,0.0,-54.0,2.74554443359375,-2.827392578125,Waiting,0.0,0.0,-1253985.0,0.0,0.0,0.0,0.0,0.0,
11.026082999999984,0.0,0.0,8359.0,0.0,-150.0,0.0,0.0,0.125,3.818358984,3.0159423668524887,0.0,-26236.0,0.0,135.0,0.0,0.0,0.125,4.819335444,4.410439589772222,0.0,877.0,0.0,0.0,0.0,0.0,0.0,2.678222382,4.389674732977289,0.0,-10528.0,0.0,105.0,0.0,0.0,0.25,2.12402322,0.5526872062785588,0.0,-1.159999966621399,-0.25,-22.420000076293945,-0.00537109375,-0.07623291015625,0.9876708984375,36.29999923706055,0.0,20.0,2.7454071044921875,-2.8277435302734375,Waiting,0.0,0.125,-1253985.0,0.0,0.0,0.0,0.0,0.125,
11.119194000000018,0.0,0.0,8357.0,0.0,0.0,0.0,0.0,0.125,3.818358984,3.0159423668524887,0.0,-26227.0,0.0,0.0,0.0,0.0,0.125,4.82177685,4.410439589772222,0.0,877.0,0.0,0.0,0.0,0.0,0.0,2.677001679,4.389674732977289,0.0,-10528.0,0.0,7.5,0.0,0.0,0.25,2.128906032,0.5526872062785588,0.0,-1.0800000429153442,-0.33000001311302185,-21.950000762939453,-0.02691650390625,0.00933837890625,0.9876708984375,36.31999969482422,0.0,-30.0,2.745361328125,-2.829010009765625,Waiting,0.0,0.0,-1253985.0,0.0,0.0,0.0,0.0,0.0,
11.217576000000001,0.0,0.0,8381.0,7.625,105.0,1488.1890177726746,0.0,0.125,3.818358984,3.0159423668524865,0.0,-26233.0,15.375,-142.5,-1488.1890177726746,0.0,0.125,4.814452632,4.41043958977222,0.0,874.0,12.0,-22.5,-1488.1890177726746,0.0,0.0,2.711181363,4.389674732977291,0.0,-10528.0,10.25,-157.5,-1488.1890177726746,0.0,0.25,2.186279073,0.552687206278561,0.0,-1.0399999618530273,-0.33000001311302185,-20.579999923706055,-0.02581787109375,-0.15008544921875,0.84649658203125,36.31999969482422,0.0,27.0,2.743865966796875,-2.8303375244140625,Waiting,0.0,0.0,-1253985.0,0.0,0.0,0.0,0.0,0.0,
11.315070000000064,0.0,0.0,8493.0,16.125,540.0,2100.0,0.0,0.125,3.819579687,3.015942366852486,0.0,-26330.0,30.25,-660.0,-2100.0,0.0,0.25,4.824218256,4.41043958977222,0.0,874.0,29.375,-105.0,-2100.0,0.0,0.0,2.712402066,4.389674732977291,0.0,-10605.0,17.5,-622.5,-2100.0,0.0,0.25,2.186279073,0.552687206278561,0.0,-1.0,-0.7300000190734863,-14.739999771118164,-0.1219482421875,-0.02801513671875,1.0611572265625,36.31999969482422,0.0,-102.0,2.74041748046875,-2.83331298828125,Waiting,0.0,0.125,-1253985.0,0.0,0.0,0.0,0.0,0.0,
11.414055999999983,0.0,0.0,8493.0,0.0,945.0,0.0,0.0,0.125,3.8330074200000004,3.015942366852486,0.0,-26474.0,0.0,-907.5,0.0,0.0,0.25,4.816894038,4.41043958977222,0.0,841.0,0.0,-375.0,0.0,0.0,0.0,2.711181363,4.389674732977291,0.0,-10749.0,0.0,-922.5,0.0,0.0,0.25,2.187499776,0.552687206278561,0.0,-1.0499999523162842,-0.8700000047683716,-2.7799999713897705,0.2413330078125,-0.22802734375,1.45367431640625,36.31999969482422,0.0,272.0,2.7316436767578125,-2.8365478515625,Waiting,0.0,0.125,-1253985.0,0.0,0.0,0.0,0.0,0.125,
11.512501999999978,0.0,0.0,8642.0,0.0,870.0,0.0,0.0,0.125,3.8378902320000003,3.015942366852486,0.0,-26474.0,0.0,-832.5,0.0,0.0,0.25,4.8205561470000005,4.41043958977222,0.0,801.0,0.0,-112.5,0.0,0.0,0.0,2.712402066,4.389674732977291,0.0,-10882.0,0.125,-855.0,0.0,0.0,0.25,2.187499776,0.552687206278561,0.0,-0.9100000262260437,-0.6399999856948853,5.170000076293945,0.02862548828125,-0.10418701171875,0.6365966796875,36.31999969482422,0.0,27.0,2.72467041015625,-2.8388519287109375,Waiting,0.0,0.0,-1253985.0,0.0,0.0,0.0,0.0,0.125,
11.610910999999964,0.0,0.0,8755.0,0.0,607.5,0.0,0.0,0.125,3.8366695290000004,3.015942366852486,0.0,-26604.0,0.0,-592.5,0.0,0.0,0.25,4.82177685,4.41043958977222,0.0,765.0,0.0,-232.5,0.0,0.0,0.0,2.712402066,4.389674732977291,0.0,-10882.0,0.125,-547.5,0.0,0.0,0.25,2.187499776,0.552687206278561,0.0,-0.7799999713897705,-0.6899999976158142,11.569999694824219,-0.0748291015625,0.11346435546875,1.1097412109375,36.34000015258789,0.0,-34.0,2.716217041015625,-2.8397979736328125,Waiting,0.0,0.0,-1253985.0,0.0,0.0,0.0,0.0,0.125,
11.710812999999966,0.0,0.0,8803.0,0.0,247.5,0.0,0.0,0.125,3.8378902320000003,3.015942366852486,0.0,-26673.0,0.0,-315.0,0.0,0.0,0.125,4.82177685,4.41043958977222,0.0,734.0,0.0,-225.0,0.0,0.0,0.0,2.711181363,4.389674732977291,0.0,-10955.0,0.0,-270.0,0.0,0.0,0.25,2.186279073,0.552687206278561,0.0,-0.6399999856948853,-0.6000000238418579,13.109999656677246,-0.0206298828125,0.00445556640625,1.07427978515625,36.34000015258789,0.0,-5.0,2.7126312255859375,-2.838653564453125,Waiting,0.0,0.0,-1253985.0,0.0,0.0,0.0,0.0,0.125,
11.80782799999998,0.0,0.0,8803.0,0.0,7.5,0.0,0.0,0.125,3.8366695290000004,3.015942366852486,0.0,-26684.0,0.0,-30.0,0.0,0.0,0.25,4.8156733350000005,4.41043958977222,-0.0024414059999999793,734.0,0.0,-37.5,0.0,0.0,0.0,2.711181363,4.389674732977291,0.0,-10969.0,0.0,-22.5,0.0,0.0,0.25,2.186279073,0.552687206278561,0.0,-0.6000000238418579,-0.6800000071525574,12.619999885559082,-0.01531982421875,-0.0205078125,1.06732177734375,36.34000015258789,0.0,-4.0,2.71240234375,-2.8376922607421875,Waiting,0.0,0.125,-1253985.0,0.0,0.0,0.0,0.0,0.0,
