Time,ClimberA1,ClimberA2,FRpos,FRCurrent,FRspeed,FRsetpoint,FRApos,FRACurrent,FREncpos,FREncSetpoint,FREncSpeed,FLpos,FLCurrent,FLspeed,FLsetpoint,FLApos,FLACurrent,FLEncpos,FLEncSetpoint,FLEncSpeed,BRpos,BRCurrent,BRspeed,BRsetpoint,BRApos,BRACurrent,BREncpos,BREncSetpoint,BREncSpeed,BLpos,BLCurrent,BLspeed,BLsetpoint,BLApos,BLACurrent,BLEncpos,BLEncSetpoint,BLEncSpeed,navx_Pitch,navx_Roll,navx_Yaw,navx_XAcc,navx_YAcc,navx_ZAcc,navx_Temp,navx_Bar,navx_Alt,navx_XDis,navx_YDis,GearPlacerState,ShootOutputV,ShootOutputCurrent,ShootEncPos,ShootEncVelocity,ShootSpeed,ShootSetpoint,CarouselSetpoint,CarouselCurrent,
0.15229000000003726,0.0,0.0,6608.0,0.0,0.0,0.0,0.0,0.125,0.8166503070000001,0.01,0.0,-7526.0,0.0,0.0,-0.0,0.0,16.5,2.291259531,0.01,0.0,5956.0,0.0,0.0,0.0,0.0,0.0,3.251952792,0.01,0.0,-6482.0,0.0,0.0,-0.0,0.0,0.25,1.668701001,0.01,0.0,0.029999999329447746,-1.090000033378601,0.0,-0.001220703125,-0.005126953125,1.0029296875,35.20000076293945,0.0,17.0,-1.5917510986328125,-0.4320068359375,Waiting,0.0,0.0,-127866.0,0.0,0.0,0.0,0.0,0.0,
0.2131359999999986,0.0,0.0,6608.0,0.0,0.0,0.0,0.0,0.125,0.8166503070000001,0.01,0.0012207030000004337,-7526.0,0.0,0.0,-0.0,0.0,16.375,2.291259531,0.01,-0.014648435999999876,5956.0,0.0,0.0,0.0,0.0,0.0,3.251952792,0.01,0.0012207030000004337,-6482.0,0.0,0.0,-0.0,0.0,0.25,1.668701001,0.01,0.0,0.029999999329447746,-1.1100000143051147,0.0,-0.01263427734375,0.0101318359375,1.037353515625,35.20000076293945,0.0,7.0,-1.5917510986328125,-0.4320068359375,Waiting,0.0,0.0,-127866.0,0.0,0.0,0.0,0.0,0.0,
0.28241200000001115,0.0,0.0,6608.0,0.0,0.0,0.0,0.0,0.125,0.8166503070000001,0.01,-0.0012207030000004337,-7526.0,0.0,0.0,-0.0,0.0,16.375,2.290038828,0.01,0.0,5956.0,0.0,0.0,0.0,0.0,0.0,3.251952792,0.01,-0.0012207030000004337,-6482.0,0.0,0.0,-0.0,0.0,0.25,1.668701001,0.01,0.0,0.019999999552965164,-1.100000023841858,0.0,-0.02825927734375,4.2724609375E-4,1.0357666015625,35.20000076293945,0.0,-8.0,-1.5917510986328125,-0.4320068359375,Waiting,0.0,0.0,-127866.0,0.0,0.0,0.0,0.0,0.0,
0.34913800000003536,0.0,0.0,6608.0,0.0,0.0,0.0,0.0,0.125,0.8166503070000001,0.01,0.0,-7526.0,0.0,0.0,-0.0,0.0,16.25,2.291259531,0.01,0.0,5956.0,0.0,0.0,0.0,0.0,0.0,3.251952792,0.01,0.0,-6482.0,0.0,0.0,-0.0,0.0,0.25,1.668701001,0.01,0.0,0.029999999329447746,-1.100000023841858,0.0,-0.01434326171875,3.662109375E-4,1.01019287109375,35.20000076293945,0.0,5.0,-1.5917510986328125,-0.4320068359375,Waiting,0.0,0.0,-127866.0,0.0,0.0,0.0,0.0,0.0,
0.4111670000000158,0.0,0.0,6608.0,0.0,0.0,0.0,0.0,0.125,0.8178710100000001,0.01,0.0,-7526.0,0.0,0.0,-0.0,0.0,16.25,2.290038828,0.01,0.0,5956.0,0.0,0.0,0.0,0.0,0.0,3.2556149010000004,0.01,0.0,-6482.0,0.0,0.0,-0.0,0.0,0.25,1.668701001,0.01,0.0,0.019999999552965164,-1.100000023841858,0.0,-0.01641845703125,6.103515625E-5,1.009521484375,35.20000076293945,0.0,3.0,-1.5917510986328125,-0.4320068359375,Waiting,0.0,0.0,-127866.0,0.0,0.0,0.0,0.0,0.0,
0.4717290000000503,0.0,0.0,6608.0,0.0,0.0,0.0,0.0,0.125,0.8166503070000001,0.01,0.0012207030000004337,-7526.0,0.0,0.0,-0.0,0.0,16.25,2.291259531,0.01,0.0,5956.0,0.0,0.0,0.0,0.0,0.0,3.250732089,0.01,0.0,-6482.0,0.0,0.0,-0.0,0.0,0.25,1.669921704,0.01,0.0,0.029999999329447746,-1.100000023841858,0.0,-0.01702880859375,9.1552734375E-4,1.01348876953125,35.20000076293945,0.0,2.0,-1.5917510986328125,-0.4320068359375,Waiting,0.0,0.0,-127866.0,0.0,0.0,0.0,0.0,0.0,
0.5311020000000135,0.0,0.0,6608.0,0.0,0.0,0.0,0.0,0.125,0.8166503070000001,0.01,0.0,-7526.0,0.0,0.0,-0.0,0.0,15.0,2.291259531,0.01,0.0,5956.0,0.0,0.0,0.0,0.0,0.0,3.251952792,0.01,0.0,-6482.0,0.0,0.0,-0.0,0.0,0.25,1.669921704,0.01,0.0,0.019999999552965164,-1.100000023841858,0.0,-0.0162353515625,0.003662109375,1.02276611328125,35.209999084472656,0.0,3.0,-1.5917510986328125,-0.4320068359375,Waiting,-12.3,37.5,-127866.0,0.0,0.0,-2200.0,0.0,0.0,
0.5956000000000349,0.0,0.0,6608.0,0.0,0.0,0.0,0.0,0.125,0.8166503070000001,0.01,0.0,-7526.0,0.0,0.0,-0.0,0.0,14.25,2.291259531,0.01,0.0,5956.0,0.0,0.0,0.0,0.0,0.0,3.251952792,0.01,0.0,-6482.0,0.0,0.0,-0.0,0.0,0.25,1.668701001,0.01,0.0,0.03999999910593033,-1.100000023841858,0.0,-0.02508544921875,-6.7138671875E-4,1.0123291015625,35.209999084472656,0.0,-5.0,-1.5917510986328125,-0.4320068359375,Waiting,-10.05,71.375,-127893.0,-13.0,-75.0,-2200.0,0.0,0.0,
0.6557860000000219,0.0,0.0,6608.0,0.0,0.0,0.0,0.0,0.125,0.8166503070000001,0.01,0.0,-7526.0,0.0,0.0,-0.0,0.0,14.25,2.290038828,0.01,0.0012207029999999897,5956.0,0.0,0.0,0.0,0.0,0.0,3.253173495,0.01,-0.0012207030000004337,-6482.0,0.0,0.0,-0.0,0.0,0.25,1.668701001,0.01,0.0,0.029999999329447746,-1.100000023841858,0.0,0.00445556640625,-0.0118408203125,1.06719970703125,35.209999084472656,0.0,25.0,-1.591949462890625,-0.4320068359375,Waiting,-10.05,67.75,-127893.0,-13.0,-277.5,-2200.0,0.0,0.0,
0.7183000000000466,0.0,0.0,6608.0,0.0,0.0,0.0,0.0,0.125,0.8166503070000001,0.01,-0.0012207030000004337,-7526.0,0.0,0.0,-0.0,0.0,14.25,2.291259531,0.01,-0.0012207029999999897,5956.0,0.0,0.0,0.0,0.0,0.0,3.254394198,0.01,0.0,-6482.0,0.0,0.0,-0.0,0.0,0.25,1.668701001,0.01,0.0,0.03999999910593033,-1.1100000143051147,0.0,0.02734375,-0.01544189453125,1.07586669921875,35.209999084472656,0.0,48.0,-1.5919036865234375,-0.431976318359375,Waiting,-10.15,65.0,-127984.0,-66.0,-487.5,-2200.0,0.0,0.0,
0.7767900000000373,0.0,0.0,6608.0,0.0,0.0,0.0,0.0,0.125,0.8166503070000001,0.01,0.0012207030000004337,-7526.0,0.0,0.0,-0.0,0.0,14.25,2.291259531,0.01,0.0,5956.0,0.0,0.0,0.0,0.0,0.0,3.251952792,0.01,0.0,-6482.0,0.0,0.0,-0.0,0.0,0.25,1.668701001,0.01,0.0,0.029999999329447746,-1.090000033378601,0.0,-0.01519775390625,0.0185546875,1.011474609375,35.209999084472656,0.0,4.0,-1.591217041015625,-0.43212890625,Waiting,-10.15,61.875,-127984.0,-66.0,-690.0,-2200.0,0.0,0.0,
0.8457460000000429,0.0,0.0,6608.0,0.0,0.0,0.0,0.0,0.125,0.8154296040000001,0.01,0.0,-7526.0,0.0,0.0,-0.0,0.0,14.375,2.291259531,0.01,0.0,5956.0,0.0,0.0,0.0,0.0,0.0,3.251952792,0.01,0.0,-6482.0,0.0,0.0,-0.0,0.0,0.25,1.668701001,0.01,0.0,0.029999999329447746,-1.090000033378601,0.0,0.01593017578125,0.03076171875,0.90972900390625,35.209999084472656,0.0,33.0,-1.5910491943359375,-0.432098388671875,Waiting,-10.3,59.125,-128133.0,-116.0,-877.5,-2200.0,0.0,0.0,
0.9077960000000312,0.0,0.0,6608.0,0.0,0.0,0.0,0.0,0.125,0.8154296040000001,0.01,0.0,-7526.0,0.0,0.0,-0.0,0.0,14.375,2.288818125,0.01,0.0,5956.0,0.0,0.0,0.0,0.0,0.0,3.251952792,0.01,0.0,-6482.0,0.0,0.0,-0.0,0.0,0.25,1.668701001,0.01,0.0,0.03999999910593033,-1.0800000429153442,0.0,0.01971435546875,-0.09014892578125,1.2506103515625,35.209999084472656,0.0,43.0,-1.5911407470703125,-0.4321746826171875,Waiting,-10.3,56.875,-128133.0,-116.0,-1057.5,-2200.0,0.0,0.0,
0.9686920000000391,0.0,0.0,6608.0,0.0,0.0,0.0,0.0,0.125,0.8166503070000001,0.01,0.0012207030000004337,-7526.0,0.0,0.0,-0.0,0.0,14.375,2.291259531,0.01,0.0,5956.0,0.0,0.0,0.0,0.0,0.0,3.251952792,0.01,0.0012207030000004337,-6482.0,0.0,0.0,-0.0,0.0,0.25,1.668701001,0.01,0.0,0.009999999776482582,-1.1100000143051147,0.0,-0.06182861328125,0.0784912109375,0.8643798828125,35.209999084472656,0.0,-44.0,-1.5912322998046875,-0.4328155517578125,Waiting,-10.4,54.25,-128334.0,-160.0,-1222.5,-2200.0,0.0,0.0,
1.0286550000000279,0.0,0.0,6608.0,0.0,0.0,0.0,0.0,0.125,0.8166503070000001,0.01,0.0,-7526.0,0.0,0.0,-0.0,0.0,14.375,2.290038828,0.01,0.0,5956.0,0.0,0.0,0.0,0.0,0.0,3.250732089,0.01,0.0,-6482.0,0.0,0.0,-0.0,0.0,0.25,1.668701001,0.01,0.0,0.019999999552965164,-1.1100000143051147,-0.009999999776482582,0.02056884765625,-0.07073974609375,0.838623046875,35.209999084472656,0.0,36.0,-1.5913238525390625,-0.4329071044921875,Waiting,-10.4,52.375,-128334.0,-160.0,-1372.5,-2200.0,0.0,0.0,
1.0896089999999967,0.0,0.0,6608.0,0.0,0.0,0.0,0.0,0.125,0.8166503070000001,0.01,-0.0012207030000004337,-7526.0,0.0,0.0,-0.0,0.0,14.375,2.290038828,0.01,0.0,5956.0,0.0,0.0,0.0,0.0,0.0,3.251952792,0.01,0.0,-6482.0,0.0,0.0,-0.0,0.0,0.25,1.668701001,0.01,0.0,0.03999999910593033,-1.0800000429153442,-0.009999999776482582,0.0711669921875,0.12884521484375,1.27569580078125,35.22999954223633,0.0,95.0,-1.59173583984375,-0.433319091796875,Waiting,-10.5,50.375,-128580.0,-198.0,-1522.5,-2200.0,0.0,0.0,
1.1536959999999963,0.0,0.0,6608.0,0.0,0.0,0.0,0.0,0.125,0.8166503070000001,0.01,0.0012207030000004337,-7526.0,0.0,0.0,-0.0,0.0,14.375,2.290038828,0.01,0.0,5956.0,0.0,0.0,0.0,0.0,0.0,3.251952792,0.01,0.0,-6482.0,0.0,0.0,-0.0,0.0,0.25,1.668701001,0.01,0.0,0.019999999552965164,-1.0399999618530273,-0.009999999776482582,-7.9345703125E-4,0.00140380859375,1.27239990234375,35.22999954223633,0.0,22.0,-1.5913238525390625,-0.432586669921875,Waiting,-10.5,48.625,-128580.0,-198.0,-1657.5,-2200.0,0.0,0.0,
1.2174310000000406,0.0,0.0,6608.0,0.0,0.0,0.0,0.0,0.125,0.8166503070000001,0.01,0.0,-7526.0,0.0,0.0,-0.0,0.0,14.375,2.291259531,0.01,0.0,5956.0,0.0,0.0,0.0,0.0,0.0,3.251952792,0.01,-0.0012207030000004337,-6482.0,0.0,0.0,-0.0,0.0,0.25,1.668701001,0.01,0.0,0.009999999776482582,-1.0700000524520874,0.0,-0.0225830078125,-0.01019287109375,0.91363525390625,35.22999954223633,0.0,-5.0,-1.589599609375,-0.432708740234375,Waiting,-10.55,47.0,-128866.0,-232.0,-1785.0,-2200.0,0.0,0.0,
1.2938120000000344,0.0,0.0,6608.0,0.0,0.0,0.0,0.0,0.125,0.8166503070000001,0.01,-0.0012207030000004337,-7526.0,0.0,0.0,-0.0,0.0,14.5,2.290038828,0.01,0.0,5956.0,0.0,0.0,0.0,0.0,0.0,3.251952792,0.01,0.0,-6482.0,0.0,0.0,-0.0,0.0,0.25,1.668701001,0.01,0.0,0.019999999552965164,-1.0399999618530273,0.0,0.08203125,0.06427001953125,1.35833740234375,35.22999954223633,0.0,106.0,-1.58648681640625,-0.4333343505859375,Waiting,-10.55,45.0,-128866.0,-232.0,-1935.0,-2200.0,0.0,0.0,
1.3550219999999973,0.0,0.0,6608.0,0.0,0.0,0.0,0.0,0.125,0.8166503070000001,0.01,0.0012207030000004337,-7526.0,0.0,0.0,-0.0,0.0,14.5,2.290038828,0.01,0.0,5956.0,0.0,0.0,0.0,0.0,0.0,3.251952792,0.01,-0.0012207030000004337,-6482.0,0.0,0.0,-0.0,0.0,0.25,1.667480298,0.01,0.0,0.019999999552965164,-1.0,0.0,-0.0875244140625,0.053955078125,0.79864501953125,35.22999954223633,0.0,-73.0,-1.5839080810546875,-0.433807373046875,Waiting,-10.65,43.75,-129186.0,-262.0,-2047.5,-2200.0,0.0,0.0,
1.423097000000009,0.0,0.0,6608.0,0.0,0.0,0.0,0.0,0.125,0.8166503070000001,0.01,-0.0012207030000004337,-7526.0,0.0,0.0,-0.0,0.0,14.5,2.290038828,0.01,0.0,5956.0,0.0,0.0,0.0,0.0,0.0,3.251952792,0.01,0.0,-6482.0,0.0,0.0,-0.0,0.0,0.25,1.668701001,0.01,0.0,0.05000000074505806,-1.0700000524520874,0.0,-0.1290283203125,0.0225830078125,0.89154052734375,35.22999954223633,0.0,-112.0,-1.5816650390625,-0.4344482421875,Waiting,-10.65,42.875,-129186.0,-262.0,-2115.0,-2200.0,0.0,0.0,
1.481692000000039,0.0,0.0,6608.0,0.0,0.0,0.0,0.0,0.125,0.8166503070000001,0.01,0.0,-7526.0,0.0,0.0,-0.0,0.0,14.5,2.287597422,0.01,0.0,5956.0,0.0,0.0,0.0,0.0,0.0,3.251952792,0.01,0.0,-6482.0,0.0,0.0,-0.0,0.0,0.25,1.668701001,0.01,0.0,0.05999999865889549,-1.0299999713897705,0.0,-0.2183837890625,0.0667724609375,0.888671875,35.22999954223633,0.0,-202.0,-1.57879638671875,-0.4355316162109375,Waiting,-10.75,39.75,-129539.0,-288.0,-2212.5,-2200.0,0.0,0.0,
1.546107000000018,0.0,0.0,6608.0,0.0,0.0,0.0,0.0,0.125,0.8166503070000001,0.01,0.0,-7526.0,0.0,0.0,-0.0,0.0,14.75,2.291259531,0.01,0.0,5956.0,0.0,0.0,0.0,0.0,0.0,3.251952792,0.01,0.0,-6482.0,0.0,0.0,-0.0,0.0,0.25,1.667480298,0.01,0.0,0.07999999821186066,-1.100000023841858,-0.009999999776482582,-0.1533203125,-0.07513427734375,0.4178466796875,35.25,0.0,-145.0,-1.575592041015625,-0.4360198974609375,Waiting,-8.942570869990226,28.25,-129917.0,-311.0,-2332.5,-2200.0,0.0,0.0,
1.6092410000000381,0.0,0.0,6608.0,0.0,0.0,0.0,0.0,0.125,0.8166503070000001,0.01,0.0012207030000004337,-7526.0,0.0,0.0,-0.0,0.0,15.0,2.291259531,0.01,0.0,5956.0,0.0,0.0,0.0,0.0,0.0,3.251952792,0.01,0.0,-6482.0,0.0,0.0,-0.0,0.0,0.25,1.669921704,0.01,0.0,0.07999999821186066,-1.090000033378601,-0.009999999776482582,0.27032470703125,0.12518310546875,1.1678466796875,35.25,0.0,292.0,-1.57293701171875,-0.436248779296875,Waiting,-8.156402737047898,20.375,-129917.0,-311.0,-2400.0,-2200.0,0.0,0.0,
1.6687640000000248,0.0,0.0,6608.0,0.0,0.0,0.0,0.0,0.125,0.8166503070000001,0.01,0.0,-7526.0,0.0,0.0,-0.0,0.0,15.125,2.290038828,0.01,0.0,5956.0,0.0,0.0,0.0,0.0,0.0,3.251952792,0.01,0.0,-6482.0,0.0,0.0,-0.0,0.0,0.25,1.669921704,0.01,0.0,0.03999999910593033,-1.0800000429153442,-0.009999999776482582,0.1085205078125,0.05499267578125,1.66455078125,35.25,0.0,139.0,-1.5702667236328125,-0.4362030029296875,Waiting,-5.01427174975562,13.625,-130308.0,-325.0,-2422.5,-2200.0,0.0,0.0,
1.7286790000000036,0.0,0.0,6608.0,0.0,0.0,0.0,0.0,0.125,0.8166503070000001,0.01,-0.0012207030000004337,-7526.0,0.0,0.0,-0.0,0.0,15.125,2.290038828,0.01,0.0,5956.0,0.0,0.0,0.0,0.0,0.0,3.251952792,0.01,0.0,-6482.0,0.0,0.0,-0.0,0.0,0.25,1.668701001,0.01,0.0,0.1599999964237213,-1.1200000047683716,-0.009999999776482582,-0.3253173828125,0.0223388671875,0.59100341796875,35.25,0.0,-313.0,-1.5676422119140625,-0.4360198974609375,Waiting,-7.079472140762463,9.625,-130308.0,-325.0,-2452.5,-2200.0,0.0,0.0,
1.7895380000000005,0.0,0.0,6608.0,0.0,0.0,0.0,0.0,0.125,0.8166503070000001,0.01,0.0012207030000004337,-7526.0,0.0,0.0,-0.0,0.0,15.375,2.290038828,0.01,0.0,5956.0,0.0,0.0,0.0,0.0,0.0,3.251952792,0.01,0.0,-6482.0,0.0,0.0,-0.0,0.0,0.25,1.668701001,0.01,0.0,0.0,-1.1100000143051147,-0.009999999776482582,-0.0859375,-0.0506591796875,1.30706787109375,35.25,0.0,-60.0,-1.565185546875,-0.4361114501953125,Waiting,-6.793939393939395,7.75,-130702.0,-328.0,-2460.0,-2200.0,0.0,0.0,
1.8534310000000405,0.0,0.0,6608.0,0.0,0.0,0.0,0.0,0.125,0.8166503070000001,0.01,-0.0012207030000004337,-7526.0,0.0,0.0,-0.0,0.0,15.25,2.291259531,0.01,0.0,5956.0,0.0,0.0,0.0,0.0,0.0,3.251952792,0.01,0.0012207030000004337,-6482.0,0.0,0.0,-0.0,0.0,0.25,1.667480298,0.01,0.0,0.11999999731779099,-1.190000057220459,-0.019999999552965164,0.3077392578125,-0.0494384765625,1.0146484375,35.25,0.0,328.0,-1.5633087158203125,-0.4362030029296875,Waiting,-6.759335288367547,7.0,-130702.0,-328.0,-2452.5,-2200.0,0.0,0.0,
1.9143800000000046,0.0,0.0,6608.0,0.0,0.0,0.0,0.0,0.125,0.8166503070000001,0.01,0.0012207030000004337,-7526.0,0.0,0.0,-0.0,0.0,15.25,2.290038828,0.01,0.0,5956.0,0.0,0.0,0.0,0.0,0.0,3.251952792,0.01,0.0,-6482.0,0.0,0.0,-0.0,0.0,0.25,1.668701001,0.01,0.0,0.009999999776482582,-1.1100000143051147,-0.019999999552965164,0.105712890625,0.1214599609375,1.09722900390625,35.25,0.0,126.0,-1.56103515625,-0.4361724853515625,Waiting,-6.718475073313784,6.625,-131094.0,-326.0,-2445.0,-2200.0,0.0,0.0,
1.9747460000000427,0.0,0.0,6608.0,0.0,0.0,0.0,0.0,0.125,0.8166503070000001,0.01,0.0,-7526.0,0.0,0.0,-0.0,0.0,15.25,2.291259531,0.01,0.0,5956.0,0.0,0.0,0.0,0.0,0.0,3.251952792,0.01,-0.0012207030000004337,-6482.0,0.0,0.0,-0.0,0.0,0.25,1.669921704,0.01,0.0,0.03999999910593033,-1.1299999952316284,-0.019999999552965164,0.08343505859375,0.08123779296875,1.474609375,35.25,0.0,112.0,-1.55926513671875,-0.4358673095703125,Waiting,-6.695307917888564,6.625,-131094.0,-326.0,-2437.5,-2200.0,0.0,0.0,
2.0353090000000083,0.0,0.0,6608.0,0.0,0.0,0.0,0.0,0.125,0.8154296040000001,0.01,-0.0012207030000004337,-7526.0,0.0,0.0,-0.0,0.0,15.25,2.290038828,0.01,0.0,5956.0,0.0,0.0,0.0,0.0,0.0,3.251952792,0.01,0.0012207030000004337,-6482.0,0.0,0.0,-0.0,0.0,0.25,1.668701001,0.01,0.0,0.09000000357627869,-1.1399999856948853,-0.019999999552965164,-0.27606201171875,0.0703125,0.364501953125,35.25,0.0,-268.0,-1.5574798583984375,-0.435882568359375,Waiting,-6.637390029325514,6.625,-131482.0,-324.0,-2430.0,-2200.0,0.0,0.0,
2.1040550000000513,0.0,0.0,6608.0,0.0,0.0,0.0,0.0,0.125,0.8166503070000001,0.01,0.0012207030000004337,-7526.0,0.0,0.0,-0.0,0.0,15.125,2.291259531,0.01,0.0,5956.0,0.0,0.0,0.0,0.0,0.0,3.251952792,0.01,-0.0012207030000004337,-6482.0,0.0,0.0,-0.0,0.0,0.25,1.668701001,0.01,0.0,0.07999999821186066,-1.0800000429153442,-0.019999999552965164,0.12213134765625,0.05426025390625,1.16583251953125,35.2400016784668,0.0,144.0,-1.555633544921875,-0.435546875,Waiting,-6.730058651026394,6.75,-131482.0,-324.0,-2415.0,-2200.0,0.0,0.0,
2.16269100000005,0.0,0.0,6608.0,0.0,0.0,0.0,0.0,0.125,0.8166503070000001,0.01,-0.0012207030000004337,-7526.0,0.0,0.0,-0.0,0.0,15.125,2.291259531,0.01,0.0,5956.0,0.0,0.0,0.0,0.0,0.0,3.250732089,0.01,0.0,-6482.0,0.0,0.0,-0.0,0.0,0.25,1.668701001,0.01,0.0,0.14000000059604645,-1.1100000143051147,-0.019999999552965164,0.05010986328125,0.05914306640625,1.63372802734375,35.2400016784668,0.0,81.0,-1.554290771484375,-0.4346771240234375,Waiting,-6.758455522971652,6.75,-131868.0,-321.0,-2407.5,-2200.0,0.0,0.0,
2.2278660000000383,0.0,0.0,6608.0,0.0,0.0,0.0,0.0,0.125,0.8166503070000001,0.01,0.0,-7526.0,0.0,0.0,-0.0,0.0,15.125,2.291259531,0.01,0.0,5956.0,0.0,0.0,0.0,0.0,0.0,3.251952792,0.01,0.0,-6482.0,0.0,0.0,-0.0,0.0,0.25,1.668701001,0.01,0.0,0.18000000715255737,-1.090000033378601,-0.019999999552965164,0.1700439453125,0.0494384765625,1.8304443359375,35.2400016784668,0.0,204.0,-1.5526885986328125,-0.433135986328125,Waiting,-6.72355816226784,6.875,-131868.0,-321.0,-2400.0,-2200.0,0.0,0.0,
2.287640000000014,0.0,0.0,6608.0,0.0,0.0,0.0,0.0,0.125,0.8166503070000001,0.01,0.0,-7526.0,0.0,0.0,-0.0,0.0,15.125,2.290038828,0.01,0.0,5956.0,0.0,0.0,0.0,0.0,0.0,3.251952792,0.01,0.0012207030000004337,-6482.0,0.0,0.0,-0.0,0.0,0.25,1.668701001,0.01,0.0,0.18000000715255737,-1.100000023841858,-0.019999999552965164,-0.2489013671875,-0.17364501953125,0.7117919921875,35.2400016784668,0.0,-235.0,-1.551055908203125,-0.4322509765625,Waiting,-6.700293255131966,6.875,-132251.0,-319.0,-2392.5,-2200.0,0.0,0.0,
2.351801000000036,0.0,0.0,6608.0,0.0,0.0,0.0,0.0,0.125,0.8166503070000001,0.01,0.0,-7526.0,0.0,0.0,-0.0,0.0,15.125,2.291259531,0.01,0.0,5956.0,0.0,0.0,0.0,0.0,0.0,3.250732089,0.01,0.0,-6482.0,0.0,0.0,-0.0,0.0,0.25,1.668701001,0.01,0.0,0.1599999964237213,-1.0299999713897705,-0.019999999552965164,-0.24261474609375,-0.02783203125,0.51153564453125,35.2400016784668,0.0,-233.0,-1.5498046875,-0.431976318359375,Waiting,-6.688660801564027,6.875,-132251.0,-319.0,-2385.0,-2200.0,0.0,0.0,
2.4130500000000468,0.0,0.0,6608.0,0.0,0.0,0.0,0.0,0.125,0.8154296040000001,0.01,0.0012207030000004337,-7526.0,0.0,0.0,-0.0,0.0,15.0,2.292480234,0.01,0.0,5956.0,0.0,0.0,0.0,0.0,0.0,3.251952792,0.01,0.0,-6482.0,0.0,0.0,-0.0,0.0,0.25,1.669921704,0.01,0.0,0.1899999976158142,-1.0099999904632568,-0.019999999552965164,-0.3016357421875,0.03363037109375,0.2984619140625,35.2400016784668,0.0,-296.0,-1.547119140625,-0.4315032958984375,Waiting,-6.5928641251221896,6.625,-132632.0,-317.0,-2377.5,-2200.0,0.7,4.875,
2.4766080000000072,0.0,0.0,6608.0,0.0,0.0,0.0,0.0,0.125,0.8166503070000001,0.01,0.0,-7526.0,0.0,0.0,-0.0,0.0,15.0,2.290038828,0.01,0.0,5956.0,0.0,0.0,0.0,0.0,0.0,3.251952792,0.01,-0.0012207030000004337,-6482.0,0.0,0.0,-0.0,0.0,0.25,1.668701001,0.01,0.0,0.14000000059604645,-1.0,-0.009999999776482582,0.13458251953125,0.09820556640625,0.5968017578125,35.2400016784668,0.0,144.0,-1.5451202392578125,-0.4312591552734375,Waiting,-6.604349951124145,6.75,-132632.0,-317.0,-2370.0,-2200.0,0.7,4.125,
2.5351810000000405,0.0,0.0,6608.0,0.0,0.0,0.0,0.0,0.125,0.8154296040000001,0.01,-0.0012207030000004337,-7526.0,0.0,0.0,-0.0,0.0,14.875,2.291259531,0.01,0.0,5956.0,0.0,0.0,0.0,0.0,0.0,3.251952792,0.01,0.0,-6482.0,0.0,0.0,-0.0,0.0,0.25,1.668701001,0.01,0.0,0.18000000715255737,-0.9700000286102295,-0.009999999776482582,0.053466796875,-0.0321044921875,1.3037109375,35.2400016784668,0.0,75.0,-1.5439910888671875,-0.430938720703125,Waiting,-6.655522971652005,6.75,-133011.0,-316.0,-2362.5,-2200.0,0.7,4.875,
2.6032570000000415,0.0,0.0,6608.0,0.0,0.0,0.0,0.0,0.125,0.8166503070000001,0.01,0.0,-7526.0,0.0,0.0,-0.0,0.0,14.875,2.290038828,0.01,0.0,5956.0,0.0,0.0,0.0,0.0,0.0,3.251952792,0.01,0.0,-6482.0,0.0,0.0,-0.0,0.0,0.25,1.667480298,0.01,0.0,0.1599999964237213,-0.9800000190734863,-0.009999999776482582,0.19915771484375,-0.09637451171875,0.70501708984375,35.2599983215332,0.0,211.0,-1.5420989990234375,-0.430511474609375,Waiting,-8.973998044965787,6.5,-133011.0,-316.0,-2355.0,-2200.0,0.7,4.625,
2.665809999999998,0.0,0.0,6608.0,0.0,0.0,0.0,0.0,0.125,0.8166503070000001,0.01,0.0,-7526.0,0.0,0.0,-0.0,0.0,14.875,2.291259531,0.01,0.0,5956.0,0.0,0.0,0.0,0.0,0.0,3.251952792,0.01,0.0,-6482.0,0.0,0.0,-0.0,0.0,0.25,1.668701001,0.01,0.0,0.15000000596046448,-0.9800000190734863,-0.009999999776482582,-0.2559814453125,0.040771484375,0.451416015625,35.2599983215332,0.0,-248.0,-1.53997802734375,-0.4311981201171875,Waiting,-6.54017595307918,6.5,-133388.0,-314.0,-2355.0,-2200.0,0.7,5.5,
2.7282820000000063,0.0,0.0,6608.0,0.0,0.0,0.0,0.0,0.125,0.8154296040000001,0.01,0.0,-7526.0,0.0,0.0,-0.0,0.0,14.875,2.291259531,0.01,0.0,5956.0,0.0,0.0,0.0,0.0,0.0,3.251952792,0.01,0.0,-6482.0,0.0,0.0,-0.0,0.0,0.25,1.668701001,0.01,0.0,0.12999999523162842,-0.9900000095367432,-0.009999999776482582,0.1080322265625,-0.01068115234375,0.6842041015625,35.2599983215332,0.0,119.0,-1.5376739501953125,-0.43212890625,Waiting,-6.551710654936462,6.75,-133388.0,-314.0,-2347.5,-2200.0,0.7,5.75,
2.7890960000000193,0.0,0.0,6608.0,0.0,0.0,0.0,0.0,0.125,0.8166503070000001,0.01,0.0,-7526.0,0.0,0.0,-0.0,0.0,14.875,2.290038828,0.01,0.0,5956.0,0.0,0.0,0.0,0.0,0.0,3.250732089,0.01,0.0012207030000004337,-6482.0,0.0,0.0,-0.0,0.0,0.25,1.669921704,0.01,0.0,0.15000000596046448,-0.9700000286102295,-0.009999999776482582,-0.287841796875,-0.1475830078125,0.5560302734375,35.2599983215332,0.0,-278.0,-1.53521728515625,-0.433685302734375,Waiting,-6.56989247311828,6.75,-133763.0,-312.0,-2340.0,-2200.0,0.7,5.5,
2.8512119999999994,0.0,0.0,6608.0,0.0,0.0,0.0,0.0,0.125,0.8166503070000001,0.01,0.0,-7526.0,0.0,0.0,-0.0,0.0,14.875,2.291259531,0.01,0.0,5956.0,0.0,0.0,0.0,0.0,0.0,3.250732089,0.01,0.0,-6482.0,0.0,0.0,-0.0,0.0,0.25,1.669921704,0.01,0.0,0.17000000178813934,-0.9800000190734863,-0.019999999552965164,-0.0838623046875,-0.01922607421875,1.00604248046875,35.2599983215332,0.0,-66.0,-1.5321044921875,-0.4360809326171875,Waiting,-6.5928641251221896,6.875,-133763.0,-312.0,-2332.5,-2200.0,0.7,5.0,
2.9106780000000145,0.0,0.0,6608.0,0.0,0.0,0.0,0.0,0.125,0.8154296040000001,0.01,-0.0012207030000004337,-7526.0,0.0,0.0,-0.0,0.0,14.875,2.291259531,0.01,0.0,5956.0,0.0,0.0,0.0,0.0,0.0,3.251952792,0.01,0.0,-6482.0,0.0,0.0,-0.0,0.0,0.25,1.668701001,0.01,0.0,0.18000000715255737,-1.0099999904632568,-0.019999999552965164,0.06591796875,0.09765625,1.53564453125,35.2599983215332,0.0,92.0,-1.5294342041015625,-0.437835693359375,Waiting,-6.667057673509287,6.875,-134136.0,-311.0,-2325.0,-2200.0,0.7,3.625,
2.9703670000000275,0.0,0.0,6608.0,0.0,0.0,0.0,0.0,0.125,0.8166503070000001,0.01,0.0,-7526.0,0.0,0.0,-0.0,0.0,14.875,2.290038828,0.01,0.0,5956.0,0.0,0.0,0.0,0.0,0.0,3.251952792,0.01,0.0,-6482.0,0.0,0.0,-0.0,0.0,0.25,1.668701001,0.01,0.0,0.11999999731779099,-1.0,-0.019999999552965164,0.2144775390625,0.11492919921875,1.4822998046875,35.2599983215332,0.0,240.0,-1.5266265869140625,-0.4394378662109375,Waiting,-6.840078201368525,7.375,-134136.0,-311.0,-2317.5,-2200.0,0.7,2.625,
3.031146999999997,0.0,0.0,6608.0,0.0,0.0,0.0,0.0,0.125,0.8166503070000001,0.01,0.0012207030000004337,-7526.0,0.0,0.0,-0.0,0.0,14.625,2.291259531,0.01,0.0,5956.0,0.0,0.0,0.0,0.0,0.0,3.254394198,0.01,0.0,-6482.0,0.0,0.0,-0.0,0.0,0.25,1.668701001,0.01,0.0,0.1899999976158142,-0.9599999785423279,-0.019999999552965164,-0.0634765625,-0.167724609375,0.7791748046875,35.2599983215332,0.0,-50.0,-1.522216796875,-0.4407501220703125,Waiting,-11.046432062561095,15.875,-134492.0,-303.0,-2212.5,-2200.0,0.7,3.125,
3.0922080000000425,0.0,0.0,6608.0,0.0,0.0,0.0,0.0,0.125,0.8166503070000001,0.01,-0.0012207030000004337,-7526.0,0.0,0.0,-0.0,0.0,14.125,2.291259531,0.01,0.0,5956.0,0.0,0.0,0.0,0.0,0.0,3.253173495,0.01,0.0,-6482.0,0.0,0.0,-0.0,0.0,0.25,1.669921704,0.01,0.0,0.10999999940395355,-0.9800000190734863,-0.029999999329447746,-0.03131103515625,0.125244140625,0.636962890625,35.25,0.0,-20.0,-1.5176239013671875,-0.4420928955078125,Waiting,-10.727565982404693,30.875,-134492.0,-303.0,-2092.5,-2200.0,0.7,3.75,
3.1583020000000253,0.0,0.0,6608.0,0.0,0.0,0.0,0.0,0.125,0.8166503070000001,0.01,0.0012207030000004337,-7526.0,0.0,0.0,-0.0,0.0,14.125,2.290038828,0.01,0.0,5956.0,0.0,0.0,0.0,0.0,0.0,3.251952792,0.01,0.0012207030000004337,-6482.0,0.0,0.0,-0.0,0.0,0.25,1.668701001,0.01,0.0,0.10000000149011612,-1.0299999713897705,-0.009999999776482582,-0.08837890625,-0.039306640625,1.01483154296875,35.25,0.0,-69.0,-1.5116119384765625,-0.44281005859375,Waiting,-9.205865102639297,31.375,-134832.0,-280.0,-2130.0,-2200.0,0.7,5.125,
3.224838000000047,0.0,0.0,6608.0,0.0,0.0,0.0,0.0,0.125,0.8166503070000001,0.01,0.0,-7526.0,0.0,0.0,-0.0,0.0,14.375,2.290038828,0.01,0.0,5956.0,0.0,0.0,0.0,0.0,0.0,3.251952792,0.01,-0.0012207030000004337,-6482.0,0.0,0.0,-0.0,0.0,0.25,1.668701001,0.01,0.0,0.07000000029802322,-0.9800000190734863,-0.019999999552965164,-0.24322509765625,0.00262451171875,0.6375732421875,35.25,0.0,-232.0,-1.506866455078125,-0.442596435546875,Waiting,-8.065786901270773,19.125,-134832.0,-280.0,-2220.0,-2200.0,0.0,1.625,
3.288371000000043,0.0,0.0,6608.0,0.0,0.0,0.0,0.0,0.125,0.8166503070000001,0.01,0.0,-7526.0,0.0,0.0,-0.0,0.0,14.625,2.290038828,0.01,0.0,5956.0,0.0,0.0,0.0,0.0,0.0,3.251952792,0.01,0.0,-6482.0,0.0,0.0,-0.0,0.0,0.25,1.669921704,0.01,0.0,0.10000000149011612,-1.0700000524520874,-0.019999999552965164,0.1400146484375,0.1646728515625,1.03668212890625,35.25,0.0,159.0,-1.502655029296875,-0.4412384033203125,Waiting,-7.531769305962855,13.5,-135191.0,-296.0,-2265.0,-2200.0,0.0,0.0,
3.3525040000000152,0.0,0.0,6608.0,0.0,0.0,0.0,0.0,0.125,0.810546792,0.01,0.0,-7526.0,0.0,0.0,-0.0,0.0,14.75,2.290038828,0.01,0.0,5956.0,0.0,0.0,0.0,0.0,0.0,3.251952792,0.01,0.0012207030000004337,-6482.0,0.0,0.0,-0.0,0.0,0.25,1.668701001,0.01,0.0,0.10999999940395355,-1.0099999904632568,-0.029999999329447746,-0.21392822265625,-0.10150146484375,0.91754150390625,35.25,0.0,-197.0,-1.497650146484375,-0.4379730224609375,Waiting,-7.105376344086022,10.75,-135559.0,-306.0,-2295.0,-2200.0,0.0,0.0,
3.413267000000051,0.0,0.0,6608.0,0.0,0.0,0.0,0.0,0.125,0.8166503070000001,0.01,0.0012207030000004337,-7526.0,0.0,0.0,-0.0,0.0,14.875,2.290038828,0.01,0.0,5956.0,0.0,0.0,0.0,0.0,0.0,3.250732089,0.01,0.0,-6482.0,0.0,0.0,-0.0,0.0,0.25,1.668701001,0.01,0.0,0.07000000029802322,-1.100000023841858,-0.019999999552965164,0.0947265625,0.03173828125,0.71746826171875,35.25,0.0,108.0,-1.494049072265625,-0.4346160888671875,Waiting,0.0,3.75,-135559.0,-306.0,-2295.0,0.0,0.0,0.0,
3.4735050000000047,0.0,0.0,6608.0,0.0,0.0,0.0,0.0,0.125,0.8166503070000001,0.01,0.0,-7526.0,0.0,0.0,-0.0,0.0,14.875,2.290038828,0.01,0.0,5956.0,0.0,0.0,0.0,0.0,0.0,3.251952792,0.01,0.0,-6482.0,0.0,0.0,-0.0,0.0,0.25,1.668701001,0.01,0.0,0.05000000074505806,-1.1200000047683716,-0.029999999329447746,0.07806396484375,0.06231689453125,0.72833251953125,35.25,0.0,92.0,-1.4913177490234375,-0.43206787109375,Waiting,0.0,0.0,-135922.0,-304.0,-2287.5,0.0,0.0,0.0,
3.535710000000021,0.0,0.0,6608.0,0.0,0.0,0.0,0.0,0.125,0.8166503070000001,0.01,0.0,-7526.0,0.0,0.0,-0.0,0.0,14.875,2.291259531,0.01,0.0,5956.0,0.0,0.0,0.0,0.0,0.0,3.251952792,0.01,0.0,-6482.0,0.0,0.0,-0.0,0.0,0.25,1.668701001,0.01,0.0,0.10999999940395355,-1.0700000524520874,-0.019999999552965164,-0.22998046875,-0.13525390625,0.44525146484375,35.25,0.0,-221.0,-1.4864959716796875,-0.42706298828125,Waiting,0.0,0.0,-135922.0,-304.0,-2235.0,0.0,0.0,0.0,
3.6097119999999996,0.0,0.0,6608.0,0.0,0.0,0.0,0.0,0.125,0.8166503070000001,0.01,0.0,-7526.0,0.0,0.0,-0.0,0.0,14.875,2.290038828,0.01,0.0,5956.0,0.0,0.0,0.0,0.0,0.0,3.251952792,0.01,0.0,-6482.0,0.0,0.0,-0.0,0.0,0.25,1.668701001,0.01,0.0,0.03999999910593033,-1.100000023841858,-0.029999999329447746,-0.16455078125,0.024169921875,0.67205810546875,35.25,0.0,-151.0,-1.4826812744140625,-0.4232177734375,Waiting,0.0,0.0,-136272.0,-293.0,-2182.5,0.0,0.0,0.0,
3.671156000000017,0.0,0.0,6608.0,0.0,0.0,0.0,0.0,0.125,0.8166503070000001,0.01,-0.0012207030000004337,-7526.0,0.0,0.0,-0.0,0.0,14.875,2.290038828,0.01,0.0,5956.0,0.0,0.0,0.0,0.0,0.0,3.251952792,0.01,0.0,-6482.0,0.0,0.0,-0.0,0.0,0.25,1.669921704,0.01,0.0,0.05999999865889549,-1.090000033378601,-0.019999999552965164,-0.08953857421875,0.0498046875,0.71734619140625,35.25,0.0,-75.0,-1.47857666015625,-0.4190521240234375,Waiting,0.0,0.0,-136272.0,-293.0,-2137.5,0.0,0.0,0.0,
3.733531000000017,0.0,0.0,6608.0,0.0,0.0,0.0,0.0,0.125,0.819091713,0.01,0.0,-7526.0,0.0,0.0,-0.0,0.0,14.875,2.291259531,0.01,0.0,5956.0,0.0,0.0,0.0,0.0,0.0,3.251952792,0.01,0.0,-6482.0,0.0,0.0,-0.0,0.0,0.25,1.668701001,0.01,0.0,0.10000000149011612,-1.0700000524520874,-0.029999999329447746,-0.01141357421875,0.08734130859375,0.9510498046875,35.25,0.0,6.0,-1.4724578857421875,-0.413726806640625,Waiting,0.0,0.0,-136607.0,-281.0,-2092.5,0.0,0.0,0.0,
3.7957449999999953,0.0,0.0,6608.0,0.0,0.0,0.0,0.0,0.125,0.8166503070000001,0.01,0.0012207030000004337,-7526.0,0.0,0.0,-0.0,0.0,14.875,2.291259531,0.01,0.0,5956.0,0.0,0.0,0.0,0.0,0.0,3.251952792,0.01,0.0,-6482.0,0.0,0.0,-0.0,0.0,0.25,1.668701001,0.01,0.0,0.11999999731779099,-1.059999942779541,-0.029999999329447746,0.05621337890625,-0.01995849609375,1.2371826171875,35.25,0.0,79.0,-1.4676361083984375,-0.4093475341796875,Waiting,0.0,0.0,-136607.0,-281.0,-2040.0,0.0,0.0,0.0,
3.8631330000000306,0.0,0.0,6608.0,0.0,0.0,0.0,0.0,0.125,0.8166503070000001,0.01,0.0,-7526.0,0.0,0.0,-0.0,0.0,14.875,2.290038828,0.01,0.0,5956.0,0.0,0.0,0.0,0.0,0.0,3.251952792,0.01,-0.0012207030000004337,-6482.0,0.0,0.0,-0.0,0.0,0.25,1.669921704,0.01,0.0,0.10999999940395355,-1.0099999904632568,-0.029999999329447746,-0.14013671875,0.03082275390625,0.98590087890625,35.25,0.0,-122.0,-1.4625396728515625,-0.4052276611328125,Waiting,0.0,0.0,-136928.0,-269.0,-1995.0,0.0,0.0,0.0,
3.9252850000000326,0.0,0.0,6608.0,0.0,0.0,0.0,0.0,0.125,0.8166503070000001,0.01,0.0,-7526.0,0.0,0.0,-0.0,0.0,14.875,2.290038828,0.01,0.0,5956.0,0.0,0.0,0.0,0.0,0.0,3.251952792,0.01,0.0,-6482.0,0.0,0.0,-0.0,0.0,0.25,1.668701001,0.01,0.0,0.09000000357627869,-0.9300000071525574,-0.029999999329447746,-0.08428955078125,0.01580810546875,1.04248046875,35.25,0.0,-67.0,-1.4570465087890625,-0.403076171875,Waiting,0.0,0.0,-136928.0,-269.0,-1950.0,0.0,0.0,0.0,
3.9869160000000265,0.0,0.0,6608.0,0.0,0.0,0.0,0.0,0.125,0.8166503070000001,0.01,0.0,-7526.0,0.0,0.0,-0.0,0.0,14.875,2.291259531,0.01,0.0,5956.0,0.0,0.0,0.0,0.0,0.0,3.251952792,0.01,0.0,-6482.0,0.0,0.0,-0.0,0.0,0.25,1.668701001,0.01,0.0,0.07000000029802322,-0.9700000286102295,-0.029999999329447746,-0.17047119140625,0.083740234375,0.90631103515625,35.25,0.0,-155.0,-1.451141357421875,-0.4029693603515625,Waiting,0.0,0.0,-137235.0,-257.0,-1905.0,0.0,0.0,0.0,
4.046541000000026,0.0,0.0,6608.0,0.0,0.0,0.0,0.0,0.125,0.8154296040000001,0.01,0.0,-7526.0,0.0,0.0,-0.0,0.0,14.75,2.290038828,0.01,0.0,5956.0,0.0,0.0,0.0,0.0,0.0,3.251952792,0.01,0.0,-6482.0,0.0,0.0,-0.0,0.0,0.25,1.668701001,0.01,0.0,0.10000000149011612,-0.949999988079071,-0.029999999329447746,-0.1103515625,0.02471923828125,0.66485595703125,35.25,0.0,-99.0,-1.4434051513671875,-0.402496337890625,Waiting,0.0,0.0,-137235.0,-257.0,-1860.0,0.0,0.0,0.0,
4.110753000000026,0.0,0.0,6608.0,0.0,0.0,0.0,0.0,0.125,0.8166503070000001,0.01,0.0,-7526.0,0.0,0.0,-0.0,0.0,14.75,2.291259531,0.01,0.0,5956.0,0.0,0.0,0.0,0.0,0.0,3.251952792,0.01,0.0012207030000004337,-6482.0,0.0,0.0,-0.0,0.0,0.25,1.669921704,0.01,0.0,0.12999999523162842,-0.9100000262260437,-0.029999999329447746,0.01812744140625,0.009521484375,1.06781005859375,35.27000045776367,0.0,35.0,-1.4375457763671875,-0.402313232421875,Waiting,0.0,0.0,-137528.0,-246.0,-1815.0,0.0,0.0,0.0,
4.171907000000006,0.0,0.0,6608.0,0.0,0.0,0.0,0.0,0.125,0.8166503070000001,0.01,0.0,-7526.0,0.0,0.0,-0.0,0.0,14.75,2.290038828,0.01,0.0,5956.0,0.0,0.0,0.0,0.0,0.0,3.251952792,0.01,0.0,-6482.0,0.0,0.0,-0.0,0.0,0.25,1.668701001,0.01,0.0,0.10000000149011612,-1.0099999904632568,-0.029999999329447746,0.02813720703125,0.081298828125,0.9139404296875,35.27000045776367,0.0,44.0,-1.4305419921875,-0.402435302734375,Waiting,0.0,0.0,-137528.0,-246.0,-1770.0,0.0,0.0,0.0,
4.232154000000039,0.0,0.0,6608.0,0.0,0.0,0.0,0.0,0.125,0.8166503070000001,0.01,-0.0012207030000004337,-7526.0,0.0,0.0,-0.0,0.0,14.75,2.290038828,0.01,0.0,5956.0,0.0,0.0,0.0,0.0,0.0,3.251952792,0.01,0.0,-6482.0,0.0,0.0,-0.0,0.0,0.25,1.668701001,0.01,0.0,0.11999999731779099,-1.0,-0.029999999329447746,0.0845947265625,0.099365234375,1.05401611328125,35.27000045776367,0.0,103.0,-1.4216156005859375,-0.401763916015625,Waiting,0.0,0.0,-137807.0,-234.0,-1725.0,0.0,0.0,0.0,
4.29422100000002,0.0,0.0,6608.0,0.0,0.0,0.0,0.0,0.125,0.8166503070000001,0.01,0.0,-7526.0,0.0,0.0,-0.0,0.0,14.75,2.290038828,0.01,0.0,5956.0,0.0,0.0,0.0,0.0,0.0,3.251952792,0.01,0.0,-6482.0,0.0,0.0,-0.0,0.0,0.25,1.668701001,0.01,0.0,0.12999999523162842,-1.0700000524520874,-0.029999999329447746,0.06597900390625,0.01776123046875,1.07440185546875,35.27000045776367,0.0,86.0,-1.4079437255859375,-0.39886474609375,Waiting,0.0,0.0,-137807.0,-234.0,-1680.0,0.0,0.0,0.0,
4.361657000000006,0.0,0.0,6608.0,0.0,0.0,0.0,0.0,0.125,0.8166503070000001,0.01,-0.0012207030000004337,-7526.0,0.0,0.0,-0.0,0.0,14.75,2.290038828,0.01,0.0,5956.0,0.0,0.0,0.0,0.0,0.0,3.250732089,0.01,-0.0012207030000004337,-6482.0,0.0,0.0,-0.0,0.0,0.25,1.668701001,0.01,0.0,0.10999999940395355,-1.0299999713897705,-0.029999999329447746,-0.03240966796875,0.02752685546875,0.93988037109375,35.27000045776367,0.0,-15.0,-1.3958740234375,-0.3952484130859375,Waiting,0.0,0.0,-138072.0,-223.0,-1635.0,0.0,0.0,0.0,
4.427390000000014,0.0,0.0,6608.0,0.0,0.0,0.0,0.0,0.125,0.8166503070000001,0.01,0.0,-7526.0,0.0,0.0,-0.0,0.0,14.75,2.290038828,0.01,0.0,5956.0,0.0,0.0,0.0,0.0,0.0,3.251952792,0.01,0.0,-6482.0,0.0,0.0,-0.0,0.0,0.25,1.668701001,0.01,0.0,0.14000000059604645,-1.0099999904632568,-0.029999999329447746,0.0330810546875,0.0010986328125,0.92877197265625,35.27000045776367,0.0,49.0,-1.3870849609375,-0.3932037353515625,Waiting,0.0,0.125,-138072.0,-223.0,-1590.0,0.0,0.0,0.0,
4.489099000000046,0.0,0.0,6608.0,0.0,0.0,0.0,0.0,0.125,0.8166503070000001,0.01,0.0012207030000004337,-7526.0,0.0,0.0,-0.0,0.0,14.75,2.290038828,0.01,0.0,5956.0,0.0,0.0,0.0,0.0,0.0,3.253173495,0.01,0.0012207030000004337,-6482.0,0.0,0.0,-0.0,0.0,0.25,1.668701001,0.01,0.0,0.12999999523162842,-1.0299999713897705,-0.029999999329447746,-0.06536865234375,-0.00689697265625,1.05419921875,35.27000045776367,0.0,-46.0,-1.3726806640625,-0.3946685791015625,Waiting,0.0,0.0,-138325.0,-212.0,-1545.0,0.0,0.0,0.0,
4.551969000000041,0.0,0.0,6608.0,0.0,0.0,0.0,0.0,0.125,0.8166503070000001,0.01,-0.0012207030000004337,-7526.0,0.0,0.0,-0.0,0.0,14.75,2.293700937,0.01,0.0,5956.0,0.0,0.0,0.0,0.0,0.0,3.251952792,0.01,0.0,-6482.0,0.0,0.0,-0.0,0.0,0.25,1.668701001,0.01,0.0,0.12999999523162842,-1.0399999618530273,-0.029999999329447746,0.068115234375,0.029541015625,0.97320556640625,35.27000045776367,0.0,85.0,-1.36187744140625,-0.3957366943359375,Waiting,0.0,0.0,-138564.0,-201.0,-1507.5,0.0,0.0,0.0,
4.612026000000013,0.0,0.0,6608.0,0.0,0.0,0.0,0.0,0.125,0.8166503070000001,0.01,0.0,-7526.0,0.0,0.0,-0.0,0.0,14.625,2.290038828,0.01,0.0,5956.0,0.0,0.0,0.0,0.0,0.0,3.251952792,0.01,0.0,-6482.0,0.0,0.0,-0.0,0.0,0.25,1.668701001,0.01,0.0,0.10999999940395355,-1.059999942779541,-0.029999999329447746,0.03271484375,3.662109375E-4,0.92144775390625,35.2400016784668,0.0,49.0,-1.3512115478515625,-0.3969268798828125,Waiting,0.0,0.0,-138564.0,-201.0,-1462.5,0.0,0.0,0.0,
4.673168000000005,0.0,0.0,6608.0,0.0,0.0,0.0,0.0,0.125,0.8166503070000001,0.01,0.0,-7526.0,0.0,0.0,-0.0,0.0,14.625,2.290038828,0.01,0.0,5956.0,0.0,0.0,0.0,0.0,0.0,3.251952792,0.01,-0.0012207030000004337,-6482.0,0.0,0.0,-0.0,0.0,0.25,1.669921704,0.01,0.0,0.11999999731779099,-1.100000023841858,-0.029999999329447746,-0.0447998046875,-0.0384521484375,0.912353515625,35.2400016784668,0.0,-27.0,-1.3406829833984375,-0.3979339599609375,Waiting,0.0,0.0,-138790.0,-190.0,-1425.0,0.0,0.0,0.0,
4.738263000000035,0.0,0.0,6608.0,0.0,0.0,0.0,0.0,0.125,0.8166503070000001,0.01,0.0012207030000004337,-7526.0,0.0,0.0,-0.0,0.0,14.625,2.290038828,0.01,0.0,5956.0,0.0,0.0,0.0,0.0,0.0,3.251952792,0.01,0.0,-6482.0,0.0,0.0,-0.0,0.0,0.25,1.668701001,0.01,0.0,0.14000000059604645,-1.100000023841858,-0.029999999329447746,0.02447509765625,-0.0054931640625,1.07763671875,35.2400016784668,0.0,45.0,-1.329742431640625,-0.3986358642578125,Waiting,0.0,0.0,-138790.0,-190.0,-1395.0,0.0,0.0,0.0,
4.797078000000038,0.0,0.0,6608.0,0.0,0.0,0.0,0.0,0.125,0.8178710100000001,0.01,0.0,-7526.0,0.0,0.0,-0.0,0.0,14.625,2.291259531,0.01,0.0,5956.0,0.0,0.0,0.0,0.0,0.0,3.250732089,0.01,0.0,-6482.0,0.0,0.0,-0.0,0.0,0.25,1.669921704,0.01,0.0,0.12999999523162842,-1.1399999856948853,-0.029999999329447746,-0.00665283203125,-0.02813720703125,0.926025390625,35.2400016784668,0.0,11.0,-1.3160400390625,-0.39935302734375,Waiting,0.0,0.0,-139005.0,-180.0,-1342.5,0.0,0.0,0.0,
4.866733999999997,0.0,0.0,6608.0,0.0,0.0,0.0,0.0,0.125,0.8166503070000001,0.01,0.0012207030000004337,-7526.0,0.0,0.0,-0.0,0.0,14.5,2.290038828,0.01,0.0,5956.0,0.0,0.0,0.0,0.0,0.0,3.251952792,0.01,-0.0012207030000004337,-6482.0,0.0,0.0,-0.0,0.0,0.25,1.669921704,0.01,0.0,0.10999999940395355,-1.1299999952316284,-0.029999999329447746,0.01800537109375,0.0137939453125,0.984375,35.2400016784668,0.0,37.0,-1.305084228515625,-0.3995208740234375,Waiting,0.0,0.0,-139005.0,-180.0,-1305.0,0.0,0.0,0.0,
4.927543000000005,0.0,0.0,6608.0,0.0,0.0,0.0,0.0,0.125,0.8166503070000001,0.01,-0.0012207030000004337,-7526.0,0.0,0.0,-0.0,0.0,14.5,2.290038828,0.01,0.0,5956.0,0.0,0.0,0.0,0.0,0.0,3.251952792,0.01,0.0,-6482.0,0.0,0.0,-0.0,0.0,0.25,1.668701001,0.01,0.0,0.12999999523162842,-1.1399999856948853,-0.029999999329447746,0.06683349609375,-0.0411376953125,1.28167724609375,35.2400016784668,0.0,92.0,-1.29388427734375,-0.3997955322265625,Waiting,0.0,0.0,-139208.0,-170.0,-1267.5,0.0,0.0,0.0,
4.988146999999997,0.0,0.0,6608.0,0.0,0.0,0.0,0.0,0.125,0.8166503070000001,0.01,0.0012207030000004337,-7526.0,0.0,0.0,-0.0,0.0,14.5,2.290038828,0.01,0.0,5956.0,0.0,0.0,0.0,0.0,0.0,3.251952792,0.01,0.0012207030000004337,-6482.0,0.0,0.0,-0.0,0.0,0.25,1.669921704,0.01,0.0,0.10000000149011612,-1.1100000143051147,-0.029999999329447746,-0.01373291015625,-0.02716064453125,0.99676513671875,35.2400016784668,0.0,5.0,-1.2823028564453125,-0.399810791015625,Waiting,0.0,0.0,-139208.0,-170.0,-1237.5,0.0,0.0,0.0,
5.046858999999997,0.0,0.0,6608.0,0.0,0.0,0.0,0.0,0.125,0.8178710100000001,0.01,0.0,-7526.0,0.0,0.0,-0.0,0.0,14.5,2.290038828,0.01,0.0,5956.0,0.0,0.0,0.0,0.0,0.0,3.250732089,0.01,0.0,-6482.0,0.0,0.0,-0.0,0.0,0.25,1.668701001,0.01,0.0,0.10000000149011612,-1.1100000143051147,-0.029999999329447746,-0.06982421875,0.00811767578125,1.1151123046875,35.2400016784668,0.0,-48.0,-1.2823333740234375,-0.3995819091796875,Waiting,0.0,0.0,-139399.0,-161.0,-1200.0,0.0,0.0,0.0,
5.110380999999994,0.0,0.0,6608.0,0.0,0.0,0.0,0.0,0.125,0.8166503070000001,0.01,-0.0012207030000004337,-7526.0,0.0,0.0,-0.0,0.0,14.5,2.291259531,0.01,0.0,5956.0,0.0,0.0,0.0,0.0,0.0,3.251952792,0.01,-0.0012207030000004337,-6482.0,0.0,0.0,-0.0,0.0,0.25,1.668701001,0.01,0.0,0.09000000357627869,-1.100000023841858,-0.029999999329447746,-0.031982421875,0.03643798828125,1.099853515625,35.2400016784668,0.0,-10.0,-1.28271484375,-0.399383544921875,Waiting,0.0,0.0,-139399.0,-161.0,-1170.0,0.0,0.0,0.0,
5.1690250000000235,0.0,0.0,6608.0,0.0,0.0,0.0,0.0,0.125,0.8166503070000001,0.01,0.0012207030000004337,-7526.0,0.0,0.0,-0.0,0.0,14.5,2.291259531,0.01,0.0,5956.0,0.0,0.0,0.0,0.0,0.0,3.250732089,0.01,0.0,-6482.0,0.0,0.0,-0.0,0.0,0.25,1.668701001,0.01,0.0,0.10000000149011612,-1.090000033378601,-0.029999999329447746,-0.05133056640625,0.013427734375,0.988525390625,35.27000045776367,0.0,-32.0,-1.283843994140625,-0.3990478515625,Waiting,0.0,0.0,-139580.0,-151.0,-1132.5,0.0,0.0,0.0,
5.231183000000019,0.0,0.0,6608.0,0.0,0.0,0.0,0.0,0.125,0.8166503070000001,0.01,-0.0012207030000004337,-7526.0,0.0,0.0,-0.0,0.0,14.5,2.290038828,0.01,0.0,5956.0,0.0,0.0,0.0,0.0,0.0,3.251952792,0.01,0.0,-6482.0,0.0,0.0,-0.0,0.0,0.25,1.668701001,0.01,0.0,0.07999999821186066,-1.090000033378601,-0.029999999329447746,-0.02008056640625,-0.00970458984375,1.1473388671875,35.27000045776367,0.0,1.0,-1.2841796875,-0.3987579345703125,Waiting,0.0,0.0,-139580.0,-151.0,-1095.0,0.0,0.0,0.0,
5.29080700000003,0.0,0.0,6608.0,0.0,0.0,0.0,0.0,0.125,0.8154296040000001,0.01,0.0012207030000004337,-7526.0,0.0,0.0,-0.0,0.0,14.5,2.291259531,0.01,0.0,5956.0,0.0,0.0,0.0,0.0,0.0,3.251952792,0.01,0.0,-6482.0,0.0,0.0,-0.0,0.0,0.25,1.668701001,0.01,0.0,0.09000000357627869,-1.090000033378601,-0.029999999329447746,-0.01141357421875,-0.04034423828125,1.002685546875,35.27000045776367,0.0,7.0,-1.284210205078125,-0.399139404296875,Waiting,0.0,0.0,-139749.0,-142.0,-1057.5,0.0,0.0,0.0,
5.360186000000045,0.0,0.0,6608.0,0.0,0.0,0.0,0.0,0.125,0.8166503070000001,0.01,0.0,-7526.0,0.0,0.0,-0.0,0.0,14.5,2.290038828,0.01,0.0,5956.0,0.0,0.0,0.0,0.0,0.0,3.251952792,0.01,0.0,-6482.0,0.0,0.0,-0.0,0.0,0.25,1.668701001,0.01,0.0,0.05999999865889549,-1.090000033378601,-0.029999999329447746,-0.0106201171875,-0.0394287109375,1.03466796875,35.27000045776367,0.0,9.0,-1.2843017578125,-0.399688720703125,Waiting,0.0,0.0,-139749.0,-142.0,-1020.0,0.0,0.0,0.0,
5.4229700000000305,0.0,0.0,6608.0,0.0,0.0,0.0,0.0,0.125,0.8178710100000001,0.01,0.0,-7526.0,0.0,0.0,-0.0,0.0,14.5,2.290038828,0.01,0.0,5956.0,0.0,0.0,0.0,0.0,0.0,3.251952792,0.01,0.0,-6482.0,0.0,0.0,-0.0,0.0,0.25,1.668701001,0.01,0.0,0.10000000149011612,-1.090000033378601,-0.029999999329447746,0.04852294921875,-0.09283447265625,1.09283447265625,35.27000045776367,0.0,69.0,-1.2843017578125,-0.3999481201171875,Waiting,0.0,0.0,-139908.0,-133.0,-990.0,0.0,0.0,0.0,
5.486753000000026,0.0,0.0,6608.0,0.0,0.0,0.0,0.0,0.125,0.8166503070000001,0.01,-0.0012207030000004337,-7526.0,0.0,0.0,-0.0,0.0,14.5,2.290038828,0.01,0.0,5956.0,0.0,0.0,0.0,0.0,0.0,3.250732089,0.01,0.0,-6482.0,0.0,0.0,-0.0,0.0,0.25,1.668701001,0.01,0.0,0.07999999821186066,-1.100000023841858,-0.029999999329447746,-0.02642822265625,0.0255126953125,1.0303955078125,35.27000045776367,0.0,-6.0,-1.2839202880859375,-0.399932861328125,Waiting,0.0,0.0,-139908.0,-133.0,-952.5,0.0,0.0,0.0,
5.547752000000036,0.0,0.0,6608.0,0.0,0.0,0.0,0.0,0.125,0.8166503070000001,0.01,0.0012207030000004337,-7526.0,0.0,0.0,-0.0,0.0,14.375,2.291259531,0.01,0.0,5956.0,0.0,0.0,0.0,0.0,0.0,3.251952792,0.01,0.0,-6482.0,0.0,0.0,-0.0,0.0,0.25,1.668701001,0.01,0.0,0.09000000357627869,-1.090000033378601,-0.029999999329447746,-0.03192138671875,0.078369140625,1.03717041015625,35.27000045776367,0.0,-12.0,-1.2838287353515625,-0.3998260498046875,Waiting,0.0,0.0,-140056.0,-125.0,-922.5,0.0,0.0,0.0,
5.611466000000015,0.0,0.0,6608.0,0.0,0.0,0.0,0.0,0.125,0.8166503070000001,0.01,-0.0012207030000004337,-7526.0,0.0,0.0,-0.0,0.0,14.375,2.290038828,0.01,0.0,5956.0,0.0,0.0,0.0,0.0,0.0,3.251952792,0.01,0.0012207030000004337,-6482.0,0.0,0.0,-0.0,0.0,0.25,1.667480298,0.01,0.0,0.09000000357627869,-1.1200000047683716,-0.029999999329447746,-0.034423828125,-0.01556396484375,1.05615234375,35.27000045776367,0.0,-13.0,-1.283660888671875,-0.399169921875,Waiting,0.0,0.0,-140056.0,-125.0,-885.0,0.0,0.0,0.0,
5.672027000000002,0.0,0.0,6608.0,0.0,0.0,0.0,0.0,0.125,0.8166503070000001,0.01,0.0012207030000004337,-7526.0,0.0,0.0,-0.0,0.0,14.375,2.291259531,0.01,0.0,5956.0,0.0,0.0,0.0,0.0,0.0,3.250732089,0.01,0.0,-6482.0,0.0,0.0,-0.0,0.0,0.25,1.671142407,0.01,0.0,0.05999999865889549,-1.100000023841858,-0.029999999329447746,-0.01690673828125,0.0235595703125,0.9058837890625,35.25,0.0,0.0,-1.28350830078125,-0.3987274169921875,Waiting,0.0,0.0,-140194.0,-116.0,-855.0,0.0,0.0,0.0,
5.733271000000008,0.0,0.0,6608.0,0.0,0.0,0.0,0.0,0.125,0.8166503070000001,0.01,-0.0012207030000004337,-7526.0,0.0,0.0,-0.0,0.0,14.375,2.291259531,0.01,0.0,5956.0,0.0,0.0,0.0,0.0,0.0,3.251952792,0.01,-0.0012207030000004337,-6482.0,0.0,0.0,-0.0,0.0,0.25,1.668701001,0.01,0.0,0.07999999821186066,-1.100000023841858,-0.029999999329447746,-0.01800537109375,0.0401611328125,1.104736328125,35.25,0.0,3.0,-1.283294677734375,-0.39849853515625,Waiting,0.0,0.0,-140194.0,-116.0,-817.5,0.0,0.0,0.0,
5.793858000000007,0.0,0.0,6608.0,0.0,0.0,0.0,0.0,0.125,0.8166503070000001,0.01,0.0,-7526.0,0.0,0.0,-0.0,0.0,14.375,2.290038828,0.01,0.0,5956.0,0.0,0.0,0.0,0.0,0.0,3.251952792,0.01,0.0,-6482.0,0.0,0.0,-0.0,0.0,0.25,1.668701001,0.01,0.0,0.10000000149011612,-1.090000033378601,-0.029999999329447746,0.0291748046875,-0.07464599609375,1.13677978515625,35.25,0.0,51.0,-1.2833251953125,-0.3982391357421875,Waiting,0.0,0.0,-140321.0,-107.0,-780.0,0.0,0.0,0.0,
5.866083000000042,0.0,0.0,6608.0,0.0,0.0,0.0,0.0,0.125,0.8166503070000001,0.01,0.0,-7526.0,0.0,0.0,-0.0,0.0,14.375,2.290038828,0.01,0.0,5956.0,0.0,0.0,0.0,0.0,0.0,3.250732089,0.01,0.0,-6482.0,0.0,0.0,-0.0,0.0,0.25,1.668701001,0.01,0.0,0.09000000357627869,-1.0800000429153442,-0.029999999329447746,0.043212890625,-0.0379638671875,1.0677490234375,35.25,0.0,63.0,-1.2834014892578125,-0.397979736328125,Waiting,0.0,0.125,-140321.0,-107.0,-742.5,0.0,0.0,0.0,
5.925347000000009,0.0,0.0,6608.0,0.0,0.0,0.0,0.0,0.125,0.8166503070000001,0.01,0.0,-7526.0,0.0,0.0,-0.0,0.0,14.375,2.291259531,0.01,0.0,5956.0,0.0,0.0,0.0,0.0,0.0,3.251952792,0.01,0.0,-6482.0,0.0,0.0,-0.0,0.0,0.25,1.668701001,0.01,0.0,0.07999999821186066,-1.059999942779541,-0.029999999329447746,-0.0662841796875,-0.00347900390625,0.97003173828125,35.25,0.0,-48.0,-1.2833404541015625,-0.3976287841796875,Waiting,0.0,0.0,-140436.0,-97.0,-705.0,0.0,0.0,0.0,
5.986073000000033,0.0,0.0,6608.0,0.0,0.0,0.0,0.0,0.125,0.8166503070000001,0.01,0.0,-7526.0,0.0,0.0,-0.0,0.0,14.375,2.293700937,0.01,0.0,5956.0,0.0,0.0,0.0,0.0,0.0,3.251952792,0.01,0.0,-6482.0,0.0,0.0,-0.0,0.0,0.25,1.668701001,0.01,0.0,0.07999999821186066,-1.0499999523162842,-0.029999999329447746,-0.01971435546875,-0.01141357421875,1.0450439453125,35.25,0.0,0.0,-1.283477783203125,-0.3975677490234375,Waiting,0.0,0.0,-140540.0,-88.0,-667.5,0.0,0.0,0.0,
6.051708000000042,0.0,0.0,6608.0,0.0,0.0,0.0,0.0,0.125,0.8166503070000001,0.01,0.0,-7526.0,0.0,0.0,-0.0,0.0,14.375,2.290038828,0.01,0.0,5956.0,0.0,0.0,0.0,0.0,0.0,3.251952792,0.01,0.0,-6482.0,0.0,0.0,-0.0,0.0,0.25,1.669921704,0.01,0.0,0.07000000029802322,-1.0199999809265137,-0.029999999329447746,0.03564453125,0.0037841796875,0.9957275390625,35.25,0.0,53.0,-1.283538818359375,-0.3975830078125,Waiting,0.0,0.0,-140540.0,-88.0,-630.0,0.0,0.0,0.0,
6.121771000000008,0.0,0.0,6608.0,0.0,0.0,0.0,0.0,0.125,0.8166503070000001,0.01,-0.0012207030000004337,-7526.0,0.0,0.0,-0.0,0.0,14.375,2.290038828,0.01,0.0,5956.0,0.0,0.0,0.0,0.0,0.0,3.251952792,0.01,-0.0012207030000004337,-6482.0,0.0,0.0,-0.0,0.0,0.25,1.669921704,0.01,0.0,0.07999999821186066,-1.0099999904632568,-0.029999999329447746,-0.04510498046875,0.03289794921875,0.99517822265625,35.25,0.0,-27.0,-1.2833251953125,-0.3975830078125,Waiting,0.0,0.0,-140633.0,-79.0,-592.5,0.0,0.0,0.0,
6.18751700000005,0.0,0.0,6608.0,0.0,0.0,0.0,0.0,0.125,0.8166503070000001,0.01,0.0,-7526.0,0.0,0.0,-0.0,0.0,14.375,2.290038828,0.01,0.0,5956.0,0.0,0.0,0.0,0.0,0.0,3.251952792,0.01,0.0,-6482.0,0.0,0.0,-0.0,0.0,0.25,1.667480298,0.01,0.0,0.07000000029802322,-0.9800000190734863,-0.029999999329447746,-0.03460693359375,-0.00360107421875,1.009521484375,35.25,0.0,-17.0,-1.2828521728515625,-0.397705078125,Waiting,0.0,0.0,-140633.0,-79.0,-547.5,0.0,0.0,0.0,
6.251927000000025,0.0,0.0,6608.0,0.0,0.0,0.0,0.0,0.125,0.8166503070000001,0.01,0.0,-7526.0,0.0,0.0,-0.0,0.0,8.25,2.332763433,0.01,0.0,5956.0,0.0,0.0,0.0,0.0,0.0,3.251952792,0.01,0.0,-6482.0,0.0,0.0,-0.0,0.0,0.125,1.668701001,0.01,0.0,0.07000000029802322,-0.9700000286102295,-0.029999999329447746,-0.02630615234375,-0.02032470703125,1.07757568359375,35.25,0.0,-7.0,-1.2827606201171875,-0.3975677490234375,Waiting,0.0,0.0,-140715.0,-70.0,-510.0,0.0,0.0,0.0,
