Time,ClimberA1,ClimberA2,FRpos,FRCurrent,FRspeed,FRsetpoint,FRApos,FRACurrent,FREncpos,FREncSetpoint,FREncSpeed,FLpos,FLCurrent,FLspeed,FLsetpoint,FLApos,FLACurrent,FLEncpos,FLEncSetpoint,FLEncSpeed,BRpos,BRCurrent,BRspeed,BRsetpoint,BRApos,BRACurrent,BREncpos,BREncSetpoint,BREncSpeed,BLpos,BLCurrent,BLspeed,BLsetpoint,BLApos,BLACurrent,BLEncpos,BLEncSetpoint,BLEncSpeed,navx_Pitch,navx_Roll,navx_Yaw,navx_XAcc,navx_YAcc,navx_ZAcc,navx_Temp,navx_Bar,navx_Alt,navx_XDis,navx_YDis,GearPlacerState,ShootOutputV,ShootOutputCurrent,ShootEncPos,ShootEncVelocity,ShootSpeed,ShootSetpoint,CarouselSetpoint,CarouselCurrent,
0.13287300000002142,0.0,0.0,41151.0,0.0,0.0,0.0,0.0,0.375,0.759277266,0.01,0.0,38156.0,0.0,0.0,-0.0,0.0,0.25,0.384521445,0.01,0.0,-2111.0,0.0,0.0,0.0,0.0,0.125,3.408202776,0.01,0.0,40692.0,0.125,0.0,-0.0,0.0,0.25,1.5783689790000002,0.01,0.0,0.3799999952316284,-1.2799999713897705,0.0,-0.0230712890625,0.00445556640625,1.0181884765625,35.7400016784668,0.0,0.0,1.643096923828125,0.2651824951171875,Opening,0.0,0.0,1.0,0.0,0.0,0.0,0.0,0.0,
0.23496400000000722,0.0,0.0,41151.0,0.0,0.0,0.0,0.0,0.375,0.759277266,0.01,0.0,38156.0,0.0,0.0,-0.0,0.0,0.25,0.384521445,0.01,0.0,-2111.0,0.0,0.0,0.0,0.0,0.125,3.406982073,0.01,0.0,40692.0,0.125,0.0,-0.0,0.0,0.25,1.5783689790000002,0.01,0.0,0.3799999952316284,-1.2899999618530273,0.0,-0.0201416015625,0.00677490234375,1.02081298828125,35.7400016784668,0.0,2.0,1.643096923828125,0.2651824951171875,Opening,0.0,0.0,1.0,0.0,0.0,0.0,0.0,0.0,
0.3451700000000128,0.0,0.0,41151.0,0.0,0.0,0.0,0.0,0.375,0.759277266,0.01,0.0,38156.0,0.0,0.0,-0.0,0.0,0.25,0.385742148,0.01,0.0,-2111.0,0.0,0.0,0.0,0.0,0.125,3.406982073,0.01,0.0,40692.0,0.125,0.0,-0.0,0.0,0.25,1.5783689790000002,0.01,0.0,0.3799999952316284,-1.2799999713897705,0.0,-0.025634765625,0.0068359375,1.017578125,35.7400016784668,0.0,-2.0,1.643096923828125,0.2651824951171875,Opening,0.0,0.0,1.0,0.0,0.0,0.0,0.0,0.0,
0.4514550000000163,0.0,0.0,41151.0,0.0,0.0,0.0,0.0,0.375,0.759277266,0.01,0.0,38156.0,0.0,0.0,-0.0,0.0,0.25,0.385742148,0.01,0.0,-2111.0,0.0,0.0,0.0,0.0,0.125,3.406982073,0.01,0.0,40692.0,0.125,0.0,-0.0,0.0,0.25,1.5783689790000002,0.01,0.0,0.38999998569488525,-1.2799999713897705,0.0,-0.02008056640625,0.01202392578125,1.024169921875,35.72999954223633,0.0,2.0,1.643096923828125,0.2651824951171875,Opening,0.0,0.0,1.0,0.0,0.0,0.0,0.0,0.0,
0.5641849999999977,0.0,0.0,41151.0,0.0,0.0,0.0,0.0,0.375,0.759277266,0.01,0.0,38156.0,0.0,0.0,-0.0,0.0,0.25,0.385742148,0.01,0.0,-2111.0,0.0,0.0,0.0,0.0,0.125,3.406982073,0.01,0.0,40692.0,0.125,0.0,-0.0,0.0,0.25,1.5783689790000002,0.01,0.0,0.3799999952316284,-1.2799999713897705,0.0,-0.02410888671875,0.0042724609375,1.02001953125,35.72999954223633,0.0,-1.0,1.643096923828125,0.2651824951171875,Opening,0.0,0.0,1.0,0.0,0.0,0.0,0.0,0.0,
0.6828940000000002,0.0,0.0,41151.0,0.0,0.0,0.0,0.0,0.375,0.759277266,0.01,0.0,38156.0,0.0,0.0,-0.0,0.0,0.25,0.384521445,0.01,0.0,-2111.0,0.0,0.0,0.0,0.0,0.125,3.406982073,0.01,0.0,40692.0,0.125,0.0,-0.0,0.0,0.25,1.5783689790000002,0.01,0.0,0.3799999952316284,-1.2799999713897705,0.0,-0.02117919921875,0.00616455078125,1.018798828125,35.72999954223633,0.0,1.0,1.643096923828125,0.2651824951171875,Opening,0.0,0.0,1.0,0.0,0.0,0.0,0.0,0.0,
0.7951300000000047,0.0,0.0,41151.0,0.0,0.0,0.0,0.0,0.375,0.759277266,0.01,0.0,38156.0,0.0,0.0,-0.0,0.0,0.25,0.385742148,0.01,0.0,-2111.0,0.0,0.0,0.0,0.0,0.125,3.406982073,0.01,0.0,40692.0,0.0,0.0,-0.0,0.0,0.25,1.5783689790000002,0.01,0.0,0.3799999952316284,-1.2899999618530273,0.0,-0.02117919921875,0.00738525390625,1.01312255859375,35.72999954223633,0.0,1.0,1.643096923828125,0.2651824951171875,Opening,0.0,0.0,1.0,0.0,0.0,0.0,0.0,0.0,
0.9085260000000126,0.0,0.0,41151.0,0.0,0.0,0.0,0.0,0.375,0.759277266,0.01,0.0,38156.0,0.0,0.0,-0.0,0.0,0.25,0.384521445,0.01,0.0,-2111.0,0.0,0.0,0.0,0.0,0.125,3.406982073,0.01,0.0,40692.0,0.0,0.0,-0.0,0.0,0.25,1.5783689790000002,0.01,0.0,0.3700000047683716,-1.2799999713897705,0.0,-0.022216796875,0.00494384765625,1.01702880859375,35.720001220703125,0.0,0.0,1.643096923828125,0.2651824951171875,Opening,0.0,0.0,1.0,0.0,0.0,0.0,0.0,0.0,
1.0187510000000184,0.0,0.0,41151.0,0.0,0.0,0.0,0.0,0.375,0.759277266,0.01,0.0,38156.0,0.0,0.0,-0.0,0.0,0.25,0.385742148,0.01,0.0,-2111.0,0.0,0.0,0.0,0.0,0.125,3.408202776,0.01,0.0,40692.0,0.0,0.0,-0.0,0.0,0.25,1.5783689790000002,0.01,0.0,0.3700000047683716,-1.2799999713897705,0.0,-0.0244140625,0.00677490234375,1.0250244140625,35.720001220703125,0.0,-1.0,1.643096923828125,0.2651824951171875,Opening,0.0,0.0,1.0,0.0,0.0,0.0,0.0,0.0,
1.1368680000000169,0.0,0.0,41151.0,0.0,0.0,0.0,0.0,0.375,0.759277266,0.01,0.0,38156.0,0.0,0.0,-0.0,0.0,0.25,0.385742148,0.01,0.0,-2111.0,0.0,0.0,0.0,0.0,0.125,3.408202776,0.01,0.0,40692.0,0.125,0.0,-0.0,0.0,0.25,1.5783689790000002,0.01,0.0,0.3799999952316284,-1.2899999618530273,0.0,-0.0218505859375,0.007080078125,1.01947021484375,35.720001220703125,0.0,1.0,1.643096923828125,0.2651824951171875,Opening,0.0,0.0,1.0,0.0,0.0,0.0,0.0,0.0,
1.252875,0.0,0.0,41151.0,0.0,0.0,0.0,0.0,0.375,0.759277266,0.01,0.0,38156.0,0.0,0.0,-0.0,0.0,0.25,0.384521445,0.01,0.0,-2111.0,0.0,0.0,0.0,0.0,0.125,3.406982073,0.01,0.0,40692.0,0.125,0.0,-0.0,0.0,0.25,1.5771482760000002,0.01,0.0,0.3799999952316284,-1.2899999618530273,0.0,-0.01885986328125,0.004638671875,1.01934814453125,35.720001220703125,0.0,4.0,1.643096923828125,0.2651824951171875,Opening,0.0,0.0,1.0,0.0,0.0,0.0,0.0,0.0,
1.3711570000000066,0.0,0.0,41151.0,0.0,0.0,0.0,0.0,0.375,0.759277266,0.01,0.0,38156.0,0.0,0.0,-0.0,0.0,0.25,0.385742148,0.01,0.0,-2111.0,0.0,0.0,0.0,0.0,0.125,3.406982073,0.01,0.0,40692.0,0.125,0.0,-0.0,0.0,0.25,1.5808103850000002,0.01,0.0,0.3799999952316284,-1.2899999618530273,0.0,-0.02642822265625,0.036865234375,1.0235595703125,35.720001220703125,0.0,-3.0,1.643096923828125,0.26519775390625,Closing,0.0,0.0,1.0,0.0,0.0,0.0,0.0,0.0,
1.4884580000000134,0.0,0.0,41151.0,0.0,0.0,0.0,0.0,0.375,0.759277266,0.01,0.0,38156.0,0.0,0.0,-0.0,0.0,0.25,0.385742148,0.01,0.0,-2111.0,0.0,0.0,0.0,0.0,0.125,3.406982073,0.01,0.0,40692.0,0.125,0.0,-0.0,0.0,0.25,1.5783689790000002,0.01,0.0,0.3700000047683716,-1.2799999713897705,0.009999999776482582,-0.0316162109375,0.0103759765625,1.00689697265625,35.72999954223633,0.0,-8.0,1.64306640625,0.2653045654296875,Closing,0.0,0.0,1.0,0.0,0.0,0.0,0.0,0.0,
1.5965920000000042,0.0,0.0,41151.0,0.0,0.0,0.0,0.0,0.375,0.7397460180000001,0.01,0.0,38156.0,0.0,0.0,-0.0,0.0,0.25,0.385742148,0.01,0.0,-2111.0,0.0,0.0,0.0,0.0,0.125,3.406982073,0.01,0.0,40692.0,0.125,0.0,-0.0,0.0,0.25,1.5783689790000002,0.01,0.0,0.3799999952316284,-1.2799999713897705,0.009999999776482582,-0.01605224609375,-0.01287841796875,1.00677490234375,35.72999954223633,0.0,6.0,1.64306640625,0.265228271484375,Closing,0.0,0.0,1.0,0.0,0.0,0.0,0.0,0.0,
1.7133430000000225,0.0,0.0,41151.0,0.0,0.0,0.0,0.0,0.375,0.7519530480000001,0.01,0.0,38156.0,0.0,0.0,-0.0,0.0,0.25,0.385742148,0.01,0.0,-2111.0,0.0,0.0,0.0,0.0,0.125,3.406982073,0.01,0.0,40692.0,0.125,0.0,-0.0,0.0,0.25,1.5783689790000002,0.01,0.0,0.3799999952316284,-1.2899999618530273,0.009999999776482582,-0.02703857421875,0.00701904296875,1.040771484375,35.72999954223633,0.0,-3.0,1.64306640625,0.265228271484375,Closing,0.0,0.0,1.0,0.0,0.0,0.0,0.0,0.0,
1.8322609999999986,0.0,0.0,41151.0,0.0,0.0,0.0,0.0,0.375,0.759277266,0.01,0.0,38156.0,0.0,0.0,-0.0,0.0,0.25,0.385742148,0.01,0.0,-2111.0,0.0,0.0,0.0,0.0,0.125,3.406982073,0.01,0.0,40692.0,0.125,0.0,-0.0,0.0,0.25,1.5795896820000002,0.01,0.0,0.3700000047683716,-1.2999999523162842,0.0,-0.0328369140625,0.00872802734375,1.0206298828125,35.72999954223633,0.0,-9.0,1.6429901123046875,0.2653045654296875,Closing,0.0,0.0,1.0,0.0,0.0,0.0,0.0,0.0,
1.9469619999999996,0.0,0.0,41151.0,0.0,0.0,0.0,0.0,0.375,0.759277266,0.01,0.0,38156.0,0.0,0.0,-0.0,0.0,0.25,0.385742148,0.01,0.0,-2111.0,0.0,0.0,0.0,0.0,0.125,3.406982073,0.01,0.0,40692.0,0.125,0.0,-0.0,0.0,0.25,1.5771482760000002,0.01,0.0,0.3799999952316284,-1.2999999523162842,0.0,-0.031005859375,-0.01947021484375,1.03021240234375,35.75,0.0,-7.0,1.6429901123046875,0.2653656005859375,Closing,0.0,0.0,1.0,0.0,0.0,0.0,0.0,0.0,
2.0560690000000177,0.0,0.0,41151.0,0.0,0.0,0.0,0.0,0.375,0.759277266,0.01,0.0,38156.0,0.0,0.0,-0.0,0.0,0.25,0.385742148,0.01,0.0,-2111.0,0.0,0.0,0.0,0.0,0.125,3.406982073,0.01,0.0,40692.0,0.125,0.0,-0.0,0.0,0.25,1.5783689790000002,0.01,0.0,0.3799999952316284,-1.2999999523162842,0.0,-0.01641845703125,0.00360107421875,1.00830078125,35.75,0.0,6.0,1.6429901123046875,0.2652587890625,Closing,0.0,0.0,1.0,0.0,0.0,0.0,0.0,0.0,
2.1700250000000234,0.0,0.0,41151.0,0.0,0.0,0.0,0.0,0.375,0.759277266,0.01,0.0,38156.0,0.0,0.0,-0.0,0.0,0.25,0.386962851,0.01,0.0,-2111.0,0.0,0.0,0.0,0.0,0.125,3.406982073,0.01,0.0,40692.0,0.125,0.0,-0.0,0.0,0.25,1.5783689790000002,0.01,0.0,0.3799999952316284,-1.2999999523162842,0.0,-0.0201416015625,-0.01910400390625,1.0084228515625,35.75,0.0,2.0,1.6429901123046875,0.265228271484375,Closing,0.0,0.0,1.0,0.0,0.0,0.0,0.0,0.0,
2.2847700000000186,0.0,0.0,41151.0,0.0,0.0,0.0,0.0,0.375,0.759277266,0.01,0.0,38156.0,0.0,0.0,-0.0,0.0,0.25,0.385742148,0.01,0.0,-2111.0,0.0,0.0,0.0,0.0,0.125,3.406982073,0.01,0.0,40692.0,0.125,0.0,-0.0,0.0,0.25,1.5783689790000002,0.01,0.0,0.3799999952316284,-1.309999942779541,0.0,-0.02569580078125,0.01556396484375,1.0323486328125,35.75,0.0,-1.0,1.6429901123046875,0.265045166015625,Closing,0.0,0.0,1.0,0.0,0.0,0.0,0.0,0.0,
2.394819000000018,0.0,0.0,41151.0,0.0,0.0,0.0,0.0,0.375,0.760497969,0.01,0.0,38156.0,0.0,0.0,-0.0,0.0,0.25,0.385742148,0.01,0.0,-2111.0,0.0,0.0,0.0,0.0,0.125,3.406982073,0.01,0.0,40692.0,0.0,0.0,-0.0,0.0,0.25,1.5783689790000002,0.01,0.0,0.3700000047683716,-1.2999999523162842,0.0,-0.0125732421875,0.013916015625,1.0272216796875,35.75,0.0,10.0,1.643096923828125,0.26495361328125,Closing,0.0,0.0,1.0,0.0,0.0,0.0,0.0,0.0,
2.5063430000000224,0.0,0.0,41151.0,0.0,0.0,0.0,0.0,0.375,0.759277266,0.01,0.0,38156.0,0.0,0.0,-0.0,0.0,0.25,0.385742148,0.01,0.0,-2111.0,0.0,0.0,0.0,0.0,0.125,3.406982073,0.01,0.0,40692.0,0.125,0.0,-0.0,0.0,0.25,1.5783689790000002,0.01,0.0,0.3700000047683716,-1.2999999523162842,0.0,-0.01904296875,-0.00213623046875,1.00799560546875,35.75,0.0,3.0,1.643096923828125,0.2648773193359375,Closing,0.0,0.0,1.0,0.0,0.0,0.0,0.0,0.0,
2.613658000000025,0.0,0.0,41151.0,0.0,0.0,0.0,0.0,0.375,0.759277266,0.01,0.0,38156.0,0.0,0.0,-0.0,0.0,0.25,0.384521445,0.01,0.0,-2111.0,0.0,0.0,0.0,0.0,0.125,3.408202776,0.01,0.0,40692.0,0.0,0.0,-0.0,0.0,0.25,1.5783689790000002,0.01,0.0,0.3799999952316284,-1.2999999523162842,0.0,-0.022705078125,0.00640869140625,1.0408935546875,35.75,0.0,1.0,1.643096923828125,0.2648773193359375,Closing,0.0,0.0,1.0,0.0,0.0,0.0,0.0,0.0,
2.7407210000000197,0.0,0.0,41151.0,0.0,0.0,0.0,0.0,0.375,0.759277266,0.01,0.0,38156.0,0.0,0.0,-0.0,0.0,0.25,0.38208003900000004,0.01,0.0,-2111.0,0.0,0.0,0.0,0.0,0.125,3.408202776,0.01,0.0,40692.0,0.125,0.0,-0.0,0.0,0.25,1.5783689790000002,0.01,0.0,0.3799999952316284,-1.2999999523162842,0.0,-0.025146484375,0.01153564453125,0.99981689453125,35.75,0.0,-2.0,1.643096923828125,0.2648773193359375,Closing,0.0,0.0,1.0,0.0,0.0,0.0,0.0,0.0,
2.848436000000016,0.0,0.0,41151.0,0.0,0.0,0.0,0.0,0.375,0.760497969,0.01,0.0,38156.0,0.0,0.0,-0.0,0.0,0.25,0.384521445,0.01,0.0,-2111.0,0.0,0.0,0.0,0.0,0.125,3.406982073,0.01,0.0,40692.0,0.125,0.0,-0.0,0.0,0.25,1.5783689790000002,0.01,0.0,0.3700000047683716,-1.2899999618530273,0.0,-0.020263671875,0.00616455078125,1.0069580078125,35.75,0.0,2.0,1.643096923828125,0.2648162841796875,Closing,0.0,0.0,1.0,0.0,0.0,0.0,0.0,0.0,
2.9545920000000043,0.0,0.0,41151.0,0.0,0.0,0.0,0.0,0.375,0.759277266,0.01,0.0,38156.0,0.0,0.0,-0.0,0.0,0.25,0.385742148,0.01,0.0,-2111.0,0.0,0.0,0.0,0.0,0.125,3.40576137,0.01,0.0,40692.0,0.0,0.0,-0.0,0.0,0.25,1.5771482760000002,0.01,0.0,0.3700000047683716,-1.2999999523162842,0.0,-0.025146484375,0.0081787109375,1.01800537109375,35.75,0.0,-1.0,1.643096923828125,0.2648162841796875,Closing,0.0,0.0,1.0,0.0,0.0,0.0,0.0,0.0,
3.0617170000000042,0.0,0.0,41151.0,0.0,0.0,0.0,0.0,0.375,0.759277266,0.01,0.0,38156.0,0.0,0.0,-0.0,0.0,0.25,0.385742148,0.01,0.0,-2111.0,0.0,0.0,0.0,0.0,0.125,3.406982073,0.01,0.0,40692.0,0.125,0.0,-0.0,0.0,0.25,1.5771482760000002,0.01,0.0,0.3700000047683716,-1.2999999523162842,-0.009999999776482582,-0.02490234375,0.00482177734375,1.01715087890625,35.75,0.0,-1.0,1.643096923828125,0.2648162841796875,Closing,0.0,0.0,1.0,0.0,0.0,0.0,0.0,0.0,
3.1692320000000183,0.0,0.0,41151.0,0.0,0.0,0.0,0.0,0.375,0.759277266,0.01,0.0,38156.0,0.0,0.0,-0.0,0.0,0.25,0.385742148,0.01,0.0,-2111.0,0.0,0.0,0.0,0.0,0.125,3.408202776,0.01,0.0,40692.0,0.125,0.0,-0.0,0.0,0.25,1.5783689790000002,0.01,0.0,0.3700000047683716,-1.2899999618530273,-0.019999999552965164,-0.02471923828125,0.0045166015625,1.015869140625,35.75,0.0,-1.0,1.643096923828125,0.2648162841796875,Closing,0.0,0.0,1.0,0.0,0.0,0.0,0.0,0.0,
3.271835000000021,0.0,0.0,41151.0,0.0,0.0,0.0,0.0,0.375,0.759277266,0.01,0.0,38156.0,0.0,0.0,-0.0,0.0,0.25,0.385742148,0.01,0.0,-2111.0,0.0,0.0,0.0,0.0,0.125,3.408202776,0.01,0.0,40692.0,0.125,0.0,-0.0,0.0,0.25,1.5783689790000002,0.01,0.0,0.38999998569488525,-1.2899999618530273,-0.019999999552965164,-0.02032470703125,0.00640869140625,1.0205078125,35.75,0.0,2.0,1.643096923828125,0.2648162841796875,Closing,0.0,0.0,1.0,0.0,0.0,0.0,0.0,0.0,
3.378433000000019,0.0,0.0,41151.0,0.0,0.0,0.0,0.0,0.375,0.759277266,0.01,0.0,38156.0,0.0,0.0,-0.0,0.0,0.25,0.385742148,0.01,0.0,-2111.0,0.0,0.0,0.0,0.0,0.125,3.40576137,0.01,0.0,40692.0,0.125,0.0,-0.0,0.0,0.25,1.5783689790000002,0.01,0.0,0.3799999952316284,-1.2999999523162842,-0.019999999552965164,-0.01702880859375,0.005615234375,1.01824951171875,35.75,0.0,6.0,1.643096923828125,0.2648162841796875,Closing,0.0,0.0,1.0,0.0,0.0,0.0,0.0,0.0,
3.4922240000000166,0.0,0.0,41151.0,0.0,0.0,0.0,0.0,0.375,0.759277266,0.01,0.0,38156.0,0.0,0.0,-0.0,0.0,0.25,0.385742148,0.01,0.0,-2111.0,0.0,0.0,0.0,0.0,0.125,3.406982073,0.01,0.0,40692.0,0.125,0.0,-0.0,0.0,0.25,1.5783689790000002,0.01,0.0,0.3799999952316284,-1.2799999713897705,0.0,-0.03424072265625,0.0025634765625,1.01922607421875,35.720001220703125,0.0,-11.0,1.643096923828125,0.2648162841796875,Closing,0.0,0.0,1.0,0.0,0.0,0.0,0.0,0.0,
3.5950480000000096,0.0,0.0,41151.0,0.0,0.0,0.0,0.0,0.375,0.759277266,0.01,0.0,38156.0,0.0,0.0,-0.0,0.0,0.25,0.384521445,0.01,0.0,-2111.0,0.0,0.0,0.0,0.0,0.125,3.408202776,0.01,0.0,40692.0,0.125,0.0,-0.0,0.0,0.25,1.5783689790000002,0.01,0.0,0.3799999952316284,-1.2999999523162842,-0.009999999776482582,-0.0145263671875,0.0107421875,1.00518798828125,35.720001220703125,0.0,8.0,1.643096923828125,0.2648162841796875,Opening,0.0,0.0,1.0,0.0,0.0,0.0,0.0,0.0,
3.698708000000013,0.0,0.0,41151.0,0.0,0.0,0.0,0.0,0.375,0.760497969,0.01,0.0,38156.0,0.0,0.0,-0.0,0.0,0.25,0.384521445,0.01,0.0,-2111.0,0.0,0.0,0.0,0.0,0.125,3.408202776,0.01,0.0,40692.0,0.0,0.0,-0.0,0.0,0.25,1.57470687,0.01,0.0,0.3799999952316284,-1.309999942779541,-0.009999999776482582,-0.01678466796875,0.00640869140625,1.01544189453125,35.720001220703125,0.0,6.0,1.643096923828125,0.2648162841796875,Opening,0.0,0.0,1.0,0.0,0.0,0.0,0.0,0.0,
3.8107460000000137,0.0,0.0,41151.0,0.0,0.0,0.0,0.0,0.375,0.7629393750000001,0.01,0.0,38156.0,0.0,0.0,-0.0,0.0,0.25,0.385742148,0.01,0.0,-2111.0,0.0,0.0,0.0,0.0,0.125,3.406982073,0.01,0.0,40692.0,0.0,0.0,-0.0,0.0,0.25,1.5771482760000002,0.01,0.0,0.38999998569488525,-1.2899999618530273,-0.009999999776482582,-0.033447265625,0.018310546875,1.02587890625,35.720001220703125,0.0,-10.0,1.643096923828125,0.2648162841796875,Opening,0.0,0.0,1.0,0.0,0.0,0.0,0.0,0.0,
3.9160219999999972,0.0,0.0,41151.0,0.0,0.0,0.0,0.0,0.375,0.760497969,0.01,0.0,38156.0,0.0,0.0,-0.0,0.0,0.25,0.384521445,0.01,0.0,-2111.0,0.0,0.0,0.0,0.0,0.125,3.406982073,0.01,0.0,40692.0,0.0,0.0,-0.0,0.0,0.25,1.5783689790000002,0.01,0.0,0.3799999952316284,-1.2899999618530273,-0.009999999776482582,-0.02947998046875,0.0250244140625,1.01434326171875,35.720001220703125,0.0,-6.0,1.6432037353515625,0.2646942138671875,Opening,0.0,0.0,1.0,0.0,0.0,0.0,0.0,0.0,
4.028168000000005,0.0,0.0,41151.0,0.0,0.0,0.0,0.0,0.375,0.759277266,0.01,0.0,38156.0,0.0,0.0,-0.0,0.0,0.25,0.385742148,0.01,0.0,-2111.0,0.0,0.0,0.0,0.0,0.125,3.406982073,0.01,0.0,40692.0,0.125,0.0,-0.0,0.0,0.25,1.5783689790000002,0.01,0.0,0.3700000047683716,-1.2599999904632568,0.0,0.012939453125,0.0023193359375,0.99737548828125,35.75,0.0,34.0,1.6432647705078125,0.26458740234375,Opening,0.0,0.0,1.0,0.0,0.0,0.0,0.0,0.0,
4.135739000000002,0.0,0.0,41151.0,0.0,0.0,0.0,0.0,0.375,0.759277266,0.01,0.0,38156.0,0.0,0.0,-0.0,0.0,0.25,0.384521445,0.01,0.0,-2111.0,0.0,0.0,0.0,0.0,0.125,3.406982073,0.01,0.0,40692.0,0.0,0.0,-0.0,0.0,0.25,1.5783689790000002,0.01,0.0,0.38999998569488525,-1.309999942779541,0.0,-0.02587890625,-0.02239990234375,0.9774169921875,35.75,0.0,-3.0,1.6430816650390625,0.2647552490234375,Opening,0.0,0.0,1.0,0.0,0.0,0.0,0.0,0.0,
4.2410920000000045,0.0,0.0,41151.0,0.0,0.0,0.0,0.0,0.375,0.760497969,0.01,0.0,38156.0,0.0,0.0,-0.0,0.0,0.25,0.384521445,0.01,0.0,-2111.0,0.0,0.0,0.0,0.0,0.125,3.408202776,0.01,0.0,40692.0,0.125,0.0,-0.0,0.0,0.25,1.5783689790000002,0.01,0.0,0.38999998569488525,-1.2799999713897705,-0.009999999776482582,-0.0167236328125,-0.00250244140625,1.01751708984375,35.75,0.0,6.0,1.642974853515625,0.264617919921875,Opening,0.0,0.0,1.0,0.0,0.0,0.0,0.0,0.0,
4.348979000000021,0.0,0.0,41151.0,0.0,0.0,0.0,0.0,0.375,0.759277266,0.01,0.0,38156.0,0.0,0.0,-0.0,0.0,0.25,0.386962851,0.01,0.0,-2111.0,0.0,0.0,0.0,0.0,0.125,3.406982073,0.01,0.0,40692.0,0.125,0.0,-0.0,0.0,0.25,1.5783689790000002,0.01,0.0,0.38999998569488525,-1.2899999618530273,0.0,-0.02056884765625,0.0091552734375,1.01678466796875,35.75,0.0,2.0,1.642974853515625,0.264617919921875,Opening,0.0,0.0,1.0,0.0,0.0,0.0,0.0,0.0,
4.457988000000012,0.0,0.0,41151.0,0.0,0.0,0.0,0.0,0.375,0.758056563,0.01,0.0,38156.0,0.0,0.0,-0.0,0.0,0.25,0.385742148,0.01,0.0,-2111.0,0.0,0.0,0.0,0.0,0.125,3.406982073,0.01,0.0,40692.0,0.125,0.0,-0.0,0.0,0.25,1.5771482760000002,0.01,0.0,0.38999998569488525,-1.2899999618530273,0.0,-0.02349853515625,-0.006591796875,1.02081298828125,35.7400016784668,0.0,0.0,1.642974853515625,0.264617919921875,Opening,0.0,0.0,1.0,0.0,0.0,0.0,0.0,0.0,
4.56851000000001,0.0,0.0,41151.0,0.0,0.0,0.0,0.0,0.375,0.760497969,0.01,0.0,38156.0,0.0,0.0,-0.0,0.0,0.25,0.385742148,0.01,0.0,-2111.0,0.0,0.0,0.0,0.0,0.125,3.40576137,0.01,0.0,40692.0,0.0,0.0,-0.0,0.0,0.25,1.5783689790000002,0.01,0.0,0.38999998569488525,-1.2899999618530273,0.0,-0.02191162109375,0.00616455078125,1.020751953125,35.7400016784668,0.0,1.0,1.642974853515625,0.264617919921875,Opening,0.0,0.0,1.0,0.0,0.0,0.0,0.0,0.0,
4.672431000000011,0.0,0.0,41151.0,0.0,0.0,0.0,0.0,0.375,0.75683586,0.01,0.0,38156.0,0.0,0.0,-0.0,0.0,0.25,0.385742148,0.01,0.0,-2111.0,0.0,0.0,0.0,0.0,0.125,3.406982073,0.01,0.0,40692.0,0.0,0.0,-0.0,0.0,0.25,1.5783689790000002,0.01,0.0,0.3799999952316284,-1.2899999618530273,-0.009999999776482582,-0.0250244140625,0.01055908203125,1.013671875,35.7400016784668,0.0,-2.0,1.642974853515625,0.264617919921875,Opening,0.0,0.0,1.0,0.0,0.0,0.0,0.0,0.0,
4.782670000000013,0.0,0.0,41151.0,0.0,0.0,0.0,0.0,0.375,0.759277266,0.01,0.0,38156.0,0.0,0.0,-0.0,0.0,0.25,0.384521445,0.01,0.0,-2111.0,0.0,0.0,0.0,0.0,0.125,3.406982073,0.01,0.0,40692.0,0.125,0.0,-0.0,0.0,0.25,1.5783689790000002,0.01,0.0,0.3799999952316284,-1.2999999523162842,-0.019999999552965164,-0.0216064453125,0.0115966796875,1.01708984375,35.7400016784668,0.0,1.0,1.642974853515625,0.264617919921875,Opening,0.0,0.0,1.0,0.0,0.0,0.0,0.0,0.0,
4.891419000000024,0.0,0.0,41151.0,0.0,0.0,0.0,0.0,0.375,0.759277266,0.01,0.0,38156.0,0.0,0.0,-0.0,0.0,0.25,0.385742148,0.01,0.0,-2111.0,0.0,0.0,0.0,0.0,0.125,3.406982073,0.01,0.0,40692.0,0.0,0.0,-0.0,0.0,0.25,1.5783689790000002,0.01,0.0,0.3700000047683716,-1.2999999523162842,-0.009999999776482582,-0.02777099609375,0.00970458984375,1.01556396484375,35.7400016784668,0.0,-4.0,1.642974853515625,0.264617919921875,Opening,0.0,0.0,1.0,0.0,0.0,0.0,0.0,0.0,
5.003826000000001,0.0,0.0,41151.0,0.0,0.0,0.0,0.0,0.375,0.758056563,0.01,0.0,38156.0,0.0,0.0,-0.0,0.0,0.25,0.384521445,0.01,0.0,-2111.0,0.0,0.0,0.0,0.0,0.125,3.408202776,0.01,0.0,40692.0,0.125,0.0,-0.0,0.0,0.25,1.5771482760000002,0.01,0.0,0.3700000047683716,-1.2899999618530273,-0.009999999776482582,-0.02191162109375,0.01025390625,1.0240478515625,35.72999954223633,0.0,1.0,1.642974853515625,0.264617919921875,Opening,0.0,0.0,1.0,0.0,0.0,0.0,0.0,0.0,
5.11108600000001,0.0,0.0,41151.0,0.0,0.0,0.0,0.0,0.375,0.759277266,0.01,0.0,38156.0,0.0,0.0,-0.0,0.0,0.25,0.39062496,0.01,0.0,-2111.0,0.0,0.0,0.0,0.0,0.125,3.408202776,0.01,0.0,40692.0,0.125,0.0,-0.0,0.0,0.25,1.5808103850000002,0.01,0.0,0.3700000047683716,-1.2999999523162842,-0.009999999776482582,-0.0145263671875,0.00286865234375,1.01953125,35.72999954223633,0.0,8.0,1.642974853515625,0.264617919921875,Opening,0.0,0.0,1.0,0.0,0.0,0.0,0.0,0.0,
5.216662000000011,0.0,0.0,41151.0,0.0,0.0,0.0,0.0,0.375,0.783691326,0.01,0.0,38156.0,0.0,0.0,-0.0,0.0,0.25,0.385742148,0.01,0.0,-2111.0,0.0,0.0,0.0,0.0,0.125,3.406982073,0.01,0.0,40692.0,0.0,0.0,-0.0,0.0,0.25,1.5795896820000002,0.01,0.0,0.3700000047683716,-1.2999999523162842,-0.009999999776482582,-0.0267333984375,0.00555419921875,1.01190185546875,35.72999954223633,0.0,-3.0,1.642974853515625,0.264617919921875,Opening,0.0,0.0,1.0,0.0,0.0,0.0,0.0,0.0,
5.323898000000016,0.0,0.0,41151.0,0.0,0.0,0.0,0.0,0.375,0.760497969,0.01,0.0,38156.0,0.0,0.0,-0.0,0.0,0.25,0.385742148,0.01,0.0,-2111.0,0.0,0.0,0.0,0.0,0.125,3.40576137,0.01,0.0,40692.0,0.0,0.0,-0.0,0.0,0.25,1.5783689790000002,0.01,0.0,0.3700000047683716,-1.2899999618530273,0.0,-0.02337646484375,0.00537109375,1.0157470703125,35.72999954223633,0.0,0.0,1.642974853515625,0.264617919921875,Opening,0.0,0.0,1.0,0.0,0.0,0.0,0.0,0.0,
5.429084000000002,0.0,0.0,41151.0,0.0,0.0,0.0,0.0,0.375,0.759277266,0.01,0.0,38156.0,0.0,0.0,-0.0,0.0,0.25,0.380859336,0.01,0.0,-2111.0,0.0,0.0,0.0,0.0,0.125,3.406982073,0.01,0.0,40692.0,0.125,0.0,-0.0,0.0,0.25,1.5832517910000001,0.01,0.0,0.3700000047683716,-1.2999999523162842,-0.009999999776482582,-0.02734375,0.01934814453125,1.01470947265625,35.72999954223633,0.0,-4.0,1.642974853515625,0.264617919921875,Opening,0.0,0.0,1.0,0.0,0.0,0.0,0.0,0.0,
5.544804000000004,0.0,0.0,41151.0,0.0,0.0,0.0,0.0,0.375,0.759277266,0.01,0.0,38156.0,0.0,0.0,-0.0,0.0,0.25,0.38208003900000004,0.01,0.0,-2111.0,0.0,0.0,0.0,0.0,0.125,3.406982073,0.01,0.0,40692.0,0.125,0.0,-0.0,0.0,0.25,1.5783689790000002,0.01,0.0,0.3499999940395355,-1.3200000524520874,0.0,0.00152587890625,0.01812744140625,1.023681640625,35.7400016784668,0.0,25.0,1.6429595947265625,0.2646026611328125,Opening,0.0,0.0,1.0,0.0,0.0,0.0,0.0,0.0,
5.653399000000005,0.0,0.0,41151.0,0.0,0.0,0.0,0.0,0.375,0.759277266,0.01,0.0,38156.0,0.0,0.0,-0.0,0.0,0.25,0.385742148,0.01,0.0,-2111.0,0.0,0.0,0.0,0.0,0.125,3.406982073,0.01,0.0,40692.0,0.125,0.0,-0.0,0.0,0.25,1.5771482760000002,0.01,0.0,0.3799999952316284,-1.2999999523162842,0.0,0.00433349609375,-0.02081298828125,1.0101318359375,35.7400016784668,0.0,27.0,1.6431121826171875,0.2642974853515625,Opening,0.0,0.0,1.0,0.0,0.0,0.0,0.0,0.0,
5.760732000000018,0.0,0.0,41151.0,0.0,0.0,0.0,0.0,0.375,0.759277266,0.01,0.0,38156.0,0.0,0.0,-0.0,0.0,0.25,0.385742148,0.01,0.0,-2111.0,0.0,0.0,0.0,0.0,0.125,3.406982073,0.01,0.0,40692.0,0.125,0.0,-0.0,0.0,0.25,1.5771482760000002,0.01,0.0,0.3799999952316284,-1.2999999523162842,0.0,-0.0211181640625,0.0146484375,1.0277099609375,35.7400016784668,0.0,2.0,1.643218994140625,0.2639617919921875,Opening,0.0,0.0,1.0,0.0,0.0,0.0,0.0,0.0,
5.867733999999997,0.0,0.0,41151.0,0.0,0.0,0.0,0.0,0.375,0.759277266,0.01,0.0,38156.0,0.0,0.0,-0.0,0.0,0.25,0.384521445,0.01,0.0,-2111.0,0.0,0.0,0.0,0.0,0.125,3.406982073,0.01,0.0,40692.0,0.0,0.0,-0.0,0.0,0.25,1.5832517910000001,0.01,0.0,0.3799999952316284,-1.2999999523162842,-0.009999999776482582,-0.0328369140625,0.002197265625,1.019775390625,35.7400016784668,0.0,-9.0,1.643218994140625,0.26397705078125,Opening,0.0,0.0,1.0,0.0,0.0,0.0,0.0,0.0,
5.971993000000017,0.0,0.0,41151.0,0.0,0.0,0.0,0.0,0.375,0.759277266,0.01,0.0,38156.0,0.0,0.0,-0.0,0.0,0.25,0.384521445,0.01,0.0,-2111.0,0.0,0.0,0.0,0.0,0.125,3.408202776,0.01,0.0,40692.0,0.0,0.0,-0.0,0.0,0.25,1.5783689790000002,0.01,0.0,0.3700000047683716,-1.2899999618530273,-0.009999999776482582,-0.02459716796875,0.003662109375,1.01666259765625,35.7400016784668,0.0,-1.0,1.643218994140625,0.264129638671875,Opening,0.0,0.0,1.0,0.0,0.0,0.0,0.0,0.0,
6.079089000000007,0.0,0.0,41151.0,0.0,0.0,0.0,0.0,0.375,0.759277266,0.01,0.0,38156.0,0.0,0.0,-0.0,0.0,0.25,0.385742148,0.01,0.0,-2111.0,0.0,0.0,0.0,0.0,0.125,3.406982073,0.01,0.0,40692.0,0.125,0.0,-0.0,0.0,0.25,1.5771482760000002,0.01,0.0,0.3700000047683716,-1.2999999523162842,-0.009999999776482582,-0.016845703125,0.00372314453125,1.00079345703125,35.72999954223633,0.0,5.0,1.643218994140625,0.26422119140625,Opening,0.0,0.0,1.0,0.0,0.0,0.0,0.0,0.0,
6.19509600000002,0.0,0.0,41151.0,0.0,0.0,0.0,0.0,0.375,0.759277266,0.01,0.0,38156.0,0.0,0.0,-0.0,0.0,0.25,0.385742148,0.01,0.0,-2111.0,0.0,0.0,0.0,0.0,0.125,3.406982073,0.01,0.0,40692.0,0.125,0.0,-0.0,0.0,0.25,1.5783689790000002,0.01,0.0,0.3700000047683716,-1.2999999523162842,-0.009999999776482582,-0.01544189453125,0.0067138671875,0.9908447265625,35.72999954223633,0.0,7.0,1.643218994140625,0.2641448974609375,Opening,0.0,0.0,1.0,0.0,0.0,0.0,0.0,0.0,
6.