Time,ClimberA1,ClimberA2,FRpos,FRCurrent,FRspeed,FRsetpoint,FRApos,FRACurrent,FREncpos,FREncSetpoint,FREncSpeed,FLpos,FLCurrent,FLspeed,FLsetpoint,FLApos,FLACurrent,FLEncpos,FLEncSetpoint,FLEncSpeed,BRpos,BRCurrent,BRspeed,BRsetpoint,BRApos,BRACurrent,BREncpos,BREncSetpoint,BREncSpeed,BLpos,BLCurrent,BLspeed,BLsetpoint,BLApos,BLACurrent,BLEncpos,BLEncSetpoint,BLEncSpeed,navx_Pitch,navx_Roll,navx_Yaw,navx_XAcc,navx_YAcc,navx_ZAcc,navx_Temp,navx_Bar,navx_Alt,navx_XDis,navx_YDis,GearPlacerState,ShootOutputV,ShootOutputCurrent,ShootEncPos,ShootEncVelocity,ShootSpeed,ShootSetpoint,CarouselSetpoint,CarouselCurrent,
0.1957469999999994,0.0,0.0,8785.0,0.0,0.0,0.0,0.0,0.125,0.798339762,0.01,0.0,-26684.0,0.0,0.0,0.0,0.0,0.125,0.45288081300000005,0.01,0.0,732.0,0.0,0.0,0.0,0.0,0.0,3.193359048,0.01,0.0,-10959.0,0.125,0.0,0.0,0.0,0.125,1.644286941,0.01,0.0,-0.49000000953674316,-0.7900000214576721,0.0,-0.01507568359375,-0.01019287109375,1.02105712890625,36.540000915527344,0.0,0.0,2.7116241455078125,-2.834381103515625,Waiting,0.0,0.0,-1253985.0,0.0,0.0,0.0,0.0,0.0,
0.242116,0.0,0.0,8785.0,0.0,0.0,0.0,0.0,0.125,0.798339762,0.01,0.0,-26684.0,0.0,0.0,-0.0,0.0,0.125,0.45166011,0.01,0.0,732.0,0.0,0.0,0.0,0.0,0.0,3.193359048,0.01,0.0,-10959.0,0.0,0.0,-0.0,0.0,0.125,1.643066238,0.01,0.0,-0.49000000953674316,-0.7900000214576721,0.0,-0.015869140625,-0.0081787109375,1.017822265625,36.540000915527344,0.0,-1.0,2.7116241455078125,-2.834381103515625,Waiting,0.0,0.0,-1253985.0,0.0,0.0,0.0,0.0,0.0,
0.26334499999999933,0.0,0.0,8785.0,0.0,0.0,0.0,0.0,0.125,0.798339762,0.01,0.0,-26684.0,0.0,0.0,-0.0,0.0,0.125,0.45288081300000005,0.01,0.0,732.0,0.0,0.0,0.0,0.0,0.0,3.193359048,0.01,0.0,-10959.0,0.0,0.0,-0.0,0.0,0.125,1.643066238,0.01,0.0,-0.49000000953674316,-0.7900000214576721,0.0,-0.012451171875,-0.011962890625,1.0189208984375,36.540000915527344,0.0,1.0,2.7116241455078125,-2.834381103515625,Waiting,0.0,0.0,-1253985.0,0.0,0.0,0.0,0.0,0.0,
0.29096399999999994,0.0,0.0,8785.0,0.0,0.0,0.0,0.0,0.125,0.798339762,0.01,4.920590762,-26684.0,0.0,0.0,-0.0,0.0,0.0,0.45288081300000005,0.01,0.015430109999999608,732.0,0.0,0.0,0.0,0.0,0.125,3.192138345,0.01,0.04213834500000013,-10959.0,0.0,0.0,-0.0,0.0,0.25,1.644286941,0.01,0.04306623799999998,-0.49000000953674316,-0.7900000214576721,0.0,-0.01092529296875,-0.00634765625,1.0194091796875,36.540000915527344,0.0,3.0,2.7116241455078125,-2.834381103515625,Waiting,0.0,0.0,-1253985.0,0.0,0.0,0.0,0.0,0.0,
0.3222060000000001,0.0,0.0,8785.0,0.0,0.0,0.0,0.0,0.125,0.799560465,0.01,0.0,-26684.0,0.0,0.0,-0.0,0.0,0.0,0.45288081300000005,0.01,0.0,732.0,0.0,0.0,0.0,0.0,0.125,3.193359048,0.01,0.0,-10959.0,0.0,0.0,-0.0,0.0,0.25,1.644286941,0.01,0.0,-0.49000000953674316,-0.7900000214576721,0.0,-0.01593017578125,-0.00860595703125,1.0252685546875,36.540000915527344,0.0,-1.0,2.7116241455078125,-2.834381103515625,Waiting,0.0,0.0,-1253985.0,0.0,0.0,0.0,0.0,0.125,
0.3464939999999988,0.0,0.0,8785.0,0.0,0.0,0.0,0.0,0.125,0.798339762,0.01,0.0,-26684.0,0.0,0.0,-0.0,0.0,0.0,0.45166011,0.01,0.0,732.0,0.0,0.0,0.0,0.0,0.125,3.192138345,0.01,0.0,-10959.0,0.0,0.0,-0.0,0.0,0.25,1.644286941,0.01,0.0,-0.49000000953674316,-0.7900000214576721,0.0,-0.0159912109375,-0.01025390625,1.017822265625,36.540000915527344,0.0,-1.0,2.7116241455078125,-2.834381103515625,Waiting,0.0,0.0,-1253985.0,0.0,0.0,0.0,0.0,0.125,
0.3675380000000005,0.0,0.0,8785.0,0.0,0.0,0.0,0.0,0.125,0.799560465,0.01,0.0,-26684.0,0.0,0.0,-0.0,0.0,0.0,0.45288081300000005,0.01,0.0,732.0,0.0,0.0,0.0,0.0,0.125,3.193359048,0.01,0.0,-10959.0,0.0,0.0,-0.0,0.0,0.25,1.643066238,0.01,0.0,-0.49000000953674316,-0.800000011920929,0.0,-0.0155029296875,-0.00653076171875,1.02142333984375,36.540000915527344,0.0,-1.0,2.7116241455078125,-2.834381103515625,Waiting,0.0,0.0,-1253985.0,0.0,0.0,0.0,0.0,0.0,
0.4124920000000002,0.0,0.0,8785.0,0.0,0.0,0.0,0.0,0.125,0.798339762,0.01,0.0,-26684.0,0.0,0.0,-0.0,0.0,0.0,0.45288081300000005,0.01,0.0,732.0,0.0,0.0,0.0,0.0,0.125,3.193359048,0.01,0.0,-10959.0,0.0,0.0,-0.0,0.0,0.25,1.643066238,0.01,0.0,-0.49000000953674316,-0.800000011920929,0.0,-0.0107421875,-0.0084228515625,1.02337646484375,36.540000915527344,0.0,3.0,2.7116241455078125,-2.834381103515625,Waiting,0.0,0.0,-1253985.0,0.0,0.0,0.0,0.0,0.0,
0.4433169999999991,0.0,0.0,8785.0,0.0,0.0,0.0,0.0,0.125,0.798339762,0.01,0.0,-26684.0,0.0,0.0,-0.0,0.0,0.0,0.45166011,0.01,0.0,732.0,0.0,0.0,0.0,0.0,0.125,3.193359048,0.01,0.0,-10959.0,0.125,0.0,-0.0,0.0,0.25,1.644286941,0.01,0.0,-0.49000000953674316,-0.800000011920929,0.0,-0.01422119140625,-0.0072021484375,1.02154541015625,36.540000915527344,0.0,0.0,2.7116241455078125,-2.834381103515625,Waiting,0.0,0.0,-1253985.0,0.0,0.0,0.0,0.0,0.0,
0.4654519999999993,0.0,0.0,8785.0,0.0,0.0,0.0,0.0,0.125,0.799560465,0.01,0.0,-26684.0,0.0,0.0,-0.0,0.0,0.0,0.45288081300000005,0.01,0.0,732.0,0.0,0.0,0.0,0.0,0.125,3.193359048,0.01,0.0,-10959.0,0.0,0.0,-0.0,0.0,0.25,1.644286941,0.01,0.0,-0.49000000953674316,-0.800000011920929,0.0,-0.014404296875,-0.00921630859375,1.0218505859375,36.540000915527344,0.0,0.0,2.7116241455078125,-2.834381103515625,Waiting,0.0,0.0,-1253985.0,0.0,0.0,0.0,0.0,0.0,
0.48875,0.0,0.0,8785.0,0.0,0.0,0.0,0.0,0.125,0.798339762,0.01,0.0,-26684.0,0.0,0.0,-0.0,0.0,0.0,0.45288081300000005,0.01,0.0,732.0,0.0,0.0,0.0,0.0,0.125,3.193359048,0.01,0.0,-10959.0,0.0,0.0,-0.0,0.0,0.25,1.644286941,0.01,0.0,-0.49000000953674316,-0.7900000214576721,0.0,-0.01409912109375,-0.0086669921875,1.018798828125,36.540000915527344,0.0,0.0,2.7116241455078125,-2.834381103515625,Waiting,0.0,0.0,-1253985.0,0.0,0.0,0.0,0.0,0.0,
0.5097349999999987,0.0,0.0,8785.0,0.0,0.0,0.0,0.0,0.125,0.798339762,0.01,0.0,-26684.0,0.0,0.0,-0.0,0.0,0.0,0.45288081300000005,0.01,0.0,732.0,0.0,0.0,0.0,0.0,0.125,3.193359048,0.01,0.0,-10959.0,0.0,0.0,-0.0,0.0,0.25,1.641845535,0.01,0.0,-0.49000000953674316,-0.7900000214576721,0.0,-0.01190185546875,-0.00860595703125,1.023681640625,36.540000915527344,0.0,2.0,2.7116241455078125,-2.834381103515625,Waiting,0.0,0.0,-1253985.0,0.0,0.0,0.0,0.0,0.0,
0.534905999999999,0.0,0.0,8785.0,0.0,0.0,0.0,0.0,0.125,0.799560465,0.01,0.0,-26684.0,0.0,0.0,-0.0,0.0,0.0,0.45288081300000005,0.01,0.0,732.0,0.0,0.0,0.0,0.0,0.125,3.192138345,0.01,0.0,-10959.0,0.0,0.0,-0.0,0.0,0.25,1.643066238,0.01,0.0,-0.49000000953674316,-0.7900000214576721,0.0,-0.0101318359375,-0.0068359375,1.02191162109375,36.540000915527344,0.0,4.0,2.7116241455078125,-2.834381103515625,Waiting,0.0,0.0,-1253985.0,0.0,0.0,0.0,0.0,0.0,
0.5596149999999998,0.0,0.0,8785.0,0.0,0.0,0.0,0.0,0.125,0.798339762,0.01,0.0,-26684.0,0.0,0.0,-0.0,0.0,0.0,0.45166011,0.01,0.0,732.0,0.0,0.0,0.0,0.0,0.125,3.193359048,0.01,0.0,-10959.0,0.0,0.0,-0.0,0.0,0.25,1.643066238,0.01,0.0,-0.49000000953674316,-0.7900000214576721,0.0,-0.0179443359375,-0.01043701171875,1.02105712890625,36.540000915527344,0.0,-3.0,2.7116241455078125,-2.834381103515625,Waiting,0.0,0.0,-1253985.0,0.0,0.0,0.0,0.0,0.0,
0.5871489999999995,0.0,0.0,8785.0,0.0,0.0,0.0,0.0,0.125,0.798339762,0.01,0.0,-26684.0,0.0,0.0,-0.0,0.0,0.0,0.45288081300000005,0.01,0.0,732.0,0.0,0.0,0.0,0.0,0.125,3.193359048,0.01,0.0012207029999999897,-10959.0,0.0,0.0,-0.0,0.0,0.25,1.643066238,0.01,0.0,-0.49000000953674316,-0.7900000214576721,0.0,-0.0137939453125,-0.0062255859375,1.01678466796875,36.540000915527344,0.0,0.0,2.7116241455078125,-2.834381103515625,Waiting,0.0,0.0,-1253985.0,0.0,0.0,0.0,0.0,0.0,
0.6097579999999998,0.0,0.0,8785.0,0.0,0.0,0.0,0.0,0.125,0.798339762,0.01,0.0,-26684.0,0.0,0.0,-0.0,0.0,0.0,0.45166011,0.01,0.0,732.0,0.0,0.0,0.0,0.0,0.125,3.194579751,0.01,0.0012207029999999897,-10959.0,0.0,0.0,-0.0,0.0,0.25,1.643066238,0.01,0.0,-0.49000000953674316,-0.7900000214576721,0.0,-0.01397705078125,-0.00714111328125,1.01654052734375,36.540000915527344,0.0,0.0,2.7116241455078125,-2.834381103515625,Waiting,0.0,0.0,-1253985.0,0.0,0.0,0.0,0.0,0.0,
0.6328310000000001,0.0,0.0,8785.0,0.0,0.0,0.0,0.0,0.125,0.798339762,0.01,0.0,-26684.0,0.0,0.0,-0.0,0.0,0.0,0.45288081300000005,0.01,0.0,732.0,0.0,0.0,0.0,0.0,0.125,3.193359048,0.01,-0.0012207029999999897,-10959.0,0.0,0.0,-0.0,0.0,0.25,1.643066238,0.01,0.0,-0.49000000953674316,-0.7900000214576721,0.0,-0.01318359375,-0.00787353515625,1.01971435546875,36.540000915527344,0.0,0.0,2.7116241455078125,-2.834381103515625,Waiting,0.0,0.0,-1253985.0,0.0,0.0,0.0,0.0,0.0,
0.6590020000000004,0.0,0.0,8785.0,0.0,0.0,0.0,0.0,0.125,0.798339762,0.01,0.0,-26684.0,0.0,0.0,-0.0,0.0,0.0,0.45288081300000005,0.01,0.0,732.0,0.0,0.0,0.0,0.0,0.125,3.194579751,0.01,-0.0012207029999999897,-10959.0,0.0,0.0,-0.0,0.0,0.25,1.643066238,0.01,0.0,-0.49000000953674316,-0.7900000214576721,0.0,-0.01318359375,-0.01165771484375,1.01324462890625,36.540000915527344,0.0,0.0,2.7116241455078125,-2.834381103515625,Waiting,0.0,0.0,-1253985.0,0.0,0.0,0.0,0.0,0.0,
0.6867780000000002,0.0,0.0,8785.0,0.0,0.0,0.0,0.0,0.125,0.799560465,0.01,0.0,-26684.0,0.0,0.0,-0.0,0.0,0.0,0.45288081300000005,0.01,0.0,732.0,0.0,0.0,0.0,0.0,0.125,3.193359048,0.01,0.0012207029999999897,-10959.0,0.0,0.0,-0.0,0.0,0.25,1.644286941,0.01,0.0,-0.47999998927116394,-0.7900000214576721,0.0,-0.01312255859375,-0.00872802734375,1.02178955078125,36.540000915527344,0.0,1.0,2.7116241455078125,-2.834381103515625,Waiting,0.0,0.0,-1253985.0,0.0,0.0,0.0,0.0,0.0,
0.7089589999999989,0.0,0.0,8785.0,0.0,0.0,0.0,0.0,0.125,0.799560465,0.01,0.0,-26684.0,0.0,0.0,-0.0,0.0,0.0,0.45288081300000005,0.01,0.0,732.0,0.0,0.0,0.0,0.0,0.125,3.194579751,0.01,0.0012207029999999897,-10959.0,0.0,0.0,-0.0,0.0,0.25,1.644286941,0.01,0.0,-0.49000000953674316,-0.7900000214576721,0.0,-0.01361083984375,-0.0089111328125,1.01898193359375,36.540000915527344,0.0,0.0,2.7116241455078125,-2.834381103515625,Waiting,0.0,0.0,-1253985.0,0.0,0.0,0.0,0.0,0.0,
0.7329859999999989,0.0,0.0,8785.0,0.0,0.0,0.0,0.0,0.125,0.799560465,0.01,0.0,-26684.0,0.0,0.0,-0.0,0.0,0.0,0.45288081300000005,0.01,0.0,732.0,0.0,0.0,0.0,0.0,0.125,3.193359048,0.01,-0.0012207029999999897,-10959.0,0.0,0.0,-0.0,0.0,0.25,1.644286941,0.01,0.0,-0.47999998927116394,-0.7900000214576721,0.0,-0.014404296875,-0.00732421875,1.01910400390625,36.540000915527344,0.0,0.0,2.7116241455078125,-2.834381103515625,Waiting,0.0,0.0,-1253985.0,0.0,0.0,0.0,0.0,0.0,
0.7613809999999994,0.0,0.0,8785.0,0.0,0.0,0.0,0.0,0.125,0.8032225740000001,0.01,0.0,-26684.0,0.0,0.0,-0.0,0.0,0.0,0.45288081300000005,0.01,0.0,732.0,0.0,0.0,0.0,0.0,0.125,3.193359048,0.01,-0.0012207029999999897,-10959.0,0.0,0.0,-0.0,0.0,0.25,1.644286941,0.01,0.0,-0.47999998927116394,-0.7799999713897705,0.0,-0.013671875,-0.00726318359375,1.01947021484375,36.540000915527344,0.0,0.0,2.7116241455078125,-2.834381103515625,Waiting,0.0,0.0,-1253985.0,0.0,0.0,0.0,0.0,0.0,
0.7893809999999994,0.0,0.0,8785.0,0.0,0.0,0.0,0.0,0.125,0.798339762,0.01,0.0,-26684.0,0.0,0.0,-0.0,0.0,0.0,0.45288081300000005,0.01,0.0,732.0,0.0,0.0,0.0,0.0,0.125,3.193359048,0.01,0.0,-10959.0,0.0,0.0,-0.0,0.0,0.25,1.643066238,0.01,0.0,-0.47999998927116394,-0.7799999713897705,0.0,-0.01641845703125,-0.010009765625,1.01995849609375,36.540000915527344,0.0,-2.0,2.7116241455078125,-2.834381103515625,Waiting,0.0,0.0,-1253985.0,0.0,0.0,0.0,0.0,0.0,
0.8116039999999993,0.0,0.0,8785.0,0.0,0.0,0.0,0.0,0.125,0.799560465,0.01,0.0,-26684.0,0.0,0.0,-0.0,0.0,0.0,0.45288081300000005,0.01,0.0,732.0,0.0,0.0,0.0,0.0,0.125,3.193359048,0.01,0.0,-10959.0,0.0,0.0,-0.0,0.0,0.25,1.643066238,0.01,0.0,-0.47999998927116394,-0.7799999713897705,0.0,-0.01300048828125,-0.00799560546875,1.02215576171875,36.540000915527344,0.0,1.0,2.7116241455078125,-2.834381103515625,Waiting,0.0,0.0,-1253985.0,0.0,0.0,0.0,0.0,0.125,
0.8405209999999989,0.0,0.0,8785.0,0.0,0.0,0.0,0.0,0.125,0.797119059,0.01,0.0,-26684.0,0.0,0.0,-0.0,0.0,0.0,0.45166011,0.01,0.0,732.0,0.0,0.0,0.0,0.0,0.125,3.193359048,0.01,0.0,-10959.0,0.0,0.0,-0.0,0.0,0.25,1.644286941,0.01,0.0,-0.47999998927116394,-0.7799999713897705,0.0,-0.0130615234375,-0.00958251953125,1.0247802734375,36.540000915527344,0.0,1.0,2.7116241455078125,-2.834381103515625,Waiting,0.0,0.0,-1253985.0,0.0,0.0,0.0,0.0,0.125,
0.8630739999999987,0.0,0.0,8785.0,0.0,0.0,0.0,0.0,0.125,0.798339762,0.01,0.0,-26684.0,0.0,0.0,-0.0,0.0,0.0,0.45288081300000005,0.01,0.0,732.0,0.0,0.0,0.0,0.0,0.125,3.193359048,0.01,0.0,-10959.0,0.0,0.0,-0.0,0.0,0.25,1.643066238,0.01,0.0,-0.47999998927116394,-0.7799999713897705,0.0,-0.01177978515625,-0.01019287109375,1.01885986328125,36.540000915527344,0.0,2.0,2.7116241455078125,-2.834381103515625,Waiting,0.0,0.0,-1253985.0,0.0,0.0,0.0,0.0,0.0,
0.8890119999999988,0.0,0.0,8785.0,0.0,0.0,0.0,0.0,0.125,0.798339762,0.01,0.0,-26684.0,0.0,0.0,-0.0,0.0,0.0,0.45288081300000005,0.01,0.0,732.0,0.0,0.0,0.0,0.0,0.125,3.193359048,0.01,0.0,-10959.0,0.125,0.0,-0.0,0.0,0.25,1.644286941,0.01,0.0,-0.49000000953674316,-0.7799999713897705,0.0,-0.01190185546875,-0.0111083984375,1.0203857421875,36.540000915527344,0.0,2.0,2.7116241455078125,-2.834381103515625,Waiting,0.0,0.0,-1253985.0,0.0,0.0,0.0,0.0,0.0,
0.9096909999999989,0.0,0.0,8785.0,0.0,0.0,0.0,0.0,0.125,0.798339762,0.01,0.0,-26684.0,0.0,0.0,-0.0,0.0,0.0,0.45288081300000005,0.01,0.0,732.0,0.0,0.0,0.0,0.0,0.125,3.193359048,0.01,0.0,-10959.0,0.0,0.0,-0.0,0.0,0.25,1.643066238,0.01,0.0,-0.49000000953674316,-0.7799999713897705,0.0,-0.0140380859375,-0.00958251953125,1.0206298828125,36.540000915527344,0.0,0.0,2.7116241455078125,-2.834381103515625,Waiting,0.0,0.0,-1253985.0,0.0,0.0,0.0,0.0,0.0,
0.9309449999999997,0.0,0.0,8785.0,0.0,0.0,0.0,0.0,0.125,0.798339762,0.01,0.0,-26684.0,0.0,0.0,-0.0,0.0,0.0,0.45288081300000005,0.01,0.0,732.0,0.0,0.0,0.0,0.0,0.125,3.193359048,0.01,0.0,-10959.0,0.0,0.0,-0.0,0.0,0.25,1.644286941,0.01,0.0,-0.47999998927116394,-0.7799999713897705,0.0,-0.01458740234375,-0.009765625,1.0196533203125,36.540000915527344,0.0,0.0,2.7116241455078125,-2.834381103515625,Waiting,0.0,0.0,-1253985.0,0.0,0.0,0.0,0.0,0.125,
0.9493159999999989,0.0,0.0,8785.0,0.0,0.0,0.0,0.0,0.125,0.798339762,0.01,0.0,-26684.0,0.0,0.0,-0.0,0.0,0.0,0.45288081300000005,0.01,0.0,732.0,0.0,0.0,0.0,0.0,0.125,3.193359048,0.01,0.0,-10959.0,0.0,0.0,-0.0,0.0,0.25,1.643066238,0.01,0.0,-0.47999998927116394,-0.7799999713897705,0.0,-0.0147705078125,-0.0081787109375,1.0179443359375,36.540000915527344,0.0,0.0,2.7116241455078125,-2.834381103515625,Waiting,0.0,0.0,-1253985.0,0.0,0.0,0.0,0.0,0.0,
0.9668909999999996,0.0,0.0,8785.0,0.0,0.0,0.0,0.0,0.125,0.798339762,0.01,0.0,-26684.0,0.0,0.0,-0.0,0.0,0.0,0.45288081300000005,0.01,0.0,732.0,0.0,0.0,0.0,0.0,0.125,3.194579751,0.01,0.0,-10959.0,0.0,0.0,-0.0,0.0,0.25,1.643066238,0.01,0.0,-0.49000000953674316,-0.7799999713897705,0.0,-0.01373291015625,-0.00799560546875,1.0216064453125,36.540000915527344,0.0,0.0,2.7116241455078125,-2.834381103515625,Waiting,0.0,0.0,-1253985.0,0.0,0.0,0.0,0.0,0.0,
0.9891849999999995,0.0,0.0,8785.0,0.0,0.0,0.0,0.0,0.125,0.799560465,0.01,0.0,-26684.0,0.0,0.0,-0.0,0.0,0.0,0.45288081300000005,0.01,0.0,732.0,0.0,0.0,0.0,0.0,0.125,3.193359048,0.01,0.0012207029999999897,-10959.0,0.0,0.0,-0.0,0.0,0.25,1.644286941,0.01,0.0,-0.47999998927116394,-0.7799999713897705,0.0,-0.0155029296875,-0.00946044921875,1.02215576171875,36.540000915527344,0.0,-1.0,2.7116241455078125,-2.834381103515625,Waiting,0.0,0.0,-1253985.0,0.0,0.0,0.0,0.0,0.0,
1.0075499999999993,0.0,0.0,8785.0,0.0,0.0,0.0,0.0,0.125,0.798339762,0.01,0.0,-26684.0,0.0,0.0,-0.0,0.0,0.0,0.45288081300000005,0.01,0.0,732.0,0.0,0.0,0.0,0.0,0.125,3.192138345,0.01,0.0012207029999999897,-10959.0,0.0,0.0,-0.0,0.0,0.25,1.643066238,0.01,0.0,-0.47999998927116394,-0.7799999713897705,0.0,-0.01104736328125,-0.0078125,1.01947021484375,36.540000915527344,0.0,2.0,2.7116241455078125,-2.834381103515625,Waiting,0.0,0.0,-1253985.0,0.0,0.0,0.0,0.0,0.0,
1.026,0.0,0.0,8785.0,0.0,0.0,0.0,0.0,0.125,0.799560465,0.01,0.0,-26684.0,0.0,0.0,-0.0,0.0,0.0,0.45288081300000005,0.01,0.0,732.0,0.0,0.0,0.0,0.0,0.125,3.193359048,0.01,-0.0012207029999999897,-10959.0,0.0,0.0,-0.0,0.0,0.25,1.643066238,0.01,0.0,-0.47999998927116394,-0.7799999713897705,0.0,-0.015625,-0.0087890625,1.02154541015625,36.540000915527344,0.0,-1.0,2.7116241455078125,-2.834381103515625,Waiting,0.0,0.0,-1253985.0,0.0,0.0,0.0,0.0,0.125,
1.0470460000000004,0.0,0.0,8785.0,0.0,0.0,0.0,0.0,0.125,0.799560465,0.01,0.0,-26684.0,0.0,0.0,-0.0,0.0,0.0,0.45288081300000005,0.01,0.0,732.0,0.0,0.0,0.0,0.0,0.125,3.193359048,0.01,-0.0012207029999999897,-10959.0,0.0,0.0,-0.0,0.0,0.25,1.644286941,0.01,0.0,-0.47999998927116394,-0.7900000214576721,0.0,-0.0157470703125,-0.0087890625,1.022216796875,36.540000915527344,0.0,-1.0,2.7116241455078125,-2.834381103515625,Waiting,0.0,0.0,-1253985.0,0.0,0.0,0.0,0.0,0.125,
1.0653979999999992,0.0,0.0,8785.0,0.0,0.0,0.0,0.0,0.125,0.798339762,0.01,0.0,-26684.0,0.0,0.0,-0.0,0.0,0.0,0.45288081300000005,0.01,0.0,732.0,0.0,0.0,0.0,0.0,0.125,3.193359048,0.01,-0.0012207029999999897,-10959.0,0.0,0.0,-0.0,0.0,0.25,1.643066238,0.01,0.0,-0.47999998927116394,-0.7900000214576721,0.0,-0.0142822265625,-0.0125732421875,1.018798828125,36.54999923706055,0.0,0.0,2.7116241455078125,-2.834381103515625,Waiting,0.0,0.0,-1253985.0,0.0,0.0,0.0,0.0,0.125,
1.0871309999999994,0.0,0.0,8785.0,0.0,0.0,0.0,0.0,0.125,0.799560465,0.01,0.0,-26684.0,0.0,0.0,-0.0,0.0,0.0,0.45166011,0.01,0.0,732.0,0.0,0.0,0.0,0.0,0.125,3.193359048,0.01,0.0,-10959.0,0.125,0.0,-0.0,0.0,0.25,1.644286941,0.01,0.0,-0.47999998927116394,-0.7900000214576721,0.0,-0.01507568359375,-0.009765625,1.0233154296875,36.54999923706055,0.0,0.0,2.7116241455078125,-2.834381103515625,Waiting,0.0,0.125,-1253985.0,0.0,0.0,0.0,0.0,0.0,
1.106182999999999,0.0,0.0,8785.0,0.0,0.0,0.0,0.0,0.125,0.798339762,0.01,0.0,-26684.0,0.0,0.0,-0.0,0.0,0.0,0.45288081300000005,0.01,0.0,732.0,0.0,0.0,0.0,0.0,0.125,3.193359048,0.01,0.0,-10959.0,0.125,0.0,-0.0,0.0,0.25,1.644286941,0.01,0.0,-0.47999998927116394,-0.7900000214576721,0.0,-0.0123291015625,-0.00799560546875,1.0185546875,36.54999923706055,0.0,1.0,2.7116241455078125,-2.834381103515625,Waiting,0.0,0.0,-1253985.0,0.0,0.0,0.0,0.0,0.0,
1.1249040000000003,0.0,0.0,8785.0,0.0,0.0,0.0,0.0,0.125,0.799560465,0.01,0.0,-26684.0,0.0,0.0,-0.0,0.0,0.0,0.45288081300000005,0.01,0.0,732.0,0.0,0.0,0.0,0.0,0.125,3.192138345,0.01,0.0012207029999999897,-10959.0,0.125,0.0,-0.0,0.0,0.25,1.644286941,0.01,0.0,-0.47999998927116394,-0.7900000214576721,0.0,-0.01263427734375,-0.00946044921875,1.02032470703125,36.54999923706055,0.0,1.0,2.7116241455078125,-2.834381103515625,Waiting,0.0,0.0,-1253985.0,0.0,0.0,0.0,0.0,0.0,
1.1465929999999989,0.0,0.0,8785.0,0.0,0.0,0.0,0.0,0.125,0.8032225740000001,0.01,0.0,-26684.0,0.0,0.0,-0.0,0.0,0.0,0.45288081300000005,0.01,0.0,732.0,0.0,0.0,0.0,0.0,0.125,3.193359048,0.01,0.0012207029999999897,-10959.0,0.125,0.0,-0.0,0.0,0.25,1.643066238,0.01,0.0,-0.49000000953674316,-0.7900000214576721,0.0,-0.01434326171875,-0.0087890625,1.0172119140625,36.54999923706055,0.0,0.0,2.7116241455078125,-2.834381103515625,Waiting,0.0,0.0,-1253985.0,0.0,0.0,0.0,0.0,0.0,
1.1654229999999988,0.0,0.0,8785.0,0.0,0.0,0.0,0.0,0.125,0.799560465,0.01,0.0,-26684.0,0.0,0.0,-0.0,0.0,0.0,0.45166011,0.01,0.0,732.0,0.0,0.0,0.0,0.0,0.125,3.193359048,0.01,0.0012207029999999897,-10959.0,0.125,0.0,-0.0,0.0,0.25,1.644286941,0.01,0.0,-0.49000000953674316,-0.7900000214576721,0.0,-0.01416015625,-0.00762939453125,1.02252197265625,36.54999923706055,0.0,0.0,2.7116241455078125,-2.834381103515625,Waiting,0.0,0.0,-1253985.0,0.0,0.0,0.0,0.0,0.0,
1.1859419999999992,0.0,0.0,8785.0,0.0,0.0,0.0,0.0,0.125,0.799560465,0.01,0.0,-26684.0,0.0,0.0,-0.0,0.0,0.0,0.45288081300000005,0.01,0.0,732.0,0.0,0.0,0.0,0.0,0.125,3.192138345,0.01,-0.0012207029999999897,-10959.0,0.0,0.0,-0.0,0.0,0.25,1.644286941,0.01,0.0,-0.49000000953674316,-0.7900000214576721,0.0,-0.01287841796875,-0.00872802734375,1.0224609375,36.54999923706055,0.0,1.0,2.7116241455078125,-2.834381103515625,Waiting,0.0,0.0,-1253985.0,0.0,0.0,0.0,0.0,0.0,
1.2051659999999993,0.0,0.0,8785.0,0.0,0.0,0.0,0.0,0.125,0.798339762,0.01,0.0,-26684.0,0.0,0.0,-0.0,0.0,0.0,0.45288081300000005,0.01,0.0,732.0,0.0,0.0,0.0,0.0,0.125,3.193359048,0.01,-0.0012207029999999897,-10959.0,0.0,0.0,-0.0,0.0,0.25,1.644286941,0.01,0.0,-0.49000000953674316,-0.7900000214576721,0.0,-0.0155029296875,-0.00946044921875,1.01922607421875,36.54999923706055,0.0,-1.0,2.7116241455078125,-2.834381103515625,Waiting,0.0,0.0,-1253985.0,0.0,0.0,0.0,0.0,0.0,
1.2234759999999987,0.0,0.0,8785.0,0.0,0.0,0.0,0.0,0.125,0.799560465,0.01,0.0,-26684.0,0.0,0.0,-0.0,0.0,0.0,0.45166011,0.01,0.0,732.0,0.0,0.0,0.0,0.0,0.125,3.193359048,0.01,-0.0012207029999999897,-10959.0,0.0,0.0,-0.0,0.0,0.25,1.643066238,0.01,0.0,-0.49000000953674316,-0.7900000214576721,0.0,-0.01641845703125,-0.00762939453125,1.016357421875,36.54999923706055,0.0,-2.0,2.7116241455078125,-2.834381103515625,Waiting,0.0,0.0,-1253985.0,0.0,0.0,0.0,0.0,0.0,
1.246566999999999,0.0,0.0,8785.0,0.0,0.0,0.0,0.0,0.125,0.798339762,0.01,0.0,-26684.0,0.0,0.0,-0.0,0.0,0.0,0.45288081300000005,0.01,0.0,732.0,0.0,0.0,0.0,0.0,0.125,3.193359048,0.01,0.0,-10959.0,0.125,0.0,-0.0,0.0,0.25,1.644286941,0.01,0.0,-0.49000000953674316,-0.7900000214576721,0.0,-0.012451171875,-0.0059814453125,1.01690673828125,36.54999923706055,0.0,1.0,2.7116241455078125,-2.834381103515625,Waiting,0.0,0.0,-1253985.0,0.0,0.0,0.0,0.0,0.0,
1.2664480000000002,0.0,0.0,8785.0,0.0,0.0,0.0,0.0,0.125,0.798339762,0.01,0.0,-26684.0,0.0,0.0,-0.0,0.0,0.0,0.45288081300000005,0.01,0.0,732.0,0.0,0.0,0.0,0.0,0.125,3.193359048,0.01,0.0,-10959.0,0.0,0.0,-0.0,0.0,0.25,1.644286941,0.01,0.0,-0.49000000953674316,-0.7900000214576721,0.0,-0.01318359375,-0.00897216796875,1.0172119140625,36.54999923706055,0.0,0.0,2.7116241455078125,-2.834381103515625,Waiting,0.0,0.0,-1253985.0,0.0,0.0,0.0,0.0,0.0,
1.2886710000000003,0.0,0.0,8785.0,0.0,0.0,0.0,0.0,0.125,0.798339762,0.01,0.0,-26684.0,0.0,0.0,-0.0,0.0,0.0,0.45288081300000005,0.01,0.0,732.0,0.0,0.0,0.0,0.0,0.125,3.192138345,0.01,0.0,-10959.0,0.0,0.0,-0.0,0.0,0.25,1.644286941,0.01,0.0,-0.49000000953674316,-0.7900000214576721,0.0,-0.01776123046875,-0.0106201171875,1.02105712890625,36.54999923706055,0.0,-3.0,2.7116241455078125,-2.834381103515625,Waiting,0.0,0.0,-1253985.0,0.0,0.0,0.0,0.0,0.0,
1.3055820000000002,0.0,0.0,8785.0,0.0,0.0,0.0,0.0,0.125,0.799560465,0.01,0.0,-26684.0,0.0,0.0,-0.0,0.0,0.0,0.45288081300000005,0.01,0.0,732.0,0.0,0.0,0.0,0.0,0.125,3.194579751,0.01,0.0,-10959.0,0.0,0.0,-0.0,0.0,0.25,1.643066238,0.01,0.0,-0.49000000953674316,-0.7900000214576721,0.0,-0.01153564453125,-0.01043701171875,1.01666259765625,36.54999923706055,0.0,2.0,2.7116241455078125,-2.834381103515625,Waiting,0.0,0.0,-1253985.0,0.0,0.0,0.0,0.0,0.0,
1.3237849999999998,0.0,0.0,8785.0,0.0,0.0,0.0,0.0,0.125,0.798339762,0.01,0.0,-26684.0,0.0,0.0,-0.0,0.0,0.0,0.45288081300000005,0.01,0.0,732.0,0.0,0.0,0.0,0.0,0.125,3.193359048,0.01,0.0,-10959.0,0.0,0.0,-0.0,0.0,0.25,1.643066238,0.01,0.0,-0.49000000953674316,-0.7900000214576721,0.0,-0.01348876953125,-0.00732421875,1.0235595703125,36.54999923706055,0.0,0.0,2.7116241455078125,-2.834381103515625,Waiting,0.0,0.0,-1253985.0,0.0,0.0,0.0,0.0,0.0,
1.3449169999999995,0.0,0.0,8785.0,0.0,0.0,0.0,0.0,0.125,0.798339762,0.01,0.0,-26684.0,0.0,0.0,-0.0,0.0,0.0,0.45288081300000005,0.01,0.0,732.0,0.0,0.0,0.0,0.0,0.125,3.194579751,0.01,0.0,-10959.0,0.0,0.0,-0.0,0.0,0.25,1.643066238,0.01,0.0,-0.49000000953674316,-0.7900000214576721,0.0,-0.01483154296875,-0.0101318359375,1.01507568359375,36.54999923706055,0.0,0.0,2.7116241455078125,-2.834381103515625,Waiting,0.0,0.0,-1253985.0,0.0,0.0,0.0,0.0,0.0,
1.3643469999999998,0.0,0.0,8785.0,0.0,0.0,0.0,0.0,0.125,0.798339762,0.01,0.0,-26684.0,0.0,0.0,-0.0,0.0,0.0,0.45288081300000005,0.01,0.0,732.0,0.0,0.0,0.0,0.0,0.125,3.193359048,0.01,0.0,-10959.0,0.0,0.0,-0.0,0.0,0.25,1.644286941,0.01,0.0,-0.49000000953674316,-0.7900000214576721,0.0,-0.0166015625,-0.00604248046875,1.02032470703125,36.54999923706055,0.0,-2.0,2.7116241455078125,-2.834381103515625,Waiting,0.0,0.0,-1253985.0,0.0,0.0,0.0,0.0,0.0,
1.3879319999999988,0.0,0.0,8785.0,0.0,0.0,0.0,0.0,0.125,0.798339762,0.01,0.0,-26684.0,0.0,0.0,-0.0,0.0,0.0,0.45288081300000005,0.01,0.0,732.0,0.0,0.0,0.0,0.0,0.125,3.193359048,0.01,0.0,-10959.0,0.0,0.0,-0.0,0.0,0.25,1.643066238,0.01,0.0,-0.49000000953674316,-0.7900000214576721,0.0,-0.01513671875,-0.0103759765625,1.015625,36.54999923706055,0.0,-1.0,2.7116241455078125,-2.834381103515625,Waiting,0.0,0.0,-1253985.0,0.0,0.0,0.0,0.0,0.0,
1.4048479999999999,0.0,0.0,8785.0,0.0,0.0,0.0,0.0,0.125,0.798339762,0.01,0.0,-26684.0,0.0,0.0,-0.0,0.0,0.0,0.45288081300000005,0.01,0.0,732.0,0.0,0.0,0.0,0.0,0.125,3.193359048,0.01,0.0,-10959.0,0.0,0.0,-0.0,0.0,0.25,1.644286941,0.01,0.0,-0.49000000953674316,-0.7900000214576721,0.0,-0.01324462890625,-0.00787353515625,1.01580810546875,36.54999923706055,0.0,0.0,2.7116241455078125,-2.834381103515625,Waiting,0.0,0.125,-1253985.0,0.0,0.0,0.0,0.0,0.0,
1.4310739999999986,0.0,0.0,8785.0,0.0,0.0,0.0,0.0,0.125,0.798339762,0.01,0.0,-26684.0,0.0,0.0,-0.0,0.0,0.0,0.45288081300000005,0.01,0.0,732.0,0.0,0.0,0.0,0.0,0.125,3.194579751,0.01,0.0012207029999999897,-10959.0,0.0,0.0,-0.0,0.0,0.25,1.644286941,0.01,0.0,-0.49000000953674316,-0.7900000214576721,0.0,-0.015625,-0.00885009765625,1.01788330078125,36.54999923706055,0.0,-1.0,2.7116241455078125,-2.834381103515625,Waiting,0.0,0.0,-1253985.0,0.0,0.0,0.0,0.0,0.0,
1.4508310000000002,0.0,0.0,8785.0,0.0,0.0,0.0,0.0,0.125,0.798339762,0.01,0.0,-26684.0,0.0,0.0,-0.0,0.0,0.0,0.45166011,0.01,0.0,732.0,0.0,0.0,0.0,0.0,0.125,3.194579751,0.01,0.0012207029999999897,-10959.0,0.0,0.0,-0.0,0.0,0.25,1.643066238,0.01,0.0,-0.49000000953674316,-0.7900000214576721,0.0,-0.01495361328125,-0.00799560546875,1.0137939453125,36.54999923706055,0.0,0.0,2.7116241455078125,-2.834381103515625,Waiting,0.0,0.0,-1253985.0,0.0,0.0,0.0,0.0,0.0,
1.469744999999999,0.0,0.0,8785.0,0.0,0.0,0.0,0.0,0.125,0.799560465,0.01,0.0,-26684.0,0.0,0.0,-0.0,0.0,0.0,0.45166011,0.01,0.0,732.0,0.0,0.0,0.0,0.0,0.125,3.193359048,0.01,0.0012207029999999897,-10959.0,0.0,0.0,-0.0,0.0,0.25,1.643066238,0.01,0.0,-0.49000000953674316,-0.7900000214576721,0.0,-0.0157470703125,-0.0054931640625,1.02197265625,36.54999923706055,0.0,-1.0,2.7116241455078125,-2.834381103515625,Waiting,0.0,0.0,-1253985.0,0.0,0.0,0.0,0.0,0.0,
1.4904969999999993,0.0,0.0,8785.0,0.0,0.0,0.0,0.0,0.125,0.798339762,0.01,0.0,-26684.0,0.0,0.0,-0.0,0.0,0.0,0.45288081300000005,0.01,0.0,732.0,0.0,0.0,0.0,0.0,0.125,3.193359048,0.01,-0.0012207029999999897,-10959.0,0.0,0.0,-0.0,0.0,0.25,1.644286941,0.01,0.0,-0.49000000953674316,-0.7900000214576721,0.0,-0.0140380859375,-0.01123046875,1.02587890625,36.54999923706055,0.0,0.0,2.7116241455078125,-2.834381103515625,Waiting,0.0,0.0,-1253985.0,0.0,0.0,0.0,0.0,0.0,
1.5083259999999992,0.0,0.0,8785.0,0.0,0.0,0.0,0.0,0.125,0.798339762,0.01,0.0,-26684.0,0.0,0.0,-0.0,0.0,0.0,0.45288081300000005,0.01,0.0,732.0,0.0,0.0,0.0,0.0,0.125,3.193359048,0.01,-0.0012207029999999897,-10959.0,0.0,0.0,-0.0,0.0,0.25,1.643066238,0.01,0.0,-0.49000000953674316,-0.800000011920929,0.0,-0.01519775390625,-0.0128173828125,1.02105712890625,36.54999923706055,0.0,0.0,2.7116241455078125,-2.834381103515625,Waiting,0.0,0.0,-1253985.0,0.0,0.0,0.0,0.0,0.0,
1.5266209999999991,0.0,0.0,8785.0,0.0,0.0,0.0,0.0,0.125,0.799560465,0.01,0.0,-26684.0,0.0,0.0,-0.0,0.0,0.0,0.45288081300000005,0.01,0.0,732.0,0.0,0.0,0.0,0.0,0.125,3.192138345,0.01,0.0,-10959.0,0.0,0.0,-0.0,0.0,0.25,1.643066238,0.01,0.0,-0.49000000953674316,-0.800000011920929,0.0,-0.010009765625,-0.00775146484375,1.02105712890625,36.54999923706055,0.0,4.0,2.7116241455078125,-2.834381103515625,Waiting,0.0,0.0,-1253985.0,0.0,0.0,0.0,0.0,0.0,
1.5490869999999994,0.0,0.0,8785.0,0.0,0.0,0.0,0.0,0.125,0.798339762,0.01,0.0,-26684.0,0.0,0.0,-0.0,0.0,0.0,0.45288081300000005,0.01,0.0,732.0,0.0,0.0,0.0,0.0,0.125,3.192138345,0.01,0.0,-10959.0,0.0,0.0,-0.0,0.0,0.25,1.644286941,0.01,0.0,-0.49000000953674316,-0.800000011920929,-0.009999999776482582,-0.011962890625,-0.0093994140625,1.02093505859375,36.54999923706055,0.0,2.0,2.7116241455078125,-2.834381103515625,Waiting,0.0,0.0,-1253985.0,0.0,0.0,0.0,0.0,0.0,
1.5697549999999991,0.0,0.0,8785.0,0.0,0.0,0.0,0.0,0.125,0.798339762,0.01,0.0,-26684.0,0.0,0.0,-0.0,0.0,0.0,0.45288081300000005,0.01,0.0,732.0,0.0,0.0,0.0,0.0,0.125,3.193359048,0.01,0.0,-10959.0,0.0,0.0,-0.0,0.0,0.25,1.644286941,0.01,0.0,-0.49000000953674316,-0.7900000214576721,-0.009999999776482582,-0.0111083984375,-0.0101318359375,1.02374267578125,36.529998779296875,0.0,3.0,2.7116241455078125,-2.834381103515625,Waiting,0.0,0.0,-1253985.0,0.0,0.0,0.0,0.0,0.0,
1.590152,0.0,0.0,8785.0,0.0,0.0,0.0,0.0,0.125,0.799560465,0.01,0.0,-26684.0,0.0,0.0,-0.0,0.0,0.0,0.45288081300000005,0.01,0.0,732.0,0.0,0.0,0.0,0.0,0.125,3.192138345,0.01,0.0,-10959.0,0.0,0.0,-0.0,0.0,0.25,1.643066238,0.01,0.0,-0.49000000953674316,-0.7900000214576721,-0.009999999776482582,-0.01361083984375,-0.009765625,1.01849365234375,36.529998779296875,0.0,0.0,2.7116241455078125,-2.834381103515625,Waiting,0.0,0.0,-1253985.0,0.0,0.0,0.0,0.0,0.0,
1.6071859999999998,0.0,0.0,8785.0,0.0,0.0,0.0,0.0,0.125,0.799560465,0.01,0.0,-26684.0,0.0,0.0,-0.0,0.0,0.0,0.45288081300000005,0.01,0.0,732.0,0.0,0.0,0.0,0.0,0.125,3.193359048,0.01,0.0,-10959.0,0.0,0.0,-0.0,0.0,0.25,1.643066238,0.01,0.0,-0.49000000953674316,-0.7900000214576721,-0.009999999776482582,-0.0126953125,-0.0093994140625,1.02301025390625,36.529998779296875,0.0,1.0,2.7116241455078125,-2.834381103515625,Waiting,0.0,0.125,-1253985.0,0.0,0.0,0.0,0.0,0.0,
1.6256180000000005,0.0,0.0,8785.0,0.0,0.0,0.0,0.0,0.125,0.798339762,0.01,0.0,-26684.0,0.0,0.0,-0.0,0.0,0.0,0.45288081300000005,0.01,0.0,732.0,0.0,0.0,0.0,0.0,0.125,3.192138345,0.01,0.0,-10959.0,0.0,0.0,-0.0,0.0,0.25,1.643066238,0.01,0.0,-0.49000000953674316,-0.7900000214576721,-0.009999999776482582,-0.01507568359375,-0.0076904296875,1.01885986328125,36.529998779296875,0.0,0.0,2.7116241455078125,-2.834381103515625,Waiting,0.0,0.0,-1253985.0,0.0,0.0,0.0,0.0,0.0,
1.6469499999999988,0.0,0.0,8785.0,0.0,0.0,0.0,0.0,0.125,0.798339762,0.01,0.0,-26684.0,0.0,0.0,-0.0,0.0,0.0,0.45288081300000005,0.01,0.0,732.0,0.0,0.0,0.0,0.0,0.125,3.193359048,0.01,0.0,-10959.0,0.0,0.0,-0.0,0.0,0.25,1.643066238,0.01,0.0,-0.49000000953674316,-0.7900000214576721,-0.009999999776482582,-0.01507568359375,-0.0076904296875,1.01885986328125,36.529998779296875,0.0,0.0,2.7116241455078125,-2.834381103515625,Waiting,0.0,0.0,-1253985.0,0.0,0.0,0.0,0.0,0.0,
1.665977999999999,0.0,0.0,8785.0,0.0,0.0,0.0,0.0,0.125,0.798339762,0.01,0.0,-26684.0,0.0,0.0,-0.0,0.0,0.0,0.45166011,0.01,0.0,732.0,0.0,0.0,0.0,0.0,0.125,3.193359048,0.01,0.0,-10959.0,0.125,0.0,-0.0,0.0,0.25,1.643066238,0.01,0.0,-0.49000000953674316,-0.7900000214576721,-0.009999999776482582,-0.0123291015625,-0.00830078125,1.0177001953125,36.529998779296875,0.0,1.0,2.7116241455078125,-2.834381103515625,Waiting,0.0,0.0,-1253985.0,0.0,0.0,0.0,0.0,0.0,
1.687438,0.0,0.0,8785.0,0.0,0.0,0.0,0.0,0.125,0.798339762,0.01,0.0,-26684.0,0.0,0.0,-0.0,0.0,0.0,0.45288081300000005,0.01,0.0,732.0,0.0,0.0,0.0,0.0,0.125,3.193359048,0.01,0.0,-10959.0,0.0,0.0,-0.0,0.0,0.25,1.644286941,0.01,0.0,-0.49000000953674316,-0.7900000214576721,-0.009999999776482582,-0.012939453125,-0.00897216796875,1.0220947265625,36.529998779296875,0.0,1.0,2.7116241455078125,-2.834381103515625,Waiting,0.0,0.0,-1253985.0,0.0,0.0,0.0,0.0,0.0,
1.7051309999999995,0.0,0.0,8785.0,0.0,0.0,0.0,0.0,0.125,0.798339762,0.01,0.0,-26684.0,0.0,0.0,-0.0,0.0,0.0,0.45288081300000005,0.01,0.0,732.0,0.0,0.0,0.0,0.0,0.125,3.193359048,0.01,0.0,-10959.0,0.0,0.0,-0.0,0.0,0.25,1.643066238,0.01,0.0,-0.49000000953674316,-0.7900000214576721,-0.009999999776482582,-0.01220703125,-0.0086669921875,1.02142333984375,36.529998779296875,0.0,1.0,2.7116241455078125,-2.834381103515625,Waiting,0.0,0.0,-1253985.0,0.0,0.0,0.0,0.0,0.0,
1.7245769999999994,0.0,0.0,8785.0,0.0,0.0,0.0,0.0,0.125,0.798339762,0.01,0.0,-26684.0,0.0,0.0,-0.0,0.0,0.0,0.45288081300000005,0.01,0.0,732.0,0.0,0.0,0.0,0.0,0.125,3.193359048,0.01,0.0,-10959.0,0.0,0.0,-0.0,0.0,0.25,1.643066238,0.01,0.0,-0.49000000953674316,-0.7900000214576721,-0.009999999776482582,-0.01568603515625,-0.008056640625,1.015380859375,36.529998779296875,0.0,-1.0,2.7116241455078125,-2.834381103515625,Waiting,0.0,0.0,-1253985.0,0.0,0.0,0.0,0.0,0.0,
1.7487819999999992,0.0,0.0,8785.0,0.0,0.0,0.0,0.0,0.125,0.798339762,0.01,0.0,-26684.0,0.0,0.0,-0.0,0.0,0.0,0.45288081300000005,0.01,0.0,732.0,0.0,0.0,0.0,0.0,0.125,3.193359048,0.01,0.0,-10959.0,0.0,0.0,-0.0,0.0,0.25,1.643066238,0.01,0.0,-0.49000000953674316,-0.7900000214576721,-0.009999999776482582,-0.0157470703125,-0.00811767578125,1.02032470703125,36.529998779296875,0.0,-1.0,2.7116241455078125,-2.834381103515625,Waiting,0.0,0.0,-1253985.0,0.0,0.0,0.0,0.0,0.0,
1.7671009999999987,0.0,0.0,8785.0,0.0,0.0,0.0,0.0,0.125,0.798339762,0.01,0.0,-26684.0,0.0,0.0,-0.0,0.0,0.0,0.45166011,0.01,0.0,732.0,0.0,0.0,0.0,0.0,0.125,3.192138345,0.01,0.0,-10959.0,0.0,0.0,-0.0,0.0,0.25,1.644286941,0.01,0.0,-0.49000000953674316,-0.7900000214576721,-0.009999999776482582,-0.0157470703125,-0.00811767578125,1.02032470703125,36.529998779296875,0.0,-1.0,2.7116241455078125,-2.834381103515625,Waiting,0.0,0.0,-1253985.0,0.0,0.0,0.0,0.0,0.0,
1.7896309999999993,0.0,0.0,8785.0,0.0,0.0,0.0,0.0,0.125,0.798339762,0.01,0.0,-26684.0,0.0,0.0,-0.0,0.0,0.0,0.45166011,0.01,0.0,732.0,0.0,0.0,0.0,0.0,0.125,3.193359048,0.01,0.0,-10959.0,0.0,0.0,-0.0,0.0,0.25,1.643066238,0.01,0.0,-0.49000000953674316,-0.7900000214576721,-0.009999999776482582,-0.01605224609375,-0.00811767578125,1.01885986328125,36.529998779296875,0.0,-1.0,2.7116241455078125,-2.834381103515625,Waiting,0.0,0.0,-1253985.0,0.0,0.0,0.0,0.0,0.0,
1.808634,0.0,0.0,8785.0,0.0,0.0,0.0,0.0,0.125,0.798339762,0.01,0.0,-26684.0,0.0,0.0,-0.0,0.0,0.0,0.45288081300000005,0.01,0.0,732.0,0.0,0.0,0.0,0.0,0.125,3.193359048,0.01,0.0,-10959.0,0.0,0.0,-0.0,0.0,0.25,1.643066238,0.01,0.0,-0.49000000953674316,-0.800000011920929,-0.009999999776482582,-0.0133056640625,-0.00921630859375,1.02374267578125,36.529998779296875,0.0,1.0,2.7116241455078125,-2.834381103515625,Waiting,0.0,0.0,-1253985.0,0.0,0.0,0.0,0.0,0.0,
1.8267709999999988,0.0,0.0,8785.0,0.0,0.0,0.0,0.0,0.125,0.798339762,0.01,0.0,-26684.0,0.0,0.0,-0.0,0.0,0.0,0.45288081300000005,0.01,0.0,732.0,0.0,0.0,0.0,0.0,0.125,3.194579751,0.01,0.0,-10959.0,0.0,0.0,-0.0,0.0,0.25,1.643066238,0.01,0.0,-0.49000000953674316,-0.7900000214576721,-0.009999999776482582,-0.013427734375,-0.00830078125,1.01605224609375,36.529998779296875,0.0,0.0,2.7116241455078125,-2.834381103515625,Waiting,0.0,0.0,-1253985.0,0.0,0.0,0.0,0.0,0.0,
1.8480429999999997,0.0,0.0,8785.0,0.0,0.0,0.0,0.0,0.125,0.799560465,0.01,0.0,-26684.0,0.0,0.0,-0.0,0.0,0.0,0.45288081300000005,0.01,0.0,732.0,0.0,0.0,0.0,0.0,0.125,3.192138345,0.01,0.0,-10959.0,0.0,0.0,-0.0,0.0,0.25,1.643066238,0.01,0.0,-0.49000000953674316,-0.7900000214576721,-0.009999999776482582,-0.013916015625,-0.00982666015625,1.01849365234375,36.529998779296875,0.0,0.0,2.7116241455078125,-2.834381103515625,Waiting,0.0,0.0,-1253985.0,0.0,0.0,0.0,0.0,0.0,
1.8662919999999994,0.0,0.0,8785.0,0.0,0.0,0.0,0.0,0.125,0.799560465,0.01,0.0,-26684.0,0.0,0.0,-0.0,0.0,0.0,0.45410151600000004,0.01,0.0,732.0,0.0,0.0,0.0,0.0,0.125,3.192138345,0.01,0.0,-10959.0,0.125,0.0,-0.0,0.0,0.25,1.643066238,0.01,0.0,-0.49000000953674316,-0.800000011920929,-0.009999999776482582,-0.01397705078125,-0.01043701171875,1.017822265625,36.529998779296875,0.0,0.0,2.7116241455078125,-2.834381103515625,Waiting,0.0,0.0,-1253985.0,0.0,0.0,0.0,0.0,0.0,
1.8887829999999994,0.0,0.0,8785.0,0.0,0.0,0.0,0.0,0.125,0.799560465,0.01,0.0,-26684.0,0.0,0.0,-0.0,0.0,0.0,0.45288081300000005,0.01,0.0,732.0,0.0,0.0,0.0,0.0,0.125,3.193359048,0.01,0.0,-10959.0,0.125,0.0,-0.0,0.0,0.25,1.643066238,0.01,0.0,-0.49000000953674316,-0.800000011920929,-0.009999999776482582,-0.01446533203125,-0.0079345703125,1.01763916015625,36.529998779296875,0.0,0.0,2.7116241455078125,-2.834381103515625,Waiting,0.0,0.0,-1253985.0,0.0,0.0,0.0,0.0,0.0,
1.9076319999999996,0.0,0.0,8785.0,0.0,0.0,0.0,0.0,0.125,0.799560465,0.01,0.0,-26684.0,0.0,0.0,-0.0,0.0,0.0,0.45288081300000005,0.01,0.0,732.0,0.0,0.0,0.0,0.0,0.125,3.193359048,0.01,0.0,-10959.0,0.125,0.0,-0.0,0.0,0.25,1.643066238,0.01,0.0,-0.49000000953674316,-0.800000011920929,-0.009999999776482582,-0.01312255859375,-0.00933837890625,1.020263671875,36.529998779296875,0.0,1.0,2.7116241455078125,-2.834381103515625,Waiting,0.0,0.0,-1253985.0,0.0,0.0,0.0,0.0,0.0,
1.9263449999999993,0.0,0.0,8785.0,0.0,0.0,0.0,0.0,0.125,0.798339762,0.01,0.0,-26684.0,0.0,0.0,-0.0,0.0,0.0,0.45166011,0.01,0.0,732.0,0.0,0.0,0.0,0.0,0.125,3.192138345,0.01,0.0,-10959.0,0.0,0.0,-0.0,0.0,0.25,1.643066238,0.01,0.0,-0.49000000953674316,-0.800000011920929,-0.009999999776482582,-0.01708984375,-0.009033203125,1.02569580078125,36.529998779296875,0.0,-2.0,2.7116241455078125,-2.834381103515625,Waiting,0.0,0.0,-1253985.0,0.0,0.0,0.0,0.0,0.125,
1.9652569999999996,0.0,0.0,8785.0,0.0,0.0,0.0,0.0,0.125,0.798339762,0.01,0.0,-26684.0,0.0,0.0,-0.0,0.0,0.0,0.45288081300000005,0.01,0.0,732.0,0.0,0.0,0.0,0.0,0.125,3.193359048,0.01,0.0,-10959.0,0.0,0.0,-0.0,0.0,0.25,1.643066238,0.01,0.0,-0.49000000953674316,-0.800000011920929,-0.009999999776482582,-0.01409912109375,-0.01025390625,1.01849365234375,36.529998779296875,0.0,0.0,2.7116241455078125,-2.834381103515625,Waiting,0.0,0.0,-1253985.0,0.0,0.0,0.0,0.0,0.125,
1.9863979999999992,0.0,0.0,8785.0,0.0,0.0,0.0,0.0,0.125,0.798339762,0.01,0.0,-26684.0,0.0,0.0,-0.0,0.0,0.0,0.45288081300000005,0.01,0.0,732.0,0.0,0.0,0.0,0.0,0.125,3.193359048,0.01,0.0,-10959.0,0.0,0.0,-0.0,0.0,0.25,1.643066238,0.01,0.0,-0.49000000953674316,-0.800000011920929,-0.009999999776482582,-0.011962890625,-0.0113525390625,1.01531982421875,36.529998779296875,0.0,2.0,2.7116241455078125,-2.834381103515625,Waiting,0.0,0.0,-1253985.0,0.0,0.0,0.0,0.0,0.0,
2.006092999999999,0.0,0.0,8785.0,0.0,0.0,0.0,0.0,0.125,0.798339762,0.01,0.0,-26684.0,0.0,0.0,-0.0,0.0,0.0,0.45288081300000005,0.01,0.0,732.0,0.0,0.0,0.0,0.0,0.125,3.193359048,0.01,0.0,-10959.0,0.0,0.0,-0.0,0.0,0.25,1.643066238,0.01,0.0,-0.49000000953674316,-0.800000011920929,-0.009999999776482582,-0.01605224609375,-0.0084228515625,1.01947021484375,36.529998779296875,0.0,-1.0,2.7116241455078125,-2.834381103515625,Waiting,0.0,0.0,-1253985.0,0.0,0.0,0.0,0.0,0.0,
2.02366,0.0,0.0,8785.0,0.0,0.0,0.0,0.0,0.125,0.798339762,0.01,0.0,-26684.0,0.0,0.0,-0.0,0.0,0.0,0.45166011,0.01,0.0,732.0,0.0,0.0,0.0,0.0,0.125,3.193359048,0.01,0.0,-10959.0,0.0,0.0,-0.0,0.0,0.25,1.644286941,0.01,0.0,-0.49000000953674316,-0.800000011920929,-0.009999999776482582,-0.0150146484375,-0.00762939453125,1.0245361328125,36.529998779296875,0.0,0.0,2.7116241455078125,-2.834381103515625,Waiting,0.0,0.0,-1253985.0,0.0,0.0,0.0,0.0,0.0,
2.0451980000000005,0.0,0.0,8785.0,0.0,0.0,0.0,0.0,0.125,0.798339762,0.01,0.0,-26684.0,0.0,0.0,-0.0,0.0,0.0,0.45166011,0.01,0.0,732.0,0.0,0.0,0.0,0.0,0.125,3.193359048,0.01,0.0,-10959.0,0.0,0.0,-0.0,0.0,0.25,1.643066238,0.01,0.0,-0.49000000953674316,-0.800000011920929,-0.009999999776482582,-0.01300048828125,-0.0086669921875,1.0238037109375,36.529998779296875,0.0,1.0,2.7116241455078125,-2.834381103515625,Waiting,0.0,0.0,-1253985.0,0.0,0.0,0.0,0.0,0.0,
2.064903,0.0,0.0,8785.0,0.0,0.0,0.0,0.0,0.125,0.799560465,0.01,0.0,-26684.0,0.0,0.0,-0.0,0.0,0.0,0.45288081300000005,0.01,0.0,732.0,0.0,0.0,0.0,0.0,0.125,3.193359048,0.01,0.0,-10959.0,0.0,0.0,-0.0,0.0,0.25,1.643066238,0.01,0.0,-0.49000000953674316,-0.800000011920929,-0.009999999776482582,-0.01153564453125,-0.00848388671875,1.0181884765625,36.529998779296875,0.0,2.0,2.7116241455078125,-2.834381103515625,Waiting,0.0,0.0,-1253985.0,0.0,0.0,0.0,0.0,0.0,
2.08641,0.0,0.0,8785.0,0.0,0.0,0.0,0.0,0.125,0.798339762,0.01,0.0,-26684.0,0.0,0.0,-0.0,0.0,0.0,0.45288081300000005,0.01,0.0,732.0,0.0,0.0,0.0,0.0,0.125,3.193359048,0.01,0.0,-10959.0,0.0,0.0,-0.0,0.0,0.25,1.643066238,0.01,0.0,-0.49000000953674316,-0.800000011920929,-0.009999999776482582,-0.01422119140625,-0.00823974609375,1.0284423828125,36.54999923706055,0.0,0.0,2.7116241455078125,-2.834381103515625,Waiting,0.0,0.0,-1253985.0,0.0,0.0,0.0,0.0,0.0,
2.1044669999999988,0.0,0.0,8785.0,0.0,0.0,0.0,0.0,0.125,0.798339762,0.01,0.0,-26684.0,0.0,0.0,-0.0,0.0,0.0,0.45288081300000005,0.01,0.0,732.0,0.0,0.0,0.0,0.0,0.125,3.192138345,0.01,0.0,-10959.0,0.0,0.0,-0.0,0.0,0.25,1.643066238,0.01,0.0,-0.49000000953674316,-0.800000011920929,-0.009999999776482582,-0.01422119140625,-0.0108642578125,1.0174560546875,36.54999923706055,0.0,0.0,2.7116241455078125,-2.834381103515625,Waiting,0.0,0.0,-1253985.0,0.0,0.0,0.0,0.0,0.0,
2.122638999999999,0.0,0.0,8785.0,0.0,0.0,0.0,0.0,0.125,0.798339762,0.01,0.0,-26684.0,0.0,0.0,-0.0,0.0,0.0,0.45166011,0.01,0.0,732.0,0.0,0.0,0.0,0.0,0.125,3.193359048,0.01,0.0,-10959.0,0.0,0.0,-0.0,0.0,0.25,1.643066238,0.01,0.0,-0.49000000953674316,-0.800000011920929,-0.009999999776482582,-0.01678466796875,-0.0093994140625,1.0128173828125,36.54999923706055,0.0,-2.0,2.7116241455078125,-2.834381103515625,Waiting,0.0,0.0,-1253985.0,0.0,0.0,0.0,0.0,0.0,
2.1453590000000005,0.0,0.0,8785.0,0.0,0.0,0.0,0.0,0.125,0.798339762,0.01,0.0,-26684.0,0.0,0.0,-0.0,0.0,0.0,0.45288081300000005,0.01,0.0,732.0,0.0,0.0,0.0,0.0,0.125,3.194579751,0.01,0.0,-10959.0,0.0,0.0,-0.0,0.0,0.25,1.644286941,0.01,0.0,-0.49000000953674316,-0.800000011920929,-0.009999999776482582,-0.01458740234375,-0.0076904296875,1.02130126953125,36.54999923706055,0.0,0.0,2.7116241455078125,-2.834381103515625,Waiting,0.0,0.0,-1253985.0,0.0,0.0,0.0,0.0,0.0,
2.1645509999999994,0.0,0.0,8785.0,0.0,0.0,0.0,0.0,0.125,0.798339762,0.01,0.0,-26684.0,0.0,0.0,-0.0,0.0,0.0,0.45166011,0.01,0.0,732.0,0.0,0.0,0.0,0.0,0.125,3.193359048,0.01,0.0,-10959.0,0.0,0.0,-0.0,0.0,0.25,1.643066238,0.01,0.0,-0.49000000953674316,-0.800000011920929,-0.009999999776482582,-0.01617431640625,-0.0091552734375,1.0213623046875,36.54999923706055,0.0,-1.0,2.7116241455078125,-2.834381103515625,Waiting,0.0,0.0,-1253985.0,0.0,0.0,0.0,0.0,0.125,
2.184668,0.0,0.0,8785.0,0.0,0.0,0.0,0.0,0.125,0.798339762,0.01,0.0,-26684.0,0.0,0.0,-0.0,0.0,0.0,0.45288081300000005,0.01,0.0,732.0,0.0,0.0,0.0,0.0,0.125,3.193359048,0.01,0.0,-10959.0,0.0,0.0,-0.0,0.0,0.25,1.644286941,0.01,0.0,-0.49000000953674316,-0.800000011920929,-0.009999999776482582,-0.01422119140625,-0.0076904296875,1.0140380859375,36.54999923706055,0.0,0.0,2.7116241455078125,-2.834381103515625,Waiting,0.0,0.0,-1253985.0,0.0,0.0,0.0,0.0,0.125,
2.2054169999999993,0.0,0.0,8785.0,0.0,0.0,0.0,0.0,0.125,0.798339762,0.01,0.0,-26684.0,0.0,0.0,-0.0,0.0,0.0,0.45288081300000005,0.01,0.0,732.0,0.0,0.0,0.0,0.0,0.125,3.193359048,0.01,0.0,-10959.0,0.0,0.0,-0.0,0.0,0.25,1.643066238,0.01,0.0,-0.49000000953674316,-0.800000011920929,-0.009999999776482582,-0.01409912109375,-0.00811767578125,1.0242919921875,36.54999923706055,0.0,0.0,2.7116241455078125,-2.834381103515625,Waiting,0.0,0.0,-1253985.0,0.0,0.0,0.0,0.0,0.0,
2.224486999999999,0.0,0.0,8785.0,0.0,0.0,0.0,0.0,0.125,0.799560465,0.01,0.0,-26684.0,0.0,0.0,-0.0,0.0,0.0,0.45288081300000005,0.01,0.0,732.0,0.0,0.0,0.0,0.0,0.125,3.193359048,0.01,0.0,-10959.0,0.0,0.0,-0.0,0.0,0.25,1.644286941,0.01,0.0,-0.49000000953674316,-0.800000011920929,-0.009999999776482582,-0.01470947265625,-0.0087890625,1.011474609375,36.54999923706055,0.0,0.0,2.7116241455078125,-2.834381103515625,Waiting,0.0,0.0,-1253985.0,0.0,0.0,0.0,0.0,0.0,
2.249419,0.0,0.0,8785.0,0.0,0.0,0.0,0.0,0.125,0.798339762,0.01,0.0,-26684.0,0.0,0.0,-0.0,0.0,0.0,0.45288081300000005,0.01,0.0,732.0,0.0,0.0,0.0,0.0,0.125,3.192138345,0.01,0.0012207029999999897,-10959.0,0.0,0.0,-0.0,0.0,0.25,1.644286941,0.01,0.0,-0.49000000953674316,-0.800000011920929,-0.009999999776482582,-0.013916015625,-0.00653076171875,1.02374267578125,36.54999923706055,0.0,0.0,2.7116241455078125,-2.834381103515625,Waiting,0.0,0.0,-1253985.0,0.0,0.0,0.0,0.0,0.0,
2.2690589999999995,0.0,0.0,8785.0,0.0,0.0,0.0,0.0,0.125,0.798339762,0.01,0.0,-26684.0,0.0,0.0,-0.0,0.0,0.0,0.45288081300000005,0.01,0.0,732.0,0.0,0.0,0.0,0.0,0.125,3.193359048,0.01,0.0012207029999999897,-10959.0,0.0,0.0,-0.0,0.0,0.25,1.643066238,0.01,0.0,-0.49000000953674316,-0.800000011920929,-0.009999999776482582,-0.01531982421875,-0.009521484375,1.018798828125,36.54999923706055,0.0,0.0,2.7116241455078125,-2.834381103515625,Waiting,0.0,0.0,-1253985.0,0.0,0.0,0.0,0.0,0.0,
2.2897559999999992,0.0,0.0,8785.0,0.0,0.0,0.0,0.0,0.125,0.799560465,0.01,0.0,-26684.0,0.0,0.0,-0.0,0.0,0.0,0.45166011,0.01,0.0,732.0,0.0,0.0,0.0,0.0,0.125,3.192138345,0.01,-0.0012207029999999897,-10959.0,0.125,0.0,-0.0,0.0,0.25,1.643066238,0.01,0.0,-0.49000000953674316,-0.800000011920929,-0.009999999776482582,-0.01513671875,-0.006591796875,1.019287109375,36.54999923706055,0.0,0.0,2.7116241455078125,-2.834381103515625,Waiting,0.0,0.0,-1253985.0,0.0,0.0,0.0,0.0,0.0,
2.3072569999999994,0.0,0.0,8785.0,0.0,0.0,0.0,0.0,0.125,0.798339762,0.01,0.0,-26684.0,0.0,0.0,-0.0,0.0,0.0,0.45288081300000005,0.01,0.0,732.0,0.0,0.0,0.0,0.0,0.125,3.193359048,0.01,-0.0012207029999999897,-10959.0,0.125,0.0,-0.0,0.0,0.25,1.644286941,0.01,0.0,-0.49000000953674316,-0.800000011920929,-0.009999999776482582,-0.0145263671875,-0.009033203125,1.01910400390625,36.54999923706055,0.0,0.0,2.7116241455078125,-2.834381103515625,Waiting,0.0,0.0,-1253985.0,0.0,0.0,0.0,0.0,0.0,
2.328672999999999,0.0,0.0,8785.0,0.0,0.0,0.0,0.0,0.125,0.798339762,0.01,0.0,-26684.0,0.0,0.0,-0.0,0.0,0.0,0.45288081300000005,0.01,0.0,732.0,0.0,0.0,0.0,0.0,0.125,3.193359048,0.01,0.0012207029999999897,-10959.0,0.0,0.0,-0.0,0.0,0.25,1.644286941,0.01,0.0,-0.49000000953674316,-0.800000011920929,-0.009999999776482582,-0.014404296875,-0.01007080078125,1.017578125,36.54999923706055,0.0,0.0,2.7116241455078125,-2.834381103515625,Waiting,0.0,0.0,-1253985.0,0.0,0.0,0.0,0.0,0.125,
2.350349,0.0,0.0,8785.0,0.0,0.0,0.0,0.0,0.125,0.798339762,0.01,0.0,-26684.0,0.0,0.0,-0.0,0.0,0.0,0.45288081300000005,0.01,0.0,732.0,0.0,0.0,0.0,0.0,0.125,3.193359048,0.01,0.0012207029999999897,-10959.0,0.0,0.0,-0.0,0.0,0.25,1.644286941,0.01,0.0,-0.49000000953674316,-0.8100000023841858,-0.009999999776482582,-0.015869140625,-0.00787353515625,1.017822265625,36.54999923706055,0.0,-1.0,2.7116241455078125,-2.834381103515625,Waiting,0.0,0.0,-1253985.0,0.0,0.0,0.0,0.0,0.125,
2.3691759999999995,0.0,0.0,8785.0,0.0,0.0,0.0,0.0,0.125,0.798339762,0.01,0.0,-26684.0,0.0,0.0,-0.0,0.0,0.0,0.45288081300000005,0.01,0.0,732.0,0.0,0.0,0.0,0.0,0.125,3.194579751,0.01,0.0012207029999999897,-10959.0,0.0,0.0,-0.0,0.0,0.25,1.643066238,0.01,0.0,-0.49000000953674316,-0.8100000023841858,-0.009999999776482582,-0.01318359375,-0.0072021484375,1.0167236328125,36.54999923706055,0.0,1.0,2.7116241455078125,-2.834381103515625,Waiting,0.0,0.0,-1253985.0,0.0,0.0,0.0,0.0,0.125,
2.391870999999999,0.0,0.0,8785.0,0.0,0.0,0.0,0.0,0.125,0.798339762,0.01,0.0,-26684.0,0.0,0.0,-0.0,0.0,0.0,0.45288081300000005,0.01,0.0,732.0,0.0,0.0,0.0,0.0,0.125,3.193359048,0.01,-0.0012207029999999897,-10959.0,0.0,0.0,-0.0,0.0,0.25,1.644286941,0.01,0.0,-0.49000000953674316,-0.8100000023841858,-0.009999999776482582,-0.01458740234375,-0.006591796875,1.02276611328125,36.54999923706055,0.0,0.0,2.7116241455078125,-2.834381103515625,Waiting,0.0,0.0,-1253985.0,0.0,0.0,0.0,0.0,0.125,
2.4112889999999987,0.0,0.0,8785.0,0.0,0.0,0.0,0.0,0.125,0.798339762,0.01,0.0,-26684.0,0.0,0.0,-0.0,0.0,0.0,0.45288081300000005,0.01,0.0,732.0,0.0,0.0,0.0,0.0,0.125,3.193359048,0.01,-0.0012207029999999897,-10959.0,0.0,0.0,-0.0,0.0,0.25,1.643066238,0.01,0.0,-0.49000000953674316,-0.8100000023841858,-0.009999999776482582,-0.01513671875,-0.00799560546875,1.015380859375,36.54999923706055,0.0,0.0,2.7116241455078125,-2.834381103515625,Waiting,0.0,0.0,-1253985.0,0.0,0.0,0.0,0.0,0.0,
2.4301270000000006,0.0,0.0,8785.0,0.0,0.0,0.0,0.0,0.125,0.798339762,0.01,0.0,-26684.0,0.0,0.0,-0.0,0.0,0.0,0.45288081300000005,0.01,0.0,732.0,0.0,0.0,0.0,0.0,0.125,3.193359048,0.01,0.0,-10959.0,0.0,0.0,-0.0,0.0,0.25,1.643066238,0.01,0.0,-0.49000000953674316,-0.8100000023841858,-0.009999999776482582,-0.014892578125,-0.01141357421875,1.0196533203125,36.54999923706055,0.0,0.0,2.7116241455078125,-2.834381103515625,Waiting,0.0,0.125,-1253985.0,0.0,0.0,0.0,0.0,0.0,
2.461688,0.0,0.0,8785.0,0.0,0.0,0.0,0.0,0.125,0.798339762,0.01,0.0,-26684.0,0.0,0.0,-0.0,0.0,0.0,0.45166011,0.01,0.0,732.0,0.0,0.0,0.0,0.0,0.125,3.192138345,0.01,0.0,-10959.0,0.0,0.0,-0.0,0.0,0.25,1.644286941,0.01,0.0,-0.49000000953674316,-0.8100000023841858,-0.009999999776482582,-0.014892578125,-0.00927734375,1.0198974609375,36.54999923706055,0.0,0.0,2.7116241455078125,-2.834381103515625,Waiting,0.0,0.0,-1253985.0,0.0,0.0,0.0,0.0,0.0,
2.4880730000000004,0.0,0.0,8785.0,0.0,0.0,0.0,0.0,0.125,0.799560465,0.01,0.0,-26684.0,0.0,0.0,-0.0,0.0,0.0,0.45288081300000005,0.01,0.0,732.0,0.0,0.0,0.0,0.0,0.125,3.193359048,0.01,0.0,-10959.0,0.0,0.0,-0.0,0.0,0.25,1.643066238,0.01,0.0,-0.49000000953674316,-0.8100000023841858,-0.009999999776482582,-0.01129150390625,-0.01025390625,1.02056884765625,36.54999923706055,0.0,3.0,2.7116241455078125,-2.834381103515625,Waiting,0.0,0.0,-1253985.0,0.0,0.0,0.0,0.0,0.125,
2.506224,0.0,0.0,8785.0,0.0,0.0,0.0,0.0,0.125,0.798339762,0.01,0.0,-26684.0,0.0,0.0,-0.0,0.0,0.0,0.45288081300000005,0.01,0.0,732.0,0.0,0.0,0.0,0.0,0.125,3.193359048,0.01,0.0,-10959.0,0.0,0.0,-0.0,0.0,0.25,1.645507644,0.01,0.0,-0.49000000953674316,-0.8100000023841858,-0.009999999776482582,-0.0150146484375,-0.0081787109375,1.02099609375,36.54999923706055,0.0,0.0,2.7116241455078125,-2.834381103515625,Waiting,0.0,0.0,-1253985.0,0.0,0.0,0.0,0.0,0.125,
2.5397880000000006,0.0,0.0,8785.0,0.0,0.0,0.0,0.0,0.125,0.799560465,0.01,0.0,-26684.0,0.0,0.0,-0.0,0.0,0.0,0.45288081300000005,0.01,0.0,732.0,0.0,0.0,0.0,0.0,0.125,3.193359048,0.01,0.0012207029999999897,-10959.0,0.0,0.0,-0.0,0.0,0.25,1.644286941,0.01,0.0,-0.49000000953674316,-0.8100000023841858,-0.009999999776482582,-0.0140380859375,-0.00897216796875,1.01910400390625,36.54999923706055,0.0,0.0,2.7116241455078125,-2.834381103515625,Waiting,0.0,0.0,-1253985.0,0.0,0.0,0.0,0.0,0.0,
2.56066,0.0,0.0,8785.0,0.0,0.0,0.0,0.0,0.125,0.799560465,0.01,0.0,-26684.0,0.0,0.0,-0.0,0.0,0.0,0.45288081300000005,0.01,0.0,732.0,0.0,0.0,0.0,0.0,0.125,3.193359048,0.01,0.0012207029999999897,-10959.0,0.0,0.0,-0.0,0.0,0.25,1.643066238,0.01,0.0,-0.49000000953674316,-0.8100000023841858,-0.009999999776482582,-0.012451171875,-0.00775146484375,1.01702880859375,36.54999923706055,0.0,2.0,2.7116241455078125,-2.834381103515625,Waiting,0.0,0.0,-1253985.0,0.0,0.0,0.0,0.0,0.0,
2.585142,0.0,0.0,8785.0,0.0,0.0,0.0,0.0,0.125,0.798339762,0.01,0.0,-26684.0,0.0,0.0,-0.0,0.0,0.0,0.45288081300000005,0.01,0.0,732.0,0.0,0.0,0.0,0.0,0.125,3.193359048,0.01,-0.0012207029999999897,-10959.0,0.0,0.0,-0.0,0.0,0.25,1.644286941,0.01,0.0,-0.49000000953674316,-0.8100000023841858,-0.009999999776482582,-0.01104736328125,-0.009521484375,1.01373291015625,36.54999923706055,0.0,3.0,2.7116241455078125,-2.834381103515625,Waiting,0.0,0.0,-1253985.0,0.0,0.0,0.0,0.0,0.0,
2.6043869999999987,0.0,0.0,8785.0,0.0,0.0,0.0,0.0,0.125,0.798339762,0.01,0.0,-26684.0,0.0,0.0,-0.0,0.0,0.0,0.45288081300000005,0.01,0.0,732.0,0.0,0.0,0.0,0.0,0.125,3.193359048,0.01,-0.0012207029999999897,-10959.0,0.0,0.0,-0.0,0.0,0.25,1.643066238,0.01,0.0,-0.49000000953674316,-0.8100000023841858,-0.009999999776482582,-0.014892578125,-0.01165771484375,1.02056884765625,36.5099983215332,0.0,0.0,2.7116241455078125,-2.834381103515625,Waiting,0.0,0.0,-1253985.0,0.0,0.0,0.0,0.0,0.0,
2.62249,0.0,0.0,8785.0,0.0,0.0,0.0,0.0,0.125,0.798339762,0.01,0.0,-26684.0,0.0,0.0,-0.0,0.0,0.0,0.45288081300000005,0.01,0.0,732.0,0.0,0.0,0.0,0.0,0.125,3.193359048,0.01,-0.0012207029999999897,-10959.0,0.125,0.0,-0.0,0.0,0.25,1.643066238,0.01,0.0,-0.49000000953674316,-0.8100000023841858,-0.009999999776482582,-0.014892578125,-0.01165771484375,1.02056884765625,36.5099983215332,0.0,0.0,2.7116241455078125,-2.834381103515625,Waiting,0.0,0.0,-1253985.0,0.0,0.0,0.0,0.0,0.0,
2.6434509999999993,0.0,0.0,8785.0,0.0,0.0,0.0,0.0,0.125,0.798339762,0.01,0.0,-26684.0,0.0,0.0,-0.0,0.0,0.0,0.45288081300000005,0.01,0.0,732.0,0.0,0.0,0.0,0.0,0.125,3.192138345,0.01,0.0,-10959.0,0.0,0.0,-0.0,0.0,0.25,1.643066238,0.01,0.0,-0.49000000953674316,-0.800000011920929,-0.009999999776482582,-0.0140380859375,-0.008056640625,1.0191650390625,36.5099983215332,0.0,0.0,2.7116241455078125,-2.834381103515625,Waiting,0.0,0.0,-1253985.0,0.0,0.0,0.0,0.0,0.0,
2.6602109999999994,0.0,0.0,8785.0,0.0,0.0,0.0,0.0,0.125,0.799560465,0.01,0.0,-26684.0,0.0,0.0,-0.0,0.0,0.0,0.45288081300000005,0.01,0.0,732.0,0.0,0.0,0.0,0.0,0.125,3.193359048,0.01,0.0,-10959.0,0.0,0.0,-0.0,0.0,0.25,1.643066238,0.01,0.0,-0.49000000953674316,-0.800000011920929,-0.009999999776482582,-0.0140380859375,-0.008056640625,1.0191650390625,36.5099983215332,0.0,0.0,2.7116241455078125,-2.834381103515625,Waiting,0.0,0.0,-1253985.0,0.0,0.0,0.0,0.0,0.0,
2.6783680000000003,0.0,0.0,8785.0,0.0,0.0,0.0,0.0,0.125,0.799560465,0.01,0.0,-26684.0,0.0,0.0,-0.0,0.0,0.0,0.45288081300000005,0.01,0.0,732.0,0.0,0.0,0.0,0.0,0.125,3.193359048,0.01,0.0,-10959.0,0.0,0.0,-0.0,0.0,0.25,1.644286941,0.01,0.0,-0.49000000953674316,-0.8100000023841858,-0.009999999776482582,-0.01348876953125,-0.0087890625,1.02166748046875,36.5099983215332,0.0,1.0,2.7116241455078125,-2.834381103515625,Waiting,0.0,0.0,-1253985.0,0.0,0.0,0.0,0.0,0.0,
2.699322,0.0,0.0,8785.0,0.0,0.0,0.0,0.0,0.125,0.798339762,0.01,0.0,-26684.0,0.0,0.0,-0.0,0.0,0.0,0.45166011,0.01,0.0,732.0,0.0,0.0,0.0,0.0,0.125,3.194579751,0.01,0.0,-10959.0,0.0,0.0,-0.0,0.0,0.25,1.643066238,0.01,0.0,-0.49000000953674316,-0.8100000023841858,-0.009999999776482582,-0.013916015625,-0.00872802734375,1.0194091796875,36.5099983215332,0.0,0.0,2.7116241455078125,-2.834381103515625,Waiting,0.0,0.0,-1253985.0,0.0,0.0,0.0,0.0,0.0,
2.7189300000000003,0.0,0.0,8785.0,0.0,0.0,0.0,0.0,0.125,0.798339762,0.01,0.0,-26684.0,0.0,0.0,-0.0,0.0,0.0,0.45410151600000004,0.01,0.0,732.0,0.0,0.0,0.0,0.0,0.125,3.193359048,0.01,0.0,-10959.0,0.0,0.0,-0.0,0.0,0.25,1.643066238,0.01,0.0,-0.49000000953674316,-0.8100000023841858,-0.009999999776482582,-0.01617431640625,-0.0081787109375,1.02020263671875,36.5099983215332,0.0,-1.0,2.7116241455078125,-2.834381103515625,Waiting,0.0,0.0,-1253985.0,0.0,0.0,0.0,0.0,0.0,
2.739717999999999,0.0,0.0,8785.0,0.0,0.0,0.0,0.0,0.125,0.798339762,0.01,0.0,-26684.0,0.0,0.0,-0.0,0.0,0.0,0.45288081300000005,0.01,0.0,732.0,0.0,0.0,0.0,0.0,0.125,3.193359048,0.01,0.0,-10959.0,0.0,0.0,-0.0,0.0,0.25,1.643066238,0.01,0.0,-0.49000000953674316,-0.8100000023841858,-0.009999999776482582,-0.012451171875,-0.00946044921875,1.01898193359375,36.5099983215332,0.0,2.0,2.7116241455078125,-2.834381103515625,Waiting,0.0,0.0,-1253985.0,0.0,0.0,0.0,0.0,0.0,
2.7588189999999995,0.0,0.0,8785.0,0.0,0.0,0.0,0.0,0.125,0.798339762,0.01,0.0,-26684.0,0.0,0.0,-0.0,0.0,0.0,0.45288081300000005,0.01,0.0,732.0,0.0,0.0,0.0,0.0,0.125,3.193359048,0.01,0.0,-10959.0,0.0,0.0,-0.0,0.0,0.25,1.643066238,0.01,0.0,-0.49000000953674316,-0.8100000023841858,0.0,-0.01226806640625,-0.00775146484375,1.0166015625,36.5099983215332,0.0,2.0,2.7116241455078125,-2.834381103515625,Waiting,0.0,0.0,-1253985.0,0.0,0.0,0.0,0.0,0.0,
2.7785659999999988,0.0,0.0,8785.0,0.0,0.0,0.0,0.0,0.125,0.798339762,0.01,0.0,-26684.0,0.0,0.0,-0.0,0.0,0.0,0.45288081300000005,0.01,0.0,732.0,0.0,0.0,0.0,0.0,0.125,3.192138345,0.01,0.0,-10959.0,0.0,0.0,-0.0,0.0,0.25,1.643066238,0.01,0.0,-0.49000000953674316,-0.8100000023841858,0.0,-0.013427734375,-0.00775146484375,1.02001953125,36.5099983215332,0.0,1.0,2.7116241455078125,-2.834381103515625,Waiting,0.0,0.0,-1253985.0,0.0,0.0,0.0,0.0,0.0,
2.7984449999999996,0.0,0.0,8785.0,0.0,0.0,0.0,0.0,0.125,0.798339762,0.01,0.0,-26684.0,0.0,0.0,-0.0,0.0,0.0,0.45288081300000005,0.01,0.0,732.0,0.0,0.0,0.0,0.0,0.125,3.193359048,0.01,0.0,-10959.0,0.0,0.0,-0.0,0.0,0.25,1.644286941,0.01,0.0,-0.49000000953674316,-0.8100000023841858,-0.009999999776482582,-0.013916015625,-0.0118408203125,1.0172119140625,36.5099983215332,0.0,0.0,2.7116241455078125,-2.834381103515625,Waiting,0.0,0.0,-1253985.0,0.0,0.0,0.0,0.0,0.0,
2.819617,0.0,0.0,8785.0,0.0,0.0,0.0,0.0,0.125,0.798339762,0.01,0.0,-26684.0,0.0,0.0,-0.0,0.0,0.0,0.45288081300000005,0.01,0.0,732.0,0.0,0.0,0.0,0.0,0.125,3.192138345,0.01,0.0,-10959.0,0.0,0.0,-0.0,0.0,0.25,1.643066238,0.01,0.0,-0.49000000953674316,-0.8100000023841858,-0.009999999776482582,-0.0145263671875,-0.00787353515625,1.02191162109375,36.5099983215332,0.0,0.0,2.7116241455078125,-2.834381103515625,Waiting,0.0,0.0,-1253985.0,0.0,0.0,0.0,0.0,0.0,
2.8395370000000004,0.0,0.0,8785.0,0.0,0.0,0.0,0.0,0.125,0.799560465,0.01,0.0,-26684.0,0.0,0.0,-0.0,0.0,0.0,0.45166011,0.01,0.0,732.0,0.0,0.0,0.0,0.0,0.125,3.193359048,0.01,0.0,-10959.0,0.0,0.0,-0.0,0.0,0.25,1.644286941,0.01,0.0,-0.49000000953674316,-0.8100000023841858,-0.009999999776482582,-0.01422119140625,-0.00714111328125,1.0177001953125,36.5099983215332,0.0,0.0,2.7116241455078125,-2.834381103515625,Waiting,0.0,0.0,-1253985.0,0.0,0.0,0.0,0.0,0.0,
2.858457999999999,0.0,0.0,8785.0,0.0,0.0,0.0,0.0,0.125,0.798339762,0.01,0.0,-26684.0,0.0,0.0,-0.0,0.0,0.0,0.45166011,0.01,0.0,732.0,0.0,0.0,0.0,0.0,0.125,3.193359048,0.01,0.0,-10959.0,0.0,0.0,-0.0,0.0,0.25,1.643066238,0.01,0.0,-0.47999998927116394,-0.8100000023841858,-0.009999999776482582,-0.01263427734375,-0.01214599609375,1.02392578125,36.5099983215332,0.0,1.0,2.7116241455078125,-2.834381103515625,Waiting,0.0,0.0,-1253985.0,0.0,0.0,0.0,0.0,0.0,
2.87924,0.0,0.0,8785.0,0.0,0.0,0.0,0.0,0.125,0.798339762,0.01,0.0,-26684.0,0.0,0.0,-0.0,0.0,0.0,0.45288081300000005,0.01,0.0,732.0,0.0,0.0,0.0,0.0,0.125,3.193359048,0.01,0.0,-10959.0,0.0,0.0,-0.0,0.0,0.25,1.643066238,0.01,0.0,-0.47999998927116394,-0.8100000023841858,-0.009999999776482582,-0.013671875,-0.010009765625,1.02386474609375,36.5099983215332,0.0,0.0,2.7116241455078125,-2.834381103515625,Waiting,0.0,0.0,-1253985.0,0.0,0.0,0.0,0.0,0.0,
2.899272999999999,0.0,0.0,8785.0,0.0,0.0,0.0,0.0,0.125,0.798339762,0.01,0.0,-26684.0,0.0,0.0,-0.0,0.0,0.0,0.45288081300000005,0.01,0.0,732.0,0.0,0.0,0.0,0.0,0.125,3.193359048,0.01,0.0,-10959.0,0.0,0.0,-0.0,0.0,0.25,1.643066238,0.01,0.0,-0.49000000953674316,-0.8100000023841858,-0.009999999776482582,-0.01275634765625,-0.00628662109375,1.01904296875,36.5099983215332,0.0,1.0,2.7116241455078125,-2.834381103515625,Waiting,0.0,0.0,-1253985.0,0.0,0.0,0.0,0.0,0.0,
2.9192690000000003,0.0,0.0,8785.0,0.0,0.0,0.0,0.0,0.125,0.799560465,0.01,0.0,-26684.0,0.0,0.0,-0.0,0.0,0.0,0.45288081300000005,0.01,0.0,732.0,0.0,0.0,0.0,0.0,0.125,3.192138345,0.01,0.0,-10959.0,0.0,0.0,-0.0,0.0,0.25,1.643066238,0.01,0.0,-0.49000000953674316,-0.8100000023841858,-0.009999999776482582,-0.01373291015625,-0.00799560546875,1.0224609375,36.5099983215332,0.0,0.0,2.7116241455078125,-2.834381103515625,Waiting,0.0,0.0,-1253985.0,0.0,0.0,0.0,0.0,0.0,
2.9408909999999997,0.0,0.0,8785.0,0.0,0.0,0.0,0.0,0.125,0.798339762,0.01,0.0,-26684.0,0.0,0.0,-0.0,0.0,0.0,0.45288081300000005,0.01,0.0,732.0,0.0,0.0,0.0,0.0,0.125,3.193359048,0.01,0.0,-10959.0,0.0,0.0,-0.0,0.0,0.25,1.644286941,0.01,0.0,-0.49000000953674316,-0.8100000023841858,-0.009999999776482582,-0.01275634765625,-0.008056640625,1.02044677734375,36.5099983215332,0.0,1.0,2.7116241455078125,-2.834381103515625,Waiting,0.0,0.0,-1253985.0,0.0,0.0,0.0,0.0,0.0,
2.958823,0.0,0.0,8785.0,0.0,0.0,0.0,0.0,0.125,0.798339762,0.01,0.0,-26684.0,0.0,0.0,-0.0,0.0,0.0,0.45288081300000005,0.01,0.0,732.0,0.0,0.0,0.0,0.0,0.125,3.193359048,0.01,0.0,-10959.0,0.0,0.0,-0.0,0.0,0.25,1.643066238,0.01,0.0,-0.49000000953674316,-0.8100000023841858,-0.009999999776482582,-0.01397705078125,-0.01092529296875,1.0177001953125,36.5099983215332,0.0,0.0,2.7116241455078125,-2.834381103515625,Waiting,0.0,0.0,-1253985.0,0.0,0.0,0.0,0.0,0.125,
2.9786939999999995,0.0,0.0,8785.0,0.0,0.0,0.0,0.0,0.125,0.799560465,0.01,0.0,-26684.0,0.0,0.0,-0.0,0.0,0.0,0.45166011,0.01,0.0,732.0,0.0,0.0,0.0,0.0,0.125,3.192138345,0.01,0.0,-10959.0,0.0,0.0,-0.0,0.0,0.25,1.644286941,0.01,0.0,-0.49000000953674316,-0.8100000023841858,-0.009999999776482582,-0.0142822265625,-0.00775146484375,1.0216064453125,36.5099983215332,0.0,0.0,2.7116241455078125,-2.834381103515625,Waiting,0.0,0.0,-1253985.0,0.0,0.0,0.0,0.0,0.125,
