Time,ClimberA1,ClimberA2,FRpos,FRCurrent,FRspeed,FRsetpoint,FRApos,FRACurrent,FREncpos,FREncSetpoint,FREncSpeed,FLpos,FLCurrent,FLspeed,FLsetpoint,FLApos,FLACurrent,FLEncpos,FLEncSetpoint,FLEncSpeed,BRpos,BRCurrent,BRspeed,BRsetpoint,BRApos,BRACurrent,BREncpos,BREncSetpoint,BREncSpeed,BLpos,BLCurrent,BLspeed,BLsetpoint,BLApos,BLACurrent,BLEncpos,BLEncSetpoint,BLEncSpeed,navx_Pitch,navx_Roll,navx_Yaw,navx_XAcc,navx_YAcc,navx_ZAcc,navx_Temp,navx_Bar,navx_Alt,navx_XDis,navx_YDis,GearPlacerState,ShootOutputV,ShootOutputCurrent,ShootEncPos,ShootEncVelocity,ShootSpeed,ShootSetpoint,CarouselSetpoint,CarouselCurrent,
0.1698269999999902,0.0,0.0,0.0,0.0,0.0,0.0,0.0,0.0,0.783691326,0.01,0.0,0.0,0.0,0.0,0.0,0.0,0.0,0.399169881,0.01,0.0,0.0,0.0,0.0,0.0,0.0,0.0,3.23486295,0.01,0.0,0.0,0.0,0.0,0.0,0.0,0.125,1.57470687,0.01,0.0,0.05000000074505806,-0.14000000059604645,0.0,-0.00213623046875,-0.00146484375,1.0244140625,26.290000915527344,0.0,0.0,8.85009765625E-4,-0.0010986328125,Waiting,0.0,0.0,1.0,0.0,0.0,0.0,0.0,0.0,
0.22610899999999673,0.0,0.0,0.0,0.0,0.0,0.0,0.0,0.125,0.782470623,0.01,4.9047216229999995,0.0,0.0,0.0,-0.0,0.0,0.0,0.40039058400000005,0.01,-0.03706011900000039,0.0,0.0,0.0,0.0,0.0,0.0,3.23486295,0.01,4.9252629500000005,0.0,0.0,0.0,-0.0,0.0,0.125,1.57470687,0.01,4.931486167,0.05000000074505806,-0.12999999523162842,0.0,-0.00140380859375,0.00213623046875,1.026611328125,26.290000915527344,0.0,1.0,8.85009765625E-4,-0.0010986328125,Waiting,0.0,0.0,1.0,0.0,0.0,0.0,0.0,0.0,
0.24776499999998486,0.0,0.0,0.0,0.0,0.0,0.0,0.0,0.125,0.782470623,0.01,4.9047216229999995,0.0,0.0,0.0,-0.0,0.0,0.0,0.399169881,0.01,-0.03706011900000039,0.0,0.0,0.0,0.0,0.0,0.0,3.236083653,0.01,4.9252629500000005,0.0,0.0,0.0,-0.0,0.0,0.125,1.5795896820000002,0.01,4.931486167,0.05000000074505806,-0.12999999523162842,0.0,-0.0037841796875,0.00244140625,1.0264892578125,26.290000915527344,0.0,-1.0,8.85009765625E-4,-0.0010986328125,Waiting,0.0,0.0,1.0,0.0,0.0,0.0,0.0,0.0,
0.2733849999999802,0.0,0.0,0.0,0.0,0.0,0.0,0.0,0.125,0.782470623,0.01,0.0012207030000004337,0.0,0.0,0.0,-0.0,0.0,0.0,0.399169881,0.01,-0.0012207029999995456,0.0,0.0,0.0,0.0,0.0,0.0,3.23486295,0.01,0.0,0.0,0.0,0.0,-0.0,0.0,0.125,1.57470687,0.01,0.0,0.05000000074505806,-0.12999999523162842,0.0,-0.00274658203125,0.00250244140625,1.02069091796875,26.290000915527344,0.0,0.0,8.85009765625E-4,-0.0010986328125,Waiting,0.0,0.0,1.0,0.0,0.0,0.0,0.0,0.0,
0.3059780000000028,0.0,0.0,0.0,0.0,0.0,0.0,0.0,0.125,0.783691326,0.01,0.0012207030000004337,0.0,0.0,0.0,-0.0,0.0,0.0,0.399169881,0.01,-0.0012207029999995456,0.0,0.0,0.0,0.0,0.0,0.0,3.237304356,0.01,0.0,0.0,0.0,0.0,-0.0,0.0,0.125,1.57470687,0.01,0.0012207029999995456,0.05000000074505806,-0.12999999523162842,0.0,-0.00274658203125,9.1552734375E-4,1.03009033203125,26.290000915527344,0.0,0.0,8.85009765625E-4,-0.0010986328125,Waiting,0.0,0.0,1.0,0.0,0.0,0.0,0.0,0.0,
0.3316729999999807,0.0,0.0,0.0,0.0,0.0,0.0,0.0,0.125,0.783691326,0.01,-0.0012207030000004337,0.0,0.0,0.0,-0.0,0.0,0.0,0.399169881,0.01,0.0012207029999995456,0.0,0.0,0.0,0.0,0.0,0.0,3.23486295,0.01,0.0,0.0,0.0,0.0,-0.0,0.0,0.125,1.573486167,0.01,0.0012207029999995456,0.05000000074505806,-0.12999999523162842,0.0,-0.002197265625,-5.4931640625E-4,1.0224609375,26.290000915527344,0.0,0.0,8.85009765625E-4,-0.0010986328125,Waiting,0.0,0.0,1.0,0.0,0.0,0.0,0.0,0.0,
0.360060999999987,0.0,0.0,0.0,0.0,0.0,0.0,0.0,0.125,0.783691326,0.01,0.0,0.0,0.0,0.0,-0.0,0.0,0.0,0.399169881,0.01,0.0,0.0,0.0,0.0,0.0,0.0,0.0,3.23486295,0.01,0.0,0.0,0.0,0.0,-0.0,0.0,0.125,1.573486167,0.01,-0.0012207029999995456,0.05000000074505806,-0.12999999523162842,0.0,-0.001953125,6.103515625E-4,1.02850341796875,26.290000915527344,0.0,0.0,8.85009765625E-4,-0.0010986328125,Waiting,0.0,0.0,1.0,0.0,0.0,0.0,0.0,0.0,
0.41301499999998487,0.0,0.0,0.0,0.0,0.0,0.0,0.0,0.125,0.782470623,0.01,0.0012207030000004337,0.0,0.0,0.0,-0.0,0.0,0.0,0.40039058400000005,0.01,-0.0012207029999995456,0.0,0.0,0.0,0.0,0.0,0.0,3.23486295,0.01,0.0,0.0,0.0,0.0,-0.0,0.0,0.125,1.57470687,0.01,0.0,0.05000000074505806,-0.12999999523162842,0.0,-0.00274658203125,6.7138671875E-4,1.02752685546875,26.290000915527344,0.0,0.0,8.85009765625E-4,-0.0010986328125,Waiting,0.0,0.0,1.0,0.0,0.0,0.0,0.0,0.0,
0.44004399999999444,0.0,0.0,0.0,0.0,0.0,0.0,0.0,0.125,0.782470623,0.01,0.0012207030000004337,0.0,0.0,0.0,-0.0,0.0,0.0,0.399169881,0.01,-0.0012207029999995456,0.0,0.0,0.0,0.0,0.0,0.0,3.236083653,0.01,0.0,0.0,0.0,0.0,-0.0,0.0,0.125,1.57470687,0.01,0.0,0.05000000074505806,-0.12999999523162842,0.0,-0.002685546875,0.00201416015625,1.022705078125,26.290000915527344,0.0,0.0,8.85009765625E-4,-0.0010986328125,Waiting,0.0,0.0,1.0,0.0,0.0,0.0,0.0,0.0,
0.4695139999999956,0.0,0.0,0.0,0.0,0.0,0.0,0.0,0.125,0.783691326,0.01,0.0,0.0,0.0,0.0,-0.0,0.0,0.0,0.399169881,0.01,0.0012207029999995456,0.0,0.0,0.0,0.0,0.0,0.0,3.23486295,0.01,0.0,0.0,0.0,0.0,-0.0,0.0,0.125,1.5759275730000002,0.01,0.0,0.05000000074505806,-0.12999999523162842,0.0,-0.00469970703125,-0.001220703125,1.02557373046875,26.290000915527344,0.0,-2.0,8.85009765625E-4,-0.0010986328125,Waiting,0.0,0.0,1.0,0.0,0.0,0.0,0.0,0.0,
0.49105199999999605,0.0,0.0,0.0,0.0,0.0,0.0,0.0,0.125,0.783691326,0.01,0.0,0.0,0.0,0.0,-0.0,0.0,0.0,0.399169881,0.01,0.0012207029999995456,0.0,0.0,0.0,0.0,0.0,0.0,3.23486295,0.01,0.0,0.0,0.0,0.0,-0.0,0.0,0.125,1.57470687,0.01,0.0,0.05000000074505806,-0.12999999523162842,0.0,-0.0035400390625,0.00238037109375,1.02435302734375,26.290000915527344,0.0,-1.0,8.85009765625E-4,-0.0010986328125,Waiting,0.0,0.0,1.0,0.0,0.0,0.0,0.0,0.0,
0.518685999999987,0.0,0.0,0.0,0.0,0.0,0.0,0.0,0.125,0.782470623,0.01,-0.0012207030000004337,0.0,0.0,0.0,-0.0,0.0,0.0,0.399169881,0.01,0.0,0.0,0.0,0.0,0.0,0.0,0.0,3.23486295,0.01,0.0,0.0,0.0,0.0,-0.0,0.0,0.125,1.57470687,0.01,0.0,0.05000000074505806,-0.12999999523162842,0.0,-0.00286865234375,5.4931640625E-4,1.0284423828125,26.290000915527344,0.0,0.0,8.85009765625E-4,-0.0010986328125,Waiting,0.0,0.0,1.0,0.0,0.0,0.0,0.0,0.0,
0.5450669999999809,0.0,0.0,0.0,0.0,0.0,0.0,0.0,0.125,0.782470623,0.01,-0.0012207030000004337,0.0,0.0,0.0,-0.0,0.0,0.0,0.399169881,0.01,0.0,0.0,0.0,0.0,0.0,0.0,0.0,3.23486295,0.01,0.0,0.0,0.0,0.0,-0.0,0.0,0.125,1.57470687,0.01,0.0,0.05000000074505806,-0.12999999523162842,0.0,-0.0013427734375,0.00323486328125,1.0252685546875,26.290000915527344,0.0,-1.0,8.85009765625E-4,-0.0010986328125,Waiting,0.0,0.0,1.0,0.0,0.0,0.0,0.0,0.0,
0.5667889999999898,0.0,0.0,0.0,0.0,0.0,0.0,0.0,0.125,0.783691326,0.01,0.0012207030000004337,0.0,0.0,0.0,-0.0,0.0,0.0,0.38940425700000003,0.01,-0.0012207029999995456,0.0,0.0,0.0,0.0,0.0,0.0,3.236083653,0.01,0.0,0.0,0.0,0.0,-0.0,0.0,0.125,1.573486167,0.01,0.0012207029999995456,0.05000000074505806,-0.12999999523162842,0.0,-0.00140380859375,0.0018310546875,1.0299072265625,26.290000915527344,0.0,1.0,8.85009765625E-4,-0.0010986328125,Waiting,0.0,0.0,1.0,0.0,0.0,0.0,0.0,0.0,
0.5913179999999993,0.0,0.0,0.0,0.0,0.0,0.0,0.0,0.125,0.782470623,0.01,0.0012207030000004337,0.0,0.0,0.0,-0.0,0.0,0.0,0.397949178,0.01,-0.0012207029999995456,0.0,0.0,0.0,0.0,0.0,0.0,3.23486295,0.01,0.0,0.0,0.0,0.0,-0.0,0.0,0.125,1.57470687,0.01,0.0012207029999995456,0.05000000074505806,-0.12999999523162842,0.0,-0.00250244140625,4.8828125E-4,1.0269775390625,26.290000915527344,0.0,0.0,8.85009765625E-4,-0.0010986328125,Waiting,0.0,0.0,1.0,0.0,0.0,0.0,0.0,0.0,
0.6262749999999941,0.0,0.0,0.0,0.0,0.0,0.0,0.0,0.125,0.783691326,0.01,0.0,0.0,0.0,0.0,-0.0,0.0,0.0,0.399169881,0.01,0.0,0.0,0.0,0.0,0.0,0.0,0.0,3.236083653,0.01,0.0,0.0,0.0,0.0,-0.0,0.0,0.125,1.57470687,0.01,0.0,0.05000000074505806,-0.12999999523162842,0.0,-6.103515625E-5,0.00213623046875,1.0286865234375,26.290000915527344,0.0,2.0,8.85009765625E-4,-0.0010986328125,Waiting,0.0,0.0,1.0,0.0,0.0,0.0,0.0,0.0,
0.6476089999999968,0.0,0.0,0.0,0.0,0.0,0.0,0.0,0.125,0.783691326,0.01,0.0,0.0,0.0,0.0,-0.0,0.0,0.0,0.399169881,0.01,0.0,0.0,0.0,0.0,0.0,0.0,0.0,3.23486295,0.01,0.0,0.0,0.0,0.0,-0.0,0.0,0.125,1.5783689790000002,0.01,0.0,0.05000000074505806,-0.12999999523162842,0.0,-0.00274658203125,7.9345703125E-4,1.0283203125,26.290000915527344,0.0,2.0,8.85009765625E-4,-0.0010986328125,Waiting,0.0,0.0,1.0,0.0,0.0,0.0,0.0,0.0,
0.6735169999999926,0.0,0.0,0.0,0.0,0.0,0.0,0.0,0.125,0.783691326,0.01,-0.0024414059999999793,0.0,0.0,0.0,-0.0,0.0,0.0,0.399169881,0.01,0.0012207029999995456,0.0,0.0,0.0,0.0,0.0,0.0,3.23486295,0.01,0.0,0.0,0.0,0.0,-0.0,0.0,0.125,1.57470687,0.01,0.0,0.05000000074505806,-0.12999999523162842,0.0,-0.00390625,-0.00177001953125,1.02947998046875,26.290000915527344,0.0,2.0,8.85009765625E-4,-0.0010986328125,Waiting,0.0,0.0,1.0,0.0,0.0,0.0,0.0,0.0,
0.6950699999999779,0.0,0.0,0.0,0.0,0.0,0.0,0.0,0.125,0.795898356,0.01,-0.0024414059999999793,0.0,0.0,0.0,-0.0,0.0,0.0,0.40039058400000005,0.01,0.0012207029999995456,0.0,0.0,0.0,0.0,0.0,0.0,3.236083653,0.01,0.0,0.0,0.0,0.0,-0.0,0.0,0.125,1.57470687,0.01,0.0,0.05000000074505806,-0.12999999523162842,0.0,-0.00115966796875,-0.001953125,1.02203369140625,26.290000915527344,0.0,1.0,8.85009765625E-4,-0.0010986328125,Waiting,0.0,0.0,1.0,0.0,0.0,0.0,0.0,0.0,
0.7274780000000028,0.0,0.0,0.0,0.0,0.0,0.0,0.0,0.125,0.782470623,0.01,0.0012207029999995456,0.0,0.0,0.0,-0.0,0.0,0.0,0.40039058400000005,0.01,-0.0012207029999995456,0.0,0.0,0.0,0.0,0.0,0.0,3.23486295,0.01,0.0,0.0,0.0,0.0,-0.0,0.0,0.125,1.57470687,0.01,0.0,0.05000000074505806,-0.12999999523162842,0.0,-1.220703125E-4,4.2724609375E-4,1.02923583984375,26.290000915527344,0.0,2.0,8.85009765625E-4,-0.0010986328125,Waiting,0.0,0.0,1.0,0.0,0.0,0.0,0.0,0.0,
0.7529089999999851,0.0,0.0,0.0,0.0,0.0,0.0,0.0,0.125,0.783691326,0.01,0.0,0.0,0.0,0.0,-0.0,0.0,0.0,0.399169881,0.01,0.0,0.0,0.0,0.0,0.0,0.0,0.0,3.23486295,0.01,0.0,0.0,0.0,0.0,-0.0,0.0,0.125,1.57470687,0.01,0.0,0.05000000074505806,-0.12999999523162842,0.0,-0.0023193359375,0.00140380859375,1.0252685546875,26.290000915527344,0.0,0.0,8.85009765625E-4,-0.0010986328125,Waiting,0.0,0.0,1.0,0.0,0.0,0.0,0.0,0.0,
0.7891839999999792,0.0,0.0,0.0,0.0,0.0,0.0,0.0,0.125,0.782470623,0.01,0.0,0.0,0.0,0.0,-0.0,0.0,0.0,0.40039058400000005,0.01,0.0,0.0,0.0,0.0,0.0,0.0,0.0,3.23486295,0.01,0.0,0.0,0.0,0.0,-0.0,0.0,0.125,1.57470687,0.01,0.0,0.05000000074505806,-0.12999999523162842,0.0,-0.0029296875,0.001220703125,1.02886962890625,26.290000915527344,0.0,0.0,8.85009765625E-4,-0.0010986328125,Waiting,0.0,0.0,1.0,0.0,0.0,0.0,0.0,0.0,
0.826484999999986,0.0,0.0,0.0,0.0,0.0,0.0,0.0,0.125,0.783691326,0.01,0.0012207030000004337,0.0,0.0,0.0,-0.0,0.0,0.0,0.399169881,0.01,0.0012207029999995456,0.0,0.0,0.0,0.0,0.0,0.0,3.23486295,0.01,0.0,0.0,0.0,0.0,-0.0,0.0,0.125,1.573486167,0.01,-0.0012207029999995456,0.05000000074505806,-0.12999999523162842,0.0,-0.00115966796875,-0.00360107421875,1.0213623046875,26.290000915527344,0.0,1.0,8.85009765625E-4,-0.0010986328125,Waiting,0.0,0.0,1.0,0.0,0.0,0.0,0.0,0.0,
0.8503310000000056,0.0,0.0,0.0,0.0,0.0,0.0,0.0,0.125,0.782470623,0.01,0.0012207030000004337,0.0,0.0,0.0,-0.0,0.0,0.0,0.397949178,0.01,0.0012207029999995456,0.0,0.0,0.0,0.0,0.0,0.0,3.236083653,0.01,0.0,0.0,0.0,0.0,-0.0,0.0,0.125,1.57470687,0.01,0.0,0.05000000074505806,-0.12999999523162842,0.0,-0.00274658203125,-8.544921875E-4,1.02813720703125,26.290000915527344,0.0,0.0,8.85009765625E-4,-0.0010986328125,Waiting,0.0,0.0,1.0,0.0,0.0,0.0,0.0,0.0,
0.8816900000000023,0.0,0.0,0.0,0.0,0.0,0.0,0.0,0.125,0.783691326,0.01,-0.0012207030000004337,0.0,0.0,0.0,-0.0,0.0,0.0,0.399169881,0.01,0.0,0.0,0.0,0.0,0.0,0.0,0.0,3.23486295,0.01,0.0,0.0,0.0,0.0,-0.0,0.0,0.125,1.57470687,0.01,0.0,0.05000000074505806,-0.12999999523162842,0.0,-0.00506591796875,0.0015869140625,1.0262451171875,26.290000915527344,0.0,-2.0,8.85009765625E-4,-0.0010986328125,Waiting,0.0,0.0,1.0,0.0,0.0,0.0,0.0,0.0,
0.9041110000000044,0.0,0.0,0.0,0.0,0.0,0.0,0.0,0.125,0.783691326,0.01,-0.0012207030000004337,0.0,0.0,0.0,-0.0,0.0,0.0,0.40039058400000005,0.01,0.0,0.0,0.0,0.0,0.0,0.0,0.0,3.236083653,0.01,0.0,0.0,0.0,0.0,-0.0,0.0,0.125,1.57470687,0.01,0.0,0.05000000074505806,-0.12999999523162842,0.0,-0.00347900390625,0.0,1.02813720703125,26.290000915527344,0.0,0.0,8.85009765625E-4,-0.0010986328125,Waiting,0.0,0.0,1.0,0.0,0.0,0.0,0.0,0.0,
0.9298279999999796,0.0,0.0,0.0,0.0,0.0,0.0,0.0,0.125,0.784912029,0.01,0.0,0.0,0.0,0.0,-0.0,0.0,0.0,0.40039058400000005,0.01,0.0,0.0,0.0,0.0,0.0,0.0,0.0,3.23486295,0.01,0.0,0.0,0.0,0.0,-0.0,0.0,0.125,1.57470687,0.01,0.0,0.05000000074505806,-0.12999999523162842,0.0,-0.00250244140625,1.220703125E-4,1.029541015625,26.290000915527344,0.0,0.0,8.85009765625E-4,-0.0010986328125,Waiting,0.0,0.0,1.0,0.0,0.0,0.0,0.0,0.0,
0.9517489999999816,0.0,0.0,0.0,0.0,0.0,0.0,0.0,0.125,0.784912029,0.01,0.0,0.0,0.0,0.0,-0.0,0.0,0.0,0.399169881,0.01,0.0,0.0,0.0,0.0,0.0,0.0,0.0,3.23486295,0.01,0.0,0.0,0.0,0.0,-0.0,0.0,0.125,1.57470687,0.01,0.0,0.05000000074505806,-0.12999999523162842,0.0,-0.00286865234375,6.103515625E-4,1.02374267578125,26.290000915527344,0.0,0.0,8.85009765625E-4,-0.0010986328125,Waiting,0.0,0.0,1.0,0.0,0.0,0.0,0.0,0.0,
0.9798089999999793,0.0,0.0,0.0,0.0,0.0,0.0,0.0,0.125,0.782470623,0.01,0.0012207030000004337,0.0,0.0,0.0,-0.0,0.0,0.0,0.40161128700000004,0.01,0.0,0.0,0.0,0.0,0.0,0.0,0.0,3.23486295,0.01,0.0,0.0,0.0,0.0,-0.0,0.0,0.125,1.57470687,0.01,0.0,0.05000000074505806,-0.12999999523162842,0.0,4.2724609375E-4,0.00146484375,1.0240478515625,26.290000915527344,0.0,2.0,8.85009765625E-4,-0.0010986328125,Waiting,0.0,0.0,1.0,0.0,0.0,0.0,0.0,0.0,
0.9988469999999797,0.0,0.0,0.0,0.0,0.0,0.0,0.0,0.125,0.7531737510000001,0.01,0.0012207030000004337,0.0,0.0,0.0,-0.0,0.0,0.0,0.40039058400000005,0.01,0.0,0.0,0.0,0.0,0.0,0.0,0.0,3.23486295,0.01,0.0,0.0,0.0,0.0,-0.0,0.0,0.125,1.57470687,0.01,0.0,0.05000000074505806,-0.12999999523162842,0.0,-0.00311279296875,0.00177001953125,1.02349853515625,26.290000915527344,0.0,0.0,8.85009765625E-4,-0.0010986328125,Waiting,0.0,0.0,1.0,0.0,0.0,0.0,0.0,0.0,
1.0187119999999996,0.0,0.0,0.0,0.0,0.0,0.0,0.0,0.125,0.783691326,0.01,-0.0012207030000004337,0.0,0.0,0.0,-0.0,0.0,0.0,0.399169881,0.01,0.0,0.0,0.0,0.0,0.0,0.0,0.0,3.236083653,0.01,0.0,0.0,0.0,0.0,-0.0,0.0,0.125,1.57470687,0.01,0.0,0.05000000074505806,-0.12999999523162842,0.0,-0.00445556640625,0.003173828125,1.02752685546875,26.290000915527344,0.0,-1.0,8.85009765625E-4,-0.0010986328125,Waiting,0.0,0.0,1.0,0.0,0.0,0.0,0.0,0.0,
1.0453120000000053,0.0,0.0,0.0,0.0,0.0,0.0,0.0,0.125,0.782470623,0.01,-0.0012207030000004337,0.0,0.0,0.0,-0.0,0.0,0.0,0.397949178,0.01,0.0,0.0,0.0,0.0,0.0,0.0,0.0,3.236083653,0.01,0.0,0.0,0.0,0.0,-0.0,0.0,0.125,1.57470687,0.01,0.0,0.05000000074505806,-0.12999999523162842,0.0,-0.0029296875,-0.0010986328125,1.0269775390625,26.290000915527344,0.0,0.0,8.85009765625E-4,-0.0010986328125,Waiting,0.0,0.0,1.0,0.0,0.0,0.0,0.0,0.0,
1.06949099999998,0.0,0.0,0.0,0.0,0.0,0.0,0.0,0.125,0.782470623,0.01,0.0,0.0,0.0,0.0,-0.0,0.0,0.0,0.399169881,0.01,-0.0012207029999995456,0.0,0.0,0.0,0.0,0.0,0.0,3.23486295,0.01,0.0,0.0,0.0,0.0,-0.0,0.0,0.125,1.573486167,0.01,0.0012207029999995456,0.05000000074505806,-0.12999999523162842,0.0,-0.00286865234375,3.0517578125E-4,1.02813720703125,26.290000915527344,0.0,0.0,8.85009765625E-4,-0.0010986328125,Waiting,0.0,0.0,1.0,0.0,0.0,0.0,0.0,0.0,
1.0866209999999847,0.0,0.0,0.0,0.0,0.0,0.0,0.0,0.125,0.782470623,0.01,0.0,0.0,0.0,0.0,-0.0,0.0,0.0,0.399169881,0.01,-0.0012207029999995456,0.0,0.0,0.0,0.0,0.0,0.0,3.23486295,0.01,0.0,0.0,0.0,0.0,-0.0,0.0,0.125,1.57470687,0.01,0.0012207029999995456,0.05000000074505806,-0.12999999523162842,0.0,-0.00262451171875,0.002197265625,1.027099609375,26.290000915527344,0.0,0.0,8.85009765625E-4,-0.0010986328125,Waiting,0.0,0.0,1.0,0.0,0.0,0.0,0.0,0.0,
1.1066630000000004,0.0,0.0,0.0,0.0,0.0,0.0,0.0,0.125,0.782470623,0.01,0.0,0.0,0.0,0.0,-0.0,0.0,0.0,0.399169881,0.01,-0.0012207029999995456,0.0,0.0,0.0,0.0,0.0,0.0,3.236083653,0.01,0.0,0.0,0.0,0.0,-0.0,0.0,0.125,1.57470687,0.01,0.0012207029999995456,0.05000000074505806,-0.12999999523162842,0.0,-0.003662109375,0.0023193359375,1.02203369140625,26.290000915527344,0.0,-1.0,8.85009765625E-4,-0.0010986328125,Waiting,0.0,0.0,1.0,0.0,0.0,0.0,0.0,0.0,
1.1280969999999797,0.0,0.0,0.0,0.0,0.0,0.0,0.0,0.125,0.7788085140000001,0.01,0.0,0.0,0.0,0.0,-0.0,0.0,0.0,0.396728475,0.01,0.0012207029999995456,0.0,0.0,0.0,0.0,0.0,0.0,3.236083653,0.01,0.0,0.0,0.0,0.0,-0.0,0.0,0.125,1.57470687,0.01,-0.0012207029999995456,0.05000000074505806,-0.12999999523162842,0.0,-0.0042724609375,0.00213623046875,1.02557373046875,26.290000915527344,0.0,-1.0,8.85009765625E-4,-0.0010986328125,Waiting,0.0,0.0,1.0,0.0,0.0,0.0,0.0,0.0,
1.1474009999999835,0.0,0.0,0.0,0.0,0.0,0.0,0.0,0.125,0.783691326,0.01,0.0,0.0,0.0,0.0,-0.0,0.0,0.0,0.399169881,0.01,0.0012207029999995456,0.0,0.0,0.0,0.0,0.0,0.0,3.23486295,0.01,0.0,0.0,0.0,0.0,-0.0,0.0,0.125,1.57470687,0.01,-0.0012207029999995456,0.05000000074505806,-0.12999999523162842,0.0,-0.001220703125,-0.001220703125,1.02313232421875,26.290000915527344,0.0,1.0,8.85009765625E-4,-0.0010986328125,Waiting,0.0,0.0,1.0,0.0,0.0,0.0,0.0,0.0,
1.1690859999999812,0.0,0.0,0.0,0.0,0.0,0.0,0.0,0.125,0.782470623,0.01,0.0,0.0,0.0,0.0,-0.0,0.0,0.0,0.40039058400000005,0.01,0.0,0.0,0.0,0.0,0.0,0.0,0.0,3.23486295,0.01,0.0,0.0,0.0,0.0,-0.0,0.0,0.125,1.57470687,0.01,0.0,0.05000000074505806,-0.12999999523162842,0.0,-3.0517578125E-4,-9.765625E-4,1.02911376953125,26.290000915527344,0.0,2.0,8.85009765625E-4,-0.0010986328125,Waiting,0.0,0.0,1.0,0.0,0.0,0.0,0.0,0.0,
1.1873429999999934,0.0,0.0,0.0,0.0,0.0,0.0,0.0,0.125,0.786132732,0.01,0.0,0.0,0.0,0.0,-0.0,0.0,0.0,0.399169881,0.01,0.0,0.0,0.0,0.0,0.0,0.0,0.0,3.23486295,0.01,0.0,0.0,0.0,0.0,-0.0,0.0,0.125,1.57470687,0.01,0.0,0.05000000074505806,-0.12999999523162842,0.0,-0.0018310546875,-2.44140625E-4,1.02972412109375,26.290000915527344,0.0,0.0,8.85009765625E-4,-0.0010986328125,Waiting,0.0,0.0,1.0,0.0,0.0,0.0,0.0,0.0,
1.2074689999999828,0.0,0.0,0.0,0.0,0.0,0.0,0.0,0.125,0.782470623,0.01,0.0,0.0,0.0,0.0,-0.0,0.0,0.0,0.397949178,0.01,0.0,0.0,0.0,0.0,0.0,0.0,0.0,3.23486295,0.01,0.0,0.0,0.0,0.0,-0.0,0.0,0.125,1.5759275730000002,0.01,0.0,0.05000000074505806,-0.12999999523162842,0.0,-0.00152587890625,-6.103515625E-5,1.02630615234375,26.290000915527344,0.0,0.0,8.85009765625E-4,-0.0010986328125,Waiting,0.0,0.0,1.0,0.0,0.0,0.0,0.0,0.0,
1.2308139999999839,0.0,0.0,0.0,0.0,0.0,0.0,0.0,0.125,0.7751464050000001,0.01,0.0,0.0,0.0,0.0,-0.0,0.0,0.0,0.399169881,0.01,0.0,0.0,0.0,0.0,0.0,0.0,0.0,3.236083653,0.01,0.0,0.0,0.0,0.0,-0.0,0.0,0.125,1.573486167,0.01,0.0012207029999995456,0.05000000074505806,-0.12999999523162842,0.0,-0.0028076171875,4.2724609375E-4,1.029052734375,26.290000915527344,0.0,0.0,8.85009765625E-4,-0.0010986328125,Waiting,0.0,0.0,1.0,0.0,0.0,0.0,0.0,0.0,
1.2502999999999884,0.0,0.0,0.0,0.0,0.0,0.0,0.0,0.125,0.783691326,0.01,0.0,0.0,0.0,0.0,-0.0,0.0,0.0,0.399169881,0.01,0.0,0.0,0.0,0.0,0.0,0.0,0.0,3.237304356,0.01,0.0,0.0,0.0,0.0,-0.0,0.0,0.125,1.57470687,0.01,0.0012207029999995456,0.05000000074505806,-0.12999999523162842,0.0,-0.00164794921875,1.220703125E-4,1.02227783203125,26.290000915527344,0.0,0.0,8.85009765625E-4,-0.0010986328125,Waiting,0.0,0.0,1.0,0.0,0.0,0.0,0.0,0.0,
1.2718679999999876,0.0,0.0,0.0,0.0,0.0,0.0,0.0,0.125,0.782470623,0.01,0.0,0.0,0.0,0.0,-0.0,0.0,0.0,0.399169881,0.01,-0.0012207029999995456,0.0,0.0,0.0,0.0,0.0,0.0,3.23486295,0.01,0.0,0.0,0.0,0.0,-0.0,0.0,0.125,1.57470687,0.01,-0.0012207029999995456,0.05000000074505806,-0.12999999523162842,0.0,-9.765625E-4,2.44140625E-4,1.0289306640625,26.290000915527344,0.0,1.0,8.85009765625E-4,-0.0010986328125,Waiting,0.0,0.0,1.0,0.0,0.0,0.0,0.0,0.0,
1.2912219999999797,0.0,0.0,0.0,0.0,0.0,0.0,0.0,0.125,0.783691326,0.01,0.0,0.0,0.0,0.0,-0.0,0.0,0.0,0.399169881,0.01,-0.0012207029999995456,0.0,0.0,0.0,0.0,0.0,0.0,3.236083653,0.01,0.0,0.0,0.0,0.0,-0.0,0.0,0.125,1.572265464,0.01,-0.0012207029999995456,0.05000000074505806,-0.12999999523162842,0.0,-7.9345703125E-4,8.544921875E-4,1.0308837890625,26.290000915527344,0.0,1.0,8.85009765625E-4,-0.0010986328125,Waiting,0.0,0.0,1.0,0.0,0.0,0.0,0.0,0.0,
1.3108940000000002,0.0,0.0,0.0,0.0,0.0,0.0,0.0,0.125,0.783691326,0.01,0.0,0.0,0.0,0.0,-0.0,0.0,0.0,0.40039058400000005,0.01,0.0012207029999995456,0.0,0.0,0.0,0.0,0.0,0.0,3.23486295,0.01,0.0,0.0,0.0,0.0,-0.0,0.0,0.125,1.57470687,0.01,0.0,0.05000000074505806,-0.12999999523162842,0.0,-0.005615234375,0.001220703125,1.025146484375,26.309999465942383,0.0,-3.0,8.85009765625E-4,-0.0010986328125,Waiting,0.0,0.0,1.0,0.0,0.0,0.0,0.0,0.0,
1.3329199999999837,0.0,0.0,0.0,0.0,0.0,0.0,0.0,0.125,0.783691326,0.01,0.0,0.0,0.0,0.0,-0.0,0.0,0.0,0.399169881,0.01,0.0012207029999995456,0.0,0.0,0.0,0.0,0.0,0.0,3.23486295,0.01,0.0,0.0,0.0,0.0,-0.0,0.0,0.125,1.57470687,0.01,0.0,0.05000000074505806,-0.12999999523162842,0.0,-0.00201416015625,-4.8828125E-4,1.03125,26.309999465942383,0.0,0.0,8.85009765625E-4,-0.0010986328125,Waiting,0.0,0.0,1.0,0.0,0.0,0.0,0.0,0.0,
1.354347999999998,0.0,0.0,0.0,0.0,0.0,0.0,0.0,0.125,0.783691326,0.01,0.0,0.0,0.0,0.0,-0.0,0.0,0.0,0.40039058400000005,0.01,0.0012207029999995456,0.0,0.0,0.0,0.0,0.0,0.0,3.236083653,0.01,0.0,0.0,0.0,0.0,-0.0,0.0,0.125,1.57470687,0.01,0.0,0.05000000074505806,-0.12999999523162842,0.0,0.0,0.002197265625,1.0277099609375,26.309999465942383,0.0,2.0,8.85009765625E-4,-0.0010986328125,Waiting,0.0,0.0,1.0,0.0,0.0,0.0,0.0,0.0,
1.3757369999999938,0.0,0.0,0.0,0.0,0.0,0.0,0.0,0.125,0.7629393750000001,0.01,0.0,0.0,0.0,0.0,-0.0,0.0,0.0,0.399169881,0.01,0.0,0.0,0.0,0.0,0.0,0.0,0.0,3.236083653,0.01,0.0,0.0,0.0,0.0,-0.0,0.0,0.125,1.57470687,0.01,0.0,0.05000000074505806,-0.12999999523162842,0.0,-0.0025634765625,0.00225830078125,1.02734375,26.309999465942383,0.0,0.0,8.85009765625E-4,-0.0010986328125,Waiting,0.0,0.0,1.0,0.0,0.0,0.0,0.0,0.0,
1.3952159999999858,0.0,0.0,0.0,0.0,0.0,0.0,0.0,0.125,0.782470623,0.01,0.0,0.0,0.0,0.0,-0.0,0.0,0.0,0.39428706900000005,0.01,0.0,0.0,0.0,0.0,0.0,0.0,0.0,3.236083653,0.01,0.0,0.0,0.0,0.0,-0.0,0.0,0.125,1.573486167,0.01,0.0,0.05000000074505806,-0.12999999523162842,0.0,-0.00115966796875,3.0517578125E-4,1.0244140625,26.309999465942383,0.0,1.0,8.85009765625E-4,-0.0010986328125,Waiting,0.0,0.0,1.0,0.0,0.0,0.0,0.0,0.0,
1.4218919999999926,0.0,0.0,0.0,0.0,0.0,0.0,0.0,0.125,0.786132732,0.01,0.0,0.0,0.0,0.0,-0.0,0.0,0.0,0.399169881,0.01,-0.0012207029999995456,0.0,0.0,0.0,0.0,0.0,0.0,3.23486295,0.01,0.0,0.0,0.0,0.0,-0.0,0.0,0.125,1.573486167,0.01,0.0012207029999995456,0.05000000074505806,-0.12999999523162842,0.0,-0.00299072265625,0.001220703125,1.02471923828125,26.309999465942383,0.0,0.0,8.85009765625E-4,-0.0010986328125,Waiting,0.0,0.0,1.0,0.0,0.0,0.0,0.0,0.0,
1.4427719999999973,0.0,0.0,0.0,0.0,0.0,0.0,0.0,0.125,0.782470623,0.01,0.0,0.0,0.0,0.0,-0.0,0.0,0.0,0.399169881,0.01,-0.0012207029999995456,0.0,0.0,0.0,0.0,0.0,0.0,3.23486295,0.01,0.0,0.0,0.0,0.0,-0.0,0.0,0.125,1.57470687,0.01,0.0012207029999995456,0.05000000074505806,-0.12999999523162842,0.0,-0.004150390625,0.00225830078125,1.02386474609375,26.309999465942383,0.0,-1.0,8.85009765625E-4,-0.0010986328125,Waiting,0.0,0.0,1.0,0.0,0.0,0.0,0.0,0.0,
1.4620659999999917,0.0,0.0,0.0,0.0,0.0,0.0,0.0,0.125,0.782470623,0.01,0.0,0.0,0.0,0.0,-0.0,0.0,0.0,0.397949178,0.01,0.0012207029999995456,0.0,0.0,0.0,0.0,0.0,0.0,3.236083653,0.01,0.0,0.0,0.0,0.0,-0.0,0.0,0.125,1.5759275730000002,0.01,-0.0012207029999995456,0.05000000074505806,-0.12999999523162842,0.0,-0.00689697265625,-3.0517578125E-4,1.02679443359375,26.309999465942383,0.0,-4.0,8.85009765625E-4,-0.0010986328125,Waiting,0.0,0.0,1.0,0.0,0.0,0.0,0.0,0.0,
1.486524999999994,0.0,0.0,0.0,0.0,0.0,0.0,0.0,0.125,0.783691326,0.01,0.0,0.0,0.0,0.0,-0.0,0.0,0.0,0.399169881,0.01,0.0012207029999995456,0.0,0.0,0.0,0.0,0.0,0.0,3.23486295,0.01,0.0,0.0,0.0,0.0,-0.0,0.0,0.125,1.5759275730000002,0.01,-0.0012207029999995456,0.05000000074505806,-0.12999999523162842,0.0,-0.00506591796875,-2.44140625E-4,1.02838134765625,26.309999465942383,0.0,-2.0,8.85009765625E-4,-0.0010986328125,Waiting,0.0,0.0,1.0,0.0,0.0,0.0,0.0,0.0,
1.5049560000000055,0.0,0.0,0.0,0.0,0.0,0.0,0.0,0.125,0.782470623,0.01,0.0,0.0,0.0,0.0,-0.0,0.0,0.0,0.399169881,0.01,0.0012207029999995456,0.0,0.0,0.0,0.0,0.0,0.0,3.23486295,0.01,0.0,0.0,0.0,0.0,-0.0,0.0,0.125,1.57470687,0.01,-0.0012207029999995456,0.05000000074505806,-0.12999999523162842,0.0,-0.00396728515625,-0.00201416015625,1.02996826171875,26.309999465942383,0.0,-1.0,8.85009765625E-4,-0.0010986328125,Waiting,0.0,0.0,1.0,0.0,0.0,0.0,0.0,0.0,
1.5279059999999882,0.0,0.0,0.0,0.0,0.0,0.0,0.0,0.125,0.782470623,0.01,0.0,0.0,0.0,0.0,-0.0,0.0,0.0,0.40039058400000005,0.01,0.0,0.0,0.0,0.0,0.0,0.0,0.0,3.23486295,0.01,0.0,0.0,0.0,0.0,-0.0,0.0,0.125,1.57470687,0.01,0.0,0.05000000074505806,-0.12999999523162842,0.0,-0.0013427734375,0.0037841796875,1.02447509765625,26.309999465942383,0.0,1.0,8.85009765625E-4,-0.0010986328125,Waiting,0.0,0.0,1.0,0.0,0.0,0.0,0.0,0.0,
1.547122000000003,0.0,0.0,0.0,0.0,0.0,0.0,0.0,0.125,0.783691326,0.01,0.0,0.0,0.0,0.0,-0.0,0.0,0.0,0.399169881,0.01,0.0,0.0,0.0,0.0,0.0,0.0,0.0,3.23486295,0.01,0.0,0.0,0.0,0.0,-0.0,0.0,0.125,1.5771482760000002,0.01,0.0,0.05000000074505806,-0.12999999523162842,0.0,-0.001953125,0.0020751953125,1.02899169921875,26.309999465942383,0.0,0.0,8.85009765625E-4,-0.0010986328125,Waiting,0.0,0.0,1.0,0.0,0.0,0.0,0.0,0.0,
1.5674799999999813,0.0,0.0,0.0,0.0,0.0,0.0,0.0,0.125,0.782470623,0.01,0.0,0.0,0.0,0.0,-0.0,0.0,0.0,0.399169881,0.01,-0.0012207029999995456,0.0,0.0,0.0,0.0,0.0,0.0,3.23486295,0.01,0.0,0.0,0.0,0.0,-0.0,0.0,0.125,1.57470687,0.01,0.0012207029999995456,0.05000000074505806,-0.12999999523162842,0.0,-4.8828125E-4,0.00445556640625,1.02655029296875,26.309999465942383,0.0,2.0,8.85009765625E-4,-0.0010986328125,Waiting,0.0,0.0,1.0,0.0,0.0,0.0,0.0,0.0,
1.5876689999999944,0.0,0.0,0.0,0.0,0.0,0.0,0.0,0.125,0.783691326,0.01,0.0,0.0,0.0,0.0,-0.0,0.0,0.0,0.399169881,0.01,-0.0012207029999995456,0.0,0.0,0.0,0.0,0.0,0.0,3.236083653,0.01,0.0,0.0,0.0,0.0,-0.0,0.0,0.125,1.57470687,0.01,0.0012207029999995456,0.05000000074505806,-0.12999999523162842,0.0,-0.0032958984375,4.2724609375E-4,1.02593994140625,26.309999465942383,0.0,0.0,8.85009765625E-4,-0.0010986328125,Waiting,0.0,0.0,1.0,0.0,0.0,0.0,0.0,0.0,
1.6067599999999802,0.0,0.0,0.0,0.0,0.0,0.0,0.0,0.125,0.783691326,0.01,0.0,0.0,0.0,0.0,-0.0,0.0,0.0,0.399169881,0.01,-0.0012207029999995456,0.0,0.0,0.0,0.0,0.0,0.0,3.236083653,0.01,0.0,0.0,0.0,0.0,-0.0,0.0,0.125,1.57470687,0.01,0.0012207029999995456,0.05000000074505806,-0.12999999523162842,0.0,-0.00469970703125,-6.7138671875E-4,1.0274658203125,26.309999465942383,0.0,-2.0,8.85009765625E-4,-0.0010986328125,Waiting,0.0,0.0,1.0,0.0,0.0,0.0,0.0,0.0,
1.6288459999999905,0.0,0.0,0.0,0.0,0.0,0.0,0.0,0.125,0.783691326,0.01,0.0,0.0,0.0,0.0,-0.0,0.0,0.0,0.397949178,0.01,0.0,0.0,0.0,0.0,0.0,0.0,0.0,3.23486295,0.01,0.0,0.0,0.0,0.0,-0.0,0.0,0.125,1.57470687,0.01,-0.0012207029999995456,0.05000000074505806,-0.12999999523162842,0.0,-0.0018310546875,6.103515625E-5,1.02728271484375,26.309999465942383,0.0,0.0,8.85009765625E-4,-0.0010986328125,Waiting,0.0,0.0,1.0,0.0,0.0,0.0,0.0,0.0,
1.6476440000000003,0.0,0.0,0.0,0.0,0.0,0.0,0.0,0.125,0.783691326,0.01,0.0,0.0,0.0,0.0,-0.0,0.0,0.0,0.399169881,0.01,0.0,0.0,0.0,0.0,0.0,0.0,0.0,3.23486295,0.01,0.0,0.0,0.0,0.0,-0.0,0.0,0.125,1.573486167,0.01,-0.0012207029999995456,0.05999999865889549,-0.12999999523162842,0.0,-0.0010986328125,0.003173828125,1.02337646484375,26.309999465942383,0.0,1.0,8.85009765625E-4,-0.0010986328125,Waiting,0.0,0.0,1.0,0.0,0.0,0.0,0.0,0.0,
1.6702099999999918,0.0,0.0,0.0,0.0,0.0,0.0,0.0,0.125,0.786132732,0.01,0.0,0.0,0.0,0.0,-0.0,0.0,0.0,0.399169881,0.01,0.0012207029999995456,0.0,0.0,0.0,0.0,0.0,0.0,3.23486295,0.01,0.0,0.0,0.0,0.0,-0.0,0.0,0.125,1.57470687,0.01,0.0,0.05999999865889549,-0.14000000059604645,0.0,-0.0013427734375,0.00250244140625,1.0235595703125,26.309999465942383,0.0,1.0,8.85009765625E-4,-0.0010986328125,Waiting,0.0,0.0,1.0,0.0,0.0,0.0,0.0,0.0,
1.6874769999999844,0.0,0.0,0.0,0.0,0.0,0.0,0.0,0.125,0.782470623,0.01,0.0,0.0,0.0,0.0,-0.0,0.0,0.0,0.399169881,0.01,0.0012207029999995456,0.0,0.0,0.0,0.0,0.0,0.0,3.23486295,0.01,0.0,0.0,0.0,0.0,-0.0,0.0,0.125,1.57470687,0.01,0.0,0.05999999865889549,-0.12999999523162842,0.0,-0.00244140625,0.0010986328125,1.02911376953125,26.309999465942383,0.0,0.0,8.85009765625E-4,-0.0010986328125,Waiting,0.0,0.0,1.0,0.0,0.0,0.0,0.0,0.0,
1.7054529999999795,0.0,0.0,0.0,0.0,0.0,0.0,0.0,0.125,0.78124992,0.01,0.0,0.0,0.0,0.0,-0.0,0.0,0.0,0.40039058400000005,0.01,0.0012207029999995456,0.0,0.0,0.0,0.0,0.0,0.0,3.23486295,0.01,0.0,0.0,0.0,0.0,-0.0,0.0,0.125,1.57470687,0.01,0.0,0.05999999865889549,-0.12999999523162842,0.0,-0.00244140625,0.0010986328125,1.02911376953125,26.309999465942383,0.0,0.0,8.85009765625E-4,-0.0010986328125,Waiting,0.0,0.0,1.0,0.0,0.0,0.0,0.0,0.0,
1.727994000000006,0.0,0.0,0.0,0.0,0.0,0.0,0.0,0.125,0.782470623,0.01,0.0,0.0,0.0,0.0,-0.0,0.0,0.0,0.399169881,0.01,0.0,0.0,0.0,0.0,0.0,0.0,0.0,3.23486295,0.01,0.0,0.0,0.0,0.0,-0.0,0.0,0.125,1.57470687,0.01,0.0,0.05999999865889549,-0.12999999523162842,0.0,-0.00201416015625,0.00225830078125,1.02593994140625,26.309999465942383,0.0,0.0,8.85009765625E-4,-0.0010986328125,Waiting,0.0,0.0,1.0,0.0,0.0,0.0,0.0,0.0,
1.7472889999999897,0.0,0.0,0.0,0.0,0.0,0.0,0.0,0.125,0.782470623,0.01,0.0,0.0,0.0,0.0,-0.0,0.0,0.0,0.399169881,0.01,0.0,0.0,0.0,0.0,0.0,0.0,0.0,3.236083653,0.01,0.0,0.0,0.0,0.0,-0.0,0.0,0.125,1.57470687,0.01,0.0,0.05999999865889549,-0.12999999523162842,0.0,-3.0517578125E-4,3.0517578125E-4,1.03094482421875,26.309999465942383,0.0,2.0,8.85009765625E-4,-0.0010986328125,Waiting,0.0,0.0,1.0,0.0,0.0,0.0,0.0,0.0,
1.769664999999979,0.0,0.0,0.0,0.0,0.0,0.0,0.0,0.125,0.784912029,0.01,0.0,0.0,0.0,0.0,-0.0,0.0,0.0,0.40283199000000003,0.01,-0.0012207029999995456,0.0,0.0,0.0,0.0,0.0,0.0,3.236083653,0.01,0.0,0.0,0.0,0.0,-0.0,0.0,0.125,1.573486167,0.01,0.0012207029999995456,0.05999999865889549,-0.12999999523162842,0.0,-0.00396728515625,6.103515625E-5,1.01898193359375,26.309999465942383,0.0,-1.0,8.85009765625E-4,-0.0010986328125,Waiting,0.0,0.0,1.0,0.0,0.0,0.0,0.0,0.0,
1.7887969999999913,0.0,0.0,0.0,0.0,0.0,0.0,0.0,0.125,0.783691326,0.01,0.0,0.0,0.0,0.0,-0.0,0.0,0.0,0.399169881,0.01,-0.0012207029999995456,0.0,0.0,0.0,0.0,0.0,0.0,3.236083653,0.01,0.0,0.0,0.0,0.0,-0.0,0.0,0.125,1.57470687,0.01,0.0012207029999995456,0.05999999865889549,-0.12999999523162842,0.0,-0.00396728515625,6.103515625E-5,1.01898193359375,26.309999465942383,0.0,-1.0,8.85009765625E-4,-0.0010986328125,Waiting,0.0,0.0,1.0,0.0,0.0,0.0,0.0,0.0,
1.8089829999999782,0.0,0.0,0.0,0.0,0.0,0.0,0.0,0.125,0.7885741380000001,0.01,0.0,0.0,0.0,0.0,-0.0,0.0,0.0,0.40039058400000005,0.01,-0.0012207029999995456,0.0,0.0,0.0,0.0,0.0,0.0,3.23486295,0.01,0.0,0.0,0.0,0.0,-0.0,0.0,0.125,1.57470687,0.01,-0.0012207029999995456,0.05999999865889549,-0.14000000059604645,0.0,-0.002685546875,5.4931640625E-4,1.025634765625,26.309999465942383,0.0,0.0,8.85009765625E-4,-0.0010986328125,Waiting,0.0,0.0,1.0,0.0,0.0,0.0,0.0,0.0,
1.830277000000002,0.0,0.0,0.0,0.0,0.0,0.0,0.0,0.125,0.783691326,0.01,0.0,0.0,0.0,0.0,-0.0,0.0,0.0,0.40039058400000005,0.01,0.0,0.0,0.0,0.0,0.0,0.0,0.0,3.23486295,0.01,0.0,0.0,0.0,0.0,-0.0,0.0,0.125,1.57470687,0.01,-0.0012207029999995456,0.05999999865889549,-0.14000000059604645,0.0,-0.0025634765625,0.00213623046875,1.02703857421875,26.299999237060547,0.0,0.0,8.85009765625E-4,-0.0010986328125,Waiting,0.0,0.0,1.0,0.0,0.0,0.0,0.0,0.0,
1.8490139999999955,0.0,0.0,0.0,0.0,0.0,0.0,0.0,0.125,0.782470623,0.01,0.0,0.0,0.0,0.0,-0.0,0.0,0.0,0.397949178,0.01,0.0,0.0,0.0,0.0,0.0,0.0,0.0,3.23486295,0.01,0.0,0.0,0.0,0.0,-0.0,0.0,0.125,1.57470687,0.01,-0.0012207029999995456,0.05999999865889549,-0.14000000059604645,0.0,0.001220703125,-2.44140625E-4,1.023681640625,26.299999237060547,0.0,3.0,8.85009765625E-4,-0.0010986328125,Waiting,0.0,0.0,1.0,0.0,0.0,0.0,0.0,0.0,
1.8733530000000027,0.0,0.0,0.0,0.0,0.0,0.0,0.0,0.125,0.782470623,0.01,0.0,0.0,0.0,0.0,-0.0,0.0,0.0,0.399169881,0.01,0.0012207029999995456,0.0,0.0,0.0,0.0,0.0,0.0,3.23486295,0.01,0.0,0.0,0.0,0.0,-0.0,0.0,0.125,1.57470687,0.01,0.0,0.05999999865889549,-0.12999999523162842,0.0,-0.00201416015625,-0.001220703125,1.03009033203125,26.299999237060547,0.0,0.0,8.85009765625E-4,-0.0010986328125,Waiting,0.0,0.0,1.0,0.0,0.0,0.0,0.0,0.0,
1.8919599999999919,0.0,0.0,0.0,0.0,0.0,0.0,0.0,0.125,0.782470623,0.01,0.0,0.0,0.0,0.0,-0.0,0.0,0.0,0.399169881,0.01,0.0012207029999995456,0.0,0.0,0.0,0.0,0.0,0.0,3.23486295,0.01,0.0,0.0,0.0,0.0,-0.0,0.0,0.125,1.5759275730000002,0.01,0.0,0.05999999865889549,-0.14000000059604645,0.0,-0.001953125,3.662109375E-4,1.02337646484375,26.299999237060547,0.0,0.0,8.85009765625E-4,-0.0010986328125,Waiting,0.0,0.0,1.0,0.0,0.0,0.0,0.0,0.0,
1.9113859999999987,0.0,0.0,0.0,0.0,0.0,0.0,0.0,0.125,0.782470623,0.01,0.0,0.0,0.0,0.0,-0.0,0.0,0.0,0.399169881,0.01,-0.0012207029999995456,0.0,0.0,0.0,0.0,0.0,0.0,3.23486295,0.01,0.0,0.0,0.0,0.0,-0.0,0.0,0.125,1.57470687,0.01,0.0012207029999995456,0.05999999865889549,-0.14000000059604645,0.0,-0.0020751953125,0.0020751953125,1.029541015625,26.299999237060547,0.0,0.0,8.85009765625E-4,-0.0010986328125,Waiting,0.0,0.0,1.0,0.0,0.0,0.0,0.0,0.0,
1.9356600000000035,0.0,0.0,0.0,0.0,0.0,0.0,0.0,0.125,0.783691326,0.01,0.0,0.0,0.0,0.0,-0.0,0.0,0.0,0.399169881,0.01,-0.0012207029999995456,0.0,0.0,0.0,0.0,0.0,0.0,3.236083653,0.01,0.0,0.0,0.0,0.0,-0.0,0.0,0.125,1.5759275730000002,0.01,0.0012207029999995456,0.05999999865889549,-0.14000000059604645,0.0,-8.544921875E-4,-2.44140625E-4,1.03070068359375,26.299999237060547,0.0,1.0,8.85009765625E-4,-0.0010986328125,Waiting,0.0,0.0,1.0,0.0,0.0,0.0,0.0,0.0,
1.954176999999996,0.0,0.0,0.0,0.0,0.0,0.0,0.0,0.125,0.783691326,0.01,0.0,0.0,0.0,0.0,-0.0,0.0,0.0,0.399169881,0.01,-0.0012207029999995456,0.0,0.0,0.0,0.0,0.0,0.0,3.23486295,0.01,0.0,0.0,0.0,0.0,-0.0,0.0,0.125,1.57470687,0.01,-0.0012207029999995456,0.05999999865889549,-0.12999999523162842,0.0,-0.00189208984375,-0.00152587890625,1.02587890625,26.299999237060547,0.0,0.0,8.85009765625E-4,-0.0010986328125,Waiting,0.0,0.0,1.0,0.0,0.0,0.0,0.0,0.0,
1.9797449999999954,0.0,0.0,0.0,0.0,0.0,0.0,0.0,0.125,0.782470623,0.01,0.0,0.0,0.0,0.0,-0.0,0.0,0.0,0.399169881,0.01,0.0012207029999995456,0.0,0.0,0.0,0.0,0.0,0.0,3.23486295,0.01,0.0,0.0,0.0,0.0,-0.0,0.0,0.125,1.57470687,0.01,-0.0012207029999995456,0.05999999865889549,-0.12999999523162842,0.0,-0.00311279296875,0.0015869140625,1.02716064453125,26.299999237060547,0.0,0.0,8.85009765625E-4,-0.0010986328125,Waiting,0.0,0.0,1.0,0.0,0.0,0.0,0.0,0.0,
1.9957699999999896,0.0,0.0,0.0,0.0,0.0,0.0,0.0,0.125,0.784912029,0.01,0.0,0.0,0.0,0.0,-0.0,0.0,0.0,0.399169881,0.01,0.0012207029999995456,0.0,0.0,0.0,0.0,0.0,0.0,3.236083653,0.01,0.0,0.0,0.0,0.0,-0.0,0.0,0.125,1.57470687,0.01,-0.0012207029999995456,0.05999999865889549,-0.12999999523162842,0.0,-0.00384521484375,-0.001220703125,1.029052734375,26.299999237060547,0.0,-1.0,8.85009765625E-4,-0.0010986328125,Waiting,0.0,0.0,1.0,0.0,0.0,0.0,0.0,0.0,
2.014829999999987,0.0,0.0,0.0,0.0,0.0,0.0,0.0,0.125,0.7775878110000001,0.01,0.0,0.0,0.0,0.0,-0.0,0.0,0.0,0.399169881,0.01,0.0,0.0,0.0,0.0,0.0,0.0,0.0,3.236083653,0.01,0.0,0.0,0.0,0.0,-0.0,0.0,0.125,1.57470687,0.01,0.0012207029999995456,0.05999999865889549,-0.12999999523162842,0.0,-0.00360107421875,0.0029296875,1.02978515625,26.299999237060547,0.0,-1.0,8.85009765625E-4,-0.0010986328125,Waiting,0.0,0.0,1.0,0.0,0.0,0.0,0.0,0.0,
2.03507699999999,0.0,0.0,0.0,0.0,0.0,0.0,0.0,0.125,0.784912029,0.01,0.0,0.0,0.0,0.0,-0.0,0.0,0.0,0.40039058400000005,0.01,0.0,0.0,0.0,0.0,0.0,0.0,0.0,3.23486295,0.01,0.0,0.0,0.0,0.0,-0.0,0.0,0.125,1.57470687,0.01,0.0012207029999995456,0.05999999865889549,-0.14000000059604645,0.0,-0.0010986328125,0.0025634765625,1.02294921875,26.299999237060547,0.0,1.0,8.85009765625E-4,-0.0010986328125,Waiting,0.0,0.0,1.0,0.0,0.0,0.0,0.0,0.0,
2.053639999999985,0.0,0.0,0.0,0.0,0.0,0.0,0.0,0.125,0.783691326,0.01,0.0,0.0,0.0,0.0,-0.0,0.0,0.0,0.40161128700000004,0.01,0.0,0.0,0.0,0.0,0.0,0.0,0.0,3.23486295,0.01,0.0,0.0,0.0,0.0,-0.0,0.0,0.125,1.57470687,0.01,0.0012207029999995456,0.05999999865889549,-0.12999999523162842,0.0,-0.00372314453125,6.103515625E-4,1.02587890625,26.299999237060547,0.0,-1.0,8.85009765625E-4,-0.0010986328125,Waiting,0.0,0.0,1.0,0.0,0.0,0.0,0.0,0.0,
2.0746359999999986,0.0,0.0,0.0,0.0,0.0,0.0,0.0,0.125,0.786132732,0.01,0.0,0.0,0.0,0.0,-0.0,0.0,0.0,0.399169881,0.01,0.0,0.0,0.0,0.0,0.0,0.0,0.0,3.23486295,0.01,0.0,0.0,0.0,0.0,-0.0,0.0,0.125,1.57470687,0.01,-0.0012207029999995456,0.05999999865889549,-0.14000000059604645,0.0,-0.00238037109375,-7.9345703125E-4,1.0299072265625,26.299999237060547,0.0,0.0,8.85009765625E-4,-0.0010986328125,Waiting,0.0,0.0,1.0,0.0,0.0,0.0,0.0,0.0,
2.0936049999999815,0.0,0.0,0.0,0.0,0.0,0.0,0.0,0.125,0.783691326,0.01,0.0,0.0,0.0,0.0,-0.0,0.0,0.0,0.397949178,0.01,0.0,0.0,0.0,0.0,0.0,0.0,0.0,3.23486295,0.01,0.0,0.0,0.0,0.0,-0.0,0.0,0.125,1.57470687,0.01,-0.0012207029999995456,0.05999999865889549,-0.14000000059604645,0.0,-0.00146484375,-2.44140625E-4,1.02801513671875,26.299999237060547,0.0,1.0,8.85009765625E-4,-0.0010986328125,Waiting,0.0,0.0,1.0,0.0,0.0,0.0,0.0,0.0,
2.1125650000000022,0.0,0.0,0.0,0.0,0.0,0.0,0.0,0.125,0.782470623,0.01,0.0,0.0,0.0,0.0,-0.0,0.0,0.0,0.399169881,0.01,-0.0012207029999995456,0.0,0.0,0.0,0.0,0.0,0.0,3.23486295,0.01,0.0,0.0,0.0,0.0,-0.0,0.0,0.125,1.57470687,0.01,0.0,0.07000000029802322,-0.12999999523162842,0.0,4.8828125E-4,0.00115966796875,1.0250244140625,26.299999237060547,0.0,2.0,8.85009765625E-4,-0.0010986328125,Waiting,0.0,0.0,1.0,0.0,0.0,0.0,0.0,0.0,
2.13732699999999,0.0,0.0,0.0,0.0,0.0,0.0,0.0,0.125,0.782470623,0.01,0.0,0.0,0.0,0.0,-0.0,0.0,0.0,0.399169881,0.01,-0.0012207029999995456,0.0,0.0,0.0,0.0,0.0,0.0,3.236083653,0.01,0.0,0.0,0.0,0.0,-0.0,0.0,0.125,1.57470687,0.01,0.0,0.07000000029802322,-0.12999999523162842,0.0,-0.0013427734375,0.00201416015625,1.0294189453125,26.299999237060547,0.0,1.0,8.85009765625E-4,-0.0010986328125,Waiting,0.0,0.0,1.0,0.0,0.0,0.0,0.0,0.0,
2.1560909999999858,0.0,0.0,0.0,0.0,0.0,0.0,0.0,0.125,0.783691326,0.01,0.0,0.0,0.0,0.0,-0.0,0.0,0.0,0.399169881,0.01,-0.0012207029999995456,0.0,0.0,0.0,0.0,0.0,0.0,3.236083653,0.01,0.0,0.0,0.0,0.0,-0.0,0.0,0.125,1.57470687,0.01,0.0,0.07000000029802322,-0.12999999523162842,0.0,-0.00555419921875,-1.220703125E-4,1.0283203125,26.299999237060547,0.0,-3.0,8.85009765625E-4,-0.0010986328125,Waiting,0.0,0.0,1.0,0.0,0.0,0.0,0.0,0.0,
2.1903439999999827,0.0,0.0,0.0,0.0,0.0,0.0,0.0,0.125,0.783691326,0.01,0.0012207030000004337,0.0,0.0,0.0,-0.0,0.0,0.0,0.399169881,0.01,0.0012207029999995456,0.0,0.0,0.0,0.0,0.0,0.0,3.23486295,0.01,0.0,0.0,0.0,0.0,-0.0,0.0,0.125,1.57470687,0.01,0.0,0.07000000029802322,-0.12999999523162842,0.0,-0.00311279296875,-0.001220703125,1.0269775390625,26.299999237060547,0.0,0.0,8.85009765625E-4,-0.0010986328125,Waiting,0.0,0.0,1.0,0.0,0.0,0.0,0.0,0.0,
2.207152999999991,0.0,0.0,0.0,0.0,0.0,0.0,0.0,0.125,0.783691326,0.01,0.0012207030000004337,0.0,0.0,0.0,-0.0,0.0,0.0,0.40039058400000005,0.01,0.0012207029999995456,0.0,0.0,0.0,0.0,0.0,0.0,3.23486295,0.01,0.0,0.0,0.0,0.0,-0.0,0.0,0.125,1.5759275730000002,0.01,0.0,0.07000000029802322,-0.12999999523162842,0.0,-0.00286865234375,3.0517578125E-4,1.025634765625,26.299999237060547,0.0,0.0,8.85009765625E-4,-0.0010986328125,Waiting,0.0,0.0,1.0,0.0,0.0,0.0,0.0,0.0,
2.227500999999989,0.0,0.0,0.0,0.0,0.0,0.0,0.0,0.125,0.783691326,0.01,-0.0012207030000004337,0.0,0.0,0.0,-0.0,0.0,0.0,0.399169881,0.01,0.0,0.0,0.0,0.0,0.0,0.0,0.0,3.23486295,0.01,0.0,0.0,0.0,0.0,-0.0,0.0,0.125,1.57470687,0.01,0.0,0.07000000029802322,-0.14000000059604645,0.0,-1.8310546875E-4,0.00250244140625,1.02752685546875,26.299999237060547,0.0,2.0,8.85009765625E-4,-0.0010986328125,Waiting,0.0,0.0,1.0,0.0,0.0,0.0,0.0,0.0,
2.2491659999999976,0.0,0.0,0.0,0.0,0.0,0.0,0.0,0.125,0.782470623,0.01,-0.0012207030000004337,0.0,0.0,0.0,-0.0,0.0,0.0,0.399169881,0.01,0.0,0.0,0.0,0.0,0.0,0.0,0.0,3.23486295,0.01,0.0,0.0,0.0,0.0,-0.0,0.0,0.125,1.573486167,0.01,0.0,0.07000000029802322,-0.14000000059604645,0.0,-0.00103759765625,0.00537109375,1.0318603515625,26.299999237060547,0.0,0.0,8.85009765625E-4,-0.0010986328125,Waiting,0.0,0.0,1.0,0.0,0.0,0.0,0.0,0.0,
2.269737999999983,0.0,0.0,0.0,0.0,0.0,0.0,0.0,0.125,0.783691326,0.01,0.0,0.0,0.0,0.0,-0.0,0.0,0.0,0.399169881,0.01,0.0,0.0,0.0,0.0,0.0,0.0,0.0,3.236083653,0.01,0.0,0.0,0.0,0.0,-0.0,0.0,0.125,1.57470687,0.01,0.0012207029999995456,0.07000000029802322,-0.14000000059604645,0.0,-0.00384521484375,0.0,1.02313232421875,26.299999237060547,0.0,-1.0,8.85009765625E-4,-0.0010986328125,Waiting,0.0,0.0,1.0,0.0,0.0,0.0,0.0,0.0,
2.288136999999988,0.0,0.0,0.0,0.0,0.0,0.0,0.0,0.125,0.782470623,0.01,0.0,0.0,0.0,0.0,-0.0,0.0,0.0,0.399169881,0.01,0.0,0.0,0.0,0.0,0.0,0.0,0.0,3.236083653,0.01,0.0,0.0,0.0,0.0,-0.0,0.0,0.125,1.5759275730000002,0.01,0.0012207029999995456,0.07000000029802322,-0.14000000059604645,0.0,-1.220703125E-4,-6.103515625E-4,1.02392578125,26.299999237060547,0.0,2.0,8.85009765625E-4,-0.0010986328125,Waiting,0.0,0.0,1.0,0.0,0.0,0.0,0.0,0.0,
2.305402999999991,0.0,0.0,0.0,0.0,0.0,0.0,0.0,0.125,0.782470623,0.01,0.0,0.0,0.0,0.0,-0.0,0.0,0.0,0.399169881,0.01,0.0,0.0,0.0,0.0,0.0,0.0,0.0,3.236083653,0.01,0.0,0.0,0.0,0.0,-0.0,0.0,0.125,1.57470687,0.01,0.0012207029999995456,0.07000000029802322,-0.14000000059604645,0.0,-0.001708984375,0.00164794921875,1.02691650390625,26.299999237060547,0.0,0.0,8.85009765625E-4,-0.0010986328125,Waiting,0.0,0.0,1.0,0.0,0.0,0.0,0.0,0.0,
2.3263669999999985,0.0,0.0,0.0,0.0,0.0,0.0,0.0,0.125,0.782470623,0.01,0.0012207030000004337,0.0,0.0,0.0,-0.0,0.0,0.0,0.399169881,0.01,0.0,0.0,0.0,0.0,0.0,0.0,0.0,3.23486295,0.01,0.0,0.0,0.0,0.0,-0.0,0.0,0.125,1.5759275730000002,0.01,0.0,0.07000000029802322,-0.12999999523162842,0.0,-0.00653076171875,0.0013427734375,1.0247802734375,26.309999465942383,0.0,-4.0,8.85009765625E-4,-0.0010986328125,Waiting,0.0,0.0,1.0,0.0,0.0,0.0,0.0,0.0,
2.3445380000000005,0.0,0.0,0.0,0.0,0.0,0.0,0.0,0.125,0.783691326,0.01,0.0012207030000004337,0.0,0.0,0.0,-0.0,0.0,0.0,0.399169881,0.01,0.0,0.0,0.0,0.0,0.0,0.0,0.0,3.236083653,0.01,0.0,0.0,0.0,0.0,-0.0,0.0,0.125,1.57470687,0.01,0.0,0.07000000029802322,-0.12999999523162842,0.0,-0.0035400390625,-3.0517578125E-4,1.0247802734375,26.309999465942383,0.0,-1.0,8.85009765625E-4,-0.0010986328125,Waiting,0.0,0.0,1.0,0.0,0.0,0.0,0.0,0.0,
2.360959999999992,0.0,0.0,0.0,0.0,0.0,0.0,0.0,0.125,0.782470623,0.01,0.0012207030000004337,0.0,0.0,0.0,-0.0,0.0,0.0,0.399169881,0.01,0.0,0.0,0.0,0.0,0.0,0.0,0.0,3.23486295,0.01,0.0,0.0,0.0,0.0,-0.0,0.0,0.125,1.571044761,0.01,0.0,0.07000000029802322,-0.14000000059604645,0.0,-0.00238037109375,0.0037841796875,1.02587890625,26.309999465942383,0.0,0.0,8.85009765625E-4,-0.0010986328125,Waiting,0.0,0.0,1.0,0.0,0.0,0.0,0.0,0.0,
2.380532999999996,0.0,0.0,0.0,0.0,0.0,0.0,0.0,0.125,0.783691326,0.01,-0.0012207030000004337,0.0,0.0,0.0,-0.0,0.0,0.0,0.399169881,0.01,-0.0012207029999995456,0.0,0.0,0.0,0.0,0.0,0.0,3.23486295,0.01,0.0,0.0,0.0,0.0,-0.0,0.0,0.125,1.573486167,0.01,0.0,0.07000000029802322,-0.12999999523162842,0.0,-0.0035400390625,-1.220703125E-4,1.024169921875,26.309999465942383,0.0,-1.0,8.85009765625E-4,-0.0010986328125,Waiting,0.0,0.0,1.0,0.0,0.0,0.0,0.0,0.0,
2.400918000000005,0.0,0.0,0.0,0.0,0.0,0.0,0.0,0.125,0.783691326,0.01,-0.0012207030000004337,0.0,0.0,0.0,-0.0,0.0,0.0,0.40039058400000005,0.01,-0.0012207029999995456,0.0,0.0,0.0,0.0,0.0,0.0,3.23486295,0.01,0.0,0.0,0.0,0.0,-0.0,0.0,0.125,1.573486167,0.01,0.0,0.05999999865889549,-0.14000000059604645,0.0,-5.4931640625E-4,0.00177001953125,1.02728271484375,26.309999465942383,0.0,2.0,8.85009765625E-4,-0.0010986328125,Waiting,0.0,0.0,1.0,0.0,0.0,0.0,0.0,0.0,
2.4214579999999843,0.0,0.0,0.0,0.0,0.0,0.0,0.0,0.125,0.783691326,0.01,0.0,0.0,0.0,0.0,-0.0,0.0,0.0,0.397949178,0.01,0.0012207029999995456,0.0,0.0,0.0,0.0,0.0,0.0,3.23486295,0.01,0.0,0.0,0.0,0.0,-0.0,0.0,0.125,1.57470687,0.01,0.0,0.05999999865889549,-0.14000000059604645,0.0,-0.0037841796875,9.765625E-4,1.0240478515625,26.309999465942383,0.0,-1.0,8.85009765625E-4,-0.0010986328125,Waiting,0.0,0.0,1.0,0.0,0.0,0.0,0.0,0.0,
2.4425409999999976,0.0,0.0,0.0,0.0,0.0,0.0,0.0,0.125,0.782470623,0.01,0.0,0.0,0.0,0.0,-0.0,0.0,0.0,0.399169881,0.01,0.0012207029999995456,0.0,0.0,0.0,0.0,0.0,0.0,3.23486295,0.01,0.0,0.0,0.0,0.0,-0.0,0.0,0.125,1.573486167,0.01,0.0,0.05999999865889549,-0.14000000059604645,0.0,-0.00537109375,0.0020751953125,1.0250244140625,26.309999465942383,0.0,-2.0,8.85009765625E-4,-0.0010986328125,Waiting,0.0,0.0,1.0,0.0,0.0,0.0,0.0,0.0,
2.459698000000004,0.0,0.0,0.0,0.0,0.0,0.0,0.0,0.125,0.783691326,0.01,0.0,0.0,0.0,0.0,-0.0,0.0,0.0,0.399169881,0.01,0.0012207029999995456,0.0,0.0,0.0,0.0,0.0,0.0,3.236083653,0.01,0.0,0.0,0.0,0.0,-0.0,0.0,0.125,1.57470687,0.01,0.0,0.05999999865889549,-0.14000000059604645,0.0,-0.0040283203125,0.00274658203125,1.027099609375,26.309999465942383,0.0,-1.0,8.85009765625E-4,-0.0010986328125,Waiting,0.0,0.0,1.0,0.0,0.0,0.0,0.0,0.0,
2.4807489999999817,0.0,0.0,0.0,0.0,0.0,0.0,0.0,0.125,0.783691326,0.01,0.0,0.0,0.0,0.0,-0.0,0.0,0.0,0.399169881,0.01,0.0,0.0,0.0,0.0,0.0,0.0,0.0,3.23486295,0.01,0.0,0.0,0.0,0.0,-0.0,0.0,0.125,1.57470687,0.01,0.0,0.07000000029802322,-0.14000000059604645,0.0,-0.0028076171875,6.103515625E-4,1.0240478515625,26.309999465942383,0.0,0.0,8.85009765625E-4,-0.0010986328125,Waiting,0.0,0.0,1.0,0.0,0.0,0.0,0.0,0.0,
2.4992239999999875,0.0,0.0,0.0,0.0,0.0,0.0,0.0,0.125,0.783691326,0.01,0.0,0.0,0.0,0.0,-0.0,0.0,0.0,0.399169881,0.01,0.0,0.0,0.0,0.0,0.0,0.0,0.0,3.23486295,0.01,0.0,0.0,0.0,0.0,-0.0,0.0,0.125,1.57470687,0.01,0.0,0.07000000029802322,-0.14000000059604645,0.0,-0.00311279296875,1.8310546875E-4,1.03082275390625,26.309999465942383,0.0,0.0,8.85009765625E-4,-0.0010986328125,Waiting,0.0,0.0,1.0,0.0,0.0,0.0,0.0,0.0,
2.521527000000002,0.0,0.0,0.0,0.0,0.0,0.0,0.0,0.125,0.782470623,0.01,0.0,0.0,0.0,0.0,-0.0,0.0,0.0,0.399169881,0.01,0.0,0.0,0.0,0.0,0.0,0.0,0.0,3.233642247,0.01,0.0,0.0,0.0,0.0,-0.0,0.0,0.125,1.573486167,0.01,0.0,0.05999999865889549,-0.14000000059604645,0.0,-0.00445556640625,0.00152587890625,1.02728271484375,26.309999465942383,0.0,-1.0,8.85009765625E-4,-0.0010986328125,Waiting,0.0,0.0,1.0,0.0,0.0,0.0,0.0,0.0,
2.540210999999981,0.0,0.0,0.0,0.0,0.0,0.0,0.0,0.125,0.782470623,0.01,0.0,0.0,0.0,0.0,-0.0,0.0,0.0,0.397949178,0.01,0.0,0.0,0.0,0.0,0.0,0.0,0.0,3.236083653,0.01,0.0,0.0,0.0,0.0,-0.0,0.0,0.125,1.57470687,0.01,0.0,0.07000000029802322,-0.14000000059604645,0.0,-0.0052490234375,0.00213623046875,1.02874755859375,26.309999465942383,0.0,-2.0,8.85009765625E-4,-0.0010986328125,Waiting,0.0,0.0,1.0,0.0,0.0,0.0,0.0,0.0,
2.560237999999983,0.0,0.0,0.0,0.0,0.0,0.0,0.0,0.125,0.783691326,0.01,0.0,0.0,0.0,0.0,-0.0,0.0,0.0,0.40039058400000005,0.01,0.0,0.0,0.0,0.0,0.0,0.0,0.0,3.23486295,0.01,0.0,0.0,0.0,0.0,-0.0,0.0,0.125,1.57470687,0.01,0.0,0.05999999865889549,-0.14000000059604645,0.0,-0.0023193359375,0.00421142578125,1.024169921875,26.309999465942383,0.0,0.0,8.85009765625E-4,-0.0010986328125,Waiting,0.0,0.0,1.0,0.0,0.0,0.0,0.0,0.0,
2.5795139999999956,0.0,0.0,0.0,0.0,0.0,0.0,0.0,0.125,0.783691326,0.01,0.0,0.0,0.0,0.0,-0.0,0.0,0.0,0.399169881,0.01,-0.0012207029999995456,0.0,0.0,0.0,0.0,0.0,0.0,3.236083653,0.01,0.0,0.0,0.0,0.0,-0.0,0.0,0.125,1.57470687,0.01,0.0,0.05999999865889549,-0.14000000059604645,0.0,-0.0023193359375,0.0040283203125,1.02349853515625,26.309999465942383,0.0,0.0,8.85009765625E-4,-0.0010986328125,Waiting,0.0,0.0,1.0,0.0,0.0,0.0,0.0,0.0,
2.6002829999999957,0.0,0.0,0.0,0.0,0.0,0.0,0.0,0.125,0.783691326,0.01,0.0,0.0,0.0,0.0,-0.0,0.0,0.0,0.399169881,0.01,-0.0012207029999995456,0.0,0.0,0.0,0.0,0.0,0.0,3.23486295,0.01,0.0,0.0,0.0,0.0,-0.0,0.0,0.125,1.57470687,0.01,0.0,0.05999999865889549,-0.14000000059604645,0.0,-0.0013427734375,0.003662109375,1.0272216796875,26.309999465942383,0.0,1.0,8.85009765625E-4,-0.0010986328125,Waiting,0.0,0.0,1.0,0.0,0.0,0.0,0.0,0.0,
2.6211110000000044,0.0,0.0,0.0,0.0,0.0,0.0,0.0,0.125,0.782470623,0.01,0.0,0.0,0.0,0.0,-0.0,0.0,0.0,0.40039058400000005,0.01,0.0,0.0,0.0,0.0,0.0,0.0,0.0,3.23486295,0.01,0.0,0.0,0.0,0.0,-0.0,0.0,0.125,1.57470687,0.01,0.0,0.05999999865889549,-0.15000000596046448,-0.009999999776482582,-0.0048828125,0.0023193359375,1.0242919921875,26.309999465942383,0.0,-2.0,8.85009765625E-4,-0.0010986328125,Waiting,0.0,0.0,1.0,0.0,0.0,0.0,0.0,0.0,
2.639739999999991,0.0,0.0,0.0,0.0,0.0,0.0,0.0,0.125,0.782470623,0.01,0.0,0.0,0.0,0.0,-0.0,0.0,0.0,0.399169881,0.01,0.0,0.0,0.0,0.0,0.0,0.0,0.0,3.236083653,0.01,0.0,0.0,0.0,0.0,-0.0,0.0,0.125,1.57470687,0.01,0.0,0.05999999865889549,-0.15000000596046448,-0.009999999776482582,-0.00457763671875,0.00146484375,1.03179931640625,26.309999465942383,0.0,-1.0,8.85009765625E-4,-0.0010986328125,Waiting,0.0,0.0,1.0,0.0,0.0,0.0,0.0,0.0,
2.6600130000000064,0.0,0.0,0.0,0.0,0.0,0.0,0.0,0.125,0.7775878110000001,0.01,0.0,0.0,0.0,0.0,-0.0,0.0,0.0,0.40039058400000005,0.01,0.0,0.0,0.0,0.0,0.0,0.0,0.0,3.236083653,0.01,0.0,0.0,0.0,0.0,-0.0,0.0,0.125,1.57470687,0.01,0.0,0.05999999865889549,-0.15000000596046448,-0.009999999776482582,-0.0015869140625,3.662109375E-4,1.02301025390625,26.309999465942383,0.0,1.0,8.85009765625E-4,-0.0010986328125,Waiting,0.0,0.0,1.0,0.0,0.0,0.0,0.0,0.0,
2.6794049999999987,0.0,0.0,0.0,0.0,0.0,0.0,0.0,0.125,0.782470623,0.01,0.0012207030000004337,0.0,0.0,0.0,-0.0,0.0,0.0,0.397949178,0.01,0.0012207029999995456,0.0,0.0,0.0,0.0,0.0,0.0,3.23486295,0.01,0.0,0.0,0.0,0.0,-0.0,0.0,0.125,1.57470687,0.01,-0.0012207029999995456,0.05999999865889549,-0.15000000596046448,-0.009999999776482582,-0.0010986328125,0.0032958984375,1.0262451171875,26.309999465942383,0.0,0.0,8.85009765625E-4,-0.0010986328125,Waiting,0.0,0.0,1.0,0.0,0.0,0.0,0.0,0.0,
2.699619000000006,0.0,0.0,0.0,0.0,0.0,0.0,0.0,0.125,0.782470623,0.01,0.0012207030000004337,0.0,0.0,0.0,-0.0,0.0,0.0,0.399169881,0.01,0.0012207029999995456,0.0,0.0,0.0,0.0,0.0,0.0,3.236083653,0.01,0.0,0.0,0.0,0.0,-0.0,0.0,0.125,1.57470687,0.01,-0.0012207029999995456,0.05999999865889549,-0.15000000596046448,-0.009999999776482582,-0.00494384765625,9.765625E-4,1.03204345703125,26.309999465942383,0.0,-2.0,8.85009765625E-4,-0.0010986328125,Waiting,0.0,0.0,1.0,0.0,0.0,0.0,0.0,0.0,
2.7209039999999804,0.0,0.0,0.0,0.0,0.0,0.0,0.0,0.125,0.782470623,0.01,-0.0012207030000004337,0.0,0.0,0.0,-0.0,0.0,0.0,0.399169881,0.01,0.0,0.0,0.0,0.0,0.0,0.0,0.0,3.236083653,0.01,0.0,0.0,0.0,0.0,-0.0,0.0,0.125,1.57470687,0.01,0.0,0.05999999865889549,-0.15000000596046448,-0.009999999776482582,-0.0048828125,0.00579833984375,1.02587890625,26.309999465942383,0.0,-2.0,8.85009765625E-4,-0.0010986328125,Waiting,0.0,0.0,1.0,0.0,0.0,0.0,0.0,0.0,
2.738728999999992,0.0,0.0,0.0,0.0,0.0,0.0,0.0,0.125,0.783691326,0.01,-0.0012207030000004337,0.0,0.0,0.0,-0.0,0.0,0.0,0.405273396,0.01,0.0,0.0,0.0,0.0,0.0,0.0,0.0,3.23486295,0.01,0.0,0.0,0.0,0.0,-0.0,0.0,0.125,1.57470687,0.01,0.0,0.05999999865889549,-0.15000000596046448,-0.009999999776482582,-0.00408935546875,0.0,1.029296875,26.309999465942383,0.0,-1.0,8.85009765625E-4,-0.0010986328125,Waiting,0.0,0.0,1.0,0.0,0.0,0.0,0.0,0.0,
2.760298999999999,0.0,0.0,0.0,0.0,0.0,0.0,0.0,0.125,0.782470623,0.01,-0.0012207030000004337,0.0,0.0,0.0,-0.0,0.0,0.0,0.399169881,0.01,0.0,0.0,0.0,0.0,0.0,0.0,0.0,3.236083653,0.01,0.0,0.0,0.0,0.0,-0.0,0.0,0.125,1.57470687,0.01,0.0,0.05999999865889549,-0.15000000596046448,-0.009999999776482582,-0.00445556640625,6.7138671875E-4,1.0264892578125,26.309999465942383,0.0,-1.0,8.85009765625E-4,-0.0010986328125,Waiting,0.0,0.0,1.0,0.0,0.0,0.0,0.0,0.0,
2.7791689999999942,0.0,0.0,0.0,0.0,0.0,0.0,0.0,0.125,0.783691326,0.01,0.0,0.0,0.0,0.0,-0.0,0.0,0.0,0.40039058400000005,0.01,0.0,0.0,0.0,0.0,0.0,0.0,0.0,3.236083653,0.01,0.0,0.0,0.0,0.0,-0.0,0.0,0.125,1.57470687,0.01,0.0012207029999995456,0.05999999865889549,-0.1599999964237213,-0.009999999776482582,-0.003662109375,0.0030517578125,1.02801513671875,26.309999465942383,0.0,0.0,8.85009765625E-4,-0.0010986328125,Waiting,0.0,0.0,1.0,0.0,0.0,0.0,0.0,0.0,
2.7994949999999954,0.0,0.0,0.0,0.0,0.0,0.0,0.0,0.125,0.782470623,0.01,0.0,0.0,0.0,0.0,-0.0,0.0,0.0,0.40039058400000005,0.01,0.0,0.0,0.0,0.0,0.0,0.0,0.0,3.236083653,0.01,0.0,0.0,0.0,0.0,-0.0,0.0,0.125,1.57470687,0.01,0.0012207029999995456,0.05999999865889549,-0.1599999964237213,-0.009999999776482582,-0.0050048828125,9.1552734375E-4,1.0245361328125,26.309999465942383,0.0,-2.0,8.85009765625E-4,-0.0010986328125,Waiting,0.0,0.0,1.0,0.0,0.0,0.0,0.0,0.0,
2.82105799999999,0.0,0.0,0.0,0.0,0.0,0.0,0.0,0.125,0.783691326,0.01,0.0,0.0,0.0,0.0,-0.0,0.0,0.0,0.399169881,0.01,0.0,0.0,0.0,0.0,0.0,0.0,0.0,3.23486295,0.01,0.0,0.0,0.0,0.0,-0.0,0.0,0.125,1.57470687,0.01,0.0,0.05999999865889549,-0.1599999964237213,-0.009999999776482582,-0.0029296875,-2.44140625E-4,1.02667236328125,26.309999465942383,0.0,0.0,8.85009765625E-4,-0.0010986328125,Waiting,0.0,0.0,1.0,0.0,0.0,0.0,0.0,0.0,
2.8397360000000043,0.0,0.0,0.0,0.0,0.0,0.0,0.0,0.125,0.782470623,0.01,0.0,0.0,0.0,0.0,-0.0,0.0,0.0,0.397949178,0.01,0.0,0.0,0.0,0.0,0.0,0.0,0.0,3.23486295,0.01,0.0,0.0,0.0,0.0,-0.0,0.0,0.125,1.573486167,0.01,0.0,0.05999999865889549,-0.1599999964237213,-0.009999999776482582,-0.0035400390625,0.002197265625,1.0247802734375,26.280000686645508,0.0,0.0,8.85009765625E-4,-0.0010986328125,Waiting,0.0,0.0,1.0,0.0,0.0,0.0,0.0,0.0,
2.8601330000000016,0.0,0.0,0.0,0.0,0.0,0.0,0.0,0.125,0.783691326,0.01,0.0,0.0,0.0,0.0,-0.0,0.0,0.0,0.399169881,0.01,0.0,0.0,0.0,0.0,0.0,0.0,0.0,3.236083653,0.01,0.0,0.0,0.0,0.0,-0.0,0.0,0.125,1.572265464,0.01,0.0,0.05999999865889549,-0.1599999964237213,-0.009999999776482582,-0.00262451171875,-4.8828125E-4,1.02301025390625,26.280000686645508,0.0,0.0,8.85009765625E-4,-0.0010986328125,Waiting,0.0,0.0,1.0,0.0,0.0,0.0,0.0,0.0,
2.8800989999999875,0.0,0.0,0.0,0.0,0.0,0.0,0.0,0.125,0.782470623,0.01,0.0,0.0,0.0,0.0,-0.0,0.0,0.0,0.399169881,0.01,-0.0012207029999995456,0.0,0.0,0.0,0.0,0.0,0.0,3.237304356,0.01,0.0,0.0,0.0,0.0,-0.0,0.0,0.125,1.57470687,0.01,-0.0012207029999995456,0.05999999865889549,-0.1599999964237213,-0.009999999776482582,3.0517578125E-4,6.7138671875E-4,1.024169921875,26.280000686645508,0.0,3.0,8.85009765625E-4,-0.0010986328125,Waiting,0.0,0.0,1.0,0.0,0.0,0.0,0.0,0.0,
2.8997219999999797,0.0,0.0,0.0,0.0,0.0,0.0,0.0,0.125,0.783691326,0.01,0.0,0.0,0.0,0.0,-0.0,0.0,0.0,0.40039058400000005,0.01,-0.0012207029999995456,0.0,0.0,0.0,0.0,0.0,0.0,3.236083653,0.01,0.0,0.0,0.0,0.0,-0.0,0.0,0.125,1.57470687,0.01,-0.0012207029999995456,0.05999999865889549,-0.1599999964237213,-0.009999999776482582,-0.00164794921875,-6.103515625E-5,1.026123046875,26.280000686645508,0.0,1.0,8.85009765625E-4,-0.0010986328125,Waiting,0.0,0.0,1.0,0.0,0.0,0.0,0.0,0.0,
2.921048999999999,0.0,0.0,0.0,0.0,0.0,0.0,0.0,0.125,0.782470623,0.01,0.0012207030000004337,0.0,0.0,0.0,-0.0,0.0,0.0,0.399169881,0.01,0.0,0.0,0.0,0.0,0.0,0.0,0.0,3.23486295,0.01,0.0,0.0,0.0,0.0,-0.0,0.0,0.125,1.57470687,0.01,0.0012207029999995456,0.05000000074505806,-0.1599999964237213,-0.009999999776482582,-0.00244140625,-1.8310546875E-4,1.02813720703125,26.280000686645508,0.0,0.0,8.85009765625E-4,-0.0010986328125,Waiting,0.0,0.0,1.0,0.0,0.0,0.0,0.0,0.0,
2.9392999999999883,0.0,0.0,0.0,0.0,0.0,0.0,0.0,0.125,0.784912029,0.01,0.0012207030000004337,0.0,0.0,0.0,-0.0,0.0,0.0,0.399169881,0.01,0.0,0.0,0.0,0.0,0.0,0.0,0.0,3.23486295,0.01,0.0,0.0,0.0,0.0,-0.0,0.0,0.125,1.571044761,0.01,0.0012207029999995456,0.05000000074505806,-0.1599999964237213,-0.009999999776482582,-0.00164794921875,-0.00128173828125,1.0296630859375,26.280000686645508,0.0,1.0,8.85009765625E-4,-0.0010986328125,Waiting,0.0,0.0,1.0,0.0,0.0,0.0,0.0,0.0,
2.9594949999999955,0.0,0.0,0.0,0.0,0.0,0.0,0.0,0.125,0.782470623,0.01,0.0012207030000004337,0.0,0.0,0.0,-0.0,0.0,0.0,0.399169881,0.01,0.0,0.0,0.0,0.0,0.0,0.0,0.0,3.236083653,0.01,0.0,0.0,0.0,0.0,-0.0,0.0,0.125,1.57470687,0.01,0.0012207029999995456,0.05000000074505806,-0.1599999964237213,-0.009999999776482582,-1.8310546875E-4,0.00238037109375,1.0267333984375,26.280000686645508,0.0,2.0,8.85009765625E-4,-0.0010986328125,Waiting,0.0,0.0,1.0,0.0,0.0,0.0,0.0,0.0,
2.9790469999999916,0.0,0.0,0.0,0.0,0.0,0.0,0.0,0.125,0.783691326,0.01,-0.0012207030000004337,0.0,0.0,0.0,-0.0,0.0,0.0,0.40039058400000005,0.01,0.0012207029999995456,0.0,0.0,0.0,0.0,0.0,0.0,3.236083653,0.01,0.0,0.0,0.0,0.0,-0.0,0.0,0.125,1.5759275730000002,0.01,-0.0012207029999995456,0.05000000074505806,-0.1599999964237213,-0.009999999776482582,-0.002685546875,0.00213623046875,1.025634765625,26.280000686645508,0.0,0.0,8.85009765625E-4,-0.0010986328125,Waiting,0.0,0.0,1.0,0.0,0.0,0.0,0.0,0.0,
3.0002369999999936,0.0,0.0,0.0,0.0,0.0,0.0,0.0,0.125,0.782470623,0.01,-0.0012207030000004337,0.0,0.0,0.0,-0.0,0.0,0.0,0.399169881,0.01,0.0012207029999995456,0.0,0.0,0.0,0.0,0.0,0.0,3.236083653,0.01,0.0,0.0,0.0,0.0,-0.0,0.0,0.125,1.573486167,0.01,-0.0012207029999995456,0.05000000074505806,-0.1599999964237213,-0.009999999776482582,-0.00274658203125,-0.00140380859375,1.0247802734375,26.280000686645508,0.0,0.0,8.85009765625E-4,-0.0010986328125,Waiting,0.0,0.0,1.0,0.0,0.0,0.0,0.0,0.0,
3.0202550000000046,0.0,0.0,0.0,0.0,0.0,0.0,0.0,0.125,0.782470623,0.01,0.0,0.0,0.0,0.0,-0.0,0.0,0.0,0.40039058400000005,0.01,0.0,0.0,0.0,0.0,0.0,0.0,0.0,3.23486295,0.01,0.0,0.0,0.0,0.0,-0.0,0.0,0.125,1.57470687,0.01,0.0,0.05000000074505806,-0.1599999964237213,-0.009999999776482582,-0.0029296875,0.00299072265625,1.02545166015625,26.280000686645508,0.0,0.0,8.85009765625E-4,-0.0010986328125,Waiting,0.0,0.0,1.0,0.0,0.0,0.0,0.0,0.0,
3.039701000000001,0.0,0.0,0.0,0.0,0.0,0.0,0.0,0.125,0.782470623,0.01,0.0,0.0,0.0,0.0,-0.0,0.0,0.0,0.399169881,0.01,0.0,0.0,0.0,0.0,0.0,0.0,0.0,3.23486295,0.01,0.0,0.0,0.0,0.0,-0.0,0.0,0.125,1.573486167,0.01,0.0,0.05000000074505806,-0.1599999964237213,-0.009999999776482582,-0.00311279296875,0.00140380859375,1.02398681640625,26.280000686645508,0.0,0.0,8.85009765625E-4,-0.0010986328125,Waiting,0.0,0.0,1.0,0.0,0.0,0.0,0.0,0.0,
3.0596079999999786,0.0,0.0,0.0,0.0,0.0,0.0,0.0,0.125,0.783691326,0.01,0.0,0.0,0.0,0.0,-0.0,0.0,0.0,0.399169881,0.01,0.0,0.0,0.0,0.0,0.0,0.0,0.0,3.236083653,0.01,0.0,0.0,0.0,0.0,-0.0,0.0,0.125,1.57470687,0.01,0.0,0.05999999865889549,-0.1599999964237213,-0.009999999776482582,-0.00250244140625,4.2724609375E-4,1.03118896484375,26.280000686645508,0.0,0.0,8.85009765625E-4,-0.0010986328125,Waiting,0.0,0.0,1.0,0.0,0.0,0.0,0.0,0.0,
3.079566999999981,0.0,0.0,0.0,0.0,0.0,0.0,0.0,0.125,0.783691326,0.01,0.0,0.0,0.0,0.0,-0.0,0.0,0.0,0.399169881,0.01,0.0,0.0,0.0,0.0,0.0,0.0,0.0,3.23486295,0.01,0.0,0.0,0.0,0.0,-0.0,0.0,0.125,1.57470687,0.01,0.0,0.05000000074505806,-0.1599999964237213,-0.009999999776482582,-0.00421142578125,4.8828125E-4,1.0272216796875,26.280000686645508,0.0,-1.0,8.85009765625E-4,-0.0010986328125,Waiting,0.0,0.0,1.0,0.0,0.0,0.0,0.0,0.0,
3.100922999999981,0.0,0.0,0.0,0.0,0.0,0.0,0.0,0.125,0.782470623,0.01,0.0,0.0,0.0,0.0,-0.0,0.0,0.0,0.399169881,0.01,0.0,0.0,0.0,0.0,0.0,0.0,0.0,3.236083653,0.01,0.0,0.0,0.0,0.0,-0.0,0.0,0.125,1.573486167,0.01,0.0,0.05999999865889549,-0.1599999964237213,-0.009999999776482582,-0.00335693359375,4.2724609375E-4,1.0286865234375,26.280000686645508,0.0,0.0,8.85009765625E-4,-0.0010986328125,Waiting,0.0,0.0,1.0,0.0,0.0,0.0,0.0,0.0,
3.1206199999999953,0.0,0.0,0.0,0.0,0.0,0.0,0.0,0.125,0.783691326,0.01,0.0,0.0,0.0,0.0,-0.0,0.0,0.0,0.399169881,0.01,0.0,0.0,0.0,0.0,0.0,0.0,0.0,3.23486295,0.01,0.0,0.0,0.0,0.0,-0.0,0.0,0.125,1.57470687,0.01,0.0,0.05000000074505806,-0.1599999964237213,-0.009999999776482582,-0.001708984375,7.9345703125E-4,1.0242919921875,26.280000686645508,0.0,1.0,8.85009765625E-4,-0.0010986328125,Waiting,0.0,0.0,1.0,0.0,0.0,0.0,0.0,0.0,
3.1397609999999987,0.0,0.0,0.0,0.0,0.0,0.0,0.0,0.125,0.782470623,0.01,0.0,0.0,0.0,0.0,-0.0,0.0,0.0,0.399169881,0.01,0.0,0.0,0.0,0.0,0.0,0.0,0.0,3.240966465,0.01,0.0,0.0,0.0,0.0,-0.0,0.0,0.125,1.57470687,0.01,0.0,0.05000000074505806,-0.1599999964237213,-0.009999999776482582,-0.003173828125,0.00323486328125,1.0283203125,26.280000686645508,0.0,0.0,8.85009765625E-4,-0.0010986328125,Waiting,0.0,0.0,1.0,0.0,0.0,0.0,0.0,0.0,
3.159725999999995,0.0,0.0,0.0,0.0,0.0,0.0,0.0,0.125,0.783691326,0.01,0.0,0.0,0.0,0.0,-0.0,0.0,0.0,0.399169881,0.01,0.0,0.0,0.0,0.0,0.0,0.0,0.0,3.236083653,0.01,0.0,0.0,0.0,0.0,-0.0,0.0,0.125,1.57470687,0.01,0.0,0.05999999865889549,-0.1599999964237213,-0.009999999776482582,-0.002197265625,-8.544921875E-4,1.0299072265625,26.280000686645508,0.0,0.0,8.85009765625E-4,-0.0010986328125,Waiting,0.0,0.0,1.0,0.0,0.0,0.0,0.0,0.0,
