Time,ClimberA1,ClimberA2,FRpos,FRCurrent,FRspeed,FRsetpoint,FRApos,FRACurrent,FREncpos,FREncSetpoint,FREncSpeed,FLpos,FLCurrent,FLspeed,FLsetpoint,FLApos,FLACurrent,FLEncpos,FLEncSetpoint,FLEncSpeed,BRpos,BRCurrent,BRspeed,BRsetpoint,BRApos,BRACurrent,BREncpos,BREncSetpoint,BREncSpeed,BLpos,BLCurrent,BLspeed,BLsetpoint,BLApos,BLACurrent,BLEncpos,BLEncSetpoint,BLEncSpeed,navx_Pitch,navx_Roll,navx_Yaw,navx_XAcc,navx_YAcc,navx_ZAcc,navx_Temp,navx_Bar,navx_Alt,navx_XDis,navx_YDis,GearPlacerState,ShootOutputV,ShootOutputCurrent,ShootEncPos,ShootEncVelocity,ShootSpeed,ShootSetpoint,CarouselSetpoint,CarouselCurrent,
0.09994599999999627,0.0,0.0,6798.0,0.0,0.0,0.0,0.0,0.125,0.798339762,0.01,0.0,-8279.0,0.0,0.0,-0.0,0.0,0.0,0.444335892,0.01,0.0,5934.0,0.0,0.0,0.0,0.0,0.0,3.2714840400000003,0.01,0.0,-6839.0,0.0,0.0,-0.0,0.0,0.25,1.5759275730000002,0.01,0.0,0.05000000074505806,-1.2300000190734863,0.0,-0.01904296875,8.544921875E-4,1.02349853515625,36.619998931884766,0.0,2.0,-1.258636474609375,-0.2667694091796875,Waiting,0.0,0.0,-357940.0,0.0,0.0,0.0,0.0,0.0,
0.23448199999984354,0.0,0.0,6798.0,0.0,0.0,0.0,0.0,0.125,0.799560465,0.01,0.0,-8279.0,0.0,0.0,-0.0,0.0,0.0,0.443115189,0.01,0.0,5934.0,0.0,0.0,0.0,0.0,0.0,3.2714840400000003,0.01,0.0,-6839.0,0.0,0.0,-0.0,0.0,0.25,1.5759275730000002,0.01,0.0,0.05000000074505806,-1.2300000190734863,0.0,-0.02374267578125,0.00146484375,1.01953125,36.619998931884766,0.0,-1.0,-1.258636474609375,-0.2667694091796875,Waiting,0.0,0.0,-357940.0,0.0,0.0,0.0,0.0,0.0,
0.3717949999999255,0.0,0.0,6798.0,0.0,0.0,0.0,0.0,0.125,0.798339762,0.01,0.0,-8279.0,0.0,0.0,-0.0,0.0,0.0,0.443115189,0.01,0.0,5934.0,0.0,0.0,0.0,0.0,0.0,3.2702633370000003,0.01,0.0,-6839.0,0.0,0.0,-0.0,0.0,0.25,1.5759275730000002,0.01,0.0,0.05000000074505806,-1.2300000190734863,0.0,-0.02069091796875,3.0517578125E-4,1.02239990234375,36.619998931884766,0.0,1.0,-1.258636474609375,-0.2667694091796875,Waiting,0.0,0.0,-357940.0,0.0,0.0,0.0,0.0,0.0,
0.5117140000001528,0.0,0.0,6798.0,0.0,0.0,0.0,0.0,0.125,0.798339762,0.01,0.0,-8279.0,0.0,0.0,-0.0,0.0,0.0,0.443115189,0.01,0.0,5934.0,0.0,0.0,0.0,0.0,0.0,3.2714840400000003,0.01,0.0,-6839.0,0.0,0.0,-0.0,0.0,0.25,1.5759275730000002,0.01,0.0,0.05000000074505806,-1.2300000190734863,0.0,-0.02093505859375,0.00225830078125,1.02032470703125,36.619998931884766,0.0,1.0,-1.258636474609375,-0.2667694091796875,Waiting,0.0,0.0,-357940.0,0.0,0.0,0.0,0.0,0.0,
0.6509520000000484,0.0,0.0,6798.0,0.0,0.0,0.0,0.0,0.125,0.798339762,0.01,0.0,-8279.0,0.0,0.0,-0.0,0.0,0.0,0.443115189,0.01,0.0,5934.0,0.0,0.0,0.0,0.0,0.0,3.2702633370000003,0.01,0.0,-6839.0,0.0,0.0,-0.0,0.0,0.25,1.57470687,0.01,0.0,0.029999999329447746,-1.25,0.0,-0.0322265625,0.00677490234375,0.98345947265625,36.63999938964844,0.0,-10.0,-1.2586822509765625,-0.2667694091796875,Waiting,-10.3,69.75,-357946.0,-1.0,-172.5,-1650.0,0.0,0.0,
0.7972420000000857,0.0,0.0,6798.0,0.0,0.0,0.0,0.0,0.125,0.799560465,0.01,0.0,-8279.0,0.0,0.0,-0.0,0.0,0.0,0.444335892,0.01,0.0,5934.0,0.0,0.0,0.0,0.0,0.0,3.2702633370000003,0.01,0.0,-6839.0,0.0,0.0,-0.0,0.0,0.25,1.57470687,0.01,0.0,-0.009999999776482582,-1.2699999809265137,0.0,-0.0382080078125,-0.03814697265625,0.88037109375,36.63999938964844,0.0,-18.0,-1.259033203125,-0.2671356201171875,Waiting,-10.350000000000001,63.0,-358006.0,-41.0,-660.0,-1650.0,0.0,0.0,
0.9502910000002012,0.0,0.0,6798.0,0.0,0.0,0.0,0.0,0.125,0.798339762,0.01,0.0,-8279.0,0.0,0.0,-0.0,0.0,0.0,0.443115189,0.01,0.0,5934.0,0.0,0.0,0.0,0.0,0.0,3.2714840400000003,0.01,0.0,-6839.0,0.0,0.0,-0.0,0.0,0.25,1.57470687,0.01,0.0,0.0,-1.2400000095367432,0.0,-0.03387451171875,0.05035400390625,1.00543212890625,36.63999938964844,0.0,-11.0,-1.258636474609375,-0.267578125,Waiting,-10.600000000000001,58.375,-358306.0,-139.0,-1087.5,-1650.0,0.0,0.0,
1.0895299999997952,0.0,0.0,6798.0,0.0,0.0,0.0,0.0,0.125,0.798339762,0.01,0.0,-8279.0,0.0,0.0,-0.0,0.0,0.0,0.444335892,0.01,0.0,5934.0,0.0,0.0,0.0,0.0,0.0,3.2714840400000003,0.01,0.0,-6839.0,0.0,0.0,-0.0,0.0,0.25,1.5759275730000002,0.01,0.0,0.05999999865889549,-1.2200000286102295,0.0,-0.1435546875,-0.05438232421875,0.646728515625,36.63999938964844,0.0,-129.0,-1.2576751708984375,-0.267120361328125,Waiting,-9.866471163245356,47.25,-358533.0,-181.0,-1410.0,-1650.0,0.0,0.0,
1.2351310000000522,0.0,0.0,6798.0,0.0,0.0,0.0,0.0,0.125,0.797119059,0.01,0.0,-8279.0,0.0,0.0,-0.0,0.0,0.0,0.443115189,0.01,0.0,5934.0,0.0,0.0,0.0,0.0,0.0,3.2714840400000003,0.01,0.0,-6839.0,0.0,0.0,-0.0,0.0,0.25,1.571044761,0.01,0.0,-0.07999999821186066,-1.2999999523162842,0.0,-0.093994140625,-0.0947265625,0.9317626953125,36.619998931884766,0.0,-72.0,-1.2551422119140625,-0.2703399658203125,Waiting,-6.032649071358749,9.875,-358797.0,-215.0,-1702.5,-1650.0,0.0,0.0,
1.393717999999877,0.0,0.0,6798.0,0.0,0.0,0.0,0.0,0.125,0.799560465,0.01,0.0,-8279.0,0.0,0.0,-0.0,0.0,0.0,0.443115189,0.01,0.0,5934.0,0.0,0.0,0.0,0.0,0.0,3.2714840400000003,0.01,0.0,-6839.0,0.0,0.0,-0.0,0.0,0.25,1.5759275730000002,0.01,0.0,-0.019999999552965164,-1.2400000095367432,0.0,0.05169677734375,-0.015625,0.926513671875,36.619998931884766,0.0,71.0,-1.250091552734375,-0.2771759033203125,Waiting,-5.1669599217986315,4.625,-359078.0,-231.0,-1755.0,-1650.0,0.0,0.0,
1.5434330000001937,0.0,0.0,6798.0,0.0,0.0,0.0,0.0,0.125,0.799560465,0.01,0.0,-8279.0,0.0,0.0,-0.0,0.0,0.0,0.443115189,0.01,0.0,5934.0,0.0,0.0,0.0,0.0,0.0,3.2714840400000003,0.01,0.0,-6839.0,0.0,0.0,-0.0,0.0,0.25,1.5759275730000002,0.01,0.0,0.0,-1.25,0.0,-0.01373291015625,0.01531982421875,1.18408203125,36.619998931884766,0.0,12.0,-1.2449188232421875,-0.2887420654296875,Waiting,-5.13939393939394,4.375,-359637.0,-233.0,-1747.5,-1650.0,0.0,0.0,
1.6918700000001117,0.0,0.0,6798.0,0.0,0.0,0.0,0.0,0.125,0.798339762,0.01,0.0,-8279.0,0.0,0.0,-0.0,0.0,0.0,0.443115189,0.01,0.0,5934.0,0.0,0.0,0.0,0.0,0.0,3.2702633370000003,0.01,0.0,-6839.0,0.0,0.0,-0.0,0.0,0.25,1.5759275730000002,0.01,0.0,0.0,-1.2799999713897705,0.0,0.0079345703125,-0.037353515625,0.95355224609375,36.63999938964844,0.0,29.0,-1.24456787109375,-0.28839111328125,Waiting,-5.0824535679374385,4.125,-359916.0,-232.0,-1740.0,-1650.0,0.7,3.0,
1.846848000000231,0.0,0.0,6798.0,0.0,0.0,0.0,0.0,0.125,0.794677653,0.01,0.0,-8279.0,0.0,0.0,-0.0,0.0,0.0,0.443115189,0.01,0.0,5934.0,0.0,0.0,0.0,0.0,0.0,3.276366852,0.01,0.0,-6839.0,0.0,0.0,-0.0,0.0,0.25,1.57470687,0.01,0.0,-0.07999999821186066,-1.3200000524520874,0.0,0.00726318359375,0.07086181640625,1.23773193359375,36.63999938964844,0.0,35.0,-1.2423248291015625,-0.2882537841796875,Waiting,-5.158064516129033,4.375,-360193.0,-231.0,-1725.0,-1650.0,0.7,4.875,
1.9968050000001676,0.0,0.0,6798.0,0.0,0.0,0.0,0.0,0.125,0.798339762,0.01,0.0,-8279.0,0.0,0.0,-0.0,0.0,0.0,0.443115189,0.01,0.0,5934.0,0.0,0.0,0.0,0.0,0.0,3.2714840400000003,0.01,0.0,-6839.0,0.0,0.0,-0.0,0.0,0.25,1.5759275730000002,0.01,0.0,0.09000000357627869,-1.2000000476837158,0.0,-0.02447509765625,0.01190185546875,1.10101318359375,36.63999938964844,0.0,-1.0,-1.241180419921875,-0.27734375,Waiting,-5.1280547409579675,4.5,-360469.0,-230.0,-1717.5,-1650.0,0.7,6.875,
2.1510819999999367,0.0,0.0,6798.0,0.0,0.0,0.0,0.0,0.125,0.798339762,0.01,0.0,-8279.0,0.0,0.0,-0.0,0.0,0.0,0.443115189,0.01,0.0,5934.0,0.0,0.0,0.0,0.0,0.0,3.2714840400000003,0.01,0.0,-6839.0,0.0,0.0,-0.0,0.0,0.25,1.5759275730000002,0.01,0.0,0.10999999940395355,-1.2100000381469727,0.0,0.04425048828125,-0.17169189453125,1.0810546875,36.630001068115234,0.0,67.0,-1.242706298828125,-0.2633056640625,Waiting,-5.13998044965787,4.5,-361018.0,-228.0,-1710.0,-1650.0,0.7,7.5,
2.306933999999892,0.0,0.0,6798.0,0.0,0.0,0.0,0.0,0.125,0.799560465,0.01,0.0,-8279.0,0.0,0.0,-0.0,0.0,0.0,0.443115189,0.01,0.0,5934.0,0.0,0.0,0.0,0.0,0.0,3.2702633370000003,0.01,0.0,-6839.0,0.0,0.0,-0.0,0.0,0.25,1.5759275730000002,0.01,0.0,0.18000000715255737,-1.0700000524520874,-0.019999999552965164,0.0655517578125,0.10296630859375,1.2972412109375,36.630001068115234,0.0,89.0,-1.243743896484375,-0.2575836181640625,Waiting,-5.196969696969697,4.875,-361291.0,-226.0,-1702.5,-1650.0,0.7,3.75,
2.4625079999999144,0.0,0.0,6798.0,0.0,0.0,0.0,0.0,0.125,0.798339762,0.01,0.0,-8279.0,0.0,0.0,-0.0,0.0,0.0,0.443115189,0.01,0.0,5934.0,0.0,0.0,0.0,0.0,0.0,3.2702633370000003,0.01,0.0,-6839.0,0.0,0.0,-0.0,0.0,0.25,1.5759275730000002,0.01,0.0,0.17000000178813934,-1.0099999904632568,-0.019999999552965164,0.00274658203125,-0.02459716796875,1.06304931640625,36.630001068115234,0.0,21.0,-1.2392578125,-0.24658203125,Waiting,-5.121994134897361,4.375,-361564.0,-227.0,-1702.5,-1650.0,0.7,4.75,
2.609152999999933,0.0,0.0,6798.0,0.0,0.0,0.0,0.0,0.125,0.798339762,0.01,0.0,-8279.0,0.0,0.0,-0.0,0.0,0.0,0.443115189,0.01,0.0,5934.0,0.0,0.0,0.0,0.0,0.0,3.2714840400000003,0.01,0.0,-6839.0,0.0,0.0,-0.0,0.0,0.25,1.5759275730000002,0.01,0.0,0.019999999552965164,-1.1100000143051147,-0.009999999776482582,-0.038818359375,-0.025634765625,1.04083251953125,36.630001068115234,0.0,-18.0,-1.228790283203125,-0.2444915771484375,Waiting,-5.170087976539589,4.5,-361836.0,-227.0,-1695.0,-1650.0,0.7,5.5,
2.7536830000001937,0.0,0.0,6798.0,0.0,0.0,0.0,0.0,0.125,0.799560465,0.01,0.0,-8279.0,0.0,0.0,-0.0,0.0,0.0,0.443115189,0.01,0.0,5934.0,0.0,0.0,0.0,0.0,0.0,3.2702633370000003,0.01,0.0,-6839.0,0.0,0.0,-0.0,0.0,0.25,1.5759275730000002,0.01,0.0,-0.019999999552965164,-1.1399999856948853,0.0,0.04412841796875,-0.019775390625,1.10205078125,36.61000061035156,0.0,66.0,-1.2277679443359375,-0.248748779296875,Waiting,-5.230205278592376,4.625,-362380.0,-226.0,-1687.5,-1650.0,0.7,5.0,
2.89818200000003,0.0,0.0,6798.0,0.0,0.0,0.0,0.0,0.125,0.798339762,0.01,0.0,-8279.0,0.0,0.0,-0.0,0.0,0.0,0.44189448600000003,0.01,0.0,5934.0,0.0,0.0,0.0,0.0,0.0,3.2714840400000003,0.01,0.0,-6839.0,0.0,0.0,-0.0,0.0,0.25,1.5759275730000002,0.01,0.0,0.009999999776482582,-1.1100000143051147,0.0,-0.00531005859375,-0.03094482421875,1.12091064453125,36.61000061035156,0.0,16.0,-1.22802734375,-0.2550811767578125,Waiting,-8.486217008797654,21.375,-362620.0,-205.0,-1492.5,-1650.0,0.7,5.0,
3.0467999999998137,0.0,0.0,6798.0,0.0,0.0,0.0,0.0,0.125,0.798339762,0.01,0.0,-8279.0,0.0,0.0,-0.0,0.0,0.0,0.443115189,0.01,0.0,5934.0,0.0,0.0,0.0,0.0,0.0,3.2714840400000003,0.01,0.0,-6839.0,0.0,0.0,-0.0,0.0,0.25,1.57470687,0.01,0.0,0.029999999329447746,-1.159999966621399,0.0,0.0286865234375,0.072509765625,1.28094482421875,36.61000061035156,0.0,54.0,-1.228057861328125,-0.2620086669921875,Waiting,-6.332551319648094,12.25,-362874.0,-208.0,-1620.0,-1650.0,0.7,5.0,
3.187024000000209,0.0,0.0,6798.0,0.0,0.0,0.0,0.0,0.125,0.799560465,0.01,0.0,-8279.0,0.0,0.0,-0.0,0.0,0.0,0.443115189,0.01,0.0,5934.0,0.0,0.0,0.0,0.0,0.0,3.2702633370000003,0.01,0.0,-6839.0,0.0,0.0,-0.0,0.0,0.25,1.5759275730000002,0.01,0.0,0.07000000029802322,-1.149999976158142,0.0,0.0245361328125,0.07293701171875,1.105712890625,36.619998931884766,0.0,46.0,-1.228485107421875,-0.2639923095703125,Waiting,-5.546480938416423,6.25,-363142.0,-221.0,-1680.0,-1650.0,0.7,3.875,
3.3295070000002163,0.0,0.0,6798.0,0.0,0.0,0.0,0.0,0.125,0.809326089,0.01,0.0,-8279.0,0.0,0.0,-0.0,0.0,0.0,0.444335892,0.01,0.0,5934.0,0.0,0.0,0.0,0.0,0.0,3.2714840400000003,0.01,0.0,-6839.0,0.0,0.0,-0.0,0.0,0.25,1.57470687,0.01,0.0,0.07000000029802322,-1.1200000047683716,-0.009999999776482582,0.04583740234375,0.01995849609375,0.828125,36.619998931884766,0.0,62.0,-1.2257080078125,-0.26043701171875,Waiting,-7.352394916911046,11.875,-363413.0,-225.0,-1590.0,-1650.0,0.7,4.75,
3.470373999999836,0.0,0.0,6798.0,0.0,0.0,0.0,0.0,0.125,0.794677653,0.01,0.0,-8279.0,0.0,0.0,-0.0,0.0,0.0,0.443115189,0.01,0.0,5934.0,0.0,0.0,0.0,0.0,0.0,3.2714840400000003,0.01,0.0,-6839.0,0.0,0.0,-0.0,0.0,0.25,1.573486167,0.01,0.0,0.03999999910593033,-1.1299999952316284,-0.009999999776482582,-0.0518798828125,-0.00604248046875,1.1004638671875,36.619998931884766,0.0,-30.0,-1.2223663330078125,-0.25958251953125,Waiting,-7.2245845552297165,18.375,-363916.0,-210.0,-1590.0,-1650.0,0.7,4.75,
3.611185000000056,0.0,0.0,6798.0,0.0,0.0,0.0,0.0,0.125,0.795898356,0.01,0.0,-8279.0,0.0,0.0,-0.0,0.0,0.0,0.443115189,0.01,0.0,5934.0,0.0,0.0,0.0,0.0,0.0,3.2714840400000003,0.01,0.0,-6839.0,0.0,0.0,-0.0,0.0,0.25,1.57470687,0.01,0.0,0.009999999776482582,-1.2200000286102295,0.0,0.07012939453125,0.046142578125,1.12689208984375,36.619998931884766,0.0,94.0,-1.21990966796875,-0.26763916015625,Waiting,-5.712756598240469,7.25,-364187.0,-223.0,-1680.0,-1650.0,0.7,3.5,
3.7477700000000187,0.0,0.0,6798.0,0.0,0.0,0.0,0.0,0.125,0.798339762,0.01,0.0,-8279.0,0.0,0.0,-0.0,0.0,0.0,0.438232377,0.01,0.0,5934.0,0.0,0.0,0.0,0.0,0.0,3.2714840400000003,0.01,0.0,-6839.0,0.0,0.0,-0.0,0.0,0.25,1.5759275730000002,0.01,0.0,0.14000000059604645,-1.059999942779541,0.0,-0.088623046875,0.049560546875,0.691162109375,36.61000061035156,0.0,-75.0,-1.212554931640625,-0.270904541015625,Waiting,-5.831622678396872,6.625,-364457.0,-226.0,-1680.0,-1650.0,0.7,3.625,
3.890723999999929,0.0,0.0,6798.0,0.0,0.0,0.0,0.0,0.125,0.799560465,0.01,0.0,-8279.0,0.0,0.0,-0.0,0.0,0.0,0.44189448600000003,0.01,0.0,5934.0,0.0,0.0,0.0,0.0,0.0,3.2702633370000003,0.01,0.0,-6839.0,0.0,0.0,-0.0,0.0,0.25,1.5759275730000002,0.01,0.0,0.10999999940395355,-1.100000023841858,0.0,0.0289306640625,-0.0740966796875,0.91796875,36.61000061035156,0.0,46.0,-1.2066192626953125,-0.2701873779296875,Waiting,-7.876832844574781,20.375,-364705.0,-209.0,-1552.5,-1650.0,0.7,3.375,
4.033029999999795,0.0,0.0,6798.0,0.0,0.0,0.0,0.0,0.125,0.799560465,0.01,0.0,-8279.0,0.0,0.0,-0.0,0.0,0.0,0.443115189,0.01,0.0,5934.0,0.0,0.0,0.0,0.0,0.0,3.2702633370000003,0.01,0.0,-6839.0,0.0,0.0,-0.0,0.0,0.25,1.57470687,0.01,0.0,0.05999999865889549,-1.1299999952316284,0.0,-0.0125732421875,0.20611572265625,0.982666015625,36.61000061035156,0.0,6.0,-1.20843505859375,-0.26995849609375,Waiting,-5.826539589442817,9.625,-364963.0,-212.0,-1672.5,-1650.0,0.7,3.0,
4.174118999999948,0.0,0.0,6798.0,0.0,0.0,0.0,0.0,0.125,0.798339762,0.01,0.0,-8279.0,0.0,0.0,-0.0,0.0,0.0,0.443115189,0.01,0.0,5934.0,0.0,0.0,0.0,0.0,0.0,3.2702633370000003,0.01,0.0,-6839.0,0.0,0.0,-0.0,0.0,0.25,1.57470687,0.01,0.0,0.12999999523162842,-1.159999966621399,-0.009999999776482582,0.1104736328125,-0.09393310546875,1.76953125,36.599998474121094,0.0,146.0,-1.20916748046875,-0.2597503662109375,Waiting,-6.318475073313783,9.125,-365489.0,-217.0,-1650.0,-1650.0,0.7,3.0,
4.314015999999828,0.0,0.0,6798.0,0.0,0.0,0.0,0.0,0.125,0.798339762,0.01,0.0,-8279.0,0.0,0.0,-0.0,0.0,0.0,0.443115189,0.01,0.0,5934.0,0.0,0.0,0.0,0.0,0.0,3.2727047430000002,0.01,0.0,-6839.0,0.0,0.0,-0.0,0.0,0.25,1.57470687,0.01,0.0,0.0,-1.1100000143051147,-0.009999999776482582,-0.01971435546875,0.01055908203125,1.08685302734375,36.599998474121094,0.0,1.0,-1.2086639404296875,-0.2541656494140625,Waiting,-8.176637341153471,23.625,-365740.0,-205.0,-1560.0,-1650.0,0.7,3.125,
4.452834999999963,0.0,0.0,6798.0,0.0,0.0,0.0,0.0,0.125,0.798339762,0.01,0.0,-8279.0,0.0,0.0,-0.0,0.0,0.0,0.443115189,0.01,0.0,5934.0,0.0,0.0,0.0,0.0,0.0,3.2702633370000003,0.01,0.0,-6839.0,0.0,0.0,-0.0,0.0,0.25,1.57470687,0.01,0.0,0.05000000074505806,-1.0700000524520874,-0.009999999776482582,-0.008544921875,-0.02618408203125,1.04388427734375,36.599998474121094,0.0,11.0,-1.2093963623046875,-0.253875732421875,Waiting,-5.831182795698925,8.75,-366009.0,-222.0,-1680.0,-1650.0,0.7,3.25,
4.592523000000044,0.0,0.0,6798.0,0.0,0.0,0.0,0.0,0.125,0.798339762,0.01,0.0,-8279.0,0.0,0.0,-0.0,0.0,0.0,0.443115189,0.01,0.0,5934.0,0.0,0.0,0.0,0.0,0.0,3.2714840400000003,0.01,0.0,-6839.0,0.0,0.0,-0.0,0.0,0.25,1.57470687,0.01,0.0,0.0,-1.1100000143051147,-0.009999999776482582,0.1624755859375,-0.01837158203125,0.98760986328125,36.599998474121094,0.0,181.0,-1.2155303955078125,-0.2567901611328125,Waiting,-6.502199413489736,8.75,-366280.0,-228.0,-1650.0,-1650.0,0.7,3.125,
4.7312400000002235,0.0,0.0,6798.0,0.0,0.0,0.0,0.0,0.125,0.798339762,0.01,0.0,-8279.0,0.0,0.0,-0.0,0.0,0.0,0.443115189,0.01,0.0,5934.0,0.0,0.0,0.0,0.0,0.0,3.2714840400000003,0.01,0.0,-6839.0,0.0,0.0,-0.0,0.0,0.25,1.573486167,0.01,0.0,0.0,-1.0199999809265137,-0.009999999776482582,-0.06317138671875,-0.07696533203125,0.6033935546875,36.61000061035156,0.0,-52.0,-1.2212982177734375,-0.257598876953125,Waiting,-5.488172043010753,23.75,-366523.0,-203.0,-1567.5,-1650.0,0.7,3.625,
4.870410999999847,0.0,0.0,6798.0,0.0,0.0,0.0,0.0,0.125,0.799560465,0.01,0.0,-8279.0,0.0,0.0,-0.0,0.0,0.0,0.443115189,0.01,0.0,5934.0,0.0,0.0,0.0,0.0,0.0,3.2714840400000003,0.01,0.0,-6839.0,0.0,0.0,-0.0,0.0,0.25,1.5759275730000002,0.01,0.0,0.15000000596046448,-0.9300000071525574,-0.009999999776482582,0.1068115234375,-0.01708984375,1.19268798828125,36.61000061035156,0.0,126.0,-1.2264404296875,-0.2595062255859375,Waiting,-5.711534701857283,8.25,-366786.0,-216.0,-1695.0,-1650.0,0.7,3.375,
5.015155999999959,0.0,0.0,6798.0,0.0,0.0,0.0,0.0,0.125,0.798339762,0.01,0.0,-8279.0,0.0,0.0,-0.0,0.0,0.0,0.44677729800000004,0.01,0.0,5934.0,0.0,0.0,0.0,0.0,0.0,3.2702633370000003,0.01,0.0,-6839.0,0.0,0.0,-0.0,0.0,0.25,1.57470687,0.01,0.0,0.3499999940395355,-0.8100000023841858,-0.009999999776482582,0.18670654296875,0.0545654296875,1.27642822265625,36.61000061035156,0.0,204.0,-1.2224578857421875,-0.259857177734375,Waiting,-5.220918866080156,5.0,-367061.0,-227.0,-1725.0,-1650.0,0.7,3.125,
5.1511120000001975,0.0,0.0,6798.0,0.0,0.0,0.0,0.0,0.125,0.798339762,0.01,0.0,-8279.0,0.0,0.0,-0.0,0.0,0.0,0.443115189,0.01,0.0,5934.0,0.0,0.0,0.0,0.0,0.0,3.2727047430000002,0.01,0.0,-6839.0,0.0,0.0,-0.0,0.0,0.25,1.5759275730000002,0.01,0.0,0.4300000071525574,-0.7200000286102295,-0.009999999776482582,0.0509033203125,-0.03533935546875,1.038818359375,36.61000061035156,0.0,64.0,-1.2086334228515625,-0.2604217529296875,Waiting,-5.232893450635386,4.75,-367613.0,-229.0,-1717.5,-1650.0,0.7,3.375,
5.291274000000208,0.0,0.0,6798.0,0.0,0.0,0.0,0.0,0.125,0.798339762,0.01,0.0,-8279.0,0.0,0.0,-0.0,0.0,0.0,0.444335892,0.01,0.0,5934.0,0.0,0.0,0.0,0.0,0.0,3.2714840400000003,0.01,0.0,-6839.0,0.0,0.0,-0.0,0.0,0.25,1.57470687,0.01,0.0,0.3400000035762787,-0.800000011920929,-0.009999999776482582,0.06634521484375,-0.01544189453125,1.00872802734375,36.619998931884766,0.0,80.0,-1.1878662109375,-0.2650909423828125,Waiting,-5.244868035190616,4.875,-367889.0,-228.0,-1710.0,-1650.0,0.7,3.125,
5.431597000000067,0.0,0.0,6798.0,0.0,0.0,0.0,0.0,0.125,0.799560465,0.01,0.0,-8279.0,0.0,0.0,-0.0,0.0,0.0,0.443115189,0.01,0.0,5934.0,0.0,0.0,0.0,0.0,0.0,3.28369107,0.01,0.0,-6839.0,0.0,0.0,-0.0,0.0,0.25,1.5759275730000002,0.01,0.0,0.25999999046325684,-0.8600000143051147,-0.009999999776482582,0.03826904296875,-0.01171875,1.05657958984375,36.619998931884766,0.0,54.0,-1.165618896484375,-0.2733001708984375,Waiting,-5.292766373411535,5.125,-368160.0,-227.0,-1702.5,-1650.0,0.7,3.0,
5.573094000000041,0.0,0.0,6798.0,0.0,0.0,0.0,0.0,0.125,0.798339762,0.01,0.0,-8279.0,0.0,0.0,-0.0,0.0,0.0,0.443115189,0.01,0.0,5934.0,0.0,0.0,0.0,0.0,0.0,3.2702633370000003,0.01,0.0,-6839.0,0.0,0.0,-0.0,0.0,0.25,1.57470687,0.01,0.0,0.1899999976158142,-0.8799999952316284,0.0,-0.05218505859375,-0.0306396484375,0.97174072265625,36.619998931884766,0.0,-37.0,-1.1405792236328125,-0.2848968505859375,Waiting,0.0,0.125,-368411.0,-214.0,-1477.5,0.0,0.0,0.0,
5.714354999999982,0.0,0.0,6798.0,0.0,0.0,0.0,0.0,0.125,0.798339762,0.01,0.0,-8279.0,0.0,0.0,-0.0,0.0,0.0,0.443115189,0.01,0.0,5934.0,0.0,0.0,0.0,0.0,0.0,3.2702633370000003,0.01,0.0,-6839.0,0.0,0.0,-0.0,0.0,0.25,1.57470687,0.01,0.0,0.11999999731779099,-0.9700000286102295,0.0,-0.10546875,-0.06549072265625,1.297119140625,36.59000015258789,0.0,-83.0,-1.120269775390625,-0.29644775390625,Waiting,0.0,0.125,-368641.0,-193.0,-1395.0,0.0,0.0,0.0,
5.854362999999895,0.0,0.0,6798.0,0.0,0.0,0.0,0.0,0.125,0.798339762,0.01,0.0,-8279.0,0.0,0.0,-0.0,0.0,0.0,0.444335892,0.01,0.0,5934.0,0.0,0.0,0.0,0.0,0.0,3.2702633370000003,0.01,0.0,-6839.0,0.0,0.0,-0.0,0.0,0.25,1.5759275730000002,0.01,0.0,0.05999999865889549,-1.0199999809265137,0.0,-0.164306640625,-0.0665283203125,0.94415283203125,36.59000015258789,0.0,-147.0,-1.0995941162109375,-0.3095245361328125,Waiting,0.0,0.125,-369067.0,-174.0,-1312.5,0.0,0.0,0.0,
5.99469700000016,0.0,0.0,6798.0,0.0,0.0,0.0,0.0,0.125,0.798339762,0.01,0.0,-8279.0,0.0,0.0,-0.0,0.0,0.0,0.443115189,0.01,0.0,5934.0,0.0,0.0,0.0,0.0,0.0,3.2714840400000003,0.01,0.0,-6839.0,0.0,0.0,-0.0,0.0,0.25,1.57470687,0.01,0.0,0.03999999910593033,-1.0499999523162842,-0.009999999776482582,0.04705810546875,-0.122802734375,0.95556640625,36.59000015258789,0.0,64.0,-1.0809783935546875,-0.32427978515625,Waiting,0.0,0.0,-369263.0,-165.0,-1230.0,0.0,0.0,0.0,
6.140830999999773,0.0,0.0,6798.0,0.0,0.0,0.0,0.0,0.125,0.799560465,0.01,0.0,-8279.0,0.0,0.0,-0.0,0.0,0.0,0.443115189,0.01,0.0,5934.0,0.0,0.0,0.0,0.0,0.0,3.2714840400000003,0.01,0.0,-6839.0,0.0,0.0,-0.0,0.0,0.25,1.57470687,0.01,0.0,0.019999999552965164,-1.0800000429153442,-0.009999999776482582,-0.0206298828125,-0.0601806640625,1.0841064453125,36.59000015258789,0.0,0.0,-1.059967041015625,-0.3416900634765625,Waiting,0.0,0.125,-369449.0,-156.0,-1147.5,0.0,0.0,0.125,
6.276367000000086,0.0,0.0,6798.0,0.0,0.0,0.0,0.0,0.125,0.798339762,0.01,0.0,-8279.0,0.0,0.0,-0.0,0.0,0.0,0.44189448600000003,0.01,0.0,5934.0,0.0,0.0,0.0,0.0,0.0,3.2714840400000003,0.01,0.0,-6839.0,0.0,0.0,-0.0,0.0,0.25,1.57470687,0.01,0.0,0.05999999865889549,-1.0800000429153442,-0.009999999776482582,-0.0438232421875,-0.01983642578125,1.124755859375,36.599998474121094,0.0,-22.0,-1.05364990234375,-0.3567657470703125,Waiting,0.0,0.0,-369624.0,-147.0,-1080.0,0.0,0.0,0.0,
6.417507000000216,0.0,0.0,6798.0,0.0,0.0,0.0,0.0,0.125,0.798339762,0.01,0.0,-8279.0,0.0,0.0,-0.0,0.0,0.0,0.443115189,0.01,0.0,5934.0,0.0,0.0,0.0,0.0,0.0,3.2714840400000003,0.01,0.0,-6839.0,0.0,0.0,-0.0,0.0,0.25,1.5759275730000002,0.01,0.0,0.09000000357627869,-1.090000033378601,-0.009999999776482582,-0.0543212890625,-0.01251220703125,1.0677490234375,36.599998474121094,0.0,-33.0,-1.05389404296875,-0.371734619140625,Waiting,0.0,0.0,-369789.0,-138.0,-997.5,0.0,0.0,0.0,
6.553876999999862,0.0,0.0,6798.0,0.0,0.0,0.0,0.0,0.125,0.798339762,0.01,0.0,-8279.0,0.0,0.0,-0.0,0.0,0.0,0.443115189,0.01,0.0,5934.0,0.0,0.0,0.0,0.0,0.0,3.2714840400000003,0.01,0.0,-6839.0,0.0,0.0,-0.0,0.0,0.25,1.57470687,0.01,0.0,0.10999999940395355,-1.090000033378601,-0.009999999776482582,-0.0015869140625,0.03533935546875,1.04425048828125,36.599998474121094,0.0,18.0,-1.053924560546875,-0.373687744140625,Waiting,0.0,0.125,-369943.0,-130.0,-922.5,0.0,0.0,0.0,
6.694882999999915,0.0,0.0,6798.0,0.0,0.0,0.0,0.0,0.125,0.798339762,0.01,0.0,-8279.0,0.0,0.0,-0.0,0.0,0.0,0.443115189,0.01,0.0,5934.0,0.0,0.0,0.0,0.0,0.0,3.2702633370000003,0.01,0.0,-6839.0,0.0,0.0,-0.0,0.0,0.25,1.57470687,0.01,0.0,0.10999999940395355,-1.090000033378601,-0.009999999776482582,-0.0565185546875,-0.0186767578125,1.025390625,36.599998474121094,0.0,-36.0,-1.0537872314453125,-0.3736724853515625,Waiting,0.0,0.125,-370222.0,-113.0,-855.0,0.0,0.0,0.0,
6.835549999999814,0.0,0.0,6798.0,0.0,0.0,0.0,0.0,0.125,0.799560465,0.01,0.0,-8279.0,0.0,0.0,-0.0,0.0,0.0,0.443115189,0.01,0.0,5934.0,0.0,0.0,0.0,0.0,0.0,3.2714840400000003,0.01,0.0,-6839.0,0.0,0.0,-0.0,0.0,0.25,1.57470687,0.01,0.0,0.10000000149011612,-1.1200000047683716,-0.009999999776482582,-0.0220947265625,0.0693359375,0.99951171875,36.630001068115234,0.0,-2.0,-1.05426025390625,-0.373626708984375,Waiting,0.0,0.0,-370347.0,-105.0,-772.5,0.0,0.0,0.0,
6.977587999999989,0.0,0.0,6798.0,0.0,0.0,0.0,0.0,0.125,0.798339762,0.01,0.0,-8279.0,0.0,0.0,-0.0,0.0,0.0,0.443115189,0.01,0.0,5934.0,0.0,0.0,0.0,0.0,0.0,3.2714840400000003,0.01,0.0,-6839.0,0.0,0.0,-0.0,0.0,0.25,1.57470687,0.01,0.0,0.10000000149011612,-1.1100000143051147,-0.009999999776482582,-0.044189453125,0.025634765625,1.08441162109375,36.630001068115234,0.0,-23.0,-1.0536346435546875,-0.3729095458984375,Waiting,0.0,0.0,-370461.0,-97.0,-705.0,0.0,0.0,0.0,
7.120310000000056,0.0,0.0,6798.0,0.0,0.0,0.0,0.0,0.125,0.799560465,0.01,0.0,-8279.0,0.0,0.0,-0.0,0.0,0.0,0.443115189,0.01,0.0,5934.0,0.0,0.0,0.0,0.0,0.0,3.2702633370000003,0.01,0.0,-6839.0,0.0,0.0,-0.0,0.0,0.25,1.57470687,0.01,0.0,0.11999999731779099,-1.0800000429153442,-0.009999999776482582,0.00421142578125,-0.01611328125,1.01239013671875,36.630001068115234,0.0,23.0,-1.05352783203125,-0.3728179931640625,Waiting,0.0,0.125,-370566.0,-88.0,-637.5,0.0,0.0,0.125,
7.254680999999866,0.0,0.0,6798.0,0.0,0.0,0.0,0.0,0.125,0.798339762,0.01,0.0,-8279.0,0.0,0.0,-0.0,0.0,0.0,0.444335892,0.01,0.0,5934.0,0.0,0.0,0.0,0.0,0.0,3.2702633370000003,0.01,0.0,-6839.0,0.0,0.0,-0.0,0.0,0.25,1.5759275730000002,0.01,0.0,0.10999999940395355,-1.0800000429153442,-0.009999999776482582,-0.04913330078125,-3.0517578125E-4,0.99603271484375,36.63999938964844,0.0,-30.0,-1.053375244140625,-0.372711181640625,Waiting,0.0,0.125,-370661.0,-80.0,-570.0,0.0,0.0,0.0,
7.400685000000056,0.0,0.0,6798.0,0.0,0.0,0.0,0.0,0.125,0.798339762,0.01,0.0,-8279.0,0.0,0.0,-0.0,0.0,0.0,0.443115189,0.01,0.0,5934.0,0.0,0.0,0.0,0.0,0.0,3.2714840400000003,0.01,0.0,-6839.0,0.0,0.0,-0.0,0.0,0.25,1.5759275730000002,0.01,0.0,0.17000000178813934,-1.059999942779541,-0.009999999776482582,-0.0262451171875,0.00665283203125,1.14007568359375,36.63999938964844,0.0,-4.0,-1.05255126953125,-0.3721160888671875,Waiting,0.0,0.125,-370748.0,-73.0,-495.0,0.0,0.0,0.0,
7.5422790000000965,0.0,0.0,6798.0,0.0,0.0,0.0,0.0,0.125,0.798339762,0.01,0.0,-8279.0,0.0,0.0,-0.0,0.0,0.0,0.443115189,0.01,0.0,5934.0,0.0,0.0,0.0,0.0,0.0,3.2714840400000003,0.01,0.0,-6839.0,0.0,0.0,-0.0,0.0,0.25,1.5759275730000002,0.01,0.0,0.15000000596046448,-1.0800000429153442,-0.009999999776482582,-0.044677734375,0.00433349609375,1.00823974609375,36.63999938964844,0.0,-25.0,-1.0518646240234375,-0.3714599609375,Waiting,0.0,0.125,-370893.0,-57.0,-435.0,0.0,0.0,0.0,
7.679501000000164,0.0,0.0,6798.0,0.0,0.0,0.0,0.0,0.125,0.797119059,0.01,0.0,-8279.0,0.0,0.0,-0.0,0.0,0.0,0.443115189,0.01,0.0,5934.0,0.0,0.0,0.0,0.0,0.0,3.2702633370000003,0.01,0.0,-6839.0,0.0,0.0,-0.0,0.0,0.25,1.57470687,0.01,0.0,0.11999999731779099,-1.1100000143051147,-0.009999999776482582,-0.02362060546875,-0.0264892578125,1.063232421875,36.63999938964844,0.0,-2.0,-1.051910400390625,-0.371307373046875,Waiting,-10.4,65.0,-370977.0,-63.0,-502.5,-1650.0,0.0,0.125,
7.831677000000141,0.0,0.0,6798.0,0.0,0.0,0.0,0.0,0.125,0.798339762,0.01,0.0,-8279.0,0.0,0.0,-0.0,0.0,0.0,0.443115189,0.01,0.0,5934.0,0.0,0.0,0.0,0.0,0.0,3.2702633370000003,0.01,0.0,-6839.0,0.0,0.0,-0.0,0.0,0.25,1.5759275730000002,0.01,0.0,0.10999999940395355,-1.1299999952316284,-0.019999999552965164,-0.0047607421875,0.04522705078125,0.93017578125,36.599998474121094,0.0,13.0,-1.0517120361328125,-0.3710784912109375,Waiting,-10.5,58.625,-371119.0,-110.0,-945.0,-1650.0,0.0,0.0,
7.970674000000115,0.0,0.0,6798.0,0.0,0.0,0.0,0.0,0.125,0.798339762,0.01,0.0,-8279.0,0.0,0.0,-0.0,0.0,0.0,0.443115189,0.01,0.0,5934.0,0.0,0.0,0.0,0.0,0.0,3.2714840400000003,0.01,0.0,-6839.0,0.0,0.0,-0.0,0.0,0.25,1.5759275730000002,0.01,0.0,0.10000000149011612,-1.1399999856948853,-0.019999999552965164,-0.05499267578125,0.0169677734375,1.18609619140625,36.599998474121094,0.0,-31.0,-1.052001953125,-0.3720703125,Waiting,-8.744086021505375,40.625,-371314.0,-155.0,-1335.0,-1650.0,0.0,0.0,
8.112708999999798,0.0,0.0,6798.0,0.0,0.0,0.0,0.0,0.125,0.798339762,0.01,0.0,-8279.0,0.0,0.0,-0.0,0.0,0.0,0.443115189,0.01,0.0,5934.0,0.0,0.0,0.0,0.0,0.0,3.2702633370000003,0.01,0.0,-6839.0,0.0,0.0,-0.0,0.0,0.25,1.57470687,0.01,0.0,0.12999999523162842,-1.1399999856948853,-0.029999999329447746,-0.0970458984375,0.03167724609375,1.04461669921875,36.599998474121094,0.0,-76.0,-1.05316162109375,-0.3719329833984375,Waiting,-5.887634408602151,10.0,-371552.0,-192.0,-1575.0,-1650.0,0.0,0.0,
8.255544000000228,0.0,0.0,6798.0,0.0,0.0,0.0,0.0,0.125,0.798339762,0.01,0.0,-8279.0,0.0,0.0,-0.0,0.0,0.0,0.444335892,0.01,0.0,5934.0,0.0,0.0,0.0,0.0,0.0,3.2714840400000003,0.01,0.0,-6839.0,0.0,0.0,-0.0,0.0,0.25,1.57470687,0.01,0.0,0.1599999964237213,-1.1100000143051147,-0.019999999552965164,-0.01947021484375,-0.00616455078125,1.1727294921875,36.599998474121094,0.0,3.0,-1.0548095703125,-0.369598388671875,Waiting,-5.191104594330401,5.125,-372072.0,-218.0,-1635.0,-1650.0,0.0,0.0,
8.40903700000001,0.0,0.0,6798.0,0.0,0.0,0.0,0.0,0.125,0.798339762,0.01,0.0,-8279.0,0.0,0.0,-0.0,0.0,0.0,0.444335892,0.01,0.0,5934.0,0.0,0.0,0.0,0.0,0.0,3.2690426340000003,0.01,0.0,-6839.0,0.0,0.0,-0.0,0.0,0.25,1.5759275730000002,0.01,0.0,0.1599999964237213,-1.100000023841858,-0.019999999552965164,-0.072021484375,-0.05487060546875,0.872802734375,36.599998474121094,0.0,-55.0,-1.0564117431640625,-0.3726959228515625,Waiting,-5.070381231671554,4.5,-372335.0,-219.0,-1642.5,-1650.0,0.0,0.125,
8.569290000000038,0.0,0.0,6798.0,0.0,0.0,0.0,0.0,0.125,0.798339762,0.01,0.0,-8279.0,0.0,0.0,-0.0,0.0,0.0,0.44677729800000004,0.01,0.0,5934.0,0.0,0.0,0.0,0.0,0.0,3.2727047430000002,0.01,0.0,-6839.0,0.0,0.0,-0.0,0.0,0.25,1.5759275730000002,0.01,0.0,0.09000000357627869,-1.190000057220459,-0.029999999329447746,0.00689697265625,-0.00830078125,1.03326416015625,36.599998474121094,0.0,28.0,-1.0589599609375,-0.3755950927734375,Waiting,-5.1030303030303035,4.5,-372599.0,-219.0,-1642.5,-1650.0,0.0,0.0,
8.722794999999925,0.0,0.0,6798.0,0.0,0.0,0.0,0.0,0.125,0.798339762,0.01,0.0,-8279.0,0.0,0.0,-0.0,0.0,0.0,0.443115189,0.01,0.0,5934.0,0.0,0.0,0.0,0.0,0.0,3.2714840400000003,0.01,0.0,-6839.0,0.0,0.0,-0.0,0.0,0.25,1.5759275730000002,0.01,0.0,0.07000000029802322,-1.2000000476837158,-0.019999999552965164,0.0389404296875,0.0711669921875,0.8245849609375,36.599998474121094,0.0,56.0,-1.06005859375,-0.3780670166015625,Waiting,-5.135777126099708,4.375,-372865.0,-220.0,-1642.5,-1650.0,0.0,0.0,
8.874328000000212,0.0,0.0,6798.0,0.0,0.0,0.0,0.0,0.125,0.798339762,0.01,0.0,-8279.0,0.0,0.0,-0.0,0.0,0.0,0.443115189,0.01,0.0,5934.0,0.0,0.0,0.0,0.0,0.0,3.2714840400000003,0.01,0.0,-6839.0,0.0,0.0,-0.0,0.0,0.25,1.57470687,0.01,0.0,0.11999999731779099,-1.1699999570846558,-0.029999999329447746,0.037353515625,0.1236572265625,1.472900390625,36.619998931884766,0.0,67.0,-1.0621337890625,-0.3787384033203125,Waiting,-4.993939393939394,4.25,-373391.0,-219.0,-1650.0,-1650.0,0.0,0.0,
9.0312080000001,0.0,0.0,6798.0,0.0,0.0,0.0,0.0,0.125,0.798339762,0.01,0.0,-8279.0,0.0,0.0,-0.0,0.0,0.0,0.443115189,0.01,0.0,5934.0,0.0,0.0,0.0,0.0,0.0,3.2702633370000003,0.01,0.0,-6839.0,0.0,0.0,-0.0,0.0,0.25,1.5759275730000002,0.01,0.0,0.09000000357627869,-1.159999966621399,-0.029999999329447746,-0.01251220703125,0.0128173828125,0.97857666015625,36.619998931884766,0.0,7.0,-1.0629119873046875,-0.3748931884765625,Waiting,-4.993939393939394,4.125,-373655.0,-220.0,-1650.0,-1650.0,0.0,0.0,
9.179822999999859,0.0,0.0,6798.0,0.0,0.0,0.0,0.0,0.125,0.79345695,0.01,0.0,-8279.0,0.0,0.0,-0.0,0.0,0.0,0.443115189,0.01,0.0,5934.0,0.0,0.0,0.0,0.0,0.0,3.2714840400000003,0.01,0.0,-6839.0,0.0,0.0,-0.0,0.0,0.25,1.5759275730000002,0.01,0.0,0.10999999940395355,-1.159999966621399,-0.029999999329447746,0.05853271484375,0.00421142578125,1.274658203125,36.619998931884766,0.0,84.0,-1.0657806396484375,-0.3735198974609375,Waiting,-5.127272727272727,4.375,-373919.0,-220.0,-1642.5,-1650.0,0.0,0.0,
9.331450999999884,0.0,0.0,6798.0,0.0,0.0,0.0,0.0,0.125,0.798339762,0.01,0.0,-8279.0,0.0,0.0,-0.0,0.0,0.0,0.443115189,0.01,0.0,5934.0,0.0,0.0,0.0,0.0,0.0,3.2714840400000003,0.01,0.0,-6839.0,0.0,0.0,-0.0,0.0,0.25,1.5759275730000002,0.01,0.0,0.15000000596046448,-1.149999976158142,-0.019999999552965164,0.04010009765625,0.03106689453125,1.23126220703125,36.58000183105469,0.0,64.0,-1.0678863525390625,-0.3732452392578125,Waiting,-4.993939393939394,4.125,-374448.0,-220.0,-1650.0,-1650.0,0.0,0.0,
9.485720000000205,0.0,0.0,6798.0,0.0,0.0,0.0,0.0,0.125,0.798339762,0.01,0.0,-8279.0,0.0,0.0,-0.0,0.0,0.0,0.443115189,0.01,0.0,5934.0,0.0,0.0,0.0,0.0,0.0,3.2714840400000003,0.01,0.0,-6839.0,0.0,0.0,-0.0,0.0,0.25,1.57470687,0.01,0.0,0.14000000059604645,-1.1299999952316284,-0.029999999329447746,-0.0755615234375,-0.081787109375,0.75494384765625,36.58000183105469,0.0,-60.0,-1.068450927734375,-0.3690032958984375,Waiting,-5.147947214076247,5.25,-374713.0,-220.0,-1642.5,-1650.0,0.0,0.0,
9.634189999999943,0.0,0.0,6798.0,0.0,0.0,0.0,0.0,0.125,0.798339762,0.01,0.0,-8279.0,0.0,0.0,-0.0,0.0,0.0,0.443115189,0.01,0.0,5934.0,0.0,0.0,0.0,0.0,0.0,3.2714840400000003,0.01,0.0,-6839.0,0.0,0.0,-0.0,0.0,0.25,1.5759275730000002,0.01,0.0,0.10999999940395355,-1.1799999475479126,-0.029999999329447746,-0.13458251953125,0.02337646484375,0.90606689453125,36.58000183105469,0.0,-115.0,-1.0692596435546875,-0.3684539794921875,Waiting,-5.151515151515151,4.625,-374975.0,-219.0,-1642.5,-1650.0,0.0,0.0,
9.78848499999987,0.0,0.0,6798.0,0.0,0.0,0.0,0.0,0.125,0.798339762,0.01,0.0,-8279.0,0.0,0.0,-0.0,0.0,0.0,0.443115189,0.01,0.0,5934.0,0.0,0.0,0.0,0.0,0.0,3.2714840400000003,0.01,0.0,-6839.0,0.0,0.0,-0.0,0.0,0.25,1.57470687,0.01,0.0,0.09000000357627869,-1.2400000095367432,-0.029999999329447746,-0.04400634765625,-0.04522705078125,0.93450927734375,36.63999938964844,0.0,-23.0,-1.0697174072265625,-0.3658294677734375,Waiting,-5.0181818181818185,4.25,-375239.0,-219.0,-1650.0,-1650.0,0.0,0.0,
9.931251999999862,0.0,0.0,6798.0,0.0,0.0,0.0,0.0,0.125,0.799560465,0.01,0.0,-8279.0,0.0,0.0,-0.0,0.0,0.0,0.443115189,0.01,0.0,5934.0,0.0,0.0,0.0,0.0,0.0,3.2702633370000003,0.01,0.0,-6839.0,0.0,0.0,-0.0,0.0,0.25,1.5759275730000002,0.01,0.0,0.05999999865889549,-1.2000000476837158,-0.029999999329447746,0.0787353515625,-0.0166015625,1.11297607421875,36.63999938964844,0.0,102.0,-1.0699615478515625,-0.3641815185546875,Waiting,-5.121994134897361,4.625,-375766.0,-219.0,-1642.5,-1650.0,0.7,3.5,
10.079728000000118,0.0,0.0,6798.0,0.0,0.0,0.0,0.0,0.125,0.797119059,0.01,0.0,-8279.0,0.0,0.0,-0.0,0.0,0.0,0.443115189,0.01,0.0,5934.0,0.0,0.0,0.0,0.0,0.0,3.2714840400000003,0.01,0.0,-6839.0,0.0,0.0,-0.0,0.0,0.25,1.5759275730000002,0.01,0.0,0.07999999821186066,-1.1799999475479126,-0.029999999329447746,-0.03076171875,0.08404541015625,1.41796875,36.63999938964844,0.0,-1.0,-1.0708160400390625,-0.365753173828125,Waiting,-5.290322580645161,5.125,-376028.0,-218.0,-1635.0,-1650.0,0.7,3.375,
10.222904999999795,0.0,0.0,6798.0,0.0,0.0,0.0,0.0,0.125,0.798339762,0.01,0.0,-8279.0,0.0,0.0,-0.0,0.0,0.0,0.44067378300000004,0.01,0.0,5934.0,0.0,0.0,0.0,0.0,0.0,3.2702633370000003,0.01,0.0,-6839.0,0.0,0.0,-0.0,0.0,0.25,1.57470687,0.01,0.0,0.0,-1.1399999856948853,-0.019999999552965164,-0.1544189453125,-0.032470703125,0.4178466796875,36.63999938964844,0.0,-146.0,-1.0683441162109375,-0.3652496337890625,Waiting,-5.613636363636363,6.5,-376290.0,-219.0,-1620.0,-1650.0,0.7,3.25,
10.361544000000228,0.0,0.0,6798.0,0.0,0.0,0.0,0.0,0.125,0.798339762,0.01,0.0,-8279.0,0.0,0.0,-0.0,0.0,0.0,0.443115189,0.01,0.0,5934.0,0.0,0.0,0.0,0.0,0.0,3.2714840400000003,0.01,0.0,-6839.0,0.0,0.0,-0.0,0.0,0.25,1.5759275730000002,0.01,0.0,0.05000000074505806,-1.1799999475479126,-0.029999999329447746,0.0064697265625,-0.1209716796875,0.91583251953125,36.650001525878906,0.0,25.0,-1.0648345947265625,-0.3638763427734375,Waiting,-8.26774193548387,23.0,-376524.0,-197.0,-1470.0,-1650.0,0.7,3.125,
10.50060999999987,0.0,0.0,6798.0,0.0,0.0,0.0,0.0,0.125,0.798339762,0.01,0.0,-8279.0,0.0,0.0,-0.0,0.0,0.0,0.444335892,0.01,0.0,5934.0,0.0,0.0,0.0,0.0,0.0,3.2727047430000002,0.01,0.0,-6839.0,0.0,0.0,-0.0,0.0,0.25,1.57470687,0.01,0.0,-0.019999999552965164,-1.25,-0.029999999329447746,-0.10272216796875,-0.0067138671875,0.73309326171875,36.650001525878906,0.0,-86.0,-1.0613861083984375,-0.36383056640625,Waiting,-6.081378299120235,10.125,-376775.0,-205.0,-1605.0,-1650.0,0.7,3.375,
10.643248000000138,0.0,0.0,6798.0,0.0,0.0,0.0,0.0,0.125,0.798339762,0.01,0.0,-8279.0,0.0,0.0,-0.0,0.0,0.0,0.443115189,0.01,0.0,5934.0,0.0,0.0,0.0,0.0,0.0,3.2727047430000002,0.01,0.0,-6839.0,0.0,0.0,-0.0,0.0,0.25,1.5759275730000002,0.01,0.0,0.019999999552965164,-1.2400000095367432,-0.029999999329447746,0.13201904296875,-0.01055908203125,1.04400634765625,36.650001525878906,0.0,154.0,-1.06048583984375,-0.3649749755859375,Waiting,-5.340664711632454,5.5,-377040.0,-218.0,-1657.5,-1650.0,0.0,0.0,
10.785612000000198,0.0,0.0,6798.0,0.0,0.0,0.0,0.0,0.125,0.798339762,0.01,0.0,-8279.0,0.0,0.0,-0.0,0.0,0.0,0.443115189,0.01,0.0,5934.0,0.0,0.0,0.0,0.0,0.0,3.2702633370000003,0.01,0.0,-6839.0,0.0,0.0,-0.0,0.0,0.25,1.5759275730000002,0.01,0.0,-0.009999999776482582,-1.309999942779541,-0.019999999552965164,-0.06829833984375,0.039306640625,1.14013671875,36.650001525878906,0.0,-42.0,-1.0572662353515625,-0.3665924072265625,Waiting,-5.21524926686217,4.875,-377572.0,-222.0,-1665.0,-1650.0,0.0,0.0,
10.916118999999949,0.0,0.0,6798.0,0.0,0.0,0.0,0.0,0.125,0.798339762,0.01,0.0,-8279.0,0.0,0.0,-0.0,0.0,0.0,0.443115189,0.01,0.0,5934.0,0.0,0.0,0.0,0.0,0.0,3.2702633370000003,0.01,0.0,-6839.0,0.0,0.0,-0.0,0.0,0.25,1.57470687,0.01,0.0,0.05999999865889549,-1.25,-0.029999999329447746,-0.0484619140625,-0.006591796875,1.13836669921875,36.59000015258789,0.0,-23.0,-1.053924560546875,-0.3605804443359375,Waiting,-5.212121212121212,4.75,-377839.0,-222.0,-1665.0,-1650.0,0.0,0.0,
11.065625,0.0,0.0,6798.0,0.0,0.0,0.0,0.0,0.125,0.798339762,0.01,0.0,-8279.0,0.0,0.0,-0.0,0.0,0.0,0.443115189,0.01,0.0,5934.0,0.0,0.0,0.0,0.0,0.0,3.2702633370000003,0.01,0.0,-6839.0,0.0,0.0,-0.0,0.0,0.25,1.57470687,0.01,0.0,0.07000000029802322,-1.2200000286102295,-0.029999999329447746,-0.08203125,-0.01055908203125,0.94268798828125,36.59000015258789,0.0,-61.0,-1.0476837158203125,-0.363128662109375,Waiting,-5.175757575757576,4.75,-378107.0,-222.0,-1665.0,-1650.0,0.0,0.0,
11.207845000000205,0.0,0.0,6798.0,0.0,0.0,0.0,0.0,0.125,0.798339762,0.01,0.0,-8279.0,0.0,0.0,-0.0,0.0,0.0,0.443115189,0.01,0.0,5934.0,0.0,0.0,0.0,0.0,0.0,3.2702633370000003,0.01,0.0,-6839.0,0.0,0.0,-0.0,0.0,0.25,1.5759275730000002,0.01,0.0,0.0,-1.2799999713897705,-0.029999999329447746,0.101806640625,0.00531005859375,1.03790283203125,36.59000015258789,0.0,124.0,-1.04693603515625,-0.36993408203125,Waiting,-5.13939393939394,4.5,-378374.0,-222.0,-1665.0,-1650.0,0.0,0.0,
11.347737999999895,0.0,0.0,6798.0,0.0,0.0,0.0,0.0,0.125,0.798339762,0.01,0.0,-8279.0,0.0,0.0,-0.0,0.0,0.0,0.443115189,0.01,0.0,5934.0,0.0,0.0,0.0,0.0,0.0,3.2714840400000003,0.01,0.0,-6839.0,0.0,0.0,-0.0,0.0,0.25,1.5759275730000002,0.01,0.0,0.029999999329447746,-1.2799999713897705,-0.029999999329447746,-0.1312255859375,-0.01934814453125,0.917724609375,36.61000061035156,0.0,-110.0,-1.0433807373046875,-0.3784637451171875,Waiting,-5.115151515151515,4.375,-378641.0,-222.0,-1665.0,-1650.0,0.0,0.0,
11.487774000000208,0.0,0.0,6798.0,0.0,0.0,0.0,0.0,0.125,0.798339762,0.01,0.0,-8279.0,0.0,0.0,-0.0,0.0,0.0,0.443115189,0.01,0.0,5934.0,0.0,0.0,0.0,0.0,0.0,3.2714840400000003,0.01,0.0,-6839.0,0.0,0.0,-0.0,0.0,0.25,1.5759275730000002,0.01,0.0,0.11999999731779099,-1.1799999475479126,-0.029999999329447746,0.08355712890625,0.0242919921875,1.0897216796875,36.61000061035156,0.0,106.0,-1.0423126220703125,-0.383758544921875,Waiting,-5.1114369501466275,4.375,-378909.0,-222.0,-1665.0,-1650.0,0.0,0.0,
11.629342000000179,0.0,0.0,6798.0,0.0,0.0,0.0,0.0,0.125,0.798339762,0.01,0.0,-8279.0,0.0,0.0,-0.0,0.0,0.0,0.44189448600000003,0.01,0.0,5934.0,0.0,0.0,0.0,0.0,0.0,3.2666012280000003,0.01,0.0,-6839.0,0.0,0.0,-0.0,0.0,0.25,1.57470687,0.01,0.0,0.10000000149011612,-1.2000000476837158,-0.029999999329447746,-0.0604248046875,-0.0257568359375,0.9591064453125,36.61000061035156,0.0,-40.0,-1.040008544921875,-0.3860626220703125,Waiting,-5.025806451612904,4.25,-379442.0,-222.0,-1665.0,-1650.0,0.7,3.75,
11.769320999999996,0.0,0.0,6798.0,0.0,0.0,0.0,0.0,0.125,0.798339762,0.01,0.0,-8279.0,0.0,0.0,-0.0,0.0,0.0,0.444335892,0.01,0.0,5934.0,0.0,0.0,0.0,0.0,0.0,3.2727047430000002,0.01,0.0,-6839.0,0.0,0.0,-0.0,0.0,0.25,1.5759275730000002,0.01,0.0,0.05999999865889549,-1.2200000286102295,-0.029999999329447746,-0.002685546875,-0.036865234375,0.95269775390625,36.61000061035156,0.0,17.0,-1.042327880859375,-0.3907928466796875,Waiting,-5.1460410557184755,4.625,-379708.0,-221.0,-1657.5,-1650.0,0.7,3.25,
11.910986000000033,0.0,0.0,6798.0,0.0,0.0,0.0,0.0,0.125,0.798339762,0.01,0.0,-8279.0,0.0,0.0,-0.0,0.0,0.0,0.44189448600000003,0.01,0.0,5934.0,0.0,0.0,0.0,0.0,0.0,3.2702633370000003,0.01,0.0,-6839.0,0.0,0.0,-0.0,0.0,0.25,1.57470687,0.01,0.0,0.03999999910593033,-1.2400000095367432,-0.029999999329447746,-0.01617431640625,0.09295654296875,1.24285888671875,36.619998931884766,0.0,10.0,-1.0433349609375,-0.4009857177734375,Waiting,-4.989736070381231,4.5,-379977.0,-221.0,-1665.0,-1650.0,0.7,3.0,
12.049654000000096,0.0,0.0,6798.0,0.0,0.0,0.0,0.0,0.125,0.798339762,0.01,0.0,-8279.0,0.0,0.0,-0.0,0.0,0.0,0.443115189,0.01,0.0,5934.0,0.0,0.0,0.0,0.0,0.0,3.2714840400000003,0.01,0.0,-6839.0,0.0,0.0,-0.0,0.0,0.25,1.5759275730000002,0.01,0.0,0.07999999821186066,-1.2200000286102295,-0.029999999329447746,0.07720947265625,0.00384521484375,1.08673095703125,36.619998931884766,0.0,100.0,-1.0433807373046875,-0.405609130859375,Waiting,-4.9979472140762455,4.375,-380241.0,-221.0,-1657.5,-1650.0,0.7,3.0,
12.19440199999977,0.0,0.0,6798.0,0.0,0.0,0.0,0.0,0.125,0.798339762,0.01,0.0,-8279.0,0.0,0.0,-0.0,0.0,0.0,0.443115189,0.01,0.0,5934.0,0.0,0.0,0.0,0.0,0.0,3.2702633370000003,0.01,0.0,-6839.0,0.0,0.0,-0.0,0.0,0.25,1.57470687,0.01,0.0,0.07999999821186066,-1.1799999475479126,-0.029999999329447746,-0.06793212890625,-0.0780029296875,0.64959716796875,36.619998931884766,0.0,-54.0,-1.0406951904296875,-0.41241455078125,Waiting,-5.118670576735092,4.5,-380507.0,-222.0,-1657.5,-1650.0,0.7,2.875,
12.336996999999974,0.0,0.0,6798.0,0.0,0.0,0.0,0.0,0.125,0.798339762,0.01,0.0,-8279.0,0.0,0.0,-0.0,0.0,0.0,0.443115189,0.01,0.0,5934.0,0.0,0.0,0.0,0.0,0.0,3.2714840400000003,0.01,0.0,-6839.0,0.0,0.0,-0.0,0.0,0.25,1.5759275730000002,0.01,0.0,0.09000000357627869,-1.159999966621399,-0.029999999329447746,-0.067138671875,0.019287109375,0.92681884765625,36.61000061035156,0.0,-48.0,-1.039642333984375,-0.42266845703125,Waiting,-5.106598240469208,4.375,-380773.0,-221.0,-1657.5,-1650.0,0.7,3.125,
12.475845999999903,0.0,0.0,6798.0,0.0,0.0,0.0,0.0,0.125,0.798339762,0.01,0.0,-8279.0,0.0,0.0,-0.0,0.0,0.0,0.443115189,0.01,0.0,5934.0,0.0,0.0,0.0,0.0,0.0,3.2714840400000003,0.01,0.0,-6839.0,0.0,0.0,-0.0,0.0,0.25,1.5759275730000002,0.01,0.0,0.07000000029802322,-1.2400000095367432,-0.019999999552965164,-0.03057861328125,-0.06439208984375,1.11346435546875,36.61000061035156,0.0,-6.0,-1.0391082763671875,-0.4322967529296875,Waiting,-8.031671554252199,5.25,-381298.0,-219.0,-1642.5,-1650.0,0.7,2.875,
12.612134999999776,0.0,0.0,6798.0,0.0,0.0,0.0,0.0,0.125,0.798339762,0.01,0.0,-8279.0,0.0,0.0,-0.0,0.0,0.0,0.443115189,0.01,0.0,5934.0,0.0,0.0,0.0,0.0,0.0,3.2702633370000003,0.01,0.0,-6839.0,0.0,0.0,-0.0,0.0,0.25,1.57470687,0.01,0.0,0.07000000029802322,-1.190000057220459,-0.029999999329447746,-0.05206298828125,0.00213623046875,1.09149169921875,36.61000061035156,0.0,-29.0,-1.0402679443359375,-0.442626953125,Waiting,-7.716715542521995,19.375,-381538.0,-199.0,-1500.0,-1650.0,0.7,2.625,
12.756516999999992,0.0,0.0,6798.0,0.0,0.0,0.0,0.0,0.125,0.799560465,0.01,0.0,-8279.0,0.0,0.0,-0.0,0.0,0.0,0.444335892,0.01,0.0,5934.0,0.0,0.0,0.0,0.0,0.0,3.2714840400000003,0.01,0.0,-6839.0,0.0,0.0,-0.0,0.0,0.25,1.57470687,0.01,0.0,0.0,-1.2300000190734863,-0.019999999552965164,-0.067626953125,0.1201171875,1.068115234375,36.61000061035156,0.0,-44.0,-1.0405120849609375,-0.4562530517578125,Waiting,-5.995552297165201,8.75,-381794.0,-211.0,-1620.0,-1650.0,0.7,3.0,
12.901348999999929,0.0,0.0,6798.0,0.0,0.0,0.0,0.0,0.125,0.798339762,0.01,0.0,-8279.0,0.0,0.0,-0.0,0.0,0.0,0.443115189,0.01,0.0,5934.0,0.0,0.0,0.0,0.0,0.0,3.2702633370000003,0.01,0.0,-6839.0,0.0,0.0,-0.0,0.0,0.25,1.57470687,0.01,0.0,0.0,-1.2599999904632568,-0.019999999552965164,-0.0423583984375,-0.03094482421875,1.0792236328125,36.61000061035156,0.0,-18.0,-1.0421905517578125,-0.4694366455078125,Waiting,-5.446627565982405,6.0,-382059.0,-219.0,-1657.5,-1650.0,0.0,0.0,
13.036296000000089,0.0,0.0,6798.0,0.0,0.0,0.0,0.0,0.125,0.798339762,0.01,0.0,-8279.0,0.0,0.0,-0.0,0.0,0.0,0.443115189,0.01,0.0,5934.0,0.0,0.0,0.0,0.0,0.0,3.2714840400000003,0.01,0.0,-6839.0,0.0,0.0,-0.0,0.0,0.25,1.5759275730000002,0.01,0.0,0.07000000029802322,-1.1699999570846558,-0.019999999552965164,-0.05413818359375,-0.0335693359375,1.1024169921875,36.61000061035156,0.0,-31.0,-1.041473388671875,-0.4830474853515625,Waiting,-5.287683284457478,5.0,-382326.0,-222.0,-1665.0,-1650.0,0.0,0.0,
13.174552000000142,0.0,0.0,6798.0,0.0,0.0,0.0,0.0,0.125,0.799560465,0.01,0.0,-8279.0,0.0,0.0,-0.0,0.0,0.0,0.443115189,0.01,0.0,5934.0,0.0,0.0,0.0,0.0,0.0,3.2714840400000003,0.01,0.0,-6839.0,0.0,0.0,-0.0,0.0,0.25,1.5783689790000002,0.01,0.0,0.0,-1.2599999904632568,-0.019999999552965164,0.04302978515625,-0.033203125,1.05474853515625,36.61000061035156,0.0,66.0,-1.045501708984375,-0.500091552734375,Waiting,-5.284848484848485,5.0,-382861.0,-222.0,-1665.0,-1650.0,0.0,0.0,
13.321904999999795,0.0,0.0,6798.0,0.0,0.0,0.0,0.0,0.125,0.797119059,0.01,0.0,-8279.0,0.0,0.0,-0.0,0.0,0.0,0.443115189,0.01,0.0,5934.0,0.0,0.0,0.0,0.0,0.0,3.2714840400000003,0.01,0.0,-6839.0,0.0,0.0,-0.0,0.0,0.25,1.57470687,0.01,0.0,0.019999999552965164,-1.2400000095367432,-0.019999999552965164,-0.07952880859375,0.0179443359375,1.01385498046875,36.61000061035156,0.0,-57.0,-1.047149658203125,-0.526214599609375,Waiting,-5.269648093841643,4.875,-383128.0,-222.0,-1665.0,-1650.0,0.0,0.0,
13.469944000000135,0.0,0.0,6798.0,0.0,0.0,0.0,0.0,0.125,0.799560465,0.01,0.0,-8279.0,0.0,0.0,-0.0,0.0,0.0,0.443115189,0.01,0.0,5934.0,0.0,0.0,0.0,0.0,0.0,3.2714840400000003,0.01,0.0,-6839.0,0.0,0.0,-0.0,0.0,0.25,1.5759275730000002,0.01,0.0,0.09000000357627869,-1.159999966621399,-0.019999999552965164,-0.035400390625,0.0614013671875,1.0823974609375,36.619998931884766,0.0,-13.0,-1.0485687255859375,-0.541168212890625,Waiting,-5.224242424242425,4.875,-383396.0,-222.0,-1665.0,-1650.0,0.0,0.0,
13.609804000000004,0.0,0.0,6798.0,0.0,0.0,0.0,0.0,0.125,0.799560465,0.01,0.0,-8279.0,0.0,0.0,-0.0,0.0,0.0,0.443115189,0.01,0.0,5934.0,0.0,0.0,0.0,0.0,0.0,3.2714840400000003,0.01,0.0,-6839.0,0.0,0.0,-0.0,0.0,0.25,1.5759275730000002,0.01,0.0,0.09000000357627869,-1.159999966621399,-0.019999999552965164,-0.0146484375,-0.0760498046875,1.10113525390625,36.619998931884766,0.0,7.0,-1.0476837158203125,-0.5457000732421875,Waiting,-5.2,4.625,-383663.0,-222.0,-1665.0,-1650.0,0.0,0.0,
13.751438000000082,0.0,0.0,6798.0,0.0,0.0,0.0,0.0,0.125,0.798339762,0.01,0.0,-8279.0,0.0,0.0,-0.0,0.0,0.0,0.443115189,0.01,0.0,5934.0,0.0,0.0,0.0,0.0,0.0,3.2714840400000003,0.01,0.0,-6839.0,0.0,0.0,-0.0,0.0,0.25,1.5759275730000002,0.01,0.0,0.07999999821186066,-1.2000000476837158,-0.029999999329447746,-0.031982421875,-0.08935546875,0.94720458984375,36.619998931884766,0.0,-12.0,-1.049041748046875,-0.549407958984375,Waiting,-5.10117302052786,4.5,-383931.0,-222.0,-1665.0,-1650.0,0.7,3.875,
13.892325999999885,0.0,0.0,6798.0,0.0,0.0,0.0,0.0,0.125,0.798339762,0.01,0.0,-8279.0,0.0,0.0,-0.0,0.0,0.0,0.443115189,0.01,0.0,5934.0,0.0,0.0,0.0,0.0,0.0,3.2702633370000003,0.01,0.0,-6839.0,0.0,0.0,-0.0,0.0,0.25,1.57470687,0.01,0.0,0.10999999940395355,-1.149999976158142,-0.029999999329447746,-0.05926513671875,-0.03228759765625,1.004638671875,36.59000015258789,0.0,-39.0,-1.0508575439453125,-0.5588531494140625,Waiting,-5.0772238514174,4.375,-384197.0,-222.0,-1665.0,-1650.0,0.7,4.0,
14.032231999999844,0.0,0.0,6798.0,0.0,0.0,0.0,0.0,0.125,0.798339762,0.01,0.0,-8279.0,0.0,0.0,-0.0,0.0,0.0,0.443115189,0.01,0.0,5934.0,0.0,0.0,0.0,0.0,0.0,3.2702633370000003,0.01,0.0,-6839.0,0.0,0.0,-0.0,0.0,0.25,1.5759275730000002,0.01,0.0,0.15000000596046448,-1.149999976158142,-0.019999999552965164,0.0250244140625,-0.02960205078125,1.159912109375,36.59000015258789,0.0,48.0,-1.0532379150390625,-0.5653228759765625,Waiting,-5.073900293255132,4.375,-384731.0,-222.0,-1665.0,-1650.0,0.7,3.0,
14.169720000000204,0.0,0.0,6798.0,0.0,0.0,0.0,0.0,0.125,0.798339762,0.01,0.0,-8279.0,0.0,0.0,-0.0,0.0,0.0,0.443115189,0.01,0.0,5934.0,0.0,0.0,0.0,0.0,0.0,3.2714840400000003,0.01,0.0,-6839.0,0.0,0.0,-0.0,0.0,0.25,1.57470687,0.01,0.0,0.09000000357627869,-1.190000057220459,-0.029999999329447746,-0.06964111328125,-0.06341552734375,0.88238525390625,36.59000015258789,0.0,-51.0,-1.05377197265625,-0.569091796875,Waiting,-5.0498533724340176,4.25,-384997.0,-222.0,-1665.0,-1650.0,0.7,3.125,
14.310270000000019,0.0,0.0,6798.0,0.0,0.0,0.0,0.0,0.125,0.798339762,0.01,0.0,-8279.0,0.0,0.0,-0.0,0.0,0.0,0.443115189,0.01,0.0,5934.0,0.0,0.0,0.0,0.0,0.0,3.2702633370000003,0.01,0.0,-6839.0,0.0,0.0,-0.0,0.0,0.25,1.569824058,0.01,0.0,0.0,-1.2799999713897705,-0.019999999552965164,0.01702880859375,0.04833984375,0.849365234375,36.59000015258789,0.0,36.0,-1.0581207275390625,-0.574249267578125,Waiting,-5.149071358748778,4.625,-385264.0,-221.0,-1657.5,-1650.0,0.7,3.0,
14.449825999999884,0.0,0.0,6798.0,0.0,0.0,0.0,0.0,0.125,0.798339762,0.01,0.0,-8279.0,0.0,0.0,-0.0,0.0,0.0,0.443115189,0.01,0.0,5934.0,0.0,0.0,0.0,0.0,0.0,3.2702633370000003,0.01,0.0,-6839.0,0.0,0.0,-0.0,0.0,0.25,1.5759275730000002,0.01,0.0,0.019999999552965164,-1.2799999713897705,-0.019999999552965164,-0.10198974609375,0.01666259765625,0.88983154296875,36.630001068115234,0.0,-82.0,-1.06365966796875,-0.582183837890625,Waiting,-4.993401759530792,4.125,-385530.0,-221.0,-1665.0,-1650.0,0.7,3.125,
14.593464000000152,0.0,0.0,6798.0,0.0,0.0,0.0,0.0,0.125,0.798339762,0.01,0.0,-8279.0,0.0,0.0,-0.0,0.0,0.0,0.443115189,0.01,0.0,5934.0,0.0,0.0,0.0,0.0,0.0,3.2714840400000003,0.01,0.0,-6839.0,0.0,0.0,-0.0,0.0,0.25,1.5759275730000002,0.01,0.0,0.029999999329447746,-1.350000023841858,-0.029999999329447746,-0.16497802734375,0.1368408203125,1.21820068359375,36.630001068115234,0.0,-136.0,-1.06622314453125,-0.588623046875,Waiting,-6.10791788856305,7.25,-385799.0,-221.0,-1612.5,-1650.0,0.7,3.0,
14.730134000000078,0.0,0.0,6798.0,0.0,0.0,0.0,0.0,0.125,0.798339762,0.01,0.0,-8279.0,0.0,0.0,-0.0,0.0,0.0,0.443115189,0.01,0.0,5934.0,0.0,0.0,0.0,0.0,0.0,3.2714840400000003,0.01,0.0,-6839.0,0.0,0.0,-0.0,0.0,0.25,1.5759275730000002,0.01,0.0,0.009999999776482582,-1.3200000524520874,-0.029999999329447746,0.06085205078125,0.0089111328125,0.7215576171875,36.630001068115234,0.0,77.0,-1.0680084228515625,-0.5911407470703125,Waiting,-7.931622678396871,20.625,-386038.0,-205.0,-1507.5,-1650.0,0.7,2.875,
14.869555999999866,0.0,0.0,6798.0,0.0,0.0,0.0,0.0,0.125,0.798339762,0.01,0.0,-8279.0,0.0,0.0,-0.0,0.0,0.0,0.443115189,0.01,0.0,5934.0,0.0,0.0,0.0,0.0,0.0,3.2714840400000003,0.01,0.0,-6839.0,0.0,0.0,-0.0,0.0,0.25,1.57470687,0.01,0.0,0.019999999552965164,-1.2899999618530273,-0.029999999329447746,0.0576171875,0.08367919921875,1.18170166015625,36.630001068115234,0.0,84.0,-1.070404052734375,-0.593109130859375,Waiting,-5.867155425219941,8.625,-386548.0,-217.0,-1627.5,-1650.0,0.7,3.0,
15.010904999999795,0.0,0.0,6798.0,0.0,0.0,0.0,0.0,0.125,0.799560465,0.01,0.0,-8279.0,0.0,0.0,-0.0,0.0,0.0,0.443115189,0.01,0.0,5934.0,0.0,0.0,0.0,0.0,0.0,3.2714840400000003,0.01,0.0,-6839.0,0.0,0.0,-0.0,0.0,0.25,1.57470687,0.01,0.0,0.0,-1.2799999713897705,-0.03999999910593033,0.1383056640625,0.01837158203125,0.96624755859375,36.61000061035156,0.0,159.0,-1.07177734375,-0.5904083251953125,Waiting,-6.308699902248289,9.25,-386807.0,-219.0,-1612.5,-1650.0,0.7,2.875,
15.150461999999825,0.0,0.0,6798.0,0.0,0.0,0.0,0.0,0.125,0.798339762,0.01,0.0,-8279.0,0.0,0.0,-0.0,0.0,0.0,0.444335892,0.01,0.0,5934.0,0.0,0.0,0.0,0.0,0.0,3.2702633370000003,0.01,0.0,-6839.0,0.0,0.0,-0.0,0.0,0.25,1.57470687,0.01,0.0,-0.029999999329447746,-1.2599999904632568,-0.03999999910593033,0.1181640625,-0.1295166015625,1.1314697265625,36.61000061035156,0.0,143.0,-1.0734100341796875,-0.58941650390625,Waiting,-5.746774193548387,22.75,-387046.0,-197.0,-1500.0,-1650.0,0.7,2.625,
15.288138999999967,0.0,0.0,6798.0,0.0,0.0,0.0,0.0,0.125,0.798339762,0.01,0.0,-8279.0,0.0,0.0,-0.0,0.0,0.0,0.443115189,0.01,0.0,5934.0,0.0,0.0,0.0,0.0,0.0,3.2714840400000003,0.01,0.0,-6839.0,0.0,0.0,-0.0,0.0,0.25,1.5759275730000002,0.01,0.0,0.0,-1.2300000190734863,-0.03999999910593033,0.00799560546875,0.09454345703125,0.94091796875,36.61000061035156,0.0,28.0,-1.075225830078125,-0.59027099609375,Waiting,-6.005865102639296,9.125,-387305.0,-213.0,-1642.5,-1650.0,0.7,2.625,
15.423316999999805,0.0,0.0,6798.0,0.0,0.0,0.0,0.0,0.125,0.798339762,0.01,0.0,-8279.0,0.0,0.0,-0.0,0.0,0.0,0.443115189,0.01,0.0,5934.0,0.0,0.0,0.0,0.0,0.0,3.2702633370000003,0.01,0.0,-6839.0,0.0,0.0,-0.0,0.0,0.25,1.5759275730000002,0.01,0.0,-0.05999999865889549,-1.3300000429153442,-0.03999999910593033,-0.07659912109375,-0.03863525390625,1.03179931640625,36.59000015258789,0.0,-52.0,-1.07366943359375,-0.58917236328125,Waiting,-5.259237536656892,5.375,-387573.0,-222.0,-1687.5,-1650.0,0.7,2.875,
15.577217999999878,0.0,0.0,6798.0,0.0,0.0,0.0,0.0,0.125,0.798339762,0.01,0.0,-8279.0,0.0,0.0,-0.0,0.0,0.0,0.443115189,0.01,0.0,5934.0,0.0,0.0,0.0,0.0,0.0,3.2714840400000003,0.01,0.0,-6839.0,0.0,0.0,-0.0,0.0,0.25,1.5759275730000002,0.01,0.0,0.05999999865889549,-1.2200000286102295,-0.03999999910593033,-0.0667724609375,-0.010986328125,0.92742919921875,36.59000015258789,0.0,-97.0,-1.070098876953125,-0.5904693603515625,Waiting,-5.230205278592376,4.75,-388114.0,-225.0,-1687.5,-1650.0,0.7,2.875,
15.7356669999999,0.0,0.0,6798.0,0.0,0.0,0.0,0.0,0.125,0.798339762,0.01,0.0,-8279.0,0.0,0.0,-0.0,0.0,0.0,0.443115189,0.01,0.0,5934.0,0.0,0.0,0.0,0.0,0.0,3.2714840400000003,0.01,0.0,-6839.0,0.0,0.0,-0.0,0.0,0.25,1.569824058,0.01,0.0,-0.05999999865889549,-1.2999999523162842,-0.03999999910593033,-0.04962158203125,-0.05584716796875,0.73333740234375,36.59000015258789,0.0,-32.0,-1.076385498046875,-0.5968475341796875,Waiting,-5.2,4.5,-388385.0,-225.0,-1687.5,-1650.0,0.0,0.0,
15.88938599999994,0.0,0.0,6798.0,0.0,0.0,0.0,0.0,0.125,0.799560465,0.01,0.0,-8279.0,0.0,0.0,-0.0,0.0,0.0,0.443115189,0.01,0.0,5934.0,0.0,0.0,0.0,0.0,0.0,3.2702633370000003,0.01,0.0,-6839.0,0.0,0.0,-0.0,0.0,0.25,1.57470687,0.01,0.0,0.05000000074505806,-1.2100000381469727,-0.03999999910593033,0.04937744140625,0.01214599609375,1.1036376953125,36.59000015258789,0.0,72.0,-1.084381103515625,-0.6107635498046875,Waiting,-5.106598240469208,4.375,-388655.0,-225.0,-1687.5,-1650.0,0.0,0.0,
16.040516999999994,0.0,0.0,6798.0,0.0,0.0,0.0,0.0,0.125,0.798339762,0.01,0.0,-8279.0,0.0,0.0,-0.0,0.0,0.0,0.443115189,0.01,0.0,5934.0,0.0,0.0,0.0,0.0,0.0,3.2714840400000003,0.01,0.0,-6839.0,0.0,0.0,-0.0,0.0,0.25,1.5759275730000002,0.01,0.0,0.03999999910593033,-1.1699999570846558,-0.03999999910593033,-0.08526611328125,-0.0560302734375,0.92730712890625,36.61000061035156,0.0,-66.0,-1.081512451171875,-0.62640380859375,Waiting,-5.054545454545455,4.25,-388925.0,-225.0,-1687.5,-1650.0,0.0,0.0,
16.190663000000175,0.0,0.0,6798.0,0.0,0.0,0.0,0.0,0.125,0.798339762,0.01,0.0,-8279.0,0.0,0.0,-0.0,0.0,0.0,0.443115189,0.01,0.0,5934.0,0.0,0.0,0.0,0.0,0.0,3.2714840400000003,0.01,0.0,-6839.0,0.0,0.0,-0.0,0.0,0.25,1.5759275730000002,0.01,0.0,0.019999999552965164,-1.2300000190734863,-0.03999999910593033,-0.0311279296875,0.10498046875,1.227783203125,36.61000061035156,0.0,-4.0,-1.080902099609375,-0.6262359619140625,Waiting,-5.106598240469208,4.375,-389465.0,-224.0,-1680.0,-1650.0,0.0,0.0,
16.331310000000055,0.0,0.0,6798.0,0.0,0.0,0.0,0.0,0.125,0.799560465,0.01,0.0,-8279.0,0.0,0.0,-0.0,0.0,0.0,0.443115189,0.01,0.0,5934.0,0.0,0.0,0.0,0.0,0.0,3.2702633370000003,0.01,0.0,-6839.0,0.0,0.0,-0.0,0.0,0.25,1.5759275730000002,0.01,0.0,0.019999999552965164,-1.2100000381469727,-0.03999999910593033,-4.2724609375E-4,-0.0244140625,1.20709228515625,36.61000061035156,0.0,25.0,-1.078125,-0.61419677734375,Waiting,-5.066666666666666,4.125,-389735.0,-224.0,-1680.0,-1650.0,0.0,0.0,
16.484774999999907,0.0,0.0,6798.0,0.0,0.0,0.0,0.0,0.125,0.797119059,0.01,0.0,-8279.0,0.0,0.0,-0.0,0.0,0.0,0.443115189,0.01,0.0,5934.0,0.0,0.0,0.0,0.0,0.0,3.2702633370000003,0.01,0.0,-6839.0,0.0,0.0,-0.0,0.0,0.25,1.57470687,0.01,0.0,0.0,-1.2200000286102295,-0.03999999910593033,-0.0389404296875,-0.02960205078125,0.9068603515625,36.61000061035156,0.0,-19.0,-1.0690155029296875,-0.6042327880859375,Waiting,-5.006060606060606,4.0,-390004.0,-224.0,-1680.0,-1650.0,0.0,0.0,
16.64439600000018,0.0,0.0,6798.0,0.0,0.0,0.0,0.0,0.125,0.798339762,0.01,0.0,-8279.0,0.0,0.0,-0.0,0.0,0.0,0.443115189,0.01,0.0,5934.0,0.0,0.0,0.0,0.0,0.0,3.2714840400000003,0.01,0.0,-6839.0,0.0,0.0,-0.0,0.0,0.25,1.5759275730000002,0.01,0.0,-0.05999999865889549,-1.2799999713897705,-0.03999999910593033,-0.07928466796875,-0.13623046875,0.69317626953125,36.61000061035156,0.0,-63.0,-1.064483642578125,-0.60577392578125,Waiting,-5.1114369501466275,4.375,-390273.0,-223.0,-1672.5,-1650.0,0.0,0.0,
16.793660999999847,0.0,0.0,6798.0,0.0,0.0,0.0,0.0,0.125,0.798339762,0.01,0.0,-8279.0,0.0,0.0,-0.0,0.0,0.0,0.444335892,0.01,0.0,5934.0,0.0,0.0,0.0,0.0,0.0,3.2714840400000003,0.01,0.0,-6839.0,0.0,0.0,-0.0,0.0,0.25,1.57470687,0.01,0.0,0.03999999910593033,-1.190000057220459,-0.05000000074505806,-0.05517578125,-0.054443359375,0.96746826171875,36.61000061035156,0.0,-34.0,-1.0601806640625,-0.607666015625,Waiting,-5.074926686217009,4.25,-390810.0,-223.0,-1672.5,-1650.0,0.0,0.0,
16.939898000000046,0.0,0.0,6798.0,0.0,0.0,0.0,0.0,0.125,0.798339762,0.01,0.0,-8279.0,0.0,0.0,-0.0,0.0,0.0,0.443115189,0.01,0.0,5934.0,0.0,0.0,0.0,0.0,0.0,3.2702633370000003,0.01,0.0,-6839.0,0.0,0.0,-0.0,0.0,0.25,1.57470687,0.01,0.0,-0.009999999776482582,-1.2599999904632568,-0.03999999910593033,-0.0413818359375,0.114013671875,1.2415771484375,36.619998931884766,0.0,-13.0,-1.06207275390625,-0.611358642578125,Waiting,-5.172287390029325,4.5,-391077.0,-223.0,-1665.0,-1650.0,0.0,0.0,
17.094242999999786,0.0,0.0,6798.0,0.0,0.0,0.0,0.0,0.125,0.798339762,0.01,0.0,-8279.0,0.0,0.0,-0.0,0.0,0.0,0.443115189,0.01,0.0,5934.0,0.0,0.0,0.0,0.0,0.0,3.2702633370000003,0.01,0.0,-6839.0,0.0,0.0,-0.0,0.0,0.25,1.57470687,0.01,0.0,-0.05999999865889549,-1.2799999713897705,-0.03999999910593033,0.04827880859375,-0.0050048828125,1.28302001953125,36.619998931884766,0.0,77.0,-1.0649871826171875,-0.6107635498046875,Waiting,-5.293988269794722,5.0,-391345.0,-221.0,-1657.5,-1650.0,0.0,0.0,
17.236123000000138,0.0,0.0,6798.0,0.0,0.0,0.0,0.0,0.125,0.798339762,0.01,0.0,-8279.0,0.0,0.0,-0.0,0.0,0.0,0.443115189,0.01,0.0,5934.0,0.0,0.0,0.0,0.0,0.0,3.2714840400000003,0.01,0.0,-6839.0,0.0,0.0,-0.0,0.0,0.25,1.5759275730000002,0.01,0.0,-0.03999999910593033,-1.2400000095367432,-0.029999999329447746,-0.02001953125,-0.0765380859375,0.9273681640625,36.619998931884766,0.0,0.0,-1.0685272216796875,-0.612213134765625,Waiting,0.0,0.125,-391608.0,-220.0,-1627.5,0.0,0.0,0.0,
17.373961000000126,0.0,0.0,6798.0,0.0,0.0,0.0,0.0,0.125,0.798339762,0.01,0.0,-8279.0,0.0,0.0,-0.0,0.0,0.0,0.443115189,0.01,0.0,5934.0,0.0,0.0,0.0,0.0,0.0,3.2727047430000002,0.01,0.0,-6839.0,0.0,0.0,-0.0,0.0,0.25,1.57470687,0.01,0.0,0.0,-1.2300000190734863,-0.029999999329447746,0.01776123046875,-0.027587890625,0.70611572265625,36.619998931884766,0.0,32.0,-1.0729522705078125,-0.6142120361328125,Waiting,0.0,0.125,-392108.0,-205.0,-1537.5,0.0,0.0,0.0,
17.513529999999797,0.0,0.0,6798.0,0.0,0.0,0.0,0.0,0.125,0.798339762,0.01,0.0,-8279.0,0.0,0.0,-0.0,0.0,0.0,0.444335892,0.01,0.0,5934.0,0.0,0.0,0.0,0.0,0.0,3.2714840400000003,0.01,0.0,-6839.0,0.0,0.0,-0.0,0.0,0.25,1.5759275730000002,0.01,0.0,0.019999999552965164,-1.2000000476837158,-0.03999999910593033,0.0555419921875,-0.05670166015625,0.94671630859375,36.65999984741211,0.0,75.0,-1.07696533203125,-0.6170806884765625,Waiting,0.0,0.125,-392341.0,-196.0,-1462.5,0.0,0.0,0.125,
17.654816999999806,0.0,0.0,6798.0,0.0,0.0,0.0,0.0,0.125,0.798339762,0.01,0.0,-8279.0,0.0,0.0,-0.0,0.0,0.0,0.443115189,0.01,0.0,5934.0,0.0,0.0,0.0,0.0,0.0,3.2714840400000003,0.01,0.0,-6839.0,0.0,0.0,-0.0,0.0,0.25,1.57470687,0.01,0.0,0.009999999776482582,-1.2000000476837158,-0.03999999910593033,-0.02044677734375,0.0540771484375,0.93597412109375,36.65999984741211,0.0,0.0,-1.0779571533203125,-0.61932373046875,Waiting,0.0,0.0,-392563.0,-186.0,-1380.0,0.0,0.0,0.0,
17.795316999999805,0.0,0.0,6798.0,0.0,0.0,0.0,0.0,0.125,0.799560465,0.01,0.0,-8279.0,0.0,0.0,-0.0,0.0,0.0,0.443115189,0.01,0.0,5934.0,0.0,0.0,0.0,0.0,0.0,3.2714840400000003,0.01,0.0,-6839.0,0.0,0.0,-0.0,0.0,0.25,1.57470687,0.01,0.0,0.07999999821186066,-1.1699999570846558,-0.029999999329447746,0.01214599609375,-0.090576171875,1.06427001953125,36.65999984741211,0.0,34.0,-1.0786590576171875,-0.618072509765625,Waiting,0.0,0.125,-392774.0,-177.0,-1290.0,0.0,0.0,0.0,
