Time,ClimberA1,ClimberA2,FRpos,FRCurrent,FRspeed,FRsetpoint,FRApos,FRACurrent,FREncpos,FREncSetpoint,FREncSpeed,FLpos,FLCurrent,FLspeed,FLsetpoint,FLApos,FLACurrent,FLEncpos,FLEncSetpoint,FLEncSpeed,BRpos,BRCurrent,BRspeed,BRsetpoint,BRApos,BRACurrent,BREncpos,BREncSetpoint,BREncSpeed,BLpos,BLCurrent,BLspeed,BLsetpoint,BLApos,BLACurrent,BLEncpos,BLEncSetpoint,BLEncSpeed,navx_Pitch,navx_Roll,navx_Yaw,navx_XAcc,navx_YAcc,navx_ZAcc,navx_Temp,navx_Bar,navx_Alt,navx_XDis,navx_YDis,GearPlacerState,ShootOutputV,ShootOutputCurrent,ShootEncPos,ShootEncVelocity,ShootSpeed,ShootSetpoint,CarouselSetpoint,CarouselCurrent,
0.16061600000003817,0.0,0.0,6976.0,0.0,0.0,0.0,0.0,0.125,0.8007811680000001,0.01,0.0,-23915.0,0.0,0.0,-0.0,0.0,0.25,0.41381831700000005,0.01,0.0,16663.0,0.0,0.0,0.0,0.0,0.125,3.280028961,0.01,0.0,-7976.0,0.0,0.0,-0.0,0.0,0.125,1.612548663,0.01,0.0,0.07999999821186066,-1.1299999952316284,0.0,-0.02020263671875,0.00372314453125,1.01641845703125,36.59000015258789,0.0,0.0,2.7158203125,-2.53521728515625,Waiting,0.0,0.125,-1213135.0,0.0,0.0,0.0,0.0,0.0,
0.21637200000003212,0.0,0.0,6976.0,0.0,0.0,0.0,0.0,0.125,0.799560465,0.01,0.0,-23915.0,0.0,0.0,-0.0,0.0,0.25,0.41381831700000005,0.01,0.0,16663.0,0.0,0.0,0.0,0.0,0.125,3.280028961,0.01,0.0,-7976.0,0.0,0.0,-0.0,0.0,0.125,1.6113279600000001,0.01,0.0,0.07999999821186066,-1.1399999856948853,0.0,-0.0205078125,8.544921875E-4,1.020263671875,36.59000015258789,0.0,0.0,2.7158203125,-2.53521728515625,Waiting,0.0,0.125,-1213135.0,0.0,0.0,0.0,0.0,0.0,
0.27346000000002096,0.0,0.0,6976.0,0.0,0.0,0.0,0.0,0.125,0.799560465,0.01,0.0,-23915.0,0.0,0.0,-0.0,0.0,0.25,0.41381831700000005,0.01,0.0,16663.0,0.0,0.0,0.0,0.0,0.125,3.281249664,0.01,0.0,-7976.0,0.0,0.0,-0.0,0.0,0.125,1.6113279600000001,0.01,0.0,0.07999999821186066,-1.1399999856948853,0.0,-0.02093505859375,0.0032958984375,1.015869140625,36.59000015258789,0.0,0.0,2.7158203125,-2.53521728515625,Waiting,0.0,0.125,-1213135.0,0.0,0.0,0.0,0.0,0.0,
0.32936800000001676,0.0,0.0,6976.0,0.0,0.0,0.0,0.0,0.125,0.8007811680000001,0.01,0.0,-23915.0,0.0,0.0,-0.0,0.0,0.25,0.41503902000000004,0.01,0.0,16663.0,0.0,0.0,0.0,0.0,0.125,3.280028961,0.01,0.0,-7976.0,0.0,0.0,-0.0,0.0,0.125,1.6113279600000001,0.01,0.0,0.07999999821186066,-1.1399999856948853,0.0,-0.0186767578125,0.0032958984375,1.01690673828125,36.56999969482422,0.0,1.0,2.7158203125,-2.53521728515625,Waiting,0.0,0.125,-1213135.0,0.0,0.0,0.0,0.0,0.0,
0.3839100000000326,0.0,0.0,6976.0,0.0,0.0,0.0,0.0,0.125,0.8007811680000001,0.01,0.0,-23915.0,0.0,0.0,-0.0,0.0,0.25,0.41381831700000005,0.01,0.0,16663.0,0.0,0.0,0.0,0.0,0.125,3.281249664,0.01,0.0,-7976.0,0.0,0.0,-0.0,0.0,0.125,1.612548663,0.01,0.0,0.07999999821186066,-1.1399999856948853,0.0,-0.016845703125,0.0030517578125,1.0213623046875,36.56999969482422,0.0,3.0,2.7158203125,-2.53521728515625,Waiting,0.0,0.125,-1213135.0,0.0,0.0,0.0,0.0,0.0,
0.43486600000003817,0.0,0.0,6976.0,0.0,0.0,0.0,0.0,0.125,0.799560465,0.01,0.0,-23915.0,0.0,0.0,-0.0,0.0,0.25,0.41381831700000005,0.01,0.0,16663.0,0.0,0.0,0.0,0.0,0.125,3.280028961,0.01,0.0,-7976.0,0.0,0.0,-0.0,0.0,0.125,1.6113279600000001,0.01,0.0,0.07999999821186066,-1.1399999856948853,0.0,-0.01953125,-7.9345703125E-4,1.01654052734375,36.56999969482422,0.0,0.0,2.7158203125,-2.53521728515625,Waiting,0.0,0.125,-1213135.0,0.0,0.0,0.0,0.0,0.0,
0.4912719999999972,0.0,0.0,6976.0,0.0,0.0,0.0,0.0,0.125,0.8007811680000001,0.01,0.0,-23915.0,0.0,0.0,-0.0,0.0,0.25,0.41381831700000005,0.01,0.0,16663.0,0.0,0.0,0.0,0.0,0.125,3.281249664,0.01,0.0012207029999999897,-7976.0,0.0,0.0,-0.0,0.0,0.125,1.612548663,0.01,0.0,0.07999999821186066,-1.1299999952316284,0.0,-0.0206298828125,9.1552734375E-4,1.024169921875,36.56999969482422,0.0,0.0,2.7158203125,-2.53521728515625,Waiting,0.0,0.125,-1213135.0,0.0,0.0,0.0,0.0,0.0,
0.5506820000000298,0.0,0.0,6976.0,0.0,0.0,0.0,0.0,0.125,0.799560465,0.01,0.0,-23915.0,0.0,0.0,-0.0,0.0,0.25,0.41381831700000005,0.01,0.0,16663.0,0.0,0.0,0.0,0.0,0.125,3.280028961,0.01,-0.0012207029999999897,-7976.0,0.0,0.0,-0.0,0.0,0.125,1.612548663,0.01,0.0,0.07999999821186066,-1.1299999952316284,0.0,-0.0234375,0.001953125,1.01678466796875,36.56999969482422,0.0,-3.0,2.7158203125,-2.53521728515625,Waiting,0.0,0.125,-1213135.0,0.0,0.0,0.0,0.0,0.0,
0.6026830000000191,0.0,0.0,6976.0,0.0,0.0,0.0,0.0,0.125,0.8007811680000001,0.01,0.0,-23915.0,0.0,0.0,-0.0,0.0,0.25,0.41381831700000005,0.01,0.0,16663.0,0.0,0.0,0.0,0.0,0.125,3.281249664,0.01,0.0,-7976.0,0.0,0.0,-0.0,0.0,0.125,1.612548663,0.01,0.0,0.07999999821186066,-1.1299999952316284,0.0,-0.02044677734375,0.00250244140625,1.01983642578125,36.56999969482422,0.0,0.0,2.7158203125,-2.53521728515625,Waiting,0.0,0.125,-1213135.0,0.0,0.0,0.0,0.0,0.0,
0.6565450000000419,0.0,0.0,6976.0,0.0,0.0,0.0,0.0,0.125,0.8007811680000001,0.01,0.0,-23915.0,0.0,0.0,-0.0,0.0,0.25,0.41503902000000004,0.01,0.0,16663.0,0.0,0.0,0.0,0.0,0.125,3.281249664,0.01,0.0,-7976.0,0.0,0.0,-0.0,0.0,0.125,1.612548663,0.01,0.0,0.07999999821186066,-1.1299999952316284,0.0,-0.021728515625,0.0025634765625,1.02325439453125,36.56999969482422,0.0,-1.0,2.7158203125,-2.53521728515625,Waiting,0.0,0.125,-1213135.0,0.0,0.0,0.0,0.0,0.125,
0.7111810000000405,0.0,0.0,6976.0,0.0,0.0,0.0,0.0,0.125,0.799560465,0.01,0.0,-23915.0,0.0,0.0,-0.0,0.0,0.25,0.41381831700000005,0.01,0.0,16663.0,0.0,0.0,0.0,0.0,0.125,3.281249664,0.01,-0.0012207029999999897,-7976.0,0.0,0.0,-0.0,0.0,0.125,1.6113279600000001,0.01,0.0,0.07999999821186066,-1.1299999952316284,0.0,-0.022216796875,0.0023193359375,1.01953125,36.56999969482422,0.0,-1.0,2.7158203125,-2.53521728515625,Waiting,0.0,0.125,-1213135.0,0.0,0.0,0.0,0.0,0.0,
0.7682390000000014,0.0,0.0,6976.0,0.0,0.0,0.0,0.0,0.125,0.799560465,0.01,0.0,-23915.0,0.0,0.0,-0.0,0.0,0.25,0.41381831700000005,0.01,0.0,16663.0,0.0,0.0,0.0,0.0,0.125,3.281249664,0.01,0.0012207029999999897,-7976.0,0.0,0.0,-0.0,0.0,0.125,1.6113279600000001,0.01,0.0,0.07999999821186066,-1.1299999952316284,0.0,-0.02362060546875,0.00537109375,1.02435302734375,36.56999969482422,0.0,-3.0,2.7158203125,-2.53521728515625,Waiting,-12.55,21.125,-1213135.0,0.0,0.0,-1650.0,0.0,0.0,
0.8213699999999954,0.0,0.0,6976.0,0.0,0.0,0.0,0.0,0.125,0.799560465,0.01,0.0,-23915.0,0.0,0.0,-0.0,0.0,0.25,0.41503902000000004,0.01,0.0,16663.0,0.0,0.0,0.0,0.0,0.125,3.281249664,0.01,0.0,-7976.0,0.0,0.0,-0.0,0.0,0.125,1.6113279600000001,0.01,0.0,0.07999999821186066,-1.1299999952316284,0.0,-0.02459716796875,-0.0091552734375,1.01312255859375,36.56999969482422,0.0,-4.0,2.7158203125,-2.53521728515625,Waiting,-12.55,68.625,-1213135.0,0.0,-45.0,-1650.0,0.0,0.0,
0.8741080000000074,0.0,0.0,6976.0,0.0,0.0,0.0,0.0,0.125,0.8007811680000001,0.01,0.0,-23915.0,0.0,0.0,-0.0,0.0,0.25,0.41381831700000005,0.01,0.0,16663.0,0.0,0.0,0.0,0.0,0.125,3.281249664,0.01,0.0,-7976.0,0.0,0.0,-0.0,0.0,0.125,1.6113279600000001,0.01,0.0,0.07000000029802322,-1.149999976158142,0.0,-0.038330078125,-0.00384521484375,0.9710693359375,36.56999969482422,0.0,-18.0,2.7158203125,-2.535186767578125,Waiting,-10.100000000000001,64.125,-1213167.0,-18.0,-210.0,-1650.0,0.0,0.125,
0.930213000000047,0.0,0.0,6976.0,0.0,0.0,0.0,0.0,0.125,0.799560465,0.01,0.0,-23915.0,0.0,0.0,-0.0,0.0,0.25,0.41381831700000005,0.01,0.0,16663.0,0.0,0.0,0.0,0.0,0.125,3.282470367,0.01,-0.0012207029999999897,-7976.0,0.0,0.0,-0.0,0.0,0.125,1.6113279600000001,0.01,0.0,0.03999999910593033,-1.149999976158142,0.0,0.02496337890625,7.32421875E-4,1.10028076171875,36.56999969482422,0.0,47.0,2.7159271240234375,-2.535491943359375,Waiting,-10.100000000000001,62.0,-1213167.0,-18.0,-345.0,-1650.0,0.0,0.0,
0.9807160000000149,0.0,0.0,6976.0,0.0,0.0,0.0,0.0,0.125,0.8007811680000001,0.01,0.0,-23915.0,0.0,0.0,-0.0,0.0,0.25,0.41381831700000005,0.01,0.0,16663.0,0.0,0.0,0.0,0.0,0.125,3.281249664,0.01,0.0,-7976.0,0.0,0.0,-0.0,0.0,0.125,1.6113279600000001,0.01,0.0,0.07000000029802322,-1.1399999856948853,0.0,-0.04248046875,0.03173828125,0.84002685546875,36.56999969482422,0.0,-25.0,2.716094970703125,-2.5356597900390625,Waiting,-10.2,61.0,-1213259.0,-68.0,-532.5,-1650.0,0.0,0.0,
1.0333030000000145,0.0,0.0,6976.0,0.0,0.0,0.0,0.0,0.125,0.799560465,0.01,0.0,-23915.0,0.0,0.0,-0.0,0.0,0.25,0.41381831700000005,0.01,0.0,16663.0,0.0,0.0,0.0,0.0,0.125,3.281249664,0.01,0.0,-7976.0,0.0,0.0,-0.0,0.0,0.125,1.6113279600000001,0.01,0.0,0.05000000074505806,-1.159999966621399,0.0,-0.02337646484375,0.01165771484375,1.0128173828125,36.56999969482422,0.0,-2.0,2.71636962890625,-2.53558349609375,Waiting,-10.2,58.375,-1213259.0,-68.0,-660.0,-1650.0,0.0,0.0,
1.0900740000000224,0.0,0.0,6976.0,0.0,0.0,0.0,0.0,0.125,0.8007811680000001,0.01,0.0,-23915.0,0.0,0.0,-0.0,0.0,0.25,0.41381831700000005,0.01,0.0,16663.0,0.0,0.0,0.0,0.0,0.125,3.281249664,0.01,0.0,-7976.0,0.0,0.0,-0.0,0.0,0.125,1.6113279600000001,0.01,0.0,0.029999999329447746,-1.1699999570846558,0.0,0.014892578125,0.1085205078125,1.1541748046875,36.56999969482422,0.0,38.0,2.7163543701171875,-2.5356292724609375,Waiting,-10.2,56.375,-1213259.0,-68.0,-840.0,-1650.0,0.0,0.0,
1.144481000000029,0.0,0.0,6976.0,0.0,0.0,0.0,0.0,0.125,0.8007811680000001,0.01,0.0,-23915.0,0.0,0.0,-0.0,0.0,0.25,0.41381831700000005,0.01,0.0,16663.0,0.0,0.0,0.0,0.0,0.125,3.282470367,0.01,0.0012207029999999897,-7976.0,0.0,0.0,-0.0,0.0,0.125,1.612548663,0.01,0.0,0.05999999865889549,-1.1200000047683716,0.0,-0.104248046875,-0.00567626953125,1.01611328125,36.56999969482422,0.0,-84.0,2.716278076171875,-2.535675048828125,Waiting,-10.3,54.75,-1213406.0,-114.0,-952.5,-1650.0,0.0,0.0,
1.1953870000000462,0.0,0.0,6976.0,0.0,0.0,0.0,0.0,0.125,0.8007811680000001,0.01,0.0,-23915.0,0.0,0.0,-0.0,0.0,0.25,0.41381831700000005,0.01,0.0,16663.0,0.0,0.0,0.0,0.0,0.125,3.282470367,0.01,0.0,-7976.0,0.0,0.0,-0.0,0.0,0.125,1.6113279600000001,0.01,0.0,0.07000000029802322,-1.1399999856948853,0.0,-0.08740234375,0.078369140625,0.94793701171875,36.56999969482422,0.0,-68.0,2.7158660888671875,-2.5355682373046875,Waiting,-10.3,52.75,-1213406.0,-114.0,-1110.0,-1650.0,0.0,0.0,
1.2499970000000322,0.0,0.0,6976.0,0.0,0.0,0.0,0.0,0.125,0.799560465,0.01,0.0,-23915.0,0.0,0.0,-0.0,0.0,0.25,0.41381831700000005,0.01,0.0,16663.0,0.0,0.0,0.0,0.0,0.125,3.281249664,0.01,-0.0012207029999999897,-7976.0,0.0,0.0,-0.0,0.0,0.125,1.612548663,0.01,0.0,0.10000000149011612,-1.1299999952316284,0.0,-0.0328369140625,-0.06866455078125,1.10418701171875,36.56999969482422,0.0,-10.0,2.7154083251953125,-2.5348968505859375,Waiting,-10.4,51.5,-1213601.0,-155.0,-1215.0,-1650.0,0.0,0.0,
1.3049280000000145,0.0,0.0,6976.0,0.0,0.0,0.0,0.0,0.125,0.8007811680000001,0.01,0.0,-23915.0,0.0,0.0,-0.0,0.0,0.25,0.41381831700000005,0.01,0.0,16663.0,0.0,0.0,0.0,0.0,0.125,3.281249664,0.01,0.0,-7976.0,0.0,0.0,-0.0,0.0,0.125,1.612548663,0.01,0.0,0.10999999940395355,-1.1299999952316284,0.0,-0.07244873046875,0.01373291015625,0.82257080078125,36.560001373291016,0.0,-56.0,2.715850830078125,-2.53466796875,Waiting,-10.288172043010753,47.25,-1213601.0,-155.0,-1365.0,-1650.0,0.0,0.125,
1.3661240000000108,0.0,0.0,6976.0,0.0,0.0,0.0,0.0,0.125,0.8007811680000001,0.01,0.0,-23915.0,0.0,0.0,-0.0,0.0,0.25,0.41381831700000005,0.01,0.0,16663.0,0.0,0.0,0.0,0.0,0.125,3.281249664,0.01,0.0,-7976.0,0.0,0.0,-0.0,0.0,0.125,1.6113279600000001,0.01,0.0,0.11999999731779099,-1.1299999952316284,0.0,-0.0013427734375,0.07891845703125,1.02178955078125,36.560001373291016,0.0,18.0,2.7161407470703125,-2.5343170166015625,Waiting,-9.205865102639297,35.875,-1213840.0,-192.0,-1500.0,-1650.0,0.0,0.0,
1.413662000000011,0.0,0.0,6976.0,0.0,0.0,0.0,0.0,0.125,0.8007811680000001,0.01,0.0,-23915.0,0.0,0.0,-0.0,0.0,0.25,0.41381831700000005,0.01,0.0,16663.0,0.0,0.0,0.0,0.0,0.125,3.281249664,0.01,0.0,-7976.0,0.0,0.0,-0.0,0.0,0.125,1.612548663,0.01,0.0,0.10000000149011612,-1.1699999570846558,0.0,-0.03521728515625,0.03778076171875,1.09161376953125,36.560001373291016,0.0,-12.0,2.716461181640625,-2.5337982177734375,Waiting,-7.928445747800587,25.25,-1213840.0,-192.0,-1575.0,-1650.0,0.0,0.125,
1.468460000000021,0.0,0.0,6976.0,0.0,0.0,0.0,0.0,0.125,0.8007811680000001,0.01,0.0,-23915.0,0.0,0.0,-0.0,0.0,0.25,0.41381831700000005,0.01,0.0,16663.0,0.0,0.0,0.0,0.0,0.125,3.281249664,0.01,-0.0012207029999999897,-7976.0,0.0,0.0,-0.0,0.0,0.125,1.612548663,0.01,0.0,0.07999999821186066,-1.190000057220459,0.0,0.02734375,-0.0306396484375,1.2271728515625,36.560001373291016,0.0,53.0,2.71710205078125,-2.5335693359375,Waiting,-4.9044477028347995,17.125,-1214109.0,-220.0,-1665.0,-1650.0,0.0,0.0,
1.516168000000005,0.0,0.0,6976.0,0.0,0.0,0.0,0.0,0.125,0.8007811680000001,0.01,0.0,-23915.0,0.0,0.0,-0.0,0.0,0.25,0.41503902000000004,0.01,0.0,16663.0,0.0,0.0,0.0,0.0,0.125,3.282470367,0.01,0.0012207029999999897,-7976.0,0.0,0.0,-0.0,0.0,0.125,1.6113279600000001,0.01,0.0,0.05999999865889549,-1.1699999570846558,0.0,-0.0068359375,-0.007080078125,1.10528564453125,36.560001373291016,0.0,15.0,2.718414306640625,-2.5335693359375,Waiting,-6.248289345063538,10.875,-1214109.0,-220.0,-1702.5,-1650.0,0.0,0.0,
1.5720890000000363,0.0,0.0,6976.0,0.0,0.0,0.0,0.0,0.125,0.808105386,0.01,0.0,-23915.0,0.0,0.0,-0.0,0.0,0.25,0.41381831700000005,0.01,0.0,16663.0,0.0,0.0,0.0,0.0,0.125,3.281249664,0.01,0.0,-7976.0,0.0,0.0,-0.0,0.0,0.125,1.612548663,0.01,0.0,0.03999999910593033,-1.25,0.0,-0.02056884765625,-0.1405029296875,1.114501953125,36.560001373291016,0.0,3.0,2.7200469970703125,-2.533782958984375,Waiting,-5.673998044965787,8.375,-1214109.0,-220.0,-1732.5,-1650.0,0.0,0.0,
1.6243050000000512,0.0,0.0,6976.0,0.0,0.0,0.0,0.0,0.125,0.8007811680000001,0.01,0.0,-23915.0,0.0,0.0,-0.0,0.0,0.25,0.41381831700000005,0.01,0.0,16663.0,0.0,0.0,0.0,0.0,0.125,3.280028961,0.01,-0.0012207029999999897,-7976.0,0.0,0.0,-0.0,0.0,0.125,1.612548663,0.01,0.0,0.0,-1.25,0.0,-0.04986572265625,0.0140380859375,0.999755859375,36.560001373291016,0.0,-27.0,2.72003173828125,-2.5347747802734375,Waiting,-5.4772727272727275,6.375,-1214388.0,-232.0,-1755.0,-1650.0,0.0,0.125,
1.6733240000000225,0.0,0.0,6976.0,0.0,0.0,0.0,0.0,0.125,0.8007811680000001,0.01,0.0,-23915.0,0.0,0.0,-0.0,0.0,0.25,0.41381831700000005,0.01,0.0,16663.0,0.0,0.0,0.0,0.0,0.125,3.281249664,0.01,0.0012207029999999897,-7976.0,0.0,0.0,-0.0,0.0,0.125,1.612548663,0.01,0.0,0.0,-1.2000000476837158,0.0,-0.05804443359375,-0.02496337890625,1.0142822265625,36.560001373291016,0.0,-36.0,2.71929931640625,-2.53662109375,Waiting,-5.418377321603128,5.5,-1214388.0,-232.0,-1755.0,-1650.0,0.0,0.125,
1.727817000000039,0.0,0.0,6976.0,0.0,0.0,0.0,0.0,0.125,0.8007811680000001,0.01,0.0,-23915.0,0.0,0.0,-0.0,0.0,0.25,0.41381831700000005,0.01,0.0,16663.0,0.0,0.0,0.0,0.0,0.125,3.281249664,0.01,-0.0012207029999999897,-7976.0,0.0,0.0,-0.0,0.0,0.125,1.618652178,0.01,0.0,-0.009999999776482582,-1.2200000286102295,0.0,-0.02301025390625,-0.02630615234375,1.14385986328125,36.560001373291016,0.0,1.0,2.7185516357421875,-2.53778076171875,Waiting,-5.2397849462365595,4.75,-1214671.0,-235.0,-1762.5,-1650.0,0.0,0.0,
1.7764440000000177,0.0,0.0,6976.0,0.0,0.0,0.0,0.0,0.125,0.799560465,0.01,0.0,-23915.0,0.0,0.0,-0.0,0.0,0.25,0.41503902000000004,0.01,0.0,16663.0,0.0,0.0,0.0,0.0,0.125,3.281249664,0.01,0.0,-7976.0,0.0,0.0,-0.0,0.0,0.125,1.612548663,0.01,0.0,-0.029999999329447746,-1.25,0.0,0.1048583984375,0.08026123046875,0.99005126953125,36.560001373291016,0.0,126.0,2.719482421875,-2.5390167236328125,Waiting,-5.156989247311827,4.5,-1214671.0,-235.0,-1762.5,-1650.0,0.0,0.0,
1.8293479999999982,0.0,0.0,6976.0,0.0,0.0,0.0,0.0,0.125,0.8007811680000001,0.01,0.0,-23915.0,0.0,0.0,-0.0,0.0,0.25,0.41381831700000005,0.01,0.0,16663.0,0.0,0.0,0.0,0.0,0.125,3.281249664,0.01,0.0,-7976.0,0.0,0.0,-0.0,0.0,0.125,1.6113279600000001,0.01,0.0,-0.009999999776482582,-1.2100000381469727,0.0,0.0390625,0.13037109375,0.83233642578125,36.560001373291016,0.0,56.0,2.721527099609375,-2.5389404296875,Waiting,-5.271163245356794,4.625,-1214952.0,-234.0,-1755.0,-1650.0,0.0,0.0,
1.8777880000000005,0.0,0.0,6976.0,0.0,0.0,0.0,0.0,0.125,0.799560465,0.01,0.0,-23915.0,0.0,0.0,-0.0,0.0,0.25,0.41381831700000005,0.01,0.0,16663.0,0.0,0.0,0.0,0.0,0.125,3.280028961,0.01,0.0012207029999999897,-7976.0,0.0,0.0,-0.0,0.0,0.125,1.6113279600000001,0.01,0.0,0.0,-1.1799999475479126,0.0,-0.072509765625,0.07135009765625,0.755615234375,36.560001373291016,0.0,-56.0,2.723388671875,-2.5377655029296875,Waiting,-5.199608993157381,4.5,-1214952.0,-234.0,-1755.0,-1650.0,0.0,0.0,
1.9316880000000238,0.0,0.0,6976.0,0.0,0.0,0.0,0.0,0.125,0.799560465,0.01,0.0,-23915.0,0.0,0.0,-0.0,0.0,0.25,0.41381831700000005,0.01,0.0,16663.0,0.0,0.0,0.0,0.0,0.125,3.281249664,0.01,-0.0012207029999999897,-7976.0,0.0,0.0,-0.0,0.0,0.125,1.6113279600000001,0.01,0.0,-0.009999999776482582,-1.2100000381469727,0.0,-0.1041259765625,0.04150390625,0.9315185546875,36.560001373291016,0.0,-84.0,2.7226104736328125,-2.5365142822265625,Waiting,-5.13998044965787,4.25,-1214952.0,-234.0,-1755.0,-1650.0,0.0,0.0,
1.9841910000000498,0.0,0.0,6976.0,0.0,0.0,0.0,0.0,0.125,0.799560465,0.01,0.0,-23915.0,0.0,0.0,-0.0,0.0,0.25,0.41503902000000004,0.01,0.0,16663.0,0.0,0.0,0.0,0.0,0.125,3.2702633370000003,0.01,0.0,-7976.0,0.0,0.0,-0.0,0.0,0.125,1.612548663,0.01,0.0,0.009999999776482582,-1.2200000286102295,0.0,0.04241943359375,-0.0166015625,1.2076416015625,36.560001373291016,0.0,68.0,2.719696044921875,-2.5351104736328125,Waiting,-5.190175953079179,4.5,-1215233.0,-234.0,-1747.5,-1650.0,0.0,0.0,
2.034362000000023,0.0,0.0,6976.0,0.0,0.0,0.0,0.0,0.125,0.8007811680000001,0.01,0.0,-23915.0,0.0,0.0,-0.0,0.0,0.25,0.41381831700000005,0.01,0.0,16663.0,0.0,0.0,0.0,0.0,0.125,3.281249664,0.01,0.0,-7976.0,0.0,0.0,-0.0,0.0,0.125,1.6113279600000001,0.01,0.0,0.03999999910593033,-1.1799999475479126,0.0,-0.038818359375,-0.010986328125,1.02374267578125,36.560001373291016,0.0,-17.0,2.7168426513671875,-2.534698486328125,Waiting,-5.130791788856305,4.25,-1215233.0,-234.0,-1747.5,-1650.0,0.0,0.0,
2.0881290000000154,0.0,0.0,6976.0,0.0,0.0,0.0,0.0,0.125,0.8007811680000001,0.01,0.0,-23915.0,0.0,0.0,-0.0,0.0,0.25,0.41381831700000005,0.01,0.0,16663.0,0.0,0.0,0.0,0.0,0.125,3.281249664,0.01,0.0,-7976.0,0.0,0.0,-0.0,0.0,0.125,1.612548663,0.01,0.0,0.05000000074505806,-1.1399999856948853,0.0,-0.05010986328125,-0.0166015625,1.030517578125,36.560001373291016,0.0,-29.0,2.7168121337890625,-2.53509521484375,Waiting,-5.232893450635386,4.375,-1215514.0,-232.0,-1740.0,-1650.0,0.0,0.0,
2.1343880000000355,0.0,0.0,6976.0,0.0,0.0,0.0,0.0,0.125,0.8007811680000001,0.01,0.0,-23915.0,0.0,0.0,-0.0,0.0,0.25,0.41381831700000005,0.01,0.0,16663.0,0.0,0.0,0.0,0.0,0.125,3.282470367,0.01,0.0012207029999999897,-7976.0,0.0,0.0,-0.0,0.0,0.125,1.6113279600000001,0.01,0.0,0.07000000029802322,-1.1200000047683716,0.0,0.0478515625,-0.018798828125,1.068115234375,36.560001373291016,0.0,68.0,2.717132568359375,-2.53570556640625,Waiting,-5.184995112414467,4.5,-1215514.0,-232.0,-1740.0,-1650.0,0.0,0.0,
2.1889340000000086,0.0,0.0,6976.0,0.0,0.0,0.0,0.0,0.125,0.8007811680000001,0.01,0.0,-23915.0,0.0,0.0,-0.0,0.0,0.25,0.41381831700000005,0.01,0.0,16663.0,0.0,0.0,0.0,0.0,0.125,3.281249664,0.01,0.0,-7976.0,0.0,0.0,-0.0,0.0,0.125,1.6113279600000001,0.01,0.0,0.07999999821186066,-1.1699999570846558,0.0,0.019287109375,-0.08013916015625,1.2646484375,36.560001373291016,0.0,45.0,2.718109130859375,-2.5367279052734375,Waiting,-5.268817204301075,4.375,-1215791.0,-231.0,-1732.5,-1650.0,0.0,0.0,
2.236125,0.0,0.0,6976.0,0.0,0.0,0.0,0.0,0.125,0.799560465,0.01,0.0,-23915.0,0.0,0.0,-0.0,0.0,0.25,0.41381831700000005,0.01,0.0,16663.0,0.0,0.0,0.0,0.0,0.125,3.281249664,0.01,0.0,-7976.0,0.0,0.0,-0.0,0.0,0.125,1.6113279600000001,0.01,0.0,0.019999999552965164,-1.2200000286102295,0.0,-0.00274658203125,-0.05377197265625,1.154541015625,36.560001373291016,0.0,21.0,2.718902587890625,-2.5390472412109375,Waiting,-5.208944281524927,4.5,-1215791.0,-231.0,-1732.5,-1650.0,0.0,0.125,
2.2933880000000353,0.0,0.0,6976.0,0.0,0.0,0.0,0.0,0.125,0.799560465,0.01,0.0,-23915.0,0.0,0.0,-0.0,0.0,0.25,0.41381831700000005,0.01,0.0,16663.0,0.0,0.0,0.0,0.0,0.125,3.281249664,0.01,0.0,-7976.0,0.0,0.0,-0.0,0.0,0.125,1.612548663,0.01,0.0,-0.019999999552965164,-1.2400000095367432,0.0,-0.03826904296875,-0.0599365234375,1.22918701171875,36.560001373291016,0.0,-11.0,2.71875,-2.5430145263671875,Waiting,-5.149071358748778,4.25,-1216068.0,-231.0,-1732.5,-1650.0,0.0,0.125,
2.3483680000000167,0.0,0.0,6976.0,0.0,0.0,0.0,0.0,0.125,0.8007811680000001,0.01,0.0,-23915.0,0.0,0.0,-0.0,0.0,0.25,0.41503902000000004,0.01,0.0,16663.0,0.0,0.0,0.0,0.0,0.125,3.281249664,0.01,-0.0012207029999999897,-7976.0,0.0,0.0,-0.0,0.0,0.125,1.6113279600000001,0.01,0.0,-0.05999999865889549,-1.25,0.0,-0.0404052734375,0.0400390625,1.12060546875,36.560001373291016,0.0,-15.0,2.7186431884765625,-2.545654296875,Waiting,-5.211534701857283,4.375,-1216068.0,-231.0,-1725.0,-1650.0,0.0,0.125,
2.395454000000027,0.0,0.0,6976.0,0.0,0.0,0.0,0.0,0.125,0.8007811680000001,0.01,0.0,-23915.0,0.0,0.0,-0.0,0.0,0.25,0.41381831700000005,0.01,0.0,16663.0,0.0,0.0,0.0,0.0,0.125,3.281249664,0.01,0.0012207029999999897,-7976.0,0.0,0.0,-0.0,0.0,0.125,1.612548663,0.01,0.0,0.0,-1.2200000286102295,0.0,-0.08642578125,0.01666259765625,1.1536865234375,36.560001373291016,0.0,-61.0,2.718292236328125,-2.5510406494140625,Waiting,-5.163831867057674,4.375,-1216068.0,-231.0,-1725.0,-1650.0,0.0,0.0,
2.4487440000000062,0.0,0.0,6976.0,0.0,0.0,0.0,0.0,0.125,0.8007811680000001,0.01,0.0,-23915.0,0.0,0.0,-0.0,0.0,0.25,0.41381831700000005,0.01,0.0,16663.0,0.0,0.0,0.0,0.0,0.125,3.281249664,0.01,-0.0012207029999999897,-7976.0,0.0,0.0,-0.0,0.0,0.125,1.612548663,0.01,0.0,0.05999999865889549,-1.190000057220459,0.0,-0.072998046875,0.01788330078125,1.00299072265625,36.560001373291016,0.0,-51.0,2.71722412109375,-2.555877685546875,Waiting,-5.116129032258065,4.25,-1216346.0,-230.0,-1717.5,-1650.0,0.0,0.0,
2.5090470000000207,0.0,0.0,6976.0,0.0,0.0,0.0,0.0,0.125,0.8007811680000001,0.01,0.0,-23915.0,0.0,0.0,-0.0,0.0,0.25,0.41381831700000005,0.01,0.0,16663.0,0.0,0.0,0.0,0.0,0.125,3.282470367,0.01,0.0012207029999999897,-7976.0,0.0,0.0,-0.0,0.0,0.125,1.6113279600000001,0.01,0.0,0.07000000029802322,-1.1699999570846558,0.0,-0.00933837890625,0.05810546875,1.050048828125,36.560001373291016,0.0,12.0,2.716064453125,-2.5591583251953125,Waiting,-5.211534701857283,4.625,-1216346.0,-230.0,-1717.5,-1650.0,0.0,0.125,
2.556308000000019,0.0,0.0,6976.0,0.0,0.0,0.0,0.0,0.125,0.8007811680000001,0.01,0.0,-23915.0,0.0,0.0,-0.0,0.0,0.25,0.41503902000000004,0.01,0.0,16663.0,0.0,0.0,0.0,0.0,0.125,3.281249664,0.01,-0.0012207029999999897,-7976.0,0.0,0.0,-0.0,0.0,0.125,1.6113279600000001,0.01,0.0,0.12999999523162842,-1.1299999952316284,0.0,0.00555419921875,0.0224609375,1.181396484375,36.560001373291016,0.0,29.0,2.714935302734375,-2.5619354248046875,Waiting,-5.163831867057674,4.5,-1216619.0,-229.0,-1717.5,-1650.0,0.0,0.125,
2.6100650000000023,0.0,0.0,6976.0,0.0,0.0,0.0,0.0,0.125,0.8007811680000001,0.01,0.0,-23915.0,0.0,0.0,-0.0,0.0,0.25,0.41503902000000004,0.01,0.0,16663.0,0.0,0.0,0.0,0.0,0.125,3.281249664,0.01,0.0,-7976.0,0.0,0.0,-0.0,0.0,0.125,1.612548663,0.01,0.0,0.18000000715255737,-1.0800000429153442,0.0,-0.0064697265625,0.0457763671875,1.06231689453125,36.560001373291016,0.0,-22.0,2.7136688232421875,-2.5618438720703125,Waiting,-5.116129032258065,4.375,-1216619.0,-229.0,-1717.5,-1650.0,0.0,0.125,
2.6563870000000462,0.0,0.0,6976.0,0.0,0.0,0.0,0.0,0.125,0.799560465,0.01,0.0,-23915.0,0.0,0.0,-0.0,0.0,0.25,0.41381831700000005,0.01,0.0,16663.0,0.0,0.0,0.0,0.0,0.125,3.281249664,0.01,0.0,-7976.0,0.0,0.0,-0.0,0.0,0.125,1.6113279600000001,0.01,0.0,0.2199999988079071,-1.0199999809265137,0.0,-0.0048828125,0.100341796875,1.09552001953125,36.560001373291016,0.0,14.0,2.7130584716796875,-2.5612335205078125,Waiting,-5.223460410557185,4.625,-1216619.0,-229.0,-1710.0,-1650.0,0.0,0.125,
2.70947900000005,0.0,0.0,6976.0,0.0,0.0,0.0,0.0,0.125,0.799560465,0.01,0.0,-23915.0,0.0,0.0,-0.0,0.0,0.25,0.41503902000000004,0.01,0.0,16663.0,0.0,0.0,0.0,0.0,0.125,3.281249664,0.01,0.0,-7976.0,0.0,0.0,-0.0,0.0,0.125,1.6113279600000001,0.01,0.0,0.27000001072883606,-0.9800000190734863,0.0,-0.021728515625,0.04034423828125,1.15191650390625,36.560001373291016,0.0,-2.0,2.7130584716796875,-2.560150146484375,Waiting,-5.196969696969697,4.5,-1216893.0,-228.0,-1710.0,-1650.0,0.0,0.0,
2.760389000000025,0.0,0.0,6976.0,0.0,0.0,0.0,0.0,0.125,0.799560465,0.01,0.0,-23915.0,0.0,0.0,-0.0,0.0,0.25,0.41503902000000004,0.01,0.0,16663.0,0.0,0.0,0.0,0.0,0.125,3.280028961,0.01,0.0012207029999999897,-7976.0,0.0,0.0,-0.0,0.0,0.125,1.612548663,0.01,0.0,0.30000001192092896,-0.949999988079071,0.0,-0.0260009765625,0.087646484375,1.1451416015625,36.560001373291016,0.0,-6.0,2.713134765625,-2.55810546875,Waiting,-5.161045943304008,4.375,-1216893.0,-228.0,-1710.0,-1650.0,0.0,0.0,
2.811701000000001,0.0,0.0,6976.0,0.0,0.0,0.0,0.0,0.125,0.799560465,0.01,0.0,-23915.0,0.0,0.0,-0.0,0.0,0.25,0.41503902000000004,0.01,0.0,16663.0,0.0,0.0,0.0,0.0,0.125,3.281249664,0.01,0.0,-7976.0,0.0,0.0,-0.0,0.0,0.125,1.612548663,0.01,0.0,0.36000001430511475,-0.9100000262260437,0.0,-0.07708740234375,0.04339599609375,1.12255859375,36.560001373291016,0.0,-59.0,2.713104248046875,-2.55645751953125,Waiting,-5.24731182795699,4.5,-1217167.0,-227.0,-1702.5,-1650.0,0.0,0.0,
2.8634760000000243,0.0,0.0,6976.0,0.0,0.0,0.0,0.0,0.125,0.799560465,0.01,0.0,-23915.0,0.0,0.0,-0.0,0.0,0.25,0.41381831700000005,0.01,0.0,16663.0,0.0,0.0,0.0,0.0,0.125,3.281249664,0.01,-0.0012207029999999897,-7976.0,0.0,0.0,-0.0,0.0,0.125,1.612548663,0.01,0.0,0.4300000071525574,-0.8500000238418579,0.0,-0.0078125,0.0673828125,1.10931396484375,36.560001373291016,0.0,8.0,2.712554931640625,-2.5536651611328125,Waiting,-5.211534701857283,4.625,-1217167.0,-227.0,-1702.5,-1650.0,0.0,0.125,
2.91125900000002,0.0,0.0,6976.0,0.0,0.0,0.0,0.0,0.125,0.799560465,0.01,0.0,-23915.0,0.0,0.0,-0.0,0.0,0.25,0.41503902000000004,0.01,0.0,16663.0,0.0,0.0,0.0,0.0,0.125,3.281249664,0.01,0.0012207029999999897,-7976.0,0.0,0.0,-0.0,0.0,0.125,1.612548663,0.01,0.0,0.4699999988079071,-0.8500000238418579,0.0,-0.03448486328125,0.0477294921875,1.166259765625,36.560001373291016,0.0,-17.0,2.7119140625,-2.5514068603515625,Waiting,-5.208944281524927,4.5,-1217442.0,-227.0,-1702.5,-1650.0,0.0,0.0,
2.9635890000000362,0.0,0.0,6976.0,0.0,0.0,0.0,0.0,0.125,0.8007811680000001,0.01,0.0,-23915.0,0.0,0.0,-0.0,0.0,0.25,0.41381831700000005,0.01,0.0,16663.0,0.0,0.0,0.0,0.0,0.125,3.280028961,0.01,0.0,-7976.0,0.0,0.0,-0.0,0.0,0.125,1.612548663,0.01,0.0,0.5299999713897705,-0.8299999833106995,0.0,0.00750732421875,0.03826904296875,1.23095703125,36.560001373291016,0.0,25.0,2.7107696533203125,-2.5477447509765625,Waiting,-5.173020527859237,4.5,-1217442.0,-227.0,-1702.5,-1650.0,0.0,0.0,
3.0137300000000398,0.0,0.0,6976.0,0.0,0.0,0.0,0.0,0.125,0.799560465,0.01,0.0,-23915.0,0.0,0.0,-0.0,0.0,0.25,0.41503902000000004,0.01,0.0,16663.0,0.0,0.0,0.0,0.0,0.125,3.281249664,0.01,-0.0012207029999999897,-7976.0,0.0,0.0,-0.0,0.0,0.125,1.612548663,0.01,0.0,0.5099999904632568,-0.8299999833106995,0.0,-0.017822265625,-0.07501220703125,1.15863037109375,36.560001373291016,0.0,0.0,2.7098236083984375,-2.545074462890625,Waiting,-5.268817204301075,4.625,-1217442.0,-227.0,-1695.0,-1650.0,0.0,0.0,
3.0664349999999976,0.0,0.0,6976.0,0.0,0.0,0.0,0.0,0.125,0.8007811680000001,0.01,0.0,-23915.0,0.0,0.0,-0.0,0.0,0.25,0.41503902000000004,0.01,0.0,16663.0,0.0,0.0,0.0,0.0,0.125,3.281249664,0.01,0.0,-7976.0,0.0,0.0,-0.0,0.0,0.125,1.6113279600000001,0.01,0.0,0.4099999964237213,-0.8999999761581421,0.0,-0.00830078125,-0.03729248046875,1.1253662109375,36.560001373291016,0.0,9.0,2.7086181640625,-2.5428314208984375,Waiting,-5.211534701857283,4.625,-1217712.0,-226.0,-1695.0,-1650.0,0.0,0.0,
3.114023000000045,0.0,0.0,6976.0,0.0,0.0,0.0,0.0,0.125,0.799560465,0.01,0.0,-23915.0,0.0,0.0,-0.0,0.0,0.25,0.41381831700000005,0.01,0.0,16663.0,0.0,0.0,0.0,0.0,0.125,3.281249664,0.01,-0.0012207029999999897,-7976.0,0.0,0.0,-0.0,0.0,0.125,1.612548663,0.01,0.0,0.33000001311302185,-0.949999988079071,0.0,0.01776123046875,0.01214599609375,1.10595703125,36.560001373291016,0.0,36.0,2.7087249755859375,-2.5422210693359375,Waiting,-5.187683284457479,4.625,-1217712.0,-226.0,-1695.0,-1650.0,0.0,0.0,
3.16825,0.0,0.0,6976.0,0.0,0.0,0.0,0.0,0.125,0.797119059,0.01,0.0,-23915.0,0.0,0.0,-0.0,0.0,0.25,0.41503902000000004,0.01,0.0,16663.0,0.0,0.0,0.0,0.0,0.125,3.281249664,0.01,0.0,-7976.0,0.125,0.0,-0.0,0.0,0.125,1.6113279600000001,0.01,0.0,0.25,-1.0399999618530273,0.0,-0.006103515625,0.0155029296875,1.1087646484375,36.560001373291016,0.0,14.0,2.7088470458984375,-2.54241943359375,Waiting,-5.151906158357772,4.5,-1217983.0,-226.0,-1695.0,-1650.0,0.0,0.0,
3.2193209999999963,0.0,0.0,6976.0,0.0,0.0,0.0,0.0,0.125,0.8007811680000001,0.01,0.0,-23915.0,0.0,0.0,-0.0,0.0,0.25,0.41381831700000005,0.01,0.0,16663.0,0.0,0.0,0.0,0.0,0.125,3.281249664,0.01,0.0,-7976.0,0.125,0.0,-0.0,0.0,0.125,1.6113279600000001,0.01,0.0,0.25,-1.059999942779541,0.0,0.09185791015625,0.00634765625,1.15057373046875,36.560001373291016,0.0,113.0,2.709136962890625,-2.54327392578125,Waiting,-5.271163245356794,4.625,-1217983.0,-226.0,-1687.5,-1650.0,0.0,0.0,
3.2733880000000353,0.0,0.0,6976.0,0.0,0.0,0.0,0.0,0.125,0.8007811680000001,0.01,0.0,-23915.0,0.0,0.0,-0.0,0.0,0.25,0.41381831700000005,0.01,0.0,16663.0,0.0,0.0,0.0,0.0,0.125,3.281249664,0.01,0.0,-7976.0,0.0,0.0,-0.0,0.0,0.125,1.6113279600000001,0.01,0.0,0.25999999046325684,-1.0399999618530273,0.0,0.0189208984375,-0.03143310546875,1.13421630859375,36.560001373291016,0.0,42.0,2.71044921875,-2.5448150634765625,Waiting,-5.24731182795699,4.875,-1218254.0,-225.0,-1687.5,-1650.0,0.0,0.0,
3.3258540000000503,0.0,0.0,6976.0,0.0,0.0,0.0,0.0,0.125,0.8007811680000001,0.01,0.0,-23915.0,0.0,0.0,-0.0,0.0,0.25,0.41381831700000005,0.01,0.0,16663.0,0.0,0.0,0.0,0.0,0.125,3.280028961,0.01,0.0,-7976.0,0.0,0.0,-0.0,0.0,0.125,1.6113279600000001,0.01,0.0,0.2800000011920929,-0.9599999785423279,-0.009999999776482582,-0.03631591796875,-0.03924560546875,1.08575439453125,36.560001373291016,0.0,-18.0,2.7119598388671875,-2.5465545654296875,Waiting,-5.223460410557185,4.625,-1218254.0,-225.0,-1687.5,-1650.0,0.0,0.0,
3.3741630000000002,0.0,0.0,6976.0,0.0,0.0,0.0,0.0,0.125,0.8007811680000001,0.01,0.0,-23915.0,0.0,0.0,-0.0,0.0,0.25,0.41381831700000005,0.01,0.0,16663.0,0.0,0.0,0.0,0.0,0.125,3.280028961,0.01,0.0,-7976.0,0.0,0.0,-0.0,0.0,0.125,1.6113279600000001,0.01,0.0,0.3400000035762787,-0.9399999976158142,-0.009999999776482582,-0.0357666015625,-0.0889892578125,1.09393310546875,36.58000183105469,0.0,-17.0,2.7124786376953125,-2.549072265625,Waiting,-5.199608993157381,4.625,-1218524.0,-225.0,-1687.5,-1650.0,0.0,0.0,
3.427624000000011,0.0,0.0,6976.0,0.0,0.0,0.0,0.0,0.125,0.8007811680000001,0.01,0.0,-23915.0,0.0,0.0,-0.0,0.0,0.25,0.41381831700000005,0.01,0.0,16663.0,0.0,0.0,0.0,0.0,0.125,3.281249664,0.01,0.0,-7976.0,0.0,0.0,-0.0,0.0,0.125,1.612548663,0.01,0.0,0.3499999940395355,-0.9300000071525574,-0.009999999776482582,-0.15447998046875,0.02093505859375,0.95892333984375,36.58000183105469,0.0,-138.0,2.711944580078125,-2.553924560546875,Waiting,-5.175757575757576,4.5,-1218524.0,-225.0,-1687.5,-1650.0,0.0,0.0,
3.47523000000004,0.0,0.0,6976.0,0.0,0.0,0.0,0.0,0.125,0.799560465,0.01,0.0,-23915.0,0.0,0.0,-0.0,0.0,0.25,0.41381831700000005,0.01,0.0,16663.0,0.0,0.0,0.0,0.0,0.125,3.281249664,0.01,0.0012207029999999897,-7976.0,0.0,0.0,-0.0,0.0,0.125,1.612548663,0.01,0.0,0.3100000023841858,-0.949999988079071,-0.009999999776482582,-0.1842041015625,-0.068359375,0.84027099609375,36.58000183105469,0.0,-170.0,2.7106170654296875,-2.558074951171875,Waiting,-5.151906158357772,4.5,-1218524.0,-225.0,-1687.5,-1650.0,0.0,0.0,
3.528119000000006,0.0,0.0,6976.0,0.0,0.0,0.0,0.0,0.125,0.799560465,0.01,0.0,-23915.0,0.0,0.0,-0.0,0.0,0.25,0.41503902000000004,0.01,0.0,16663.0,0.0,0.0,0.0,0.0,0.125,3.281249664,0.01,-0.0012207029999999897,-7976.0,0.0,0.0,-0.0,0.0,0.125,1.612548663,0.01,0.0,0.23999999463558197,-1.0499999523162842,-0.009999999776482582,-0.04937744140625,-0.0657958984375,1.0333251953125,36.58000183105469,0.0,-30.0,2.706787109375,-2.5644989013671875,Waiting,-5.259237536656892,4.875,-1218794.0,-224.0,-1680.0,-1650.0,0.0,0.0,
3.5776530000000495,0.0,0.0,6976.0,0.0,0.0,0.0,0.0,0.125,0.8007811680000001,0.01,0.0,-23915.0,0.0,0.0,-0.0,0.0,0.25,0.41381831700000005,0.01,0.0,16663.0,0.0,0.0,0.0,0.0,0.125,3.277587555,0.01,0.0,-7976.0,0.0,0.0,-0.0,0.0,0.125,1.6113279600000001,0.01,0.0,0.2199999988079071,-1.0399999618530273,-0.009999999776482582,-0.03814697265625,0.03546142578125,0.88580322265625,36.58000183105469,0.0,-21.0,2.7029876708984375,-2.57000732421875,Waiting,-5.235386119257087,4.75,-1218794.0,-224.0,-1680.0,-1650.0,0.0,0.0,
3.633814000000013,0.0,0.0,6976.0,0.0,0.0,0.0,0.0,0.125,0.8007811680000001,0.01,0.0,-23915.0,0.0,0.0,-0.0,0.0,0.25,0.41503902000000004,0.01,0.0,16663.0,0.0,0.0,0.0,0.0,0.125,3.280028961,0.01,0.0,-7976.0,0.0,0.0,-0.0,0.0,0.125,1.612548663,0.01,0.0,0.23000000417232513,-1.0199999809265137,-0.009999999776482582,0.01727294921875,0.01092529296875,0.97576904296875,36.58000183105469,0.0,34.0,2.6990203857421875,-2.575592041015625,Waiting,-5.244868035190616,4.75,-1219063.0,-224.0,-1680.0,-1650.0,0.0,0.125,
3.6878540000000504,0.0,0.0,6976.0,0.0,0.0,0.0,0.0,0.125,0.799560465,0.01,0.0,-23915.0,0.0,0.0,-0.0,0.0,0.25,0.41503902000000004,0.01,0.0,16663.0,0.0,0.0,0.0,0.0,0.125,3.282470367,0.01,0.0012207029999999897,-7976.0,0.0,0.0,-0.0,0.0,0.125,1.6113279600000001,0.01,0.0,0.2800000011920929,-0.9800000190734863,-0.019999999552965164,0.043701171875,0.04913330078125,0.86492919921875,36.58000183105469,0.0,58.0,2.694427490234375,-2.5818634033203125,Waiting,-5.220918866080156,4.625,-1219063.0,-224.0,-1680.0,-1650.0,0.0,0.0,
3.734695000000007,0.0,0.0,6976.0,0.0,0.0,0.0,0.0,0.125,0.8007811680000001,0.01,0.0,-23915.0,0.0,0.0,-0.0,0.0,0.25,0.41381831700000005,0.01,0.0,16663.0,0.0,0.0,0.0,0.0,0.125,3.280028961,0.01,-0.0012207029999999897,-7976.0,0.0,0.0,-0.0,0.0,0.125,1.612548663,0.01,0.0,0.28999999165534973,-0.9900000095367432,-0.019999999552965164,0.07470703125,0.042236328125,1.0797119140625,36.58000183105469,0.0,93.0,2.6918182373046875,-2.585601806640625,Waiting,-5.196969696969697,4.5,-1219063.0,-224.0,-1680.0,-1650.0,0.0,0.0,
3.7876690000000526,0.0,0.0,6976.0,0.0,0.0,0.0,0.0,0.125,0.8032225740000001,0.01,0.0,-23915.0,0.0,0.0,-0.0,0.0,0.25,0.41381831700000005,0.01,0.0,16663.0,0.0,0.0,0.0,0.0,0.125,3.280028961,0.01,0.0,-7976.0,0.0,0.0,-0.0,0.0,0.125,1.612548663,0.01,0.0,0.23000000417232513,-1.0499999523162842,-0.009999999776482582,-0.025146484375,0.021240234375,0.97283935546875,36.58000183105469,0.0,-7.0,2.689422607421875,-2.587860107421875,Waiting,-5.328690127077224,4.75,-1219334.0,-224.0,-1672.5,-1650.0,0.0,0.0,
3.8355230000000446,0.0,0.0,6976.0,0.0,0.0,0.0,0.0,0.125,0.799560465,0.01,0.0,-23915.0,0.0,0.0,-0.0,0.0,0.25,0.41381831700000005,0.01,0.0,16663.0,0.0,0.0,0.0,0.0,0.125,3.282470367,0.01,0.0,-7976.0,0.125,0.0,-0.0,0.0,0.125,1.6113279600000001,0.01,0.0,0.23000000417232513,-1.059999942779541,-0.009999999776482582,0.0269775390625,0.002197265625,1.07891845703125,36.58000183105469,0.0,47.0,2.688629150390625,-2.5877532958984375,Waiting,-5.316715542521994,5.125,-1219334.0,-224.0,-1672.5,-1650.0,0.0,0.0,
3.888838000000047,0.0,0.0,6976.0,0.0,0.0,0.0,0.0,0.125,0.799560465,0.01,0.0,-23915.0,0.0,0.0,-0.0,0.0,0.25,0.41381831700000005,0.01,0.0,16663.0,0.0,0.0,0.0,0.0,0.125,3.281249664,0.01,0.0,-7976.0,0.0,0.0,-0.0,0.0,0.125,1.6113279600000001,0.01,0.0,0.23999999463558197,-1.0,-0.009999999776482582,-0.0380859375,0.07659912109375,1.1802978515625,36.560001373291016,0.0,-17.0,2.68890380859375,-2.5873565673828125,Waiting,-5.292766373411535,4.875,-1219600.0,-223.0,-1672.5,-1650.0,0.0,0.125,
3.9410070000000412,0.0,0.0,6976.0,0.0,0.0,0.0,0.0,0.125,0.8007811680000001,0.01,0.0,-23915.0,0.0,0.0,-0.0,0.0,0.25,0.41381831700000005,0.01,0.0,16663.0,0.0,0.0,0.0,0.0,0.125,3.280028961,0.01,0.0012207029999999897,-7976.0,0.0,0.0,-0.0,0.0,0.125,1.6113279600000001,0.01,0.0,0.33000001311302185,-0.9900000095367432,-0.009999999776482582,-0.0048828125,-0.0672607421875,1.07794189453125,36.560001373291016,0.0,13.0,2.68890380859375,-2.58599853515625,Waiting,-5.280791788856305,4.875,-1219600.0,-223.0,-1672.5,-1650.0,0.0,0.0,
3.991472000000009,0.0,0.0,6976.0,0.0,0.0,0.0,0.0,0.125,0.8007811680000001,0.01,0.0,-23915.0,0.0,0.0,-0.0,0.0,0.25,0.41381831700000005,0.01,0.0,16663.0,0.0,0.0,0.0,0.0,0.125,3.281249664,0.01,-0.0012207029999999897,-7976.0,0.0,0.0,-0.0,0.0,0.125,1.6113279600000001,0.01,0.0,0.27000001072883606,-1.0499999523162842,-0.009999999776482582,-0.029052734375,-0.032470703125,0.96478271484375,36.560001373291016,0.0,-11.0,2.688873291015625,-2.5852813720703125,Waiting,-5.24731182795699,4.75,-1219869.0,-223.0,-1672.5,-1650.0,0.0,0.0,
4.042228000000002,0.0,0.0,6976.0,0.0,0.0,0.0,0.0,0.125,0.8007811680000001,0.01,0.0,-23915.0,0.0,0.0,-0.0,0.0,0.25,0.41381831700000005,0.01,0.0,16663.0,0.0,0.0,0.0,0.0,0.125,3.281249664,0.01,0.0,-7976.0,0.0,0.0,-0.0,0.0,0.125,1.612548663,0.01,0.0,0.2199999988079071,-1.1100000143051147,-0.009999999776482582,0.0340576171875,0.009765625,1.126708984375,36.560001373291016,0.0,55.0,2.6891021728515625,-2.5847930908203125,Waiting,-5.235386119257087,4.75,-1219869.0,-223.0,-1672.5,-1650.0,0.0,0.0,
4.092046000000031,0.0,0.0,6976.0,0.0,0.0,0.0,0.0,0.125,0.8007811680000001,0.01,0.0,-23915.0,0.0,0.0,-0.0,0.0,0.25,0.41503902000000004,0.01,0.0,16663.0,0.0,0.0,0.0,0.0,0.125,3.281249664,0.01,0.0,-7976.0,0.0,0.0,-0.0,0.0,0.125,1.6113279600000001,0.01,0.0,0.2199999988079071,-1.0700000524520874,-0.019999999552965164,0.0689697265625,-0.122314453125,1.2122802734375,36.560001373291016,0.0,91.0,2.689849853515625,-2.5847625732421875,Waiting,-5.223460410557185,4.75,-1219869.0,-223.0,-1672.5,-1650.0,0.0,0.0,
4.1443310000000055,0.0,0.0,6976.0,0.0,0.0,0.0,0.0,0.125,0.8007811680000001,0.01,0.0,-23915.0,0.0,0.0,-0.0,0.0,0.25,0.41381831700000005,0.01,0.0,16663.0,0.0,0.0,0.0,0.0,0.125,3.281249664,0.01,0.0,-7976.0,0.0,0.0,-0.0,0.0,0.125,1.6113279600000001,0.01,0.0,0.25999999046325684,-1.0199999809265137,-0.019999999552965164,-0.05859375,-0.03436279296875,1.067626953125,36.560001373291016,0.0,-39.0,2.691650390625,-2.5860443115234375,Waiting,-5.199608993157381,4.625,-1220137.0,-223.0,-1672.5,-1650.0,0.0,0.0,
4.194312000000035,0.0,0.0,6976.0,0.0,0.0,0.0,0.0,0.125,0.799560465,0.01,0.0,-23915.0,0.0,0.0,-0.0,0.0,0.25,0.41381831700000005,0.01,0.0,16663.0,0.0,0.0,0.0,0.0,0.125,3.282470367,0.01,0.0012207029999999897,-7976.0,0.0,0.0,-0.0,0.0,0.125,1.612548663,0.01,0.0,0.23999999463558197,-1.0199999809265137,-0.019999999552965164,-0.094482421875,0.01617431640625,0.78314208984375,36.560001373291016,0.0,-80.0,2.6925811767578125,-2.587982177734375,Waiting,-5.187683284457479,4.625,-1220137.0,-223.0,-1672.5,-1650.0,0.0,0.125,
4.247412000000011,0.0,0.0,6976.0,0.0,0.0,0.0,0.0,0.125,0.8007811680000001,0.01,0.0,-23915.0,0.0,0.0,-0.0,0.0,0.25,0.41381831700000005,0.01,0.0,16663.0,0.0,0.0,0.0,0.0,0.125,3.280028961,0.01,-0.0012207029999999897,-7976.0,0.125,0.0,-0.0,0.0,0.125,1.6113279600000001,0.01,0.0,0.17000000178813934,-1.0700000524520874,-0.019999999552965164,-0.1143798828125,0.03521728515625,0.8084716796875,36.560001373291016,0.0,-99.0,2.6923675537109375,-2.5902252197265625,Waiting,-5.306940371456501,4.875,-1220404.0,-223.0,-1665.0,-1650.0,0.0,0.0,
4.300194000000018,0.0,0.0,6976.0,0.0,0.0,0.0,0.0,0.125,0.8007811680000001,0.01,0.0,-23915.0,0.0,0.0,-0.0,0.0,0.25,0.41381831700000005,0.01,0.0,16663.0,0.0,0.0,0.0,0.0,0.125,3.281249664,0.01,0.0,-7976.0,0.0,0.0,-0.0,0.0,0.125,1.6113279600000001,0.01,0.0,0.18000000715255737,-1.059999942779541,-0.019999999552965164,0.031005859375,0.0177001953125,0.89776611328125,36.560001373291016,0.0,47.0,2.6913604736328125,-2.59381103515625,Waiting,-5.295014662756598,5.125,-1220404.0,-223.0,-1665.0,-1650.0,0.0,0.0,
4.352512000000046,0.0,0.0,6976.0,0.0,0.0,0.0,0.0,0.125,0.799560465,0.01,0.0,-23915.0,0.0,0.0,-0.0,0.0,0.25,0.41381831700000005,0.01,0.0,16663.0,0.0,0.0,0.0,0.0,0.125,3.281249664,0.01,0.0,-7976.0,0.0,0.0,-0.0,0.0,0.125,1.6113279600000001,0.01,0.0,0.2199999988079071,-1.0199999809265137,-0.019999999552965164,0.02752685546875,0.0872802734375,1.0555419921875,36.560001373291016,0.0,46.0,2.69097900390625,-2.5958099365234375,Waiting,-5.283088954056696,4.875,-1220671.0,-222.0,-1665.0,-1650.0,0.0,0.125,
4.406612000000023,0.0,0.0,6976.0,0.0,0.0,0.0,0.0,0.125,0.799560465,0.01,0.0,-23915.0,0.0,0.0,-0.0,0.0,0.25,0.41503902000000004,0.01,0.0,16663.0,0.0,0.0,0.0,0.0,0.125,3.280028961,0.01,0.0,-7976.0,0.0,0.0,-0.0,0.0,0.125,1.6113279600000001,0.01,0.0,0.1899999976158142,-1.0199999809265137,-0.019999999552965164,-0.01885986328125,-0.00762939453125,0.81329345703125,36.56999969482422,0.0,-4.0,2.6910552978515625,-2.597259521484375,Waiting,-5.283088954056696,4.875,-1220671.0,-222.0,-1665.0,-1650.0,0.0,0.125,
4.4550480000000094,0.0,0.0,6976.0,0.0,0.0,0.0,0.0,0.125,0.8007811680000001,0.01,0.0,-23915.0,0.0,0.0,-0.0,0.0,0.25,0.41503902000000004,0.01,0.0,16663.0,0.0,0.0,0.0,0.0,0.125,3.281249664,0.01,0.0,-7976.0,0.0,0.0,-0.0,0.0,0.125,1.6113279600000001,0.01,0.0,0.15000000596046448,-1.0800000429153442,-0.019999999552965164,-0.02117919921875,0.08551025390625,0.94097900390625,36.56999969482422,0.0,-3.0,2.6910552978515625,-2.5980072021484375,Waiting,-5.271163245356794,4.875,-1220939.0,-222.0,-1665.0,-1650.0,0.0,0.0,
4.51221100000001,0.0,0.0,6976.0,0.0,0.0,0.0,0.0,0.125,0.8007811680000001,0.01,0.0,-23915.0,0.0,0.0,-0.0,0.0,0.25,0.41381831700000005,0.01,0.0,16663.0,0.0,0.0,0.0,0.0,0.125,3.281249664,0.01,0.0,-7976.0,0.0,0.0,-0.0,0.0,0.125,1.612548663,0.01,0.0,0.17000000178813934,-1.0399999618530273,-0.009999999776482582,-0.05499267578125,0.06182861328125,1.19921875,36.56999969482422,0.0,-33.0,2.6912078857421875,-2.5981903076171875,Waiting,-5.259237536656892,4.875,-1220939.0,-222.0,-1665.0,-1650.0,0.0,0.0,
4.562527000000002,0.0,0.0,6976.0,0.0,0.0,0.0,0.0,0.125,0.8056639800000001,0.01,0.0,-23915.0,0.0,0.0,-0.0,0.0,0.25,0.41503902000000004,0.01,0.0,16663.0,0.0,0.0,0.0,0.0,0.125,3.281249664,0.01,0.0012207029999999897,-7976.0,0.0,0.0,-0.0,0.0,0.125,1.612548663,0.01,0.0,0.2199999988079071,-1.0199999809265137,-0.009999999776482582,-0.0130615234375,0.0570068359375,1.18304443359375,36.56999969482422,0.0,7.0,2.69140625,-2.5972747802734375,Waiting,-5.24731182795699,4.75,-1220939.0,-222.0,-1665.0,-1650.0,0.0,0.125,
4.613163,0.0,0.0,6976.0,0.0,0.0,0.0,0.0,0.125,0.799560465,0.01,0.0,-23915.0,0.0,0.0,-0.0,0.0,0.25,0.41381831700000005,0.01,0.0,16663.0,0.0,0.0,0.0,0.0,0.125,3.280028961,0.01,-0.0012207029999999897,-7976.0,0.0,0.0,-0.0,0.0,0.125,1.6113279600000001,0.01,0.0,0.20999999344348907,-1.0700000524520874,-0.009999999776482582,0.01416015625,-0.02587890625,1.1383056640625,36.56999969482422,0.0,35.0,2.6916656494140625,-2.5967864990234375,Waiting,-5.2568426197458455,4.75,-1221205.0,-222.0,-1665.0,-1650.0,0.0,0.125,
4.665663,0.0,0.0,6976.0,0.0,0.0,0.0,0.0,0.125,0.799560465,0.01,0.0,-23915.0,0.0,0.0,-0.0,0.0,0.25,0.41381831700000005,0.01,0.0,16663.0,0.0,0.0,0.0,0.0,0.125,3.281249664,0.01,0.0012207029999999897,-7976.0,0.0,0.0,-0.0,0.0,0.125,1.6113279600000001,0.01,0.0,0.1899999976158142,-1.090000033378601,-0.019999999552965164,0.02703857421875,-0.061279296875,1.2259521484375,36.56999969482422,0.0,50.0,2.69219970703125,-2.5966796875,Waiting,-5.244868035190616,4.75,-1221205.0,-222.0,-1665.0,-1650.0,0.0,0.125,
4.713900000000023,0.0,0.0,6976.0,0.0,0.0,0.0,0.0,0.125,0.799560465,0.01,0.0,-23915.0,0.0,0.0,-0.0,0.0,0.25,0.41381831700000005,0.01,0.0,16663.0,0.0,0.0,0.0,0.0,0.125,3.281249664,0.01,-0.0012207029999999897,-7976.0,0.0,0.0,-0.0,0.0,0.125,1.6113279600000001,0.01,0.0,0.1899999976158142,-1.0499999523162842,-0.009999999776482582,-0.01190185546875,-0.06939697265625,1.1749267578125,36.56999969482422,0.0,9.0,2.693267822265625,-2.5970001220703125,Waiting,-5.223460410557185,4.625,-1221472.0,-222.0,-1665.0,-1650.0,0.0,0.125,
4.769567000000039,0.0,0.0,6976.0,0.0,0.0,0.0,0.0,0.125,0.799560465,0.01,0.0,-23915.0,0.0,0.0,-0.0,0.0,0.25,0.41381831700000005,0.01,0.0,16663.0,0.0,0.0,0.0,0.0,0.125,3.280028961,0.01,0.0,-7976.0,0.0,0.0,-0.0,0.0,0.125,1.6101072570000001,0.01,0.0,0.20000000298023224,-1.0499999523162842,-0.019999999552965164,-0.14727783203125,0.071044921875,0.8453369140625,36.56999969482422,0.0,-131.0,2.694183349609375,-2.5974578857421875,Waiting,-5.354643206256109,4.625,-1221472.0,-222.0,-1665.0,-1650.0,0.0,0.0,
4.820692000000039,0.0,0.0,6976.0,0.0,0.0,0.0,0.0,0.125,0.8020018710000001,0.01,0.0,-23915.0,0.0,0.0,-0.0,0.0,0.25,0.41381831700000005,0.01,0.0,16663.0,0.0,0.0,0.0,0.0,0.125,3.280028961,0.01,0.0,-7976.0,0.0,0.0,-0.0,0.0,0.125,1.612548663,0.01,0.0,0.15000000596046448,-1.1100000143051147,-0.009999999776482582,-0.1143798828125,-0.03729248046875,0.82110595703125,36.56999969482422,0.0,-98.0,2.693450927734375,-2.597747802734375,Waiting,-5.342717497556207,5.125,-1221738.0,-221.0,-1657.5,-1650.0,0.0,0.0,
4.872863000000012,0.0,0.0,6976.0,0.0,0.0,0.0,0.0,0.125,0.8007811680000001,0.01,0.0,-23915.0,0.0,0.0,-0.0,0.0,0.25,0.41503902000000004,0.01,0.0,16663.0,0.0,0.0,0.0,0.0,0.125,3.281249664,0.01,0.0,-7976.0,0.0,0.0,-0.0,0.0,0.125,1.6113279600000001,0.01,0.0,0.14000000059604645,-1.0800000429153442,-0.009999999776482582,0.0552978515625,0.14593505859375,0.9833984375,36.56999969482422,0.0,73.0,2.692718505859375,-2.5984954833984375,Waiting,-5.342717497556207,5.125,-1221738.0,-221.0,-1657.5,-1650.0,0.0,0.0,
4.926584000000032,0.0,0.0,6976.0,0.0,0.0,0.0,0.0,0.125,0.799560465,0.01,0.0,-23915.0,0.0,0.0,-0.0,0.0,0.25,0.41381831700000005,0.01,0.0,16663.0,0.0,0.0,0.0,0.0,0.125,3.281249664,0.01,0.0,-7976.0,0.0,0.0,-0.0,0.0,0.125,1.6113279600000001,0.01,0.0,0.1899999976158142,-1.0499999523162842,-0.009999999776482582,0.0648193359375,0.0665283203125,0.98736572265625,36.560001373291016,0.0,82.0,2.6932220458984375,-2.598297119140625,Waiting,-5.330791788856305,5.125,-1221738.0,-221.0,-1657.5,-1650.0,0.0,0.0,
4.9731210000000425,0.0,0.0,6976.0,0.0,0.0,0.0,0.0,0.125,0.799560465,0.01,0.0,-23915.0,0.0,0.0,-0.0,0.0,0.25,0.41381831700000005,0.01,0.0,16663.0,0.0,0.0,0.0,0.0,0.125,3.2739254460000002,0.01,-0.0012207029999999897,-7976.0,0.0,0.0,-0.0,0.0,0.125,1.612548663,0.01,0.0,0.12999999523162842,-1.090000033378601,-0.009999999776482582,-0.01983642578125,0.01812744140625,0.9464111328125,36.560001373291016,0.0,-1.0,2.6936798095703125,-2.5978546142578125,Waiting,-5.352639296187683,5.0,-1222005.0,-221.0,-1657.5,-1650.0,0.0,0.125,
5.026597000000009,0.0,0.0,6976.0,0.0,0.0,0.0,0.0,0.125,0.799560465,0.01,0.0,-23915.0,0.0,0.0,-0.0,0.0,0.25,0.41381831700000005,0.01,0.0,16663.0,0.0,0.0,0.0,0.0,0.125,3.280028961,0.01,0.0012207029999999897,-7976.0,0.0,0.0,-0.0,0.0,0.125,1.6113279600000001,0.01,0.0,0.12999999523162842,-1.100000023841858,-0.019999999552965164,-0.02191162109375,-0.037109375,1.04632568359375,36.560001373291016,0.0,-1.0,2.693572998046875,-2.5970001220703125,Waiting,-5.340664711632454,5.125,-1222005.0,-221.0,-1657.5,-1650.0,0.0,0.125,
5.076006000000052,0.0,0.0,6976.0,0.0,0.0,0.0,0.0,0.125,0.79345695,0.01,0.0,-23915.0,0.0,0.0,-0.0,0.0,0.25,0.41503902000000004,0.01,0.0,16663.0,0.0,0.0,0.0,0.0,0.125,3.280028961,0.01,-0.0012207029999999897,-7976.0,0.0,0.0,-0.0,0.0,0.125,1.6113279600000001,0.01,0.0,0.18000000715255737,-1.0800000429153442,-0.019999999552965164,-0.00201416015625,0.0396728515625,1.21832275390625,36.560001373291016,0.0,21.0,2.693572998046875,-2.5954742431640625,Waiting,-5.196969696969697,4.5,-1222271.0,-222.0,-1665.0,-1650.0,0.0,0.125,
5.129790000000037,0.0,0.0,6976.0,0.0,0.0,0.0,0.0,0.125,0.8007811680000001,0.01,0.0,-23915.0,0.0,0.0,-0.0,0.0,0.25,0.41381831700000005,0.01,0.0,16663.0,0.0,0.0,0.0,0.0,0.125,3.281249664,0.01,0.0012207029999999897,-7976.0,0.0,0.0,-0.0,0.0,0.125,1.6113279600000001,0.01,0.0,0.15000000596046448,-1.090000033378601,-0.019999999552965164,0.01739501953125,-0.090576171875,1.20196533203125,36.560001373291016,0.0,40.0,2.6936798095703125,-2.5941925048828125,Waiting,-5.328690127077224,4.875,-1222271.0,-222.0,-1657.5,-1650.0,0.0,0.0,
5.181303000000015,0.0,0.0,6976.0,0.0,0.0,0.0,0.0,0.125,0.799560465,0.01,0.0,-23915.0,0.0,0.0,-0.0,0.0,0.25,0.41381831700000005,0.01,0.0,16663.0,0.0,0.0,0.0,0.0,0.125,3.282470367,0.01,0.0,-7976.0,0.0,0.0,-0.0,0.0,0.125,1.6113279600000001,0.01,0.0,0.10999999940395355,-1.1299999952316284,-0.009999999776482582,-0.001953125,-0.00323486328125,1.1348876953125,36.560001373291016,0.0,20.0,2.694183349609375,-2.5933685302734375,Waiting,-5.306940371456501,5.0,-1222537.0,-221.0,-1657.5,-1650.0,0.0,0.0,
5.233280000000028,0.0,0.0,6976.0,0.0,0.0,0.0,0.0,0.125,0.8007811680000001,0.01,0.0,-23915.0,0.0,0.0,-0.0,0.0,0.25,0.412597614,0.01,0.0,16663.0,0.0,0.0,0.0,0.0,0.125,3.280028961,0.01,-0.0012207029999999897,-7976.0,0.0,0.0,-0.0,0.0,0.125,1.6113279600000001,0.01,0.0,0.17000000178813934,-1.0800000429153442,-0.009999999776482582,-0.0711669921875,-0.04248046875,1.0291748046875,36.560001373291016,0.0,-51.0,2.6950225830078125,-2.59295654296875,Waiting,-5.295014662756598,5.0,-1222537.0,-221.0,-1657.5,-1650.0,0.0,0.125,
5.286184999999998,0.0,0.0,6976.0,0.0,0.0,0.0,0.0,0.125,0.799560465,0.01,0.0,-23915.0,0.0,0.0,-0.0,0.0,0.25,0.412597614,0.01,0.0,16663.0,0.0,0.0,0.0,0.0,0.125,3.280028961,0.01,0.0012207029999999897,-7976.0,0.0,0.0,-0.0,0.0,0.125,1.6113279600000001,0.01,0.0,0.14000000059604645,-1.0800000429153442,-0.009999999776482582,-0.13018798828125,0.03118896484375,0.89776611328125,36.560001373291016,0.0,-113.0,2.6955413818359375,-2.593353271484375,Waiting,-5.295014662756598,5.0,-1222537.0,-221.0,-1657.5,-1650.0,0.0,0.125,
5.334480000000039,0.0,0.0,6976.0,0.0,0.0,0.0,0.0,0.125,0.799560465,0.01,0.0,-23915.0,0.0,0.0,-0.0,0.0,0.25,0.41381831700000005,0.01,0.0,16663.0,0.0,0.0,0.0,0.0,0.125,3.281249664,0.01,-0.0012207029999999897,-7976.0,0.0,0.0,-0.0,0.0,0.125,1.6113279600000001,0.01,0.0,0.10999999940395355,-1.159999966621399,-0.019999999552965164,0.0185546875,0.05426025390625,0.9237060546875,36.560001373291016,0.0,37.0,2.694549560546875,-2.593963623046875,Waiting,-5.283088954056696,5.0,-1222803.0,-221.0,-1657.5,-1650.0,0.0,0.0,
5.389407999999996,0.0,0.0,6976.0,0.0,0.0,0.0,0.0,0.125,0.8020018710000001,0.01,0.0,-23915.0,0.0,0.0,-0.0,0.0,0.25,0.41503902000000004,0.01,0.0,16663.0,0.0,0.0,0.0,0.0,0.125,3.281249664,0.01,0.0012207029999999897,-7976.0,0.0,0.0,-0.0,0.0,0.125,1.612548663,0.01,0.0,0.10000000149011612,-1.1299999952316284,-0.009999999776482582,0.0218505859375,0.10699462890625,0.93621826171875,36.560001373291016,0.0,40.0,2.694183349609375,-2.5949249267578125,Waiting,-5.283088954056696,4.875,-1222803.0,-221.0,-1657.5,-1650.0,0.0,0.0,
5.436649000000034,0.0,0.0,6976.0,0.0,0.0,0.0,0.0,0.125,0.799560465,0.01,0.0,-23915.0,0.0,0.0,-0.0,0.0,0.25,0.41381831700000005,0.01,0.0,16663.0,0.0,0.0,0.0,0.0,0.125,3.282470367,0.01,-0.0012207029999999897,-7976.0,0.0,0.0,-0.0,0.0,0.125,1.6113279600000001,0.01,0.0,0.14000000059604645,-1.0800000429153442,-0.009999999776482582,-0.050537109375,-0.031982421875,0.88543701171875,36.560001373291016,0.0,-33.0,2.6950531005859375,-2.5950164794921875,Waiting,-5.283088954056696,4.875,-1223069.0,-221.0,-1657.5,-1650.0,0.0,0.0,
5.490819000000018,0.0,0.0,6976.0,0.0,0.0,0.0,0.0,0.125,0.8007811680000001,0.01,0.0,-23915.0,0.0,0.0,-0.0,0.0,0.25,0.412597614,0.01,0.0,16663.0,0.0,0.0,0.0,0.0,0.125,3.281249664,0.01,0.0,-7976.0,0.0,0.0,-0.0,0.0,0.125,1.6113279600000001,0.01,0.0,0.12999999523162842,-1.1299999952316284,-0.009999999776482582,-0.03973388671875,-0.0521240234375,0.91925048828125,36.560001373291016,0.0,-21.0,2.6961212158203125,-2.59466552734375,Waiting,-5.271163245356794,4.75,-1223069.0,-221.0,-1657.5,-1650.0,0.7,3.75,
5.541839000000036,0.0,0.0,6976.0,0.0,0.0,0.0,0.0,0.125,0.799560465,0.01,0.0,-23915.0,0.0,0.0,-0.0,0.0,0.25,0.41381831700000005,0.01,0.0,16663.0,0.0,0.0,0.0,0.0,0.125,3.280028961,0.01,0.0,-7976.0,0.0,0.0,-0.0,0.0,0.125,1.6113279600000001,0.01,0.0,0.14000000059604645,-1.1100000143051147,0.0,-0.060302734375,0.0697021484375,1.17431640625,36.560001373291016,0.0,-37.0,2.6964263916015625,-2.594451904296875,Waiting,-5.2279569892473114,4.75,-1223335.0,-221.0,-1657.5,-1650.0,0.7,3.625,
5.592608999999997,0.0,0.0,6976.0,0.0,0.0,0.0,0.0,0.125,0.8032225740000001,0.01,0.0,-23915.0,0.0,0.0,-0.0,0.0,0.25,0.41381831700000005,0.01,0.0,16663.0,0.0,0.0,0.0,0.0,0.125,3.282470367,0.01,0.0012207029999999897,-7976.0,0.0,0.0,-0.0,0.0,0.125,1.6113279600000001,0.01,0.0,0.20000000298023224,-1.0700000524520874,0.0,-0.0045166015625,-0.06048583984375,1.0928955078125,36.560001373291016,0.0,15.0,2.6963958740234375,-2.5938720703125,Waiting,-5.216129032258064,4.75,-1223335.0,-221.0,-1657.5,-1650.0,0.7,3.625,
5.645684000000008,0.0,0.0,6976.0,0.0,0.0,0.0,0.0,0.125,0.8007811680000001,0.01,0.0,-23915.0,0.0,0.0,-0.0,0.0,0.25,0.41503902000000004,0.01,0.0,16663.0,0.0,0.0,0.0,0.0,0.125,3.281249664,0.01,0.0,-7976.0,0.0,0.0,-0.0,0.0,0.125,1.612548663,0.01,0.0,0.17000000178813934,-1.1100000143051147,0.0,-0.02276611328125,0.0313720703125,1.0975341796875,36.560001373291016,0.0,-1.0,2.6965484619140625,-2.593475341796875,Waiting,-5.216129032258064,4.625,-1223335.0,-221.0,-1657.5,-1650.0,0.7,3.625,
5.695125,0.0,0.0,6976.0,0.0,0.0,0.0,0.0,0.125,0.8007811680000001,0.01,0.0,-23915.0,0.0,0.0,-0.0,0.0,0.25,0.41381831700000005,0.01,0.0,16663.0,0.0,0.0,0.0,0.0,0.125,3.293456694,0.01,-0.0012207029999999897,-7976.0,0.0,0.0,-0.0,0.0,0.125,1.612548663,0.01,0.0,0.17000000178813934,-1.100000023841858,0.0,-0.0067138671875,0.014404296875,1.04852294921875,36.560001373291016,0.0,13.0,2.6968841552734375,-2.593414306640625,Waiting,-5.194574780058651,4.75,-1223600.0,-221.0,-1657.5,-1650.0,0.7,4.5,
5.748563000000024,0.0,0.0,6976.0,0.0,0.0,0.0,0.0,0.125,0.799560465,0.01,0.0,-23915.0,0.0,0.0,-0.0,0.0,0.25,0.41381831700000005,0.01,0.0,16663.0,0.0,0.0,0.0,0.0,0.125,3.281249664,0.01,0.0,-7976.0,0.0,0.0,-0.0,0.0,0.125,1.6113279600000001,0.01,0.0,0.1899999976158142,-1.090000033378601,0.0,-0.1005859375,-0.00445556640625,0.90570068359375,36.560001373291016,0.0,-83.0,2.69677734375,-2.5938720703125,Waiting,-5.31236559139785,4.625,-1223600.0,-221.0,-1657.5,-1650.0,0.7,5.5,
5.7975410000000265,0.0,0.0,6976.0,0.0,0.0,0.0,0.0,0.125,0.798339762,0.01,0.0,-23915.0,0.0,0.0,-0.0,0.0,0.25,0.41381831700000005,0.01,0.0,16663.0,0.0,0.0,0.0,0.0,0.125,3.280028961,0.01,0.0012207029999999897,-7976.0,0.0,0.0,-0.0,0.0,0.125,1.6113279600000001,0.01,0.0,0.17000000178813934,-1.090000033378601,0.0,-0.0521240234375,-0.0833740234375,0.97918701171875,36.560001373291016,0.0,-33.0,2.6956024169921875,-2.5950469970703125,Waiting,-5.290322580645161,5.25,-1223865.0,-220.0,-1650.0,-1650.0,0.7,6.0,
5.851544000000053,0.0,0.0,6976.0,0.0,0.0,0.0,0.0,0.125,0.8007811680000001,0.01,0.0,-23915.0,0.0,0.0,-0.0,0.0,0.25,0.41381831700000005,0.01,0.0,16663.0,0.0,0.0,0.0,0.0,0.125,3.281249664,0.01,-0.0012207029999999897,-7976.0,0.0,0.0,-0.0,0.0,0.125,1.6113279600000001,0.01,0.0,0.1899999976158142,-1.1200000047683716,0.0,0.0699462890625,0.0296630859375,1.02288818359375,36.560001373291016,0.0,89.0,2.6952972412109375,-2.59649658203125,Waiting,-5.290322580645161,5.125,-1223865.0,-220.0,-1650.0,-1650.0,0.7,6.0,
5.908350000000035,0.0,0.0,6976.0,0.0,0.0,0.0,0.0,0.125,0.8020018710000001,0.01,0.0,-23915.0,0.0,0.0,-0.0,0.0,0.25,0.41381831700000005,0.01,0.0,16663.0,0.0,0.0,0.0,0.0,0.125,3.282470367,0.01,0.0012207029999999897,-7976.0,0.0,0.0,-0.0,0.0,0.125,1.612548663,0.01,0.0,0.15000000596046448,-1.100000023841858,0.0,0.0577392578125,0.02191162109375,0.90631103515625,36.540000915527344,0.0,75.0,2.6961822509765625,-2.5973968505859375,Waiting,-5.31236559139785,5.125,-1224130.0,-220.0,-1650.0,-1650.0,0.7,5.75,
5.9555580000000194,0.0,0.0,6976.0,0.0,0.0,0.0,0.0,0.125,0.8007811680000001,0.01,0.0,-23915.0,0.0,0.0,-0.0,0.0,0.25,0.41503902000000004,0.01,0.0,16663.0,0.0,0.0,0.0,0.0,0.125,3.282470367,0.01,0.0,-7976.0,0.0,0.0,-0.0,0.0,0.125,1.612548663,0.01,0.0,0.11999999731779099,-1.1200000047683716,0.0,-0.02142333984375,-0.0208740234375,0.90301513671875,36.540000915527344,0.0,-3.0,2.6979827880859375,-2.59906005859375,Waiting,-5.31236559139785,5.125,-1224130.0,-220.0,-1650.0,-1650.0,0.7,5.5,
6.005395000000019,0.0,0.0,6976.0,0.0,0.0,0.0,0.0,0.125,0.799560465,0.01,0.0,-23915.0,0.0,0.0,-0.0,0.0,0.25,0.41381831700000005,0.01,0.0,16663.0,0.0,0.0,0.0,0.0,0.125,3.281249664,0.01,-0.0012207029999999897,-7976.0,0.125,0.0,-0.0,0.0,0.125,1.612548663,0.01,0.0,0.18000000715255737,-1.1299999952316284,0.0,-0.09051513671875,0.05438232421875,1.13189697265625,36.540000915527344,0.0,-68.0,2.698974609375,-2.599761962890625,Waiting,-5.31236559139785,5.125,-1224130.0,-220.0,-1650.0,-1650.0,0.7,4.75,
6.054544000000052,0.0,0.0,6976.0,0.0,0.0,0.0,0.0,0.125,0.8007811680000001,0.01,0.0,-23915.0,0.0,0.0,-0.0,0.0,0.25,0.41381831700000005,0.01,0.0,16663.0,0.0,0.0,0.0,0.0,0.125,3.281249664,0.01,0.0012207029999999897,-7976.0,0.125,0.0,-0.0,0.0,0.125,1.612548663,0.01,0.0,0.1599999964237213,-1.1200000047683716,-0.009999999776482582,0.01910400390625,-0.1077880859375,1.3050537109375,36.540000915527344,0.0,44.0,2.7005462646484375,-2.6005096435546875,Waiting,-5.31236559139785,5.125,-1224395.0,-220.0,-1650.0,-1650.0,0.7,3.0,
6.108695999999997,0.0,0.0,6976.0,0.0,0.0,0.0,0.0,0.125,0.8007811680000001,0.01,0.0,-23915.0,0.0,0.0,-0.0,0.0,0.25,0.41503902000000004,0.01,0.0,16663.0,0.0,0.0,0.0,0.0,0.125,3.281249664,0.01,0.0,-7976.0,0.0,0.0,-0.0,0.0,0.125,1.6113279600000001,0.01,0.0,0.11999999731779099,-1.1399999856948853,0.0,-0.00421142578125,-0.09979248046875,1.05145263671875,36.540000915527344,0.0,16.0,2.7029571533203125,-2.6026763916015625,Waiting,-5.31236559139785,5.125,-1224395.0,-220.0,-1650.0,-1650.0,0.7,3.375,
6.156418000000005,0.0,0.0,6976.0,0.0,0.0,0.0,0.0,0.125,0.799560465,0.01,0.0,-23915.0,0.0,0.0,-0.0,0.0,0.25,0.41381831700000005,0.01,0.0,16663.0,0.0,0.0,0.0,0.0,0.125,3.281249664,0.01,0.0,-7976.0,0.125,0.0,-0.0,0.0,0.125,1.6113279600000001,0.01,0.0,0.12999999523162842,-1.1399999856948853,0.0,-0.0369873046875,-0.07305908203125,1.11492919921875,36.540000915527344,0.0,-27.0,2.7029266357421875,-2.6061859130859375,Waiting,-5.290322580645161,5.125,-1224660.0,-220.0,-1650.0,-1650.0,0.7,4.125,
6.211101000000024,0.0,0.0,6976.0,0.0,0.0,0.0,0.0,0.125,0.795898356,0.01,0.0,-23915.0,0.0,0.0,-0.0,0.0,0.25,0.41381831700000005,0.01,0.0,16663.0,0.0,0.0,0.0,0.0,0.125,3.281249664,0.01,-0.0012207029999999897,-7976.0,0.0,0.0,-0.0,0.0,0.125,1.6113279600000001,0.01,0.0,0.11999999731779099,-1.1100000143051147,0.0,-0.078125,-0.0655517578125,0.76202392578125,36.540000915527344,0.0,-63.0,2.7024993896484375,-2.6096954345703125,Waiting,-5.290322580645161,5.125,-1224660.0,-220.0,-1650.0,-1650.0,0.7,4.875,
6.264344000000041,0.0,0.0,6976.0,0.0,0.0,0.0,0.0,0.125,0.799560465,0.01,0.0,-23915.0,0.0,0.0,-0.0,0.0,0.25,0.41381831700000005,0.01,0.0,16663.0,0.0,0.0,0.0,0.0,0.125,3.280028961,0.01,0.0012207029999999897,-7976.0,0.0,0.0,-0.0,0.0,0.125,1.6113279600000001,0.01,0.0,0.07000000029802322,-1.149999976158142,0.0,-0.0634765625,-0.08154296875,0.87066650390625,36.540000915527344,0.0,-45.0,2.70086669921875,-2.6148529052734375,Waiting,-5.290322580645161,5.125,-1224927.0,-220.0,-1650.0,-1650.0,0.7,5.75,
6.3173940000000295,0.0,0.0,6976.0,0.0,0.0,0.0,0.0,0.125,0.8007811680000001,0.01,0.0,-23915.0,0.0,0.0,-0.0,0.0,0.25,0.41381831700000005,0.01,0.0,16663.0,0.0,0.0,0.0,0.0,0.125,3.281249664,0.01,0.0,-7976.0,0.0,0.0,-0.0,0.0,0.125,1.612548663,0.01,0.0,0.12999999523162842,-1.1399999856948853,0.0,-0.0234375,0.02923583984375,1.14013671875,36.540000915527344,0.0,0.0,2.69976806640625,-2.6186676025390625,Waiting,-5.290322580645161,5.0,-1224927.0,-220.0,-1650.0,-1650.0,0.7,5.875,
6.370890000000014,0.0,0.0,6976.0,0.0,0.0,0.0,0.0,0.125,0.8007811680000001,0.01,0.0,-23915.0,0.0,0.0,-0.0,0.0,0.25,0.41381831700000005,0.01,0.0,16663.0,0.0,0.0,0.0,0.0,0.125,3.280028961,0.01,0.0,-7976.0,0.0,0.0,-0.0,0.0,0.125,1.612548663,0.01,0.0,0.07999999821186066,-1.149999976158142,0.0,0.005615234375,-0.102294921875,0.97161865234375,36.540000915527344,0.0,25.0,2.69915771484375,-2.62347412109375,Waiting,-5.290322580645161,5.125,-1224927.0,-220.0,-1650.0,-1650.0,0.7,6.0,
6.424811000000045,0.0,0.0,6976.0,0.0,0.0,0.0,0.0,0.125,0.8007811680000001,0.01,0.0,-23915.0,0.0,0.0,-0.0,0.0,0.25,0.41381831700000005,0.01,0.0,16663.0,0.0,0.0,0.0,0.0,0.125,3.281249664,0.01,-0.0012207029999999897,-7976.0,0.0,0.0,-0.0,0.0,0.125,1.6113279600000001,0.01,0.0,0.05000000074505806,-1.1699999570846558,0.0,-0.0220947265625,0.04180908203125,1.1065673828125,36.58000183105469,0.0,0.0,2.699005126953125,-2.62762451171875,Waiting,-5.290322580645161,5.125,-1225192.0,-220.0,-1650.0,-1650.0,0.7,5.5,
