Time,ClimberA1,ClimberA2,FRpos,FRCurrent,FRspeed,FRsetpoint,FRApos,FRACurrent,FREncpos,FREncSetpoint,FREncSpeed,FLpos,FLCurrent,FLspeed,FLsetpoint,FLApos,FLACurrent,FLEncpos,FLEncSetpoint,FLEncSpeed,BRpos,BRCurrent,BRspeed,BRsetpoint,BRApos,BRACurrent,BREncpos,BREncSetpoint,BREncSpeed,BLpos,BLCurrent,BLspeed,BLsetpoint,BLApos,BLACurrent,BLEncpos,BLEncSetpoint,BLEncSpeed,navx_Pitch,navx_Roll,navx_Yaw,navx_XAcc,navx_YAcc,navx_ZAcc,navx_Temp,navx_Bar,navx_Alt,navx_XDis,navx_YDis,GearPlacerState,ShootOutputV,ShootOutputCurrent,ShootEncPos,ShootEncVelocity,ShootSpeed,ShootSetpoint,CarouselSetpoint,CarouselCurrent,
0.22825400000007356,0.0,0.0,16369.0,0.0,0.0,0.0,0.0,0.125,0.79345695,0.01,0.0,-14920.0,0.0,0.0,-0.0,0.0,0.0,0.489501903,0.01,0.0,-6488.0,0.0,0.0,0.0,0.0,0.125,3.38134731,0.01,0.0,6090.0,0.0,0.0,-0.0,0.0,0.125,1.6040037420000002,0.01,0.0,0.2800000011920929,-0.33000001311302185,67.26000213623047,-0.007568359375,0.004150390625,1.02374267578125,30.799999237060547,0.0,-1.0,-0.86798095703125,-0.3629913330078125,Closing,0.0,0.0,0.0,0.0,0.0,0.0,0.0,0.0,
0.43083900000003633,0.0,0.0,16369.0,0.0,0.0,0.0,0.0,0.125,0.79345695,0.01,0.0,-14920.0,0.0,0.0,-0.0,0.0,0.0,0.489501903,0.01,0.0,-6488.0,0.0,0.0,0.0,0.0,0.125,3.382568013,0.01,0.0,6090.0,0.0,0.0,-0.0,0.0,0.125,1.6027830390000002,0.01,0.0,0.2800000011920929,-0.33000001311302185,67.26000213623047,-0.00543212890625,0.0059814453125,1.027099609375,30.799999237060547,0.0,1.0,-0.86798095703125,-0.3629913330078125,Closing,0.0,0.0,0.0,0.0,0.0,0.0,0.0,0.0,
0.565704000000027,0.0,0.0,16369.0,0.0,0.0,0.0,0.0,0.125,0.79345695,0.01,0.0,-14920.0,0.0,0.0,-0.0,0.0,0.0,0.489501903,0.01,0.0,-6488.0,0.0,0.0,0.0,0.0,0.125,3.38134731,0.01,0.0,6090.0,0.0,0.0,-0.0,0.0,0.125,1.6027830390000002,0.01,0.0,0.2800000011920929,-0.33000001311302185,67.26000213623047,-0.0069580078125,0.0068359375,1.0244140625,30.780000686645508,0.0,1.0,-0.86798095703125,-0.3629913330078125,Closing,0.0,0.0,0.0,0.0,0.0,0.0,0.0,0.0,
0.7622150000000838,0.0,0.0,16369.0,0.0,0.0,0.0,0.0,0.125,0.79345695,0.01,0.0,-14920.0,0.0,0.0,-0.0,0.0,0.0,0.4882812,0.01,0.0,-6488.0,0.0,0.0,0.0,0.0,0.125,3.3776852010000002,0.01,0.0,6090.0,0.0,0.0,-0.0,0.0,0.125,1.6027830390000002,0.01,0.0,0.2800000011920929,-0.33000001311302185,67.26000213623047,-0.00469970703125,0.00384521484375,1.02685546875,30.780000686645508,0.0,0.0,-0.86798095703125,-0.3629913330078125,Closing,0.0,0.0,0.0,0.0,0.0,0.0,0.0,0.0,
0.9604020000000019,0.0,0.0,16369.0,0.0,0.0,0.0,0.0,0.125,0.79345695,0.01,0.0,-14920.0,0.0,0.0,-0.0,0.0,0.0,0.489501903,0.01,0.0,-6488.0,0.0,0.0,0.0,0.0,0.125,3.382568013,0.01,0.0,6090.0,0.0,0.0,-0.0,0.0,0.125,1.6027830390000002,0.01,0.0,0.2800000011920929,-0.33000001311302185,67.26000213623047,-0.00628662109375,0.00311279296875,1.02294921875,30.780000686645508,0.0,-1.0,-0.86798095703125,-0.3629913330078125,Closing,0.0,0.0,0.0,0.0,0.0,0.0,0.0,0.0,
1.0958950000000187,0.0,0.0,16369.0,0.0,0.0,0.0,0.0,0.125,0.794677653,0.01,0.0,-14920.0,0.0,0.0,-0.0,0.0,0.0,0.489501903,0.01,0.0,-6488.0,0.0,0.0,0.0,0.0,0.125,3.38134731,0.01,0.0,6090.0,0.0,0.0,-0.0,0.0,0.125,1.6027830390000002,0.01,0.0,0.27000001072883606,-0.3199999928474426,67.26000213623047,-0.00543212890625,0.0020751953125,1.02484130859375,30.760000228881836,0.0,-2.0,-0.86798095703125,-0.3629913330078125,Closing,0.0,0.0,0.0,0.0,0.0,0.0,0.0,0.0,
1.2935400000000372,0.0,0.0,16369.0,0.0,0.0,0.0,0.0,0.125,0.79345695,0.01,0.0,-14920.0,0.0,0.0,-0.0,0.0,0.0,0.4882812,0.01,0.0,-6488.0,0.0,0.0,0.0,0.0,0.125,3.382568013,0.01,0.0,6090.0,0.0,0.0,-0.0,0.0,0.125,1.6027830390000002,0.01,0.0,0.2800000011920929,-0.33000001311302185,67.26000213623047,-0.0047607421875,0.005126953125,1.0245361328125,30.760000228881836,0.0,0.0,-0.86798095703125,-0.3629913330078125,Closing,0.0,0.0,0.0,0.0,0.0,0.0,0.0,0.0,
1.4847310000000289,0.0,0.0,16369.0,0.0,0.0,0.0,0.0,0.125,0.79345695,0.01,0.0,-14920.0,0.0,0.0,-0.0,0.0,0.0,0.489501903,0.01,0.0,-6488.0,0.0,0.0,0.0,0.0,0.125,3.382568013,0.01,0.0,6090.0,0.0,0.0,-0.0,0.0,0.125,1.6027830390000002,0.01,0.0,0.2800000011920929,-0.33000001311302185,67.25,-0.00323486328125,0.004150390625,1.02142333984375,30.770000457763672,0.0,0.0,-0.86798095703125,-0.3629913330078125,Closing,0.0,0.0,0.0,0.0,0.0,0.0,0.0,0.0,
1.6936539999999805,0.0,0.0,16369.0,0.0,0.0,0.0,0.0,0.125,0.7922362470000001,0.01,0.0,-14920.0,0.0,0.0,-0.0,0.0,0.0,0.489501903,0.01,0.0,-6488.0,0.0,0.0,0.0,0.0,0.125,3.3776852010000002,0.01,0.0,6090.0,0.0,0.0,-0.0,0.0,0.125,1.6027830390000002,0.01,0.0,0.2800000011920929,-0.33000001311302185,67.26000213623047,-0.00714111328125,0.0054931640625,1.02435302734375,30.770000457763672,0.0,0.0,-0.86798095703125,-0.3629913330078125,Closing,0.0,0.0,0.0,0.0,0.0,0.0,0.0,0.0,
1.8939529999999796,0.0,0.0,16369.0,0.0,0.0,0.0,0.0,0.125,0.79345695,0.01,0.0,-14920.0,0.0,0.0,-0.0,0.0,0.0,0.489501903,0.01,0.0,-6488.0,0.0,0.0,0.0,0.0,0.125,3.382568013,0.01,0.0,6090.0,0.0,0.0,-0.0,0.0,0.125,1.6027830390000002,0.01,0.0,0.28999999165534973,-0.33000001311302185,67.26000213623047,-0.0028076171875,0.00701904296875,1.0283203125,30.770000457763672,0.0,2.0,-0.86798095703125,-0.3629913330078125,Closing,0.0,0.0,0.0,0.0,0.0,0.0,0.0,0.0,
2.032802000000025,0.0,0.0,16369.0,0.0,0.0,0.0,0.0,0.125,0.794677653,0.01,0.0,-14920.0,0.0,0.0,-0.0,0.0,0.0,0.489501903,0.01,0.0,-6488.0,0.0,0.0,0.0,0.0,0.125,3.382568013,0.01,0.0,6090.0,0.0,0.0,-0.0,0.0,0.125,1.6027830390000002,0.01,0.0,0.28999999165534973,-0.33000001311302185,67.26000213623047,-0.00494384765625,0.0035400390625,1.0235595703125,30.809999465942383,0.0,-1.0,-0.86798095703125,-0.3629913330078125,Closing,0.0,0.0,0.0,0.0,0.0,0.0,0.0,0.0,
2.231481000000029,0.0,0.0,16369.0,0.0,0.0,0.0,0.0,0.125,0.79345695,0.01,0.0,-14920.0,0.0,0.0,-0.0,0.0,0.0,0.4882812,0.01,0.0,-6488.0,0.0,0.0,0.0,0.0,0.125,3.38134731,0.01,0.0,6090.0,0.0,0.0,-0.0,0.0,0.125,1.6027830390000002,0.01,0.0,0.2800000011920929,-0.33000001311302185,67.26000213623047,-0.00421142578125,0.00677490234375,1.0247802734375,30.809999465942383,0.0,2.0,-0.86798095703125,-0.3629913330078125,Closing,0.0,0.0,0.0,0.0,0.0,0.0,0.0,0.0,
2.41585400000005,0.0,0.0,16369.0,0.0,0.0,0.0,0.0,0.125,0.79345695,0.01,0.0,-14920.0,0.0,0.0,-0.0,0.0,0.0,0.489501903,0.01,0.0,-6488.0,0.0,0.0,0.0,0.0,0.125,3.382568013,0.01,0.0,6090.0,0.0,0.0,-0.0,0.0,0.125,1.6027830390000002,0.01,0.0,0.2800000011920929,-0.33000001311302185,67.25,-0.005615234375,0.00604248046875,1.0240478515625,30.809999465942383,0.0,1.0,-0.86798095703125,-0.3629913330078125,Closing,0.0,0.0,0.0,0.0,0.0,0.0,0.0,0.0,
2.62951800000004,0.0,0.0,16369.0,0.0,0.0,0.0,0.0,0.125,0.79345695,0.01,0.0,-14920.0,0.0,0.0,-0.0,0.0,0.0,0.489501903,0.01,0.0,-6488.0,0.0,0.0,0.0,0.0,0.125,3.382568013,0.01,0.0,6090.0,0.0,0.0,-0.0,0.0,0.125,1.6027830390000002,0.01,0.0,0.2800000011920929,-0.33000001311302185,67.23999786376953,-0.00653076171875,0.006591796875,1.02587890625,30.799999237060547,0.0,1.0,-0.86798095703125,-0.3629913330078125,Closing,0.0,0.0,0.0,0.0,0.0,0.0,0.0,0.0,
2.7517060000000058,0.0,0.0,16369.0,0.0,0.0,0.0,0.0,0.125,0.79345695,0.01,0.0,-14920.0,0.0,0.0,-0.0,0.0,0.0,0.489501903,0.01,0.0,-6488.0,0.0,0.0,0.0,0.0,0.125,3.38134731,0.01,0.0,6090.0,0.0,0.0,-0.0,0.0,0.125,1.6027830390000002,0.01,0.0,0.2800000011920929,-0.33000001311302185,67.23999786376953,-0.003662109375,0.00848388671875,1.02362060546875,30.799999237060547,0.0,4.0,-0.86798095703125,-0.3629913330078125,Closing,0.0,0.0,0.0,0.0,0.0,0.0,0.0,0.0,
2.882140000000014,0.0,0.0,16369.0,0.0,0.0,0.0,0.0,0.125,0.7922362470000001,0.01,0.0,-14920.0,0.0,0.0,-0.0,0.0,0.0,0.4882812,0.01,0.0,-6488.0,0.0,0.0,0.0,0.0,0.125,3.38134731,0.01,0.0,6090.0,0.0,0.0,-0.0,0.0,0.125,1.6027830390000002,0.01,0.0,0.2800000011920929,-0.33000001311302185,67.23999786376953,-0.00506591796875,0.0062255859375,1.020751953125,30.799999237060547,0.0,1.0,-0.86798095703125,-0.3629913330078125,Closing,0.0,0.0,0.0,0.0,0.0,0.0,0.0,0.0,
3.019977000000072,0.0,0.0,16369.0,0.0,0.0,0.0,0.0,0.125,0.79345695,0.01,0.0,-14920.0,0.0,0.0,-0.0,0.0,0.0,0.489501903,0.01,0.0,-6488.0,0.0,0.0,0.0,0.0,0.125,3.382568013,0.01,0.0,6090.0,0.0,0.0,-0.0,0.0,0.125,1.6027830390000002,0.01,0.0,0.28999999165534973,-0.33000001311302185,67.23999786376953,-0.00469970703125,0.00714111328125,1.0269775390625,30.829999923706055,0.0,2.0,-0.86798095703125,-0.3629913330078125,Closing,0.0,0.0,0.0,0.0,0.0,0.0,0.0,0.0,
3.2301630000000587,0.0,0.0,16369.0,0.0,0.0,0.0,0.0,0.125,0.79345695,0.01,0.0,-14920.0,0.0,0.0,-0.0,0.0,0.0,0.489501903,0.01,0.0,-6488.0,0.0,0.0,0.0,0.0,0.125,3.382568013,0.01,0.0,6090.0,0.0,0.0,-0.0,0.0,0.125,1.6027830390000002,0.01,0.0,0.28999999165534973,-0.33000001311302185,67.23999786376953,-0.00408935546875,0.006103515625,1.024169921875,30.829999923706055,0.0,1.0,-0.86798095703125,-0.3629913330078125,Closing,0.0,0.0,0.0,0.0,0.0,0.0,0.0,0.0,
3.4281269999999786,0.0,0.0,16369.0,0.0,0.0,0.0,0.0,0.125,0.79345695,0.01,0.0,-14920.0,0.0,0.0,-0.0,0.0,0.0,0.489501903,0.01,0.0,-6488.0,0.0,0.0,0.0,0.0,0.125,3.3764644980000003,0.01,0.0,6090.0,0.0,0.0,-0.0,0.0,0.125,1.6027830390000002,0.01,0.0,0.28999999165534973,-0.33000001311302185,67.23999786376953,-0.004638671875,0.00164794921875,1.0238037109375,30.829999923706055,0.0,-2.0,-0.86798095703125,-0.3629913330078125,Closing,0.0,0.0,0.0,0.0,0.0,0.0,0.0,0.0,
3.627045000000042,0.0,0.0,16369.0,0.0,0.0,0.0,0.0,0.125,0.79345695,0.01,0.0,-14920.0,0.0,0.0,-0.0,0.0,0.0,0.489501903,0.01,0.0,-6488.0,0.0,0.0,0.0,0.0,0.125,3.3776852010000002,0.01,0.0,6090.0,0.0,0.0,-0.0,0.0,0.125,1.6027830390000002,0.01,0.0,0.28999999165534973,-0.33000001311302185,67.23999786376953,-0.00701904296875,0.00537109375,1.02484130859375,30.809999465942383,0.0,0.0,-0.86798095703125,-0.3629913330078125,Closing,0.0,0.0,0.0,0.0,0.0,0.0,0.0,0.0,
3.7639920000000857,0.0,0.0,16369.0,0.0,0.0,0.0,0.0,0.125,0.79345695,0.01,0.0,-14920.0,0.0,0.0,-0.0,0.0,0.0,0.4882812,0.01,0.0,-6488.0,0.0,0.0,0.0,0.0,0.125,3.382568013,0.01,0.0,6090.0,0.0,0.0,-0.0,0.0,0.125,1.6027830390000002,0.01,0.0,0.28999999165534973,-0.33000001311302185,67.23999786376953,-0.0052490234375,0.00567626953125,1.02972412109375,30.809999465942383,0.0,0.0,-0.86798095703125,-0.3629913330078125,Closing,0.0,0.0,0.0,0.0,0.0,0.0,0.0,0.0,
3.963803000000073,0.0,0.0,16369.0,0.0,0.0,0.0,0.0,0.125,0.794677653,0.01,0.0,-14920.0,0.0,0.0,-0.0,0.0,0.0,0.489501903,0.01,0.0,-6488.0,0.0,0.0,0.0,0.0,0.125,3.382568013,0.01,0.0,6090.0,0.0,0.0,-0.0,0.0,0.125,1.6027830390000002,0.01,0.0,0.28999999165534973,-0.33000001311302185,67.23999786376953,-0.00701904296875,0.0029296875,1.02874755859375,30.809999465942383,0.0,-2.0,-0.86798095703125,-0.3629913330078125,Closing,0.0,0.0,0.0,0.0,0.0,0.0,0.0,0.0,
4.162501999999979,0.0,0.0,16369.0,0.0,0.0,0.0,0.0,0.125,0.79345695,0.01,0.0,-14920.0,0.0,0.0,-0.0,0.0,0.0,0.489501903,0.01,0.0,-6488.0,0.0,0.0,0.0,0.0,0.125,3.3764644980000003,0.01,0.0,6090.0,0.0,0.0,-0.0,0.0,0.125,1.6027830390000002,0.01,0.0,0.2800000011920929,-0.33000001311302185,67.23999786376953,-0.0086669921875,0.00543212890625,1.02252197265625,30.81999969482422,0.0,0.0,-0.86798095703125,-0.3629913330078125,Closing,0.0,0.0,0.0,0.0,0.0,0.0,0.0,0.0,
4.284025000000023,0.0,0.0,16369.0,0.0,0.0,0.0,0.0,0.125,0.79345695,0.01,0.0,-14920.0,0.0,0.0,-0.0,0.0,0.0,0.4882812,0.01,0.0,-6488.0,0.0,0.0,0.0,0.0,0.125,3.38134731,0.01,0.0,6090.0,0.0,0.0,-0.0,0.0,0.125,1.6027830390000002,0.01,0.0,0.28999999165534973,-0.33000001311302185,67.23999786376953,-0.0047607421875,0.0050048828125,1.0255126953125,30.81999969482422,0.0,0.0,-0.86798095703125,-0.3629913330078125,Closing,0.0,0.0,0.0,0.0,0.0,0.0,0.0,0.0,
4.430444000000017,0.0,0.0,16369.0,0.0,0.0,0.0,0.0,0.125,0.79345695,0.01,0.0,-14920.0,0.0,0.0,-0.0,0.0,0.0,0.4882812,0.01,0.0,-6488.0,0.0,0.0,0.0,0.0,0.125,3.38134731,0.01,0.0,6090.0,0.0,0.0,-0.0,0.0,0.125,1.6027830390000002,0.01,0.0,0.28999999165534973,-0.33000001311302185,67.23999786376953,-0.0032958984375,0.005126953125,1.024658203125,30.81999969482422,0.0,0.0,-0.86798095703125,-0.3629913330078125,Closing,0.0,0.0,0.0,0.0,0.0,0.0,0.0,0.0,
4.628261999999988,0.0,0.0,16369.0,0.0,0.0,0.0,0.0,0.125,0.7922362470000001,0.01,0.0,-14920.0,0.0,0.0,-0.0,0.0,0.0,0.489501903,0.01,0.0,-6488.0,0.0,0.0,0.0,0.0,0.125,3.38134731,0.01,0.0,6090.0,0.0,0.0,-0.0,0.0,0.125,1.6027830390000002,0.01,0.0,0.2800000011920929,-0.33000001311302185,67.23999786376953,-0.00518798828125,0.0054931640625,1.02783203125,30.780000686645508,0.0,0.0,-0.86798095703125,-0.3629913330078125,Closing,0.0,0.0,0.0,0.0,0.0,0.0,0.0,0.0,
4.830256999999984,0.0,0.0,16349.0,0.375,-112.5,-377.00788199901575,0.0,0.125,0.8032225740000001,4.932250999999998,0.0,-14902.0,1.625,67.5,377.00788199901575,0.0,0.0,0.484619091,4.963769999999998,0.0,-6498.0,0.875,-52.5,-377.00788199901575,0.0,0.125,3.38134731,0.01,0.0,6104.0,0.75,82.5,377.00788199901575,0.0,0.125,1.6040037420000002,0.01,0.0,0.25999999046325684,-0.6100000143051147,67.2699966430664,-0.09295654296875,0.02142333984375,1.05963134765625,30.780000686645508,0.0,-16.0,-0.8702392578125,-0.361907958984375,Closing,0.0,0.0,0.0,0.0,0.0,0.0,0.0,0.0,
5.028364999999991,0.0,0.0,16327.0,1.625,-240.0,-496.06298089027405,0.0,0.0,0.806884683,4.932250999999998,0.0,-14879.0,4.25,247.5,496.06298089027405,0.0,0.0,0.483398388,4.963769999999998,0.0,-6519.0,2.25,-232.5,-496.06298089027405,0.0,0.125,3.382568013,0.01,0.0,6124.0,1.625,217.5,496.06298089027405,0.0,0.125,1.6040037420000002,0.01,0.0,0.2800000011920929,-1.399999976158142,67.25,-0.0770263671875,0.01611328125,0.9957275390625,30.780000686645508,0.0,-10.0,-0.8804168701171875,-0.3507537841796875,Closing,0.0,0.0,0.0,0.0,0.0,0.0,0.0,0.0,
5.228542000000016,0.0,0.0,16210.0,0.625,-457.5,-496.06298089027405,0.0,0.0,0.79345695,4.932250999999998,0.0,-14759.0,2.25,472.5,496.06298089027405,0.0,0.0,0.469970655,4.963769999999998,0.0,-6635.0,1.0,-472.5,-496.06298089027405,0.0,0.125,3.3764644980000003,0.01,0.0,6222.0,1.25,465.0,496.06298089027405,0.0,0.125,1.6015623360000002,0.01,0.0,0.44999998807907104,-1.8700000047683716,67.25,-0.02166748046875,-0.02520751953125,1.1221923828125,30.81999969482422,0.0,-25.0,-0.8855438232421875,-0.323516845703125,Closing,0.0,0.0,0.0,0.0,0.0,0.0,0.0,0.0,
5.428194000000017,0.0,0.0,16052.0,0.375,-502.5,-515.9055286645889,0.0,0.0,0.8020018710000001,4.932250999999998,0.0,-14590.0,1.625,525.0,515.9055286645889,0.0,0.25,0.469970655,4.963769999999998,0.0,-6796.0,1.0,-510.0,-515.9055286645889,0.0,0.125,3.3703609830000003,0.01,0.0,6379.0,0.75,495.0,515.9055286645889,0.0,0.125,1.6027830390000002,0.01,0.0,0.3799999952316284,-1.5800000429153442,67.04000091552734,0.00732421875,0.0499267578125,1.0631103515625,30.81999969482422,0.0,53.0,-0.8870697021484375,-0.298797607421875,Closing,0.0,0.0,0.0,0.0,0.0,0.0,0.0,0.0,
5.629444000000018,0.0,0.0,15971.0,0.625,-495.0,-515.9055286645889,0.0,0.0,0.8020018710000001,4.932250999999998,0.0,-14504.0,1.5,517.5,515.9055286645889,0.0,0.0,0.469970655,4.963769999999998,0.0,-6958.0,1.0,-502.5,-515.9055286645889,0.0,0.125,3.3776852010000002,0.01,0.0,6540.0,0.875,487.5,515.9055286645889,0.0,0.125,1.597900227,0.01,0.0,0.3799999952316284,-1.4299999475479126,66.79000091552734,-0.0076904296875,0.01446533203125,1.1082763671875,30.809999465942383,0.0,14.0,-0.884552001953125,-0.29937744140625,Closing,0.0,0.0,0.0,0.0,0.0,0.0,0.0,0.0,
5.8289890000000595,0.0,0.0,15812.0,0.625,-510.0,-515.9055286645889,0.0,0.0,0.8020018710000001,4.932250999999998,0.0,-14335.0,1.25,532.5,515.9055286645889,0.0,0.0,0.469970655,4.963769999999998,0.0,-7040.0,1.0,-517.5,-515.9055286645889,0.0,0.125,3.3764644980000003,0.01,0.0,6621.0,0.875,510.0,515.9055286645889,0.0,0.125,1.6052244450000002,0.01,0.0,0.3799999952316284,-1.2899999618530273,66.51000213623047,-0.01104736328125,-0.0242919921875,0.9215087890625,30.809999465942383,0.0,-24.0,-0.88397216796875,-0.30059814453125,Closing,0.0,0.0,0.0,0.0,0.0,0.0,0.0,0.0,
6.03095000000007,0.0,0.0,15648.0,0.625,-502.5,-515.9055286645889,0.0,0.0,0.8032225740000001,4.932250999999998,0.0,-14166.0,1.125,525.0,515.9055286645889,0.0,0.0,0.469970655,4.963769999999998,0.0,-7206.0,1.0,-517.5,-515.9055286645889,0.0,0.125,3.3776852010000002,0.01,0.0,6786.0,0.875,502.5,515.9055286645889,0.0,0.125,1.6027830390000002,0.01,0.0,0.4099999964237213,-1.0800000429153442,66.36000061035156,-0.00445556640625,0.0166015625,1.178466796875,30.809999465942383,0.0,14.0,-0.881256103515625,-0.302764892578125,Closing,0.0,0.0,0.0,0.0,0.0,0.0,0.0,0.0,
6.216207999999984,0.0,0.0,15567.0,0.625,-502.5,-515.9055286645889,0.0,0.0,0.79345695,4.932250999999998,0.0,-14083.0,1.125,525.0,515.9055286645889,0.0,0.0,0.469970655,4.963769999999998,0.0,-7289.0,0.875,-510.0,-515.9055286645889,0.0,0.125,3.3776852010000002,0.01,0.0,6944.0,1.125,495.0,515.9055286645889,0.0,0.125,1.595458821,0.01,0.0,0.3799999952316284,-0.9300000071525574,66.33999633789062,0.0042724609375,0.05242919921875,1.00946044921875,30.799999237060547,0.0,50.0,-0.8788604736328125,-0.3046112060546875,Closing,0.0,0.0,0.0,0.0,0.0,0.0,0.0,0.0,
6.428835000000079,0.0,0.0,15408.0,0.625,-495.0,-515.9055286645889,0.0,0.125,0.797119059,4.932250999999998,0.0,-13917.0,1.25,502.5,515.9055286645889,0.0,0.0,0.468749952,4.963769999999998,0.0,-7450.0,1.25,-495.0,-515.9055286645889,0.0,0.125,3.3776852010000002,0.01,0.0,7024.0,1.25,495.0,515.9055286645889,0.0,0.125,1.6027830390000002,0.01,0.0,0.44999998807907104,-0.9399999976158142,66.29000091552734,-0.06292724609375,-0.023681640625,1.081298828125,30.799999237060547,0.0,-47.0,-0.8775634765625,-0.3061676025390625,Closing,0.0,0.0,0.0,0.0,0.0,0.0,0.0,0.0,
6.629739999999991,0.0,0.0,15234.0,1.875,-562.5,-665.3834735308831,0.0,0.25,0.925292874,0.1390333060515956,0.0,-13761.0,0.5,472.5,394.6512887343526,0.0,0.25,0.7507323450000001,0.23827330110923928,0.0,-7621.0,2.375,-562.5,-665.3834735308831,0.0,0.125,3.225097326,4.801136984955287,0.0,7178.0,0.5,472.5,394.6512887343526,0.0,0.25,1.378173687,4.720003673236349,0.0,0.3799999952316284,-0.9900000095367432,67.08000183105469,0.04412841796875,-0.059326171875,1.01690673828125,30.81999969482422,0.0,-36.0,-0.8759765625,-0.307342529296875,Closing,0.0,0.0,0.0,0.0,0.0,0.0,0.0,0.0,
6.829207999999984,0.0,0.0,15119.0,1.625,-802.5,-858.326194039196,0.0,0.125,1.0864256700000001,0.23753748974261824,0.0,-13699.0,0.75,337.5,332.5261512328304,0.0,0.25,1.3708494690000002,0.6933154408866739,0.0,-7730.0,2.375,-802.5,-858.326194039196,0.0,0.125,3.077392263,4.702470053952155,0.0,7300.0,0.75,382.5,332.5261512328304,0.0,0.25,0.770263593,4.265490484870143,0.0,0.3400000035762787,-0.9200000166893005,72.66999816894531,0.041259765625,0.01898193359375,0.9923095703125,30.81999969482422,0.0,29.0,-0.8733673095703125,-0.3071746826171875,Closing,0.0,0.0,0.0,0.0,0.0,0.0,0.0,0.0,
7.0320890000000364,0.0,0.0,14838.0,0.75,-877.5,-873.5938676279349,0.0,0.125,1.1328123840000002,0.2432937060418857,0.0,-13587.0,0.625,352.5,333.0562287742621,0.0,0.0,1.5258787500000002,0.7325525350294434,0.0,-7980.0,3.25,-742.5,-873.5938676279349,0.0,0.0,3.03955047,4.696704327308296,0.0,7363.0,0.75,337.5,333.0562287742621,0.0,0.25,0.623779233,4.22629900082478,0.0,0.5400000214576721,-0.7599999904632568,81.94999694824219,-0.0057373046875,0.06414794921875,1.1829833984375,30.81999969482422,0.0,53.0,-0.869293212890625,-0.309539794921875,Closing,0.0,0.0,0.0,0.0,0.0,0.0,0.0,0.0,
7.230883000000031,0.0,0.0,14600.0,0.0,-652.5,-515.9055286645889,0.0,0.25,0.8312987430000001,4.932250999999998,0.0,-13470.0,2.375,375.0,515.9055286645889,0.0,0.875,0.367431603,4.963769999999998,0.0,-8201.0,0.625,-540.0,-515.9055286645889,0.0,0.125,3.3728023890000003,0.01,0.0,7441.0,3.25,202.5,515.9055286645889,0.0,1.0,1.7626951320000002,0.01,0.0,0.8700000047683716,-0.9200000166893005,89.37999725341797,-0.08831787109375,0.033203125,1.0230712890625,30.81999969482422,0.0,16.0,-0.861114501953125,-0.3104248046875,Closing,0.0,0.0,0.0,0.0,0.0,0.0,0.0,0.0,
7.430658999999985,0.0,0.0,14519.0,3.625,-247.5,-515.9055286645889,0.0,0.0,0.6445311840000001,4.932250999999998,0.0,-13395.0,2.75,412.5,515.9055286645889,0.0,0.25,4.8706049700000005,4.963769999999998,0.0,-8293.0,4.75,-210.0,-515.9055286645889,0.0,0.125,3.5363765910000002,0.01,0.0,7540.0,4.625,337.5,515.9055286645889,0.0,0.125,2.1179197050000003,0.01,0.0,0.75,0.11999999731779099,88.41999816894531,0.00628662109375,0.05694580078125,1.1717529296875,30.81999969482422,0.0,41.0,-0.85296630859375,-0.324188232421875,Closing,0.0,0.0,0.0,0.0,0.0,0.0,0.0,0.0,
7.631813000000082,0.0,0.0,14475.0,7.375,-172.5,-515.9055286645889,0.0,0.25,0.772704999,4.932250999999998,0.0,-13291.0,4.875,420.0,515.9055286645889,0.0,0.75,0.692138601,4.963769999999998,0.0,-8350.0,9.875,-225.0,-515.9055286645889,0.0,0.125,3.40576137,0.01,0.0,7589.0,4.0,502.5,515.9055286645889,0.0,0.25,1.381835796,0.01,0.0,0.8100000023841858,-1.1100000143051147,85.80999755859375,-0.235107421875,-0.0426025390625,0.98321533203125,30.790000915527344,0.0,-72.0,-0.848876953125,-0.3100738525390625,Closing,0.0,0.0,0.0,0.0,0.0,0.0,0.0,0.0,
7.814962999999989,0.0,0.0,14285.0,1.625,-780.0,-515.9055286645889,0.0,0.0,0.852050694,4.932250999999998,0.0,-13135.0,4.125,465.0,515.9055286645889,0.0,0.25,0.7751464050000001,4.963769999999998,0.0,-8422.0,9.5,-210.0,-515.9055286645889,0.0,0.125,3.3728023890000003,0.01,0.0,7749.0,4.25,435.0,515.9055286645889,0.0,0.25,1.468505709,0.01,0.0,0.7599999904632568,-1.7699999809265137,89.18000030517578,-0.0247802734375,-0.04583740234375,1.24920654296875,30.790000915527344,0.0,-62.0,-0.849578857421875,-0.272125244140625,Closing,0.0,0.0,0.0,0.0,0.0,0.0,0.0,0.0,
8.030788000000058,0.0,0.0,14148.0,0.0,-795.0,-515.9055286645889,0.0,0.125,0.8447264760000001,4.932250999999998,0.0,-13035.0,0.75,712.5,515.9055286645889,0.0,0.25,0.393066366,4.963769999999998,0.0,-8526.0,5.875,-487.5,-515.9055286645889,0.0,0.0,3.3666988740000003,0.01,0.0,7838.0,2.375,697.5,515.9055286645889,0.0,0.25,1.744384587,0.01,0.0,0.699999988079071,-2.0799999237060547,91.8499984741211,-0.03851318359375,-0.009521484375,0.5946044921875,30.790000915527344,0.0,-16.0,-0.8500823974609375,-0.2186737060546875,Closing,0.0,0.0,0.0,0.0,0.0,0.0,0.0,0.0,
8.14798700000008,0.0,0.0,14024.0,0.0,-727.5,0.0,0.0,0.125,0.8300780400000001,4.932250999999998,0.0,-12920.0,0.0,660.0,0.0,0.0,0.25,0.358886682,4.963769999999998,0.0,-8603.0,0.0,-352.5,0.0,0.0,0.0,3.343505517,0.01,0.0,8067.0,0.0,652.5,0.0,0.0,0.125,1.676025219,0.01,0.0,0.75,-1.3300000429153442,91.2699966430664,0.15185546875,-0.0731201171875,0.66632080078125,30.799999237060547,0.0,-85.0,-0.848052978515625,-0.1804046630859375,Closing,0.0,0.0,0.0,0.0,0.0,0.0,0.0,0.0,
8.284992000000086,0.0,0.0,13860.0,0.0,-412.5,0.0,0.0,0.125,0.832519446,4.932250999999998,0.0,-12733.0,0.0,487.5,0.0,0.0,0.25,0.47485346700000003,4.963769999999998,0.0,-8705.0,0.0,-360.0,0.0,0.0,0.0,3.337402002,0.01,0.0,8146.0,0.0,487.5,0.0,0.0,0.125,1.6076658510000001,0.01,0.0,0.6899999976158142,-0.1899999976158142,90.11000061035156,0.2108154296875,0.0194091796875,0.86907958984375,30.799999237060547,0.0,8.0,-0.846588134765625,-0.1579437255859375,Closing,0.0,0.0,0.0,0.0,0.0,0.0,0.0,0.0,
8.49657500000007,0.0,0.0,13822.0,0.0,-135.0,0.0,0.0,0.125,0.8312987430000001,4.932250999999998,0.0,-12698.0,0.0,105.0,0.0,0.0,0.0,0.5432128350000001,4.963769999999998,0.0,-8738.0,0.0,-45.0,0.0,0.0,0.0,3.337402002,0.01,0.0,8196.0,0.0,82.5,0.0,0.0,0.125,1.59912093,0.01,0.0,0.6200000047683716,0.75,90.19000244140625,0.06585693359375,0.00262451171875,1.08001708984375,30.799999237060547,0.0,-9.0,-0.8470001220703125,-0.158355712890625,Closing,0.0,0.0,0.0,0.0,0.0,0.0,0.0,0.0,
8.683434000000009,0.0,0.0,13813.0,0.0,0.0,-138.89763727784157,0.0,0.125,0.8032225740000001,4.932250999999998,0.0,-12685.0,0.125,7.5,138.89763727784157,0.0,0.0,0.5407714290000001,4.963769999999998,0.0,-8743.0,0.0,0.0,-138.89763727784157,0.0,0.0,3.337402002,0.01,0.0,8196.0,0.125,0.0,138.89763727784157,0.0,0.125,1.6027830390000002,0.01,0.0,0.5600000023841858,0.6399999856948853,90.18000030517578,-0.034423828125,-0.00933837890625,1.00164794921875,30.799999237060547,0.0,-19.0,-0.847503662109375,-0.161529541015625,Closing,0.0,0.0,0.0,0.0,0.0,0.0,0.0,0.0,
8.824722999999999,0.0,0.0,13809.0,0.0,-67.5,-238.1102353334427,0.0,0.125,0.8178710100000001,4.932250999999998,0.0,-12667.0,0.5,90.0,238.1102353334427,0.0,0.0,0.527343696,4.963769999999998,0.0,-8748.0,0.125,-22.5,-238.1102353334427,0.0,0.0,3.337402002,0.01,0.0,8197.0,0.375,22.5,238.1102353334427,0.0,0.125,1.600341633,0.01,0.0,0.5600000023841858,0.27000001072883606,90.19999694824219,-0.0855712890625,-0.030029296875,0.9940185546875,30.799999237060547,0.0,-39.0,-0.847381591796875,-0.1543121337890625,Closing,0.0,0.0,0.0,0.0,0.0,0.0,0.0,0.0,
9.032514000000083,0.0,0.0,13775.0,0.75,-112.5,-337.32282400131226,0.0,0.125,0.8312987430000001,4.932250999999998,0.0,-12646.0,2.875,112.5,337.32282400131226,0.0,0.0,0.509033151,4.963769999999998,0.0,-8762.0,1.75,-105.0,-337.32282400131226,0.0,0.0,3.341064111,0.01,0.0,8225.0,1.125,90.0,337.32282400131226,0.0,0.125,1.597900227,0.01,0.0,0.5600000023841858,-0.3199999928474426,90.3499984741211,-0.0928955078125,0.01739501953125,0.99725341796875,30.799999237060547,0.0,8.0,-0.847625732421875,-0.1285858154296875,Closing,0.0,0.0,0.0,0.0,0.0,0.0,0.0,0.0,
9.23032500000007,0.0,0.0,13744.0,0.625,-255.0,-357.16537177562714,0.0,0.125,0.8312987430000001,4.932250999999998,0.0,-12616.0,2.625,262.5,357.16537177562714,0.0,0.0,0.509033151,4.963769999999998,0.0,-8819.0,1.875,-217.5,-357.16537177562714,0.0,0.0,3.353271141,0.01,0.0,8295.0,1.125,255.0,357.16537177562714,0.0,0.125,1.597900227,0.01,0.0,0.5299999713897705,-0.800000011920929,90.38999938964844,-0.04962158203125,0.0172119140625,1.0379638671875,30.770000457763672,0.0,7.0,-0.84808349609375,-0.0963592529296875,Closing,0.0,0.0,0.0,0.0,0.0,0.0,0.0,0.0,
9.42999900000007,0.0,0.0,13639.0,0.125,-375.0,-357.16537177562714,0.0,0.125,0.8300780400000001,4.932250999999998,0.0,-12513.0,1.5,367.5,357.16537177562714,0.0,0.0,0.509033151,4.963769999999998,0.0,-8858.0,2.0,-300.0,-357.16537177562714,0.0,0.0,3.3630367650000004,0.01,0.0,8347.0,0.875,322.5,357.16537177562714,0.0,0.125,1.597900227,0.01,0.0,0.5299999713897705,-1.0099999904632568,90.63999938964844,-0.0762939453125,0.00286865234375,0.95416259765625,30.770000457763672,0.0,-5.0,-0.847808837890625,-0.0524139404296875,Closing,0.0,0.0,0.0,0.0,0.0,0.0,0.0,0.0,
9.629646000000067,0.0,0.0,13508.0,0.0,-405.0,-357.16537177562714,0.0,0.125,0.8312987430000001,4.932250999999998,0.0,-12384.0,0.875,397.5,357.16537177562714,0.0,0.0,0.5151366660000001,4.963769999999998,0.0,-8986.0,1.0,-412.5,-357.16537177562714,0.0,0.0,3.3618160620000004,0.01,0.0,8457.0,0.75,375.0,357.16537177562714,0.0,0.125,1.596679524,0.01,0.0,0.5400000214576721,-0.9100000262260437,90.97000122070312,0.0439453125,0.04302978515625,1.09002685546875,30.770000457763672,0.0,31.0,-0.8496246337890625,0.0025177001953125,Closing,0.0,0.0,0.0,0.0,0.0,0.0,0.0,0.0,
9.830684000000009,0.0,0.0,13445.0,0.0,-375.0,-377.00788199901575,0.0,0.125,0.8178710100000001,4.932250999999998,0.0,-12323.0,1.25,367.5,377.00788199901575,0.0,0.0,0.509033151,4.963769999999998,0.0,-9049.0,1.25,-375.0,-377.00788199901575,0.0,0.0,3.347167626,0.01,0.0,8573.0,0.875,375.0,377.00788199901575,0.0,0.125,1.59912093,0.01,0.0,0.550000011920929,-0.8500000238418579,91.16999816894531,0.02490234375,9.1552734375E-4,1.023681640625,30.739999771118164,0.0,-9.0,-0.8503570556640625,0.025726318359375,Closing,0.0,0.0,0.0,0.0,0.0,0.0,0.0,0.0,
10.028719000000041,0.0,0.0,13333.0,0.0,-270.0,-264.90704053349725,0.0,1.125,4.874267079,3.9274690914156642,0.0,-12194.0,5.25,480.0,723.9974247568507,0.0,0.25,0.262451145,4.680836944121586,0.0,-9171.0,0.375,-375.0,-264.90704053349725,0.0,1.125,4.301757372,1.0064419959912934,0.0,8652.0,2.375,562.5,723.9974247568507,0.0,0.25,1.926269334,0.28260416801043964,0.0,0.5099999904632568,-0.7400000095367432,90.25,0.06927490234375,0.033447265625,1.07781982421875,30.739999771118164,0.0,23.0,-0.8524017333984375,0.02783203125,Closing,0.0,0.0,0.0,0.0,0.0,0.0,0.0,0.0,
10.231204000000027,0.0,0.0,13253.0,0.75,-277.5,-377.00788199901575,0.0,1.5,0.25146481800000003,4.932250999999998,0.0,-12015.0,0.375,517.5,377.00788199901575,0.0,0.25,0.344238246,4.963769999999998,0.0,-9242.0,2.375,-165.0,-377.00788199901575,0.0,1.125,3.873290619,0.01,0.0,8817.0,0.375,517.5,377.00788199901575,0.0,0.25,1.7626951320000002,0.01,0.0,0.3199999928474426,-0.46000000834465027,82.68000030517578,-0.12158203125,0.10015869140625,0.93035888671875,30.799999237060547,0.0,79.0,-0.851043701171875,0.0201263427734375,Closing,0.0,0.0,0.0,0.0,0.0,0.0,0.0,0.0,
10.432222000000067,0.0,0.0,13145.0,0.375,-375.0,-377.00788199901575,0.0,0.75,1.361083845,4.932250999999998,0.0,-11882.0,1.0,367.5,377.00788199901575,0.0,0.25,0.640869075,4.963769999999998,0.0,-9310.0,3.5,-270.0,-377.00788199901575,0.0,0.5,2.812499712,0.01,0.0,8946.0,1.125,345.0,377.00788199901575,0.0,0.125,1.444091649,0.01,0.0,0.30000001192092896,-0.6100000143051147,82.12000274658203,0.166015625,0.07147216796875,1.04107666015625,30.799999237060547,0.0,89.0,-0.8516998291015625,0.0216217041015625,Closing,0.0,0.0,0.0,0.0,0.0,0.0,0.0,0.0,
10.628916000000086,0.0,0.0,13127.0,0.0,7.5,0.0,0.0,0.875,1.094970591,4.932250999999998,0.0,-11864.0,0.0,7.5,0.0,0.0,0.0,0.6347655600000001,4.963769999999998,0.0,-9320.0,0.0,-7.5,0.0,0.0,0.875,3.2702633370000003,0.01,0.0,8987.0,0.0,75.0,0.0,0.0,0.25,1.540527186,0.01,0.0,0.18000000715255737,0.6499999761581421,82.19000244140625,-0.0570068359375,-0.055908203125,1.11236572265625,30.799999237060547,0.0,-68.0,-0.8509979248046875,0.003875732421875,Closing,0.0,0.0,0.0,0.0,0.0,0.0,0.0,0.0,
10.828959000000031,0.0,0.0,13145.0,0.0,30.0,0.0,0.0,0.375,0.5285643990000001,4.932250999999998,0.0,-11866.0,0.0,0.0,0.0,0.0,0.0,0.49438471500000003,4.963769999999998,0.0,-9328.0,0.0,-7.5,0.0,0.0,0.125,3.560790651,0.01,0.0,8977.0,0.0,0.0,0.0,0.0,0.25,1.6564939710000002,0.01,0.0,0.27000001072883606,0.20999999344348907,82.1500015258789,-0.018798828125,0.01800537109375,1.054443359375,30.799999237060547,0.0,9.0,-0.853729248046875,-0.01971435546875,Closing,0.0,0.0,0.0,0.0,0.0,0.0,0.0,0.0,
11.030405000000028,0.0,0.0,13145.0,0.0,0.0,0.0,0.0,0.375,0.848388585,4.932250999999998,0.0,-11866.0,0.0,0.0,0.0,0.0,0.0,0.450439407,4.963769999999998,0.0,-9327.0,0.0,0.0,0.0,0.0,0.125,3.391112934,0.01,0.0,8977.0,0.0,0.0,0.0,0.0,0.125,1.676025219,0.01,0.0,0.3400000035762787,0.10999999940395355,82.19999694824219,-0.01629638671875,0.04449462890625,1.02618408203125,30.799999237060547,0.0,35.0,-0.85552978515625,-0.0221405029296875,Closing,0.0,0.0,0.0,0.0,0.0,0.0,0.0,0.0,
11.215094999999971,0.0,0.0,13145.0,0.0,0.0,0.0,0.0,0.125,0.9326170920000001,4.932250999999998,0.0,-11866.0,0.0,0.0,0.0,0.0,0.0,0.4882812,4.963769999999998,0.0,-9325.0,0.0,0.0,0.0,0.0,0.0,3.3142086450000003,0.01,0.0,8977.0,0.0,0.0,0.0,0.0,0.125,1.6369627230000001,0.01,0.0,0.3700000047683716,0.019999999552965164,82.20999908447266,-0.0078125,0.00482177734375,1.02801513671875,30.790000915527344,0.0,-3.0,-0.8553466796875,-0.0217132568359375,Closing,0.0,0.0,0.0,0.0,0.0,0.0,0.0,0.0,
11.362300999999977,0.0,0.0,13145.0,0.0,0.0,0.0,0.0,0.25,0.836181555,4.932250999999998,0.0,-11866.0,0.0,0.0,0.0,0.0,0.0,0.49438471500000003,4.963769999999998,0.0,-9325.0,0.0,0.0,0.0,0.0,0.0,3.338622705,0.01,0.0,8977.0,0.0,0.0,0.0,0.0,0.0,1.627197099,0.01,0.0,0.3700000047683716,-0.029999999329447746,82.19999694824219,-0.01239013671875,0.013916015625,1.02105712890625,30.790000915527344,0.0,5.0,-0.8553466796875,-0.0217132568359375,Closing,0.0,0.0,0.0,0.0,0.0,0.0,0.0,0.0,
11.564207999999985,0.0,0.0,13145.0,0.0,0.0,-148.8189049065113,0.0,0.75,1.1120604330000001,0.5498168668524864,0.0,-11870.0,0.0,-30.0,-148.8189049065113,0.0,0.5,0.017089842,4.41043958977222,0.0,-9326.0,0.0,0.0,-148.8189049065113,0.0,0.625,2.885741892,4.389674732977291,0.0,8976.0,0.125,-7.5,-148.8189049065113,0.0,0.875,2.094726348,0.552687206278561,0.0,0.3700000047683716,-0.10999999940395355,82.19000244140625,-0.0113525390625,0.001220703125,0.99847412109375,30.790000915527344,0.0,-6.0,-0.85552978515625,-0.020904541015625,Closing,0.0,0.0,0.0,0.0,0.0,0.0,0.0,0.0,
11.762660000000032,0.0,0.0,13144.0,0.0,0.0,0.0,0.0,0.625,1.4782713330000001,0.5498168668524864,0.0,-11880.0,0.0,0.0,0.0,0.0,0.0,4.754638185,4.41043958977222,0.0,-9325.0,0.0,0.0,0.0,0.0,0.125,2.7404782350000003,4.389674732977291,0.0,8971.0,0.0,0.0,0.0,0.0,0.25,2.2717282830000003,0.552687206278561,0.0,0.38999998569488525,-0.20000000298023224,82.2699966430664,0.00103759765625,0.00909423828125,1.0211181640625,30.780000686645508,0.0,2.0,-0.8557891845703125,-0.01983642578125,Closing,0.0,0.0,0.0,0.0,0.0,0.0,0.0,0.0,
11.962541000000085,0.0,0.0,13144.0,0.0,0.0,0.0,0.0,0.125,1.414794777,0.5498168668524864,0.0,-11880.0,0.0,0.0,0.0,0.0,0.0,4.848632316000001,4.41043958977222,0.0,-9325.0,0.0,0.0,0.0,0.0,0.0,2.808837603,4.389674732977291,0.0,8971.0,0.0,0.0,0.0,0.0,0.125,2.1740720430000002,0.552687206278561,0.0,0.38999998569488525,-0.23999999463558197,82.30000305175781,-0.0050048828125,-5.4931640625E-4,0.99749755859375,30.780000686645508,0.0,-7.0,-0.8556671142578125,-0.019683837890625,Closing,0.0,0.0,0.0,0.0,0.0,0.0,0.0,0.0,
12.160319000000017,0.0,0.0,13144.0,0.0,0.0,0.0,0.0,0.125,1.365966657,0.5498168668524864,0.0,-11880.0,0.0,0.0,0.0,0.0,0.0,4.932860823,4.41043958977222,0.0,-9326.0,0.0,0.0,0.0,0.0,0.0,2.828368851,4.389674732977291,0.0,8971.0,0.0,0.0,0.0,0.0,0.0,2.126464626,0.552687206278561,0.0,0.38999998569488525,-0.3100000023841858,82.31999969482422,-0.01007080078125,0.009033203125,1.02777099609375,30.780000686645508,0.0,1.0,-0.8556671142578125,-0.019683837890625,Closing,0.0,0.0,0.0,0.0,0.0,0.0,0.0,0.0,
12.362119999999996,0.0,0.0,13144.0,0.0,0.0,0.0,0.0,0.0,1.365966657,0.5498168668524864,0.0,-11880.0,0.0,0.0,0.0,0.0,0.0,4.932860823,4.41043958977222,0.0,-9326.0,0.0,0.0,0.0,0.0,0.125,2.833251663,4.389674732977291,0.0,8971.0,0.0,0.0,0.0,0.0,0.125,2.141113062,0.552687206278561,0.0,0.38999998569488525,-0.3400000035762787,82.33000183105469,-0.007568359375,0.00543212890625,1.02587890625,30.81999969482422,0.0,-1.0,-0.8556671142578125,-0.019683837890625,Closing,0.0,0.0,0.0,0.0,0.0,0.0,0.0,0.0,
12.488065000000061,0.0,0.0,13144.0,0.0,0.0,0.0,0.0,0.0,1.365966657,0.5498168668524864,0.0,-11880.0,0.0,0.0,0.0,0.0,0.0,4.930419417,4.41043958977222,0.0,-9326.0,0.0,0.0,0.0,0.0,0.125,2.833251663,4.389674732977291,0.0,8971.0,0.0,0.0,0.0,0.0,0.125,2.142333765,0.552687206278561,0.0,0.38999998569488525,-0.3700000047683716,82.33000183105469,-0.00897216796875,0.0040283203125,1.0228271484375,30.81999969482422,0.0,-3.0,-0.8556671142578125,-0.019683837890625,Closing,0.0,0.0,0.0,0.0,0.0,0.0,0.0,0.0,
12.630481000000028,0.0,0.0,13141.0,0.0,-15.0,-297.63780355453486,0.0,1.625,1.080322155,4.932250999999998,0.0,-11861.0,0.5,127.5,297.63780355453486,0.0,1.25,0.313720671,4.963769999999998,0.0,-9328.0,0.125,-7.5,-297.63780355453486,0.0,0.75,3.187255533,0.01,0.0,8972.0,0.375,7.5,297.63780355453486,0.0,0.5,1.8151853610000002,0.01,0.0,0.4099999964237213,-0.41999998688697815,82.29000091552734,-0.02587890625,0.00946044921875,0.895751953125,30.81999969482422,0.0,0.0,-0.8555145263671875,-0.01953125,Closing,0.0,0.0,0.0,0.0,0.0,0.0,0.0,0.0,
12.831214000000037,0.0,0.0,13118.0,0.75,-60.0,-297.63780355453486,0.0,0.5,0.7263182850000001,4.932250999999998,0.0,-11845.0,2.25,75.0,297.63780355453486,0.0,0.25,0.706787037,4.963769999999998,0.0,-9337.0,1.75,-7.5,-297.63780355453486,0.0,0.125,3.560790651,0.01,0.0,8996.0,0.875,82.5,297.63780355453486,0.0,0.25,1.376952984,0.01,0.0,0.3400000035762787,-0.7799999713897705,82.23999786376953,-0.05120849609375,0.0126953125,1.01141357421875,30.809999465942383,0.0,1.0,-0.85577392578125,-0.011962890625,Closing,0.0,0.0,0.0,0.0,0.0,0.0,0.0,0.0,
13.02867200000002,0.0,0.0,13098.0,1.0,-127.5,-297.63780355453486,0.0,0.25,0.666503838,4.932250999999998,0.0,-11821.0,3.125,142.5,297.63780355453486,0.0,0.0,0.6738280560000001,4.963769999999998,0.0,-9348.0,2.125,-52.5,-297.63780355453486,0.0,0.125,3.4790035500000003,0.01,0.0,9008.0,1.75,67.5,297.63780355453486,0.0,0.25,1.516113126,0.01,0.0,0.4000000059604645,-0.8100000023841858,82.44999694824219,0.0506591796875,0.036865234375,0.992919921875,30.809999465942383,0.0,38.0,-0.855926513671875,4.57763671875E-5,Closing,0.0,0.0,0.0,0.0,0.0,0.0,0.0,0.0,
13.164804000000004,0.0,0.0,13072.0,1.625,-172.5,-297.63780355453486,0.0,0.25,0.8044432770000001,4.932250999999998,0.0,-11796.0,3.75,172.5,297.63780355453486,0.0,0.25,0.49438471500000003,4.963769999999998,0.0,-9365.0,2.875,-165.0,-297.63780355453486,0.0,0.125,3.392333637,0.01,0.0,9027.0,1.875,150.0,297.63780355453486,0.0,0.125,1.6601560800000001,0.01,0.0,0.3799999952316284,-1.1100000143051147,82.47000122070312,-0.070556640625,0.0010986328125,1.0338134765625,30.809999465942383,0.0,-12.0,-0.8553009033203125,0.0138092041015625,Closing,0.0,0.0,0.0,0.0,0.0,0.0,0.0,0.0,
13.361535000000032,0.0,0.0,12989.0,0.75,-315.0,-297.63780355453486,0.0,0.125,0.8959960020000001,4.932250999999998,0.0,-11704.0,1.625,360.0,297.63780355453486,0.0,0.0,0.352783167,4.963769999999998,0.0,-9447.0,2.0,-300.0,-297.63780355453486,0.0,0.125,3.347167626,0.01,0.0,9110.0,0.75,442.5,297.63780355453486,0.0,0.125,1.6857908430000001,0.01,0.0,0.33000001311302185,-1.5099999904632568,82.05999755859375,-0.01483154296875,-0.00537109375,1.0555419921875,30.799999237060547,0.0,-9.0,-0.855224609375,0.037109375,Closing,0.0,0.0,0.0,0.0,0.0,0.0,0.0,0.0,
13.562342000000063,0.0,0.0,12894.0,0.0,-277.5,-138.89763727784157,0.0,0.25,0.865478427,4.932250999999998,0.0,-11602.0,0.25,292.5,138.89763727784157,0.0,0.25,0.42114253500000004,4.963769999999998,0.0,-9548.0,0.375,-285.0,-138.89763727784157,0.0,0.0,3.347167626,0.01,0.0,9208.0,0.375,180.0,138.89763727784157,0.0,0.125,1.627197099,0.01,0.0,0.3499999940395355,-1.0299999713897705,81.88999938964844,0.08148193359375,-0.00225830078125,0.910888671875,30.799999237060547,0.0,6.0,-0.8560028076171875,0.03204345703125,Closing,0.0,0.0,0.0,0.0,0.0,0.0,0.0,0.0,
13.763550000000047,0.0,0.0,12883.0,0.0,-22.5,0.0,0.0,0.125,0.820312416,4.932250999999998,0.0,-11589.0,0.0,22.5,0.0,0.0,0.0,0.527343696,4.963769999999998,0.0,-9566.0,0.0,0.0,0.0,0.0,0.0,3.348388329,0.01,0.0,9235.0,0.0,105.0,0.0,0.0,0.0,1.622314287,0.01,0.0,0.38999998569488525,-0.33000001311302185,81.83000183105469,0.14923095703125,-0.05157470703125,0.92547607421875,30.809999465942383,0.0,-35.0,-0.854949951171875,0.006805419921875,Closing,0.0,0.0,0.0,0.0,0.0,0.0,0.0,0.0,
13.971586000000011,0.0,0.0,12877.0,0.0,0.0,0.0,0.0,0.0,0.811767495,4.932250999999998,0.0,-11580.0,0.0,0.0,0.0,0.0,0.0,0.5419921320000001,4.963769999999998,0.0,-9571.0,0.0,0.0,0.0,0.0,0.0,3.348388329,0.01,0.0,9250.0,0.0,0.0,0.0,0.0,0.0,1.621093584,0.01,0.0,0.4000000059604645,-0.20999999344348907,81.81999969482422,-0.03271484375,0.0142822265625,1.03570556640625,30.809999465942383,0.0,2.0,-0.853179931640625,-0.0081787109375,Closing,0.0,0.0,0.0,0.0,0.0,0.0,0.0,0.0,
14.164826000000001,0.0,0.0,12877.0,0.0,-45.0,-297.63780355453486,0.0,0.125,0.810546792,4.932250999999998,0.0,-11558.0,0.625,142.5,297.63780355453486,0.0,0.0,0.53710932,4.963769999999998,0.0,-9590.0,0.125,-105.0,-297.63780355453486,0.0,0.0,3.347167626,0.01,0.0,9250.0,0.375,0.0,297.63780355453486,0.0,0.0,1.622314287,0.01,0.0,0.3799999952316284,-0.4300000071525574,81.79000091552734,-0.028076171875,-0.04345703125,0.9713134765625,30.809999465942383,0.0,-52.0,-0.8534698486328125,-0.0043182373046875,Closing,0.0,0.0,0.0,0.0,0.0,0.0,0.0,0.0,
14.362808000000078,0.0,0.0,12843.0,1.375,-127.5,-436.53545022010803,0.0,0.0,0.812988198,4.932250999999998,0.0,-11545.0,3.875,112.5,436.53545022010803,0.0,0.0,0.5285643990000001,4.963769999999998,0.0,-9602.0,1.75,-112.5,-436.53545022010803,0.0,0.0,3.348388329,0.01,0.0,9273.0,1.125,210.0,436.53545022010803,0.0,0.0,1.617431475,0.01,0.0,0.38999998569488525,-0.9599999785423279,81.83999633789062,-0.03204345703125,-0.03369140625,1.0438232421875,30.84000015258789,0.0,-42.0,-0.8554534912109375,0.00213623046875,Closing,0.0,0.0,0.0,0.0,0.0,0.0,0.0,0.0,
14.492617000000086,0.0,0.0,12811.0,1.25,-255.0,-436.53545022010803,0.0,0.0,0.809326089,4.932250999999998,0.0,-11514.0,3.75,262.5,436.53545022010803,0.0,0.0,0.5285643990000001,4.963769999999998,0.0,-9633.0,1.75,-262.5,-436.53545022010803,0.0,0.0,3.347167626,0.01,0.0,9306.0,1.25,247.5,436.53545022010803,0.0,0.125,1.617431475,0.01,0.0,0.38999998569488525,-1.440000057220459,81.81999969482422,-0.03997802734375,-6.103515625E-5,1.00390625,30.84000015258789,0.0,-8.0,-0.856719970703125,0.0174560546875,Closing,0.0,0.0,0.0,0.0,0.0,0.0,0.0,0.0,
14.628101000000024,0.0,0.0,12761.0,0.75,-367.5,-456.37796044349665,0.0,0.0,0.8032225740000001,4.932250999999998,0.0,-11459.0,2.75,390.0,456.37796044349665,0.0,0.0,0.527343696,4.963769999999998,0.0,-9685.0,1.0,-390.0,-456.37796044349665,0.0,0.0,3.348388329,0.01,0.0,9356.0,1.25,345.0,456.37796044349665,0.0,0.125,1.617431475,0.01,0.0,0.4099999964237213,-1.659999966621399,81.80999755859375,-0.00836181640625,0.0499267578125,1.0718994140625,30.84000015258789,0.0,44.0,-0.856353759765625,0.0245361328125,Closing,0.0,0.0,0.0,0.0,0.0,0.0,0.0,0.0,
14.847148000000045,0.0,0.0,12668.0,0.0,-240.0,0.0,0.0,0.0,0.7922362470000001,4.932250999999998,0.0,-11357.0,0.0,270.0,0.0,0.0,0.0,0.5285643990000001,4.963769999999998,0.0,-9782.0,0.0,-240.0,0.0,0.0,0.0,3.328857081,0.01,0.0,9496.0,0.0,225.0,0.0,0.0,0.125,1.6320799110000002,0.01,0.0,0.36000001430511475,-0.6000000238418579,81.75,0.10858154296875,0.06414794921875,1.0882568359375,30.790000915527344,0.0,73.0,-0.8540496826171875,0.01531982421875,Closing,0.0,0.0,0.0,0.0,0.0,0.0,0.0,0.0,
15.018197999999975,0.0,0.0,12621.0,0.0,-60.0,0.0,0.0,0.125,0.79345695,4.932250999999998,0.0,-11315.0,0.0,60.0,0.0,0.0,0.0,0.5285643990000001,4.963769999999998,0.0,-9834.0,0.0,-45.0,0.0,0.0,0.0,3.330077784,0.01,0.0,9507.0,0.0,45.0,0.0,0.0,0.0,1.617431475,0.01,0.0,0.3799999952316284,0.0,81.73999786376953,0.02978515625,0.0111083984375,1.01153564453125,30.790000915527344,0.0,8.0,-0.852386474609375,-0.0072479248046875,Closing,0.0,0.0,0.0,0.0,0.0,0.0,0.0,0.0,
15.227930999999982,0.0,0.0,12621.0,0.0,0.0,0.0,0.0,0.125,0.79345695,4.932250999999998,0.0,-11315.0,0.0,0.0,0.0,0.0,0.0,0.527343696,4.963769999999998,0.0,-9834.0,0.0,0.0,0.0,0.0,0.0,3.328857081,0.01,0.0,9507.0,0.0,0.0,0.0,0.0,0.125,1.618652178,0.01,0.0,0.3700000047683716,-0.15000000596046448,81.69999694824219,-0.0335693359375,0.00469970703125,1.04541015625,30.790000915527344,0.0,-6.0,-0.852386474609375,-0.01141357421875,Closing,0.0,0.0,0.0,0.0,0.0,0.0,0.0,0.0,
15.427014000000083,0.0,0.0,12621.0,0.0,0.0,0.0,0.0,0.125,0.79345695,4.932250999999998,0.0,-11315.0,0.0,0.0,0.0,0.0,0.0,0.533447211,4.963769999999998,0.0,-9834.0,0.0,0.0,0.0,0.0,0.0,3.330077784,0.01,0.0,9507.0,0.0,0.0,0.0,0.0,0.125,1.617431475,0.01,0.0,0.3799999952316284,-0.25,81.70999908447266,-5.4931640625E-4,0.00750732421875,1.02069091796875,30.799999237060547,0.0,1.0,-0.852386474609375,-0.0087432861328125,Closing,0.0,0.0,0.0,0.0,0.0,0.0,0.0,0.0,
15.628290000000037,0.0,0.0,12621.0,0.0,0.0,0.0,0.0,0.125,0.79345695,4.932250999999998,0.0,-11315.0,0.0,0.0,0.0,0.0,0.0,0.527343696,4.963769999999998,0.0,-9834.0,0.0,0.0,0.0,0.0,0.0,3.328857081,0.01,0.0,9507.0,0.0,0.0,0.0,0.0,0.125,1.617431475,0.01,0.0,0.38999998569488525,-0.3100000023841858,81.70999908447266,-0.01861572265625,0.01165771484375,1.02325439453125,30.799999237060547,0.0,2.0,-0.852386474609375,-0.0087432861328125,Closing,0.0,0.0,0.0,0.0,0.0,0.0,0.0,0.0,
15.831130000000005,0.0,0.0,12621.0,0.0,0.0,0.0,0.0,0.125,0.79345695,4.932250999999998,0.0,-11315.0,0.0,0.0,0.0,0.0,0.0,0.527343696,4.963769999999998,0.0,-9834.0,0.0,0.0,0.0,0.0,0.0,3.328857081,0.01,0.0,9507.0,0.0,0.0,0.0,0.0,0.125,1.617431475,0.01,0.0,0.38999998569488525,-0.36000001430511475,81.69999694824219,-0.01434326171875,0.0111083984375,1.02685546875,30.81999969482422,0.0,2.0,-0.852386474609375,-0.0087432861328125,Closing,0.0,0.0,0.0,0.0,0.0,0.0,0.0,0.0,
16.027648000000045,0.0,0.0,12621.0,0.0,0.0,0.0,0.0,0.125,0.79345695,4.932250999999998,0.0,-11315.0,0.0,0.0,0.0,0.0,0.0,0.5285643990000001,4.963769999999998,0.0,-9834.0,0.0,0.0,0.0,0.0,0.0,3.328857081,0.01,0.0,9507.0,0.0,0.0,0.0,0.0,0.125,1.616210772,0.01,0.0,0.38999998569488525,-0.38999998569488525,81.70999908447266,-0.01080322265625,0.009765625,1.02679443359375,30.81999969482422,0.0,2.0,-0.852386474609375,-0.0087432861328125,Closing,0.0,0.0,0.0,0.0,0.0,0.0,0.0,0.0,
16.215820000000065,0.0,0.0,12621.0,0.0,0.0,0.0,0.0,0.125,0.79345695,4.932250999999998,0.0,-11315.0,0.0,0.0,0.0,0.0,0.0,0.533447211,4.963769999999998,0.0,-9834.0,0.0,0.0,0.0,0.0,0.0,3.328857081,0.01,0.0,9507.0,0.0,0.0,0.0,0.0,0.125,1.617431475,0.01,0.0,0.4000000059604645,-0.4300000071525574,81.70999908447266,-0.0142822265625,0.00909423828125,1.0244140625,30.81999969482422,0.0,0.0,-0.852386474609375,-0.0087432861328125,Closing,0.0,0.0,0.0,0.0,0.0,0.0,0.0,0.0,
16.366915000000038,0.0,0.0,12621.0,0.0,0.0,0.0,0.0,0.125,0.79345695,4.932250999999998,0.0,-11315.0,0.0,0.0,0.0,0.0,0.0,0.5285643990000001,4.963769999999998,0.0,-9834.0,0.0,0.0,0.0,0.0,0.0,3.328857081,0.01,0.0,9507.0,0.0,0.0,0.0,0.0,0.125,1.617431475,0.01,0.0,0.4000000059604645,-0.46000000834465027,81.70999908447266,-0.0113525390625,0.0067138671875,1.0264892578125,30.809999465942383,0.0,-1.0,-0.852386474609375,-0.0087432861328125,Closing,0.0,0.0,0.0,0.0,0.0,0.0,0.0,0.0,
16.56362400000007,0.0,0.0,12576.0,8.5,-217.5,-1190.5512392520905,0.0,0.875,1.121826057,0.5498168668524864,0.0,-11406.0,10.375,-457.5,-1190.5512392520905,0.0,0.5,0.198974589,4.41043958977222,0.0,-9866.0,9.25,-172.5,-1190.5512392520905,0.0,0.625,2.885741892,4.389674732977291,0.0,9463.0,8.5,-255.0,-1190.5512392520905,0.0,0.875,2.1691892310000003,0.552687206278561,0.0,0.20000000298023224,-0.4000000059604645,84.30000305175781,-0.0469970703125,0.093017578125,1.06842041015625,30.809999465942383,0.0,84.0,-0.852813720703125,-0.007598876953125,Closing,0.0,0.0,0.0,0.0,0.0,0.0,0.0,0.0,
16.752728,0.0,0.0,12543.0,0.0,-307.5,0.0,0.0,0.25,1.441650243,0.5498168668524864,0.0,-11480.0,0.0,-82.5,0.0,0.0,0.25,4.677733896,4.41043958977222,0.0,-9879.0,0.0,-75.0,0.0,0.0,0.125,2.518310289,4.389674732977291,0.0,9416.0,0.0,-300.0,0.0,0.0,0.125,2.7905270580000003,0.552687206278561,0.0,0.3799999952316284,-0.9100000262260437,90.38999938964844,0.10064697265625,-0.05950927734375,1.17315673828125,30.809999465942383,0.0,-68.0,-0.8490142822265625,0.0018310546875,Closing,0.0,0.0,0.0,0.0,0.0,0.0,0.0,0.0,
16.963358000000007,0.0,0.0,12510.0,0.0,67.5,0.0,0.0,0.25,1.4245604010000001,0.5498168668524864,0.0,-11489.0,0.0,0.0,0.0,0.0,0.25,4.807128414,4.41043958977222,0.0,-9895.0,0.0,0.0,0.0,0.0,0.25,2.779540731,4.389674732977291,0.0,9386.0,0.0,37.5,0.0,0.0,0.625,2.02636698,0.552687206278561,0.0,0.23999999463558197,-0.7400000095367432,89.27999877929688,-0.06390380859375,0.06707763671875,0.95611572265625,30.809999465942383,0.0,62.0,-0.8516845703125,0.005767822265625,Closing,0.0,0.0,0.0,0.0,0.0,0.0,0.0,0.0,
17.164415000000037,0.0,0.0,12511.0,0.0,0.0,131.25,0.0,0.25,1.413574074,0.5498168668524888,0.0,-11482.0,0.125,45.0,131.25,0.0,0.25,4.936522932,4.410439589772222,0.0,-9894.0,0.125,0.0,131.25,0.0,0.0,2.886962595,4.389674732977289,0.0,9394.0,0.125,0.0,131.25,0.0,0.125,1.939697067,0.5526872062785588,0.0,0.36000001430511475,-0.699999988079071,89.19999694824219,-0.03070068359375,0.03436279296875,0.9990234375,30.809999465942383,0.0,27.0,-0.8521881103515625,0.01129150390625,Closing,0.0,0.0,0.0,0.0,0.0,0.0,0.0,0.0,
17.362967999999995,0.0,0.0,12512.0,0.0,0.0,0.0,0.0,0.125,1.411132668,0.5498168668524888,0.0,-11482.0,0.0,0.0,0.0,0.0,0.0,4.947509259,4.410439589772222,0.0,-9887.0,0.0,0.0,0.0,0.0,0.125,2.7978512760000003,4.389674732977289,0.0,9394.0,0.0,0.0,0.0,0.0,0.25,2.286376719,0.5526872062785588,0.0,0.33000001311302185,-0.6899999976158142,89.19000244140625,-0.02642822265625,-0.01031494140625,1.03472900390625,30.829999923706055,0.0,-16.0,-0.8530731201171875,0.01123046875,Closing,0.0,0.0,0.0,0.0,0.0,0.0,0.0,0.0,
17.566170999999972,0.0,0.0,12512.0,0.0,0.0,0.0,0.0,0.125,1.406249856,0.5498168668524888,0.0,-11482.0,0.0,0.0,0.0,0.0,0.0,4.947509259,4.410439589772222,0.0,-9887.0,0.0,0.0,0.0,0.0,0.0,2.77099581,4.389674732977289,0.0,9394.0,0.0,0.0,0.0,0.0,0.125,2.2656247680000003,0.5526872062785588,0.0,0.33000001311302185,-0.6700000166893005,89.19999694824219,-0.014404296875,-0.004638671875,0.99603271484375,30.829999923706055,0.0,-10.0,-0.8529205322265625,0.01123046875,Closing,0.0,0.0,0.0,0.0,0.0,0.0,0.0,0.0,
17.76408600000001,0.0,0.0,12512.0,0.0,0.0,0.0,0.0,0.125,1.405029153,0.5498168668524888,0.0,-11482.0,0.0,0.0,0.0,0.0,0.0,4.946288556,4.410439589772222,0.0,-9887.0,0.0,0.0,0.0,0.0,0.0,2.772216513,4.389674732977289,0.0,9394.0,0.0,0.0,0.0,0.0,0.125,2.189941182,0.5526872062785588,0.0,0.33000001311302185,-0.6800000071525574,89.19999694824219,-0.01251220703125,0.0096435546875,1.01593017578125,30.829999923706055,0.0,3.0,-0.8529205322265625,0.01123046875,Closing,0.0,0.0,0.0,0.0,0.0,0.0,0.0,0.0,
17.96333500000008,0.0,0.0,12512.0,0.0,0.0,0.0,0.0,0.125,1.405029153,0.5498168668524888,0.0,-11482.0,0.0,0.0,0.0,0.0,0.0,4.948729962000001,4.410439589772222,0.0,-9887.0,0.0,0.0,0.0,0.0,0.0,2.769775107,4.389674732977289,0.0,9394.0,0.0,0.0,0.0,0.0,0.125,2.1716306370000003,0.5526872062785588,0.0,0.3400000035762787,-0.6700000166893005,89.19000244140625,-0.00732421875,0.007568359375,1.02679443359375,30.850000381469727,0.0,1.0,-0.8529205322265625,0.01123046875,Closing,0.0,0.0,0.0,0.0,0.0,0.0,0.0,0.0,
18.163295999999974,0.0,0.0,12512.0,0.0,0.0,0.0,0.0,0.125,1.405029153,0.5498168668524888,0.0,-11482.0,0.0,0.0,0.0,0.0,0.0,4.952392071,4.410439589772222,0.0,-9887.0,0.0,0.0,0.0,0.0,0.0,2.769775107,4.389674732977289,0.0,9394.0,0.0,0.0,0.0,0.0,0.0,2.1704099340000003,0.5526872062785588,0.0,0.3499999940395355,-0.6700000166893005,89.19000244140625,-0.01043701171875,0.00946044921875,1.02410888671875,30.850000381469727,0.0,3.0,-0.8529205322265625,0.01123046875,Closing,0.0,0.0,0.0,0.0,0.0,0.0,0.0,0.0,
18.363349000000046,0.0,0.0,12512.0,0.0,0.0,0.0,0.0,0.125,1.409911965,0.5498168668524888,0.0,-11482.0,0.0,0.0,0.0,0.0,0.0,4.947509259,4.410439589772222,0.0,-9887.0,0.0,0.0,0.0,0.0,0.0,2.768554404,4.389674732977289,0.0,9394.0,0.0,0.0,0.0,0.0,0.0,2.1704099340000003,0.5526872062785588,0.0,0.36000001430511475,-0.6700000166893005,89.19000244140625,-0.0128173828125,0.00592041015625,1.0279541015625,30.829999923706055,0.0,0.0,-0.8529205322265625,0.01123046875,Closing,0.0,0.0,0.0,0.0,0.0,0.0,0.0,0.0,
18.561775000000022,0.0,0.0,12512.0,0.0,0.0,0.0,0.0,0.125,1.405029153,0.5498168668524888,0.0,-11482.0,0.0,0.0,0.0,0.0,0.0,4.948729962000001,4.410439589772222,0.0,-9887.0,0.0,0.0,0.0,0.0,0.0,2.769775107,4.389674732977289,0.0,9394.0,0.0,0.0,0.0,0.0,0.0,2.1704099340000003,0.5526872062785588,0.0,0.3499999940395355,-0.6600000262260437,89.19000244140625,-0.00982666015625,0.00543212890625,1.026611328125,30.829999923706055,0.0,0.0,-0.8529205322265625,0.01123046875,Closing,0.0,0.0,0.0,0.0,0.0,0.0,0.0,0.0,
18.763555999999983,0.0,0.0,12512.0,0.0,0.0,0.0,0.0,0.125,1.405029153,0.5498168668524888,0.0,-11482.0,0.0,0.0,0.0,0.0,0.0,4.947509259,4.410439589772222,0.0,-9887.0,0.0,0.0,0.0,0.0,0.0,2.77099581,4.389674732977289,0.0,9394.0,0.0,0.0,0.0,0.0,0.0,2.1704099340000003,0.5526872062785588,0.0,0.36000001430511475,-0.6600000262260437,89.18000030517578,-0.011474609375,0.00640869140625,1.0228271484375,30.829999923706055,0.0,0.0,-0.8529205322265625,0.01123046875,Closing,0.0,0.0,0.0,0.0,0.0,0.0,0.0,0.0,
18.964369000000065,0.0,0.0,12512.0,0.0,0.0,0.0,0.0,0.125,1.405029153,0.5498168668524888,0.0,-11482.0,0.0,0.0,0.0,0.0,0.0,4.948729962000001,4.410439589772222,0.0,-9887.0,0.0,0.0,0.0,0.0,0.0,2.77099581,4.389674732977289,0.0,9394.0,0.0,0.0,0.0,0.0,0.0,2.1704099340000003,0.5526872062785588,0.0,0.36000001430511475,-0.6700000166893005,89.19000244140625,-0.011474609375,0.00653076171875,1.01416015625,30.850000381469727,0.0,0.0,-0.8529205322265625,0.01123046875,Closing,0.0,0.0,0.0,0.0,0.0,0.0,0.0,0.0,
19.161922000000022,0.0,0.0,12512.0,0.0,0.0,0.0,0.0,0.125,1.406249856,0.5498168668524888,0.0,-11482.0,0.0,0.0,0.0,0.0,0.0,4.947509259,4.410439589772222,0.0,-9887.0,0.0,0.0,0.0,0.0,0.0,2.769775107,4.389674732977289,0.0,9394.0,0.0,0.0,0.0,0.0,0.0,2.1691892310000003,0.5526872062785588,0.0,0.36000001430511475,-0.6600000262260437,89.19000244140625,-0.01336669921875,0.00640869140625,1.02301025390625,30.850000381469727,0.0,0.0,-0.8529205322265625,0.01123046875,Closing,0.0,0.0,0.0,0.0,0.0,0.0,0.0,0.0,
19.362984000000054,0.0,0.0,12512.0,0.0,0.0,0.0,0.0,0.125,1.405029153,0.5498168668524888,0.0,-11482.0,0.0,0.0,0.0,0.0,0.0,4.946288556,4.410439589772222,0.0,-9887.0,0.0,0.0,0.0,0.0,0.0,2.769775107,4.389674732977289,0.0,9394.0,0.0,0.0,0.0,0.0,0.0,2.1704099340000003,0.5526872062785588,0.0,0.3700000047683716,-0.6600000262260437,89.19000244140625,-0.01220703125,0.00885009765625,1.0321044921875,30.860000610351562,0.0,2.0,-0.8529205322265625,0.01123046875,Closing,0.0,0.0,0.0,0.0,0.0,0.0,0.0,0.0,
19.49584700000007,0.0,0.0,12512.0,0.0,0.0,0.0,0.0,0.125,1.406249856,0.5498168668524888,0.0,-11482.0,0.0,0.0,0.0,0.0,0.0,4.947509259,4.410439589772222,0.0,-9887.0,0.0,0.0,0.0,0.0,0.0,2.769775107,4.389674732977289,0.0,9394.0,0.0,0.0,0.0,0.0,0.0,2.1691892310000003,0.5526872062785588,0.0,0.3700000047683716,-0.6600000262260437,89.19000244140625,-0.0126953125,0.00555419921875,1.01983642578125,30.860000610351562,0.0,-1.0,-0.8529205322265625,0.01123046875,Closing,0.0,0.0,0.0,0.0,0.0,0.0,0.0,0.0,
19.698895000000018,0.0,0.0,12512.0,0.0,0.0,0.0,0.0,0.125,1.40380845,0.5498168668524888,0.0,-11482.0,0.0,0.0,0.0,0.0,0.0,4.949950665,4.410439589772222,0.0,-9887.0,0.0,0.0,0.0,0.0,0.0,2.769775107,4.389674732977289,0.0,9394.0,0.0,0.0,0.0,0.0,0.0,2.1704099340000003,0.5526872062785588,0.0,0.3700000047683716,-0.6700000166893005,89.19000244140625,-0.01080322265625,0.00592041015625,1.02203369140625,30.860000610351562,0.0,0.0,-0.8529205322265625,0.01123046875,Closing,0.0,0.0,0.0,0.0,0.0,0.0,0.0,0.0,
19.830023000000043,0.0,0.0,12512.0,0.0,0.0,0.0,0.0,0.125,1.412353371,0.5498168668524888,0.0,-11482.0,0.0,0.0,0.0,0.0,0.0,4.946288556,4.410439589772222,0.0,-9887.0,0.0,0.0,0.0,0.0,0.0,2.77099581,4.389674732977289,0.0,9394.0,0.0,0.0,0.0,0.0,0.0,2.1704099340000003,0.5526872062785588,0.0,0.3700000047683716,-0.6700000166893005,89.19000244140625,-0.00946044921875,0.0048828125,1.02740478515625,30.860000610351562,0.0,-1.0,-0.8529205322265625,0.01123046875,Closing,0.0,0.0,0.0,0.0,0.0,0.0,0.0,0.0,
20.02908600000001,0.0,0.0,12512.0,0.0,0.0,0.0,0.0,0.125,1.405029153,0.5498168668524888,0.0,-11482.0,0.0,0.0,0.0,0.0,0.0,4.951171368000001,4.410439589772222,0.0,-9887.0,0.0,0.0,0.0,0.0,0.0,2.769775107,4.389674732977289,0.0,9394.0,0.0,0.0,0.0,0.0,0.0,2.1704099340000003,0.5526872062785588,0.0,0.36000001430511475,-0.6600000262260437,89.19000244140625,-0.0113525390625,0.00775146484375,1.03253173828125,30.829999923706055,0.0,1.0,-0.8529205322265625,0.01123046875,Closing,0.0,0.0,0.0,0.0,0.0,0.0,0.0,0.0,
20.152842000000064,0.0,0.0,12512.0,0.0,0.0,0.0,0.0,0.125,1.4257811040000001,0.5498168668524888,0.0,-11482.0,0.0,0.0,0.0,0.0,0.0,4.948729962000001,4.410439589772222,0.0,-9887.0,0.0,0.0,0.0,0.0,0.0,2.769775107,4.389674732977289,0.0,9394.0,0.0,0.0,0.0,0.0,0.0,2.1691892310000003,0.5526872062785588,0.0,0.3700000047683716,-0.6700000166893005,89.19000244140625,-0.01312255859375,0.00714111328125,1.02349853515625,30.829999923706055,0.0,0.0,-0.8529205322265625,0.01123046875,Closing,0.0,0.0,0.0,0.0,0.0,0.0,0.0,0.0,
20.296447000000043,0.0,0.0,12512.0,0.0,0.0,0.0,0.0,0.125,1.405029153,0.5498168668524888,0.0,-11482.0,0.0,0.0,0.0,0.0,0.0,4.946288556,4.410439589772222,0.0,-9887.0,0.0,0.0,0.0,0.0,0.0,2.769775107,4.389674732977289,0.0,9394.0,0.0,0.0,0.0,0.0,0.0,2.1655271220000003,0.5526872062785588,0.0,0.3700000047683716,-0.6700000166893005,89.19000244140625,-0.01300048828125,0.00946044921875,1.02142333984375,30.829999923706055,0.0,2.0,-0.8529205322265625,0.01123046875,Closing,0.0,0.0,0.0,0.0,0.0,0.0,0.0,0.0,
20.430179000000003,0.0,0.0,12512.0,0.0,0.0,0.0,0.0,0.125,1.405029153,0.5498168668524888,0.0,-11482.0,0.0,0.0,0.0,0.0,0.0,4.953612774000001,4.410439589772222,0.0,-9887.0,0.0,0.0,0.0,0.0,0.0,2.769775107,4.389674732977289,0.0,9394.0,0.0,0.0,0.0,0.0,0.0,2.1691892310000003,0.5526872062785588,0.0,0.3799999952316284,-0.6700000166893005,89.19000244140625,-0.0128173828125,0.00732421875,1.020263671875,30.8799991607666,0.0,0.0,-0.8529205322265625,0.01123046875,Closing,0.0,0.0,0.0,0.0,0.0,0.0,0.0,0.0,
20.631580000000074,0.0,0.0,12512.0,0.0,0.0,0.0,0.0,0.125,1.405029153,0.5498168668524888,0.0,-11482.0,0.0,0.0,0.0,0.0,0.0,4.953612774000001,4.410439589772222,0.0,-9887.0,0.0,0.0,0.0,0.0,0.0,2.769775107,4.389674732977289,0.0,9394.0,0.0,0.0,0.0,0.0,0.0,2.1691892310000003,0.5526872062785588,0.0,0.3799999952316284,-0.6700000166893005,89.19000244140625,-0.01019287109375,0.005615234375,1.02301025390625,30.8799991607666,0.0,-1.0,-0.8529205322265625,0.01123046875,Closing,0.0,0.0,0.0,0.0,0.0,0.0,0.0,0.0,
20.767722999999997,0.0,0.0,12512.0,0.0,0.0,0.0,0.0,0.125,1.406249856,0.5498168668524888,0.0,-11482.0,0.0,0.0,0.0,0.0,0.0,4.948729962000001,4.410439589772222,0.0,-9887.0,0.0,0.0,0.0,0.0,0.0,2.769775107,4.389674732977289,0.0,9394.0,0.0,0.0,0.0,0.0,0.0,2.1691892310000003,0.5526872062785588,0.0,0.3799999952316284,-0.6700000166893005,89.19000244140625,-0.01116943359375,0.006103515625,1.02740478515625,30.8799991607666,0.0,0.0,-0.8529205322265625,0.01123046875,Closing,0.0,0.0,0.0,0.0,0.0,0.0,0.0,0.0,
20.964011000000056,0.0,0.0,12512.0,0.0,0.0,0.0,0.0,0.125,1.412353371,0.5498168668524888,0.0,-11482.0,0.0,0.0,0.0,0.0,0.0,4.947509259,4.410439589772222,0.0,-9887.0,0.0,0.0,0.0,0.0,0.0,2.769775107,4.389674732977289,0.0,9394.0,0.0,0.0,0.0,0.0,0.0,2.1704099340000003,0.5526872062785588,0.0,0.3799999952316284,-0.6600000262260437,89.18000030517578,-0.01129150390625,0.006103515625,1.02886962890625,30.8700008392334,0.0,0.0,-0.8529205322265625,0.01123046875,Closing,0.0,0.0,0.0,0.0,0.0,0.0,0.0,0.0,
21.16405599999998,0.0,0.0,12512.0,0.0,0.0,0.0,0.0,0.125,1.405029153,0.5498168668524888,0.0,-11482.0,0.0,0.0,0.0,0.0,0.0,4.948729962000001,4.410439589772222,0.0,-9887.0,0.0,0.0,0.0,0.0,0.0,2.769775107,4.389674732977289,0.0,9394.0,0.0,0.0,0.0,0.0,0.0,2.1691892310000003,0.5526872062785588,0.0,0.3799999952316284,-0.6600000262260437,89.18000030517578,-0.0126953125,0.00677490234375,1.0264892578125,30.8700008392334,0.0,0.0,-0.8529205322265625,0.01123046875,Closing,0.0,0.0,0.0,0.0,0.0,0.0,0.0,0.0,
21.28578600000008,0.0,0.0,12512.0,0.0,0.0,0.0,0.0,0.125,1.408691262,0.5498168668524888,0.0,-11482.0,0.0,0.0,0.0,0.0,0.0,4.948729962000001,4.410439589772222,0.0,-9887.0,0.0,0.0,0.0,0.0,0.0,2.769775107,4.389674732977289,0.0,9394.0,0.0,0.0,0.0,0.0,0.0,2.1704099340000003,0.5526872062785588,0.0,0.3799999952316284,-0.6600000262260437,89.18000030517578,-0.0142822265625,0.00762939453125,1.01971435546875,30.8700008392334,0.0,0.0,-0.8529205322265625,0.01123046875,Closing,0.0,0.0,0.0,0.0,0.0,0.0,0.0,0.0,
21.42953899999999,0.0,0.0,12512.0,0.0,0.0,0.0,0.0,0.125,1.405029153,0.5498168668524888,0.0,-11482.0,0.0,0.0,0.0,0.0,0.0,4.948729962000001,4.410439589772222,0.0,-9887.0,0.0,0.0,0.0,0.0,0.0,2.769775107,4.389674732977289,0.0,9394.0,0.0,0.0,0.0,0.0,0.0,2.1704099340000003,0.5526872062785588,0.0,0.3799999952316284,-0.6600000262260437,89.18000030517578,-0.01092529296875,0.00640869140625,1.0255126953125,30.860000610351562,0.0,0.0,-0.8529205322265625,0.01123046875,Closing,0.0,0.0,0.0,0.0,0.0,0.0,0.0,0.0,
21.628648999999974,0.0,0.0,12512.0,0.0,0.0,0.0,0.0,0.125,1.405029153,0.5498168668524888,0.0,-11482.0,0.0,0.0,0.0,0.0,0.0,4.949950665,4.410439589772222,0.0,-9887.0,0.0,0.0,0.0,0.0,0.0,2.769775107,4.389674732977289,0.0,9394.0,0.0,0.0,0.0,0.0,0.0,2.1704099340000003,0.5526872062785588,0.0,0.3799999952316284,-0.6600000262260437,89.18000030517578,-0.011474609375,0.00750732421875,1.0228271484375,30.860000610351562,0.0,0.0,-0.8529205322265625,0.01123046875,Closing,0.0,0.0,0.0,0.0,0.0,0.0,0.0,0.0,
21.76320200000005,0.0,0.0,12512.0,0.0,0.0,0.0,0.0,0.125,1.405029153,0.5498168668524888,0.0,-11482.0,0.0,0.0,0.0,0.0,0.0,4.948729962000001,4.410439589772222,0.0,-9887.0,0.0,0.0,0.0,0.0,0.0,2.769775107,4.389674732977289,0.0,9394.0,0.0,0.0,0.0,0.0,0.0,2.1704099340000003,0.5526872062785588,0.0,0.38999998569488525,-0.6700000166893005,89.18000030517578,-0.012939453125,0.006103515625,1.02362060546875,30.860000610351562,0.0,0.0,-0.8529205322265625,0.01123046875,Closing,0.0,0.0,0.0,0.0,0.0,0.0,0.0,0.0,
