Time,ClimberA1,ClimberA2,FRpos,FRCurrent,FRspeed,FRsetpoint,FRApos,FRACurrent,FREncpos,FREncSetpoint,FREncSpeed,FLpos,FLCurrent,FLspeed,FLsetpoint,FLApos,FLACurrent,FLEncpos,FLEncSetpoint,FLEncSpeed,BRpos,BRCurrent,BRspeed,BRsetpoint,BRApos,BRACurrent,BREncpos,BREncSetpoint,BREncSpeed,BLpos,BLCurrent,BLspeed,BLsetpoint,BLApos,BLACurrent,BLEncpos,BLEncSetpoint,BLEncSpeed,navx_Pitch,navx_Roll,navx_Yaw,navx_XAcc,navx_YAcc,navx_ZAcc,navx_Temp,navx_Bar,navx_Alt,navx_XDis,navx_YDis,GearPlacerState,ShootOutputV,ShootOutputCurrent,ShootEncPos,ShootEncVelocity,ShootSpeed,ShootSetpoint,CarouselSetpoint,CarouselCurrent,
0.20738799999999175,0.0,0.0,55192.0,9.125,30.0,848.2942721868397,0.0,0.25,0.888671784,0.1098628021897856,0.0,-41424.0,23.75,-30.0,-848.2942721868397,0.0,0.125,0.6457518870000001,0.1105648681759286,0.0,43877.0,13.0,22.5,848.2942721868397,0.0,0.0,3.4204098060000003,0.11004431606145283,0.0,-20239.0,13.0,-37.5,-848.2942721868397,0.0,0.125,1.7346189630000002,0.11043634503940634,0.0,0.3799999952316284,-0.2800000011920929,66.97000122070312,0.0933837890625,0.01239013671875,0.979248046875,35.79999923706055,0.0,43.0,-1.4691162109375,-2.198486328125,Closing,0.0,0.0,-189.0,0.0,0.0,0.0,0.0,0.0,
0.3975979999999981,0.0,0.0,55203.0,4.0,7.5,0.0,0.0,0.25,0.8422850700000001,0.01,0.0,-41435.0,12.625,-7.5,-0.0,0.0,0.25,0.642089778,0.01,0.0,43885.0,8.75,7.5,0.0,0.0,0.125,3.402099261,0.01,0.0,-20247.0,7.875,0.0,-0.0,0.0,0.25,1.699218576,0.01,0.0,0.3799999952316284,-0.4000000059604645,66.87999725341797,0.00439453125,-0.03350830078125,1.10546875,35.810001373291016,0.0,-32.0,-1.4698486328125,-2.1978607177734375,Closing,0.0,0.0,-189.0,0.0,0.0,0.0,0.0,0.0,
0.5269379999999947,0.0,0.0,55204.0,4.25,0.0,0.0,0.0,0.25,0.834960852,0.01,0.0,-41435.0,13.375,0.0,-0.0,0.0,0.25,0.640869075,0.01,0.0,43885.0,8.125,0.0,0.0,0.0,0.125,3.392333637,0.01,0.0,-20247.0,7.625,0.0,-0.0,0.0,0.25,1.693115061,0.01,0.0,0.38999998569488525,-0.44999998807907104,66.8499984741211,0.018798828125,-0.034912109375,1.0291748046875,35.810001373291016,0.0,-28.0,-1.470672607421875,-2.1970367431640625,Closing,0.0,0.0,-189.0,0.0,0.0,0.0,0.0,0.0,
0.6662240000000019,0.0,0.0,55204.0,4.5,0.0,0.0,0.0,0.125,0.836181555,0.01,0.0,-41435.0,13.375,0.0,-0.0,0.0,0.25,0.640869075,0.01,0.0,43885.0,8.625,0.0,0.0,0.0,0.125,3.39355434,0.01,0.0,-20247.0,7.125,0.0,-0.0,0.0,0.25,1.694335764,0.01,0.0,0.3700000047683716,-0.41999998688697815,66.83999633789062,-0.01568603515625,0.01568603515625,1.02484130859375,35.810001373291016,0.0,5.0,-1.4708404541015625,-2.1966705322265625,Closing,0.0,0.0,-189.0,0.0,0.0,0.0,0.0,0.0,
0.7535589999999939,0.0,0.0,55204.0,4.5,0.0,0.0,0.0,0.125,0.832519446,0.01,-0.004882811999999959,-41435.0,13.375,0.0,-0.0,0.0,0.25,0.640869075,0.01,0.0,43885.0,8.5,0.0,0.0,0.0,0.125,3.392333637,0.01,0.0,-20247.0,7.125,0.0,-0.0,0.0,0.25,1.693115061,0.01,0.0012207029999999897,0.3799999952316284,-0.4399999976158142,66.8499984741211,0.01434326171875,-1.220703125E-4,1.02001953125,35.810001373291016,0.0,2.0,-1.4708404541015625,-2.196533203125,Closing,0.0,0.0,-189.0,0.0,0.0,0.0,0.0,0.0,
0.8272329999999929,0.0,0.0,55204.0,4.5,0.0,0.0,0.0,0.125,0.836181555,0.01,0.0,-41435.0,13.375,0.0,-0.0,0.0,0.25,0.640869075,0.01,0.0,43885.0,8.25,0.0,0.0,0.0,0.125,3.398437152,0.01,0.0,-20247.0,7.25,0.0,-0.0,0.0,0.25,1.694335764,0.01,0.0,0.3799999952316284,-0.44999998807907104,66.8499984741211,-1.8310546875E-4,0.00457763671875,1.0169677734375,35.79999923706055,0.0,1.0,-1.4708404541015625,-2.196533203125,Closing,0.0,0.0,-189.0,0.0,0.0,0.0,0.0,0.0,
0.9351199999999953,0.0,0.0,55204.0,4.5,0.0,0.0,0.0,0.125,0.834960852,0.01,-0.0024414059999999793,-41435.0,13.375,0.0,-0.0,0.0,0.25,0.639648372,0.01,0.0,43885.0,8.375,0.0,0.0,0.0,0.125,3.394775043,0.01,0.0,-20247.0,7.25,0.0,-0.0,0.0,0.25,1.694335764,0.01,0.0,0.3799999952316284,-0.4399999976158142,66.8499984741211,-0.01495361328125,0.013427734375,1.021484375,35.79999923706055,0.0,3.0,-1.4708404541015625,-2.196533203125,Closing,0.0,0.0,-189.0,0.0,0.0,0.0,0.0,0.0,
1.014845000000001,0.0,0.0,55204.0,4.5,0.0,0.0,0.0,0.125,0.838622961,0.01,0.0012207029999999897,-41435.0,13.5,0.0,-0.0,0.0,0.25,0.640869075,0.01,0.0,43885.0,8.25,0.0,0.0,0.0,0.125,3.392333637,0.01,0.0,-20247.0,7.25,0.0,-0.0,0.0,0.25,1.694335764,0.01,0.0,0.3700000047683716,-0.4300000071525574,66.8499984741211,-0.01324462890625,0.01422119140625,1.02325439453125,35.79999923706055,0.0,4.0,-1.4708404541015625,-2.196533203125,Closing,0.0,0.0,-189.0,0.0,0.0,0.0,0.0,0.0,
1.1093319999999949,0.0,0.0,55204.0,4.5,0.0,0.0,0.0,0.125,0.836181555,0.01,0.0012207029999999897,-41435.0,13.5,0.0,-0.0,0.0,0.25,0.642089778,0.01,0.0,43885.0,8.25,0.0,0.0,0.0,0.125,3.392333637,0.01,0.0,-20247.0,7.25,0.0,-0.0,0.0,0.25,1.690673655,0.01,0.0,0.3700000047683716,-0.4300000071525574,66.8499984741211,-0.00653076171875,0.013427734375,1.01837158203125,35.79999923706055,0.0,6.0,-1.4708404541015625,-2.196533203125,Closing,0.0,0.0,-189.0,0.0,0.0,0.0,0.0,0.0,
1.208622000000003,0.0,0.0,55204.0,4.5,0.0,0.0,0.0,0.125,0.836181555,0.01,-0.0012207029999999897,-41435.0,13.375,0.0,-0.0,0.0,0.25,0.642089778,0.01,0.0,43885.0,8.25,0.0,0.0,0.0,0.125,3.386230122,0.01,0.0012207029999999897,-20247.0,7.25,0.0,-0.0,0.0,0.25,1.694335764,0.01,0.0,0.3799999952316284,-0.4300000071525574,66.8499984741211,-0.00457763671875,0.0087890625,1.0179443359375,35.79999923706055,0.0,2.0,-1.4708404541015625,-2.196533203125,Closing,0.0,0.0,-189.0,0.0,0.0,0.0,0.0,0.0,
1.2857179999999935,0.0,0.0,55204.0,4.5,0.0,0.0,0.0,0.125,0.837402258,0.01,0.0,-41435.0,13.375,0.0,-0.0,0.0,0.25,0.6457518870000001,0.01,0.0,43885.0,8.25,0.0,0.0,0.0,0.125,3.392333637,0.01,0.0,-20247.0,7.25,0.0,-0.0,0.0,0.25,1.694335764,0.01,0.0,0.3799999952316284,-0.4300000071525574,66.8499984741211,-0.00201416015625,0.00543212890625,1.01776123046875,35.79999923706055,0.0,0.0,-1.4708404541015625,-2.196533203125,Closing,0.0,0.0,-189.0,0.0,0.0,0.0,0.0,0.0,
1.3904949999999954,0.0,0.0,55204.0,4.5,0.0,0.0,0.0,0.125,0.836181555,0.01,0.0,-41435.0,13.375,0.0,-0.0,0.0,0.25,0.640869075,0.01,0.0,43885.0,8.25,0.0,0.0,0.0,0.125,3.392333637,0.01,0.0,-20247.0,7.25,0.0,-0.0,0.0,0.25,1.6857908430000001,0.01,0.0,0.3799999952316284,-0.4300000071525574,66.83999633789062,-0.00518798828125,0.001708984375,1.0191650390625,35.849998474121094,0.0,-3.0,-1.4708404541015625,-2.196533203125,Closing,0.0,0.0,-189.0,0.0,0.0,0.0,0.0,0.0,
1.5271670000000013,0.0,0.0,55204.0,4.5,0.0,0.0,0.0,0.125,0.825195228,0.01,0.0,-41435.0,13.375,0.0,-0.0,0.0,0.25,0.642089778,0.01,0.0,43885.0,8.5,0.0,0.0,0.0,0.125,3.392333637,0.01,0.0,-20247.0,7.25,0.0,-0.0,0.0,0.25,1.694335764,0.01,0.0,0.3799999952316284,-0.41999998688697815,66.8499984741211,-0.006103515625,0.00732421875,1.01898193359375,35.849998474121094,0.0,1.0,-1.4708404541015625,-2.196533203125,Closing,0.0,0.0,-189.0,0.0,0.0,0.0,0.0,0.0,
1.6085369999999966,0.0,0.0,55204.0,4.5,0.0,0.0,0.0,0.125,0.837402258,0.01,0.0,-41435.0,13.375,0.0,-0.0,0.0,0.25,0.640869075,0.01,0.0,43885.0,8.5,0.0,0.0,0.0,0.125,3.392333637,0.01,0.0,-20247.0,7.25,0.0,-0.0,0.0,0.25,1.694335764,0.01,0.0012207029999999897,0.3799999952316284,-0.4300000071525574,66.8499984741211,-0.004150390625,0.0045166015625,1.02288818359375,35.849998474121094,0.0,0.0,-1.4708404541015625,-2.196533203125,Closing,0.0,0.0,-189.0,0.0,0.0,0.0,0.0,0.0,
1.7272059999999911,0.0,0.0,55188.0,0.0,-75.0,-1150.86611866951,0.0,0.25,0.836181555,4.932250999999998,0.0,-41413.0,0.0,150.0,1150.86611866951,0.0,0.25,0.54931635,4.963769999999998,0.0,43885.0,0.125,-22.5,-1150.86611866951,0.0,0.125,3.392333637,0.01,0.0,-20241.0,0.375,52.5,1150.86611866951,0.0,0.25,1.669921704,0.01,0.0,0.4000000059604645,-0.7099999785423279,66.9800033569336,-0.0040283203125,0.06195068359375,1.03790283203125,35.849998474121094,0.0,53.0,-1.47296142578125,-2.1938018798828125,Closing,0.0,0.0,-189.0,0.0,0.0,0.0,0.0,0.0,
1.812921000000002,0.0,0.0,55158.0,0.125,-165.0,-1011.9684720039367,0.0,0.25,0.838622961,4.932250999999998,0.0,-41391.0,0.625,135.0,1011.9684720039367,0.0,0.25,0.495605418,4.963769999999998,0.0,43866.0,0.375,-112.5,-1011.9684720039367,0.0,0.125,3.392333637,0.01,0.0,-20221.0,0.5,112.5,1011.9684720039367,0.0,0.25,1.6552732680000002,0.01,0.0,0.33000001311302185,-0.7099999785423279,67.16000366210938,0.05950927734375,-0.02490234375,1.067138671875,35.849998474121094,0.0,0.0,-1.4742279052734375,-2.19415283203125,Closing,0.0,0.0,-189.0,0.0,0.0,0.0,0.0,0.0,
1.9267439999999916,0.0,0.0,55158.0,2.25,-180.0,-992.1259617805481,0.0,0.25,0.837402258,4.932250999999998,0.0,-41369.0,3.875,150.0,992.1259617805481,0.0,0.125,0.496826121,4.963769999999998,0.0,43855.0,2.375,-90.0,-992.1259617805481,0.0,0.125,3.392333637,0.01,0.0,-20194.0,1.875,187.5,992.1259617805481,0.0,0.25,1.640624832,0.01,0.0,0.3700000047683716,-0.7900000214576721,67.19999694824219,-0.11383056640625,0.0443115234375,1.02630615234375,35.849998474121094,0.0,-3.0,-1.47296142578125,-2.1943817138671875,Closing,0.0,0.0,-189.0,0.0,0.0,0.0,0.0,0.0,
2.009281999999992,0.0,0.0,55133.0,4.125,-172.5,-972.2834515571594,0.0,0.25,0.836181555,4.932250999999998,0.0,-41369.0,9.125,210.0,972.2834515571594,0.0,0.125,0.496826121,4.963769999999998,0.0,43855.0,6.0,-75.0,-972.2834515571594,0.0,0.125,3.392333637,0.01,0.0,-20194.0,3.875,187.5,972.2834515571594,0.0,0.125,1.57470687,0.01,0.0,0.3799999952316284,-1.4600000381469727,67.19000244140625,-0.16436767578125,0.06573486328125,1.02239990234375,35.849998474121094,0.0,-87.0,-1.4751129150390625,-2.1874847412109375,Closing,0.0,0.0,-189.0,0.0,0.0,0.0,0.0,0.0,
2.191847999999998,0.0,0.0,55083.0,4.75,-502.5,-972.2834515571594,0.0,0.25,0.8142089010000001,4.932250999999998,0.0,-41230.0,9.75,510.0,972.2834515571594,0.0,0.125,0.496826121,4.963769999999998,0.0,43752.0,6.75,-412.5,-972.2834515571594,0.0,0.125,3.392333637,0.01,0.0,-20072.0,4.5,480.0,972.2834515571594,0.0,0.25,1.597900227,0.01,0.0,0.3400000035762787,-2.5899999141693115,67.51000213623047,-0.1982421875,0.042724609375,0.99078369140625,35.849998474121094,0.0,-24.0,-1.482574462890625,-2.1590423583984375,Closing,0.0,0.0,-189.0,0.0,0.0,0.0,0.0,0.0,
2.327175000000003,0.0,0.0,54852.0,3.5,-787.5,-972.2834515571594,0.0,0.25,0.836181555,4.932250999999998,0.0,-41099.0,5.875,847.5,972.2834515571594,0.0,0.125,0.477294873,4.963769999999998,0.0,43631.0,5.25,-787.5,-972.2834515571594,0.0,0.125,3.395995746,0.01,0.0,-19953.0,3.625,772.5,972.2834515571594,0.0,0.25,1.613769366,0.01,0.0,0.3100000023841858,-2.9600000381469727,67.66999816894531,-0.06304931640625,0.0013427734375,1.06329345703125,35.849998474121094,0.0,-7.0,-1.4839324951171875,-2.1247100830078125,Closing,0.0,0.0,-189.0,0.0,0.0,0.0,0.0,0.0,
2.4631889999999985,0.0,0.0,54701.0,2.5,-952.5,-972.2834515571594,0.0,0.25,0.836181555,4.932250999999998,0.0,-40946.0,3.25,997.5,972.2834515571594,0.0,0.25,0.47241206100000005,4.963769999999998,0.0,43490.0,4.625,-810.0,-972.2834515571594,0.0,0.125,3.392333637,0.01,0.0,-19810.0,3.0,922.5,972.2834515571594,0.0,0.125,1.6113279600000001,0.01,0.0,0.2800000011920929,-3.0199999809265137,67.58000183105469,-0.12841796875,-0.0184326171875,0.67388916015625,35.83000183105469,0.0,-55.0,-1.4858245849609375,-2.0916595458984375,Closing,0.0,0.0,-189.0,0.0,0.0,0.0,0.0,0.0,
2.594349000000002,0.0,0.0,54544.0,1.375,-1005.0,-972.2834515571594,0.0,0.25,0.838622961,4.932250999999998,0.0,-40781.0,2.5,990.0,972.2834515571594,0.0,0.25,0.410156208,4.963769999999998,0.0,43408.0,10.625,-540.0,-972.2834515571594,0.0,0.125,3.398437152,0.01,0.0,-19663.0,3.0,922.5,972.2834515571594,0.0,0.125,1.612548663,0.01,0.0,0.23999999463558197,-3.369999885559082,67.93000030517578,0.23211669921875,0.3304443359375,1.39935302734375,35.83000183105469,0.0,418.0,-1.487335205078125,-2.0937042236328125,Closing,0.0,0.0,-189.0,0.0,0.0,0.0,0.0,0.0,
2.7281379999999915,0.0,0.0,54368.0,0.625,-1087.5,-952.4409413337708,0.0,0.25,0.8276366340000001,4.932250999999998,0.0,-40615.0,1.125,1072.5,952.4409413337708,0.0,0.25,0.423583941,4.963769999999998,0.0,43272.0,6.5,-1080.0,-952.4409413337708,0.0,0.125,3.397216449,0.01,0.0,-19507.0,1.875,1035.0,952.4409413337708,0.0,0.125,1.612548663,0.01,0.0,0.41999998688697815,-2.859999895095825,68.11000061035156,0.1346435546875,0.01800537109375,0.45111083984375,35.83000183105469,0.0,72.0,-1.4881134033203125,-2.097015380859375,Closing,0.0,0.0,-189.0,0.0,0.0,0.0,0.0,0.0,
2.864247000000003,0.0,0.0,54198.0,0.375,-1042.5,-932.5984311103821,0.0,0.125,0.826415931,4.932250999999998,0.0,-40445.0,0.75,1050.0,932.5984311103821,0.0,0.25,0.5017089330000001,4.963769999999998,0.0,43099.0,4.75,-1065.0,-932.5984311103821,0.0,0.125,3.397216449,0.01,0.0,-19173.0,1.25,1035.0,932.5984311103821,0.0,0.25,1.6101072570000001,0.01,0.0,0.3199999928474426,-2.7799999713897705,68.0199966430664,0.08172607421875,0.041259765625,0.80059814453125,35.790000915527344,0.0,79.0,-1.48870849609375,-2.106719970703125,Closing,0.0,0.0,-189.0,0.0,0.0,0.0,0.0,0.0,
2.9944140000000043,0.0,0.0,54031.0,0.125,-1027.5,-912.7559208869933,0.0,0.125,0.826415931,4.932250999999998,0.0,-40125.0,0.75,982.5,912.7559208869933,0.0,0.0,0.532226508,4.963769999999998,0.0,42765.0,4.0,-1027.5,-912.7559208869933,0.0,0.125,3.392333637,0.01,0.0,-19015.0,1.125,990.0,912.7559208869933,0.0,0.25,1.612548663,0.01,0.0,0.30000001192092896,-2.5,68.36000061035156,0.0107421875,0.06207275390625,0.7999267578125,35.790000915527344,0.0,70.0,-1.4859619140625,-2.12158203125,Closing,0.0,0.0,-189.0,0.0,0.0,0.0,0.0,0.0,
3.1284379999999947,0.0,0.0,53869.0,0.125,-975.0,-912.7559208869933,0.0,0.125,0.836181555,4.932250999999998,0.0,-39969.0,0.75,967.5,912.7559208869933,0.0,0.125,0.535888617,4.963769999999998,0.0,42651.0,7.0,-675.0,-912.7559208869933,0.0,0.125,3.39355434,0.01,0.0,-18865.0,1.25,930.0,912.7559208869933,0.0,0.125,1.613769366,0.01,0.0,0.33000001311302185,-2.3299999237060547,69.0199966430664,-0.0550537109375,0.06494140625,1.2752685546875,35.790000915527344,0.0,52.0,-1.47998046875,-2.140045166015625,Closing,0.0,0.0,-189.0,0.0,0.0,0.0,0.0,0.0,
3.256676999999996,0.0,0.0,53549.0,0.125,-1027.5,-912.7559208869933,0.0,0.25,0.8410643670000001,4.932250999999998,0.0,-39818.0,0.75,937.5,912.7559208869933,0.0,0.25,0.535888617,4.963769999999998,0.0,42482.0,4.875,-1050.0,-912.7559208869933,0.0,0.125,3.389892231,0.01,0.0,-18720.0,1.5,907.5,912.7559208869933,0.0,0.125,1.6113279600000001,0.01,0.0,0.41999998688697815,-2.109999895095825,69.86000061035156,-0.01104736328125,-0.03472900390625,1.03277587890625,35.790000915527344,0.0,-30.0,-1.4715118408203125,-2.16583251953125,Closing,0.0,0.0,-189.0,0.0,0.0,0.0,0.0,0.0,
3.3862669999999926,0.0,0.0,53391.0,0.125,-997.5,-873.0709004402161,0.0,0.25,0.8312987430000001,4.932250999999998,0.0,-39671.0,0.625,922.5,873.0709004402161,0.0,0.25,0.5297851020000001,4.963769999999998,0.0,42326.0,3.875,-982.5,-873.0709004402161,0.0,0.125,3.397216449,0.01,0.0,-18572.0,1.25,915.0,873.0709004402161,0.0,0.125,1.6113279600000001,0.01,0.0,0.46000000834465027,-1.7599999904632568,70.36000061035156,0.12860107421875,0.05169677734375,1.05499267578125,35.790000915527344,0.0,94.0,-1.4641265869140625,-2.1939544677734375,Closing,0.0,0.0,-189.0,0.0,0.0,0.0,0.0,0.0,
3.5266499999999943,0.0,0.0,53245.0,0.125,-915.0,-873.0709004402161,0.0,0.125,0.826415931,4.932250999999998,0.0,-39526.0,0.625,907.5,873.0709004402161,0.0,0.125,0.526122993,4.963769999999998,0.0,42211.0,6.375,-652.5,-873.0709004402161,0.0,0.125,3.392333637,0.01,0.0,-18429.0,1.25,885.0,873.0709004402161,0.0,0.125,1.6113279600000001,0.01,0.0,0.5699999928474426,-1.6699999570846558,70.58999633789062,-0.04400634765625,0.0220947265625,1.09521484375,35.790000915527344,0.0,6.0,-1.4537506103515625,-2.2256317138671875,Closing,0.0,0.0,-189.0,0.0,0.0,0.0,0.0,0.0,
3.6637209999999905,0.0,0.0,53098.0,0.125,-915.0,-873.0709004402161,0.0,0.125,0.8276366340000001,4.932250999999998,0.0,-39387.0,0.75,870.0,873.0709004402161,0.0,0.125,0.526122993,4.963769999999998,0.0,42082.0,7.125,-900.0,-873.0709004402161,0.0,0.125,3.392333637,0.01,0.0,-18290.0,1.25,862.5,873.0709004402161,0.0,0.25,1.612548663,0.01,0.0,0.4099999964237213,-1.649999976158142,71.01000213623047,-0.032470703125,0.04644775390625,0.8162841796875,35.790000915527344,0.0,35.0,-1.4429779052734375,-2.2657318115234375,Closing,0.0,0.0,-189.0,0.0,0.0,0.0,0.0,0.0,
3.784504000000001,0.0,0.0,52952.0,0.125,-907.5,-873.0709004402161,0.0,0.125,0.826415931,4.932250999999998,0.0,-39244.0,0.625,885.0,873.0709004402161,0.0,0.125,0.526122993,4.963769999999998,0.0,41936.0,6.25,-900.0,-873.0709004402161,0.0,0.125,3.392333637,0.01,0.0,-18150.0,1.25,885.0,873.0709004402161,0.0,0.125,1.612548663,0.01,0.0,0.4699999988079071,-1.559999942779541,71.33000183105469,0.0413818359375,0.00848388671875,1.2437744140625,35.790000915527344,0.0,22.0,-1.4341583251953125,-2.275177001953125,Closing,0.0,0.0,-189.0,0.0,0.0,0.0,0.0,0.0,
3.9272829999999956,0.0,0.0,52809.0,0.125,-900.0,-873.0709004402161,0.0,0.125,0.847167882,4.932250999999998,0.0,-39105.0,0.75,877.5,873.0709004402161,0.0,0.125,0.531005805,4.963769999999998,0.0,41795.0,6.375,-885.0,-873.0709004402161,0.0,0.125,3.392333637,0.01,0.0,-18010.0,1.5,855.0,873.0709004402161,0.0,0.125,1.6113279600000001,0.01,0.0,0.4699999988079071,-1.4900000095367432,71.62999725341797,-0.0186767578125,-0.11212158203125,0.89923095703125,35.79999923706055,0.0,-112.0,-1.42877197265625,-2.2761383056640625,Closing,0.0,0.0,-189.0,0.0,0.0,0.0,0.0,0.0,
4.063656999999992,0.0,0.0,52665.0,0.125,-877.5,-873.0709004402161,0.0,0.125,0.826415931,4.932250999999998,0.0,-38964.0,0.75,862.5,873.0709004402161,0.0,0.125,0.527343696,4.963769999999998,0.0,41653.0,6.375,-855.0,-873.0709004402161,0.0,0.125,3.392333637,0.01,0.0,-17871.0,1.5,862.5,873.0709004402161,0.0,0.125,1.6113279600000001,0.01,0.0,0.5400000214576721,-1.3200000524520874,71.97000122070312,0.05596923828125,-0.0198974609375,1.0234375,35.79999923706055,0.0,-3.0,-1.4210662841796875,-2.2764739990234375,Closing,0.0,0.0,-189.0,0.0,0.0,0.0,0.0,0.0,
4.196536999999997,0.0,0.0,52524.0,0.125,-900.0,-873.0709004402161,0.0,0.125,0.826415931,4.932250999999998,0.0,-38686.0,0.75,870.0,873.0709004402161,0.0,0.125,0.52490229,4.963769999999998,0.0,41366.0,6.125,-930.0,-873.0709004402161,0.0,0.125,3.391112934,0.01,0.0,-17599.0,1.625,832.5,873.0709004402161,0.0,0.125,1.6113279600000001,0.01,0.0,0.5899999737739563,-1.2799999713897705,72.45999908447266,-0.02899169921875,0.04949951171875,0.80072021484375,35.79999923706055,0.0,36.0,-1.4120941162109375,-2.277313232421875,Closing,0.0,0.0,-189.0,0.0,0.0,0.0,0.0,0.0,
4.327896999999997,0.0,0.0,52237.0,0.125,-885.0,-873.0709004402161,0.0,0.125,0.825195228,4.932250999999998,0.0,-38546.0,0.75,870.0,873.0709004402161,0.0,0.125,0.52490229,4.963769999999998,0.0,41218.0,5.625,-922.5,-873.0709004402161,0.0,0.125,3.392333637,0.01,0.0,-17465.0,2.0,832.5,873.0709004402161,0.0,0.125,1.612548663,0.01,0.0,0.6000000238418579,-1.1799999475479126,72.7699966430664,-0.05291748046875,-0.02264404296875,1.40972900390625,35.79999923706055,0.0,-43.0,-1.4040985107421875,-2.2783660888671875,Closing,0.0,0.0,-189.0,0.0,0.0,0.0,0.0,0.0,
4.4625589999999935,0.0,0.0,52101.0,0.125,-855.0,-873.0709004402161,0.0,0.125,0.826415931,4.932250999999998,0.0,-38406.0,0.75,870.0,873.0709004402161,0.0,0.125,0.526122993,4.963769999999998,0.0,41072.0,5.5,-907.5,-873.0709004402161,0.0,0.125,3.392333637,0.01,0.0,-17331.0,2.25,840.0,873.0709004402161,0.0,0.125,1.6113279600000001,0.01,0.0,0.5299999713897705,-1.0700000524520874,73.04000091552734,-0.053466796875,-0.0277099609375,0.92474365234375,35.7599983215332,0.0,-45.0,-1.394317626953125,-2.2799530029296875,Closing,0.0,0.0,-189.0,0.0,0.0,0.0,0.0,0.0,
4.593883000000002,0.0,0.0,51966.0,0.125,-832.5,-873.0709004402161,0.0,0.125,0.826415931,4.932250999999998,0.0,-38267.0,0.75,862.5,873.0709004402161,0.0,0.125,0.526122993,4.963769999999998,0.0,40925.0,5.25,-915.0,-873.0709004402161,0.0,0.125,3.392333637,0.01,0.0,-17196.0,2.25,840.0,873.0709004402161,0.0,0.125,1.6113279600000001,0.01,0.0,0.5299999713897705,-0.9700000286102295,73.26000213623047,-0.0184326171875,0.00360107421875,0.840087890625,35.7599983215332,0.0,-5.0,-1.3837127685546875,-2.2805938720703125,Closing,0.0,0.0,-189.0,0.0,0.0,0.0,0.0,0.0,
4.726504000000001,0.0,0.0,51832.0,0.125,-840.0,-873.0709004402161,0.0,0.125,0.826415931,4.932250999999998,0.0,-38129.0,1.0,847.5,873.0709004402161,0.0,0.125,0.52490229,4.963769999999998,0.0,40778.0,4.75,-915.0,-873.0709004402161,0.0,0.125,3.392333637,0.01,0.0,-17059.0,2.375,862.5,873.0709004402161,0.0,0.125,1.612548663,0.01,0.0,0.550000011920929,-1.0399999618530273,73.31999969482422,0.02899169921875,-0.02105712890625,1.08380126953125,35.7599983215332,0.0,-16.0,-1.374664306640625,-2.2808685302734375,Closing,0.0,0.0,-189.0,0.0,0.0,0.0,0.0,0.0,
4.865171000000002,0.0,0.0,51697.0,0.125,-840.0,-873.0709004402161,0.0,0.125,0.826415931,4.932250999999998,0.0,-37994.0,1.0,855.0,873.0709004402161,0.0,0.125,0.526122993,4.963769999999998,0.0,40634.0,4.75,-900.0,-873.0709004402161,0.0,0.125,3.392333637,0.01,0.0,-16924.0,2.625,832.5,873.0709004402161,0.0,0.125,1.6113279600000001,0.01,0.0,0.44999998807907104,-1.059999942779541,73.4800033569336,0.0440673828125,0.00579833984375,0.91522216796875,35.7599983215332,0.0,16.0,-1.3720703125,-2.2819061279296875,Closing,0.0,0.0,-189.0,0.0,0.0,0.0,0.0,0.0,
4.986433999999994,0.0,0.0,51568.0,0.0,-780.0,-515.9055286645889,0.0,0.125,0.823974525,4.932250999999998,0.0,-37861.0,0.25,682.5,515.9055286645889,0.0,0.125,0.5297851020000001,4.963769999999998,0.0,40491.0,1.25,-855.0,-515.9055286645889,0.0,0.125,3.392333637,0.01,0.0,-16793.0,0.75,772.5,515.9055286645889,0.0,0.125,1.6113279600000001,0.01,0.0,0.4300000071525574,-0.6800000071525574,73.58000183105469,0.12225341796875,-0.11090087890625,0.84405517578125,35.7599983215332,0.0,-75.0,-1.3715057373046875,-2.2834320068359375,Closing,0.0,0.0,-189.0,0.0,0.0,0.0,0.0,0.0,
5.130258999999991,0.0,0.0,51453.0,0.0,-660.0,0.0,0.0,0.125,0.826415931,4.932250999999998,0.0,-37762.0,0.0,660.0,0.0,0.0,0.125,0.526122993,4.963769999999998,0.0,40367.0,0.0,-510.0,0.0,0.0,0.125,3.3630367650000004,0.01,0.0,-16675.0,0.0,645.0,0.0,0.0,0.125,1.612548663,0.01,0.0,0.5299999713897705,-0.009999999776482582,73.62000274658203,0.13629150390625,0.12310791015625,1.02105712890625,35.7599983215332,0.0,147.0,-1.369232177734375,-2.296112060546875,Closing,0.0,0.0,-189.0,0.0,0.0,0.0,0.0,0.0,
5.265813999999999,0.0,0.0,51361.0,0.0,-480.0,0.0,0.0,0.125,0.826415931,4.932250999999998,0.0,-37597.0,0.0,450.0,0.0,0.0,0.125,0.526122993,4.963769999999998,0.0,40233.0,0.0,-450.0,0.0,0.0,0.0,3.3618160620000004,0.01,0.0,-16510.0,0.0,457.5,0.0,0.0,0.125,1.6113279600000001,0.01,0.0,0.5099999904632568,0.41999998688697815,73.68000030517578,0.075439453125,-0.04315185546875,1.1025390625,35.7599983215332,0.0,-31.0,-1.358551025390625,-2.3189849853515625,Closing,0.0,0.0,-189.0,0.0,0.0,0.0,0.0,0.0,
5.394732999999993,0.0,0.0,51295.0,0.0,-292.5,0.0,0.0,0.125,0.826415931,4.932250999999998,0.0,-37554.0,0.0,285.0,0.0,0.0,0.125,0.52490229,4.963769999999998,0.0,40191.0,0.0,-277.5,0.0,0.0,0.0,3.3630367650000004,0.01,0.0,-16465.0,0.0,292.5,0.0,0.0,0.125,1.6113279600000001,0.01,0.0,0.5400000214576721,0.8999999761581421,73.69000244140625,0.1064453125,0.00836181640625,1.0908203125,35.7599983215332,0.0,23.0,-1.3473663330078125,-2.346466064453125,Closing,0.0,0.0,-189.0,0.0,0.0,0.0,0.0,0.0,
5.528736000000005,0.0,0.0,51256.0,0.0,-135.0,0.0,0.0,0.125,0.826415931,4.932250999999998,0.0,-37538.0,0.0,135.0,0.0,0.0,0.125,0.526122993,4.963769999999998,0.0,40174.0,0.0,-142.5,0.0,0.0,0.0,3.3618160620000004,0.01,0.0,-16448.0,0.0,142.5,0.0,0.0,0.125,1.6113279600000001,0.01,0.0,0.5099999904632568,1.2899999618530273,73.76000213623047,0.07757568359375,-0.00341796875,1.036376953125,35.7599983215332,0.0,2.0,-1.345794677734375,-2.3813629150390625,Closing,0.0,0.0,-189.0,0.0,0.0,0.0,0.0,0.0,
5.665263999999995,0.0,0.0,51244.0,0.0,0.0,0.0,0.0,0.125,0.826415931,4.932250999999998,0.0,-37538.0,0.0,0.0,0.0,0.0,0.125,0.52490229,4.963769999999998,0.0,40173.0,0.0,0.0,0.0,0.0,0.0,3.3630367650000004,0.01,0.0,-16448.0,0.0,0.0,0.0,0.0,0.125,1.6113279600000001,0.01,0.0,0.5,1.350000023841858,73.7300033569336,-0.01446533203125,0.0169677734375,1.0008544921875,35.7599983215332,0.0,-2.0,-1.3456268310546875,-2.405792236328125,Closing,0.0,0.0,-189.0,0.0,0.0,0.0,0.0,0.0,
5.795131999999998,0.0,0.0,51244.0,0.0,0.0,0.0,0.0,0.125,0.826415931,4.932250999999998,0.0,-37538.0,0.0,0.0,0.0,0.0,0.125,0.52490229,4.963769999999998,0.0,40173.0,0.0,0.0,0.0,0.0,0.0,3.3642574680000004,0.01,0.0,-16448.0,0.0,0.0,0.0,0.0,0.125,1.612548663,0.01,0.0,0.4699999988079071,1.149999976158142,73.69000244140625,-0.0247802734375,0.0029296875,1.014892578125,35.7599983215332,0.0,-18.0,-1.345855712890625,-2.4031524658203125,Closing,0.0,0.0,-189.0,0.0,0.0,0.0,0.0,0.0,
5.930138999999995,0.0,0.0,51244.0,0.0,0.0,0.0,0.0,0.125,0.826415931,4.932250999999998,0.0,-37538.0,0.0,0.0,0.0,0.0,0.125,0.531005805,4.963769999999998,0.0,40173.0,0.0,0.0,0.0,0.0,0.0,3.3630367650000004,0.01,0.0,-16448.0,0.0,0.0,0.0,0.0,0.125,1.612548663,0.01,0.0,0.49000000953674316,0.8999999761581421,73.68000030517578,-0.04095458984375,0.0035400390625,1.0308837890625,35.7400016784668,0.0,-21.0,-1.3460540771484375,-2.396453857421875,Closing,0.0,0.0,-189.0,0.0,0.0,0.0,0.0,0.0,
6.063785000000004,0.0,0.0,51244.0,0.0,0.0,0.0,0.0,0.125,0.825195228,4.932250999999998,0.0,-37538.0,0.0,0.0,0.0,0.0,0.125,0.535888617,4.963769999999998,0.0,40173.0,0.0,0.0,0.0,0.0,0.0,3.3630367650000004,0.01,0.0,-16448.0,0.0,0.0,0.0,0.0,0.125,1.6113279600000001,0.01,0.0,0.4699999988079071,0.6299999952316284,73.69000244140625,-0.00628662109375,0.00677490234375,1.01007080078125,35.7400016784668,0.0,-6.0,-1.34661865234375,-2.3824615478515625,Closing,0.0,0.0,-189.0,0.0,0.0,0.0,0.0,0.0,
6.19464,0.0,0.0,51244.0,0.0,0.0,0.0,0.0,0.125,0.826415931,4.932250999999998,0.0,-37538.0,0.0,0.0,0.0,0.0,0.25,0.534667914,4.963769999999998,0.0,40173.0,0.0,0.0,0.0,0.0,0.0,3.3630367650000004,0.01,0.0,-16448.0,0.0,0.0,0.0,0.0,0.125,1.6113279600000001,0.01,0.0,0.4699999988079071,0.5199999809265137,73.68000030517578,-0.016845703125,0.0074462890625,1.0155029296875,35.7400016784668,0.0,-8.0,-1.34661865234375,-2.382293701171875,Closing,0.0,0.0,-189.0,0.0,0.0,0.0,0.0,0.0,
6.3281529999999915,0.0,0.0,51244.0,0.0,0.0,0.0,0.0,0.125,0.826415931,4.932250999999998,0.0,-37538.0,0.0,0.0,0.0,0.0,0.25,0.534667914,4.963769999999998,0.0,40173.0,0.0,0.0,0.0,0.0,0.0,3.3630367650000004,0.01,0.0,-16448.0,0.0,0.0,0.0,0.0,0.125,1.6113279600000001,0.01,0.0,0.4699999988079071,0.3700000047683716,73.68000030517578,-0.01171875,0.00616455078125,1.02001953125,35.7400016784668,0.0,-7.0,-1.34661865234375,-2.380279541015625,Closing,0.0,0.0,-189.0,0.0,0.0,0.0,0.0,0.0,
6.462925999999992,0.0,0.0,51244.0,0.0,0.0,0.0,0.0,0.125,0.825195228,4.932250999999998,0.0,-37538.0,0.0,0.0,0.0,0.0,0.25,0.534667914,4.963769999999998,0.0,40173.0,0.0,0.0,0.0,0.0,0.0,3.3630367650000004,0.01,0.0,-16448.0,0.0,0.0,0.0,0.0,0.125,1.612548663,0.01,0.0,0.46000000834465027,0.23999999463558197,73.68000030517578,-0.01934814453125,0.0096435546875,1.02392578125,35.72999954223633,0.0,-5.0,-1.34661865234375,-2.3800048828125,Closing,0.0,0.0,-189.0,0.0,0.0,0.0,0.0,0.0,
6.595138999999995,0.0,0.0,51244.0,0.0,0.0,0.0,0.0,0.125,0.826415931,4.932250999999998,0.0,-37538.0,0.0,0.0,0.0,0.0,0.25,0.534667914,4.963769999999998,0.0,40173.0,0.0,0.0,0.0,0.0,0.0,3.3630367650000004,0.01,0.0,-16448.0,0.0,0.0,0.0,0.0,0.125,1.6113279600000001,0.01,0.0,0.46000000834465027,0.1599999964237213,73.68000030517578,-0.01190185546875,0.00653076171875,1.017578125,35.72999954223633,0.0,-5.0,-1.34661865234375,-2.3798675537109375,Closing,0.0,0.0,-189.0,0.0,0.0,0.0,0.0,0.0,
6.729035999999993,0.0,0.0,51244.0,0.0,0.0,0.0,0.0,0.125,0.825195228,4.932250999999998,0.0,-37538.0,0.0,0.0,0.0,0.0,0.25,0.535888617,4.963769999999998,0.0,40173.0,0.0,0.0,0.0,0.0,0.0,3.3618160620000004,0.01,0.0,-16448.0,0.0,0.0,0.0,0.0,0.125,1.6113279600000001,0.01,0.0,0.44999998807907104,0.03999999910593033,73.68000030517578,-0.01116943359375,0.0068359375,1.01580810546875,35.72999954223633,0.0,-4.0,-1.34661865234375,-2.3798675537109375,Closing,0.0,0.0,-189.0,0.0,0.0,0.0,0.0,0.0,
6.865130999999994,0.0,0.0,51244.0,0.0,0.0,0.0,0.0,0.125,0.826415931,4.932250999999998,0.0,-37538.0,0.0,0.0,0.0,0.0,0.25,0.535888617,4.963769999999998,0.0,40173.0,0.0,0.0,0.0,0.0,0.0,3.3630367650000004,0.01,0.0,-16448.0,0.0,0.0,0.0,0.0,0.125,1.612548663,0.01,0.0,0.44999998807907104,-0.019999999552965164,73.68000030517578,-0.0167236328125,0.0069580078125,1.016845703125,35.72999954223633,0.0,-5.0,-1.34661865234375,-2.3798675537109375,Closing,0.0,0.0,-189.0,0.0,0.0,0.0,0.0,0.0,
6.999111999999994,0.0,0.0,51244.0,0.0,0.0,0.0,0.0,0.125,0.826415931,4.932250999999998,0.0,-37538.0,0.0,0.0,0.0,0.0,0.25,0.535888617,4.963769999999998,0.0,40173.0,0.0,0.0,0.0,0.0,0.0,3.3630367650000004,0.01,0.0,-16448.0,0.0,0.0,0.0,0.0,0.125,1.612548663,0.01,0.0,0.44999998807907104,-0.10999999940395355,73.68000030517578,-0.01629638671875,0.003662109375,1.01678466796875,35.709999084472656,0.0,-8.0,-1.34661865234375,-2.3798675537109375,Closing,0.0,0.0,-189.0,0.0,0.0,0.0,0.0,0.0,
7.129367999999988,0.0,0.0,51244.0,0.0,0.0,0.0,0.0,0.125,0.826415931,4.932250999999998,0.0,-37538.0,0.0,0.0,0.0,0.0,0.25,0.534667914,4.963769999999998,0.0,40173.0,0.0,0.0,0.0,0.0,0.0,3.3630367650000004,0.01,0.0,-16448.0,0.0,0.0,0.0,0.0,0.125,1.612548663,0.01,0.0,0.4399999976158142,-0.1599999964237213,73.68000030517578,-0.01580810546875,0.006591796875,1.0179443359375,35.709999084472656,0.0,-4.0,-1.34661865234375,-2.3798675537109375,Closing,0.0,0.0,-189.0,0.0,0.0,0.0,0.0,0.0,
7.2547419999999985,0.0,0.0,51244.0,0.0,0.0,0.0,0.0,0.125,0.826415931,4.932250999999998,0.0,-37538.0,0.0,0.0,0.0,0.0,0.25,0.534667914,4.963769999999998,0.0,40173.0,0.0,0.0,0.0,0.0,0.0,3.3630367650000004,0.01,0.0,-16448.0,0.0,0.0,0.0,0.0,0.125,1.6113279600000001,0.01,0.0,0.4399999976158142,-0.23000000417232513,73.68000030517578,-0.0133056640625,0.0081787109375,1.01812744140625,35.709999084472656,0.0,-2.0,-1.34661865234375,-2.3798675537109375,Closing,0.0,0.0,-189.0,0.0,0.0,0.0,0.0,0.0,
7.396606999999989,0.0,0.0,51244.0,0.0,0.0,0.0,0.0,0.125,0.826415931,4.932250999999998,0.0,-37538.0,0.0,0.0,0.0,0.0,0.25,0.535888617,4.963769999999998,0.0,40173.0,0.0,0.0,0.0,0.0,0.0,3.3630367650000004,0.01,0.0,-16448.0,0.0,0.0,0.0,0.0,0.125,1.6113279600000001,0.01,0.0,0.4399999976158142,-0.30000001192092896,73.68000030517578,-0.0145263671875,0.00732421875,1.023681640625,35.709999084472656,0.0,-3.0,-1.34661865234375,-2.3798675537109375,Closing,0.0,0.0,-189.0,0.0,0.0,0.0,0.0,0.0,
7.528470000000001,0.0,0.0,51244.0,0.0,0.0,0.0,0.0,0.125,0.825195228,4.932250999999998,0.0,-37538.0,0.0,0.0,0.0,0.0,0.25,0.534667914,4.963769999999998,0.0,40173.0,0.0,0.0,0.0,0.0,0.0,3.3630367650000004,0.01,0.0,-16448.0,0.0,0.0,0.0,0.0,0.125,1.6113279600000001,0.01,0.0,0.4399999976158142,-0.33000001311302185,73.68000030517578,-0.01556396484375,0.0087890625,1.02264404296875,35.70000076293945,0.0,-1.0,-1.34661865234375,-2.3798675537109375,Closing,0.0,0.0,-189.0,0.0,0.0,0.0,0.0,0.0,
7.666011999999988,0.0,0.0,51244.0,0.0,0.0,0.0,0.0,0.125,0.826415931,4.932250999999998,0.0,-37538.0,0.0,0.0,0.0,0.0,0.25,0.534667914,4.963769999999998,0.0,40173.0,0.0,0.0,0.0,0.0,0.0,3.3630367650000004,0.01,0.0,-16448.0,0.0,0.0,0.0,0.0,0.125,1.6113279600000001,0.01,0.0,0.4399999976158142,-0.38999998569488525,73.68000030517578,-0.012939453125,0.0084228515625,1.0220947265625,35.70000076293945,0.0,-1.0,-1.34661865234375,-2.3798675537109375,Closing,0.0,0.0,-189.0,0.0,0.0,0.0,0.0,0.0,
7.889924999999988,0.0,0.0,51244.0,0.0,0.0,0.0,0.0,0.125,0.826415931,4.932250999999998,0.0,-37538.0,0.0,0.0,0.0,0.0,0.25,0.535888617,4.963769999999998,0.0,40173.0,0.0,0.0,0.0,0.0,0.0,3.3630367650000004,0.01,0.0,-16448.0,0.0,0.0,0.0,0.0,0.125,1.612548663,0.01,0.0,0.4399999976158142,-0.46000000834465027,73.68000030517578,-0.0137939453125,0.01092529296875,1.0235595703125,35.70000076293945,0.0,1.0,-1.34661865234375,-2.3798675537109375,Closing,0.0,0.0,-189.0,0.0,0.0,0.0,0.0,0.0,
8.065344000000012,0.0,0.0,51244.0,0.0,0.0,0.0,0.0,0.125,0.826415931,4.932250999999998,0.0,-37538.0,0.0,0.0,0.0,0.0,0.25,0.535888617,4.963769999999998,0.0,40173.0,0.0,0.0,0.0,0.0,0.0,3.3630367650000004,0.01,0.0,-16448.0,0.0,0.0,0.0,0.0,0.125,1.6113279600000001,0.01,0.0,0.4300000071525574,-0.49000000953674316,73.68000030517578,-0.01605224609375,0.0072021484375,1.0223388671875,35.709999084472656,0.0,-2.0,-1.34661865234375,-2.3798675537109375,Closing,0.0,0.0,-189.0,0.0,0.0,0.0,0.0,0.0,
8.196994000000005,0.0,0.0,51244.0,0.0,0.0,0.0,0.0,0.125,0.826415931,4.932250999999998,0.0,-37538.0,0.0,0.0,0.0,0.0,0.25,0.534667914,4.963769999999998,0.0,40173.0,0.0,0.0,0.0,0.0,0.0,3.3630367650000004,0.01,0.0,-16448.0,0.0,0.0,0.0,0.0,0.125,1.612548663,0.01,0.0,0.4300000071525574,-0.5299999713897705,73.68000030517578,-0.01416015625,0.0101318359375,1.02276611328125,35.709999084472656,0.0,0.0,-1.34661865234375,-2.3798675537109375,Closing,0.0,0.0,-189.0,0.0,0.0,0.0,0.0,0.0,
8.329334000000003,0.0,0.0,51244.0,0.0,0.0,0.0,0.0,0.125,0.825195228,4.932250999999998,0.0,-37538.0,0.0,0.0,0.0,0.0,0.25,0.534667914,4.963769999999998,0.0,40173.0,0.0,0.0,0.0,0.0,0.0,3.3630367650000004,0.01,0.0,-16448.0,0.0,0.0,0.0,0.0,0.125,1.6113279600000001,0.01,0.0,0.4300000071525574,-0.550000011920929,73.68000030517578,-0.01300048828125,0.00738525390625,1.0284423828125,35.709999084472656,0.0,-1.0,-1.34661865234375,-2.3798675537109375,Closing,0.0,0.0,-189.0,0.0,0.0,0.0,0.0,0.0,
8.46473000000001,0.0,0.0,51244.0,0.0,0.0,0.0,0.0,0.125,0.826415931,4.932250999999998,0.0,-37538.0,0.0,0.0,0.0,0.0,0.25,0.534667914,4.963769999999998,0.0,40173.0,0.0,0.0,0.0,0.0,0.0,3.3630367650000004,0.01,0.0,-16448.0,0.0,0.0,0.0,0.0,0.125,1.6113279600000001,0.01,0.0,0.4300000071525574,-0.5799999833106995,73.68000030517578,-0.01361083984375,0.0068359375,1.013427734375,35.70000076293945,0.0,-1.0,-1.34661865234375,-2.3798675537109375,Closing,0.0,0.0,-189.0,0.0,0.0,0.0,0.0,0.0,
8.59853899999999,0.0,0.0,51244.0,0.0,0.0,0.0,0.0,0.125,0.826415931,4.932250999999998,0.0,-37538.0,0.0,0.0,0.0,0.0,0.25,0.533447211,4.963769999999998,0.0,40173.0,0.0,0.0,0.0,0.0,0.0,3.3642574680000004,0.01,0.0,-16448.0,0.0,0.0,0.0,0.0,0.125,1.6113279600000001,0.01,0.0,0.4300000071525574,-0.6000000238418579,73.68000030517578,-0.013671875,0.0057373046875,1.02581787109375,35.70000076293945,0.0,-2.0,-1.34661865234375,-2.3798675537109375,Closing,0.0,0.0,-189.0,0.0,0.0,0.0,0.0,0.0,
8.72753899999999,0.0,0.0,51244.0,0.0,0.0,0.0,0.0,0.125,0.826415931,4.932250999999998,0.0,-37538.0,0.0,0.0,0.0,0.0,0.25,0.535888617,4.963769999999998,0.0,40173.0,0.0,0.0,0.0,0.0,0.0,3.3630367650000004,0.01,0.0,-16448.0,0.0,0.0,0.0,0.0,0.125,1.6113279600000001,0.01,0.0,0.4300000071525574,-0.6299999952316284,73.68000030517578,-0.01654052734375,0.0084228515625,1.02056884765625,35.70000076293945,0.0,0.0,-1.34661865234375,-2.3798675537109375,Closing,0.0,0.0,-189.0,0.0,0.0,0.0,0.0,0.0,
8.852109999999985,0.0,0.0,51244.0,0.0,0.0,0.0,0.0,0.125,0.826415931,4.932250999999998,0.0,-37538.0,0.0,0.0,0.0,0.0,0.25,0.534667914,4.963769999999998,0.0,40173.0,0.0,0.0,0.0,0.0,0.0,3.3630367650000004,0.01,0.0,-16448.0,0.0,0.0,0.0,0.0,0.125,1.612548663,0.01,0.0,0.4300000071525574,-0.6499999761581421,73.66999816894531,-0.01483154296875,0.004150390625,1.01483154296875,35.70000076293945,0.0,-4.0,-1.34661865234375,-2.3798675537109375,Closing,0.0,0.0,-189.0,0.0,0.0,0.0,0.0,0.0,
8.995135999999999,0.0,0.0,51244.0,0.0,0.0,0.0,0.0,0.125,0.826415931,4.932250999999998,0.0,-37538.0,0.0,0.0,0.0,0.0,0.25,0.534667914,4.963769999999998,0.0,40173.0,0.0,0.0,0.0,0.0,0.0,3.3630367650000004,0.01,0.0,-16448.0,0.0,0.0,0.0,0.0,0.125,1.6113279600000001,0.01,0.0,0.41999998688697815,-0.6600000262260437,73.66999816894531,-0.01470947265625,0.00506591796875,1.02203369140625,35.689998626708984,0.0,-3.0,-1.34661865234375,-2.3798675537109375,Closing,0.0,0.0,-189.0,0.0,0.0,0.0,0.0,0.0,
9.131005999999994,0.0,0.0,51244.0,0.0,0.0,0.0,0.0,0.125,0.826415931,4.932250999999998,0.0,-37538.0,0.0,0.0,0.0,0.0,0.25,0.535888617,4.963769999999998,0.0,40173.0,0.0,0.0,0.0,0.0,0.0,3.3630367650000004,0.01,0.0,-16448.0,0.0,0.0,0.0,0.0,0.125,1.6113279600000001,0.01,0.0,0.41999998688697815,-0.6700000166893005,73.66999816894531,-0.01165771484375,0.007080078125,1.02166748046875,35.689998626708984,0.0,0.0,-1.34661865234375,-2.3798675537109375,Closing,0.0,0.0,-189.0,0.0,0.0,0.0,0.0,0.0,
9.265563999999983,0.0,0.0,51244.0,0.0,0.0,0.0,0.0,0.125,0.826415931,4.932250999999998,0.0,-37538.0,0.0,0.0,0.0,0.0,0.25,0.534667914,4.963769999999998,0.0,40173.0,0.0,0.0,0.0,0.0,0.0,3.3630367650000004,0.01,0.0,-16448.0,0.0,0.0,0.0,0.0,0.125,1.6113279600000001,0.01,0.0,0.4099999964237213,-0.6800000071525574,73.66999816894531,-0.01324462890625,0.00537109375,1.02142333984375,35.689998626708984,0.0,-2.0,-1.34661865234375,-2.3798675537109375,Closing,0.0,0.0,-189.0,0.0,0.0,0.0,0.0,0.0,
9.39673000000001,0.0,0.0,51244.0,0.0,0.0,0.0,0.0,0.125,0.826415931,4.932250999999998,0.0,-37538.0,0.0,0.0,0.0,0.0,0.25,0.534667914,4.963769999999998,0.0,40173.0,0.0,0.0,0.0,0.0,0.0,3.3618160620000004,0.01,0.0,-16448.0,0.0,0.0,0.0,0.0,0.125,1.6113279600000001,0.01,0.0,0.4099999964237213,-0.6899999976158142,73.66999816894531,-0.01422119140625,0.00732421875,1.0277099609375,35.689998626708984,0.0,0.0,-1.34661865234375,-2.3798675537109375,Closing,0.0,0.0,-189.0,0.0,0.0,0.0,0.0,0.0,
9.521646000000008,0.0,0.0,51244.0,0.0,0.0,0.0,0.0,0.125,0.826415931,4.932250999999998,0.0,-37538.0,0.0,0.0,0.0,0.0,0.25,0.535888617,4.963769999999998,0.0,40173.0,0.0,0.0,0.0,0.0,0.0,3.3630367650000004,0.01,0.0,-16448.0,0.0,0.0,0.0,0.0,0.125,1.6113279600000001,0.01,0.0,0.4099999964237213,-0.699999988079071,73.66999816894531,-0.012939453125,0.00872802734375,1.01678466796875,35.68000030517578,0.0,1.0,-1.34661865234375,-2.3798675537109375,Closing,0.0,0.0,-189.0,0.0,0.0,0.0,0.0,0.0,
9.666312000000005,0.0,0.0,51244.0,0.0,0.0,0.0,0.0,0.125,0.826415931,4.932250999999998,0.0,-37538.0,0.0,0.0,0.0,0.0,0.25,0.534667914,4.963769999999998,0.0,40173.0,0.0,0.0,0.0,0.0,0.0,3.3630367650000004,0.01,0.0,-16448.0,0.0,0.0,0.0,0.0,0.125,1.6113279600000001,0.01,0.0,0.41999998688697815,-0.7099999785423279,73.66999816894531,-0.0130615234375,0.00885009765625,1.01910400390625,35.68000030517578,0.0,1.0,-1.34661865234375,-2.3798675537109375,Closing,0.0,0.0,-189.0,0.0,0.0,0.0,0.0,0.0,
9.793878999999986,0.0,0.0,51244.0,0.0,0.0,0.0,0.0,0.125,0.826415931,4.932250999999998,0.0,-37538.0,0.0,0.0,0.0,0.0,0.25,0.534667914,4.963769999999998,0.0,40173.0,0.0,0.0,0.0,0.0,0.0,3.3630367650000004,0.01,0.0,-16448.0,0.0,0.0,0.0,0.0,0.125,1.6113279600000001,0.01,0.0,0.41999998688697815,-0.7200000286102295,73.68000030517578,-0.01373291015625,0.00653076171875,1.01690673828125,35.68000030517578,0.0,-1.0,-1.34661865234375,-2.3798675537109375,Closing,0.0,0.0,-189.0,0.0,0.0,0.0,0.0,0.0,
9.933986999999993,0.0,0.0,51244.0,0.0,0.0,0.0,0.0,0.125,0.826415931,4.932250999999998,0.0,-37538.0,0.0,0.0,0.0,0.0,0.25,0.534667914,4.963769999999998,0.0,40173.0,0.0,0.0,0.0,0.0,0.0,3.3630367650000004,0.01,0.0,-16448.0,0.0,0.0,0.0,0.0,0.125,1.6113279600000001,0.01,0.0,0.4099999964237213,-0.7300000190734863,73.68000030517578,-0.00653076171875,0.01190185546875,1.02294921875,35.68000030517578,0.0,6.0,-1.34661865234375,-2.37994384765625,Closing,0.0,0.0,-189.0,0.0,0.0,0.0,0.0,0.0,
10.067372999999993,0.0,0.0,51244.0,0.0,0.0,0.0,0.0,0.125,0.826415931,4.932250999999998,0.0,-37538.0,0.0,0.0,0.0,0.0,0.25,0.535888617,4.963769999999998,0.0,40173.0,0.0,0.0,0.0,0.0,0.0,3.3630367650000004,0.01,0.0,-16448.0,0.0,0.0,0.0,0.0,0.125,1.6113279600000001,0.01,0.0,0.38999998569488525,-0.7200000286102295,73.68000030517578,-0.00555419921875,0.01312255859375,1.01275634765625,35.70000076293945,0.0,7.0,-1.34661865234375,-2.3799896240234375,Closing,0.0,0.0,-189.0,0.0,0.0,0.0,0.0,0.0,
10.199475000000005,0.0,0.0,51244.0,0.0,0.0,0.0,0.0,0.125,0.826415931,4.932250999999998,0.0,-37538.0,0.0,0.0,0.0,0.0,0.25,0.534667914,4.963769999999998,0.0,40173.0,0.0,0.0,0.0,0.0,0.0,3.3630367650000004,0.01,0.0,-16448.0,0.0,0.0,0.0,0.0,0.125,1.612548663,0.01,0.0,0.3799999952316284,-0.7300000190734863,73.68000030517578,-0.01190185546875,-0.0015869140625,1.03466796875,35.70000076293945,0.0,-7.0,-1.34661865234375,-2.3799896240234375,Closing,0.0,0.0,-189.0,0.0,0.0,0.0,0.0,0.0,
10.332282000000006,0.0,0.0,51244.0,0.0,0.0,0.0,0.0,0.125,0.826415931,4.932250999999998,0.0,-37538.0,0.0,0.0,0.0,0.0,0.25,0.534667914,4.963769999999998,0.0,40173.0,0.0,0.0,0.0,0.0,0.0,3.3630367650000004,0.01,0.0,-16448.0,0.0,0.0,0.0,0.0,0.125,1.6113279600000001,0.01,0.0,0.3700000047683716,-0.7400000095367432,73.66999816894531,-0.00897216796875,0.00775146484375,1.01068115234375,35.70000076293945,0.0,2.0,-1.34661865234375,-2.3799896240234375,Closing,0.0,0.0,-189.0,0.0,0.0,0.0,0.0,0.0,
10.466168999999994,0.0,0.0,51244.0,0.0,0.0,0.0,0.0,0.125,0.826415931,4.932250999999998,0.0,-37538.0,0.0,0.0,0.0,0.0,0.25,0.534667914,4.963769999999998,0.0,40173.0,0.0,0.0,0.0,0.0,0.0,3.3630367650000004,0.01,0.0,-16448.0,0.0,0.0,0.0,0.0,0.125,1.6113279600000001,0.01,0.0,0.3799999952316284,-0.7400000095367432,73.68000030517578,-0.0218505859375,0.01373291015625,1.01025390625,35.70000076293945,0.0,4.0,-1.346649169921875,-2.3799896240234375,Closing,0.0,0.0,-189.0,0.0,0.0,0.0,0.0,0.0,
10.58720199999999,0.0,0.0,51244.0,0.0,0.0,0.0,0.0,0.125,0.8276366340000001,4.932250999999998,0.0,-37538.0,0.0,0.0,0.0,0.0,0.25,0.535888617,4.963769999999998,0.0,40173.0,0.0,0.0,0.0,0.0,0.0,3.3630367650000004,0.01,0.0,-16448.0,0.0,0.0,0.0,0.0,0.125,1.6113279600000001,0.01,0.0,0.4000000059604645,-0.75,73.66999816894531,0.00152587890625,-0.01727294921875,1.013671875,35.7400016784668,0.0,-19.0,-1.3465423583984375,-2.379913330078125,Closing,0.0,0.0,-189.0,0.0,0.0,0.0,0.0,0.0,
10.73336499999999,0.0,0.0,51244.0,0.0,0.0,0.0,0.0,0.125,0.826415931,4.932250999999998,0.0,-37538.0,0.0,0.0,0.0,0.0,0.25,0.534667914,4.963769999999998,0.0,40173.0,0.0,0.0,0.0,0.0,0.0,3.3642574680000004,0.01,0.0,-16448.0,0.0,0.0,0.0,0.0,0.125,1.6113279600000001,0.01,0.0,0.41999998688697815,-0.7599999904632568,73.68000030517578,-0.01727294921875,0.02020263671875,1.01129150390625,35.7400016784668,0.0,11.0,-1.3463592529296875,-2.379791259765625,Closing,0.0,0.0,-189.0,0.0,0.0,0.0,0.0,0.0,
10.867370999999984,0.0,0.0,51244.0,0.0,0.0,0.0,0.0,0.125,0.826415931,4.932250999999998,0.0,-37538.0,0.0,0.0,0.0,0.0,0.25,0.534667914,4.963769999999998,0.0,40173.0,0.0,0.0,0.0,0.0,0.0,3.3630367650000004,0.01,0.0,-16448.0,0.0,0.0,0.0,0.0,0.125,1.6113279600000001,0.01,0.0,0.41999998688697815,-0.7799999713897705,73.66999816894531,-0.01824951171875,0.008056640625,1.01019287109375,35.7400016784668,0.0,0.0,-1.346435546875,-2.379638671875,Closing,0.0,0.0,-189.0,0.0,0.0,0.0,0.0,0.0,
11.063709000000003,0.0,0.0,51244.0,0.0,0.0,0.0,0.0,0.125,0.826415931,4.932250999999998,0.0,-37538.0,0.0,0.0,0.0,0.0,0.25,0.535888617,4.963769999999998,0.0,40173.0,0.0,0.0,0.0,0.0,0.0,3.3630367650000004,0.01,0.0,-16448.0,0.0,0.0,0.0,0.0,0.125,1.6113279600000001,0.01,0.0,0.3700000047683716,-0.7900000214576721,73.66999816894531,-0.01885986328125,0.01287841796875,1.01983642578125,35.709999084472656,0.0,4.0,-1.3470306396484375,-2.3797454833984375,Closing,0.0,0.0,-189.0,0.0,0.0,0.0,0.0,0.0,
11.199377000000007,0.0,0.0,51244.0,0.0,0.0,0.0,0.0,0.125,0.826415931,4.932250999999998,0.0,-37538.0,0.0,0.0,0.0,0.0,0.25,0.534667914,4.963769999999998,0.0,40173.0,0.0,0.0,0.0,0.0,0.0,3.3618160620000004,0.01,0.0,-16448.0,0.0,0.0,0.0,0.0,0.125,1.612548663,0.01,0.0,0.4000000059604645,-0.7799999713897705,73.66999816894531,-0.0206298828125,0.00677490234375,1.02294921875,35.709999084472656,0.0,-2.0,-1.3470306396484375,-2.3797454833984375,Closing,0.0,0.0,-189.0,0.0,0.0,0.0,0.0,0.0,
11.330495999999984,0.0,0.0,51244.0,0.0,0.0,0.0,0.0,0.125,0.826415931,4.932250999999998,0.0,-37538.0,0.0,0.0,0.0,0.0,0.25,0.534667914,4.963769999999998,0.0,40173.0,0.0,0.0,0.0,0.0,0.0,3.3630367650000004,0.01,0.0,-16448.0,0.0,0.0,0.0,0.0,0.125,1.6113279600000001,0.01,0.0,0.4000000059604645,-0.8199999928474426,73.66999816894531,0.0386962890625,-0.0013427734375,0.988037109375,35.709999084472656,0.0,6.0,-1.3468170166015625,-2.3778076171875,Closing,0.0,0.0,-189.0,0.0,0.0,0.0,0.0,0.0,
11.463799999999988,0.0,0.0,51244.0,0.0,0.0,0.0,0.0,0.125,0.826415931,4.932250999999998,0.0,-37538.0,0.0,0.0,0.0,0.0,0.25,0.534667914,4.963769999999998,0.0,40173.0,0.0,0.0,0.0,0.0,0.0,3.3630367650000004,0.01,0.0,-16448.0,0.0,0.0,0.0,0.0,0.125,1.6113279600000001,0.01,0.0,0.4000000059604645,-0.800000011920929,73.66999816894531,-0.01348876953125,0.0096435546875,1.02032470703125,35.709999084472656,0.0,2.0,-1.3472900390625,-2.3772735595703125,Closing,0.0,0.0,-189.0,0.0,0.0,0.0,0.0,0.0,
11.586424999999988,0.0,0.0,51244.0,0.0,0.0,0.0,0.0,0.125,0.826415931,4.932250999999998,0.0,-37538.0,0.0,0.0,0.0,0.0,0.25,0.534667914,4.963769999999998,0.0,40173.0,0.0,0.0,0.0,0.0,0.0,3.3630367650000004,0.01,0.0,-16448.0,0.0,0.0,0.0,0.0,0.125,1.6113279600000001,0.01,0.0,0.4099999964237213,-0.8100000023841858,73.66999816894531,-0.0159912109375,0.0096435546875,1.0272216796875,35.709999084472656,0.0,1.0,-1.347381591796875,-2.3772735595703125,Closing,0.0,0.0,-189.0,0.0,0.0,0.0,0.0,0.0,
11.731850999999995,0.0,0.0,51244.0,0.0,0.0,0.0,0.0,0.125,0.826415931,4.932250999999998,0.0,-37538.0,0.0,0.0,0.0,0.0,0.25,0.534667914,4.963769999999998,0.0,40173.0,0.0,0.0,0.0,0.0,0.0,3.3618160620000004,0.01,0.0,-16448.0,0.0,0.0,0.0,0.0,0.125,1.6113279600000001,0.01,0.0,0.41999998688697815,-0.8100000023841858,73.66999816894531,-0.01861572265625,0.01220703125,1.02496337890625,35.709999084472656,0.0,3.0,-1.347381591796875,-2.3772735595703125,Closing,0.0,0.0,-189.0,0.0,0.0,0.0,0.0,0.0,
11.861456000000006,0.0,0.0,51244.0,0.0,0.0,0.0,0.0,0.125,0.8276366340000001,4.932250999999998,0.0,-37538.0,0.0,0.0,0.0,0.0,0.25,0.535888617,4.963769999999998,0.0,40173.0,0.0,0.0,0.0,0.0,0.0,3.3630367650000004,0.01,0.0,-16448.0,0.0,0.0,0.0,0.0,0.125,1.6113279600000001,0.01,0.0,0.41999998688697815,-0.8100000023841858,73.66999816894531,-0.01507568359375,0.01165771484375,1.02252197265625,35.709999084472656,0.0,3.0,-1.347381591796875,-2.3772735595703125,Closing,0.0,0.0,-189.0,0.0,0.0,0.0,0.0,0.0,
11.99598000000001,0.0,0.0,51244.0,0.0,0.0,0.0,0.0,0.125,0.826415931,0.01,0.0,-37538.0,0.0,0.0,-0.0,0.0,0.125,0.534667914,0.01,0.0,40173.0,0.0,0.0,0.0,0.0,0.0,3.3630367650000004,0.01,0.0,-16448.0,0.0,0.0,-0.0,0.0,0.125,1.612548663,0.01,0.0,0.41999998688697815,-0.8100000023841858,73.66999816894531,-0.012939453125,0.0106201171875,1.01806640625,35.709999084472656,0.0,3.0,-1.347381591796875,-2.3772735595703125,Closing,0.0,0.0,-189.0,0.0,0.0,0.0,0.0,0.0,
12.130850000000006,0.0,0.0,51244.0,0.0,0.0,0.0,0.0,0.125,0.826415931,0.01,0.0,-37538.0,0.0,0.0,-0.0,0.0,0.125,0.534667914,0.01,0.0,40173.0,0.0,0.0,0.0,0.0,0.0,3.3630367650000004,0.01,0.0,-16448.0,0.0,0.0,-0.0,0.0,0.125,1.612548663,0.01,0.0,0.4300000071525574,-0.8100000023841858,73.66999816894531,-0.01519775390625,0.0096435546875,1.02435302734375,35.7400016784668,0.0,1.0,-1.347381591796875,-2.3772735595703125,Closing,0.0,0.0,-189.0,0.0,0.0,0.0,0.0,0.0,
12.263184999999998,0.0,0.0,51244.0,0.0,0.0,0.0,0.0,0.125,0.826415931,0.01,0.0,-37538.0,0.0,0.0,-0.0,0.0,0.125,0.535888617,0.01,0.0,40173.0,0.0,0.0,0.0,0.0,0.0,3.3642574680000004,0.01,0.0,-16448.0,0.0,0.0,-0.0,0.0,0.125,1.612548663,0.01,0.0,0.4300000071525574,-0.8100000023841858,73.66999816894531,-0.0145263671875,0.00909423828125,1.02117919921875,35.7400016784668,0.0,1.0,-1.347381591796875,-2.3772735595703125,Closing,0.0,0.0,-189.0,0.0,0.0,0.0,0.0,0.0,
12.395859999999987,0.0,0.0,51244.0,0.0,0.0,0.0,0.0,0.125,0.826415931,0.01,0.0,-37538.0,0.0,0.0,-0.0,0.0,0.125,0.534667914,0.01,0.0,40173.0,0.0,0.0,0.0,0.0,0.0,3.3630367650000004,0.01,0.0,-16448.0,0.0,0.0,-0.0,0.0,0.125,1.6113279600000001,0.01,0.0,0.4300000071525574,-0.8100000023841858,73.66999816894531,-0.01495361328125,0.00701904296875,1.02325439453125,35.7400016784668,0.0,0.0,-1.347381591796875,-2.3772735595703125,Closing,0.0,0.0,-189.0,0.0,0.0,0.0,0.0,0.0,
12.532157999999995,0.0,0.0,51244.0,0.0,0.0,0.0,0.0,0.125,0.826415931,0.01,0.0,-37538.0,0.0,0.0,-0.0,0.0,0.125,0.534667914,0.01,0.0,40173.0,0.0,0.0,0.0,0.0,0.0,3.3630367650000004,0.01,0.0,-16448.0,0.0,0.0,-0.0,0.0,0.125,1.612548663,0.01,0.0,0.4300000071525574,-0.800000011920929,73.66999816894531,-0.01666259765625,0.00848388671875,1.02239990234375,35.7400016784668,0.0,0.0,-1.347381591796875,-2.3772735595703125,Closing,0.0,0.0,-189.0,0.0,0.0,0.0,0.0,0.0,
12.662575000000011,0.0,0.0,51244.0,0.0,0.0,0.0,0.0,0.125,0.826415931,0.01,0.0,-37538.0,0.0,0.0,-0.0,0.0,0.125,0.534667914,0.01,0.0,40173.0,0.0,0.0,0.0,0.0,0.0,3.3630367650000004,0.01,0.0,-16448.0,0.0,0.0,-0.0,0.0,0.125,1.6113279600000001,0.01,0.0,0.4300000071525574,-0.800000011920929,73.66999816894531,-0.012939453125,0.005859375,1.01983642578125,35.72999954223633,0.0,-1.0,-1.347381591796875,-2.3772735595703125,Closing,0.0,0.0,-189.0,0.0,0.0,0.0,0.0,0.0,
12.798344000000013,0.0,0.0,51244.0,0.0,0.0,0.0,0.0,0.125,0.826415931,0.01,0.0,-37538.0,0.0,0.0,-0.0,0.0,0.125,0.534667914,0.01,0.0,40173.0,0.0,0.0,0.0,0.0,0.0,3.3630367650000004,0.01,0.0,-16448.0,0.0,0.0,-0.0,0.0,0.125,1.6113279600000001,0.01,0.0,0.4300000071525574,-0.800000011920929,73.66999816894531,-0.01434326171875,0.0072021484375,1.02459716796875,35.72999954223633,0.0,0.0,-1.347381591796875,-2.3772735595703125,Closing,0.0,0.0,-189.0,0.0,0.0,0.0,0.0,0.0,
12.929926999999996,0.0,0.0,51244.0,0.0,0.0,0.0,0.0,0.125,0.826415931,0.01,0.0,-37538.0,0.0,0.0,-0.0,0.0,0.125,0.535888617,0.01,0.0,40173.0,0.0,0.0,0.0,0.0,0.0,3.3630367650000004,0.01,0.0,-16448.0,0.0,0.0,-0.0,0.0,0.125,1.6113279600000001,0.01,0.0,0.4300000071525574,-0.800000011920929,73.66999816894531,-0.0125732421875,0.00872802734375,1.0185546875,35.72999954223633,0.0,1.0,-1.347381591796875,-2.3772735595703125,Closing,0.0,0.0,-189.0,0.0,0.0,0.0,0.0,0.0,
13.063644,0.0,0.0,51244.0,0.0,0.0,0.0,0.0,0.125,0.826415931,0.01,0.0,-37538.0,0.0,0.0,-0.0,0.0,0.125,0.535888617,0.01,0.0,40173.0,0.0,0.0,0.0,0.0,0.0,3.3642574680000004,0.01,0.0,-16448.0,0.0,0.0,-0.0,0.0,0.125,1.6113279600000001,0.01,0.0,0.4300000071525574,-0.800000011920929,73.66999816894531,-0.0140380859375,0.00616455078125,1.02362060546875,35.709999084472656,0.0,-1.0,-1.347381591796875,-2.3772735595703125,Closing,0.0,0.0,-189.0,0.0,0.0,0.0,0.0,0.0,
13.197788000000001,0.0,0.0,51244.0,0.0,0.0,0.0,0.0,0.125,0.826415931,0.01,0.0,-37538.0,0.0,0.0,-0.0,0.0,0.125,0.535888617,0.01,0.0,40173.0,0.0,0.0,0.0,0.0,0.0,3.3630367650000004,0.01,0.0,-16448.0,0.0,0.0,-0.0,0.0,0.125,1.612548663,0.01,0.0,0.4399999976158142,-0.800000011920929,73.66999816894531,-0.017578125,0.00836181640625,1.0179443359375,35.709999084472656,0.0,0.0,-1.347381591796875,-2.3772735595703125,Closing,0.0,0.0,-189.0,0.0,0.0,0.0,0.0,0.0,
13.330437000000005,0.0,0.0,51244.0,0.0,0.0,0.0,0.0,0.125,0.826415931,0.01,0.0,-37538.0,0.0,0.0,-0.0,0.0,0.125,0.535888617,0.01,0.0,40173.0,0.0,0.0,0.0,0.0,0.0,3.3618160620000004,0.01,0.0,-16448.0,0.0,0.0,-0.0,0.0,0.125,1.6113279600000001,0.01,0.0,0.4399999976158142,-0.800000011920929,73.66999816894531,-0.01104736328125,0.0062255859375,1.0216064453125,35.709999084472656,0.0,0.0,-1.347381591796875,-2.3772735595703125,Closing,0.0,0.0,-189.0,0.0,0.0,0.0,0.0,0.0,
13.528913000000001,0.0,0.0,51244.0,0.0,0.0,0.0,0.0,0.125,0.8276366340000001,0.01,0.0,-37538.0,0.0,0.0,-0.0,0.0,0.125,0.534667914,0.01,0.0,40173.0,0.0,0.0,0.0,0.0,0.0,3.3630367650000004,0.01,0.0,-16448.0,0.0,0.0,-0.0,0.0,0.125,1.612548663,0.01,0.0,0.4300000071525574,-0.800000011920929,73.66999816894531,-0.01702880859375,0.00909423828125,1.01806640625,35.709999084472656,0.0,0.0,-1.347381591796875,-2.3772735595703125,Closing,0.0,0.0,-189.0,0.0,0.0,0.0,0.0,0.0,
13.663957999999985,0.0,0.0,51244.0,0.0,0.0,0.0,0.0,0.125,0.826415931,0.01,0.0,-37538.0,0.0,0.0,-0.0,0.0,0.125,0.534667914,0.01,0.0,40173.0,0.0,0.0,0.0,0.0,0.0,3.3630367650000004,0.01,0.0,-16448.0,0.0,0.0,-0.0,0.0,0.125,1.6113279600000001,0.01,0.0,0.4399999976158142,-0.8100000023841858,73.66000366210938,-0.01226806640625,0.01123046875,1.0247802734375,35.75,0.0,3.0,-1.347381591796875,-2.3772735595703125,Closing,0.0,0.0,-189.0,0.0,0.0,0.0,0.0,0.0,
13.79868100000001,0.0,0.0,51244.0,0.0,0.0,0.0,0.0,0.125,0.826415931,0.01,0.0,-37538.0,0.0,0.0,-0.0,0.0,0.125,0.534667914,0.01,0.0,40173.0,0.0,0.0,0.0,0.0,0.0,3.3618160620000004,0.01,0.0,-16448.0,0.0,0.0,-0.0,0.0,0.125,1.6113279600000001,0.01,0.0,0.4399999976158142,-0.8100000023841858,73.66000366210938,-0.0123291015625,0.00860595703125,1.02301025390625,35.75,0.0,1.0,-1.347381591796875,-2.3772735595703125,Closing,0.0,0.0,-189.0,0.0,0.0,0.0,0.0,0.0,
13.932812999999994,0.0,0.0,51244.0,0.0,0.0,0.0,0.0,0.125,0.826415931,0.01,0.0,-37538.0,0.0,0.0,-0.0,0.0,0.125,0.534667914,0.01,0.0,40173.0,0.0,0.0,0.0,0.0,0.0,3.3630367650000004,0.01,0.0,-16448.0,0.0,0.0,-0.0,0.0,0.125,1.6113279600000001,0.01,0.0,0.4300000071525574,-0.8100000023841858,73.66999816894531,-0.01190185546875,0.00762939453125,1.02398681640625,35.75,0.0,0.0,-1.347381591796875,-2.3772735595703125,Closing,0.0,0.0,-189.0,0.0,0.0,0.0,0.0,0.0,
14.062597999999998,0.0,0.0,51244.0,0.0,0.0,0.0,0.0,0.125,0.826415931,0.01,0.0,-37538.0,0.0,0.0,-0.0,0.0,0.125,0.535888617,0.01,0.0,40173.0,0.0,0.0,0.0,0.0,0.0,3.3630367650000004,0.01,0.0,-16448.0,0.0,0.0,-0.0,0.0,0.125,1.6113279600000001,0.01,0.0,0.4300000071525574,-0.800000011920929,73.66000366210938,-0.0155029296875,0.00848388671875,1.0208740234375,35.75,0.0,0.0,-1.347381591796875,-2.3772735595703125,Closing,0.0,0.0,-189.0,0.0,0.0,0.0,0.0,0.0,
14.199062999999995,0.0,0.0,51244.0,0.0,0.0,0.0,0.0,0.125,0.826415931,0.01,0.0,-37538.0,0.0,0.0,-0.0,0.0,0.125,0.534667914,0.01,0.0,40173.0,0.0,0.0,0.0,0.0,0.0,3.3630367650000004,0.01,0.0,-16448.0,0.0,0.0,-0.0,0.0,0.125,1.6113279600000001,0.01,0.0,0.4300000071525574,-0.800000011920929,73.66000366210938,-0.0162353515625,0.00689697265625,1.02520751953125,35.7599983215332,0.0,-1.0,-1.347381591796875,-2.3772735595703125,Closing,0.0,0.0,-189.0,0.0,0.0,0.0,0.0,0.0,
14.32101999999999,0.0,0.0,51244.0,0.0,0.0,0.0,0.0,0.125,0.826415931,0.01,0.0,-37538.0,0.0,0.0,-0.0,0.0,0.125,0.534667914,0.01,0.0,40173.0,0.0,0.0,0.0,0.0,0.0,3.3642574680000004,0.01,0.0,-16448.0,0.0,0.0,-0.0,0.0,0.125,1.612548663,0.01,0.0,0.4300000071525574,-0.800000011920929,73.6500015258789,-0.01849365234375,0.006591796875,1.01507568359375,35.7599983215332,0.0,-2.0,-1.347381591796875,-2.3772735595703125,Closing,0.0,0.0,-189.0,0.0,0.0,0.0,0.0,0.0,
14.465410000000004,0.0,0.0,51244.0,0.0,0.0,0.0,0.0,0.125,0.826415931,0.01,0.0,-37538.0,0.0,0.0,-0.0,0.0,0.125,0.535888617,0.01,0.0,40173.0,0.0,0.0,0.0,0.0,0.0,3.3630367650000004,0.01,0.0,-16448.0,0.0,0.0,-0.0,0.0,0.125,1.612548663,0.01,0.0,0.41999998688697815,-0.800000011920929,73.6500015258789,-0.012939453125,0.0087890625,1.01348876953125,35.7599983215332,0.0,1.0,-1.347381591796875,-2.3772735595703125,Closing,0.0,0.0,-189.0,0.0,0.0,0.0,0.0,0.0,
14.589540999999997,0.0,0.0,51244.0,0.0,0.0,0.0,0.0,0.125,0.826415931,0.01,0.0,-37538.0,0.0,0.0,-0.0,0.0,0.125,0.535888617,0.01,0.0,40173.0,0.0,0.0,0.0,0.0,0.0,3.3630367650000004,0.01,0.0,-16448.0,0.0,0.0,-0.0,0.0,0.125,1.6113279600000001,0.01,0.0,0.41999998688697815,-0.800000011920929,73.6500015258789,-0.01287841796875,0.0047607421875,1.01605224609375,35.7400016784668,0.0,-2.0,-1.347381591796875,-2.3772735595703125,Closing,0.0,0.0,-189.0,0.0,0.0,0.0,0.0,0.0,
14.731828999999998,0.0,0.0,51244.0,0.0,0.0,0.0,0.0,0.125,0.826415931,0.01,0.0,-37538.0,0.0,0.0,-0.0,0.0,0.125,0.534667914,0.01,0.0,40173.0,0.0,0.0,0.0,0.0,0.0,3.3630367650000004,0.01,0.0,-16448.0,0.0,0.0,-0.0,0.0,0.125,1.612548663,0.01,0.0,0.4300000071525574,-0.7900000214576721,73.6500015258789,-0.017578125,0.00909423828125,1.02947998046875,35.7400016784668,0.0,0.0,-1.347381591796875,-2.3772735595703125,Closing,0.0,0.0,-189.0,0.0,0.0,0.0,0.0,0.0,
14.864616999999999,0.0,0.0,51244.0,0.0,0.0,0.0,0.0,0.125,0.826415931,0.01,0.0,-37538.0,0.0,0.0,-0.0,0.0,0.125,0.534667914,0.01,0.0,40173.0,0.0,0.0,0.0,0.0,0.0,3.3630367650000004,0.01,0.0,-16448.0,0.0,0.0,-0.0,0.0,0.125,1.6113279600000001,0.01,0.0,0.4300000071525574,-0.800000011920929,73.6500015258789,-0.01641845703125,0.00616455078125,1.0244140625,35.7400016784668,0.0,-2.0,-1.347381591796875,-2.3772735595703125,Closing,0.0,0.0,-189.0,0.0,0.0,0.0,0.0,0.0,
14.997853999999991,0.0,0.0,51244.0,0.0,0.0,0.0,0.0,0.125,0.826415931,0.01,0.0,-37538.0,0.0,0.0,-0.0,0.0,0.125,0.534667914,0.01,0.0,40173.0,0.0,0.0,0.0,0.0,0.0,3.3630367650000004,0.01,0.0,-16448.0,0.0,0.0,-0.0,0.0,0.125,1.6113279600000001,0.01,0.0,0.4300000071525574,-0.800000011920929,73.6500015258789,-0.01593017578125,0.010498046875,1.015380859375,35.7400016784668,0.0,2.0,-1.347381591796875,-2.3772735595703125,Closing,0.0,0.0,-189.0,0.0,0.0,0.0,0.0,0.0,
15.131109999999985,0.0,0.0,51244.0,0.0,0.0,0.0,0.0,0.125,0.826415931,0.01,0.0,-37538.0,0.0,0.0,-0.0,0.0,0.125,0.534667914,0.01,0.0,40173.0,0.0,0.0,0.0,0.0,0.0,3.3618160620000004,0.01,0.0,-16448.0,0.0,0.0,-0.0,0.0,0.125,1.612548663,0.01,0.0,0.4300000071525574,-0.800000011920929,73.6500015258789,-0.0146484375,0.01129150390625,1.01812744140625,35.779998779296875,0.0,3.0,-1.347381591796875,-2.3772735595703125,Closing,0.0,0.0,-189.0,0.0,0.0,0.0,0.0,0.0,
15.264986999999994,0.0,0.0,51244.0,0.0,0.0,0.0,0.0,0.125,0.826415931,0.01,0.0,-37538.0,0.0,0.0,-0.0,0.0,0.125,0.535888617,0.01,0.0,40173.0,0.0,0.0,0.0,0.0,0.0,3.3630367650000004,0.01,0.0,-16448.0,0.0,0.0,-0.0,0.0,0.125,1.612548663,0.01,0.0,0.4399999976158142,-0.800000011920929,73.6500015258789,-0.0150146484375,0.006103515625,1.02001953125,35.779998779296875,0.0,-1.0,-1.347381591796875,-2.3772735595703125,Closing,0.0,0.0,-189.0,0.0,0.0,0.0,0.0,0.0,
15.388908999999986,0.0,0.0,51244.0,0.0,0.0,0.0,0.0,0.125,0.826415931,0.01,0.0,-37538.0,0.0,0.0,-0.0,0.0,0.125,0.535888617,0.01,0.0,40173.0,0.0,0.0,0.0,0.0,0.0,3.3618160620000004,0.01,0.0,-16448.0,0.0,0.0,-0.0,0.0,0.125,1.612548663,0.01,0.0,0.4300000071525574,-0.800000011920929,73.6500015258789,-0.0152587890625,0.0084228515625,1.01806640625,35.779998779296875,0.0,0.0,-1.347381591796875,-2.3772735595703125,Closing,0.0,0.0,-189.0,0.0,0.0,0.0,0.0,0.0,
15.521381999999983,0.0,0.0,51244.0,0.0,0.0,0.0,0.0,0.125,0.826415931,0.01,0.0,-37538.0,0.0,0.0,-0.0,0.0,0.125,0.534667914,0.01,0.0,40173.0,0.0,0.0,0.0,0.0,0.0,3.3630367650000004,0.01,0.0,-16448.0,0.0,0.0,-0.0,0.0,0.125,1.612548663,0.01,0.0,0.4300000071525574,-0.800000011920929,73.66000366210938,-0.01580810546875,0.01025390625,1.01953125,35.779998779296875,0.0,2.0,-1.347381591796875,-2.3772735595703125,Closing,0.0,0.0,-189.0,0.0,0.0,0.0,0.0,0.0,
15.663426999999997,0.0,0.0,51244.0,0.0,0.0,0.0,0.0,0.125,0.826415931,0.01,0.0,-37538.0,0.0,0.0,-0.0,0.0,0.125,0.535888617,0.01,0.0,40173.0,0.0,0.0,0.0,0.0,0.0,3.3630367650000004,0.01,0.0,-16448.0,0.0,0.0,-0.0,0.0,0.125,1.6113279600000001,0.01,0.0,0.4300000071525574,-0.8100000023841858,73.66999816894531,-0.01507568359375,0.0068359375,1.020751953125,35.75,0.0,-1.0,-1.347381591796875,-2.3772735595703125,Closing,0.0,0.0,-189.0,0.0,0.0,0.0,0.0,0.0,
15.801016000000002,0.0,0.0,51244.0,0.0,0.0,0.0,0.0,0.125,0.826415931,0.01,0.0,-37538.0,0.0,0.0,-0.0,0.0,0.125,0.534667914,0.01,0.0,40173.0,0.0,0.0,0.0,0.0,0.0,3.3618160620000004,0.01,0.0,-16448.0,0.0,0.0,-0.0,0.0,0.125,1.6113279600000001,0.01,0.0,0.4300000071525574,-0.8100000023841858,73.66999816894531,-0.0155029296875,0.00555419921875,1.01971435546875,35.75,0.0,-2.0,-1.347381591796875,-2.3772735595703125,Closing,0.0,0.0,-189.0,0.0,0.0,0.0,0.0,0.0,
15.932340999999985,0.0,0.0,51244.0,0.0,0.0,0.0,0.0,0.125,0.826415931,0.01,0.0,-37538.0,0.0,0.0,-0.0,0.0,0.125,0.535888617,0.01,0.0,40173.0,0.0,0.0,0.0,0.0,0.0,3.3630367650000004,0.01,0.0,-16448.0,0.0,0.0,-0.0,0.0,0.125,1.6113279600000001,0.01,0.0,0.4300000071525574,-0.800000011920929,73.66999816894531,-0.01483154296875,0.0084228515625,1.0196533203125,35.75,0.0,0.0,-1.347381591796875,-2.3772735595703125,Closing,0.0,0.0,-189.0,0.0,0.0,0.0,0.0,0.0,
16.064877000000006,0.0,0.0,51244.0,0.0,0.0,0.0,0.0,0.125,0.826415931,0.01,0.0,-37538.0,0.0,0.0,-0.0,0.0,0.125,0.534667914,0.01,0.0,40173.0,0.0,0.0,0.0,0.0,0.0,3.3630367650000004,0.01,0.0,-16448.0,0.0,0.0,-0.0,0.0,0.125,1.6113279600000001,0.01,0.0,0.4300000071525574,-0.8100000023841858,73.66999816894531,-0.015380859375,0.007080078125,1.02392578125,35.75,0.0,0.0,-1.347381591796875,-2.3772735595703125,Closing,0.0,0.0,-189.0,0.0,0.0,0.0,0.0,0.0,
