Time,ClimberA1,ClimberA2,FRpos,FRCurrent,FRspeed,FRsetpoint,FRApos,FRACurrent,FREncpos,FREncSetpoint,FREncSpeed,FLpos,FLCurrent,FLspeed,FLsetpoint,FLApos,FLACurrent,FLEncpos,FLEncSetpoint,FLEncSpeed,BRpos,BRCurrent,BRspeed,BRsetpoint,BRApos,BRACurrent,BREncpos,BREncSetpoint,BREncSpeed,BLpos,BLCurrent,BLspeed,BLsetpoint,BLApos,BLACurrent,BLEncpos,BLEncSetpoint,BLEncSpeed,navx_Pitch,navx_Roll,navx_Yaw,navx_XAcc,navx_YAcc,navx_ZAcc,navx_Temp,navx_Bar,navx_Alt,navx_XDis,navx_YDis,GearPlacerState,ShootOutputV,ShootOutputCurrent,ShootEncPos,ShootEncVelocity,ShootSpeed,ShootSetpoint,CarouselSetpoint,CarouselCurrent,
0.1859760000000024,0.0,0.0,133358.0,7.625,112.5,840.0,0.0,5.0,3.3642574680000004,2.3973479936727653,0.0,-132693.0,13.625,-112.5,-840.0,0.0,0.875,2.9040524370000003,2.4126679786882423,0.0,121085.0,7.25,97.5,840.0,0.0,0.125,0.780029217,2.4013088603846255,0.0,-114260.0,8.375,-112.5,-840.0,0.0,0.5,3.9978023250000003,2.409863438140024,0.0,-0.11999999731779099,-1.2799999713897705,-56.04999923706055,-0.1510009765625,0.09442138671875,0.95574951171875,35.83000183105469,0.0,-152.0,-7.573211669921875,-3.0574798583984375,Opening,0.0,0.0,-189.0,0.0,0.0,0.0,0.0,0.0,
0.3594910000000018,0.0,0.0,133393.0,1.5,172.5,0.0,0.0,2.125,3.774413676,0.01,0.0,-132750.0,2.25,-202.5,-0.0,0.0,2.625,2.188720479,0.01,0.0,121134.0,1.375,187.5,0.0,0.0,1.75,0.11840819100000001,0.01,0.0,-114286.0,1.625,-172.5,-0.0,0.0,1.5,3.2226559200000002,0.01,0.0,0.2199999988079071,-1.2899999618530273,-56.4900016784668,0.156494140625,-0.0504150390625,0.98406982421875,35.83000183105469,0.0,143.0,-7.5798492431640625,-3.060791015625,Closing,0.0,0.0,-189.0,0.0,0.0,0.0,0.0,0.0,
0.4836319999999978,0.0,0.0,133404.0,2.5,-30.0,0.0,0.0,1.5,4.664306163,0.01,0.0,-132768.0,1.875,-150.0,-0.0,0.0,1.5,1.2890623680000002,0.01,0.0,121154.0,1.25,105.0,0.0,0.0,1.625,4.205321835,0.01,0.0,-114291.0,1.875,-22.5,-0.0,0.0,1.875,2.313232185,0.01,0.0,0.10000000149011612,-0.5899999737739563,-56.900001525878906,-0.02520751953125,0.03228759765625,0.96417236328125,35.83000183105469,0.0,-33.0,-7.5820465087890625,-3.0546417236328125,Closing,0.0,0.0,-189.0,0.0,0.0,0.0,0.0,0.0,
0.6264519999999975,0.0,0.0,133385.0,3.75,-82.5,0.0,0.0,2.0,0.70800774,0.01,0.0,-132781.0,2.0,-75.0,-0.0,0.0,0.5,0.40771480200000004,0.01,0.0,121180.0,0.875,165.0,0.0,0.0,0.875,3.2739254460000002,0.01,0.0,-114301.0,1.75,-52.5,-0.0,0.0,0.875,1.467285006,0.01,0.0,-0.05000000074505806,-0.36000001430511475,-56.630001068115234,0.10638427734375,-0.10943603515625,0.908935546875,35.849998474121094,0.0,152.0,-7.58062744140625,-3.05389404296875,Closing,0.0,0.0,-189.0,0.0,0.0,0.0,0.0,0.0,
0.7612050000000018,0.0,0.0,133405.0,2.25,112.5,0.0,0.0,0.375,0.9887694300000001,0.01,0.0,-132805.0,1.125,-150.0,-0.0,0.0,0.25,0.262451145,0.01,0.0,121207.0,0.5,165.0,0.0,0.0,0.0,3.066405936,0.01,0.0,-114322.0,1.0,-142.5,-0.0,0.0,0.25,1.405029153,0.01,0.0,-0.38999998569488525,-0.09000000357627869,-56.540000915527344,-0.033203125,0.006103515625,1.016357421875,35.849998474121094,0.0,-28.0,-7.56884765625,-3.051483154296875,Closing,0.0,0.0,-189.0,0.0,0.0,0.0,0.0,0.0,
0.8947300000000032,0.0,0.0,133435.0,1.25,187.5,0.0,0.0,0.375,0.943603419,0.01,0.0,-132821.0,0.875,-75.0,-0.0,0.0,0.25,0.391845663,0.01,0.0,121239.0,0.375,165.0,0.0,0.0,0.25,3.304443021,0.01,0.0,-114338.0,1.25,-22.5,-0.0,0.0,0.375,1.6357420200000001,0.01,0.0,-0.20999999344348907,-0.5199999809265137,-57.29999923706055,-0.066162109375,0.00299072265625,0.99151611328125,35.849998474121094,0.0,-36.0,-7.5566864013671875,-3.053558349609375,Closing,0.0,0.0,-189.0,0.0,0.0,0.0,0.0,0.0,
1.029586000000003,0.0,0.0,133445.0,1.375,60.0,0.0,0.0,0.25,0.8544921000000001,0.01,0.0,-132836.0,0.875,-82.5,-0.0,0.0,0.25,0.509033151,0.01,0.0,121248.0,0.5,37.5,0.0,0.0,0.0,3.397216449,0.01,0.0,-114344.0,0.75,-97.5,-0.0,0.0,0.25,1.699218576,0.01,0.0,-0.14000000059604645,-0.6499999761581421,-57.209999084472656,-0.02642822265625,-0.01629638671875,1.03857421875,35.849998474121094,0.0,3.0,-7.5528106689453125,-3.05706787109375,Closing,0.0,0.0,-189.0,0.0,0.0,0.0,0.0,0.0,
1.1559660000000003,0.0,0.0,133451.0,1.5,30.0,0.0,0.0,0.25,0.8410643670000001,0.01,0.0,-132842.0,1.0,-30.0,-0.0,0.0,0.125,0.496826121,0.01,0.0,121255.0,0.5,30.0,0.0,0.0,0.125,3.382568013,0.01,0.0,-114368.0,0.625,-60.0,-0.0,0.0,0.25,1.645507644,0.01,0.0,-0.14000000059604645,-0.75,-57.220001220703125,-0.0257568359375,-0.009521484375,1.03985595703125,35.869998931884766,0.0,0.0,-7.5529327392578125,-3.0577392578125,Closing,0.0,0.0,-189.0,0.0,0.0,0.0,0.0,0.0,
1.293900999999998,0.0,0.0,133454.0,1.5,15.0,0.0,0.0,0.25,0.8422850700000001,0.01,0.0,-132846.0,0.875,-15.0,-0.0,0.0,0.125,0.489501903,0.01,0.0,121258.0,0.5,7.5,0.0,0.0,0.125,3.3789059040000002,0.01,0.0,-114372.0,1.0,-15.0,-0.0,0.0,0.25,1.645507644,0.01,0.0,-0.15000000596046448,-0.7699999809265137,-57.209999084472656,-0.01336669921875,-0.01007080078125,0.99578857421875,35.869998931884766,0.0,6.0,-7.5529327392578125,-3.05780029296875,Closing,0.0,0.0,-189.0,0.0,0.0,0.0,0.0,0.0,
1.4289890000000014,0.0,0.0,133456.0,1.5,7.5,0.0,0.0,0.25,0.8410643670000001,0.01,0.0,-132848.0,0.875,-7.5,-0.0,0.0,0.125,0.498046824,0.01,0.0,121260.0,0.5,15.0,0.0,0.0,0.125,3.3776852010000002,0.01,0.0,-114376.0,1.0,-7.5,-0.0,0.0,0.25,1.650390456,0.01,0.0,-0.12999999523162842,-0.7900000214576721,-57.220001220703125,-0.0223388671875,-0.003173828125,1.03497314453125,35.869998931884766,0.0,-3.0,-7.5529327392578125,-3.05780029296875,Closing,0.0,0.0,-189.0,0.0,0.0,0.0,0.0,0.0,
1.561127999999997,0.0,0.0,133458.0,1.5,7.5,0.0,0.0,0.25,0.8410643670000001,0.01,0.0,-132852.0,1.0,-15.0,-0.0,0.0,0.125,0.498046824,0.01,0.0,121263.0,0.5,7.5,0.0,0.0,0.125,3.3776852010000002,0.01,0.0,-114377.0,0.75,-7.5,-0.0,0.0,0.25,1.646728347,0.01,0.0,-0.12999999523162842,-0.7799999713897705,-57.189998626708984,-0.0169677734375,3.0517578125E-4,1.03240966796875,35.869998931884766,0.0,-3.0,-7.5529327392578125,-3.05780029296875,Closing,0.0,0.0,-189.0,0.0,0.0,0.0,0.0,0.0,
1.6949029999999985,0.0,0.0,133459.0,1.5,0.0,0.0,0.0,0.25,0.8410643670000001,0.01,0.0,-132853.0,0.875,0.0,-0.0,0.0,0.125,0.498046824,0.01,0.0,121264.0,0.5,0.0,0.0,0.0,0.125,3.3776852010000002,0.01,0.0,-114378.0,0.75,0.0,-0.0,0.0,0.25,1.6552732680000002,0.01,0.0,-0.12999999523162842,-0.8100000023841858,-57.20000076293945,-0.00994873046875,-0.0040283203125,1.033203125,35.849998474121094,0.0,3.0,-7.5529327392578125,-3.05780029296875,Closing,0.0,0.0,-189.0,0.0,0.0,0.0,0.0,0.0,
1.8284990000000034,0.0,0.0,133459.0,1.5,7.5,0.0,0.0,0.25,0.8410643670000001,0.01,0.0,-132855.0,0.875,-7.5,-0.0,0.0,0.125,0.498046824,0.01,0.0,121265.0,0.5,7.5,0.0,0.0,0.125,3.3789059040000002,0.01,0.0,-114380.0,0.75,-7.5,-0.0,0.0,0.25,1.6601560800000001,0.01,0.0,-0.11999999731779099,-0.7699999809265137,-57.18000030517578,-0.007568359375,-0.00274658203125,1.03076171875,35.849998474121094,0.0,3.0,-7.5529327392578125,-3.05780029296875,Closing,0.0,0.0,-189.0,0.0,0.0,0.0,0.0,0.0,
1.9618609999999972,0.0,0.0,133464.0,1.375,15.0,0.0,0.0,0.25,0.837402258,0.01,0.0,-132857.0,0.75,-7.5,-0.0,0.0,0.125,0.498046824,0.01,0.0,121267.0,0.5,7.5,0.0,0.0,0.125,3.3776852010000002,0.01,0.0,-114382.0,0.875,-15.0,-0.0,0.0,0.25,1.651611159,0.01,0.0,-0.10999999940395355,-0.7699999809265137,-57.18000030517578,-0.00482177734375,-0.0015869140625,1.03546142578125,35.849998474121094,0.0,4.0,-7.5529327392578125,-3.05780029296875,Closing,0.0,0.0,-189.0,0.0,0.0,0.0,0.0,0.0,
2.094603000000003,0.0,0.0,133466.0,1.375,15.0,0.0,0.0,0.25,0.8312987430000001,0.01,0.0,-132859.0,0.875,-7.5,-0.0,0.0,0.125,0.498046824,0.01,0.0,121270.0,0.5,7.5,0.0,0.0,0.125,3.3776852010000002,0.01,0.0,-114384.0,0.75,-7.5,-0.0,0.0,0.25,1.6589353770000002,0.01,0.0,-0.10999999940395355,-0.7900000214576721,-57.15999984741211,-0.01513671875,-0.00830078125,1.0267333984375,35.86000061035156,0.0,4.0,-7.5529327392578125,-3.05780029296875,Closing,0.0,0.0,-189.0,0.0,0.0,0.0,0.0,0.0,
2.227468000000001,0.0,0.0,133468.0,1.375,7.5,0.0,0.0,0.25,0.8288573370000001,0.01,0.0,-132861.0,0.875,-7.5,-0.0,0.0,0.125,0.498046824,0.01,0.0,121272.0,0.5,7.5,0.0,0.0,0.125,3.3776852010000002,0.01,0.0,-114385.0,0.625,-7.5,-0.0,0.0,0.25,1.651611159,0.01,0.0,-0.10999999940395355,-0.800000011920929,-57.189998626708984,-0.0146484375,0.0020751953125,1.0218505859375,35.86000061035156,0.0,-3.0,-7.5529327392578125,-3.05780029296875,Closing,0.0,0.0,-189.0,0.0,0.0,0.0,0.0,0.0,
2.3601330000000016,0.0,0.0,133469.0,1.375,0.0,0.0,0.0,0.25,0.8276366340000001,0.01,0.0,-132862.0,0.75,-7.5,-0.0,0.0,0.125,0.496826121,0.01,0.0,121273.0,0.5,0.0,0.0,0.0,0.125,3.3764644980000003,0.01,0.0,-114387.0,0.75,-7.5,-0.0,0.0,0.25,1.650390456,0.01,0.0,-0.10000000149011612,-0.7900000214576721,-57.16999816894531,-0.0135498046875,-3.0517578125E-4,1.0345458984375,35.86000061035156,0.0,0.0,-7.5529327392578125,-3.05780029296875,Closing,0.0,0.0,-189.0,0.0,0.0,0.0,0.0,0.0,
2.4939429999999994,0.0,0.0,133471.0,1.375,7.5,0.0,0.0,0.125,0.832519446,0.01,0.0,-132863.0,0.75,-15.0,-0.0,0.0,0.125,0.498046824,0.01,0.0,121275.0,0.5,0.0,0.0,0.0,0.125,3.3776852010000002,0.01,0.0,-114388.0,0.75,-7.5,-0.0,0.0,0.25,1.650390456,0.01,0.0,-0.10000000149011612,-0.7900000214576721,-57.130001068115234,-0.01129150390625,0.00457763671875,1.0003662109375,35.86000061035156,0.0,-4.0,-7.5529327392578125,-3.05780029296875,Closing,0.0,0.0,-189.0,0.0,0.0,0.0,0.0,0.0,
2.6283810000000014,0.0,0.0,133472.0,1.375,7.5,0.0,0.0,0.25,0.826415931,0.01,0.0,-132867.0,0.75,-7.5,-0.0,0.0,0.125,0.496826121,0.01,0.0,121275.0,0.375,7.5,0.0,0.0,0.125,3.3776852010000002,0.01,0.0,-114391.0,0.75,0.0,-0.0,0.0,0.25,1.650390456,0.01,0.0,-0.10000000149011612,-0.8100000023841858,-57.15999984741211,-0.01025390625,-0.00152587890625,1.01373291015625,35.86000061035156,0.0,1.0,-7.5529327392578125,-3.05780029296875,Closing,0.0,0.0,-189.0,0.0,0.0,0.0,0.0,0.0,
2.7613410000000003,0.0,0.0,133473.0,1.375,0.0,0.0,0.0,0.25,0.826415931,0.01,0.0,-132868.0,0.75,0.0,-0.0,0.0,0.125,0.496826121,0.01,0.0,121277.0,0.5,0.0,0.0,0.0,0.125,3.3776852010000002,0.01,0.0,-114391.0,0.75,0.0,-0.0,0.0,0.25,1.650390456,0.01,0.0,-0.09000000357627869,-0.8299999833106995,-57.15999984741211,-0.02020263671875,-0.00439453125,1.02349853515625,35.86000061035156,0.0,0.0,-7.5529327392578125,-3.05780029296875,Closing,0.0,0.0,-189.0,0.0,0.0,0.0,0.0,0.0,
2.891497000000003,0.0,0.0,133473.0,1.5,0.0,0.0,0.0,0.25,0.826415931,0.01,0.0,-132868.0,0.75,0.0,-0.0,0.0,0.125,0.498046824,0.01,0.0,121277.0,0.5,0.0,0.0,0.0,0.125,3.3776852010000002,0.01,0.0,-114391.0,0.75,0.0,-0.0,0.0,0.25,1.650390456,0.01,0.0,-0.10000000149011612,-0.8199999928474426,-57.15999984741211,-0.0130615234375,-0.00286865234375,1.01751708984375,35.86000061035156,0.0,1.0,-7.5529327392578125,-3.05780029296875,Closing,0.0,0.0,-189.0,0.0,0.0,0.0,0.0,0.0,
2.954222999999998,0.0,0.0,133473.0,1.5,0.0,0.0,0.0,0.25,0.8288573370000001,0.01,-0.0012207029999999897,-132868.0,0.75,0.0,-0.0,0.0,0.125,0.498046824,0.01,0.0,121277.0,0.375,0.0,0.0,0.0,0.125,3.3764644980000003,0.01,0.0,-114391.0,0.75,0.0,-0.0,0.0,0.25,1.650390456,0.01,-0.0012207029999999897,-0.09000000357627869,-0.8199999928474426,-57.150001525878906,-0.01708984375,-9.765625E-4,1.02313232421875,35.86000061035156,0.0,-1.0,-7.5529327392578125,-3.05780029296875,Closing,0.0,0.0,-189.0,0.0,0.0,0.0,0.0,0.0,
3.094953000000001,0.0,0.0,133473.0,1.5,0.0,0.0,0.0,0.25,0.819091713,0.01,0.0,-132868.0,0.75,0.0,-0.0,0.0,0.125,0.496826121,0.01,0.0,121277.0,0.5,0.0,0.0,0.0,0.125,3.3764644980000003,0.01,0.0,-114391.0,0.75,0.0,-0.0,0.0,0.25,1.650390456,0.01,0.0,-0.07999999821186066,-0.8199999928474426,-57.150001525878906,-0.01220703125,-3.662109375E-4,1.01690673828125,35.86000061035156,0.0,0.0,-7.5529327392578125,-3.05780029296875,Closing,0.0,0.0,-189.0,0.0,0.0,0.0,0.0,0.0,
3.225714,0.0,0.0,133473.0,1.5,0.0,0.0,0.0,0.25,0.826415931,0.01,0.0,-132868.0,0.75,0.0,-0.0,0.0,0.125,0.498046824,0.01,0.0,121277.0,0.5,0.0,0.0,0.0,0.125,3.3776852010000002,0.01,0.0,-114391.0,0.75,0.0,-0.0,0.0,0.25,1.650390456,0.01,0.0,-0.09000000357627869,-0.8100000023841858,-57.13999938964844,-0.0096435546875,1.220703125E-4,1.02618408203125,35.869998931884766,0.0,1.0,-7.5529327392578125,-3.05780029296875,Closing,0.0,0.0,-189.0,0.0,0.0,0.0,0.0,0.0,
3.361747000000003,0.0,0.0,133474.0,1.375,0.0,0.0,0.0,0.25,0.826415931,0.01,0.0,-132869.0,0.75,0.0,-0.0,0.0,0.125,0.496826121,0.01,0.0,121278.0,0.375,0.0,0.0,0.0,0.125,3.383788716,0.01,0.0,-114392.0,0.75,0.0,-0.0,0.0,0.25,1.650390456,0.01,0.0,-0.09000000357627869,-0.8100000023841858,-57.130001068115234,-0.01568603515625,-0.005126953125,1.014892578125,35.869998931884766,0.0,2.0,-7.5529327392578125,-3.05780029296875,Closing,0.0,0.0,-189.0,0.0,0.0,0.0,0.0,0.0,
3.4944519999999977,0.0,0.0,133474.0,1.375,0.0,0.0,0.0,0.25,0.8288573370000001,0.01,0.0,-132869.0,0.75,0.0,-0.0,0.0,0.125,0.495605418,0.01,0.0,121278.0,0.5,0.0,0.0,0.0,0.125,3.3776852010000002,0.01,-0.0012207029999999897,-114392.0,0.75,0.0,-0.0,0.0,0.25,1.650390456,0.01,0.0,-0.07999999821186066,-0.8199999928474426,-57.130001068115234,-0.0137939453125,-0.00238037109375,1.019287109375,35.869998931884766,0.0,1.0,-7.5529327392578125,-3.05780029296875,Closing,0.0,0.0,-189.0,0.0,0.0,0.0,0.0,0.0,
3.624756999999998,0.0,0.0,133474.0,1.375,0.0,0.0,0.0,0.25,0.8276366340000001,0.01,0.0,-132870.0,0.75,0.0,-0.0,0.0,0.125,0.498046824,0.01,0.0,121278.0,0.375,0.0,0.0,0.0,0.125,3.3789059040000002,0.01,0.0,-114393.0,0.75,0.0,-0.0,0.0,0.25,1.650390456,0.01,0.0,-0.07999999821186066,-0.8100000023841858,-57.119998931884766,-0.0135498046875,-0.00689697265625,1.0130615234375,35.869998931884766,0.0,4.0,-7.5529327392578125,-3.05780029296875,Closing,0.0,0.0,-189.0,0.0,0.0,0.0,0.0,0.0,
3.6838309999999983,0.0,0.0,133475.0,1.375,0.0,0.0,0.0,0.25,0.826415931,0.01,0.0,-132870.0,0.75,0.0,-0.0,0.0,0.125,0.498046824,0.01,0.0,121278.0,0.5,0.0,0.0,0.0,0.125,3.3776852010000002,0.01,0.0012207029999999897,-114393.0,0.75,0.0,-0.0,0.0,0.25,1.650390456,0.01,0.0012207029999999897,-0.07999999821186066,-0.8100000023841858,-57.119998931884766,-0.0133056640625,3.0517578125E-4,1.02099609375,35.849998474121094,0.0,-1.0,-7.5529327392578125,-3.05780029296875,Closing,0.0,0.0,-189.0,0.0,0.0,0.0,0.0,0.0,
3.8257320000000035,0.0,0.0,133475.0,1.375,0.0,0.0,0.0,0.25,0.8276366340000001,0.01,0.0,-132870.0,0.75,0.0,-0.0,0.0,0.125,0.498046824,0.01,0.0,121278.0,0.375,7.5,0.0,0.0,0.125,3.3715816860000003,0.01,0.0,-114393.0,0.75,0.0,-0.0,0.0,0.25,1.650390456,0.01,0.0,-0.07999999821186066,-0.8100000023841858,-57.119998931884766,-0.01849365234375,7.32421875E-4,1.02532958984375,35.849998474121094,0.0,-3.0,-7.5529327392578125,-3.05780029296875,Closing,0.0,0.0,-189.0,0.0,0.0,0.0,0.0,0.0,
3.961476999999999,0.0,0.0,133475.0,1.5,0.0,0.0,0.0,0.25,0.8276366340000001,0.01,0.0,-132870.0,0.75,0.0,-0.0,0.0,0.125,0.5017089330000001,0.01,0.0,121279.0,0.5,0.0,0.0,0.0,0.125,3.3776852010000002,0.01,0.0,-114393.0,0.75,0.0,-0.0,0.0,0.25,1.6601560800000001,0.01,0.0,-0.07000000029802322,-0.8100000023841858,-57.119998931884766,-0.0152587890625,-0.0023193359375,1.0242919921875,35.849998474121094,0.0,0.0,-7.5529327392578125,-3.05780029296875,Closing,0.0,0.0,-189.0,0.0,0.0,0.0,0.0,0.0,
4.095194000000003,0.0,0.0,133475.0,1.5,0.0,0.0,0.0,0.25,0.826415931,0.01,0.0,-132870.0,0.75,0.0,-0.0,0.0,0.125,0.498046824,0.01,0.0,121279.0,0.5,0.0,0.0,0.0,0.125,3.3789059040000002,0.01,0.0,-114393.0,0.75,0.0,-0.0,0.0,0.25,1.651611159,0.01,0.0,-0.07000000029802322,-0.8100000023841858,-57.119998931884766,-0.0135498046875,7.9345703125E-4,1.01678466796875,35.849998474121094,0.0,-1.0,-7.5529327392578125,-3.05780029296875,Closing,0.0,0.0,-189.0,0.0,0.0,0.0,0.0,0.0,
4.225747999999999,0.0,0.0,133475.0,1.5,0.0,0.0,0.0,0.25,0.8276366340000001,0.01,0.0,-132870.0,0.75,0.0,-0.0,0.0,0.125,0.498046824,0.01,0.0,121279.0,0.5,0.0,0.0,0.0,0.125,3.3776852010000002,0.01,0.0,-114393.0,0.75,0.0,-0.0,0.0,0.25,1.650390456,0.01,0.0,-0.07000000029802322,-0.8100000023841858,-57.11000061035156,-0.01580810546875,-1.8310546875E-4,1.0224609375,35.869998931884766,0.0,-1.0,-7.5529327392578125,-3.05780029296875,Closing,0.0,0.0,-189.0,0.0,0.0,0.0,0.0,0.0,
4.360413999999997,0.0,0.0,133475.0,1.625,0.0,0.0,0.0,0.25,0.833740149,0.01,0.0,-132870.0,0.75,0.0,-0.0,0.0,0.125,0.498046824,0.01,0.0,121279.0,0.5,0.0,0.0,0.0,0.125,3.3776852010000002,0.01,0.0,-114393.0,0.875,0.0,-0.0,0.0,0.25,1.651611159,0.01,0.0,-0.07000000029802322,-0.8100000023841858,-57.099998474121094,-0.01373291015625,-0.00311279296875,1.017578125,35.869998931884766,0.0,1.0,-7.5529327392578125,-3.05780029296875,Closing,0.0,0.0,-189.0,0.0,0.0,0.0,0.0,0.0,
4.494739999999998,0.0,0.0,133470.0,0.125,-15.0,-714.3307435512543,0.0,0.25,0.8178710100000001,4.932250999999998,0.0,-132858.0,1.0,135.0,714.3307435512543,0.0,0.0,0.5029296360000001,4.963769999999998,0.0,121277.0,1.25,-45.0,-714.3307435512543,0.0,0.125,3.382568013,0.01,0.0,-114389.0,0.875,135.0,714.3307435512543,0.0,0.25,1.625976396,0.01,0.0,-0.03999999910593033,-1.059999942779541,-57.11000061035156,-0.095947265625,-0.144287109375,0.94439697265625,35.869998931884766,0.0,78.0,-7.5537109375,-3.0587921142578125,Closing,0.0,0.0,-189.0,0.0,0.0,0.0,0.0,0.0,
4.624894999999997,0.0,0.0,133430.0,2.0,-240.0,-1011.9684720039367,0.0,0.25,0.837402258,4.932250999999998,0.0,-132831.0,7.625,135.0,1011.9684720039367,0.0,0.125,0.496826121,4.963769999999998,0.0,121258.0,6.25,-105.0,-1011.9684720039367,0.0,0.125,3.4216305090000003,0.01,0.0,-114359.0,4.625,142.5,1011.9684720039367,0.0,0.125,1.613769366,0.01,0.0,-0.05000000074505806,-1.600000023841858,-57.29999923706055,-0.1419677734375,-0.04833984375,0.990478515625,35.869998931884766,0.0,-21.0,-7.558349609375,-3.065032958984375,Closing,0.0,0.0,-189.0,0.0,0.0,0.0,0.0,0.0,
4.761300000000003,0.0,0.0,133376.0,3.75,-382.5,-1031.8110573291779,0.0,0.25,0.836181555,4.932250999999998,0.0,-132786.0,11.125,435.0,1031.8110573291779,0.0,0.125,0.498046824,4.963769999999998,0.0,121227.0,10.0,-337.5,-1031.8110573291779,0.0,0.125,3.406982073,0.01,0.0,-114319.0,6.875,375.0,1031.8110573291779,0.0,0.125,1.617431475,0.01,0.0,-0.10999999940395355,-2.509999990463257,-57.45000076293945,-0.254638671875,0.0335693359375,1.031005859375,35.869998931884766,0.0,-142.0,-7.5711517333984375,-3.0851287841796875,Closing,0.0,0.0,-189.0,0.0,0.0,0.0,0.0,0.0,
4.895804000000004,0.0,0.0,133281.0,3.75,-637.5,-1031.8110573291779,0.0,0.25,0.837402258,4.932250999999998,0.0,-132691.0,9.125,720.0,1031.8110573291779,0.0,0.125,0.49926752700000004,4.963769999999998,0.0,121142.0,9.25,-600.0,-1031.8110573291779,0.0,0.125,3.40576137,0.01,0.0,-114111.0,5.875,742.5,1031.8110573291779,0.0,0.125,1.617431475,0.01,0.0,-0.12999999523162842,-3.1700000762939453,-57.86000061035156,-0.093017578125,0.10028076171875,0.9586181640625,35.869998931884766,0.0,-107.0,-7.597930908203125,-3.1272125244140625,Closing,0.0,0.0,-189.0,0.0,0.0,0.0,0.0,0.0,
5.026762999999999,0.0,0.0,133153.0,3.375,-825.0,-1031.8110573291779,0.0,0.25,0.852050694,4.932250999999998,0.0,-132563.0,7.375,907.5,1031.8110573291779,0.0,0.125,0.5017089330000001,4.963769999999998,0.0,121033.0,9.125,-810.0,-1031.8110573291779,0.0,0.125,3.406982073,0.01,0.0,-113965.0,4.875,885.0,1031.8110573291779,0.0,0.125,1.616210772,0.01,0.0,-0.07999999821186066,-3.3399999141693115,-58.43000030517578,-0.09100341796875,-0.00213623046875,1.144287109375,35.869998931884766,0.0,-12.0,-7.618072509765625,-3.158782958984375,Closing,0.0,0.0,-189.0,0.0,0.0,0.0,0.0,0.0,
5.160444000000004,0.0,0.0,133014.0,3.375,-900.0,-1031.8110573291779,0.0,0.25,0.837402258,4.932250999999998,0.0,-132240.0,5.375,1020.0,1031.8110573291779,0.0,0.125,0.498046824,4.963769999999998,0.0,120777.0,11.125,-735.0,-1031.8110573291779,0.0,0.125,3.406982073,0.01,0.0,-113804.0,3.875,1005.0,1031.8110573291779,0.0,0.125,1.625976396,0.01,0.0,-0.15000000596046448,-3.2899999618530273,-59.40999984741211,-0.09686279296875,-0.0482177734375,0.8482666015625,35.869998931884766,0.0,15.0,-7.64593505859375,-3.1668853759765625,Closing,0.0,0.0,-189.0,0.0,0.0,0.0,0.0,0.0,
5.280516000000003,0.0,0.0,132863.0,3.25,-975.0,-1031.8110573291779,0.0,0.25,0.837402258,4.932250999999998,0.0,-132065.0,4.0,1102.5,1031.8110573291779,0.0,0.125,0.5029296360000001,4.963769999999998,0.0,120617.0,9.875,-982.5,-1031.8110573291779,0.0,0.125,3.406982073,0.01,0.0,-113628.0,3.0,1095.0,1031.8110573291779,0.0,0.125,1.650390456,0.01,0.0,-0.23000000417232513,-3.130000114440918,-60.33000183105469,-0.05267333984375,-0.2181396484375,1.05303955078125,35.880001068115234,0.0,188.0,-7.67474365234375,-3.16748046875,Closing,0.0,0.0,-189.0,0.0,0.0,0.0,0.0,0.0,
5.427821000000003,0.0,0.0,132701.0,2.25,-1072.5,-1031.8110573291779,0.0,0.25,0.836181555,4.932250999999998,0.0,-131883.0,2.375,1140.0,1031.8110573291779,0.0,0.125,0.5029296360000001,4.963769999999998,0.0,120442.0,7.625,-1102.5,-1031.8110573291779,0.0,0.125,3.402099261,0.01,0.0,-113451.0,2.375,1102.5,1031.8110573291779,0.0,0.25,1.669921704,0.01,0.0,-0.4000000059604645,-3.009999990463257,-60.939998626708984,0.08624267578125,-0.03857421875,1.02587890625,35.880001068115234,0.0,95.0,-7.7019500732421875,-3.17236328125,Closing,0.0,0.0,-189.0,0.0,0.0,0.0,0.0,0.0,
5.549631999999998,0.0,0.0,132344.0,1.25,-1125.0,-1031.8110573291779,0.0,0.25,0.837402258,4.932250999999998,0.0,-131699.0,1.5,1147.5,1031.8110573291779,0.0,0.0,0.532226508,4.963769999999998,0.0,120255.0,6.0,-1170.0,-1031.8110573291779,0.0,0.125,3.395995746,0.01,0.0,-113265.0,1.875,1132.5,1031.8110573291779,0.0,0.25,1.665038892,0.01,0.0,-0.5,-3.0,-61.099998474121094,-0.0811767578125,-0.00653076171875,1.02178955078125,35.880001068115234,0.0,-15.0,-7.7204437255859375,-3.1748504638671875,Closing,0.0,0.0,-189.0,0.0,0.0,0.0,0.0,0.0,
5.6833919999999996,0.0,0.0,132156.0,0.625,-1170.0,-1031.8110573291779,0.0,0.25,0.836181555,4.932250999999998,0.0,-131511.0,0.875,1162.5,1031.8110573291779,0.0,0.125,0.5407714290000001,4.963769999999998,0.0,120070.0,5.0,-1132.5,-1031.8110573291779,0.0,0.125,3.397216449,0.01,0.0,-113095.0,1.625,1095.0,1031.8110573291779,0.0,0.25,1.6601560800000001,0.01,0.0,-0.5099999904632568,-2.7200000286102295,-60.970001220703125,-0.0731201171875,-0.06109619140625,1.027587890625,35.880001068115234,0.0,33.0,-7.7186126708984375,-3.177459716796875,Closing,0.0,0.0,-189.0,0.0,0.0,0.0,0.0,0.0,
5.829190000000002,0.0,0.0,131972.0,0.375,-1147.5,-1031.8110573291779,0.0,0.25,0.837402258,4.932250999999998,0.0,-131335.0,1.125,1087.5,1031.8110573291779,0.0,0.25,0.546874944,4.963769999999998,0.0,119898.0,5.375,-1140.0,-1031.8110573291779,0.0,0.125,3.397216449,0.01,0.0,-112909.0,0.875,1132.5,1031.8110573291779,0.0,0.25,1.665038892,0.01,0.0,-0.44999998807907104,-2.4000000953674316,-60.650001525878906,-0.0269775390625,0.055419921875,0.95556640625,35.81999969482422,0.0,-48.0,-7.71771240234375,-3.178436279296875,Closing,0.0,0.0,-189.0,0.0,0.0,0.0,0.0,0.0,
5.963665999999997,0.0,0.0,131804.0,0.0,-1027.5,-575.433059334755,0.0,0.25,0.836181555,4.932250999999998,0.0,-131158.0,0.0,1027.5,575.433059334755,0.0,0.25,0.560302677,4.963769999999998,0.0,119716.0,0.625,-1117.5,-575.433059334755,0.0,0.125,3.398437152,0.01,0.0,-112728.0,0.375,1080.0,575.433059334755,0.0,0.25,1.669921704,0.01,0.0,-0.46000000834465027,-1.809999942779541,-60.45000076293945,0.0308837890625,-0.08056640625,1.06500244140625,35.81999969482422,0.0,94.0,-7.7174224853515625,-3.174652099609375,Closing,0.0,0.0,-189.0,0.0,0.0,0.0,0.0,0.0,
6.081843000000001,0.0,0.0,131641.0,0.0,-1005.0,0.0,0.0,0.25,0.834960852,4.932250999999998,0.0,-131003.0,0.125,937.5,0.0,0.0,0.25,0.570068301,4.963769999999998,0.0,119542.0,0.0,-937.5,0.0,0.0,0.125,3.397216449,0.01,0.0,-112562.0,0.125,952.5,0.0,0.0,0.25,1.669921704,0.01,0.0,-0.44999998807907104,-1.350000023841858,-60.20000076293945,0.01251220703125,-0.009033203125,1.36468505859375,35.81999969482422,0.0,20.0,-7.711700439453125,-3.15924072265625,Closing,0.0,0.0,-189.0,0.0,0.0,0.0,0.0,0.0,
6.165268000000004,0.0,0.0,131502.0,0.0,-892.5,0.0,0.0,0.25,0.836181555,4.932250999999998,0.0,-130862.0,0.125,840.0,0.0,0.0,0.25,0.545654241,4.963769999999998,0.0,119425.0,0.0,-690.0,0.0,0.0,0.125,3.392333637,0.01,0.0,-112421.0,0.125,840.0,0.0,0.0,0.25,1.669921704,0.01,0.0,-0.3400000035762787,-0.9300000071525574,-60.0099983215332,0.18084716796875,0.01239013671875,0.93975830078125,35.81999969482422,0.0,81.0,-7.7044830322265625,-3.1414031982421875,Closing,0.0,0.0,-189.0,0.0,0.0,0.0,0.0,0.0,
6.289252,0.0,0.0,131411.0,0.875,-585.0,-357.16537177562714,0.0,6.25,1.2121580790000002,1.2330627499999984,0.0,-130757.0,1.5,547.5,357.16537177562714,0.0,3.625,0.9582518550000001,1.2409424999999985,0.0,119323.0,0.875,-517.5,-357.16537177562714,0.0,6.25,3.868407807,1.2350999999999985,0.0,-112308.0,1.25,630.0,357.16537177562714,0.0,1.875,2.178954855,1.2394999999999985,0.0,-0.1899999976158142,0.47999998927116394,-60.06999969482422,0.45245361328125,-0.1260986328125,0.91571044921875,35.81999969482422,0.0,328.0,-7.6880035400390625,-3.1066436767578125,Closing,0.0,0.0,-189.0,0.0,0.0,0.0,0.0,0.0,
6.426093000000001,0.0,0.0,131362.0,0.125,-307.5,-833.3858048915863,0.0,1.25,2.1667478250000003,1.2330627499999984,0.0,-130712.0,0.875,270.0,833.3858048915863,0.0,1.0,2.0117185440000003,1.2409424999999985,0.0,119270.0,0.625,-300.0,-833.3858048915863,0.0,1.125,4.80956982,1.2350999999999985,0.0,-112259.0,1.25,195.0,833.3858048915863,0.0,1.25,3.131103195,1.2394999999999985,0.0,-0.5299999713897705,1.5800000429153442,-59.90999984741211,0.11181640625,-0.0672607421875,0.8502197265625,35.81999969482422,0.0,95.0,-7.63458251953125,-3.0592041015625,Closing,0.0,0.0,-189.0,0.0,0.0,0.0,0.0,0.0,
6.548338000000004,0.0,0.0,131302.0,1.0,-367.5,-833.3858048915863,0.0,2.5,2.784423543,1.2330627499999984,0.0,-130670.0,4.875,165.0,833.3858048915863,0.0,3.75,2.397460692,1.2409424999999985,0.0,119216.0,2.375,-277.5,-833.3858048915863,0.0,1.875,0.23315427300000002,1.2350999999999985,0.0,-112220.0,3.125,187.5,833.3858048915863,0.0,2.25,3.397216449,1.2394999999999985,0.0,-0.550000011920929,1.9800000190734863,-59.90999984741211,0.1513671875,0.00543212890625,1.0086669921875,35.81999969482422,0.0,45.0,-7.5997772216796875,-3.0575103759765625,Closing,0.0,0.0,-189.0,0.0,0.0,0.0,0.0,0.0,
6.682572,0.0,0.0,131262.0,2.875,-262.5,-833.3858048915863,0.0,1.875,2.369384523,1.2330627499999984,0.0,-130635.0,8.875,300.0,833.3858048915863,0.0,1.75,2.033691198,1.2409424999999985,0.0,119180.0,4.375,-262.5,-833.3858048915863,0.0,1.125,4.876708485,1.2350999999999985,0.0,-112190.0,5.0,307.5,833.3858048915863,0.0,0.875,3.082275075,1.2394999999999985,0.0,-1.2400000095367432,1.9700000286102295,-60.2400016784668,-0.07012939453125,-0.217041015625,1.08544921875,35.81999969482422,0.0,114.0,-7.554046630859375,-3.0537261962890625,Closing,0.0,0.0,-189.0,0.0,0.0,0.0,0.0,0.0,
6.761682,0.0,0.0,131203.0,1.5,-367.5,-297.63780355453486,0.0,0.5,2.0056150290000003,1.2330627499999984,0.0,-130569.0,3.25,427.5,297.63780355453486,0.0,0.5,1.717529121,1.2409424999999985,0.0,119118.0,2.375,-390.0,-297.63780355453486,0.0,0.25,4.586181171000001,1.2350999999999985,0.0,-112126.0,1.875,450.0,297.63780355453486,0.0,0.25,2.835693069,1.2394999999999985,0.0,-1.4700000286102295,1.2799999713897705,-60.349998474121094,-0.33966064453125,-0.06072998046875,1.08477783203125,35.779998779296875,0.0,-151.0,-7.5232391357421875,-3.0584564208984375,Closing,0.0,0.0,-189.0,0.0,0.0,0.0,0.0,0.0,
6.893557,0.0,0.0,131167.0,0.0,-277.5,0.0,0.0,0.375,1.848144342,1.2330627499999984,0.0,-130515.0,0.125,270.0,0.0,0.0,0.25,1.5783689790000002,1.2409424999999985,0.0,119068.0,0.0,-277.5,0.0,0.0,0.0,4.429931187,1.2350999999999985,0.0,-112076.0,0.125,247.5,0.0,0.0,0.25,2.7355954230000004,1.2394999999999985,0.0,-0.9200000166893005,0.7699999809265137,-60.27000045776367,0.04132080078125,0.3798828125,0.94610595703125,35.779998779296875,0.0,-328.0,-7.4842376708984375,-3.0665130615234375,Closing,0.0,0.0,-189.0,0.0,0.0,0.0,0.0,0.0,
7.024714,0.0,0.0,131148.0,8.0,-127.5,984.375,0.0,0.5,1.9250486310000001,1.2330627500000013,0.0,-130493.0,12.375,30.0,-984.375,0.0,0.25,1.597900227,1.2409425000000012,0.0,119049.0,7.25,-90.0,984.375,0.0,0.125,4.468993683,1.2351000000000012,0.0,-112030.0,10.75,97.5,-984.375,0.0,0.25,2.768554404,1.2395000000000012,0.0,0.550000011920929,1.100000023841858,-60.43000030517578,0.100830078125,0.47393798828125,0.4339599609375,35.779998779296875,0.0,-362.0,-7.4583740234375,-3.0589447021484375,Closing,0.0,0.0,-189.0,0.0,0.0,0.0,0.0,0.0,
7.161669999999998,0.0,0.0,131210.0,18.25,457.5,1673.4375,0.0,0.375,2.0153806530000002,1.2330627500000013,0.0,-130550.0,25.5,-570.0,-1673.4375,0.0,0.25,1.727294745,1.2409425000000012,0.0,119080.0,17.25,300.0,1673.4375,0.0,0.125,4.5483393780000005,1.2351000000000012,0.0,-112061.0,17.25,-532.5,-1673.4375,0.0,0.25,2.91748017,1.2395000000000012,0.0,2.5,0.6899999976158142,-60.52000045776367,-0.02105712890625,0.22955322265625,0.86737060546875,35.779998779296875,0.0,-182.0,-7.45867919921875,-3.0265045166015625,Closing,0.0,0.0,-189.0,0.0,0.0,0.0,0.0,0.0,
7.293775999999998,0.0,0.0,131366.0,12.0,1042.5,1496.25,0.0,0.125,2.054443149,1.2330627500000013,0.0,-130694.0,15.375,-1147.5,-1496.25,0.0,0.125,1.8676755900000002,1.2409425000000012,0.0,119163.0,16.625,817.5,1496.25,0.0,0.0,4.576415547,1.2351000000000012,0.0,-112177.0,13.375,-997.5,-1496.25,0.0,0.25,2.9504391510000003,1.2395000000000012,0.0,3.7699999809265137,0.30000001192092896,-61.529998779296875,-0.064208984375,0.22454833984375,0.62420654296875,35.779998779296875,0.0,-193.0,-7.490570068359375,-2.9908294677734375,Closing,0.0,0.0,-189.0,0.0,0.0,0.0,0.0,0.0,
7.425858,0.0,0.0,131584.0,3.25,1425.0,1102.5,0.0,0.25,2.055663852,1.2330627500000013,0.0,-130909.0,2.5,-1447.5,-1102.5,0.0,0.25,1.8627927780000002,1.2409425000000012,0.0,119257.0,19.0,847.5,1102.5,0.0,0.0,4.571532735,1.2351000000000012,0.0,-112556.0,6.125,-1230.0,-1102.5,0.0,0.25,2.9028317340000003,1.2395000000000012,0.0,3.9200000762939453,0.07999999821186066,-63.34000015258789,-0.1771240234375,-0.05682373046875,0.9549560546875,35.779998779296875,0.0,29.0,-7.5363006591796875,-2.959197998046875,Closing,0.0,0.0,-189.0,0.0,0.0,0.0,0.0,0.0,
7.560550999999999,0.0,0.0,131814.0,0.0,1290.0,0.0,0.0,0.25,2.0690915850000002,1.2330627500000013,0.0,-131140.0,0.0,-1297.5,0.0,0.0,0.25,1.755370914,1.2409425000000012,0.0,119595.0,0.0,1087.5,0.0,0.0,0.0,4.604491716,1.2351000000000012,0.0,-112742.0,0.125,-1125.0,0.0,0.0,0.25,2.86865205,1.2395000000000012,0.0,2.950000047683716,0.23000000417232513,-64.54000091552734,-0.0819091796875,0.08538818359375,1.06915283203125,35.779998779296875,0.0,-64.0,-7.57855224609375,-2.9350738525390625,Closing,0.0,0.0,-189.0,0.0,0.0,0.0,0.0,0.0,
7.696304000000004,0.0,0.0,131998.0,3.375,765.0,393.75,0.0,3.125,1.848144342,0.5498168668524888,0.0,-131469.0,7.125,-742.5,-393.75,0.0,2.125,1.901855274,1.9285545897722227,0.0,119698.0,14.375,630.0,-393.75,0.0,2.375,4.885253406,1.9194747329772885,0.0,-112871.0,20.875,-802.5,393.75,0.0,1.25,2.5268552100000004,0.5526872062785588,0.0,-0.11999999731779099,0.25,-64.54000091552734,-0.05010986328125,-0.5867919921875,1.67840576171875,35.779998779296875,0.0,501.0,-7.5921630859375,-2.9221343994140625,Closing,0.0,0.0,-189.0,0.0,0.0,0.0,0.0,0.0,
7.825216,0.0,0.0,132082.0,0.0,307.5,0.0,0.0,0.625,1.3464354090000001,0.5498168668524888,0.0,-131521.0,0.125,-330.0,0.0,0.0,0.75,2.456054436,1.9285545897722227,0.0,119718.0,0.0,112.5,0.0,0.0,0.375,0.358886682,1.9194747329772885,0.0,-112911.0,0.125,-247.5,0.0,0.0,0.625,2.13623025,0.5526872062785588,0.0,-1.7899999618530273,0.20000000298023224,-64.98999786376953,-0.03125,-0.04937744140625,0.89288330078125,35.709999084472656,0.0,4.0,-7.55877685546875,-2.9291229248046875,Closing,0.0,0.0,-189.0,0.0,0.0,0.0,0.0,0.0,
7.960828999999998,0.0,0.0,132118.0,0.0,7.5,0.0,0.0,0.25,1.168212771,0.5498168668524888,0.0,-131521.0,0.125,0.0,0.0,0.0,0.25,2.655029025,1.9285545897722227,0.0,119717.0,0.0,-7.5,0.0,0.0,0.125,0.47363276400000004,1.9194747329772885,0.0,-112908.0,0.125,7.5,0.0,0.0,0.5,2.0678708820000002,0.5526872062785588,0.0,-1.409999966621399,0.3100000023841858,-64.83999633789062,0.0223388671875,-0.03009033203125,0.99530029296875,35.709999084472656,0.0,12.0,-7.524261474609375,-2.9396514892578125,Closing,0.0,0.0,-189.0,0.0,0.0,0.0,0.0,0.0,
8.081173999999999,0.0,0.0,132118.0,0.0,0.0,0.0,0.0,0.375,1.260986199,0.5498168668524888,0.0,-131521.0,0.125,0.0,0.0,0.0,0.25,2.552489973,1.9285545897722227,0.0,119717.0,0.125,0.0,0.0,0.0,0.125,0.430908159,1.9194747329772885,0.0,-112908.0,0.125,0.0,0.0,0.0,0.25,2.144775171,0.5526872062785588,0.0,-1.399999976158142,0.12999999523162842,-64.9000015258789,-0.01318359375,0.044189453125,0.9549560546875,35.709999084472656,0.0,-67.0,-7.5245819091796875,-2.93975830078125,Closing,0.0,0.0,-189.0,0.0,0.0,0.0,0.0,0.0,
8.162696000000004,0.0,0.0,132118.0,3.625,37.5,1017.1875,0.0,0.375,1.3195799430000001,0.5498168668524888,0.0,-131538.0,5.0,-60.0,-1017.1875,0.0,0.25,2.552489973,1.9285545897722223,0.0,119688.0,2.875,-67.5,-1017.1875,0.0,0.125,0.37841793,1.9194747329772885,0.0,-112886.0,2.625,37.5,1017.1875,0.0,0.25,2.178954855,0.5526872062785588,0.0,-1.3300000429153442,0.10999999940395355,-64.88999938964844,0.11029052734375,0.1009521484375,0.98541259765625,35.709999084472656,0.0,-66.0,-7.5265350341796875,-2.9397430419921875,Closing,0.0,0.0,-189.0,0.0,0.0,0.0,0.0,0.0,
8.294279000000003,0.0,0.0,132141.0,10.625,337.5,1427.34375,0.0,0.25,1.3427733000000002,0.5498168668524888,0.0,-131608.0,17.0,-375.0,-1427.34375,0.0,0.25,2.523193101,1.9285545897722223,0.0,119629.0,8.875,-360.0,-1427.34375,0.0,0.125,0.339355434,1.9194747329772885,0.0,-112829.0,10.25,405.0,1427.34375,0.0,0.125,2.135009547,0.5526872062785588,0.0,-1.2400000095367432,-0.11999999731779099,-69.12000274658203,-0.0845947265625,-0.00543212890625,1.211669921875,35.68000030517578,0.0,-48.0,-7.530731201171875,-2.9431610107421875,Closing,0.0,0.0,-189.0,0.0,0.0,0.0,0.0,0.0,
8.426534,0.0,0.0,132230.0,0.125,645.0,137.8125,0.0,0.75,0.9997557570000001,0.01,0.0,-131702.0,0.0,-547.5,137.8125,0.0,0.75,2.731933314,2.481885,0.0,119535.0,0.375,-585.0,-137.8125,0.0,0.625,0.693359304,2.4702,0.0,-112735.0,0.125,570.0,-137.8125,0.0,0.625,1.7919920040000001,0.01,0.0,-1.2300000190734863,-0.3199999928474426,-78.95999908447266,-0.1534423828125,0.1922607421875,1.27508544921875,35.68000030517578,0.0,-243.0,-7.539642333984375,-2.946197509765625,Closing,0.0,0.0,-189.0,0.0,0.0,0.0,0.0,0.0,
8.5605,0.0,0.0,132318.0,0.75,322.5,157.5,0.0,0.25,0.678710868,0.01,0.0,-131748.0,0.375,-277.5,157.5,0.0,0.5,3.0053707860000003,2.481885,0.0,119480.0,0.875,-292.5,-157.5,0.0,0.125,1.027831926,2.4702,0.0,-112683.0,0.125,157.5,-157.5,0.0,0.25,1.496581878,0.01,0.0,-1.350000023841858,-0.4099999964237213,-80.9800033569336,0.051025390625,-0.01080322265625,1.167236328125,35.68000030517578,0.0,-7.0,-7.549835205078125,-2.9506072998046875,Closing,0.0,0.0,-189.0,0.0,0.0,0.0,0.0,0.0,
8.613648999999997,0.0,0.0,132338.0,1.875,45.0,216.5625,0.0,0.5,0.668945244,0.01,0.0,-131748.0,0.125,37.5,216.5625,0.0,0.5,3.1018063230000004,2.481885,0.0,119480.0,1.75,-105.0,-216.5625,0.0,0.25,1.026611223,2.4702,0.0,-112683.0,0.125,7.5,-216.5625,0.0,0.25,1.436767431,0.01,0.0,-1.2200000286102295,-0.1599999964237213,-80.5999984741211,0.04058837890625,0.0213623046875,1.098876953125,35.68000030517578,0.0,-37.0,-7.5532379150390625,-2.95086669921875,Closing,0.0,0.0,-189.0,0.0,0.0,0.0,0.0,0.0,
8.669006000000001,0.0,0.0,132354.0,2.875,75.0,236.24999999999997,0.0,0.375,0.718994067,0.01,0.0,-131745.0,0.125,0.0,236.24999999999997,0.0,0.25,3.118896165,2.481885,0.0,119467.0,2.125,-82.5,-236.24999999999997,0.0,0.125,0.9851073210000001,2.4702,0.0,-112683.0,0.125,0.0,-236.24999999999997,0.0,0.375,1.491699066,0.01,0.0,-1.090000033378601,-0.10999999940395355,-81.08000183105469,0.0157470703125,-0.07171630859375,0.86505126953125,35.68000030517578,0.0,57.0,-7.5584869384765625,-2.9503326416015625,Closing,0.0,0.0,-189.0,0.0,0.0,0.0,0.0,0.0,
8.727298000000003,0.0,0.0,132354.0,3.25,112.5,315.0,0.0,0.375,0.755615157,0.01,0.0,-131745.0,0.125,0.0,315.0,0.0,0.25,3.090819996,2.481885,0.0,119467.0,2.875,-120.0,-315.0,0.0,0.125,0.9448241220000001,2.4702,0.0,-112683.0,0.375,0.0,-315.0,0.0,0.375,1.511230314,0.01,0.0,-1.2000000476837158,-0.12999999523162842,-80.93000030517578,-0.01409912109375,-0.0909423828125,1.01361083984375,35.68000030517578,0.0,66.0,-7.561065673828125,-2.9505157470703125,Closing,0.0,0.0,-189.0,0.0,0.0,0.0,0.0,0.0,
8.783612000000002,0.0,0.0,132368.0,3.875,82.5,315.0,0.0,0.375,0.7897948410000001,0.01,0.0,-131738.0,0.375,45.0,315.0,0.0,0.25,3.0639645300000002,2.481885,0.0,119451.0,3.5,-97.5,-315.0,0.0,0.125,0.930175686,2.4702,0.0,-112689.0,0.375,-75.0,-315.0,0.0,0.375,1.568603355,0.01,0.0,-1.059999942779541,-0.12999999523162842,-81.0199966430664,0.0072021484375,0.05303955078125,0.96173095703125,35.709999084472656,0.0,-68.0,-7.564910888671875,-2.950927734375,Closing,0.0,0.0,-189.0,0.0,0.0,0.0,0.0,0.0,
8.851394,0.0,0.0,132368.0,5.125,112.5,393.75,0.0,0.25,0.794677653,0.01,0.0,-131714.0,0.5,120.0,393.75,0.0,0.25,3.0529782030000003,2.481885,0.0,119430.0,4.5,-120.0,-393.75,0.0,0.125,0.926513577,2.4702,0.0,-112708.0,0.375,-120.0,-393.75,0.0,0.25,1.6052244450000002,0.01,0.0,-1.1100000143051147,-0.11999999731779099,-81.12000274658203,0.0511474609375,-0.034912109375,0.96929931640625,35.709999084472656,0.0,24.0,-7.5695648193359375,-2.950958251953125,Closing,0.0,0.0,-189.0,0.0,0.0,0.0,0.0,0.0,
8.922466999999997,0.0,0.0,132392.0,6.0,127.5,472.49999999999994,0.0,0.25,0.79345695,0.01,0.0,-131714.0,0.625,172.5,472.49999999999994,0.0,0.25,3.044433282,2.481885,0.0,119430.0,5.125,-127.5,-472.49999999999994,0.0,0.125,0.926513577,2.4702,0.0,-112708.0,0.375,-105.0,-472.49999999999994,0.0,0.25,1.621093584,0.01,0.0,-1.059999942779541,-0.03999999910593033,-81.16999816894531,0.09271240234375,0.022705078125,0.98797607421875,35.709999084472656,0.0,-26.0,-7.5722808837890625,-2.95025634765625,Closing,0.0,0.0,-189.0,0.0,0.0,0.0,0.0,0.0,
8.972165999999998,0.0,0.0,132392.0,6.625,157.5,492.1875,0.0,0.25,0.79345695,0.01,0.0,-131714.0,0.75,240.0,492.1875,0.0,0.25,3.024902034,2.481885,0.0,119430.0,7.125,-165.0,-492.1875,0.0,0.125,0.926513577,2.4702,0.0,-112708.0,0.375,-157.5,-492.1875,0.0,0.125,1.621093584,0.01,0.0,-0.9800000190734863,0.10000000149011612,-81.27999877929688,0.10986328125,0.0150146484375,0.9952392578125,35.709999084472656,0.0,-15.0,-7.5754241943359375,-2.9485321044921875,Closing,0.0,0.0,-189.0,0.0,0.0,0.0,0.0,0.0,
9.033496,0.0,0.0,132438.0,7.125,285.0,531.5625,0.0,0.25,0.7922362470000001,0.01,0.0,-131668.0,1.25,277.5,531.5625,0.0,0.25,3.0029293800000003,2.481885,0.0,119398.0,6.5,-255.0,-531.5625,0.0,0.125,0.926513577,2.4702,0.0,-112749.0,0.625,-300.0,-531.5625,0.0,0.125,1.624755693,0.01,0.0,-1.0,0.49000000953674316,-81.48999786376953,0.0220947265625,-0.00537109375,0.89190673828125,35.709999084472656,0.0,-8.0,-7.5819854736328125,-2.9403533935546875,Closing,0.0,0.0,-189.0,0.0,0.0,0.0,0.0,0.0,
9.112233,0.0,0.0,132438.0,7.875,352.5,728.4375,0.0,0.125,0.79345695,0.01,0.0,-131612.0,2.25,330.0,728.4375,0.0,0.25,2.980956726,2.481885,0.0,119341.0,7.875,-337.5,-728.4375,0.0,0.125,0.9216307650000001,2.4702,0.0,-112800.0,1.375,-330.0,-728.4375,0.0,0.125,1.643066238,0.01,0.0,-0.9399999976158142,0.7799999713897705,-81.51000213623047,0.17919921875,-0.07684326171875,0.95184326171875,35.709999084472656,0.0,85.0,-7.58209228515625,-2.93365478515625,Closing,0.0,0.0,-189.0,0.0,0.0,0.0,0.0,0.0,
9.174786,0.0,0.0,132509.0,8.875,465.0,767.8125,0.0,0.25,0.79345695,0.01,0.0,-131612.0,3.0,427.5,767.8125,0.0,0.0,2.976073914,2.481885,0.0,119341.0,8.75,-420.0,-767.8125,0.0,0.125,0.9216307650000001,2.4702,0.0,-112800.0,1.875,-427.5,-767.8125,0.0,0.25,1.6589353770000002,0.01,0.0,-0.949999988079071,1.0199999809265137,-81.55999755859375,0.0205078125,-0.01837158203125,1.07952880859375,35.709999084472656,0.0,0.0,-7.58172607421875,-2.9243011474609375,Closing,0.0,0.0,-189.0,0.0,0.0,0.0,0.0,0.0,
9.241927000000004,0.0,0.0,132509.0,8.625,532.5,767.8125,0.0,0.25,0.8007811680000001,0.01,0.0,-131529.0,2.625,480.0,767.8125,0.0,0.0,2.982177429,2.481885,0.0,119253.0,8.625,-532.5,-767.8125,0.0,0.125,0.9216307650000001,2.4702,0.0,-112881.0,1.625,-502.5,-767.8125,0.0,0.25,1.6638181890000001,0.01,0.0,-0.8700000047683716,1.2400000095367432,-81.5199966430664,0.08319091796875,-0.03741455078125,1.17193603515625,35.709999084472656,0.0,27.0,-7.581512451171875,-2.9130401611328125,Closing,0.0,0.0,-189.0,0.0,0.0,0.0,0.0,0.0,
9.305942000000003,0.0,0.0,132609.0,8.0,622.5,767.8125,0.0,0.25,0.79345695,0.01,0.0,-131529.0,2.25,577.5,767.8125,0.0,0.0,2.982177429,2.481885,0.0,119253.0,7.875,-607.5,-767.8125,0.0,0.125,0.9216307650000001,2.4702,0.0,-112881.0,1.375,-577.5,-767.8125,0.0,0.25,1.6601560800000001,0.01,0.0,-0.8299999833106995,1.3200000524520874,-81.4800033569336,0.030029296875,0.01934814453125,1.06048583984375,35.689998626708984,0.0,-33.0,-7.5817108154296875,-2.9034271240234375,Closing,0.0,0.0,-189.0,0.0,0.0,0.0,0.0,0.0,
9.366023999999998,0.0,0.0,132609.0,7.25,705.0,787.5,0.0,0.25,0.8044432770000001,0.01,0.0,-131418.0,1.75,660.0,787.5,0.0,0.0,2.982177429,2.481885,0.0,119139.0,7.375,-690.0,-787.5,0.0,0.125,0.91552725,2.4702,0.0,-112988.0,1.0,-667.5,-787.5,0.0,0.25,1.6552732680000002,0.01,0.0,-0.8799999952316284,1.4600000381469727,-81.4000015258789,0.0364990234375,-0.0343017578125,1.1436767578125,35.689998626708984,0.0,17.0,-7.58184814453125,-2.8865203857421875,Closing,0.0,0.0,-189.0,0.0,0.0,0.0,0.0,0.0,
9.430144,0.0,0.0,132734.0,6.75,765.0,807.1874999999999,0.0,0.25,0.79345695,0.01,0.0,-131418.0,1.5,720.0,807.1874999999999,0.0,0.0,2.977294617,2.481885,0.0,119139.0,6.875,-742.5,-807.1874999999999,0.0,0.125,0.9216307650000001,2.4702,0.0,-112988.0,0.75,-727.5,-807.1874999999999,0.0,0.25,1.6345213170000001,0.01,0.0,-0.8399999737739563,1.5700000524520874,-81.3499984741211,0.06121826171875,-0.05877685546875,1.14520263671875,35.689998626708984,0.0,45.0,-7.581451416015625,-2.87261962890625,Closing,0.0,0.0,-189.0,0.0,0.0,0.0,0.0,0.0,
9.501265,0.0,0.0,132734.0,6.0,840.0,826.875,0.0,0.125,0.79345695,0.01,0.0,-131292.0,1.125,787.5,826.875,0.0,0.125,2.976073914,2.481885,0.0,119011.0,6.5,-795.0,-826.875,0.0,0.125,0.9216307650000001,2.4702,0.0,-113109.0,0.75,-765.0,-826.875,0.0,0.125,1.619872881,0.01,0.0,-0.8399999737739563,1.5299999713897705,-81.33999633789062,0.04083251953125,-0.07354736328125,1.2738037109375,35.689998626708984,0.0,55.0,-7.5810394287109375,-2.8688201904296875,Closing,0.0,0.0,-189.0,0.0,0.0,0.0,0.0,0.0,
9.551839,0.0,0.0,132870.0,6.0,870.0,905.6249999999999,0.0,0.25,0.79345695,0.01,0.0,-131292.0,1.25,802.5,905.6249999999999,0.0,0.125,2.976073914,2.481885,0.0,119011.0,6.5,-840.0,-905.6249999999999,0.0,0.125,0.9216307650000001,2.4702,0.0,-113109.0,0.75,-787.5,-905.6249999999999,0.0,0.125,1.621093584,0.01,0.0,-0.8500000238418579,1.4299999475479126,-81.3499984741211,-0.012939453125,0.0184326171875,1.30615234375,35.689998626708984,0.0,-44.0,-7.580841064453125,-2.868682861328125,Closing,0.0,0.0,-189.0,0.0,0.0,0.0,0.0,0.0,
9.595252,0.0,0.0,132870.0,6.0,907.5,925.3125,0.0,0.25,0.79345695,0.01,0.0,-131154.0,1.125,855.0,925.3125,0.0,0.125,2.977294617,2.481885,0.0,118867.0,6.5,-885.0,-925.3125,0.0,0.125,0.916747953,2.4702,0.0,-113241.0,0.75,-825.0,-925.3125,0.0,0.125,1.645507644,0.01,0.0,-0.7400000095367432,1.4800000190734863,-81.37000274658203,-0.0574951171875,-0.09661865234375,1.26898193359375,35.689998626708984,0.0,65.0,-7.5810699462890625,-2.8686065673828125,Closing,0.0,0.0,-189.0,0.0,0.0,0.0,0.0,0.0,
9.661749000000004,0.0,0.0,133021.0,6.0,930.0,984.375,0.0,0.25,0.79345695,0.01,-0.0012207029999995456,-131154.0,1.125,900.0,984.375,0.0,0.125,2.976073914,2.481885,0.0,118867.0,6.625,-922.5,-984.375,0.0,0.125,0.9216307650000001,2.4702,0.0,-113241.0,0.75,-885.0,-984.375,0.0,0.25,1.665038892,0.01,0.0,-0.7099999785423279,1.5399999618530273,-81.36000061035156,0.02142333984375,-0.02001953125,1.18524169921875,35.689998626708984,0.0,3.0,-7.5811767578125,-2.86859130859375,Closing,0.0,0.0,-189.0,0.0,0.0,0.0,0.0,0.0,
9.715620000000003,0.0,0.0,133021.0,6.125,982.5,1004.0624999999999,0.0,0.125,0.794677653,0.01,0.0,-131004.0,1.125,937.5,1004.0624999999999,0.0,0.125,2.976073914,2.481885,0.0,118714.0,6.625,-952.5,-1004.0624999999999,0.0,0.125,0.9216307650000001,2.4702,0.0,-113388.0,1.0,-915.0,-1004.0624999999999,0.0,0.25,1.6601560800000001,0.01,0.0,-0.6299999952316284,1.4500000476837158,-81.26000213623047,0.10540771484375,-0.03875732421875,1.13720703125,35.689998626708984,0.0,37.0,-7.581695556640625,-2.8685150146484375,Closing,0.0,0.0,-189.0,0.0,0.0,0.0,0.0,0.0,
9.786228000000003,0.0,0.0,133183.0,6.0,997.5,1004.0624999999999,0.0,0.25,0.79345695,0.01,0.0,-131004.0,1.125,952.5,1004.0624999999999,0.0,0.125,2.97851532,2.481885,0.0,118714.0,6.5,-975.0,-1004.0624999999999,0.0,0.125,0.916747953,2.4702,0.0,-113388.0,1.0,-922.5,-1004.0624999999999,0.0,0.25,1.6613767830000001,0.01,0.0,-0.6499999761581421,1.4299999475479126,-81.16999816894531,0.02850341796875,0.03314208984375,1.170166015625,35.689998626708984,0.0,-46.0,-7.5828399658203125,-2.868133544921875,Closing,0.0,0.0,-189.0,0.0,0.0,0.0,0.0,0.0,
9.841991999999998,0.0,0.0,133183.0,5.625,1027.5,1004.0624999999999,0.0,0.25,0.794677653,0.01,0.0,-130847.0,1.125,967.5,1004.0624999999999,0.0,0.125,2.977294617,2.481885,0.0,118550.0,6.125,-1005.0,-1004.0624999999999,0.0,0.125,0.916747953,2.4702,0.0,-113543.0,0.75,-945.0,-1004.0624999999999,0.0,0.25,1.6589353770000002,0.01,0.0,-0.6499999761581421,1.4199999570846558,-81.1500015258789,0.0985107421875,0.01300048828125,1.05938720703125,35.689998626708984,0.0,-13.0,-7.5843505859375,-2.86798095703125,Closing,0.0,0.0,-189.0,0.0,0.0,0.0,0.0,0.0,
9.889641000000003,0.0,0.0,133350.0,5.5,1050.0,1004.0624999999999,0.0,0.25,0.825195228,0.01,0.0,-130847.0,1.125,975.0,1004.0624999999999,0.0,0.125,2.982177429,2.481885,0.0,118550.0,5.625,-1027.5,-1004.0624999999999,0.0,0.125,0.911865141,2.4702,0.0,-113543.0,0.625,-1005.0,-1004.0624999999999,0.0,0.25,1.6564939710000002,0.01,0.0,-0.7300000190734863,1.440000057220459,-81.08000183105469,0.08489990234375,0.07171630859375,0.74505615234375,35.689998626708984,0.0,-69.0,-7.586669921875,-2.867919921875,Closing,0.0,0.0,-189.0,0.0,0.0,0.0,0.0,0.0,
9.951799,0.0,0.0,133350.0,5.0,1057.5,1004.0624999999999,0.0,0.125,0.794677653,0.01,0.0,-130689.0,1.125,975.0,1004.0624999999999,0.0,0.125,2.977294617,2.481885,0.0,118379.0,5.125,-1050.0,-1004.0624999999999,0.0,0.125,0.913085844,2.4702,0.0,-113709.0,0.625,-1027.5,-1004.0624999999999,0.0,0.25,1.622314287,0.01,0.0,-0.6800000071525574,1.4199999570846558,-81.0199966430664,0.17327880859375,0.0294189453125,0.7342529296875,35.689998626708984,0.0,-13.0,-7.589111328125,-2.86785888671875,Closing,0.0,0.0,-189.0,0.0,0.0,0.0,0.0,0.0,
10.024010000000002,0.0,0.0,133525.0,4.75,1080.0,1063.125,0.0,0.125,0.794677653,0.01,0.0,-130689.0,0.875,1005.0,1063.125,0.0,0.125,2.977294617,2.481885,0.0,118379.0,5.0,-1087.5,-1063.125,0.0,0.125,0.913085844,2.4702,0.0,-113709.0,0.625,-1065.0,-1063.125,0.0,0.125,1.621093584,0.01,0.0,-0.6899999976158142,1.3600000143051147,-81.02999877929688,-0.03826904296875,-0.11895751953125,0.760009765625,35.689998626708984,0.0,99.0,-7.590728759765625,-2.8675537109375,Closing,0.0,0.0,-189.0,0.0,0.0,0.0,0.0,0.0,
10.076838000000004,0.0,0.0,133525.0,5.125,1117.5,1181.25,0.0,0.25,0.79345695,0.01,0.0,-130514.0,1.125,1072.5,1181.25,0.0,0.125,2.976073914,2.481885,0.0,118200.0,5.375,-1110.0,-1181.25,0.0,0.125,0.9069823290000001,2.4702,0.0,-113878.0,0.75,-1057.5,-1181.25,0.0,0.125,1.621093584,0.01,0.0,-0.6899999976158142,1.2599999904632568,-81.1500015258789,-0.0828857421875,0.0150146484375,1.1212158203125,35.689998626708984,0.0,-44.0,-7.5929718017578125,-2.868621826171875,Closing,0.0,0.0,-189.0,0.0,0.0,0.0,0.0,0.0,
10.136709999999999,0.0,0.0,133712.0,5.75,1147.5,1240.3125,0.0,0.25,0.795898356,0.01,0.0,-130514.0,1.375,1117.5,1240.3125,0.0,0.125,2.976073914,2.481885,0.0,118200.0,6.0,-1140.0,-1240.3125,0.0,0.125,0.911865141,2.4702,0.0,-113878.0,1.0,-1065.0,-1240.3125,0.0,0.125,1.621093584,0.01,0.0,-0.6600000262260437,1.2200000286102295,-81.27999877929688,0.03076171875,0.0472412109375,1.061767578125,35.689998626708984,0.0,-57.0,-7.59576416015625,-2.8698883056640625,Closing,0.0,0.0,-189.0,0.0,0.0,0.0,0.0,0.0,
10.191546000000002,0.0,0.0,133712.0,6.0,1170.0,1260.0,0.0,0.25,0.794677653,0.01,0.0,-130324.0,1.375,1162.5,1260.0,0.0,0.125,2.9968258650000004,2.481885,0.0,118007.0,6.375,-1177.5,-1260.0,0.0,0.125,0.911865141,2.4702,0.0,-114062.0,1.0,-1147.5,-1260.0,0.0,0.125,1.6284178020000002,0.01,0.0,-0.6100000143051147,1.1699999570846558,-81.47000122070312,-0.0250244140625,0.097412109375,1.0140380859375,35.689998626708984,0.0,-113.0,-7.599365234375,-2.8707122802734375,Closing,0.0,0.0,-189.0,0.0,0.0,0.0,0.0,0.0,
10.254415000000002,0.0,0.0,133904.0,5.625,1207.5,1260.0,0.0,0.25,0.794677653,0.01,0.0,-130324.0,1.5,1192.5,1260.0,0.0,0.125,2.99072235,2.481885,0.01953124800000028,118007.0,6.375,-1200.0,-1260.0,0.0,0.125,0.911865141,2.4702,0.0,-114062.0,1.0,-1185.0,-1260.0,0.0,0.125,1.622314287,0.01,0.0012207029999995456,-0.5299999713897705,1.190000057220459,-81.66999816894531,0.04296875,0.0411376953125,0.982421875,35.689998626708984,0.0,-46.0,-7.6024932861328125,-2.871551513671875,Closing,0.0,0.0,-189.0,0.0,0.0,0.0,0.0,0.0,
10.312839,0.0,0.0,133904.0,5.875,1237.5,1299.375,0.0,0.25,0.794677653,0.01,0.0,-130136.0,1.625,1185.0,1299.375,0.0,0.0,2.976073914,2.481885,0.0,117807.0,6.25,-1245.0,-1299.375,0.0,0.125,0.911865141,2.4702,0.0,-114252.0,1.0,-1185.0,-1299.375,0.0,0.125,1.621093584,0.01,0.0,-0.5,1.190000057220459,-81.95999908447266,-0.06201171875,-0.065673828125,1.0198974609375,35.66999816894531,0.0,44.0,-7.60760498046875,-2.8724822998046875,Closing,0.0,0.0,-189.0,0.0,0.0,0.0,0.0,0.0,
10.371765,0.0,0.0,134110.0,5.625,1267.5,1397.8125,0.0,0.25,0.79345695,0.01,-0.0012207030000004337,-130136.0,2.125,1177.5,1397.8125,0.0,0.0,2.973632508,2.481885,0.0,117807.0,6.625,-1275.0,-1397.8125,0.0,0.125,0.913085844,2.4702,0.0,-114252.0,1.375,-1185.0,-1397.8125,0.0,0.125,1.625976396,0.01,0.0,-0.47999998927116394,1.2300000190734863,-82.05999755859375,0.08197021484375,0.0048828125,0.96807861328125,35.66999816894531,0.0,-4.0,-7.6105194091796875,-2.873809814453125,Closing,0.0,0.0,-189.0,0.0,0.0,0.0,0.0,0.0,
10.431593999999997,0.0,0.0,134110.0,7.375,1297.5,1594.6875,0.0,0.25,0.794677653,0.01,0.0,-130136.0,3.25,1245.0,1594.6875,0.0,0.125,2.972411805,2.481885,0.0,117597.0,7.5,-1290.0,-1594.6875,0.0,0.125,0.914306547,2.4702,0.0,-114451.0,2.625,-1230.0,-1594.6875,0.0,0.125,1.646728347,0.01,0.0,-0.44999998807907104,1.409999966621399,-82.1500015258789,0.07928466796875,0.02752685546875,0.8685302734375,35.66999816894531,0.0,-26.0,-7.6136627197265625,-2.8767242431640625,Closing,0.0,0.0,-189.0,0.0,0.0,0.0,0.0,0.0,
10.499975,0.0,0.0,134324.0,8.625,1335.0,1693.125,0.0,0.125,0.794677653,0.01,0.0,-129930.0,4.75,1312.5,1693.125,0.0,0.125,2.96630829,2.481885,0.0,117597.0,10.25,-1365.0,-1693.125,0.0,0.125,0.911865141,2.4702,0.0,-114451.0,4.125,-1327.5,-1693.125,0.0,0.25,1.674804516,0.01,0.0,-0.38999998569488525,1.5800000429153442,-82.05000305175781,-0.01861572265625,-0.06329345703125,0.886962890625,35.66999816894531,0.0,50.0,-7.61669921875,-2.87908935546875,Closing,0.0,0.0,-189.0,0.0,0.0,0.0,0.0,0.0,
10.566370000000003,0.0,0.0,134324.0,9.625,1402.5,1693.125,0.0,0.25,0.79345695,0.01,-0.0012207030000004337,-129700.0,5.25,1395.0,1693.125,0.0,0.125,2.967528993,2.481885,-0.004882811999999959,117370.0,10.875,-1387.5,-1693.125,0.0,0.125,0.911865141,2.4702,0.0012207030000004337,-114674.0,4.125,-1387.5,-1693.125,0.0,0.25,1.679687328,0.01,0.0,-0.4300000071525574,1.7000000476837158,-81.87000274658203,0.02178955078125,-0.0115966796875,1.13348388671875,35.66999816894531,0.0,1.0,-7.6185302734375,-2.879913330078125,Closing,0.0,0.0,-189.0,0.0,0.0,0.0,0.0,0.0,
10.629749000000004,0.0,0.0,134560.0,9.25,1462.5,1693.125,0.0,0.25,0.79345695,0.01,0.0,-129700.0,4.75,1492.5,1693.125,0.0,0.125,2.967528993,2.481885,0.0,117370.0,10.625,-1492.5,-1693.125,0.0,0.125,0.9082030320000001,2.4702,0.0,-114674.0,3.875,-1500.0,-1693.125,0.0,0.25,1.679687328,0.01,0.0,-0.4699999988079071,1.7100000381469727,-81.55000305175781,0.1083984375,-0.02227783203125,1.2186279296875,35.66999816894531,0.0,22.0,-7.6180419921875,-2.8791961669921875,Closing,0.0,0.0,-189.0,0.0,0.0,0.0,0.0,0.0,
10.693095999999997,0.0,0.0,134560.0,9.0,1567.5,1693.125,0.0,0.25,0.794677653,0.01,0.0,-129446.0,3.75,1612.5,1693.125,0.0,0.125,2.967528993,2.481885,0.0,117118.0,9.5,-1590.0,-1693.125,0.0,0.125,0.911865141,2.4702,0.0,-114922.0,3.125,-1575.0,-1693.125,0.0,0.25,1.665038892,0.01,0.0,-0.5,1.7899999618530273,-81.19999694824219,0.061767578125,-0.04754638671875,0.8834228515625,35.66999816894531,0.0,44.0,-7.61669921875,-2.876251220703125,Closing,0.0,0.0,-189.0,0.0,0.0,0.0,0.0,0.0,
10.768408000000003,0.0,0.0,134817.0,8.5,1620.0,1693.125,0.0,0.25,0.7922362470000001,0.01,0.0,-129446.0,3.0,1642.5,1693.125,0.0,0.125,2.967528993,2.481885,0.0,117118.0,9.125,-1627.5,-1693.125,0.0,0.125,0.911865141,2.4702,0.0,-114922.0,3.25,-1582.5,-1693.125,0.0,0.25,1.646728347,0.01,0.0,-0.4399999976158142,1.8300000429153442,-80.91000366210938,-0.10833740234375,-0.03125,1.19842529296875,35.66999816894531,0.0,-1.0,-7.6169891357421875,-2.873138427734375,Closing,0.0,0.0,-189.0,0.0,0.0,0.0,0.0,0.0,
10.834983,0.0,0.0,135089.0,8.25,1665.0,1712.8124999999998,0.0,0.125,0.794677653,0.01,0.0,-129176.0,2.625,1687.5,1712.8124999999998,0.0,0.125,2.968749696,2.481885,0.0,116852.0,8.5,-1680.0,-1712.8124999999998,0.0,0.125,0.911865141,2.4702,0.0,-115183.0,2.25,-1657.5,-1712.8124999999998,0.0,0.25,1.649169753,0.01,0.0,-0.4699999988079071,1.8700000047683716,-80.77999877929688,0.0081787109375,0.2071533203125,1.0535888671875,35.65999984741211,0.0,-217.0,-7.61737060546875,-2.8701171875,Closing,0.0,0.0,-189.0,0.0,0.0,0.0,0.0,0.0,
10.906560999999995,0.0,0.0,135089.0,7.5,1710.0,1712.8124999999998,0.0,0.125,0.784912029,0.01,0.0,-129176.0,2.25,1710.0,1712.8124999999998,0.0,0.125,2.96630829,2.481885,0.0,116852.0,8.125,-1717.5,-1712.8124999999998,0.0,0.125,0.911865141,2.4702,0.0,-115183.0,2.5,-1710.0,-1712.8124999999998,0.0,0.25,1.651611159,0.01,0.0,-0.30000001192092896,1.9600000381469727,-80.6500015258789,-0.00103759765625,0.05560302734375,0.99798583984375,35.65999984741211,0.0,-65.0,-7.6183624267578125,-2.8672637939453125,Closing,0.0,0.0,-189.0,0.0,0.0,0.0,0.0,0.0,
10.952283000000003,0.0,0.0,135089.0,6.875,1762.5,1712.8124999999998,0.0,0.25,0.794677653,0.01,0.0,-128898.0,2.0,1747.5,1712.8124999999998,0.0,0.125,2.967528993,2.481885,0.0,116572.0,7.5,-1747.5,-1712.8124999999998,0.0,0.125,0.911865141,2.4702,0.0,-115454.0,2.5,-1687.5,-1712.8124999999998,0.0,0.25,1.6357420200000001,0.01,0.0,-0.25,1.899999976158142,-80.52999877929688,-0.11187744140625,-0.0465087890625,1.10748291015625,35.65999984741211,0.0,16.0,-7.6188812255859375,-2.8651275634765625,Closing,0.0,0.0,-189.0,0.0,0.0,0.0,0.0,0.0,
10.995760000000002,0.0,0.0,135372.0,6.375,1785.0,1712.8124999999998,0.0,0.125,0.79345695,0.01,0.0,-128898.0,1.875,1740.0,1712.8124999999998,0.0,0.125,2.967528993,2.481885,0.0,116572.0,6.875,-1777.5,-1712.8124999999998,0.0,0.125,0.911865141,2.4702,0.0,-115454.0,2.25,-1672.5,-1712.8124999999998,0.0,0.125,1.6296385050000002,0.01,0.0,-0.38999998569488525,1.9900000095367432,-80.45999908447266,0.08599853515625,-0.001220703125,1.16802978515625,35.65999984741211,0.0,0.0,-7.61895751953125,-2.8633575439453125,Closing,0.0,0.0,-189.0,0.0,0.0,0.0,0.0,0.0,
11.061208000000006,0.0,0.0,135659.0,6.25,1777.5,1712.8124999999998,0.0,0.25,0.79345695,0.01,0.0,-128619.0,2.0,1717.5,1712.8124999999998,0.0,0.125,2.967528993,2.481885,0.0,116280.0,6.125,-1800.0,-1712.8124999999998,0.0,0.125,0.911865141,2.4702,0.0,-115730.0,1.625,-1762.5,-1712.8124999999998,0.0,0.125,1.6625974860000001,0.01,0.0,-0.5299999713897705,1.9500000476837158,-80.37999725341797,0.0489501953125,0.14990234375,0.5797119140625,35.65999984741211,0.0,-148.0,-7.6178741455078125,-2.86285400390625,Closing,0.0,0.0,-189.0,0.0,0.0,0.0,0.0,0.0,
11.133079999999994,0.0,0.0,135659.0,5.5,1770.0,1712.8124999999998,0.0,0.125,0.794677653,0.01,0.0,-128619.0,2.0,1725.0,1712.8124999999998,0.0,0.125,2.967528993,2.481885,0.0,116280.0,5.5,-1792.5,-1712.8124999999998,0.0,0.125,0.911865141,2.4702,0.0,-115730.0,1.625,-1770.0,-1712.8124999999998,0.0,0.125,1.6613767830000001,0.01,0.0,-0.33000001311302185,1.840000033378601,-80.25,-0.21295166015625,-0.1304931640625,1.056884765625,35.65999984741211,0.0,80.0,-7.6180877685546875,-2.8631134033203125,Closing,0.0,0.0,-189.0,0.0,0.0,0.0,0.0,0.0,
11.183583000000006,0.0,0.0,135659.0,5.25,1822.5,1712.8124999999998,0.0,0.125,0.794677653,0.01,0.0,-128341.0,1.75,1747.5,1712.8124999999998,0.0,0.125,2.96630829,2.481885,0.0,116000.0,5.5,-1747.5,-1712.8124999999998,0.0,0.125,0.9106444380000001,2.4702,0.0,-116011.0,1.25,-1747.5,-1712.8124999999998,0.0,0.25,1.6601560800000001,0.01,0.0,-0.3700000047683716,1.4199999570846558,-80.01000213623047,0.07244873046875,-0.029296875,1.37939453125,35.65999984741211,0.0,26.0,-7.61865234375,-2.866424560546875,Closing,0.0,0.0,-189.0,0.0,0.0,0.0,0.0,0.0,
11.249055,0.0,0.0,135951.0,4.75,1822.5,1712.8124999999998,0.0,0.25,0.7910155440000001,0.01,0.0,-128341.0,1.125,1777.5,1712.8124999999998,0.0,0.125,2.96630829,2.481885,0.0,116000.0,6.0,-1710.0,-1712.8124999999998,0.0,0.125,0.911865141,2.4702,0.0,-116304.0,1.0,-1807.5,-1712.8124999999998,0.0,0.25,1.650390456,0.01,0.0,-0.4300000071525574,1.350000023841858,-79.75,0.00299072265625,-0.019287109375,1.0740966796875,35.65999984741211,0.0,7.0,-7.6191558837890625,-2.8712005615234375,Closing,0.0,0.0,-189.0,0.0,0.0,0.0,0.0,0.0,
11.314138,0.0,0.0,136240.0,4.625,1815.0,1712.8124999999998,0.0,0.25,0.794677653,0.01,0.0012207029999995456,-128054.0,0.75,1807.5,1712.8124999999998,0.0,0.125,2.971191102,2.481885,0.0,115728.0,6.25,-1695.0,-1712.8124999999998,0.0,0.125,0.911865141,2.4702,0.0,-116304.0,0.625,-1815.0,-1712.8124999999998,0.0,0.25,1.665038892,0.01,0.0,-0.41999998688697815,1.0499999523162842,-79.45999908447266,-0.11962890625,0.0341796875,0.99334716796875,35.61000061035156,0.0,-66.0,-7.6190643310546875,-2.879302978515625,Closing,0.0,0.0,-189.0,0.0,0.0,0.0,0.0,0.0,
11.382204999999994,0.0,0.0,136240.0,5.125,1770.0,1712.8124999999998,0.0,0.125,0.794677653,0.01,0.0,-127767.0,0.75,1792.5,1712.8124999999998,0.0,0.125,2.980956726,2.481885,0.0,115447.0,6.125,-1740.0,-1712.8124999999998,0.0,0.125,0.911865141,2.4702,0.0,-116590.0,0.75,-1792.5,-1712.8124999999998,0.0,0.25,1.644286941,0.01,0.0,-0.3700000047683716,0.949999988079071,-79.23999786376953,0.02606201171875,0.073486328125,0.731201171875,35.61000061035156,0.0,-74.0,-7.6201934814453125,-2.8867645263671875,Closing,0.0,0.0,-189.0,0.0,0.0,0.0,0.0,0.0,
11.447569999999999,0.0,0.0,136519.0,5.25,1732.5,1712.8124999999998,0.0,0.25,0.794677653,0.01,0.0,-127767.0,0.625,1785.0,1712.8124999999998,0.0,0.0,2.976073914,2.481885,0.0,115447.0,6.0,-1777.5,-1712.8124999999998,0.0,0.125,0.911865141,2.4702,0.0,-116590.0,0.625,-1777.5,-1712.8124999999998,0.0,0.25,1.616210772,0.01,0.0,-0.44999998807907104,0.8199999928474426,-79.19000244140625,-0.03033447265625,-0.15283203125,1.003662109375,35.61000061035156,0.0,133.0,-7.620635986328125,-2.8948974609375,Closing,0.0,0.0,-189.0,0.0,0.0,0.0,0.0,0.0,
11.505560000000004,0.0,0.0,136519.0,5.25,1740.0,1712.8124999999998,0.0,0.125,0.79345695,0.01,0.0,-127767.0,0.75,1777.5,1712.8124999999998,0.0,0.125,2.976073914,2.481885,0.0,115447.0,5.875,-1770.0,-1712.8124999999998,0.0,0.125,0.911865141,2.4702,0.0,-116590.0,0.75,-1770.0,-1712.8124999999998,0.0,0.125,1.621093584,0.01,0.0,-0.550000011920929,0.49000000953674316,-79.19999694824219,-0.18829345703125,0.03668212890625,1.4647216796875,35.61000061035156,0.0,-87.0,-7.6200408935546875,-2.9012451171875,Closing,0.0,0.0,-189.0,0.0,0.0,0.0,0.0,0.0,
11.553492999999994,0.0,0.0,136797.0,5.25,1740.0,1712.8124999999998,0.0,0.25,0.794677653,0.01,0.0,-127485.0,0.75,1755.0,1712.8124999999998,0.0,0.125,2.976073914,2.481885,0.0,115161.0,5.125,-1792.5,-1712.8124999999998,0.0,0.125,0.911865141,2.4702,0.0,-116874.0,0.625,-1770.0,-1712.8124999999998,0.0,0.125,1.6015623360000002,0.01,0.0,-0.4699999988079071,0.4699999988079071,-79.18000030517578,-0.00860595703125,0.00946044921875,1.22503662109375,35.61000061035156,0.0,-22.0,-7.619598388671875,-2.91021728515625,Closing,0.0,0.0,-189.0,0.0,0.0,0.0,0.0,0.0,
