Time,ClimberA1,ClimberA2,FRpos,FRCurrent,FRspeed,FRsetpoint,FRApos,FRACurrent,FREncpos,FREncSetpoint,FREncSpeed,FLpos,FLCurrent,FLspeed,FLsetpoint,FLApos,FLACurrent,FLEncpos,FLEncSetpoint,FLEncSpeed,BRpos,BRCurrent,BRspeed,BRsetpoint,BRApos,BRACurrent,BREncpos,BREncSetpoint,BREncSpeed,BLpos,BLCurrent,BLspeed,BLsetpoint,BLApos,BLACurrent,BLEncpos,BLEncSetpoint,BLEncSpeed,navx_Pitch,navx_Roll,navx_Yaw,navx_XAcc,navx_YAcc,navx_ZAcc,navx_Temp,navx_Bar,navx_Alt,navx_XDis,navx_YDis,GearPlacerState,ShootOutputV,ShootOutputCurrent,ShootEncPos,ShootEncVelocity,ShootSpeed,ShootSetpoint,CarouselSetpoint,CarouselCurrent,
0.19095100000000093,0.0,0.0,70483.0,0.125,-22.5,0.0,0.0,1.5,1.4733885210000002,0.01,0.0,-65353.0,0.0,0.0,-0.0,0.0,1.0,1.1914061280000001,0.01,0.0,61530.0,0.0,0.0,0.0,0.0,1.25,4.002685137,0.01,0.0,-42077.0,0.125,-7.5,-0.0,0.0,1.375,2.2729489860000003,0.01,0.0,0.28999999165534973,-0.5,52.52000045776367,-0.03125,-0.0347900390625,1.02880859375,35.65999984741211,0.0,-45.0,-2.1267852783203125,-1.5367889404296875,Closing,0.0,0.0,-189.0,0.0,0.0,0.0,0.0,0.0,
0.34432499999998256,0.0,0.0,70478.0,0.0,-22.5,0.0,0.0,6.0,1.569824058,0.01,0.0,-65353.0,0.125,0.0,0.0,0.0,6.875,1.209716673,0.01,0.0,61529.0,0.0,-7.5,0.0,0.0,2.875,3.9526363140000003,0.01,0.0,-42083.0,0.125,-30.0,0.0,0.0,6.25,2.288818125,0.01,0.0,0.30000001192092896,-0.6299999952316284,52.4900016784668,-0.0701904296875,-0.03570556640625,1.035888671875,35.65999984741211,0.0,-68.0,-2.126495361328125,-1.5362091064453125,Closing,0.0,0.0,-189.0,0.0,0.0,0.0,0.0,0.0,
0.48943599999998694,0.0,0.0,70478.0,0.0,0.0,0.0,0.0,1.25,0.692138601,0.01,0.0,-65353.0,0.125,0.0,0.0,0.0,1.125,0.384521445,0.01,0.0,61529.0,0.0,0.0,0.0,0.0,1.0,3.189696939,0.01,0.0,-42079.0,0.125,60.0,0.0,0.0,1.375,1.437988134,0.01,0.0,0.25999999046325684,-0.6600000262260437,52.34000015258789,-0.0225830078125,0.0555419921875,1.06072998046875,35.68000030517578,0.0,33.0,-2.127349853515625,-1.53399658203125,Closing,0.0,0.0,-189.0,0.0,0.0,0.0,0.0,0.0,
0.6229539999999979,0.0,0.0,70478.0,0.0,0.0,0.0,0.0,0.25,0.6469725900000001,0.01,0.0,-65353.0,0.125,0.0,0.0,0.0,0.25,0.33569332500000004,0.01,0.0,61529.0,0.0,0.0,0.0,0.0,0.125,3.232421544,0.01,0.0,-42068.0,0.125,7.5,0.0,0.0,0.375,1.457519382,0.01,0.0,0.23999999463558197,-0.6299999952316284,52.439998626708984,0.013427734375,0.0240478515625,0.984375,35.68000030517578,0.0,30.0,-2.1255950927734375,-1.533294677734375,Closing,0.0,0.0,-189.0,0.0,0.0,0.0,0.0,0.0,
0.7580840000000025,0.0,0.0,70478.0,0.0,0.0,0.0,0.0,0.375,0.7897948410000001,0.01,0.0,-65353.0,0.125,0.0,0.0,0.0,0.25,0.411376911,0.01,0.0,61529.0,0.0,0.0,0.0,0.0,0.125,3.348388329,0.01,0.0,-42069.0,0.125,0.0,0.0,0.0,0.375,1.588134603,0.01,0.0,0.25,-0.5799999833106995,52.41999816894531,-0.0228271484375,0.00115966796875,1.02801513671875,35.68000030517578,0.0,-10.0,-2.123748779296875,-1.533721923828125,Closing,0.0,0.0,-189.0,0.0,0.0,0.0,0.0,0.0,
0.8803299999999872,0.0,0.0,70478.0,0.0,0.0,0.0,0.0,0.25,0.8532713970000001,0.01,0.0,-65353.0,0.125,0.0,0.0,0.0,0.25,0.523681587,0.01,0.0,61529.0,0.0,0.0,0.0,0.0,0.0,3.392333637,0.01,0.0,-42071.0,0.125,-7.5,0.0,0.0,0.375,1.6552732680000002,0.01,0.0,0.25999999046325684,-0.6299999952316284,52.470001220703125,-0.0205078125,0.0037841796875,1.0439453125,35.70000076293945,0.0,-6.0,-2.123748779296875,-1.533721923828125,Closing,0.0,0.0,-189.0,0.0,0.0,0.0,0.0,0.0,
1.009069999999978,0.0,0.0,70478.0,0.0,0.0,0.0,0.0,0.25,0.836181555,0.01,0.0,-65353.0,0.125,0.0,0.0,0.0,0.125,0.538330023,0.01,0.0,61529.0,0.0,0.0,0.0,0.0,0.125,3.392333637,0.01,0.0,-42071.0,0.125,0.0,0.0,0.0,0.25,1.650390456,0.01,0.0,0.25,-0.6100000143051147,52.459999084472656,-0.00946044921875,0.00360107421875,1.0123291015625,35.70000076293945,0.0,0.0,-2.123748779296875,-1.533721923828125,Closing,0.0,0.0,-189.0,0.0,0.0,0.0,0.0,0.0,
1.1436630000000005,0.0,0.0,70478.0,0.0,0.0,0.0,0.0,0.125,0.826415931,0.01,0.0,-65353.0,0.125,0.0,0.0,0.0,0.125,0.538330023,0.01,0.0,61529.0,0.0,0.0,0.0,0.0,0.125,3.391112934,0.01,0.0,-42071.0,0.125,0.0,0.0,0.0,0.25,1.650390456,0.01,0.0,0.25,-0.6200000047683716,52.439998626708984,-0.01312255859375,1.8310546875E-4,1.02398681640625,35.70000076293945,0.0,-4.0,-2.123748779296875,-1.533721923828125,Closing,0.0,0.0,-189.0,0.0,0.0,0.0,0.0,0.0,
1.294247000000003,0.0,0.0,70478.0,0.0,0.0,0.0,0.0,0.125,0.8276366340000001,0.01,0.0,-65353.0,0.125,0.0,0.0,0.0,0.125,0.538330023,0.01,0.0,61529.0,0.0,0.0,0.0,0.0,0.125,3.391112934,0.01,0.0,-42071.0,0.125,0.0,0.0,0.0,0.25,1.649169753,0.01,0.0,0.25,-0.6200000047683716,52.439998626708984,-0.0147705078125,0.00653076171875,1.03863525390625,35.70000076293945,0.0,0.0,-2.123748779296875,-1.533721923828125,Closing,0.0,0.0,-189.0,0.0,0.0,0.0,0.0,0.0,
1.4217729999999864,0.0,0.0,70462.0,1.875,-97.5,-634.9606275558472,0.0,0.125,0.8276366340000001,4.932250999999998,0.0,-65337.0,3.5,120.0,634.9606275558472,0.0,0.25,0.538330023,4.963769999999998,0.0,61528.0,2.625,-22.5,-634.9606275558472,0.0,0.125,3.40576137,0.01,0.0,-42069.0,2.125,37.5,634.9606275558472,0.0,0.25,1.649169753,0.01,0.0,0.25999999046325684,-0.9700000286102295,52.41999816894531,-0.17047119140625,-0.06988525390625,0.9508056640625,35.65999984741211,0.0,-153.0,-2.125946044921875,-1.531524658203125,Closing,0.0,0.0,-189.0,0.0,0.0,0.0,0.0,0.0,
1.5457429999999877,0.0,0.0,70436.0,4.125,-180.0,-833.3858048915863,0.0,0.25,0.8276366340000001,4.932250999999998,0.0,-65316.0,9.375,187.5,833.3858048915863,0.0,0.25,0.538330023,4.963769999999998,0.0,61523.0,6.5,-30.0,-833.3858048915863,0.0,0.125,3.4216305090000003,0.01,0.0,-42050.0,4.375,202.5,833.3858048915863,0.0,0.25,1.650390456,0.01,0.0,0.1899999976158142,-1.6399999856948853,52.400001525878906,-0.21038818359375,-0.01776123046875,1.04730224609375,35.65999984741211,0.0,-126.0,-2.1369476318359375,-1.5211029052734375,Closing,0.0,0.0,-189.0,0.0,0.0,0.0,0.0,0.0,
1.68968299999999,0.0,0.0,70368.0,4.0,-510.0,-833.3858048915863,0.0,0.25,0.8422850700000001,4.932250999999998,0.0,-65252.0,7.125,540.0,833.3858048915863,0.0,0.25,0.544433538,4.963769999999998,0.0,61497.0,7.75,-367.5,-833.3858048915863,0.0,0.125,3.402099261,0.01,0.0,-41992.0,3.875,532.5,833.3858048915863,0.0,0.25,1.650390456,0.01,0.0,0.10999999940395355,-2.640000104904175,52.349998474121094,-0.23529052734375,-0.0211181640625,1.1749267578125,35.65999984741211,0.0,-128.0,-2.1677703857421875,-1.4903106689453125,Closing,0.0,0.0,-189.0,0.0,0.0,0.0,0.0,0.0,
1.8216110000000045,0.0,0.0,70257.0,2.75,-795.0,-853.2283151149749,0.0,0.25,0.838622961,4.932250999999998,0.0,-65142.0,4.125,795.0,853.2283151149749,0.0,0.25,0.538330023,4.963769999999998,0.0,61423.0,7.375,-547.5,-853.2283151149749,0.0,0.125,3.387450825,0.01,0.0,-41767.0,3.0,735.0,853.2283151149749,0.0,0.25,1.650390456,0.01,0.0,0.029999999329447746,-3.25,52.439998626708984,-0.16949462890625,0.07281494140625,0.65399169921875,35.65999984741211,0.0,-23.0,-2.1995391845703125,-1.4597930908203125,Closing,0.0,0.0,-189.0,0.0,0.0,0.0,0.0,0.0,
1.9574189999999945,0.0,0.0,70117.0,1.0,-907.5,-853.2283151149749,0.0,0.25,0.8410643670000001,4.932250999999998,0.0,-64863.0,2.375,907.5,853.2283151149749,0.0,0.25,0.539550726,4.963769999999998,0.0,61199.0,6.625,-787.5,-853.2283151149749,0.0,0.125,3.387450825,0.01,0.0,-41626.0,2.25,870.0,853.2283151149749,0.0,0.25,1.6552732680000002,0.01,0.0,0.12999999523162842,-3.3399999141693115,52.88999938964844,-0.0810546875,0.01751708984375,1.07159423828125,35.65999984741211,0.0,0.0,-2.2439422607421875,-1.41595458984375,Closing,0.0,0.0,-189.0,0.0,0.0,0.0,0.0,0.0,
2.0908530000000027,0.0,0.0,69966.0,0.375,-982.5,-853.2283151149749,0.0,0.25,0.8422850700000001,4.932250999999998,0.0,-64710.0,1.5,960.0,853.2283151149749,0.0,0.25,0.544433538,4.963769999999998,0.0,61062.0,5.625,-847.5,-853.2283151149749,0.0,0.125,3.387450825,0.01,0.0,-41481.0,1.625,907.5,853.2283151149749,0.0,0.25,1.650390456,0.01,0.0,0.17000000178813934,-3.1700000762939453,53.16999816894531,0.02862548828125,-0.02447509765625,1.0335693359375,35.65999984741211,0.0,29.0,-2.283050537109375,-1.3896331787109375,Closing,0.0,0.0,-189.0,0.0,0.0,0.0,0.0,0.0,
2.221786999999982,0.0,0.0,69655.0,0.125,-952.5,-853.2283151149749,0.0,0.25,0.839843664,4.932250999999998,0.0,-64554.0,0.75,967.5,853.2283151149749,0.0,0.25,0.54931635,4.963769999999998,0.0,60905.0,4.125,-997.5,-853.2283151149749,0.0,0.125,3.387450825,0.01,0.0,-41338.0,1.25,892.5,853.2283151149749,0.0,0.25,1.6552732680000002,0.01,0.0,0.1599999964237213,-2.9600000381469727,53.34000015258789,0.0394287109375,0.0224609375,0.81256103515625,35.65999984741211,0.0,64.0,-2.3205718994140625,-1.392425537109375,Closing,0.0,0.0,-189.0,0.0,0.0,0.0,0.0,0.0,
2.355761999999988,0.0,0.0,69500.0,0.375,-975.0,-971.7573740557266,0.0,0.25,0.8288573370000001,0.07760998791236541,0.0,-64413.0,0.375,847.5,745.6398958688726,0.0,0.25,0.577392519,0.10190844544844668,0.0,60742.0,4.75,-1005.0,-971.7573740557266,0.0,0.25,3.3190914570000003,4.862661785890003,0.0,-41184.0,0.375,945.0,745.6398958688726,0.0,0.25,1.573486167,4.8562100152639225,0.0,0.25999999046325684,-2.6600000858306885,53.52000045776367,-0.0511474609375,0.0609130859375,0.91253662109375,35.65999984741211,0.0,40.0,-2.3575439453125,-1.3986358642578125,Closing,0.0,0.0,-189.0,0.0,0.0,0.0,0.0,0.0,
2.5572069999999947,0.0,0.0,69336.0,0.125,-967.5,-947.1217280212728,0.0,0.375,0.9985350540000001,0.18726900825683945,0.0,-64164.0,0.125,682.5,449.0563889446795,0.0,0.5,1.002197163,0.4121889808374862,0.0,60400.0,3.125,-1087.5,-947.1217280212728,0.0,0.25,3.127441086,4.752821588359536,0.0,-40922.0,0.5,742.5,449.0563889446795,0.0,0.5,1.090087779,4.546290157079748,0.0,0.2800000011920929,-1.7899999618530273,57.369998931884766,-0.07073974609375,0.1510009765625,1.79583740234375,35.63999938964844,0.0,111.0,-2.3966064453125,-1.42144775390625,Closing,0.0,0.0,-189.0,0.0,0.0,0.0,0.0,0.0,
2.6887509999999892,0.0,0.0,69174.0,0.125,-1102.5,-908.6090275531711,0.0,0.125,1.066894422,0.19537107723212413,0.0,-64092.0,0.125,465.0,415.1230434956704,0.0,0.25,1.199951049,0.44984412270983276,0.0,60229.0,1.75,-1095.0,-908.6090275531711,0.0,0.0,3.071288748,4.744706133252833,0.0,-40847.0,0.375,457.5,415.1230434956704,0.0,0.375,0.9753416970000001,4.508678786407237,0.0,0.3700000047683716,-1.2799999713897705,63.18000030517578,-0.076171875,4.8828125E-4,0.850341796875,35.63999938964844,0.0,-30.0,-2.4114837646484375,-1.4459075927734375,Closing,0.0,0.0,-189.0,0.0,0.0,0.0,0.0,0.0,
2.821318999999989,0.0,0.0,68837.0,0.125,-1020.0,-968.5522112488994,0.0,0.25,1.0314940350000001,0.21876526078888378,0.0,-64025.0,0.25,405.0,400.5282495595202,0.0,0.25,1.173095583,0.5749613835771783,0.0,60071.0,3.0,-960.0,-968.5522112488994,0.0,0.0,3.1091305410000003,4.721273298134786,0.0,-40785.0,0.5,375.0,400.5282495595202,0.0,0.25,0.996093648,4.383706964711167,0.0,0.46000000834465027,-1.0199999809265137,69.56999969482422,0.034423828125,-0.06231689453125,0.91558837890625,35.63999938964844,0.0,-47.0,-2.410797119140625,-1.4769287109375,Closing,0.0,0.0,-189.0,0.0,0.0,0.0,0.0,0.0,
2.9480599999999977,0.0,0.0,68686.0,0.125,-945.0,-968.5522112488994,0.0,0.25,1.065673719,0.21876526078888378,0.0,-63963.0,0.375,390.0,400.5282495595202,0.0,0.25,1.087646373,0.5749613835771783,0.0,59916.0,3.25,-975.0,-968.5522112488994,0.0,0.0,3.120116868,4.721273298134786,0.0,-40723.0,0.75,360.0,400.5282495595202,0.0,0.25,1.0327147380000001,4.383706964711167,0.0,0.6100000143051147,-1.090000033378601,75.27999877929688,-0.03302001953125,0.02166748046875,0.98614501953125,35.630001068115234,0.0,7.0,-2.403350830078125,-1.4840850830078125,Closing,0.0,0.0,-189.0,0.0,0.0,0.0,0.0,0.0,
3.0782459999999845,0.0,0.0,68544.0,0.125,-892.5,-820.4822293455559,0.0,0.25,1.04980458,0.15393388104833544,0.0,-63897.0,0.375,420.0,454.520363452169,0.0,0.25,0.96435537,0.2839357912162459,0.0,59770.0,2.625,-900.0,-820.4822293455559,0.0,0.0,3.144530928,4.786211791425214,0.0,-40664.0,0.875,382.5,454.520363452169,0.0,0.75,1.192626831,4.674394262254265,0.0,0.75,-1.149999976158142,80.08000183105469,-0.05889892578125,0.05645751953125,1.12103271484375,35.630001068115234,0.0,34.0,-2.3932342529296875,-1.4845123291015625,Closing,0.0,0.0,-189.0,0.0,0.0,0.0,0.0,0.0,
3.166963999999978,0.0,0.0,68544.0,0.0,-855.0,-615.1181173324585,0.0,0.375,0.937499904,4.932250999999998,0.0,-63818.0,0.75,472.5,615.1181173324585,0.0,0.5,0.70800774,4.963769999999998,0.0,59632.0,0.875,-855.0,-615.1181173324585,0.0,0.25,3.2092281870000003,0.01,0.0,-40605.0,2.0,360.0,615.1181173324585,0.0,0.75,1.4721678180000002,0.01,0.0,0.8899999856948853,-1.2400000095367432,83.06999969482422,-0.094482421875,-0.01446533203125,0.93634033203125,35.630001068115234,0.0,-37.0,-2.38330078125,-1.4849700927734375,Closing,0.0,0.0,-189.0,0.0,0.0,0.0,0.0,0.0,
3.2537360000000044,0.0,0.0,68412.0,0.125,-750.0,-813.5432946681976,0.0,0.25,0.79345695,4.932250999999998,0.0,-63732.0,2.25,540.0,813.5432946681976,0.0,0.25,0.40771480200000004,4.963769999999998,0.0,59510.0,2.75,-772.5,-813.5432946681976,0.0,0.125,3.3789059040000002,0.01,0.0,-40535.0,3.625,420.0,813.5432946681976,0.0,0.375,1.728515448,0.01,0.0,0.9700000286102295,-1.2999999523162842,84.66999816894531,-0.00299072265625,0.0233154296875,0.97607421875,35.630001068115234,0.0,8.0,-2.3690948486328125,-1.4848785400390625,Closing,0.0,0.0,-189.0,0.0,0.0,0.0,0.0,0.0,
3.370514999999985,0.0,0.0,68297.0,0.625,-697.5,-952.4409413337708,0.0,0.25,0.747070236,4.932250999999998,0.0,-63732.0,3.25,660.0,952.4409413337708,0.0,0.25,0.351562464,4.963769999999998,0.0,59510.0,5.125,-660.0,-952.4409413337708,0.0,0.125,3.45458949,0.01,0.0,-40422.0,3.875,652.5,952.4409413337708,0.0,0.25,1.717529121,0.01,0.0,0.9700000286102295,-1.440000057220459,83.75,-0.1541748046875,-0.07659912109375,0.9156494140625,35.630001068115234,0.0,-105.0,-2.3583526611328125,-1.4848480224609375,Closing,0.0,0.0,-189.0,0.0,0.0,0.0,0.0,0.0,
3.492965999999986,0.0,0.0,68189.0,1.625,-637.5,-952.4409413337708,0.0,0.375,0.7507323450000001,4.932250999999998,0.0,-63611.0,2.25,817.5,952.4409413337708,0.0,0.25,0.36987300900000003,4.963769999999998,0.0,59409.0,8.0,-630.0,-952.4409413337708,0.0,0.125,3.4313961330000002,0.01,0.0,-40290.0,3.0,825.0,952.4409413337708,0.0,0.25,1.645507644,0.01,0.0,0.8700000047683716,-1.659999966621399,82.16999816894531,-0.1090087890625,0.00830078125,0.90594482421875,35.61000061035156,0.0,-16.0,-2.3478240966796875,-1.4816131591796875,Closing,0.0,0.0,-189.0,0.0,0.0,0.0,0.0,0.0,
3.5893559999999995,0.0,0.0,68080.0,2.75,-675.0,-952.4409413337708,0.0,0.25,0.760497969,4.932250999999998,0.0,-63478.0,2.125,855.0,952.4409413337708,0.0,0.25,0.44677729800000004,4.963769999999998,0.0,59302.0,8.375,-727.5,-952.4409413337708,0.0,0.125,3.410644182,0.01,0.0,-40290.0,3.0,825.0,952.4409413337708,0.0,0.25,1.614990069,0.01,0.0,0.8700000047683716,-1.8799999952316284,81.41999816894531,-0.102783203125,-0.04559326171875,1.1922607421875,35.61000061035156,0.0,-72.0,-2.3416748046875,-1.4763336181640625,Closing,0.0,0.0,-189.0,0.0,0.0,0.0,0.0,0.0,
3.6897699999999896,0.0,0.0,67953.0,2.875,-787.5,-992.1259617805481,0.0,0.25,0.784912029,4.932250999999998,0.0,-63333.0,2.125,907.5,992.1259617805481,0.0,0.25,0.518798775,4.963769999999998,0.0,59173.0,7.75,-817.5,-992.1259617805481,0.0,0.125,3.406982073,0.01,0.0,-40148.0,3.125,900.0,992.1259617805481,0.0,0.125,1.617431475,0.01,0.0,0.6499999761581421,-2.0899999141693115,80.9000015258789,-0.07940673828125,-0.04754638671875,1.060546875,35.61000061035156,0.0,-65.0,-2.336151123046875,-1.468505859375,Closing,0.0,0.0,-189.0,0.0,0.0,0.0,0.0,0.0,
3.765645999999979,0.0,0.0,67953.0,2.5,-862.5,-1011.9684720039367,0.0,0.125,0.8032225740000001,4.932250999999998,0.0,-63182.0,2.125,937.5,1011.9684720039367,0.0,0.125,0.534667914,4.963769999999998,0.0,59021.0,7.25,-915.0,-1011.9684720039367,0.0,0.125,3.397216449,0.01,0.0,-40000.0,3.25,922.5,1011.9684720039367,0.0,0.125,1.616210772,0.01,0.0,0.6399999856948853,-2.299999952316284,80.7300033569336,-0.042724609375,-0.0572509765625,1.00555419921875,35.61000061035156,0.0,-67.0,-2.3321380615234375,-1.4593658447265625,Closing,0.0,0.0,-189.0,0.0,0.0,0.0,0.0,0.0,
3.8451939999999887,0.0,0.0,67805.0,1.875,-960.0,-1011.9684720039367,0.0,0.125,0.808105386,4.932250999999998,0.0,-63182.0,2.125,960.0,1011.9684720039367,0.0,0.25,0.533447211,4.963769999999998,0.0,59021.0,6.5,-1005.0,-1011.9684720039367,0.0,0.125,3.397216449,0.01,0.0,-40000.0,3.125,960.0,1011.9684720039367,0.0,0.125,1.616210772,0.01,0.0,0.46000000834465027,-2.3499999046325684,80.69999694824219,-0.05718994140625,-0.02484130859375,0.884521484375,35.61000061035156,0.0,-34.0,-2.3304901123046875,-1.4488067626953125,Closing,0.0,0.0,-189.0,0.0,0.0,0.0,0.0,0.0,
4.021673999999999,0.0,0.0,67647.0,1.875,-1012.5,-1051.6535675525665,0.0,0.125,0.808105386,4.932250999999998,0.0,-62857.0,2.0,1027.5,1051.6535675525665,0.0,0.25,0.533447211,4.963769999999998,0.0,58683.0,5.75,-1072.5,-1051.6535675525665,0.0,0.125,3.397216449,0.01,0.0,-39677.0,3.125,1020.0,1051.6535675525665,0.0,0.125,1.616210772,0.01,0.0,0.47999998927116394,-2.4000000953674316,80.75,-0.0311279296875,0.169921875,0.956298828125,35.630001068115234,0.0,161.0,-2.32916259765625,-1.4293060302734375,Closing,0.0,0.0,-189.0,0.0,0.0,0.0,0.0,0.0,
4.158291999999987,0.0,0.0,67304.0,2.5,-1095.0,-1182.8907091950543,0.0,0.375,0.838622961,0.07082227785565909,0.0,-62694.0,0.875,1005.0,931.3453341016385,0.0,0.25,0.5566405680000001,0.09060107123987686,0.0,58503.0,6.625,-1125.0,-1182.8907091950543,0.0,0.125,3.3142086450000003,4.869460710511672,0.0,-39508.0,2.0,1005.0,931.3453341016385,0.0,0.25,1.563720543,4.867504245521587,0.0,0.5299999713897705,-2.490000009536743,80.86000061035156,-0.06292724609375,0.14849853515625,1.01861572265625,35.630001068115234,0.0,134.0,-2.32757568359375,-1.4203948974609375,Closing,0.0,0.0,-189.0,0.0,0.0,0.0,0.0,0.0,
4.279440000000002,0.0,0.0,67110.0,1.625,-1207.5,-1196.4796662270403,0.0,0.25,0.871581942,0.07703887437341844,0.0,-62535.0,0.75,982.5,920.0840386245386,0.0,0.25,0.590820252,0.10093436339655973,0.0,58308.0,5.125,-1237.5,-1196.4796662270403,0.0,0.125,3.286132476,4.8632338430152,0.0,-39354.0,1.875,997.5,920.0840386245386,0.0,0.25,1.5039060960000001,4.85718296502051,0.0,0.5799999833106995,-2.2699999809265137,82.4000015258789,0.12921142578125,0.133056640625,0.8021240234375,35.630001068115234,0.0,145.0,-2.3274078369140625,-1.4203643798828125,Closing,0.0,0.0,-189.0,0.0,0.0,0.0,0.0,0.0,
4.423087,0.0,0.0,66909.0,1.0,-1260.0,-1196.4796662270403,0.0,0.125,0.8801268630000001,0.07703887437341844,0.0,-62380.0,0.75,960.0,920.0840386245386,0.0,0.125,0.605468688,0.10093436339655973,0.0,58101.0,3.5,-1335.0,-1196.4796662270403,0.0,0.0,3.284911773,4.8632338430152,0.0,-39195.0,2.0,922.5,920.0840386245386,0.0,0.125,1.490478363,4.85718296502051,0.0,0.7099999785423279,-2.1700000762939453,85.06999969482422,0.0992431640625,0.018798828125,1.04278564453125,35.630001068115234,0.0,17.0,-2.32733154296875,-1.42462158203125,Closing,0.0,0.0,-189.0,0.0,0.0,0.0,0.0,0.0,
4.561038999999989,0.0,0.0,66708.0,1.625,-1245.0,-1293.5251005798243,0.0,0.25,0.8935545960000001,0.116849770174324,0.0,-62226.0,0.5,922.5,846.1204394899241,0.0,0.25,0.6445311840000001,0.18068619153324836,0.0,57889.0,4.0,-1297.5,-1293.5251005798243,0.0,0.125,3.2666012280000003,4.823357172177728,0.0,-39041.0,1.25,952.5,846.1204394899241,0.0,0.25,1.486816254,4.7775238422364765,0.0,0.7699999809265137,-2.009999990463257,87.9000015258789,-0.02764892578125,-0.06158447265625,0.95770263671875,35.630001068115234,0.0,-74.0,-2.3257904052734375,-1.4267578125,Closing,0.0,0.0,-189.0,0.0,0.0,0.0,0.0,0.0,
4.687972999999998,0.0,0.0,66509.0,2.0,-1260.0,-1321.8054859224587,0.0,0.25,0.92773428,0.12714172096030005,0.0,-62081.0,0.375,907.5,826.7509573750339,0.0,0.25,0.706787037,0.20600606967652552,0.0,57683.0,4.625,-1297.5,-1321.8054859224587,0.0,0.125,3.2617184160000003,4.81304821716651,0.0,-38893.0,1.125,915.0,826.7509573750339,0.0,0.25,1.439208837,4.752233396499795,0.0,0.7400000095367432,-2.0,90.91000366210938,-0.0909423828125,0.02947998046875,1.02294921875,35.630001068115234,0.0,17.0,-2.3219757080078125,-1.42840576171875,Closing,0.0,0.0,-189.0,0.0,0.0,0.0,0.0,0.0,
4.822766999999993,0.0,0.0,66299.0,1.375,-1327.5,-1321.8054859224587,0.0,0.125,0.9448241220000001,0.12714172096030005,0.0,-61939.0,0.375,855.0,826.7509573750339,0.0,0.0,0.7385253150000001,0.20600606967652552,0.0,57244.0,3.5,-1395.0,-1321.8054859224587,0.0,0.125,3.2617184160000003,4.81304821716651,0.0,-38620.0,1.875,810.0,826.7509573750339,0.0,0.25,1.405029153,4.752233396499795,0.0,0.8700000047683716,-1.8600000143051147,95.8499984741211,0.03729248046875,-0.00933837890625,0.8656005859375,35.630001068115234,0.0,-29.0,-2.3129119873046875,-1.433380126953125,Closing,0.0,0.0,-189.0,0.0,0.0,0.0,0.0,0.0,
4.9474869999999935,0.0,0.0,66086.0,0.625,-1320.0,-1196.4796662270403,0.0,0.25,0.926513577,0.07703887437341844,0.0,-61658.0,0.75,870.0,920.0840386245386,0.0,0.25,0.6970214130000001,0.10093436339655973,0.0,57029.0,1.875,-1342.5,-1196.4796662270403,0.0,0.0,3.2604977130000004,4.8632338430152,0.0,-38481.0,2.375,862.5,920.0840386245386,0.0,0.25,1.467285006,4.85718296502051,0.0,1.0399999618530273,-1.6100000143051147,100.37999725341797,-0.03070068359375,-0.01702880859375,0.708740234375,35.61000061035156,0.0,-27.0,-2.2994537353515625,-1.4435272216796875,Closing,0.0,0.0,-189.0,0.0,0.0,0.0,0.0,0.0,
5.090114999999991,0.0,0.0,65876.0,0.75,-1245.0,-1196.4796662270403,0.0,0.25,0.9106444380000001,0.07703887437341844,0.0,-61522.0,0.875,847.5,920.0840386245386,0.0,0.25,0.6066893910000001,0.10093436339655973,0.0,56829.0,2.375,-1252.5,-1196.4796662270403,0.0,0.0,3.2556149010000004,4.8632338430152,0.0,-38344.0,2.625,840.0,920.0840386245386,0.0,0.25,1.535644374,4.85718296502051,0.0,1.2000000476837158,-1.5499999523162842,103.93000030517578,0.01666259765625,0.0216064453125,0.8173828125,35.61000061035156,0.0,-5.0,-2.281463623046875,-1.454498291015625,Closing,0.0,0.0,-189.0,0.0,0.0,0.0,0.0,0.0,
5.222569999999978,0.0,0.0,65496.0,1.375,-1170.0,-1196.4796662270403,0.0,0.125,0.90332022,0.07703887437341844,0.0,-61380.0,1.125,877.5,920.0840386245386,0.0,0.0,0.577392519,0.10093436339655973,0.0,56639.0,3.25,-1177.5,-1196.4796662270403,0.0,0.0,3.2617184160000003,4.8632338430152,0.0,-38200.0,2.375,907.5,920.0840386245386,0.0,0.125,1.539306483,4.85718296502051,0.0,1.25,-1.5399999618530273,106.33999633789062,0.01324462890625,-0.036376953125,0.68853759765625,35.61000061035156,0.0,-58.0,-2.27392578125,-1.4622955322265625,Closing,0.0,0.0,-189.0,0.0,0.0,0.0,0.0,0.0,
5.347652999999991,0.0,0.0,65304.0,1.25,-1185.0,-1196.4796662270403,0.0,0.125,0.90332022,0.07703887437341844,0.0,-61234.0,0.75,922.5,920.0840386245386,0.0,0.25,0.577392519,0.10093436339655973,0.0,56447.0,3.25,-1200.0,-1196.4796662270403,0.0,0.0,3.2604977130000004,4.8632338430152,0.0,-38059.0,2.5,885.0,920.0840386245386,0.0,0.25,1.533202968,4.85718296502051,0.0,1.2899999618530273,-1.7300000190734863,108.18000030517578,-0.106201171875,-0.1304931640625,1.19219970703125,35.61000061035156,0.0,-127.0,-2.2732391357421875,-1.463165283203125,Closing,0.0,0.0,-189.0,0.0,0.0,0.0,0.0,0.0,
5.491864000000001,0.0,0.0,65108.0,1.0,-1215.0,-1196.4796662270403,0.0,0.125,0.90332022,0.07703887437341844,0.0,-61087.0,0.75,915.0,920.0840386245386,0.0,0.25,0.572509707,0.10093436339655973,0.0,56254.0,2.75,-1207.5,-1196.4796662270403,0.0,0.0,3.2629391190000003,4.8632338430152,0.0,-37914.0,2.5,900.0,920.0840386245386,0.0,0.25,1.539306483,4.85718296502051,0.0,1.3300000429153442,-1.7899999618530273,110.83000183105469,-0.0789794921875,-0.03955078125,0.97894287109375,35.65999984741211,0.0,-41.0,-2.2725830078125,-1.466796875,Closing,0.0,0.0,-189.0,0.0,0.0,0.0,0.0,0.0,
5.614603999999992,0.0,0.0,64921.0,0.625,-1162.5,-1051.6535675525665,0.0,0.25,0.860595615,4.932250999999998,0.0,-60936.0,1.75,945.0,1051.6535675525665,0.0,0.25,0.533447211,4.963769999999998,0.0,56063.0,1.5,-1170.0,-1051.6535675525665,0.0,0.125,3.280028961,0.01,0.0,-37767.0,3.5,930.0,1051.6535675525665,0.0,0.375,1.588134603,0.01,0.0,1.350000023841858,-1.7699999809265137,113.02999877929688,0.060302734375,-0.03399658203125,1.03607177734375,35.65999984741211,0.0,-90.0,-2.2737579345703125,-1.471343994140625,Closing,0.0,0.0,-189.0,0.0,0.0,0.0,0.0,0.0,
5.760885999999998,0.0,0.0,64742.0,0.625,-1102.5,-1051.6535675525665,0.0,0.25,0.783691326,4.932250999999998,0.0,-60783.0,1.875,975.0,1051.6535675525665,0.0,0.125,0.477294873,4.963769999999998,0.0,55882.0,1.75,-1117.5,-1051.6535675525665,0.0,0.0,3.353271141,0.01,0.0,-37617.0,3.625,952.5,1051.6535675525665,0.0,0.25,1.625976396,0.01,0.0,1.3200000524520874,-1.8200000524520874,113.88999938964844,0.04620361328125,0.05303955078125,1.08758544921875,35.65999984741211,0.0,-7.0,-2.275970458984375,-1.4758148193359375,Closing,0.0,0.0,-189.0,0.0,0.0,0.0,0.0,0.0,
5.890294999999984,0.0,0.0,64636.0,8.25,22.5,1443.75,0.0,0.75,1.130370978,0.5498168668524888,0.0,-60614.0,4.875,1147.5,1443.75,0.0,0.25,0.076904289,4.410439589772222,0.0,55712.0,21.375,-727.5,1443.75,0.0,0.75,3.018798519,4.389674732977289,0.0,-37453.0,6.5,1080.0,1443.75,0.0,0.625,2.095947051,0.5526872062785588,0.0,1.2000000476837158,-0.1899999976158142,110.66999816894531,0.395751953125,0.11993408203125,1.2039794921875,35.65999984741211,0.0,-52.0,-2.28216552734375,-1.4919281005859375,Closing,0.0,0.0,-189.0,0.0,0.0,0.0,0.0,0.0,
6.023126999999978,0.0,0.0,64696.0,0.0,307.5,0.0,0.0,0.5,1.4489744610000002,0.5498168668524888,0.0,-60423.0,0.125,1012.5,0.0,0.0,0.25,4.78515576,4.410439589772222,0.0,55628.0,0.0,-217.5,0.0,0.0,0.125,2.7416989380000003,4.389674732977289,0.0,-37282.0,0.125,562.5,0.0,0.0,0.375,2.292480234,0.5526872062785588,0.0,0.8700000047683716,2.380000114440918,103.16000366210938,0.288818359375,-0.37530517578125,0.686279296875,35.65999984741211,0.0,-434.0,-2.300140380859375,-1.5419769287109375,Closing,0.0,0.0,-189.0,0.0,0.0,0.0,0.0,0.0,
6.158838999999978,0.0,0.0,64783.0,0.0,360.0,0.0,0.0,0.375,1.496581878,0.5498168668524888,0.0,-60317.0,0.125,105.0,0.0,0.0,0.25,4.8181147410000005,4.410439589772222,0.0,55657.0,0.0,262.5,0.0,0.0,0.0,2.701415739,4.389674732977289,0.0,-37199.0,0.125,180.0,0.0,0.0,0.25,2.2656247680000003,0.5526872062785588,0.0,0.14000000059604645,1.2799999713897705,99.8499984741211,0.00213623046875,0.16650390625,0.82611083984375,35.65999984741211,0.0,164.0,-2.342987060546875,-1.6040191650390625,Closing,0.0,0.0,-189.0,0.0,0.0,0.0,0.0,0.0,
6.280959000000003,0.0,0.0,64793.0,0.0,0.0,0.0,0.0,0.375,1.41601548,0.5498168668524888,0.0,-60310.0,0.125,60.0,0.0,0.0,0.25,4.879149891,4.410439589772222,0.0,55654.0,0.0,37.5,0.0,0.0,0.125,2.761230186,4.389674732977289,0.0,-37193.0,0.125,30.0,0.0,0.0,0.25,2.207031024,0.5526872062785588,0.0,0.05000000074505806,1.4299999475479126,99.87000274658203,-0.06396484375,-0.04193115234375,0.867919921875,35.65999984741211,0.0,-27.0,-2.373138427734375,-1.6460418701171875,Closing,0.0,0.0,-189.0,0.0,0.0,0.0,0.0,0.0,
6.421183999999979,0.0,0.0,64764.0,1.0,-165.0,-545.6692814826965,0.0,0.25,1.390380717,0.5498168668524864,0.0,-60324.0,2.75,-97.5,-545.6692814826965,0.0,0.25,4.904784654,4.41043958977222,0.0,55640.0,0.625,-90.0,-545.6692814826965,0.0,0.0,2.7941891670000003,4.389674732977291,0.0,-37200.0,1.375,-67.5,-545.6692814826965,0.0,0.25,2.191161885,0.552687206278561,0.0,0.11999999731779099,1.0399999618530273,100.88999938964844,0.06536865234375,-0.042236328125,0.9599609375,35.65999984741211,0.0,-52.0,-2.412139892578125,-1.691558837890625,Closing,0.0,0.0,-189.0,0.0,0.0,0.0,0.0,0.0,
6.5592979999999805,0.0,0.0,64756.0,0.0,-52.5,0.0,0.0,0.25,1.381835796,0.5498168668524864,0.0,-60338.0,0.125,-37.5,0.0,0.0,0.125,4.914550278,4.41043958977222,0.0,55613.0,0.0,-97.5,0.0,0.0,0.0,2.7941891670000003,4.389674732977291,0.0,-37217.0,0.125,-67.5,0.0,0.0,0.125,2.187499776,0.552687206278561,0.0,0.20000000298023224,0.7900000214576721,102.81999969482422,-0.04998779296875,0.01214599609375,1.00738525390625,35.630001068115234,0.0,22.0,-2.4416351318359375,-1.7242889404296875,Closing,0.0,0.0,-189.0,0.0,0.0,0.0,0.0,0.0,
6.700576000000001,0.0,0.0,64732.0,0.375,-180.0,-479.5275494456292,0.0,0.125,1.380615093,0.5498168668524864,0.0,-60348.0,1.375,-165.0,-479.5275494456292,0.0,0.0,4.9157709810000005,4.41043958977222,0.0,55610.0,0.625,-120.0,-479.5275494456292,0.0,0.0,2.818603227,4.389674732977291,0.0,-37224.0,0.625,-157.5,-479.5275494456292,0.0,0.25,2.187499776,0.552687206278561,0.0,0.23999999463558197,0.6399999856948853,103.5999984741211,0.12945556640625,0.13629150390625,1.12158203125,35.630001068115234,0.0,100.0,-2.4451904296875,-1.739471435546875,Closing,0.0,0.0,-189.0,0.0,0.0,0.0,0.0,0.0,
6.824959000000002,0.0,0.0,64723.0,0.0,-52.5,0.0,0.0,0.125,1.380615093,0.5498168668524864,0.0,-60373.0,0.125,-37.5,0.0,0.0,0.0,4.9206537930000005,4.41043958977222,0.0,55578.0,0.0,-127.5,0.0,0.0,0.125,2.808837603,4.389674732977291,0.0,-37250.0,0.125,-67.5,0.0,0.0,0.25,2.187499776,0.552687206278561,0.0,0.25999999046325684,0.4399999976158142,104.63999938964844,-0.04638671875,-0.02191162109375,0.95025634765625,35.630001068115234,0.0,-11.0,-2.445159912109375,-1.739044189453125,Closing,0.0,0.0,-189.0,0.0,0.0,0.0,0.0,0.0,
6.9579320000000004,0.0,0.0,64723.0,0.0,0.0,0.0,0.0,0.125,1.381835796,0.5498168668524864,0.0,-60373.0,0.125,0.0,0.0,0.0,0.0,4.9206537930000005,4.41043958977222,0.0,55577.0,0.0,0.0,0.0,0.0,0.0,2.810058306,4.389674732977291,0.0,-37250.0,0.125,0.0,0.0,0.0,0.125,2.187499776,0.552687206278561,0.0,0.2800000011920929,0.3700000047683716,104.80999755859375,-0.0059814453125,0.00628662109375,0.99285888671875,35.630001068115234,0.0,4.0,-2.4443359375,-1.737701416015625,Closing,0.0,0.0,-189.0,0.0,0.0,0.0,0.0,0.0,
7.079843999999983,0.0,0.0,64711.0,1.25,-82.5,-529.1338562965393,0.0,0.125,1.380615093,0.5498168668524864,0.0,-60379.0,1.875,-60.0,-529.1338562965393,0.0,0.0,4.916991684,4.41043958977222,0.0,55576.0,1.25,-37.5,-529.1338562965393,0.0,0.0,2.814941118,4.389674732977291,0.0,-37250.0,1.25,-60.0,-529.1338562965393,0.0,0.25,2.187499776,0.552687206278561,0.0,0.25999999046325684,0.20000000298023224,104.88999938964844,-0.01153564453125,0.0982666015625,1.04046630859375,35.61000061035156,0.0,94.0,-2.4433746337890625,-1.737213134765625,Closing,0.0,0.0,-189.0,0.0,0.0,0.0,0.0,0.0,
7.224052999999985,0.0,0.0,64699.0,0.0,-37.5,0.0,0.0,0.125,1.381835796,0.5498168668524864,0.0,-60397.0,0.125,-15.0,0.0,0.0,0.0,4.9206537930000005,4.41043958977222,0.0,55556.0,0.0,-22.5,0.0,0.0,0.125,2.81982393,4.389674732977291,0.0,-37270.0,0.125,-15.0,0.0,0.0,0.125,2.187499776,0.552687206278561,0.0,0.33000001311302185,0.0,106.86000061035156,-0.0421142578125,0.01116943359375,1.15667724609375,35.61000061035156,0.0,16.0,-2.441925048828125,-1.7355499267578125,Closing,0.0,0.0,-189.0,0.0,0.0,0.0,0.0,0.0,
7.349210999999981,0.0,0.0,64699.0,0.0,0.0,0.0,0.0,0.125,1.381835796,0.5498168668524864,0.0,-60397.0,0.125,0.0,0.0,0.0,0.0,4.9206537930000005,4.41043958977222,0.0,55556.0,0.0,0.0,0.0,0.0,0.125,2.818603227,4.389674732977291,0.0,-37270.0,0.125,0.0,0.0,0.0,0.25,2.187499776,0.552687206278561,0.0,0.33000001311302185,-0.009999999776482582,106.80999755859375,-0.0284423828125,0.00921630859375,1.02130126953125,35.61000061035156,0.0,11.0,-2.441741943359375,-1.735137939453125,Closing,0.0,0.0,-189.0,0.0,0.0,0.0,0.0,0.0,
7.482067999999999,0.0,0.0,64699.0,1.625,-105.0,-529.1338562965393,0.0,0.125,1.380615093,0.5498168668524864,0.0,-60415.0,2.625,-112.5,-529.1338562965393,0.0,0.0,4.91943309,4.41043958977222,0.0,55540.0,1.25,-90.0,-529.1338562965393,0.0,0.125,2.823486039,4.389674732977291,0.0,-37287.0,1.25,-120.0,-529.1338562965393,0.0,0.25,2.187499776,0.552687206278561,0.0,0.36000001430511475,-0.1599999964237213,106.86000061035156,-0.126953125,0.09368896484375,1.1246337890625,35.61000061035156,0.0,118.0,-2.441314697265625,-1.73394775390625,Closing,0.0,0.0,-189.0,0.0,0.0,0.0,0.0,0.0,
7.62527899999998,0.0,0.0,64640.0,2.75,-195.0,-677.9527455568314,0.0,0.125,1.381835796,0.5498168668524864,0.0,-60449.0,6.125,-255.0,-677.9527455568314,0.0,0.0,4.916991684,4.41043958977222,0.0,55510.0,2.875,-210.0,-677.9527455568314,0.0,0.125,2.823486039,4.389674732977291,0.0,-37314.0,2.625,-195.0,-677.9527455568314,0.0,0.25,2.187499776,0.552687206278561,0.0,0.27000001072883606,-0.3100000023841858,110.08000183105469,-0.061767578125,0.0277099609375,0.99652099609375,35.619998931884766,0.0,40.0,-2.4404296875,-1.7308349609375,Closing,0.0,0.0,-189.0,0.0,0.0,0.0,0.0,0.0,
7.760192999999999,0.0,0.0,64604.0,0.0,-210.0,0.0,0.0,0.125,1.381835796,0.5498168668524864,0.0,-60490.0,0.125,-195.0,0.0,0.0,0.0,4.91943309,4.41043958977222,0.0,55458.0,0.0,-300.0,0.0,0.0,0.125,2.8039547910000002,4.389674732977291,0.0,-37356.0,0.125,-187.5,0.0,0.0,0.25,2.187499776,0.552687206278561,0.0,0.4399999976158142,-0.44999998807907104,115.25,0.08843994140625,0.0257568359375,0.89898681640625,35.619998931884766,0.0,-23.0,-2.4389190673828125,-1.7246856689453125,Closing,0.0,0.0,-189.0,0.0,0.0,0.0,0.0,0.0,
7.8869729999999985,0.0,0.0,64571.0,0.0,-195.0,0.0,0.0,0.125,1.380615093,0.5498168668524864,0.0,-60526.0,0.125,-187.5,0.0,0.0,0.0,4.9206537930000005,4.41043958977222,0.0,55419.0,0.0,-240.0,0.0,0.0,0.0,2.7990719790000003,4.389674732977291,0.0,-37389.0,0.125,-195.0,0.0,0.0,0.25,2.187499776,0.552687206278561,0.0,0.38999998569488525,-0.4699999988079071,117.43000030517578,-0.02899169921875,0.0506591796875,1.09710693359375,35.619998931884766,0.0,47.0,-2.4362640380859375,-1.72052001953125,Closing,0.0,0.0,-189.0,0.0,0.0,0.0,0.0,0.0,
8.024674999999988,0.0,0.0,64566.0,0.0,-15.0,0.0,0.0,0.125,1.380615093,0.5498168668524864,0.0,-60535.0,0.125,-15.0,0.0,0.0,0.0,4.91943309,4.41043958977222,0.0,55409.0,0.0,-7.5,0.0,0.0,0.0,2.8002926820000003,4.389674732977291,0.0,-37400.0,0.125,-7.5,0.0,0.0,0.25,2.187499776,0.552687206278561,0.0,0.36000001430511475,-0.46000000834465027,117.41000366210938,-0.01611328125,-0.0029296875,0.99932861328125,35.599998474121094,0.0,-4.0,-2.4341888427734375,-1.7205810546875,Closing,0.0,0.0,-189.0,0.0,0.0,0.0,0.0,0.0,
8.159527000000002,0.0,0.0,64566.0,0.0,0.0,0.0,0.0,0.125,1.381835796,0.5498168668524864,0.0,-60535.0,0.125,0.0,0.0,0.0,0.0,4.91943309,4.41043958977222,0.0,55409.0,0.0,0.0,0.0,0.0,0.0,2.7990719790000003,4.389674732977291,0.0,-37400.0,0.125,0.0,0.0,0.0,0.25,2.188720479,0.552687206278561,0.0,0.3700000047683716,-0.5400000214576721,116.97000122070312,-0.021240234375,-0.01934814453125,1.03021240234375,35.599998474121094,0.0,-18.0,-2.4340667724609375,-1.7203826904296875,Closing,0.0,0.0,-189.0,0.0,0.0,0.0,0.0,0.0,
8.288788,0.0,0.0,64580.0,2.125,195.0,802.9988587943128,0.0,0.75,1.6076658510000001,1.0139772381159413,0.0,-60526.0,28.125,360.0,1785.659940452122,0.0,0.5,0.045166011000000006,4.6106096450101495,0.0,55410.0,2.5,120.0,802.9988587943128,0.0,0.375,2.518310289,3.924747482075021,0.0,-37400.0,16.0,322.5,1785.659940452122,0.0,0.25,1.9482419880000001,0.3527498333000277,0.0,0.5199999809265137,-0.7900000214576721,114.4000015258789,-0.13409423828125,0.16571044921875,1.13323974609375,35.599998474121094,0.0,190.0,-2.431182861328125,-1.71697998046875,Closing,0.0,0.0,-189.0,0.0,0.0,0.0,0.0,0.0,
8.426309999999997,0.0,0.0,64634.0,1.75,262.5,-555.5905491113663,0.0,2.375,1.418456886,4.932250999999998,0.0,-60430.0,2.0,772.5,555.5905491113663,0.0,0.75,0.40893550500000003,4.963769999999998,0.0,55490.0,1.875,292.5,-555.5905491113663,0.0,3.375,2.8442379900000003,0.01,0.0,-37213.0,2.0,690.0,555.5905491113663,0.0,0.5,1.676025219,0.01,0.0,0.5099999904632568,-1.6299999952316284,106.80999755859375,-0.13946533203125,-0.1435546875,1.0084228515625,35.599998474121094,0.0,-114.0,-2.421173095703125,-1.7022247314453125,Closing,0.0,0.0,-189.0,0.0,0.0,0.0,0.0,0.0,
8.5615,0.0,0.0,64659.0,0.0,60.0,0.0,0.0,0.5,0.678710868,4.932250999999998,0.0,-60293.0,0.125,195.0,0.0,0.0,0.25,0.6604003230000001,4.963769999999998,0.0,55483.0,0.0,-22.5,0.0,0.0,0.625,3.5754390870000003,0.01,0.0,-37172.0,0.125,345.0,0.0,0.0,0.25,1.519775235,0.01,0.0,0.07999999821186066,-1.0399999618530273,106.29000091552734,0.146728515625,-0.13812255859375,0.93878173828125,35.63999938964844,0.0,-179.0,-2.4178924560546875,-1.6824951171875,Closing,0.0,0.0,-189.0,0.0,0.0,0.0,0.0,0.0,
8.68685699999999,0.0,0.0,64635.0,0.0,-172.5,0.0,0.0,0.375,0.6201171240000001,4.932250999999998,0.0,-60279.0,0.125,82.5,0.0,0.0,0.25,0.629882748,4.963769999999998,0.0,55463.0,0.0,-135.0,0.0,0.0,0.25,3.608398068,0.01,0.0,-37159.0,0.125,82.5,0.0,0.0,0.25,1.549072107,0.01,0.0,0.30000001192092896,-0.4399999976158142,106.08999633789062,0.03900146484375,-0.0264892578125,1.058349609375,35.63999938964844,0.0,-44.0,-2.41943359375,-1.67578125,Closing,0.0,0.0,-189.0,0.0,0.0,0.0,0.0,0.0,
8.824194999999978,0.0,0.0,64635.0,0.0,0.0,0.0,0.0,0.375,0.755615157,4.932250999999998,0.0,-60278.0,0.0,0.0,0.0,0.0,0.25,0.552978459,4.963769999999998,0.0,55463.0,0.0,0.0,0.0,0.0,0.25,3.402099261,0.01,0.0,-37157.0,0.125,0.0,0.0,0.0,0.25,1.6064451480000002,0.01,0.0,0.27000001072883606,-0.33000001311302185,106.30000305175781,-0.02978515625,0.07586669921875,1.0369873046875,35.63999938964844,0.0,74.0,-2.4212493896484375,-1.674835205078125,Closing,0.0,0.0,-189.0,0.0,0.0,0.0,0.0,0.0,
8.961301999999996,0.0,0.0,64623.0,0.125,-67.5,-380.31496703624725,0.0,2.5,1.0607909070000001,0.5498168668524864,0.0,-60287.0,1.25,-60.0,-380.31496703624725,0.0,1.125,0.21118161900000001,4.41043958977222,0.0,55462.0,0.375,-30.0,-380.31496703624725,0.0,1.875,3.013915707,4.389674732977291,0.0,-37161.0,0.625,-37.5,-380.31496703624725,0.0,1.5,1.933593552,0.552687206278561,0.0,0.17000000178813934,-0.3700000047683716,106.4000015258789,0.01025390625,0.01885986328125,1.0169677734375,35.63999938964844,0.0,10.0,-2.4219512939453125,-1.6732177734375,Closing,0.0,0.0,-189.0,0.0,0.0,0.0,0.0,0.0,
9.09034599999999,0.0,0.0,64621.0,0.0,-22.5,0.0,0.0,0.625,1.356201033,0.5498168668524864,0.0,-60291.0,0.125,-22.5,0.0,0.0,0.25,4.879149891,4.41043958977222,0.0,55449.0,0.0,-22.5,0.0,0.0,0.25,2.761230186,4.389674732977291,0.0,-37179.0,0.125,-90.0,0.0,0.0,0.625,2.183837667,0.552687206278561,0.0,0.25,-0.4399999976158142,107.0,-0.0712890625,0.01068115234375,1.02850341796875,35.630001068115234,0.0,24.0,-2.4211273193359375,-1.6717529296875,Closing,0.0,0.0,-189.0,0.0,0.0,0.0,0.0,0.0,
9.225530999999988,0.0,0.0,64621.0,0.0,0.0,0.0,0.0,0.125,1.4526365700000001,0.5498168668524864,0.0,-60291.0,0.125,0.0,0.0,0.0,0.25,4.814452632,4.41043958977222,0.0,55452.0,0.0,0.0,0.0,0.0,0.0,2.712402066,4.389674732977291,0.0,-37180.0,0.125,0.0,0.0,0.0,0.25,2.235107193,0.552687206278561,0.0,0.23999999463558197,-0.5699999928474426,107.33000183105469,-0.004150390625,0.00421142578125,1.0185546875,35.630001068115234,0.0,-1.0,-2.419891357421875,-1.6656341552734375,Closing,0.0,0.0,-189.0,0.0,0.0,0.0,0.0,0.0,
9.36227899999998,0.0,0.0,64621.0,0.0,0.0,0.0,0.0,0.25,1.409911965,0.5498168668524864,0.0,-60291.0,0.125,0.0,0.0,0.0,0.25,4.851073722000001,4.41043958977222,0.0,55452.0,0.0,0.0,0.0,0.0,0.0,2.785644246,4.389674732977291,0.0,-37180.0,0.125,0.0,0.0,0.0,0.25,2.178954855,0.552687206278561,0.0,0.23999999463558197,-0.6399999856948853,107.27999877929688,0.0068359375,0.001953125,1.0155029296875,35.630001068115234,0.0,-7.0,-2.419891357421875,-1.664886474609375,Closing,0.0,0.0,-189.0,0.0,0.0,0.0,0.0,0.0,
9.491044999999984,0.0,0.0,64621.0,0.0,0.0,0.0,0.0,0.25,1.361083845,0.5498168668524864,0.0,-60291.0,0.125,0.0,0.0,0.0,0.25,4.877929188,4.41043958977222,0.0,55452.0,0.0,0.0,0.0,0.0,0.0,2.7941891670000003,4.389674732977291,0.0,-37180.0,0.125,0.0,0.0,0.0,0.125,2.154540795,0.552687206278561,0.0,0.23000000417232513,-0.6700000166893005,107.13999938964844,-0.01995849609375,0.0040283203125,1.02069091796875,35.630001068115234,0.0,2.0,-2.419891357421875,-1.66473388671875,Closing,0.0,0.0,-189.0,0.0,0.0,0.0,0.0,0.0,
9.629368999999977,0.0,0.0,64621.0,0.0,0.0,0.0,0.0,0.125,1.356201033,0.5498168668524864,0.0,-60291.0,0.125,0.0,0.0,0.0,0.25,4.887694812,4.41043958977222,0.0,55452.0,0.0,0.0,0.0,0.0,0.0,2.7954098700000003,4.389674732977291,0.0,-37180.0,0.125,0.0,0.0,0.0,0.125,2.159423607,0.552687206278561,0.0,0.23000000417232513,-0.6800000071525574,107.13999938964844,-0.02581787109375,0.00775146484375,1.02362060546875,35.630001068115234,0.0,7.0,-2.419891357421875,-1.66473388671875,Closing,0.0,0.0,-189.0,0.0,0.0,0.0,0.0,0.0,
9.744916999999987,0.0,0.0,64621.0,1.625,-37.5,-555.5905491113663,0.0,2.125,1.152343632,4.932250999999998,0.0,-60270.0,2.25,135.0,555.5905491113663,0.0,3.375,0.162353499,4.963769999999998,0.0,55441.0,1.75,-52.5,-555.5905491113663,0.0,2.0,3.0065914890000003,0.01,0.0,-37166.0,1.375,67.5,555.5905491113663,0.0,1.25,1.92871074,0.01,0.0,0.25,-0.9200000166893005,107.06999969482422,-0.10003662109375,0.031494140625,1.013427734375,35.630001068115234,0.0,50.0,-2.419952392578125,-1.6634674072265625,Closing,0.0,0.0,-189.0,0.0,0.0,0.0,0.0,0.0,
9.890766000000003,0.0,0.0,64615.0,3.25,0.0,-555.5905491113663,0.0,0.625,0.8703612390000001,4.932250999999998,0.0,-60252.0,4.125,90.0,555.5905491113663,0.0,0.5,0.513915963,4.963769999999998,0.0,55432.0,3.5,-60.0,-555.5905491113663,0.0,0.25,3.4216305090000003,0.01,0.0,-37142.0,2.125,157.5,555.5905491113663,0.0,0.5,1.563720543,0.01,0.0,0.23000000417232513,-1.25,106.3499984741211,-0.16033935546875,-0.01861572265625,0.9691162109375,35.630001068115234,0.0,17.0,-2.41973876953125,-1.65545654296875,Closing,0.0,0.0,-189.0,0.0,0.0,0.0,0.0,0.0,
10.025021999999996,0.0,0.0,64563.0,4.0,-225.0,-555.5905491113663,0.0,0.25,0.7360839090000001,4.932250999999998,0.0,-60213.0,6.0,262.5,555.5905491113663,0.0,0.25,0.6616210260000001,4.963769999999998,0.0,55398.0,3.375,-240.0,-555.5905491113663,0.0,0.25,3.610839474,0.01,0.0,-37102.0,2.75,270.0,555.5905491113663,0.0,0.25,1.4489744610000002,0.01,0.0,0.10999999940395355,-1.8899999856948853,106.4000015258789,-0.0704345703125,0.0478515625,1.01263427734375,35.630001068115234,0.0,54.0,-2.418121337890625,-1.63629150390625,Closing,0.0,0.0,-189.0,0.0,0.0,0.0,0.0,0.0,
10.159289999999979,0.0,0.0,64506.0,3.875,-352.5,-555.5905491113663,0.0,0.375,0.755615157,4.932250999999998,0.0,-60147.0,5.625,405.0,555.5905491113663,0.0,0.25,0.639648372,4.963769999999998,0.0,55343.0,3.25,-337.5,-555.5905491113663,0.0,0.25,3.439941054,0.01,0.0,-37048.0,3.375,330.0,555.5905491113663,0.0,0.375,1.547851404,0.01,0.0,0.1599999964237213,-1.809999942779541,106.19000244140625,0.00909423828125,0.02606201171875,0.9490966796875,35.630001068115234,0.0,11.0,-2.4177703857421875,-1.6210479736328125,Closing,0.0,0.0,-189.0,0.0,0.0,0.0,0.0,0.0,
10.288753999999987,0.0,0.0,64450.0,1.625,-345.0,-218.26772511005402,0.0,0.25,0.809326089,4.932250999999998,0.0,-60091.0,2.375,345.0,218.26772511005402,0.0,0.25,0.552978459,4.963769999999998,0.0,55285.0,1.875,-367.5,-218.26772511005402,0.0,0.125,3.333739893,0.01,0.0,-37004.0,1.75,300.0,218.26772511005402,0.0,0.25,1.6308592080000002,0.01,0.0,0.18000000715255737,-1.649999976158142,106.38999938964844,-0.0667724609375,0.008544921875,0.94293212890625,35.630001068115234,0.0,16.0,-2.417449951171875,-1.622314453125,Closing,0.0,0.0,-189.0,0.0,0.0,0.0,0.0,0.0,
10.426302999999985,0.0,0.0,64386.0,9.75,-390.0,-992.1260118484497,0.0,1.25,1.021728411,0.5498168668524864,0.0,-60059.0,2.875,-90.0,-992.1260118484497,0.0,2.375,0.186767559,4.41043958977222,0.0,55224.0,11.25,-375.0,-992.1260118484497,0.0,2.0,3.0554196090000003,4.389674732977291,0.0,-36948.0,1.375,52.5,-992.1260118484497,0.0,0.875,2.020263465,0.552687206278561,0.0,0.05000000074505806,-0.3700000047683716,108.05000305175781,0.0596923828125,0.041015625,0.9593505859375,35.630001068115234,0.0,17.0,-2.4222412109375,-1.6351318359375,Closing,0.0,0.0,-189.0,0.0,0.0,0.0,0.0,0.0,
10.560043000000006,0.0,0.0,64353.0,0.0,-157.5,0.0,0.0,0.875,1.389160014,0.5498168668524864,0.0,-60091.0,0.125,-82.5,0.0,0.0,0.25,4.697265144,4.41043958977222,0.0,55169.0,0.0,-255.0,0.0,0.0,0.25,2.779540731,4.389674732977291,0.0,-36980.0,0.0,-97.5,0.0,0.0,0.625,2.283935313,0.552687206278561,0.0,0.20000000298023224,-0.5299999713897705,110.4000015258789,-0.0911865234375,-0.07733154296875,1.10479736328125,35.630001068115234,0.0,-48.0,-2.426727294921875,-1.6605987548828125,Closing,0.0,0.0,-189.0,0.0,0.0,0.0,0.0,0.0,
10.790915999999998,0.0,0.0,64339.0,0.0,-7.5,0.0,0.0,0.25,1.463622897,0.5498168668524864,0.0,-60090.0,0.125,0.0,0.0,0.0,0.25,4.879149891,4.41043958977222,0.0,55149.0,0.0,0.0,0.0,0.0,0.0,2.6928708180000003,4.389674732977291,0.0,-36993.0,0.125,0.0,0.0,0.0,0.25,2.207031024,0.552687206278561,0.0,0.25,-0.5400000214576721,111.30000305175781,-0.00115966796875,-0.0137939453125,0.9534912109375,35.65999984741211,0.0,-19.0,-2.4294891357421875,-1.6739044189453125,Closing,0.0,0.0,-189.0,0.0,0.0,0.0,0.0,0.0,
10.95821099999998,0.0,0.0,64339.0,0.0,0.0,0.0,0.0,0.375,1.430663916,0.5498168668524864,0.0,-60090.0,0.125,0.0,0.0,0.0,0.25,4.945067853,4.41043958977222,0.0,55149.0,0.0,0.0,0.0,0.0,0.0,2.731933314,4.389674732977291,0.0,-36993.0,0.125,0.0,0.0,0.0,0.25,2.1972654,0.552687206278561,0.0,0.23999999463558197,-0.5699999928474426,111.25,-0.012451171875,0.007080078125,1.01800537109375,35.65999984741211,0.0,3.0,-2.4294891357421875,-1.6739044189453125,Closing,0.0,0.0,-189.0,0.0,0.0,0.0,0.0,0.0,
11.077362999999982,0.0,0.0,64339.0,2.0,-112.5,-734.173253774643,0.0,1.625,1.1340330870000002,4.932250999999998,0.0,-60075.0,5.5,82.5,734.173253774643,0.0,2.875,0.23925778800000003,4.963769999999998,0.0,55133.0,2.375,-67.5,-734.173253774643,0.0,2.375,3.090819996,0.01,0.0,-36980.0,2.5,52.5,734.173253774643,0.0,1.0,1.854247857,0.01,0.0,0.2199999988079071,-0.9599999785423279,110.83999633789062,-0.0899658203125,0.02496337890625,0.94024658203125,35.630001068115234,0.0,46.0,-2.4278717041015625,-1.672760009765625,Closing,0.0,0.0,-189.0,0.0,0.0,0.0,0.0,0.0,
11.224592999999993,0.0,0.0,64298.0,11.875,-127.5,-1150.86611866951,0.0,0.375,0.715331958,4.932250999999998,0.0,-60039.0,22.25,217.5,1150.86611866951,0.0,0.5,0.596923767,4.963769999999998,0.0,55111.0,10.75,-142.5,-1150.86611866951,0.0,0.125,3.6291500190000003,0.01,0.0,-36938.0,11.125,225.0,1150.86611866951,0.0,0.25,1.457519382,0.01,0.0,-0.05999999865889549,-0.8600000143051147,110.79000091552734,0.10986328125,-0.00140380859375,0.9012451171875,35.630001068115234,0.0,-44.0,-2.424407958984375,-1.6652984619140625,Closing,0.0,0.0,-189.0,0.0,0.0,0.0,0.0,0.0,
11.355402000000002,0.0,0.0,64319.0,0.0,67.5,0.0,0.0,0.5,0.629882748,4.932250999999998,0.0,-60055.0,0.125,-67.5,0.0,0.0,0.25,0.6591796200000001,4.963769999999998,0.0,55089.0,0.0,-82.5,0.0,0.0,0.25,3.511962531,0.01,0.0,-36952.0,0.125,-127.5,0.0,0.0,0.625,1.442870946,0.01,0.0,0.23999999463558197,-0.18000000715255737,110.77999877929688,-0.22625732421875,0.0263671875,0.9649658203125,35.630001068115234,0.0,99.0,-2.4260406494140625,-1.671783447265625,Closing,0.0,0.0,-189.0,0.0,0.0,0.0,0.0,0.0,
11.488665999999997,0.0,0.0,64326.0,0.0,60.0,0.0,0.0,0.5,0.717773364,4.932250999999998,0.0,-60066.0,0.125,-15.0,0.0,0.0,0.25,0.635986263,4.963769999999998,0.0,55102.0,0.0,75.0,0.0,0.0,0.125,3.348388329,0.01,0.0,-36965.0,0.125,-52.5,0.0,0.0,0.375,1.5588377310000001,0.01,0.0,0.17000000178813934,-0.8899999856948853,110.77999877929688,-0.06890869140625,0.0360107421875,1.019775390625,35.630001068115234,0.0,49.0,-2.4276275634765625,-1.67218017578125,Closing,0.0,0.0,-189.0,0.0,0.0,0.0,0.0,0.0,
11.625043000000005,0.0,0.0,64326.0,0.0,0.0,0.0,0.0,0.375,0.7885741380000001,4.932250999999998,0.0,-60066.0,0.125,0.0,0.0,0.0,0.25,0.5297851020000001,4.963769999999998,0.0,55103.0,0.0,0.0,0.0,0.0,0.0,3.3251949720000002,0.01,0.0,-36966.0,0.125,0.0,0.0,0.0,0.375,1.5820310880000001,0.01,0.0,0.17000000178813934,-0.8100000023841858,110.7699966430664,0.02569580078125,0.01507568359375,0.9925537109375,35.650001525878906,0.0,-2.0,-2.42681884765625,-1.6716766357421875,Closing,0.0,0.0,-189.0,0.0,0.0,0.0,0.0,0.0,
11.763067999999999,0.0,0.0,64326.0,0.0,0.0,0.0,0.0,0.125,0.798339762,4.932250999999998,0.0,-60066.0,0.125,0.0,0.0,0.0,0.125,0.5041503390000001,4.963769999999998,0.0,55103.0,0.0,0.0,0.0,0.0,0.0,3.343505517,0.01,0.0,-36966.0,0.125,0.0,0.0,0.0,0.25,1.5820310880000001,0.01,0.0,0.1599999964237213,-0.7599999904632568,110.75,-0.02069091796875,0.002197265625,1.02557373046875,35.650001525878906,0.0,1.0,-2.4267730712890625,-1.672393798828125,Closing,0.0,0.0,-189.0,0.0,0.0,0.0,0.0,0.0,
11.89097199999998,0.0,0.0,64326.0,0.0,0.0,0.0,0.0,0.125,0.798339762,4.932250999999998,0.0,-60066.0,0.125,0.0,0.0,0.0,0.0,0.505371042,4.963769999999998,0.0,55103.0,0.0,0.0,0.0,0.0,0.0,3.348388329,0.01,0.0,-36966.0,0.125,0.0,0.0,0.0,0.25,1.5832517910000001,0.01,0.0,0.17000000178813934,-0.8299999833106995,110.73999786376953,-0.0206298828125,-0.001953125,1.0,35.650001525878906,0.0,-2.0,-2.4267730712890625,-1.67218017578125,Closing,0.0,0.0,-189.0,0.0,0.0,0.0,0.0,0.0,
12.027199999999983,0.0,0.0,64326.0,0.0,0.0,0.0,0.0,0.125,0.797119059,4.932250999999998,0.0,-60066.0,0.125,0.0,0.0,0.0,0.0,0.5041503390000001,4.963769999999998,0.0,55103.0,0.0,0.0,0.0,0.0,0.0,3.349609032,0.01,0.0,-36966.0,0.125,0.0,0.0,0.0,0.25,1.5832517910000001,0.01,0.0,0.18000000715255737,-0.8199999928474426,110.75,-0.01214599609375,0.0010986328125,1.01641845703125,35.650001525878906,0.0,-2.0,-2.4267730712890625,-1.67218017578125,Closing,0.0,0.0,-189.0,0.0,0.0,0.0,0.0,0.0,
12.15947,0.0,0.0,64326.0,0.0,0.0,0.0,0.0,0.125,0.798339762,4.932250999999998,0.0,-60066.0,0.125,0.0,0.0,0.0,0.0,0.5041503390000001,4.963769999999998,0.0,55103.0,0.0,0.0,0.0,0.0,0.0,3.348388329,0.01,0.0,-36966.0,0.125,0.0,0.0,0.0,0.25,1.5820310880000001,0.01,0.0,0.17000000178813934,-0.8500000238418579,110.75,-0.0205078125,0.0081787109375,1.02008056640625,35.619998931884766,0.0,6.0,-2.4267730712890625,-1.67218017578125,Closing,0.0,0.0,-189.0,0.0,0.0,0.0,0.0,0.0,
12.290752999999997,0.0,0.0,64326.0,0.0,0.0,0.0,0.0,0.125,0.798339762,4.932250999999998,0.0,-60066.0,0.125,0.0,0.0,0.0,0.0,0.505371042,4.963769999999998,0.0,55103.0,0.0,0.0,0.0,0.0,0.0,3.349609032,0.01,0.0,-36966.0,0.125,0.0,0.0,0.0,0.25,1.5832517910000001,0.01,0.0,0.18000000715255737,-0.8600000143051147,110.76000213623047,-0.018798828125,0.008056640625,1.01904296875,35.619998931884766,0.0,5.0,-2.4267730712890625,-1.67218017578125,Closing,0.0,0.0,-189.0,0.0,0.0,0.0,0.0,0.0,
12.425976999999984,0.0,0.0,64326.0,0.0,0.0,0.0,0.0,0.125,0.798339762,4.932250999999998,0.0,-60066.0,0.125,0.0,0.0,0.0,0.0,0.5041503390000001,4.963769999999998,0.0,55103.0,0.0,0.0,0.0,0.0,0.0,3.348388329,0.01,0.0,-36966.0,0.125,0.0,0.0,0.0,0.25,1.5832517910000001,0.01,0.0,0.1899999976158142,-0.8600000143051147,110.76000213623047,-0.015869140625,0.00439453125,1.020751953125,35.619998931884766,0.0,1.0,-2.4267730712890625,-1.67218017578125,Closing,0.0,0.0,-189.0,0.0,0.0,0.0,0.0,0.0,
12.556805999999982,0.0,0.0,64326.0,0.0,0.0,0.0,0.0,0.125,0.798339762,4.932250999999998,0.0,-60066.0,0.125,0.0,0.0,0.0,0.0,0.505371042,4.963769999999998,0.0,55103.0,0.0,0.0,0.0,0.0,0.0,3.347167626,0.01,0.0,-36966.0,0.125,0.0,0.0,0.0,0.25,1.5832517910000001,0.01,0.0,0.1899999976158142,-0.8700000047683716,110.76000213623047,-0.01617431640625,0.002685546875,1.02008056640625,35.619998931884766,0.0,0.0,-2.4267730712890625,-1.67218017578125,Closing,0.0,0.0,-189.0,0.0,0.0,0.0,0.0,0.0,
12.690597999999998,0.0,0.0,64326.0,0.0,0.0,0.0,0.0,0.125,0.798339762,4.932250999999998,0.0,-60066.0,0.125,0.0,0.0,0.0,0.0,0.5041503390000001,4.963769999999998,0.0,55103.0,0.0,0.0,0.0,0.0,0.0,3.348388329,0.01,0.0,-36966.0,0.125,0.0,0.0,0.0,0.25,1.5832517910000001,0.01,0.0,0.1899999976158142,-0.8700000047683716,110.7699966430664,-0.0185546875,4.8828125E-4,1.0220947265625,35.61000061035156,0.0,-1.0,-2.4267730712890625,-1.67218017578125,Closing,0.0,0.0,-189.0,0.0,0.0,0.0,0.0,0.0,
12.825650999999983,0.0,0.0,64326.0,0.0,0.0,0.0,0.0,0.125,0.798339762,4.932250999999998,0.0,-60066.0,0.125,0.0,0.0,0.0,0.0,0.505371042,4.963769999999998,0.0,55103.0,0.0,0.0,0.0,0.0,0.0,3.348388329,0.01,0.0,-36966.0,0.125,0.0,0.0,0.0,0.25,1.5820310880000001,0.01,0.0,0.1899999976158142,-0.8799999952316284,110.76000213623047,-0.0150146484375,0.00225830078125,1.02288818359375,35.61000061035156,0.0,-1.0,-2.4267730712890625,-1.67218017578125,Closing,0.0,0.0,-189.0,0.0,0.0,0.0,0.0,0.0,
12.945503999999985,0.0,0.0,64326.0,0.0,0.0,0.0,0.0,0.125,0.799560465,4.932250999999998,0.0,-60066.0,0.125,0.0,0.0,0.0,0.0,0.505371042,4.963769999999998,0.0,55103.0,0.0,0.0,0.0,0.0,0.0,3.348388329,0.01,0.0,-36966.0,0.125,0.0,0.0,0.0,0.25,1.5832517910000001,0.01,0.0,0.1899999976158142,-0.8899999856948853,110.7699966430664,-0.0184326171875,0.0068359375,1.024658203125,35.61000061035156,0.0,3.0,-2.4267730712890625,-1.67218017578125,Closing,0.0,0.0,-189.0,0.0,0.0,0.0,0.0,0.0,
13.089225999999995,0.0,0.0,64326.0,0.0,0.0,0.0,0.0,0.125,0.798339762,4.932250999999998,0.0,-60066.0,0.125,0.0,0.0,0.0,0.0,0.505371042,4.963769999999998,0.0,55103.0,0.0,0.0,0.0,0.0,0.0,3.347167626,0.01,0.0,-36966.0,0.125,0.0,0.0,0.0,0.25,1.5820310880000001,0.01,0.0,0.20000000298023224,-0.8899999856948853,110.7699966430664,-0.01507568359375,0.002685546875,1.0218505859375,35.61000061035156,0.0,-1.0,-2.4267730712890625,-1.67218017578125,Closing,0.0,0.0,-189.0,0.0,0.0,0.0,0.0,0.0,
13.224853999999992,0.0,0.0,64326.0,0.0,0.0,0.0,0.0,0.125,0.798339762,4.932250999999998,0.0,-60066.0,0.125,0.0,0.0,0.0,0.0,0.505371042,4.963769999999998,0.0,55103.0,0.0,0.0,0.0,0.0,0.0,3.348388329,0.01,0.0,-36966.0,0.125,0.0,0.0,0.0,0.25,1.5820310880000001,0.01,0.0,0.20000000298023224,-0.8999999761581421,110.7699966430664,-0.01708984375,0.00286865234375,1.01922607421875,35.619998931884766,0.0,0.0,-2.4267730712890625,-1.67218017578125,Closing,0.0,0.0,-189.0,0.0,0.0,0.0,0.0,0.0,
13.357866999999999,0.0,0.0,64326.0,0.0,0.0,0.0,0.0,0.125,0.798339762,4.932250999999998,0.0,-60066.0,0.125,0.0,0.0,0.0,0.0,0.505371042,4.963769999999998,0.0,55103.0,0.0,0.0,0.0,0.0,0.0,3.348388329,0.01,0.0,-36966.0,0.125,0.0,0.0,0.0,0.25,1.5832517910000001,0.01,0.0,0.20000000298023224,-0.9100000262260437,110.7699966430664,-0.0179443359375,0.00421142578125,1.02178955078125,35.619998931884766,0.0,1.0,-2.4267730712890625,-1.67218017578125,Closing,0.0,0.0,-189.0,0.0,0.0,0.0,0.0,0.0,
13.490207999999985,0.0,0.0,64326.0,0.0,0.0,0.0,0.0,0.125,0.798339762,4.932250999999998,0.0,-60066.0,0.125,0.0,0.0,0.0,0.0,0.5041503390000001,4.963769999999998,0.0,55103.0,0.0,0.0,0.0,0.0,0.0,3.348388329,0.01,0.0,-36966.0,0.125,0.0,0.0,0.0,0.25,1.5832517910000001,0.01,0.0,0.20000000298023224,-0.9100000262260437,110.76000213623047,-0.01678466796875,0.0020751953125,1.021728515625,35.619998931884766,0.0,-1.0,-2.4267730712890625,-1.67218017578125,Closing,0.0,0.0,-189.0,0.0,0.0,0.0,0.0,0.0,
13.629099999999976,0.0,0.0,64326.0,0.0,0.0,0.0,0.0,0.25,0.798339762,4.932250999999998,0.0,-60066.0,0.125,0.0,0.0,0.0,0.0,0.505371042,4.963769999999998,0.0,55103.0,0.0,0.0,0.0,0.0,0.0,3.349609032,0.01,0.0,-36966.0,0.125,0.0,0.0,0.0,0.25,1.5820310880000001,0.01,0.0,0.20000000298023224,-0.9100000262260437,110.7699966430664,-0.01806640625,0.0020751953125,1.01812744140625,35.630001068115234,0.0,0.0,-2.4267730712890625,-1.67218017578125,Closing,0.0,0.0,-189.0,0.0,0.0,0.0,0.0,0.0,
13.75798999999999,0.0,0.0,64326.0,0.0,0.0,0.0,0.0,0.125,0.798339762,4.932250999999998,0.0,-60066.0,0.125,0.0,0.0,0.0,0.0,0.505371042,4.963769999999998,0.0,55103.0,0.0,0.0,0.0,0.0,0.0,3.349609032,0.01,0.0,-36966.0,0.125,0.0,0.0,0.0,0.25,1.5820310880000001,0.01,0.0,0.20000000298023224,-0.9100000262260437,110.7699966430664,-0.01873779296875,0.00592041015625,1.01898193359375,35.630001068115234,0.0,2.0,-2.4267730712890625,-1.67218017578125,Closing,0.0,0.0,-189.0,0.0,0.0,0.0,0.0,0.0,
13.89252899999998,0.0,0.0,64326.0,0.0,0.0,0.0,0.0,0.125,0.798339762,4.932250999999998,0.0,-60066.0,0.125,0.0,0.0,0.0,0.0,0.505371042,4.963769999999998,0.0,55103.0,0.0,0.0,0.0,0.0,0.0,3.348388329,0.01,0.0,-36966.0,0.125,0.0,0.0,0.0,0.25,1.5832517910000001,0.01,0.0,0.20000000298023224,-0.9200000166893005,110.7699966430664,-0.01922607421875,0.00311279296875,1.02166748046875,35.630001068115234,0.0,0.0,-2.4267730712890625,-1.67218017578125,Closing,0.0,0.0,-189.0,0.0,0.0,0.0,0.0,0.0,
14.025285999999992,0.0,0.0,64326.0,0.0,0.0,0.0,0.0,0.125,0.798339762,4.932250999999998,0.0,-60066.0,0.125,0.0,0.0,0.0,0.0,0.505371042,4.963769999999998,0.0,55103.0,0.0,0.0,0.0,0.0,0.0,3.348388329,0.01,0.0,-36966.0,0.125,0.0,0.0,0.0,0.25,1.5832517910000001,0.01,0.0,0.20000000298023224,-0.9200000166893005,110.77999877929688,-0.01483154296875,4.2724609375E-4,1.020751953125,35.630001068115234,0.0,-3.0,-2.4267730712890625,-1.67218017578125,Closing,0.0,0.0,-189.0,0.0,0.0,0.0,0.0,0.0,
14.157205999999977,0.0,0.0,64326.0,0.0,0.0,0.0,0.0,0.125,0.798339762,4.932250999999998,0.0,-60066.0,0.125,0.0,0.0,0.0,0.0,0.5041503390000001,4.963769999999998,0.0,55103.0,0.0,0.0,0.0,0.0,0.0,3.348388329,0.01,0.0,-36966.0,0.125,0.0,0.0,0.0,0.25,1.5820310880000001,0.01,0.0,0.20999999344348907,-0.9300000071525574,110.77999877929688,-0.016357421875,0.0040283203125,1.0238037109375,35.630001068115234,0.0,0.0,-2.4267730712890625,-1.67218017578125,Closing,0.0,0.0,-189.0,0.0,0.0,0.0,0.0,0.0,
14.291145999999978,0.0,0.0,64326.0,0.0,0.0,0.0,0.0,0.125,0.799560465,4.932250999999998,0.0,-60066.0,0.125,0.0,0.0,0.0,0.0,0.505371042,4.963769999999998,0.0,55103.0,0.0,0.0,0.0,0.0,0.0,3.348388329,0.01,0.0,-36966.0,0.125,0.0,0.0,0.0,0.25,1.5832517910000001,0.01,0.0,0.20999999344348907,-0.9200000166893005,110.77999877929688,-0.01904296875,0.0042724609375,1.020263671875,35.630001068115234,0.0,1.0,-2.4267730712890625,-1.67218017578125,Closing,0.0,0.0,-189.0,0.0,0.0,0.0,0.0,0.0,
14.427902999999992,0.0,0.0,64326.0,0.0,0.0,0.0,0.0,0.125,0.798339762,4.932250999999998,0.0,-60066.0,0.125,0.0,0.0,0.0,0.0,0.505371042,4.963769999999998,0.0,55103.0,0.0,0.0,0.0,0.0,0.0,3.348388329,0.01,0.0,-36966.0,0.125,0.0,0.0,0.0,0.25,1.5820310880000001,0.01,0.0,0.20999999344348907,-0.9200000166893005,110.77999877929688,-0.0167236328125,0.00152587890625,1.02020263671875,35.630001068115234,0.0,-2.0,-2.4267730712890625,-1.67218017578125,Closing,0.0,0.0,-189.0,0.0,0.0,0.0,0.0,0.0,
14.544554999999994,0.0,0.0,64326.0,0.0,0.0,0.0,0.0,0.125,0.8007811680000001,4.932250999999998,0.0,-60066.0,0.125,0.0,0.0,0.0,0.0,0.505371042,4.963769999999998,0.0,55103.0,0.0,0.0,0.0,0.0,0.0,3.348388329,0.01,0.0,-36966.0,0.0,0.0,0.0,0.0,0.25,1.5832517910000001,0.01,0.0,0.20999999344348907,-0.9300000071525574,110.79000091552734,-0.01800537109375,0.00347900390625,1.02789306640625,35.630001068115234,0.0,0.0,-2.4267730712890625,-1.67218017578125,Closing,0.0,0.0,-189.0,0.0,0.0,0.0,0.0,0.0,
14.691275999999984,0.0,0.0,64326.0,0.0,0.0,0.0,0.0,0.125,0.798339762,4.932250999999998,0.0,-60066.0,0.125,0.0,0.0,0.0,0.0,0.505371042,4.963769999999998,0.0,55103.0,0.0,0.0,0.0,0.0,0.0,3.348388329,0.01,0.0,-36966.0,0.125,0.0,0.0,0.0,0.25,1.5832517910000001,0.01,0.0,0.20999999344348907,-0.9300000071525574,110.79000091552734,-0.015625,0.0035400390625,1.01953125,35.65999984741211,0.0,0.0,-2.4267730712890625,-1.67218017578125,Closing,0.0,0.0,-189.0,0.0,0.0,0.0,0.0,0.0,
14.827829999999988,0.0,0.0,64326.0,0.0,0.0,0.0,0.0,0.125,0.798339762,4.932250999999998,0.0,-60066.0,0.125,0.0,0.0,0.0,0.0,0.505371042,4.963769999999998,0.0,55103.0,0.0,0.0,0.0,0.0,0.0,3.348388329,0.01,0.0,-36966.0,0.125,0.0,0.0,0.0,0.25,1.5832517910000001,0.01,0.0,0.20999999344348907,-0.9300000071525574,110.79000091552734,-0.01800537109375,0.0030517578125,1.02191162109375,35.65999984741211,0.0,0.0,-2.4267730712890625,-1.67218017578125,Closing,0.0,0.0,-189.0,0.0,0.0,0.0,0.0,0.0,
14.946604999999982,0.0,0.0,64326.0,0.0,0.0,0.0,0.0,0.125,0.799560465,4.932250999999998,0.0,-60066.0,0.125,0.0,0.0,0.0,0.0,0.5041503390000001,4.963769999999998,0.0,55103.0,0.0,0.0,0.0,0.0,0.0,3.349609032,0.01,0.0,-36966.0,0.125,0.0,0.0,0.0,0.25,1.5832517910000001,0.01,0.0,0.20999999344348907,-0.9399999976158142,110.79000091552734,-0.01580810546875,0.0035400390625,1.0203857421875,35.65999984741211,0.0,0.0,-2.4267730712890625,-1.67218017578125,Closing,0.0,0.0,-189.0,0.0,0.0,0.0,0.0,0.0,
15.090130999999994,0.0,0.0,64326.0,0.0,0.0,0.0,0.0,0.125,0.799560465,4.932250999999998,0.0,-60066.0,0.125,0.0,0.0,0.0,0.0,0.505371042,4.963769999999998,0.0,55103.0,0.0,0.0,0.0,0.0,0.0,3.349609032,0.01,0.0,-36966.0,0.125,0.0,0.0,0.0,0.25,1.5832517910000001,0.01,0.0,0.20999999344348907,-0.9399999976158142,110.79000091552734,-0.0150146484375,0.0028076171875,1.0194091796875,35.65999984741211,0.0,-1.0,-2.4267730712890625,-1.67218017578125,Closing,0.0,0.0,-189.0,0.0,0.0,0.0,0.0,0.0,
