Time,ClimberA1,ClimberA2,FRpos,FRCurrent,FRspeed,FRsetpoint,FRApos,FRACurrent,FREncpos,FREncSetpoint,FREncSpeed,FLpos,FLCurrent,FLspeed,FLsetpoint,FLApos,FLACurrent,FLEncpos,FLEncSetpoint,FLEncSpeed,BRpos,BRCurrent,BRspeed,BRsetpoint,BRApos,BRACurrent,BREncpos,BREncSetpoint,BREncSpeed,BLpos,BLCurrent,BLspeed,BLsetpoint,BLApos,BLACurrent,BLEncpos,BLEncSetpoint,BLEncSpeed,navx_Pitch,navx_Roll,navx_Yaw,navx_XAcc,navx_YAcc,navx_ZAcc,navx_Temp,navx_Bar,navx_Alt,navx_XDis,navx_YDis,GearPlacerState,ShootOutputV,ShootOutputCurrent,ShootEncPos,ShootEncVelocity,ShootSpeed,ShootSetpoint,CarouselSetpoint,CarouselCurrent,
0.24714900000000126,0.0,0.0,52828.0,0.0,0.0,0.0,0.0,0.125,0.822753822,0.01,0.0,-37240.0,0.0,0.0,0.0,0.0,0.125,0.507812448,0.01,0.0,39673.0,0.0,0.0,0.0,0.0,0.0,3.358153953,0.01,0.0,-18534.0,0.0,0.0,0.0,0.0,0.125,1.6088865540000001,0.01,0.0,0.5600000023841858,-0.6899999976158142,64.16000366210938,0.01275634765625,0.07037353515625,0.9990234375,36.02000045776367,0.0,65.0,-0.88922119140625,-2.4571990966796875,Waiting,0.0,0.0,-189.0,0.0,0.0,0.0,0.0,0.0,
0.3454470000000001,0.0,0.0,52828.0,0.0,0.0,0.0,0.0,0.125,0.821533119,0.01,0.01153311899999998,-37240.0,0.0,0.0,-0.0,0.0,0.125,0.507812448,0.01,3.6174500000019094E-4,39673.0,0.0,0.0,0.0,0.0,0.0,3.358153953,0.01,4.948553953,-18534.0,0.0,0.0,-0.0,0.0,0.25,1.6088865540000001,0.01,4.945665851,0.5899999737739563,-0.6700000166893005,64.16000366210938,-0.001708984375,0.05517578125,1.0089111328125,35.9900016784668,0.0,44.0,-0.880828857421875,-2.4571990966796875,Closing,0.0,0.0,-189.0,0.0,0.0,0.0,0.0,0.0,
0.3913299999999981,0.0,0.0,52828.0,0.0,0.0,0.0,0.0,0.125,0.821533119,0.01,0.0,-37240.0,0.0,0.0,-0.0,0.0,0.125,0.507812448,0.01,0.0,39673.0,0.0,0.0,0.0,0.0,0.0,3.358153953,0.01,0.0,-18534.0,0.0,0.0,-0.0,0.0,0.25,1.6088865540000001,0.01,0.0,0.5899999737739563,-0.6700000166893005,64.16000366210938,-0.01165771484375,0.039306640625,1.0101318359375,35.9900016784668,0.0,25.0,-0.8778228759765625,-2.4571990966796875,Closing,0.0,0.0,-189.0,0.0,0.0,0.0,0.0,0.0,
0.5106670000000013,0.0,0.0,52828.0,0.0,0.0,0.0,0.0,0.125,0.821533119,0.01,0.0,-37240.0,0.0,0.0,-0.0,0.0,0.125,0.506591745,0.01,0.0,39673.0,0.0,0.0,0.0,0.0,0.0,3.358153953,0.01,0.0,-18534.0,0.0,0.0,-0.0,0.0,0.25,1.6088865540000001,0.01,0.0,0.550000011920929,-0.6899999976158142,64.16000366210938,0.0029296875,7.32421875E-4,1.04345703125,35.9900016784668,0.0,-1.0,-0.8730926513671875,-2.4572601318359375,Closing,0.0,0.0,-189.0,0.0,0.0,0.0,0.0,0.0,
0.5606440000000003,0.0,0.0,52828.0,0.0,0.0,0.0,0.0,0.125,0.822753822,0.01,0.0,-37240.0,0.0,0.0,-0.0,0.0,0.125,0.506591745,0.01,0.0,39673.0,0.0,0.0,0.0,0.0,0.0,3.358153953,0.01,0.0,-18534.0,0.0,0.0,-0.0,0.0,0.25,1.6088865540000001,0.01,0.0,0.5400000214576721,-0.699999988079071,64.1500015258789,-3.0517578125E-4,0.01519775390625,1.03204345703125,35.9900016784668,0.0,10.0,-0.8730926513671875,-2.45733642578125,Closing,0.0,0.0,-189.0,0.0,0.0,0.0,0.0,0.0,
0.6428859999999986,0.0,0.0,52828.0,0.0,0.0,0.0,0.0,0.125,0.821533119,0.01,0.0,-37240.0,0.0,0.0,-0.0,0.0,0.125,0.506591745,0.01,0.0,39673.0,0.0,0.0,0.0,0.0,0.0,3.358153953,0.01,0.0,-18534.0,0.0,0.0,-0.0,0.0,0.25,1.6088865540000001,0.01,0.0,0.5699999928474426,-0.6899999976158142,64.1500015258789,-0.0194091796875,-0.01434326171875,1.037109375,35.9900016784668,0.0,-25.0,-0.87310791015625,-2.45733642578125,Closing,0.0,0.0,-189.0,0.0,0.0,0.0,0.0,0.0,
0.7223549999999995,0.0,0.0,52828.0,0.0,0.0,0.0,0.0,0.125,0.821533119,0.01,0.0,-37240.0,0.0,0.0,-0.0,0.0,0.125,0.507812448,0.01,0.0,39673.0,0.0,0.0,0.0,0.0,0.0,3.358153953,0.01,0.0,-18534.0,0.0,0.0,-0.0,0.0,0.25,1.6088865540000001,0.01,0.0,0.5899999737739563,-0.6800000071525574,64.1500015258789,-0.03369140625,-0.04156494140625,1.0540771484375,35.9900016784668,0.0,-56.0,-0.8737640380859375,-2.45733642578125,Closing,0.0,0.0,-189.0,0.0,0.0,0.0,0.0,0.0,
0.8382860000000001,0.0,0.0,52828.0,0.0,0.0,0.0,0.0,0.125,0.821533119,0.01,0.0,-37240.0,0.0,0.0,-0.0,0.0,0.125,0.506591745,0.01,0.0,39673.0,0.0,0.0,0.0,0.0,0.0,3.358153953,0.01,0.0,-18534.0,0.0,0.0,-0.0,0.0,0.25,1.6088865540000001,0.01,0.0,0.550000011920929,-0.6899999976158142,64.1500015258789,-0.06072998046875,-0.03985595703125,1.0340576171875,36.029998779296875,0.0,-65.0,-0.8788299560546875,-2.4571685791015625,Closing,0.0,0.0,-189.0,0.0,0.0,0.0,0.0,0.0,
0.9074639999999999,0.0,0.0,52828.0,0.0,0.0,0.0,0.0,0.125,0.821533119,0.01,0.0,-37240.0,0.0,0.0,-0.0,0.0,0.125,0.506591745,0.01,0.0,39673.0,0.0,0.0,0.0,0.0,0.0,3.359374656,0.01,0.0,-18534.0,0.0,0.0,-0.0,0.0,0.25,1.6088865540000001,0.01,0.0,0.5699999928474426,-0.699999988079071,64.1500015258789,-0.02435302734375,-0.0059814453125,0.99188232421875,36.029998779296875,0.0,-19.0,-0.884613037109375,-2.4569244384765625,Closing,0.0,0.0,-189.0,0.0,0.0,0.0,0.0,0.0,
0.9625420000000012,0.0,0.0,52828.0,0.0,0.0,0.0,0.0,0.125,0.821533119,0.01,0.0,-37240.0,0.0,0.0,-0.0,0.0,0.125,0.507812448,0.01,0.0,39673.0,0.0,0.0,0.0,0.0,0.0,3.359374656,0.01,0.0,-18534.0,0.0,0.0,-0.0,0.0,0.25,1.6088865540000001,0.01,0.0,0.5799999833106995,-0.6899999976158142,64.1500015258789,0.00653076171875,0.01922607421875,1.00372314453125,36.029998779296875,0.0,16.0,-0.885894775390625,-2.4569244384765625,Closing,0.0,0.0,-189.0,0.0,0.0,0.0,0.0,0.0,
1.0446640000000007,0.0,0.0,52828.0,0.0,0.0,0.0,0.0,0.125,0.821533119,0.01,0.0,-37240.0,0.0,0.0,-0.0,0.0,0.125,0.506591745,0.01,0.0,39673.0,0.0,0.0,0.0,0.0,0.0,3.359374656,0.01,0.0,-18534.0,0.0,0.0,-0.0,0.0,0.25,1.6088865540000001,0.01,0.0,0.550000011920929,-0.699999988079071,64.1500015258789,0.01422119140625,0.04150390625,1.021728515625,36.029998779296875,0.0,40.0,-0.885528564453125,-2.4569244384765625,Closing,0.0,0.0,-189.0,0.0,0.0,0.0,0.0,0.0,
1.1083889999999992,0.0,0.0,52828.0,0.0,0.0,0.0,0.0,0.125,0.821533119,0.01,0.0,-37240.0,0.0,0.0,-0.0,0.0,0.125,0.506591745,0.01,0.0,39673.0,0.0,0.0,0.0,0.0,0.0,3.359374656,0.01,0.0,-18534.0,0.0,0.0,-0.0,0.0,0.25,1.6113279600000001,0.01,0.0,0.5299999713897705,-0.699999988079071,64.1500015258789,0.012451171875,0.050537109375,1.0020751953125,36.029998779296875,0.0,47.0,-0.8843231201171875,-2.4569244384765625,Closing,0.0,0.0,-189.0,0.0,0.0,0.0,0.0,0.0,
1.173040000000001,0.0,0.0,52828.0,0.0,0.0,0.0,0.0,0.125,0.821533119,0.01,0.0,-37240.0,0.0,0.0,-0.0,0.0,0.125,0.507812448,0.01,0.0,39673.0,0.0,0.0,0.0,0.0,0.0,3.358153953,0.01,0.0,-18534.0,0.0,0.0,-0.0,0.0,0.25,1.6088865540000001,0.01,0.0,0.550000011920929,-0.699999988079071,64.1500015258789,-0.00225830078125,0.063720703125,0.97381591796875,36.029998779296875,0.0,53.0,-0.8813018798828125,-2.4569244384765625,Closing,0.0,0.0,-189.0,0.0,0.0,0.0,0.0,0.0,
1.2276130000000012,0.0,0.0,52828.0,0.0,0.0,0.0,0.0,0.125,0.821533119,0.01,0.0,-37240.0,0.0,0.0,-0.0,0.0,0.125,0.507812448,0.01,0.0,39673.0,0.0,0.0,0.0,0.0,0.0,3.359374656,0.01,-0.0012207030000004337,-18534.0,0.0,0.0,-0.0,0.0,0.25,1.6088865540000001,0.01,0.0,0.550000011920929,-0.699999988079071,64.1500015258789,-0.0093994140625,0.0185546875,1.02880859375,36.029998779296875,0.0,9.0,-0.877777099609375,-2.4569244384765625,Closing,0.0,0.0,-189.0,0.0,0.0,0.0,0.0,0.0,
1.309184000000001,0.0,0.0,52828.0,0.0,0.0,0.0,0.0,0.125,0.821533119,0.01,0.0,-37240.0,0.0,0.0,-0.0,0.0,0.125,0.507812448,0.01,0.0,39673.0,0.0,0.0,0.0,0.0,0.0,3.358153953,0.01,0.0012207030000004337,-18534.0,0.0,0.0,-0.0,0.0,0.25,1.6088865540000001,0.01,0.0,0.5299999713897705,-0.699999988079071,64.1500015258789,0.00634765625,0.0169677734375,1.04345703125,36.040000915527344,0.0,14.0,-0.877777099609375,-2.45709228515625,Closing,0.0,0.0,-189.0,0.0,0.0,0.0,0.0,0.0,
1.371875,0.0,0.0,52828.0,0.0,0.0,0.0,0.0,0.125,0.821533119,0.01,0.0,-37240.0,0.0,0.0,-0.0,0.0,0.125,0.506591745,0.01,0.0,39673.0,0.0,0.0,0.0,0.0,0.0,3.358153953,0.01,0.0,-18534.0,0.0,0.0,-0.0,0.0,0.25,1.6088865540000001,0.01,0.0,0.5400000214576721,-0.699999988079071,64.13999938964844,-0.01947021484375,-0.0133056640625,1.02899169921875,36.040000915527344,0.0,-23.0,-0.8777923583984375,-2.45709228515625,Closing,0.0,0.0,-189.0,0.0,0.0,0.0,0.0,0.0,
1.4395099999999983,0.0,0.0,52828.0,0.0,0.0,0.0,0.0,0.125,0.821533119,0.01,0.0,-37240.0,0.0,0.0,-0.0,0.0,0.125,0.507812448,0.01,0.0,39673.0,0.0,0.0,0.0,0.0,0.0,3.358153953,0.01,0.0,-18534.0,0.0,0.0,-0.0,0.0,0.25,1.6088865540000001,0.01,0.0,0.5600000023841858,-0.699999988079071,64.13999938964844,-0.04052734375,-0.03741455078125,1.0675048828125,36.040000915527344,0.0,-55.0,-0.87847900390625,-2.45709228515625,Closing,0.0,0.0,-189.0,0.0,0.0,0.0,0.0,0.0,
1.5081769999999997,0.0,0.0,52828.0,0.0,0.0,0.0,0.0,0.125,0.822753822,0.01,0.0,-37240.0,0.0,0.0,-0.0,0.0,0.125,0.506591745,0.01,0.0,39673.0,0.0,0.0,0.0,0.0,0.0,3.358153953,0.01,0.0,-18534.0,0.0,0.0,-0.0,0.0,0.25,1.6088865540000001,0.01,0.0,0.550000011920929,-0.7099999785423279,64.13999938964844,-0.05419921875,-0.034912109375,1.05474853515625,36.040000915527344,0.0,-58.0,-0.880340576171875,-2.45709228515625,Closing,0.0,0.0,-189.0,0.0,0.0,0.0,0.0,0.0,
1.5854530000000013,0.0,0.0,52828.0,0.0,0.0,0.0,0.0,0.125,0.822753822,0.01,0.0,-37240.0,0.0,0.0,-0.0,0.0,0.125,0.506591745,0.01,0.0,39673.0,0.0,0.0,0.0,0.0,0.0,3.359374656,0.01,0.0,-18534.0,0.0,0.0,-0.0,0.0,0.25,1.6088865540000001,0.01,0.0,0.5400000214576721,-0.7099999785423279,64.13999938964844,-0.02862548828125,-0.01715087890625,0.97515869140625,36.040000915527344,0.0,-30.0,-0.88446044921875,-2.45709228515625,Closing,0.0,0.0,-189.0,0.0,0.0,0.0,0.0,0.0,
1.7068590000000003,0.0,0.0,52828.0,0.0,0.0,0.0,0.0,0.125,0.821533119,0.01,0.0,-37240.0,0.0,0.0,-0.0,0.0,0.125,0.506591745,0.01,0.0,39673.0,0.0,0.0,0.0,0.0,0.0,3.358153953,0.01,0.0,-18534.0,0.0,0.0,-0.0,0.0,0.25,1.6088865540000001,0.01,0.0,0.5199999809265137,-0.7200000286102295,64.1500015258789,-0.0098876953125,0.01934814453125,0.97552490234375,36.040000915527344,0.0,10.0,-0.889312744140625,-2.4571075439453125,Closing,0.0,0.0,-189.0,0.0,0.0,0.0,0.0,0.0,
1.763380000000001,0.0,0.0,52828.0,0.0,0.0,0.0,0.0,0.125,0.821533119,0.01,0.0,-37240.0,0.0,0.0,-0.0,0.0,0.125,0.506591745,0.01,0.0,39673.0,0.0,0.0,0.0,0.0,0.0,3.358153953,0.01,0.0,-18534.0,0.0,0.0,-0.0,0.0,0.25,1.6076658510000001,0.01,0.0,0.5199999809265137,-0.7099999785423279,64.13999938964844,-0.011474609375,0.02740478515625,0.9925537109375,36.040000915527344,0.0,16.0,-0.8894805908203125,-2.4571685791015625,Closing,0.0,0.0,-189.0,0.0,0.0,0.0,0.0,0.0,
1.8416080000000001,0.0,0.0,52828.0,0.0,0.0,0.0,0.0,0.125,0.821533119,0.01,0.0,-37240.0,0.0,0.0,-0.0,0.0,0.125,0.507812448,0.01,0.0,39673.0,0.0,0.0,0.0,0.0,0.0,3.358153953,0.01,0.0,-18534.0,0.0,0.0,-0.0,0.0,0.25,1.6088865540000001,0.01,0.0,0.5400000214576721,-0.7099999785423279,64.1500015258789,-0.007568359375,-0.00146484375,1.0067138671875,36.02000045776367,0.0,-7.0,-0.889404296875,-2.4571685791015625,Closing,0.0,0.0,-189.0,0.0,0.0,0.0,0.0,0.0,
1.9069039999999986,0.0,0.0,52828.0,0.0,0.0,0.0,0.0,0.125,0.821533119,0.01,0.0,-37240.0,0.0,0.0,-0.0,0.0,0.125,0.507812448,0.01,0.0,39673.0,0.0,0.0,0.0,0.0,0.0,3.358153953,0.01,0.0,-18534.0,0.0,0.0,-0.0,0.0,0.25,1.6088865540000001,0.01,0.0,0.5199999809265137,-0.7099999785423279,64.1500015258789,-0.0081787109375,0.00390625,1.026123046875,36.02000045776367,0.0,-5.0,-0.889404296875,-2.4571685791015625,Closing,0.0,0.0,-189.0,0.0,0.0,0.0,0.0,0.0,
1.9722949999999984,0.0,0.0,52828.0,0.0,0.0,0.0,0.0,0.125,0.821533119,0.01,0.0,-37240.0,0.0,0.0,-0.0,0.0,0.125,0.507812448,0.01,0.0,39673.0,0.0,0.0,0.0,0.0,0.0,3.358153953,0.01,0.0,-18534.0,0.0,0.0,-0.0,0.0,0.25,1.6088865540000001,0.01,0.0,0.5400000214576721,-0.7099999785423279,64.13999938964844,-0.0113525390625,0.00885009765625,1.025390625,36.02000045776367,0.0,-1.0,-0.889404296875,-2.4571685791015625,Closing,0.0,0.0,-189.0,0.0,0.0,0.0,0.0,0.0,
2.0408009999999996,0.0,0.0,52828.0,0.0,0.0,0.0,0.0,0.125,0.821533119,0.01,0.0,-37240.0,0.0,0.0,-0.0,0.0,0.125,0.507812448,0.01,0.0,39673.0,0.0,0.0,0.0,0.0,0.0,3.35693325,0.01,0.0,-18534.0,0.0,0.0,-0.0,0.0,0.25,1.6088865540000001,0.01,0.0,0.5299999713897705,-0.7099999785423279,64.13999938964844,-0.01141357421875,0.00390625,1.021240234375,36.02000045776367,0.0,-4.0,-0.889404296875,-2.4571685791015625,Closing,0.0,0.0,-189.0,0.0,0.0,0.0,0.0,0.0,
2.1073859999999986,0.0,0.0,52828.0,0.0,0.0,0.0,0.0,0.125,0.822753822,0.01,0.0,-37240.0,0.0,0.0,-0.0,0.0,0.125,0.507812448,0.01,0.0,39673.0,0.0,0.0,0.0,0.0,0.0,3.358153953,0.01,-0.0012207030000004337,-18534.0,0.0,0.0,-0.0,0.0,0.25,1.6088865540000001,0.01,0.0,0.5299999713897705,-0.7099999785423279,64.13999938964844,-0.01434326171875,0.0089111328125,1.03057861328125,36.02000045776367,0.0,-1.0,-0.889404296875,-2.4571685791015625,Closing,0.0,0.0,-189.0,0.0,0.0,0.0,0.0,0.0,
2.241713,0.0,0.0,52828.0,0.0,0.0,0.0,0.0,0.125,0.821533119,0.01,0.0,-37240.0,0.0,0.0,-0.0,0.0,0.125,0.507812448,0.01,0.0,39673.0,0.0,0.0,0.0,0.0,0.0,3.358153953,0.01,0.0,-18534.0,0.0,0.0,-0.0,0.0,0.25,1.6088865540000001,0.01,0.0,0.5400000214576721,-0.7099999785423279,64.13999938964844,-0.011474609375,0.0125732421875,1.02435302734375,36.02000045776367,0.0,3.0,-0.889404296875,-2.4571685791015625,Closing,0.0,0.0,-189.0,0.0,0.0,0.0,0.0,0.0,
2.3067949999999984,0.0,0.0,52828.0,0.0,0.0,0.0,0.0,0.125,0.821533119,0.01,0.0,-37240.0,0.0,0.0,-0.0,0.0,0.125,0.506591745,0.01,0.0,39673.0,0.0,0.0,0.0,0.0,0.0,3.35693325,0.01,0.0,-18534.0,0.0,0.0,-0.0,0.0,0.25,1.6088865540000001,0.01,0.0,0.5299999713897705,-0.7099999785423279,64.13999938964844,-0.0125732421875,0.00146484375,1.023681640625,36.02000045776367,0.0,-7.0,-0.889404296875,-2.4571685791015625,Closing,0.0,0.0,-189.0,0.0,0.0,0.0,0.0,0.0,
2.3718189999999995,0.0,0.0,52828.0,0.0,0.0,0.0,0.0,0.125,0.821533119,0.01,0.0,-37240.0,0.0,0.0,-0.0,0.0,0.125,0.506591745,0.01,0.0,39673.0,0.0,0.0,0.0,0.0,0.0,3.358153953,0.01,0.0,-18534.0,0.0,0.0,-0.0,0.0,0.25,1.6088865540000001,0.01,0.0,0.5299999713897705,-0.7099999785423279,64.13999938964844,-0.01275634765625,0.01239013671875,1.0166015625,36.040000915527344,0.0,2.0,-0.889404296875,-2.4571685791015625,Closing,0.0,0.0,-189.0,0.0,0.0,0.0,0.0,0.0,
2.4424989999999998,0.0,0.0,52828.0,0.0,0.0,0.0,0.0,0.125,0.821533119,0.01,0.0,-37240.0,0.0,0.0,-0.0,0.0,0.125,0.507812448,0.01,0.0,39673.0,0.0,0.0,0.0,0.0,0.0,3.358153953,0.01,0.0,-18534.0,0.0,0.0,-0.0,0.0,0.25,1.6088865540000001,0.01,0.0,0.5299999713897705,-0.7099999785423279,64.12999725341797,-0.01300048828125,0.0079345703125,1.01861572265625,36.040000915527344,0.0,-1.0,-0.889404296875,-2.4571685791015625,Closing,0.0,0.0,-189.0,0.0,0.0,0.0,0.0,0.0,
2.5075099999999986,0.0,0.0,52828.0,0.0,0.0,0.0,0.0,0.125,0.821533119,0.01,0.0,-37240.0,0.0,0.0,-0.0,0.0,0.125,0.507812448,0.01,0.0,39673.0,0.0,0.0,0.0,0.0,0.0,3.358153953,0.01,0.0,-18534.0,0.0,0.0,-0.0,0.0,0.25,1.6088865540000001,0.01,0.0,0.5299999713897705,-0.7099999785423279,64.12999725341797,-0.01116943359375,0.0118408203125,1.01483154296875,36.040000915527344,0.0,2.0,-0.889404296875,-2.4571685791015625,Closing,0.0,0.0,-189.0,0.0,0.0,0.0,0.0,0.0,
2.5660020000000006,0.0,0.0,52828.0,0.0,0.0,0.0,0.0,0.125,0.821533119,0.01,0.0,-37240.0,0.0,0.0,-0.0,0.0,0.125,0.507812448,0.01,0.0,39673.0,0.0,0.0,0.0,0.0,0.0,3.358153953,0.01,0.0,-18534.0,0.0,0.0,-0.0,0.0,0.25,1.6088865540000001,0.01,0.0,0.5199999809265137,-0.7200000286102295,64.12999725341797,-0.01287841796875,0.00750732421875,1.01629638671875,36.040000915527344,0.0,-1.0,-0.889404296875,-2.4571685791015625,Closing,0.0,0.0,-189.0,0.0,0.0,0.0,0.0,0.0,
2.642,0.0,0.0,52828.0,0.0,0.0,0.0,0.0,0.125,0.821533119,0.01,0.0,-37240.0,0.0,0.0,-0.0,0.0,0.125,0.507812448,0.01,0.0,39673.0,0.0,0.0,0.0,0.0,0.0,3.358153953,0.01,0.0,-18534.0,0.0,0.0,-0.0,0.0,0.25,1.6088865540000001,0.01,0.0,0.5299999713897705,-0.7099999785423279,64.12999725341797,-0.01544189453125,0.0101318359375,1.02496337890625,36.040000915527344,0.0,0.0,-0.889404296875,-2.4571685791015625,Closing,0.0,0.0,-189.0,0.0,0.0,0.0,0.0,0.0,
2.6983729999999997,0.0,0.0,52828.0,0.125,0.0,-433.12499999999994,0.0,0.125,0.821533119,4.577813925231024,0.0,-37235.0,0.375,0.0,433.12499999999994,0.0,0.5,0.507812448,4.607067934629442,0.0,39671.0,0.375,0.0,-433.12499999999994,0.0,0.0,3.358153953,4.585377328974408,0.0,-18533.0,0.5,0.0,433.12499999999994,0.0,0.625,1.6040037420000002,4.6017125732845745,0.0,0.5299999713897705,-0.7099999785423279,64.12999725341797,-0.01611328125,0.01055908203125,1.03009033203125,36.040000915527344,0.0,0.0,-0.889404296875,-2.4571685791015625,Closing,0.0,0.0,-189.0,0.0,0.0,0.0,0.0,0.0,
2.7600689999999997,0.0,0.0,52824.0,0.0,-37.5,0.0,0.0,1.0,0.705566334,4.577813925231024,-0.0012207029999999897,-37235.0,0.25,112.5,0.0,0.0,0.875,0.444335892,4.607067934629442,-0.003662108999999525,39671.0,0.0,-60.0,0.0,0.0,0.875,3.225097326,4.585377328974408,-0.004882811999999959,-18533.0,0.25,7.5,0.0,0.0,0.5,1.4782713330000001,4.6017125732845745,-0.004882811999999959,0.49000000953674316,-0.7400000095367432,64.12000274658203,-0.0384521484375,-0.0120849609375,0.98187255859375,36.040000915527344,0.0,-29.0,-0.8895263671875,-2.456939697265625,Closing,0.0,0.0,-189.0,0.0,0.0,0.0,0.0,0.0,
2.8265639999999985,0.0,0.0,52824.0,0.0,-45.0,0.0,0.0,0.375,0.605468688,4.577813925231024,4.783325234,-37222.0,0.0,97.5,0.0,0.0,0.25,0.29052731400000004,4.607067934629442,0.0,39660.0,0.0,-75.0,0.0,0.0,0.25,3.090819996,4.585377328974408,0.0,-18530.0,0.0,15.0,0.0,0.0,0.25,1.3452147060000001,4.6017125732845745,0.0,0.49000000953674316,-0.75,64.08999633789062,-0.00738525390625,-0.0316162109375,0.9781494140625,36.02000045776367,0.0,-33.0,-0.890289306640625,-2.4561920166015625,Closing,0.0,0.0,-189.0,0.0,0.0,0.0,0.0,0.0,
2.9065499999999993,0.0,0.0,52820.0,0.0,0.0,0.0,0.0,0.375,0.5151366660000001,4.577813925231024,-0.09033202200000012,-37222.0,0.0,0.0,0.0,0.0,0.25,0.16479490500000002,4.607067934629442,-0.1611327960000004,39660.0,0.0,0.0,0.0,0.0,0.25,3.022460628,4.585377328974408,-0.1293945179999998,-18530.0,0.0,15.0,0.0,0.0,0.25,1.278076041,4.6017125732845745,-0.13183592399999977,0.49000000953674316,-0.7300000190734863,64.12999725341797,-0.0074462890625,0.03228759765625,1.04937744140625,36.02000045776367,0.0,23.0,-0.89044189453125,-2.4558563232421875,Closing,0.0,0.0,-189.0,0.0,0.0,0.0,0.0,0.0,
2.970852999999999,0.0,0.0,52820.0,0.0,0.0,0.0,0.0,0.25,0.495605418,4.577813925231024,-0.06835936800000031,-37222.0,0.0,0.0,0.0,0.0,0.125,0.15502928100000002,4.607067934629442,-0.09765623999999917,39660.0,0.0,0.0,0.0,0.0,0.125,3.018798519,4.585377328974408,-0.05737304099999996,-18528.0,0.0,7.5,0.0,0.0,0.25,1.282958853,4.6017125732845745,-0.06103515000000037,0.5,-0.7099999785423279,64.12999725341797,-0.02227783203125,0.00872802734375,1.01806640625,36.02000045776367,0.0,-4.0,-0.890380859375,-2.4558563232421875,Closing,0.0,0.0,-189.0,0.0,0.0,0.0,0.0,0.0,
3.0402150000000003,0.0,0.0,52820.0,5.75,-37.5,-1830.9375,0.0,0.25,0.505371042,4.577813925231024,0.0,-37222.0,11.375,45.0,1830.9375,0.0,0.125,0.169677717,4.607067934629442,0.0,39660.0,8.75,0.0,-1830.9375,0.0,0.125,3.023681331,4.585377328974408,0.0,-18528.0,7.375,67.5,1830.9375,0.0,0.25,1.301269398,4.6017125732845745,0.0,0.8999999761581421,-1.4600000381469727,64.1500015258789,-0.3507080078125,0.093505859375,1.388916015625,36.02000045776367,0.0,-73.0,-0.8911285400390625,-2.4542999267578125,Closing,0.0,0.0,-189.0,0.0,0.0,0.0,0.0,0.0,
3.108119999999999,0.0,0.0,52788.0,9.125,-202.5,-393.75000000000006,0.0,0.25,0.490722606,4.578087997711163,0.0,-37194.0,18.375,225.0,393.75000000000006,0.0,0.125,0.16845701400000002,4.607343758539201,0.0,39658.0,11.75,-37.5,-393.75000000000006,0.0,0.125,3.022460628,4.58565185427348,0.0,-18498.0,4.25,255.0,393.75000000000006,0.0,0.25,1.279296744,4.601988076570301,0.0,1.0700000524520874,-1.7100000381469727,64.12000274658203,-0.00604248046875,0.213134765625,0.97320556640625,36.02000045776367,0.0,185.0,-0.892425537109375,-2.4476776123046875,Closing,0.0,0.0,-189.0,0.0,0.0,0.0,0.0,0.0,
3.175714,0.0,0.0,52788.0,0.25,-270.0,0.0,0.0,0.25,0.48095698200000003,4.578087997711163,-0.003662108999999525,-37160.0,0.5,247.5,0.0,0.0,0.0,0.140380845,4.607343758539201,0.0,39645.0,0.625,-82.5,0.0,0.0,0.125,3.0090328950000003,4.58565185427348,0.0,-18472.0,0.25,142.5,0.0,0.0,0.125,1.2683104170000001,4.601988076570301,0.0,1.090000033378601,-1.690000057220459,64.23999786376953,-0.0325927734375,-0.1185302734375,0.74627685546875,36.02000045776367,0.0,-124.0,-0.8914642333984375,-2.440521240234375,Closing,0.0,0.0,-189.0,0.0,0.0,0.0,0.0,0.0,
3.2420999999999984,0.0,0.0,52744.0,0.0,-255.0,0.0,0.0,0.25,0.47485346700000003,4.578087997711163,-0.010986327000000351,-37160.0,0.0,120.0,0.0,0.0,0.0,0.13549803300000002,4.607343758539201,-0.014648435999999876,39645.0,0.0,-15.0,0.0,0.0,0.125,2.989501647,4.58565185427348,-0.009765623999999917,-18472.0,0.0,247.5,0.0,0.0,0.125,1.2683104170000001,4.601988076570301,-0.008544921000000372,0.8999999761581421,-1.4299999475479126,64.33000183105469,0.1240234375,-0.04766845703125,0.9112548828125,36.02000045776367,0.0,7.0,-0.89019775390625,-2.4344024658203125,Closing,0.0,0.0,-189.0,0.0,0.0,0.0,0.0,0.0,
3.3049079999999993,0.0,0.0,52744.0,0.0,-112.5,0.0,0.0,0.125,0.469970655,4.578087997711163,-0.010986327000000351,-37128.0,0.0,187.5,0.0,0.0,0.125,0.13549803300000002,4.607343758539201,-0.004882811999999959,39614.0,0.0,-150.0,0.0,0.0,0.0,2.989501647,4.58565185427348,-0.01831054500000029,-18431.0,0.0,277.5,0.0,0.0,0.125,1.2683104170000001,4.601988076570301,0.0,0.8199999928474426,-1.1799999475479126,64.22000122070312,-0.01446533203125,0.08697509765625,1.12103271484375,36.02000045776367,0.0,67.0,-0.8886260986328125,-2.43084716796875,Closing,0.0,0.0,-189.0,0.0,0.0,0.0,0.0,0.0,
3.372054,0.0,0.0,52721.0,0.0,-180.0,0.0,0.0,0.125,0.471191358,4.578087997711163,0.0,-37128.0,0.0,202.5,0.0,0.0,0.125,0.130615221,4.607343758539201,-0.004882811999999959,39614.0,0.0,-270.0,0.0,0.0,0.0,2.99072235,4.58565185427348,0.0,-18431.0,0.0,165.0,0.0,0.0,0.125,1.2695311200000001,4.601988076570301,0.0,0.6200000047683716,-0.9700000286102295,64.29000091552734,0.0716552734375,-0.0616455078125,1.07843017578125,36.02000045776367,0.0,-27.0,-0.886932373046875,-2.4287261962890625,Closing,0.0,0.0,-189.0,0.0,0.0,0.0,0.0,0.0,
3.443279999999999,0.0,0.0,52705.0,0.0,-142.5,0.0,0.0,0.125,0.46142573400000003,4.578087997711163,-0.004882811999999959,-37112.0,0.0,97.5,0.0,0.0,0.125,0.130615221,4.607343758539201,0.0,39598.0,0.0,-60.0,0.0,0.0,0.0,2.989501647,4.58565185427348,-0.0012207029999995456,-18412.0,0.0,105.0,0.0,0.0,0.125,1.2695311200000001,4.601988076570301,0.0,0.49000000953674316,-0.699999988079071,64.37999725341797,0.08184814453125,-0.01409912109375,1.0281982421875,36.02000045776367,0.0,20.0,-0.88641357421875,-2.4296112060546875,Closing,0.0,0.0,-189.0,0.0,0.0,0.0,0.0,0.0,
3.5070930000000007,0.0,0.0,52705.0,0.0,-52.5,0.0,0.0,0.125,0.46142573400000003,4.578087997711163,-0.004882811999999959,-37112.0,0.0,60.0,0.0,0.0,0.125,0.131835924,4.607343758539201,0.0,39598.0,0.0,-7.5,0.0,0.0,0.0,2.988280944,4.58565185427348,0.0,-18412.0,0.0,52.5,0.0,0.0,0.125,1.2695311200000001,4.601988076570301,0.0,0.3400000035762787,-0.4699999988079071,64.23999786376953,0.00830078125,-0.0228271484375,1.00921630859375,36.02000045776367,0.0,-18.0,-0.886474609375,-2.4344024658203125,Closing,0.0,0.0,-189.0,0.0,0.0,0.0,0.0,0.0,
3.641022000000001,0.0,0.0,52705.0,0.0,0.0,0.0,0.0,0.125,0.46142573400000003,4.578087997711163,0.0,-37109.0,0.0,0.0,0.0,0.0,0.125,0.130615221,4.607343758539201,0.0,39598.0,0.0,0.0,0.0,0.0,0.0,2.989501647,4.58565185427348,0.0,-18408.0,0.0,0.0,0.0,0.0,0.125,1.2695311200000001,4.601988076570301,0.0,0.3799999952316284,-0.47999998927116394,64.30000305175781,-0.03369140625,-0.007080078125,1.00537109375,36.02000045776367,0.0,-23.0,-0.8863067626953125,-2.436279296875,Closing,0.0,0.0,-189.0,0.0,0.0,0.0,0.0,0.0,
3.7076260000000003,0.0,0.0,52705.0,0.0,0.0,0.0,0.0,0.125,0.46020503100000004,4.578087997711163,0.0,-37109.0,0.0,0.0,0.0,0.0,0.125,0.131835924,4.607343758539201,0.0,39598.0,0.0,0.0,0.0,0.0,0.0,2.989501647,4.58565185427348,-0.0012207029999995456,-18408.0,0.0,0.0,0.0,0.0,0.125,1.2695311200000001,4.601988076570301,0.0,0.36000001430511475,-0.550000011920929,64.19999694824219,-0.02850341796875,0.0089111328125,1.0194091796875,36.02000045776367,0.0,-6.0,-0.8864288330078125,-2.4361114501953125,Closing,0.0,0.0,-189.0,0.0,0.0,0.0,0.0,0.0,
3.763625,0.0,0.0,52705.0,0.0,0.0,0.0,0.0,0.125,0.46020503100000004,4.578087997711163,0.0,-37109.0,0.0,0.0,0.0,0.0,0.125,0.130615221,4.607343758539201,0.0,39598.0,0.0,0.0,0.0,0.0,0.0,2.989501647,4.58565185427348,0.0012207029999995456,-18408.0,0.0,0.0,0.0,0.0,0.125,1.274413932,4.601988076570301,0.0,0.41999998688697815,-0.5799999833106995,64.23999786376953,-0.021240234375,0.0223388671875,1.00848388671875,36.02000045776367,0.0,8.0,-0.8864288330078125,-2.4360198974609375,Closing,0.0,0.0,-189.0,0.0,0.0,0.0,0.0,0.0,
3.8413149999999985,0.0,0.0,52705.0,0.0,0.0,0.0,0.0,0.125,0.46142573400000003,4.578087997711163,0.0,-37109.0,0.0,0.0,0.0,0.0,0.125,0.131835924,4.607343758539201,0.0,39598.0,0.0,0.0,0.0,0.0,0.0,2.989501647,4.58565185427348,0.0,-18408.0,0.0,0.0,0.0,0.0,0.125,1.274413932,4.601988076570301,0.0,0.41999998688697815,-0.6299999952316284,64.2699966430664,-0.02752685546875,0.00244140625,1.02301025390625,36.02000045776367,0.0,-11.0,-0.8864288330078125,-2.435577392578125,Closing,0.0,0.0,-189.0,0.0,0.0,0.0,0.0,0.0,
3.907540000000001,0.0,0.0,52705.0,0.0,0.0,0.0,0.0,0.125,0.46142573400000003,4.578087997711163,0.0,-37109.0,0.0,0.0,0.0,0.0,0.125,0.131835924,4.607343758539201,0.0,39598.0,0.0,0.0,0.0,0.0,0.0,2.989501647,4.58565185427348,0.0,-18408.0,0.0,0.0,0.0,0.0,0.125,1.274413932,4.601988076570301,0.0,0.4300000071525574,-0.6399999856948853,64.2300033569336,-0.0081787109375,0.02252197265625,1.01214599609375,36.029998779296875,0.0,14.0,-0.8864288330078125,-2.435577392578125,Closing,0.0,0.0,-189.0,0.0,0.0,0.0,0.0,0.0,
3.9641290000000007,0.0,0.0,52705.0,0.0,0.0,0.0,0.0,0.125,0.46142573400000003,4.578087997711163,0.0,-37109.0,0.0,0.0,0.0,0.0,0.125,0.130615221,4.607343758539201,0.0,39598.0,0.0,0.0,0.0,0.0,0.0,2.989501647,4.58565185427348,0.0,-18408.0,0.0,0.0,0.0,0.0,0.125,1.274413932,4.601988076570301,0.0,0.4300000071525574,-0.6299999952316284,64.26000213623047,-0.0142822265625,-0.005615234375,1.020263671875,36.029998779296875,0.0,-13.0,-0.8864288330078125,-2.435577392578125,Closing,0.0,0.0,-189.0,0.0,0.0,0.0,0.0,0.0,
4.042796999999998,0.0,0.0,52705.0,0.0,0.0,0.0,0.0,0.125,0.46142573400000003,4.578087997711163,0.0,-37109.0,0.0,0.0,0.0,0.0,0.125,0.131835924,4.607343758539201,0.0,39598.0,0.0,0.0,0.0,0.0,0.0,2.989501647,4.58565185427348,0.0,-18408.0,0.0,0.0,0.0,0.0,0.125,1.273193229,4.601988076570301,0.0,0.4099999964237213,-0.6200000047683716,64.25,-0.0035400390625,0.01531982421875,1.027587890625,36.029998779296875,0.0,10.0,-0.8864288330078125,-2.435577392578125,Closing,0.0,0.0,-189.0,0.0,0.0,0.0,0.0,0.0,
4.098319999999999,0.0,0.0,52705.0,0.0,0.0,0.0,0.0,0.125,0.462646437,4.578087997711163,0.0,-37109.0,0.0,0.0,0.0,0.0,0.125,0.131835924,4.607343758539201,0.0,39598.0,0.0,0.0,0.0,0.0,0.0,2.989501647,4.58565185427348,-0.0012207029999995456,-18408.0,0.0,0.0,0.0,0.0,0.125,1.273193229,4.601988076570301,0.0,0.41999998688697815,-0.6200000047683716,64.23999786376953,-0.01971435546875,0.0059814453125,1.02197265625,36.029998779296875,0.0,-5.0,-0.8864288330078125,-2.435577392578125,Closing,0.0,0.0,-189.0,0.0,0.0,0.0,0.0,0.0,
4.1620240000000015,0.0,0.0,52705.0,0.0,0.0,0.0,0.0,0.125,0.46142573400000003,4.578087997711163,-0.0012207030000004337,-37109.0,0.0,0.0,0.0,0.0,0.125,0.130615221,4.607343758539201,0.0,39598.0,0.0,0.0,0.0,0.0,0.0,2.989501647,4.58565185427348,0.0012207029999995456,-18408.0,0.0,0.0,0.0,0.0,0.125,1.273193229,4.601988076570301,0.0,0.4300000071525574,-0.6499999761581421,64.25,-0.018310546875,0.01043701171875,1.02349853515625,36.029998779296875,0.0,0.0,-0.8864288330078125,-2.435577392578125,Closing,0.0,0.0,-189.0,0.0,0.0,0.0,0.0,0.0,
4.242547999999998,0.0,0.0,52705.0,0.0,0.0,0.0,0.0,0.125,0.46142573400000003,4.578087997711163,0.0,-37109.0,0.0,0.0,0.0,0.0,0.125,0.130615221,4.607343758539201,0.0,39598.0,0.0,0.0,0.0,0.0,0.0,2.989501647,4.58565185427348,0.0,-18408.0,0.0,0.0,0.0,0.0,0.125,1.273193229,4.601988076570301,0.0,0.4300000071525574,-0.6600000262260437,64.23999786376953,-0.01263427734375,0.001220703125,1.02349853515625,36.029998779296875,0.0,-6.0,-0.8864288330078125,-2.435577392578125,Closing,0.0,0.0,-189.0,0.0,0.0,0.0,0.0,0.0,
4.302484000000001,0.0,0.0,52705.0,0.0,0.0,0.0,0.0,0.125,0.46020503100000004,4.578087997711163,0.0,-37109.0,0.0,0.0,0.0,0.0,0.125,0.131835924,4.607343758539201,0.0,39598.0,0.0,0.0,0.0,0.0,0.0,2.989501647,4.58565185427348,0.0,-18408.0,0.0,0.0,0.0,0.0,0.125,1.274413932,4.601988076570301,0.0,0.41999998688697815,-0.6600000262260437,64.25,-0.01025390625,0.00689697265625,1.02117919921875,36.029998779296875,0.0,0.0,-0.8864288330078125,-2.435577392578125,Closing,0.0,0.0,-189.0,0.0,0.0,0.0,0.0,0.0,
4.373845999999998,0.0,0.0,52705.0,0.0,0.0,0.0,0.0,0.125,0.46142573400000003,4.578087997711163,0.0,-37109.0,0.0,0.0,0.0,0.0,0.125,0.130615221,4.607343758539201,0.0,39598.0,0.0,0.0,0.0,0.0,0.0,2.989501647,4.58565185427348,-0.0012207029999995456,-18408.0,0.0,0.0,0.0,0.0,0.125,1.273193229,4.601988076570301,0.0,0.4300000071525574,-0.6499999761581421,64.23999786376953,-0.01171875,0.00738525390625,1.02069091796875,36.0099983215332,0.0,0.0,-0.8864288330078125,-2.435577392578125,Closing,0.0,0.0,-189.0,0.0,0.0,0.0,0.0,0.0,
4.442482,0.0,0.0,52705.0,0.0,0.0,0.0,0.0,0.125,0.46142573400000003,4.578087997711163,0.0,-37109.0,0.0,0.0,0.0,0.0,0.125,0.130615221,4.607343758539201,0.0,39598.0,0.0,0.0,0.0,0.0,0.0,2.989501647,4.58565185427348,0.0,-18408.0,0.0,0.0,0.0,0.0,0.125,1.273193229,4.601988076570301,0.0,0.4300000071525574,-0.6700000166893005,64.23999786376953,-0.014404296875,0.010498046875,1.01776123046875,36.0099983215332,0.0,1.0,-0.8864288330078125,-2.435577392578125,Closing,0.0,0.0,-189.0,0.0,0.0,0.0,0.0,0.0,
4.519455999999998,0.0,0.0,52705.0,0.0,0.0,0.0,0.0,0.125,0.462646437,4.578087997711163,0.0,-37109.0,0.0,0.0,0.0,0.0,0.125,0.130615221,4.607343758539201,0.0,39598.0,0.0,0.0,0.0,0.0,0.0,2.989501647,4.58565185427348,0.0012207029999995456,-18408.0,0.0,0.0,0.0,0.0,0.125,1.273193229,4.601988076570301,0.0,0.4399999976158142,-0.6800000071525574,64.23999786376953,-0.01318359375,0.00238037109375,1.01934814453125,36.0099983215332,0.0,-5.0,-0.8864288330078125,-2.435577392578125,Closing,0.0,0.0,-189.0,0.0,0.0,0.0,0.0,0.0,
4.6417769999999985,0.0,0.0,52705.0,0.0,0.0,0.0,0.0,0.125,0.46020503100000004,4.578087997711163,0.0,-37109.0,0.0,0.0,0.0,0.0,0.125,0.130615221,4.607343758539201,0.0,39598.0,0.0,0.0,0.0,0.0,0.0,2.989501647,4.58565185427348,0.0,-18408.0,0.0,0.0,0.0,0.0,0.125,1.273193229,4.601988076570301,0.0,0.4300000071525574,-0.6700000166893005,64.23999786376953,-0.01263427734375,0.0074462890625,1.02081298828125,36.0099983215332,0.0,0.0,-0.8864288330078125,-2.435577392578125,Closing,0.0,0.0,-189.0,0.0,0.0,0.0,0.0,0.0,
4.708696,0.0,0.0,52705.0,0.75,0.0,-905.6249999999999,0.0,3.875,0.432128862,3.6991882500000015,0.0,-37109.0,2.25,30.0,905.6249999999999,0.0,3.5,0.115966785,3.7228275000000015,0.0,39598.0,2.125,-7.5,-905.6249999999999,0.0,2.125,2.984618835,3.7053000000000016,0.0,-18408.0,1.625,7.5,905.6249999999999,0.0,0.25,1.2646483080000002,3.7185000000000015,0.0,0.44999998807907104,-0.6899999976158142,64.23999786376953,-0.2547607421875,0.2073974609375,0.9600830078125,36.0099983215332,0.0,74.0,-0.8863677978515625,-2.43536376953125,Closing,0.0,0.0,-189.0,0.0,0.0,0.0,0.0,0.0,
4.763792000000001,0.0,0.0,52684.0,1.375,-135.0,-551.25,0.0,6.125,0.046386714,3.6991882500000015,0.0,-37077.0,5.875,217.5,551.25,0.0,6.0,4.67529249,3.7228275000000015,0.0,39589.0,2.875,-75.0,-551.25,0.0,4.0,2.57568333,3.7053000000000016,0.0,-18389.0,2.0,150.0,551.25,0.0,6.875,0.8679198330000001,3.7185000000000015,0.0,0.75,-1.1699999570846558,64.12000274658203,-0.10455322265625,0.0103759765625,0.9495849609375,36.0099983215332,0.0,-39.0,-0.8856353759765625,-2.431182861328125,Closing,0.0,0.0,-189.0,0.0,0.0,0.0,0.0,0.0,
4.832396000000001,0.0,0.0,52684.0,0.25,-142.5,0.0,0.0,0.5,4.625243667,3.6991882500000015,-0.43518114799999896,-37077.0,1.125,165.0,0.0,0.0,1.125,4.176024963000001,3.7228275000000015,4.514159694,39589.0,0.5,-90.0,0.0,0.0,0.75,2.210693133,3.7053000000000016,0.0,-18373.0,0.625,187.5,0.0,0.0,0.875,0.46630854600000005,3.7185000000000015,0.0,0.8899999856948853,-1.0399999618530273,64.19999694824219,0.18768310546875,0.07708740234375,0.847900390625,36.0099983215332,0.0,145.0,-0.883392333984375,-2.4239654541015625,Closing,0.0,0.0,-189.0,0.0,0.0,0.0,0.0,0.0,
4.908985,0.0,0.0,52674.0,0.0,-52.5,0.0,0.0,0.5,4.410399939,3.6991882500000015,-0.3051757500000005,-37060.0,0.0,67.5,0.0,0.0,0.25,3.984374592,3.7228275000000015,-0.46142573399999964,39582.0,0.0,-15.0,0.0,0.0,0.5,2.023925574,3.7053000000000016,-0.3308105130000003,-18373.0,0.0,67.5,0.0,0.0,0.75,0.253906224,3.7185000000000015,-0.369873009,0.8299999833106995,-0.5899999737739563,64.26000213623047,0.05487060546875,-0.01611328125,0.9019775390625,36.0099983215332,0.0,1.0,-0.8804779052734375,-2.420867919921875,Closing,0.0,0.0,-189.0,0.0,0.0,0.0,0.0,0.0,
4.964141,0.0,0.0,52674.0,0.0,0.0,0.0,0.0,0.25,4.367675334,3.6991882500000015,-0.20263669800000006,-37060.0,0.0,0.0,0.0,0.0,0.5,4.0234370880000005,3.7228275000000015,-0.15869139000000043,39582.0,0.0,7.5,0.0,0.0,0.0,2.004394326,3.7053000000000016,-0.1879882619999993,-18356.0,0.0,90.0,0.0,0.0,0.25,0.2441406,3.7185000000000015,-0.21972653999999991,0.6299999952316284,-0.6800000071525574,64.29000091552734,-0.0703125,-0.1156005859375,1.02862548828125,36.0099983215332,0.0,-139.0,-0.8816070556640625,-2.4188079833984375,Closing,0.0,0.0,-189.0,0.0,0.0,0.0,0.0,0.0,
5.031078999999998,0.0,0.0,52674.0,0.0,0.0,0.0,0.0,0.375,4.427489781,3.6991882500000015,-0.019531247999999835,-37059.0,0.0,15.0,0.0,0.0,0.25,4.07714802,3.7228275000000015,0.0,39580.0,0.0,-30.0,0.0,0.0,0.0,2.048339634,3.7053000000000016,0.0,-18356.0,0.0,75.0,0.0,0.0,0.25,0.308837859,3.7185000000000015,0.0,0.4399999976158142,-0.6800000071525574,64.36000061035156,0.003173828125,-0.05841064453125,0.9908447265625,36.0099983215332,0.0,-52.0,-0.8856658935546875,-2.417388916015625,Closing,0.0,0.0,-189.0,0.0,0.0,0.0,0.0,0.0,
5.110379000000001,0.0,0.0,52674.0,0.0,-7.5,0.0,0.0,0.375,4.482421416,3.6991882500000015,0.06103515000000037,-37057.0,0.0,7.5,0.0,0.0,0.25,4.149169497,3.7228275000000015,0.03662109000000058,39577.0,0.0,-15.0,0.0,0.0,0.0,2.071532991,3.7053000000000016,0.04150390199999965,-18353.0,0.0,15.0,0.0,0.0,0.25,0.333251919,3.7185000000000015,0.06347655600000035,0.25999999046325684,-0.699999988079071,64.33999633789062,-0.02935791015625,-0.0277099609375,1.025390625,36.0099983215332,0.0,-36.0,-0.889984130859375,-2.417205810546875,Closing,0.0,0.0,-189.0,0.0,0.0,0.0,0.0,0.0,
5.172210999999999,0.0,0.0,52673.0,0.0,0.0,0.0,0.0,0.125,4.515380397,3.6991882500000015,0.056152337999999524,-37057.0,0.0,0.0,0.0,0.0,0.25,4.197997617,3.7228275000000015,0.07934569499999977,39577.0,0.0,0.0,0.0,0.0,0.0,2.091064239,3.7053000000000016,0.02441406000000068,-18353.0,0.0,0.0,0.0,0.0,0.25,0.3662109,3.7185000000000015,0.03295898099999972,0.27000001072883606,-0.7400000095367432,64.31999969482422,-0.01861572265625,0.02496337890625,1.07562255859375,36.0099983215332,0.0,15.0,-0.893646240234375,-2.417205810546875,Closing,0.0,0.0,-189.0,0.0,0.0,0.0,0.0,0.0,
5.240431,0.0,0.0,52673.0,0.0,0.0,-275.625,0.0,0.125,4.512938991,3.6991882500000015,0.0,-37056.0,0.25,7.5,275.625,0.0,0.25,4.217528865,3.7228275000000015,0.0,39576.0,0.125,0.0,-275.625,0.0,0.0,2.097167754,3.7053000000000016,0.0,-18353.0,0.375,0.0,275.625,0.0,0.125,0.372314415,3.7185000000000015,0.0,0.3400000035762787,-0.699999988079071,64.30999755859375,-0.01226806640625,0.03485107421875,1.03240966796875,36.0099983215332,0.0,26.0,-0.89306640625,-2.417205810546875,Closing,0.0,0.0,-189.0,0.0,0.0,0.0,0.0,0.0,
5.304844000000001,0.0,0.0,52673.0,0.375,-7.5,-590.625,0.0,0.125,4.512938991,3.6991882500000015,0.0,-37056.0,1.25,97.5,590.625,0.0,0.125,4.215087459,3.7228275000000015,0.0,39576.0,0.625,-30.0,-590.625,0.0,0.0,2.100829863,3.7053000000000016,0.0,-18353.0,1.125,0.0,590.625,0.0,0.125,0.37597652400000003,3.7185000000000015,0.0,0.4099999964237213,-0.7200000286102295,64.30999755859375,-0.06207275390625,0.15924072265625,1.03375244140625,36.0099983215332,0.0,115.0,-0.8925018310546875,-2.41705322265625,Closing,0.0,0.0,-189.0,0.0,0.0,0.0,0.0,0.0,
5.372366999999999,0.0,0.0,52646.0,1.0,-142.5,-590.625,0.0,0.125,4.514159694,3.6991882500000015,0.0,-37030.0,3.75,165.0,590.625,0.0,0.125,4.217528865,3.7228275000000015,0.0,39554.0,1.875,-142.5,-590.625,0.0,0.0,2.1105954870000003,3.7053000000000016,0.0,-18332.0,1.875,157.5,590.625,0.0,0.125,0.3662109,3.7185000000000015,0.0,0.8399999737739563,-0.7099999785423279,64.2300033569336,-0.00396728515625,0.0601806640625,0.98406982421875,36.0,0.0,44.0,-0.8893585205078125,-2.4149017333984375,Closing,0.0,0.0,-189.0,0.0,0.0,0.0,0.0,0.0,
5.439851999999999,0.0,0.0,52646.0,1.25,-195.0,-590.625,0.0,0.125,4.514159694,3.6991882500000015,0.0,-37030.0,5.25,142.5,590.625,0.0,0.125,4.217528865,3.7228275000000015,0.0,39554.0,2.25,-135.0,-590.625,0.0,0.0,2.130126735,3.7053000000000016,0.0,-18309.0,2.375,165.0,590.625,0.0,0.125,0.3662109,3.7185000000000015,0.0,1.0499999523162842,-0.6800000071525574,64.23999786376953,0.06683349609375,0.1038818359375,0.81732177734375,36.0,0.0,113.0,-0.885162353515625,-2.41241455078125,Closing,0.0,0.0,-189.0,0.0,0.0,0.0,0.0,0.0,
5.507358,0.0,0.0,52616.0,2.0,-202.5,-610.3124999999999,0.0,0.125,4.515380397,3.6991882500000015,0.0,-36999.0,6.125,232.5,610.3124999999999,0.0,0.125,4.217528865,3.7228275000000015,0.0,39532.0,3.625,-187.5,-610.3124999999999,0.0,0.125,2.130126735,3.7053000000000016,0.0,-18309.0,2.875,195.0,610.3124999999999,0.0,0.125,0.3662109,3.7185000000000015,0.0,1.3600000143051147,-0.7099999785423279,64.2300033569336,-0.025634765625,0.0418701171875,0.94171142578125,36.0,0.0,11.0,-0.8791351318359375,-2.40924072265625,Closing,0.0,0.0,-189.0,0.0,0.0,0.0,0.0,0.0,
5.57216,0.0,0.0,52616.0,2.25,-292.5,-610.3124999999999,0.0,0.125,4.527587427,3.6991882500000015,0.0,-36999.0,5.875,322.5,610.3124999999999,0.0,0.125,4.216308162,3.7228275000000015,0.0,39532.0,3.5,-292.5,-610.3124999999999,0.0,0.125,2.130126735,3.7053000000000016,0.0,-18255.0,2.875,285.0,610.3124999999999,0.0,0.125,0.371093712,3.7185000000000015,0.0,1.6699999570846558,-0.7099999785423279,64.30000305175781,-0.02923583984375,0.21417236328125,1.05450439453125,36.0,0.0,158.0,-0.8690185546875,-2.4040374755859375,Closing,0.0,0.0,-189.0,0.0,0.0,0.0,0.0,0.0,
5.641395,0.0,0.0,52558.0,2.0,-382.5,-610.3124999999999,0.0,0.125,4.52880813,3.6991882500000015,0.0,-36942.0,5.375,412.5,610.3124999999999,0.0,0.125,4.217528865,3.7228275000000015,0.0,39479.0,2.875,-360.0,-610.3124999999999,0.0,0.125,2.130126735,3.7053000000000016,0.0,-18255.0,3.0,405.0,610.3124999999999,0.0,0.125,0.367431603,3.7185000000000015,0.0,1.8300000429153442,-0.7099999785423279,64.31999969482422,-0.03973388671875,0.10418701171875,1.11187744140625,36.0,0.0,50.0,-0.8564605712890625,-2.3971405029296875,Closing,0.0,0.0,-189.0,0.0,0.0,0.0,0.0,0.0,
5.705827000000001,0.0,0.0,52558.0,1.875,-442.5,-610.3124999999999,0.0,0.125,4.527587427,3.6991882500000015,0.0,-36861.0,4.75,487.5,610.3124999999999,0.0,0.125,4.217528865,3.7228275000000015,0.0,39408.0,3.5,-427.5,-610.3124999999999,0.0,0.125,2.130126735,3.7053000000000016,0.0,-18184.0,2.75,427.5,610.3124999999999,0.0,0.125,0.37475582100000004,3.7185000000000015,0.0,1.850000023841858,-0.7099999785423279,64.2699966430664,-0.04547119140625,0.0291748046875,1.0478515625,36.0,0.0,-18.0,-0.848419189453125,-2.3926544189453125,Closing,0.0,0.0,-189.0,0.0,0.0,0.0,0.0,0.0,
5.763161,0.0,0.0,52482.0,0.375,-465.0,0.0,0.0,0.125,4.517821803,3.6991882500000015,-0.0012207030000004337,-36861.0,1.5,465.0,0.0,0.0,0.125,4.216308162,3.7228275000000015,0.0,39408.0,0.75,-435.0,0.0,0.0,0.0,2.130126735,3.7053000000000016,-0.0012207029999995456,-18184.0,0.25,382.5,0.0,0.0,0.125,0.371093712,3.7185000000000015,0.0012207029999995456,1.4900000095367432,-0.7400000095367432,64.05000305175781,-0.0462646484375,-0.18292236328125,1.0546875,36.0,0.0,-203.0,-0.8496856689453125,-2.3854827880859375,Closing,0.0,0.0,-189.0,0.0,0.0,0.0,0.0,0.0,
5.842001,0.0,0.0,52457.0,0.0,-195.0,0.0,0.0,0.125,4.520263209,3.6991882500000015,-0.008544920999999484,-36829.0,0.0,157.5,0.0,0.0,0.125,4.218749568,3.7228275000000015,0.0,39374.0,0.0,-172.5,0.0,0.0,0.125,2.131347438,3.7053000000000016,0.0,-18154.0,0.0,157.5,0.0,0.0,0.125,0.380859336,3.7185000000000015,0.0,0.7300000190734863,-0.6700000166893005,64.0,-0.022216796875,-0.281982421875,1.05120849609375,36.0,0.0,-269.0,-0.8575897216796875,-2.38189697265625,Closing,0.0,0.0,-189.0,0.0,0.0,0.0,0.0,0.0,
5.906575000000001,0.0,0.0,52457.0,0.0,-75.0,0.0,0.0,0.125,4.519042506,3.6991882500000015,0.0,-36829.0,0.0,157.5,0.0,0.0,0.125,4.217528865,3.7228275000000015,0.0012207030000004337,39374.0,0.0,-60.0,0.0,0.0,0.125,2.130126735,3.7053000000000016,0.0,-18154.0,0.0,127.5,0.0,0.0,0.125,0.380859336,3.7185000000000015,0.009765623999999917,0.1599999964237213,-0.6600000262260437,64.01000213623047,0.00457763671875,-0.13055419921875,0.9476318359375,35.9900016784668,0.0,-113.0,-0.8695831298828125,-2.3822479248046875,Closing,0.0,0.0,-189.0,0.0,0.0,0.0,0.0,0.0,
5.972416000000001,0.0,0.0,52444.0,0.0,-82.5,0.0,0.0,0.125,4.517821803,3.6991882500000015,0.0,-36814.0,0.0,45.0,0.0,0.0,0.125,4.217528865,3.7228275000000015,-0.0012207030000004337,39364.0,0.0,-60.0,0.0,0.0,0.125,2.130126735,3.7053000000000016,0.0,-18138.0,0.0,52.5,0.0,0.0,0.125,0.380859336,3.7185000000000015,0.0,-0.18000000715255737,-0.6499999761581421,63.9900016784668,0.0150146484375,-0.08563232421875,0.94134521484375,35.9900016784668,0.0,-62.0,-0.8849334716796875,-2.3841400146484375,Closing,0.0,0.0,-189.0,0.0,0.0,0.0,0.0,0.0,
6.027442999999999,0.0,0.0,52444.0,0.0,-30.0,0.0,0.0,0.125,4.519042506,3.6991882500000015,0.0,-36814.0,0.0,0.0,0.0,0.0,0.125,4.217528865,3.7228275000000015,0.0012207030000004337,39364.0,0.0,-7.5,0.0,0.0,0.125,2.130126735,3.7053000000000016,0.0,-18138.0,0.0,0.0,0.0,0.0,0.125,0.37597652400000003,3.7185000000000015,0.0,-0.38999998569488525,-0.6600000262260437,64.08000183105469,-0.01416015625,-0.05078125,1.0067138671875,35.9900016784668,0.0,-40.0,-0.9062042236328125,-2.3877716064453125,Closing,0.0,0.0,-189.0,0.0,0.0,0.0,0.0,0.0,
6.107212,0.0,0.0,52448.0,0.0,22.5,0.0,0.0,0.125,4.522704615,3.6991882500000015,0.0,-36814.0,0.0,-7.5,0.0,0.0,0.125,4.221190974000001,3.7228275000000015,-0.0012207030000004337,39364.0,0.0,7.5,0.0,0.0,0.125,2.130126735,3.7053000000000016,0.0,-18138.0,0.0,-22.5,0.0,0.0,0.125,0.385742148,3.7185000000000015,-0.004882811999999959,-0.25,-0.6499999761581421,64.04000091552734,0.010009765625,0.06201171875,1.03729248046875,35.9900016784668,0.0,69.0,-0.923126220703125,-2.3875885009765625,Closing,0.0,0.0,-189.0,0.0,0.0,0.0,0.0,0.0,
6.170583999999999,0.0,0.0,52448.0,0.0,105.0,0.0,0.0,0.125,4.523925318,3.6991882500000015,0.004882811999999959,-36814.0,0.0,-82.5,0.0,0.0,0.0,4.222411677,3.7228275000000015,0.004882812000000847,39381.0,0.0,90.0,0.0,0.0,0.125,2.130126735,3.7053000000000016,0.0,-18153.0,0.0,-82.5,0.0,0.0,0.125,0.385742148,3.7185000000000015,0.008544921000000372,-0.07000000029802322,-0.6399999856948853,64.08000183105469,0.01312255859375,0.07098388671875,0.89544677734375,35.9900016784668,0.0,75.0,-0.941741943359375,-2.3865814208984375,Closing,0.0,0.0,-189.0,0.0,0.0,0.0,0.0,0.0,
6.2409300000000005,0.0,0.0,52467.0,0.0,90.0,0.0,0.0,0.125,4.523925318,3.6991882500000015,0.0,-36832.0,0.0,-82.5,0.0,0.0,0.0,4.221190974000001,3.7228275000000015,0.0,39381.0,0.0,75.0,0.0,0.0,0.125,2.131347438,3.7053000000000016,0.0,-18153.0,0.0,-90.0,0.0,0.0,0.125,0.39428706900000005,3.7185000000000015,0.0,0.09000000357627869,-0.6600000262260437,64.06999969482422,-4.8828125E-4,0.0703125,0.98675537109375,35.9900016784668,0.0,66.0,-0.9548492431640625,-2.3862457275390625,Closing,0.0,0.0,-189.0,0.0,0.0,0.0,0.0,0.0,
6.308586999999999,0.0,0.0,52467.0,0.0,30.0,0.0,0.0,0.125,4.522704615,3.6991882500000015,0.0,-36837.0,0.0,-30.0,0.0,0.0,0.0,4.222411677,3.7228275000000015,0.0,39389.0,0.0,52.5,0.0,0.0,0.125,2.130126735,3.7053000000000016,0.0,-18162.0,0.0,-60.0,0.0,0.0,0.125,0.39428706900000005,3.7185000000000015,0.009765623999999917,0.25,-0.6800000071525574,64.01000213623047,-0.00787353515625,0.04083251953125,1.0531005859375,35.9900016784668,0.0,34.0,-0.9694366455078125,-2.38525390625,Closing,0.0,0.0,-189.0,0.0,0.0,0.0,0.0,0.0,
6.372258999999998,0.0,0.0,52470.0,0.0,0.0,0.0,0.0,0.125,4.523925318,3.6991882500000015,0.0,-36837.0,0.0,-7.5,0.0,0.0,0.0,4.223632380000001,3.7228275000000015,0.0012207029999995456,39389.0,0.0,15.0,0.0,0.0,0.125,2.130126735,3.7053000000000016,0.0,-18162.0,0.0,-15.0,0.0,0.0,0.25,0.39428706900000005,3.7185000000000015,0.0024414059999999793,0.3100000023841858,-0.6800000071525574,64.05999755859375,-0.0155029296875,0.00714111328125,1.0526123046875,35.9900016784668,0.0,0.0,-0.977691650390625,-2.38525390625,Closing,0.0,0.0,-189.0,0.0,0.0,0.0,0.0,0.0,
6.4435,0.0,0.0,52470.0,0.0,0.0,0.0,0.0,0.125,4.523925318,3.6991882500000015,0.0,-36837.0,0.0,0.0,0.0,0.0,0.0,4.222411677,3.7228275000000015,0.0,39389.0,0.0,0.0,0.0,0.0,0.125,2.130126735,3.7053000000000016,0.0,-18162.0,0.0,0.0,0.0,0.0,0.25,0.39550777200000004,3.7185000000000015,0.0,0.27000001072883606,-0.6800000071525574,64.02999877929688,-0.00982666015625,-0.01007080078125,1.030517578125,35.970001220703125,0.0,-12.0,-0.977691650390625,-2.38525390625,Closing,0.0,0.0,-189.0,0.0,0.0,0.0,0.0,0.0,
6.49491,0.0,0.0,52470.0,0.0,0.0,0.0,0.0,0.125,4.523925318,3.6991882500000015,0.0,-36837.0,0.0,0.0,0.0,0.0,0.0,4.221190974000001,3.7228275000000015,-0.0012207029999995456,39389.0,0.0,0.0,0.0,0.0,0.125,2.130126735,3.7053000000000016,0.0,-18162.0,0.0,0.0,0.0,0.0,0.25,0.39550777200000004,3.7185000000000015,-0.0012207029999999897,0.25999999046325684,-0.6899999976158142,64.04000091552734,-0.01312255859375,0.01983642578125,1.03729248046875,35.970001220703125,0.0,13.0,-0.977691650390625,-2.38525390625,Closing,0.0,0.0,-189.0,0.0,0.0,0.0,0.0,0.0,
6.574945,0.0,0.0,52470.0,0.0,0.0,0.0,0.0,0.125,4.522704615,3.6991882500000015,0.0,-36837.0,0.0,0.0,0.0,0.0,0.0,4.222411677,3.7228275000000015,0.0,39389.0,0.0,0.0,0.0,0.0,0.125,2.130126735,3.7053000000000016,0.0,-18162.0,0.0,0.0,0.0,0.0,0.25,0.40039058400000005,3.7185000000000015,0.0,0.30000001192092896,-0.6899999976158142,64.02999877929688,-0.01495361328125,0.0072021484375,1.03265380859375,35.970001220703125,0.0,0.0,-0.977691650390625,-2.38525390625,Closing,0.0,0.0,-189.0,0.0,0.0,0.0,0.0,0.0,
6.639951000000001,0.0,0.0,52470.0,0.0,0.0,0.0,0.0,0.125,4.523925318,3.6991882500000015,0.0,-36837.0,0.0,0.0,0.0,0.0,0.0,4.221190974000001,3.7228275000000015,0.0,39389.0,0.0,0.0,0.0,0.0,0.125,2.130126735,3.7053000000000016,0.0,-18162.0,0.0,0.0,0.0,0.0,0.25,0.39428706900000005,3.7185000000000015,0.0012207029999999897,0.28999999165534973,-0.6899999976158142,64.02999877929688,-0.01348876953125,0.00421142578125,1.01702880859375,35.970001220703125,0.0,-1.0,-0.977691650390625,-2.38525390625,Closing,0.0,0.0,-189.0,0.0,0.0,0.0,0.0,0.0,
6.709762999999999,0.0,0.0,52470.0,0.0,0.0,0.0,0.0,0.125,4.523925318,3.6991882500000015,0.0,-36837.0,0.0,0.0,0.0,0.0,0.0,4.221190974000001,3.7228275000000015,-0.0012207029999995456,39389.0,0.0,0.0,0.0,0.0,0.125,2.130126735,3.7053000000000016,0.0,-18162.0,0.0,0.0,0.0,0.0,0.25,0.39550777200000004,3.7185000000000015,-0.0024414059999999793,0.30000001192092896,-0.6899999976158142,64.02999877929688,-0.01416015625,0.0142822265625,1.01727294921875,35.970001220703125,0.0,7.0,-0.977691650390625,-2.38525390625,Closing,0.0,0.0,-189.0,0.0,0.0,0.0,0.0,0.0,
6.764042000000002,0.0,0.0,52470.0,0.0,0.0,0.0,0.0,0.125,4.523925318,3.6991882500000015,0.0,-36837.0,0.0,0.0,0.0,0.0,0.0,4.221190974000001,3.7228275000000015,0.0012207029999995456,39389.0,0.0,0.0,0.0,0.0,0.125,2.130126735,3.7053000000000016,0.0,-18162.0,0.0,0.0,0.0,0.0,0.125,0.399169881,3.7185000000000015,0.0024414059999999793,0.3199999928474426,-0.6899999976158142,64.02999877929688,-0.0130615234375,0.004150390625,1.02069091796875,35.970001220703125,0.0,-1.0,-0.977691650390625,-2.38525390625,Closing,0.0,0.0,-189.0,0.0,0.0,0.0,0.0,0.0,
6.906899000000001,0.0,0.0,52470.0,0.0,0.0,0.0,0.0,0.125,4.522704615,3.6991882500000015,0.0,-36837.0,0.0,0.0,0.0,0.0,0.0,4.222411677,3.7228275000000015,0.0,39389.0,0.0,0.0,0.0,0.0,0.125,2.131347438,3.7053000000000016,0.0,-18162.0,0.0,0.0,0.0,0.0,0.125,0.39428706900000005,3.7185000000000015,0.0,0.33000001311302185,-0.6899999976158142,64.02999877929688,-0.0126953125,0.00970458984375,1.02545166015625,35.970001220703125,0.0,3.0,-0.977691650390625,-2.38525390625,Closing,0.0,0.0,-189.0,0.0,0.0,0.0,0.0,0.0,
6.974742999999998,0.0,0.0,52470.0,0.0,0.0,0.0,0.0,0.125,4.522704615,3.6991882500000015,0.0,-36837.0,0.0,0.0,0.0,0.0,0.0,4.222411677,3.7228275000000015,-0.0012207029999995456,39389.0,0.0,0.0,0.0,0.0,0.125,2.131347438,3.7053000000000016,0.0,-18162.0,0.0,0.0,0.0,0.0,0.25,0.39550777200000004,3.7185000000000015,0.0012207029999999897,0.33000001311302185,-0.6899999976158142,64.02999877929688,-0.01165771484375,0.002197265625,1.01446533203125,35.95000076293945,0.0,-3.0,-0.977691650390625,-2.38525390625,Closing,0.0,0.0,-189.0,0.0,0.0,0.0,0.0,0.0,
7.037598999999998,0.0,0.0,52470.0,0.0,0.0,0.0,0.0,0.125,4.523925318,3.6991882500000015,0.0,-36837.0,0.0,0.0,0.0,0.0,0.0,4.222411677,3.7228275000000015,0.0,39389.0,0.0,0.0,0.0,0.0,0.125,2.131347438,3.7053000000000016,0.0,-18162.0,0.0,0.0,0.0,0.0,0.125,0.39428706900000005,3.7185000000000015,-0.0012207029999999897,0.33000001311302185,-0.6800000071525574,64.01000213623047,-0.009765625,0.00677490234375,1.0147705078125,35.95000076293945,0.0,1.0,-0.977691650390625,-2.38525390625,Closing,0.0,0.0,-189.0,0.0,0.0,0.0,0.0,0.0,
7.108302,0.0,0.0,52470.0,0.0,0.0,0.0,0.0,0.125,4.523925318,3.6991882500000015,0.0,-36837.0,0.0,0.0,0.0,0.0,0.0,4.222411677,3.7228275000000015,-0.0012207029999995456,39389.0,0.0,0.0,0.0,0.0,0.125,2.131347438,3.7053000000000016,0.0,-18162.0,0.0,0.0,0.0,0.0,0.25,0.39550777200000004,3.7185000000000015,0.0,0.3499999940395355,-0.6800000071525574,64.01000213623047,-0.01141357421875,0.0067138671875,1.0125732421875,35.95000076293945,0.0,0.0,-0.977691650390625,-2.38525390625,Closing,0.0,0.0,-189.0,0.0,0.0,0.0,0.0,0.0,
7.171766,0.0,0.0,52470.0,0.0,0.0,0.0,0.0,0.125,4.523925318,3.6991882500000015,0.0,-36837.0,0.0,0.0,0.0,0.0,0.0,4.222411677,3.7228275000000015,0.0012207029999995456,39389.0,0.0,0.0,0.0,0.0,0.125,2.131347438,3.7053000000000016,0.0,-18162.0,0.0,0.0,0.0,0.0,0.25,0.39550777200000004,3.7185000000000015,-0.0012207029999999897,0.3400000035762787,-0.6899999976158142,64.01000213623047,-0.00958251953125,0.00726318359375,1.01629638671875,35.95000076293945,0.0,2.0,-0.977691650390625,-2.38525390625,Closing,0.0,0.0,-189.0,0.0,0.0,0.0,0.0,0.0,
7.239807000000001,0.0,0.0,52470.0,0.0,0.0,231.49606212973595,0.0,3.25,4.378661661000001,3.015942366852486,0.0,-36837.0,0.0,0.0,-231.49606212973595,0.0,4.75,4.3908686910000005,4.41043958977222,0.0,39389.0,0.125,0.0,-231.49606212973595,0.0,3.0,2.308349373,4.389674732977291,0.0,-18162.0,0.375,0.0,231.49606212973595,0.0,3.75,0.30395504700000003,3.031687206278561,0.0,0.36000001430511475,-0.6800000071525574,64.01000213623047,-0.022216796875,0.01300048828125,1.00115966796875,35.95000076293945,0.0,1.0,-0.977691650390625,-2.38525390625,Closing,0.0,0.0,-189.0,0.0,0.0,0.0,0.0,0.0,
7.307709999999999,0.0,0.0,52475.0,0.0,22.5,0.0,0.0,0.875,4.072265208,3.015942366852486,0.0,-36846.0,0.0,-67.5,0.0,0.0,1.0,4.775390136,4.41043958977222,0.1794433409999998,39387.0,0.0,-15.0,0.0,0.0,1.0,2.672118867,4.389674732977291,0.18066404400000025,-18160.0,0.0,22.5,0.0,0.0,0.875,4.902343248,3.031687206278561,0.0,0.33000001311302185,-0.6600000262260437,64.04000091552734,0.017822265625,-0.026611328125,0.94873046875,35.95000076293945,0.0,-16.0,-0.978607177734375,-2.3858795166015625,Closing,0.0,0.0,-189.0,0.0,0.0,0.0,0.0,0.0,
7.3739680000000005,0.0,0.0,52475.0,0.0,45.0,0.0,0.0,1.0,3.8342281230000004,3.015942366852486,-0.3027343440000001,-36850.0,0.0,-45.0,0.0,0.0,0.5,0.045166011000000006,4.41043958977222,0.40039058400000016,39386.0,0.0,-7.5,0.0,0.0,0.25,2.88085908,4.389674732977291,0.3808593360000003,-18157.0,0.0,22.5,0.0,0.0,1.0,4.570312032,3.031687206278561,-0.36693601699999956,0.2800000011920929,-0.699999988079071,64.06999969482422,-0.00811767578125,0.013671875,1.01953125,35.95000076293945,0.0,9.0,-0.9798583984375,-2.386871337890625,Closing,0.0,0.0,-189.0,0.0,0.0,0.0,0.0,0.0,
7.439894000000001,0.0,0.0,52482.0,0.0,37.5,0.0,0.0,0.25,3.7866207060000003,3.015942366852486,-0.2270507580000003,-36850.0,0.0,0.0,0.0,0.0,0.25,0.032958981,4.41043958977222,0.0,39386.0,0.0,0.0,0.0,0.0,0.125,2.867431347,4.389674732977291,0.0,-18157.0,0.0,0.0,0.0,0.0,0.25,4.532470239,3.031687206278561,-0.3283691070000003,0.36000001430511475,-0.6899999976158142,63.959999084472656,-0.02203369140625,0.062744140625,1.0382080078125,35.95000076293945,0.0,46.0,-0.979400634765625,-2.38677978515625,Closing,0.0,0.0,-189.0,0.0,0.0,0.0,0.0,0.0,
7.506966,0.0,0.0,52482.0,0.0,7.5,0.0,0.0,0.125,3.7951656270000003,3.015942366852486,-0.0354003869999997,-36850.0,0.0,0.0,0.0,0.0,0.25,4.941405744,4.41043958977222,-0.01586913900000031,39387.0,0.0,0.0,0.0,0.0,0.125,2.823486039,4.389674732977291,-0.01831054500000029,-18157.0,0.0,0.0,0.0,0.0,0.375,4.591063983000001,3.031687206278561,-0.03662108999999969,0.4300000071525574,-0.699999988079071,63.86000061035156,-0.01983642578125,-0.0101318359375,1.0673828125,35.95000076293945,0.0,-19.0,-0.978424072265625,-2.386688232421875,Closing,0.0,0.0,-189.0,0.0,0.0,0.0,0.0,0.0,
7.564741999999998,0.0,0.0,52482.0,0.0,0.0,0.0,0.0,0.25,3.811034766,3.015942366852486,0.004882811999999959,-36850.0,0.0,0.0,0.0,0.0,0.125,4.9157709810000005,4.41043958977222,4.90722606,39387.0,0.0,0.0,0.0,0.0,0.125,2.7990719790000003,4.389674732977291,-0.04150390199999965,-18157.0,0.0,0.0,0.0,0.0,0.375,4.654540539,3.031687206278561,0.05737304099999996,0.3400000035762787,-0.699999988079071,63.849998474121094,-0.01715087890625,0.01251220703125,1.0079345703125,35.95000076293945,0.0,3.0,-0.9790496826171875,-2.386688232421875,Closing,0.0,0.0,-189.0,0.0,0.0,0.0,0.0,0.0,
7.64073,0.0,0.0,52487.0,0.375,0.0,512.5984311103821,0.0,0.125,3.812255469,3.0159423668524865,0.0,-36858.0,0.625,-30.0,-512.5984311103821,0.0,0.0,4.909667466,4.41043958977222,0.0,39385.0,0.375,0.0,-512.5984311103821,0.0,0.0,2.8002926820000003,4.389674732977291,0.0,-18157.0,0.875,0.0,512.5984311103821,0.0,0.125,4.692382332,3.031687206278561,0.0,0.4099999964237213,-0.6899999976158142,63.900001525878906,-0.003173828125,0.012939453125,1.045166015625,35.95000076293945,0.0,9.0,-0.978851318359375,-2.386688232421875,Closing,0.0,0.0,-189.0,0.0,0.0,0.0,0.0,0.0,
7.707046999999998,0.0,0.0,52487.0,0.125,75.0,0.0,0.0,0.125,3.811034766,3.0159423668524865,0.0,-36858.0,0.625,-157.5,0.0,0.0,0.0,4.904784654,4.41043958977222,-0.004882811999999959,39385.0,0.125,-45.0,0.0,0.0,0.0,2.8002926820000003,4.389674732977291,0.0012207029999995456,-18157.0,0.25,15.0,0.0,0.0,0.25,4.697265144,3.031687206278561,0.0,0.38999998569488525,-0.7599999904632568,64.25,-0.0977783203125,0.05908203125,1.135498046875,35.95000076293945,0.0,10.0,-0.978271484375,-2.3866424560546875,Closing,0.0,0.0,-189.0,0.0,0.0,0.0,0.0,0.0,
7.780719000000001,0.0,0.0,52498.0,0.0,60.0,0.0,0.0,0.125,3.812255469,3.0159423668524865,-0.0012207029999999897,-36870.0,0.0,0.0,0.0,0.0,0.125,4.906005357000001,4.41043958977222,-0.004882811999999959,39381.0,0.0,0.0,0.0,0.0,0.0,2.7941891670000003,4.389674732977291,-0.0012207029999995456,-18155.0,0.0,0.0,0.0,0.0,0.25,4.68749952,3.031687206278561,0.004882811999999959,0.44999998807907104,-0.7300000190734863,64.19999694824219,0.01959228515625,0.01312255859375,1.11083984375,35.95000076293945,0.0,18.0,-0.978179931640625,-2.3861083984375,Closing,0.0,0.0,-189.0,0.0,0.0,0.0,0.0,0.0,
7.840613000000001,0.0,0.0,52498.0,0.0,0.0,0.0,0.0,0.125,3.812255469,3.0159423668524865,0.0,-36870.0,0.0,0.0,0.0,0.0,0.125,4.90722606,4.41043958977222,0.0,39381.0,0.0,0.0,0.0,0.0,0.0,2.7966305730000003,4.389674732977291,0.0,-18156.0,0.0,0.0,0.0,0.0,0.25,4.68749952,3.031687206278561,-0.009765623999999917,0.41999998688697815,-0.6499999761581421,64.05000305175781,-0.00775146484375,-0.016845703125,1.07293701171875,35.95000076293945,0.0,-20.0,-0.9778594970703125,-2.3861083984375,Closing,0.0,0.0,-189.0,0.0,0.0,0.0,0.0,0.0,
7.9077649999999995,0.0,0.0,52498.0,0.0,0.0,0.0,0.0,0.125,3.812255469,3.0159423668524865,0.0,-36870.0,0.0,0.0,0.0,0.0,0.125,4.904784654,4.41043958977222,0.0,39383.0,0.0,15.0,0.0,0.0,0.0,2.7941891670000003,4.389674732977291,0.0,-18156.0,0.0,0.0,0.0,0.0,0.25,4.68749952,3.031687206278561,0.0,0.41999998688697815,-0.7099999785423279,64.0199966430664,-0.03863525390625,0.01593017578125,1.01885986328125,35.95000076293945,0.0,-3.0,-0.977783203125,-2.38580322265625,Closing,0.0,0.0,-189.0,0.0,0.0,0.0,0.0,0.0,
7.9732639999999995,0.0,0.0,52498.0,0.125,0.0,181.889770925045,0.0,0.125,3.811034766,3.0159423668524865,0.0,-36870.0,0.0,0.0,-181.889770925045,0.0,0.125,4.90722606,4.41043958977222,0.0,39383.0,0.125,7.5,-181.889770925045,0.0,0.0,2.7893063550000003,4.389674732977291,0.0,-18156.0,0.125,0.0,181.889770925045,0.0,0.25,4.688720223000001,3.031687206278561,0.0,0.41999998688697815,-0.7099999785423279,64.05000305175781,0.01129150390625,-0.00390625,1.003173828125,36.0099983215332,0.0,0.0,-0.977783203125,-2.3851318359375,Closing,0.0,0.0,-189.0,0.0,0.0,0.0,0.0,0.0,
8.037967,0.0,0.0,52498.0,0.5,0.0,479.5275494456292,0.0,0.125,3.809814063,3.015942366852486,0.0,-36870.0,1.0,0.0,-479.5275494456292,0.0,0.125,4.906005357000001,4.41043958977222,0.0,39383.0,0.375,-7.5,-479.5275494456292,0.0,0.0,2.7954098700000003,4.389674732977291,0.0,-18156.0,1.125,0.0,479.5275494456292,0.0,0.25,4.688720223000001,3.031687206278561,0.0,0.4000000059604645,-0.6499999761581421,64.11000061035156,0.0570068359375,-0.06591796875,1.04779052734375,36.0099983215332,0.0,-35.0,-0.9777984619140625,-2.38494873046875,Closing,0.0,0.0,-189.0,0.0,0.0,0.0,0.0,0.0,
8.108242999999998,0.0,0.0,52498.0,0.875,82.5,479.5275494456292,0.0,0.125,3.811034766,3.015942366852486,0.0,-36880.0,3.0,-45.0,-479.5275494456292,0.0,0.125,4.906005357000001,4.41043958977222,0.0,39376.0,1.625,-45.0,-479.5275494456292,0.0,0.0,2.7954098700000003,4.389674732977291,0.0,-18150.0,1.625,37.5,479.5275494456292,0.0,0.25,4.688720223000001,3.031687206278561,0.0,0.3799999952316284,-0.7400000095367432,64.51000213623047,-0.04315185546875,-0.01776123046875,1.027587890625,36.0099983215332,0.0,-35.0,-0.9785919189453125,-2.384613037109375,Closing,0.0,0.0,-189.0,0.0,0.0,0.0,0.0,0.0,
8.172935,0.0,0.0,52516.0,0.75,105.0,248.03150296211243,0.0,0.125,3.812255469,3.0159423668524865,0.0,-36880.0,2.75,-75.0,-248.03150296211243,0.0,0.125,4.906005357000001,4.41043958977222,0.0,39376.0,1.375,-60.0,-248.03150296211243,0.0,0.0,2.7978512760000003,4.389674732977291,0.0,-18150.0,1.5,67.5,248.03150296211243,0.0,0.25,4.688720223000001,3.031687206278561,0.0,0.4300000071525574,-0.7900000214576721,65.06999969482422,-0.00457763671875,-3.0517578125E-4,1.09503173828125,36.0099983215332,0.0,-3.0,-0.9787445068359375,-2.3843536376953125,Closing,0.0,0.0,-189.0,0.0,0.0,0.0,0.0,0.0,
8.239310999999997,0.0,0.0,52524.0,0.0,52.5,0.0,0.0,0.125,3.811034766,3.0159423668524865,0.0,-36889.0,0.625,-52.5,0.0,0.0,0.125,4.910888169000001,4.41043958977222,0.0,39366.0,0.125,-60.0,0.0,0.0,0.0,2.8039547910000002,4.389674732977291,0.0,-18139.0,0.25,67.5,0.0,0.0,0.25,4.683837411,3.031687206278561,0.0,0.38999998569488525,-0.7400000095367432,65.5,-0.003662109375,0.03143310546875,0.94696044921875,36.0099983215332,0.0,26.0,-0.9786834716796875,-2.384521484375,Closing,0.0,0.0,-189.0,0.0,0.0,0.0,0.0,0.0,
8.312345999999998,0.0,0.0,52524.0,0.0,22.5,0.0,0.0,0.125,3.812255469,3.0159423668524865,0.0,-36889.0,0.0,0.0,0.0,0.0,0.0,4.910888169000001,4.41043958977222,0.004882811999999959,39366.0,0.0,0.0,0.0,0.0,0.0,2.8039547910000002,4.389674732977291,0.004882811999999959,-18139.0,0.0,0.0,0.0,0.0,0.25,4.683837411,3.031687206278561,-0.004882811999999959,0.41999998688697815,-0.6800000071525574,65.30999755859375,0.02911376953125,0.021728515625,0.97442626953125,36.0099983215332,0.0,30.0,-0.9785308837890625,-2.3845367431640625,Closing,0.0,0.0,-189.0,0.0,0.0,0.0,0.0,0.0,
