Time,ClimberA1,ClimberA2,FRpos,FRCurrent,FRspeed,FRsetpoint,FRApos,FRACurrent,FREncpos,FREncSetpoint,FREncSpeed,FLpos,FLCurrent,FLspeed,FLsetpoint,FLApos,FLACurrent,FLEncpos,FLEncSetpoint,FLEncSpeed,BRpos,BRCurrent,BRspeed,BRsetpoint,BRApos,BRACurrent,BREncpos,BREncSetpoint,BREncSpeed,BLpos,BLCurrent,BLspeed,BLsetpoint,BLApos,BLACurrent,BLEncpos,BLEncSetpoint,BLEncSpeed,navx_Pitch,navx_Roll,navx_Yaw,navx_XAcc,navx_YAcc,navx_ZAcc,navx_Temp,navx_Bar,navx_Alt,navx_XDis,navx_YDis,GearPlacerState,ShootOutputV,ShootOutputCurrent,ShootEncPos,ShootEncVelocity,ShootSpeed,ShootSetpoint,CarouselSetpoint,CarouselCurrent,
0.18504200000001583,0.0,0.0,69039.0,6.5,277.5,905.3182819596601,0.0,0.25,0.5297851020000001,4.632235666843595,0.0,-60717.0,11.125,-307.5,-905.3182819596601,0.0,0.25,0.234374976,4.661837452312997,0.0,59723.0,6.625,202.5,905.3182819596601,0.0,0.125,3.0627438270000003,4.639888985470143,0.0,-37518.0,5.5,-285.0,-905.3182819596601,0.0,0.25,1.3476561120000001,4.656418425625651,0.0,-0.03999999910593033,0.7799999713897705,56.75,0.2198486328125,-0.0814208984375,0.937744140625,35.61000061035156,0.0,45.0,-1.1491241455078125,-2.011871337890625,Closing,0.0,0.0,-189.0,0.0,0.0,0.0,0.0,0.0,
0.2777820000000065,0.0,0.0,69100.0,1.5,382.5,0.0,0.0,0.75,0.565185489,0.01,-0.01342773300000033,-60790.0,0.375,-450.0,-0.0,0.0,0.5,0.2441406,0.01,-0.0012207029999995456,59779.0,0.875,367.5,0.0,0.0,0.5,3.1140133530000003,0.01,-0.014648435999999876,-37583.0,0.625,-412.5,-0.0,0.0,0.625,1.3977049350000001,0.01,0.004882811999999959,-0.10000000149011612,0.6000000238418579,56.81999969482422,-0.3541259765625,0.11944580078125,1.18670654296875,35.61000061035156,0.0,-98.0,-1.1413726806640625,-2.03448486328125,Closing,0.0,0.0,-189.0,0.0,0.0,0.0,0.0,0.0,
0.3905219999999972,0.0,0.0,69127.0,0.5,285.0,0.0,0.0,0.5,0.7897948410000001,0.01,0.0,-60818.0,0.75,-180.0,-0.0,0.0,0.25,0.45166011,0.01,0.0,59810.0,1.125,195.0,0.0,0.0,0.25,3.33251919,0.01,0.0,-37603.0,0.75,-60.0,-0.0,0.0,0.375,1.616210772,0.01,0.0,0.6899999976158142,-1.149999976158142,56.189998626708984,0.04681396484375,0.1375732421875,1.101806640625,35.61000061035156,0.0,141.0,-1.140869140625,-2.036041259765625,Closing,0.0,0.0,-189.0,0.0,0.0,0.0,0.0,0.0,
0.5241130000000122,0.0,0.0,69119.0,2.125,-82.5,0.0,0.0,0.125,0.845947179,0.01,0.0,-60818.0,2.125,0.0,-0.0,0.0,0.25,0.552978459,0.01,0.0,59813.0,1.125,7.5,0.0,0.0,0.0,3.392333637,0.01,0.0,-37611.0,1.25,-52.5,-0.0,0.0,0.125,1.6882322490000001,0.01,0.0,0.49000000953674316,-0.44999998807907104,56.29999923706055,-0.023681640625,0.048583984375,1.00750732421875,35.61000061035156,0.0,24.0,-1.139068603515625,-2.035125732421875,Closing,0.0,0.0,-189.0,0.0,0.0,0.0,0.0,0.0,
0.7243289999999979,0.0,0.0,69124.0,2.0,0.0,0.0,0.0,0.25,0.8410643670000001,0.01,0.0,-60821.0,2.75,0.0,-0.0,0.0,0.25,0.546874944,0.01,0.0,59819.0,1.625,15.0,0.0,0.0,0.125,3.392333637,0.01,0.0,-37616.0,1.625,0.0,-0.0,0.0,0.25,1.6540525650000002,0.01,0.0,0.41999998688697815,-0.6600000262260437,56.2599983215332,-0.02081298828125,0.01788330078125,0.97491455078125,35.59000015258789,0.0,3.0,-1.137176513671875,-2.035400390625,Closing,0.0,0.0,-189.0,0.0,0.0,0.0,0.0,0.0,
0.8437050000000162,0.0,0.0,69125.0,2.0,0.0,0.0,0.0,0.25,0.850829991,0.01,0.0,-60821.0,2.75,0.0,-0.0,0.0,0.125,0.546874944,0.01,0.0,59819.0,1.875,0.0,0.0,0.0,0.125,3.39355434,0.01,0.0,-37616.0,1.625,0.0,-0.0,0.0,0.25,1.645507644,0.01,0.0,0.4000000059604645,-0.6399999856948853,56.2599983215332,-0.00299072265625,0.00897216796875,0.97601318359375,35.59000015258789,0.0,6.0,-1.137176513671875,-2.0354156494140625,Closing,0.0,0.0,-189.0,0.0,0.0,0.0,0.0,0.0,
0.9913500000000058,0.0,0.0,69125.0,2.0,0.0,0.0,0.0,0.25,0.847167882,0.01,0.0,-60821.0,2.75,0.0,-0.0,0.0,0.125,0.539550726,0.01,0.0,59819.0,1.875,0.0,0.0,0.0,0.125,3.392333637,0.01,0.0,-37616.0,1.625,0.0,-0.0,0.0,0.25,1.645507644,0.01,0.0,0.4099999964237213,-0.6299999952316284,56.25,-0.01507568359375,0.01611328125,1.02716064453125,35.59000015258789,0.0,5.0,-1.137176513671875,-2.0354156494140625,Closing,0.0,0.0,-189.0,0.0,0.0,0.0,0.0,0.0,
1.1249520000000193,0.0,0.0,69125.0,2.0,0.0,0.0,0.0,0.25,0.850829991,0.01,0.0,-60821.0,2.75,0.0,-0.0,0.0,0.125,0.538330023,0.01,0.0,59819.0,1.875,0.0,0.0,0.0,0.125,3.392333637,0.01,0.0,-37616.0,1.625,0.0,-0.0,0.0,0.25,1.644286941,0.01,0.0,0.4099999964237213,-0.6299999952316284,56.25,-0.0181884765625,0.01348876953125,1.015625,35.619998931884766,0.0,1.0,-1.137176513671875,-2.0354156494140625,Closing,0.0,0.0,-189.0,0.0,0.0,0.0,0.0,0.0,
1.2293399999999965,0.0,0.0,69125.0,2.0,0.0,0.0,0.0,0.25,0.850829991,0.01,0.0012207029999999897,-60821.0,2.75,0.0,-0.0,0.0,0.125,0.538330023,0.01,0.0,59819.0,1.875,0.0,0.0,0.0,0.125,3.394775043,0.01,0.0012207029999999897,-37616.0,1.625,0.0,-0.0,0.0,0.25,1.645507644,0.01,0.0012207029999999897,0.4000000059604645,-0.6100000143051147,56.2599983215332,-0.01458740234375,0.00604248046875,1.0323486328125,35.619998931884766,0.0,-2.0,-1.137176513671875,-2.0354156494140625,Closing,0.0,0.0,-189.0,0.0,0.0,0.0,0.0,0.0,
1.331978999999992,0.0,0.0,69125.0,2.125,0.0,0.0,0.0,0.25,0.850829991,0.01,0.0,-60821.0,2.75,0.0,-0.0,0.0,0.125,0.538330023,0.01,0.0,59819.0,2.0,0.0,0.0,0.0,0.125,3.392333637,0.01,0.0,-37616.0,1.625,0.0,-0.0,0.0,0.25,1.644286941,0.01,0.0,0.38999998569488525,-0.6000000238418579,56.25,-0.01513671875,0.008544921875,1.0281982421875,35.619998931884766,0.0,-1.0,-1.137176513671875,-2.0354156494140625,Closing,0.0,0.0,-189.0,0.0,0.0,0.0,0.0,0.0,
1.4353060000000115,0.0,0.0,69125.0,2.0,0.0,0.0,0.0,0.25,0.850829991,0.01,0.0,-60821.0,2.75,0.0,-0.0,0.0,0.125,0.538330023,0.01,0.0,59819.0,2.0,0.0,0.0,0.0,0.125,3.39355434,0.01,0.0,-37616.0,1.625,0.0,-0.0,0.0,0.25,1.645507644,0.01,0.0,0.38999998569488525,-0.5799999833106995,56.25,-0.0111083984375,0.00653076171875,1.0250244140625,35.619998931884766,0.0,0.0,-1.137176513671875,-2.0354156494140625,Closing,0.0,0.0,-189.0,0.0,0.0,0.0,0.0,0.0,
1.546926999999996,0.0,0.0,69125.0,2.125,0.0,0.0,0.0,0.25,0.850829991,0.01,0.0,-60821.0,2.75,0.0,-0.0,0.0,0.125,0.539550726,0.01,0.0,59819.0,2.0,0.0,0.0,0.0,0.125,3.392333637,0.01,0.0,-37616.0,1.75,0.0,-0.0,0.0,0.25,1.645507644,0.01,0.0,0.3799999952316284,-0.5699999928474426,56.25,-0.00762939453125,0.010986328125,1.02288818359375,35.619998931884766,0.0,4.0,-1.137176513671875,-2.0354156494140625,Closing,0.0,0.0,-189.0,0.0,0.0,0.0,0.0,0.0,
1.6722160000000148,0.0,0.0,69125.0,2.125,0.0,0.0,0.0,0.25,0.850829991,0.01,0.0,-60821.0,2.75,0.0,-0.0,0.0,0.125,0.544433538,0.01,0.0,59819.0,2.0,0.0,0.0,0.0,0.125,3.392333637,0.01,0.0,-37616.0,1.625,0.0,-0.0,0.0,0.25,1.645507644,0.01,0.0,0.3799999952316284,-0.5699999928474426,56.25,-0.01080322265625,0.00982666015625,1.0223388671875,35.650001525878906,0.0,2.0,-1.137176513671875,-2.0354156494140625,Closing,0.0,0.0,-189.0,0.0,0.0,0.0,0.0,0.0,
1.7953790000000154,0.0,0.0,69125.0,2.125,0.0,0.0,0.0,0.25,0.8569335060000001,0.01,0.0,-60821.0,2.75,0.0,-0.0,0.0,0.125,0.538330023,0.01,0.0,59819.0,2.0,0.0,0.0,0.0,0.125,3.392333637,0.01,0.0,-37616.0,1.75,0.0,-0.0,0.0,0.25,1.645507644,0.01,0.0,0.3799999952316284,-0.5699999928474426,56.25,-0.009033203125,0.00738525390625,1.02227783203125,35.650001525878906,0.0,1.0,-1.137176513671875,-2.0354156494140625,Closing,0.0,0.0,-189.0,0.0,0.0,0.0,0.0,0.0,
1.9005899999999964,0.0,0.0,69125.0,2.125,0.0,0.0,0.0,0.25,0.852050694,0.01,0.0,-60821.0,2.75,0.0,-0.0,0.0,0.125,0.539550726,0.01,0.0,59819.0,2.0,0.0,0.0,0.0,0.125,3.392333637,0.01,0.0,-37616.0,1.75,0.0,-0.0,0.0,0.25,1.645507644,0.01,0.0,0.3700000047683716,-0.5600000023841858,56.25,-0.0086669921875,0.00213623046875,1.02569580078125,35.650001525878906,0.0,-3.0,-1.137176513671875,-2.0354156494140625,Closing,0.0,0.0,-189.0,0.0,0.0,0.0,0.0,0.0,
2.006543000000005,0.0,0.0,69125.0,2.125,0.0,0.0,0.0,0.25,0.850829991,0.01,0.0,-60821.0,2.75,0.0,-0.0,0.0,0.125,0.539550726,0.01,0.0,59819.0,2.0,0.0,0.0,0.0,0.125,3.392333637,0.01,0.0,-37616.0,1.75,0.0,-0.0,0.0,0.25,1.645507644,0.01,0.0,0.3700000047683716,-0.5699999928474426,56.25,-0.00799560546875,0.0062255859375,1.01727294921875,35.650001525878906,0.0,0.0,-1.137176513671875,-2.0354156494140625,Closing,0.0,0.0,-189.0,0.0,0.0,0.0,0.0,0.0,
2.1043720000000032,0.0,0.0,69115.0,0.625,-112.5,-1210.3937244415283,0.0,0.25,0.847167882,4.932250999999998,0.0,-60819.0,2.875,172.5,1210.3937244415283,0.0,0.25,0.5297851020000001,4.963769999999998,0.0,59819.0,1.25,-60.0,-1210.3937244415283,0.0,0.125,3.392333637,0.01,0.0,-37616.0,1.5,52.5,1210.3937244415283,0.0,0.25,1.616210772,0.01,0.0,0.38999998569488525,-0.800000011920929,56.2400016784668,-0.36334228515625,0.020751953125,1.1939697265625,35.650001525878906,0.0,-182.0,-1.1377105712890625,-2.034820556640625,Closing,0.0,0.0,-189.0,0.0,0.0,0.0,0.0,0.0,
2.2054459999999962,0.0,0.0,69066.0,4.25,-300.0,-1527.874038219452,0.0,0.25,0.845947179,4.932250999999998,0.0,-60770.0,11.375,262.5,1527.874038219452,0.0,0.125,0.5297851020000001,4.963769999999998,0.0,59776.0,7.0,-277.5,-1527.874038219452,0.0,0.125,3.397216449,0.01,0.0,-37577.0,5.75,270.0,1527.874038219452,0.0,0.25,1.6064451480000002,0.01,0.0,0.44999998807907104,-1.5800000429153442,56.369998931884766,-0.28607177734375,-0.0107421875,1.09716796875,35.65999984741211,0.0,-157.0,-1.1431427001953125,-2.0270233154296875,Closing,0.0,0.0,-189.0,0.0,0.0,0.0,0.0,0.0,
2.3125830000000134,0.0,0.0,68972.0,13.875,-540.0,-1944.5669031143188,0.0,0.25,0.850829991,4.932250999999998,0.0,-60688.0,31.875,570.0,1944.5669031143188,0.0,0.125,0.5285643990000001,4.963769999999998,0.0,59715.0,18.375,-427.5,-1944.5669031143188,0.0,0.125,3.4216305090000003,0.01,0.0,-37506.0,15.25,577.5,1944.5669031143188,0.0,0.25,1.6027830390000002,0.01,0.0,0.3700000047683716,-3.259999990463257,56.439998626708984,-0.38592529296875,-0.0634765625,1.07501220703125,35.65999984741211,0.0,-238.0,-1.16229248046875,-2.0007781982421875,Closing,0.0,0.0,-189.0,0.0,0.0,0.0,0.0,0.0,
2.4425960000000195,0.0,0.0,68784.0,15.25,-1155.0,-2142.9921555519104,0.0,0.25,0.852050694,4.932250999999998,0.0,-60509.0,31.5,1192.5,2142.9921555519104,0.0,0.125,0.5297851020000001,4.963769999999998,0.0,59592.0,23.375,-780.0,-2142.9921555519104,0.0,0.125,3.4216305090000003,0.01,0.0,-37345.0,16.875,1170.0,2142.9921555519104,0.0,0.25,1.6015623360000002,0.01,0.0,0.23000000417232513,-4.889999866485596,56.7599983215332,-0.2103271484375,0.0762939453125,0.861328125,35.65999984741211,0.0,-13.0,-1.2056121826171875,-1.9462127685546875,Closing,0.0,0.0,-189.0,0.0,0.0,0.0,0.0,0.0,
2.547808000000019,0.0,0.0,68516.0,11.875,-1597.5,-2162.8346657752986,0.0,0.25,0.850829991,4.932250999999998,0.0,-60249.0,22.625,1710.0,2162.8346657752986,0.0,0.125,0.5297851020000001,4.963769999999998,0.0,59457.0,29.5,-832.5,-2162.8346657752986,0.0,0.125,3.4289547270000003,0.01,0.0,-37106.0,14.875,1575.0,2162.8346657752986,0.0,0.25,1.6064451480000002,0.01,0.0,0.23999999463558197,-5.949999809265137,57.36000061035156,-0.37200927734375,-0.00787353515625,1.2818603515625,35.65999984741211,0.0,-139.0,-1.2511444091796875,-1.8894500732421875,Closing,0.0,0.0,-189.0,0.0,0.0,0.0,0.0,0.0,
2.6655910000000147,0.0,0.0,68516.0,8.625,-1957.5,-2162.8346657752986,0.0,0.25,0.850829991,4.932250999999998,0.0,-59926.0,17.375,1972.5,2162.8346657752986,0.0,0.125,0.5297851020000001,4.963769999999998,0.0,59309.0,27.625,-900.0,-2162.8346657752986,0.0,0.125,3.4204098060000003,0.01,0.0,-36804.0,12.5,1890.0,2162.8346657752986,0.0,0.25,1.6052244450000002,0.01,0.0,0.3499999940395355,-6.550000190734863,58.0,-0.2587890625,-0.27685546875,0.95465087890625,35.599998474121094,0.0,-318.0,-1.2960968017578125,-1.8313751220703125,Closing,0.0,0.0,-189.0,0.0,0.0,0.0,0.0,0.0,
2.7534560000000057,0.0,0.0,67826.0,5.5,-2227.5,-2162.8346657752986,0.0,0.25,0.850829991,4.932250999999998,0.0,-59566.0,10.5,2235.0,2162.8346657752986,0.0,0.125,0.5297851020000001,4.963769999999998,0.0,59110.0,25.5,-1230.0,-2162.8346657752986,0.0,0.125,3.4228512120000003,0.01,0.0,-36465.0,9.5,2145.0,2162.8346657752986,0.0,0.25,1.6064451480000002,0.01,0.0,0.23999999463558197,-7.21999979019165,59.0099983215332,-0.33099365234375,0.22235107421875,1.99993896484375,35.599998474121094,0.0,142.0,-1.37860107421875,-1.74072265625,Closing,0.0,0.0,-189.0,0.0,0.0,0.0,0.0,0.0,
2.8863889999999954,0.0,0.0,67826.0,0.0,-2302.5,0.0,0.0,0.25,0.847167882,4.932250999999998,0.0,-59566.0,1.75,2250.0,0.0,0.0,0.125,0.5297851020000001,4.963769999999998,0.0,59110.0,6.875,-1522.5,0.0,0.0,0.125,3.3679195770000003,0.01,0.0012207029999999897,-36144.0,0.125,2055.0,0.0,0.0,0.25,1.62353499,0.01,0.0,0.3799999952316284,-6.570000171661377,59.709999084472656,0.3662109375,0.4326171875,1.803466796875,35.599998474121094,0.0,651.0,-1.43731689453125,-1.68218994140625,Closing,0.0,0.0,-189.0,0.0,0.0,0.0,0.0,0.0,
2.9923239999999933,0.0,0.0,67479.0,0.0,-2137.5,0.0,0.0,0.25,0.8422850700000001,4.932250999999998,-0.009765623999999917,-59236.0,0.0,1995.0,0.0,0.0,0.125,0.534667914,4.963769999999998,0.0024414059999999793,58850.0,0.0,-1822.5,0.0,0.0,0.0,3.338622705,0.01,0.0,-35821.0,0.0,2025.0,0.0,0.0,0.125,1.6052244450000002,0.01,0.0,0.7799999713897705,-5.110000133514404,60.470001220703125,-0.06475830078125,0.09124755859375,1.4752197265625,35.599998474121094,0.0,94.0,-1.501983642578125,-1.6248016357421875,Closing,0.0,0.0,-189.0,0.0,0.0,0.0,0.0,0.0,
3.1205340000000144,0.0,0.0,67135.0,0.0,-2077.5,0.0,0.0,0.25,0.8410643670000001,4.932250999999998,0.0,-58613.0,0.0,1905.0,0.0,0.0,0.25,0.544433538,4.963769999999998,0.0,58246.0,0.0,-1912.5,0.0,0.0,0.0,3.338622705,0.01,0.0,-35532.0,0.125,1815.0,0.0,0.0,0.25,1.6052244450000002,0.01,0.0,0.8899999856948853,-4.059999942779541,61.90999984741211,0.19232177734375,0.23046875,0.8792724609375,35.599998474121094,0.0,311.0,-1.55364990234375,-1.5809783935546875,Closing,0.0,0.0,-189.0,0.0,0.0,0.0,0.0,0.0,
3.2450080000000017,0.0,0.0,66810.0,0.0,-1890.0,0.0,0.0,0.25,0.8410643670000001,4.932250999999998,0.0,-58349.0,0.125,1672.5,0.0,0.0,0.25,0.5297851020000001,4.963769999999998,0.0,57961.0,0.0,-1777.5,0.0,0.0,0.0,3.334960596,0.01,0.0,-35267.0,0.0,1650.0,0.0,0.0,0.25,1.6052244450000002,0.01,0.0,1.1299999952316284,-3.2100000381469727,63.41999816894531,0.166748046875,0.01373291015625,0.9144287109375,35.56999969482422,0.0,93.0,-1.597869873046875,-1.5450439453125,Closing,0.0,0.0,-189.0,0.0,0.0,0.0,0.0,0.0,
3.378396000000008,0.0,0.0,66525.0,7.25,-982.5,-363.77954185009,0.0,1.625,1.0327147380000001,0.5498168668524864,0.0,-58355.0,13.5,502.5,-363.77954185009,0.0,1.125,0.393066366,4.41043958977222,0.0,57787.0,12.625,-1230.0,-363.77954185009,0.0,1.0,3.12499968,4.389674732977291,0.0,-35111.0,29.625,952.5,-363.77954185009,0.0,2.0,1.85546856,0.552687206278561,0.0,1.149999976158142,0.20999999344348907,64.13999938964844,1.0072021484375,-0.347900390625,1.340576171875,35.56999969482422,0.0,99.0,-1.61993408203125,-1.5478363037109375,Closing,0.0,0.0,-189.0,0.0,0.0,0.0,0.0,0.0,
3.5239690000000117,0.0,0.0,66431.0,0.375,-195.0,-380.31496703624725,0.0,0.5,1.3940428260000002,0.5498168668524864,0.0,-58388.0,1.25,-105.0,-380.31496703624725,0.0,0.25,4.8730463760000005,4.41043958977222,0.0,57709.0,3.625,-465.0,-380.31496703624725,0.0,0.5,2.823486039,4.389674732977291,0.0,-35089.0,16.625,-45.0,-380.31496703624725,0.0,0.625,2.2155759450000003,0.552687206278561,0.0,1.25,3.380000114440918,64.98999786376953,-0.0328369140625,-0.110595703125,0.75286865234375,35.56999969482422,0.0,-147.0,-1.6079864501953125,-1.6220245361328125,Closing,0.0,0.0,-189.0,0.0,0.0,0.0,0.0,0.0,
3.6142119999999993,0.0,0.0,66423.0,0.0,-7.5,-380.31496703624725,0.0,0.25,1.466064303,0.5498168668524864,0.0,-58429.0,4.875,-210.0,-380.31496703624725,0.0,0.25,4.783935057,4.41043958977222,0.0,57692.0,1.0,-82.5,-380.31496703624725,0.0,0.125,2.720946987,4.389674732977291,0.0,-35134.0,12.25,-255.0,-380.31496703624725,0.0,0.25,2.3742673350000003,0.552687206278561,0.0,1.2999999523162842,1.6399999856948853,66.55999755859375,-0.0499267578125,-0.08404541015625,0.96636962890625,35.56999969482422,0.0,-128.0,-1.6002655029296875,-1.6869964599609375,Closing,0.0,0.0,-189.0,0.0,0.0,0.0,0.0,0.0,
3.7926570000000064,0.0,0.0,66401.0,0.125,-112.5,-380.31496703624725,0.0,0.25,1.434326025,0.5498168668524864,0.0,-58451.0,7.5,-187.5,-380.31496703624725,0.0,0.25,4.790038572,4.41043958977222,0.0,57671.0,0.25,-60.0,-380.31496703624725,0.0,0.0,2.730712611,4.389674732977291,0.0,-35147.0,17.125,-120.0,-380.31496703624725,0.0,0.5,2.2790525010000002,0.552687206278561,0.0,1.25,1.8600000143051147,68.25,-0.16943359375,0.0943603515625,0.96014404296875,35.52000045776367,0.0,-6.0,-1.5981292724609375,-1.76324462890625,Closing,0.0,0.0,-189.0,0.0,0.0,0.0,0.0,0.0,
3.9902119999999996,0.0,0.0,66334.0,0.125,-255.0,-380.31496703624725,0.0,0.25,1.381835796,0.5498168668524864,0.0,-58532.0,7.0,-367.5,-380.31496703624725,0.0,0.25,4.947509259,4.41043958977222,0.0,57607.0,0.25,-285.0,-380.31496703624725,0.0,0.0,2.8002926820000003,4.389674732977291,0.0,-35220.0,15.5,-307.5,-380.31496703624725,0.0,0.25,2.156982201,0.552687206278561,0.0,1.2100000381469727,1.3300000429153442,73.30999755859375,0.04388427734375,0.06024169921875,1.101318359375,35.52000045776367,0.0,40.0,-1.59869384765625,-1.8507843017578125,Closing,0.0,0.0,-189.0,0.0,0.0,0.0,0.0,0.0,
4.125046000000002,0.0,0.0,66273.0,0.0,-375.0,-380.31496703624725,0.0,0.125,1.362304548,0.5498168668524864,0.0,-58615.0,3.375,-525.0,-380.31496703624725,0.0,0.25,0.096435537,4.41043958977222,0.0,57553.0,0.375,-352.5,-380.31496703624725,0.0,0.0,2.806396197,4.389674732977291,0.0,-35297.0,10.625,-502.5,-380.31496703624725,0.0,0.125,2.139892359,0.552687206278561,0.0,1.3700000047683716,0.9300000071525574,79.29000091552734,-0.02203369140625,0.0465087890625,1.0035400390625,35.52000045776367,0.0,14.0,-1.600738525390625,-1.910736083984375,Closing,0.0,0.0,-189.0,0.0,0.0,0.0,0.0,0.0,
4.325659000000014,0.0,0.0,66213.0,0.0,-322.5,-380.31496703624725,0.0,0.125,1.362304548,0.5498168668524864,0.0,-58772.0,2.5,-465.0,-380.31496703624725,0.0,0.25,4.947509259,4.41043958977222,0.0,57433.0,0.375,-352.5,-380.31496703624725,0.0,0.0,2.8076169,4.389674732977291,0.0,-35455.0,9.5,-480.0,-380.31496703624725,0.0,0.25,2.138671656,0.552687206278561,0.0,1.5499999523162842,0.5400000214576721,88.25,-0.1044921875,-0.04791259765625,1.048828125,35.5,0.0,-79.0,-1.60357666015625,-1.99786376953125,Closing,0.0,0.0,-189.0,0.0,0.0,0.0,0.0,0.0,
4.523815000000003,0.0,0.0,66112.0,0.0,-277.5,0.0,0.0,0.125,1.361083845,0.5498168668524864,0.0,-58800.0,0.0,-120.0,0.0,0.0,0.25,4.930419417,4.41043958977222,0.0,57377.0,0.0,-292.5,0.0,0.0,0.0,2.808837603,4.389674732977291,0.0,-35489.0,0.125,-172.5,0.0,0.0,0.25,2.138671656,0.552687206278561,0.0,1.350000023841858,-0.03999999910593033,94.05000305175781,0.057373046875,0.02008056640625,1.04119873046875,35.5,0.0,-8.0,-1.61407470703125,-2.0675201416015625,Closing,0.0,0.0,-189.0,0.0,0.0,0.0,0.0,0.0,
4.662274999999994,0.0,0.0,66093.0,0.125,-37.5,-357.16537177562714,0.0,2.125,1.153564335,4.932250999999998,0.0,-58823.0,1.75,22.5,357.16537177562714,0.0,1.25,0.153808578,4.963769999999998,0.0,57349.0,0.375,-67.5,-357.16537177562714,0.0,2.25,3.0529782030000003,0.01,0.0,-35506.0,1.25,15.0,357.16537177562714,0.0,1.5,1.822509579,0.01,0.0,1.340000033378601,-0.10999999940395355,93.62000274658203,-0.1297607421875,0.033935546875,1.05291748046875,35.45000076293945,0.0,17.0,-1.6146087646484375,-2.126007080078125,Closing,0.0,0.0,-189.0,0.0,0.0,0.0,0.0,0.0,
4.795262000000017,0.0,0.0,66085.0,1.25,0.0,-377.00788199901575,0.0,0.625,0.6738280560000001,4.932250999999998,0.0,-58793.0,2.5,120.0,377.00788199901575,0.0,0.5,0.655517511,4.963769999999998,0.0,57323.0,0.875,-52.5,-377.00788199901575,0.0,0.5,3.538817997,0.01,0.0,-35478.0,1.25,180.0,377.00788199901575,0.0,0.5,1.417236183,0.01,0.0,1.1799999475479126,-0.49000000953674316,92.81999969482422,-0.101318359375,0.0162353515625,1.01953125,35.45000076293945,0.0,0.0,-1.6156768798828125,-2.1571197509765625,Closing,0.0,0.0,-189.0,0.0,0.0,0.0,0.0,0.0,
4.910380999999994,0.0,0.0,66079.0,1.75,-172.5,-436.53545022010803,0.0,0.5,0.642089778,4.932250999999998,0.0,-58765.0,4.0,150.0,436.53545022010803,0.0,0.25,0.703124928,4.963769999999998,0.0,57287.0,1.5,-217.5,-436.53545022010803,0.0,0.25,3.555907839,0.01,0.0,-35449.0,2.25,172.5,436.53545022010803,0.0,0.375,1.430663916,0.01,0.0,1.1699999570846558,-0.75,93.05000305175781,-0.00701904296875,-0.0482177734375,1.01312255859375,35.45000076293945,0.0,-69.0,-1.6153106689453125,-2.1834259033203125,Closing,0.0,0.0,-189.0,0.0,0.0,0.0,0.0,0.0,
5.022820999999996,0.0,0.0,66050.0,2.125,-165.0,-436.53545022010803,0.0,0.375,0.729980394,4.932250999999998,0.0,-58765.0,5.25,187.5,436.53545022010803,0.0,0.25,0.6457518870000001,4.963769999999998,0.0,57287.0,1.5,-150.0,-436.53545022010803,0.0,0.25,3.447265272,0.01,0.0,-35424.0,3.125,150.0,436.53545022010803,0.0,0.375,1.5869139,0.01,0.0,1.059999942779541,-0.5199999809265137,93.01000213623047,0.0174560546875,0.001953125,0.9896240234375,35.45000076293945,0.0,-15.0,-1.616058349609375,-2.1860198974609375,Closing,0.0,0.0,-189.0,0.0,0.0,0.0,0.0,0.0,
5.145399999999994,0.0,0.0,66022.0,3.25,-187.5,-436.53545022010803,0.0,0.375,0.7885741380000001,4.932250999999998,0.0,-58701.0,7.5,217.5,436.53545022010803,0.0,0.25,0.520019478,4.963769999999998,0.0,57225.0,2.875,-217.5,-436.53545022010803,0.0,0.125,3.397216449,0.01,0.0,-35390.0,4.0,217.5,436.53545022010803,0.0,0.25,1.6088865540000001,0.01,0.0,1.0299999713897705,-1.0399999618530273,92.9800033569336,-0.1326904296875,0.030029296875,1.107177734375,35.45000076293945,0.0,15.0,-1.6162109375,-2.1855010986328125,Closing,0.0,0.0,-189.0,0.0,0.0,0.0,0.0,0.0,
5.283326000000001,0.0,0.0,65985.0,3.25,-345.0,-476.2204706668854,0.0,0.125,0.819091713,4.932250999999998,0.0,-58633.0,5.75,405.0,476.2204706668854,0.0,0.125,0.36132808800000005,4.963769999999998,0.0,57168.0,2.625,-337.5,-476.2204706668854,0.0,0.125,3.392333637,0.01,0.0,-35331.0,3.625,352.5,476.2204706668854,0.0,0.25,1.6052244450000002,0.01,0.0,1.0399999618530273,-1.7000000476837158,92.87000274658203,-0.13018798828125,0.08892822265625,1.14068603515625,35.4900016784668,0.0,72.0,-1.615020751953125,-2.1764068603515625,Closing,0.0,0.0,-189.0,0.0,0.0,0.0,0.0,0.0,
5.407398000000016,0.0,0.0,65918.0,2.375,-480.0,-476.2204706668854,0.0,0.125,0.8178710100000001,4.932250999999998,0.0,-58542.0,3.5,547.5,476.2204706668854,0.0,0.25,0.363769494,4.963769999999998,0.0,57094.0,2.125,-450.0,-476.2204706668854,0.0,0.125,3.387450825,0.01,0.0,-35246.0,2.25,510.0,476.2204706668854,0.0,0.25,1.612548663,0.01,0.0,1.0199999809265137,-1.899999976158142,92.31999969482422,-0.0799560546875,-0.0115966796875,1.06689453125,35.4900016784668,0.0,-28.0,-1.6108245849609375,-2.1598663330078125,Closing,0.0,0.0,-189.0,0.0,0.0,0.0,0.0,0.0,
5.525727000000013,0.0,0.0,65837.0,1.875,-540.0,-476.2204706668854,0.0,0.125,0.8178710100000001,4.932250999999998,0.0,-58451.0,2.375,577.5,476.2204706668854,0.0,0.25,0.46142573400000003,4.963769999999998,0.0,57009.0,1.5,-517.5,-476.2204706668854,0.0,0.125,3.3801266070000002,0.01,0.0,-35163.0,2.0,540.0,476.2204706668854,0.0,0.25,1.6088865540000001,0.01,0.0,0.9300000071525574,-1.8799999952316284,91.93000030517578,-0.02020263671875,0.04315185546875,0.9227294921875,35.4900016784668,0.0,27.0,-1.6090545654296875,-2.1414031982421875,Closing,0.0,0.0,-189.0,0.0,0.0,0.0,0.0,0.0,
5.6277190000000115,0.0,0.0,65748.0,1.25,-562.5,-476.2204706668854,0.0,0.125,0.8178710100000001,4.932250999999998,0.0,-58451.0,1.75,577.5,476.2204706668854,0.0,0.25,0.5029296360000001,4.963769999999998,0.0,57009.0,1.0,-555.0,-476.2204706668854,0.0,0.125,3.387450825,0.01,0.0,-35081.0,2.125,480.0,476.2204706668854,0.0,0.25,1.6113279600000001,0.01,0.0,0.8500000238418579,-1.8600000143051147,91.83000183105469,0.0050048828125,0.00848388671875,0.95672607421875,35.4900016784668,0.0,-6.0,-1.6084747314453125,-2.1394195556640625,Closing,0.0,0.0,-189.0,0.0,0.0,0.0,0.0,0.0,
5.741456999999995,0.0,0.0,65655.0,0.75,-577.5,-496.06298089027405,0.0,0.125,0.8166503070000001,4.932250999999998,0.0,-58358.0,1.625,570.0,496.06298089027405,0.0,0.0,0.505371042,4.963769999999998,0.0,56827.0,0.875,-577.5,-496.06298089027405,0.0,0.125,3.387450825,0.01,0.0,-34992.0,1.875,547.5,496.06298089027405,0.0,0.25,1.6113279600000001,0.01,0.0,0.800000011920929,-1.7100000381469727,91.86000061035156,-0.02899169921875,0.0174560546875,1.12664794921875,35.47999954223633,0.0,1.0,-1.6077728271484375,-2.1405792236328125,Closing,0.0,0.0,-189.0,0.0,0.0,0.0,0.0,0.0,
5.866118000000017,0.0,0.0,65566.0,0.75,-540.0,-496.06298089027405,0.0,0.125,0.8178710100000001,4.932250999999998,0.0,-58267.0,1.625,555.0,496.06298089027405,0.0,0.0,0.505371042,4.963769999999998,0.0,56827.0,0.875,-547.5,-496.06298089027405,0.0,0.125,3.387450825,0.01,0.0,-34992.0,1.75,532.5,496.06298089027405,0.0,0.25,1.6101072570000001,0.01,0.0,0.75,-1.5499999523162842,91.80999755859375,0.0372314453125,0.03125,0.96820068359375,35.47999954223633,0.0,16.0,-1.607330322265625,-2.1411285400390625,Closing,0.0,0.0,-189.0,0.0,0.0,0.0,0.0,0.0,
5.9929809999999994,0.0,0.0,65480.0,0.75,-517.5,-496.06298089027405,0.0,0.125,0.812988198,4.932250999999998,0.0,-58179.0,1.5,532.5,496.06298089027405,0.0,0.0,0.505371042,4.963769999999998,0.0,56653.0,0.875,-547.5,-496.06298089027405,0.0,0.125,3.387450825,0.01,0.0,-34826.0,1.875,510.0,496.06298089027405,0.0,0.25,1.6088865540000001,0.01,0.0,0.7599999904632568,-1.5399999618530273,91.83999633789062,-0.01556396484375,0.03179931640625,1.23529052734375,35.47999954223633,0.0,14.0,-1.609039306640625,-2.142669677734375,Closing,0.0,0.0,-189.0,0.0,0.0,0.0,0.0,0.0,
6.19125,0.0,0.0,65318.0,1.0,-487.5,-496.06298089027405,0.0,0.125,0.812988198,4.932250999999998,0.0,-58011.0,1.5,510.0,496.06298089027405,0.0,0.0,0.505371042,4.963769999999998,0.0,56571.0,0.875,-502.5,-496.06298089027405,0.0,0.125,3.387450825,0.01,0.0,-34744.0,1.875,502.5,496.06298089027405,0.0,0.25,1.6113279600000001,0.01,0.0,0.6399999856948853,-1.25,91.83000183105469,0.035400390625,-0.003662109375,0.929443359375,35.47999954223633,0.0,-15.0,-1.61114501953125,-2.1446685791015625,Closing,0.0,0.0,-189.0,0.0,0.0,0.0,0.0,0.0,
6.323005000000005,0.0,0.0,65238.0,2.25,-502.5,-615.1181173324585,0.0,0.125,0.811767495,4.932250999999998,0.0,-57930.0,2.875,510.0,615.1181173324585,0.0,0.0,0.506591745,4.963769999999998,0.0,56491.0,1.75,-502.5,-615.1181173324585,0.0,0.125,3.387450825,0.01,0.0,-34662.0,2.125,555.0,615.1181173324585,0.0,0.25,1.6113279600000001,0.01,0.0,0.5600000023841858,-1.350000023841858,91.77999877929688,-0.02838134765625,-0.04583740234375,0.93280029296875,35.4900016784668,0.0,-54.0,-1.6144866943359375,-2.145172119140625,Closing,0.0,0.0,-189.0,0.0,0.0,0.0,0.0,0.0,
6.459855999999999,0.0,0.0,65150.0,3.375,-585.0,-773.8582742214203,0.0,0.125,0.8178710100000001,4.932250999999998,0.0,-57842.0,4.375,607.5,773.8582742214203,0.0,0.0,0.511474557,4.963769999999998,0.0,56405.0,2.875,-592.5,-773.8582742214203,0.0,0.125,3.387450825,0.01,0.0,-34567.0,2.875,675.0,773.8582742214203,0.0,0.25,1.614990069,0.01,0.0,0.47999998927116394,-1.7000000476837158,91.76000213623047,-0.09356689453125,0.07513427734375,0.83880615234375,35.4900016784668,0.0,70.0,-1.6200103759765625,-2.139251708984375,Closing,0.0,0.0,-189.0,0.0,0.0,0.0,0.0,0.0,
6.5919919999999985,0.0,0.0,65046.0,2.875,-667.5,-773.8582742214203,0.0,0.125,0.8166503070000001,4.932250999999998,0.0,-57736.0,3.625,712.5,773.8582742214203,0.0,0.0,0.505371042,4.963769999999998,0.0,56306.0,2.625,-690.0,-773.8582742214203,0.0,0.125,3.387450825,0.01,0.0,-34460.0,2.75,690.0,773.8582742214203,0.0,0.25,1.6040037420000002,0.01,0.0,0.5,-1.75,91.68000030517578,-0.1053466796875,0.0140380859375,0.8360595703125,35.4900016784668,0.0,9.0,-1.622894287109375,-2.1285552978515625,Closing,0.0,0.0,-189.0,0.0,0.0,0.0,0.0,0.0,
6.723698000000004,0.0,0.0,64932.0,2.5,-757.5,-773.8582742214203,0.0,0.125,0.8166503070000001,4.932250999999998,0.0,-57490.0,2.625,787.5,773.8582742214203,0.0,0.0,0.5017089330000001,4.963769999999998,0.0,56064.0,2.125,-780.0,-773.8582742214203,0.0,0.125,3.386230122,0.01,0.0,-34226.0,2.75,742.5,773.8582742214203,0.0,0.125,1.6088865540000001,0.01,0.0,0.47999998927116394,-1.809999942779541,91.7300033569336,0.03802490234375,0.0120849609375,0.82122802734375,35.5099983215332,0.0,3.0,-1.625274658203125,-2.1222381591796875,Closing,0.0,0.0,-189.0,0.0,0.0,0.0,0.0,0.0,
6.8492229999999985,0.0,0.0,64808.0,2.25,-780.0,-773.8582742214203,0.0,0.125,0.8178710100000001,4.932250999999998,0.0,-57364.0,2.375,787.5,773.8582742214203,0.0,0.0,0.505371042,4.963769999999998,0.0,55934.0,1.75,-802.5,-773.8582742214203,0.0,0.125,3.387450825,0.01,0.0,-34104.0,2.625,757.5,773.8582742214203,0.0,0.125,1.6113279600000001,0.01,0.0,0.46000000834465027,-1.8300000429153442,91.72000122070312,-0.03472900390625,0.06982421875,0.9259033203125,35.5099983215332,0.0,62.0,-1.6255035400390625,-2.122467041015625,Closing,0.0,0.0,-189.0,0.0,0.0,0.0,0.0,0.0,
6.994695000000007,0.0,0.0,64551.0,1.625,-810.0,-773.8582742214203,0.0,0.125,0.8178710100000001,4.932250999999998,0.0,-57234.0,2.125,810.0,773.8582742214203,0.0,0.0,0.505371042,4.963769999999998,0.0,55804.0,1.25,-810.0,-773.8582742214203,0.0,0.125,3.387450825,0.01,0.0,-33985.0,2.75,757.5,773.8582742214203,0.0,0.125,1.6113279600000001,0.01,0.0,0.4000000059604645,-1.649999976158142,91.6500015258789,0.0162353515625,-0.036376953125,0.68109130859375,35.5099983215332,0.0,-42.0,-1.6251068115234375,-2.1240081787109375,Closing,0.0,0.0,-189.0,0.0,0.0,0.0,0.0,0.0,
7.125040999999998,0.0,0.0,64422.0,1.625,-802.5,-773.8582742214203,0.0,0.125,0.8178710100000001,4.932250999999998,0.0,-57106.0,2.125,795.0,773.8582742214203,0.0,0.0,0.5041503390000001,4.963769999999998,0.0,55675.0,1.25,-802.5,-773.8582742214203,0.0,0.125,3.387450825,0.01,0.0,-33862.0,2.75,742.5,773.8582742214203,0.0,0.25,1.6113279600000001,0.01,0.0,0.41999998688697815,-1.440000057220459,91.55999755859375,0.0267333984375,-0.01116943359375,0.9373779296875,35.5099983215332,0.0,-19.0,-1.62677001953125,-2.12921142578125,Closing,0.0,0.0,-189.0,0.0,0.0,0.0,0.0,0.0,
7.259722999999998,0.0,0.0,64295.0,1.375,-795.0,-773.8582742214203,0.0,0.125,0.8178710100000001,4.932250999999998,0.0,-56977.0,1.75,810.0,773.8582742214203,0.0,0.0,0.505371042,4.963769999999998,0.0,55547.0,1.25,-795.0,-773.8582742214203,0.0,0.125,3.385009419,0.01,0.0,-33737.0,2.5,810.0,773.8582742214203,0.0,0.25,1.6101072570000001,0.01,0.0,0.4000000059604645,-1.590000033378601,91.63999938964844,0.03057861328125,0.07965087890625,1.10382080078125,35.540000915527344,0.0,70.0,-1.627166748046875,-2.13519287109375,Closing,0.0,0.0,-189.0,0.0,0.0,0.0,0.0,0.0,
7.391663,0.0,0.0,64168.0,1.625,-780.0,-773.8582742214203,0.0,0.125,0.8166503070000001,4.932250999999998,0.0,-56850.0,1.875,780.0,773.8582742214203,0.0,0.0,0.505371042,4.963769999999998,0.0,55420.0,1.25,-780.0,-773.8582742214203,0.0,0.125,3.387450825,0.01,0.0,-33611.0,2.75,757.5,773.8582742214203,0.0,0.25,1.6113279600000001,0.01,0.0,0.38999998569488525,-1.4600000381469727,91.7300033569336,-0.11260986328125,0.01348876953125,0.99285888671875,35.540000915527344,0.0,9.0,-1.626861572265625,-2.145782470703125,Closing,0.0,0.0,-189.0,0.0,0.0,0.0,0.0,0.0,
7.523891000000003,0.0,0.0,64043.0,2.75,-810.0,-879.1433860187393,0.0,0.25,0.832519446,0.07624978152370665,0.0,-56725.0,1.125,750.0,678.0988082251154,0.0,0.25,0.5297851020000001,0.09959549071313321,0.0,55296.0,2.5,-795.0,-879.1433860187393,0.0,0.125,3.33251919,4.864024239593703,0.0,-33488.0,2.25,742.5,678.0988082251154,0.0,0.25,1.588134603,4.858520281367647,0.0,0.4000000059604645,-1.3899999856948853,91.9800033569336,-0.0445556640625,-0.0736083984375,1.10601806640625,35.540000915527344,0.0,-80.0,-1.626708984375,-2.1520843505859375,Closing,0.0,0.0,-189.0,0.0,0.0,0.0,0.0,0.0,
7.647777999999991,0.0,0.0,63909.0,2.75,-855.0,-920.4236293616163,0.0,0.25,0.885009675,0.10025624342510882,0.0,-56608.0,1.25,697.5,645.5241104784782,0.0,0.25,0.623779233,0.14427418778257986,0.0,55167.0,2.625,-847.5,-920.4236293616163,0.0,0.125,3.251952792,4.839978114532816,0.0,-33372.0,2.25,682.5,645.5241104784782,0.0,0.25,1.4758299270000002,4.813893519839551,0.0,0.3799999952316284,-1.4500000476837158,93.0199966430664,-0.03070068359375,0.0289306640625,0.83941650390625,35.540000915527344,0.0,23.0,-1.6259307861328125,-2.1520233154296875,Closing,0.0,0.0,-189.0,0.0,0.0,0.0,0.0,0.0,
7.8582950000000125,0.0,0.0,63602.0,1.0,-990.0,-920.4236293616163,0.0,0.125,0.9228514680000001,0.10025624342510882,0.0,-56397.0,1.875,622.5,645.5241104784782,0.0,0.125,0.689697195,0.14427418778257986,0.0,54872.0,1.25,-967.5,-920.4236293616163,0.0,0.0,3.2214352170000002,4.839978114532816,0.0,-33157.0,2.25,682.5,645.5241104784782,0.0,0.125,1.389160014,4.813893519839551,0.0,0.46000000834465027,-1.4700000286102295,97.12999725341797,0.0205078125,0.09564208984375,1.05596923828125,35.52000045776367,0.0,80.0,-1.6199798583984375,-2.15338134765625,Closing,0.0,0.0,-189.0,0.0,0.0,0.0,0.0,0.0,
7.990037000000012,0.0,0.0,63430.0,5.75,-1065.0,-1456.8804817643968,0.0,0.375,0.969238182,0.2755197915886836,0.0,-56302.0,1.25,570.0,532.1508341430155,0.0,6.125,0.955810449,0.9688888801318352,0.0,54708.0,5.375,-1035.0,-1456.8804817643968,0.0,0.25,3.183593424,4.664424998248319,0.0,-33058.0,2.0,555.0,532.1508341430155,0.0,4.25,1.1096190270000001,3.990237378505926,0.0,0.5699999928474426,-1.6200000047683716,100.98999786376953,0.07244873046875,-0.02569580078125,1.06317138671875,35.52000045776367,0.0,-55.0,-1.61236572265625,-2.1561126708984375,Closing,0.0,0.0,-189.0,0.0,0.0,0.0,0.0,0.0,
8.124375,0.0,0.0,63261.0,0.375,-1057.5,-773.8582742214203,0.0,0.375,0.9472655280000001,4.932250999999998,0.0,-56213.0,4.625,555.0,773.8582742214203,0.0,0.5,1.0559080950000002,4.963769999999998,0.0,54535.0,0.375,-1042.5,-773.8582742214203,0.0,0.125,3.2165524050000003,0.01,0.0,-32964.0,5.0,510.0,773.8582742214203,0.0,0.75,1.192626831,0.01,0.0,0.5299999713897705,-1.4199999570846558,108.79000091552734,-0.1170654296875,0.105224609375,1.09222412109375,35.52000045776367,0.0,118.0,-1.603973388671875,-2.1615447998046875,Closing,0.0,0.0,-189.0,0.0,0.0,0.0,0.0,0.0,
8.257826000000001,0.0,0.0,63089.0,0.125,-1027.5,-773.8582742214203,0.0,0.375,0.8178710100000001,4.932250999999998,0.0,-56122.0,5.25,637.5,773.8582742214203,0.0,0.25,0.416259723,4.963769999999998,0.0,54365.0,0.375,-1057.5,-773.8582742214203,0.0,0.125,3.3605953590000004,0.01,0.0,-32799.0,6.625,547.5,773.8582742214203,0.0,0.625,1.751708805,0.01,0.0,0.8100000023841858,-1.6699999570846558,113.45999908447266,0.080810546875,0.06207275390625,0.8369140625,35.54999923706055,0.0,4.0,-1.5886688232421875,-2.16827392578125,Closing,0.0,0.0,-189.0,0.0,0.0,0.0,0.0,0.0,
8.389733999999997,0.0,0.0,62942.0,0.0,-705.0,0.0,0.0,0.125,0.760497969,4.932250999999998,0.0,-56007.0,0.0,622.5,0.0,0.0,0.75,0.181884747,4.963769999999998,0.0,54212.0,0.0,-772.5,0.0,0.0,0.0,3.4204098060000003,0.01,0.0,-32799.0,0.125,600.0,0.0,0.0,0.25,1.905517383,0.01,0.0,0.75,-0.7900000214576721,112.69000244140625,0.2786865234375,-0.1142578125,1.0079345703125,35.54999923706055,0.0,-230.0,-1.578948974609375,-2.1785888671875,Closing,0.0,0.0,-189.0,0.0,0.0,0.0,0.0,0.0,
8.482663,0.0,0.0,62863.0,0.0,-360.0,0.0,0.0,0.25,0.759277266,4.932250999999998,0.0,-55915.0,0.125,547.5,0.0,0.0,0.5,0.33081051300000003,4.963769999999998,0.0,54106.0,0.0,-307.5,0.0,0.0,0.125,3.4216305090000003,0.01,0.0,-32700.0,0.125,577.5,0.0,0.0,0.5,1.702880685,0.01,0.0,0.9900000095367432,0.5899999737739563,110.47000122070312,0.28729248046875,-0.0186767578125,1.177490234375,35.54999923706055,0.0,-132.0,-1.5759124755859375,-2.2124176025390625,Closing,0.0,0.0,-189.0,0.0,0.0,0.0,0.0,0.0,
8.603808000000019,0.0,0.0,62847.0,0.0,-30.0,0.0,0.0,0.25,0.7653807810000001,4.932250999999998,0.0,-55848.0,0.0,195.0,0.0,0.0,0.5,0.538330023,4.963769999999998,0.16479490499999994,54077.0,0.0,-45.0,0.0,0.0,0.125,3.406982073,0.01,0.0,-32627.0,0.125,150.0,0.0,0.0,0.25,1.572265464,0.01,0.0,0.4699999988079071,1.2999999523162842,110.05999755859375,0.0731201171875,-0.0299072265625,0.88482666015625,35.54999923706055,0.0,-53.0,-1.5814056396484375,-2.25640869140625,Closing,0.0,0.0,-189.0,0.0,0.0,0.0,0.0,0.0,
8.709565999999992,0.0,0.0,62847.0,0.0,0.0,0.0,0.0,0.25,0.7885741380000001,4.932250999999998,0.0,-55845.0,0.125,0.0,0.0,0.0,0.25,0.611572203,4.963769999999998,0.0,54077.0,0.0,0.0,0.0,0.0,0.125,3.392333637,0.01,0.0,-32625.0,0.125,-15.0,0.0,0.0,0.25,1.5869139,0.01,0.0,0.6200000047683716,1.0700000524520874,110.27999877929688,-0.07818603515625,0.0159912109375,0.93304443359375,35.54999923706055,0.0,38.0,-1.590179443359375,-2.3079986572265625,Closing,0.0,0.0,-189.0,0.0,0.0,0.0,0.0,0.0,
8.81716400000002,0.0,0.0,62849.0,0.0,7.5,0.0,0.0,0.125,0.794677653,4.932250999999998,0.024414059999999793,-55849.0,0.0,-30.0,0.0,0.0,0.25,0.587158143,4.963769999999998,0.0,54077.0,0.0,0.0,0.0,0.0,0.125,3.392333637,0.01,0.0,-32632.0,0.125,-37.5,0.0,0.0,0.25,1.59912093,0.01,0.0,0.550000011920929,0.6000000238418579,110.26000213623047,-0.0870361328125,0.0257568359375,1.083984375,35.540000915527344,0.0,48.0,-1.59478759765625,-2.341766357421875,Closing,0.0,0.0,-189.0,0.0,0.0,0.0,0.0,0.0,
8.912149000000005,0.0,0.0,62849.0,0.0,0.0,0.0,0.0,0.125,0.79345695,4.932250999999998,0.0,-55850.0,0.125,0.0,0.0,0.0,0.25,0.5676268950000001,4.963769999999998,0.0,54077.0,0.0,0.0,0.0,0.0,0.125,3.392333637,0.01,0.0,-32634.0,0.125,0.0,0.0,0.0,0.25,1.6015623360000002,0.01,0.0,0.5199999809265137,0.5,110.22000122070312,0.009033203125,-0.01397705078125,0.98712158203125,35.540000915527344,0.0,-21.0,-1.596466064453125,-2.3726043701171875,Closing,0.0,0.0,-189.0,0.0,0.0,0.0,0.0,0.0,
9.014860000000015,0.0,0.0,62885.0,15.25,262.5,1845.3543519973755,0.0,4.75,0.496826121,3.6991882499999984,0.0,-55831.0,36.875,135.0,1845.3543519973755,0.0,4.0,0.8154296040000001,1.2409424999999985,0.0,54069.0,19.25,-52.5,-1845.3543519973755,0.0,2.75,3.715819932,1.2350999999999985,0.0,-32661.0,21.125,-187.5,-1845.3543519973755,0.0,3.0,1.251220575,3.7184999999999984,0.0,0.41999998688697815,0.28999999165534973,110.12999725341797,-0.013671875,-0.06683349609375,0.83135986328125,35.540000915527344,0.0,-62.0,-1.598876953125,-2.368377685546875,Closing,0.0,0.0,-189.0,0.0,0.0,0.0,0.0,0.0,
9.133641000000003,0.0,0.0,62885.0,38.75,67.5,2520.0,0.0,0.375,0.017089842,3.6991882499999984,0.0,-55818.0,69.75,82.5,2520.0,0.0,2.625,1.19628894,1.2409424999999985,0.0,54048.0,40.875,-127.5,-2520.0,0.0,0.875,4.147948794,1.2350999999999985,0.0,-32656.0,48.5,22.5,-2520.0,0.0,1.875,0.8569335060000001,3.7184999999999984,0.0,0.20000000298023224,0.23999999463558197,110.12000274658203,0.00128173828125,-0.0396728515625,1.1220703125,35.540000915527344,0.0,-39.0,-1.6013031005859375,-2.3626708984375,Closing,0.0,0.0,-189.0,0.0,0.0,0.0,0.0,0.0,
9.260190999999992,0.0,0.0,62899.0,0.0,0.0,0.0,0.0,0.375,4.520263209,3.6991882499999984,0.0,-55833.0,0.0,-37.5,0.0,0.0,0.75,1.702880685,1.2409424999999985,0.0,54037.0,0.0,-67.5,0.0,0.0,0.875,4.5532221900000005,1.2350999999999985,0.0,-32648.0,0.125,60.0,0.0,0.0,0.875,0.44189448600000003,3.7184999999999984,0.0,0.7099999785423279,0.30000001192092896,110.41999816894531,-0.24542236328125,0.17022705078125,1.04949951171875,35.540000915527344,0.0,234.0,-1.6026611328125,-2.365386962890625,Closing,0.0,0.0,-189.0,0.0,0.0,0.0,0.0,0.0,
9.355369999999995,0.0,0.0,62893.0,0.0,-22.5,0.0,0.0,0.25,4.299315966,3.6991882499999984,0.0,-55836.0,0.0,-15.0,0.0,0.0,0.125,2.125243923,1.2409424999999985,0.0,54037.0,0.0,0.0,0.0,0.0,0.25,4.757079591,1.2350999999999985,0.0,-32635.0,0.125,67.5,0.0,0.0,0.5,0.24291989700000002,3.7184999999999984,0.0,0.5899999737739563,0.1599999964237213,110.22000122070312,0.00439453125,-0.08587646484375,0.97698974609375,35.52000045776367,0.0,-90.0,-1.5975341796875,-2.36578369140625,Closing,0.0,0.0,-189.0,0.0,0.0,0.0,0.0,0.0,
9.468994999999996,0.0,0.0,62885.0,0.0,-45.0,0.0,0.0,0.5,4.349364789,3.6991882499999984,0.0,-55836.0,0.125,-30.0,0.0,0.0,0.875,2.05078104,1.2409424999999985,0.0,54037.0,0.0,7.5,0.0,0.0,0.25,4.7131342830000005,1.2350999999999985,0.0,-32632.0,0.125,22.5,0.0,0.0,0.375,0.32958981000000004,3.7184999999999984,0.0,0.25999999046325684,0.0,110.25,0.02520751953125,0.01678466796875,1.0223388671875,35.52000045776367,0.0,2.0,-1.59771728515625,-2.3612213134765625,Closing,0.0,0.0,-189.0,0.0,0.0,0.0,0.0,0.0,
9.599920000000013,0.0,0.0,62884.0,0.75,-60.0,-630.0,0.0,0.375,4.471435089,3.6991882500000015,0.0,-55866.0,2.375,-157.5,-630.0,0.0,0.25,1.8420408270000002,1.2409425000000012,0.0,54050.0,1.75,37.5,630.0,0.0,0.125,4.583739765000001,1.2351000000000012,0.0,-32609.0,1.5,90.0,630.0,0.0,0.375,0.40161128700000004,3.7185000000000015,0.0,0.6499999761581421,-0.17000000178813934,110.2300033569336,0.07879638671875,0.2144775390625,1.0029296875,35.52000045776367,0.0,162.0,-1.597930908203125,-2.3564453125,Closing,0.0,0.0,-189.0,0.0,0.0,0.0,0.0,0.0,
9.711456000000005,0.0,0.0,62853.0,1.625,-210.0,-649.6875,0.0,0.125,4.514159694,3.6991882500000015,0.0,-55866.0,4.5,-150.0,-649.6875,0.0,0.25,1.7651365380000001,1.2409425000000012,0.0,54050.0,2.75,142.5,649.6875,0.0,0.0,4.564208517,1.2351000000000012,0.0,-32609.0,2.375,150.0,649.6875,0.0,0.25,0.40283199000000003,3.7185000000000015,0.0,1.0199999809265137,-0.11999999731779099,110.0999984741211,-0.00115966796875,0.0714111328125,0.95025634765625,35.52000045776367,0.0,50.0,-1.5913543701171875,-2.35693359375,Closing,0.0,0.0,-189.0,0.0,0.0,0.0,0.0,0.0,
9.80887400000001,0.0,0.0,62817.0,2.75,-285.0,-649.6875,0.0,0.125,4.509276882,3.6991882500000015,0.0,-55897.0,5.75,-285.0,-649.6875,0.0,0.125,1.744384587,1.2409425000000012,0.0,54076.0,3.875,277.5,649.6875,0.0,0.0,4.562987814,1.2351000000000012,0.0,-32531.0,3.125,285.0,649.6875,0.0,0.25,0.383300742,3.7185000000000015,0.0,1.590000033378601,-0.20999999344348907,109.9800033569336,0.002685546875,0.1741943359375,1.07940673828125,35.529998779296875,0.0,128.0,-1.5731964111328125,-2.3610992431640625,Closing,0.0,0.0,-189.0,0.0,0.0,0.0,0.0,0.0,
9.927129000000015,0.0,0.0,62755.0,0.75,-435.0,-413.4375,0.0,0.125,4.509276882,3.6991882500000015,0.0,-55957.0,2.0,-457.5,-413.4375,0.0,0.0,1.7419431810000001,1.2409425000000012,0.0,54129.0,1.75,435.0,413.4375,0.0,0.0,4.564208517,1.2351000000000012,0.0,-32531.0,1.625,427.5,413.4375,0.0,0.125,0.384521445,3.7185000000000015,0.0,1.7999999523162842,-0.30000001192092896,109.87999725341797,-0.05010986328125,0.0838623046875,1.1885986328125,35.529998779296875,0.0,58.0,-1.5560150146484375,-2.36163330078125,Closing,0.0,0.0,-189.0,0.0,0.0,0.0,0.0,0.0,
10.128296999999991,0.0,0.0,62630.0,0.0,-315.0,0.0,0.0,0.125,4.510497585,3.6991882500000015,0.0,-56088.0,0.125,-367.5,0.0,0.0,0.0,1.723632636,1.2409425000000012,0.0,54255.0,0.0,270.0,0.0,0.0,0.0,4.564208517,1.2351000000000012,0.0,-32406.0,0.125,322.5,0.0,0.0,0.125,0.384521445,3.7185000000000015,0.0,1.059999942779541,-0.36000001430511475,109.77999877929688,-0.0411376953125,-0.0335693359375,1.170166015625,35.529998779296875,0.0,-40.0,-1.5257720947265625,-2.356964111328125,Closing,0.0,0.0,-189.0,0.0,0.0,0.0,0.0,0.0,
10.257133000000001,0.0,0.0,62587.0,0.0,-247.5,0.0,0.0,0.125,4.508056179,3.6991882500000015,0.0,-56132.0,0.125,-240.0,0.0,0.0,0.125,1.722411933,1.2409425000000012,0.0,54302.0,0.0,255.0,0.0,0.0,0.0,4.564208517,1.2351000000000012,0.0,-32358.0,0.0,277.5,0.0,0.0,0.125,0.384521445,3.7185000000000015,0.0,0.5699999928474426,-0.4699999988079071,109.7699966430664,-0.03802490234375,-0.07257080078125,0.985595703125,35.529998779296875,0.0,-67.0,-1.5164337158203125,-2.3464813232421875,Closing,0.0,0.0,-189.0,0.0,0.0,0.0,0.0,0.0,
10.388849000000016,0.0,0.0,62556.0,0.0,-172.5,0.0,0.0,0.125,4.508056179,3.6991882500000015,0.0,-56165.0,0.125,-172.5,0.0,0.0,0.125,1.717529121,1.2409425000000012,0.0,54335.0,0.0,180.0,0.0,0.0,0.0,4.564208517,1.2351000000000012,0.0,-32324.0,0.125,157.5,0.0,0.0,0.125,0.384521445,3.7185000000000015,0.0,0.1599999964237213,-0.47999998927116394,109.7300033569336,-0.00531005859375,-0.08837890625,1.00830078125,35.52000045776367,0.0,-86.0,-1.515350341796875,-2.3335113525390625,Closing,0.0,0.0,-189.0,0.0,0.0,0.0,0.0,0.0,
10.524769000000001,0.0,0.0,62544.0,0.0,-37.5,0.0,0.0,0.125,4.508056179,3.6991882500000015,0.0,-56179.0,0.0,-45.0,0.0,0.0,0.25,1.7126463090000001,1.2409425000000012,0.0,54352.0,0.0,45.0,0.0,0.0,0.0,4.564208517,1.2351000000000012,0.0,-32306.0,0.125,52.5,0.0,0.0,0.125,0.384521445,3.7185000000000015,0.0,-0.23999999463558197,-0.550000011920929,109.73999786376953,-0.01739501953125,-0.0523681640625,1.03729248046875,35.52000045776367,0.0,-42.0,-1.521942138671875,-2.31329345703125,Closing,0.0,0.0,-189.0,0.0,0.0,0.0,0.0,0.0,
10.65630900000001,0.0,0.0,62543.0,0.0,0.0,0.0,0.0,0.125,4.509276882,3.6991882500000015,0.0,-56182.0,0.125,0.0,0.0,0.0,0.25,1.7126463090000001,1.2409425000000012,0.0,54354.0,0.0,0.0,0.0,0.0,0.0,4.562987814,1.2351000000000012,0.0,-32303.0,0.125,0.0,0.0,0.0,0.125,0.384521445,3.7185000000000015,0.0,-0.23999999463558197,-0.5899999737739563,109.73999786376953,-0.02587890625,0.0142822265625,1.0194091796875,35.52000045776367,0.0,22.0,-1.5238189697265625,-2.308837890625,Closing,0.0,0.0,-189.0,0.0,0.0,0.0,0.0,0.0,
10.791513999999996,0.0,0.0,62543.0,0.0,0.0,0.0,0.0,0.125,4.509276882,3.6991882500000015,0.0,-56182.0,0.125,0.0,0.0,0.0,0.25,1.7126463090000001,1.2409425000000012,0.0,54354.0,0.0,0.0,0.0,0.0,0.0,4.564208517,1.2351000000000012,0.0,-32303.0,0.125,0.0,0.0,0.0,0.125,0.384521445,3.7185000000000015,0.0,-0.10999999940395355,-0.6200000047683716,109.73999786376953,-0.0115966796875,0.013427734375,0.99798583984375,35.52000045776367,0.0,14.0,-1.521820068359375,-2.308837890625,Closing,0.0,0.0,-189.0,0.0,0.0,0.0,0.0,0.0,
10.914777000000003,0.0,0.0,62543.0,0.0,0.0,0.0,0.0,0.125,4.509276882,3.6991882500000015,0.0,-56182.0,0.125,0.0,0.0,0.0,0.25,1.7138670120000001,1.2409425000000012,0.0,54354.0,0.0,0.0,0.0,0.0,0.0,4.564208517,1.2351000000000012,0.0,-32303.0,0.125,0.0,0.0,0.0,0.125,0.384521445,3.7185000000000015,0.0,-0.10000000149011612,-0.6499999761581421,109.73999786376953,-0.01312255859375,-0.00250244140625,1.01239013671875,35.4900016784668,0.0,0.0,-1.521820068359375,-2.308837890625,Closing,0.0,0.0,-189.0,0.0,0.0,0.0,0.0,0.0,
11.060263999999995,0.0,0.0,62543.0,0.0,0.0,0.0,0.0,0.125,4.509276882,3.6991882500000015,0.0,-56182.0,0.125,0.0,0.0,0.0,0.25,1.7138670120000001,1.2409425000000012,0.0,54354.0,0.0,0.0,0.0,0.0,0.0,4.562987814,1.2351000000000012,0.0,-32303.0,0.0,0.0,0.0,0.0,0.125,0.383300742,3.7185000000000015,0.0,-0.07999999821186066,-0.6800000071525574,109.7300033569336,-0.01513671875,0.0087890625,1.0198974609375,35.4900016784668,0.0,10.0,-1.521820068359375,-2.308837890625,Closing,0.0,0.0,-189.0,0.0,0.0,0.0,0.0,0.0,
11.192950000000012,0.0,0.0,62543.0,0.0,0.0,0.0,0.0,0.125,4.510497585,3.6991882500000015,0.0,-56182.0,0.0,0.0,0.0,0.0,0.25,1.7126463090000001,1.2409425000000012,0.0,54354.0,0.0,0.0,0.0,0.0,0.0,4.567870626,1.2351000000000012,0.0,-32303.0,0.125,0.0,0.0,0.0,0.125,0.384521445,3.7185000000000015,0.0,-0.03999999910593033,-0.7099999785423279,109.7300033569336,-0.0162353515625,-7.9345703125E-4,1.0294189453125,35.4900016784668,0.0,1.0,-1.521820068359375,-2.308837890625,Closing,0.0,0.0,-189.0,0.0,0.0,0.0,0.0,0.0,
11.391618000000017,0.0,0.0,62543.0,0.0,0.0,0.0,0.0,0.125,4.509276882,3.6991882500000015,0.0,-56182.0,0.0,0.0,0.0,0.0,0.25,1.7126463090000001,1.2409425000000012,0.0,54354.0,0.0,0.0,0.0,0.0,0.0,4.562987814,1.2351000000000012,0.0,-32303.0,0.0,0.0,0.0,0.0,0.125,0.384521445,3.7185000000000015,0.0,-0.009999999776482582,-0.75,109.72000122070312,-0.0189208984375,0.00433349609375,1.02081298828125,35.47999954223633,0.0,6.0,-1.521820068359375,-2.308837890625,Closing,0.0,0.0,-189.0,0.0,0.0,0.0,0.0,0.0,
11.525168000000004,0.0,0.0,62543.0,0.0,0.0,0.0,0.0,0.125,4.510497585,3.6991882500000015,0.0,-56182.0,0.125,0.0,0.0,0.0,0.25,1.7138670120000001,1.2409425000000012,0.0,54354.0,0.0,0.0,0.0,0.0,0.0,4.562987814,1.2351000000000012,0.0,-32303.0,0.125,0.0,0.0,0.0,0.125,0.384521445,3.7185000000000015,0.0,0.0,-0.7699999809265137,109.7300033569336,-0.01885986328125,0.002197265625,1.02337646484375,35.47999954223633,0.0,3.0,-1.521820068359375,-2.308837890625,Closing,0.0,0.0,-189.0,0.0,0.0,0.0,0.0,0.0,
11.727760000000009,0.0,0.0,62543.0,0.0,0.0,0.0,0.0,0.125,4.508056179,3.6991882500000015,0.0,-56182.0,0.125,0.0,0.0,0.0,0.25,1.7126463090000001,1.2409425000000012,0.0,54354.0,0.0,0.0,0.0,0.0,0.0,4.56542922,1.2351000000000012,0.0,-32303.0,0.125,0.0,0.0,0.0,0.125,0.384521445,3.7185000000000015,0.0,0.009999999776482582,-0.7900000214576721,109.72000122070312,-0.01519775390625,-1.220703125E-4,1.02099609375,35.47999954223633,0.0,0.0,-1.521820068359375,-2.308837890625,Closing,0.0,0.0,-189.0,0.0,0.0,0.0,0.0,0.0,
11.927893000000012,0.0,0.0,62553.0,0.125,45.0,231.49606212973595,0.0,1.125,3.6755367330000004,3.015942366852486,0.0,-56182.0,1.0,0.0,231.49606212973595,0.0,1.25,2.5927731720000002,1.92855458977222,0.0,54363.0,0.5,52.5,231.49606212973595,0.0,1.625,0.511474557,1.9194747329772914,0.0,-32295.0,0.375,67.5,231.49606212973595,0.0,1.25,4.4458003260000005,3.031687206278561,0.0,-0.05000000074505806,-0.8299999833106995,109.91000366210938,-0.01251220703125,0.05914306640625,1.0487060546875,35.52000045776367,0.0,55.0,-1.5225067138671875,-2.307647705078125,Closing,0.0,0.0,-189.0,0.0,0.0,0.0,0.0,0.0,
12.12515299999999,0.0,0.0,62561.0,0.0,7.5,0.0,0.0,0.375,3.618163692,3.015942366852486,0.0,-56180.0,0.125,7.5,0.0,0.0,0.25,2.70996066,1.92855458977222,0.0,54363.0,0.0,-22.5,0.0,0.0,0.25,0.522460884,1.9194747329772914,0.0,-32284.0,0.125,0.0,0.0,0.0,0.25,4.466552277,3.031687206278561,0.0,0.05000000074505806,-0.800000011920929,110.72000122070312,-0.0438232421875,0.00982666015625,1.07763671875,35.52000045776367,0.0,18.0,-1.5198974609375,-2.3079681396484375,Closing,0.0,0.0,-189.0,0.0,0.0,0.0,0.0,0.0,
12.248466000000015,0.0,0.0,62561.0,0.0,-7.5,0.0,0.0,0.375,3.812255469,3.015942366852486,0.0,-56180.0,0.125,0.0,0.0,0.0,0.25,2.4865720110000002,1.92855458977222,0.0,54361.0,0.0,0.0,0.0,0.0,0.25,0.327148404,1.9194747329772914,0.0,-32284.0,0.125,0.0,0.0,0.0,0.375,4.698485847000001,3.031687206278561,0.0,0.07999999821186066,-0.8600000143051147,110.4000015258789,-0.02197265625,0.0096435546875,1.00445556640625,35.52000045776367,0.0,10.0,-1.5196380615234375,-2.3077239990234375,Closing,0.0,0.0,-189.0,0.0,0.0,0.0,0.0,0.0,
12.391687999999995,0.0,0.0,62559.0,0.0,0.0,0.0,0.0,0.125,3.8464351530000003,3.015942366852486,0.0,-56180.0,0.125,0.0,0.0,0.0,0.25,2.4340817820000002,1.92855458977222,0.0,54361.0,0.0,0.0,0.0,0.0,0.0,0.250244115,1.9194747329772914,0.0,-32284.0,0.125,0.0,0.0,0.0,0.25,4.688720223000001,3.031687206278561,0.0,0.05999999865889549,-0.800000011920929,110.43000030517578,-0.00518798828125,-0.00103759765625,1.00311279296875,35.5099983215332,0.0,-5.0,-1.5195770263671875,-2.3079071044921875,Closing,0.0,0.0,-189.0,0.0,0.0,0.0,0.0,0.0,
12.525773000000015,0.0,0.0,62559.0,0.0,0.0,0.0,0.0,0.125,3.8452144500000003,3.015942366852486,0.0,-56180.0,0.125,0.0,0.0,0.0,0.0,2.4340817820000002,1.92855458977222,0.0,54361.0,0.0,0.0,0.0,0.0,0.0,0.295410126,1.9194747329772914,0.0,-32284.0,0.125,0.0,0.0,0.0,0.25,4.654540539,3.031687206278561,0.0,0.09000000357627869,-0.8399999737739563,110.41000366210938,-0.00421142578125,-0.0030517578125,1.019775390625,35.5099983215332,0.0,-8.0,-1.5195770263671875,-2.3079071044921875,Closing,0.0,0.0,-189.0,0.0,0.0,0.0,0.0,0.0,
12.647293000000005,0.0,0.0,62559.0,0.0,0.0,0.0,0.0,0.125,3.8452144500000003,3.015942366852486,0.0,-56180.0,0.125,0.0,0.0,0.0,0.0,2.4340817820000002,1.92855458977222,0.0,54361.0,0.0,0.0,0.0,0.0,0.0,0.308837859,1.9194747329772914,0.0,-32284.0,0.0,0.0,0.0,0.0,0.125,4.649657727,3.031687206278561,0.0,0.09000000357627869,-0.8500000238418579,110.41999816894531,-0.0084228515625,0.00482177734375,1.0245361328125,35.5099983215332,0.0,0.0,-1.5195770263671875,-2.3079071044921875,Closing,0.0,0.0,-189.0,0.0,0.0,0.0,0.0,0.0,
12.782423999999999,0.0,0.0,62559.0,0.0,0.0,0.0,0.0,0.125,3.8452144500000003,3.015942366852486,0.0,-56180.0,0.0,0.0,0.0,0.0,0.0,2.4328610790000003,1.92855458977222,0.0,54361.0,0.0,0.0,0.0,0.0,0.0,0.308837859,1.9194747329772914,0.0,-32284.0,0.0,0.0,0.0,0.0,0.125,4.650878430000001,3.031687206278561,0.0,0.10000000149011612,-0.8500000238418579,110.41999816894531,-0.02252197265625,0.0074462890625,1.02130126953125,35.5099983215332,0.0,7.0,-1.5195770263671875,-2.3079071044921875,Closing,0.0,0.0,-189.0,0.0,0.0,0.0,0.0,0.0,
12.926426999999997,0.0,0.0,62559.0,0.0,0.0,0.0,0.0,0.125,3.8464351530000003,3.015942366852486,0.0,-56180.0,0.125,0.0,0.0,0.0,0.0,2.4328610790000003,1.92855458977222,0.0,54361.0,0.0,0.0,0.0,0.0,0.0,0.308837859,1.9194747329772914,0.0,-32284.0,0.125,0.0,0.0,0.0,0.125,4.649657727,3.031687206278561,0.0,0.10999999940395355,-0.8600000143051147,110.41999816894531,-0.02117919921875,0.00653076171875,1.01849365234375,35.540000915527344,0.0,6.0,-1.5195770263671875,-2.3079071044921875,Closing,0.0,0.0,-189.0,0.0,0.0,0.0,0.0,0.0,
13.124040999999998,0.0,0.0,62559.0,0.0,0.0,0.0,0.0,0.125,3.8464351530000003,3.015942366852486,0.0,-56180.0,0.0,0.0,0.0,0.0,0.0,2.4328610790000003,1.92855458977222,0.0,54361.0,0.0,0.0,0.0,0.0,0.0,0.308837859,1.9194747329772914,0.0,-32284.0,0.125,0.0,0.0,0.0,0.125,4.649657727,3.031687206278561,0.0,0.11999999731779099,-0.8799999952316284,110.41999816894531,-0.01727294921875,0.005615234375,1.0235595703125,35.540000915527344,0.0,3.0,-1.5195770263671875,-2.3079071044921875,Closing,0.0,0.0,-189.0,0.0,0.0,0.0,0.0,0.0,
13.257138999999995,0.0,0.0,62561.0,0.375,0.0,297.63780355453486,0.0,2.125,3.6242672070000004,2.4661254999999977,0.0,-56188.0,0.25,-67.5,-297.63780355453486,0.0,2.625,2.5830075480000003,2.481884999999998,0.0,54364.0,0.375,22.5,297.63780355453486,0.0,2.625,0.560302677,2.4702000000000024,0.0,-32289.0,0.375,-37.5,-297.63780355453486,0.0,2.25,4.460448762,2.4790000000000023,0.0,0.10999999940395355,-0.9399999976158142,110.41999816894531,-0.06756591796875,0.031005859375,1.051513671875,35.540000915527344,0.0,44.0,-1.5196380615234375,-2.307769775390625,Closing,0.0,0.0,-189.0,0.0,0.0,0.0,0.0,0.0,
13.389646000000008,0.0,0.0,62572.0,0.75,67.5,297.63780355453486,0.0,0.625,3.19824186,2.4661254999999977,0.0,-56207.0,0.875,-60.0,-297.63780355453486,0.0,0.75,3.072509451,2.481884999999998,0.0,54367.0,1.125,0.0,297.63780355453486,0.0,0.625,0.979003806,2.4702000000000024,0.0,-32291.0,1.375,-30.0,-297.63780355453486,0.0,0.875,4.011230058000001,2.4790000000000023,0.0,0.09000000357627869,-1.1699999570846558,110.41999816894531,-0.0465087890625,0.00689697265625,0.98565673828125,35.529998779296875,0.0,14.0,-1.519317626953125,-2.3028564453125,Closing,0.0,0.0,-189.0,0.0,0.0,0.0,0.0,0.0,
13.527301000000007,0.0,0.0,62589.0,0.875,127.5,297.63780355453486,0.0,0.375,3.128661789,2.4661254999999977,0.0,-56221.0,1.5,-135.0,-297.63780355453486,0.0,0.25,3.142089522,2.481884999999998,0.0,54373.0,1.5,112.5,297.63780355453486,0.0,0.125,1.0083006780000001,2.4702000000000024,0.0,-32302.0,1.375,-112.5,-297.63780355453486,0.0,0.25,3.9489742050000003,2.4790000000000023,0.0,0.10000000149011612,-1.4600000381469727,110.4000015258789,-0.07879638671875,0.01165771484375,1.059814453125,35.529998779296875,0.0,27.0,-1.5193023681640625,-2.293426513671875,Closing,0.0,0.0,-189.0,0.0,0.0,0.0,0.0,0.0,
13.659755999999994,0.0,0.0,62618.0,1.25,180.0,337.32282400131226,0.0,0.375,3.188476236,2.4661254999999977,0.0,-56248.0,2.0,-172.5,-337.32282400131226,0.0,0.25,3.13720671,2.481884999999998,0.0,54401.0,1.75,165.0,337.32282400131226,0.0,0.125,0.926513577,2.4702000000000024,0.0,-32322.0,2.125,-127.5,-337.32282400131226,0.0,0.25,4.005126543,2.4790000000000023,0.0,0.10000000149011612,-1.340000033378601,110.52999877929688,-0.0655517578125,0.03338623046875,1.07666015625,35.529998779296875,0.0,43.0,-1.5191802978515625,-2.2913055419921875,Closing,0.0,0.0,-189.0,0.0,0.0,0.0,0.0,0.0,
13.862197000000014,0.0,0.0,62679.0,1.75,202.5,337.32282400131226,0.0,0.375,3.239745762,2.4661254999999977,0.0,-56304.0,3.375,-187.5,-337.32282400131226,0.0,0.25,3.040771173,2.481884999999998,0.0,54462.0,2.25,210.0,337.32282400131226,0.0,0.125,0.8532713970000001,2.4702000000000024,0.0,-32377.0,2.5,-195.0,-337.32282400131226,0.0,0.25,4.136962467,2.4790000000000023,0.0,0.10000000149011612,-1.590000033378601,110.69000244140625,-0.09649658203125,-0.00897216796875,1.07562255859375,35.529998779296875,0.0,13.0,-1.519134521484375,-2.289703369140625,Closing,0.0,0.0,-189.0,0.0,0.0,0.0,0.0,0.0,
13.982548999999999,0.0,0.0,62728.0,1.625,307.5,337.32282400131226,0.0,0.25,3.249511386,2.4661254999999977,0.0,-56347.0,3.125,-292.5,-337.32282400131226,0.0,0.25,3.0053707860000003,2.481884999999998,0.0,54507.0,1.75,315.0,337.32282400131226,0.0,0.0,0.819091713,2.4702000000000024,0.0,-32420.0,2.25,-292.5,-337.32282400131226,0.0,0.25,4.205321835,2.4790000000000023,0.0,0.029999999329447746,-1.2200000286102295,111.05000305175781,0.29327392578125,-0.03839111328125,0.97381591796875,35.540000915527344,0.0,-149.0,-1.5185546875,-2.2878875732421875,Closing,0.0,0.0,-189.0,0.0,0.0,0.0,0.0,0.0,
14.127651000000013,0.0,0.0,62752.0,3.625,60.0,337.32282400131226,0.0,0.25,3.236083653,2.4661254999999977,0.0,-56372.0,8.75,-22.5,-337.32282400131226,0.0,0.125,3.0053707860000003,2.481884999999998,0.0,54551.0,3.0,142.5,337.32282400131226,0.0,0.125,0.823974525,2.4702000000000024,0.0,-32447.0,4.875,7.5,-337.32282400131226,0.0,0.25,4.17480426,2.4790000000000023,0.0,0.2199999988079071,-0.6299999952316284,111.2699966430664,-0.1068115234375,-0.143798828125,0.9315185546875,35.540000915527344,0.0,-102.0,-1.524169921875,-2.307647705078125,Closing,0.0,0.0,-189.0,0.0,0.0,0.0,0.0,0.0,
14.260032999999996,0.0,0.0,62751.0,6.25,7.5,337.32282400131226,0.0,0.125,3.254394198,2.4661254999999977,0.0,-56373.0,12.625,-7.5,-337.32282400131226,0.0,0.125,3.0102535980000003,2.481884999999998,0.0,54552.0,5.25,7.5,337.32282400131226,0.0,0.0,0.8312987430000001,2.4702000000000024,0.0,-32446.0,8.625,-7.5,-337.32282400131226,0.0,0.25,4.146728091,2.4790000000000023,0.0,0.23000000417232513,-0.699999988079071,111.37999725341797,0.0567626953125,-0.01910400390625,1.035888671875,35.540000915527344,0.0,-47.0,-1.5280609130859375,-2.32147216796875,Closing,0.0,0.0,-189.0,0.0,0.0,0.0,0.0,0.0,
14.389953000000009,0.0,0.0,62744.0,0.0,-97.5,0.0,0.0,0.25,3.250732089,2.4661254999999977,0.0,-56374.0,0.125,90.0,0.0,0.0,0.125,2.9980465680000004,2.481884999999998,0.0,54555.0,0.0,-45.0,0.0,0.0,0.0,0.8532713970000001,2.4702000000000024,0.0,-32431.0,0.125,105.0,0.0,0.0,0.25,4.141845279,2.4790000000000023,0.0,0.25,-0.36000001430511475,111.23999786376953,0.02960205078125,0.03448486328125,0.858642578125,35.54999923706055,0.0,15.0,-1.53125,-2.3480224609375,Closing,0.0,0.0,-189.0,0.0,0.0,0.0,0.0,0.0,
14.529883000000002,0.0,0.0,62725.0,1.25,-45.0,330.70866018533707,0.0,2.625,3.502196907,3.015942366852486,0.0,-56335.0,0.375,112.5,330.70866018533707,0.0,0.875,2.675780976,1.92855458977222,0.0,54540.0,0.875,-52.5,330.70866018533707,0.0,0.625,0.5932616580000001,1.9194747329772914,0.0,-32415.0,0.5,82.5,330.70866018533707,0.0,0.75,4.417724157,3.031687206278561,0.0,0.18000000715255737,-0.800000011920929,111.27999877929688,-0.04937744140625,-0.007080078125,0.919677734375,35.54999923706055,0.0,3.0,-1.52886962890625,-2.36962890625,Closing,0.0,0.0,-189.0,0.0,0.0,0.0,0.0,0.0,
14.661040999999997,0.0,0.0,62725.0,0.0,-7.5,0.0,0.0,0.875,3.812255469,3.015942366852486,0.0,-56327.0,0.0,75.0,0.0,0.0,0.25,2.40478491,1.92855458977222,0.0,54540.0,0.0,0.0,0.0,0.0,0.375,0.30395504700000003,1.9194747329772914,0.0,-32407.0,0.125,37.5,0.0,0.0,0.625,4.6582026480000005,3.031687206278561,0.0,0.11999999731779099,-0.8600000143051147,111.62000274658203,0.01251220703125,0.001953125,0.96051025390625,35.54999923706055,0.0,-10.0,-1.52435302734375,-2.3840179443359375,Closing,0.0,0.0,-189.0,0.0,0.0,0.0,0.0,0.0,
14.790643000000012,0.0,0.0,62724.0,0.0,0.0,0.0,0.0,0.125,3.905028897,3.015942366852486,0.0,-56327.0,0.125,0.0,0.0,0.0,0.25,2.3718259290000003,1.92855458977222,0.0,54540.0,0.0,0.0,0.0,0.0,0.0,0.23681638200000002,1.9194747329772914,0.0,-32409.0,0.125,-7.5,0.0,0.0,0.125,4.707030768,3.031687206278561,0.0,0.14000000059604645,-0.800000011920929,111.76000213623047,-0.03173828125,-0.00372314453125,1.042724609375,35.54999923706055,0.0,0.0,-1.5243988037109375,-2.393829345703125,Closing,0.0,0.0,-189.0,0.0,0.0,0.0,0.0,0.0,
