Time,ClimberA1,ClimberA2,FRpos,FRCurrent,FRspeed,FRsetpoint,FRApos,FRACurrent,FREncpos,FREncSetpoint,FREncSpeed,FLpos,FLCurrent,FLspeed,FLsetpoint,FLApos,FLACurrent,FLEncpos,FLEncSetpoint,FLEncSpeed,BRpos,BRCurrent,BRspeed,BRsetpoint,BRApos,BRACurrent,BREncpos,BREncSetpoint,BREncSpeed,BLpos,BLCurrent,BLspeed,BLsetpoint,BLApos,BLACurrent,BLEncpos,BLEncSetpoint,BLEncSpeed,navx_Pitch,navx_Roll,navx_Yaw,navx_XAcc,navx_YAcc,navx_ZAcc,navx_Temp,navx_Bar,navx_Alt,navx_XDis,navx_YDis,GearPlacerState,ShootOutputV,ShootOutputCurrent,ShootEncPos,ShootEncVelocity,ShootSpeed,ShootSetpoint,CarouselSetpoint,CarouselCurrent,
0.21075199999986216,0.0,0.0,20089.0,0.0,0.0,0.0,0.0,0.125,0.8410643670000001,0.01,0.0,-25150.0,0.0,0.0,0.0,0.0,0.125,0.5029296360000001,0.01,0.0,1653.0,0.0,0.0,0.0,0.0,0.0,3.3679195770000003,0.01,0.0,1223.0,0.0,0.0,0.0,0.0,0.125,1.639404129,0.01,0.0,0.7900000214576721,-0.8899999856948853,105.37999725341797,-0.0189208984375,0.0146484375,1.02325439453125,34.43000030517578,0.0,1.0,-1.32666015625,-0.0150146484375,Closing,0.0,0.0,-189.0,0.0,0.0,0.0,0.0,0.0,
0.4534529999999795,0.0,0.0,20119.0,3.125,255.0,840.0,0.0,0.125,0.826415931,0.01,0.0,-25183.0,6.25,-270.0,-840.0,0.0,0.125,0.5041503390000001,0.01,0.0,1655.0,6.875,97.5,840.0,0.0,0.0,3.338622705,0.01,0.0,1182.0,3.0,-165.0,-840.0,0.0,0.125,1.639404129,0.01,0.0,0.8100000023841858,-0.07999999821186066,105.37999725341797,0.1917724609375,0.01373291015625,0.95513916015625,34.45000076293945,0.0,-51.0,-1.3255157470703125,-0.0251312255859375,Closing,0.0,0.0,-189.0,0.0,0.0,0.0,0.0,0.0,
0.6513549999999814,0.0,0.0,20227.0,2.25,480.0,678.8686396354944,0.0,0.25,0.7226561760000001,4.757393103432182,0.0,-25309.0,9.75,-667.5,-1028.892500737193,0.0,0.25,0.49438471500000003,4.848206683431458,0.0,1754.0,3.875,487.5,678.8686396354944,0.0,0.125,3.450927381,0.17514679447652745,0.0,1108.0,5.875,-540.0,-1028.892500737193,0.0,0.125,1.7065427940000002,0.11542898312106119,0.0,0.8399999737739563,1.1299999952316284,105.62999725341797,0.10406494140625,0.07958984375,1.0892333984375,34.45000076293945,0.0,38.0,-1.3265228271484375,-0.0699005126953125,Closing,0.0,0.0,-189.0,0.0,0.0,0.0,0.0,0.0,
0.8524509999998845,0.0,0.0,20435.0,2.0,630.0,741.4944690188646,0.0,0.25,0.6201171240000001,4.839512343436093,0.0,-25611.0,3.125,-1012.5,-947.7123827825,0.0,0.0,0.444335892,4.89081326104327,0.0,1931.0,5.125,480.0,741.4944690188646,0.0,0.125,3.5375972940000002,0.09289187814819813,0.0,829.0,2.25,-982.5,-947.7123827825,0.0,0.25,1.7651365380000001,0.07287193237145757,0.0,0.8199999928474426,1.309999942779541,109.61000061035156,0.02862548828125,-0.07061767578125,0.7835693359375,34.45000076293945,0.0,-80.0,-1.325531005859375,-0.1515350341796875,Closing,0.0,0.0,-189.0,0.0,0.0,0.0,0.0,0.0,
1.1151350000000093,0.0,0.0,20662.0,0.875,727.5,674.4938165702173,0.0,0.125,0.6201171240000001,4.750623877602117,0.0,-25948.0,2.125,-1072.5,-1035.1013132023213,0.0,0.0,0.406494099,4.845277733458088,0.0,2152.0,3.25,720.0,674.4938165702173,0.0,0.0,3.488769174,0.18192720433215984,0.0,504.0,1.875,-1035.0,-1035.1013132023213,0.0,0.125,1.7419431810000001,0.11835452841586061,0.0,0.7300000190734863,1.0700000524520874,115.33999633789062,-0.02618408203125,-0.03955078125,1.02056884765625,34.38999938964844,0.0,-28.0,-1.3322296142578125,-0.2364501953125,Closing,0.0,0.0,-189.0,0.0,0.0,0.0,0.0,0.0,
1.314214999999851,0.0,0.0,20782.0,0.5,750.0,683.1363860555321,0.0,0.125,0.6445311840000001,4.763840929684743,0.0,-26120.0,1.125,-1080.0,-1022.9162568824928,0.0,0.125,0.40283199000000003,4.851065978356554,0.0,2271.0,2.75,735.0,683.1363860555321,0.0,0.0,3.487548471,0.16868831521053912,0.0,336.0,1.625,-1035.0,-1022.9162568824928,0.0,0.125,1.7407224780000001,0.11257301190591089,0.0,0.5899999737739563,0.75,119.91999816894531,-0.108154296875,-0.05328369140625,0.99517822265625,34.38999938964844,0.0,5.0,-1.333831787109375,-0.2430877685546875,Closing,0.0,0.0,-189.0,0.0,0.0,0.0,0.0,0.0,
1.511402000000002,0.0,0.0,21019.0,2.0,735.0,888.9434907631667,0.0,0.375,0.7531737510000001,0.035760022654472146,0.0,-26450.0,0.25,-907.5,-793.0126457534813,0.0,0.0,0.458984328,0.040345665773929985,0.0,2505.0,4.75,742.5,888.9434907631667,0.0,0.125,3.392333637,4.904580895108105,0.0,1.0,0.375,-1020.0,-793.0126457534813,0.0,0.25,1.621093584,4.917701232952545,0.0,0.3799999952316284,0.5199999809265137,124.23999786376953,0.0897216796875,-0.0804443359375,1.02020263671875,34.380001068115234,0.0,-117.0,-1.333221435546875,-0.2277374267578125,Closing,0.0,0.0,-189.0,0.0,0.0,0.0,0.0,0.0,
1.7098259999998846,0.0,0.0,21300.0,2.5,915.0,1029.822369318225,0.0,0.25,0.979003806,0.11526804299426499,0.0,-26715.0,0.125,-742.5,-678.2096029693221,0.0,0.25,0.6872557890000001,0.17699097061092697,0.0,2779.0,5.375,900.0,1029.822369318225,0.0,0.125,3.1640621760000003,4.824941512666556,0.0,-272.0,0.375,-750.0,-678.2096029693221,0.0,0.25,1.4233396980000002,4.781214767749317,0.0,0.3199999928474426,0.3100000023841858,123.08999633789062,-0.0927734375,0.065673828125,1.03900146484375,34.380001068115234,0.0,103.0,-1.3332977294921875,-0.2028350830078125,Closing,0.0,0.0,-189.0,0.0,0.0,0.0,0.0,0.0,
1.9155479999999516,0.0,0.0,21472.0,2.25,1102.5,1188.6402658677707,0.0,0.125,0.9985350540000001,0.17858165336280438,0.0,-26831.0,0.25,-607.5,-586.8028674910967,0.0,0.0,0.898437408,0.3748235283745567,0.0,2944.0,5.25,1072.5,1188.6402658677707,0.0,0.0,3.1054684320000003,4.7615232963866605,0.0,-467.0,1.0,-592.5,-586.8028674910967,0.0,0.25,1.2438963570000001,4.583612175084451,0.0,0.6299999952316284,0.25999999046325684,115.44999694824219,-0.0904541015625,0.00531005859375,1.07037353515625,34.380001068115234,0.0,35.0,-1.3243865966796875,-0.16973876953125,Closing,0.0,0.0,-189.0,0.0,0.0,0.0,0.0,0.0,
2.1138939999998545,0.0,0.0,21852.0,1.625,1237.5,1311.6535214568937,0.0,0.125,0.9985350540000001,0.2158111030685427,0.0,-27027.0,0.125,-577.5,-548.8014560676685,0.0,0.0,1.0827635610000002,0.5577772697752404,0.0,3313.0,5.625,1230.0,1311.6535214568937,0.0,0.0,3.120116868,4.72423233667552,0.0,-558.0,1.25,-555.0,-548.8014560676685,0.0,0.25,1.0559080950000002,4.400871103305422,0.0,0.8199999928474426,0.28999999165534973,105.94000244140625,-0.0826416015625,0.09173583984375,1.06439208984375,34.31999969482422,0.0,97.0,-1.3012237548828125,-0.162139892578125,Closing,0.0,0.0,-189.0,0.0,0.0,0.0,0.0,0.0,
2.3136089999999387,0.0,0.0,22268.0,0.5,1297.5,1206.7909648885345,0.0,0.125,0.9863280240000001,0.18461061529595807,0.0,-27202.0,1.0,-532.5,-579.2594575810464,0.0,0.25,1.021728411,0.40043284232341764,0.0,3709.0,4.125,1215.0,1206.7909648885345,0.0,0.0,3.134765304,4.755484373482179,0.0,-742.0,1.0,-600.0,-579.2594575810464,0.0,0.25,1.1096190270000001,4.558032629988999,0.0,1.2000000476837158,0.44999998807907104,93.41000366210938,-0.02606201171875,0.06427001953125,0.9012451171875,34.31999969482422,0.0,47.0,-1.25921630859375,-0.1597442626953125,Closing,0.0,0.0,-189.0,0.0,0.0,0.0,0.0,0.0,
2.5149779999998865,0.0,0.0,22472.0,0.375,1237.5,1144.459748192141,0.0,0.25,0.991210836,0.16299690998827543,0.0,-27287.0,1.25,-570.0,-607.7851445006751,0.0,0.25,0.806884683,0.31494623695727997,0.0,3920.0,2.75,1290.0,1144.459748192141,0.0,0.0,3.1542965520000004,4.777133788668485,0.0,-824.0,1.875,-510.0,-607.7851445006751,0.0,0.25,1.362304548,4.64341986376601,0.0,1.5700000524520874,0.5600000023841858,83.58000183105469,-0.07415771484375,0.03411865234375,1.13787841796875,34.310001373291016,0.0,-6.0,-1.2079925537109375,-0.1537933349609375,Closing,0.0,0.0,-189.0,0.0,0.0,0.0,0.0,0.0,
2.7125449999999254,0.0,0.0,22837.0,0.375,997.5,934.6766162270231,0.0,0.25,0.9326170920000001,0.06484712132597201,0.0,-27489.0,1.625,-697.5,-752.4736384083199,0.0,0.25,0.572509707,0.08111413510241153,0.0,4309.0,1.375,1110.0,934.6766162270231,0.0,0.125,3.2702633370000003,4.87544573911611,0.0,-1020.0,2.25,-705.0,-752.4736384083199,0.0,0.25,1.5808103850000002,4.87698015382708,0.0,1.7899999618530273,0.49000000953674316,77.04000091552734,7.9345703125E-4,-0.0015869140625,0.7208251953125,34.310001373291016,0.0,-24.0,-1.1612548828125,-0.1431121826171875,Closing,0.0,0.0,-189.0,0.0,0.0,0.0,0.0,0.0,
2.913773000000045,0.0,0.0,23135.0,0.125,870.0,779.5075432379986,0.0,0.25,0.7495116420000001,4.8793558703092605,0.0,-27735.0,2.25,-817.5,-903.7867503321429,0.0,0.0,0.45532221900000003,4.917865820309335,0.0,4619.0,1.75,870.0,779.5075432379986,0.0,0.125,3.402099261,0.05298252232583741,0.0,-1276.0,1.625,-907.5,-903.7867503321429,0.0,0.125,1.7065427940000002,0.045850819620231346,0.0,1.600000023841858,0.0,75.6500015258789,-0.0428466796875,0.02691650390625,0.9918212890625,34.310001373291016,0.0,-11.0,-1.162506103515625,-0.124176025390625,Closing,0.0,0.0,-189.0,0.0,0.0,0.0,0.0,0.0,
3.1137020000000484,0.0,0.0,23261.0,0.125,750.0,632.8536023964849,0.0,0.25,0.5566405680000001,4.6762601716065095,0.0,-27878.0,3.25,-967.5,-1099.3556248130878,0.0,0.0,0.373535118,4.817240892446714,0.0,4854.0,1.875,705.0,632.8536023964849,0.0,0.125,3.591308226,0.25641377306126634,0.0,-1581.0,3.0,-982.5,-1099.3556248130878,0.0,0.125,1.7846677860000002,0.14635877876073838,0.0,1.2799999713897705,-0.44999998807907104,78.48999786376953,0.0013427734375,0.0040283203125,1.19805908203125,34.27000045776367,0.0,-20.0,-1.1693878173828125,-0.092926025390625,Closing,0.0,0.0,-189.0,0.0,0.0,0.0,0.0,0.0,
3.3148249999999533,0.0,0.0,23473.0,0.375,652.5,621.6103333624745,0.0,0.125,0.45288081300000005,4.6521883612442805,0.0,-28211.0,2.125,-1087.5,-1118.7984083880613,0.0,0.0,0.33569332500000004,4.809493678182952,0.0,4951.0,2.5,600.0,621.6103333624745,0.0,0.125,3.702392199,0.2805253545508447,0.0,-1753.0,2.0,-1087.5,-1118.7984083880613,0.0,0.25,1.8371580150000002,0.1540969874851017,0.0,1.0,-0.6700000166893005,84.29000091552734,-0.03704833984375,0.01129150390625,0.9228515625,34.27000045776367,0.0,-7.0,-1.181243896484375,-0.06829833984375,Closing,0.0,0.0,-189.0,0.0,0.0,0.0,0.0,0.0,
3.5109109999998473,0.0,0.0,23657.0,1.5,555.0,677.4047803743097,0.0,0.375,0.560302677,4.755146415905236,0.0,-28563.0,0.875,-1080.0,-1030.9605271798705,0.0,0.0,0.364990197,4.847226447455317,0.0,5141.0,3.375,592.5,677.4047803743097,0.0,0.125,3.5876461170000002,0.1773971939509509,0.0,-2094.0,1.875,-1012.5,-1030.9605271798705,0.0,0.25,1.7651365380000001,0.11640807964843937,0.0,0.4399999976158142,-0.8399999737739563,93.7300033569336,-0.02655029296875,-0.1175537109375,1.29052734375,34.279998779296875,0.0,-126.0,-1.2114105224609375,-0.05755615234375,Closing,0.0,0.0,-189.0,0.0,0.0,0.0,0.0,0.0,
3.714023999999976,0.0,0.0,23756.0,0.75,675.0,673.6050196008536,0.0,0.125,0.716552661,4.749228186815084,0.0,-28732.0,1.375,-1027.5,-1036.3732869620383,0.0,0.0,0.40283199000000003,4.844682839275644,0.0,5243.0,2.375,712.5,673.6050196008536,0.0,0.0,3.449706678,0.18332520106108974,0.0,-2439.0,1.375,-1057.5,-1036.3732869620383,0.0,0.125,1.7077634970000002,0.11894873107967448,0.0,0.2199999988079071,-0.4699999988079071,98.3499984741211,-0.06903076171875,-0.0054931640625,1.19903564453125,34.279998779296875,0.0,-1.0,-1.215667724609375,-0.059356689453125,Closing,0.0,0.0,-189.0,0.0,0.0,0.0,0.0,0.0,
3.914774999999907,0.0,0.0,24000.0,2.625,832.5,1073.5070442895187,0.0,0.375,0.845947179,0.1348612996401141,0.0,-29030.0,0.0,-780.0,-648.793595281184,0.0,0.25,0.557861271,0.2265599234840029,0.0,5486.0,5.625,817.5,1073.5070442895187,0.0,0.125,3.281249664,4.805315884300693,0.0,-2586.0,0.625,-802.5,-648.793595281184,0.0,0.25,1.4794920360000001,4.731703434963005,0.0,0.0,-0.3100000023841858,100.5999984741211,-0.00579833984375,-0.10498046875,0.7772216796875,34.279998779296875,0.0,-102.0,-1.2203369140625,-0.0613555908203125,Closing,0.0,0.0,-189.0,0.0,0.0,0.0,0.0,0.0,
4.112331999999936,0.0,0.0,24326.0,3.25,1125.0,1295.1794743414289,0.0,0.25,1.075439343,0.21128035134428708,0.0,-29266.0,0.125,-607.5,-552.0536339316707,0.0,0.25,1.099853403,0.532205385497776,0.0,5819.0,4.875,1147.5,1295.1794743414289,0.0,0.125,3.0578610150000003,4.728770574047973,0.0,-2815.0,0.75,-592.5,-552.0536339316707,0.0,0.25,1.0083006780000001,4.4264132622385866,0.0,0.3199999928474426,-0.44999998807907104,95.26000213623047,-0.05078125,0.1068115234375,1.0762939453125,34.290000915527344,0.0,104.0,-1.2194976806640625,-0.0604705810546875,Closing,0.0,0.0,-189.0,0.0,0.0,0.0,0.0,0.0,
4.262506999999983,0.0,0.0,24529.0,3.125,1297.5,1420.1051375508184,0.0,0.25,1.104736215,0.24277377031436773,0.0,-29364.0,0.125,-607.5,-542.1489572732439,0.0,0.25,1.326904161,0.7289574307083561,0.0,6013.0,6.375,1260.0,1420.1051375508184,0.0,0.0,3.0578610150000003,4.69722512206676,0.0,-2898.0,1.625,-510.0,-542.1489572732439,0.0,0.25,0.808105386,4.229889926114217,0.0,0.8899999856948853,-0.27000001072883606,86.0199966430664,-0.120361328125,-0.05267333984375,0.779052734375,34.290000915527344,0.0,-72.0,-1.2029571533203125,-0.0592193603515625,Closing,0.0,0.0,-189.0,0.0,0.0,0.0,0.0,0.0,
4.454722999999998,0.0,0.0,24902.0,0.375,1035.0,NaN,0.0,0.125,1.104736215,NaN,0.0,-29489.0,0.125,-240.0,NaN,0.0,0.0,1.442870946,NaN,0.0,6354.0,0.0,810.0,NaN,0.0,0.0,3.1091305410000003,NaN,0.0,-3044.0,0.125,-367.5,NaN,0.0,0.125,0.679931571,NaN,0.0,1.3300000429153442,-1.0499999523162842,71.7300033569336,-0.234375,0.0814208984375,1.29180908203125,34.290000915527344,0.0,-17.0,-1.163543701171875,-0.0440673828125,Closing,0.0,0.0,-189.0,0.0,0.0,0.0,0.0,0.0,
4.654787999999942,0.0,0.0,25038.0,5.0,862.5,1578.027835461754,0.0,0.125,1.1132811360000001,0.2749084334262444,0.0,-29544.0,1.0,-435.0,-576.3923581275964,0.0,0.25,1.442870946,0.9642772948861111,0.0,6478.0,10.0,892.5,1578.027835461754,0.0,0.125,3.077392263,4.665037366488645,0.0,-3091.0,1.625,-382.5,-576.3923581275964,0.0,0.25,0.664062432,3.9948436031392793,0.0,1.4199999570846558,-1.1399999856948853,64.47000122070312,-0.01123046875,-0.04119873046875,1.4610595703125,34.2599983215332,0.0,-62.0,-1.1265869140625,0.00836181640625,Closing,0.0,0.0,-189.0,0.0,0.0,0.0,0.0,0.0,
4.851266999999993,0.0,0.0,25343.0,7.0,1147.5,1578.027835461754,0.0,0.125,1.1071776210000002,0.2749084334262444,0.0,-29664.0,2.375,-397.5,-576.3923581275964,0.0,0.125,1.4477537580000002,0.9642772948861111,0.0,6712.0,22.0,487.5,1578.027835461754,0.0,0.0,3.07617156,4.665037366488645,0.0,-3211.0,2.25,-420.0,-576.3923581275964,0.0,0.125,0.664062432,3.9948436031392793,0.0,1.6299999952316284,0.49000000953674316,53.31999969482422,-0.04425048828125,0.02313232421875,1.15167236328125,34.2599983215332,0.0,-40.0,-1.0746917724609375,0.0430908203125,Closing,0.0,0.0,-189.0,0.0,0.0,0.0,0.0,0.0,
5.04507799999998,0.0,0.0,25573.0,2.25,1575.0,1578.027835461754,0.0,0.125,1.104736215,0.2749084334262444,0.0,-29744.0,1.25,-525.0,-576.3923581275964,0.0,0.125,1.4477537580000002,0.9642772948861111,0.0,6773.0,39.25,420.0,1578.027835461754,0.0,0.0,3.077392263,4.665037366488645,0.0,-3295.0,0.625,-607.5,-576.3923581275964,0.0,0.125,0.635986263,3.9948436031392793,0.0,1.5,1.9199999570846558,37.599998474121094,0.0350341796875,0.04986572265625,1.0999755859375,34.2599983215332,0.0,11.0,-1.012664794921875,0.0672760009765625,Closing,0.0,0.0,-189.0,0.0,0.0,0.0,0.0,0.0,
5.25029700000002,0.0,0.0,26128.0,0.125,1807.5,1578.027835461754,0.0,0.125,1.104736215,0.2749084334262444,0.0,-29920.0,1.125,-570.0,-576.3923581275964,0.0,0.125,1.4489744610000002,0.9642772948861111,0.0,7117.0,27.25,1905.0,1578.027835461754,0.0,0.0,3.07617156,4.665037366488645,0.0,-3519.0,0.125,-840.0,-576.3923581275964,0.0,0.25,0.631103451,3.9948436031392793,0.0,1.4900000095367432,2.690000057220459,14.859999656677246,-0.01080322265625,0.15179443359375,1.2412109375,34.27000045776367,0.0,-36.0,-0.9172821044921875,0.1097259521484375,Closing,0.0,0.0,-189.0,0.0,0.0,0.0,0.0,0.0,
5.396096999999834,0.0,0.0,26433.0,0.0,1860.0,1500.6823022048616,0.0,0.25,1.104736215,0.260078396687679,0.0,-30014.0,0.875,-585.0,-553.5116981387984,0.0,0.25,1.408691262,0.8531361662600743,0.0,7443.0,13.75,1980.0,1500.6823022048616,0.0,0.0,3.077392263,4.679891905218163,0.0,-3654.0,0.125,-832.5,-553.5116981387984,0.0,0.25,0.729980394,4.105855538770441,0.0,1.5099999904632568,2.809999942779541,-1.659999966621399,-0.13763427734375,0.28375244140625,1.20477294921875,34.27000045776367,0.0,-203.0,-0.8487701416015625,0.1629638671875,Closing,0.0,0.0,-189.0,0.0,0.0,0.0,0.0,0.0,
5.535209000000032,0.0,0.0,26905.0,7.25,1275.0,NaN,0.0,0.125,1.127929572,NaN,0.0,-30151.0,0.125,-262.5,NaN,0.0,0.0,1.3757322810000001,NaN,0.0,7986.0,0.0,1342.5,NaN,0.0,0.0,3.07617156,NaN,0.0,-3878.0,1.25,-577.5,NaN,0.0,0.125,0.75683586,NaN,0.0,1.6299999952316284,1.3200000524520874,-14.09000015258789,-0.52459716796875,0.0584716796875,0.80670166015625,34.27000045776367,0.0,-535.0,-0.8030242919921875,0.2341461181640625,Closing,0.0,0.0,-189.0,0.0,0.0,0.0,0.0,0.0,
5.709851999999955,0.0,0.0,26989.0,4.375,495.0,NaN,0.0,0.125,1.127929572,NaN,0.0,-30189.0,0.0,-180.0,NaN,0.0,0.0,1.3757322810000001,NaN,0.0,8106.0,0.5,645.0,NaN,0.0,0.0,3.077392263,NaN,0.0,-3917.0,0.5,-135.0,NaN,0.0,0.125,0.7653807810000001,NaN,0.0,1.5199999809265137,-0.5799999833106995,-18.850000381469727,-0.20465087890625,-0.05792236328125,1.0318603515625,34.209999084472656,0.0,-155.0,-0.808685302734375,0.2362060546875,Closing,0.0,0.0,-189.0,0.0,0.0,0.0,0.0,0.0,
5.86656799999997,0.0,0.0,27002.0,1.375,0.0,NaN,0.0,0.125,1.127929572,NaN,0.0,-30198.0,0.0,-7.5,NaN,0.0,0.0,1.3757322810000001,NaN,0.0,8142.0,3.875,0.0,NaN,0.0,0.0,3.078612966,NaN,0.0,-3924.0,0.375,0.0,NaN,0.0,0.125,0.7519530480000001,NaN,0.0,1.3600000143051147,-0.6399999856948853,-18.809999465942383,5.4931640625E-4,0.01361083984375,1.00482177734375,34.209999084472656,0.0,14.0,-0.8294525146484375,0.222564697265625,Closing,0.0,0.0,-189.0,0.0,0.0,0.0,0.0,0.0,
6.013456000000006,0.0,0.0,27001.0,1.5,0.0,NaN,0.0,0.125,1.127929572,NaN,0.0,-30198.0,0.0,0.0,NaN,0.0,0.0,1.3745115780000001,NaN,0.0,8142.0,4.625,0.0,NaN,0.0,0.0,3.077392263,NaN,0.0,-3924.0,0.375,0.0,NaN,0.0,0.125,0.75683586,NaN,0.0,1.1699999570846558,-0.6600000262260437,-18.809999465942383,-0.035400390625,-0.017822265625,1.0283203125,34.209999084472656,0.0,-9.0,-0.82952880859375,0.2105712890625,Closing,0.0,0.0,-189.0,0.0,0.0,0.0,0.0,0.0,
6.190220999999903,0.0,0.0,27001.0,1.5,0.0,NaN,0.0,0.125,1.127929572,NaN,0.0,-30198.0,0.0,0.0,NaN,0.0,0.0,1.3757322810000001,NaN,0.0,8142.0,4.75,0.0,NaN,0.0,0.0,3.077392263,NaN,0.0,-3924.0,0.375,0.0,NaN,0.0,0.125,0.75683586,NaN,0.0,1.0199999809265137,-0.6499999761581421,-18.809999465942383,-0.01885986328125,-0.01983642578125,1.03271484375,34.22999954223633,0.0,25.0,-0.8289947509765625,0.209136962890625,Closing,0.0,0.0,-189.0,0.0,0.0,0.0,0.0,0.0,
6.3650419999998995,0.0,0.0,27001.0,1.5,0.0,NaN,0.0,0.125,1.129150275,NaN,0.0,-30198.0,0.0,0.0,NaN,0.0,0.0,1.3745115780000001,NaN,0.0,8142.0,4.75,0.0,NaN,0.0,0.0,3.077392263,NaN,0.0,-3924.0,0.375,0.0,NaN,0.0,0.125,0.75683586,NaN,0.0,0.8500000238418579,-0.5899999737739563,-18.81999969482422,-0.0106201171875,0.00872802734375,1.02838134765625,34.22999954223633,0.0,2.0,-0.828399658203125,0.2084808349609375,Closing,0.0,0.0,-189.0,0.0,0.0,0.0,0.0,0.0,
6.526804999999935,0.0,0.0,27001.0,1.5,0.0,NaN,0.0,0.125,1.1328123840000002,NaN,0.0,-30198.0,0.0,0.0,NaN,0.0,0.0,1.3757322810000001,NaN,0.0,8142.0,4.75,0.0,NaN,0.0,0.0,3.07617156,NaN,0.0,-3924.0,0.375,0.0,NaN,0.0,0.125,0.758056563,NaN,0.0,0.75,-0.5799999833106995,-18.81999969482422,-0.01788330078125,0.0028076171875,1.02789306640625,34.22999954223633,0.0,-3.0,-0.8282623291015625,0.208038330078125,Closing,0.0,0.0,-189.0,0.0,0.0,0.0,0.0,0.0,
6.711662999999942,0.0,0.0,27001.0,1.5,0.0,NaN,0.0,0.125,1.127929572,NaN,0.0,-30198.0,0.0,0.0,NaN,0.0,0.0,1.3757322810000001,NaN,0.0,8142.0,4.75,0.0,NaN,0.0,0.0,3.077392263,NaN,0.0,-3924.0,0.375,0.0,NaN,0.0,0.125,0.75683586,NaN,0.0,0.6100000143051147,-0.550000011920929,-18.829999923706055,-0.00384521484375,-0.00262451171875,1.01837158203125,34.2599983215332,0.0,10.0,-0.8282623291015625,0.2077484130859375,Closing,0.0,0.0,-189.0,0.0,0.0,0.0,0.0,0.0,
6.897113999999827,0.0,0.0,27001.0,1.5,0.0,NaN,0.0,0.125,1.127929572,NaN,0.0,-30198.0,0.0,0.0,NaN,0.0,0.0,1.3757322810000001,NaN,0.0,8142.0,4.75,0.0,NaN,0.0,0.0,3.07617156,NaN,0.0,-3924.0,0.375,0.0,NaN,0.0,0.125,0.7629393750000001,NaN,0.0,0.5299999713897705,-0.5400000214576721,-18.829999923706055,-0.0125732421875,-6.7138671875E-4,1.02801513671875,34.2599983215332,0.0,0.0,-0.8282623291015625,0.2077484130859375,Closing,0.0,0.0,-189.0,0.0,0.0,0.0,0.0,0.0,
7.118423999999883,0.0,0.0,27001.0,1.5,0.0,NaN,0.0,0.125,1.1364744930000001,NaN,0.0,-30198.0,0.0,0.0,NaN,0.0,0.0,1.3757322810000001,NaN,0.0,8142.0,4.75,0.0,NaN,0.0,0.0,3.07617156,NaN,0.0,-3924.0,0.375,0.0,NaN,0.0,0.125,0.75683586,NaN,0.0,0.41999998688697815,-0.5099999904632568,-18.829999923706055,-0.01287841796875,0.001220703125,1.019775390625,34.2599983215332,0.0,-1.0,-0.8282623291015625,0.2077484130859375,Closing,0.0,0.0,-189.0,0.0,0.0,0.0,0.0,0.0,
7.3171689999999945,0.0,0.0,27120.0,4.5,495.0,1578.027835461754,0.0,0.25,1.1083983240000002,0.2749084334262444,0.0,-30255.0,2.375,-285.0,-576.3923581275964,0.0,0.25,1.411132668,0.9642772948861111,0.0,8176.0,48.0,150.0,1578.027835461754,0.0,0.0,3.07617156,4.665037366488645,0.0,-3949.0,0.375,-120.0,-576.3923581275964,0.0,0.25,0.728759691,3.9948436031392793,0.0,0.36000001430511475,0.9900000095367432,-21.700000762939453,0.34930419921875,-0.05499267578125,0.868896484375,34.2599983215332,0.0,332.0,-0.8131256103515625,0.21075439453125,Closing,0.0,0.0,-189.0,0.0,0.0,0.0,0.0,0.0,
7.511856999999844,0.0,0.0,27279.0,0.125,1020.0,1061.856959994559,0.0,0.25,1.041259659,0.1298216718452004,0.0,-30318.0,3.75,-435.0,-656.3388183943097,0.0,0.875,1.105956918,0.21298242973204964,0.0,8303.0,24.375,982.5,1061.856959994559,0.0,0.125,3.135986007,4.8103638385021315,0.0,-4007.0,0.375,-450.0,-656.3388183943097,0.0,1.375,1.1328123840000002,4.745265145925073,0.0,0.4399999976158142,1.9700000286102295,-32.70000076293945,0.10308837890625,0.12689208984375,1.15765380859375,34.2599983215332,0.0,-10.0,-0.763916015625,0.2249755859375,Closing,0.0,0.0,-189.0,0.0,0.0,0.0,0.0,0.0,
7.71102099999995,0.0,0.0,27672.0,0.125,1177.5,1209.2415225303062,0.0,0.125,0.9338377950000001,0.1854089747132961,0.0,-30487.0,1.875,-607.5,-578.290438864199,0.0,0.0,0.5175780720000001,0.4039330372834479,0.0,8711.0,20.5,1192.5,1209.2415225303062,0.0,0.0,3.2067867810000004,4.75468469502595,0.0,-4175.0,0.125,-570.0,-578.290438864199,0.0,0.25,1.750488102,4.554536503735802,0.0,0.25999999046325684,2.0199999809265137,-41.66999816894531,-0.0577392578125,-0.0579833984375,1.00384521484375,34.290000915527344,0.0,-27.0,-0.70501708984375,0.2544708251953125,Closing,0.0,0.0,-189.0,0.0,0.0,0.0,0.0,0.0,
7.912416999999899,0.0,0.0,27994.0,0.5,990.0,1161.483923820417,0.0,0.25,0.955810449,0.1691620384116479,0.0,-30702.0,0.5,-667.5,-599.2689713053499,0.0,0.25,0.760497969,0.3375929657760177,0.0,9049.0,25.0,1080.0,1161.483923820417,0.0,0.125,3.2031246720000004,4.770958474301307,0.0,-4377.0,0.125,-645.0,-599.2689713053499,0.0,0.25,1.119384651,4.620799460023833,0.0,0.12999999523162842,1.809999942779541,-46.04999923706055,-0.05322265625,-0.01678466796875,1.1226806640625,34.290000915527344,0.0,-47.0,-0.66339111328125,0.278778076171875,Closing,0.0,0.0,-189.0,0.0,0.0,0.0,0.0,0.0,
8.174639999999897,0.0,0.0,28405.0,0.75,1425.0,1578.027835461754,0.0,0.25,1.01318349,0.2749084334262444,0.0,-30884.0,2.0,-495.0,-576.3923581275964,0.0,0.5,1.564941246,0.9642772948861111,0.0,9440.0,31.125,1177.5,1578.027835461754,0.0,0.125,3.082275075,4.665037366488645,0.0,-4545.0,0.125,-502.5,-576.3923581275964,0.0,0.25,0.47241206100000005,3.9948436031392793,0.0,0.25,1.3700000047683716,-59.720001220703125,-0.05133056640625,0.10296630859375,1.0765380859375,34.22999954223633,0.0,-123.0,-0.64166259765625,0.29443359375,Closing,0.0,0.0,-189.0,0.0,0.0,0.0,0.0,0.0,
8.35381799999997,0.0,0.0,28629.0,0.75,1477.5,1578.027835461754,0.0,0.25,1.075439343,0.2749084334262444,0.0,-30965.0,2.125,-532.5,-576.3923581275964,0.0,0.25,1.853027154,0.9642772948861111,0.0,9655.0,27.375,1545.0,1578.027835461754,0.0,0.0,2.994384459,4.665037366488645,0.0,-4636.0,0.125,-637.5,-576.3923581275964,0.0,0.25,0.5419921320000001,3.9948436031392793,0.0,0.18000000715255737,1.440000057220459,-76.62000274658203,-0.01617431640625,0.1630859375,1.18939208984375,34.22999954223633,0.0,-165.0,-0.642547607421875,0.2946624755859375,Closing,0.0,0.0,-189.0,0.0,0.0,0.0,0.0,0.0,
8.575736000000033,0.0,0.0,29100.0,4.5,1177.5,NaN,0.0,0.125,1.102294809,NaN,0.0,-31103.0,0.0,-187.5,NaN,0.0,0.0,1.8139646580000002,NaN,0.0,10201.0,0.375,1275.0,NaN,0.0,0.0,2.993163756,NaN,0.0,-4857.0,1.125,-540.0,NaN,0.0,0.125,0.7263182850000001,NaN,0.0,0.6200000047683716,0.7400000095367432,-95.33000183105469,-0.461669921875,0.046875,0.69573974609375,34.22999954223633,0.0,4.0,-0.67352294921875,0.2940673828125,Closing,0.0,0.0,-189.0,0.0,0.0,0.0,0.0,0.0,
8.781818999999901,0.0,0.0,29331.0,3.25,765.0,1578.027835461754,0.0,0.125,1.104736215,0.2749084334262444,0.0,-31199.0,3.5,-390.0,-576.3923581275964,0.0,0.875,1.674804516,0.9642772948861111,0.0,10453.0,30.125,705.0,1578.027835461754,0.0,0.125,2.994384459,4.665037366488645,0.0,-4938.0,0.125,-165.0,-576.3923581275964,0.0,0.25,0.715331958,3.9948436031392793,0.0,0.9800000190734863,0.20999999344348907,-101.80999755859375,0.260498046875,0.091552734375,0.89263916015625,34.220001220703125,0.0,-127.0,-0.677032470703125,0.2489166259765625,Closing,0.0,0.0,-189.0,0.0,0.0,0.0,0.0,0.0,
8.97979299999983,0.0,0.0,29495.0,2.25,1237.5,1573.171961928544,0.0,0.125,1.104736215,0.2740232167862006,0.0,-31263.0,3.0,-480.0,-574.6388561487526,0.0,0.25,1.3952635290000002,0.9576000272732469,0.0,10595.0,31.0,1177.5,1573.171961928544,0.0,0.125,2.9992672710000003,4.665924045671937,0.0,-4983.0,0.125,-427.5,-574.6388561487526,0.0,0.125,0.6481932930000001,4.001513108943251,0.0,0.7699999809265137,1.5499999523162842,-113.62000274658203,0.195556640625,0.1029052734375,1.0635986328125,34.220001220703125,0.0,-147.0,-0.6964111328125,0.2248382568359375,Closing,0.0,0.0,-189.0,0.0,0.0,0.0,0.0,0.0,
9.135626999999863,0.0,0.0,29950.0,0.125,1410.0,1276.9219125813047,0.0,0.25,1.0852049670000001,0.2061078157091415,0.0,-31425.0,3.125,-510.0,-556.3379964928005,0.0,0.25,1.070556531,0.504168336744612,0.0,11065.0,14.0,1620.0,1276.9219125813047,0.0,0.125,3.081054372,4.73395165567822,0.0,-5163.0,0.125,-637.5,-556.3379964928005,0.0,0.625,0.9997557570000001,4.45441772008377,0.0,0.6200000047683716,1.9500000476837158,-126.4800033569336,0.08197021484375,0.03839111328125,1.20477294921875,34.220001220703125,0.0,-44.0,-0.7227325439453125,0.2184906005859375,Closing,0.0,0.0,-189.0,0.0,0.0,0.0,0.0,0.0,
9.287209999999963,0.0,0.0,30134.0,4.375,1140.0,NaN,0.0,0.125,1.0595702040000001,NaN,0.0,-31479.0,0.0,-337.5,NaN,0.0,0.0,0.810546792,NaN,0.0,11271.0,0.375,1297.5,NaN,0.0,0.0,3.12499968,NaN,0.0,-5256.0,1.125,-547.5,NaN,0.0,0.125,1.37939439,NaN,0.0,0.7200000286102295,0.699999988079071,-136.1199951171875,-0.37939453125,-0.003173828125,1.2381591796875,34.22999954223633,0.0,297.0,-0.755615234375,0.1973419189453125,Closing,0.0,0.0,-189.0,0.0,0.0,0.0,0.0,0.0,
9.448756000000053,0.0,0.0,30229.0,2.75,412.5,NaN,0.0,0.125,1.0607909070000001,NaN,0.0,-31539.0,0.0,-210.0,NaN,0.0,0.0,0.8056639800000001,NaN,0.0,11406.0,0.5,570.0,NaN,0.0,0.0,3.12499968,NaN,0.0,-5313.0,1.0,-172.5,NaN,0.0,0.125,1.387939311,NaN,0.0,0.5799999833106995,-1.159999966621399,-138.85000610351562,-0.1932373046875,0.03155517578125,1.09173583984375,34.22999954223633,0.0,115.0,-0.7548065185546875,0.1338348388671875,Closing,0.0,0.0,-189.0,0.0,0.0,0.0,0.0,0.0,
9.615119999999878,0.0,0.0,30258.0,0.75,7.5,NaN,0.0,0.125,1.0607909070000001,NaN,0.0,-31566.0,0.0,-37.5,NaN,0.0,0.0,0.8056639800000001,NaN,0.0,11458.0,3.5,30.0,NaN,0.0,0.0,3.12499968,NaN,0.0,-5333.0,0.625,0.0,NaN,0.0,0.125,1.386718608,NaN,0.0,0.49000000953674316,-1.3899999856948853,-138.9499969482422,0.0369873046875,0.01104736328125,0.98529052734375,34.22999954223633,0.0,-47.0,-0.7432861328125,0.069305419921875,Closing,0.0,0.0,-189.0,0.0,0.0,0.0,0.0,0.0,
9.768500999999931,0.0,0.0,30259.0,0.625,0.0,NaN,0.0,0.125,1.0607909070000001,NaN,0.0,-31570.0,0.0,-7.5,NaN,0.0,0.0,0.8044432770000001,NaN,0.0,11458.0,4.125,0.0,NaN,0.0,0.0,3.126220383,NaN,0.0,-5333.0,0.625,0.0,NaN,0.0,0.125,1.387939311,NaN,0.0,0.4399999976158142,-1.3799999952316284,-138.9499969482422,0.00701904296875,0.0142822265625,1.04193115234375,34.18000030517578,0.0,-28.0,-0.7435455322265625,0.06317138671875,Closing,0.0,0.0,-189.0,0.0,0.0,0.0,0.0,0.0,
9.929606999999844,0.0,0.0,30259.0,0.625,0.0,NaN,0.0,0.125,1.0607909070000001,NaN,0.0,-31573.0,0.0,-45.0,NaN,0.0,0.0,0.8056639800000001,NaN,0.0,11458.0,4.375,0.0,NaN,0.0,0.0,3.12499968,NaN,0.0,-5333.0,0.625,0.0,NaN,0.0,0.125,1.387939311,NaN,0.0,0.38999998569488525,-1.3200000524520874,-138.9499969482422,-0.010009765625,-0.0032958984375,1.02056884765625,34.18000030517578,0.0,-3.0,-0.7441558837890625,0.06317138671875,Closing,0.0,0.0,-189.0,0.0,0.0,0.0,0.0,0.0,
10.09071399999992,0.0,0.0,30259.0,0.75,0.0,NaN,0.0,0.125,1.054687392,NaN,0.0,-31577.0,0.0,0.0,NaN,0.0,0.0,0.8007811680000001,NaN,0.0,11458.0,4.375,0.0,NaN,0.0,0.0,3.132323898,NaN,0.0,-5333.0,0.625,0.0,NaN,0.0,0.125,1.387939311,NaN,0.0,0.3400000035762787,-1.2799999713897705,-138.9499969482422,-0.011474609375,-0.00299072265625,1.02197265625,34.18000030517578,0.0,-2.0,-0.744049072265625,0.0632476806640625,Closing,0.0,0.0,-189.0,0.0,0.0,0.0,0.0,0.0,
10.232983000000008,0.0,0.0,30259.0,0.75,0.0,NaN,0.0,0.125,1.0607909070000001,NaN,0.0,-31578.0,0.0,0.0,NaN,0.0,0.0,0.8044432770000001,NaN,0.0,11458.0,4.375,0.0,NaN,0.0,0.0,3.126220383,NaN,0.0,-5333.0,0.625,0.0,NaN,0.0,0.125,1.387939311,NaN,0.0,0.28999999165534973,-1.25,-138.9499969482422,-0.02374267578125,6.103515625E-5,1.023193359375,34.220001220703125,0.0,4.0,-0.744049072265625,0.063323974609375,Closing,0.0,0.0,-189.0,0.0,0.0,0.0,0.0,0.0,
10.411977999999886,0.0,0.0,30259.0,0.75,0.0,NaN,0.0,0.125,1.0607909070000001,NaN,0.0,-31578.0,0.0,0.0,NaN,0.0,0.0,0.8056639800000001,NaN,0.0,11458.0,4.375,0.0,NaN,0.0,0.0,3.126220383,NaN,0.0,-5333.0,0.625,0.0,NaN,0.0,0.125,1.387939311,NaN,0.0,0.23999999463558197,-1.2200000286102295,-138.9600067138672,-0.01324462890625,-0.00341796875,1.0245361328125,34.220001220703125,0.0,-1.0,-0.744049072265625,0.063323974609375,Closing,0.0,0.0,-189.0,0.0,0.0,0.0,0.0,0.0,
10.572373999999837,0.0,0.0,30259.0,0.625,0.0,NaN,0.0,0.125,1.0607909070000001,NaN,0.0,-31578.0,0.0,0.0,NaN,0.0,0.0,0.8044432770000001,NaN,0.0,11458.0,4.375,0.0,NaN,0.0,0.0,3.12499968,NaN,0.0,-5333.0,0.625,0.0,NaN,0.0,0.125,1.387939311,NaN,0.0,0.20999999344348907,-1.1799999475479126,-138.9600067138672,-0.014892578125,8.544921875E-4,1.020751953125,34.220001220703125,0.0,-2.0,-0.744049072265625,0.063323974609375,Closing,0.0,0.0,-189.0,0.0,0.0,0.0,0.0,0.0,
10.727584000000032,0.0,0.0,30259.0,0.75,0.0,NaN,0.0,0.125,1.0607909070000001,NaN,0.0,-31578.0,0.0,0.0,NaN,0.0,0.0,0.8056639800000001,NaN,0.0,11458.0,4.375,0.0,NaN,0.0,0.0,3.12499968,NaN,0.0,-5333.0,0.625,0.0,NaN,0.0,0.125,1.389160014,NaN,0.0,0.1899999976158142,-1.159999966621399,-138.9600067138672,-0.01800537109375,-0.004638671875,1.0189208984375,34.189998626708984,0.0,3.0,-0.744049072265625,0.063323974609375,Closing,0.0,0.0,-189.0,0.0,0.0,0.0,0.0,0.0,
10.879844999999973,0.0,0.0,30259.0,0.75,0.0,NaN,0.0,0.125,1.0607909070000001,NaN,0.0,-31578.0,0.0,0.0,NaN,0.0,0.0,0.8056639800000001,NaN,0.0,11458.0,4.375,0.0,NaN,0.0,0.0,3.123778977,NaN,0.0,-5333.0,0.625,0.0,NaN,0.0,0.125,1.387939311,NaN,0.0,0.1599999964237213,-1.1299999952316284,-138.9600067138672,-0.0166015625,0.00189208984375,1.0235595703125,34.189998626708984,0.0,-2.0,-0.744049072265625,0.063323974609375,Closing,0.0,0.0,-189.0,0.0,0.0,0.0,0.0,0.0,
11.064311999999918,0.0,0.0,30259.0,0.75,0.0,NaN,0.0,0.125,1.0607909070000001,NaN,0.0,-31578.0,0.0,0.0,NaN,0.0,0.0,0.8044432770000001,NaN,0.0,11458.0,4.375,0.0,NaN,0.0,0.0,3.12499968,NaN,0.0,-5333.0,0.625,0.0,NaN,0.0,0.125,1.387939311,NaN,0.0,0.14000000059604645,-1.1100000143051147,-138.97000122070312,-0.0159912109375,-6.103515625E-4,1.0257568359375,34.189998626708984,0.0,0.0,-0.744049072265625,0.063323974609375,Closing,0.0,0.0,-189.0,0.0,0.0,0.0,0.0,0.0,
11.209220999999904,0.0,0.0,30259.0,0.75,0.0,NaN,0.0,0.125,1.087646373,NaN,0.0,-31578.0,0.0,0.0,NaN,0.0,0.0,0.8056639800000001,NaN,0.0,11458.0,4.5,0.0,NaN,0.0,0.0,3.12499968,NaN,0.0,-5333.0,0.625,0.0,NaN,0.0,0.125,1.387939311,NaN,0.0,0.11999999731779099,-1.090000033378601,-138.97000122070312,-0.017333984375,-0.0025634765625,1.02008056640625,34.189998626708984,0.0,1.0,-0.744049072265625,0.063323974609375,Closing,0.0,0.0,-189.0,0.0,0.0,0.0,0.0,0.0,
11.386871000000044,0.0,0.0,30259.0,0.75,0.0,NaN,0.0,0.125,1.0607909070000001,NaN,0.0,-31578.0,0.0,0.0,NaN,0.0,0.0,0.810546792,NaN,0.0,11458.0,4.5,0.0,NaN,0.0,0.0,3.12499968,NaN,0.0,-5333.0,0.625,0.0,NaN,0.0,0.125,1.387939311,NaN,0.0,0.10000000149011612,-1.0800000429153442,-138.97000122070312,-0.0146484375,0.0018310546875,1.02056884765625,34.189998626708984,0.0,-3.0,-0.744049072265625,0.063323974609375,Closing,0.0,0.0,-189.0,0.0,0.0,0.0,0.0,0.0,
11.53167799999984,0.0,0.0,30259.0,0.75,0.0,NaN,0.0,0.125,1.0607909070000001,NaN,0.0,-31578.0,0.0,0.0,NaN,0.0,0.0,0.8056639800000001,NaN,0.0,11458.0,4.5,0.0,NaN,0.0,0.0,3.12499968,NaN,0.0,-5333.0,0.625,0.0,NaN,0.0,0.125,1.389160014,NaN,0.0,0.07999999821186066,-1.0700000524520874,-138.97000122070312,-0.01556396484375,6.103515625E-5,1.0252685546875,34.189998626708984,0.0,-1.0,-0.744049072265625,0.063323974609375,Closing,0.0,0.0,-189.0,0.0,0.0,0.0,0.0,0.0,
11.69409999999986,0.0,0.0,30259.0,0.75,0.0,NaN,0.0,0.125,1.06201161,NaN,0.0,-31578.0,0.0,0.0,NaN,0.0,0.0,0.808105386,NaN,0.0,11458.0,4.5,0.0,NaN,0.0,0.0,3.12499968,NaN,0.0,-5333.0,0.625,0.0,NaN,0.0,0.125,1.387939311,NaN,0.0,0.05999999865889549,-1.059999942779541,-138.97000122070312,-0.0164794921875,-0.00140380859375,1.01678466796875,34.189998626708984,0.0,0.0,-0.744049072265625,0.063323974609375,Closing,0.0,0.0,-189.0,0.0,0.0,0.0,0.0,0.0,
11.844393999999856,0.0,0.0,30259.0,0.75,0.0,NaN,0.0,0.125,1.0595702040000001,NaN,0.0,-31578.0,0.0,0.0,NaN,0.0,0.0,0.806884683,NaN,0.0,11458.0,4.5,0.0,NaN,0.0,0.0,3.126220383,NaN,0.0,-5333.0,0.625,0.0,NaN,0.0,0.125,1.389160014,NaN,0.0,0.05999999865889549,-1.0399999618530273,-138.97000122070312,-0.01824951171875,-0.00152587890625,1.02264404296875,34.2400016784668,0.0,1.0,-0.744049072265625,0.063323974609375,Closing,0.0,0.0,-189.0,0.0,0.0,0.0,0.0,0.0,
12.01070399999991,0.0,0.0,30259.0,0.75,0.0,NaN,0.0,0.125,1.0559080950000002,NaN,0.0,-31578.0,0.0,0.0,NaN,0.0,0.0,0.8044432770000001,NaN,0.0,11458.0,4.5,0.0,NaN,0.0,0.0,3.12499968,NaN,0.0,-5333.0,0.625,0.0,NaN,0.0,0.125,1.384277202,NaN,0.0,0.03999999910593033,-1.0299999713897705,-138.97000122070312,-0.0167236328125,0.0013427734375,1.02239990234375,34.2400016784668,0.0,-1.0,-0.744049072265625,0.063323974609375,Closing,0.0,0.0,-189.0,0.0,0.0,0.0,0.0,0.0,
12.187956000000005,0.0,0.0,30259.0,0.75,0.0,NaN,0.0,0.125,1.0583495010000001,NaN,0.0,-31578.0,0.0,0.0,NaN,0.0,0.0,0.8044432770000001,NaN,0.0,11458.0,4.5,0.0,NaN,0.0,0.0,3.12499968,NaN,0.0,-5333.0,0.625,0.0,NaN,0.0,0.125,1.387939311,NaN,0.0,0.029999999329447746,-1.0099999904632568,-138.97999572753906,-0.01605224609375,-5.4931640625E-4,1.0206298828125,34.2400016784668,0.0,0.0,-0.744049072265625,0.063323974609375,Closing,0.0,0.0,-189.0,0.0,0.0,0.0,0.0,0.0,
12.34502000000002,0.0,0.0,30259.0,0.75,0.0,NaN,0.0,0.125,1.0607909070000001,NaN,0.0,-31578.0,0.0,0.0,NaN,0.0,0.0,0.8044432770000001,NaN,0.0,11458.0,4.5,0.0,NaN,0.0,0.0,3.12499968,NaN,0.0,-5333.0,0.625,0.0,NaN,0.0,0.125,1.387939311,NaN,0.0,0.019999999552965164,-1.0099999904632568,-138.97999572753906,-0.01806640625,-0.0029296875,1.023193359375,34.22999954223633,0.0,2.0,-0.744049072265625,0.063323974609375,Closing,0.0,0.0,-189.0,0.0,0.0,0.0,0.0,0.0,
12.50459999999986,0.0,0.0,30259.0,0.75,0.0,NaN,0.0,0.125,1.044921768,NaN,0.0,-31578.0,0.0,0.0,NaN,0.0,0.0,0.8056639800000001,NaN,0.0,11458.0,4.5,0.0,NaN,0.0,0.0,3.12499968,NaN,0.0,-5333.0,0.625,0.0,NaN,0.0,0.125,1.387939311,NaN,0.0,0.009999999776482582,-1.0,-138.97999572753906,-0.0145263671875,-0.002197265625,1.02423095703125,34.22999954223633,0.0,0.0,-0.744049072265625,0.063323974609375,Closing,0.0,0.0,-189.0,0.0,0.0,0.0,0.0,0.0,
12.654716999999946,0.0,0.0,30259.0,0.125,0.0,NaN,0.0,0.125,1.0607909070000001,NaN,0.0,-31578.0,0.0,0.0,NaN,0.0,0.0,0.8056639800000001,NaN,0.0,11458.0,1.75,0.0,NaN,0.0,0.0,3.126220383,NaN,0.0,-5333.0,0.125,0.0,NaN,0.0,0.125,1.387939311,NaN,0.0,0.019999999552965164,-1.0399999618530273,-138.97000122070312,-0.0523681640625,-0.0394287109375,0.9739990234375,34.22999954223633,0.0,52.0,-0.7440185546875,0.063262939453125,Closing,0.0,0.0,-189.0,0.0,0.0,0.0,0.0,0.0,
