Time,ClimberA1,ClimberA2,FRpos,FRCurrent,FRspeed,FRsetpoint,FRApos,FRACurrent,FREncpos,FREncSetpoint,FREncSpeed,FLpos,FLCurrent,FLspeed,FLsetpoint,FLApos,FLACurrent,FLEncpos,FLEncSetpoint,FLEncSpeed,BRpos,BRCurrent,BRspeed,BRsetpoint,BRApos,BRACurrent,BREncpos,BREncSetpoint,BREncSpeed,BLpos,BLCurrent,BLspeed,BLsetpoint,BLApos,BLACurrent,BLEncpos,BLEncSetpoint,BLEncSpeed,navx_Pitch,navx_Roll,navx_Yaw,navx_XAcc,navx_YAcc,navx_ZAcc,navx_Temp,navx_Bar,navx_Alt,navx_XDis,navx_YDis,GearPlacerState,ShootOutputV,ShootOutputCurrent,ShootEncPos,ShootEncVelocity,ShootSpeed,ShootSetpoint,CarouselSetpoint,CarouselCurrent,
0.18913300000000163,0.0,0.0,55786.0,9.875,15.0,930.940232292063,0.0,0.75,1.2158201880000001,0.34986290336419207,0.0,-40105.0,21.875,-112.5,-930.940232292063,0.0,0.5,1.153564335,0.35209866323349637,0.0,42079.0,17.75,0.0,930.940232292063,0.0,1.375,3.819579687,0.3504409422351893,0.0,-21196.0,12.5,-15.0,-930.940232292063,0.0,0.625,1.982421672,0.35168937567850145,0.0,0.25999999046325684,-0.46000000834465027,60.790000915527344,-0.01251220703125,0.030517578125,0.97967529296875,35.959999084472656,0.0,20.0,-1.269683837890625,-2.3953857421875,Closing,0.0,0.0,-189.0,0.0,0.0,0.0,0.0,0.0,
0.3253399999999965,0.0,0.0,55792.0,3.875,37.5,0.0,0.0,1.25,1.151122929,0.01,0.0,-40132.0,8.375,-180.0,-0.0,0.0,5.625,1.072997937,0.01,0.0,42079.0,6.875,0.0,0.0,0.0,2.0,3.6938472780000002,0.01,0.0,-21196.0,5.25,0.0,-0.0,0.0,0.625,1.887206838,0.01,0.0,0.23999999463558197,-0.5099999904632568,60.54999923706055,-0.0419921875,-0.069091796875,1.0546875,36.0099983215332,0.0,-80.0,-1.2695159912109375,-2.3960418701171875,Closing,0.0,0.0,-189.0,0.0,0.0,0.0,0.0,0.0,
0.4598150000000023,0.0,0.0,55794.0,3.5,22.5,0.0,0.0,0.5,0.839843664,0.01,0.0,-40141.0,8.625,-15.0,-0.0,0.0,0.5,0.506591745,0.01,0.0,42082.0,5.875,22.5,0.0,0.0,0.25,3.352050438,0.01,0.0,-21195.0,5.25,22.5,-0.0,0.0,0.25,1.617431475,0.01,0.0,0.23000000417232513,-0.47999998927116394,60.52000045776367,-0.028076171875,0.01007080078125,0.987548828125,36.0099983215332,0.0,-4.0,-1.2709503173828125,-2.3969573974609375,Closing,0.0,0.0,-189.0,0.0,0.0,0.0,0.0,0.0,
0.5972909999999975,0.0,0.0,55798.0,3.375,7.5,0.0,0.0,0.125,0.740966721,0.01,0.0,-40146.0,8.25,-7.5,-0.0,0.0,0.125,0.260009739,0.01,0.0,42088.0,7.875,15.0,0.0,0.0,0.0,3.242187168,0.01,0.0,-21190.0,5.875,0.0,-0.0,0.0,0.125,1.57470687,0.01,0.0,0.23000000417232513,-0.47999998927116394,60.5,-0.008544921875,-0.00982666015625,1.004638671875,36.0099983215332,0.0,-12.0,-1.2709503173828125,-2.396881103515625,Closing,0.0,0.0,-189.0,0.0,0.0,0.0,0.0,0.0,
0.7289670000000041,0.0,0.0,55799.0,3.625,0.0,0.0,0.0,0.25,0.7495116420000001,0.01,0.0,-40146.0,8.875,0.0,-0.0,0.0,0.5,0.28076169,0.01,0.0,42088.0,8.125,0.0,0.0,0.0,0.125,3.276366852,0.01,0.0,-21191.0,6.0,-7.5,-0.0,0.0,0.25,1.645507644,0.01,0.0,0.23999999463558197,-0.47999998927116394,60.5099983215332,-0.00286865234375,-0.00103759765625,1.02783203125,36.0099983215332,0.0,-1.0,-1.2709503173828125,-2.396881103515625,Closing,0.0,0.0,-189.0,0.0,0.0,0.0,0.0,0.0,
0.8489459999999963,0.0,0.0,55799.0,3.75,0.0,0.0,0.0,0.25,0.780029217,0.01,0.0,-40149.0,9.25,-15.0,-0.0,0.0,0.25,0.482177685,0.01,0.0,42088.0,7.875,0.0,0.0,0.0,0.125,3.330077784,0.01,0.0,-21191.0,6.0,0.0,-0.0,0.0,0.25,1.6601560800000001,0.01,0.0,0.23999999463558197,-0.47999998927116394,60.5,-0.016357421875,-0.00555419921875,1.03289794921875,35.9900016784668,0.0,-12.0,-1.2709503173828125,-2.396881103515625,Closing,0.0,0.0,-189.0,0.0,0.0,0.0,0.0,0.0,
1.000971000000005,0.0,0.0,55799.0,3.875,0.0,0.0,0.0,0.25,0.79345695,0.01,0.0,-40151.0,8.5,-7.5,-0.0,0.0,0.25,0.565185489,0.01,0.0,42088.0,8.375,0.0,0.0,0.0,0.0,3.339843408,0.01,0.0,-21192.0,6.25,0.0,-0.0,0.0,0.25,1.666259595,0.01,0.0,0.23999999463558197,-0.47999998927116394,60.5,-0.01239013671875,0.00518798828125,1.02423095703125,35.9900016784668,0.0,-1.0,-1.2709503173828125,-2.396881103515625,Closing,0.0,0.0,-189.0,0.0,0.0,0.0,0.0,0.0,
1.1131070000000036,0.0,0.0,55799.0,3.875,0.0,0.0,0.0,0.25,0.7775878110000001,0.01,0.0,-40151.0,8.5,0.0,-0.0,0.0,0.25,0.565185489,0.01,0.0,42088.0,8.5,0.0,0.0,0.0,0.0,3.338622705,0.01,0.0,-21192.0,6.0,0.0,-0.0,0.0,0.25,1.666259595,0.01,0.0,0.25,-0.47999998927116394,60.5,-0.00537109375,0.00592041015625,1.0166015625,35.9900016784668,0.0,2.0,-1.2709503173828125,-2.396881103515625,Closing,0.0,0.0,-189.0,0.0,0.0,0.0,0.0,0.0,
1.1867079999999988,0.0,0.0,55799.0,4.0,0.0,0.0,0.0,0.25,0.7788085140000001,0.01,0.0,-40151.0,8.5,0.0,-0.0,0.0,0.25,0.5554198650000001,0.01,0.0,42088.0,8.5,0.0,0.0,0.0,0.0,3.339843408,0.01,0.0,-21192.0,6.0,0.0,-0.0,0.0,0.25,1.666259595,0.01,0.0,0.25,-0.47999998927116394,60.5,-0.01007080078125,0.0029296875,1.0164794921875,35.9900016784668,0.0,-2.0,-1.2709503173828125,-2.396881103515625,Closing,0.0,0.0,-189.0,0.0,0.0,0.0,0.0,0.0,
1.2571260000000037,0.0,0.0,55799.0,1.875,0.0,-654.8031377792358,0.0,0.25,0.755615157,4.932250999999998,0.0,-40151.0,2.75,0.0,654.8031377792358,0.0,0.25,0.5407714290000001,4.963769999999998,0.0,42088.0,2.875,0.0,-654.8031377792358,0.0,0.0,3.339843408,0.01,0.0,-21192.0,1.875,0.0,654.8031377792358,0.0,0.25,1.6601560800000001,0.01,0.0,0.25,-0.5199999809265137,60.5,-0.03179931640625,-0.0048828125,1.04766845703125,35.9900016784668,0.0,-19.0,-1.2709503173828125,-2.39678955078125,Closing,0.0,0.0,-189.0,0.0,0.0,0.0,0.0,0.0,
1.3124949999999953,0.0,0.0,55799.0,0.625,-52.5,-1408.818826675415,0.0,0.25,0.7910155440000001,4.932250999999998,0.0,-40126.0,1.25,82.5,1408.818826675415,0.0,0.25,0.521240181,4.963769999999998,0.0,42086.0,0.875,0.0,-1408.818826675415,0.0,0.0,3.34472622,0.01,0.0,-21189.0,0.75,7.5,1408.818826675415,0.0,0.25,1.651611159,0.01,0.0,0.23999999463558197,-0.6499999761581421,60.540000915527344,-0.07843017578125,0.01446533203125,1.00628662109375,35.9900016784668,0.0,-23.0,-1.271087646484375,-2.396087646484375,Closing,0.0,0.0,-189.0,0.0,0.0,0.0,0.0,0.0,
1.3730430000000051,0.0,0.0,55771.0,0.625,-195.0,-873.0709004402161,0.0,0.125,0.797119059,4.932250999999998,0.0,-40126.0,3.0,247.5,873.0709004402161,0.0,0.125,0.5151366660000001,4.963769999999998,0.0,42086.0,1.125,-30.0,-873.0709004402161,0.0,0.0,3.3679195770000003,0.01,0.0,-21189.0,0.875,112.5,873.0709004402161,0.0,0.25,1.6320799110000002,0.01,0.0,0.10000000149011612,-0.8600000143051147,60.540000915527344,-0.224609375,0.23260498046875,0.85821533203125,35.9900016784668,0.0,97.0,-1.271697998046875,-2.39453125,Closing,0.0,0.0,-189.0,0.0,0.0,0.0,0.0,0.0,
1.4237479999999922,0.0,0.0,55771.0,0.125,-247.5,-813.5432946681976,0.0,0.125,0.806884683,4.932250999999998,0.0,-40103.0,0.875,217.5,813.5432946681976,0.0,0.125,0.5163573690000001,4.963769999999998,0.0,42067.0,1.0,-97.5,-813.5432946681976,0.0,0.0,3.3679195770000003,0.01,0.0,-21168.0,0.75,127.5,813.5432946681976,0.0,0.125,1.6369627230000001,0.01,0.0,0.23000000417232513,-0.7799999713897705,60.7400016784668,0.00811767578125,-0.01104736328125,0.89154052734375,35.9900016784668,0.0,-2.0,-1.2705078125,-2.390472412109375,Closing,0.0,0.0,-189.0,0.0,0.0,0.0,0.0,0.0,
1.4893800000000046,0.0,0.0,55747.0,0.375,-135.0,-813.5432946681976,0.0,0.125,0.8032225740000001,4.932250999999998,0.0,-40103.0,1.875,90.0,813.5432946681976,0.0,0.125,0.5163573690000001,4.963769999999998,0.0,42067.0,1.75,-112.5,-813.5432946681976,0.0,0.0,3.3679195770000003,0.01,0.0,-21168.0,1.5,67.5,813.5432946681976,0.0,0.125,1.612548663,0.01,0.0,0.23999999463558197,-0.8899999856948853,60.689998626708984,-0.06500244140625,-0.08953857421875,1.04205322265625,35.9900016784668,0.0,-105.0,-1.270599365234375,-2.388092041015625,Closing,0.0,0.0,-189.0,0.0,0.0,0.0,0.0,0.0,
1.5434330000000045,0.0,0.0,55747.0,1.875,-120.0,-813.5432946681976,0.0,0.125,0.8020018710000001,4.932250999999998,0.0,-40103.0,5.0,127.5,813.5432946681976,0.0,0.125,0.511474557,4.963769999999998,0.0,42067.0,2.5,-105.0,-813.5432946681976,0.0,0.0,3.3691402800000003,0.01,0.0,-21142.0,2.125,90.0,813.5432946681976,0.0,0.125,1.6027830390000002,0.01,0.0,0.20999999344348907,-1.1399999856948853,60.58000183105469,-0.1942138671875,-0.00616455078125,1.028564453125,35.9900016784668,0.0,-93.0,-1.2716217041015625,-2.3839874267578125,Closing,0.0,0.0,-189.0,0.0,0.0,0.0,0.0,0.0,
1.604777000000002,0.0,0.0,55722.0,2.875,-157.5,-813.5432946681976,0.0,0.125,0.809326089,4.932250999999998,-0.0024414059999999793,-40076.0,7.0,187.5,813.5432946681976,0.0,0.125,0.511474557,4.963769999999998,-0.004882811999999959,42047.0,3.875,-127.5,-813.5432946681976,0.0,0.0,3.3691402800000003,0.01,0.0,-21142.0,2.25,217.5,813.5432946681976,0.0,0.125,1.612548663,0.01,0.0,0.23000000417232513,-1.5399999618530273,60.599998474121094,-0.21185302734375,0.02337646484375,1.101318359375,35.9900016784668,0.0,-72.0,-1.2735443115234375,-2.3770294189453125,Closing,0.0,0.0,-189.0,0.0,0.0,0.0,0.0,0.0,
1.6676209999999991,0.0,0.0,55722.0,3.375,-262.5,-813.5432946681976,0.0,0.125,0.8032225740000001,4.932250999999998,0.0,-40076.0,7.75,277.5,813.5432946681976,0.0,0.0,0.511474557,4.963769999999998,0.0,42047.0,5.0,-142.5,-813.5432946681976,0.0,0.0,3.3691402800000003,0.01,0.0,-21079.0,2.375,382.5,813.5432946681976,0.0,0.25,1.6027830390000002,0.01,0.0,0.1899999976158142,-1.7400000095367432,60.599998474121094,-0.22869873046875,-0.03564453125,0.95172119140625,35.9900016784668,0.0,-131.0,-1.2760009765625,-2.3697662353515625,Closing,0.0,0.0,-189.0,0.0,0.0,0.0,0.0,0.0,
1.7155160000000031,0.0,0.0,55661.0,3.0,-390.0,-813.5432946681976,0.0,0.125,0.8020018710000001,4.932250999999998,0.0,-40020.0,7.375,412.5,813.5432946681976,0.0,0.0,0.510253854,4.963769999999998,0.0,42017.0,6.25,-262.5,-813.5432946681976,0.0,0.0,3.3691402800000003,0.01,0.0,-21079.0,2.5,382.5,813.5432946681976,0.0,0.25,1.6027830390000002,0.01,0.0,0.20999999344348907,-2.190000057220459,60.66999816894531,-0.201904296875,0.10406494140625,0.91021728515625,35.9900016784668,0.0,5.0,-1.2822265625,-2.3542022705078125,Closing,0.0,0.0,-189.0,0.0,0.0,0.0,0.0,0.0,
1.7724670000000042,0.0,0.0,55661.0,3.125,-472.5,-813.5432946681976,0.0,0.125,0.8032225740000001,4.932250999999998,0.0,-40020.0,6.875,495.0,813.5432946681976,0.0,0.0,0.511474557,4.963769999999998,0.0,42017.0,5.5,-427.5,-813.5432946681976,0.0,0.0,3.3691402800000003,0.01,0.0,-21079.0,2.75,487.5,813.5432946681976,0.0,0.25,1.6027830390000002,0.01,0.0,0.30000001192092896,-2.380000114440918,60.72999954223633,-0.0692138671875,0.0086669921875,1.070556640625,35.9900016784668,0.0,-9.0,-1.286376953125,-2.342437744140625,Closing,0.0,0.0,-189.0,0.0,0.0,0.0,0.0,0.0,
1.8208159999999916,0.0,0.0,55563.0,2.75,-555.0,-813.5432946681976,0.0,0.125,0.8044432770000001,4.932250999999998,0.0,-39925.0,5.625,607.5,813.5432946681976,0.0,0.0,0.510253854,4.963769999999998,0.0,41930.0,4.75,-510.0,-813.5432946681976,0.0,0.0,3.3679195770000003,0.01,0.0,-20991.0,2.625,562.5,813.5432946681976,0.0,0.25,1.6027830390000002,0.01,0.0,0.3499999940395355,-2.430000066757202,60.790000915527344,-0.057861328125,0.09490966796875,0.989990234375,36.0,0.0,69.0,-1.29046630859375,-2.329925537109375,Closing,0.0,0.0,-189.0,0.0,0.0,0.0,0.0,0.0,
1.924403999999995,0.0,0.0,55563.0,1.625,-705.0,-813.5432946681976,0.0,0.125,0.8032225740000001,4.932250999999998,0.0,-39804.0,4.125,735.0,813.5432946681976,0.0,0.0,0.511474557,4.963769999999998,0.0,41854.0,6.625,-382.5,-813.5432946681976,0.0,0.0,3.3752437950000003,0.01,0.0,-20887.0,2.5,645.0,813.5432946681976,0.0,0.25,1.6040037420000002,0.01,0.0,0.30000001192092896,-2.700000047683716,60.880001068115234,-0.19122314453125,-0.11505126953125,0.70513916015625,36.0,0.0,-180.0,-1.29949951171875,-2.3037567138671875,Closing,0.0,0.0,-189.0,0.0,0.0,0.0,0.0,0.0,
2.0568910000000034,0.0,0.0,55305.0,0.75,-840.0,-813.5432946681976,0.0,0.125,0.8020018710000001,4.932250999999998,0.0,-39671.0,2.875,825.0,813.5432946681976,0.0,0.0,0.51269526,4.963769999999998,0.0,41721.0,3.5,-817.5,-813.5432946681976,0.0,0.0,3.3728023890000003,0.01,0.0,-20767.0,2.375,750.0,813.5432946681976,0.0,0.25,1.6040037420000002,0.01,0.0,0.30000001192092896,-2.75,61.290000915527344,6.7138671875E-4,0.047119140625,1.05645751953125,36.0,0.0,61.0,-1.313446044921875,-2.2610931396484375,Closing,0.0,0.0,-189.0,0.0,0.0,0.0,0.0,0.0,
2.188430999999997,0.0,0.0,55164.0,0.375,-877.5,-813.5432946681976,0.0,0.125,0.8044432770000001,4.932250999999998,0.0,-39531.0,2.0,870.0,813.5432946681976,0.0,0.0,0.510253854,4.963769999999998,0.0,41581.0,3.0,-885.0,-813.5432946681976,0.0,0.0,3.3740230920000003,0.01,0.0,-20642.0,2.25,780.0,813.5432946681976,0.0,0.25,1.6027830390000002,0.01,0.0,0.3700000047683716,-2.6500000953674316,61.61000061035156,0.03369140625,0.02972412109375,0.80096435546875,36.0,0.0,55.0,-1.3164215087890625,-2.21905517578125,Closing,0.0,0.0,-189.0,0.0,0.0,0.0,0.0,0.0,
2.259495999999999,0.0,0.0,55164.0,0.375,-885.0,-793.700784444809,0.0,0.125,0.79345695,4.932250999999998,0.0,-39531.0,1.625,855.0,793.700784444809,0.0,0.0,0.511474557,4.963769999999998,0.0,41581.0,2.75,-877.5,-793.700784444809,0.0,0.0,3.3679195770000003,0.01,0.0,-20642.0,1.625,825.0,793.700784444809,0.0,0.25,1.6040037420000002,0.01,0.0,0.3400000035762787,-2.4600000381469727,61.86000061035156,-0.072265625,0.01580810546875,0.82965087890625,36.0,0.0,-7.0,-1.315185546875,-2.19635009765625,Closing,0.0,0.0,-189.0,0.0,0.0,0.0,0.0,0.0,
2.3914290000000036,0.0,0.0,55023.0,0.125,-832.5,-734.173253774643,0.0,0.125,0.7885741380000001,4.932250999999998,0.0,-39263.0,0.875,810.0,734.173253774643,0.0,0.0,0.511474557,4.963769999999998,0.0,41314.0,2.375,-780.0,-734.173253774643,0.0,0.0,3.3654781710000004,0.01,0.0,-20379.0,0.875,810.0,734.173253774643,0.0,0.25,1.6027830390000002,0.01,0.0,0.4099999964237213,-2.1700000762939453,62.060001373291016,-0.011474609375,-0.06427001953125,1.1365966796875,35.959999084472656,0.0,-49.0,-1.3115386962890625,-2.1673126220703125,Closing,0.0,0.0,-189.0,0.0,0.0,0.0,0.0,0.0,
2.513095000000001,0.0,0.0,54895.0,0.125,-757.5,-456.37796044349665,0.0,0.125,0.826415931,4.932250999999998,0.0,-39157.0,0.25,712.5,456.37796044349665,0.0,0.0,0.511474557,4.963769999999998,0.0,41263.0,2.875,-315.0,-456.37796044349665,0.0,0.0,3.3679195770000003,0.01,0.0,-20253.0,0.5,787.5,456.37796044349665,0.0,0.25,1.612548663,0.01,0.0,0.3799999952316284,-1.9900000095367432,62.04999923706055,-0.0306396484375,-0.08013916015625,1.271728515625,35.959999084472656,0.0,-71.0,-1.30828857421875,-2.17010498046875,Closing,0.0,0.0,-189.0,0.0,0.0,0.0,0.0,0.0,
2.5925650000000022,0.0,0.0,54785.0,0.0,-630.0,-377.00788199901575,0.0,0.125,0.7885741380000001,4.932250999999998,0.0,-39157.0,0.25,592.5,377.00788199901575,0.0,0.0,0.511474557,4.963769999999998,0.0,41263.0,3.5,-412.5,-377.00788199901575,0.0,0.0,3.3679195770000003,0.01,0.0,-20253.0,0.5,750.0,377.00788199901575,0.0,0.125,1.612548663,0.01,0.0,0.2800000011920929,-1.6200000047683716,62.119998931884766,0.04071044921875,0.066650390625,0.9393310546875,35.959999084472656,0.0,86.0,-1.30511474609375,-2.174957275390625,Closing,0.0,0.0,-189.0,0.0,0.0,0.0,0.0,0.0,
2.7235059999999938,0.0,0.0,54675.0,0.0,-690.0,-297.63780355453486,0.0,0.125,0.8032225740000001,4.932250999999998,0.0,-39047.0,0.0,652.5,297.63780355453486,0.0,0.0,0.520019478,4.963769999999998,0.0,41185.0,1.5,-562.5,-297.63780355453486,0.0,0.0,3.3679195770000003,0.01,0.0,-20139.0,0.375,630.0,297.63780355453486,0.0,0.125,1.6076658510000001,0.01,0.0,0.36000001430511475,-1.2400000095367432,62.279998779296875,0.0548095703125,0.022216796875,1.08001708984375,35.959999084472656,0.0,50.0,-1.299896240234375,-2.1887054443359375,Closing,0.0,0.0,-189.0,0.0,0.0,0.0,0.0,0.0,
2.858971000000005,0.0,0.0,54577.0,0.0,-510.0,-277.79527455568314,0.0,0.125,0.7885741380000001,4.932250999999998,0.0,-38952.0,0.0,502.5,277.79527455568314,0.0,0.125,0.5163573690000001,4.963769999999998,0.0,41091.0,0.625,-487.5,-277.79527455568314,0.0,0.0,3.3679195770000003,0.01,0.0,-20047.0,0.125,495.0,277.79527455568314,0.0,0.25,1.6027830390000002,0.01,0.0,0.33000001311302185,-0.4399999976158142,62.380001068115234,0.10699462890625,0.03485107421875,0.86199951171875,35.959999084472656,0.0,79.0,-1.2946624755859375,-2.216400146484375,Closing,0.0,0.0,-189.0,0.0,0.0,0.0,0.0,0.0,
2.991005999999994,0.0,0.0,54509.0,0.125,-375.0,-257.95276433229446,0.0,0.125,0.7897948410000001,4.932250999999998,0.0,-38876.0,0.0,375.0,257.95276433229446,0.0,0.125,0.5163573690000001,4.963769999999998,0.0,41018.0,0.625,-390.0,-257.95276433229446,0.0,0.0,3.3679195770000003,0.01,0.0,-19917.0,0.125,375.0,257.95276433229446,0.0,0.25,1.6027830390000002,0.01,0.0,0.3499999940395355,-0.10000000149011612,62.40999984741211,0.06689453125,-0.009765625,1.12493896484375,35.959999084472656,0.0,17.0,-1.2850341796875,-2.250030517578125,Closing,0.0,0.0,-189.0,0.0,0.0,0.0,0.0,0.0,
3.123804000000004,0.0,0.0,54455.0,0.0,-255.0,-363.37808482752814,0.0,0.875,0.36865230600000004,4.318798022540089,0.0,-38779.0,0.125,262.5,363.37808482752814,0.0,0.5,0.126953112,4.346396819696284,0.0,40921.0,2.25,-270.0,-363.37808482752814,0.0,0.875,2.912597358,4.325933483627872,0.0,-19875.0,0.375,262.5,363.37808482752814,0.0,0.875,1.174316286,4.341344468429072,0.0,0.44999998807907104,0.17000000178813934,62.540000915527344,0.033447265625,0.1021728515625,1.0604248046875,35.959999084472656,0.0,97.0,-1.2771453857421875,-2.284454345703125,Closing,0.0,0.0,-189.0,0.0,0.0,0.0,0.0,0.0,
3.2588340000000025,0.0,0.0,54378.0,0.125,-240.0,-538.3269254149119,0.0,0.375,4.803466305000001,4.0914601591523985,0.0,-38723.0,0.5,352.5,538.3269254149119,0.0,0.25,4.527587427,4.117606179043991,0.0,40891.0,5.875,-180.0,-538.3269254149119,0.0,0.5,2.4267575640000003,4.09822001562299,0.0,-19835.0,0.875,240.0,538.3269254149119,0.0,0.5,0.679931571,4.112819779260543,0.0,0.9200000166893005,0.3799999952316284,62.630001068115234,0.00665283203125,0.0655517578125,0.98004150390625,35.959999084472656,0.0,44.0,-1.2678680419921875,-2.28460693359375,Closing,0.0,0.0,-189.0,0.0,0.0,0.0,0.0,0.0,
3.3784860000000045,0.0,0.0,54332.0,1.875,-277.5,-685.3719045021967,0.0,0.125,4.578856953,3.953612761170799,0.0,-38667.0,2.5,345.0,685.3719045021967,0.0,0.25,4.158935121,3.978877882637517,0.0,40855.0,10.375,-232.5,-685.3719045021967,0.0,0.125,2.250976332,3.960144867989933,0.0,-19784.0,2.0,315.0,685.3719045021967,0.0,0.25,0.47241206100000005,3.9742527438049726,0.0,1.3899999856948853,0.6100000143051147,62.63999938964844,0.07244873046875,0.1015625,1.02862548828125,35.959999084472656,0.0,96.0,-1.2519989013671875,-2.28411865234375,Closing,0.0,0.0,-189.0,0.0,0.0,0.0,0.0,0.0,
3.459535999999993,0.0,0.0,54332.0,1.875,-360.0,-679.3131870558815,0.0,0.375,4.609374528,3.9318744399252092,0.0,-38667.0,3.25,390.0,679.3131870558815,0.0,1.0,4.105224189,3.9570006450741366,0.0,40855.0,10.25,-360.0,-679.3131870558815,0.0,0.0,2.261962659,3.9383706309769115,0.0,-19708.0,1.875,487.5,679.3131870558815,0.0,0.25,0.44799800100000003,3.9524009368438846,0.0,1.7599999904632568,0.5099999904632568,62.91999816894531,0.00360107421875,0.14996337890625,0.91375732421875,35.959999084472656,0.0,106.0,-1.2335357666015625,-2.2828369140625,Closing,0.0,0.0,-189.0,0.0,0.0,0.0,0.0,0.0,
3.590877999999997,0.0,0.0,54261.0,1.375,-525.0,-698.1657747818701,0.0,0.25,4.732665531,3.925408539668229,0.0,-38600.0,3.25,495.0,698.1657747818701,0.0,0.5,4.4006343150000005,3.9504934252026027,0.0,40793.0,10.75,-360.0,-698.1657747818701,0.0,0.0,2.344970463,3.931894047844872,0.0,-19610.0,1.875,577.5,698.1657747818701,0.0,0.25,0.583496034,3.945901281113852,0.0,2.1500000953674316,0.20000000298023224,63.599998474121094,-0.12054443359375,0.11279296875,0.86053466796875,35.959999084472656,0.0,17.0,-1.2081146240234375,-2.2774505615234375,Closing,0.0,0.0,-189.0,0.0,0.0,0.0,0.0,0.0,
3.7240800000000016,0.0,0.0,54167.0,0.125,-652.5,-550.2318395978098,0.0,0.875,0.23925778800000003,4.520391185173939,0.0,-38426.0,2.0,562.5,550.2318395978098,0.0,1.0,0.042724605,4.549278240955467,0.0,40612.0,7.375,-705.0,-550.2318395978098,0.0,0.625,2.805175494,4.52785971582414,0.0,-19516.0,0.75,600.0,550.2318395978098,0.0,0.75,1.097411997,4.543990055674861,0.0,2.0399999618530273,-0.7200000286102295,64.26000213623047,-0.277587890625,-0.30670166015625,1.07574462890625,35.959999084472656,0.0,-425.0,-1.1786956787109375,-2.2601470947265625,Closing,0.0,0.0,-189.0,0.0,0.0,0.0,0.0,0.0,
3.8570770000000048,0.0,0.0,53929.0,0.75,-765.0,-932.5984311103821,0.0,0.5,0.806884683,4.932250999999998,0.0,-38321.0,6.375,637.5,932.5984311103821,0.0,0.5,0.526122993,4.963769999999998,0.0,40483.0,8.25,-810.0,-932.5984311103821,0.0,1.125,3.2080074840000004,0.01,0.0,-19404.0,2.625,712.5,932.5984311103821,0.0,0.625,1.646728347,0.01,0.0,0.2800000011920929,-1.8600000143051147,65.04000091552734,-0.181884765625,-0.07427978515625,1.22119140625,35.880001068115234,0.0,-132.0,-1.18048095703125,-2.2435302734375,Closing,0.0,0.0,-189.0,0.0,0.0,0.0,0.0,0.0,
3.9881359999999986,0.0,0.0,53790.0,0.625,-847.5,-952.4409413337708,0.0,0.25,1.065673719,4.932250999999998,0.0,-38200.0,5.875,742.5,952.4409413337708,0.0,0.25,0.8288573370000001,4.963769999999998,0.0,40388.0,10.25,-607.5,-952.4409413337708,0.0,0.125,3.5327144820000003,0.01,0.0,-19298.0,3.375,660.0,952.4409413337708,0.0,0.25,1.992187296,0.01,0.0,-1.0700000524520874,-2.069999933242798,65.94999694824219,-0.07818603515625,-0.2152099609375,0.95172119140625,35.880001068115234,0.0,-197.0,-1.2089691162109375,-2.242828369140625,Closing,0.0,0.0,-189.0,0.0,0.0,0.0,0.0,0.0,
4.050432000000001,0.0,0.0,53790.0,0.375,-930.0,-952.4409413337708,0.0,0.375,1.075439343,4.932250999999998,0.0,-38200.0,5.0,832.5,952.4409413337708,0.0,0.5,0.8410643670000001,4.963769999999998,0.0,40388.0,13.125,-690.0,-952.4409413337708,0.0,0.25,3.562011354,0.01,0.0,-19298.0,3.25,720.0,952.4409413337708,0.0,0.625,1.9665525330000002,0.01,0.0,-1.3899999856948853,-2.240000009536743,66.63999938964844,-0.1549072265625,0.0283203125,1.06671142578125,35.880001068115234,0.0,5.0,-1.2337799072265625,-2.2451934814453125,Closing,0.0,0.0,-189.0,0.0,0.0,0.0,0.0,0.0,
4.190713000000003,0.0,0.0,53634.0,0.375,-960.0,-952.4409413337708,0.0,0.375,0.8447264760000001,4.932250999999998,0.0,-38056.0,2.875,982.5,952.4409413337708,0.0,0.25,0.583496034,4.963769999999998,0.0,40250.0,13.375,-570.0,-952.4409413337708,0.0,0.25,3.4216305090000003,0.01,0.0,-19024.0,2.75,937.5,952.4409413337708,0.0,0.25,1.5844724940000001,0.01,0.0,-0.550000011920929,-2.6600000858306885,67.45999908447266,0.0400390625,0.352783203125,0.81976318359375,35.880001068115234,0.0,363.0,-1.2758331298828125,-2.2428131103515625,Closing,0.0,0.0,-189.0,0.0,0.0,0.0,0.0,0.0,
4.324779999999999,0.0,0.0,53480.0,0.0,-1027.5,-721.8542564404256,0.0,0.25,0.605468688,4.715408874945299,0.0,-37749.0,0.5,922.5,721.8542564404256,0.0,0.25,0.26489255100000003,4.74554216952609,0.0,40015.0,10.875,-952.5,-721.8542564404256,0.0,0.375,3.2031246720000004,4.723199611248446,0.0,-18883.0,1.25,877.5,721.8542564404256,0.0,0.25,1.35498033,4.740025842557241,0.0,0.8999999761581421,-2.2799999713897705,68.41999816894531,0.16534423828125,0.12725830078125,0.8525390625,35.880001068115234,0.0,179.0,-1.296112060546875,-2.2294921875,Closing,0.0,0.0,-189.0,0.0,0.0,0.0,0.0,0.0,
4.457967999999993,0.0,0.0,53120.0,10.5,-1192.5,-2520.0,0.0,3.25,0.083007804,3.6991882500000015,0.0,-37537.0,24.125,1342.5,2520.0,0.0,1.125,4.638671400000001,3.7228275000000015,0.0,39847.0,40.5,-1080.0,-2520.0,0.0,3.125,2.6440426980000002,3.7053000000000016,0.0,-18686.0,12.5,1192.5,2520.0,0.0,0.875,0.7373046120000001,3.7185000000000015,0.0,2.5199999809265137,-2.109999895095825,69.04000091552734,0.29547119140625,0.63909912109375,0.69317626953125,35.84000015258789,0.0,682.0,-1.2911529541015625,-2.2118072509765625,Closing,0.0,0.0,-189.0,0.0,0.0,0.0,0.0,0.0,
4.592650999999998,0.0,0.0,52989.0,0.0,-930.0,0.0,0.0,0.625,4.060058178,3.6991882500000015,0.0,-37319.0,0.0,1342.5,0.0,0.0,0.0,3.929442957,3.7228275000000015,0.0,39751.0,0.0,-420.0,0.0,0.0,0.125,1.9213865220000002,3.7053000000000016,0.0,-18535.0,0.0,847.5,0.0,0.0,0.25,0.07080077400000001,3.7185000000000015,0.0,2.569999933242798,1.4600000381469727,69.8499984741211,0.758056640625,-0.47344970703125,0.66546630859375,35.84000015258789,0.0,-216.0,-1.2436065673828125,-2.2133941650390625,Closing,0.0,0.0,-189.0,0.0,0.0,0.0,0.0,0.0,
4.725658999999999,0.0,0.0,52914.0,0.0,-442.5,0.0,0.0,1.125,3.9965816220000003,3.6991882500000015,0.0,-37239.0,0.0,450.0,0.0,0.0,0.5,3.9343257690000004,3.7228275000000015,0.0,39703.0,0.0,-382.5,0.0,0.0,0.125,1.903075977,3.7053000000000016,0.0,-18421.0,0.0,607.5,0.0,0.0,0.375,0.162353499,3.7185000000000015,0.0,1.0700000524520874,1.8600000143051147,70.44999694824219,-0.25299072265625,-0.12481689453125,0.78070068359375,35.84000015258789,0.0,-213.0,-1.2048797607421875,-2.27130126953125,Closing,0.0,0.0,-189.0,0.0,0.0,0.0,0.0,0.0,
4.858944999999992,0.0,0.0,52858.0,0.0,-315.0,0.0,0.0,0.625,4.517821803,3.6991882500000015,0.0,-37194.0,0.0,247.5,0.0,0.0,0.5,4.224853083,3.7228275000000015,0.0,39651.0,0.0,-247.5,0.0,0.0,0.25,2.0666501790000003,3.7053000000000016,0.0,-18371.0,0.0,210.0,0.0,0.0,0.375,0.41381831700000005,3.7185000000000015,0.0,0.3400000035762787,0.9700000286102295,70.13999938964844,-0.0567626953125,-0.04156494140625,1.04730224609375,35.84000015258789,0.0,-70.0,-1.1910858154296875,-2.315826416015625,Closing,0.0,0.0,-189.0,0.0,0.0,0.0,0.0,0.0,
4.989923999999999,0.0,0.0,52836.0,0.0,-105.0,0.0,0.0,0.25,4.625243667,3.6991882500000015,0.0,-37175.0,0.0,67.5,0.0,0.0,0.0,4.404296424,3.7228275000000015,0.0,39630.0,0.0,-97.5,0.0,0.0,0.0,2.143554468,3.7053000000000016,0.0,-18352.0,0.0,67.5,0.0,0.0,0.25,0.5017089330000001,3.7185000000000015,0.0,-0.019999999552965164,0.75,70.16000366210938,-0.0162353515625,-0.0885009765625,1.08843994140625,35.790000915527344,0.0,-93.0,-1.1862030029296875,-2.3464813232421875,Closing,0.0,0.0,-189.0,0.0,0.0,0.0,0.0,0.0,
5.126054999999993,0.0,0.0,52833.0,0.125,-22.5,-198.42519611120224,0.0,2.375,0.260009739,4.932250999999998,0.0,-37170.0,0.125,52.5,198.42519611120224,0.0,2.875,0.130615221,4.963769999999998,0.0,39626.0,0.125,-37.5,-198.42519611120224,0.0,2.5,2.862548535,0.01,0.0,-18348.0,0.375,0.0,198.42519611120224,0.0,1.875,1.2902830710000002,0.01,0.0,-0.12999999523162842,0.6499999761581421,70.18000030517578,0.021728515625,0.01983642578125,1.04534912109375,35.790000915527344,0.0,24.0,-1.1893463134765625,-2.3466033935546875,Closing,0.0,0.0,-189.0,0.0,0.0,0.0,0.0,0.0,
5.259433000000005,0.0,0.0,52822.0,4.375,-210.0,-1131.023608446121,0.0,0.375,0.913085844,4.932250999999998,0.0,-37158.0,14.625,90.0,1131.023608446121,0.0,0.25,0.650634699,4.963769999999998,0.0,39610.0,7.25,-82.5,-1131.023608446121,0.0,0.25,3.455810193,0.01,0.0,-18348.0,6.5,120.0,1131.023608446121,0.0,0.375,1.78222638,0.01,0.0,0.09000000357627869,-0.5,69.9800033569336,-0.32598876953125,-0.1572265625,0.94879150390625,35.790000915527344,0.0,-257.0,-1.1917877197265625,-2.339019775390625,Closing,0.0,0.0,-189.0,0.0,0.0,0.0,0.0,0.0,
5.388925000000003,0.0,0.0,52766.0,8.5,-450.0,-1388.9763164520261,0.0,0.5,1.130370978,4.932250999999998,0.0,-37130.0,22.875,487.5,1388.9763164520261,0.0,0.25,0.679931571,4.963769999999998,0.0,39604.0,18.0,-172.5,-1388.9763164520261,0.0,0.25,3.604735959,0.01,0.0,-18227.0,10.375,495.0,1388.9763164520261,0.0,0.5,1.8469236390000001,0.01,0.0,-0.6600000262260437,-1.9800000190734863,69.98999786376953,-0.3638916015625,-0.05401611328125,1.21771240234375,35.849998474121094,0.0,-147.0,-1.2068939208984375,-2.3098907470703125,Closing,0.0,0.0,-189.0,0.0,0.0,0.0,0.0,0.0,
5.523182,0.0,0.0,52654.0,4.25,-967.5,-1111.1810982227325,0.0,0.375,0.928954983,4.932250999999998,0.0,-36845.0,8.5,1080.0,1111.1810982227325,0.0,0.25,0.601806579,4.963769999999998,0.0,39435.0,11.375,-645.0,-1111.1810982227325,0.0,0.25,3.459472302,0.01,0.0,-18068.0,5.125,975.0,1111.1810982227325,0.0,0.25,1.690673655,0.01,0.0,-0.49000000953674316,-2.890000104904175,69.91999816894531,-0.14788818359375,0.13177490234375,0.79241943359375,35.849998474121094,0.0,93.0,-1.23828125,-2.25640869140625,Closing,0.0,0.0,-189.0,0.0,0.0,0.0,0.0,0.0,
5.658763999999995,0.0,0.0,52289.0,1.625,-1192.5,-1111.1810982227325,0.0,0.25,0.7250975820000001,4.932250999999998,0.0,-36647.0,4.125,1222.5,1111.1810982227325,0.0,0.25,0.443115189,4.963769999999998,0.0,39271.0,11.125,-1035.0,-1111.1810982227325,0.0,0.125,3.337402002,0.01,0.0,-17895.0,4.25,1072.5,1111.1810982227325,0.0,0.25,1.534423671,0.01,0.0,0.6299999952316284,-3.119999885559082,70.52999877929688,0.020751953125,0.112548828125,0.93475341796875,35.849998474121094,0.0,120.0,-1.2618560791015625,-2.188812255859375,Closing,0.0,0.0,-189.0,0.0,0.0,0.0,0.0,0.0,
5.791880999999994,0.0,0.0,52127.0,0.0,-1080.0,0.0,0.0,0.25,0.740966721,4.932250999999998,0.0,-36487.0,0.0,877.5,0.0,0.0,0.25,0.42114253500000004,4.963769999999998,0.0,39129.0,0.0,-840.0,0.0,0.0,0.0,3.288573882,0.01,0.0,-17731.0,0.0,952.5,0.0,0.0,0.25,1.5783689790000002,0.01,0.0,0.4000000059604645,-1.2000000476837158,71.37999725341797,0.409423828125,-0.170166015625,1.366455078125,35.849998474121094,0.0,-30.0,-1.2761077880859375,-2.134796142578125,Closing,0.0,0.0,-189.0,0.0,0.0,0.0,0.0,0.0,
5.926423999999999,0.0,0.0,52055.0,0.0,-412.5,0.0,0.0,0.375,0.76904289,4.932250999999998,0.0,-36401.0,0.0,442.5,0.0,0.0,0.25,0.444335892,4.963769999999998,0.0,39054.0,0.0,-330.0,0.0,0.0,0.0,3.338622705,0.01,0.0,-17651.0,0.0,277.5,0.0,0.0,0.25,1.6369627230000001,0.01,0.0,0.5199999809265137,1.7200000286102295,71.87999725341797,0.25628662109375,0.06011962890625,1.0634765625,35.79999923706055,0.0,117.0,-1.280426025390625,-2.1315460205078125,Closing,0.0,0.0,-189.0,0.0,0.0,0.0,0.0,0.0,
6.046296000000002,0.0,0.0,52056.0,0.0,30.0,0.0,0.0,0.25,0.7885741380000001,4.932250999999998,0.0,-36398.0,0.0,-105.0,0.0,0.0,0.0,0.48583979400000005,4.963769999999998,0.0,39051.0,0.0,0.0,0.0,0.0,0.0,3.352050438,0.01,0.0,-17643.0,0.0,-15.0,0.0,0.0,0.125,1.6357420200000001,0.01,0.0,0.41999998688697815,1.9500000476837158,71.77999877929688,0.0748291015625,0.00360107421875,1.2349853515625,35.79999923706055,0.0,4.0,-1.2757110595703125,-2.1501617431640625,Closing,0.0,0.0,-189.0,0.0,0.0,0.0,0.0,0.0,
6.1246830000000045,0.0,0.0,52056.0,0.0,210.0,0.0,0.0,0.125,0.7885741380000001,4.932250999999998,0.0,-36442.0,0.0,-247.5,0.0,0.0,0.0,0.49194330900000005,4.963769999999998,0.0,39061.0,0.0,37.5,0.0,0.0,0.0,3.352050438,0.01,0.0,-17678.0,0.0,-225.0,0.0,0.0,0.125,1.6357420200000001,0.01,0.0,0.4300000071525574,1.7799999713897705,71.76000213623047,-0.0721435546875,-0.0224609375,0.97918701171875,35.79999923706055,0.0,-60.0,-1.273345947265625,-2.1633453369140625,Closing,0.0,0.0,-189.0,0.0,0.0,0.0,0.0,0.0,
6.261472999999998,0.0,0.0,52138.0,0.0,240.0,0.0,0.0,0.125,0.7897948410000001,4.932250999999998,0.0,-36478.0,0.0,-217.5,0.0,0.0,0.125,0.495605418,4.963769999999998,0.0,39097.0,0.0,225.0,0.0,0.0,0.0,3.352050438,0.01,0.0,-17714.0,0.0,-217.5,0.0,0.0,0.125,1.640624832,0.01,0.0,0.41999998688697815,1.2599999904632568,71.68000030517578,-0.07989501953125,0.02032470703125,0.97674560546875,35.79999923706055,0.0,-19.0,-1.2712249755859375,-2.1808319091796875,Closing,0.0,0.0,-189.0,0.0,0.0,0.0,0.0,0.0,
6.380978999999992,0.0,0.0,52160.0,0.0,142.5,0.0,0.0,0.125,0.794677653,4.932250999999998,0.0,-36502.0,0.0,-142.5,0.0,0.0,0.125,0.5017089330000001,4.963769999999998,0.0,39121.0,0.0,142.5,0.0,0.0,0.0,3.353271141,0.01,0.0,-17740.0,0.0,-150.0,0.0,0.0,0.125,1.640624832,0.01,0.0,0.4399999976158142,0.8199999928474426,71.68000030517578,-0.08514404296875,0.0223388671875,1.02874755859375,35.79999923706055,0.0,-17.0,-1.2718353271484375,-2.18829345703125,Closing,0.0,0.0,-189.0,0.0,0.0,0.0,0.0,0.0,
6.4594510000000005,0.0,0.0,52160.0,0.0,105.0,0.0,0.0,0.125,0.79345695,4.932250999999998,0.004882811999999959,-36502.0,0.0,-90.0,0.0,0.0,0.0,0.5017089330000001,4.963769999999998,0.004882811999999959,39121.0,0.0,97.5,0.0,0.0,0.0,3.352050438,0.01,0.0,-17740.0,0.0,-75.0,0.0,0.0,0.125,1.641845535,0.01,-0.0012207029999999897,0.4399999976158142,0.5,71.68000030517578,-0.07843017578125,0.00665283203125,1.03485107421875,35.72999954223633,0.0,-28.0,-1.2723846435546875,-2.18902587890625,Closing,0.0,0.0,-189.0,0.0,0.0,0.0,0.0,0.0,
6.580629000000001,0.0,0.0,52167.0,0.0,0.0,0.0,0.0,0.125,0.79345695,4.932250999999998,0.0,-36512.0,0.0,-7.5,0.0,0.0,0.0,0.5017089330000001,4.963769999999998,0.0,39131.0,0.0,7.5,0.0,0.0,0.0,3.353271141,0.01,0.0,-17750.0,0.0,-7.5,0.0,0.0,0.125,1.640624832,0.01,0.0,0.46000000834465027,0.20000000298023224,71.69000244140625,-0.002685546875,-0.0076904296875,1.06817626953125,35.72999954223633,0.0,-17.0,-1.27362060546875,-2.1856231689453125,Closing,0.0,0.0,-189.0,0.0,0.0,0.0,0.0,0.0,
6.659551999999996,0.0,0.0,52167.0,0.0,0.0,0.0,0.0,0.125,0.79345695,4.932250999999998,0.0012207030000004337,-36512.0,0.0,0.0,0.0,0.0,0.0,0.5017089330000001,4.963769999999998,0.0,39131.0,0.0,0.0,0.0,0.0,0.0,3.352050438,0.01,0.0,-17750.0,0.0,0.0,0.0,0.0,0.125,1.640624832,0.01,0.0,0.4300000071525574,0.23000000417232513,71.69999694824219,0.01373291015625,0.00537109375,1.0269775390625,35.72999954223633,0.0,0.0,-1.27362060546875,-2.1856231689453125,Closing,0.0,0.0,-189.0,0.0,0.0,0.0,0.0,0.0,
6.726544999999998,0.0,0.0,52167.0,0.375,0.0,396.8503922224045,0.0,6.125,0.614013609,3.6991882499999984,0.0,-36521.0,0.25,-15.0,-396.8503922224045,0.0,9.375,0.338134731,3.7228274999999984,0.0,39135.0,0.5,7.5,396.8503922224045,0.0,0.0,3.348388329,3.7052999999999985,0.0,-17749.0,0.375,0.0,396.8503922224045,0.0,7.375,1.9470212850000002,1.2394999999999985,0.0,0.44999998807907104,0.20000000298023224,71.68000030517578,-0.0201416015625,0.001220703125,1.02972412109375,35.72999954223633,0.0,-14.0,-1.27362060546875,-2.1854248046875,Closing,0.0,0.0,-189.0,0.0,0.0,0.0,0.0,0.0,
6.858264999999999,0.0,0.0,52191.0,0.0,135.0,138.89763727784157,0.0,2.0,4.6081538250000005,3.6991882499999984,0.0,-36527.0,0.0,-45.0,-138.89763727784157,0.0,1.75,4.32128862,3.7228274999999984,0.0,39152.0,0.125,105.0,138.89763727784157,0.0,1.75,2.449950921,3.7052999999999985,0.0,-17753.0,0.5,-22.5,138.89763727784157,0.0,1.625,2.9052731400000003,1.2394999999999985,0.0,0.3499999940395355,0.20999999344348907,71.3499984741211,0.0103759765625,-7.32421875E-4,1.00885009765625,35.72999954223633,0.0,-4.0,-1.2756195068359375,-2.1851043701171875,Closing,0.0,0.0,-189.0,0.0,0.0,0.0,0.0,0.0,
6.991326000000001,0.0,0.0,52191.0,0.0,0.0,0.0,0.0,0.25,4.327392135,3.6991882499999984,0.0,-36526.0,0.0,7.5,0.0,0.0,0.25,4.105224189,3.7228274999999984,0.0,39164.0,0.0,60.0,0.0,0.0,0.5,1.9958494050000002,3.7052999999999985,0.0,-17753.0,0.0,0.0,0.0,0.0,0.25,3.0590817180000003,1.2394999999999985,0.0,0.3100000023841858,-0.009999999776482582,71.0999984741211,0.002197265625,0.03216552734375,1.024169921875,35.7400016784668,0.0,26.0,-1.2804412841796875,-2.184478759765625,Closing,0.0,0.0,-189.0,0.0,0.0,0.0,0.0,0.0,
7.127949999999997,0.0,0.0,52192.0,0.125,7.5,257.95276433229446,0.0,0.375,4.456786653,3.6991882499999984,0.0,-36534.0,0.375,-60.0,-257.95276433229446,0.0,0.25,4.167480042,3.7228274999999984,0.0,39171.0,0.375,52.5,257.95276433229446,0.0,0.0,1.9934079990000002,3.7052999999999985,0.0,-17752.0,0.375,15.0,257.95276433229446,0.0,0.25,2.934570012,1.2394999999999985,0.0,0.33000001311302185,-0.05999999865889549,71.20999908447266,0.0211181640625,-0.0247802734375,0.98358154296875,35.7400016784668,0.0,-21.0,-1.288299560546875,-2.183868408203125,Closing,0.0,0.0,-189.0,0.0,0.0,0.0,0.0,0.0,
7.257635999999999,0.0,0.0,52208.0,0.0,97.5,0.0,0.0,0.125,4.537353051,3.6991882499999984,0.0,-36538.0,0.0,-15.0,0.0,0.0,0.25,4.176024963000001,3.7228274999999984,0.0,39178.0,0.0,15.0,0.0,0.0,0.125,2.0629880700000003,3.7052999999999985,0.0,-17742.0,0.0,37.5,0.0,0.0,0.25,2.862548535,1.2394999999999985,0.0,0.33000001311302185,-0.1599999964237213,71.20999908447266,-0.02386474609375,0.02850341796875,1.0601806640625,35.7400016784668,0.0,14.0,-1.291534423828125,-2.1840667724609375,Closing,0.0,0.0,-189.0,0.0,0.0,0.0,0.0,0.0,
7.316868000000002,0.0,0.0,52208.0,0.0,22.5,0.0,0.0,0.25,4.537353051,3.6991882499999984,0.052490229,-36538.0,0.0,0.0,0.0,0.0,0.0,4.1857905870000005,3.7228274999999984,0.004882811999999959,39177.0,0.0,0.0,0.0,0.0,0.0,2.089843536,3.7052999999999985,0.0,-17742.0,0.0,0.0,0.0,0.0,0.125,2.8564450200000002,1.2394999999999985,-0.06958007099999985,0.38999998569488525,-0.12999999523162842,71.23999786376953,-0.00543212890625,0.0413818359375,1.00482177734375,35.7400016784668,0.0,31.0,-1.2910919189453125,-2.1840057373046875,Closing,0.0,0.0,-189.0,0.0,0.0,0.0,0.0,0.0,
7.457152000000002,0.0,0.0,52208.0,0.0,0.0,0.0,0.0,0.25,4.538573754000001,3.6991882499999984,0.0,-36538.0,0.0,0.0,0.0,0.0,0.25,4.195556211,3.7228274999999984,0.0,39177.0,0.0,0.0,0.0,0.0,0.0,2.095947051,3.7052999999999985,0.0,-17742.0,0.0,0.0,0.0,0.0,0.125,2.8564450200000002,1.2394999999999985,0.0,0.5,-0.1899999976158142,71.23999786376953,-0.00970458984375,-0.004638671875,1.00982666015625,35.779998779296875,0.0,-14.0,-1.2892913818359375,-2.1834716796875,Closing,0.0,0.0,-189.0,0.0,0.0,0.0,0.0,0.0,
7.582255999999994,0.0,0.0,52232.0,1.625,157.5,674.6456480026245,0.0,0.25,4.538573754000001,3.6991882499999984,0.0,-36552.0,4.875,-105.0,-674.6456480026245,0.0,0.25,4.201659726,3.7228274999999984,0.0,39203.0,2.5,172.5,674.6456480026245,0.0,0.0,2.100829863,3.7052999999999985,0.0,-17730.0,2.0,90.0,674.6456480026245,0.0,0.125,2.8515622080000003,1.2394999999999985,0.0,0.15000000596046448,-0.23999999463558197,71.30000305175781,-0.11181640625,-0.14361572265625,1.2569580078125,35.779998779296875,0.0,-173.0,-1.2910614013671875,-2.1837615966796875,Closing,0.0,0.0,-189.0,0.0,0.0,0.0,0.0,0.0,
7.660457999999998,0.0,0.0,52232.0,1.625,157.5,515.9055286645889,0.0,0.25,4.537353051,3.6991882499999984,0.0,-36552.0,4.5,-120.0,-515.9055286645889,0.0,0.25,4.2333980040000005,3.7228274999999984,0.0,39203.0,2.25,157.5,515.9055286645889,0.0,0.0,2.100829863,3.7052999999999985,0.0,-17730.0,2.0,127.5,515.9055286645889,0.0,0.125,2.8515622080000003,1.2394999999999985,0.0,-0.10999999940395355,-0.30000001192092896,71.30999755859375,0.00787353515625,-0.071533203125,1.12933349609375,35.779998779296875,0.0,-61.0,-1.2962188720703125,-2.1845245361328125,Closing,0.0,0.0,-189.0,0.0,0.0,0.0,0.0,0.0,
7.779936000000001,0.0,0.0,52264.0,0.5,225.0,297.63780355453486,0.0,0.25,4.543456566000001,3.6991882499999984,0.0,-36581.0,2.0,-240.0,-297.63780355453486,0.0,0.0,4.239501519,3.7228274999999984,0.0,39225.0,1.25,240.0,297.63780355453486,0.0,0.0,2.100829863,3.7052999999999985,0.0,-17664.0,0.875,225.0,297.63780355453486,0.0,0.125,2.8515622080000003,1.2394999999999985,0.0,-0.33000001311302185,-0.2800000011920929,71.30999755859375,-0.0040283203125,-0.0211181640625,1.01220703125,35.779998779296875,0.0,-14.0,-1.3083343505859375,-2.186187744140625,Closing,0.0,0.0,-189.0,0.0,0.0,0.0,0.0,0.0,
7.859979999999996,0.0,0.0,52306.0,0.0,255.0,0.0,0.0,0.25,4.542235863,3.6991882499999984,0.004882811999999959,-36624.0,0.25,-232.5,0.0,0.0,0.0,4.234618707,3.7228274999999984,0.0,39269.0,0.25,262.5,0.0,0.0,0.0,2.09960916,3.7052999999999985,0.0,-17664.0,0.25,255.0,0.0,0.0,0.125,2.8515622080000003,1.2394999999999985,0.0,-0.25999999046325684,-0.3199999928474426,71.30999755859375,0.02685546875,0.0438232421875,1.05096435546875,35.779998779296875,0.0,56.0,-1.30828857421875,-2.186187744140625,Closing,0.0,0.0,-189.0,0.0,0.0,0.0,0.0,0.0,
7.926391999999993,0.0,0.0,52306.0,0.0,150.0,0.0,0.0,0.25,4.543456566000001,3.6991882499999984,0.0,-36636.0,0.0,-75.0,0.0,0.0,0.0,4.234618707,3.7228274999999984,0.0,39288.0,0.0,165.0,0.0,0.0,0.0,2.100829863,3.7052999999999985,0.0,-17646.0,0.0,90.0,0.0,0.0,0.125,2.8527829110000003,1.2394999999999985,0.0,0.05000000074505806,-0.3799999952316284,71.33999633789062,-0.0106201171875,0.1240234375,1.06591796875,35.810001373291016,0.0,115.0,-1.3055572509765625,-2.185394287109375,Closing,0.0,0.0,-189.0,0.0,0.0,0.0,0.0,0.0,
8.060216,0.0,0.0,52335.0,0.0,120.0,0.0,0.0,0.25,4.5483393780000005,3.6991882499999984,0.0,-36657.0,0.0,-127.5,0.0,0.0,0.0,4.234618707,3.7228274999999984,0.0,39310.0,0.0,135.0,0.0,0.0,0.0,2.100829863,3.7052999999999985,0.0,-17623.0,0.0,120.0,0.0,0.0,0.125,2.8503415050000003,1.2394999999999985,0.0,0.5400000214576721,-0.41999998688697815,71.29000091552734,-0.0174560546875,0.08770751953125,1.04547119140625,35.810001373291016,0.0,70.0,-1.2924957275390625,-2.1823272705078125,Closing,0.0,0.0,-189.0,0.0,0.0,0.0,0.0,0.0,
8.190259999999995,0.0,0.0,52357.0,0.125,127.5,396.8503922224045,0.0,0.25,4.544677269,3.6991882499999984,0.0,-36687.0,0.5,-195.0,-396.8503922224045,0.0,0.0,4.234618707,3.7228274999999984,0.0,39318.0,0.75,52.5,396.8503922224045,0.0,0.0,2.100829863,3.7052999999999985,0.0,-17611.0,0.5,82.5,396.8503922224045,0.0,0.125,2.8515622080000003,1.2394999999999985,0.0,0.6200000047683716,-0.46000000834465027,71.33999633789062,-0.01123046875,0.06402587890625,0.90985107421875,35.810001373291016,0.0,50.0,-1.2829437255859375,-2.1798553466796875,Closing,0.0,0.0,-189.0,0.0,0.0,0.0,0.0,0.0,
8.327040999999998,0.0,0.0,52364.0,0.0,30.0,0.0,0.0,0.25,4.547118675,3.6991882499999984,0.0,-36690.0,0.0,-7.5,0.0,0.0,0.0,4.234618707,3.7228274999999984,0.0,39319.0,0.0,0.0,0.0,0.0,0.0,2.09960916,3.7052999999999985,0.0,-17592.0,0.0,45.0,0.0,0.0,0.125,2.8527829110000003,1.2394999999999985,0.0,0.6100000143051147,-0.47999998927116394,71.30999755859375,-0.01580810546875,0.04144287109375,0.9351806640625,35.810001373291016,0.0,27.0,-1.284332275390625,-2.1771392822265625,Closing,0.0,0.0,-189.0,0.0,0.0,0.0,0.0,0.0,
8.459972999999998,0.0,0.0,52364.0,0.0,0.0,0.0,0.0,0.25,4.5483393780000005,3.6991882499999984,0.0,-36690.0,0.0,0.0,0.0,0.0,0.0,4.234618707,3.7228274999999984,0.0,39319.0,0.0,0.0,0.0,0.0,0.0,2.09960916,3.7052999999999985,0.0,-17592.0,0.0,0.0,0.0,0.0,0.125,2.8515622080000003,1.2394999999999985,0.0,0.7699999809265137,-0.5199999809265137,71.30000305175781,-0.02252197265625,0.01495361328125,1.0009765625,35.84000015258789,0.0,-3.0,-1.2836456298828125,-2.176971435546875,Closing,0.0,0.0,-189.0,0.0,0.0,0.0,0.0,0.0,
8.590868000000002,0.0,0.0,52364.0,0.0,0.0,0.0,0.0,0.25,4.547118675,3.6991882499999984,0.0,-36690.0,0.0,0.0,0.0,0.0,0.0,4.234618707,3.7228274999999984,0.0,39319.0,0.0,0.0,0.0,0.0,0.0,2.100829863,3.7052999999999985,0.0,-17592.0,0.0,0.0,0.0,0.0,0.125,2.8527829110000003,1.2394999999999985,0.0,0.6700000166893005,-0.5299999713897705,71.30999755859375,-0.0247802734375,-0.01568603515625,1.0123291015625,35.84000015258789,0.0,-31.0,-1.284027099609375,-2.176971435546875,Closing,0.0,0.0,-189.0,0.0,0.0,0.0,0.0,0.0,
8.727191999999995,0.0,0.0,52365.0,0.125,7.5,198.42519611120224,0.0,0.25,4.5483393780000005,3.6991882499999984,0.0,-36690.0,0.25,-7.5,-198.42519611120224,0.0,0.0,4.234618707,3.7228274999999984,0.0,39320.0,0.375,7.5,198.42519611120224,0.0,0.0,2.09960916,3.7052999999999985,0.0,-17592.0,0.375,0.0,198.42519611120224,0.0,0.125,2.8527829110000003,1.2394999999999985,0.0,0.6399999856948853,-0.550000011920929,71.31999969482422,-0.02020263671875,0.0128173828125,1.0185546875,35.84000015258789,0.0,-1.0,-1.284210205078125,-2.176971435546875,Closing,0.0,0.0,-189.0,0.0,0.0,0.0,0.0,0.0,
8.860599000000002,0.0,0.0,52366.0,0.0,0.0,0.0,0.0,0.25,4.547118675,3.6991882499999984,0.0,-36694.0,0.0,-7.5,0.0,0.0,0.0,4.234618707,3.7228274999999984,0.0,39321.0,0.0,0.0,0.0,0.0,0.0,2.100829863,3.7052999999999985,0.0,-17592.0,0.0,0.0,0.0,0.0,0.125,2.8527829110000003,1.2394999999999985,0.0,0.6600000262260437,-0.5600000023841858,71.31999969482422,-0.02276611328125,-0.0030517578125,1.021240234375,35.84000015258789,0.0,-18.0,-1.28411865234375,-2.176971435546875,Closing,0.0,0.0,-189.0,0.0,0.0,0.0,0.0,0.0,
8.991464999999996,0.0,0.0,52366.0,0.0,0.0,0.0,0.0,0.25,4.547118675,3.6991882499999984,0.0,-36694.0,0.0,0.0,0.0,0.0,0.0,4.234618707,3.7228274999999984,0.0,39321.0,0.0,0.0,0.0,0.0,0.0,2.09960916,3.7052999999999985,0.0,-17592.0,0.0,0.0,0.0,0.0,0.125,2.8515622080000003,1.2394999999999985,0.0,0.6299999952316284,-0.5699999928474426,71.31999969482422,-0.017333984375,0.00628662109375,1.02410888671875,35.779998779296875,0.0,-7.0,-1.28411865234375,-2.176971435546875,Closing,0.0,0.0,-189.0,0.0,0.0,0.0,0.0,0.0,
9.126978000000003,0.0,0.0,52366.0,1.625,37.5,595.2756071090697,0.0,0.25,4.547118675,3.6991882499999984,0.0,-36704.0,4.0,-37.5,-595.2756071090697,0.0,0.0,4.2358394100000005,3.7228274999999984,0.0,39321.0,2.375,0.0,595.2756071090697,0.0,0.0,2.100829863,3.7052999999999985,0.0,-17582.0,1.75,45.0,595.2756071090697,0.0,0.125,2.8515622080000003,1.2394999999999985,0.0,0.28999999165534973,-0.5699999928474426,71.33999633789062,-0.056396484375,-0.0572509765625,1.09820556640625,35.779998779296875,0.0,-74.0,-1.2865447998046875,-2.1778717041015625,Closing,0.0,0.0,-189.0,0.0,0.0,0.0,0.0,0.0,
9.260061000000002,0.0,0.0,52388.0,0.0,97.5,0.0,0.0,0.25,4.543456566000001,3.6991882499999984,0.0,-36715.0,0.0,-82.5,0.0,0.0,0.0,4.239501519,3.7228274999999984,0.0,39328.0,0.0,37.5,0.0,0.0,0.0,2.09960916,3.7052999999999985,0.0,-17569.0,0.0,75.0,0.0,0.0,0.125,2.8527829110000003,1.2394999999999985,0.0,0.14000000059604645,-0.5600000023841858,71.30999755859375,-0.0457763671875,0.0740966796875,1.02557373046875,35.779998779296875,0.0,56.0,-1.2964630126953125,-2.1812896728515625,Closing,0.0,0.0,-189.0,0.0,0.0,0.0,0.0,0.0,
9.315118000000002,0.0,0.0,52388.0,0.0,15.0,0.0,0.0,0.25,4.543456566000001,3.6991882499999984,-0.004882811999999959,-36715.0,0.0,-7.5,0.0,0.0,0.125,4.239501519,3.7228274999999984,0.004882811999999959,39328.0,0.0,0.0,0.0,0.0,0.0,2.100829863,3.7052999999999985,0.0,-17569.0,0.0,0.0,0.0,0.0,0.125,2.8515622080000003,1.2394999999999985,0.0,0.3400000035762787,-0.5799999833106995,71.33000183105469,-0.02294921875,0.160888671875,1.11767578125,35.779998779296875,0.0,142.0,-1.2993927001953125,-2.18243408203125,Closing,0.0,0.0,-189.0,0.0,0.0,0.0,0.0,0.0,
9.461065000000003,0.0,0.0,52394.0,0.0,22.5,0.0,0.0,0.25,4.542235863,3.6991882499999984,0.0,-36718.0,0.0,-15.0,0.0,0.0,0.125,4.239501519,3.7228274999999984,0.0,39333.0,0.0,15.0,0.0,0.0,0.0,2.105712675,3.7052999999999985,0.0,-17564.0,0.0,22.5,0.0,0.0,0.125,2.8527829110000003,1.2394999999999985,0.0,0.8100000023841858,-0.6000000238418579,71.33999633789062,-0.00579833984375,0.00811767578125,0.99072265625,35.81999969482422,0.0,-4.0,-1.2988739013671875,-2.182525634765625,Closing,0.0,0.0,-189.0,0.0,0.0,0.0,0.0,0.0,
9.526989000000002,0.0,0.0,52394.0,0.0,0.0,0.0,0.0,0.25,4.544677269,3.6991882499999984,0.0,-36718.0,0.0,0.0,0.0,0.0,0.0,4.234618707,3.7228274999999984,-0.004882811999999959,39333.0,0.0,0.0,0.0,0.0,0.0,2.104491972,3.7052999999999985,0.003662108999999525,-17564.0,0.0,0.0,0.0,0.0,0.125,2.8515622080000003,1.2394999999999985,0.0,0.7799999713897705,-0.6100000143051147,71.33000183105469,-0.00323486328125,6.7138671875E-4,1.00506591796875,35.81999969482422,0.0,-10.0,-1.2989349365234375,-2.182525634765625,Closing,0.0,0.0,-189.0,0.0,0.0,0.0,0.0,0.0,
9.659691999999996,0.0,0.0,52394.0,0.0,0.0,0.0,0.0,0.25,4.543456566000001,3.6991882499999984,0.0,-36718.0,0.0,0.0,0.0,0.0,0.0,4.2333980040000005,3.7228274999999984,0.0,39333.0,0.0,0.0,0.0,0.0,0.0,2.104491972,3.7052999999999985,0.0,-17564.0,0.0,0.0,0.0,0.0,0.125,2.8515622080000003,1.2394999999999985,0.0,0.6600000262260437,-0.6299999952316284,71.33999633789062,-0.01629638671875,-0.01275634765625,1.03924560546875,35.81999969482422,0.0,-25.0,-1.2998504638671875,-2.182525634765625,Closing,0.0,0.0,-189.0,0.0,0.0,0.0,0.0,0.0,
9.790384999999995,0.0,0.0,52385.0,0.375,-90.0,-496.06298089027405,0.0,1.875,0.189208965,4.932250999999998,0.0,-36733.0,1.875,-142.5,-496.06298089027405,0.0,2.625,3.6938472780000002,2.481884999999998,0.0,39339.0,1.125,135.0,496.06298089027405,0.0,1.625,1.414794777,2.4702000000000024,0.0,-17563.0,1.125,37.5,496.06298089027405,0.0,2.125,2.141113062,0.01,0.0,0.47999998927116394,-0.699999988079071,71.4000015258789,-0.15234375,0.00164794921875,1.115966796875,35.81999969482422,0.0,-51.0,-1.3011474609375,-2.1822052001953125,Closing,0.0,0.0,-189.0,0.0,0.0,0.0,0.0,0.0,
9.926012999999992,0.0,0.0,52371.0,2.0,-75.0,-535.7480388879776,0.0,0.625,0.9704588850000001,4.932250999999998,0.0,-36739.0,6.25,-37.5,-535.7480388879776,0.0,1.5,2.939452824,2.481884999999998,0.0,39365.0,2.25,90.0,535.7480388879776,0.0,0.375,0.718994067,2.4702000000000024,0.0,-17548.0,2.25,97.5,535.7480388879776,0.0,0.625,1.429443213,0.01,0.0,0.47999998927116394,-1.100000023841858,71.37999725341797,-0.1015625,0.03802490234375,1.07574462890625,35.81999969482422,0.0,1.0,-1.30340576171875,-2.176605224609375,Closing,0.0,0.0,-189.0,0.0,0.0,0.0,0.0,0.0,
10.059942999999999,0.0,0.0,52340.0,2.375,-292.5,-575.433059334755,0.0,0.625,1.303710804,4.932250999999998,0.0,-36757.0,9.0,-225.0,-575.433059334755,0.0,0.25,2.879638377,2.481884999999998,0.0,39376.0,3.875,202.5,575.433059334755,0.0,0.125,0.692138601,2.4702000000000024,0.0,-17524.0,2.875,277.5,575.433059334755,0.0,0.25,1.406249856,0.01,0.0,0.7200000286102295,-1.7000000476837158,71.77999877929688,-0.02752685546875,-8.544921875E-4,1.06524658203125,35.81999969482422,0.0,-12.0,-1.303436279296875,-2.159637451171875,Closing,0.0,0.0,-189.0,0.0,0.0,0.0,0.0,0.0,
10.126960999999996,0.0,0.0,52289.0,3.125,-307.5,-634.9606275558472,0.0,1.25,1.220703,4.932250999999998,0.0,-36797.0,10.5,-262.5,-634.9606275558472,0.0,0.25,2.912597358,2.481884999999998,0.0,39412.0,4.75,232.5,634.9606275558472,0.0,0.125,0.754394454,2.4702000000000024,0.0,-17477.0,3.625,262.5,634.9606275558472,0.0,0.375,1.490478363,0.01,0.0,0.6700000166893005,-1.7899999618530273,72.23999786376953,-0.06683349609375,-0.09625244140625,1.077392578125,35.81999969482422,0.0,-113.0,-1.30389404296875,-2.1526947021484375,Closing,0.0,0.0,-189.0,0.0,0.0,0.0,0.0,0.0,
10.258687999999994,0.0,0.0,52226.0,3.375,-405.0,-634.9606275558472,0.0,0.5,0.780029217,4.932250999999998,0.0,-36849.0,12.25,-360.0,-634.9606275558472,0.0,0.25,2.989501647,2.481884999999998,0.0,39464.0,5.5,375.0,634.9606275558472,0.0,0.125,0.872802645,2.4702000000000024,0.0,-17432.0,5.0,345.0,634.9606275558472,0.0,0.25,1.625976396,0.01,0.0,0.47999998927116394,-2.2699999809265137,73.27999877929688,-0.1734619140625,-0.02154541015625,0.83905029296875,35.81999969482422,0.0,-67.0,-1.3087005615234375,-2.1492156982421875,Closing,0.0,0.0,-189.0,0.0,0.0,0.0,0.0,0.0,
10.386281000000002,0.0,0.0,52137.0,2.875,-555.0,-634.9606275558472,0.0,0.25,0.668945244,4.932250999999998,0.0,-36935.0,7.875,-630.0,-634.9606275558472,0.0,0.0,2.989501647,2.481884999999998,0.0,39547.0,4.5,532.5,634.9606275558472,0.0,0.0,0.8959960020000001,2.4702000000000024,0.0,-17358.0,3.375,600.0,634.9606275558472,0.0,0.125,1.669921704,0.01,0.0,0.5600000023841858,-2.640000104904175,73.30999755859375,-0.16162109375,0.00164794921875,1.10247802734375,35.81999969482422,0.0,-40.0,-1.315765380859375,-2.1368865966796875,Closing,0.0,0.0,-189.0,0.0,0.0,0.0,0.0,0.0,
10.448569999999993,0.0,0.0,52033.0,2.625,-622.5,-634.9606275558472,0.0,0.25,0.6738280560000001,4.932250999999998,0.0,-37059.0,4.75,-772.5,-634.9606275558472,0.0,0.0,2.989501647,2.481884999999998,0.0,39619.0,5.25,442.5,634.9606275558472,0.0,0.125,0.8959960020000001,2.4702000000000024,0.0,-17240.0,2.375,720.0,634.9606275558472,0.0,0.25,1.666259595,0.01,0.0,0.550000011920929,-2.7899999618530273,72.72000122070312,-0.1031494140625,-0.052001953125,0.92266845703125,35.81999969482422,0.0,-75.0,-1.3208160400390625,-2.1324005126953125,Closing,0.0,0.0,-189.0,0.0,0.0,0.0,0.0,0.0,
10.59231199999999,0.0,0.0,51916.0,1.25,-720.0,-634.9606275558472,0.0,0.25,0.79345695,4.932250999999998,0.0,-37190.0,2.375,-817.5,-634.9606275558472,0.0,0.0,2.988280944,2.481884999999998,0.0,39731.0,4.0,690.0,634.9606275558472,0.0,0.125,0.8972167050000001,2.4702000000000024,0.0,-17116.0,1.125,802.5,634.9606275558472,0.0,0.25,1.6601560800000001,0.01,0.0,0.5400000214576721,-2.75,71.97000122070312,-0.0384521484375,-0.05120849609375,1.0328369140625,35.849998474121094,0.0,-54.0,-1.3315887451171875,-2.1318359375,Closing,0.0,0.0,-189.0,0.0,0.0,0.0,0.0,0.0,
10.725705000000001,0.0,0.0,51792.0,0.625,-780.0,-634.9606275558472,0.0,0.125,0.847167882,4.932250999999998,0.0,-37323.0,1.125,-825.0,-634.9606275558472,0.0,0.0,2.989501647,2.481884999999998,0.0,39851.0,2.75,750.0,634.9606275558472,0.0,0.125,0.8972167050000001,2.4702000000000024,0.0,-16990.0,1.125,735.0,634.9606275558472,0.0,0.25,1.6601560800000001,0.01,0.0,0.38999998569488525,-2.6500000953674316,71.86000061035156,-0.0341796875,-0.0294189453125,1.12164306640625,35.849998474121094,0.0,-29.0,-1.340576171875,-2.1330718994140625,Closing,0.0,0.0,-189.0,0.0,0.0,0.0,0.0,0.0,
10.856728999999993,0.0,0.0,51691.0,0.0,-577.5,-158.7401568889618,0.0,0.25,0.847167882,4.932250999999998,0.0,-37426.0,0.0,-532.5,-158.7401568889618,0.0,0.0,2.982177429,2.481884999999998,0.0,39965.0,0.375,630.0,158.7401568889618,0.0,0.125,0.8972167050000001,2.4702000000000024,0.0,-16880.0,0.375,705.0,158.7401568889618,0.0,0.25,1.668701001,0.01,0.0,0.4699999988079071,-2.059999942779541,71.8499984741211,0.13623046875,-0.0118408203125,1.3070068359375,35.849998474121094,0.0,35.0,-1.348175048828125,-2.1390838623046875,Closing,0.0,0.0,-189.0,0.0,0.0,0.0,0.0,0.0,
10.990991999999999,0.0,0.0,51597.0,0.0,-555.0,0.0,0.0,0.25,0.845947179,4.932250999999998,0.0,-37526.0,0.0,-600.0,0.0,0.0,0.0,2.984618835,2.481884999999998,0.0,40053.0,0.0,540.0,0.0,0.0,0.125,0.900878814,2.4702000000000024,0.0,-16771.0,0.0,577.5,0.0,0.0,0.25,1.6601560800000001,0.01,0.0,0.46000000834465027,-1.3600000143051147,71.56999969482422,0.0645751953125,0.0206298828125,1.10797119140625,35.81999969482422,0.0,39.0,-1.35052490234375,-2.161041259765625,Closing,0.0,0.0,-189.0,0.0,0.0,0.0,0.0,0.0,
11.123925000000003,0.0,0.0,51527.0,0.0,-405.0,0.0,0.0,0.25,0.845947179,4.932250999999998,0.0,-37604.0,0.0,-412.5,0.0,0.0,0.0,2.983398132,2.481884999999998,0.0,40130.0,0.0,435.0,0.0,0.0,0.125,0.900878814,2.4702000000000024,0.0,-16691.0,0.0,397.5,0.0,0.0,0.25,1.645507644,0.01,0.0,0.5400000214576721,-0.7300000190734863,71.54000091552734,0.068115234375,0.0181884765625,1.12286376953125,35.81999969482422,0.0,33.0,-1.349578857421875,-2.1934814453125,Closing,0.0,0.0,-189.0,0.0,0.0,0.0,0.0,0.0,
11.262260999999999,0.0,0.0,51477.0,0.0,-232.5,0.0,0.0,0.25,0.8447264760000001,4.932250999999998,0.0,-37657.0,0.0,-232.5,0.0,0.0,0.0,2.984618835,2.481884999999998,0.0,40182.0,0.0,232.5,0.0,0.0,0.125,0.900878814,2.4702000000000024,0.0,-16636.0,0.0,247.5,0.0,0.0,0.25,1.6357420200000001,0.01,0.0,0.49000000953674316,-0.20000000298023224,71.5199966430664,0.0908203125,0.0423583984375,1.0660400390625,35.81999969482422,0.0,61.0,-1.348480224609375,-2.236236572265625,Closing,0.0,0.0,-189.0,0.0,0.0,0.0,0.0,0.0,
11.391978999999992,0.0,0.0,51448.0,0.0,-97.5,0.0,0.0,0.25,0.8447264760000001,4.932250999999998,0.0,-37699.0,0.0,-97.5,0.0,0.0,0.0,2.985839538,2.481884999999998,0.0,40223.0,0.0,90.0,0.0,0.0,0.125,0.900878814,2.4702000000000024,0.0,-16592.0,0.0,82.5,0.0,0.0,0.125,1.6357420200000001,0.01,0.0,0.5199999809265137,0.23999999463558197,71.4800033569336,0.08251953125,-0.00750732421875,1.024169921875,35.81999969482422,0.0,8.0,-1.3463592529296875,-2.2877960205078125,Closing,0.0,0.0,-189.0,0.0,0.0,0.0,0.0,0.0,
11.517209000000003,0.0,0.0,51443.0,0.0,0.0,0.0,0.0,0.25,0.8447264760000001,4.932250999999998,0.0,-37699.0,0.0,0.0,0.0,0.0,0.0,2.984618835,2.481884999999998,0.0,40223.0,0.0,7.5,0.0,0.0,0.125,0.900878814,2.4702000000000024,0.0,-16592.0,0.0,0.0,0.0,0.0,0.125,1.6357420200000001,0.01,0.0,0.5199999809265137,0.28999999165534973,71.47000122070312,-0.02166748046875,-3.0517578125E-4,0.9705810546875,35.83000183105469,0.0,-17.0,-1.3463592529296875,-2.344512939453125,Closing,0.0,0.0,-189.0,0.0,0.0,0.0,0.0,0.0,
11.657459000000003,0.0,0.0,51443.0,0.0,0.0,0.0,0.0,0.25,0.845947179,4.932250999999998,0.0,-37699.0,0.0,0.0,0.0,0.0,0.0,2.984618835,2.481884999999998,0.0,40223.0,0.0,0.0,0.0,0.0,0.125,0.900878814,2.4702000000000024,0.0,-16592.0,0.0,0.0,0.0,0.0,0.125,1.6357420200000001,0.01,0.0,0.5,0.05999999865889549,71.47000122070312,-0.02996826171875,0.00860595703125,1.01458740234375,35.83000183105469,0.0,-10.0,-1.3465118408203125,-2.3984527587890625,Closing,0.0,0.0,-189.0,0.0,0.0,0.0,0.0,0.0,
11.796373999999997,0.0,0.0,51443.0,0.0,0.0,0.0,0.0,0.25,0.845947179,4.932250999999998,0.0,-37699.0,0.0,0.0,0.0,0.0,0.0,2.985839538,2.481884999999998,0.0,40223.0,0.0,0.0,0.0,0.0,0.125,0.900878814,2.4702000000000024,0.0,-16592.0,0.0,0.0,0.0,0.0,0.125,1.6357420200000001,0.01,0.0,0.49000000953674316,-0.019999999552965164,71.47000122070312,-0.0029296875,0.00738525390625,1.02178955078125,35.83000183105469,0.0,-2.0,-1.3465118408203125,-2.4269561767578125,Closing,0.0,0.0,-189.0,0.0,0.0,0.0,0.0,0.0,
11.918183999999993,0.0,0.0,51443.0,0.0,0.0,0.0,0.0,0.25,0.845947179,4.932250999999998,0.0,-37699.0,0.0,0.0,0.0,0.0,0.0,2.984618835,2.481884999999998,0.0,40223.0,0.0,0.0,0.0,0.0,0.125,0.900878814,2.4702000000000024,0.0,-16592.0,0.0,0.0,0.0,0.0,0.125,1.6357420200000001,0.01,0.0,0.49000000953674316,-0.05999999865889549,71.47000122070312,-0.01513671875,0.0072021484375,1.0208740234375,35.83000183105469,0.0,-5.0,-1.3465118408203125,-2.4269561767578125,Closing,0.0,0.0,-189.0,0.0,0.0,0.0,0.0,0.0,
12.05989,0.0,0.0,51443.0,0.0,0.0,0.0,0.0,0.25,0.8447264760000001,4.932250999999998,0.0,-37699.0,0.0,0.0,0.0,0.0,0.0,2.984618835,2.481884999999998,0.0,40223.0,0.0,0.0,0.0,0.0,0.125,0.902099517,2.4702000000000024,0.0,-16592.0,0.0,0.0,0.0,0.0,0.125,1.6345213170000001,0.01,0.0,0.47999998927116394,-0.15000000596046448,71.47000122070312,-0.0155029296875,0.00970458984375,1.0247802734375,35.810001373291016,0.0,-3.0,-1.3465118408203125,-2.4269561767578125,Closing,0.0,0.0,-189.0,0.0,0.0,0.0,0.0,0.0,
12.185682,0.0,0.0,51443.0,0.0,0.0,0.0,0.0,0.25,0.845947179,4.932250999999998,0.0,-37699.0,0.0,0.0,0.0,0.0,0.0,2.984618835,2.481884999999998,0.0,40223.0,0.0,0.0,0.0,0.0,0.125,0.900878814,2.4702000000000024,0.0,-16592.0,0.0,0.0,0.0,0.0,0.125,1.6357420200000001,0.01,0.0,0.47999998927116394,-0.20000000298023224,71.47000122070312,-0.01519775390625,0.00848388671875,1.0223388671875,35.810001373291016,0.0,-3.0,-1.3465118408203125,-2.4269561767578125,Closing,0.0,0.0,-189.0,0.0,0.0,0.0,0.0,0.0,
12.327884999999995,0.0,0.0,51443.0,0.0,0.0,0.0,0.0,0.25,0.8447264760000001,4.932250999999998,0.0,-37699.0,0.0,0.0,0.0,0.0,0.0,2.984618835,2.481884999999998,0.0,40223.0,0.0,0.0,0.0,0.0,0.125,0.899658111,2.4702000000000024,0.0,-16592.0,0.0,0.0,0.0,0.0,0.125,1.6357420200000001,0.01,0.0,0.47999998927116394,-0.27000001072883606,71.47000122070312,-0.013671875,0.00775146484375,1.0184326171875,35.810001373291016,0.0,-3.0,-1.3465118408203125,-2.4269561767578125,Closing,0.0,0.0,-189.0,0.0,0.0,0.0,0.0,0.0,
12.458145000000004,0.0,0.0,51443.0,0.0,0.0,0.0,0.0,0.25,0.8447264760000001,4.932250999999998,0.0,-37699.0,0.0,0.0,0.0,0.0,0.0,2.984618835,2.481884999999998,0.0,40223.0,0.0,0.0,0.0,0.0,0.125,0.900878814,2.4702000000000024,0.0,-16592.0,0.0,0.0,0.0,0.0,0.125,1.6357420200000001,0.01,0.0,0.4699999988079071,-0.3199999928474426,71.47000122070312,-0.01580810546875,0.00396728515625,1.0218505859375,35.810001373291016,0.0,-7.0,-1.3465118408203125,-2.4269561767578125,Closing,0.0,0.0,-189.0,0.0,0.0,0.0,0.0,0.0,
12.591341,0.0,0.0,51443.0,0.0,0.0,0.0,0.0,0.25,0.8447264760000001,4.932250999999998,0.0,-37699.0,0.0,0.0,0.0,0.0,0.0,2.984618835,2.481884999999998,0.0,40223.0,0.0,0.0,0.0,0.0,0.125,0.900878814,2.4702000000000024,0.0,-16592.0,0.0,0.0,0.0,0.0,0.125,1.6357420200000001,0.01,0.0,0.4699999988079071,-0.3799999952316284,71.47000122070312,-0.01025390625,0.00701904296875,1.0208740234375,35.77000045776367,0.0,-2.0,-1.3465118408203125,-2.4269561767578125,Closing,0.0,0.0,-189.0,0.0,0.0,0.0,0.0,0.0,
12.726596000000004,0.0,0.0,51443.0,0.0,0.0,0.0,0.0,0.25,0.845947179,4.932250999999998,0.0,-37699.0,0.0,0.0,0.0,0.0,0.0,2.984618835,2.481884999999998,0.0,40223.0,0.0,0.0,0.0,0.0,0.125,0.900878814,2.4702000000000024,0.0,-16592.0,0.0,0.0,0.0,0.0,0.125,1.6357420200000001,0.01,0.0,0.4699999988079071,-0.41999998688697815,71.45999908447266,-0.01361083984375,0.00787353515625,1.01788330078125,35.77000045776367,0.0,-2.0,-1.3465118408203125,-2.4269561767578125,Closing,0.0,0.0,-189.0,0.0,0.0,0.0,0.0,0.0,
12.856086999999999,0.0,0.0,51443.0,0.0,0.0,0.0,0.0,0.25,0.8447264760000001,4.932250999999998,0.0,-37699.0,0.0,0.0,0.0,0.0,0.0,2.984618835,2.481884999999998,0.0,40223.0,0.0,0.0,0.0,0.0,0.125,0.900878814,2.4702000000000024,0.0,-16592.0,0.0,0.0,0.0,0.0,0.125,1.6357420200000001,0.01,0.0,0.46000000834465027,-0.46000000834465027,71.47000122070312,-0.01239013671875,0.00494384765625,1.0235595703125,35.77000045776367,0.0,-4.0,-1.3465118408203125,-2.4269561767578125,Closing,0.0,0.0,-189.0,0.0,0.0,0.0,0.0,0.0,
