Time,ClimberA1,ClimberA2,FRpos,FRCurrent,FRspeed,FRsetpoint,FRApos,FRACurrent,FREncpos,FREncSetpoint,FREncSpeed,FLpos,FLCurrent,FLspeed,FLsetpoint,FLApos,FLACurrent,FLEncpos,FLEncSetpoint,FLEncSpeed,BRpos,BRCurrent,BRspeed,BRsetpoint,BRApos,BRACurrent,BREncpos,BREncSetpoint,BREncSpeed,BLpos,BLCurrent,BLspeed,BLsetpoint,BLApos,BLACurrent,BLEncpos,BLEncSetpoint,BLEncSpeed,navx_Pitch,navx_Roll,navx_Yaw,navx_XAcc,navx_YAcc,navx_ZAcc,navx_Temp,navx_Bar,navx_Alt,navx_XDis,navx_YDis,GearPlacerState,ShootOutputV,ShootOutputCurrent,ShootEncPos,ShootEncVelocity,ShootSpeed,ShootSetpoint,CarouselSetpoint,CarouselCurrent,
0.1993639999999432,0.0,0.0,70735.0,7.625,442.5,948.8114150156831,0.0,0.25,0.33081051300000003,4.552614307926555,0.0,-69463.0,8.875,-600.0,-948.8114150156831,0.0,0.25,0.172119123,4.581707281980701,0.0,63484.0,8.25,435.0,948.8114150156831,0.0,0.125,2.814941118,4.560136077194844,0.0,-45718.0,8.75,-480.0,-948.8114150156831,0.0,0.25,1.158447147,4.576381400439648,0.0,-0.30000001192092896,0.28999999165534973,39.90999984741211,-0.4971923828125,0.18798828125,0.8040771484375,35.689998626708984,0.0,-261.0,-3.1923828125,-0.1204986572265625,Closing,0.0,0.0,-189.0,0.0,0.0,0.0,0.0,0.0,
0.4139130000000005,0.0,0.0,70744.0,6.5,-30.0,0.0,0.0,1.125,0.887451081,0.01,0.0,-69513.0,6.25,-22.5,-0.0,0.0,0.5,0.520019478,0.01,0.0,63513.0,6.0,-22.5,0.0,0.0,1.0,3.5229488580000003,0.01,0.0,-45758.0,4.625,-15.0,-0.0,0.0,1.25,1.718749824,0.01,0.0,0.4099999964237213,-0.6399999856948853,40.27000045776367,-0.00677490234375,0.04937744140625,0.9969482421875,35.689998626708984,0.0,30.0,-3.191192626953125,-0.1044464111328125,Closing,0.0,0.0,-189.0,0.0,0.0,0.0,0.0,0.0,
0.628,0.0,0.0,70744.0,5.25,0.0,0.0,0.0,0.25,0.9594725580000001,0.01,0.0,-69519.0,5.875,0.0,-0.0,0.0,0.125,0.6616210260000001,0.01,0.0,63514.0,5.25,7.5,0.0,0.0,0.125,3.5314937790000003,0.01,0.0,-45765.0,5.375,0.0,-0.0,0.0,0.25,1.7407224780000001,0.01,0.0,0.3799999952316284,-0.6200000047683716,40.33000183105469,-0.01654052734375,0.00189208984375,1.0350341796875,35.689998626708984,0.0,-7.0,-3.190826416015625,-0.100341796875,Closing,0.0,0.0,-189.0,0.0,0.0,0.0,0.0,0.0,
0.8349929999999586,0.0,0.0,70745.0,5.125,7.5,0.0,0.0,0.375,0.8276366340000001,0.01,0.0,-69519.0,6.0,0.0,-0.0,0.0,0.25,0.6201171240000001,0.01,0.0,63517.0,5.0,7.5,0.0,0.0,0.25,3.348388329,0.01,0.0,-45764.0,5.25,0.0,-0.0,0.0,0.25,1.6564939710000002,0.01,0.0,0.36000001430511475,-0.6000000238418579,40.31999969482422,-0.0101318359375,0.00482177734375,1.00689697265625,35.689998626708984,0.0,0.0,-3.190826416015625,-0.100341796875,Closing,0.0,0.0,-189.0,0.0,0.0,0.0,0.0,0.0,
1.0355569999999716,0.0,0.0,70746.0,5.875,0.0,0.0,0.0,0.125,0.798339762,0.01,0.0,-69519.0,6.0,0.0,-0.0,0.0,0.25,0.552978459,0.01,0.0,63518.0,5.625,0.0,0.0,0.0,0.0,3.3239742690000003,0.01,0.0,-45764.0,5.25,0.0,-0.0,0.0,0.25,1.650390456,0.01,0.0,0.36000001430511475,-0.5799999833106995,40.31999969482422,-0.0086669921875,0.0130615234375,1.0191650390625,35.689998626708984,0.0,0.0,-3.190826416015625,-0.100341796875,Closing,0.0,0.0,-189.0,0.0,0.0,0.0,0.0,0.0,
1.2766889999999549,0.0,0.0,70746.0,5.875,0.0,0.0,0.0,0.125,0.798339762,0.01,0.0,-69520.0,5.75,0.0,-0.0,0.0,0.25,0.544433538,0.01,0.0,63518.0,5.125,0.0,0.0,0.0,0.0,3.333739893,0.01,0.0,-45764.0,5.5,0.0,-0.0,0.0,0.25,1.650390456,0.01,0.0,0.36000001430511475,-0.5699999928474426,40.31999969482422,-0.01129150390625,0.00543212890625,1.018798828125,35.68000030517578,0.0,-1.0,-3.190826416015625,-0.100341796875,Closing,0.0,0.0,-189.0,0.0,0.0,0.0,0.0,0.0,
1.5439409999999916,0.0,0.0,70746.0,6.0,0.0,0.0,0.0,0.125,0.797119059,0.01,0.0,-69520.0,5.875,0.0,-0.0,0.0,0.25,0.532226508,0.01,0.0,63518.0,5.375,0.0,0.0,0.0,0.0,3.338622705,0.01,0.0,-45764.0,5.625,0.0,-0.0,0.0,0.25,1.650390456,0.01,0.0,0.3499999940395355,-0.5600000023841858,40.31999969482422,-0.00982666015625,0.0032958984375,1.0277099609375,35.68000030517578,0.0,-1.0,-3.190826416015625,-0.100341796875,Closing,0.0,0.0,-189.0,0.0,0.0,0.0,0.0,0.0,
1.812554999999993,0.0,0.0,70746.0,5.875,0.0,0.0,0.0,0.125,0.799560465,0.01,0.0,-69520.0,5.75,0.0,-0.0,0.0,0.125,0.5432128350000001,0.01,0.0,63518.0,5.375,0.0,0.0,0.0,0.0,3.338622705,0.01,0.0,-45764.0,5.75,0.0,-0.0,0.0,0.25,1.6613767830000001,0.01,0.0,0.3400000035762787,-0.550000011920929,40.310001373291016,-0.00732421875,0.006103515625,1.02679443359375,35.66999816894531,0.0,1.0,-3.190826416015625,-0.100341796875,Closing,0.0,0.0,-189.0,0.0,0.0,0.0,0.0,0.0,
2.075847999999998,0.0,0.0,70746.0,6.0,0.0,0.0,0.0,0.25,0.798339762,0.01,0.0,-69520.0,5.75,0.0,-0.0,0.0,0.25,0.5432128350000001,0.01,0.0,63518.0,5.375,0.0,0.0,0.0,0.0,3.338622705,0.01,0.0,-45764.0,5.875,0.0,-0.0,0.0,0.25,1.650390456,0.01,0.0,0.3400000035762787,-0.5400000214576721,40.310001373291016,-0.0098876953125,0.005126953125,1.01971435546875,35.66999816894531,0.0,0.0,-3.190826416015625,-0.100341796875,Closing,0.0,0.0,-189.0,0.0,0.0,0.0,0.0,0.0,
2.3474049999999695,0.0,0.0,70746.0,6.125,0.0,0.0,0.0,0.125,0.798339762,0.01,0.0,-69520.0,5.75,0.0,-0.0,0.0,0.25,0.5419921320000001,0.01,0.0,63518.0,5.375,0.0,0.0,0.0,0.0,3.339843408,0.01,0.0,-45764.0,6.25,0.0,-0.0,0.0,0.25,1.650390456,0.01,0.0,0.33000001311302185,-0.5199999809265137,40.310001373291016,-0.0074462890625,0.00628662109375,1.02032470703125,35.66999816894531,0.0,1.0,-3.190826416015625,-0.100341796875,Closing,0.0,0.0,-189.0,0.0,0.0,0.0,0.0,0.0,
2.6127019999999903,0.0,0.0,70746.0,6.125,0.0,0.0,0.0,0.125,0.8020018710000001,0.01,0.0,-69520.0,5.75,0.0,-0.0,0.0,0.125,0.550537053,0.01,0.0,63518.0,5.375,0.0,0.0,0.0,0.0,3.337402002,0.01,0.0,-45764.0,6.25,0.0,-0.0,0.0,0.25,1.651611159,0.01,0.0,0.33000001311302185,-0.5099999904632568,40.29999923706055,-0.0086669921875,0.0062255859375,1.02349853515625,35.619998931884766,0.0,0.0,-3.190826416015625,-0.100341796875,Closing,0.0,0.0,-189.0,0.0,0.0,0.0,0.0,0.0,
2.8769089999999853,0.0,0.0,70746.0,6.125,0.0,0.0,0.0,0.125,0.797119059,0.01,0.0,-69520.0,5.75,0.0,-0.0,0.0,0.25,0.544433538,0.01,0.0,63518.0,5.375,0.0,0.0,0.0,0.0,3.338622705,0.01,0.0,-45764.0,6.25,0.0,-0.0,0.0,0.25,1.650390456,0.01,0.0,0.33000001311302185,-0.5099999904632568,40.29999923706055,-0.00811767578125,0.00628662109375,1.021240234375,35.619998931884766,0.0,1.0,-3.190826416015625,-0.100341796875,Closing,0.0,0.0,-189.0,0.0,0.0,0.0,0.0,0.0,
3.1372629999999773,0.0,0.0,70746.0,6.125,0.0,0.0,0.0,0.25,0.799560465,0.01,0.0,-69520.0,5.75,0.0,-0.0,0.0,0.25,0.557861271,0.01,0.0,63518.0,5.375,0.0,0.0,0.0,0.0,3.339843408,0.01,0.0,-45764.0,6.375,0.0,-0.0,0.0,0.25,1.651611159,0.01,0.0,0.33000001311302185,-0.5,40.290000915527344,-0.00872802734375,0.00537109375,1.01995849609375,35.650001525878906,0.0,0.0,-3.190826416015625,-0.100341796875,Closing,0.0,0.0,-189.0,0.0,0.0,0.0,0.0,0.0,
3.4110969999999505,0.0,0.0,70746.0,6.125,0.0,0.0,0.0,0.125,0.798339762,0.01,0.0,-69520.0,5.75,0.0,-0.0,0.0,0.125,0.5432128350000001,0.01,0.0,63518.0,5.25,0.0,0.0,0.0,0.0,3.338622705,0.01,0.0,-45764.0,6.375,0.0,-0.0,0.0,0.25,1.650390456,0.01,0.0,0.33000001311302185,-0.5,40.290000915527344,-0.0091552734375,0.0062255859375,1.017822265625,35.650001525878906,0.0,0.0,-3.190826416015625,-0.100341796875,Closing,0.0,0.0,-189.0,0.0,0.0,0.0,0.0,0.0,
3.6739959999999847,0.0,0.0,70746.0,6.125,0.0,0.0,0.0,0.125,0.798339762,0.01,0.0,-69520.0,5.75,0.0,-0.0,0.0,0.25,0.5432128350000001,0.01,0.0,63518.0,5.25,0.0,0.0,0.0,0.0,3.339843408,0.01,0.0,-45764.0,6.5,0.0,-0.0,0.0,0.25,1.651611159,0.01,0.0,0.3199999928474426,-0.5,40.290000915527344,-0.00701904296875,0.006103515625,1.0185546875,35.66999816894531,0.0,1.0,-3.190826416015625,-0.100341796875,Closing,0.0,0.0,-189.0,0.0,0.0,0.0,0.0,0.0,
3.9411729999999516,0.0,0.0,70746.0,6.125,0.0,0.0,0.0,0.125,0.799560465,0.01,0.0,-69520.0,5.75,0.0,-0.0,0.0,0.25,0.5432128350000001,0.01,0.0,63518.0,5.25,0.0,0.0,0.0,0.0,3.339843408,0.01,0.0,-45764.0,6.5,0.0,-0.0,0.0,0.25,1.650390456,0.01,0.0,0.3199999928474426,-0.5,40.290000915527344,-0.00946044921875,0.0084228515625,1.02740478515625,35.66999816894531,0.0,1.0,-3.190826416015625,-0.100341796875,Closing,0.0,0.0,-189.0,0.0,0.0,0.0,0.0,0.0,
4.213147999999986,0.0,0.0,70746.0,6.125,0.0,0.0,0.0,0.125,0.7885741380000001,0.01,0.0,-69520.0,5.75,0.0,-0.0,0.0,0.25,0.544433538,0.01,0.0,63518.0,5.25,0.0,0.0,0.0,0.0,3.338622705,0.01,0.0,-45764.0,6.625,0.0,-0.0,0.0,0.25,1.650390456,0.01,0.0,0.33000001311302185,-0.5,40.290000915527344,-0.010009765625,0.00634765625,1.02044677734375,35.68000030517578,0.0,0.0,-3.190826416015625,-0.100341796875,Closing,0.0,0.0,-189.0,0.0,0.0,0.0,0.0,0.0,
4.477255999999994,0.0,0.0,70696.0,1.25,-180.0,-1058.2677125930786,0.0,1.25,1.64794905,0.5498168668524864,0.0,-69731.0,17.625,-675.0,-1058.2677125930786,0.0,1.125,4.746093264000001,4.41043958977222,0.0,63489.0,3.25,-75.0,-1058.2677125930786,0.0,0.5,2.421874752,4.389674732977291,0.0,-45819.0,42.5,-337.5,-1058.2677125930786,0.0,0.625,2.5402829430000002,0.552687206278561,0.0,0.75,-0.33000001311302185,44.040000915527344,-0.17926025390625,-0.1663818359375,1.17755126953125,35.68000030517578,0.0,-250.0,-3.18896484375,-0.1014404296875,Closing,0.0,0.0,-189.0,0.0,0.0,0.0,0.0,0.0,
4.693265999999945,0.0,0.0,70646.0,0.0,52.5,0.0,0.0,0.625,1.5502928100000002,0.5498168668524864,0.0,-69770.0,0.125,52.5,0.0,0.0,0.25,4.752196779,4.41043958977222,0.0,63448.0,0.125,-45.0,0.0,0.0,0.625,2.730712611,4.389674732977291,0.0,-45875.0,0.125,30.0,0.0,0.0,0.625,2.193603291,0.552687206278561,0.0,0.07999999821186066,-0.3400000035762787,45.79999923706055,-0.03131103515625,0.02874755859375,0.9058837890625,35.68000030517578,0.0,1.0,-3.1967315673828125,-0.1000823974609375,Closing,0.0,0.0,-189.0,0.0,0.0,0.0,0.0,0.0,
4.9428399999999675,0.0,0.0,70657.0,0.0,0.0,0.0,0.0,0.375,1.2951658830000001,0.5498168668524864,0.0,-69770.0,0.125,0.0,0.0,0.0,0.5,4.945067853,4.41043958977222,0.0,63447.0,0.125,0.0,0.0,0.0,0.0,2.828368851,4.389674732977291,0.0,-45872.0,0.125,0.0,0.0,0.0,0.125,2.153320092,0.552687206278561,0.0,0.3199999928474426,-0.550000011920929,45.70000076293945,-0.04742431640625,0.02203369140625,1.04644775390625,35.68000030517578,0.0,-14.0,-3.202239990234375,-0.10235595703125,Closing,0.0,0.0,-189.0,0.0,0.0,0.0,0.0,0.0,
5.211238999999943,0.0,0.0,70659.0,0.0,0.0,0.0,0.0,0.25,1.324462755,0.5498168668524864,0.0,-69770.0,0.125,0.0,0.0,0.0,0.25,4.947509259,4.41043958977222,0.0,63447.0,0.125,0.0,0.0,0.0,0.125,2.824706742,4.389674732977291,0.0,-45872.0,0.125,0.0,0.0,0.0,0.125,2.1679685280000003,0.552687206278561,0.0,0.3199999928474426,-0.5400000214576721,45.72999954223633,0.00653076171875,0.0054931640625,1.02374267578125,35.68000030517578,0.0,11.0,-3.202239990234375,-0.102874755859375,Closing,0.0,0.0,-189.0,0.0,0.0,0.0,0.0,0.0,
5.475963999999978,0.0,0.0,70654.0,1.375,-15.0,-377.00788199901575,0.0,1.0,0.7397460180000001,4.932250999999998,0.0,-69745.0,2.125,22.5,377.00788199901575,0.0,1.0,0.682372977,4.963769999999998,0.0,63441.0,1.625,-37.5,-377.00788199901575,0.0,1.0,3.489989877,0.01,0.0,-45854.0,1.25,135.0,377.00788199901575,0.0,1.0,1.4514158670000001,0.01,0.0,0.28999999165534973,-0.7699999809265137,45.880001068115234,-0.05224609375,0.01409912109375,1.05474853515625,35.68000030517578,0.0,-20.0,-3.2034454345703125,-0.1019287109375,Closing,0.0,0.0,-189.0,0.0,0.0,0.0,0.0,0.0,
5.744506999999984,0.0,0.0,70650.0,0.0,0.0,0.0,0.0,0.25,0.6738280560000001,4.932250999999998,0.0,-69742.0,0.125,0.0,0.0,0.0,0.25,0.5297851020000001,4.963769999999998,0.0,63426.0,0.0,-7.5,0.0,0.0,0.25,3.459472302,0.01,0.0,-45832.0,0.125,-7.5,0.0,0.0,0.375,1.6357420200000001,0.01,0.0,0.27000001072883606,-0.47999998927116394,45.90999984741211,-0.04205322265625,-0.0084228515625,1.00006103515625,35.70000076293945,0.0,-32.0,-3.2103729248046875,-0.10247802734375,Closing,0.0,0.0,-189.0,0.0,0.0,0.0,0.0,0.0,
6.010419999999984,0.0,0.0,70650.0,0.0,0.0,0.0,0.0,0.375,0.819091713,4.932250999999998,0.0,-69742.0,0.125,0.0,0.0,0.0,0.125,0.471191358,4.963769999999998,0.0,63426.0,0.125,0.0,0.0,0.0,0.25,3.3630367650000004,0.01,0.0,-45834.0,0.125,0.0,0.0,0.0,0.125,1.649169753,0.01,0.0,0.25,-0.5299999713897705,45.939998626708984,-0.01092529296875,0.00604248046875,1.02386474609375,35.70000076293945,0.0,0.0,-3.211090087890625,-0.1027984619140625,Closing,0.0,0.0,-189.0,0.0,0.0,0.0,0.0,0.0,
6.277991999999969,0.0,0.0,70646.0,0.125,-7.5,-158.7401568889618,0.0,0.125,0.847167882,4.932250999999998,0.0,-69737.0,0.375,7.5,158.7401568889618,0.0,0.25,0.509033151,4.963769999999998,0.0,63406.0,0.125,-105.0,-158.7401568889618,0.0,0.0,3.348388329,0.01,0.0,-45833.0,0.5,0.0,158.7401568889618,0.0,0.25,1.650390456,0.01,0.0,0.2800000011920929,-0.5099999904632568,45.93000030517578,-0.0238037109375,-0.01629638671875,1.0120849609375,35.709999084472656,0.0,-25.0,-3.21112060546875,-0.1027984619140625,Closing,0.0,0.0,-189.0,0.0,0.0,0.0,0.0,0.0,
6.464064999999944,0.0,0.0,70619.0,2.25,-150.0,-555.5905491113663,0.0,0.25,0.8410643670000001,4.932250999999998,0.0,-69714.0,4.375,127.5,555.5905491113663,0.0,0.0,0.471191358,4.963769999999998,0.0,63395.0,2.75,-135.0,-555.5905491113663,0.0,0.0,3.348388329,0.01,0.0,-45812.0,2.5,165.0,555.5905491113663,0.0,0.25,1.643066238,0.01,0.0,0.3100000023841858,-1.2899999618530273,45.97999954223633,-0.1295166015625,0.05511474609375,1.0675048828125,35.709999084472656,0.0,-37.0,-3.217498779296875,-0.0970916748046875,Closing,0.0,0.0,-189.0,0.0,0.0,0.0,0.0,0.0,
6.668887999999977,0.0,0.0,70479.0,6.0,-540.0,-992.1259617805481,0.0,0.25,0.8447264760000001,4.932250999999998,0.0,-69585.0,9.25,637.5,992.1259617805481,0.0,0.25,0.456542922,4.963769999999998,0.0,63278.0,6.75,-570.0,-992.1259617805481,0.0,0.0,3.348388329,0.01,0.0,-45694.0,6.0,585.0,992.1259617805481,0.0,0.25,1.645507644,0.01,0.0,0.28999999165534973,-2.7899999618530273,45.70000076293945,-0.17724609375,-0.02197265625,1.01824951171875,35.709999084472656,0.0,-108.0,-3.2470550537109375,-0.068145751953125,Closing,0.0,0.0,-189.0,0.0,0.0,0.0,0.0,0.0,
6.877522999999987,0.0,0.0,70275.0,0.125,-607.5,-158.7401568889618,0.0,0.25,0.8312987430000001,4.932250999999998,0.0,-69370.0,0.25,645.0,158.7401568889618,0.0,0.25,0.523681587,4.963769999999998,0.0,63088.0,0.375,-525.0,-158.7401568889618,0.0,0.0,3.342284814,0.01,0.0,-45483.0,0.375,645.0,158.7401568889618,0.0,0.25,1.651611159,0.01,0.0,0.20999999344348907,-1.8799999952316284,45.470001220703125,0.16302490234375,-0.00225830078125,0.99554443359375,35.709999084472656,0.0,132.0,-3.2970733642578125,-0.0236968994140625,Closing,0.0,0.0,-189.0,0.0,0.0,0.0,0.0,0.0,
7.143036999999953,0.0,0.0,70145.0,0.0,-285.0,0.0,0.0,0.125,0.8312987430000001,4.932250999999998,0.0,-69231.0,0.125,277.5,0.0,0.0,0.125,0.539550726,4.963769999999998,0.0,62961.0,0.0,-247.5,0.0,0.0,0.0,3.3203121600000003,0.01,0.0,-45341.0,0.125,247.5,0.0,0.0,0.25,1.650390456,0.01,0.0,0.23999999463558197,-0.4000000059604645,45.72999954223633,0.12548828125,0.0250244140625,1.00079345703125,35.709999084472656,0.0,107.0,-3.3131866455078125,-0.0095367431640625,Closing,0.0,0.0,-189.0,0.0,0.0,0.0,0.0,0.0,
7.411493999999948,0.0,0.0,70102.0,0.125,-142.5,-337.32282400131226,0.0,0.125,0.839843664,4.932250999999998,0.0,-69182.0,0.75,157.5,337.32282400131226,0.0,0.25,0.534667914,4.963769999999998,0.0,62898.0,0.375,-157.5,-337.32282400131226,0.0,0.0,3.348388329,0.01,0.0,-45278.0,0.75,142.5,337.32282400131226,0.0,0.25,1.650390456,0.01,0.0,0.30000001192092896,-0.009999999776482582,45.77000045776367,-0.00958251953125,-0.00482177734375,1.0301513671875,35.68000030517578,0.0,-13.0,-3.3084259033203125,-0.01812744140625,Closing,0.0,0.0,-189.0,0.0,0.0,0.0,0.0,0.0,
7.67789599999995,0.0,0.0,70045.0,4.875,-382.5,-873.0709004402161,0.0,0.25,0.837402258,4.932250999999998,0.0,-69133.0,9.5,382.5,873.0709004402161,0.0,0.25,0.5297851020000001,4.963769999999998,0.0,62873.0,7.0,-307.5,-873.0709004402161,0.0,0.0,3.388671528,0.01,0.0,-45251.0,5.625,412.5,873.0709004402161,0.0,0.25,1.650390456,0.01,0.0,0.20000000298023224,-1.9600000381469727,45.72999954223633,-0.17071533203125,0.02398681640625,1.00018310546875,35.68000030517578,0.0,-80.0,-3.331695556640625,0.005615234375,Closing,0.0,0.0,-189.0,0.0,0.0,0.0,0.0,0.0,
7.93244299999997,0.0,0.0,69665.0,2.25,-960.0,-952.4409413337708,0.0,0.25,0.847167882,4.932250999999998,0.0,-68761.0,3.0,990.0,952.4409413337708,0.0,0.125,0.505371042,4.963769999999998,0.0,62567.0,5.0,-960.0,-952.4409413337708,0.0,0.125,3.394775043,0.01,0.0,-44898.0,2.5,997.5,952.4409413337708,0.0,0.25,1.6589353770000002,0.01,0.0,0.1899999976158142,-3.1600000858306885,45.59000015258789,-0.01104736328125,0.2490234375,1.4853515625,35.68000030517578,0.0,223.0,-3.4027862548828125,0.081207275390625,Closing,0.0,0.0,-189.0,0.0,0.0,0.0,0.0,0.0,
8.212726999999955,0.0,0.0,69327.0,0.75,-1072.5,-972.2834515571594,0.0,0.25,0.845947179,4.932250999999998,0.0,-68417.0,1.0,1080.0,972.2834515571594,0.0,0.0,0.50048823,4.963769999999998,0.0,62278.0,5.125,-1050.0,-972.2834515571594,0.0,0.125,3.387450825,0.01,0.0,-44560.0,1.25,1050.0,972.2834515571594,0.0,0.25,1.650390456,0.01,0.0,0.2800000011920929,-2.759999990463257,45.119998931884766,0.02777099609375,0.001953125,0.86578369140625,35.68000030517578,0.0,47.0,-3.4633026123046875,0.123687744140625,Closing,0.0,0.0,-189.0,0.0,0.0,0.0,0.0,0.0,
8.469828999999969,0.0,0.0,68950.0,2.5,-1230.0,-1315.6114513981188,0.0,0.375,0.965576073,0.16008549969067004,0.0,-68096.0,0.125,982.5,708.2460005979784,0.0,0.25,0.916747953,0.3046973893222816,0.0,61920.0,7.875,-1162.5,-1315.6114513981188,0.0,0.25,3.1542965520000004,4.780050009159756,0.0,-44238.0,0.5,945.0,708.2460005979784,0.0,0.5,1.225585812,4.65365679790565,0.0,0.28999999165534973,-2.380000114440918,47.20000076293945,0.0546875,0.21575927734375,1.09527587890625,35.66999816894531,0.0,222.0,-3.517364501953125,0.11456298828125,Closing,0.0,0.0,-189.0,0.0,0.0,0.0,0.0,0.0,
8.741677999999956,0.0,0.0,68459.0,0.375,-1575.0,-1478.0823469012896,0.0,0.25,1.022949114,0.20612531665531963,0.0,-67867.0,0.375,667.5,643.9323899020188,0.0,0.25,1.026611223,0.504261129054883,0.0,61533.0,8.25,-1507.5,-1478.0823469012896,0.0,0.125,3.131103195,4.73393412581721,0.0,-43907.0,0.75,645.0,643.9323899020188,0.0,0.25,0.904540923,4.454325035637407,0.0,0.9599999785423279,-2.390000104904175,66.04000091552734,0.095458984375,-0.018310546875,0.98919677734375,35.63999938964844,0.0,23.0,-3.5399017333984375,0.1083526611328125,Closing,0.0,0.0,-189.0,0.0,0.0,0.0,0.0,0.0,
9.007794999999984,0.0,0.0,67940.0,0.125,-1612.5,-1538.2408379111457,0.0,0.125,1.020507708,0.22043661220010555,0.0,-67655.0,0.25,645.0,632.0056078065043,0.0,0.25,1.088867076,0.5848614607799097,0.0,61000.0,5.25,-1620.0,-1538.2408379111457,0.0,0.0,3.12499968,4.719599185338824,0.0,-43708.0,0.875,607.5,632.0056078065043,0.0,0.25,1.022949114,4.373818395585051,0.0,1.3600000143051147,-2.5299999713897705,83.94999694824219,0.09698486328125,0.09039306640625,0.909423828125,35.63999938964844,0.0,82.0,-3.5290374755859375,0.1013031005859375,Closing,0.0,0.0,-189.0,0.0,0.0,0.0,0.0,0.0,
9.278637999999978,0.0,0.0,67175.0,0.0,-1620.0,-1538.2408379111457,0.0,0.125,1.0327147380000001,0.22043661220010555,0.0,-67334.0,0.25,697.5,632.0056078065043,0.0,0.0,1.166992068,0.5848614607799097,0.0,60284.0,9.5,-1402.5,-1538.2408379111457,0.0,0.0,3.12499968,4.719599185338824,0.0,-43508.0,0.75,645.0,632.0056078065043,0.0,0.125,1.115722542,4.373818395585051,0.0,1.4500000476837158,-2.940000057220459,107.45999908447266,-0.1134033203125,0.0927734375,0.97186279296875,35.66999816894531,0.0,83.0,-3.4734344482421875,0.067840576171875,Closing,0.0,0.0,-189.0,0.0,0.0,0.0,0.0,0.0,
9.521925999999977,0.0,0.0,66718.0,0.75,-1200.0,-634.9606275558472,0.0,0.375,0.8007811680000001,4.932250999999998,0.0,-67111.0,0.25,652.5,634.9606275558472,0.0,0.875,0.383300742,4.963769999999998,0.0,59853.0,0.375,-1207.5,-634.9606275558472,0.0,0.125,3.398437152,0.01,0.0,-43321.0,1.875,517.5,634.9606275558472,0.0,0.75,1.853027154,0.01,0.0,1.8300000429153442,-2.119999885559082,121.1500015258789,0.23944091796875,0.0711669921875,0.83734130859375,35.66999816894531,0.0,-101.0,-3.410797119140625,0.013641357421875,Closing,0.0,0.0,-189.0,0.0,0.0,0.0,0.0,0.125,
9.753920999999973,0.0,0.0,66555.0,0.125,-300.0,-535.7480388879776,0.0,0.125,0.7226561760000001,4.932250999999998,0.0,-66912.0,0.125,495.0,535.7480388879776,0.0,0.25,0.26855466,4.963769999999998,0.0,59678.0,9.375,-225.0,-535.7480388879776,0.0,0.125,3.4790035500000003,0.01,0.0,-43141.0,0.875,615.0,535.7480388879776,0.0,0.5,1.7333982600000002,0.01,0.0,1.5499999523162842,-0.7400000095367432,118.69999694824219,0.03192138671875,-0.03179931640625,0.965576171875,35.650001525878906,0.0,-72.0,-3.368316650390625,-0.0937042236328125,Closing,0.0,0.0,-189.0,0.0,0.0,0.0,0.0,0.0,
10.017669999999983,0.0,0.0,66445.0,0.125,-367.5,-496.06298089027405,0.0,0.25,0.811767495,4.932250999999998,0.0,-66774.0,0.5,427.5,496.06298089027405,0.0,0.25,0.6982421160000001,4.963769999999998,0.0,59561.0,8.25,-427.5,-496.06298089027405,0.0,0.25,3.3679195770000003,0.01,0.0,-42980.0,2.0,412.5,496.06298089027405,0.0,0.25,1.468505709,0.01,0.0,1.3700000047683716,-1.0399999618530273,117.77999877929688,-0.0682373046875,-0.03961181640625,1.1009521484375,35.650001525878906,0.0,-36.0,-3.3453826904296875,-0.21612548828125,Closing,0.0,0.0,-189.0,0.0,0.0,0.0,0.0,0.0,
10.255557999999962,0.0,0.0,66279.0,0.125,-540.0,-496.06298089027405,0.0,0.125,0.8276366340000001,4.932250999999998,0.0,-66633.0,0.75,420.0,496.06298089027405,0.0,0.25,0.6445311840000001,4.963769999999998,0.0,59394.0,5.875,-555.0,-496.06298089027405,0.0,0.0,3.348388329,0.01,0.0,-42853.0,3.0,375.0,496.06298089027405,0.0,0.375,1.6113279600000001,0.01,0.0,1.2000000476837158,-1.090000033378601,120.2300033569336,-0.00390625,0.0762939453125,0.8897705078125,35.650001525878906,0.0,43.0,-3.3457183837890625,-0.321136474609375,Closing,0.0,0.0,-189.0,0.0,0.0,0.0,0.0,0.0,
10.493276999999944,0.0,0.0,66131.0,0.125,-367.5,-321.61092561768567,0.0,0.625,4.906005357000001,4.333982829237934,0.0,-66462.0,1.625,667.5,791.2818328484163,0.0,0.25,0.046386714,4.739047678995919,0.0,59223.0,3.875,-337.5,-321.61092561768567,0.0,0.625,4.178466369000001,0.5992566215370854,0.0,-42700.0,4.5,652.5,791.2818328484163,0.0,0.375,1.986083781,0.2244610986283068,0.0,1.2200000286102295,-0.8600000143051147,117.68000030517578,-0.00933837890625,0.03826904296875,1.05450439453125,35.650001525878906,0.0,10.0,-3.34564208984375,-0.42315673828125,Closing,0.0,0.0,-189.0,0.0,0.0,0.0,0.0,0.0,
10.747951,0.0,0.0,66000.0,4.25,-547.5,-1206.0610536563408,0.0,0.625,3.656005485,3.2265627906832823,0.0,-66155.0,14.125,1327.5,1947.8855888335295,0.0,0.25,4.832763177,4.540702018158862,0.0,59102.0,17.875,-600.0,-1206.0610536563408,0.0,0.5,0.534667914,1.7085063248622814,0.0,-42420.0,17.625,1305.0,1947.8855888335295,0.0,0.25,2.08740213,0.42257619792382806,0.0,0.8999999761581421,0.12999999523162842,100.87000274658203,0.29620361328125,0.1988525390625,1.02899169921875,35.650001525878906,0.0,123.0,-3.3632049560546875,-0.5341644287109375,Closing,0.0,0.0,-189.0,0.0,0.0,0.0,0.0,0.0,
10.974983999999997,0.0,0.0,65820.0,2.5,-412.5,496.06298089027405,0.0,0.5,3.343505517,2.4661254999999977,0.0,-65774.0,1.0,877.5,496.06298089027405,0.0,1.25,0.562744083,4.963769999999998,0.0,58914.0,0.375,-352.5,496.06298089027405,0.0,0.75,1.0571287980000001,2.4702000000000024,0.0,-42031.0,4.125,855.0,496.06298089027405,0.0,0.5,1.6027830390000002,0.01,0.0,0.27000001072883606,0.30000001192092896,83.0999984741211,-0.28814697265625,-0.34320068359375,1.33172607421875,35.619998931884766,0.0,-382.0,-3.3886871337890625,-0.635162353515625,Closing,0.0,0.0,-189.0,0.0,0.0,0.0,0.0,0.0,
11.210038,0.0,0.0,65899.0,0.5,217.5,496.06298089027405,0.0,0.25,3.1677242850000003,2.4661254999999977,0.0,-65650.0,10.875,292.5,496.06298089027405,0.0,0.25,0.6738280560000001,4.963769999999998,0.0,58946.0,0.375,217.5,496.06298089027405,0.0,0.25,0.9838866180000001,2.4702000000000024,0.0,-41915.0,16.375,270.0,496.06298089027405,0.0,0.25,1.065673719,0.01,0.0,0.03999999910593033,0.4300000071525574,82.95999908447266,0.00909423828125,0.06524658203125,1.0430908203125,35.619998931884766,0.0,64.0,-3.4531707763671875,-0.744476318359375,Closing,0.0,0.0,-189.0,0.0,0.0,0.0,0.0,0.0,
11.478626999999978,0.0,0.0,65956.0,2.875,172.5,496.06298089027405,0.0,0.375,3.2653805250000003,2.4661254999999977,0.0,-65588.0,18.25,262.5,496.06298089027405,0.0,0.25,0.5151366660000001,4.963769999999998,0.0,59003.0,0.375,180.0,496.06298089027405,0.0,0.125,0.900878814,2.4702000000000024,0.0,-41858.0,23.625,255.0,496.06298089027405,0.0,0.875,1.853027154,0.01,0.0,0.05999999865889549,-0.44999998807907104,82.58000183105469,-0.1917724609375,-0.068603515625,1.04779052734375,35.61000061035156,0.0,-92.0,-3.5235137939453125,-0.8619384765625,Closing,0.0,0.0,-189.0,0.0,0.0,0.0,0.0,0.0,
11.745248999999953,0.0,0.0,66090.0,2.0,472.5,496.06298089027405,0.0,0.125,3.2751461490000002,2.4661254999999977,0.0,-65376.0,3.375,795.0,496.06298089027405,0.0,0.0,0.339355434,4.963769999999998,0.0,59119.0,0.125,480.0,496.06298089027405,0.0,0.125,0.887451081,2.4702000000000024,0.0,-41511.0,7.375,825.0,496.06298089027405,0.0,0.25,1.519775235,0.01,0.0,0.3199999928474426,-1.4299999475479126,77.9800033569336,0.13494873046875,0.14288330078125,0.94976806640625,35.61000061035156,0.0,167.0,-3.5417022705078125,-0.9237213134765625,Closing,0.0,0.0,-189.0,0.0,0.0,0.0,0.0,0.0,
12.009619999999995,0.0,0.0,66286.0,0.875,630.0,569.6253086115473,0.0,0.375,3.3691402800000003,2.569231370552605,0.0,-65050.0,1.75,570.0,394.83426212066036,0.0,0.25,0.810546792,0.1501735808816368,0.0,59401.0,0.0,600.0,569.6253086115473,0.0,0.125,0.729980394,2.3669237792889923,0.0,-41309.0,5.5,570.0,394.83426212066036,0.0,0.25,1.402587747,4.808000984330226,0.0,0.2199999988079071,-0.9900000095367432,78.63999938964844,0.0797119140625,0.02398681640625,1.0438232421875,35.619998931884766,0.0,38.0,-3.53924560546875,-0.935791015625,Closing,0.0,0.0,-189.0,0.0,0.0,0.0,0.0,0.0,
12.268454999999959,0.0,0.0,66513.0,1.5,727.5,789.9564541654372,0.0,0.375,3.5229488580000003,2.7026836764436246,0.0,-64929.0,2.25,337.5,306.9393816766954,0.0,0.5,1.418456886,0.6867680225517739,0.0,59612.0,0.375,675.0,789.9564541654372,0.0,0.125,0.649413996,2.2332509852596547,0.0,-41176.0,5.625,367.5,306.9393816766954,0.0,0.5,0.770263593,4.272030292335927,0.0,0.1899999976158142,-0.6200000047683716,84.45999908447266,0.0701904296875,-0.03802490234375,0.9554443359375,35.619998931884766,0.0,-33.0,-3.5392608642578125,-0.9606475830078125,Closing,0.0,0.0,-189.0,0.0,0.0,0.0,0.0,0.0,
12.54652099999995,0.0,0.0,66871.0,1.125,735.0,745.5249588581775,0.0,0.125,3.5803218990000003,2.741033933426242,0.0,-64830.0,2.0,307.5,272.31134928206336,0.0,0.0,1.4514158670000001,0.9642772948861088,0.0,59809.0,0.375,667.5,745.5249588581775,0.0,0.125,0.628662045,2.194837366488647,0.0,-41091.0,7.125,240.0,272.31134928206336,0.0,0.25,0.571289004,3.9948436031392816,0.0,0.44999998807907104,-0.699999988079071,96.4800033569336,0.0020751953125,0.04791259765625,0.8157958984375,35.61000061035156,0.0,39.0,-3.5354461669921875,-0.964935302734375,Closing,0.0,0.0,-189.0,0.0,0.0,0.0,0.0,0.125,
12.81026999999996,0.0,0.0,67098.0,1.25,697.5,724.0374671249613,0.0,0.125,3.5681148690000004,2.761948981218569,0.0,-64738.0,2.125,270.0,269.5915797268233,0.0,0.25,1.5832517910000001,1.120032411005845,0.0,60023.0,0.5,645.0,724.0374671249613,0.0,0.125,0.584716737,2.173887763130421,0.0,-41012.0,7.625,240.0,269.5915797268233,0.0,0.25,0.49926752700000004,3.8392695403358776,0.0,0.699999988079071,-0.8299999833106995,105.7699966430664,0.00775146484375,-0.0135498046875,1.0263671875,35.61000061035156,0.0,-31.0,-3.5329132080078125,-0.9653167724609375,Closing,0.0,0.0,-189.0,0.0,0.0,0.0,0.0,0.0,
13.016768999999972,0.0,0.0,67286.0,0.125,502.5,337.32282400131226,0.0,0.375,3.236083653,2.4661254999999977,0.0,-64650.0,2.75,300.0,337.32282400131226,0.0,1.5,0.592040955,4.963769999999998,0.0,60224.0,0.125,570.0,337.32282400131226,0.0,0.25,0.930175686,2.4702000000000024,0.0,-40937.0,9.625,210.0,337.32282400131226,0.0,1.5,1.781005677,0.01,0.0,0.7699999809265137,-1.190000057220459,113.23999786376953,-0.05902099609375,-0.00616455078125,1.02947998046875,35.630001068115234,0.0,-3.0,-3.5268707275390625,-0.9644927978515625,Closing,0.0,0.0,-189.0,0.0,0.0,0.0,0.0,0.0,
13.231891999999993,0.0,0.0,67392.0,0.75,292.5,317.4803137779236,0.0,0.375,3.201903969,2.4661254999999977,0.0,-64524.0,2.0,300.0,317.4803137779236,0.0,0.0,4.547118675,4.963769999999998,0.0,60307.0,0.375,97.5,317.4803137779236,0.0,0.125,0.9851073210000001,2.4702000000000024,0.0,-40839.0,8.875,300.0,317.4803137779236,0.0,0.25,2.1643064190000003,0.01,0.0,0.6600000262260437,0.2199999988079071,111.81999969482422,0.14630126953125,0.0909423828125,0.98419189453125,35.630001068115234,0.0,20.0,-3.537139892578125,-0.972320556640625,Closing,0.0,0.0,-189.0,0.0,0.0,0.0,0.0,0.0,
13.438724999999977,0.0,0.0,67391.0,3.875,22.5,317.4803137779236,0.0,0.375,3.227538732,2.4661254999999977,0.0,-64499.0,6.875,105.0,317.4803137779236,0.0,2.125,0.484619091,4.963769999999998,0.0,60333.0,1.125,60.0,317.4803137779236,0.0,0.25,0.9448241220000001,2.4702000000000024,0.0,-40801.0,14.25,157.5,317.4803137779236,0.0,0.625,1.511230314,0.01,0.0,0.7799999713897705,-0.6399999856948853,111.06999969482422,-0.1849365234375,0.0174560546875,0.97857666015625,35.630001068115234,0.0,66.0,-3.5496063232421875,-0.9966278076171875,Closing,0.0,0.0,-189.0,0.0,0.0,0.0,0.0,0.0,
13.685132999999972,0.0,0.0,67463.0,1.125,480.0,277.79527455568314,0.0,0.25,3.237304356,2.4661254999999977,0.0,-64453.0,5.0,262.5,277.79527455568314,0.0,0.125,1.235351436,4.963769999999998,0.0,60367.0,0.75,90.0,277.79527455568314,0.0,0.125,0.8923338930000001,2.4702000000000024,0.0,-40700.0,11.625,247.5,277.79527455568314,0.0,0.375,1.351318221,0.01,0.0,0.4399999976158142,-0.949999988079071,112.79000091552734,0.05810546875,0.08221435546875,1.0262451171875,35.630001068115234,0.0,39.0,-3.551483154296875,-0.994537353515625,Closing,0.0,0.0,-189.0,0.0,0.0,0.0,0.0,0.0,
13.88907699999999,0.0,0.0,67577.0,1.5,285.0,277.79527455568314,0.0,0.25,3.236083653,2.4661254999999977,0.0,-64376.0,4.875,300.0,277.79527455568314,0.0,1.125,0.25878903600000003,4.963769999999998,0.0,60429.0,1.125,217.5,277.79527455568314,0.0,0.0,0.848388585,2.4702000000000024,0.0,-40626.0,13.125,232.5,277.79527455568314,0.0,0.625,1.751708805,0.01,0.0,0.5299999713897705,-1.090000033378601,114.41000366210938,-0.0848388671875,0.02056884765625,1.0113525390625,35.619998931884766,0.0,37.0,-3.5526123046875,-1.0015869140625,Closing,0.0,0.0,-189.0,0.0,0.0,0.0,0.0,0.0,
14.112131999999983,0.0,0.0,67639.0,0.0,105.0,0.0,0.0,0.25,3.240966465,2.4661254999999977,0.0,-64283.0,0.125,210.0,0.0,0.0,0.5,0.17089842,4.963769999999998,0.0,60478.0,0.0,82.5,0.0,0.0,0.0,0.8532713970000001,2.4702000000000024,0.0,-40592.0,0.125,195.0,0.0,0.0,0.25,1.771240053,0.01,0.0,0.46000000834465027,-0.09000000357627869,113.3499984741211,0.11944580078125,0.0611572265625,1.00677490234375,35.619998931884766,0.0,0.0,-3.5544891357421875,-1.013031005859375,Closing,0.0,0.0,-189.0,0.0,0.0,0.0,0.0,0.0,
14.314590999999957,0.0,0.0,67644.0,0.0,0.0,0.0,0.0,0.25,3.249511386,2.4661254999999977,0.0,-64268.0,0.125,0.0,0.0,0.0,0.75,0.626220639,4.963769999999998,0.0,60491.0,0.0,0.0,0.0,0.0,0.0,0.8532713970000001,2.4702000000000024,0.0,-40581.0,0.125,7.5,0.0,0.0,0.25,1.616210772,0.01,0.0,0.4300000071525574,-0.03999999910593033,113.51000213623047,-0.05743408203125,0.00494384765625,1.04296875,35.619998931884766,0.0,19.0,-3.5601348876953125,-1.024078369140625,Closing,0.0,0.0,-189.0,0.0,0.0,0.0,0.0,0.0,
14.520113999999943,0.0,0.0,67644.0,0.0,0.0,0.0,0.0,0.25,3.249511386,2.4661254999999977,0.0,-64274.0,0.125,0.0,0.0,0.0,0.25,0.557861271,4.963769999999998,0.0,60491.0,0.0,0.0,0.0,0.0,0.0,0.8532713970000001,2.4702000000000024,0.0,-40580.0,0.125,0.0,0.0,0.0,0.125,1.5869139,0.01,0.0,0.4000000059604645,-0.33000001311302185,113.55999755859375,-0.0028076171875,0.00958251953125,1.01959228515625,35.599998474121094,0.0,0.0,-3.559173583984375,-1.01776123046875,Closing,0.0,0.0,-189.0,0.0,0.0,0.0,0.0,0.0,
14.755165999999969,0.0,0.0,67644.0,0.0,0.0,0.0,0.0,0.25,3.248290683,2.4661254999999977,0.0,-64274.0,0.125,0.0,0.0,0.0,0.25,0.5297851020000001,4.963769999999998,0.0,60491.0,0.0,0.0,0.0,0.0,0.0,0.8532713970000001,2.4702000000000024,0.0,-40580.0,0.125,0.0,0.0,0.0,0.25,1.621093584,0.01,0.0,0.3799999952316284,-0.3499999940395355,113.54000091552734,-0.02996826171875,-0.0048828125,1.02410888671875,35.599998474121094,0.0,-1.0,-3.559173583984375,-1.0175933837890625,Closing,0.0,0.0,-189.0,0.0,0.0,0.0,0.0,0.0,
14.956139999999955,0.0,0.0,67644.0,0.0,0.0,0.0,0.0,0.125,3.249511386,2.4661254999999977,0.0,-64274.0,0.125,0.0,0.0,0.0,0.125,0.523681587,4.963769999999998,0.0,60491.0,0.0,0.0,0.0,0.0,0.0,0.8532713970000001,2.4702000000000024,0.0,-40581.0,0.125,0.0,0.0,0.0,0.125,1.6357420200000001,0.01,0.0,0.3499999940395355,-0.44999998807907104,113.55000305175781,-0.01904296875,0.0037841796875,1.02484130859375,35.630001068115234,0.0,2.0,-3.559173583984375,-1.0173187255859375,Closing,0.0,0.0,-189.0,0.0,0.0,0.0,0.0,0.0,
15.157132999999973,0.0,0.0,67644.0,0.0,0.0,0.0,0.0,0.25,3.249511386,2.4661254999999977,0.0,-64274.0,0.125,0.0,0.0,0.0,0.125,0.52490229,4.963769999999998,0.0,60491.0,0.0,0.0,0.0,0.0,0.0,0.8532713970000001,2.4702000000000024,0.0,-40581.0,0.125,0.0,0.0,0.0,0.125,1.6357420200000001,0.01,0.0,0.33000001311302185,-0.5099999904632568,113.55000305175781,-0.01690673828125,0.00238037109375,1.01776123046875,35.630001068115234,0.0,0.0,-3.559173583984375,-1.0173187255859375,Closing,0.0,0.0,-189.0,0.0,0.0,0.0,0.0,0.0,
15.367627999999968,0.0,0.0,67644.0,0.0,0.0,0.0,0.0,0.25,3.249511386,2.4661254999999977,0.0,-64274.0,0.125,0.0,0.0,0.0,0.125,0.523681587,4.963769999999998,0.0,60491.0,0.0,0.0,0.0,0.0,0.0,0.8532713970000001,2.4702000000000024,0.0,-40581.0,0.125,0.0,0.0,0.0,0.125,1.6357420200000001,0.01,0.0,0.3199999928474426,-0.5799999833106995,113.54000091552734,-0.01690673828125,0.00286865234375,1.02789306640625,35.619998931884766,0.0,0.0,-3.559173583984375,-1.0173187255859375,Closing,0.0,0.0,-189.0,0.0,0.0,0.0,0.0,0.0,
15.575010999999998,0.0,0.0,67644.0,0.0,0.0,0.0,0.0,0.25,3.248290683,2.4661254999999977,0.0,-64274.0,0.125,0.0,0.0,0.0,0.125,0.523681587,4.963769999999998,0.0,60491.0,0.0,0.0,0.0,0.0,0.0,0.8532713970000001,2.4702000000000024,0.0,-40581.0,0.125,0.0,0.0,0.0,0.125,1.6345213170000001,0.01,0.0,0.30000001192092896,-0.6299999952316284,113.54000091552734,-0.01531982421875,0.001708984375,1.0238037109375,35.619998931884766,0.0,-1.0,-3.559173583984375,-1.0173187255859375,Closing,0.0,0.0,-189.0,0.0,0.0,0.0,0.0,0.0,
15.816002999999968,0.0,0.0,67644.0,0.0,0.0,0.0,0.0,0.125,3.249511386,2.4661254999999977,0.0,-64274.0,0.125,0.0,0.0,0.0,0.125,0.523681587,4.963769999999998,0.0,60491.0,0.0,0.0,0.0,0.0,0.0,0.8532713970000001,2.4702000000000024,0.0,-40581.0,0.125,0.0,0.0,0.0,0.125,1.6357420200000001,0.01,0.0,0.28999999165534973,-0.6800000071525574,113.55000305175781,-0.01788330078125,0.0040283203125,1.0206298828125,35.619998931884766,0.0,1.0,-3.559173583984375,-1.0173187255859375,Closing,0.0,0.0,-189.0,0.0,0.0,0.0,0.0,0.0,
16.021192999999972,0.0,0.0,67644.0,0.0,0.0,0.0,0.0,0.125,3.249511386,2.4661254999999977,0.0,-64274.0,0.125,0.0,0.0,0.0,0.125,0.52490229,4.963769999999998,0.0,60491.0,0.0,0.0,0.0,0.0,0.0,0.8532713970000001,2.4702000000000024,0.0,-40581.0,0.125,0.0,0.0,0.0,0.125,1.6357420200000001,0.01,0.0,0.2800000011920929,-0.7099999785423279,113.55000305175781,-0.01763916015625,0.00244140625,1.01641845703125,35.63999938964844,0.0,0.0,-3.559173583984375,-1.0173187255859375,Closing,0.0,0.0,-189.0,0.0,0.0,0.0,0.0,0.0,
16.234799,0.0,0.0,67644.0,0.0,0.0,0.0,0.0,0.125,3.249511386,2.4661254999999977,0.0,-64274.0,0.125,0.0,0.0,0.0,0.125,0.523681587,4.963769999999998,0.0,60491.0,0.0,0.0,0.0,0.0,0.0,0.8532713970000001,2.4702000000000024,0.0,-40581.0,0.125,0.0,0.0,0.0,0.125,1.6357420200000001,0.01,0.0,0.25999999046325684,-0.75,113.55999755859375,-0.0184326171875,0.007080078125,1.01947021484375,35.63999938964844,0.0,4.0,-3.559173583984375,-1.0173187255859375,Closing,0.0,0.0,-189.0,0.0,0.0,0.0,0.0,0.0,
16.432938999999955,0.0,0.0,67644.0,0.0,0.0,0.0,0.0,0.25,3.248290683,2.4661254999999977,0.0,-64274.0,0.125,0.0,0.0,0.0,0.125,0.523681587,4.963769999999998,0.0,60491.0,0.0,0.0,0.0,0.0,0.0,0.8532713970000001,2.4702000000000024,0.0,-40581.0,0.125,0.0,0.0,0.0,0.125,1.6357420200000001,0.01,0.0,0.25999999046325684,-0.7799999713897705,113.55999755859375,-0.01910400390625,0.0035400390625,1.02398681640625,35.65999984741211,0.0,0.0,-3.559173583984375,-1.0173187255859375,Closing,0.0,0.0,-189.0,0.0,0.0,0.0,0.0,0.0,
16.635431999999973,0.0,0.0,67644.0,0.0,0.0,0.0,0.0,0.25,3.249511386,2.4661254999999977,0.0,-64274.0,0.125,0.0,0.0,0.0,0.125,0.523681587,4.963769999999998,0.0,60491.0,0.0,0.0,0.0,0.0,0.0,0.852050694,2.4702000000000024,0.0,-40581.0,0.125,0.0,0.0,0.0,0.125,1.6345213170000001,0.01,0.0,0.25,-0.800000011920929,113.55999755859375,-0.01605224609375,0.0069580078125,1.02154541015625,35.65999984741211,0.0,2.0,-3.559173583984375,-1.0173187255859375,Closing,0.0,0.0,-189.0,0.0,0.0,0.0,0.0,0.0,
16.85811899999995,0.0,0.0,67628.0,2.75,-75.0,-615.1181173324585,0.0,1.625,2.287597422,1.2330627499999984,0.0,-64263.0,5.375,37.5,615.1181173324585,0.0,1.75,1.418456886,1.2409424999999985,0.0,60475.0,3.25,-52.5,-615.1181173324585,0.0,2.25,4.953612774000001,1.2350999999999985,0.0,-40568.0,3.0,67.5,615.1181173324585,0.0,1.625,2.608642311,1.2394999999999985,0.0,0.1599999964237213,-0.800000011920929,112.83999633789062,0.07012939453125,-0.06964111328125,0.9239501953125,35.65999984741211,0.0,-98.0,-3.5595855712890625,-1.015472412109375,Closing,0.0,0.0,-189.0,0.0,0.0,0.0,0.0,0.0,
17.08593399999995,0.0,0.0,67633.0,0.0,0.0,0.0,0.0,0.375,1.8383787180000002,1.2330627499999984,0.0,-64274.0,0.125,0.0,0.0,0.0,0.5,2.086181427,1.2409424999999985,0.0,60477.0,0.0,15.0,0.0,0.0,0.375,4.210204647,1.2350999999999985,0.0,-40557.0,0.125,0.0,0.0,0.0,0.375,3.134765304,1.2394999999999985,0.0,0.23999999463558197,-0.7699999809265137,112.05999755859375,-0.0606689453125,0.0274658203125,1.093017578125,35.650001525878906,0.0,38.0,-3.5644073486328125,-1.015045166015625,Closing,0.0,0.0,-189.0,0.0,0.0,0.0,0.0,0.0,
17.31259599999996,0.0,0.0,67633.0,0.0,0.0,0.0,0.0,0.375,2.034911901,1.2330627499999984,0.0,-64274.0,0.125,0.0,0.0,0.0,0.25,1.8176267670000001,1.2409424999999985,0.0,60478.0,0.125,-7.5,0.0,0.0,0.375,4.575194844,1.2350999999999985,0.0,-40555.0,0.125,15.0,0.0,0.0,0.5,2.8442379900000003,1.2394999999999985,0.0,0.3199999928474426,-0.8500000238418579,111.9800033569336,0.02606201171875,-0.0045166015625,1.03546142578125,35.650001525878906,0.0,-25.0,-3.562744140625,-1.0166778564453125,Closing,0.0,0.0,-189.0,0.0,0.0,0.0,0.0,0.0,
17.551820999999997,0.0,0.0,67633.0,0.0,0.0,0.0,0.0,0.25,2.083740021,1.2330627499999984,0.0,-64274.0,0.125,0.0,0.0,0.0,0.25,1.697997873,1.2409424999999985,0.0,60477.0,0.0,0.0,0.0,0.0,0.0,4.689940926,1.2350999999999985,0.0,-40551.0,0.125,0.0,0.0,0.0,0.125,2.768554404,1.2394999999999985,0.0,0.23999999463558197,-0.8700000047683716,111.93000030517578,-0.0194091796875,-0.00311279296875,1.0120849609375,35.650001525878906,0.0,-5.0,-3.5627593994140625,-1.0172576904296875,Closing,0.0,0.0,-189.0,0.0,0.0,0.0,0.0,0.0,
17.76208599999995,0.0,0.0,67633.0,0.0,0.0,0.0,0.0,0.25,2.053222446,1.2330627499999984,0.0,-64274.0,0.125,0.0,0.0,0.0,0.25,1.7407224780000001,1.2409424999999985,0.0,60477.0,0.0,0.0,0.0,0.0,0.125,4.597167498,1.2350999999999985,0.0,-40552.0,0.125,0.0,0.0,0.0,0.25,2.830810257,1.2394999999999985,0.0,0.25999999046325684,-0.8600000143051147,111.94999694824219,-0.0286865234375,0.0045166015625,1.02569580078125,35.650001525878906,0.0,4.0,-3.5627593994140625,-1.0172576904296875,Closing,0.0,0.0,-189.0,0.0,0.0,0.0,0.0,0.0,
18.020821999999985,0.0,0.0,67633.0,0.0,0.0,0.0,0.0,0.125,2.049560337,1.2330627499999984,0.0,-64274.0,0.125,0.0,0.0,0.0,0.0,1.750488102,1.2409424999999985,0.0,60477.0,0.0,0.0,0.0,0.0,0.0,4.5581050020000005,1.2350999999999985,0.0,-40553.0,0.125,0.0,0.0,0.0,0.25,2.872314159,1.2394999999999985,0.0,0.25,-0.8600000143051147,111.94999694824219,-0.0203857421875,0.00152587890625,1.03515625,35.66999816894531,0.0,-1.0,-3.5627593994140625,-1.0172576904296875,Closing,0.0,0.0,-189.0,0.0,0.0,0.0,0.0,0.0,
18.234472999999998,0.0,0.0,67633.0,0.0,0.0,0.0,0.0,0.25,2.049560337,1.2330627499999984,0.0,-64274.0,0.125,0.0,0.0,0.0,0.0,1.750488102,1.2409424999999985,0.0,60477.0,0.0,0.0,0.0,0.0,0.0,4.5581050020000005,1.2350999999999985,0.0,-40553.0,0.125,0.0,0.0,0.0,0.125,2.873534862,1.2394999999999985,0.0,0.25,-0.8700000047683716,111.94999694824219,-0.01708984375,0.00213623046875,1.0048828125,35.66999816894531,0.0,-1.0,-3.5627593994140625,-1.0172576904296875,Closing,0.0,0.0,-189.0,0.0,0.0,0.0,0.0,0.0,
18.467507999999974,0.0,0.0,67633.0,0.0,0.0,0.0,0.0,0.125,2.05078104,1.2330627499999984,0.0,-64274.0,0.125,0.0,0.0,0.0,0.0,1.750488102,1.2409424999999985,0.0,60477.0,0.0,0.0,0.0,0.0,0.0,4.559325705,1.2350999999999985,0.0,-40553.0,0.125,0.0,0.0,0.0,0.125,2.872314159,1.2394999999999985,0.0,0.25,-0.8799999952316284,111.94999694824219,-0.018310546875,0.003662109375,1.0093994140625,35.65999984741211,0.0,0.0,-3.5627593994140625,-1.0172576904296875,Closing,0.0,0.0,-189.0,0.0,0.0,0.0,0.0,0.0,
18.694175999999977,0.0,0.0,67633.0,0.0,0.0,0.0,0.0,0.125,2.05078104,1.2330627499999984,0.0,-64274.0,0.125,0.0,0.0,0.0,0.0,1.750488102,1.2409424999999985,0.0,60477.0,0.0,0.0,0.0,0.0,0.0,4.5581050020000005,1.2350999999999985,0.0,-40553.0,0.125,0.0,0.0,0.0,0.125,2.873534862,1.2394999999999985,0.0,0.25,-0.8799999952316284,111.95999908447266,-0.00628662109375,0.00128173828125,1.00830078125,35.65999984741211,0.0,-6.0,-3.5627593994140625,-1.0172576904296875,Closing,0.0,0.0,-189.0,0.0,0.0,0.0,0.0,0.0,
18.946831999999993,0.0,0.0,67633.0,0.0,0.0,0.0,0.0,0.25,2.05078104,1.2330627499999984,0.0,-64274.0,0.125,0.0,0.0,0.0,0.0,1.751708805,1.2409424999999985,0.0,60477.0,0.0,0.0,0.0,0.0,0.0,4.559325705,1.2350999999999985,0.0,-40553.0,0.125,0.0,0.0,0.0,0.125,2.873534862,1.2394999999999985,0.0,0.27000001072883606,-0.8899999856948853,111.95999908447266,-0.00933837890625,7.32421875E-4,1.02008056640625,35.65999984741211,0.0,-6.0,-3.5628204345703125,-1.01763916015625,Closing,0.0,0.0,-189.0,0.0,0.0,0.0,0.0,0.0,
19.138455999999948,0.0,0.0,67633.0,0.0,0.0,0.0,0.0,0.125,2.05078104,1.2330627499999984,0.0,-64274.0,0.125,0.0,0.0,0.0,0.0,1.750488102,1.2409424999999985,0.0,60477.0,0.0,0.0,0.0,0.0,0.0,4.5581050020000005,1.2350999999999985,0.0,-40553.0,0.125,0.0,0.0,0.0,0.125,2.873534862,1.2394999999999985,0.0,0.23999999463558197,-0.8999999761581421,111.94999694824219,-0.009765625,0.00201416015625,1.0477294921875,35.68000030517578,0.0,-4.0,-3.5628204345703125,-1.01763916015625,Closing,0.0,0.0,-189.0,0.0,0.0,0.0,0.0,0.0,
19.36157899999997,0.0,0.0,67633.0,0.0,0.0,0.0,0.0,0.125,2.05078104,1.2330627499999984,0.0,-64274.0,0.125,0.0,0.0,0.0,0.0,1.755370914,1.2409424999999985,0.0,60477.0,0.0,0.0,0.0,0.0,0.0,4.5581050020000005,1.2350999999999985,0.0,-40553.0,0.125,0.0,0.0,0.0,0.125,2.873534862,1.2394999999999985,0.0,0.2199999988079071,-0.8999999761581421,111.9800033569336,-0.02203369140625,0.00640869140625,0.98394775390625,35.68000030517578,0.0,4.0,-3.5629425048828125,-1.0174713134765625,Closing,0.0,0.0,-189.0,0.0,0.0,0.0,0.0,0.0,
19.574112999999954,0.0,0.0,67633.0,0.0,0.0,0.0,0.0,0.25,2.049560337,1.2330627499999984,0.0,-64274.0,0.125,0.0,0.0,0.0,0.125,1.755370914,1.2409424999999985,0.0,60477.0,0.0,0.0,0.0,0.0,0.0,4.5581050020000005,1.2350999999999985,0.0,-40553.0,0.125,0.0,0.0,0.0,0.125,2.872314159,1.2394999999999985,0.0,0.23999999463558197,-0.9100000262260437,111.95999908447266,-0.02203369140625,-0.0050048828125,1.03875732421875,35.70000076293945,0.0,-6.0,-3.562835693359375,-1.0174713134765625,Closing,0.0,0.0,-189.0,0.0,0.0,0.0,0.0,0.0,
19.785132999999973,0.0,0.0,67633.0,0.0,0.0,0.0,0.0,0.125,2.05078104,1.2330627499999984,0.0,-64274.0,0.125,0.0,0.0,0.0,0.0,1.755370914,1.2409424999999985,0.0,60477.0,0.0,0.0,0.0,0.0,0.0,4.5581050020000005,1.2350999999999985,0.0,-40553.0,0.125,0.0,0.0,0.0,0.125,2.873534862,1.2394999999999985,0.0,0.2199999988079071,-0.9100000262260437,111.97000122070312,-0.00738525390625,0.0137939453125,1.0179443359375,35.70000076293945,0.0,5.0,-3.562835693359375,-1.0174713134765625,Closing,0.0,0.0,-189.0,0.0,0.0,0.0,0.0,0.0,
19.977170999999974,0.0,0.0,67633.0,0.0,0.0,0.0,0.0,0.125,2.049560337,1.2330627499999984,0.0,-64274.0,0.125,0.0,0.0,0.0,0.125,1.755370914,1.2409424999999985,0.0,60477.0,0.0,0.0,0.0,0.0,0.0,4.5581050020000005,1.2350999999999985,0.0,-40553.0,0.125,0.0,0.0,0.0,0.125,2.873534862,1.2394999999999985,0.0,0.2199999988079071,-0.8999999761581421,111.97000122070312,-0.03033447265625,0.0067138671875,1.0208740234375,35.68000030517578,0.0,7.0,-3.562835693359375,-1.0174713134765625,Closing,0.0,0.0,-189.0,0.0,0.0,0.0,0.0,0.0,
20.198208999999974,0.0,0.0,67633.0,0.0,0.0,0.0,0.0,0.125,2.05078104,1.2330627499999984,0.0,-64274.0,0.125,0.0,0.0,0.0,0.0,1.755370914,1.2409424999999985,0.0,60477.0,0.0,0.0,0.0,0.0,0.0,4.556884299,1.2350999999999985,0.0,-40553.0,0.125,0.0,0.0,0.0,0.125,2.873534862,1.2394999999999985,0.0,0.23000000417232513,-0.9200000166893005,111.94999694824219,-0.00390625,-4.2724609375E-4,1.03765869140625,35.68000030517578,0.0,-9.0,-3.562835693359375,-1.0174713134765625,Closing,0.0,0.0,-189.0,0.0,0.0,0.0,0.0,0.0,
20.376937999999967,0.0,0.0,67633.0,0.0,0.0,0.0,0.0,0.125,2.05078104,1.2330627499999984,0.0,-64274.0,0.125,0.0,0.0,0.0,0.125,1.755370914,1.2409424999999985,0.0,60477.0,0.0,0.0,0.0,0.0,0.0,4.559325705,1.2350999999999985,0.0,-40553.0,0.125,0.0,0.0,0.0,0.125,2.873534862,1.2394999999999985,0.0,0.23000000417232513,-0.8999999761581421,111.94999694824219,-0.01434326171875,0.0107421875,0.9862060546875,35.68000030517578,0.0,5.0,-3.562835693359375,-1.0174713134765625,Closing,0.0,0.0,-189.0,0.0,0.0,0.0,0.0,0.0,
20.574379999999948,0.0,0.0,67630.0,0.125,-15.0,-238.1102353334427,0.0,0.25,2.05078104,1.2330627499999984,0.0,-64259.0,0.5,82.5,238.1102353334427,0.0,0.0,1.755370914,1.2409424999999985,0.0,60477.0,0.375,0.0,-238.1102353334427,0.0,0.0,4.5581050020000005,1.2350999999999985,0.0,-40553.0,0.875,0.0,238.1102353334427,0.0,0.125,2.867431347,1.2394999999999985,0.0,0.2199999988079071,-0.9200000166893005,111.95999908447266,-0.0128173828125,-0.017578125,1.02685546875,35.70000076293945,0.0,-21.0,-3.562744140625,-1.0174713134765625,Closing,0.0,0.0,-189.0,0.0,0.0,0.0,0.0,0.0,
20.771880999999993,0.0,0.0,67629.0,0.0,0.0,0.0,0.0,0.125,2.049560337,1.2330627499999984,0.0,-64258.0,0.125,0.0,0.0,0.0,0.0,1.754150211,1.2409424999999985,0.0,60476.0,0.0,0.0,0.0,0.0,0.0,4.5581050020000005,1.2350999999999985,0.0,-40553.0,0.125,0.0,0.0,0.0,0.125,2.872314159,1.2394999999999985,0.0,0.23000000417232513,-0.9200000166893005,111.95999908447266,-0.01556396484375,0.003173828125,1.02740478515625,35.70000076293945,0.0,-1.0,-3.5627288818359375,-1.0174713134765625,Closing,0.0,0.0,-189.0,0.0,0.0,0.0,0.0,0.0,
20.97371999999997,0.0,0.0,67572.0,12.75,-502.5,-1587.401568889618,0.0,0.125,2.055663852,1.2330627499999984,0.0,-64221.0,25.375,487.5,1587.401568889618,0.0,0.0,1.755370914,1.2409424999999985,0.0,60426.0,12.25,-457.5,-1587.401568889618,0.0,0.0,4.5581050020000005,1.2350999999999985,0.0,-40526.0,13.875,487.5,1587.401568889618,0.0,0.125,2.872314159,1.2394999999999985,0.0,-2.259999990463257,-0.949999988079071,112.37999725341797,-0.1180419921875,-0.4622802734375,1.0765380859375,35.70000076293945,0.0,-349.0,-3.5927276611328125,-1.001373291015625,Closing,0.0,0.0,-189.0,0.0,0.0,0.0,0.0,0.0,
21.176127999999967,0.0,0.0,67347.0,0.0,-712.5,0.0,0.0,0.125,2.055663852,1.2330627499999984,0.0,-63989.0,0.125,787.5,0.0,0.0,0.0,1.722411933,1.2409424999999985,0.0,60265.0,0.0,-360.0,0.0,0.0,0.0,4.5532221900000005,1.2350999999999985,0.0,-40314.0,0.125,697.5,0.0,0.0,0.125,2.872314159,1.2394999999999985,0.0,-1.600000023841858,-1.0399999618530273,112.22000122070312,-0.0238037109375,0.16387939453125,1.17755126953125,35.66999816894531,0.0,180.0,-3.6689300537109375,-0.9599456787109375,Closing,0.0,0.0,-189.0,0.0,0.0,0.0,0.0,0.0,
21.419580999999948,0.0,0.0,67186.0,0.0,-360.0,0.0,0.0,0.125,2.054443149,1.2330627499999984,0.0,-63826.0,0.125,367.5,0.0,0.0,0.125,1.7163084180000001,1.2409424999999985,0.0,60120.0,0.0,-337.5,0.0,0.0,0.0,4.554442893,1.2350999999999985,0.0,-40155.0,0.125,262.5,0.0,0.0,0.125,2.872314159,1.2394999999999985,0.0,0.07999999821186066,-1.0499999523162842,112.22000122070312,0.0079345703125,0.10784912109375,1.079345703125,35.66999816894531,0.0,87.0,-3.6963958740234375,-0.9386138916015625,Closing,0.0,0.0,-189.0,0.0,0.0,0.0,0.0,0.0,
21.635014999999957,0.0,0.0,67136.0,0.0,-120.0,0.0,0.0,0.125,2.055663852,1.2330627499999984,0.0,-63766.0,0.125,120.0,0.0,0.0,0.25,1.727294745,1.2409424999999985,0.0,60062.0,0.0,-67.5,0.0,0.0,0.0,4.5532221900000005,1.2350999999999985,0.0,-40088.0,0.125,105.0,0.0,0.0,0.125,2.873534862,1.2394999999999985,0.0,0.75,-0.9700000286102295,112.0999984741211,-0.0391845703125,0.1016845703125,1.0107421875,35.63999938964844,0.0,90.0,-3.69561767578125,-0.9375457763671875,Closing,0.0,0.0,-189.0,0.0,0.0,0.0,0.0,0.0,
21.83803199999995,0.0,0.0,67136.0,0.0,0.0,0.0,0.0,0.125,2.054443149,1.2330627499999984,0.0,-63765.0,0.125,0.0,0.0,0.0,0.125,1.727294745,1.2409424999999985,0.0,60062.0,0.0,0.0,0.0,0.0,0.0,4.554442893,1.2350999999999985,0.0,-40086.0,0.125,0.0,0.0,0.0,0.125,2.872314159,1.2394999999999985,0.0,0.75,-0.9700000286102295,112.0199966430664,-0.013671875,-0.022216796875,1.01708984375,35.63999938964844,0.0,-34.0,-3.6887359619140625,-0.9412384033203125,Closing,0.0,0.0,-189.0,0.0,0.0,0.0,0.0,0.0,
22.08668299999996,0.0,0.0,67235.0,8.875,375.0,1220.6249999999998,0.0,0.125,2.039794713,1.2330627500000013,0.0,-63860.0,15.5,-420.0,-1220.6249999999998,0.0,0.125,1.7358396660000002,1.2409425000000012,0.0,60127.0,10.125,315.0,1220.6249999999998,0.0,0.0,4.517821803,1.2351000000000012,0.0,-40153.0,10.875,-420.0,-1220.6249999999998,0.0,0.125,2.930907903,1.2395000000000012,0.0,2.609999895095825,-0.8999999761581421,111.93000030517578,-0.04925537109375,0.0635986328125,1.089599609375,35.650001525878906,0.0,24.0,-3.6642608642578125,-0.95599365234375,Closing,0.0,0.0,-189.0,0.0,0.0,0.0,0.0,0.0,
22.315011,0.0,0.0,67318.0,0.0,615.0,0.0,0.0,0.25,2.037353307,1.2330627500000013,0.0,-64039.0,0.125,-600.0,0.0,0.0,0.125,1.749267399,1.2409425000000012,0.0,60212.0,0.125,240.0,0.0,0.0,0.0,4.57763625,1.2351000000000012,0.0,-40310.0,0.125,-502.5,0.0,0.0,0.25,2.867431347,1.2395000000000012,0.0,1.9199999570846558,-0.9900000095367432,111.04000091552734,-0.0377197265625,0.043212890625,1.109375,35.650001525878906,0.0,12.0,-3.619354248046875,-0.9774932861328125,Closing,0.0,0.0,-189.0,0.0,0.0,0.0,0.0,0.0,
22.55615299999999,0.0,0.0,67465.0,0.0,345.0,0.0,0.0,0.125,2.039794713,1.2330627500000013,0.0,-64108.0,0.125,-315.0,0.0,0.0,0.0,1.750488102,1.2409425000000012,0.0,60254.0,0.0,285.0,0.0,0.0,0.0,4.6008296070000005,1.2351000000000012,0.0,-40378.0,0.125,-345.0,0.0,0.0,0.125,2.8393551780000004,1.2395000000000012,0.0,0.8500000238418579,-0.949999988079071,111.11000061035156,-0.02001953125,-0.08331298828125,1.07196044921875,35.630001068115234,0.0,-91.0,-3.5976715087890625,-0.973876953125,Closing,0.0,0.0,-189.0,0.0,0.0,0.0,0.0,0.0,
22.755799,0.0,0.0,67528.0,0.0,90.0,0.0,0.0,0.125,2.041015416,1.2330627500000013,0.0,-64181.0,0.125,-82.5,0.0,0.0,0.0,1.74560529,1.2409425000000012,0.0,60328.0,0.125,82.5,0.0,0.0,0.125,4.6008296070000005,1.2351000000000012,0.0,-40455.0,0.125,-97.5,0.0,0.0,0.25,2.8442379900000003,1.2395000000000012,0.0,-0.09000000357627869,-0.949999988079071,111.13999938964844,-0.0257568359375,-0.1041259765625,1.02178955078125,35.630001068115234,0.0,-92.0,-3.6072845458984375,-0.9569854736328125,Closing,0.0,0.0,-189.0,0.0,0.0,0.0,0.0,0.0,
22.973097999999997,0.0,0.0,67530.0,0.125,0.0,-178.58268588781357,0.0,2.0,0.9985350540000001,4.932250999999998,0.0,-64181.0,0.25,52.5,178.58268588781357,0.0,1.5,0.624999936,4.963769999999998,0.0,60334.0,0.5,0.0,178.58268588781357,0.0,1.75,0.706787037,2.4702000000000024,0.0,-40455.0,0.375,75.0,178.58268588781357,0.0,1.75,1.723632636,0.01,0.0,-0.11999999731779099,-1.0399999618530273,111.02999877929688,-0.02099609375,0.0286865234375,1.03692626953125,35.630001068115234,0.0,29.0,-3.6143646240234375,-0.9337310791015625,Closing,0.0,0.0,-189.0,0.0,0.0,0.0,0.0,0.0,
23.18192599999998,0.0,0.0,67443.0,13.125,-352.5,-1369.1338062286377,0.0,0.375,0.5297851020000001,4.932250999999998,0.0,-64076.0,18.375,525.0,1369.1338062286377,0.0,0.25,0.214843728,4.963769999999998,0.0,60402.0,14.875,345.0,1369.1338062286377,0.0,0.5,1.180419801,2.4702000000000024,0.0,-40370.0,11.25,540.0,1369.1338062286377,0.0,0.25,1.220703,0.01,0.0,0.5,-2.6500000953674316,110.31999969482422,-0.09942626953125,-0.01593017578125,0.9345703125,35.599998474121094,0.0,-3.0,-3.595703125,-0.8829498291015625,Closing,0.0,0.0,-189.0,0.0,0.0,0.0,0.0,0.0,
23.418851999999955,0.0,0.0,67349.0,4.0,-555.0,-436.53545022010803,0.0,0.5,0.6713866500000001,4.932250999999998,0.0,-63959.0,2.875,667.5,436.53545022010803,0.0,0.25,0.373535118,4.963769999999998,0.0,60550.0,7.125,435.0,436.53545022010803,0.0,0.5,1.015624896,2.4702000000000024,0.0,-40180.0,3.125,547.5,436.53545022010803,0.0,0.625,1.561279137,0.01,0.0,0.36000001430511475,-2.2200000286102295,108.62999725341797,-0.07293701171875,-0.200439453125,1.16534423828125,35.599998474121094,0.0,-188.0,-3.600067138671875,-0.82232666015625,Closing,0.0,0.0,-189.0,0.0,0.0,0.0,0.0,0.0,
23.621120999999984,0.0,0.0,67224.0,0.0,-345.0,0.0,0.0,0.375,0.9326170920000001,4.932250999999998,0.0,-63763.0,0.125,345.0,0.0,0.0,0.25,0.6347655600000001,4.963769999999998,0.0,60664.0,0.125,330.0,0.0,0.0,0.125,0.731201097,2.4702000000000024,0.0,-40072.0,0.125,330.0,0.0,0.0,0.375,1.854247857,0.01,0.0,-0.03999999910593033,-1.25,108.52999877929688,0.08990478515625,0.02423095703125,1.11114501953125,35.61000061035156,0.0,-12.0,-3.633087158203125,-0.7707061767578125,Closing,0.0,0.0,-189.0,0.0,0.0,0.0,0.0,0.0,
23.84794299999997,0.0,0.0,67163.0,0.0,-15.0,0.0,0.0,0.375,0.836181555,4.932250999999998,0.0,-63743.0,0.125,22.5,0.0,0.0,0.25,0.587158143,4.963769999999998,0.0,60665.0,0.125,0.0,0.0,0.0,0.125,0.794677653,2.4702000000000024,0.0,-40053.0,0.125,15.0,0.0,0.0,0.5,1.673583813,0.01,0.0,0.05999999865889549,-0.17000000178813934,108.52999877929688,0.00152587890625,1.220703125E-4,1.073974609375,35.61000061035156,0.0,-2.0,-3.6473388671875,-0.7584991455078125,Closing,0.0,0.0,-189.0,0.0,0.0,0.0,0.0,0.0,
24.054648999999976,0.0,0.0,67163.0,0.0,0.0,0.0,0.0,0.125,0.8178710100000001,4.932250999999998,0.0,-63743.0,0.125,0.0,0.0,0.0,0.25,0.490722606,4.963769999999998,0.0,60665.0,0.125,0.0,0.0,0.0,0.125,0.8923338930000001,2.4702000000000024,0.0,-40052.0,0.125,0.0,0.0,0.0,0.25,1.618652178,0.01,0.0,0.09000000357627869,-0.5299999713897705,108.44999694824219,-0.05181884765625,-0.00347900390625,1.0382080078125,35.599998474121094,0.0,8.0,-3.646881103515625,-0.753875732421875,Closing,0.0,0.0,-189.0,0.0,0.0,0.0,0.0,0.0,
24.295101999999954,0.0,0.0,67163.0,0.0,0.0,0.0,0.0,0.25,0.8178710100000001,4.932250999999998,0.0,-63743.0,0.125,0.0,0.0,0.0,0.125,0.47973627900000004,4.963769999999998,0.0,60665.0,0.0,0.0,0.0,0.0,0.0,0.8959960020000001,2.4702000000000024,0.0,-40052.0,0.125,0.0,0.0,0.0,0.125,1.619872881,0.01,0.0,0.11999999731779099,-0.5699999928474426,108.44000244140625,-0.01861572265625,-0.0032958984375,1.002685546875,35.599998474121094,0.0,-2.0,-3.646881103515625,-0.750762939453125,Closing,0.0,0.0,-189.0,0.0,0.0,0.0,0.0,0.0,
24.56027899999998,0.0,0.0,67154.0,0.75,-52.5,-407.79152521573195,0.0,0.375,0.913085844,0.16534577059278827,0.0,-63743.0,0.5,15.0,214.1971659632047,0.0,0.5,0.7116698490000001,0.32342058550592245,0.0,60665.0,1.75,0.0,407.79152521573195,0.0,0.25,0.795898356,2.3045810473074844,0.0,-40048.0,0.5,60.0,214.1971659632047,0.0,0.625,1.2890623680000002,4.634955365994323,0.0,0.10000000149011612,-0.800000011920929,108.52999877929688,-0.06414794921875,0.0015869140625,0.97283935546875,35.599998474121094,0.0,15.0,-3.6466522216796875,-0.748779296875,Closing,0.0,0.0,-189.0,0.0,0.0,0.0,0.0,0.0,
24.76153099999996,0.0,0.0,67148.0,0.0,0.0,0.0,0.0,0.25,0.966796776,0.16534577059278827,0.0,-63729.0,0.125,0.0,0.0,0.0,0.25,0.9204100620000001,0.32342058550592245,0.0,60666.0,0.125,0.0,0.0,0.0,0.125,0.6970214130000001,2.3045810473074844,0.0,-40037.0,0.125,0.0,0.0,0.0,0.125,1.2377928420000002,4.634955365994323,0.0,0.14000000059604645,-0.5400000214576721,108.54000091552734,-0.0074462890625,0.02581787109375,1.01708984375,35.630001068115234,0.0,21.0,-3.6464996337890625,-0.746551513671875,Closing,0.0,0.0,-189.0,0.0,0.0,0.0,0.0,0.0,
24.982523999999977,0.0,0.0,67148.0,0.0,0.0,0.0,0.0,0.125,0.965576073,0.16534577059278827,0.0,-63729.0,0.125,0.0,0.0,0.0,0.25,0.8422850700000001,0.32342058550592245,0.0,60666.0,0.125,0.0,0.0,0.0,0.0,0.688476492,2.3045810473074844,0.0,-40037.0,0.125,0.0,0.0,0.0,0.25,1.303710804,4.634955365994323,0.0,0.1599999964237213,-0.6899999976158142,108.48999786376953,0.001220703125,-0.01800537109375,1.00482177734375,35.630001068115234,0.0,-24.0,-3.6462554931640625,-0.7452392578125,Closing,0.0,0.0,-189.0,0.0,0.0,0.0,0.0,0.0,
25.224891999999993,0.0,0.0,67148.0,0.0,0.0,0.0,0.0,0.25,0.965576073,0.16534577059278827,0.0,-63729.0,0.125,0.0,0.0,0.0,0.125,0.834960852,0.32342058550592245,0.0,60666.0,0.0,0.0,0.0,0.0,0.0,0.6872557890000001,2.3045810473074844,0.0,-40037.0,0.125,0.0,0.0,0.0,0.125,1.308593616,4.634955365994323,0.0,0.17000000178813934,-0.7300000190734863,108.5,-0.02227783203125,0.00738525390625,1.024658203125,35.619998931884766,0.0,6.0,-3.646209716796875,-0.7452392578125,Closing,0.0,0.0,-189.0,0.0,0.0,0.0,0.0,0.0,
25.448696999999985,0.0,0.0,67147.0,0.125,0.0,-181.889770925045,0.0,0.875,1.444091649,0.5498168668524864,0.0,-63740.0,0.125,-60.0,-181.889770925045,0.0,1.5,4.461669465,4.41043958977222,0.0,60666.0,0.5,0.0,181.889770925045,0.0,0.625,0.224609352,1.919474732977291,0.0,-40051.0,0.375,-82.5,-181.889770925045,0.0,2.0,2.6367184800000003,0.552687206278561,0.0,0.1599999964237213,-0.6200000047683716,108.48999786376953,-0.03961181640625,0.02984619140625,1.05029296875,35.619998931884766,0.0,34.0,-3.644012451171875,-0.7471923828125,Closing,0.0,0.0,-189.0,0.0,0.0,0.0,0.0,0.0,
25.693623999999954,0.0,0.0,67148.0,0.0,0.0,0.0,0.0,0.375,1.4782713330000001,0.5498168668524864,0.0,-63739.0,0.125,0.0,0.0,0.0,0.75,4.808349117000001,4.41043958977222,0.0,60666.0,0.0,0.0,0.0,0.0,0.0,0.249023412,1.919474732977291,0.0,-40060.0,0.125,7.5,0.0,0.0,0.5,2.510986071,0.552687206278561,0.0,0.2199999988079071,-0.800000011920929,108.5199966430664,-0.0308837890625,0.07635498046875,1.0897216796875,35.630001068115234,0.0,73.0,-3.6418304443359375,-0.7469024658203125,Closing,0.0,0.0,-189.0,0.0,0.0,0.0,0.0,0.0,
25.917169999999984,0.0,0.0,67148.0,0.0,7.5,0.0,0.0,0.375,1.411132668,0.5498168668524864,0.0,-63739.0,0.125,0.0,0.0,0.0,0.25,0.142822251,4.41043958977222,0.0,60666.0,0.0,0.0,0.0,0.0,0.0,0.333251919,1.919474732977291,0.0,-40059.0,0.125,0.0,0.0,0.0,0.625,1.938476364,0.552687206278561,0.0,0.20000000298023224,-0.8399999737739563,108.51000213623047,-0.03399658203125,9.1552734375E-4,1.02142333984375,35.630001068115234,0.0,3.0,-3.6417236328125,-0.746734619140625,Closing,0.0,0.0,-189.0,0.0,0.0,0.0,0.0,0.0,
26.133123999999953,0.0,0.0,67149.0,0.125,0.0,-198.42519611120224,0.0,1.25,0.703124928,4.932250999999998,0.0,-63739.0,0.625,67.5,198.42519611120224,0.0,0.75,0.5822753310000001,4.963769999999998,0.0,60666.0,0.75,0.0,198.42519611120224,0.0,1.125,1.0839842640000001,2.4702000000000024,0.0,-40046.0,0.5,60.0,198.42519611120224,0.0,0.625,1.461181491,0.01,0.0,0.18000000715255737,-0.9599999785423279,109.08999633789062,-0.05364990234375,0.01824951171875,1.0008544921875,35.65999984741211,0.0,26.0,-3.64154052734375,-0.7463531494140625,Closing,0.0,0.0,-189.0,0.0,0.0,0.0,0.0,0.0,
26.36110799999995,0.0,0.0,67132.0,1.375,-97.5,-388.3356982360336,0.0,0.75,1.1132811360000001,0.28637670965474865,0.0,-63723.0,1.0,37.5,142.67674389839615,0.0,1.5,1.835937312,1.0504483212194682,0.0,60672.0,2.25,67.5,388.3356982360336,0.0,0.625,0.5029296360000001,2.1833501425255286,0.0,-40035.0,0.5,82.5,142.67674389839615,0.0,1.75,0.112304676,3.9087727439816664,0.0,0.12999999523162842,-1.0199999809265137,109.43000030517578,-0.0107421875,-0.04046630859375,1.033935546875,35.65999984741211,0.0,-42.0,-3.6394195556640625,-0.7445068359375,Closing,0.0,0.0,-189.0,0.0,0.0,0.0,0.0,0.0,
