Time,ClimberA1,ClimberA2,FRpos,FRCurrent,FRspeed,FRsetpoint,FRApos,FRACurrent,FREncpos,FREncSetpoint,FREncSpeed,FLpos,FLCurrent,FLspeed,FLsetpoint,FLApos,FLACurrent,FLEncpos,FLEncSetpoint,FLEncSpeed,BRpos,BRCurrent,BRspeed,BRsetpoint,BRApos,BRACurrent,BREncpos,BREncSetpoint,BREncSpeed,BLpos,BLCurrent,BLspeed,BLsetpoint,BLApos,BLACurrent,BLEncpos,BLEncSetpoint,BLEncSpeed,navx_Pitch,navx_Roll,navx_Yaw,navx_XAcc,navx_YAcc,navx_ZAcc,navx_Temp,navx_Bar,navx_Alt,navx_XDis,navx_YDis,GearPlacerState,ShootOutputV,ShootOutputCurrent,ShootEncPos,ShootEncVelocity,ShootSpeed,ShootSetpoint,CarouselSetpoint,CarouselCurrent,
0.2539200000000128,0.0,0.0,156202.0,0.0,0.0,0.0,0.0,0.125,0.8178710100000001,0.01,0.0,-110756.0,0.125,0.0,-0.0,0.0,0.125,0.496826121,0.01,0.0,102235.0,0.0,0.0,0.0,0.0,0.0,3.3740230920000003,0.01,0.0,-140007.0,0.125,0.0,-0.0,0.0,0.25,1.669921704,0.01,0.0,0.7099999785423279,-0.5099999904632568,62.79999923706055,-0.01104736328125,0.0120849609375,1.0189208984375,35.599998474121094,0.0,-1.0,-8.473388671875,-3.96533203125,Closing,0.0,0.0,-189.0,0.0,0.0,0.0,0.0,0.0,
0.3754700000000012,0.0,0.0,156202.0,0.0,0.0,0.0,0.0,0.125,0.8178710100000001,0.01,0.0,-110756.0,0.0,0.0,-0.0,0.0,0.125,0.496826121,0.01,0.0,102235.0,0.0,0.0,0.0,0.0,0.0,3.3740230920000003,0.01,0.0,-140007.0,0.125,0.0,-0.0,0.0,0.25,1.669921704,0.01,0.0,0.699999988079071,-0.5099999904632568,62.79999923706055,-0.01031494140625,0.0120849609375,1.024169921875,35.63999938964844,0.0,0.0,-8.473388671875,-3.96533203125,Closing,0.0,0.0,-189.0,0.0,0.0,0.0,0.0,0.0,
0.46042699999999603,0.0,0.0,156202.0,0.0,0.0,0.0,0.0,0.25,0.8166503070000001,0.01,0.0,-110756.0,0.125,0.0,-0.0,0.0,0.125,0.498046824,0.01,0.0012207029999995456,102235.0,0.0,0.0,0.0,0.0,0.0,3.3728023890000003,0.01,0.0,-140007.0,0.125,0.0,-0.0,0.0,0.25,1.669921704,0.01,0.0,0.699999988079071,-0.5099999904632568,62.79999923706055,-0.0101318359375,0.0133056640625,1.025390625,35.63999938964844,0.0,0.0,-8.473388671875,-3.96533203125,Closing,0.0,0.0,-189.0,0.0,0.0,0.0,0.0,0.0,
0.5356639999999897,0.0,0.0,156202.0,0.0,0.0,0.0,0.0,0.125,0.8178710100000001,0.01,0.0,-110756.0,0.0,0.0,-0.0,0.0,0.125,0.498046824,0.01,0.0,102235.0,0.0,0.0,0.0,0.0,0.0,3.3728023890000003,0.01,0.0,-140007.0,0.125,0.0,-0.0,0.0,0.25,1.669921704,0.01,0.0,0.699999988079071,-0.5099999904632568,62.79999923706055,-0.00848388671875,0.01324462890625,1.0201416015625,35.63999938964844,0.0,0.0,-8.473388671875,-3.96533203125,Closing,0.0,0.0,-189.0,0.0,0.0,0.0,0.0,0.0,
0.6129700000000011,0.0,0.0,156202.0,0.0,0.0,0.0,0.0,0.125,0.8178710100000001,0.01,0.0,-110756.0,0.125,0.0,-0.0,0.0,0.125,0.498046824,0.01,0.0,102235.0,0.0,0.0,0.0,0.0,0.0,3.3728023890000003,0.01,0.0,-140007.0,0.125,0.0,-0.0,0.0,0.25,1.669921704,0.01,0.0,0.699999988079071,-0.5099999904632568,62.79999923706055,-0.00946044921875,0.01422119140625,1.02252197265625,35.63999938964844,0.0,1.0,-8.473388671875,-3.96533203125,Closing,0.0,0.0,-189.0,0.0,0.0,0.0,0.0,0.0,
0.6975089999999909,0.0,0.0,156202.0,0.0,0.0,0.0,0.0,0.125,0.8178710100000001,0.01,0.0,-110756.0,0.0,0.0,-0.0,0.0,0.125,0.496826121,0.01,0.0,102235.0,0.0,0.0,0.0,0.0,0.0,3.3728023890000003,0.01,0.0,-140007.0,0.125,0.0,-0.0,0.0,0.25,1.669921704,0.01,0.0,0.699999988079071,-0.5,62.79999923706055,-0.009521484375,0.01129150390625,1.0264892578125,35.63999938964844,0.0,-1.0,-8.473388671875,-3.96533203125,Closing,0.0,0.0,-189.0,0.0,0.0,0.0,0.0,0.0,
0.7963019999999961,0.0,0.0,156202.0,0.0,0.0,0.0,0.0,0.25,0.8178710100000001,0.01,0.0,-110756.0,0.125,0.0,-0.0,0.0,0.125,0.498046824,0.01,0.0,102235.0,0.0,0.0,0.0,0.0,0.0,3.3728023890000003,0.01,0.0,-140007.0,0.125,0.0,-0.0,0.0,0.25,1.669921704,0.01,0.0,0.699999988079071,-0.5,62.79999923706055,-0.01239013671875,0.01007080078125,1.023193359375,35.63999938964844,0.0,-3.0,-8.473388671875,-3.96533203125,Closing,0.0,0.0,-189.0,0.0,0.0,0.0,0.0,0.0,
0.867262000000017,0.0,0.0,156202.0,0.0,0.0,0.0,0.0,0.125,0.8154296040000001,0.01,0.0,-110756.0,0.125,0.0,-0.0,0.0,0.125,0.498046824,0.01,0.0,102235.0,0.0,0.0,0.0,0.0,0.0,3.3715816860000003,0.01,0.0,-140007.0,0.125,0.0,-0.0,0.0,0.25,1.669921704,0.01,0.0,0.699999988079071,-0.5099999904632568,62.79999923706055,-0.00738525390625,0.0133056640625,1.02044677734375,35.63999938964844,0.0,1.0,-8.473388671875,-3.96533203125,Closing,0.0,0.0,-189.0,0.0,0.0,0.0,0.0,0.0,
0.9307790000000096,0.0,0.0,156202.0,0.0,0.0,0.0,0.0,0.25,0.8178710100000001,0.01,0.0,-110756.0,0.125,0.0,-0.0,0.0,0.125,0.49316401200000004,0.01,0.0,102235.0,0.0,0.0,0.0,0.0,0.0,3.3715816860000003,0.01,0.0,-140007.0,0.125,0.0,-0.0,0.0,0.25,1.669921704,0.01,0.0,0.6899999976158142,-0.5,62.79999923706055,-0.01019287109375,0.01416015625,1.0245361328125,35.63999938964844,0.0,0.0,-8.473388671875,-3.96533203125,Closing,0.0,0.0,-189.0,0.0,0.0,0.0,0.0,0.0,
1.0141469999999972,0.0,0.0,156202.0,0.0,0.0,0.0,0.0,0.25,0.8178710100000001,0.01,0.0,-110756.0,0.0,0.0,-0.0,0.0,0.125,0.496826121,0.01,0.0012207029999995456,102235.0,0.0,0.0,0.0,0.0,0.0,3.3740230920000003,0.01,0.0012207029999999897,-140007.0,0.125,0.0,-0.0,0.0,0.25,1.669921704,0.01,0.0,0.699999988079071,-0.5,62.79999923706055,-0.01007080078125,0.01104736328125,1.02032470703125,35.63999938964844,0.0,-1.0,-8.473388671875,-3.96533203125,Closing,0.0,0.0,-189.0,0.0,0.0,0.0,0.0,0.0,
1.0710109999999986,0.0,0.0,156202.0,0.0,0.0,0.0,0.0,0.125,0.8178710100000001,0.01,0.0,-110756.0,0.125,0.0,-0.0,0.0,0.125,0.496826121,0.01,0.0,102235.0,0.0,0.0,0.0,0.0,0.0,3.3728023890000003,0.01,0.0,-140007.0,0.125,0.0,-0.0,0.0,0.25,1.669921704,0.01,0.0,0.6899999976158142,-0.5,62.79999923706055,-0.00653076171875,0.0111083984375,1.0189208984375,35.63999938964844,0.0,0.0,-8.473388671875,-3.96533203125,Closing,0.0,0.0,-189.0,0.0,0.0,0.0,0.0,0.0,
1.1787939999999943,0.0,0.0,156202.0,0.0,0.0,0.0,0.0,0.25,0.8178710100000001,0.01,0.0,-110756.0,0.125,0.0,-0.0,0.0,0.125,0.498046824,0.01,-0.0024414059999999793,102235.0,0.0,0.0,0.0,0.0,0.0,3.3728023890000003,0.01,-0.0012207029999999897,-140007.0,0.125,0.0,-0.0,0.0,0.25,1.669921704,0.01,-0.0012207029999999897,0.699999988079071,-0.5099999904632568,62.79999923706055,-0.0093994140625,0.01177978515625,1.02154541015625,35.63999938964844,0.0,0.0,-8.473388671875,-3.96533203125,Closing,0.0,0.0,-189.0,0.0,0.0,0.0,0.0,0.0,
1.232341000000015,0.0,0.0,156202.0,0.0,0.0,0.0,0.0,0.25,0.8178710100000001,0.01,0.0,-110756.0,0.125,0.0,-0.0,0.0,0.125,0.498046824,0.01,0.0012207030000004337,102235.0,0.0,0.0,0.0,0.0,0.0,3.3728023890000003,0.01,0.0,-140007.0,0.125,0.0,-0.0,0.0,0.25,1.669921704,0.01,0.0,0.6899999976158142,-0.5,62.79999923706055,-0.01080322265625,0.01239013671875,1.019287109375,35.63999938964844,0.0,0.0,-8.473388671875,-3.96533203125,Closing,0.0,0.0,-189.0,0.0,0.0,0.0,0.0,0.0,
1.2951009999999952,0.0,0.0,156202.0,0.0,0.0,0.0,0.0,0.25,0.8178710100000001,0.01,0.0,-110756.0,0.125,0.0,-0.0,0.0,0.125,0.498046824,0.01,-0.0012207030000004337,102235.0,0.0,0.0,0.0,0.0,0.0,3.3728023890000003,0.01,0.0,-140007.0,0.125,0.0,-0.0,0.0,0.25,1.669921704,0.01,0.0,0.6899999976158142,-0.5,62.79999923706055,-0.0087890625,0.0130615234375,1.02130126953125,35.63999938964844,0.0,0.0,-8.473388671875,-3.96533203125,Closing,0.0,0.0,-189.0,0.0,0.0,0.0,0.0,0.0,
1.3828740000000108,0.0,0.0,156202.0,0.0,0.0,0.0,0.0,0.25,0.8178710100000001,0.01,0.0,-110756.0,0.125,0.0,-0.0,0.0,0.125,0.49926752700000004,0.01,0.0,102235.0,0.0,0.0,0.0,0.0,0.0,3.3728023890000003,0.01,0.0,-140007.0,0.125,0.0,-0.0,0.0,0.25,1.669921704,0.01,0.0,0.699999988079071,-0.5099999904632568,62.79999923706055,-0.0081787109375,0.0101318359375,1.02569580078125,35.63999938964844,0.0,-1.0,-8.473388671875,-3.96533203125,Closing,0.0,0.0,-189.0,0.0,0.0,0.0,0.0,0.0,
1.4638280000000086,0.0,0.0,156202.0,0.0,0.0,0.0,0.0,0.125,0.8178710100000001,0.01,0.0,-110756.0,0.125,0.0,-0.0,0.0,0.125,0.498046824,0.01,0.0,102235.0,0.0,0.0,0.0,0.0,0.0,3.3715816860000003,0.01,0.0,-140007.0,0.125,0.0,-0.0,0.0,0.25,1.669921704,0.01,0.0,0.699999988079071,-0.5099999904632568,62.79999923706055,-0.0091552734375,0.0118408203125,1.02178955078125,35.63999938964844,0.0,0.0,-8.473388671875,-3.96533203125,Closing,0.0,0.0,-189.0,0.0,0.0,0.0,0.0,0.0,
1.530893000000011,0.0,0.0,156202.0,0.0,0.0,0.0,0.0,0.25,0.8166503070000001,0.01,0.0,-110756.0,0.125,0.0,-0.0,0.0,0.125,0.498046824,0.01,0.0,102235.0,0.0,0.0,0.0,0.0,0.0,3.3728023890000003,0.01,0.0,-140007.0,0.125,0.0,-0.0,0.0,0.25,1.669921704,0.01,0.0,0.699999988079071,-0.5099999904632568,62.79999923706055,-0.0108642578125,0.01275634765625,1.01983642578125,35.63999938964844,0.0,0.0,-8.473388671875,-3.96533203125,Closing,0.0,0.0,-189.0,0.0,0.0,0.0,0.0,0.0,
1.6002050000000163,0.0,0.0,156202.0,0.0,0.0,0.0,0.0,0.25,0.8178710100000001,0.01,0.0,-110756.0,0.125,0.0,-0.0,0.0,0.125,0.498046824,0.01,0.0,102235.0,0.0,0.0,0.0,0.0,0.0,3.3728023890000003,0.01,0.0,-140007.0,0.125,0.0,-0.0,0.0,0.25,1.671142407,0.01,0.0,0.699999988079071,-0.5099999904632568,62.79999923706055,-0.0089111328125,0.01177978515625,1.018310546875,35.63999938964844,0.0,0.0,-8.473388671875,-3.96533203125,Closing,0.0,0.0,-189.0,0.0,0.0,0.0,0.0,0.0,
1.66244200000001,0.0,0.0,156202.0,0.0,0.0,0.0,0.0,0.25,0.8178710100000001,0.01,0.0,-110756.0,0.0,0.0,-0.0,0.0,0.125,0.496826121,0.01,0.0,102235.0,0.0,0.0,0.0,0.0,0.0,3.3728023890000003,0.01,0.0,-140007.0,0.125,0.0,-0.0,0.0,0.25,1.669921704,0.01,0.0,0.699999988079071,-0.5099999904632568,62.790000915527344,-0.01043701171875,0.01544189453125,1.0225830078125,35.63999938964844,0.0,1.0,-8.473388671875,-3.96533203125,Closing,0.0,0.0,-189.0,0.0,0.0,0.0,0.0,0.0,
1.7336100000000152,0.0,0.0,156202.0,0.0,0.0,0.0,0.0,0.125,0.8166503070000001,0.01,0.0,-110756.0,0.0,0.0,-0.0,0.0,0.125,0.498046824,0.01,0.0,102235.0,0.0,0.0,0.0,0.0,0.0,3.3728023890000003,0.01,0.0,-140007.0,0.125,0.0,-0.0,0.0,0.25,1.669921704,0.01,0.0,0.7099999785423279,-0.5099999904632568,62.790000915527344,-0.00946044921875,0.01190185546875,1.02154541015625,35.63999938964844,0.0,0.0,-8.473388671875,-3.96533203125,Closing,0.0,0.0,-189.0,0.0,0.0,0.0,0.0,0.0,
1.8077430000000168,0.0,0.0,156186.0,18.25,-60.0,-2460.9375,0.0,2.625,0.806884683,3.6991882500000015,0.0,-110755.0,29.5,157.5,2460.9375,0.0,2.375,0.4882812,3.7228275000000015,0.0,102235.0,14.0,0.0,2460.9375,0.0,2.625,3.3691402800000003,1.2351000000000012,0.0,-140007.0,17.875,-120.0,-2460.9375,0.0,1.875,1.6845701400000002,1.2395000000000012,0.0,0.49000000953674316,-0.8500000238418579,62.77000045776367,-0.1593017578125,-0.031005859375,1.5484619140625,35.63999938964844,0.0,-101.0,-8.474456787109375,-3.9652099609375,Closing,0.0,0.0,-189.0,0.0,0.0,0.0,0.0,0.0,
1.8761560000000173,0.0,0.0,156186.0,39.5,-135.0,-2520.0,0.0,1.625,0.424804644,3.6991882500000015,0.0,-110704.0,53.5,270.0,2520.0,0.0,1.125,0.140380845,3.7228275000000015,0.0,102235.0,42.125,0.0,2520.0,0.0,1.625,3.657226188,1.2351000000000012,0.0,-140037.0,31.25,-157.5,-2520.0,0.0,0.375,2.031249792,1.2395000000000012,0.0,0.6200000047683716,-0.36000001430511475,62.72999954223633,0.05242919921875,7.9345703125E-4,0.51031494140625,35.619998931884766,0.0,21.0,-8.47808837890625,-3.96710205078125,Closing,0.0,0.0,-189.0,0.0,0.0,0.0,0.0,0.0,
1.984731999999989,0.0,0.0,156190.0,1.625,180.0,-295.3125,0.0,4.75,0.261230442,3.6991882500000015,0.0,-110718.0,0.75,-112.5,295.3125,0.0,5.375,4.819335444,3.7228275000000015,0.0,102230.0,0.75,-45.0,295.3125,0.0,3.5,3.7951656270000003,1.2351000000000012,0.0,-140012.0,1.125,180.0,-295.3125,0.0,5.0,2.249755629,1.2395000000000012,0.0,0.3700000047683716,-0.30000001192092896,62.77000045776367,0.0078125,0.13104248046875,0.6103515625,35.619998931884766,0.0,118.0,-8.48297119140625,-3.97283935546875,Closing,0.0,0.0,-189.0,0.0,0.0,0.0,0.0,0.0,
2.0662170000000044,2.375,2.125,156190.0,0.0,-15.0,0.0,0.0,1.125,4.698485847000001,3.6991882500000015,-0.16601560800000037,-110718.0,0.25,90.0,0.0,0.0,1.125,4.356689007,3.7228275000000015,4.707030768,102230.0,0.0,-7.5,0.0,0.0,2.125,4.342040571,1.2351000000000012,0.13061522100000023,-140012.0,0.125,-67.5,0.0,0.0,2.125,2.7355954230000004,1.2395000000000012,0.209960916,0.6100000143051147,-0.3499999940395355,62.790000915527344,-0.00396728515625,0.035888671875,0.6295166015625,35.619998931884766,0.0,25.0,-8.486465454101562,-3.97705078125,Closing,0.0,0.0,-189.0,0.0,0.0,0.0,0.0,0.0,
2.1491879999999948,0.0,0.0,156190.0,0.0,37.5,0.0,0.0,0.5,4.471435089,3.6991882500000015,0.0,-110709.0,0.125,37.5,0.0,0.0,0.5,4.17480426,3.7228275000000015,0.0,102223.0,0.0,-45.0,0.0,0.0,0.375,4.621581558,1.2351000000000012,0.0,-140029.0,0.125,-45.0,0.0,0.0,0.625,2.91748017,1.2395000000000012,0.0,0.6299999952316284,-0.49000000953674316,62.779998779296875,-0.04913330078125,0.0025634765625,1.0999755859375,35.619998931884766,0.0,-26.0,-8.48992919921875,-3.977325439453125,Closing,0.0,0.0,-189.0,0.0,0.0,0.0,0.0,0.0,
2.226391000000003,0.0,0.0,156198.0,0.125,7.5,-374.0625,0.0,0.375,4.426269078,3.6991882500000015,0.0,-110709.0,0.5,0.0,374.0625,0.0,0.25,4.171142151000001,3.7228275000000015,0.0,102223.0,0.5,-15.0,374.0625,0.0,0.25,4.678954599,1.2351000000000012,0.0,-140029.0,0.375,0.0,-374.0625,0.0,0.5,2.927245794,1.2395000000000012,0.0,0.6200000047683716,-0.5299999713897705,62.790000915527344,-0.0078125,0.01434326171875,1.0574951171875,35.619998931884766,0.0,3.0,-8.492630004882812,-3.977325439453125,Closing,0.0,0.0,-189.0,0.0,0.0,0.0,0.0,0.0,
2.3123520000000135,0.0,0.0,156173.0,20.5,-112.5,-2362.5,0.0,0.25,4.438476108000001,3.6991882500000015,0.0,-110700.0,25.5,240.0,2362.5,0.0,0.25,4.1906733990000005,3.7228275000000015,0.0,102225.0,17.75,22.5,2362.5,0.0,0.125,4.638671400000001,1.2351000000000012,0.0,-140035.0,13.25,-82.5,-2362.5,0.0,0.25,2.8979489220000003,1.2395000000000012,0.0,1.5700000524520874,-0.47999998927116394,62.66999816894531,0.00372314453125,0.02056884765625,1.28472900390625,35.619998931884766,0.0,-6.0,-8.4932861328125,-3.9762725830078125,Closing,0.0,0.0,-189.0,0.0,0.0,0.0,0.0,0.0,
2.3646330000000018,0.0,0.0,156173.0,21.375,-300.0,-1732.5,0.0,0.25,4.472655792,3.6991882500000015,0.0,-110700.0,23.625,772.5,1732.5,0.0,0.0,4.179687072,3.7228275000000015,0.0,102267.0,28.375,120.0,1732.5,0.0,0.125,4.599608904,1.2351000000000012,0.0,-140092.0,25.375,-262.5,-1732.5,0.0,0.25,2.927245794,1.2395000000000012,0.0,2.509999990463257,-0.6100000143051147,62.5,-0.09906005859375,0.1480712890625,1.81744384765625,35.619998931884766,0.0,23.0,-8.485458374023438,-3.9707794189453125,Closing,0.0,0.0,-189.0,0.0,0.0,0.0,0.0,0.0,
2.435301999999996,0.0,0.0,156087.0,1.75,-517.5,0.0,0.0,0.25,4.475097198,3.6991882500000015,0.0,-110565.0,0.125,562.5,0.0,0.0,0.25,4.156493715,3.7228275000000015,0.0,102267.0,0.0,457.5,0.0,0.0,0.125,4.599608904,1.2351000000000012,0.0,-140092.0,1.0,-517.5,0.0,0.0,0.25,2.884521189,1.2395000000000012,0.0,2.8499999046325684,-0.14000000059604645,62.25,0.08056640625,-0.56817626953125,1.494140625,35.63999938964844,0.0,-528.0,-8.463546752929688,-3.9559326171875,Closing,0.0,0.0,-189.0,0.0,0.0,0.0,0.0,0.0,
2.5282030000000084,0.0,0.0,156005.0,0.0,-480.0,0.0,0.0,0.25,4.475097198,3.6991882500000015,-0.003662109000000413,-110478.0,0.0,510.0,0.0,0.0,0.25,4.1857905870000005,3.7228275000000015,-0.024414059999999793,102308.0,0.0,150.0,0.0,0.0,0.125,4.581298359,1.2351000000000012,0.0,-140176.0,0.125,-540.0,0.0,0.0,0.25,2.8552243170000002,1.2395000000000012,-0.04638671400000005,2.2300000190734863,-0.3199999928474426,62.20000076293945,-0.06024169921875,0.00347900390625,1.0960693359375,35.63999938964844,0.0,-60.0,-8.453628540039062,-3.9480133056640625,Closing,0.0,0.0,-189.0,0.0,0.0,0.0,0.0,0.0,
2.6012730000000155,0.0,0.0,156005.0,0.0,-577.5,0.0,0.0,0.25,4.473876495,3.6991882500000015,0.0,-110478.0,0.125,570.0,0.0,0.0,0.25,4.184569884,3.7228275000000015,0.0,102358.0,0.0,217.5,0.0,0.0,0.0,4.582519062,1.2351000000000012,0.0,-140255.0,0.125,-540.0,0.0,0.0,0.125,2.836913772,1.2395000000000012,0.0,1.850000023841858,-0.5199999809265137,62.150001525878906,-0.07330322265625,-0.38916015625,1.0328369140625,35.63999938964844,0.0,-403.0,-8.4481201171875,-3.9426727294921875,Closing,0.0,0.0,-189.0,0.0,0.0,0.0,0.0,0.0,
2.665725000000006,0.0,0.0,155930.0,0.0,-465.0,0.0,0.0,0.25,4.473876495,3.6991882500000015,0.0,-110397.0,0.0,442.5,0.0,0.0,0.25,4.1833491810000005,3.7228275000000015,-0.004882811999999959,102358.0,0.0,345.0,0.0,0.0,0.0,4.582519062,1.2351000000000012,0.0,-140255.0,0.125,-412.5,0.0,0.0,0.25,2.827148148,1.2395000000000012,-0.01953124800000028,1.4700000286102295,-0.4699999988079071,62.099998474121094,0.0322265625,-0.0902099609375,0.75067138671875,35.63999938964844,0.0,-78.0,-8.446060180664062,-3.937774658203125,Closing,0.0,0.0,-189.0,0.0,0.0,0.0,0.0,0.0,
2.741630999999994,0.0,0.0,155930.0,0.125,-397.5,-196.875,0.0,0.25,4.472655792,3.6991882500000015,0.0,-110341.0,0.125,375.0,196.875,0.0,0.25,4.184569884,3.7228275000000015,0.0,102412.0,0.125,352.5,196.875,0.0,0.0,4.581298359,1.2351000000000012,0.0,-140319.0,0.375,-352.5,-196.875,0.0,0.25,2.824706742,1.2395000000000012,0.0,0.9100000262260437,-0.49000000953674316,62.16999816894531,-0.0469970703125,-0.35076904296875,0.9443359375,35.63999938964844,0.0,-341.0,-8.448272705078125,-3.9348297119140625,Closing,0.0,0.0,-189.0,0.0,0.0,0.0,0.0,0.0,
2.8113220000000148,0.0,0.0,155885.0,3.75,-292.5,-1811.2499999999998,0.0,0.25,4.482421416,3.6991882500000015,0.0,-110341.0,4.125,292.5,1811.2499999999998,0.0,0.25,4.184569884,3.7228275000000015,0.0,102412.0,4.875,262.5,1811.2499999999998,0.0,0.0,4.581298359,1.2351000000000012,0.0,-140319.0,4.5,-307.5,-1811.2499999999998,0.0,0.25,2.828368851,1.2395000000000012,0.0,0.4399999976158142,-0.4699999988079071,62.15999984741211,0.15447998046875,0.40032958984375,0.969970703125,35.63999938964844,0.0,423.0,-8.456741333007812,-3.93359375,Closing,0.0,0.0,-189.0,0.0,0.0,0.0,0.0,0.0,
2.8749530000000085,0.0,0.0,155795.0,12.75,-517.5,-2008.1249999999998,0.0,0.125,4.487304228,3.6991882500000015,0.0,-110245.0,17.625,682.5,2008.1249999999998,0.0,0.25,4.184569884,3.7228275000000015,0.0,102471.0,15.0,420.0,2008.1249999999998,0.0,0.0,4.581298359,1.2351000000000012,0.0,-140385.0,14.875,-495.0,-2008.1249999999998,0.0,0.25,2.879638377,1.2395000000000012,0.0,1.6399999856948853,-0.6100000143051147,61.900001525878906,0.0726318359375,0.186279296875,1.16448974609375,35.61000061035156,0.0,174.0,-8.45880126953125,-3.9280242919921875,Closing,0.0,0.0,-189.0,0.0,0.0,0.0,0.0,0.0,
2.9845020000000075,0.0,0.0,155795.0,15.5,-577.5,-1673.4375,0.0,0.125,4.487304228,3.6991882500000015,0.0,-110123.0,18.875,712.5,1673.4375,0.0,0.25,4.1857905870000005,3.7228275000000015,0.0,102565.0,16.75,525.0,1673.4375,0.0,0.0,4.571532735,1.2351000000000012,0.0,-140477.0,17.375,-577.5,-1673.4375,0.0,0.25,2.884521189,1.2395000000000012,0.0,2.5899999141693115,-0.5199999809265137,61.70000076293945,-0.03265380859375,0.39227294921875,1.32879638671875,35.61000061035156,0.0,282.0,-8.451248168945312,-3.916839599609375,Closing,0.0,0.0,-189.0,0.0,0.0,0.0,0.0,0.0,
3.05493299999999,0.0,0.0,155668.0,1.375,-787.5,0.0,0.0,0.125,4.465331574,3.6991882500000015,0.0,-110123.0,3.25,930.0,0.0,0.0,0.25,4.189452696,3.7228275000000015,0.0,102565.0,1.875,765.0,0.0,0.0,0.0,4.581298359,1.2351000000000012,0.0,-140477.0,0.25,-697.5,0.0,0.0,0.25,2.827148148,1.2395000000000012,0.0,2.859999895095825,-0.46000000834465027,61.310001373291016,-0.09295654296875,-0.21441650390625,1.35125732421875,35.61000061035156,0.0,-286.0,-8.43365478515625,-3.898284912109375,Closing,0.0,0.0,-189.0,0.0,0.0,0.0,0.0,0.0,
3.1281430000000108,0.0,0.0,155548.0,0.0,-720.0,0.0,0.0,0.25,4.465331574,3.6991882500000015,-0.023193357000000248,-110003.0,0.125,675.0,0.0,0.0,0.25,4.189452696,3.7228275000000015,0.004882811999999959,102668.0,0.0,615.0,0.0,0.0,0.0,4.57763625,1.2351000000000012,0.0,-140588.0,0.125,-735.0,0.0,0.0,0.25,2.827148148,1.2395000000000012,-0.05493163499999998,2.140000104904175,-0.49000000953674316,61.279998779296875,-0.10357666015625,-0.0509033203125,1.2762451171875,35.61000061035156,0.0,-130.0,-8.42584228515625,-3.8841552734375,Closing,0.0,0.0,-189.0,0.0,0.0,0.0,0.0,0.0,
3.2099349999999975,0.0,0.0,155548.0,5.0,-787.5,578.740131855011,0.0,0.25,4.488524931000001,3.0159423668524865,0.0,-109911.0,5.875,697.5,-578.740131855011,0.0,0.25,4.1882319930000005,4.41043958977222,0.0,102785.0,0.125,735.0,578.740131855011,0.0,0.125,4.586181171000001,1.919474732977291,0.0,-140698.0,0.375,-690.0,-578.740131855011,0.0,0.25,2.822265336,0.552687206278561,0.0,1.100000023841858,-0.4699999988079071,61.2599983215332,-0.19500732421875,-0.6602783203125,1.3902587890625,35.61000061035156,0.0,-690.0,-8.42388916015625,-3.873291015625,Closing,0.0,0.0,-189.0,0.0,0.0,0.0,0.0,0.0,
3.272426999999996,0.0,0.0,155530.0,15.375,75.0,1736.220520734787,0.0,1.625,4.197997617,3.015942366852486,0.0,-109911.0,43.0,262.5,-1736.220520734787,0.0,5.25,4.466552277,4.41043958977222,0.0,102785.0,1.75,525.0,1736.220520734787,0.0,2.75,4.908446763000001,1.9194747329772914,0.0,-140698.0,1.375,-585.0,-1736.220520734787,0.0,1.0,2.573241924,0.552687206278561,0.0,-0.3199999928474426,-0.8299999833106995,62.119998931884766,-0.15509033203125,-0.40924072265625,1.4033203125,35.61000061035156,0.0,-417.0,-8.436492919921875,-3.866119384765625,Closing,0.0,0.0,-189.0,0.0,0.0,0.0,0.0,0.0,
3.3521760000000067,0.0,0.0,155530.0,13.875,435.0,1074.8031377792358,0.0,0.375,3.978271077,3.015942366852486,0.0,-109903.0,43.0,22.5,-1074.8031377792358,0.0,1.0,4.686278817,4.41043958977222,0.0,102860.0,2.75,480.0,1074.8031377792358,0.0,0.5,0.131835924,1.9194747329772914,0.0,-140785.0,3.75,-562.5,-1074.8031377792358,0.0,0.625,2.359618899,0.552687206278561,0.0,-0.8999999761581421,-0.8899999856948853,63.33000183105469,-0.18524169921875,-0.1732177734375,1.03204345703125,35.61000061035156,0.0,-216.0,-8.454177856445312,-3.8634185791015625,Closing,0.0,0.0,-189.0,0.0,0.0,0.0,0.0,0.0,
3.412610000000015,0.0,0.0,155631.0,1.625,562.5,0.0,0.0,0.375,3.773192973,3.015942366852486,-0.2392577880000002,-109903.0,15.25,-157.5,0.0,0.0,0.75,4.910888169000001,4.41043958977222,0.2282714610000003,102860.0,1.5,240.0,0.0,0.0,0.75,0.255126927,1.9194747329772914,0.15768564600000046,-140785.0,0.625,-180.0,0.0,0.0,0.625,2.188720479,0.552687206278561,-0.21484372799999996,-0.8600000143051147,-0.8899999856948853,64.98999786376953,0.11376953125,0.16705322265625,0.707275390625,35.560001373291016,0.0,213.0,-8.473464965820312,-3.8625640869140625,Closing,0.0,0.0,-189.0,0.0,0.0,0.0,0.0,0.0,
3.511293000000005,0.0,0.0,155646.0,0.0,135.0,0.0,0.0,0.25,3.7438961010000003,3.015942366852486,0.0,-109922.0,0.125,-45.0,0.0,0.0,0.0,0.034179684,4.41043958977222,0.0,102866.0,0.0,67.5,0.0,0.0,0.125,0.291748017,1.9194747329772914,0.0,-140797.0,0.125,-7.5,0.0,0.0,0.25,2.130126735,0.552687206278561,0.0,-0.5199999809265137,-0.8899999856948853,66.87999725341797,-0.00628662109375,-0.01763916015625,1.089111328125,35.560001373291016,0.0,-2.0,-8.502532958984375,-3.863739013671875,Closing,0.0,0.0,-189.0,0.0,0.0,0.0,0.0,0.0,
3.584551999999996,0.0,0.0,155646.0,4.625,135.0,1537.7952933311462,0.0,0.25,3.763427349,3.015942366852486,0.0,-109957.0,9.125,-112.5,-1537.7952933311462,0.0,0.25,0.041503902,4.41043958977222,0.0,102877.0,4.875,67.5,1537.7952933311462,0.0,0.125,0.29296872,1.9194747329772914,0.0,-140819.0,4.75,-82.5,-1537.7952933311462,0.0,0.25,2.128906032,0.552687206278561,0.0,-0.550000011920929,-0.7699999809265137,67.0,0.0462646484375,-0.0784912109375,1.1239013671875,35.560001373291016,0.0,-38.0,-8.519256591796875,-3.86541748046875,Closing,0.0,0.0,-189.0,0.0,0.0,0.0,0.0,0.0,
3.645372999999992,0.0,0.0,155688.0,8.625,270.0,1455.11816740036,0.0,0.25,3.763427349,3.0159423668524865,0.0,-109957.0,16.375,-300.0,-1455.11816740036,0.0,0.25,0.041503902,4.41043958977222,0.0,102877.0,10.75,67.5,1455.11816740036,0.0,0.0,0.291748017,1.919474732977291,0.0,-140819.0,10.75,-285.0,-1455.11816740036,0.0,0.25,2.149657983,0.552687206278561,0.0,-0.3199999928474426,-0.7599999904632568,68.02999877929688,-0.13421630859375,0.1376953125,1.45843505859375,35.560001373291016,0.0,92.0,-8.534912109375,-3.8670654296875,Closing,0.0,0.0,-189.0,0.0,0.0,0.0,0.0,0.0,
3.7077600000000093,0.0,0.0,155688.0,4.375,345.0,0.0,0.0,0.375,3.7866207060000003,3.0159423668524865,0.0,-110003.0,8.125,-405.0,0.0,0.0,0.25,0.03662109,4.41043958977222,0.0,102911.0,3.0,210.0,0.0,0.0,0.0,0.29663082900000004,1.919474732977291,0.0,-140876.0,4.125,-345.0,0.0,0.0,0.25,2.1643064190000003,0.552687206278561,0.0,-0.09000000357627869,-0.8600000143051147,70.72000122070312,-0.05029296875,0.00286865234375,1.075927734375,35.560001373291016,0.0,-6.0,-8.549087524414062,-3.8674163818359375,Closing,0.0,0.0,-189.0,0.0,0.0,0.0,0.0,0.0,
3.770012000000017,0.0,0.0,155723.0,0.0,225.0,0.0,0.0,0.25,3.822021093,3.0159423668524865,0.021972654000000258,-110003.0,0.125,-240.0,0.0,0.0,0.25,0.051269526,4.41043958977222,0.0,102911.0,0.0,202.5,0.0,0.0,0.0,0.301513641,1.919474732977291,0.004882811999999959,-140876.0,0.125,-300.0,0.0,0.0,0.25,2.1704099340000003,0.552687206278561,0.01464843600000032,-0.14000000059604645,-0.6499999761581421,73.55999755859375,0.262939453125,0.01202392578125,0.96337890625,35.560001373291016,0.0,91.0,-8.562713623046875,-3.86761474609375,Closing,0.0,0.0,-189.0,0.0,0.0,0.0,0.0,0.0,
3.8255690000000175,0.0,0.0,155723.0,0.0,225.0,0.0,0.0,0.125,3.826903905,3.0159423668524865,0.0354003869999997,-110050.0,0.125,-285.0,0.0,0.0,0.25,0.028076169,4.41043958977222,0.009765623999999917,102960.0,0.0,322.5,0.0,0.0,0.0,0.301513641,1.919474732977291,0.004882811999999959,-140926.0,0.125,-360.0,0.0,0.0,0.125,2.1691892310000003,0.552687206278561,0.004882811999999959,-0.25999999046325684,-0.49000000953674316,75.79000091552734,0.03009033203125,-0.05169677734375,1.099365234375,35.560001373291016,0.0,-35.0,-8.57684326171875,-3.869171142578125,Closing,0.0,0.0,-189.0,0.0,0.0,0.0,0.0,0.0,
3.912170000000013,0.0,0.0,155775.0,5.0,367.5,1901.5747725963593,0.0,0.25,3.801269142,3.0159423668524865,0.0,-110050.0,7.25,-397.5,-1901.5747725963593,0.0,0.25,4.956054180000001,4.41043958977222,0.0,102960.0,4.25,375.0,1901.5747725963593,0.0,0.0,0.302734344,1.919474732977291,0.0,-140926.0,4.875,-390.0,-1901.5747725963593,0.0,0.125,2.1691892310000003,0.552687206278561,0.0,-0.38999998569488525,-0.3499999940395355,78.38999938964844,-0.32318115234375,-0.70074462890625,0.99859619140625,35.5099983215332,0.0,-743.0,-8.58837890625,-3.8714141845703125,Closing,0.0,0.0,-189.0,0.0,0.0,0.0,0.0,0.0,
3.9684010000000125,0.0,0.0,155853.0,6.125,510.0,-114.84375,0.0,0.25,3.817138281,3.0159423668524887,0.0,-110148.0,11.0,-675.0,114.84375,0.0,0.25,4.953612774000001,4.410439589772222,0.0,103024.0,5.0,412.5,-114.84375,0.0,0.0,0.29785153200000003,1.9194747329772885,0.0,-141008.0,3.875,-540.0,114.84375,0.0,0.125,2.1691892310000003,0.5526872062785588,0.0,-0.33000001311302185,-0.550000011920929,82.1500015258789,0.00128173828125,0.06353759765625,0.9013671875,35.5099983215332,0.0,69.0,-8.591445922851562,-3.8731842041015625,Closing,0.0,0.0,-189.0,0.0,0.0,0.0,0.0,0.0,
4.115792000000016,0.0,0.0,155904.0,0.125,330.0,-114.84375,0.0,0.25,3.815917578,3.0159423668524887,0.0,-110185.0,0.125,-240.0,114.84375,0.0,0.25,4.947509259,4.410439589772222,0.0,103050.0,0.25,172.5,-114.84375,0.0,0.0,0.302734344,1.9194747329772885,0.0,-141055.0,0.5,-247.5,114.84375,0.0,0.125,2.159423607,0.5526872062785588,0.0,-0.25999999046325684,-0.6299999952316284,86.7300033569336,0.04644775390625,-0.0379638671875,0.86468505859375,35.5099983215332,0.0,-30.0,-8.595230102539062,-3.87603759765625,Closing,0.0,0.0,-189.0,0.0,0.0,0.0,0.0,0.0,
4.249254000000016,0.0,0.0,155902.0,0.125,-15.0,-114.84375,0.0,0.25,3.817138281,3.0159423668524887,0.0,-110208.0,0.375,-60.0,114.84375,0.0,0.25,4.949950665,4.410439589772222,0.0,103074.0,0.125,0.0,-114.84375,0.0,0.0,0.299072235,1.9194747329772885,0.0,-141081.0,0.5,-30.0,114.84375,0.0,0.125,2.159423607,0.5526872062785588,0.0,-0.09000000357627869,-0.550000011920929,87.0999984741211,-0.019287109375,-0.05126953125,1.01031494140625,35.5099983215332,0.0,-50.0,-8.598297119140625,-3.8771514892578125,Closing,0.0,0.0,-189.0,0.0,0.0,0.0,0.0,0.0,
4.380125999999989,0.0,0.0,155917.0,1.25,90.0,611.8110448122025,0.0,0.25,3.818358984,3.015942366852486,0.0,-110208.0,1.5,-165.0,-611.8110448122025,0.0,0.25,4.942626447,4.41043958977222,0.0,103073.0,1.75,22.5,611.8110448122025,0.0,0.0,0.31005856200000004,1.9194747329772914,0.0,-141081.0,1.0,-67.5,-611.8110448122025,0.0,0.125,2.1728513400000002,0.552687206278561,0.0,-0.07000000029802322,-0.6000000238418579,86.9800033569336,-0.03033447265625,0.04327392578125,0.9010009765625,35.5099983215332,0.0,43.0,-8.598617553710938,-3.8757781982421875,Closing,0.0,0.0,-189.0,0.0,0.0,0.0,0.0,0.0,
4.516273000000016,0.0,0.0,155932.0,0.375,75.0,198.42519611120224,0.0,0.25,3.82080039,3.0159423668524865,0.0,-110240.0,0.375,-90.0,-198.42519611120224,0.0,0.25,4.941405744,4.41043958977222,0.0,103078.0,0.875,90.0,198.42519611120224,0.0,0.0,0.300292938,1.919474732977291,0.0,-141119.0,0.375,-82.5,-198.42519611120224,0.0,0.125,2.175292746,0.552687206278561,0.0,0.0,-0.6600000262260437,88.63999938964844,0.0111083984375,-0.09063720703125,0.9676513671875,35.5099983215332,0.0,-89.0,-8.598114013671875,-3.8753814697265625,Closing,0.0,0.0,-189.0,0.0,0.0,0.0,0.0,0.0,
4.648309999999998,0.0,0.0,155946.0,0.0,52.5,0.0,0.0,0.25,3.822021093,3.0159423668524865,0.0,-110255.0,0.125,-52.5,0.0,0.0,0.25,4.945067853,4.41043958977222,0.0,103098.0,0.0,30.0,0.0,0.0,0.0,0.302734344,1.919474732977291,0.0,-141124.0,0.125,-37.5,0.0,0.0,0.125,2.1740720430000002,0.552687206278561,0.0,0.09000000357627869,-0.6399999856948853,89.69000244140625,-0.0126953125,0.04931640625,1.09722900390625,35.5099983215332,0.0,47.0,-8.596908569335938,-3.8755035400390625,Closing,0.0,0.0,-189.0,0.0,0.0,0.0,0.0,0.0,
4.780885000000009,0.0,0.0,155946.0,0.0,0.0,0.0,0.0,0.25,3.82080039,3.0159423668524865,0.0,-110258.0,0.125,0.0,0.0,0.0,0.25,4.94384715,4.41043958977222,0.0,103098.0,0.0,0.0,0.0,0.0,0.0,0.29785153200000003,1.919474732977291,0.0,-141124.0,0.125,0.0,0.0,0.0,0.125,2.1740720430000002,0.552687206278561,0.0,0.09000000357627869,-0.6499999761581421,89.55000305175781,-0.00115966796875,0.0203857421875,0.99951171875,35.5099983215332,0.0,18.0,-8.594528198242188,-3.8755950927734375,Closing,0.0,0.0,-189.0,0.0,0.0,0.0,0.0,0.0,
4.914815999999991,0.0,0.0,155946.0,0.125,0.0,148.8189049065113,0.0,0.125,3.82080039,3.015942366852486,0.0,-110258.0,0.125,0.0,-148.8189049065113,0.0,0.25,4.94384715,4.41043958977222,0.0,103098.0,0.375,0.0,148.8189049065113,0.0,0.0,0.302734344,1.9194747329772914,0.0,-141124.0,0.375,0.0,-148.8189049065113,0.0,0.125,2.1716306370000003,0.552687206278561,0.0,0.12999999523162842,-0.6600000262260437,89.30000305175781,-0.00970458984375,0.0205078125,1.034912109375,35.52000045776367,0.0,18.0,-8.594314575195312,-3.8755950927734375,Closing,0.0,0.0,-189.0,0.0,0.0,0.0,0.0,0.0,
5.045366000000009,0.0,0.0,155946.0,0.0,7.5,0.0,0.0,0.125,3.82080039,3.015942366852486,0.0,-110258.0,0.125,0.0,0.0,0.0,0.25,4.941405744,4.41043958977222,0.0,103098.0,0.0,0.0,0.0,0.0,0.0,0.302734344,1.9194747329772914,0.0,-141124.0,0.125,0.0,0.0,0.0,0.125,2.1740720430000002,0.552687206278561,0.0,0.1599999964237213,-0.6499999761581421,89.3499984741211,-0.01690673828125,0.0096435546875,1.01153564453125,35.52000045776367,0.0,6.0,-8.59417724609375,-3.8755950927734375,Closing,0.0,0.0,-189.0,0.0,0.0,0.0,0.0,0.0,
5.179953999999998,0.0,0.0,155947.0,0.0,0.0,0.0,0.0,0.25,3.82080039,3.015942366852486,0.0,-110258.0,0.125,0.0,0.0,0.0,0.25,4.94384715,4.41043958977222,0.0,103098.0,0.125,0.0,0.0,0.0,0.0,0.30395504700000003,1.9194747329772914,0.0,-141124.0,0.125,0.0,0.0,0.0,0.125,2.1740720430000002,0.552687206278561,0.0,0.2199999988079071,-0.6399999856948853,89.31999969482422,-0.01080322265625,0.00433349609375,1.016845703125,35.52000045776367,0.0,0.0,-8.59417724609375,-3.8755950927734375,Closing,0.0,0.0,-189.0,0.0,0.0,0.0,0.0,0.0,
5.316135000000009,0.0,0.0,155963.0,2.625,120.0,711.0235959291458,0.0,0.125,3.819579687,3.015942366852486,0.0,-110269.0,4.625,-150.0,-711.0235959291458,0.0,0.25,4.94384715,4.41043958977222,0.0,103103.0,2.5,90.0,711.0235959291458,0.0,0.0,0.302734344,1.9194747329772914,0.0,-141134.0,2.375,-172.5,-711.0235959291458,0.0,0.125,2.1740720430000002,0.552687206278561,0.0,0.2199999988079071,-0.6000000238418579,90.62000274658203,-0.02020263671875,0.032958984375,0.91925048828125,35.52000045776367,0.0,29.0,-8.59515380859375,-3.8769683837890625,Closing,0.0,0.0,-189.0,0.0,0.0,0.0,0.0,0.0,
5.446679999999993,0.0,0.0,155985.0,0.0,97.5,0.0,0.0,0.25,3.822021093,3.015942366852486,0.0,-110303.0,0.125,-105.0,0.0,0.0,0.25,4.942626447,4.41043958977222,0.0,103134.0,0.0,135.0,0.0,0.0,0.0,0.30395504700000003,1.9194747329772914,0.0,-141168.0,0.125,-120.0,0.0,0.0,0.125,2.1740720430000002,0.552687206278561,0.0,0.25999999046325684,-0.7200000286102295,94.22000122070312,0.0863037109375,-0.12152099609375,0.9876708984375,35.529998779296875,0.0,-132.0,-8.594970703125,-3.8773345947265625,Closing,0.0,0.0,-189.0,0.0,0.0,0.0,0.0,0.0,
5.567993000000016,0.0,0.0,156002.0,0.0,112.5,0.0,0.0,0.125,3.822021093,3.015942366852486,0.0,-110312.0,0.125,-97.5,0.0,0.0,0.25,4.941405744,4.41043958977222,0.0,103145.0,0.125,45.0,0.0,0.0,0.0,0.302734344,1.9194747329772914,0.0,-141187.0,0.125,-120.0,0.0,0.0,0.125,2.1740720430000002,0.552687206278561,0.0,0.33000001311302185,-0.6700000166893005,95.33000183105469,0.001953125,0.00262451171875,0.9298095703125,35.529998779296875,0.0,-3.0,-8.596237182617188,-3.8780975341796875,Closing,0.0,0.0,-189.0,0.0,0.0,0.0,0.0,0.0,
5.714426000000007,0.0,0.0,156002.0,0.0,0.0,0.0,0.0,0.25,3.822021093,3.015942366852486,0.0,-110319.0,0.125,0.0,0.0,0.0,0.25,4.94384715,4.41043958977222,0.0,103148.0,0.0,0.0,0.0,0.0,0.0,0.302734344,1.9194747329772914,0.0,-141193.0,0.125,0.0,0.0,0.0,0.125,2.1740720430000002,0.552687206278561,0.0,0.3400000035762787,-0.6899999976158142,94.80999755859375,3.0517578125E-4,0.014892578125,1.01220703125,35.529998779296875,0.0,7.0,-8.5965576171875,-3.8777313232421875,Closing,0.0,0.0,-189.0,0.0,0.0,0.0,0.0,0.0,
5.847795000000013,0.0,0.0,156002.0,0.125,30.0,264.56692814826965,0.0,0.125,3.814696875,3.0159423668524865,0.0,-110335.0,0.125,-90.0,-264.56692814826965,0.0,0.25,4.945067853,4.41043958977222,0.0,103149.0,0.5,0.0,264.56692814826965,0.0,0.0,0.299072235,1.919474732977291,0.0,-141193.0,0.375,0.0,-264.56692814826965,0.0,0.125,2.175292746,0.552687206278561,0.0,0.3499999940395355,-0.7099999785423279,94.70999908447266,-0.0263671875,0.00872802734375,1.022216796875,35.529998779296875,0.0,3.0,-8.5965576171875,-3.8777923583984375,Closing,0.0,0.0,-189.0,0.0,0.0,0.0,0.0,0.0,
5.973292000000016,0.0,0.0,156019.0,0.0,60.0,0.0,0.0,0.25,3.82080039,3.0159423668524865,0.0,-110337.0,0.125,-30.0,0.0,0.0,0.25,4.942626447,4.41043958977222,0.0,103155.0,0.0,45.0,0.0,0.0,0.0,0.30395504700000003,1.919474732977291,0.0,-141193.0,0.125,0.0,0.0,0.0,0.125,2.1740720430000002,0.552687206278561,0.0,0.4099999964237213,-0.6899999976158142,94.93000030517578,-0.02783203125,0.02587890625,1.056396484375,35.56999969482422,0.0,19.0,-8.596542358398438,-3.8778533935546875,Closing,0.0,0.0,-189.0,0.0,0.0,0.0,0.0,0.0,
6.115578000000008,0.0,0.0,156019.0,0.0,0.0,0.0,0.0,0.25,3.823241796,3.0159423668524865,0.0,-110337.0,0.125,0.0,0.0,0.0,0.25,4.942626447,4.41043958977222,0.0,103155.0,0.0,0.0,0.0,0.0,0.0,0.302734344,1.919474732977291,0.0,-141193.0,0.125,0.0,0.0,0.0,0.125,2.1728513400000002,0.552687206278561,0.0,0.4000000059604645,-0.6899999976158142,94.88999938964844,-0.00445556640625,0.0213623046875,1.01531982421875,35.56999969482422,0.0,13.0,-8.596710205078125,-3.8778533935546875,Closing,0.0,0.0,-189.0,0.0,0.0,0.0,0.0,0.0,
6.246350000000006,0.0,0.0,156040.0,4.0,82.5,925.9842485189438,0.0,0.125,3.7963863300000003,3.015942366852486,0.0,-110349.0,7.625,-112.5,-925.9842485189438,0.0,0.25,4.94384715,4.41043958977222,0.0,103156.0,4.875,22.5,925.9842485189438,0.0,0.0,0.299072235,1.9194747329772914,0.0,-141212.0,3.875,-202.5,-925.9842485189438,0.0,0.125,2.1740720430000002,0.5526872062785609,0.0,0.3400000035762787,-0.7200000286102295,95.88999938964844,-0.01922607421875,0.13726806640625,1.04656982421875,35.56999969482422,0.0,130.0,-8.596145629882812,-3.87762451171875,Closing,0.0,0.0,-189.0,0.0,0.0,0.0,0.0,0.0,
6.379722000000009,0.0,0.0,156040.0,0.0,217.5,0.0,0.0,0.25,3.817138281,3.015942366852486,0.0,-110381.0,0.125,-195.0,0.0,0.0,0.25,4.94384715,4.41043958977222,0.0,103172.0,0.125,97.5,0.0,0.0,0.0,0.302734344,1.9194747329772914,0.0,-141249.0,0.125,-202.5,0.0,0.0,0.125,2.1740720430000002,0.5526872062785609,0.0,0.550000011920929,-0.7799999713897705,99.36000061035156,0.0072021484375,-0.01385498046875,1.04425048828125,35.56999969482422,0.0,-27.0,-8.592971801757812,-3.8771209716796875,Closing,0.0,0.0,-189.0,0.0,0.0,0.0,0.0,0.0,
6.5128340000000025,0.0,0.0,156082.0,0.0,135.0,0.0,0.0,0.25,3.817138281,3.015942366852486,0.0,-110403.0,0.125,-127.5,0.0,0.0,0.25,4.94384715,4.41043958977222,0.0,103201.0,0.0,142.5,0.0,0.0,0.0,0.30395504700000003,1.9194747329772914,0.0,-141274.0,0.125,-90.0,0.0,0.0,0.125,2.1679685280000003,0.5526872062785609,0.0,0.46000000834465027,-0.7699999809265137,101.75,0.00653076171875,0.0408935546875,1.06658935546875,35.56999969482422,0.0,27.0,-8.590103149414062,-3.877532958984375,Closing,0.0,0.0,-189.0,0.0,0.0,0.0,0.0,0.0,
6.645804999999993,0.0,0.0,156083.0,0.0,0.0,0.0,0.0,0.25,3.815917578,3.015942366852486,0.0,-110409.0,0.125,0.0,0.0,0.0,0.125,4.941405744,4.41043958977222,0.0,103202.0,0.0,0.0,0.0,0.0,0.0,0.302734344,1.9194747329772914,0.0,-141279.0,0.125,0.0,0.0,0.0,0.125,2.1691892310000003,0.5526872062785609,0.0,0.4399999976158142,-0.7699999809265137,101.25,0.00390625,0.01513671875,1.0595703125,35.56999969482422,0.0,3.0,-8.5894775390625,-3.8776092529296875,Closing,0.0,0.0,-189.0,0.0,0.0,0.0,0.0,0.0,
6.782,0.0,0.0,156083.0,0.0,0.0,0.0,0.0,0.25,3.817138281,3.015942366852486,0.0,-110409.0,0.125,0.0,0.0,0.0,0.25,4.942626447,4.41043958977222,0.0,103202.0,0.0,0.0,0.0,0.0,0.0,0.30395504700000003,1.9194747329772914,0.0,-141279.0,0.125,0.0,0.0,0.0,0.125,2.1704099340000003,0.5526872062785609,0.0,0.4699999988079071,-0.7699999809265137,101.0199966430664,-0.0164794921875,-0.0020751953125,1.02264404296875,35.56999969482422,0.0,-9.0,-8.589370727539062,-3.8776092529296875,Closing,0.0,0.0,-189.0,0.0,0.0,0.0,0.0,0.0,
6.9147240000000165,0.0,0.0,156093.0,2.125,127.5,793.700784444809,0.0,2.25,3.5839840080000003,2.4661254999999977,0.0,-110409.0,5.25,105.0,793.700784444809,0.0,2.125,0.169677717,4.963769999999998,0.0,103202.0,2.75,90.0,793.700784444809,0.0,1.125,0.6457518870000001,2.4702000000000024,0.0,-141279.0,2.375,60.0,793.700784444809,0.0,1.0,1.853027154,0.01,0.0,0.47999998927116394,-1.1200000047683716,100.94999694824219,-0.0299072265625,0.17657470703125,1.1373291015625,35.56999969482422,0.0,165.0,-8.588363647460938,-3.87615966796875,Closing,0.0,0.0,-189.0,0.0,0.0,0.0,0.0,0.0,
7.046727000000013,0.0,0.0,156118.0,5.375,135.0,853.2283151149749,0.0,0.375,3.1628414730000003,2.4661254999999977,0.0,-110385.0,9.75,172.5,853.2283151149749,0.0,0.5,0.565185489,4.963769999999998,0.0,103220.0,6.125,82.5,853.2283151149749,0.0,0.25,0.980224509,2.4702000000000024,0.0,-141212.0,4.75,232.5,853.2283151149749,0.0,0.25,1.462402194,0.01,0.0,0.4699999988079071,-1.7699999809265137,100.4800033569336,-0.17578125,-0.0352783203125,1.0108642578125,35.599998474121094,0.0,-17.0,-8.583282470703125,-3.8619842529296875,Closing,0.0,0.0,-189.0,0.0,0.0,0.0,0.0,0.0,
7.181358999999997,0.0,0.0,156173.0,5.25,487.5,853.2283151149749,0.0,0.375,3.089599293,2.4661254999999977,0.0,-110261.0,10.75,472.5,853.2283151149749,0.0,0.25,0.6188964210000001,4.963769999999998,0.0,103327.0,6.375,442.5,853.2283151149749,0.0,0.125,0.969238182,2.4702000000000024,0.0,-141142.0,5.625,442.5,853.2283151149749,0.0,0.25,1.467285006,0.01,0.0,0.6000000238418579,-2.299999952316284,100.61000061035156,-0.06951904296875,-0.01708984375,0.807861328125,35.599998474121094,0.0,-18.0,-8.575469970703125,-3.8382415771484375,Closing,0.0,0.0,-189.0,0.0,0.0,0.0,0.0,0.0,
7.317894,0.0,0.0,156365.0,5.75,637.5,853.2283151149749,0.0,0.5,3.175048503,2.4661254999999977,0.0,-110163.0,10.125,652.5,853.2283151149749,0.0,0.25,0.6079100940000001,4.963769999999998,0.0,103415.0,6.5,570.0,853.2283151149749,0.0,0.125,0.859374912,2.4702000000000024,0.0,-141050.0,6.0,600.0,853.2283151149749,0.0,0.25,1.6357420200000001,0.01,0.0,0.46000000834465027,-2.6700000762939453,100.58999633789062,-0.183837890625,-0.03369140625,1.25714111328125,35.599998474121094,0.0,-20.0,-8.565689086914062,-3.8290863037109375,Closing,0.0,0.0,-189.0,0.0,0.0,0.0,0.0,0.0,
7.446455000000016,0.0,0.0,156495.0,4.875,772.5,853.2283151149749,0.0,0.375,3.2214352170000002,2.4661254999999977,0.0,-110040.0,8.25,787.5,853.2283151149749,0.0,0.25,0.5029296360000001,4.963769999999998,0.0,103533.0,5.125,802.5,853.2283151149749,0.0,0.0,0.834960852,2.4702000000000024,0.0,-140935.0,5.0,765.0,853.2283151149749,0.0,0.125,1.704101388,0.01,0.0,0.38999998569488525,-2.9600000381469727,100.68000030517578,-0.16729736328125,-0.0294189453125,1.16485595703125,35.599998474121094,0.0,-17.0,-8.558975219726562,-3.82073974609375,Closing,0.0,0.0,-189.0,0.0,0.0,0.0,0.0,0.0,
7.571165000000009,0.0,0.0,156641.0,3.625,892.5,853.2283151149749,0.0,0.375,3.244628574,2.4661254999999977,0.0,-109889.0,4.375,960.0,853.2283151149749,0.0,0.125,0.367431603,4.963769999999998,0.0,103675.0,4.125,900.0,853.2283151149749,0.0,0.0,0.834960852,2.4702000000000024,0.0,-140791.0,3.375,937.5,853.2283151149749,0.0,0.25,1.679687328,0.01,0.0,0.5299999713897705,-3.0299999713897705,100.0,0.00244140625,0.1033935546875,0.88092041015625,35.560001373291016,0.0,85.0,-8.549575805664062,-3.814788818359375,Closing,0.0,0.0,-189.0,0.0,0.0,0.0,0.0,0.0,
7.71030799999999,0.0,0.0,156784.0,3.375,892.5,853.2283151149749,0.0,0.25,3.245849277,2.4661254999999977,0.0,-109721.0,2.125,1050.0,853.2283151149749,0.0,0.25,0.424804644,4.963769999999998,0.0,103819.0,3.625,907.5,853.2283151149749,0.0,0.0,0.834960852,2.4702000000000024,0.0,-140632.0,1.875,1050.0,853.2283151149749,0.0,0.25,1.62353499,0.01,0.0,0.550000011920929,-3.0399999618530273,99.0199966430664,0.02581787109375,-0.022705078125,0.7779541015625,35.560001373291016,0.0,-40.0,-8.540695190429688,-3.8156585693359375,Closing,0.0,0.0,-189.0,0.0,0.0,0.0,0.0,0.0,
7.84865400000001,0.0,0.0,156949.0,4.5,1057.5,1147.839097116921,0.0,0.875,2.9516598540000003,1.8909186806642757,0.0,-109555.0,4.125,1095.0,1147.839097116921,0.0,0.5,0.241699194,4.384887385628978,0.0,103976.0,4.75,1072.5,1147.839097116921,0.0,0.375,0.47973627900000004,1.8940428315496896,0.0,-140293.0,3.25,1080.0,1147.839097116921,0.0,0.5,1.207275267,4.3797902920458585,0.0,1.100000023841858,-2.869999885559082,98.75,0.09600830078125,0.29083251953125,1.0350341796875,35.560001373291016,0.0,245.0,-8.525527954101562,-3.820770263671875,Closing,0.0,0.0,-189.0,0.0,0.0,0.0,0.0,0.0,
7.982510999999999,0.0,0.0,157113.0,0.0,892.5,0.0,0.0,0.25,2.5390622400000002,1.8909186806642757,0.0,-109374.0,0.125,870.0,0.0,0.0,0.25,4.782714354,4.384887385628978,0.0,104242.0,0.0,757.5,0.0,0.0,0.125,0.15869139000000002,1.8940428315496896,0.0,-140165.0,0.125,765.0,0.0,0.0,0.25,0.861816318,4.3797902920458585,0.0,2.3499999046325684,-0.9200000166893005,98.87000274658203,0.30517578125,0.0809326171875,0.92266845703125,35.560001373291016,0.0,-6.0,-8.491287231445312,-3.8484954833984375,Closing,0.0,0.0,-189.0,0.0,0.0,0.0,0.0,0.0,
8.118170000000013,0.0,0.0,157222.0,0.0,690.0,0.0,0.0,0.375,2.5341794280000003,1.8909186806642757,0.0,-109256.0,0.125,697.5,0.0,0.0,0.25,4.7058100650000005,4.384887385628978,0.0,104242.0,0.0,592.5,0.0,0.0,0.125,0.16845701400000002,1.8940428315496896,0.0,-140057.0,0.125,690.0,0.0,0.0,0.375,0.898437408,4.3797902920458585,0.0,1.9299999475479126,-0.4399999976158142,99.13999938964844,-0.01708984375,-0.1268310546875,1.37969970703125,35.560001373291016,0.0,-170.0,-8.465545654296875,-3.888641357421875,Closing,0.0,0.0,-189.0,0.0,0.0,0.0,0.0,0.0,
8.247649999999995,0.0,0.0,157321.0,0.0,555.0,0.0,0.0,0.375,2.6879880060000003,1.8909186806642757,0.0,-109063.0,0.125,570.0,0.0,0.0,0.25,4.831542474,4.384887385628978,0.0,104425.0,0.0,510.0,0.0,0.0,0.125,0.289306611,1.8940428315496896,0.0,-139972.0,0.125,540.0,0.0,0.0,0.25,1.063232313,4.3797902920458585,0.0,0.9700000286102295,-0.2800000011920929,99.01000213623047,0.0506591796875,-0.1212158203125,0.85516357421875,35.560001373291016,0.0,-142.0,-8.448196411132812,-3.9407958984375,Closing,0.0,0.0,-189.0,0.0,0.0,0.0,0.0,0.0,
8.38050099999999,0.0,0.0,157399.0,0.0,390.0,0.0,0.0,0.25,2.769775107,1.8909186806642757,0.0,-109001.0,0.125,382.5,0.0,0.0,0.25,4.954833477,4.384887385628978,0.0,104484.0,0.0,367.5,0.0,0.0,0.0,0.351562464,1.8940428315496896,0.0,-139908.0,0.125,375.0,0.0,0.0,0.25,1.149902226,4.3797902920458585,0.0,0.3400000035762787,-0.07000000029802322,98.91999816894531,0.0679931640625,-0.0733642578125,1.093017578125,35.560001373291016,0.0,-89.0,-8.445205688476562,-3.9934234619140625,Closing,0.0,0.0,-189.0,0.0,0.0,0.0,0.0,0.0,
8.500731999999989,0.0,0.0,157454.0,0.0,270.0,0.0,0.0,0.25,2.760009483,1.8909186806642757,0.0,-108959.0,0.125,277.5,0.0,0.0,0.25,4.956054180000001,4.384887385628978,0.0,104525.0,0.0,270.0,0.0,0.0,0.125,0.351562464,1.8940428315496896,0.0,-139864.0,0.125,262.5,0.0,0.0,0.25,1.145019414,4.3797902920458585,0.0,0.09000000357627869,0.25,98.87000274658203,0.1036376953125,-0.0501708984375,0.962646484375,35.54999923706055,0.0,-66.0,-8.4503173828125,-4.03741455078125,Closing,0.0,0.0,-189.0,0.0,0.0,0.0,0.0,0.0,
8.645648000000016,0.0,0.0,157487.0,0.0,97.5,0.0,0.0,0.25,2.719726284,1.8909186806642757,0.0,-108945.0,0.125,97.5,0.0,0.0,0.25,4.93164012,4.384887385628978,0.0,104533.0,0.0,37.5,0.0,0.0,0.125,0.33569332500000004,1.8940428315496896,0.0,-139846.0,0.125,52.5,0.0,0.0,0.25,1.066894422,4.3797902920458585,0.0,-0.4300000071525574,0.800000011920929,98.88999938964844,0.01690673828125,-0.0391845703125,1.03692626953125,35.54999923706055,0.0,-31.0,-8.468093872070312,-4.108734130859375,Closing,0.0,0.0,-189.0,0.0,0.0,0.0,0.0,0.0,
8.782212,0.0,0.0,157518.0,5.625,180.0,1031.8110573291779,0.0,1.125,3.043212579,2.4661254999999977,0.0,-108918.0,9.75,225.0,1031.8110573291779,0.0,0.75,0.32958981000000004,4.963769999999998,0.0,104555.0,5.25,172.5,1031.8110573291779,0.0,1.875,0.548095647,2.4702000000000024,0.0,-139830.0,5.375,187.5,1031.8110573291779,0.0,0.75,1.4538572730000001,0.01,0.0,0.019999999552965164,0.009999999776482582,98.68000030517578,-0.053466796875,-0.10906982421875,1.29052734375,35.54999923706055,0.0,-100.0,-8.486038208007812,-4.176483154296875,Closing,0.0,0.0,-189.0,0.0,0.0,0.0,0.0,0.0,
8.901652000000002,0.0,0.0,157537.0,12.0,127.5,1031.8110573291779,0.0,0.5,3.249511386,2.4661254999999977,0.0,-108900.0,17.875,90.0,1031.8110573291779,0.0,0.5,0.511474557,4.963769999999998,0.0,104574.0,10.875,135.0,1031.8110573291779,0.0,0.375,0.8056639800000001,2.4702000000000024,0.0,-139811.0,12.375,75.0,1031.8110573291779,0.0,0.375,1.650390456,0.01,0.0,-0.3700000047683716,0.25999999046325684,98.94999694824219,0.0906982421875,-0.08612060546875,0.9710693359375,35.54999923706055,0.0,-92.0,-8.493148803710938,-4.2068328857421875,Closing,0.0,0.0,-189.0,0.0,0.0,0.0,0.0,0.0,
9.046969000000011,0.0,0.0,157537.0,13.375,0.0,535.7480388879776,0.0,0.125,3.254394198,2.4661254999999977,0.0,-108897.0,20.875,7.5,535.7480388879776,0.0,0.0,0.50048823,4.963769999999998,0.0,104580.0,15.125,0.0,535.7480388879776,0.0,0.125,0.8544921000000001,2.4702000000000024,0.0,-139807.0,14.125,0.0,535.7480388879776,0.0,0.25,1.6357420200000001,0.01,0.0,-0.20999999344348907,0.2800000011920929,99.04000091552734,-0.0087890625,0.0089111328125,1.0115966796875,35.54999923706055,0.0,14.0,-8.51202392578125,-4.2456512451171875,Closing,0.0,0.0,-189.0,0.0,0.0,0.0,0.0,0.0,
9.183404999999999,0.0,0.0,157525.0,0.0,-112.5,0.0,0.0,0.25,3.254394198,2.4661254999999977,0.0,-108903.0,0.125,-247.5,0.0,0.0,0.0,0.49316401200000004,4.963769999999998,0.0,104580.0,0.0,-75.0,0.0,0.0,0.0,0.8544921000000001,2.4702000000000024,0.0,-139828.0,0.125,-150.0,0.0,0.0,0.125,1.616210772,0.01,0.0,-0.10999999940395355,0.6100000143051147,98.94999694824219,-0.10150146484375,-0.0262451171875,1.0562744140625,35.54999923706055,0.0,-6.0,-8.513473510742188,-4.249237060546875,Closing,0.0,0.0,-189.0,0.0,0.0,0.0,0.0,0.0,
9.31377900000001,0.0,0.0,157509.0,0.0,-75.0,0.0,0.0,0.125,3.254394198,2.4661254999999977,0.0,-108933.0,0.125,0.0,0.0,0.0,0.125,0.498046824,4.963769999999998,0.0,104564.0,0.0,-15.0,0.0,0.0,0.0,0.8544921000000001,2.4702000000000024,0.0,-139835.0,0.125,-37.5,0.0,0.0,0.125,1.616210772,0.01,0.0,-0.12999999523162842,0.009999999776482582,98.93000030517578,-0.07537841796875,0.03863525390625,0.9996337890625,35.54999923706055,0.0,52.0,-8.514175415039062,-4.2473602294921875,Closing,0.0,0.0,-189.0,0.0,0.0,0.0,0.0,0.0,
9.445477000000013,0.0,0.0,157507.0,0.0,0.0,0.0,0.0,0.125,3.254394198,2.4661254999999977,0.0,-108933.0,0.125,0.0,0.0,0.0,0.125,0.498046824,4.963769999999998,0.0,104564.0,0.0,0.0,0.0,0.0,0.0,0.8544921000000001,2.4702000000000024,0.0,-139835.0,0.125,0.0,0.0,0.0,0.125,1.616210772,0.01,0.0,-0.14000000059604645,-0.07000000029802322,98.87000274658203,-0.0062255859375,0.0096435546875,1.02825927734375,35.54999923706055,0.0,12.0,-8.51416015625,-4.2433013916015625,Closing,0.0,0.0,-189.0,0.0,0.0,0.0,0.0,0.0,
9.581118000000016,0.0,0.0,157507.0,0.0,0.0,0.0,0.0,0.125,3.253173495,2.4661254999999977,0.0,-108933.0,0.125,0.0,0.0,0.0,0.125,0.498046824,4.963769999999998,0.0,104564.0,0.0,0.0,0.0,0.0,0.0,0.8544921000000001,2.4702000000000024,0.0,-139835.0,0.125,0.0,0.0,0.0,0.125,1.616210772,0.01,0.0,-0.09000000357627869,-0.009999999776482582,98.91999816894531,0.02117919921875,0.00531005859375,1.0174560546875,35.52000045776367,0.0,3.0,-8.514053344726562,-4.2433319091796875,Closing,0.0,0.0,-189.0,0.0,0.0,0.0,0.0,0.0,
9.710292000000015,0.0,0.0,157507.0,0.0,0.0,0.0,0.0,0.125,3.251952792,2.4661254999999977,0.0,-108933.0,0.125,0.0,0.0,0.0,0.125,0.498046824,4.963769999999998,0.0,104564.0,0.0,0.0,0.0,0.0,0.0,0.8544921000000001,2.4702000000000024,0.0,-139835.0,0.125,0.0,0.0,0.0,0.125,1.616210772,0.01,0.0,-0.05999999865889549,-0.05000000074505806,98.91000366210938,-0.02081298828125,0.00335693359375,1.00860595703125,35.52000045776367,0.0,7.0,-8.514053344726562,-4.243316650390625,Closing,0.0,0.0,-189.0,0.0,0.0,0.0,0.0,0.0,
9.849347000000009,0.0,0.0,157507.0,0.0,0.0,0.0,0.0,0.25,3.254394198,2.4661254999999977,0.0,-108933.0,0.125,0.0,0.0,0.0,0.125,0.49926752700000004,4.963769999999998,0.0,104564.0,0.0,0.0,0.0,0.0,0.0,0.8544921000000001,2.4702000000000024,0.0,-139835.0,0.125,0.0,0.0,0.0,0.125,1.617431475,0.01,0.0,-0.029999999329447746,-0.11999999731779099,98.91000366210938,-0.00341796875,0.006103515625,1.0133056640625,35.52000045776367,0.0,6.0,-8.514053344726562,-4.2429351806640625,Closing,0.0,0.0,-189.0,0.0,0.0,0.0,0.0,0.0,
9.980535999999994,0.0,0.0,157507.0,0.0,0.0,0.0,0.0,0.25,3.2556149010000004,2.4661254999999977,0.0,-108933.0,0.125,0.0,0.0,0.0,0.125,0.498046824,4.963769999999998,0.0,104564.0,0.0,0.0,0.0,0.0,0.0,0.8544921000000001,2.4702000000000024,0.0,-139835.0,0.125,0.0,0.0,0.0,0.125,1.616210772,0.01,0.0,0.0,-0.15000000596046448,98.91000366210938,-0.01409912109375,0.002685546875,1.018798828125,35.52000045776367,0.0,4.0,-8.514053344726562,-4.2429351806640625,Closing,0.0,0.0,-189.0,0.0,0.0,0.0,0.0,0.0,
10.115277000000003,0.0,0.0,157507.0,0.0,0.0,0.0,0.0,0.125,3.254394198,2.4661254999999977,0.0,-108933.0,0.125,0.0,0.0,0.0,0.125,0.498046824,4.963769999999998,0.0,104564.0,0.0,0.0,0.0,0.0,0.0,0.8544921000000001,2.4702000000000024,0.0,-139835.0,0.125,0.0,0.0,0.0,0.125,1.616210772,0.01,0.0,0.029999999329447746,-0.20000000298023224,98.91000366210938,-0.0081787109375,0.0050048828125,1.03125,35.560001373291016,0.0,5.0,-8.514053344726562,-4.2429351806640625,Closing,0.0,0.0,-189.0,0.0,0.0,0.0,0.0,0.0,
10.235834999999993,0.0,0.0,157507.0,0.0,0.0,0.0,0.0,0.125,3.254394198,2.4661254999999977,0.0,-108933.0,0.125,0.0,0.0,0.0,0.125,0.498046824,4.963769999999998,0.0,104564.0,0.0,0.0,0.0,0.0,0.0,0.8544921000000001,2.4702000000000024,0.0,-139835.0,0.125,0.0,0.0,0.0,0.125,1.616210772,0.01,0.0,0.03999999910593033,-0.23999999463558197,98.9000015258789,-0.00921630859375,0.0032958984375,1.017822265625,35.560001373291016,0.0,3.0,-8.514053344726562,-4.2429351806640625,Closing,0.0,0.0,-189.0,0.0,0.0,0.0,0.0,0.0,
10.381589000000007,0.0,0.0,157507.0,0.0,0.0,0.0,0.0,0.25,3.253173495,2.4661254999999977,0.0,-108933.0,0.125,0.0,0.0,0.0,0.125,0.498046824,4.963769999999998,0.0,104564.0,0.0,0.0,0.0,0.0,0.0,0.8544921000000001,2.4702000000000024,0.0,-139835.0,0.125,0.0,0.0,0.0,0.125,1.616210772,0.01,0.0,0.05999999865889549,-0.27000001072883606,98.9000015258789,-0.0108642578125,0.0035400390625,1.0146484375,35.560001373291016,0.0,3.0,-8.514053344726562,-4.2429351806640625,Closing,0.0,0.0,-189.0,0.0,0.0,0.0,0.0,0.0,
10.502883999999991,0.0,0.0,157507.0,0.0,0.0,0.0,0.0,0.125,3.2556149010000004,2.4661254999999977,0.0,-108933.0,0.125,0.0,0.0,0.0,0.125,0.498046824,4.963769999999998,0.0,104564.0,0.0,0.0,0.0,0.0,0.0,0.8544921000000001,2.4702000000000024,0.0,-139835.0,0.125,0.0,0.0,0.0,0.125,1.616210772,0.01,0.0,0.07999999821186066,-0.30000001192092896,98.9000015258789,-0.01220703125,0.004638671875,1.019287109375,35.560001373291016,0.0,4.0,-8.514053344726562,-4.2429351806640625,Closing,0.0,0.0,-189.0,0.0,0.0,0.0,0.0,0.0,
10.637116999999998,0.0,0.0,157507.0,0.0,0.0,0.0,0.0,0.25,3.254394198,2.4661254999999977,0.0,-108933.0,0.125,0.0,0.0,0.0,0.125,0.496826121,4.963769999999998,0.0,104564.0,0.125,0.0,0.0,0.0,0.0,0.8544921000000001,2.4702000000000024,0.0,-139835.0,0.125,0.0,0.0,0.0,0.125,1.616210772,0.01,0.0,0.09000000357627869,-0.3199999928474426,98.9000015258789,-0.010009765625,0.00592041015625,1.01434326171875,35.540000915527344,0.0,4.0,-8.514053344726562,-4.2429351806640625,Closing,0.0,0.0,-189.0,0.0,0.0,0.0,0.0,0.0,
10.781831999999994,0.0,0.0,157507.0,0.0,0.0,0.0,0.0,0.25,3.254394198,2.4661254999999977,0.0,-108933.0,0.125,0.0,0.0,0.0,0.125,0.496826121,4.963769999999998,0.0,104564.0,0.0,0.0,0.0,0.0,0.0,0.8544921000000001,2.4702000000000024,0.0,-139835.0,0.125,0.0,0.0,0.0,0.125,1.614990069,0.01,0.0,0.10999999940395355,-0.3499999940395355,98.9000015258789,-0.00982666015625,0.00457763671875,1.0206298828125,35.540000915527344,0.0,3.0,-8.514053344726562,-4.2429351806640625,Closing,0.0,0.0,-189.0,0.0,0.0,0.0,0.0,0.0,
10.915102000000013,0.0,0.0,157507.0,0.0,0.0,0.0,0.0,0.25,3.254394198,2.4661254999999977,0.0,-108933.0,0.125,0.0,0.0,0.0,0.125,0.498046824,4.963769999999998,0.0,104564.0,0.0,0.0,0.0,0.0,0.0,0.8544921000000001,2.4702000000000024,0.0,-139835.0,0.125,0.0,0.0,0.0,0.125,1.617431475,0.01,0.0,0.11999999731779099,-0.3700000047683716,98.9000015258789,-0.00982666015625,0.00384521484375,1.01837158203125,35.540000915527344,0.0,2.0,-8.514053344726562,-4.2429351806640625,Closing,0.0,0.0,-189.0,0.0,0.0,0.0,0.0,0.0,
11.048407000000006,0.0,0.0,157507.0,0.0,0.0,0.0,0.0,0.25,3.254394198,2.4661254999999977,0.0,-108933.0,0.125,0.0,0.0,0.0,0.125,0.498046824,4.963769999999998,0.0,104564.0,0.0,0.0,0.0,0.0,0.0,0.8557128030000001,2.4702000000000024,0.0,-139835.0,0.125,0.0,0.0,0.0,0.125,1.616210772,0.01,0.0,0.11999999731779099,-0.38999998569488525,98.9000015258789,-0.0091552734375,0.00506591796875,1.01678466796875,35.56999969482422,0.0,3.0,-8.514053344726562,-4.2429351806640625,Closing,0.0,0.0,-189.0,0.0,0.0,0.0,0.0,0.0,
11.182304000000004,0.0,0.0,157507.0,0.0,0.0,0.0,0.0,0.25,3.254394198,2.4661254999999977,0.0,-108933.0,0.125,0.0,0.0,0.0,0.125,0.496826121,4.963769999999998,0.0,104564.0,0.0,0.0,0.0,0.0,0.0,0.8544921000000001,2.4702000000000024,0.0,-139835.0,0.125,0.0,0.0,0.0,0.125,1.616210772,0.01,0.0,0.12999999523162842,-0.4099999964237213,98.88999938964844,-0.010009765625,0.00225830078125,1.0206298828125,35.56999969482422,0.0,0.0,-8.514053344726562,-4.2429351806640625,Closing,0.0,0.0,-189.0,0.0,0.0,0.0,0.0,0.0,
11.303043999999995,0.0,0.0,157507.0,0.0,0.0,0.0,0.0,0.25,3.254394198,2.4661254999999977,0.0,-108933.0,0.125,0.0,0.0,0.0,0.125,0.498046824,4.963769999999998,0.0,104564.0,0.0,0.0,0.0,0.0,0.0,0.8544921000000001,2.4702000000000024,0.0,-139835.0,0.125,0.0,0.0,0.0,0.125,1.616210772,0.01,0.0,0.14000000059604645,-0.41999998688697815,98.88999938964844,-0.01031494140625,0.0040283203125,1.02801513671875,35.56999969482422,0.0,1.0,-8.514053344726562,-4.2429351806640625,Closing,0.0,0.0,-189.0,0.0,0.0,0.0,0.0,0.0,
11.449293000000004,0.0,0.0,157507.0,0.0,0.0,0.0,0.0,0.25,3.254394198,2.4661254999999977,0.0,-108933.0,0.125,0.0,0.0,0.0,0.125,0.498046824,4.963769999999998,0.0,104564.0,0.0,0.0,0.0,0.0,0.0,0.8544921000000001,2.4702000000000024,0.0,-139835.0,0.125,0.0,0.0,0.0,0.125,1.617431475,0.01,0.0,0.1599999964237213,-0.4300000071525574,98.88999938964844,-0.01055908203125,0.0035400390625,1.013427734375,35.56999969482422,0.0,1.0,-8.514053344726562,-4.2429351806640625,Closing,0.0,0.0,-189.0,0.0,0.0,0.0,0.0,0.0,
11.582676000000006,0.0,0.0,157507.0,0.0,0.0,0.0,0.0,0.25,3.254394198,2.4661254999999977,0.0,-108933.0,0.125,0.0,0.0,0.0,0.125,0.498046824,4.963769999999998,0.0,104564.0,0.0,0.0,0.0,0.0,0.0,0.8544921000000001,2.4702000000000024,0.0,-139835.0,0.125,0.0,0.0,0.0,0.125,1.616210772,0.01,0.0,0.1599999964237213,-0.44999998807907104,98.88999938964844,-0.00634765625,0.00396728515625,1.018798828125,35.59000015258789,0.0,0.0,-8.514053344726562,-4.2429351806640625,Closing,0.0,0.0,-189.0,0.0,0.0,0.0,0.0,0.0,
11.702568,0.0,0.0,157507.0,0.0,0.0,0.0,0.0,0.25,3.2556149010000004,2.4661254999999977,0.0,-108933.0,0.125,0.0,0.0,0.0,0.125,0.496826121,4.963769999999998,0.0,104564.0,0.0,0.0,0.0,0.0,0.0,0.8544921000000001,2.4702000000000024,0.0,-139835.0,0.125,0.0,0.0,0.0,0.125,1.616210772,0.01,0.0,0.1599999964237213,-0.44999998807907104,98.87999725341797,-0.01165771484375,0.00494384765625,1.01495361328125,35.59000015258789,0.0,2.0,-8.514053344726562,-4.2429351806640625,Closing,0.0,0.0,-189.0,0.0,0.0,0.0,0.0,0.0,
11.847108000000008,0.0,0.0,157507.0,0.0,0.0,0.0,0.0,0.125,3.254394198,2.4661254999999977,0.0,-108933.0,0.125,0.0,0.0,0.0,0.125,0.496826121,4.963769999999998,0.0,104564.0,0.0,0.0,0.0,0.0,0.0,0.8544921000000001,2.4702000000000024,0.0,-139835.0,0.125,0.0,0.0,0.0,0.125,1.616210772,0.01,0.0,0.18000000715255737,-0.46000000834465027,98.87999725341797,-0.01019287109375,0.00830078125,1.0257568359375,35.59000015258789,0.0,5.0,-8.514053344726562,-4.2429351806640625,Closing,0.0,0.0,-189.0,0.0,0.0,0.0,0.0,0.0,
11.981035999999992,0.0,0.0,157507.0,0.0,0.0,0.0,0.0,0.125,3.254394198,2.4661254999999977,0.0,-108933.0,0.125,0.0,0.0,0.0,0.125,0.498046824,4.963769999999998,0.0,104564.0,0.0,0.0,0.0,0.0,0.0,0.8544921000000001,2.4702000000000024,0.0,-139835.0,0.125,0.0,0.0,0.0,0.125,1.616210772,0.01,0.0,0.1899999976158142,-0.4699999988079071,98.87999725341797,-0.01043701171875,0.00433349609375,1.0220947265625,35.59000015258789,0.0,1.0,-8.514053344726562,-4.2429351806640625,Closing,0.0,0.0,-189.0,0.0,0.0,0.0,0.0,0.0,
12.113083000000014,0.0,0.0,157507.0,0.0,0.0,0.0,0.0,0.25,3.254394198,2.4661254999999977,0.0,-108933.0,0.125,0.0,0.0,0.0,0.125,0.498046824,4.963769999999998,0.0,104564.0,0.0,0.0,0.0,0.0,0.0,0.8544921000000001,2.4702000000000024,0.0,-139835.0,0.125,0.0,0.0,0.0,0.125,1.616210772,0.01,0.0,0.20000000298023224,-0.47999998927116394,98.87999725341797,-0.01239013671875,0.0045166015625,1.02435302734375,35.59000015258789,0.0,1.0,-8.514053344726562,-4.2429351806640625,Closing,0.0,0.0,-189.0,0.0,0.0,0.0,0.0,0.0,
12.24841399999999,0.0,0.0,157507.0,0.0,0.0,0.0,0.0,0.25,3.254394198,2.4661254999999977,0.0,-108933.0,0.125,0.0,0.0,0.0,0.125,0.498046824,4.963769999999998,0.0,104564.0,0.0,0.0,0.0,0.0,0.0,0.8544921000000001,2.4702000000000024,0.0,-139835.0,0.125,0.0,0.0,0.0,0.125,1.616210772,0.01,0.0,0.20000000298023224,-0.49000000953674316,98.87999725341797,-0.00994873046875,0.00457763671875,1.0194091796875,35.59000015258789,0.0,1.0,-8.514053344726562,-4.2429351806640625,Closing,0.0,0.0,-189.0,0.0,0.0,0.0,0.0,0.0,
12.381190000000002,0.0,0.0,157507.0,0.0,0.0,0.0,0.0,0.25,3.254394198,2.4661254999999977,0.0,-108933.0,0.125,0.0,0.0,0.0,0.125,0.498046824,4.963769999999998,0.0,104564.0,0.0,0.0,0.0,0.0,0.0,0.8544921000000001,2.4702000000000024,0.0,-139835.0,0.125,0.0,0.0,0.0,0.125,1.616210772,0.01,0.0,0.20999999344348907,-0.5,98.87999725341797,-0.01177978515625,0.00189208984375,1.02569580078125,35.59000015258789,0.0,-1.0,-8.514053344726562,-4.2429351806640625,Closing,0.0,0.0,-189.0,0.0,0.0,0.0,0.0,0.0,
