Time,ClimberA1,ClimberA2,FRpos,FRCurrent,FRspeed,FRsetpoint,FRApos,FRACurrent,FREncpos,FREncSetpoint,FREncSpeed,FLpos,FLCurrent,FLspeed,FLsetpoint,FLApos,FLACurrent,FLEncpos,FLEncSetpoint,FLEncSpeed,BRpos,BRCurrent,BRspeed,BRsetpoint,BRApos,BRACurrent,BREncpos,BREncSetpoint,BREncSpeed,BLpos,BLCurrent,BLspeed,BLsetpoint,BLApos,BLACurrent,BLEncpos,BLEncSetpoint,BLEncSpeed,navx_Pitch,navx_Roll,navx_Yaw,navx_XAcc,navx_YAcc,navx_ZAcc,navx_Temp,navx_Bar,navx_Alt,navx_XDis,navx_YDis,GearPlacerState,ShootOutputV,ShootOutputCurrent,ShootEncPos,ShootEncVelocity,ShootSpeed,ShootSetpoint,CarouselSetpoint,CarouselCurrent,
0.19462799999999697,0.0,0.0,118857.0,0.0,0.0,0.0,0.0,0.25,0.8032225740000001,0.01,0.0,-121545.0,0.0,0.0,0.0,0.0,0.125,0.510253854,0.01,0.037841793000000123,108333.0,0.0,0.0,0.0,0.0,0.0,3.334960596,0.01,0.0,-101535.0,0.125,0.0,0.0,0.0,0.25,1.568603355,0.01,-0.01831054500000029,-0.07999999821186066,-0.7400000095367432,-79.9800033569336,-0.01385498046875,-0.00103759765625,1.0198974609375,36.279998779296875,0.0,0.0,-6.5915985107421875,-2.77716064453125,Closing,0.0,0.0,-189.0,0.0,0.0,0.0,0.0,0.0,
0.2523199999999779,0.0,0.0,118857.0,1.875,60.0,840.0,0.0,0.25,0.8007811680000001,0.01,0.0,-121545.0,3.375,-22.5,-840.0,0.0,0.125,0.507812448,0.01,0.003662108999999525,108333.0,2.125,75.0,840.0,0.0,0.0,3.334960596,0.01,0.0,-101558.0,2.0,-22.5,-840.0,0.0,0.25,1.572265464,0.01,0.003662109000000413,-0.09000000357627869,-0.6000000238418579,-79.94999694824219,0.0877685546875,-0.02313232421875,0.99688720703125,36.279998779296875,0.0,38.0,-6.5915374755859375,-2.7767486572265625,Closing,0.0,0.0,-189.0,0.0,0.0,0.0,0.0,0.0,
0.3294339999999793,0.0,0.0,118899.0,2.875,270.0,840.0,0.0,0.25,0.8044432770000001,0.01,0.0,-121558.0,7.75,-127.5,-840.0,0.0,0.125,0.507812448,0.01,0.0,108373.0,3.25,322.5,840.0,0.0,0.0,3.328857081,0.01,0.0,-101558.0,3.25,-210.0,-840.0,0.0,0.25,1.597900227,0.01,0.0,-0.17000000178813934,0.03999999910593033,-79.94999694824219,0.05126953125,0.07037353515625,1.33111572265625,36.279998779296875,0.0,-64.0,-6.5908050537109375,-2.7694549560546875,Closing,0.0,0.0,-189.0,0.0,0.0,0.0,0.0,0.0,
0.4105239999999758,0.0,0.0,118899.0,3.125,240.0,840.0,0.0,0.25,0.8032225740000001,0.01,-0.0012207029999995456,-121606.0,8.75,-210.0,-840.0,0.0,0.125,0.507812448,0.01,0.0012207030000004337,108407.0,3.125,255.0,840.0,0.0,0.0,3.294677397,0.01,-0.009765623999999917,-101593.0,4.625,-225.0,-840.0,0.0,0.25,1.6296385050000002,0.01,0.02441406000000068,-0.18000000715255737,0.38999998569488525,-79.9000015258789,0.081298828125,-0.03912353515625,1.1856689453125,36.279998779296875,0.0,47.0,-6.5901641845703125,-2.7609710693359375,Closing,0.0,0.0,-189.0,0.0,0.0,0.0,0.0,0.0,
0.4687049999999872,0.0,0.0,118950.0,4.0,292.5,840.0,0.0,0.25,0.8044432770000001,0.01,0.0,-121606.0,8.875,-360.0,-840.0,0.0,0.125,0.507812448,0.01,-0.0012207030000004337,108407.0,4.75,240.0,840.0,0.0,0.0,3.294677397,0.01,-0.02929687200000064,-101593.0,4.625,-337.5,-840.0,0.0,0.125,1.641845535,0.01,0.024414059999999793,-0.1899999976158142,0.800000011920929,-79.87000274658203,0.15325927734375,0.005126953125,1.03875732421875,36.279998779296875,0.0,15.0,-6.58978271484375,-2.7496490478515625,Closing,0.0,0.0,-189.0,0.0,0.0,0.0,0.0,0.0,
0.5358940000000002,0.0,0.0,118950.0,4.0,480.0,840.0,0.0,0.25,0.8044432770000001,0.01,0.0,-121693.0,7.875,-532.5,-840.0,0.0,0.125,0.507812448,0.01,0.0,108479.0,4.875,450.0,840.0,0.0,0.125,3.3105465360000004,0.01,0.0,-101669.0,4.75,-495.0,-840.0,0.0,0.125,1.651611159,0.01,0.0,-0.17000000178813934,1.2599999904632568,-79.93000030517578,0.12359619140625,-0.03411865234375,1.16156005859375,36.279998779296875,0.0,47.0,-6.58929443359375,-2.7269744873046875,Closing,0.0,0.0,-189.0,0.0,0.0,0.0,0.0,0.0,
0.620984999999986,0.0,0.0,119042.0,3.375,600.0,840.0,0.0,0.25,0.798339762,0.01,0.0,-121693.0,7.0,-652.5,-840.0,0.0,0.125,0.527343696,0.01,0.0,108479.0,4.5,600.0,840.0,0.0,0.0,3.3215328630000003,0.01,0.017089842000000743,-101669.0,4.125,-600.0,-840.0,0.0,0.25,1.650390456,0.01,0.009765623999999917,-0.17000000178813934,1.5299999713897705,-79.88999938964844,0.0152587890625,-0.00244140625,1.03076171875,36.22999954223633,0.0,-2.0,-6.5882415771484375,-2.7038116455078125,Closing,0.0,0.0,-189.0,0.0,0.0,0.0,0.0,0.0,
0.7068669999999984,0.0,0.0,119161.0,2.75,735.0,840.0,0.0,0.25,0.808105386,0.01,0.0,-121813.0,5.25,-787.5,-840.0,0.0,0.125,0.56152338,0.01,0.0341796840000006,108585.0,3.625,712.5,840.0,0.0,0.0,3.3190914570000003,0.01,0.007324217999999938,-101773.0,3.375,-742.5,-840.0,0.0,0.25,1.650390456,0.01,0.0,-0.11999999731779099,1.7599999904632568,-79.86000061035156,0.10137939453125,-0.06329345703125,0.94146728515625,36.22999954223633,0.0,73.0,-6.5883941650390625,-2.6885528564453125,Closing,0.0,0.0,-189.0,0.0,0.0,0.0,0.0,0.0,
0.7841929999999993,0.0,0.0,119161.0,2.375,817.5,840.0,0.0,0.25,0.8032225740000001,0.01,0.0,-121947.0,4.25,-840.0,-840.0,0.0,0.25,0.560302677,0.01,0.0,108715.0,3.0,817.5,840.0,0.0,0.0,3.3190914570000003,0.01,0.0,-101901.0,3.125,-795.0,-840.0,0.0,0.25,1.651611159,0.01,0.0,-0.09000000357627869,1.850000023841858,-79.91000366210938,0.11004638671875,-0.06781005859375,0.85693359375,36.22999954223633,0.0,79.0,-6.5887298583984375,-2.68804931640625,Closing,0.0,0.0,-189.0,0.0,0.0,0.0,0.0,0.0,
0.8634789999999921,0.0,0.0,119296.0,1.875,870.0,840.0000000000001,0.0,0.25,0.8032225740000001,0.01,-0.0012207029999995456,-121947.0,3.75,-862.5,-840.0000000000001,0.0,0.25,0.560302677,0.01,0.0012207030000004337,108715.0,2.5,870.0,840.0000000000001,0.0,0.0,3.3190914570000003,0.01,0.0,-101901.0,2.875,-825.0,-840.0000000000001,0.0,0.25,1.6552732680000002,0.01,0.0,-0.1599999964237213,1.8600000143051147,-80.02999877929688,0.01348876953125,-3.662109375E-4,0.85882568359375,36.22999954223633,0.0,-4.0,-6.589111328125,-2.68682861328125,Closing,0.0,0.0,-189.0,0.0,0.0,0.0,0.0,0.0,
0.920859999999986,0.0,0.0,119442.0,1.25,907.5,840.0,0.0,0.25,0.794677653,4.931566027855704,0.0012207029999995456,-122091.0,3.25,-892.5,-840.0,0.0,0.25,0.562744083,4.9630806506175995,0.003662108999999525,108857.0,2.25,892.5,840.0,0.0,0.0,3.3251949720000002,4.939713896153768,-0.0012207030000004337,-102036.0,2.75,-855.0,-840.0,0.0,0.25,1.645507644,4.957311451933119,0.004882812000000181,-0.11999999731779099,1.7899999618530273,-80.22000122070312,0.0216064453125,0.014404296875,0.918212890625,36.22999954223633,0.0,-17.0,-6.5896453857421875,-2.6865997314453125,Closing,0.0,0.0,-189.0,0.0,0.0,0.0,0.0,0.0,
1.0029579999999843,0.0,0.0,119442.0,1.25,907.5,840.0000000000001,0.0,0.125,0.795898356,4.928277889790217,-0.0012207029999995456,-122091.0,2.875,-892.5,-840.0000000000001,0.0,0.25,0.565185489,4.959771500072479,-0.0024414059999999793,109000.0,1.75,877.5,840.0000000000001,0.0,0.0,3.3239742690000003,4.936420325469971,0.006103515000000392,-102175.0,2.5,-855.0,-840.0000000000001,0.0,0.25,1.627197099,4.954006148020427,-0.00976562400000014,-0.14000000059604645,1.649999976158142,-80.44999694824219,0.137451171875,-0.0494384765625,1.05078125,36.22999954223633,0.0,63.0,-6.5897064208984375,-2.6871185302734375,Closing,0.0,0.0,-189.0,0.0,0.0,0.0,0.0,0.0,
1.0675289999999804,0.0,0.0,119586.0,1.125,892.5,840.0,0.0,0.25,0.799560465,4.925811760109096,0.0,-122237.0,2.5,-907.5,-840.0,0.0,0.25,0.56152338,4.957289610864639,0.0,109000.0,1.875,892.5,840.0,0.0,0.0,3.3239742690000003,4.933950121281942,0.0,-102175.0,2.25,-877.5,-840.0,0.0,0.125,1.612548663,4.9515271438174775,4.9384687519999995,-0.20999999344348907,1.5800000429153442,-80.6500015258789,-0.013427734375,-0.00177001953125,0.86737060546875,36.22999954223633,0.0,-7.0,-6.5895843505859375,-2.6876220703125,Closing,0.0,0.0,-189.0,0.0,0.0,0.0,0.0,0.0,
1.1670289999999803,0.0,0.0,119734.0,0.75,915.0,840.0,0.0,0.25,0.8032225740000001,4.9230715579478375,0.0,-122380.0,2.25,-900.0,-840.0,0.0,0.25,0.545654241,4.95453189774704,0.0,109148.0,1.375,922.5,840.0,0.0,0.0,3.3239742690000003,4.93120539179484,0.0,-102316.0,2.25,-870.0,-840.0,0.0,0.125,1.612548663,4.948772636328803,0.0,-0.2199999988079071,1.4199999570846558,-81.05999755859375,-0.0306396484375,-0.0892333984375,0.88763427734375,36.18000030517578,0.0,76.0,-6.58935546875,-2.6888580322265625,Closing,0.0,0.0,-189.0,0.0,0.0,0.0,0.0,0.0,
1.2498179999999992,0.0,0.0,119734.0,0.75,907.5,840.0,0.0,0.25,0.8032225740000001,4.916632213528909,0.0,-122523.0,2.125,-892.5,-840.0,0.0,0.25,0.51269526,4.94805140341568,-0.019531247999999835,109298.0,1.125,937.5,840.0,0.0,0.0,3.3251949720000002,4.9247554083760585,0.0,-102456.0,2.0,-870.0,-840.0,0.0,0.125,1.597900227,4.942299675072564,-0.0024414059999999793,-0.1899999976158142,1.2599999904632568,-81.31999969482422,0.01116943359375,-0.02313232421875,1.146484375,36.18000030517578,0.0,16.0,-6.5896759033203125,-2.690826416015625,Closing,0.0,0.0,-189.0,0.0,0.0,0.0,0.0,0.0,
1.3257960000000022,0.0,0.0,119881.0,0.5,930.0,840.0,0.0,0.25,0.8032225740000001,4.913207039223353,0.0,-122523.0,1.75,-900.0,-840.0,0.0,0.125,0.498046824,4.94460434091568,-0.02929687200000064,109298.0,1.125,907.5,840.0,0.0,0.0,3.3239742690000003,4.921324575042725,0.0,-102456.0,1.875,-877.5,-840.0,0.0,0.125,1.622314287,4.938856619517009,0.0,-0.23000000417232513,1.2100000381469727,-81.52999877929688,0.0186767578125,0.06976318359375,0.58380126953125,36.18000030517578,0.0,-70.0,-6.5906982421875,-2.6946563720703125,Closing,0.0,0.0,-189.0,0.0,0.0,0.0,0.0,0.0,
1.406371999999974,0.0,0.0,119881.0,0.5,930.0,840.0000000000001,0.0,0.125,0.808105386,4.911014982022371,0.003662109000000413,-122668.0,1.5,-900.0,-840.0000000000001,0.0,0.125,0.498046824,4.9423982756176,-0.014648435999999876,109445.0,0.875,915.0,840.0000000000001,0.0,0.0,3.3239742690000003,4.919128896153768,0.0,-102597.0,1.625,-885.0,-840.0000000000001,0.0,0.25,1.640624832,4.936653118599786,0.019531247999999835,-0.12999999523162842,1.100000023841858,-81.55000305175781,0.0115966796875,0.03228759765625,0.8968505859375,36.18000030517578,0.0,-34.0,-6.592315673828125,-2.6981048583984375,Closing,0.0,0.0,-189.0,0.0,0.0,0.0,0.0,0.0,
1.466054999999993,0.0,0.0,120027.0,0.5,885.0,840.0,0.0,0.25,0.809326089,4.9106039778301875,0.0012207029999995456,-122811.0,1.5,-892.5,-840.0,0.0,0.125,0.49194330900000005,4.94198464494896,0.0,109587.0,0.875,907.5,840.0,0.0,0.0,3.3215328630000003,4.918717212905884,0.0,-102740.0,1.375,-892.5,-840.0,0.0,0.25,1.641845535,4.936239968744914,-4.942130861,-0.12999999523162842,0.8899999856948853,-81.5199966430664,-0.08087158203125,-0.032958984375,1.03851318359375,36.18000030517578,0.0,15.0,-6.5941619873046875,-2.7038116455078125,Closing,0.0,0.0,-189.0,0.0,0.0,0.0,0.0,0.0,
1.5628439999999828,0.0,0.0,120168.0,0.5,870.0,840.0,0.0,0.25,0.808105386,4.911563022454622,0.0,-122811.0,1.375,-885.0,-840.0,0.0,0.125,0.49316401200000004,4.94294981824112,-0.004882811999999959,109587.0,0.875,877.5,840.0,0.0,0.0,3.3239742690000003,4.919677842051188,0.0,-102740.0,1.375,-870.0,-840.0,0.0,0.25,1.6320799110000002,4.9372040200975205,-0.0012207029999999897,-0.14000000059604645,0.6899999976158142,-81.45999908447266,-0.0809326171875,-0.02423095703125,1.13897705078125,36.18000030517578,0.0,7.0,-6.595977783203125,-2.71197509765625,Closing,0.0,0.0,-189.0,0.0,0.0,0.0,0.0,0.0,
1.6213940000000002,0.0,0.0,120168.0,0.5,862.5,840.0,0.0,0.25,0.809326089,4.912111062886874,-0.0012207029999995456,-122952.0,1.375,-877.5,-840.0,0.0,0.0,0.49316401200000004,4.943501360864639,0.0,109725.0,1.125,855.0,840.0,0.0,0.0,3.330077784,4.920226787948609,0.0,-102880.0,1.625,-870.0,-840.0,0.0,0.25,1.621093584,4.937754921595255,-0.004882811999999959,-0.11999999731779099,0.41999998688697815,-81.45999908447266,-0.0338134765625,-0.05126953125,1.3245849609375,36.18000030517578,0.0,41.0,-6.5974273681640625,-2.71942138671875,Closing,0.0,0.0,-189.0,0.0,0.0,0.0,0.0,0.0,
1.6844089999999852,0.0,0.0,120303.0,0.5,840.0,840.0,0.0,0.25,0.808105386,4.911974026646805,0.0012207029999995456,-122952.0,1.375,-862.5,-840.0,0.0,0.0,0.49316401200000004,4.94336344890976,0.0,109725.0,1.125,855.0,840.0,0.0,0.0,3.3239742690000003,4.920089525299073,0.0,-102880.0,1.875,-840.0,-840.0,0.0,0.25,1.627197099,4.937617169952393,0.0,-0.12999999523162842,0.3700000047683716,-81.48999786376953,-0.02606201171875,0.02935791015625,0.84674072265625,36.15999984741211,0.0,-35.0,-6.5982666015625,-2.732421875,Closing,0.0,0.0,-189.0,0.0,0.0,0.0,0.0,0.0,
1.7712539999999863,0.0,0.0,120438.0,0.75,832.5,840.0,0.0,0.25,0.794677653,4.911563022454622,-0.0012207029999995456,-123089.0,1.5,-855.0,-840.0,0.0,0.0,0.49316401200000004,4.94294981824112,0.0,109859.0,1.375,825.0,840.0,0.0,0.0,3.3239742690000003,4.919677842051188,0.0,-103013.0,1.875,-832.5,-840.0,0.0,0.25,1.6357420200000001,4.9372040200975205,0.004882811999999959,-0.1599999964237213,0.3100000023841858,-81.47000122070312,0.0762939453125,0.0302734375,0.79583740234375,36.15999984741211,0.0,-21.0,-6.599212646484375,-2.7440032958984375,Closing,0.0,0.0,-189.0,0.0,0.0,0.0,0.0,0.0,
1.8482960000000022,0.0,0.0,120438.0,0.75,840.0,840.0,0.0,0.25,0.806884683,4.911836990406736,0.0,-123224.0,1.625,-840.0,-840.0,0.0,0.0,0.49316401200000004,4.94322553695488,0.0,109990.0,1.5,817.5,840.0,0.0,0.0,3.3239742690000003,4.919952262649536,0.0,-103146.0,2.0,-832.5,-840.0,0.0,0.25,1.624755693,4.93747941830953,-4.953117187999999,-0.14000000059604645,0.14000000059604645,-81.5,-0.0616455078125,0.07965087890625,1.0194091796875,36.15999984741211,0.0,-90.0,-6.599334716796875,-2.7579803466796875,Closing,0.0,0.0,-189.0,0.0,0.0,0.0,0.0,0.0,
1.9205209999999788,0.0,0.0,120570.0,0.75,825.0,840.0,0.0,0.125,0.808105386,4.911425986214553,0.0,-123224.0,1.75,-840.0,-840.0,0.0,0.0,0.49316401200000004,4.94281190628624,0.0,109990.0,1.5,810.0,840.0,0.0,0.0,3.3239742690000003,4.9195405794016525,0.0,-103146.0,2.0,-810.0,-840.0,0.0,0.25,1.621093584,4.937066268454657,4.953117187999999,-0.15000000596046448,0.1899999976158142,-81.5199966430664,-0.02789306640625,-0.0531005859375,0.9888916015625,36.15999984741211,0.0,45.0,-6.5994720458984375,-2.767822265625,Closing,0.0,0.0,-189.0,0.0,0.0,0.0,0.0,0.0,
1.988060999999987,0.0,0.0,120570.0,0.75,825.0,839.9999999999999,0.0,0.125,0.808105386,4.9108779457823015,0.0012207029999995456,-123357.0,1.875,-832.5,-839.9999999999999,0.0,0.0,0.490722606,4.94226036366272,0.0,110120.0,1.75,810.0,839.9999999999999,0.0,0.0,3.3239742690000003,4.918991633504232,0.0,-103279.0,2.25,-817.5,-839.9999999999999,0.0,0.25,1.6357420200000001,4.936515366956923,-0.004882811999999959,-0.15000000596046448,0.14000000059604645,-81.56999969482422,-0.006591796875,-0.01104736328125,0.91693115234375,36.15999984741211,0.0,7.0,-6.5992889404296875,-2.7701263427734375,Closing,0.0,0.0,-189.0,0.0,0.0,0.0,0.0,0.0,
2.048118999999977,0.0,0.0,120704.0,0.75,832.5,840.0,0.0,0.25,0.809326089,4.910466941590118,0.0,-123357.0,1.875,-825.0,-840.0,0.0,0.0,0.49316401200000004,4.94184673299408,0.0,110120.0,1.75,802.5,840.0,0.0,0.0,3.3239742690000003,4.918579950256348,0.0,-103279.0,2.25,-817.5,-840.0,0.0,0.25,1.6357420200000001,4.936102217102051,-4.948234375999999,-0.12999999523162842,0.15000000596046448,-81.58000183105469,0.0177001953125,0.0364990234375,1.1927490234375,36.15999984741211,0.0,-36.0,-6.5993804931640625,-2.7702789306640625,Closing,0.0,0.0,-189.0,0.0,0.0,0.0,0.0,0.0,
2.1063779999999968,0.0,0.0,120704.0,0.75,832.5,840.0,0.0,0.25,0.808105386,4.91032990535005,-0.0012207029999995456,-123491.0,1.875,-825.0,-840.0,0.0,0.0,0.49316401200000004,4.9417088210391995,0.0,110249.0,1.875,810.0,840.0,0.0,0.0,3.3239742690000003,4.918442687606812,0.0,-103409.0,2.25,-817.5,-840.0,0.0,0.25,1.627197099,4.935964465459188,0.0024414059999999793,-0.10999999940395355,0.10999999940395355,-81.5999984741211,-0.11224365234375,-0.01055908203125,1.08868408203125,36.15999984741211,0.0,-8.0,-6.5995025634765625,-2.7715606689453125,Closing,0.0,0.0,-189.0,0.0,0.0,0.0,0.0,0.0,
2.1827459999999848,0.0,0.0,120837.0,0.75,832.5,840.0,0.0,0.25,0.808105386,4.910055937397936,0.0,-123491.0,1.75,-840.0,-840.0,0.0,0.125,0.49316401200000004,4.94143310232544,0.0,110249.0,1.875,825.0,840.0,0.0,0.0,3.3239742690000003,4.918168267008464,0.0,-103541.0,2.5,-825.0,-840.0,0.0,0.25,1.6357420200000001,4.9356890672471785,0.0,-0.10999999940395355,0.07999999821186066,-81.62999725341797,0.05615234375,0.09576416015625,0.68756103515625,36.130001068115234,0.0,-88.0,-6.6001434326171875,-2.7740325927734375,Closing,0.0,0.0,-189.0,0.0,0.0,0.0,0.0,0.0,
2.2572329999999785,0.0,0.0,120973.0,0.75,840.0,840.0,0.0,0.25,0.8276366340000001,4.909644933205753,0.0,-123626.0,1.75,-847.5,-840.0,0.0,0.125,0.49316401200000004,4.9410194716568,0.0,110384.0,1.75,840.0,840.0,0.0,0.0,3.3251949720000002,4.917756583760579,0.0,-103541.0,2.25,-832.5,-840.0,0.0,0.25,1.6357420200000001,4.935275917392307,0.004882811999999959,-0.09000000357627869,0.03999999910593033,-81.62999725341797,0.0225830078125,0.056640625,0.8638916015625,36.130001068115234,0.0,-54.0,-6.601654052734375,-2.776153564453125,Closing,0.0,0.0,-189.0,0.0,0.0,0.0,0.0,0.0,
2.331701000000001,0.0,0.0,120973.0,0.75,847.5,840.0,0.0,0.25,0.797119059,4.909644933205753,0.0012207029999995456,-123762.0,1.75,-840.0,-840.0,0.0,0.125,0.49316401200000004,4.9410194716568,0.0,110519.0,1.5,840.0,840.0,0.0,0.0,3.3239742690000003,4.917756583760579,0.0,-103678.0,2.25,-847.5,-840.0,0.0,0.25,1.6320799110000002,4.935275917392307,0.0,-0.07999999821186066,0.07000000029802322,-81.62999725341797,0.0555419921875,-0.03570556640625,0.9951171875,36.130001068115234,0.0,41.0,-6.6035919189453125,-2.779388427734375,Closing,0.0,0.0,-189.0,0.0,0.0,0.0,0.0,0.0,
2.392820999999996,0.0,0.0,121106.0,0.75,832.5,840.0,0.0,0.125,0.8044432770000001,4.909644933205753,0.0,-123762.0,1.75,-847.5,-840.0,0.0,0.125,0.49316401200000004,4.9410194716568,0.0,110519.0,1.5,832.5,840.0,0.0,0.0,3.331298487,4.917756583760579,0.0,-103678.0,2.0,-825.0,-840.0,0.0,0.25,1.625976396,4.935275917392307,0.0,-0.03999999910593033,0.029999999329447746,-81.62999725341797,-0.0484619140625,-0.0423583984375,1.1639404296875,36.130001068115234,0.0,33.0,-6.6053314208984375,-2.78302001953125,Closing,0.0,0.0,-189.0,0.0,0.0,0.0,0.0,0.0,
2.468481999999989,0.0,0.0,121106.0,0.75,832.5,839.9999999999999,0.0,0.25,0.809326089,4.9097818649177976,0.0,-123897.0,1.75,-840.0,-839.9999999999999,0.0,0.125,0.49194330900000005,4.94115727841568,0.0,110652.0,1.875,825.0,839.9999999999999,0.0,0.0,3.3239742690000003,4.917893741709391,0.0,-103809.0,2.25,-840.0,-839.9999999999999,0.0,0.25,1.6320799110000002,4.935413563961453,0.0,-0.07000000029802322,-0.03999999910593033,-81.62999725341797,-0.0599365234375,0.04217529296875,1.26287841796875,36.130001068115234,0.0,-51.0,-6.606719970703125,-2.7868499755859375,Closing,0.0,0.0,-189.0,0.0,0.0,0.0,0.0,0.0,
2.5296119999999935,0.0,0.0,121241.0,0.75,832.5,840.0,0.0,0.25,0.809326089,4.909644933205753,0.0012207029999995456,-123897.0,1.75,-840.0,-840.0,0.0,0.125,0.49316401200000004,4.9410194716568,0.0,110652.0,1.875,817.5,840.0,0.0,0.0,3.3251949720000002,4.917756583760579,0.0,-103809.0,2.5,-817.5,-840.0,0.0,0.25,1.6320799110000002,4.935275917392307,0.0,-0.03999999910593033,-0.07000000029802322,-81.62999725341797,0.01544189453125,0.08673095703125,1.2454833984375,36.130001068115234,0.0,-84.0,-6.6070098876953125,-2.787841796875,Closing,0.0,0.0,-189.0,0.0,0.0,0.0,0.0,0.0,
2.5942589999999908,0.0,0.0,121374.0,0.75,832.5,840.0,0.0,0.25,0.808105386,4.909644933205753,0.0,-124031.0,1.875,-840.0,-840.0,0.0,0.125,0.49316401200000004,4.9410194716568,0.0,110784.0,2.125,825.0,840.0,0.0,0.0,3.3239742690000003,4.917756583760579,0.0,-103943.0,2.625,-825.0,-840.0,0.0,0.25,1.6320799110000002,4.935275917392307,0.0,-0.029999999329447746,-0.07000000029802322,-81.66000366210938,0.08203125,0.04852294921875,1.1502685546875,36.130001068115234,0.0,-36.0,-6.6074371337890625,-2.7880859375,Closing,0.0,0.0,-189.0,0.0,0.0,0.0,0.0,0.0,
2.6725329999999956,0.0,0.0,121374.0,0.75,825.0,840.0,0.0,0.25,0.812988198,4.909233824485546,0.0,-124031.0,1.875,-832.5,-840.0,0.0,0.125,0.49194330900000005,4.94060573579216,0.0,110784.0,1.875,840.0,840.0,0.0,0.0,3.3239742690000003,4.917344795811971,0.0,-104076.0,2.5,-825.0,-840.0,0.0,0.25,1.6320799110000002,4.934862662463718,0.0,-0.05000000074505806,-0.019999999552965164,-81.69000244140625,-0.0203857421875,0.05938720703125,1.0283203125,36.08000183105469,0.0,-62.0,-6.6082611083984375,-2.787811279296875,Closing,0.0,0.0,-189.0,0.0,0.0,0.0,0.0,0.0,
2.7307539999999864,0.0,0.0,121509.0,0.75,832.5,840.0,0.0,0.25,0.808105386,4.908822820293363,0.0012207029999995456,-124165.0,1.875,-840.0,-840.0,0.0,0.125,0.48095698200000003,4.94019210512352,0.0,110919.0,1.875,832.5,840.0,0.0,0.0,3.3251949720000002,4.916933112564087,0.0,-104076.0,2.625,-825.0,-840.0,0.0,0.25,1.6308592080000002,4.934449512608846,0.0,-0.009999999776482582,0.0,-81.69999694824219,0.0079345703125,-0.02154541015625,0.9910888671875,36.08000183105469,0.0,22.0,-6.6094970703125,-2.7873077392578125,Closing,0.0,0.0,-189.0,0.0,0.0,0.0,0.0,0.0,
2.792859999999986,0.0,0.0,121509.0,0.0,787.5,0.0,0.0,0.125,0.808105386,0.01,0.0,-124265.0,0.375,-735.0,-0.0,0.0,0.125,0.49194330900000005,0.01,0.0,111032.0,0.125,780.0,0.0,0.0,0.0,3.334960596,0.01,0.0,-104187.0,0.5,-780.0,-0.0,0.0,0.125,1.6088865540000001,0.01,0.0,-0.009999999776482582,-0.10999999940395355,-81.7699966430664,-0.0030517578125,-0.05291748046875,0.9241943359375,36.08000183105469,0.0,52.0,-6.6107025146484375,-2.7874755859375,Closing,0.0,0.0,-189.0,0.0,0.0,0.0,0.0,0.0,
2.8704219999999916,0.0,0.0,121609.0,0.0,630.0,0.0,0.0,0.25,0.8178710100000001,0.01,0.0,-124265.0,0.25,-555.0,-0.0,0.0,0.125,0.483398388,0.01,-0.0012207030000004337,111032.0,0.125,562.5,0.0,0.0,0.0,3.353271141,0.01,0.010986327000000351,-104187.0,0.125,-570.0,-0.0,0.0,0.25,1.5783689790000002,0.01,4.932365237,0.029999999329447746,-0.8100000023841858,-81.97000122070312,-0.16656494140625,-0.22918701171875,0.781005859375,36.08000183105469,0.0,205.0,-6.6126251220703125,-2.791778564453125,Closing,0.0,0.0,-189.0,0.0,0.0,0.0,0.0,0.0,
2.929799999999988,0.0,0.0,121609.0,0.0,577.5,0.0,0.0,0.25,0.8178710100000001,0.01,0.008544921000000372,-124355.0,0.25,-532.5,-0.0,0.0,0.25,0.482177685,0.01,-0.009765623999999917,111119.0,0.125,547.5,0.0,0.0,0.0,3.347167626,0.01,0.01586913899999942,-104275.0,0.125,-540.0,-0.0,0.0,0.25,1.571044761,0.01,-0.026855465999999772,0.009999999776482582,-1.2799999713897705,-82.06999969482422,-0.2020263671875,0.07196044921875,0.76556396484375,36.08000183105469,0.0,-96.0,-6.614410400390625,-2.79974365234375,Closing,0.0,0.0,-189.0,0.0,0.0,0.0,0.0,0.0,
3.014904999999999,0.0,0.0,121689.0,0.125,427.5,0.0,0.0,0.25,0.8178710100000001,0.01,0.0,-124355.0,0.5,-450.0,-0.0,0.0,0.25,0.483398388,0.01,0.0,111119.0,0.125,420.0,0.0,0.0,0.0,3.348388329,0.01,0.0,-104275.0,0.125,-420.0,-0.0,0.0,0.25,1.593017415,0.01,0.0,0.03999999910593033,-1.8799999952316284,-82.16000366210938,-0.1673583984375,-0.04583740234375,1.054931640625,36.08000183105469,0.0,28.0,-6.6174468994140625,-2.814300537109375,Closing,0.0,0.0,-189.0,0.0,0.0,0.0,0.0,0.0,
3.0816239999999815,0.0,0.0,121689.0,0.125,337.5,0.0,0.0,0.25,0.8142089010000001,0.01,0.0,-124404.0,0.5,-307.5,-0.0,0.0,0.25,0.47851557600000005,0.01,-0.0012207030000004337,111171.0,0.125,330.0,0.0,0.0,0.0,3.348388329,0.01,0.0,-104327.0,0.125,-285.0,-0.0,0.0,0.25,1.6076658510000001,0.01,0.023193357000000248,0.029999999329447746,-2.2699999809265137,-82.2699966430664,-0.21453857421875,0.0074462890625,0.93865966796875,36.08000183105469,0.0,-30.0,-6.618804931640625,-2.829833984375,Closing,0.0,0.0,-189.0,0.0,0.0,0.0,0.0,0.0,
3.13349099999998,0.0,0.0,121728.0,0.125,150.0,0.0,0.0,0.25,0.811767495,0.01,-0.003662109000000413,-124404.0,0.25,-172.5,-0.0,0.0,0.25,0.47851557600000005,0.01,-0.004882811999999959,111171.0,0.125,150.0,0.0,0.0,0.0,3.343505517,0.01,0.0,-104327.0,0.25,-157.5,-0.0,0.0,0.25,1.6076658510000001,0.01,0.0,0.03999999910593033,-2.700000047683716,-82.27999877929688,-0.1337890625,0.02130126953125,1.13397216796875,36.08000183105469,0.0,-31.0,-6.6190643310546875,-2.8533935546875,Closing,0.0,0.0,-189.0,0.0,0.0,0.0,0.0,0.0,
3.229907999999996,0.0,0.0,121731.0,0.125,30.0,0.0,0.0,0.25,0.811767495,0.01,-0.0012207029999995456,-124417.0,0.0,-52.5,-0.0,0.0,0.25,0.483398388,0.01,0.0,111184.0,0.125,45.0,0.0,0.0,0.0,3.342284814,0.01,-0.004882811999999959,-104342.0,0.375,-37.5,-0.0,0.0,0.25,1.6076658510000001,0.01,-0.0012207030000004337,0.029999999329447746,-2.799999952316284,-82.20999908447266,-0.01806640625,-0.0010986328125,1.01885986328125,36.08000183105469,0.0,5.0,-6.6192626953125,-2.87945556640625,Closing,0.0,0.0,-189.0,0.0,0.0,0.0,0.0,0.0,
3.286690999999992,0.0,0.0,121731.0,0.125,0.0,0.0,0.0,0.25,0.812988198,0.01,0.0012207029999995456,-124417.0,0.125,0.0,-0.0,0.0,0.25,0.483398388,0.01,0.006103515000000392,111184.0,0.0,0.0,0.0,0.0,0.0,3.342284814,0.01,0.0,-104342.0,0.375,0.0,-0.0,0.0,0.25,1.6076658510000001,0.01,0.0,0.05000000074505806,-2.7100000381469727,-82.2699966430664,-0.006103515625,0.00994873046875,1.001953125,36.08000183105469,0.0,-3.0,-6.6193695068359375,-2.899993896484375,Closing,0.0,0.0,-189.0,0.0,0.0,0.0,0.0,0.0,
3.3712509999999893,0.0,0.0,121731.0,0.125,0.0,0.0,0.0,0.25,0.812988198,0.01,0.0,-124417.0,0.125,0.0,-0.0,0.0,0.25,0.482177685,0.01,-0.0012207030000004337,111184.0,0.0,0.0,0.0,0.0,0.0,3.342284814,0.01,0.0,-104342.0,0.375,0.0,-0.0,0.0,0.25,1.6064451480000002,0.01,0.0,0.0,-2.4700000286102295,-82.2300033569336,0.01397705078125,0.00634765625,1.02264404296875,36.08000183105469,0.0,1.0,-6.61920166015625,-2.933380126953125,Closing,0.0,0.0,-189.0,0.0,0.0,0.0,0.0,0.0,
3.451133999999991,0.0,0.0,121731.0,0.375,0.0,420.0,0.0,0.25,0.812988198,3.015942366852486,-0.0012207029999995456,-124417.0,0.375,0.0,-420.0,0.0,0.25,0.482177685,4.41043958977222,0.0,111184.0,0.5,0.0,420.0,0.0,0.0,3.343505517,1.9194747329772914,0.0012207030000004337,-104342.0,0.625,0.0,-420.0,0.0,0.25,1.6064451480000002,0.552687206278561,0.0,0.029999999329447746,-2.319999933242798,-82.23999786376953,0.0050048828125,0.0057373046875,1.02001953125,36.08000183105469,0.0,1.0,-6.61920166015625,-2.9508819580078125,Closing,0.0,0.0,-189.0,0.0,0.0,0.0,0.0,0.0,
3.5109789999999923,0.0,0.0,121735.0,0.375,82.5,420.0,0.0,6.25,0.551757756,3.015942366852486,0.0,-124417.0,1.0,-112.5,-420.0,0.0,2.0,0.360107385,4.41043958977222,0.0,111184.0,0.875,75.0,420.0,0.0,5.75,3.6291500190000003,1.9194747329772914,-0.0012207030000004337,-104362.0,1.0,-82.5,-420.0,0.0,2.625,1.833495906,0.552687206278561,0.0,0.009999999776482582,-2.0799999237060547,-82.23999786376953,0.14031982421875,-0.01824951171875,1.0267333984375,36.08000183105469,0.0,42.0,-6.6190032958984375,-2.970794677734375,Closing,0.0,0.0,-189.0,0.0,0.0,0.0,0.0,0.0,
3.573322999999975,0.0,0.0,121762.0,0.375,172.5,420.0,0.0,1.625,0.075683586,3.015942366852486,-0.34423824600000064,-124439.0,1.375,-135.0,-420.0,0.0,0.5,0.112304676,4.41043958977222,-0.14038084500000014,111199.0,1.25,82.5,420.0,0.0,1.875,4.123534734000001,1.9194747329772914,-4.63522425,-104362.0,1.625,-165.0,-420.0,0.0,0.75,2.09960916,0.552687206278561,-4.729728539,-0.029999999329447746,-1.7599999904632568,-82.04000091552734,0.00396728515625,-0.00128173828125,0.98370361328125,36.08000183105469,0.0,5.0,-6.6188201904296875,-2.9866943359375,Closing,0.0,0.0,-189.0,0.0,0.0,0.0,0.0,0.0,
3.64632699999999,0.0,0.0,121762.0,0.75,142.5,420.0,0.0,1.875,4.420165563,3.015942366852486,0.0,-124460.0,2.125,-112.5,-420.0,0.0,0.25,4.9230951990000005,4.41043958977222,0.0,111201.0,2.0,7.5,420.0,0.0,1.75,4.7058100650000005,1.9194747329772914,0.0,-104391.0,1.875,-180.0,-420.0,0.0,0.375,2.178954855,0.552687206278561,0.0,-0.029999999329447746,-1.7799999713897705,-81.4000015258789,-0.061767578125,0.020751953125,1.01025390625,36.08000183105469,0.0,-25.0,-6.6187744140625,-3.0008392333984375,Closing,0.0,0.0,-189.0,0.0,0.0,0.0,0.0,0.0,
3.722468999999983,0.0,0.0,121791.0,0.875,180.0,420.0,0.0,1.625,3.9331050660000004,3.015942366852486,-0.5273436960000013,-124460.0,2.625,-172.5,-420.0,0.0,0.0,4.897460436,4.41043958977222,4.855956534,111201.0,3.25,45.0,420.0,0.0,1.5,0.23071286700000002,1.9194747329772914,0.5590819739999997,-104391.0,1.875,-217.5,-420.0,0.0,0.125,2.204589618,0.552687206278561,0.0695800710000003,-0.029999999329447746,-1.9500000476837158,-80.47000122070312,-0.05328369140625,-0.0032958984375,1.07196044921875,36.08000183105469,0.0,0.0,-6.6188201904296875,-3.012969970703125,Closing,0.0,0.0,-189.0,0.0,0.0,0.0,0.0,0.0,
3.7893949999999896,0.0,0.0,121791.0,1.5,150.0,420.0,0.0,0.25,3.748778913,3.015942366852486,-0.5004882299999998,-124493.0,2.875,-195.0,-420.0,0.0,0.125,4.896239733000001,4.41043958977222,-0.029296871999999752,111219.0,3.75,97.5,420.0,0.0,0.25,0.40161128700000004,1.9194747329772914,0.43478522700000033,-104425.0,2.25,-210.0,-420.0,0.0,0.25,2.244872817,0.552687206278561,0.028076168999999762,-0.07999999821186066,-2.059999942779541,-79.30000305175781,-0.07293701171875,-0.0467529296875,1.06622314453125,36.08000183105469,0.0,38.0,-6.6187896728515625,-3.0260467529296875,Closing,0.0,0.0,-189.0,0.0,0.0,0.0,0.0,0.0,
3.8529929999999877,0.0,0.0,121816.0,1.625,195.0,420.0,0.0,0.25,3.749999616,3.015942366852486,-0.12451170599999983,-124493.0,3.375,-232.5,-420.0,0.0,0.125,4.893798327,4.41043958977222,0.0,111219.0,3.375,202.5,420.0,0.0,0.25,0.44189448600000003,1.9194747329772914,0.16723631099999992,-104425.0,2.5,-255.0,-420.0,0.0,0.25,2.261962659,0.552687206278561,0.04394530800000007,-0.20999999344348907,-2.200000047683716,-77.37999725341797,-0.06707763671875,-0.02178955078125,1.04815673828125,36.08000183105469,0.0,11.0,-6.618194580078125,-3.0438079833984375,Closing,0.0,0.0,-189.0,0.0,0.0,0.0,0.0,0.0,
3.9281589999999853,0.0,0.0,121874.0,1.125,322.5,420.0,0.0,0.375,3.7353511800000003,3.015942366852486,0.0,-124537.0,3.125,-285.0,-420.0,0.0,0.125,4.893798327,4.41043958977222,0.0,111263.0,2.75,300.0,420.0,0.0,0.125,0.44189448600000003,1.9194747329772914,0.030517575000000186,-104468.0,2.5,-270.0,-420.0,0.0,0.25,2.241210708,0.552687206278561,0.009765623999999917,-0.27000001072883606,-2.1700000762939453,-74.80999755859375,0.007568359375,-0.0091552734375,1.0040283203125,36.08000183105469,0.0,16.0,-6.618133544921875,-3.0509490966796875,Closing,0.0,0.0,-189.0,0.0,0.0,0.0,0.0,0.0,
3.9952399999999906,0.0,0.0,121874.0,0.75,412.5,420.0,0.0,0.375,3.768310161,3.015942366852486,0.0,-124595.0,2.875,-345.0,-420.0,0.0,0.125,4.896239733000001,4.41043958977222,0.0,111331.0,2.25,405.0,420.0,0.0,0.125,0.383300742,1.9194747329772914,0.0,-104519.0,2.5,-315.0,-420.0,0.0,0.25,2.2167966480000003,0.552687206278561,0.0,-0.2800000011920929,-2.0299999713897705,-71.80000305175781,0.01123046875,0.044677734375,1.078857421875,36.08000183105469,0.0,-32.0,-6.618377685546875,-3.0498809814453125,Closing,0.0,0.0,-189.0,0.0,0.0,0.0,0.0,0.125,
4.072044999999983,0.0,0.0,121941.0,0.5,420.0,420.0,0.0,0.375,3.7963863300000003,3.015942366852486,0.018310544999999845,-124595.0,2.5,-390.0,-420.0,0.0,0.125,4.896239733000001,4.41043958977222,0.0,111331.0,1.875,450.0,420.0,0.0,0.125,0.345458949,1.9194747329772914,-0.05859374400000039,-104519.0,2.375,-382.5,-420.0,0.0,0.25,2.203368915,0.552687206278561,-0.024414059999999793,-0.28999999165534973,-1.8899999856948853,-69.1500015258789,-0.01544189453125,-0.05340576171875,1.07965087890625,36.08000183105469,0.0,51.0,-6.6187286376953125,-3.047698974609375,Closing,0.0,0.0,-189.0,0.0,0.0,0.0,0.0,0.0,
4.135054999999993,0.0,0.0,121941.0,0.375,450.0,420.0,0.0,0.25,3.815917578,3.015942366852486,0.028076169000000206,-124666.0,2.0,-435.0,-420.0,0.0,0.125,4.891356921,4.41043958977222,0.0,111409.0,1.75,472.5,420.0,0.0,0.0,0.32958981000000004,1.9194747329772914,-0.04150390199999965,-104584.0,2.125,-405.0,-420.0,0.0,0.25,2.198486103,0.552687206278561,-0.01586913900000031,-0.3799999952316284,-1.8700000047683716,-65.56999969482422,-0.02374267578125,-0.015869140625,1.100341796875,36.08000183105469,0.0,12.0,-6.6189422607421875,-3.047088623046875,Closing,0.0,0.0,-189.0,0.0,0.0,0.0,0.0,0.0,
4.218568999999989,0.0,0.0,122018.0,0.375,480.0,420.0,0.0,0.25,3.822021093,3.015942366852486,0.025634762999999783,-124666.0,1.625,-457.5,-420.0,0.0,0.125,4.890136218,4.41043958977222,-0.004882811999999959,111409.0,1.5,495.0,420.0,0.0,0.0,0.32958981000000004,1.9194747329772914,-0.01220703000000034,-104584.0,1.875,-442.5,-420.0,0.0,0.25,2.198486103,0.552687206278561,-0.0024414059999999793,-0.44999998807907104,-1.7200000286102295,-61.869998931884766,-0.02056884765625,-0.044921875,1.02935791015625,36.11000061035156,0.0,37.0,-6.618896484375,-3.0465240478515625,Closing,0.0,0.0,-189.0,0.0,0.0,0.0,0.0,0.0,
4.2708169999999805,0.0,0.0,122018.0,0.125,495.0,420.0,0.0,0.25,3.823241796,3.015942366852486,0.0,-124741.0,1.25,-472.5,-420.0,0.0,0.125,4.891356921,4.41043958977222,0.0,111487.0,1.375,487.5,420.0,0.0,0.0,0.32958981000000004,1.9194747329772914,0.0,-104657.0,1.875,-457.5,-420.0,0.0,0.25,2.198486103,0.552687206278561,0.0,-0.5400000214576721,-1.7100000381469727,-58.900001525878906,0.01849365234375,-0.01031494140625,1.05645751953125,36.11000061035156,0.0,26.0,-6.6188812255859375,-3.0453643798828125,Closing,0.0,0.0,-189.0,0.0,0.0,0.0,0.0,0.0,
4.368520999999979,0.0,0.0,122097.0,0.125,465.0,420.0,0.0,0.25,3.822021093,3.015942366852486,0.0012207029999999897,-124816.0,1.125,-465.0,-420.0,0.0,0.125,4.890136218,4.41043958977222,0.0,111564.0,1.125,480.0,420.0,0.0,0.0,0.32958981000000004,1.9194747329772914,0.0,-104732.0,1.875,-472.5,-420.0,0.0,0.25,2.198486103,0.552687206278561,0.0,-0.5799999833106995,-1.5700000524520874,-54.540000915527344,-0.0233154296875,-0.0267333984375,1.0281982421875,36.11000061035156,0.0,16.0,-6.618743896484375,-3.042633056640625,Closing,0.0,0.0,-189.0,0.0,0.0,0.0,0.0,0.0,
4.4426710000000025,0.0,0.0,122173.0,0.125,465.0,420.0,0.0,0.125,3.822021093,3.015942366852486,-0.0012207029999999897,-124816.0,1.125,-457.5,-420.0,0.0,0.125,4.890136218,4.41043958977222,0.0,111564.0,1.125,465.0,420.0,0.0,0.0,0.32958981000000004,1.9194747329772914,0.0,-104732.0,1.625,-420.0,-420.0,0.0,0.25,2.199706806,0.552687206278561,-0.0012207029999999897,-0.6000000238418579,-1.5399999618530273,-51.7400016784668,0.017333984375,0.03118896484375,1.0224609375,36.11000061035156,0.0,-5.0,-6.6188201904296875,-3.0424957275390625,Closing,0.0,0.0,-189.0,0.0,0.0,0.0,0.0,0.0,
4.509139999999985,0.0,0.0,122173.0,0.125,465.0,420.0,0.0,0.25,3.82080039,3.015942366852486,0.0,-124889.0,1.125,-450.0,-420.0,0.0,0.125,4.885253406,4.41043958977222,0.0,111638.0,1.125,457.5,420.0,0.0,0.0,0.32958981000000004,1.9194747329772914,0.0,-104803.0,2.0,-435.0,-420.0,0.0,0.25,2.1972654,0.552687206278561,0.0,-0.6299999952316284,-1.4700000286102295,-47.560001373291016,-0.03955078125,-0.00830078125,1.0196533203125,36.11000061035156,0.0,-11.0,-6.618865966796875,-3.041229248046875,Closing,0.0,0.0,-189.0,0.0,0.0,0.0,0.0,0.0,
4.58416399999999,0.0,0.0,122246.0,0.375,442.5,420.0,0.0,0.25,3.814696875,3.015942366852486,0.0,-124889.0,1.125,-442.5,-420.0,0.0,0.25,4.885253406,4.41043958977222,-0.004882811999999959,111638.0,1.125,450.0,420.0,0.0,0.0,0.32958981000000004,1.9194747329772914,0.0012207029999999897,-104872.0,1.625,-405.0,-420.0,0.0,0.25,2.191161885,0.552687206278561,0.0,-0.6299999952316284,-1.4299999475479126,-44.16999816894531,0.01495361328125,0.1070556640625,1.07196044921875,36.11000061035156,0.0,-52.0,-6.61871337890625,-3.03985595703125,Closing,0.0,0.0,-189.0,0.0,0.0,0.0,0.0,0.0,
4.656831999999995,0.0,0.0,122316.0,0.125,435.0,420.0,0.0,0.25,3.822021093,3.015942366852486,0.0,-124960.0,1.125,-435.0,-420.0,0.0,0.25,4.886474109,4.41043958977222,0.0,111710.0,1.125,442.5,420.0,0.0,0.0,0.32958981000000004,1.9194747329772914,-0.0012207029999999897,-104872.0,2.0,-420.0,-420.0,0.0,0.25,2.198486103,0.552687206278561,0.0,-0.6200000047683716,-1.4500000476837158,-40.779998779296875,-0.00634765625,-0.00628662109375,1.1712646484375,36.11000061035156,0.0,13.0,-6.6187896728515625,-3.0376739501953125,Closing,0.0,0.0,-189.0,0.0,0.0,0.0,0.0,0.0,
4.728606999999989,0.0,0.0,122316.0,0.125,435.0,0.0,0.0,5.25,3.8952632730000003,0.01,0.0,-125018.0,0.5,-420.0,-0.0,0.0,2.875,4.906005357000001,0.01,0.0,111775.0,0.375,412.5,0.0,0.0,4.375,0.191650371,0.01,0.0012207029999999897,-104934.0,0.625,-382.5,-0.0,0.0,1.5,2.131347438,0.01,0.0012207029999999897,-0.6100000143051147,-1.409999966621399,-38.15999984741211,-0.015625,0.0380859375,1.1021728515625,36.099998474121094,0.0,-21.0,-6.618804931640625,-3.035247802734375,Closing,0.0,0.0,-189.0,0.0,0.0,0.0,0.0,0.0,
4.801625999999989,0.0,0.0,122369.0,0.0,285.0,0.0,0.0,2.0,4.465331574,0.01,0.0,-125018.0,0.0,-195.0,-0.0,0.0,0.75,0.28076169,0.01,0.0,111775.0,0.375,262.5,0.0,0.0,1.375,4.591063983000001,0.01,0.0,-104934.0,0.375,-270.0,-0.0,0.0,0.625,1.800536925,0.01,0.0,-0.5099999904632568,-1.1699999570846558,-35.36000061035156,0.13616943359375,0.08154296875,0.9569091796875,36.099998474121094,0.0,74.0,-6.619110107421875,-3.03021240234375,Closing,0.0,0.0,-189.0,0.0,0.0,0.0,0.0,0.0,
4.877459999999992,0.0,0.0,122369.0,0.125,127.5,0.0,0.0,1.25,0.017089842,0.01,0.5871581429999999,-125054.0,0.0,-247.5,-0.0,0.0,0.5,0.560302677,0.01,-4.616698746,111815.0,0.375,247.5,0.0,0.0,1.5,4.100341377,0.01,-0.5446484970000007,-104959.0,0.375,-120.0,-0.0,0.0,0.625,1.563720543,0.01,-0.3295898100000001,-0.4300000071525574,-0.8399999737739563,-34.2599983215332,-0.068359375,-0.001953125,1.02947998046875,36.099998474121094,0.0,-47.0,-6.6169891357421875,-3.021331787109375,Closing,0.0,0.0,-189.0,0.0,0.0,0.0,0.0,0.0,
4.970918999999994,0.0,0.0,122380.0,0.125,0.0,0.0,0.0,1.125,0.6347655600000001,0.01,0.0,-125070.0,0.0,-112.5,-0.0,0.0,0.25,0.689697195,0.01,0.29418942299999973,111830.0,0.375,105.0,0.0,0.0,0.625,3.504638313,0.01,0.0,-104981.0,0.375,-135.0,-0.0,0.0,0.375,1.540527186,0.01,0.0,-0.47999998927116394,-1.2200000286102295,-33.97999954223633,-0.04632568359375,-0.03509521484375,0.97125244140625,36.099998474121094,0.0,-6.0,-6.6164093017578125,-3.011749267578125,Closing,0.0,0.0,-189.0,0.0,0.0,0.0,0.0,0.125,
5.050635999999999,0.0,0.0,122380.0,0.125,0.0,0.0,0.0,1.0,0.902099517,0.01,0.62255853,-125070.0,0.0,-45.0,-0.0,0.0,0.25,0.6347655600000001,0.01,0.10131834900000047,111830.0,0.375,67.5,0.0,0.0,0.5,3.294677397,0.01,0.0,-104981.0,0.625,-52.5,-0.0,0.0,0.25,1.590576009,0.01,0.0,-0.41999998688697815,-1.2699999809265137,-34.08000183105469,-0.00262451171875,0.05731201171875,1.04888916015625,36.099998474121094,0.0,-19.0,-6.617279052734375,-3.0050201416015625,Closing,0.0,0.0,-189.0,0.0,0.0,0.0,0.0,0.0,
5.113419999999984,0.0,0.0,122380.0,0.125,0.0,8.4,0.0,0.375,0.9069823290000001,4.930606878703244,-4.767456095,-125074.0,0.125,-15.0,-8.4,0.0,0.25,0.6079100940000001,4.96211537212944,-0.05859374400000039,111836.0,0.375,37.5,8.4,0.0,0.125,3.294677397,4.93875316230774,4.80612267,-104984.0,0.75,-7.5,-8.4,0.0,0.25,1.6064451480000002,4.956347295506795,0.037841793000000123,-0.3700000047683716,-1.2100000381469727,-34.13999938964844,0.029052734375,0.010986328125,1.02099609375,36.099998474121094,0.0,31.0,-6.6170654296875,-2.9990997314453125,Closing,0.0,0.0,-189.0,0.0,0.0,0.0,0.0,0.0,
5.172445999999996,0.0,0.0,122380.0,0.125,0.0,8.4,0.0,0.375,0.8703612390000001,4.929784870318879,0.0,-125074.0,0.0,-75.0,-8.4,0.0,0.25,0.5932616580000001,4.96128811079216,-0.019531247999999835,111836.0,0.5,0.0,8.4,0.0,0.0,3.3154293480000003,4.9379297958119714,0.0,-104984.0,0.75,-7.5,-8.4,0.0,0.125,1.616210772,4.955520995797051,0.024414059999999793,-0.36000001430511475,-1.059999942779541,-34.060001373291016,0.05340576171875,-0.015625,1.04656982421875,36.099998474121094,0.0,65.0,-6.615936279296875,-2.9907073974609375,Closing,0.0,0.0,-189.0,0.0,0.0,0.0,0.0,0.0,
5.245774999999994,0.0,0.0,122380.0,0.125,0.0,8.4,0.0,0.25,0.8312987430000001,4.93088089891937,-0.04516601100000006,-125085.0,0.0,-67.5,-8.4,0.0,0.25,0.5676268950000001,4.9623911434412005,-0.019531247999999835,111837.0,0.5,0.0,8.4,0.0,0.0,3.328857081,4.9390276352564495,0.02075195100000027,-104988.0,0.625,-30.0,-8.4,0.0,0.125,1.6088865540000001,4.956622746255663,0.004882811999999959,-0.3499999940395355,-0.9800000190734863,-34.06999969482422,-0.0067138671875,0.0137939453125,1.0074462890625,36.119998931884766,0.0,-2.0,-6.61456298828125,-2.9852142333984375,Closing,0.0,0.0,-189.0,0.0,0.0,0.0,0.0,0.0,
5.30966399999999,0.0,0.0,122381.0,0.125,7.5,8.4,0.0,0.125,0.832519446,4.930743914943314,0.0,-125085.0,0.125,0.0,-8.4,0.0,0.25,0.535888617,4.96225328408432,-0.028076169000000206,111837.0,0.375,67.5,8.4,0.0,0.0,3.328857081,4.938890424957275,0.01342773300000033,-104989.0,0.75,-7.5,-8.4,0.0,0.125,1.616210772,4.956485047149658,0.0,-0.33000001311302185,-0.9900000095367432,-34.09000015258789,-0.034912109375,-0.01031494140625,1.0302734375,36.119998931884766,0.0,-11.0,-6.61456298828125,-2.9833221435546875,Closing,0.0,0.0,-189.0,0.0,0.0,0.0,0.0,0.0,
5.382034999999974,0.0,0.0,122382.0,0.125,7.5,0.0,0.0,0.25,0.822753822,0.01,-0.003662108999999969,-125085.0,0.125,0.0,-0.0,0.0,0.125,0.532226508,0.01,-0.024414059999999793,111854.0,0.25,90.0,0.0,0.0,0.0,3.328857081,0.01,0.0,-104989.0,1.0,0.0,-0.0,0.0,0.125,1.618652178,0.01,0.0,-0.3100000023841858,-0.9800000190734863,-34.11000061035156,-0.0205078125,0.01165771484375,1.0252685546875,36.119998931884766,0.0,-12.0,-6.61456298828125,-2.9832305908203125,Closing,0.0,0.0,-189.0,0.0,0.0,0.0,0.0,0.0,
5.505316999999981,0.0,0.0,122387.0,1.875,0.0,840.0,0.0,0.25,0.821533119,0.01,0.0,-125086.0,2.25,-7.5,-840.0,0.0,0.125,0.532226508,0.01,-0.004882811999999959,111855.0,3.75,0.0,840.0,0.0,0.0,3.328857081,0.01,0.0,-104989.0,3.75,-30.0,-840.0,0.0,0.125,1.638183426,0.01,0.0,-0.23999999463558197,-0.7900000214576721,-34.099998474121094,0.37603759765625,-0.0601806640625,0.99664306640625,36.119998931884766,0.0,354.0,-6.6142578125,-2.9830474853515625,Closing,0.0,0.0,-189.0,0.0,0.0,0.0,0.0,0.0,
5.629248999999982,0.0,0.0,122422.0,6.0,157.5,935.4221293084743,0.0,0.5,0.8178710100000001,4.5745962991910165,4.926147485,-125121.0,9.625,-247.5,-935.4221293084743,0.0,0.5,0.532226508,4.603829746709036,0.0,111864.0,8.75,112.5,935.4221293084743,0.0,0.125,3.286132476,4.5821543868151275,-0.004882811999999959,-105012.0,9.375,-217.5,-935.4221293084743,0.0,0.125,1.640624832,4.598478149508016,-4.923820316,-0.25,0.36000001430511475,-33.91999816894531,0.149658203125,0.02215576171875,1.1676025390625,36.119998931884766,0.0,102.0,-6.6021575927734375,-2.9751739501953125,Closing,0.0,0.0,-189.0,0.0,0.0,0.0,0.0,0.0,
5.775914999999979,0.0,0.0,122515.0,5.25,630.0,975.1047277288028,0.0,0.375,0.426025347,4.514096426831199,-0.22094724300000035,-125202.0,9.0,-652.5,-975.1047277288028,0.0,0.25,0.12939451800000001,4.542943256661492,-0.23559567900000022,111912.0,9.375,442.5,975.1047277288028,0.0,0.25,2.930907903,4.521554557364753,-0.22949216400000072,-105186.0,8.375,-607.5,-975.1047277288028,0.0,0.5,1.192626831,4.5376624353118045,4.695548854999999,-1.1699999570846558,1.3300000429153442,-34.06999969482422,0.16534423828125,-0.17333984375,0.886962890625,36.099998474121094,0.0,206.0,-6.560699462890625,-2.95428466796875,Closing,0.0,0.0,-189.0,0.0,0.0,0.0,0.0,0.0,
5.900320999999996,0.0,0.0,122646.0,3.875,840.0,971.8544132867845,0.0,0.375,0.28076169,4.518571394050653,-0.2441405999999997,-125324.0,6.875,-847.5,-971.8544132867845,0.0,0.125,4.952392071,4.54744682065994,-0.2343749759999998,111992.0,9.5,600.0,971.8544132867845,0.0,0.125,2.806396197,4.526036918065979,-0.22705075799999985,-105186.0,6.75,-840.0,-971.8544132867845,0.0,0.375,1.096191294,4.5421607642642545,-0.2587890359999996,-1.9900000095367432,1.4299999475479126,-34.209999084472656,0.0482177734375,-0.1585693359375,0.95867919921875,36.099998474121094,0.0,90.0,-6.51898193359375,-2.9489898681640625,Closing,0.0,0.0,-189.0,0.0,0.0,0.0,0.0,0.0,
6.029178999999974,0.0,0.0,122806.0,2.0,1042.5,935.4221293084743,0.0,0.375,0.318603483,4.5745962991910165,-0.05371093200000043,-125476.0,3.125,-1065.0,-935.4221293084743,0.0,0.25,4.954833477,4.603829746709036,4.891356921,112225.0,10.0,765.0,935.4221293084743,0.0,0.25,2.8442379900000003,4.5821543868151275,-0.053710931999999545,-105511.0,3.75,-1065.0,-935.4221293084743,0.0,0.375,1.125488166,4.598478149508016,0.0,-2.2699999809265137,1.6200000047683716,-34.4900016784668,-0.022216796875,-0.0137939453125,1.20489501953125,36.099998474121094,0.0,-65.0,-6.4494476318359375,-2.948486328125,Closing,0.0,0.0,-189.0,0.0,0.0,0.0,0.0,0.0,
6.166801999999996,0.0,0.0,122984.0,0.75,1110.0,938.2697511784991,0.0,0.375,0.44189448600000003,4.5697645168026755,0.0,-125652.0,1.125,-1102.5,-938.2697511784991,0.0,0.25,0.063476556,4.598967087354154,-4.932860823,112385.0,8.125,975.0,938.2697511784991,0.0,0.125,2.973632508,4.5773146214197,0.08666991299999971,-105692.0,2.25,-1140.0,-938.2697511784991,0.0,0.375,1.25732409,4.593621142619803,0.07324217999999938,-1.8700000047683716,1.7200000286102295,-34.88999938964844,0.0145263671875,0.1966552734375,1.097412109375,36.099998474121094,0.0,-148.0,-6.4428558349609375,-2.94464111328125,Closing,0.0,0.0,-189.0,0.0,0.0,0.0,0.0,0.0,
6.294832999999985,0.0,0.0,123166.0,0.375,1140.0,968.6358929773678,0.0,0.25,0.495605418,4.523076246741417,0.10131834900000047,-125997.0,0.875,-1087.5,-968.6358929773678,0.0,0.25,0.163574202,4.55198046110947,0.10620116100000043,112561.0,6.25,1110.0,968.6358929773678,0.0,0.125,3.0029293800000003,4.530549213614899,0.09765624000000006,-105867.0,1.875,-1087.5,-968.6358929773678,0.0,0.25,1.2963865860000001,4.546689134706232,0.11230467600000082,-1.3600000143051147,1.690000057220459,-35.130001068115234,-0.0416259765625,0.1099853515625,1.19091796875,36.08000183105469,0.0,-142.0,-6.44927978515625,-2.931640625,Closing,0.0,0.0,-189.0,0.0,0.0,0.0,0.0,0.0,
6.441201000000001,0.0,0.0,123341.0,0.375,1072.5,916.5052170345582,0.0,0.25,0.43945308000000005,4.609232988027384,-0.029296871999999752,-126167.0,0.75,-1057.5,-916.5052170345582,0.0,0.125,0.169677717,4.638687777442933,0.04272460500000008,112745.0,4.625,1162.5,916.5052170345582,0.0,0.0,2.9589840720000002,4.61684830193161,-0.024414059999999793,-106049.0,1.0,-1140.0,-916.5052170345582,0.0,0.25,1.251220575,4.633295660468165,-0.03906249600000056,-1.309999942779541,1.25,-35.65999984741211,-0.080078125,-0.06390380859375,0.96514892578125,36.08000183105469,0.0,-57.0,-6.4663543701171875,-2.905792236328125,Closing,0.0,0.0,-189.0,0.0,0.0,0.0,0.0,0.0,
6.566966999999975,0.0,0.0,123510.0,0.375,1012.5,911.436752661183,0.0,0.25,0.42846675300000003,4.619386601030175,-0.017089841999999855,-126330.0,0.25,-1020.0,-911.436752661183,0.0,0.125,0.16845701400000002,4.648906275977349,0.0,112921.0,4.0,1072.5,911.436752661183,0.0,0.0,2.968749696,4.627018690599785,-0.004882811999999959,-106202.0,0.75,-990.0,-911.436752661183,0.0,0.25,1.2402342480000002,4.643502280785712,0.0,-1.1299999952316284,1.0099999904632568,-35.869998931884766,-0.12091064453125,-0.00372314453125,0.81549072265625,36.08000183105469,0.0,-24.0,-6.4861907958984375,-2.88751220703125,Closing,0.0,0.0,-189.0,0.0,0.0,0.0,0.0,0.125,
6.694305999999982,0.0,0.0,123837.0,0.125,1020.0,901.7648806862367,0.0,0.375,0.449218704,4.640027573869244,-0.006103515000000392,-126494.0,0.125,-1020.0,-901.7648806862367,0.0,0.25,0.16845701400000002,4.669679152651586,0.0,113069.0,5.25,900.0,901.7648806862367,0.0,0.125,3.0053707860000003,4.647693766181732,0.024414059999999793,-106382.0,0.625,-1065.0,-901.7648806862367,0.0,0.25,1.271972526,4.6642510105920625,0.006103515000000392,-1.0,0.7699999809265137,-36.029998779296875,-0.02630615234375,0.07550048828125,1.0699462890625,36.08000183105469,0.0,-88.0,-6.508148193359375,-2.872772216796875,Closing,0.0,0.0,-189.0,0.0,0.0,0.0,0.0,0.0,
6.831965999999986,0.0,0.0,123992.0,0.125,967.5,897.1664866269597,0.0,0.25,0.51269526,4.650511320716419,0.053710931999999545,-126647.0,0.25,-922.5,-897.1664866269597,0.0,0.25,0.17822263800000002,4.680229894713902,0.0,113212.0,5.625,922.5,897.1664866269597,0.0,0.0,3.023681331,4.65819483413707,0.024414059999999793,-106528.0,1.0,-945.0,-897.1664866269597,0.0,0.25,1.3195799430000001,4.67478948823002,0.04638671399999961,-0.7300000190734863,0.5,-36.290000915527344,-0.01470947265625,0.0751953125,0.960205078125,36.029998779296875,0.0,-70.0,-6.5386810302734375,-2.8555145263671875,Closing,0.0,0.0,-189.0,0.0,0.0,0.0,0.0,0.0,
6.970419999999984,0.0,0.0,124139.0,0.125,915.0,890.5727518884969,0.0,0.125,0.52490229,4.666435188907449,0.032958981000000165,-126791.0,0.5,-885.0,-890.5727518884969,0.0,0.25,0.21362302500000002,4.696255522608871,0.028076168999999318,113362.0,5.25,892.5,890.5727518884969,0.0,0.0,3.028564143,4.674145011532941,0.008544921000000372,-106675.0,1.0,-877.5,-890.5727518884969,0.0,0.25,1.324462755,4.690796487567873,0.017089841999999855,-0.6000000238418579,0.18000000715255737,-36.75,0.007568359375,0.12139892578125,1.140380859375,36.029998779296875,0.0,-76.0,-6.5808563232421875,-2.836090087890625,Closing,0.0,0.0,-189.0,0.0,0.0,0.0,0.0,0.0,
7.09847099999999,0.0,0.0,124282.0,0.125,885.0,882.3609027241915,0.0,0.25,0.523681587,4.688024513802235,0.004882811999999959,-126929.0,0.75,-855.0,-882.3609027241915,0.0,0.25,0.23193357,4.717982811676883,0.0,113503.0,5.5,885.0,882.3609027241915,0.0,0.125,3.046874688,4.695770006025355,0.0,-106956.0,1.25,-862.5,-882.3609027241915,0.0,0.25,1.331786973,4.712498520337161,0.0,-0.5,0.0,-37.20000076293945,0.03228759765625,0.03948974609375,0.971435546875,36.029998779296875,0.0,-3.0,-6.622802734375,-2.81640625,Closing,0.0,0.0,-189.0,0.0,0.0,0.0,0.0,0.0,
7.230620999999984,0.0,0.0,124423.0,0.125,877.5,874.8286976067087,0.0,0.25,0.52490229,4.7100024765632575,-0.0012207029999995456,-127206.0,0.625,-862.5,-874.8286976067087,0.0,0.25,0.23925778800000003,4.740101222158078,0.0,113783.0,6.0,862.5,874.8286976067087,0.0,0.125,3.081054372,4.717784280486358,0.03906249600000056,-107098.0,1.25,-892.5,-874.8286976067087,0.0,0.25,1.358642439,4.7345912198711355,0.019531247999999835,-0.3799999952316284,-0.11999999731779099,-37.5099983215332,0.034912109375,-0.03399658203125,0.87933349609375,36.029998779296875,0.0,46.0,-6.668182373046875,-2.79620361328125,Closing,0.0,0.0,-189.0,0.0,0.0,0.0,0.0,0.0,
7.3723999999999945,0.0,0.0,124560.0,0.5,847.5,921.7253166828295,0.0,0.25,0.552978459,4.599192718799198,0.01586913899999942,-127347.0,0.875,-877.5,-921.7253166828295,0.0,0.25,0.261230442,4.628583346993877,0.019531247999999835,113921.0,6.375,862.5,921.7253166828295,0.0,0.125,3.085937184,4.606791444303131,0.0183105449999994,-107236.0,1.375,-855.0,-921.7253166828295,0.0,0.25,1.384277202,4.62320297564062,0.03173827800000062,-0.20000000298023224,-0.20000000298023224,-37.560001373291016,0.04107666015625,0.0523681640625,0.99249267578125,36.029998779296875,0.0,1.0,-6.69989013671875,-2.775054931640625,Closing,0.0,0.0,-189.0,0.0,0.0,0.0,0.0,0.125,
7.503960999999981,0.0,0.0,124844.0,0.375,900.0,919.0964721704953,0.0,0.25,0.523681587,4.604198597334031,0.0,-127482.0,1.375,-832.5,-919.0964721704953,0.0,0.25,0.212402322,4.633621215037261,0.0,114063.0,6.625,877.5,919.0964721704953,0.0,0.125,3.037109064,4.611805593484404,0.0,-107372.0,2.5,-810.0,-919.0964721704953,0.0,0.25,1.3427733000000002,4.62823498755074,0.0,-0.25,-0.23999999463558197,-37.720001220703125,-0.0853271484375,-0.03118896484375,0.9566650390625,36.029998779296875,0.0,-47.0,-6.6985015869140625,-2.7737884521484375,Closing,0.0,0.0,-189.0,0.0,0.0,0.0,0.0,0.0,
7.633505999999994,0.0,0.0,124844.0,0.375,870.0,913.9518709975927,0.0,0.125,0.498046824,4.6142957175109816,-0.04760741699999915,-127620.0,1.625,-855.0,-913.9518709975927,0.0,0.125,0.18798826200000002,4.64378285973473,-0.03906249600000056,114205.0,6.5,892.5,913.9518709975927,0.0,0.0,3.018798519,4.621919395990036,-0.03906249600000056,-107508.0,2.25,-877.5,-913.9518709975927,0.0,0.25,1.284179556,4.638384820119545,-0.06103515000000037,-0.3400000035762787,-0.23999999463558197,-37.83000183105469,-0.03485107421875,0.00390625,1.08935546875,36.029998779296875,0.0,-30.0,-6.695648193359375,-2.7766571044921875,Closing,0.0,0.0,-189.0,0.0,0.0,0.0,0.0,0.0,
7.773573999999993,0.0,0.0,125128.0,0.375,907.5,911.436752661183,0.0,0.25,0.46142573400000003,4.619386601030175,-0.028076169000000206,-127761.0,1.5,-892.5,-911.436752661183,0.0,0.125,0.16479490500000002,4.648906275977349,-0.026855465999999772,114357.0,5.625,937.5,911.436752661183,0.0,0.0,3.0126950040000002,4.627018690599785,-0.014648435999999876,-107650.0,2.0,-885.0,-911.436752661183,0.0,0.25,1.25732409,4.643502280785712,-0.052490229,-0.4399999976158142,-0.30000001192092896,-38.09000015258789,-0.07354736328125,-0.0126953125,1.03955078125,36.0,0.0,-50.0,-6.686737060546875,-2.77880859375,Closing,0.0,0.0,-189.0,0.0,0.0,0.0,0.0,0.0,
7.905397999999987,0.0,0.0,125272.0,0.375,900.0,906.5224669935449,0.0,0.25,0.47241206100000005,4.6296520333548,0.0,-127906.0,1.375,-900.0,-906.5224669935449,0.0,0.125,0.17456052900000002,4.659237308402503,0.0,114510.0,5.0,975.0,906.5224669935449,0.0,0.0,3.013915707,4.637301083336199,0.0,-107794.0,1.625,-915.0,-906.5224669935449,0.0,0.25,1.235351436,4.653821304182025,0.0,-0.49000000953674316,-0.3199999928474426,-38.470001220703125,0.032470703125,-0.09625244140625,1.002197265625,36.0,0.0,84.0,-6.676849365234375,-2.7825927734375,Closing,0.0,0.0,-189.0,0.0,0.0,0.0,0.0,0.0,
8.032994999999996,0.0,0.0,125419.0,0.375,907.5,894.9277568608542,0.0,0.375,0.471191358,4.655793124164234,-0.0012207029999995456,-128050.0,1.75,-885.0,-894.9277568608542,0.0,0.25,0.17822263800000002,4.685545450937655,0.0,114669.0,4.75,960.0,894.9277568608542,0.0,0.0,3.0114743010000002,4.663485364110825,0.0,-107941.0,2.0,-900.0,-894.9277568608542,0.0,0.25,1.286620962,4.680098865529405,0.012207029999999897,-0.12999999523162842,-0.5899999737739563,-38.81999969482422,-0.289794921875,0.1402587890625,1.1990966796875,36.0,0.0,-305.0,-6.6722412109375,-2.78411865234375,Closing,0.0,0.0,-189.0,0.0,0.0,0.0,0.0,0.0,
8.165296999999992,0.0,0.0,125539.0,0.5,750.0,0.0,0.0,0.375,0.495605418,0.01,0.0,-128162.0,6.5,-480.0,-0.0,0.0,0.25,0.169677717,0.01,-0.0024414059999999793,114808.0,2.625,705.0,0.0,0.0,0.125,3.018798519,0.01,0.0,-108061.0,2.375,-337.5,-0.0,0.0,0.25,1.362304548,0.01,0.06958007099999985,1.0199999809265137,-2.3399999141693115,-41.560001373291016,-0.1580810546875,-0.0931396484375,0.992919921875,36.0,0.0,-14.0,-6.703643798828125,-2.7845306396484375,Closing,0.0,0.0,-189.0,0.0,0.0,0.0,0.0,0.0,
8.24492299999998,0.0,0.0,125582.0,0.125,375.0,0.0,0.0,0.75,0.694580007,0.01,0.029296871999999752,-128173.0,3.75,-30.0,-0.0,0.0,0.75,0.36254879100000004,0.01,0.0,114886.0,1.75,382.5,0.0,0.0,0.625,3.2031246720000004,0.01,0.0,-108089.0,2.625,-67.5,-0.0,0.0,0.375,1.535644374,0.01,0.0,0.7900000214576721,-2.799999952316284,-42.09000015258789,-0.0802001953125,0.12451171875,0.83251953125,36.029998779296875,0.0,-104.0,-6.7043914794921875,-2.7932281494140625,Opening,0.0,0.0,-189.0,0.0,0.0,0.0,0.0,0.0,
8.328908999999985,0.0,0.0,125582.0,3.125,60.0,840.0,0.0,2.25,0.8557128030000001,2.4624263054783215,0.2282714610000003,-128196.0,13.125,-112.5,-840.0,0.0,9.5,0.46142573400000003,2.478162166188243,0.19042966800000016,114894.0,10.375,67.5,840.0,0.0,4.875,3.280028961,2.4664946937179595,0.19287107400000014,-108104.0,12.0,-90.0,-840.0,0.0,6.25,1.511230314,2.47528149369558,0.18310545000000022,0.9100000262260437,-2.4200000762939453,-41.900001525878906,0.17596435546875,-0.0455322265625,0.85565185546875,36.029998779296875,0.0,197.0,-6.7059478759765625,-2.8013763427734375,Opening,0.0,0.0,-189.0,0.0,0.0,0.0,0.0,0.0,
8.408353000000004,0.0,0.0,125627.0,3.625,315.0,840.0,0.0,5.5,0.457763625,2.465029419135499,0.06225585299999992,-128196.0,19.25,-202.5,-840.0,0.0,2.0,0.083007804,2.480781914752963,0.03417968399999971,114894.0,16.625,30.0,840.0,0.0,2.0,2.862548535,2.4691021082051625,0.0183105449999994,-108104.0,16.375,-135.0,-840.0,0.0,1.75,1.120605354,2.477898197004533,0.0,0.7699999809265137,-1.7999999523162842,-41.9900016784668,0.1226806640625,-0.043212890625,1.01373291015625,36.029998779296875,0.0,152.0,-6.7016448974609375,-2.806304931640625,Opening,0.0,0.0,-189.0,0.0,0.0,0.0,0.0,0.0,
8.47152899999998,0.0,0.0,125627.0,3.5,435.0,840.0,0.0,0.5,4.91943309,2.463796354294938,-0.4382323770000003,-128237.0,21.75,-247.5,-840.0,0.0,2.0,4.644774915,2.4795409701490425,-0.39062496000000024,114920.0,16.375,195.0,840.0,0.0,0.875,2.441406,2.4678670061111476,-0.4077148020000001,-108130.0,19.5,-180.0,-840.0,0.0,1.875,0.754394454,2.4766586949030582,-0.3930663660000002,0.5400000214576721,-1.690000057220459,-42.279998779296875,-0.094482421875,-0.13818359375,1.04150390625,36.029998779296875,0.0,52.0,-6.6943817138671875,-2.8102569580078125,Opening,0.0,0.0,-189.0,0.0,0.0,0.0,0.0,0.0,
8.539195999999997,0.0,0.0,125696.0,4.0,450.0,840.0,0.0,0.5,4.396972206,2.4598231918211435,-0.40466357299999967,-128237.0,27.875,-210.0,-840.0,0.0,2.375,4.224853083,2.475542417623523,0.0,114920.0,16.5,300.0,840.0,0.0,0.625,1.96533183,2.4638872792307565,-0.4040526929999997,-108159.0,23.625,-187.5,-840.0,0.0,2.25,0.318603483,2.4726647903866263,-0.369873009,0.3799999952316284,-2.1700000762939453,-43.04999923706055,-0.19720458984375,0.11383056640625,0.9984130859375,36.029998779296875,0.0,-189.0,-6.68536376953125,-2.8195343017578125,Opening,0.0,0.0,-189.0,0.0,0.0,0.0,0.0,0.0,
8.629322999999975,0.0,0.0,125759.0,5.75,382.5,840.0,0.0,0.375,3.977050374,2.4472185231994126,0.0,-128261.0,37.375,-135.0,-840.0,0.0,2.625,3.8439937470000003,2.462857200272563,-0.4260253470000004,114973.0,18.5,345.0,840.0,0.0,0.5,1.494140472,2.4512617853419014,0.0,-108159.0,33.5,-120.0,-840.0,0.0,3.125,4.887694812,2.4599943186230155,-0.43457026799999987,0.5600000023841858,-2.4700000286102295,-43.58000183105469,-0.12628173828125,-0.0465087890625,1.063720703125,36.029998779296875,0.0,-18.0,-6.6799163818359375,-2.8333587646484375,Opening,0.0,0.0,-189.0,0.0,0.0,0.0,0.0,0.0,
8.700013999999996,0.0,0.0,125759.0,5.875,465.0,840.0,0.0,12.375,3.924560145,2.4420122436210447,0.0,-128314.0,36.25,-345.0,-840.0,0.0,2.375,3.4692379260000004,2.457617650545123,0.0,115032.0,17.75,367.5,840.0,0.0,0.125,1.0314940350000001,2.4460469040171335,0.0,-108176.0,35.375,-142.5,-840.0,0.0,2.125,4.47998001,2.454760859468251,0.0,0.38999998569488525,-2.7100000381469727,-44.43000030517578,-0.2716064453125,-0.060791015625,0.9573974609375,36.029998779296875,0.0,-114.0,-6.678741455078125,-2.8489227294921875,Opening,0.0,0.0,-189.0,0.0,0.0,0.0,0.0,0.0,
8.785917999999976,0.0,0.0,125820.0,8.25,352.5,840.0,0.0,10.875,3.914794521,2.4303666718877603,-0.028076169000000206,-128314.0,36.375,-427.5,-840.0,0.0,2.375,3.2568356040000004,2.4458976590843227,-0.39672847499999975,115032.0,18.5,450.0,840.0,0.0,0.25,0.8044432770000001,2.4343820916239447,-0.4821776849999999,-108176.0,35.875,-360.0,-840.0,0.0,1.375,4.227294489,2.443054491594105,-0.41259761400000006,0.28999999165534973,-3.009999990463257,-45.290000915527344,-0.38818359375,0.2000732421875,0.99261474609375,36.0,0.0,-374.0,-6.6796112060546875,-2.859344482421875,Opening,0.0,0.0,-189.0,0.0,0.0,0.0,0.0,0.0,
8.845842999999993,0.0,0.0,125820.0,9.25,457.5,840.0,0.0,10.125,3.8989253820000003,2.413651804552166,-0.0012207029999999897,-128392.0,34.875,-517.5,-840.0,0.0,0.875,3.1604000670000003,2.429075977252963,0.0,115096.0,25.875,367.5,840.0,0.0,0.0,0.727538988,2.4176396082051625,-0.20751951000000002,-108255.0,28.625,-577.5,-840.0,0.0,0.25,4.082030832,2.4262523636711997,-0.260009739,0.7799999713897705,-3.559999942779541,-47.09000015258789,-0.132080078125,-0.11907958984375,0.86944580078125,36.0,0.0,42.0,-6.6875152587890625,-2.870635986328125,Opening,0.0,0.0,-189.0,0.0,0.0,0.0,0.0,0.0,
8.920542999999975,0.0,0.0,125900.0,10.375,450.0,840.0,0.0,7.75,3.822021093,2.390497645061654,0.0,-128506.0,32.375,-690.0,-840.0,0.0,0.5,3.1018063230000004,2.4057738536882423,-0.07812499199999978,115171.0,30.0,345.0,840.0,0.0,0.0,0.7324218,2.394447193717959,0.0,-108367.0,26.5,-705.0,-840.0,0.0,0.25,4.063720287000001,2.4029773270289128,0.0,0.5400000214576721,-4.090000152587891,-47.59000015258789,-0.3140869140625,-0.1710205078125,1.03717041015625,36.0,0.0,-28.0,-6.700042724609375,-2.8746795654296875,Opening,0.0,0.0,-189.0,0.0,0.0,0.0,0.0,0.0,
8.99487699999998,0.0,0.0,125997.0,10.375,600.0,840.0,0.0,9.375,3.812255469,2.3870724707560993,-0.06591796200000033,-128506.0,30.625,-735.0,-840.0,0.0,0.25,3.0639645300000002,2.402326791188243,-0.0573730410000004,115171.0,26.25,660.0,840.0,0.0,0.125,0.7324218,2.391016360384626,0.004882811999999959,-108367.0,25.25,-742.5,-840.0,0.0,0.25,4.062499584,2.3995342714733576,-0.01342773300000033,0.5299999713897705,-4.420000076293945,-47.34000015258789,-0.1082763671875,0.162109375,0.7574462890625,36.0,0.0,-147.0,-6.708984375,-2.881591796875,Opening,0.0,0.0,-189.0,0.0,0.0,0.0,0.0,0.0,
