Time,ClimberA1,ClimberA2,FRpos,FRCurrent,FRspeed,FRsetpoint,FRApos,FRACurrent,FREncpos,FREncSetpoint,FREncSpeed,FLpos,FLCurrent,FLspeed,FLsetpoint,FLApos,FLACurrent,FLEncpos,FLEncSetpoint,FLEncSpeed,BRpos,BRCurrent,BRspeed,BRsetpoint,BRApos,BRACurrent,BREncpos,BREncSetpoint,BREncSpeed,BLpos,BLCurrent,BLspeed,BLsetpoint,BLApos,BLACurrent,BLEncpos,BLEncSetpoint,BLEncSpeed,navx_Pitch,navx_Roll,navx_Yaw,navx_XAcc,navx_YAcc,navx_ZAcc,navx_Temp,navx_Bar,navx_Alt,navx_XDis,navx_YDis,GearPlacerState,ShootOutputV,ShootOutputCurrent,ShootEncPos,ShootEncVelocity,ShootSpeed,ShootSetpoint,CarouselSetpoint,CarouselCurrent,
0.16902999999999885,0.0,0.0,55642.0,9.375,225.0,974.4521365362181,0.0,0.375,0.13427733,4.5149890297329485,0.0,-40098.0,10.75,-427.5,-974.4521365362181,0.0,0.5,4.849853019,4.543841563642547,0.0,42276.0,15.125,195.0,974.4521365362181,0.0,0.25,2.72216769,4.522448635013234,0.0,-21313.0,11.875,-210.0,-974.4521365362181,0.0,0.5,0.9582518550000001,4.538559698080239,0.0,-0.5,0.5899999737739563,64.2300033569336,0.18951416015625,-0.2254638671875,0.9158935546875,34.83000183105469,0.0,-117.0,-0.878387451171875,-2.19000244140625,Closing,0.0,0.0,-189.0,0.0,0.0,0.0,0.0,0.0,
0.3520219999999972,0.0,0.0,55740.0,0.0,255.0,0.0,0.0,0.625,0.117187488,4.5149890297329485,0.0,-40145.0,0.0,-255.0,0.0,0.0,0.25,4.761962403,4.543841563642547,0.0,42315.0,0.0,210.0,0.0,0.0,0.25,2.707519254,4.522448635013234,0.0,-21357.0,0.0,-240.0,0.0,0.0,0.75,0.8959960020000001,4.538559698080239,0.0,-0.7099999785423279,0.0,64.41999816894531,-0.1387939453125,0.10382080078125,0.730712890625,34.83000183105469,0.0,41.0,-0.8891143798828125,-2.2108001708984375,Closing,0.0,0.0,-189.0,0.0,0.0,0.0,0.0,0.0,
0.48574700000000304,0.0,0.0,55783.0,0.0,240.0,0.0,0.0,0.375,0.42846675300000003,4.5149890297329485,0.0,-40187.0,0.0,-180.0,0.0,0.0,0.5,4.953612774000001,4.543841563642547,0.0,42356.0,0.0,225.0,0.0,0.0,0.125,2.935790715,4.522448635013234,0.0,-21403.0,0.0,-240.0,0.0,0.0,0.375,1.1889647220000001,4.538559698080239,0.0,0.10999999940395355,-0.4099999964237213,64.26000213623047,-0.1259765625,0.089111328125,1.18756103515625,34.83000183105469,0.0,27.0,-0.8917694091796875,-2.2154388427734375,Closing,0.0,0.0,-189.0,0.0,0.0,0.0,0.0,0.0,
0.6267419999999984,0.0,0.0,55788.0,0.0,37.5,0.0,0.0,0.25,0.45166011,4.5149890297329485,0.0,-40206.0,0.0,-75.0,0.0,0.0,0.25,0.10009764600000001,4.543841563642547,0.0,42373.0,0.0,52.5,0.0,0.0,0.0,2.968749696,4.522448635013234,0.0,-21425.0,0.0,-52.5,0.0,0.0,0.125,1.2915037740000002,4.538559698080239,0.0,0.4699999988079071,-0.8399999737739563,64.3499984741211,-0.0653076171875,0.02581787109375,1.095458984375,34.83000183105469,0.0,-6.0,-0.890167236328125,-2.207550048828125,Closing,0.0,0.0,-189.0,0.0,0.0,0.0,0.0,0.0,
0.7623830000000016,0.0,0.0,55789.0,0.0,0.0,0.0,0.0,0.25,0.41381831700000005,4.5149890297329485,0.0,-40208.0,0.0,0.0,0.0,0.0,0.125,0.107421864,4.543841563642547,0.0,42373.0,0.0,0.0,0.0,0.0,0.125,2.9553219630000003,4.522448635013234,0.0,-21425.0,0.0,0.0,0.0,0.0,0.25,1.2170408910000001,4.538559698080239,0.0,0.4699999988079071,-0.7699999809265137,64.3499984741211,0.0087890625,0.0125732421875,1.013427734375,34.79999923706055,0.0,13.0,-0.8900299072265625,-2.2052154541015625,Closing,0.0,0.0,-189.0,0.0,0.0,0.0,0.0,0.0,
0.890099000000002,0.0,0.0,55789.0,0.0,0.0,0.0,0.0,0.125,0.40039058400000005,4.5149890297329485,0.0,-40208.0,0.0,0.0,0.0,0.0,0.125,0.10864256700000001,4.543841563642547,0.0,42373.0,0.0,0.0,0.0,0.0,0.125,2.9455563390000004,4.522448635013234,0.0,-21425.0,0.0,0.0,0.0,0.0,0.25,1.197509643,4.538559698080239,0.0,0.4099999964237213,-0.6499999761581421,64.33999633789062,0.0050048828125,-0.0123291015625,1.00494384765625,34.79999923706055,0.0,-10.0,-0.8900299072265625,-2.207977294921875,Closing,0.0,0.0,-189.0,0.0,0.0,0.0,0.0,0.0,
1.018653999999995,0.0,0.0,55789.0,0.0,0.0,0.0,0.0,1.375,0.552978459,0.01,0.0,-40208.0,0.0,0.0,-0.0,0.0,1.5,0.30517575,0.01,0.0,42373.0,0.0,0.0,0.0,0.0,1.0,3.1640621760000003,0.01,0.0,-21426.0,0.0,0.0,-0.0,0.0,1.5,1.386718608,0.01,0.0,0.3499999940395355,-0.6000000238418579,64.33999633789062,-0.03662109375,0.003173828125,1.00921630859375,34.79999923706055,0.0,-14.0,-0.8899993896484375,-2.2091827392578125,Closing,0.0,0.0,-189.0,0.0,0.0,0.0,0.0,0.0,
1.1630969999999943,0.0,0.0,55789.0,0.0,0.0,0.0,0.0,0.625,0.845947179,0.01,0.0,-40208.0,0.0,0.0,-0.0,0.0,0.25,0.572509707,0.01,0.0,42373.0,0.0,0.0,0.0,0.0,0.375,3.382568013,0.01,0.0,-21430.0,0.0,-22.5,-0.0,0.0,0.625,1.676025219,0.01,0.0,0.36000001430511475,-0.6200000047683716,64.41000366210938,-0.00537109375,0.001220703125,1.00628662109375,34.79999923706055,0.0,-2.0,-0.8896026611328125,-2.208343505859375,Closing,0.0,0.0,-189.0,0.0,0.0,0.0,0.0,0.0,
1.365175000000003,0.0,0.0,55789.0,0.0,0.0,0.0,0.0,0.25,0.8789061600000001,0.01,0.0,-40208.0,0.0,0.0,-0.0,0.0,0.25,0.562744083,0.01,0.0,42373.0,0.0,0.0,0.0,0.0,0.125,3.4167476970000004,0.01,0.0,-21432.0,0.0,0.0,-0.0,0.0,0.25,1.651611159,0.01,0.0,0.3700000047683716,-0.5899999737739563,64.41999816894531,-0.0084228515625,0.00146484375,1.01959228515625,34.790000915527344,0.0,-3.0,-0.8896026611328125,-2.208343505859375,Closing,0.0,0.0,-189.0,0.0,0.0,0.0,0.0,0.0,
1.4892520000000078,0.0,0.0,55785.0,0.125,-67.5,-416.69290244579315,0.0,0.25,0.811767495,4.932250999999998,0.0,-40206.0,1.75,67.5,416.69290244579315,0.0,0.0,0.513915963,4.963769999999998,0.0,42373.0,0.875,-60.0,-416.69290244579315,0.0,0.125,3.3752437950000003,0.01,0.0,-21430.0,0.875,82.5,416.69290244579315,0.0,0.25,1.612548663,0.01,0.0,0.3400000035762787,-0.7099999785423279,64.37000274658203,-0.12615966796875,-0.03936767578125,0.93585205078125,34.790000915527344,0.0,-90.0,-0.8899993896484375,-2.20794677734375,Closing,0.0,0.0,-189.0,0.0,0.0,0.0,0.0,0.0,
1.6276729999999953,0.0,0.0,55765.0,1.375,-127.5,-575.433059334755,0.0,0.125,0.812988198,4.932250999999998,0.0,-40190.0,4.875,142.5,575.433059334755,0.0,0.0,0.49926752700000004,4.963769999999998,0.0,42353.0,2.75,-112.5,-575.433059334755,0.0,0.125,3.397216449,0.01,0.0,-21411.0,2.5,120.0,575.433059334755,0.0,0.25,1.6027830390000002,0.01,0.0,0.3400000035762787,-1.2699999809265137,64.44000244140625,-0.14129638671875,0.0496826171875,1.11199951171875,34.790000915527344,0.0,-11.0,-0.8934173583984375,-2.2008514404296875,Closing,0.0,0.0,-189.0,0.0,0.0,0.0,0.0,0.0,
1.7632160000000003,0.0,0.0,55729.0,2.0,-352.5,-634.9606275558472,0.0,0.125,0.8312987430000001,4.932250999999998,0.0,-40094.0,5.875,375.0,634.9606275558472,0.0,0.0,0.49926752700000004,4.963769999999998,0.0,42260.0,3.25,-367.5,-634.9606275558472,0.0,0.125,3.392333637,0.01,0.0,-21325.0,2.875,337.5,634.9606275558472,0.0,0.25,1.6015623360000002,0.01,0.0,0.3400000035762787,-1.940000057220459,64.51000213623047,-0.1007080078125,0.0184326171875,0.99896240234375,34.79999923706055,0.0,-17.0,-0.901611328125,-2.1803741455078125,Closing,0.0,0.0,-189.0,0.0,0.0,0.0,0.0,0.0,
1.9636080000000073,0.0,0.0,55565.0,3.125,-675.0,-932.5984311103821,0.0,0.125,0.8312987430000001,4.932250999999998,0.0,-39997.0,7.625,720.0,932.5984311103821,0.0,0.0,0.49926752700000004,4.963769999999998,0.0,42170.0,5.125,-645.0,-932.5984311103821,0.0,0.125,3.386230122,0.01,0.0,-21233.0,4.125,682.5,932.5984311103821,0.0,0.25,1.6076658510000001,0.01,0.0,0.38999998569488525,-2.819999933242798,64.69000244140625,-0.20184326171875,-0.03436279296875,1.20233154296875,34.79999923706055,0.0,-99.0,-0.91851806640625,-2.135772705078125,Closing,0.0,0.0,-189.0,0.0,0.0,0.0,0.0,0.0,
2.0987330000000073,0.0,0.0,55434.0,2.0,-885.0,-972.2834515571594,0.0,0.125,0.8300780400000001,4.932250999999998,0.0,-39864.0,5.125,930.0,972.2834515571594,0.0,0.0,0.49926752700000004,4.963769999999998,0.0,42048.0,4.125,-862.5,-972.2834515571594,0.0,0.125,3.388671528,0.01,0.0,-21114.0,3.375,877.5,972.2834515571594,0.0,0.25,1.6076658510000001,0.01,0.0,0.3700000047683716,-3.130000114440918,64.87000274658203,0.03924560546875,-0.0186767578125,1.0634765625,34.79999923706055,0.0,18.0,-0.9350738525390625,-2.0910491943359375,Closing,0.0,0.0,-189.0,0.0,0.0,0.0,0.0,0.0,
2.296164000000004,0.0,0.0,55114.0,1.25,-1057.5,-1051.6535675525665,0.0,0.125,0.836181555,4.932250999999998,0.0,-39539.0,3.625,1072.5,1051.6535675525665,0.0,0.0,0.498046824,4.963769999999998,0.0,41738.0,3.25,-1057.5,-1051.6535675525665,0.0,0.125,3.383788716,0.01,0.0,-20806.0,3.0,1050.0,1051.6535675525665,0.0,0.25,1.6040037420000002,0.01,0.0,0.33000001311302185,-3.0299999713897705,65.0199966430664,-0.1866455078125,0.0306396484375,1.0699462890625,34.790000915527344,0.0,-32.0,-0.948883056640625,-2.0309600830078125,Closing,0.0,0.0,-189.0,0.0,0.0,0.0,0.0,0.0,
2.498971000000005,0.0,0.0,54943.0,1.25,-1095.0,-1111.1810982227325,0.0,0.25,0.823974525,4.932250999999998,0.0,-39180.0,3.0,1125.0,1111.1810982227325,0.0,0.0,0.49926752700000004,4.963769999999998,0.0,41423.0,5.25,-885.0,-1111.1810982227325,0.0,0.125,3.387450825,0.01,0.0,-20462.0,3.0,1102.5,1111.1810982227325,0.0,0.25,1.6088865540000001,0.01,0.0,0.36000001430511475,-2.869999885559082,64.98999786376953,-0.0478515625,-0.0074462890625,0.6014404296875,34.790000915527344,0.0,-17.0,-0.9474639892578125,-1.9860076904296875,Closing,0.0,0.0,-189.0,0.0,0.0,0.0,0.0,0.0,
2.6289719999999943,0.0,0.0,54577.0,0.75,-1177.5,-1111.1810982227325,0.0,0.125,0.821533119,4.932250999999998,0.0,-38993.0,2.125,1170.0,1111.1810982227325,0.0,0.0,0.49926752700000004,4.963769999999998,0.0,41248.0,5.0,-1110.0,-1111.1810982227325,0.0,0.125,3.382568013,0.01,0.0,-20289.0,3.125,1072.5,1111.1810982227325,0.0,0.25,1.6088865540000001,0.01,0.0,0.4399999976158142,-2.9700000286102295,65.29000091552734,-0.01019287109375,-0.0189208984375,1.12054443359375,34.790000915527344,0.0,-5.0,-0.9479217529296875,-1.9880523681640625,Closing,0.0,0.0,-189.0,0.0,0.0,0.0,0.0,0.0,
2.8287590000000056,0.0,0.0,54386.0,0.375,-1192.5,-1131.023608446121,0.0,0.125,0.822753822,4.932250999999998,0.0,-38613.0,1.5,1192.5,1131.023608446121,0.0,0.0,0.498046824,4.963769999999998,0.0,40874.0,3.625,-1177.5,-1131.023608446121,0.0,0.125,3.387450825,0.01,0.0,-19924.0,2.625,1147.5,1131.023608446121,0.0,0.25,1.6088865540000001,0.01,0.0,0.36000001430511475,-2.569999933242798,65.48999786376953,-0.03619384765625,0.1634521484375,0.97772216796875,34.75,0.0,146.0,-0.946563720703125,-2.0009613037109375,Closing,0.0,0.0,-189.0,0.0,0.0,0.0,0.0,0.0,
3.0283190000000033,0.0,0.0,54003.0,0.375,-1185.0,-1150.86611866951,0.0,0.125,0.821533119,4.932250999999998,0.0,-38424.0,1.5,1155.0,1150.86611866951,0.0,0.0,0.50048823,4.963769999999998,0.0,40741.0,8.625,-795.0,-1150.86611866951,0.0,0.125,3.387450825,0.01,0.0,-19738.0,2.75,1170.0,1150.86611866951,0.0,0.25,1.6015623360000002,0.01,0.0,0.44999998807907104,-2.4000000953674316,66.16999816894531,-0.07733154296875,-0.08843994140625,1.02728271484375,34.75,0.0,-102.0,-0.9345245361328125,-2.0211944580078125,Closing,0.0,0.0,-189.0,0.0,0.0,0.0,0.0,0.0,
3.2282550000000048,0.0,0.0,53623.0,0.375,-1185.0,-1150.86611866951,0.0,0.125,0.822753822,4.932250999999998,0.0,-38046.0,0.875,1192.5,1150.86611866951,0.0,0.0,0.49926752700000004,4.963769999999998,0.0,40389.0,5.625,-1282.5,-1150.86611866951,0.0,0.125,3.387450825,0.01,0.0,-19358.0,2.625,1177.5,1150.86611866951,0.0,0.25,1.6076658510000001,0.01,0.0,0.4699999988079071,-2.390000104904175,66.75,-0.09210205078125,-0.06207275390625,1.43145751953125,34.75,0.0,-80.0,-0.9271087646484375,-2.0449981689453125,Closing,0.0,0.0,-189.0,0.0,0.0,0.0,0.0,0.0,
3.428425000000003,0.0,0.0,53432.0,0.0,-1117.5,0.0,0.0,0.125,0.821533119,4.932250999999998,0.0,-37703.0,0.0,1050.0,0.0,0.0,0.0,0.49926752700000004,4.963769999999998,0.0,40092.0,0.0,-802.5,0.0,0.0,0.125,3.358153953,0.01,0.0,-18998.0,0.0,1080.0,0.0,0.0,0.25,1.6076658510000001,0.01,0.0,0.3700000047683716,-1.350000023841858,66.62000274658203,0.04217529296875,-0.043701171875,1.36346435546875,34.72999954223633,0.0,-18.0,-0.927520751953125,-2.086273193359375,Closing,0.0,0.0,-189.0,0.0,0.0,0.0,0.0,0.0,
3.553338000000003,0.0,0.0,53268.0,0.0,-922.5,0.0,0.0,0.125,0.822753822,4.932250999999998,0.0,-37562.0,0.0,907.5,0.0,0.0,0.0,0.49926752700000004,4.963769999999998,0.0,39979.0,0.0,-652.5,0.0,0.0,0.0,3.358153953,0.01,0.0,-18857.0,0.0,885.0,0.0,0.0,0.25,1.6076658510000001,0.01,0.0,0.3799999952316284,-0.699999988079071,66.7699966430664,0.200439453125,-0.03375244140625,1.03912353515625,34.72999954223633,0.0,46.0,-0.9255218505859375,-2.125396728515625,Closing,0.0,0.0,-189.0,0.0,0.0,0.0,0.0,0.0,
3.6985360000000074,0.0,0.0,53018.0,0.0,-720.0,0.0,0.0,0.125,0.821533119,4.932250999999998,0.0,-37445.0,0.0,720.0,0.0,0.0,0.0,0.49926752700000004,4.963769999999998,0.0,39870.0,0.0,-682.5,0.0,0.0,0.0,3.358153953,0.01,0.0,-18743.0,0.0,712.5,0.0,0.0,0.25,1.6076658510000001,0.01,0.0,0.36000001430511475,0.0,66.81999969482422,0.133056640625,0.005126953125,0.92425537109375,34.72999954223633,0.0,51.0,-0.919403076171875,-2.179779052734375,Closing,0.0,0.0,-189.0,0.0,0.0,0.0,0.0,0.0,
3.826357000000004,0.0,0.0,52933.0,0.0,-555.0,0.0,0.0,0.125,0.821533119,4.932250999999998,0.0,-37358.0,0.0,540.0,0.0,0.0,0.0,0.49926752700000004,4.963769999999998,0.0,39785.0,0.0,-517.5,0.0,0.0,0.0,3.35693325,0.01,0.0,-18654.0,0.0,547.5,0.0,0.0,0.25,1.6076658510000001,0.01,0.0,0.38999998569488525,0.47999998927116394,66.8499984741211,0.10589599609375,-0.03533935546875,0.925537109375,34.7599983215332,0.0,0.0,-0.9149627685546875,-2.2359466552734375,Closing,0.0,0.0,-189.0,0.0,0.0,0.0,0.0,0.0,
3.9623680000000023,0.0,0.0,52873.0,0.0,-382.5,0.0,0.0,0.125,0.821533119,4.932250999999998,0.0,-37297.0,0.0,337.5,0.0,0.0,0.0,0.49926752700000004,4.963769999999998,0.0,39726.0,0.0,-322.5,0.0,0.0,0.0,3.358153953,0.01,0.0,-18591.0,0.0,337.5,0.0,0.0,0.25,1.6088865540000001,0.01,0.0,0.4000000059604645,0.9700000286102295,66.94000244140625,0.11846923828125,0.01678466796875,1.0260009765625,34.7599983215332,0.0,48.0,-0.9137725830078125,-2.3073883056640625,Closing,0.0,0.0,-189.0,0.0,0.0,0.0,0.0,0.0,
4.083020000000004,0.0,0.0,52840.0,0.0,-202.5,0.0,0.0,0.125,0.821533119,4.932250999999998,0.0,-37262.0,0.0,187.5,0.0,0.0,0.0,0.49926752700000004,4.963769999999998,0.0,39690.0,0.0,-195.0,0.0,0.0,0.0,3.358153953,0.01,0.0,-18557.0,0.0,187.5,0.0,0.0,0.25,1.6076658510000001,0.01,0.0,0.44999998807907104,1.350000023841858,67.0199966430664,0.09149169921875,-0.00140380859375,1.0084228515625,34.7599983215332,0.0,17.0,-0.910736083984375,-2.3778228759765625,Closing,0.0,0.0,-189.0,0.0,0.0,0.0,0.0,0.0,
4.2273099999999975,0.0,0.0,52832.0,0.0,-45.0,0.0,0.0,0.125,0.822753822,4.932250999999998,0.0,-37250.0,0.0,45.0,0.0,0.0,0.0,0.49926752700000004,4.963769999999998,0.0,39680.0,0.0,-15.0,0.0,0.0,0.0,3.358153953,0.01,0.0,-18545.0,0.0,30.0,0.0,0.0,0.25,1.6076658510000001,0.01,0.0,0.4399999976158142,1.5800000429153442,67.01000213623047,0.0093994140625,0.0093994140625,1.04736328125,34.7599983215332,0.0,-6.0,-0.910064697265625,-2.463104248046875,Closing,0.0,0.0,-189.0,0.0,0.0,0.0,0.0,0.0,
4.3647350000000005,0.0,0.0,52832.0,0.0,0.0,0.0,0.0,0.125,0.821533119,4.932250999999998,0.0,-37250.0,0.0,0.0,0.0,0.0,0.0,0.49926752700000004,4.963769999999998,0.0,39680.0,0.0,0.0,0.0,0.0,0.0,3.358153953,0.01,0.0,-18545.0,0.0,0.0,0.0,0.0,0.25,1.6076658510000001,0.01,0.0,0.44999998807907104,1.3200000524520874,67.0199966430664,-0.029052734375,0.00341796875,1.0101318359375,34.709999084472656,0.0,-24.0,-0.91021728515625,-2.4608154296875,Closing,0.0,0.0,-189.0,0.0,0.0,0.0,0.0,0.0,
4.493426999999996,0.0,0.0,52832.0,0.0,0.0,0.0,0.0,0.125,0.821533119,4.932250999999998,0.0,-37250.0,0.0,0.0,0.0,0.0,0.0,0.49926752700000004,4.963769999999998,0.0,39680.0,0.0,0.0,0.0,0.0,0.0,3.35693325,0.01,0.0,-18545.0,0.0,0.0,0.0,0.0,0.25,1.6076658510000001,0.01,0.0,0.44999998807907104,1.0499999523162842,67.0199966430664,-0.0228271484375,0.01220703125,1.01300048828125,34.709999084472656,0.0,-12.0,-0.9108428955078125,-2.4542999267578125,Closing,0.0,0.0,-189.0,0.0,0.0,0.0,0.0,0.0,
4.629967000000004,0.0,0.0,52832.0,0.0,0.0,0.0,0.0,0.125,0.821533119,4.932250999999998,0.0,-37250.0,0.0,0.0,0.0,0.0,0.0,0.49926752700000004,4.963769999999998,0.0,39680.0,0.0,0.0,0.0,0.0,0.0,3.358153953,0.01,0.0,-18545.0,0.0,0.0,0.0,0.0,0.25,1.6076658510000001,0.01,0.0,0.46000000834465027,0.8700000047683716,67.04000091552734,-9.1552734375E-4,0.00701904296875,1.02130126953125,34.709999084472656,0.0,-7.0,-0.9108428955078125,-2.4446868896484375,Closing,0.0,0.0,-189.0,0.0,0.0,0.0,0.0,0.0,
4.826941000000006,0.0,0.0,52832.0,0.0,0.0,0.0,0.0,0.125,0.820312416,4.932250999999998,0.0,-37250.0,0.0,0.0,0.0,0.0,0.0,0.49926752700000004,4.963769999999998,0.0,39680.0,0.0,0.0,0.0,0.0,0.0,3.358153953,0.01,0.0,-18545.0,0.0,0.0,0.0,0.0,0.25,1.6076658510000001,0.01,0.0,0.4699999988079071,0.6700000166893005,67.04000091552734,-0.01824951171875,0.0087890625,1.02532958984375,34.70000076293945,0.0,-11.0,-0.9108428955078125,-2.4427490234375,Closing,0.0,0.0,-189.0,0.0,0.0,0.0,0.0,0.0,
4.954456000000006,0.0,0.0,52832.0,0.0,0.0,0.0,0.0,0.125,0.821533119,4.932250999999998,0.0,-37250.0,0.0,0.0,0.0,0.0,0.0,0.49926752700000004,4.963769999999998,0.0,39680.0,0.0,0.0,0.0,0.0,0.0,3.358153953,0.01,0.0,-18545.0,0.0,0.0,0.0,0.0,0.25,1.6088865540000001,0.01,0.0,0.4699999988079071,0.550000011920929,67.05000305175781,-0.01141357421875,0.01123046875,1.01568603515625,34.70000076293945,0.0,-5.0,-0.9108428955078125,-2.440460205078125,Closing,0.0,0.0,-189.0,0.0,0.0,0.0,0.0,0.0,
5.102698000000004,0.0,0.0,52832.0,0.0,0.0,0.0,0.0,0.125,0.822753822,4.932250999999998,0.0,-37250.0,0.0,0.0,0.0,0.0,0.0,0.49926752700000004,4.963769999999998,0.0,39680.0,0.0,0.0,0.0,0.0,0.0,3.358153953,0.01,0.0,-18545.0,0.0,0.0,0.0,0.0,0.25,1.6076658510000001,0.01,0.0,0.47999998927116394,0.4099999964237213,67.05000305175781,-0.012939453125,0.00689697265625,1.01824951171875,34.70000076293945,0.0,-9.0,-0.9108428955078125,-2.4389190673828125,Closing,0.0,0.0,-189.0,0.0,0.0,0.0,0.0,0.0,
5.294724000000002,0.0,0.0,52832.0,0.0,0.0,0.0,0.0,0.125,0.821533119,4.932250999999998,0.0,-37250.0,0.0,0.0,0.0,0.0,0.0,0.49926752700000004,4.963769999999998,0.0,39680.0,0.0,0.0,0.0,0.0,0.0,3.358153953,0.01,0.0,-18545.0,0.0,0.0,0.0,0.0,0.25,1.6076658510000001,0.01,0.0,0.47999998927116394,0.25999999046325684,67.05999755859375,-0.012939453125,0.010986328125,1.01708984375,34.70000076293945,0.0,-4.0,-0.9108428955078125,-2.43792724609375,Closing,0.0,0.0,-189.0,0.0,0.0,0.0,0.0,0.0,
5.429903999999995,0.0,0.0,52832.0,0.0,0.0,0.0,0.0,0.125,0.822753822,4.932250999999998,0.0,-37250.0,0.0,0.0,0.0,0.0,0.0,0.49926752700000004,4.963769999999998,0.0,39680.0,0.0,0.0,0.0,0.0,0.0,3.358153953,0.01,0.0,-18545.0,0.0,0.0,0.0,0.0,0.25,1.6088865540000001,0.01,0.0,0.49000000953674316,0.1599999964237213,67.08000183105469,-0.0086669921875,0.0086669921875,1.01544189453125,34.66999816894531,0.0,-4.0,-0.9108428955078125,-2.43792724609375,Closing,0.0,0.0,-189.0,0.0,0.0,0.0,0.0,0.0,
5.629149000000005,0.0,0.0,52832.0,0.0,0.0,0.0,0.0,0.125,0.821533119,4.932250999999998,0.0,-37250.0,0.0,0.0,0.0,0.0,0.0,0.49926752700000004,4.963769999999998,0.0,39680.0,0.0,0.0,0.0,0.0,0.0,3.358153953,0.01,0.0,-18545.0,0.0,0.0,0.0,0.0,0.25,1.6088865540000001,0.01,0.0,0.49000000953674316,0.03999999910593033,67.08999633789062,-0.0133056640625,0.00982666015625,1.022216796875,34.66999816894531,0.0,-4.0,-0.9108428955078125,-2.43792724609375,Closing,0.0,0.0,-189.0,0.0,0.0,0.0,0.0,0.0,
5.7624049999999984,0.0,0.0,52832.0,0.0,0.0,0.0,0.0,0.125,0.821533119,4.932250999999998,0.0,-37250.0,0.0,0.0,0.0,0.0,0.0,0.49926752700000004,4.963769999999998,0.0,39680.0,0.0,0.0,0.0,0.0,0.0,3.359374656,0.01,0.0,-18545.0,0.0,0.0,0.0,0.0,0.25,1.6088865540000001,0.01,0.0,0.5,-0.019999999552965164,67.08999633789062,-0.011474609375,0.008056640625,1.02362060546875,34.66999816894531,0.0,-5.0,-0.9108428955078125,-2.43792724609375,Closing,0.0,0.0,-189.0,0.0,0.0,0.0,0.0,0.0,
5.896036000000008,0.0,0.0,52832.0,0.0,0.0,0.0,0.0,0.125,0.821533119,4.932250999999998,0.0,-37250.0,0.0,0.0,0.0,0.0,0.0,0.49926752700000004,4.963769999999998,0.0,39680.0,0.0,0.0,0.0,0.0,0.0,3.358153953,0.01,0.0,-18545.0,0.0,0.0,0.0,0.0,0.25,1.6076658510000001,0.01,0.0,0.5,-0.09000000357627869,67.08999633789062,-0.010498046875,0.0103759765625,1.022705078125,34.689998626708984,0.0,-2.0,-0.9108428955078125,-2.43792724609375,Closing,0.0,0.0,-189.0,0.0,0.0,0.0,0.0,0.0,
6.031341,0.0,0.0,52832.0,0.0,0.0,0.0,0.0,0.125,0.821533119,4.932250999999998,0.0,-37250.0,0.0,0.0,0.0,0.0,0.0,0.498046824,4.963769999999998,0.0,39680.0,0.0,0.0,0.0,0.0,0.0,3.358153953,0.01,0.0,-18545.0,0.0,0.0,0.0,0.0,0.25,1.6076658510000001,0.01,0.0,0.5,-0.15000000596046448,67.0999984741211,-0.01123046875,0.0084228515625,1.01739501953125,34.689998626708984,0.0,-3.0,-0.9108428955078125,-2.43792724609375,Closing,0.0,0.0,-189.0,0.0,0.0,0.0,0.0,0.0,
6.165050000000003,0.0,0.0,52832.0,0.0,0.0,0.0,0.0,0.125,0.821533119,4.932250999999998,0.0,-37250.0,0.0,0.0,0.0,0.0,0.0,0.49926752700000004,4.963769999999998,0.0,39680.0,0.0,0.0,0.0,0.0,0.0,3.35693325,0.01,0.0,-18545.0,0.0,0.0,0.0,0.0,0.25,1.6088865540000001,0.01,0.0,0.5099999904632568,-0.20000000298023224,67.11000061035156,-0.01483154296875,0.0103759765625,1.01568603515625,34.689998626708984,0.0,-3.0,-0.9108428955078125,-2.43792724609375,Closing,0.0,0.0,-189.0,0.0,0.0,0.0,0.0,0.0,
6.295771000000008,0.0,0.0,52832.0,0.0,0.0,0.0,0.0,0.125,0.821533119,4.932250999999998,0.0,-37250.0,0.0,0.0,0.0,0.0,0.0,0.498046824,4.963769999999998,0.0,39680.0,0.0,0.0,0.0,0.0,0.0,3.358153953,0.01,0.0,-18545.0,0.0,0.0,0.0,0.0,0.25,1.6088865540000001,0.01,0.0,0.5099999904632568,-0.23999999463558197,67.11000061035156,-0.01177978515625,0.00933837890625,1.0234375,34.689998626708984,0.0,-2.0,-0.9108428955078125,-2.43792724609375,Closing,0.0,0.0,-189.0,0.0,0.0,0.0,0.0,0.0,
6.431271999999997,0.0,0.0,52832.0,0.0,0.0,0.0,0.0,0.125,0.821533119,4.932250999999998,0.0,-37250.0,0.0,0.0,0.0,0.0,0.0,0.49926752700000004,4.963769999999998,0.0,39680.0,0.0,0.0,0.0,0.0,0.0,3.35693325,0.01,0.0,-18545.0,0.0,0.0,0.0,0.0,0.25,1.6088865540000001,0.01,0.0,0.5099999904632568,-0.28999999165534973,67.12000274658203,-0.01580810546875,0.01129150390625,1.02337646484375,34.68000030517578,0.0,-2.0,-0.9108428955078125,-2.43792724609375,Closing,0.0,0.0,-189.0,0.0,0.0,0.0,0.0,0.0,
6.566111999999993,0.0,0.0,52832.0,0.0,0.0,0.0,0.0,0.125,0.821533119,4.932250999999998,0.0,-37250.0,0.0,0.0,0.0,0.0,0.0,0.49926752700000004,4.963769999999998,0.0,39680.0,0.0,0.0,0.0,0.0,0.0,3.358153953,0.01,0.0,-18545.0,0.0,0.0,0.0,0.0,0.25,1.6076658510000001,0.01,0.0,0.5099999904632568,-0.33000001311302185,67.12999725341797,-0.01141357421875,0.00933837890625,1.02484130859375,34.68000030517578,0.0,-2.0,-0.9108428955078125,-2.43792724609375,Closing,0.0,0.0,-189.0,0.0,0.0,0.0,0.0,0.0,
6.687123999999996,0.0,0.0,52832.0,0.0,0.0,0.0,0.0,0.125,0.821533119,4.932250999999998,0.0,-37250.0,0.0,0.0,0.0,0.0,0.0,0.49926752700000004,4.963769999999998,0.0,39680.0,0.0,0.0,0.0,0.0,0.0,3.358153953,0.01,0.0,-18545.0,0.0,0.0,0.0,0.0,0.25,1.6088865540000001,0.01,0.0,0.5099999904632568,-0.3700000047683716,67.13999938964844,-0.01202392578125,0.00982666015625,1.02069091796875,34.68000030517578,0.0,-1.0,-0.9108428955078125,-2.43792724609375,Closing,0.0,0.0,-189.0,0.0,0.0,0.0,0.0,0.0,
6.893896000000008,0.0,0.0,52832.0,0.0,0.0,0.0,0.0,0.125,0.822753822,4.932250999999998,0.0,-37250.0,0.0,0.0,0.0,0.0,0.0,0.49926752700000004,4.963769999999998,0.0,39680.0,0.0,0.0,0.0,0.0,0.0,3.358153953,0.01,0.0,-18545.0,0.0,0.0,0.0,0.0,0.25,1.6076658510000001,0.01,0.0,0.5199999809265137,-0.4099999964237213,67.1500015258789,-0.01251220703125,0.00872802734375,1.01458740234375,34.72999954223633,0.0,-2.0,-0.9108428955078125,-2.43792724609375,Closing,0.0,0.0,-189.0,0.0,0.0,0.0,0.0,0.0,
7.029487999999998,0.0,0.0,52832.0,0.0,0.0,0.0,0.0,0.125,0.821533119,4.932250999999998,0.0,-37250.0,0.0,0.0,0.0,0.0,0.0,0.498046824,4.963769999999998,0.0,39680.0,0.0,0.0,0.0,0.0,0.0,3.359374656,0.01,0.0,-18545.0,0.0,0.0,0.0,0.0,0.25,1.6076658510000001,0.01,0.0,0.5099999904632568,-0.4300000071525574,67.1500015258789,-0.01239013671875,0.0087890625,1.0206298828125,34.72999954223633,0.0,-2.0,-0.9108428955078125,-2.43792724609375,Closing,0.0,0.0,-189.0,0.0,0.0,0.0,0.0,0.0,
7.163055000000008,0.0,0.0,52832.0,0.0,0.0,0.0,0.0,0.125,0.821533119,4.932250999999998,0.0,-37250.0,0.0,0.0,0.0,0.0,0.0,0.49926752700000004,4.963769999999998,0.0,39680.0,0.0,0.0,0.0,0.0,0.0,3.358153953,0.01,0.0,-18545.0,0.0,0.0,0.0,0.0,0.25,1.6076658510000001,0.01,0.0,0.5099999904632568,-0.46000000834465027,67.16000366210938,-0.0118408203125,0.01116943359375,1.02252197265625,34.72999954223633,0.0,0.0,-0.9108428955078125,-2.43792724609375,Closing,0.0,0.0,-189.0,0.0,0.0,0.0,0.0,0.0,
7.296907999999996,0.0,0.0,52832.0,0.0,0.0,0.0,0.0,0.125,0.822753822,4.932250999999998,0.0,-37250.0,0.0,0.0,0.0,0.0,0.0,0.49926752700000004,4.963769999999998,0.0,39680.0,0.0,0.0,0.0,0.0,0.0,3.358153953,0.01,0.0,-18545.0,0.0,0.0,0.0,0.0,0.25,1.6088865540000001,0.01,0.0,0.5199999809265137,-0.47999998927116394,67.16000366210938,-0.01275634765625,0.0108642578125,1.02191162109375,34.72999954223633,0.0,0.0,-0.9108428955078125,-2.43792724609375,Closing,0.0,0.0,-189.0,0.0,0.0,0.0,0.0,0.0,
7.428694000000003,0.0,0.0,52832.0,0.0,0.0,0.0,0.0,0.125,0.821533119,4.932250999999998,0.0,-37250.0,0.0,0.0,0.0,0.0,0.0,0.49926752700000004,4.963769999999998,0.0,39680.0,0.0,0.0,0.0,0.0,0.0,3.358153953,0.01,0.0,-18545.0,0.0,0.0,0.0,0.0,0.25,1.6088865540000001,0.01,0.0,0.5199999809265137,-0.5,67.16999816894531,-0.0135498046875,0.008056640625,1.01812744140625,34.7400016784668,0.0,-2.0,-0.9108428955078125,-2.43792724609375,Closing,0.0,0.0,-189.0,0.0,0.0,0.0,0.0,0.0,
7.563221999999994,0.0,0.0,52832.0,0.0,0.0,0.0,0.0,0.125,0.821533119,4.932250999999998,0.0,-37250.0,0.0,0.0,0.0,0.0,0.0,0.498046824,4.963769999999998,0.0,39680.0,0.0,0.0,0.0,0.0,0.0,3.358153953,0.01,0.0,-18545.0,0.0,0.0,0.0,0.0,0.25,1.6076658510000001,0.01,0.0,0.5199999809265137,-0.5199999809265137,67.18000030517578,-0.01226806640625,0.00848388671875,1.0205078125,34.7400016784668,0.0,-1.0,-0.9108428955078125,-2.43792724609375,Closing,0.0,0.0,-189.0,0.0,0.0,0.0,0.0,0.0,
7.696248999999996,0.0,0.0,52832.0,0.0,0.0,0.0,0.0,0.125,0.821533119,4.932250999999998,0.0,-37250.0,0.0,0.0,0.0,0.0,0.0,0.49926752700000004,4.963769999999998,0.0,39680.0,0.0,0.0,0.0,0.0,0.0,3.359374656,0.01,0.0,-18545.0,0.0,0.0,0.0,0.0,0.25,1.6076658510000001,0.01,0.0,0.5199999809265137,-0.5299999713897705,67.19000244140625,-0.01165771484375,0.01007080078125,1.01763916015625,34.7400016784668,0.0,0.0,-0.9108428955078125,-2.43792724609375,Closing,0.0,0.0,-189.0,0.0,0.0,0.0,0.0,0.0,
7.820396000000008,0.0,0.0,52832.0,0.0,0.0,0.0,0.0,0.125,0.821533119,4.932250999999998,0.0,-37250.0,0.0,0.0,0.0,0.0,0.0,0.49926752700000004,4.963769999999998,0.0,39680.0,0.0,0.0,0.0,0.0,0.0,3.35693325,0.01,0.0,-18545.0,0.0,0.0,0.0,0.0,0.25,1.6076658510000001,0.01,0.0,0.5199999809265137,-0.550000011920929,67.19999694824219,-0.01165771484375,0.0093994140625,1.02459716796875,34.7400016784668,0.0,0.0,-0.9108428955078125,-2.43792724609375,Closing,0.0,0.0,-189.0,0.0,0.0,0.0,0.0,0.0,
7.963858999999997,0.0,0.0,52832.0,0.0,0.0,0.0,0.0,0.125,0.821533119,4.932250999999998,0.0,-37250.0,0.0,0.0,0.0,0.0,0.0,0.49926752700000004,4.963769999999998,0.0,39680.0,0.0,0.0,0.0,0.0,0.0,3.358153953,0.01,0.0,-18545.0,0.0,0.0,0.0,0.0,0.25,1.6076658510000001,0.01,0.0,0.5199999809265137,-0.5600000023841858,67.19999694824219,-0.0135498046875,0.00823974609375,1.023193359375,34.7400016784668,0.0,-2.0,-0.9108428955078125,-2.43792724609375,Closing,0.0,0.0,-189.0,0.0,0.0,0.0,0.0,0.0,
8.093493000000002,0.0,0.0,52832.0,0.0,0.0,0.0,0.0,0.125,0.821533119,4.932250999999998,0.0,-37250.0,0.0,0.0,0.0,0.0,0.0,0.49926752700000004,4.963769999999998,0.0,39680.0,0.0,0.0,0.0,0.0,0.0,3.358153953,0.01,0.0,-18545.0,0.0,0.0,0.0,0.0,0.25,1.6088865540000001,0.01,0.0,0.5299999713897705,-0.5799999833106995,67.20999908447266,-0.01129150390625,0.00830078125,1.02142333984375,34.7400016784668,0.0,-1.0,-0.9108428955078125,-2.43792724609375,Closing,0.0,0.0,-189.0,0.0,0.0,0.0,0.0,0.0,
8.227983000000007,0.0,0.0,52832.0,0.0,0.0,0.0,0.0,0.125,0.821533119,4.932250999999998,0.0,-37250.0,0.0,0.0,0.0,0.0,0.0,0.49926752700000004,4.963769999999998,0.0,39680.0,0.0,0.0,0.0,0.0,0.0,3.358153953,0.01,0.0,-18545.0,0.0,0.0,0.0,0.0,0.25,1.6088865540000001,0.01,0.0,0.5299999713897705,-0.5899999737739563,67.20999908447266,-0.01397705078125,0.00750732421875,1.02459716796875,34.7400016784668,0.0,-3.0,-0.9108428955078125,-2.43792724609375,Closing,0.0,0.0,-189.0,0.0,0.0,0.0,0.0,0.0,
8.366957999999999,0.0,0.0,52832.0,0.0,0.0,0.0,0.0,0.125,0.821533119,4.932250999999998,0.0,-37250.0,0.0,0.0,0.0,0.0,0.0,0.498046824,4.963769999999998,0.0,39680.0,0.0,0.0,0.0,0.0,0.0,3.35693325,0.01,0.0,-18545.0,0.0,0.0,0.0,0.0,0.25,1.6076658510000001,0.01,0.0,0.5299999713897705,-0.6000000238418579,67.22000122070312,-0.01129150390625,0.0084228515625,1.015869140625,34.7400016784668,0.0,-1.0,-0.9108428955078125,-2.43792724609375,Closing,0.0,0.0,-189.0,0.0,0.0,0.0,0.0,0.0,
8.494156000000002,0.0,0.0,52832.0,0.0,0.0,0.0,0.0,0.125,0.822753822,4.932250999999998,0.0,-37250.0,0.0,0.0,0.0,0.0,0.0,0.49926752700000004,4.963769999999998,0.0,39680.0,0.0,0.0,0.0,0.0,0.0,3.359374656,0.01,0.0,-18545.0,0.0,0.0,0.0,0.0,0.25,1.6101072570000001,0.01,0.0,0.5299999713897705,-0.6000000238418579,67.2300033569336,-0.0118408203125,0.00885009765625,1.0234375,34.7400016784668,0.0,-1.0,-0.9108428955078125,-2.43792724609375,Closing,0.0,0.0,-189.0,0.0,0.0,0.0,0.0,0.0,
8.628930999999996,0.0,0.0,52832.0,0.0,0.0,0.0,0.0,0.125,0.821533119,4.932250999999998,0.0,-37250.0,0.0,0.0,0.0,0.0,0.0,0.49926752700000004,4.963769999999998,0.0,39680.0,0.0,0.0,0.0,0.0,0.0,3.358153953,0.01,0.0,-18545.0,0.0,0.0,0.0,0.0,0.25,1.6076658510000001,0.01,0.0,0.5299999713897705,-0.6100000143051147,67.23999786376953,-0.01519775390625,0.0125732421875,1.0228271484375,34.7400016784668,0.0,1.0,-0.9108428955078125,-2.43792724609375,Closing,0.0,0.0,-189.0,0.0,0.0,0.0,0.0,0.0,
8.773141000000003,0.0,0.0,52832.0,0.0,0.0,0.0,0.0,0.125,0.821533119,4.932250999999998,0.0,-37250.0,0.0,0.0,0.0,0.0,0.0,0.49926752700000004,4.963769999999998,0.0,39680.0,0.0,0.0,0.0,0.0,0.0,3.359374656,0.01,0.0,-18545.0,0.0,0.0,0.0,0.0,0.25,1.6088865540000001,0.01,0.0,0.5299999713897705,-0.6100000143051147,67.23999786376953,-0.01055908203125,0.01123046875,1.024169921875,34.7400016784668,0.0,1.0,-0.9108428955078125,-2.43792724609375,Closing,0.0,0.0,-189.0,0.0,0.0,0.0,0.0,0.0,
8.963759999999995,0.0,0.0,52832.0,0.0,0.0,0.0,0.0,0.125,0.822753822,4.932250999999998,0.0,-37250.0,0.0,0.0,0.0,0.0,0.0,0.50048823,4.963769999999998,0.0,39680.0,0.0,0.0,0.0,0.0,0.0,3.358153953,0.01,0.0,-18545.0,0.0,0.0,0.0,0.0,0.25,1.6076658510000001,0.01,0.0,0.5299999713897705,-0.6200000047683716,67.25,-0.015380859375,0.0084228515625,1.0208740234375,34.72999954223633,0.0,-2.0,-0.9108428955078125,-2.43792724609375,Closing,0.0,0.0,-189.0,0.0,0.0,0.0,0.0,0.0,
9.163820000000007,0.0,0.0,52832.0,0.0,0.0,0.0,0.0,0.125,0.821533119,4.932250999999998,0.0,-37250.0,0.0,0.0,0.0,0.0,0.0,0.49926752700000004,4.963769999999998,0.0,39680.0,0.0,0.0,0.0,0.0,0.0,3.358153953,0.01,0.0,-18545.0,0.0,0.0,0.0,0.0,0.25,1.6076658510000001,0.01,0.0,0.5299999713897705,-0.6299999952316284,67.2699966430664,-0.010986328125,0.00994873046875,1.01544189453125,34.72999954223633,0.0,0.0,-0.9108428955078125,-2.43792724609375,Closing,0.0,0.0,-189.0,0.0,0.0,0.0,0.0,0.0,
9.366107000000003,0.0,0.0,52832.0,0.0,0.0,0.0,0.0,0.125,0.821533119,4.932250999999998,0.0,-37250.0,0.0,0.0,0.0,0.0,0.0,0.49926752700000004,4.963769999999998,0.0,39680.0,0.0,0.0,0.0,0.0,0.0,3.359374656,0.01,0.0,-18545.0,0.0,0.0,0.0,0.0,0.25,1.6088865540000001,0.01,0.0,0.5199999809265137,-0.6299999952316284,67.27999877929688,-0.01141357421875,0.00848388671875,1.02325439453125,34.779998779296875,0.0,0.0,-0.9108428955078125,-2.43792724609375,Closing,0.0,0.0,-189.0,0.0,0.0,0.0,0.0,0.0,
9.505307,0.0,0.0,52832.0,0.0,0.0,0.0,0.0,0.125,0.821533119,4.932250999999998,0.0,-37250.0,0.0,0.0,0.0,0.0,0.0,0.49926752700000004,4.963769999999998,0.0,39680.0,0.0,0.0,0.0,0.0,0.0,3.358153953,0.01,0.0,-18545.0,0.0,0.0,0.0,0.0,0.25,1.6088865540000001,0.01,0.0,0.5299999713897705,-0.6399999856948853,67.27999877929688,-0.01373291015625,0.0115966796875,1.01885986328125,34.779998779296875,0.0,1.0,-0.9108428955078125,-2.43792724609375,Closing,0.0,0.0,-189.0,0.0,0.0,0.0,0.0,0.0,
9.619630999999995,0.0,0.0,52832.0,0.0,0.0,0.0,0.0,0.125,0.821533119,4.932250999999998,0.0,-37250.0,0.0,0.0,0.0,0.0,0.0,0.49926752700000004,4.963769999999998,0.0,39680.0,0.0,0.0,0.0,0.0,0.0,3.358153953,0.01,0.0,-18545.0,0.0,0.0,0.0,0.0,0.25,1.6088865540000001,0.01,0.0,0.5299999713897705,-0.6399999856948853,67.29000091552734,-0.01165771484375,0.00921630859375,1.02197265625,34.779998779296875,0.0,0.0,-0.9108428955078125,-2.43792724609375,Closing,0.0,0.0,-189.0,0.0,0.0,0.0,0.0,0.0,
9.722167,0.0,0.0,52832.0,0.0,0.0,0.0,0.0,0.125,0.821533119,4.932250999999998,0.0012207029999999897,-37250.0,0.0,0.0,0.0,0.0,0.0,0.49926752700000004,4.963769999999998,0.0,39680.0,0.0,0.0,0.0,0.0,0.0,3.358153953,0.01,0.0,-18545.0,0.0,0.0,0.0,0.0,0.25,1.6076658510000001,0.01,0.0,0.5299999713897705,-0.6399999856948853,67.29000091552734,-0.012451171875,0.00830078125,1.02099609375,34.779998779296875,0.0,-1.0,-0.9108428955078125,-2.43792724609375,Closing,0.0,0.0,-189.0,0.0,0.0,0.0,0.0,0.0,
9.836130999999995,0.0,0.0,52832.0,0.0,0.0,0.0,0.0,0.125,0.821533119,4.932250999999998,0.0,-37250.0,0.0,0.0,0.0,0.0,0.0,0.49926752700000004,4.963769999999998,0.0,39680.0,0.0,0.0,0.0,0.0,0.0,3.358153953,0.01,0.0,-18545.0,0.0,0.0,0.0,0.0,0.25,1.6076658510000001,0.01,0.0,0.5299999713897705,-0.6399999856948853,67.29000091552734,-0.01275634765625,0.0101318359375,1.0255126953125,34.779998779296875,0.0,0.0,-0.9108428955078125,-2.43792724609375,Closing,0.0,0.0,-189.0,0.0,0.0,0.0,0.0,0.0,
9.935646999999998,0.0,0.0,52832.0,0.0,0.0,0.0,0.0,0.125,0.821533119,4.932250999999998,0.0,-37250.0,0.0,0.0,0.0,0.0,0.0,0.49926752700000004,4.963769999999998,0.0,39680.0,0.0,0.0,0.0,0.0,0.0,3.358153953,0.01,0.0,-18545.0,0.0,0.0,0.0,0.0,0.25,1.6076658510000001,0.01,0.0,0.5400000214576721,-0.6399999856948853,67.30000305175781,-0.01177978515625,0.00592041015625,1.01959228515625,34.7400016784668,0.0,-3.0,-0.9108428955078125,-2.43792724609375,Closing,0.0,0.0,-189.0,0.0,0.0,0.0,0.0,0.0,
10.049644,0.0,0.0,52832.0,0.0,0.0,0.0,0.0,0.125,0.821533119,4.932250999999998,0.0,-37250.0,0.0,0.0,0.0,0.0,0.0,0.498046824,4.963769999999998,0.0,39680.0,0.0,0.0,0.0,0.0,0.0,3.358153953,0.01,0.0,-18545.0,0.0,0.0,0.0,0.0,0.25,1.6076658510000001,0.01,0.0,0.5299999713897705,-0.6499999761581421,67.30000305175781,-0.01300048828125,0.00994873046875,1.0208740234375,34.7400016784668,0.0,0.0,-0.9108428955078125,-2.43792724609375,Closing,0.0,0.0,-189.0,0.0,0.0,0.0,0.0,0.0,
10.147570999999996,0.0,0.0,52832.0,0.0,0.0,0.0,0.0,0.125,0.821533119,4.932250999999998,0.0,-37250.0,0.0,0.0,0.0,0.0,0.0,0.49926752700000004,4.963769999999998,0.0,39680.0,0.0,0.0,0.0,0.0,0.0,3.358153953,0.01,0.0,-18545.0,0.0,0.0,0.0,0.0,0.25,1.6076658510000001,0.01,0.0,0.5299999713897705,-0.6499999761581421,67.30999755859375,-0.0120849609375,0.0081787109375,1.0263671875,34.7400016784668,0.0,-1.0,-0.9108428955078125,-2.43792724609375,Closing,0.0,0.0,-189.0,0.0,0.0,0.0,0.0,0.0,
10.297991999999999,0.0,0.0,52832.0,0.0,0.0,0.0,0.0,0.125,0.821533119,4.932250999999998,0.0,-37250.0,0.0,0.0,0.0,0.0,0.0,0.49926752700000004,4.963769999999998,0.0,39680.0,0.0,0.0,0.0,0.0,0.0,3.358153953,0.01,0.0,-18545.0,0.0,0.0,0.0,0.0,0.25,1.6076658510000001,0.01,0.0,0.5299999713897705,-0.6499999761581421,67.31999969482422,-0.01416015625,0.009521484375,1.02386474609375,34.7400016784668,0.0,0.0,-0.9108428955078125,-2.43792724609375,Closing,0.0,0.0,-189.0,0.0,0.0,0.0,0.0,0.0,
10.392989000000002,0.0,0.0,52832.0,0.0,0.0,0.0,0.0,0.125,0.821533119,0.01,0.0,-37250.0,0.0,0.0,-0.0,0.0,0.125,0.49926752700000004,0.01,0.0,39680.0,0.0,0.0,0.0,0.0,0.0,3.35693325,0.01,0.0,-18545.0,0.0,0.0,-0.0,0.0,0.25,1.6076658510000001,0.01,0.0,0.5199999809265137,-0.6600000262260437,67.31999969482422,-0.01263427734375,0.0089111328125,1.0177001953125,34.7599983215332,0.0,0.0,-0.9108428955078125,-2.43792724609375,Closing,0.0,0.0,-189.0,0.0,0.0,0.0,0.0,0.0,
10.525039000000005,0.0,0.0,52832.0,0.0,0.0,0.0,0.0,0.125,0.821533119,0.01,0.0,-37250.0,0.0,0.0,-0.0,0.0,0.125,0.49926752700000004,0.01,0.0,39680.0,0.0,0.0,0.0,0.0,0.0,3.358153953,0.01,0.0,-18545.0,0.0,0.0,-0.0,0.0,0.25,1.6076658510000001,0.01,0.0,0.5299999713897705,-0.6600000262260437,67.33000183105469,-0.00848388671875,0.00994873046875,1.02239990234375,34.7599983215332,0.0,1.0,-0.9108428955078125,-2.43792724609375,Closing,0.0,0.0,-189.0,0.0,0.0,0.0,0.0,0.0,
10.648854999999996,0.0,0.0,52832.0,0.0,0.0,0.0,0.0,0.125,0.821533119,0.01,0.0,-37250.0,0.0,0.0,-0.0,0.0,0.125,0.50048823,0.01,0.0,39680.0,0.0,0.0,0.0,0.0,0.0,3.358153953,0.01,0.0,-18545.0,0.0,0.0,-0.0,0.0,0.25,1.6076658510000001,0.01,0.0,0.5299999713897705,-0.6700000166893005,67.33999633789062,-0.01251220703125,0.00909423828125,1.02227783203125,34.7599983215332,0.0,0.0,-0.9108428955078125,-2.43792724609375,Closing,0.0,0.0,-189.0,0.0,0.0,0.0,0.0,0.0,
10.781812999999994,0.0,0.0,52832.0,0.0,0.0,0.0,0.0,0.125,0.821533119,0.01,-0.0012207029999999897,-37250.0,0.0,0.0,-0.0,0.0,0.125,0.49926752700000004,0.01,0.0,39680.0,0.0,0.0,0.0,0.0,0.0,3.358153953,0.01,-0.0012207030000004337,-18545.0,0.0,0.0,-0.0,0.0,0.25,1.6088865540000001,0.01,0.0,0.5299999713897705,-0.6700000166893005,67.33999633789062,-0.01141357421875,0.01031494140625,1.021728515625,34.7599983215332,0.0,1.0,-0.9108428955078125,-2.43792724609375,Closing,0.0,0.0,-189.0,0.0,0.0,0.0,0.0,0.0,
10.895698000000005,0.0,0.0,52832.0,0.0,0.0,0.0,0.0,0.125,0.821533119,0.01,0.0,-37250.0,0.0,0.0,-0.0,0.0,0.125,0.49926752700000004,0.01,0.0,39680.0,0.0,0.0,0.0,0.0,0.0,3.358153953,0.01,0.0,-18545.0,0.0,0.0,-0.0,0.0,0.25,1.6076658510000001,0.01,0.0,0.5299999713897705,-0.6700000166893005,67.33999633789062,-0.01324462890625,0.0113525390625,1.0244140625,34.7599983215332,0.0,1.0,-0.9108428955078125,-2.43792724609375,Closing,0.0,0.0,-189.0,0.0,0.0,0.0,0.0,0.0,
10.993312000000005,0.0,0.0,52832.0,0.0,0.0,0.0,0.0,0.125,0.820312416,0.01,0.0,-37250.0,0.0,0.0,-0.0,0.0,0.125,0.50048823,0.01,0.0,39680.0,0.0,0.0,0.0,0.0,0.0,3.359374656,0.01,0.0,-18545.0,0.0,0.0,-0.0,0.0,0.25,1.6076658510000001,0.01,0.0,0.5299999713897705,-0.6700000166893005,67.3499984741211,-0.01336669921875,0.00799560546875,1.02349853515625,34.77000045776367,0.0,-1.0,-0.9108428955078125,-2.43792724609375,Closing,0.0,0.0,-189.0,0.0,0.0,0.0,0.0,0.0,
11.103159,0.0,0.0,52832.0,0.0,0.0,0.0,0.0,0.125,0.821533119,0.01,0.0,-37250.0,0.0,0.0,-0.0,0.0,0.125,0.49926752700000004,0.01,0.0,39680.0,0.0,0.0,0.0,0.0,0.0,3.358153953,0.01,0.0,-18545.0,0.0,0.0,-0.0,0.0,0.25,1.6076658510000001,0.01,0.0,0.5299999713897705,-0.6700000166893005,67.3499984741211,-0.0089111328125,0.0098876953125,1.02020263671875,34.77000045776367,0.0,1.0,-0.9108428955078125,-2.43792724609375,Closing,0.0,0.0,-189.0,0.0,0.0,0.0,0.0,0.0,
11.196837,0.0,0.0,52832.0,0.0,0.0,0.0,0.0,0.125,0.821533119,0.01,0.0,-37250.0,0.0,0.0,-0.0,0.0,0.125,0.49926752700000004,0.01,0.0,39680.0,0.0,0.0,0.0,0.0,0.0,3.359374656,0.01,0.0,-18545.0,0.0,0.0,-0.0,0.0,0.25,1.6088865540000001,0.01,0.0,0.5199999809265137,-0.6800000071525574,67.36000061035156,-0.01324462890625,0.01025390625,1.01995849609375,34.77000045776367,0.0,0.0,-0.9108428955078125,-2.43792724609375,Closing,0.0,0.0,-189.0,0.0,0.0,0.0,0.0,0.0,
11.291815000000001,0.0,0.0,52832.0,0.0,0.0,0.0,0.0,0.125,0.820312416,0.01,0.0,-37250.0,0.0,0.0,-0.0,0.0,0.125,0.49926752700000004,0.01,0.0,39680.0,0.0,0.0,0.0,0.0,0.0,3.358153953,0.01,0.0,-18545.0,0.0,0.0,-0.0,0.0,0.25,1.6088865540000001,0.01,0.0,0.5199999809265137,-0.6800000071525574,67.37000274658203,-0.01385498046875,0.010986328125,1.01904296875,34.77000045776367,0.0,0.0,-0.9108428955078125,-2.43792724609375,Closing,0.0,0.0,-189.0,0.0,0.0,0.0,0.0,0.0,
11.392258000000002,0.0,0.0,52832.0,0.0,0.0,0.0,0.0,0.125,0.821533119,0.01,0.0,-37250.0,0.0,0.0,-0.0,0.0,0.125,0.49926752700000004,0.01,0.0,39680.0,0.0,0.0,0.0,0.0,0.0,3.358153953,0.01,0.0,-18545.0,0.0,0.0,-0.0,0.0,0.25,1.6076658510000001,0.01,0.0,0.5299999713897705,-0.6700000166893005,67.37000274658203,-0.01226806640625,0.011474609375,1.02874755859375,34.790000915527344,0.0,1.0,-0.9108428955078125,-2.43792724609375,Closing,0.0,0.0,-189.0,0.0,0.0,0.0,0.0,0.0,
11.528702000000004,0.0,0.0,52832.0,0.0,0.0,0.0,0.0,0.125,0.821533119,0.01,0.0,-37250.0,0.0,0.0,-0.0,0.0,0.125,0.498046824,0.01,0.0,39680.0,0.0,0.0,0.0,0.0,0.0,3.358153953,0.01,0.0,-18545.0,0.0,0.0,-0.0,0.0,0.25,1.6088865540000001,0.01,0.0,0.5299999713897705,-0.6700000166893005,67.37999725341797,-0.01177978515625,0.0086669921875,1.02716064453125,34.790000915527344,0.0,0.0,-0.9108428955078125,-2.43792724609375,Closing,0.0,0.0,-189.0,0.0,0.0,0.0,0.0,0.0,
11.64739,0.0,0.0,52832.0,0.0,0.0,0.0,0.0,0.125,0.821533119,0.01,0.0,-37250.0,0.0,0.0,-0.0,0.0,0.125,0.49926752700000004,0.01,0.0,39680.0,0.0,0.0,0.0,0.0,0.0,3.358153953,0.01,0.0,-18545.0,0.0,0.0,-0.0,0.0,0.25,1.6088865540000001,0.01,0.0,0.5299999713897705,-0.6700000166893005,67.37999725341797,-0.01483154296875,0.0089111328125,1.0223388671875,34.790000915527344,0.0,-1.0,-0.9108428955078125,-2.43792724609375,Closing,0.0,0.0,-189.0,0.0,0.0,0.0,0.0,0.0,
11.766789000000005,0.0,0.0,52832.0,0.0,0.0,0.0,0.0,0.125,0.821533119,0.01,0.0,-37250.0,0.0,0.0,-0.0,0.0,0.125,0.49926752700000004,0.01,0.0,39680.0,0.0,0.0,0.0,0.0,0.0,3.35693325,0.01,0.0,-18545.0,0.0,0.0,-0.0,0.0,0.25,1.6088865540000001,0.01,0.0,0.5299999713897705,-0.6800000071525574,67.37999725341797,-0.0147705078125,0.008056640625,1.02362060546875,34.790000915527344,0.0,-2.0,-0.9108428955078125,-2.43792724609375,Closing,0.0,0.0,-189.0,0.0,0.0,0.0,0.0,0.0,
11.852502999999997,0.0,0.0,52832.0,0.0,0.0,0.0,0.0,0.125,0.821533119,0.01,0.0,-37250.0,0.0,0.0,-0.0,0.0,0.125,0.50048823,0.01,0.0,39680.0,0.0,0.0,0.0,0.0,0.0,3.359374656,0.01,0.0,-18545.0,0.0,0.0,-0.0,0.0,0.25,1.6076658510000001,0.01,0.0,0.5299999713897705,-0.6800000071525574,67.37999725341797,-0.0167236328125,0.0115966796875,1.024169921875,34.790000915527344,0.0,3.0,-0.9108428955078125,-2.43792724609375,Closing,0.0,0.0,-189.0,0.0,0.0,0.0,0.0,0.0,
11.969834000000002,0.0,0.0,52832.0,0.0,0.0,0.0,0.0,0.125,0.820312416,0.01,0.0,-37250.0,0.0,0.0,-0.0,0.0,0.125,0.49926752700000004,0.01,0.0,39680.0,0.0,0.0,0.0,0.0,0.0,3.358153953,0.01,0.0,-18545.0,0.0,0.0,-0.0,0.0,0.25,1.6088865540000001,0.01,0.0,0.5299999713897705,-0.6800000071525574,67.37000274658203,-0.0133056640625,0.0111083984375,1.02813720703125,34.810001373291016,0.0,1.0,-0.9108428955078125,-2.43792724609375,Closing,0.0,0.0,-189.0,0.0,0.0,0.0,0.0,0.0,
12.075784,0.0,0.0,52832.0,0.0,0.0,0.0,0.0,0.125,0.821533119,0.01,0.0,-37250.0,0.0,0.0,-0.0,0.0,0.125,0.49926752700000004,0.01,0.0012207029999995456,39680.0,0.0,0.0,0.0,0.0,0.0,3.358153953,0.01,0.0,-18545.0,0.0,0.0,-0.0,0.0,0.25,1.6076658510000001,0.01,0.0,0.5299999713897705,-0.6800000071525574,67.37000274658203,-0.01165771484375,0.00836181640625,1.015625,34.810001373291016,0.0,0.0,-0.9108428955078125,-2.43792724609375,Closing,0.0,0.0,-189.0,0.0,0.0,0.0,0.0,0.0,
12.184820000000007,0.0,0.0,52832.0,0.0,0.0,0.0,0.0,0.125,0.821533119,0.01,0.0,-37250.0,0.0,0.0,-0.0,0.0,0.125,0.49926752700000004,0.01,0.0,39680.0,0.0,0.0,0.0,0.0,0.0,3.358153953,0.01,0.0,-18545.0,0.0,0.0,-0.0,0.0,0.25,1.6076658510000001,0.01,0.0,0.5299999713897705,-0.6800000071525574,67.37000274658203,-0.01422119140625,0.00897216796875,1.02239990234375,34.810001373291016,0.0,-1.0,-0.9108428955078125,-2.43792724609375,Closing,0.0,0.0,-189.0,0.0,0.0,0.0,0.0,0.0,
12.310180000000008,0.0,0.0,52832.0,0.0,0.0,0.0,0.0,0.125,0.821533119,0.01,0.0,-37250.0,0.0,0.0,-0.0,0.0,0.125,0.49926752700000004,0.01,0.0,39680.0,0.0,0.0,0.0,0.0,0.0,3.358153953,0.01,0.0,-18545.0,0.0,0.0,-0.0,0.0,0.25,1.6076658510000001,0.01,0.0,0.5400000214576721,-0.6800000071525574,67.37000274658203,-0.0120849609375,0.00897216796875,1.01849365234375,34.810001373291016,0.0,0.0,-0.9108428955078125,-2.43792724609375,Closing,0.0,0.0,-189.0,0.0,0.0,0.0,0.0,0.0,
12.435167000000002,0.0,0.0,52832.0,0.0,0.0,0.0,0.0,0.125,0.821533119,0.01,0.0,-37250.0,0.0,0.0,-0.0,0.0,0.125,0.49926752700000004,0.01,0.0,39680.0,0.0,0.0,0.0,0.0,0.0,3.359374656,0.01,0.0,-18545.0,0.0,0.0,-0.0,0.0,0.25,1.6088865540000001,0.01,0.0,0.5400000214576721,-0.6800000071525574,67.37000274658203,-0.01580810546875,0.0079345703125,1.021728515625,34.810001373291016,0.0,-3.0,-0.9108428955078125,-2.43792724609375,Closing,0.0,0.0,-189.0,0.0,0.0,0.0,0.0,0.0,
12.531011,0.0,0.0,52832.0,0.0,0.0,0.0,0.0,0.125,0.821533119,0.01,0.0,-37250.0,0.0,0.0,-0.0,0.0,0.125,0.49926752700000004,0.01,0.0,39680.0,0.0,0.0,0.0,0.0,0.0,3.358153953,0.01,0.0,-18545.0,0.0,0.0,-0.0,0.0,0.25,1.6076658510000001,0.01,0.0,0.5299999713897705,-0.6700000166893005,67.37000274658203,-0.011474609375,0.00640869140625,1.02288818359375,34.79999923706055,0.0,-2.0,-0.9108428955078125,-2.43792724609375,Closing,0.0,0.0,-189.0,0.0,0.0,0.0,0.0,0.0,
12.637883000000002,0.0,0.0,52832.0,0.0,0.0,0.0,0.0,0.125,0.821533119,0.01,0.0,-37250.0,0.0,0.0,-0.0,0.0,0.125,0.49926752700000004,0.01,0.0,39680.0,0.0,0.0,0.0,0.0,0.0,3.359374656,0.01,0.0,-18545.0,0.0,0.0,-0.0,0.0,0.25,1.6088865540000001,0.01,0.0,0.5199999809265137,-0.6800000071525574,67.37000274658203,-0.010986328125,0.01080322265625,1.018310546875,34.79999923706055,0.0,1.0,-0.9108428955078125,-2.43792724609375,Closing,0.0,0.0,-189.0,0.0,0.0,0.0,0.0,0.0,
12.751323000000005,0.0,0.0,52832.0,0.0,0.0,0.0,0.0,0.125,0.821533119,0.01,0.0,-37250.0,0.0,0.0,-0.0,0.0,0.125,0.49926752700000004,0.01,0.0,39680.0,0.0,0.0,0.0,0.0,0.0,3.358153953,0.01,0.0,-18545.0,0.0,0.0,-0.0,0.0,0.25,1.6088865540000001,0.01,0.0,0.5299999713897705,-0.6700000166893005,67.36000061035156,-0.00946044921875,0.008056640625,1.02325439453125,34.79999923706055,0.0,0.0,-0.9108428955078125,-2.43792724609375,Closing,0.0,0.0,-189.0,0.0,0.0,0.0,0.0,0.0,
12.865131999999997,0.0,0.0,52832.0,0.0,0.0,0.0,0.0,0.125,0.821533119,0.01,0.0,-37250.0,0.0,0.0,-0.0,0.0,0.125,0.49926752700000004,0.01,0.0,39680.0,0.0,0.0,0.0,0.0,0.0,3.358153953,0.01,0.0,-18545.0,0.0,0.0,-0.0,0.0,0.25,1.6076658510000001,0.01,0.0,0.5299999713897705,-0.6700000166893005,67.3499984741211,-0.011474609375,0.01123046875,1.01959228515625,34.79999923706055,0.0,1.0,-0.9108428955078125,-2.43792724609375,Closing,0.0,0.0,-189.0,0.0,0.0,0.0,0.0,0.0,
12.974099000000002,0.0,0.0,52832.0,0.0,0.0,0.0,0.0,0.125,0.822753822,0.01,0.0012207029999999897,-37250.0,0.0,0.0,-0.0,0.0,0.125,0.49926752700000004,0.01,0.0,39680.0,0.0,0.0,0.0,0.0,0.0,3.358153953,0.01,0.0,-18545.0,0.0,0.0,-0.0,0.0,0.25,1.6076658510000001,0.01,0.0,0.5199999809265137,-0.6800000071525574,67.3499984741211,-0.01007080078125,0.00726318359375,1.0201416015625,34.779998779296875,0.0,-1.0,-0.9108428955078125,-2.43792724609375,Closing,0.0,0.0,-189.0,0.0,0.0,0.0,0.0,0.0,
13.076168000000004,0.0,0.0,52832.0,0.0,0.0,0.0,0.0,0.125,0.821533119,0.01,0.0,-37250.0,0.0,0.0,-0.0,0.0,0.125,0.49926752700000004,0.01,0.0,39680.0,0.0,0.0,0.0,0.0,0.0,3.358153953,0.01,0.0,-18545.0,0.0,0.0,-0.0,0.0,0.25,1.6076658510000001,0.01,0.0,0.5299999713897705,-0.6800000071525574,67.3499984741211,-0.01312255859375,0.01031494140625,1.02398681640625,34.779998779296875,0.0,0.0,-0.9108428955078125,-2.43792724609375,Closing,0.0,0.0,-189.0,0.0,0.0,0.0,0.0,0.0,
13.194002000000008,0.0,0.0,52832.0,0.0,0.0,0.0,0.0,0.125,0.821533119,0.01,0.0,-37250.0,0.0,0.0,-0.0,0.0,0.125,0.49926752700000004,0.01,0.0,39680.0,0.0,0.0,0.0,0.0,0.0,3.358153953,0.01,0.0,-18545.0,0.0,0.0,-0.0,0.0,0.25,1.6076658510000001,0.01,0.0,0.5299999713897705,-0.6800000071525574,67.3499984741211,-0.01239013671875,0.00909423828125,1.0213623046875,34.779998779296875,0.0,0.0,-0.9108428955078125,-2.43792724609375,Closing,0.0,0.0,-189.0,0.0,0.0,0.0,0.0,0.0,
13.303285000000004,0.0,0.0,52832.0,0.0,0.0,0.0,0.0,0.125,0.821533119,0.01,0.0,-37250.0,0.0,0.0,-0.0,0.0,0.125,0.49926752700000004,0.01,0.0,39680.0,0.0,0.0,0.0,0.0,0.0,3.358153953,0.01,0.0,-18545.0,0.0,0.0,-0.0,0.0,0.25,1.6076658510000001,0.01,0.0,0.5199999809265137,-0.6800000071525574,67.3499984741211,-0.01202392578125,0.010009765625,1.02081298828125,34.779998779296875,0.0,0.0,-0.9108428955078125,-2.43792724609375,Closing,0.0,0.0,-189.0,0.0,0.0,0.0,0.0,0.0,
13.412410000000003,0.0,0.0,52832.0,0.0,0.0,0.0,0.0,0.125,0.821533119,0.01,0.0,-37250.0,0.0,0.0,-0.0,0.0,0.125,0.49926752700000004,0.01,0.0,39680.0,0.0,0.0,0.0,0.0,0.0,3.358153953,0.01,0.0,-18545.0,0.0,0.0,-0.0,0.0,0.25,1.6076658510000001,0.01,0.0,0.5199999809265137,-0.6800000071525574,67.33999633789062,-0.0137939453125,0.0084228515625,1.020263671875,34.779998779296875,0.0,-1.0,-0.9108428955078125,-2.43792724609375,Closing,0.0,0.0,-189.0,0.0,0.0,0.0,0.0,0.0,
13.530521000000007,0.0,0.0,52832.0,0.0,0.0,0.0,0.0,0.125,0.821533119,0.01,0.0,-37250.0,0.0,0.0,-0.0,0.0,0.125,0.49926752700000004,0.01,0.0,39680.0,0.0,0.0,0.0,0.0,0.0,3.35693325,0.01,0.0,-18545.0,0.0,0.0,-0.0,0.0,0.25,1.6076658510000001,0.01,0.0,0.5199999809265137,-0.6800000071525574,67.33999633789062,-0.01171875,0.0128173828125,1.019775390625,34.790000915527344,0.0,3.0,-0.9108428955078125,-2.43792724609375,Closing,0.0,0.0,-189.0,0.0,0.0,0.0,0.0,0.0,
13.647335000000007,0.0,0.0,52832.0,0.0,0.0,0.0,0.0,0.125,0.821533119,0.01,0.0,-37250.0,0.0,0.0,-0.0,0.0,0.125,0.49926752700000004,0.01,0.0,39680.0,0.0,0.0,0.0,0.0,0.0,3.358153953,0.01,0.0,-18545.0,0.0,0.0,-0.0,0.0,0.25,1.6076658510000001,0.01,0.0,0.5199999809265137,-0.6800000071525574,67.33999633789062,-0.01123046875,0.00970458984375,1.02655029296875,34.790000915527344,0.0,0.0,-0.9108428955078125,-2.43792724609375,Closing,0.0,0.0,-189.0,0.0,0.0,0.0,0.0,0.0,
13.767081999999995,0.0,0.0,52832.0,0.0,0.0,0.0,0.0,0.125,0.821533119,0.01,0.0,-37250.0,0.0,0.0,-0.0,0.0,0.125,0.49926752700000004,0.01,0.0,39680.0,0.0,0.0,0.0,0.0,0.0,3.358153953,0.01,0.0,-18545.0,0.0,0.0,-0.0,0.0,0.25,1.6076658510000001,0.01,0.0,0.5199999809265137,-0.6800000071525574,67.33000183105469,-0.0126953125,0.0115966796875,1.0223388671875,34.790000915527344,0.0,1.0,-0.9108428955078125,-2.43792724609375,Closing,0.0,0.0,-189.0,0.0,0.0,0.0,0.0,0.0,
13.868816999999995,0.0,0.0,52832.0,0.0,0.0,0.0,0.0,0.125,0.821533119,0.01,0.0,-37250.0,0.0,0.0,-0.0,0.0,0.125,0.49926752700000004,0.01,0.0,39680.0,0.0,0.0,0.0,0.0,0.0,3.358153953,0.01,0.0,-18545.0,0.0,0.0,-0.0,0.0,0.25,1.6076658510000001,0.01,0.0,0.5199999809265137,-0.6800000071525574,67.33000183105469,-0.007568359375,0.007080078125,1.021484375,34.790000915527344,0.0,0.0,-0.9108428955078125,-2.43792724609375,Closing,0.0,0.0,-189.0,0.0,0.0,0.0,0.0,0.0,
14.015665000000007,0.0,0.0,52832.0,0.0,0.0,0.0,0.0,0.125,0.821533119,0.01,0.0,-37250.0,0.0,0.0,-0.0,0.0,0.125,0.49926752700000004,0.01,0.0,39680.0,0.0,0.0,0.0,0.0,0.0,3.35693325,0.01,0.0,-18545.0,0.0,0.0,-0.0,0.0,0.25,1.6076658510000001,0.01,0.0,0.5199999809265137,-0.6800000071525574,67.33000183105469,-0.00921630859375,0.00872802734375,1.021484375,34.7599983215332,0.0,0.0,-0.9108428955078125,-2.43792724609375,Closing,0.0,0.0,-189.0,0.0,0.0,0.0,0.0,0.0,
14.150049,0.0,0.0,52832.0,0.0,0.0,0.0,0.0,0.125,0.822753822,0.01,0.0,-37250.0,0.0,0.0,-0.0,0.0,0.125,0.49926752700000004,0.01,0.0,39680.0,0.0,0.0,0.0,0.0,0.0,3.35693325,0.01,0.0,-18545.0,0.0,0.0,-0.0,0.0,0.25,1.6076658510000001,0.01,0.0,0.5199999809265137,-0.6800000071525574,67.33000183105469,-0.0140380859375,0.00732421875,1.01837158203125,34.7599983215332,0.0,-2.0,-0.9108428955078125,-2.43792724609375,Closing,0.0,0.0,-189.0,0.0,0.0,0.0,0.0,0.0,
14.267413000000001,0.0,0.0,52832.0,0.0,0.0,0.0,0.0,0.125,0.821533119,0.01,0.0,-37250.0,0.0,0.0,-0.0,0.0,0.125,0.49926752700000004,0.01,0.0,39680.0,0.0,0.0,0.0,0.0,0.0,3.358153953,0.01,0.0,-18545.0,0.0,0.0,-0.0,0.0,0.25,1.6076658510000001,0.01,0.0,0.5199999809265137,-0.6800000071525574,67.33000183105469,-0.01287841796875,0.00860595703125,1.0206298828125,34.7599983215332,0.0,-1.0,-0.9108428955078125,-2.43792724609375,Closing,0.0,0.0,-189.0,0.0,0.0,0.0,0.0,0.0,
14.376160000000004,0.0,0.0,52832.0,0.0,0.0,0.0,0.0,0.125,0.821533119,0.01,0.0,-37250.0,0.0,0.0,-0.0,0.0,0.125,0.49926752700000004,0.01,0.0,39680.0,0.0,0.0,0.0,0.0,0.0,3.358153953,0.01,0.0,-18545.0,0.0,0.0,-0.0,0.0,0.25,1.6076658510000001,0.01,0.0,0.5199999809265137,-0.6800000071525574,67.33000183105469,-0.01397705078125,0.00982666015625,1.02294921875,34.7599983215332,0.0,0.0,-0.9108428955078125,-2.43792724609375,Closing,0.0,0.0,-189.0,0.0,0.0,0.0,0.0,0.0,
14.503252000000007,0.0,0.0,52832.0,0.0,0.0,0.0,0.0,0.125,0.821533119,0.01,0.0,-37250.0,0.0,0.0,-0.0,0.0,0.125,0.49926752700000004,0.01,0.0,39680.0,0.0,0.0,0.0,0.0,0.0,3.358153953,0.01,0.0,-18545.0,0.0,0.0,-0.0,0.0,0.25,1.6076658510000001,0.01,0.0,0.5199999809265137,-0.6800000071525574,67.31999969482422,-0.01409912109375,0.0084228515625,1.0257568359375,34.79999923706055,0.0,-1.0,-0.9108428955078125,-2.43792724609375,Closing,0.0,0.0,-189.0,0.0,0.0,0.0,0.0,0.0,
14.633292,0.0,0.0,52832.0,0.0,0.0,0.0,0.0,0.125,0.822753822,0.01,0.0,-37250.0,0.0,0.0,-0.0,0.0,0.125,0.49926752700000004,0.01,0.0,39680.0,0.0,0.0,0.0,0.0,0.0,3.358153953,0.01,0.0,-18545.0,0.0,0.0,-0.0,0.0,0.25,1.6088865540000001,0.01,0.0,0.5099999904632568,-0.6800000071525574,67.31999969482422,-0.01214599609375,0.007080078125,1.02264404296875,34.79999923706055,0.0,-1.0,-0.9108428955078125,-2.43792724609375,Closing,0.0,0.0,-189.0,0.0,0.0,0.0,0.0,0.0,
14.723278000000006,0.0,0.0,52832.0,0.0,0.0,0.0,0.0,0.125,0.821533119,0.01,0.0,-37250.0,0.0,0.0,-0.0,0.0,0.125,0.49926752700000004,0.01,0.0,39680.0,0.0,0.0,0.0,0.0,0.0,3.358153953,0.01,0.0,-18545.0,0.0,0.0,-0.0,0.0,0.25,1.6088865540000001,0.01,0.0,0.5099999904632568,-0.6800000071525574,67.31999969482422,-0.0118408203125,0.00927734375,1.0218505859375,34.79999923706055,0.0,0.0,-0.9108428955078125,-2.43792724609375,Closing,0.0,0.0,-189.0,0.0,0.0,0.0,0.0,0.0,
14.850285000000003,0.0,0.0,52832.0,0.0,0.0,0.0,0.0,0.125,0.820312416,0.01,0.0,-37250.0,0.0,0.0,-0.0,0.0,0.125,0.49926752700000004,0.01,0.0,39680.0,0.0,0.0,0.0,0.0,0.0,3.359374656,0.01,0.0,-18545.0,0.0,0.0,-0.0,0.0,0.25,1.6088865540000001,0.01,0.0,0.5199999809265137,-0.6700000166893005,67.31999969482422,-0.01312255859375,0.0103759765625,1.0252685546875,34.79999923706055,0.0,0.0,-0.9108428955078125,-2.43792724609375,Closing,0.0,0.0,-189.0,0.0,0.0,0.0,0.0,0.0,
14.968322,0.0,0.0,52832.0,0.0,0.0,0.0,0.0,0.125,0.821533119,0.01,0.0,-37250.0,0.0,0.0,-0.0,0.0,0.125,0.49926752700000004,0.01,0.0,39680.0,0.0,0.0,0.0,0.0,0.0,3.358153953,0.01,0.0,-18545.0,0.0,0.0,-0.0,0.0,0.25,1.6076658510000001,0.01,0.0,0.5199999809265137,-0.6800000071525574,67.31999969482422,-0.01177978515625,0.00885009765625,1.0172119140625,34.79999923706055,0.0,0.0,-0.9108428955078125,-2.43792724609375,Closing,0.0,0.0,-189.0,0.0,0.0,0.0,0.0,0.0,
15.099194000000002,0.0,0.0,52832.0,0.0,0.0,0.0,0.0,0.125,0.821533119,0.01,0.0,-37250.0,0.0,0.0,-0.0,0.0,0.125,0.498046824,0.01,0.0,39680.0,0.0,0.0,0.0,0.0,0.0,3.358153953,0.01,0.0,-18545.0,0.0,0.0,-0.0,0.0,0.25,1.6088865540000001,0.01,0.0,0.5199999809265137,-0.6700000166893005,67.31999969482422,-0.0152587890625,0.00665283203125,1.02313232421875,34.77000045776367,0.0,-3.0,-0.9108428955078125,-2.43792724609375,Closing,0.0,0.0,-189.0,0.0,0.0,0.0,0.0,0.0,
15.237779999999999,0.0,0.0,52832.0,0.0,0.0,0.0,0.0,0.125,0.821533119,0.01,0.0,-37250.0,0.0,0.0,-0.0,0.0,0.125,0.49926752700000004,0.01,0.0,39680.0,0.0,0.0,0.0,0.0,0.0,3.35693325,0.01,0.0,-18545.0,0.0,0.0,-0.0,0.0,0.25,1.6076658510000001,0.01,0.0,0.5199999809265137,-0.6700000166893005,67.31999969482422,-0.01202392578125,0.0101318359375,1.024658203125,34.77000045776367,0.0,0.0,-0.9108428955078125,-2.43792724609375,Closing,0.0,0.0,-189.0,0.0,0.0,0.0,0.0,0.0,
15.34375,0.0,0.0,52832.0,0.0,0.0,0.0,0.0,0.125,0.820312416,0.01,0.0,-37250.0,0.0,0.0,-0.0,0.0,0.125,0.49926752700000004,0.01,0.0,39680.0,0.0,0.0,0.0,0.0,0.0,3.358153953,0.01,0.0,-18545.0,0.0,0.0,-0.0,0.0,0.25,1.6076658510000001,0.01,0.0,0.5199999809265137,-0.6700000166893005,67.31999969482422,-0.01171875,0.0091552734375,1.0233154296875,34.77000045776367,0.0,0.0,-0.9108428955078125,-2.43792724609375,Closing,0.0,0.0,-189.0,0.0,0.0,0.0,0.0,0.0,
15.447955000000002,0.0,0.0,52832.0,0.0,0.0,0.0,0.0,0.125,0.821533119,0.01,0.0012207029999999897,-37250.0,0.0,0.0,-0.0,0.0,0.125,0.49926752700000004,0.01,0.0,39680.0,0.0,0.0,0.0,0.0,0.0,3.358153953,0.01,0.0,-18545.0,0.0,0.0,-0.0,0.0,0.25,1.6076658510000001,0.01,0.0,0.5199999809265137,-0.6700000166893005,67.30999755859375,-0.01324462890625,0.01129150390625,1.02410888671875,34.77000045776367,0.0,1.0,-0.9108428955078125,-2.43792724609375,Closing,0.0,0.0,-189.0,0.0,0.0,0.0,0.0,0.0,
15.550309999999998,0.0,0.0,52832.0,0.0,0.0,0.0,0.0,0.125,0.821533119,0.01,0.0,-37250.0,0.0,0.0,-0.0,0.0,0.125,0.49926752700000004,0.01,0.0,39680.0,0.0,0.0,0.0,0.0,0.0,3.359374656,0.01,0.0,-18545.0,0.0,0.0,-0.0,0.0,0.25,1.6076658510000001,0.01,0.0,0.5199999809265137,-0.6800000071525574,67.30000305175781,-0.01025390625,0.01080322265625,1.02642822265625,34.79999923706055,0.0,1.0,-0.9108428955078125,-2.43792724609375,Closing,0.0,0.0,-189.0,0.0,0.0,0.0,0.0,0.0,
15.667911999999996,0.0,0.0,52832.0,0.0,0.0,0.0,0.0,0.125,0.820312416,0.01,0.0,-37250.0,0.0,0.0,-0.0,0.0,0.125,0.49926752700000004,0.01,0.0,39680.0,0.0,0.0,0.0,0.0,0.0,3.35693325,0.01,0.0,-18545.0,0.0,0.0,-0.0,0.0,0.25,1.6076658510000001,0.01,0.0,0.5099999904632568,-0.6800000071525574,67.30000305175781,-0.011962890625,0.01104736328125,1.020263671875,34.79999923706055,0.0,1.0,-0.9108428955078125,-2.43792724609375,Closing,0.0,0.0,-189.0,0.0,0.0,0.0,0.0,0.0,
15.784282999999995,0.0,0.0,52832.0,0.0,0.0,0.0,0.0,0.125,0.821533119,0.01,0.0,-37250.0,0.0,0.0,-0.0,0.0,0.125,0.49926752700000004,0.01,0.0,39680.0,0.0,0.0,0.0,0.0,0.0,3.359374656,0.01,0.0,-18545.0,0.0,0.0,-0.0,0.0,0.25,1.6076658510000001,0.01,0.0,0.5199999809265137,-0.6800000071525574,67.30000305175781,-0.011962890625,0.0081787109375,1.021484375,34.79999923706055,0.0,0.0,-0.9108428955078125,-2.43792724609375,Closing,0.0,0.0,-189.0,0.0,0.0,0.0,0.0,0.0,
15.905540999999998,0.0,0.0,52832.0,0.0,0.0,0.0,0.0,0.125,0.821533119,0.01,0.0,-37250.0,0.0,0.0,-0.0,0.0,0.125,0.49926752700000004,0.01,0.0,39680.0,0.0,0.0,0.0,0.0,0.0,3.358153953,0.01,0.0,-18545.0,0.0,0.0,-0.0,0.0,0.25,1.6088865540000001,0.01,0.0,0.5199999809265137,-0.6800000071525574,67.29000091552734,-0.01416015625,0.00653076171875,1.02276611328125,34.79999923706055,0.0,-3.0,-0.9108428955078125,-2.43792724609375,Closing,0.0,0.0,-189.0,0.0,0.0,0.0,0.0,0.0,
16.032974000000003,0.0,0.0,52832.0,0.0,0.0,0.0,0.0,0.125,0.821533119,0.01,0.0,-37250.0,0.0,0.0,-0.0,0.0,0.125,0.49926752700000004,0.01,0.0,39680.0,0.0,0.0,0.0,0.0,0.0,3.35693325,0.01,0.0,-18545.0,0.0,0.0,-0.0,0.0,0.25,1.6076658510000001,0.01,0.0,0.5199999809265137,-0.6800000071525574,67.29000091552734,-0.0142822265625,0.00909423828125,1.02581787109375,34.81999969482422,0.0,-1.0,-0.9108428955078125,-2.43792724609375,Closing,0.0,0.0,-189.0,0.0,0.0,0.0,0.0,0.0,
16.127153000000007,0.0,0.0,52832.0,0.0,0.0,0.0,0.0,0.125,0.823974525,0.01,0.0,-37250.0,0.0,0.0,-0.0,0.0,0.125,0.49926752700000004,0.01,0.0,39680.0,0.0,0.0,0.0,0.0,0.0,3.358153953,0.01,0.0,-18545.0,0.0,0.0,-0.0,0.0,0.25,1.6076658510000001,0.01,0.0,0.5199999809265137,-0.6800000071525574,67.29000091552734,-0.01361083984375,0.0098876953125,1.02325439453125,34.81999969482422,0.0,0.0,-0.9108428955078125,-2.43792724609375,Closing,0.0,0.0,-189.0,0.0,0.0,0.0,0.0,0.0,
16.236521999999997,0.0,0.0,52832.0,0.0,0.0,0.0,0.0,0.125,0.821533119,0.01,0.0,-37250.0,0.0,0.0,-0.0,0.0,0.125,0.49926752700000004,0.01,0.0,39680.0,0.0,0.0,0.0,0.0,0.0,3.35693325,0.01,0.0,-18545.0,0.0,0.0,-0.0,0.0,0.25,1.6088865540000001,0.01,0.0,0.5099999904632568,-0.6800000071525574,67.29000091552734,-0.01068115234375,0.0103759765625,1.025146484375,34.81999969482422,0.0,1.0,-0.9108428955078125,-2.43792724609375,Closing,0.0,0.0,-189.0,0.0,0.0,0.0,0.0,0.0,
16.353258,0.0,0.0,52832.0,0.0,0.0,0.0,0.0,0.125,0.822753822,0.01,0.0,-37250.0,0.0,0.0,-0.0,0.0,0.125,0.49926752700000004,0.01,0.0,39680.0,0.0,0.0,0.0,0.0,0.0,3.359374656,0.01,0.0,-18545.0,0.0,0.0,-0.0,0.0,0.25,1.6088865540000001,0.01,0.0,0.5199999809265137,-0.6800000071525574,67.29000091552734,-0.014892578125,0.010009765625,1.02423095703125,34.81999969482422,0.0,0.0,-0.9108428955078125,-2.43792724609375,Closing,0.0,0.0,-189.0,0.0,0.0,0.0,0.0,0.0,
