Time,ClimberA1,ClimberA2,FRpos,FRCurrent,FRspeed,FRsetpoint,FRApos,FRACurrent,FREncpos,FREncSetpoint,FREncSpeed,FLpos,FLCurrent,FLspeed,FLsetpoint,FLApos,FLACurrent,FLEncpos,FLEncSetpoint,FLEncSpeed,BRpos,BRCurrent,BRspeed,BRsetpoint,BRApos,BRACurrent,BREncpos,BREncSetpoint,BREncSpeed,BLpos,BLCurrent,BLspeed,BLsetpoint,BLApos,BLACurrent,BLEncpos,BLEncSetpoint,BLEncSpeed,navx_Pitch,navx_Roll,navx_Yaw,navx_XAcc,navx_YAcc,navx_ZAcc,navx_Temp,navx_Bar,navx_Alt,navx_XDis,navx_YDis,GearPlacerState,ShootOutputV,ShootOutputCurrent,ShootEncPos,ShootEncVelocity,ShootSpeed,ShootSetpoint,CarouselSetpoint,CarouselCurrent,
0.19039900000003399,0.0,0.0,160781.0,0.0,0.0,0.0,0.0,0.125,0.821533119,4.932250999999998,0.0,-112317.0,0.0,0.0,0.0,0.0,0.125,0.522460884,4.963769999999998,0.0,106819.0,0.0,0.0,0.0,0.0,0.0,3.348388329,0.01,0.0,-142057.0,0.125,0.0,0.0,0.0,0.125,1.621093584,0.01,0.0,1.0099999904632568,-0.9300000071525574,100.0,-0.0186767578125,0.01763916015625,1.01922607421875,35.56999969482422,0.0,0.0,-8.494400024414062,-4.14093017578125,Closing,0.0,0.0,-189.0,0.0,0.0,0.0,0.0,0.0,
0.4439689999999828,0.0,0.0,160781.0,0.0,0.0,0.0,0.0,0.125,0.822753822,4.932250999999998,0.0,-112317.0,0.125,0.0,0.0,0.0,0.125,0.521240181,4.963769999999998,0.0,106819.0,0.0,0.0,0.0,0.0,0.0,3.348388329,0.01,0.0,-142057.0,0.125,0.0,0.0,0.0,0.125,1.622314287,0.01,0.0,1.0099999904632568,-0.9399999976158142,100.0,-0.01654052734375,0.01806640625,1.0235595703125,35.56999969482422,0.0,0.0,-8.494400024414062,-4.14093017578125,Closing,0.0,0.0,-189.0,0.0,0.0,0.0,0.0,0.0,
0.6462779999999911,0.0,0.0,160781.0,0.0,0.0,0.0,0.0,0.125,0.822753822,4.932250999999998,0.0,-112317.0,0.125,0.0,0.0,0.0,0.125,0.521240181,4.963769999999998,0.0,106819.0,0.0,0.0,0.0,0.0,0.0,3.347167626,0.01,0.0,-142057.0,0.125,0.0,0.0,0.0,0.125,1.622314287,0.01,0.0,1.0099999904632568,-0.9399999976158142,100.0,-0.0162353515625,0.01824951171875,1.02032470703125,35.560001373291016,0.0,0.0,-8.494400024414062,-4.14093017578125,Closing,0.0,0.0,-189.0,0.0,0.0,0.0,0.0,0.0,
0.8342790000000386,0.0,0.0,160781.0,0.0,0.0,0.0,0.0,0.125,0.822753822,4.932250999999998,0.0,-112317.0,0.0,0.0,0.0,0.0,0.125,0.522460884,4.963769999999998,0.0,106819.0,0.0,0.0,0.0,0.0,0.0,3.348388329,0.01,0.0,-142057.0,0.125,0.0,0.0,0.0,0.125,1.621093584,0.01,0.0,1.0,-0.9399999976158142,100.0,-0.0167236328125,0.01727294921875,1.01806640625,35.560001373291016,0.0,0.0,-8.494400024414062,-4.14093017578125,Closing,0.0,0.0,-189.0,0.0,0.0,0.0,0.0,0.0,
1.044314000000013,0.0,0.0,160781.0,0.0,0.0,0.0,0.0,0.25,0.822753822,4.932250999999998,0.0,-112317.0,0.125,0.0,0.0,0.0,0.125,0.522460884,4.963769999999998,0.0,106819.0,0.0,0.0,0.0,0.0,0.0,3.348388329,0.01,0.0,-142057.0,0.125,0.0,0.0,0.0,0.125,1.621093584,0.01,0.0,1.0,-0.9399999976158142,99.98999786376953,-0.0172119140625,0.019287109375,1.02069091796875,35.560001373291016,0.0,1.0,-8.494400024414062,-4.14093017578125,Closing,0.0,0.0,-189.0,0.0,0.0,0.0,0.0,0.0,
1.2456840000000085,0.0,0.0,160781.0,0.0,0.0,0.0,0.0,0.125,0.821533119,4.932250999999998,0.0,-112317.0,0.125,0.0,0.0,0.0,0.125,0.522460884,4.963769999999998,0.0,106819.0,0.0,0.0,0.0,0.0,0.0,3.348388329,0.01,0.0,-142057.0,0.125,0.0,0.0,0.0,0.125,1.619872881,0.01,0.0,1.0,-0.9300000071525574,99.98999786376953,-0.0159912109375,0.01751708984375,1.0198974609375,35.58000183105469,0.0,0.0,-8.494400024414062,-4.14093017578125,Closing,0.0,0.0,-189.0,0.0,0.0,0.0,0.0,0.0,
1.4457690000000294,0.0,0.0,160781.0,0.0,0.0,0.0,0.0,0.125,0.821533119,4.932250999999998,0.0,-112317.0,0.125,0.0,0.0,0.0,0.125,0.522460884,4.963769999999998,0.0,106819.0,0.0,0.0,0.0,0.0,0.0,3.348388329,0.01,0.0,-142057.0,0.125,0.0,0.0,0.0,0.125,1.621093584,0.01,0.0,1.0099999904632568,-0.9300000071525574,100.0,-0.0169677734375,0.01678466796875,1.02471923828125,35.58000183105469,0.0,-1.0,-8.494400024414062,-4.14093017578125,Closing,0.0,0.0,-189.0,0.0,0.0,0.0,0.0,0.0,
1.645698000000033,0.0,0.0,160781.0,0.0,0.0,0.0,0.0,0.25,0.821533119,4.932250999999998,0.0,-112317.0,0.0,0.0,0.0,0.0,0.125,0.523681587,4.963769999999998,0.0,106819.0,0.0,0.0,0.0,0.0,0.0,3.347167626,0.01,0.0,-142057.0,0.125,0.0,0.0,0.0,0.125,1.621093584,0.01,0.0,1.0099999904632568,-0.9300000071525574,100.0,-0.01910400390625,0.01593017578125,1.01971435546875,35.56999969482422,0.0,-1.0,-8.494400024414062,-4.14093017578125,Closing,0.0,0.0,-189.0,0.0,0.0,0.0,0.0,0.0,
1.8451689999999945,0.0,0.0,160799.0,13.0,15.0,1200.9375,0.0,2.25,1.699218576,1.2330627500000013,0.0,-112358.0,16.75,-247.5,-1200.9375,0.0,0.75,1.617431475,1.2409425000000012,0.0,106815.0,18.5,0.0,-1200.9375,0.0,2.625,2.442626703,3.7053000000000016,0.0,-142035.0,9.875,120.0,1200.9375,0.0,1.25,0.6481932930000001,3.7185000000000015,0.0,1.3799999952316284,-1.0199999809265137,99.9800033569336,0.02630615234375,0.21160888671875,0.91168212890625,35.56999969482422,0.0,179.0,-8.495101928710938,-4.14654541015625,Closing,0.0,0.0,-189.0,0.0,0.0,0.0,0.0,0.0,
2.035905000000028,0.0,0.0,160975.0,20.25,690.0,1496.25,0.0,0.625,2.1740720430000002,1.2330627500000013,0.0,-112537.0,23.5,-802.5,-1496.25,0.0,0.25,1.939697067,1.2409425000000012,0.0,106793.0,36.25,-135.0,-1496.25,0.0,0.375,2.053222446,3.7053000000000016,0.0,-141906.0,16.25,720.0,1496.25,0.0,0.5,0.126953112,3.7185000000000015,0.0,3.680000066757202,-0.9700000286102295,99.4000015258789,-0.06842041015625,0.34832763671875,1.16864013671875,35.56999969482422,0.0,276.0,-8.45098876953125,-4.1630096435546875,Closing,0.0,0.0,-189.0,0.0,0.0,0.0,0.0,0.0,
2.2444949999999952,0.0,0.0,161155.0,17.875,1245.0,1535.625,0.0,0.375,2.108154081,1.2330627500000013,0.0,-112939.0,19.125,-1305.0,-1535.625,0.0,0.25,1.906738086,1.2409425000000012,0.0,106461.0,29.625,-1200.0,-1535.625,0.0,0.0,2.047118931,3.7053000000000016,0.0,-141520.0,12.375,1320.0,1535.625,0.0,0.375,0.25146481800000003,3.7185000000000015,0.0,4.239999771118164,-0.7300000190734863,101.05999755859375,-0.19879150390625,0.09503173828125,1.35064697265625,35.59000015258789,0.0,29.0,-8.360427856445312,-4.1912994384765625,Closing,0.0,0.0,-189.0,0.0,0.0,0.0,0.0,0.0,
2.447304999999993,0.0,0.0,161553.0,0.0,1177.5,0.0,0.0,0.25,2.020263465,1.2330627500000013,0.0,-113132.0,0.125,-1207.5,0.0,0.0,0.25,1.7138670120000001,1.2409425000000012,0.0,106297.0,0.0,-900.0,0.0,0.0,0.125,2.077636506,3.7053000000000016,0.0,-141331.0,0.125,1125.0,0.0,0.0,0.25,0.44189448600000003,3.7185000000000015,0.0,3.1600000858306885,-0.5899999737739563,101.08999633789062,0.0179443359375,-0.11602783203125,1.129638671875,35.59000015258789,0.0,-180.0,-8.276077270507812,-4.217498779296875,Closing,0.0,0.0,-189.0,0.0,0.0,0.0,0.0,0.0,
2.6462360000000333,0.0,0.0,161732.0,0.0,1035.0,0.0,0.0,0.25,2.0068357320000003,1.2330627500000013,0.0,-113485.0,0.0,-1012.5,0.0,0.0,0.25,1.7138670120000001,1.2409425000000012,0.0,105980.0,0.0,-930.0,0.0,0.0,0.0,2.105712675,3.7053000000000016,0.0,-140980.0,0.125,982.5,0.0,0.0,0.25,0.411376911,3.7185000000000015,0.0,1.409999966621399,-0.28999999165534973,100.30000305175781,0.00439453125,-0.4346923828125,0.271484375,35.540000915527344,0.0,-435.0,-8.225540161132812,-4.2364501953125,Closing,0.0,0.0,-189.0,0.0,0.0,0.0,0.0,0.0,
2.83225900000002,0.0,0.0,162029.0,0.0,840.0,0.0,0.0,0.25,2.0056150290000003,1.2330627500000013,0.0,-113625.0,0.125,-787.5,0.0,0.0,0.25,1.718749824,1.2409425000000012,0.0,105842.0,0.0,-870.0,0.0,0.0,0.0,2.102050566,3.7053000000000016,0.0,-140716.0,0.125,817.5,0.0,0.0,0.25,0.386962851,3.7185000000000015,0.0,1.0099999904632568,-0.7400000095367432,100.33999633789062,-0.15789794921875,0.33111572265625,1.77117919921875,35.540000915527344,0.0,319.0,-8.22894287109375,-4.244384765625,Closing,0.0,0.0,-189.0,0.0,0.0,0.0,0.0,0.0,
3.043706999999995,0.0,0.0,162234.0,0.0,615.0,0.0,0.0,0.25,2.0068357320000003,1.2330627500000013,0.0,-113843.0,0.0,-607.5,0.0,0.0,0.25,1.7138670120000001,1.2409425000000012,0.0,105622.0,0.0,-577.5,0.0,0.0,0.0,2.102050566,3.7053000000000016,0.0,-140613.0,0.125,607.5,0.0,0.0,0.125,0.386962851,3.7185000000000015,0.0,0.23000000417232513,-0.5699999928474426,100.36000061035156,0.02069091796875,-0.126953125,0.9200439453125,35.540000915527344,0.0,-133.0,-8.25909423828125,-4.248016357421875,Closing,0.0,0.0,-189.0,0.0,0.0,0.0,0.0,0.0,
3.2448570000000183,0.0,0.0,162310.0,0.0,382.5,0.0,0.0,0.25,2.0056150290000003,1.2330627500000013,0.0,-113988.0,0.125,-382.5,0.0,0.0,0.25,1.7089842000000002,1.2409425000000012,0.0,105527.0,0.0,-180.0,0.0,0.0,0.0,2.103271269,3.7053000000000016,0.0,-140463.0,0.125,382.5,0.0,0.0,0.125,0.38818355400000004,3.7185000000000015,0.0,-0.5,-0.6600000262260437,100.41000366210938,-0.01324462890625,-0.05126953125,0.96258544921875,35.52000045776367,0.0,-41.0,-8.317306518554688,-4.2470855712890625,Closing,0.0,0.0,-189.0,0.0,0.0,0.0,0.0,0.0,
3.447629000000015,0.0,0.0,162357.0,15.625,-232.5,-1527.874038219452,0.0,0.25,2.0056150290000003,1.2330627499999984,0.0,-114011.0,31.25,232.5,1527.874038219452,0.0,0.25,1.718749824,1.2409424999999985,0.0,105498.0,18.25,277.5,1527.874038219452,0.0,0.0,2.102050566,3.7052999999999985,0.0,-140490.0,17.25,-255.0,-1527.874038219452,0.0,0.125,0.450439407,3.7184999999999984,0.0,-3.6600000858306885,-0.7799999713897705,100.6500015258789,-0.0335693359375,-0.36077880859375,1.14501953125,35.52000045776367,0.0,-278.0,-8.414566040039062,-4.2419586181640625,Closing,0.0,0.0,-189.0,0.0,0.0,0.0,0.0,0.0,
3.6462000000000114,0.0,0.0,162156.0,0.0,-622.5,0.0,0.0,0.25,2.0104978410000003,1.2330627499999984,0.0,-113829.0,0.125,720.0,0.0,0.0,0.25,1.7089842000000002,1.2409424999999985,0.0,105614.0,0.0,435.0,0.0,0.0,0.0,2.1215818140000002,3.7052999999999985,0.0,-140583.0,0.125,-652.5,0.0,0.0,0.25,0.386962851,3.7184999999999984,0.0,-2.930000066757202,-0.6700000166893005,101.02999877929688,0.12445068359375,0.06817626953125,0.63665771484375,35.45000076293945,0.0,73.0,-8.567367553710938,-4.2386474609375,Closing,0.0,0.0,-189.0,0.0,0.0,0.0,0.0,0.0,
3.847171000000031,0.0,0.0,162007.0,0.0,-420.0,0.0,0.0,0.25,2.0104978410000003,1.2330627499999984,0.0,-113665.0,0.125,420.0,0.0,0.0,0.25,1.7138670120000001,1.2409424999999985,0.0,105775.0,0.0,390.0,0.0,0.0,0.0,2.103271269,3.7052999999999985,0.0,-140762.0,0.125,-420.0,0.0,0.0,0.125,0.36865230600000004,3.7184999999999984,0.0,-1.559999942779541,-0.7400000095367432,100.8499984741211,0.03912353515625,0.12115478515625,0.99285888671875,35.45000076293945,0.0,135.0,-8.683334350585938,-4.2412872314453125,Closing,0.0,0.0,-189.0,0.0,0.0,0.0,0.0,0.0,
4.050014000000025,0.0,0.0,161914.0,15.125,-690.0,-2162.8346657752986,0.0,0.25,2.03857401,1.2330627499999984,0.0,-113458.0,26.5,720.0,2162.8346657752986,0.0,0.25,1.697997873,1.2409424999999985,0.0,105934.0,20.0,615.0,2162.8346657752986,0.0,0.0,2.103271269,3.7052999999999985,0.0,-140941.0,15.125,-660.0,-2162.8346657752986,0.0,0.125,0.37597652400000003,3.7184999999999984,0.0,-3.4100000858306885,-0.6700000166893005,101.08000183105469,-0.11297607421875,-0.298583984375,0.59423828125,35.45000076293945,0.0,-237.0,-8.782989501953125,-4.2395782470703125,Closing,0.0,0.0,-189.0,0.0,0.0,0.0,0.0,0.0,
4.246717999999993,0.0,0.0,161662.0,0.0,-847.5,0.0,0.0,0.25,2.020263465,1.2330627499999984,0.0,-113341.0,0.125,817.5,0.0,0.0,0.25,1.7419431810000001,1.2409424999999985,0.0,106037.0,0.0,795.0,0.0,0.0,0.0,2.131347438,3.7052999999999985,0.0,-141198.0,0.125,-847.5,0.0,0.0,0.125,0.373535118,3.7184999999999984,0.0,-2.109999895095825,-0.699999988079071,100.44000244140625,-0.0272216796875,0.27203369140625,0.96466064453125,35.41999816894531,0.0,305.0,-8.916015625,-4.230255126953125,Closing,0.0,0.0,-189.0,0.0,0.0,0.0,0.0,0.0,
4.516889000000025,0.0,0.0,161453.0,0.0,-570.0,0.0,0.0,0.25,2.020263465,1.2330627499999984,0.0,-113116.0,0.125,577.5,0.0,0.0,0.0,1.771240053,1.2409424999999985,0.0,106265.0,0.0,517.5,0.0,0.0,0.125,2.131347438,3.7052999999999985,0.0,-141388.0,0.125,-555.0,0.0,0.0,0.125,0.37841793,3.7184999999999984,0.0,-0.7599999904632568,-0.6600000262260437,100.1500015258789,0.0028076171875,0.0145263671875,0.9967041015625,35.41999816894531,0.0,24.0,-9.003631591796875,-4.2312469482421875,Closing,0.0,0.0,-189.0,0.0,0.0,0.0,0.0,0.0,
4.700984999999986,0.0,0.0,161380.0,0.125,-195.0,-396.8503922224045,0.0,2.0,1.444091649,4.932250999999998,0.0,-113016.0,5.625,67.5,-396.8503922224045,0.0,1.5,2.363281008,2.481884999999998,0.0,106382.0,4.25,180.0,-396.8503922224045,0.0,1.625,2.823486039,0.01,0.0,-141435.0,0.25,-225.0,-396.8503922224045,0.0,1.5,4.594726092,2.4790000000000023,0.0,1.100000023841858,-0.8100000023841858,99.81999969482422,0.01373291015625,0.1865234375,0.90985107421875,35.38999938964844,0.0,161.0,-9.034713745117188,-4.2336273193359375,Closing,0.0,0.0,-189.0,0.0,0.0,0.0,0.0,0.0,
4.91384500000003,0.0,0.0,161358.0,2.75,-120.0,-674.6456480026245,0.0,0.625,0.496826121,4.932250999999998,0.0,-113083.0,10.875,-292.5,-674.6456480026245,0.0,0.5,3.4301754300000002,2.481884999999998,0.0,106347.0,8.25,-210.0,-674.6456480026245,0.0,0.25,3.7329097740000003,0.01,0.0,-141481.0,2.25,-202.5,-674.6456480026245,0.0,0.5,3.709716417,2.4790000000000023,0.0,0.7799999713897705,-1.8799999952316284,99.30000305175781,-0.106689453125,-0.01318359375,1.04351806640625,35.38999938964844,0.0,-15.0,-9.051193237304688,-4.21929931640625,Closing,0.0,0.0,-189.0,0.0,0.0,0.0,0.0,0.0,
5.1013219999999855,0.0,0.0,161288.0,8.625,-82.5,-793.700784444809,0.0,0.625,0.43334956500000005,4.932250999999998,0.0,-113142.0,23.875,-165.0,-793.700784444809,0.0,0.875,3.2153317020000003,2.481884999999998,0.0,106290.0,17.75,-150.0,-793.700784444809,0.0,0.875,3.551025027,0.01,0.0,-141531.0,8.75,-67.5,-793.700784444809,0.0,0.875,3.964843344,2.4790000000000023,0.0,0.9200000166893005,-0.5299999713897705,99.55000305175781,-0.04315185546875,0.052490234375,1.01470947265625,35.38999938964844,0.0,41.0,-9.07379150390625,-4.207611083984375,Closing,0.0,0.0,-189.0,0.0,0.0,0.0,0.0,0.0,
5.313530000000028,0.0,0.0,161274.0,12.875,-232.5,-793.700784444809,0.0,0.75,0.748290939,4.932250999999998,0.0,-113196.0,31.125,-360.0,-793.700784444809,0.0,0.5,3.096923511,2.481884999999998,0.0,106254.0,25.0,-195.0,-793.700784444809,0.0,0.375,3.4741207380000003,0.01,0.0,-141568.0,11.0,-375.0,-793.700784444809,0.0,0.25,4.097899971,2.4790000000000023,0.0,0.6800000071525574,-2.3499999046325684,99.1500015258789,-0.33544921875,-0.138671875,0.96893310546875,35.38999938964844,0.0,-101.0,-9.09429931640625,-4.190460205078125,Closing,0.0,0.0,-189.0,0.0,0.0,0.0,0.0,0.0,
5.513595000000031,0.0,0.0,161087.0,4.875,-990.0,-793.700784444809,0.0,0.125,0.885009675,4.932250999999998,0.0,-113486.0,14.625,-1020.0,-793.700784444809,0.0,0.25,3.0065914890000003,2.481884999999998,0.0,106043.0,15.625,-832.5,-793.700784444809,0.0,0.25,3.402099261,0.01,0.0,-141829.0,4.375,-990.0,-793.700784444809,0.0,0.125,4.218749568,2.4790000000000023,0.0,0.4300000071525574,-4.010000228881836,99.16000366210938,-0.12506103515625,-0.1099853515625,1.21478271484375,35.38999938964844,0.0,-111.0,-9.113296508789062,-4.1174163818359375,Closing,0.0,0.0,-189.0,0.0,0.0,0.0,0.0,0.0,
5.7022569999999835,0.0,0.0,160707.0,0.625,-1237.5,-793.700784444809,0.0,0.25,0.826415931,4.932250999999998,0.0,-113694.0,2.5,-1320.0,-793.700784444809,0.0,0.125,2.976073914,2.481884999999998,0.0,105894.0,11.625,-937.5,-793.700784444809,0.0,0.125,3.382568013,0.01,0.0,-142024.0,0.625,-1215.0,-793.700784444809,0.0,0.25,4.096679268,2.4790000000000023,0.0,0.6700000166893005,-4.150000095367432,99.02999877929688,-0.04913330078125,0.0562744140625,1.24810791015625,35.38999938964844,0.0,34.0,-9.126632690429688,-4.0304718017578125,Closing,0.0,0.0,-189.0,0.0,0.0,0.0,0.0,0.0,
5.913552000000025,0.0,0.0,160329.0,0.0,-1177.5,-515.9055286645889,0.0,0.25,0.784912029,4.932250999999998,0.0,-114074.0,0.0,-1132.5,-515.9055286645889,0.0,0.125,2.923583685,2.481884999999998,0.0,105555.0,3.125,-1192.5,-515.9055286645889,0.0,0.125,3.382568013,0.01,0.0,-142401.0,0.125,-1140.0,-515.9055286645889,0.0,0.125,3.9941402160000004,2.4790000000000023,0.0,0.8100000023841858,-2.5199999809265137,99.37999725341797,0.04510498046875,0.13275146484375,0.94140625,35.38999938964844,0.0,103.0,-9.13623046875,-3.929962158203125,Closing,0.0,0.0,-189.0,0.0,0.0,0.0,0.0,0.0,
6.112924999999988,0.0,0.0,160164.0,0.0,-877.5,0.0,0.0,0.125,0.783691326,4.932250999999998,0.0,-114385.0,0.125,-900.0,0.0,0.0,0.25,2.9431149330000004,2.481884999999998,0.0,105299.0,0.0,-547.5,0.0,0.0,0.125,3.3679195770000003,0.01,0.0,-142720.0,0.125,-900.0,0.0,0.0,0.25,4.0856929410000005,2.4790000000000023,0.0,0.6499999761581421,-1.4500000476837158,99.36000061035156,0.2203369140625,-0.0634765625,0.939208984375,35.38999938964844,0.0,-112.0,-9.157196044921875,-3.8842926025390625,Closing,0.0,0.0,-189.0,0.0,0.0,0.0,0.0,0.0,
6.311230000000039,0.0,0.0,159925.0,0.0,-630.0,0.0,0.0,0.25,0.784912029,4.932250999999998,0.0,-114506.0,0.125,-682.5,0.0,0.0,0.25,2.967528993,2.481884999999998,0.0,105209.0,0.0,-592.5,0.0,0.0,0.0,3.343505517,0.01,0.0,-142844.0,0.125,-660.0,0.0,0.0,0.125,4.114989813,2.4790000000000023,0.0,0.5099999904632568,-0.6200000047683716,98.77999877929688,0.11761474609375,-0.04022216796875,1.05859375,35.400001525878906,0.0,-68.0,-9.19244384765625,-3.86688232421875,Closing,0.0,0.0,-189.0,0.0,0.0,0.0,0.0,0.0,
6.50176000000001,0.0,0.0,159839.0,0.0,-472.5,0.0,0.0,0.125,0.783691326,4.932250999999998,0.0,-114681.0,0.125,-457.5,0.0,0.0,0.125,2.971191102,2.481884999999998,0.0,105055.0,0.0,-427.5,0.0,0.0,0.0,3.343505517,0.01,0.0,-143023.0,0.125,-480.0,0.0,0.0,0.25,4.129638249,2.4790000000000023,0.0,0.4000000059604645,-0.009999999776482582,98.44999694824219,0.12994384765625,-0.0047607421875,1.2022705078125,35.400001525878906,0.0,-32.0,-9.211990356445312,-3.872314453125,Closing,0.0,0.0,-189.0,0.0,0.0,0.0,0.0,0.0,
6.713964000000036,0.0,0.0,159745.0,0.0,-120.0,0.0,0.0,0.125,0.783691326,4.932250999999998,0.0,-114739.0,0.125,-97.5,0.0,0.0,0.125,2.972411805,2.481884999999998,0.0,105005.0,0.0,-120.0,0.0,0.0,0.0,3.348388329,0.01,0.0,-143087.0,0.125,-75.0,0.0,0.0,0.25,4.139403873,2.4790000000000023,0.0,0.3100000023841858,1.2699999809265137,98.41000366210938,0.0885009765625,0.09613037109375,0.9957275390625,35.400001525878906,0.0,80.0,-9.2159423828125,-3.9075469970703125,Closing,0.0,0.0,-189.0,0.0,0.0,0.0,0.0,0.0,
6.90283600000001,0.0,0.0,159740.0,0.0,0.0,0.0,0.0,0.25,0.784912029,4.932250999999998,0.0,-114739.0,0.125,0.0,0.0,0.0,0.125,2.977294617,2.481884999999998,0.0,105005.0,0.0,0.0,0.0,0.0,0.0,3.348388329,0.01,0.0,-143087.0,0.125,0.0,0.0,0.0,0.25,4.134521061,2.4790000000000023,0.0,0.3499999940395355,0.7599999904632568,98.29000091552734,-0.0416259765625,-0.01153564453125,1.038818359375,35.400001525878906,0.0,-9.0,-9.216796875,-3.9631805419921875,Closing,0.0,0.0,-189.0,0.0,0.0,0.0,0.0,0.0,
7.115024000000034,0.0,0.0,159740.0,0.0,0.0,0.0,0.0,0.25,0.784912029,4.932250999999998,0.0,-114739.0,0.125,0.0,0.0,0.0,0.125,2.976073914,2.481884999999998,0.0,105005.0,0.0,0.0,0.0,0.0,0.0,3.348388329,0.01,0.0,-143087.0,0.125,0.0,0.0,0.0,0.25,4.124755437,2.4790000000000023,0.0,0.3199999928474426,0.5299999713897705,98.2300033569336,0.0067138671875,0.001220703125,1.01885986328125,35.400001525878906,0.0,-4.0,-9.216796875,-3.9810943603515625,Closing,0.0,0.0,-189.0,0.0,0.0,0.0,0.0,0.0,
7.304342999999993,0.0,0.0,159740.0,0.0,0.0,0.0,0.0,0.25,0.783691326,4.932250999999998,0.0,-114739.0,0.125,0.0,0.0,0.0,0.125,2.976073914,2.481884999999998,0.0,105005.0,0.0,0.0,0.0,0.0,0.0,3.348388329,0.01,0.0,-143087.0,0.125,0.0,0.0,0.0,0.25,4.124755437,2.4790000000000023,0.0,0.3199999928474426,0.3799999952316284,98.19999694824219,-0.0169677734375,0.0113525390625,1.02423095703125,35.380001068115234,0.0,8.0,-9.216796875,-3.97998046875,Closing,0.0,0.0,-189.0,0.0,0.0,0.0,0.0,0.0,
7.513373000000022,0.0,0.0,159740.0,0.0,0.0,0.0,0.0,0.25,0.784912029,4.932250999999998,0.0,-114739.0,0.125,0.0,0.0,0.0,0.125,2.977294617,2.481884999999998,0.0,105005.0,0.0,0.0,0.0,0.0,0.0,3.348388329,0.01,0.0,-143087.0,0.125,0.0,0.0,0.0,0.25,4.124755437,2.4790000000000023,0.0,0.3199999928474426,0.25,98.19000244140625,-0.0135498046875,0.001708984375,1.02392578125,35.380001068115234,0.0,-1.0,-9.216796875,-3.9783172607421875,Closing,0.0,0.0,-189.0,0.0,0.0,0.0,0.0,0.0,
7.710698000000033,0.0,0.0,159735.0,1.0,-60.0,-479.5275494456292,0.0,1.25,1.168212771,0.5498168668524864,0.0,-114718.0,1.875,150.0,479.5275494456292,0.0,0.875,2.717284878,1.92855458977222,0.0,104999.0,1.5,-37.5,-479.5275494456292,0.0,0.75,2.987060241,4.389674732977291,0.0,-143068.0,1.25,135.0,479.5275494456292,0.0,1.0,4.6533198360000005,3.031687206278561,0.0,0.30000001192092896,0.12999999523162842,98.66999816894531,-0.0101318359375,0.0303955078125,0.98333740234375,35.380001068115234,0.0,26.0,-9.216354370117188,-3.9771575927734375,Closing,0.0,0.0,-189.0,0.0,0.0,0.0,0.0,0.0,
7.9146240000000105,0.0,0.0,159720.0,0.0,0.0,0.0,0.0,0.5,1.511230314,0.5498168668524864,0.0,-114708.0,0.125,0.0,0.0,0.0,0.25,2.232665787,1.92855458977222,0.0,104996.0,0.0,0.0,0.0,0.0,0.25,2.6440426980000002,4.389674732977291,0.0,-143063.0,0.125,0.0,0.0,0.0,0.25,4.912108872,3.031687206278561,0.0,0.3199999928474426,0.0,100.16000366210938,-0.00726318359375,9.1552734375E-4,1.02508544921875,35.38999938964844,0.0,-3.0,-9.214630126953125,-3.9767608642578125,Closing,0.0,0.0,-189.0,0.0,0.0,0.0,0.0,0.0,
8.102167000000016,0.0,0.0,159720.0,0.0,0.0,0.0,0.0,0.375,1.468505709,0.5498168668524864,0.0,-114707.0,0.125,7.5,0.0,0.0,0.25,2.2668454710000003,1.92855458977222,0.0,104996.0,0.0,0.0,0.0,0.0,0.125,2.653808322,4.389674732977291,0.0,-143063.0,0.125,0.0,0.0,0.0,0.5,4.697265144,3.031687206278561,0.0,0.30000001192092896,-0.029999999329447746,100.52999877929688,-3.662109375E-4,-0.0185546875,1.0155029296875,35.38999938964844,0.0,-23.0,-9.214767456054688,-3.9767608642578125,Closing,0.0,0.0,-189.0,0.0,0.0,0.0,0.0,0.0,
8.314051000000036,0.0,0.0,159720.0,0.0,0.0,0.0,0.0,0.375,1.334228379,0.5498168668524864,0.0,-114707.0,0.125,0.0,0.0,0.0,0.25,2.49023412,1.92855458977222,0.0,104996.0,0.0,0.0,0.0,0.0,0.125,2.818603227,4.389674732977291,0.0,-143062.0,0.125,0.0,0.0,0.0,0.25,4.648437024000001,3.031687206278561,0.0,0.33000001311302185,-0.12999999523162842,100.23999786376953,0.00244140625,-0.00469970703125,1.01068115234375,35.380001068115234,0.0,-11.0,-9.21514892578125,-3.9764862060546875,Closing,0.0,0.0,-189.0,0.0,0.0,0.0,0.0,0.0,
8.515668999999994,0.0,0.0,159720.0,0.0,0.0,0.0,0.0,0.25,1.324462755,0.5498168668524864,0.0,-114707.0,0.125,0.0,0.0,0.0,0.25,2.459716545,1.92855458977222,0.0,104996.0,0.0,0.0,0.0,0.0,0.125,2.834472366,4.389674732977291,0.0,-143062.0,0.125,0.0,0.0,0.0,0.125,4.6630854600000005,3.031687206278561,0.0,0.3199999928474426,-0.20000000298023224,100.06999969482422,-0.00384521484375,0.00677490234375,1.0118408203125,35.380001068115234,0.0,1.0,-9.215194702148438,-3.9764862060546875,Closing,0.0,0.0,-189.0,0.0,0.0,0.0,0.0,0.0,
8.706579000000026,0.0,0.0,159720.0,0.0,0.0,0.0,0.0,0.25,1.3195799430000001,0.5498168668524864,0.0,-114707.0,0.125,0.0,0.0,0.0,0.125,2.456054436,1.92855458977222,0.0,104996.0,0.0,0.0,0.0,0.0,0.125,2.834472366,4.389674732977291,0.0,-143062.0,0.125,0.0,0.0,0.0,0.125,4.661864757,3.031687206278561,0.0,0.3199999928474426,-0.25999999046325684,100.06999969482422,-0.01239013671875,0.00799560546875,1.01470947265625,35.380001068115234,0.0,3.0,-9.215194702148438,-3.9764862060546875,Closing,0.0,0.0,-189.0,0.0,0.0,0.0,0.0,0.0,
8.912358999999997,0.0,0.0,159720.0,0.0,0.0,0.0,0.0,0.25,1.324462755,0.5498168668524864,0.0,-114707.0,0.125,0.0,0.0,0.0,0.125,2.454833733,1.92855458977222,0.0,104996.0,0.0,0.0,0.0,0.0,0.125,2.834472366,4.389674732977291,0.0,-143062.0,0.125,0.0,0.0,0.0,0.125,4.661864757,3.031687206278561,0.0,0.3199999928474426,-0.3100000023841858,100.05000305175781,-0.01190185546875,0.00531005859375,1.0242919921875,35.43000030517578,0.0,0.0,-9.215194702148438,-3.9764862060546875,Closing,0.0,0.0,-189.0,0.0,0.0,0.0,0.0,0.0,
9.100961999999999,0.0,0.0,159720.0,0.0,0.0,0.0,0.0,0.25,1.307372913,0.5498168668524864,0.0,-114707.0,0.125,0.0,0.0,0.0,0.125,2.454833733,1.92855458977222,0.0,104996.0,0.0,0.0,0.0,0.0,0.125,2.833251663,4.389674732977291,0.0,-143062.0,0.125,0.0,0.0,0.0,0.125,4.6630854600000005,3.031687206278561,0.0,0.3199999928474426,-0.3400000035762787,100.05000305175781,-0.00921630859375,0.00439453125,1.02020263671875,35.43000030517578,0.0,0.0,-9.215194702148438,-3.9764862060546875,Closing,0.0,0.0,-189.0,0.0,0.0,0.0,0.0,0.0,
9.313454000000027,0.0,0.0,159720.0,0.0,0.0,0.0,0.0,0.25,1.326904161,0.5498168668524864,0.0,-114707.0,0.125,0.0,0.0,0.0,0.125,2.456054436,1.92855458977222,0.0,104996.0,0.0,0.0,0.0,0.0,0.125,2.834472366,4.389674732977291,0.0,-143062.0,0.125,0.0,0.0,0.0,0.125,4.661864757,3.031687206278561,0.0,0.3199999928474426,-0.3799999952316284,100.04000091552734,-0.01025390625,0.00665283203125,1.024658203125,35.459999084472656,0.0,1.0,-9.215194702148438,-3.9764862060546875,Closing,0.0,0.0,-189.0,0.0,0.0,0.0,0.0,0.0,
9.510500999999989,0.0,0.0,159720.0,0.0,0.0,0.0,0.0,0.25,1.324462755,0.5498168668524864,0.0,-114707.0,0.125,0.0,0.0,0.0,0.125,2.454833733,1.92855458977222,0.0,104996.0,0.0,0.0,0.0,0.0,0.125,2.833251663,4.389674732977291,0.0,-143062.0,0.125,0.0,0.0,0.0,0.125,4.664306163,3.031687206278561,0.0,0.3100000023841858,-0.4000000059604645,100.04000091552734,-0.01214599609375,0.00543212890625,1.02215576171875,35.459999084472656,0.0,0.0,-9.215194702148438,-3.9764862060546875,Closing,0.0,0.0,-189.0,0.0,0.0,0.0,0.0,0.0,
9.711858999999997,0.0,0.0,159720.0,0.0,0.0,0.0,0.0,0.25,1.324462755,0.5498168668524864,0.0,-114707.0,0.125,0.0,0.0,0.0,0.125,2.454833733,1.92855458977222,0.0,104996.0,0.0,0.0,0.0,0.0,0.125,2.834472366,4.389674732977291,0.0,-143062.0,0.125,0.0,0.0,0.0,0.125,4.664306163,3.031687206278561,0.0,0.3199999928474426,-0.4300000071525574,100.02999877929688,-0.00933837890625,0.00616455078125,1.01995849609375,35.459999084472656,0.0,0.0,-9.215194702148438,-3.9764862060546875,Closing,0.0,0.0,-189.0,0.0,0.0,0.0,0.0,0.0,
9.913606000000028,0.0,0.0,159720.0,0.0,0.0,0.0,0.0,0.25,1.324462755,0.5498168668524864,0.0,-114707.0,0.125,0.0,0.0,0.0,0.125,2.454833733,1.92855458977222,0.0,104996.0,0.0,0.0,0.0,0.0,0.125,2.834472366,4.389674732977291,0.0,-143062.0,0.0,0.0,0.0,0.0,0.125,4.661864757,3.031687206278561,0.0,0.3100000023841858,-0.44999998807907104,100.0199966430664,-0.00872802734375,0.00439453125,1.0167236328125,35.45000076293945,0.0,-1.0,-9.215194702148438,-3.9764862060546875,Closing,0.0,0.0,-189.0,0.0,0.0,0.0,0.0,0.0,
10.102130999999995,0.0,0.0,159720.0,0.0,0.0,0.0,0.0,0.25,1.324462755,0.5498168668524864,0.0,-114707.0,0.125,0.0,0.0,0.0,0.125,2.454833733,1.92855458977222,0.0,104996.0,0.0,0.0,0.0,0.0,0.125,2.833251663,4.389674732977291,0.0,-143062.0,0.0,0.0,0.0,0.0,0.125,4.6630854600000005,3.031687206278561,0.0,0.30000001192092896,-0.4699999988079071,100.0199966430664,-0.010009765625,0.0040283203125,1.02349853515625,35.45000076293945,0.0,-1.0,-9.215194702148438,-3.9764862060546875,Closing,0.0,0.0,-189.0,0.0,0.0,0.0,0.0,0.0,
10.306975000000035,0.0,0.0,159720.0,0.0,0.0,0.0,0.0,0.25,1.3232420520000001,0.5498168668524864,0.0,-114707.0,0.125,0.0,0.0,0.0,0.125,2.457275139,1.92855458977222,0.0,104996.0,0.0,0.0,0.0,0.0,0.125,2.833251663,4.389674732977291,0.0,-143062.0,0.125,0.0,0.0,0.0,0.125,4.6630854600000005,3.031687206278561,0.0,0.30000001192092896,-0.49000000953674316,100.01000213623047,-0.0130615234375,0.00750732421875,1.02130126953125,35.439998626708984,0.0,2.0,-9.215194702148438,-3.9764862060546875,Closing,0.0,0.0,-189.0,0.0,0.0,0.0,0.0,0.0,
10.510100000000035,0.0,0.0,159720.0,0.0,0.0,0.0,0.0,0.25,1.3232420520000001,0.5498168668524864,0.0,-114707.0,0.125,0.0,0.0,0.0,0.125,2.454833733,1.92855458977222,0.0,104996.0,0.0,0.0,0.0,0.0,0.125,2.834472366,4.389674732977291,0.0,-143062.0,0.125,0.0,0.0,0.0,0.125,4.664306163,3.031687206278561,0.0,0.30000001192092896,-0.5,100.01000213623047,-0.01177978515625,0.0059814453125,1.02264404296875,35.439998626708984,0.0,0.0,-9.215194702148438,-3.9764862060546875,Closing,0.0,0.0,-189.0,0.0,0.0,0.0,0.0,0.0,
10.701488000000012,0.0,0.0,159720.0,0.0,0.0,0.0,0.0,0.25,1.324462755,0.5498168668524864,0.0,-114707.0,0.125,0.0,0.0,0.0,0.125,2.454833733,1.92855458977222,0.0,104996.0,0.0,0.0,0.0,0.0,0.125,2.834472366,4.389674732977291,0.0,-143062.0,0.125,0.0,0.0,0.0,0.125,4.661864757,3.031687206278561,0.0,0.30000001192092896,-0.5,100.0,-0.0093994140625,0.00396728515625,1.0260009765625,35.439998626708984,0.0,-1.0,-9.215194702148438,-3.9764862060546875,Closing,0.0,0.0,-189.0,0.0,0.0,0.0,0.0,0.0,
10.839521999999997,0.0,0.0,159720.0,0.0,0.0,0.0,0.0,0.25,1.324462755,0.5498168668524864,0.0,-114707.0,0.125,0.0,0.0,0.0,0.125,2.454833733,1.92855458977222,0.0,104996.0,0.0,0.0,0.0,0.0,0.125,2.833251663,4.389674732977291,0.0,-143062.0,0.125,0.0,0.0,0.0,0.125,4.661864757,3.031687206278561,0.0,0.30000001192092896,-0.5099999904632568,100.0,-0.0113525390625,0.00421142578125,1.01654052734375,35.459999084472656,0.0,0.0,-9.215194702148438,-3.9764862060546875,Closing,0.0,0.0,-189.0,0.0,0.0,0.0,0.0,0.0,
11.039451000000001,0.0,0.0,159720.0,0.0,0.0,0.0,0.0,0.25,1.325683458,0.5498168668524864,0.0,-114707.0,0.125,0.0,0.0,0.0,0.125,2.454833733,1.92855458977222,0.0,104996.0,0.0,0.0,0.0,0.0,0.125,2.833251663,4.389674732977291,0.0,-143062.0,0.125,0.0,0.0,0.0,0.125,4.661864757,3.031687206278561,0.0,0.30000001192092896,-0.5199999809265137,99.98999786376953,-0.01043701171875,0.004638671875,1.0196533203125,35.459999084472656,0.0,0.0,-9.215194702148438,-3.9764862060546875,Closing,0.0,0.0,-189.0,0.0,0.0,0.0,0.0,0.0,
11.238888000000035,0.0,0.0,159720.0,0.0,0.0,0.0,0.0,0.25,1.3232420520000001,0.5498168668524864,0.0,-114707.0,0.125,0.0,0.0,0.0,0.125,2.454833733,1.92855458977222,0.0,104996.0,0.0,0.0,0.0,0.0,0.125,2.833251663,4.389674732977291,0.0,-143062.0,0.125,0.0,0.0,0.0,0.125,4.661864757,3.031687206278561,0.0,0.30000001192092896,-0.5299999713897705,99.9800033569336,-0.01141357421875,0.007568359375,1.021240234375,35.459999084472656,0.0,2.0,-9.215194702148438,-3.9764862060546875,Closing,0.0,0.0,-189.0,0.0,0.0,0.0,0.0,0.0,
11.448373000000021,0.0,0.0,159720.0,0.0,0.0,0.0,0.0,0.25,1.324462755,0.5498168668524864,0.0,-114707.0,0.125,0.0,0.0,0.0,0.125,2.454833733,1.92855458977222,0.0,104996.0,0.0,0.0,0.0,0.0,0.125,2.834472366,4.389674732977291,0.0,-143062.0,0.125,0.0,0.0,0.0,0.125,4.6630854600000005,3.031687206278561,0.0,0.3100000023841858,-0.5400000214576721,99.9800033569336,-0.01019287109375,0.00347900390625,1.01898193359375,35.459999084472656,0.0,-1.0,-9.215194702148438,-3.9764862060546875,Closing,0.0,0.0,-189.0,0.0,0.0,0.0,0.0,0.0,
11.651370999999985,0.0,0.0,159720.0,0.0,0.0,0.0,0.0,0.25,1.324462755,0.5498168668524864,0.0,-114707.0,0.125,0.0,0.0,0.0,0.125,2.454833733,1.92855458977222,0.0,104996.0,0.0,0.0,0.0,0.0,0.125,2.833251663,4.389674732977291,0.0,-143062.0,0.125,0.0,0.0,0.0,0.125,4.661864757,3.031687206278561,0.0,0.30000001192092896,-0.550000011920929,99.97000122070312,-0.01153564453125,0.00531005859375,1.025390625,35.459999084472656,0.0,0.0,-9.215194702148438,-3.9764862060546875,Closing,0.0,0.0,-189.0,0.0,0.0,0.0,0.0,0.0,
11.850787000000011,0.0,0.0,159720.0,0.0,0.0,0.0,0.0,0.25,1.324462755,0.5498168668524864,0.0,-114707.0,0.125,0.0,0.0,0.0,0.125,2.456054436,1.92855458977222,0.0,104996.0,0.0,0.0,0.0,0.0,0.125,2.833251663,4.389674732977291,0.0,-143062.0,0.125,0.0,0.0,0.0,0.125,4.6630854600000005,3.031687206278561,0.0,0.30000001192092896,-0.5600000023841858,99.9800033569336,-0.0091552734375,0.0050048828125,1.02423095703125,35.4900016784668,0.0,0.0,-9.215194702148438,-3.9764862060546875,Closing,0.0,0.0,-189.0,0.0,0.0,0.0,0.0,0.0,
12.114505000000005,0.0,0.0,159720.0,0.0,0.0,0.0,0.0,0.25,1.324462755,0.5498168668524864,0.0,-114707.0,0.125,0.0,0.0,0.0,0.125,2.454833733,1.92855458977222,0.0,104996.0,0.0,0.0,0.0,0.0,0.125,2.833251663,4.389674732977291,0.0,-143062.0,0.125,0.0,0.0,0.0,0.125,4.6630854600000005,3.031687206278561,0.0,0.30000001192092896,-0.5699999928474426,99.97000122070312,-0.01220703125,0.00457763671875,1.02276611328125,35.4900016784668,0.0,0.0,-9.215194702148438,-3.9764862060546875,Closing,0.0,0.0,-189.0,0.0,0.0,0.0,0.0,0.0,
12.380532000000006,0.0,0.0,159720.0,0.0,0.0,0.0,0.0,0.25,1.324462755,0.5498168668524864,0.0,-114707.0,0.125,0.0,0.0,0.0,0.125,2.454833733,1.92855458977222,0.0,104996.0,0.0,0.0,0.0,0.0,0.125,2.834472366,4.389674732977291,0.0,-143062.0,0.125,0.0,0.0,0.0,0.125,4.661864757,3.031687206278561,0.0,0.30000001192092896,-0.5699999928474426,99.97000122070312,-0.009765625,0.00445556640625,1.0191650390625,35.459999084472656,0.0,0.0,-9.215194702148438,-3.9764862060546875,Closing,0.0,0.0,-189.0,0.0,0.0,0.0,0.0,0.0,
12.584364999999991,0.0,0.0,159720.0,0.0,0.0,0.0,0.0,0.25,1.3232420520000001,0.5498168668524864,0.0,-114707.0,0.125,0.0,0.0,0.0,0.125,2.454833733,1.92855458977222,0.0,104996.0,0.0,0.0,0.0,0.0,0.125,2.834472366,4.389674732977291,0.0,-143062.0,0.125,0.0,0.0,0.0,0.125,4.664306163,3.031687206278561,0.0,0.30000001192092896,-0.5699999928474426,99.97000122070312,-0.0101318359375,0.0050048828125,1.02276611328125,35.459999084472656,0.0,0.0,-9.215194702148438,-3.9764862060546875,Closing,0.0,0.0,-189.0,0.0,0.0,0.0,0.0,0.0,
12.780508000000031,0.0,0.0,159720.0,0.0,0.0,0.0,0.0,0.25,1.324462755,0.5498168668524864,0.0,-114707.0,0.125,0.0,0.0,0.0,0.125,2.454833733,1.92855458977222,0.0,104996.0,0.0,0.0,0.0,0.0,0.125,2.833251663,4.389674732977291,0.0,-143062.0,0.125,0.0,0.0,0.0,0.125,4.6630854600000005,3.031687206278561,0.0,0.30000001192092896,-0.5799999833106995,99.95999908447266,-0.0098876953125,0.0052490234375,1.02178955078125,35.459999084472656,0.0,0.0,-9.215194702148438,-3.9764862060546875,Closing,0.0,0.0,-189.0,0.0,0.0,0.0,0.0,0.0,
12.978916000000027,0.0,0.0,159720.0,0.0,0.0,0.0,0.0,0.25,1.324462755,0.5498168668524864,0.0,-114707.0,0.125,0.0,0.0,0.0,0.125,2.456054436,1.92855458977222,0.0,104996.0,0.0,0.0,0.0,0.0,0.125,2.834472366,4.389674732977291,0.0,-143062.0,0.125,0.0,0.0,0.0,0.125,4.6630854600000005,3.031687206278561,0.0,0.3100000023841858,-0.5799999833106995,99.94999694824219,-0.00897216796875,0.00665283203125,1.01641845703125,35.459999084472656,0.0,0.0,-9.215194702148438,-3.9764862060546875,Closing,0.0,0.0,-189.0,0.0,0.0,0.0,0.0,0.0,
13.181206999999995,0.0,0.0,159720.0,0.0,0.0,0.0,0.0,0.25,1.324462755,0.5498168668524864,0.0,-114707.0,0.125,0.0,0.0,0.0,0.125,2.454833733,1.92855458977222,0.0,104996.0,0.0,0.0,0.0,0.0,0.125,2.829589554,4.389674732977291,0.0,-143062.0,0.125,0.0,0.0,0.0,0.125,4.6630854600000005,3.031687206278561,0.0,0.30000001192092896,-0.5799999833106995,99.94999694824219,-0.00616455078125,0.0074462890625,1.0216064453125,35.459999084472656,0.0,1.0,-9.215194702148438,-3.9764862060546875,Closing,0.0,0.0,-189.0,0.0,0.0,0.0,0.0,0.0,
13.382314000000013,0.0,0.0,159720.0,0.0,0.0,0.0,0.0,0.25,1.324462755,0.5498168668524864,0.0,-114707.0,0.125,0.0,0.0,0.0,0.125,2.456054436,1.92855458977222,0.0,104996.0,0.0,0.0,0.0,0.0,0.125,2.834472366,4.389674732977291,0.0,-143062.0,0.125,0.0,0.0,0.0,0.125,4.6630854600000005,3.031687206278561,0.0,0.30000001192092896,-0.5899999737739563,99.94999694824219,-0.01202392578125,0.0042724609375,1.0167236328125,35.47999954223633,0.0,0.0,-9.215194702148438,-3.9764862060546875,Closing,0.0,0.0,-189.0,0.0,0.0,0.0,0.0,0.0,
13.581277000000002,0.0,0.0,159720.0,0.0,0.0,0.0,0.0,0.25,1.324462755,0.5498168668524864,0.0,-114707.0,0.125,0.0,0.0,0.0,0.125,2.456054436,1.92855458977222,0.0,104996.0,0.0,0.0,0.0,0.0,0.125,2.834472366,4.389674732977291,0.0,-143062.0,0.125,0.0,0.0,0.0,0.125,4.6630854600000005,3.031687206278561,0.0,0.30000001192092896,-0.5799999833106995,99.94000244140625,-0.0101318359375,0.00634765625,1.02130126953125,35.47999954223633,0.0,0.0,-9.215194702148438,-3.9764862060546875,Closing,0.0,0.0,-189.0,0.0,0.0,0.0,0.0,0.0,
13.779486000000034,0.0,0.0,159720.0,0.0,0.0,0.0,0.0,0.25,1.3232420520000001,0.5498168668524864,0.0,-114707.0,0.125,0.0,0.0,0.0,0.125,2.456054436,1.92855458977222,0.0,104996.0,0.0,0.0,0.0,0.0,0.125,2.834472366,4.389674732977291,0.0,-143062.0,0.125,0.0,0.0,0.0,0.125,4.6630854600000005,3.031687206278561,0.0,0.30000001192092896,-0.5899999737739563,99.94000244140625,-0.0098876953125,0.00665283203125,1.019775390625,35.47999954223633,0.0,1.0,-9.215194702148438,-3.9764862060546875,Closing,0.0,0.0,-189.0,0.0,0.0,0.0,0.0,0.0,
13.979805999999982,0.0,0.0,159720.0,0.0,0.0,0.0,0.0,0.25,1.324462755,0.5498168668524864,0.0,-114707.0,0.125,0.0,0.0,0.0,0.125,2.456054436,1.92855458977222,0.0,104996.0,0.0,0.0,0.0,0.0,0.125,2.834472366,4.389674732977291,0.0,-143062.0,0.125,0.0,0.0,0.0,0.125,4.661864757,3.031687206278561,0.0,0.3100000023841858,-0.5799999833106995,99.93000030517578,-0.01123046875,0.00537109375,1.02105712890625,35.47999954223633,0.0,0.0,-9.215194702148438,-3.9764862060546875,Closing,0.0,0.0,-189.0,0.0,0.0,0.0,0.0,0.0,
14.179828000000038,0.0,0.0,159720.0,0.0,0.0,0.0,0.0,0.25,1.308593616,0.5498168668524864,0.0,-114707.0,0.125,0.0,0.0,0.0,0.125,2.454833733,1.92855458977222,0.0,104996.0,0.0,0.0,0.0,0.0,0.125,2.833251663,4.389674732977291,0.0,-143062.0,0.125,0.0,0.0,0.0,0.125,4.661864757,3.031687206278561,0.0,0.3100000023841858,-0.5799999833106995,99.93000030517578,-0.01104736328125,0.00469970703125,1.0191650390625,35.47999954223633,0.0,0.0,-9.215194702148438,-3.9764862060546875,Closing,0.0,0.0,-189.0,0.0,0.0,0.0,0.0,0.0,
14.383625999999989,0.0,0.0,159720.0,0.0,0.0,0.0,0.0,0.25,1.324462755,0.5498168668524864,0.0,-114707.0,0.125,0.0,0.0,0.0,0.125,2.454833733,1.92855458977222,0.0,104996.0,0.0,0.0,0.0,0.0,0.125,2.834472366,4.389674732977291,0.0,-143062.0,0.125,0.0,0.0,0.0,0.125,4.664306163,3.031687206278561,0.0,0.3100000023841858,-0.5799999833106995,99.91999816894531,-0.01129150390625,0.0052490234375,1.022705078125,35.4900016784668,0.0,0.0,-9.215194702148438,-3.9764862060546875,Closing,0.0,0.0,-189.0,0.0,0.0,0.0,0.0,0.0,
14.579804000000003,0.0,0.0,159720.0,0.0,0.0,0.0,0.0,0.25,1.325683458,0.5498168668524864,0.0,-114707.0,0.125,0.0,0.0,0.0,0.125,2.454833733,1.92855458977222,0.0,104996.0,0.0,0.0,0.0,0.0,0.125,2.834472366,4.389674732977291,0.0,-143062.0,0.125,0.0,0.0,0.0,0.125,4.661864757,3.031687206278561,0.0,0.3100000023841858,-0.5799999833106995,99.91000366210938,-0.00726318359375,0.00341796875,1.0206298828125,35.4900016784668,0.0,-2.0,-9.215194702148438,-3.9764862060546875,Closing,0.0,0.0,-189.0,0.0,0.0,0.0,0.0,0.0,
14.778206000000006,0.0,0.0,159720.0,0.0,0.0,0.0,0.0,0.25,1.324462755,0.5498168668524864,0.0,-114707.0,0.125,0.0,0.0,0.0,0.125,2.454833733,1.92855458977222,0.0,104996.0,0.0,0.0,0.0,0.0,0.125,2.833251663,4.389674732977291,0.0,-143062.0,0.125,0.0,0.0,0.0,0.125,4.661864757,3.031687206278561,0.0,0.3100000023841858,-0.5899999737739563,99.91000366210938,-0.00982666015625,0.003662109375,1.02203369140625,35.4900016784668,0.0,-1.0,-9.215194702148438,-3.9764862060546875,Closing,0.0,0.0,-189.0,0.0,0.0,0.0,0.0,0.0,
14.978942000000039,0.0,0.0,159720.0,0.0,0.0,0.0,0.0,0.25,1.324462755,0.5498168668524864,0.0,-114707.0,0.125,0.0,0.0,0.0,0.125,2.454833733,1.92855458977222,0.0,104996.0,0.0,0.0,0.0,0.0,0.125,2.834472366,4.389674732977291,0.0,-143062.0,0.125,0.0,0.0,0.0,0.125,4.6630854600000005,3.031687206278561,0.0,0.3100000023841858,-0.5799999833106995,99.9000015258789,-0.01092529296875,0.00958251953125,1.01971435546875,35.5099983215332,0.0,3.0,-9.215194702148438,-3.9764862060546875,Closing,0.0,0.0,-189.0,0.0,0.0,0.0,0.0,0.0,
15.181488000000012,0.0,0.0,159720.0,0.0,0.0,0.0,0.0,0.25,1.324462755,0.5498168668524864,0.0,-114707.0,0.125,0.0,0.0,0.0,0.125,2.456054436,1.92855458977222,0.0,104996.0,0.0,0.0,0.0,0.0,0.125,2.833251663,4.389674732977291,0.0,-143062.0,0.125,0.0,0.0,0.0,0.125,4.6630854600000005,3.031687206278561,0.0,0.3100000023841858,-0.5799999833106995,99.9000015258789,-0.0106201171875,0.00457763671875,1.01885986328125,35.5099983215332,0.0,0.0,-9.215194702148438,-3.9764862060546875,Closing,0.0,0.0,-189.0,0.0,0.0,0.0,0.0,0.0,
15.380455000000016,0.0,0.0,159720.0,0.0,0.0,0.0,0.0,0.25,1.324462755,0.5498168668524864,0.0,-114707.0,0.125,0.0,0.0,0.0,0.125,2.456054436,1.92855458977222,0.0,104996.0,0.0,0.0,0.0,0.0,0.125,2.834472366,4.389674732977291,0.0,-143062.0,0.125,0.0,0.0,0.0,0.125,4.661864757,3.031687206278561,0.0,0.3100000023841858,-0.5799999833106995,99.88999938964844,-0.01116943359375,0.001220703125,1.01776123046875,35.470001220703125,0.0,-4.0,-9.215194702148438,-3.9764862060546875,Closing,0.0,0.0,-189.0,0.0,0.0,0.0,0.0,0.0,
15.580842000000004,0.0,0.0,159720.0,0.0,0.0,0.0,0.0,0.25,1.324462755,0.5498168668524864,0.0,-114707.0,0.125,0.0,0.0,0.0,0.125,2.454833733,1.92855458977222,0.0,104996.0,0.0,0.0,0.0,0.0,0.125,2.834472366,4.389674732977291,0.0,-143062.0,0.125,0.0,0.0,0.0,0.125,4.6582026480000005,3.031687206278561,0.0,0.3100000023841858,-0.5899999737739563,99.88999938964844,-0.01129150390625,0.00653076171875,1.01617431640625,35.470001220703125,0.0,1.0,-9.215194702148438,-3.9764862060546875,Closing,0.0,0.0,-189.0,0.0,0.0,0.0,0.0,0.0,
15.781744000000007,0.0,0.0,159720.0,0.0,0.0,0.0,0.0,0.25,1.324462755,0.5498168668524864,0.0,-114707.0,0.125,0.0,0.0,0.0,0.125,2.456054436,1.92855458977222,0.0,104996.0,0.0,0.0,0.0,0.0,0.125,2.833251663,4.389674732977291,0.0,-143062.0,0.125,0.0,0.0,0.0,0.125,4.661864757,3.031687206278561,0.0,0.3100000023841858,-0.5899999737739563,99.88999938964844,-0.010986328125,0.00360107421875,1.0233154296875,35.470001220703125,0.0,-1.0,-9.215194702148438,-3.9764862060546875,Closing,0.0,0.0,-189.0,0.0,0.0,0.0,0.0,0.0,
15.978717999999994,0.0,0.0,159720.0,0.0,0.0,0.0,0.0,0.25,1.3232420520000001,0.5498168668524864,0.0,-114707.0,0.125,0.0,0.0,0.0,0.125,2.456054436,1.92855458977222,0.0,104996.0,0.0,0.0,0.0,0.0,0.125,2.833251663,4.389674732977291,0.0,-143062.0,0.125,0.0,0.0,0.0,0.125,4.664306163,3.031687206278561,0.0,0.30000001192092896,-0.6000000238418579,99.87999725341797,-0.01080322265625,0.0045166015625,1.0218505859375,35.5,0.0,0.0,-9.215194702148438,-3.9764862060546875,Closing,0.0,0.0,-189.0,0.0,0.0,0.0,0.0,0.0,
16.18474900000001,0.0,0.0,159720.0,0.0,0.0,0.0,0.0,0.25,1.324462755,0.5498168668524864,0.0,-114707.0,0.125,0.0,0.0,0.0,0.125,2.454833733,1.92855458977222,0.0,104996.0,0.0,0.0,0.0,0.0,0.125,2.833251663,4.389674732977291,0.0,-143062.0,0.125,0.0,0.0,0.0,0.125,4.661864757,3.031687206278561,0.0,0.30000001192092896,-0.5899999737739563,99.87999725341797,-0.01348876953125,0.009033203125,1.02020263671875,35.5,0.0,4.0,-9.215194702148438,-3.9764862060546875,Closing,0.0,0.0,-189.0,0.0,0.0,0.0,0.0,0.0,
16.38009700000001,0.0,0.0,159720.0,0.0,0.0,0.0,0.0,0.25,1.3415525970000002,0.5498168668524864,0.0,-114707.0,0.125,0.0,0.0,0.0,0.125,2.454833733,1.92855458977222,0.0,104996.0,0.0,0.0,0.0,0.0,0.125,2.834472366,4.389674732977291,0.0,-143062.0,0.125,0.0,0.0,0.0,0.125,4.661864757,3.031687206278561,0.0,0.30000001192092896,-0.6000000238418579,99.87999725341797,-0.01263427734375,0.00433349609375,1.02349853515625,35.4900016784668,0.0,0.0,-9.215194702148438,-3.9764862060546875,Closing,0.0,0.0,-189.0,0.0,0.0,0.0,0.0,0.0,
16.581652000000002,0.0,0.0,159720.0,0.0,0.0,0.0,0.0,0.25,1.324462755,0.5498168668524864,0.0,-114707.0,0.125,0.0,0.0,0.0,0.125,2.454833733,1.92855458977222,0.0,104996.0,0.0,0.0,0.0,0.0,0.125,2.834472366,4.389674732977291,0.0,-143062.0,0.125,0.0,0.0,0.0,0.125,4.661864757,3.031687206278561,0.0,0.30000001192092896,-0.6000000238418579,99.87999725341797,-0.01019287109375,0.00531005859375,1.021240234375,35.4900016784668,0.0,0.0,-9.215194702148438,-3.9764862060546875,Closing,0.0,0.0,-189.0,0.0,0.0,0.0,0.0,0.0,
16.780657999999995,0.0,0.0,159720.0,0.0,0.0,0.0,0.0,0.25,1.324462755,0.5498168668524864,0.0,-114707.0,0.125,0.0,0.0,0.0,0.125,2.456054436,1.92855458977222,0.0,104996.0,0.0,0.0,0.0,0.0,0.125,2.834472366,4.389674732977291,0.0,-143062.0,0.0,0.0,0.0,0.0,0.125,4.6630854600000005,3.031687206278561,0.0,0.3100000023841858,-0.5899999737739563,99.87000274658203,-0.00640869140625,0.007568359375,1.02239990234375,35.4900016784668,0.0,1.0,-9.215194702148438,-3.9764862060546875,Closing,0.0,0.0,-189.0,0.0,0.0,0.0,0.0,0.0,
16.980377000000036,0.0,0.0,159720.0,0.0,0.0,0.0,0.0,0.25,1.325683458,0.5498168668524864,0.0,-114707.0,0.125,0.0,0.0,0.0,0.125,2.454833733,1.92855458977222,0.0,104996.0,0.0,0.0,0.0,0.0,0.125,2.834472366,4.389674732977291,0.0,-143062.0,0.125,0.0,0.0,0.0,0.125,4.661864757,3.031687206278561,0.0,0.30000001192092896,-0.5899999737739563,99.87000274658203,-0.0096435546875,0.00518798828125,1.02362060546875,35.470001220703125,0.0,0.0,-9.215194702148438,-3.9764862060546875,Closing,0.0,0.0,-189.0,0.0,0.0,0.0,0.0,0.0,
17.178989,0.0,0.0,159720.0,0.0,0.0,0.0,0.0,0.25,1.3232420520000001,0.5498168668524864,0.0,-114707.0,0.125,0.0,0.0,0.0,0.125,2.456054436,1.92855458977222,0.0,104996.0,0.0,0.0,0.0,0.0,0.125,2.834472366,4.389674732977291,0.0,-143062.0,0.125,0.0,0.0,0.0,0.125,4.6630854600000005,3.031687206278561,0.0,0.30000001192092896,-0.6000000238418579,99.86000061035156,-0.0113525390625,0.0068359375,1.0196533203125,35.470001220703125,0.0,1.0,-9.215194702148438,-3.9764862060546875,Closing,0.0,0.0,-189.0,0.0,0.0,0.0,0.0,0.0,
17.36660399999999,0.0,0.0,159720.0,0.0,0.0,0.0,0.0,0.25,1.324462755,0.5498168668524864,0.0,-114707.0,0.125,0.0,0.0,0.0,0.125,2.454833733,1.92855458977222,0.0,104996.0,0.0,0.0,0.0,0.0,0.125,2.833251663,4.389674732977291,0.0,-143062.0,0.125,0.0,0.0,0.0,0.125,4.661864757,3.031687206278561,0.0,0.30000001192092896,-0.6000000238418579,99.86000061035156,-0.009033203125,0.00604248046875,1.02099609375,35.470001220703125,0.0,0.0,-9.215194702148438,-3.9764862060546875,Closing,0.0,0.0,-189.0,0.0,0.0,0.0,0.0,0.0,
17.579227000000014,0.0,0.0,159720.0,0.0,0.0,0.0,0.0,0.25,1.324462755,0.5498168668524864,0.0,-114707.0,0.125,0.0,0.0,0.0,0.125,2.456054436,1.92855458977222,0.0,104996.0,0.0,0.0,0.0,0.0,0.125,2.833251663,4.389674732977291,0.0,-143062.0,0.125,0.0,0.0,0.0,0.125,4.665526866,3.031687206278561,0.0,0.30000001192092896,-0.6000000238418579,99.86000061035156,-0.01171875,0.00274658203125,1.022216796875,35.4900016784668,0.0,-2.0,-9.215194702148438,-3.9764862060546875,Closing,0.0,0.0,-189.0,0.0,0.0,0.0,0.0,0.0,
17.778639000000023,0.0,0.0,159720.0,0.0,0.0,0.0,0.0,0.25,1.324462755,0.5498168668524864,0.0,-114707.0,0.125,0.0,0.0,0.0,0.125,2.454833733,1.92855458977222,0.0,104996.0,0.0,0.0,0.0,0.0,0.125,2.834472366,4.389674732977291,0.0,-143062.0,0.125,0.0,0.0,0.0,0.125,4.6630854600000005,3.031687206278561,0.0,0.30000001192092896,-0.6000000238418579,99.86000061035156,-0.00823974609375,0.00726318359375,1.01922607421875,35.4900016784668,0.0,1.0,-9.215194702148438,-3.9764862060546875,Closing,0.0,0.0,-189.0,0.0,0.0,0.0,0.0,0.0,
17.977885000000008,0.0,0.0,159720.0,0.0,0.0,0.0,0.0,1.0,0.7751464050000001,0.01,0.0,-114707.0,0.125,0.0,-0.0,0.0,1.5,1.3415525970000002,0.01,0.0,104996.0,0.0,0.0,0.0,0.0,1.375,3.488769174,0.01,0.0,-143062.0,0.125,0.0,-0.0,0.0,2.0,0.8312987430000001,0.01,0.0,0.3100000023841858,-0.5299999713897705,99.6500015258789,-0.011474609375,0.0567626953125,1.03741455078125,35.4900016784668,0.0,50.0,-9.2127685546875,-3.9794464111328125,Closing,0.0,0.0,-189.0,0.0,0.0,0.0,0.0,0.0,
18.18120000000001,0.0,0.0,159727.0,0.0,7.5,0.0,0.0,0.25,0.760497969,0.01,0.0,-114704.0,0.125,37.5,-0.0,0.0,1.5,4.94384715,0.01,0.0,104996.0,0.0,0.0,0.0,0.0,0.125,3.4204098060000003,0.01,0.0,-143086.0,0.25,-82.5,-0.0,0.0,1.625,2.177734152,0.01,0.0,0.3199999928474426,-0.6100000143051147,99.27999877929688,-0.05401611328125,0.07965087890625,1.0792236328125,35.4900016784668,0.0,79.0,-9.209091186523438,-3.978851318359375,Closing,0.0,0.0,-189.0,0.0,0.0,0.0,0.0,0.0,
18.383032999999998,0.0,0.0,159728.0,0.0,0.0,0.0,0.0,0.25,0.812988198,0.01,0.0,-114692.0,0.125,0.0,-0.0,0.0,0.75,0.5175780720000001,0.01,0.0,104996.0,0.0,0.0,0.0,0.0,0.125,3.338622705,0.01,0.0,-143089.0,0.125,0.0,-0.0,0.0,0.875,1.699218576,0.01,0.0,0.3400000035762787,-0.6100000143051147,99.16999816894531,-0.00885009765625,-0.02532958984375,1.04058837890625,35.4900016784668,0.0,-31.0,-9.205795288085938,-3.978729248046875,Closing,0.0,0.0,-189.0,0.0,0.0,0.0,0.0,0.0,
18.650428000000016,0.0,0.0,159728.0,0.0,0.0,0.0,0.0,0.25,0.8312987430000001,0.01,0.0,-114692.0,0.125,0.0,-0.0,0.0,0.25,0.740966721,0.01,0.0,104996.0,0.0,0.0,0.0,0.0,0.0,3.330077784,0.01,0.0,-143089.0,0.25,0.0,-0.0,0.0,0.25,1.534423671,0.01,0.0,0.3100000023841858,-0.6100000143051147,99.13999938964844,-0.00433349609375,0.0081787109375,1.0421142578125,35.470001220703125,0.0,1.0,-9.205810546875,-3.9786529541015625,Closing,0.0,0.0,-189.0,0.0,0.0,0.0,0.0,0.0,
18.852005999999992,0.0,0.0,159728.0,0.0,0.0,0.0,0.0,0.125,0.8312987430000001,0.01,0.0,-114692.0,0.125,0.0,-0.0,0.0,0.25,0.53710932,0.01,0.0,104996.0,0.0,0.0,0.0,0.0,0.0,3.330077784,0.01,0.0,-143089.0,0.25,0.0,-0.0,0.0,0.25,1.6552732680000002,0.01,0.0,0.3199999928474426,-0.6100000143051147,99.13999938964844,-0.00567626953125,0.00244140625,1.02423095703125,35.470001220703125,0.0,-4.0,-9.205810546875,-3.9786529541015625,Closing,0.0,0.0,-189.0,0.0,0.0,0.0,0.0,0.0,
19.053380000000004,0.0,0.0,159728.0,0.0,0.0,0.0,0.0,0.125,0.8312987430000001,0.01,0.0,-114692.0,0.125,0.0,-0.0,0.0,0.0,0.416259723,0.01,0.0,104996.0,0.0,0.0,0.0,0.0,0.0,3.328857081,0.01,0.0,-143089.0,0.25,0.0,-0.0,0.0,0.25,1.674804516,0.01,0.0,0.30000001192092896,-0.6100000143051147,99.12999725341797,-0.017578125,0.0062255859375,1.02105712890625,35.52000045776367,0.0,1.0,-9.205810546875,-3.9786529541015625,Closing,0.0,0.0,-189.0,0.0,0.0,0.0,0.0,0.0,
19.24965500000003,0.0,0.0,159728.0,0.0,0.0,0.0,0.0,0.25,0.8312987430000001,0.01,0.0,-114692.0,0.125,0.0,-0.0,0.0,0.25,0.471191358,0.01,0.0,104996.0,0.0,0.0,0.0,0.0,0.0,3.330077784,0.01,0.0,-143089.0,0.25,0.0,-0.0,0.0,0.25,1.674804516,0.01,0.0,0.30000001192092896,-0.6000000238418579,99.12999725341797,-0.01373291015625,0.0040283203125,1.018798828125,35.52000045776367,0.0,0.0,-9.205810546875,-3.9786529541015625,Closing,0.0,0.0,-189.0,0.0,0.0,0.0,0.0,0.0,
19.517598999999986,0.0,0.0,159728.0,0.0,0.0,0.0,0.0,0.125,0.832519446,0.01,0.0,-114692.0,0.125,0.0,-0.0,0.0,0.25,0.483398388,0.01,0.0,104996.0,0.0,0.0,0.0,0.0,0.0,3.328857081,0.01,0.0,-143089.0,0.25,0.0,-0.0,0.0,0.25,1.665038892,0.01,0.0,0.28999999165534973,-0.6000000238418579,99.12999725341797,-0.01153564453125,0.00494384765625,1.02142333984375,35.5,0.0,0.0,-9.205810546875,-3.9786529541015625,Closing,0.0,0.0,-189.0,0.0,0.0,0.0,0.0,0.0,
19.783919999999984,0.0,0.0,159728.0,0.0,0.0,0.0,0.0,0.125,0.8288573370000001,0.01,0.0,-114692.0,0.125,0.0,-0.0,0.0,0.25,0.483398388,0.01,0.0,104996.0,0.0,0.0,0.0,0.0,0.0,3.328857081,0.01,0.0,-143089.0,0.25,0.0,-0.0,0.0,0.25,1.665038892,0.01,0.0,0.28999999165534973,-0.5899999737739563,99.12000274658203,-0.01177978515625,0.0035400390625,1.02093505859375,35.5,0.0,-1.0,-9.205810546875,-3.9786529541015625,Closing,0.0,0.0,-189.0,0.0,0.0,0.0,0.0,0.0,
19.983141000000003,0.0,0.0,159728.0,0.0,0.0,0.0,0.0,0.25,0.8312987430000001,0.01,0.0,-114692.0,0.125,0.0,-0.0,0.0,0.25,0.483398388,0.01,0.0,104996.0,0.0,0.0,0.0,0.0,0.0,3.328857081,0.01,0.0,-143089.0,0.25,0.0,-0.0,0.0,0.25,1.665038892,0.01,0.0,0.28999999165534973,-0.6000000238418579,99.12000274658203,-0.0118408203125,0.007568359375,1.02740478515625,35.5099983215332,0.0,2.0,-9.205810546875,-3.9786529541015625,Closing,0.0,0.0,-189.0,0.0,0.0,0.0,0.0,0.0,
20.18119400000002,0.0,0.0,159728.0,0.0,0.0,0.0,0.0,0.125,0.8312987430000001,0.01,0.0,-114692.0,0.125,0.0,-0.0,0.0,0.25,0.48583979400000005,0.01,0.0,104996.0,0.0,0.0,0.0,0.0,0.0,3.330077784,0.01,0.0,-143089.0,0.25,0.0,-0.0,0.0,0.25,1.665038892,0.01,0.0,0.28999999165534973,-0.6000000238418579,99.12000274658203,-0.0123291015625,0.00360107421875,1.0174560546875,35.5099983215332,0.0,-1.0,-9.205810546875,-3.9786529541015625,Closing,0.0,0.0,-189.0,0.0,0.0,0.0,0.0,0.0,
20.381623000000022,0.0,0.0,159728.0,0.0,0.0,0.0,0.0,0.25,0.832519446,0.01,0.0,-114692.0,0.125,0.0,-0.0,0.0,0.25,0.483398388,0.01,0.0,104996.0,0.0,0.0,0.0,0.0,0.0,3.328857081,0.01,0.0,-143089.0,0.25,0.0,-0.0,0.0,0.25,1.665038892,0.01,0.0,0.28999999165534973,-0.6000000238418579,99.12000274658203,-0.01104736328125,0.00762939453125,1.02178955078125,35.5099983215332,0.0,2.0,-9.205810546875,-3.9786529541015625,Closing,0.0,0.0,-189.0,0.0,0.0,0.0,0.0,0.0,
20.58480700000003,0.0,0.0,159728.0,0.0,0.0,0.0,0.0,0.125,0.832519446,0.01,0.0,-114692.0,0.125,0.0,-0.0,0.0,0.25,0.484619091,0.01,0.0,104996.0,0.0,0.0,0.0,0.0,0.0,3.328857081,0.01,0.0,-143089.0,0.25,0.0,-0.0,0.0,0.25,1.665038892,0.01,0.0,0.28999999165534973,-0.6000000238418579,99.11000061035156,-0.00933837890625,0.00640869140625,1.022705078125,35.5099983215332,0.0,0.0,-9.205810546875,-3.9786529541015625,Closing,0.0,0.0,-189.0,0.0,0.0,0.0,0.0,0.0,
20.78089500000002,0.0,0.0,159728.0,0.0,0.0,0.0,0.0,0.25,0.832519446,0.01,0.0,-114692.0,0.0,0.0,-0.0,0.0,0.0,0.483398388,0.01,0.0,104996.0,0.0,0.0,0.0,0.0,0.0,3.330077784,0.01,0.0,-143089.0,0.125,0.0,-0.0,0.0,0.125,1.665038892,0.01,0.0,0.28999999165534973,-0.6000000238418579,99.11000061035156,-0.011474609375,0.0025634765625,1.015380859375,35.5099983215332,0.0,-2.0,-9.205810546875,-3.9786529541015625,Closing,0.0,0.0,-189.0,0.0,0.0,0.0,0.0,0.0,
