Time,ClimberA1,ClimberA2,FRpos,FRCurrent,FRspeed,FRsetpoint,FRApos,FRACurrent,FREncpos,FREncSetpoint,FREncSpeed,FLpos,FLCurrent,FLspeed,FLsetpoint,FLApos,FLACurrent,FLEncpos,FLEncSetpoint,FLEncSpeed,BRpos,BRCurrent,BRspeed,BRsetpoint,BRApos,BRACurrent,BREncpos,BREncSetpoint,BREncSpeed,BLpos,BLCurrent,BLspeed,BLsetpoint,BLApos,BLACurrent,BLEncpos,BLEncSetpoint,BLEncSpeed,navx_Pitch,navx_Roll,navx_Yaw,navx_XAcc,navx_YAcc,navx_ZAcc,navx_Temp,navx_Bar,navx_Alt,navx_XDis,navx_YDis,GearPlacerState,ShootOutputV,ShootOutputCurrent,ShootEncPos,ShootEncVelocity,ShootSpeed,ShootSetpoint,CarouselSetpoint,CarouselCurrent,
0.1573410000000149,0.0,0.0,78849.0,0.0,0.0,0.0,0.0,0.25,0.836181555,0.01,0.0,-87874.0,0.125,0.0,-0.0,0.0,0.125,0.531005805,0.01,0.0,71379.0,0.125,0.0,0.0,0.0,0.0,3.350829735,0.01,0.0,-63453.0,0.125,0.0,-0.0,0.0,0.25,1.650390456,0.01,0.0,0.25,-0.5299999713897705,47.9900016784668,-0.0108642578125,0.00677490234375,1.021728515625,36.08000183105469,0.0,0.0,-4.817352294921875,-0.25390625,Opening,0.0,0.0,-189.0,0.0,0.0,0.0,0.0,0.0,
0.3487149999999674,0.0,0.0,78849.0,0.0,0.0,0.0,0.0,0.25,0.837402258,0.01,0.0,-87874.0,0.0,0.0,-0.0,0.0,0.125,0.531005805,0.01,0.0,71379.0,0.125,0.0,0.0,0.0,0.0,3.350829735,0.01,0.0,-63453.0,0.125,0.0,-0.0,0.0,0.25,1.649169753,0.01,0.0,0.25999999046325684,-0.5299999713897705,47.9900016784668,-0.01043701171875,0.0059814453125,1.01812744140625,36.08000183105469,0.0,0.0,-4.817352294921875,-0.25390625,Closing,0.0,0.0,-189.0,0.0,0.0,0.0,0.0,0.0,
0.5522600000000093,0.0,0.0,78849.0,0.0,0.0,0.0,0.0,0.25,0.837402258,0.01,0.0,-87874.0,0.125,0.0,-0.0,0.0,0.125,0.532226508,0.01,0.0,71379.0,0.125,0.0,0.0,0.0,0.0,3.349609032,0.01,0.0,-63453.0,0.125,0.0,-0.0,0.0,0.25,1.650390456,0.01,0.0,0.25999999046325684,-0.5299999713897705,47.9900016784668,-0.01190185546875,0.00274658203125,1.0152587890625,36.040000915527344,0.0,-3.0,-4.817352294921875,-0.25390625,Closing,0.0,0.0,-189.0,0.0,0.0,0.0,0.0,0.0,
0.7411969999999856,0.0,0.0,78849.0,0.0,0.0,0.0,0.0,0.25,0.836181555,0.01,0.0,-87874.0,0.125,0.0,-0.0,0.0,0.125,0.532226508,0.01,0.0,71379.0,0.125,0.0,0.0,0.0,0.0,3.349609032,0.01,0.0,-63453.0,0.125,0.0,-0.0,0.0,0.25,1.649169753,0.01,0.0,0.27000001072883606,-0.5400000214576721,47.9900016784668,-0.01007080078125,0.00433349609375,1.01873779296875,36.040000915527344,0.0,0.0,-4.817352294921875,-0.25390625,Closing,0.0,0.0,-189.0,0.0,0.0,0.0,0.0,0.0,
0.9487220000000088,0.0,0.0,78849.0,0.0,0.0,0.0,0.0,0.25,0.836181555,0.01,0.0,-87874.0,0.125,0.0,-0.0,0.0,0.125,0.531005805,0.01,0.0,71379.0,0.125,0.0,0.0,0.0,0.0,3.349609032,0.01,0.0,-63453.0,0.125,0.0,-0.0,0.0,0.25,1.650390456,0.01,0.0,0.2800000011920929,-0.5299999713897705,47.9900016784668,-0.00830078125,0.00689697265625,1.0228271484375,36.040000915527344,0.0,2.0,-4.817352294921875,-0.25390625,Closing,0.0,0.0,-189.0,0.0,0.0,0.0,0.0,0.0,
1.1509799999999815,0.0,0.0,78815.0,28.625,-517.5,-2100.0,0.0,0.75,1.409911965,0.5498168668524864,0.0,-88115.0,14.375,-1170.0,-2100.0,0.0,0.875,4.901122545000001,4.41043958977222,0.0,71293.0,27.75,-532.5,-2100.0,0.0,0.75,2.767333701,4.389674732977291,0.0,-63546.0,30.625,-495.0,-2100.0,0.0,0.375,2.360839602,0.552687206278561,0.0,0.0,-1.2000000476837158,57.45000076293945,0.16741943359375,0.14990234375,1.093017578125,36.029998779296875,0.0,228.0,-4.843597412109375,-0.252166748046875,Closing,0.0,0.0,-189.0,0.0,0.0,0.0,0.0,0.0,
1.3425009999999893,0.0,0.0,78488.0,5.625,-1275.0,-992.1260118484497,0.0,0.375,1.596679524,0.5498168668524864,0.0,-88303.0,5.125,-1102.5,-992.1260118484497,0.0,0.25,4.769286621,4.41043958977222,0.0,71161.0,14.375,-1057.5,-992.1260118484497,0.0,0.0,2.6318356680000004,4.389674732977291,0.0,-63708.0,7.75,-1147.5,-992.1260118484497,0.0,0.5,2.40478491,0.552687206278561,0.0,0.23999999463558197,-1.3700000047683716,76.76000213623047,0.03790283203125,0.1583251953125,0.9041748046875,36.029998779296875,0.0,164.0,-4.865386962890625,-0.2525177001953125,Closing,0.0,0.0,-189.0,0.0,0.0,0.0,0.0,0.0,
1.5517490000000107,0.0,0.0,78250.0,0.0,-457.5,0.0,0.0,0.375,1.3232420520000001,0.5498168668524864,0.0,-88548.0,0.125,-502.5,0.0,0.0,0.25,4.952392071,4.41043958977222,0.0,70929.0,0.125,-375.0,0.0,0.0,0.125,2.8405758810000004,4.389674732977291,0.0,-63989.0,0.125,-487.5,0.0,0.0,0.5,2.030029089,0.552687206278561,0.0,0.10999999940395355,-1.1799999475479126,92.75,-0.03741455078125,-0.00738525390625,1.2218017578125,36.029998779296875,0.0,-9.0,-4.88250732421875,-0.2642822265625,Closing,0.0,0.0,-189.0,0.0,0.0,0.0,0.0,0.0,
1.6935359999999637,0.0,0.0,78211.0,0.0,-150.0,0.0,0.0,0.25,1.210937376,0.5498168668524864,0.0,-88628.0,0.125,-187.5,0.0,0.0,0.25,0.03662109,4.41043958977222,0.0,70847.0,0.0,-180.0,0.0,0.0,0.125,2.9040524370000003,4.389674732977291,0.0,-64066.0,0.125,-180.0,0.0,0.0,0.375,2.0080564350000003,0.552687206278561,0.0,0.20000000298023224,-1.090000033378601,95.7699966430664,-7.9345703125E-4,0.0196533203125,0.94549560546875,36.04999923706055,0.0,14.0,-4.88958740234375,-0.2791290283203125,Closing,0.0,0.0,-189.0,0.0,0.0,0.0,0.0,0.125,
1.851344999999972,0.0,0.0,78200.0,0.0,0.0,0.0,0.0,0.375,1.308593616,0.5498168668524864,0.0,-88628.0,0.125,0.0,0.0,0.0,0.25,4.953612774000001,4.41043958977222,0.0,70847.0,0.125,0.0,0.0,0.0,0.125,2.8503415050000003,4.389674732977291,0.0,-64068.0,0.125,-7.5,0.0,0.0,0.375,2.158202904,0.552687206278561,0.0,0.2800000011920929,-1.059999942779541,94.93000030517578,-0.00677490234375,-0.0172119140625,1.0609130859375,36.04999923706055,0.0,-23.0,-4.888824462890625,-0.27935791015625,Closing,0.0,0.0,-189.0,0.0,0.0,0.0,0.0,0.0,
2.0132739999999756,0.0,0.0,78220.0,1.125,150.0,458.1130431088417,0.0,0.875,0.74462883,4.785296744830027,0.0,-88645.0,4.125,-142.5,-657.9387467450617,0.0,0.5,0.318603483,4.861105745595606,0.0,70848.0,2.25,22.5,458.1130431088417,0.0,1.5,3.4814449560000003,0.14719705105067396,0.0,-64077.0,3.0,-52.5,-657.9387467450617,0.0,0.625,1.756591617,0.10254491512237325,0.0,0.30000001192092896,-0.6700000166893005,94.73999786376953,0.0364990234375,0.0194091796875,1.00103759765625,36.04999923706055,0.0,9.0,-4.889068603515625,-0.282867431640625,Closing,0.0,0.0,-189.0,0.0,0.0,0.0,0.0,0.0,
2.188619000000006,0.0,0.0,78238.0,0.0,60.0,0.0,0.0,0.25,0.42724605000000004,4.785296744830027,0.0,-88665.0,0.125,-37.5,0.0,0.0,0.25,0.5419921320000001,4.861105745595606,0.0,70852.0,0.0,0.0,0.0,0.0,0.0,3.754882428,0.14719705105067396,0.0,-64085.0,0.125,0.0,0.0,0.0,0.25,1.53808578,0.10254491512237325,0.0,0.3100000023841858,-0.5299999713897705,95.05000305175781,-0.05499267578125,0.02020263671875,0.986572265625,36.040000915527344,0.0,18.0,-4.8896942138671875,-0.29144287109375,Closing,0.0,0.0,-189.0,0.0,0.0,0.0,0.0,0.0,
2.33399099999998,0.0,0.0,78237.0,3.75,-45.0,-744.0945088863373,0.0,6.125,0.7641600780000001,0.5498168668524864,0.0,-88711.0,2.875,-300.0,-744.0945088863373,0.0,3.0,0.435790971,4.41043958977222,0.0,70851.0,3.75,-7.5,-744.0945088863373,0.0,5.375,3.354491844,4.389674732977291,0.0,-64130.0,1.625,-270.0,-744.0945088863373,0.0,2.125,1.828613094,0.552687206278561,0.0,0.3199999928474426,-0.9100000262260437,95.6500015258789,0.00421142578125,0.01544189453125,1.0340576171875,36.040000915527344,0.0,7.0,-4.8898162841796875,-0.2954559326171875,Closing,0.0,0.0,-189.0,0.0,0.0,0.0,0.0,0.0,
2.469495999999985,0.0,0.0,78232.0,0.0,15.0,0.0,0.0,1.375,1.6040037420000002,0.5498168668524864,0.0,-88704.0,0.0,37.5,0.0,0.0,0.5,4.735106937,4.41043958977222,0.0,70856.0,0.0,60.0,0.0,0.0,1.0,2.5402829430000002,4.389674732977291,0.0,-64138.0,0.125,-15.0,0.0,0.0,0.875,2.316894294,0.552687206278561,0.0,0.33000001311302185,-0.9399999976158142,95.6500015258789,-0.0321044921875,0.02166748046875,0.99591064453125,36.040000915527344,0.0,17.0,-4.89093017578125,-0.2995758056640625,Closing,0.0,0.0,-189.0,0.0,0.0,0.0,0.0,0.0,
2.634290999999968,0.0,0.0,78232.0,0.0,0.0,0.0,0.0,0.5,1.7614744290000002,0.5498168668524864,0.0,-88704.0,0.125,0.0,0.0,0.0,0.25,4.637450697,4.41043958977222,0.0,70861.0,0.0,0.0,0.0,0.0,0.25,2.452392327,4.389674732977291,0.0,-64138.0,0.125,0.0,0.0,0.0,0.25,2.346191166,0.552687206278561,0.0,0.33000001311302185,-1.0299999713897705,96.0999984741211,-0.02923583984375,-0.010009765625,0.9305419921875,36.0,0.0,-14.0,-4.89013671875,-0.3004302978515625,Closing,0.0,0.0,-189.0,0.0,0.0,0.0,0.0,0.0,
2.7860380000000005,0.0,0.0,78232.0,0.0,0.0,0.0,0.0,0.75,1.467285006,0.5498168668524864,0.0,-88704.0,0.125,0.0,0.0,0.0,0.5,4.786376463,4.41043958977222,0.0,70861.0,0.0,0.0,0.0,0.0,0.5,2.760009483,4.389674732977291,0.0,-64138.0,0.125,0.0,0.0,0.0,0.25,2.2253415690000002,0.552687206278561,0.0,0.2800000011920929,-1.0099999904632568,96.0199966430664,-0.00408935546875,0.00531005859375,1.0582275390625,36.0,0.0,-1.0,-4.890106201171875,-0.300506591796875,Closing,0.0,0.0,-189.0,0.0,0.0,0.0,0.0,0.0,
2.916033999999985,0.0,0.0,78232.0,0.0,0.0,0.0,0.0,0.375,1.356201033,0.5498168668524864,0.0,-88704.0,0.125,0.0,0.0,0.0,0.25,4.94384715,4.41043958977222,0.0,70861.0,0.0,0.0,0.0,0.0,0.0,2.821044633,4.389674732977291,0.0,-64138.0,0.125,0.0,0.0,0.0,0.25,2.187499776,0.552687206278561,0.0,0.3400000035762787,-0.9700000286102295,96.0,-0.01934814453125,0.01641845703125,1.044677734375,36.0,0.0,10.0,-4.8892059326171875,-0.300506591796875,Closing,0.0,0.0,-189.0,0.0,0.0,0.0,0.0,0.0,
3.092901000000013,0.0,0.0,78220.0,8.0,-82.5,-1031.8110573291779,0.0,1.625,1.080322155,4.932250999999998,0.0,-88679.0,10.625,210.0,1031.8110573291779,0.0,1.25,0.332031216,4.963769999999998,0.0,70859.0,8.75,-30.0,-1031.8110573291779,0.0,0.75,3.1518551460000004,0.01,0.0,-64119.0,6.125,187.5,1031.8110573291779,0.0,0.625,1.7614744290000002,0.01,0.0,0.3199999928474426,-1.340000033378601,95.83999633789062,-0.047607421875,-0.0765380859375,0.98455810546875,36.029998779296875,0.0,-79.0,-4.885101318359375,-0.2964324951171875,Closing,0.0,0.0,-189.0,0.0,0.0,0.0,0.0,0.0,
3.245343999999983,0.0,0.0,78222.0,0.0,45.0,0.0,0.0,0.5,0.7128905520000001,4.932250999999998,0.0,-88660.0,0.125,7.5,0.0,0.0,0.5,0.629882748,4.963769999999998,0.0,70850.0,0.125,-30.0,0.0,0.0,0.25,3.494872689,0.01,0.0,-64088.0,0.125,22.5,0.0,0.0,0.5,1.4526365700000001,0.01,0.0,0.23999999463558197,-1.2400000095367432,95.68000030517578,0.09295654296875,0.03668212890625,1.01416015625,36.029998779296875,0.0,20.0,-4.8786468505859375,-0.28802490234375,Closing,0.0,0.0,-189.0,0.0,0.0,0.0,0.0,0.125,
3.395216000000015,0.0,0.0,78218.0,0.0,-45.0,0.0,0.0,0.5,0.6323241540000001,4.932250999999998,0.0,-88658.0,0.125,7.5,0.0,0.0,0.25,0.6469725900000001,4.963769999999998,0.0,70846.0,0.125,-7.5,0.0,0.0,0.125,3.504638313,0.01,0.0,-64081.0,0.125,45.0,0.0,0.0,0.375,1.470947115,0.01,0.0,0.28999999165534973,-0.7900000214576721,95.62999725341797,0.04937744140625,-0.02362060546875,0.88543701171875,36.029998779296875,0.0,-34.0,-4.874176025390625,-0.2885894775390625,Closing,0.0,0.0,-189.0,0.0,0.0,0.0,0.0,0.0,
3.5399189999999945,0.0,0.0,78214.0,0.0,0.0,0.0,0.0,0.375,0.760497969,4.932250999999998,0.0,-88658.0,0.125,0.0,0.0,0.0,0.25,0.592040955,4.963769999999998,0.0,70846.0,0.125,0.0,0.0,0.0,0.25,3.408202776,0.01,0.0,-64082.0,0.125,0.0,0.0,0.0,0.375,1.621093584,0.01,0.0,0.33000001311302185,-0.75,95.62000274658203,-0.01751708984375,-0.01788330078125,1.0552978515625,36.029998779296875,0.0,-23.0,-4.871185302734375,-0.2918701171875,Closing,0.0,0.0,-189.0,0.0,0.0,0.0,0.0,0.0,
3.692390000000014,0.0,0.0,78214.0,0.0,0.0,0.0,0.0,0.25,0.8410643670000001,4.932250999999998,0.0,-88658.0,0.125,0.0,0.0,0.0,0.25,0.51269526,4.963769999999998,0.0,70846.0,0.125,0.0,0.0,0.0,0.125,3.345946923,0.01,0.0,-64083.0,0.125,0.0,0.0,0.0,0.125,1.6821287340000002,0.01,0.0,0.33000001311302185,-0.7400000095367432,95.61000061035156,-0.01922607421875,0.0,0.9991455078125,36.029998779296875,0.0,-5.0,-4.8712615966796875,-0.2918701171875,Closing,0.0,0.0,-189.0,0.0,0.0,0.0,0.0,0.0,
3.8458410000000147,0.0,0.0,78214.0,0.0,0.0,0.0,0.0,0.25,0.8422850700000001,4.932250999999998,0.0,-88658.0,0.125,0.0,0.0,0.0,0.0,0.511474557,4.963769999999998,0.0,70846.0,0.125,0.0,0.0,0.0,0.0,3.345946923,0.01,0.0,-64083.0,0.125,0.0,0.0,0.0,0.25,1.649169753,0.01,0.0,0.33000001311302185,-0.7900000214576721,95.5999984741211,-0.01397705078125,0.01141357421875,1.03912353515625,36.029998779296875,0.0,5.0,-4.8712615966796875,-0.2918701171875,Closing,0.0,0.0,-189.0,0.0,0.0,0.0,0.0,0.125,
3.9842579999999725,0.0,0.0,78214.0,0.0,0.0,0.0,0.0,0.25,0.8410643670000001,4.932250999999998,0.0,-88658.0,0.125,0.0,0.0,0.0,0.0,0.51269526,4.963769999999998,0.0,70846.0,0.0,0.0,0.0,0.0,0.0,3.34472622,0.01,0.0,-64083.0,0.125,0.0,0.0,0.0,0.25,1.625976396,0.01,0.0,0.3499999940395355,-0.7599999904632568,95.5999984741211,-0.0078125,0.01287841796875,1.002685546875,36.029998779296875,0.0,6.0,-4.8712615966796875,-0.2918701171875,Closing,0.0,0.0,-189.0,0.0,0.0,0.0,0.0,0.0,
4.154413000000001,0.0,0.0,78214.0,0.0,0.0,0.0,0.0,0.25,0.8410643670000001,4.932250999999998,0.0,-88658.0,0.125,0.0,0.0,0.0,0.0,0.51269526,4.963769999999998,0.0,70846.0,0.0,0.0,0.0,0.0,0.0,3.345946923,0.01,0.0,-64083.0,0.125,0.0,0.0,0.0,0.125,1.625976396,0.01,0.0,0.36000001430511475,-0.7699999809265137,95.58999633789062,-0.0140380859375,0.0072021484375,1.0067138671875,36.060001373291016,0.0,0.0,-4.8712615966796875,-0.2918701171875,Closing,0.0,0.0,-189.0,0.0,0.0,0.0,0.0,0.0,
4.294747999999963,0.0,0.0,78214.0,0.0,0.0,0.0,0.0,0.25,0.8410643670000001,4.932250999999998,0.0,-88658.0,0.125,0.0,0.0,0.0,0.0,0.51269526,4.963769999999998,0.0,70846.0,0.0,0.0,0.0,0.0,0.0,3.345946923,0.01,0.0,-64083.0,0.125,0.0,0.0,0.0,0.125,1.625976396,0.01,0.0,0.3700000047683716,-0.7699999809265137,95.5999984741211,-0.01177978515625,0.00390625,1.01800537109375,36.060001373291016,0.0,0.0,-4.8712615966796875,-0.2918701171875,Closing,0.0,0.0,-189.0,0.0,0.0,0.0,0.0,0.0,
4.4137969999999624,0.0,0.0,78214.0,0.0,0.0,0.0,0.0,0.25,0.8422850700000001,4.932250999999998,0.0,-88658.0,0.125,0.0,0.0,0.0,0.0,0.51269526,4.963769999999998,0.0,70846.0,0.125,0.0,0.0,0.0,0.0,3.345946923,0.01,0.0,-64083.0,0.125,0.0,0.0,0.0,0.125,1.625976396,0.01,0.0,0.36000001430511475,-0.7599999904632568,95.58999633789062,-0.01654052734375,0.01287841796875,1.019775390625,36.060001373291016,0.0,6.0,-4.8712615966796875,-0.2918701171875,Closing,0.0,0.0,-189.0,0.0,0.0,0.0,0.0,0.0,
4.580913000000001,0.0,0.0,78214.0,0.0,0.0,0.0,0.0,0.25,0.8410643670000001,4.932250999999998,0.0,-88658.0,0.125,0.0,0.0,0.0,0.0,0.511474557,4.963769999999998,0.0,70846.0,0.125,0.0,0.0,0.0,0.0,3.345946923,0.01,0.0,-64083.0,0.125,0.0,0.0,0.0,0.125,1.625976396,0.01,0.0,0.36000001430511475,-0.7599999904632568,95.58999633789062,-0.01666259765625,0.00592041015625,1.0174560546875,36.060001373291016,0.0,0.0,-4.8712615966796875,-0.2918701171875,Closing,0.0,0.0,-189.0,0.0,0.0,0.0,0.0,0.125,
4.7160899999999675,0.0,0.0,78214.0,0.0,0.0,0.0,0.0,0.25,0.8422850700000001,4.932250999999998,0.0,-88658.0,0.125,0.0,0.0,0.0,0.0,0.511474557,4.963769999999998,0.0,70846.0,0.125,0.0,0.0,0.0,0.0,3.345946923,0.01,0.0,-64083.0,0.125,0.0,0.0,0.0,0.125,1.625976396,0.01,0.0,0.3700000047683716,-0.7599999904632568,95.58999633789062,-0.0140380859375,0.00384521484375,1.01922607421875,36.029998779296875,0.0,-2.0,-4.8712615966796875,-0.2918701171875,Closing,0.0,0.0,-189.0,0.0,0.0,0.0,0.0,0.0,
4.854494000000006,0.0,0.0,78214.0,0.0,0.0,0.0,0.0,0.25,0.8410643670000001,4.932250999999998,0.0,-88658.0,0.125,0.0,0.0,0.0,0.0,0.51269526,4.963769999999998,0.0,70846.0,0.0,0.0,0.0,0.0,0.0,3.345946923,0.01,0.0,-64083.0,0.125,0.0,0.0,0.0,0.125,1.625976396,0.01,0.0,0.3700000047683716,-0.7599999904632568,95.58000183105469,-0.01544189453125,0.00885009765625,1.02862548828125,36.029998779296875,0.0,2.0,-4.8712615966796875,-0.2918701171875,Closing,0.0,0.0,-189.0,0.0,0.0,0.0,0.0,0.125,
5.032542000000015,0.0,0.0,78214.0,0.0,0.0,0.0,0.0,0.25,0.8410643670000001,4.932250999999998,0.0,-88658.0,0.125,0.0,0.0,0.0,0.0,0.511474557,4.963769999999998,0.0,70846.0,0.125,0.0,0.0,0.0,0.0,3.345946923,0.01,0.0,-64083.0,0.125,0.0,0.0,0.0,0.125,1.625976396,0.01,0.0,0.3700000047683716,-0.7599999904632568,95.58000183105469,-0.0164794921875,0.00482177734375,1.028076171875,36.029998779296875,0.0,-1.0,-4.8712615966796875,-0.2918701171875,Closing,0.0,0.0,-189.0,0.0,0.0,0.0,0.0,0.0,
5.186462999999989,0.0,0.0,78214.0,0.0,0.0,0.0,0.0,0.25,0.8422850700000001,4.932250999999998,0.0,-88658.0,0.125,0.0,0.0,0.0,0.0,0.51269526,4.963769999999998,0.0,70846.0,0.125,0.0,0.0,0.0,0.0,3.345946923,0.01,0.0,-64083.0,0.125,0.0,0.0,0.0,0.125,1.624755693,0.01,0.0,0.3700000047683716,-0.75,95.58999633789062,-0.01416015625,0.0072021484375,1.01708984375,36.040000915527344,0.0,0.0,-4.8712615966796875,-0.2918701171875,Closing,0.0,0.0,-189.0,0.0,0.0,0.0,0.0,0.0,
5.419918999999995,0.0,0.0,78214.0,0.0,0.0,0.0,0.0,0.25,0.8410643670000001,4.932250999999998,0.0,-88658.0,0.125,0.0,0.0,0.0,0.0,0.51269526,4.963769999999998,0.0,70846.0,0.0,0.0,0.0,0.0,0.0,3.345946923,0.01,0.0,-64083.0,0.125,0.0,0.0,0.0,0.125,1.625976396,0.01,0.0,0.3799999952316284,-0.75,95.58999633789062,-0.01226806640625,0.0086669921875,1.01995849609375,36.040000915527344,0.0,1.0,-4.8712615966796875,-0.2918701171875,Closing,0.0,0.0,-189.0,0.0,0.0,0.0,0.0,0.0,
5.620073999999964,0.0,0.0,78214.0,0.0,0.0,0.0,0.0,0.25,0.8410643670000001,4.932250999999998,0.0,-88658.0,0.125,0.0,0.0,0.0,0.0,0.51269526,4.963769999999998,0.0,70846.0,0.0,0.0,0.0,0.0,0.0,3.34472622,0.01,0.0,-64083.0,0.125,0.0,0.0,0.0,0.125,1.625976396,0.01,0.0,0.3700000047683716,-0.75,95.58999633789062,-0.01318359375,0.00958251953125,1.0218505859375,36.040000915527344,0.0,2.0,-4.8712615966796875,-0.2918701171875,Closing,0.0,0.0,-189.0,0.0,0.0,0.0,0.0,0.0,
5.820065000000002,0.0,0.0,78214.0,0.0,0.0,0.0,0.0,0.25,0.8410643670000001,4.932250999999998,0.0,-88658.0,0.0,0.0,0.0,0.0,0.0,0.51269526,4.963769999999998,0.0,70846.0,0.125,0.0,0.0,0.0,0.0,3.345946923,0.01,0.0,-64083.0,0.125,0.0,0.0,0.0,0.125,1.625976396,0.01,0.0,0.3700000047683716,-0.75,95.58999633789062,-0.014404296875,0.01043701171875,1.01751708984375,36.060001373291016,0.0,3.0,-4.8712615966796875,-0.2918701171875,Closing,0.0,0.0,-189.0,0.0,0.0,0.0,0.0,0.0,
6.0218069999999715,0.0,0.0,78214.0,0.0,0.0,0.0,0.0,0.25,0.8410643670000001,4.932250999999998,0.0,-88658.0,0.125,0.0,0.0,0.0,0.0,0.511474557,4.963769999999998,0.0,70846.0,0.0,0.0,0.0,0.0,0.0,3.345946923,0.01,0.0,-64083.0,0.125,0.0,0.0,0.0,0.125,1.625976396,0.01,0.0,0.3799999952316284,-0.75,95.58999633789062,-0.010986328125,0.00506591796875,1.01666259765625,36.060001373291016,0.0,-1.0,-4.8712615966796875,-0.2918701171875,Closing,0.0,0.0,-189.0,0.0,0.0,0.0,0.0,0.125,
6.221049999999988,0.0,0.0,78214.0,0.0,0.0,0.0,0.0,0.25,0.8410643670000001,4.932250999999998,0.0,-88658.0,0.125,0.0,0.0,0.0,0.0,0.51269526,4.963769999999998,0.0,70846.0,0.0,0.0,0.0,0.0,0.0,3.34472622,0.01,0.0,-64083.0,0.125,0.0,0.0,0.0,0.125,1.625976396,0.01,0.0,0.3799999952316284,-0.75,95.58000183105469,-0.01483154296875,0.01141357421875,1.02105712890625,36.040000915527344,0.0,4.0,-4.8712615966796875,-0.2918701171875,Closing,0.0,0.0,-189.0,0.0,0.0,0.0,0.0,0.0,
6.489921999999963,0.0,0.0,78214.0,0.0,0.0,0.0,0.0,0.25,0.8410643670000001,4.932250999999998,0.0,-88658.0,0.0,0.0,0.0,0.0,0.0,0.511474557,4.963769999999998,0.0,70846.0,0.125,0.0,0.0,0.0,0.0,3.345946923,0.01,0.0,-64083.0,0.125,0.0,0.0,0.0,0.125,1.625976396,0.01,0.0,0.3799999952316284,-0.75,95.58000183105469,-0.0142822265625,0.0087890625,1.02008056640625,36.040000915527344,0.0,1.0,-4.8712615966796875,-0.2918701171875,Closing,0.0,0.0,-189.0,0.0,0.0,0.0,0.0,0.0,
6.687690999999992,0.0,0.0,78214.0,0.0,0.0,0.0,0.0,0.25,0.8410643670000001,4.932250999999998,0.0,-88658.0,0.0,0.0,0.0,0.0,0.0,0.51269526,4.963769999999998,0.0,70846.0,0.0,0.0,0.0,0.0,0.0,3.345946923,0.01,0.0,-64083.0,0.125,0.0,0.0,0.0,0.125,1.625976396,0.01,0.0,0.38999998569488525,-0.75,95.56999969482422,-0.010986328125,0.00885009765625,1.0189208984375,36.040000915527344,0.0,1.0,-4.8712615966796875,-0.2918701171875,Closing,0.0,0.0,-189.0,0.0,0.0,0.0,0.0,0.0,
6.846613000000012,0.0,0.0,78214.0,0.0,0.0,0.0,0.0,0.25,0.8410643670000001,4.932250999999998,0.0,-88658.0,0.0,0.0,0.0,0.0,0.0,0.511474557,4.963769999999998,0.0,70846.0,0.125,0.0,0.0,0.0,0.0,3.347167626,0.01,0.0,-64083.0,0.125,0.0,0.0,0.0,0.125,1.625976396,0.01,0.0,0.38999998569488525,-0.75,95.56999969482422,-0.013916015625,0.00677490234375,1.01953125,36.040000915527344,0.0,0.0,-4.8712615966796875,-0.2918701171875,Closing,0.0,0.0,-189.0,0.0,0.0,0.0,0.0,0.0,
7.087989000000001,0.0,0.0,78214.0,0.0,0.0,0.0,0.0,0.25,0.8410643670000001,4.932250999999998,0.0,-88658.0,0.125,0.0,0.0,0.0,0.0,0.511474557,4.963769999999998,0.0,70846.0,0.0,0.0,0.0,0.0,0.0,3.345946923,0.01,0.0,-64083.0,0.125,0.0,0.0,0.0,0.125,1.625976396,0.01,0.0,0.38999998569488525,-0.75,95.56999969482422,-0.01275634765625,0.00616455078125,1.021240234375,36.040000915527344,0.0,0.0,-4.8712615966796875,-0.2918701171875,Closing,0.0,0.0,-189.0,0.0,0.0,0.0,0.0,0.0,
7.28774099999998,0.0,0.0,78214.0,0.0,0.0,0.0,0.0,0.25,0.8410643670000001,4.932250999999998,0.0,-88658.0,0.125,0.0,0.0,0.0,0.0,0.51269526,4.963769999999998,0.0,70846.0,0.0,0.0,0.0,0.0,0.0,3.345946923,0.01,0.0,-64083.0,0.125,0.0,0.0,0.0,0.125,1.625976396,0.01,0.0,0.38999998569488525,-0.7599999904632568,95.55999755859375,-0.0147705078125,0.00604248046875,1.0169677734375,36.08000183105469,0.0,0.0,-4.8712615966796875,-0.2918701171875,Closing,0.0,0.0,-189.0,0.0,0.0,0.0,0.0,0.0,
7.488309999999998,0.0,0.0,78214.0,0.0,0.0,0.0,0.0,0.25,0.8410643670000001,4.932250999999998,0.0,-88658.0,0.0,0.0,0.0,0.0,0.0,0.51269526,4.963769999999998,0.0,70846.0,0.0,0.0,0.0,0.0,0.0,3.345946923,0.01,0.0,-64083.0,0.125,0.0,0.0,0.0,0.125,1.625976396,0.01,0.0,0.38999998569488525,-0.75,95.55999755859375,-0.0140380859375,0.00714111328125,1.0194091796875,36.08000183105469,0.0,0.0,-4.8712615966796875,-0.2918701171875,Closing,0.0,0.0,-189.0,0.0,0.0,0.0,0.0,0.0,
7.64970199999999,0.0,0.0,78214.0,0.0,0.0,0.0,0.0,0.25,0.8410643670000001,4.932250999999998,0.0,-88658.0,0.125,0.0,0.0,0.0,0.0,0.51269526,4.963769999999998,0.0,70846.0,0.0,0.0,0.0,0.0,0.0,3.345946923,0.01,0.0,-64083.0,0.125,0.0,0.0,0.0,0.125,1.625976396,0.01,0.0,0.38999998569488525,-0.75,95.55999755859375,-0.01416015625,0.00811767578125,1.0263671875,36.08000183105469,0.0,1.0,-4.8712615966796875,-0.2918701171875,Closing,0.0,0.0,-189.0,0.0,0.0,0.0,0.0,0.0,
7.768963999999978,0.0,0.0,78214.0,0.0,0.0,0.0,0.0,0.25,0.8410643670000001,4.932250999999998,0.0,-88658.0,0.125,0.0,0.0,0.0,0.0,0.51269526,4.963769999999998,0.0,70846.0,0.0,0.0,0.0,0.0,0.0,3.34472622,0.01,0.0,-64083.0,0.125,0.0,0.0,0.0,0.125,1.625976396,0.01,0.0,0.38999998569488525,-0.75,95.55000305175781,-0.0125732421875,0.0076904296875,1.020263671875,36.09000015258789,0.0,0.0,-4.8712615966796875,-0.2918701171875,Closing,0.0,0.0,-189.0,0.0,0.0,0.0,0.0,0.0,
7.909885000000009,0.0,0.0,78214.0,0.0,0.0,0.0,0.0,0.25,0.8422850700000001,4.932250999999998,0.0,-88658.0,0.0,0.0,0.0,0.0,0.0,0.511474557,4.963769999999998,0.0,70846.0,0.125,0.0,0.0,0.0,0.0,3.345946923,0.01,0.0,-64083.0,0.125,0.0,0.0,0.0,0.125,1.625976396,0.01,0.0,0.38999998569488525,-0.75,95.55999755859375,-0.01104736328125,0.00946044921875,1.0211181640625,36.09000015258789,0.0,2.0,-4.8712615966796875,-0.2918701171875,Closing,0.0,0.0,-189.0,0.0,0.0,0.0,0.0,0.0,
8.036581999999996,0.0,0.0,78214.0,0.0,0.0,0.0,0.0,0.25,0.8410643670000001,4.932250999999998,0.0,-88658.0,0.125,0.0,0.0,0.0,0.0,0.511474557,4.963769999999998,0.0,70846.0,0.125,0.0,0.0,0.0,0.0,3.34472622,0.01,0.0,-64083.0,0.125,0.0,0.0,0.0,0.125,1.625976396,0.01,0.0,0.38999998569488525,-0.75,95.55000305175781,-0.01116943359375,0.00799560546875,1.0240478515625,36.09000015258789,0.0,0.0,-4.8712615966796875,-0.2918701171875,Closing,0.0,0.0,-189.0,0.0,0.0,0.0,0.0,0.0,
8.192648999999976,0.0,0.0,78214.0,0.0,0.0,0.0,0.0,0.25,0.8410643670000001,4.932250999999998,0.0,-88658.0,0.125,0.0,0.0,0.0,0.0,0.51269526,4.963769999999998,0.0,70846.0,0.125,0.0,0.0,0.0,0.0,3.345946923,0.01,0.0,-64083.0,0.125,0.0,0.0,0.0,0.125,1.625976396,0.01,0.0,0.4000000059604645,-0.7400000095367432,95.55000305175781,-0.01470947265625,0.009033203125,1.02264404296875,36.09000015258789,0.0,1.0,-4.8712615966796875,-0.2918701171875,Closing,0.0,0.0,-189.0,0.0,0.0,0.0,0.0,0.0,
8.360382999999972,0.0,0.0,78214.0,0.0,0.0,0.0,0.0,0.25,0.8410643670000001,4.932250999999998,0.0,-88658.0,0.125,0.0,0.0,0.0,0.0,0.51269526,4.963769999999998,0.0,70846.0,0.125,0.0,0.0,0.0,0.0,3.34472622,0.01,0.0,-64083.0,0.125,0.0,0.0,0.0,0.125,1.625976396,0.01,0.0,0.4000000059604645,-0.7400000095367432,95.55000305175781,-0.0128173828125,0.0089111328125,1.01885986328125,36.040000915527344,0.0,1.0,-4.8712615966796875,-0.2918701171875,Closing,0.0,0.0,-189.0,0.0,0.0,0.0,0.0,0.0,
8.552901000000013,0.0,0.0,78214.0,0.0,0.0,0.0,0.0,0.25,0.8410643670000001,4.932250999999998,0.0,-88658.0,0.125,0.0,0.0,0.0,0.0,0.510253854,4.963769999999998,0.0,70846.0,0.0,0.0,0.0,0.0,0.0,3.34472622,0.01,0.0,-64083.0,0.125,0.0,0.0,0.0,0.125,1.625976396,0.01,0.0,0.4000000059604645,-0.7400000095367432,95.55000305175781,-0.01458740234375,0.00421142578125,1.021484375,36.040000915527344,0.0,-2.0,-4.8712615966796875,-0.2918701171875,Closing,0.0,0.0,-189.0,0.0,0.0,0.0,0.0,0.0,
8.691934000000009,0.0,0.0,78214.0,0.0,0.0,0.0,0.0,0.25,0.8410643670000001,4.932250999999998,0.0,-88658.0,0.125,0.0,0.0,0.0,0.0,0.511474557,4.963769999999998,0.0,70846.0,0.125,0.0,0.0,0.0,0.0,3.34472622,0.01,0.0,-64083.0,0.125,0.0,0.0,0.0,0.125,1.625976396,0.01,0.0,0.38999998569488525,-0.7400000095367432,95.54000091552734,-0.01275634765625,0.007080078125,1.01910400390625,36.040000915527344,0.0,0.0,-4.8712615966796875,-0.2918701171875,Closing,0.0,0.0,-189.0,0.0,0.0,0.0,0.0,0.0,
8.81085699999996,0.0,0.0,78214.0,0.0,0.0,0.0,0.0,0.25,0.8422850700000001,4.932250999999998,0.0,-88658.0,0.0,0.0,0.0,0.0,0.0,0.51269526,4.963769999999998,0.0,70846.0,0.125,0.0,0.0,0.0,0.0,3.34472622,0.01,0.0,-64083.0,0.125,0.0,0.0,0.0,0.125,1.625976396,0.01,0.0,0.38999998569488525,-0.7400000095367432,95.55000305175781,-0.010009765625,0.0084228515625,1.02093505859375,36.08000183105469,0.0,1.0,-4.8712615966796875,-0.2918701171875,Closing,0.0,0.0,-189.0,0.0,0.0,0.0,0.0,0.0,
8.974233000000007,0.0,0.0,78214.0,0.0,0.0,0.0,0.0,0.25,0.8410643670000001,4.932250999999998,0.0,-88658.0,0.0,0.0,0.0,0.0,0.0,0.51269526,4.963769999999998,0.0,70846.0,0.125,0.0,0.0,0.0,0.0,3.345946923,0.01,0.0,-64083.0,0.125,0.0,0.0,0.0,0.125,1.625976396,0.01,0.0,0.38999998569488525,-0.75,95.54000091552734,-0.03448486328125,-1.8310546875E-4,1.06353759765625,36.08000183105469,0.0,-5.0,-4.871337890625,-0.2918548583984375,Closing,0.0,0.0,-189.0,0.0,0.0,0.0,0.0,0.0,
9.10736699999997,0.0,0.0,78214.0,0.0,0.0,0.0,0.0,0.25,0.8410643670000001,4.932250999999998,0.0,-88658.0,0.125,0.0,0.0,0.0,0.0,0.51269526,4.963769999999998,0.0,70846.0,0.0,0.0,0.0,0.0,0.0,3.345946923,0.01,0.0,-64083.0,0.125,0.0,0.0,0.0,0.125,1.625976396,0.01,0.0,0.38999998569488525,-0.7400000095367432,95.54000091552734,-0.00909423828125,0.01434326171875,1.0205078125,36.08000183105469,0.0,6.0,-4.8713531494140625,-0.29180908203125,Closing,0.0,0.0,-189.0,0.0,0.0,0.0,0.0,0.125,
9.357485999999975,0.0,0.0,78214.0,0.0,0.0,0.0,0.0,0.25,0.8410643670000001,4.932250999999998,0.0,-88658.0,0.125,0.0,0.0,0.0,0.0,0.51269526,4.963769999999998,0.0,70846.0,0.0,0.0,0.0,0.0,0.0,3.345946923,0.01,0.0,-64083.0,0.125,0.0,0.0,0.0,0.125,1.625976396,0.01,0.0,0.4099999964237213,-0.75,95.52999877929688,-0.01922607421875,0.0091552734375,1.0806884765625,36.06999969482422,0.0,1.0,-4.871978759765625,-0.2918548583984375,Closing,0.0,0.0,-189.0,0.0,0.0,0.0,0.0,0.0,
9.554091000000016,0.0,0.0,78214.0,0.0,0.0,0.0,0.0,0.25,0.8422850700000001,4.932250999999998,0.0,-88658.0,0.0,0.0,0.0,0.0,0.0,0.51269526,4.963769999999998,0.0,70846.0,0.125,0.0,0.0,0.0,0.0,3.345946923,0.01,0.0,-64083.0,0.125,0.0,0.0,0.0,0.125,1.625976396,0.01,0.0,0.41999998688697815,-0.75,95.52999877929688,0.009033203125,0.01025390625,0.9970703125,36.06999969482422,0.0,0.0,-4.8727874755859375,-0.292083740234375,Closing,0.0,0.0,-189.0,0.0,0.0,0.0,0.0,0.0,
9.75549199999997,0.0,0.0,78214.0,0.0,0.0,0.0,0.0,0.25,0.839843664,4.932250999999998,0.0,-88658.0,0.125,0.0,0.0,0.0,0.0,0.51269526,4.963769999999998,0.0,70846.0,0.0,0.0,0.0,0.0,0.0,3.34472622,0.01,0.0,-64083.0,0.125,0.0,0.0,0.0,0.125,1.625976396,0.01,0.0,0.4099999964237213,-0.6800000071525574,95.52999877929688,-0.0633544921875,0.02191162109375,1.0198974609375,36.08000183105469,0.0,19.0,-4.872589111328125,-0.2928924560546875,Closing,0.0,0.0,-189.0,0.0,0.0,0.0,0.0,0.0,
9.953586999999999,0.0,0.0,78214.0,0.0,0.0,0.0,0.0,0.25,0.8422850700000001,4.932250999999998,0.0,-88658.0,0.125,0.0,0.0,0.0,0.0,0.51269526,4.963769999999998,0.0,70846.0,0.0,0.0,0.0,0.0,0.0,3.34472622,0.01,0.0,-64083.0,0.125,0.0,0.0,0.0,0.125,1.625976396,0.01,0.0,0.3799999952316284,-0.6899999976158142,95.52999877929688,0.32098388671875,-0.02978515625,0.75634765625,36.08000183105469,0.0,-66.0,-4.871307373046875,-0.2928924560546875,Closing,0.0,0.0,-189.0,0.0,0.0,0.0,0.0,0.0,
10.14537599999999,0.0,0.0,78214.0,0.0,0.0,0.0,0.0,0.25,0.8422850700000001,4.932250999999998,0.0,-88658.0,0.125,0.0,0.0,0.0,0.0,0.511474557,4.963769999999998,0.0,70846.0,0.0,0.0,0.0,0.0,0.0,3.34472622,0.01,0.0,-64083.0,0.125,0.0,0.0,0.0,0.125,1.625976396,0.01,0.0,0.3400000035762787,-0.6700000166893005,95.52999877929688,-0.0086669921875,0.03057861328125,1.1375732421875,36.08000183105469,0.0,23.0,-4.869964599609375,-0.2937469482421875,Closing,0.0,0.0,-189.0,0.0,0.0,0.0,0.0,0.0,
10.351885999999999,0.0,0.0,78214.0,0.0,0.0,0.0,0.0,0.25,0.8410643670000001,4.932250999999998,0.0,-88658.0,0.125,0.0,0.0,0.0,0.0,0.511474557,4.963769999999998,0.0,70846.0,0.125,0.0,0.0,0.0,0.0,3.34472622,0.01,0.0,-64083.0,0.125,0.0,0.0,0.0,0.125,1.625976396,0.01,0.0,0.3499999940395355,-0.6700000166893005,95.5199966430664,-0.00555419921875,-9.1552734375E-4,0.9931640625,36.08000183105469,0.0,-7.0,-4.86956787109375,-0.29345703125,Closing,0.0,0.0,-189.0,0.0,0.0,0.0,0.0,0.0,
10.501684999999998,0.0,0.0,78214.0,0.0,0.0,0.0,0.0,0.25,0.8410643670000001,4.932250999999998,0.0,-88658.0,0.125,0.0,0.0,0.0,0.0,0.51269526,4.963769999999998,0.0,70846.0,0.0,0.0,0.0,0.0,0.0,3.345946923,0.01,0.0,-64083.0,0.125,0.0,0.0,0.0,0.125,1.625976396,0.01,0.0,0.36000001430511475,-0.6899999976158142,95.5199966430664,-0.0096435546875,0.0091552734375,0.99810791015625,36.08000183105469,0.0,2.0,-4.86956787109375,-0.29345703125,Closing,0.0,0.0,-189.0,0.0,0.0,0.0,0.0,0.0,
10.656695999999997,0.0,0.0,78214.0,0.0,0.0,0.0,0.0,0.25,0.8410643670000001,4.932250999999998,0.0,-88658.0,0.0,0.0,0.0,0.0,0.0,0.51269526,4.963769999999998,0.0,70846.0,0.0,0.0,0.0,0.0,0.0,3.345946923,0.01,0.0,-64083.0,0.125,0.0,0.0,0.0,0.125,1.627197099,0.01,0.0,0.36000001430511475,-0.699999988079071,95.5199966430664,-0.0130615234375,0.00286865234375,1.021484375,36.08000183105469,0.0,-3.0,-4.86956787109375,-0.29345703125,Closing,0.0,0.0,-189.0,0.0,0.0,0.0,0.0,0.0,
10.834075000000011,0.0,0.0,78214.0,0.0,0.0,0.0,0.0,0.25,0.839843664,4.932250999999998,0.0,-88658.0,0.0,0.0,0.0,0.0,0.0,0.51269526,4.963769999999998,0.0,70846.0,0.0,0.0,0.0,0.0,0.0,3.34472622,0.01,0.0,-64083.0,0.125,0.0,0.0,0.0,0.125,1.625976396,0.01,0.0,0.36000001430511475,-0.699999988079071,95.51000213623047,-0.0115966796875,0.00634765625,1.026611328125,36.06999969482422,0.0,0.0,-4.86956787109375,-0.29345703125,Closing,0.0,0.0,-189.0,0.0,0.0,0.0,0.0,0.0,
10.98613500000001,0.0,0.0,78214.0,0.0,0.0,0.0,0.0,0.25,0.8422850700000001,4.932250999999998,0.0,-88658.0,0.125,0.0,0.0,0.0,0.0,0.51269526,4.963769999999998,0.0,70846.0,0.0,0.0,0.0,0.0,0.0,3.34472622,0.01,0.0,-64083.0,0.125,0.0,0.0,0.0,0.125,1.625976396,0.01,0.0,0.36000001430511475,-0.699999988079071,95.51000213623047,-0.0146484375,0.002197265625,1.01806640625,36.06999969482422,0.0,-4.0,-4.86956787109375,-0.29345703125,Closing,0.0,0.0,-189.0,0.0,0.0,0.0,0.0,0.125,
11.171332999999985,0.0,0.0,78214.0,0.0,0.0,0.0,0.0,0.25,0.8410643670000001,4.932250999999998,0.0,-88658.0,0.125,0.0,0.0,0.0,0.0,0.51269526,4.963769999999998,0.0,70846.0,0.0,0.0,0.0,0.0,0.0,3.34472622,0.01,0.0,-64083.0,0.125,0.0,0.0,0.0,0.125,1.625976396,0.01,0.0,0.36000001430511475,-0.699999988079071,95.51000213623047,-0.00946044921875,0.0062255859375,1.02215576171875,36.06999969482422,0.0,0.0,-4.86956787109375,-0.29345703125,Closing,0.0,0.0,-189.0,0.0,0.0,0.0,0.0,0.0,
11.307439000000013,0.0,0.0,78214.0,0.0,0.0,0.0,0.0,0.25,0.8410643670000001,4.932250999999998,0.0,-88658.0,0.125,0.0,0.0,0.0,0.0,0.51269526,4.963769999999998,0.0,70846.0,0.0,0.0,0.0,0.0,0.0,3.34472622,0.01,0.0,-64083.0,0.125,0.0,0.0,0.0,0.125,1.624755693,0.01,0.0,0.36000001430511475,-0.699999988079071,95.51000213623047,-0.01141357421875,0.0093994140625,1.0206298828125,36.060001373291016,0.0,2.0,-4.86956787109375,-0.29345703125,Closing,0.0,0.0,-189.0,0.0,0.0,0.0,0.0,0.0,
11.452062999999965,0.0,0.0,78214.0,0.0,0.0,0.0,0.0,0.25,0.8410643670000001,4.932250999999998,0.0,-88658.0,0.125,0.0,0.0,0.0,0.0,0.511474557,4.963769999999998,0.0,70846.0,0.0,0.0,0.0,0.0,0.0,3.345946923,0.01,0.0,-64083.0,0.125,0.0,0.0,0.0,0.125,1.625976396,0.01,0.0,0.3700000047683716,-0.7099999785423279,95.51000213623047,-0.01373291015625,0.00531005859375,1.0198974609375,36.060001373291016,0.0,-1.0,-4.86956787109375,-0.29345703125,Closing,0.0,0.0,-189.0,0.0,0.0,0.0,0.0,0.0,
11.62664399999997,0.0,0.0,78214.0,0.0,0.0,0.0,0.0,0.25,0.8422850700000001,4.932250999999998,0.0,-88658.0,0.125,0.0,0.0,0.0,0.0,0.51269526,4.963769999999998,0.0,70846.0,0.0,0.0,0.0,0.0,0.0,3.345946923,0.01,0.0,-64083.0,0.125,0.0,0.0,0.0,0.125,1.625976396,0.01,0.0,0.3700000047683716,-0.7099999785423279,95.51000213623047,-0.01300048828125,0.00689697265625,1.01812744140625,36.060001373291016,0.0,0.0,-4.86956787109375,-0.29345703125,Closing,0.0,0.0,-189.0,0.0,0.0,0.0,0.0,0.125,
11.780847000000009,0.0,0.0,78214.0,0.0,0.0,0.0,0.0,0.25,0.8410643670000001,0.01,0.0,-88658.0,0.125,0.0,-0.0,0.0,0.0,0.51269526,0.01,0.0,70846.0,0.0,0.0,0.0,0.0,0.0,3.345946923,0.01,0.0,-64083.0,0.125,0.0,-0.0,0.0,0.125,1.625976396,0.01,0.0,0.3700000047683716,-0.7099999785423279,95.51000213623047,-0.0125732421875,0.00543212890625,1.02191162109375,36.09000015258789,0.0,-1.0,-4.86956787109375,-0.29345703125,Closing,0.0,0.0,-189.0,0.0,0.0,0.0,0.0,0.0,
11.958484999999985,0.0,0.0,78214.0,0.0,0.0,0.0,0.0,0.25,0.839843664,0.01,0.0,-88658.0,0.125,0.0,-0.0,0.0,0.0,0.511474557,0.01,0.0,70846.0,0.0,0.0,0.0,0.0,0.0,3.34472622,0.01,0.0,-64083.0,0.125,0.0,-0.0,0.0,0.125,1.625976396,0.01,0.0,0.3799999952316284,-0.7200000286102295,95.5,-0.0103759765625,0.00616455078125,1.02325439453125,36.09000015258789,0.0,0.0,-4.86956787109375,-0.29345703125,Closing,0.0,0.0,-189.0,0.0,0.0,0.0,0.0,0.0,
12.106113000000011,0.0,0.0,78214.0,0.0,0.0,0.0,0.0,0.25,0.8410643670000001,0.01,0.0,-88658.0,0.0,0.0,-0.0,0.0,0.0,0.51269526,0.01,0.0,70846.0,0.0,0.0,0.0,0.0,0.0,3.34472622,0.01,0.0,-64083.0,0.125,0.0,-0.0,0.0,0.125,1.625976396,0.01,0.0,0.3799999952316284,-0.7200000286102295,95.5,-0.01507568359375,0.00848388671875,1.02532958984375,36.09000015258789,0.0,1.0,-4.86956787109375,-0.29345703125,Closing,0.0,0.0,-189.0,0.0,0.0,0.0,0.0,0.0,
12.238209999999963,0.0,0.0,78214.0,0.0,0.0,0.0,0.0,0.25,0.8410643670000001,0.01,0.0,-88658.0,0.125,0.0,-0.0,0.0,0.0,0.51269526,0.01,0.0,70846.0,0.0,0.0,0.0,0.0,0.0,3.345946923,0.01,0.0,-64083.0,0.125,0.0,-0.0,0.0,0.125,1.625976396,0.01,0.0,0.3799999952316284,-0.7200000286102295,95.5,-0.01373291015625,0.00860595703125,1.02728271484375,36.09000015258789,0.0,1.0,-4.86956787109375,-0.29345703125,Closing,0.0,0.0,-189.0,0.0,0.0,0.0,0.0,0.0,
12.417928000000014,0.0,0.0,78328.0,30.125,607.5,2520.0,0.0,0.25,0.8410643670000001,0.01,0.0,-88825.0,28.0,-1177.5,-2520.0,0.0,0.0,0.51269526,0.01,0.0,70852.0,40.875,165.0,2520.0,0.0,0.0,3.3117672390000004,0.01,0.0,-64140.0,37.625,-517.5,-2520.0,0.0,0.125,1.6833494370000002,0.01,0.0,0.6700000166893005,1.8200000524520874,95.94000244140625,0.46087646484375,-0.00604248046875,1.28173828125,36.060001373291016,0.0,-64.0,-4.8720703125,-0.316741943359375,Closing,0.0,0.0,-189.0,0.0,0.0,0.0,0.0,0.0,
12.588007999999972,0.0,0.0,78449.0,0.0,720.0,0.0,0.0,0.25,0.8557128030000001,0.01,0.0,-88975.0,0.0,-757.5,0.0,0.0,0.0,0.507812448,0.01,0.0,70948.0,0.125,457.5,0.0,0.0,0.0,3.3605953590000004,0.01,0.0,-64247.0,0.125,-795.0,0.0,0.0,0.25,1.6601560800000001,0.01,0.0,0.5600000023841858,1.3600000143051147,95.76000213623047,-0.29791259765625,0.303466796875,1.99993896484375,36.060001373291016,0.0,317.0,-4.87542724609375,-0.3654327392578125,Closing,0.0,0.0,-189.0,0.0,0.0,0.0,0.0,0.0,
12.749792000000015,0.0,0.0,78585.0,0.0,690.0,0.0,0.0,0.25,0.8557128030000001,0.01,0.0,-89216.0,0.0,-697.5,0.0,0.0,0.125,0.507812448,0.01,0.0,71126.0,0.0,645.0,0.0,0.0,0.0,3.3715816860000003,0.01,0.0,-64498.0,0.125,-667.5,0.0,0.0,0.25,1.6552732680000002,0.01,0.0,0.46000000834465027,0.6899999976158142,95.81999969482422,-0.03961181640625,0.0067138671875,0.722412109375,36.060001373291016,0.0,5.0,-4.8690338134765625,-0.3997802734375,Closing,0.0,0.0,-189.0,0.0,0.0,0.0,0.0,0.0,
12.908229999999982,0.0,0.0,78777.0,0.0,547.5,0.0,0.0,0.25,0.8557128030000001,0.01,0.0,-89306.0,0.0,-570.0,0.0,0.0,0.125,0.506591745,0.01,0.0,71219.0,0.0,577.5,0.0,0.0,0.0,3.3691402800000003,0.01,0.0,-64593.0,0.125,-547.5,0.0,0.0,0.25,1.6552732680000002,0.01,0.0,0.5099999904632568,0.20000000298023224,95.8499984741211,-0.10693359375,-0.01593017578125,0.40142822265625,36.02000045776367,0.0,-8.0,-4.8618011474609375,-0.411529541015625,Closing,0.0,0.0,-189.0,0.0,0.0,0.0,0.0,0.0,
13.052374000000011,0.0,0.0,78805.0,2.875,52.5,-357.16537177562714,0.0,1.875,1.756591617,1.2330627499999984,0.0,-89357.0,6.5,-75.0,357.16537177562714,0.0,2.375,1.080322155,1.2409424999999985,0.0,71266.0,2.5,15.0,-357.16537177562714,0.0,1.5,4.476317901,1.2350999999999985,0.0,-64648.0,3.5,-45.0,357.16537177562714,0.0,1.5,2.716064175,1.2394999999999985,0.0,0.11999999731779099,-2.440000057220459,95.70999908447266,-0.09796142578125,-0.03472900390625,1.2003173828125,36.02000045776367,0.0,-32.0,-4.8533935546875,-0.383270263671875,Closing,0.0,0.0,-189.0,0.0,0.0,0.0,0.0,0.0,
13.230985999999975,0.0,0.0,78768.0,6.0,-315.0,-833.3858048915863,0.0,0.375,2.292480234,1.2330627499999984,0.0,-89299.0,13.0,277.5,833.3858048915863,0.0,1.25,1.905517383,1.2409424999999985,0.0,71231.0,7.875,-142.5,-833.3858048915863,0.0,0.125,4.866942861,1.2350999999999985,0.0,-64605.0,7.25,262.5,833.3858048915863,0.0,0.375,3.1054684320000003,1.2394999999999985,0.0,-0.8500000238418579,-1.1699999570846558,95.22000122070312,0.02642822265625,-0.16925048828125,1.099609375,36.02000045776367,0.0,-156.0,-4.859039306640625,-0.35284423828125,Closing,0.0,0.0,-189.0,0.0,0.0,0.0,0.0,0.0,
13.389076000000001,0.0,0.0,78594.0,4.5,-660.0,-833.3858048915863,0.0,0.375,2.208251727,1.2330627499999984,0.0,-89202.0,8.625,682.5,833.3858048915863,0.0,0.25,2.0751951,1.2409424999999985,0.0,71168.0,9.25,-570.0,-833.3858048915863,0.0,0.25,4.7106928770000005,1.2350999999999985,0.0,-64508.0,4.625,727.5,833.3858048915863,0.0,0.5,2.984618835,1.2394999999999985,0.0,-1.8700000047683716,-0.5899999737739563,94.9000015258789,-0.043701171875,-0.09326171875,1.05670166015625,36.0099983215332,0.0,-55.0,-4.88824462890625,-0.3422698974609375,Closing,0.0,0.0,-189.0,0.0,0.0,0.0,0.0,0.0,
13.56665599999996,0.0,0.0,78493.0,0.0,-615.0,0.0,0.0,0.375,2.020263465,1.2330627499999984,0.0,-89082.0,0.125,637.5,0.0,0.0,0.25,1.77001935,1.2409424999999985,0.0,71053.0,0.0,-540.0,0.0,0.0,0.25,4.539794457,1.2350999999999985,0.0,-64383.0,0.125,607.5,0.0,0.0,0.25,2.811279009,1.2394999999999985,0.0,-1.3700000047683716,-1.4600000381469727,95.20999908447266,-0.0576171875,0.07806396484375,0.852294921875,36.0099983215332,0.0,101.0,-4.9283294677734375,-0.3267974853515625,Closing,0.0,0.0,-189.0,0.0,0.0,0.0,0.0,0.0,
13.708592000000005,0.0,0.0,78381.0,0.0,-525.0,0.0,0.0,0.25,1.992187296,1.2330627499999984,0.0,-88883.0,0.125,562.5,0.0,0.0,0.125,1.5307615620000001,1.2409424999999985,0.0,70871.0,0.125,-570.0,0.0,0.0,0.0,4.525146021,1.2350999999999985,0.0,-64196.0,0.125,562.5,0.0,0.0,0.25,2.7917477610000003,1.2394999999999985,0.0,-0.4300000071525574,-1.7599999904632568,95.06999969482422,-0.0335693359375,0.07904052734375,1.05328369140625,36.0099983215332,0.0,86.0,-4.94879150390625,-0.30126953125,Closing,0.0,0.0,-189.0,0.0,0.0,0.0,0.0,0.0,
13.880785999999963,0.0,0.0,78300.0,6.25,0.0,728.4375,0.0,1.75,1.285400259,0.01,0.0,-88858.0,11.5,-45.0,-728.4375,0.0,2.375,0.8178710100000001,0.01,0.0,70839.0,7.25,-7.5,728.4375,0.0,1.75,3.7927242210000003,0.01,0.0,-64154.0,7.125,-15.0,-728.4375,0.0,1.75,2.0629880700000003,0.01,0.0,2.0899999141693115,-0.9800000190734863,94.69999694824219,0.2054443359375,0.103759765625,0.90032958984375,35.95000076293945,0.0,52.0,-4.92523193359375,-0.28375244140625,Closing,0.0,0.0,-189.0,0.0,0.0,0.0,0.0,0.0,
14.050983000000008,0.0,0.0,78362.0,4.625,420.0,728.4375,0.0,0.375,0.666503838,0.01,0.0,-88898.0,8.5,-450.0,-728.4375,0.0,0.5,0.386962851,0.01,0.0,70871.0,6.125,427.5,728.4375,0.0,0.375,3.195800454,0.01,0.0,-64260.0,5.625,-442.5,-728.4375,0.0,0.625,1.442870946,0.01,0.0,1.0,0.4099999964237213,95.20999908447266,0.22186279296875,-0.05438232421875,0.89361572265625,35.95000076293945,0.0,-89.0,-4.8887939453125,-0.298095703125,Closing,0.0,0.0,-189.0,0.0,0.0,0.0,0.0,0.0,
14.219968999999983,0.0,0.0,78455.0,3.0,675.0,728.4375,0.0,0.375,0.616455015,0.01,0.0,-89103.0,5.125,-697.5,-728.4375,0.0,0.25,0.36254879100000004,0.01,0.0,71056.0,4.625,652.5,728.4375,0.0,0.125,3.14941374,0.01,0.0,-64368.0,3.75,-675.0,-728.4375,0.0,0.25,1.481933442,0.01,0.0,0.28999999165534973,0.8999999761581421,95.04000091552734,0.10675048828125,0.14556884765625,1.22686767578125,35.95000076293945,0.0,131.0,-4.878662109375,-0.3336029052734375,Closing,0.0,0.0,-189.0,0.0,0.0,0.0,0.0,0.0,
14.365728000000002,0.0,0.0,78686.0,0.375,720.0,396.8503922224045,0.0,7.5,0.34179684,3.6991882499999984,0.0,-89221.0,0.375,-720.0,-396.8503922224045,0.0,9.0,0.101318349,3.7228274999999984,0.0,71180.0,0.5,765.0,396.8503922224045,0.0,4.5,2.857665723,3.7052999999999985,0.0,-64490.0,0.625,-712.5,-396.8503922224045,0.0,8.75,1.120605354,3.7184999999999984,0.0,0.6499999761581421,0.7099999785423279,95.31999969482422,-0.2509765625,-0.09246826171875,1.1683349609375,35.939998626708984,0.0,-80.0,-4.8697967529296875,-0.3670196533203125,Closing,0.0,0.0,-189.0,0.0,0.0,0.0,0.0,0.125,
14.505108000000007,0.0,0.0,78783.0,0.375,555.0,396.8503922224045,0.0,0.875,4.256591361,3.6991882499999984,0.0,-89304.0,1.125,-472.5,-396.8503922224045,0.0,1.125,4.007567949,3.7228274999999984,0.0,71295.0,0.5,585.0,396.8503922224045,0.0,0.5,1.8310545,3.7052999999999985,0.0,-64588.0,1.0,-525.0,-396.8503922224045,0.0,0.875,0.062255853,3.7184999999999984,0.0,-0.46000000834465027,-2.130000114440918,95.61000061035156,-0.15313720703125,0.04986572265625,0.91461181640625,35.939998626708984,0.0,68.0,-4.872406005859375,-0.3627777099609375,Closing,0.0,0.0,-189.0,0.0,0.0,0.0,0.0,0.0,
14.654383999999961,0.0,0.0,78865.0,2.125,517.5,647.6930209845373,0.0,1.375,4.786376463,4.4145567095824445,0.0,-89473.0,3.625,-495.0,-647.6930209845373,0.0,1.75,4.464110871,4.442767441949741,0.0,71443.0,3.125,472.5,647.6930209845373,0.0,1.0,2.359618899,4.421850381909013,0.0,-64723.0,3.75,-480.0,-647.6930209845373,0.0,1.0,0.9326170920000001,4.437603067262749,0.0,-0.3499999940395355,-1.6799999475479126,95.9800033569336,0.3438720703125,0.0594482421875,0.950439453125,35.939998626708984,0.0,26.0,-4.8755035400390625,-0.3204193115234375,Closing,0.0,0.0,-189.0,0.0,0.0,0.0,0.0,0.125,
14.832407999999996,0.0,0.0,78998.0,7.375,442.5,920.2946195008367,0.0,0.5,0.6079100940000001,4.5053047014239125,0.0,-89573.0,7.25,-652.5,-920.2946195008367,0.0,0.5,0.352783167,4.534095348713391,0.0,71503.0,9.75,397.5,920.2946195008367,0.0,0.75,3.082275075,4.512748306384792,0.0,-64800.0,7.75,-517.5,-920.2946195008367,0.0,0.25,1.494140472,4.5288248123746655,0.0,0.4399999976158142,0.019999999552965164,96.88999938964844,0.335205078125,0.0638427734375,0.86669921875,35.95000076293945,0.0,16.0,-4.8729705810546875,-0.3225555419921875,Closing,0.0,0.0,-189.0,0.0,0.0,0.0,0.0,0.0,
14.987641000000004,0.0,0.0,79141.0,29.5,1102.5,2564.6024909685693,0.0,0.25,0.70800774,4.7856350343966225,0.0,-89707.0,33.625,-1260.0,-2564.6024909685693,0.0,0.125,0.6860350860000001,4.8162171014181805,0.0,71580.0,34.0,540.0,2564.6024909685693,0.0,0.125,3.254394198,4.793541797433479,0.0,-64906.0,31.5,-990.0,-2564.6024909685693,0.0,0.25,1.74560529,4.8106186202888805,0.0,1.4800000190734863,2.1700000762939453,96.62999725341797,0.30615234375,0.08831787109375,1.9239501953125,35.95000076293945,0.0,11.0,-4.8618316650390625,-0.363922119140625,Closing,0.0,0.0,-189.0,0.0,0.0,0.0,0.0,0.0,
15.160473999999988,0.0,0.0,79369.0,25.5,1605.0,2564.6024909685693,0.0,0.25,0.701904225,4.7856350343966225,0.0,-89957.0,32.125,-1822.5,-2564.6024909685693,0.0,0.25,0.628662045,4.8162171014181805,0.0,71895.0,27.75,1102.5,2564.6024909685693,0.0,0.125,3.253173495,4.793541797433479,0.0,-65333.0,28.0,-1425.0,-2564.6024909685693,0.0,0.5,1.6357420200000001,4.8106186202888805,0.0,1.399999976158142,3.2899999618530273,96.22000122070312,0.31854248046875,-0.00335693359375,1.02911376953125,35.95000076293945,0.0,-56.0,-4.83807373046875,-0.4410552978515625,Closing,0.0,0.0,-189.0,0.0,0.0,0.0,0.0,0.0,
15.291196999999986,0.0,0.0,79664.0,21.25,2145.0,2564.6024909685693,0.0,0.25,0.692138601,4.7856350343966225,0.0,-90622.0,28.125,-2235.0,-2564.6024909685693,0.0,0.5,0.41503902000000004,4.8162171014181805,0.0,72166.0,24.125,1687.5,2564.6024909685693,0.0,0.125,3.225097326,4.793541797433479,0.0,-65631.0,23.5,-1920.0,-2564.6024909685693,0.0,0.5,1.486816254,4.8106186202888805,0.0,0.7099999785423279,4.639999866485596,95.69999694824219,0.35760498046875,-0.08392333984375,1.1478271484375,35.95000076293945,0.0,-124.0,-4.8174285888671875,-0.5419921875,Closing,0.0,0.0,-189.0,0.0,0.0,0.0,0.0,0.0,
15.432798000000009,0.0,0.0,80432.0,17.5,2565.0,2770.359692007776,0.0,0.375,0.5541991620000001,4.595955828879835,0.0,-91028.0,27.25,-2587.5,-2770.359692007776,0.0,0.25,0.23071286700000002,4.625325772090443,0.0,72501.0,19.875,2130.0,2770.359692007776,0.0,0.25,3.087157887,4.603549206436967,0.0,-65992.0,19.375,-2400.0,-2770.359692007776,0.0,0.5,1.3439940030000002,4.619949187416906,0.0,-0.6200000047683716,5.300000190734863,94.95999908447266,0.0794677734375,-0.45281982421875,0.8162841796875,35.880001068115234,0.0,-442.0,-4.8135223388671875,-0.6594390869140625,Closing,0.0,0.0,-189.0,0.0,0.0,0.0,0.0,0.0,
15.590597999999998,0.0,0.0,80876.0,15.875,2812.5,3563.8181771801997,0.0,0.375,0.285644502,4.315719625,0.0,-91469.0,27.125,-2887.5,-3563.8181771801997,0.0,0.5,4.953612774000001,4.343298749999999,0.0,72883.0,15.375,2370.0,3563.8181771801997,0.0,0.25,2.821044633,4.322849999999999,0.0,-66403.0,16.875,-2700.0,-3563.8181771801997,0.0,0.5,1.101074106,4.3382499999999995,0.0,-3.069999933242798,5.019999980926514,94.55000305175781,0.18194580078125,-0.30657958984375,0.187744140625,35.880001068115234,0.0,-308.0,-4.8567657470703125,-0.7752685546875,Closing,0.0,0.0,-189.0,0.0,0.0,0.0,0.0,0.0,
15.74639499999996,0.0,0.0,81345.0,16.25,2947.5,2967.7670734757057,0.0,0.375,0.18432615300000002,4.495423944191705,0.0,-92452.0,22.0,-3135.0,-2967.7670734757057,0.0,0.25,4.909667466,4.524151449603935,0.0,73707.0,15.5,2692.5,2967.7670734757057,0.0,0.125,2.708739957,4.502851224295904,0.0,-67328.0,15.25,-2962.5,-2967.7670734757057,0.0,0.25,1.0815428580000002,4.518892472281413,0.0,-5.150000095367432,3.0899999141693115,95.20999908447266,-0.25311279296875,-0.4249267578125,1.5888671875,35.880001068115234,0.0,-248.0,-4.962188720703125,-0.8752593994140625,Closing,0.0,0.0,-189.0,0.0,0.0,0.0,0.0,0.0,
15.894584999999962,0.0,0.0,82339.0,15.375,3187.5,2520.0,0.0,0.75,0.668945244,0.01,0.0,-92975.0,2.75,-3225.0,-2520.0,0.0,0.5,0.40893550500000003,0.01,0.0,74143.0,20.125,2842.5,2520.0,0.0,0.625,3.2641598220000003,0.01,0.0,-67825.0,15.25,-3150.0,-2520.0,0.0,0.375,1.516113126,0.01,0.0,-2.740000009536743,3.9600000381469727,97.02999877929688,0.328125,0.96099853515625,1.11761474609375,35.79999923706055,0.0,974.0,-5.0767669677734375,-0.96990966796875,Closing,0.0,0.0,-189.0,0.0,0.0,0.0,0.0,0.0,
16.066820000000007,0.0,0.0,82796.0,16.75,2827.5,2537.244464504012,0.0,0.75,0.864257724,0.09157359841865395,0.0,-93461.0,4.5,-2887.5,-2537.244464504012,0.0,0.5,0.6079100940000001,0.09215878928760153,0.0,74562.0,22.75,2370.0,2537.244464504012,0.0,0.25,3.461913708,0.09172489510925498,0.0,-68320.0,17.125,-2932.5,-2537.244464504012,0.0,0.25,1.832275203,0.0920516617989811,0.0,2.3299999237060547,3.4200000762939453,98.75,-0.3482666015625,0.3726806640625,1.99993896484375,35.79999923706055,0.0,358.0,-5.087799072265625,-1.076507568359375,Closing,0.0,0.0,-189.0,0.0,0.0,0.0,0.0,0.0,
16.23060699999996,0.0,0.0,83237.0,17.75,2760.0,3563.8181771801997,0.0,0.875,1.2707518230000001,0.6165313750000007,0.0,-94422.0,21.625,-3180.0,-3563.8181771801997,0.0,0.5,1.064453016,0.6204712500000006,0.0,75375.0,18.375,2632.5,3563.8181771801997,0.0,0.5,3.822021093,0.6175500000000006,0.0,-69237.0,15.5,-2857.5,-3563.8181771801997,0.0,0.375,2.207031024,0.6197500000000006,0.0,5.119999885559082,2.950000047683716,100.41000366210938,-0.10821533203125,0.879638671875,0.97332763671875,35.79999923706055,0.0,805.0,-5.0339813232421875,-1.1869049072265625,Closing,0.0,0.0,-189.0,0.0,0.0,0.0,0.0,0.0,
16.390667000000015,0.0,0.0,83681.0,17.625,2782.5,3454.244671415156,0.0,0.5,1.434326025,0.641844923839062,0.0,-94934.0,23.625,-3187.5,-3454.244671415156,0.0,0.25,1.2377928420000002,0.6459465622501006,0.0,75764.0,17.625,2407.5,3454.244671415156,0.0,0.125,4.029540603,0.6429053715503331,0.0,-69704.0,15.75,-2902.5,-3454.244671415156,0.0,0.375,2.385253662,0.6451956991633373,0.0,7.860000133514404,0.5,101.11000061035156,-0.12664794921875,0.72235107421875,0.7691650390625,35.68000030517578,0.0,624.0,-4.9127349853515625,-1.26348876953125,Closing,0.0,0.0,-189.0,0.0,0.0,0.0,0.0,0.125,
16.51671100000001,0.0,0.0,84611.0,15.625,2970.0,2553.689598679967,0.0,0.625,1.252441278,0.12765057522648313,0.0,-95421.0,7.75,-2940.0,-2553.689598679967,0.0,1.125,1.0595702040000001,0.12846631199262976,0.0,76138.0,17.375,2287.5,2553.689598679967,0.0,1.0,3.7829585970000004,0.12786147782197566,0.0,-70167.0,17.5,-2887.5,-2553.689598679967,0.0,0.875,2.0703122880000002,0.1283169798075774,0.0,8.140000343322754,-0.4300000071525574,100.45999908447266,-0.00750732421875,-0.31439208984375,1.19793701171875,35.68000030517578,0.0,-473.0,-4.7650604248046875,-1.3093414306640625,Closing,0.0,0.0,-189.0,0.0,0.0,0.0,0.0,0.0,
16.691644999999962,0.0,0.0,85140.0,10.375,3360.0,2520.0,0.0,0.375,0.688476492,0.01,0.0,-95890.0,8.875,-2767.5,-2520.0,0.0,0.875,0.462646437,0.01,0.0,77002.0,16.375,2782.5,2520.0,0.0,0.25,3.242187168,0.01,0.0,-71056.0,20.625,-2730.0,-2520.0,0.0,1.0,1.5588377310000001,0.01,0.0,3.450000047683716,1.7400000095367432,97.75,-0.0435791015625,-0.9674072265625,1.49053955078125,35.68000030517578,0.0,-1034.0,-4.6427459716796875,-1.3787384033203125,Closing,0.0,0.0,-189.0,0.0,0.0,0.0,0.0,0.125,
16.844907000000006,0.0,0.0,86119.0,10.25,2947.5,2520.0,0.0,0.375,0.640869075,0.01,0.0,-96722.0,10.875,-2602.5,-2520.0,0.0,0.25,0.357665979,0.01,0.0,77466.0,18.625,2865.0,2520.0,0.0,0.125,3.1677242850000003,0.01,0.0,-71484.0,20.5,-2677.5,-2520.0,0.0,0.25,1.511230314,0.01,0.0,-1.2999999523162842,1.9800000190734863,94.68000030517578,0.23382568359375,0.1351318359375,0.5052490234375,35.68000030517578,0.0,128.0,-4.654266357421875,-1.451507568359375,Closing,0.0,0.0,-189.0,0.0,0.0,0.0,0.0,0.0,
17.022804999999995,0.0,0.0,86585.0,8.5,2917.5,2535.2653144326864,0.0,0.375,0.7507323450000001,4.846064424728077,0.0,-97171.0,4.625,-2797.5,-2535.2653144326864,0.0,0.25,0.42114253500000004,4.87703265902982,0.0,77889.0,20.75,2722.5,2535.2653144326864,0.0,0.125,3.2727047430000002,4.854071028406014,0.0,-71934.0,19.0,-2947.5,-2535.2653144326864,0.0,0.25,1.596679524,4.871363484502675,0.0,-0.3700000047683716,2.299999952316284,94.22000122070312,0.15380859375,0.13885498046875,0.89935302734375,35.630001068115234,0.0,135.0,-4.6996307373046875,-1.5252838134765625,Closing,0.0,0.0,-189.0,0.0,0.0,0.0,0.0,0.0,
17.22282699999999,0.0,0.0,87542.0,1.625,3015.0,2537.516159969187,0.0,0.25,0.783691326,4.839962947326407,0.0,-98080.0,0.25,-2865.0,-2537.516159969187,0.0,0.125,0.46386714,4.870892190817215,0.0,78783.0,19.875,2940.0,2537.516159969187,0.0,0.125,3.305663724,4.847959470223917,0.0,-72903.0,18.625,-3067.5,-2537.516159969187,0.0,0.25,1.5783689790000002,4.865230154111039,0.0,0.41999998688697815,2.2899999618530273,94.26000213623047,-0.0692138671875,0.0057373046875,0.74761962890625,35.630001068115234,0.0,7.0,-4.7205047607421875,-1.6277008056640625,Closing,0.0,0.0,-189.0,0.0,0.0,0.0,0.0,0.0,
17.37218299999996,0.0,0.0,88011.0,0.5,2917.5,2537.516159969187,0.0,0.25,0.74462883,4.839962947326407,0.0,-98543.0,0.0,-2880.0,-2537.516159969187,0.0,0.25,0.43945308000000005,4.870892190817215,0.0,79226.0,20.5,2797.5,2537.516159969187,0.0,0.125,3.284911773,4.847959470223917,0.0,-73394.0,12.0,-3060.0,-2537.516159969187,0.0,0.25,1.564941246,4.865230154111039,0.0,0.14000000059604645,1.3700000047683716,93.44999694824219,-0.2132568359375,0.08184814453125,1.01251220703125,35.52000045776367,0.0,93.0,-4.7393035888671875,-1.7149200439453125,Closing,0.0,0.0,-189.0,0.0,0.0,0.0,0.0,0.0,
17.54949900000001,0.0,0.0,88511.0,1.25,3217.5,3244.600816362136,0.0,0.5,0.346679652,4.3973364884945125,0.0,-99487.0,2.875,-3007.5,-3244.600816362136,0.0,0.5,0.068359368,4.425437176959243,0.0,80156.0,16.25,2722.5,3244.600816362136,0.0,0.25,2.867431347,4.404601709799094,0.0,-74386.0,18.125,-3120.0,-3244.600816362136,0.0,0.625,1.1901854250000001,4.420292947369425,0.0,-1.5099999904632568,1.1100000143051147,93.13999938964844,-0.55450439453125,-0.71697998046875,0.96160888671875,35.52000045776367,0.0,-658.0,-4.771240234375,-1.7865753173828125,Closing,0.0,0.0,-189.0,0.0,0.0,0.0,0.0,0.0,
17.706084999999963,0.0,0.0,89485.0,12.375,2932.5,3563.8181771801997,0.0,0.375,0.10864256700000001,4.315719625,0.0,-99935.0,19.375,-2857.5,-3563.8181771801997,0.0,0.25,4.822997553,4.343298749999999,0.0,80664.0,14.75,3187.5,3563.8181771801997,0.0,0.125,2.668456758,4.322849999999999,0.0,-74875.0,16.625,-3015.0,-3563.8181771801997,0.0,0.5,0.9704588850000001,4.3382499999999995,0.0,-4.46999979019165,-1.0199999809265137,92.13999938964844,-0.44970703125,-0.11346435546875,0.90106201171875,35.52000045776367,0.0,-22.0,-4.8684234619140625,-1.8040618896484375,Closing,0.0,0.0,-189.0,0.0,0.0,0.0,0.0,0.0,
17.951935,0.0,0.0,89983.0,14.625,3172.5,3563.8181771801997,0.0,0.375,0.12329100300000001,4.315719625,0.0,-100972.0,14.875,-3375.0,-3563.8181771801997,0.0,0.25,4.781493651,4.343298749999999,0.0,81625.0,15.375,3060.0,3563.8181771801997,0.0,0.125,2.653808322,4.322849999999999,0.0,-75873.0,14.5,-3240.0,-3563.8181771801997,0.0,0.25,0.937499904,4.3382499999999995,0.0,-5.699999809265137,-1.340000033378601,93.12000274658203,0.0902099609375,-0.109130859375,0.78350830078125,35.4900016784668,0.0,-36.0,-5.0673675537109375,-1.769287109375,Closing,0.0,0.0,-189.0,0.0,0.0,0.0,0.0,0.0,
18.151695000000007,0.0,0.0,91054.0,12.75,3472.5,3563.8181771801997,0.0,0.25,0.18066404400000002,4.315719625,0.0,-102107.0,10.375,-3592.5,-3563.8181771801997,0.0,0.25,4.822997553,4.343298749999999,0.0,82664.0,14.5,3330.0,3563.8181771801997,0.0,0.0,2.717284878,4.322849999999999,0.0,-76978.0,12.75,-3547.5,-3563.8181771801997,0.0,0.25,0.989990133,4.3382499999999995,0.0,-4.900000095367432,-0.5699999928474426,93.55000305175781,0.019775390625,-0.13763427734375,1.260498046875,35.4900016784668,0.0,-31.0,-5.2455902099609375,-1.74969482421875,Closing,0.0,0.0,-189.0,0.0,0.0,0.0,0.0,0.125,
18.300535999999962,0.0,0.0,92176.0,2.375,3502.5,2957.3343595751594,0.0,0.375,0.324706998,4.499896281622014,0.0,-102648.0,1.125,-3322.5,-2957.3343595751594,0.0,0.25,4.908446763000001,4.528652367007864,0.0,83221.0,15.875,3487.5,2957.3343595751594,0.0,0.125,2.862548535,4.507330950863084,0.0,-77552.0,14.25,-3607.5,-2957.3343595751594,0.0,0.25,1.125488166,4.523388157715806,0.0,-4.0,0.09000000357627869,92.80000305175781,0.18212890625,0.20074462890625,1.3642578125,35.4900016784668,0.0,286.0,-5.3560028076171875,-1.7510223388671875,Closing,0.0,0.0,-189.0,0.0,0.0,0.0,0.0,0.125,
18.488195999999995,0.0,0.0,92702.0,0.5,3247.5,2746.1645824051407,0.0,0.375,0.495605418,4.611435051039189,0.0,-103186.0,0.0,-3240.0,-2746.1645824051407,0.0,0.5,0.19775388600000002,4.640903912492854,0.0,83747.0,18.75,3262.5,2746.1645824051407,0.0,0.125,3.023681331,4.619054003162858,0.0,-78128.0,7.75,-3457.5,-2746.1645824051407,0.0,0.25,1.314697131,4.635509219431918,0.0,-1.0199999809265137,1.5700000524520874,90.94000244140625,-0.0401611328125,0.48681640625,0.722900390625,35.47999954223633,0.0,500.0,-5.43475341796875,-1.7769317626953125,Closing,0.0,0.0,-189.0,0.0,0.0,0.0,0.0,0.0,
18.631457999999984,0.0,0.0,93220.0,0.0,3135.0,2568.3610495819594,0.0,0.375,0.635986263,4.779675799679814,0.0,-103674.0,0.125,-2842.5,-2568.3610495819594,0.0,0.25,0.36865230600000004,4.810219784876453,0.0,84290.0,21.25,3352.5,2568.3610495819594,0.0,0.125,3.143310225,4.787572716947729,0.0,-79156.0,6.0,-3135.0,-2568.3610495819594,0.0,0.375,1.444091649,4.804628275165339,0.0,1.2300000190734863,2.2699999809265137,88.6500015258789,0.19378662109375,0.5283203125,0.37744140625,35.47999954223633,0.0,524.0,-5.437469482421875,-1.8077850341796875,Closing,0.0,0.0,-189.0,0.0,0.0,0.0,0.0,0.0,
18.812084999999964,0.0,0.0,94179.0,0.0,2887.5,2531.2243053847574,0.0,0.375,0.7397460180000001,4.85829807860569,0.0,-104558.0,0.25,-2677.5,-2531.2243053847574,0.0,0.25,0.404052693,4.889344490708313,0.0,85332.0,24.875,3082.5,2531.2243053847574,0.0,0.125,3.253173495,4.866324894565088,0.0,-79612.0,6.25,-2805.0,-2531.2243053847574,0.0,0.375,1.544189295,4.883661004625882,0.0,3.609999895095825,2.0899999141693115,84.81999969482422,0.14923095703125,-0.09375,0.92767333984375,35.47999954223633,0.0,-141.0,-5.3662872314453125,-1.847137451171875,Closing,0.0,0.0,-189.0,0.0,0.0,0.0,0.0,0.0,
18.97378099999996,0.0,0.0,94626.0,0.0,2745.0,2531.2243053847574,0.0,0.125,0.7910155440000001,4.85829807860569,0.0,-104978.0,0.625,-2580.0,-2531.2243053847574,0.0,0.125,0.429687456,4.889344490708313,0.0,85802.0,26.0,2737.5,2531.2243053847574,0.0,0.0,3.280028961,4.866324894565088,0.0,-80051.0,6.375,-2670.0,-2531.2243053847574,0.0,0.125,1.5832517910000001,4.883661004625882,0.0,4.289999961853027,1.409999966621399,82.66000366210938,0.1142578125,-0.00213623046875,1.100341796875,35.45000076293945,0.0,-72.0,-5.2936859130859375,-1.861358642578125,Closing,0.0,0.0,-189.0,0.0,0.0,0.0,0.0,0.0,
19.106467000000006,0.0,0.0,95052.0,0.0,2647.5,2564.6024909685693,0.0,0.375,0.721435473,4.7856350343966225,0.0,-105799.0,1.0,-2557.5,-2564.6024909685693,0.0,0.25,0.43457026800000004,4.8162171014181805,0.0,86705.0,26.75,2835.0,2564.6024909685693,0.0,0.125,3.2214352170000002,4.793541797433479,0.0,-80899.0,6.875,-2617.5,-2564.6024909685693,0.0,0.25,1.569824058,4.8106186202888805,0.0,4.289999961853027,1.0099999904632568,80.94999694824219,0.17718505859375,-0.00732421875,0.9454345703125,35.45000076293945,0.0,-51.0,-5.20489501953125,-1.8662109375,Closing,0.0,0.0,-189.0,0.0,0.0,0.0,0.0,0.0,
19.249468999999984,0.0,0.0,95921.0,1.5,2752.5,3312.2674346313675,0.0,0.5,0.318603483,4.322578009050045,0.0,-106240.0,13.625,-2805.0,-3312.2674346313675,0.0,0.5,0.083007804,4.35020096178851,0.0,87171.0,19.375,2932.5,3312.2674346313675,0.0,0.25,2.838134475,4.329719715381647,0.0,-81316.0,19.75,-2692.5,-3312.2674346313675,0.0,0.875,1.148681523,4.345144188499353,0.0,2.6700000762939453,0.8199999928474426,79.93000030517578,-0.27740478515625,-0.43115234375,1.16937255859375,35.45000076293945,0.0,-529.0,-5.13525390625,-1.871368408203125,Closing,0.0,0.0,-189.0,0.0,0.0,0.0,0.0,0.0,
19.409477000000013,0.0,0.0,96290.0,0.0,2235.0,0.0,0.0,0.25,0.035400387000000005,4.322578009050045,0.0,-106600.0,0.0,-2070.0,0.0,0.0,0.25,4.78515576,4.35020096178851,0.0,87631.0,0.125,2422.5,0.0,0.0,0.125,2.604980202,4.329719715381647,0.0,-81727.0,0.125,-2212.5,0.0,0.0,0.25,0.850829991,4.345144188499353,0.0,-0.4000000059604645,-2.549999952316284,79.29000091552734,-0.4605712890625,-0.2232666015625,0.42620849609375,35.400001525878906,0.0,-298.0,-5.142303466796875,-1.84515380859375,Closing,0.0,0.0,-189.0,0.0,0.0,0.0,0.0,0.0,
