Time,ClimberA1,ClimberA2,FRpos,FRCurrent,FRspeed,FRsetpoint,FRApos,FRACurrent,FREncpos,FREncSetpoint,FREncSpeed,FLpos,FLCurrent,FLspeed,FLsetpoint,FLApos,FLACurrent,FLEncpos,FLEncSetpoint,FLEncSpeed,BRpos,BRCurrent,BRspeed,BRsetpoint,BRApos,BRACurrent,BREncpos,BREncSetpoint,BREncSpeed,BLpos,BLCurrent,BLspeed,BLsetpoint,BLApos,BLACurrent,BLEncpos,BLEncSetpoint,BLEncSpeed,navx_Pitch,navx_Roll,navx_Yaw,navx_XAcc,navx_YAcc,navx_ZAcc,navx_Temp,navx_Bar,navx_Alt,navx_XDis,navx_YDis,GearPlacerState,ShootOutputV,ShootOutputCurrent,ShootEncPos,ShootEncVelocity,ShootSpeed,ShootSetpoint,CarouselSetpoint,CarouselCurrent,
0.6288760000000002,0.0,0.0,67058.0,0.0,0.0,0.0,0.0,0.25,0.836181555,0.01,0.0,-63764.0,0.125,-15.0,0.0,0.0,1.5,0.8044432770000001,0.01,0.0,60730.0,0.0,30.0,0.0,0.0,1.5,2.6879880060000003,0.01,0.0,-40016.0,0.125,82.5,0.0,0.0,1.875,0.9985350540000001,0.01,0.0,0.1599999964237213,-1.0399999618530273,111.5199966430664,-0.02508544921875,-0.03253173828125,1.1229248046875,35.81999969482422,0.0,45.0,-3.638214111328125,-0.7474212646484375,Waiting,0.0,0.0,-189.0,0.0,0.0,0.0,0.0,0.0,
0.7638499999999986,0.0,0.0,67058.0,0.0,0.0,840.0,0.0,0.25,0.8666991300000001,0.01,0.0,-63771.0,0.125,-30.0,-840.0,0.0,1.25,1.7407224780000001,0.01,-1.357421736,60734.0,0.0,0.0,840.0,0.0,1.875,1.883544729,0.01,1.1657713650000003,-40004.0,0.125,30.0,-840.0,0.0,1.75,0.172119123,0.01,1.1909105420000001,0.1899999976158142,-0.9900000095367432,111.70999908447266,0.0732421875,-0.05181884765625,1.0438232421875,35.81999969482422,0.0,-85.0,-3.63372802734375,-0.7469940185546875,Waiting,0.0,0.0,-189.0,0.0,0.0,0.0,0.0,0.0,
0.8116719999999986,0.0,0.0,67058.0,1.25,37.5,840.0,0.0,0.125,0.8276366340000001,4.931839891279793,0.0,-63794.0,1.5,-82.5,-840.0,0.0,11.25,1.7407224780000001,4.963356264135361,0.12451170599999983,60736.0,2.125,15.0,840.0,0.0,10.125,1.979980266,4.939988212051392,-0.17211912300000032,-40006.0,1.625,-22.5,-840.0,0.0,10.625,0.295410126,4.957586745071411,-0.21728513399999994,0.15000000596046448,-0.9200000166893005,111.66999816894531,-0.103515625,0.03857421875,1.083740234375,35.81999969482422,0.0,64.0,-3.6326446533203125,-0.7473907470703125,Waiting,0.0,0.0,-189.0,0.0,0.0,0.0,0.0,0.0,
0.8464470000000002,0.0,0.0,67080.0,2.125,90.0,840.0,0.0,0.25,0.8178710100000001,4.931291955375565,0.0,-63794.0,4.375,-210.0,-840.0,0.0,11.25,1.571044761,4.96280482670784,0.12451170599999983,60736.0,3.25,22.5,840.0,0.0,3.625,2.205810321,4.9394393708546955,-0.17211912300000032,-40006.0,2.875,-82.5,-840.0,0.0,6.5,0.47851557600000005,4.957035948647393,-0.21728513399999994,0.12999999523162842,-0.8799999952316284,111.55000305175781,0.02203369140625,0.3492431640625,0.8729248046875,35.81999969482422,0.0,309.0,-3.631744384765625,-0.7479095458984375,Waiting,0.0,0.0,-189.0,0.0,0.0,0.0,0.0,0.0,
0.8816069999999999,0.0,0.0,67080.0,2.875,165.0,840.0,0.0,0.25,0.8178710100000001,4.928140749022123,4.912719752,-63794.0,6.5,-217.5,-840.0,0.0,1.5,1.210937376,4.959633482921601,-0.156249984,60736.0,5.125,52.5,840.0,0.0,2.0,2.5415036460000002,4.93628295811971,0.24047849099999974,-40030.0,3.75,-127.5,-840.0,0.0,1.0,0.95214834,4.953868291303847,0.2331542729999998,0.0,-0.7699999809265137,111.12000274658203,0.08978271484375,0.12109375,1.06201171875,35.81999969482422,0.0,75.0,-3.6288604736328125,-0.7499237060546875,Waiting,0.0,0.0,-189.0,0.0,0.0,0.0,0.0,0.0,
0.9500989999999984,0.0,0.0,67090.0,4.25,105.0,840.0,0.0,0.125,0.8178710100000001,4.922934521707768,0.0,-63807.0,11.125,-30.0,-840.0,0.0,2.0,0.8825682690000001,4.95439398579216,-0.2172851339999995,60746.0,6.5,52.5,840.0,0.0,2.375,2.863769238,4.931068129145305,0.22705075799999985,-40030.0,4.375,-135.0,-840.0,0.0,1.5,1.177978395,4.94863488468594,0.2331542729999998,0.029999999329447746,-0.6700000166893005,110.95999908447266,0.1165771484375,-0.06182861328125,1.05059814453125,35.810001373291016,0.0,-104.0,-3.628021240234375,-0.751190185546875,Waiting,0.0,0.0,-189.0,0.0,0.0,0.0,0.0,0.0,
0.9777570000000014,0.0,0.0,67090.0,5.0,75.0,840.0,0.0,0.25,0.8154296040000001,4.921701404603195,0.0,-63807.0,12.625,-22.5,-840.0,0.0,2.0,0.709228443,4.95315298859024,-0.5932616580000003,60746.0,7.625,45.0,840.0,0.0,2.375,3.032226252,4.929832974700928,0.5981444700000003,-40030.0,5.25,-157.5,-840.0,0.0,1.625,1.358642439,4.947395330047607,0.63476556,0.019999999552965164,-0.4399999976158142,110.68000030517578,0.21282958984375,-0.0113525390625,1.0582275390625,35.810001373291016,0.0,-89.0,-3.6274871826171875,-0.753143310546875,Waiting,0.0,0.0,-189.0,0.0,0.0,0.0,0.0,0.0,
1.0129480000000004,0.0,0.0,67090.0,6.375,142.5,840.0,0.0,0.125,0.8166503070000001,4.91567306437645,0.0,-63807.0,14.875,-75.0,-840.0,0.0,0.25,0.6103515,4.94708612492752,-0.157470687,60746.0,8.875,37.5,840.0,0.0,0.75,3.1652828790000003,4.923794674530029,0.18066404400000025,-40062.0,6.5,-180.0,-840.0,0.0,0.75,1.5002439870000002,4.94133551864624,0.20019529200000008,0.03999999910593033,-0.1899999976158142,110.33000183105469,0.2822265625,-0.00909423828125,0.9764404296875,35.810001373291016,0.0,-108.0,-3.627349853515625,-0.7560882568359375,Waiting,0.0,0.0,-189.0,0.0,0.0,0.0,0.0,0.0,
1.0438960000000006,0.0,0.0,67090.0,6.625,195.0,840.0,0.0,0.25,0.8178710100000001,4.910329800822025,0.0,-63833.0,16.25,-105.0,-840.0,0.0,0.25,0.58593744,4.941708715843201,-0.157470687,60752.0,9.125,37.5,840.0,0.0,0.25,3.2165524050000003,4.918442582906088,0.18066404400000025,-40062.0,6.5,-180.0,-840.0,0.0,0.25,1.549072107,4.935964360385471,0.20019529200000008,0.10999999940395355,0.15000000596046448,109.91999816894531,0.24676513671875,0.0594482421875,1.00830078125,35.810001373291016,0.0,-29.0,-3.62744140625,-0.7605133056640625,Waiting,0.0,0.0,-189.0,0.0,0.0,0.0,0.0,0.0,
1.081036,0.0,0.0,67143.0,6.5,255.0,840.0,0.0,0.25,0.8166503070000001,4.907452666948721,0.0012207029999995456,-63833.0,17.125,-210.0,-840.0,0.0,0.25,0.562744083,4.938813195966721,-0.08178710100000064,60752.0,10.875,37.5,840.0,0.0,0.125,3.286132476,4.915560695470174,0.157470687,-40062.0,7.5,-240.0,-840.0,0.0,0.375,1.6064451480000002,4.93307220632765,0.15624998400000045,0.1899999976158142,0.47999998927116394,109.55000305175781,0.1690673828125,0.05072021484375,0.9970703125,35.810001373291016,0.0,-9.0,-3.6276092529296875,-0.766357421875,Waiting,0.0,0.0,-189.0,0.0,0.0,0.0,0.0,0.0,
1.106530999999999,0.0,0.0,67143.0,6.0,382.5,840.0,0.0,0.25,0.8178710100000001,4.900602318337611,0.0012207029999995456,-63833.0,16.625,-270.0,-840.0,0.0,0.25,0.557861271,4.93191907096672,-0.08178710100000064,60752.0,11.75,45.0,840.0,0.0,0.125,3.2958981,4.9086990288035075,0.157470687,-40062.0,7.5,-277.5,-840.0,0.0,0.25,1.668701001,4.926186095216539,0.048828119999999586,0.2800000011920929,0.800000011920929,109.25,0.20269775390625,0.02197265625,1.02734375,35.810001373291016,0.0,-46.0,-3.628173828125,-0.77691650390625,Waiting,0.0,0.0,-189.0,0.0,0.0,0.0,0.0,0.0,
1.1510910000000003,0.0,0.0,67143.0,5.625,480.0,840.0,0.0,0.25,0.8178710100000001,4.897588148224237,-0.0012207029999995456,-63833.0,14.75,-435.0,-840.0,0.0,0.25,0.552978459,4.928885639135361,-0.0183105449999994,60802.0,13.25,135.0,840.0,0.0,0.125,3.305663724,4.905679878718058,0.04394530799999963,-40134.0,7.375,-390.0,-840.0,0.0,0.25,1.701659982,4.923156189515856,0.048828119999999586,0.28999999165534973,1.0800000429153442,109.18000030517578,0.2657470703125,-0.06536865234375,1.02825927734375,35.810001373291016,0.0,-147.0,-3.6289825439453125,-0.7850341796875,Waiting,0.0,0.0,-189.0,0.0,0.0,0.0,0.0,0.0,
1.179309000000001,0.0,0.0,67143.0,5.375,532.5,840.0000000000001,0.0,0.25,0.822753822,4.897314180272124,0.0,-63925.0,13.625,-517.5,-840.0000000000001,0.0,0.25,0.548095647,4.9286099204216,-0.004882811999999959,60802.0,13.125,330.0,840.0000000000001,0.0,0.0,3.306884427,4.90540545811971,0.014648435999999876,-40134.0,6.75,-532.5,-840.0000000000001,0.0,0.25,1.727294745,4.922880791303847,-4.862785166,0.3799999952316284,1.3799999952316284,109.11000061035156,0.15618896484375,0.05120849609375,1.09271240234375,35.810001373291016,0.0,-1.0,-3.63104248046875,-0.7988739013671875,Waiting,0.0,0.0,-189.0,0.0,0.0,0.0,0.0,0.0,
1.218880000000001,0.0,0.0,67241.0,4.75,622.5,840.0000000000001,0.0,0.25,0.825195228,4.896081063167551,-4.926147485,-63925.0,10.0,-727.5,-840.0000000000001,0.0,0.25,0.54931635,4.927368923219681,-0.0012207030000004337,60802.0,11.5,517.5,840.0000000000001,0.0,0.0,3.304443021,4.9041703036753335,0.0,-40134.0,6.375,-592.5,-840.0000000000001,0.0,0.25,1.7077634970000002,4.921641236665514,0.012207029999999897,0.4399999976158142,1.4900000095367432,109.05999755859375,0.19500732421875,0.10076904296875,1.04156494140625,35.810001373291016,0.0,32.0,-3.6324920654296875,-0.8090362548828125,Waiting,0.0,0.0,-189.0,0.0,0.0,0.0,0.0,0.0,
1.2459470000000001,0.0,0.0,67241.0,4.375,675.0,840.0,0.0,0.25,0.8288573370000001,4.895396091023255,-4.926147485,-63925.0,9.125,-780.0,-840.0,0.0,0.25,0.548095647,4.92667957383728,-0.0012207030000004337,60802.0,10.625,555.0,840.0,0.0,0.0,3.305663724,4.903484199829101,0.0,-40134.0,5.5,-690.0,-840.0,0.0,0.25,1.6833494370000002,4.920952688598633,0.012207029999999897,0.44999998807907104,1.659999966621399,109.0199966430664,0.17547607421875,0.1370849609375,0.88763427734375,35.810001373291016,0.0,74.0,-3.6337890625,-0.8199310302734375,Waiting,0.0,0.0,-189.0,0.0,0.0,0.0,0.0,0.0,
1.284826000000001,0.0,0.0,67241.0,3.75,765.0,840.0,0.0,0.25,0.826415931,4.895122018543116,0.003662108999999969,-64062.0,7.625,-847.5,-840.0,0.0,0.25,0.532226508,4.926403749927521,-0.008544920999999484,60888.0,10.125,547.5,840.0,0.0,0.0,3.303222318,4.9032096745300295,0.0,-40253.0,5.25,-727.5,-840.0,0.0,0.25,1.6540525650000002,4.920677185312907,-0.04394530800000007,0.47999998927116394,1.850000023841858,108.98999786376953,0.18902587890625,-0.0869140625,1.07342529296875,35.810001373291016,0.0,-140.0,-3.6352081298828125,-0.83123779296875,Waiting,0.0,0.0,-189.0,0.0,0.0,0.0,0.0,0.0,
1.3078309999999984,0.0,0.0,67378.0,3.375,795.0,840.0,0.0,0.25,0.825195228,4.894574082638889,0.003662108999999969,-64062.0,7.0,-862.5,-840.0,0.0,0.25,0.5285643990000001,4.9258523125,-0.008544920999999484,60888.0,10.25,547.5,840.0,0.0,0.0,3.306884427,4.902660833333334,0.0,-40253.0,4.5,-802.5,-840.0,0.0,0.25,1.6296385050000002,4.920126388888889,-0.028076168999999984,0.46000000834465027,1.9500000476837158,108.93000030517578,0.19500732421875,-0.03680419921875,1.110107421875,35.810001373291016,0.0,-94.0,-3.638092041015625,-0.84918212890625,Waiting,0.0,0.0,-189.0,0.0,0.0,0.0,0.0,0.0,
1.352393,0.0,0.0,67378.0,2.875,862.5,840.0,0.0,0.25,0.7922362470000001,4.893340965534317,0.0,-64062.0,5.75,-907.5,-840.0,0.0,0.25,0.518798775,4.924611315298081,-0.010986327000000351,60888.0,10.5,652.5,840.0,0.0,0.0,3.3105465360000004,4.901425678888957,0.0,-40253.0,4.125,-832.5,-840.0,0.0,0.25,1.622314287,4.918886834250556,-0.028076168999999984,0.44999998807907104,2.0799999237060547,108.8499984741211,0.0567626953125,0.16925048828125,0.81573486328125,35.810001373291016,0.0,145.0,-3.6400909423828125,-0.861724853515625,Waiting,0.0,0.0,-189.0,0.0,0.0,0.0,0.0,0.0,
1.3812129999999998,0.0,0.0,67378.0,2.375,915.0,840.0000000000001,0.0,0.25,0.822753822,4.892792925102064,-0.0012207029999999897,-64220.0,4.875,-952.5,-840.0000000000001,0.0,0.25,0.510253854,4.9240597726745605,-0.01831054500000029,61034.0,9.125,825.0,840.0000000000001,0.0,0.0,3.3105465360000004,4.900876732991537,0.004882812000000847,-40401.0,3.375,-915.0,-840.0000000000001,0.0,0.25,1.6113279600000001,4.9183359327528215,4.9238203160000005,0.5600000023841858,2.059999942779541,108.6500015258789,0.13507080078125,-0.09967041015625,0.8814697265625,35.810001373291016,0.0,-135.0,-3.6425018310546875,-0.8808441162109375,Waiting,0.0,0.0,-189.0,0.0,0.0,0.0,0.0,0.0,
1.447036,0.0,0.0,67539.0,1.25,1005.0,840.0,0.0,0.25,0.812988198,4.889093782844395,0.0,-64220.0,3.875,-997.5,-840.0,0.0,0.25,0.50048823,4.9203369914608,0.0,61034.0,6.625,960.0,840.0,0.0,0.0,3.3105465360000004,4.897171479059855,0.0,-40401.0,3.125,-945.0,-840.0,0.0,0.25,1.614990069,4.914617478985257,0.0,0.44999998807907104,1.9700000286102295,108.36000061035156,0.0069580078125,0.06689453125,1.08837890625,35.7599983215332,0.0,64.0,-3.6463775634765625,-0.9061279296875,Waiting,0.0,0.0,-189.0,0.0,0.0,0.0,0.0,0.0,
1.4966450000000004,0.0,0.0,67539.0,0.875,1050.0,840.0,0.0,0.25,0.808105386,4.885120568106588,4.924926782,-64220.0,2.5,-1035.0,-840.0,0.0,0.25,0.498046824,4.91633838633728,-0.009765623999999917,61034.0,5.75,952.5,840.0,0.0,0.0,3.303222318,4.893191699829102,0.0,-40401.0,2.5,-982.5,-840.0,0.0,0.25,1.6101072570000001,4.910623521931966,-0.004882811999999959,0.38999998569488525,2.0899999141693115,108.23999786376953,0.12249755859375,-0.01434326171875,0.90179443359375,35.7599983215332,0.0,-47.0,-3.648162841796875,-0.918609619140625,Waiting,0.0,0.0,-189.0,0.0,0.0,0.0,0.0,0.0,
1.5365879999999998,0.0,0.0,67539.0,0.75,1065.0,840.0,0.0,0.25,0.8007811680000001,4.883613483049902,-0.02075195100000027,-64388.0,2.0,-1042.5,-840.0,0.0,0.25,0.495605418,4.914821670421601,-0.008544920999999484,61173.0,5.875,862.5,840.0,0.0,0.0,3.3117672390000004,4.891682124786377,0.0,-40563.0,1.875,-1012.5,-840.0,0.0,0.25,1.6052244450000002,4.909108569081624,0.0,0.36000001430511475,2.0199999809265137,108.01000213623047,0.03680419921875,0.021728515625,0.5115966796875,35.7599983215332,0.0,11.0,-3.6517333984375,-0.9426727294921875,Waiting,0.0,0.0,-189.0,0.0,0.0,0.0,0.0,0.0,
1.5640119999999988,0.0,0.0,67709.0,0.5,1057.5,840.0,0.0,0.25,0.798339762,4.88128438960885,-0.02075195100000027,-64388.0,1.75,-1042.5,-840.0,0.0,0.25,0.495605418,4.91247769316864,-0.008544920999999484,61173.0,6.25,795.0,840.0,0.0,0.0,3.3105465360000004,4.889349183247885,0.0,-40563.0,1.625,-1020.0,-840.0,0.0,0.25,1.6064451480000002,4.906767316521538,-0.004882811999999959,0.4000000059604645,1.899999976158142,107.94999694824219,-0.1070556640625,-0.00274658203125,0.95843505859375,35.7599983215332,0.0,33.0,-3.652587890625,-0.9485321044921875,Waiting,0.0,0.0,-189.0,0.0,0.0,0.0,0.0,0.0,
1.5861229999999995,0.0,0.0,67709.0,0.5,1057.5,839.9999999999999,0.0,0.25,0.798339762,4.88046227669646,0.0012207030000004337,-64388.0,1.25,-1035.0,-839.9999999999999,0.0,0.25,0.49194330900000005,4.91165032663536,-0.0012207030000004337,61173.0,7.375,727.5,839.9999999999999,0.0,0.0,3.3117672390000004,4.888525712051392,0.0,-40563.0,1.25,-1035.0,-839.9999999999999,0.0,0.25,1.6052244450000002,4.905940911738078,0.0,0.4300000071525574,1.8600000143051147,107.79000091552734,0.03057861328125,-0.0670166015625,0.88555908203125,35.7599983215332,0.0,-70.0,-3.6549530029296875,-0.965667724609375,Waiting,0.0,0.0,-189.0,0.0,0.0,0.0,0.0,0.0,
1.6396980000000003,0.0,0.0,67709.0,0.375,1042.5,840.0,0.0,0.25,0.798339762,4.877311174871042,0.0,-64552.0,1.125,-1027.5,-840.0,0.0,0.25,0.490722606,4.90847908804512,0.0,61314.0,7.625,832.5,840.0,0.0,0.0,3.3105465360000004,4.885369404017131,0.0,-40729.0,1.0,-1035.0,-840.0,0.0,0.25,1.6015623360000002,4.902773359468248,0.0,0.4399999976158142,1.690000057220459,107.66000366210938,-0.1085205078125,1.220703125E-4,1.18023681640625,35.7599983215332,0.0,34.0,-3.656707763671875,-0.976898193359375,Waiting,0.0,0.0,-189.0,0.0,0.0,0.0,0.0,0.0,
1.6683139999999985,0.0,0.0,67874.0,0.375,1035.0,839.9999999999999,0.0,0.25,0.811767495,4.875530017334218,-0.004882811999999959,-64552.0,1.0,-1027.5,-839.9999999999999,0.0,0.25,0.48583979400000005,4.906686548219681,-0.004882811999999959,61314.0,6.625,997.5,839.9999999999999,0.0,0.125,3.3105465360000004,4.883585303675334,0.0,-40729.0,1.0,-1027.5,-839.9999999999999,0.0,0.25,1.6015623360000002,4.900982903332181,-0.004882811999999959,0.38999998569488525,1.649999976158142,107.48999786376953,0.0076904296875,0.15966796875,0.7364501953125,35.7599983215332,0.0,151.0,-3.6595306396484375,-0.9929656982421875,Waiting,0.0,0.0,-189.0,0.0,0.0,0.0,0.0,0.0,
1.713005000000001,0.0,0.0,67874.0,0.375,1012.5,840.0,0.0,0.25,0.79345695,4.873474996373304,0.0012207029999995456,-64552.0,0.625,-1027.5,-840.0,0.0,0.25,0.49194330900000005,4.90461839487648,-0.004882811999999959,61314.0,5.25,1057.5,840.0,0.0,0.125,3.3093258330000004,4.881526887435913,0.0012207029999995456,-40729.0,0.75,-997.5,-840.0,0.0,0.25,1.6015623360000002,4.898917154057821,0.0,0.3700000047683716,1.5,107.30999755859375,0.024169921875,-0.1002197265625,0.78228759765625,35.7599983215332,0.0,-101.0,-3.6632232666015625,-1.0131683349609375,Waiting,0.0,0.0,-189.0,0.0,0.0,0.0,0.0,0.0,
1.7624099999999998,0.0,0.0,67874.0,0.375,990.0,840.0,0.0,0.25,0.8007811680000001,4.871693838836479,0.0012207029999995456,-64716.0,0.5,-1027.5,-840.0,0.0,0.25,0.47607417,4.902825855051041,-0.004882811999999959,61482.0,4.75,1057.5,840.0,0.0,0.125,3.3105465360000004,4.879742787094116,0.0012207029999995456,-40886.0,0.75,-982.5,-840.0,0.0,0.25,1.600341633,4.8971266979217525,0.0,0.36000001430511475,1.4299999475479126,107.27999877929688,-0.0308837890625,-0.090087890625,1.13385009765625,35.7599983215332,0.0,-75.0,-3.664276123046875,-1.0179443359375,Waiting,0.0,0.0,-189.0,0.0,0.0,0.0,0.0,0.0,
1.8013709999999992,0.0,0.0,68033.0,0.125,982.5,840.0,0.0,0.25,0.798339762,4.870734794212045,-0.0012207029999995456,-64716.0,0.5,-1005.0,-840.0,0.0,0.25,0.47485346700000003,4.901860681758881,-0.004882811999999959,61482.0,4.375,1027.5,840.0,0.0,0.125,3.3105465360000004,4.878782157948812,-0.0012207029999995456,-40886.0,1.0,-960.0,-840.0,0.0,0.25,1.6015623360000002,4.896162646569146,0.0,0.25999999046325684,1.4199999570846558,107.19999694824219,0.1282958984375,0.04864501953125,0.679931640625,35.7599983215332,0.0,10.0,-3.6674957275390625,-1.03173828125,Waiting,0.0,0.0,-189.0,0.0,0.0,0.0,0.0,0.0,
1.829273000000001,0.0,0.0,68033.0,0.125,997.5,840.0,0.0,0.25,0.784912029,4.86991278582768,0.0,-64716.0,0.5,-990.0,-840.0,0.0,0.25,0.48095698200000003,4.901033420421601,-0.004882811999999959,61482.0,4.25,997.5,840.0,0.0,0.125,3.3178707540000003,4.877958791453044,0.0,-40886.0,0.75,-952.5,-840.0,0.0,0.25,1.6015623360000002,4.895336346859402,0.0,0.30000001192092896,1.3200000524520874,107.18000030517578,-0.05950927734375,0.08636474609375,1.1336669921875,35.7599983215332,0.0,102.0,-3.6684722900390625,-1.036376953125,Waiting,0.0,0.0,-189.0,0.0,0.0,0.0,0.0,0.0,
1.8480400000000008,0.0,0.0,68033.0,0.125,1012.5,840.0,0.0,0.25,0.7788085140000001,4.86991278582768,0.0,-64716.0,0.625,-967.5,-840.0,0.0,0.25,0.48095698200000003,4.901033420421601,-0.004882811999999959,61482.0,4.375,960.0,840.0,0.0,0.125,3.3105465360000004,4.877958791453044,0.0,-40886.0,0.75,-945.0,-840.0,0.0,0.25,1.600341633,4.895336346859402,0.0,0.3100000023841858,1.2599999904632568,107.1500015258789,-0.01177978515625,-0.08294677734375,0.9256591796875,35.7599983215332,0.0,-74.0,-3.6701507568359375,-1.0453948974609375,Waiting,0.0,0.0,-189.0,0.0,0.0,0.0,0.0,0.0,
1.8796579999999994,0.0,0.0,68033.0,0.125,1027.5,840.0,0.0,0.25,0.7763671080000001,4.869090777443314,-0.014648435999999876,-64866.0,0.625,-937.5,-840.0,0.0,0.25,0.48095698200000003,4.90020615908432,0.004882811999999959,61634.0,4.375,952.5,840.0,0.0,0.125,3.3105465360000004,4.877135424957276,0.0,-41042.0,0.625,-960.0,-840.0,0.0,0.25,1.6027830390000002,4.894510047149658,0.0,0.3100000023841858,1.1200000047683716,107.0999984741211,-0.11187744140625,-0.0482177734375,1.2274169921875,35.7599983215332,0.0,-12.0,-3.6728668212890625,-1.0581207275390625,Waiting,0.0,0.0,-189.0,0.0,0.0,0.0,0.0,0.0,
1.9080099999999984,0.0,0.0,68196.0,0.375,1020.0,840.0,0.0,0.25,0.7788085140000001,4.868816704963176,-0.014648435999999876,-64866.0,0.5,-937.5,-840.0,0.0,0.25,0.48095698200000003,4.8999303351745604,0.004882811999999959,61634.0,4.375,937.5,840.0,0.0,0.125,3.3105465360000004,4.876860899658204,0.0,-41042.0,0.625,-990.0,-840.0,0.0,0.25,1.591796712,4.8942345438639325,0.0,0.30000001192092896,1.149999976158142,107.08999633789062,-0.06646728515625,-0.0777587890625,1.32568359375,35.7599983215332,0.0,-41.0,-3.67572021484375,-1.0696563720703125,Waiting,0.0,0.0,-189.0,0.0,0.0,0.0,0.0,0.0,
1.9512020000000012,0.0,0.0,68196.0,0.375,1005.0,840.0,0.0,0.25,0.773925702,4.868679668723106,0.0,-64866.0,0.375,-952.5,-840.0,0.0,0.25,0.47607417,4.899792423219681,0.0,61634.0,5.5,742.5,840.0,0.0,0.125,3.3105465360000004,4.876723637008667,0.0,-41042.0,0.625,-997.5,-840.0,0.0,0.25,1.6015623360000002,4.894096792221069,0.0,0.28999999165534973,0.9599999785423279,107.08000183105469,-0.0892333984375,-0.14898681640625,1.218505859375,35.7599983215332,0.0,-116.0,-3.6767730712890625,-1.073150634765625,Waiting,0.0,0.0,-189.0,0.0,0.0,0.0,0.0,0.0,
1.9713050000000003,0.0,0.0,68196.0,0.375,1005.0,840.0,0.0,0.25,0.773925702,4.868542737011062,-0.004882811999999959,-64866.0,0.375,-967.5,-840.0,0.0,0.25,0.48095698200000003,4.899654616460801,-0.003662108999999525,61634.0,6.25,697.5,840.0,0.0,0.125,3.3093258330000004,4.876586479059855,0.0,-41201.0,0.375,-997.5,-840.0,0.0,0.25,1.6015623360000002,4.893959145651923,0.0,0.18000000715255737,0.8700000047683716,107.05999755859375,-0.01751708984375,0.025634765625,1.019287109375,35.7400016784668,0.0,31.0,-3.6800384521484375,-1.08306884765625,Waiting,0.0,0.0,-189.0,0.0,0.0,0.0,0.0,0.0,
2.021805,0.0,0.0,68356.0,0.375,997.5,840.0,0.0,0.25,0.7751464050000001,4.868268664530924,0.0,-65022.0,0.125,-967.5,-840.0,0.0,0.25,0.47607417,4.89937879255104,0.0,61750.0,7.125,757.5,840.0,0.0,0.125,3.3105465360000004,4.8763119537607835,0.0,-41201.0,0.375,-997.5,-840.0,0.0,0.25,1.6015623360000002,4.893683642366198,0.0,0.15000000596046448,0.8100000023841858,107.0,-0.09796142578125,0.0965576171875,1.130615234375,35.7400016784668,0.0,122.0,-3.6821136474609375,-1.089385986328125,Waiting,0.0,0.0,-189.0,0.0,0.0,0.0,0.0,0.0,
2.048511999999999,0.0,0.0,68356.0,0.375,997.5,839.9999999999999,0.0,0.25,0.773925702,4.867446656146559,0.0,-65022.0,0.125,-960.0,-839.9999999999999,0.0,0.25,0.47607417,4.89855153121376,0.0,61750.0,7.0,847.5,839.9999999999999,0.0,0.125,3.3178707540000003,4.875488587265015,0.0,-41201.0,0.375,-982.5,-839.9999999999999,0.0,0.25,1.6015623360000002,4.892857342656454,0.0,0.25,0.7699999809265137,106.97000122070312,-0.03076171875,0.06097412109375,1.10516357421875,35.7400016784668,0.0,66.0,-3.6836395263671875,-1.095550537109375,Waiting,0.0,0.0,-189.0,0.0,0.0,0.0,0.0,0.0,
2.0710930000000007,0.0,0.0,68356.0,0.125,997.5,840.0,0.0,0.25,0.7751464050000001,4.867035651954375,0.0,-65022.0,0.125,-952.5,-840.0,0.0,0.25,0.47363276400000004,4.89813790054512,-0.0012207030000004337,61750.0,6.0,952.5,840.0,0.0,0.125,3.3093258330000004,4.8750769040171305,0.0,-41201.0,0.375,-967.5,-840.0,0.0,0.25,1.6015623360000002,4.892444192801581,0.0012207029999995456,0.28999999165534973,0.699999988079071,106.94999694824219,-0.06378173828125,-0.04595947265625,1.00775146484375,35.7400016784668,0.0,-26.0,-3.6843109130859375,-1.0985565185546875,Waiting,0.0,0.0,-189.0,0.0,0.0,0.0,0.0,0.0,
2.104912,0.0,0.0,68356.0,0.125,997.5,840.0000000000001,0.0,0.25,0.773925702,4.866487611522124,0.0,-65022.0,0.125,-952.5,-840.0000000000001,0.0,0.25,0.47485346700000003,4.8975863579216,-0.0012207030000004337,61750.0,5.625,952.5,840.0000000000001,0.0,0.125,3.3093258330000004,4.87452795811971,0.0,-41352.0,0.375,-952.5,-840.0000000000001,0.0,0.25,1.6052244450000002,4.891893291303846,0.0012207029999995456,0.3199999928474426,0.6499999761581421,106.93000030517578,-0.0830078125,0.0313720703125,1.042724609375,35.7400016784668,0.0,52.0,-3.68560791015625,-1.104339599609375,Waiting,0.0,0.0,-189.0,0.0,0.0,0.0,0.0,0.0,
2.1479079999999993,0.0,0.0,68511.0,0.125,982.5,840.0,0.0,0.25,0.7751464050000001,4.866076607329941,0.0012207029999995456,-65174.0,0.125,-937.5,-840.0,0.0,0.25,0.47607417,4.89717272725296,0.0,61900.0,5.375,930.0,840.0,0.0,0.125,3.304443021,4.8741162748718265,0.0,-41352.0,0.375,-930.0,-840.0,0.0,0.25,1.600341633,4.891480141448975,0.0,0.3199999928474426,0.5,106.87000274658203,-0.16217041015625,-0.1165771484375,0.88348388671875,35.7400016784668,0.0,-66.0,-3.687469482421875,-1.112060546875,Waiting,0.0,0.0,-189.0,0.0,0.0,0.0,0.0,0.0,
2.167566999999999,0.0,0.0,68511.0,0.125,975.0,840.0,0.0,0.25,0.7751464050000001,4.865665603137758,0.0012207029999995456,-65174.0,0.125,-930.0,-840.0,0.0,0.25,0.47607417,4.89675909658432,0.0,61900.0,5.5,915.0,840.0,0.0,0.125,3.3178707540000003,4.873704591623942,0.0,-41352.0,0.375,-922.5,-840.0,0.0,0.25,1.6015623360000002,4.891066991594102,0.0,0.3199999928474426,0.36000001430511475,106.83999633789062,0.003662109375,0.14697265625,1.11474609375,35.7400016784668,0.0,135.0,-3.688873291015625,-1.11651611328125,Waiting,0.0,0.0,-189.0,0.0,0.0,0.0,0.0,0.0,
2.2095869999999995,0.0,0.0,68511.0,0.125,945.0,840.0,0.0,0.25,0.773925702,4.864706558513324,-0.0012207029999995456,-65174.0,0.125,-915.0,-840.0,0.0,0.25,0.47485346700000003,4.89579392329216,0.0012207030000004337,61900.0,5.75,877.5,840.0,0.0,0.125,3.3105465360000004,4.872743962478638,0.0,-41352.0,0.375,-922.5,-840.0,0.0,0.25,1.595458821,4.890102940241496,-0.0012207029999995456,0.3100000023841858,0.3100000023841858,106.73999786376953,-0.08404541015625,0.03070068359375,1.00994873046875,35.7400016784668,0.0,49.0,-3.69049072265625,-1.123077392578125,Waiting,0.0,0.0,-189.0,0.0,0.0,0.0,0.0,0.0,
2.2345639999999984,0.0,0.0,68511.0,0.125,937.5,840.0,0.0,0.25,0.773925702,4.863884445600934,0.0,-65317.0,0.125,-900.0,-840.0,0.0,0.25,0.47607417,4.894966556758881,-0.0012207030000004337,62030.0,5.75,855.0,840.0,0.0,0.125,3.3117672390000004,4.871920491282145,0.0012207029999995456,-41496.0,0.375,-900.0,-840.0,0.0,0.25,1.596679524,4.889276535458035,-0.0012207029999995456,0.30000001192092896,0.20999999344348907,106.70999908447266,-0.016845703125,-0.0167236328125,0.9688720703125,35.7400016784668,0.0,-15.0,-3.6909332275390625,-1.125152587890625,Waiting,0.0,0.0,-189.0,0.0,0.0,0.0,0.0,0.0,
2.262905999999999,0.0,0.0,68511.0,0.375,915.0,839.9999999999999,0.0,0.25,0.7751464050000001,4.863473441408751,0.0,-65317.0,0.125,-892.5,-839.9999999999999,0.0,0.25,0.47607417,4.894552926090241,-0.0012207030000004337,62030.0,6.125,802.5,839.9999999999999,0.0,0.125,3.3190914570000003,4.871508808034261,0.0012207029999995456,-41496.0,0.375,-892.5,-839.9999999999999,0.0,0.25,1.589355306,4.888863385603163,-0.0012207029999995456,0.28999999165534973,0.20999999344348907,106.62999725341797,-0.0704345703125,0.05377197265625,1.0504150390625,35.7400016784668,0.0,67.0,-3.691680908203125,-1.129547119140625,Waiting,0.0,0.0,-189.0,0.0,0.0,0.0,0.0,0.0,
2.294169999999998,0.0,0.0,68656.0,0.375,900.0,840.0,0.0,0.25,0.773925702,4.861692388399951,0.0,-65317.0,0.125,-885.0,-840.0,0.0,0.25,0.47607417,4.8927604914608,0.0012207030000004337,62030.0,7.125,637.5,840.0,0.0,0.125,3.3081051300000004,4.869724812393189,-0.0012207029999995456,-41496.0,0.375,-877.5,-840.0,0.0,0.25,1.5869139,4.887073034540812,-0.004882811999999959,0.2800000011920929,0.10999999940395355,106.54000091552734,-0.01458740234375,0.061279296875,1.0634765625,35.7400016784668,0.0,58.0,-3.6922149658203125,-1.133819580078125,Waiting,0.0,0.0,-189.0,0.0,0.0,0.0,0.0,0.0,
2.3153369999999995,0.0,0.0,68656.0,0.375,892.5,840.0,0.0,0.25,0.7751464050000001,4.8611443479676995,0.0,-65317.0,0.125,-877.5,-840.0,0.0,0.25,0.47607417,4.89220894883728,-0.0012207030000004337,62030.0,8.25,555.0,840.0,0.0,0.125,3.303222318,4.869175866495769,0.0,-41496.0,0.625,-847.5,-840.0,0.0,0.25,1.5771482760000002,4.886522133043077,-0.01342773300000033,0.3199999928474426,0.09000000357627869,106.44000244140625,-0.095947265625,0.0401611328125,1.08319091796875,35.7400016784668,0.0,60.0,-3.6927337646484375,-1.137908935546875,Waiting,0.0,0.0,-189.0,0.0,0.0,0.0,0.0,0.0,
2.3517249999999987,0.0,0.0,68656.0,0.375,870.0,840.0,0.0,0.25,0.773925702,4.859089222478761,0.0,-65454.0,0.25,-855.0,-840.0,0.0,0.25,0.47485346700000003,4.890140690298081,-0.0012207030000004337,62125.0,10.5,525.0,840.0,0.0,0.125,3.3093258330000004,4.867117345555624,0.0,-41628.0,0.625,-832.5,-840.0,0.0,0.25,1.5771482760000002,4.8844562786950005,-0.01342773300000033,0.3100000023841858,0.10000000149011612,106.33999633789062,0.02655029296875,-0.01910400390625,0.76165771484375,35.7400016784668,0.0,-29.0,-3.6931610107421875,-1.1417388916015625,Waiting,0.0,0.0,-189.0,0.0,0.0,0.0,0.0,0.0,
2.3705230000000013,0.0,0.0,68656.0,0.375,870.0,840.0,0.0,0.25,0.772704999,4.85840414580644,0.0,-65454.0,0.25,-855.0,-840.0,0.0,0.25,0.47607417,4.88945123571968,0.0,62125.0,11.125,592.5,840.0,0.0,0.125,3.3093258330000004,4.866431137008667,0.0,-41628.0,0.625,-825.0,-840.0,0.0,0.25,1.5771482760000002,4.883767625554403,-0.004882811999999959,0.3799999952316284,-0.03999999910593033,106.29000091552734,-7.9345703125E-4,0.03106689453125,1.33331298828125,35.7400016784668,0.0,21.0,-3.693389892578125,-1.1436767578125,Waiting,0.0,0.0,-189.0,0.0,0.0,0.0,0.0,0.0,
2.411672999999999,0.0,0.0,68795.0,0.375,862.5,840.0,0.0,0.25,0.7751464050000001,4.857171133229891,0.0,-65454.0,0.25,-840.0,-840.0,0.0,0.25,0.47607417,4.8882103437137605,0.0,62125.0,10.5,787.5,840.0,0.0,0.125,3.3081051300000004,4.865196087265015,0.0,-41628.0,0.625,-825.0,-840.0,0.0,0.25,1.5783689790000002,4.882528175989787,0.0,0.33000001311302185,0.10000000149011612,106.1500015258789,0.0382080078125,-0.01910400390625,0.6341552734375,35.7400016784668,0.0,-32.0,-3.6937255859375,-1.1493682861328125,Waiting,0.0,0.0,-189.0,0.0,0.0,0.0,0.0,0.0,
2.441488000000001,0.0,0.0,68795.0,0.375,862.5,840.0,0.0,0.25,0.7751464050000001,4.855801084413274,-0.0012207030000004337,-65454.0,0.375,-825.0,-840.0,0.0,0.25,0.47485346700000003,4.8868315397529605,0.0,62125.0,9.5,840.0,840.0,0.0,0.125,3.3117672390000004,4.863823774871826,0.0,-41628.0,0.625,-825.0,-840.0,0.0,0.25,1.5771482760000002,4.881150974782308,0.0,0.33000001311302185,0.10000000149011612,106.1500015258789,0.0382080078125,-0.01910400390625,0.6341552734375,35.7400016784668,0.0,-32.0,-3.6937255859375,-1.1493682861328125,Waiting,0.0,0.0,-189.0,0.0,0.0,0.0,0.0,0.0,
2.460439999999999,0.0,0.0,68795.0,0.375,855.0,840.0,0.0,0.25,0.7751464050000001,4.854567967308702,-0.0012207030000004337,-65454.0,0.375,-825.0,-840.0,0.0,0.25,0.47851557600000005,4.885590542551041,0.0,62125.0,8.75,862.5,840.0,0.0,0.125,3.3105465360000004,4.8625886204274495,0.0,-41628.0,0.625,-832.5,-840.0,0.0,0.25,1.5771482760000002,4.8799114201439755,0.0,0.3499999940395355,-0.07999999821186066,106.0199966430664,-0.00836181640625,-0.07318115234375,0.8900146484375,35.7400016784668,0.0,-73.0,-3.694183349609375,-1.1549835205078125,Waiting,0.0,0.0,-189.0,0.0,0.0,0.0,0.0,0.0,
2.4833990000000012,0.0,0.0,68795.0,0.375,855.0,840.0,0.0,0.25,0.7751464050000001,4.8540199268764495,0.0024414059999999793,-65586.0,0.375,-817.5,-840.0,0.0,0.25,0.471191358,4.885038999927521,0.0,62260.0,8.25,855.0,840.0,0.0,0.125,3.3093258330000004,4.862039674530029,0.0,-41763.0,0.625,-832.5,-840.0,0.0,0.25,1.5771482760000002,4.87936051864624,0.0,0.3499999940395355,-0.07999999821186066,106.0199966430664,-0.00836181640625,-0.07318115234375,0.8900146484375,35.7400016784668,0.0,-73.0,-3.694183349609375,-1.1549835205078125,Waiting,0.0,0.0,-189.0,0.0,0.0,0.0,0.0,0.0,
2.5033280000000016,0.0,0.0,68795.0,0.375,847.5,840.0,0.0,0.25,0.7763671080000001,4.853334954732153,0.0024414059999999793,-65586.0,0.375,-825.0,-840.0,0.0,0.25,0.47607417,4.88434965054512,0.0,62260.0,8.125,840.0,840.0,0.0,0.125,3.304443021,4.861353570683797,0.0,-41763.0,0.625,-832.5,-840.0,0.0,0.25,1.5783689790000002,4.878671970579359,0.0,0.36000001430511475,-0.07999999821186066,105.88999938964844,-0.009521484375,0.0626220703125,1.061767578125,35.7400016784668,0.0,55.0,-3.6949462890625,-1.160308837890625,Waiting,0.0,0.0,-189.0,0.0,0.0,0.0,0.0,0.0,
2.532109,0.0,0.0,68932.0,0.375,847.5,840.0,0.0,0.25,0.773925702,4.85223887386765,-0.0024414059999999793,-65586.0,0.375,-825.0,-840.0,0.0,0.25,0.47607417,4.88324656529808,0.0,62260.0,8.375,810.0,840.0,0.0,0.125,3.300780912,4.860255678888957,-0.004882812000000847,-41763.0,0.625,-817.5,-840.0,0.0,0.25,1.5771482760000002,4.877570167583889,-0.0012207029999995456,0.4399999976158142,-0.12999999523162842,105.79000091552734,-0.05767822265625,-0.05438232421875,1.220458984375,35.7400016784668,0.0,-46.0,-3.6953125,-1.1636810302734375,Waiting,0.0,0.0,-189.0,0.0,0.0,0.0,0.0,0.0,
2.565577000000001,0.0,0.0,68932.0,0.375,855.0,840.0,0.0,0.25,0.7751464050000001,4.850868825051032,-0.0024414059999999793,-65586.0,0.5,-825.0,-840.0,0.0,0.25,0.47607417,4.88186776133728,0.0,62260.0,8.625,787.5,840.0,0.0,0.125,3.2958981,4.8588833664957685,-0.004882812000000847,-41763.0,0.75,-802.5,-840.0,0.0,0.25,1.5771482760000002,4.8761929663764105,-0.0012207029999995456,0.38999998569488525,-0.15000000596046448,105.73999786376953,0.0386962890625,0.03314208984375,1.02960205078125,35.7400016784668,0.0,13.0,-3.6955108642578125,-1.1653289794921875,Waiting,0.0,0.0,-189.0,0.0,0.0,0.0,0.0,0.0,
2.611790000000001,0.0,0.0,68932.0,0.375,855.0,840.0,0.0,0.25,0.7751464050000001,4.849361739994346,0.0024414059999999793,-65717.0,0.5,-817.5,-840.0,0.0,0.25,0.46630854600000005,4.880351045421601,0.0,62386.0,9.25,780.0,840.0,0.0,0.125,3.294677397,4.8573737914530435,-0.004882811999999959,-41889.0,0.75,-787.5,-840.0,0.0,0.25,1.5771482760000002,4.8746780135260686,0.0,0.38999998569488525,-0.18000000715255737,105.54000091552734,0.003173828125,0.04779052734375,0.97357177734375,35.7400016784668,0.0,37.0,-3.6959991455078125,-1.17034912109375,Waiting,0.0,0.0,-189.0,0.0,0.0,0.0,0.0,0.0,
2.637064999999999,0.0,0.0,69069.0,0.375,855.0,840.0,0.0,0.25,0.76904289,4.846347569880973,-0.0024414059999999793,-65717.0,0.5,-810.0,-840.0,0.0,0.25,0.46020503100000004,4.8773176135902405,-0.004882811999999959,62386.0,9.375,780.0,840.0,0.0,0.125,3.303222318,4.854354641367594,-0.004882811999999959,-41889.0,1.0,-780.0,-840.0,0.0,0.25,1.5795896820000002,4.8716481078253855,0.0,0.3799999952316284,-0.20999999344348907,105.38999938964844,0.0108642578125,-0.01092529296875,1.08453369140625,35.7400016784668,0.0,-21.0,-3.696258544921875,-1.173675537109375,Waiting,0.0,0.0,-189.0,0.0,0.0,0.0,0.0,0.0,
2.6595149999999994,0.0,0.0,69069.0,0.375,862.5,840.0,0.0,0.25,0.7751464050000001,4.8453885252565385,0.0012207030000004337,-65717.0,0.625,-810.0,-840.0,0.0,0.25,0.450439407,4.8763524402980805,-0.009765623999999917,62386.0,9.75,675.0,840.0,0.0,0.125,3.297118803,4.8533940122222905,0.0,-41889.0,1.0,-780.0,-840.0,0.0,0.25,1.5771482760000002,4.870684056472778,0.0,0.38999998569488525,-0.30000001192092896,105.18000030517578,-0.08734130859375,-0.05487060546875,1.20623779296875,35.7400016784668,0.0,-39.0,-3.696685791015625,-1.178375244140625,Waiting,0.0,0.0,-189.0,0.0,0.0,0.0,0.0,0.0,
2.707380000000001,0.0,0.0,69069.0,0.375,862.5,840.0,0.0,0.25,0.7751464050000001,4.842511391383235,0.0012207030000004337,-65717.0,0.625,-810.0,-840.0,0.0,0.25,0.45166011,4.8734569204216,-0.009765623999999917,62386.0,9.75,675.0,840.0,0.0,0.125,3.2958981,4.850512124786377,0.0,-42015.0,1.0,-780.0,-840.0,0.0,0.25,1.5771482760000002,4.867791902414957,0.0,0.3799999952316284,-0.23999999463558197,105.12000274658203,-0.04925537109375,0.01312255859375,0.87152099609375,35.7400016784668,0.0,18.0,-3.696868896484375,-1.179779052734375,Waiting,0.0,0.0,-189.0,0.0,0.0,0.0,0.0,0.0,
2.7449229999999987,0.0,0.0,69207.0,0.375,862.5,840.0,0.0,0.25,0.78124992,4.839908225462045,0.0,-65848.0,0.625,-817.5,-840.0,0.0,0.25,0.44677729800000004,4.870837119258881,-0.009765623999999917,62463.0,11.875,480.0,840.0,0.0,0.125,3.2958981,4.847904657948812,0.0,-42015.0,1.0,-787.5,-840.0,0.0,0.25,1.5771482760000002,4.865175146569146,0.0,0.3400000035762787,-0.3199999928474426,104.94000244140625,0.00543212890625,-0.01324462890625,1.25146484375,35.7400016784668,0.0,-23.0,-3.697296142578125,-1.1838226318359375,Waiting,0.0,0.0,-189.0,0.0,0.0,0.0,0.0,0.0,
2.765155999999999,0.0,0.0,69207.0,0.375,862.5,840.0,0.0,0.25,0.770263593,4.839223253317749,0.0,-65848.0,0.625,-817.5,-840.0,0.0,0.25,0.44799800100000003,4.87014776987648,-0.009765623999999917,62463.0,13.75,442.5,840.0,0.0,0.125,3.294677397,4.84721855410258,0.0,-42015.0,1.0,-787.5,-840.0,0.0,0.25,1.5795896820000002,4.864486598502265,0.0,0.33000001311302185,-0.2800000011920929,104.87999725341797,0.06988525390625,0.1416015625,1.11187744140625,35.7400016784668,0.0,111.0,-3.6973724365234375,-1.18524169921875,Waiting,0.0,0.0,-189.0,0.0,0.0,0.0,0.0,0.0,
2.800883999999998,0.0,0.0,69207.0,0.375,855.0,840.0,0.0,0.25,0.759277266,4.837442095780924,-0.004882811999999959,-65848.0,0.625,-810.0,-840.0,0.0,0.25,0.44677729800000004,4.868355230051041,-0.003662109000000413,62463.0,16.0,585.0,840.0,0.0,0.125,3.303222318,4.845434453760783,0.0012207030000004337,-42015.0,1.25,-780.0,-840.0,0.0,0.25,1.568603355,4.862696142366198,-0.0024414059999999793,0.3700000047683716,-0.33000001311302185,104.68000030517578,0.01275634765625,-0.0164794921875,1.18646240234375,35.7400016784668,0.0,-10.0,-3.6973876953125,-1.1883392333984375,Waiting,0.0,0.0,-189.0,0.0,0.0,0.0,0.0,0.0,
2.8321270000000003,0.0,0.0,69207.0,0.125,855.0,840.0,0.0,0.25,0.759277266,4.834701998147689,-0.006103515000000392,-65848.0,0.625,-810.0,-840.0,0.0,0.25,0.44677729800000004,4.865597622129441,-0.0012207029999995456,62606.0,15.5,720.0,840.0,0.0,0.125,3.291015288,4.8426898289744065,0.0,-42139.0,1.25,-772.5,-840.0,0.0,0.25,1.561279137,4.85994173995124,-0.0024414059999999793,0.3700000047683716,-0.23999999463558197,104.52999877929688,-0.0423583984375,0.0311279296875,1.13885498046875,35.7400016784668,0.0,32.0,-3.69744873046875,-1.1882476806640625,Waiting,0.0,0.0,-189.0,0.0,0.0,0.0,0.0,0.0,
2.857351999999999,0.0,0.0,69207.0,0.125,862.5,840.0,0.0,0.25,0.7507323450000001,4.833605917283186,-0.006103515000000392,-65978.0,0.625,-810.0,-840.0,0.0,0.25,0.44677729800000004,4.8644945368824,-0.0012207029999995456,62606.0,12.5,892.5,840.0,0.0,0.125,3.280028961,4.841591937179565,0.0,-42139.0,1.0,-772.5,-840.0,0.0,0.25,1.5563963250000001,4.8588399369557695,-0.0024414059999999793,0.3700000047683716,-0.23999999463558197,104.38999938964844,0.01153564453125,3.662109375E-4,0.83795166015625,35.7400016784668,0.0,-8.0,-3.6975860595703125,-1.18792724609375,Waiting,0.0,0.0,-189.0,0.0,0.0,0.0,0.0,0.0,
2.8921409999999996,0.0,0.0,69349.0,0.125,877.5,840.0000000000001,0.0,0.25,0.745849533,4.8310027513619955,-0.008544920999999484,-65978.0,0.625,-810.0,-840.0000000000001,0.0,0.25,0.44677729800000004,4.861874735719681,0.0,62606.0,11.125,922.5,840.0000000000001,0.0,0.125,3.2751461490000002,4.838984470342001,-0.004882811999999959,-42139.0,1.25,-787.5,-840.0000000000001,0.0,0.25,1.5527342160000002,4.856223181109958,-0.009765623999999917,0.3400000035762787,-0.3100000023841858,104.30000305175781,-0.0115966796875,0.04156494140625,1.14453125,35.7400016784668,0.0,34.0,-3.69757080078125,-1.1874542236328125,Waiting,0.0,0.0,-189.0,0.0,0.0,0.0,0.0,0.0,
2.910917999999998,0.0,0.0,69349.0,0.125,877.5,840.0,0.0,0.25,0.7495116420000001,4.8304548154577684,-0.008544920999999484,-65978.0,0.625,-817.5,-840.0,0.0,0.25,0.44799800100000003,4.86132329829216,0.0,62606.0,10.125,945.0,840.0,0.0,0.125,3.2666012280000003,4.838435629145304,-0.01586913900000031,-42139.0,1.0,-817.5,-840.0,0.0,0.25,1.5539549190000002,4.85567238468594,-0.009765623999999917,0.3100000023841858,-0.27000001072883606,104.20999908447266,0.05438232421875,0.04949951171875,0.96148681640625,35.7400016784668,0.0,28.0,-3.6976165771484375,-1.18695068359375,Waiting,0.0,0.0,-189.0,0.0,0.0,0.0,0.0,0.0,
2.9495339999999994,0.0,0.0,69349.0,0.125,877.5,840.0,0.0,0.25,0.7385253150000001,4.828673657920944,-0.004882811999999959,-65978.0,0.625,-832.5,-840.0,0.0,0.25,0.444335892,4.859530758466721,0.0012207029999995456,62758.0,9.875,952.5,840.0,0.0,0.125,3.2666012280000003,4.8366515288035075,-0.01586913900000031,-42272.0,1.0,-832.5,-840.0,0.0,0.25,1.5515135130000002,4.853881928549873,-0.009765623999999917,0.3400000035762787,-0.3400000035762787,104.12000274658203,-0.11346435546875,-0.02484130859375,1.0345458984375,35.7400016784668,0.0,-3.0,-3.697601318359375,-1.186767578125,Waiting,0.0,0.0,-189.0,0.0,0.0,0.0,0.0,0.0,
2.9680329999999993,0.0,0.0,69349.0,0.125,877.5,840.0,0.0,0.25,0.745849533,4.827988685776647,-0.004882811999999959,-66113.0,0.625,-840.0,-840.0,0.0,0.25,0.44189448600000003,4.85884140908432,0.0012207029999995456,62758.0,9.625,952.5,840.0,0.0,0.125,3.2641598220000003,4.835965424957275,-0.01586913900000031,-42272.0,1.0,-832.5,-840.0,0.0,0.25,1.5551756220000001,4.853193380482992,0.0,0.3700000047683716,-0.3400000035762787,104.08999633789062,-0.11163330078125,0.02178955078125,1.26080322265625,35.7400016784668,0.0,38.0,-3.69757080078125,-1.1865386962890625,Waiting,0.0,0.0,-189.0,0.0,0.0,0.0,0.0,0.0,
2.991191999999999,0.0,0.0,69487.0,0.125,870.0,839.9999999999999,0.0,0.25,0.74462883,4.82757757705644,-0.004882812000000847,-66113.0,0.625,-840.0,-839.9999999999999,0.0,0.25,0.45166011,4.858427673219681,-0.006103514999999504,62758.0,9.5,945.0,839.9999999999999,0.0,0.125,3.2617184160000003,4.835553637008667,-0.009765623999999917,-42272.0,1.0,-832.5,-839.9999999999999,0.0,0.25,1.549072107,4.8527801255544025,0.0,0.3100000023841858,-0.28999999165534973,103.98999786376953,-0.02099609375,0.01324462890625,0.81304931640625,35.709999084472656,0.0,12.0,-3.6975860595703125,-1.1862335205078125,Waiting,0.0,0.0,-189.0,0.0,0.0,0.0,0.0,0.0,
3.010291000000001,0.0,0.0,69487.0,0.125,862.5,840.0,0.0,0.25,0.745849533,4.825522556095526,-0.004882812000000847,-66113.0,0.625,-840.0,-840.0,0.0,0.25,0.44189448600000003,4.85635951987648,-0.006103514999999504,62758.0,9.5,945.0,840.0,0.0,0.125,3.2604977130000004,4.8334952207692465,-0.009765623999999917,-42272.0,1.0,-832.5,-840.0,0.0,0.25,1.560058434,4.850714376280043,0.0,0.3799999952316284,-0.3700000047683716,103.9000015258789,-0.00274658203125,0.054931640625,1.23077392578125,35.709999084472656,0.0,44.0,-3.697540283203125,-1.1862335205078125,Waiting,0.0,0.0,-189.0,0.0,0.0,0.0,0.0,0.0,
3.0453349999999992,0.0,0.0,69487.0,0.125,862.5,840.0,0.0,0.25,0.745849533,4.824289438990953,0.0,-66113.0,0.625,-840.0,-840.0,0.0,0.25,0.44189448600000003,4.855118522674561,0.0,62758.0,9.5,937.5,840.0,0.0,0.125,3.2617184160000003,4.83226006632487,-0.0024414059999999793,-42272.0,1.25,-817.5,-840.0,0.0,0.25,1.5527342160000002,4.84947482164171,0.0,0.3400000035762787,-0.30000001192092896,103.81999969482422,0.039306640625,0.06488037109375,0.85198974609375,35.709999084472656,0.0,47.0,-3.69744873046875,-1.1864013671875,Waiting,0.0,0.0,-189.0,0.0,0.0,0.0,0.0,0.0,
3.067006000000001,0.0,0.0,69487.0,0.125,862.5,840.0,0.0,0.25,0.7507323450000001,4.823878434798771,0.0,-66113.0,0.625,-840.0,-840.0,0.0,0.25,0.44189448600000003,4.854704892005921,0.0,62758.0,9.5,930.0,840.0,0.0,0.125,3.2666012280000003,4.831848383076986,0.0,-42404.0,1.0,-810.0,-840.0,0.0,0.25,1.5539549190000002,4.8490616717868384,0.0,0.4000000059604645,-0.33000001311302185,103.7300033569336,-0.09210205078125,0.00213623046875,1.14837646484375,35.709999084472656,0.0,14.0,-3.6972198486328125,-1.1868133544921875,Waiting,0.0,0.0,-189.0,0.0,0.0,0.0,0.0,0.0,
3.0994939999999986,0.0,0.0,69487.0,0.125,862.5,840.0,0.0,0.25,0.74462883,4.822645422222222,0.0,-66247.0,0.625,-832.5,-840.0,0.0,0.25,0.44189448600000003,4.853464,0.0012207029999995456,62906.0,9.375,922.5,840.0,0.0,0.125,3.2629391190000003,4.830613333333334,0.0,-42404.0,1.0,-810.0,-840.0,0.0,0.25,1.5527342160000002,4.847822222222222,0.0,0.3700000047683716,-0.33000001311302185,103.69000244140625,-0.0106201171875,-0.027099609375,1.0411376953125,35.709999084472656,0.0,-31.0,-3.6970977783203125,-1.18695068359375,Waiting,0.0,0.0,-189.0,0.0,0.0,0.0,0.0,0.0,
3.1124890000000014,0.0,0.0,69625.0,0.125,862.5,0.0,0.0,0.25,0.745849533,0.01,0.0,-66247.0,0.625,-832.5,-0.0,0.0,0.25,0.44189448600000003,0.01,-0.0012207029999995456,62906.0,6.625,900.0,0.0,0.0,0.125,3.2666012280000003,0.01,0.0012207030000004337,-42404.0,0.625,-817.5,-0.0,0.0,0.25,1.5527342160000002,0.01,0.0,0.4000000059604645,-0.3100000023841858,103.5999984741211,-0.0889892578125,-0.01611328125,1.00616455078125,35.709999084472656,0.0,-2.0,-3.6966705322265625,-1.1873016357421875,Waiting,0.0,0.0,-189.0,0.0,0.0,0.0,0.0,0.0,
3.1559229999999987,0.0,0.0,69625.0,0.375,847.5,0.0,0.0,0.25,0.74462883,0.01,-0.0012207029999995456,-66247.0,0.375,-810.0,-0.0,0.0,0.25,0.44189448600000003,0.01,-0.0012207029999995456,62906.0,4.375,892.5,0.0,0.0,0.0,3.2714840400000003,0.01,0.0012207030000004337,-42404.0,0.375,-810.0,-0.0,0.0,0.25,1.5527342160000002,0.01,0.0,0.3799999952316284,-0.4000000059604645,103.56999969482422,-0.11358642578125,-0.081787109375,1.1531982421875,35.709999084472656,0.0,-62.0,-3.6964569091796875,-1.1873321533203125,Waiting,0.0,0.0,-189.0,0.0,0.0,0.0,0.0,0.0,
3.1816949999999995,0.0,0.0,69625.0,0.625,832.5,0.0,0.0,0.25,0.745849533,0.01,0.0024414059999999793,-66247.0,0.25,-735.0,-0.0,0.0,0.25,0.44677729800000004,0.01,0.004882811999999959,62906.0,1.875,870.0,0.0,0.0,0.125,3.284911773,0.01,0.010986326999999463,-42522.0,0.125,-795.0,-0.0,0.0,0.25,1.5539549190000002,0.01,0.0,0.3799999952316284,-0.5600000023841858,103.5199966430664,-0.467041015625,0.03778076171875,0.9373779296875,35.709999084472656,0.0,137.0,-3.695892333984375,-1.186370849609375,Waiting,0.0,0.0,-189.0,0.0,0.0,0.0,0.0,0.0,
3.2045770000000013,0.0,0.0,69625.0,1.0,802.5,0.0,0.0,0.25,0.754394454,0.01,0.0024414059999999793,-66346.0,0.375,-652.5,-0.0,0.0,0.25,0.45166011,0.01,0.004882811999999959,63033.0,0.875,832.5,0.0,0.0,0.125,3.2958981,0.01,0.010986326999999463,-42522.0,0.0,-765.0,-0.0,0.0,0.25,1.5576170280000001,0.01,0.0,0.36000001430511475,-0.9900000095367432,103.41000366210938,-0.1513671875,0.14202880859375,0.87451171875,35.709999084472656,0.0,164.0,-3.69482421875,-1.18408203125,Waiting,0.0,0.0,-189.0,0.0,0.0,0.0,0.0,0.0,
3.2257049999999983,0.0,0.0,69739.0,1.375,742.5,0.0,0.0,0.25,0.770263593,0.01,0.008544921000000372,-66346.0,0.375,-577.5,-0.0,0.0,0.25,0.46142573400000003,0.01,0.009765623999999917,63033.0,0.75,735.0,0.0,0.0,0.0,3.3105465360000004,0.01,0.024414059999999793,-42522.0,0.25,-690.0,-0.0,0.0,0.25,1.56249984,0.01,0.004882811999999959,0.41999998688697815,-1.25,103.31999969482422,-0.210205078125,0.13671875,1.16009521484375,35.709999084472656,0.0,167.0,-3.693023681640625,-1.181182861328125,Waiting,0.0,0.0,-189.0,0.0,0.0,0.0,0.0,0.0,
3.251963,0.0,0.0,69739.0,1.5,705.0,0.0,0.0,0.25,0.78124992,0.01,0.008544921000000372,-66346.0,0.375,-517.5,-0.0,0.0,0.25,0.456542922,0.01,0.009765623999999917,63033.0,0.75,682.5,0.0,0.0,0.0,3.3239742690000003,0.01,0.024414059999999793,-42522.0,0.25,-607.5,-0.0,0.0,0.25,1.572265464,0.01,0.008544920999999484,0.5199999809265137,-1.5700000524520874,103.22000122070312,-0.145751953125,0.08123779296875,0.75177001953125,35.709999084472656,0.0,100.0,-3.688720703125,-1.1751556396484375,Waiting,0.0,0.0,-189.0,0.0,0.0,0.0,0.0,0.0,
3.2918240000000005,0.0,0.0,69739.0,1.75,607.5,0.0,0.0,0.25,0.794677653,0.01,0.0183105449999994,-66346.0,0.5,-517.5,-0.0,0.0,0.25,0.46142573400000003,0.01,0.004882811999999959,63033.0,0.75,622.5,0.0,0.0,0.0,3.328857081,0.01,0.01342773300000033,-42522.0,0.25,-562.5,-0.0,0.0,0.25,1.5783689790000002,0.01,0.008544920999999484,0.5799999833106995,-1.7899999618530273,103.19999694824219,-0.2496337890625,0.0540771484375,1.0950927734375,35.709999084472656,0.0,90.0,-3.6870269775390625,-1.17279052734375,Waiting,0.0,0.0,-189.0,0.0,0.0,0.0,0.0,0.0,
3.310221000000001,0.0,0.0,69739.0,1.75,607.5,0.0,0.0,0.25,0.799560465,0.01,0.0183105449999994,-66346.0,0.75,-525.0,-0.0,0.0,0.25,0.457763625,0.01,0.004882811999999959,63115.0,0.75,577.5,0.0,0.0,0.0,3.338622705,0.01,0.01342773300000033,-42600.0,0.25,-517.5,-0.0,0.0,0.25,1.594238118,0.01,0.010986327000000351,0.5899999737739563,-1.9600000381469727,103.16999816894531,-0.1644287109375,-0.01177978515625,0.98236083984375,35.709999084472656,0.0,8.0,-3.68341064453125,-1.16729736328125,Waiting,0.0,0.0,-189.0,0.0,0.0,0.0,0.0,0.0,
3.354643,0.0,0.0,69806.0,1.75,442.5,0.0,0.0,0.125,0.812988198,0.01,0.028076169000000206,-66420.0,1.0,-442.5,-0.0,0.0,0.25,0.46020503100000004,0.01,0.0,63115.0,1.125,480.0,0.0,0.0,0.0,3.338622705,0.01,0.01586913900000031,-42600.0,0.25,-420.0,-0.0,0.0,0.25,1.596679524,0.01,0.010986327000000351,0.6200000047683716,-2.190000057220459,103.12000274658203,-0.24395751953125,-0.01605224609375,1.0054931640625,35.709999084472656,0.0,20.0,-3.67962646484375,-1.1610107421875,Waiting,0.0,0.0,-189.0,0.0,0.0,0.0,0.0,0.0,
3.373620999999999,0.0,0.0,69806.0,1.75,390.0,0.0,0.0,0.125,0.8056639800000001,0.01,0.010986327000000351,-66420.0,1.125,-345.0,-0.0,0.0,0.25,0.46020503100000004,0.01,0.0012207029999995456,63115.0,1.125,390.0,0.0,0.0,0.0,3.339843408,0.01,0.009765623999999917,-42600.0,0.25,-322.5,-0.0,0.0,0.25,1.6101072570000001,0.01,0.01831054500000029,0.6299999952316284,-2.490000009536743,103.08000183105469,-0.2320556640625,-0.03375244140625,0.98040771484375,35.709999084472656,0.0,0.0,-3.6737213134765625,-1.149566650390625,Waiting,0.0,0.0,-189.0,0.0,0.0,0.0,0.0,0.0,
3.427435999999998,0.0,0.0,69806.0,1.5,292.5,0.0,0.0,0.125,0.812988198,0.01,-0.0012207030000004337,-66420.0,0.875,-247.5,-0.0,0.0,0.25,0.46142573400000003,0.01,0.0,63150.0,1.375,285.0,0.0,0.0,0.0,3.339843408,0.01,-0.0012207030000004337,-42634.0,0.25,-270.0,-0.0,0.0,0.25,1.6064451480000002,0.01,0.014648435999999876,0.6399999856948853,-2.7300000190734863,103.08000183105469,-0.173095703125,0.01605224609375,1.07208251953125,35.709999084472656,0.0,31.0,-3.669586181640625,-1.140716552734375,Waiting,0.0,0.0,-189.0,0.0,0.0,0.0,0.0,0.0,
3.4572890000000007,0.0,0.0,69806.0,1.25,195.0,0.0,0.0,0.125,0.812988198,0.01,-0.0012207030000004337,-66451.0,0.75,-202.5,-0.0,0.0,0.25,0.46142573400000003,0.01,0.0,63150.0,1.5,232.5,0.0,0.0,0.0,3.338622705,0.01,-0.0012207030000004337,-42634.0,0.25,-172.5,-0.0,0.0,0.25,1.6113279600000001,0.01,0.014648435999999876,0.6399999856948853,-2.880000114440918,103.08000183105469,-0.15972900390625,0.05169677734375,0.9296875,35.709999084472656,0.0,65.0,-3.6652069091796875,-1.1312255859375,Waiting,0.0,0.0,-189.0,0.0,0.0,0.0,0.0,0.0,
3.4912829999999992,0.0,0.0,69827.0,1.25,142.5,0.0,0.0,0.125,0.811767495,0.01,0.0012207030000004337,-66451.0,0.5,-127.5,-0.0,0.0,0.25,0.46142573400000003,0.01,-0.0012207029999995456,63150.0,1.75,127.5,0.0,0.0,0.0,3.338622705,0.01,0.0012207030000004337,-42634.0,0.125,-127.5,-0.0,0.0,0.25,1.6113279600000001,0.01,-0.004882811999999959,0.6399999856948853,-3.0199999809265137,103.0999984741211,-0.1217041015625,0.02288818359375,1.0718994140625,35.709999084472656,0.0,25.0,-3.6605377197265625,-1.121307373046875,Waiting,0.0,0.0,-189.0,0.0,0.0,0.0,0.0,0.0,
3.5100679999999995,0.0,0.0,69827.0,1.0,105.0,0.0,0.0,0.125,0.811767495,0.01,0.0012207030000004337,-66451.0,0.5,-127.5,-0.0,0.0,0.25,0.46142573400000003,0.01,-0.0012207029999995456,63150.0,2.0,52.5,0.0,0.0,0.0,3.338622705,0.01,0.0,-42634.0,0.125,-52.5,-0.0,0.0,0.25,1.6113279600000001,0.01,0.004882811999999959,0.6200000047683716,-3.0299999713897705,103.08999633789062,0.0028076171875,-0.00506591796875,0.95703125,35.650001525878906,0.0,-27.0,-3.65325927734375,-1.1162872314453125,Waiting,0.0,0.0,-189.0,0.0,0.0,0.0,0.0,0.0,
3.5505200000000006,0.0,0.0,69827.0,0.625,37.5,0.0,0.0,0.125,0.811767495,0.01,0.0,-66451.0,0.25,-52.5,-0.0,0.0,0.25,0.46630854600000005,0.01,0.0,63150.0,2.375,52.5,0.0,0.0,0.0,3.338622705,0.01,0.0,-42636.0,0.125,-22.5,-0.0,0.0,0.25,1.6113279600000001,0.01,0.004882811999999959,0.6299999952316284,-3.0299999713897705,103.08999633789062,0.01666259765625,0.0343017578125,1.103271484375,35.650001525878906,0.0,4.0,-3.650848388671875,-1.1164093017578125,Waiting,0.0,0.0,-189.0,0.0,0.0,0.0,0.0,0.0,
3.568008999999998,0.0,0.0,69827.0,0.375,15.0,0.0,0.0,0.125,0.812988198,0.01,0.0,-66454.0,0.25,-30.0,-0.0,0.0,0.25,0.46630854600000005,0.01,0.0,63152.0,2.75,30.0,0.0,0.0,0.0,3.339843408,0.01,0.0,-42636.0,0.125,-7.5,-0.0,0.0,0.25,1.6113279600000001,0.01,0.004882811999999959,0.6399999856948853,-3.0,103.08999633789062,0.00799560546875,-0.00341796875,1.08026123046875,35.650001525878906,0.0,-29.0,-3.6484375,-1.11663818359375,Waiting,0.0,0.0,-189.0,0.0,0.0,0.0,0.0,0.0,
3.60693,0.0,0.0,69825.0,0.375,-15.0,0.0,0.0,0.125,0.812988198,0.01,0.0,-66454.0,0.125,0.0,-0.0,0.0,0.25,0.471191358,0.01,0.004882811999999959,63152.0,3.0,0.0,0.0,0.0,0.0,3.338622705,0.01,0.0,-42636.0,0.125,0.0,-0.0,0.0,0.25,1.6113279600000001,0.01,0.0,0.6200000047683716,-2.859999895095825,103.08999633789062,0.00537109375,-0.04315185546875,0.95269775390625,35.650001525878906,0.0,-64.0,-3.643798828125,-1.1176910400390625,Waiting,0.0,0.0,-189.0,0.0,0.0,0.0,0.0,0.0,
3.6328509999999987,0.0,0.0,69825.0,0.375,-22.5,0.0,0.0,0.125,0.812988198,0.01,0.0012207029999995456,-66454.0,0.125,0.0,-0.0,0.0,0.25,0.47607417,0.01,0.009765623999999917,63152.0,3.25,0.0,0.0,0.0,0.0,3.338622705,0.01,0.0,-42636.0,0.125,0.0,-0.0,0.0,0.25,1.6113279600000001,0.01,0.0,0.5899999737739563,-2.7799999713897705,103.0999984741211,-0.01788330078125,-0.0517578125,1.08209228515625,35.650001525878906,0.0,-69.0,-3.63946533203125,-1.1181488037109375,Waiting,0.0,0.0,-189.0,0.0,0.0,0.0,0.0,0.0,
3.6510740000000004,0.0,0.0,69825.0,0.375,-22.5,420.0,0.0,0.125,0.811767495,0.5498168668524888,0.0012207029999995456,-66454.0,0.125,0.0,-420.0,0.0,0.25,0.47607417,1.9285545897722227,0.009765623999999917,63152.0,3.25,0.0,420.0,0.0,0.0,3.339843408,4.389674732977289,0.0,-42636.0,0.125,0.0,-420.0,0.0,0.25,1.6113279600000001,3.0316872062785585,0.0,0.5799999833106995,-2.7200000286102295,103.08999633789062,0.00616455078125,-0.0308837890625,1.03509521484375,35.650001525878906,0.0,-52.0,-3.637420654296875,-1.11865234375,Waiting,0.0,0.0,-189.0,0.0,0.0,0.0,0.0,0.0,
3.669308000000001,0.0,0.0,69825.0,0.125,-22.5,420.0,0.0,0.25,0.812988198,0.5498168668524888,0.0012207029999995456,-66454.0,0.125,0.0,-420.0,0.0,0.25,0.47607417,1.9285545897722227,0.0,63152.0,5.25,0.0,420.0,0.0,0.0,3.337402002,4.389674732977289,0.0,-42636.0,0.375,0.0,-420.0,0.0,0.25,1.6101072570000001,3.0316872062785585,0.0,0.5600000023841858,-2.6600000858306885,103.08999633789062,0.00653076171875,0.03167724609375,0.99908447265625,35.650001525878906,0.0,9.0,-3.63543701171875,-1.119903564453125,Waiting,0.0,0.0,-189.0,0.0,0.0,0.0,0.0,0.0,
3.7065960000000016,0.0,0.0,69828.0,0.125,-7.5,420.0,0.0,1.625,0.8544921000000001,0.5498168668524888,-0.0012207029999995456,-66456.0,0.25,-15.0,-420.0,0.0,5.25,0.572509707,1.9285545897722227,0.0,63152.0,6.625,0.0,420.0,0.0,0.625,3.299560209,4.389674732977289,0.0,-42636.0,0.625,0.0,-420.0,0.0,6.375,1.5295408590000001,3.0316872062785585,0.0,0.5799999833106995,-2.5999999046325684,103.0999984741211,0.025146484375,0.05419921875,1.010009765625,35.650001525878906,0.0,26.0,-3.63531494140625,-1.121551513671875,Waiting,0.0,0.0,-189.0,0.0,0.0,0.0,0.0,0.0,
3.7254120000000004,0.0,0.0,69828.0,0.125,0.0,420.0,0.0,2.0,0.9326170920000001,0.5498168668524888,-4.851684602,-66456.0,0.25,-45.0,-420.0,0.0,8.25,0.717773364,1.9285545897722227,0.15380857799999959,63152.0,7.875,0.0,420.0,0.0,1.5,3.237304356,4.389674732977289,-0.05859374400000039,-42636.0,0.75,0.0,-420.0,0.0,6.875,1.352538924,3.0316872062785585,-0.104980458,0.5799999833106995,-2.5399999618530273,103.08999633789062,0.0374755859375,0.03668212890625,0.98309326171875,35.650001525878906,0.0,7.0,-3.635040283203125,-1.123626708984375,Waiting,0.0,0.0,-189.0,0.0,0.0,0.0,0.0,0.0,
3.7460509999999996,0.0,0.0,69828.0,0.125,15.0,420.0,0.0,2.0,1.0046385690000001,0.5498168668524888,-4.851684602,-66456.0,0.25,-90.0,-420.0,0.0,8.375,0.849609288,1.9285545897722227,0.15380857799999959,63152.0,8.5,7.5,420.0,0.0,1.625,3.1640621760000003,4.389674732977289,-0.05859374400000039,-42636.0,1.0,0.0,-420.0,0.0,4.25,1.210937376,3.0316872062785585,-0.104980458,0.5600000023841858,-2.490000009536743,103.0999984741211,-0.043701171875,0.0244140625,0.99365234375,35.650001525878906,0.0,14.0,-3.6348724365234375,-1.124786376953125,Waiting,0.0,0.0,-189.0,0.0,0.0,0.0,0.0,0.0,
3.7655829999999986,0.0,0.0,69828.0,0.125,22.5,420.0,0.0,0.875,1.070556531,0.5498168668524888,-4.851684602,-66456.0,0.25,-142.5,-420.0,0.0,4.5,0.9887694300000001,1.9285545897722227,0.15380857799999959,63152.0,9.0,22.5,420.0,0.0,1.25,3.089599293,4.389674732977289,-0.05859374400000039,-42636.0,1.0,-7.5,-420.0,0.0,4.25,1.115722542,3.0316872062785585,-0.104980458,0.5400000214576721,-2.4200000762939453,103.0999984741211,-0.00457763671875,-0.03485107421875,0.97821044921875,35.650001525878906,0.0,-51.0,-3.634735107421875,-1.1259613037109375,Waiting,0.0,0.0,-189.0,0.0,0.0,0.0,0.0,0.0,
3.7931939999999993,0.0,0.0,69828.0,0.125,30.0,420.0,0.0,0.625,1.18408191,0.5498168668524888,0.15014646899999995,-66493.0,0.25,-225.0,-420.0,0.0,1.5,1.300048695,1.9285545897722227,0.40649409900000055,63166.0,9.625,67.5,420.0,0.0,0.25,2.9553219630000003,4.389674732977289,-0.209960916,-42647.0,1.0,-52.5,-420.0,0.0,1.5,0.799560465,3.0316872062785585,-0.31005856200000004,0.5600000023841858,-2.240000009536743,103.12999725341797,0.08642578125,0.0189208984375,1.053466796875,35.650001525878906,0.0,-20.0,-3.634857177734375,-1.1299896240234375,Waiting,0.0,0.0,-189.0,0.0,0.0,0.0,0.0,0.0,
3.824668999999998,0.0,0.0,69828.0,0.0,30.0,420.0,0.0,0.5,1.230468624,0.5498168668524888,0.1708984200000001,-66493.0,0.25,-225.0,-420.0,0.0,1.25,1.437988134,1.9285545897722227,0.40649409900000055,63166.0,9.75,97.5,420.0,0.0,0.25,2.913818061,4.389674732977289,-0.1269531119999998,-42647.0,1.25,-75.0,-420.0,0.0,1.5,0.6726073530000001,3.0316872062785585,-0.419921832,0.550000011920929,-2.1700000762939453,103.12999725341797,0.07061767578125,0.0352783203125,1.03448486328125,35.650001525878906,0.0,0.0,-3.6349639892578125,-1.131622314453125,Waiting,0.0,0.0,-189.0,0.0,0.0,0.0,0.0,0.0,
3.845874,0.0,0.0,69835.0,0.125,37.5,420.0,0.0,0.5,1.2658690110000002,0.5498168668524888,0.1708984200000001,-66493.0,0.25,-232.5,-420.0,0.0,1.25,1.5783689790000002,1.9285545897722227,0.3210448890000004,63166.0,9.25,112.5,420.0,0.0,0.125,2.863769238,4.389674732977289,-0.1269531119999998,-42647.0,1.375,-120.0,-420.0,0.0,1.75,0.38818355400000004,3.0316872062785585,-0.419921832,0.5600000023841858,-2.0999999046325684,102.94000244140625,-0.02374267578125,0.01654052734375,1.01318359375,35.650001525878906,0.0,3.0,-3.6350250244140625,-1.1369781494140625,Waiting,0.0,0.0,-189.0,0.0,0.0,0.0,0.0,0.0,
3.888054,0.0,0.0,69835.0,0.125,75.0,420.0,0.0,0.375,1.309814319,0.5498168668524888,0.04516601099999984,-66493.0,0.25,-195.0,-420.0,0.0,1.5,1.8920896500000002,1.9285545897722227,0.1513671719999996,63166.0,9.25,157.5,420.0,0.0,0.125,2.8393551780000004,4.389674732977289,-0.0402831990000001,-42647.0,1.75,-127.5,-420.0,0.0,1.75,0.238037085,3.0316872062785585,-0.1452636570000001,0.550000011920929,-2.0799999237060547,102.80000305175781,0.017822265625,0.0625,1.05126953125,35.650001525878906,0.0,38.0,-3.635040283203125,-1.1388702392578125,Waiting,0.0,0.0,-189.0,0.0,0.0,0.0,0.0,0.0,
3.9050609999999977,0.0,0.0,69835.0,0.125,97.5,420.0,0.0,0.375,1.311035022,0.5498168668524888,0.04516601099999984,-66493.0,0.5,-172.5,-420.0,0.0,1.5,2.0153806530000002,1.9285545897722227,0.1513671719999996,63166.0,9.25,157.5,420.0,0.0,0.125,2.823486039,4.389674732977289,-0.0402831990000001,-42663.0,2.0,-120.0,-420.0,0.0,1.875,0.131835924,3.0316872062785585,-0.1452636570000001,0.5699999928474426,-2.0399999618530273,102.63999938964844,-0.00604248046875,0.00531005859375,1.0140380859375,35.650001525878906,0.0,-11.0,-3.6350250244140625,-1.140838623046875,Waiting,0.0,0.0,-189.0,0.0,0.0,0.0,0.0,0.0,
3.946365999999998,0.0,0.0,69866.0,0.125,157.5,420.0,0.0,0.375,1.329345567,0.5498168668524888,0.05615233799999997,-66520.0,1.0,-165.0,-420.0,0.0,1.25,2.3217771060000003,1.9285545897722227,0.6396483719999999,63199.0,9.375,202.5,420.0,0.0,0.0,2.775878622,4.389674732977289,-0.0927734280000001,-42663.0,2.125,-90.0,-420.0,0.0,1.875,4.790038572,3.0316872062785585,-0.4113769110000005,0.5799999833106995,-1.9500000476837158,101.95999908447266,0.013916015625,0.01397705078125,1.0489501953125,35.650001525878906,0.0,-7.0,-3.6353302001953125,-1.1428375244140625,Waiting,0.0,0.0,-189.0,0.0,0.0,0.0,0.0,0.0,
3.9648790000000007,0.0,0.0,69866.0,0.125,187.5,420.0,0.0,0.375,1.329345567,0.5498168668524888,0.05615233799999997,-66520.0,1.125,-172.5,-420.0,0.0,0.75,2.409667722,1.9285545897722227,0.6396483719999999,63199.0,8.875,232.5,420.0,0.0,0.0,2.761230186,4.389674732977289,-0.0927734280000001,-42663.0,2.25,-82.5,-420.0,0.0,1.375,4.697265144,3.0316872062785585,-0.4113769110000005,0.5600000023841858,-1.9299999475479126,101.69000244140625,-0.02288818359375,-0.04327392578125,1.01739501953125,35.650001525878906,0.0,-54.0,-3.635528564453125,-1.1428985595703125,Waiting,0.0,0.0,-189.0,0.0,0.0,0.0,0.0,0.0,
