Time,ClimberA1,ClimberA2,FRpos,FRCurrent,FRspeed,FRsetpoint,FRApos,FRACurrent,FREncpos,FREncSetpoint,FREncSpeed,FLpos,FLCurrent,FLspeed,FLsetpoint,FLApos,FLACurrent,FLEncpos,FLEncSetpoint,FLEncSpeed,BRpos,BRCurrent,BRspeed,BRsetpoint,BRApos,BRACurrent,BREncpos,BREncSetpoint,BREncSpeed,BLpos,BLCurrent,BLspeed,BLsetpoint,BLApos,BLACurrent,BLEncpos,BLEncSetpoint,BLEncSpeed,navx_Pitch,navx_Roll,navx_Yaw,navx_XAcc,navx_YAcc,navx_ZAcc,navx_Temp,navx_Bar,navx_Alt,navx_XDis,navx_YDis,GearPlacerState,ShootOutputV,ShootOutputCurrent,ShootEncPos,ShootEncVelocity,ShootSpeed,ShootSetpoint,CarouselSetpoint,CarouselCurrent,
0.19416600000002654,0.0,0.0,70215.0,0.0,0.0,0.0,0.0,0.25,0.837402258,0.01,0.0,-79274.0,0.125,0.0,0.0,0.0,0.125,0.496826121,0.01,0.0,62967.0,0.0,0.0,0.0,0.0,0.0,3.33251919,0.01,0.0,-54899.0,0.125,0.0,0.0,0.0,0.125,1.639404129,0.01,0.0,0.07000000029802322,-0.949999988079071,105.73999786376953,-0.015869140625,0.001953125,1.01739501953125,36.16999816894531,0.0,0.0,-4.248687744140625,-0.431854248046875,Closing,0.0,0.0,-189.0,0.0,0.0,0.0,0.0,0.0,
0.32001900000002936,0.0,0.0,70223.0,3.0,225.0,840.0,0.0,0.25,0.8312987430000001,0.01,0.0,-79313.0,5.25,-210.0,-840.0,0.0,0.125,0.498046824,0.01,0.0,62972.0,5.0,22.5,840.0,0.0,0.0,3.33251919,0.01,0.0,-54925.0,2.75,-157.5,-840.0,0.0,0.125,1.640624832,0.01,0.0,0.15000000596046448,-0.38999998569488525,105.81999969482422,0.1285400390625,0.02899169921875,0.830810546875,36.16999816894531,0.0,-10.0,-4.2495880126953125,-0.434661865234375,Closing,0.0,0.0,-189.0,0.0,0.0,0.0,0.0,0.0,
0.4531830000000191,0.0,0.0,70262.0,5.0,300.0,840.0,0.0,0.25,0.8312987430000001,0.01,0.0,-79371.0,8.25,-322.5,-840.0,0.0,0.125,0.505371042,0.01,0.0,63004.0,7.625,157.5,840.0,0.0,0.0,3.331298487,0.01,0.0,-54975.0,4.125,-315.0,-840.0,0.0,0.125,1.697997873,0.01,0.0,0.25,0.46000000834465027,105.86000061035156,0.1351318359375,0.0140380859375,1.0660400390625,36.16999816894531,0.0,-25.0,-4.25140380859375,-0.4534912109375,Closing,0.0,0.0,-189.0,0.0,0.0,0.0,0.0,0.0,
0.5912130000000471,0.0,0.0,70322.0,4.625,517.5,840.0,0.0,0.25,0.8288573370000001,0.01,0.0,-79469.0,6.5,-600.0,-840.0,0.0,0.125,0.5017089330000001,0.01,0.0,63061.0,7.625,352.5,840.0,0.0,0.0,3.33251919,0.01,0.0,-55056.0,3.75,-540.0,-840.0,0.0,0.25,1.668701001,0.01,0.0,0.28999999165534973,1.0099999904632568,105.91999816894531,0.116943359375,0.009765625,1.0302734375,36.13999938964844,0.0,-22.0,-4.2538604736328125,-0.4770660400390625,Closing,0.0,0.0,-189.0,0.0,0.0,0.0,0.0,0.0,
0.7164340000000083,0.0,0.0,70547.0,2.875,772.5,840.0,0.0,0.125,0.8312987430000001,0.01,0.0,-79595.0,4.375,-780.0,-840.0,0.0,0.125,0.5029296360000001,0.01,0.0,63160.0,7.5,697.5,840.0,0.0,0.0,3.33251919,0.01,0.0,-55175.0,3.125,-742.5,-840.0,0.0,0.25,1.644286941,0.01,0.0,0.25999999046325684,1.4500000476837158,105.81999969482422,0.051513671875,0.09393310546875,1.11572265625,36.13999938964844,0.0,79.0,-4.25738525390625,-0.5164794921875,Closing,0.0,0.0,-189.0,0.0,0.0,0.0,0.0,0.0,
0.84875900000002,0.0,0.0,70690.0,2.25,877.5,840.0,0.0,0.125,0.8276366340000001,0.01,0.0,-79738.0,2.375,-907.5,-840.0,0.0,0.125,0.5029296360000001,0.01,0.0,63292.0,5.375,817.5,840.0,0.0,0.0,3.33251919,0.01,0.0,-55306.0,2.0,-885.0,-840.0,0.0,0.25,1.638183426,0.01,0.0,0.25,1.559999942779541,105.75,0.0413818359375,-0.05047607421875,0.611083984375,36.13999938964844,0.0,-57.0,-4.259185791015625,-0.5666961669921875,Closing,0.0,0.0,-189.0,0.0,0.0,0.0,0.0,0.0,
0.983783000000054,0.0,0.0,70844.0,1.125,945.0,840.0,0.0,0.25,0.847167882,0.01,0.0,-79887.0,1.375,-930.0,-840.0,0.0,0.125,0.5029296360000001,0.01,0.0,63428.0,5.125,855.0,840.0,0.0,0.0,3.33251919,0.01,0.0,-55454.0,1.375,-915.0,-840.0,0.0,0.25,1.645507644,0.01,0.0,0.1899999976158142,1.4500000476837158,105.5199966430664,-0.01751708984375,-0.01007080078125,0.8245849609375,36.13999938964844,0.0,-2.0,-4.2610321044921875,-0.6049041748046875,Closing,0.0,0.0,-189.0,0.0,0.0,0.0,0.0,0.0,
1.1038099999999977,0.0,0.0,70998.0,0.5,960.0,840.0,0.0,0.25,0.8410643670000001,4.929236829886627,0.0,-80037.0,0.875,-930.0,-840.0,0.0,0.0,0.5029296360000001,4.96073656816864,0.0,63577.0,3.875,937.5,840.0,0.0,0.0,3.331298487,4.937380849914551,0.0,-55601.0,1.25,-930.0,-840.0,0.0,0.25,1.644286941,4.954970094299316,0.0,0.3700000047683716,1.2999999523162842,105.20999908447266,0.033935546875,0.05401611328125,0.965087890625,36.11000061035156,0.0,42.0,-4.261871337890625,-0.6453704833984375,Closing,0.0,0.0,-189.0,0.0,0.0,0.0,0.0,0.0,
1.2449380000000239,0.0,0.0,71148.0,0.375,930.0,840.0,0.0,0.25,0.8410643670000001,4.924989647196706,0.0,-80186.0,0.75,-915.0,-840.0,0.0,0.0,0.5017089330000001,4.95646224433136,0.0,63727.0,3.625,930.0,840.0,0.0,0.0,3.333739893,4.933126650085449,0.0,-55749.0,1.0,-907.5,-840.0,0.0,0.25,1.645507644,4.9507007390340165,0.0,0.3199999928474426,0.9700000286102295,104.91999816894531,-0.025146484375,-0.07550048828125,1.3753662109375,36.11000061035156,0.0,-69.0,-4.259490966796875,-0.6826629638671875,Closing,0.0,0.0,-189.0,0.0,0.0,0.0,0.0,0.0,
1.3759760000000243,0.0,0.0,71298.0,0.375,915.0,840.0,0.0,0.25,0.849609288,4.921016432458899,0.0,-80331.0,0.625,-900.0,-840.0,0.0,0.0,0.496826121,4.95246363920784,0.0,63874.0,3.375,892.5,840.0,0.0,0.0,3.33251919,4.929146870854696,0.0,-55895.0,1.0,-862.5,-840.0,0.0,0.25,1.645507644,4.946706781980726,0.0,0.4000000059604645,0.6899999976158142,104.83999633789062,-0.0045166015625,-0.05792236328125,1.44757080078125,36.11000061035156,0.0,-60.0,-4.255767822265625,-0.715789794921875,Closing,0.0,0.0,-189.0,0.0,0.0,0.0,0.0,0.0,
1.5130360000000218,0.0,0.0,71441.0,0.375,892.5,840.0,0.0,0.25,0.8276366340000001,4.919920351594396,0.0,-80613.0,0.625,-870.0,-840.0,0.0,0.0,0.5017089330000001,4.9513605539608,0.0,64158.0,3.625,877.5,840.0,0.0,0.0,3.33251919,4.928048979059855,0.0,-56173.0,1.0,-885.0,-840.0,0.0,0.25,1.643066238,4.945604978985257,0.0,0.3400000035762787,0.550000011920929,104.62999725341797,-0.017578125,0.09100341796875,1.03460693359375,36.11000061035156,0.0,89.0,-4.2512054443359375,-0.7417449951171875,Closing,0.0,0.0,-189.0,0.0,0.0,0.0,0.0,0.0,
1.6546870000000344,0.0,0.0,71583.0,0.375,870.0,840.0,0.0,0.25,0.822753822,4.916769249768978,0.0,-80751.0,0.625,-862.5,-840.0,0.0,0.125,0.5029296360000001,4.94818931537056,0.0,64301.0,3.125,900.0,840.0,0.0,0.0,3.3264156750000002,4.924892671025594,0.0,-56310.0,1.0,-840.0,-840.0,0.0,0.25,1.643066238,4.9424374267154265,0.0,0.3799999952316284,0.4099999964237213,104.4800033569336,-0.08917236328125,-0.0220947265625,0.9091796875,36.09000015258789,0.0,-3.0,-4.2448272705078125,-0.7393646240234375,Closing,0.0,0.0,-189.0,0.0,0.0,0.0,0.0,0.0,
1.7780740000000224,0.0,0.0,71721.0,0.375,862.5,840.0,0.0,0.25,0.819091713,4.914988196760178,0.0,-80889.0,0.625,-862.5,-840.0,0.0,0.125,0.496826121,4.946396880741119,0.0,64443.0,3.125,877.5,840.0,0.0,0.0,3.3178707540000003,4.923108675384522,0.0,-56444.0,1.0,-832.5,-840.0,0.0,0.25,1.645507644,4.940647075653076,0.0,0.3199999928474426,0.25,104.31999969482422,0.01068115234375,-0.0201416015625,0.8438720703125,36.09000015258789,0.0,-25.0,-4.24462890625,-0.73406982421875,Closing,0.0,0.0,-189.0,0.0,0.0,0.0,0.0,0.0,
1.9212480000000214,0.0,0.0,71996.0,0.375,847.5,840.0000000000001,0.0,0.25,0.821533119,4.91279603503117,0.0,-81025.0,0.625,-840.0,-840.0000000000001,0.0,0.125,0.5029296360000001,4.94419071024704,0.0,64578.0,3.5,832.5,840.0000000000001,0.0,0.0,3.297118803,4.920912891794841,0.0,-56575.0,1.625,-787.5,-840.0000000000001,0.0,0.25,1.645507644,4.938443469662136,0.0,0.3400000035762787,-0.09000000357627869,104.06999969482422,-0.090576171875,0.014404296875,0.95904541015625,36.09000015258789,0.0,29.0,-4.2438812255859375,-0.7301025390625,Closing,0.0,0.0,-189.0,0.0,0.0,0.0,0.0,0.0,
2.0657970000000203,0.0,0.0,72129.0,0.375,825.0,840.0,0.0,0.25,0.852050694,4.909370860725615,0.0,-81157.0,1.0,-795.0,-840.0,0.0,0.125,0.498046824,4.9407436477470394,0.0,64711.0,3.5,825.0,840.0,0.0,0.0,3.302001615,4.917482058461507,0.0,-56700.0,2.0,-787.5,-840.0,0.0,0.25,1.6357420200000001,4.935000414106581,0.0,0.3499999940395355,-0.1599999964237213,103.7699966430664,-0.0352783203125,0.017333984375,0.87359619140625,36.09000015258789,0.0,19.0,-4.2435150146484375,-0.7239837646484375,Closing,0.0,0.0,-189.0,0.0,0.0,0.0,0.0,0.0,
2.20367300000001,0.0,0.0,72260.0,0.5,817.5,840.0,0.0,0.25,0.8178710100000001,4.904438601363373,0.0,-81284.0,1.375,-802.5,-840.0,0.0,0.125,0.498046824,4.93577986933136,0.0,64843.0,3.75,825.0,840.0,0.0,0.0,3.302001615,4.9125416500854495,0.0,-56826.0,2.25,-780.0,-840.0,0.0,0.25,1.6113279600000001,4.930042405700684,0.0,0.4000000059604645,-0.28999999165534973,103.29000091552734,-0.033447265625,0.076171875,1.23211669921875,36.040000915527344,0.0,71.0,-4.2436676025390625,-0.7152099609375,Closing,0.0,0.0,-189.0,0.0,0.0,0.0,0.0,0.0,
2.3249570000000532,0.0,0.0,72395.0,0.375,847.5,840.0,0.0,0.25,0.8178710100000001,4.897725288992331,0.0,-81412.0,1.75,-795.0,-840.0,0.0,0.25,0.498046824,4.9290236562862395,0.0,64976.0,3.625,840.0,840.0,0.0,0.0,3.303222318,4.9058172460683185,0.0,-56956.0,2.25,-825.0,-840.0,0.0,0.25,1.6064451480000002,4.923294046232435,0.0,0.3400000035762787,-0.17000000178813934,102.7300033569336,0.03863525390625,0.05322265625,0.55877685546875,36.040000915527344,0.0,39.0,-4.24407958984375,-0.7044677734375,Closing,0.0,0.0,-189.0,0.0,0.0,0.0,0.0,0.0,
2.476576000000001,0.0,0.0,72530.0,0.375,847.5,840.0,0.0,0.25,0.8166503070000001,4.8910119766212885,0.0,-81540.0,1.75,-810.0,-840.0,0.0,0.25,0.496826121,4.922267443241119,0.0,65114.0,3.125,877.5,840.0,0.0,0.0,3.302001615,4.899092842051188,0.0,-57214.0,2.25,-795.0,-840.0,0.0,0.25,1.6101072570000001,4.916545686764187,0.0,0.44999998807907104,-0.23000000417232513,102.2699966430664,0.04534912109375,-0.0084228515625,0.74359130859375,36.040000915527344,0.0,-24.0,-4.2428131103515625,-0.6962432861328125,Closing,0.0,0.0,-189.0,0.0,0.0,0.0,0.0,0.125,
2.6228120000000343,0.0,0.0,72669.0,0.375,855.0,840.0,0.0,0.25,0.808105386,4.883613587577926,0.0,-81806.0,1.5,-832.5,-840.0,0.0,0.25,0.49194330900000005,4.914821775617599,0.0,65394.0,3.0,870.0,840.0,0.0,0.0,3.302001615,4.891682229487102,0.0,-57348.0,2.5,-832.5,-840.0,0.0,0.25,1.600341633,4.909108674155341,0.0,0.5099999904632568,-0.27000001072883606,101.8499984741211,0.06219482421875,-0.01702880859375,1.1170654296875,36.040000915527344,0.0,-40.0,-4.24041748046875,-0.69378662109375,Closing,0.0,0.0,-189.0,0.0,0.0,0.0,0.0,0.0,
2.775162000000011,0.0,0.0,72912.0,0.125,645.0,0.0,0.0,0.25,0.79345695,0.01,0.0,-81905.0,0.25,-525.0,-0.0,0.0,0.125,0.49194330900000005,0.01,0.0,65522.0,0.25,652.5,0.0,0.0,0.0,3.341064111,0.01,0.0,-57451.0,0.125,-570.0,-0.0,0.0,0.25,1.5832517910000001,0.01,0.0,0.4300000071525574,-1.0199999809265137,101.37999725341797,-0.18292236328125,0.09820556640625,1.1475830078125,36.040000915527344,0.0,119.0,-4.2367095947265625,-0.6885833740234375,Closing,0.0,0.0,-189.0,0.0,0.0,0.0,0.0,0.125,
2.9183060000000407,0.0,0.0,72990.0,0.625,435.0,0.0,0.0,0.25,0.79345695,0.01,0.0,-81994.0,0.875,-457.5,-0.0,0.0,0.125,0.48706049700000004,0.01,0.0,65596.0,0.125,420.0,0.0,0.0,0.0,3.355712547,0.01,0.0,-57543.0,0.125,-442.5,-0.0,0.0,0.25,1.6113279600000001,0.01,0.0,0.5199999809265137,-2.109999895095825,101.33000183105469,-0.18408203125,-0.03094482421875,0.91558837890625,36.040000915527344,0.0,-9.0,-4.2240447998046875,-0.6605377197265625,Closing,0.0,0.0,-189.0,0.0,0.0,0.0,0.0,0.0,
3.0591390000000245,0.0,0.0,73026.0,0.125,120.0,0.0,0.0,0.25,0.7897948410000001,0.01,0.0,-82041.0,0.5,-142.5,-0.0,0.0,0.25,0.4882812,0.01,0.0,65645.0,0.125,150.0,0.0,0.0,0.0,3.355712547,0.01,0.0,-57595.0,0.25,-112.5,-0.0,0.0,0.125,1.6296385050000002,0.01,0.0,0.47999998927116394,-2.9800000190734863,101.29000091552734,-0.14324951171875,0.0133056640625,1.0792236328125,36.040000915527344,0.0,21.0,-4.2191162109375,-0.616363525390625,Closing,0.0,0.0,-189.0,0.0,0.0,0.0,0.0,0.0,
3.2017730000000446,0.0,0.0,73030.0,0.125,0.0,0.0,0.0,0.25,0.794677653,0.01,0.0,-82051.0,0.125,0.0,-0.0,0.0,0.25,0.4882812,0.01,0.0,65656.0,0.375,7.5,0.0,0.0,0.0,3.352050438,0.01,0.0,-57607.0,0.375,-7.5,-0.0,0.0,0.125,1.6308592080000002,0.01,0.0,0.47999998927116394,-2.9100000858306885,101.37999725341797,0.0069580078125,0.01239013671875,1.12225341796875,36.060001373291016,0.0,-9.0,-4.2186279296875,-0.5712738037109375,Closing,0.0,0.0,-189.0,0.0,0.0,0.0,0.0,0.0,
3.320991000000038,0.0,0.0,73030.0,0.125,0.0,0.0,0.0,0.25,0.794677653,0.01,0.0,-82051.0,0.0,0.0,-0.0,0.0,0.25,0.483398388,0.01,0.0,65658.0,0.375,7.5,0.0,0.0,0.0,3.355712547,0.01,0.0,-57607.0,0.375,0.0,-0.0,0.0,0.125,1.6296385050000002,0.01,0.0,0.44999998807907104,-2.5,101.38999938964844,0.00836181640625,0.01422119140625,1.0084228515625,36.060001373291016,0.0,-4.0,-4.2187957763671875,-0.516387939453125,Closing,0.0,0.0,-189.0,0.0,0.0,0.0,0.0,0.0,
3.483423999999999,0.0,0.0,73030.0,0.125,15.0,420.0,0.0,2.5,1.0571287980000001,0.5498168668524888,0.0,-82069.0,0.25,-82.5,-420.0,0.0,4.0,0.8679198330000001,1.9285545897722227,0.0,65665.0,1.75,30.0,420.0,0.0,1.0,3.078612966,4.389674732977289,0.0,-57608.0,1.375,0.0,-420.0,0.0,6.0,1.1389158990000001,3.0316872062785585,0.0,0.44999998807907104,-2.25,101.33999633789062,0.05364990234375,-0.01641845703125,0.94903564453125,36.060001373291016,0.0,-41.0,-4.219146728515625,-0.4813232421875,Closing,0.0,0.0,-189.0,0.0,0.0,0.0,0.0,0.0,
3.6201100000000443,0.0,0.0,73063.0,0.375,142.5,420.0,0.0,0.625,1.406249856,0.5498168668524888,0.0,-82095.0,0.75,-127.5,-420.0,0.0,1.5,1.9250486310000001,1.9285545897722227,0.0,65674.0,2.875,60.0,420.0,0.0,0.375,2.773437216,4.389674732977289,0.0,-57616.0,2.375,-52.5,-420.0,0.0,1.875,0.162353499,3.0316872062785585,0.0,0.4399999976158142,-1.9500000476837158,100.94999694824219,-0.04931640625,-0.0333251953125,1.01068115234375,36.060001373291016,0.0,-37.0,-4.2207489013671875,-0.4485321044921875,Closing,0.0,0.0,-189.0,0.0,0.0,0.0,0.0,0.0,
3.737933000000019,0.0,0.0,73082.0,1.125,120.0,420.0,0.0,0.25,1.4733885210000002,0.5498168668524888,0.0,-82118.0,2.5,-157.5,-420.0,0.0,0.5,2.70996066,1.9285545897722227,0.0,65699.0,4.0,172.5,420.0,0.0,0.0,2.6867673030000003,4.389674732977289,0.0,-57625.0,4.0,-127.5,-420.0,0.0,0.625,4.412841345,3.0316872062785585,0.0,0.47999998927116394,-2.1600000858306885,98.7699966430664,-0.13037109375,0.0888671875,1.0179443359375,36.04999923706055,0.0,93.0,-4.2242889404296875,-0.4169921875,Closing,0.0,0.0,-189.0,0.0,0.0,0.0,0.0,0.0,
3.885579000000027,0.0,0.0,73126.0,1.125,270.0,420.0,0.0,0.375,1.3989256380000001,0.5498168668524888,0.0,-82168.0,1.75,-330.0,-420.0,0.0,0.25,2.829589554,1.9285545897722227,0.0,65728.0,6.375,172.5,420.0,0.0,0.125,2.720946987,4.389674732977289,0.0,-57665.0,4.0,-225.0,-420.0,0.0,0.375,4.374999552,3.0316872062785585,0.0,0.5,-2.069999933242798,94.58000183105469,0.00201416015625,0.04864501953125,1.06610107421875,36.04999923706055,0.0,35.0,-4.2247161865234375,-0.3733978271484375,Closing,0.0,0.0,-189.0,0.0,0.0,0.0,0.0,0.0,
4.033728000000003,0.0,0.0,73138.0,3.625,45.0,420.0,0.0,0.25,1.333007676,0.5498168668524888,0.0,-82226.0,4.875,-112.5,-420.0,0.0,0.875,2.523193101,1.9285545897722227,0.0,65748.0,12.125,0.0,420.0,0.0,0.125,2.7392575320000003,4.389674732977289,0.0,-57735.0,5.625,-285.0,-420.0,0.0,0.375,4.680175302,3.0316872062785585,0.0,0.5799999833106995,-1.7899999618530273,93.38999938964844,-0.00653076171875,-0.03790283203125,1.01885986328125,36.04999923706055,0.0,-49.0,-4.226715087890625,-0.340850830078125,Closing,0.0,0.0,-189.0,0.0,0.0,0.0,0.0,0.0,
4.180086999999999,0.0,0.0,73156.0,3.25,255.0,420.0,0.0,0.25,1.333007676,0.5498168668524888,0.0,-82277.0,5.125,-322.5,-420.0,0.0,0.25,2.332763433,1.9285545897722227,0.0,65777.0,10.375,180.0,420.0,0.0,0.0,2.7392575320000003,4.389674732977289,0.0,-57790.0,5.125,-352.5,-420.0,0.0,0.25,4.805907711000001,3.0316872062785585,0.0,0.6499999761581421,-1.2999999523162842,89.11000061035156,0.09161376953125,-0.02728271484375,1.119873046875,36.08000183105469,0.0,-38.0,-4.2277069091796875,-0.317138671875,Closing,0.0,0.0,-189.0,0.0,0.0,0.0,0.0,0.0,
4.3179440000000175,0.0,0.0,73307.0,1.25,577.5,420.0,0.0,0.25,1.334228379,0.5498168668524888,0.0,-82351.0,2.875,-472.5,-420.0,0.0,0.25,2.363281008,1.9285545897722227,0.0,65828.0,8.25,322.5,420.0,0.0,0.0,2.752685265,4.389674732977289,0.0,-57870.0,3.0,-555.0,-420.0,0.0,0.25,4.761962403,3.0316872062785585,0.0,0.6399999856948853,-0.8999999761581421,81.08999633789062,-0.0018310546875,-0.0333251953125,0.9544677734375,36.08000183105469,0.0,-41.0,-4.226409912109375,-0.3010101318359375,Closing,0.0,0.0,-189.0,0.0,0.0,0.0,0.0,0.0,
4.460271999999997,0.0,0.0,73413.0,0.125,660.0,420.0,0.0,0.25,1.333007676,0.5498168668524888,0.0,-82446.0,0.5,-622.5,-420.0,0.0,0.25,2.393798583,1.9285545897722227,0.0,65899.0,6.75,480.0,420.0,0.0,0.0,2.7502438590000002,4.389674732977289,0.0,-57977.0,1.0,-697.5,-420.0,0.0,0.25,4.621581558,3.0316872062785585,0.0,0.8500000238418579,-0.8799999952316284,69.76000213623047,-0.06744384765625,-0.0208740234375,1.16094970703125,36.08000183105469,0.0,-53.0,-4.2253570556640625,-0.2978363037109375,Closing,0.0,0.0,-189.0,0.0,0.0,0.0,0.0,0.0,
4.605433000000019,0.0,0.0,73528.0,0.375,727.5,420.0,0.0,0.25,1.334228379,0.5498168668524888,0.0,-82548.0,0.125,-607.5,-420.0,0.0,0.25,2.3828122560000002,1.9285545897722227,0.0,65988.0,5.125,660.0,420.0,0.0,0.0,2.755126671,4.389674732977289,0.0,-58086.0,0.625,-615.0,-420.0,0.0,0.25,4.592284686,3.0316872062785585,0.0,1.0099999904632568,-0.7699999809265137,60.380001068115234,-0.02288818359375,-0.09088134765625,0.893798828125,36.08000183105469,0.0,-98.0,-4.2239532470703125,-0.2950897216796875,Closing,0.0,0.0,-189.0,0.0,0.0,0.0,0.0,0.0,
4.72206600000005,0.0,0.0,73641.0,0.125,675.0,420.0,0.0,0.25,1.357421736,0.5498168668524888,0.0,-82653.0,0.0,-667.5,-420.0,0.0,0.25,2.397460692,1.9285545897722227,0.0,66108.0,3.0,690.0,420.0,0.0,0.0,2.760009483,4.389674732977289,0.0,-58188.0,0.375,-645.0,-420.0,0.0,0.25,4.592284686,3.0316872062785585,0.0,0.9300000071525574,-0.6100000143051147,50.04999923706055,0.0328369140625,-0.07415771484375,0.9775390625,36.08000183105469,0.0,-41.0,-4.222137451171875,-0.29486083984375,Closing,0.0,0.0,-189.0,0.0,0.0,0.0,0.0,0.0,
4.864602000000014,0.0,0.0,73732.0,0.375,510.0,0.0,0.0,1.875,1.152343632,0.01,0.0,-82749.0,0.625,-435.0,-0.0,0.0,9.25,2.0690915850000002,0.01,0.0,66211.0,0.5,502.5,0.0,0.0,2.375,3.026122737,0.01,0.0,-58285.0,0.125,-510.0,-0.0,0.0,6.875,0.058593744,0.01,0.0,0.8299999833106995,-0.5899999737739563,44.61000061035156,-0.04156494140625,-0.11981201171875,1.12353515625,36.08000183105469,0.0,-116.0,-4.2234649658203125,-0.2952728271484375,Closing,0.0,0.0,-189.0,0.0,0.0,0.0,0.0,0.0,
4.988639000000025,0.0,0.0,73787.0,0.125,247.5,0.0,0.0,0.5,0.7897948410000001,0.01,0.0,-82798.0,0.125,-120.0,-0.0,0.0,1.5,1.176757692,0.01,0.0,66276.0,1.375,172.5,0.0,0.0,0.375,3.4277340240000003,0.01,0.0,-58359.0,0.125,-255.0,-0.0,0.0,1.5,1.0339354410000001,0.01,0.0,0.6899999976158142,-0.5,42.04999923706055,-0.05938720703125,0.04595947265625,1.03973388671875,36.08000183105469,0.0,-14.0,-4.2257080078125,-0.299530029296875,Closing,0.0,0.0,-189.0,0.0,0.0,0.0,0.0,0.0,
5.123164000000048,0.0,0.0,73801.0,0.125,15.0,0.0,0.0,0.25,0.670165947,0.01,0.0,-82801.0,0.0,0.0,-0.0,0.0,0.5,0.285644502,0.01,0.0,66291.0,2.625,0.0,0.0,0.0,0.125,3.496093392,0.01,0.0,-58395.0,0.25,-45.0,-0.0,0.0,0.875,1.9152830070000002,0.01,0.0,0.6700000166893005,-0.699999988079071,42.0099983215332,0.0531005859375,0.00640869140625,0.95526123046875,36.08000183105469,0.0,45.0,-4.2286376953125,-0.3005218505859375,Closing,0.0,0.0,-189.0,0.0,0.0,0.0,0.0,0.0,
5.273385999999999,0.0,0.0,73801.0,0.125,0.0,8.4,0.0,0.375,0.74462883,4.931565923327679,0.0,-82801.0,0.0,0.0,-8.4,0.0,1.5,0.177001935,4.9630805454216,0.0,66292.0,2.875,7.5,8.4,0.0,0.125,3.4143062910000004,4.939713791453044,0.0,-58399.0,0.125,-22.5,-8.4,0.0,1.375,2.036132604,4.957311346859402,0.0,0.6499999761581421,-0.6499999761581421,42.09000015258789,-0.016357421875,-0.0113525390625,1.00445556640625,36.08000183105469,0.0,-18.0,-4.2294158935546875,-0.3012237548828125,Closing,0.0,0.0,-189.0,0.0,0.0,0.0,0.0,0.0,
5.393412000000011,0.0,0.0,73801.0,0.125,0.0,8.4,0.0,0.375,0.8032225740000001,0.01,0.0,-82801.0,0.125,0.0,-8.4,0.0,0.5,0.32958981000000004,0.01,0.0,66294.0,2.75,7.5,8.4,0.0,0.125,3.3654781710000004,0.01,0.0,-58399.0,0.125,0.0,-8.4,0.0,0.5,1.776122865,0.01,0.0,0.6499999761581421,-0.699999988079071,42.13999938964844,-0.04180908203125,0.02410888671875,0.964599609375,36.08000183105469,0.0,-13.0,-4.229583740234375,-0.3013763427734375,Closing,0.0,0.0,-189.0,0.0,0.0,0.0,0.0,0.0,
5.505742000000027,0.0,0.0,73801.0,0.0,7.5,0.0,0.0,0.25,0.806884683,0.01,0.0,-82801.0,0.125,0.0,-0.0,0.0,0.25,0.526122993,0.01,0.0,66295.0,3.0,0.0,0.0,0.0,0.0,3.3654781710000004,0.01,0.0,-58399.0,0.375,0.0,-0.0,0.0,0.5,1.5869139,0.01,0.0,0.6100000143051147,-0.7099999785423279,42.20000076293945,-0.01971435546875,0.005615234375,1.03240966796875,36.08000183105469,0.0,-8.0,-4.229766845703125,-0.3006134033203125,Closing,0.0,0.0,-189.0,0.0,0.0,0.0,0.0,0.0,
5.6922860000000215,0.0,0.0,73828.0,1.75,247.5,840.0,0.0,0.25,0.811767495,0.01,0.0,-82810.0,6.625,-247.5,-840.0,0.0,0.25,0.588378846,0.01,0.0,66298.0,16.375,60.0,840.0,0.0,0.0,3.331298487,0.01,0.0,-58401.0,4.125,-262.5,-840.0,0.0,0.375,1.596679524,0.01,0.0,0.5299999713897705,0.07000000029802322,42.279998779296875,0.171875,0.05987548828125,1.02752685546875,36.04999923706055,0.0,159.0,-4.226531982421875,-0.306671142578125,Closing,0.0,0.0,-189.0,0.0,0.0,0.0,0.0,0.0,
5.894713000000047,0.0,0.0,73955.0,2.25,547.5,880.4134265227688,0.0,0.375,0.664062432,4.693483482027408,0.0,-82926.0,7.5,-555.0,-880.4134265227688,0.0,0.25,0.416259723,4.7234766648297475,0.0,66365.0,18.75,427.5,880.4134265227688,0.0,0.25,3.1579586610000003,4.701237993485774,0.0,-58506.0,5.5,-472.5,-880.4134265227688,0.0,0.5,1.467285006,4.71798598730922,0.0,0.4000000059604645,1.3899999856948853,41.65999984741211,0.07611083984375,-0.11676025390625,1.215576171875,36.04999923706055,0.0,-48.0,-4.1971435546875,-0.340789794921875,Closing,0.0,0.0,-189.0,0.0,0.0,0.0,0.0,0.125,
6.091110000000044,0.0,0.0,74076.0,0.5,825.0,856.4811849400139,0.0,0.375,0.52490229,4.778004792092225,0.0,-83035.0,4.625,-802.5,-856.4811849400139,0.0,0.25,0.202636698,4.808538098901216,0.0,66450.0,15.5,787.5,856.4811849400139,0.0,0.125,3.031005549,4.785898948543459,0.0,-58739.0,3.375,-817.5,-856.4811849400139,0.0,0.25,1.3476561120000001,4.802948544020418,0.0,-0.6600000262260437,1.8899999856948853,41.099998474121094,0.13482666015625,0.03594970703125,1.13519287109375,36.04999923706055,0.0,105.0,-4.1658477783203125,-0.3993988037109375,Closing,0.0,0.0,-189.0,0.0,0.0,0.0,0.0,0.0,
6.290561000000046,0.0,0.0,74365.0,0.375,937.5,856.4811849400139,0.0,0.375,0.656738214,4.778004792092225,0.0,-83330.0,1.125,-975.0,-856.4811849400139,0.0,0.25,0.325927701,4.808538098901216,0.0,66724.0,11.0,997.5,856.4811849400139,0.0,0.125,3.1518551460000004,4.785898948543459,0.0,-58890.0,1.375,-982.5,-856.4811849400139,0.0,0.25,1.418456886,4.802948544020418,0.0,-0.20999999344348907,1.899999976158142,40.220001220703125,0.0185546875,0.05670166015625,1.218994140625,36.029998779296875,0.0,22.0,-4.1269989013671875,-0.471649169921875,Closing,0.0,0.0,-189.0,0.0,0.0,0.0,0.0,0.0,
6.487519000000029,0.0,0.0,74704.0,0.125,1050.0,894.9277568608542,0.0,0.375,0.6323241540000001,4.655793124164234,0.0,-83647.0,0.625,-982.5,-894.9277568608542,0.0,0.25,0.308837859,4.685545450937655,0.0,67058.0,7.875,1042.5,894.9277568608542,0.0,0.125,3.143310225,4.663485364110825,0.0,-59211.0,1.0,-967.5,-894.9277568608542,0.0,0.25,1.462402194,4.680098865529405,0.0,0.18000000715255737,1.5199999809265137,39.099998474121094,0.01446533203125,-0.16845703125,1.1270751953125,36.029998779296875,0.0,-120.0,-4.0984344482421875,-0.5228424072265625,Closing,0.0,0.0,-189.0,0.0,0.0,0.0,0.0,0.0,
6.692334000000032,0.0,0.0,74865.0,0.125,967.5,866.3960430868568,0.0,0.25,0.545654241,4.737983427655408,0.0,-83947.0,0.375,-930.0,-866.3960430868568,0.0,0.25,0.229492164,4.768260982397912,0.0,67393.0,6.25,1012.5,866.3960430868568,0.0,0.0,3.066405936,4.745811461336574,0.0,-59510.0,0.75,-922.5,-866.3960430868568,0.0,0.125,1.390380717,4.762718246560346,0.0,-0.3799999952316284,0.8899999856948853,39.2599983215332,-0.09429931640625,0.080810546875,1.0364990234375,35.93000030517578,0.0,-30.0,-4.12066650390625,-0.5695953369140625,Closing,0.0,0.0,-189.0,0.0,0.0,0.0,0.0,0.0,
6.894219000000041,0.0,0.0,75164.0,0.125,907.5,873.0539370016394,0.0,0.25,0.572509707,4.715554860696036,0.0,-84102.0,0.25,-915.0,-873.0539370016394,0.0,0.25,0.275878878,4.745689088182488,0.0,67550.0,6.125,960.0,873.0539370016394,0.0,0.0,3.1018063230000004,4.723345838194913,0.0,-59807.0,0.75,-922.5,-873.0539370016394,0.0,0.125,1.390380717,4.740172590432025,0.0,-0.07000000029802322,0.550000011920929,39.310001373291016,-0.05950927734375,-0.03173828125,0.89544677734375,35.93000030517578,0.0,-72.0,-4.156402587890625,-0.5829315185546875,Closing,0.0,0.0,-189.0,0.0,0.0,0.0,0.0,0.0,
7.094031000000017,0.0,0.0,75448.0,0.125,870.0,886.3830157584249,0.0,0.25,0.589599549,4.677179849637432,0.0,-84387.0,0.625,-870.0,-886.3830157584249,0.0,0.125,0.275878878,4.707068845895068,0.0,67851.0,6.5,900.0,886.3830157584249,0.0,0.125,3.1176754620000002,4.684907424449561,0.0,-59949.0,1.0,-862.5,-886.3830157584249,0.0,0.25,1.389160014,4.70159724119928,0.0,0.019999999552965164,0.2800000011920929,38.97999954223633,0.01605224609375,-7.32421875E-4,0.73480224609375,35.93000030517578,0.0,8.0,-4.1910247802734375,-0.57196044921875,Closing,0.0,0.0,-189.0,0.0,0.0,0.0,0.0,0.0,
7.2912790000000385,0.0,0.0,75723.0,0.375,855.0,932.6101629172624,0.0,0.375,0.505371042,4.579457403849771,0.0,-84669.0,1.125,-885.0,-932.6101629172624,0.0,0.25,0.192871074,4.608721915715031,0.0,68138.0,7.25,892.5,932.6101629172624,0.0,0.125,3.026122737,4.5870235229268355,0.0,-60224.0,1.375,-870.0,-932.6101629172624,0.0,0.5,1.308593616,4.603364631744647,0.0,-0.10999999940395355,0.14000000059604645,38.34000015258789,0.08856201171875,-0.07598876953125,0.669189453125,35.970001220703125,0.0,21.0,-4.2315216064453125,-0.5535125732421875,Closing,0.0,0.0,-189.0,0.0,0.0,0.0,0.0,0.0,
7.495149000000034,0.0,0.0,75858.0,0.375,840.0,876.647047192633,0.0,0.375,0.456542922,4.704472850345129,0.0,-84804.0,1.25,-847.5,-876.647047192633,0.0,0.25,0.163574202,4.734536259480233,0.0,68287.0,6.25,907.5,876.647047192633,0.0,0.125,3.0065914890000003,4.712245518292779,0.0,-60366.0,1.375,-840.0,-876.647047192633,0.0,0.25,1.280517447,4.729032726033438,0.0,-0.4099999964237213,-0.03999999910593033,38.0,0.13677978515625,0.07208251953125,0.79693603515625,35.970001220703125,0.0,156.0,-4.2748260498046875,-0.5417938232421875,Closing,0.0,0.0,-189.0,0.0,0.0,0.0,0.0,0.0,
7.686326000000001,0.0,0.0,76131.0,0.125,825.0,878.5087150962136,0.0,0.25,0.600585876,4.698966387762507,0.0,-85078.0,1.375,-870.0,-878.5087150962136,0.0,0.25,0.324706998,4.728994608462525,0.0,68568.0,7.0,870.0,878.5087150962136,0.0,0.0,3.127441086,4.706729958005359,0.0,-60640.0,1.625,-870.0,-878.5087150962136,0.0,0.25,1.442870946,4.723497516757868,0.0,0.2800000011920929,0.019999999552965164,37.959999084472656,0.13421630859375,-0.001220703125,0.87164306640625,36.0,0.0,102.0,-4.319091796875,-0.5188446044921875,Closing,0.0,0.0,-189.0,0.0,0.0,0.0,0.0,0.0,
7.896457000000053,0.0,0.0,76266.0,0.125,862.5,962.2955076802357,0.0,0.375,0.560302677,4.53217560332883,0.0,-85360.0,2.25,-877.5,-962.2955076802357,0.0,0.25,0.23681638200000002,4.561137966120448,0.0,68856.0,7.375,907.5,962.2955076802357,0.0,0.25,3.084716481,4.53966360403916,0.0,-60913.0,2.25,-840.0,-962.2955076802357,0.0,0.5,1.352538924,4.555835994823528,0.0,0.36000001430511475,0.10999999940395355,38.040000915527344,-0.04034423828125,-0.1966552734375,0.98577880859375,36.0,0.0,-158.0,-4.320648193359375,-0.4935455322265625,Closing,0.0,0.0,-189.0,0.0,0.0,0.0,0.0,0.0,
8.089614000000001,0.0,0.0,76551.0,0.125,885.0,941.1527048817584,0.0,0.25,0.357665979,4.5649621549754,0.0,-85503.0,2.375,-885.0,-941.1527048817584,0.0,0.25,0.029296872,4.594134036569153,0.0,69003.0,7.0,907.5,941.1527048817584,0.0,0.0,2.86865205,4.572504325193601,0.0,-61057.0,2.25,-885.0,-941.1527048817584,0.0,0.25,1.06201161,4.58879370988379,0.0,-0.8100000023841858,-0.5400000214576721,38.02000045776367,-0.095947265625,-0.080810546875,1.25714111328125,36.0,0.0,-104.0,-4.3395843505859375,-0.4754180908203125,Closing,0.0,0.0,-189.0,0.0,0.0,0.0,0.0,0.0,
8.283463000000047,0.0,0.0,76699.0,1.25,870.0,965.4494847770391,0.0,0.25,0.346679652,4.527610985593798,0.0,-85778.0,5.25,-802.5,-965.4494847770391,0.0,0.25,0.051269526,4.556544178704799,0.0,69280.0,8.25,840.0,965.4494847770391,0.0,0.125,2.874755565,4.535091444702956,0.0,-61331.0,6.5,-660.0,-965.4494847770391,0.0,0.375,1.06201161,4.551247547331644,0.0,1.0499999523162842,-3.4200000762939453,38.790000915527344,0.00140380859375,0.33599853515625,0.61688232421875,35.9900016784668,0.0,233.0,-4.382720947265625,-0.43548583984375,Closing,0.0,0.0,-189.0,0.0,0.0,0.0,0.0,0.0,
8.483658000000053,0.0,0.0,76791.0,23.625,52.5,978.3865194319933,0.0,0.25,0.346679652,4.509651336632511,0.0,-85867.0,25.875,-285.0,-978.3865194319933,0.0,0.125,0.058593744,4.538469760609579,0.0,69401.0,27.125,157.5,978.3865194319933,0.0,0.0,2.875976268,4.517102123046709,0.0,-61347.0,39.75,-67.5,-978.3865194319933,0.0,0.375,1.153564335,4.53319413935422,0.0,0.9100000262260437,-2.4100000858306885,39.220001220703125,-0.043701171875,0.1533203125,0.78399658203125,35.9900016784668,0.0,80.0,-4.45477294921875,-0.3282012939453125,Closing,0.0,0.0,-189.0,0.0,0.0,0.0,0.0,0.0,
8.63746900000004,0.0,0.0,76803.0,33.875,37.5,1005.7364379678456,0.0,4.5,0.572509707,0.45708822230082685,0.0,-85947.0,25.0,-502.5,-1005.7364379678456,0.0,1.25,0.34301754300000004,0.46000919361366144,0.0,69401.0,43.0,0.0,1005.7364379678456,0.0,3.875,3.140868819,0.4578434174284733,0.0,-61349.0,51.5,-15.0,-1005.7364379678456,0.0,4.75,1.437988134,0.459474468385226,0.0,0.8999999761581421,-2.259999990463257,39.36000061035156,0.0089111328125,-0.020751953125,1.032470703125,35.9900016784668,0.0,14.0,-4.473114013671875,-0.26959228515625,Closing,0.0,0.0,-189.0,0.0,0.0,0.0,0.0,0.0,
8.773915000000038,0.0,0.0,76807.0,25.5,0.0,0.0,0.0,0.625,0.8837889720000001,0.01,0.0,-86012.0,13.375,-352.5,-0.0,0.0,0.25,0.8032225740000001,0.01,0.0,69401.0,39.25,0.0,0.0,0.0,0.625,3.4179684000000004,0.01,0.0,-61358.0,35.125,-37.5,-0.0,0.0,0.625,1.7126463090000001,0.01,0.0,0.7799999713897705,-2.0999999046325684,39.4900016784668,0.00164794921875,-0.00146484375,0.87298583984375,35.97999954223633,0.0,17.0,-4.47308349609375,-0.238983154296875,Closing,0.0,0.0,-189.0,0.0,0.0,0.0,0.0,0.0,
8.90547100000002,0.0,0.0,76807.0,24.25,0.0,0.0,0.0,0.25,0.8557128030000001,0.01,0.0,-86043.0,13.0,-225.0,-0.0,0.0,0.25,0.7910155440000001,0.01,0.0,69401.0,37.25,0.0,0.0,0.0,0.125,3.385009419,0.01,0.0,-61360.0,35.25,-7.5,-0.0,0.0,0.25,1.702880685,0.01,0.0,0.7300000190734863,-1.9199999570846558,39.5099983215332,-0.009765625,0.04595947265625,1.06195068359375,35.97999954223633,0.0,40.0,-4.471923828125,-0.2407684326171875,Opening,0.0,0.0,-189.0,0.0,0.0,0.0,0.0,0.0,
9.037951000000001,0.0,0.0,76810.0,44.25,15.0,840.0,0.0,5.25,1.024169817,2.4661255000000026,0.0,-86100.0,16.5,-570.0,-840.0,0.0,5.0,0.89111319,2.4818850000000023,0.0,69401.0,47.875,0.0,840.0,0.0,5.25,3.56445276,2.4702000000000024,0.0,-61364.0,52.5,-22.5,-840.0,0.0,2.75,1.9140623040000002,2.4790000000000023,0.0,0.6499999761581421,-1.7799999713897705,39.61000061035156,-0.10406494140625,0.0618896484375,0.9302978515625,35.97999954223633,0.0,-25.0,-4.4696197509765625,-0.24267578125,Opening,0.0,0.0,-189.0,0.0,0.0,0.0,0.0,0.0,
9.179820000000007,0.0,0.0,76815.0,51.25,37.5,840.0,0.0,2.0,1.564941246,2.4674956010806275,0.0,-86215.0,13.125,-720.0,-840.0,0.0,0.75,1.569824058,2.4832638565587972,0.0,69401.0,46.375,7.5,840.0,0.0,3.75,4.046630445,2.4715723647435484,0.0,-61369.0,48.625,-142.5,-840.0,0.0,2.625,2.437743891,2.480377253744335,0.0,0.9200000166893005,-1.4600000381469727,40.0099983215332,0.047607421875,0.2109375,1.10418701171875,35.97999954223633,0.0,182.0,-4.467041015625,-0.24554443359375,Opening,0.0,0.0,-189.0,0.0,0.0,0.0,0.0,0.0,
9.309444000000017,0.0,0.0,76824.0,42.875,172.5,840.0,0.0,1.875,2.152099389,2.4747569538839214,0.0,-86343.0,23.25,-480.0,-840.0,0.0,0.75,2.280273204,2.4905716122274377,0.0,69439.0,41.0,157.5,840.0,0.0,4.5,4.543456566000001,2.478845714658099,0.0,-61499.0,39.375,-547.5,-840.0,0.0,0.625,3.1542965520000004,2.487676514710318,0.0,1.690000057220459,-1.9600000381469727,41.650001525878906,-0.3712158203125,0.38543701171875,1.1910400390625,35.970001220703125,0.0,-14.0,-4.460174560546875,-0.238525390625,Opening,0.0,0.0,-189.0,0.0,0.0,0.0,0.0,0.0,
9.447546000000031,0.0,0.0,76908.0,38.125,712.5,840.0,0.0,1.375,2.766112998,2.495719003909437,0.0,-86533.0,25.125,-712.5,-840.0,0.0,1.0,2.836913772,2.5116676178960775,0.0,69500.0,38.125,367.5,840.0,0.0,1.875,0.19775388600000002,2.499842397905983,0.0,-61644.0,35.125,-892.5,-840.0,0.0,0.375,3.983153889,2.508747997898523,0.0,2.0999999046325684,-3.7100000381469727,40.59000015258789,-0.43927001953125,-0.1925048828125,0.83642578125,35.970001220703125,0.0,-437.0,-4.4553375244140625,-0.2027435302734375,Opening,0.0,0.0,-189.0,0.0,0.0,0.0,0.0,0.0,
9.583629000000016,0.0,0.0,77046.0,34.875,1057.5,840.0,0.0,0.375,3.3227535660000003,2.480922278086723,0.0,-86683.0,18.0,-937.5,-840.0,0.0,0.25,3.082275075,2.496776335247037,0.0,69643.0,24.125,907.5,840.0,0.0,0.375,0.810546792,2.4850212251281714,0.0,-61807.0,39.75,-1020.0,-840.0,0.0,0.25,4.4482417320000005,2.493874025217689,0.0,0.25999999046325684,-5.0,41.599998474121094,-0.29461669921875,-0.260009765625,0.54388427734375,35.970001220703125,0.0,-357.0,-4.491668701171875,-0.1663665771484375,Opening,0.0,0.0,-189.0,0.0,0.0,0.0,0.0,0.0,
9.717639000000025,0.0,0.0,77232.0,25.625,1455.0,840.0,0.0,0.25,3.4240719150000003,2.4947599592850027,0.0,-86893.0,6.375,-1342.5,-840.0,0.0,0.25,3.176269206,2.5107024446039174,0.0,69850.0,24.25,1312.5,840.0,0.0,0.125,1.015624896,2.498881768760679,0.0,-62015.0,33.75,-1335.0,-840.0,0.0,0.5,4.312743699,2.5077839465459166,0.0,-1.0199999809265137,-5.599999904632568,42.27000045776367,-0.28277587890625,0.105224609375,1.34503173828125,35.970001220703125,0.0,-24.0,-4.55999755859375,-0.1483612060546875,Opening,0.0,0.0,-189.0,0.0,0.0,0.0,0.0,0.0,
9.843906000000016,0.0,0.0,77781.0,10.75,1792.5,840.0,0.0,0.375,3.389892231,2.5039394536011774,0.0,-87137.0,0.375,-1522.5,-840.0,0.0,0.25,3.082275075,2.519940599454877,0.0,70115.0,30.375,1732.5,840.0,0.0,0.125,0.9851073210000001,2.5080764293162003,0.0,-62291.0,13.375,-1770.0,-840.0,0.0,0.25,4.116210516000001,2.5170113627539714,0.0,-0.10999999940395355,-6.360000133514404,43.290000915527344,-0.04632568359375,0.39752197265625,0.9718017578125,35.9900016784668,0.0,318.0,-4.6546783447265625,-0.1202850341796875,Opening,0.0,0.0,-189.0,0.0,0.0,0.0,0.0,0.0,
9.983432000000029,0.0,0.0,78108.0,0.75,2040.0,840.0,0.0,0.25,3.331298487,2.5179141710395263,0.0,-87400.0,0.0,-1620.0,-840.0,0.0,0.25,2.9956051620000004,2.5340046207666376,0.0,70428.0,14.625,1867.5,840.0,0.0,0.125,0.9191893590000001,2.522074235598244,0.0,-62578.0,7.0,-1770.0,-840.0,0.0,0.25,4.05273396,2.5310590357250615,0.0,0.550000011920929,-6.03000020980835,45.95000076293945,0.03790283203125,0.23651123046875,0.97003173828125,35.9900016784668,0.0,260.0,-4.7259521484375,-0.077911376953125,Opening,0.0,0.0,-189.0,0.0,0.0,0.0,0.0,0.0,
10.12183500000002,0.0,0.0,78410.0,0.0,1890.0,840.0,0.0,0.25,3.331298487,2.5543580235600767,0.0,-87637.0,0.125,-1410.0,-840.0,0.0,0.25,2.9956051620000004,2.5706813636627173,0.0,70738.0,5.75,1987.5,840.0,0.0,0.0,0.913085844,2.5585783001708964,0.0,-62858.0,2.0,-1695.0,-840.0,0.0,0.375,4.132079655,2.5676931447346982,0.0,0.8299999833106995,-5.230000019073486,48.95000076293945,0.17938232421875,-0.00482177734375,1.07861328125,35.9900016784668,0.0,167.0,-4.7785797119140625,-0.049407958984375,Opening,0.0,0.0,-189.0,0.0,0.0,0.0,0.0,0.0,
10.261358999999997,0.0,0.0,78657.0,1.75,1305.0,0.0,0.0,5.25,3.8452144500000003,0.01,0.0,-87854.0,6.0,-960.0,-0.0,0.0,2.0,2.518310289,0.01,0.0,71037.0,0.125,1552.5,0.0,0.0,2.375,1.481933442,0.01,0.0,-63119.0,0.125,-1312.5,-0.0,0.0,2.125,4.748534670000001,0.01,0.0,-0.03999999910593033,-3.069999933242798,50.34000015258789,0.5318603515625,0.143798828125,1.73541259765625,35.91999816894531,0.0,510.0,-4.8072052001953125,-0.065582275390625,Opening,0.0,0.0,-189.0,0.0,0.0,0.0,0.0,0.0,
10.38313400000002,0.0,0.0,78772.0,0.125,435.0,0.0,0.0,0.625,4.891356921,0.01,0.0,-87896.0,0.125,-7.5,-0.0,0.0,0.875,1.5051267990000001,0.01,0.0,71213.0,1.125,780.0,0.0,0.0,1.875,2.403564207,0.01,0.0,-63302.0,0.125,-832.5,-0.0,0.0,1.375,0.7263182850000001,0.01,0.0,-0.4000000059604645,1.1299999952316284,49.369998931884766,0.63397216796875,0.26904296875,0.96466064453125,35.91999816894531,0.0,609.0,-4.8092041015625,-0.129241943359375,Opening,0.0,0.0,-189.0,0.0,0.0,0.0,0.0,0.0,
10.503943000000028,0.0,0.0,78816.0,0.125,255.0,0.0,0.0,1.25,0.808105386,0.01,0.0,-87881.0,0.0,165.0,-0.0,0.0,1.5,0.6201171240000001,0.01,0.0,71312.0,1.125,390.0,0.0,0.0,1.5,3.3093258330000004,0.01,0.0,-63400.0,0.375,-277.5,-0.0,0.0,1.625,1.6064451480000002,0.01,0.0,0.8299999833106995,1.6200000047683716,49.02000045776367,-0.03460693359375,0.19140625,1.05401611328125,35.91999816894531,0.0,90.0,-4.77764892578125,-0.215850830078125,Opening,0.0,0.0,-189.0,0.0,0.0,0.0,0.0,0.0,
10.636938000000024,0.0,0.0,78835.0,0.125,127.5,0.0,0.0,0.25,0.994872945,0.01,0.0,-87874.0,0.125,-15.0,-0.0,0.0,0.25,4.956054180000001,0.01,0.0,71367.0,3.0,97.5,0.0,0.0,0.5,3.9392085810000004,0.01,0.0,-63447.0,0.375,-97.5,-0.0,0.0,0.125,2.467040763,0.01,0.0,0.8100000023841858,1.0700000524520874,48.209999084472656,-0.08880615234375,0.014892578125,1.069091796875,35.91999816894531,0.0,-72.0,-4.7755279541015625,-0.2622222900390625,Opening,0.0,0.0,-189.0,0.0,0.0,0.0,0.0,0.0,
10.774847999999999,0.0,0.0,78844.0,0.0,0.0,0.0,0.0,0.375,0.89111319,0.01,0.0,-87874.0,0.125,0.0,-0.0,0.0,0.5,0.367431603,0.01,0.0,71371.0,3.375,22.5,0.0,0.0,0.5,3.500976204,0.01,0.0,-63450.0,0.375,-15.0,-0.0,0.0,1.0,1.8139646580000002,0.01,0.0,0.7900000214576721,0.800000011920929,48.36000061035156,0.05029296875,-0.08447265625,1.1807861328125,35.90999984741211,0.0,-52.0,-4.7858428955078125,-0.2558441162109375,Opening,0.0,0.0,-189.0,0.0,0.0,0.0,0.0,0.0,
10.905594000000042,0.0,0.0,78844.0,0.0,0.0,0.0,0.0,0.25,0.836181555,0.01,0.0,-87874.0,0.125,0.0,-0.0,0.0,0.25,0.603027282,0.01,0.0,71377.0,2.375,37.5,0.0,0.0,0.25,3.2678219310000003,0.01,0.0,-63450.0,0.375,0.0,-0.0,0.0,0.5,1.462402194,0.01,0.0,0.699999988079071,0.7900000214576721,48.52000045776367,-0.0093994140625,-0.001220703125,1.0096435546875,35.90999984741211,0.0,-25.0,-4.7967987060546875,-0.25543212890625,Opening,0.0,0.0,-189.0,0.0,0.0,0.0,0.0,0.0,
11.025411000000021,0.0,0.0,78846.0,0.0,22.5,0.0,0.0,0.125,0.837402258,0.01,0.0,-87874.0,0.125,0.0,-0.0,0.0,0.25,0.604247985,0.01,0.0,71379.0,3.125,7.5,0.0,0.0,0.0,3.3215328630000003,0.01,0.0,-63451.0,0.375,0.0,-0.0,0.0,0.375,1.485595551,0.01,0.0,0.6800000071525574,0.6100000143051147,48.459999084472656,-0.03167724609375,-0.01129150390625,1.0157470703125,35.90999984741211,0.0,-45.0,-4.8092041015625,-0.254180908203125,Opening,0.0,0.0,-189.0,0.0,0.0,0.0,0.0,0.0,
11.162205000000016,0.0,0.0,78849.0,0.0,0.0,0.0,0.0,0.25,0.836181555,0.01,0.0,-87874.0,0.125,0.0,-0.0,0.0,0.25,0.546874944,0.01,0.0,71379.0,3.375,0.0,0.0,0.0,0.0,3.336181299,0.01,0.0,-63452.0,0.375,-7.5,-0.0,0.0,0.375,1.563720543,0.01,0.0,0.6499999761581421,0.49000000953674316,48.470001220703125,0.00201416015625,-0.00518798828125,1.02728271484375,35.90999984741211,0.0,-17.0,-4.8165130615234375,-0.2540435791015625,Opening,0.0,0.0,-189.0,0.0,0.0,0.0,0.0,0.0,
11.283751000000047,0.0,0.0,78849.0,0.0,0.0,0.0,0.0,0.25,0.849609288,0.01,0.0,-87874.0,0.125,0.0,-0.0,0.0,0.25,0.532226508,0.01,0.0,71379.0,3.375,0.0,0.0,0.0,0.0,3.336181299,0.01,0.0,-63453.0,0.375,0.0,-0.0,0.0,0.375,1.649169753,0.01,0.0,0.6000000238418579,0.3799999952316284,48.47999954223633,-0.0147705078125,0.00335693359375,1.03192138671875,35.900001525878906,0.0,-20.0,-4.8169097900390625,-0.25390625,Opening,0.0,0.0,-189.0,0.0,0.0,0.0,0.0,0.0,
11.405943000000029,0.0,0.0,78849.0,0.0,0.0,0.0,0.0,0.25,0.836181555,0.01,0.0,-87874.0,0.125,0.0,-0.0,0.0,0.125,0.532226508,0.01,0.0,71379.0,3.375,0.0,0.0,0.0,0.0,3.349609032,0.01,0.0,-63453.0,0.375,0.0,-0.0,0.0,0.25,1.649169753,0.01,0.0,0.5699999928474426,0.3100000023841858,48.47999954223633,-0.012939453125,0.0042724609375,1.03466796875,35.900001525878906,0.0,-16.0,-4.817352294921875,-0.25390625,Opening,0.0,0.0,-189.0,0.0,0.0,0.0,0.0,0.0,
11.549988000000011,0.0,0.0,78849.0,0.0,0.0,0.0,0.0,0.25,0.836181555,0.01,0.0,-87874.0,0.125,0.0,-0.0,0.0,0.125,0.532226508,0.01,0.0,71379.0,3.375,0.0,0.0,0.0,0.0,3.339843408,0.01,0.0,-63453.0,0.375,0.0,-0.0,0.0,0.25,1.650390456,0.01,0.0,0.5400000214576721,0.2199999988079071,48.47999954223633,-0.01165771484375,0.00628662109375,1.0140380859375,35.900001525878906,0.0,-12.0,-4.817352294921875,-0.25390625,Opening,0.0,0.0,-189.0,0.0,0.0,0.0,0.0,0.0,
11.658120000000054,0.0,0.0,78849.0,0.0,0.0,0.0,0.0,0.125,0.836181555,0.01,0.0,-87874.0,0.125,0.0,-0.0,0.0,0.125,0.532226508,0.01,0.0,71379.0,3.5,0.0,0.0,0.0,0.0,3.341064111,0.01,0.0,-63453.0,0.375,0.0,-0.0,0.0,0.25,1.650390456,0.01,0.0,0.5199999809265137,0.14000000059604645,48.47999954223633,-0.009765625,0.003662109375,1.0220947265625,35.900001525878906,0.0,-12.0,-4.817352294921875,-0.25390625,Opening,0.0,0.0,-189.0,0.0,0.0,0.0,0.0,0.0,
11.809688000000024,0.0,0.0,78849.0,0.0,0.0,0.0,0.0,0.25,0.836181555,0.01,0.0,-87874.0,0.125,0.0,-0.0,0.0,0.125,0.532226508,0.01,0.0,71379.0,3.5,0.0,0.0,0.0,0.0,3.339843408,0.01,0.0,-63453.0,0.375,0.0,-0.0,0.0,0.25,1.650390456,0.01,0.0,0.49000000953674316,0.07999999821186066,48.470001220703125,-0.00927734375,0.00579833984375,1.0174560546875,35.90999984741211,0.0,-9.0,-4.817352294921875,-0.25390625,Opening,0.0,0.0,-189.0,0.0,0.0,0.0,0.0,0.0,
11.956291000000027,0.0,0.0,78849.0,0.0,0.0,0.0,0.0,0.25,0.837402258,0.01,0.0,-87874.0,0.125,0.0,-0.0,0.0,0.125,0.532226508,0.01,0.0,71379.0,3.5,0.0,0.0,0.0,0.0,3.341064111,0.01,0.0,-63453.0,0.625,0.0,-0.0,0.0,0.25,1.650390456,0.01,0.0,0.44999998807907104,0.0,48.470001220703125,-0.01263427734375,0.00506591796875,1.02734375,35.90999984741211,0.0,-10.0,-4.817352294921875,-0.25390625,Opening,0.0,0.0,-189.0,0.0,0.0,0.0,0.0,0.0,
12.096453000000038,0.0,0.0,78849.0,0.0,0.0,0.0,0.0,0.125,0.836181555,0.01,0.0,-87874.0,0.125,0.0,-0.0,0.0,0.125,0.532226508,0.01,0.0,71379.0,3.5,0.0,0.0,0.0,0.0,3.341064111,0.01,0.0,-63453.0,0.375,0.0,-0.0,0.0,0.25,1.649169753,0.01,0.0,0.4399999976158142,-0.03999999910593033,48.459999084472656,-0.0106201171875,0.00238037109375,1.0198974609375,35.90999984741211,0.0,-10.0,-4.817352294921875,-0.25390625,Opening,0.0,0.0,-189.0,0.0,0.0,0.0,0.0,0.0,
12.217568000000028,0.0,0.0,78849.0,0.0,0.0,0.0,0.0,0.125,0.836181555,0.01,0.0,-87874.0,0.125,0.0,-0.0,0.0,0.125,0.531005805,0.01,0.0,71379.0,3.5,0.0,0.0,0.0,0.0,3.341064111,0.01,0.0,-63453.0,0.375,0.0,-0.0,0.0,0.25,1.650390456,0.01,0.0,0.41999998688697815,-0.07999999821186066,48.470001220703125,-0.00811767578125,0.00341796875,1.02130126953125,35.90999984741211,0.0,-7.0,-4.817352294921875,-0.25390625,Opening,0.0,0.0,-189.0,0.0,0.0,0.0,0.0,0.0,
12.359584000000032,0.0,0.0,78849.0,0.0,0.0,0.0,0.0,0.25,0.836181555,0.01,0.0,-87874.0,0.125,0.0,-0.0,0.0,0.125,0.532226508,0.01,0.0,71379.0,3.5,0.0,0.0,0.0,0.0,3.341064111,0.01,0.0,-63453.0,0.375,0.0,-0.0,0.0,0.25,1.650390456,0.01,0.0,0.4000000059604645,-0.12999999523162842,48.459999084472656,-0.010009765625,0.00201416015625,1.02783203125,35.93000030517578,0.0,-9.0,-4.817352294921875,-0.25390625,Opening,0.0,0.0,-189.0,0.0,0.0,0.0,0.0,0.0,
12.465581000000006,0.0,0.0,78849.0,0.0,0.0,0.0,0.0,0.25,0.836181555,0.01,0.0,-87874.0,0.125,0.0,-0.0,0.0,0.125,0.531005805,0.01,0.0,71379.0,3.5,0.0,0.0,0.0,0.0,3.341064111,0.01,0.0,-63453.0,0.375,0.0,-0.0,0.0,0.25,1.650390456,0.01,0.0,0.4000000059604645,-0.1599999964237213,48.459999084472656,-0.008544921875,0.005126953125,1.0255126953125,35.93000030517578,0.0,-5.0,-4.817352294921875,-0.25390625,Opening,0.0,0.0,-189.0,0.0,0.0,0.0,0.0,0.0,
12.614732000000018,0.0,0.0,78849.0,0.0,0.0,0.0,0.0,0.25,0.836181555,0.01,0.0,-87874.0,0.0,0.0,-0.0,0.0,0.125,0.5297851020000001,0.01,0.0,71379.0,3.5,0.0,0.0,0.0,0.0,3.341064111,0.01,0.0,-63453.0,0.375,0.0,-0.0,0.0,0.25,1.649169753,0.01,0.0,0.38999998569488525,-0.20000000298023224,48.459999084472656,-0.00616455078125,0.00457763671875,1.01629638671875,35.93000030517578,0.0,-3.0,-4.817352294921875,-0.25390625,Opening,0.0,0.0,-189.0,0.0,0.0,0.0,0.0,0.0,
12.724145000000018,0.0,0.0,78849.0,0.0,0.0,0.0,0.0,0.25,0.836181555,0.01,0.0,-87874.0,0.125,0.0,-0.0,0.0,0.125,0.531005805,0.01,0.0,71379.0,3.5,0.0,0.0,0.0,0.0,3.341064111,0.01,0.0,-63453.0,0.375,0.0,-0.0,0.0,0.25,1.650390456,0.01,0.0,0.3700000047683716,-0.23000000417232513,48.459999084472656,-0.0107421875,0.006591796875,1.01641845703125,35.93000030517578,0.0,-4.0,-4.817352294921875,-0.25390625,Opening,0.0,0.0,-189.0,0.0,0.0,0.0,0.0,0.0,
12.849673999999998,0.0,0.0,78849.0,0.0,0.0,0.0,0.0,0.25,0.845947179,0.01,0.0,-87874.0,0.125,0.0,-0.0,0.0,0.125,0.53710932,0.01,0.0,71379.0,3.5,0.0,0.0,0.0,0.0,3.341064111,0.01,0.0,-63453.0,0.375,0.0,-0.0,0.0,0.25,1.649169753,0.01,0.0,0.36000001430511475,-0.25999999046325684,48.45000076293945,-0.00933837890625,0.00689697265625,1.01959228515625,35.939998626708984,0.0,-2.0,-4.817352294921875,-0.25390625,Opening,0.0,0.0,-189.0,0.0,0.0,0.0,0.0,0.0,
12.980489000000002,0.0,0.0,78849.0,0.0,0.0,0.0,0.0,0.25,0.837402258,0.01,0.0,-87874.0,0.0,0.0,-0.0,0.0,0.125,0.531005805,0.01,0.0,71379.0,3.5,0.0,0.0,0.0,0.0,3.341064111,0.01,0.0,-63453.0,0.375,0.0,-0.0,0.0,0.25,1.649169753,0.01,0.0,0.36000001430511475,-0.28999999165534973,48.45000076293945,-0.01123046875,0.00543212890625,1.020751953125,35.939998626708984,0.0,-4.0,-4.817352294921875,-0.25390625,Opening,0.0,0.0,-189.0,0.0,0.0,0.0,0.0,0.0,
13.09981600000005,0.0,0.0,78849.0,0.0,0.0,0.0,0.0,0.125,0.838622961,0.01,0.0,-87874.0,0.125,0.0,-0.0,0.0,0.125,0.532226508,0.01,0.0,71379.0,3.5,0.0,0.0,0.0,0.0,3.341064111,0.01,0.0,-63453.0,0.375,0.0,-0.0,0.0,0.25,1.650390456,0.01,0.0,0.3499999940395355,-0.3100000023841858,48.45000076293945,-0.00830078125,0.0042724609375,1.01812744140625,35.939998626708984,0.0,-3.0,-4.817352294921875,-0.25390625,Opening,0.0,0.0,-189.0,0.0,0.0,0.0,0.0,0.0,
13.242265000000014,0.0,0.0,78849.0,0.0,0.0,0.0,0.0,0.125,0.836181555,0.01,0.0,-87874.0,0.125,0.0,-0.0,0.0,0.125,0.532226508,0.01,0.0,71379.0,3.5,0.0,0.0,0.0,0.0,3.341064111,0.01,0.0,-63453.0,0.375,0.0,-0.0,0.0,0.25,1.650390456,0.01,0.0,0.3400000035762787,-0.33000001311302185,48.45000076293945,-0.0098876953125,0.003662109375,1.01983642578125,35.939998626708984,0.0,-4.0,-4.817352294921875,-0.25390625,Opening,0.0,0.0,-189.0,0.0,0.0,0.0,0.0,0.0,
13.361612000000022,0.0,0.0,78849.0,0.0,0.0,0.0,0.0,0.25,0.836181555,0.01,0.0,-87874.0,0.0,0.0,-0.0,0.0,0.125,0.531005805,0.01,0.0,71379.0,3.5,0.0,0.0,0.0,0.0,3.341064111,0.01,0.0,-63453.0,0.375,0.0,-0.0,0.0,0.25,1.650390456,0.01,0.0,0.3400000035762787,-0.3499999940395355,48.45000076293945,-0.00714111328125,0.0054931640625,1.02239990234375,35.95000076293945,0.0,-1.0,-4.817352294921875,-0.25390625,Opening,0.0,0.0,-189.0,0.0,0.0,0.0,0.0,0.0,
13.494101000000024,0.0,0.0,78849.0,0.0,0.0,0.0,0.0,0.125,0.836181555,0.01,0.0,-87874.0,0.125,0.0,-0.0,0.0,0.125,0.532226508,0.01,0.0,71379.0,3.5,0.0,0.0,0.0,0.0,3.341064111,0.01,0.0,-63453.0,0.375,0.0,-0.0,0.0,0.25,1.650390456,0.01,0.0,0.33000001311302185,-0.3700000047683716,48.45000076293945,-0.01025390625,0.00299072265625,1.02264404296875,35.95000076293945,0.0,-4.0,-4.817352294921875,-0.25390625,Opening,0.0,0.0,-189.0,0.0,0.0,0.0,0.0,0.0,
13.620410000000033,0.0,0.0,78849.0,0.0,0.0,0.0,0.0,0.25,0.836181555,0.01,0.0,-87874.0,0.125,0.0,-0.0,0.0,0.125,0.532226508,0.01,0.0,71379.0,3.5,0.0,0.0,0.0,0.0,3.341064111,0.01,0.0,-63453.0,0.375,0.0,-0.0,0.0,0.25,1.650390456,0.01,0.0,0.3199999928474426,-0.3799999952316284,48.45000076293945,-0.01043701171875,0.00579833984375,1.020751953125,35.95000076293945,0.0,-2.0,-4.817352294921875,-0.25390625,Opening,0.0,0.0,-189.0,0.0,0.0,0.0,0.0,0.0,
13.758524000000033,0.0,0.0,78849.0,0.0,0.0,0.0,0.0,0.25,0.836181555,0.01,0.0,-87874.0,0.125,0.0,-0.0,0.0,0.125,0.532226508,0.01,0.0,71379.0,3.5,0.0,0.0,0.0,0.0,3.339843408,0.01,0.0,-63453.0,0.375,0.0,-0.0,0.0,0.25,1.650390456,0.01,0.0,0.3100000023841858,-0.38999998569488525,48.439998626708984,-0.00933837890625,0.0050048828125,1.0208740234375,35.95000076293945,0.0,-1.0,-4.817352294921875,-0.25390625,Opening,0.0,0.0,-189.0,0.0,0.0,0.0,0.0,0.0,
13.873102000000014,0.0,0.0,78849.0,0.0,0.0,0.0,0.0,0.25,0.837402258,0.01,0.0,-87874.0,0.125,0.0,-0.0,0.0,0.125,0.532226508,0.01,0.0,71379.0,3.5,0.0,0.0,0.0,0.0,3.341064111,0.01,0.0,-63453.0,0.375,0.0,-0.0,0.0,0.25,1.650390456,0.01,0.0,0.30000001192092896,-0.4099999964237213,48.439998626708984,-0.01171875,0.00531005859375,1.02117919921875,35.970001220703125,0.0,-3.0,-4.817352294921875,-0.25390625,Opening,0.0,0.0,-189.0,0.0,0.0,0.0,0.0,0.0,
14.014041000000027,0.0,0.0,78849.0,0.0,0.0,0.0,0.0,0.25,0.834960852,0.01,0.0,-87874.0,0.125,0.0,-0.0,0.0,0.125,0.531005805,0.01,0.0,71379.0,3.5,0.0,0.0,0.0,0.0,3.341064111,0.01,0.0,-63453.0,0.375,0.0,-0.0,0.0,0.25,1.649169753,0.01,0.0,0.30000001192092896,-0.41999998688697815,48.43000030517578,-0.0086669921875,0.00225830078125,1.01495361328125,35.970001220703125,0.0,-3.0,-4.817352294921875,-0.25390625,Opening,0.0,0.0,-189.0,0.0,0.0,0.0,0.0,0.0,
14.149775000000023,0.0,0.0,78849.0,0.0,0.0,0.0,0.0,0.25,0.836181555,0.01,0.0,-87874.0,0.125,0.0,-0.0,0.0,0.125,0.531005805,0.01,0.0,71379.0,3.5,0.0,0.0,0.0,0.0,3.341064111,0.01,0.0,-63453.0,0.375,0.0,-0.0,0.0,0.25,1.650390456,0.01,0.0,0.28999999165534973,-0.41999998688697815,48.43000030517578,-0.0101318359375,0.00299072265625,1.021240234375,35.970001220703125,0.0,-3.0,-4.817352294921875,-0.25390625,Opening,0.0,0.0,-189.0,0.0,0.0,0.0,0.0,0.0,
14.28551800000004,0.0,0.0,78849.0,0.0,0.0,0.0,0.0,0.25,0.836181555,0.01,0.0,-87874.0,0.125,0.0,-0.0,0.0,0.125,0.532226508,0.01,0.0,71379.0,3.5,0.0,0.0,0.0,0.0,3.341064111,0.01,0.0,-63453.0,0.375,0.0,-0.0,0.0,0.25,1.650390456,0.01,0.0,0.28999999165534973,-0.4399999976158142,48.43000030517578,-0.011962890625,0.00323486328125,1.02374267578125,35.970001220703125,0.0,-4.0,-4.817352294921875,-0.25390625,Opening,0.0,0.0,-189.0,0.0,0.0,0.0,0.0,0.0,
14.44080500000005,0.0,0.0,78849.0,0.0,0.0,0.0,0.0,0.125,0.837402258,0.01,0.0,-87874.0,0.125,0.0,-0.0,0.0,0.125,0.532226508,0.01,0.0,71379.0,3.5,0.0,0.0,0.0,0.0,3.339843408,0.01,0.0,-63453.0,0.375,0.0,-0.0,0.0,0.25,1.649169753,0.01,0.0,0.28999999165534973,-0.44999998807907104,48.43000030517578,-0.01007080078125,0.00439453125,1.0186767578125,36.0099983215332,0.0,-1.0,-4.817352294921875,-0.25390625,Opening,0.0,0.0,-189.0,0.0,0.0,0.0,0.0,0.0,
14.585722999999998,0.0,0.0,78849.0,0.0,0.0,0.0,0.0,0.25,0.8300780400000001,0.01,0.0,-87874.0,0.0,0.0,-0.0,0.0,0.125,0.531005805,0.01,0.0,71379.0,3.5,0.0,0.0,0.0,0.0,3.339843408,0.01,0.0,-63453.0,0.375,0.0,-0.0,0.0,0.25,1.650390456,0.01,0.0,0.2800000011920929,-0.44999998807907104,48.43000030517578,-0.0098876953125,6.7138671875E-4,1.02166748046875,36.0099983215332,0.0,-4.0,-4.817352294921875,-0.25390625,Opening,0.0,0.0,-189.0,0.0,0.0,0.0,0.0,0.0,
14.763392000000051,0.0,0.0,78849.0,0.0,0.0,0.0,0.0,0.125,0.8288573370000001,0.01,0.0,-87874.0,0.125,0.0,-0.0,0.0,0.125,0.532226508,0.01,0.0,71379.0,3.5,0.0,0.0,0.0,0.0,3.339843408,0.01,0.0,-63453.0,0.375,0.0,-0.0,0.0,0.25,1.650390456,0.01,0.0,0.2800000011920929,-0.46000000834465027,48.43000030517578,-0.0113525390625,0.0030517578125,1.0185546875,36.0099983215332,0.0,-3.0,-4.817352294921875,-0.25390625,Opening,0.0,0.0,-189.0,0.0,0.0,0.0,0.0,0.0,
14.906459000000032,0.0,0.0,78849.0,0.0,0.0,0.0,0.0,0.125,0.836181555,0.01,0.0,-87874.0,0.125,0.0,-0.0,0.0,0.125,0.531005805,0.01,0.0,71379.0,3.5,0.0,0.0,0.0,0.0,3.341064111,0.01,0.0,-63453.0,0.375,0.0,-0.0,0.0,0.25,1.650390456,0.01,0.0,0.27000001072883606,-0.4699999988079071,48.43000030517578,-0.01025390625,0.00628662109375,1.0172119140625,36.02000045776367,0.0,0.0,-4.817352294921875,-0.25390625,Opening,0.0,0.0,-189.0,0.0,0.0,0.0,0.0,0.0,
15.042739000000001,0.0,0.0,78849.0,0.0,0.0,0.0,0.0,0.25,0.836181555,0.01,0.0,-87874.0,0.0,0.0,-0.0,0.0,0.125,0.532226508,0.01,0.0,71379.0,3.5,0.0,0.0,0.0,0.0,3.339843408,0.01,0.0,-63453.0,0.375,0.0,-0.0,0.0,0.25,1.650390456,0.01,0.0,0.27000001072883606,-0.47999998927116394,48.43000030517578,-0.00787353515625,0.0035400390625,1.0166015625,36.02000045776367,0.0,0.0,-4.817352294921875,-0.25390625,Opening,0.0,0.0,-189.0,0.0,0.0,0.0,0.0,0.0,
15.161572000000044,0.0,0.0,78849.0,0.0,0.0,0.0,0.0,0.25,0.836181555,0.01,0.0,-87874.0,0.125,0.0,-0.0,0.0,0.125,0.532226508,0.01,0.0,71379.0,3.5,0.0,0.0,0.0,0.0,3.341064111,0.01,0.0,-63453.0,0.375,0.0,-0.0,0.0,0.25,1.650390456,0.01,0.0,0.27000001072883606,-0.47999998927116394,48.43000030517578,-0.00811767578125,0.0025634765625,1.02032470703125,36.02000045776367,0.0,-1.0,-4.817352294921875,-0.25390625,Opening,0.0,0.0,-189.0,0.0,0.0,0.0,0.0,0.0,
15.266197000000044,0.0,0.0,78849.0,0.0,0.0,0.0,0.0,0.125,0.836181555,0.01,0.0,-87874.0,0.125,0.0,-0.0,0.0,0.125,0.532226508,0.01,0.0,71379.0,3.5,0.0,0.0,0.0,0.0,3.338622705,0.01,0.0,-63453.0,0.375,0.0,-0.0,0.0,0.25,1.650390456,0.01,0.0,0.25999999046325684,-0.47999998927116394,48.43000030517578,-0.01177978515625,0.004150390625,1.021728515625,36.02000045776367,0.0,-2.0,-4.817352294921875,-0.25390625,Opening,0.0,0.0,-189.0,0.0,0.0,0.0,0.0,0.0,
15.380465000000026,0.0,0.0,78849.0,0.0,0.0,0.0,0.0,0.25,0.836181555,0.01,0.0,-87874.0,0.125,0.0,-0.0,0.0,0.125,0.532226508,0.01,0.0,71379.0,3.5,0.0,0.0,0.0,0.0,3.339843408,0.01,0.0,-63453.0,0.375,0.0,-0.0,0.0,0.25,1.651611159,0.01,0.0,0.25999999046325684,-0.49000000953674316,48.43000030517578,-0.0103759765625,0.0023193359375,1.0198974609375,35.959999084472656,0.0,-2.0,-4.817352294921875,-0.25390625,Opening,0.0,0.0,-189.0,0.0,0.0,0.0,0.0,0.0,
15.518273000000045,0.0,0.0,78849.0,0.0,0.0,0.0,0.0,0.25,0.836181555,0.01,0.0,-87874.0,0.125,0.0,-0.0,0.0,0.125,0.532226508,0.01,0.0,71379.0,3.5,0.0,0.0,0.0,0.0,3.341064111,0.01,0.0,-63453.0,0.375,0.0,-0.0,0.0,0.25,1.650390456,0.01,0.0,0.25999999046325684,-0.5,48.43000030517578,-0.01129150390625,0.00518798828125,1.01995849609375,35.959999084472656,0.0,-1.0,-4.817352294921875,-0.25390625,Opening,0.0,0.0,-189.0,0.0,0.0,0.0,0.0,0.0,
15.638982000000018,0.0,0.0,78849.0,0.0,0.0,0.0,0.0,0.125,0.836181555,0.01,0.0,-87874.0,0.125,0.0,-0.0,0.0,0.125,0.531005805,0.01,0.0,71379.0,3.5,0.0,0.0,0.0,0.0,3.34472622,0.01,0.0,-63453.0,0.375,0.0,-0.0,0.0,0.25,1.649169753,0.01,0.0,0.25999999046325684,-0.5,48.43000030517578,-0.009765625,0.00433349609375,1.0167236328125,35.959999084472656,0.0,0.0,-4.817352294921875,-0.25390625,Opening,0.0,0.0,-189.0,0.0,0.0,0.0,0.0,0.0,
15.761535000000032,0.0,0.0,78849.0,0.0,0.0,0.0,0.0,0.25,0.836181555,0.01,0.0,-87874.0,0.125,0.0,-0.0,0.0,0.125,0.532226508,0.01,0.0,71379.0,3.5,0.0,0.0,0.0,0.0,3.339843408,0.01,0.0,-63453.0,0.375,0.0,-0.0,0.0,0.25,1.650390456,0.01,0.0,0.25999999046325684,-0.5,48.41999816894531,-0.010986328125,0.00665283203125,1.02264404296875,35.959999084472656,0.0,0.0,-4.817352294921875,-0.25390625,Opening,0.0,0.0,-189.0,0.0,0.0,0.0,0.0,0.0,
15.914770000000019,0.0,0.0,78849.0,0.0,0.0,0.0,0.0,0.125,0.837402258,0.01,0.0,-87874.0,0.125,0.0,-0.0,0.0,0.125,0.532226508,0.01,0.0,71379.0,3.5,0.0,0.0,0.0,0.0,3.341064111,0.01,0.0,-63453.0,0.375,0.0,-0.0,0.0,0.25,1.650390456,0.01,0.0,0.25999999046325684,-0.5,48.41999816894531,-0.010009765625,0.0045166015625,1.01617431640625,35.9900016784668,0.0,0.0,-4.817352294921875,-0.25390625,Opening,0.0,0.0,-189.0,0.0,0.0,0.0,0.0,0.0,
16.024488000000012,0.0,0.0,78849.0,0.0,0.0,0.0,0.0,0.25,0.837402258,0.01,0.0,-87874.0,0.125,0.0,-0.0,0.0,0.125,0.531005805,0.01,0.0,71379.0,3.5,0.0,0.0,0.0,0.0,3.339843408,0.01,0.0,-63453.0,0.375,0.0,-0.0,0.0,0.25,1.650390456,0.01,0.0,0.25999999046325684,-0.5099999904632568,48.41999816894531,-0.01104736328125,0.003173828125,1.0196533203125,35.9900016784668,0.0,-2.0,-4.817352294921875,-0.25390625,Opening,0.0,0.0,-189.0,0.0,0.0,0.0,0.0,0.0,
16.150108999999997,0.0,0.0,78849.0,0.0,0.0,0.0,0.0,0.25,0.836181555,0.01,0.0,-87874.0,0.125,0.0,-0.0,0.0,0.125,0.531005805,0.01,0.0,71379.0,3.5,0.0,0.0,0.0,0.0,3.339843408,0.01,0.0,-63453.0,0.375,0.0,-0.0,0.0,0.25,1.650390456,0.01,0.0,0.25999999046325684,-0.5099999904632568,48.41999816894531,-0.00946044921875,0.00616455078125,1.021728515625,35.9900016784668,0.0,0.0,-4.817352294921875,-0.25390625,Opening,0.0,0.0,-189.0,0.0,0.0,0.0,0.0,0.0,
16.257410000000032,0.0,0.0,78849.0,0.0,0.0,0.0,0.0,0.25,0.836181555,0.01,0.0,-87874.0,0.125,0.0,-0.0,0.0,0.125,0.531005805,0.01,0.0,71379.0,3.5,0.0,0.0,0.0,0.0,3.339843408,0.01,0.0,-63453.0,0.375,0.0,-0.0,0.0,0.25,1.650390456,0.01,0.0,0.25999999046325684,-0.5099999904632568,48.41999816894531,-0.011474609375,0.00494384765625,1.02642822265625,35.9900016784668,0.0,-1.0,-4.817352294921875,-0.25390625,Opening,0.0,0.0,-189.0,0.0,0.0,0.0,0.0,0.0,
16.383978000000003,0.0,0.0,78849.0,0.0,0.0,0.0,0.0,0.25,0.836181555,0.01,0.0,-87874.0,0.0,0.0,-0.0,0.0,0.125,0.531005805,0.01,0.0,71379.0,3.5,0.0,0.0,0.0,0.0,3.341064111,0.01,0.0,-63453.0,0.375,0.0,-0.0,0.0,0.25,1.650390456,0.01,0.0,0.25999999046325684,-0.5099999904632568,48.41999816894531,-0.00701904296875,0.0042724609375,1.0189208984375,35.9900016784668,0.0,1.0,-4.817352294921875,-0.25390625,Opening,0.0,0.0,-189.0,0.0,0.0,0.0,0.0,0.0,
16.503235000000043,0.0,0.0,78849.0,0.0,0.0,0.0,0.0,0.25,0.8312987430000001,0.01,0.0,-87874.0,0.125,0.0,-0.0,0.0,0.125,0.531005805,0.01,0.0,71379.0,3.5,0.0,0.0,0.0,0.0,3.339843408,0.01,0.0,-63453.0,0.375,0.0,-0.0,0.0,0.25,1.649169753,0.01,0.0,0.25999999046325684,-0.5099999904632568,48.41999816894531,-0.011474609375,0.003173828125,1.02398681640625,35.970001220703125,0.0,-2.0,-4.817352294921875,-0.25390625,Opening,0.0,0.0,-189.0,0.0,0.0,0.0,0.0,0.0,
16.640422000000022,0.0,0.0,78849.0,0.0,0.0,0.0,0.0,0.25,0.836181555,0.01,0.0,-87874.0,0.125,0.0,-0.0,0.0,0.125,0.531005805,0.01,0.0,71379.0,3.5,0.0,0.0,0.0,0.0,3.339843408,0.01,0.0,-63453.0,0.375,0.0,-0.0,0.0,0.25,1.650390456,0.01,0.0,0.25999999046325684,-0.5099999904632568,48.41999816894531,-0.01019287109375,0.00360107421875,1.0167236328125,35.970001220703125,0.0,-1.0,-4.817352294921875,-0.25390625,Opening,0.0,0.0,-189.0,0.0,0.0,0.0,0.0,0.0,
16.763076,0.0,0.0,78849.0,0.0,0.0,0.0,0.0,0.125,0.837402258,0.01,0.0,-87874.0,0.125,0.0,-0.0,0.0,0.125,0.532226508,0.01,0.0,71379.0,3.5,0.0,0.0,0.0,0.0,3.339843408,0.01,0.0,-63453.0,0.375,0.0,-0.0,0.0,0.25,1.641845535,0.01,0.0,0.25999999046325684,-0.5099999904632568,48.40999984741211,-0.01043701171875,0.00274658203125,1.02435302734375,35.970001220703125,0.0,-2.0,-4.817352294921875,-0.25390625,Opening,0.0,0.0,-189.0,0.0,0.0,0.0,0.0,0.0,
16.899608999999998,0.0,0.0,78849.0,0.0,0.0,0.0,0.0,0.125,0.836181555,0.01,0.0,-87874.0,0.125,0.0,-0.0,0.0,0.125,0.526122993,0.01,0.0,71379.0,3.5,0.0,0.0,0.0,0.0,3.341064111,0.01,0.0,-63453.0,0.375,0.0,-0.0,0.0,0.25,1.650390456,0.01,0.0,0.25999999046325684,-0.5099999904632568,48.40999984741211,-0.00830078125,0.00299072265625,1.02410888671875,35.970001220703125,0.0,0.0,-4.817352294921875,-0.25390625,Opening,0.0,0.0,-189.0,0.0,0.0,0.0,0.0,0.0,
17.03244100000005,0.0,0.0,78849.0,0.0,0.0,0.0,0.0,0.25,0.836181555,0.01,0.0,-87874.0,0.125,0.0,-0.0,0.0,0.125,0.532226508,0.01,0.0,71379.0,3.5,0.0,0.0,0.0,0.0,3.339843408,0.01,0.0,-63453.0,0.375,0.0,-0.0,0.0,0.25,1.650390456,0.01,0.0,0.25999999046325684,-0.5099999904632568,48.40999984741211,-0.0076904296875,0.0032958984375,1.02093505859375,35.970001220703125,0.0,0.0,-4.817352294921875,-0.25390625,Opening,0.0,0.0,-189.0,0.0,0.0,0.0,0.0,0.125,
17.158739,0.0,0.0,78849.0,0.0,0.0,0.0,0.0,0.25,0.837402258,0.01,0.0,-87874.0,0.125,0.0,-0.0,0.0,0.125,0.5407714290000001,0.01,0.0,71379.0,3.5,0.0,0.0,0.0,0.0,3.341064111,0.01,0.0,-63453.0,0.375,0.0,-0.0,0.0,0.25,1.650390456,0.01,0.0,0.25999999046325684,-0.5099999904632568,48.40999984741211,-0.00787353515625,0.00457763671875,1.01934814453125,35.970001220703125,0.0,0.0,-4.817352294921875,-0.25390625,Opening,0.0,0.0,-189.0,0.0,0.0,0.0,0.0,0.0,
