Time,ClimberA1,ClimberA2,FRpos,FRCurrent,FRspeed,FRsetpoint,FRApos,FRACurrent,FREncpos,FREncSetpoint,FREncSpeed,FLpos,FLCurrent,FLspeed,FLsetpoint,FLApos,FLACurrent,FLEncpos,FLEncSetpoint,FLEncSpeed,BRpos,BRCurrent,BRspeed,BRsetpoint,BRApos,BRACurrent,BREncpos,BREncSetpoint,BREncSpeed,BLpos,BLCurrent,BLspeed,BLsetpoint,BLApos,BLACurrent,BLEncpos,BLEncSetpoint,BLEncSpeed,navx_Pitch,navx_Roll,navx_Yaw,navx_XAcc,navx_YAcc,navx_ZAcc,navx_Temp,navx_Bar,navx_Alt,navx_XDis,navx_YDis,GearPlacerState,ShootOutputV,ShootOutputCurrent,ShootEncPos,ShootEncVelocity,ShootSpeed,ShootSetpoint,CarouselSetpoint,CarouselCurrent,
0.21504099999999743,0.0,0.0,62404.0,0.0,0.0,0.0,0.0,0.25,0.7897948410000001,0.01,0.0,-49592.0,0.0,0.0,0.0,0.0,0.125,0.52490229,0.01,0.0,50702.0,0.0,0.0,0.0,0.0,0.0,3.330077784,0.01,0.0,-27332.0,0.0,0.0,0.0,0.0,0.25,1.6027830390000002,0.01,0.0,0.12999999523162842,-0.8799999952316284,115.66999816894531,-0.0174560546875,0.001708984375,1.02508544921875,35.599998474121094,0.0,0.0,-2.248809814453125,-3.0485382080078125,Closing,0.0,0.0,-189.0,0.0,0.0,0.0,0.0,0.0,
0.32557699999999024,0.0,0.0,62430.0,2.75,172.5,840.0,0.0,0.25,0.7788085140000001,0.01,0.0,-49615.0,5.75,-165.0,-840.0,0.0,0.0,0.5297851020000001,0.01,0.0,50713.0,4.125,75.0,840.0,0.0,0.0,3.3105465360000004,0.01,0.0,-27348.0,2.875,-157.5,-840.0,0.0,0.25,1.627197099,0.01,0.0,0.10000000149011612,-0.3700000047683716,115.70999908447266,0.12982177734375,0.08245849609375,1.10528564453125,35.599998474121094,0.0,13.0,-2.2503204345703125,-3.0499420166015625,Closing,0.0,0.0,-189.0,0.0,0.0,0.0,0.0,0.0,
0.442622000000003,0.0,0.0,62474.0,4.125,210.0,840.0,0.0,0.25,0.7775878110000001,0.01,0.0,-49657.0,8.125,-255.0,-840.0,0.0,0.125,0.5297851020000001,0.01,0.0,50744.0,5.25,187.5,840.0,0.0,0.0,3.3154293480000003,0.01,0.0,-27385.0,4.125,-247.5,-840.0,0.0,0.125,1.646728347,0.01,0.0,0.05999999865889549,0.3400000035762787,115.75,0.1650390625,-0.04547119140625,0.98583984375,35.599998474121094,0.0,-111.0,-2.2609405517578125,-3.0621185302734375,Closing,0.0,0.0,-189.0,0.0,0.0,0.0,0.0,0.0,
0.5463710000000137,0.0,0.0,62556.0,4.25,472.5,840.0,0.0,0.25,0.7788085140000001,0.01,0.0,-49744.0,7.125,-547.5,-840.0,0.0,0.125,0.5297851020000001,0.01,0.0,50810.0,5.625,472.5,840.0,0.0,0.0,3.3251949720000002,0.01,0.0,-27456.0,4.25,-487.5,-840.0,0.0,0.25,1.646728347,0.01,0.0,0.12999999523162842,1.0399999618530273,115.77999877929688,0.0848388671875,-0.0013427734375,1.105224609375,35.599998474121094,0.0,-31.0,-2.278778076171875,-3.0882720947265625,Closing,0.0,0.0,-189.0,0.0,0.0,0.0,0.0,0.0,
0.6749029999999911,0.0,0.0,62556.0,3.625,660.0,840.0,0.0,0.25,0.7788085140000001,0.01,-0.0012207029999995456,-49862.0,5.25,-720.0,-840.0,0.0,0.125,0.5297851020000001,0.01,0.0,50907.0,5.0,607.5,840.0,0.0,0.0,3.330077784,0.01,0.0,-27562.0,3.375,-690.0,-840.0,0.0,0.25,1.645507644,0.01,0.0,0.14000000059604645,1.409999966621399,115.70999908447266,0.01141357421875,-0.04541015625,1.00762939453125,35.599998474121094,0.0,-37.0,-2.2964324951171875,-3.1171112060546875,Closing,0.0,0.0,-189.0,0.0,0.0,0.0,0.0,0.0,
0.7941100000000151,0.0,0.0,62802.0,2.625,810.0,840.0000000000001,0.0,0.25,0.7788085140000001,0.01,0.0,-50000.0,3.25,-847.5,-840.0000000000001,0.0,0.125,0.5297851020000001,0.01,0.0,50991.0,6.75,532.5,840.0000000000001,0.0,0.0,3.330077784,0.01,0.0,-27686.0,2.875,-795.0,-840.0000000000001,0.0,0.25,1.645507644,0.01,0.0,0.23999999463558197,1.4600000381469727,115.58000183105469,0.03521728515625,0.001953125,1.2430419921875,35.599998474121094,0.0,-4.0,-2.31048583984375,-3.1479949951171875,Closing,0.0,0.0,-189.0,0.0,0.0,0.0,0.0,0.0,
0.930137000000017,0.0,0.0,62947.0,1.625,900.0,840.0,0.0,0.25,0.780029217,4.930743914943314,0.0,-50147.0,2.0,-915.0,-840.0,0.0,0.125,0.527343696,4.96225328408432,0.0,51115.0,5.125,750.0,840.0,0.0,0.0,3.330077784,4.938890424957275,0.0,-27822.0,1.875,-870.0,-840.0,0.0,0.25,1.645507644,4.956485047149658,0.0,0.30000001192092896,1.4500000476837158,115.44999694824219,0.07891845703125,-0.02972412109375,0.8311767578125,35.599998474121094,0.0,32.0,-2.3104400634765625,-3.1838836669921875,Closing,0.0,0.0,-189.0,0.0,0.0,0.0,0.0,0.0,
1.0475249999999943,0.0,0.0,63099.0,0.75,945.0,840.0,0.0,0.25,0.7788085140000001,4.928825825694445,0.0,-50296.0,1.125,-922.5,-840.0,0.0,0.25,0.5297851020000001,4.9603229375,0.0,51209.0,7.75,622.5,840.0,0.0,0.0,3.328857081,4.936969166666667,0.0,-27958.0,2.5,-787.5,-840.0,0.0,0.25,1.646728347,4.954556944444445,0.0,0.5199999809265137,1.440000057220459,115.12999725341797,0.0013427734375,-0.019775390625,1.0787353515625,35.52000045776367,0.0,-15.0,-2.3078460693359375,-3.22113037109375,Closing,0.0,0.0,-189.0,0.0,0.0,0.0,0.0,0.0,
1.1926009999999951,0.0,0.0,63252.0,0.5,952.5,840.0,0.0,0.125,0.7788085140000001,4.924304570524385,0.0,-50443.0,0.875,-922.5,-840.0,0.0,0.25,0.5297851020000001,4.95577278975296,0.0,51329.0,7.5,675.0,840.0,0.0,0.0,3.330077784,4.9324404415384935,0.0,-28097.0,1.875,-900.0,-840.0,0.0,0.25,1.646728347,4.950012085893419,0.0,0.6100000143051147,1.2300000190734863,114.87000274658203,0.00762939453125,0.05096435546875,1.157958984375,35.52000045776367,0.0,42.0,-2.3032989501953125,-3.249908447265625,Closing,0.0,0.0,-189.0,0.0,0.0,0.0,0.0,0.0,
1.3043790000000153,0.0,0.0,63401.0,0.375,930.0,840.0,0.0,0.125,0.7788085140000001,4.920742464506786,0.0,-50590.0,0.5,-900.0,-840.0,0.0,0.25,0.5297851020000001,4.9521879204940795,0.0,51430.0,9.125,855.0,840.0,0.0,0.0,3.331298487,4.928872450256348,0.0,-28238.0,1.375,-877.5,-840.0,0.0,0.25,1.646728347,4.946431383768718,0.0,0.7099999785423279,1.100000023841858,114.43000030517578,-0.129150390625,-0.1204833984375,0.80706787109375,35.52000045776367,0.0,-59.0,-2.2926177978515625,-3.2895660400390625,Closing,0.0,0.0,-189.0,0.0,0.0,0.0,0.0,0.0,
1.4565510000000068,0.0,0.0,63548.0,0.375,907.5,840.0,0.0,0.125,0.780029217,4.915262164712291,0.0,-50735.0,0.5,-900.0,-840.0,0.0,0.25,0.523681587,4.94667259945488,0.0,51568.0,8.875,697.5,840.0,0.0,0.0,3.330077784,4.92338309598287,0.0,-28380.0,1.25,-892.5,-840.0,0.0,0.25,1.6357420200000001,4.940922473865085,0.0,0.5799999833106995,0.8600000143051147,114.16999816894531,-0.03057861328125,-0.0494384765625,0.929931640625,35.52000045776367,0.0,-35.0,-2.283905029296875,-3.3129425048828125,Closing,0.0,0.0,-189.0,0.0,0.0,0.0,0.0,0.0,
1.55806700000001,0.0,0.0,63688.0,0.375,870.0,840.0,0.0,0.125,0.782470623,4.911699954166667,0.0,-50877.0,0.5,-855.0,-840.0,0.0,0.25,0.5151366660000001,4.943087625,0.0,51664.0,12.625,682.5,840.0,0.0,0.0,3.337402002,4.919815,0.0,-28521.0,1.0,-877.5,-840.0,0.0,0.25,1.618652178,4.937341666666667,0.0,0.6499999761581421,0.6499999761581421,113.73999786376953,0.0128173828125,-0.0648193359375,1.29327392578125,35.52000045776367,0.0,-72.0,-2.2725830078125,-3.3389434814453125,Closing,0.0,0.0,-189.0,0.0,0.0,0.0,0.0,0.0,
1.690347000000009,0.0,0.0,63829.0,0.375,885.0,840.0,0.0,0.125,0.780029217,4.90580865017999,0.0,-51014.0,0.5,-855.0,-840.0,0.0,0.25,0.5151366660000001,4.93715867329216,0.0,51747.0,20.375,450.0,840.0,0.0,0.0,3.330077784,4.913913962478638,0.0,-28663.0,1.0,-877.5,-840.0,0.0,0.25,1.625976396,4.931419606908163,0.0,0.5400000214576721,0.47999998927116394,113.2300033569336,-0.11199951171875,-0.1063232421875,1.357666015625,35.47999954223633,0.0,-60.0,-2.261688232421875,-3.3400726318359375,Closing,0.0,0.0,-189.0,0.0,0.0,0.0,0.0,0.0,
1.8179519999999902,0.0,0.0,63977.0,0.125,945.0,840.0,0.0,0.125,0.7788085140000001,4.898821369856835,0.0,-51150.0,0.375,-855.0,-840.0,0.0,0.25,0.510253854,4.93012674153328,0.0,51840.0,18.25,765.0,840.0,0.0,0.0,3.330077784,4.90691513786316,0.0,-28945.0,0.75,-877.5,-840.0,0.0,0.25,1.621093584,4.924395849227905,0.0,0.6100000143051147,0.5400000214576721,112.70999908447266,-0.05706787109375,-0.025634765625,1.113525390625,35.47999954223633,0.0,-8.0,-2.25189208984375,-3.3387298583984375,Closing,0.0,0.0,-189.0,0.0,0.0,0.0,0.0,0.0,
1.9514930000000168,0.0,0.0,64129.0,0.375,952.5,840.0,0.0,0.125,0.780029217,4.89087494038122,0.0,-51431.0,0.25,-870.0,-840.0,0.0,0.25,0.510253854,4.92212953128624,0.0,52103.0,18.5,885.0,840.0,0.0,0.125,3.328857081,4.898955579401652,0.0,-29084.0,0.75,-870.0,-840.0,0.0,0.25,1.622314287,4.916407935121324,0.0,0.44999998807907104,0.36000001430511475,111.94999694824219,-0.03546142578125,0.0616455078125,0.8980712890625,35.47999954223633,0.0,65.0,-2.2448272705078125,-3.3356781005859375,Closing,0.0,0.0,-189.0,0.0,0.0,0.0,0.0,0.0,
2.091668000000005,0.0,0.0,64282.0,0.125,945.0,840.0,0.0,0.125,0.78124992,4.88128438960885,0.0,-51570.0,0.25,-870.0,-840.0,0.0,0.25,0.50048823,4.91247769316864,0.0,52238.0,16.625,862.5,840.0,0.0,0.125,3.328857081,4.889349183247885,0.0,-29220.0,0.75,-847.5,-840.0,0.0,0.25,1.597900227,4.906767316521538,0.0,0.7400000095367432,0.23000000417232513,111.26000213623047,-0.09326171875,-0.0079345703125,1.032958984375,35.400001525878906,0.0,15.0,-2.24127197265625,-3.33331298828125,Closing,0.0,0.0,-189.0,0.0,0.0,0.0,0.0,0.0,
2.209798999999999,0.0,0.0,64433.0,0.125,930.0,840.0,0.0,0.25,0.798339762,4.871830979604573,0.0,-51706.0,0.25,-847.5,-840.0,0.0,0.25,0.47607417,4.902963872201919,0.0,52321.0,22.125,495.0,840.0,0.0,0.125,3.3166500510000003,4.879880154444376,0.0,-29355.0,1.0,-832.5,-840.0,0.0,0.25,1.588134603,4.897264554638332,0.0,0.7799999713897705,0.10000000149011612,110.63999938964844,-0.00628662109375,-0.034423828125,0.92742919921875,35.400001525878906,0.0,-41.0,-2.24127197265625,-3.3320770263671875,Closing,0.0,0.0,-189.0,0.0,0.0,0.0,0.0,0.0,
2.3321670000000156,0.0,0.0,64583.0,0.125,967.5,839.9999999999999,0.0,0.25,0.794677653,4.861966460880089,0.0,-51845.0,0.125,-862.5,-839.9999999999999,0.0,0.25,0.46142573400000003,4.893036315370559,0.0,52428.0,26.25,607.5,839.9999999999999,0.0,0.125,3.291015288,4.869999337692261,0.0,-29488.0,1.0,-840.0,-839.9999999999999,0.0,0.25,1.573486167,4.887348537826538,0.0,0.6700000166893005,0.11999999731779099,109.5,0.0992431640625,-0.01947021484375,0.68902587890625,35.400001525878906,0.0,-58.0,-2.2413787841796875,-3.33001708984375,Closing,0.0,0.0,-189.0,0.0,0.0,0.0,0.0,0.0,
2.470119000000006,0.0,0.0,64738.0,1.625,922.5,0.0,0.0,0.125,0.7885741380000001,0.01,0.0,-51961.0,1.0,-787.5,-0.0,0.0,0.25,0.462646437,0.01,0.0,52577.0,11.125,930.0,0.0,0.0,0.0,3.289794585,0.01,-0.019531247999999835,-29612.0,0.125,-787.5,-0.0,0.0,0.25,1.563720543,0.01,0.0,0.75,-0.6700000166893005,108.5999984741211,-0.33514404296875,0.0233154296875,1.0458984375,35.400001525878906,0.0,112.0,-2.239105224609375,-3.3252105712890625,Closing,0.0,0.0,-189.0,0.0,0.0,0.0,0.0,0.0,
2.588054999999993,0.0,0.0,64871.0,3.0,592.5,0.0,0.0,0.25,0.786132732,0.01,0.0,-52034.0,2.0,-502.5,-0.0,0.0,0.25,0.46630854600000005,0.01,0.0,52671.0,4.5,667.5,0.0,0.0,0.125,3.3215328630000003,0.01,0.0,-29691.0,0.25,-480.0,-0.0,0.0,0.25,1.5783689790000002,0.01,0.0,0.9100000262260437,-1.940000057220459,107.97000122070312,-0.2728271484375,-6.103515625E-4,1.214111328125,35.400001525878906,0.0,52.0,-2.2271575927734375,-3.3032684326171875,Closing,0.0,0.0,-189.0,0.0,0.0,0.0,0.0,0.0,
2.689304999999993,0.0,0.0,64944.0,1.625,217.5,0.0,0.0,0.25,0.7885741380000001,0.01,0.0,-52062.0,1.25,-202.5,-0.0,0.0,0.25,0.46630854600000005,0.01,0.0,52706.0,7.875,255.0,0.0,0.0,0.0,3.330077784,0.01,0.0,-29724.0,0.25,-225.0,-0.0,0.0,0.25,1.6076658510000001,0.01,0.0,0.8799999952316284,-2.7699999809265137,107.83000183105469,-0.16497802734375,0.0361328125,1.0733642578125,35.400001525878906,0.0,53.0,-2.2083892822265625,-3.2646331787109375,Closing,0.0,0.0,-189.0,0.0,0.0,0.0,0.0,0.0,
2.810581999999995,0.0,0.0,64966.0,1.25,30.0,0.0,0.0,0.25,0.7751464050000001,0.01,0.0,-52064.0,0.5,-15.0,-0.0,0.0,0.25,0.46630854600000005,0.01,0.0,52709.0,13.125,22.5,0.0,0.0,0.0,3.330077784,0.01,0.0,-29727.0,0.125,-15.0,-0.0,0.0,0.25,1.612548663,0.01,0.0,0.8500000238418579,-2.809999942779541,107.83999633789062,0.0335693359375,-0.0101318359375,1.04248046875,35.400001525878906,0.0,-50.0,-2.20318603515625,-3.219390869140625,Closing,0.0,0.0,-189.0,0.0,0.0,0.0,0.0,0.0,
2.941225000000006,0.0,0.0,64966.0,1.0,0.0,0.0,0.0,0.25,0.7885741380000001,0.01,0.0,-52065.0,0.25,0.0,-0.0,0.0,0.25,0.47607417,0.01,0.0,52709.0,14.625,0.0,0.0,0.0,0.0,3.330077784,0.01,0.0,-29727.0,0.125,0.0,-0.0,0.0,0.125,1.612548663,0.01,0.0,0.7900000214576721,-2.5999999046325684,107.8499984741211,-0.026123046875,0.0111083984375,1.0247802734375,35.400001525878906,0.0,-9.0,-2.2046661376953125,-3.1874847412109375,Closing,0.0,0.0,-189.0,0.0,0.0,0.0,0.0,0.0,
3.0772690000000003,0.0,0.0,64966.0,0.75,0.0,0.0,0.0,0.25,0.7897948410000001,0.01,0.0,-52065.0,0.25,0.0,-0.0,0.0,0.25,0.47851557600000005,0.01,0.0,52709.0,14.625,0.0,0.0,0.0,0.0,3.330077784,0.01,0.0,-29727.0,0.125,0.0,-0.0,0.0,0.125,1.6113279600000001,0.01,0.0,0.7400000095367432,-2.4000000953674316,107.8499984741211,-0.03125,0.01214599609375,1.01715087890625,35.400001525878906,0.0,-4.0,-2.205230712890625,-3.188934326171875,Closing,0.0,0.0,-189.0,0.0,0.0,0.0,0.0,0.0,
3.191950000000012,0.0,0.0,64969.0,0.125,22.5,420.0,0.0,2.25,0.96435537,0.5498168668524888,0.0,-52077.0,0.125,-82.5,-420.0,0.0,4.75,0.9228514680000001,1.9285545897722227,0.0,52712.0,21.875,22.5,420.0,0.0,1.5,3.066405936,4.389674732977289,0.0,-29727.0,0.75,0.0,-420.0,0.0,3.0,1.177978395,3.0316872062785585,0.0,0.6600000262260437,-2.0199999809265137,107.83000183105469,0.09588623046875,0.06298828125,0.90826416015625,35.400001525878906,0.0,10.0,-2.206024169921875,-3.193878173828125,Closing,0.0,0.0,-189.0,0.0,0.0,0.0,0.0,0.0,
3.3137179999999935,0.0,0.0,64993.0,0.0,90.0,420.0,0.0,0.5,1.333007676,0.5498168668524888,0.0,-52106.0,0.125,-180.0,-420.0,0.0,1.5,1.722411933,1.9285545897722227,0.0,52739.0,20.25,157.5,420.0,0.0,0.125,2.784423543,4.389674732977289,0.0,-29736.0,1.625,-75.0,-420.0,0.0,1.75,0.40283199000000003,3.0316872062785585,0.0,0.5799999833106995,-1.659999966621399,107.4000015258789,0.05242919921875,0.0194091796875,1.08966064453125,35.400001525878906,0.0,-17.0,-2.2079925537109375,-3.2052459716796875,Closing,0.0,0.0,-189.0,0.0,0.0,0.0,0.0,0.0,
3.4456639999999896,0.0,0.0,65031.0,0.125,232.5,420.0,0.0,0.125,1.411132668,0.5498168668524888,0.0,-52144.0,0.5,-240.0,-420.0,0.0,0.5,2.564697003,1.9285545897722227,0.0,52801.0,18.25,367.5,420.0,0.0,0.0,2.618407935,4.389674732977289,0.0,-29764.0,1.625,-187.5,-420.0,0.0,0.875,4.520263209,3.0316872062785585,0.0,0.5699999928474426,-1.809999942779541,105.0199966430664,-0.1290283203125,0.0169677734375,1.0596923828125,35.400001525878906,0.0,37.0,-2.2115478515625,-3.2201690673828125,Closing,0.0,0.0,-189.0,0.0,0.0,0.0,0.0,0.0,
3.5498850000000095,0.0,0.0,65072.0,0.125,255.0,420.0,0.0,0.25,1.3952635290000002,0.5498168668524888,0.0,-52195.0,0.375,-360.0,-420.0,0.0,0.25,2.829589554,1.9285545897722227,0.0,52864.0,19.125,352.5,420.0,0.0,0.25,2.6977536300000002,4.389674732977289,0.0,-29808.0,2.375,-187.5,-420.0,0.0,0.25,4.306640184,3.0316872062785585,0.0,0.7400000095367432,-1.9800000190734863,100.37999725341797,0.09918212890625,0.0806884765625,1.064453125,35.400001525878906,0.0,41.0,-2.2117462158203125,-3.2269744873046875,Closing,0.0,0.0,-189.0,0.0,0.0,0.0,0.0,0.0,
3.693420000000013,0.0,0.0,65105.0,0.125,195.0,420.0,0.0,0.25,1.363525251,0.5498168668524888,0.0,-52237.0,1.25,-240.0,-420.0,0.0,0.875,2.702636442,1.9285545897722227,0.0,52894.0,23.875,165.0,420.0,0.0,0.125,2.760009483,4.389674732977289,0.0,-29856.0,2.25,-360.0,-420.0,0.0,0.75,4.533690942000001,3.0316872062785585,0.0,0.7099999785423279,-1.8600000143051147,98.69999694824219,-0.0113525390625,0.0487060546875,1.01702880859375,35.459999084472656,0.0,32.0,-2.21173095703125,-3.2303009033203125,Closing,0.0,0.0,-189.0,0.0,0.0,0.0,0.0,0.0,
3.8092209999999906,0.0,0.0,65128.0,0.75,135.0,420.0,0.0,0.125,1.362304548,0.5498168668524888,0.0,-52264.0,3.25,-210.0,-420.0,0.0,0.25,2.447509515,1.9285545897722227,0.0,52905.0,33.5,60.0,420.0,0.0,0.0,2.766112998,4.389674732977289,0.0,-29889.0,2.75,-247.5,-420.0,0.0,0.25,4.707030768,3.0316872062785585,0.0,0.7099999785423279,-1.659999966621399,96.30000305175781,0.0654296875,0.03515625,1.0303955078125,35.459999084472656,0.0,11.0,-2.210479736328125,-3.233062744140625,Closing,0.0,0.0,-189.0,0.0,0.0,0.0,0.0,0.0,
3.9477470000000032,0.0,0.0,65184.0,0.375,390.0,420.0,0.0,0.125,1.361083845,0.5498168668524888,0.0,-52319.0,1.25,-442.5,-420.0,0.0,0.0,2.283935313,1.9285545897722227,0.0,52946.0,24.25,502.5,420.0,0.0,0.0,2.766112998,4.389674732977289,0.0,-29950.0,1.625,-495.0,-420.0,0.0,0.25,4.7082514710000005,3.0316872062785585,0.0,0.8399999737739563,-1.090000033378601,88.88999938964844,-0.006591796875,9.765625E-4,0.9683837890625,35.459999084472656,0.0,-13.0,-2.2089691162109375,-3.2440032958984375,Closing,0.0,0.0,-189.0,0.0,0.0,0.0,0.0,0.0,
4.089182000000001,0.0,0.0,65265.0,0.125,637.5,420.0,0.0,0.125,1.357421736,0.5498168668524888,0.0,-52400.0,0.25,-555.0,-420.0,0.0,0.25,2.259521253,1.9285545897722227,0.0,53052.0,13.625,787.5,420.0,0.0,0.0,2.762450889,4.389674732977289,0.0,-30039.0,0.625,-607.5,-420.0,0.0,0.25,4.665526866,3.0316872062785585,0.0,1.0299999713897705,-0.8100000023841858,79.22000122070312,-0.07177734375,0.08819580078125,1.08892822265625,35.459999084472656,0.0,56.0,-2.208770751953125,-3.25738525390625,Closing,0.0,0.0,-189.0,0.0,0.0,0.0,0.0,0.0,
4.219383999999991,0.0,0.0,65387.0,0.0,772.5,420.0,0.0,0.125,1.357421736,0.5498168668524888,0.0,-52588.0,0.0,-600.0,-420.0,0.0,0.25,2.410888425,1.9285545897722227,0.0,53315.0,8.375,825.0,420.0,0.0,0.0,2.764892295,4.389674732977289,0.0,-30231.0,0.375,-585.0,-420.0,0.0,0.125,4.645995618000001,3.0316872062785585,0.0,1.0499999523162842,-0.5899999737739563,69.2300033569336,-0.0294189453125,-0.05841064453125,1.00885009765625,35.45000076293945,0.0,-78.0,-2.2079010009765625,-3.2598114013671875,Closing,0.0,0.0,-189.0,0.0,0.0,0.0,0.0,0.0,
4.356788000000001,0.0,0.0,65603.0,0.125,637.5,420.0,0.0,0.125,1.350097518,0.5498168668524888,0.0,-52681.0,0.0,-585.0,-420.0,0.0,0.125,2.4780270900000003,1.9285545897722227,0.0,53431.0,6.875,720.0,420.0,0.0,0.0,2.767333701,4.389674732977289,0.0,-30331.0,0.375,-622.5,-420.0,0.0,0.125,4.645995618000001,3.0316872062785585,0.0,0.8600000143051147,-0.6399999856948853,58.290000915527344,0.01055908203125,-0.01422119140625,0.99609375,35.45000076293945,0.0,-13.0,-2.21563720703125,-3.2558746337890625,Closing,0.0,0.0,-189.0,0.0,0.0,0.0,0.0,0.0,
4.525124000000011,0.0,0.0,65687.0,0.0,532.5,420.0,0.0,0.125,1.361083845,0.5498168668524888,0.0,-52761.0,0.0,-495.0,-420.0,0.0,0.25,2.471923575,1.9285545897722227,0.0,53519.0,7.875,532.5,420.0,0.0,0.0,2.766112998,4.389674732977289,0.0,-30418.0,0.375,-532.5,-420.0,0.0,0.125,4.645995618000001,3.0316872062785585,0.0,0.8600000143051147,-0.47999998927116394,52.65999984741211,-0.0206298828125,-0.0838623046875,1.07568359375,35.45000076293945,0.0,-86.0,-2.2227325439453125,-3.2535858154296875,Closing,0.0,0.0,-189.0,0.0,0.0,0.0,0.0,0.0,
4.646668000000005,0.0,0.0,65744.0,1.375,352.5,0.0,0.0,1.875,1.1914061280000001,0.01,0.0,-52826.0,0.625,-367.5,-0.0,0.0,9.5,2.149657983,0.01,0.0,53596.0,3.375,435.0,0.0,0.0,2.625,3.023681331,0.01,0.0,-30493.0,0.125,-457.5,-0.0,0.0,7.375,0.104980458,0.01,0.0,0.7400000095367432,-0.5400000214576721,46.959999084472656,0.02081298828125,-0.0218505859375,0.9798583984375,35.47999954223633,0.0,-4.0,-2.234222412109375,-3.2507476806640625,Closing,0.0,0.0,-189.0,0.0,0.0,0.0,0.0,0.0,
4.755755000000005,0.0,0.0,65770.0,1.25,157.5,0.0,0.0,0.5,0.7885741380000001,0.01,0.0,-52842.0,0.125,-52.5,-0.0,0.0,1.5,1.129150275,0.01,0.0,53619.0,4.75,67.5,0.0,0.0,0.5,3.455810193,0.01,0.0,-30537.0,0.125,-142.5,-0.0,0.0,1.625,1.153564335,0.01,0.0,0.8299999833106995,-0.47999998927116394,45.619998931884766,-0.02734375,-0.02630615234375,1.06634521484375,35.47999954223633,0.0,-42.0,-2.24755859375,-3.25018310546875,Closing,0.0,0.0,-189.0,0.0,0.0,0.0,0.0,0.0,
4.909032000000007,0.0,0.0,65774.0,0.75,15.0,0.0,0.0,0.375,0.6872557890000001,0.01,0.0,-52842.0,0.0,0.0,-0.0,0.0,0.25,0.44799800100000003,0.01,0.0,53620.0,5.125,0.0,0.0,0.0,0.125,3.493651986,0.01,0.0,-30546.0,0.0,-37.5,-0.0,0.0,0.375,1.7907713010000001,0.01,0.0,0.7300000190734863,-0.5199999809265137,45.59000015258789,-0.00299072265625,-0.01336669921875,1.02838134765625,35.47999954223633,0.0,-14.0,-2.2545318603515625,-3.25054931640625,Closing,0.0,0.0,-189.0,0.0,0.0,0.0,0.0,0.0,
5.04257699999999,0.0,0.0,65774.0,0.625,0.0,8.4,0.0,0.25,0.782470623,4.931565975591692,0.0,-52842.0,0.0,0.0,-8.4,0.0,0.25,0.418701129,4.9630805980196,0.0,53622.0,5.875,7.5,8.4,0.0,0.125,3.3679195770000003,4.939713843803406,0.0,-30551.0,0.125,-7.5,-8.4,0.0,0.25,1.722411933,4.957311399396261,0.0,0.7200000286102295,-0.5299999713897705,45.61000061035156,-0.00335693359375,0.00274658203125,1.010986328125,35.47999954223633,0.0,-2.0,-2.2545318603515625,-3.2508697509765625,Closing,0.0,0.0,-189.0,0.0,0.0,0.0,0.0,0.0,
5.156431000000011,0.0,0.0,65774.0,0.625,0.0,8.4,0.0,0.25,0.821533119,4.931839995807818,0.0,-52842.0,0.0,0.0,-8.4,0.0,0.25,0.46630854600000005,4.96335636933136,0.0,53625.0,7.75,15.0,8.4,0.0,0.125,3.3251949720000002,4.939988316752116,0.0,-30550.0,0.125,0.0,-8.4,0.0,0.25,1.6369627230000001,4.957586850145128,0.0,0.6800000071525574,-0.5600000023841858,45.63999938964844,-0.01971435546875,0.0089111328125,1.0208740234375,35.4900016784668,0.0,-9.0,-2.2545928955078125,-3.2509307861328125,Closing,0.0,0.0,-189.0,0.0,0.0,0.0,0.0,0.0,
5.295141000000004,0.0,0.0,65775.0,0.625,0.0,0.0,0.0,0.125,0.821533119,0.01,0.0,-52842.0,0.0,0.0,-0.0,0.0,0.25,0.48583979400000005,0.01,0.0,53627.0,8.125,0.0,0.0,0.0,0.0,3.3264156750000002,0.01,0.0,-30550.0,0.125,0.0,-0.0,0.0,0.125,1.597900227,0.01,0.0,0.6399999856948853,-0.6000000238418579,45.63999938964844,-0.01092529296875,0.01361083984375,1.015380859375,35.4900016784668,0.0,1.0,-2.2548065185546875,-3.2509307861328125,Closing,0.0,0.0,-189.0,0.0,0.0,0.0,0.0,0.0,
5.4557250000000055,0.0,0.0,65775.0,0.375,105.0,840.0,0.0,0.125,0.822753822,0.01,0.0,-52877.0,4.375,-187.5,-840.0,0.0,0.125,0.495605418,0.01,0.0,53634.0,24.875,15.0,840.0,0.0,0.0,3.3105465360000004,0.01,0.0,-30575.0,2.5,-135.0,-840.0,0.0,0.25,1.594238118,0.01,0.0,0.6399999856948853,-0.07000000029802322,45.63999938964844,0.26104736328125,0.04541015625,1.1485595703125,35.4900016784668,0.0,206.0,-2.25152587890625,-3.2528228759765625,Closing,0.0,0.0,-189.0,0.0,0.0,0.0,0.0,0.0,
5.656266999999993,0.0,0.0,65868.0,0.875,465.0,919.3576703841334,0.0,0.75,0.716552661,4.6036967236706605,0.0,-52927.0,8.25,-480.0,-919.3576703841334,0.0,0.25,0.3662109,4.63311613420621,0.0,53752.0,28.125,405.0,919.3576703841334,0.0,0.125,3.1005856200000004,4.6113028906319915,0.0,-30706.0,4.5,-495.0,-919.3576703841334,0.0,0.5,1.390380717,4.627730493837222,0.0,0.3700000047683716,1.590000033378601,45.29999923706055,0.114013671875,-0.09051513671875,0.97442626953125,35.52000045776367,0.0,-7.0,-2.2192230224609375,-3.2823028564453125,Closing,0.0,0.0,-189.0,0.0,0.0,0.0,0.0,0.0,
5.853258000000002,0.0,0.0,66089.0,0.375,742.5,897.1664866269597,0.0,0.25,0.339355434,4.650511320716419,0.0,-53146.0,5.5,-787.5,-897.1664866269597,0.0,0.125,0.075683586,4.680229894713902,0.0,53897.0,21.125,960.0,897.1664866269597,0.0,0.25,2.886962595,4.65819483413707,0.0,-30824.0,3.25,-765.0,-897.1664866269597,0.0,0.375,1.174316286,4.67478948823002,0.0,-0.949999988079071,1.7000000476837158,44.38999938964844,0.10333251953125,-0.35986328125,0.91607666015625,35.52000045776367,0.0,-186.0,-2.225433349609375,-3.3268585205078125,Closing,0.0,0.0,-189.0,0.0,0.0,0.0,0.0,0.0,
5.995323000000004,0.0,0.0,66247.0,0.125,1027.5,926.8225307386338,0.0,0.375,0.40161128700000004,4.58976067234086,0.0,-53300.0,1.5,-1042.5,-926.8225307386338,0.0,0.25,0.11840819100000001,4.619091026094453,0.0,54062.0,15.625,1035.0,926.8225307386338,0.0,0.125,2.9589840720000002,4.597343814342131,0.0,-30966.0,2.25,-907.5,-926.8225307386338,0.0,0.25,1.262206902,4.61372168883254,0.0,-1.0,1.9700000286102295,44.099998474121094,0.0997314453125,0.0145263671875,0.9227294921875,35.52000045776367,0.0,70.0,-2.2412261962890625,-3.392974853515625,Closing,0.0,0.0,-189.0,0.0,0.0,0.0,0.0,0.0,
6.196605000000011,0.0,0.0,66580.0,0.125,1042.5,930.6631746890308,0.0,0.125,0.523681587,4.582877566184466,0.0,-53633.0,0.75,-1027.5,-930.6631746890308,0.0,0.25,0.202636698,4.61216393421573,0.0,54413.0,11.5,1080.0,930.6631746890308,0.0,0.0,3.018798519,4.590449336008597,0.0,-31282.0,1.25,-1027.5,-930.6631746890308,0.0,0.25,1.362304548,4.606802649164162,0.0,-0.28999999165534973,1.659999966621399,43.65999984741211,-0.02874755859375,0.02716064453125,1.12384033203125,35.4900016784668,0.0,-21.0,-2.2496795654296875,-3.4591827392578125,Closing,0.0,0.0,-189.0,0.0,0.0,0.0,0.0,0.0,
6.390660999999993,0.0,0.0,66746.0,0.125,1027.5,936.5569175209001,0.0,0.25,0.49926752700000004,4.572660061832688,0.0,-53795.0,0.75,-982.5,-936.5569175209001,0.0,0.25,0.192871074,4.601881136041787,0.0,54580.0,11.25,990.0,936.5569175209001,0.0,0.125,3.018798519,4.580214950430992,0.0,-31598.0,1.25,-975.0,-936.5569175209001,0.0,0.25,1.3195799430000001,4.5965318039504615,0.0,-0.18000000715255737,1.2699999809265137,43.130001068115234,-0.12615966796875,-0.02911376953125,1.02081298828125,35.4900016784668,0.0,-126.0,-2.250701904296875,-3.498779296875,Closing,0.0,0.0,-189.0,0.0,0.0,0.0,0.0,0.0,
6.59198999999999,0.0,0.0,67063.0,0.125,967.5,903.6489510598475,0.0,0.25,0.469970655,4.635864262083992,0.0,-54108.0,0.625,-952.5,-903.6489510598475,0.0,0.25,0.153808578,4.665489235686637,0.0,54900.0,10.75,982.5,903.6489510598475,0.0,0.0,3.018798519,4.6435235758277,0.0,-31752.0,0.75,-967.5,-903.6489510598475,0.0,0.25,1.2402342480000002,4.660065964082612,0.0,-0.36000001430511475,0.8700000047683716,42.7599983215332,0.00469970703125,0.01434326171875,1.27947998046875,35.4900016784668,0.0,4.0,-2.256927490234375,-3.52777099609375,Closing,0.0,0.0,-189.0,0.0,0.0,0.0,0.0,0.0,
6.791708000000013,0.0,0.0,67215.0,0.125,930.0,932.6101629172624,0.0,0.125,0.48583979400000005,4.579457403849771,0.0,-54407.0,0.75,-930.0,-932.6101629172624,0.0,0.125,0.17822263800000002,4.608721915715031,0.0,55200.0,11.375,930.0,932.6101629172624,0.0,0.125,3.017577816,4.5870235229268355,0.0,-32052.0,1.25,-907.5,-932.6101629172624,0.0,0.125,1.285400259,4.603364631744647,0.0,-0.12999999523162842,0.5799999833106995,42.099998474121094,-0.028076171875,0.00592041015625,1.13214111328125,35.43000030517578,0.0,-23.0,-2.26837158203125,-3.547821044921875,Closing,0.0,0.0,-189.0,0.0,0.0,0.0,0.0,0.0,
6.98954800000001,0.0,0.0,67512.0,0.125,922.5,900.3685346706648,0.0,0.25,0.48583979400000005,4.643161427845829,0.0,-54555.0,1.0,-885.0,-900.3685346706648,0.0,0.25,0.186767559,4.672833033172539,0.0,55469.0,12.5,945.0,900.3685346706648,0.0,0.0,3.022460628,4.650832797870493,0.0,-32339.0,1.375,-877.5,-900.3685346706648,0.0,0.25,1.2939451800000001,4.667401224970023,0.0,-0.10000000149011612,0.46000000834465027,41.29999923706055,0.03668212890625,-0.13958740234375,1.04351806640625,35.43000030517578,0.0,-69.0,-2.287353515625,-3.5630950927734375,Closing,0.0,0.0,-189.0,0.0,0.0,0.0,0.0,0.0,
7.188507000000012,0.0,0.0,67810.0,0.125,922.5,934.5747808430799,0.0,0.25,0.48583979400000005,4.576051556487439,0.0,-54841.0,1.125,-900.0,-934.5747808430799,0.0,0.25,0.18798826200000002,4.605294303664929,0.0,55613.0,13.5,915.0,934.5747808430799,0.0,0.125,3.023681331,4.583612048468446,0.0,-32485.0,1.375,-892.5,-934.5747808430799,0.0,0.25,1.309814319,4.599941004029341,0.0,-0.029999999329447746,0.44999998807907104,40.7400016784668,-0.07476806640625,-0.0675048828125,0.97125244140625,35.43000030517578,0.0,-106.0,-2.2993316650390625,-3.5677337646484375,Closing,0.0,0.0,-189.0,0.0,0.0,0.0,0.0,0.0,
7.323372000000003,0.0,0.0,67957.0,0.125,922.5,895.5951142189704,0.0,0.25,0.526122993,4.6542058138580655,0.0,-54988.0,0.875,-907.5,-895.5951142189704,0.0,0.25,0.19775388600000002,4.683947997101982,0.0,55767.0,11.625,990.0,895.5951142189704,0.0,0.0,3.023681331,4.66189543127152,0.0,-32632.0,1.25,-915.0,-895.5951142189704,0.0,0.25,1.311035022,4.678503268610679,0.0,-0.18000000715255737,0.20999999344348907,40.29999923706055,0.02203369140625,-0.072509765625,1.034912109375,35.40999984741211,0.0,-30.0,-2.3138580322265625,-3.56689453125,Closing,0.0,0.0,-189.0,0.0,0.0,0.0,0.0,0.0,
7.5197330000000076,0.0,0.0,68250.0,0.125,922.5,942.6073300179221,0.0,0.25,0.490722606,4.562572034747905,0.0,-55279.0,1.25,-922.5,-942.6073300179221,0.0,0.25,0.19775388600000002,4.591728642544877,0.0,56089.0,11.125,997.5,942.6073300179221,0.0,0.125,3.0126950040000002,4.570110256041015,0.0,-32919.0,1.625,-907.5,-942.6073300179221,0.0,0.25,1.300048695,4.586391111944651,0.0,-0.12999999523162842,-0.10999999940395355,39.88999938964844,-0.0101318359375,-0.0289306640625,0.5716552734375,35.40999984741211,0.0,-26.0,-2.3366851806640625,-3.562347412109375,Closing,0.0,0.0,-189.0,0.0,0.0,0.0,0.0,0.0,
7.660475000000006,0.0,0.0,68394.0,0.125,900.0,891.0008545529363,0.0,0.25,0.490722606,4.665366324574263,0.0,-55422.0,1.125,-885.0,-891.0008545529363,0.0,0.25,0.16479490500000002,4.695179827817358,0.0,56249.0,9.75,990.0,891.0008545529363,0.0,0.125,3.0065914890000003,4.673074381236213,0.0,-33063.0,1.375,-892.5,-891.0008545529363,0.0,0.25,1.2939451800000001,4.689722043188637,0.0,-0.33000001311302185,-0.2199999988079071,39.720001220703125,0.01495361328125,0.0380859375,0.73828125,35.40999984741211,0.0,40.0,-2.359527587890625,-3.5621490478515625,Closing,0.0,0.0,-189.0,0.0,0.0,0.0,0.0,0.0,
7.796273000000015,0.0,0.0,68536.0,0.125,877.5,889.5097311038905,0.0,0.25,0.5297851020000001,4.669111833558228,0.0,-55567.0,1.0,-900.0,-889.5097311038905,0.0,0.0,0.225830055,4.698949272058807,0.0,56405.0,9.125,945.0,889.5097311038905,0.0,0.125,3.0603024210000003,4.676826078500682,0.0,-33205.0,1.375,-900.0,-889.5097311038905,0.0,0.25,1.357421736,4.693487105741718,0.0,0.019999999552965164,-0.28999999165534973,39.599998474121094,-0.01751708984375,-0.0352783203125,1.92852783203125,35.38999938964844,0.0,-28.0,-2.3870849609375,-3.556396484375,Closing,0.0,0.0,-189.0,0.0,0.0,0.0,0.0,0.0,
7.9789100000000035,0.0,0.0,68676.0,0.125,862.5,948.8114150156831,0.0,0.375,0.498046824,4.552614307926555,0.0,-55854.0,1.625,-900.0,-948.8114150156831,0.0,0.25,0.192871074,4.581707281980701,0.0,56707.0,9.875,937.5,948.8114150156831,0.0,0.125,3.0114743010000002,4.560136077194844,0.0,-33489.0,2.25,-885.0,-948.8114150156831,0.0,0.25,1.3439940030000002,4.576381400439648,0.0,0.15000000596046448,-0.20000000298023224,39.47999954223633,-0.05535888671875,0.00482177734375,0.9263916015625,35.38999938964844,0.0,-38.0,-2.4106903076171875,-3.5443267822265625,Closing,0.0,0.0,-189.0,0.0,0.0,0.0,0.0,0.0,
