Time,ClimberA1,ClimberA2,FRpos,FRCurrent,FRspeed,FRsetpoint,FRApos,FRACurrent,FREncpos,FREncSetpoint,FREncSpeed,FLpos,FLCurrent,FLspeed,FLsetpoint,FLApos,FLACurrent,FLEncpos,FLEncSetpoint,FLEncSpeed,BRpos,BRCurrent,BRspeed,BRsetpoint,BRApos,BRACurrent,BREncpos,BREncSetpoint,BREncSpeed,BLpos,BLCurrent,BLspeed,BLsetpoint,BLApos,BLACurrent,BLEncpos,BLEncSetpoint,BLEncSpeed,navx_Pitch,navx_Roll,navx_Yaw,navx_XAcc,navx_YAcc,navx_ZAcc,navx_Temp,navx_Bar,navx_Alt,navx_XDis,navx_YDis,GearPlacerState,ShootOutputV,ShootOutputCurrent,ShootEncPos,ShootEncVelocity,ShootSpeed,ShootSetpoint,CarouselSetpoint,CarouselCurrent,
0.5494759999999951,0.0,0.0,113603.0,0.0,0.0,0.0,0.0,0.25,0.836181555,0.01,0.0,-117106.0,0.125,0.0,0.0,0.0,0.0,0.522460884,0.01,0.0,103287.0,0.0,0.0,0.0,0.0,0.125,3.3776852010000002,0.01,0.0,-97036.0,0.125,0.0,0.0,0.0,0.25,1.6027830390000002,0.01,0.0,-0.07999999821186066,-0.7599999904632568,-77.38999938964844,-0.0128173828125,-0.001953125,1.01800537109375,36.38999938964844,0.0,0.0,-6.3110504150390625,-2.719451904296875,Closing,0.0,0.0,-189.0,0.0,0.0,0.0,0.0,0.0,
0.6369470000000002,0.0,0.0,113603.0,1.125,7.5,840.0,0.0,0.125,0.8312987430000001,0.01,0.0,-117106.0,1.625,-15.0,-840.0,0.0,0.0,0.522460884,0.01,0.0,103287.0,0.875,0.0,840.0,0.0,0.125,3.3740230920000003,0.01,-0.0012207029999999897,-97036.0,1.375,-7.5,-840.0,0.0,0.25,1.6015623360000002,0.01,0.0,-0.07999999821186066,-0.7599999904632568,-77.38999938964844,-0.01361083984375,6.103515625E-5,1.0191650390625,36.38999938964844,0.0,7.0,-6.3110504150390625,-2.719451904296875,Closing,0.0,0.0,-189.0,0.0,0.0,0.0,0.0,0.0,
0.6717390000000014,0.0,0.0,113603.0,1.625,37.5,840.0,0.0,0.25,0.8178710100000001,0.01,0.0,-117137.0,2.5,-75.0,-840.0,0.0,0.0,0.521240181,0.01,0.0,103290.0,2.125,0.0,840.0,0.0,0.125,3.3740230920000003,0.01,-0.0012207029999999897,-97055.0,1.875,-52.5,-840.0,0.0,0.25,1.6076658510000001,0.01,0.0,0.0,-0.6600000262260437,-77.37999725341797,0.013916015625,-0.11407470703125,0.9859619140625,36.38999938964844,0.0,116.0,-6.31097412109375,-2.719451904296875,Closing,0.0,0.0,-189.0,0.0,0.0,0.0,0.0,0.0,
0.712426999999996,0.0,0.0,113636.0,2.5,180.0,840.0,0.0,0.25,0.8178710100000001,0.01,-0.003662108999999969,-117137.0,4.375,-217.5,-840.0,0.0,0.0,0.522460884,0.01,0.0,103290.0,4.0,22.5,840.0,0.0,0.0,3.3728023890000003,0.01,-0.0024414059999999793,-97055.0,3.125,-195.0,-840.0,0.0,0.25,1.622314287,0.01,0.0,0.009999999776482582,-0.33000001311302185,-77.37000274658203,0.1524658203125,-0.0997314453125,1.1895751953125,36.38999938964844,0.0,132.0,-6.3099365234375,-2.71893310546875,Closing,0.0,0.0,-189.0,0.0,0.0,0.0,0.0,0.0,
0.7720629999999946,0.0,0.0,113636.0,3.125,225.0,840.0,0.0,0.25,0.8178710100000001,0.01,4.915161158,-117137.0,6.125,-232.5,-840.0,0.0,0.0,0.5285643990000001,0.01,0.0,103290.0,4.875,105.0,840.0,0.0,0.0,3.3728023890000003,0.01,0.0,-97055.0,4.0,-240.0,-840.0,0.0,0.125,1.640624832,0.01,0.019531247999999835,-0.019999999552965164,0.019999999552965164,-77.3499984741211,0.1217041015625,0.001220703125,0.92205810546875,36.38999938964844,0.0,24.0,-6.3089599609375,-2.7160186767578125,Closing,0.0,0.0,-189.0,0.0,0.0,0.0,0.0,0.0,
0.8076900000000024,0.0,0.0,113636.0,3.875,202.5,840.0,0.0,0.25,0.8178710100000001,0.01,0.0024414059999999793,-117175.0,7.25,-225.0,-840.0,0.0,0.0,0.522460884,0.01,0.0,103322.0,5.25,187.5,840.0,0.0,0.0,3.3728023890000003,0.01,0.0,-97093.0,4.125,-225.0,-840.0,0.0,0.125,1.650390456,0.01,-4.948234375999999,-0.019999999552965164,0.1599999964237213,-77.31999969482422,0.1463623046875,0.00439453125,1.074462890625,36.41999816894531,0.0,26.0,-6.308502197265625,-2.713470458984375,Closing,0.0,0.0,-189.0,0.0,0.0,0.0,0.0,0.0,
0.8351059999999998,0.0,0.0,113685.0,4.375,232.5,840.0,0.0,0.25,0.8166503070000001,0.01,0.0,-117175.0,7.625,-270.0,-840.0,0.0,0.0,0.522460884,0.01,0.0,103322.0,5.375,270.0,840.0,0.0,0.0,3.3728023890000003,0.01,-0.0012207029999999897,-97093.0,4.875,-262.5,-840.0,0.0,0.125,1.646728347,0.01,0.018310544999999845,-0.029999999329447746,0.5600000023841858,-77.27999877929688,0.16009521484375,-0.01416015625,0.75775146484375,36.41999816894531,0.0,46.0,-6.3076324462890625,-2.707977294921875,Closing,0.0,0.0,-189.0,0.0,0.0,0.0,0.0,0.0,
0.8709049999999988,0.0,0.0,113685.0,4.375,375.0,840.0,0.0,0.125,0.822753822,0.01,-0.0012207029999995456,-117175.0,7.75,-420.0,-840.0,0.0,0.0,0.522460884,0.01,0.0,103322.0,5.5,330.0,840.0,0.0,0.0,3.3728023890000003,0.01,-0.0012207029999999897,-97093.0,4.75,-337.5,-840.0,0.0,0.25,1.651611159,0.01,-0.003662108999999969,-0.019999999552965164,0.6899999976158142,-77.23999786376953,0.08416748046875,-0.05950927734375,1.17279052734375,36.41999816894531,0.0,72.0,-6.3062286376953125,-2.7008209228515625,Closing,0.0,0.0,-189.0,0.0,0.0,0.0,0.0,0.0,
0.9263220000000001,0.0,0.0,113685.0,4.25,412.5,839.9999999999999,0.0,0.125,0.836181555,0.01,-0.0012207029999995456,-117259.0,7.25,-472.5,-839.9999999999999,0.0,0.0,0.522460884,0.01,0.0,103387.0,5.625,390.0,839.9999999999999,0.0,0.0,3.3728023890000003,0.01,0.0024414059999999793,-97163.0,5.0,-427.5,-839.9999999999999,0.0,0.25,1.6564939710000002,0.01,0.004882811999999959,-0.07000000029802322,0.9800000190734863,-77.16000366210938,0.04888916015625,-0.08441162109375,1.07574462890625,36.41999816894531,0.0,87.0,-6.3040313720703125,-2.6923370361328125,Closing,0.0,0.0,-189.0,0.0,0.0,0.0,0.0,0.0,
0.9729060000000027,0.0,0.0,113771.0,4.125,525.0,840.0,0.0,0.125,0.8178710100000001,0.01,0.0,-117259.0,6.125,-592.5,-840.0,0.0,0.0,0.522460884,0.01,0.0,103387.0,5.5,465.0,840.0,0.0,0.0,3.3728023890000003,0.01,-0.0024414059999999793,-97163.0,4.125,-562.5,-840.0,0.0,0.25,1.6552732680000002,0.01,0.004882812000000181,-0.07000000029802322,1.2599999904632568,-77.04000091552734,0.10272216796875,-0.046630859375,1.0078125,36.41999816894531,0.0,62.0,-6.3010101318359375,-2.682830810546875,Closing,0.0,0.0,-189.0,0.0,0.0,0.0,0.0,0.0,
1.0264130000000005,0.0,0.0,113771.0,3.75,622.5,840.0,0.0,0.125,0.8166503070000001,0.01,-0.0012207029999995456,-117373.0,5.125,-697.5,-840.0,0.0,0.0,0.522460884,0.01,0.0012207029999995456,103484.0,5.25,585.0,840.0,0.0,0.0,3.3715816860000003,0.01,0.0,-97270.0,3.75,-645.0,-840.0,0.0,0.25,1.6601560800000001,0.01,0.0,-0.07999999821186066,1.4800000190734863,-76.87999725341797,0.1329345703125,7.32421875E-4,0.83673095703125,36.41999816894531,0.0,23.0,-6.2966766357421875,-2.668853759765625,Closing,0.0,0.0,-189.0,0.0,0.0,0.0,0.0,0.0,
1.0673650000000052,0.0,0.0,113883.0,3.375,682.5,840.0,0.0,0.125,0.794677653,0.01,0.0,-117373.0,4.375,-757.5,-840.0,0.0,0.125,0.545654241,0.01,0.003662109000000413,103484.0,4.875,645.0,840.0,0.0,0.0,3.3728023890000003,0.01,0.0012207029999999897,-97270.0,3.125,-742.5,-840.0,0.0,0.25,1.6613767830000001,0.01,0.004882811999999959,-0.05000000074505806,1.6100000143051147,-76.76000213623047,0.03790283203125,-0.0860595703125,0.974853515625,36.41999816894531,0.0,85.0,-6.2921142578125,-2.6539154052734375,Closing,0.0,0.0,-189.0,0.0,0.0,0.0,0.0,0.0,
1.127599000000002,0.0,0.0,113883.0,3.25,735.0,840.0,0.0,0.125,0.8178710100000001,0.01,0.0,-117373.0,3.75,-802.5,-840.0,0.0,0.125,0.5541991620000001,0.01,0.024414059999999793,103484.0,4.625,712.5,840.0,0.0,0.0,3.3715816860000003,0.01,0.0,-97398.0,2.875,-780.0,-840.0,0.0,0.25,1.6601560800000001,0.01,0.0,-0.03999999910593033,1.6100000143051147,-76.68000030517578,0.0245361328125,0.0074462890625,1.0460205078125,36.41999816894531,0.0,-9.0,-6.2888336181640625,-2.6423797607421875,Closing,0.0,0.0,-189.0,0.0,0.0,0.0,0.0,0.0,
1.1642679999999963,0.0,0.0,113883.0,2.875,787.5,840.0,0.0,0.125,0.8154296040000001,0.01,0.0012207029999995456,-117509.0,3.25,-832.5,-840.0,0.0,0.25,0.5566405680000001,0.01,0.024414059999999793,103607.0,4.25,757.5,840.0,0.0,0.0,3.3728023890000003,0.01,0.0,-97398.0,2.875,-795.0,-840.0,0.0,0.25,1.6601560800000001,0.01,0.0,-0.05000000074505806,1.6699999570846558,-76.66000366210938,0.0811767578125,-0.029541015625,0.953369140625,36.41999816894531,0.0,40.0,-6.2870025634765625,-2.63446044921875,Closing,0.0,0.0,-189.0,0.0,0.0,0.0,0.0,0.0,
1.1936710000000021,0.0,0.0,114017.0,2.625,810.0,840.0,0.0,0.25,0.822753822,0.010001450436528524,0.0,-117509.0,3.0,-847.5,-840.0,0.0,0.25,0.560302677,0.010065363590240479,0.004882811999999959,103607.0,4.0,772.5,840.0,0.0,0.0,3.3728023890000003,0.010017974700927735,0.0,-97398.0,2.75,-825.0,-840.0,0.0,0.25,1.6564939710000002,0.010053663380940756,0.0,-0.05000000074505806,1.6299999952316284,-76.6500015258789,-0.024169921875,0.10302734375,1.03472900390625,36.41999816894531,0.0,-113.0,-6.28515625,-2.626495361328125,Closing,0.0,0.0,-189.0,0.0,0.0,0.0,0.0,0.0,
1.2274119999999966,0.0,0.0,114017.0,2.375,847.5,840.0,0.0,0.125,0.819091713,0.010138486676597596,0.0,-117509.0,2.625,-877.5,-840.0,0.0,0.25,0.56152338,0.01020327554512024,0.004882811999999959,103607.0,3.75,810.0,840.0,0.0,0.0,3.3728023890000003,0.010155237350463867,-0.0012207029999999897,-97398.0,2.5,-840.0,-840.0,0.0,0.25,1.6564939710000002,0.010191415023803711,-0.004882811999999959,-0.07999999821186066,1.6200000047683716,-76.66000366210938,0.09033203125,-0.0491943359375,0.8165283203125,36.41999816894531,0.0,62.0,-6.283416748046875,-2.618499755859375,Closing,0.0,0.0,-189.0,0.0,0.0,0.0,0.0,0.0,
1.2656940000000032,0.0,0.0,114017.0,2.375,855.0,840.0,0.0,0.125,0.8178710100000001,0.010001450436528524,-0.0012207029999995456,-117509.0,2.5,-885.0,-840.0,0.0,0.25,0.560302677,0.010065363590240479,0.006103514999999504,103607.0,3.375,840.0,840.0,0.0,0.0,3.3740230920000003,0.010017974700927735,-0.0012207029999999897,-97537.0,2.25,-855.0,-840.0,0.0,0.25,1.665038892,0.010053663380940756,-0.004882811999999959,-0.03999999910593033,1.590000033378601,-76.66000366210938,-0.0416259765625,0.029296875,1.2552490234375,36.41999816894531,0.0,-47.0,-6.281707763671875,-2.6104278564453125,Closing,0.0,0.0,-189.0,0.0,0.0,0.0,0.0,0.0,
1.2947519999999932,0.0,0.0,114158.0,2.0,877.5,840.0,0.0,0.25,0.8178710100000001,0.010001450436528524,0.0012207029999995456,-117652.0,2.125,-892.5,-840.0,0.0,0.25,0.56152338,0.010065363590240479,-0.0012207029999995456,103745.0,3.25,862.5,840.0,0.0,0.0,3.3728023890000003,0.010017974700927735,0.0012207029999999897,-97537.0,2.0,-870.0,-840.0,0.0,0.25,1.666259595,0.010053663380940756,0.004882811999999959,-0.05999999865889549,1.559999942779541,-76.66999816894531,-0.02783203125,0.099853515625,1.002685546875,36.31999969482422,0.0,-110.0,-6.2792816162109375,-2.5982818603515625,Closing,0.0,0.0,-189.0,0.0,0.0,0.0,0.0,0.0,
1.3406560000000027,0.0,0.0,114158.0,1.875,892.5,840.0,0.0,0.25,0.8178710100000001,0.01,-0.0012207029999995456,-117652.0,2.0,-900.0,-840.0,0.0,0.25,0.560302677,0.01,0.0,103745.0,3.0,870.0,840.0,0.0,0.0,3.3740230920000003,0.01,-0.0012207029999999897,-97537.0,1.875,-892.5,-840.0,0.0,0.25,1.6613767830000001,0.01,0.004882811999999959,-0.05000000074505806,1.5299999713897705,-76.66999816894531,-0.0059814453125,0.04205322265625,0.80487060546875,36.31999969482422,0.0,-48.0,-6.276275634765625,-2.5865478515625,Closing,0.0,0.0,-189.0,0.0,0.0,0.0,0.0,0.0,
1.3911560000000027,0.0,0.0,114158.0,1.875,892.5,840.0,0.0,0.25,0.8178710100000001,0.01,0.0012207029999995456,-117797.0,1.75,-907.5,-840.0,0.0,0.25,0.5566405680000001,0.01,0.0,103886.0,3.0,870.0,840.0,0.0,0.0,3.3728023890000003,0.01,0.0012207029999999897,-97681.0,1.625,-892.5,-840.0,0.0,0.25,1.6613767830000001,0.01,-0.003662108999999969,-0.07000000029802322,1.3799999952316284,-76.66000366210938,-0.00860595703125,-0.027587890625,1.15472412109375,36.31999969482422,0.0,16.0,-6.274017333984375,-2.5868072509765625,Closing,0.0,0.0,-189.0,0.0,0.0,0.0,0.0,0.0,
1.4450679999999994,0.0,0.0,114302.0,1.625,892.5,840.0,0.0,0.25,0.809326089,0.010001450436528524,-0.0012207029999995456,-117797.0,1.625,-907.5,-840.0,0.0,0.25,0.56152338,0.010065363590240479,0.0,103886.0,2.875,885.0,840.0,0.0,0.0,3.3715816860000003,0.010017974700927735,0.0,-97681.0,1.625,-892.5,-840.0,0.0,0.25,1.6369627230000001,0.010053663380940756,-0.010986327000000129,-0.10000000149011612,1.4600000381469727,-76.68000030517578,0.0140380859375,0.01873779296875,0.89984130859375,36.31999969482422,0.0,-21.0,-6.272491455078125,-2.5870208740234375,Closing,0.0,0.0,-189.0,0.0,0.0,0.0,0.0,0.0,
1.4740770000000047,0.0,0.0,114302.0,1.5,885.0,840.0,0.0,0.25,0.8178710100000001,0.01,0.0,-117797.0,1.375,-907.5,-840.0,0.0,0.25,0.560302677,0.01,0.0,103886.0,2.75,900.0,840.0,0.0,0.0,3.3728023890000003,0.01,-0.0012207029999999897,-97825.0,1.375,-892.5,-840.0,0.0,0.25,1.6369627230000001,0.01,-0.014648435999999876,-0.10000000149011612,1.3700000047683716,-76.68000030517578,0.103759765625,0.06781005859375,0.98199462890625,36.31999969482422,0.0,-49.0,-6.269683837890625,-2.5877532958984375,Closing,0.0,0.0,-189.0,0.0,0.0,0.0,0.0,0.0,
1.5277109999999956,0.0,0.0,114302.0,1.5,885.0,840.0,0.0,0.125,0.8178710100000001,0.01,0.0,-117944.0,1.25,-915.0,-840.0,0.0,0.25,0.562744083,0.01,0.0,104029.0,2.625,885.0,840.0,0.0,0.0,3.3715816860000003,0.01,0.0,-97825.0,1.375,-892.5,-840.0,0.0,0.125,1.6308592080000002,0.01,0.0,-0.14000000059604645,1.25,-76.72000122070312,-0.068115234375,-0.04864501953125,0.8232421875,36.31999969482422,0.0,25.0,-6.2672271728515625,-2.5890655517578125,Closing,0.0,0.0,-189.0,0.0,0.0,0.0,0.0,0.0,
1.5754640000000073,0.0,0.0,114445.0,1.5,885.0,840.0,0.0,0.125,0.8166503070000001,0.01,0.0012207029999995456,-117944.0,1.25,-907.5,-840.0,0.0,0.25,0.550537053,0.01,0.0,104029.0,2.625,877.5,840.0,0.0,0.0,3.3728023890000003,0.01,0.0,-97825.0,1.25,-892.5,-840.0,0.0,0.125,1.6296385050000002,0.01,0.0,-0.1599999964237213,1.2400000095367432,-76.73999786376953,-0.02825927734375,0.00885009765625,0.90216064453125,36.31999969482422,0.0,-22.0,-6.2666015625,-2.5895843505859375,Closing,0.0,0.0,-189.0,0.0,0.0,0.0,0.0,0.0,
1.6096070000000036,0.0,0.0,114445.0,1.25,900.0,839.9999999999999,0.0,0.25,0.8178710100000001,0.01,-0.0012207029999995456,-118086.0,1.125,-892.5,-839.9999999999999,0.0,0.25,0.53710932,0.01,-0.009765623999999917,104171.0,2.75,870.0,839.9999999999999,0.0,0.0,3.3728023890000003,0.01,0.0012207029999999897,-97967.0,1.25,-885.0,-839.9999999999999,0.0,0.125,1.6320799110000002,0.01,0.0,-0.18000000715255737,1.1200000047683716,-76.80999755859375,-0.03338623046875,-0.0159912109375,1.06121826171875,36.31999969482422,0.0,0.0,-6.2660064697265625,-2.591461181640625,Closing,0.0,0.0,-189.0,0.0,0.0,0.0,0.0,0.0,
1.666623999999996,0.0,0.0,114445.0,1.25,900.0,840.0,0.0,0.25,0.8178710100000001,0.01,0.0,-118086.0,1.125,-885.0,-840.0,0.0,0.25,0.531005805,0.01,-0.009765623999999917,104171.0,2.625,900.0,840.0,0.0,0.0,3.382568013,0.01,0.0012207029999999897,-97967.0,1.25,-885.0,-840.0,0.0,0.125,1.645507644,0.01,0.0,-0.14000000059604645,1.1200000047683716,-76.87000274658203,0.0106201171875,-0.0926513671875,1.20880126953125,36.31999969482422,0.0,84.0,-6.2661285400390625,-2.5936126708984375,Closing,0.0,0.0,-189.0,0.0,0.0,0.0,0.0,0.0,
1.6949370000000052,0.0,0.0,114589.0,1.125,892.5,840.0,0.0,0.125,0.8178710100000001,0.01,0.0,-118086.0,1.125,-892.5,-840.0,0.0,0.125,0.5297851020000001,0.01,-0.019531247999999835,104171.0,2.5,915.0,840.0,0.0,0.0,3.3728023890000003,0.01,-0.0012207029999999897,-97967.0,1.25,-885.0,-840.0,0.0,0.25,1.666259595,0.01,0.014648435999999876,-0.17000000178813934,1.0099999904632568,-76.88999938964844,-0.0087890625,0.00604248046875,0.76043701171875,36.31999969482422,0.0,-13.0,-6.2664947509765625,-2.5963592529296875,Closing,0.0,0.0,-189.0,0.0,0.0,0.0,0.0,0.0,
1.7640380000000004,0.0,0.0,114589.0,1.125,885.0,840.0,0.0,0.25,0.8178710100000001,0.01,0.0,-118231.0,1.0,-900.0,-840.0,0.0,0.125,0.532226508,0.01,0.0,104318.0,2.5,907.5,840.0,0.0,0.0,3.3654781710000004,0.01,0.0012207029999999897,-98111.0,1.0,-892.5,-840.0,0.0,0.25,1.665038892,0.01,0.019531248000000057,-0.07999999821186066,0.8899999856948853,-76.81999969482422,-0.01885986328125,0.0245361328125,1.0726318359375,36.31999969482422,0.0,-33.0,-6.2672119140625,-2.5996246337890625,Closing,0.0,0.0,-189.0,0.0,0.0,0.0,0.0,0.0,
1.7947540000000008,0.0,0.0,114730.0,1.125,885.0,840.0,0.0,0.25,0.8166503070000001,0.01,0.0,-118231.0,0.875,-900.0,-840.0,0.0,0.125,0.531005805,0.01,0.0,104318.0,2.5,907.5,840.0,0.0,0.0,3.3728023890000003,0.01,0.0,-98111.0,1.0,-900.0,-840.0,0.0,0.25,1.6552732680000002,0.01,0.0,-0.029999999329447746,0.7099999785423279,-76.7300033569336,6.103515625E-4,-0.0859375,1.08978271484375,36.29999923706055,0.0,79.0,-6.2681732177734375,-2.6031341552734375,Closing,0.0,0.0,-189.0,0.0,0.0,0.0,0.0,0.0,
1.8456340000000055,0.0,0.0,114730.0,1.125,877.5,840.0,0.0,0.25,0.8178710100000001,0.01,0.0,-118231.0,0.875,-892.5,-840.0,0.0,0.125,0.532226508,0.01,0.0,104318.0,2.375,900.0,840.0,0.0,0.0,3.3728023890000003,0.01,-0.0012207029999999897,-98111.0,1.0,-885.0,-840.0,0.0,0.25,1.640624832,0.01,-0.014648436000000098,-0.07999999821186066,0.6600000262260437,-76.66000366210938,0.02679443359375,-0.08746337890625,1.17169189453125,36.29999923706055,0.0,86.0,-6.268890380859375,-2.6070709228515625,Closing,0.0,0.0,-189.0,0.0,0.0,0.0,0.0,0.0,
1.8743990000000048,0.0,0.0,114730.0,1.125,870.0,840.0,0.0,0.125,0.8178710100000001,0.010001450436528524,0.0,-118373.0,0.875,-885.0,-840.0,0.0,0.125,0.532226508,0.010065363590240479,0.0,104460.0,2.25,885.0,840.0,0.0,0.0,3.3789059040000002,0.010017974700927735,0.0,-98252.0,1.0,-877.5,-840.0,0.0,0.25,1.627197099,0.010053663380940756,-0.007324217999999938,-0.12999999523162842,0.6200000047683716,-76.63999938964844,-0.00250244140625,0.010986328125,0.86090087890625,36.29999923706055,0.0,-15.0,-6.26922607421875,-2.6084442138671875,Closing,0.0,0.0,-189.0,0.0,0.0,0.0,0.0,0.0,
1.9228889999999956,0.0,0.0,114869.0,1.125,862.5,840.0000000000001,0.0,0.125,0.8178710100000001,0.010412559156735739,-0.0012207030000004337,-118373.0,0.75,-885.0,-840.0000000000001,0.0,0.125,0.5297851020000001,0.010479099454879761,0.0,104460.0,2.25,885.0,840.0000000000001,0.0,0.0,3.3728023890000003,0.010429762649536134,0.0,-98252.0,1.0,-870.0,-840.0000000000001,0.0,0.125,1.627197099,0.010466918309529623,-0.007324217999999938,-0.07000000029802322,0.5400000214576721,-76.62999725341797,-0.0736083984375,0.0087890625,1.1156005859375,36.29999923706055,0.0,-29.0,-6.26971435546875,-2.6085205078125,Closing,0.0,0.0,-189.0,0.0,0.0,0.0,0.0,0.0,
1.9646089999999967,0.0,0.0,114869.0,1.125,862.5,840.0,0.0,0.25,0.8178710100000001,0.01027552291666667,0.0012207030000004337,-118373.0,0.875,-877.5,-840.0,0.0,0.125,0.532226508,0.010341187500000003,0.0,104460.0,2.25,885.0,840.0,0.0,0.0,3.3728023890000003,0.010292500000000003,0.0,-98252.0,1.0,-862.5,-840.0,0.0,0.125,1.622314287,0.01032916666666667,4.940910157999999,-0.10000000149011612,0.3799999952316284,-76.66000366210938,-0.0546875,0.0509033203125,1.19976806640625,36.29999923706055,0.0,-66.0,-6.2702789306640625,-2.6089630126953125,Closing,0.0,0.0,-189.0,0.0,0.0,0.0,0.0,0.0,
1.9923709999999992,0.0,0.0,114869.0,1.125,862.5,840.0,0.0,0.25,0.808105386,0.010001450436528524,0.0,-118511.0,0.875,-870.0,-840.0,0.0,0.125,0.531005805,0.010065363590240479,0.0,104599.0,2.25,877.5,840.0,0.0,0.0,3.3728023890000003,0.010017974700927735,0.0,-98389.0,1.25,-855.0,-840.0,0.0,0.125,1.622314287,0.010053663380940756,-0.004882811999999959,-0.11999999731779099,0.4099999964237213,-76.68000030517578,-0.00628662109375,-0.11175537109375,0.71759033203125,36.29999923706055,0.0,104.0,-6.2708892822265625,-2.609588623046875,Closing,0.0,0.0,-189.0,0.0,0.0,0.0,0.0,0.0,
2.0451469999999974,0.0,0.0,115007.0,1.125,855.0,840.0,0.0,0.25,0.8178710100000001,0.01,0.0,-118511.0,1.0,-855.0,-840.0,0.0,0.125,0.532226508,0.01,0.0,104599.0,2.375,862.5,840.0,0.0,0.0,3.3764644980000003,0.01,0.0,-98389.0,1.0,-840.0,-840.0,0.0,0.125,1.621093584,0.01,0.0,-0.17000000178813934,0.25999999046325684,-76.69999694824219,-0.01666259765625,0.055908203125,0.95361328125,36.29999923706055,0.0,-62.0,-6.2717742919921875,-2.6108856201171875,Closing,0.0,0.0,-189.0,0.0,0.0,0.0,0.0,0.0,
2.0732780000000055,0.0,0.0,115007.0,1.125,855.0,840.0,0.0,0.125,0.859374912,0.01,0.0,-118511.0,1.0,-847.5,-840.0,0.0,0.125,0.521240181,0.01,0.0,104599.0,2.375,855.0,840.0,0.0,0.0,3.3728023890000003,0.01,0.0,-98389.0,1.25,-840.0,-840.0,0.0,0.125,1.625976396,0.01,0.0,-0.10999999940395355,0.25,-76.70999908447266,-0.06378173828125,0.03375244140625,1.0372314453125,36.29999923706055,0.0,-50.0,-6.272552490234375,-2.611785888671875,Closing,0.0,0.0,-189.0,0.0,0.0,0.0,0.0,0.0,
2.1126169999999984,0.0,0.0,115007.0,1.125,847.5,840.0,0.0,0.125,0.8178710100000001,0.01,0.0012207029999995456,-118648.0,1.0,-847.5,-840.0,0.0,0.125,0.539550726,0.01,0.0,104735.0,2.5,847.5,840.0,0.0,0.0,3.3740230920000003,0.01,0.0,-98525.0,1.25,-847.5,-840.0,0.0,0.125,1.627197099,0.01,0.0,-0.15000000596046448,0.1899999976158142,-76.72000122070312,0.0078125,-0.0118408203125,0.87109375,36.29999923706055,0.0,10.0,-6.273834228515625,-2.613616943359375,Closing,0.0,0.0,-189.0,0.0,0.0,0.0,0.0,0.0,
2.1709890000000014,0.0,0.0,115141.0,1.25,832.5,840.0,0.0,0.25,0.8166503070000001,0.01,0.0,-118648.0,1.125,-840.0,-840.0,0.0,0.125,0.535888617,0.01,0.004882811999999959,104735.0,2.5,840.0,840.0,0.0,0.0,3.3740230920000003,0.01,0.0024414059999999793,-98525.0,1.25,-840.0,-840.0,0.0,0.125,1.6296385050000002,0.01,0.004882811999999959,-0.11999999731779099,0.029999999329447746,-76.72000122070312,0.00616455078125,0.00848388671875,1.0821533203125,36.29999923706055,0.0,-9.0,-6.2752227783203125,-2.615966796875,Closing,0.0,0.0,-189.0,0.0,0.0,0.0,0.0,0.0,
2.2226549999999987,0.0,0.0,115141.0,1.25,825.0,840.0,0.0,0.25,0.819091713,0.01,0.0,-118648.0,1.125,-832.5,-840.0,0.0,0.125,0.53710932,0.01,0.0,104867.0,2.625,825.0,840.0,0.0,0.0,3.3728023890000003,0.01,0.0,-98657.0,1.25,-832.5,-840.0,0.0,0.125,1.641845535,0.01,-4.943351563999999,-0.10000000149011612,0.10000000149011612,-76.66000366210938,-0.0113525390625,0.00152587890625,1.14208984375,36.29999923706055,0.0,-6.0,-6.2779388427734375,-2.620086669921875,Closing,0.0,0.0,-189.0,0.0,0.0,0.0,0.0,0.0,
2.261524000000005,0.0,0.0,115141.0,1.25,825.0,840.0,0.0,0.25,0.8178710100000001,0.010001450436528524,0.0,-118781.0,1.125,-832.5,-840.0,0.0,0.125,0.531005805,0.010065363590240479,0.0,104867.0,2.75,817.5,840.0,0.0,0.0,3.3728023890000003,0.010017974700927735,-0.0012207029999999897,-98657.0,1.375,-825.0,-840.0,0.0,0.125,1.640624832,0.010053663380940756,-4.943351563999999,-0.07999999821186066,0.09000000357627869,-76.6500015258789,-0.0064697265625,-0.02020263671875,1.1849365234375,36.29999923706055,0.0,16.0,-6.27850341796875,-2.620086669921875,Closing,0.0,0.0,-189.0,0.0,0.0,0.0,0.0,0.0,
2.293926999999996,0.0,0.0,115275.0,1.25,840.0,840.0,0.0,0.25,0.8178710100000001,0.01027552291666667,0.0,-118781.0,1.125,-832.5,-840.0,0.0,0.125,0.532226508,0.010341187500000003,-0.004882811999999959,104867.0,2.75,810.0,840.0,0.0,0.0,3.3728023890000003,0.010292500000000003,-0.0012207029999999897,-98657.0,1.375,-817.5,-840.0,0.0,0.125,1.64794905,0.01032916666666667,0.0,-0.09000000357627869,0.05000000074505806,-76.63999938964844,0.0323486328125,0.040771484375,1.04351806640625,36.29999923706055,0.0,-34.0,-6.2786102294921875,-2.620269775390625,Closing,0.0,0.0,-189.0,0.0,0.0,0.0,0.0,0.0,
2.334274000000005,0.0,0.0,115275.0,1.25,847.5,840.0,0.0,0.25,0.8166503070000001,0.01027552291666667,-0.0012207029999995456,-118915.0,1.125,-832.5,-840.0,0.0,0.125,0.5151366660000001,0.010341187500000003,0.0012207029999995456,104998.0,2.75,817.5,840.0,0.0,0.0,3.3728023890000003,0.010292500000000003,0.0012207029999999897,-98790.0,1.375,-817.5,-840.0,0.0,0.125,1.6552732680000002,0.01032916666666667,0.009765623999999917,-0.10000000149011612,0.05999999865889549,-76.66999816894531,-0.00469970703125,0.07757568359375,0.84710693359375,36.29999923706055,0.0,-78.0,-6.2794647216796875,-2.620635986328125,Closing,0.0,0.0,-189.0,0.0,0.0,0.0,0.0,0.0,
2.388180999999997,0.0,0.0,115275.0,1.25,840.0,840.0,0.0,0.25,0.8166503070000001,0.01,0.0012207029999995456,-118915.0,1.125,-825.0,-840.0,0.0,0.125,0.5175780720000001,0.01,-0.01586913899999942,104998.0,2.75,825.0,840.0,0.0,0.0,3.3728023890000003,0.01,0.0,-98790.0,1.375,-817.5,-840.0,0.0,0.25,1.6564939710000002,0.01,0.00610351500000017,-0.07999999821186066,-0.05999999865889549,-76.6500015258789,-0.03948974609375,-0.0635986328125,1.26861572265625,36.29999923706055,0.0,51.0,-6.2801666259765625,-2.6209869384765625,Closing,0.0,0.0,-189.0,0.0,0.0,0.0,0.0,0.0,
2.426812999999995,0.0,0.0,115410.0,1.25,832.5,840.0,0.0,0.25,0.8178710100000001,0.01068652710884942,0.0012207029999995456,-118915.0,1.125,-825.0,-840.0,0.0,0.0,0.5175780720000001,0.010754818168640138,-0.01586913899999942,104998.0,2.75,817.5,840.0,0.0,0.0,3.3715816860000003,0.010704183247884115,-0.0012207029999999897,-98790.0,1.375,-832.5,-840.0,0.0,0.25,1.652831862,0.010742316521538628,-0.00610351500000017,-0.10999999940395355,0.05999999865889549,-76.55000305175781,-0.02655029296875,-0.0196533203125,0.92559814453125,36.29999923706055,0.0,10.0,-6.281219482421875,-2.621795654296875,Closing,0.0,0.0,-189.0,0.0,0.0,0.0,0.0,0.0,
2.467648000000001,0.0,0.0,115410.0,1.5,817.5,840.0,0.0,0.25,0.8178710100000001,0.011508535493214926,0.0,-119051.0,1.0,-847.5,-840.0,0.0,0.0,0.5175780720000001,0.01158207950592041,-0.0012207029999995456,105129.0,2.75,817.5,840.0,0.0,0.0,3.3728023890000003,0.011527549743652344,0.0,-98924.0,1.25,-847.5,-840.0,0.0,0.25,1.645507644,0.011568616231282552,0.0,-0.11999999731779099,0.09000000357627869,-76.43000030517578,0.01385498046875,-0.12115478515625,0.86614990234375,36.29999923706055,0.0,118.0,-6.28289794921875,-2.6231536865234375,Closing,0.0,0.0,-189.0,0.0,0.0,0.0,0.0,0.0,
2.518914000000004,0.0,0.0,115543.0,1.5,825.0,840.0,0.0,0.25,0.8178710100000001,0.013152656789970397,0.0,-119051.0,1.0,-855.0,-840.0,0.0,0.0,0.5175780720000001,0.013236707376480101,-0.0012207029999995456,105129.0,2.875,810.0,840.0,0.0,0.0,3.3728023890000003,0.013174387435913084,0.0,-98924.0,1.25,-855.0,-840.0,0.0,0.25,1.645507644,0.013221320724487303,0.0,-0.09000000357627869,0.0,-76.41999816894531,-0.08612060546875,0.09173583984375,1.1929931640625,36.29999923706055,0.0,-111.0,-6.2832794189453125,-2.6235504150390625,Closing,0.0,0.0,-189.0,0.0,0.0,0.0,0.0,0.0,
2.5704279999999997,0.0,0.0,115543.0,1.25,840.0,840.0,0.0,0.25,0.8178710100000001,0.013700697222222223,0.0,-119051.0,1.0,-855.0,-840.0,0.0,0.0,0.5163573690000001,0.01378825,0.0,105129.0,2.875,817.5,840.0,0.0,0.0,3.3728023890000003,0.013723333333333334,0.0012207029999999897,-98924.0,1.25,-847.5,-840.0,0.0,0.125,1.650390456,0.013772222222222222,-0.004882811999999959,-0.10000000149011612,-0.019999999552965164,-76.38999938964844,-0.01953125,0.048828125,1.2939453125,36.29999923706055,0.0,-54.0,-6.284912109375,-2.625274658203125,Closing,0.0,0.0,-189.0,0.0,0.0,0.0,0.0,0.0,
2.5969550000000017,0.0,0.0,115543.0,1.25,847.5,840.0,0.0,0.25,0.8178710100000001,0.013700697222222223,0.0,-119188.0,1.0,-847.5,-840.0,0.0,0.0,0.5175780720000001,0.01378825,0.0,105263.0,2.75,832.5,840.0,0.0,0.0,3.3728023890000003,0.013723333333333334,0.0,-99061.0,1.25,-847.5,-840.0,0.0,0.25,1.651611159,0.013772222222222222,0.004882811999999959,-0.07999999821186066,-0.07999999821186066,-76.33000183105469,-0.02874755859375,0.01751708984375,1.1820068359375,36.29999923706055,0.0,-25.0,-6.2852935791015625,-2.6275787353515625,Closing,0.0,0.0,-189.0,0.0,0.0,0.0,0.0,0.0,
2.6487379999999976,0.0,0.0,115677.0,1.25,840.0,840.0,0.0,0.25,0.820312416,0.014522705606587732,0.0012207029999995456,-119188.0,0.875,-847.5,-840.0,0.0,0.0,0.5175780720000001,0.014615511337280276,0.0,105263.0,2.75,840.0,840.0,0.0,0.0,3.3728023890000003,0.014546699829101567,0.0,-99061.0,1.25,-847.5,-840.0,0.0,0.25,1.6564939710000002,0.014598521931966148,0.0,-0.07000000029802322,-0.03999999910593033,-76.29000091552734,-0.0443115234375,0.019287109375,1.11077880859375,36.29999923706055,0.0,-30.0,-6.28533935546875,-2.6283111572265625,Closing,0.0,0.0,-189.0,0.0,0.0,0.0,0.0,0.0,
2.689167000000001,0.0,0.0,115677.0,1.5,832.5,840.0,0.0,0.25,0.8166503070000001,0.015070746038839556,-0.0012207029999995456,-119188.0,1.0,-847.5,-840.0,0.0,0.0,0.5175780720000001,0.015167053960800174,0.0,105263.0,2.75,840.0,840.0,0.0,0.0,3.3728023890000003,0.015095645726521813,-0.0012207029999999897,-99199.0,1.25,-855.0,-840.0,0.0,0.25,1.6552732680000002,0.015149423429701067,0.004882812000000181,-0.05999999865889549,-0.03999999910593033,-76.1500015258789,-0.0660400390625,0.02301025390625,0.90118408203125,36.29999923706055,0.0,-38.0,-6.285736083984375,-2.631195068359375,Closing,0.0,0.0,-189.0,0.0,0.0,0.0,0.0,0.0,
2.7303469999999943,0.0,0.0,115677.0,1.5,825.0,840.0,0.0,0.125,0.809326089,0.016988835287708705,0.0012207029999995456,-119324.0,1.0,-847.5,-840.0,0.0,0.0,0.5163573690000001,0.017097400545120236,0.0,105397.0,2.75,832.5,840.0,0.0,0.0,3.3728023890000003,0.017016904017130532,0.0012207029999999897,-99199.0,1.0,-855.0,-840.0,0.0,0.25,1.666259595,0.017077526134914818,0.004882811999999959,-0.05000000074505806,-0.009999999776482582,-76.06999969482422,0.03692626953125,-0.00848388671875,1.09027099609375,36.29999923706055,0.0,16.0,-6.2860565185546875,-2.63275146484375,Closing,0.0,0.0,-189.0,0.0,0.0,0.0,0.0,0.0,
2.7728420000000042,0.0,0.0,115811.0,1.5,825.0,840.0,0.0,0.125,0.826415931,0.018495920344395105,0.0012207029999995456,-119324.0,1.0,-847.5,-840.0,0.0,0.0,0.513915963,0.01861411646080017,0.0,105397.0,2.875,832.5,840.0,0.0,0.0,3.3728023890000003,0.01852647905985514,0.0012207029999999897,-99199.0,1.25,-847.5,-840.0,0.0,0.25,1.665038892,0.018592478985256615,0.004882811999999959,-0.09000000357627869,-0.05999999865889549,-76.0,0.00146484375,0.0428466796875,0.8944091796875,36.29999923706055,0.0,-42.0,-6.2861480712890625,-2.6342315673828125,Closing,0.0,0.0,-189.0,0.0,0.0,0.0,0.0,0.0,
2.8200899999999964,0.0,0.0,115811.0,1.5,825.0,840.0000000000001,0.0,0.125,0.8178710100000001,0.019454964968829685,-0.0012207029999995456,-119324.0,0.875,-847.5,-840.0000000000001,0.0,0.0,0.5163573690000001,0.019579289752960204,0.0,105530.0,2.875,825.0,840.0000000000001,0.0,0.0,3.3691402800000003,0.019487108205159507,-0.0012207029999999897,-99333.0,1.25,-840.0,-840.0000000000001,0.0,0.25,1.666259595,0.019556530337863497,0.004882811999999959,-0.07000000029802322,-0.07999999821186066,-75.83999633789062,0.00299072265625,0.015380859375,1.0062255859375,36.2599983215332,0.0,-15.0,-6.286865234375,-2.637664794921875,Closing,0.0,0.0,-189.0,0.0,0.0,0.0,0.0,0.0,
2.861497000000003,0.0,0.0,115811.0,1.625,825.0,839.9999999999999,0.0,0.125,0.8178710100000001,0.021236122505654233,0.0,-119460.0,0.875,-847.5,-839.9999999999999,0.0,0.0,0.5175780720000001,0.02137182957839966,0.0012207029999995456,105530.0,2.875,832.5,839.9999999999999,0.0,0.0,3.3740230920000003,0.021271208546956383,0.0,-99333.0,1.25,-840.0,-839.9999999999999,0.0,0.25,1.665038892,0.02134698647393121,-0.0012207029999999897,-0.07999999821186066,-0.07000000029802322,-75.69999694824219,-0.07049560546875,-0.05572509765625,1.142333984375,36.2599983215332,0.0,35.0,-6.287506103515625,-2.640777587890625,Closing,0.0,0.0,-189.0,0.0,0.0,0.0,0.0,0.0,
2.9141640000000044,0.0,0.0,115942.0,1.625,817.5,840.0,0.0,0.25,0.823974525,0.023154211754523386,0.0012207029999995456,-119460.0,0.875,-847.5,-840.0,0.0,0.125,0.521240181,0.023302176162719727,-0.0012207029999995456,105530.0,2.875,840.0,840.0,0.0,0.0,3.3728023890000003,0.023192466837565106,0.0012207029999999897,-99333.0,1.25,-840.0,-840.0,0.0,0.25,1.6613767830000001,0.023275089179144965,-0.0012207029999999897,-0.09000000357627869,-0.07999999821186066,-75.66999816894531,-0.01226806640625,0.00909423828125,1.07476806640625,36.2599983215332,0.0,-13.0,-6.287689208984375,-2.6417083740234375,Closing,0.0,0.0,-189.0,0.0,0.0,0.0,0.0,0.0,
2.9468099999999975,0.0,0.0,115942.0,1.875,817.5,840.0,0.0,0.25,0.8178710100000001,0.02411325637895797,0.0,-119596.0,0.875,-847.5,-840.0,0.0,0.125,0.511474557,0.024267349454879766,-0.004882812000000847,105664.0,2.875,832.5,840.0,0.0,0.0,3.3728023890000003,0.024153095982869473,-0.0012207029999999897,-99471.0,1.0,-847.5,-840.0,0.0,0.25,1.665038892,0.02423914053175185,0.0012207029999999897,-0.05000000074505806,-0.10000000149011612,-75.55000305175781,-0.00439453125,-0.10943603515625,1.13201904296875,36.2599983215332,0.0,104.0,-6.2884674072265625,-2.644500732421875,Closing,0.0,0.0,-189.0,0.0,0.0,0.0,0.0,0.0,
2.986118000000002,0.0,0.0,115942.0,1.625,817.5,840.0,0.0,0.25,0.821533119,0.025757273147688973,0.0,-119596.0,0.875,-847.5,-840.0,0.0,0.125,0.51269526,0.025921872129440308,0.0,105664.0,3.0,825.0,840.0,0.0,0.0,3.3715816860000003,0.025799828974405924,0.0012207029999999897,-99471.0,1.0,-855.0,-840.0,0.0,0.25,1.666259595,0.02589173995123969,0.0,-0.10999999940395355,-0.14000000059604645,-75.43000030517578,0.00933837890625,-0.0350341796875,1.203857421875,36.2599983215332,0.0,34.0,-6.288970947265625,-2.6464080810546875,Closing,0.0,0.0,-189.0,0.0,0.0,0.0,0.0,0.0,
3.040960999999996,0.0,0.0,116073.0,1.0,825.0,0.0,0.0,0.25,0.8154296040000001,0.01,0.0012207029999995456,-119596.0,0.625,-847.5,-0.0,0.0,0.125,0.51269526,0.01,0.0,105664.0,2.0,825.0,0.0,0.0,0.0,3.3728023890000003,0.01,-0.0012207029999999897,-99471.0,0.375,-855.0,-0.0,0.0,0.25,1.6552732680000002,0.01,0.0,-0.09000000357627869,-0.05000000074505806,-75.31999969482422,0.04010009765625,-0.01788330078125,1.01861572265625,36.2599983215332,0.0,26.0,-6.2895965576171875,-2.646392822265625,Closing,0.0,0.0,-189.0,0.0,0.0,0.0,0.0,0.0,
3.0725890000000073,0.0,0.0,116073.0,0.375,802.5,0.0,0.0,0.25,0.8178710100000001,0.01,0.0012207029999995456,-119707.0,0.375,-795.0,-0.0,0.0,0.0,0.51269526,0.01,0.0,105790.0,0.875,810.0,0.0,0.0,0.0,3.3728023890000003,0.01,-0.0012207029999999897,-99595.0,0.25,-832.5,-0.0,0.0,0.25,1.645507644,0.01,0.0,-0.07999999821186066,-0.17000000178813934,-75.25,-0.057861328125,-0.05560302734375,1.16424560546875,36.2599983215332,0.0,38.0,-6.2899169921875,-2.6463623046875,Closing,0.0,0.0,-189.0,0.0,0.0,0.0,0.0,0.0,
3.1200179999999964,0.0,0.0,116168.0,0.125,660.0,0.0,0.0,0.25,0.821533119,0.01,0.0,-119707.0,0.125,-645.0,-0.0,0.0,0.0,0.51269526,0.01,0.0,105790.0,0.25,742.5,0.0,0.0,0.0,3.3776852010000002,0.01,0.0012207029999999897,-99595.0,0.125,-690.0,-0.0,0.0,0.25,1.6076658510000001,0.01,-0.009765623999999917,-0.10999999940395355,-0.5299999713897705,-75.33000183105469,-0.439208984375,0.084228515625,1.23590087890625,36.2599983215332,0.0,-192.0,-6.2903900146484375,-2.6476287841796875,Closing,0.0,0.0,-189.0,0.0,0.0,0.0,0.0,0.0,
3.1708040000000035,0.0,0.0,116168.0,0.0,540.0,0.0,0.0,0.25,0.8276366340000001,0.01,-0.0012207029999995456,-119707.0,0.25,-547.5,-0.0,0.0,0.0,0.511474557,0.01,0.004882812000000847,105790.0,0.25,630.0,0.0,0.0,0.0,3.3776852010000002,0.01,0.0,-99595.0,0.125,-547.5,-0.0,0.0,0.125,1.6027830390000002,0.01,4.914054692,-0.07999999821186066,-1.0299999713897705,-75.4000015258789,-0.1817626953125,0.1082763671875,0.96197509765625,36.2599983215332,0.0,-147.0,-6.2923736572265625,-2.653594970703125,Closing,0.0,0.0,-189.0,0.0,0.0,0.0,0.0,0.0,
3.2003450000000013,0.0,0.0,116168.0,0.0,540.0,0.0,0.0,0.25,0.8276366340000001,0.01,-4.922485376,-119797.0,0.5,-547.5,-0.0,0.0,0.0,0.511474557,0.01,-0.004882812000000847,105873.0,0.125,502.5,0.0,0.0,0.125,3.3776852010000002,0.01,0.003662108999999969,-99681.0,0.25,-562.5,-0.0,0.0,0.25,1.6027830390000002,0.01,-0.009765623999999917,-0.05000000074505806,-1.440000057220459,-75.47000122070312,-0.227783203125,-0.026611328125,0.947509765625,36.2599983215332,0.0,-26.0,-6.2945404052734375,-2.6607666015625,Closing,0.0,0.0,-189.0,0.0,0.0,0.0,0.0,0.0,
3.250293000000005,0.0,0.0,116257.0,0.125,547.5,0.0,0.0,0.25,0.826415931,0.01,0.0,-119797.0,0.875,-502.5,-0.0,0.0,0.0,0.51269526,0.01,0.0,105873.0,0.125,487.5,0.0,0.0,0.125,3.3776852010000002,0.01,0.0012207029999999897,-99681.0,0.375,-502.5,-0.0,0.0,0.25,1.6027830390000002,0.01,0.0012207030000004337,-0.05000000074505806,-1.649999976158142,-75.52999877929688,-0.1817626953125,-0.01806640625,1.11199951171875,36.2599983215332,0.0,-20.0,-6.296234130859375,-2.666717529296875,Closing,0.0,0.0,-189.0,0.0,0.0,0.0,0.0,0.0,
3.291013000000006,0.0,0.0,116257.0,0.125,465.0,0.0,0.0,0.25,0.8276366340000001,0.01,0.0,-119797.0,1.125,-405.0,-0.0,0.0,0.0,0.51269526,0.01,0.0,105873.0,0.0,435.0,0.0,0.0,0.125,3.3776852010000002,0.01,-0.0012207029999999897,-99735.0,0.375,-397.5,-0.0,0.0,0.25,1.6027830390000002,0.01,-0.0012207030000004337,-0.10000000149011612,-1.9900000095367432,-75.61000061035156,-0.1502685546875,-0.02069091796875,0.8604736328125,36.2599983215332,0.0,-11.0,-6.2990570068359375,-2.6773223876953125,Closing,0.0,0.0,-189.0,0.0,0.0,0.0,0.0,0.0,
3.3306600000000035,0.0,0.0,116257.0,0.125,315.0,0.0,0.0,0.125,0.826415931,0.01,0.0012207030000001007,-119846.0,0.875,-270.0,-0.0,0.0,0.0,0.51269526,0.01,0.0,105928.0,0.0,307.5,0.0,0.0,0.125,3.3764644980000003,0.01,0.0,-99735.0,0.375,-300.0,-0.0,0.0,0.25,1.6027830390000002,0.01,0.0,-0.09000000357627869,-2.319999933242798,-75.63999938964844,-0.1343994140625,0.00555419921875,0.94537353515625,36.2400016784668,0.0,-30.0,-6.3033447265625,-2.6941070556640625,Closing,0.0,0.0,-189.0,0.0,0.0,0.0,0.0,0.0,
3.3788659999999946,0.0,0.0,116298.0,0.125,262.5,0.0,0.0,0.125,0.8276366340000001,0.01,0.0012207030000001007,-119846.0,0.625,-232.5,-0.0,0.0,0.0,0.51269526,0.01,0.0,105928.0,0.0,255.0,0.0,0.0,0.125,3.3764644980000003,0.01,0.0,-99735.0,0.25,-210.0,-0.0,0.0,0.25,1.6027830390000002,0.01,0.0,-0.07999999821186066,-2.390000104904175,-75.62999725341797,-0.1536865234375,0.009765625,0.9521484375,36.2400016784668,0.0,-39.0,-6.3045501708984375,-2.69866943359375,Closing,0.0,0.0,-189.0,0.0,0.0,0.0,0.0,0.0,
3.415100000000006,0.0,0.0,116298.0,0.125,165.0,0.0,0.0,0.125,0.8312987430000001,0.01,0.0012207029999999897,-119846.0,0.5,-165.0,-0.0,0.0,0.0,0.51269526,0.01,0.0,105928.0,0.125,165.0,0.0,0.0,0.125,3.3776852010000002,0.01,0.0,-99753.0,0.25,-142.5,-0.0,0.0,0.25,1.6027830390000002,0.01,0.0,-0.07999999821186066,-2.609999895095825,-75.58999633789062,-0.10235595703125,-0.007568359375,0.9443359375,36.2400016784668,0.0,-8.0,-6.3096771240234375,-2.7180938720703125,Closing,0.0,0.0,-189.0,0.0,0.0,0.0,0.0,0.0,
3.452921000000002,0.0,0.0,116298.0,0.0,90.0,0.0,0.0,0.125,0.8276366340000001,0.01,-0.0012207029999999897,-119861.0,0.375,-97.5,-0.0,0.0,0.0,0.511474557,0.01,0.0,105942.0,0.125,82.5,0.0,0.0,0.125,3.3776852010000002,0.01,0.0,-99753.0,0.125,-82.5,-0.0,0.0,0.25,1.6015623360000002,0.01,0.0,-0.07999999821186066,-2.680000066757202,-75.5999984741211,-0.06256103515625,-0.0142822265625,1.02972412109375,36.2400016784668,0.0,8.0,-6.311004638671875,-2.728302001953125,Closing,0.0,0.0,-189.0,0.0,0.0,0.0,0.0,0.0,
3.510203999999998,0.0,0.0,116304.0,0.125,37.5,0.0,0.0,0.25,0.832519446,0.01,0.0,-119861.0,0.25,-37.5,-0.0,0.0,0.0,0.51269526,0.01,0.0,105942.0,0.375,30.0,0.0,0.0,0.125,3.3764644980000003,0.01,0.0,-99753.0,0.125,-30.0,-0.0,0.0,0.25,1.6015623360000002,0.01,0.0,-0.09000000357627869,-2.680000066757202,-75.5999984741211,-0.0286865234375,-0.013916015625,0.9681396484375,36.2400016784668,0.0,16.0,-6.311004638671875,-2.728302001953125,Closing,0.0,0.0,-189.0,0.0,0.0,0.0,0.0,0.0,
3.5354640000000073,0.0,0.0,116304.0,0.125,0.0,0.0,0.0,0.25,0.8276366340000001,0.01,0.0,-119862.0,0.125,0.0,-0.0,0.0,0.0,0.511474557,0.01,0.0,105943.0,0.375,7.5,0.0,0.0,0.125,3.3776852010000002,0.01,0.0,-99753.0,0.125,0.0,-0.0,0.0,0.25,1.6015623360000002,0.01,0.0,-0.10000000149011612,-2.5899999141693115,-75.52999877929688,0.0120849609375,-0.00128173828125,0.99566650390625,36.2400016784668,0.0,13.0,-6.3109283447265625,-2.7278594970703125,Closing,0.0,0.0,-189.0,0.0,0.0,0.0,0.0,0.0,
3.5910339999999996,0.0,0.0,116304.0,0.125,0.0,0.0,0.0,0.25,0.8276366340000001,0.01,0.0,-119862.0,0.125,0.0,-0.0,0.0,0.0,0.511474557,0.01,0.0,105943.0,0.375,7.5,0.0,0.0,0.125,3.3776852010000002,0.01,0.0,-99753.0,0.125,0.0,-0.0,0.0,0.25,1.6015623360000002,0.01,0.0012207030000004337,-0.09000000357627869,-2.5399999618530273,-75.52999877929688,0.004150390625,0.00946044921875,1.04290771484375,36.2400016784668,0.0,1.0,-6.310882568359375,-2.7272491455078125,Closing,0.0,0.0,-189.0,0.0,0.0,0.0,0.0,0.0,
3.626653999999995,0.0,0.0,116304.0,0.125,0.0,420.0,0.0,0.25,0.826415931,3.015942366852486,0.0,-119862.0,0.125,0.0,-420.0,0.0,0.0,0.51269526,4.41043958977222,0.0,105943.0,0.375,0.0,420.0,0.0,0.125,3.3776852010000002,1.9194747329772914,0.0,-99753.0,0.375,0.0,-420.0,0.0,0.25,1.6027830390000002,0.552687206278561,0.0012207030000004337,-0.07000000029802322,-2.450000047683716,-75.55000305175781,0.01312255859375,0.0045166015625,1.0101318359375,36.2400016784668,0.0,8.0,-6.310882568359375,-2.7263641357421875,Closing,0.0,0.0,-189.0,0.0,0.0,0.0,0.0,0.0,
3.661926999999996,0.0,0.0,116304.0,0.375,7.5,420.0,0.0,3.25,0.8166503070000001,3.015942366852486,-0.0012207030000001007,-119862.0,0.125,0.0,-420.0,0.0,2.0,0.495605418,4.41043958977222,0.0,105943.0,0.875,0.0,420.0,0.0,5.0,3.4667965200000004,1.9194747329772914,0.0012207029999999897,-99756.0,0.625,-7.5,-420.0,0.0,2.375,1.700439279,0.552687206278561,0.0,-0.07999999821186066,-2.359999895095825,-75.56999969482422,0.003662109375,-0.01971435546875,1.0076904296875,36.2400016784668,0.0,28.0,-6.31085205078125,-2.7244873046875,Closing,0.0,0.0,-189.0,0.0,0.0,0.0,0.0,0.0,
3.695748999999996,0.0,0.0,116330.0,0.5,90.0,420.0,0.0,6.625,0.496826121,3.015942366852486,4.845581086999999,-119867.0,0.375,-45.0,-420.0,0.0,2.625,0.371093712,4.41043958977222,-0.014648435999999876,105945.0,1.75,7.5,420.0,0.0,6.0,3.760985943,1.9194747329772914,0.11840819099999988,-99756.0,0.625,-60.0,-420.0,0.0,2.0,1.8676755900000002,0.552687206278561,-4.8640058690000005,-0.09000000357627869,-2.2100000381469727,-75.58000183105469,0.09979248046875,0.09033203125,0.96435546875,36.2400016784668,0.0,-54.0,-6.3103790283203125,-2.721832275390625,Closing,0.0,0.0,-189.0,0.0,0.0,0.0,0.0,0.0,
3.735172999999995,0.0,0.0,116330.0,0.5,180.0,420.0,0.0,1.875,0.172119123,3.015942366852486,-0.2709960659999995,-119867.0,0.5,-127.5,-420.0,0.0,0.5,0.18310545,4.41043958977222,-0.13305662699999932,105945.0,2.5,22.5,420.0,0.0,2.125,4.1284175460000005,1.9194747329772914,0.2722167689999999,-99756.0,0.75,-120.0,-420.0,0.0,0.75,2.044677525,0.552687206278561,0.1708984200000001,-0.07999999821186066,-1.9800000190734863,-75.58999633789062,0.04400634765625,-0.03021240234375,1.1214599609375,36.2400016784668,0.0,48.0,-6.3094940185546875,-2.7176513671875,Closing,0.0,0.0,-189.0,0.0,0.0,0.0,0.0,0.0,
3.7890610000000016,0.0,0.0,116330.0,0.75,180.0,420.0,0.0,1.625,4.899901842,3.015942366852486,-0.2709960659999995,-119867.0,0.875,-142.5,-420.0,0.0,0.25,0.045166011000000006,4.41043958977222,-0.2160644310000004,105946.0,3.5,0.0,420.0,0.0,2.0,4.542235863,1.9194747329772914,0.39184566300000023,-99778.0,1.0,-120.0,-420.0,0.0,0.375,2.135009547,0.552687206278561,0.1806640439999998,-0.09000000357627869,-1.8600000143051147,-75.41000366210938,0.01177978515625,0.02435302734375,1.05462646484375,36.2400016784668,0.0,-13.0,-6.307647705078125,-2.7105560302734375,Closing,0.0,0.0,-189.0,0.0,0.0,0.0,0.0,0.0,
3.845527000000002,0.0,0.0,116354.0,0.75,150.0,420.0,0.0,1.875,4.477538604,3.015942366852486,-0.4071049790000001,-119888.0,1.0,-105.0,-420.0,0.0,0.25,4.948729962000001,4.41043958977222,-0.13061522100000023,105946.0,4.125,0.0,420.0,0.0,2.0,4.775390136,1.9194747329772914,0.43090815900000035,-99778.0,1.0,-112.5,-420.0,0.0,0.375,2.14843728,0.552687206278561,0.08422850700000017,-0.10000000149011612,-1.8700000047683716,-75.05999755859375,-0.0645751953125,-0.0283203125,1.04534912109375,36.22999954223633,0.0,17.0,-6.3061981201171875,-2.7049713134765625,Closing,0.0,0.0,-189.0,0.0,0.0,0.0,0.0,0.0,
3.8733629999999977,0.0,0.0,116354.0,1.25,172.5,420.0,0.0,1.25,4.152831606,3.015942366852486,-0.20751951000000002,-119888.0,1.5,-112.5,-420.0,0.0,0.25,4.938964338,4.41043958977222,4.930419417,105946.0,4.75,0.0,420.0,0.0,1.125,0.06103515,1.9194747329772914,0.1879882619999993,-99778.0,1.25,-142.5,-420.0,0.0,0.375,2.156982201,0.552687206278561,0.017089841999999855,-0.10000000149011612,-1.9199999570846558,-74.44000244140625,-0.0191650390625,-0.00830078125,0.995849609375,36.22999954223633,0.0,10.0,-6.304901123046875,-2.699493408203125,Closing,0.0,0.0,-189.0,0.0,0.0,0.0,0.0,0.0,
3.924736000000004,0.0,0.0,116354.0,1.5,180.0,420.0,0.0,0.875,3.9978023250000003,3.015942366852486,-0.20751951000000002,-119914.0,1.75,-142.5,-420.0,0.0,0.25,4.940185041,4.41043958977222,4.930419417,105950.0,5.0,0.0,420.0,0.0,0.625,0.185546856,1.9194747329772914,0.1879882619999993,-99809.0,1.375,-195.0,-420.0,0.0,0.25,2.159423607,0.552687206278561,0.004882811999999959,-0.09000000357627869,-1.9199999570846558,-73.9000015258789,-0.01702880859375,0.013916015625,1.0145263671875,36.22999954223633,0.0,18.0,-6.304901123046875,-2.6937103271484375,Closing,0.0,0.0,-189.0,0.0,0.0,0.0,0.0,0.0,
3.971521999999997,0.0,0.0,116380.0,1.625,165.0,420.0,0.0,0.5,3.7792964880000004,3.015942366852486,-0.30761715600000006,-119914.0,1.875,-180.0,-420.0,0.0,0.125,4.937743635,4.41043958977222,-0.009765623999999917,105950.0,5.25,45.0,420.0,0.0,0.375,0.334472622,1.9194747329772914,0.2443555590000006,-99809.0,1.25,-240.0,-420.0,0.0,0.125,2.1691892310000003,0.552687206278561,0.004882811999999959,-0.15000000596046448,-1.940000057220459,-72.9000015258789,-0.07794189453125,-0.01812744140625,0.9720458984375,36.22999954223633,0.0,1.0,-6.304901123046875,-2.6898040771484375,Closing,0.0,0.0,-189.0,0.0,0.0,0.0,0.0,0.0,
3.9959459999999964,0.0,0.0,116380.0,1.75,187.5,420.0,0.0,0.375,3.749999616,3.015942366852486,-0.34179683999999977,-119914.0,1.625,-240.0,-420.0,0.0,0.125,4.940185041,4.41043958977222,0.0,105950.0,5.375,60.0,420.0,0.0,0.125,0.40283199000000003,1.9194747329772914,0.2551269269999996,-99852.0,1.25,-262.5,-420.0,0.0,0.125,2.193603291,0.552687206278561,0.0170898420000003,-0.25,-2.049999952316284,-71.63999938964844,-0.06658935546875,0.09625244140625,1.01300048828125,36.22999954223633,0.0,-105.0,-6.3046875,-2.684051513671875,Closing,0.0,0.0,-189.0,0.0,0.0,0.0,0.0,0.0,
4.0496420000000075,0.0,0.0,116380.0,1.75,217.5,420.0,0.0,0.5,3.758544537,3.015942366852486,-0.018310544999999845,-119959.0,1.625,-262.5,-420.0,0.0,0.125,4.935302229,4.41043958977222,0.0,105957.0,5.75,45.0,420.0,0.0,0.125,0.40161128700000004,1.9194747329772914,0.06347655600000035,-99852.0,1.25,-270.0,-420.0,0.0,0.25,2.203368915,0.552687206278561,0.023193356999999803,-0.2800000011920929,-2.140000104904175,-70.69000244140625,-0.09124755859375,-0.0286865234375,0.9434814453125,36.22999954223633,0.0,4.0,-6.3047637939453125,-2.6804351806640625,Closing,0.0,0.0,-189.0,0.0,0.0,0.0,0.0,0.0,
4.081116999999998,0.0,0.0,116433.0,1.5,300.0,420.0,0.0,0.25,3.764648052,3.015942366852486,-0.018310544999999845,-119959.0,1.5,-307.5,-420.0,0.0,0.125,4.935302229,4.41043958977222,0.0,105957.0,6.5,15.0,420.0,0.0,0.125,0.38818355400000004,1.9194747329772914,-0.0012207029999999897,-99852.0,1.375,-285.0,-420.0,0.0,0.25,2.213134539,0.552687206278561,0.007324217999999938,-0.28999999165534973,-2.200000047683716,-69.05000305175781,-0.0814208984375,0.053955078125,1.01409912109375,36.22999954223633,0.0,-70.0,-6.3051605224609375,-2.675567626953125,Closing,0.0,0.0,-189.0,0.0,0.0,0.0,0.0,0.0,
4.1223139999999985,0.0,0.0,116433.0,1.25,337.5,420.0,0.0,0.25,3.765868755,3.015942366852486,0.004882811999999959,-119959.0,1.375,-315.0,-420.0,0.0,0.125,4.932860823,4.41043958977222,-0.004882811999999959,105957.0,7.0,37.5,420.0,0.0,0.125,0.37475582100000004,1.9194747329772914,-0.0012207029999999897,-99852.0,1.375,-300.0,-420.0,0.0,0.25,2.213134539,0.552687206278561,0.007324217999999938,-0.25,-2.1500000953674316,-67.20999908447266,0.016357421875,0.11181640625,0.93084716796875,36.22999954223633,0.0,-87.0,-6.3059539794921875,-2.6753387451171875,Closing,0.0,0.0,-189.0,0.0,0.0,0.0,0.0,0.0,
4.1729879999999975,0.0,0.0,116433.0,0.875,420.0,420.0,0.0,0.375,3.762206646,3.015942366852486,0.003662108999999969,-120015.0,1.125,-337.5,-420.0,0.0,0.125,4.934081526,4.41043958977222,0.0012207029999995456,105974.0,8.125,90.0,420.0,0.0,0.125,0.364990197,1.9194747329772914,-0.01342773300000033,-99908.0,1.25,-352.5,-420.0,0.0,0.25,2.213134539,0.552687206278561,0.009765623999999917,-0.23000000417232513,-2.069999933242798,-65.12999725341797,-0.0101318359375,-0.032958984375,1.0716552734375,36.22999954223633,0.0,37.0,-6.306854248046875,-2.6745147705078125,Closing,0.0,0.0,-189.0,0.0,0.0,0.0,0.0,0.0,
4.209998000000007,0.0,0.0,116504.0,0.5,442.5,420.0,0.0,0.375,3.764648052,3.015942366852486,0.0012207029999999897,-120015.0,1.125,-375.0,-420.0,0.0,0.125,4.932860823,4.41043958977222,-0.0012207029999995456,105974.0,8.125,172.5,420.0,0.0,0.125,0.364990197,1.9194747329772914,-0.019531247999999835,-99908.0,1.25,-360.0,-420.0,0.0,0.25,2.211913836,0.552687206278561,0.0,-0.27000001072883606,-2.0299999713897705,-64.38999938964844,0.0831298828125,0.0325927734375,0.93341064453125,36.22999954223633,0.0,16.0,-6.307098388671875,-2.6741180419921875,Closing,0.0,0.0,-189.0,0.0,0.0,0.0,0.0,0.0,
4.235377999999997,0.0,0.0,116504.0,0.5,450.0,420.0,0.0,0.375,3.764648052,3.015942366852486,0.0012207029999999897,-120015.0,1.0,-390.0,-420.0,0.0,0.125,4.935302229,4.41043958977222,-0.0012207029999995456,105974.0,7.75,232.5,420.0,0.0,0.125,0.36987300900000003,1.9194747329772914,-0.003662108999999969,-99908.0,1.0,-367.5,-420.0,0.0,0.25,2.2143552420000003,0.552687206278561,0.0,-0.27000001072883606,-2.0299999713897705,-62.880001068115234,-0.008056640625,-0.00335693359375,1.05712890625,36.22999954223633,0.0,11.0,-6.307647705078125,-2.6730804443359375,Closing,0.0,0.0,-189.0,0.0,0.0,0.0,0.0,0.0,
4.270241999999999,0.0,0.0,116504.0,0.375,502.5,420.0,0.0,0.375,3.762206646,3.015942366852486,0.0,-120086.0,0.625,-435.0,-420.0,0.0,0.125,4.934081526,4.41043958977222,0.0,106040.0,6.0,427.5,420.0,0.0,0.125,0.36865230600000004,1.9194747329772914,0.0,-99972.0,0.75,-390.0,-420.0,0.0,0.25,2.2143552420000003,0.552687206278561,0.0,-0.3499999940395355,-2.0,-60.4900016784668,-0.06060791015625,0.01141357421875,0.98651123046875,36.22999954223633,0.0,-28.0,-6.3084259033203125,-2.6711883544921875,Closing,0.0,0.0,-189.0,0.0,0.0,0.0,0.0,0.0,
4.322221000000005,0.0,0.0,116588.0,0.375,510.0,420.0,0.0,0.375,3.764648052,3.015942366852486,0.0,-120086.0,0.5,-450.0,-420.0,0.0,0.125,4.934081526,4.41043958977222,0.0,106040.0,5.5,442.5,420.0,0.0,0.125,0.360107385,1.9194747329772914,0.0,-99972.0,0.625,-457.5,-420.0,0.0,0.25,2.213134539,0.552687206278561,0.0,-0.41999998688697815,-1.9500000476837158,-58.060001373291016,0.01873779296875,-0.08612060546875,0.828369140625,36.22999954223633,0.0,92.0,-6.309173583984375,-2.6694793701171875,Closing,0.0,0.0,-189.0,0.0,0.0,0.0,0.0,0.0,
4.3698450000000015,0.0,0.0,116588.0,0.125,525.0,420.0,0.0,0.375,3.764648052,3.015942366852486,-0.0012207029999999897,-120086.0,0.375,-465.0,-420.0,0.0,0.125,4.93164012,4.41043958977222,0.0,106040.0,5.375,382.5,420.0,0.0,0.125,0.35400387,1.9194747329772914,0.0,-99972.0,0.625,-487.5,-420.0,0.0,0.25,2.207031024,0.552687206278561,0.0,-0.4699999988079071,-1.909999966621399,-55.61000061035156,-0.003173828125,0.12396240234375,1.015869140625,36.279998779296875,0.0,-91.0,-6.309356689453125,-2.6672210693359375,Closing,0.0,0.0,-189.0,0.0,0.0,0.0,0.0,0.0,
4.401301000000006,0.0,0.0,116588.0,0.125,525.0,420.0,0.0,0.375,3.763427349,3.015942366852486,0.0,-120161.0,0.25,-472.5,-420.0,0.0,0.125,4.934081526,4.41043958977222,0.0,106095.0,6.125,330.0,420.0,0.0,0.125,0.35400387,1.9194747329772914,-0.009765623999999917,-100046.0,0.625,-435.0,-420.0,0.0,0.25,2.213134539,0.552687206278561,0.0,-0.47999998927116394,-1.940000057220459,-52.27000045776367,-0.01922607421875,-0.01373291015625,1.03741455078125,36.279998779296875,0.0,13.0,-6.309478759765625,-2.663238525390625,Closing,0.0,0.0,-189.0,0.0,0.0,0.0,0.0,0.0,
4.4514400000000025,0.0,0.0,116670.0,0.125,517.5,420.0,0.0,0.375,3.753661725,3.015942366852486,0.0012207029999999897,-120161.0,0.25,-465.0,-420.0,0.0,0.125,4.934081526,4.41043958977222,0.0012207029999995456,106095.0,6.375,337.5,420.0,0.0,0.125,0.35400387,1.9194747329772914,0.0,-100046.0,0.625,-435.0,-420.0,0.0,0.25,2.213134539,0.552687206278561,0.0,-0.5199999809265137,-1.850000023841858,-51.439998626708984,0.01214599609375,-0.0087890625,0.85235595703125,36.279998779296875,0.0,25.0,-6.3095245361328125,-2.66217041015625,Closing,0.0,0.0,-189.0,0.0,0.0,0.0,0.0,0.125,
4.487008000000001,0.0,0.0,116670.0,0.125,495.0,420.0,0.0,0.375,3.763427349,3.015942366852486,0.0012207029999999897,-120161.0,0.25,-465.0,-420.0,0.0,0.125,4.934081526,4.41043958977222,-0.0012207029999995456,106095.0,6.5,322.5,420.0,0.0,0.125,0.35522457300000004,1.9194747329772914,0.0,-100046.0,0.375,-472.5,-420.0,0.0,0.25,2.211913836,0.552687206278561,0.0,-0.5400000214576721,-1.7999999523162842,-48.040000915527344,-0.05035400390625,-0.03936767578125,0.90838623046875,36.279998779296875,0.0,8.0,-6.3095550537109375,-2.657440185546875,Closing,0.0,0.0,-189.0,0.0,0.0,0.0,0.0,0.0,
4.525343999999997,0.0,0.0,116670.0,0.125,480.0,420.0,0.0,0.375,3.764648052,3.015942366852486,0.0,-120237.0,0.25,-465.0,-420.0,0.0,0.125,4.935302229,4.41043958977222,-0.0012207029999995456,106133.0,6.75,255.0,420.0,0.0,0.125,0.352783167,1.9194747329772914,0.0,-100125.0,0.375,-502.5,-420.0,0.0,0.25,2.211913836,0.552687206278561,0.0,-0.5600000023841858,-1.840000033378601,-46.33000183105469,0.05438232421875,0.11212158203125,1.07928466796875,36.279998779296875,0.0,-27.0,-6.3095703125,-2.654876708984375,Closing,0.0,0.0,-189.0,0.0,0.0,0.0,0.0,0.0,
4.574607000000004,0.0,0.0,116753.0,0.125,495.0,420.0,0.0,0.375,3.764648052,3.015942366852486,0.0,-120237.0,0.25,-457.5,-420.0,0.0,0.125,4.935302229,4.41043958977222,0.0,106133.0,7.75,232.5,420.0,0.0,0.125,0.35034176100000003,1.9194747329772914,0.0,-100125.0,0.375,-510.0,-420.0,0.0,0.25,2.213134539,0.552687206278561,0.0,-0.5400000214576721,-1.7799999713897705,-44.61000061035156,-0.10272216796875,-0.01373291015625,0.9581298828125,36.279998779296875,0.0,-48.0,-6.3097076416015625,-2.6520538330078125,Closing,0.0,0.0,-189.0,0.0,0.0,0.0,0.0,0.0,
4.608436000000001,0.0,0.0,116753.0,0.125,562.5,420.0,0.0,0.375,3.7841793000000004,3.015942366852486,0.0,-120237.0,0.25,-450.0,-420.0,0.0,0.125,4.934081526,4.41043958977222,0.0,106133.0,8.375,307.5,420.0,0.0,0.125,0.339355434,1.9194747329772914,-0.004882811999999959,-100209.0,0.375,-510.0,-420.0,0.0,0.25,2.211913836,0.552687206278561,0.0012207029999999897,-0.5899999737739563,-1.840000033378601,-41.150001525878906,0.01434326171875,-0.09320068359375,1.10809326171875,36.279998779296875,0.0,91.0,-6.3102874755859375,-2.646575927734375,Closing,0.0,0.0,-189.0,0.0,0.0,0.0,0.0,0.0,
4.653256999999998,0.0,0.0,116753.0,0.375,577.5,420.0,0.0,0.375,3.7780757850000004,3.015942366852486,-0.0012207029999999897,-120309.0,0.25,-450.0,-420.0,0.0,0.125,4.932860823,4.41043958977222,0.0,106196.0,8.0,367.5,420.0,0.0,0.0,0.32348629500000003,1.9194747329772914,-0.009765623999999917,-100209.0,0.375,-517.5,-420.0,0.0,0.25,2.213134539,0.552687206278561,-0.0012207029999999897,-0.6299999952316284,-1.75,-39.400001525878906,-0.00323486328125,0.06072998046875,0.945556640625,36.279998779296875,0.0,-25.0,-6.310577392578125,-2.6437835693359375,Closing,0.0,0.0,-189.0,0.0,0.0,0.0,0.0,0.0,
4.705152000000002,0.0,0.0,116847.0,0.375,585.0,420.0,0.0,0.375,3.764648052,3.015942366852486,0.0012207029999999897,-120309.0,0.25,-442.5,-420.0,0.0,0.125,4.932860823,4.41043958977222,0.0,106196.0,6.875,420.0,420.0,0.0,0.0,0.319824186,1.9194747329772914,-0.02075195100000027,-100209.0,0.375,-525.0,-420.0,0.0,0.25,2.2167966480000003,0.552687206278561,0.0,-0.6600000262260437,-1.7400000095367432,-36.779998779296875,-0.0179443359375,0.03948974609375,1.0343017578125,36.279998779296875,0.0,-19.0,-6.311065673828125,-2.6390228271484375,Closing,0.0,0.0,-189.0,0.0,0.0,0.0,0.0,0.0,
4.735303,0.0,0.0,116847.0,0.125,585.0,420.0,0.0,0.375,3.763427349,3.015942366852486,0.0012207029999999897,-120309.0,0.125,-450.0,-420.0,0.0,0.125,4.934081526,4.41043958977222,0.0,106196.0,7.0,375.0,420.0,0.0,0.0,0.319824186,1.9194747329772914,-0.02075195100000027,-100209.0,0.375,-525.0,-420.0,0.0,0.25,2.213134539,0.552687206278561,0.0,-0.6399999856948853,-1.7100000381469727,-34.189998626708984,-0.04156494140625,-3.0517578125E-4,1.11297607421875,36.279998779296875,0.0,-13.0,-6.3115997314453125,-2.6354827880859375,Closing,0.0,0.0,-189.0,0.0,0.0,0.0,0.0,0.0,
4.775059999999998,0.0,0.0,116847.0,0.375,577.5,420.0,0.0,0.375,3.762206646,3.015942366852486,0.0,-120385.0,0.125,-472.5,-420.0,0.0,0.125,4.934081526,4.41043958977222,0.0,106241.0,8.125,270.0,420.0,0.0,0.0,0.319824186,1.9194747329772914,0.0,-100293.0,0.375,-517.5,-420.0,0.0,0.25,2.213134539,0.552687206278561,0.0,-0.6700000166893005,-1.7000000476837158,-32.47999954223633,-0.03424072265625,0.06134033203125,0.99676513671875,36.279998779296875,0.0,-43.0,-6.3118438720703125,-2.6353912353515625,Closing,0.0,0.0,-189.0,0.0,0.0,0.0,0.0,0.0,
4.806236999999994,0.0,0.0,116938.0,0.375,562.5,420.0,0.0,0.375,3.763427349,3.015942366852486,0.0012207029999999897,-120385.0,0.125,-487.5,-420.0,0.0,0.125,4.935302229,4.41043958977222,0.0012207029999995456,106241.0,9.375,255.0,420.0,0.0,0.0,0.319824186,1.9194747329772914,0.0,-100293.0,0.375,-510.0,-420.0,0.0,0.25,2.213134539,0.552687206278561,0.0,-0.6800000071525574,-1.690000057220459,-29.940000534057617,0.01513671875,0.0235595703125,0.9190673828125,36.279998779296875,0.0,19.0,-6.3123626708984375,-2.6350860595703125,Closing,0.0,0.0,-189.0,0.0,0.0,0.0,0.0,0.0,
4.855406000000003,0.0,0.0,116938.0,0.125,555.0,0.0,0.0,2.125,3.768310161,0.01,-0.0012207029999999897,-120385.0,0.125,-487.5,-0.0,0.0,0.25,4.93164012,0.01,-0.0012207029999995456,106241.0,8.25,315.0,0.0,0.0,0.0,0.319824186,0.01,0.0,-100293.0,0.375,-510.0,-0.0,0.0,0.25,2.193603291,0.01,0.0,-0.6399999856948853,-1.7699999809265137,-28.260000228881836,-0.060791015625,-0.00238037109375,1.1104736328125,36.279998779296875,0.0,-28.0,-6.3123779296875,-2.634613037109375,Closing,0.0,0.0,-189.0,0.0,0.0,0.0,0.0,0.0,
4.912346000000005,0.0,0.0,117015.0,0.125,532.5,0.0,0.0,6.875,4.06494099,0.01,0.12329100300000029,-120460.0,0.0,-465.0,-0.0,0.0,2.375,0.081787101,0.01,0.014648435999999876,106306.0,4.625,420.0,0.0,0.0,5.875,0.015869139,0.01,-0.08789061600000014,-100376.0,0.25,-502.5,-0.0,0.0,2.5,1.9726560480000002,0.01,-0.1000976459999996,-0.6700000166893005,-1.559999942779541,-24.969999313354492,0.14849853515625,0.04779052734375,1.01226806640625,36.279998779296875,0.0,134.0,-6.3115386962890625,-2.633270263671875,Closing,0.0,0.0,-189.0,0.0,0.0,0.0,0.0,0.0,
4.938896999999997,0.0,0.0,117015.0,0.125,412.5,0.0,0.0,1.25,4.509276882,0.01,0.211181619,-120460.0,0.375,-420.0,-0.0,0.0,0.5,0.308837859,0.01,-4.862060049,106306.0,2.625,480.0,0.0,0.0,1.25,4.616698746,0.01,1.832275203,-100376.0,0.375,-450.0,-0.0,0.0,0.5,1.7578123200000002,0.01,-0.13793943900000016,-0.6499999761581421,-1.190000057220459,-22.43000030517578,0.261474609375,-0.035888671875,0.9908447265625,36.279998779296875,0.0,270.0,-6.3080596923828125,-2.63128662109375,Closing,0.0,0.0,-189.0,0.0,0.0,0.0,0.0,0.0,
4.994389999999999,0.0,0.0,117015.0,0.125,345.0,0.0,0.0,1.0,4.749755373,0.01,0.4418944859999998,-120514.0,0.5,-390.0,-0.0,0.0,0.5,0.423583941,0.01,0.23681638199999977,106372.0,3.125,420.0,0.0,0.0,10.625,4.844970207,0.01,-2.38913073,-100431.0,0.375,-360.0,-0.0,0.0,0.25,1.6540525650000002,0.01,-0.22094724300000013,-0.6100000143051147,-0.9399999976158142,-21.75,-0.0118408203125,-0.01019287109375,0.8470458984375,36.279998779296875,0.0,1.0,-6.303070068359375,-2.62860107421875,Closing,0.0,0.0,-189.0,0.0,0.0,0.0,0.0,0.0,
5.043048999999999,0.0,0.0,117032.0,0.125,187.5,0.0,0.0,1.25,0.095214834,0.01,0.4418944859999998,-120514.0,0.5,-300.0,-0.0,0.0,0.5,0.49316401200000004,0.01,0.23681638199999977,106372.0,3.125,360.0,0.0,0.0,12.875,4.737548343,0.01,0.25146481800000053,-100431.0,0.25,-240.0,-0.0,0.0,0.25,1.627197099,0.01,-0.10131834900000003,-0.5899999737739563,-1.0299999713897705,-21.770000457763672,-0.2127685546875,-0.0279541015625,1.1873779296875,36.279998779296875,0.0,-171.0,-6.2997589111328125,-2.6268157958984375,Closing,0.0,0.0,-189.0,0.0,0.0,0.0,0.0,0.0,
5.072167000000001,0.0,0.0,117032.0,0.125,52.5,0.0,0.0,1.875,0.334472622,0.01,0.30273434399999966,-120514.0,0.375,-180.0,-0.0,0.0,0.25,0.526122993,0.01,0.1293945179999998,106372.0,3.5,187.5,0.0,0.0,11.125,4.522704615,0.01,0.25146481800000053,-100431.0,0.25,-180.0,-0.0,0.0,0.25,1.622314287,0.01,-0.10131834900000003,-0.6700000166893005,-1.2400000095367432,-21.81999969482422,-0.209228515625,-0.028076171875,0.82354736328125,36.279998779296875,0.0,-170.0,-6.297332763671875,-2.6255950927734375,Closing,0.0,0.0,-189.0,0.0,0.0,0.0,0.0,0.0,
