Time,ClimberA1,ClimberA2,FRpos,FRCurrent,FRspeed,FRsetpoint,FRApos,FRACurrent,FREncpos,FREncSetpoint,FREncSpeed,FLpos,FLCurrent,FLspeed,FLsetpoint,FLApos,FLACurrent,FLEncpos,FLEncSetpoint,FLEncSpeed,BRpos,BRCurrent,BRspeed,BRsetpoint,BRApos,BRACurrent,BREncpos,BREncSetpoint,BREncSpeed,BLpos,BLCurrent,BLspeed,BLsetpoint,BLApos,BLACurrent,BLEncpos,BLEncSetpoint,BLEncSpeed,navx_Pitch,navx_Roll,navx_Yaw,navx_XAcc,navx_YAcc,navx_ZAcc,navx_Temp,navx_Bar,navx_Alt,navx_XDis,navx_YDis,GearPlacerState,ShootOutputV,ShootOutputCurrent,ShootEncPos,ShootEncVelocity,ShootSpeed,ShootSetpoint,CarouselSetpoint,CarouselCurrent,
0.22498400000005495,0.0,0.0,14120.0,11.75,405.0,1316.1436176631514,0.0,0.25,1.0327147380000001,0.21702429536081683,0.0,-12009.0,3.25,-157.5,-548.0167776314865,0.0,0.25,0.872802645,0.5647856063139588,0.0,-8612.0,13.125,465.0,1316.1436176631514,0.0,0.0,3.0566403120000003,4.723017139962955,0.0,8623.0,1.0,-187.5,-548.0167776314865,0.0,0.375,1.358642439,4.393870913417703,0.0,0.4000000059604645,0.8799999952316284,37.40999984741211,0.20196533203125,0.15985107421875,1.0269775390625,33.25,0.0,240.0,-0.8000030517578125,-0.2280731201171875,Waiting,0.0,0.0,-190.0,0.0,0.0,0.0,0.0,0.0,
0.3448190000000177,0.0,0.0,14236.0,0.125,720.0,0.0,0.0,0.25,1.03759755,0.01,0.0,-12056.0,0.875,-292.5,-0.0,0.0,1.5,0.755615157,0.01,0.0,-8490.0,4.0,772.5,0.0,0.0,0.0,3.066405936,0.01,0.0,8590.0,0.125,-232.5,-0.0,0.0,1.875,1.4245604010000001,0.01,0.0,0.4000000059604645,1.2300000190734863,34.209999084472656,-0.05316162109375,-0.053955078125,0.8939208984375,33.25,0.0,-93.0,-0.7813568115234375,-0.2421417236328125,Closing,0.0,0.0,-190.0,0.0,0.0,0.0,0.0,0.0,
0.4062710000000661,0.0,0.0,14236.0,0.125,600.0,0.0,0.0,0.375,0.9851073210000001,0.01,0.0,-12056.0,0.0,-232.5,-0.0,0.0,1.125,0.6982421160000001,0.01,-0.07446288299999981,-8490.0,0.125,787.5,0.0,0.0,0.625,3.1542965520000004,0.01,0.014648435999999876,8590.0,0.125,-322.5,-0.0,0.0,0.875,1.4538572730000001,0.01,0.029296871999999752,0.41999998688697815,0.9700000286102295,33.25,-0.094482421875,0.08697509765625,1.0145263671875,33.25,0.0,-135.0,-0.7711181640625,-0.24798583984375,Closing,0.0,0.0,-190.0,0.0,0.0,0.0,0.0,0.0,
0.46456100000010336,0.0,0.0,14329.0,0.125,577.5,0.0,0.0,0.25,0.8801268630000001,0.01,-0.08422850700000006,-12091.0,0.0,-240.0,-0.0,0.0,0.0,0.557861271,0.01,-0.10253905200000002,-8400.0,0.125,532.5,0.0,0.0,0.125,3.3239742690000003,0.01,0.0,8531.0,0.125,-345.0,-0.0,0.0,0.25,1.564941246,0.01,0.0,0.4000000059604645,0.4399999976158142,31.729999542236328,-0.06707763671875,-0.05548095703125,1.0057373046875,33.29999923706055,0.0,-96.0,-0.761688232421875,-0.25244140625,Closing,0.0,0.0,-190.0,0.0,0.0,0.0,0.0,0.0,
0.5340760000000009,0.0,0.0,14329.0,0.125,555.0,0.0,0.0,0.25,0.8410643670000001,0.01,0.0,-12091.0,0.0,-285.0,-0.0,0.0,0.0,0.523681587,0.01,0.0,-8400.0,0.125,472.5,0.0,0.0,0.125,3.3630367650000004,0.01,0.0,8531.0,0.125,-330.0,-0.0,0.0,0.25,1.6076658510000001,0.01,0.0,0.38999998569488525,0.27000001072883606,31.43000030517578,-0.091796875,-0.04571533203125,1.07940673828125,33.29999923706055,0.0,-110.0,-0.7588653564453125,-0.2537994384765625,Closing,0.0,0.0,-190.0,0.0,0.0,0.0,0.0,0.0,
0.5839800000000978,0.0,0.0,14393.0,0.0,450.0,0.0,0.0,0.25,0.812988198,0.01,-0.08666991300000004,-12136.0,0.0,-277.5,-0.0,0.0,0.0,0.484619091,0.01,-0.14160154800000058,-8334.0,0.125,412.5,0.0,0.0,0.125,3.400878558,0.01,-4.756073847,8481.0,0.0,-300.0,-0.0,0.0,0.25,1.645507644,0.01,0.0988769429999996,0.4000000059604645,-0.029999999329447746,31.25,-0.12750244140625,0.01605224609375,1.07073974609375,33.29999923706055,0.0,-104.0,-0.7550048828125,-0.25616455078125,Closing,0.0,0.0,-190.0,0.0,0.0,0.0,0.0,0.0,
0.6499990000000689,0.0,0.0,14393.0,0.0,315.0,0.0,0.0,0.125,0.806884683,0.01,4.912719752,-12136.0,0.0,-262.5,-0.0,0.0,0.0,0.48095698200000003,0.01,-0.029296871999999752,-8334.0,0.125,277.5,0.0,0.0,0.125,3.402099261,0.01,0.023193356999999803,8481.0,0.125,-277.5,-0.0,0.0,0.125,1.6552732680000002,0.01,-4.9213789100000005,0.41999998688697815,-0.25999999046325684,31.329999923706055,-0.071044921875,-0.0284423828125,1.081298828125,33.29999923706055,0.0,-75.0,-0.7532501220703125,-0.2574310302734375,Closing,0.0,0.0,-190.0,0.0,0.0,0.0,0.0,0.0,
0.6933760000000475,0.0,0.0,14425.0,0.0,225.0,0.0,0.0,0.125,0.808105386,0.01,0.0,-12168.0,0.125,-187.5,-0.0,0.0,0.25,0.471191358,0.01,-0.008544920999999484,-8300.0,0.125,202.5,0.0,0.0,0.125,3.397216449,0.01,0.0,8445.0,0.125,-210.0,-0.0,0.0,0.125,1.6601560800000001,0.01,0.00732421800000016,0.4000000059604645,-0.49000000953674316,31.329999923706055,-0.13916015625,-0.01214599609375,1.035888671875,33.29999923706055,0.0,-121.0,-0.7537384033203125,-0.258087158203125,Closing,0.0,0.0,-190.0,0.0,0.0,0.0,0.0,0.0,
0.7872530000000261,0.0,0.0,14425.0,0.0,157.5,0.0,0.0,0.125,0.808105386,0.01,0.0,-12168.0,0.0,-120.0,-0.0,0.0,0.0,0.469970655,0.01,-0.003662109000000413,-8300.0,0.125,142.5,0.0,0.0,0.125,3.392333637,0.01,-0.004882811999999959,8445.0,0.125,-127.5,-0.0,0.0,0.125,1.6601560800000001,0.01,0.004882811999999959,0.4399999976158142,-0.800000011920929,31.229999542236328,-0.12811279296875,0.01763916015625,0.95916748046875,33.29999923706055,0.0,-92.0,-0.758148193359375,-0.2572021484375,Closing,0.0,0.0,-190.0,0.0,0.0,0.0,0.0,0.0,
0.8416380000000354,0.0,0.0,14436.0,0.0,52.5,0.0,0.0,0.125,0.806884683,0.01,0.0,-12182.0,0.0,-75.0,-0.0,0.0,0.0,0.484619091,0.01,-0.0012207029999995456,-8287.0,0.125,67.5,0.0,0.0,0.125,3.387450825,0.01,0.0,8433.0,0.125,-75.0,-0.0,0.0,0.25,1.6601560800000001,0.01,0.0,0.3700000047683716,-0.9800000190734863,31.3700008392334,-0.08489990234375,-0.01153564453125,1.00860595703125,33.29999923706055,0.0,-67.0,-0.7642669677734375,-0.2563934326171875,Closing,0.0,0.0,-190.0,0.0,0.0,0.0,0.0,0.0,
0.9073730000000214,0.0,0.0,14436.0,0.0,0.0,0.0,0.0,0.125,0.808105386,0.01,0.0,-12182.0,0.0,-22.5,-0.0,0.0,0.0,0.489501903,0.01,0.014648435999999876,-8287.0,0.375,45.0,0.0,0.0,0.125,3.387450825,0.01,0.0,8433.0,0.0,-30.0,-0.0,0.0,0.25,1.6601560800000001,0.01,0.0012207029999999897,0.41999998688697815,-1.0299999713897705,31.360000610351562,3.0517578125E-4,0.04071044921875,1.01251220703125,33.29999923706055,0.0,33.0,-0.7735595703125,-0.2559661865234375,Closing,0.0,0.0,-190.0,0.0,0.0,0.0,0.0,0.0,
0.948563000000082,0.0,0.0,14437.0,0.125,0.0,0.0,0.0,0.125,0.809326089,0.01,0.0,-12182.0,0.0,0.0,-0.0,0.0,0.0,0.490722606,0.01,0.004882811999999959,-8276.0,0.375,67.5,0.0,0.0,0.125,3.387450825,0.01,0.0,8430.0,0.0,-15.0,-0.0,0.0,0.25,1.6601560800000001,0.01,-0.0012207029999999897,0.4399999976158142,-1.0399999618530273,31.329999923706055,0.00360107421875,0.02935791015625,1.011474609375,33.2400016784668,0.0,29.0,-0.778778076171875,-0.255767822265625,Closing,0.0,0.0,-190.0,0.0,0.0,0.0,0.0,0.0,
1.005904000000097,0.0,0.0,14437.0,0.0,37.5,0.0,0.0,0.125,0.808105386,0.01,0.0012207029999995456,-12182.0,0.0,0.0,-0.0,0.0,0.25,0.489501903,0.01,0.0,-8276.0,0.375,52.5,0.0,0.0,0.125,3.387450825,0.01,-0.0012207029999999897,8430.0,0.0,0.0,-0.0,0.0,0.25,1.6589353770000002,0.01,0.0,0.3799999952316284,-1.0,31.360000610351562,0.04754638671875,0.05078125,1.010986328125,33.2400016784668,0.0,78.0,-0.7850494384765625,-0.255767822265625,Closing,0.0,0.0,-190.0,0.0,0.0,0.0,0.0,0.0,
1.06891100000008,0.0,0.0,14446.0,0.0,52.5,0.0,0.0,0.125,0.806884683,0.01,0.0,-12182.0,0.0,0.0,-0.0,0.0,0.125,0.490722606,0.01,0.0012207029999995456,-8272.0,0.375,22.5,0.0,0.0,0.125,3.385009419,0.01,0.0012207029999999897,8430.0,0.0,0.0,-0.0,0.0,0.25,1.6589353770000002,0.01,0.0,0.4000000059604645,-0.9100000262260437,31.360000610351562,0.03668212890625,0.0452880859375,0.99114990234375,33.2400016784668,0.0,64.0,-0.7897796630859375,-0.255767822265625,Closing,0.0,0.0,-190.0,0.0,0.0,0.0,0.0,0.0,
1.129514000000083,0.0,0.0,14446.0,0.0,22.5,0.0,0.0,0.125,0.808105386,0.01,0.0,-12182.0,0.0,0.0,-0.0,0.0,0.125,0.489501903,0.01,0.0,-8272.0,0.375,0.0,0.0,0.0,0.125,3.387450825,0.01,-0.0012207029999999897,8430.0,0.0,0.0,-0.0,0.0,0.25,1.6601560800000001,0.01,0.0,0.4099999964237213,-0.8700000047683716,31.34000015258789,0.0025634765625,0.04559326171875,0.97216796875,33.2400016784668,0.0,34.0,-0.792449951171875,-0.2556915283203125,Closing,0.0,0.0,-190.0,0.0,0.0,0.0,0.0,0.0,
1.168341000000015,0.0,0.0,14446.0,0.0,7.5,0.0,0.0,0.125,0.806884683,0.01,-0.0012207029999995456,-12182.0,0.0,0.0,-0.0,0.0,0.125,0.489501903,0.01,0.0,-8272.0,0.375,0.0,0.0,0.0,0.125,3.387450825,0.01,0.0,8430.0,0.0,0.0,-0.0,0.0,0.25,1.6577146740000002,0.01,0.0,0.4099999964237213,-0.8799999952316284,31.350000381469727,-0.02117919921875,-0.0264892578125,1.0283203125,33.2400016784668,0.0,-22.0,-0.79327392578125,-0.2556304931640625,Closing,0.0,0.0,-190.0,0.0,0.0,0.0,0.0,0.0,
1.2079310000000987,0.0,0.0,14446.0,0.0,0.0,0.0,0.0,0.125,0.8142089010000001,0.01,0.0,-12182.0,0.0,0.0,-0.0,0.0,0.125,0.489501903,0.01,0.0,-8272.0,0.5,0.0,0.0,0.0,0.125,3.388671528,0.01,0.0012207029999999897,8430.0,0.0,0.0,-0.0,0.0,0.25,1.6552732680000002,0.01,0.0,0.4099999964237213,-0.8999999761581421,31.360000610351562,-0.0302734375,-0.013916015625,1.05889892578125,33.2400016784668,0.0,-22.0,-0.793548583984375,-0.255889892578125,Closing,0.0,0.0,-190.0,0.0,0.0,0.0,0.0,0.0,
1.2659800000000978,0.0,0.0,14446.0,0.0,0.0,0.0,0.0,0.125,0.808105386,0.01,0.0012207029999995456,-12182.0,0.0,0.0,-0.0,0.0,0.25,0.489501903,0.01,-0.0012207029999995456,-8272.0,0.5,0.0,0.0,0.0,0.125,3.387450825,0.01,0.0,8430.0,0.0,0.0,-0.0,0.0,0.25,1.6601560800000001,0.01,0.0,0.4099999964237213,-0.8999999761581421,31.34000015258789,-0.02337646484375,-0.00506591796875,1.05621337890625,33.2400016784668,0.0,-12.0,-0.793701171875,-0.2560272216796875,Closing,0.0,0.0,-190.0,0.0,0.0,0.0,0.0,0.0,
1.3034170000000158,0.0,0.0,14446.0,0.0,0.0,0.0,0.0,0.125,0.809326089,0.01,0.0,-12182.0,0.0,0.0,-0.0,0.0,0.0,0.489501903,0.01,0.0,-8272.0,0.5,0.0,0.0,0.0,0.125,3.386230122,0.01,-0.0012207029999999897,8430.0,0.0,0.0,-0.0,0.0,0.25,1.6589353770000002,0.01,0.0,0.4300000071525574,-0.8700000047683716,31.34000015258789,-0.036376953125,-0.03875732421875,1.04638671875,33.2400016784668,0.0,-41.0,-0.793914794921875,-0.2561187744140625,Closing,0.0,0.0,-190.0,0.0,0.0,0.0,0.0,0.0,
1.3848240000000223,0.0,0.0,14446.0,0.125,0.0,0.0,0.0,0.125,0.808105386,0.01,-0.0012207029999995456,-12182.0,0.0,0.0,-0.0,0.0,0.125,0.498046824,0.01,0.0012207029999995456,-8272.0,0.5,0.0,0.0,0.0,0.125,3.387450825,0.01,0.0012207029999999897,8430.0,0.0,0.0,-0.0,0.0,0.25,1.649169753,0.01,0.0,0.4300000071525574,-0.8299999833106995,31.350000381469727,-0.041259765625,-0.02435302734375,1.0438232421875,33.2400016784668,0.0,-39.0,-0.79522705078125,-0.25653076171875,Closing,0.0,0.0,-190.0,0.0,0.0,0.0,0.0,0.0,
1.4143080000000774,0.0,0.0,14446.0,0.0,0.0,0.0,0.0,0.125,0.806884683,0.01,0.0,-12182.0,0.0,0.0,-0.0,0.0,0.25,0.489501903,0.01,-0.0012207029999995456,-8272.0,0.5,0.0,0.0,0.0,0.125,3.388671528,0.01,0.0,8430.0,0.0,0.0,-0.0,0.0,0.25,1.652831862,0.01,0.0,0.4300000071525574,-0.8299999833106995,31.34000015258789,-0.0098876953125,0.0174560546875,1.03143310546875,33.2400016784668,0.0,9.0,-0.796600341796875,-0.25653076171875,Closing,0.0,0.0,-190.0,0.0,0.0,0.0,0.0,0.0,
1.4725570000000299,0.0,0.0,14446.0,0.0,0.0,0.0,0.0,0.125,0.809326089,0.01,0.0,-12182.0,0.0,0.0,-0.0,0.0,0.125,0.489501903,0.01,0.0012207029999995456,-8272.0,0.5,0.0,0.0,0.0,0.125,3.387450825,0.01,0.0,8430.0,0.0,0.0,-0.0,0.0,0.25,1.6589353770000002,0.01,0.0,0.4399999976158142,-0.8199999928474426,31.34000015258789,0.0040283203125,0.0323486328125,0.99346923828125,33.279998779296875,0.0,28.0,-0.7965240478515625,-0.25653076171875,Closing,0.0,0.0,-190.0,0.0,0.0,0.0,0.0,0.0,
1.5277000000000698,0.0,0.0,14446.0,0.0,0.0,0.0,0.0,0.125,0.808105386,0.01,0.0,-12182.0,0.0,0.0,-0.0,0.0,0.0,0.489501903,0.01,0.0,-8272.0,0.5,0.0,0.0,0.0,0.125,3.387450825,0.01,0.0,8430.0,0.0,0.0,-0.0,0.0,0.25,1.6589353770000002,0.01,0.0,0.4399999976158142,-0.8100000023841858,31.34000015258789,0.02740478515625,0.072021484375,1.01434326171875,33.279998779296875,0.0,69.0,-0.7957763671875,-0.256439208984375,Closing,0.0,0.0,-190.0,0.0,0.0,0.0,0.0,0.0,
1.5833090000000083,0.0,0.0,14446.0,0.0,0.0,0.0,0.0,0.125,0.808105386,0.01,0.0012207029999995456,-12182.0,0.0,0.0,-0.0,0.0,0.125,0.489501903,0.01,0.0,-8272.0,0.5,0.0,0.0,0.0,0.125,3.388671528,0.01,-0.0012207029999999897,8430.0,0.0,0.0,-0.0,0.0,0.25,1.6601560800000001,0.01,0.0,0.4300000071525574,-0.7799999713897705,31.34000015258789,0.015625,0.02764892578125,0.9979248046875,33.279998779296875,0.0,35.0,-0.7936859130859375,-0.2560272216796875,Closing,0.0,0.0,-190.0,0.0,0.0,0.0,0.0,0.0,
1.613332000000053,0.0,0.0,14446.0,0.0,0.0,0.0,0.0,0.125,0.808105386,0.01,-0.0012207029999995456,-12182.0,0.0,0.0,-0.0,0.0,0.125,0.489501903,0.01,0.0,-8272.0,0.5,0.0,0.0,0.0,0.125,3.387450825,0.01,0.0,8430.0,0.0,0.0,-0.0,0.0,0.25,1.6601560800000001,0.01,0.0,0.4399999976158142,-0.7799999713897705,31.34000015258789,-0.00274658203125,0.058837890625,0.95941162109375,33.279998779296875,0.0,35.0,-0.79150390625,-0.2559356689453125,Closing,0.0,0.0,-190.0,0.0,0.0,0.0,0.0,0.0,
1.6752960000000894,0.0,0.0,14446.0,0.0,0.0,0.0,0.0,0.125,0.808105386,0.01,0.0,-12182.0,0.0,0.0,-0.0,0.0,0.25,0.489501903,0.01,-0.0012207029999995456,-8272.0,0.5,0.0,0.0,0.0,0.125,3.387450825,0.01,0.0012207029999999897,8430.0,0.0,0.0,-0.0,0.0,0.25,1.6589353770000002,0.01,0.0,0.44999998807907104,-0.7900000214576721,31.34000015258789,-0.0030517578125,0.01666259765625,0.9952392578125,33.279998779296875,0.0,13.0,-0.7898406982421875,-0.25567626953125,Closing,0.0,0.0,-190.0,0.0,0.0,0.0,0.0,0.0,
1.7138000000000466,0.0,0.0,14446.0,0.0,0.0,0.0,0.0,0.125,0.808105386,0.01,0.0,-12182.0,0.0,0.0,-0.0,0.0,0.0,0.48706049700000004,0.01,0.0012207029999995456,-8272.0,0.5,0.0,0.0,0.0,0.125,3.387450825,0.01,0.0,8430.0,0.0,0.0,-0.0,0.0,0.125,1.6601560800000001,0.01,0.0,0.44999998807907104,-0.7699999809265137,31.34000015258789,-0.01177978515625,-0.0145263671875,1.056396484375,33.279998779296875,0.0,-9.0,-0.7898406982421875,-0.2554473876953125,Closing,0.0,0.0,-190.0,0.0,0.0,0.0,0.0,0.0,
1.7669280000000727,0.0,0.0,14446.0,0.0,0.0,0.0,0.0,0.125,0.808105386,0.01,0.0,-12182.0,0.0,0.0,-0.0,0.0,0.0,0.489501903,0.01,-0.0012207029999995456,-8272.0,0.5,0.0,0.0,0.0,0.125,3.387450825,0.01,-0.0012207029999999897,8430.0,0.0,0.0,-0.0,0.0,0.25,1.6601560800000001,0.01,0.0,0.44999998807907104,-0.75,31.34000015258789,-0.02789306640625,-0.02239990234375,1.0501708984375,33.279998779296875,0.0,-27.0,-0.78985595703125,-0.255462646484375,Closing,0.0,0.0,-190.0,0.0,0.0,0.0,0.0,0.0,
1.8122840000001015,0.0,0.0,14446.0,0.0,0.0,0.0,0.0,0.125,0.808105386,0.01,0.0,-12182.0,0.0,0.0,-0.0,0.0,0.25,0.490722606,0.01,0.0,-8272.0,0.5,0.0,0.0,0.0,0.125,3.387450825,0.01,0.0012207029999999897,8430.0,0.0,0.0,-0.0,0.0,0.25,1.6589353770000002,0.01,0.0,0.46000000834465027,-0.75,31.34000015258789,-0.03961181640625,-0.0277099609375,1.04132080078125,33.279998779296875,0.0,-40.0,-0.7905731201171875,-0.2556304931640625,Closing,0.0,0.0,-190.0,0.0,0.0,0.0,0.0,0.0,
1.8725970000000671,0.0,0.0,14446.0,0.0,0.0,0.0,0.0,0.125,0.808105386,0.01,0.0,-12182.0,0.0,0.0,-0.0,0.0,0.25,0.489501903,0.01,0.0012207029999995456,-8272.0,0.5,0.0,0.0,0.0,0.125,3.388671528,0.01,0.0,8430.0,0.0,0.0,-0.0,0.0,0.25,1.6601560800000001,0.01,0.0,0.46000000834465027,-0.7400000095367432,31.34000015258789,-0.04302978515625,-0.026123046875,1.05120849609375,33.279998779296875,0.0,-43.0,-0.791778564453125,-0.2556304931640625,Closing,0.0,0.0,-190.0,0.0,0.0,0.0,0.0,0.0,
1.9258230000000913,0.0,0.0,14446.0,0.0,0.0,0.0,0.0,0.125,0.808105386,0.01,0.0,-12182.0,0.0,0.0,-0.0,0.0,0.0,0.489501903,0.01,-0.0012207029999995456,-8272.0,0.5,0.0,0.0,0.0,0.125,3.387450825,0.01,0.0,8430.0,0.0,0.0,-0.0,0.0,0.25,1.6601560800000001,0.01,0.0,0.44999998807907104,-0.7400000095367432,31.34000015258789,-0.0050048828125,0.01422119140625,1.03399658203125,33.279998779296875,0.0,10.0,-0.7933807373046875,-0.2556304931640625,Closing,0.0,0.0,-190.0,0.0,0.0,0.0,0.0,0.0,
1.9683230000000913,0.0,0.0,14446.0,0.0,0.0,0.0,0.0,0.125,0.808105386,0.01,0.0012207029999995456,-12182.0,0.0,0.0,-0.0,0.0,0.125,0.489501903,0.01,0.0012207029999995456,-8272.0,0.5,0.0,0.0,0.0,0.125,3.387450825,0.01,-0.0012207029999999897,8430.0,0.0,0.0,-0.0,0.0,0.25,1.6601560800000001,0.01,0.0,0.44999998807907104,-0.7300000190734863,31.34000015258789,0.0113525390625,0.04864501953125,0.9921875,33.290000915527344,0.0,41.0,-0.7952117919921875,-0.255615234375,Closing,0.0,0.0,-190.0,0.0,0.0,0.0,0.0,0.0,
2.013515000000014,0.0,0.0,14446.0,0.0,0.0,0.0,0.0,0.125,0.808105386,0.01,-0.0012207029999995456,-12182.0,0.0,0.0,-0.0,0.0,0.0,0.489501903,0.01,0.0,-8272.0,0.5,0.0,0.0,0.0,0.125,3.387450825,0.01,0.0012207029999999897,8430.0,0.0,0.0,-0.0,0.0,0.25,1.6589353770000002,0.01,0.0,0.4399999976158142,-0.7200000286102295,31.34000015258789,0.02899169921875,0.0595703125,1.02301025390625,33.290000915527344,0.0,62.0,-0.7959136962890625,-0.2552947998046875,Closing,0.0,0.0,-190.0,0.0,0.0,0.0,0.0,0.0,
2.074369999999995,0.0,0.0,14446.0,0.0,0.0,0.0,0.0,0.125,0.806884683,0.01,0.0012207029999995456,-12182.0,0.0,0.0,-0.0,0.0,0.0,0.489501903,0.01,-0.0012207029999995456,-8272.0,0.5,0.0,0.0,0.0,0.125,3.386230122,0.01,0.0,8430.0,0.0,0.0,-0.0,0.0,0.25,1.6589353770000002,0.01,0.0,0.4399999976158142,-0.7099999785423279,31.34000015258789,0.00494384765625,0.0535888671875,0.96063232421875,33.290000915527344,0.0,38.0,-0.7958984375,-0.255096435546875,Closing,0.0,0.0,-190.0,0.0,0.0,0.0,0.0,0.0,
2.128078000000096,0.0,0.0,14446.0,0.0,0.0,0.0,0.0,0.125,0.808105386,0.01,0.0,-12182.0,0.0,0.0,-0.0,0.0,0.125,0.489501903,0.01,0.0012207029999995456,-8272.0,0.5,0.0,0.0,0.0,0.125,3.387450825,0.01,0.0,8430.0,0.0,0.0,-0.0,0.0,0.25,1.6589353770000002,0.01,0.0,0.46000000834465027,-0.7099999785423279,31.34000015258789,-0.00335693359375,-9.765625E-4,0.99688720703125,33.290000915527344,0.0,3.0,-0.79541015625,-0.2548980712890625,Closing,0.0,0.0,-190.0,0.0,0.0,0.0,0.0,0.0,
2.1616970000000437,0.0,0.0,14446.0,0.0,0.0,0.0,0.0,0.125,0.806884683,0.01,-0.0012207029999995456,-12182.0,0.0,0.0,-0.0,0.0,0.0,0.490722606,0.01,0.0,-8272.0,0.5,0.0,0.0,0.0,0.125,3.386230122,0.01,0.0,8430.0,0.0,0.0,-0.0,0.0,0.25,1.6589353770000002,0.01,0.0,0.46000000834465027,-0.699999988079071,31.34000015258789,-0.00958251953125,-0.02862548828125,1.0390625,33.290000915527344,0.0,-16.0,-0.7952423095703125,-0.2550048828125,Closing,0.0,0.0,-190.0,0.0,0.0,0.0,0.0,0.0,
2.2038540000000504,0.0,0.0,14446.0,0.0,0.0,0.0,0.0,0.125,0.808105386,0.01,0.0012207029999995456,-12182.0,0.0,0.0,-0.0,0.0,0.0,0.489501903,0.01,-0.0012207029999995456,-8272.0,0.5,0.0,0.0,0.0,0.125,3.388671528,0.01,-0.0012207029999999897,8430.0,0.0,0.0,-0.0,0.0,0.125,1.6601560800000001,0.01,0.0,0.46000000834465027,-0.6800000071525574,31.34000015258789,-0.04608154296875,-0.02911376953125,1.05419921875,33.290000915527344,0.0,-48.0,-0.7953338623046875,-0.2553863525390625,Closing,0.0,0.0,-190.0,0.0,0.0,0.0,0.0,0.0,
2.268776000000071,0.0,0.0,14446.0,0.0,0.0,0.0,0.0,0.125,0.808105386,0.01,0.0,-12182.0,0.0,0.0,-0.0,0.0,0.125,0.489501903,0.01,0.0012207029999995456,-8272.0,0.5,0.0,0.0,0.0,0.125,3.387450825,0.01,0.0012207029999999897,8430.0,0.0,0.0,-0.0,0.0,0.25,1.6589353770000002,0.01,0.0,0.47999998927116394,-0.6899999976158142,31.34000015258789,-0.0518798828125,-0.038330078125,1.04400634765625,33.290000915527344,0.0,-58.0,-0.795684814453125,-0.255462646484375,Closing,0.0,0.0,-190.0,0.0,0.0,0.0,0.0,0.0,
2.309453000000096,0.0,0.0,14446.0,0.0,0.0,0.0,0.0,0.125,0.808105386,0.01,0.0,-12182.0,0.0,0.0,-0.0,0.0,0.125,0.489501903,0.01,0.0,-8272.0,0.5,0.0,0.0,0.0,0.125,3.386230122,0.01,0.0,8430.0,0.0,0.0,-0.0,0.0,0.25,1.6589353770000002,0.01,0.0,0.4699999988079071,-0.6800000071525574,31.34000015258789,-0.0377197265625,-0.0283203125,1.035400390625,33.290000915527344,0.0,-40.0,-0.7967071533203125,-0.2555389404296875,Closing,0.0,0.0,-190.0,0.0,0.0,0.0,0.0,0.0,
2.3501480000000448,0.0,0.0,14446.0,0.0,0.0,0.0,0.0,0.125,0.808105386,0.01,0.0,-12182.0,0.0,0.0,-0.0,0.0,0.0,0.489501903,0.01,0.0,-8272.0,0.5,0.0,0.0,0.0,0.125,3.387450825,0.01,0.0,8430.0,0.0,0.0,-0.0,0.0,0.25,1.6601560800000001,0.01,0.0,0.4699999988079071,-0.6700000166893005,31.329999923706055,-9.1552734375E-4,0.01214599609375,1.03900146484375,33.290000915527344,0.0,11.0,-0.7987518310546875,-0.2555389404296875,Closing,0.0,0.0,-190.0,0.0,0.0,0.0,0.0,0.0,
2.4112170000000623,0.0,0.0,14446.0,0.0,0.0,0.0,0.0,0.125,0.808105386,0.01,-0.0012207029999995456,-12182.0,0.0,0.0,-0.0,0.0,0.125,0.489501903,0.01,0.0,-8272.0,0.5,0.0,0.0,0.0,0.125,3.388671528,0.01,-0.0012207029999999897,8430.0,0.0,0.0,-0.0,0.0,0.125,1.6552732680000002,0.01,0.0,0.4699999988079071,-0.6800000071525574,31.329999923706055,0.005615234375,0.0506591796875,0.98785400390625,33.290000915527344,0.0,36.0,-0.80059814453125,-0.2555084228515625,Closing,0.0,0.0,-190.0,0.0,0.0,0.0,0.0,0.0,
2.467722999999998,0.0,0.0,14446.0,0.0,0.0,0.0,0.0,0.125,0.808105386,0.01,0.0,-12182.0,0.0,0.0,-0.0,0.0,0.125,0.489501903,0.01,0.0,-8272.0,0.5,0.0,0.0,0.0,0.125,3.387450825,0.01,0.0012207029999999897,8430.0,0.0,0.0,-0.0,0.0,0.125,1.6589353770000002,0.01,0.0,0.44999998807907104,-0.6800000071525574,31.329999923706055,0.0257568359375,0.06719970703125,1.02044677734375,33.290000915527344,0.0,63.0,-0.80120849609375,-0.2553253173828125,Closing,0.0,0.0,-190.0,0.0,0.0,0.0,0.0,0.0,
2.5032290000000503,0.0,0.0,14447.0,0.0,0.0,0.0,0.0,0.125,0.808105386,0.01,0.0,-12182.0,0.0,0.0,-0.0,0.0,0.125,0.490722606,0.01,-0.0012207029999995456,-8272.0,0.5,0.0,0.0,0.0,0.125,3.387450825,0.01,0.0012207029999999897,8430.0,0.0,0.0,-0.0,0.0,0.25,1.6577146740000002,0.01,0.0,0.44999998807907104,-0.6700000166893005,31.329999923706055,0.01727294921875,0.0355224609375,1.00555419921875,33.310001373291016,0.0,39.0,-0.8015289306640625,-0.2550201416015625,Closing,0.0,0.0,-190.0,0.0,0.0,0.0,0.0,0.0,
2.5462780000000493,0.0,0.0,14447.0,0.0,7.5,0.0,0.0,0.125,0.806884683,0.01,0.0,-12182.0,0.0,0.0,-0.0,0.0,0.25,0.482177685,0.01,-0.0012207029999995456,-8272.0,0.5,0.0,0.0,0.0,0.125,3.387450825,0.01,-0.0012207029999999897,8430.0,0.0,0.0,-0.0,0.0,0.25,1.6601560800000001,0.01,0.0,0.46000000834465027,-0.6600000262260437,31.329999923706055,0.00164794921875,0.05450439453125,0.95477294921875,33.310001373291016,0.0,35.0,-0.80145263671875,-0.25494384765625,Closing,0.0,0.0,-190.0,0.0,0.0,0.0,0.0,0.0,
2.594329000000027,0.0,0.0,14447.0,0.0,0.0,0.0,0.0,0.125,0.806884683,0.01,0.0,-12182.0,0.0,0.0,-0.0,0.0,0.0,0.489501903,0.01,0.0,-8272.0,0.5,0.0,0.0,0.0,0.125,3.387450825,0.01,0.0,8430.0,0.0,0.0,-0.0,0.0,0.25,1.6601560800000001,0.01,0.0,0.46000000834465027,-0.6600000262260437,31.329999923706055,-0.00177001953125,-0.01422119140625,1.0069580078125,33.310001373291016,0.0,-3.0,-0.8012237548828125,-0.254608154296875,Closing,0.0,0.0,-190.0,0.0,0.0,0.0,0.0,0.0,
2.650707000000053,0.0,0.0,14447.0,0.0,0.0,0.0,0.0,0.125,0.808105386,0.01,0.0,-12182.0,0.0,0.0,-0.0,0.0,0.0,0.489501903,0.01,0.0012207029999995456,-8272.0,0.5,0.0,0.0,0.0,0.125,3.386230122,0.01,0.0,8430.0,0.0,0.0,-0.0,0.0,0.125,1.6601560800000001,0.01,0.0,0.46000000834465027,-0.6499999761581421,31.329999923706055,-0.015625,-4.8828125E-4,1.05584716796875,33.310001373291016,0.0,-7.0,-0.8012237548828125,-0.2545318603515625,Closing,0.0,0.0,-190.0,0.0,0.0,0.0,0.0,0.0,
2.686616000000038,0.0,0.0,14447.0,0.0,0.0,0.0,0.0,0.125,0.808105386,0.01,0.0,-12182.0,0.0,0.0,-0.0,0.0,0.0,0.496826121,0.01,0.0,-8272.0,0.5,0.0,0.0,0.0,0.125,3.387450825,0.01,0.0012207029999999897,8430.0,0.0,0.0,-0.0,0.0,0.125,1.6589353770000002,0.01,0.0,0.47999998927116394,-0.6399999856948853,31.329999923706055,-0.0478515625,-0.037353515625,1.0570068359375,33.310001373291016,0.0,-54.0,-0.801361083984375,-0.254547119140625,Closing,0.0,0.0,-190.0,0.0,0.0,0.0,0.0,0.0,
2.7293649999999907,0.0,0.0,14447.0,0.0,0.0,0.0,0.0,0.125,0.808105386,0.01,0.0012207029999995456,-12182.0,0.0,0.0,-0.0,0.0,0.25,0.489501903,0.01,-0.0012207029999995456,-8272.0,0.5,0.0,0.0,0.0,0.125,3.388671528,0.01,0.0,8430.0,0.0,0.0,-0.0,0.0,0.25,1.6589353770000002,0.01,0.0,0.47999998927116394,-0.6399999856948853,31.31999969482422,-0.03851318359375,-0.0301513671875,1.03985595703125,33.310001373291016,0.0,-43.0,-0.802093505859375,-0.254791259765625,Closing,0.0,0.0,-190.0,0.0,0.0,0.0,0.0,0.0,
2.768054000000004,0.0,0.0,14448.0,0.0,0.0,0.0,0.0,0.125,0.808105386,0.01,-0.0012207029999995456,-12182.0,0.0,0.0,-0.0,0.0,0.25,0.489501903,0.01,0.0012207029999995456,-8272.0,0.5,0.0,0.0,0.0,0.125,3.387450825,0.01,-0.0012207029999999897,8430.0,0.0,0.0,-0.0,0.0,0.25,1.6601560800000001,0.01,0.0,0.4699999988079071,-0.6299999952316284,31.31999969482422,-0.03662109375,-0.01580810546875,1.0491943359375,33.310001373291016,0.0,-34.0,-0.8033447265625,-0.2549285888671875,Closing,0.0,0.0,-190.0,0.0,0.0,0.0,0.0,0.0,
2.8067760000000708,0.0,0.0,14448.0,0.0,7.5,0.0,0.0,0.125,0.808105386,0.01,-0.0012207030000004337,-12182.0,0.0,0.0,-0.0,0.0,0.125,0.489501903,0.01,0.0,-8272.0,0.5,0.0,0.0,0.0,0.125,3.387450825,0.01,0.0012207029999999897,8430.0,0.0,0.0,-0.0,0.0,0.25,1.6601560800000001,0.01,0.0,0.4699999988079071,-0.6299999952316284,31.31999969482422,0.009521484375,0.02130126953125,1.00579833984375,33.310001373291016,0.0,24.0,-0.8038330078125,-0.2549285888671875,Closing,0.0,0.0,-190.0,0.0,0.0,0.0,0.0,0.0,
2.8670070000000996,0.0,0.0,14449.0,0.0,7.5,0.0,0.0,0.125,0.806884683,0.01,0.0012207030000004337,-12182.0,0.0,0.0,-0.0,0.0,0.25,0.489501903,0.01,-0.0012207029999995456,-8272.0,0.5,0.0,0.0,0.0,0.125,3.395995746,0.01,0.0,8430.0,0.0,0.0,-0.0,0.0,0.25,1.6589353770000002,0.01,0.0,0.44999998807907104,-0.6399999856948853,31.31999969482422,0.0177001953125,0.0628662109375,1.00494384765625,33.310001373291016,0.0,53.0,-0.803497314453125,-0.2548370361328125,Closing,0.0,0.0,-190.0,0.0,0.0,0.0,0.0,0.0,
2.9301770000000253,0.0,0.0,14449.0,0.0,0.0,0.0,0.0,0.125,0.808105386,0.01,0.0,-12182.0,0.0,0.0,-0.0,0.0,0.25,0.489501903,0.01,0.0,-8272.0,0.5,0.0,0.0,0.0,0.125,3.387450825,0.01,0.0,8430.0,0.0,0.0,-0.0,0.0,0.25,1.6625974860000001,0.01,0.0,0.44999998807907104,-0.6399999856948853,31.31999969482422,0.0257568359375,0.0379638671875,1.0247802734375,33.310001373291016,0.0,47.0,-0.80255126953125,-0.2544403076171875,Closing,0.0,0.0,-190.0,0.0,0.0,0.0,0.0,0.0,
2.965771999999997,0.0,0.0,14449.0,0.0,0.0,0.0,0.0,0.125,0.808105386,0.01,0.0,-12182.0,0.0,0.0,-0.0,0.0,0.25,0.489501903,0.01,0.0,-8272.0,0.5,0.0,0.0,0.0,0.125,3.387450825,0.01,0.0,8430.0,0.0,0.0,-0.0,0.0,0.25,1.6589353770000002,0.01,0.0,0.44999998807907104,-0.6200000047683716,31.31999969482422,0.0107421875,0.04901123046875,0.98956298828125,33.310001373291016,0.0,39.0,-0.801605224609375,-0.2544097900390625,Closing,0.0,0.0,-190.0,0.0,0.0,0.0,0.0,0.0,
3.00512200000009,0.0,0.0,14450.0,0.0,0.0,0.0,0.0,0.125,0.808105386,0.01,0.0,-12182.0,0.0,0.0,-0.0,0.0,0.25,0.489501903,0.01,0.0,-8272.0,0.5,0.0,0.0,0.0,0.125,3.387450825,0.01,0.0,8430.0,0.0,0.0,-0.0,0.0,0.25,1.6601560800000001,0.01,0.0,0.46000000834465027,-0.6299999952316284,31.31999969482422,-0.00872802734375,-0.0169677734375,0.99945068359375,33.27000045776367,0.0,-11.0,-0.799224853515625,-0.2539825439453125,Closing,0.0,0.0,-190.0,0.0,0.0,0.0,0.0,0.0,
3.0511850000000558,0.0,0.0,14450.0,0.0,7.5,0.0,0.0,0.125,0.806884683,0.01,0.0,-12182.0,0.0,0.0,-0.0,0.0,0.25,0.489501903,0.01,0.0,-8272.0,0.5,0.0,0.0,0.0,0.125,3.387450825,0.01,0.0,8430.0,0.0,0.0,-0.0,0.0,0.25,1.6589353770000002,0.01,0.0,0.46000000834465027,-0.6299999952316284,31.31999969482422,-0.0093994140625,-0.02593994140625,1.0477294921875,33.27000045776367,0.0,-15.0,-0.799224853515625,-0.2538604736328125,Closing,0.0,0.0,-190.0,0.0,0.0,0.0,0.0,0.0,
3.0878570000000765,0.0,0.0,14450.0,0.0,0.0,0.0,0.0,0.125,0.808105386,0.01,0.0,-12182.0,0.0,0.0,-0.0,0.0,0.125,0.4882812,0.01,0.0012207029999995456,-8272.0,0.5,0.0,0.0,0.0,0.125,3.387450825,0.01,0.0,8430.0,0.0,0.0,-0.0,0.0,0.125,1.6589353770000002,0.01,0.0,0.46000000834465027,-0.6200000047683716,31.31999969482422,-0.01422119140625,-0.00274658203125,1.0506591796875,33.27000045776367,0.0,-8.0,-0.799224853515625,-0.2538604736328125,Closing,0.0,0.0,-190.0,0.0,0.0,0.0,0.0,0.0,
3.1317110000000103,0.0,0.0,14450.0,0.0,0.0,0.0,0.0,0.125,0.808105386,0.01,0.0012207029999995456,-12182.0,0.0,0.0,-0.0,0.0,0.125,0.489501903,0.01,0.0,-8272.0,0.5,0.0,0.0,0.0,0.125,3.387450825,0.01,-0.0012207029999999897,8430.0,0.0,0.0,-0.0,0.0,0.125,1.6589353770000002,0.01,0.0,0.47999998927116394,-0.6100000143051147,31.31999969482422,-0.04644775390625,-0.0341796875,1.050537109375,33.27000045776367,0.0,-52.0,-0.799346923828125,-0.2538604736328125,Closing,0.0,0.0,-190.0,0.0,0.0,0.0,0.0,0.0,
3.1875100000000094,0.0,0.0,14450.0,0.0,0.0,0.0,0.0,0.125,0.808105386,0.01,-0.0012207029999995456,-12182.0,0.0,0.0,-0.0,0.0,0.125,0.489501903,0.01,0.0,-8272.0,0.5,0.0,0.0,0.0,0.125,3.387450825,0.01,0.0,8430.0,0.0,0.0,-0.0,0.0,0.25,1.6601560800000001,0.01,0.0,0.47999998927116394,-0.6100000143051147,31.31999969482422,-0.03680419921875,-0.03045654296875,1.037109375,33.27000045776367,0.0,-42.0,-0.8004608154296875,-0.254119873046875,Closing,0.0,0.0,-190.0,0.0,0.0,0.0,0.0,0.0,
3.2166320000000996,0.0,0.0,14450.0,0.0,0.0,0.0,0.0,0.125,0.808105386,0.01,0.0,-12182.0,0.0,0.0,-0.0,0.0,0.125,0.489501903,0.01,0.0,-8272.0,0.5,0.0,0.0,0.0,0.125,3.387450825,0.01,0.0,8430.0,0.0,0.0,-0.0,0.0,0.25,1.6601560800000001,0.01,0.0,0.46000000834465027,-0.6000000238418579,31.309999465942383,-0.0023193359375,0.015869140625,1.0484619140625,33.27000045776367,0.0,11.0,-0.801910400390625,-0.2543792724609375,Closing,0.0,0.0,-190.0,0.0,0.0,0.0,0.0,0.0,
3.2737360000000337,0.0,0.0,14450.0,0.0,0.0,0.0,0.0,0.125,0.808105386,0.01,0.0,-12182.0,0.0,0.0,-0.0,0.0,0.125,0.489501903,0.01,0.0,-8272.0,0.5,0.0,0.0,0.0,0.125,3.387450825,0.01,0.0012207029999999897,8430.0,0.0,0.0,-0.0,0.0,0.25,1.6589353770000002,0.01,0.0,0.47999998927116394,-0.6000000238418579,31.309999465942383,0.00775146484375,0.02191162109375,1.0009765625,33.27000045776367,0.0,22.0,-0.8018798828125,-0.2543792724609375,Closing,0.0,0.0,-190.0,0.0,0.0,0.0,0.0,0.0,
3.3253820000000998,0.0,0.0,14450.0,0.0,0.0,0.0,0.0,0.125,0.808105386,0.01,0.0012207029999995456,-12182.0,0.0,0.0,-0.0,0.0,0.25,0.489501903,0.01,-0.0012207029999995456,-8272.0,0.5,0.0,0.0,0.0,0.125,3.387450825,0.01,0.0,8430.0,0.0,0.0,-0.0,0.0,0.125,1.6601560800000001,0.01,0.0,0.46000000834465027,-0.6100000143051147,31.309999465942383,0.014892578125,0.0655517578125,1.00201416015625,33.27000045776367,0.0,51.0,-0.8015594482421875,-0.254302978515625,Closing,0.0,0.0,-190.0,0.0,0.0,0.0,0.0,0.0,
3.3564949999999953,0.0,0.0,14450.0,0.125,0.0,0.0,0.0,0.125,0.808105386,0.01,0.0,-12182.0,0.0,0.0,-0.0,0.0,0.25,0.489501903,0.01,0.0012207029999995456,-8272.0,0.5,0.0,0.0,0.0,0.125,3.387450825,0.01,-0.0012207029999999897,8430.0,0.0,0.0,-0.0,0.0,0.125,1.6589353770000002,0.01,0.0,0.46000000834465027,-0.6000000238418579,31.309999465942383,0.01800537109375,0.0367431640625,1.00640869140625,33.27000045776367,0.0,39.0,-0.800201416015625,-0.2538909912109375,Closing,0.0,0.0,-190.0,0.0,0.0,0.0,0.0,0.0,
3.4089729999999983,0.0,0.0,14450.0,0.0,0.0,0.0,0.0,0.125,0.808105386,0.01,0.0,-12182.0,0.0,0.0,-0.0,0.0,0.125,0.489501903,0.01,0.0,-8272.0,0.5,0.0,0.0,0.0,0.125,3.387450825,0.01,0.0,8430.0,0.0,0.0,-0.0,0.0,0.125,1.6601560800000001,0.01,0.0,0.4699999988079071,-0.6000000238418579,31.309999465942383,0.00323486328125,0.06134033203125,0.9578857421875,33.27000045776367,0.0,39.0,-0.799163818359375,-0.2537994384765625,Closing,0.0,0.0,-190.0,0.0,0.0,0.0,0.0,0.0,
3.462476000000024,0.0,0.0,14450.0,0.0,0.0,0.0,0.0,0.125,0.808105386,0.01,-0.0012207029999995456,-12182.0,0.0,0.0,-0.0,0.0,0.125,0.489501903,0.01,-0.0012207029999995456,-8272.0,0.5,0.0,0.0,0.0,0.125,3.387450825,0.01,0.0012207029999999897,8430.0,0.0,0.0,-0.0,0.0,0.25,1.6589353770000002,0.01,0.0,0.47999998927116394,-0.6100000143051147,31.309999465942383,-0.00439453125,-0.01220703125,0.99822998046875,33.27000045776367,0.0,-5.0,-0.797332763671875,-0.2534027099609375,Closing,0.0,0.0,-190.0,0.0,0.0,0.0,0.0,0.0,
3.5033910000000614,0.0,0.0,14450.0,0.125,0.0,0.0,0.0,0.125,0.808105386,0.01,0.0012207029999995456,-12182.0,0.0,0.0,-0.0,0.0,0.25,0.489501903,0.01,0.0012207029999995456,-8272.0,0.5,0.0,0.0,0.0,0.125,3.387450825,0.01,0.0,8430.0,0.0,0.0,-0.0,0.0,0.25,1.6601560800000001,0.01,0.0,0.4699999988079071,-0.6000000238418579,31.309999465942383,-0.0126953125,4.8828125E-4,1.04315185546875,33.279998779296875,0.0,-5.0,-0.797332763671875,-0.2532196044921875,Closing,0.0,0.0,-190.0,0.0,0.0,0.0,0.0,0.0,
3.548014000000083,0.0,0.0,14450.0,0.0,0.0,0.0,0.0,0.125,0.808105386,0.01,0.0012207029999995456,-12182.0,0.0,0.0,-0.0,0.0,0.125,0.489501903,0.01,0.0012207029999995456,-8272.0,0.5,0.0,0.0,0.0,0.125,3.386230122,0.01,0.0,8430.0,0.0,0.0,-0.0,0.0,0.25,1.6589353770000002,0.01,0.0,0.49000000953674316,-0.5799999833106995,31.309999465942383,-0.04827880859375,-0.03521728515625,1.055908203125,33.279998779296875,0.0,-55.0,-0.7974700927734375,-0.2532196044921875,Closing,0.0,0.0,-190.0,0.0,0.0,0.0,0.0,0.0,
3.5936980000000913,0.0,0.0,14450.0,0.125,0.0,0.0,0.0,0.125,0.808105386,0.01,0.0,-12182.0,0.0,0.0,-0.0,0.0,0.0,0.489501903,0.01,-0.0012207029999995456,-8272.0,0.5,0.0,0.0,0.0,0.125,3.387450825,0.01,-0.0012207029999999897,8430.0,0.0,0.0,-0.0,0.0,0.25,1.6589353770000002,0.01,0.0,0.49000000953674316,-0.6000000238418579,31.309999465942383,-0.040771484375,-0.0321044921875,1.041748046875,33.279998779296875,0.0,-46.0,-0.7982177734375,-0.2532196044921875,Closing,0.0,0.0,-190.0,0.0,0.0,0.0,0.0,0.0,
3.6501909999999915,0.0,0.0,14450.0,0.125,0.0,0.0,0.0,0.125,0.825195228,0.01,-0.0012207029999995456,-12182.0,0.0,0.0,-0.0,0.0,0.0,0.489501903,0.01,0.0012207029999995456,-8272.0,0.5,0.0,0.0,0.0,0.125,3.387450825,0.01,0.0012207029999999897,8430.0,0.0,0.0,-0.0,0.0,0.25,1.6577146740000002,0.01,0.0,0.47999998927116394,-0.5899999737739563,31.309999465942383,-0.0361328125,-0.0126953125,1.05487060546875,33.279998779296875,0.0,-32.0,-0.7995452880859375,-0.2532196044921875,Closing,0.0,0.0,-190.0,0.0,0.0,0.0,0.0,0.0,
3.6851260000000474,0.0,0.0,14450.0,0.125,0.0,0.0,0.0,0.125,0.809326089,0.01,0.0,-12182.0,0.0,0.0,-0.0,0.0,0.25,0.489501903,0.01,-0.0012207029999995456,-8272.0,0.5,0.0,0.0,0.0,0.125,3.387450825,0.01,-0.0012207029999999897,8430.0,0.0,0.0,-0.0,0.0,0.25,1.6601560800000001,0.01,0.0,0.49000000953674316,-0.5899999737739563,31.309999465942383,0.0076904296875,0.0228271484375,0.9974365234375,33.279998779296875,0.0,22.0,-0.79998779296875,-0.2532196044921875,Closing,0.0,0.0,-190.0,0.0,0.0,0.0,0.0,0.0,
3.7331080000000076,0.0,0.0,14450.0,0.0,0.0,0.0,0.0,0.125,0.808105386,0.01,0.0,-12182.0,0.0,0.0,-0.0,0.0,0.0,0.489501903,0.01,0.0012207029999995456,-8272.0,0.5,0.0,0.0,0.0,0.125,3.387450825,0.01,0.0012207029999999897,8430.0,0.0,0.0,-0.0,0.0,0.25,1.6601560800000001,0.01,0.0,0.47999998927116394,-0.5899999737739563,31.309999465942383,0.01080322265625,0.05255126953125,0.98907470703125,33.279998779296875,0.0,40.0,-0.7997589111328125,-0.253204345703125,Closing,0.0,0.0,-190.0,0.0,0.0,0.0,0.0,0.0,
3.773685000000056,0.0,0.0,14450.0,0.0,0.0,0.0,0.0,0.125,0.808105386,0.01,0.0,-12182.0,0.0,0.0,-0.0,0.0,0.25,0.489501903,0.01,-0.0012207029999995456,-8272.0,0.5,0.0,0.0,0.0,0.125,3.387450825,0.01,0.0,8430.0,0.0,0.0,-0.0,0.0,0.25,1.6601560800000001,0.01,0.0,0.46000000834465027,-0.5899999737739563,31.309999465942383,0.02227783203125,0.03814697265625,1.01776123046875,33.279998779296875,0.0,43.0,-0.7985382080078125,-0.252716064453125,Closing,0.0,0.0,-190.0,0.0,0.0,0.0,0.0,0.0,
3.8400600000000558,0.0,0.0,14450.0,0.0,0.0,0.0,0.0,0.125,0.808105386,0.01,0.0012207029999995456,-12182.0,0.0,0.0,-0.0,0.0,0.25,0.489501903,0.01,0.0,-8272.0,0.5,0.0,0.0,0.0,0.125,3.387450825,0.01,-0.0012207029999999897,8430.0,0.0,0.0,-0.0,0.0,0.25,1.6589353770000002,0.01,0.0,0.47999998927116394,-0.5899999737739563,31.309999465942383,-0.0064697265625,0.02874755859375,0.9697265625,33.279998779296875,0.0,13.0,-0.7964019775390625,-0.2524871826171875,Closing,0.0,0.0,-190.0,0.0,0.0,0.0,0.0,0.0,
3.8972220000000672,0.0,0.0,14450.0,0.125,0.0,0.0,0.0,0.125,0.808105386,0.01,-0.0012207029999995456,-12182.0,0.0,0.0,-0.0,0.0,0.125,0.4882812,0.01,0.0,-8272.0,0.5,0.0,0.0,0.0,0.125,3.387450825,0.01,0.0,8430.0,0.0,0.0,-0.0,0.0,0.25,1.6638181890000001,0.01,0.0,0.4699999988079071,-0.5899999737739563,31.309999465942383,-0.0089111328125,-0.00994873046875,1.04058837890625,33.279998779296875,0.0,-8.0,-0.7941131591796875,-0.2527313232421875,Closing,0.0,0.0,-190.0,0.0,0.0,0.0,0.0,0.0,
3.9476500000000234,0.0,0.0,14450.0,0.125,0.0,0.0,0.0,0.125,0.8300780400000001,0.01,-0.0012207029999995456,-12182.0,0.0,0.0,-0.0,0.0,0.125,0.489501903,0.01,0.0,-8272.0,0.5,0.0,0.0,0.0,0.125,3.387450825,0.01,0.0,8430.0,0.0,0.0,-0.0,0.0,0.25,1.6589353770000002,0.01,0.0,0.47999998927116394,-0.5799999833106995,31.309999465942383,-0.02142333984375,-0.0047607421875,1.04681396484375,33.279998779296875,0.0,-16.0,-0.7941131591796875,-0.2527313232421875,Closing,0.0,0.0,-190.0,0.0,0.0,0.0,0.0,0.0,
4.001815999999992,0.0,0.0,14450.0,0.125,0.0,0.0,0.0,0.125,0.806884683,0.01,0.0,-12182.0,0.0,0.0,-0.0,0.0,0.25,0.489501903,0.01,-0.0012207029999995456,-8272.0,0.5,0.0,0.0,0.0,0.125,3.387450825,0.01,0.0,8430.0,0.0,0.0,-0.0,0.0,0.125,1.6601560800000001,0.01,0.0,0.5,-0.5799999833106995,31.309999465942383,-0.0439453125,-0.03643798828125,1.045654296875,33.279998779296875,0.0,-52.0,-0.794647216796875,-0.2527618408203125,Closing,0.0,0.0,-190.0,0.0,0.0,0.0,0.0,0.0,
4.058512000000104,0.0,0.0,14450.0,0.125,0.0,0.0,0.0,0.125,0.808105386,0.01,-0.0012207029999995456,-12182.0,0.0,0.0,-0.0,0.0,0.25,0.489501903,0.01,0.0012207029999995456,-8272.0,0.5,0.0,0.0,0.0,0.125,3.387450825,0.01,0.0012207029999999897,8430.0,0.0,0.0,-0.0,0.0,0.125,1.6589353770000002,0.01,0.0,0.47999998927116394,-0.5799999833106995,31.309999465942383,-0.031005859375,-0.00616455078125,1.059326171875,33.279998779296875,0.0,-25.0,-0.7962646484375,-0.25311279296875,Closing,0.0,0.0,-190.0,0.0,0.0,0.0,0.0,0.0,
4.103920000000042,0.0,0.0,14450.0,0.125,0.0,0.0,0.0,0.125,0.808105386,0.01,0.0012207029999995456,-12182.0,0.0,0.0,-0.0,0.0,0.125,0.489501903,0.01,0.0012207029999995456,-8272.0,0.5,0.0,0.0,0.0,0.125,3.387450825,0.01,0.0012207029999999897,8430.0,0.0,0.0,-0.0,0.0,0.125,1.6601560800000001,0.01,0.0,0.49000000953674316,-0.5699999928474426,31.309999465942383,0.00518798828125,0.02001953125,1.01885986328125,33.279998779296875,0.0,19.0,-0.796783447265625,-0.25311279296875,Closing,0.0,0.0,-190.0,0.0,0.0,0.0,0.0,0.0,
4.147281000000075,0.0,0.0,14450.0,0.125,0.0,0.0,0.0,0.125,0.8142089010000001,0.01,0.0012207029999995456,-12182.0,0.0,0.0,-0.0,0.0,0.125,0.489501903,0.01,0.0,-8272.0,0.5,0.0,0.0,0.0,0.125,3.387450825,0.01,0.0,8430.0,0.0,0.0,-0.0,0.0,0.125,1.6601560800000001,0.01,0.0,0.47999998927116394,-0.5899999737739563,31.309999465942383,0.006103515625,0.04278564453125,0.9844970703125,33.279998779296875,0.0,31.0,-0.7966766357421875,-0.2530975341796875,Closing,0.0,0.0,-190.0,0.0,0.0,0.0,0.0,0.0,
4.194271000000066,0.0,0.0,14450.0,0.125,0.0,0.0,0.0,0.125,0.808105386,0.01,-0.0012207029999995456,-12182.0,0.0,0.0,-0.0,0.0,0.25,0.489501903,0.01,-0.0012207029999995456,-8272.0,0.5,0.0,0.0,0.0,0.125,3.387450825,0.01,0.0,8430.0,0.0,0.0,-0.0,0.0,0.25,1.6577146740000002,0.01,0.0,0.46000000834465027,-0.5799999833106995,31.309999465942383,0.020263671875,0.044921875,1.0286865234375,33.279998779296875,0.0,45.0,-0.7957763671875,-0.2526397705078125,Closing,0.0,0.0,-190.0,0.0,0.0,0.0,0.0,0.0,
4.254033000000054,0.0,0.0,14450.0,0.125,0.0,0.0,0.0,0.125,0.808105386,0.01,0.0,-12182.0,0.0,0.0,-0.0,0.0,0.25,0.489501903,0.01,0.0,-8272.0,0.5,0.0,0.0,0.0,0.125,3.388671528,0.01,0.0,8430.0,0.0,0.0,-0.0,0.0,0.25,1.6601560800000001,0.01,0.0,0.47999998927116394,-0.5799999833106995,31.309999465942383,-0.00616455078125,0.05145263671875,0.95684814453125,33.279998779296875,0.0,25.0,-0.7938995361328125,-0.2524566650390625,Closing,0.0,0.0,-190.0,0.0,0.0,0.0,0.0,0.0,
4.293624000000069,0.0,0.0,14450.0,0.0,0.0,0.0,0.0,0.125,0.808105386,0.01,0.0,-12182.0,0.0,0.0,-0.0,0.0,0.125,0.489501903,0.01,0.0012207029999995456,-8272.0,0.5,0.0,0.0,0.0,0.125,3.387450825,0.01,0.0,8430.0,0.0,0.0,-0.0,0.0,0.125,1.6601560800000001,0.01,0.0,0.47999998927116394,-0.5799999833106995,31.309999465942383,-0.00775146484375,-0.03192138671875,1.03118896484375,33.279998779296875,0.0,-18.0,-0.7933197021484375,-0.2521209716796875,Closing,0.0,0.0,-190.0,0.0,0.0,0.0,0.0,0.0,
4.345032000000007,0.0,0.0,14450.0,0.125,0.0,0.0,0.0,0.125,0.808105386,0.01,0.0,-12182.0,0.0,0.0,-0.0,0.0,0.125,0.489501903,0.01,0.0,-8272.0,0.5,0.0,0.0,0.0,0.125,3.387450825,0.01,0.0,8430.0,0.0,0.0,-0.0,0.0,0.25,1.6589353770000002,0.01,0.0,0.49000000953674316,-0.5699999928474426,31.309999465942383,-0.03814697265625,-0.0279541015625,1.050048828125,33.279998779296875,0.0,-42.0,-0.793365478515625,-0.252044677734375,Closing,0.0,0.0,-190.0,0.0,0.0,0.0,0.0,0.0,
4.40584600000002,0.0,0.0,14450.0,0.125,0.0,0.0,0.0,0.125,0.808105386,0.01,0.0,-12182.0,0.0,0.0,-0.0,0.0,0.0,0.48706049700000004,0.01,0.0,-8272.0,0.5,0.0,0.0,0.0,0.125,3.387450825,0.01,0.0,8430.0,0.0,0.0,-0.0,0.0,0.25,1.6589353770000002,0.01,0.0,0.49000000953674316,-0.5799999833106995,31.309999465942383,-0.040283203125,-0.029541015625,1.040771484375,33.279998779296875,0.0,-45.0,-0.7942657470703125,-0.252227783203125,Closing,0.0,0.0,-190.0,0.0,0.0,0.0,0.0,0.0,
4.468636000000057,0.0,0.0,14450.0,0.125,0.0,0.0,0.0,0.125,0.808105386,0.01,0.0,-12182.0,0.0,0.0,-0.0,0.0,0.0,0.489501903,0.01,0.0,-8272.0,0.5,0.0,0.0,0.0,0.125,3.387450825,0.01,-0.0012207029999999897,8430.0,0.0,0.0,-0.0,0.0,0.25,1.6601560800000001,0.01,0.0,0.47999998927116394,-0.5799999833106995,31.309999465942383,-0.03863525390625,-0.017822265625,1.0467529296875,33.279998779296875,0.0,-37.0,-0.7951202392578125,-0.252227783203125,Closing,0.0,0.0,-190.0,0.0,0.0,0.0,0.0,0.0,
4.507384000000078,0.0,0.0,14450.0,0.125,0.0,0.0,0.0,0.125,0.808105386,0.01,-0.0012207029999995456,-12182.0,0.0,0.0,-0.0,0.0,0.125,0.489501903,0.01,0.0,-8272.0,0.5,0.0,0.0,0.0,0.125,3.388671528,0.01,0.0,8430.0,0.0,0.0,-0.0,0.0,0.25,1.6601560800000001,0.01,0.0,0.49000000953674316,-0.5699999928474426,31.299999237060547,0.00592041015625,0.02142333984375,1.01483154296875,33.29999923706055,0.0,20.0,-0.7960968017578125,-0.252227783203125,Closing,0.0,0.0,-190.0,0.0,0.0,0.0,0.0,0.0,
4.550619999999995,0.0,0.0,14450.0,0.125,0.0,0.0,0.0,0.125,0.78124992,0.01,0.0,-12182.0,0.0,0.0,-0.0,0.0,0.125,0.489501903,0.01,0.0,-8272.0,0.5,0.0,0.0,0.0,0.125,3.387450825,0.01,0.0,8430.0,0.0,0.0,-0.0,0.0,0.25,1.6589353770000002,0.01,0.0,0.49000000953674316,-0.5699999928474426,31.299999237060547,0.00701904296875,0.02459716796875,0.99468994140625,33.29999923706055,0.0,22.0,-0.796051025390625,-0.252227783203125,Closing,0.0,0.0,-190.0,0.0,0.0,0.0,0.0,0.0,
4.600457000000053,0.0,0.0,14450.0,0.125,0.0,0.0,0.0,0.125,0.806884683,0.01,0.0,-12182.0,0.0,0.0,-0.0,0.0,0.25,0.489501903,0.01,-0.0012207029999995456,-8272.0,0.5,0.0,0.0,0.0,0.125,3.387450825,0.01,0.0012207029999999897,8430.0,0.0,0.0,-0.0,0.0,0.125,1.6589353770000002,0.01,0.0,0.46000000834465027,-0.5799999833106995,31.299999237060547,0.025390625,0.057861328125,1.03070068359375,33.29999923706055,0.0,56.0,-0.7952880859375,-0.251983642578125,Closing,0.0,0.0,-190.0,0.0,0.0,0.0,0.0,0.0,
4.653916000000085,0.0,0.0,14450.0,0.125,0.0,0.0,0.0,0.125,0.806884683,0.01,0.0,-12182.0,0.0,0.0,-0.0,0.0,0.125,0.489501903,0.01,0.0012207029999995456,-8272.0,0.5,0.0,0.0,0.0,0.125,3.387450825,0.01,0.0,8430.0,0.0,0.0,-0.0,0.0,0.125,1.6601560800000001,0.01,0.0,0.4699999988079071,-0.5799999833106995,31.309999465942383,0.01507568359375,0.0469970703125,0.989501953125,33.29999923706055,0.0,41.0,-0.794036865234375,-0.251495361328125,Closing,0.0,0.0,-190.0,0.0,0.0,0.0,0.0,0.0,
4.699476000000025,0.0,0.0,14450.0,0.125,0.0,0.0,0.0,0.125,0.808105386,0.01,0.0,-12182.0,0.0,0.0,-0.0,0.0,0.0,0.489501903,0.01,0.0,-8272.0,0.5,0.0,0.0,0.0,0.125,3.387450825,0.01,0.0,8430.0,0.0,0.0,-0.0,0.0,0.125,1.6601560800000001,0.01,0.0,0.47999998927116394,-0.5799999833106995,31.299999237060547,-0.0040283203125,0.030029296875,0.971435546875,33.29999923706055,0.0,16.0,-0.792327880859375,-0.250701904296875,Closing,0.0,0.0,-190.0,0.0,0.0,0.0,0.0,0.0,
4.746112000000081,0.0,0.0,14450.0,0.125,0.0,0.0,0.0,0.125,0.808105386,0.01,0.0,-12182.0,0.0,0.0,-0.0,0.0,0.0,0.489501903,0.01,0.0,-8272.0,0.5,0.0,0.0,0.0,0.125,3.387450825,0.01,0.0,8430.0,0.0,0.0,-0.0,0.0,0.25,1.6589353770000002,0.01,0.0,0.47999998927116394,-0.5799999833106995,31.299999237060547,-0.00506591796875,-0.0284423828125,1.04119873046875,33.29999923706055,0.0,-14.0,-0.7917022705078125,-0.2498931884765625,Closing,0.0,0.0,-190.0,0.0,0.0,0.0,0.0,0.0,
4.801425000000046,0.0,0.0,14450.0,0.125,0.0,0.0,0.0,0.125,0.808105386,0.01,0.0,-12182.0,0.0,0.0,-0.0,0.0,0.125,0.489501903,0.01,0.0,-8272.0,0.5,0.0,0.0,0.0,0.125,3.388671528,0.01,-0.0012207029999999897,8430.0,0.0,0.0,-0.0,0.0,0.25,1.6589353770000002,0.01,0.0,0.5,-0.5699999928474426,31.299999237060547,-0.0487060546875,-0.042236328125,1.05352783203125,33.29999923706055,0.0,-59.0,-0.7919769287109375,-0.249725341796875,Closing,0.0,0.0,-190.0,0.0,0.0,0.0,0.0,0.0,
4.859702000000048,0.0,0.0,14450.0,0.125,0.0,0.0,0.0,0.125,0.808105386,0.01,0.0,-12182.0,0.0,0.0,-0.0,0.0,0.125,0.489501903,0.01,0.0,-8272.0,0.5,0.0,0.0,0.0,0.125,3.387450825,0.01,0.0012207029999999897,8430.0,0.0,0.0,-0.0,0.0,0.25,1.6601560800000001,0.01,0.0,0.49000000953674316,-0.5699999928474426,31.299999237060547,-0.0379638671875,-0.02655029296875,1.04132080078125,33.29999923706055,0.0,-41.0,-0.7929229736328125,-0.2499847412109375,Closing,0.0,0.0,-190.0,0.0,0.0,0.0,0.0,0.0,
4.9087460000000425,0.0,0.0,14450.0,0.125,0.0,0.0,0.0,0.125,0.808105386,0.01,0.0,-12182.0,0.0,0.0,-0.0,0.0,0.0,0.489501903,0.01,0.0,-8272.0,0.5,0.0,0.0,0.0,0.125,3.387450825,0.01,0.0012207029999999897,8430.0,0.0,0.0,-0.0,0.0,0.25,1.6589353770000002,0.01,0.0,0.4699999988079071,-0.5699999928474426,31.299999237060547,-0.022705078125,8.544921875E-4,1.05548095703125,33.29999923706055,0.0,-14.0,-0.79437255859375,-0.2501220703125,Closing,0.0,0.0,-190.0,0.0,0.0,0.0,0.0,0.0,
4.949805000000051,0.0,0.0,14450.0,0.125,0.0,0.0,0.0,0.125,0.799560465,0.01,0.0,-12182.0,0.0,0.0,-0.0,0.0,0.125,0.489501903,0.01,0.0,-8272.0,0.5,0.0,0.0,0.0,0.125,3.387450825,0.01,0.0,8430.0,0.0,0.0,-0.0,0.0,0.25,1.6589353770000002,0.01,0.0,0.47999998927116394,-0.5600000023841858,31.299999237060547,0.00579833984375,0.01751708984375,1.03387451171875,33.29999923706055,0.0,18.0,-0.79437255859375,-0.2501220703125,Closing,0.0,0.0,-190.0,0.0,0.0,0.0,0.0,0.0,
5.0019890000000595,0.0,0.0,14450.0,0.125,0.0,0.0,0.0,0.125,0.808105386,0.01,0.0,-12182.0,0.0,0.0,-0.0,0.0,0.125,0.489501903,0.01,0.0,-8272.0,0.5,0.0,0.0,0.0,0.125,3.387450825,0.01,0.0,8430.0,0.0,0.0,-0.0,0.0,0.25,1.6601560800000001,0.01,0.0,0.4699999988079071,-0.5799999833106995,31.299999237060547,0.0203857421875,0.0634765625,0.9967041015625,33.29999923706055,0.0,54.0,-0.7940216064453125,-0.250030517578125,Closing,0.0,0.0,-190.0,0.0,0.0,0.0,0.0,0.0,
5.0662000000000695,0.0,0.0,14450.0,0.125,0.0,0.0,0.0,0.125,0.808105386,0.01,-0.0012207030000004337,-12182.0,0.0,0.0,-0.0,0.0,0.125,0.489501903,0.01,-0.0012207029999995456,-8272.0,0.5,0.0,0.0,0.0,0.125,3.388671528,0.01,-0.0012207029999999897,8430.0,0.0,0.0,-0.0,0.0,0.25,1.6589353770000002,0.01,0.0,0.4699999988079071,-0.5699999928474426,31.299999237060547,-0.00238037109375,0.05401611328125,0.95654296875,33.290000915527344,0.0,30.0,-0.7916412353515625,-0.2494964599609375,Closing,0.0,0.0,-190.0,0.0,0.0,0.0,0.0,0.0,
5.126627000000095,0.0,0.0,14450.0,0.125,0.0,0.0,0.0,0.125,0.806884683,0.01,0.0,-12182.0,0.0,0.0,-0.0,0.0,0.25,0.489501903,0.01,0.0,-8272.0,0.5,0.0,0.0,0.0,0.125,3.388671528,0.01,0.0012207029999999897,8430.0,0.0,0.0,-0.0,0.0,0.25,1.6589353770000002,0.01,0.0,0.4699999988079071,-0.5799999833106995,31.299999237060547,-0.0067138671875,0.00506591796875,0.9832763671875,33.290000915527344,0.0,1.0,-0.7910919189453125,-0.2492523193359375,Closing,0.0,0.0,-190.0,0.0,0.0,0.0,0.0,0.0,
5.166396000000066,0.0,0.0,14450.0,0.0,0.0,0.0,0.0,0.125,0.808105386,0.01,0.0012207030000004337,-12182.0,0.0,0.0,-0.0,0.0,0.25,0.489501903,0.01,0.0012207029999995456,-8272.0,0.5,0.0,0.0,0.0,0.125,3.387450825,0.01,0.0,8430.0,0.0,0.0,-0.0,0.0,0.125,1.6601560800000001,0.01,0.0,0.46000000834465027,-0.5699999928474426,31.299999237060547,-0.00994873046875,-0.01287841796875,1.041748046875,33.290000915527344,0.0,-10.0,-0.7910919189453125,-0.2490692138671875,Closing,0.0,0.0,-190.0,0.0,0.0,0.0,0.0,0.0,
5.2107320000000765,0.0,0.0,14450.0,0.125,0.0,0.0,0.0,0.125,0.808105386,0.01,0.0,-12182.0,0.0,0.0,-0.0,0.0,0.125,0.489501903,0.01,0.0,-8272.0,0.5,0.0,0.0,0.0,0.125,3.387450825,0.01,0.0,8430.0,0.0,0.0,-0.0,0.0,0.25,1.6589353770000002,0.01,0.0,0.47999998927116394,-0.5600000023841858,31.299999237060547,-0.0419921875,-0.02978515625,1.0517578125,33.290000915527344,0.0,-47.0,-0.7911834716796875,-0.2490692138671875,Closing,0.0,0.0,-190.0,0.0,0.0,0.0,0.0,0.0,
5.2682810000000755,0.0,0.0,14450.0,0.125,0.0,0.0,0.0,0.125,0.808105386,0.01,0.0,-12182.0,0.0,0.0,-0.0,0.0,0.125,0.489501903,0.01,0.0,-8272.0,0.5,0.0,0.0,0.0,0.125,3.387450825,0.01,-0.0012207029999999897,8430.0,0.0,0.0,-0.0,0.0,0.25,1.6589353770000002,0.01,0.0,0.49000000953674316,-0.5699999928474426,31.299999237060547,-0.04913330078125,-0.0413818359375,1.051025390625,33.290000915527344,0.0,-59.0,-0.79156494140625,-0.2491607666015625,Closing,0.0,0.0,-190.0,0.0,0.0,0.0,0.0,0.0,
5.306535000000032,0.0,0.0,14450.0,0.125,0.0,0.0,0.0,0.125,0.808105386,0.01,0.0,-12182.0,0.0,0.0,-0.0,0.0,0.125,0.489501903,0.01,0.0,-8272.0,0.5,0.0,0.0,0.0,0.125,3.387450825,0.01,-0.0012207029999999897,8430.0,0.0,0.0,-0.0,0.0,0.125,1.6589353770000002,0.01,0.0,0.47999998927116394,-0.5600000023841858,31.299999237060547,-0.047119140625,-0.02764892578125,1.0445556640625,33.290000915527344,0.0,-50.0,-0.792694091796875,-0.249237060546875,Closing,0.0,0.0,-190.0,0.0,0.0,0.0,0.0,0.0,
5.352537000000011,0.0,0.0,14450.0,0.125,0.0,0.0,0.0,0.125,0.799560465,0.01,0.0,-12182.0,0.0,0.0,-0.0,0.0,0.125,0.489501903,0.01,-0.0012207029999995456,-8272.0,0.5,0.0,0.0,0.0,0.125,3.386230122,0.01,0.0,8430.0,0.0,0.0,-0.0,0.0,0.25,1.6601560800000001,0.01,0.0,0.47999998927116394,-0.5600000023841858,31.299999237060547,0.00421142578125,0.01910400390625,1.0460205078125,33.290000915527344,0.0,17.0,-0.7948150634765625,-0.249237060546875,Closing,0.0,0.0,-190.0,0.0,0.0,0.0,0.0,0.0,
5.4096270000000946,0.0,0.0,14450.0,0.125,0.0,0.0,0.0,0.125,0.808105386,0.01,0.0,-12182.0,0.0,0.0,-0.0,0.0,0.25,0.482177685,0.01,0.0,-8272.0,0.5,0.0,0.0,0.0,0.125,3.387450825,0.01,0.0,8430.0,0.0,0.0,-0.0,0.0,0.25,1.6589353770000002,0.01,0.0,0.46000000834465027,-0.5699999928474426,31.299999237060547,0.02142333984375,0.06683349609375,1.00836181640625,33.290000915527344,0.0,57.0,-0.794403076171875,-0.2491302490234375,Closing,0.0,0.0,-190.0,0.0,0.0,0.0,0.0,0.0,
5.487303000000073,0.0,0.0,14450.0,0.125,0.0,0.0,0.0,0.125,0.808105386,0.01,0.0,-12182.0,0.0,0.0,-0.0,0.0,0.25,0.4882812,0.01,0.0,-8272.0,0.5,0.0,0.0,0.0,0.125,3.387450825,0.01,0.0,8430.0,0.0,0.0,-0.0,0.0,0.25,1.6589353770000002,0.01,0.0,0.46000000834465027,-0.5699999928474426,31.290000915527344,0.01904296875,0.03369140625,1.010986328125,33.290000915527344,0.0,38.0,-0.7934112548828125,-0.2487030029296875,Closing,0.0,0.0,-190.0,0.0,0.0,0.0,0.0,0.0,
5.528519000000087,0.0,0.0,14450.0,0.125,0.0,0.0,0.0,0.125,0.808105386,0.01,0.0,-12182.0,0.0,0.0,-0.0,0.0,0.25,0.489501903,0.01,0.0012207029999995456,-8272.0,0.5,0.0,0.0,0.0,0.125,3.387450825,0.01,0.0,8430.0,0.0,0.0,-0.0,0.0,0.25,1.6589353770000002,0.01,0.0,0.4699999988079071,-0.5699999928474426,31.290000915527344,0.00250244140625,0.0538330078125,0.960205078125,33.290000915527344,0.0,34.0,-0.79248046875,-0.2486724853515625,Closing,0.0,0.0,-190.0,0.0,0.0,0.0,0.0,0.0,
5.56917100000009,0.0,0.0,14450.0,0.125,0.0,0.0,0.0,0.125,0.808105386,0.01,0.0,-12182.0,0.0,0.0,-0.0,0.0,0.125,0.490722606,0.01,0.0,-8272.0,0.5,0.0,0.0,0.0,0.125,3.382568013,0.01,-0.0012207029999999897,8430.0,0.0,0.0,-0.0,0.0,0.125,1.6601560800000001,0.01,0.0,0.47999998927116394,-0.5799999833106995,31.290000915527344,-0.005615234375,-0.00677490234375,0.994384765625,33.29999923706055,0.0,-4.0,-0.7913818359375,-0.24847412109375,Closing,0.0,0.0,-190.0,0.0,0.0,0.0,0.0,0.0,
5.60761499999999,0.0,0.0,14450.0,0.125,0.0,0.0,0.0,0.125,0.808105386,0.01,0.0,-12182.0,0.0,0.0,-0.0,0.0,0.25,0.490722606,0.01,-0.0012207029999995456,-8272.0,0.5,0.0,0.0,0.0,0.125,3.387450825,0.01,0.0012207029999999897,8430.0,0.0,0.0,-0.0,0.0,0.125,1.6601560800000001,0.01,0.0,0.4699999988079071,-0.5699999928474426,31.290000915527344,-0.01263427734375,0.00189208984375,1.048828125,33.29999923706055,0.0,-5.0,-0.7913818359375,-0.24871826171875,Closing,0.0,0.0,-190.0,0.0,0.0,0.0,0.0,0.0,
5.665050000000047,0.0,0.0,14450.0,0.125,0.0,0.0,0.0,0.125,0.808105386,0.01,0.0012207029999995456,-12182.0,0.0,0.0,-0.0,0.0,0.25,0.489501903,0.01,-0.0012207029999995456,-8272.0,0.5,0.0,0.0,0.0,0.125,3.386230122,0.01,-0.0012207029999999897,8430.0,0.0,0.0,-0.0,0.0,0.25,1.6589353770000002,0.01,0.0,0.49000000953674316,-0.5600000023841858,31.290000915527344,-0.04937744140625,-0.03839111328125,1.05328369140625,33.29999923706055,0.0,-57.0,-0.79150390625,-0.248748779296875,Closing,0.0,0.0,-190.0,0.0,0.0,0.0,0.0,0.0,
5.7075230000000445,0.0,0.0,14450.0,0.125,0.0,0.0,0.0,0.125,0.808105386,0.01,0.0012207029999995456,-12182.0,0.0,0.0,-0.0,0.0,0.25,0.489501903,0.01,0.0,-8272.0,0.5,0.0,0.0,0.0,0.125,3.387450825,0.01,-0.0012207029999999897,8430.0,0.0,0.0,-0.0,0.0,0.25,1.651611159,0.01,0.0,0.5,-0.5699999928474426,31.290000915527344,-0.0401611328125,-0.0318603515625,1.03924560546875,33.29999923706055,0.0,-46.0,-0.7922515869140625,-0.248992919921875,Closing,0.0,0.0,-190.0,0.0,0.0,0.0,0.0,0.0,
5.748579000000027,0.0,0.0,14450.0,0.125,0.0,0.0,0.0,0.125,0.808105386,0.01,0.0012207029999995456,-12182.0,0.0,0.0,-0.0,0.0,0.125,0.489501903,0.01,0.0,-8272.0,0.5,0.0,0.0,0.0,0.125,3.387450825,0.01,0.0,8430.0,0.0,0.0,-0.0,0.0,0.25,1.6601560800000001,0.01,0.0,0.4699999988079071,-0.5600000023841858,31.290000915527344,-0.0191650390625,0.00433349609375,1.060791015625,33.29999923706055,0.0,-9.0,-0.7941131591796875,-0.2491302490234375,Closing,0.0,0.0,-190.0,0.0,0.0,0.0,0.0,0.0,
5.80749700000009,0.0,0.0,14450.0,0.125,0.0,0.0,0.0,0.125,0.808105386,0.01,0.0012207029999995456,-12182.0,0.0,0.0,-0.0,0.0,0.125,0.489501903,0.01,0.0,-8272.0,0.5,0.0,0.0,0.0,0.125,3.387450825,0.01,0.0,8430.0,0.0,0.0,-0.0,0.0,0.25,1.64794905,0.01,0.0,0.49000000953674316,-0.5600000023841858,31.290000915527344,0.00360107421875,0.0213623046875,1.031982421875,33.29999923706055,0.0,18.0,-0.7941131591796875,-0.2491302490234375,Closing,0.0,0.0,-190.0,0.0,0.0,0.0,0.0,0.0,
5.861133000000031,0.0,0.0,14450.0,0.125,0.0,0.0,0.0,0.125,0.808105386,0.01,-0.0012207029999995456,-12182.0,0.0,0.0,-0.0,0.0,0.125,0.49194330900000005,0.01,0.0,-8272.0,0.5,0.0,0.0,0.0,0.125,3.387450825,0.01,-0.0012207029999999897,8430.0,0.0,0.0,-0.0,0.0,0.25,1.6589353770000002,0.01,0.0,0.47999998927116394,-0.5699999928474426,31.290000915527344,0.0128173828125,0.05316162109375,0.982421875,33.29999923706055,0.0,52.0,-0.7937164306640625,-0.2490234375,Closing,0.0,0.0,-190.0,0.0,0.0,0.0,0.0,0.0,
5.905814000000013,0.0,0.0,14450.0,0.125,0.0,0.0,0.0,0.125,0.808105386,0.01,0.0012207029999995456,-12182.0,0.0,0.0,-0.0,0.0,0.0,0.489501903,0.01,0.0,-8272.0,0.5,0.0,0.0,0.0,0.125,3.387450825,0.01,0.0,8430.0,0.0,0.0,-0.0,0.0,0.25,1.666259595,0.01,0.0,0.4699999988079071,-0.5699999928474426,31.290000915527344,0.02325439453125,0.0362548828125,1.02056884765625,33.29999923706055,0.0,43.0,-0.7927703857421875,-0.248626708984375,Closing,0.0,0.0,-190.0,0.0,0.0,0.0,0.0,0.0,
5.944891000000061,0.0,0.0,14450.0,0.125,0.0,0.0,0.0,0.125,0.808105386,0.01,0.0012207029999995456,-12182.0,0.0,0.0,-0.0,0.0,0.0,0.489501903,0.01,0.0,-8272.0,0.5,0.0,0.0,0.0,0.125,3.387450825,0.01,0.0,8430.0,0.0,0.0,-0.0,0.0,0.25,1.6601560800000001,0.01,0.0,0.47999998927116394,-0.5600000023841858,31.290000915527344,-0.00262451171875,0.02606201171875,0.96917724609375,33.29999923706055,0.0,15.0,-0.7907257080078125,-0.248382568359375,Closing,0.0,0.0,-190.0,0.0,0.0,0.0,0.0,0.0,
6.006753000000026,0.0,0.0,14450.0,0.125,0.0,0.0,0.0,0.125,0.809326089,0.01,0.0012207029999995456,-12182.0,0.0,0.0,-0.0,0.0,0.0,0.48583979400000005,0.01,0.0,-8272.0,0.5,0.0,0.0,0.0,0.125,3.387450825,0.01,0.0,8430.0,0.0,0.0,-0.0,0.0,0.25,1.6589353770000002,0.01,0.0,0.47999998927116394,-0.5699999928474426,31.290000915527344,-0.00238037109375,-0.029296875,1.01947021484375,33.29999923706055,0.0,-12.0,-0.7907257080078125,-0.2484130859375,Closing,0.0,0.0,-190.0,0.0,0.0,0.0,0.0,0.0,
6.059437000000035,0.0,0.0,14450.0,0.125,0.0,0.0,0.0,0.125,0.808105386,0.01,-0.0012207029999995456,-12182.0,0.0,0.0,-0.0,0.0,0.25,0.490722606,0.01,-0.0012207029999995456,-8272.0,0.5,0.0,0.0,0.0,0.125,3.387450825,0.01,0.0012207029999999897,8430.0,0.0,0.0,-0.0,0.0,0.25,1.6589353770000002,0.01,0.0,0.4699999988079071,-0.5600000023841858,31.290000915527344,-0.01953125,-0.001953125,1.0406494140625,33.29999923706055,0.0,-13.0,-0.7907257080078125,-0.2486114501953125,Closing,0.0,0.0,-190.0,0.0,0.0,0.0,0.0,0.0,
6.1020820000000535,0.0,0.0,14450.0,0.125,0.0,0.0,0.0,0.125,0.808105386,0.01,0.0012207029999995456,-12182.0,0.0,0.0,-0.0,0.0,0.25,0.490722606,0.01,0.0,-8272.0,0.5,0.0,0.0,0.0,0.125,3.387450825,0.01,0.0,8430.0,0.0,0.0,-0.0,0.0,0.25,1.6638181890000001,0.01,0.0,0.49000000953674316,-0.550000011920929,31.280000686645508,-0.0474853515625,-0.03509521484375,1.05108642578125,33.29999923706055,0.0,-54.0,-0.7908477783203125,-0.2486114501953125,Closing,0.0,0.0,-190.0,0.0,0.0,0.0,0.0,0.0,
6.143573000000091,0.0,0.0,14450.0,0.125,0.0,0.0,0.0,0.125,0.808105386,0.01,-0.0012207029999995456,-12182.0,0.0,0.0,-0.0,0.0,0.125,0.489501903,0.01,0.0012207029999995456,-8272.0,0.5,0.0,0.0,0.0,0.125,3.387450825,0.01,0.0,8430.0,0.0,0.0,-0.0,0.0,0.25,1.6589353770000002,0.01,0.0,0.49000000953674316,-0.5600000023841858,31.280000686645508,-0.048828125,-0.03216552734375,1.043212890625,33.29999923706055,0.0,-50.0,-0.7916107177734375,-0.248779296875,Closing,0.0,0.0,-190.0,0.0,0.0,0.0,0.0,0.0,
6.174993000000017,0.0,0.0,14450.0,0.125,0.0,0.0,0.0,0.125,0.808105386,0.01,0.0012207029999995456,-12182.0,0.0,0.0,-0.0,0.0,0.125,0.489501903,0.01,0.0,-8272.0,0.5,0.0,0.0,0.0,0.125,3.387450825,0.01,0.0,8430.0,0.0,0.0,-0.0,0.0,0.125,1.6589353770000002,0.01,0.0,0.47999998927116394,-0.5600000023841858,31.280000686645508,-0.03570556640625,-0.01385498046875,1.05419921875,33.29999923706055,0.0,-33.0,-0.79296875,-0.248779296875,Closing,0.0,0.0,-190.0,0.0,0.0,0.0,0.0,0.0,
6.236982000000077,0.0,0.0,14450.0,0.125,0.0,0.0,0.0,0.125,0.809326089,0.01,0.0,-12182.0,0.0,0.0,-0.0,0.0,0.0,0.490722606,0.01,0.0,-8272.0,0.5,0.0,0.0,0.0,0.125,3.386230122,0.01,-0.0012207029999999897,8430.0,0.0,0.0,-0.0,0.0,0.25,1.6601560800000001,0.01,0.0,0.47999998927116394,-0.5600000023841858,31.280000686645508,0.005615234375,0.02362060546875,1.0064697265625,33.29999923706055,0.0,21.0,-0.793487548828125,-0.248779296875,Closing,0.0,0.0,-190.0,0.0,0.0,0.0,0.0,0.0,
6.275312000000034,0.0,0.0,14450.0,0.125,0.0,0.0,0.0,0.125,0.808105386,0.01,-0.0012207029999995456,-12182.0,0.0,0.0,-0.0,0.0,0.0,0.489501903,0.01,0.0,-8272.0,0.5,0.0,0.0,0.0,0.125,3.387450825,0.01,0.0012207029999999897,8430.0,0.0,0.0,-0.0,0.0,0.25,1.6589353770000002,0.01,0.0,0.46000000834465027,-0.5699999928474426,31.280000686645508,0.022705078125,0.059326171875,1.0179443359375,33.29999923706055,0.0,54.0,-0.7928924560546875,-0.248565673828125,Closing,0.0,0.0,-190.0,0.0,0.0,0.0,0.0,0.0,
6.333145000000019,0.0,0.0,14450.0,0.125,0.0,0.0,0.0,0.125,0.808105386,0.01,0.0,-12182.0,0.0,0.0,-0.0,0.0,0.125,0.489501903,0.01,0.0,-8272.0,0.5,0.0,0.0,0.0,0.125,3.388671528,0.01,0.0,8430.0,0.0,0.0,-0.0,0.0,0.25,1.6589353770000002,0.01,0.0,0.46000000834465027,-0.5699999928474426,31.280000686645508,0.02294921875,0.03704833984375,1.0238037109375,33.29999923706055,0.0,43.0,-0.7921905517578125,-0.2482757568359375,Closing,0.0,0.0,-190.0,0.0,0.0,0.0,0.0,0.0,
6.389305000000051,0.0,0.0,14450.0,0.125,0.0,0.0,0.0,0.125,0.808105386,0.01,0.0012207029999995456,-12182.0,0.0,0.0,-0.0,0.0,0.0,0.490722606,0.01,0.0,-8272.0,0.5,0.0,0.0,0.0,0.125,3.388671528,0.01,-0.0012207029999999897,8430.0,0.0,0.0,-0.0,0.0,0.25,1.6589353770000002,0.01,0.0,0.4699999988079071,-0.5600000023841858,31.280000686645508,-0.003173828125,0.0374755859375,0.96356201171875,33.29999923706055,0.0,20.0,-0.7901611328125,-0.2480316162109375,Closing,0.0,0.0,-190.0,0.0,0.0,0.0,0.0,0.0,
