Time,ClimberA1,ClimberA2,FRpos,FRCurrent,FRspeed,FRsetpoint,FRApos,FRACurrent,FREncpos,FREncSetpoint,FREncSpeed,FLpos,FLCurrent,FLspeed,FLsetpoint,FLApos,FLACurrent,FLEncpos,FLEncSetpoint,FLEncSpeed,BRpos,BRCurrent,BRspeed,BRsetpoint,BRApos,BRACurrent,BREncpos,BREncSetpoint,BREncSpeed,BLpos,BLCurrent,BLspeed,BLsetpoint,BLApos,BLACurrent,BLEncpos,BLEncSetpoint,BLEncSpeed,navx_Pitch,navx_Roll,navx_Yaw,navx_XAcc,navx_YAcc,navx_ZAcc,navx_Temp,navx_Bar,navx_Alt,navx_XDis,navx_YDis,GearPlacerState,ShootOutputV,ShootOutputCurrent,ShootEncPos,ShootEncVelocity,ShootSpeed,ShootSetpoint,CarouselSetpoint,CarouselCurrent,
0.5887160000000004,0.0,0.0,63148.0,0.0,0.0,0.0,0.0,0.125,0.8422850700000001,0.01,0.0,-57132.0,0.125,0.0,0.0,0.0,0.0,0.523681587,0.01,0.0,54223.0,0.0,0.0,0.0,0.0,0.0,3.343505517,0.01,0.0,-34363.0,0.125,0.0,0.0,0.0,0.25,1.6625974860000001,0.01,0.0,0.17000000178813934,-0.8999999761581421,112.69999694824219,-0.01568603515625,0.00323486328125,1.01678466796875,35.68000030517578,0.0,0.0,-1.9130859375,-1.43414306640625,Closing,0.0,0.0,-189.0,0.0,0.0,0.0,0.0,0.0,
0.6739409999999989,0.0,0.0,63148.0,0.375,0.0,840.0,0.0,0.125,0.8422850700000001,0.01,0.0,-57132.0,0.125,0.0,-840.0,0.0,0.0,0.5163573690000001,0.01,0.0,54223.0,0.375,0.0,840.0,0.0,0.0,3.343505517,0.01,0.0,-34363.0,1.25,-7.5,-840.0,0.0,0.25,1.6625974860000001,0.01,0.0,0.17000000178813934,-0.8999999761581421,112.69999694824219,-0.02313232421875,0.00787353515625,1.02783203125,35.68000030517578,0.0,7.0,-1.9130859375,-1.43414306640625,Closing,0.0,0.0,-189.0,0.0,0.0,0.0,0.0,0.0,
0.7133510000000024,0.0,0.0,63148.0,1.875,45.0,840.0,0.0,0.125,0.8312987430000001,0.01,-0.0012207030000001007,-57163.0,2.0,-52.5,-840.0,0.0,0.0,0.518798775,0.01,-0.0012207029999995456,54229.0,2.0,7.5,840.0,0.0,0.0,3.343505517,0.01,0.0,-34388.0,2.375,-105.0,-840.0,0.0,0.25,1.691894358,0.01,0.0,0.15000000596046448,-0.8600000143051147,112.70999908447266,0.03466796875,0.0753173828125,1.018798828125,35.68000030517578,0.0,47.0,-1.9131011962890625,-1.4342041015625,Closing,0.0,0.0,-189.0,0.0,0.0,0.0,0.0,0.0,
0.7522459999999992,0.0,0.0,63175.0,2.75,172.5,840.0,0.0,0.125,0.822753822,0.01,-0.018310544999999956,-57163.0,5.5,-277.5,-840.0,0.0,0.0,0.518798775,0.01,-0.003662109000000413,54229.0,4.5,82.5,840.0,0.0,0.0,3.34472622,0.01,0.0,-34388.0,3.0,-210.0,-840.0,0.0,0.25,1.7126463090000001,0.01,0.029296871999999974,0.1899999976158142,-0.3499999940395355,112.83999633789062,0.0836181640625,0.0902099609375,1.3385009765625,35.65999984741211,0.0,43.0,-1.9134521484375,-1.4369964599609375,Closing,0.0,0.0,-189.0,0.0,0.0,0.0,0.0,0.0,
0.8096019999999989,0.0,0.0,63175.0,3.375,217.5,840.0,0.0,0.125,0.821533119,0.01,-0.0012207029999999897,-57198.0,5.375,-277.5,-840.0,0.0,0.0,0.533447211,0.01,0.0,54259.0,5.0,157.5,840.0,0.0,0.0,3.347167626,0.01,-0.0012207030000004337,-34415.0,3.625,-187.5,-840.0,0.0,0.25,1.7065427940000002,0.01,0.019531248000000057,0.25999999046325684,0.05999999865889549,112.83000183105469,0.09014892578125,0.04510498046875,1.07550048828125,35.65999984741211,0.0,2.0,-1.913787841796875,-1.4431610107421875,Closing,0.0,0.0,-189.0,0.0,0.0,0.0,0.0,0.0,
0.8665,0.0,0.0,63214.0,3.625,202.5,840.0000000000001,0.0,0.125,0.8410643670000001,0.01,0.0024414059999999793,-57198.0,6.75,-232.5,-840.0000000000001,0.0,0.0,0.534667914,0.01,0.0,54259.0,5.375,180.0,840.0000000000001,0.0,0.0,3.338622705,0.01,-0.003662108999999525,-34415.0,4.375,-210.0,-840.0000000000001,0.0,0.25,1.6870115460000001,0.01,-0.00976562400000014,0.25,0.3700000047683716,112.83999633789062,0.123779296875,0.02667236328125,0.93365478515625,35.65999984741211,0.0,-24.0,-1.914306640625,-1.4493560791015625,Closing,0.0,0.0,-189.0,0.0,0.0,0.0,0.0,0.0,
0.9165020000000004,0.0,0.0,63214.0,4.5,285.0,840.0,0.0,0.125,0.822753822,0.01,0.0,-57198.0,7.875,-307.5,-840.0,0.0,0.125,0.534667914,0.01,0.014648436000000764,54259.0,6.25,292.5,840.0,0.0,0.0,3.338622705,0.01,0.0,-34415.0,4.75,-292.5,-840.0,0.0,0.25,1.67236311,0.01,-0.019531247999999835,0.25999999046325684,0.46000000834465027,112.8499984741211,0.16217041015625,0.03240966796875,1.00439453125,35.65999984741211,0.0,-33.0,-1.915069580078125,-1.454254150390625,Closing,0.0,0.0,-189.0,0.0,0.0,0.0,0.0,0.0,
0.9502249999999985,0.0,0.0,63214.0,4.75,360.0,840.0,0.0,0.125,0.819091713,0.01,0.0,-57198.0,7.875,-412.5,-840.0,0.0,0.125,0.534667914,0.01,0.0012207029999995456,54259.0,6.875,330.0,840.0,0.0,0.0,3.338622705,0.01,0.0,-34480.0,4.75,-337.5,-840.0,0.0,0.25,1.6625974860000001,0.01,-0.019531247999999835,0.25999999046325684,0.6800000071525574,112.94000244140625,0.12744140625,0.00677490234375,1.09967041015625,35.65999984741211,0.0,-43.0,-1.9161834716796875,-1.459869384765625,Closing,0.0,0.0,-189.0,0.0,0.0,0.0,0.0,0.0,
0.9897580000000016,0.0,0.0,63288.0,4.625,435.0,840.0,0.0,0.125,0.821533119,0.01,0.0,-57276.0,7.25,-510.0,-840.0,0.0,0.125,0.539550726,0.01,-0.0012207029999995456,54322.0,6.75,405.0,840.0,0.0,0.0,3.3239742690000003,0.01,-0.004882811999999959,-34480.0,4.75,-420.0,-840.0,0.0,0.25,1.6638181890000001,0.01,-0.018310545000000067,0.23999999463558197,0.8999999761581421,113.0,0.11407470703125,0.1136474609375,0.9136962890625,35.65999984741211,0.0,62.0,-1.91827392578125,-1.469573974609375,Closing,0.0,0.0,-189.0,0.0,0.0,0.0,0.0,0.0,
1.018796000000002,0.0,0.0,63288.0,4.375,517.5,840.0,0.0,0.125,0.819091713,0.01,-0.0012207029999999897,-57276.0,6.125,-630.0,-840.0,0.0,0.25,0.587158143,0.01,0.014648435999999876,54322.0,5.875,502.5,840.0,0.0,0.0,3.3093258330000004,0.01,-0.009765623999999917,-34480.0,4.5,-540.0,-840.0,0.0,0.25,1.6577146740000002,0.01,-0.0012207029999999897,0.28999999165534973,1.1699999570846558,112.94999694824219,0.0745849609375,0.025634765625,0.98193359375,35.65999984741211,0.0,-2.0,-1.9207000732421875,-1.4842987060546875,Closing,0.0,0.0,-189.0,0.0,0.0,0.0,0.0,0.0,
1.0748660000000019,0.0,0.0,63288.0,4.125,600.0,840.0,0.0,0.125,0.821533119,0.01,0.0,-57389.0,5.75,-660.0,-840.0,0.0,0.25,0.6201171240000001,0.01,0.04516601100000006,54417.0,5.75,577.5,840.0,0.0,0.0,3.3105465360000004,0.01,-0.014648435999999876,-34578.0,4.25,-600.0,-840.0,0.0,0.25,1.6589353770000002,0.01,-0.004882811999999959,0.33000001311302185,1.2200000286102295,112.88999938964844,-0.00531005859375,0.04583740234375,1.0709228515625,35.65999984741211,0.0,47.0,-1.920745849609375,-1.4920654296875,Closing,0.0,0.0,-189.0,0.0,0.0,0.0,0.0,0.0,
1.1219610000000029,0.0,0.0,63398.0,3.5,675.0,840.0,0.0,0.125,0.822753822,0.01,0.0,-57389.0,5.25,-720.0,-840.0,0.0,0.25,0.6201171240000001,0.01,0.026855465999999772,54417.0,5.25,667.5,840.0,0.0,0.0,3.3142086450000003,0.01,0.0,-34578.0,4.0,-652.5,-840.0,0.0,0.25,1.6601560800000001,0.01,0.0,0.3799999952316284,1.3799999952316284,112.70999908447266,0.001220703125,0.0211181640625,0.97174072265625,35.65999984741211,0.0,22.0,-1.920867919921875,-1.503509521484375,Closing,0.0,0.0,-189.0,0.0,0.0,0.0,0.0,0.0,
1.1545610000000015,0.0,0.0,63398.0,3.25,712.5,840.0,0.0,0.125,0.822753822,0.01,0.0,-57389.0,4.75,-750.0,-840.0,0.0,0.25,0.6103515,0.01,0.026855465999999772,54417.0,5.0,705.0,840.0,0.0,0.0,3.3154293480000003,0.01,0.0,-34578.0,4.0,-675.0,-840.0,0.0,0.25,1.649169753,0.01,0.0,0.4000000059604645,1.3899999856948853,112.55999755859375,0.15130615234375,-0.04034423828125,0.97503662109375,35.65999984741211,0.0,-92.0,-1.921112060546875,-1.5113983154296875,Closing,0.0,0.0,-189.0,0.0,0.0,0.0,0.0,0.0,
1.1996800000000003,0.0,0.0,63398.0,2.75,787.5,840.0,0.0,0.125,0.812988198,4.929373866126697,0.0012207029999999897,-57516.0,4.5,-772.5,-840.0,0.0,0.25,0.592040955,4.96087448012352,0.0,54549.0,4.375,780.0,840.0,0.0,0.0,3.3203121600000003,4.937518112564087,0.004882811999999959,-34698.0,3.875,-727.5,-840.0,0.0,0.25,1.6589353770000002,4.955107845942179,0.0,0.4000000059604645,1.4700000286102295,112.33999633789062,0.07073974609375,-0.02911376953125,1.04486083984375,35.65999984741211,0.0,-50.0,-1.921539306640625,-1.523651123046875,Closing,0.0,0.0,-189.0,0.0,0.0,0.0,0.0,0.0,
1.2447459999999992,0.0,0.0,63536.0,2.25,870.0,840.0,0.0,0.125,0.822753822,4.926222764301279,0.0012207029999999897,-57516.0,4.0,-817.5,-840.0,0.0,0.25,0.557861271,4.957703241533279,0.0,54549.0,3.25,877.5,840.0,0.0,0.0,3.3239742690000003,4.934361804529826,0.0,-34698.0,3.375,-795.0,-840.0,0.0,0.25,1.6540525650000002,4.95194029367235,0.0,0.4099999964237213,1.559999942779541,111.9800033569336,0.00531005859375,0.03131103515625,1.0826416015625,35.619998931884766,0.0,30.0,-1.9219970703125,-1.5493316650390625,Closing,0.0,0.0,-189.0,0.0,0.0,0.0,0.0,0.0,
1.3223020000000034,0.0,0.0,63536.0,2.0,892.5,840.0,0.0,0.125,0.822753822,4.922386585803541,-0.0012207029999999897,-57659.0,3.25,-870.0,-840.0,0.0,0.25,0.534667914,4.95384254836464,-0.037841793000000123,54694.0,3.0,907.5,840.0,0.0,0.0,3.3276363780000002,4.930519287948608,0.0,-34829.0,3.25,-825.0,-840.0,0.0,0.25,1.649169753,4.948084088261922,-0.003662108999999969,0.3799999952316284,1.5099999904632568,111.93000030517578,0.07745361328125,-0.021484375,0.8804931640625,35.619998931884766,0.0,-45.0,-1.92205810546875,-1.557891845703125,Closing,0.0,0.0,-189.0,0.0,0.0,0.0,0.0,0.0,
1.3524879999999975,0.0,0.0,63682.0,1.625,907.5,840.0,0.0,0.125,0.823974525,4.9217015091312195,-0.0012207029999999897,-57659.0,2.875,-892.5,-840.0,0.0,0.25,0.522460884,4.95315309378624,-0.037841793000000123,54694.0,2.875,915.0,840.0,0.0,0.0,3.3251949720000002,4.929833079401652,0.0,-34829.0,3.0,-870.0,-840.0,0.0,0.25,1.640624832,4.947395435121324,-0.003662108999999969,0.3799999952316284,1.5700000524520874,111.86000061035156,-0.0052490234375,0.015380859375,0.9744873046875,35.619998931884766,0.0,20.0,-1.92242431640625,-1.5706329345703125,Closing,0.0,0.0,-189.0,0.0,0.0,0.0,0.0,0.0,
1.4010109999999987,0.0,0.0,63682.0,1.5,922.5,840.0,0.0,0.125,0.8178710100000001,4.920742464506786,0.0,-57659.0,2.375,-922.5,-840.0,0.0,0.25,0.520019478,4.9521879204940795,-0.014648435999999876,54694.0,2.625,937.5,840.0,0.0,0.0,3.3264156750000002,4.928872450256348,0.0,-34829.0,2.625,-907.5,-840.0,0.0,0.25,1.64794905,4.946431383768718,-0.00610351500000017,0.3199999928474426,1.4299999475479126,111.83000183105469,0.0679931640625,0.08331298828125,0.8134765625,35.619998931884766,0.0,55.0,-1.9227447509765625,-1.5827178955078125,Closing,0.0,0.0,-189.0,0.0,0.0,0.0,0.0,0.0,
1.4605930000000007,0.0,0.0,63682.0,1.125,930.0,840.0,0.0,0.25,0.8276366340000001,4.920194424074533,0.0012207029999999897,-57808.0,1.875,-930.0,-840.0,0.0,0.125,0.520019478,4.951636377870559,-0.009765624000000805,54845.0,2.375,937.5,840.0,0.0,0.0,3.328857081,4.928323504358928,0.0,-34977.0,2.25,-915.0,-840.0,0.0,0.25,1.6564939710000002,4.945880482270982,0.0012207029999999897,0.28999999165534973,1.3700000047683716,111.80000305175781,-0.09112548828125,0.098876953125,0.80743408203125,35.619998931884766,0.0,129.0,-1.923126220703125,-1.594482421875,Closing,0.0,0.0,-189.0,0.0,0.0,0.0,0.0,0.0,
1.520040000000001,0.0,0.0,63832.0,1.125,930.0,840.0,0.0,0.25,0.8276366340000001,4.919646383642282,0.0012207029999999897,-57808.0,1.5,-930.0,-840.0,0.0,0.25,0.518798775,4.95108483524704,0.0012207030000004337,54845.0,2.25,930.0,840.0,0.0,0.0,3.3239742690000003,4.927774558461508,0.004882811999999959,-34977.0,2.25,-907.5,-840.0,0.0,0.25,1.650390456,4.945329580773247,0.0,0.36000001430511475,1.2599999904632568,111.7699966430664,0.0447998046875,-0.02886962890625,1.02978515625,35.619998931884766,0.0,-41.0,-1.923431396484375,-1.609375,Closing,0.0,0.0,-189.0,0.0,0.0,0.0,0.0,0.0,
1.5505570000000006,0.0,0.0,63832.0,0.875,922.5,840.0,0.0,0.25,0.826415931,4.9195093474022125,0.0012207029999999897,-57957.0,1.375,-930.0,-840.0,0.0,0.125,0.520019478,4.95094692329216,-0.0012207030000004337,54994.0,2.25,930.0,840.0,0.0,0.0,3.333739893,4.927637295811971,0.004882811999999959,-35125.0,2.0,-907.5,-840.0,0.0,0.25,1.64794905,4.945191829130384,0.0,0.36000001430511475,1.2300000190734863,111.7300033569336,0.00140380859375,0.0030517578125,0.8265380859375,35.619998931884766,0.0,4.0,-1.9234619140625,-1.6166534423828125,Closing,0.0,0.0,-189.0,0.0,0.0,0.0,0.0,0.0,
1.5899879999999975,0.0,0.0,63981.0,0.875,922.5,840.0,0.0,0.25,0.836181555,4.918961411497985,0.0,-57957.0,1.25,-930.0,-840.0,0.0,0.25,0.52490229,4.9503954858646395,0.0012207030000004337,54994.0,2.125,930.0,840.0,0.0,0.0,3.334960596,4.927088454615276,0.0,-35125.0,2.0,-907.5,-840.0,0.0,0.25,1.650390456,4.944641032706366,0.0,0.36000001430511475,1.190000057220459,111.69999694824219,0.0390625,0.08868408203125,0.76025390625,35.619998931884766,0.0,69.0,-1.9232025146484375,-1.627105712890625,Closing,0.0,0.0,-189.0,0.0,0.0,0.0,0.0,0.0,
1.6452359999999973,0.0,0.0,63981.0,0.75,922.5,840.0,0.0,0.25,0.8276366340000001,4.918276334825665,0.0,-57957.0,1.125,-922.5,-840.0,0.0,0.25,0.520019478,4.949706031286239,0.0,54994.0,1.875,930.0,840.0,0.0,0.0,3.333739893,4.926402246068319,0.004882811999999959,-35125.0,2.0,-900.0,-840.0,0.0,0.25,1.649169753,4.9439523795657685,0.0,0.41999998688697815,1.0199999809265137,111.68000030517578,0.0087890625,-0.0538330078125,1.18975830078125,35.619998931884766,0.0,-53.0,-1.922393798828125,-1.6407623291015625,Closing,0.0,0.0,-189.0,0.0,0.0,0.0,0.0,0.0,
1.6874990000000034,0.0,0.0,64126.0,0.75,907.5,840.0,0.0,0.25,0.8276366340000001,4.918276334825665,0.0,-58102.0,1.125,-900.0,-840.0,0.0,0.25,0.518798775,4.949706031286239,-0.0012207030000004337,55141.0,1.75,915.0,840.0,0.0,0.0,3.333739893,4.926402246068319,0.0,-35266.0,1.875,-885.0,-840.0,0.0,0.25,1.649169753,4.9439523795657685,0.0,0.4399999976158142,0.8999999761581421,111.69000244140625,-0.060546875,0.03277587890625,1.27447509765625,35.619998931884766,0.0,51.0,-1.9217376708984375,-1.6534881591796875,Closing,0.0,0.0,-189.0,0.0,0.0,0.0,0.0,0.0,
1.7484709999999977,0.0,0.0,64126.0,0.75,892.5,840.0,0.0,0.25,0.821533119,4.918413371065733,0.0,-58102.0,1.125,-900.0,-840.0,0.0,0.25,0.520019478,4.949843943241119,0.0,55141.0,1.75,907.5,840.0,0.0,0.0,3.334960596,4.926539508717855,0.0,-35266.0,1.875,-885.0,-840.0,0.0,0.25,1.650390456,4.944090131208632,0.0,0.3799999952316284,1.0399999618530273,111.70999908447266,0.00555419921875,-0.01165771484375,0.79827880859375,35.619998931884766,0.0,-12.0,-1.9215240478515625,-1.659393310546875,Closing,0.0,0.0,-189.0,0.0,0.0,0.0,0.0,0.0,
1.7872439999999987,0.0,0.0,64126.0,0.75,885.0,839.9999999999999,0.0,0.25,0.8288573370000001,4.918687339017847,0.0,-58102.0,1.125,-907.5,-839.9999999999999,0.0,0.25,0.520019478,4.95011966195488,0.0,55141.0,1.75,907.5,839.9999999999999,0.0,0.0,3.34472622,4.926813929316203,-0.0012207030000004337,-35409.0,1.875,-892.5,-839.9999999999999,0.0,0.25,1.649169753,4.944365529420641,0.0,0.41999998688697815,0.8199999928474426,111.7300033569336,-0.04193115234375,-0.15521240234375,1.12890625,35.61000061035156,0.0,-130.0,-1.9213104248046875,-1.6678466796875,Closing,0.0,0.0,-189.0,0.0,0.0,0.0,0.0,0.0,
1.8177690000000002,0.0,0.0,64267.0,0.75,877.5,840.0,0.0,0.25,0.826415931,4.918961411497985,0.0,-58247.0,1.0,-907.5,-840.0,0.0,0.25,0.520019478,4.9503954858646395,0.0,55287.0,1.75,907.5,840.0,0.0,0.0,3.347167626,4.927088454615276,0.010986327000000351,-35409.0,1.625,-892.5,-840.0,0.0,0.25,1.649169753,4.944641032706366,0.0012207029999999897,0.4000000059604645,0.7900000214576721,111.76000213623047,-0.04986572265625,-0.05224609375,1.23431396484375,35.61000061035156,0.0,-31.0,-1.921173095703125,-1.6755828857421875,Closing,0.0,0.0,-189.0,0.0,0.0,0.0,0.0,0.0,
1.8712620000000024,0.0,0.0,64267.0,0.75,885.0,839.9999999999999,0.0,0.25,0.826415931,4.919372415690168,0.0,-58247.0,0.875,-900.0,-839.9999999999999,0.0,0.25,0.520019478,4.9508091165332795,0.0,55287.0,1.75,892.5,839.9999999999999,0.0,0.0,3.352050438,4.927500137863159,0.004882811999999959,-35409.0,1.375,-892.5,-839.9999999999999,0.0,0.25,1.649169753,4.945054182561239,0.0,0.41999998688697815,0.6899999976158142,111.80999755859375,-0.02130126953125,0.0223388671875,1.09228515625,35.61000061035156,0.0,26.0,-1.9206390380859375,-1.6851348876953125,Closing,0.0,0.0,-189.0,0.0,0.0,0.0,0.0,0.0,
1.9248199999999998,0.0,0.0,64267.0,0.75,877.5,840.0,0.0,0.25,0.8276366340000001,4.920057387834464,0.0012207030000001007,-58391.0,0.875,-892.5,-840.0,0.0,0.125,0.520019478,4.95149846591568,0.0,55428.0,1.75,877.5,840.0,0.0,0.0,3.354491844,4.928186241709391,0.004882811999999959,-35555.0,1.375,-900.0,-840.0,0.0,0.25,1.649169753,4.94574273062812,0.0,0.4000000059604645,0.6299999952316284,111.83000183105469,-0.0335693359375,0.07293701171875,0.9051513671875,35.61000061035156,0.0,77.0,-1.920166015625,-1.6874237060546875,Closing,0.0,0.0,-189.0,0.0,0.0,0.0,0.0,0.0,
1.955002999999997,0.0,0.0,64405.0,0.75,862.5,840.0,0.0,0.25,0.8288573370000001,4.9203314603146024,0.0012207030000001007,-58391.0,0.875,-885.0,-840.0,0.0,0.125,0.520019478,4.9517742898254395,0.0,55428.0,1.75,870.0,840.0,0.0,0.125,3.352050438,4.928460767008464,0.004882811999999959,-35555.0,1.25,-907.5,-840.0,0.0,0.25,1.649169753,4.946018233913845,0.0,0.4000000059604645,0.6100000143051147,111.87000274658203,0.00244140625,0.07147216796875,1.12677001953125,35.61000061035156,0.0,62.0,-1.9195556640625,-1.6872100830078125,Closing,0.0,0.0,-189.0,0.0,0.0,0.0,0.0,0.0,
1.9925919999999968,0.0,0.0,64405.0,0.75,855.0,840.0,0.0,0.25,0.833740149,4.920879500746854,-0.0012207030000001007,-58391.0,0.875,-877.5,-840.0,0.0,0.25,0.518798775,4.95232583244896,0.0012207030000004337,55428.0,1.75,855.0,840.0,0.0,0.0,3.353271141,4.929009712905884,-0.0012207030000004337,-35555.0,1.375,-907.5,-840.0,0.0,0.25,1.649169753,4.94656913541158,0.0,0.44999998807907104,0.6100000143051147,111.87000274658203,-0.07086181640625,-0.11846923828125,0.99322509765625,35.61000061035156,0.0,-86.0,-1.918670654296875,-1.686920166015625,Closing,0.0,0.0,-189.0,0.0,0.0,0.0,0.0,0.0,
2.0483340000000028,0.0,0.0,64405.0,0.75,855.0,840.0,0.0,0.25,0.8276366340000001,4.921153468698968,0.0024414060000000903,-58530.0,0.875,-877.5,-840.0,0.0,0.125,0.520019478,4.9526015511627195,-0.0012207030000004337,55565.0,1.75,855.0,840.0,0.0,0.0,3.353271141,4.929284133504232,0.0,-35695.0,1.375,-862.5,-840.0,0.0,0.25,1.649169753,4.946844533623589,0.0,0.38999998569488525,0.49000000953674316,111.88999938964844,-0.0296630859375,-0.05963134765625,0.867431640625,35.61000061035156,0.0,-46.0,-1.9169921875,-1.68536376953125,Closing,0.0,0.0,-189.0,0.0,0.0,0.0,0.0,0.0,
2.0747960000000023,0.0,0.0,64545.0,0.75,862.5,840.0,0.0,0.25,0.8312987430000001,4.921153468698968,-0.0012207029999999897,-58530.0,0.875,-870.0,-840.0,0.0,0.125,0.520019478,4.9526015511627195,0.0012207030000004337,55565.0,1.875,855.0,840.0,0.0,0.0,3.354491844,4.929284133504232,0.0,-35695.0,1.625,-840.0,-840.0,0.0,0.25,1.649169753,4.946844533623589,-0.0012207029999999897,0.38999998569488525,0.3400000035762787,111.94000244140625,-0.05853271484375,0.03369140625,1.0433349609375,35.61000061035156,0.0,48.0,-1.9156951904296875,-1.6831817626953125,Closing,0.0,0.0,-189.0,0.0,0.0,0.0,0.0,0.0,
2.131398999999998,0.0,0.0,64545.0,0.75,862.5,840.0,0.0,0.25,0.833740149,4.921838545371289,0.004882811999999959,-58530.0,0.875,-862.5,-840.0,0.0,0.125,0.520019478,4.95329100574112,0.0,55565.0,2.125,847.5,840.0,0.0,0.0,3.353271141,4.929970342051188,0.0012207030000004337,-35695.0,1.625,-840.0,-840.0,0.0,0.25,1.6589353770000002,4.947533186764187,0.0,0.41999998688697815,0.3400000035762787,111.95999908447266,0.047607421875,0.0401611328125,0.9193115234375,35.61000061035156,0.0,15.0,-1.915069580078125,-1.681671142578125,Closing,0.0,0.0,-189.0,0.0,0.0,0.0,0.0,0.0,
2.1825999999999985,0.0,0.0,64679.0,0.875,832.5,840.0,0.0,0.25,0.836181555,4.922386585803541,0.0024414059999999793,-58668.0,0.875,-855.0,-840.0,0.0,0.125,0.520019478,4.95384254836464,-0.0012207030000004337,55699.0,2.125,832.5,840.0,0.0,0.0,3.349609032,4.930519287948608,-0.0012207030000004337,-35831.0,1.625,-855.0,-840.0,0.0,0.25,1.649169753,4.948084088261922,0.0012207029999999897,0.4300000071525574,0.3100000023841858,111.9800033569336,-0.00128173828125,-0.03717041015625,0.8316650390625,35.61000061035156,0.0,-38.0,-1.9132080078125,-1.678436279296875,Closing,0.0,0.0,-189.0,0.0,0.0,0.0,0.0,0.0,
2.2279559999999985,0.0,0.0,64679.0,0.875,832.5,840.0,0.0,0.25,0.836181555,4.922386585803541,0.0012207029999999897,-58668.0,1.125,-840.0,-840.0,0.0,0.125,0.518798775,4.95384254836464,0.0,55699.0,2.25,832.5,840.0,0.0,0.0,3.348388329,4.930519287948608,-0.003662108999999525,-35831.0,1.875,-832.5,-840.0,0.0,0.25,1.64794905,4.948084088261922,0.0,0.38999998569488525,0.15000000596046448,111.94000244140625,-0.0516357421875,-0.0194091796875,1.0767822265625,35.61000061035156,0.0,-4.0,-1.9127044677734375,-1.675811767578125,Closing,0.0,0.0,-189.0,0.0,0.0,0.0,0.0,0.0,
2.2742490000000033,0.0,0.0,64679.0,0.875,832.5,840.0,0.0,0.25,0.836181555,4.9217015091312195,-0.0012207029999999897,-58802.0,1.125,-825.0,-840.0,0.0,0.125,0.520019478,4.95315309378624,0.0,55834.0,2.25,840.0,840.0,0.0,0.0,3.350829735,4.929833079401652,-0.0012207030000004337,-35961.0,2.0,-810.0,-840.0,0.0,0.25,1.649169753,4.947395435121324,0.0,0.36000001430511475,0.14000000059604645,111.88999938964844,-0.07806396484375,0.04095458984375,1.03680419921875,35.560001373291016,0.0,61.0,-1.9122467041015625,-1.6721038818359375,Closing,0.0,0.0,-189.0,0.0,0.0,0.0,0.0,0.0,
2.327843999999997,0.0,0.0,64813.0,0.875,832.5,840.0,0.0,0.25,0.836181555,4.921153468698968,0.0012207029999999897,-58802.0,1.25,-817.5,-840.0,0.0,0.125,0.5151366660000001,4.9526015511627195,0.0012207030000004337,55834.0,2.25,825.0,840.0,0.0,0.0,3.347167626,4.929284133504232,-0.004882811999999959,-35961.0,2.0,-817.5,-840.0,0.0,0.25,1.649169753,4.946844533623589,-0.0012207029999999897,0.3700000047683716,0.07000000029802322,111.87000274658203,-0.032958984375,-0.03363037109375,1.01690673828125,35.560001373291016,0.0,-24.0,-1.911712646484375,-1.6676177978515625,Closing,0.0,0.0,-189.0,0.0,0.0,0.0,0.0,0.0,
2.3984910000000017,0.0,0.0,64813.0,1.125,825.0,840.0,0.0,0.25,0.836181555,4.920879500746854,0.0,-58933.0,1.375,-817.5,-840.0,0.0,0.125,0.521240181,4.95232583244896,0.0,55965.0,2.25,817.5,840.0,0.0,0.0,3.338622705,4.929009712905884,0.0,-36095.0,2.0,-817.5,-840.0,0.0,0.25,1.650390456,4.94656913541158,0.0,0.36000001430511475,0.029999999329447746,111.8499984741211,0.01300048828125,-0.061767578125,1.02777099609375,35.560001373291016,0.0,-68.0,-1.91162109375,-1.6651763916015625,Closing,0.0,0.0,-189.0,0.0,0.0,0.0,0.0,0.0,
2.456351999999999,0.0,0.0,64943.0,1.125,810.0,840.0,0.0,0.25,0.836181555,4.920468392026647,-0.0012207029999999897,-58933.0,1.375,-825.0,-840.0,0.0,0.125,0.518798775,4.95191209658432,-0.0012207030000004337,55965.0,2.375,810.0,840.0,0.0,0.0,3.341064111,4.928597924957276,-0.004882811999999959,-36095.0,2.5,-802.5,-840.0,0.0,0.25,1.649169753,4.9461558804829915,0.0,0.3400000035762787,0.03999999910593033,111.81999969482422,0.020263671875,0.02215576171875,0.9625244140625,35.560001373291016,0.0,7.0,-1.9116973876953125,-1.665069580078125,Closing,0.0,0.0,-189.0,0.0,0.0,0.0,0.0,0.0,
2.4874069999999993,0.0,0.0,64943.0,1.125,817.5,840.0,0.0,0.25,0.833740149,4.920057387834464,-0.0012207029999999897,-58933.0,1.375,-825.0,-840.0,0.0,0.125,0.520019478,4.95149846591568,0.0,55965.0,2.375,810.0,840.0,0.0,0.0,3.333739893,4.928186241709391,0.0012207030000004337,-36224.0,2.25,-802.5,-840.0,0.0,0.25,1.649169753,4.94574273062812,0.0012207029999999897,0.3799999952316284,-0.009999999776482582,111.76000213623047,-0.0255126953125,0.04388427734375,1.07452392578125,35.560001373291016,0.0,43.0,-1.9120025634765625,-1.664886474609375,Closing,0.0,0.0,-189.0,0.0,0.0,0.0,0.0,0.0,
2.5360630000000017,0.0,0.0,64943.0,1.125,817.5,840.0,0.0,0.25,0.836181555,4.918961411497985,0.0,-59065.0,1.5,-825.0,-840.0,0.0,0.125,0.520019478,4.9503954858646395,0.0,56095.0,2.375,817.5,840.0,0.0,0.0,3.334960596,4.927088454615276,-0.004882811999999959,-36224.0,2.5,-817.5,-840.0,0.0,0.25,1.649169753,4.944641032706366,0.0,0.38999998569488525,-0.029999999329447746,111.68000030517578,0.0145263671875,-2.44140625E-4,1.02008056640625,35.560001373291016,0.0,-12.0,-1.9124908447265625,-1.664581298828125,Closing,0.0,0.0,-189.0,0.0,0.0,0.0,0.0,0.0,
2.5751030000000026,0.0,0.0,65077.0,1.125,832.5,840.0,0.0,0.25,0.836181555,4.918276334825665,0.003662108999999969,-59065.0,1.5,-817.5,-840.0,0.0,0.25,0.520019478,4.949706031286239,0.0,56095.0,2.375,825.0,840.0,0.0,0.0,3.337402002,4.926402246068319,-0.004882811999999959,-36224.0,2.75,-795.0,-840.0,0.0,0.25,1.652831862,4.9439523795657685,-0.0012207029999999897,0.4000000059604645,-0.07999999821186066,111.62999725341797,0.04473876953125,-0.08587646484375,1.09051513671875,35.560001373291016,0.0,-104.0,-1.9129486083984375,-1.664581298828125,Closing,0.0,0.0,-189.0,0.0,0.0,0.0,0.0,0.0,
2.613214,0.0,0.0,65077.0,1.125,832.5,840.0,0.0,0.25,0.836181555,4.91731729020123,0.003662108999999969,-59065.0,1.5,-817.5,-840.0,0.0,0.25,0.518798775,4.948740857994079,0.0,56095.0,2.375,825.0,840.0,0.0,0.0,3.3251949720000002,4.925441616923014,-0.004882811999999959,-36224.0,2.875,-750.0,-840.0,0.0,0.25,1.649169753,4.942988328213162,0.0,0.4099999964237213,-0.14000000059604645,111.51000213623047,-0.060302734375,-0.01373291015625,1.1561279296875,35.560001373291016,0.0,0.0,-1.9140472412109375,-1.664154052734375,Closing,0.0,0.0,-189.0,0.0,0.0,0.0,0.0,0.0,
2.6526469999999973,0.0,0.0,65077.0,1.125,832.5,840.0,0.0,0.25,0.836181555,4.915947241384613,0.0,-59197.0,1.625,-817.5,-840.0,0.0,0.25,0.513915963,4.947362054033279,0.0,56228.0,2.375,825.0,840.0,0.0,0.0,3.3239742690000003,4.9240693045298265,-0.0012207030000004337,-36348.0,2.875,-750.0,-840.0,0.0,0.25,1.64794905,4.941611127005683,0.0,0.3700000047683716,-0.10999999940395355,111.47000122070312,-1.220703125E-4,-0.02337646484375,0.93951416015625,35.560001373291016,0.0,-28.0,-1.9143524169921875,-1.6639251708984375,Closing,0.0,0.0,-189.0,0.0,0.0,0.0,0.0,0.0,
2.685205999999998,0.0,0.0,65211.0,1.125,840.0,840.0000000000001,0.0,0.25,0.834960852,4.914851160520109,-0.0024414059999999793,-59197.0,1.75,-817.5,-840.0000000000001,0.0,0.25,0.5151366660000001,4.94625896878624,0.0012207030000004337,56228.0,2.375,832.5,840.0000000000001,0.0,0.0,3.3239742690000003,4.922971412734985,-0.003662108999999525,-36348.0,2.875,-802.5,-840.0000000000001,0.0,0.25,1.64794905,4.940509324010213,0.0012207029999999897,0.3799999952316284,-0.11999999731779099,111.37000274658203,0.0120849609375,-0.0018310546875,1.12274169921875,35.560001373291016,0.0,-14.0,-1.9154815673828125,-1.66326904296875,Closing,0.0,0.0,-189.0,0.0,0.0,0.0,0.0,0.0,
2.724288999999997,0.0,0.0,65211.0,1.125,840.0,840.0,0.0,0.25,0.826415931,4.914029152135743,0.0,-59197.0,1.75,-817.5,-840.0,0.0,0.25,0.520019478,4.945431707448959,0.0,56228.0,2.375,840.0,840.0,0.0,0.0,3.3239742690000003,4.922148046239218,0.0,-36348.0,2.875,-825.0,-840.0,0.0,0.25,1.649169753,4.93968302430047,0.0,0.3799999952316284,-0.17000000178813934,111.29000091552734,-0.01239013671875,-0.0091552734375,0.970703125,35.560001373291016,0.0,-11.0,-1.9163665771484375,-1.66326904296875,Closing,0.0,0.0,-189.0,0.0,0.0,0.0,0.0,0.0,
2.7794389999999987,0.0,0.0,65347.0,0.875,840.0,840.0,0.0,0.25,0.826415931,4.912522067079057,-0.004882811999999959,-59329.0,1.75,-825.0,-840.0,0.0,0.25,0.520019478,4.94391499153328,-0.0012207030000004337,56365.0,2.25,855.0,840.0,0.0,0.0,3.3251949720000002,4.920638471196493,0.0,-36474.0,2.875,-780.0,-840.0,0.0,0.25,1.6540525650000002,4.938168071450128,0.0,0.38999998569488525,-0.20000000298023224,111.1500015258789,-0.0037841796875,0.03070068359375,1.09039306640625,35.540000915527344,0.0,21.0,-1.9179840087890625,-1.6631927490234375,Closing,0.0,0.0,-189.0,0.0,0.0,0.0,0.0,0.0,
2.812769999999997,0.0,0.0,65347.0,0.875,855.0,840.0000000000001,0.0,0.25,0.822753822,4.911014982022371,-0.00488281200000007,-59329.0,1.625,-832.5,-840.0000000000001,0.0,0.25,0.520019478,4.9423982756176,0.0012207030000004337,56365.0,2.25,855.0,840.0000000000001,0.0,0.0,3.3239742690000003,4.919128896153768,0.0,-36474.0,2.875,-802.5,-840.0000000000001,0.0,0.25,1.649169753,4.936653118599786,0.0,0.3700000047683716,-0.2800000011920929,111.06999969482422,-0.06121826171875,-0.00543212890625,1.091552734375,35.540000915527344,0.0,8.0,-1.9187774658203125,-1.6628265380859375,Closing,0.0,0.0,-189.0,0.0,0.0,0.0,0.0,0.0,
2.867745999999999,0.0,0.0,65347.0,0.875,870.0,840.0,0.0,0.25,0.811767495,4.9095078969656845,-0.00488281200000007,-59329.0,1.5,-840.0,-840.0,0.0,0.25,0.518798775,4.94088155970192,0.0012207030000004337,56365.0,2.25,862.5,840.0,0.0,0.0,3.3251949720000002,4.917619321111044,0.0,-36607.0,2.75,-840.0,-840.0,0.0,0.25,1.649169753,4.935138165749444,0.0,0.33000001311302185,-0.23000000417232513,110.9800033569336,-0.03570556640625,0.050048828125,0.98199462890625,35.540000915527344,0.0,52.0,-1.9190673828125,-1.662109375,Closing,0.0,0.0,-189.0,0.0,0.0,0.0,0.0,0.0,
2.910756000000001,0.0,0.0,65487.0,0.75,862.5,840.0,0.0,0.25,0.823974525,4.908274779861111,-0.0024414059999999793,-59464.0,1.5,-840.0,-840.0,0.0,0.25,0.520019478,4.9396405625,-0.0012207030000004337,56504.0,2.125,862.5,840.0,0.0,0.0,3.3251949720000002,4.916384166666667,0.0,-36607.0,2.875,-825.0,-840.0,0.0,0.25,1.649169753,4.933898611111111,0.0,0.3499999940395355,-0.2800000011920929,110.91000366210938,0.03125,0.0506591796875,1.16693115234375,35.540000915527344,0.0,27.0,-1.919464111328125,-1.6611480712890625,Closing,0.0,0.0,-189.0,0.0,0.0,0.0,0.0,0.0,
2.949802000000003,0.0,0.0,65487.0,0.375,862.5,0.0,0.0,0.25,0.821533119,0.01,0.0,-59464.0,0.875,-832.5,-0.0,0.0,0.25,0.518798775,0.01,0.0,56504.0,0.875,862.5,0.0,0.0,0.0,3.3264156750000002,0.01,0.0,-36607.0,1.5,-817.5,-0.0,0.0,0.25,1.644286941,0.01,0.0,0.3499999940395355,-0.28999999165534973,110.86000061035156,-0.068115234375,0.03277587890625,0.90679931640625,35.540000915527344,0.0,48.0,-1.9197845458984375,-1.65985107421875,Closing,0.0,0.0,-189.0,0.0,0.0,0.0,0.0,0.0,
3.0006189999999986,0.0,0.0,65487.0,0.125,817.5,0.0,0.0,0.125,0.821533119,0.01,-0.0012207029999999897,-59562.0,0.625,-705.0,-0.0,0.0,0.0,0.5151366660000001,0.01,0.0,56635.0,0.125,840.0,0.0,0.0,0.0,3.349609032,0.01,0.0,-36720.0,0.125,-705.0,-0.0,0.0,0.25,1.6308592080000002,0.01,0.0,0.3199999928474426,-0.8399999737739563,110.80000305175781,-0.4278564453125,-0.15386962890625,0.93768310546875,35.540000915527344,0.0,-1.0,-1.919036865234375,-1.6560211181640625,Closing,0.0,0.0,-189.0,0.0,0.0,0.0,0.0,0.0,
3.0571500000000014,0.0,0.0,65586.0,0.0,585.0,0.0,0.0,0.125,0.822753822,0.01,0.0,-59562.0,0.25,-555.0,-0.0,0.0,0.0,0.5151366660000001,0.01,0.0,56635.0,0.125,765.0,0.0,0.0,0.0,3.35693325,0.01,0.009765623999999917,-36720.0,0.125,-592.5,-0.0,0.0,0.125,1.644286941,0.01,-0.006103514999999948,0.4300000071525574,-1.1299999952316284,110.7699966430664,-0.39764404296875,-0.08038330078125,0.86199951171875,35.540000915527344,0.0,53.0,-1.917877197265625,-1.6518707275390625,Closing,0.0,0.0,-189.0,0.0,0.0,0.0,0.0,0.0,
3.0869789999999995,0.0,0.0,65586.0,0.0,540.0,0.0,0.0,0.125,0.821533119,0.01,0.0,-59562.0,0.25,-547.5,-0.0,0.0,0.0,0.513915963,0.01,-0.004882811999999959,56635.0,0.125,622.5,0.0,0.0,0.0,3.358153953,0.01,0.024414059999999793,-36811.0,0.125,-577.5,-0.0,0.0,0.125,1.643066238,0.01,0.0,0.46000000834465027,-1.5199999809265137,110.79000091552734,-0.24713134765625,-0.0364990234375,0.88812255859375,35.540000915527344,0.0,38.0,-1.9150543212890625,-1.64007568359375,Closing,0.0,0.0,-189.0,0.0,0.0,0.0,0.0,0.0,
3.1337220000000015,0.0,0.0,65586.0,0.0,562.5,0.0,0.0,0.125,0.822753822,0.01,0.0,-59653.0,0.5,-555.0,-0.0,0.0,0.0,0.5151366660000001,0.01,0.0,56725.0,0.125,585.0,0.0,0.0,0.0,3.35693325,0.01,-0.0012207030000004337,-36811.0,0.125,-570.0,-0.0,0.0,0.125,1.644286941,0.01,0.0,0.46000000834465027,-1.8700000047683716,110.80000305175781,-0.23773193359375,-0.04150390625,1.02313232421875,35.540000915527344,0.0,69.0,-1.91326904296875,-1.632720947265625,Closing,0.0,0.0,-189.0,0.0,0.0,0.0,0.0,0.0,
3.1670599999999975,0.0,0.0,65668.0,0.125,532.5,0.0,0.0,0.125,0.820312416,0.01,0.0,-59653.0,0.75,-525.0,-0.0,0.0,0.0,0.513915963,0.01,0.0,56725.0,0.125,502.5,0.0,0.0,0.0,3.358153953,0.01,-0.0012207030000004337,-36811.0,0.125,-502.5,-0.0,0.0,0.125,1.644286941,0.01,0.0,0.4300000071525574,-2.0,110.80000305175781,-0.1494140625,-0.00457763671875,0.99420166015625,35.540000915527344,0.0,29.0,-1.9112396240234375,-1.6244354248046875,Closing,0.0,0.0,-189.0,0.0,0.0,0.0,0.0,0.0,
3.205815999999999,0.0,0.0,65668.0,0.125,427.5,0.0,0.0,0.125,0.822753822,0.01,0.0012207029999999897,-59653.0,1.0,-420.0,-0.0,0.0,0.0,0.5151366660000001,0.01,0.0,56725.0,0.125,390.0,0.0,0.0,0.0,3.359374656,0.01,0.0012207030000004337,-36811.0,0.125,-352.5,-0.0,0.0,0.125,1.644286941,0.01,0.004882811999999959,0.38999998569488525,-2.490000009536743,110.79000091552734,-0.201171875,-0.00604248046875,1.0155029296875,35.540000915527344,0.0,43.0,-1.9067535400390625,-1.605255126953125,Closing,0.0,0.0,-189.0,0.0,0.0,0.0,0.0,0.0,
3.255324999999997,0.0,0.0,65668.0,0.125,330.0,0.0,0.0,0.125,0.822753822,0.01,-0.0012207029999999897,-59697.0,0.625,-270.0,-0.0,0.0,0.0,0.5151366660000001,0.01,0.0,56771.0,0.125,292.5,0.0,0.0,0.0,3.358153953,0.01,0.0,-36859.0,0.125,-300.0,-0.0,0.0,0.25,1.644286941,0.01,0.004882811999999959,0.38999998569488525,-2.609999895095825,110.80000305175781,-0.13720703125,0.02825927734375,1.0242919921875,35.540000915527344,0.0,51.0,-1.90411376953125,-1.59454345703125,Closing,0.0,0.0,-189.0,0.0,0.0,0.0,0.0,0.0,
3.287072999999997,0.0,0.0,65706.0,0.125,195.0,0.0,0.0,0.125,0.822753822,0.01,0.0012207029999999897,-59697.0,0.5,-195.0,-0.0,0.0,0.0,0.5163573690000001,0.01,0.0,56771.0,0.125,202.5,0.0,0.0,0.0,3.358153953,0.01,0.0,-36859.0,0.25,-172.5,-0.0,0.0,0.25,1.643066238,0.01,0.0,0.4000000059604645,-2.8399999141693115,110.80999755859375,-0.13201904296875,-0.014404296875,0.99951171875,35.540000915527344,0.0,9.0,-1.899688720703125,-1.5775604248046875,Closing,0.0,0.0,-189.0,0.0,0.0,0.0,0.0,0.0,
3.3340449999999984,0.0,0.0,65706.0,0.125,157.5,0.0,0.0,0.125,0.822753822,0.01,-0.0012207029999999897,-59697.0,0.375,-127.5,-0.0,0.0,0.0,0.5151366660000001,0.01,0.0012207030000004337,56771.0,0.125,127.5,0.0,0.0,0.0,3.358153953,0.01,0.0,-36871.0,0.25,-105.0,-0.0,0.0,0.25,1.644286941,0.01,0.0,0.36000001430511475,-2.9600000381469727,110.80000305175781,-0.12689208984375,-0.00299072265625,1.0303955078125,35.540000915527344,0.0,17.0,-1.8981475830078125,-1.5595703125,Closing,0.0,0.0,-189.0,0.0,0.0,0.0,0.0,0.0,
3.386819000000003,0.0,0.0,65713.0,0.125,60.0,0.0,0.0,0.125,0.822753822,0.01,0.0,-59708.0,0.125,-60.0,-0.0,0.0,0.0,0.5151366660000001,0.01,-0.0012207030000004337,56783.0,0.125,67.5,0.0,0.0,0.0,3.358153953,0.01,-0.0012207030000004337,-36871.0,0.375,-37.5,-0.0,0.0,0.125,1.644286941,0.01,-0.0012207029999999897,0.3499999940395355,-3.0299999713897705,110.77999877929688,-0.04388427734375,0.01812744140625,1.02392578125,35.540000915527344,0.0,7.0,-1.8981475830078125,-1.540985107421875,Closing,0.0,0.0,-189.0,0.0,0.0,0.0,0.0,0.0,
3.4161379999999992,0.0,0.0,65713.0,0.125,37.5,0.0,0.0,0.125,0.821533119,0.01,0.0,-59708.0,0.125,-15.0,-0.0,0.0,0.0,0.5151366660000001,0.01,0.0,56783.0,0.0,22.5,0.0,0.0,0.0,3.35693325,0.01,0.0,-36871.0,0.375,-7.5,-0.0,0.0,0.125,1.643066238,0.01,0.0012207029999999897,0.3799999952316284,-3.0,110.80999755859375,-0.00750732421875,0.01593017578125,1.04595947265625,35.540000915527344,0.0,-8.0,-1.8981475830078125,-1.5286865234375,Closing,0.0,0.0,-189.0,0.0,0.0,0.0,0.0,0.0,
3.467434999999998,0.0,0.0,65713.0,0.125,7.5,0.0,0.0,0.125,0.821533119,0.01,0.0,-59708.0,0.125,0.0,-0.0,0.0,0.0,0.5151366660000001,0.01,0.0,56783.0,0.0,0.0,0.0,0.0,0.0,3.358153953,0.01,0.0,-36871.0,0.375,0.0,-0.0,0.0,0.25,1.643066238,0.01,0.0012207029999999897,0.3700000047683716,-2.9100000858306885,110.86000061035156,0.01068115234375,-0.0118408203125,1.02667236328125,35.540000915527344,0.0,-39.0,-1.8982086181640625,-1.51068115234375,Closing,0.0,0.0,-189.0,0.0,0.0,0.0,0.0,0.0,
3.521063000000002,0.0,0.0,65713.0,0.125,0.0,420.0,0.0,0.125,0.822753822,0.5498168668524888,0.0,-59708.0,0.125,0.0,-420.0,0.0,0.0,0.5151366660000001,1.9285545897722227,0.0,56783.0,0.0,0.0,420.0,0.0,0.0,3.358153953,4.389674732977289,0.0012207030000004337,-36871.0,0.375,0.0,-420.0,0.0,0.25,1.644286941,3.0316872062785585,0.0,0.36000001430511475,-2.799999952316284,110.83000183105469,0.01690673828125,-0.01202392578125,0.9990234375,35.540000915527344,0.0,-40.0,-1.8986053466796875,-1.4933013916015625,Closing,0.0,0.0,-189.0,0.0,0.0,0.0,0.0,0.0,
3.5493050000000004,0.0,0.0,65713.0,0.375,0.0,420.0,0.0,0.125,0.822753822,0.5498168668524888,0.0,-59708.0,0.125,0.0,-420.0,0.0,2.875,0.518798775,1.9285545897722227,0.0,56783.0,0.375,0.0,420.0,0.0,1.25,3.3190914570000003,4.389674732977289,0.0,-36871.0,0.75,0.0,-420.0,0.0,2.125,1.566161949,3.0316872062785585,0.0,0.36000001430511475,-2.7300000190734863,110.80999755859375,-1.8310546875E-4,0.019287109375,1.04376220703125,35.540000915527344,0.0,-5.0,-1.899017333984375,-1.4820709228515625,Closing,0.0,0.0,-189.0,0.0,0.0,0.0,0.0,0.0,
3.580845000000001,0.0,0.0,65713.0,0.375,37.5,420.0,0.0,1.875,0.9472655280000001,0.5498168668524888,0.008544921000000039,-59708.0,0.375,-37.5,-420.0,0.0,8.375,0.7373046120000001,1.9285545897722227,0.004882811999999959,56783.0,0.75,37.5,420.0,0.0,2.125,3.134765304,4.389674732977289,-0.06591796200000033,-36882.0,1.375,-30.0,-420.0,0.0,8.0,1.285400259,3.0316872062785585,4.865226572,0.36000001430511475,-2.6500000953674316,110.80000305175781,-0.06658935546875,-0.00128173828125,0.95623779296875,35.540000915527344,0.0,0.0,-1.899017333984375,-1.4710540771484375,Closing,0.0,0.0,-189.0,0.0,0.0,0.0,0.0,0.0,
3.613207999999999,0.0,0.0,65732.0,0.5,127.5,420.0,0.0,1.0,1.157226444,0.5498168668524888,0.145263657,-59734.0,0.5,-187.5,-420.0,0.0,1.5,1.129150275,1.9285545897722227,0.2539062240000005,56798.0,1.125,112.5,420.0,0.0,0.625,2.963866884,4.389674732977289,-0.15991209299999998,-36882.0,1.75,-75.0,-420.0,0.0,1.75,0.90332022,3.0316872062785585,-0.2770995809999999,0.3499999940395355,-2.3499999046325684,110.83000183105469,0.0968017578125,-0.06536865234375,0.8681640625,35.540000915527344,0.0,-113.0,-1.8992156982421875,-1.4499053955078125,Closing,0.0,0.0,-189.0,0.0,0.0,0.0,0.0,0.0,
3.6670069999999977,0.0,0.0,65732.0,0.75,120.0,420.0,0.0,0.75,1.252441278,0.5498168668524888,0.145263657,-59734.0,0.5,-195.0,-420.0,0.0,1.25,1.351318221,1.9285545897722227,0.2539062240000005,56798.0,1.125,142.5,420.0,0.0,0.375,2.889404001,4.389674732977289,-0.15991209299999998,-36882.0,2.125,-60.0,-420.0,0.0,1.75,0.693359304,3.0316872062785585,-0.2770995809999999,0.36000001430511475,-2.299999952316284,110.83000183105469,-0.0186767578125,0.03106689453125,1.129638671875,35.540000915527344,0.0,12.0,-1.8993682861328125,-1.4400482177734375,Closing,0.0,0.0,-189.0,0.0,0.0,0.0,0.0,0.0,
3.7045999999999983,0.0,0.0,65732.0,0.875,60.0,420.0,0.0,0.5,1.351318221,0.5498168668524888,0.29418942300000006,-59734.0,0.625,-157.5,-420.0,0.0,1.5,1.7126463090000001,1.9285545897722227,0.6176757180000001,56809.0,1.375,97.5,420.0,0.0,0.25,2.813720415,4.389674732977289,-0.2526855210000001,-36885.0,2.375,-15.0,-420.0,0.0,1.875,0.36254879100000004,3.0316872062785585,-0.5908202520000003,0.3799999952316284,-2.180000066757202,110.68000030517578,-0.0155029296875,-0.04876708984375,1.04180908203125,35.540000915527344,0.0,-60.0,-1.8996124267578125,-1.4257965087890625,Closing,0.0,0.0,-189.0,0.0,0.0,0.0,0.0,0.0,
3.741741000000002,0.0,0.0,65732.0,1.25,45.0,420.0,0.0,0.5,1.357421736,0.5498168668524888,0.08178710099999997,-59754.0,1.125,-127.5,-420.0,0.0,1.25,1.982421672,1.9285545897722227,0.35644527599999964,56809.0,1.5,60.0,420.0,0.0,0.125,2.810058306,4.389674732977289,-0.06591796199999944,-36885.0,3.0,-15.0,-420.0,0.0,1.875,0.112304676,3.0316872062785585,-0.3210448889999995,0.3700000047683716,-2.119999885559082,110.44000244140625,-0.04071044921875,0.00482177734375,0.94140625,35.540000915527344,0.0,0.0,-1.9000091552734375,-1.4165191650390625,Closing,0.0,0.0,-189.0,0.0,0.0,0.0,0.0,0.0,
3.772264000000003,0.0,0.0,65746.0,1.625,82.5,420.0,0.0,0.25,1.357421736,0.5498168668524888,0.08178710099999997,-59754.0,1.375,-135.0,-420.0,0.0,0.75,2.158202904,1.9285545897722227,0.35644527599999964,56809.0,2.0,37.5,420.0,0.0,0.125,2.808837603,4.389674732977289,-0.004882811999999959,-36885.0,3.25,-22.5,-420.0,0.0,1.0,4.827880365,3.0316872062785585,-0.26123044200000045,0.3700000047683716,-2.049999952316284,109.87999725341797,-0.04058837890625,0.0174560546875,1.0145263671875,35.540000915527344,0.0,11.0,-1.9008331298828125,-1.40277099609375,Closing,0.0,0.0,-189.0,0.0,0.0,0.0,0.0,0.0,
3.8100040000000006,0.0,0.0,65746.0,1.625,135.0,420.0,0.0,0.125,1.357421736,0.5498168668524888,0.006103514999999948,-59754.0,1.875,-142.5,-420.0,0.0,0.25,2.365722414,1.9285545897722227,0.26123044200000045,56809.0,2.0,52.5,420.0,0.0,0.0,2.808837603,4.389674732977289,-0.004882811999999959,-36885.0,4.125,-45.0,-420.0,0.0,0.5,4.709472174,3.0316872062785585,-0.26123044200000045,0.3799999952316284,-2.059999942779541,109.38999938964844,-0.0908203125,0.0048828125,1.02130126953125,35.540000915527344,0.0,16.0,-1.9015045166015625,-1.3935546875,Closing,0.0,0.0,-189.0,0.0,0.0,0.0,0.0,0.0,
3.8436489999999974,0.0,0.0,65746.0,1.75,150.0,420.0,0.0,0.125,1.357421736,0.5498168668524888,-0.0012207029999999897,-59779.0,2.0,-150.0,-420.0,0.0,0.25,2.496337635,1.9285545897722227,0.3759765239999999,56836.0,2.25,127.5,420.0,0.0,0.0,2.7905270580000003,4.389674732977289,0.0,-36898.0,4.25,-67.5,-420.0,0.0,0.5,4.622802261,3.0316872062785585,-0.35106687799999925,0.3700000047683716,-2.119999885559082,108.79000091552734,-0.03558349609375,0.05352783203125,1.01226806640625,35.540000915527344,0.0,43.0,-1.902069091796875,-1.3888702392578125,Closing,0.0,0.0,-189.0,0.0,0.0,0.0,0.0,0.0,
3.8748479999999983,0.0,0.0,65767.0,1.875,142.5,420.0,0.0,0.125,1.358642439,0.5498168668524888,0.0012207029999999897,-59779.0,2.25,-172.5,-420.0,0.0,0.25,2.525634507,1.9285545897722227,0.1171874879999999,56836.0,2.5,217.5,420.0,0.0,0.0,2.774657919,4.389674732977289,-0.02441406000000068,-36898.0,4.0,-165.0,-420.0,0.0,0.25,4.61425734,3.0316872062785585,-0.08544921000000016,0.550000011920929,-2.2300000190734863,107.22000122070312,-0.06365966796875,0.03997802734375,1.025146484375,35.540000915527344,0.0,35.0,-1.9022064208984375,-1.388580322265625,Closing,0.0,0.0,-189.0,0.0,0.0,0.0,0.0,0.0,
3.9288799999999973,0.0,0.0,65767.0,1.75,165.0,420.0,0.0,0.125,1.357421736,0.5498168668524888,0.0012207029999999897,-59779.0,2.5,-225.0,-420.0,0.0,0.25,2.525634507,1.9285545897722227,0.025634763000000227,56836.0,2.125,277.5,420.0,0.0,0.0,2.775878622,4.389674732977289,-0.009765623999999917,-36945.0,3.375,-277.5,-420.0,0.0,0.25,4.6081538250000005,3.0316872062785585,-0.009765623999999917,0.6100000143051147,-2.180000066757202,105.20999908447266,-0.01092529296875,-0.02105712890625,0.96734619140625,35.540000915527344,0.0,-37.0,-1.901397705078125,-1.38885498046875,Closing,0.0,0.0,-189.0,0.0,0.0,0.0,0.0,0.0,
3.990995999999999,0.0,0.0,65828.0,1.5,360.0,420.0,0.0,0.125,1.356201033,0.5498168668524888,-0.0024414059999999793,-59828.0,1.75,-315.0,-420.0,0.0,0.25,2.501220447,1.9285545897722227,-0.008544921000000372,56882.0,2.0,285.0,420.0,0.0,0.0,2.775878622,4.389674732977289,0.0012207030000004337,-36945.0,3.25,-307.5,-420.0,0.0,0.25,4.598388201000001,3.0316872062785585,-0.004882811999999959,0.5899999737739563,-2.180000066757202,104.08000183105469,-0.00787353515625,0.01605224609375,1.07342529296875,35.540000915527344,0.0,-3.0,-1.9011383056640625,-1.388763427734375,Closing,0.0,0.0,-189.0,0.0,0.0,0.0,0.0,0.0,
4.024686999999998,0.0,0.0,65828.0,1.25,367.5,420.0,0.0,0.125,1.359863142,0.5498168668524888,-0.0024414059999999793,-59828.0,1.5,-345.0,-420.0,0.0,0.25,2.4816891990000003,1.9285545897722227,-0.008544921000000372,56882.0,2.0,292.5,420.0,0.0,0.0,2.774657919,4.389674732977289,-0.0012207030000004337,-36945.0,2.875,-367.5,-420.0,0.0,0.25,4.588622577000001,3.0316872062785585,-0.014648435999999876,0.5799999833106995,-2.0799999237060547,102.88999938964844,-0.0013427734375,0.10614013671875,0.94976806640625,35.540000915527344,0.0,86.0,-1.900970458984375,-1.3887176513671875,Closing,0.0,0.0,-189.0,0.0,0.0,0.0,0.0,0.0,
4.054481999999997,0.0,0.0,65828.0,1.125,352.5,420.0,0.0,0.125,1.357421736,0.5498168668524888,0.0012207029999999897,-59828.0,1.25,-390.0,-420.0,0.0,0.25,2.467040763,1.9285545897722227,-0.017089841999999855,56882.0,2.125,315.0,420.0,0.0,0.0,2.775878622,4.389674732977289,-0.0012207030000004337,-36945.0,2.75,-390.0,-420.0,0.0,0.25,4.570312032,3.0316872062785585,-0.014648435999999876,0.6299999952316284,-2.0799999237060547,101.63999938964844,-0.009765625,0.0052490234375,1.17376708984375,35.540000915527344,0.0,-14.0,-1.9008331298828125,-1.388824462890625,Closing,0.0,0.0,-189.0,0.0,0.0,0.0,0.0,0.0,
4.086277000000002,0.0,0.0,65828.0,1.125,352.5,420.0,0.0,0.125,1.359863142,0.5498168668524888,0.0,-59895.0,1.125,-412.5,-420.0,0.0,0.25,2.452392327,1.9285545897722227,-0.03906249600000011,56936.0,2.25,337.5,420.0,0.0,0.0,2.775878622,4.389674732977289,0.0012207030000004337,-37015.0,2.625,-427.5,-420.0,0.0,0.25,4.559325705,3.0316872062785585,-0.02929687200000064,0.7200000286102295,-1.9299999475479126,99.69999694824219,0.0037841796875,-0.0045166015625,1.02337646484375,35.540000915527344,0.0,-23.0,-1.9007720947265625,-1.3892669677734375,Closing,0.0,0.0,-189.0,0.0,0.0,0.0,0.0,0.0,
4.122279999999999,0.0,0.0,65889.0,1.25,382.5,420.0,0.0,0.125,1.352538924,0.5498168668524888,0.0,-59895.0,1.0,-420.0,-420.0,0.0,0.25,2.4243161580000003,1.9285545897722227,-0.015869138999999866,56936.0,2.0,360.0,420.0,0.0,0.0,2.774657919,4.389674732977289,-0.0012207030000004337,-37015.0,2.375,-435.0,-420.0,0.0,0.25,4.583739765000001,3.0316872062785585,-0.0024414059999999793,0.7599999904632568,-1.8899999856948853,98.37999725341797,0.0023193359375,0.0394287109375,1.02587890625,35.540000915527344,0.0,20.0,-1.9007568359375,-1.389739990234375,Closing,0.0,0.0,-189.0,0.0,0.0,0.0,0.0,0.0,
4.172730000000003,0.0,0.0,65889.0,0.875,420.0,420.0,0.0,0.125,1.357421736,0.5498168668524888,0.0,-59895.0,0.625,-442.5,-420.0,0.0,0.125,2.4291989700000003,1.9285545897722227,-0.019531247999999835,56936.0,1.75,382.5,420.0,0.0,0.0,2.775878622,4.389674732977289,0.0,-37084.0,2.375,-435.0,-420.0,0.0,0.25,4.61425734,3.0316872062785585,0.02685546600000066,0.800000011920929,-1.7799999713897705,96.37999725341797,-0.00482177734375,0.0115966796875,0.9373779296875,35.540000915527344,0.0,-4.0,-1.9007415771484375,-1.390777587890625,Closing,0.0,0.0,-189.0,0.0,0.0,0.0,0.0,0.0,
4.215612999999998,0.0,0.0,65959.0,0.875,427.5,420.0,0.0,0.125,1.357421736,0.5498168668524888,0.0,-59967.0,0.625,-450.0,-420.0,0.0,0.0,2.4255368610000003,1.9285545897722227,0.0,57001.0,1.75,405.0,420.0,0.0,0.0,2.774657919,4.389674732977289,0.0,-37084.0,2.375,-435.0,-420.0,0.0,0.25,4.633788588,3.0316872062785585,0.02563476299999934,0.8199999928474426,-1.7200000286102295,94.3499984741211,-0.00201416015625,-0.02752685546875,1.00238037109375,35.540000915527344,0.0,-43.0,-1.90093994140625,-1.39215087890625,Closing,0.0,0.0,-189.0,0.0,0.0,0.0,0.0,0.0,
4.266970999999998,0.0,0.0,65959.0,0.875,435.0,420.0,0.0,0.125,1.357421736,0.5498168668524888,0.0,-59967.0,0.625,-442.5,-420.0,0.0,0.0,2.419433346,1.9285545897722227,0.0,57001.0,1.75,427.5,420.0,0.0,0.0,2.775878622,4.389674732977289,0.0,-37084.0,2.375,-442.5,-420.0,0.0,0.25,4.644774915,3.0316872062785585,0.02563476299999934,0.7900000214576721,-1.649999976158142,92.94999694824219,-0.0357666015625,6.103515625E-4,0.98175048828125,35.540000915527344,0.0,-12.0,-1.9013671875,-1.393157958984375,Closing,0.0,0.0,-189.0,0.0,0.0,0.0,0.0,0.0,
4.293989999999998,0.0,0.0,65959.0,0.75,435.0,420.0,0.0,0.125,1.356201033,0.5498168668524888,0.0012207029999999897,-59967.0,0.5,-442.5,-420.0,0.0,0.0,2.4243161580000003,1.9285545897722227,0.0,57074.0,1.625,442.5,420.0,0.0,0.0,2.774657919,4.389674732977289,0.0,-37160.0,2.25,-457.5,-420.0,0.0,0.125,4.637450697,3.0316872062785585,0.028076169000000206,0.8399999737739563,-1.559999942779541,90.81999969482422,-0.0369873046875,0.0113525390625,0.9884033203125,35.540000915527344,0.0,-3.0,-1.9013671875,-1.3948211669921875,Closing,0.0,0.0,-189.0,0.0,0.0,0.0,0.0,0.0,
4.337258000000002,0.0,0.0,65959.0,0.75,442.5,420.0,0.0,0.125,1.357421736,0.5498168668524888,-0.0012207029999999897,-60039.0,0.5,-442.5,-420.0,0.0,0.0,2.4243161580000003,1.9285545897722227,-0.0012207029999999897,57074.0,1.5,450.0,420.0,0.0,0.0,2.775878622,4.389674732977289,0.0,-37160.0,2.125,-465.0,-420.0,0.0,0.125,4.647216321,3.0316872062785585,0.003662109000000413,0.8799999952316284,-1.5299999713897705,88.62999725341797,-0.05133056640625,-0.0753173828125,1.206787109375,35.54999923706055,0.0,-94.0,-1.90142822265625,-1.3966522216796875,Closing,0.0,0.0,-189.0,0.0,0.0,0.0,0.0,0.0,
4.387506000000001,0.0,0.0,66032.0,0.75,450.0,420.0,0.0,0.125,1.357421736,0.5498168668524888,0.0,-60039.0,0.375,-457.5,-420.0,0.0,0.125,2.4279782670000003,1.9285545897722227,0.0012207029999999897,57074.0,1.5,465.0,420.0,0.0,0.0,2.775878622,4.389674732977289,0.0,-37160.0,2.125,-480.0,-420.0,0.0,0.125,4.647216321,3.0316872062785585,0.0012207029999995456,0.8299999833106995,-1.4299999475479126,86.41999816894531,0.00274658203125,-0.0426025390625,0.81475830078125,35.54999923706055,0.0,-52.0,-1.901763916015625,-1.3967132568359375,Closing,0.0,0.0,-189.0,0.0,0.0,0.0,0.0,0.0,
4.419478999999999,0.0,0.0,66032.0,0.5,465.0,420.0,0.0,0.125,1.358642439,0.5498168668524888,0.0,-60039.0,0.375,-465.0,-420.0,0.0,0.0,2.4243161580000003,1.9285545897722227,0.0012207029999999897,57074.0,1.125,480.0,420.0,0.0,0.0,2.775878622,4.389674732977289,0.0,-37238.0,2.0,-480.0,-420.0,0.0,0.125,4.648437024000001,3.0316872062785585,0.0,0.8700000047683716,-1.4299999475479126,84.94999694824219,-0.025390625,0.03082275390625,1.19952392578125,35.54999923706055,0.0,12.0,-1.9020233154296875,-1.39678955078125,Closing,0.0,0.0,-189.0,0.0,0.0,0.0,0.0,0.0,
4.463133000000002,0.0,0.0,66032.0,0.5,472.5,420.0,0.0,0.125,1.357421736,0.5498168668524888,0.0,-60114.0,0.375,-465.0,-420.0,0.0,0.0,2.414550534,1.9285545897722227,0.0012207029999999897,57152.0,1.125,480.0,420.0,0.0,0.0,2.774657919,4.389674732977289,0.0,-37238.0,1.875,-487.5,-420.0,0.0,0.125,4.648437024000001,3.0316872062785585,0.0,0.8899999856948853,-1.3300000429153442,83.47000122070312,0.0048828125,-0.051025390625,0.90045166015625,35.54999923706055,0.0,-61.0,-1.9020538330078125,-1.3968658447265625,Closing,0.0,0.0,-189.0,0.0,0.0,0.0,0.0,0.0,
4.489072,0.0,0.0,66107.0,0.5,472.5,420.0,0.0,0.125,1.357421736,0.5498168668524888,0.0024414059999999793,-60114.0,0.25,-465.0,-420.0,0.0,0.0,2.4291989700000003,1.9285545897722227,0.0,57152.0,1.125,487.5,420.0,0.0,0.0,2.774657919,4.389674732977289,0.0,-37238.0,1.875,-487.5,-420.0,0.0,0.125,4.645995618000001,3.0316872062785585,0.0,0.9100000262260437,-1.350000023841858,82.0199966430664,-0.005615234375,0.0364990234375,1.06549072265625,35.54999923706055,0.0,22.0,-1.902099609375,-1.3969573974609375,Closing,0.0,0.0,-189.0,0.0,0.0,0.0,0.0,0.0,
4.522733000000001,0.0,0.0,66107.0,0.5,472.5,420.0,0.0,0.125,1.357421736,0.5498168668524888,0.0024414059999999793,-60114.0,0.25,-457.5,-420.0,0.0,0.0,2.4230954550000003,1.9285545897722227,0.0,57152.0,1.125,480.0,420.0,0.0,0.0,2.775878622,4.389674732977289,0.0,-37238.0,1.625,-487.5,-420.0,0.0,0.125,4.648437024000001,3.0316872062785585,0.0,0.9200000166893005,-1.2899999618530273,79.81999969482422,-0.03338623046875,0.0380859375,1.01507568359375,35.54999923706055,0.0,19.0,-1.9022216796875,-1.397003173828125,Closing,0.0,0.0,-189.0,0.0,0.0,0.0,0.0,0.0,
4.5516440000000005,0.0,0.0,66107.0,0.5,465.0,420.0,0.0,0.125,1.357421736,0.5498168668524888,-0.0012207029999999897,-60189.0,0.25,-457.5,-420.0,0.0,0.125,2.4291989700000003,1.9285545897722227,-0.0024414059999999793,57227.0,0.875,465.0,420.0,0.0,0.0,2.775878622,4.389674732977289,0.0,-37315.0,1.625,-480.0,-420.0,0.0,0.125,4.647216321,3.0316872062785585,0.0,0.9200000166893005,-1.2200000286102295,77.66999816894531,-0.0113525390625,0.003173828125,1.1280517578125,35.54999923706055,0.0,-12.0,-1.9022216796875,-1.3972015380859375,Closing,0.0,0.0,-189.0,0.0,0.0,0.0,0.0,0.0,
4.600409,0.0,0.0,66181.0,0.5,457.5,420.0,0.0,0.125,1.35498033,0.5498168668524888,-0.0012207029999999897,-60189.0,0.25,-465.0,-420.0,0.0,0.125,2.4279782670000003,1.9285545897722227,0.0012207029999999897,57227.0,1.125,457.5,420.0,0.0,0.0,2.774657919,4.389674732977289,0.0,-37315.0,1.625,-472.5,-420.0,0.0,0.125,4.647216321,3.0316872062785585,-0.0012207029999995456,0.9200000166893005,-1.159999966621399,75.52999877929688,-2.44140625E-4,-0.00543212890625,0.95220947265625,35.54999923706055,0.0,-15.0,-1.902191162109375,-1.397308349609375,Closing,0.0,0.0,-189.0,0.0,0.0,0.0,0.0,0.0,
4.651737000000001,0.0,0.0,66181.0,0.5,457.5,420.0,0.0,0.125,1.351318221,0.5498168668524888,0.0,-60189.0,0.25,-450.0,-420.0,0.0,0.0,2.4291989700000003,1.9285545897722227,0.0,57227.0,1.125,457.5,420.0,0.0,0.0,2.778320028,4.389674732977289,0.0,-37315.0,1.625,-465.0,-420.0,0.0,0.125,4.645995618000001,3.0316872062785585,0.0012207029999995456,0.9300000071525574,-1.1100000143051147,74.0999984741211,-0.0189208984375,0.02490234375,1.08843994140625,35.54999923706055,0.0,7.0,-1.902191162109375,-1.3974151611328125,Closing,0.0,0.0,-189.0,0.0,0.0,0.0,0.0,0.0,
4.678839999999997,0.0,0.0,66181.0,0.5,450.0,420.0,0.0,0.125,1.364745954,0.5498168668524888,0.0,-60260.0,0.25,-442.5,-420.0,0.0,0.0,2.4291989700000003,1.9285545897722227,0.0,57300.0,0.875,457.5,420.0,0.0,0.0,2.775878622,4.389674732977289,0.0,-37390.0,1.625,-465.0,-420.0,0.0,0.125,4.647216321,3.0316872062785585,0.0,0.9599999785423279,-1.0800000429153442,71.27999877929688,-0.0057373046875,-0.0035400390625,1.120361328125,35.54999923706055,0.0,-16.0,-1.90228271484375,-1.397674560546875,Closing,0.0,0.0,-189.0,0.0,0.0,0.0,0.0,0.0,
4.727913999999997,0.0,0.0,66253.0,0.5,442.5,420.0,0.0,0.125,1.357421736,0.5498168668524888,0.0,-60260.0,0.25,-442.5,-420.0,0.0,0.0,2.4243161580000003,1.9285545897722227,0.0,57300.0,0.875,457.5,420.0,0.0,0.0,2.774657919,4.389674732977289,0.0,-37390.0,1.625,-457.5,-420.0,0.0,0.125,4.661864757,3.0316872062785585,0.0,0.9599999785423279,-0.9300000071525574,69.91000366210938,-0.001708984375,0.06842041015625,0.86431884765625,35.54999923706055,0.0,54.0,-1.902374267578125,-1.397735595703125,Closing,0.0,0.0,-189.0,0.0,0.0,0.0,0.0,0.0,
4.760065999999999,0.0,0.0,66253.0,0.5,442.5,420.0,0.0,0.125,1.3488768150000001,0.5498168668524888,0.0,-60260.0,0.25,-450.0,-420.0,0.0,0.125,2.4291989700000003,1.9285545897722227,-0.0012207029999999897,57300.0,0.875,457.5,420.0,0.0,0.0,2.775878622,4.389674732977289,0.0,-37390.0,1.625,-457.5,-420.0,0.0,0.125,4.648437024000001,3.0316872062785585,0.0,0.9900000095367432,-0.9900000095367432,67.83000183105469,-0.04736328125,0.01861572265625,1.16143798828125,35.54999923706055,0.0,-11.0,-1.902374267578125,-1.397705078125,Closing,0.0,0.0,-189.0,0.0,0.0,0.0,0.0,0.0,
4.811464,0.0,0.0,66253.0,0.5,442.5,420.0,0.0,0.125,1.357421736,0.5498168668524888,0.0,-60331.0,0.25,-435.0,-420.0,0.0,0.0,2.4291989700000003,1.9285545897722227,0.0012207029999999897,57372.0,0.875,442.5,420.0,0.0,0.0,2.775878622,4.389674732977289,0.0,-37463.0,1.375,-457.5,-420.0,0.0,0.125,4.647216321,3.0316872062785585,0.0,0.9599999785423279,-0.8799999952316284,66.47000122070312,0.004638671875,-0.03350830078125,0.90252685546875,35.54999923706055,0.0,-37.0,-1.902557373046875,-1.3976898193359375,Closing,0.0,0.0,-189.0,0.0,0.0,0.0,0.0,0.0,
4.853410000000004,0.0,0.0,66323.0,0.375,427.5,0.0,0.0,1.125,1.3476561120000001,0.01,0.0,-60331.0,0.125,-435.0,-0.0,0.0,0.0,2.409667722,0.01,0.0,57372.0,0.5,435.0,0.0,0.0,0.375,2.818603227,0.01,0.0,-37463.0,1.0,-450.0,-0.0,0.0,5.375,4.7058100650000005,0.01,0.0,0.949999988079071,-0.8700000047683716,64.45999908447266,-8.544921875E-4,-0.02862548828125,0.9482421875,35.560001373291016,0.0,-34.0,-1.9029388427734375,-1.39776611328125,Closing,0.0,0.0,-189.0,0.0,0.0,0.0,0.0,0.0,
4.887591999999997,0.0,0.0,66323.0,0.25,420.0,0.0,0.0,2.0,1.2158201880000001,0.01,-0.03295898099999994,-60331.0,0.125,-412.5,-0.0,0.0,9.5,2.254638441,0.01,-0.021972654000000258,57372.0,0.25,427.5,0.0,0.0,2.25,2.973632508,0.01,0.06347655600000035,-37463.0,0.625,-435.0,-0.0,0.0,7.125,4.946288556,0.01,0.07568358600000025,0.9399999976158142,-0.8700000047683716,63.13999938964844,0.0013427734375,-0.0216064453125,1.07720947265625,35.560001373291016,0.0,-27.0,-1.9031219482421875,-1.39788818359375,Closing,0.0,0.0,-189.0,0.0,0.0,0.0,0.0,0.0,
4.922720000000001,0.0,0.0,66323.0,0.125,352.5,0.0,0.0,1.125,1.0852049670000001,0.01,-0.03295898099999994,-60375.0,0.0,-367.5,-0.0,0.0,2.0,1.990966593,0.01,-0.021972654000000258,57429.0,0.125,405.0,0.0,0.0,0.75,3.135986007,0.01,0.06347655600000035,-37522.0,0.375,-367.5,-0.0,0.0,2.75,0.300292938,0.01,0.07568358600000025,0.9200000166893005,-0.6800000071525574,61.279998779296875,0.16400146484375,-0.02313232421875,0.91754150390625,35.560001373291016,0.0,50.0,-1.90325927734375,-1.3983154296875,Closing,0.0,0.0,-189.0,0.0,0.0,0.0,0.0,0.0,
4.954565999999999,0.0,0.0,66361.0,0.125,240.0,0.0,0.0,0.5,0.9887694300000001,0.01,-0.13793943899999994,-60375.0,0.125,-210.0,-0.0,0.0,1.125,1.6894529520000001,0.01,-0.1806640439999998,57429.0,0.125,300.0,0.0,0.0,0.375,3.2958981,0.01,0.1513671719999996,-37522.0,0.375,-270.0,-0.0,0.0,1.25,0.612792906,0.01,0.40599851299999923,0.8100000023841858,-0.6000000238418579,60.349998474121094,0.16241455078125,0.0185546875,1.004150390625,35.560001373291016,0.0,46.0,-1.902862548828125,-1.4002532958984375,Closing,0.0,0.0,-189.0,0.0,0.0,0.0,0.0,0.0,
4.998127999999997,0.0,0.0,66361.0,0.375,225.0,0.0,0.0,0.375,0.8801268630000001,0.01,-0.23437497600000012,-60375.0,0.125,-97.5,-0.0,0.0,1.125,1.408691262,0.01,-0.578613222,57429.0,0.125,180.0,0.0,0.0,0.25,3.3728023890000003,0.01,0.3088378590000005,-37522.0,0.375,-172.5,-0.0,0.0,1.375,0.92773428,0.01,0.46142573400000053,0.8700000047683716,-0.5099999904632568,59.79999923706055,-0.05499267578125,0.05181884765625,1.166748046875,35.560001373291016,0.0,6.0,-1.902496337890625,-1.402008056640625,Closing,0.0,0.0,-189.0,0.0,0.0,0.0,0.0,0.0,
5.032870999999999,0.0,0.0,66361.0,0.125,255.0,0.0,0.0,0.375,0.849609288,0.01,-0.08666991300000004,-60384.0,0.0,-60.0,-0.0,0.0,1.5,1.1621092560000001,0.01,-0.28930661099999977,57446.0,0.375,112.5,0.0,0.0,0.25,3.382568013,0.01,-4.864716414,-37546.0,0.375,-150.0,-0.0,0.0,1.375,1.1914061280000001,0.01,0.29541012600000016,0.8700000047683716,-0.7200000286102295,59.7599983215332,-0.1046142578125,-0.0015869140625,1.01824951171875,35.560001373291016,0.0,-60.0,-1.9027252197265625,-1.4039764404296875,Closing,0.0,0.0,-189.0,0.0,0.0,0.0,0.0,0.0,
5.070660000000004,0.0,0.0,66394.0,0.125,247.5,0.0,0.0,0.25,0.845947179,0.01,-0.08666991300000004,-60384.0,0.0,-52.5,-0.0,0.0,1.5,0.898437408,0.01,-0.28930661099999977,57446.0,0.375,105.0,0.0,0.0,0.125,3.382568013,0.01,-4.864716414,-37546.0,0.375,-157.5,-0.0,0.0,1.0,1.3989256380000001,0.01,0.29541012600000016,0.8100000023841858,-0.8100000023841858,59.709999084472656,-0.060546875,-0.0111083984375,0.972900390625,35.560001373291016,0.0,-45.0,-1.9032745361328125,-1.4048004150390625,Closing,0.0,0.0,-189.0,0.0,0.0,0.0,0.0,0.0,
5.109686000000002,0.0,0.0,66394.0,0.125,112.5,0.0,0.0,0.25,0.847167882,0.01,-0.018310544999999956,-60384.0,0.0,-22.5,-0.0,0.0,1.5,0.678710868,0.01,-0.26123044200000045,57446.0,0.375,97.5,0.0,0.0,0.125,3.383788716,0.01,0.008544920999999928,-37546.0,0.375,-180.0,-0.0,0.0,0.625,1.585693197,0.01,0.2746581749999999,0.7599999904632568,-0.8799999952316284,59.66999816894531,-0.05645751953125,-0.0029296875,1.04229736328125,35.560001373291016,0.0,-35.0,-1.9041290283203125,-1.40545654296875,Closing,0.0,0.0,-189.0,0.0,0.0,0.0,0.0,0.0,
5.135546000000002,0.0,0.0,66394.0,0.125,52.5,8.399999999999999,0.0,0.25,0.845947179,4.932113963759931,0.0012207029999999897,-60384.0,0.125,-22.5,-8.399999999999999,0.0,0.25,0.490722606,4.96363208804512,-0.43701167399999985,57452.0,0.375,67.5,8.399999999999999,0.0,0.125,3.3776852010000002,4.940262737350464,0.0,-37569.0,0.375,-195.0,-8.399999999999999,0.0,0.375,1.7114256060000002,4.957862248357137,0.38208003899999987,0.7200000286102295,-0.9100000262260437,59.709999084472656,-0.02532958984375,0.0018310546875,1.081787109375,35.560001373291016,0.0,-14.0,-1.9057769775390625,-1.4057464599609375,Closing,0.0,0.0,-189.0,0.0,0.0,0.0,0.0,0.0,
