Time,ClimberA1,ClimberA2,FRpos,FRCurrent,FRspeed,FRsetpoint,FRApos,FRACurrent,FREncpos,FREncSetpoint,FREncSpeed,FLpos,FLCurrent,FLspeed,FLsetpoint,FLApos,FLACurrent,FLEncpos,FLEncSetpoint,FLEncSpeed,BRpos,BRCurrent,BRspeed,BRsetpoint,BRApos,BRACurrent,BREncpos,BREncSetpoint,BREncSpeed,BLpos,BLCurrent,BLspeed,BLsetpoint,BLApos,BLACurrent,BLEncpos,BLEncSetpoint,BLEncSpeed,navx_Pitch,navx_Roll,navx_Yaw,navx_XAcc,navx_YAcc,navx_ZAcc,navx_Temp,navx_Bar,navx_Alt,navx_XDis,navx_YDis,GearPlacerState,ShootOutputV,ShootOutputCurrent,ShootEncPos,ShootEncVelocity,ShootSpeed,ShootSetpoint,CarouselSetpoint,CarouselCurrent,
0.34293700000015087,0.0,0.0,60385.0,0.0,0.0,NaN,0.0,0.125,1.075439343,NaN,0.0,-54214.0,0.0,0.0,NaN,0.0,0.0,1.535644374,NaN,0.0,41130.0,0.0,0.0,NaN,0.0,0.0,3.07617156,NaN,0.0,-27908.0,0.0,0.0,NaN,0.0,0.125,0.5957030640000001,NaN,0.0,0.4399999976158142,-0.4699999988079071,76.25,-0.0069580078125,0.0072021484375,1.025634765625,34.439998626708984,0.0,0.0,0.4499969482421875,-1.7147979736328125,Closing,0.0,0.0,-189.0,0.0,0.0,0.0,0.0,0.0,
0.6694969999999739,0.0,0.0,60387.0,0.0,15.0,0.0,0.0,0.375,0.740966721,0.01,0.0,-54208.0,0.0,22.5,-0.0,0.0,1.5,0.11352537900000001,0.01,0.0,41126.0,0.0,-7.5,0.0,0.0,0.375,3.4692379260000004,0.01,0.0,-27908.0,0.0,0.0,-0.0,0.0,1.875,2.154540795,0.01,0.0,0.46000000834465027,-0.4399999976158142,76.30999755859375,0.0,-0.00103759765625,1.02496337890625,34.439998626708984,0.0,-7.0,0.4475250244140625,-1.716033935546875,Closing,0.0,0.0,-189.0,0.0,0.0,0.0,0.0,0.0,
0.9346190000001807,0.0,0.0,60393.0,0.0,0.0,0.0,0.0,0.25,0.8178710100000001,0.01,0.0,-54207.0,0.0,0.0,-0.0,0.0,0.5,0.484619091,0.01,0.0,41125.0,0.0,0.0,0.0,0.0,0.125,3.39355434,0.01,0.0,-27908.0,0.0,0.0,-0.0,0.0,1.0,1.560058434,0.01,0.0,0.4300000071525574,-0.47999998927116394,76.3499984741211,-0.00311279296875,-0.00628662109375,0.96820068359375,34.43000030517578,0.0,-12.0,0.44482421875,-1.71533203125,Closing,0.0,0.0,-189.0,0.0,0.0,0.0,0.0,0.0,
1.201282000000123,0.0,0.0,60393.0,0.0,0.0,0.0,0.0,0.125,0.8300780400000001,0.01,0.0,-54207.0,0.0,0.0,-0.0,0.0,0.125,0.6445311840000001,0.01,0.0,41125.0,0.0,0.0,0.0,0.0,0.125,3.3691402800000003,0.01,0.0,-27908.0,0.0,0.0,-0.0,0.0,0.125,1.5832517910000001,0.01,0.0,0.4300000071525574,-0.4300000071525574,76.33000183105469,-0.01776123046875,0.01544189453125,1.01934814453125,34.43000030517578,0.0,5.0,0.4444580078125,-1.715301513671875,Closing,0.0,0.0,-189.0,0.0,0.0,0.0,0.0,0.0,
1.468877000000095,0.0,0.0,60393.0,0.0,0.0,0.0,0.0,0.125,0.826415931,0.01,0.0,-54207.0,0.0,0.0,-0.0,0.0,0.25,0.509033151,0.01,0.0,41125.0,0.0,0.0,0.0,0.0,0.0,3.3679195770000003,0.01,0.0,-27908.0,0.0,0.0,-0.0,0.0,0.125,1.612548663,0.01,0.0,0.4300000071525574,-0.44999998807907104,76.33000183105469,-0.0101318359375,0.008056640625,1.01708984375,34.45000076293945,0.0,0.0,0.4444580078125,-1.715301513671875,Closing,0.0,0.0,-189.0,0.0,0.0,0.0,0.0,0.0,
1.7314820000000763,0.0,0.0,60393.0,0.0,0.0,0.0,0.0,0.125,0.826415931,0.01,0.0,-54207.0,0.0,0.0,-0.0,0.0,0.125,0.45166011,0.01,0.0,41125.0,0.0,0.0,0.0,0.0,0.0,3.3666988740000003,0.01,0.0,-27908.0,0.0,0.0,-0.0,0.0,0.125,1.617431475,0.01,0.0,0.4300000071525574,-0.44999998807907104,76.33000183105469,-0.00653076171875,0.00482177734375,1.02130126953125,34.41999816894531,0.0,-2.0,0.4444580078125,-1.715301513671875,Closing,0.0,0.0,-189.0,0.0,0.0,0.0,0.0,0.0,
1.9978549999999813,0.0,0.0,60393.0,0.0,0.0,0.0,0.0,0.125,0.826415931,0.01,0.0,-54207.0,0.0,0.0,-0.0,0.0,0.0,0.48583979400000005,0.01,0.0,41125.0,0.0,0.0,0.0,0.0,0.0,3.3666988740000003,0.01,0.0,-27908.0,0.0,0.0,-0.0,0.0,0.125,1.617431475,0.01,0.0,0.4300000071525574,-0.46000000834465027,76.33000183105469,-0.009033203125,0.0084228515625,1.023681640625,34.41999816894531,0.0,0.0,0.4444580078125,-1.715301513671875,Closing,0.0,0.0,-189.0,0.0,0.0,0.0,0.0,0.0,
2.268787000000011,0.0,0.0,60393.0,0.0,0.0,0.0,0.0,0.125,0.8276366340000001,0.01,0.0,-54207.0,0.0,0.0,-0.0,0.0,0.25,0.489501903,0.01,0.0,41125.0,0.0,0.0,0.0,0.0,0.0,3.3679195770000003,0.01,0.0,-27908.0,0.0,0.0,-0.0,0.0,0.125,1.617431475,0.01,0.0,0.4300000071525574,-0.46000000834465027,76.33000183105469,-0.00677490234375,0.0062255859375,1.0211181640625,34.439998626708984,0.0,-1.0,0.4444580078125,-1.715301513671875,Closing,0.0,0.0,-189.0,0.0,0.0,0.0,0.0,0.0,
2.5192800000000277,0.0,0.0,60302.0,5.875,-412.5,-952.4409413337708,0.0,0.125,0.8410643670000001,4.932250999999998,0.0,-54109.0,9.625,502.5,952.4409413337708,0.0,0.125,0.489501903,4.963769999999998,0.0,41075.0,7.5,-375.0,-952.4409413337708,0.0,0.0,3.3679195770000003,0.01,0.0,-27832.0,5.125,435.0,952.4409413337708,0.0,0.125,1.6113279600000001,0.01,0.0,0.44999998807907104,-2.609999895095825,76.5999984741211,-0.262451171875,0.0089111328125,1.23089599609375,34.439998626708984,0.0,-48.0,0.44281005859375,-1.6836700439453125,Closing,0.0,0.0,-189.0,0.0,0.0,0.0,0.0,0.0,
2.784636000000173,0.0,0.0,60025.0,1.625,-990.0,-972.2834515571594,0.0,0.25,0.836181555,4.932250999999998,0.0,-53842.0,3.0,975.0,972.2834515571594,0.0,0.125,0.490722606,4.963769999999998,0.0,40843.0,4.75,-945.0,-972.2834515571594,0.0,0.0,3.3666988740000003,0.01,0.0,-27584.0,2.625,945.0,972.2834515571594,0.0,0.125,1.617431475,0.01,0.0,0.44999998807907104,-3.2799999713897705,77.37000274658203,-0.16278076171875,0.048828125,0.9296875,34.40999984741211,0.0,16.0,0.4322052001953125,-1.602630615234375,Closing,0.0,0.0,-189.0,0.0,0.0,0.0,0.0,0.0,
3.0688989999999756,0.0,0.0,59688.0,0.375,-1065.0,-972.2834515571594,0.0,0.25,0.8312987430000001,4.932250999999998,0.0,-53510.0,1.125,1042.5,972.2834515571594,0.0,0.125,0.489501903,4.963769999999998,0.0,40524.0,3.25,-1035.0,-972.2834515571594,0.0,0.0,3.3654781710000004,0.01,0.0,-27259.0,1.25,1027.5,972.2834515571594,0.0,0.125,1.617431475,0.01,0.0,0.6499999761581421,-3.059999942779541,77.93000030517578,-0.0665283203125,-0.0413818359375,0.966064453125,34.40999984741211,0.0,-54.0,0.422698974609375,-1.611328125,Closing,0.0,0.0,-189.0,0.0,0.0,0.0,0.0,0.0,
3.3299920000000856,0.0,0.0,59351.0,0.125,-1027.5,-972.2834515571594,0.0,0.125,0.8312987430000001,4.932250999999998,0.0,-53025.0,1.375,967.5,972.2834515571594,0.0,0.125,0.509033151,4.963769999999998,0.0,40034.0,2.75,-982.5,-972.2834515571594,0.0,0.0,3.3679195770000003,0.01,0.0,-26774.0,1.125,1027.5,972.2834515571594,0.0,0.125,1.617431475,0.01,0.0,0.6800000071525574,-2.5399999618530273,78.58999633789062,0.02545166015625,0.05462646484375,0.78466796875,34.400001525878906,0.0,56.0,0.4074249267578125,-1.6403656005859375,Closing,0.0,0.0,-189.0,0.0,0.0,0.0,0.0,0.0,
3.599761000000173,0.0,0.0,58870.0,0.125,-997.5,-972.2834515571594,0.0,0.125,0.810546792,4.932250999999998,0.0,-52709.0,1.0,990.0,972.2834515571594,0.0,0.0,0.5041503390000001,4.963769999999998,0.0,39840.0,8.625,-757.5,-972.2834515571594,0.0,0.0,3.3679195770000003,0.01,0.0,-26464.0,1.25,990.0,972.2834515571594,0.0,0.125,1.6113279600000001,0.01,0.0,0.8399999737739563,-2.569999933242798,79.6500015258789,-0.01275634765625,0.11285400390625,0.9447021484375,34.400001525878906,0.0,102.0,0.3945465087890625,-1.679229736328125,Closing,0.0,0.0,-189.0,0.0,0.0,0.0,0.0,0.0,
3.8701389999999667,0.0,0.0,58492.0,0.125,-1245.0,-1243.5400173991839,0.0,0.25,0.96435537,0.13522137085981414,0.0,-52411.0,0.25,847.5,750.3431756961645,0.0,0.25,0.863037021,0.22755361861685292,0.0,39568.0,17.875,-735.0,-1243.5400173991839,0.0,0.25,3.18603483,4.804955218176077,0.0,-26162.0,0.375,870.0,750.3431756961645,0.0,0.25,1.2414549510000001,4.730710894924149,0.0,1.0099999904632568,-2.25,85.0,0.02313232421875,0.15283203125,1.06964111328125,34.38999938964844,0.0,139.0,0.388763427734375,-1.730377197265625,Closing,0.0,0.0,-189.0,0.0,0.0,0.0,0.0,0.0,
4.1187140000001525,0.0,0.0,57997.0,0.0,-1657.5,-1330.1738292375949,0.0,0.125,1.0314940350000001,0.16473370373028273,0.0,-52173.0,0.125,712.5,700.6942327696962,0.0,0.0,1.090087779,0.3211943545873268,0.0,39349.0,29.625,-682.5,-1330.1738292375949,0.0,0.0,3.134765304,4.7753941254187815,0.0,-25930.0,0.75,690.0,700.6942327696962,0.0,0.125,1.1340330870000002,4.6371790090910805,0.0,1.2899999618530273,-2.609999895095825,99.30000305175781,-0.325927734375,-0.16082763671875,1.03009033203125,34.38999938964844,0.0,-136.0,0.3959808349609375,-1.7730865478515625,Closing,0.0,0.0,-189.0,0.0,0.0,0.0,0.0,0.0,
4.334577999999979,0.0,0.0,57439.0,0.0,-1777.5,-1493.0745213022872,0.0,0.125,1.04980458,0.20981118101611565,0.0,-51923.0,0.0,787.5,640.3313230587354,0.0,0.0,1.070556531,0.5241168223347769,0.0,39081.0,36.625,-660.0,-1493.0745213022872,0.0,0.0,3.134765304,4.730242171719968,0.0,-25706.0,0.375,697.5,640.3313230587354,0.0,0.25,1.121826057,4.434492423070403,0.0,1.7400000095367432,-3.2200000286102295,121.44999694824219,0.24566650390625,0.6043701171875,1.10015869140625,34.38999938964844,0.0,325.0,0.4478759765625,-1.832611083984375,Closing,0.0,0.0,-189.0,0.0,0.0,0.0,0.0,0.0,
4.599398999999976,0.0,0.0,56945.0,2.375,-1327.5,-972.2834515571594,0.0,0.25,0.747070236,4.932250999999998,0.0,-51668.0,0.25,847.5,972.2834515571594,0.0,0.5,0.272216769,4.963769999999998,0.0,38946.0,40.875,-487.5,-972.2834515571594,0.0,0.125,3.410644182,0.01,0.0,-25452.0,1.25,817.5,972.2834515571594,0.0,0.625,1.9238279280000001,0.01,0.0,2.059999942779541,-3.140000104904175,136.11000061035156,-0.0362548828125,-0.04376220703125,1.02325439453125,34.38999938964844,0.0,-70.0,0.532257080078125,-1.9211273193359375,Closing,0.0,0.0,-189.0,0.0,0.0,0.0,0.0,0.0,
4.855037000000011,0.0,0.0,56665.0,0.0,-607.5,-972.2834515571594,0.0,0.25,0.745849533,4.932250999999998,0.0,-51390.0,0.75,832.5,972.2834515571594,0.0,0.25,0.33081051300000003,4.963769999999998,0.0,38793.0,44.5,-435.0,-972.2834515571594,0.0,0.125,3.4790035500000003,0.01,0.0,-25171.0,0.75,982.5,972.2834515571594,0.0,0.25,1.671142407,0.01,0.0,1.75,-1.5199999809265137,132.77000427246094,0.015625,0.187255859375,0.80029296875,34.38999938964844,0.0,94.0,0.5721435546875,-2.0435791015625,Closing,0.0,0.0,-189.0,0.0,0.0,0.0,0.0,0.0,
5.120840000000084,0.0,0.0,56422.0,0.0,-997.5,-972.2834515571594,0.0,0.25,0.808105386,4.932250999999998,0.0,-51099.0,0.75,907.5,972.2834515571594,0.0,0.0,0.600585876,4.963769999999998,0.0,38643.0,45.0,-225.0,-972.2834515571594,0.0,0.25,3.4692379260000004,0.01,0.0,-24872.0,1.625,877.5,972.2834515571594,0.0,0.125,1.3977049350000001,0.01,0.0,1.75,-1.9299999475479126,133.4499969482422,-0.07806396484375,-0.00994873046875,0.7435302734375,34.38999938964844,0.0,12.0,0.5922698974609375,-2.1641082763671875,Closing,0.0,0.0,-189.0,0.0,0.0,0.0,0.0,0.0,
5.333094999999972,0.0,0.0,56055.0,0.5,-1125.0,-972.2834515571594,0.0,0.125,0.8178710100000001,4.932250999999998,0.0,-50806.0,1.0,937.5,972.2834515571594,0.0,0.25,0.5664061920000001,4.963769999999998,0.0,38517.0,43.375,-652.5,-972.2834515571594,0.0,0.125,3.459472302,0.01,0.0,-24591.0,1.5,937.5,972.2834515571594,0.0,0.25,1.6284178020000002,0.01,0.0,1.6799999475479126,-1.9600000381469727,139.25999450683594,-0.022705078125,0.01324462890625,0.501953125,34.38999938964844,0.0,3.0,0.6105194091796875,-2.28118896484375,Closing,0.0,0.0,-189.0,0.0,0.0,0.0,0.0,0.0,
5.599251000000164,0.0,0.0,55716.0,0.375,-997.5,-972.2834515571594,0.0,0.125,0.811767495,4.932250999999998,0.0,-50480.0,0.0,1125.0,972.2834515571594,0.0,0.0,0.538330023,4.963769999999998,0.0,38304.0,45.875,-202.5,-972.2834515571594,0.0,0.25,3.443603163,0.01,0.0,-24071.0,0.5,1162.5,972.2834515571594,0.0,0.25,1.800536925,0.01,0.0,0.7099999785423279,-2.180000066757202,139.41000366210938,0.17626953125,0.0458984375,0.95294189453125,34.38999938964844,0.0,-139.0,0.6248779296875,-2.419342041015625,Closing,0.0,0.0,-189.0,0.0,0.0,0.0,0.0,0.0,
5.811259000000078,0.0,0.0,55399.0,0.25,-960.0,-972.2834515571594,0.0,0.125,0.812988198,4.932250999999998,0.0,-50124.0,0.0,1065.0,972.2834515571594,0.0,0.25,0.533447211,4.963769999999998,0.0,38241.0,46.5,-390.0,-972.2834515571594,0.0,0.125,3.444823866,0.01,0.0,-23711.0,0.375,1110.0,972.2834515571594,0.0,0.25,1.6076658510000001,0.01,0.0,0.5600000023841858,-2.2799999713897705,138.64999389648438,-0.11529541015625,-0.1199951171875,1.26605224609375,34.380001068115234,0.0,-38.0,0.619140625,-2.514190673828125,Closing,0.0,0.0,-189.0,0.0,0.0,0.0,0.0,0.0,
6.039467000000179,0.0,0.0,55075.0,0.75,-1027.5,-972.2834515571594,0.0,0.125,0.812988198,4.932250999999998,0.0,-49799.0,0.125,922.5,972.2834515571594,0.0,0.25,0.53710932,4.963769999999998,0.0,38086.0,44.25,-187.5,-972.2834515571594,0.0,0.125,3.441161757,0.01,0.0,-23551.0,0.375,937.5,972.2834515571594,0.0,0.25,1.481933442,0.01,0.0,0.8999999761581421,-1.8799999952316284,141.13999938964844,-0.0367431640625,0.0501708984375,1.093017578125,34.380001068115234,0.0,21.0,0.6063690185546875,-2.6163177490234375,Closing,0.0,0.0,-189.0,0.0,0.0,0.0,0.0,0.0,
6.274962999999989,0.0,0.0,54774.0,5.0,-825.0,-515.9055286645889,0.0,0.125,0.811767495,4.932250999999998,0.0,-49545.0,0.0,667.5,515.9055286645889,0.0,0.25,0.533447211,4.963769999999998,0.0,37946.0,44.125,-570.0,-515.9055286645889,0.0,0.125,3.433837539,0.01,0.0,-23280.0,0.375,727.5,515.9055286645889,0.0,0.25,1.6064451480000002,0.01,0.0,1.090000033378601,-0.8100000023841858,145.0,-0.03497314453125,-0.10992431640625,1.218505859375,34.380001068115234,0.0,-61.0,0.5789947509765625,-2.7681121826171875,Closing,0.0,0.0,-189.0,0.0,0.0,0.0,0.0,0.0,
6.490324000000022,0.0,0.0,54541.0,0.0,-517.5,0.0,0.0,0.125,0.811767495,4.932250999999998,0.0,-49338.0,0.0,577.5,0.0,0.0,0.25,0.5041503390000001,4.963769999999998,0.0,37813.0,0.0,-217.5,0.0,0.0,0.125,3.328857081,0.01,0.0,-23066.0,0.0,585.0,0.0,0.0,0.25,1.6308592080000002,0.01,0.0,1.0199999809265137,0.10999999940395355,145.30999755859375,0.10137939453125,0.04876708984375,1.10687255859375,34.38999938964844,0.0,-65.0,0.52850341796875,-2.9144134521484375,Closing,0.0,0.0,-189.0,0.0,0.0,0.0,0.0,0.0,
6.800404000000097,0.0,0.0,54434.0,0.0,-202.5,0.0,0.0,0.125,0.811767495,4.932250999999998,0.0,-49219.0,0.0,180.0,0.0,0.0,0.0,0.49926752700000004,4.963769999999998,0.0,37705.0,0.0,-120.0,0.0,0.0,0.0,3.300780912,0.01,0.0,-22926.0,0.0,150.0,0.0,0.0,0.125,1.6296385050000002,0.01,0.0,0.8899999856948853,1.5299999713897705,145.24000549316406,0.14617919921875,-0.029541015625,0.96343994140625,34.38999938964844,0.0,-124.0,0.4056549072265625,-3.1512451171875,Closing,0.0,0.0,-189.0,0.0,0.0,0.0,0.0,0.0,
7.009719999999972,0.0,0.0,54423.0,0.0,0.0,0.0,0.0,0.125,0.812988198,4.932250999999998,0.0,-49201.0,0.0,0.0,0.0,0.0,0.0,0.49926752700000004,4.963769999999998,0.0,37691.0,0.0,0.0,0.0,0.0,0.0,3.334960596,0.01,0.0,-22926.0,0.0,0.0,0.0,0.0,0.125,1.6345213170000001,0.01,0.0,0.8100000023841858,1.2599999904632568,145.25999450683594,-0.04010009765625,0.00421142578125,1.00439453125,34.36000061035156,0.0,45.0,0.29815673828125,-3.17303466796875,Closing,0.0,0.0,-189.0,0.0,0.0,0.0,0.0,0.0,
7.329292000000132,0.0,0.0,54409.0,0.375,-60.0,-257.95276433229446,0.0,0.125,0.8044432770000001,4.932250999999998,0.0,-49187.0,1.625,67.5,257.95276433229446,0.0,0.0,0.49926752700000004,4.963769999999998,0.0,37673.0,0.875,-52.5,-257.95276433229446,0.0,0.0,3.343505517,0.01,0.0,-22919.0,0.75,67.5,257.95276433229446,0.0,0.125,1.6345213170000001,0.01,0.0,0.7699999809265137,0.3799999952316284,145.2899932861328,-0.033935546875,0.016357421875,1.059326171875,34.34000015258789,0.0,34.0,0.1661224365234375,-3.1494293212890625,Closing,0.0,0.0,-189.0,0.0,0.0,0.0,0.0,0.0,
7.5901750000000465,0.0,0.0,54366.0,1.0,-195.0,-396.8503922224045,0.0,0.125,0.810546792,4.932250999999998,0.0,-49145.0,3.625,202.5,396.8503922224045,0.0,0.0,0.498046824,4.963769999999998,0.0,37632.0,1.75,-225.0,-396.8503922224045,0.0,0.0,3.3776852010000002,0.01,0.0,-22881.0,1.625,232.5,396.8503922224045,0.0,0.125,1.6345213170000001,0.01,0.0,0.7599999904632568,-0.47999998927116394,145.27000427246094,-0.09588623046875,0.0186767578125,0.97705078125,34.34000015258789,0.0,75.0,0.092987060546875,-3.1151123046875,Closing,0.0,0.0,-189.0,0.0,0.0,0.0,0.0,0.0,
7.866645000000019,0.0,0.0,54257.0,0.75,-412.5,-436.53545022010803,0.0,0.125,0.8154296040000001,4.932250999999998,0.0,-49033.0,2.375,427.5,436.53545022010803,0.0,0.0,0.49438471500000003,4.963769999999998,0.0,37524.0,1.5,-412.5,-436.53545022010803,0.0,0.125,3.3776852010000002,0.01,0.0,-22778.0,1.25,397.5,436.53545022010803,0.0,0.125,1.6345213170000001,0.01,0.0,0.7799999713897705,-0.9399999976158142,145.1199951171875,-0.0078125,0.01776123046875,0.97760009765625,34.33000183105469,0.0,-4.0,0.041900634765625,-3.0644073486328125,Closing,0.0,0.0,-189.0,0.0,0.0,0.0,0.0,0.0,
8.12218200000003,0.0,0.0,54113.0,0.375,-472.5,-456.37796044349665,0.0,0.125,0.8032225740000001,4.932250999999998,0.0,-48881.0,1.375,487.5,456.37796044349665,0.0,0.125,0.495605418,4.963769999999998,0.0,37378.0,0.875,-472.5,-456.37796044349665,0.0,0.125,3.3776852010000002,0.01,0.0,-22643.0,1.25,427.5,456.37796044349665,0.0,0.125,1.6345213170000001,0.01,0.0,0.7699999809265137,-1.0099999904632568,145.02000427246094,0.012939453125,0.016845703125,1.0198974609375,34.33000183105469,0.0,-23.0,0.005218505859375,-3.002166748046875,Closing,0.0,0.0,-189.0,0.0,0.0,0.0,0.0,0.0,
8.403869000000181,0.0,0.0,53883.0,0.375,-457.5,-456.37796044349665,0.0,0.125,0.8142089010000001,4.932250999999998,0.0,-48645.0,1.25,465.0,456.37796044349665,0.0,0.125,0.4882812,4.963769999999998,0.0,37150.0,0.875,-457.5,-456.37796044349665,0.0,0.125,3.3728023890000003,0.01,0.0,-22418.0,0.875,480.0,456.37796044349665,0.0,0.125,1.6345213170000001,0.01,0.0,0.8600000143051147,-0.7400000095367432,144.8000030517578,-0.02423095703125,0.0401611328125,1.0771484375,34.380001068115234,0.0,22.0,0.0036773681640625,-2.9915924072265625,Closing,0.0,0.0,-189.0,0.0,0.0,0.0,0.0,0.0,
8.667813000000082,0.0,0.0,53806.0,0.375,-7.5,449.6777393812318,0.0,1.0,2.1191404080000003,1.1095467352577246,0.0,-48462.0,12.125,690.0,1078.872501306163,0.0,0.25,0.039062496,4.628594102651795,0.0,37083.0,0.75,0.0,449.6777393812318,0.0,1.75,2.1728513400000002,3.8290200862715094,0.0,-22231.0,6.75,592.5,1078.872501306163,0.0,0.375,2.072753694,0.3347862812040844,0.0,1.0800000429153442,0.25999999046325684,140.3699951171875,-0.0489501953125,-0.09027099609375,1.120849609375,34.380001068115234,0.0,-29.0,-0.0030670166015625,-2.994964599609375,Closing,0.0,0.0,-189.0,0.0,0.0,0.0,0.0,0.0,
8.929564000000013,0.0,0.0,53888.0,2.0,307.5,760.2726585426052,0.0,0.5,2.23388649,0.8616693056917393,0.0,-48158.0,17.125,1087.5,1429.5269043392261,0.0,0.25,4.882812,4.574167163686923,0.0,37188.0,2.375,330.0,760.2726585426052,0.0,0.25,2.357177493,4.077307055654818,0.0,-21973.0,13.0,997.5,1429.5269043392261,0.0,0.25,2.0141599500000003,0.38914995304783173,0.0,0.20000000298023224,-0.6800000071525574,128.6199951171875,-0.07586669921875,0.30670166015625,0.90948486328125,34.36000061035156,0.0,277.0,-0.0177764892578125,-2.976776123046875,Closing,0.0,0.0,-189.0,0.0,0.0,0.0,0.0,0.0,
9.13529799999995,0.0,0.0,54094.0,0.125,847.5,790.6316953872031,0.0,0.5,1.405029153,0.8490641369995475,0.0,-47716.0,7.625,1545.0,1461.6528411763134,0.0,0.25,0.11962889400000001,4.570517901663629,0.0,37235.0,8.5,157.5,790.6316953872031,0.0,0.125,2.523193101,4.089933050440344,0.0,-21593.0,11.75,1350.0,1461.6528411763134,0.0,0.125,1.9714353450000002,0.39279497308532213,0.0,0.5799999833106995,-0.1899999976158142,108.41000366210938,-0.2293701171875,-0.20672607421875,1.14874267578125,34.36000061035156,0.0,-136.0,-0.0213623046875,-2.955963134765625,Closing,0.0,0.0,-189.0,0.0,0.0,0.0,0.0,0.0,
9.397020000000019,0.0,0.0,54228.0,1.25,15.0,-456.37796044349665,0.0,0.625,0.380859336,4.932250999999998,0.0,-47327.0,0.75,787.5,456.37796044349665,0.0,0.5,0.6445311840000001,4.963769999999998,0.0,37265.0,0.625,0.0,-456.37796044349665,0.0,1.875,3.752441022,0.01,0.0,-21191.0,1.625,840.0,456.37796044349665,0.0,0.25,1.4721678180000002,0.01,0.0,-0.4699999988079071,-0.5199999809265137,89.44000244140625,0.15118408203125,0.15130615234375,0.9854736328125,34.34000015258789,0.0,161.0,-0.0618133544921875,-2.922607421875,Closing,0.0,0.0,-189.0,0.0,0.0,0.0,0.0,0.0,
9.664560000000057,0.0,0.0,54173.0,2.375,-52.5,-456.37796044349665,0.0,0.75,0.783691326,4.932250999999998,0.0,-47224.0,15.875,30.0,456.37796044349665,0.0,0.25,0.766601484,4.963769999999998,0.0,37262.0,0.125,0.0,-456.37796044349665,0.0,0.625,3.653564079,0.01,0.0,-21082.0,15.75,7.5,456.37796044349665,0.0,0.375,1.4758299270000002,0.01,0.0,-0.36000001430511475,0.5299999713897705,89.01000213623047,-0.095703125,0.0126953125,1.0693359375,34.34000015258789,0.0,17.0,-0.1085052490234375,-2.9157867431640625,Closing,0.0,0.0,-189.0,0.0,0.0,0.0,0.0,0.0,
9.933455000000075,0.0,0.0,54113.0,2.0,-405.0,-456.37796044349665,0.0,0.125,1.0314940350000001,4.932250999999998,0.0,-47169.0,11.75,495.0,456.37796044349665,0.0,0.25,0.34912105800000004,4.963769999999998,0.0,37232.0,0.375,-142.5,-456.37796044349665,0.0,0.25,3.134765304,0.01,0.0,-21032.0,11.75,480.0,456.37796044349665,0.0,0.25,1.6845701400000002,0.01,0.0,-0.15000000596046448,-1.0199999809265137,88.62999725341797,-0.07421875,-4.8828125E-4,1.13714599609375,34.36000061035156,0.0,1.0,-0.108306884765625,-2.88433837890625,Closing,0.0,0.0,-189.0,0.0,0.0,0.0,0.0,0.0,
10.203006000000052,0.0,0.0,53961.0,4.75,-255.0,-456.37796044349665,0.0,0.375,0.7250975820000001,4.932250999999998,0.0,-46878.0,5.25,562.5,456.37796044349665,0.0,0.25,0.358886682,4.963769999999998,0.0,37141.0,2.375,-232.5,-456.37796044349665,0.0,0.125,3.3630367650000004,0.01,0.0,-20755.0,7.5,532.5,456.37796044349665,0.0,0.125,1.6296385050000002,0.01,0.0,-0.10000000149011612,-0.800000011920929,83.55000305175781,-0.15582275390625,-0.029052734375,0.98419189453125,34.36000061035156,0.0,-43.0,-0.08544921875,-2.8310394287109375,Closing,0.0,0.0,-189.0,0.0,0.0,0.0,0.0,0.0,
10.466145000000019,0.0,0.0,53794.0,1.625,-577.5,-456.37796044349665,0.0,0.25,0.7531737510000001,4.932250999999998,0.0,-46680.0,2.0,667.5,456.37796044349665,0.0,0.25,0.58593744,4.963769999999998,0.0,36971.0,0.375,-555.0,-456.37796044349665,0.0,0.0,3.460693005,0.01,0.0,-20557.0,4.125,682.5,456.37796044349665,0.0,0.125,1.6015623360000002,0.01,0.0,-0.1899999976158142,-1.2999999523162842,81.94999694824219,-0.04095458984375,0.06048583984375,1.11859130859375,34.36000061035156,0.0,61.0,-0.07806396484375,-2.77301025390625,Closing,0.0,0.0,-189.0,0.0,0.0,0.0,0.0,0.0,
10.732361000000033,0.0,0.0,53596.0,0.375,-607.5,-456.37796044349665,0.0,0.25,0.861816318,4.932250999999998,0.0,-46490.0,1.375,555.0,456.37796044349665,0.0,0.0,0.546874944,4.963769999999998,0.0,36834.0,0.625,-405.0,-456.37796044349665,0.0,0.125,3.3764644980000003,0.01,0.0,-20366.0,3.875,525.0,456.37796044349665,0.0,0.25,1.59912093,0.01,0.0,-0.10999999940395355,-0.9900000095367432,82.48999786376953,0.02001953125,0.05181884765625,1.1441650390625,34.36000061035156,0.0,58.0,-0.0720062255859375,-2.717681884765625,Closing,0.0,0.0,-189.0,0.0,0.0,0.0,0.0,0.0,
10.999249000000068,0.0,0.0,53414.0,0.125,-540.0,-456.37796044349665,0.0,0.25,0.825195228,4.932250999999998,0.0,-46318.0,0.75,525.0,456.37796044349665,0.0,0.125,0.490722606,4.963769999999998,0.0,36660.0,0.375,-457.5,-456.37796044349665,0.0,0.0,3.3239742690000003,0.01,0.0,-20193.0,3.0,525.0,456.37796044349665,0.0,0.25,1.6015623360000002,0.01,0.0,0.09000000357627869,-0.8700000047683716,82.86000061035156,-0.03662109375,0.01190185546875,1.1187744140625,34.31999969482422,0.0,7.0,-0.0655975341796875,-2.70806884765625,Closing,0.0,0.0,-189.0,0.0,0.0,0.0,0.0,0.0,
11.266765000000131,0.0,0.0,53179.0,0.375,-457.5,-456.37796044349665,0.0,0.125,0.794677653,4.932250999999998,0.0,-46075.0,0.75,480.0,456.37796044349665,0.0,0.125,0.489501903,4.963769999999998,0.0,36421.0,0.375,-487.5,-456.37796044349665,0.0,0.0,3.333739893,0.01,0.0,-19947.0,2.875,480.0,456.37796044349665,0.0,0.25,1.600341633,0.01,0.0,0.10999999940395355,-0.5899999737739563,82.69000244140625,0.06573486328125,-0.02166748046875,0.9290771484375,34.31999969482422,0.0,-13.0,-0.0623321533203125,-2.7141265869140625,Closing,0.0,0.0,-189.0,0.0,0.0,0.0,0.0,0.0,
11.521445000000066,0.0,0.0,53015.0,2.625,-525.0,-725.4230392579968,0.0,0.375,1.052245986,0.2220730485920468,0.0,-45954.0,0.625,345.0,296.19713511531825,0.0,0.75,1.4001463410000001,0.594678722491219,0.0,36264.0,1.75,-487.5,-725.4230392579968,0.0,0.25,3.1152340560000003,4.717960045248276,0.0,-19812.0,2.0,397.5,296.19713511531825,0.0,0.625,0.9838866180000001,4.364012545683732,0.0,-0.009999999776482582,-0.5400000214576721,84.25,0.0526123046875,0.0361328125,0.94134521484375,34.34000015258789,0.0,42.0,-0.06427001953125,-2.7140960693359375,Closing,0.0,0.0,-189.0,0.0,0.0,0.0,0.0,0.0,
11.797559000000124,0.0,0.0,52734.0,1.25,-1050.0,-1020.5909916189505,0.0,0.25,1.206054564,0.3203144739659917,0.0,-45852.0,0.625,465.0,405.7022135781097,0.0,0.25,2.3303220270000002,1.287785334617523,0.0,36144.0,11.625,-450.0,-1020.5909916189505,0.0,0.125,2.973632508,4.619556306688045,0.0,-19698.0,1.625,532.5,405.7022135781097,0.0,0.625,4.396972206,3.671711616566908,0.0,0.23999999463558197,-0.5600000023841858,102.12000274658203,-0.00848388671875,-0.12359619140625,0.88232421875,34.34000015258789,0.0,-124.0,-0.064544677734375,-2.7167816162109375,Closing,0.0,0.0,-189.0,0.0,0.0,0.0,0.0,0.0,
12.066949999999954,0.0,0.0,52390.0,0.625,-1005.0,-1020.5909916189505,0.0,0.25,1.1914061280000001,0.3203144739659917,0.0,-45687.0,0.0,645.0,405.7022135781097,0.0,0.25,1.8188474700000001,1.287785334617523,0.0,36008.0,25.125,-382.5,-1020.5909916189505,0.0,0.0,3.02734344,4.619556306688045,0.0,-19539.0,1.625,457.5,405.7022135781097,0.0,0.875,0.7397460180000001,3.671711616566908,0.0,0.7400000095367432,-1.6100000143051147,121.62999725341797,-0.47271728515625,0.04632568359375,1.0023193359375,34.349998474121094,0.0,261.0,-0.0704498291015625,-2.7173309326171875,Closing,0.0,0.0,-189.0,0.0,0.0,0.0,0.0,0.0,
12.332293000000064,0.0,0.0,52015.0,0.0,-1402.5,-1036.4357029032524,0.0,0.25,1.140136602,0.32392405729248847,0.0,-45502.0,0.0,637.5,417.26255137277917,0.0,0.0,1.545409998,1.310487072411383,0.0,35894.0,37.0,-547.5,-1036.4357029032524,0.0,0.0,3.0517575000000003,4.6159407596556195,0.0,-19406.0,1.625,442.5,417.26255137277917,0.0,0.5,0.484619091,3.649036267793303,0.0,0.75,-2.759999990463257,140.47999572753906,-0.07452392578125,0.04510498046875,1.11871337890625,34.349998474121094,0.0,35.0,-0.0303497314453125,-2.681427001953125,Closing,0.0,0.0,-189.0,0.0,0.0,0.0,0.0,0.0,
12.53398400000017,0.0,0.0,51496.0,0.75,-1710.0,-1036.4357029032524,0.0,0.125,1.114501839,0.32392405729248847,0.0,-45299.0,0.0,600.0,417.26255137277917,0.0,0.25,1.7944334100000001,1.310487072411383,0.0,35662.0,31.5,-1020.0,-1036.4357029032524,0.0,0.125,3.0517575000000003,4.6159407596556195,0.0,-19247.0,0.375,532.5,417.26255137277917,0.0,0.25,0.17456052900000002,3.649036267793303,0.0,1.6299999952316284,-2.700000047683716,166.22999572753906,0.2862548828125,0.42462158203125,1.25921630859375,34.369998931884766,0.0,-243.0,0.0308074951171875,-2.6817474365234375,Closing,0.0,0.0,-189.0,0.0,0.0,0.0,0.0,0.0,
12.751831000000006,0.0,0.0,51034.0,1.375,-1260.0,-1036.4357029032524,0.0,0.125,1.114501839,0.32392405729248847,0.0,-45131.0,0.25,435.0,417.26255137277917,0.0,0.0,1.9165037100000002,1.310487072411383,0.0,35223.0,21.625,-1365.0,-1036.4357029032524,0.0,0.125,3.0517575000000003,4.6159407596556195,0.0,-19054.0,0.5,600.0,417.26255137277917,0.0,0.25,0.260009739,3.649036267793303,0.0,2.1600000858306885,-2.4600000381469727,-175.8800048828125,0.11590576171875,0.24407958984375,0.9791259765625,34.369998931884766,0.0,-172.0,0.0551605224609375,-2.73187255859375,Closing,0.0,0.0,-189.0,0.0,0.0,0.0,0.0,0.0,
12.949619000000181,0.0,0.0,50730.0,3.5,-862.5,-644.8818951845169,0.0,0.5,1.308593616,0.5498168668524864,0.0,-45018.0,0.5,232.5,644.8818951845169,0.0,0.5,2.6879880060000003,1.92855458977222,0.0,34843.0,13.125,-1162.5,-644.8818951845169,0.0,0.375,2.784423543,4.389674732977291,0.0,-18871.0,0.5,570.0,644.8818951845169,0.0,0.625,4.6057124190000005,3.031687206278561,0.0,2.2899999618530273,-1.5399999618530273,-159.3699951171875,0.29736328125,-0.1214599609375,0.694091796875,34.31999969482422,0.0,-243.0,0.0491943359375,-2.8111724853515625,Closing,0.0,0.0,-189.0,0.0,0.0,0.0,0.0,0.0,
13.169035000000148,0.0,0.0,50642.0,0.0,-52.5,0.0,0.0,0.25,1.408691262,0.5498168668524864,0.0,-44984.0,0.0,30.0,0.0,0.0,0.25,2.828368851,1.92855458977222,0.0,34685.0,0.0,-142.5,0.0,0.0,0.0,2.663573946,4.389674732977291,0.0,-18790.0,0.0,22.5,0.0,0.0,0.125,4.3481440860000005,3.031687206278561,0.0,1.7100000381469727,-0.7300000190734863,-155.91000366210938,-0.1737060546875,-0.01251220703125,1.19140625,34.31999969482422,0.0,92.0,-0.0159912109375,-2.86968994140625,Closing,0.0,0.0,-189.0,0.0,0.0,0.0,0.0,0.0,
13.408199000000023,0.0,0.0,50651.0,0.0,0.0,0.0,0.0,0.25,1.414794777,0.5498168668524864,0.0,-44984.0,0.0,0.0,0.0,0.0,0.5,2.255859144,1.92855458977222,0.0,34691.0,0.0,0.0,0.0,0.0,0.125,2.7978512760000003,4.389674732977291,0.0,-18799.0,0.0,-7.5,0.0,0.0,0.625,4.727782719,3.031687206278561,0.0,1.4600000381469727,-0.6100000143051147,-156.16000366210938,-0.0555419921875,-0.0152587890625,1.00262451171875,34.31999969482422,0.0,57.0,-0.0346221923828125,-2.875732421875,Closing,0.0,0.0,-189.0,0.0,0.0,0.0,0.0,0.0,
13.632523000000045,0.0,0.0,50651.0,0.0,0.0,0.0,0.0,0.25,1.414794777,0.5498168668524864,0.0,-44984.0,0.0,0.0,0.0,0.0,0.0,2.314452888,1.92855458977222,0.0,34691.0,0.0,0.0,0.0,0.0,0.0,2.828368851,4.389674732977291,0.0,-18799.0,0.0,0.0,0.0,0.0,0.25,4.716796392,3.031687206278561,0.0,1.3300000429153442,-0.699999988079071,-156.07000732421875,-0.01513671875,0.002197265625,1.0255126953125,34.33000183105469,0.0,11.0,-0.0357818603515625,-2.8753509521484375,Closing,0.0,0.0,-189.0,0.0,0.0,0.0,0.0,0.0,
13.83104600000009,0.0,0.0,50629.0,0.625,-135.0,-462.9921242594719,0.0,0.25,1.406249856,0.5498168668524864,0.0,-44958.0,2.5,120.0,462.9921242594719,0.0,0.25,2.464599357,1.92855458977222,0.0,34680.0,2.25,-15.0,-462.9921242594719,0.0,0.125,2.864989941,4.389674732977291,0.0,-18763.0,1.75,135.0,462.9921242594719,0.0,0.25,4.654540539,3.031687206278561,0.0,1.1200000047683716,-0.8299999833106995,-154.17999267578125,-0.03973388671875,-0.0037841796875,0.99896240234375,34.33000183105469,0.0,32.0,-0.0343017578125,-2.873291015625,Closing,0.0,0.0,-189.0,0.0,0.0,0.0,0.0,0.0,
14.081181000000099,0.0,0.0,50466.0,15.25,-1117.5,-2100.0,0.0,0.25,1.4013670440000001,0.5498168668524864,0.0,-44792.0,21.125,1365.0,2100.0,0.0,0.0,2.49023412,1.92855458977222,0.0,34648.0,36.625,-322.5,-2100.0,0.0,0.125,2.862548535,4.389674732977291,0.0,-18655.0,16.375,1125.0,2100.0,0.0,0.125,4.593505389000001,3.031687206278561,0.0,0.5,-1.2000000476837158,-135.92999267578125,-0.41302490234375,-0.23638916015625,1.06561279296875,34.27000045776367,0.0,451.0,-0.0283660888671875,-2.86993408203125,Closing,0.0,0.0,-189.0,0.0,0.0,0.0,0.0,0.0,
14.293107000000076,0.0,0.0,49994.0,0.0,-1372.5,-429.9212738871575,0.0,0.25,1.39160142,0.5498168668524864,0.0,-44350.0,0.0,1102.5,429.9212738871575,0.0,0.0,2.471923575,1.92855458977222,0.0,34498.0,13.125,-622.5,-429.9212738871575,0.0,0.125,2.857665723,4.389674732977291,0.0,-18205.0,0.125,1320.0,429.9212738871575,0.0,0.25,4.719237798,3.031687206278561,0.0,-0.36000001430511475,-2.640000104904175,-102.23999786376953,0.29888916015625,0.33935546875,0.700439453125,34.27000045776367,0.0,-406.0,-7.9345703125E-4,-2.8821258544921875,Closing,0.0,0.0,-189.0,0.0,0.0,0.0,0.0,0.0,
14.520893000000157,0.0,0.0,49657.0,0.0,-930.0,0.0,0.0,0.25,1.385497905,0.5498168668524864,0.0,-44087.0,0.0,735.0,0.0,0.0,0.0,2.4841306050000003,1.92855458977222,0.0,34232.0,0.0,-742.5,0.0,0.0,0.125,2.823486039,4.389674732977291,0.0,-17889.0,0.0,847.5,0.0,0.0,0.25,4.703368659000001,3.031687206278561,0.0,-0.9599999785423279,-2.0199999809265137,-81.11000061035156,0.0391845703125,0.15289306640625,1.417724609375,34.29999923706055,0.0,-160.0,0.011260986328125,-2.889617919921875,Closing,0.0,0.0,-189.0,0.0,0.0,0.0,0.0,0.0,
14.802033999999985,0.0,0.0,49507.0,0.0,-277.5,0.0,0.0,0.25,1.385497905,0.5498168668524864,0.0,-43938.0,0.0,277.5,0.0,0.0,0.0,2.41699194,1.92855458977222,0.0,34079.0,0.0,-225.0,0.0,0.0,0.125,2.818603227,4.389674732977291,0.0,-17727.0,0.0,270.0,0.0,0.0,0.25,4.62646437,3.031687206278561,0.0,-0.9100000262260437,-1.4299999475479126,-68.36000061035156,-0.02435302734375,-0.0045166015625,1.0235595703125,34.29999923706055,0.0,-10.0,0.0219573974609375,-2.8711090087890625,Closing,0.0,0.0,-189.0,0.0,0.0,0.0,0.0,0.0,
15.068100000000094,0.0,0.0,49483.0,0.0,0.0,0.0,0.0,0.25,1.385497905,0.5498168668524864,0.0,-43909.0,0.0,0.0,0.0,0.0,0.125,2.412109128,1.92855458977222,0.0,34049.0,0.0,0.0,0.0,0.0,0.125,2.818603227,4.389674732977291,0.0,-17699.0,0.0,0.0,0.0,0.0,0.25,4.6057124190000005,3.031687206278561,0.0,-0.6600000262260437,-1.2799999713897705,-68.08000183105469,-0.0245361328125,-9.1552734375E-4,1.02294921875,34.34000015258789,0.0,-10.0,0.018829345703125,-2.8680877685546875,Closing,0.0,0.0,-189.0,0.0,0.0,0.0,0.0,0.0,
15.334225000000092,0.0,0.0,49481.0,0.125,-7.5,-115.74803106486797,0.0,0.25,1.384277202,0.5498168668524864,0.0,-43901.0,0.125,60.0,115.74803106486797,0.0,0.125,2.415771237,1.92855458977222,0.0,34036.0,0.125,-67.5,-115.74803106486797,0.0,0.125,2.818603227,4.389674732977291,0.0,-17699.0,0.375,0.0,115.74803106486797,0.0,0.125,4.625243667,3.031687206278561,0.0,-0.49000000953674316,-1.149999976158142,-68.08999633789062,-0.00634765625,-0.00152587890625,1.0198974609375,34.34000015258789,0.0,-1.0,0.0185089111328125,-2.867034912109375,Closing,0.0,0.0,-189.0,0.0,0.0,0.0,0.0,0.0,
15.667658000000054,0.0,0.0,49481.0,0.0,0.0,0.0,0.0,0.25,1.385497905,0.5498168668524864,0.0,-43895.0,0.0,0.0,0.0,0.0,0.125,2.412109128,1.92855458977222,0.0,34036.0,0.0,0.0,0.0,0.0,0.125,2.818603227,4.389674732977291,0.0,-17699.0,0.0,0.0,0.0,0.0,0.25,4.62646437,3.031687206278561,0.0,-0.3499999940395355,-1.0800000429153442,-68.06999969482422,-0.01080322265625,0.00225830078125,1.01068115234375,34.33000183105469,0.0,-4.0,0.0185089111328125,-2.867034912109375,Closing,0.0,0.0,-189.0,0.0,0.0,0.0,0.0,0.0,
15.923344000000041,0.0,0.0,49481.0,0.0,0.0,0.0,0.0,0.25,1.385497905,0.5498168668524864,0.0,-43895.0,0.0,0.0,0.0,0.0,0.125,2.412109128,1.92855458977222,0.0,34036.0,0.0,0.0,0.0,0.0,0.125,2.818603227,4.389674732977291,0.0,-17699.0,0.0,0.0,0.0,0.0,0.25,4.62646437,3.031687206278561,0.0,-0.23999999463558197,-1.0099999904632568,-68.08000183105469,-0.01129150390625,0.0015869140625,1.0179443359375,34.33000183105469,0.0,-3.0,0.0185089111328125,-2.867034912109375,Closing,0.0,0.0,-189.0,0.0,0.0,0.0,0.0,0.0,
16.18929000000004,0.0,0.0,49481.0,0.0,0.0,0.0,0.0,0.25,1.385497905,0.5498168668524864,0.0,-43895.0,0.0,0.0,0.0,0.0,0.125,2.410888425,1.92855458977222,0.0,34036.0,0.0,0.0,0.0,0.0,0.125,2.818603227,4.389674732977291,0.0,-17699.0,0.0,0.0,0.0,0.0,0.25,4.625243667,3.031687206278561,0.0,-0.17000000178813934,-0.9599999785423279,-68.08999633789062,-0.0137939453125,0.001708984375,1.025634765625,34.34000015258789,0.0,-3.0,0.0185089111328125,-2.867034912109375,Closing,0.0,0.0,-189.0,0.0,0.0,0.0,0.0,0.0,
16.468594000000042,0.0,0.0,49481.0,0.0,0.0,0.0,0.0,0.25,1.385497905,0.5498168668524864,0.0,-43895.0,0.0,0.0,0.0,0.0,0.125,2.412109128,1.92855458977222,0.0,34036.0,0.0,0.0,0.0,0.0,0.125,2.818603227,4.389674732977291,0.0,-17699.0,0.0,0.0,0.0,0.0,0.25,4.625243667,3.031687206278561,0.0,-0.10999999940395355,-0.9200000166893005,-68.08999633789062,-0.013671875,0.00244140625,1.0172119140625,34.34000015258789,0.0,-3.0,0.0185089111328125,-2.867034912109375,Closing,0.0,0.0,-189.0,0.0,0.0,0.0,0.0,0.0,
16.73372900000005,0.0,0.0,49481.0,0.0,0.0,0.0,0.0,0.25,1.385497905,0.5498168668524864,0.0,-43895.0,0.0,0.0,0.0,0.0,0.125,2.412109128,1.92855458977222,0.0,34036.0,0.0,0.0,0.0,0.0,0.125,2.818603227,4.389674732977291,0.0,-17699.0,0.0,0.0,0.0,0.0,0.25,4.625243667,3.031687206278561,0.0,-0.05999999865889549,-0.8799999952316284,-68.08999633789062,-0.010009765625,0.00299072265625,1.02069091796875,34.34000015258789,0.0,-1.0,0.0185089111328125,-2.867034912109375,Closing,0.0,0.0,-189.0,0.0,0.0,0.0,0.0,0.0,
17.00215599999996,0.0,0.0,49481.0,0.0,0.0,0.0,0.0,0.25,1.385497905,0.5498168668524864,0.0,-43895.0,0.0,0.0,0.0,0.0,0.125,2.412109128,1.92855458977222,0.0,34036.0,0.0,0.0,0.0,0.0,0.125,2.81982393,4.389674732977291,0.0,-17699.0,0.0,0.0,0.0,0.0,0.25,4.625243667,3.031687206278561,0.0,-0.009999999776482582,-0.8500000238418579,-68.08999633789062,-0.01116943359375,0.0023193359375,1.0230712890625,34.34000015258789,0.0,0.0,0.0185089111328125,-2.867034912109375,Closing,0.0,0.0,-189.0,0.0,0.0,0.0,0.0,0.0,
17.267523999999977,0.0,0.0,49481.0,0.0,0.0,0.0,0.0,0.25,1.386718608,0.5498168668524864,0.0,-43895.0,0.0,0.0,0.0,0.0,0.125,2.412109128,1.92855458977222,0.0,34036.0,0.0,0.0,0.0,0.0,0.125,2.813720415,4.389674732977291,0.0,-17699.0,0.0,0.0,0.0,0.0,0.25,4.625243667,3.031687206278561,0.0,0.009999999776482582,-0.8299999833106995,-68.08999633789062,-0.0120849609375,0.00262451171875,1.02264404296875,34.33000183105469,0.0,-1.0,0.0185089111328125,-2.867034912109375,Closing,0.0,0.0,-189.0,0.0,0.0,0.0,0.0,0.0,
17.53376600000006,0.0,0.0,49481.0,0.0,0.0,0.0,0.0,0.25,1.385497905,0.5498168668524864,0.0,-43895.0,0.0,0.0,0.0,0.0,0.125,2.412109128,1.92855458977222,0.0,34036.0,0.0,0.0,0.0,0.0,0.125,2.813720415,4.389674732977291,0.0,-17699.0,0.0,0.0,0.0,0.0,0.25,4.625243667,3.031687206278561,0.0,0.03999999910593033,-0.8100000023841858,-68.08999633789062,-0.01324462890625,0.00140380859375,1.0191650390625,34.33000183105469,0.0,0.0,0.0185089111328125,-2.867034912109375,Closing,0.0,0.0,-189.0,0.0,0.0,0.0,0.0,0.0,
17.80271800000011,0.0,0.0,49525.0,5.875,262.5,826.875,0.0,0.625,0.496826121,0.01,0.0,-43845.0,13.625,330.0,826.875,0.0,1.0,3.3740230920000003,2.481885,0.0,34047.0,11.625,7.5,826.875,0.0,1.5,3.5803218990000003,0.01,0.0,-17649.0,5.0,315.0,826.875,0.0,0.5,3.6779781390000004,2.479,0.0,0.17000000178813934,0.6700000166893005,-67.88999938964844,0.24609375,-0.16094970703125,1.0025634765625,34.34000015258789,0.0,240.0,0.02685546875,-2.8478546142578125,Closing,0.0,0.0,-189.0,0.0,0.0,0.0,0.0,0.0,
18.058856000000144,0.0,0.0,49646.0,15.25,180.0,846.5625,0.0,0.75,0.526122993,0.01,0.0,-43621.0,19.75,547.5,846.5625,0.0,0.25,2.94189423,2.481885,0.0,34128.0,26.75,112.5,846.5625,0.0,0.125,3.3190914570000003,0.01,0.0,-17492.0,14.125,270.0,846.5625,0.0,0.625,3.9929195130000004,2.479,0.0,-0.23999999463558197,0.23999999463558197,-68.06999969482422,0.339599609375,0.11993408203125,1.1417236328125,34.33000183105469,0.0,9.0,0.04425048828125,-2.81793212890625,Closing,0.0,0.0,-189.0,0.0,0.0,0.0,0.0,0.0,
18.32546999999997,0.0,0.0,49801.0,5.875,855.0,630.0,0.0,0.5,1.024169817,0.01,0.0,-43335.0,3.75,960.0,630.0,0.0,0.0,2.7453610470000003,2.481885,0.0,34246.0,20.125,412.5,630.0,0.0,0.0,3.184814127,0.01,0.0,-17239.0,3.5,915.0,630.0,0.0,0.25,4.205321835,2.479,0.0,0.0,1.7999999523162842,-67.41999816894531,-0.09564208984375,0.08740234375,1.1334228515625,34.33000183105469,0.0,-130.0,0.0798797607421875,-2.7354278564453125,Closing,0.0,0.0,-189.0,0.0,0.0,0.0,0.0,0.0,
18.59843200000003,0.0,0.0,50261.0,0.125,945.0,551.25,0.0,0.25,0.7641600780000001,0.01,0.0,-43069.0,0.625,810.0,551.25,0.0,0.25,3.0578610150000003,2.481885,0.0,34393.0,28.0,247.5,551.25,0.0,0.25,3.3728023890000003,0.01,0.0,-16972.0,1.25,810.0,551.25,0.0,0.25,4.0356441180000004,2.479,0.0,0.1899999976158142,1.2200000286102295,-69.91000366210938,0.1318359375,0.0015869140625,1.23345947265625,34.310001373291016,0.0,38.0,0.10845947265625,-2.6436309814453125,Closing,0.0,0.0,-189.0,0.0,0.0,0.0,0.0,0.0,
18.859440000000177,0.0,0.0,50554.0,0.125,900.0,472.49999999999994,0.0,0.25,0.6848143830000001,0.01,0.0,-42826.0,0.125,757.5,472.49999999999994,0.0,0.0,3.0090328950000003,2.481885,0.0,34540.0,25.125,547.5,472.49999999999994,0.0,0.125,3.397216449,0.01,0.0,-16703.0,0.5,787.5,472.49999999999994,0.0,0.25,4.061278881,2.479,0.0,0.019999999552965164,0.20000000298023224,-72.27999877929688,-0.13446044921875,0.02288818359375,1.1002197265625,34.310001373291016,0.0,-63.0,0.1223602294921875,-2.5769195556640625,Closing,0.0,0.0,-189.0,0.0,0.0,0.0,0.0,0.0,
19.132415000000037,0.0,0.0,50774.0,0.0,637.5,433.125,0.0,0.25,0.911865141,0.01,0.0,-42535.0,0.0,555.0,433.125,0.0,0.125,2.976073914,2.481885,0.0,34818.0,21.75,660.0,433.125,0.0,0.125,3.3239742690000003,0.01,0.0,-16399.0,0.375,562.5,433.125,0.0,0.25,4.106444892,2.479,0.0,0.2199999988079071,-0.49000000953674316,-73.5999984741211,-0.0201416015625,0.02777099609375,1.048828125,34.310001373291016,0.0,-25.0,0.10711669921875,-2.537933349609375,Closing,0.0,0.0,-189.0,0.0,0.0,0.0,0.0,0.0,
19.364066000000108,0.0,0.0,50981.0,0.0,630.0,413.4375,0.0,0.25,0.8679198330000001,0.01,0.0,-42456.0,0.0,472.5,413.4375,0.0,0.125,2.976073914,2.481885,0.0,34895.0,22.75,300.0,413.4375,0.0,0.0,3.3093258330000004,0.01,0.0,-16318.0,0.375,480.0,413.4375,0.0,0.125,4.104003486,2.479,0.0,0.25,-0.699999988079071,-75.25,-0.09771728515625,0.06561279296875,1.15570068359375,34.310001373291016,0.0,-79.0,0.0960235595703125,-2.519073486328125,Closing,0.0,0.0,-189.0,0.0,0.0,0.0,0.0,0.0,
19.569459999999964,0.0,0.0,51139.0,0.625,450.0,268.7626490465476,0.0,0.625,0.23315427300000002,4.351530905308984,0.0,-42298.0,0.125,525.0,653.9608836851698,0.0,0.25,2.8479000990000003,2.2601123770819807,0.0,34984.0,25.375,390.0,268.7626490465476,0.0,1.0,4.061278881,0.5816795527663734,0.0,-16162.0,0.375,510.0,653.9608836851698,0.0,0.25,4.315185105,2.7005148293388976,0.0,0.3799999952316284,-1.1100000143051147,-74.9000015258789,-0.21527099609375,-0.0654296875,1.05267333984375,34.310001373291016,0.0,19.0,0.0922088623046875,-2.5074615478515625,Closing,0.0,0.0,-189.0,0.0,0.0,0.0,0.0,0.0,
19.78839100000006,0.0,0.0,51201.0,0.0,157.5,274.1005096002767,0.0,0.375,4.570312032,4.063390495100698,0.0,-42106.0,0.625,615.0,745.6601047078569,0.0,0.25,2.668456758,2.217260173976864,0.0,35088.0,24.75,352.5,274.1005096002767,0.0,0.375,4.283446827000001,0.8702960247571572,0.0,-15965.0,0.5,660.0,745.6601047078569,0.0,0.125,4.489745634,2.7433172200611047,0.0,0.1899999976158142,-1.2100000381469727,-67.41000366210938,-0.03582763671875,-0.04144287109375,0.93084716796875,34.310001373291016,0.0,35.0,0.08306884765625,-2.5082550048828125,Closing,0.0,0.0,-189.0,0.0,0.0,0.0,0.0,0.0,
20.01140500000003,0.0,0.0,51251.0,0.0,150.0,257.6863409555481,0.0,0.25,4.584960468,3.794665089028275,0.0,-41907.0,0.875,615.0,687.4661174280473,0.0,0.125,2.6440426980000002,2.1807071418961694,0.0,35197.0,23.375,322.5,257.6863409555481,0.0,0.375,4.423827672,1.1394654153985089,0.0,-15761.0,0.75,615.0,687.4661174280473,0.0,0.25,4.447021029,2.7798277620596417,0.0,-0.1599999964237213,-1.2400000095367432,-59.97999954223633,-0.03094482421875,-0.07708740234375,1.01031494140625,34.310001373291016,0.0,59.0,0.0831146240234375,-2.5086822509765625,Closing,0.0,0.0,-189.0,0.0,0.0,0.0,0.0,0.0,
20.229941000000107,0.0,0.0,51278.0,0.0,165.0,0.0,0.0,0.25,4.648437024000001,3.794665089028275,0.0,-41779.0,0.0,405.0,0.0,0.0,0.0,2.664794649,2.1807071418961694,0.0,35232.0,0.0,0.0,0.0,0.0,0.0,4.5166011,1.1394654153985089,0.0,-15604.0,0.0,442.5,0.0,0.0,0.25,4.368896037,2.7798277620596417,0.0,-0.46000000834465027,-1.5299999713897705,-53.130001068115234,-0.124267578125,0.0833740234375,1.09454345703125,34.34000015258789,0.0,-130.0,0.09515380859375,-2.516754150390625,Closing,0.0,0.0,-189.0,0.0,0.0,0.0,0.0,0.0,
20.448628000000028,0.0,0.0,51313.0,0.0,45.0,0.0,0.0,0.25,4.6533198360000005,3.794665089028275,0.0,-41747.0,0.0,90.0,0.0,0.0,0.125,2.663573946,2.1807071418961694,0.0,35240.0,0.0,30.0,0.0,0.0,0.125,4.538573754000001,1.1394654153985089,0.0,-15573.0,0.0,105.0,0.0,0.0,0.25,4.353026898,2.7798277620596417,0.0,-0.3700000047683716,-1.909999966621399,-51.209999084472656,-0.065673828125,0.00244140625,1.0404052734375,34.34000015258789,0.0,-26.0,0.0969085693359375,-2.5211334228515625,Closing,0.0,0.0,-189.0,0.0,0.0,0.0,0.0,0.0,
20.665625,0.0,0.0,51315.0,0.0,0.0,0.0,0.0,0.25,4.648437024000001,3.794665089028275,0.0,-41741.0,0.0,0.0,0.0,0.0,0.125,2.664794649,2.1807071418961694,0.0,35242.0,0.0,0.0,0.0,0.0,0.125,4.52880813,1.1394654153985089,0.0,-15567.0,0.0,0.0,0.0,0.0,0.125,4.367675334,2.7798277620596417,0.0,-0.2800000011920929,-1.7000000476837158,-51.45000076293945,0.00689697265625,-0.00531005859375,1.0029296875,34.310001373291016,0.0,23.0,0.09661865234375,-2.519012451171875,Closing,0.0,0.0,-189.0,0.0,0.0,0.0,0.0,0.0,
20.848887000000104,0.0,0.0,51315.0,0.0,0.0,0.0,0.0,0.25,4.648437024000001,3.794665089028275,0.0,-41741.0,0.0,0.0,0.0,0.0,0.125,2.663573946,2.1807071418961694,0.0,35242.0,0.0,0.0,0.0,0.0,0.125,4.517821803,1.1394654153985089,0.0,-15567.0,0.0,0.0,0.0,0.0,0.25,4.373778849,2.7798277620596417,0.0,-0.23000000417232513,-1.5499999523162842,-51.369998931884766,-0.01617431640625,-3.662109375E-4,1.02239990234375,34.310001373291016,0.0,4.0,0.097015380859375,-2.5153350830078125,Closing,0.0,0.0,-189.0,0.0,0.0,0.0,0.0,0.0,
21.13455200000014,0.0,0.0,51315.0,0.0,0.0,0.0,0.0,0.25,4.648437024000001,3.794665089028275,0.0,-41741.0,0.0,0.0,0.0,0.0,0.125,2.663573946,2.1807071418961694,0.0,35242.0,0.0,0.0,0.0,0.0,0.125,4.519042506,1.1394654153985089,0.0,-15567.0,0.0,0.0,0.0,0.0,0.25,4.372558146,2.7798277620596417,0.0,-0.12999999523162842,-1.309999942779541,-51.38999938964844,-0.0067138671875,0.0025634765625,1.029052734375,34.290000915527344,0.0,6.0,0.097015380859375,-2.514312744140625,Closing,0.0,0.0,-189.0,0.0,0.0,0.0,0.0,0.0,
21.38714100000006,0.0,0.0,51315.0,0.0,0.0,0.0,0.0,0.25,4.647216321,3.794665089028275,0.0,-41741.0,0.0,0.0,0.0,0.0,0.125,2.664794649,2.1807071418961694,0.0,35242.0,0.0,0.0,0.0,0.0,0.125,4.519042506,1.1394654153985089,0.0,-15567.0,0.0,0.0,0.0,0.0,0.25,4.372558146,2.7798277620596417,0.0,-0.09000000357627869,-1.190000057220459,-51.38999938964844,-0.0062255859375,0.00128173828125,1.0174560546875,34.290000915527344,0.0,6.0,0.097015380859375,-2.514312744140625,Closing,0.0,0.0,-189.0,0.0,0.0,0.0,0.0,0.0,
21.583158999999984,0.0,0.0,51315.0,0.0,0.0,0.0,0.0,0.25,4.648437024000001,3.794665089028275,0.0,-41741.0,0.0,0.0,0.0,0.0,0.125,2.664794649,2.1807071418961694,0.0,35242.0,0.0,0.0,0.0,0.0,0.125,4.517821803,1.1394654153985089,0.0,-15567.0,0.0,0.0,0.0,0.0,0.25,4.372558146,2.7798277620596417,0.0,-0.03999999910593033,-1.0800000429153442,-51.38999938964844,-0.01055908203125,0.00250244140625,1.02337646484375,34.290000915527344,0.0,2.0,0.097015380859375,-2.514312744140625,Closing,0.0,0.0,-189.0,0.0,0.0,0.0,0.0,0.0,
21.807925000000047,0.0,0.0,51315.0,0.0,0.0,0.0,0.0,0.25,4.647216321,3.794665089028275,0.0,-41741.0,0.0,0.0,0.0,0.0,0.125,2.664794649,2.1807071418961694,0.0,35242.0,0.0,0.0,0.0,0.0,0.125,4.517821803,1.1394654153985089,0.0,-15567.0,0.0,0.0,0.0,0.0,0.25,4.374999552,2.7798277620596417,0.0,-0.019999999552965164,-0.9800000190734863,-51.38999938964844,-0.00970458984375,0.002685546875,1.0208740234375,34.31999969482422,0.0,2.0,0.097015380859375,-2.514312744140625,Closing,0.0,0.0,-189.0,0.0,0.0,0.0,0.0,0.0,
22.036079000000143,0.0,0.0,51315.0,0.0,0.0,0.0,0.0,0.25,4.648437024000001,3.794665089028275,0.0,-41741.0,0.0,0.0,0.0,0.0,0.125,2.663573946,2.1807071418961694,0.0,35242.0,0.0,0.0,0.0,0.0,0.125,4.519042506,1.1394654153985089,0.0,-15567.0,0.0,0.0,0.0,0.0,0.25,4.374999552,2.7798277620596417,0.0,0.009999999776482582,-0.8999999761581421,-51.400001525878906,-0.00885009765625,0.00421142578125,1.0186767578125,34.31999969482422,0.0,1.0,0.097015380859375,-2.514312744140625,Closing,0.0,0.0,-189.0,0.0,0.0,0.0,0.0,0.0,
22.301506000000053,0.0,0.0,51315.0,0.0,0.0,0.0,0.0,0.25,4.648437024000001,3.794665089028275,0.0,-41741.0,0.0,0.0,0.0,0.0,0.125,2.663573946,2.1807071418961694,0.0,35242.0,0.0,0.0,0.0,0.0,0.125,4.5166011,1.1394654153985089,0.0,-15567.0,0.0,0.0,0.0,0.0,0.25,4.374999552,2.7798277620596417,0.0,0.03999999910593033,-0.8299999833106995,-51.400001525878906,-0.0108642578125,0.00421142578125,1.026611328125,34.34000015258789,0.0,0.0,0.097015380859375,-2.514312744140625,Closing,0.0,0.0,-189.0,0.0,0.0,0.0,0.0,0.0,
22.552834000000033,0.0,0.0,51315.0,0.0,0.0,0.0,0.0,0.25,4.647216321,3.794665089028275,0.0,-41741.0,0.0,0.0,0.0,0.0,0.125,2.664794649,2.1807071418961694,0.0,35242.0,0.0,0.0,0.0,0.0,0.125,4.520263209,1.1394654153985089,0.0,-15567.0,0.0,0.0,0.0,0.0,0.25,4.374999552,2.7798277620596417,0.0,0.05000000074505806,-0.7799999713897705,-51.400001525878906,-0.0081787109375,0.002197265625,1.02105712890625,34.34000015258789,0.0,2.0,0.097015380859375,-2.514312744140625,Closing,0.0,0.0,-189.0,0.0,0.0,0.0,0.0,0.0,
22.769314000000012,0.0,0.0,51315.0,0.0,0.0,0.0,0.0,0.25,4.647216321,3.794665089028275,0.0,-41741.0,0.0,0.0,0.0,0.0,0.125,2.663573946,2.1807071418961694,0.0,35242.0,0.0,0.0,0.0,0.0,0.125,4.519042506,1.1394654153985089,0.0,-15567.0,0.0,0.0,0.0,0.0,0.25,4.372558146,2.7798277620596417,0.0,0.07000000029802322,-0.7400000095367432,-51.400001525878906,-0.00921630859375,0.00506591796875,1.02392578125,34.34000015258789,0.0,0.0,0.097015380859375,-2.514312744140625,Closing,0.0,0.0,-189.0,0.0,0.0,0.0,0.0,0.0,
23.015138999999966,0.0,0.0,51315.0,0.0,0.0,0.0,0.0,0.25,4.647216321,3.794665089028275,0.0,-41741.0,0.0,0.0,0.0,0.0,0.125,2.664794649,2.1807071418961694,0.0,35242.0,0.0,0.0,0.0,0.0,0.125,4.519042506,1.1394654153985089,0.0,-15567.0,0.0,0.0,0.0,0.0,0.25,4.373778849,2.7798277620596417,0.0,0.09000000357627869,-0.699999988079071,-51.400001525878906,-0.015380859375,-6.103515625E-5,1.02911376953125,34.34000015258789,0.0,0.0,0.097015380859375,-2.514312744140625,Closing,0.0,0.0,-189.0,0.0,0.0,0.0,0.0,0.0,
23.261913000000174,0.0,0.0,51315.0,0.0,0.0,0.0,0.0,0.25,4.648437024000001,3.794665089028275,0.0,-41741.0,0.0,0.0,0.0,0.0,0.125,2.664794649,2.1807071418961694,0.0,35242.0,0.0,0.0,0.0,0.0,0.125,4.519042506,1.1394654153985089,0.0,-15567.0,0.0,0.0,0.0,0.0,0.25,4.373778849,2.7798277620596417,0.0,0.10000000149011612,-0.6700000166893005,-51.400001525878906,-0.0057373046875,0.0050048828125,1.01861572265625,34.33000183105469,0.0,1.0,0.097015380859375,-2.514312744140625,Closing,0.0,0.0,-189.0,0.0,0.0,0.0,0.0,0.0,
23.600009000000078,0.0,0.0,51315.0,0.0,0.0,0.0,0.0,0.25,4.647216321,3.794665089028275,0.0,-41741.0,0.0,0.0,0.0,0.0,0.125,2.663573946,2.1807071418961694,0.0,35242.0,0.0,0.0,0.0,0.0,0.125,4.517821803,1.1394654153985089,0.0,-15567.0,0.0,0.0,0.0,0.0,0.25,4.373778849,2.7798277620596417,0.0,0.10999999940395355,-0.6399999856948853,-51.400001525878906,-0.0076904296875,0.00225830078125,1.0284423828125,34.33000183105469,0.0,2.0,0.097015380859375,-2.514312744140625,Closing,0.0,0.0,-189.0,0.0,0.0,0.0,0.0,0.0,
23.806689000000013,0.0,0.0,51315.0,0.0,0.0,0.0,0.0,0.25,4.648437024000001,3.794665089028275,0.0,-41741.0,0.0,0.0,0.0,0.0,0.125,2.663573946,2.1807071418961694,0.0,35242.0,0.0,0.0,0.0,0.0,0.125,4.519042506,1.1394654153985089,0.0,-15567.0,0.0,0.0,0.0,0.0,0.25,4.372558146,2.7798277620596417,0.0,0.11999999731779099,-0.6100000143051147,-51.40999984741211,-0.00823974609375,0.00274658203125,1.02337646484375,34.36000061035156,0.0,1.0,0.097015380859375,-2.514312744140625,Closing,0.0,0.0,-189.0,0.0,0.0,0.0,0.0,0.0,
24.016986999999965,0.0,0.0,51315.0,0.0,0.0,0.0,0.0,0.25,4.647216321,3.794665089028275,0.0,-41741.0,0.0,0.0,0.0,0.0,0.125,2.664794649,2.1807071418961694,0.0,35242.0,0.0,0.0,0.0,0.0,0.125,4.519042506,1.1394654153985089,0.0,-15567.0,0.0,0.0,0.0,0.0,0.25,4.372558146,2.7798277620596417,0.0,0.12999999523162842,-0.6100000143051147,-51.41999816894531,-0.006103515625,0.00677490234375,1.0189208984375,34.36000061035156,0.0,0.0,0.097015380859375,-2.514312744140625,Closing,0.0,0.0,-189.0,0.0,0.0,0.0,0.0,0.0,
24.269027,0.0,0.0,51315.0,0.0,0.0,0.0,0.0,0.25,4.648437024000001,3.794665089028275,0.0,-41741.0,0.0,0.0,0.0,0.0,0.125,2.664794649,2.1807071418961694,0.0,35242.0,0.0,0.0,0.0,0.0,0.125,4.519042506,1.1394654153985089,0.0,-15567.0,0.0,0.0,0.0,0.0,0.25,4.372558146,2.7798277620596417,0.0,0.14000000059604645,-0.5899999737739563,-51.41999816894531,-0.00872802734375,0.00244140625,1.02154541015625,34.369998931884766,0.0,1.0,0.097015380859375,-2.514312744140625,Closing,0.0,0.0,-189.0,0.0,0.0,0.0,0.0,0.0,
24.536644000000088,0.0,0.0,51315.0,0.0,0.0,0.0,0.0,0.25,4.648437024000001,3.794665089028275,0.0,-41741.0,0.0,0.0,0.0,0.0,0.125,2.663573946,2.1807071418961694,0.0,35242.0,0.0,0.0,0.0,0.0,0.125,4.519042506,1.1394654153985089,0.0,-15567.0,0.0,0.0,0.0,0.0,0.25,4.374999552,2.7798277620596417,0.0,0.15000000596046448,-0.5799999833106995,-51.41999816894531,-0.0072021484375,0.00244140625,1.02239990234375,34.369998931884766,0.0,2.0,0.097015380859375,-2.514312744140625,Closing,0.0,0.0,-189.0,0.0,0.0,0.0,0.0,0.0,
24.792146000000184,0.0,0.0,51315.0,0.0,0.0,0.0,0.0,0.25,4.647216321,3.794665089028275,0.0,-41741.0,0.0,0.0,0.0,0.0,0.125,2.663573946,2.1807071418961694,0.0,35242.0,0.0,0.0,0.0,0.0,0.125,4.519042506,1.1394654153985089,0.0,-15567.0,0.0,0.0,0.0,0.0,0.25,4.373778849,2.7798277620596417,0.0,0.15000000596046448,-0.5699999928474426,-51.41999816894531,-0.00628662109375,0.0020751953125,1.01983642578125,34.34000015258789,0.0,2.0,0.097015380859375,-2.514312744140625,Closing,0.0,0.0,-189.0,0.0,0.0,0.0,0.0,0.0,
25.068768000000155,0.0,0.0,51315.0,0.0,0.0,0.0,0.0,0.25,4.648437024000001,3.794665089028275,0.0,-41741.0,0.0,0.0,0.0,0.0,0.125,2.664794649,2.1807071418961694,0.0,35242.0,0.0,0.0,0.0,0.0,0.125,4.520263209,1.1394654153985089,0.0,-15567.0,0.0,0.0,0.0,0.0,0.25,4.372558146,2.7798277620596417,0.0,0.15000000596046448,-0.550000011920929,-51.43000030517578,-0.0081787109375,0.003173828125,1.02398681640625,34.34000015258789,0.0,0.0,0.097015380859375,-2.514312744140625,Closing,0.0,0.0,-189.0,0.0,0.0,0.0,0.0,0.0,
25.336334999999963,0.0,0.0,51315.0,0.0,0.0,0.0,0.0,0.25,4.648437024000001,3.794665089028275,0.0,-41741.0,0.0,0.0,0.0,0.0,0.125,2.663573946,2.1807071418961694,0.0,35242.0,0.0,0.0,0.0,0.0,0.125,4.517821803,1.1394654153985089,0.0,-15567.0,0.0,0.0,0.0,0.0,0.25,4.373778849,2.7798277620596417,0.0,0.14000000059604645,-0.5400000214576721,-51.439998626708984,-0.008544921875,0.0030517578125,1.0245361328125,34.349998474121094,0.0,0.0,0.097015380859375,-2.514312744140625,Closing,0.0,0.0,-189.0,0.0,0.0,0.0,0.0,0.0,
25.5645560000001,0.0,0.0,51315.0,0.0,0.0,0.0,0.0,0.25,4.647216321,3.794665089028275,0.0,-41741.0,0.0,0.0,0.0,0.0,0.125,2.663573946,2.1807071418961694,0.0,35242.0,0.0,0.0,0.0,0.0,0.125,4.519042506,1.1394654153985089,0.0,-15567.0,0.0,0.0,0.0,0.0,0.25,4.372558146,2.7798277620596417,0.0,0.15000000596046448,-0.5400000214576721,-51.439998626708984,-0.00933837890625,9.1552734375E-4,1.02484130859375,34.349998474121094,0.0,1.0,0.097015380859375,-2.514312744140625,Closing,0.0,0.0,-189.0,0.0,0.0,0.0,0.0,0.0,
25.768749000000067,0.0,0.0,51315.0,0.0,0.0,0.0,0.0,0.25,4.648437024000001,3.794665089028275,0.0,-41741.0,0.0,0.0,0.0,0.0,0.125,2.663573946,2.1807071418961694,0.0,35242.0,0.0,0.0,0.0,0.0,0.125,4.520263209,1.1394654153985089,0.0,-15567.0,0.0,0.0,0.0,0.0,0.25,4.373778849,2.7798277620596417,0.0,0.15000000596046448,-0.5299999713897705,-51.439998626708984,-0.00927734375,0.0018310546875,1.02655029296875,34.36000061035156,0.0,0.0,0.097015380859375,-2.514312744140625,Closing,0.0,0.0,-189.0,0.0,0.0,0.0,0.0,0.0,
25.956340000000083,0.0,0.0,51315.0,0.0,0.0,0.0,0.0,0.25,4.647216321,3.794665089028275,0.0,-41741.0,0.0,0.0,0.0,0.0,0.125,2.663573946,2.1807071418961694,0.0,35242.0,0.0,0.0,0.0,0.0,0.125,4.517821803,1.1394654153985089,0.0,-15567.0,0.0,0.0,0.0,0.0,0.25,4.373778849,2.7798277620596417,0.0,0.15000000596046448,-0.5199999809265137,-51.45000076293945,-0.0123291015625,0.0037841796875,1.02313232421875,34.36000061035156,0.0,-2.0,0.097015380859375,-2.514312744140625,Closing,0.0,0.0,-189.0,0.0,0.0,0.0,0.0,0.0,
26.20115000000014,0.0,0.0,51315.0,0.0,0.0,0.0,0.0,0.25,4.647216321,3.794665089028275,0.0,-41741.0,0.0,0.0,0.0,0.0,0.125,2.663573946,2.1807071418961694,0.0,35242.0,0.0,0.0,0.0,0.0,0.125,4.517821803,1.1394654153985089,0.0,-15567.0,0.0,0.0,0.0,0.0,0.25,4.372558146,2.7798277620596417,0.0,0.15000000596046448,-0.5199999809265137,-51.45000076293945,-0.005615234375,0.004638671875,1.02490234375,34.380001068115234,0.0,0.0,0.097015380859375,-2.514312744140625,Closing,0.0,0.0,-189.0,0.0,0.0,0.0,0.0,0.0,
26.41031300000008,0.0,0.0,51315.0,0.0,0.0,0.0,0.0,0.25,4.648437024000001,3.794665089028275,0.0,-41741.0,0.0,0.0,0.0,0.0,0.125,2.664794649,2.1807071418961694,0.0,35242.0,0.0,0.0,0.0,0.0,0.125,4.519042506,1.1394654153985089,0.0,-15567.0,0.0,0.0,0.0,0.0,0.25,4.372558146,2.7798277620596417,0.0,0.15000000596046448,-0.5099999904632568,-51.45000076293945,-0.00933837890625,0.00177001953125,1.02288818359375,34.380001068115234,0.0,0.0,0.097015380859375,-2.514312744140625,Closing,0.0,0.0,-189.0,0.0,0.0,0.0,0.0,0.0,
26.611009000000077,0.0,0.0,51315.0,0.0,0.0,0.0,0.0,0.25,4.648437024000001,3.794665089028275,0.0,-41741.0,0.0,0.0,0.0,0.0,0.125,2.663573946,2.1807071418961694,0.0,35242.0,0.0,0.0,0.0,0.0,0.125,4.519042506,1.1394654153985089,0.0,-15567.0,0.0,0.0,0.0,0.0,0.25,4.373778849,2.7798277620596417,0.0,0.15000000596046448,-0.5099999904632568,-51.45000076293945,-0.010986328125,0.00311279296875,1.0203857421875,34.380001068115234,0.0,-1.0,0.097015380859375,-2.514312744140625,Closing,0.0,0.0,-189.0,0.0,0.0,0.0,0.0,0.0,
26.82865599999996,0.0,0.0,51315.0,0.0,0.0,0.0,0.0,0.25,4.647216321,3.794665089028275,0.0,-41741.0,0.0,0.0,0.0,0.0,0.125,2.663573946,2.1807071418961694,0.0,35242.0,0.0,0.0,0.0,0.0,0.125,4.517821803,1.1394654153985089,0.0,-15567.0,0.0,0.0,0.0,0.0,0.25,4.373778849,2.7798277620596417,0.0,0.15000000596046448,-0.5,-51.45000076293945,-0.0091552734375,0.00408935546875,1.02105712890625,34.369998931884766,0.0,-1.0,0.097015380859375,-2.514312744140625,Closing,0.0,0.0,-189.0,0.0,0.0,0.0,0.0,0.0,
27.013617000000085,0.0,0.0,51315.0,0.0,0.0,0.0,0.0,0.25,4.648437024000001,3.794665089028275,0.0,-41741.0,0.0,0.0,0.0,0.0,0.125,2.663573946,2.1807071418961694,0.0,35242.0,0.0,0.0,0.0,0.0,0.125,4.519042506,1.1394654153985089,0.0,-15567.0,0.0,0.0,0.0,0.0,0.25,4.374999552,2.7798277620596417,0.0,0.15000000596046448,-0.5,-51.45000076293945,-0.00848388671875,0.00335693359375,1.02691650390625,34.369998931884766,0.0,0.0,0.097015380859375,-2.514312744140625,Closing,0.0,0.0,-189.0,0.0,0.0,0.0,0.0,0.0,
27.232898999999975,0.0,0.0,51315.0,0.0,0.0,0.0,0.0,0.25,4.641112806000001,3.794665089028275,0.0,-41741.0,0.0,0.0,0.0,0.0,0.125,2.663573946,2.1807071418961694,0.0,35242.0,0.0,0.0,0.0,0.0,0.125,4.520263209,1.1394654153985089,0.0,-15567.0,0.0,0.0,0.0,0.0,0.25,4.372558146,2.7798277620596417,0.0,0.15000000596046448,-0.5,-51.45000076293945,-0.01104736328125,0.00152587890625,1.0267333984375,34.38999938964844,0.0,0.0,0.097015380859375,-2.514312744140625,Closing,0.0,0.0,-189.0,0.0,0.0,0.0,0.0,0.0,
27.430523000000044,0.0,0.0,51315.0,0.0,0.0,0.0,0.0,0.25,4.648437024000001,3.794665089028275,0.0,-41741.0,0.0,0.0,0.0,0.0,0.125,2.663573946,2.1807071418961694,0.0,35242.0,0.0,0.0,0.0,0.0,0.125,4.519042506,1.1394654153985089,0.0,-15567.0,0.0,0.0,0.0,0.0,0.25,4.373778849,2.7798277620596417,0.0,0.15000000596046448,-0.5,-51.45000076293945,-0.00994873046875,0.00616455078125,1.023193359375,34.38999938964844,0.0,-3.0,0.097015380859375,-2.514312744140625,Closing,0.0,0.0,-189.0,0.0,0.0,0.0,0.0,0.0,
27.63207200000016,0.0,0.0,51315.0,0.0,0.0,0.0,0.0,0.25,4.649657727,3.794665089028275,0.0,-41741.0,0.0,0.0,0.0,0.0,0.125,2.664794649,2.1807071418961694,0.0,35242.0,0.0,0.0,0.0,0.0,0.125,4.519042506,1.1394654153985089,0.0,-15567.0,0.0,0.0,0.0,0.0,0.25,4.373778849,2.7798277620596417,0.0,0.1599999964237213,-0.5,-51.45000076293945,-0.00836181640625,0.00439453125,1.01947021484375,34.38999938964844,0.0,0.0,0.097015380859375,-2.514312744140625,Closing,0.0,0.0,-189.0,0.0,0.0,0.0,0.0,0.0,
27.852543999999995,0.0,0.0,51315.0,0.0,0.0,0.0,0.0,0.25,4.648437024000001,3.794665089028275,0.0,-41741.0,0.0,0.0,0.0,0.0,0.125,2.663573946,2.1807071418961694,0.0,35242.0,0.0,0.0,0.0,0.0,0.125,4.519042506,1.1394654153985089,0.0,-15567.0,0.0,0.0,0.0,0.0,0.25,4.372558146,2.7798277620596417,0.0,0.1599999964237213,-0.5,-51.45000076293945,-0.00848388671875,6.103515625E-5,1.0296630859375,34.369998931884766,0.0,2.0,0.097015380859375,-2.514312744140625,Closing,0.0,0.0,-189.0,0.0,0.0,0.0,0.0,0.0,
28.07106500000018,0.0,0.0,51315.0,0.0,0.0,0.0,0.0,0.25,4.647216321,3.794665089028275,0.0,-41741.0,0.0,0.0,0.0,0.0,0.125,2.663573946,2.1807071418961694,0.0,35242.0,0.0,0.0,0.0,0.0,0.125,4.519042506,1.1394654153985089,0.0,-15567.0,0.0,0.0,0.0,0.0,0.25,4.374999552,2.7798277620596417,0.0,0.1599999964237213,-0.5,-51.45000076293945,-0.009521484375,8.544921875E-4,1.0216064453125,34.369998931884766,0.0,1.0,0.097015380859375,-2.514312744140625,Closing,0.0,0.0,-189.0,0.0,0.0,0.0,0.0,0.0,
