Time,ClimberA1,ClimberA2,FRpos,FRCurrent,FRspeed,FRsetpoint,FRApos,FRACurrent,FREncpos,FREncSetpoint,FREncSpeed,FLpos,FLCurrent,FLspeed,FLsetpoint,FLApos,FLACurrent,FLEncpos,FLEncSetpoint,FLEncSpeed,BRpos,BRCurrent,BRspeed,BRsetpoint,BRApos,BRACurrent,BREncpos,BREncSetpoint,BREncSpeed,BLpos,BLCurrent,BLspeed,BLsetpoint,BLApos,BLACurrent,BLEncpos,BLEncSetpoint,BLEncSpeed,navx_Pitch,navx_Roll,navx_Yaw,navx_XAcc,navx_YAcc,navx_ZAcc,navx_Temp,navx_Bar,navx_Alt,navx_XDis,navx_YDis,GearPlacerState,ShootOutputV,ShootOutputCurrent,ShootEncPos,ShootEncVelocity,ShootSpeed,ShootSetpoint,CarouselSetpoint,CarouselCurrent,
0.15292699999999604,0.0,0.0,68713.0,0.0,0.0,0.0,0.0,0.125,0.8166503070000001,4.932250999999998,0.0,-62346.0,0.125,0.0,0.0,0.0,0.125,0.490722606,4.963769999999998,0.0,60578.0,0.0,0.0,0.0,0.0,0.125,3.3764644980000003,0.01,0.0,-38312.0,0.125,0.0,0.0,0.0,0.25,1.6040037420000002,0.01,0.0,0.3400000035762787,-0.5600000023841858,53.380001068115234,-0.010009765625,0.00372314453125,1.0203857421875,35.58000183105469,0.0,-1.0,-1.5068359375,-2.3487548828125,Closing,0.0,0.0,-189.0,0.0,0.0,0.0,0.0,0.0,
0.41547200000000883,0.0,0.0,68713.0,0.0,0.0,0.0,0.0,0.125,0.8178710100000001,4.932250999999998,0.0,-62346.0,0.125,0.0,0.0,0.0,0.125,0.490722606,4.963769999999998,0.0,60578.0,0.0,0.0,0.0,0.0,0.125,3.3776852010000002,0.01,0.0,-38312.0,0.125,0.0,0.0,0.0,0.25,1.6052244450000002,0.01,0.0,0.3499999940395355,-0.5699999928474426,53.380001068115234,-0.01031494140625,0.00494384765625,1.01806640625,35.58000183105469,0.0,-1.0,-1.5068359375,-2.3487548828125,Closing,0.0,0.0,-189.0,0.0,0.0,0.0,0.0,0.0,
0.6047829999999959,0.0,0.0,68713.0,0.0,0.0,0.0,0.0,0.125,0.8178710100000001,4.932250999999998,0.0,-62346.0,0.0,0.0,0.0,0.0,0.125,0.490722606,4.963769999999998,0.0,60578.0,0.0,0.0,0.0,0.0,0.125,3.3776852010000002,0.01,0.0,-38312.0,0.125,0.0,0.0,0.0,0.25,1.6052244450000002,0.01,0.0,0.3499999940395355,-0.5699999928474426,53.369998931884766,-0.00592041015625,0.0059814453125,1.019287109375,35.58000183105469,0.0,2.0,-1.5068359375,-2.3487548828125,Closing,0.0,0.0,-189.0,0.0,0.0,0.0,0.0,0.0,
0.8162030000000086,0.0,0.0,68713.0,0.0,0.0,0.0,0.0,0.125,0.8178710100000001,4.932250999999998,0.0,-62346.0,0.0,0.0,0.0,0.0,0.125,0.490722606,4.963769999999998,0.0,60578.0,0.0,0.0,0.0,0.0,0.125,3.3776852010000002,0.01,0.0,-38312.0,0.125,0.0,0.0,0.0,0.25,1.6052244450000002,0.01,0.0,0.3400000035762787,-0.5699999928474426,53.369998931884766,-0.00982666015625,0.0086669921875,1.02227783203125,35.56999969482422,0.0,2.0,-1.5068359375,-2.3487548828125,Closing,0.0,0.0,-189.0,0.0,0.0,0.0,0.0,0.0,
1.0129519999999903,0.0,0.0,68713.0,0.0,0.0,0.0,0.0,0.125,0.8178710100000001,4.932250999999998,0.0,-62346.0,0.125,0.0,0.0,0.0,0.125,0.489501903,4.963769999999998,0.0,60578.0,0.0,0.0,0.0,0.0,0.125,3.3776852010000002,0.01,0.0,-38312.0,0.0,0.0,0.0,0.0,0.25,1.6052244450000002,0.01,0.0,0.3400000035762787,-0.5699999928474426,53.36000061035156,-0.01019287109375,0.00543212890625,1.02044677734375,35.56999969482422,0.0,0.0,-1.5068359375,-2.3487548828125,Closing,0.0,0.0,-189.0,0.0,0.0,0.0,0.0,0.0,
1.2132339999999968,0.0,0.0,68713.0,0.0,0.0,0.0,0.0,0.125,0.8178710100000001,4.932250999999998,0.0,-62346.0,0.125,0.0,0.0,0.0,0.125,0.490722606,4.963769999999998,0.0,60578.0,0.0,0.0,0.0,0.0,0.125,3.3776852010000002,0.01,0.0,-38312.0,0.125,0.0,0.0,0.0,0.25,1.6052244450000002,0.01,0.0,0.33000001311302185,-0.5799999833106995,53.369998931884766,-0.01019287109375,0.0050048828125,1.01934814453125,35.56999969482422,0.0,0.0,-1.5068359375,-2.3487548828125,Closing,0.0,0.0,-189.0,0.0,0.0,0.0,0.0,0.0,
1.4173530000000027,0.0,0.0,68713.0,0.0,0.0,0.0,0.0,0.125,0.8178710100000001,4.932250999999998,0.0,-62346.0,0.0,0.0,0.0,0.0,0.125,0.490722606,4.963769999999998,0.0,60578.0,0.0,0.0,0.0,0.0,0.125,3.3776852010000002,0.01,0.0,-38312.0,0.125,0.0,0.0,0.0,0.25,1.6052244450000002,0.01,0.0,0.3400000035762787,-0.5699999928474426,53.36000061035156,-0.00616455078125,0.00372314453125,1.02197265625,35.56999969482422,0.0,0.0,-1.5068359375,-2.3487548828125,Closing,0.0,0.0,-189.0,0.0,0.0,0.0,0.0,0.0,
1.6174659999999859,0.0,0.0,68713.0,0.0,0.0,0.0,0.0,0.125,0.8178710100000001,4.932250999999998,0.0,-62346.0,0.125,0.0,0.0,0.0,0.125,0.490722606,4.963769999999998,0.0,60578.0,0.0,0.0,0.0,0.0,0.125,3.3776852010000002,0.01,0.0,-38312.0,0.125,0.0,0.0,0.0,0.25,1.6052244450000002,0.01,0.0,0.33000001311302185,-0.5799999833106995,53.36000061035156,-0.0091552734375,0.0068359375,1.0228271484375,35.56999969482422,0.0,1.0,-1.5068359375,-2.3487548828125,Closing,0.0,0.0,-189.0,0.0,0.0,0.0,0.0,0.0,
1.8130380000000004,0.0,0.0,68713.0,0.0,0.0,0.0,0.0,0.125,0.8166503070000001,4.932250999999998,0.0,-62346.0,0.125,0.0,0.0,0.0,0.125,0.490722606,4.963769999999998,0.0,60578.0,0.0,0.0,0.0,0.0,0.125,3.3776852010000002,0.01,0.0,-38312.0,0.125,0.0,0.0,0.0,0.25,1.6052244450000002,0.01,0.0,0.33000001311302185,-0.5699999928474426,53.36000061035156,-0.0103759765625,0.0057373046875,1.023193359375,35.56999969482422,0.0,0.0,-1.5068359375,-2.3487548828125,Closing,0.0,0.0,-189.0,0.0,0.0,0.0,0.0,0.0,
2.0048029999999852,0.0,0.0,68713.0,0.0,0.0,0.0,0.0,0.125,0.8166503070000001,4.932250999999998,0.0,-62346.0,0.0,0.0,0.0,0.0,0.125,0.490722606,4.963769999999998,0.0,60578.0,0.0,0.0,0.0,0.0,0.125,3.3789059040000002,0.01,0.0,-38312.0,0.125,0.0,0.0,0.0,0.25,1.6052244450000002,0.01,0.0,0.33000001311302185,-0.5699999928474426,53.36000061035156,-0.009033203125,0.0079345703125,1.02960205078125,35.56999969482422,0.0,2.0,-1.5068359375,-2.3487548828125,Closing,0.0,0.0,-189.0,0.0,0.0,0.0,0.0,0.0,
2.213391000000003,0.0,0.0,68713.0,0.0,0.0,0.0,0.0,0.125,0.8166503070000001,4.932250999999998,0.0,-62346.0,0.125,0.0,0.0,0.0,0.125,0.490722606,4.963769999999998,0.0,60578.0,0.0,0.0,0.0,0.0,0.125,3.3776852010000002,0.01,0.0,-38312.0,0.125,0.0,0.0,0.0,0.25,1.6052244450000002,0.01,0.0,0.33000001311302185,-0.5699999928474426,53.36000061035156,-0.0086669921875,0.0076904296875,1.0223388671875,35.599998474121094,0.0,2.0,-1.5068359375,-2.3487548828125,Closing,0.0,0.0,-189.0,0.0,0.0,0.0,0.0,0.0,
2.416247000000003,0.0,0.0,68713.0,0.0,0.0,0.0,0.0,0.125,0.8166503070000001,4.932250999999998,0.0,-62346.0,0.125,0.0,0.0,0.0,0.125,0.490722606,4.963769999999998,0.0,60578.0,0.0,0.0,0.0,0.0,0.125,3.3776852010000002,0.01,0.0,-38312.0,0.125,0.0,0.0,0.0,0.25,1.6052244450000002,0.01,0.0,0.33000001311302185,-0.5699999928474426,53.36000061035156,-0.00689697265625,0.00531005859375,1.0223388671875,35.599998474121094,0.0,1.0,-1.5068359375,-2.3487548828125,Closing,0.0,0.0,-189.0,0.0,0.0,0.0,0.0,0.0,
2.6126169999999984,0.0,0.0,68707.0,0.375,-52.5,-330.70866018533707,0.0,1.0,1.339111191,0.5498168668524864,0.0,-62355.0,0.5,-165.0,-330.70866018533707,0.0,0.5,0.023193357,4.41043958977222,0.0,60576.0,0.875,0.0,-330.70866018533707,0.0,1.0,2.7465817500000003,4.389674732977291,0.0,-38320.0,0.625,-37.5,-330.70866018533707,0.0,1.0,2.12402322,0.552687206278561,0.0,0.3199999928474426,-0.5899999737739563,53.66999816894531,-0.03082275390625,-1.220703125E-4,1.06964111328125,35.599998474121094,0.0,-16.0,-1.5068359375,-2.3487548828125,Closing,0.0,0.0,-189.0,0.0,0.0,0.0,0.0,0.0,
2.8152950000000128,0.0,0.0,68696.0,0.0,0.0,0.0,0.0,0.25,1.5063475020000001,0.5498168668524864,0.0,-62373.0,0.125,0.0,0.0,0.0,0.0,4.645995618000001,4.41043958977222,0.0,60576.0,0.0,0.0,0.0,0.0,0.0,2.57568333,4.389674732977291,0.0,-38324.0,0.125,-7.5,0.0,0.0,0.25,2.3242185120000003,0.552687206278561,0.0,0.33000001311302185,-0.5899999737739563,54.959999084472656,-0.00421142578125,0.0096435546875,0.97296142578125,35.56999969482422,0.0,6.0,-1.5057373046875,-2.3486785888671875,Closing,0.0,0.0,-189.0,0.0,0.0,0.0,0.0,0.0,
3.015972999999998,0.0,0.0,68696.0,0.0,0.0,0.0,0.0,0.375,1.3720701720000001,0.5498168668524864,0.0,-62373.0,0.0,0.0,0.0,0.0,0.25,4.896239733000001,4.41043958977222,0.0,60575.0,0.0,0.0,0.0,0.0,0.25,2.833251663,4.389674732977291,0.0,-38326.0,0.125,0.0,0.0,0.0,0.25,2.181396261,0.552687206278561,0.0,0.3499999940395355,-0.5799999833106995,54.52000045776367,-0.00335693359375,-0.00311279296875,1.0269775390625,35.56999969482422,0.0,-3.0,-1.5055694580078125,-2.3482208251953125,Closing,0.0,0.0,-189.0,0.0,0.0,0.0,0.0,0.0,
3.215095000000001,0.0,0.0,68696.0,0.0,0.0,0.0,0.0,0.125,1.3476561120000001,0.5498168668524864,0.0,-62373.0,0.125,0.0,0.0,0.0,0.125,0.06469725900000001,4.41043958977222,0.0,60575.0,0.0,0.0,0.0,0.0,0.125,2.885741892,4.389674732977291,0.0,-38326.0,0.0,0.0,0.0,0.0,0.125,2.142333765,0.552687206278561,0.0,0.3499999940395355,-0.5799999833106995,54.27000045776367,-0.0196533203125,-6.7138671875E-4,1.03973388671875,35.59000015258789,0.0,-10.0,-1.5055694580078125,-2.3483428955078125,Closing,0.0,0.0,-189.0,0.0,0.0,0.0,0.0,0.0,
3.415418000000005,0.0,0.0,68696.0,0.0,0.0,0.0,0.0,0.125,1.3476561120000001,0.5498168668524864,0.0,-62373.0,0.0,0.0,0.0,0.0,0.25,4.946288556,4.41043958977222,0.0,60575.0,0.0,0.0,0.0,0.0,0.125,2.828368851,4.389674732977291,0.0,-38326.0,0.125,0.0,0.0,0.0,0.25,2.142333765,0.552687206278561,0.0,0.3400000035762787,-0.5699999928474426,54.2599983215332,-0.0087890625,0.0126953125,1.02581787109375,35.59000015258789,0.0,6.0,-1.5055694580078125,-2.3483428955078125,Closing,0.0,0.0,-189.0,0.0,0.0,0.0,0.0,0.0,
3.614486999999994,0.0,0.0,68696.0,0.0,0.0,0.0,0.0,0.125,1.3464354090000001,0.5498168668524864,0.0,-62373.0,0.0,0.0,0.0,0.0,0.25,4.935302229,4.41043958977222,0.0,60575.0,0.0,0.0,0.0,0.0,0.125,2.8039547910000002,4.389674732977291,0.0,-38326.0,0.0,0.0,0.0,0.0,0.25,2.142333765,0.552687206278561,0.0,0.3400000035762787,-0.5699999928474426,54.2599983215332,-0.00994873046875,0.0093994140625,1.033447265625,35.59000015258789,0.0,2.0,-1.5055694580078125,-2.3483428955078125,Closing,0.0,0.0,-189.0,0.0,0.0,0.0,0.0,0.0,
3.814606,0.0,0.0,68696.0,0.0,0.0,0.0,0.0,0.125,1.3476561120000001,0.5498168668524864,0.0,-62373.0,0.125,0.0,0.0,0.0,0.125,4.935302229,4.41043958977222,0.0,60575.0,0.0,0.0,0.0,0.0,0.0,2.8039547910000002,4.389674732977291,0.0,-38326.0,0.0,0.0,0.0,0.0,0.25,2.142333765,0.552687206278561,0.0,0.3400000035762787,-0.5699999928474426,54.2599983215332,-0.01348876953125,0.00732421875,1.017578125,35.54999923706055,0.0,0.0,-1.5055694580078125,-2.3483428955078125,Closing,0.0,0.0,-189.0,0.0,0.0,0.0,0.0,0.0,
4.0179580000000135,0.0,0.0,68696.0,0.0,0.0,0.0,0.0,0.125,1.3476561120000001,0.5498168668524864,0.0,-62373.0,0.125,0.0,0.0,0.0,0.125,4.934081526,4.41043958977222,0.0,60575.0,0.0,0.0,0.0,0.0,0.0,2.805175494,4.389674732977291,0.0,-38326.0,0.125,0.0,0.0,0.0,0.25,2.142333765,0.552687206278561,0.0,0.3400000035762787,-0.5799999833106995,54.2599983215332,-0.00909423828125,0.00738525390625,1.0191650390625,35.54999923706055,0.0,1.0,-1.5055694580078125,-2.3483428955078125,Closing,0.0,0.0,-189.0,0.0,0.0,0.0,0.0,0.0,
4.215190999999992,0.0,0.0,68703.0,0.0,37.5,137.8125,0.0,1.0,0.8447264760000001,0.01,0.0,-62377.0,0.125,-22.5,-137.8125,0.0,0.75,0.538330023,0.01,0.0,60575.0,0.125,0.0,137.8125,0.0,1.0,3.438720351,0.01,0.0,-38326.0,0.375,0.0,-137.8125,0.0,1.0,1.470947115,0.01,0.0,0.3499999940395355,-0.5799999833106995,53.9900016784668,0.0263671875,0.0091552734375,1.022216796875,35.59000015258789,0.0,23.0,-1.5063629150390625,-2.3491668701171875,Closing,0.0,0.0,-189.0,0.0,0.0,0.0,0.0,0.0,
4.415728000000003,0.0,0.0,68733.0,1.25,232.5,531.5625,0.0,0.25,0.664062432,0.01,0.0,-62407.0,4.5,-112.5,-531.5625,0.0,0.25,0.7128905520000001,0.01,0.0,60615.0,2.375,225.0,531.5625,0.0,0.125,3.555907839,0.01,0.0,-38348.0,2.5,-135.0,-531.5625,0.0,0.375,1.53808578,0.01,0.0,0.33000001311302185,-0.09000000357627869,53.810001373291016,-0.025634765625,0.01300048828125,1.17266845703125,35.59000015258789,0.0,-9.0,-1.501861572265625,-2.35443115234375,Closing,0.0,0.0,-189.0,0.0,0.0,0.0,0.0,0.0,
4.603054999999993,0.0,0.0,68787.0,3.125,202.5,531.5625,0.0,0.375,0.8032225740000001,0.01,0.0,-62446.0,6.125,-270.0,-531.5625,0.0,0.25,0.5810546280000001,0.01,0.0,60642.0,3.75,210.0,531.5625,0.0,0.25,3.338622705,0.01,0.0,-38382.0,3.375,-255.0,-531.5625,0.0,0.375,1.652831862,0.01,0.0,0.3100000023841858,0.3199999928474426,54.20000076293945,0.113037109375,0.0526123046875,1.09283447265625,35.59000015258789,0.0,100.0,-1.4973602294921875,-2.3714447021484375,Closing,0.0,0.0,-189.0,0.0,0.0,0.0,0.0,0.0,
4.816190000000002,0.0,0.0,68913.0,2.375,480.0,531.5625,0.0,0.125,0.847167882,0.01,0.0,-62575.0,4.5,-517.5,-531.5625,0.0,0.25,0.523681587,0.01,0.0,60762.0,2.875,495.0,531.5625,0.0,0.0,3.242187168,0.01,0.0,-38500.0,2.625,-487.5,-531.5625,0.0,0.25,1.7370603690000002,0.01,0.0,0.30000001192092896,1.0099999904632568,54.31999969482422,0.09259033203125,0.06549072265625,1.08270263671875,35.58000183105469,0.0,91.0,-1.485107421875,-2.3995513916015625,Closing,0.0,0.0,-189.0,0.0,0.0,0.0,0.0,0.0,
4.972809000000009,0.0,0.0,69002.0,1.875,577.5,551.25,0.0,0.25,0.847167882,0.01,0.0,-62667.0,3.25,-600.0,-551.25,0.0,0.0,0.520019478,0.01,0.0,60853.0,2.0,592.5,551.25,0.0,0.125,3.3105465360000004,0.01,0.0,-38581.0,2.5,-525.0,-551.25,0.0,0.25,1.649169753,0.01,0.0,0.33000001311302185,1.0399999618530273,54.33000183105469,-0.0443115234375,0.02459716796875,1.33746337890625,35.58000183105469,0.0,-26.0,-1.4677276611328125,-2.413116455078125,Closing,0.0,0.0,-189.0,0.0,0.0,0.0,0.0,0.0,
5.203369999999995,0.0,0.0,69169.0,0.0,487.5,0.0,0.0,0.25,0.8557128030000001,0.01,0.0,-62836.0,0.125,-472.5,0.0,0.0,0.0,0.510253854,0.01,0.0,61028.0,0.0,382.5,0.0,0.0,0.0,3.387450825,0.01,0.0,-38757.0,0.125,-480.0,0.0,0.0,0.125,1.6052244450000002,0.01,0.0,0.4099999964237213,0.2800000011920929,54.22999954223633,-0.0911865234375,-0.01287841796875,0.95928955078125,35.58000183105469,0.0,-72.0,-1.451507568359375,-2.40216064453125,Closing,0.0,0.0,-189.0,0.0,0.0,0.0,0.0,0.0,
5.417181000000012,0.0,0.0,69241.0,0.0,75.0,0.0,0.0,0.25,0.847167882,0.01,0.0,-62928.0,0.125,-90.0,0.0,0.0,0.0,0.506591745,0.01,0.0,61136.0,0.0,202.5,0.0,0.0,0.125,3.382568013,0.01,0.0,-38857.0,0.125,-22.5,0.0,0.0,0.25,1.600341633,0.01,0.0,0.4699999988079071,-1.6200000047683716,54.02000045776367,0.13043212890625,-0.034912109375,0.8763427734375,35.52000045776367,0.0,57.0,-1.4683685302734375,-2.3492889404296875,Closing,0.0,0.0,-189.0,0.0,0.0,0.0,0.0,0.0,
5.615181000000011,0.0,0.0,69227.0,0.125,-7.5,-257.95276433229446,0.0,0.25,0.8410643670000001,4.932250999999998,0.0,-62913.0,0.375,67.5,257.95276433229446,0.0,0.0,0.505371042,4.963769999999998,0.0,61130.0,0.375,-52.5,-257.95276433229446,0.0,0.125,3.382568013,0.01,0.0,-38840.0,0.5,0.0,257.95276433229446,0.0,0.25,1.600341633,0.01,0.0,0.4300000071525574,-0.8999999761581421,54.029998779296875,0.00250244140625,0.02880859375,0.99639892578125,35.52000045776367,0.0,27.0,-1.4773101806640625,-2.2974090576171875,Closing,0.0,0.0,-189.0,0.0,0.0,0.0,0.0,0.0,
5.81637400000001,0.0,0.0,69222.0,0.125,0.0,-178.58268588781357,0.0,0.25,0.834960852,4.932250999999998,0.0,-62901.0,1.125,22.5,178.58268588781357,0.0,0.0,0.49438471500000003,4.963769999999998,0.0,61113.0,0.625,-7.5,-178.58268588781357,0.0,0.125,3.383788716,0.01,0.0,-38828.0,0.75,30.0,178.58268588781357,0.0,0.25,1.595458821,0.01,0.0,0.4699999988079071,-1.100000023841858,53.959999084472656,-0.01580810546875,-0.01019287109375,1.054443359375,35.540000915527344,0.0,-12.0,-1.478118896484375,-2.2956390380859375,Closing,0.0,0.0,-189.0,0.0,0.0,0.0,0.0,0.0,
5.996871000000014,0.0,0.0,69171.0,4.75,-270.0,-793.700784444809,0.0,0.25,0.8422850700000001,4.932250999999998,0.0,-62862.0,11.125,262.5,793.700784444809,0.0,0.125,0.49438471500000003,4.963769999999998,0.0,61079.0,5.625,-292.5,-793.700784444809,0.0,0.125,3.4204098060000003,0.01,0.0,-38795.0,5.25,262.5,793.700784444809,0.0,0.25,1.541747889,0.01,0.0,0.3799999952316284,-2.359999895095825,54.09000015258789,-0.144775390625,0.022705078125,1.040771484375,35.540000915527344,0.0,-47.0,-1.488433837890625,-2.2820892333984375,Closing,0.0,0.0,-189.0,0.0,0.0,0.0,0.0,0.0,
6.2058349999999916,0.0,0.0,69050.0,0.0,-442.5,0.0,0.0,0.25,0.837402258,4.932250999999998,0.0,-62761.0,0.0,285.0,0.0,0.0,0.125,0.510253854,4.963769999999998,0.0,60960.0,0.0,-315.0,0.0,0.0,0.125,3.3679195770000003,0.01,0.0,-38699.0,0.125,307.5,0.0,0.0,0.25,1.638183426,0.01,0.0,0.27000001072883606,-1.4600000381469727,54.58000183105469,0.08306884765625,0.03887939453125,0.8045654296875,35.540000915527344,0.0,88.0,-1.489532470703125,-2.2595977783203125,Closing,0.0,0.0,-189.0,0.0,0.0,0.0,0.0,0.0,
6.481121000000014,0.0,0.0,69019.0,0.0,-82.5,0.0,0.0,0.25,0.8312987430000001,4.932250999999998,0.0,-62710.0,0.125,75.0,0.0,0.0,0.0,0.509033151,4.963769999999998,0.0,60910.0,0.0,-97.5,0.0,0.0,0.0,3.333739893,0.01,0.0,-38644.0,0.125,60.0,0.0,0.0,0.125,1.6625974860000001,0.01,0.0,0.3199999928474426,-0.4699999988079071,54.70000076293945,0.08148193359375,0.02288818359375,0.9534912109375,35.560001373291016,0.0,65.0,-1.458831787109375,-2.2658843994140625,Closing,0.0,0.0,-189.0,0.0,0.0,0.0,0.0,0.0,
6.635026000000012,0.0,0.0,69019.0,0.0,0.0,0.0,0.0,0.125,0.832519446,4.932250999999998,0.0,-62709.0,0.0,0.0,0.0,0.0,0.0,0.510253854,4.963769999999998,0.0,60909.0,0.0,0.0,0.0,0.0,0.0,3.338622705,0.01,0.0,-38644.0,0.125,0.0,0.0,0.0,0.25,1.6625974860000001,0.01,0.0,0.3100000023841858,-0.4099999964237213,54.630001068115234,-0.02545166015625,0.00457763671875,1.00238037109375,35.560001373291016,0.0,-11.0,-1.451202392578125,-2.2699432373046875,Closing,0.0,0.0,-189.0,0.0,0.0,0.0,0.0,0.0,
6.824035000000004,0.0,0.0,69019.0,0.0,0.0,0.0,0.0,0.125,0.8312987430000001,4.932250999999998,0.0,-62709.0,0.0,0.0,0.0,0.0,0.0,0.510253854,4.963769999999998,0.0,60909.0,0.0,0.0,0.0,0.0,0.0,3.338622705,0.01,0.0,-38644.0,0.125,0.0,0.0,0.0,0.25,1.6638181890000001,0.01,0.0,0.3100000023841858,-0.5400000214576721,54.619998931884766,-0.0181884765625,0.0028076171875,1.02288818359375,35.52000045776367,0.0,-7.0,-1.451202392578125,-2.2696533203125,Closing,0.0,0.0,-189.0,0.0,0.0,0.0,0.0,0.0,
6.964821999999986,0.0,0.0,69019.0,0.0,0.0,0.0,0.0,0.125,0.832519446,4.932250999999998,0.0,-62709.0,0.125,0.0,0.0,0.0,0.0,0.510253854,4.963769999999998,0.0,60909.0,0.0,0.0,0.0,0.0,0.0,3.338622705,0.01,0.0,-38644.0,0.125,0.0,0.0,0.0,0.25,1.6625974860000001,0.01,0.0,0.3100000023841858,-0.5099999904632568,54.630001068115234,-9.765625E-4,-0.00238037109375,1.0267333984375,35.52000045776367,0.0,-1.0,-1.451202392578125,-2.2696533203125,Closing,0.0,0.0,-189.0,0.0,0.0,0.0,0.0,0.0,
7.114415000000008,0.0,0.0,69019.0,0.0,0.0,0.0,0.0,0.125,0.832519446,4.932250999999998,0.0,-62709.0,0.0,0.0,0.0,0.0,0.0,0.510253854,4.963769999999998,0.0,60909.0,0.0,0.0,0.0,0.0,0.0,3.338622705,0.01,0.0,-38644.0,0.125,0.0,0.0,0.0,0.25,1.6625974860000001,0.01,0.0,0.30000001192092896,-0.5099999904632568,54.630001068115234,-0.01641845703125,-0.00225830078125,1.01806640625,35.52000045776367,0.0,-10.0,-1.451202392578125,-2.2696533203125,Closing,0.0,0.0,-189.0,0.0,0.0,0.0,0.0,0.0,
7.299323999999993,0.0,0.0,69019.0,0.0,0.0,0.0,0.0,0.125,0.832519446,4.932250999999998,0.0,-62709.0,0.125,0.0,0.0,0.0,0.0,0.510253854,4.963769999999998,0.0,60909.0,0.0,0.0,0.0,0.0,0.0,3.338622705,0.01,0.0,-38644.0,0.0,0.0,0.0,0.0,0.25,1.6625974860000001,0.01,0.0,0.30000001192092896,-0.5,54.630001068115234,-0.0042724609375,0.00286865234375,1.01556396484375,35.540000915527344,0.0,0.0,-1.451202392578125,-2.2696533203125,Closing,0.0,0.0,-189.0,0.0,0.0,0.0,0.0,0.0,
7.4905819999999945,0.0,0.0,69019.0,0.0,0.0,0.0,0.0,0.125,0.832519446,4.932250999999998,0.0,-62709.0,0.125,0.0,0.0,0.0,0.0,0.510253854,4.963769999999998,0.0,60909.0,0.0,0.0,0.0,0.0,0.0,3.338622705,0.01,0.0,-38644.0,0.0,0.0,0.0,0.0,0.25,1.6625974860000001,0.01,0.0,0.30000001192092896,-0.5199999809265137,54.630001068115234,-0.0078125,0.0067138671875,1.026123046875,35.540000915527344,0.0,1.0,-1.451202392578125,-2.2696533203125,Closing,0.0,0.0,-189.0,0.0,0.0,0.0,0.0,0.0,
7.659116000000009,0.0,0.0,69019.0,0.0,0.0,0.0,0.0,0.125,0.832519446,4.932250999999998,0.0,-62709.0,0.125,0.0,0.0,0.0,0.0,0.510253854,4.963769999999998,0.0,60909.0,0.0,0.0,0.0,0.0,0.0,3.338622705,0.01,0.0,-38644.0,0.125,0.0,0.0,0.0,0.25,1.6625974860000001,0.01,0.0,0.30000001192092896,-0.5,54.630001068115234,-0.007080078125,0.006591796875,1.017822265625,35.540000915527344,0.0,2.0,-1.451202392578125,-2.2696533203125,Closing,0.0,0.0,-189.0,0.0,0.0,0.0,0.0,0.0,
7.806195999999996,0.0,0.0,69019.0,0.0,0.0,0.0,0.0,0.125,0.8312987430000001,4.932250999999998,0.0,-62709.0,0.125,0.0,0.0,0.0,0.0,0.510253854,4.963769999999998,0.0,60909.0,0.0,0.0,0.0,0.0,0.0,3.338622705,0.01,0.0,-38644.0,0.0,0.0,0.0,0.0,0.25,1.6625974860000001,0.01,0.0,0.28999999165534973,-0.5099999904632568,54.630001068115234,-0.00836181640625,0.00506591796875,1.0257568359375,35.540000915527344,0.0,0.0,-1.451202392578125,-2.2696533203125,Closing,0.0,0.0,-189.0,0.0,0.0,0.0,0.0,0.0,
7.9720620000000055,0.0,0.0,69019.0,0.0,0.0,0.0,0.0,0.125,0.833740149,4.932250999999998,0.0,-62709.0,0.125,0.0,0.0,0.0,0.0,0.509033151,4.963769999999998,0.0,60909.0,0.0,0.0,0.0,0.0,0.0,3.339843408,0.01,0.0,-38644.0,0.125,0.0,0.0,0.0,0.25,1.6625974860000001,0.01,0.0,0.30000001192092896,-0.5,54.630001068115234,-0.010498046875,0.004150390625,1.0296630859375,35.540000915527344,0.0,-1.0,-1.451202392578125,-2.2696533203125,Closing,0.0,0.0,-189.0,0.0,0.0,0.0,0.0,0.0,
8.160321999999985,0.0,0.0,69019.0,0.0,0.0,0.0,0.0,0.125,0.8312987430000001,4.932250999999998,0.0,-62709.0,0.125,0.0,0.0,0.0,0.0,0.510253854,4.963769999999998,0.0,60909.0,0.0,0.0,0.0,0.0,0.0,3.338622705,0.01,0.0,-38644.0,0.125,0.0,0.0,0.0,0.25,1.6625974860000001,0.01,0.0,0.30000001192092896,-0.5099999904632568,54.63999938964844,-0.00543212890625,0.0069580078125,1.01910400390625,35.540000915527344,0.0,3.0,-1.451202392578125,-2.2696533203125,Closing,0.0,0.0,-189.0,0.0,0.0,0.0,0.0,0.0,
8.30937400000001,0.0,0.0,69019.0,0.0,0.0,0.0,0.0,0.125,0.832519446,4.932250999999998,0.0,-62709.0,0.0,0.0,0.0,0.0,0.0,0.510253854,4.963769999999998,0.0,60909.0,0.0,0.0,0.0,0.0,0.0,3.338622705,0.01,0.0,-38644.0,0.0,0.0,0.0,0.0,0.25,1.6625974860000001,0.01,0.0,0.28999999165534973,-0.5099999904632568,54.630001068115234,-0.01129150390625,0.006103515625,1.01953125,35.54999923706055,0.0,0.0,-1.451202392578125,-2.2696533203125,Closing,0.0,0.0,-189.0,0.0,0.0,0.0,0.0,0.0,
8.452334000000002,0.0,0.0,69019.0,0.0,0.0,0.0,0.0,0.125,0.832519446,4.932250999999998,0.0,-62709.0,0.0,0.0,0.0,0.0,0.0,0.510253854,4.963769999999998,0.0,60909.0,0.0,0.0,0.0,0.0,0.0,3.339843408,0.01,0.0,-38644.0,0.125,0.0,0.0,0.0,0.25,1.6625974860000001,0.01,0.0,0.30000001192092896,-0.5099999904632568,54.630001068115234,-0.00555419921875,0.00665283203125,1.0205078125,35.54999923706055,0.0,3.0,-1.451202392578125,-2.2696533203125,Closing,0.0,0.0,-189.0,0.0,0.0,0.0,0.0,0.0,
8.624049,0.0,0.0,69019.0,0.0,0.0,0.0,0.0,0.125,0.832519446,4.932250999999998,0.0,-62709.0,0.125,0.0,0.0,0.0,0.0,0.510253854,4.963769999999998,0.0,60909.0,0.0,0.0,0.0,0.0,0.0,3.338622705,0.01,0.0,-38644.0,0.125,0.0,0.0,0.0,0.25,1.6625974860000001,0.01,0.0,0.30000001192092896,-0.5099999904632568,54.630001068115234,-0.00714111328125,0.00799560546875,1.02191162109375,35.54999923706055,0.0,3.0,-1.451202392578125,-2.2696533203125,Closing,0.0,0.0,-189.0,0.0,0.0,0.0,0.0,0.0,
8.798834000000003,0.0,0.0,69019.0,0.0,0.0,0.0,0.0,0.125,0.832519446,4.932250999999998,0.0,-62709.0,0.125,0.0,0.0,0.0,0.0,0.510253854,4.963769999999998,0.0,60909.0,0.0,0.0,0.0,0.0,0.0,3.339843408,0.01,0.0,-38644.0,0.125,0.0,0.0,0.0,0.25,1.6625974860000001,0.01,0.0,0.30000001192092896,-0.5099999904632568,54.630001068115234,-0.00933837890625,0.00732421875,1.01947021484375,35.58000183105469,0.0,1.0,-1.451202392578125,-2.2696533203125,Closing,0.0,0.0,-189.0,0.0,0.0,0.0,0.0,0.0,
8.966151000000012,0.0,0.0,69019.0,0.0,0.0,0.0,0.0,0.125,0.832519446,4.932250999999998,0.0,-62709.0,0.125,0.0,0.0,0.0,0.0,0.510253854,4.963769999999998,0.0,60909.0,0.0,0.0,0.0,0.0,0.0,3.338622705,0.01,0.0,-38644.0,0.125,0.0,0.0,0.0,0.25,1.6625974860000001,0.01,0.0,0.30000001192092896,-0.5099999904632568,54.630001068115234,-0.0093994140625,0.0047607421875,1.0194091796875,35.58000183105469,0.0,0.0,-1.451202392578125,-2.2696533203125,Closing,0.0,0.0,-189.0,0.0,0.0,0.0,0.0,0.0,
9.10923000000001,0.0,0.0,69019.0,0.0,0.0,0.0,0.0,0.125,0.8312987430000001,4.932250999999998,0.0,-62709.0,0.125,0.0,0.0,0.0,0.0,0.510253854,4.963769999999998,0.0,60909.0,0.0,0.0,0.0,0.0,0.0,3.339843408,0.01,0.0,-38644.0,0.125,0.0,0.0,0.0,0.25,1.6625974860000001,0.01,0.0,0.30000001192092896,-0.5099999904632568,54.630001068115234,-0.00653076171875,0.00543212890625,1.0145263671875,35.58000183105469,0.0,1.0,-1.451202392578125,-2.2696533203125,Closing,0.0,0.0,-189.0,0.0,0.0,0.0,0.0,0.0,
9.290429000000003,0.0,0.0,68991.0,1.875,-187.5,-654.8031377792358,0.0,1.625,1.6552732680000002,1.2330627499999984,0.0,-62682.0,4.625,157.5,654.8031377792358,0.0,1.5,1.224365109,1.2409424999999985,0.0,60916.0,2.625,90.0,654.8031377792358,0.0,1.5,2.554931379,3.7052999999999985,0.0,-38631.0,2.125,157.5,654.8031377792358,0.0,1.5,2.62451145,1.2394999999999985,0.0,0.1599999964237213,-0.6700000166893005,54.06999969482422,0.0445556640625,-0.06939697265625,0.9344482421875,35.58000183105469,0.0,-25.0,-1.4551849365234375,-2.267547607421875,Closing,0.0,0.0,-189.0,0.0,0.0,0.0,0.0,0.0,
9.449548000000009,0.0,0.0,68982.0,0.0,0.0,0.0,0.0,0.875,2.152099389,1.2330627499999984,0.0,-62670.0,0.125,-15.0,0.0,0.0,0.75,1.9433591760000002,1.2409424999999985,0.0,60936.0,0.0,45.0,0.0,0.0,0.625,1.9506833940000001,3.7052999999999985,0.0,-38614.0,0.125,0.0,0.0,0.0,0.375,3.2751461490000002,1.2394999999999985,0.0,0.10000000149011612,-0.4699999988079071,53.43000030517578,-0.13140869140625,-0.013916015625,1.0035400390625,35.58000183105469,0.0,-86.0,-1.4610443115234375,-2.2707672119140625,Closing,0.0,0.0,-189.0,0.0,0.0,0.0,0.0,0.0,
9.606983000000007,0.0,0.0,68982.0,0.0,0.0,0.0,0.0,0.375,2.183837667,1.2330627499999984,0.0,-62676.0,0.125,0.0,0.0,0.0,0.25,1.955566206,1.2409424999999985,0.0,60940.0,0.0,22.5,0.0,0.0,0.125,1.9982908110000002,3.7052999999999985,0.0,-38613.0,0.125,7.5,0.0,0.0,0.5,3.1005856200000004,1.2394999999999985,0.0,0.2800000011920929,-0.5400000214576721,53.650001525878906,-0.04278564453125,-0.0284423828125,1.02813720703125,35.58000183105469,0.0,-46.0,-1.467926025390625,-2.27362060546875,Closing,0.0,0.0,-189.0,0.0,0.0,0.0,0.0,0.0,
9.761508999999991,0.0,0.0,68982.0,0.0,0.0,0.0,0.0,0.25,2.056884555,1.2330627499999984,0.0,-62676.0,0.125,0.0,0.0,0.0,0.25,1.726074042,1.2409424999999985,0.0,60940.0,0.0,0.0,0.0,0.0,0.125,2.1130368930000003,3.7052999999999985,0.0,-38608.0,0.125,22.5,0.0,0.0,0.5,2.753905968,1.2394999999999985,0.0,0.3700000047683716,-0.5299999713897705,53.61000061035156,-0.009765625,0.00653076171875,1.01287841796875,35.58000183105469,0.0,0.0,-1.471038818359375,-2.273681640625,Closing,0.0,0.0,-189.0,0.0,0.0,0.0,0.0,0.0,
9.913315000000003,0.0,0.0,68982.0,0.0,0.0,0.0,0.0,0.125,2.020263465,1.2330627499999984,0.0,-62676.0,0.125,0.0,0.0,0.0,0.25,1.6357420200000001,1.2409424999999985,0.0,60939.0,0.0,0.0,0.0,0.0,0.0,2.144775171,3.7052999999999985,0.0,-38606.0,0.125,0.0,0.0,0.0,0.25,2.7978512760000003,1.2394999999999985,0.0,0.33000001311302185,-0.49000000953674316,53.61000061035156,-0.013427734375,0.0042724609375,1.020751953125,35.560001373291016,0.0,-4.0,-1.471038818359375,-2.273681640625,Closing,0.0,0.0,-189.0,0.0,0.0,0.0,0.0,0.0,
10.088418000000004,0.0,0.0,68966.0,0.125,-90.0,-337.32282400131226,0.0,0.125,2.0068357320000003,1.2330627499999984,0.0,-62659.0,0.625,120.0,337.32282400131226,0.0,0.25,1.694335764,1.2409424999999985,0.0,60952.0,0.75,97.5,337.32282400131226,0.0,0.125,2.144775171,3.7052999999999985,0.0,-38606.0,0.75,0.0,337.32282400131226,0.0,0.25,2.817382524,1.2394999999999985,0.0,0.25,-0.5,53.619998931884766,-0.01287841796875,-0.036865234375,1.06561279296875,35.560001373291016,0.0,-35.0,-1.4715118408203125,-2.2739105224609375,Closing,0.0,0.0,-189.0,0.0,0.0,0.0,0.0,0.0,
10.25200899999999,0.0,0.0,68964.0,0.0,0.0,0.0,0.0,0.125,2.021484168,1.2330627499999984,0.0,-62658.0,0.125,0.0,0.0,0.0,0.25,1.722411933,1.2409424999999985,0.0,60956.0,0.0,0.0,0.0,0.0,0.125,2.144775171,3.7052999999999985,0.0,-38606.0,0.125,0.0,0.0,0.0,0.25,2.8454586930000003,1.2394999999999985,0.0,0.3499999940395355,-0.5099999904632568,53.61000061035156,-0.0018310546875,0.02667236328125,1.02105712890625,35.560001373291016,0.0,20.0,-1.471221923828125,-2.2735595703125,Closing,0.0,0.0,-189.0,0.0,0.0,0.0,0.0,0.0,
10.427897999999987,0.0,0.0,68964.0,0.0,0.0,0.0,0.0,0.125,2.020263465,1.2330627499999984,0.0,-62658.0,0.125,0.0,0.0,0.0,0.125,1.727294745,1.2409424999999985,0.0,60956.0,0.0,0.0,0.0,0.0,0.125,2.143554468,3.7052999999999985,0.0,-38606.0,0.125,0.0,0.0,0.0,0.125,2.8503415050000003,1.2394999999999985,0.0,0.30000001192092896,-0.5,53.61000061035156,-0.013427734375,0.01568603515625,1.02593994140625,35.560001373291016,0.0,5.0,-1.4709930419921875,-2.2735595703125,Closing,0.0,0.0,-189.0,0.0,0.0,0.0,0.0,0.0,
10.578847999999999,0.0,0.0,68964.0,0.0,0.0,0.0,0.0,0.125,2.020263465,1.2330627499999984,0.0,-62658.0,0.125,0.0,0.0,0.0,0.125,1.727294745,1.2409424999999985,0.0,60956.0,0.0,0.0,0.0,0.0,0.125,2.144775171,3.7052999999999985,0.0,-38606.0,0.125,0.0,0.0,0.0,0.125,2.8503415050000003,1.2394999999999985,0.0,0.3199999928474426,-0.5,53.61000061035156,-0.01031494140625,-0.00439453125,1.01495361328125,35.560001373291016,0.0,-8.0,-1.4709930419921875,-2.2735595703125,Closing,0.0,0.0,-189.0,0.0,0.0,0.0,0.0,0.0,
10.722420000000012,0.0,0.0,68964.0,0.0,0.0,0.0,0.0,0.125,2.019042762,1.2330627499999984,0.0,-62658.0,0.125,0.0,0.0,0.0,0.125,1.727294745,1.2409424999999985,0.0,60956.0,0.0,0.0,0.0,0.0,0.125,2.143554468,3.7052999999999985,0.0,-38606.0,0.125,0.0,0.0,0.0,0.125,2.8491208020000003,1.2394999999999985,0.0,0.3100000023841858,-0.5099999904632568,53.61000061035156,-0.01239013671875,0.0078125,1.02178955078125,35.560001373291016,0.0,0.0,-1.4709930419921875,-2.2735595703125,Closing,0.0,0.0,-189.0,0.0,0.0,0.0,0.0,0.0,
10.883105000000011,0.0,0.0,68964.0,0.625,0.0,-416.69290244579315,0.0,0.125,2.021484168,1.2330627499999984,0.0,-62657.0,2.125,15.0,416.69290244579315,0.0,0.125,1.723632636,1.2409424999999985,0.0,60956.0,1.125,0.0,416.69290244579315,0.0,0.125,2.13623025,3.7052999999999985,0.0,-38605.0,1.125,0.0,416.69290244579315,0.0,0.125,2.8491208020000003,1.2394999999999985,0.0,0.20999999344348907,-0.5,53.63999938964844,-0.02386474609375,-0.0263671875,1.01910400390625,35.56999969482422,0.0,-33.0,-1.47125244140625,-2.2735595703125,Closing,0.0,0.0,-189.0,0.0,0.0,0.0,0.0,0.0,
11.031076,0.0,0.0,68959.0,0.0,0.0,0.0,0.0,0.125,2.021484168,1.2330627499999984,0.0,-62655.0,0.125,-7.5,0.0,0.0,0.125,1.727294745,1.2409424999999985,0.0,60961.0,0.0,7.5,0.0,0.0,0.125,2.144775171,3.7052999999999985,0.0,-38602.0,0.125,7.5,0.0,0.0,0.125,2.8503415050000003,1.2394999999999985,0.0,0.36000001430511475,-0.5400000214576721,53.58000183105469,-0.018798828125,0.0225830078125,1.09375,35.56999969482422,0.0,7.0,-1.4703826904296875,-2.272857666015625,Closing,0.0,0.0,-189.0,0.0,0.0,0.0,0.0,0.0,
11.186562999999994,0.0,0.0,68960.0,0.0,7.5,0.0,0.0,0.125,2.021484168,1.2330627499999984,0.0,-62655.0,0.0,0.0,0.0,0.0,0.125,1.727294745,1.2409424999999985,0.0,60961.0,0.0,0.0,0.0,0.0,0.125,2.144775171,3.7052999999999985,0.0,-38602.0,0.125,0.0,0.0,0.0,0.125,2.8503415050000003,1.2394999999999985,0.0,0.28999999165534973,-0.5199999809265137,53.599998474121094,0.01300048828125,-0.0164794921875,1.00732421875,35.56999969482422,0.0,-4.0,-1.470062255859375,-2.2727203369140625,Closing,0.0,0.0,-189.0,0.0,0.0,0.0,0.0,0.0,
11.348765000000014,0.0,0.0,68960.0,0.0,0.0,0.0,0.0,0.125,2.021484168,1.2330627499999984,0.0,-62655.0,0.125,0.0,0.0,0.0,0.125,1.727294745,1.2409424999999985,0.0,60961.0,0.0,0.0,0.0,0.0,0.125,2.143554468,3.7052999999999985,0.0,-38602.0,0.125,0.0,0.0,0.0,0.125,2.8503415050000003,1.2394999999999985,0.0,0.3199999928474426,-0.5,53.599998474121094,-0.00390625,4.8828125E-4,1.02154541015625,35.56999969482422,0.0,-1.0,-1.470062255859375,-2.27288818359375,Closing,0.0,0.0,-189.0,0.0,0.0,0.0,0.0,0.0,
11.517127000000007,0.0,0.0,68960.0,0.0,0.0,0.0,0.0,0.125,2.021484168,1.2330627499999984,0.0,-62655.0,0.125,0.0,0.0,0.0,0.125,1.727294745,1.2409424999999985,0.0,60961.0,0.0,0.0,0.0,0.0,0.125,2.144775171,3.7052999999999985,0.0,-38602.0,0.125,0.0,0.0,0.0,0.125,2.8503415050000003,1.2394999999999985,0.0,0.3100000023841858,-0.5199999809265137,53.599998474121094,-0.01910400390625,0.008056640625,1.03619384765625,35.59000015258789,0.0,-3.0,-1.470062255859375,-2.27288818359375,Closing,0.0,0.0,-189.0,0.0,0.0,0.0,0.0,0.0,
11.68873000000001,0.0,0.0,68960.0,0.125,0.0,-188.50394099950788,0.0,0.125,2.034911901,1.2330627499999984,0.0,-62655.0,0.5,0.0,188.50394099950788,0.0,0.125,1.726074042,1.2409424999999985,0.0,60961.0,0.375,0.0,188.50394099950788,0.0,0.125,2.144775171,3.7052999999999985,0.0,-38602.0,0.5,0.0,188.50394099950788,0.0,0.125,2.8503415050000003,1.2394999999999985,0.0,0.30000001192092896,-0.5199999809265137,53.599998474121094,-0.01251220703125,0.00567626953125,1.02520751953125,35.59000015258789,0.0,-1.0,-1.470062255859375,-2.27288818359375,Closing,0.0,0.0,-189.0,0.0,0.0,0.0,0.0,0.0,
11.845068,0.0,0.0,68960.0,0.0,0.0,0.0,0.0,0.125,2.020263465,1.2330627499999984,0.0,-62655.0,0.125,0.0,0.0,0.0,0.125,1.727294745,1.2409424999999985,0.0,60961.0,0.0,0.0,0.0,0.0,0.125,2.144775171,3.7052999999999985,0.0,-38602.0,0.125,0.0,0.0,0.0,0.125,2.8503415050000003,1.2394999999999985,0.0,0.30000001192092896,-0.5199999809265137,53.599998474121094,-0.0047607421875,0.0057373046875,1.02227783203125,35.59000015258789,0.0,3.0,-1.470062255859375,-2.27288818359375,Closing,0.0,0.0,-189.0,0.0,0.0,0.0,0.0,0.0,
12.005062999999994,0.0,0.0,68960.0,0.125,0.0,-79.3700784444809,0.0,0.125,2.020263465,1.2330627499999984,0.0,-62655.0,0.125,0.0,79.3700784444809,0.0,0.125,1.727294745,1.2409424999999985,0.0,60961.0,0.125,0.0,79.3700784444809,0.0,0.125,2.143554468,3.7052999999999985,0.0,-38602.0,0.25,0.0,79.3700784444809,0.0,0.125,2.8491208020000003,1.2394999999999985,0.0,0.30000001192092896,-0.5199999809265137,53.61000061035156,-0.00909423828125,0.00433349609375,1.02716064453125,35.58000183105469,0.0,0.0,-1.470062255859375,-2.27288818359375,Closing,0.0,0.0,-189.0,0.0,0.0,0.0,0.0,0.0,
12.161165999999998,0.0,0.0,68960.0,0.0,0.0,0.0,0.0,0.25,2.020263465,1.2330627499999984,0.0,-62655.0,0.0,0.0,0.0,0.0,0.125,1.726074042,1.2409424999999985,0.0,60961.0,0.0,0.0,0.0,0.0,0.125,2.144775171,3.7052999999999985,0.0,-38602.0,0.125,0.0,0.0,0.0,0.125,2.8503415050000003,1.2394999999999985,0.0,0.30000001192092896,-0.5299999713897705,53.61000061035156,-0.01043701171875,0.00518798828125,1.02471923828125,35.58000183105469,0.0,0.0,-1.470062255859375,-2.27288818359375,Closing,0.0,0.0,-189.0,0.0,0.0,0.0,0.0,0.0,
12.324975999999996,0.0,0.0,68960.0,0.0,0.0,0.0,0.0,0.125,2.020263465,1.2330627499999984,0.0,-62655.0,0.125,0.0,0.0,0.0,0.125,1.727294745,1.2409424999999985,0.0,60961.0,0.0,0.0,0.0,0.0,0.125,2.143554468,3.7052999999999985,0.0,-38602.0,0.0,0.0,0.0,0.0,0.125,2.8503415050000003,1.2394999999999985,0.0,0.28999999165534973,-0.5400000214576721,53.599998474121094,-0.01251220703125,0.0062255859375,1.0211181640625,35.58000183105469,0.0,0.0,-1.470062255859375,-2.27288818359375,Closing,0.0,0.0,-189.0,0.0,0.0,0.0,0.0,0.0,
12.483989000000001,0.0,0.0,68960.0,0.0,0.0,0.0,0.0,0.125,2.021484168,1.2330627499999984,0.0,-62655.0,0.0,0.0,0.0,0.0,0.125,1.727294745,1.2409424999999985,0.0,60961.0,0.0,0.0,0.0,0.0,0.125,2.144775171,3.7052999999999985,0.0,-38602.0,0.125,0.0,0.0,0.0,0.125,2.8503415050000003,1.2394999999999985,0.0,0.28999999165534973,-0.5400000214576721,53.61000061035156,-0.013671875,0.00762939453125,1.01470947265625,35.58000183105469,0.0,0.0,-1.470062255859375,-2.27288818359375,Closing,0.0,0.0,-189.0,0.0,0.0,0.0,0.0,0.0,
12.632413,0.0,0.0,68960.0,0.0,0.0,0.0,0.0,0.125,2.020263465,1.2330627499999984,0.0,-62655.0,0.125,0.0,0.0,0.0,0.125,1.727294745,1.2409424999999985,0.0,60961.0,0.0,0.0,0.0,0.0,0.125,2.143554468,3.7052999999999985,0.0,-38602.0,0.125,0.0,0.0,0.0,0.125,2.8503415050000003,1.2394999999999985,0.0,0.30000001192092896,-0.5299999713897705,53.599998474121094,-0.009765625,0.00701904296875,1.0234375,35.58000183105469,0.0,1.0,-1.470062255859375,-2.27288818359375,Closing,0.0,0.0,-189.0,0.0,0.0,0.0,0.0,0.0,
12.790628999999987,0.0,0.0,68960.0,0.125,0.0,-208.34645122289658,0.0,0.125,2.020263465,1.2330627499999984,0.0,-62655.0,0.625,0.0,208.34645122289658,0.0,0.125,1.727294745,1.2409424999999985,0.0,60961.0,0.375,0.0,208.34645122289658,0.0,0.125,2.150878686,3.7052999999999985,0.0,-38602.0,0.5,0.0,208.34645122289658,0.0,0.125,2.8491208020000003,1.2394999999999985,0.0,0.28999999165534973,-0.5400000214576721,53.61000061035156,-0.009521484375,0.00341796875,1.0196533203125,35.58000183105469,0.0,-1.0,-1.470062255859375,-2.27288818359375,Closing,0.0,0.0,-189.0,0.0,0.0,0.0,0.0,0.0,
12.955592999999993,0.0,0.0,68960.0,0.0,0.0,0.0,0.0,0.125,2.020263465,1.2330627499999984,0.0,-62655.0,0.125,0.0,0.0,0.0,0.125,1.727294745,1.2409424999999985,0.0,60961.0,0.0,0.0,0.0,0.0,0.125,2.144775171,3.7052999999999985,0.0,-38602.0,0.125,0.0,0.0,0.0,0.125,2.8503415050000003,1.2394999999999985,0.0,0.30000001192092896,-0.5400000214576721,53.61000061035156,-0.0108642578125,0.00634765625,1.01934814453125,35.54999923706055,0.0,0.0,-1.470062255859375,-2.27288818359375,Closing,0.0,0.0,-189.0,0.0,0.0,0.0,0.0,0.0,
13.110236999999994,0.0,0.0,68952.0,2.0,-45.0,-615.1181173324585,0.0,0.125,2.021484168,1.2330627499999984,0.0,-62649.0,5.375,67.5,615.1181173324585,0.0,0.125,1.727294745,1.2409424999999985,0.0,60964.0,2.625,30.0,615.1181173324585,0.0,0.125,2.144775171,3.7052999999999985,0.0,-38593.0,1.75,135.0,615.1181173324585,0.0,0.125,2.8491208020000003,1.2394999999999985,0.0,-0.03999999910593033,-0.5099999904632568,53.66999816894531,-0.01904296875,-0.09857177734375,0.904541015625,35.54999923706055,0.0,-85.0,-1.4722137451171875,-2.2742767333984375,Closing,0.0,0.0,-189.0,0.0,0.0,0.0,0.0,0.0,
13.261804999999994,0.0,0.0,68943.0,0.0,-30.0,0.0,0.0,0.125,2.020263465,1.2330627499999984,0.0,-62641.0,0.0,0.0,0.0,0.0,0.125,1.7358396660000002,1.2409424999999985,0.0,60980.0,0.0,82.5,0.0,0.0,0.125,2.144775171,3.7052999999999985,0.0,-38576.0,0.0,15.0,0.0,0.0,0.125,2.8503415050000003,1.2394999999999985,0.0,0.07999999821186066,-0.5799999833106995,53.5099983215332,-0.03765869140625,0.05078125,1.04522705078125,35.54999923706055,0.0,23.0,-1.4762725830078125,-2.277862548828125,Closing,0.0,0.0,-189.0,0.0,0.0,0.0,0.0,0.0,
13.404331000000006,0.0,0.0,68943.0,0.0,0.0,0.0,0.0,0.25,2.020263465,1.2330627499999984,0.0,-62641.0,0.125,0.0,0.0,0.0,0.125,1.7358396660000002,1.2409424999999985,0.0,60981.0,0.0,0.0,0.0,0.0,0.125,2.144775171,3.7052999999999985,0.0,-38576.0,0.125,0.0,0.0,0.0,0.125,2.8552243170000002,1.2394999999999985,0.0,0.4399999976158142,-0.5699999928474426,53.54999923706055,0.013427734375,0.0174560546875,1.006103515625,35.56999969482422,0.0,21.0,-1.474334716796875,-2.27642822265625,Closing,0.0,0.0,-189.0,0.0,0.0,0.0,0.0,0.0,
13.575456999999995,0.0,0.0,68943.0,0.0,0.0,0.0,0.0,0.125,2.021484168,1.2330627499999984,0.0,-62641.0,0.125,0.0,0.0,0.0,0.125,1.7370603690000002,1.2409424999999985,0.0,60981.0,0.0,0.0,0.0,0.0,0.125,2.144775171,3.7052999999999985,0.0,-38576.0,0.125,0.0,0.0,0.0,0.125,2.8552243170000002,1.2394999999999985,0.0,0.4399999976158142,-0.5799999833106995,53.560001373291016,-0.00555419921875,-0.00408935546875,1.03662109375,35.56999969482422,0.0,-6.0,-1.4734649658203125,-2.27642822265625,Closing,0.0,0.0,-189.0,0.0,0.0,0.0,0.0,0.0,
13.724659000000015,0.0,0.0,68943.0,0.0,0.0,0.0,0.0,0.125,2.020263465,1.2330627499999984,0.0,-62641.0,0.125,0.0,0.0,0.0,0.125,1.7358396660000002,1.2409424999999985,0.0,60981.0,0.0,0.0,0.0,0.0,0.125,2.144775171,3.7052999999999985,0.0,-38576.0,0.125,0.0,0.0,0.0,0.125,2.8552243170000002,1.2394999999999985,0.0,0.3499999940395355,-0.5600000023841858,53.58000183105469,-0.0013427734375,-0.003173828125,1.02056884765625,35.56999969482422,0.0,-2.0,-1.4734649658203125,-2.27642822265625,Closing,0.0,0.0,-189.0,0.0,0.0,0.0,0.0,0.0,
13.906244000000006,0.0,0.0,68943.0,0.0,0.0,0.0,0.0,0.125,2.021484168,1.2330627499999984,0.0,-62641.0,0.125,0.0,0.0,0.0,0.125,1.7358396660000002,1.2409424999999985,0.0,60981.0,0.0,0.0,0.0,0.0,0.125,2.144775171,3.7052999999999985,0.0,-38576.0,0.125,0.0,0.0,0.0,0.125,2.8540036140000002,1.2394999999999985,0.0,0.30000001192092896,-0.5600000023841858,53.59000015258789,-0.01116943359375,0.012451171875,1.01788330078125,35.59000015258789,0.0,5.0,-1.4734649658203125,-2.27642822265625,Closing,0.0,0.0,-189.0,0.0,0.0,0.0,0.0,0.0,
14.093636999999989,0.0,0.0,68943.0,0.0,0.0,0.0,0.0,0.125,2.020263465,1.2330627499999984,0.0,-62641.0,0.0,0.0,0.0,0.0,0.125,1.7370603690000002,1.2409424999999985,0.0,60981.0,0.0,0.0,0.0,0.0,0.125,2.144775171,3.7052999999999985,0.0,-38576.0,0.125,0.0,0.0,0.0,0.125,2.8552243170000002,1.2394999999999985,0.0,0.3100000023841858,-0.5600000023841858,53.59000015258789,-0.01409912109375,8.544921875E-4,1.02508544921875,35.59000015258789,0.0,-6.0,-1.4734649658203125,-2.27642822265625,Closing,0.0,0.0,-189.0,0.0,0.0,0.0,0.0,0.0,
14.245121000000013,0.0,0.0,68943.0,0.0,0.0,0.0,0.0,0.25,2.0166013560000002,1.2330627499999984,0.0,-62641.0,0.125,0.0,0.0,0.0,0.125,1.7358396660000002,1.2409424999999985,0.0,60981.0,0.0,0.0,0.0,0.0,0.125,2.143554468,3.7052999999999985,0.0,-38576.0,0.125,0.0,0.0,0.0,0.125,2.8552243170000002,1.2394999999999985,0.0,0.3100000023841858,-0.5600000023841858,53.59000015258789,-0.009521484375,0.005859375,1.02374267578125,35.59000015258789,0.0,0.0,-1.4734649658203125,-2.27642822265625,Closing,0.0,0.0,-189.0,0.0,0.0,0.0,0.0,0.0,
14.394364000000001,0.0,0.0,68943.0,0.0,0.0,0.0,0.0,0.125,2.0166013560000002,1.2330627499999984,0.0,-62641.0,0.125,0.0,0.0,0.0,0.125,1.7370603690000002,1.2409424999999985,0.0,60981.0,0.0,0.0,0.0,0.0,0.125,2.144775171,3.7052999999999985,0.0,-38576.0,0.125,0.0,0.0,0.0,0.125,2.8552243170000002,1.2394999999999985,0.0,0.30000001192092896,-0.550000011920929,53.59000015258789,-0.00994873046875,0.0048828125,1.0198974609375,35.59000015258789,0.0,0.0,-1.4734649658203125,-2.27642822265625,Closing,0.0,0.0,-189.0,0.0,0.0,0.0,0.0,0.0,
14.551967999999993,0.0,0.0,68938.0,0.75,-37.5,-486.1417257785797,0.0,0.125,2.0153806530000002,1.2330627499999984,0.0,-62631.0,2.75,82.5,486.1417257785797,0.0,0.125,1.730956854,1.2409424999999985,0.0,60987.0,1.375,45.0,486.1417257785797,0.0,0.125,2.144775171,3.7052999999999985,0.0,-38572.0,1.375,67.5,486.1417257785797,0.0,0.125,2.8552243170000002,1.2394999999999985,0.0,0.019999999552965164,-0.5099999904632568,53.619998931884766,0.0218505859375,-0.00177001953125,0.89593505859375,35.59000015258789,0.0,16.0,-1.4754638671875,-2.2773895263671875,Closing,0.0,0.0,-189.0,0.0,0.0,0.0,0.0,0.0,
14.716837999999989,0.0,0.0,68928.0,0.0,-7.5,0.0,0.0,0.25,2.0153806530000002,1.2330627499999984,0.0,-62624.0,0.125,0.0,0.0,0.0,0.125,1.7358396660000002,1.2409424999999985,0.0,60996.0,0.0,7.5,0.0,0.0,0.125,2.143554468,3.7052999999999985,0.0,-38560.0,0.125,0.0,0.0,0.0,0.125,2.860107129,1.2394999999999985,0.0,0.25999999046325684,-0.550000011920929,53.56999969482422,0.00640869140625,0.05828857421875,0.99609375,35.59000015258789,0.0,52.0,-1.47869873046875,-2.2783966064453125,Closing,0.0,0.0,-189.0,0.0,0.0,0.0,0.0,0.0,
14.890641000000004,0.0,0.0,68928.0,0.0,0.0,0.0,0.0,0.25,2.0153806530000002,1.2330627499999984,0.0,-62624.0,0.0,0.0,0.0,0.0,0.125,1.7358396660000002,1.2409424999999985,0.0,60996.0,0.0,0.0,0.0,0.0,0.125,2.144775171,3.7052999999999985,0.0,-38560.0,0.125,0.0,0.0,0.0,0.125,2.858886426,1.2394999999999985,0.0,0.41999998688697815,-0.5400000214576721,53.56999969482422,-0.00634765625,-0.0185546875,1.0494384765625,35.59000015258789,0.0,-19.0,-1.4781951904296875,-2.27783203125,Closing,0.0,0.0,-189.0,0.0,0.0,0.0,0.0,0.0,
15.045141000000003,0.0,0.0,68929.0,0.0,7.5,0.0,0.0,0.25,2.0166013560000002,1.2330627499999984,0.0,-62624.0,0.125,0.0,0.0,0.0,0.125,1.7358396660000002,1.2409424999999985,0.0,60996.0,0.0,0.0,0.0,0.0,0.125,2.144775171,3.7052999999999985,0.0,-38560.0,0.0,0.0,0.0,0.0,0.125,2.858886426,1.2394999999999985,0.0,0.2800000011920929,-0.5299999713897705,53.599998474121094,-0.0548095703125,-0.053955078125,1.04559326171875,35.58000183105469,0.0,-74.0,-1.4835205078125,-2.2785186767578125,Closing,0.0,0.0,-189.0,0.0,0.0,0.0,0.0,0.0,
15.227247999999992,0.0,0.0,68929.0,0.0,0.0,0.0,0.0,0.25,2.0153806530000002,1.2330627499999984,0.0,-62624.0,0.125,0.0,0.0,0.0,0.125,1.7370603690000002,1.2409424999999985,0.0,60996.0,0.0,0.0,0.0,0.0,0.125,2.144775171,3.7052999999999985,0.0,-38560.0,0.125,0.0,0.0,0.0,0.125,2.858886426,1.2394999999999985,0.0,0.30000001192092896,-0.5400000214576721,53.59000015258789,0.00341796875,0.05462646484375,1.02581787109375,35.58000183105469,0.0,47.0,-1.495880126953125,-2.2785186767578125,Closing,0.0,0.0,-189.0,0.0,0.0,0.0,0.0,0.0,
15.381363000000013,0.0,0.0,68929.0,0.0,0.0,-99.21259805560112,0.0,0.25,2.0166013560000002,1.2330627499999984,0.0,-62624.0,0.125,0.0,99.21259805560112,0.0,0.125,1.7370603690000002,1.2409424999999985,0.0,60996.0,0.125,0.0,99.21259805560112,0.0,0.125,2.143554468,3.7052999999999985,0.0,-38560.0,0.25,0.0,99.21259805560112,0.0,0.125,2.858886426,1.2394999999999985,0.0,0.2800000011920929,-0.550000011920929,53.59000015258789,0.003173828125,-0.01141357421875,1.01220703125,35.58000183105469,0.0,-5.0,-1.5017547607421875,-2.2783966064453125,Closing,0.0,0.0,-189.0,0.0,0.0,0.0,0.0,0.0,
15.554570999999996,0.0,0.0,68929.0,0.0,0.0,0.0,0.0,0.25,2.0166013560000002,1.2330627499999984,0.0,-62624.0,0.0,0.0,0.0,0.0,0.125,1.7358396660000002,1.2409424999999985,0.0,60997.0,0.0,0.0,0.0,0.0,0.125,2.144775171,3.7052999999999985,0.0,-38560.0,0.125,0.0,0.0,0.0,0.125,2.860107129,1.2394999999999985,0.0,0.3100000023841858,-0.5400000214576721,53.59000015258789,-0.04400634765625,-0.02593994140625,0.9876708984375,35.61000061035156,0.0,-45.0,-1.5026397705078125,-2.27850341796875,Closing,0.0,0.0,-189.0,0.0,0.0,0.0,0.0,0.0,
15.699246000000013,0.0,0.0,68929.0,0.0,0.0,0.0,0.0,0.25,2.0153806530000002,1.2330627499999984,0.0,-62624.0,0.0,0.0,0.0,0.0,0.125,1.7370603690000002,1.2409424999999985,0.0,60997.0,0.0,0.0,0.0,0.0,0.125,2.144775171,3.7052999999999985,0.0,-38560.0,0.125,0.0,0.0,0.0,0.125,2.858886426,1.2394999999999985,0.0,0.28999999165534973,-0.5400000214576721,53.59000015258789,0.01971435546875,0.06182861328125,1.00970458984375,35.61000061035156,0.0,63.0,-1.5046539306640625,-2.27850341796875,Closing,0.0,0.0,-189.0,0.0,0.0,0.0,0.0,0.0,
15.861608000000007,0.0,0.0,68929.0,0.0,0.0,0.0,0.0,0.25,2.0153806530000002,1.2330627499999984,0.0,-62624.0,0.0,0.0,0.0,0.0,0.125,1.7358396660000002,1.2409424999999985,0.0,60997.0,0.0,0.0,0.0,0.0,0.125,2.144775171,3.7052999999999985,0.0,-38560.0,0.125,0.0,0.0,0.0,0.125,2.858886426,1.2394999999999985,0.0,0.28999999165534973,-0.550000011920929,53.59000015258789,0.001708984375,-0.012451171875,1.01611328125,35.61000061035156,0.0,-7.0,-1.5012969970703125,-2.278350830078125,Closing,0.0,0.0,-189.0,0.0,0.0,0.0,0.0,0.0,
16.02049100000001,0.0,0.0,68929.0,0.0,0.0,0.0,0.0,0.25,2.0153806530000002,1.2330627499999984,0.0,-62624.0,0.0,0.0,0.0,0.0,0.125,1.7358396660000002,1.2409424999999985,0.0,60997.0,0.0,0.0,0.0,0.0,0.125,2.144775171,3.7052999999999985,0.0,-38560.0,0.125,0.0,0.0,0.0,0.125,2.858886426,1.2394999999999985,0.0,0.30000001192092896,-0.5400000214576721,53.59000015258789,-0.0191650390625,-0.01873779296875,1.040771484375,35.58000183105469,0.0,-25.0,-1.503936767578125,-2.278350830078125,Closing,0.0,0.0,-189.0,0.0,0.0,0.0,0.0,0.0,
16.170636,0.0,0.0,68929.0,0.0,0.0,0.0,0.0,0.25,2.0153806530000002,1.2330627499999984,0.0,-62624.0,0.125,0.0,0.0,0.0,0.125,1.7358396660000002,1.2409424999999985,0.0,60997.0,0.0,0.0,0.0,0.0,0.125,2.144775171,3.7052999999999985,0.0,-38560.0,0.0,0.0,0.0,0.0,0.125,2.860107129,1.2394999999999985,0.0,0.28999999165534973,-0.5400000214576721,53.59000015258789,0.01324462890625,0.04669189453125,1.001708984375,35.58000183105469,0.0,46.0,-1.5033111572265625,-2.278350830078125,Closing,0.0,0.0,-189.0,0.0,0.0,0.0,0.0,0.0,
16.308051000000006,0.0,0.0,68929.0,0.125,0.0,-188.50394099950788,0.0,0.25,2.0166013560000002,1.2330627499999984,0.0,-62624.0,0.5,0.0,188.50394099950788,0.0,0.125,1.730956854,1.2409424999999985,0.0,60997.0,0.375,0.0,188.50394099950788,0.0,0.125,2.13623025,3.7052999999999985,0.0,-38560.0,0.375,0.0,188.50394099950788,0.0,0.125,2.860107129,1.2394999999999985,0.0,0.30000001192092896,-0.5299999713897705,53.59000015258789,-0.03277587890625,-0.0262451171875,1.0252685546875,35.58000183105469,0.0,-39.0,-1.5022735595703125,-2.2781982421875,Closing,0.0,0.0,-189.0,0.0,0.0,0.0,0.0,0.0,
16.45273999999999,0.0,0.0,68929.0,0.0,0.0,0.0,0.0,0.25,2.0153806530000002,1.2330627499999984,0.0,-62623.0,0.0,0.0,0.0,0.0,0.125,1.7321775570000002,1.2409424999999985,0.0,60997.0,0.0,0.0,0.0,0.0,0.125,2.144775171,3.7052999999999985,0.0,-38560.0,0.0,0.0,0.0,0.0,0.125,2.858886426,1.2394999999999985,0.0,0.30000001192092896,-0.5400000214576721,53.59000015258789,0.01904296875,0.0513916015625,1.017822265625,35.599998474121094,0.0,54.0,-1.5036163330078125,-2.2781982421875,Closing,0.0,0.0,-189.0,0.0,0.0,0.0,0.0,0.0,
16.629434000000007,0.0,0.0,68929.0,0.0,0.0,0.0,0.0,0.25,2.0153806530000002,1.2330627499999984,0.0,-62623.0,0.125,0.0,0.0,0.0,0.125,1.7321775570000002,1.2409424999999985,0.0,60997.0,0.0,0.0,0.0,0.0,0.125,2.144775171,3.7052999999999985,0.0,-38560.0,0.125,0.0,0.0,0.0,0.125,2.860107129,1.2394999999999985,0.0,0.3100000023841858,-0.5400000214576721,53.59000015258789,-0.01751708984375,-0.01953125,1.0435791015625,35.599998474121094,0.0,-24.0,-1.5017242431640625,-2.2781982421875,Closing,0.0,0.0,-189.0,0.0,0.0,0.0,0.0,0.0,
16.766200000000012,0.0,0.0,68929.0,0.0,0.0,0.0,0.0,0.25,2.0166013560000002,1.2330627499999984,0.0,-62623.0,0.125,0.0,0.0,0.0,0.125,1.7321775570000002,1.2409424999999985,0.0,60997.0,0.0,0.0,0.0,0.0,0.125,2.143554468,3.7052999999999985,0.0,-38560.0,0.125,0.0,0.0,0.0,0.125,2.860107129,1.2394999999999985,0.0,0.30000001192092896,-0.5400000214576721,53.59000015258789,0.00592041015625,0.0037841796875,1.03253173828125,35.599998474121094,0.0,7.0,-1.503936767578125,-2.2781982421875,Closing,0.0,0.0,-189.0,0.0,0.0,0.0,0.0,0.0,
16.90181899999999,0.0,0.0,68928.0,0.625,-7.5,-406.7716473340988,0.0,0.25,2.0153806530000002,1.2330627499999984,0.0,-62616.0,2.25,30.0,406.7716473340988,0.0,0.125,1.730956854,1.2409424999999985,0.0,61003.0,1.375,30.0,406.7716473340988,0.0,0.125,2.144775171,3.7052999999999985,0.0,-38560.0,1.5,0.0,406.7716473340988,0.0,0.125,2.8527829110000003,1.2394999999999985,0.0,0.14000000059604645,-0.5299999713897705,53.619998931884766,-0.01641845703125,-0.04498291015625,1.06707763671875,35.599998474121094,0.0,-42.0,-1.5028533935546875,-2.27850341796875,Closing,0.0,0.0,-189.0,0.0,0.0,0.0,0.0,0.0,
17.089535000000005,0.0,0.0,68923.0,0.0,0.0,0.0,0.0,0.25,2.0166013560000002,1.2330627499999984,0.0,-62614.0,0.125,0.0,0.0,0.0,0.125,1.7370603690000002,1.2409424999999985,0.0,61007.0,0.0,0.0,0.0,0.0,0.125,2.144775171,3.7052999999999985,0.0,-38553.0,0.125,7.5,0.0,0.0,0.125,2.860107129,1.2394999999999985,0.0,0.3400000035762787,-0.550000011920929,53.599998474121094,0.00872802734375,0.098388671875,0.98760986328125,35.61000061035156,0.0,85.0,-1.5026397705078125,-2.2789764404296875,Closing,0.0,0.0,-189.0,0.0,0.0,0.0,0.0,0.0,
17.233765000000012,0.0,0.0,68923.0,0.0,0.0,0.0,0.0,0.25,2.0153806530000002,1.2330627499999984,0.0,-62614.0,0.125,0.0,0.0,0.0,0.125,1.7370603690000002,1.2409424999999985,0.0,61007.0,0.0,-7.5,0.0,0.0,0.125,2.144775171,3.7052999999999985,0.0,-38553.0,0.125,0.0,0.0,0.0,0.125,2.858886426,1.2394999999999985,0.0,0.38999998569488525,-0.5600000023841858,53.599998474121094,-0.00830078125,-0.02880859375,1.0234375,35.61000061035156,0.0,-27.0,-1.4988555908203125,-2.2786102294921875,Closing,0.0,0.0,-189.0,0.0,0.0,0.0,0.0,0.0,
17.384424,0.0,0.0,68924.0,0.0,0.0,0.0,0.0,0.25,2.0153806530000002,1.2330627499999984,0.0,-62615.0,0.0,0.0,0.0,0.0,0.125,1.7358396660000002,1.2409424999999985,0.0,61004.0,0.0,0.0,0.0,0.0,0.125,2.144775171,3.7052999999999985,0.0,-38553.0,0.125,0.0,0.0,0.0,0.125,2.860107129,1.2394999999999985,0.0,0.2800000011920929,-0.550000011920929,53.599998474121094,0.0018310546875,0.0244140625,1.01300048828125,35.61000061035156,0.0,22.0,-1.5037384033203125,-2.2798309326171875,Closing,0.0,0.0,-189.0,0.0,0.0,0.0,0.0,0.0,
17.530584,0.0,0.0,68924.0,0.125,0.0,-198.42519611120224,0.0,0.25,2.0056150290000003,1.2330627499999984,0.0,-62615.0,0.625,0.0,198.42519611120224,0.0,0.125,1.7382810720000001,1.2409424999999985,0.0,61006.0,0.375,15.0,198.42519611120224,0.0,0.125,2.143554468,3.7052999999999985,0.0,-38553.0,0.375,0.0,198.42519611120224,0.0,0.125,2.858886426,1.2394999999999985,0.0,0.28999999165534973,-0.550000011920929,53.59000015258789,-0.01214599609375,-0.0018310546875,1.03228759765625,35.599998474121094,0.0,-7.0,-1.5072021484375,-2.27972412109375,Closing,0.0,0.0,-189.0,0.0,0.0,0.0,0.0,0.0,
17.655992999999988,0.0,0.0,68924.0,0.0,0.0,0.0,0.0,0.25,2.0153806530000002,1.2330627499999984,0.0,-62615.0,0.125,0.0,0.0,0.0,0.125,1.7370603690000002,1.2409424999999985,0.0,61005.0,0.0,-7.5,0.0,0.0,0.125,2.144775171,3.7052999999999985,0.0,-38553.0,0.125,0.0,0.0,0.0,0.125,2.860107129,1.2394999999999985,0.0,0.3100000023841858,-0.550000011920929,53.59000015258789,-0.0224609375,-0.02362060546875,1.0386962890625,35.599998474121094,0.0,-30.0,-1.50848388671875,-2.27972412109375,Closing,0.0,0.0,-189.0,0.0,0.0,0.0,0.0,0.0,
17.80701199999999,0.0,0.0,68924.0,0.0,0.0,0.0,0.0,0.25,2.019042762,1.2330627499999984,0.0,-62615.0,0.125,0.0,0.0,0.0,0.125,1.7370603690000002,1.2409424999999985,0.0,61005.0,0.0,0.0,0.0,0.0,0.125,2.144775171,3.7052999999999985,0.0,-38553.0,0.125,0.0,0.0,0.0,0.125,2.858886426,1.2394999999999985,0.0,0.28999999165534973,-0.5600000023841858,53.599998474121094,-0.00250244140625,0.04803466796875,1.00115966796875,35.599998474121094,0.0,38.0,-1.510498046875,-2.27972412109375,Closing,0.0,0.0,-189.0,0.0,0.0,0.0,0.0,0.0,
17.960090999999984,0.0,0.0,68923.0,0.125,-7.5,-337.32282400131226,0.0,0.25,2.0166013560000002,1.2330627499999984,0.0,-62614.0,1.5,15.0,337.32282400131226,0.0,0.125,1.7358396660000002,1.2409424999999985,0.0,61006.0,0.75,7.5,337.32282400131226,0.0,0.125,2.144775171,3.7052999999999985,0.0,-38553.0,1.125,0.0,337.32282400131226,0.0,0.125,2.858886426,1.2394999999999985,0.0,0.23999999463558197,-0.550000011920929,53.61000061035156,-0.05316162109375,-0.07757568359375,1.04119873046875,35.599998474121094,0.0,-91.0,-1.5113677978515625,-2.2796478271484375,Closing,0.0,0.0,-189.0,0.0,0.0,0.0,0.0,0.0,
18.106095,0.0,0.0,68918.0,0.0,-7.5,0.0,0.0,0.25,2.0166013560000002,1.2330627499999984,0.0,-62610.0,0.0,0.0,0.0,0.0,0.125,1.7358396660000002,1.2409424999999985,0.0,61008.0,0.0,0.0,0.0,0.0,0.125,2.144775171,3.7052999999999985,0.0,-38553.0,0.125,0.0,0.0,0.0,0.125,2.858886426,1.2394999999999985,0.0,0.3100000023841858,-0.5699999928474426,53.56999969482422,-0.00396728515625,0.06817626953125,1.00897216796875,35.619998931884766,0.0,53.0,-1.5149078369140625,-2.2790374755859375,Closing,0.0,0.0,-189.0,0.0,0.0,0.0,0.0,0.0,
18.26425,0.0,0.0,68920.0,0.0,7.5,0.0,0.0,0.25,2.0153806530000002,1.2330627499999984,0.0,-62610.0,0.0,0.0,0.0,0.0,0.125,1.7358396660000002,1.2409424999999985,0.0,61008.0,0.0,0.0,0.0,0.0,0.125,2.144775171,3.7052999999999985,0.0,-38553.0,0.125,0.0,0.0,0.0,0.125,2.860107129,1.2394999999999985,0.0,0.27000001072883606,-0.5400000214576721,53.619998931884766,-0.038818359375,-0.03070068359375,1.0123291015625,35.619998931884766,0.0,-45.0,-1.5172576904296875,-2.2787017822265625,Closing,0.0,0.0,-189.0,0.0,0.0,0.0,0.0,0.0,
18.435035999999993,0.0,0.0,68920.0,0.125,0.0,-89.29134294390678,0.0,0.25,2.0166013560000002,1.2330627499999984,0.0,-62610.0,0.125,0.0,89.29134294390678,0.0,0.125,1.7358396660000002,1.2409424999999985,0.0,61008.0,0.125,0.0,89.29134294390678,0.0,0.125,2.144775171,3.7052999999999985,0.0,-38553.0,0.25,0.0,89.29134294390678,0.0,0.125,2.860107129,1.2394999999999985,0.0,0.30000001192092896,-0.550000011920929,53.61000061035156,-0.01678466796875,0.01690673828125,1.02813720703125,35.619998931884766,0.0,5.0,-1.5218353271484375,-2.2787017822265625,Closing,0.0,0.0,-189.0,0.0,0.0,0.0,0.0,0.0,
18.60093400000001,0.0,0.0,68920.0,0.0,0.0,0.0,0.0,0.25,2.0166013560000002,1.2330627499999984,0.0,-62610.0,0.0,0.0,0.0,0.0,0.125,1.7358396660000002,1.2409424999999985,0.0,61008.0,0.0,0.0,0.0,0.0,0.125,2.143554468,3.7052999999999985,0.0,-38553.0,0.0,0.0,0.0,0.0,0.125,2.860107129,1.2394999999999985,0.0,0.3100000023841858,-0.550000011920929,53.61000061035156,-0.044189453125,-0.02886962890625,1.02728271484375,35.59000015258789,0.0,-48.0,-1.522857666015625,-2.278839111328125,Closing,0.0,0.0,-189.0,0.0,0.0,0.0,0.0,0.0,
18.764684999999997,0.0,0.0,68920.0,0.0,0.0,0.0,0.0,0.25,2.0166013560000002,1.2330627499999984,0.0,-62610.0,0.0,0.0,0.0,0.0,0.125,1.7358396660000002,1.2409424999999985,0.0,61008.0,0.0,0.0,0.0,0.0,0.125,2.143554468,3.7052999999999985,0.0,-38553.0,0.125,0.0,0.0,0.0,0.125,2.860107129,1.2394999999999985,0.0,0.27000001072883606,-0.5400000214576721,53.61000061035156,0.02386474609375,0.04962158203125,0.98486328125,35.59000015258789,0.0,55.0,-1.523406982421875,-2.278961181640625,Closing,0.0,0.0,-189.0,0.0,0.0,0.0,0.0,0.0,
18.902321999999984,0.0,0.0,68907.0,5.625,-150.0,-1071.4960777759552,0.0,0.25,2.0166013560000002,1.2330627499999984,0.0,-62604.0,13.125,135.0,1071.4960777759552,0.0,0.125,1.7321775570000002,1.2409424999999985,0.0,61012.0,6.875,82.5,1071.4960777759552,0.0,0.125,2.144775171,3.7052999999999985,0.0,-38544.0,5.875,172.5,1071.4960777759552,0.0,0.125,2.8491208020000003,1.2394999999999985,0.0,-0.7200000286102295,-0.4699999988079071,53.720001220703125,0.04168701171875,-0.10052490234375,0.8387451171875,35.59000015258789,0.0,-43.0,-1.5259857177734375,-2.283721923828125,Closing,0.0,0.0,-189.0,0.0,0.0,0.0,0.0,0.0,
19.049598999999986,0.0,0.0,68872.0,0.0,-150.0,0.0,0.0,0.25,2.0166013560000002,1.2330627499999984,0.0,-62560.0,0.125,135.0,0.0,0.0,0.125,1.755370914,1.2409424999999985,0.0,61043.0,0.0,255.0,0.0,0.0,0.125,2.177734152,3.7052999999999985,0.0,-38508.0,0.125,172.5,0.0,0.0,0.125,2.874755565,1.2394999999999985,0.0,-0.46000000834465027,-0.4099999964237213,53.650001525878906,0.11297607421875,0.17877197265625,0.75494384765625,35.56999969482422,0.0,219.0,-1.53948974609375,-2.294403076171875,Closing,0.0,0.0,-189.0,0.0,0.0,0.0,0.0,0.0,
19.186687000000006,0.0,0.0,68827.0,0.0,-225.0,0.0,0.0,0.25,2.0166013560000002,1.2330627499999984,0.0,-62515.0,0.125,165.0,0.0,0.0,0.125,1.7602537260000002,1.2409424999999985,0.0,61109.0,0.0,202.5,0.0,0.0,0.125,2.153320092,3.7052999999999985,0.0,-38451.0,0.125,165.0,0.0,0.0,0.125,2.8930661100000004,1.2394999999999985,0.0,0.17000000178813934,-0.550000011920929,53.560001373291016,0.03326416015625,0.10284423828125,0.91741943359375,35.56999969482422,0.0,105.0,-1.5405731201171875,-2.2962188720703125,Closing,0.0,0.0,-189.0,0.0,0.0,0.0,0.0,0.0,
19.314622000000004,0.0,0.0,68816.0,0.0,0.0,0.0,0.0,0.25,2.0153806530000002,1.2330627499999984,0.0,-62511.0,0.125,15.0,0.0,0.0,0.125,1.7602537260000002,1.2409424999999985,0.0,61110.0,0.0,7.5,0.0,0.0,0.125,2.145995874,3.7052999999999985,0.0,-38448.0,0.125,15.0,0.0,0.0,0.25,2.8991696250000003,1.2394999999999985,0.0,0.6399999856948853,-0.6299999952316284,53.56999969482422,0.0140380859375,-0.02972412109375,1.125,35.56999969482422,0.0,-18.0,-1.53021240234375,-2.2889404296875,Closing,0.0,0.0,-189.0,0.0,0.0,0.0,0.0,0.0,
19.488736000000003,0.0,0.0,68816.0,0.0,0.0,0.0,0.0,0.25,2.0104978410000003,1.2330627499999984,0.0,-62511.0,0.125,0.0,0.0,0.0,0.125,1.750488102,1.2409424999999985,0.0,61110.0,0.0,0.0,0.0,0.0,0.125,2.144775171,3.7052999999999985,0.0,-38448.0,0.125,0.0,0.0,0.0,0.25,2.888183298,1.2394999999999985,0.0,0.6000000238418579,-0.5799999833106995,53.59000015258789,0.01739501953125,0.0050048828125,0.97515869140625,35.56999969482422,0.0,12.0,-1.5255889892578125,-2.2831573486328125,Closing,0.0,0.0,-189.0,0.0,0.0,0.0,0.0,0.0,
19.673609999999986,0.0,0.0,68825.0,3.125,247.5,905.6249999999999,0.0,0.25,1.9970701080000002,1.2330627500000013,0.0,-62557.0,6.75,-255.0,-905.6249999999999,0.0,0.0,1.755370914,1.2409425000000012,0.0,61086.0,3.75,-112.5,-905.6249999999999,0.0,0.125,2.145995874,3.7053000000000016,0.0,-38483.0,3.25,-195.0,-905.6249999999999,0.0,0.25,2.883300486,1.2395000000000012,0.0,1.340000033378601,-0.6100000143051147,53.5,-0.00604248046875,0.11944580078125,1.17645263671875,35.599998474121094,0.0,77.0,-1.5240478515625,-2.2793121337890625,Closing,0.0,0.0,-189.0,0.0,0.0,0.0,0.0,0.0,
