Time,ClimberA1,ClimberA2,FRpos,FRCurrent,FRspeed,FRsetpoint,FRApos,FRACurrent,FREncpos,FREncSetpoint,FREncSpeed,FLpos,FLCurrent,FLspeed,FLsetpoint,FLApos,FLACurrent,FLEncpos,FLEncSetpoint,FLEncSpeed,BRpos,BRCurrent,BRspeed,BRsetpoint,BRApos,BRACurrent,BREncpos,BREncSetpoint,BREncSpeed,BLpos,BLCurrent,BLspeed,BLsetpoint,BLApos,BLACurrent,BLEncpos,BLEncSetpoint,BLEncSpeed,navx_Pitch,navx_Roll,navx_Yaw,navx_XAcc,navx_YAcc,navx_ZAcc,navx_Temp,navx_Bar,navx_Alt,navx_XDis,navx_YDis,GearPlacerState,ShootOutputV,ShootOutputCurrent,ShootEncPos,ShootEncVelocity,ShootSpeed,ShootSetpoint,CarouselSetpoint,CarouselCurrent,
0.1954539999999997,0.0,0.0,67402.0,0.0,0.0,0.0,0.0,0.25,0.850829991,0.01,0.0,-75497.0,0.0,0.0,-0.0,0.0,0.25,0.482177685,0.01,0.0,61081.0,0.0,0.0,0.0,0.0,0.0,3.345946923,0.01,0.0,-51707.0,0.125,0.0,-0.0,0.0,0.25,1.650390456,0.01,0.0,0.33000001311302185,-1.0499999523162842,72.22000122070312,-0.03558349609375,-0.010498046875,1.00396728515625,35.9900016784668,0.0,-36.0,-3.84088134765625,-1.521148681640625,Opening,0.0,0.0,-189.0,0.0,0.0,0.0,0.0,0.0,
0.3335529999999999,0.0,0.0,67402.0,0.0,0.0,0.0,0.0,0.25,0.850829991,0.01,0.0,-75497.0,0.125,0.0,-0.0,0.0,0.25,0.483398388,0.01,0.0,61081.0,0.0,0.0,0.0,0.0,0.0,3.347167626,0.01,0.0,-51707.0,0.125,0.0,-0.0,0.0,0.25,1.649169753,0.01,0.0,0.33000001311302185,-1.0199999809265137,72.22000122070312,-0.06390380859375,-0.03289794921875,1.01788330078125,35.9900016784668,0.0,-50.0,-3.843414306640625,-1.5207061767578125,Closing,0.0,0.0,-189.0,0.0,0.0,0.0,0.0,0.0,
0.40166599999999925,0.0,0.0,67402.0,0.0,0.0,0.0,0.0,0.25,0.849609288,0.01,0.0,-75497.0,0.125,0.0,-0.0,0.0,0.25,0.482177685,0.01,0.0,61081.0,0.0,0.0,0.0,0.0,0.0,3.345946923,0.01,-0.0012207030000004337,-51707.0,0.125,0.0,-0.0,0.0,0.25,1.650390456,0.01,0.0,0.3400000035762787,-1.0399999618530273,72.22000122070312,-0.01751708984375,-0.05926513671875,0.97943115234375,35.9900016784668,0.0,-61.0,-3.8455657958984375,-1.5196685791015625,Closing,0.0,0.0,-189.0,0.0,0.0,0.0,0.0,0.0,
0.46646999999999933,0.0,0.0,67402.0,0.0,0.0,0.0,0.0,0.25,0.850829991,0.01,0.0,-75497.0,0.125,0.0,-0.0,0.0,0.25,0.483398388,0.01,0.0,61081.0,0.0,0.0,0.0,0.0,0.0,3.345946923,0.01,0.0,-51707.0,0.125,0.0,-0.0,0.0,0.25,1.650390456,0.01,0.0,0.28999999165534973,-1.0,72.22000122070312,-0.0382080078125,0.1549072265625,0.905029296875,35.9900016784668,0.0,136.0,-3.847564697265625,-1.518524169921875,Closing,0.0,0.0,-189.0,0.0,0.0,0.0,0.0,0.0,
0.6001419999999998,0.0,0.0,67402.0,0.0,0.0,0.0,0.0,0.25,0.850829991,0.01,0.0,-75497.0,0.125,0.0,-0.0,0.0,0.25,0.483398388,0.01,0.0,61081.0,0.0,0.0,0.0,0.0,0.0,3.345946923,0.01,0.0,-51707.0,0.125,0.0,-0.0,0.0,0.25,1.650390456,0.01,0.0,0.3499999940395355,-1.0199999809265137,72.22000122070312,-0.0443115234375,0.04296875,1.04229736328125,35.97999954223633,0.0,26.0,-3.8483734130859375,-1.5168609619140625,Closing,0.0,0.0,-189.0,0.0,0.0,0.0,0.0,0.0,
0.6325599999999995,0.0,0.0,67402.0,0.0,0.0,0.0,0.0,0.25,0.852050694,0.01,0.0,-75497.0,0.125,0.0,-0.0,0.0,0.25,0.483398388,0.01,0.0,61081.0,0.0,0.0,0.0,0.0,0.0,3.345946923,0.01,0.0012207030000004337,-51707.0,0.125,0.0,-0.0,0.0,0.25,1.650390456,0.01,0.0,0.3400000035762787,-0.9900000095367432,72.22000122070312,-0.03863525390625,-0.05120849609375,0.926025390625,35.97999954223633,0.0,-60.0,-3.84857177734375,-1.516357421875,Closing,0.0,0.0,-189.0,0.0,0.0,0.0,0.0,0.0,
0.7221459999999988,0.0,0.0,67402.0,0.0,0.0,0.0,0.0,0.25,0.850829991,0.01,0.0,-75497.0,0.125,0.0,-0.0,0.0,0.25,0.484619091,0.01,0.0,61081.0,0.0,0.0,0.0,0.0,0.0,3.345946923,0.01,0.0,-51707.0,0.125,0.0,-0.0,0.0,0.25,1.649169753,0.01,0.0,0.36000001430511475,-1.0,72.22000122070312,0.02154541015625,-0.02398681640625,0.952392578125,35.97999954223633,0.0,-16.0,-3.8494873046875,-1.5161285400390625,Closing,0.0,0.0,-189.0,0.0,0.0,0.0,0.0,0.0,
0.8012269999999989,0.0,0.0,67402.0,0.0,0.0,0.0,0.0,0.25,0.850829991,0.01,0.0,-75497.0,0.125,0.0,-0.0,0.0,0.25,0.483398388,0.01,0.0,61081.0,0.0,0.0,0.0,0.0,0.0,3.34472622,0.01,-0.0012207030000004337,-51707.0,0.125,0.0,-0.0,0.0,0.25,1.650390456,0.01,0.0,0.3499999940395355,-1.0199999809265137,72.22000122070312,-0.01202392578125,0.03790283203125,1.07208251953125,35.97999954223633,0.0,31.0,-3.8490142822265625,-1.5159759521484375,Closing,0.0,0.0,-189.0,0.0,0.0,0.0,0.0,0.0,
0.8382979999999989,0.0,0.0,67402.0,0.0,0.0,0.0,0.0,0.25,0.850829991,0.01,0.0,-75497.0,0.125,0.0,-0.0,0.0,0.25,0.483398388,0.01,0.0,61081.0,0.0,0.0,0.0,0.0,0.0,3.345946923,0.01,0.0,-51707.0,0.125,0.0,-0.0,0.0,0.25,1.650390456,0.01,0.0,0.36000001430511475,-1.0299999713897705,72.22000122070312,-0.01654052734375,-0.00933837890625,1.04718017578125,35.97999954223633,0.0,-14.0,-3.84759521484375,-1.5159759521484375,Closing,0.0,0.0,-189.0,0.0,0.0,0.0,0.0,0.0,
0.9340450000000001,0.0,0.0,67402.0,0.0,0.0,0.0,0.0,0.25,0.850829991,0.01,0.0,-75497.0,0.125,0.0,-0.0,0.0,0.25,0.482177685,0.01,0.0,61081.0,0.0,0.0,0.0,0.0,0.0,3.345946923,0.01,0.0,-51707.0,0.125,0.0,-0.0,0.0,0.25,1.650390456,0.01,0.0,0.36000001430511475,-1.0199999809265137,72.22000122070312,-0.040283203125,-0.0242919921875,1.041748046875,35.97999954223633,0.0,-36.0,-3.84722900390625,-1.516082763671875,Closing,0.0,0.0,-189.0,0.0,0.0,0.0,0.0,0.0,
1.0022070000000003,0.0,0.0,67402.0,0.0,0.0,0.0,0.0,0.25,0.850829991,0.01,0.0,-75497.0,0.125,0.0,-0.0,0.0,0.25,0.482177685,0.01,0.0,61081.0,0.0,0.0,0.0,0.0,0.0,3.345946923,0.01,0.0,-51707.0,0.125,0.0,-0.0,0.0,0.25,1.650390456,0.01,0.0,0.36000001430511475,-1.0199999809265137,72.22000122070312,-0.02593994140625,-0.01934814453125,1.0311279296875,36.029998779296875,0.0,-27.0,-3.8483123779296875,-1.5157470703125,Closing,0.0,0.0,-189.0,0.0,0.0,0.0,0.0,0.0,
1.131512999999999,0.0,0.0,67402.0,0.0,0.0,0.0,0.0,0.25,0.850829991,0.01,0.0,-75497.0,0.125,0.0,-0.0,0.0,0.25,0.482177685,0.01,0.0,61081.0,0.0,0.0,0.0,0.0,0.0,3.345946923,0.01,0.0,-51707.0,0.125,0.0,-0.0,0.0,0.25,1.650390456,0.01,0.0,0.3499999940395355,-1.0199999809265137,72.22000122070312,-0.01513671875,0.05645751953125,0.96759033203125,36.029998779296875,0.0,48.0,-3.8478240966796875,-1.5157623291015625,Closing,0.0,0.0,-189.0,0.0,0.0,0.0,0.0,0.0,
1.1998230000000003,0.0,0.0,67402.0,0.0,0.0,0.0,0.0,0.25,0.850829991,0.01,0.0,-75497.0,0.125,0.0,-0.0,0.0,0.25,0.482177685,0.01,0.0,61081.0,0.0,0.0,0.0,0.0,0.0,3.345946923,0.01,0.0012207030000004337,-51707.0,0.125,0.0,-0.0,0.0,0.25,1.650390456,0.01,0.0,0.3499999940395355,-1.0299999713897705,72.22000122070312,-0.03924560546875,-0.010009765625,1.0382080078125,36.029998779296875,0.0,-21.0,-3.8471527099609375,-1.515869140625,Closing,0.0,0.0,-189.0,0.0,0.0,0.0,0.0,0.0,
1.2671589999999997,0.0,0.0,67402.0,0.0,0.0,0.0,0.0,0.25,0.850829991,0.01,0.0,-75497.0,0.125,0.0,-0.0,0.0,0.25,0.483398388,0.01,0.0,61081.0,0.0,0.0,0.0,0.0,0.0,3.345946923,0.01,0.0,-51707.0,0.125,0.0,-0.0,0.0,0.25,1.650390456,0.01,0.0,0.36000001430511475,-1.0199999809265137,72.20999908447266,-0.06549072265625,-0.04547119140625,1.03277587890625,36.029998779296875,0.0,-63.0,-3.847625732421875,-1.5157928466796875,Closing,0.0,0.0,-189.0,0.0,0.0,0.0,0.0,0.0,
1.402717999999999,0.0,0.0,67402.0,0.0,0.0,0.0,0.0,0.25,0.850829991,0.01,0.0,-75497.0,0.125,0.0,-0.0,0.0,0.25,0.482177685,0.01,0.0,61081.0,0.0,0.0,0.0,0.0,0.0,3.347167626,0.01,0.0,-51707.0,0.125,0.0,-0.0,0.0,0.25,1.650390456,0.01,0.0,0.3400000035762787,-1.0299999713897705,72.20999908447266,-0.00970458984375,0.06231689453125,1.00030517578125,36.029998779296875,0.0,56.0,-3.8476409912109375,-1.5155029296875,Closing,0.0,0.0,-189.0,0.0,0.0,0.0,0.0,0.0,
1.466744999999999,0.0,0.0,67402.0,0.0,0.0,0.0,0.0,0.25,0.850829991,0.01,0.0,-75497.0,0.125,0.0,-0.0,0.0,0.25,0.483398388,0.01,0.0,61081.0,0.0,0.0,0.0,0.0,0.0,3.345946923,0.01,0.0012207030000004337,-51707.0,0.125,0.0,-0.0,0.0,0.25,1.650390456,0.01,0.0,0.33000001311302185,-1.0299999713897705,72.20999908447266,0.00396728515625,0.02728271484375,1.00701904296875,36.029998779296875,0.0,27.0,-3.847015380859375,-1.5155792236328125,Closing,0.0,0.0,-189.0,0.0,0.0,0.0,0.0,0.0,
1.6022070000000004,0.0,0.0,67402.0,0.0,0.0,0.0,0.0,0.25,0.850829991,0.01,0.0,-75497.0,0.125,0.0,-0.0,0.0,0.25,0.483398388,0.01,0.0,61081.0,0.0,0.0,0.0,0.0,0.0,3.347167626,0.01,0.0,-51707.0,0.125,0.0,-0.0,0.0,0.25,1.650390456,0.01,0.0,0.3499999940395355,-1.0299999713897705,72.20999908447266,-0.00921630859375,-0.01324462890625,1.04473876953125,36.0099983215332,0.0,-15.0,-3.8479766845703125,-1.51544189453125,Closing,0.0,0.0,-189.0,0.0,0.0,0.0,0.0,0.0,
1.6656270000000004,0.0,0.0,67402.0,0.0,0.0,0.0,0.0,0.25,0.850829991,0.01,0.0,-75497.0,0.125,0.0,-0.0,0.0,0.25,0.482177685,0.01,0.0,61081.0,0.0,0.0,0.0,0.0,0.0,3.345946923,0.01,0.0012207030000004337,-51707.0,0.125,0.0,-0.0,0.0,0.25,1.651611159,0.01,0.0,0.3400000035762787,-1.0199999809265137,72.20999908447266,0.00189208984375,0.03387451171875,1.04351806640625,36.0099983215332,0.0,32.0,-3.8477020263671875,-1.51544189453125,Closing,0.0,0.0,-189.0,0.0,0.0,0.0,0.0,0.0,
1.721848,0.0,0.0,67402.0,0.0,0.0,0.0,0.0,0.25,0.852050694,0.01,0.0,-75497.0,0.0,0.0,-0.0,0.0,0.25,0.483398388,0.01,0.0,61081.0,0.0,0.0,0.0,0.0,0.0,3.34472622,0.01,0.0,-51707.0,0.125,0.0,-0.0,0.0,0.25,1.649169753,0.01,0.0,0.33000001311302185,-1.0299999713897705,72.20999908447266,0.0089111328125,0.0146484375,1.012451171875,36.0099983215332,0.0,16.0,-3.8465728759765625,-1.5154876708984375,Closing,0.0,0.0,-189.0,0.0,0.0,0.0,0.0,0.0,
1.8005550000000003,0.0,0.0,67402.0,0.0,0.0,0.0,0.0,0.25,0.850829991,0.01,0.0,-75497.0,0.125,0.0,-0.0,0.0,0.25,0.48095698200000003,0.01,0.0,61081.0,0.0,0.0,0.0,0.0,0.0,3.345946923,0.01,0.0012207030000004337,-51707.0,0.125,0.0,-0.0,0.0,0.25,1.649169753,0.01,0.0,0.3499999940395355,-1.0299999713897705,72.20999908447266,-0.03741455078125,-0.01885986328125,1.00567626953125,36.0099983215332,0.0,-29.0,-3.846588134765625,-1.515533447265625,Closing,0.0,0.0,-189.0,0.0,0.0,0.0,0.0,0.0,
1.8571299999999993,0.0,0.0,67402.0,0.0,0.0,0.0,0.0,0.25,0.852050694,0.01,0.0,-75497.0,0.125,0.0,-0.0,0.0,0.25,0.482177685,0.01,0.0,61081.0,0.0,0.0,0.0,0.0,0.0,3.345946923,0.01,0.0,-51707.0,0.125,0.0,-0.0,0.0,0.25,1.649169753,0.01,0.0,0.4099999964237213,-1.0399999618530273,72.19999694824219,-0.03680419921875,-0.10882568359375,1.03204345703125,36.0099983215332,0.0,-116.0,-3.8475799560546875,-1.5150909423828125,Closing,0.0,0.0,-189.0,0.0,0.0,0.0,0.0,0.0,
1.9315879999999996,0.0,0.0,67402.0,0.0,0.0,0.0,0.0,0.25,0.850829991,0.01,0.0,-75497.0,0.125,0.0,-0.0,0.0,0.25,0.482177685,0.01,0.0,61081.0,0.0,0.0,0.0,0.0,0.0,3.345946923,0.01,-0.0012207030000004337,-51707.0,0.125,0.0,-0.0,0.0,0.25,1.650390456,0.01,0.0,0.28999999165534973,-1.0299999713897705,72.20999908447266,-0.0069580078125,0.0716552734375,1.0140380859375,36.0099983215332,0.0,66.0,-3.84906005859375,-1.5149078369140625,Closing,0.0,0.0,-189.0,0.0,0.0,0.0,0.0,0.0,
2.000751,0.0,0.0,67402.0,0.0,0.0,0.0,0.0,0.25,0.850829991,0.01,0.0,-75497.0,0.125,0.0,-0.0,0.0,0.25,0.482177685,0.01,0.0,61081.0,0.0,0.0,0.0,0.0,0.0,3.345946923,0.01,0.0012207030000004337,-51707.0,0.125,0.0,-0.0,0.0,0.25,1.650390456,0.01,0.0,0.36000001430511475,-1.0299999713897705,72.19999694824219,-0.0020751953125,-0.0147705078125,1.02606201171875,36.0099983215332,0.0,-15.0,-3.8498382568359375,-1.5147705078125,Closing,0.0,0.0,-189.0,0.0,0.0,0.0,0.0,0.0,
2.069834999999999,0.0,0.0,67402.0,0.0,0.0,0.0,0.0,0.25,0.850829991,0.01,0.0,-75497.0,0.125,0.0,-0.0,0.0,0.25,0.482177685,0.01,0.0,61081.0,0.0,0.0,0.0,0.0,0.0,3.345946923,0.01,0.0,-51707.0,0.125,0.0,-0.0,0.0,0.25,1.650390456,0.01,0.0,0.33000001311302185,-1.0299999713897705,72.20999908447266,-0.04498291015625,0.01068115234375,1.00433349609375,35.97999954223633,0.0,-3.0,-3.8505096435546875,-1.5147552490234375,Closing,0.0,0.0,-189.0,0.0,0.0,0.0,0.0,0.0,
2.200295,0.0,0.0,67402.0,0.0,0.0,0.0,0.0,0.25,0.850829991,0.01,0.0,-75497.0,0.125,0.0,-0.0,0.0,0.25,0.483398388,0.01,0.0,61081.0,0.0,0.0,0.0,0.0,0.0,3.34472622,0.01,0.0,-51707.0,0.125,0.0,-0.0,0.0,0.25,1.650390456,0.01,0.0,0.33000001311302185,-1.0299999713897705,72.20999908447266,0.00238037109375,0.05615234375,1.0374755859375,35.97999954223633,0.0,54.0,-3.8512420654296875,-1.514007568359375,Closing,0.0,0.0,-189.0,0.0,0.0,0.0,0.0,0.0,
2.265617,0.0,0.0,67402.0,0.0,0.0,0.0,0.0,0.25,0.850829991,0.01,0.0,-75497.0,0.125,0.0,-0.0,0.0,0.25,0.483398388,0.01,0.0,61081.0,0.0,0.0,0.0,0.0,0.0,3.345946923,0.01,0.0012207030000004337,-51707.0,0.125,0.0,-0.0,0.0,0.25,1.650390456,0.01,0.0,0.36000001430511475,-1.0399999618530273,72.19999694824219,0.0032958984375,-0.01654052734375,1.02734375,35.97999954223633,0.0,-15.0,-3.8506927490234375,-1.5139007568359375,Closing,0.0,0.0,-189.0,0.0,0.0,0.0,0.0,0.0,
2.3299889999999994,0.0,0.0,67402.0,0.0,0.0,0.0,0.0,0.25,0.850829991,0.01,0.0,-75497.0,0.125,0.0,-0.0,0.0,0.25,0.483398388,0.01,0.0,61081.0,0.0,0.0,0.0,0.0,0.0,3.345946923,0.01,0.0,-51707.0,0.125,0.0,-0.0,0.0,0.25,1.650390456,0.01,0.0,0.3199999928474426,-1.0199999809265137,72.20999908447266,-0.03363037109375,-0.01104736328125,1.01092529296875,35.97999954223633,0.0,-20.0,-3.8508148193359375,-1.513946533203125,Closing,0.0,0.0,-189.0,0.0,0.0,0.0,0.0,0.0,
2.399977999999999,0.0,0.0,67402.0,0.0,0.0,0.0,0.0,0.25,0.852050694,0.01,0.0,-75497.0,0.125,0.0,-0.0,0.0,0.25,0.483398388,0.01,0.0,61081.0,0.0,0.0,0.0,0.0,0.0,3.345946923,0.01,-0.0012207030000004337,-51707.0,0.0,0.0,-0.0,0.0,0.25,1.650390456,0.01,0.0,0.36000001430511475,-1.0299999713897705,72.20999908447266,-0.03564453125,-0.014892578125,1.0523681640625,35.97999954223633,0.0,-25.0,-3.8514251708984375,-1.5135955810546875,Closing,0.0,0.0,-189.0,0.0,0.0,0.0,0.0,0.0,
2.4685149999999996,0.0,0.0,67402.0,0.0,0.0,0.0,0.0,0.25,0.852050694,0.01,0.0,-75497.0,0.125,0.0,-0.0,0.0,0.25,0.483398388,0.01,0.0,61081.0,0.0,0.0,0.0,0.0,0.0,3.345946923,0.01,0.0012207030000004337,-51707.0,0.125,0.0,-0.0,0.0,0.25,1.650390456,0.01,0.0,0.3199999928474426,-1.0299999713897705,72.20999908447266,0.0,0.0518798828125,1.04058837890625,35.97999954223633,0.0,49.0,-3.852813720703125,-1.5132293701171875,Closing,0.0,0.0,-189.0,0.0,0.0,0.0,0.0,0.0,
2.522634,0.0,0.0,67402.0,0.0,0.0,0.0,0.0,0.25,0.850829991,0.01,0.0,-75497.0,0.0,0.0,-0.0,0.0,0.25,0.483398388,0.01,0.0,61081.0,0.0,0.0,0.0,0.0,0.0,3.34472622,0.01,0.0,-51707.0,0.125,0.0,-0.0,0.0,0.25,1.650390456,0.01,0.0,0.3499999940395355,-1.0399999618530273,72.19999694824219,0.00701904296875,-0.0125732421875,1.02783203125,36.0099983215332,0.0,-10.0,-3.8530731201171875,-1.513153076171875,Closing,0.0,0.0,-189.0,0.0,0.0,0.0,0.0,0.0,
2.6052819999999994,0.0,0.0,67402.0,0.0,0.0,0.0,0.0,0.25,0.850829991,0.01,0.0,-75497.0,0.125,0.0,-0.0,0.0,0.25,0.484619091,0.01,0.0,61081.0,0.0,0.0,0.0,0.0,0.0,3.345946923,0.01,0.0012207030000004337,-51707.0,0.125,0.0,-0.0,0.0,0.25,1.650390456,0.01,0.0,0.3400000035762787,-1.0299999713897705,72.19999694824219,-0.04486083984375,-0.00323486328125,1.00701904296875,36.0099983215332,0.0,-16.0,-3.853240966796875,-1.51318359375,Closing,0.0,0.0,-189.0,0.0,0.0,0.0,0.0,0.0,
2.739450999999999,0.0,0.0,67402.0,0.0,0.0,0.0,0.0,0.25,0.852050694,0.01,0.0,-75497.0,0.125,0.0,-0.0,0.0,0.25,0.483398388,0.01,0.0,61081.0,0.0,0.0,0.0,0.0,0.0,3.345946923,0.01,0.0,-51707.0,0.125,0.0,-0.0,0.0,0.25,1.650390456,0.01,0.0,0.33000001311302185,-1.0299999713897705,72.19999694824219,0.0042724609375,0.03955078125,1.044189453125,36.0099983215332,0.0,38.0,-3.8551788330078125,-1.51263427734375,Closing,0.0,0.0,-189.0,0.0,0.0,0.0,0.0,0.0,
2.869803,0.0,0.0,67402.0,0.0,0.0,0.0,0.0,0.25,0.850829991,0.01,0.0,-75497.0,0.125,0.0,-0.0,0.0,0.25,0.483398388,0.01,0.0,61081.0,0.0,0.0,0.0,0.0,0.0,3.345946923,0.01,0.0,-51707.0,0.125,0.0,-0.0,0.0,0.25,1.650390456,0.01,0.0,0.33000001311302185,-1.0299999713897705,72.20999908447266,-0.03729248046875,-0.0057373046875,1.0052490234375,36.0099983215332,0.0,-16.0,-3.8555908203125,-1.512664794921875,Closing,0.0,0.0,-189.0,0.0,0.0,0.0,0.0,0.0,
3.005915999999999,0.0,0.0,67402.0,0.0,0.0,0.0,0.0,0.25,0.852050694,0.01,0.0,-75497.0,0.0,0.0,-0.0,0.0,0.25,0.483398388,0.01,0.0,61081.0,0.0,0.0,0.0,0.0,0.0,3.345946923,0.01,0.0,-51707.0,0.125,0.0,-0.0,0.0,0.25,1.650390456,0.01,0.0,0.3199999928474426,-1.0299999713897705,72.20999908447266,3.0517578125E-4,0.03143310546875,1.0406494140625,36.0099983215332,0.0,30.0,-3.857666015625,-1.5126190185546875,Closing,0.0,0.0,-189.0,0.0,0.0,0.0,0.0,0.0,
3.067763999999999,0.0,0.0,67402.0,0.0,0.0,0.0,0.0,0.25,0.850829991,0.01,0.0,-75497.0,0.125,0.0,-0.0,0.0,0.25,0.483398388,0.01,0.0,61081.0,0.0,0.0,0.0,0.0,0.0,3.345946923,0.01,0.0012207030000004337,-51707.0,0.125,0.0,-0.0,0.0,0.25,1.650390456,0.01,0.0,0.3400000035762787,-1.0299999713897705,72.20999908447266,0.0032958984375,-0.0113525390625,1.00872802734375,36.0,0.0,-9.0,-3.8579559326171875,-1.5125579833984375,Closing,0.0,0.0,-189.0,0.0,0.0,0.0,0.0,0.0,
3.133645999999999,0.0,0.0,67402.0,0.0,0.0,0.0,0.0,0.25,0.850829991,0.01,0.0,-75497.0,0.0,0.0,-0.0,0.0,0.25,0.482177685,0.01,0.0,61081.0,0.0,0.0,0.0,0.0,0.0,3.345946923,0.01,0.0,-51707.0,0.125,0.0,-0.0,0.0,0.25,1.650390456,0.01,0.0,0.3400000035762787,-1.0199999809265137,72.19999694824219,-0.0438232421875,-0.0086669921875,1.0120849609375,36.0,0.0,-21.0,-3.8580780029296875,-1.512603759765625,Closing,0.0,0.0,-189.0,0.0,0.0,0.0,0.0,0.0,
3.203861999999999,0.0,0.0,67402.0,0.0,0.0,0.0,0.0,0.25,0.850829991,0.01,0.0,-75497.0,0.125,0.0,-0.0,0.0,0.25,0.483398388,0.01,0.0,61081.0,0.0,0.0,0.0,0.0,0.0,3.347167626,0.01,0.0012207030000004337,-51707.0,0.125,0.0,-0.0,0.0,0.25,1.650390456,0.01,0.0,0.3400000035762787,-1.0299999713897705,72.19999694824219,-0.00634765625,-0.02069091796875,1.0426025390625,36.0,0.0,-21.0,-3.85919189453125,-1.5124359130859375,Closing,0.0,0.0,-189.0,0.0,0.0,0.0,0.0,0.0,
3.3311090000000005,0.0,0.0,67402.0,0.0,0.0,0.0,0.0,0.25,0.850829991,0.01,0.0,-75497.0,0.125,0.0,-0.0,0.0,0.25,0.482177685,0.01,0.0,61081.0,0.0,0.0,0.0,0.0,0.0,3.345946923,0.01,0.0,-51707.0,0.125,0.0,-0.0,0.0,0.25,1.650390456,0.01,0.0,0.3400000035762787,-1.0399999618530273,72.19999694824219,0.0045166015625,-0.0072021484375,1.01373291015625,36.0,0.0,-5.0,-3.860504150390625,-1.5126800537109375,Closing,0.0,0.0,-189.0,0.0,0.0,0.0,0.0,0.0,
3.403218999999999,0.0,0.0,67402.0,0.0,0.0,0.0,0.0,0.25,0.850829991,0.01,0.0,-75497.0,0.125,0.0,-0.0,0.0,0.25,0.483398388,0.01,0.0,61081.0,0.0,0.0,0.0,0.0,0.0,3.345946923,0.01,0.0012207030000004337,-51707.0,0.125,0.0,-0.0,0.0,0.25,1.650390456,0.01,0.0,0.3400000035762787,-1.0299999713897705,72.19999694824219,-0.0438232421875,-0.0118408203125,1.00433349609375,36.0,0.0,-24.0,-3.860626220703125,-1.5127105712890625,Closing,0.0,0.0,-189.0,0.0,0.0,0.0,0.0,0.0,
3.5322600000000004,0.0,0.0,67402.0,0.0,0.0,0.0,0.0,0.25,0.850829991,0.01,0.0,-75497.0,0.125,0.0,-0.0,0.0,0.25,0.483398388,0.01,0.0,61081.0,0.0,0.0,0.0,0.0,0.0,3.345946923,0.01,0.0,-51707.0,0.125,0.0,-0.0,0.0,0.25,1.649169753,0.01,0.0,0.33000001311302185,-1.0299999713897705,72.19999694824219,0.0029296875,0.03692626953125,1.0384521484375,36.0,0.0,35.0,-3.8625030517578125,-1.5126800537109375,Closing,0.0,0.0,-189.0,0.0,0.0,0.0,0.0,0.0,
3.6031849999999994,0.0,0.0,67402.0,0.0,0.0,0.0,0.0,0.25,0.850829991,0.01,0.0,-75497.0,0.125,0.0,-0.0,0.0,0.25,0.483398388,0.01,0.0,61081.0,0.0,0.0,0.0,0.0,0.0,3.347167626,0.01,0.0,-51707.0,0.125,0.0,-0.0,0.0,0.25,1.649169753,0.01,0.0,0.3400000035762787,-1.0399999618530273,72.19999694824219,0.0137939453125,0.00396728515625,1.01043701171875,36.0099983215332,0.0,7.0,-3.86285400390625,-1.5126190185546875,Closing,0.0,0.0,-189.0,0.0,0.0,0.0,0.0,0.0,
3.6663999999999994,0.0,0.0,67402.0,0.0,0.0,0.0,0.0,0.25,0.852050694,0.01,0.0,-75497.0,0.125,0.0,-0.0,0.0,0.25,0.482177685,0.01,0.0,61081.0,0.0,0.0,0.0,0.0,0.0,3.347167626,0.01,0.0,-51707.0,0.0,0.0,-0.0,0.0,0.25,1.650390456,0.01,0.0,0.3400000035762787,-1.0299999713897705,72.19999694824219,-0.03839111328125,-0.01220703125,1.007568359375,36.0099983215332,0.0,-23.0,-3.8628997802734375,-1.5126800537109375,Closing,0.0,0.0,-189.0,0.0,0.0,0.0,0.0,0.0,
3.719102999999999,0.0,0.0,67402.0,0.0,0.0,0.0,0.0,0.25,0.850829991,0.01,0.0,-75497.0,0.125,0.0,-0.0,0.0,0.25,0.483398388,0.01,0.0,61081.0,0.0,0.0,0.0,0.0,0.0,3.345946923,0.01,0.0,-51707.0,0.125,0.0,-0.0,0.0,0.25,1.649169753,0.01,0.0,0.3400000035762787,-1.0299999713897705,72.19999694824219,-0.0255126953125,-0.01531982421875,1.065673828125,36.0099983215332,0.0,-22.0,-3.8635711669921875,-1.5124969482421875,Closing,0.0,0.0,-189.0,0.0,0.0,0.0,0.0,0.0,
3.866521999999999,0.0,0.0,67402.0,0.0,0.0,0.0,0.0,0.25,0.849609288,0.01,0.0,-75497.0,0.125,0.0,-0.0,0.0,0.25,0.483398388,0.01,0.0,61081.0,0.0,0.0,0.0,0.0,0.0,3.345946923,0.01,0.0,-51707.0,0.125,0.0,-0.0,0.0,0.25,1.650390456,0.01,0.0,0.3199999928474426,-1.0299999713897705,72.19999694824219,0.0028076171875,0.0333251953125,1.00762939453125,36.0099983215332,0.0,32.0,-3.865142822265625,-1.5124664306640625,Closing,0.0,0.0,-189.0,0.0,0.0,0.0,0.0,0.0,
4.002726999999999,0.0,0.0,67402.0,0.0,0.0,0.0,0.0,0.25,0.852050694,0.01,0.0,-75497.0,0.0,0.0,-0.0,0.0,0.25,0.483398388,0.01,0.0,61081.0,0.0,0.0,0.0,0.0,0.0,3.347167626,0.01,0.0,-51707.0,0.125,0.0,-0.0,0.0,0.25,1.650390456,0.01,0.0,0.3400000035762787,-1.0299999713897705,72.19999694824219,-0.01019287109375,-0.02142333984375,1.06048583984375,36.0099983215332,0.0,-23.0,-3.8662261962890625,-1.5123138427734375,Closing,0.0,0.0,-189.0,0.0,0.0,0.0,0.0,0.0,
4.068172999999999,0.0,0.0,67402.0,0.0,0.0,0.0,0.0,0.25,0.850829991,0.01,0.0,-75497.0,0.125,0.0,-0.0,0.0,0.25,0.483398388,0.01,0.0,61081.0,0.0,0.0,0.0,0.0,0.0,3.345946923,0.01,0.0012207030000004337,-51707.0,0.125,0.0,-0.0,0.0,0.25,1.650390456,0.01,0.0,0.33000001311302185,-1.0299999713897705,72.20999908447266,-0.008056640625,0.05975341796875,1.0072021484375,36.0099983215332,0.0,54.0,-3.8673095703125,-1.5124664306640625,Closing,0.0,0.0,-189.0,0.0,0.0,0.0,0.0,0.0,
4.132378999999999,0.0,0.0,67402.0,0.0,0.0,0.0,0.0,0.25,0.852050694,0.01,0.0,-75497.0,0.125,0.0,-0.0,0.0,0.25,0.483398388,0.01,0.0,61081.0,0.0,0.0,0.0,0.0,0.0,3.345946923,0.01,0.0,-51707.0,0.125,0.0,-0.0,0.0,0.25,1.649169753,0.01,0.0,0.3199999928474426,-1.0299999713897705,72.20999908447266,-0.0069580078125,0.03472900390625,1.01385498046875,36.0099983215332,0.0,30.0,-3.8675079345703125,-1.512542724609375,Closing,0.0,0.0,-189.0,0.0,0.0,0.0,0.0,0.0,
4.267472,0.0,0.0,67402.0,0.0,0.0,0.0,0.0,0.25,0.850829991,0.01,0.0,-75497.0,0.125,0.0,-0.0,0.0,0.25,0.483398388,0.01,0.0,61081.0,0.0,0.0,0.0,0.0,0.0,3.345946923,0.01,0.0,-51707.0,0.125,0.0,-0.0,0.0,0.25,1.650390456,0.01,0.0,0.33000001311302185,-1.0299999713897705,72.19999694824219,0.002685546875,0.0140380859375,1.01068115234375,36.0099983215332,0.0,14.0,-3.8689727783203125,-1.512481689453125,Closing,0.0,0.0,-189.0,0.0,0.0,0.0,0.0,0.0,
4.3384920000000005,0.0,0.0,67402.0,0.0,0.0,0.0,0.0,0.25,0.850829991,0.01,0.0,-75497.0,0.125,0.0,-0.0,0.0,0.25,0.482177685,0.01,0.0,61081.0,0.0,0.0,0.0,0.0,0.0,3.345946923,0.01,0.0,-51707.0,0.125,0.0,-0.0,0.0,0.25,1.650390456,0.01,0.0,0.33000001311302185,-1.0299999713897705,72.19999694824219,-0.0281982421875,0.027099609375,0.9964599609375,36.0099983215332,0.0,17.0,-3.8697967529296875,-1.5125579833984375,Closing,0.0,0.0,-189.0,0.0,0.0,0.0,0.0,0.0,
4.469891,0.0,0.0,67402.0,0.0,0.0,0.0,0.0,0.25,0.852050694,0.01,0.0,-75497.0,0.125,0.0,-0.0,0.0,0.25,0.483398388,0.01,0.0,61081.0,0.0,0.0,0.0,0.0,0.0,3.345946923,0.01,0.0,-51707.0,0.125,0.0,-0.0,0.0,0.25,1.650390456,0.01,0.0,0.33000001311302185,-1.0199999809265137,72.19999694824219,-0.05731201171875,-0.0340576171875,1.0362548828125,36.0099983215332,0.0,-50.0,-3.8699493408203125,-1.512481689453125,Closing,0.0,0.0,-189.0,0.0,0.0,0.0,0.0,0.0,
4.600321,0.0,0.0,67402.0,0.0,0.0,0.0,0.0,0.25,0.850829991,0.01,0.0,-75497.0,0.0,0.0,-0.0,0.0,0.25,0.483398388,0.01,0.0,61081.0,0.0,0.0,0.0,0.0,0.0,3.347167626,0.01,0.0,-51707.0,0.125,0.0,-0.0,0.0,0.25,1.649169753,0.01,0.0,0.33000001311302185,-1.0299999713897705,72.20999908447266,-0.02874755859375,0.01409912109375,1.00238037109375,36.0,0.0,4.0,-3.871368408203125,-1.5122833251953125,Closing,0.0,0.0,-189.0,0.0,0.0,0.0,0.0,0.0,
4.656425,0.0,0.0,67402.0,0.0,0.0,0.0,0.0,0.25,0.850829991,0.01,0.0,-75497.0,0.125,0.0,-0.0,0.0,0.25,0.483398388,0.01,0.0,61081.0,0.0,0.0,0.0,0.0,0.0,3.347167626,0.01,0.0012207030000004337,-51707.0,0.125,0.0,-0.0,0.0,0.25,1.650390456,0.01,0.0,0.33000001311302185,-1.0199999809265137,72.19999694824219,-0.0418701171875,-0.01666259765625,1.013916015625,36.0,0.0,-28.0,-3.8713226318359375,-1.5123748779296875,Closing,0.0,0.0,-189.0,0.0,0.0,0.0,0.0,0.0,
4.731726999999999,0.0,0.0,67402.0,0.0,0.0,0.0,0.0,0.25,0.850829991,0.01,0.0,-75497.0,0.125,0.0,-0.0,0.0,0.25,0.483398388,0.01,0.0,61081.0,0.0,0.0,0.0,0.0,0.0,3.345946923,0.01,0.0,-51707.0,0.125,0.0,-0.0,0.0,0.25,1.649169753,0.01,0.0,0.3400000035762787,-1.0199999809265137,72.20999908447266,-0.0350341796875,-0.00982666015625,1.054931640625,36.0,0.0,-20.0,-3.8718719482421875,-1.5121002197265625,Closing,0.0,0.0,-189.0,0.0,0.0,0.0,0.0,0.0,
4.868665999999999,0.0,0.0,67402.0,0.0,0.0,0.0,0.0,0.25,0.850829991,0.01,0.0,-75497.0,0.125,0.0,-0.0,0.0,0.25,0.482177685,0.01,0.0,61081.0,0.0,0.0,0.0,0.0,0.0,3.347167626,0.01,0.0,-51707.0,0.125,0.0,-0.0,0.0,0.25,1.649169753,0.01,0.0,0.33000001311302185,-1.0399999618530273,72.19999694824219,0.00665283203125,-0.0025634765625,1.0230712890625,36.0,0.0,0.0,-3.87115478515625,-1.511871337890625,Closing,0.0,0.0,-189.0,0.0,0.0,0.0,0.0,0.0,
4.932215,0.0,0.0,67402.0,0.0,0.0,0.0,0.0,0.25,0.850829991,0.01,0.0,-75497.0,0.0,0.0,-0.0,0.0,0.25,0.483398388,0.01,0.0,61081.0,0.0,0.0,0.0,0.0,0.0,3.345946923,0.01,0.0,-51707.0,0.125,0.0,-0.0,0.0,0.25,1.650390456,0.01,0.0,0.3400000035762787,-1.0299999713897705,72.19999694824219,-0.04296875,-0.02197265625,1.0091552734375,36.0,0.0,-34.0,-3.87005615234375,-1.5118255615234375,Closing,0.0,0.0,-189.0,0.0,0.0,0.0,0.0,0.0,
5.0016739999999995,0.0,0.0,67402.0,0.0,0.0,0.0,0.0,0.25,0.852050694,0.01,0.0,-75497.0,0.125,0.0,-0.0,0.0,0.25,0.483398388,0.01,0.0,61081.0,0.0,0.0,0.0,0.0,0.0,3.347167626,0.01,0.0,-51707.0,0.125,0.0,-0.0,0.0,0.25,1.650390456,0.01,0.0,0.3400000035762787,-1.0299999713897705,72.19999694824219,-0.0106201171875,-0.01171875,1.08929443359375,36.0,0.0,-14.0,-3.8696746826171875,-1.511444091796875,Closing,0.0,0.0,-189.0,0.0,0.0,0.0,0.0,0.0,
5.067562,0.0,0.0,67402.0,0.0,0.0,0.0,0.0,0.25,0.850829991,0.01,0.0,-75497.0,0.125,0.0,-0.0,0.0,0.25,0.483398388,0.01,0.0,61081.0,0.0,0.0,0.0,0.0,0.0,3.345946923,0.01,-0.0012207030000004337,-51707.0,0.125,0.0,-0.0,0.0,0.25,1.650390456,0.01,0.0,0.33000001311302185,-1.0299999713897705,72.19999694824219,0.001953125,0.02850341796875,1.03863525390625,36.0,0.0,27.0,-3.8695220947265625,-1.5112762451171875,Closing,0.0,0.0,-189.0,0.0,0.0,0.0,0.0,0.0,
5.135044,0.0,0.0,67402.0,0.0,0.0,0.0,0.0,0.25,0.850829991,0.01,0.0,-75497.0,0.125,0.0,-0.0,0.0,0.25,0.482177685,0.01,0.0,61081.0,0.0,0.0,0.0,0.0,0.0,3.345946923,0.01,0.0,-51707.0,0.125,0.0,-0.0,0.0,0.25,1.650390456,0.01,0.0,0.33000001311302185,-1.0399999618530273,72.19999694824219,0.01605224609375,0.01910400390625,1.01873779296875,35.97999954223633,0.0,23.0,-3.86834716796875,-1.51123046875,Closing,0.0,0.0,-189.0,0.0,0.0,0.0,0.0,0.0,
5.267347999999998,0.0,0.0,67402.0,0.0,0.0,0.0,0.0,0.25,0.850829991,0.01,0.0,-75497.0,0.125,0.0,-0.0,0.0,0.25,0.483398388,0.01,0.0,61081.0,0.0,0.0,0.0,0.0,0.0,3.345946923,0.01,0.0,-51707.0,0.125,0.0,-0.0,0.0,0.25,1.649169753,0.01,0.0,0.3499999940395355,-1.0199999809265137,72.19999694824219,-0.0023193359375,-0.01300048828125,1.02972412109375,35.97999954223633,0.0,-13.0,-3.866729736328125,-1.5111083984375,Closing,0.0,0.0,-189.0,0.0,0.0,0.0,0.0,0.0,
5.321536,0.0,0.0,67402.0,0.0,0.0,0.0,0.0,0.25,0.850829991,0.01,0.0,-75497.0,0.125,0.0,-0.0,0.0,0.25,0.483398388,0.01,0.0,61081.0,0.0,0.0,0.0,0.0,0.0,3.345946923,0.01,0.0,-51707.0,0.125,0.0,-0.0,0.0,0.25,1.650390456,0.01,0.0,0.3400000035762787,-1.0299999713897705,72.19999694824219,-0.0113525390625,0.061279296875,1.01171875,35.97999954223633,0.0,54.0,-3.86627197265625,-1.5112152099609375,Closing,0.0,0.0,-189.0,0.0,0.0,0.0,0.0,0.0,
5.4676800000000005,0.0,0.0,67402.0,0.0,0.0,0.0,0.0,0.25,0.850829991,0.01,0.0,-75497.0,0.125,0.0,-0.0,0.0,0.25,0.483398388,0.01,0.0,61081.0,0.0,0.0,0.0,0.0,0.0,3.345946923,0.01,0.0,-51707.0,0.125,0.0,-0.0,0.0,0.25,1.649169753,0.01,0.0,0.3400000035762787,-1.0299999713897705,72.20999908447266,-0.055419921875,-0.01763916015625,1.00897216796875,35.97999954223633,0.0,-34.0,-3.8658294677734375,-1.511383056640625,Closing,0.0,0.0,-189.0,0.0,0.0,0.0,0.0,0.0,
5.601171999999998,0.0,0.0,67402.0,0.0,0.0,0.0,0.0,0.25,0.849609288,0.01,0.0,-75497.0,0.125,0.0,-0.0,0.0,0.25,0.483398388,0.01,0.0,61081.0,0.0,0.0,0.0,0.0,0.0,3.34472622,0.01,0.0,-51707.0,0.125,0.0,-0.0,0.0,0.25,1.650390456,0.01,0.0,0.3400000035762787,-1.0199999809265137,72.19999694824219,-0.02520751953125,0.05218505859375,1.01031494140625,35.9900016784668,0.0,41.0,-3.8658599853515625,-1.5107269287109375,Closing,0.0,0.0,-189.0,0.0,0.0,0.0,0.0,0.0,
5.730792999999998,0.0,0.0,67402.0,0.0,0.0,0.0,0.0,0.25,0.849609288,0.01,0.0,-75497.0,0.0,0.0,-0.0,0.0,0.25,0.483398388,0.01,0.0,61081.0,0.0,0.0,0.0,0.0,0.0,3.345946923,0.01,0.0,-51707.0,0.125,0.0,-0.0,0.0,0.25,1.649169753,0.01,0.0,0.3400000035762787,-1.0199999809265137,72.19999694824219,-0.06256103515625,-0.02294921875,1.01446533203125,35.9900016784668,0.0,-41.0,-3.865753173828125,-1.5106658935546875,Closing,0.0,0.0,-189.0,0.0,0.0,0.0,0.0,0.0,
5.802064999999999,0.0,0.0,67402.0,0.0,0.0,0.0,0.0,0.25,0.850829991,0.01,0.0,-75497.0,0.125,0.0,-0.0,0.0,0.25,0.483398388,0.01,0.0,61081.0,0.0,0.0,0.0,0.0,0.0,3.345946923,0.01,0.0,-51707.0,0.125,0.0,-0.0,0.0,0.25,1.650390456,0.01,0.0,0.3400000035762787,-1.0299999713897705,72.19999694824219,0.0062255859375,0.022216796875,0.98028564453125,35.9900016784668,0.0,22.0,-3.8664703369140625,-1.51025390625,Closing,0.0,0.0,-189.0,0.0,0.0,0.0,0.0,0.0,
5.867953000000002,0.0,0.0,67402.0,0.0,0.0,0.0,0.0,0.25,0.852050694,0.01,0.0,-75497.0,0.125,0.0,-0.0,0.0,0.25,0.483398388,0.01,0.0,61081.0,0.0,0.0,0.0,0.0,0.0,3.347167626,0.01,0.0012207030000004337,-51707.0,0.125,0.0,-0.0,0.0,0.25,1.650390456,0.01,0.0,0.33000001311302185,-1.0299999713897705,72.19999694824219,-0.00970458984375,0.0567626953125,1.01129150390625,35.9900016784668,0.0,50.0,-3.865997314453125,-1.51025390625,Closing,0.0,0.0,-189.0,0.0,0.0,0.0,0.0,0.0,
5.985438999999999,0.0,0.0,67402.0,0.0,0.0,0.0,0.0,0.25,0.852050694,0.01,0.0,-75497.0,0.125,0.0,-0.0,0.0,0.25,0.482177685,0.01,0.0,61081.0,0.0,0.0,0.0,0.0,0.0,3.345946923,0.01,0.0,-51707.0,0.125,0.0,-0.0,0.0,0.25,1.650390456,0.01,0.0,0.3400000035762787,-1.0199999809265137,72.19999694824219,-0.053466796875,-0.0167236328125,1.0025634765625,35.9900016784668,0.0,-32.0,-3.8656768798828125,-1.510284423828125,Closing,0.0,0.0,-189.0,0.0,0.0,0.0,0.0,0.0,
6.0658970000000005,0.0,0.0,67402.0,0.0,0.0,0.0,0.0,0.25,0.850829991,0.01,0.0,-75497.0,0.125,0.0,-0.0,0.0,0.25,0.483398388,0.01,0.0,61081.0,0.0,0.0,0.0,0.0,0.0,3.345946923,0.01,-0.0012207030000004337,-51707.0,0.125,0.0,-0.0,0.0,0.25,1.650390456,0.01,0.0,0.3499999940395355,-1.0299999713897705,72.19000244140625,-0.00341796875,-0.00244140625,1.025390625,35.9900016784668,0.0,-3.0,-3.8665618896484375,-1.5097808837890625,Closing,0.0,0.0,-189.0,0.0,0.0,0.0,0.0,0.0,
6.122420999999998,0.0,0.0,67402.0,0.0,0.0,0.0,0.0,0.25,0.850829991,0.01,0.0,-75497.0,0.0,0.0,-0.0,0.0,0.25,0.483398388,0.01,0.0,61081.0,0.0,0.0,0.0,0.0,0.0,3.347167626,0.01,0.0012207030000004337,-51707.0,0.125,0.0,-0.0,0.0,0.25,1.650390456,0.01,0.0,0.3400000035762787,-1.0299999713897705,72.19000244140625,0.004638671875,0.029296875,1.0438232421875,36.0,0.0,29.0,-3.8662109375,-1.509857177734375,Closing,0.0,0.0,-189.0,0.0,0.0,0.0,0.0,0.0,
6.202380000000001,0.0,0.0,67402.0,0.0,0.0,0.0,0.0,0.25,0.850829991,0.01,0.0,-75497.0,0.125,0.0,-0.0,0.0,0.25,0.483398388,0.01,0.0,61081.0,0.0,0.0,0.0,0.0,0.0,3.347167626,0.01,0.0,-51707.0,0.125,0.0,-0.0,0.0,0.25,1.650390456,0.01,0.0,0.3400000035762787,-1.0299999713897705,72.19000244140625,0.00360107421875,0.02783203125,1.0294189453125,36.0,0.0,27.0,-3.865478515625,-1.5100250244140625,Closing,0.0,0.0,-189.0,0.0,0.0,0.0,0.0,0.0,
6.267375,0.0,0.0,67402.0,0.0,0.0,0.0,0.0,0.25,0.850829991,0.01,0.0,-75497.0,0.0,0.0,-0.0,0.0,0.25,0.483398388,0.01,0.0,61081.0,0.0,0.0,0.0,0.0,0.0,3.345946923,0.01,0.0,-51707.0,0.125,0.0,-0.0,0.0,0.25,1.650390456,0.01,0.0,0.3499999940395355,-1.0199999809265137,72.19000244140625,-0.05963134765625,-0.02392578125,1.01129150390625,36.0,0.0,-41.0,-3.865753173828125,-1.5099945068359375,Closing,0.0,0.0,-189.0,0.0,0.0,0.0,0.0,0.0,
6.331761999999999,0.0,0.0,67402.0,0.0,0.0,0.0,0.0,0.25,0.850829991,0.01,0.0,-75497.0,0.125,0.0,-0.0,0.0,0.25,0.483398388,0.01,0.0,61081.0,0.0,0.0,0.0,0.0,0.0,3.345946923,0.01,-0.0012207030000004337,-51707.0,0.125,0.0,-0.0,0.0,0.25,1.650390456,0.01,0.0,0.36000001430511475,-1.0199999809265137,72.19000244140625,-0.012939453125,0.0029296875,1.06048583984375,36.0,0.0,-1.0,-3.8664398193359375,-1.5095977783203125,Closing,0.0,0.0,-189.0,0.0,0.0,0.0,0.0,0.0,
6.3992429999999985,0.0,0.0,67402.0,0.0,0.0,0.0,0.0,0.25,0.850829991,0.01,0.0,-75497.0,0.125,0.0,-0.0,0.0,0.25,0.483398388,0.01,0.0,61081.0,0.0,0.0,0.0,0.0,0.0,3.345946923,0.01,0.0,-51707.0,0.125,0.0,-0.0,0.0,0.25,1.650390456,0.01,0.0,0.3499999940395355,-1.0199999809265137,72.19999694824219,-0.00164794921875,0.01983642578125,1.05059814453125,36.0,0.0,17.0,-3.866119384765625,-1.5097503662109375,Closing,0.0,0.0,-189.0,0.0,0.0,0.0,0.0,0.0,
6.46745,0.0,0.0,67402.0,0.0,0.0,0.0,0.0,0.25,0.850829991,0.01,0.0,-75497.0,0.125,0.0,-0.0,0.0,0.25,0.483398388,0.01,0.0,61081.0,0.0,0.0,0.0,0.0,0.0,3.345946923,0.01,0.0012207030000004337,-51707.0,0.125,0.0,-0.0,0.0,0.25,1.650390456,0.01,0.0,0.3400000035762787,-1.0199999809265137,72.19000244140625,-0.01898193359375,0.01971435546875,1.02862548828125,36.0,0.0,12.0,-3.865509033203125,-1.5097503662109375,Closing,0.0,0.0,-189.0,0.0,0.0,0.0,0.0,0.0,
6.529880000000001,0.0,0.0,67402.0,0.0,0.0,0.0,0.0,0.25,0.850829991,0.01,0.0,-75497.0,0.125,0.0,-0.0,0.0,0.25,0.483398388,0.01,0.0,61081.0,0.0,0.0,0.0,0.0,0.0,3.345946923,0.01,0.0,-51707.0,0.125,0.0,-0.0,0.0,0.25,1.649169753,0.01,0.0,0.36000001430511475,-1.0199999809265137,72.19000244140625,-0.01513671875,-0.0186767578125,1.04296875,36.0,0.0,-22.0,-3.865570068359375,-1.5097808837890625,Closing,0.0,0.0,-189.0,0.0,0.0,0.0,0.0,0.0,
6.599109,0.0,0.0,67402.0,0.0,0.0,0.0,0.0,0.25,0.850829991,0.01,0.0,-75497.0,0.125,0.0,-0.0,0.0,0.25,0.483398388,0.01,0.0,61081.0,0.0,0.0,0.0,0.0,0.0,3.345946923,0.01,0.0,-51707.0,0.125,0.0,-0.0,0.0,0.25,1.650390456,0.01,0.0,0.36000001430511475,-1.0099999904632568,72.19000244140625,-0.015380859375,0.00390625,0.99676513671875,36.0,0.0,-1.0,-3.8656158447265625,-1.5097808837890625,Closing,0.0,0.0,-189.0,0.0,0.0,0.0,0.0,0.0,
6.666860000000001,0.0,0.0,67402.0,0.0,0.0,0.0,0.0,0.25,0.852050694,0.01,0.0,-75497.0,0.125,0.0,-0.0,0.0,0.25,0.483398388,0.01,0.0,61081.0,0.0,0.0,0.0,0.0,0.0,3.345946923,0.01,0.0,-51707.0,0.125,0.0,-0.0,0.0,0.25,1.650390456,0.01,0.0,0.36000001430511475,-1.0199999809265137,72.18000030517578,-0.01629638671875,-0.01422119140625,1.00665283203125,36.0099983215332,0.0,-19.0,-3.8656158447265625,-1.5097808837890625,Closing,0.0,0.0,-189.0,0.0,0.0,0.0,0.0,0.0,
6.733103999999999,0.0,0.0,67402.0,0.0,0.0,0.0,0.0,0.25,0.850829991,0.01,0.0,-75497.0,0.0,0.0,-0.0,0.0,0.25,0.484619091,0.01,0.0,61081.0,0.0,0.0,0.0,0.0,0.0,3.347167626,0.01,0.0,-51707.0,0.125,0.0,-0.0,0.0,0.25,1.650390456,0.01,0.0,0.36000001430511475,-1.0199999809265137,72.18000030517578,-0.01904296875,0.017333984375,1.014404296875,36.0099983215332,0.0,10.0,-3.8656158447265625,-1.5097808837890625,Closing,0.0,0.0,-189.0,0.0,0.0,0.0,0.0,0.0,
6.789773000000001,0.0,0.0,67402.0,0.0,0.0,0.0,0.0,0.25,0.852050694,0.01,0.0,-75497.0,0.125,0.0,-0.0,0.0,0.25,0.483398388,0.01,0.0,61081.0,0.0,0.0,0.0,0.0,0.0,3.345946923,0.01,-0.0012207030000004337,-51707.0,0.125,0.0,-0.0,0.0,0.25,1.650390456,0.01,0.0,0.36000001430511475,-1.0299999713897705,72.18000030517578,-0.01934814453125,6.103515625E-4,1.025390625,36.0099983215332,0.0,-5.0,-3.8656158447265625,-1.5097808837890625,Closing,0.0,0.0,-189.0,0.0,0.0,0.0,0.0,0.0,
6.866295999999998,0.0,0.0,67402.0,0.0,0.0,0.0,0.0,0.25,0.850829991,0.01,0.0,-75497.0,0.125,0.0,-0.0,0.0,0.25,0.482177685,0.01,0.0,61081.0,0.0,0.0,0.0,0.0,0.0,3.347167626,0.01,0.0012207030000004337,-51707.0,0.125,0.0,-0.0,0.0,0.25,1.650390456,0.01,0.0,0.3700000047683716,-1.0199999809265137,72.18000030517578,-0.02142333984375,0.005859375,1.0250244140625,36.0099983215332,0.0,-1.0,-3.8656158447265625,-1.5097808837890625,Closing,0.0,0.0,-189.0,0.0,0.0,0.0,0.0,0.0,
6.931742999999998,0.0,0.0,67402.0,0.0,0.0,0.0,0.0,0.25,0.852050694,0.01,0.0,-75497.0,0.125,0.0,-0.0,0.0,0.25,0.483398388,0.01,0.0,61081.0,0.0,0.0,0.0,0.0,0.0,3.345946923,0.01,-0.0012207030000004337,-51707.0,0.125,0.0,-0.0,0.0,0.25,1.650390456,0.01,0.0,0.36000001430511475,-1.0299999713897705,72.18000030517578,-0.0174560546875,0.00689697265625,1.02447509765625,36.0099983215332,0.0,0.0,-3.8656158447265625,-1.5097808837890625,Closing,0.0,0.0,-189.0,0.0,0.0,0.0,0.0,0.0,
6.999248,0.0,0.0,67402.0,0.0,0.0,0.0,0.0,0.25,0.850829991,0.01,0.0,-75497.0,0.0,0.0,-0.0,0.0,0.25,0.483398388,0.01,0.0,61081.0,0.0,0.0,0.0,0.0,0.0,3.347167626,0.01,0.0,-51707.0,0.125,0.0,-0.0,0.0,0.25,1.650390456,0.01,0.0,0.36000001430511475,-1.0299999713897705,72.16999816894531,-0.02032470703125,0.00567626953125,1.03240966796875,36.0099983215332,0.0,-1.0,-3.8656158447265625,-1.5097808837890625,Closing,0.0,0.0,-189.0,0.0,0.0,0.0,0.0,0.0,
7.068089,0.0,0.0,67402.0,0.0,0.0,0.0,0.0,0.25,0.849609288,0.01,0.0,-75497.0,0.125,0.0,-0.0,0.0,0.25,0.483398388,0.01,0.0,61081.0,0.0,0.0,0.0,0.0,0.0,3.347167626,0.01,0.0012207030000004337,-51707.0,0.125,0.0,-0.0,0.0,0.25,1.649169753,0.01,0.0,0.36000001430511475,-1.0299999713897705,72.16999816894531,-0.02081298828125,0.00677490234375,1.02801513671875,36.0099983215332,0.0,0.0,-3.8656158447265625,-1.5097808837890625,Closing,0.0,0.0,-189.0,0.0,0.0,0.0,0.0,0.0,
7.133841,0.0,0.0,67402.0,0.0,0.0,0.0,0.0,0.25,0.850829991,0.01,-0.0012207029999999897,-75497.0,0.125,0.0,-0.0,0.0,0.25,0.482177685,0.01,0.0,61081.0,0.0,0.0,0.0,0.0,0.0,3.34472622,0.01,0.0,-51707.0,0.125,0.0,-0.0,0.0,0.25,1.650390456,0.01,0.0,0.36000001430511475,-1.0299999713897705,72.16999816894531,-0.01934814453125,0.0052490234375,1.025146484375,36.0,0.0,-1.0,-3.8656158447265625,-1.5097808837890625,Closing,0.0,0.0,-189.0,0.0,0.0,0.0,0.0,0.0,
7.264413,0.0,0.0,67402.0,0.0,0.0,0.0,0.0,0.25,0.850829991,0.01,0.0,-75497.0,0.125,0.0,-0.0,0.0,0.25,0.483398388,0.01,0.0,61081.0,0.0,0.0,0.0,0.0,0.0,3.347167626,0.01,0.0,-51707.0,0.125,0.0,-0.0,0.0,0.25,1.650390456,0.01,0.0,0.3100000023841858,-1.0,72.16999816894531,0.02484130859375,0.10675048828125,1.12164306640625,36.0,0.0,109.0,-3.865753173828125,-1.5097198486328125,Opening,0.0,0.0,-189.0,0.0,0.0,0.0,0.0,0.0,
7.330217,0.0,0.0,67402.0,0.0,0.0,0.0,0.0,0.25,0.850829991,0.01,0.0,-75497.0,0.125,0.0,-0.0,0.0,0.25,0.483398388,0.01,0.0,61081.0,0.0,0.0,0.0,0.0,0.0,3.345946923,0.01,0.0,-51707.0,0.125,0.0,-0.0,0.0,0.25,1.650390456,0.01,0.0,0.3799999952316284,-1.0499999523162842,72.16999816894531,-0.15863037109375,0.02008056640625,1.3123779296875,36.0,0.0,-30.0,-3.865509033203125,-1.509674072265625,Opening,0.0,0.0,-189.0,0.0,0.0,0.0,0.0,0.0,
7.398164,0.0,0.0,67402.0,0.0,0.0,0.0,0.0,0.25,0.850829991,0.01,0.0,-75497.0,0.125,0.0,-0.0,0.0,0.25,0.482177685,0.01,0.0,61081.0,0.0,0.0,0.0,0.0,0.0,3.345946923,0.01,0.0,-51707.0,0.125,0.0,-0.0,0.0,0.25,1.650390456,0.01,0.0,0.33000001311302185,-1.0399999618530273,72.16999816894531,-0.00537109375,0.109619140625,0.896484375,36.0,0.0,102.0,-3.86529541015625,-1.50909423828125,Opening,0.0,0.0,-189.0,0.0,0.0,0.0,0.0,0.0,
7.464531999999999,0.0,0.0,67402.0,0.0,0.0,0.0,0.0,0.25,0.850829991,0.01,0.0,-75497.0,0.125,0.0,-0.0,0.0,0.25,0.482177685,0.01,0.0,61081.0,0.0,0.0,0.0,0.0,0.0,3.345946923,0.01,0.0,-51707.0,0.125,0.0,-0.0,0.0,0.25,1.649169753,0.01,0.0,0.3499999940395355,-1.0399999618530273,72.16999816894531,0.0045166015625,0.01611328125,1.0716552734375,36.0,0.0,16.0,-3.8649749755859375,-1.508697509765625,Opening,0.0,0.0,-189.0,0.0,0.0,0.0,0.0,0.0,
7.531546999999999,0.0,0.0,67402.0,0.0,0.0,0.0,0.0,0.25,0.849609288,0.01,0.0,-75497.0,0.125,0.0,-0.0,0.0,0.25,0.483398388,0.01,0.0,61081.0,0.0,0.0,0.0,0.0,0.0,3.345946923,0.01,0.0012207030000004337,-51707.0,0.125,0.0,-0.0,0.0,0.25,1.649169753,0.01,0.0,0.3499999940395355,-1.0299999713897705,72.16999816894531,0.00299072265625,-0.01324462890625,1.0963134765625,36.0,0.0,-12.0,-3.864410400390625,-1.5087127685546875,Opening,0.0,0.0,-189.0,0.0,0.0,0.0,0.0,0.0,
7.6008270000000016,0.0,0.0,67402.0,0.0,0.0,0.0,0.0,0.25,0.850829991,0.01,0.0,-75497.0,0.125,0.0,-0.0,0.0,0.25,0.483398388,0.01,0.0,61081.0,0.0,0.0,0.0,0.0,0.0,3.345946923,0.01,0.0,-51707.0,0.125,0.0,-0.0,0.0,0.25,1.650390456,0.01,0.0,0.3499999940395355,-1.0199999809265137,72.16999816894531,-0.01678466796875,-0.023193359375,1.00384521484375,36.0,0.0,-27.0,-3.8638458251953125,-1.5087127685546875,Opening,0.0,0.0,-189.0,0.0,0.0,0.0,0.0,0.0,
7.668726999999999,0.0,0.0,67402.0,0.0,0.0,0.0,0.0,0.25,0.852050694,0.01,0.0,-75497.0,0.125,0.0,-0.0,0.0,0.25,0.483398388,0.01,0.0,61081.0,0.0,0.0,0.0,0.0,0.0,3.345946923,0.01,0.0012207030000004337,-51707.0,0.125,0.0,-0.0,0.0,0.25,1.650390456,0.01,0.0,0.3499999940395355,-1.0099999904632568,72.16999816894531,-0.00994873046875,-0.01007080078125,1.00689697265625,36.0099983215332,0.0,-13.0,-3.86383056640625,-1.5087127685546875,Opening,0.0,0.0,-189.0,0.0,0.0,0.0,0.0,0.0,
7.7333739999999995,0.0,0.0,67402.0,0.0,0.0,0.0,0.0,0.25,0.850829991,0.01,0.0,-75497.0,0.125,0.0,-0.0,0.0,0.25,0.483398388,0.01,0.0,61081.0,0.0,0.0,0.0,0.0,0.0,3.345946923,0.01,0.0,-51707.0,0.125,0.0,-0.0,0.0,0.25,1.650390456,0.01,0.0,0.3499999940395355,-1.0099999904632568,72.16999816894531,-0.014892578125,0.008544921875,1.00189208984375,36.0099983215332,0.0,3.0,-3.86383056640625,-1.5087127685546875,Opening,0.0,0.0,-189.0,0.0,0.0,0.0,0.0,0.0,
7.799771000000001,0.0,0.0,67402.0,0.0,0.0,0.0,0.0,0.25,0.850829991,0.01,0.0,-75497.0,0.125,0.0,-0.0,0.0,0.25,0.482177685,0.01,0.0,61081.0,0.0,0.0,0.0,0.0,0.0,3.345946923,0.01,0.0,-51707.0,0.125,0.0,-0.0,0.0,0.25,1.650390456,0.01,0.0,0.3499999940395355,-1.0299999713897705,72.16999816894531,-0.0203857421875,0.01055908203125,1.02532958984375,36.0099983215332,0.0,3.0,-3.86383056640625,-1.5087127685546875,Opening,0.0,0.0,-189.0,0.0,0.0,0.0,0.0,0.0,
7.930326000000001,0.0,0.0,67402.0,0.0,0.0,0.0,0.0,0.25,0.850829991,0.01,0.0,-75497.0,0.125,0.0,-0.0,0.0,0.25,0.483398388,0.01,0.0,61081.0,0.0,0.0,0.0,0.0,0.0,3.345946923,0.01,0.0,-51707.0,0.125,0.0,-0.0,0.0,0.25,1.650390456,0.01,0.0,0.3499999940395355,-1.0299999713897705,72.16999816894531,-0.0211181640625,0.00537109375,1.02679443359375,36.0099983215332,0.0,-1.0,-3.86383056640625,-1.5087127685546875,Opening,0.0,0.0,-189.0,0.0,0.0,0.0,0.0,0.0,
8.000646000000001,0.0,0.0,67402.0,0.0,0.0,0.0,0.0,0.25,0.852050694,0.01,0.0,-75497.0,0.125,0.0,-0.0,0.0,0.25,0.483398388,0.01,0.0,61081.0,0.0,0.0,0.0,0.0,0.0,3.345946923,0.01,0.0,-51707.0,0.125,0.0,-0.0,0.0,0.25,1.650390456,0.01,0.0,0.3499999940395355,-1.0299999713897705,72.16999816894531,-0.01434326171875,0.00543212890625,1.0218505859375,36.0099983215332,0.0,0.0,-3.86383056640625,-1.5087127685546875,Opening,0.0,0.0,-189.0,0.0,0.0,0.0,0.0,0.0,
8.068455999999998,0.0,0.0,67402.0,0.0,0.0,0.0,0.0,0.25,0.852050694,0.01,0.0,-75497.0,0.125,0.0,-0.0,0.0,0.25,0.483398388,0.01,0.0,61081.0,0.0,0.0,0.0,0.0,0.0,3.347167626,0.01,0.0012207030000004337,-51707.0,0.125,0.0,-0.0,0.0,0.25,1.650390456,0.01,0.0,0.3499999940395355,-1.0299999713897705,72.16999816894531,-0.02130126953125,0.00555419921875,1.02020263671875,36.0099983215332,0.0,-1.0,-3.86383056640625,-1.5087127685546875,Opening,0.0,0.0,-189.0,0.0,0.0,0.0,0.0,0.0,
8.132335999999999,0.0,0.0,67402.0,0.0,0.0,0.0,0.0,0.25,0.850829991,0.01,0.0,-75497.0,0.125,0.0,-0.0,0.0,0.25,0.483398388,0.01,0.0,61081.0,0.0,0.0,0.0,0.0,0.0,3.345946923,0.01,-0.0012207030000004337,-51707.0,0.125,0.0,-0.0,0.0,0.25,1.649169753,0.01,0.0,0.3400000035762787,-1.0299999713897705,72.16999816894531,-0.01861572265625,0.0057373046875,1.01458740234375,36.0099983215332,0.0,0.0,-3.86383056640625,-1.5087127685546875,Opening,0.0,0.0,-189.0,0.0,0.0,0.0,0.0,0.0,
8.200606,0.0,0.0,67402.0,0.0,0.0,0.0,0.0,0.25,0.850829991,0.01,0.0,-75497.0,0.0,0.0,-0.0,0.0,0.25,0.482177685,0.01,0.0,61081.0,0.0,0.0,0.0,0.0,0.0,3.345946923,0.01,0.0,-51707.0,0.125,0.0,-0.0,0.0,0.25,1.649169753,0.01,0.0,0.3499999940395355,-1.0199999809265137,72.16999816894531,-0.020751953125,0.0086669921875,1.02264404296875,36.029998779296875,0.0,1.0,-3.86383056640625,-1.5087127685546875,Opening,0.0,0.0,-189.0,0.0,0.0,0.0,0.0,0.0,
8.266844,0.0,0.0,67402.0,0.0,0.0,0.0,0.0,0.25,0.852050694,0.01,0.0,-75497.0,0.125,0.0,-0.0,0.0,0.25,0.483398388,0.01,0.0,61081.0,0.0,0.0,0.0,0.0,0.0,3.345946923,0.01,0.0012207030000004337,-51707.0,0.125,0.0,-0.0,0.0,0.25,1.650390456,0.01,0.0,0.3499999940395355,-1.0199999809265137,72.16999816894531,-0.01776123046875,0.00823974609375,1.017822265625,36.029998779296875,0.0,2.0,-3.86383056640625,-1.5087127685546875,Opening,0.0,0.0,-189.0,0.0,0.0,0.0,0.0,0.0,
8.331356,0.0,0.0,67402.0,0.0,0.0,0.0,0.0,0.25,0.852050694,0.01,0.0,-75497.0,0.125,0.0,-0.0,0.0,0.25,0.483398388,0.01,0.0,61081.0,0.0,0.0,0.0,0.0,0.0,3.345946923,0.01,0.0,-51707.0,0.125,0.0,-0.0,0.0,0.25,1.650390456,0.01,0.0,0.3499999940395355,-1.0299999713897705,72.16999816894531,-0.0186767578125,0.0048828125,1.023193359375,36.029998779296875,0.0,-1.0,-3.86383056640625,-1.5087127685546875,Opening,0.0,0.0,-189.0,0.0,0.0,0.0,0.0,0.0,
8.401206999999998,0.0,0.0,67402.0,0.0,0.0,0.0,0.0,0.25,0.852050694,0.01,0.0,-75497.0,0.125,0.0,-0.0,0.0,0.25,0.482177685,0.01,0.0,61081.0,0.0,0.0,0.0,0.0,0.0,3.347167626,0.01,0.0,-51707.0,0.125,0.0,-0.0,0.0,0.25,1.650390456,0.01,0.0,0.3499999940395355,-1.0299999713897705,72.16999816894531,-0.0213623046875,0.00872802734375,1.019775390625,36.029998779296875,0.0,1.0,-3.86383056640625,-1.5087127685546875,Opening,0.0,0.0,-189.0,0.0,0.0,0.0,0.0,0.0,
8.465358,0.0,0.0,67402.0,0.0,0.0,0.0,0.0,0.25,0.850829991,0.01,0.0,-75497.0,0.125,0.0,-0.0,0.0,0.25,0.483398388,0.01,0.0,61081.0,0.0,0.0,0.0,0.0,0.0,3.347167626,0.01,0.0012207030000004337,-51707.0,0.125,0.0,-0.0,0.0,0.25,1.650390456,0.01,0.0,0.3499999940395355,-1.0299999713897705,72.16999816894531,-0.0213623046875,0.006103515625,1.02398681640625,36.029998779296875,0.0,-1.0,-3.86383056640625,-1.5087127685546875,Opening,0.0,0.0,-189.0,0.0,0.0,0.0,0.0,0.0,
8.521186999999998,0.0,0.0,67402.0,0.0,0.0,0.0,0.0,0.25,0.850829991,0.01,0.0,-75497.0,0.0,0.0,-0.0,0.0,0.25,0.482177685,0.01,0.0,61081.0,0.0,0.0,0.0,0.0,0.0,3.345946923,0.01,-0.0012207030000004337,-51707.0,0.125,0.0,-0.0,0.0,0.25,1.650390456,0.01,0.0,0.36000001430511475,-1.0199999809265137,72.16999816894531,-0.019287109375,0.00482177734375,1.0216064453125,36.029998779296875,0.0,-1.0,-3.86383056640625,-1.5087127685546875,Opening,0.0,0.0,-189.0,0.0,0.0,0.0,0.0,0.0,
8.586967000000001,0.0,0.0,67402.0,0.0,0.0,0.0,0.0,0.25,0.852050694,0.01,0.0,-75497.0,0.125,0.0,-0.0,0.0,0.25,0.482177685,0.01,0.0,61081.0,0.0,0.0,0.0,0.0,0.0,3.345946923,0.01,0.0,-51707.0,0.125,0.0,-0.0,0.0,0.25,1.650390456,0.01,0.0,0.3499999940395355,-1.0299999713897705,72.16999816894531,-0.02001953125,0.004150390625,1.025634765625,36.029998779296875,0.0,-2.0,-3.86383056640625,-1.5087127685546875,Opening,0.0,0.0,-189.0,0.0,0.0,0.0,0.0,0.0,
8.667643,0.0,0.0,67402.0,0.0,0.0,0.0,0.0,0.25,0.852050694,0.01,0.0,-75497.0,0.125,0.0,-0.0,0.0,0.25,0.482177685,0.01,0.0,61081.0,0.0,0.0,0.0,0.0,0.0,3.347167626,0.01,0.0012207030000004337,-51707.0,0.125,0.0,-0.0,0.0,0.25,1.649169753,0.01,0.0,0.3499999940395355,-1.0299999713897705,72.16999816894531,-0.017333984375,0.0081787109375,1.023193359375,36.0099983215332,0.0,2.0,-3.86383056640625,-1.5087127685546875,Opening,0.0,0.0,-189.0,0.0,0.0,0.0,0.0,0.0,
8.722014999999999,0.0,0.0,67402.0,0.0,0.0,0.0,0.0,0.25,0.850829991,0.01,0.0,-75497.0,0.125,0.0,-0.0,0.0,0.25,0.483398388,0.01,0.0,61081.0,0.0,0.0,0.0,0.0,0.0,3.34472622,0.01,0.0,-51707.0,0.125,0.0,-0.0,0.0,0.25,1.649169753,0.01,0.0,0.3499999940395355,-1.0299999713897705,72.16999816894531,-0.01788330078125,0.00689697265625,1.02508544921875,36.0099983215332,0.0,0.0,-3.86383056640625,-1.5087127685546875,Opening,0.0,0.0,-189.0,0.0,0.0,0.0,0.0,0.0,
8.80002,0.0,0.0,67402.0,0.0,0.0,0.0,0.0,0.25,0.849609288,0.01,0.0,-75497.0,0.125,0.0,-0.0,0.0,0.25,0.482177685,0.01,0.0,61081.0,0.0,0.0,0.0,0.0,0.0,3.345946923,0.01,-0.0012207030000004337,-51707.0,0.125,0.0,-0.0,0.0,0.25,1.650390456,0.01,0.0,0.36000001430511475,-1.0199999809265137,72.16999816894531,-0.01812744140625,0.002197265625,1.01739501953125,36.0099983215332,0.0,-4.0,-3.86383056640625,-1.5087127685546875,Opening,0.0,0.0,-189.0,0.0,0.0,0.0,0.0,0.0,
8.85559,0.0,0.0,67402.0,0.0,0.0,0.0,0.0,0.25,0.850829991,0.01,0.0,-75497.0,0.0,0.0,-0.0,0.0,0.25,0.482177685,0.01,0.0,61081.0,0.0,0.0,0.0,0.0,0.0,3.347167626,0.01,0.0012207030000004337,-51707.0,0.125,0.0,-0.0,0.0,0.25,1.650390456,0.01,0.0,0.3499999940395355,-1.0199999809265137,72.16999816894531,-0.017578125,0.0098876953125,1.0150146484375,36.0099983215332,0.0,3.0,-3.86383056640625,-1.5087127685546875,Opening,0.0,0.0,-189.0,0.0,0.0,0.0,0.0,0.0,
8.923663000000001,0.0,0.0,67402.0,0.0,0.0,0.0,0.0,0.25,0.850829991,0.01,0.0,-75497.0,0.125,0.0,-0.0,0.0,0.25,0.483398388,0.01,0.0,61081.0,0.0,0.0,0.0,0.0,0.0,3.345946923,0.01,-0.0012207030000004337,-51707.0,0.125,0.0,-0.0,0.0,0.25,1.650390456,0.01,0.0,0.36000001430511475,-1.0199999809265137,72.16999816894531,-0.01666259765625,0.00775146484375,1.0262451171875,36.0099983215332,0.0,1.0,-3.86383056640625,-1.5087127685546875,Opening,0.0,0.0,-189.0,0.0,0.0,0.0,0.0,0.0,
9.000127,0.0,0.0,67402.0,0.0,0.0,0.0,0.0,0.25,0.850829991,0.01,0.0,-75497.0,0.125,0.0,-0.0,0.0,0.25,0.482177685,0.01,0.0,61081.0,0.0,0.0,0.0,0.0,0.0,3.347167626,0.01,0.0,-51707.0,0.125,0.0,-0.0,0.0,0.25,1.650390456,0.01,0.0,0.3499999940395355,-1.0199999809265137,72.16999816894531,-0.019287109375,0.0078125,1.0234375,36.0099983215332,0.0,1.0,-3.86383056640625,-1.5087127685546875,Opening,0.0,0.0,-189.0,0.0,0.0,0.0,0.0,0.0,
9.064881000000002,0.0,0.0,67402.0,0.0,0.0,0.0,0.0,0.25,0.850829991,0.01,0.0,-75497.0,0.125,0.0,-0.0,0.0,0.25,0.483398388,0.01,0.0,61081.0,0.0,0.0,0.0,0.0,0.0,3.345946923,0.01,0.0,-51707.0,0.125,0.0,-0.0,0.0,0.25,1.650390456,0.01,0.0,0.36000001430511475,-1.0199999809265137,72.16999816894531,-0.01837158203125,0.00738525390625,1.0244140625,36.0099983215332,0.0,0.0,-3.86383056640625,-1.5087127685546875,Opening,0.0,0.0,-189.0,0.0,0.0,0.0,0.0,0.0,
9.121415,0.0,0.0,67402.0,0.0,0.0,0.0,0.0,0.25,0.850829991,0.01,0.0,-75497.0,0.125,0.0,-0.0,0.0,0.25,0.483398388,0.01,0.0,61081.0,0.0,0.0,0.0,0.0,0.0,3.347167626,0.01,0.0,-51707.0,0.125,0.0,-0.0,0.0,0.25,1.650390456,0.01,0.0,0.36000001430511475,-1.0199999809265137,72.16999816894531,-0.01568603515625,0.00750732421875,1.02105712890625,36.0099983215332,0.0,1.0,-3.86383056640625,-1.5087127685546875,Opening,0.0,0.0,-189.0,0.0,0.0,0.0,0.0,0.0,
9.189215,0.0,0.0,67402.0,0.0,0.0,0.0,0.0,0.25,0.852050694,0.01,-0.0012207029999999897,-75497.0,0.125,0.0,-0.0,0.0,0.25,0.483398388,0.01,0.0,61081.0,0.0,0.0,0.0,0.0,0.0,3.34472622,0.01,0.0,-51707.0,0.125,0.0,-0.0,0.0,0.25,1.650390456,0.01,0.0,0.36000001430511475,-1.0199999809265137,72.16999816894531,-0.017578125,0.0078125,1.02142333984375,36.04999923706055,0.0,1.0,-3.86383056640625,-1.5087127685546875,Opening,0.0,0.0,-189.0,0.0,0.0,0.0,0.0,0.0,
9.265197,0.0,0.0,67402.0,0.0,0.0,0.0,0.0,0.25,0.850829991,0.01,0.0012207029999999897,-75497.0,0.125,0.0,-0.0,0.0,0.25,0.483398388,0.01,0.0,61081.0,0.0,0.0,0.0,0.0,0.0,3.345946923,0.01,0.0,-51707.0,0.125,0.0,-0.0,0.0,0.25,1.650390456,0.01,0.0,0.3499999940395355,-1.0299999713897705,72.16999816894531,-0.01611328125,0.00634765625,1.023681640625,36.04999923706055,0.0,0.0,-3.86383056640625,-1.5087127685546875,Opening,0.0,0.0,-189.0,0.0,0.0,0.0,0.0,0.0,
9.321892,0.0,0.0,67402.0,0.0,0.0,0.0,0.0,0.25,0.850829991,0.01,0.0,-75497.0,0.125,0.0,-0.0,0.0,0.25,0.482177685,0.01,0.0,61081.0,0.0,0.0,0.0,0.0,0.0,3.345946923,0.01,0.0012207030000004337,-51707.0,0.125,0.0,-0.0,0.0,0.25,1.650390456,0.01,0.0,0.36000001430511475,-1.0199999809265137,72.16999816894531,-0.02081298828125,0.01007080078125,1.02349853515625,36.04999923706055,0.0,2.0,-3.86383056640625,-1.5087127685546875,Opening,0.0,0.0,-189.0,0.0,0.0,0.0,0.0,0.0,
9.389116999999999,0.0,0.0,67402.0,0.0,0.0,0.0,0.0,0.25,0.850829991,0.01,0.0,-75497.0,0.125,0.0,-0.0,0.0,0.25,0.482177685,0.01,0.0,61081.0,0.0,0.0,0.0,0.0,0.0,3.345946923,0.01,-0.0012207030000004337,-51707.0,0.125,0.0,-0.0,0.0,0.25,1.650390456,0.01,0.0,0.3499999940395355,-1.0299999713897705,72.16999816894531,-0.0196533203125,0.00701904296875,1.0174560546875,36.04999923706055,0.0,0.0,-3.86383056640625,-1.5087127685546875,Opening,0.0,0.0,-189.0,0.0,0.0,0.0,0.0,0.0,
9.455924999999999,0.0,0.0,67402.0,0.0,0.0,0.0,0.0,0.25,0.850829991,0.01,0.0,-75497.0,0.125,0.0,-0.0,0.0,0.25,0.483398388,0.01,0.0,61081.0,0.0,0.0,0.0,0.0,0.0,3.347167626,0.01,0.0,-51707.0,0.125,0.0,-0.0,0.0,0.25,1.650390456,0.01,0.0,0.36000001430511475,-1.0199999809265137,72.16999816894531,-0.01837158203125,0.0040283203125,1.022216796875,36.04999923706055,0.0,-2.0,-3.86383056640625,-1.5087127685546875,Opening,0.0,0.0,-189.0,0.0,0.0,0.0,0.0,0.0,
9.521493999999999,0.0,0.0,67402.0,0.0,0.0,0.0,0.0,0.25,0.852050694,0.01,0.0,-75497.0,0.125,0.0,-0.0,0.0,0.25,0.483398388,0.01,0.0,61081.0,0.0,0.0,0.0,0.0,0.0,3.345946923,0.01,0.0012207030000004337,-51707.0,0.125,0.0,-0.0,0.0,0.25,1.650390456,0.01,0.0,0.36000001430511475,-1.0199999809265137,72.16999816894531,-0.01751708984375,0.0029296875,1.016357421875,36.04999923706055,0.0,-3.0,-3.86383056640625,-1.5087127685546875,Opening,0.0,0.0,-189.0,0.0,0.0,0.0,0.0,0.0,
9.600577000000001,0.0,0.0,67402.0,0.0,0.0,0.0,0.0,0.25,0.852050694,0.01,0.0,-75497.0,0.125,0.0,-0.0,0.0,0.25,0.482177685,0.01,0.0,61081.0,0.0,0.0,0.0,0.0,0.0,3.345946923,0.01,0.0,-51707.0,0.125,0.0,-0.0,0.0,0.25,1.650390456,0.01,0.0,0.36000001430511475,-1.0299999713897705,72.16999816894531,-0.019775390625,0.006591796875,1.0201416015625,36.04999923706055,0.0,0.0,-3.86383056640625,-1.5087127685546875,Opening,0.0,0.0,-189.0,0.0,0.0,0.0,0.0,0.0,
9.665752000000001,0.0,0.0,67402.0,0.0,0.0,0.0,0.0,0.25,0.852050694,0.01,0.0,-75497.0,0.125,0.0,-0.0,0.0,0.25,0.483398388,0.01,0.0,61081.0,0.0,0.0,0.0,0.0,0.0,3.345946923,0.01,0.0,-51707.0,0.125,0.0,-0.0,0.0,0.25,1.650390456,0.01,0.0,0.36000001430511475,-1.0299999713897705,72.16999816894531,-0.01983642578125,0.00909423828125,1.0213623046875,36.04999923706055,0.0,1.0,-3.86383056640625,-1.5087127685546875,Opening,0.0,0.0,-189.0,0.0,0.0,0.0,0.0,0.0,
9.723449,0.0,0.0,67402.0,0.0,0.0,0.0,0.0,0.25,0.850829991,0.01,0.0,-75497.0,0.125,0.0,-0.0,0.0,0.25,0.482177685,0.01,0.0,61081.0,0.0,0.0,0.0,0.0,0.0,3.347167626,0.01,0.0,-51707.0,0.125,0.0,-0.0,0.0,0.25,1.650390456,0.01,0.0,0.36000001430511475,-1.0299999713897705,72.16999816894531,-0.01953125,0.00677490234375,1.0211181640625,36.040000915527344,0.0,0.0,-3.86383056640625,-1.5087127685546875,Opening,0.0,0.0,-189.0,0.0,0.0,0.0,0.0,0.0,
9.791612,0.0,0.0,67402.0,0.0,0.0,0.0,0.0,0.25,0.849609288,0.01,0.0,-75497.0,0.0,0.0,-0.0,0.0,0.25,0.483398388,0.01,0.0,61081.0,0.0,0.0,0.0,0.0,0.0,3.345946923,0.01,-0.0012207030000004337,-51707.0,0.125,0.0,-0.0,0.0,0.25,1.650390456,0.01,0.0,0.36000001430511475,-1.0299999713897705,72.16999816894531,-0.02044677734375,0.00506591796875,1.01971435546875,36.040000915527344,0.0,-1.0,-3.86383056640625,-1.5087127685546875,Opening,0.0,0.0,-189.0,0.0,0.0,0.0,0.0,0.0,
9.853364999999998,0.0,0.0,67402.0,0.0,0.0,0.0,0.0,0.25,0.850829991,0.01,0.0,-75497.0,0.125,0.0,-0.0,0.0,0.25,0.483398388,0.01,0.0,61081.0,0.0,0.0,0.0,0.0,0.0,3.345946923,0.01,0.0,-51707.0,0.125,0.0,-0.0,0.0,0.25,1.650390456,0.01,0.0,0.36000001430511475,-1.0299999713897705,72.16999816894531,-0.01837158203125,0.0069580078125,1.02264404296875,36.040000915527344,0.0,0.0,-3.86383056640625,-1.5087127685546875,Opening,0.0,0.0,-189.0,0.0,0.0,0.0,0.0,0.0,
10.002797,0.0,0.0,67402.0,0.0,0.0,0.0,0.0,0.25,0.850829991,0.01,0.0,-75497.0,0.125,0.0,-0.0,0.0,0.25,0.483398388,0.01,0.0,61081.0,0.0,0.0,0.0,0.0,0.0,3.34472622,0.01,0.0,-51707.0,0.125,0.0,-0.0,0.0,0.25,1.649169753,0.01,0.0,0.36000001430511475,-1.0299999713897705,72.16999816894531,-0.02117919921875,0.005615234375,1.025146484375,36.040000915527344,0.0,-1.0,-3.86383056640625,-1.5087127685546875,Opening,0.0,0.0,-189.0,0.0,0.0,0.0,0.0,0.0,
10.064093000000002,0.0,0.0,67402.0,0.0,0.0,0.0,0.0,0.25,0.850829991,0.01,0.0,-75497.0,0.125,0.0,-0.0,0.0,0.25,0.483398388,0.01,0.0,61081.0,0.0,0.0,0.0,0.0,0.0,3.345946923,0.01,0.0,-51707.0,0.125,0.0,-0.0,0.0,0.25,1.650390456,0.01,0.0,0.36000001430511475,-1.0299999713897705,72.16999816894531,-0.017822265625,0.0062255859375,1.01910400390625,36.040000915527344,0.0,0.0,-3.86383056640625,-1.5087127685546875,Opening,0.0,0.0,-189.0,0.0,0.0,0.0,0.0,0.0,
10.20089,0.0,0.0,67402.0,0.0,0.0,0.0,0.0,0.25,0.850829991,0.01,0.0,-75497.0,0.125,0.0,-0.0,0.0,0.25,0.483398388,0.01,0.0,61081.0,0.0,0.0,0.0,0.0,0.0,3.345946923,0.01,0.0,-51707.0,0.125,0.0,-0.0,0.0,0.25,1.650390456,0.01,0.0,0.36000001430511475,-1.0299999713897705,72.16999816894531,-0.01666259765625,0.006591796875,1.021240234375,36.029998779296875,0.0,0.0,-3.86383056640625,-1.5087127685546875,Opening,0.0,0.0,-189.0,0.0,0.0,0.0,0.0,0.0,
10.259365999999998,0.0,0.0,67402.0,0.0,0.0,0.0,0.0,0.25,0.849609288,0.01,0.0,-75497.0,0.125,0.0,-0.0,0.0,0.25,0.483398388,0.01,0.0,61081.0,0.0,0.0,0.0,0.0,0.0,3.345946923,0.01,0.0,-51707.0,0.125,0.0,-0.0,0.0,0.25,1.650390456,0.01,0.0,0.36000001430511475,-1.0299999713897705,72.16999816894531,-0.02301025390625,0.00494384765625,1.02008056640625,36.029998779296875,0.0,-2.0,-3.86383056640625,-1.5087127685546875,Opening,0.0,0.0,-189.0,0.0,0.0,0.0,0.0,0.0,
10.321907,0.0,0.0,67402.0,0.0,0.0,0.0,0.0,0.25,0.850829991,0.01,0.0,-75497.0,0.125,0.0,-0.0,0.0,0.25,0.483398388,0.01,0.0,61081.0,0.0,0.0,0.0,0.0,0.0,3.34472622,0.01,0.0,-51707.0,0.125,0.0,-0.0,0.0,0.25,1.649169753,0.01,0.0,0.36000001430511475,-1.0399999618530273,72.16999816894531,-0.020263671875,0.00982666015625,1.0244140625,36.029998779296875,0.0,2.0,-3.86383056640625,-1.5087127685546875,Opening,0.0,0.0,-189.0,0.0,0.0,0.0,0.0,0.0,
10.399994,0.0,0.0,67402.0,0.0,0.0,0.0,0.0,0.25,0.850829991,0.01,0.0,-75497.0,0.0,0.0,-0.0,0.0,0.25,0.483398388,0.01,0.0,61081.0,0.0,0.0,0.0,0.0,0.0,3.345946923,0.01,0.0,-51707.0,0.125,0.0,-0.0,0.0,0.25,1.650390456,0.01,0.0,0.36000001430511475,-1.0399999618530273,72.16999816894531,-0.0177001953125,0.00384521484375,1.02276611328125,36.029998779296875,0.0,-2.0,-3.86383056640625,-1.5087127685546875,Opening,0.0,0.0,-189.0,0.0,0.0,0.0,0.0,0.0,
10.465286,0.0,0.0,67402.0,0.0,0.0,0.0,0.0,0.25,0.852050694,0.01,0.0,-75497.0,0.0,0.0,-0.0,0.0,0.25,0.483398388,0.01,0.0,61081.0,0.0,0.0,0.0,0.0,0.0,3.345946923,0.01,0.0,-51707.0,0.125,0.0,-0.0,0.0,0.25,1.650390456,0.01,0.0,0.3499999940395355,-1.0299999713897705,72.16999816894531,-0.01812744140625,0.00885009765625,1.025390625,36.029998779296875,0.0,2.0,-3.86383056640625,-1.5087127685546875,Opening,0.0,0.0,-189.0,0.0,0.0,0.0,0.0,0.0,
10.520953999999998,0.0,0.0,67402.0,0.0,0.0,0.0,0.0,0.25,0.850829991,0.01,0.0,-75497.0,0.125,0.0,-0.0,0.0,0.25,0.483398388,0.01,0.0,61081.0,0.0,0.0,0.0,0.0,0.0,3.345946923,0.01,0.0,-51707.0,0.125,0.0,-0.0,0.0,0.25,1.649169753,0.01,0.0,0.36000001430511475,-1.0399999618530273,72.16999816894531,-0.01641845703125,0.00579833984375,1.02496337890625,36.029998779296875,0.0,0.0,-3.86383056640625,-1.5087127685546875,Opening,0.0,0.0,-189.0,0.0,0.0,0.0,0.0,0.0,
10.588261,0.0,0.0,67402.0,0.0,0.0,0.0,0.0,0.25,0.850829991,0.01,0.0,-75497.0,0.125,0.0,-0.0,0.0,0.25,0.483398388,0.01,0.0,61081.0,0.0,0.0,0.0,0.0,0.0,3.345946923,0.01,0.0,-51707.0,0.125,0.0,-0.0,0.0,0.25,1.650390456,0.01,0.0,0.36000001430511475,-1.0199999809265137,72.16999816894531,-0.01470947265625,0.008544921875,1.02142333984375,36.029998779296875,0.0,3.0,-3.86383056640625,-1.5087127685546875,Opening,0.0,0.0,-189.0,0.0,0.0,0.0,0.0,0.0,
10.665356,0.0,0.0,67402.0,0.0,0.0,0.0,0.0,0.25,0.850829991,0.01,0.0,-75497.0,0.125,0.0,-0.0,0.0,0.25,0.482177685,0.01,0.0,61081.0,0.0,0.0,0.0,0.0,0.0,3.347167626,0.01,0.0,-51707.0,0.125,0.0,-0.0,0.0,0.25,1.649169753,0.01,0.0,0.36000001430511475,-1.0299999713897705,72.16999816894531,-0.0247802734375,0.00775146484375,1.02545166015625,36.029998779296875,0.0,0.0,-3.86383056640625,-1.5087127685546875,Opening,0.0,0.0,-189.0,0.0,0.0,0.0,0.0,0.0,
