Time,ClimberA1,ClimberA2,FRpos,FRCurrent,FRspeed,FRsetpoint,FRApos,FRACurrent,FREncpos,FREncSetpoint,FREncSpeed,FLpos,FLCurrent,FLspeed,FLsetpoint,FLApos,FLACurrent,FLEncpos,FLEncSetpoint,FLEncSpeed,BRpos,BRCurrent,BRspeed,BRsetpoint,BRApos,BRACurrent,BREncpos,BREncSetpoint,BREncSpeed,BLpos,BLCurrent,BLspeed,BLsetpoint,BLApos,BLACurrent,BLEncpos,BLEncSetpoint,BLEncSpeed,navx_Pitch,navx_Roll,navx_Yaw,navx_XAcc,navx_YAcc,navx_ZAcc,navx_Temp,navx_Bar,navx_Alt,navx_XDis,navx_YDis,GearPlacerState,ShootOutputV,ShootOutputCurrent,ShootEncPos,ShootEncVelocity,ShootSpeed,ShootSetpoint,CarouselSetpoint,CarouselCurrent,
0.413752999999997,0.0,0.0,67402.0,0.0,0.0,0.0,0.0,0.25,0.850829991,0.01,0.0,-75497.0,0.0,0.0,-0.0,0.0,0.25,0.483398388,0.01,0.0,61081.0,0.0,0.0,0.0,0.0,0.0,3.345946923,0.01,0.0,-51707.0,0.125,0.0,-0.0,0.0,0.25,1.649169753,0.01,0.0,0.33000001311302185,-1.0399999618530273,71.08000183105469,-0.0179443359375,0.00286865234375,1.02252197265625,36.439998626708984,0.0,-2.0,-3.921539306640625,-1.4609832763671875,Closing,0.0,0.0,-189.0,0.0,0.0,0.0,0.0,0.0,
0.4940369999999821,0.0,0.0,67402.0,0.0,0.0,0.0,0.0,0.25,0.850829991,0.01,0.0,-75497.0,0.0,0.0,-0.0,0.0,0.25,0.482177685,0.01,0.0,61081.0,0.0,0.0,0.0,0.0,0.0,3.347167626,0.01,0.0,-51707.0,0.125,0.0,-0.0,0.0,0.25,1.650390456,0.01,0.0,0.33000001311302185,-1.0399999618530273,71.08000183105469,-0.019287109375,0.00408935546875,1.02581787109375,36.439998626708984,0.0,-2.0,-3.921539306640625,-1.4609832763671875,Closing,0.0,0.0,-189.0,0.0,0.0,0.0,0.0,0.0,
0.6126379999999771,0.0,0.0,67402.0,0.0,0.0,0.0,0.0,0.25,0.850829991,0.01,0.0,-75497.0,0.0,0.0,-0.0,0.0,0.25,0.482177685,0.01,0.0,61081.0,0.0,0.0,0.0,0.0,0.0,3.345946923,0.01,0.0,-51707.0,0.125,0.0,-0.0,0.0,0.25,1.650390456,0.01,0.0,0.33000001311302185,-1.0399999618530273,71.06999969482422,-0.01934814453125,0.00543212890625,1.0189208984375,36.439998626708984,0.0,0.0,-3.921539306640625,-1.4609832763671875,Closing,0.0,0.0,-189.0,0.0,0.0,0.0,0.0,0.0,
0.7530689999999886,0.0,0.0,67402.0,0.0,0.0,0.0,0.0,0.25,0.852050694,0.01,0.0,-75497.0,0.0,0.0,-0.0,0.0,0.25,0.483398388,0.01,0.0,61081.0,0.0,0.0,0.0,0.0,0.0,3.345946923,0.01,0.0,-51707.0,0.125,0.0,-0.0,0.0,0.25,1.650390456,0.01,0.0,0.33000001311302185,-1.0499999523162842,71.06999969482422,-0.01763916015625,0.00390625,1.02032470703125,36.439998626708984,0.0,-1.0,-3.921539306640625,-1.4609832763671875,Closing,0.0,0.0,-189.0,0.0,0.0,0.0,0.0,0.0,
0.8828409999999858,0.0,0.0,67402.0,0.0,0.0,0.0,0.0,0.25,0.852050694,0.01,0.0,-75497.0,0.0,0.0,-0.0,0.0,0.25,0.482177685,0.01,0.0,61081.0,0.0,0.0,0.0,0.0,0.0,3.345946923,0.01,0.0,-51707.0,0.125,0.0,-0.0,0.0,0.25,1.650390456,0.01,0.0,0.33000001311302185,-1.0499999523162842,71.06999969482422,-0.01629638671875,0.0052490234375,1.02294921875,36.43000030517578,0.0,0.0,-3.921539306640625,-1.4609832763671875,Closing,0.0,0.0,-189.0,0.0,0.0,0.0,0.0,0.0,
1.018109999999986,0.0,0.0,67402.0,0.0,0.0,0.0,0.0,0.25,0.852050694,0.01,0.0,-75497.0,0.0,0.0,-0.0,0.0,0.25,0.483398388,0.01,0.0,61081.0,0.0,0.0,0.0,0.0,0.0,3.345946923,0.01,0.0,-51707.0,0.125,0.0,-0.0,0.0,0.25,1.650390456,0.01,0.0,0.33000001311302185,-1.0499999523162842,71.06999969482422,-0.01611328125,0.00506591796875,1.018310546875,36.43000030517578,0.0,0.0,-3.921539306640625,-1.4609832763671875,Closing,0.0,0.0,-189.0,0.0,0.0,0.0,0.0,0.0,
1.1500619999999762,0.0,0.0,67402.0,0.0,0.0,0.0,0.0,0.25,0.850829991,0.01,0.0,-75497.0,0.0,0.0,-0.0,0.0,0.25,0.483398388,0.01,0.0,61081.0,0.0,0.0,0.0,0.0,0.0,3.34472622,0.01,0.0,-51707.0,0.125,0.0,-0.0,0.0,0.25,1.649169753,0.01,0.0,0.33000001311302185,-1.0499999523162842,71.06999969482422,-0.019775390625,0.00830078125,1.021240234375,36.43000030517578,0.0,1.0,-3.921539306640625,-1.4609832763671875,Closing,0.0,0.0,-189.0,0.0,0.0,0.0,0.0,0.0,
1.2825339999999852,0.0,0.0,67395.0,2.0,-45.0,-708.7499999999999,0.0,0.625,0.759277266,4.672896797402214,0.0,-75496.0,4.5,195.0,708.7499999999999,0.0,0.25,0.358886682,4.7027584232921615,0.0,61081.0,3.125,-45.0,-708.7499999999999,0.0,0.25,3.229980138,4.680617295811973,0.0,-51684.0,2.125,120.0,708.7499999999999,0.0,0.5,1.488036957,4.6972918291303865,0.0,0.3100000023841858,-1.4199999570846558,71.04000091552734,-0.1114501953125,-0.03375244140625,1.2657470703125,36.43000030517578,0.0,-64.0,-3.922821044921875,-1.4591522216796875,Closing,0.0,0.0,-189.0,0.0,0.0,0.0,0.0,0.0,
1.4188509999999952,0.0,0.0,67384.0,0.0,-52.5,0.0,0.0,0.25,0.520019478,4.672896797402214,0.0,-75461.0,0.125,37.5,0.0,0.0,0.25,0.20019529200000002,4.7027584232921615,0.0,61069.0,0.0,-60.0,0.0,0.0,0.125,3.070068045,4.680617295811973,0.0,-51680.0,0.125,60.0,0.0,0.0,0.25,1.324462755,4.6972918291303865,0.0,0.38999998569488525,-1.2599999904632568,71.19000244140625,0.07196044921875,0.0125732421875,0.87103271484375,36.45000076293945,0.0,35.0,-3.92425537109375,-1.4529876708984375,Closing,0.0,0.0,-189.0,0.0,0.0,0.0,0.0,0.0,
1.5504719999999796,0.0,0.0,67384.0,0.0,0.0,0.0,0.0,0.25,0.49194330900000005,4.672896797402214,0.0,-75460.0,0.0,0.0,0.0,0.0,0.25,0.202636698,4.7027584232921615,0.0,61064.0,0.0,0.0,0.0,0.0,0.0,3.040771173,4.680617295811973,0.0,-51680.0,0.0,0.0,0.0,0.0,0.25,1.314697131,4.6972918291303865,0.0,0.27000001072883606,-0.9100000262260437,71.0999984741211,0.05206298828125,0.00213623046875,1.0106201171875,36.45000076293945,0.0,19.0,-3.9234161376953125,-1.45220947265625,Closing,0.0,0.0,-189.0,0.0,0.0,0.0,0.0,0.0,
1.6838429999999935,0.0,0.0,67384.0,0.0,0.0,0.0,0.0,0.25,0.534667914,4.672896797402214,0.0,-75460.0,0.0,0.0,0.0,0.0,0.25,0.23193357,4.7027584232921615,0.0,61064.0,0.0,0.0,0.0,0.0,0.0,3.079833669,4.680617295811973,0.0,-51680.0,0.125,0.0,0.0,0.0,0.25,1.362304548,4.6972918291303865,0.0,0.23000000417232513,-0.7900000214576721,71.11000061035156,-0.016845703125,0.01611328125,1.02606201171875,36.45000076293945,0.0,10.0,-3.9234161376953125,-1.4552001953125,Closing,0.0,0.0,-189.0,0.0,0.0,0.0,0.0,0.0,
1.7629719999999798,0.0,0.0,67384.0,0.0,0.0,0.0,0.0,0.25,0.5432128350000001,4.672896797402214,0.03906249600000056,-75460.0,0.0,0.0,0.0,0.0,0.25,0.24658200600000002,4.7027584232921615,0.032958981000000165,61064.0,0.0,0.0,0.0,0.0,0.0,3.098144214,4.680617295811973,0.043945308000000516,-51680.0,0.125,0.0,0.0,0.0,0.125,1.376952984,4.6972918291303865,0.04638671399999961,0.25,-0.8199999928474426,71.13999938964844,-0.02642822265625,8.544921875E-4,1.03448486328125,36.45000076293945,0.0,-7.0,-3.9234161376953125,-1.4552001953125,Closing,0.0,0.0,-189.0,0.0,0.0,0.0,0.0,0.0,
1.8828879999999772,0.0,0.0,67384.0,0.0,0.0,0.0,0.0,0.125,0.548095647,4.672896797402214,0.0,-75460.0,0.0,0.0,0.0,0.0,0.0,0.24658200600000002,4.7027584232921615,0.0,61064.0,0.0,0.0,0.0,0.0,0.0,3.0993649170000004,4.680617295811973,0.0,-51680.0,0.125,0.0,0.0,0.0,0.25,1.380615093,4.6972918291303865,0.0,0.2800000011920929,-0.9300000071525574,71.0999984741211,-0.05230712890625,0.01483154296875,1.03631591796875,36.45000076293945,0.0,-2.0,-3.9234161376953125,-1.454986572265625,Closing,0.0,0.0,-189.0,0.0,0.0,0.0,0.0,0.0,
2.0105039999999863,0.0,0.0,67374.0,10.125,-105.0,-1535.625,0.0,0.25,0.5688475980000001,4.673444837834466,0.0,-75460.0,18.125,90.0,1535.625,0.0,0.0,0.245361303,4.703309965915682,0.0,61065.0,12.125,-60.0,-1535.625,0.0,0.0,3.1042477290000003,4.681166241709393,0.0,-51680.0,8.75,97.5,1535.625,0.0,0.25,1.334228379,4.697842730628121,0.0,0.5899999737739563,-1.8300000429153442,71.12000274658203,-0.4962158203125,0.206787109375,0.6708984375,36.41999816894531,0.0,35.0,-3.922393798828125,-1.4482421875,Closing,0.0,0.0,-189.0,0.0,0.0,0.0,0.0,0.0,
2.1475289999999805,0.0,0.0,67345.0,0.0,-165.0,0.0,0.0,0.25,0.548095647,4.673444837834466,0.0,-75415.0,0.0,180.0,0.0,0.0,0.0,0.21118161900000001,4.703309965915682,0.0,61045.0,0.0,-22.5,0.0,0.0,0.0,3.070068045,4.681166241709393,0.0,-51602.0,0.0,217.5,0.0,0.0,0.25,1.329345567,4.697842730628121,0.0,0.699999988079071,-1.809999942779541,71.20999908447266,0.02166748046875,0.03204345703125,1.30877685546875,36.41999816894531,0.0,35.0,-3.9141693115234375,-1.419036865234375,Closing,0.0,0.0,-189.0,0.0,0.0,0.0,0.0,0.0,
2.2820179999999817,0.0,0.0,67291.0,0.0,-315.0,0.0,0.0,0.25,0.54931635,4.673444837834466,0.0,-75378.0,0.0,240.0,0.0,0.0,0.25,0.20751951000000002,4.703309965915682,0.0,61020.0,0.0,-157.5,0.0,0.0,0.0,3.070068045,4.681166241709393,0.0,-51567.0,0.125,232.5,0.0,0.0,0.25,1.3232420520000001,4.697842730628121,0.0,0.5299999713897705,-1.2400000095367432,71.30999755859375,0.04718017578125,0.0325927734375,0.93389892578125,36.41999816894531,0.0,44.0,-3.90679931640625,-1.4101104736328125,Closing,0.0,0.0,-189.0,0.0,0.0,0.0,0.0,0.0,
2.416472999999998,0.0,0.0,67270.0,0.0,-97.5,0.0,0.0,0.125,0.54931635,4.673444837834466,0.0,-75334.0,0.0,82.5,0.0,0.0,0.25,0.21728513400000002,4.703309965915682,0.0,61007.0,0.0,-82.5,0.0,0.0,0.0,3.068847342,4.681166241709393,0.0,-51552.0,0.125,112.5,0.0,0.0,0.25,1.324462755,4.697842730628121,0.0,0.3100000023841858,-0.7599999904632568,71.25,0.045654296875,-0.01220703125,1.01995849609375,36.439998626708984,0.0,2.0,-3.9045562744140625,-1.4073638916015625,Closing,0.0,0.0,-189.0,0.0,0.0,0.0,0.0,0.0,
2.547421999999991,0.0,0.0,67263.0,0.0,0.0,0.0,0.0,0.25,0.548095647,4.673444837834466,0.0,-75334.0,0.0,0.0,0.0,0.0,0.125,0.222167946,4.703309965915682,0.0,61006.0,0.0,0.0,0.0,0.0,0.0,3.071288748,4.681166241709393,0.0,-51550.0,0.125,7.5,0.0,0.0,0.25,1.324462755,4.697842730628121,0.0,0.23999999463558197,-0.6200000047683716,71.22000122070312,-0.0150146484375,0.01019287109375,1.0447998046875,36.439998626708984,0.0,4.0,-3.9044342041015625,-1.408905029296875,Closing,0.0,0.0,-189.0,0.0,0.0,0.0,0.0,0.0,
2.6845689999999887,0.0,0.0,67263.0,0.0,0.0,0.0,0.0,0.25,0.546874944,4.673444837834466,0.0,-75334.0,0.0,0.0,0.0,0.0,0.125,0.222167946,4.703309965915682,0.0,61006.0,0.0,0.0,0.0,0.0,0.0,3.074950857,4.681166241709393,0.0,-51550.0,0.125,0.0,0.0,0.0,0.25,1.3232420520000001,4.697842730628121,0.0,0.27000001072883606,-0.7099999785423279,71.22000122070312,-0.028564453125,0.01544189453125,1.03131103515625,36.439998626708984,0.0,4.0,-3.9044342041015625,-1.40875244140625,Closing,0.0,0.0,-189.0,0.0,0.0,0.0,0.0,0.0,
2.8177889999999897,0.0,0.0,67263.0,0.0,0.0,0.0,0.0,0.125,0.548095647,4.673444837834466,0.0,-75334.0,0.0,0.0,0.0,0.0,0.125,0.222167946,4.703309965915682,0.0,61006.0,0.0,0.0,0.0,0.0,0.0,3.074950857,4.681166241709393,0.0,-51550.0,0.0,0.0,0.0,0.0,0.25,1.324462755,4.697842730628121,0.0,0.3100000023841858,-0.8199999928474426,71.22000122070312,-0.02642822265625,0.00714111328125,1.0228271484375,36.439998626708984,0.0,-2.0,-3.9044342041015625,-1.407989501953125,Closing,0.0,0.0,-189.0,0.0,0.0,0.0,0.0,0.0,
2.9478679999999877,0.0,0.0,67251.0,0.625,-52.5,-570.9375,0.0,6.5,0.136718736,3.6991882500000015,0.0,-75329.0,2.0,120.0,570.9375,0.0,9.125,4.746093264000001,3.7228275000000015,0.0,61006.0,1.25,-22.5,-570.9375,0.0,3.375,2.6428219950000003,3.7053000000000016,0.0,-51550.0,1.125,45.0,570.9375,0.0,6.875,0.942382716,3.7185000000000015,0.0,0.4000000059604645,-1.1200000047683716,71.19000244140625,-0.1190185546875,0.0687255859375,0.95013427734375,36.40999984741211,0.0,26.0,-3.905120849609375,-1.40679931640625,Closing,0.0,0.0,-189.0,0.0,0.0,0.0,0.0,0.0,
3.0833569999999892,0.0,0.0,67230.0,7.25,-165.0,-1043.4375,0.0,0.75,4.355468304,3.6991882500000015,0.0,-75292.0,10.375,315.0,1043.4375,0.0,0.5,4.014892167,3.7228275000000015,0.0,60995.0,9.875,-105.0,-1043.4375,0.0,0.875,1.981200969,3.7053000000000016,0.0,-51521.0,5.125,300.0,1043.4375,0.0,0.625,0.169677717,3.7185000000000015,0.0,1.6399999856948853,-0.7699999809265137,71.12000274658203,0.15753173828125,0.10589599609375,0.81427001953125,36.40999984741211,0.0,132.0,-3.895843505859375,-1.3981781005859375,Closing,0.0,0.0,-189.0,0.0,0.0,0.0,0.0,0.0,
3.2175929999999933,0.0,0.0,67164.0,12.125,-502.5,-1378.125,0.0,0.375,4.289550342,3.6991882500000015,0.0,-75217.0,14.375,727.5,1378.125,0.0,0.5,3.874511322,3.7228275000000015,0.0,60954.0,14.75,-615.0,-1378.125,0.0,0.125,1.956786909,3.7053000000000016,0.0,-51349.0,9.25,615.0,1378.125,0.0,0.375,0.09887694300000001,3.7185000000000015,0.0,2.6500000953674316,0.18000000715255737,71.44000244140625,0.0037841796875,0.19091796875,0.95465087890625,36.40999984741211,0.0,139.0,-3.862548828125,-1.4012298583984375,Closing,0.0,0.0,-189.0,0.0,0.0,0.0,0.0,0.0,
3.3402749999999943,0.0,0.0,67046.0,0.0,-660.0,0.0,0.0,0.375,4.45556595,3.6991882500000015,0.0,-75074.0,0.0,735.0,0.0,0.0,0.5,4.1284175460000005,3.7228275000000015,0.0,60837.0,0.0,-765.0,0.0,0.0,0.125,2.053222446,3.7053000000000016,0.0,-51229.0,0.125,765.0,0.0,0.0,0.375,0.319824186,3.7185000000000015,0.0,2.5899999141693115,-0.4399999976158142,72.54000091552734,-0.57623291015625,-0.53680419921875,1.324462890625,36.40999984741211,0.0,-738.0,-3.8272857666015625,-1.4021453857421875,Closing,0.0,0.0,-189.0,0.0,0.0,0.0,0.0,0.0,
3.4839130000000003,0.0,0.0,66944.0,0.0,-712.5,0.0,0.0,0.25,4.538573754000001,3.6991882500000015,0.0,-74879.0,0.0,622.5,0.0,0.0,0.25,4.282226124,3.7228275000000015,0.0,60632.0,0.0,-630.0,0.0,0.0,0.125,2.135009547,3.7053000000000016,0.0,-51124.0,0.125,690.0,0.0,0.0,0.375,0.445556595,3.7185000000000015,0.0,1.2599999904632568,-0.9300000071525574,72.8499984741211,0.0491943359375,-0.36297607421875,1.06158447265625,36.380001068115234,0.0,-349.0,-3.7974090576171875,-1.3972930908203125,Closing,0.0,0.0,-189.0,0.0,0.0,0.0,0.0,0.0,
3.6142550000000044,0.0,0.0,66862.0,9.625,-120.0,942.519673705101,0.0,1.125,4.151610903,3.0159423668524865,0.0,-74874.0,19.125,82.5,-942.519673705101,0.0,2.625,4.635009291,4.41043958977222,0.0,60576.0,1.0,-360.0,-942.519673705101,0.0,1.5,2.5415036460000002,4.389674732977291,0.0,-51073.0,0.75,285.0,942.519673705101,0.0,1.0,0.019531248,3.031687206278561,0.0,-1.2000000476837158,-1.0199999809265137,73.33999633789062,0.0302734375,-0.11370849609375,1.252685546875,36.380001068115234,0.0,-68.0,-3.810516357421875,-1.4099578857421875,Closing,0.0,0.0,-189.0,0.0,0.0,0.0,0.0,0.125,
3.749743999999977,0.0,0.0,66894.0,0.0,157.5,0.0,0.0,0.25,3.646239861,3.0159423668524865,0.0,-74906.0,0.0,-202.5,0.0,0.0,0.25,0.159912093,4.41043958977222,0.0,60565.0,0.0,-37.5,0.0,0.0,0.125,2.9577633690000003,4.389674732977291,0.0,-51067.0,0.125,52.5,0.0,0.0,0.25,4.367675334,3.031687206278561,0.0,-0.11999999731779099,-1.0800000429153442,76.33000183105469,-0.10113525390625,-0.069091796875,1.1181640625,36.380001068115234,0.0,-83.0,-3.831024169921875,-1.42779541015625,Closing,0.0,0.0,-189.0,0.0,0.0,0.0,0.0,0.0,
3.8826429999999816,0.0,0.0,66959.0,10.375,285.0,1670.078694820404,0.0,0.625,3.563232057,3.015942366852486,0.0,-74968.0,14.625,-472.5,-1670.078694820404,0.0,0.5,0.23315427300000002,4.41043958977222,0.0,60557.0,13.875,-82.5,-1670.078694820404,0.0,0.25,3.021239925,4.389674732977291,0.0,-51028.0,8.25,285.0,1670.078694820404,0.0,0.875,4.307860887,3.031687206278561,0.0,-0.6100000143051147,-0.8399999737739563,78.26000213623047,-0.01275634765625,0.06640625,0.56524658203125,36.380001068115234,0.0,70.0,-3.845489501953125,-1.4408721923828125,Closing,0.0,0.0,-189.0,0.0,0.0,0.0,0.0,0.0,
4.016158999999985,0.0,0.0,66983.0,0.0,165.0,0.0,0.0,0.75,3.6853023570000003,3.015942366852486,0.0,-75022.0,0.0,-195.0,0.0,0.0,0.25,0.06103515,4.41043958977222,0.0,60505.0,0.0,-307.5,0.0,0.0,0.25,2.866210644,4.389674732977291,0.0,-50984.0,0.125,187.5,0.0,0.0,0.625,4.595946795000001,3.031687206278561,0.0,-0.3700000047683716,-0.7300000190734863,82.16000366210938,-0.1021728515625,0.00421142578125,0.90753173828125,36.34000015258789,0.0,-2.0,-3.8560333251953125,-1.4547119140625,Closing,0.0,0.0,-189.0,0.0,0.0,0.0,0.0,0.0,
4.1504929999999876,0.0,0.0,66987.0,0.0,0.0,0.0,0.0,0.625,3.7866207060000003,3.015942366852486,0.0,-75025.0,0.0,0.0,0.0,0.0,0.25,4.885253406,4.41043958977222,0.0,60494.0,0.0,0.0,0.0,0.0,0.125,2.769775107,4.389674732977291,0.0,-50980.0,0.125,0.0,0.0,0.0,0.25,4.689940926,3.031687206278561,0.0,-0.27000001072883606,-0.8799999952316284,82.02999877929688,-0.0499267578125,0.028076171875,1.14599609375,36.34000015258789,0.0,28.0,-3.866241455078125,-1.4670562744140625,Closing,0.0,0.0,-189.0,0.0,0.0,0.0,0.0,0.0,
4.285762999999977,0.0,0.0,66993.0,1.75,90.0,727.55908370018,0.0,0.5,3.7866207060000003,3.0159423668524865,0.0,-75025.0,3.0,-165.0,-727.55908370018,0.0,0.25,4.860839346000001,4.41043958977222,0.0,60494.0,2.625,-45.0,-727.55908370018,0.0,0.0,2.768554404,4.389674732977291,0.0,-50954.0,2.0,97.5,727.55908370018,0.0,0.25,4.686278817,3.031687206278561,0.0,-0.18000000715255737,-0.8500000238418579,82.5999984741211,-0.14520263671875,-0.1082763671875,1.0667724609375,36.34000015258789,0.0,-120.0,-3.8651123046875,-1.4672698974609375,Closing,0.0,0.0,-189.0,0.0,0.0,0.0,0.0,0.0,
4.417713999999978,0.0,0.0,67027.0,0.0,127.5,0.0,0.0,0.25,3.7915035180000003,3.0159423668524865,0.0,-75067.0,0.125,-90.0,0.0,0.0,0.25,4.885253406,4.41043958977222,0.0,60480.0,0.0,-75.0,0.0,0.0,0.0,2.764892295,4.389674732977291,0.0,-50954.0,0.125,75.0,0.0,0.0,0.25,4.696044441000001,3.031687206278561,0.0,-0.11999999731779099,-0.8899999856948853,85.20999908447266,-0.02008056640625,-0.04791259765625,0.9061279296875,36.34000015258789,0.0,-46.0,-3.862548828125,-1.466552734375,Closing,0.0,0.0,-189.0,0.0,0.0,0.0,0.0,0.0,
4.548005000000004,0.0,0.0,67028.0,5.875,0.0,-1122.1874999999998,0.0,3.0,3.959960532,3.6991882500000015,0.0,-75070.0,12.125,60.0,1122.1874999999998,0.0,4.125,4.730224125,3.7228275000000015,0.0,60476.0,3.75,-187.5,-1122.1874999999998,0.0,2.75,2.618407935,3.7053000000000016,0.0,-50946.0,4.125,247.5,1122.1874999999998,0.0,3.0,4.866942861,3.7185000000000015,0.0,0.2800000011920929,-1.0299999713897705,85.69999694824219,0.11541748046875,-0.17413330078125,0.83709716796875,36.369998931884766,0.0,-167.0,-3.859222412109375,-1.465789794921875,Closing,0.0,0.0,-189.0,0.0,0.0,0.0,0.0,0.0,
4.685792999999976,0.0,0.0,67017.0,0.0,0.0,0.0,0.0,0.75,4.594726092,3.6991882500000015,0.0,-75048.0,0.0,60.0,0.0,0.0,0.5,4.179687072,3.7228275000000015,0.0,60420.0,0.0,-60.0,0.0,0.0,1.0,2.1203611110000002,3.7053000000000016,0.0,-50918.0,0.125,-52.5,0.0,0.0,0.875,0.5419921320000001,3.7185000000000015,0.0,-0.09000000357627869,-1.0,85.51000213623047,-0.0555419921875,0.023193359375,1.099365234375,36.369998931884766,0.0,22.0,-3.8577728271484375,-1.4607391357421875,Closing,0.0,0.0,-189.0,0.0,0.0,0.0,0.0,0.0,
4.756164999999979,0.0,0.0,67020.0,0.125,0.0,-492.1875,0.0,1.5,4.903563951000001,3.6991882500000015,0.0,-75048.0,0.875,15.0,492.1875,0.0,1.0,3.928222254,3.7228275000000015,0.0,60420.0,0.375,7.5,-492.1875,0.0,0.875,1.8627927780000002,3.7053000000000016,0.0,-50918.0,0.5,-15.0,492.1875,0.0,1.25,0.68359368,3.7185000000000015,0.0,0.07000000029802322,-0.8999999761581421,85.5999984741211,0.02044677734375,0.102294921875,1.0208740234375,36.369998931884766,0.0,103.0,-3.8575897216796875,-1.4585113525390625,Closing,0.0,0.0,-189.0,0.0,0.0,0.0,0.0,0.0,
4.829508999999991,0.0,0.0,66998.0,0.0,-157.5,0.0,0.0,0.5,4.742431155,3.6991882500000015,0.0,-75037.0,0.5,60.0,0.0,0.0,0.5,4.0258784940000005,3.7228275000000015,0.0,60417.0,0.125,-15.0,0.0,0.0,0.25,1.9458005820000002,3.7053000000000016,0.0,-50921.0,0.125,0.0,0.0,0.0,0.5,0.551757756,3.7185000000000015,0.0,0.28999999165534973,-0.9200000166893005,85.56999969482422,0.0499267578125,-0.078125,1.0408935546875,36.369998931884766,0.0,-78.0,-3.8551788330078125,-1.455596923828125,Closing,0.0,0.0,-189.0,0.0,0.0,0.0,0.0,0.0,
4.910415999999997,0.0,0.0,66998.0,2.25,-60.0,-905.6249999999999,0.0,0.375,4.581298359,3.6991882500000015,0.0,-75021.0,4.5,67.5,905.6249999999999,0.0,0.25,4.1284175460000005,3.7228275000000015,0.0,60415.0,1.875,-7.5,-905.6249999999999,0.0,0.125,2.0678708820000002,3.7053000000000016,0.0,-50911.0,2.0,30.0,905.6249999999999,0.0,0.25,0.42236323800000003,3.7185000000000015,0.0,0.2800000011920929,-0.8799999952316284,85.62000274658203,-0.17108154296875,0.17706298828125,1.17474365234375,36.369998931884766,0.0,159.0,-3.856353759765625,-1.45281982421875,Closing,0.0,0.0,-189.0,0.0,0.0,0.0,0.0,0.0,
4.9952850000000035,0.0,0.0,66980.0,16.5,-157.5,-2520.0,0.0,0.375,4.52880813,3.6991882500000015,0.0,-75021.0,25.5,232.5,2520.0,0.0,0.5,4.1857905870000005,3.7228275000000015,0.0,60415.0,17.125,-67.5,-2520.0,0.0,0.125,2.154540795,3.7053000000000016,0.0,-50911.0,19.5,292.5,2520.0,0.0,0.25,0.291748017,3.7185000000000015,0.0,1.3600000143051147,-1.0299999713897705,85.43000030517578,-0.1663818359375,0.192626953125,1.47674560546875,36.380001068115234,0.0,145.0,-3.8543548583984375,-1.4492034912109375,Closing,0.0,0.0,-189.0,0.0,0.0,0.0,0.0,0.0,
5.088704999999988,0.0,0.0,66903.0,9.0,-457.5,-944.9999999999999,0.0,0.125,4.523925318,3.6991882500000015,0.0,-74916.0,8.375,862.5,944.9999999999999,0.0,0.25,4.194335508,3.7228275000000015,0.0,60363.0,8.375,-525.0,-944.9999999999999,0.0,0.125,2.159423607,3.7053000000000016,0.0,-50847.0,8.25,577.5,944.9999999999999,0.0,0.375,0.262451145,3.7185000000000015,0.0,2.509999990463257,-0.6399999856948853,85.66000366210938,0.00750732421875,0.1163330078125,0.84552001953125,36.380001068115234,0.0,80.0,-3.83465576171875,-1.4434814453125,Closing,0.0,0.0,-189.0,0.0,0.0,0.0,0.0,0.0,
5.216997999999992,0.0,0.0,66817.0,0.0,-517.5,0.0,0.0,0.125,4.5007319610000005,3.6991882500000015,0.0,-74815.0,0.0,465.0,0.0,0.0,0.25,4.194335508,3.7228275000000015,0.0,60250.0,0.0,-532.5,0.0,0.0,0.125,2.144775171,3.7053000000000016,0.0,-50727.0,0.125,600.0,0.0,0.0,0.375,0.364990197,3.7185000000000015,0.0,1.6200000047683716,-0.8500000238418579,86.80000305175781,-0.0201416015625,-0.296875,1.10491943359375,36.380001068115234,0.0,-327.0,-3.8104095458984375,-1.43768310546875,Closing,0.0,0.0,-189.0,0.0,0.0,0.0,0.0,0.0,
5.351089999999997,0.0,0.0,66764.0,2.375,-210.0,281.1023533344269,0.0,3.0,4.196776914,3.0159423668524865,0.0,-74753.0,4.125,142.5,-281.1023533344269,0.0,5.25,4.56542922,4.41043958977222,0.0,60181.0,0.0,-217.5,-281.1023533344269,0.0,3.0,2.445068109,4.389674732977291,0.0,-50643.0,0.25,292.5,281.1023533344269,0.0,1.25,0.07324218,3.031687206278561,0.0,-0.6600000262260437,-0.9700000286102295,87.41999816894531,-0.080322265625,-0.3470458984375,1.093994140625,36.380001068115234,0.0,-336.0,-3.8158416748046875,-1.4289093017578125,Closing,0.0,0.0,-189.0,0.0,0.0,0.0,0.0,0.0,
5.480386999999988,0.0,0.0,66775.0,0.0,60.0,0.0,0.0,0.5,3.763427349,3.0159423668524865,0.0,-74758.0,0.0,-60.0,0.0,0.0,0.5,0.028076169,4.41043958977222,0.0,60168.0,0.0,-37.5,0.0,0.0,0.75,2.836913772,4.389674732977291,0.0,-50624.0,0.125,15.0,0.0,0.0,0.5,4.569091329,3.031687206278561,0.0,-0.25999999046325684,-0.8600000143051147,88.2699966430664,0.020751953125,0.2049560546875,0.9322509765625,36.34000015258789,0.0,210.0,-3.844482421875,-1.4188385009765625,Closing,0.0,0.0,-189.0,0.0,0.0,0.0,0.0,0.0,
5.617281999999977,0.0,0.0,66775.0,0.0,0.0,0.0,0.0,0.5,3.670653921,3.0159423668524865,0.0,-74760.0,0.125,0.0,0.0,0.0,0.25,0.086669913,4.41043958977222,0.0,60163.0,0.0,-15.0,0.0,0.0,0.125,2.919921576,4.389674732977291,0.0,-50617.0,0.125,67.5,0.0,0.0,0.375,4.497069852,3.031687206278561,0.0,-0.38999998569488525,-0.9599999785423279,88.55999755859375,-0.0328369140625,-0.007568359375,1.03851318359375,36.34000015258789,0.0,0.0,-3.8626861572265625,-1.4161376953125,Closing,0.0,0.0,-189.0,0.0,0.0,0.0,0.0,0.0,
5.750644,0.0,0.0,66775.0,0.125,37.5,248.03150296211243,0.0,0.375,3.7854000030000003,3.0159423668524865,0.0,-74775.0,0.125,-75.0,-248.03150296211243,0.0,0.25,0.032958981,4.41043958977222,0.0,60159.0,0.375,-7.5,-248.03150296211243,0.0,0.125,2.8405758810000004,4.389674732977291,0.0,-50617.0,0.5,0.0,248.03150296211243,0.0,0.375,4.559325705,3.031687206278561,0.0,-0.25,-0.9300000071525574,88.58999633789062,-0.0294189453125,-0.00384521484375,1.01934814453125,36.34000015258789,0.0,0.0,-3.8748626708984375,-1.414886474609375,Closing,0.0,0.0,-189.0,0.0,0.0,0.0,0.0,0.0,
5.874339999999997,0.0,0.0,66790.0,0.125,60.0,-114.84375,0.0,0.25,3.826903905,3.0159423668524887,0.0,-74776.0,0.125,0.0,114.84375,0.0,0.25,4.956054180000001,4.410439589772222,0.0,60156.0,0.125,-7.5,114.84375,0.0,0.125,2.817382524,4.389674732977289,0.0,-50617.0,0.125,0.0,-114.84375,0.0,0.25,4.645995618000001,3.031687206278559,0.0,-0.17000000178813934,-0.9200000166893005,88.7300033569336,-0.0125732421875,-0.01751708984375,1.03375244140625,36.34000015258789,0.0,-14.0,-3.875091552734375,-1.4145050048828125,Closing,0.0,0.0,-189.0,0.0,0.0,0.0,0.0,0.0,
6.007672999999981,0.0,0.0,66792.0,2.5,52.5,694.4881707429886,0.0,0.25,3.8293453110000004,3.0159423668524865,0.0,-74791.0,3.875,-75.0,-694.4881707429886,0.0,0.25,4.942626447,4.41043958977222,0.0,60135.0,2.375,-90.0,-694.4881707429886,0.0,0.125,2.813720415,4.389674732977291,0.0,-50592.0,2.0,150.0,694.4881707429886,0.0,0.125,4.661864757,3.031687206278561,0.0,-0.1599999964237213,-0.9100000262260437,89.20999908447266,-0.06573486328125,0.09527587890625,1.1273193359375,36.27000045776367,0.0,97.0,-3.8752593994140625,-1.41455078125,Closing,0.0,0.0,-189.0,0.0,0.0,0.0,0.0,0.0,
6.1514639999999785,0.0,0.0,66809.0,0.0,7.5,0.0,0.0,0.125,3.8403316380000003,3.0159423668524865,0.0,-74800.0,0.0,-30.0,0.0,0.0,0.25,4.94384715,4.41043958977222,0.0,60119.0,0.0,-75.0,0.0,0.0,0.0,2.812499712,4.389674732977291,0.0,-50581.0,0.125,22.5,0.0,0.0,0.125,4.665526866,3.031687206278561,0.0,-0.12999999523162842,-1.0299999713897705,91.30999755859375,-0.02142333984375,-0.008056640625,1.03082275390625,36.27000045776367,0.0,-5.0,-3.87298583984375,-1.4140777587890625,Closing,0.0,0.0,-189.0,0.0,0.0,0.0,0.0,0.0,
6.284494999999995,0.0,0.0,66839.0,0.75,112.5,529.1338562965393,0.0,0.25,3.8342281230000004,3.0159423668524865,0.0,-74822.0,1.375,-165.0,-529.1338562965393,0.0,0.25,4.942626447,4.41043958977222,0.0,60114.0,0.875,-67.5,-529.1338562965393,0.0,0.0,2.812499712,4.389674732977291,0.0,-50576.0,1.125,105.0,529.1338562965393,0.0,0.125,4.6630854600000005,3.031687206278561,0.0,-0.09000000357627869,-0.9700000286102295,91.80999755859375,0.077392578125,0.19134521484375,0.9208984375,36.27000045776367,0.0,189.0,-3.87200927734375,-1.4154052734375,Closing,0.0,0.0,-189.0,0.0,0.0,0.0,0.0,0.0,
6.41822199999998,0.0,0.0,66843.0,0.0,30.0,0.0,0.0,0.25,3.8403316380000003,3.0159423668524865,0.0,-74835.0,0.0,-37.5,0.0,0.0,0.25,4.941405744,4.41043958977222,0.0,60103.0,0.0,-15.0,0.0,0.0,0.0,2.812499712,4.389674732977291,0.0,-50550.0,0.125,22.5,0.0,0.0,0.125,4.665526866,3.031687206278561,0.0,-0.019999999552965164,-1.0399999618530273,93.25,-0.0107421875,-0.0146484375,1.0447998046875,36.27000045776367,0.0,-14.0,-3.86712646484375,-1.416717529296875,Closing,0.0,0.0,-189.0,0.0,0.0,0.0,0.0,0.0,
6.55249099999998,0.0,0.0,66867.0,14.875,262.5,1769.2913711071014,0.0,0.25,3.812255469,3.0159423668524865,0.0,-74841.0,21.75,-285.0,-1769.2913711071014,0.0,0.25,4.94384715,4.41043958977222,0.0,60093.0,14.375,-262.5,-1769.2913711071014,0.0,0.0,2.817382524,4.389674732977291,0.0,-50550.0,12.875,262.5,1769.2913711071014,0.0,0.125,4.661864757,3.031687206278561,0.0,-0.20000000298023224,-1.0,95.44000244140625,0.0318603515625,0.1075439453125,1.37591552734375,36.310001373291016,0.0,106.0,-3.8675994873046875,-1.4192962646484375,Closing,0.0,0.0,-189.0,0.0,0.0,0.0,0.0,0.0,
6.684894,0.0,0.0,66943.0,0.0,480.0,0.0,0.0,0.25,3.818358984,3.0159423668524865,0.0,-74942.0,0.125,-480.0,0.0,0.0,0.25,4.938964338,4.41043958977222,0.0,60053.0,0.0,-315.0,0.0,0.0,0.125,2.7978512760000003,4.389674732977291,0.0,-50388.0,0.125,487.5,0.0,0.0,0.125,4.7106928770000005,3.031687206278561,0.0,0.009999999776482582,-1.0800000429153442,104.58999633789062,-0.06561279296875,0.20391845703125,0.9788818359375,36.310001373291016,0.0,209.0,-3.86444091796875,-1.4216156005859375,Closing,0.0,0.0,-189.0,0.0,0.0,0.0,0.0,0.0,
6.816770999999979,0.0,0.0,67034.0,0.0,510.0,0.0,0.0,0.125,3.817138281,3.0159423668524865,0.0,-75022.0,0.0,-405.0,0.0,0.0,0.125,4.940185041,4.41043958977222,0.0,59981.0,0.0,-525.0,0.0,0.0,0.0,2.7929684640000003,4.389674732977291,0.0,-50326.0,0.125,405.0,0.0,0.0,0.25,4.69970655,3.031687206278561,0.0,-0.05999999865889549,-1.059999942779541,111.06999969482422,0.0655517578125,-0.04193115234375,0.73394775390625,36.310001373291016,0.0,-66.0,-3.858612060546875,-1.4228057861328125,Closing,0.0,0.0,-189.0,0.0,0.0,0.0,0.0,0.0,
6.892489000000001,0.0,0.0,67088.0,0.0,330.0,0.0,0.0,0.25,3.817138281,3.0159423668524865,-0.0012207029999999897,-75080.0,0.125,-337.5,0.0,0.0,0.25,4.942626447,4.41043958977222,0.0012207030000004337,59914.0,0.0,-330.0,0.0,0.0,0.0,2.7941891670000003,4.389674732977291,-0.004882811999999959,-50326.0,0.125,352.5,0.0,0.0,0.25,4.680175302,3.031687206278561,-0.009765623999999917,-0.07000000029802322,-1.0700000524520874,113.4000015258789,-0.05145263671875,0.04547119140625,1.0120849609375,36.310001373291016,0.0,55.0,-3.8559417724609375,-1.4238433837890625,Closing,0.0,0.0,-189.0,0.0,0.0,0.0,0.0,0.0,
6.967633999999991,0.0,0.0,67088.0,0.0,270.0,0.0,0.0,0.125,3.817138281,3.0159423668524865,0.0,-75113.0,0.0,-217.5,0.0,0.0,0.25,4.94384715,4.41043958977222,0.0,59870.0,0.0,-277.5,0.0,0.0,0.0,2.7941891670000003,4.389674732977291,0.0,-50288.0,0.125,247.5,0.0,0.0,0.25,4.676513193,3.031687206278561,-0.019531247999999835,-0.07000000029802322,-1.0800000429153442,114.62000274658203,0.0048828125,-0.0118408203125,1.0628662109375,36.310001373291016,0.0,-19.0,-3.853790283203125,-1.4239959716796875,Closing,0.0,0.0,-189.0,0.0,0.0,0.0,0.0,0.0,
7.030549999999988,0.0,0.0,67117.0,0.0,135.0,0.0,0.0,0.25,3.817138281,3.0159423668524865,0.0,-75113.0,0.0,-135.0,0.0,0.0,0.25,4.945067853,4.41043958977222,0.0,59870.0,0.0,-135.0,0.0,0.0,0.0,2.7929684640000003,4.389674732977291,0.0,-50288.0,0.125,142.5,0.0,0.0,0.25,4.67529249,3.031687206278561,0.0,-0.07999999821186066,-1.0199999809265137,115.47000122070312,-0.01348876953125,0.0015869140625,0.97650146484375,36.27000045776367,0.0,1.0,-3.85235595703125,-1.424072265625,Closing,0.0,0.0,-189.0,0.0,0.0,0.0,0.0,0.0,
7.110146999999997,0.0,0.0,67121.0,0.0,45.0,0.0,0.0,0.125,3.817138281,3.0159423668524865,-0.0012207029999999897,-75125.0,0.0,-52.5,0.0,0.0,0.125,4.938964338,4.41043958977222,-0.0012207030000004337,59859.0,0.0,-45.0,0.0,0.0,0.0,2.7929684640000003,4.389674732977291,0.0,-50275.0,0.125,60.0,0.0,0.0,0.25,4.676513193,3.031687206278561,0.0,-0.05999999865889549,-1.0499999523162842,115.41999816894531,-0.01739501953125,-0.0213623046875,0.982666015625,36.27000045776367,0.0,-18.0,-3.85235595703125,-1.4239654541015625,Closing,0.0,0.0,-189.0,0.0,0.0,0.0,0.0,0.0,
7.171589999999997,0.0,0.0,67121.0,0.0,0.0,0.0,0.0,0.125,3.817138281,3.0159423668524865,0.0,-75125.0,0.0,-7.5,0.0,0.0,0.125,4.937743635,4.41043958977222,-0.003662108999999525,59859.0,0.0,-7.5,0.0,0.0,0.0,2.7880856520000004,4.389674732977291,-0.0012207030000004337,-50275.0,0.125,0.0,0.0,0.0,0.25,4.67529249,3.031687206278561,0.0,-0.05999999865889549,-1.0199999809265137,115.16000366210938,0.0020751953125,0.00396728515625,0.9925537109375,36.27000045776367,0.0,-3.0,-3.85235595703125,-1.423980712890625,Closing,0.0,0.0,-189.0,0.0,0.0,0.0,0.0,0.0,
7.230904999999999,0.0,0.0,67121.0,0.0,0.0,0.0,0.0,0.25,3.818358984,3.0159423668524865,0.0,-75125.0,0.125,0.0,0.0,0.0,0.125,4.937743635,4.41043958977222,0.0,59859.0,0.0,0.0,0.0,0.0,0.0,2.7941891670000003,4.389674732977291,-0.0012207029999995456,-50275.0,0.125,0.0,0.0,0.0,0.25,4.67529249,3.031687206278561,0.0,-0.03999999910593033,-1.0199999809265137,114.9800033569336,-0.0137939453125,-0.00421142578125,1.0157470703125,36.27000045776367,0.0,-4.0,-3.85235595703125,-1.424072265625,Closing,0.0,0.0,-189.0,0.0,0.0,0.0,0.0,0.0,
7.29961499999999,0.0,0.0,67121.0,0.0,0.0,0.0,0.0,0.125,3.817138281,3.0159423668524865,0.0,-75125.0,0.0,0.0,0.0,0.0,0.125,4.937743635,4.41043958977222,0.0,59859.0,0.0,0.0,0.0,0.0,0.0,2.7990719790000003,4.389674732977291,0.0,-50275.0,0.125,0.0,0.0,0.0,0.25,4.676513193,3.031687206278561,0.0,-0.03999999910593033,-1.0399999618530273,114.80999755859375,-0.02685546875,-0.00286865234375,1.029052734375,36.27000045776367,0.0,1.0,-3.85235595703125,-1.424072265625,Closing,0.0,0.0,-189.0,0.0,0.0,0.0,0.0,0.0,
7.374449999999983,0.0,0.0,67121.0,0.0,0.0,0.0,0.0,0.25,3.817138281,3.0159423668524865,0.0,-75125.0,0.125,0.0,0.0,0.0,0.125,4.940185041,4.41043958977222,0.0,59859.0,0.0,0.0,0.0,0.0,0.0,2.7990719790000003,4.389674732977291,0.004882811999999959,-50275.0,0.125,0.0,0.0,0.0,0.25,4.676513193,3.031687206278561,0.0,-0.029999999329447746,-1.0399999618530273,114.81999969482422,-0.011962890625,0.00213623046875,1.02801513671875,36.27000045776367,0.0,0.0,-3.85235595703125,-1.424072265625,Closing,0.0,0.0,-189.0,0.0,0.0,0.0,0.0,0.0,
7.449084999999992,0.0,0.0,67121.0,0.0,0.0,0.0,0.0,0.125,3.817138281,3.0159423668524865,0.0,-75125.0,0.125,0.0,0.0,0.0,0.125,4.938964338,4.41043958977222,0.0,59859.0,0.0,0.0,0.0,0.0,0.0,2.7990719790000003,4.389674732977291,0.0,-50275.0,0.125,0.0,0.0,0.0,0.25,4.67529249,3.031687206278561,0.0,-0.029999999329447746,-1.0199999809265137,114.86000061035156,-0.0242919921875,-0.00445556640625,1.0333251953125,36.27000045776367,0.0,-1.0,-3.85235595703125,-1.424072265625,Closing,0.0,0.0,-189.0,0.0,0.0,0.0,0.0,0.0,
7.507606,0.0,0.0,67121.0,0.0,0.0,0.0,0.0,0.125,3.817138281,3.0159423668524865,0.0,-75125.0,0.125,0.0,0.0,0.0,0.125,4.937743635,4.41043958977222,0.0,59859.0,0.0,0.0,0.0,0.0,0.0,2.7978512760000003,4.389674732977291,0.0,-50275.0,0.125,0.0,0.0,0.0,0.25,4.676513193,3.031687206278561,0.0,-0.019999999552965164,-1.0299999713897705,114.87000274658203,-0.0162353515625,0.00103759765625,1.0142822265625,36.33000183105469,0.0,0.0,-3.85235595703125,-1.424072265625,Closing,0.0,0.0,-189.0,0.0,0.0,0.0,0.0,0.0,
7.585476999999984,0.0,0.0,67121.0,0.0,0.0,0.0,0.0,0.125,3.817138281,3.0159423668524865,0.0,-75125.0,0.0,0.0,0.0,0.0,0.125,4.938964338,4.41043958977222,0.0,59859.0,0.0,0.0,0.0,0.0,0.0,2.7978512760000003,4.389674732977291,0.0,-50275.0,0.125,0.0,0.0,0.0,0.25,4.676513193,3.031687206278561,0.0,-0.009999999776482582,-1.0199999809265137,114.8499984741211,-0.0133056640625,-0.0013427734375,1.02691650390625,36.33000183105469,0.0,-3.0,-3.85235595703125,-1.424072265625,Closing,0.0,0.0,-189.0,0.0,0.0,0.0,0.0,0.0,
7.662917999999976,0.0,0.0,67121.0,0.0,0.0,0.0,0.0,0.125,3.817138281,3.0159423668524865,0.0,-75125.0,0.0,0.0,0.0,0.0,0.125,4.937743635,4.41043958977222,0.0,59859.0,0.0,0.0,0.0,0.0,0.0,2.7978512760000003,4.389674732977291,0.0,-50275.0,0.125,0.0,0.0,0.0,0.25,4.676513193,3.031687206278561,0.0,-0.009999999776482582,-1.0199999809265137,114.8499984741211,-0.02008056640625,0.0025634765625,1.02374267578125,36.33000183105469,0.0,3.0,-3.85235595703125,-1.424072265625,Closing,0.0,0.0,-189.0,0.0,0.0,0.0,0.0,0.0,
7.7201889999999835,0.0,0.0,67121.0,0.0,0.0,0.0,0.0,0.25,3.817138281,3.0159423668524865,0.0,-75125.0,0.125,0.0,0.0,0.0,0.125,4.936522932,4.41043958977222,0.0,59859.0,0.0,0.0,0.0,0.0,0.0,2.7978512760000003,4.389674732977291,0.0,-50275.0,0.125,0.0,0.0,0.0,0.25,4.676513193,3.031687206278561,0.0,0.0,-1.0199999809265137,114.8499984741211,-0.0125732421875,-0.00140380859375,1.0174560546875,36.33000183105469,0.0,-3.0,-3.85235595703125,-1.424072265625,Closing,0.0,0.0,-189.0,0.0,0.0,0.0,0.0,0.0,
7.826088999999978,0.0,0.0,67121.0,0.0,0.0,0.0,0.0,0.125,3.817138281,3.0159423668524865,0.0,-75125.0,0.0,0.0,0.0,0.0,0.125,4.937743635,4.41043958977222,0.0,59859.0,0.0,0.0,0.0,0.0,0.0,2.7978512760000003,4.389674732977291,0.0,-50275.0,0.0,0.0,0.0,0.0,0.25,4.676513193,3.031687206278561,0.0,-0.009999999776482582,-1.0199999809265137,114.8499984741211,-0.018798828125,0.00543212890625,1.01715087890625,36.33000183105469,0.0,5.0,-3.85235595703125,-1.424072265625,Closing,0.0,0.0,-189.0,0.0,0.0,0.0,0.0,0.0,
7.892938999999984,0.0,0.0,67121.0,0.0,0.0,0.0,0.0,0.25,3.817138281,3.0159423668524865,0.0,-75125.0,0.125,0.0,0.0,0.0,0.125,4.940185041,4.41043958977222,0.0,59859.0,0.0,0.0,0.0,0.0,0.0,2.7978512760000003,4.389674732977291,0.0,-50275.0,0.125,0.0,0.0,0.0,0.25,4.676513193,3.031687206278561,0.0,0.0,-1.0199999809265137,114.8499984741211,-0.01806640625,-0.00146484375,1.01171875,36.33000183105469,0.0,-1.0,-3.85235595703125,-1.424072265625,Closing,0.0,0.0,-189.0,0.0,0.0,0.0,0.0,0.0,
7.970737999999983,0.0,0.0,67121.0,0.125,0.0,158.7401568889618,0.0,0.125,3.817138281,2.4661254999999977,0.0,-75125.0,0.125,0.0,158.7401568889618,0.0,1.75,4.948729962000001,4.963769999999998,0.0,59859.0,0.125,0.0,-158.7401568889618,0.0,1.25,2.83203096,0.01,0.0,-50275.0,0.375,0.0,-158.7401568889618,0.0,1.25,4.616698746,2.4790000000000023,0.0,0.0,-1.0099999904632568,114.86000061035156,-0.01873779296875,-0.0023193359375,1.01678466796875,36.33000183105469,0.0,-1.0,-3.85235595703125,-1.424072265625,Closing,0.0,0.0,-189.0,0.0,0.0,0.0,0.0,0.0,
8.031921999999991,0.0,0.0,67121.0,2.5,-22.5,-1100.6258352064553,0.0,1.875,3.656005485,3.1906907871489394,0.0,-75125.0,6.125,15.0,1667.7675393345396,0.0,0.625,0.087890616,4.5259549322880535,0.0,59859.0,1.5,0.0,1100.6258352064553,0.0,1.875,2.9614254780000002,4.214637595647379,0.0,-50290.0,6.75,-30.0,-1667.7675393345396,0.0,1.25,4.4506831380000005,2.91630614144407,0.0,0.05000000074505806,-1.0399999618530273,114.79000091552734,-0.475341796875,-0.1182861328125,1.0880126953125,36.279998779296875,0.0,82.0,-3.852783203125,-1.42376708984375,Closing,0.0,0.0,-189.0,0.0,0.0,0.0,0.0,0.0,
8.097225999999965,0.0,0.0,67096.0,6.625,-232.5,-1244.5621984531012,0.0,0.375,3.768310161,3.080547971565142,0.0,-75101.0,22.625,397.5,1486.6128336601205,0.0,0.25,0.091552725,4.464853314914801,0.0,59873.0,5.75,322.5,1244.5621984531012,0.0,0.25,2.7929684640000003,4.324962387737277,0.0,-50290.0,12.375,-285.0,-1486.6128336601205,0.0,0.25,4.46777298,2.9773367328970557,0.0,0.15000000596046448,-1.2799999713897705,111.77999877929688,-0.07281494140625,0.07293701171875,1.0003662109375,36.279998779296875,0.0,83.0,-3.8532562255859375,-1.4195098876953125,Closing,0.0,0.0,-189.0,0.0,0.0,0.0,0.0,0.0,
8.172659999999974,0.0,0.0,67096.0,3.125,-337.5,0.0,0.0,0.375,3.856200777,3.080547971565142,0.1159667849999999,-75022.0,10.5,502.5,0.0,0.0,0.25,0.072021477,4.464853314914801,0.0012207030000004337,59929.0,2.875,367.5,0.0,0.0,0.125,2.714843472,4.324962387737277,-0.16235349899999996,-50362.0,3.5,-457.5,0.0,0.0,0.375,4.487304228,2.9773367328970557,0.021972653999999814,0.12999999523162842,-1.159999966621399,109.27999877929688,-0.03472900390625,0.194580078125,0.9691162109375,36.279998779296875,0.0,186.0,-3.8531036376953125,-1.4170379638671875,Closing,0.0,0.0,-189.0,0.0,0.0,0.0,0.0,0.0,
8.233354999999982,0.0,0.0,67044.0,0.0,-285.0,0.0,0.0,0.25,3.914794521,3.080547971565142,0.09399413100000009,-75022.0,0.125,375.0,0.0,0.0,0.25,0.031738278,4.464853314914801,0.0,59929.0,0.0,172.5,0.0,0.0,0.0,2.6916501150000003,4.324962387737277,0.0,-50362.0,0.125,-345.0,0.0,0.0,0.25,4.536132348000001,2.9773367328970557,0.0,-0.009999999776482582,-0.9399999976158142,105.95999908447266,0.04925537109375,-0.2174072265625,0.64642333984375,36.279998779296875,0.0,-225.0,-3.8537750244140625,-1.4135284423828125,Closing,0.0,0.0,-189.0,0.0,0.0,0.0,0.0,0.0,
8.306794999999983,0.0,0.0,66994.0,0.0,-315.0,0.0,0.0,0.25,3.914794521,3.080547971565142,0.04394530800000007,-74979.0,0.0,300.0,0.0,0.0,0.125,4.952392071,4.464853314914801,-0.03906249600000056,59960.0,0.0,225.0,0.0,0.0,0.0,2.681884491,4.324962387737277,-0.02319335699999936,-50407.0,0.125,-292.5,0.0,0.0,0.25,4.583739765000001,2.9773367328970557,0.04272460500000008,0.07999999821186066,-0.9300000071525574,104.16000366210938,-0.0601806640625,0.0267333984375,1.00579833984375,36.279998779296875,0.0,35.0,-3.8539581298828125,-1.4093475341796875,Closing,0.0,0.0,-189.0,0.0,0.0,0.0,0.0,0.0,
8.38112599999999,0.0,0.0,66994.0,0.0,-210.0,0.0,0.0,0.25,3.913573818,3.080547971565142,0.0,-74979.0,0.125,187.5,0.0,0.0,0.125,4.956054180000001,4.464853314914801,4.921874496000001,59960.0,0.0,165.0,0.0,0.0,0.0,2.6916501150000003,4.324962387737277,-0.010986327000000351,-50425.0,0.0,-150.0,0.0,0.0,0.125,4.60205031,2.9773367328970557,0.052490229,-0.05999999865889549,-0.8199999928474426,103.58000183105469,0.00115966796875,-0.07232666015625,0.92584228515625,36.279998779296875,0.0,-72.0,-3.853607177734375,-1.406158447265625,Closing,0.0,0.0,-189.0,0.0,0.0,0.0,0.0,0.0,
8.44299099999998,0.0,0.0,66992.0,0.0,-7.5,0.0,0.0,0.25,3.913573818,3.080547971565142,0.0,-74962.0,0.0,67.5,0.0,0.0,0.125,4.956054180000001,4.464853314914801,0.0,59973.0,0.0,22.5,0.0,0.0,0.0,2.700195036,4.324962387737277,0.0,-50425.0,0.125,-45.0,0.0,0.0,0.125,4.60205031,2.9773367328970557,0.0,-0.029999999329447746,-0.8600000143051147,103.69999694824219,-0.031005859375,0.04986572265625,0.95355224609375,36.279998779296875,0.0,52.0,-3.8537445068359375,-1.4040069580078125,Closing,0.0,0.0,-189.0,0.0,0.0,0.0,0.0,0.0,
8.513094999999971,0.0,0.0,66992.0,0.5,7.5,496.06300592422485,0.0,0.375,3.913573818,3.0159423668524865,0.0,-74969.0,1.125,-15.0,-496.06300592422485,0.0,0.25,0.019531248,4.41043958977222,0.0,59972.0,0.625,0.0,-496.06300592422485,0.0,0.125,2.714843472,4.389674732977291,0.0,-50420.0,1.125,22.5,496.06300592422485,0.0,0.25,4.60205031,3.031687206278561,0.0,-0.019999999552965164,-0.8899999856948853,104.04000091552734,-0.02978515625,-0.00555419921875,1.04815673828125,36.31999969482422,0.0,-1.0,-3.853057861328125,-1.40386962890625,Closing,0.0,0.0,-189.0,0.0,0.0,0.0,0.0,0.0,
8.592133999999962,0.0,0.0,67008.0,0.125,120.0,0.0,0.0,0.375,3.879394134,3.0159423668524865,0.0,-74969.0,0.125,-60.0,0.0,0.0,0.25,0.02441406,4.41043958977222,0.0,59972.0,0.125,-22.5,0.0,0.0,0.0,2.7502438590000002,4.389674732977291,0.0,-50420.0,0.375,82.5,0.0,0.0,0.25,4.6032710130000005,3.031687206278561,0.0,-0.03999999910593033,-0.8700000047683716,104.68000030517578,-0.01739501953125,0.01336669921875,0.9686279296875,36.31999969482422,0.0,14.0,-3.8527679443359375,-1.4038543701171875,Closing,0.0,0.0,-189.0,0.0,0.0,0.0,0.0,0.0,
8.690469999999973,0.0,0.0,67009.0,0.0,7.5,0.0,0.0,0.25,3.8500972620000002,3.0159423668524865,-0.04272460500000008,-74972.0,0.125,-7.5,0.0,0.0,0.25,0.02441406,4.41043958977222,0.0012207029999995456,59970.0,0.0,0.0,0.0,0.0,0.0,2.774657919,4.389674732977291,0.04272460500000008,-50413.0,0.125,7.5,0.0,0.0,0.25,4.6032710130000005,3.031687206278561,0.0,0.019999999552965164,-0.9100000262260437,105.04000091552734,-0.02935791015625,-0.0340576171875,1.0445556640625,36.31999969482422,0.0,-30.0,-3.8522796630859375,-1.4036865234375,Closing,0.0,0.0,-189.0,0.0,0.0,0.0,0.0,0.0,
8.757822999999975,0.0,0.0,67009.0,0.0,0.0,0.0,0.0,0.25,3.8500972620000002,3.0159423668524865,-0.015869138999999866,-74972.0,0.125,0.0,0.0,0.0,0.25,0.014648436,4.41043958977222,0.003662109000000413,59970.0,0.0,0.0,0.0,0.0,0.125,2.774657919,4.389674732977291,0.014648435999999876,-50413.0,0.125,0.0,0.0,0.0,0.25,4.60205031,3.031687206278561,0.0,0.0,-0.949999988079071,104.93000030517578,-0.01416015625,0.02679443359375,1.02484130859375,36.31999969482422,0.0,25.0,-3.85235595703125,-1.4029541015625,Closing,0.0,0.0,-189.0,0.0,0.0,0.0,0.0,0.0,
8.833107000000018,0.0,0.0,67009.0,0.0,0.0,0.0,0.0,0.25,3.8500972620000002,3.0159423668524865,0.0,-74972.0,0.125,0.0,0.0,0.0,0.25,4.954833477,4.41043958977222,4.930419417,59970.0,0.0,0.0,0.0,0.0,0.0,2.773437216,4.389674732977291,0.0,-50413.0,0.125,0.0,0.0,0.0,0.25,4.60205031,3.031687206278561,0.0,0.019999999552965164,-0.9300000071525574,104.7699966430664,-0.0108642578125,-0.01177978515625,1.01202392578125,36.31999969482422,0.0,-13.0,-3.8521575927734375,-1.4029541015625,Closing,0.0,0.0,-189.0,0.0,0.0,0.0,0.0,0.125,
8.902790999999969,0.0,0.0,67009.0,0.0,0.0,0.0,0.0,0.25,3.8513179650000002,3.0159423668524865,0.0,-74972.0,0.125,0.0,0.0,0.0,0.25,4.954833477,4.41043958977222,0.0,59970.0,0.0,0.0,0.0,0.0,0.0,2.774657919,4.389674732977291,0.0,-50413.0,0.125,0.0,0.0,0.0,0.25,4.60205031,3.031687206278561,0.0,-0.009999999776482582,-0.9200000166893005,104.6500015258789,-0.02056884765625,-0.00384521484375,1.023681640625,36.31999969482422,0.0,-2.0,-3.8521575927734375,-1.4029541015625,Closing,0.0,0.0,-189.0,0.0,0.0,0.0,0.0,0.0,
8.981625,0.0,0.0,67009.0,0.75,7.5,476.2204706668854,0.0,1.25,3.7902828150000003,2.4661254999999977,0.0,-74958.0,0.75,7.5,476.2204706668854,0.0,2.125,0.028076169,4.963769999999998,0.0,59966.0,0.375,0.0,-476.2204706668854,0.0,2.125,2.866210644,0.01,0.0,-50419.0,0.625,-15.0,-476.2204706668854,0.0,1.75,4.514159694,2.4790000000000023,0.0,0.009999999776482582,-0.9700000286102295,104.70999908447266,-0.0147705078125,-0.05364990234375,1.03033447265625,36.31999969482422,0.0,-52.0,-3.8521728515625,-1.4028778076171875,Closing,0.0,0.0,-189.0,0.0,0.0,0.0,0.0,0.0,
9.071032000000006,0.0,0.0,67016.0,2.0,52.5,654.8031377792358,0.0,0.875,3.452148084,2.4661254999999977,0.0,-74958.0,3.75,157.5,654.8031377792358,0.0,0.75,0.29296872,4.963769999999998,0.0,59966.0,1.875,-52.5,-654.8031377792358,0.0,0.75,3.2031246720000004,0.01,0.0,-50419.0,2.0,-127.5,-654.8031377792358,0.0,0.625,4.210204647,2.4790000000000023,0.0,-0.009999999776482582,-1.2100000381469727,104.73999786376953,-0.105224609375,-0.00537109375,1.03131103515625,36.31999969482422,0.0,16.0,-3.8521270751953125,-1.4008636474609375,Closing,0.0,0.0,-189.0,0.0,0.0,0.0,0.0,0.125,
9.13566200000001,0.0,0.0,67016.0,3.125,82.5,674.6456480026245,0.0,0.375,3.254394198,2.4661254999999977,0.0,-74943.0,5.0,90.0,674.6456480026245,0.0,0.5,0.456542922,4.963769999999998,0.0,59950.0,3.25,-90.0,-674.6456480026245,0.0,0.375,3.3801266070000002,0.01,0.0,-50436.0,2.75,-82.5,-674.6456480026245,0.0,0.5,4.099120674,2.4790000000000023,0.0,-0.009999999776482582,-1.4500000476837158,104.70999908447266,-0.05975341796875,0.01751708984375,1.0494384765625,36.31999969482422,0.0,25.0,-3.851593017578125,-1.3975982666015625,Closing,0.0,0.0,-189.0,0.0,0.0,0.0,0.0,0.125,
9.225467999999994,0.0,0.0,67037.0,4.0,180.0,674.6456480026245,0.0,0.25,3.19824186,2.4661254999999977,0.0,-74943.0,8.125,150.0,674.6456480026245,0.0,0.25,0.5175780720000001,4.963769999999998,0.0,59950.0,4.25,-142.5,-674.6456480026245,0.0,0.25,3.4313961330000002,0.01,0.0,-50471.0,4.25,-165.0,-674.6456480026245,0.0,0.125,4.063720287000001,2.4790000000000023,0.0,0.05999999865889549,-1.9299999475479126,104.56999969482422,-0.222900390625,-0.015869140625,0.94549560546875,36.31999969482422,0.0,31.0,-3.848724365234375,-1.388916015625,Closing,0.0,0.0,-189.0,0.0,0.0,0.0,0.0,0.0,
9.349608000000007,0.0,0.0,67080.0,1.25,330.0,277.79527455568314,0.0,0.375,3.2043453750000004,2.4661254999999977,0.0,-74904.0,2.0,367.5,277.79527455568314,0.0,0.125,0.5175780720000001,4.963769999999998,0.0,59919.0,1.25,-322.5,-277.79527455568314,0.0,0.125,3.4277340240000003,0.01,0.0,-50524.0,1.25,-337.5,-277.79527455568314,0.0,0.25,4.066161693000001,2.4790000000000023,0.0,0.07999999821186066,-2.049999952316284,104.2699966430664,0.023681640625,-0.006103515625,1.07928466796875,36.31999969482422,0.0,-22.0,-3.842041015625,-1.3744354248046875,Closing,0.0,0.0,-189.0,0.0,0.0,0.0,0.0,0.0,
9.423898999999976,0.0,0.0,67141.0,0.25,367.5,0.0,0.0,0.375,3.23486295,2.4661254999999977,0.026855466000000217,-74840.0,0.625,375.0,0.0,0.0,0.125,0.5175780720000001,4.963769999999998,-0.0012207029999995456,59861.0,0.25,-232.5,0.0,0.0,0.125,3.399657855,0.01,-0.009765623999999917,-50524.0,0.125,-240.0,0.0,0.0,0.25,4.061278881,2.4790000000000023,0.0,0.10000000149011612,-1.809999942779541,104.12999725341797,0.3134765625,-0.081298828125,1.08056640625,36.31999969482422,0.0,-165.0,-3.8397979736328125,-1.375579833984375,Closing,0.0,0.0,-189.0,0.0,0.0,0.0,0.0,0.0,
9.498070000000007,0.0,0.0,67156.0,0.0,180.0,0.0,0.0,0.25,3.240966465,2.4661254999999977,0.0,-74818.0,0.125,82.5,0.0,0.0,0.125,0.5163573690000001,4.963769999999998,0.0,59849.0,0.0,-45.0,0.0,0.0,0.125,3.385009419,0.01,0.0,-50561.0,0.125,-187.5,0.0,0.0,0.25,4.061278881,2.4790000000000023,-0.004882811999999959,-0.07000000029802322,-0.41999998688697815,104.66000366210938,0.2779541015625,0.069580078125,0.97906494140625,36.31999969482422,0.0,30.0,-3.8412322998046875,-1.3891448974609375,Closing,0.0,0.0,-189.0,0.0,0.0,0.0,0.0,0.0,
9.571880000000005,0.0,0.0,67156.0,0.0,15.0,0.0,0.0,0.25,3.239745762,2.4661254999999977,0.0,-74818.0,0.125,0.0,0.0,0.0,0.125,0.5175780720000001,4.963769999999998,0.0,59849.0,0.0,0.0,0.0,0.0,0.125,3.385009419,0.01,-0.010986326999999907,-50561.0,0.125,-105.0,0.0,0.0,0.25,4.061278881,2.4790000000000023,0.0,0.25,-0.019999999552965164,104.5999984741211,-0.0045166015625,0.13238525390625,1.09625244140625,36.38999938964844,0.0,124.0,-3.8418426513671875,-1.4011383056640625,Closing,0.0,0.0,-189.0,0.0,0.0,0.0,0.0,0.0,
9.63182799999998,0.0,0.0,67142.0,0.0,-67.5,0.0,0.0,0.25,3.244628574,2.4661254999999977,0.0,-74818.0,0.125,-15.0,0.0,0.0,0.125,0.522460884,4.963769999999998,0.0,59849.0,0.0,7.5,0.0,0.0,0.125,3.385009419,0.01,0.0,-50560.0,0.125,45.0,0.0,0.0,0.25,4.063720287000001,2.4790000000000023,0.0,-0.019999999552965164,-0.36000001430511475,104.26000213623047,-0.1087646484375,-0.09185791015625,0.9974365234375,36.38999938964844,0.0,-63.0,-3.8429412841796875,-1.42340087890625,Closing,0.0,0.0,-189.0,0.0,0.0,0.0,0.0,0.0,
9.711735999999975,0.0,0.0,67142.0,0.0,-97.5,0.0,0.0,0.25,3.244628574,2.4661254999999977,0.003662108999999969,-74831.0,0.125,-75.0,0.0,0.0,0.125,0.53710932,4.963769999999998,0.004882811999999959,59853.0,0.0,22.5,0.0,0.0,0.125,3.385009419,0.01,0.0012207029999999897,-50545.0,0.125,90.0,0.0,0.0,0.25,4.061278881,2.4790000000000023,0.0,0.10999999940395355,-0.6299999952316284,104.5,-0.07891845703125,0.05224609375,1.01165771484375,36.38999938964844,0.0,65.0,-3.8448028564453125,-1.43817138671875,Closing,0.0,0.0,-189.0,0.0,0.0,0.0,0.0,0.0,
9.882621999999975,0.0,0.0,67155.0,6.25,97.5,1058.2677125930786,0.0,2.625,3.403319964,3.0159423668524865,0.0,-74868.0,9.5,-292.5,-1058.2677125930786,0.0,1.5,0.32958981000000004,4.41043958977222,0.0,59844.0,6.625,-90.0,-1058.2677125930786,0.0,2.375,3.0993649170000004,4.389674732977291,0.0,-50516.0,4.75,195.0,1058.2677125930786,0.0,1.0,4.399413612,3.031687206278561,0.0,0.12999999523162842,-0.7099999785423279,105.36000061035156,-0.0443115234375,0.0772705078125,1.2120361328125,36.38999938964844,0.0,79.0,-3.8478240966796875,-1.464508056640625,Closing,0.0,0.0,-189.0,0.0,0.0,0.0,0.0,0.0,
9.967406000000016,0.0,0.0,67155.0,0.625,67.5,0.0,0.0,2.5,3.804931251,3.0159423668524865,0.27221676900000036,-74889.0,2.75,-165.0,0.0,0.0,0.5,4.9182123870000005,4.41043958977222,-0.27099606600000037,59825.0,1.375,-120.0,0.0,0.0,0.625,2.7392575320000003,4.389674732977291,4.594941051,-50510.0,0.625,45.0,0.0,0.0,1.25,4.733886234,3.031687206278561,0.36621090000000045,0.17000000178813934,-0.6600000262260437,106.52999877929688,0.05242919921875,0.02667236328125,1.04571533203125,36.38999938964844,0.0,4.0,-3.84967041015625,-1.47943115234375,Closing,0.0,0.0,-189.0,0.0,0.0,0.0,0.0,0.0,
10.034853000000004,0.0,0.0,67161.0,0.0,0.0,0.0,0.0,0.5,3.8513179650000002,3.0159423668524865,0.28076168999999984,-74889.0,0.0,-15.0,0.0,0.0,0.0,4.788817869,4.41043958977222,0.0,59825.0,0.0,-7.5,0.0,0.0,0.125,2.680663788,4.389674732977291,0.0,-50510.0,0.0,7.5,0.0,0.0,0.25,4.7631831060000005,3.031687206278561,0.0,0.1899999976158142,-0.6899999976158142,107.06999969482422,-0.0084228515625,-0.0391845703125,0.9969482421875,36.31999969482422,0.0,-41.0,-3.849700927734375,-1.4920501708984375,Closing,0.0,0.0,-189.0,0.0,0.0,0.0,0.0,0.0,
10.108353000000003,0.0,0.0,67161.0,0.0,0.0,0.0,0.0,0.25,3.854980074,3.0159423668524865,0.05371093199999999,-74886.0,0.0,0.0,0.0,0.0,0.25,4.783935057,4.41043958977222,-0.12817381500000025,59827.0,0.0,0.0,0.0,0.0,0.125,2.6867673030000003,4.389674732977291,-0.05615233800000041,-50510.0,0.125,0.0,0.0,0.0,0.25,4.7607417000000005,3.031687206278561,0.028076169000000206,0.12999999523162842,-0.699999988079071,107.6500015258789,-0.01904296875,-0.00732421875,1.01153564453125,36.31999969482422,0.0,-7.0,-3.8503875732421875,-1.4945068359375,Closing,0.0,0.0,-189.0,0.0,0.0,0.0,0.0,0.0,
10.181790999999969,0.0,0.0,67161.0,0.0,0.0,0.0,0.0,0.25,3.8513179650000002,3.0159423668524865,0.0,-74886.0,0.0,0.0,0.0,0.0,0.25,4.816894038,4.41043958977222,0.0012207029999995456,59820.0,0.0,-37.5,0.0,0.0,0.125,2.7404782350000003,4.389674732977291,0.0,-50510.0,0.125,0.0,0.0,0.0,0.25,4.719237798,3.031687206278561,0.0,0.18000000715255737,-0.7599999904632568,108.02999877929688,-0.0196533203125,0.0347900390625,1.03021240234375,36.31999969482422,0.0,31.0,-3.8502197265625,-1.4945068359375,Closing,0.0,0.0,-189.0,0.0,0.0,0.0,0.0,0.0,
10.270301999999967,0.0,0.0,67161.0,0.0,0.0,0.0,0.0,0.25,3.8476558560000003,3.0159423668524865,0.0,-74886.0,0.125,0.0,0.0,0.0,0.25,4.82177685,4.41043958977222,0.032958981000000165,59820.0,0.0,-15.0,0.0,0.0,0.125,2.784423543,4.389674732977291,0.05371093200000043,-50510.0,0.125,7.5,0.0,0.0,0.25,4.69970655,3.031687206278561,-0.03906249600000056,0.15000000596046448,-0.7200000286102295,107.95999908447266,-0.00994873046875,-0.02044677734375,0.9984130859375,36.31999969482422,0.0,-22.0,-3.850006103515625,-1.4946136474609375,Closing,0.0,0.0,-189.0,0.0,0.0,0.0,0.0,0.0,
10.356065000000003,0.0,0.0,67161.0,0.0,0.0,0.0,0.0,0.25,3.8513179650000002,3.0159423668524865,0.0,-74886.0,0.125,0.0,0.0,0.0,0.25,4.866942861,4.41043958977222,0.024414059999999793,59820.0,0.0,0.0,0.0,0.0,0.0,2.7929684640000003,4.389674732977291,0.04394530799999963,-50509.0,0.125,0.0,0.0,0.0,0.25,4.69970655,3.031687206278561,-0.019531247999999835,0.1599999964237213,-0.7599999904632568,107.80000305175781,-0.0322265625,0.0155029296875,1.0216064453125,36.31999969482422,0.0,17.0,-3.8501129150390625,-1.4946136474609375,Closing,0.0,0.0,-189.0,0.0,0.0,0.0,0.0,0.0,
10.430741999999968,0.0,0.0,67161.0,0.0,0.0,0.0,0.0,0.25,3.8500972620000002,3.0159423668524865,0.0,-74886.0,0.0,0.0,0.0,0.0,0.25,4.886474109,4.41043958977222,0.032958981000000165,59820.0,0.0,0.0,0.0,0.0,0.0,2.7941891670000003,4.389674732977291,0.009765623999999917,-50509.0,0.125,0.0,0.0,0.0,0.25,4.69970655,3.031687206278561,0.0,0.14000000059604645,-0.75,107.80999755859375,-0.0087890625,-0.01263427734375,1.00921630859375,36.31999969482422,0.0,-15.0,-3.8501129150390625,-1.4946136474609375,Closing,0.0,0.0,-189.0,0.0,0.0,0.0,0.0,0.125,
10.507790999999969,0.0,0.0,67161.0,0.0,0.0,0.0,0.0,0.25,3.8513179650000002,3.0159423668524865,0.0,-74886.0,0.125,0.0,0.0,0.0,0.25,4.886474109,4.41043958977222,0.010986327000000351,59820.0,0.0,0.0,0.0,0.0,0.0,2.7929684640000003,4.389674732977291,0.0,-50509.0,0.125,0.0,0.0,0.0,0.25,4.700927253000001,3.031687206278561,0.0,0.14000000059604645,-0.7799999713897705,107.8499984741211,-0.02178955078125,0.00830078125,1.02117919921875,36.31999969482422,0.0,7.0,-3.8501129150390625,-1.4946136474609375,Closing,0.0,0.0,-189.0,0.0,0.0,0.0,0.0,0.125,
10.579907000000006,0.0,0.0,67161.0,0.125,0.0,277.79527455568314,0.0,1.75,3.814696875,2.4661254999999977,0.0,-74886.0,0.25,0.0,277.79527455568314,0.0,3.125,0.058593744,4.963769999999998,0.0,59820.0,0.125,0.0,-277.79527455568314,0.0,2.125,2.9089352490000002,0.01,0.0,-50509.0,0.375,0.0,-277.79527455568314,0.0,2.75,4.544677269,2.4790000000000023,0.0,0.14000000059604645,-0.7699999809265137,107.80999755859375,-0.00482177734375,0.00421142578125,1.0643310546875,36.33000183105469,0.0,-1.0,-3.850189208984375,-1.4946136474609375,Closing,0.0,0.0,-189.0,0.0,0.0,0.0,0.0,0.0,
10.65327999999997,0.0,0.0,67161.0,0.375,7.5,337.32282400131226,0.0,1.25,3.5791011960000003,2.4661254999999977,-0.07202147699999983,-74886.0,0.75,15.0,337.32282400131226,0.0,0.75,0.36254879100000004,4.963769999999998,0.0,59820.0,0.375,-37.5,-337.32282400131226,0.0,0.875,3.195800454,0.01,0.0,-50509.0,0.375,-7.5,-337.32282400131226,0.0,1.375,4.254149955,2.4790000000000023,0.0,0.11999999731779099,-0.7799999713897705,107.55999755859375,-0.03558349609375,0.04669189453125,0.99017333984375,36.33000183105469,0.0,49.0,-3.8504486083984375,-1.4946136474609375,Closing,0.0,0.0,-189.0,0.0,0.0,0.0,0.0,0.0,
10.714138999999966,0.0,0.0,67179.0,0.75,120.0,357.16537177562714,0.0,0.625,3.299560209,2.4661254999999977,0.0,-74877.0,1.5,82.5,357.16537177562714,0.0,0.5,0.605468688,4.963769999999998,0.0,59803.0,0.625,-97.5,-357.16537177562714,0.0,0.375,3.4228512120000003,0.01,0.0,-50514.0,0.625,-52.5,-357.16537177562714,0.0,0.5,4.04052693,2.4790000000000023,0.0,0.17000000178813934,-1.0,106.66000366210938,-0.08984375,0.02825927734375,0.99298095703125,36.33000183105469,0.0,44.0,-3.84979248046875,-1.4934844970703125,Closing,0.0,0.0,-189.0,0.0,0.0,0.0,0.0,0.0,
10.788906000000017,0.0,0.0,67179.0,1.125,37.5,357.16537177562714,0.0,0.25,3.229980138,2.4661254999999977,0.0,-74856.0,1.25,127.5,357.16537177562714,0.0,0.25,0.5944823610000001,4.963769999999998,0.0,59803.0,1.25,0.0,-357.16537177562714,0.0,0.25,3.437499648,0.01,0.0,-50536.0,0.75,-135.0,-357.16537177562714,0.0,0.25,4.036864821,2.4790000000000023,0.0,0.10999999940395355,-1.1399999856948853,106.41000366210938,-0.00616455078125,-0.06298828125,0.96051025390625,36.33000183105469,0.0,-65.0,-3.8498687744140625,-1.490753173828125,Closing,0.0,0.0,-189.0,0.0,0.0,0.0,0.0,0.0,
10.886696999999986,0.0,0.0,67191.0,1.375,127.5,357.16537177562714,0.0,0.25,3.227538732,2.4661254999999977,0.0,-74856.0,2.25,112.5,357.16537177562714,0.0,0.25,0.5407714290000001,4.963769999999998,0.0,59803.0,1.25,-90.0,-357.16537177562714,0.0,0.125,3.4277340240000003,0.01,0.0,-50536.0,1.0,-97.5,-357.16537177562714,0.0,0.25,4.061278881,2.4790000000000023,0.0,0.17000000178813934,-1.2300000190734863,106.66000366210938,-0.03582763671875,0.02313232421875,1.0830078125,36.33000183105469,0.0,22.0,-3.8502044677734375,-1.490753173828125,Closing,0.0,0.0,-189.0,0.0,0.0,0.0,0.0,0.0,
10.959178000000014,0.0,0.0,67212.0,1.625,127.5,357.16537177562714,0.0,0.25,3.23486295,2.4661254999999977,0.0,-74832.0,3.25,150.0,357.16537177562714,0.0,0.25,0.513915963,4.963769999999998,0.0,59780.0,1.75,-112.5,-357.16537177562714,0.0,0.125,3.404540667,0.01,0.0,-50554.0,1.625,-127.5,-357.16537177562714,0.0,0.25,4.074706614,2.4790000000000023,0.0,0.12999999523162842,-0.9700000286102295,106.58999633789062,0.113525390625,-0.06689453125,1.03997802734375,36.33000183105469,0.0,-45.0,-3.8497467041015625,-1.4920806884765625,Closing,0.0,0.0,-189.0,0.0,0.0,0.0,0.0,0.0,
11.039945999999997,0.0,0.0,67212.0,0.625,97.5,0.0,0.0,0.25,3.2202145140000002,2.4661254999999977,0.0012207029999999897,-74829.0,1.0,52.5,0.0,0.0,0.0,0.5175780720000001,4.963769999999998,-0.024414059999999793,59769.0,0.5,-97.5,0.0,0.0,0.125,3.389892231,0.01,-0.021972654000000258,-50563.0,0.5,-75.0,0.0,0.0,0.25,4.06494099,2.4790000000000023,0.014648435999999876,0.20000000298023224,-0.46000000834465027,106.7699966430664,0.145751953125,0.11651611328125,1.05364990234375,36.33000183105469,0.0,63.0,-3.8507080078125,-1.49652099609375,Closing,0.0,0.0,-189.0,0.0,0.0,0.0,0.0,0.0,
11.107055999999982,0.0,0.0,67212.0,0.0,-52.5,0.0,0.0,0.25,3.232421544,2.4661254999999977,0.0,-74829.0,0.125,-60.0,0.0,0.0,0.125,0.5175780720000001,4.963769999999998,0.004882811999999959,59769.0,0.0,67.5,0.0,0.0,0.125,3.385009419,0.01,0.0,-50563.0,0.125,45.0,0.0,0.0,0.25,4.066161693000001,2.4790000000000023,-0.009765623999999917,0.1899999976158142,-0.5,106.56999969482422,-0.06951904296875,-0.05523681640625,1.0411376953125,36.380001068115234,0.0,-39.0,-3.8507080078125,-1.5045166015625,Closing,0.0,0.0,-189.0,0.0,0.0,0.0,0.0,0.0,
11.186137999999977,0.0,0.0,67203.0,0.0,-82.5,0.0,0.0,0.25,3.236083653,2.4661254999999977,0.0012207029999999897,-74837.0,0.0,-52.5,0.0,0.0,0.125,0.523681587,4.963769999999998,0.0,59782.0,0.0,75.0,0.0,0.0,0.125,3.385009419,0.01,-0.003662108999999969,-50553.0,0.125,52.5,0.0,0.0,0.25,4.06494099,2.4790000000000023,0.0,0.11999999731779099,-0.7699999809265137,106.63999938964844,-0.05303955078125,0.0498046875,1.05908203125,36.380001068115234,0.0,56.0,-3.8510589599609375,-1.5103607177734375,Closing,0.0,0.0,-189.0,0.0,0.0,0.0,0.0,0.0,
11.253323999999964,0.0,0.0,67203.0,0.0,-22.5,0.0,0.0,0.25,3.239745762,2.4661254999999977,0.007324217999999938,-74837.0,0.125,-22.5,0.0,0.0,0.125,0.523681587,4.963769999999998,0.004882811999999959,59782.0,0.0,15.0,0.0,0.0,0.125,3.386230122,0.01,0.0,-50550.0,0.125,22.5,0.0,0.0,0.25,4.066161693000001,2.4790000000000023,0.0,0.20000000298023224,-0.8399999737739563,106.66999816894531,-0.02606201171875,-0.02703857421875,1.02813720703125,36.380001068115234,0.0,-26.0,-3.85040283203125,-1.513153076171875,Closing,0.0,0.0,-189.0,0.0,0.0,0.0,0.0,0.0,
11.31504800000001,0.0,0.0,67203.0,0.0,0.0,0.0,0.0,0.25,3.240966465,2.4661254999999977,0.0,-74839.0,0.0,0.0,0.0,0.0,0.125,0.521240181,4.963769999999998,0.0,59782.0,0.0,0.0,0.0,0.0,0.125,3.385009419,0.01,0.0,-50550.0,0.125,0.0,0.0,0.0,0.25,4.06494099,2.4790000000000023,0.0,0.10000000149011612,-0.8199999928474426,106.5999984741211,-0.00103759765625,0.00335693359375,1.01605224609375,36.380001068115234,0.0,-2.0,-3.85009765625,-1.513153076171875,Closing,0.0,0.0,-189.0,0.0,0.0,0.0,0.0,0.0,
