Time,ClimberA1,ClimberA2,FRpos,FRCurrent,FRspeed,FRsetpoint,FRApos,FRACurrent,FREncpos,FREncSetpoint,FREncSpeed,FLpos,FLCurrent,FLspeed,FLsetpoint,FLApos,FLACurrent,FLEncpos,FLEncSetpoint,FLEncSpeed,BRpos,BRCurrent,BRspeed,BRsetpoint,BRApos,BRACurrent,BREncpos,BREncSetpoint,BREncSpeed,BLpos,BLCurrent,BLspeed,BLsetpoint,BLApos,BLACurrent,BLEncpos,BLEncSetpoint,BLEncSpeed,navx_Pitch,navx_Roll,navx_Yaw,navx_XAcc,navx_YAcc,navx_ZAcc,navx_Temp,navx_Bar,navx_Alt,navx_XDis,navx_YDis,GearPlacerState,ShootOutputV,ShootOutputCurrent,ShootEncPos,ShootEncVelocity,ShootSpeed,ShootSetpoint,CarouselSetpoint,CarouselCurrent,
0.29423700000000097,0.0,0.0,111528.0,0.0,0.0,0.0,0.0,0.25,0.812988198,0.01,0.0,-116935.0,0.125,0.0,0.0,0.0,0.125,0.5029296360000001,0.01,0.0,99851.0,0.0,0.0,0.0,0.0,0.0,3.347167626,0.01,0.0,-97125.0,0.125,0.0,0.0,0.0,0.125,1.6113279600000001,0.01,0.0,-0.07000000029802322,-0.25,-23.040000915527344,-0.002685546875,-6.7138671875E-4,1.02490234375,35.869998931884766,0.0,1.0,-6.4412078857421875,-1.723876953125,Waiting,0.0,0.0,-189.0,0.0,0.0,0.0,0.0,0.0,
0.42329699999999865,0.0,0.0,111528.0,0.0,0.0,0.0,0.0,0.125,0.812988198,0.01,0.0,-116935.0,0.125,0.0,-0.0,0.0,0.125,0.5029296360000001,0.01,0.0,99851.0,0.0,0.0,0.0,0.0,0.0,3.347167626,0.01,0.0,-97125.0,0.125,0.0,-0.0,0.0,0.125,1.612548663,0.01,0.0,-0.07000000029802322,-0.25,-23.040000915527344,-0.0078125,-0.00347900390625,1.02081298828125,35.869998931884766,0.0,-2.0,-6.4412078857421875,-1.723876953125,Closing,0.0,0.0,-189.0,0.0,0.0,0.0,0.0,0.0,
0.5803759999999966,0.0,0.0,111528.0,0.0,0.0,0.0,0.0,0.125,0.812988198,0.01,0.0,-116935.0,0.125,0.0,-0.0,0.0,0.125,0.5029296360000001,0.01,0.0,99851.0,0.0,0.0,0.0,0.0,0.0,3.34472622,0.01,0.0,-97125.0,0.125,0.0,-0.0,0.0,0.125,1.612548663,0.01,0.0,-0.07000000029802322,-0.25,-23.040000915527344,-0.002685546875,-6.7138671875E-4,1.01953125,35.88999938964844,0.0,1.0,-6.4412078857421875,-1.723876953125,Closing,0.0,0.0,-189.0,0.0,0.0,0.0,0.0,0.0,
0.6491549999999988,0.0,0.0,111528.0,0.0,0.0,0.0,0.0,0.125,0.812988198,0.01,0.0,-116935.0,0.125,0.0,-0.0,0.0,0.125,0.5029296360000001,0.01,0.0012207029999995456,99851.0,0.0,0.0,0.0,0.0,0.0,3.345946923,0.01,0.0,-97125.0,0.125,0.0,-0.0,0.0,0.125,1.6113279600000001,0.01,0.0,-0.07000000029802322,-0.25,-23.040000915527344,-0.00537109375,3.0517578125E-4,1.0224609375,35.88999938964844,0.0,-1.0,-6.4412078857421875,-1.723876953125,Closing,0.0,0.0,-189.0,0.0,0.0,0.0,0.0,0.0,
0.7119539999999979,0.0,0.0,111528.0,0.0,0.0,0.0,0.0,0.25,0.812988198,0.01,0.0,-116935.0,0.125,0.0,-0.0,0.0,0.125,0.5029296360000001,0.01,0.0,99851.0,0.0,0.0,0.0,0.0,0.0,3.345946923,0.01,0.0,-97125.0,0.125,0.0,-0.0,0.0,0.125,1.6113279600000001,0.01,0.0,-0.07000000029802322,-0.25,-23.040000915527344,-0.0068359375,-0.0028076171875,1.0186767578125,35.88999938964844,0.0,-1.0,-6.4412078857421875,-1.723876953125,Closing,0.0,0.0,-189.0,0.0,0.0,0.0,0.0,0.0,
0.7817580000000016,0.0,0.0,111528.0,0.0,0.0,0.0,0.0,0.125,0.811767495,0.01,0.0,-116935.0,0.125,0.0,-0.0,0.0,0.125,0.5029296360000001,0.01,0.0,99851.0,0.0,0.0,0.0,0.0,0.0,3.347167626,0.01,0.0,-97125.0,0.125,0.0,-0.0,0.0,0.125,1.6113279600000001,0.01,0.0,-0.07000000029802322,-0.25,-23.040000915527344,-0.00506591796875,-0.001220703125,1.01910400390625,35.88999938964844,0.0,0.0,-6.4412078857421875,-1.723876953125,Closing,0.0,0.0,-189.0,0.0,0.0,0.0,0.0,0.0,
0.8602209999999977,0.0,0.0,111528.0,0.0,0.0,0.0,0.0,0.25,0.812988198,0.01,0.0,-116935.0,0.125,0.0,-0.0,0.0,0.125,0.498046824,0.01,0.0,99851.0,0.0,0.0,0.0,0.0,0.0,3.34472622,0.01,0.0,-97125.0,0.125,0.0,-0.0,0.0,0.125,1.6113279600000001,0.01,0.0,-0.07000000029802322,-0.25,-23.040000915527344,-0.00518798828125,-0.0045166015625,1.023193359375,35.88999938964844,0.0,0.0,-6.4412078857421875,-1.723876953125,Closing,0.0,0.0,-189.0,0.0,0.0,0.0,0.0,0.0,
0.9800139999999956,0.0,0.0,111528.0,0.0,0.0,0.0,0.0,0.25,0.812988198,0.01,0.0,-116935.0,0.0,0.0,-0.0,0.0,0.125,0.498046824,0.01,0.0,99851.0,0.0,0.0,0.0,0.0,0.0,3.345946923,0.01,0.0,-97125.0,0.125,0.0,-0.0,0.0,0.125,1.612548663,0.01,0.0,-0.07000000029802322,-0.25,-23.040000915527344,-0.00384521484375,-0.00103759765625,1.015380859375,35.88999938964844,0.0,0.0,-6.4412078857421875,-1.723876953125,Closing,0.0,0.0,-189.0,0.0,0.0,0.0,0.0,0.0,
1.0484809999999998,0.0,0.0,111528.0,0.0,0.0,0.0,0.0,0.25,0.812988198,0.01,0.0012207030000004337,-116935.0,0.125,0.0,-0.0,0.0,0.125,0.5029296360000001,0.01,-0.0012207029999995456,99851.0,0.0,0.0,0.0,0.0,0.0,3.345946923,0.01,0.0,-97125.0,0.125,0.0,-0.0,0.0,0.125,1.612548663,0.01,0.0,-0.07999999821186066,-0.25,-23.040000915527344,-0.00360107421875,-9.1552734375E-4,1.02081298828125,35.91999816894531,0.0,0.0,-6.4412078857421875,-1.723876953125,Closing,0.0,0.0,-189.0,0.0,0.0,0.0,0.0,0.0,
1.1138810000000012,0.0,0.0,111528.0,0.0,0.0,0.0,0.0,0.125,0.812988198,0.01,0.0,-116935.0,0.125,0.0,-0.0,0.0,0.125,0.496826121,0.01,0.0,99851.0,0.0,0.0,0.0,0.0,0.0,3.345946923,0.01,0.0,-97125.0,0.125,0.0,-0.0,0.0,0.125,1.6113279600000001,0.01,0.0,-0.07000000029802322,-0.25999999046325684,-23.049999237060547,-0.00213623046875,-0.00408935546875,1.01885986328125,35.91999816894531,0.0,3.0,-6.4412078857421875,-1.723876953125,Closing,0.0,0.0,-189.0,0.0,0.0,0.0,0.0,0.0,
1.1816440000000001,0.0,0.0,111528.0,0.0,0.0,0.0,0.0,0.125,0.811767495,0.01,0.0,-116935.0,0.125,0.0,-0.0,0.0,0.125,0.498046824,0.01,0.0,99851.0,0.0,0.0,0.0,0.0,0.0,3.345946923,0.01,0.0,-97125.0,0.125,0.0,-0.0,0.0,0.125,1.6113279600000001,0.01,0.0,-0.07000000029802322,-0.25999999046325684,-23.049999237060547,-0.0028076171875,-0.0035400390625,1.02911376953125,35.91999816894531,0.0,2.0,-6.4412078857421875,-1.723876953125,Closing,0.0,0.0,-189.0,0.0,0.0,0.0,0.0,0.0,
1.233423999999999,0.0,0.0,111528.0,0.0,0.0,0.0,0.0,0.25,0.808105386,0.01,0.0,-116935.0,0.125,0.0,-0.0,0.0,0.125,0.5029296360000001,0.01,0.0,99851.0,0.0,0.0,0.0,0.0,0.0,3.345946923,0.01,0.0,-97125.0,0.125,0.0,-0.0,0.0,0.125,1.6113279600000001,0.01,0.0,-0.07000000029802322,-0.25999999046325684,-23.049999237060547,-0.00299072265625,-6.103515625E-4,1.01763916015625,35.91999816894531,0.0,1.0,-6.4412078857421875,-1.723876953125,Closing,0.0,0.0,-189.0,0.0,0.0,0.0,0.0,0.0,
1.3014769999999989,0.0,0.0,111528.0,0.0,0.0,0.0,0.0,0.125,0.812988198,0.01,0.0,-116935.0,0.125,0.0,-0.0,0.0,0.125,0.5017089330000001,0.01,0.0012207029999995456,99851.0,0.0,0.0,0.0,0.0,0.0,3.345946923,0.01,0.0,-97125.0,0.125,0.0,-0.0,0.0,0.125,1.612548663,0.01,0.0,-0.07000000029802322,-0.25,-23.049999237060547,-0.00244140625,3.0517578125E-4,1.02044677734375,35.91999816894531,0.0,1.0,-6.4412078857421875,-1.723876953125,Closing,0.0,0.0,-189.0,0.0,0.0,0.0,0.0,0.125,
1.3789779999999956,0.0,0.0,111528.0,0.0,0.0,0.0,0.0,0.125,0.812988198,0.01,0.0,-116935.0,0.0,0.0,-0.0,0.0,0.125,0.5017089330000001,0.01,0.0,99851.0,0.0,0.0,0.0,0.0,0.0,3.345946923,0.01,0.0,-97125.0,0.125,0.0,-0.0,0.0,0.125,1.612548663,0.01,0.0,-0.07999999821186066,-0.25,-23.049999237060547,-0.00469970703125,-0.0010986328125,1.0235595703125,35.91999816894531,0.0,0.0,-6.4412078857421875,-1.723876953125,Closing,0.0,0.0,-189.0,0.0,0.0,0.0,0.0,0.0,
1.4459499999999972,0.0,0.0,111528.0,0.0,0.0,0.0,0.0,0.125,0.812988198,0.01,0.0,-116935.0,0.125,0.0,-0.0,0.0,0.125,0.5017089330000001,0.01,0.0,99851.0,0.0,0.0,0.0,0.0,0.0,3.345946923,0.01,0.0,-97125.0,0.125,0.0,-0.0,0.0,0.125,1.6113279600000001,0.01,0.0,-0.07000000029802322,-0.25999999046325684,-23.049999237060547,-0.0047607421875,-0.00457763671875,1.02294921875,35.91999816894531,0.0,1.0,-6.4412078857421875,-1.723876953125,Closing,0.0,0.0,-189.0,0.0,0.0,0.0,0.0,0.0,
1.5020590000000011,0.0,0.0,111528.0,0.0,0.0,0.0,0.0,0.25,0.812988198,0.01,0.0,-116935.0,0.125,0.0,-0.0,0.0,0.125,0.5029296360000001,0.01,0.0,99851.0,0.0,0.0,0.0,0.0,0.0,3.347167626,0.01,0.0,-97125.0,0.125,0.0,-0.0,0.0,0.125,1.6113279600000001,0.01,0.0,-0.07000000029802322,-0.25,-23.049999237060547,-0.00384521484375,6.7138671875E-4,1.019287109375,35.91999816894531,0.0,0.0,-6.4412078857421875,-1.723876953125,Closing,0.0,0.0,-189.0,0.0,0.0,0.0,0.0,0.0,
1.5819170000000013,0.0,0.0,111528.0,0.0,0.0,0.0,0.0,0.125,0.811767495,0.01,0.0,-116935.0,0.125,0.0,-0.0,0.0,0.125,0.5017089330000001,0.01,0.0,99851.0,0.0,0.0,0.0,0.0,0.0,3.345946923,0.01,0.0,-97125.0,0.125,0.0,-0.0,0.0,0.125,1.612548663,0.01,0.0,-0.07000000029802322,-0.25,-23.049999237060547,-0.00482177734375,-0.00213623046875,1.0206298828125,35.86000061035156,0.0,0.0,-6.4412078857421875,-1.723876953125,Closing,0.0,0.0,-189.0,0.0,0.0,0.0,0.0,0.0,
1.6474530000000014,0.0,0.0,111528.0,0.0,0.0,0.0,0.0,0.25,0.812988198,0.01,0.0,-116935.0,0.125,0.0,-0.0,0.0,0.125,0.5029296360000001,0.01,-0.0012207029999995456,99851.0,0.0,0.0,0.0,0.0,0.0,3.347167626,0.01,0.0,-97125.0,0.125,0.0,-0.0,0.0,0.125,1.612548663,0.01,0.0,-0.07000000029802322,-0.25,-23.049999237060547,-0.0029296875,6.103515625E-4,1.0211181640625,35.86000061035156,0.0,0.0,-6.4412078857421875,-1.723876953125,Closing,0.0,0.0,-189.0,0.0,0.0,0.0,0.0,0.0,
1.707064999999995,0.0,0.0,111528.0,0.0,0.0,0.0,0.0,0.25,0.812988198,0.01,0.0,-116935.0,0.125,0.0,-0.0,0.0,0.125,0.5029296360000001,0.01,0.0012207029999995456,99851.0,0.0,0.0,0.0,0.0,0.0,3.347167626,0.01,0.0,-97125.0,0.125,0.0,-0.0,0.0,0.125,1.612548663,0.01,0.0,-0.07000000029802322,-0.25,-23.049999237060547,-0.006103515625,-9.765625E-4,1.02484130859375,35.86000061035156,0.0,-1.0,-6.4412078857421875,-1.723876953125,Closing,0.0,0.0,-189.0,0.0,0.0,0.0,0.0,0.0,
1.780375,0.0,0.0,111528.0,0.0,0.0,0.0,0.0,0.25,0.812988198,0.01,0.0,-116935.0,0.125,0.0,-0.0,0.0,0.125,0.5029296360000001,0.01,-0.0024414059999999793,99851.0,0.0,0.0,0.0,0.0,0.0,3.345946923,0.01,0.0,-97125.0,0.125,0.0,-0.0,0.0,0.125,1.612548663,0.01,0.0,-0.07000000029802322,-0.25,-23.049999237060547,-0.0048828125,0.0029296875,1.0267333984375,35.86000061035156,0.0,-1.0,-6.4412078857421875,-1.723876953125,Closing,0.0,0.0,-189.0,0.0,0.0,0.0,0.0,0.0,
1.8467220000000015,0.0,0.0,111528.0,0.0,0.0,0.0,0.0,0.125,0.808105386,0.01,0.0,-116935.0,0.125,0.0,-0.0,0.0,0.125,0.5017089330000001,0.01,0.0024414059999999793,99851.0,0.0,0.0,0.0,0.0,0.0,3.347167626,0.01,0.0,-97125.0,0.125,0.0,-0.0,0.0,0.125,1.612548663,0.01,0.0,-0.07000000029802322,-0.25999999046325684,-23.049999237060547,-0.00408935546875,-0.0010986328125,1.0208740234375,35.86000061035156,0.0,0.0,-6.4412078857421875,-1.723876953125,Closing,0.0,0.0,-189.0,0.0,0.0,0.0,0.0,0.0,
1.9132229999999981,0.0,0.0,111528.0,0.0,0.0,0.0,0.0,0.25,0.812988198,0.01,0.0,-116935.0,0.125,0.0,-0.0,0.0,0.125,0.5029296360000001,0.01,-0.0012207029999995456,99851.0,0.0,0.0,0.0,0.0,0.0,3.345946923,0.01,0.0,-97125.0,0.125,0.0,-0.0,0.0,0.125,1.6113279600000001,0.01,0.0,-0.07000000029802322,-0.25999999046325684,-23.049999237060547,-0.006103515625,-0.00103759765625,1.02191162109375,35.86000061035156,0.0,3.0,-6.4412078857421875,-1.723876953125,Closing,0.0,0.0,-189.0,0.0,0.0,0.0,0.0,0.0,
1.981775999999998,0.0,0.0,111528.0,0.0,0.0,0.0,0.0,0.25,0.811767495,0.01,-0.0012207030000004337,-116935.0,0.125,0.0,-0.0,0.0,0.125,0.5029296360000001,0.01,0.0012207029999995456,99851.0,0.0,0.0,0.0,0.0,0.0,3.345946923,0.01,0.0,-97125.0,0.125,0.0,-0.0,0.0,0.125,1.6113279600000001,0.01,0.0,-0.07000000029802322,-0.25999999046325684,-23.049999237060547,-0.0025634765625,0.0015869140625,1.0208740234375,35.86000061035156,0.0,0.0,-6.4412078857421875,-1.723876953125,Closing,0.0,0.0,-189.0,0.0,0.0,0.0,0.0,0.0,
2.048339,0.0,0.0,111528.0,0.0,0.0,0.0,0.0,0.25,0.812988198,0.01,0.0012207030000004337,-116935.0,0.125,0.0,-0.0,0.0,0.125,0.5029296360000001,0.01,0.0,99851.0,0.0,0.0,0.0,0.0,0.0,3.345946923,0.01,0.0,-97125.0,0.125,0.0,-0.0,0.0,0.125,1.612548663,0.01,0.0,-0.07000000029802322,-0.25999999046325684,-23.049999237060547,-0.00189208984375,-0.0029296875,1.0211181640625,35.86000061035156,0.0,3.0,-6.4412078857421875,-1.723876953125,Closing,0.0,0.0,-189.0,0.0,0.0,0.0,0.0,0.0,
2.1824360000000014,0.0,0.0,111528.0,0.0,0.0,0.0,0.0,0.25,0.812988198,0.01,0.0,-116935.0,0.125,0.0,-0.0,0.0,0.125,0.5029296360000001,0.01,0.0,99851.0,0.0,0.0,0.0,0.0,0.0,3.34472622,0.01,0.0,-97125.0,0.125,0.0,-0.0,0.0,0.125,1.612548663,0.01,0.0,-0.07000000029802322,-0.25999999046325684,-23.049999237060547,-0.005859375,-0.00164794921875,1.02484130859375,35.90999984741211,0.0,0.0,-6.4412078857421875,-1.723876953125,Closing,0.0,0.0,-189.0,0.0,0.0,0.0,0.0,0.0,
2.2445190000000004,0.0,0.0,111528.0,0.0,0.0,0.0,0.0,0.25,0.812988198,0.01,0.0,-116935.0,0.125,0.0,-0.0,0.0,0.125,0.496826121,0.01,-0.0012207029999995456,99851.0,0.0,0.0,0.0,0.0,0.0,3.345946923,0.01,0.0,-97125.0,0.125,0.0,-0.0,0.0,0.125,1.6113279600000001,0.01,0.0,-0.07000000029802322,-0.25999999046325684,-23.049999237060547,-0.0054931640625,3.662109375E-4,1.01800537109375,35.90999984741211,0.0,-1.0,-6.4412078857421875,-1.723876953125,Closing,0.0,0.0,-189.0,0.0,0.0,0.0,0.0,0.0,
2.3125440000000017,0.0,0.0,111528.0,0.0,0.0,0.0,0.0,0.25,0.812988198,0.01,0.0,-116935.0,0.125,0.0,-0.0,0.0,0.125,0.5029296360000001,0.01,0.0012207029999995456,99851.0,0.0,0.0,0.0,0.0,0.0,3.347167626,0.01,0.0,-97125.0,0.125,0.0,-0.0,0.0,0.125,1.612548663,0.01,0.0,-0.05999999865889549,-0.27000001072883606,-23.049999237060547,-0.0015869140625,-0.001708984375,1.01898193359375,35.90999984741211,0.0,3.0,-6.4412078857421875,-1.723876953125,Closing,0.0,0.0,-189.0,0.0,0.0,0.0,0.0,0.0,
2.3833739999999963,0.0,0.0,111528.0,2.0,-30.0,-992.1259617805481,0.0,0.125,0.822753822,4.932250999999998,0.0,-116923.0,4.875,30.0,992.1259617805481,0.0,0.125,0.5029296360000001,4.963769999999998,0.0,99835.0,2.625,-30.0,-992.1259617805481,0.0,0.0,3.3618160620000004,0.01,0.0,-97114.0,2.25,15.0,992.1259617805481,0.0,0.125,1.612548663,0.01,0.0,0.0,-0.3799999952316284,-23.06999969482422,-0.30419921875,0.07305908203125,1.07891845703125,35.90999984741211,0.0,-301.0,-6.441314697265625,-1.723907470703125,Closing,0.0,0.0,-189.0,0.0,0.0,0.0,0.0,0.0,
2.4462769999999945,0.0,0.0,111502.0,5.0,-180.0,-1091.3385879993439,0.0,0.125,0.821533119,4.932250999999998,0.0,-116923.0,11.875,135.0,1091.3385879993439,0.0,0.0,0.5029296360000001,4.963769999999998,0.0,99835.0,5.25,-232.5,-1091.3385879993439,0.0,0.0,3.355712547,0.01,0.0,-97114.0,5.125,112.5,1091.3385879993439,0.0,0.25,1.6076658510000001,0.01,0.0,-0.10999999940395355,-1.1299999952316284,-23.110000610351562,-0.22662353515625,-0.0736083984375,1.302734375,35.90999984741211,0.0,-156.0,-6.44451904296875,-1.7256927490234375,Closing,0.0,0.0,-189.0,0.0,0.0,0.0,0.0,0.0,
2.5111690000000015,0.0,0.0,111502.0,6.25,-240.0,-1091.3385879993439,0.0,0.125,0.821533119,4.932250999999998,0.0,-116879.0,13.5,240.0,1091.3385879993439,0.0,0.0,0.5029296360000001,4.963769999999998,0.0,99787.0,5.75,-300.0,-1091.3385879993439,0.0,0.0,3.355712547,0.01,0.0,-97077.0,6.875,217.5,1091.3385879993439,0.0,0.25,1.6076658510000001,0.01,0.0,-0.14000000059604645,-1.690000057220459,-23.100000381469727,-0.16845703125,-0.031982421875,0.93182373046875,35.90999984741211,0.0,-117.0,-6.4515533447265625,-1.728790283203125,Closing,0.0,0.0,-189.0,0.0,0.0,0.0,0.0,0.0,
2.568597999999998,0.0,0.0,111441.0,6.875,-397.5,-1091.3385879993439,0.0,0.25,0.8142089010000001,4.932250999999998,0.0,-116879.0,14.5,427.5,1091.3385879993439,0.0,0.0,0.5029296360000001,4.963769999999998,0.0,99787.0,7.25,-322.5,-1091.3385879993439,0.0,0.0,3.35693325,0.01,0.0,-97077.0,6.875,435.0,1091.3385879993439,0.0,0.25,1.6076658510000001,0.01,0.0,-0.17000000178813934,-2.3299999237060547,-23.1299991607666,-0.25164794921875,-0.1038818359375,1.050048828125,35.900001525878906,0.0,-152.0,-6.4662933349609375,-1.734527587890625,Closing,0.0,0.0,-189.0,0.0,0.0,0.0,0.0,0.0,
2.6478470000000014,0.0,0.0,111441.0,6.375,-637.5,-1091.3385879993439,0.0,0.25,0.822753822,4.932250999999998,0.0,-116772.0,12.125,637.5,1091.3385879993439,0.0,0.0,0.496826121,4.963769999999998,0.0,99700.0,7.25,-525.0,-1091.3385879993439,0.0,0.0,3.355712547,0.01,0.0,-96982.0,6.625,615.0,1091.3385879993439,0.0,0.25,1.6064451480000002,0.01,0.0,-0.25999999046325684,-2.759999990463257,-23.110000610351562,-0.19036865234375,-0.00323486328125,1.16864013671875,35.900001525878906,0.0,-123.0,-6.481689453125,-1.741180419921875,Closing,0.0,0.0,-189.0,0.0,0.0,0.0,0.0,0.0,
2.7091889999999985,0.0,0.0,111325.0,5.875,-757.5,-1091.3385879993439,0.0,0.125,0.822753822,4.932250999999998,0.0,-116772.0,10.0,802.5,1091.3385879993439,0.0,0.125,0.498046824,4.963769999999998,0.0,99700.0,7.0,-630.0,-1091.3385879993439,0.0,0.0,3.355712547,0.01,0.0,-96982.0,6.25,772.5,1091.3385879993439,0.0,0.25,1.6076658510000001,0.01,0.0,-0.3100000023841858,-3.140000104904175,-23.100000381469727,-0.21075439453125,-0.096923828125,1.16461181640625,35.900001525878906,0.0,-99.0,-6.499420166015625,-1.748992919921875,Closing,0.0,0.0,-189.0,0.0,0.0,0.0,0.0,0.0,
2.7778629999999978,0.0,0.0,111169.0,4.625,-930.0,-1091.3385879993439,0.0,0.25,0.820312416,4.932250999999998,0.0,-116619.0,7.25,982.5,1091.3385879993439,0.0,0.125,0.49316401200000004,4.963769999999998,0.0,99588.0,7.375,-712.5,-1091.3385879993439,0.0,0.0,3.354491844,0.01,0.0,-96843.0,5.25,907.5,1091.3385879993439,0.0,0.25,1.6113279600000001,0.01,0.0,-0.36000001430511475,-3.4200000762939453,-23.06999969482422,-0.1195068359375,0.015380859375,1.07501220703125,35.900001525878906,0.0,-59.0,-6.5297698974609375,-1.76275634765625,Closing,0.0,0.0,-189.0,0.0,0.0,0.0,0.0,0.0,
2.846790000000001,0.0,0.0,111169.0,3.625,-1027.5,-1091.3385879993439,0.0,0.25,0.822753822,4.932250999999998,0.0,-116619.0,5.125,1095.0,1091.3385879993439,0.0,0.125,0.49316401200000004,4.963769999999998,0.0,99588.0,7.5,-787.5,-1091.3385879993439,0.0,0.0,3.355712547,0.01,0.0,-96843.0,4.25,1020.0,1091.3385879993439,0.0,0.125,1.622314287,0.01,0.0,-0.3700000047683716,-3.690000057220459,-23.049999237060547,-0.0128173828125,-0.04931640625,1.2449951171875,35.900001525878906,0.0,78.0,-6.551605224609375,-1.772308349609375,Closing,0.0,0.0,-189.0,0.0,0.0,0.0,0.0,0.0,
2.902975999999995,0.0,0.0,110986.0,2.875,-1125.0,-1091.3385879993439,0.0,0.25,0.821533119,4.932250999999998,0.0,-116435.0,3.875,1162.5,1091.3385879993439,0.0,0.125,0.49438471500000003,4.963769999999998,0.0,99452.0,7.25,-885.0,-1091.3385879993439,0.0,0.0,3.35693325,0.01,0.0,-96670.0,3.5,1102.5,1091.3385879993439,0.0,0.125,1.646728347,0.01,0.0,-0.38999998569488525,-3.7699999809265137,-23.0,-0.0736083984375,-0.03271484375,1.0103759765625,35.900001525878906,0.0,3.0,-6.5737762451171875,-1.782196044921875,Closing,0.0,0.0,-189.0,0.0,0.0,0.0,0.0,0.0,
2.9755380000000007,0.0,0.0,110986.0,1.875,-1177.5,-1091.3385879993439,0.0,0.25,0.8166503070000001,4.932250999999998,0.0,-116435.0,2.875,1185.0,1091.3385879993439,0.0,0.125,0.496826121,4.963769999999998,0.0,99279.0,6.75,-990.0,-1091.3385879993439,0.0,0.0,3.35693325,0.01,0.0,-96480.0,2.75,1170.0,1091.3385879993439,0.0,0.25,1.650390456,0.01,0.0,-0.4000000059604645,-3.740000009536743,-23.0,0.06591796875,0.153076171875,0.99462890625,35.900001525878906,0.0,57.0,-6.60150146484375,-1.7952880859375,Closing,0.0,0.0,-189.0,0.0,0.0,0.0,0.0,0.0,
3.0482520000000006,0.0,0.0,110793.0,1.25,-1207.5,-1091.3385879993439,0.0,0.125,0.822753822,4.932250999999998,0.0,-116241.0,2.0,1237.5,1091.3385879993439,0.0,0.125,0.498046824,4.963769999999998,0.0,99279.0,5.75,-1147.5,-1091.3385879993439,0.0,0.0,3.355712547,0.01,0.0,-96480.0,1.625,1230.0,1091.3385879993439,0.0,0.25,1.650390456,0.01,0.0,-0.36000001430511475,-3.5899999141693115,-23.030000686645508,-0.05377197265625,0.06744384765625,1.05755615234375,35.900001525878906,0.0,-17.0,-6.6222991943359375,-1.8047027587890625,Closing,0.0,0.0,-189.0,0.0,0.0,0.0,0.0,0.0,
3.1110889999999998,0.0,0.0,110793.0,0.375,-1230.0,-892.9134106636047,0.0,0.125,0.821533119,4.932250999999998,0.0,-116048.0,1.25,1230.0,892.9134106636047,0.0,0.125,0.498046824,4.963769999999998,0.0,99078.0,3.375,-1237.5,-892.9134106636047,0.0,0.0,3.350829735,0.01,0.0,-96281.0,0.875,1237.5,892.9134106636047,0.0,0.25,1.6564939710000002,0.01,0.0,-0.3400000035762787,-3.5199999809265137,-23.1200008392334,-0.0093994140625,-0.00518798828125,1.18414306640625,35.83000183105469,0.0,57.0,-6.621856689453125,-1.8141326904296875,Closing,0.0,0.0,-189.0,0.0,0.0,0.0,0.0,0.0,
3.181098999999995,0.0,0.0,110601.0,0.125,-1177.5,-833.3858048915863,0.0,0.125,0.821533119,4.932250999999998,0.0,-116048.0,0.5,1102.5,833.3858048915863,0.0,0.125,0.4882812,4.963769999999998,0.0,99078.0,1.25,-1237.5,-833.3858048915863,0.0,0.0,3.355712547,0.01,0.0,-96281.0,0.5,1162.5,833.3858048915863,0.0,0.25,1.665038892,0.01,0.0,-0.2800000011920929,-3.140000104904175,-23.309999465942383,0.1170654296875,-0.01092529296875,1.30413818359375,35.83000183105469,0.0,174.0,-6.6184234619140625,-1.8260955810546875,Closing,0.0,0.0,-189.0,0.0,0.0,0.0,0.0,0.0,
3.244839,0.0,0.0,110601.0,0.125,-1057.5,-833.3858048915863,0.0,0.25,0.821533119,4.932250999999998,0.0,-115866.0,0.25,1140.0,833.3858048915863,0.0,0.125,0.498046824,4.963769999999998,0.0,98890.0,0.875,-1170.0,-833.3858048915863,0.0,0.0,3.355712547,0.01,0.0,-96098.0,0.5,1132.5,833.3858048915863,0.0,0.25,1.6613767830000001,0.01,0.0,-0.23000000417232513,-2.9800000190734863,-23.459999084472656,0.1468505859375,0.12200927734375,1.1436767578125,35.83000183105469,0.0,138.0,-6.6128692626953125,-1.8342437744140625,Closing,0.0,0.0,-189.0,0.0,0.0,0.0,0.0,0.0,
3.3106500000000016,0.0,0.0,110428.0,0.125,-1095.0,-833.3858048915863,0.0,0.125,0.812988198,4.932250999999998,0.0,-115866.0,0.125,1162.5,833.3858048915863,0.0,0.125,0.498046824,4.963769999999998,0.0,98890.0,0.875,-1132.5,-833.3858048915863,0.0,0.0,3.35693325,0.01,0.0,-96098.0,0.5,1177.5,833.3858048915863,0.0,0.25,1.6613767830000001,0.01,0.0,-0.20000000298023224,-2.569999933242798,-23.700000762939453,0.13177490234375,-0.0958251953125,1.25726318359375,35.83000183105469,0.0,208.0,-6.602264404296875,-1.8374481201171875,Closing,0.0,0.0,-189.0,0.0,0.0,0.0,0.0,0.0,
3.3782940000000017,0.0,0.0,110259.0,0.0,-1087.5,-635.7672891760976,0.0,0.5,0.770263593,4.720802135666026,0.0,-115689.0,0.25,1095.0,1028.259616348346,0.0,0.25,0.46630854600000005,4.833188396527594,0.0,98716.0,0.375,-1042.5,-635.7672891760976,0.0,0.25,3.4179684000000004,0.2117982173566528,0.0,-95917.0,0.375,1102.5,1028.259616348346,0.0,0.25,1.6821287340000002,0.13042981242406268,0.0,-0.20000000298023224,-2.190000057220459,-23.799999237060547,-0.0406494140625,0.0631103515625,1.23046875,35.83000183105469,0.0,-21.0,-6.58721923828125,-1.8370208740234375,Closing,0.0,0.0,-189.0,0.0,0.0,0.0,0.0,0.0,
3.4376179999999947,0.0,0.0,110259.0,0.0,-1012.5,-526.7940310604458,0.0,0.375,0.6481932930000001,4.173429219224675,0.0,-115689.0,1.375,1072.5,1396.8272243790148,0.0,0.25,0.40039058400000005,4.714448401557155,0.0,98716.0,0.375,-952.5,-526.7940310604458,0.0,0.125,3.487548471,0.7600754961056146,0.0,-95917.0,1.25,1057.5,1396.8272243790148,0.0,0.25,1.699218576,0.24903178130324866,0.0,-0.12999999523162842,-1.850000023841858,-24.18000030517578,0.13116455078125,0.01068115234375,1.3115234375,35.83000183105469,0.0,152.0,-6.5731964111328125,-1.835235595703125,Closing,0.0,0.0,-189.0,0.0,0.0,0.0,0.0,0.0,
3.500084999999999,0.0,0.0,110127.0,0.0,-892.5,-537.0893785210226,0.0,2.625,0.318603483,4.077721120891265,0.0,-115502.0,1.875,1192.5,1457.8610332546098,0.0,0.25,0.313720671,4.701098196835272,0.0,98585.0,0.375,-802.5,-537.0893785210226,0.0,2.5,3.822021093,0.8559417220958129,0.0,-95741.0,1.875,1170.0,1457.8610332546098,0.0,0.375,1.7675779440000001,0.26236646744122377,0.0,0.009999999776482582,-1.4199999570846558,-25.450000762939453,0.093505859375,0.18182373046875,1.231689453125,35.83000183105469,0.0,33.0,-6.5567626953125,-1.831329345703125,Closing,0.0,0.0,-189.0,0.0,0.0,0.0,0.0,0.0,
3.5786879999999948,0.0,0.0,110127.0,0.125,-645.0,-537.0893785210226,0.0,0.375,4.938964338,4.077721120891265,0.0,-115301.0,2.875,1275.0,1457.8610332546098,0.0,0.25,0.263671848,4.701098196835272,0.0,98483.0,0.625,-697.5,-537.0893785210226,0.0,0.375,4.154052309,0.8559417220958129,0.0,-95545.0,3.0,1237.5,1457.8610332546098,0.0,0.375,1.856689263,0.26236646744122377,0.0,0.03999999910593033,-0.7699999809265137,-28.950000762939453,0.219482421875,-0.09149169921875,1.12774658203125,35.83000183105469,0.0,250.0,-6.5326385498046875,-1.822784423828125,Closing,0.0,0.0,-189.0,0.0,0.0,0.0,0.0,0.0,
3.713146999999997,0.0,0.0,110047.0,0.125,-472.5,-545.134392300138,0.0,0.25,4.779052245,4.031564955215122,0.0,-115094.0,4.5,1275.0,1488.5244443773356,0.0,0.125,0.23681638200000002,4.694834531730225,0.0,98402.0,1.25,-480.0,-545.134392300138,0.0,0.0,4.320067917,0.9021741463796583,0.0,-95345.0,3.875,1252.5,1488.5244443773356,0.0,0.25,1.9152830070000002,0.26862285151841103,0.0,-0.5199999809265137,-0.49000000953674316,-37.900001525878906,-0.06439208984375,-0.10089111328125,1.0733642578125,35.84000015258789,0.0,12.0,-6.4788970947265625,-1.823394775390625,Closing,0.0,0.0,-189.0,0.0,0.0,0.0,0.0,0.0,
3.779004000000001,0.0,0.0,109968.0,0.125,-495.0,-545.134392300138,0.0,0.25,4.770507324,4.031564955215122,0.0,-115094.0,4.75,1305.0,1488.5244443773356,0.0,0.0,0.212402322,4.694834531730225,0.0,98402.0,0.875,-585.0,-545.134392300138,0.0,0.125,4.320067917,0.9021741463796583,0.0,-95345.0,3.875,1252.5,1488.5244443773356,0.0,0.25,1.9201658190000002,0.26862285151841103,0.0,-0.6700000166893005,-0.6100000143051147,-42.150001525878906,-0.05133056640625,0.0111083984375,1.14337158203125,35.84000015258789,0.0,-45.0,-6.45355224609375,-1.8274688720703125,Closing,0.0,0.0,-189.0,0.0,0.0,0.0,0.0,0.0,
3.8373399999999966,0.0,0.0,109968.0,0.125,-510.0,-545.134392300138,0.0,0.375,4.790038572,4.031564955215122,0.0,-114879.0,4.625,1335.0,1488.5244443773356,0.0,0.25,0.19775388600000002,4.694834531730225,0.0,98311.0,1.0,-540.0,-545.134392300138,0.0,0.125,4.32128862,0.9021741463796583,0.0,-95137.0,4.0,1305.0,1488.5244443773356,0.0,0.25,1.927490037,0.26862285151841103,0.0,-0.7300000190734863,-0.6200000047683716,-46.5099983215332,-0.129638671875,0.007080078125,1.096923828125,35.84000015258789,0.0,-96.0,-6.4283294677734375,-1.8331146240234375,Closing,0.0,0.0,-189.0,0.0,0.0,0.0,0.0,0.0,
3.9021630000000003,0.0,0.0,109887.0,0.125,-502.5,-545.134392300138,0.0,0.375,4.832763177,4.031564955215122,0.0,-114879.0,4.75,1365.0,1488.5244443773356,0.0,0.25,0.19775388600000002,4.694834531730225,0.0,98311.0,1.5,-487.5,-545.134392300138,0.0,0.125,4.2907710450000005,0.9021741463796583,0.0,-95137.0,4.0,1327.5,1488.5244443773356,0.0,0.25,1.9177244130000002,0.26862285151841103,0.0,-0.8100000023841858,-0.8100000023841858,-52.13999938964844,-0.01715087890625,-0.063720703125,1.11688232421875,35.84000015258789,0.0,36.0,-6.39678955078125,-1.8426055908203125,Closing,0.0,0.0,-189.0,0.0,0.0,0.0,0.0,0.0,
3.965703999999998,0.0,0.0,109887.0,0.125,-510.0,-729.5013790779262,0.0,4.125,4.94384715,4.852462756593545,0.0,-114658.0,2.875,1380.0,904.3844848020672,0.0,0.5,0.23315427300000002,4.899038388280905,0.0,98233.0,2.375,-487.5,-729.5013790779262,0.0,3.75,4.1882319930000005,0.0799200684890636,0.0,-94923.0,2.625,1335.0,904.3844848020672,0.0,0.5,1.8933103530000002,0.0646563662102138,0.0,-0.9399999976158142,-0.8700000047683716,-55.54999923706055,0.05120849609375,-0.0634765625,0.85693359375,35.84000015258789,0.0,77.0,-6.377105712890625,-1.849395751953125,Closing,0.0,0.0,-189.0,0.0,0.0,0.0,0.0,0.0,
4.050754999999997,0.0,0.0,109797.0,0.375,-592.5,-664.8401918105002,0.0,1.25,0.592040955,4.768761743755636,0.0,-114658.0,0.625,1162.5,986.240684192086,0.0,0.25,0.339355434,4.853295454644446,0.0,98233.0,3.25,-480.0,-664.8401918105002,0.0,0.5,3.654784782,0.1637593710355889,0.0,-94735.0,0.875,1200.0,986.240684192086,0.0,0.25,1.774902162,0.11034612721234807,0.0,-1.3200000524520874,-1.1200000047683716,-61.79999923706055,-0.13043212890625,-0.052490234375,0.71893310546875,35.84000015258789,0.0,-23.0,-6.3355865478515625,-1.8657684326171875,Closing,0.0,0.0,-189.0,0.0,0.0,0.0,0.0,0.0,
4.102676,0.0,0.0,109707.0,0.75,-562.5,-813.5432946681976,0.0,0.375,0.822753822,4.932250999999998,0.0,-114475.0,0.625,1162.5,813.5432946681976,0.0,0.25,0.40283199000000003,4.963769999999998,0.0,98155.0,4.125,-472.5,-813.5432946681976,0.0,0.5,3.394775043,0.01,0.0,-94735.0,0.75,1147.5,813.5432946681976,0.0,0.25,1.7138670120000001,0.01,0.0,-1.4600000381469727,-1.3200000524520874,-63.939998626708984,-0.00311279296875,-0.0123291015625,0.858642578125,35.849998474121094,0.0,-3.0,-6.3075103759765625,-1.879364013671875,Closing,0.0,0.0,-189.0,0.0,0.0,0.0,0.0,0.0,
4.178998,0.0,0.0,109707.0,1.0,-645.0,-813.5432946681976,0.0,0.25,0.877685457,4.932250999999998,0.0,-114321.0,0.25,1072.5,813.5432946681976,0.0,0.25,0.477294873,4.963769999999998,0.0,98057.0,5.25,-540.0,-813.5432946681976,0.0,0.125,3.304443021,0.01,0.0,-94567.0,0.75,1080.0,813.5432946681976,0.0,0.25,1.650390456,0.01,0.0,-1.5700000524520874,-1.309999942779541,-65.6500015258789,0.03363037109375,0.0977783203125,1.04058837890625,35.849998474121094,0.0,-91.0,-6.2789459228515625,-1.8935546875,Closing,0.0,0.0,-189.0,0.0,0.0,0.0,0.0,0.0,
4.239322999999997,0.0,0.0,109586.0,0.75,-757.5,-813.5432946681976,0.0,0.25,0.876464754,4.932250999999998,0.0,-114321.0,0.75,900.0,813.5432946681976,0.0,0.125,0.522460884,4.963769999999998,0.0,98057.0,4.375,-667.5,-813.5432946681976,0.0,0.125,3.303222318,0.01,0.0,-94567.0,0.875,930.0,813.5432946681976,0.0,0.25,1.6101072570000001,0.01,0.0,-1.4700000286102295,-1.1299999952316284,-65.6500015258789,-0.0107421875,0.05731201171875,1.004150390625,35.849998474121094,0.0,-71.0,-6.2444000244140625,-1.9099273681640625,Closing,0.0,0.0,-189.0,0.0,0.0,0.0,0.0,0.0,
4.2684890000000015,0.0,0.0,109586.0,0.375,-780.0,-813.5432946681976,0.0,0.375,0.89111319,4.932250999999998,-0.0012207029999999897,-114321.0,0.875,885.0,813.5432946681976,0.0,0.125,0.527343696,4.963769999999998,0.037841793000000123,98057.0,4.0,-615.0,-813.5432946681976,0.0,0.0,3.299560209,0.01,0.0,-94567.0,0.875,915.0,813.5432946681976,0.0,0.25,1.6113279600000001,0.01,4.922599613,-1.4600000381469727,-1.090000033378601,-65.55999755859375,0.068115234375,-0.06756591796875,0.92181396484375,35.849998474121094,0.0,75.0,-6.2375640869140625,-1.9130401611328125,Closing,0.0,0.0,-189.0,0.0,0.0,0.0,0.0,0.0,
4.312250999999996,0.0,0.0,109586.0,0.375,-817.5,-813.5432946681976,0.0,0.25,0.875244051,4.932250999999998,0.0,-114179.0,0.875,877.5,813.5432946681976,0.0,0.125,0.532226508,4.963769999999998,0.0,97993.0,5.125,-412.5,-813.5432946681976,0.0,0.0,3.3227535660000003,0.01,0.0,-94423.0,1.25,907.5,813.5432946681976,0.0,0.25,1.597900227,0.01,0.0,-1.409999966621399,-1.0700000524520874,-65.2699966430664,-0.00299072265625,-0.04937744140625,0.74945068359375,35.849998474121094,0.0,32.0,-6.2173004150390625,-1.9223480224609375,Closing,0.0,0.0,-189.0,0.0,0.0,0.0,0.0,0.0,
4.332504000000001,0.0,0.0,109586.0,0.375,-825.0,-813.5432946681976,0.0,0.25,0.865478427,4.932250999999998,0.0,-114179.0,0.875,877.5,813.5432946681976,0.0,0.125,0.535888617,4.963769999999998,0.0,97993.0,6.375,-345.0,-813.5432946681976,0.0,0.0,3.328857081,0.01,0.0,-94423.0,1.5,892.5,813.5432946681976,0.0,0.25,1.597900227,0.01,0.0,-1.3700000047683716,-1.1699999570846558,-65.08999633789062,-0.17279052734375,0.02142333984375,1.20635986328125,35.849998474121094,0.0,-107.0,-6.2040252685546875,-1.9286651611328125,Closing,0.0,0.0,-189.0,0.0,0.0,0.0,0.0,0.0,
4.353614999999998,0.0,0.0,109452.0,0.125,-832.5,-992.1259617805481,0.0,0.25,0.860595615,4.932250999999998,-0.0024414059999999793,-114179.0,1.125,877.5,992.1259617805481,0.0,0.25,0.551757756,4.963769999999998,0.008544921000000372,97993.0,7.5,-345.0,-992.1259617805481,0.0,0.0,3.336181299,0.01,0.008544920999999484,-94423.0,1.875,832.5,992.1259617805481,0.0,0.25,1.596679524,0.01,0.0,-1.3799999952316284,-1.090000033378601,-64.87999725341797,-0.02734375,-0.1234130859375,0.85113525390625,35.849998474121094,0.0,88.0,-6.19091796875,-1.9352264404296875,Closing,0.0,0.0,-189.0,0.0,0.0,0.0,0.0,0.0,
4.445843000000001,0.0,0.0,109452.0,0.625,-870.0,-1031.8110573291779,0.0,0.25,0.8447264760000001,4.932250999999998,0.0,-114043.0,3.0,840.0,1031.8110573291779,0.0,0.25,0.551757756,4.963769999999998,0.0,97888.0,10.25,-630.0,-1031.8110573291779,0.0,0.0,3.350829735,0.01,0.0,-94293.0,3.25,795.0,1031.8110573291779,0.0,0.25,1.5576170280000001,0.01,0.0,-1.4199999570846558,-1.2899999618530273,-64.22000122070312,-0.03271484375,0.0513916015625,1.0543212890625,35.849998474121094,0.0,-73.0,-6.1579437255859375,-1.9531402587890625,Closing,0.0,0.0,-189.0,0.0,0.0,0.0,0.0,0.0,
4.511334999999999,0.0,0.0,109301.0,0.625,-967.5,-1111.1810982227325,0.0,0.25,0.8410643670000001,4.932250999999998,0.0,-114043.0,3.875,892.5,1111.1810982227325,0.0,0.25,0.527343696,4.963769999999998,0.0,97888.0,10.0,-795.0,-1111.1810982227325,0.0,0.0,3.349609032,0.01,0.0,-94293.0,4.125,862.5,1111.1810982227325,0.0,0.25,1.5588377310000001,0.01,0.0,-1.2400000095367432,-1.3799999952316284,-63.689998626708984,-0.0723876953125,-0.04266357421875,0.9617919921875,35.849998474121094,0.0,-2.0,-6.126220703125,-1.972625732421875,Closing,0.0,0.0,-189.0,0.0,0.0,0.0,0.0,0.125,
4.578614999999998,0.0,0.0,109135.0,0.625,-1027.5,-1111.1810982227325,0.0,0.25,0.8410643670000001,4.932250999999998,0.0,-113892.0,3.875,952.5,1111.1810982227325,0.0,0.125,0.5175780720000001,4.963769999999998,0.0,97730.0,8.875,-997.5,-1111.1810982227325,0.0,0.0,3.345946923,0.01,0.0,-94150.0,4.125,922.5,1111.1810982227325,0.0,0.25,1.589355306,0.01,0.0,-1.149999976158142,-1.600000023841858,-63.31999969482422,-0.00848388671875,-0.050537109375,1.19879150390625,35.849998474121094,0.0,34.0,-6.1023406982421875,-1.989593505859375,Closing,0.0,0.0,-189.0,0.0,0.0,0.0,0.0,0.0,
4.645208999999995,0.0,0.0,109135.0,0.375,-1072.5,-1111.1810982227325,0.0,0.25,0.8410643670000001,4.932250999999998,0.0,-113892.0,3.625,1035.0,1111.1810982227325,0.0,0.125,0.51269526,4.963769999999998,0.0,97730.0,7.125,-1095.0,-1111.1810982227325,0.0,0.0,3.350829735,0.01,0.0,-93985.0,3.875,1005.0,1111.1810982227325,0.0,0.25,1.617431475,0.01,0.0,-1.1699999570846558,-1.690000057220459,-62.93000030517578,-0.121826171875,-0.02557373046875,1.11651611328125,35.779998779296875,0.0,-37.0,-6.0732421875,-2.0108795166015625,Closing,0.0,0.0,-189.0,0.0,0.0,0.0,0.0,0.0,
4.716343999999998,0.0,0.0,108955.0,0.375,-1110.0,-1111.1810982227325,0.0,0.25,0.839843664,4.932250999999998,0.0,-113723.0,3.0,1065.0,1111.1810982227325,0.0,0.0,0.51269526,4.963769999999998,0.0,97551.0,6.5,-1125.0,-1111.1810982227325,0.0,0.0,3.350829735,0.01,0.0,-93985.0,3.625,1050.0,1111.1810982227325,0.0,0.125,1.627197099,0.01,0.0,-1.2699999809265137,-1.8200000524520874,-62.650001525878906,-0.2265625,0.1751708984375,0.6575927734375,35.779998779296875,0.0,-263.0,-6.044403076171875,-2.03240966796875,Closing,0.0,0.0,-189.0,0.0,0.0,0.0,0.0,0.0,
4.778629999999997,0.0,0.0,108955.0,0.125,-1110.0,-807.8730295762581,0.0,0.75,0.7373046120000001,4.6266165220766835,0.0,-113536.0,5.0,1117.5,1506.4938200607928,0.0,0.25,0.522460884,4.801827117318852,0.0,97368.0,4.125,-1147.5,-807.8730295762581,0.0,0.375,3.3789059040000002,0.306139443173584,0.0,-93802.0,4.75,1087.5,1506.4938200607928,0.0,0.375,1.6564939710000002,0.16175463656316305,0.0,-1.1100000143051147,-1.8300000429153442,-62.58000183105469,-0.04290771484375,-0.19073486328125,0.9932861328125,35.779998779296875,0.0,147.0,-6.0222015380859375,-2.049468994140625,Closing,0.0,0.0,-189.0,0.0,0.0,0.0,0.0,0.0,
4.832998,0.0,0.0,108798.0,0.0,-997.5,-727.4887356938067,0.0,0.375,0.599365173,4.387526631382462,0.0,-113536.0,9.375,1237.5,1726.9667155980694,0.0,0.25,0.449218704,4.748266823816673,0.0,97368.0,1.75,-1125.0,-727.4887356938067,0.0,0.25,3.5314937790000003,0.5456243550293942,0.0,-93802.0,8.25,1230.0,1726.9667155980694,0.0,0.375,1.728515448,0.21525267035276321,0.0,-1.0299999713897705,-1.8700000047683716,-62.97999954223633,0.00299072265625,-0.09716796875,1.39276123046875,35.779998779296875,0.0,86.0,-5.9992218017578125,-2.0671844482421875,Closing,0.0,0.0,-189.0,0.0,0.0,0.0,0.0,0.0,
4.913320999999996,0.0,0.0,108798.0,0.0,-982.5,-958.0248400071679,0.0,0.875,0.410156208,4.819222700310355,0.0,-113312.0,6.875,1372.5,1281.6446680836782,0.0,0.125,0.39550777200000004,4.878872017264466,0.0,97207.0,2.75,-1050.0,-958.0248400071679,0.0,0.75,3.774413676,0.1132150435544991,0.0,-93591.0,5.125,1327.5,1281.6446680836782,0.0,0.25,1.8103025490000002,0.08479929537484233,0.0,-0.9200000166893005,-1.7799999713897705,-65.11000061035156,-0.0174560546875,-0.09881591796875,1.48046875,35.779998779296875,0.0,80.0,-5.9696807861328125,-2.0882720947265625,Closing,0.0,0.0,-189.0,0.0,0.0,0.0,0.0,0.0,
4.977258999999998,0.0,0.0,108639.0,0.125,-945.0,-1111.1810982227325,0.0,1.0,0.483398388,4.932250999999998,0.0,-113312.0,1.875,1402.5,1111.1810982227325,0.0,0.25,0.373535118,4.963769999999998,0.0,97207.0,6.0,-855.0,-1111.1810982227325,0.0,0.875,3.697509387,0.01,0.0,-93591.0,1.875,1432.5,1111.1810982227325,0.0,0.25,1.7858884890000002,0.01,0.0,-1.1200000047683716,-1.559999942779541,-68.16999816894531,-0.07501220703125,-0.132080078125,1.12127685546875,35.779998779296875,0.0,85.0,-5.94384765625,-2.10223388671875,Closing,0.0,0.0,-189.0,0.0,0.0,0.0,0.0,0.0,
5.046420999999995,0.0,0.0,108639.0,0.75,-877.5,-1111.1810982227325,0.0,0.5,0.703124928,4.932250999999998,0.0,-113098.0,0.5,1327.5,1111.1810982227325,0.0,0.25,0.380859336,4.963769999999998,0.0,97078.0,10.375,-795.0,-1111.1810982227325,0.0,0.5,3.494872689,0.01,0.0,-93360.0,0.875,1432.5,1111.1810982227325,0.0,0.25,1.730956854,0.01,0.0,-1.2000000476837158,-1.5700000524520874,-72.25,-0.0220947265625,-0.2298583984375,1.21697998046875,35.779998779296875,0.0,197.0,-5.908905029296875,-2.1200408935546875,Closing,0.0,0.0,-189.0,0.0,0.0,0.0,0.0,0.0,
5.113615999999994,0.0,0.0,108492.0,0.125,-915.0,-138.89763727784157,0.0,0.375,0.8410643670000001,4.932250999999998,0.0,-113098.0,0.25,1372.5,138.89763727784157,0.0,0.25,0.40893550500000003,4.963769999999998,0.0,97078.0,4.0,-772.5,-138.89763727784157,0.0,0.25,3.342284814,0.01,0.0,-93360.0,0.375,1320.0,138.89763727784157,0.0,0.25,1.666259595,0.01,0.0,-1.309999942779541,-1.4800000190734863,-74.2699966430664,0.1973876953125,-0.08349609375,1.0665283203125,35.779998779296875,0.0,117.0,-5.8798675537109375,-2.13568115234375,Closing,0.0,0.0,-189.0,0.0,0.0,0.0,0.0,0.0,
5.177264999999999,0.0,0.0,108373.0,0.0,-727.5,0.0,0.0,0.375,0.8569335060000001,4.932250999999998,-4.807739294,-112907.0,0.625,1177.5,0.0,0.0,0.25,0.44799800100000003,4.963769999999998,0.0,96962.0,0.25,-705.0,0.0,0.0,0.0,3.303222318,0.01,4.790253530999999,-93156.0,0.125,1230.0,0.0,0.0,0.25,1.6369627230000001,0.01,0.0,-1.2100000381469727,-0.9900000095367432,-75.05000305175781,0.24066162109375,-0.0419921875,1.068115234375,35.83000183105469,0.0,85.0,-5.84954833984375,-2.1490020751953125,Closing,0.0,0.0,-189.0,0.0,0.0,0.0,0.0,0.0,
5.203002000000001,0.0,0.0,108373.0,0.0,-705.0,0.0,0.0,0.25,0.837402258,4.932250999999998,0.0,-112907.0,0.25,1125.0,0.0,0.0,0.25,0.46386714,4.963769999999998,0.0,96962.0,0.125,-667.5,0.0,0.0,0.0,3.3081051300000004,0.01,0.0,-93156.0,0.125,1155.0,0.0,0.0,0.25,1.6308592080000002,0.01,0.0,-1.2300000190734863,-0.9599999785423279,-75.16000366210938,0.2427978515625,0.0472412109375,1.1431884765625,35.83000183105469,0.0,-2.0,-5.8418426513671875,-2.1515045166015625,Closing,0.0,0.0,-189.0,0.0,0.0,0.0,0.0,0.0,
5.224729999999996,0.0,0.0,108373.0,0.0,-735.0,0.0,0.0,0.25,0.8569335060000001,4.932250999999998,0.0,-112907.0,0.125,1095.0,0.0,0.0,0.25,0.47851557600000005,4.963769999999998,0.0,96962.0,0.0,-645.0,0.0,0.0,0.0,3.3081051300000004,0.01,0.0,-93156.0,0.125,1065.0,0.0,0.0,0.125,1.625976396,0.01,-0.03417968399999993,-1.1299999952316284,-0.6299999952316284,-75.45999908447266,0.13726806640625,-0.06884765625,0.98406982421875,35.83000183105469,0.0,84.0,-5.818634033203125,-2.157440185546875,Closing,0.0,0.0,-189.0,0.0,0.0,0.0,0.0,0.0,
5.261008999999998,0.0,0.0,108373.0,0.0,-862.5,0.0,0.0,0.25,0.8557128030000001,4.932250999999998,0.010986327000000018,-112758.0,0.125,1027.5,0.0,0.0,0.25,0.511474557,4.963769999999998,0.05004882299999913,96854.0,0.0,-667.5,0.0,0.0,0.0,3.3081051300000004,0.01,-0.029296871999999752,-93008.0,0.125,990.0,0.0,0.0,0.125,1.621093584,0.01,-0.03417968399999993,-1.149999976158142,-0.5799999833106995,-75.5,0.097900390625,-0.07501220703125,1.12701416015625,35.83000183105469,0.0,78.0,-5.8106689453125,-2.1590728759765625,Closing,0.0,0.0,-189.0,0.0,0.0,0.0,0.0,0.0,
5.301612000000001,0.0,0.0,108254.0,0.0,-840.0,0.0,0.0,0.25,0.850829991,4.932250999999998,-0.0024414059999999793,-112758.0,0.125,817.5,0.0,0.0,0.25,0.5175780720000001,4.963769999999998,0.04516601100000006,96854.0,0.0,-705.0,0.0,0.0,0.0,3.3227535660000003,0.01,0.0,-93008.0,0.125,862.5,0.0,0.0,0.125,1.6076658510000001,0.01,4.948234375999999,-1.2200000286102295,-0.18000000715255737,-75.55999755859375,0.401611328125,0.07421875,0.55316162109375,35.83000183105469,0.0,17.0,-5.786590576171875,-2.1631927490234375,Closing,0.0,0.0,-189.0,0.0,0.0,0.0,0.0,0.0,
5.326695,0.0,0.0,108254.0,0.0,-757.5,0.0,0.0,0.25,0.850829991,4.932250999999998,-0.0024414059999999793,-112758.0,0.125,720.0,0.0,0.0,0.0,0.507812448,4.963769999999998,0.04516601100000006,96854.0,0.0,-712.5,0.0,0.0,0.0,3.3276363780000002,0.01,0.0,-93008.0,0.125,825.0,0.0,0.0,0.125,1.5820310880000001,0.01,4.948234375999999,-1.1299999952316284,-0.23999999463558197,-75.54000091552734,1.36370849609375,0.02734375,1.1416015625,35.83000183105469,0.0,292.0,-5.7863922119140625,-2.16339111328125,Closing,0.0,0.0,-189.0,0.0,0.0,0.0,0.0,0.0,
5.349824999999997,0.0,0.0,108254.0,0.0,-615.0,0.0,0.0,0.25,0.845947179,4.932250999999998,-0.00488281200000007,-112758.0,0.125,652.5,0.0,0.0,0.125,0.507812448,4.963769999999998,0.004882812000000847,96854.0,0.0,-660.0,0.0,0.0,0.0,3.333739893,0.01,0.01831054500000029,-92920.0,0.125,652.5,0.0,0.0,0.25,1.5832517910000001,0.01,-0.04516601099999917,-0.9599999785423279,3.5,-75.83000183105469,1.05718994140625,-0.0223388671875,0.31951904296875,35.83000183105469,0.0,270.0,-5.78314208984375,-2.1502227783203125,Closing,0.0,0.0,-189.0,0.0,0.0,0.0,0.0,0.0,
5.390057999999997,0.0,0.0,108254.0,0.0,-562.5,0.0,0.0,0.25,0.845947179,4.932250999999998,-0.003662108999999969,-112676.0,0.125,615.0,0.0,0.0,0.125,0.507812448,4.963769999999998,-0.009765624000000805,96778.0,0.0,-585.0,0.0,0.0,0.0,3.338622705,0.01,0.012207029999999897,-92920.0,0.125,525.0,0.0,0.0,0.25,1.5771482760000002,0.01,0.006103514999999504,-0.8899999856948853,3.619999885559082,-75.91999816894531,-0.39324951171875,-0.09320068359375,0.70025634765625,35.83000183105469,0.0,-26.0,-5.7813568115234375,-2.1435546875,Closing,0.0,0.0,-189.0,0.0,0.0,0.0,0.0,0.0,
5.411106,0.0,0.0,108254.0,0.0,-487.5,0.0,0.0,0.25,0.845947179,4.932250999999998,-0.003662108999999969,-112676.0,0.125,502.5,0.0,0.0,0.0,0.507812448,4.963769999999998,-0.009765624000000805,96778.0,0.0,-465.0,0.0,0.0,0.0,3.3251949720000002,0.01,0.012207029999999897,-92920.0,0.125,525.0,0.0,0.0,0.25,1.5820310880000001,0.01,0.006103514999999504,-1.0199999809265137,2.880000114440918,-76.05999755859375,-0.1563720703125,-0.37091064453125,1.84124755859375,35.83000183105469,0.0,267.0,-5.77728271484375,-2.1309356689453125,Closing,0.0,0.0,-189.0,0.0,0.0,0.0,0.0,0.0,
5.433519,0.0,0.0,108235.0,0.0,-112.5,0.0,0.0,0.25,0.845947179,4.932250999999998,-0.0012207029999999897,-112676.0,0.125,322.5,0.0,0.0,0.0,0.507812448,4.963769999999998,0.0,96778.0,0.0,-150.0,0.0,0.0,0.0,3.3093258330000004,0.01,-0.021972653999999814,-92920.0,0.125,142.5,0.0,0.0,0.25,1.5869139,0.01,0.0,-1.149999976158142,2.950000047683716,-76.11000061035156,-0.23583984375,0.04669189453125,1.3873291015625,35.83000183105469,0.0,-146.0,-5.7750244140625,-2.1195220947265625,Closing,0.0,0.0,-189.0,0.0,0.0,0.0,0.0,0.0,
5.503364000000001,0.0,0.0,108235.0,0.0,442.5,0.0,0.0,0.25,0.836181555,4.932250999999998,0.0012207029999999897,-112725.0,0.125,-277.5,0.0,0.0,0.0,0.51269526,4.963769999999998,0.004882811999999959,96797.0,0.0,97.5,0.0,0.0,0.0,3.3142086450000003,0.01,-0.007324217999999938,-92972.0,0.125,-270.0,0.0,0.0,0.25,1.596679524,0.01,0.004882811999999959,-1.0399999618530273,2.490000009536743,-76.0,-0.12451171875,0.14630126953125,1.2315673828125,35.83000183105469,0.0,-206.0,-5.76470947265625,-2.09759521484375,Closing,0.0,0.0,-189.0,0.0,0.0,0.0,0.0,0.0,
5.580627000000001,0.0,0.0,108284.0,0.0,255.0,0.0,0.0,0.25,0.8312987430000001,4.932250999999998,-0.009765624000000028,-112725.0,0.125,-232.5,0.0,0.0,0.125,0.51269526,4.963769999999998,0.004882812000000847,96797.0,0.0,127.5,0.0,0.0,0.0,3.3239742690000003,0.01,0.004882811999999959,-92972.0,0.125,-225.0,0.0,0.0,0.25,1.596679524,0.01,0.009765623999999917,-0.8799999952316284,2.109999895095825,-76.0999984741211,-0.1241455078125,-0.07177734375,1.0611572265625,35.83000183105469,0.0,14.0,-5.757293701171875,-2.0742034912109375,Closing,0.0,0.0,-189.0,0.0,0.0,0.0,0.0,0.0,
5.601536,0.0,0.0,108284.0,0.0,157.5,0.0,0.0,0.25,0.832519446,4.932250999999998,0.0,-112725.0,0.125,-202.5,0.0,0.0,0.125,0.507812448,4.963769999999998,0.0,96797.0,0.0,142.5,0.0,0.0,0.0,3.328857081,0.01,0.009765623999999917,-92972.0,0.125,-202.5,0.0,0.0,0.25,1.596679524,0.01,0.0,-0.9399999976158142,2.1600000858306885,-76.18000030517578,-0.0533447265625,-0.06396484375,0.81219482421875,35.83000183105469,0.0,28.0,-5.7559356689453125,-2.0701141357421875,Closing,0.0,0.0,-189.0,0.0,0.0,0.0,0.0,0.0,
5.617693999999996,0.0,0.0,108284.0,0.0,90.0,0.0,0.0,0.25,0.8312987430000001,4.932250999999998,0.0,-112749.0,0.125,-180.0,0.0,0.0,0.125,0.507812448,4.963769999999998,0.0,96822.0,0.0,165.0,0.0,0.0,0.0,3.328857081,0.01,0.009765623999999917,-92998.0,0.125,-165.0,0.0,0.0,0.25,1.596679524,0.01,0.0,-0.9599999785423279,2.1500000953674316,-76.22000122070312,-0.01824951171875,-0.02099609375,0.857177734375,35.83000183105469,0.0,-5.0,-5.754547119140625,-2.066131591796875,Closing,0.0,0.0,-189.0,0.0,0.0,0.0,0.0,0.0,
5.7017609999999985,0.0,0.0,108296.0,0.0,82.5,0.0,0.0,0.25,0.8312987430000001,4.932250999999998,0.0,-112749.0,0.125,-105.0,0.0,0.0,0.0,0.507812448,4.963769999999998,0.0,96822.0,0.0,112.5,0.0,0.0,0.0,3.328857081,0.01,0.0,-92998.0,0.125,-90.0,0.0,0.0,0.25,1.596679524,0.01,0.0,-0.8999999761581421,1.5099999904632568,-76.19999694824219,-0.0771484375,0.0146484375,1.13482666015625,35.77000045776367,0.0,-57.0,-5.7472381591796875,-2.045745849609375,Closing,0.0,0.0,-189.0,0.0,0.0,0.0,0.0,0.0,
5.729822,0.0,0.0,108296.0,0.0,97.5,0.0,0.0,0.25,0.832519446,4.932250999999998,0.0,-112749.0,0.125,-90.0,0.0,0.0,0.0,0.506591745,4.963769999999998,0.0,96822.0,0.0,82.5,0.0,0.0,0.0,3.328857081,0.01,0.0,-93009.0,0.125,-82.5,0.0,0.0,0.25,1.596679524,0.01,0.0,-0.8700000047683716,1.3899999856948853,-76.16999816894531,-0.093017578125,6.103515625E-4,0.95062255859375,35.77000045776367,0.0,-42.0,-5.7453460693359375,-2.0399932861328125,Closing,0.0,0.0,-189.0,0.0,0.0,0.0,0.0,0.0,
5.755148000000001,0.0,0.0,108296.0,0.0,60.0,0.0,0.0,0.25,0.8312987430000001,4.932250999999998,0.0,-112759.0,0.125,-75.0,0.0,0.0,0.0,0.506591745,4.963769999999998,0.0,96829.0,0.0,45.0,0.0,0.0,0.0,3.328857081,0.01,0.0,-93009.0,0.125,-67.5,0.0,0.0,0.25,1.596679524,0.01,0.0012207029999995456,-0.8500000238418579,1.3200000524520874,-76.16999816894531,-0.0838623046875,0.0025634765625,0.9842529296875,35.77000045776367,0.0,-42.0,-5.7444915771484375,-2.037322998046875,Closing,0.0,0.0,-189.0,0.0,0.0,0.0,0.0,0.0,
5.790923999999999,0.0,0.0,108298.0,0.0,30.0,0.0,0.0,0.25,0.8312987430000001,4.932250999999998,0.0,-112759.0,0.125,-45.0,0.0,0.0,0.0,0.507812448,4.963769999999998,0.0,96829.0,0.0,30.0,0.0,0.0,0.0,3.328857081,0.01,-0.0012207030000004337,-93009.0,0.125,-37.5,0.0,0.0,0.25,1.596679524,0.01,0.0,-0.8600000143051147,1.159999966621399,-76.16999816894531,-0.0269775390625,-0.0145263671875,0.99456787109375,35.77000045776367,0.0,-11.0,-5.742889404296875,-2.029998779296875,Closing,0.0,0.0,-189.0,0.0,0.0,0.0,0.0,0.0,
5.811845000000001,0.0,0.0,108298.0,0.0,7.5,0.0,0.0,0.25,0.8312987430000001,4.932250999999998,0.0,-112759.0,0.125,-30.0,0.0,0.0,0.0,0.507812448,4.963769999999998,0.0,96829.0,0.0,7.5,0.0,0.0,0.0,3.328857081,0.01,-0.0012207030000004337,-93009.0,0.125,-7.5,0.0,0.0,0.25,1.596679524,0.01,0.0,-0.8500000238418579,1.059999942779541,-76.18000030517578,-0.01666259765625,0.0068359375,1.06072998046875,35.77000045776367,0.0,-30.0,-5.7430572509765625,-2.0232696533203125,Closing,0.0,0.0,-189.0,0.0,0.0,0.0,0.0,0.125,
5.862078000000001,0.0,0.0,108298.0,0.0,0.0,0.0,0.0,0.25,0.8312987430000001,4.932250999999998,0.0,-112759.0,0.125,-7.5,0.0,0.0,0.0,0.507812448,4.963769999999998,0.0,96830.0,0.0,7.5,0.0,0.0,0.0,3.328857081,0.01,0.0012207030000004337,-93009.0,0.125,0.0,0.0,0.0,0.25,1.597900227,0.01,0.0,-0.8399999737739563,1.0499999523162842,-76.19000244140625,-0.01434326171875,0.02215576171875,1.028564453125,35.77000045776367,0.0,-44.0,-5.7431793212890625,-2.0211029052734375,Closing,0.0,0.0,-189.0,0.0,0.0,0.0,0.0,0.0,
5.880485999999997,0.0,0.0,108298.0,0.0,0.0,0.0,0.0,0.25,0.832519446,4.932250999999998,0.0,-112759.0,0.125,0.0,0.0,0.0,0.0,0.507812448,4.963769999999998,0.0,96830.0,0.0,0.0,0.0,0.0,0.0,3.328857081,0.01,0.0,-93009.0,0.125,0.0,0.0,0.0,0.25,1.596679524,0.01,0.0,-0.800000011920929,1.0,-76.18000030517578,-0.01080322265625,0.0107421875,1.03118896484375,35.77000045776367,0.0,-31.0,-5.743377685546875,-2.01470947265625,Closing,0.0,0.0,-189.0,0.0,0.0,0.0,0.0,0.0,
5.924966,0.0,0.0,108298.0,0.0,0.0,0.0,0.0,0.25,0.832519446,4.932250999999998,0.0,-112759.0,0.125,0.0,0.0,0.0,0.0,0.507812448,4.963769999999998,0.0,96830.0,0.0,0.0,0.0,0.0,0.0,3.328857081,0.01,0.0,-93009.0,0.125,0.0,0.0,0.0,0.25,1.596679524,0.01,0.0,-0.7900000214576721,0.9900000095367432,-76.18000030517578,0.00677490234375,-0.0057373046875,1.05670166015625,35.77000045776367,0.0,3.0,-5.7435150146484375,-2.0105438232421875,Closing,0.0,0.0,-189.0,0.0,0.0,0.0,0.0,0.0,
5.947159999999996,0.0,0.0,108298.0,0.0,0.0,0.0,0.0,0.25,0.832519446,4.932250999999998,0.0,-112759.0,0.125,0.0,0.0,0.0,0.0,0.506591745,4.963769999999998,0.0,96830.0,0.0,0.0,0.0,0.0,0.0,3.328857081,0.01,-0.0012207030000004337,-93009.0,0.125,0.0,0.0,0.0,0.25,1.596679524,0.01,0.0,-0.7900000214576721,0.9800000190734863,-76.16999816894531,-0.00115966796875,-0.020751953125,0.998291015625,35.77000045776367,0.0,2.0,-5.7435150146484375,-2.0105438232421875,Closing,0.0,0.0,-189.0,0.0,0.0,0.0,0.0,0.0,
5.968584999999999,0.0,0.0,108298.0,0.0,0.0,0.0,0.0,0.25,0.8312987430000001,4.932250999999998,0.0,-112759.0,0.125,0.0,0.0,0.0,0.0,0.506591745,4.963769999999998,0.0,96830.0,0.0,0.0,0.0,0.0,0.0,3.3276363780000002,0.01,-0.0012207030000004337,-93009.0,0.125,0.0,0.0,0.0,0.25,1.596679524,0.01,0.0,-0.7799999713897705,0.9700000286102295,-76.16999816894531,0.01068115234375,-0.01068115234375,1.03125,35.77000045776367,0.0,-4.0,-5.7435150146484375,-2.0105438232421875,Closing,0.0,0.0,-189.0,0.0,0.0,0.0,0.0,0.0,
6.007569999999999,0.0,0.0,108298.0,0.0,0.0,-148.8189049065113,0.0,0.25,0.832519446,0.5498168668524864,0.0,-112759.0,0.0,0.0,-148.8189049065113,0.0,0.0,0.507812448,4.41043958977222,0.0,96830.0,0.0,0.0,-148.8189049065113,0.0,0.875,3.328857081,4.389674732977291,0.0,-93009.0,0.25,0.0,-148.8189049065113,0.0,0.25,1.596679524,0.552687206278561,0.0,-0.7599999904632568,0.9399999976158142,-76.16999816894531,-0.01708984375,0.00469970703125,1.0155029296875,35.77000045776367,0.0,-25.0,-5.74359130859375,-2.0105743408203125,Closing,0.0,0.0,-189.0,0.0,0.0,0.0,0.0,0.0,
6.035973999999995,0.0,0.0,108298.0,0.0,0.0,-496.06300592422485,0.0,0.25,0.8312987430000001,0.5498168668524864,0.0,-112759.0,0.125,0.0,-496.06300592422485,0.0,0.0,0.507812448,4.41043958977222,0.0,96830.0,0.125,0.0,-496.06300592422485,0.0,1.75,3.197021157,4.389674732977291,0.0,-93009.0,0.375,0.0,-496.06300592422485,0.0,0.25,1.596679524,0.552687206278561,0.0,-0.7200000286102295,0.8999999761581421,-76.18000030517578,0.02044677734375,0.036865234375,1.0255126953125,35.77000045776367,0.0,-47.0,-5.74383544921875,-2.0106964111328125,Closing,0.0,0.0,-189.0,0.0,0.0,0.0,0.0,0.0,
6.074231999999997,0.0,0.0,108298.0,0.125,-7.5,-595.2756196260452,0.0,1.25,0.8972167050000001,0.5498168668524864,0.03662109000000002,-112759.0,0.625,-7.5,-595.2756196260452,0.0,2.375,0.489501903,4.41043958977222,-0.014648435999999876,96830.0,0.625,-7.5,-595.2756196260452,0.0,0.625,2.993163756,4.389674732977291,0.0,-93028.0,0.625,-37.5,-595.2756196260452,0.0,2.75,1.8103025490000002,0.552687206278561,0.0,-0.699999988079071,0.800000011920929,-76.16000366210938,-0.083740234375,0.03466796875,1.05303955078125,35.77000045776367,0.0,-69.0,-5.7445526123046875,-2.01116943359375,Closing,0.0,0.0,-189.0,0.0,0.0,0.0,0.0,0.0,
6.124898000000001,0.0,0.0,108298.0,1.0,-37.5,-132.28346407413483,0.0,1.5,1.091308482,0.5498168668524864,0.16601560800000004,-112787.0,1.75,-165.0,-132.28346407413483,0.0,1.5,0.31005856200000004,4.41043958977222,-0.104980458,96825.0,1.125,-30.0,-132.28346407413483,0.0,0.625,2.911376655,4.389674732977291,-0.1635742020000004,-93028.0,0.75,-90.0,-132.28346407413483,0.0,1.5,1.8981931650000001,0.552687206278561,-4.761466817,-0.7099999785423279,0.8100000023841858,-76.02999877929688,0.04656982421875,-0.01092529296875,0.97796630859375,35.77000045776367,0.0,6.0,-5.745147705078125,-2.0117034912109375,Closing,0.0,0.0,-189.0,0.0,0.0,0.0,0.0,0.0,
6.154653999999995,0.0,0.0,108287.0,0.25,-67.5,0.0,0.0,0.75,1.202392455,0.5498168668524864,0.07324218000000005,-112787.0,1.125,-195.0,0.0,0.0,0.5,0.16479490500000002,4.41043958977222,-0.08789061600000014,96825.0,0.375,-30.0,0.0,0.0,0.375,2.825927445,4.389674732977291,-0.05981444699999994,-93028.0,0.25,-180.0,0.0,0.0,0.875,2.048339634,0.552687206278561,0.08789061599999992,-0.7300000190734863,0.7900000214576721,-75.61000061035156,-0.00482177734375,0.00335693359375,0.9876708984375,35.77000045776367,0.0,-20.0,-5.7460479736328125,-2.01214599609375,Closing,0.0,0.0,-189.0,0.0,0.0,0.0,0.0,0.0,
6.250497999999999,0.0,0.0,108287.0,0.0,-15.0,0.0,0.0,0.625,1.275634635,0.5498168668524864,0.0,-112788.0,0.125,-7.5,0.0,0.0,0.25,4.952392071,4.41043958977222,0.0,96825.0,0.0,0.0,0.0,0.0,0.125,2.7990719790000003,4.389674732977291,0.0,-93037.0,0.125,-15.0,0.0,0.0,0.375,2.1105954870000003,0.552687206278561,0.0,-0.6000000238418579,0.6700000166893005,-75.31999969482422,-0.04620361328125,-0.0189208984375,0.98980712890625,35.77000045776367,0.0,-6.0,-5.7491455078125,-2.012451171875,Closing,0.0,0.0,-189.0,0.0,0.0,0.0,0.0,0.125,
6.2713139999999985,0.0,0.0,108287.0,0.0,0.0,0.0,0.0,0.625,1.279296744,0.5498168668524864,0.0,-112788.0,0.125,0.0,0.0,0.0,0.25,4.929198714,4.41043958977222,0.0,96825.0,0.0,0.0,0.0,0.0,0.125,2.7990719790000003,4.389674732977291,0.0,-93037.0,0.125,0.0,0.0,0.0,0.625,2.1105954870000003,0.552687206278561,0.06103515000000037,-0.6200000047683716,0.5799999833106995,-75.37999725341797,-0.0552978515625,-0.03533935546875,1.01470947265625,35.77000045776367,0.0,6.0,-5.7491455078125,-2.013031005859375,Closing,0.0,0.0,-189.0,0.0,0.0,0.0,0.0,0.0,
6.382161,0.0,0.0,108287.0,0.0,0.0,0.0,0.0,0.375,1.285400259,0.5498168668524864,0.004882811999999959,-112788.0,0.125,0.0,0.0,0.0,0.125,4.890136218,4.41043958977222,0.0,96826.0,0.0,7.5,0.0,0.0,0.0,2.7990719790000003,4.389674732977291,0.0012207030000004337,-93037.0,0.125,0.0,0.0,0.0,0.25,2.1142575960000003,0.552687206278561,0.0,-0.5799999833106995,0.5199999809265137,-75.4800033569336,0.006103515625,0.0157470703125,1.00323486328125,35.77000045776367,0.0,-25.0,-5.7493896484375,-2.0149383544921875,Closing,0.0,0.0,-189.0,0.0,0.0,0.0,0.0,0.0,
6.4329709999999976,0.0,0.0,108287.0,0.0,0.0,0.0,0.0,0.375,1.285400259,0.5498168668524864,0.0,-112788.0,0.125,0.0,0.0,0.0,0.125,4.890136218,4.41043958977222,-0.0012207029999995456,96826.0,0.0,7.5,0.0,0.0,0.0,2.7990719790000003,4.389674732977291,0.0,-93037.0,0.125,0.0,0.0,0.0,0.25,2.1105954870000003,0.552687206278561,0.0024414059999999793,-0.5799999833106995,0.44999998807907104,-75.45999908447266,-0.02386474609375,-0.0321044921875,1.02777099609375,35.77000045776367,0.0,12.0,-5.7497100830078125,-2.01513671875,Closing,0.0,0.0,-189.0,0.0,0.0,0.0,0.0,0.0,
6.472167000000002,0.0,0.0,108287.0,0.0,0.0,0.0,0.0,0.375,1.285400259,0.5498168668524864,-0.0012207029999999897,-112788.0,0.125,0.0,0.0,0.0,0.125,4.891356921,4.41043958977222,-0.0012207029999995456,96827.0,0.0,0.0,0.0,0.0,0.0,2.7990719790000003,4.389674732977291,0.0,-93037.0,0.125,0.0,0.0,0.0,0.25,2.1154782990000003,0.552687206278561,0.0024414059999999793,-0.5799999833106995,0.41999998688697815,-75.45999908447266,-0.0283203125,-0.02105712890625,1.03790283203125,35.77000045776367,0.0,1.0,-5.7497100830078125,-2.0153045654296875,Closing,0.0,0.0,-189.0,0.0,0.0,0.0,0.0,0.0,
6.5161389999999955,0.0,0.0,108287.0,0.0,0.0,0.0,0.0,0.375,1.285400259,0.5498168668524864,0.0,-112788.0,0.125,0.0,0.0,0.0,0.125,4.890136218,4.41043958977222,0.0,96827.0,0.0,0.0,0.0,0.0,0.0,2.7990719790000003,4.389674732977291,0.0012207030000004337,-93037.0,0.125,0.0,0.0,0.0,0.25,2.1166990020000003,0.552687206278561,0.0,-0.5600000023841858,0.3700000047683716,-75.47000122070312,0.00115966796875,0.0123291015625,1.02606201171875,35.77000045776367,0.0,-23.0,-5.7498016357421875,-2.0159759521484375,Closing,0.0,0.0,-189.0,0.0,0.0,0.0,0.0,0.0,
6.539188999999999,0.0,0.0,108287.0,0.0,0.0,0.0,0.0,0.375,1.284179556,0.5498168668524864,0.0012207029999999897,-112788.0,0.125,0.0,0.0,0.0,0.125,4.891356921,4.41043958977222,0.0,96827.0,0.0,0.0,0.0,0.0,0.0,2.7990719790000003,4.389674732977291,-0.0012207030000004337,-93037.0,0.125,0.0,0.0,0.0,0.25,2.1105954870000003,0.552687206278561,0.0012207029999999897,-0.5400000214576721,0.3499999940395355,-75.4800033569336,-0.01043701171875,-0.0098876953125,1.01861572265625,35.77000045776367,0.0,-4.0,-5.7498779296875,-2.0159759521484375,Closing,0.0,0.0,-189.0,0.0,0.0,0.0,0.0,0.0,
6.646644,0.0,0.0,108287.0,0.0,0.0,0.0,0.0,0.375,1.286620962,0.5498168668524864,0.0,-112788.0,0.125,0.0,0.0,0.0,0.125,4.892577624,4.41043958977222,0.0,96827.0,0.0,0.0,0.0,0.0,0.0,2.7990719790000003,4.389674732977291,0.0,-93037.0,0.125,0.0,0.0,0.0,0.25,2.1154782990000003,0.552687206278561,0.0,-0.5400000214576721,0.2800000011920929,-75.47000122070312,-0.01763916015625,-0.00244140625,1.01983642578125,35.77000045776367,0.0,-12.0,-5.7498779296875,-2.01629638671875,Closing,0.0,0.0,-189.0,0.0,0.0,0.0,0.0,0.0,
6.668780999999996,0.0,0.0,108287.0,0.0,0.0,-575.433059334755,0.0,0.375,1.284179556,4.932250999999998,-0.0012207029999999897,-112788.0,0.125,0.0,575.433059334755,0.0,0.125,4.890136218,4.963769999999998,0.0,96827.0,0.0,0.0,-575.433059334755,0.0,0.0,2.7990719790000003,0.01,0.0,-93037.0,0.125,0.0,575.433059334755,0.0,0.25,2.1154782990000003,0.01,0.0,-0.5199999809265137,0.25999999046325684,-75.47000122070312,-0.0050048828125,0.00457763671875,1.01873779296875,35.75,0.0,-15.0,-5.7498779296875,-2.016448974609375,Closing,0.0,0.0,-189.0,0.0,0.0,0.0,0.0,0.0,
6.712023000000001,0.0,0.0,108287.0,0.625,-7.5,-654.8031377792358,0.0,1.0,1.262206902,4.932250999999998,0.0,-112777.0,0.875,22.5,654.8031377792358,0.0,1.5,4.9230951990000005,4.963769999999998,0.0,96825.0,0.875,0.0,-654.8031377792358,0.0,0.0,2.808837603,0.01,0.0,-93035.0,1.125,22.5,654.8031377792358,0.0,1.375,2.072753694,0.01,0.0,-0.5,0.1599999964237213,-75.45999908447266,-0.0484619140625,0.035888671875,1.01373291015625,35.75,0.0,-56.0,-5.749847412109375,-2.016693115234375,Closing,0.0,0.0,-189.0,0.0,0.0,0.0,0.0,0.0,
6.732900000000002,0.0,0.0,108287.0,1.375,-15.0,-674.6456480026245,0.0,1.25,1.201171752,4.932250999999998,-0.05493163499999998,-112777.0,1.375,75.0,674.6456480026245,0.0,2.625,4.953612774000001,4.963769999999998,0.05737304099999996,96825.0,1.5,-7.5,-674.6456480026245,0.0,2.0,2.882079783,0.01,0.028076169000000206,-93035.0,1.5,60.0,674.6456480026245,0.0,1.5,1.981200969,0.01,0.0,-0.49000000953674316,0.05000000074505806,-75.38999938964844,-0.26434326171875,-0.07818603515625,1.02935791015625,35.75,0.0,0.0,-5.7499847412109375,-2.017333984375,Closing,0.0,0.0,-189.0,0.0,0.0,0.0,0.0,0.0,
6.766491999999999,0.0,0.0,108279.0,2.375,-45.0,-674.6456480026245,0.0,1.5,1.093749888,4.932250999999998,-0.05737304099999996,-112777.0,2.0,150.0,674.6456480026245,0.0,1.75,0.101318349,4.963769999999998,-0.26367184800000043,96825.0,2.0,-22.5,-674.6456480026245,0.0,2.125,2.9980465680000004,0.01,0.07934569499999977,-93035.0,1.75,105.0,674.6456480026245,0.0,1.5,1.938476364,0.01,-0.09399413100000009,-0.46000000834465027,-0.07999999821186066,-75.41000366210938,0.05609130859375,0.01153564453125,1.10211181640625,35.75,0.0,-5.0,-5.75006103515625,-2.0179290771484375,Closing,0.0,0.0,-189.0,0.0,0.0,0.0,0.0,0.0,
