Time,ClimberA1,ClimberA2,FRpos,FRCurrent,FRspeed,FRsetpoint,FRApos,FRACurrent,FREncpos,FREncSetpoint,FREncSpeed,FLpos,FLCurrent,FLspeed,FLsetpoint,FLApos,FLACurrent,FLEncpos,FLEncSetpoint,FLEncSpeed,BRpos,BRCurrent,BRspeed,BRsetpoint,BRApos,BRACurrent,BREncpos,BREncSetpoint,BREncSpeed,BLpos,BLCurrent,BLspeed,BLsetpoint,BLApos,BLACurrent,BLEncpos,BLEncSetpoint,BLEncSpeed,navx_Pitch,navx_Roll,navx_Yaw,navx_XAcc,navx_YAcc,navx_ZAcc,navx_Temp,navx_Bar,navx_Alt,navx_XDis,navx_YDis,GearPlacerState,ShootOutputV,ShootOutputCurrent,ShootEncPos,ShootEncVelocity,ShootSpeed,ShootSetpoint,CarouselSetpoint,CarouselCurrent,
0.21453200000000652,0.0,0.0,122102.0,0.0,0.0,0.0,0.0,0.25,0.850829991,0.01,0.0,-125465.0,0.0,0.0,-0.0,0.0,0.25,0.5566405680000001,0.01,0.0,111518.0,0.0,0.0,0.0,0.0,0.125,3.402099261,0.01,0.0,-105385.0,0.125,0.0,-0.0,0.0,0.25,1.6845701400000002,0.01,0.0,-0.17000000178813934,-0.4099999964237213,-34.439998626708984,-0.00750732421875,-0.00244140625,1.02435302734375,36.310001373291016,0.0,0.0,-6.90130615234375,-2.8194732666015625,Opening,0.0,0.0,-189.0,0.0,0.0,0.0,0.0,0.0,
0.3643830000000016,0.0,0.0,122102.0,0.0,0.0,0.0,0.0,0.25,0.850829991,0.01,0.0,-125465.0,0.0,0.0,-0.0,0.0,0.25,0.5566405680000001,0.01,0.0,111518.0,0.0,0.0,0.0,0.0,0.125,3.402099261,0.01,0.0,-105385.0,0.125,0.0,-0.0,0.0,0.25,1.6845701400000002,0.01,0.0,-0.1599999964237213,-0.4099999964237213,-34.439998626708984,-0.00750732421875,-0.00189208984375,1.02093505859375,36.310001373291016,0.0,0.0,-6.90130615234375,-2.8194732666015625,Closing,0.0,0.0,-189.0,0.0,0.0,0.0,0.0,0.0,
0.495984999999986,0.0,0.0,122102.0,0.0,0.0,0.0,0.0,0.25,0.849609288,0.01,0.0,-125465.0,0.0,0.0,-0.0,0.0,0.25,0.557861271,0.01,0.0,111518.0,0.0,0.0,0.0,0.0,0.125,3.400878558,0.01,0.0,-105385.0,0.125,0.0,-0.0,0.0,0.25,1.6845701400000002,0.01,0.0,-0.17000000178813934,-0.41999998688697815,-34.439998626708984,-0.0101318359375,-0.00244140625,1.0169677734375,36.310001373291016,0.0,-2.0,-6.90130615234375,-2.8194732666015625,Closing,0.0,0.0,-189.0,0.0,0.0,0.0,0.0,0.0,
0.6273859999999986,0.0,0.0,122102.0,0.0,0.0,0.0,0.0,0.25,0.850829991,0.01,0.0,-125465.0,0.0,0.0,-0.0,0.0,0.25,0.5566405680000001,0.01,0.0,111518.0,0.0,0.0,0.0,0.0,0.125,3.402099261,0.01,0.0,-105385.0,0.125,0.0,-0.0,0.0,0.25,1.6845701400000002,0.01,0.0,-0.17000000178813934,-0.41999998688697815,-34.439998626708984,-0.00872802734375,-0.0035400390625,1.02020263671875,36.279998779296875,0.0,0.0,-6.90130615234375,-2.8194732666015625,Closing,0.0,0.0,-189.0,0.0,0.0,0.0,0.0,0.0,
0.7646840000000084,0.0,0.0,122102.0,0.0,0.0,0.0,0.0,0.25,0.852050694,0.01,0.0,-125465.0,0.125,0.0,-0.0,0.0,0.25,0.557861271,0.01,0.0,111518.0,0.0,0.0,0.0,0.0,0.125,3.402099261,0.01,0.0,-105385.0,0.125,0.0,-0.0,0.0,0.25,1.6845701400000002,0.01,0.0,-0.17000000178813934,-0.41999998688697815,-34.439998626708984,-0.007080078125,-0.001708984375,1.018798828125,36.279998779296875,0.0,0.0,-6.90130615234375,-2.8194732666015625,Closing,0.0,0.0,-189.0,0.0,0.0,0.0,0.0,0.0,
0.8984439999999886,0.0,0.0,122102.0,0.0,0.0,0.0,0.0,0.25,0.852050694,0.01,0.0,-125465.0,0.125,0.0,-0.0,0.0,0.25,0.5566405680000001,0.01,0.0,111518.0,0.0,0.0,0.0,0.0,0.125,3.400878558,0.01,0.0,-105385.0,0.125,0.0,-0.0,0.0,0.25,1.6845701400000002,0.01,0.0,-0.17000000178813934,-0.41999998688697815,-34.439998626708984,-0.00775146484375,-0.00384521484375,1.01934814453125,36.279998779296875,0.0,0.0,-6.90130615234375,-2.8194732666015625,Closing,0.0,0.0,-189.0,0.0,0.0,0.0,0.0,0.0,
1.0299180000000052,0.0,0.0,122102.0,0.0,0.0,0.0,0.0,0.25,0.850829991,0.01,0.0,-125465.0,0.0,0.0,-0.0,0.0,0.25,0.5566405680000001,0.01,0.0,111518.0,0.0,0.0,0.0,0.0,0.125,3.402099261,0.01,0.0,-105385.0,0.0,0.0,-0.0,0.0,0.25,1.6845701400000002,0.01,0.0,-0.1599999964237213,-0.4300000071525574,-34.439998626708984,-0.005615234375,-0.00103759765625,1.02001953125,36.279998779296875,0.0,0.0,-6.90130615234375,-2.8194732666015625,Closing,0.0,0.0,-189.0,0.0,0.0,0.0,0.0,0.0,
1.1630309999999882,0.0,0.0,122102.0,0.0,0.0,0.0,0.0,0.25,0.852050694,0.01,0.0,-125465.0,0.0,0.0,-0.0,0.0,0.25,0.5566405680000001,0.01,0.0,111518.0,0.0,0.0,0.0,0.0,0.125,3.402099261,0.01,0.0,-105385.0,0.125,0.0,-0.0,0.0,0.25,1.6845701400000002,0.01,0.0,-0.17000000178813934,-0.41999998688697815,-34.439998626708984,-0.00592041015625,-0.00225830078125,1.02093505859375,36.25,0.0,0.0,-6.90130615234375,-2.8194732666015625,Closing,0.0,0.0,-189.0,0.0,0.0,0.0,0.0,0.0,
1.295883999999991,0.0,0.0,122102.0,0.0,0.0,0.0,0.0,0.25,0.852050694,0.01,0.0,-125465.0,0.0,0.0,-0.0,0.0,0.25,0.5566405680000001,0.01,0.0,111518.0,0.0,0.0,0.0,0.0,0.125,3.402099261,0.01,0.0,-105385.0,0.125,0.0,-0.0,0.0,0.25,1.6845701400000002,0.01,0.0,-0.17000000178813934,-0.41999998688697815,-34.439998626708984,-0.0089111328125,-0.00189208984375,1.02301025390625,36.25,0.0,-1.0,-6.90130615234375,-2.8194732666015625,Closing,0.0,0.0,-189.0,0.0,0.0,0.0,0.0,0.0,
1.427347999999998,0.0,0.0,122102.0,0.0,0.0,0.0,0.0,0.25,0.850829991,0.01,0.0,-125465.0,0.0,0.0,-0.0,0.0,0.25,0.5566405680000001,0.01,0.0,111518.0,0.0,0.0,0.0,0.0,0.125,3.402099261,0.01,0.0,-105385.0,0.125,0.0,-0.0,0.0,0.25,1.6845701400000002,0.01,0.0,-0.17000000178813934,-0.41999998688697815,-34.439998626708984,-0.0057373046875,-0.00177001953125,1.01605224609375,36.25,0.0,0.0,-6.90130615234375,-2.8194732666015625,Closing,0.0,0.0,-189.0,0.0,0.0,0.0,0.0,0.0,
1.5635709999999963,0.0,0.0,122102.0,0.0,0.0,0.0,0.0,0.25,0.852050694,0.01,0.0,-125465.0,0.0,0.0,-0.0,0.0,0.25,0.5554198650000001,0.01,0.0,111518.0,0.0,0.0,0.0,0.0,0.125,3.400878558,0.01,0.0,-105385.0,0.125,0.0,-0.0,0.0,0.25,1.6845701400000002,0.01,0.0,-0.17000000178813934,-0.4099999964237213,-34.439998626708984,-0.00628662109375,-0.001953125,1.02191162109375,36.25,0.0,0.0,-6.90130615234375,-2.8194732666015625,Closing,0.0,0.0,-189.0,0.0,0.0,0.0,0.0,0.0,
1.6974039999999804,0.0,0.0,122102.0,0.0,0.0,0.0,0.0,0.25,0.850829991,0.01,0.0,-125465.0,0.0,0.0,-0.0,0.0,0.25,0.5566405680000001,0.01,0.0,111518.0,0.0,0.0,0.0,0.0,0.125,3.402099261,0.01,0.0,-105385.0,0.125,0.0,-0.0,0.0,0.25,1.6845701400000002,0.01,0.0,-0.17000000178813934,-0.41999998688697815,-34.439998626708984,-0.00994873046875,-0.00244140625,1.01983642578125,36.279998779296875,0.0,-2.0,-6.90130615234375,-2.8194732666015625,Closing,0.0,0.0,-189.0,0.0,0.0,0.0,0.0,0.0,
1.826655999999988,0.0,0.0,122102.0,0.0,0.0,0.0,0.0,0.25,0.850829991,0.01,0.0,-125465.0,0.0,0.0,-0.0,0.0,0.25,0.5541991620000001,0.01,0.0,111518.0,0.0,0.0,0.0,0.0,0.125,3.402099261,0.01,0.0,-105385.0,0.0,0.0,-0.0,0.0,0.25,1.6845701400000002,0.01,0.0,-0.18000000715255737,-0.4300000071525574,-34.439998626708984,-0.00830078125,-6.103515625E-4,1.017578125,36.279998779296875,0.0,-1.0,-6.90130615234375,-2.8194732666015625,Closing,0.0,0.0,-189.0,0.0,0.0,0.0,0.0,0.0,
1.963877999999997,0.0,0.0,122102.0,0.0,0.0,0.0,0.0,0.25,0.852050694,0.01,0.0,-125465.0,0.0,0.0,-0.0,0.0,0.25,0.5566405680000001,0.01,0.0,111518.0,0.0,0.0,0.0,0.0,0.125,3.400878558,0.01,0.0,-105385.0,0.125,0.0,-0.0,0.0,0.25,1.6857908430000001,0.01,0.0,-0.17000000178813934,-0.4300000071525574,-34.439998626708984,-0.008544921875,3.662109375E-4,1.02508544921875,36.279998779296875,0.0,-2.0,-6.90130615234375,-2.8194732666015625,Closing,0.0,0.0,-189.0,0.0,0.0,0.0,0.0,0.0,
2.098872999999992,0.0,0.0,122102.0,0.0,0.0,0.0,0.0,0.25,0.848388585,0.01,0.0,-125465.0,0.0,0.0,-0.0,0.0,0.25,0.5566405680000001,0.01,0.0,111518.0,0.0,0.0,0.0,0.0,0.125,3.402099261,0.01,0.0,-105385.0,0.125,0.0,-0.0,0.0,0.25,1.6845701400000002,0.01,0.0,-0.17000000178813934,-0.4300000071525574,-34.439998626708984,-0.00982666015625,-0.0037841796875,1.0218505859375,36.279998779296875,0.0,-1.0,-6.90130615234375,-2.8194732666015625,Closing,0.0,0.0,-189.0,0.0,0.0,0.0,0.0,0.0,
2.2193669999999983,0.0,0.0,122102.0,0.0,0.0,0.0,0.0,0.25,0.852050694,0.01,0.0,-125465.0,0.125,0.0,-0.0,0.0,0.25,0.551757756,0.01,0.0,111518.0,0.0,0.0,0.0,0.0,0.125,3.400878558,0.01,0.0,-105385.0,0.125,0.0,-0.0,0.0,0.25,1.6845701400000002,0.01,0.0,-0.17000000178813934,-0.4300000071525574,-34.439998626708984,-0.00567626953125,-0.0032958984375,1.0203857421875,36.279998779296875,0.0,1.0,-6.90130615234375,-2.8194732666015625,Closing,0.0,0.0,-189.0,0.0,0.0,0.0,0.0,0.0,
2.363704999999987,0.0,0.0,122102.0,0.0,0.0,0.0,0.0,0.25,0.850829991,0.01,0.0,-125465.0,0.0,0.0,-0.0,0.0,0.25,0.557861271,0.01,0.0,111518.0,0.0,0.0,0.0,0.0,0.125,3.402099261,0.01,0.0,-105385.0,0.125,0.0,-0.0,0.0,0.25,1.6845701400000002,0.01,0.0,-0.17000000178813934,-0.4300000071525574,-34.439998626708984,-0.009765625,-0.00665283203125,1.01904296875,36.279998779296875,0.0,0.0,-6.90130615234375,-2.8194732666015625,Closing,0.0,0.0,-189.0,0.0,0.0,0.0,0.0,0.0,
2.4970869999999996,0.0,0.0,122102.0,0.0,0.0,0.0,0.0,0.25,0.852050694,0.01,0.0,-125465.0,0.0,0.0,-0.0,0.0,0.25,0.5566405680000001,0.01,0.0,111518.0,0.0,0.0,0.0,0.0,0.125,3.400878558,0.01,0.0,-105385.0,0.125,0.0,-0.0,0.0,0.25,1.6845701400000002,0.01,0.0,-0.17000000178813934,-0.4300000071525574,-34.439998626708984,-0.00677490234375,-0.0050048828125,1.02239990234375,36.279998779296875,0.0,1.0,-6.90130615234375,-2.8194732666015625,Closing,0.0,0.0,-189.0,0.0,0.0,0.0,0.0,0.0,
2.6319530000000086,0.0,0.0,122102.0,0.0,0.0,0.0,0.0,0.25,0.850829991,0.01,0.0,-125465.0,0.0,0.0,-0.0,0.0,0.25,0.5566405680000001,0.01,0.0,111518.0,0.0,0.0,0.0,0.0,0.125,3.402099261,0.01,0.0,-105385.0,0.125,0.0,-0.0,0.0,0.25,1.6845701400000002,0.01,0.0,-0.17000000178813934,-0.4300000071525574,-34.439998626708984,-0.00689697265625,-0.0020751953125,1.01544189453125,36.27000045776367,0.0,0.0,-6.90130615234375,-2.8194732666015625,Closing,0.0,0.0,-189.0,0.0,0.0,0.0,0.0,0.0,
2.7626820000000007,0.0,0.0,122102.0,0.375,0.0,-337.32282400131226,0.0,0.25,0.8544921000000001,4.932250999999998,0.0,-125465.0,0.625,22.5,337.32282400131226,0.0,0.25,0.5566405680000001,4.963769999999998,0.0,111518.0,0.375,-7.5,-337.32282400131226,0.0,0.125,3.402099261,0.01,0.0,-105385.0,0.75,0.0,337.32282400131226,0.0,0.25,1.6845701400000002,0.01,0.0,-0.17000000178813934,-0.44999998807907104,-34.439998626708984,-0.01409912109375,-0.00250244140625,1.0308837890625,36.27000045776367,0.0,-5.0,-6.90130615234375,-2.8194732666015625,Closing,0.0,0.0,-189.0,0.0,0.0,0.0,0.0,0.0,
2.881847000000009,0.0,0.0,122101.0,1.875,-7.5,-436.53545022010803,0.0,0.25,0.850829991,4.932250999999998,0.0,-125453.0,2.75,30.0,436.53545022010803,0.0,0.25,0.551757756,4.963769999999998,0.0,111494.0,1.5,-112.5,-436.53545022010803,0.0,0.125,3.400878558,0.01,0.0,-105380.0,1.75,22.5,436.53545022010803,0.0,0.25,1.6845701400000002,0.01,0.0,-0.17000000178813934,-0.5799999833106995,-34.459999084472656,-0.0634765625,0.00396728515625,1.054931640625,36.27000045776367,0.0,-47.0,-6.9016571044921875,-2.82000732421875,Closing,0.0,0.0,-189.0,0.0,0.0,0.0,0.0,0.0,
3.029372999999992,0.0,0.0,122095.0,4.125,-127.5,-595.2756071090697,0.0,0.25,0.850829991,4.932250999999998,0.0,-125428.0,7.625,150.0,595.2756071090697,0.0,0.25,0.545654241,4.963769999999998,0.0,111472.0,3.0,-127.5,-595.2756071090697,0.0,0.125,3.400878558,0.01,0.0,-105360.0,3.375,157.5,595.2756071090697,0.0,0.25,1.6613767830000001,0.01,0.0,-0.23999999463558197,-1.2599999904632568,-34.5,-0.1512451171875,-0.04888916015625,0.95672607421875,36.27000045776367,0.0,-81.0,-6.908233642578125,-2.8264007568359375,Closing,0.0,0.0,-189.0,0.0,0.0,0.0,0.0,0.0,
3.162820999999996,0.0,0.0,122063.0,4.875,-352.5,-714.3307435512543,0.0,0.25,0.850829991,4.932250999999998,0.0,-125368.0,7.75,397.5,714.3307435512543,0.0,0.25,0.5419921320000001,4.963769999999998,0.0,111416.0,4.375,-360.0,-714.3307435512543,0.0,0.125,3.400878558,0.01,0.0,-105305.0,4.125,390.0,714.3307435512543,0.0,0.25,1.6540525650000002,0.01,0.0,-0.30000001192092896,-1.9500000476837158,-34.52000045776367,-0.14453125,0.04327392578125,0.95849609375,36.310001373291016,0.0,-119.0,-6.9237213134765625,-2.8401031494140625,Closing,0.0,0.0,-189.0,0.0,0.0,0.0,0.0,0.0,
3.291052999999985,0.0,0.0,121889.0,5.0,-592.5,-892.9134106636047,0.0,0.25,0.850829991,4.932250999999998,0.0,-125270.0,8.125,630.0,892.9134106636047,0.0,0.25,0.538330023,4.963769999999998,0.0,111322.0,4.625,-607.5,-892.9134106636047,0.0,0.125,3.402099261,0.01,0.0,-105216.0,4.625,615.0,892.9134106636047,0.0,0.125,1.645507644,0.01,0.0,-0.38999998569488525,-2.549999952316284,-34.54999923706055,-0.21405029296875,0.00958251953125,0.95941162109375,36.310001373291016,0.0,-150.0,-6.951202392578125,-2.8629150390625,Closing,0.0,0.0,-189.0,0.0,0.0,0.0,0.0,0.0,
3.3498059999999823,0.0,0.0,121889.0,4.75,-780.0,-972.2834515571594,0.0,0.25,0.850829991,4.932250999999998,0.0,-125137.0,7.125,817.5,972.2834515571594,0.0,0.25,0.53710932,4.963769999999998,0.0,111193.0,4.125,-795.0,-972.2834515571594,0.0,0.125,3.397216449,0.01,0.0,-105093.0,4.125,795.0,972.2834515571594,0.0,0.25,1.652831862,0.01,0.0,-0.41999998688697815,-2.9200000762939453,-34.58000183105469,-0.13427734375,-0.02667236328125,1.2012939453125,36.310001373291016,0.0,-49.0,-6.9800262451171875,-2.867218017578125,Closing,0.0,0.0,-189.0,0.0,0.0,0.0,0.0,0.0,
3.4960259999999836,0.0,0.0,121751.0,3.625,-922.5,-992.1259617805481,0.0,0.25,0.8532713970000001,4.932250999999998,0.0,-124983.0,5.625,945.0,992.1259617805481,0.0,0.25,0.527343696,4.963769999999998,0.0,111040.0,3.375,-945.0,-992.1259617805481,0.0,0.125,3.395995746,0.01,0.0,-104945.0,3.5,922.5,992.1259617805481,0.0,0.25,1.645507644,0.01,0.0,-0.5199999809265137,-3.0299999713897705,-34.630001068115234,-0.05145263671875,0.07843017578125,1.03826904296875,36.310001373291016,0.0,-47.0,-7.00738525390625,-2.871551513671875,Closing,0.0,0.0,-189.0,0.0,0.0,0.0,0.0,0.0,
3.5640069999999833,0.0,0.0,121595.0,3.25,-975.0,-992.1259617805481,0.0,0.25,0.850829991,4.932250999999998,0.0,-124983.0,4.25,1005.0,992.1259617805481,0.0,0.125,0.527343696,4.963769999999998,0.0,111040.0,3.125,-975.0,-992.1259617805481,0.0,0.125,3.388671528,0.01,0.0,-104945.0,3.125,975.0,992.1259617805481,0.0,0.25,1.64794905,0.01,0.0,-0.4699999988079071,-2.940000057220459,-34.75,-0.04107666015625,0.0576171875,0.87896728515625,36.310001373291016,0.0,-33.0,-7.0307464599609375,-2.87298583984375,Closing,0.0,0.0,-189.0,0.0,0.0,0.0,0.0,0.0,
3.680975000000006,0.0,0.0,121425.0,2.5,-1057.5,-992.1259617805481,0.0,0.25,0.848388585,4.932250999999998,0.0,-124811.0,2.875,1072.5,992.1259617805481,0.0,0.125,0.527343696,4.963769999999998,0.0,110877.0,2.125,-1050.0,-992.1259617805481,0.0,0.125,3.397216449,0.01,0.0,-104781.0,2.625,1042.5,992.1259617805481,0.0,0.25,1.651611159,0.01,0.0,-0.4099999964237213,-2.890000104904175,-34.779998779296875,-0.10064697265625,0.05364990234375,1.18353271484375,36.22999954223633,0.0,-69.0,-7.06805419921875,-2.873077392578125,Closing,0.0,0.0,-189.0,0.0,0.0,0.0,0.0,0.0,
3.7633789999999863,0.0,0.0,121425.0,1.625,-1080.0,-992.1259617805481,0.0,0.25,0.850829991,4.932250999999998,0.0,-124639.0,2.5,1080.0,992.1259617805481,0.0,0.125,0.538330023,4.963769999999998,0.0,110705.0,1.75,-1072.5,-992.1259617805481,0.0,0.125,3.397216449,0.01,0.0,-104613.0,2.25,1050.0,992.1259617805481,0.0,0.25,1.646728347,0.01,0.0,-0.3400000035762787,-2.859999895095825,-34.779998779296875,-0.07666015625,-0.09619140625,1.36376953125,36.22999954223633,0.0,43.0,-7.077362060546875,-2.8727264404296875,Closing,0.0,0.0,-189.0,0.0,0.0,0.0,0.0,0.0,
3.894609999999986,0.0,0.0,121076.0,1.25,-1080.0,-992.1259617805481,0.0,0.25,0.850829991,4.932250999999998,0.0,-124463.0,1.875,1080.0,992.1259617805481,0.0,0.25,0.5419921320000001,4.963769999999998,0.0,110532.0,1.0,-1080.0,-992.1259617805481,0.0,0.125,3.397216449,0.01,0.0,-104441.0,1.875,1042.5,992.1259617805481,0.0,0.25,1.644286941,0.01,0.0,-0.3199999928474426,-2.680000066757202,-34.720001220703125,-0.01678466796875,-0.0233154296875,1.1378173828125,36.22999954223633,0.0,39.0,-7.0752716064453125,-2.8702239990234375,Closing,0.0,0.0,-189.0,0.0,0.0,0.0,0.0,0.0,
4.015318,0.0,0.0,120905.0,1.0,-1065.0,-992.1259617805481,0.0,0.25,0.850829991,4.932250999999998,0.0,-124294.0,1.75,1057.5,992.1259617805481,0.0,0.25,0.5419921320000001,4.963769999999998,0.0,110359.0,0.875,-1080.0,-992.1259617805481,0.0,0.125,3.395995746,0.01,0.0,-104279.0,2.0,1027.5,992.1259617805481,0.0,0.25,1.645507644,0.01,0.0,-0.3499999940395355,-2.3499999046325684,-34.70000076293945,0.00909423828125,-0.13079833984375,0.87811279296875,36.22999954223633,0.0,108.0,-7.0695037841796875,-2.866729736328125,Closing,0.0,0.0,-189.0,0.0,0.0,0.0,0.0,0.0,
4.164225999999995,0.0,0.0,120732.0,0.75,-1065.0,-992.1259617805481,0.0,0.25,0.850829991,4.932250999999998,0.0,-124124.0,1.5,1057.5,992.1259617805481,0.0,0.25,0.5407714290000001,4.963769999999998,0.0,110187.0,0.875,-1042.5,-992.1259617805481,0.0,0.125,3.392333637,0.01,0.0,-104114.0,1.875,1012.5,992.1259617805481,0.0,0.25,1.646728347,0.01,0.0,-0.23999999463558197,-2.0399999618530273,-34.61000061035156,0.12091064453125,0.05792236328125,0.81536865234375,36.22999954223633,0.0,88.0,-7.0652313232421875,-2.86151123046875,Closing,0.0,0.0,-189.0,0.0,0.0,0.0,0.0,0.0,
4.2933770000000075,0.0,0.0,120569.0,0.75,-1012.5,-992.1259617805481,0.0,0.25,0.850829991,4.932250999999998,0.0,-123958.0,1.5,1020.0,992.1259617805481,0.0,0.25,0.5407714290000001,4.963769999999998,0.0,110022.0,0.875,-1012.5,-992.1259617805481,0.0,0.125,3.392333637,0.01,0.0,-103947.0,1.875,1020.0,992.1259617805481,0.0,0.25,1.650390456,0.01,0.0,-0.14000000059604645,-1.8300000429153442,-34.63999938964844,0.06048583984375,-9.765625E-4,0.952880859375,36.22999954223633,0.0,73.0,-7.0631256103515625,-2.8585052490234375,Closing,0.0,0.0,-189.0,0.0,0.0,0.0,0.0,0.0,
4.428350999999995,0.0,0.0,120406.0,0.75,-1005.0,-992.1259617805481,0.0,0.25,0.8544921000000001,4.932250999999998,0.0,-123794.0,1.625,997.5,992.1259617805481,0.0,0.25,0.539550726,4.963769999999998,0.0,109862.0,0.875,-1005.0,-992.1259617805481,0.0,0.125,3.392333637,0.01,0.0,-103625.0,1.875,1012.5,992.1259617805481,0.0,0.25,1.64794905,0.01,0.0,-0.25,-1.600000023841858,-34.439998626708984,0.02593994140625,-0.03900146484375,0.8212890625,36.22999954223633,0.0,60.0,-7.05670166015625,-2.85382080078125,Closing,0.0,0.0,-189.0,0.0,0.0,0.0,0.0,0.0,
4.562703999999998,0.0,0.0,120247.0,1.0,-982.5,-992.1259617805481,0.0,0.25,0.850829991,4.932250999999998,0.0,-123635.0,1.75,997.5,992.1259617805481,0.0,0.25,0.539550726,4.963769999999998,0.0,109701.0,1.0,-975.0,-992.1259617805481,0.0,0.125,3.39355434,0.01,0.0,-103472.0,2.0,960.0,992.1259617805481,0.0,0.25,1.645507644,0.01,0.0,-0.20000000298023224,-1.309999942779541,-34.400001525878906,-0.00872802734375,-0.01806640625,0.78106689453125,36.22999954223633,0.0,16.0,-7.0460968017578125,-2.8472137451171875,Closing,0.0,0.0,-189.0,0.0,0.0,0.0,0.0,0.0,
4.692723999999988,0.0,0.0,120089.0,0.75,-997.5,-992.1259617805481,0.0,0.25,0.852050694,4.932250999999998,0.0,-123320.0,2.0,967.5,992.1259617805481,0.0,0.25,0.5419921320000001,4.963769999999998,0.0,109386.0,1.0,-990.0,-992.1259617805481,0.0,0.125,3.391112934,0.01,0.0,-103308.0,1.625,1020.0,992.1259617805481,0.0,0.25,1.645507644,0.01,0.0,-0.07000000029802322,-1.0700000524520874,-34.220001220703125,0.09686279296875,-0.08355712890625,0.8194580078125,36.27000045776367,0.0,139.0,-7.0444183349609375,-2.8376312255859375,Closing,0.0,0.0,-189.0,0.0,0.0,0.0,0.0,0.0,
4.828595000000001,0.0,0.0,119929.0,0.125,-877.5,-643.2218512353713,0.0,1.125,0.418701129,4.333982829237934,0.0,-123139.0,10.125,1102.5,1582.5636656968327,0.0,0.25,0.380859336,4.739047678995919,0.0,109259.0,0.375,-780.0,-643.2218512353713,0.0,0.5,3.7768550820000004,0.5992566215370854,0.0,-103137.0,7.375,1072.5,1582.5636656968327,0.0,0.375,1.704101388,0.2244610986283068,0.0,0.27000001072883606,-1.0099999904632568,-35.04999923706055,0.018310546875,-0.0155029296875,0.80792236328125,36.27000045776367,0.0,37.0,-7.0411529541015625,-2.832489013671875,Closing,0.0,0.0,-189.0,0.0,0.0,0.0,0.0,0.0,
4.951195000000007,0.0,0.0,119809.0,0.375,-705.0,-641.0626822833908,0.0,0.25,4.896239733000001,4.193428071898438,0.0,-122909.0,8.625,1462.5,1688.2526478698928,0.0,0.25,0.19409177700000002,4.717330353636246,0.0,109159.0,1.0,-600.0,-641.0626822833908,0.0,0.125,4.147948794,0.7400436015914351,0.0,-102930.0,8.125,1320.0,1688.2526478698928,0.0,0.375,1.8627927780000002,0.24615317927129812,0.0,0.38999998569488525,-0.3499999940395355,-41.810001373291016,-0.047607421875,-0.090576171875,1.2332763671875,36.27000045776367,0.0,36.0,-7.031524658203125,-2.827362060546875,Closing,0.0,0.0,-189.0,0.0,0.0,0.0,0.0,0.0,
5.0273770000000075,0.0,0.0,119698.0,0.375,-675.0,-641.0626822833908,0.0,0.5,4.82177685,4.193428071898438,0.0,-122909.0,6.0,1590.0,1688.2526478698928,0.0,0.25,0.18432615300000002,4.717330353636246,0.0,109159.0,1.25,-540.0,-641.0626822833908,0.0,0.25,4.19921832,0.7400436015914351,0.0,-102930.0,7.375,1477.5,1688.2526478698928,0.0,0.125,1.906738086,0.24615317927129812,0.0,0.09000000357627869,-0.4099999964237213,-46.59000015258789,0.033935546875,0.011962890625,1.13604736328125,36.27000045776367,0.0,21.0,-7.02362060546875,-2.8275146484375,Closing,0.0,0.0,-189.0,0.0,0.0,0.0,0.0,0.0,
5.163538999999989,0.0,0.0,119590.0,0.375,-675.0,-641.0626822833908,0.0,0.375,0.015869139,4.193428071898438,0.0,-122646.0,4.375,1672.5,1688.2526478698928,0.0,0.25,0.222167946,4.717330353636246,0.0,109058.0,1.25,-607.5,-641.0626822833908,0.0,0.125,4.127196843,0.7400436015914351,0.0,-102431.0,6.375,1582.5,1688.2526478698928,0.0,0.25,1.901855274,0.24615317927129812,0.0,-0.550000011920929,-0.5799999833106995,-58.150001525878906,-0.0260009765625,-0.0849609375,1.01763916015625,36.25,0.0,55.0,-6.9996185302734375,-2.8360443115234375,Closing,0.0,0.0,-189.0,0.0,0.0,0.0,0.0,0.0,
5.293163000000001,0.0,0.0,119484.0,0.375,-645.0,-641.0626822833908,0.0,0.25,0.07446288300000001,4.193428071898438,0.0,-122099.0,3.75,1702.5,1688.2526478698928,0.0,0.25,0.24047849100000002,4.717330353636246,0.0,108873.0,1.875,-592.5,-641.0626822833908,0.0,0.125,4.097899971,0.7400436015914351,0.0,-102163.0,5.75,1657.5,1688.2526478698928,0.0,0.25,1.8920896500000002,0.24615317927129812,0.0,-1.2799999713897705,-1.0800000429153442,-70.73999786376953,-0.15093994140625,-0.17144775390625,0.980224609375,36.25,0.0,97.0,-6.9639739990234375,-2.858795166015625,Closing,0.0,0.0,-189.0,0.0,0.0,0.0,0.0,0.125,
5.426415000000008,0.0,0.0,119378.0,0.125,-637.5,-496.270222659987,0.0,1.0,0.175781232,4.549256722154937,0.0,-121864.0,0.125,1470.0,1017.2533835178344,0.0,0.25,0.261230442,4.781489904885403,0.0,108777.0,1.0,-592.5,-496.270222659987,0.0,0.625,4.000243731,0.383627055935667,0.0,-101917.0,0.75,1567.5,1017.2533835178344,0.0,0.25,1.8408201240000002,0.1820682085548231,0.0,-1.6399999856948853,-1.0199999809265137,-80.55999755859375,0.048095703125,-0.1290283203125,0.7425537109375,36.25,0.0,116.0,-6.9275360107421875,-2.8829498291015625,Closing,0.0,0.0,-189.0,0.0,0.0,0.0,0.0,0.0,
5.563236000000004,0.0,0.0,119281.0,0.0,-480.0,0.0,0.0,0.375,0.46142573400000003,4.549256722154937,0.0,-121633.0,0.125,1447.5,0.0,0.0,0.25,0.308837859,4.781489904885403,0.0,108720.0,0.0,-322.5,0.0,0.0,0.125,3.666991812,0.383627055935667,0.0,-101690.0,0.125,1402.5,0.0,0.0,0.25,1.7907713010000001,0.1820682085548231,0.0,-1.8899999856948853,-1.0299999713897705,-89.23999786376953,-0.07421875,-0.109619140625,0.88031005859375,36.25,0.0,79.0,-6.87677001953125,-2.9075164794921875,Closing,0.0,0.0,-189.0,0.0,0.0,0.0,0.0,0.0,
5.613862999999983,0.0,0.0,119200.0,0.0,-517.5,0.0,0.0,0.5,0.5541991620000001,4.549256722154937,0.0,-121633.0,0.0,1282.5,0.0,0.0,0.25,0.334472622,4.781489904885403,0.0,108720.0,0.0,-352.5,0.0,0.0,0.25,3.565673463,0.383627055935667,-0.3247069979999999,-101690.0,0.125,1260.0,0.0,0.0,0.125,1.772460756,0.1820682085548231,-0.04516601099999984,-2.059999942779541,-1.0299999713897705,-91.83000183105469,0.29156494140625,-0.1585693359375,1.305419921875,36.25,0.0,101.0,-6.852264404296875,-2.9168701171875,Closing,0.0,0.0,-189.0,0.0,0.0,0.0,0.0,0.0,
5.670046000000002,0.0,0.0,119200.0,0.125,-570.0,-248.03150296211243,0.0,0.375,0.57373041,0.5498168668524864,0.08789061600000014,-121459.0,3.375,1155.0,-248.03150296211243,0.0,0.125,0.334472622,4.41043958977222,0.0,108653.0,0.375,-405.0,-248.03150296211243,0.0,0.125,3.555907839,4.389674732977291,0.0,-101506.0,3.375,1117.5,-248.03150296211243,0.0,0.25,1.777343568,0.552687206278561,0.0,-2.319999933242798,1.0,-92.05000305175781,1.3009033203125,-0.35040283203125,1.28033447265625,36.22999954223633,0.0,252.0,-6.8316497802734375,-2.9163970947265625,Closing,0.0,0.0,-189.0,0.0,0.0,0.0,0.0,0.0,
5.71975,0.0,0.0,119131.0,0.75,-412.5,-1405.5117666721346,0.0,4.0,0.761718672,0.5498168668524864,0.0,-121459.0,12.25,232.5,-1405.5117666721346,0.0,0.5,0.324706998,4.41043958977222,0.0,108653.0,1.75,-225.0,-1405.5117666721346,0.0,4.0,3.358153953,4.389674732977291,0.0,-101506.0,9.625,322.5,-1405.5117666721346,0.0,0.875,1.857909966,0.552687206278561,0.006103514999999948,-2.930000066757202,2.869999885559082,-90.81999969482422,0.5989990234375,0.110595703125,0.4813232421875,36.22999954223633,0.0,-143.0,-6.8077850341796875,-2.9033355712890625,Closing,0.0,0.0,-189.0,0.0,0.0,0.0,0.0,0.0,
5.773654999999999,0.0,0.0,119131.0,3.625,-255.0,-1653.5432696342468,0.0,2.0,1.027831926,0.5498168668524864,0.0,-121654.0,9.125,-1095.0,-1653.5432696342468,0.0,0.5,0.159912093,4.41043958977222,0.0,108646.0,14.75,-37.5,-1653.5432696342468,0.0,1.125,3.0126950040000002,4.389674732977291,0.0,-101578.0,13.25,-600.0,-1653.5432696342468,0.0,0.375,2.077636506,0.552687206278561,0.0,-1.690000057220459,3.0899999141693115,-88.63999938964844,0.14068603515625,0.36932373046875,0.24664306640625,36.22999954223633,0.0,-373.0,-6.77484130859375,-2.8720855712890625,Closing,0.0,0.0,-189.0,0.0,0.0,0.0,0.0,0.0,
5.840543000000005,0.0,0.0,119115.0,8.25,-97.5,0.0,0.0,1.875,1.19628894,0.5498168668524864,-4.629516656,-121654.0,5.0,-1012.5,0.0,0.0,0.5,0.056152338,4.41043958977222,-0.16235349899999996,108646.0,9.0,-67.5,0.0,0.0,0.5,2.88085908,4.389674732977291,-0.314941374,-101578.0,6.875,-697.5,0.0,0.0,0.375,2.18505837,0.552687206278561,0.19531248000000012,-1.0299999713897705,2.119999885559082,-86.9800033569336,-0.0548095703125,0.1414794921875,1.1494140625,36.22999954223633,0.0,-167.0,-6.7596893310546875,-2.855926513671875,Closing,0.0,0.0,-189.0,0.0,0.0,0.0,0.0,0.0,
5.886198000000004,0.0,0.0,119115.0,0.0,-52.5,0.0,0.0,1.125,1.280517447,0.5498168668524864,0.12084959700000009,-121702.0,0.25,-547.5,0.0,0.0,0.25,4.948729962000001,4.41043958977222,-0.10131834900000047,108636.0,0.0,-82.5,0.0,0.0,0.125,2.818603227,4.389674732977291,-0.12451170599999983,-101655.0,0.125,-525.0,0.0,0.0,0.25,2.236327896,0.552687206278561,0.10620116099999999,-0.9599999785423279,1.409999966621399,-84.70999908447266,-0.2677001953125,-0.25433349609375,1.5787353515625,36.22999954223633,0.0,198.0,-6.7412567138671875,-2.838531494140625,Closing,0.0,0.0,-189.0,0.0,0.0,0.0,0.0,0.0,
5.941964000000008,0.0,0.0,119106.0,0.0,-37.5,0.0,0.0,0.375,1.334228379,0.5498168668524864,0.08789061600000014,-121702.0,0.0,-90.0,0.0,0.0,0.25,4.940185041,4.41043958977222,4.896239733000001,108636.0,0.0,-112.5,0.0,0.0,0.125,2.813720415,4.389674732977291,-0.05737304099999996,-101655.0,0.0,-345.0,0.0,0.0,0.25,2.236327896,0.552687206278561,0.05493163499999998,-1.5499999523162842,1.0499999523162842,-82.9000015258789,-0.0869140625,-0.1763916015625,1.25274658203125,36.22999954223633,0.0,127.0,-6.7136993408203125,-2.822479248046875,Closing,0.0,0.0,-189.0,0.0,0.0,0.0,0.0,0.0,
6.014174999999988,0.0,0.0,119106.0,0.0,-165.0,0.0,0.0,0.125,1.3427733000000002,0.5498168668524864,0.04394530799999985,-121720.0,0.0,-90.0,0.0,0.0,0.125,4.938964338,4.41043958977222,-0.004882811999999959,108597.0,0.0,-217.5,0.0,0.0,0.125,2.808837603,4.389674732977291,0.0,-101695.0,0.125,-225.0,0.0,0.0,0.25,2.236327896,0.552687206278561,0.0,-1.5700000524520874,1.2300000190734863,-82.22000122070312,0.03436279296875,-0.0234375,1.1124267578125,36.22999954223633,0.0,-5.0,-6.6952972412109375,-2.81427001953125,Closing,0.0,0.0,-189.0,0.0,0.0,0.0,0.0,0.0,
6.164092000000005,0.0,0.0,119073.0,0.0,-37.5,0.0,0.0,0.25,1.3476561120000001,0.5498168668524864,0.0,-121726.0,0.0,-30.0,0.0,0.0,0.125,4.935302229,4.41043958977222,0.0,108595.0,0.0,0.0,0.0,0.0,0.0,2.813720415,4.389674732977291,0.0,-101700.0,0.125,-30.0,0.0,0.0,0.25,2.227782975,0.552687206278561,0.0,-1.1699999570846558,1.2000000476837158,-81.5999984741211,-0.0560302734375,-0.0537109375,1.0458984375,36.22999954223633,0.0,20.0,-6.6398773193359375,-2.78424072265625,Closing,0.0,0.0,-189.0,0.0,0.0,0.0,0.0,0.0,
6.228354999999981,0.0,0.0,119072.0,0.125,0.0,-248.03150296211243,0.0,0.25,1.3476561120000001,0.5498168668524864,0.0,-121726.0,0.125,-7.5,-248.03150296211243,0.0,0.125,4.935302229,4.41043958977222,0.0,108595.0,0.125,0.0,-248.03150296211243,0.0,0.0,2.811279009,4.389674732977291,0.0,-101700.0,0.375,-7.5,-248.03150296211243,0.0,0.25,2.2180173510000003,0.552687206278561,0.0,-1.1799999475479126,1.0299999713897705,-81.8499984741211,-0.01654052734375,0.04144287109375,0.98748779296875,36.189998626708984,0.0,-66.0,-6.61273193359375,-2.7711639404296875,Closing,0.0,0.0,-189.0,0.0,0.0,0.0,0.0,0.0,
6.2701460000000075,0.0,0.0,119072.0,0.125,-7.5,-347.2440853714943,0.0,0.25,1.3476561120000001,0.5498168668524864,0.0,-121737.0,0.125,-82.5,-347.2440853714943,0.0,0.125,4.932860823,4.41043958977222,0.0,108590.0,0.375,-45.0,-347.2440853714943,0.0,0.0,2.814941118,4.389674732977291,0.0,-101702.0,0.375,-7.5,-347.2440853714943,0.0,0.25,2.213134539,0.552687206278561,0.0,-1.0399999618530273,0.949999988079071,-81.91999816894531,0.00787353515625,-0.01129150390625,1.06744384765625,36.189998626708984,0.0,-9.0,-6.5921783447265625,-2.76141357421875,Closing,0.0,0.0,-189.0,0.0,0.0,0.0,0.0,0.0,
6.328543999999995,0.0,0.0,119063.0,0.0,-67.5,0.0,0.0,0.25,1.3476561120000001,0.5498168668524864,0.0,-121737.0,0.25,-135.0,0.0,0.0,0.125,4.932860823,4.41043958977222,0.0,108590.0,0.125,-82.5,0.0,0.0,0.0,2.810058306,4.389674732977291,-0.0012207029999995456,-101702.0,0.125,-15.0,0.0,0.0,0.25,2.213134539,0.552687206278561,-0.003662109000000413,-1.059999942779541,0.9399999976158142,-81.7699966430664,-0.0302734375,-0.04779052734375,0.88134765625,36.189998626708984,0.0,24.0,-6.5767364501953125,-2.7545928955078125,Closing,0.0,0.0,-189.0,0.0,0.0,0.0,0.0,0.0,
6.379277999999991,0.0,0.0,119063.0,0.0,-82.5,0.0,0.0,0.25,1.3476561120000001,0.5498168668524864,0.0,-121749.0,0.125,-75.0,0.0,0.0,0.125,4.932860823,4.41043958977222,0.0,108582.0,0.0,-37.5,0.0,0.0,0.0,2.814941118,4.389674732977291,0.0,-101703.0,0.125,-7.5,0.0,0.0,0.25,2.213134539,0.552687206278561,-0.0012207029999999897,-1.0199999809265137,0.8500000238418579,-81.55000305175781,-0.0262451171875,0.00665283203125,0.97503662109375,36.189998626708984,0.0,-29.0,-6.5612030029296875,-2.748321533203125,Closing,0.0,0.0,-189.0,0.0,0.0,0.0,0.0,0.0,
6.435566999999981,0.0,0.0,119058.0,0.0,0.0,0.0,0.0,0.25,1.3476561120000001,0.5498168668524864,0.0,-121749.0,0.0,0.0,0.0,0.0,0.125,4.932860823,4.41043958977222,0.0,108582.0,0.0,0.0,0.0,0.0,0.0,2.814941118,4.389674732977291,0.0012207029999995456,-101703.0,0.125,0.0,0.0,0.0,0.25,2.213134539,0.552687206278561,0.0,-0.9399999976158142,0.7599999904632568,-81.47000122070312,-0.02886962890625,-0.00946044921875,1.033203125,36.189998626708984,0.0,-13.0,-6.5411224365234375,-2.74072265625,Closing,0.0,0.0,-189.0,0.0,0.0,0.0,0.0,0.0,
6.506350999999995,0.0,0.0,119058.0,0.0,0.0,0.0,0.0,0.25,1.3476561120000001,0.5498168668524864,0.0,-121749.0,0.0,0.0,0.0,0.0,0.125,4.935302229,4.41043958977222,0.0,108582.0,0.0,0.0,0.0,0.0,0.0,2.808837603,4.389674732977291,-0.003662108999999525,-101703.0,0.125,0.0,0.0,0.0,0.25,2.213134539,0.552687206278561,0.0,-0.9399999976158142,0.7400000095367432,-81.5999984741211,0.00128173828125,-0.0078125,0.9903564453125,36.189998626708984,0.0,-10.0,-6.5410308837890625,-2.739013671875,Closing,0.0,0.0,-189.0,0.0,0.0,0.0,0.0,0.0,
6.571043000000005,0.0,0.0,119058.0,0.0,0.0,0.0,0.0,0.25,1.3476561120000001,0.5498168668524864,0.0,-121749.0,0.0,0.0,0.0,0.0,0.125,4.934081526,4.41043958977222,0.0,108582.0,0.0,0.0,0.0,0.0,0.0,2.808837603,4.389674732977291,0.0012207029999995456,-101703.0,0.0,0.0,0.0,0.0,0.25,2.213134539,0.552687206278561,0.0,-0.8700000047683716,0.6299999952316284,-81.66999816894531,-0.0286865234375,0.01025390625,1.01568603515625,36.189998626708984,0.0,-31.0,-6.541412353515625,-2.7396697998046875,Closing,0.0,0.0,-189.0,0.0,0.0,0.0,0.0,0.0,
6.633092000000004,0.0,0.0,119058.0,0.75,-7.5,-760.6299340724945,0.0,0.125,1.357421736,0.5498168668524864,0.0,-121749.0,1.625,-7.5,-760.6299340724945,0.0,0.125,4.932860823,4.41043958977222,0.0,108582.0,1.0,0.0,-760.6299340724945,0.0,0.0,2.813720415,4.389674732977291,0.0,-101703.0,0.625,0.0,-760.6299340724945,0.0,0.25,2.204589618,0.552687206278561,0.0,-0.8700000047683716,0.5600000023841858,-81.61000061035156,-0.05523681640625,-0.0291748046875,1.011474609375,36.189998626708984,0.0,4.0,-6.541595458984375,-2.7410888671875,Closing,0.0,0.0,-189.0,0.0,0.0,0.0,0.0,0.0,
6.703489999999991,0.0,0.0,119052.0,0.625,-67.5,0.0,0.0,0.125,1.362304548,0.5498168668524864,0.009765623999999917,-121749.0,2.25,-67.5,0.0,0.0,0.125,4.929198714,4.41043958977222,0.0,108582.0,0.625,-82.5,0.0,0.0,0.0,2.810058306,4.389674732977291,0.0024414059999999793,-101703.0,0.5,-97.5,0.0,0.0,0.25,2.207031024,0.552687206278561,0.0,-0.7900000214576721,0.5199999809265137,-81.0999984741211,-0.07244873046875,0.0570068359375,1.04425048828125,36.119998931884766,0.0,-83.0,-6.54241943359375,-2.7431182861328125,Closing,0.0,0.0,-189.0,0.0,0.0,0.0,0.0,0.0,
6.764959000000003,0.0,0.0,119052.0,0.0,-45.0,0.0,0.0,0.25,1.364745954,0.5498168668524864,0.0,-121759.0,0.0,-60.0,0.0,0.0,0.125,4.929198714,4.41043958977222,0.0,108570.0,0.0,-52.5,0.0,0.0,0.0,2.814941118,4.389674732977291,0.0,-101726.0,0.125,-150.0,0.0,0.0,0.25,2.208251727,0.552687206278561,0.0,-0.6800000071525574,0.4300000071525574,-80.4800033569336,-0.04302978515625,-0.0079345703125,1.0418701171875,36.119998931884766,0.0,-12.0,-6.54449462890625,-2.745452880859375,Closing,0.0,0.0,-189.0,0.0,0.0,0.0,0.0,0.0,
6.827206999999995,0.0,0.0,119048.0,0.0,0.0,0.0,0.0,0.25,1.362304548,0.5498168668524864,0.0,-121759.0,0.0,0.0,0.0,0.0,0.125,4.929198714,4.41043958977222,0.0,108570.0,0.0,0.0,0.0,0.0,0.0,2.808837603,4.389674732977291,0.0,-101726.0,0.125,-7.5,0.0,0.0,0.25,2.208251727,0.552687206278561,0.0,-0.7300000190734863,0.4000000059604645,-80.2300033569336,0.00634765625,-0.00909423828125,1.02874755859375,36.119998931884766,0.0,19.0,-6.5471649169921875,-2.748931884765625,Closing,0.0,0.0,-189.0,0.0,0.0,0.0,0.0,0.0,
6.878706999999995,0.0,0.0,119048.0,0.0,0.0,0.0,0.0,0.25,1.362304548,0.5498168668524864,0.0,-121759.0,0.0,0.0,0.0,0.0,0.125,4.930419417,4.41043958977222,0.0,108570.0,0.0,0.0,0.0,0.0,0.0,2.808837603,4.389674732977291,0.0,-101726.0,0.125,0.0,0.0,0.0,0.25,2.208251727,0.552687206278561,0.0,-0.7099999785423279,0.4099999964237213,-80.27999877929688,0.0093994140625,0.0191650390625,1.02667236328125,36.119998931884766,0.0,-31.0,-6.5472564697265625,-2.748931884765625,Closing,0.0,0.0,-189.0,0.0,0.0,0.0,0.0,0.0,
6.927975999999995,0.0,0.0,119048.0,0.0,0.0,0.0,0.0,0.25,1.362304548,0.5498168668524864,0.0,-121759.0,0.0,0.0,0.0,0.0,0.125,4.930419417,4.41043958977222,0.0,108570.0,0.0,0.0,0.0,0.0,0.0,2.808837603,4.389674732977291,0.0,-101726.0,0.125,0.0,0.0,0.0,0.25,2.208251727,0.552687206278561,0.0,-0.6200000047683716,0.3499999940395355,-80.5,-0.02667236328125,0.01776123046875,1.03515625,36.119998931884766,0.0,-34.0,-6.5480499267578125,-2.74896240234375,Closing,0.0,0.0,-189.0,0.0,0.0,0.0,0.0,0.0,
6.979880000000005,0.0,0.0,119048.0,0.0,0.0,0.0,0.0,0.25,1.362304548,0.5498168668524864,0.0,-121759.0,0.0,0.0,0.0,0.0,0.125,4.927978011,4.41043958977222,0.0012207029999995456,108570.0,0.0,0.0,0.0,0.0,0.0,2.808837603,4.389674732977291,0.0,-101726.0,0.125,0.0,0.0,0.0,0.25,2.208251727,0.552687206278561,0.0,-0.6399999856948853,0.25999999046325684,-80.7300033569336,-0.01849365234375,-0.02227783203125,1.01898193359375,36.119998931884766,0.0,6.0,-6.5483551025390625,-2.7495269775390625,Closing,0.0,0.0,-189.0,0.0,0.0,0.0,0.0,0.0,
7.045934000000009,0.0,0.0,119048.0,0.0,0.0,0.0,0.0,0.125,1.362304548,0.5498168668524864,0.0,-121759.0,0.0,0.0,0.0,0.0,0.125,4.929198714,4.41043958977222,0.0,108570.0,0.0,0.0,0.0,0.0,0.0,2.808837603,4.389674732977291,0.0,-101726.0,0.125,0.0,0.0,0.0,0.25,2.208251727,0.552687206278561,0.0012207029999999897,-0.6499999761581421,0.23000000417232513,-80.83000183105469,0.00244140625,0.00225830078125,1.00396728515625,36.119998931884766,0.0,-13.0,-6.5483551025390625,-2.750030517578125,Closing,0.0,0.0,-189.0,0.0,0.0,0.0,0.0,0.0,
7.106850999999995,0.0,0.0,119048.0,0.0,0.0,0.0,0.0,0.25,1.362304548,0.5498168668524864,0.0012207029999999897,-121759.0,0.0,0.0,0.0,0.0,0.125,4.930419417,4.41043958977222,0.0,108570.0,0.0,0.0,0.0,0.0,0.0,2.813720415,4.389674732977291,-0.0012207030000004337,-101726.0,0.125,0.0,0.0,0.0,0.25,2.208251727,0.552687206278561,0.0,-0.5799999833106995,0.20000000298023224,-80.86000061035156,-0.0189208984375,0.00714111328125,1.02484130859375,36.119998931884766,0.0,-20.0,-6.5486602783203125,-2.750030517578125,Closing,0.0,0.0,-189.0,0.0,0.0,0.0,0.0,0.0,
7.172035999999993,0.0,0.0,119048.0,0.125,0.0,-178.58268588781357,0.0,0.25,1.362304548,4.932250999999998,0.0,-121759.0,0.125,0.0,178.58268588781357,0.0,2.625,0.065917962,4.963769999999998,0.0,108570.0,0.125,0.0,-178.58268588781357,0.0,1.0,2.811279009,0.01,0.0,-101723.0,0.375,0.0,178.58268588781357,0.0,2.75,1.9726560480000002,0.01,0.0,-0.5600000023841858,0.10999999940395355,-80.79000091552734,-0.02020263671875,-0.015380859375,1.02740478515625,36.150001525878906,0.0,1.0,-6.5488128662109375,-2.750518798828125,Closing,0.0,0.0,-189.0,0.0,0.0,0.0,0.0,0.0,
7.234353999999992,0.0,0.0,119048.0,0.125,0.0,-277.79527455568314,0.0,2.0,1.192626831,4.932250999999998,0.0,-121759.0,0.375,0.0,277.79527455568314,0.0,0.5,0.311279265,4.963769999999998,0.0,108565.0,0.125,-22.5,-277.79527455568314,0.0,2.125,2.994384459,0.01,0.0,-101723.0,0.375,22.5,277.79527455568314,0.0,0.875,1.7675779440000001,0.01,0.0,-0.5400000214576721,0.05999999865889549,-80.80999755859375,0.0198974609375,-0.0595703125,1.01776123046875,36.150001525878906,0.0,52.0,-6.548919677734375,-2.751220703125,Closing,0.0,0.0,-189.0,0.0,0.0,0.0,0.0,0.0,
7.286046999999991,0.0,0.0,119047.0,0.125,-7.5,-277.79527455568314,0.0,0.875,1.048583877,4.932250999999998,0.0,-121759.0,0.625,45.0,277.79527455568314,0.0,0.5,0.47363276400000004,4.963769999999998,0.0,108565.0,0.375,-67.5,-277.79527455568314,0.0,0.75,3.197021157,0.01,0.0,-101723.0,0.375,67.5,277.79527455568314,0.0,0.5,1.640624832,0.01,0.0,-0.5,-0.019999999552965164,-80.87999725341797,-0.02252197265625,-0.06036376953125,0.98974609375,36.150001525878906,0.0,47.0,-6.5490875244140625,-2.752532958984375,Closing,0.0,0.0,-189.0,0.0,0.0,0.0,0.0,0.0,
7.3394480000000035,0.0,0.0,119047.0,0.625,-7.5,-277.79527455568314,0.0,0.375,0.876464754,4.932250999999998,0.0,-121737.0,0.625,142.5,277.79527455568314,0.0,0.125,0.526122993,4.963769999999998,0.0,108554.0,0.375,-60.0,-277.79527455568314,0.0,0.25,3.343505517,0.01,0.0,-101706.0,0.375,135.0,277.79527455568314,0.0,0.125,1.614990069,0.01,0.0,-0.5400000214576721,-0.09000000357627869,-80.91999816894531,-0.01910400390625,-0.02679443359375,0.97711181640625,36.150001525878906,0.0,14.0,-6.5489654541015625,-2.7546234130859375,Closing,0.0,0.0,-189.0,0.0,0.0,0.0,0.0,0.0,
7.413070000000007,0.0,0.0,119045.0,0.625,-22.5,-277.79527455568314,0.0,0.375,0.847167882,4.932250999999998,0.0,-121737.0,0.875,90.0,277.79527455568314,0.0,0.125,0.520019478,4.963769999999998,0.0,108554.0,0.625,-52.5,-277.79527455568314,0.0,0.125,3.358153953,0.01,0.0,-101706.0,0.5,120.0,277.79527455568314,0.0,0.125,1.644286941,0.01,0.0,-0.5199999809265137,-0.17000000178813934,-80.91999816894531,-0.02117919921875,-0.00189208984375,0.980712890625,36.150001525878906,0.0,-9.0,-6.54913330078125,-2.7552337646484375,Closing,0.0,0.0,-189.0,0.0,0.0,0.0,0.0,0.0,
7.475473999999988,0.0,0.0,119032.0,0.75,-60.0,-317.4803137779236,0.0,0.25,0.845947179,4.932250999999998,0.0,-121727.0,1.75,67.5,317.4803137779236,0.0,0.125,0.5163573690000001,4.963769999999998,0.0,108545.0,0.875,-60.0,-317.4803137779236,0.0,0.0,3.358153953,0.01,0.0,-101692.0,0.875,52.5,317.4803137779236,0.0,0.125,1.671142407,0.01,0.0,-0.4699999988079071,-0.28999999165534973,-80.88999938964844,-0.0618896484375,-0.042236328125,1.050048828125,36.150001525878906,0.0,24.0,-6.5499725341796875,-2.755706787109375,Closing,0.0,0.0,-189.0,0.0,0.0,0.0,0.0,0.0,
7.528875,0.0,0.0,119032.0,1.375,-82.5,-337.32282400131226,0.0,0.25,0.845947179,4.932250999999998,0.0,-121727.0,2.25,82.5,337.32282400131226,0.0,0.125,0.5163573690000001,4.963769999999998,0.0,108545.0,1.5,-82.5,-337.32282400131226,0.0,0.0,3.358153953,0.01,0.0,-101674.0,1.375,82.5,337.32282400131226,0.0,0.25,1.6613767830000001,0.01,0.0,-0.47999998927116394,-0.4300000071525574,-80.93000030517578,-0.06109619140625,-0.007080078125,1.03924560546875,36.150001525878906,0.0,-10.0,-6.5506134033203125,-2.7572021484375,Closing,0.0,0.0,-189.0,0.0,0.0,0.0,0.0,0.0,
7.590646999999997,0.0,0.0,119014.0,1.625,-105.0,-337.32282400131226,0.0,0.25,0.838622961,4.932250999999998,0.0,-121710.0,2.5,112.5,337.32282400131226,0.0,0.125,0.5175780720000001,4.963769999999998,0.0,108529.0,1.625,-97.5,-337.32282400131226,0.0,0.0,3.35693325,0.01,0.0,-101674.0,1.5,127.5,337.32282400131226,0.0,0.25,1.650390456,0.01,0.0,-0.4399999976158142,-0.5799999833106995,-80.94000244140625,-0.03607177734375,0.00714111328125,0.98980712890625,36.150001525878906,0.0,-18.0,-6.55096435546875,-2.75982666015625,Closing,0.0,0.0,-189.0,0.0,0.0,0.0,0.0,0.0,
7.654130999999994,0.0,0.0,119014.0,2.625,-120.0,-654.8031377792358,0.0,0.25,0.8422850700000001,4.932250999999998,0.0,-121710.0,3.25,135.0,654.8031377792358,0.0,0.125,0.5175780720000001,4.963769999999998,0.0,108529.0,2.125,-120.0,-654.8031377792358,0.0,0.0,3.3715816860000003,0.01,0.0,-101674.0,2.375,150.0,654.8031377792358,0.0,0.25,1.6333006140000002,0.01,0.0,-0.4399999976158142,-0.6700000166893005,-80.94999694824219,-0.05615234375,-0.0234375,1.06402587890625,36.150001525878906,0.0,8.0,-6.5511322021484375,-2.761505126953125,Closing,0.0,0.0,-189.0,0.0,0.0,0.0,0.0,0.0,
7.708158999999985,0.0,0.0,119014.0,5.25,-157.5,-1051.6535675525665,0.0,0.25,0.8422850700000001,4.932250999999998,0.0,-121679.0,6.75,172.5,1051.6535675525665,0.0,0.125,0.521240181,4.963769999999998,0.0,108499.0,5.875,-187.5,-1051.6535675525665,0.0,0.0,3.3764644980000003,0.01,0.0,-101645.0,4.375,180.0,1051.6535675525665,0.0,0.125,1.6113279600000001,0.01,0.0,-0.4699999988079071,-1.100000023841858,-80.93000030517578,-0.30120849609375,-0.0225830078125,1.00634765625,36.20000076293945,0.0,-30.0,-6.5512542724609375,-2.767303466796875,Closing,0.0,0.0,-189.0,0.0,0.0,0.0,0.0,0.0,
7.750022999999986,0.0,0.0,118971.0,9.75,-270.0,-1269.9212551116943,0.0,0.25,0.8410643670000001,4.932250999999998,0.0,-121679.0,15.125,307.5,1269.9212551116943,0.0,0.125,0.5151366660000001,4.963769999999998,0.0,108499.0,8.875,-262.5,-1269.9212551116943,0.0,0.125,3.387450825,0.01,0.0,-101645.0,8.5,300.0,1269.9212551116943,0.0,0.125,1.612548663,0.01,0.0,-0.44999998807907104,-1.6200000047683716,-80.94000244140625,-0.36419677734375,-0.0469970703125,1.043701171875,36.20000076293945,0.0,-14.0,-6.5514068603515625,-2.7750396728515625,Closing,0.0,0.0,-189.0,0.0,0.0,0.0,0.0,0.0,
7.811217999999993,0.0,0.0,118971.0,11.5,-442.5,-1289.7637653350828,0.0,0.25,0.8422850700000001,4.932250999999998,0.0,-121588.0,17.75,517.5,1289.7637653350828,0.0,0.125,0.5175780720000001,4.963769999999998,0.0,108427.0,11.0,-420.0,-1289.7637653350828,0.0,0.125,3.387450825,0.01,0.0,-101572.0,9.75,420.0,1289.7637653350828,0.0,0.125,1.600341633,0.01,0.0,-0.5699999928474426,-2.2100000381469727,-80.93000030517578,-0.1785888671875,-0.15594482421875,0.95196533203125,36.20000076293945,0.0,122.0,-6.55133056640625,-2.7902374267578125,Closing,0.0,0.0,-189.0,0.0,0.0,0.0,0.0,0.0,
7.8573880000000065,0.0,0.0,118873.0,12.875,-615.0,-1289.7637653350828,0.0,0.25,0.8422850700000001,4.932250999999998,0.0,-121588.0,16.0,697.5,1289.7637653350828,0.0,0.125,0.5175780720000001,4.963769999999998,0.0,108427.0,13.0,-615.0,-1289.7637653350828,0.0,0.125,3.386230122,0.01,0.0,-101572.0,13.625,517.5,1289.7637653350828,0.0,0.125,1.6113279600000001,0.01,0.0,-0.9900000095367432,-0.029999999329447746,-79.93000030517578,1.30316162109375,-0.215087890625,0.78594970703125,36.20000076293945,0.0,426.0,-6.5472412109375,-2.8006591796875,Closing,0.0,0.0,-189.0,0.0,0.0,0.0,0.0,0.0,
7.92732699999999,0.0,0.0,118873.0,20.875,-397.5,-1289.7637653350828,0.0,0.25,0.8410643670000001,4.932250999999998,0.0,-121473.0,20.125,810.0,1289.7637653350828,0.0,0.125,0.5163573690000001,4.963769999999998,0.0,108340.0,20.0,-562.5,-1289.7637653350828,0.0,0.125,3.387450825,0.01,0.0,-101539.0,23.625,217.5,1289.7637653350828,0.0,0.125,1.6064451480000002,0.01,0.0,0.019999999552965164,-0.05000000074505806,-79.27999877929688,-0.5433349609375,0.1717529296875,1.0416259765625,36.20000076293945,0.0,-269.0,-6.5416717529296875,-2.794921875,Closing,0.0,0.0,-189.0,0.0,0.0,0.0,0.0,0.0,
7.990158999999985,0.0,0.0,118857.0,33.0,-30.0,-1289.7637653350828,0.0,0.25,0.8410643670000001,4.932250999999998,0.0,-121473.0,30.875,330.0,1289.7637653350828,0.0,0.125,0.5151366660000001,4.963769999999998,0.0,108340.0,24.0,-232.5,-1289.7637653350828,0.0,0.125,3.386230122,0.01,0.0,-101539.0,36.25,67.5,1289.7637653350828,0.0,0.25,1.6027830390000002,0.01,0.0,-0.2800000011920929,-0.5199999809265137,-79.54000091552734,0.109619140625,-0.2021484375,1.29901123046875,36.20000076293945,0.0,214.0,-6.5430450439453125,-2.794891357421875,Closing,0.0,0.0,-189.0,0.0,0.0,0.0,0.0,0.0,
8.051717999999994,0.0,0.0,118857.0,42.125,-15.0,-1289.7637653350828,0.0,0.25,0.8410643670000001,4.932250999999998,0.0,-121456.0,45.125,97.5,1289.7637653350828,0.0,0.125,0.5163573690000001,4.963769999999998,0.0,108324.0,34.625,-97.5,-1289.7637653350828,0.0,0.125,3.387450825,0.01,0.0,-101525.0,43.875,67.5,1289.7637653350828,0.0,0.25,1.6027830390000002,0.01,0.0,-0.2199999988079071,-0.05999999865889549,-79.45999908447266,0.00421142578125,0.022705078125,1.11737060546875,36.20000076293945,0.0,-25.0,-6.542266845703125,-2.7933807373046875,Closing,0.0,0.0,-189.0,0.0,0.0,0.0,0.0,0.0,
8.116495999999986,0.0,0.0,118853.0,47.75,-15.0,-1289.7637653350828,0.0,0.25,0.8410643670000001,4.932250999999998,0.0,-121456.0,57.375,45.0,1289.7637653350828,0.0,0.125,0.5175780720000001,4.963769999999998,0.0,108324.0,39.25,-37.5,-1289.7637653350828,0.0,0.125,3.387450825,0.01,0.0,-101525.0,46.375,7.5,1289.7637653350828,0.0,0.25,1.6027830390000002,0.01,0.0,-0.30000001192092896,-0.28999999165534973,-79.48999786376953,-0.0523681640625,0.151123046875,1.2357177734375,36.20000076293945,0.0,-163.0,-6.541656494140625,-2.7913360595703125,Closing,0.0,0.0,-189.0,0.0,0.0,0.0,0.0,0.0,
8.182619999999995,0.0,0.0,118853.0,45.375,0.0,-1289.7637653350828,0.0,0.25,0.8410643670000001,4.932250999999998,0.0,-121454.0,54.875,7.5,1289.7637653350828,0.0,0.0,0.5175780720000001,4.963769999999998,0.0,108319.0,32.75,-37.5,-1289.7637653350828,0.0,0.0,3.387450825,0.01,0.0,-101525.0,30.875,0.0,1289.7637653350828,0.0,0.125,1.6076658510000001,0.01,0.0,-0.20999999344348907,-0.20000000298023224,-79.48999786376953,0.03515625,-8.544921875E-4,1.01531982421875,36.20000076293945,0.0,4.0,-6.5422515869140625,-2.7902679443359375,Closing,0.0,0.0,-189.0,0.0,0.0,0.0,0.0,0.0,
8.240375999999989,0.0,0.0,118865.0,10.75,75.0,-1289.7637653350828,0.0,0.125,0.8178710100000001,4.932250999999998,0.0,-121454.0,13.375,-97.5,1289.7637653350828,0.0,0.0,0.53710932,4.963769999999998,0.0,108319.0,8.625,-45.0,-1289.7637653350828,0.0,0.0,3.387450825,0.01,0.0,-101525.0,1.5,-105.0,1289.7637653350828,0.0,0.125,1.6076658510000001,0.01,0.0,-0.25999999046325684,0.47999998927116394,-79.5199966430664,0.0810546875,0.0245361328125,1.31011962890625,36.150001525878906,0.0,-17.0,-6.54327392578125,-2.785125732421875,Closing,0.0,0.0,-189.0,0.0,0.0,0.0,0.0,0.0,
8.302828999999997,0.0,0.0,118865.0,7.75,165.0,-1011.9684720039367,0.0,0.25,0.8154296040000001,4.932250999999998,0.0,-121469.0,9.125,-217.5,1011.9684720039367,0.0,0.125,0.521240181,4.963769999999998,0.0,108318.0,3.125,0.0,-1011.9684720039367,0.0,0.125,3.387450825,0.01,0.0,-101549.0,3.375,-195.0,1011.9684720039367,0.0,0.25,1.6088865540000001,0.01,0.0,-0.23999999463558197,0.1899999976158142,-79.5999984741211,-0.5831298828125,0.34332275390625,0.76318359375,36.150001525878906,0.0,-446.0,-6.54461669921875,-2.780487060546875,Closing,0.0,0.0,-189.0,0.0,0.0,0.0,0.0,0.0,
8.350502999999996,0.0,0.0,118875.0,3.75,15.0,0.0,0.0,0.25,0.822753822,4.932250999999998,-4.9285888909999995,-121469.0,9.0,97.5,0.0,0.0,0.125,0.522460884,4.963769999999998,-0.009765623999999917,108318.0,1.75,0.0,0.0,0.0,0.125,3.387450825,0.01,0.0,-101549.0,4.375,0.0,0.0,0.0,0.25,1.6027830390000002,0.01,-0.004882811999999959,-0.23000000417232513,-0.9599999785423279,-79.7300033569336,0.0982666015625,-0.17340087890625,1.04388427734375,36.150001525878906,0.0,187.0,-6.5473480224609375,-2.781829833984375,Closing,0.0,0.0,-189.0,0.0,0.0,0.0,0.0,0.0,
8.401108999999996,0.0,0.0,118875.0,0.0,7.5,0.0,0.0,0.25,0.8178710100000001,4.932250999999998,0.0,-121477.0,0.0,45.0,0.0,0.0,0.125,0.521240181,4.963769999999998,0.0,108316.0,0.125,-15.0,0.0,0.0,0.125,3.387450825,0.01,0.0,-101540.0,0.125,52.5,0.0,0.0,0.25,1.6015623360000002,0.01,0.0,-0.3400000035762787,-0.38999998569488525,-79.54000091552734,0.22900390625,0.04931640625,0.94061279296875,36.150001525878906,0.0,-11.0,-6.5491943359375,-2.7827911376953125,Closing,0.0,0.0,-189.0,0.0,0.0,0.0,0.0,0.0,
8.452829999999988,0.0,0.0,118878.0,0.0,7.5,0.0,0.0,0.25,0.8178710100000001,4.932250999999998,0.0,-121477.0,0.0,-30.0,0.0,0.0,0.125,0.522460884,4.963769999999998,0.0,108316.0,0.0,0.0,0.0,0.0,0.125,3.387450825,0.01,0.0,-101540.0,0.125,0.0,0.0,0.0,0.25,1.6027830390000002,0.01,0.0,-0.15000000596046448,-0.10000000149011612,-79.5999984741211,-0.06011962890625,0.0023193359375,1.1575927734375,36.150001525878906,0.0,-15.0,-6.551422119140625,-2.779541015625,Closing,0.0,0.0,-189.0,0.0,0.0,0.0,0.0,0.0,
8.524918999999995,0.0,0.0,118878.0,0.0,0.0,0.0,0.0,0.125,0.8178710100000001,4.932250999999998,0.0,-121477.0,0.0,0.0,0.0,0.0,0.125,0.522460884,4.963769999999998,0.0,108318.0,0.0,0.0,0.0,0.0,0.125,3.387450825,0.01,0.0,-101544.0,0.125,-15.0,0.0,0.0,0.25,1.6027830390000002,0.01,0.0,-0.20000000298023224,-0.23999999463558197,-79.7300033569336,-0.13995361328125,-0.0697021484375,1.0667724609375,36.150001525878906,0.0,40.0,-6.5532684326171875,-2.777587890625,Closing,0.0,0.0,-189.0,0.0,0.0,0.0,0.0,0.0,
8.574079999999988,0.0,0.0,118884.0,0.0,37.5,0.0,0.0,0.25,0.8178710100000001,4.932250999999998,0.0,-121477.0,0.125,0.0,0.0,0.0,0.125,0.522460884,4.963769999999998,0.0,108318.0,0.0,15.0,0.0,0.0,0.125,3.382568013,0.01,-0.004882811999999959,-101544.0,0.125,-22.5,0.0,0.0,0.25,1.6015623360000002,0.01,0.0,-0.25999999046325684,-0.550000011920929,-79.6500015258789,-0.02569580078125,0.071044921875,1.05047607421875,36.150001525878906,0.0,-77.0,-6.55548095703125,-2.7773590087890625,Closing,0.0,0.0,-189.0,0.0,0.0,0.0,0.0,0.0,
8.634854999999982,0.0,0.0,118884.0,0.0,22.5,0.0,0.0,0.25,0.8178710100000001,4.932250999999998,0.0,-121477.0,0.125,-7.5,0.0,0.0,0.125,0.522460884,4.963769999999998,0.0,108319.0,0.125,7.5,0.0,0.0,0.125,3.38134731,0.01,0.0,-101545.0,0.125,0.0,0.0,0.0,0.25,1.6015623360000002,0.01,0.0,-0.1899999976158142,-0.5400000214576721,-79.61000061035156,-0.00640869140625,0.00164794921875,1.01153564453125,36.150001525878906,0.0,-4.0,-6.557464599609375,-2.7777099609375,Closing,0.0,0.0,-189.0,0.0,0.0,0.0,0.0,0.0,
8.702239000000002,0.0,0.0,118884.0,0.0,0.0,0.0,0.0,0.125,0.8178710100000001,4.932250999999998,0.0,-121478.0,0.0,0.0,0.0,0.0,0.125,0.522460884,4.963769999999998,0.0,108319.0,0.0,0.0,0.0,0.0,0.125,3.38134731,0.01,0.0,-101545.0,0.125,0.0,0.0,0.0,0.25,1.6027830390000002,0.01,0.0,-0.25,-0.46000000834465027,-79.63999938964844,0.01226806640625,-0.03759765625,1.04193115234375,36.150001525878906,0.0,36.0,-6.559814453125,-2.7775115966796875,Closing,0.0,0.0,-189.0,0.0,0.0,0.0,0.0,0.0,
8.745961999999999,0.0,0.0,118884.0,0.0,0.0,0.0,0.0,0.25,0.8178710100000001,4.932250999999998,0.0,-121478.0,0.125,0.0,0.0,0.0,0.125,0.521240181,4.963769999999998,0.0,108319.0,0.0,0.0,0.0,0.0,0.125,3.38134731,0.01,0.0,-101545.0,0.125,0.0,0.0,0.0,0.25,1.6015623360000002,0.01,0.0,-0.23000000417232513,-0.4099999964237213,-79.62000274658203,-0.008544921875,0.0206298828125,1.000732421875,36.16999816894531,0.0,-24.0,-6.5603179931640625,-2.77703857421875,Closing,0.0,0.0,-189.0,0.0,0.0,0.0,0.0,0.0,
8.792440999999991,0.0,0.0,118884.0,0.0,0.0,0.0,0.0,0.25,0.8178710100000001,4.932250999999998,0.0,-121478.0,0.0,0.0,0.0,0.0,0.125,0.521240181,4.963769999999998,0.0,108319.0,0.0,0.0,0.0,0.0,0.125,3.382568013,0.01,0.0,-101545.0,0.0,0.0,0.0,0.0,0.25,1.6027830390000002,0.01,0.0,-0.1899999976158142,-0.4699999988079071,-79.66999816894531,-0.04119873046875,-0.03131103515625,1.03411865234375,36.16999816894531,0.0,21.0,-6.5608978271484375,-2.77716064453125,Closing,0.0,0.0,-189.0,0.0,0.0,0.0,0.0,0.0,
8.851921000000003,0.0,0.0,118884.0,0.0,0.0,0.0,0.0,0.25,0.8178710100000001,4.932250999999998,0.0,-121478.0,0.0,0.0,0.0,0.0,0.125,0.521240181,4.963769999999998,0.0,108319.0,0.0,0.0,0.0,0.0,0.125,3.382568013,0.01,0.0,-101545.0,0.125,0.0,0.0,0.0,0.25,1.6027830390000002,0.01,0.0,-0.23000000417232513,-0.5400000214576721,-79.6500015258789,-0.02337646484375,0.01080322265625,1.034423828125,36.16999816894531,0.0,-17.0,-6.56109619140625,-2.777862548828125,Closing,0.0,0.0,-189.0,0.0,0.0,0.0,0.0,0.0,
8.918059000000008,0.0,0.0,118884.0,0.75,0.0,1131.023608446121,0.0,0.25,0.820312416,3.6991882499999984,0.0,-121478.0,2.375,0.0,1131.023608446121,0.0,0.125,0.522460884,1.2409424999999985,0.0,108319.0,1.5,0.0,-1131.023608446121,0.0,0.125,3.386230122,1.2350999999999985,0.0,-101545.0,1.875,0.0,-1131.023608446121,0.0,5.125,1.5539549190000002,3.7184999999999984,0.0,-0.18000000715255737,-0.5600000023841858,-79.62999725341797,-0.08563232421875,0.01678466796875,0.99517822265625,36.16999816894531,0.0,-33.0,-6.561126708984375,-2.77789306640625,Closing,0.0,0.0,-189.0,0.0,0.0,0.0,0.0,0.0,
8.976188999999984,0.0,0.0,118898.0,8.125,202.5,1468.346507549286,0.0,5.375,0.498046824,3.6991882499999984,0.0,-121478.0,19.375,82.5,1468.346507549286,0.0,8.375,0.808105386,1.2409424999999985,0.0,108315.0,10.25,-15.0,-1468.346507549286,0.0,4.5,3.7402339920000003,1.2350999999999985,0.0,-101569.0,10.375,-180.0,-1468.346507549286,0.0,1.375,1.041259659,3.7184999999999984,0.0,-0.18000000715255737,-0.4399999976158142,-79.66000366210938,0.02264404296875,0.02862548828125,0.9578857421875,36.16999816894531,0.0,-25.0,-6.5640869140625,-2.777435302734375,Closing,0.0,0.0,-189.0,0.0,0.0,0.0,0.0,0.0,
9.046899999999994,0.0,0.0,118918.0,5.25,157.5,158.7401568889618,0.0,1.75,0.09765624,3.6991882499999984,0.0,-121462.0,15.75,52.5,158.7401568889618,0.0,2.875,1.2133787820000002,1.2409424999999985,0.0,108315.0,9.875,-30.0,-158.7401568889618,0.0,1.375,4.171142151000001,1.2350999999999985,0.0,-101569.0,7.25,-67.5,-158.7401568889618,0.0,2.5,0.642089778,3.7184999999999984,0.0,-0.2199999988079071,-0.3499999940395355,-79.61000061035156,-0.056640625,-0.0511474609375,1.0123291015625,36.16999816894531,0.0,37.0,-6.5666351318359375,-2.775665283203125,Closing,0.0,0.0,-189.0,0.0,0.0,0.0,0.0,0.0,
9.11532699999999,0.0,0.0,118918.0,0.5,37.5,0.0,0.0,2.0,4.520263209,3.6991882499999984,-1.109009203999999,-121477.0,1.75,-60.0,0.0,0.0,2.125,1.77001935,1.2409424999999985,0.455322219000001,108306.0,0.75,-52.5,0.0,0.0,1.5,4.630126479,1.2350999999999985,0.45288081300000016,-101568.0,0.5,15.0,0.0,0.0,0.625,0.44677729800000004,3.7184999999999984,0.0,-0.1899999976158142,-0.36000001430511475,-79.62000274658203,-0.0283203125,-0.0267333984375,1.10675048828125,36.16999816894531,0.0,18.0,-6.569976806640625,-2.772735595703125,Closing,0.0,0.0,-189.0,0.0,0.0,0.0,0.0,0.0,
9.190676000000007,0.0,0.0,118923.0,0.0,22.5,0.0,0.0,1.125,4.576415547,3.6991882499999984,0.21972653999999991,-121477.0,0.125,-112.5,0.0,0.0,0.5,1.9970701080000002,1.2409424999999985,0.5517577559999998,108306.0,0.0,-30.0,0.0,0.0,0.375,4.790038572,1.2350999999999985,0.4541015159999997,-101568.0,0.125,22.5,0.0,0.0,0.5,0.373535118,3.7184999999999984,-0.18798826199999974,-0.1899999976158142,-0.5799999833106995,-79.56999969482422,-0.04779052734375,0.0076904296875,1.1580810546875,36.16999816894531,0.0,-17.0,-6.572052001953125,-2.770538330078125,Closing,0.0,0.0,-189.0,0.0,0.0,0.0,0.0,0.125,
9.260668999999995,0.0,0.0,118923.0,0.0,0.0,0.0,0.0,0.375,4.576415547,3.6991882499999984,0.0,-121480.0,0.0,0.0,0.0,0.0,0.25,1.9201658190000002,1.2409424999999985,0.0,108306.0,0.0,0.0,0.0,0.0,0.25,4.7106928770000005,1.2350999999999985,0.0,-101565.0,0.125,7.5,0.0,0.0,0.125,0.38818355400000004,3.7184999999999984,0.0,-0.1599999964237213,-0.5199999809265137,-79.56999969482422,6.7138671875E-4,0.01220703125,1.0657958984375,36.18000030517578,0.0,-13.0,-6.572052001953125,-2.7692413330078125,Closing,0.0,0.0,-189.0,0.0,0.0,0.0,0.0,0.0,
9.32970199999999,0.0,0.0,118923.0,0.0,0.0,0.0,0.0,0.375,4.56542922,3.6991882499999984,-0.006103514999999504,-121480.0,0.125,0.0,0.0,0.0,0.25,1.901855274,1.2409424999999985,-0.08544921000000016,108306.0,0.0,0.0,0.0,0.0,0.125,4.639892103,1.2350999999999985,-0.08911131899999969,-101565.0,0.125,0.0,0.0,0.0,0.125,0.435790971,3.7184999999999984,0.01586913900000031,-0.11999999731779099,-0.550000011920929,-79.5999984741211,-0.0615234375,0.01416015625,1.062255859375,36.18000030517578,0.0,-25.0,-6.5722503662109375,-2.76934814453125,Closing,0.0,0.0,-189.0,0.0,0.0,0.0,0.0,0.0,
9.389373999999982,0.0,0.0,118923.0,0.0,0.0,0.0,0.0,0.375,4.564208517,3.6991882499999984,-0.009765623999999917,-121480.0,0.125,0.0,0.0,0.0,0.25,1.8139646580000002,1.2409424999999985,-0.024414059999999793,108306.0,0.0,0.0,0.0,0.0,0.125,4.595946795000001,1.2350999999999985,-0.0646972589999999,-101565.0,0.125,0.0,0.0,0.0,0.25,0.48095698200000003,3.7184999999999984,0.04882812000000003,-0.07000000029802322,-0.550000011920929,-79.58999633789062,0.004638671875,0.0477294921875,1.02178955078125,36.18000030517578,0.0,-45.0,-6.5726318359375,-2.769439697265625,Closing,0.0,0.0,-189.0,0.0,0.0,0.0,0.0,0.0,
9.454619999999995,0.0,0.0,118923.0,0.0,0.0,0.0,0.0,0.375,4.566649923,3.6991882499999984,-0.0012207030000004337,-121480.0,0.125,0.0,0.0,0.0,0.25,1.7858884890000002,1.2409424999999985,-0.07324217999999982,108306.0,0.0,0.0,0.0,0.0,0.0,4.591063983000001,1.2350999999999985,-0.04150390200000054,-101565.0,0.125,0.0,0.0,0.0,0.25,0.469970655,3.7184999999999984,0.04028319899999966,-0.05999999865889549,-0.550000011920929,-79.5999984741211,-0.0225830078125,-0.00286865234375,1.06512451171875,36.18000030517578,0.0,0.0,-6.57281494140625,-2.7693328857421875,Closing,0.0,0.0,-189.0,0.0,0.0,0.0,0.0,0.0,
9.516562999999994,0.0,0.0,118923.0,0.125,0.0,-334.6875,0.0,0.25,4.56542922,3.6991882500000015,0.0,-121480.0,0.25,0.0,-334.6875,0.0,0.25,1.781005677,1.2409425000000012,0.0,108306.0,0.375,0.0,334.6875,0.0,0.0,4.591063983000001,1.2351000000000012,0.0,-101565.0,0.375,0.0,334.6875,0.0,0.25,0.45532221900000003,3.7185000000000015,0.0,-0.07999999821186066,-0.5699999928474426,-79.61000061035156,-0.01568603515625,-0.0177001953125,1.04229736328125,36.18000030517578,0.0,14.0,-6.57281494140625,-2.7693328857421875,Closing,0.0,0.0,-189.0,0.0,0.0,0.0,0.0,0.0,
9.566861999999993,0.0,0.0,118918.0,0.75,-37.5,-846.5625,0.0,0.25,4.566649923,3.6991882500000015,0.0,-121480.0,1.25,-45.0,-846.5625,0.0,0.25,1.781005677,1.2409425000000012,0.0,108306.0,1.5,7.5,846.5625,0.0,0.0,4.578856953,1.2351000000000012,0.0,-101565.0,1.875,45.0,846.5625,0.0,0.25,0.44677729800000004,3.7185000000000015,0.0,0.25999999046325684,-0.5799999833106995,-79.63999938964844,-0.0443115234375,0.42364501953125,1.18927001953125,36.18000030517578,0.0,-416.0,-6.5736846923828125,-2.7689971923828125,Closing,0.0,0.0,-189.0,0.0,0.0,0.0,0.0,0.0,
9.631161999999982,0.0,0.0,118918.0,3.625,-187.5,-1102.5,0.0,0.375,4.56542922,3.6991882500000015,0.0,-121511.0,6.625,-202.5,-1102.5,0.0,0.25,1.779784974,1.2409425000000012,0.0,108312.0,4.5,37.5,1102.5,0.0,0.0,4.5532221900000005,1.2351000000000012,0.0,-101537.0,5.75,217.5,1102.5,0.0,0.25,0.44067378300000004,3.7185000000000015,0.0,0.6700000166893005,-0.6100000143051147,-79.72000122070312,-0.15765380859375,0.16925048828125,1.391357421875,36.18000030517578,0.0,-175.0,-6.5787200927734375,-2.7681732177734375,Closing,0.0,0.0,-189.0,0.0,0.0,0.0,0.0,0.0,
