Time,ClimberA1,ClimberA2,FRpos,FRCurrent,FRspeed,FRsetpoint,FRApos,FRACurrent,FREncpos,FREncSetpoint,FREncSpeed,FLpos,FLCurrent,FLspeed,FLsetpoint,FLApos,FLACurrent,FLEncpos,FLEncSetpoint,FLEncSpeed,BRpos,BRCurrent,BRspeed,BRsetpoint,BRApos,BRACurrent,BREncpos,BREncSetpoint,BREncSpeed,BLpos,BLCurrent,BLspeed,BLsetpoint,BLApos,BLACurrent,BLEncpos,BLEncSetpoint,BLEncSpeed,navx_Pitch,navx_Roll,navx_Yaw,navx_XAcc,navx_YAcc,navx_ZAcc,navx_Temp,navx_Bar,navx_Alt,navx_XDis,navx_YDis,GearPlacerState,ShootOutputV,ShootOutputCurrent,ShootEncPos,ShootEncVelocity,ShootSpeed,ShootSetpoint,CarouselSetpoint,CarouselCurrent,
0.1658700000000099,0.0,0.0,55683.0,6.0,142.5,846.9201391069881,0.0,0.375,0.690917898,4.831832751612509,0.0,-53734.0,9.75,-225.0,-846.9201391069881,0.0,0.25,0.32226559200000005,4.862710039994238,0.0,56397.0,6.5,150.0,846.9201391069881,0.0,0.125,3.2128902960000003,4.8398158419079715,0.0,-21668.0,4.375,-187.5,-846.9201391069881,0.0,0.25,1.494140472,4.857057514407684,0.0,0.019999999552965164,0.5199999809265137,50.36000061035156,0.20928955078125,0.010498046875,0.9052734375,35.599998474121094,0.0,136.0,-2.0071258544921875,-2.5774383544921875,Closing,0.0,0.0,-189.0,0.0,0.0,0.0,0.0,0.0,
0.24529400000000898,0.0,0.0,55683.0,1.75,277.5,0.0,0.0,0.375,0.76904289,0.01,0.1391601420000006,-53734.0,0.5,-292.5,-0.0,0.0,0.25,0.42236323800000003,0.01,0.06835936799999942,56397.0,1.5,270.0,0.0,0.0,0.125,3.284911773,0.01,0.10742186399999998,-21702.0,1.5,-255.0,-0.0,0.0,0.25,1.596679524,0.01,0.0,0.2199999988079071,0.20000000298023224,50.13999938964844,-0.27117919921875,0.05450439453125,1.12127685546875,35.599998474121094,0.0,-137.0,-1.9991912841796875,-2.589569091796875,Closing,0.0,0.0,-189.0,0.0,0.0,0.0,0.0,0.0,
0.3899250000000029,0.0,0.0,55724.0,0.75,97.5,0.0,0.0,0.25,0.812988198,0.01,0.0,-53793.0,0.875,-120.0,-0.0,0.0,0.25,0.534667914,0.01,0.0,56450.0,1.125,90.0,0.0,0.0,0.125,3.352050438,0.01,0.0,-21704.0,1.25,-7.5,-0.0,0.0,0.25,1.649169753,0.01,0.0,0.33000001311302185,-0.8600000143051147,50.040000915527344,0.01373291015625,0.05328369140625,1.05047607421875,35.63999938964844,0.0,55.0,-1.99798583984375,-2.5879669189453125,Closing,0.0,0.0,-189.0,0.0,0.0,0.0,0.0,0.0,
0.5267550000000046,0.0,0.0,55727.0,1.5,0.0,0.0,0.0,0.125,0.8178710100000001,0.01,0.0,-53789.0,2.0,15.0,-0.0,0.0,0.125,0.53710932,0.01,0.0,56450.0,1.625,0.0,0.0,0.0,0.0,3.353271141,0.01,0.0,-21704.0,1.375,0.0,-0.0,0.0,0.25,1.649169753,0.01,0.0,0.30000001192092896,-0.4699999988079071,49.939998626708984,-0.0076904296875,0.01458740234375,0.986572265625,35.63999938964844,0.0,7.0,-1.9965362548828125,-2.583984375,Closing,0.0,0.0,-189.0,0.0,0.0,0.0,0.0,0.0,
0.6570480000000097,0.0,0.0,55727.0,1.625,0.0,0.0,0.0,0.125,0.8166503070000001,0.01,0.0,-53790.0,2.0,0.0,-0.0,0.0,0.125,0.533447211,0.01,0.0,56450.0,1.75,0.0,0.0,0.0,0.0,3.353271141,0.01,0.0,-21704.0,1.5,0.0,-0.0,0.0,0.25,1.650390456,0.01,0.0,0.3100000023841858,-0.47999998927116394,49.93000030517578,0.02783203125,0.012939453125,0.99041748046875,35.63999938964844,0.0,29.0,-1.9964447021484375,-2.58392333984375,Closing,0.0,0.0,-189.0,0.0,0.0,0.0,0.0,0.0,
0.7908420000000042,0.0,0.0,55727.0,1.5,0.0,0.0,0.0,0.125,0.8166503070000001,0.01,0.0,-53790.0,2.125,0.0,-0.0,0.0,0.125,0.534667914,0.01,0.0,56450.0,1.625,0.0,0.0,0.0,0.0,3.353271141,0.01,0.0,-21704.0,1.5,0.0,-0.0,0.0,0.25,1.649169753,0.01,0.0,0.3100000023841858,-0.44999998807907104,49.900001525878906,-0.02349853515625,-0.00701904296875,1.02777099609375,35.63999938964844,0.0,-19.0,-1.996337890625,-2.58447265625,Closing,0.0,0.0,-189.0,0.0,0.0,0.0,0.0,0.0,
0.9139730000000127,0.0,0.0,55727.0,1.5,0.0,0.0,0.0,0.125,0.8166503070000001,0.01,0.0,-53790.0,2.125,0.0,-0.0,0.0,0.125,0.534667914,0.01,0.0,56450.0,1.625,0.0,0.0,0.0,0.0,3.353271141,0.01,0.0,-21704.0,1.5,0.0,-0.0,0.0,0.25,1.649169753,0.01,0.0,0.3100000023841858,-0.46000000834465027,49.900001525878906,-0.00262451171875,-0.00164794921875,1.01873779296875,35.56999969482422,0.0,-1.0,-1.996337890625,-2.58447265625,Closing,0.0,0.0,-189.0,0.0,0.0,0.0,0.0,0.0,
1.0566060000000144,0.0,0.0,55727.0,1.5,0.0,0.0,0.0,0.125,0.808105386,0.01,0.0,-53790.0,2.125,0.0,-0.0,0.0,0.125,0.534667914,0.01,0.0,56450.0,1.75,0.0,0.0,0.0,0.0,3.354491844,0.01,0.0,-21704.0,1.5,0.0,-0.0,0.0,0.25,1.64794905,0.01,0.0,0.28999999165534973,-0.46000000834465027,49.90999984741211,6.103515625E-4,0.013916015625,1.029296875,35.56999969482422,0.0,12.0,-1.996337890625,-2.58447265625,Closing,0.0,0.0,-189.0,0.0,0.0,0.0,0.0,0.0,
1.1878330000000132,0.0,0.0,55727.0,1.5,0.0,0.0,0.0,0.125,0.8166503070000001,0.01,0.0,-53790.0,2.125,0.0,-0.0,0.0,0.125,0.533447211,0.01,0.0,56450.0,1.75,0.0,0.0,0.0,0.0,3.353271141,0.01,0.0,-21704.0,1.5,0.0,-0.0,0.0,0.25,1.649169753,0.01,0.0,0.28999999165534973,-0.46000000834465027,49.90999984741211,0.0023193359375,0.00634765625,1.0205078125,35.56999969482422,0.0,7.0,-1.996337890625,-2.58447265625,Closing,0.0,0.0,-189.0,0.0,0.0,0.0,0.0,0.0,
1.3270470000000059,0.0,0.0,55727.0,1.5,0.0,0.0,0.0,0.125,0.8178710100000001,0.01,0.0,-53790.0,2.125,0.0,-0.0,0.0,0.125,0.534667914,0.01,0.0,56450.0,1.75,0.0,0.0,0.0,0.0,3.352050438,0.01,0.0,-21704.0,1.5,0.0,-0.0,0.0,0.25,1.649169753,0.01,0.0,0.28999999165534973,-0.44999998807907104,49.900001525878906,-0.01171875,0.00433349609375,1.01953125,35.56999969482422,0.0,-3.0,-1.996337890625,-2.58447265625,Closing,0.0,0.0,-189.0,0.0,0.0,0.0,0.0,0.0,
1.4570220000000118,0.0,0.0,55727.0,1.5,0.0,0.0,0.0,0.125,0.8166503070000001,0.01,0.0,-53790.0,2.125,0.0,-0.0,0.0,0.125,0.534667914,0.01,0.0,56450.0,1.75,0.0,0.0,0.0,0.0,3.354491844,0.01,0.0,-21704.0,1.5,0.0,-0.0,0.0,0.25,1.650390456,0.01,0.0,0.2800000011920929,-0.44999998807907104,49.900001525878906,-0.0010986328125,0.00628662109375,1.01446533203125,35.58000183105469,0.0,5.0,-1.996337890625,-2.58447265625,Closing,0.0,0.0,-189.0,0.0,0.0,0.0,0.0,0.0,
1.5884060000000026,0.0,0.0,55727.0,1.5,0.0,0.0,0.0,0.125,0.8166503070000001,0.01,0.0,-53790.0,2.125,0.0,-0.0,0.0,0.125,0.534667914,0.01,0.0,56450.0,1.75,0.0,0.0,0.0,0.0,3.353271141,0.01,0.0,-21704.0,1.5,0.0,-0.0,0.0,0.25,1.649169753,0.01,0.0,0.2800000011920929,-0.4399999976158142,49.900001525878906,-0.007568359375,0.00341796875,1.02032470703125,35.58000183105469,0.0,0.0,-1.996337890625,-2.58447265625,Closing,0.0,0.0,-189.0,0.0,0.0,0.0,0.0,0.0,
1.7150300000000134,0.0,0.0,55727.0,1.5,0.0,0.0,0.0,0.125,0.8178710100000001,0.01,0.0,-53790.0,2.125,0.0,-0.0,0.0,0.125,0.5285643990000001,0.01,0.0,56450.0,1.75,0.0,0.0,0.0,0.0,3.354491844,0.01,0.0,-21704.0,1.5,0.0,-0.0,0.0,0.25,1.650390456,0.01,0.0,0.27000001072883606,-0.4399999976158142,49.900001525878906,-0.0062255859375,0.00262451171875,1.0159912109375,35.58000183105469,0.0,-5.0,-1.996337890625,-2.58447265625,Closing,0.0,0.0,-189.0,0.0,0.0,0.0,0.0,0.0,
1.8570290000000096,0.0,0.0,55727.0,1.5,0.0,0.0,0.0,0.125,0.8178710100000001,0.01,0.0,-53790.0,2.125,0.0,-0.0,0.0,0.125,0.533447211,0.01,0.0,56450.0,1.75,0.0,0.0,0.0,0.0,3.353271141,0.01,0.0,-21704.0,1.5,0.0,-0.0,0.0,0.25,1.649169753,0.01,0.0,0.27000001072883606,-0.4300000071525574,49.900001525878906,-0.0064697265625,0.005126953125,1.021240234375,35.58000183105469,0.0,1.0,-1.996337890625,-2.58447265625,Closing,0.0,0.0,-189.0,0.0,0.0,0.0,0.0,0.0,
1.9918700000000098,0.0,0.0,55727.0,0.625,0.0,-158.7401568889618,0.0,0.125,0.8166503070000001,4.932250999999998,0.0,-53790.0,0.625,0.0,158.7401568889618,0.0,0.25,0.534667914,4.963769999999998,0.0,56450.0,0.75,0.0,-158.7401568889618,0.0,0.0,3.353271141,0.01,0.0,-21704.0,0.625,0.0,158.7401568889618,0.0,0.25,1.650390456,0.01,0.0,0.27000001072883606,-0.4399999976158142,49.88999938964844,-0.00189208984375,0.0089111328125,1.0223388671875,35.599998474121094,0.0,6.0,-1.996337890625,-2.58447265625,Closing,0.0,0.0,-189.0,0.0,0.0,0.0,0.0,0.0,
2.114520000000004,0.0,0.0,55712.0,0.75,-202.5,-1071.4960777759552,0.0,0.125,0.836181555,4.932250999999998,0.0,-53783.0,3.875,232.5,1071.4960777759552,0.0,0.25,0.533447211,4.963769999999998,0.0,56450.0,1.875,-15.0,-1071.4960777759552,0.0,0.0,3.387450825,0.01,0.0,-21704.0,2.25,0.0,1071.4960777759552,0.0,0.25,1.649169753,0.01,0.0,0.20999999344348907,-1.0,49.90999984741211,-0.2877197265625,0.087890625,0.80511474609375,35.599998474121094,0.0,-111.0,-1.9989013671875,-2.5822601318359375,Closing,0.0,0.0,-189.0,0.0,0.0,0.0,0.0,0.0,
2.2583060000000112,0.0,0.0,55656.0,0.625,-315.0,-793.700784444809,0.0,0.25,0.8312987430000001,4.932250999999998,0.0,-53728.0,2.625,300.0,793.700784444809,0.0,0.25,0.539550726,4.963769999999998,0.0,56435.0,2.75,-135.0,-793.700784444809,0.0,0.125,3.383788716,0.01,0.0,-21672.0,1.25,435.0,793.700784444809,0.0,0.25,1.638183426,0.01,0.0,0.25999999046325684,-1.7100000381469727,49.9900016784668,-0.04046630859375,-0.04833984375,1.03424072265625,35.599998474121094,0.0,-46.0,-2.0123443603515625,-2.567626953125,Closing,0.0,0.0,-189.0,0.0,0.0,0.0,0.0,0.0,
2.3921760000000067,0.0,0.0,55585.0,0.75,-480.0,-793.700784444809,0.0,0.125,0.8312987430000001,4.932250999999998,0.0,-53658.0,3.0,517.5,793.700784444809,0.0,0.25,0.534667914,4.963769999999998,0.0,56402.0,3.875,-420.0,-793.700784444809,0.0,0.125,3.3789059040000002,0.01,0.0,-21603.0,1.625,472.5,793.700784444809,0.0,0.25,1.651611159,0.01,0.0,0.27000001072883606,-2.0299999713897705,49.93000030517578,-0.03253173828125,-0.00604248046875,1.0587158203125,35.599998474121094,0.0,-5.0,-2.03173828125,-2.55322265625,Closing,0.0,0.0,-189.0,0.0,0.0,0.0,0.0,0.0,
2.525523000000001,0.0,0.0,55496.0,1.0,-592.5,-793.700784444809,0.0,0.125,0.836181555,4.932250999999998,0.0,-53469.0,3.25,607.5,793.700784444809,0.0,0.25,0.539550726,4.963769999999998,0.0,56229.0,4.0,-570.0,-793.700784444809,0.0,0.125,3.382568013,0.01,0.0,-21426.0,1.625,577.5,793.700784444809,0.0,0.25,1.649169753,0.01,0.0,0.27000001072883606,-2.309999942779541,49.95000076293945,-0.10302734375,-0.02166748046875,0.83294677734375,35.599998474121094,0.0,-64.0,-2.056610107421875,-2.55145263671875,Closing,0.0,0.0,-189.0,0.0,0.0,0.0,0.0,0.0,
2.6464440000000033,0.0,0.0,55395.0,0.75,-675.0,-773.8582742214203,0.0,0.125,0.8300780400000001,4.932250999999998,0.0,-53358.0,3.0,690.0,773.8582742214203,0.0,0.25,0.5407714290000001,4.963769999999998,0.0,56126.0,4.375,-622.5,-773.8582742214203,0.0,0.125,3.382568013,0.01,0.0,-21321.0,1.875,660.0,773.8582742214203,0.0,0.25,1.649169753,0.01,0.0,0.28999999165534973,-2.4000000953674316,50.119998931884766,-0.1243896484375,0.04827880859375,0.7933349609375,35.599998474121094,0.0,-24.0,-2.0789642333984375,-2.5475311279296875,Closing,0.0,0.0,-189.0,0.0,0.0,0.0,0.0,0.0,
2.7896370000000026,0.0,0.0,55196.0,0.0,-615.0,0.0,0.0,0.125,0.825195228,4.932250999999998,0.0,-53273.0,0.0,487.5,0.0,0.0,0.25,0.539550726,4.963769999999998,0.0,56035.0,0.0,-495.0,0.0,0.0,0.125,3.353271141,0.01,0.0,-21230.0,0.0,577.5,0.0,0.0,0.25,1.649169753,0.01,0.0,0.3100000023841858,-1.7699999809265137,50.220001220703125,0.02203369140625,0.21453857421875,1.013916015625,35.599998474121094,0.0,194.0,-2.0977630615234375,-2.543426513671875,Closing,0.0,0.0,-189.0,0.0,0.0,0.0,0.0,0.0,
2.9267290000000066,0.0,0.0,55107.0,0.0,-540.0,0.0,0.0,0.125,0.821533119,4.932250999999998,0.0,-53181.0,0.0,517.5,0.0,0.0,0.25,0.539550726,4.963769999999998,0.0,55992.0,0.0,-315.0,0.0,0.0,0.0,3.358153953,0.01,0.0,-21133.0,0.0,517.5,0.0,0.0,0.25,1.649169753,0.01,0.0,0.33000001311302185,-1.2200000286102295,50.279998779296875,0.085205078125,0.01458740234375,1.09259033203125,35.58000183105469,0.0,75.0,-2.099853515625,-2.546539306640625,Closing,0.0,0.0,-189.0,0.0,0.0,0.0,0.0,0.0,
3.0589260000000067,0.0,0.0,55044.0,0.0,-375.0,0.0,0.0,0.125,0.8312987430000001,4.932250999999998,0.0,-53119.0,0.0,345.0,0.0,0.0,0.25,0.54931635,4.963769999999998,0.0,55926.0,0.0,-307.5,0.0,0.0,0.0,3.358153953,0.01,0.0,-21070.0,0.0,315.0,0.0,0.0,0.25,1.64794905,0.01,0.0,0.3400000035762787,-0.5600000023841858,50.38999938964844,0.09014892578125,-0.005615234375,1.05609130859375,35.58000183105469,0.0,54.0,-2.0933074951171875,-2.559356689453125,Closing,0.0,0.0,-189.0,0.0,0.0,0.0,0.0,0.0,
3.1820940000000117,0.0,0.0,55013.0,0.0,-195.0,0.0,0.0,0.125,0.8312987430000001,4.932250999999998,0.0,-53082.0,0.0,172.5,0.0,0.0,0.25,0.54931635,4.963769999999998,0.0,55892.0,0.0,-157.5,0.0,0.0,0.0,3.358153953,0.01,0.0,-21034.0,0.0,142.5,0.0,0.0,0.25,1.649169753,0.01,0.0,0.33000001311302185,0.03999999910593033,50.439998626708984,0.0885009765625,0.02691650390625,1.04052734375,35.58000183105469,0.0,71.0,-2.079925537109375,-2.578369140625,Closing,0.0,0.0,-189.0,0.0,0.0,0.0,0.0,0.0,
3.3214180000000053,0.0,0.0,55023.0,12.25,52.5,1525.78125,0.0,1.625,0.9082030320000001,0.5498168668524888,0.0,-53062.0,18.0,292.5,1525.78125,0.0,2.0,0.43334956500000005,4.410439589772222,0.0,55883.0,19.25,37.5,1525.78125,0.0,1.5,3.1689449880000002,4.389674732977289,0.0,-21021.0,9.625,262.5,1525.78125,0.0,2.0,1.8652341840000002,0.5526872062785588,0.0,0.3199999928474426,0.1899999976158142,49.54999923706055,-0.0806884765625,0.0206298828125,0.49530029296875,35.58000183105469,0.0,-39.0,-2.061279296875,-2.60235595703125,Closing,0.0,0.0,-189.0,0.0,0.0,0.0,0.0,0.0,
3.453022000000012,0.0,0.0,55039.0,0.0,15.0,0.0,0.0,0.5,1.333007676,0.5498168668524888,0.0,-53023.0,0.0,60.0,0.0,0.0,0.875,0.056152338,4.410439589772222,0.0,55903.0,0.0,135.0,0.0,0.0,0.625,2.862548535,4.389674732977289,0.0,-20977.0,0.0,67.5,0.0,0.0,0.375,2.176513449,0.5526872062785588,0.0,0.33000001311302185,0.09000000357627869,48.45000076293945,0.0172119140625,0.02093505859375,0.80633544921875,35.58000183105469,0.0,22.0,-2.0426483154296875,-2.6220550537109375,Closing,0.0,0.0,-189.0,0.0,0.0,0.0,0.0,0.0,
3.5915990000000018,0.0,0.0,55047.0,8.5,202.5,1296.09375,0.0,0.125,1.414794777,0.5498168668524888,0.0,-53015.0,17.375,307.5,1296.09375,0.0,0.25,4.848632316000001,4.410439589772222,0.0,55928.0,11.75,67.5,1296.09375,0.0,0.125,2.727050502,4.389674732977289,0.0,-20934.0,9.0,202.5,1296.09375,0.0,0.25,2.301025155,0.5526872062785588,0.0,0.4300000071525574,0.14000000059604645,45.66999816894531,0.1129150390625,-0.00445556640625,0.96099853515625,35.58000183105469,0.0,68.0,-2.0172882080078125,-2.6467437744140625,Closing,0.0,0.0,-189.0,0.0,0.0,0.0,0.0,0.0,
3.7242190000000117,0.0,0.0,55114.0,0.0,457.5,0.0,0.0,0.25,1.414794777,0.5498168668524888,0.0,-52894.0,0.0,337.5,0.0,0.0,0.25,4.822997553,4.410439589772222,0.0,55965.0,0.0,232.5,0.0,0.0,0.0,2.730712611,4.389674732977289,0.0,-20860.0,0.0,397.5,0.0,0.0,0.25,2.248534926,0.5526872062785588,0.0,0.10999999940395355,0.23999999463558197,37.79999923706055,-0.0040283203125,-0.08074951171875,0.57568359375,35.58000183105469,0.0,-55.0,-2.012420654296875,-2.67041015625,Closing,0.0,0.0,-189.0,0.0,0.0,0.0,0.0,0.0,
3.8449720000000087,0.0,0.0,55182.0,4.625,592.5,1673.4374999999998,0.0,0.25,1.376952984,0.5498168668524888,0.0,-52894.0,8.5,652.5,1673.4374999999998,0.0,0.25,4.8205561470000005,4.410439589772222,0.0,55965.0,7.75,525.0,1673.4374999999998,0.0,0.125,2.7478024530000003,4.389674732977289,0.0,-20772.0,5.0,562.5,1673.4374999999998,0.0,0.25,2.147216577,0.5526872062785588,0.0,0.3100000023841858,0.20999999344348907,32.279998779296875,0.0263671875,0.16241455078125,0.9215087890625,35.58000183105469,0.0,103.0,-2.011138916015625,-2.685546875,Closing,0.0,0.0,-189.0,0.0,0.0,0.0,0.0,0.0,
3.9890320000000066,0.0,0.0,55283.0,0.0,570.0,0.0,0.0,0.125,1.3464354090000001,0.5498168668524888,0.0,-52694.0,0.0,607.5,0.0,0.0,0.25,4.866942861,4.410439589772222,0.0,56156.0,0.0,607.5,0.0,0.0,0.0,2.775878622,4.389674732977289,0.0,-20686.0,0.0,502.5,0.0,0.0,0.25,2.109374784,0.5526872062785588,0.0,0.27000001072883606,0.33000001311302185,24.65999984741211,-0.1962890625,-0.390380859375,1.1832275390625,35.58000183105469,0.0,-349.0,-2.006805419921875,-2.695587158203125,Closing,0.0,0.0,-189.0,0.0,0.0,0.0,0.0,0.0,
4.125056000000011,0.0,0.0,55370.0,0.625,457.5,157.5,0.0,0.75,1.065673719,0.01,0.0,-52648.0,4.375,255.0,-157.5,0.0,1.0,0.39428706900000005,0.01,0.0,56239.0,1.0,442.5,157.5,0.0,0.75,3.237304356,0.01,0.0,-20630.0,1.875,187.5,-157.5,0.0,0.625,1.7944334100000001,0.01,0.0,-0.009999999776482582,0.20999999344348907,18.8700008392334,-0.0396728515625,-0.0364990234375,1.05670166015625,35.58000183105469,0.0,-53.0,-2.0054931640625,-2.717041015625,Closing,0.0,0.0,-189.0,0.0,0.0,0.0,0.0,0.0,
4.25590400000001,0.0,0.0,55425.0,0.125,52.5,511.875,0.0,0.375,0.740966721,0.01,0.0,-52671.0,5.625,-187.5,-511.875,0.0,0.25,0.7238768790000001,0.01,0.0,56242.0,0.5,0.0,511.875,0.0,0.125,3.5278316700000003,0.01,0.0,-20642.0,3.125,-142.5,-511.875,0.0,0.25,1.5002439870000002,0.01,0.0,0.05000000074505806,0.5,19.84000015258789,0.08477783203125,0.01043701171875,1.00750732421875,35.58000183105469,0.0,74.0,-2.0029449462890625,-2.732177734375,Closing,0.0,0.0,-189.0,0.0,0.0,0.0,0.0,0.0,
4.332297000000006,0.0,0.0,55425.0,0.125,202.5,196.875,0.0,0.375,0.662841729,0.01,0.0,-52698.0,3.25,-172.5,-196.875,0.0,0.25,0.759277266,0.01,0.0,56270.0,0.25,165.0,196.875,0.0,0.25,3.5717769780000004,0.01,0.0,-20665.0,2.0,-135.0,-196.875,0.0,0.375,1.433105322,0.01,0.0,0.07000000029802322,0.5799999833106995,19.520000457763672,-0.01263427734375,-0.022705078125,0.9970703125,35.58000183105469,0.0,-29.0,-1.99774169921875,-2.7322845458984375,Closing,0.0,0.0,-189.0,0.0,0.0,0.0,0.0,0.0,
4.413099000000002,0.0,0.0,55455.0,0.0,135.0,0.0,0.0,0.375,0.70800774,0.01,-0.046386714000000495,-52698.0,0.375,-157.5,0.0,0.0,0.25,0.7373046120000001,0.01,0.0,56270.0,0.0,120.0,0.0,0.0,0.25,3.4802242530000003,0.01,0.0,-20678.0,0.0,-120.0,0.0,0.0,0.375,1.485595551,0.01,0.0,0.019999999552965164,0.07000000029802322,19.639999389648438,-0.14642333984375,-0.03204345703125,0.9547119140625,35.58000183105469,0.0,-149.0,-1.9948272705078125,-2.731689453125,Closing,0.0,0.0,-189.0,0.0,0.0,0.0,0.0,0.0,
4.51308600000001,0.0,0.0,55467.0,4.625,-22.5,-942.519673705101,0.0,2.75,1.019287005,0.5498168668524864,0.0,-52712.0,6.625,-105.0,-942.519673705101,0.0,3.875,0.338134731,4.41043958977222,0.0,56282.0,4.75,7.5,-942.519673705101,0.0,2.625,3.192138345,4.389674732977291,0.0,-20678.0,3.0,-67.5,-942.519673705101,0.0,3.625,1.832275203,0.552687206278561,0.0,0.0,-0.4000000059604645,19.8799991607666,0.05059814453125,-0.069580078125,1.0328369140625,35.56999969482422,0.0,30.0,-1.9996490478515625,-2.7285003662109375,Closing,0.0,0.0,-189.0,0.0,0.0,0.0,0.0,0.0,
4.605178000000015,0.0,0.0,55450.0,1.75,-127.5,0.0,0.0,0.875,1.2402342480000002,0.5498168668524864,0.0,-52740.0,1.375,-105.0,0.0,0.0,0.875,4.929198714,4.41043958977222,0.0,56266.0,0.5,-112.5,0.0,0.0,0.5,2.8527829110000003,4.389674732977291,0.0,-20702.0,0.75,-142.5,0.0,0.0,1.25,2.138671656,0.552687206278561,0.0,-0.029999999329447746,-0.18000000715255737,20.959999084472656,-0.00927734375,0.10870361328125,1.091796875,35.56999969482422,0.0,33.0,-2.00396728515625,-2.7264404296875,Closing,0.0,0.0,-189.0,0.0,0.0,0.0,0.0,0.0,
4.7233330000000135,0.0,0.0,55450.0,0.0,0.0,0.0,0.0,0.625,1.351318221,0.5498168668524864,0.0,-52736.0,0.0,7.5,0.0,0.0,0.0,4.685058114,4.41043958977222,0.0,56267.0,0.0,7.5,0.0,0.0,0.125,2.6391598860000003,4.389674732977291,0.0,-20705.0,0.0,0.0,0.0,0.0,0.25,2.2790525010000002,0.552687206278561,0.0,0.23000000417232513,-0.28999999165534973,21.540000915527344,-0.0115966796875,-0.03167724609375,1.02459716796875,35.56999969482422,0.0,-19.0,-2.0063018798828125,-2.7181854248046875,Closing,0.0,0.0,-189.0,0.0,0.0,0.0,0.0,0.0,
4.853980000000011,0.0,0.0,55425.0,4.0,-105.0,-1074.8031377792358,0.0,0.125,1.36718736,0.5498168668524864,0.0,-52769.0,8.375,-240.0,-1074.8031377792358,0.0,0.5,4.692382332,4.41043958977222,0.0,56258.0,6.125,-75.0,-1074.8031377792358,0.0,0.125,2.706298551,4.389674732977291,0.0,-20725.0,4.25,-150.0,-1074.8031377792358,0.0,0.25,2.2741696890000003,0.552687206278561,0.0,0.07999999821186066,-0.38999998569488525,22.579999923706055,-0.05487060546875,0.06195068359375,0.843505859375,35.56999969482422,0.0,-21.0,-2.0090789794921875,-2.7096099853515625,Closing,0.0,0.0,-189.0,0.0,0.0,0.0,0.0,0.0,
4.990963000000003,0.0,0.0,55380.0,0.0,-217.5,0.0,0.0,0.25,1.380615093,0.5498168668524864,0.0,-52805.0,0.0,-157.5,0.0,0.0,0.25,4.945067853,4.41043958977222,0.0,56218.0,0.0,-217.5,0.0,0.0,0.125,2.833251663,4.389674732977291,0.0,-20760.0,0.0,-157.5,0.0,0.0,0.25,2.181396261,0.552687206278561,0.0,0.1599999964237213,-0.5400000214576721,27.829999923706055,0.04656982421875,-0.023193359375,0.7720947265625,35.560001373291016,0.0,35.0,-2.0156402587890625,-2.704681396484375,Closing,0.0,0.0,-189.0,0.0,0.0,0.0,0.0,0.0,
5.124842000000005,0.0,0.0,55348.0,0.125,-135.0,-380.31496703624725,0.0,0.125,1.380615093,0.5498168668524864,0.0,-52835.0,0.125,-142.5,-380.31496703624725,0.0,0.25,0.07080077400000001,4.41043958977222,0.0,56196.0,0.125,-157.5,-380.31496703624725,0.0,0.125,2.8442379900000003,4.389674732977291,0.0,-20784.0,0.375,-97.5,-380.31496703624725,0.0,0.125,2.1618650130000003,0.552687206278561,0.0,0.20999999344348907,-0.6399999856948853,29.299999237060547,-0.061767578125,0.0035400390625,0.95068359375,35.560001373291016,0.0,-44.0,-2.017791748046875,-2.7060546875,Closing,0.0,0.0,-189.0,0.0,0.0,0.0,0.0,0.0,
5.257016000000004,0.0,0.0,55345.0,0.0,0.0,0.0,0.0,0.125,1.37939439,0.5498168668524864,0.0,-52859.0,0.0,-120.0,0.0,0.0,0.25,0.050048823000000006,4.41043958977222,0.0,56171.0,0.0,-75.0,0.0,0.0,0.125,2.828368851,4.389674732977291,0.0,-20794.0,0.0,-15.0,0.0,0.0,0.125,2.1618650130000003,0.552687206278561,0.0,0.20999999344348907,-0.5,29.399999618530273,-0.024169921875,0.0556640625,1.07513427734375,35.560001373291016,0.0,12.0,-2.020355224609375,-2.7063140869140625,Closing,0.0,0.0,-189.0,0.0,0.0,0.0,0.0,0.0,
5.390464000000007,0.0,0.0,55345.0,0.0,0.0,0.0,0.0,0.125,1.380615093,0.5498168668524864,0.0,-52862.0,0.0,0.0,0.0,0.0,0.25,0.02441406,4.41043958977222,0.0,56170.0,0.0,0.0,0.0,0.0,0.125,2.828368851,4.389674732977291,0.0,-20794.0,0.0,0.0,0.0,0.0,0.125,2.1618650130000003,0.552687206278561,0.0,0.18000000715255737,-0.5799999833106995,29.25,-0.01116943359375,-0.005859375,1.03009033203125,35.560001373291016,0.0,-5.0,-2.02105712890625,-2.705047607421875,Closing,0.0,0.0,-189.0,0.0,0.0,0.0,0.0,0.0,
5.513622000000003,0.0,0.0,55348.0,1.25,75.0,551.25,0.0,1.125,1.0559080950000002,0.01,0.0,-52862.0,3.375,-45.0,-551.25,0.0,0.5,0.212402322,0.01,0.0,56170.0,1.625,127.5,551.25,0.0,1.125,3.139648116,0.01,0.0,-20803.0,1.625,-45.0,-551.25,0.0,0.875,1.7602537260000002,0.01,0.0,0.25999999046325684,-0.36000001430511475,29.540000915527344,0.0784912109375,0.02032470703125,1.0166015625,35.560001373291016,0.0,81.0,-2.01959228515625,-2.70465087890625,Closing,0.0,0.0,-189.0,0.0,0.0,0.0,0.0,0.0,
5.6560250000000085,0.0,0.0,55363.0,2.0,97.5,452.81249999999994,0.0,0.25,0.7250975820000001,0.01,0.0,-52909.0,3.5,-172.5,-452.81249999999994,0.0,0.25,0.6066893910000001,0.01,0.0,56200.0,2.875,30.0,452.81249999999994,0.0,0.25,3.4655758170000004,0.01,0.0,-20822.0,2.5,-112.5,-452.81249999999994,0.0,0.25,1.4807127390000001,0.01,0.0,0.25,0.14000000059604645,29.860000610351562,0.07373046875,0.0108642578125,1.02496337890625,35.560001373291016,0.0,64.0,-2.011444091796875,-2.7080078125,Closing,0.0,0.0,-189.0,0.0,0.0,0.0,0.0,0.0,
5.790690000000002,0.0,0.0,55433.0,2.0,270.0,433.125,0.0,0.375,0.6726073530000001,0.01,0.0,-52954.0,3.625,-277.5,-433.125,0.0,0.25,0.7373046120000001,0.01,0.0,56231.0,3.0,195.0,433.125,0.0,0.25,3.5168453430000004,0.01,0.0,-20875.0,1.375,-382.5,-433.125,0.0,0.375,1.469726412,0.01,0.0,0.23000000417232513,0.23000000417232513,29.850000381469727,-0.0286865234375,-0.02374267578125,1.07659912109375,35.560001373291016,0.0,-42.0,-1.9973907470703125,-2.710662841796875,Closing,0.0,0.0,-189.0,0.0,0.0,0.0,0.0,0.0,
5.9274860000000045,0.0,0.0,55476.0,2.375,270.0,433.125,0.0,0.375,0.782470623,0.01,0.0,-53000.0,4.625,-277.5,-433.125,0.0,0.25,0.6335448570000001,0.01,0.0,56272.0,3.375,247.5,433.125,0.0,0.25,3.4118648850000004,0.01,0.0,-20918.0,2.25,-240.0,-433.125,0.0,0.375,1.6101072570000001,0.01,0.0,0.25,0.14000000059604645,29.68000030517578,0.014404296875,0.02545166015625,0.97119140625,35.560001373291016,0.0,20.0,-1.988677978515625,-2.70904541015625,Closing,0.0,0.0,-189.0,0.0,0.0,0.0,0.0,0.0,
6.045890000000014,0.0,0.0,55522.0,3.125,255.0,433.125,0.0,0.25,0.823974525,0.01,0.0,-53050.0,4.625,-322.5,-433.125,0.0,0.25,0.538330023,0.01,0.0,56314.0,3.875,262.5,433.125,0.0,0.125,3.3105465360000004,0.01,0.0,-20967.0,2.375,-315.0,-433.125,0.0,0.25,1.7065427940000002,0.01,0.0,0.2199999988079071,0.47999998927116394,29.799999237060547,0.0986328125,0.00347900390625,1.027587890625,35.58000183105469,0.0,77.0,-1.9873504638671875,-2.7087554931640625,Closing,0.0,0.0,-189.0,0.0,0.0,0.0,0.0,0.0,
6.192381000000008,0.0,0.0,55589.0,2.125,435.0,433.125,0.0,0.125,0.811767495,0.01,0.0,-53120.0,2.875,-472.5,-433.125,0.0,0.0,0.46142573400000003,0.01,0.0,56377.0,3.125,412.5,433.125,0.0,0.0,3.3239742690000003,0.01,0.0,-21034.0,2.125,-427.5,-433.125,0.0,0.25,1.717529121,0.01,0.0,0.25999999046325684,0.8199999928474426,30.0,0.00994873046875,-0.04864501953125,1.03802490234375,35.58000183105469,0.0,-31.0,-1.97918701171875,-2.7110137939453125,Closing,0.0,0.0,-189.0,0.0,0.0,0.0,0.0,0.0,
6.326356000000015,0.0,0.0,55670.0,1.625,495.0,433.125,0.0,0.125,0.8166503070000001,0.01,0.0,-53205.0,1.625,-540.0,-433.125,0.0,0.25,0.46752924900000004,0.01,0.0,56452.0,2.5,472.5,433.125,0.0,0.0,3.338622705,0.01,0.0,-21091.0,1.375,-517.5,-433.125,0.0,0.25,1.649169753,0.01,0.0,0.2199999988079071,0.75,30.309999465942383,0.01226806640625,-0.06280517578125,1.1602783203125,35.58000183105469,0.0,-36.0,-1.9789581298828125,-2.7108612060546875,Closing,0.0,0.0,-189.0,0.0,0.0,0.0,0.0,0.0,
6.455306000000012,0.0,0.0,55753.0,0.875,517.5,433.125,0.0,0.125,0.812988198,0.01,0.0,-53293.0,1.0,-540.0,-433.125,0.0,0.0,0.505371042,0.01,0.0,56531.0,1.875,510.0,433.125,0.0,0.0,3.338622705,0.01,0.0,-21179.0,1.0,-495.0,-433.125,0.0,0.25,1.6064451480000002,0.01,0.0,0.18000000715255737,0.6299999952316284,30.3700008392334,-0.0721435546875,0.0224609375,1.032958984375,35.58000183105469,0.0,-62.0,-1.9794464111328125,-2.7107696533203125,Closing,0.0,0.0,-189.0,0.0,0.0,0.0,0.0,0.0,
6.589090000000011,0.0,0.0,55830.0,0.0,367.5,0.0,0.0,0.125,0.8166503070000001,0.01,0.0,-53376.0,0.0,-307.5,0.0,0.0,0.125,0.505371042,0.01,0.0,56614.0,0.0,240.0,0.0,0.0,0.0,3.343505517,0.01,0.0,-21331.0,0.0,-442.5,0.0,0.0,0.25,1.6101072570000001,0.01,0.0,0.30000001192092896,-0.6200000047683716,30.719999313354492,-0.49176025390625,-0.0347900390625,1.11468505859375,35.52000045776367,0.0,-433.0,-1.987701416015625,-2.70452880859375,Closing,0.0,0.0,-189.0,0.0,0.0,0.0,0.0,0.0,
6.66860500000001,0.0,0.0,55860.0,0.0,165.0,0.0,0.0,0.125,0.8166503070000001,0.01,0.0,-53434.0,0.0,-412.5,0.0,0.0,0.125,0.505371042,0.01,0.0,56637.0,0.0,165.0,0.0,0.0,0.0,3.343505517,0.01,0.0,-21331.0,0.125,-315.0,0.0,0.0,0.25,1.6101072570000001,0.01,0.0,0.17000000178813934,-1.5299999713897705,31.190000534057617,-0.2642822265625,-0.06781005859375,1.00408935546875,35.52000045776367,0.0,-239.0,-2.0058746337890625,-2.694366455078125,Closing,0.0,0.0,-189.0,0.0,0.0,0.0,0.0,0.0,
6.747281000000003,0.0,0.0,55863.0,0.0,30.0,0.0,0.0,0.125,0.821533119,0.01,0.0,-53442.0,0.0,0.0,0.0,0.0,0.125,0.505371042,0.01,0.0012207030000004337,56655.0,0.0,82.5,0.0,0.0,0.0,3.343505517,0.01,0.0012207030000004337,-21342.0,0.0,-37.5,0.0,0.0,0.25,1.56249984,0.01,0.0,0.18000000715255737,-1.809999942779541,30.84000015258789,-0.0411376953125,0.0555419921875,1.0357666015625,35.52000045776367,0.0,19.0,-2.02508544921875,-2.6916961669921875,Closing,0.0,0.0,-189.0,0.0,0.0,0.0,0.0,0.0,
6.823612000000009,0.0,0.0,55863.0,0.0,0.0,0.0,0.0,0.125,0.826415931,0.01,-4.927368188,-53442.0,0.0,150.0,0.0,0.0,0.125,0.506591745,0.01,0.0,56655.0,0.0,-67.5,0.0,0.0,0.0,3.342284814,0.01,0.0,-21329.0,0.0,52.5,0.0,0.0,0.25,1.5771482760000002,0.01,0.0,0.1599999964237213,-1.5800000429153442,30.81999969482422,0.0657958984375,-0.0362548828125,0.9569091796875,35.52000045776367,0.0,59.0,-2.024261474609375,-2.6909027099609375,Closing,0.0,0.0,-189.0,0.0,0.0,0.0,0.0,0.0,
6.990634000000005,0.0,0.0,55850.0,0.0,-67.5,0.0,0.0,0.125,0.826415931,0.01,0.0,-53414.0,0.0,45.0,0.0,0.0,0.125,0.505371042,0.01,0.0,56632.0,0.0,-37.5,0.0,0.0,0.0,3.34472622,0.01,0.0,-21325.0,0.0,22.5,0.0,0.0,0.25,1.6113279600000001,0.01,0.0,0.2199999988079071,-1.059999942779541,30.8700008392334,0.0440673828125,-0.02581787109375,0.988037109375,35.52000045776367,0.0,38.0,-2.016754150390625,-2.6930389404296875,Closing,0.0,0.0,-189.0,0.0,0.0,0.0,0.0,0.0,
7.062232000000003,0.0,0.0,55845.0,0.0,-7.5,0.0,0.0,0.125,0.826415931,0.01,0.0012207029999999897,-53414.0,0.0,7.5,0.0,0.0,0.125,0.505371042,0.01,0.0012207030000004337,56632.0,0.0,0.0,0.0,0.0,0.0,3.343505517,0.01,0.0012207030000004337,-21325.0,0.0,0.0,0.0,0.0,0.25,1.614990069,0.01,0.03417968399999971,0.1599999964237213,-1.0399999618530273,30.8799991607666,-0.075927734375,0.09149169921875,0.998291015625,35.5,0.0,-4.0,-2.0103302001953125,-2.6937255859375,Closing,0.0,0.0,-189.0,0.0,0.0,0.0,0.0,0.0,
7.181456000000005,0.0,0.0,55845.0,0.0,0.0,0.0,0.0,0.125,0.826415931,0.01,0.0,-53414.0,0.0,0.0,0.0,0.0,0.125,0.505371042,0.01,0.0,56632.0,0.0,0.0,0.0,0.0,0.0,3.343505517,0.01,0.0,-21325.0,0.0,0.0,0.0,0.0,0.125,1.614990069,0.01,0.0,0.20000000298023224,-1.0800000429153442,30.889999389648438,0.00408935546875,0.00299072265625,1.02496337890625,35.5,0.0,19.0,-2.0095367431640625,-2.6939544677734375,Closing,0.0,0.0,-189.0,0.0,0.0,0.0,0.0,0.0,
7.324045000000013,0.0,0.0,55845.0,0.0,0.0,0.0,0.0,0.125,0.826415931,0.01,0.0,-53414.0,0.0,0.0,0.0,0.0,0.125,0.506591745,0.01,0.0,56632.0,0.0,0.0,0.0,0.0,0.0,3.343505517,0.01,0.0,-21325.0,0.125,0.0,0.0,0.0,0.125,1.614990069,0.01,0.0,0.20999999344348907,-1.0199999809265137,30.889999389648438,-0.0279541015625,0.00408935546875,1.01409912109375,35.5,0.0,-8.0,-2.0093841552734375,-2.6939544677734375,Closing,0.0,0.0,-189.0,0.0,0.0,0.0,0.0,0.0,
7.393071000000011,0.0,0.0,55845.0,0.0,0.0,0.0,0.0,0.125,0.826415931,0.01,0.0024414060000000903,-53414.0,0.0,0.0,0.0,0.0,0.125,0.505371042,0.01,0.0,56632.0,0.0,0.0,0.0,0.0,0.0,3.343505517,0.01,0.0,-21325.0,0.0,0.0,0.0,0.0,0.125,1.614990069,0.01,0.0,0.23000000417232513,-0.9800000190734863,30.889999389648438,-0.00201416015625,0.00311279296875,1.04241943359375,35.5,0.0,13.0,-2.0092620849609375,-2.6939544677734375,Closing,0.0,0.0,-189.0,0.0,0.0,0.0,0.0,0.0,
7.475213000000004,0.0,0.0,55845.0,0.0,0.0,0.0,0.0,0.125,0.8276366340000001,0.01,-0.0024414060000000903,-53414.0,0.0,0.0,0.0,0.0,0.125,0.5041503390000001,0.01,0.0,56632.0,0.0,0.0,0.0,0.0,0.0,3.343505517,0.01,0.0,-21325.0,0.0,0.0,0.0,0.0,0.125,1.616210772,0.01,0.0,0.23000000417232513,-0.9599999785423279,30.8799991607666,-0.01708984375,0.00732421875,1.01312255859375,35.5,0.0,1.0,-2.0092620849609375,-2.6939544677734375,Closing,0.0,0.0,-189.0,0.0,0.0,0.0,0.0,0.0,
7.570006000000008,0.0,0.0,55845.0,0.0,0.0,0.0,0.0,0.125,0.826415931,0.01,0.0,-53414.0,0.0,0.0,0.0,0.0,0.125,0.505371042,0.01,0.0,56632.0,0.0,0.0,0.0,0.0,0.0,3.343505517,0.01,0.0,-21325.0,0.0,0.0,0.0,0.0,0.125,1.614990069,0.01,0.0,0.23000000417232513,-0.9300000071525574,30.889999389648438,-0.006591796875,0.0032958984375,1.02655029296875,35.5099983215332,0.0,8.0,-2.0092620849609375,-2.6939544677734375,Closing,0.0,0.0,-189.0,0.0,0.0,0.0,0.0,0.0,
7.633293000000005,0.0,0.0,55845.0,0.0,0.0,0.0,0.0,0.125,0.826415931,0.01,0.0012207030000001007,-53414.0,0.0,0.0,0.0,0.0,0.125,0.505371042,0.01,0.0,56632.0,0.0,0.0,0.0,0.0,0.0,3.343505517,0.01,0.0,-21325.0,0.0,0.0,0.0,0.0,0.125,1.616210772,0.01,0.0,0.23000000417232513,-0.9200000166893005,30.889999389648438,-0.015869140625,0.004638671875,1.02984619140625,35.5099983215332,0.0,0.0,-2.0092620849609375,-2.6939544677734375,Closing,0.0,0.0,-189.0,0.0,0.0,0.0,0.0,0.0,
7.704642000000007,0.0,0.0,55845.0,0.0,0.0,0.0,0.0,0.125,0.826415931,0.01,-0.0012207030000001007,-53414.0,0.0,0.0,0.0,0.0,0.125,0.505371042,0.01,0.0,56632.0,0.0,0.0,0.0,0.0,0.0,3.343505517,0.01,0.0,-21325.0,0.0,0.0,0.0,0.0,0.125,1.614990069,0.01,0.0,0.23999999463558197,-0.8999999761581421,30.889999389648438,-0.0045166015625,-7.9345703125E-4,1.0089111328125,35.5099983215332,0.0,7.0,-2.0092620849609375,-2.6939544677734375,Closing,0.0,0.0,-189.0,0.0,0.0,0.0,0.0,0.0,
7.774656000000003,0.0,0.0,55845.0,0.0,0.0,0.0,0.0,0.125,0.825195228,0.01,0.0,-53414.0,0.0,0.0,0.0,0.0,0.125,0.505371042,0.01,0.0,56632.0,0.0,0.0,0.0,0.0,0.0,3.343505517,0.01,0.0,-21325.0,0.0,0.0,0.0,0.0,0.125,1.616210772,0.01,0.0,0.23999999463558197,-0.8799999952316284,30.889999389648438,-0.01422119140625,0.00384521484375,1.02008056640625,35.5099983215332,0.0,1.0,-2.0092620849609375,-2.6939544677734375,Closing,0.0,0.0,-189.0,0.0,0.0,0.0,0.0,0.0,
7.866625,0.0,0.0,55845.0,0.0,0.0,0.0,0.0,0.125,0.826415931,0.01,0.0012207030000001007,-53414.0,0.0,0.0,0.0,0.0,0.125,0.505371042,0.01,0.0,56632.0,0.0,0.0,0.0,0.0,0.0,3.342284814,0.01,0.0012207030000004337,-21325.0,0.0,0.0,0.0,0.0,0.125,1.616210772,0.01,0.0,0.23999999463558197,-0.8700000047683716,30.889999389648438,-0.00439453125,0.0069580078125,1.01995849609375,35.5099983215332,0.0,10.0,-2.0092620849609375,-2.6939544677734375,Closing,0.0,0.0,-189.0,0.0,0.0,0.0,0.0,0.0,
7.935602000000014,0.0,0.0,55845.0,0.0,0.0,0.0,0.0,0.125,0.826415931,0.01,-0.0012207030000001007,-53414.0,0.0,0.0,0.0,0.0,0.125,0.505371042,0.01,0.0,56632.0,0.0,0.0,0.0,0.0,0.0,3.343505517,0.01,0.0,-21325.0,0.0,0.0,0.0,0.0,0.125,1.614990069,0.01,0.0,0.25,-0.8600000143051147,30.8799991607666,-0.02117919921875,3.662109375E-4,1.0318603515625,35.5099983215332,0.0,-7.0,-2.0092620849609375,-2.6939544677734375,Opening,0.0,0.0,-189.0,0.0,0.0,0.0,0.0,0.0,
8.011535000000004,0.0,0.0,55845.0,0.0,0.0,0.0,0.0,0.125,0.826415931,0.01,0.0,-53414.0,0.0,0.0,0.0,0.0,0.125,0.505371042,0.01,-0.0012207030000004337,56632.0,0.0,0.0,0.0,0.0,0.0,3.343505517,0.01,0.0,-21325.0,0.125,0.0,0.0,0.0,0.125,1.616210772,0.01,0.0,0.1899999976158142,-0.8199999928474426,30.8700008392334,-0.132568359375,-0.10052490234375,1.04931640625,35.5099983215332,0.0,-154.0,-2.0092926025390625,-2.694671630859375,Opening,0.0,0.0,-189.0,0.0,0.0,0.0,0.0,0.0,
8.078701,0.0,0.0,55845.0,0.0,0.0,0.0,0.0,0.125,0.826415931,0.01,0.0,-53414.0,0.0,0.0,0.0,0.0,0.125,0.505371042,0.01,0.0,56632.0,0.0,0.0,0.0,0.0,0.0,3.342284814,0.01,0.0,-21325.0,0.0,0.0,0.0,0.0,0.125,1.614990069,0.01,0.0,0.10999999940395355,-0.8100000023841858,30.8799991607666,0.07049560546875,0.08636474609375,0.75848388671875,35.5099983215332,0.0,113.0,-2.0093994140625,-2.695098876953125,Opening,0.0,0.0,-189.0,0.0,0.0,0.0,0.0,0.0,
8.155577000000005,0.0,0.0,55845.0,0.0,0.0,0.0,0.0,0.125,0.8312987430000001,0.01,0.0,-53414.0,0.0,0.0,0.0,0.0,0.125,0.505371042,0.01,0.0,56632.0,0.0,0.0,0.0,0.0,0.0,3.343505517,0.01,0.0,-21325.0,0.0,0.0,0.0,0.0,0.125,1.614990069,0.01,0.0,0.15000000596046448,-0.8299999833106995,30.8799991607666,0.03875732421875,-0.01544189453125,1.0054931640625,35.5099983215332,0.0,36.0,-2.009857177734375,-2.6947479248046875,Opening,0.0,0.0,-189.0,0.0,0.0,0.0,0.0,0.0,
8.24477500000001,0.0,0.0,55845.0,0.0,0.0,0.0,0.0,0.125,0.8312987430000001,0.01,-0.0024414060000000903,-53414.0,0.0,0.0,0.0,0.0,0.125,0.505371042,0.01,-0.0012207030000004337,56632.0,0.0,0.0,0.0,0.0,0.0,3.343505517,0.01,0.0,-21325.0,0.0,0.0,0.0,0.0,0.125,1.614990069,0.01,0.0,0.1599999964237213,-0.8399999737739563,30.8799991607666,-0.03753662109375,-0.02972412109375,1.14227294921875,35.5099983215332,0.0,-34.0,-2.010345458984375,-2.694427490234375,Opening,0.0,0.0,-189.0,0.0,0.0,0.0,0.0,0.0,
8.302718000000008,0.0,0.0,55845.0,0.0,0.0,0.0,0.0,0.125,0.826415931,0.01,0.0,-53414.0,0.0,0.0,0.0,0.0,0.125,0.505371042,0.01,0.0,56632.0,0.0,0.0,0.0,0.0,0.0,3.343505517,0.01,0.0,-21325.0,0.0,0.0,0.0,0.0,0.125,1.616210772,0.01,0.0,0.17000000178813934,-0.8100000023841858,30.8799991607666,0.01007080078125,0.02874755859375,1.03179931640625,35.5099983215332,0.0,34.0,-2.0105743408203125,-2.6945343017578125,Opening,0.0,0.0,-189.0,0.0,0.0,0.0,0.0,0.0,
8.374418000000006,0.0,0.0,55845.0,0.0,0.0,0.0,0.0,0.125,0.826415931,0.01,0.0,-53414.0,0.0,0.0,0.0,0.0,0.125,0.505371042,0.01,0.0,56632.0,0.0,0.0,0.0,0.0,0.0,3.343505517,0.01,0.0,-21325.0,0.0,0.0,0.0,0.0,0.125,1.614990069,0.01,0.0,0.17000000178813934,-0.7900000214576721,30.8799991607666,-0.01300048828125,0.01397705078125,1.02252197265625,35.5099983215332,0.0,6.0,-2.0106048583984375,-2.694549560546875,Opening,0.0,0.0,-189.0,0.0,0.0,0.0,0.0,0.0,
8.467557000000001,0.0,0.0,55845.0,0.0,0.0,0.0,0.0,0.125,0.8312987430000001,0.01,0.0,-53414.0,0.0,0.0,0.0,0.0,0.125,0.5041503390000001,0.01,0.0,56632.0,0.0,0.0,0.0,0.0,0.0,3.34472622,0.01,0.0,-21325.0,0.0,0.0,0.0,0.0,0.125,1.616210772,0.01,0.0,0.1899999976158142,-0.7799999713897705,30.8799991607666,-0.00274658203125,9.1552734375E-4,1.0379638671875,35.5099983215332,0.0,8.0,-2.0106048583984375,-2.694549560546875,Opening,0.0,0.0,-189.0,0.0,0.0,0.0,0.0,0.0,
8.535606000000014,0.0,0.0,55845.0,0.0,0.0,0.0,0.0,0.125,0.826415931,0.01,0.0,-53414.0,0.0,0.0,0.0,0.0,0.125,0.505371042,0.01,0.0,56632.0,0.0,0.0,0.0,0.0,0.0,3.34472622,0.01,0.0,-21325.0,0.0,0.0,0.0,0.0,0.125,1.614990069,0.01,0.0,0.2199999988079071,-0.7599999904632568,30.8799991607666,-0.0279541015625,-0.01397705078125,1.06292724609375,35.54999923706055,0.0,-21.0,-2.0104522705078125,-2.694549560546875,Closing,0.0,0.0,-189.0,0.0,0.0,0.0,0.0,0.0,
8.64237400000001,0.0,0.0,55845.0,0.0,0.0,0.0,0.0,0.125,0.826415931,0.01,0.0,-53414.0,0.0,0.0,0.0,0.0,0.125,0.505371042,0.01,0.0,56632.0,0.0,0.0,0.0,0.0,0.0,3.343505517,0.01,0.0,-21325.0,0.0,0.0,0.0,0.0,0.125,1.614990069,0.01,0.0,0.23000000417232513,-0.7200000286102295,30.8799991607666,0.0384521484375,0.03564453125,0.97955322265625,35.54999923706055,0.0,59.0,-2.0082244873046875,-2.6952972412109375,Closing,0.0,0.0,-189.0,0.0,0.0,0.0,0.0,0.0,
8.728569000000004,0.0,0.0,55845.0,0.0,0.0,0.0,0.0,0.125,0.826415931,0.01,0.0,-53414.0,0.0,0.0,0.0,0.0,0.125,0.505371042,0.01,0.0,56632.0,0.0,0.0,0.0,0.0,0.0,3.343505517,0.01,0.0,-21325.0,0.0,0.0,0.0,0.0,0.125,1.616210772,0.01,0.0,0.20999999344348907,-0.7900000214576721,30.8799991607666,0.05682373046875,-0.05438232421875,0.9847412109375,35.54999923706055,0.0,30.0,-2.0076751708984375,-2.696929931640625,Closing,0.0,0.0,-189.0,0.0,0.0,0.0,0.0,0.0,
8.806955000000002,0.0,0.0,55845.0,0.0,0.0,-138.89763727784157,0.0,0.125,0.826415931,4.932250999999998,0.0,-53414.0,0.125,0.0,138.89763727784157,0.0,0.0,0.505371042,4.963769999999998,0.0,56632.0,0.125,0.0,-138.89763727784157,0.0,0.0,3.342284814,0.01,0.0,-21325.0,0.25,0.0,138.89763727784157,0.0,0.125,1.614990069,0.01,0.0,0.2199999988079071,-0.7099999785423279,30.8799991607666,-0.0391845703125,0.053955078125,0.9881591796875,35.54999923706055,0.0,2.0,-2.00726318359375,-2.6992645263671875,Closing,0.0,0.0,-189.0,0.0,0.0,0.0,0.0,0.0,
8.889238000000011,0.0,0.0,55845.0,1.875,-82.5,-813.5432946681976,0.0,0.125,0.8312987430000001,4.932250999999998,0.0,-53381.0,4.0,120.0,813.5432946681976,0.0,0.0,0.505371042,4.963769999999998,0.0,56606.0,2.5,-97.5,-813.5432946681976,0.0,0.0,3.3728023890000003,0.01,0.0,-21311.0,2.125,45.0,813.5432946681976,0.0,0.125,1.617431475,0.01,0.0,0.3799999952316284,-1.1799999475479126,30.850000381469727,-0.3150634765625,-0.1207275390625,1.0557861328125,35.54999923706055,0.0,-317.0,-2.008087158203125,-2.70123291015625,Closing,0.0,0.0,-189.0,0.0,0.0,0.0,0.0,0.0,
8.999288,0.0,0.0,55816.0,3.25,-232.5,-833.3858048915863,0.0,0.25,0.8312987430000001,4.932250999999998,0.0,-53347.0,6.625,240.0,833.3858048915863,0.0,0.0,0.47485346700000003,4.963769999999998,0.0,56597.0,4.125,-120.0,-833.3858048915863,0.0,0.0,3.3666988740000003,0.01,0.0,-21271.0,3.5,240.0,833.3858048915863,0.0,0.125,1.616210772,0.01,0.0,0.36000001430511475,-1.7899999618530273,30.799999237060547,-0.2197265625,-0.05145263671875,1.07598876953125,35.54999923706055,0.0,-189.0,-2.0187530517578125,-2.7002105712890625,Closing,0.0,0.0,-189.0,0.0,0.0,0.0,0.0,0.0,
9.124644,0.0,0.0,55776.0,4.25,-390.0,-833.3858048915863,0.0,0.25,0.837402258,4.932250999999998,0.0,-53347.0,8.75,405.0,833.3858048915863,0.0,0.25,0.46630854600000005,4.963769999999998,0.0,56569.0,8.0,-172.5,-833.3858048915863,0.0,0.0,3.3715816860000003,0.01,0.0,-21201.0,4.125,390.0,833.3858048915863,0.0,0.125,1.616210772,0.01,0.0,0.41999998688697815,-2.430000066757202,30.84000015258789,-0.162353515625,-0.0194091796875,1.09429931640625,35.540000915527344,0.0,-113.0,-2.0376739501953125,-2.6939697265625,Closing,0.0,0.0,-189.0,0.0,0.0,0.0,0.0,0.0,
9.255436000000001,0.0,0.0,55573.0,2.875,-690.0,-833.3858048915863,0.0,0.25,0.837402258,4.932250999999998,0.0,-53152.0,5.375,727.5,833.3858048915863,0.0,0.25,0.462646437,4.963769999999998,0.0,56481.0,9.0,-592.5,-833.3858048915863,0.0,0.0,3.3679195770000003,0.01,0.0,-21092.0,3.125,675.0,833.3858048915863,0.0,0.125,1.614990069,0.01,0.0,0.4699999988079071,-3.059999942779541,31.1299991607666,-0.04443359375,0.06011962890625,1.0184326171875,35.540000915527344,0.0,35.0,-2.0774993896484375,-2.67718505859375,Closing,0.0,0.0,-189.0,0.0,0.0,0.0,0.0,0.0,
9.392607000000003,0.0,0.0,55430.0,1.0,-870.0,-833.3858048915863,0.0,0.125,0.837402258,4.932250999999998,0.0,-53012.0,2.75,885.0,833.3858048915863,0.0,0.25,0.462646437,4.963769999999998,0.0,56354.0,5.625,-802.5,-833.3858048915863,0.0,0.0,3.3618160620000004,0.01,0.0,-20963.0,2.5,817.5,833.3858048915863,0.0,0.125,1.616210772,0.01,0.0,0.44999998807907104,-3.130000114440918,31.440000534057617,-0.04248046875,-0.04449462890625,0.8662109375,35.540000915527344,0.0,-22.0,-2.1120758056640625,-2.66015625,Closing,0.0,0.0,-189.0,0.0,0.0,0.0,0.0,0.0,
9.52517700000001,0.0,0.0,55276.0,1.375,-960.0,-1013.0449787826103,0.0,0.25,0.8691405360000001,0.0993660681547691,0.0,-52869.0,0.875,885.0,713.0793106623951,0.0,0.25,0.563964786,0.142459472576888,0.0,56211.0,6.625,-892.5,-1013.0449787826103,0.0,0.25,3.3251949720000002,4.840869760538987,0.0,-20833.0,1.5,780.0,713.0793106623951,0.0,0.25,1.5539549190000002,4.815706125578701,0.0,0.4300000071525574,-3.109999895095825,32.099998474121094,-0.113525390625,0.057861328125,1.20953369140625,35.540000915527344,0.0,-14.0,-2.1560516357421875,-2.65679931640625,Closing,0.0,0.0,-189.0,0.0,0.0,0.0,0.0,0.0,
9.659281000000004,0.0,0.0,55101.0,1.625,-1125.0,-1213.9839679428776,0.0,0.25,0.969238182,0.1807719007675613,0.0,-52736.0,0.625,735.0,593.2155126824115,0.0,0.25,0.8691405360000001,0.3839610293736168,0.0,56058.0,7.875,-1087.5,-1213.9839679428776,0.0,0.25,3.2189938110000003,4.759329430284051,0.0,-20702.0,0.5,810.0,593.2155126824115,0.0,0.5,1.308593616,4.574485295725951,0.0,0.2800000011920929,-3.0,34.689998626708984,-0.0826416015625,-0.053955078125,1.201171875,35.529998779296875,0.0,-50.0,-2.1942596435546875,-2.6592864990234375,Closing,0.0,0.0,-189.0,0.0,0.0,0.0,0.0,0.0,
9.78206300000001,0.0,0.0,54897.0,0.625,-1260.0,-1196.6053888800047,0.0,0.25,1.0559080950000002,0.248851900521723,0.0,-52630.0,0.25,637.5,450.1593357631973,0.0,0.5,1.229247921,0.7715691748649559,0.0,55868.0,5.25,-1260.0,-1196.6053888800047,0.0,0.125,3.1555172550000004,4.691136949652903,0.0,-20585.0,0.5,622.5,450.1593357631973,0.0,1.375,1.043701065,4.1873277148255355,0.0,0.27000001072883606,-2.640000104904175,40.529998779296875,0.09979248046875,0.048095703125,0.911376953125,35.529998779296875,0.0,136.0,-2.224884033203125,-2.6603240966796875,Closing,0.0,0.0,-189.0,0.0,0.0,0.0,0.0,0.0,
9.91069600000001,0.0,0.0,54686.0,0.125,-1335.0,-1301.6221240144976,0.0,0.25,1.090087779,0.28243564570922036,0.0,-52536.0,0.25,600.0,476.6366068083484,0.0,0.25,1.622314287,1.0209613181286215,0.0,55679.0,7.5,-1065.0,-1301.6221240144976,0.0,0.125,3.082275075,4.657497717844889,0.0,-20497.0,1.125,442.5,476.6366068083484,0.0,0.5,0.53710932,3.9382254707043827,0.0,0.47999998927116394,-2.1700000762939453,49.939998626708984,-0.06207275390625,0.22509765625,1.209716796875,35.529998779296875,0.0,153.0,-2.2478790283203125,-2.663726806640625,Closing,0.0,0.0,-189.0,0.0,0.0,0.0,0.0,0.0,
10.058689000000014,0.0,0.0,54448.0,0.0,-1492.5,-1280.2121332389302,0.0,0.125,1.090087779,0.2943907513491743,0.0,-52439.0,0.125,592.5,475.4906219362794,0.0,0.25,1.881103323,1.1096059274549275,0.0,55472.0,5.25,-1365.0,-1280.2121332389302,0.0,0.125,3.0480953910000004,4.645522860137195,0.0,-20426.0,0.875,570.0,475.4906219362794,0.0,0.25,0.17089842,3.8496839039033777,0.0,0.8299999833106995,-1.7100000381469727,60.02000045776367,0.07940673828125,-0.028564453125,0.20147705078125,35.529998779296875,0.0,-53.0,-2.25225830078125,-2.667938232421875,Closing,0.0,0.0,-189.0,0.0,0.0,0.0,0.0,0.0,
10.191471000000005,0.0,0.0,54220.0,0.0,-1387.5,-1280.2121332389302,0.0,0.125,1.090087779,0.2943907513491743,0.0,-52346.0,0.25,600.0,475.4906219362794,0.0,0.25,1.807861143,1.1096059274549275,0.0,55261.0,6.0,-1297.5,-1280.2121332389302,0.0,0.0,3.045653985,4.645522860137195,0.0,-20256.0,0.875,495.0,475.4906219362794,0.0,0.375,0.364990197,3.8496839039033777,0.0,1.100000023841858,-1.7300000190734863,72.1500015258789,-0.077880859375,0.09197998046875,1.102783203125,35.540000915527344,0.0,53.0,-2.2397308349609375,-2.6732635498046875,Closing,0.0,0.0,-189.0,0.0,0.0,0.0,0.0,0.0,
10.324426000000006,0.0,0.0,54006.0,0.0,-1230.0,-825.5527172040169,0.0,0.375,1.0070799750000001,0.14265980786520566,0.0,-52167.0,0.25,532.5,481.6570997841142,0.0,1.5,0.9985350540000001,0.2488203525765873,0.0,54900.0,2.125,-900.0,-825.5527172040169,0.0,0.125,3.12499968,4.797504491483248,0.0,-20188.0,1.25,420.0,481.6570997841142,0.0,1.375,1.202392455,4.7094688819033275,0.0,1.2100000381469727,-2.2100000381469727,83.63999938964844,1.220703125E-4,0.1639404296875,1.06231689453125,35.540000915527344,0.0,145.0,-2.2170257568359375,-2.677978515625,Closing,0.0,0.0,-189.0,0.0,0.0,0.0,0.0,0.0,
10.429799000000013,0.0,0.0,53684.0,0.0,-900.0,-634.9606275558472,0.0,0.375,0.836181555,4.932250999999998,0.0,-52082.0,0.375,555.0,634.9606275558472,0.0,0.25,0.29296872,4.963769999999998,0.0,54741.0,2.625,-892.5,-634.9606275558472,0.0,0.125,3.354491844,0.01,0.0,-20127.0,2.75,420.0,634.9606275558472,0.0,0.375,1.8920896500000002,0.01,0.0,1.1100000143051147,-2.0399999618530273,88.20999908447266,0.06182861328125,-0.04278564453125,1.0137939453125,35.540000915527344,0.0,-59.0,-2.1914215087890625,-2.679412841796875,Closing,0.0,0.0,-189.0,0.0,0.0,0.0,0.0,0.0,
10.558531000000002,0.0,0.0,53684.0,0.0,-630.0,-634.9606275558472,0.0,0.25,0.761718672,4.932250999999998,0.0,-51988.0,0.25,585.0,634.9606275558472,0.0,1.0,0.16845701400000002,4.963769999999998,0.0,54645.0,3.875,-675.0,-634.9606275558472,0.0,0.0,3.4692379260000004,0.01,0.0,-20039.0,2.375,547.5,634.9606275558472,0.0,1.0,1.978759563,0.01,0.0,1.0299999713897705,-1.5700000524520874,87.88999938964844,0.1539306640625,-0.03631591796875,0.97607421875,35.540000915527344,0.0,-47.0,-2.178680419921875,-2.685211181640625,Closing,0.0,0.0,-189.0,0.0,0.0,0.0,0.0,0.0,
10.661064000000014,0.0,0.0,53603.0,0.125,-435.0,-634.9606275558472,0.0,0.25,0.759277266,4.932250999999998,0.0,-51988.0,0.5,540.0,634.9606275558472,0.0,0.5,0.25756833300000004,4.963769999999998,0.0,54645.0,7.25,-457.5,-634.9606275558472,0.0,0.125,3.4655758170000004,0.01,0.0,-20039.0,2.5,525.0,634.9606275558472,0.0,0.5,1.795654113,0.01,0.0,0.8799999952316284,-1.090000033378601,86.77999877929688,0.01544189453125,0.02545166015625,0.94140625,35.540000915527344,0.0,12.0,-2.165313720703125,-2.7010040283203125,Closing,0.0,0.0,-189.0,0.0,0.0,0.0,0.0,0.0,
10.733943000000014,0.0,0.0,53529.0,0.375,-435.0,-634.9606275558472,0.0,0.25,0.7629393750000001,4.932250999999998,0.0,-51903.0,0.75,540.0,634.9606275558472,0.0,0.5,0.37597652400000003,4.963769999999998,0.0,54583.0,9.125,-367.5,-634.9606275558472,0.0,0.25,3.441161757,0.01,0.0,-19954.0,2.75,525.0,634.9606275558472,0.0,0.25,1.6601560800000001,0.01,0.0,1.0299999713897705,-1.2400000095367432,86.05999755859375,-0.096923828125,0.07379150390625,1.01434326171875,35.540000915527344,0.0,50.0,-2.1645965576171875,-2.7108917236328125,Closing,0.0,0.0,-189.0,0.0,0.0,0.0,0.0,0.0,
10.807408000000011,0.0,0.0,53529.0,0.625,-412.5,-634.9606275558472,0.0,0.25,0.759277266,4.932250999999998,0.0,-51814.0,0.75,562.5,634.9606275558472,0.0,0.25,0.5297851020000001,4.963769999999998,0.0,54514.0,10.75,-405.0,-634.9606275558472,0.0,0.125,3.4155269940000004,0.01,0.0,-19864.0,2.75,547.5,634.9606275558472,0.0,0.25,1.560058434,0.01,0.0,0.8999999761581421,-1.4299999475479126,85.45999908447266,-0.01116943359375,-0.01922607421875,0.66162109375,35.540000915527344,0.0,-29.0,-2.16424560546875,-2.72283935546875,Closing,0.0,0.0,-189.0,0.0,0.0,0.0,0.0,0.0,
10.875565000000002,0.0,0.0,53463.0,0.625,-450.0,-634.9606275558472,0.0,0.25,0.7751464050000001,4.932250999999998,0.0,-51814.0,0.875,532.5,634.9606275558472,0.0,0.125,0.5676268950000001,4.963769999999998,0.0,54514.0,10.25,-502.5,-634.9606275558472,0.0,0.125,3.4118648850000004,0.01,0.0,-19864.0,3.0,540.0,634.9606275558472,0.0,0.25,1.5246580470000002,0.01,0.0,0.8999999761581421,-1.5299999713897705,85.5,-0.02978515625,0.10345458984375,0.85333251953125,35.540000915527344,0.0,89.0,-2.1642913818359375,-2.7221527099609375,Closing,0.0,0.0,-189.0,0.0,0.0,0.0,0.0,0.0,
10.949546000000002,0.0,0.0,53366.0,0.375,-577.5,-634.9606275558472,0.0,0.25,0.797119059,4.932250999999998,0.0,-51725.0,1.25,547.5,634.9606275558472,0.0,0.25,0.565185489,4.963769999999998,0.0,54416.0,8.75,-615.0,-634.9606275558472,0.0,0.125,3.4118648850000004,0.01,0.0,-19790.0,3.625,457.5,634.9606275558472,0.0,0.25,1.568603355,0.01,0.0,0.9900000095367432,-1.559999942779541,85.91999816894531,0.00860595703125,-0.08123779296875,0.9381103515625,35.540000915527344,0.0,-94.0,-2.163177490234375,-2.7219085693359375,Closing,0.0,0.0,-189.0,0.0,0.0,0.0,0.0,0.0,
11.028683000000004,0.0,0.0,53366.0,0.375,-615.0,-634.9606275558472,0.0,0.125,0.8007811680000001,4.932250999999998,0.0,-51725.0,1.25,562.5,634.9606275558472,0.0,0.25,0.54931635,4.963769999999998,0.0,54416.0,8.125,-660.0,-634.9606275558472,0.0,0.125,3.4118648850000004,0.01,0.0,-19790.0,3.125,607.5,634.9606275558472,0.0,0.25,1.6027830390000002,0.01,0.0,0.949999988079071,-1.6799999475479126,86.25,-0.06732177734375,0.02197265625,0.9901123046875,35.540000915527344,0.0,2.0,-2.162384033203125,-2.7207794189453125,Closing,0.0,0.0,-189.0,0.0,0.0,0.0,0.0,0.0,
11.091681000000012,0.0,0.0,53267.0,0.125,-622.5,-634.9606275558472,0.0,0.125,0.806884683,4.932250999999998,0.0,-51630.0,1.125,592.5,634.9606275558472,0.0,0.25,0.520019478,4.963769999999998,0.0,54307.0,7.625,-682.5,-634.9606275558472,0.0,0.125,3.4118648850000004,0.01,0.0,-19686.0,2.875,615.0,634.9606275558472,0.0,0.25,1.6113279600000001,0.01,0.0,0.9599999785423279,-1.690000057220459,86.38999938964844,-0.0135498046875,0.00830078125,1.00830078125,35.52000045776367,0.0,-7.0,-2.16180419921875,-2.71923828125,Closing,0.0,0.0,-189.0,0.0,0.0,0.0,0.0,0.0,
11.157727000000014,0.0,0.0,53267.0,0.125,-645.0,-634.9606275558472,0.0,0.125,0.808105386,4.932250999999998,0.0,-51630.0,0.75,637.5,634.9606275558472,0.0,0.125,0.511474557,4.963769999999998,0.0,54198.0,7.125,-682.5,-634.9606275558472,0.0,0.125,3.40576137,0.01,0.0,-19580.0,2.75,615.0,634.9606275558472,0.0,0.125,1.612548663,0.01,0.0,0.9300000071525574,-1.7100000381469727,86.47000122070312,0.016845703125,0.029052734375,0.96942138671875,35.52000045776367,0.0,16.0,-2.16064453125,-2.7170257568359375,Closing,0.0,0.0,-189.0,0.0,0.0,0.0,0.0,0.0,
11.254529000000009,0.0,0.0,53162.0,0.125,-652.5,-634.9606275558472,0.0,0.125,0.8007811680000001,4.932250999999998,0.0,-51526.0,0.75,652.5,634.9606275558472,0.0,0.0,0.511474557,4.963769999999998,0.0,54198.0,6.75,-705.0,-634.9606275558472,0.0,0.125,3.406982073,0.01,0.0,-19580.0,2.375,712.5,634.9606275558472,0.0,0.125,1.612548663,0.01,0.0,0.8500000238418579,-1.7599999904632568,86.48999786376953,-0.0438232421875,0.1185302734375,1.123291015625,35.52000045776367,0.0,100.0,-2.15997314453125,-2.7143096923828125,Closing,0.0,0.0,-189.0,0.0,0.0,0.0,0.0,0.0,
11.330965000000011,0.0,0.0,53057.0,0.125,-652.5,-634.9606275558472,0.0,0.125,0.8032225740000001,4.932250999999998,0.0,-51425.0,0.75,630.0,634.9606275558472,0.0,0.0,0.510253854,4.963769999999998,0.0,54082.0,5.875,-727.5,-634.9606275558472,0.0,0.125,3.402099261,0.01,0.0,-19478.0,2.625,622.5,634.9606275558472,0.0,0.125,1.6113279600000001,0.01,0.0,0.8100000023841858,-1.690000057220459,86.55000305175781,0.05242919921875,0.00421142578125,0.8468017578125,35.52000045776367,0.0,-3.0,-2.1595611572265625,-2.7139739990234375,Closing,0.0,0.0,-189.0,0.0,0.0,0.0,0.0,0.0,
11.403446000000011,0.0,0.0,53057.0,0.125,-667.5,-634.9606275558472,0.0,0.125,0.799560465,4.932250999999998,0.0,-51316.0,0.5,667.5,634.9606275558472,0.0,0.0,0.507812448,4.963769999999998,0.0,53980.0,6.125,-630.0,-634.9606275558472,0.0,0.125,3.403319964,0.01,0.0,-19371.0,2.625,660.0,634.9606275558472,0.0,0.125,1.6113279600000001,0.01,0.0,0.8299999833106995,-1.7100000381469727,86.51000213623047,-0.00225830078125,-0.043701171875,1.1292724609375,35.52000045776367,0.0,-58.0,-2.15948486328125,-2.71417236328125,Closing,0.0,0.0,-189.0,0.0,0.0,0.0,0.0,0.0,
11.484025000000008,0.0,0.0,52945.0,0.125,-712.5,-634.9606275558472,0.0,0.125,0.797119059,4.932250999999998,0.0,-51316.0,0.25,697.5,634.9606275558472,0.0,0.0,0.510253854,4.963769999999998,0.0,53980.0,6.25,-697.5,-634.9606275558472,0.0,0.125,3.402099261,0.01,0.0,-19371.0,2.375,682.5,634.9606275558472,0.0,0.125,1.618652178,0.01,0.0,0.7900000214576721,-1.6299999952316284,86.54000091552734,-0.0111083984375,0.03082275390625,1.21038818359375,35.52000045776367,0.0,15.0,-2.158935546875,-2.715606689453125,Closing,0.0,0.0,-189.0,0.0,0.0,0.0,0.0,0.0,
11.574329000000013,0.0,0.0,52830.0,0.125,-720.0,-634.9606275558472,0.0,0.125,0.7922362470000001,4.932250999999998,0.0,-51206.0,0.125,682.5,634.9606275558472,0.0,0.0,0.510253854,4.963769999999998,0.0,53863.0,5.375,-705.0,-634.9606275558472,0.0,0.125,3.397216449,0.01,0.0,-19259.0,2.0,712.5,634.9606275558472,0.0,0.125,1.6113279600000001,0.01,0.0,0.7799999713897705,-1.409999966621399,86.55000305175781,0.02752685546875,0.01898193359375,0.97930908203125,35.5,0.0,8.0,-2.159637451171875,-2.717437744140625,Closing,0.0,0.0,-189.0,0.0,0.0,0.0,0.0,0.0,
11.663826,0.0,0.0,52719.0,0.125,-690.0,-634.9606275558472,0.0,0.125,0.8056639800000001,4.932250999999998,0.0,-51095.0,0.125,682.5,634.9606275558472,0.0,0.0,0.5163573690000001,4.963769999999998,0.0,53746.0,5.125,-727.5,-634.9606275558472,0.0,0.125,3.397216449,0.01,0.0,-19147.0,2.0,690.0,634.9606275558472,0.0,0.125,1.612548663,0.01,0.0,0.7599999904632568,-1.350000023841858,86.52999877929688,0.08203125,0.00640869140625,1.02252197265625,35.5,0.0,0.0,-2.159027099609375,-2.718994140625,Closing,0.0,0.0,-189.0,0.0,0.0,0.0,0.0,0.0,
11.738774000000005,0.0,0.0,52719.0,0.125,-675.0,-634.9606275558472,0.0,0.125,0.798339762,4.932250999999998,0.0,-51095.0,0.125,667.5,634.9606275558472,0.0,0.0,0.511474557,4.963769999999998,0.0,53746.0,4.75,-727.5,-634.9606275558472,0.0,0.125,3.39355434,0.01,0.0,-19147.0,2.0,660.0,634.9606275558472,0.0,0.125,1.612548663,0.01,0.0,0.6700000166893005,-1.2999999523162842,86.45999908447266,0.04986572265625,0.06182861328125,1.09228515625,35.5,0.0,53.0,-2.1569061279296875,-2.7220306396484375,Closing,0.0,0.0,-189.0,0.0,0.0,0.0,0.0,0.0,
11.812709000000002,0.0,0.0,52616.0,0.125,-630.0,-634.9606275558472,0.0,0.125,0.798339762,4.932250999999998,0.0,-50989.0,0.125,652.5,634.9606275558472,0.0,0.0,0.513915963,4.963769999999998,0.0,53635.0,5.25,-675.0,-634.9606275558472,0.0,0.125,3.397216449,0.01,0.0,-19041.0,2.25,645.0,634.9606275558472,0.0,0.125,1.6113279600000001,0.01,0.0,0.7200000286102295,-1.1699999570846558,86.43000030517578,-0.037109375,0.00714111328125,1.0721435546875,35.5,0.0,-7.0,-2.1539764404296875,-2.725250244140625,Closing,0.0,0.0,-189.0,0.0,0.0,0.0,0.0,0.0,
11.924459000000002,0.0,0.0,52513.0,0.125,-630.0,-741.0229269747866,0.0,0.375,0.8312987430000001,0.09052039415108667,0.0,-50887.0,0.25,630.0,540.5856532732406,0.0,0.25,0.559081974,0.1251221870383807,0.0,53525.0,6.25,-690.0,-741.0229269747866,0.0,0.25,3.358153953,4.849730049248502,0.0,-18938.0,1.5,645.0,540.5856532732406,0.0,0.25,1.563720543,4.833023257859189,0.0,0.699999988079071,-1.100000023841858,86.52999877929688,-0.05792236328125,-0.15850830078125,1.08148193359375,35.5,0.0,-173.0,-2.1480865478515625,-2.7301788330078125,Closing,0.0,0.0,-189.0,0.0,0.0,0.0,0.0,0.0,
12.047540000000009,0.0,0.0,52397.0,0.375,-697.5,-854.431265692771,0.0,0.375,0.9069823290000001,0.157722641521939,0.0,-50795.0,0.25,570.0,465.0683049171415,0.0,0.25,0.7519530480000001,0.29658189421766784,0.0,53410.0,7.25,-735.0,-854.431265692771,0.0,0.25,3.243407871,4.782416771211565,0.0,-18847.0,1.125,555.0,465.0683049171415,0.0,0.25,1.390380717,4.661762859372776,0.0,0.6100000143051147,-1.2000000476837158,87.76000213623047,-0.0791015625,0.0623779296875,0.9886474609375,35.5,0.0,49.0,-2.146087646484375,-2.732452392578125,Closing,0.0,0.0,-189.0,0.0,0.0,0.0,0.0,0.0,
12.176534000000014,0.0,0.0,52265.0,0.375,-802.5,-913.0421012688712,0.0,0.375,0.9838866180000001,0.18496540832032626,0.0,-50718.0,0.125,480.0,437.53920309603853,0.0,0.25,0.9216307650000001,0.40198513842430844,0.0,53276.0,6.625,-862.5,-913.0421012688712,0.0,0.125,3.178710612,4.755128994273459,0.0,-18763.0,1.125,502.5,437.53920309603853,0.0,0.25,1.204833861,4.55648213831267,0.0,0.7099999785423279,-1.1200000047683716,90.83999633789062,-0.02728271484375,0.02471923828125,0.98004150390625,35.5,0.0,12.0,-2.1470947265625,-2.732574462890625,Closing,0.0,0.0,-189.0,0.0,0.0,0.0,0.0,0.0,
12.324471000000004,0.0,0.0,52116.0,0.125,-930.0,-927.8530277520224,0.0,0.125,1.0083006780000001,0.1912359693077729,0.0,-50650.0,0.125,420.0,431.9672043507545,0.0,0.0,1.0046385690000001,0.4302771182246845,0.0,53127.0,5.5,-930.0,-927.8530277520224,0.0,0.0,3.1591793640000003,4.748848073147916,0.0,-18681.0,1.125,517.5,431.9672043507545,0.0,0.125,1.079101452,4.528223045757965,0.0,0.8299999833106995,-1.2999999523162842,95.83999633789062,-0.02215576171875,0.0723876953125,1.03790283203125,35.5,0.0,56.0,-2.1434478759765625,-2.73309326171875,Closing,0.0,0.0,-189.0,0.0,0.0,0.0,0.0,0.0,
12.456848000000013,0.0,0.0,51961.0,0.125,-975.0,-927.8530277520224,0.0,0.125,1.022949114,0.1912359693077729,0.0,-50581.0,0.25,420.0,431.9672043507545,0.0,0.25,0.9997557570000001,0.4302771182246845,0.0,52974.0,4.875,-967.5,-927.8530277520224,0.0,0.0,3.1591793640000003,4.748848073147916,0.0,-18615.0,1.5,375.0,431.9672043507545,0.0,0.25,1.090087779,4.528223045757965,0.0,0.8700000047683716,-1.409999966621399,102.19000244140625,-0.12554931640625,1.8310546875E-4,0.9783935546875,35.5,0.0,6.0,-2.134552001953125,-2.7340850830078125,Closing,0.0,0.0,-189.0,0.0,0.0,0.0,0.0,0.0,
12.529409000000014,0.0,0.0,51799.0,0.125,-1012.5,-927.8530277520224,0.0,0.125,0.994872945,0.1912359693077729,0.0,-50514.0,0.25,420.0,431.9672043507545,0.0,0.25,0.9875487270000001,0.4302771182246845,0.0,52820.0,4.625,-960.0,-927.8530277520224,0.0,0.0,3.1567379580000003,4.748848073147916,0.0,-18543.0,1.625,412.5,431.9672043507545,0.0,0.25,1.148681523,4.528223045757965,0.0,1.0399999618530273,-1.440000057220459,106.0,0.00164794921875,0.0606689453125,0.82763671875,35.5,0.0,37.0,-2.127166748046875,-2.7347412109375,Closing,0.0,0.0,-189.0,0.0,0.0,0.0,0.0,0.0,
12.610657000000007,0.0,0.0,51799.0,0.125,-982.5,-927.8530277520224,0.0,0.125,1.01318349,0.1912359693077729,0.0,-50446.0,0.25,420.0,431.9672043507545,0.0,0.25,0.979003806,0.4302771182246845,0.0,52665.0,4.5,-967.5,-927.8530277520224,0.0,0.0,3.1604000670000003,4.748848073147916,0.0,-18475.0,1.5,412.5,431.9672043507545,0.0,0.25,1.170654177,4.528223045757965,0.0,1.0800000429153442,-1.4900000095367432,109.04000091552734,-0.0311279296875,0.01666259765625,0.91680908203125,35.529998779296875,0.0,1.0,-2.12255859375,-2.7362518310546875,Closing,0.0,0.0,-189.0,0.0,0.0,0.0,0.0,0.0,
12.689047000000006,0.0,0.0,51642.0,0.0,-967.5,-754.8630806969986,0.0,0.25,0.9985350540000001,0.10001731777729839,0.0,-50446.0,0.5,435.0,529.9300514294445,0.0,0.5,0.902099517,0.14378581190800732,0.0,52665.0,3.0,-922.5,-754.8630806969986,0.0,0.0,3.1567379580000003,4.840217434930428,0.0,-18475.0,2.0,450.0,529.9300514294445,0.0,0.75,1.236572139,4.814381328014815,0.0,1.059999942779541,-1.4700000286102295,111.44000244140625,0.02081298828125,0.094970703125,0.9930419921875,35.529998779296875,0.0,54.0,-2.1224517822265625,-2.7382354736328125,Closing,0.0,0.0,-189.0,0.0,0.0,0.0,0.0,0.0,
