Time,ClimberA1,ClimberA2,FRpos,FRCurrent,FRspeed,FRsetpoint,FRApos,FRACurrent,FREncpos,FREncSetpoint,FREncSpeed,FLpos,FLCurrent,FLspeed,FLsetpoint,FLApos,FLACurrent,FLEncpos,FLEncSetpoint,FLEncSpeed,BRpos,BRCurrent,BRspeed,BRsetpoint,BRApos,BRACurrent,BREncpos,BREncSetpoint,BREncSpeed,BLpos,BLCurrent,BLspeed,BLsetpoint,BLApos,BLACurrent,BLEncpos,BLEncSetpoint,BLEncSpeed,navx_Pitch,navx_Roll,navx_Yaw,navx_XAcc,navx_YAcc,navx_ZAcc,navx_Temp,navx_Bar,navx_Alt,navx_XDis,navx_YDis,GearPlacerState,ShootOutputV,ShootOutputCurrent,ShootEncPos,ShootEncVelocity,ShootSpeed,ShootSetpoint,CarouselSetpoint,CarouselCurrent,
0.26623200000000086,0.0,0.0,127474.0,0.0,0.0,0.0,0.0,0.25,0.822753822,0.01,0.0,-130045.0,0.125,0.0,0.0,0.0,0.125,0.506591745,0.01,0.0,116716.0,0.0,0.0,0.0,0.0,0.0,3.358153953,0.01,0.0,-109960.0,0.0,0.0,0.0,0.0,0.125,1.651611159,0.01,0.0,-0.28999999165534973,-0.44999998807907104,-44.59000015258789,-0.009033203125,-0.00616455078125,1.0164794921875,36.09000015258789,0.0,-1.0,-6.8138427734375,-2.68865966796875,Waiting,0.0,0.0,-189.0,0.0,0.0,0.0,0.0,0.0,
0.343116,0.0,0.0,127474.0,0.125,0.0,137.8125,0.0,0.25,0.822753822,0.6221486587705519,0.0,-130045.0,0.0,0.0,-137.8125,0.0,0.125,0.506591745,0.6261244303960813,0.0,116716.0,0.125,0.0,137.8125,0.0,1.0,3.3654781710000004,0.6231765645726535,0.0,-109960.0,0.25,0.0,-137.8125,0.0,0.125,1.6589353770000002,0.625396609009638,0.0,-0.28999999165534973,-0.44999998807907104,-44.59000015258789,-0.009033203125,-0.0064697265625,1.01690673828125,36.09000015258789,0.0,0.0,-6.8138427734375,-2.68865966796875,Closing,0.0,0.0,-189.0,0.0,0.0,0.0,0.0,0.0,
0.3850620000000008,0.0,0.0,127474.0,0.125,0.0,137.8125,0.0,2.375,0.8666991300000001,0.6221486587705519,0.007324218000000049,-130045.0,0.0,0.0,-137.8125,0.0,3.375,0.532226508,0.6261244303960813,0.014648436000000764,116716.0,0.25,0.0,137.8125,0.0,2.125,3.486327768,0.6231765645726535,-4.901337504,-109960.0,0.375,0.0,-137.8125,0.0,2.375,1.849365045,0.625396609009638,0.0,-0.28999999165534973,-0.44999998807907104,-44.599998474121094,0.01348876953125,-0.0614013671875,1.01519775390625,36.09000015258789,0.0,54.0,-6.813812255859375,-2.688446044921875,Closing,0.0,0.0,-189.0,0.0,0.0,0.0,0.0,0.0,
0.4966970000000001,0.0,0.0,127474.0,0.125,0.0,137.8125,0.0,0.75,1.357421736,0.6220116747944952,0.0,-130045.0,0.125,0.0,-137.8125,0.0,0.75,1.07421864,0.6259865710392012,0.0,116711.0,0.375,-37.5,137.8125,0.0,0.5,3.8964839760000003,0.6230393542734796,0.0,-109963.0,0.375,-37.5,-137.8125,0.0,0.625,2.1740720430000002,0.6252589099036336,0.0,-0.2800000011920929,-0.41999998688697815,-44.58000183105469,9.1552734375E-4,0.045654296875,1.03350830078125,36.09000015258789,0.0,-29.0,-6.8132476806640625,-2.68768310546875,Closing,0.0,0.0,-189.0,0.0,0.0,0.0,0.0,0.0,
0.5658010000000003,0.0,0.0,127474.0,0.125,0.0,137.8125,0.0,0.75,1.520995938,0.6222856427466088,0.0,-130047.0,0.125,0.0,-137.8125,0.0,0.75,1.2402342480000002,0.6262622897529615,0.0,116709.0,0.5,-22.5,137.8125,0.0,0.75,4.000243731,0.6233137748718275,0.0,-109969.0,0.375,-30.0,-137.8125,0.0,0.625,2.290038828,0.6255343081156426,0.0,-0.2199999988079071,-0.41999998688697815,-44.63999938964844,-0.004638671875,-0.01220703125,1.03204345703125,36.09000015258789,0.0,7.0,-6.81317138671875,-2.687225341796875,Closing,0.0,0.0,-189.0,0.0,0.0,0.0,0.0,0.0,
0.6832210000000004,0.0,0.0,127477.0,0.125,60.0,137.8125,0.0,0.25,1.4721678180000002,0.6213265981221742,0.0,-130059.0,0.125,-75.0,-137.8125,0.0,0.25,1.2145994850000001,0.6252971164608014,0.0,116709.0,0.5,0.0,137.8125,0.0,0.125,3.9892574040000004,0.6223531457265231,0.0,-109969.0,0.375,0.0,-137.8125,0.0,0.25,2.250976332,0.6245702567630357,0.0,-0.25999999046325684,-0.4699999988079071,-44.65999984741211,-0.01507568359375,-0.0211181640625,1.01788330078125,36.09000015258789,0.0,6.0,-6.8132781982421875,-2.687591552734375,Closing,0.0,0.0,-189.0,0.0,0.0,0.0,0.0,0.0,
0.761201,0.0,0.0,127493.0,0.125,105.0,137.8125,0.0,0.25,1.414794777,0.6210526301700605,0.0,-130059.0,0.125,-75.0,-137.8125,0.0,0.25,1.1621092560000001,0.6250213977470411,0.0,116709.0,0.875,0.0,137.8125,0.0,0.125,3.9868159980000004,0.6220787251281751,0.0,-109969.0,0.625,0.0,-137.8125,0.0,0.25,2.2180173510000003,0.6242948585510266,0.0,-0.28999999165534973,-0.4699999988079071,-44.70000076293945,0.009033203125,0.0103759765625,1.03289794921875,36.09000015258789,0.0,1.0,-6.8132781982421875,-2.6880340576171875,Closing,0.0,0.0,-189.0,0.0,0.0,0.0,0.0,0.0,
0.8276510000000008,0.0,0.0,127493.0,0.375,37.5,137.8125,0.0,0.125,1.411132668,0.6206415737138654,0.0,-130066.0,0.5,-37.5,-137.8125,0.0,0.25,1.151122929,0.6246077144804013,0.0,116709.0,0.875,0.0,137.8125,0.0,0.0,3.9868159980000004,0.6216669895299287,0.0,-109969.0,0.625,0.0,-137.8125,0.0,0.25,2.203368915,0.6238816561592961,0.0,-0.23999999463558197,-0.4399999976158142,-44.68000030517578,0.00341796875,-0.00299072265625,1.0322265625,36.09000015258789,0.0,7.0,-6.8132781982421875,-2.687713623046875,Closing,0.0,0.0,-189.0,0.0,0.0,0.0,0.0,0.0,
0.8949360000000006,0.0,0.0,127497.0,0.5,7.5,137.8125,0.0,0.25,1.411132668,0.6209155939299914,0.0,-130066.0,0.625,-30.0,-137.8125,0.0,0.125,1.152343632,0.6248834857921614,0.0,116709.0,1.125,7.5,137.8125,0.0,0.0,3.9868159980000004,0.621941462478639,0.0,-109976.0,0.625,-30.0,-137.8125,0.0,0.25,2.198486103,0.6241571069081637,0.0,-0.23000000417232513,-0.4000000059604645,-44.66999816894531,-0.00469970703125,0.0308837890625,1.01800537109375,36.09000015258789,0.0,-22.0,-6.813201904296875,-2.6875,Closing,0.0,0.0,-189.0,0.0,0.0,0.0,0.0,0.0,
0.964161,0.0,0.0,127501.0,0.5,15.0,137.8125,0.0,0.25,1.411132668,0.6210526301700605,0.0,-130072.0,0.75,-22.5,-137.8125,0.0,0.125,1.152343632,0.6250213977470411,0.0,116712.0,1.25,15.0,137.8125,0.0,0.0,3.9855952950000004,0.6220787251281751,0.0,-109976.0,0.625,-37.5,-137.8125,0.0,0.25,2.199706806,0.6242948585510266,0.0,-0.20999999344348907,-0.38999998569488525,-44.689998626708984,-0.00469970703125,-0.00970458984375,1.00030517578125,36.09000015258789,0.0,5.0,-6.813201904296875,-2.6872711181640625,Closing,0.0,0.0,-189.0,0.0,0.0,0.0,0.0,0.0,
1.0298110000000007,0.0,0.0,127501.0,0.75,37.5,137.8125,0.0,0.125,1.405029153,0.6207786099539346,0.0,-130072.0,1.125,-22.5,-137.8125,0.0,0.125,1.152343632,0.6247456264352811,0.0,116712.0,1.25,30.0,137.8125,0.0,0.125,3.9868159980000004,0.621804252179465,0.0,-109980.0,0.75,-22.5,-137.8125,0.0,0.25,2.198486103,0.6240194078021593,0.0,-0.20999999344348907,-0.3700000047683716,-44.720001220703125,0.01202392578125,-0.010009765625,1.0152587890625,36.09000015258789,0.0,17.0,-6.813201904296875,-2.68719482421875,Closing,0.0,0.0,-189.0,0.0,0.0,0.0,0.0,0.0,
1.0940410000000003,0.0,0.0,127508.0,0.75,45.0,137.8125,0.0,0.25,1.408691262,0.6203675534977396,0.0,-130077.0,1.25,-37.5,-137.8125,0.0,0.125,1.1608885530000002,0.6243319431686415,0.0,116717.0,1.5,37.5,137.8125,0.0,0.125,3.9868159980000004,0.6213925165812189,0.0,-109980.0,1.25,-30.0,-137.8125,0.0,0.25,2.198486103,0.6236062054104289,0.0,-0.18000000715255737,-0.33000001311302185,-44.70000076293945,0.0087890625,0.00408935546875,1.01409912109375,36.09000015258789,0.0,5.0,-6.813201904296875,-2.6866455078125,Closing,0.0,0.0,-189.0,0.0,0.0,0.0,0.0,0.0,
1.1598640000000005,0.0,0.0,127508.0,0.75,37.5,137.8125,0.0,0.125,1.418456886,0.6206415737138654,0.0,-130087.0,1.375,-52.5,-137.8125,0.0,0.125,1.166992068,0.6246077144804013,0.0,116726.0,1.5,45.0,137.8125,0.0,0.125,3.9868159980000004,0.6216669895299287,0.0,-109989.0,1.0,-45.0,-137.8125,0.0,0.25,2.204589618,0.6238816561592961,0.0,-0.12999999523162842,-0.30000001192092896,-44.72999954223633,0.02081298828125,0.00433349609375,1.03094482421875,36.09000015258789,0.0,13.0,-6.813201904296875,-2.685760498046875,Closing,0.0,0.0,-189.0,0.0,0.0,0.0,0.0,0.0,
1.2272340000000004,0.0,0.0,127519.0,0.75,67.5,137.8125,0.0,0.25,1.41601548,0.6202305695216827,0.0,-130087.0,1.375,-67.5,-137.8125,0.0,0.25,1.166992068,0.6241940838117611,0.0,116726.0,1.5,60.0,137.8125,0.0,0.125,3.9868159980000004,0.6212553062820446,0.0,-109989.0,1.25,-52.5,-137.8125,0.0,0.25,2.208251727,0.6234685063044242,0.0,-0.10999999940395355,-0.28999999165534973,-44.7599983215332,-0.0052490234375,0.02044677734375,1.05072021484375,36.09000015258789,0.0,-15.0,-6.813201904296875,-2.6854095458984375,Closing,0.0,0.0,-189.0,0.0,0.0,0.0,0.0,0.0,
1.2927560000000002,0.0,0.0,127519.0,0.75,82.5,137.8125,0.0,0.25,1.409911965,0.6196825290894309,0.0,-130100.0,1.25,-75.0,-137.8125,0.0,0.25,1.1645506620000001,0.6236425411882413,0.0,116737.0,1.5,60.0,137.8125,0.0,0.125,3.9868159980000004,0.6207063603846245,0.0,-109998.0,1.375,-52.5,-137.8125,0.0,0.25,2.2192380540000003,0.6229176048066892,0.0,-0.07000000029802322,-0.25999999046325684,-44.790000915527344,0.014892578125,0.0126953125,1.00006103515625,36.13999938964844,0.0,3.0,-6.813201904296875,-2.6853179931640625,Closing,0.0,0.0,-189.0,0.0,0.0,0.0,0.0,0.0,
1.36067,0.0,0.0,127534.0,0.75,97.5,137.81249999999997,0.0,0.25,1.409911965,0.619408508873305,0.0,-130100.0,1.375,-90.0,-137.81249999999997,0.0,0.25,1.170654177,0.6233667698764814,0.0,116737.0,1.5,67.5,137.81249999999997,0.0,0.125,3.9965816220000003,0.6204318874359144,0.0,-109998.0,1.375,-52.5,-137.81249999999997,0.0,0.25,2.2229001630000003,0.6226421540578219,0.0,-0.05000000074505806,-0.2199999988079071,-44.83000183105469,0.01416015625,0.00390625,1.004638671875,36.13999938964844,0.0,9.0,-6.813201904296875,-2.6851348876953125,Closing,0.0,0.0,-189.0,0.0,0.0,0.0,0.0,0.0,
1.4274800000000005,0.0,0.0,127534.0,0.75,105.0,137.8125,0.0,0.125,1.411132668,0.6188604684410532,0.0,-130118.0,1.375,-112.5,-137.8125,0.0,0.25,1.175536989,0.6228152272529616,0.0,116751.0,1.5,82.5,137.8125,0.0,0.125,3.977050374,0.6198829415384942,0.0,-110010.0,1.25,-90.0,-137.8125,0.0,0.25,2.242431411,0.6220912525600871,0.0,0.0,-0.20000000298023224,-44.84000015258789,0.04339599609375,0.01397705078125,0.98681640625,36.13999938964844,0.0,23.0,-6.8133087158203125,-2.68463134765625,Closing,0.0,0.0,-189.0,0.0,0.0,0.0,0.0,0.0,
1.483393,0.0,0.0,127553.0,0.75,120.0,137.8125,0.0,0.25,1.411132668,0.6187234844649964,0.0,-130118.0,1.25,-127.5,-137.8125,0.0,0.25,1.176757692,0.6226773678960813,0.0,116751.0,1.5,112.5,137.8125,0.0,0.125,3.9868159980000004,0.6197457312393202,0.0,-110010.0,1.25,-150.0,-137.8125,0.0,0.125,2.242431411,0.6219535534540825,0.0,0.029999999329447746,-0.18000000715255737,-44.880001068115234,-6.103515625E-4,-0.01031494140625,1.0408935546875,36.13999938964844,0.0,9.0,-6.8134307861328125,-2.68365478515625,Closing,0.0,0.0,-189.0,0.0,0.0,0.0,0.0,0.0,
1.5568780000000007,0.0,0.0,127577.0,0.5,142.5,137.8125,0.0,0.25,1.411132668,0.6181754440327444,0.0,-130141.0,1.0,-142.5,-137.8125,0.0,0.25,1.175536989,0.6221258252725613,0.0,116771.0,1.375,127.5,137.8125,0.0,0.125,3.9868159980000004,0.6191967853418998,0.0,-110035.0,1.0,-142.5,-137.8125,0.0,0.125,2.24609352,0.6214026519563475,0.0,0.009999999776482582,-0.1899999976158142,-44.900001525878906,0.01025390625,0.0406494140625,1.01788330078125,36.13999938964844,0.0,-18.0,-6.8134307861328125,-2.683685302734375,Closing,0.0,0.0,-189.0,0.0,0.0,0.0,0.0,0.0,
1.6309740000000001,0.0,0.0,127577.0,0.5,150.0,137.8125,0.0,0.25,1.409911965,0.6179014238166187,0.0,-130141.0,0.875,-157.5,-137.8125,0.0,0.25,1.166992068,0.6218500539608015,0.0,116798.0,1.25,157.5,137.8125,0.0,0.125,3.9855952950000004,0.6189223123931898,0.0,-110063.0,0.75,-172.5,-137.8125,0.0,0.125,2.261962659,0.6211272012074802,0.0,0.05000000074505806,-0.17000000178813934,-44.90999984741211,0.0093994140625,0.01568603515625,1.0235595703125,36.13999938964844,0.0,9.0,-6.813323974609375,-2.683441162109375,Closing,0.0,0.0,-189.0,0.0,0.0,0.0,0.0,0.0,
1.6912040000000006,0.0,0.0,127604.0,0.375,165.0,137.8125,0.0,0.25,1.411132668,0.6176274558645051,0.0,-130167.0,0.625,-165.0,-137.8125,0.0,0.25,1.1608885530000002,0.6215743352470412,0.0,116798.0,1.25,172.5,137.8125,0.0,0.125,3.9868159980000004,0.6186478917948419,0.0,-110063.0,0.75,-172.5,-137.8125,0.0,0.25,2.2656247680000003,0.6208518029954712,0.0,0.05999999865889549,-0.1599999964237213,-44.91999816894531,-0.02056884765625,-0.00946044921875,1.00457763671875,36.13999938964844,0.0,-5.0,-6.813323974609375,-2.6834564208984375,Closing,0.0,0.0,-189.0,0.0,0.0,0.0,0.0,0.0,
1.7591930000000002,0.0,0.0,127604.0,0.375,172.5,137.8125,0.0,0.25,1.411132668,0.6176274558645051,0.0,-130195.0,0.625,-172.5,-137.8125,0.0,0.25,1.157226444,0.6215743352470412,0.0,116826.0,1.25,172.5,137.8125,0.0,0.125,3.9868159980000004,0.6186478917948419,0.0,-110081.0,1.0,-120.0,-137.8125,0.0,0.25,2.2668454710000003,0.6208518029954712,0.0,0.03999999910593033,-0.18000000715255737,-44.970001220703125,-0.0030517578125,-0.002197265625,0.9901123046875,36.13999938964844,0.0,2.0,-6.813323974609375,-2.6837158203125,Closing,0.0,0.0,-189.0,0.0,0.0,0.0,0.0,0.0,
1.8336530000000002,0.0,0.0,127634.0,0.375,180.0,137.8125,0.0,0.25,1.411132668,0.616942379192184,0.0,-130195.0,0.5,-180.0,-137.8125,0.0,0.25,1.151122929,0.6208848806686413,0.0,116826.0,1.125,157.5,137.8125,0.0,0.125,3.9916988100000004,0.6179616832478854,0.0,-110081.0,1.375,-45.0,-137.8125,0.0,0.25,2.2717282830000003,0.6201631498548731,0.0,0.009999999776482582,-0.2199999988079071,-44.9900016784668,-0.01666259765625,-0.038818359375,1.0390625,36.11000061035156,0.0,18.0,-6.81341552734375,-2.6838836669921875,Closing,0.0,0.0,-189.0,0.0,0.0,0.0,0.0,0.0,
1.9617730000000002,0.0,0.0,127660.0,0.375,157.5,137.8125,0.0,0.25,1.409911965,0.6166683589760582,0.0,-130223.0,0.5,-157.5,-137.8125,0.0,0.125,1.14746082,0.6206091093568815,0.0,116847.0,1.25,135.0,137.8125,0.0,0.125,3.9929195130000004,0.6176872102991754,0.0,-110102.0,0.625,-277.5,-137.8125,0.0,0.25,2.2717282830000003,0.6198876991060058,0.0,-0.05000000074505806,-0.28999999165534973,-44.9900016784668,-9.1552734375E-4,0.019775390625,1.0086669921875,36.11000061035156,0.0,-11.0,-6.81341552734375,-2.685272216796875,Closing,0.0,0.0,-189.0,0.0,0.0,0.0,0.0,0.0,
2.0189450000000004,0.0,0.0,127660.0,0.375,157.5,137.8125,0.0,0.25,1.4245604010000001,0.6166683589760582,0.0,-130248.0,0.5,-157.5,-137.8125,0.0,0.125,1.141357305,0.6206091093568815,0.0,116873.0,1.125,157.5,137.8125,0.0,0.125,3.9904781070000004,0.6176872102991754,0.0,-110145.0,0.375,-247.5,-137.8125,0.0,0.25,2.2717282830000003,0.6198876991060058,0.0,-0.029999999329447746,-0.28999999165534973,-44.959999084472656,0.0078125,-0.02032470703125,1.01739501953125,36.11000061035156,0.0,23.0,-6.81341552734375,-2.6852569580078125,Closing,0.0,0.0,-189.0,0.0,0.0,0.0,0.0,0.0,
2.0816820000000007,0.0,0.0,127686.0,0.375,157.5,137.8125,0.0,0.25,1.411132668,0.6172163994083097,0.0,-130248.0,0.375,-150.0,-137.8125,0.0,0.125,1.1376951960000001,0.6211606519804012,0.0,116873.0,1.125,157.5,137.8125,0.0,0.125,3.9916988100000004,0.6182361561965953,0.0,-110145.0,0.625,-142.5,-137.8125,0.0,0.25,2.2705075800000003,0.6204386006037405,0.0,-0.05000000074505806,-0.3199999928474426,-44.95000076293945,-0.02459716796875,0.01995849609375,1.0592041015625,36.11000061035156,0.0,-27.0,-6.8133087158203125,-2.6853179931640625,Closing,0.0,0.0,-189.0,0.0,0.0,0.0,0.0,0.0,
2.231182000000001,0.0,0.0,127712.0,0.375,157.5,137.8125,0.0,0.25,1.411132668,0.6172163994083097,0.0,-130273.0,0.375,-157.5,-137.8125,0.0,0.0,1.1376951960000001,0.6211606519804012,0.0,116923.0,1.125,150.0,137.8125,0.0,0.125,3.9916988100000004,0.6182361561965953,0.0,-110178.0,1.0,-67.5,-137.8125,0.0,0.25,2.2705075800000003,0.6204386006037405,0.0,-0.07000000029802322,-0.36000001430511475,-44.900001525878906,-6.103515625E-4,0.01715087890625,1.01409912109375,36.11000061035156,0.0,-8.0,-6.8134307861328125,-2.685302734375,Closing,0.0,0.0,-189.0,0.0,0.0,0.0,0.0,0.0,
2.291214000000001,0.0,0.0,127737.0,0.75,142.5,438.89094329337587,0.0,4.125,1.545409998,1.600233775951275,0.0,-130297.0,1.0,-150.0,-438.89094329337587,0.0,7.625,1.175536989,1.6104598914478725,0.0,116923.0,1.75,150.0,438.89094329337587,0.0,5.125,4.171142151000001,1.602877661073956,0.0,-110178.0,1.625,-180.0,-438.89094329337587,0.0,5.375,2.393798583,1.6085878559640256,0.0,-0.029999999329447746,-0.3100000023841858,-44.900001525878906,-0.0352783203125,0.044677734375,0.91204833984375,36.13999938964844,0.0,-53.0,-6.8134613037109375,-2.68548583984375,Closing,0.0,0.0,-189.0,0.0,0.0,0.0,0.0,0.0,
2.359386,0.0,0.0,127737.0,1.75,157.5,457.7723063435821,0.0,1.875,2.041015416,1.6109183846545847,0.0,-130337.0,2.5,-225.0,-457.7723063435821,0.0,1.25,1.702880685,1.6212127789516162,0.0,116947.0,3.25,142.5,457.7723063435821,0.0,2.25,4.677733896,1.6135799227467358,0.0,-110231.0,1.625,-315.0,-457.7723063435821,0.0,1.25,2.9089352490000002,1.619328244064917,0.0,0.23000000417232513,-0.25,-44.91999816894531,-0.08514404296875,0.11322021484375,1.15960693359375,36.13999938964844,0.0,-133.0,-6.814300537109375,-2.6846771240234375,Closing,0.0,0.0,-189.0,0.0,0.0,0.0,0.0,0.0,
2.4164630000000007,0.0,0.0,127764.0,2.25,172.5,457.7723063435821,0.0,0.875,2.4279782670000003,1.6109183846545847,0.0,-130337.0,2.75,-277.5,-457.7723063435821,0.0,1.25,2.1679685280000003,1.6212127789516162,0.0,116947.0,4.0,165.0,457.7723063435821,0.0,0.25,0.06958007100000001,1.6135799227467358,0.0,-110231.0,1.625,-322.5,-457.7723063435821,0.0,0.625,3.3239742690000003,1.619328244064917,0.0,0.38999998569488525,-0.9399999976158142,-44.779998779296875,-0.268310546875,0.0025634765625,0.9044189453125,36.13999938964844,0.0,-177.0,-6.8196868896484375,-2.684356689453125,Closing,0.0,0.0,-189.0,0.0,0.0,0.0,0.0,0.0,
2.4937780000000003,0.0,0.0,127764.0,2.5,187.5,457.77230634358216,0.0,0.375,2.5305173190000003,1.61256250595134,0.0,-130385.0,2.875,-292.5,-457.77230634358216,0.0,0.25,2.347411869,1.6228674068221756,0.0,116986.0,4.125,232.5,457.77230634358216,0.0,0.125,0.137939439,1.6152267604389963,0.0,-110280.0,2.125,-307.5,-457.77230634358216,0.0,0.5,3.4216305090000003,1.6209809485581215,0.0,0.3499999940395355,-1.409999966621399,-44.709999084472656,-0.151123046875,-0.01080322265625,0.9012451171875,36.13999938964844,0.0,-80.0,-6.8279266357421875,-2.6878204345703125,Closing,0.0,0.0,-189.0,0.0,0.0,0.0,0.0,0.0,
2.5462740000000004,0.0,0.0,127807.0,2.25,285.0,457.77230634358216,0.0,0.25,2.525634507,1.6135215505757747,0.0,-130385.0,2.75,-337.5,-457.77230634358216,0.0,0.25,2.357177493,1.6238325801143358,0.0,116986.0,3.75,292.5,457.77230634358216,0.0,0.125,0.12329100300000001,1.6161873895843009,0.0,-110280.0,2.125,-330.0,-457.77230634358216,0.0,0.25,3.44238246,1.6219449999107285,0.0,0.4699999988079071,-1.5199999809265137,-44.90999984741211,0.02703857421875,0.04345703125,0.90380859375,36.13999938964844,0.0,10.0,-6.8380584716796875,-2.6888885498046875,Closing,0.0,0.0,-189.0,0.0,0.0,0.0,0.0,0.0,
2.6287220000000007,0.0,0.0,127807.0,2.0,367.5,457.7723063435821,0.0,0.25,2.492675526,1.60995934003015,0.0,-130453.0,2.375,-412.5,-457.7723063435821,0.0,0.25,2.304687264,1.620247605659456,0.0,117043.0,3.875,337.5,457.7723063435821,0.0,0.125,0.07934569500000001,1.6126192936014312,0.0,-110335.0,2.25,-345.0,-457.7723063435821,0.0,0.25,3.3691402800000003,1.6183641927123098,0.0,0.6100000143051147,-1.600000023841858,-45.20000076293945,-0.08184814453125,0.020263671875,1.11834716796875,36.13999938964844,0.0,-41.0,-6.85235595703125,-2.6880035400390625,Closing,0.0,0.0,-189.0,0.0,0.0,0.0,0.0,0.0,
2.6926930000000002,0.0,0.0,127873.0,1.125,420.0,137.8125,0.0,3.75,2.3303220270000002,0.6137912251027544,0.0,-130453.0,1.25,-457.5,-137.8125,0.0,5.625,2.131347438,0.6177135894804013,0.0,117043.0,1.75,375.0,137.8125,0.0,4.5,4.838866692,0.6148053228632622,0.0,-110335.0,1.25,-382.5,-137.8125,0.0,5.625,3.08837859,0.6169955450481851,0.0,0.6899999976158142,-1.4700000286102295,-45.38999938964844,0.03271484375,0.048828125,1.05950927734375,36.13999938964844,0.0,16.0,-6.8643646240234375,-2.6866302490234375,Closing,0.0,0.0,-189.0,0.0,0.0,0.0,0.0,0.0,
2.748451,0.0,0.0,127873.0,0.125,427.5,137.8125,0.0,2.75,1.8957517590000001,0.6111881114455765,-0.25634763000000005,-130516.0,0.125,-345.0,-137.8125,0.0,2.0,1.652831862,0.6150938409156811,0.0,117103.0,1.375,367.5,137.8125,0.0,1.625,4.353026898,0.6121979083760591,0.0,-110393.0,0.75,-307.5,-137.8125,0.0,1.5,2.625732153,0.6143788417392319,0.0,0.6200000047683716,-0.9700000286102295,-45.619998931884766,0.27923583984375,-0.16033935546875,1.00384521484375,36.13999938964844,0.0,329.0,-6.8745574951171875,-2.6837615966796875,Closing,0.0,0.0,-189.0,0.0,0.0,0.0,0.0,0.0,
2.825531,0.0,0.0,127938.0,0.125,367.5,137.8125,0.0,0.5,1.39160142,0.6072148967077692,0.0,-130516.0,0.125,-285.0,-137.8125,0.0,1.125,1.14746082,0.6110952357921613,0.0,117103.0,1.125,360.0,137.8125,0.0,0.75,3.9428706900000003,0.6082181291453057,0.0,-110415.0,1.0,-150.0,-137.8125,0.0,1.0,2.213134539,0.6103848846859414,0.0,0.11999999731779099,-0.05000000074505806,-46.0099983215332,0.17840576171875,-0.18804931640625,1.047119140625,36.099998474121094,0.0,261.0,-6.878753662109375,-2.6771087646484375,Closing,0.0,0.0,-189.0,0.0,0.0,0.0,0.0,0.0,
2.8826449999999997,0.0,0.0,127988.0,0.125,315.0,137.8125,0.0,0.375,1.251220575,0.6026936938017222,0.0,-130564.0,0.25,-285.0,-137.8125,0.0,0.0,0.8837889720000001,0.606545140643121,0.0,117152.0,0.875,277.5,137.8125,0.0,0.0,3.8293453110000004,0.6036894563674939,0.0,-110415.0,1.5,-157.5,-137.8125,0.0,0.25,2.054443149,0.6058400786717746,0.0,-0.2199999988079071,0.05999999865889549,-46.25,-0.05078125,-0.01470947265625,1.0230712890625,36.099998474121094,0.0,-28.0,-6.87603759765625,-2.670257568359375,Closing,0.0,0.0,-189.0,0.0,0.0,0.0,0.0,0.0,
2.958249000000001,0.0,0.0,127988.0,0.125,277.5,137.8125,0.0,0.375,1.304931507,0.5994055034722235,0.0,-130592.0,0.25,-187.5,-137.8125,0.0,0.75,0.819091713,0.6032359375000013,0.0,117192.0,1.25,262.5,137.8125,0.0,0.0,3.7976070330000002,0.6003958333333346,0.0,-110455.0,0.75,-232.5,-137.8125,0.0,0.375,2.088622833,0.6025347222222235,0.0,-0.3400000035762787,0.05000000074505806,-46.119998931884766,0.0208740234375,-0.08740234375,1.0081787109375,36.099998474121094,0.0,72.0,-6.873260498046875,-2.665924072265625,Closing,0.0,0.0,-189.0,0.0,0.0,0.0,0.0,0.0,
3.0275770000000004,0.0,0.0,128026.0,0.125,240.0,137.8125,0.0,0.375,1.362304548,0.6017345969132755,0.0,-130592.0,0.375,-202.5,-137.8125,0.0,0.25,0.8532713970000001,0.6055799147529615,0.0,117192.0,1.25,202.5,137.8125,0.0,0.125,3.8391109350000003,0.6027287748718274,0.0,-110455.0,0.375,-345.0,-137.8125,0.0,0.375,2.1179197050000003,0.6048759747823093,0.0,-0.36000001430511475,0.03999999910593033,-45.900001525878906,-0.02569580078125,0.04144287109375,0.98065185546875,36.099998474121094,0.0,-52.0,-6.868896484375,-2.664093017578125,Closing,0.0,0.0,-189.0,0.0,0.0,0.0,0.0,0.0,
3.0828470000000006,0.0,0.0,128026.0,0.375,172.5,137.8125,0.0,0.375,1.385497905,0.6042007265943964,0.0,-130626.0,0.25,-225.0,-137.8125,0.0,0.25,0.982665915,0.6080618039608015,0.0,117222.0,1.25,187.5,137.8125,0.0,0.125,3.8879390550000004,0.6051989790598564,0.0,-110487.0,0.625,-187.5,-137.8125,0.0,0.25,2.178954855,0.6073549789852579,0.0,-0.25999999046325684,-0.10000000149011612,-45.779998779296875,-0.0452880859375,-0.0103759765625,0.99530029296875,36.099998474121094,0.0,-26.0,-6.866546630859375,-2.664215087890625,Closing,0.0,0.0,-189.0,0.0,0.0,0.0,0.0,0.0,
3.159809,0.0,0.0,128049.0,0.375,150.0,137.8125,0.0,0.125,1.386718608,0.6058448478911519,0.0,-130626.0,0.25,-180.0,-137.8125,0.0,0.25,1.092529185,0.6097164318313611,0.0,117222.0,1.375,142.5,137.8125,0.0,0.125,3.929442957,0.6068458167521171,0.0,-110487.0,1.0,-112.5,-137.8125,0.0,0.25,2.202148212,0.6090076834784627,0.0,-0.3100000023841858,-0.11999999731779099,-45.79999923706055,6.7138671875E-4,-0.0087890625,0.98956298828125,36.099998474121094,0.0,4.0,-6.86431884765625,-2.6647186279296875,Closing,0.0,0.0,-189.0,0.0,0.0,0.0,0.0,0.0,
3.2249090000000007,0.0,0.0,128049.0,3.5,127.5,-1587.4015688896181,0.0,0.25,1.39160142,0.605433791434954,0.0,-130647.0,6.625,-82.5,1587.4015688896181,0.0,0.25,1.1389158990000001,0.6093027485647186,0.0,117238.0,3.125,82.5,-1587.4015688896181,0.0,0.0,3.9416499870000004,0.6064340811538681,0.0,-110519.0,3.0,-202.5,1587.4015688896181,0.0,0.25,2.213134539,0.6085944810867294,0.0,-0.28999999165534973,-0.20000000298023224,-45.79999923706055,-0.065185546875,-0.00469970703125,0.98358154296875,36.099998474121094,0.0,-43.0,-6.8621673583984375,-2.664764404296875,Closing,0.0,0.0,-189.0,0.0,0.0,0.0,0.0,0.0,
3.282563000000001,0.0,0.0,128038.0,20.625,-165.0,-2520.0,0.0,0.25,1.407470559,0.6055708276750231,0.0,-130647.0,35.125,180.0,2520.0,0.0,0.125,1.131591681,0.6094406605195983,0.0,117238.0,12.375,-105.0,-2520.0,0.0,0.0,3.9855952950000004,0.6065713438034043,0.0,-110519.0,23.75,75.0,2520.0,0.0,0.125,2.204589618,0.6087322327295923,0.0,-1.2200000286102295,-1.399999976158142,-45.689998626708984,-0.352783203125,-0.41583251953125,0.93798828125,36.099998474121094,0.0,52.0,-6.8571014404296875,-2.673736572265625,Closing,0.0,0.0,-189.0,0.0,0.0,0.0,0.0,0.0,
3.346629,0.0,0.0,128038.0,21.875,-352.5,-1785.8268213272092,0.0,0.25,1.406249856,0.6070779127317095,0.0,-130592.0,38.5,307.5,1785.8268213272092,0.0,0.125,1.131591681,0.6109573764352783,0.0,117190.0,15.625,-322.5,-1785.8268213272092,0.0,0.125,3.9855952950000004,0.6080809188461288,0.0,-110484.0,19.875,315.0,1785.8268213272092,0.0,0.25,2.207031024,0.6102471855799342,0.0,-1.9700000286102295,-1.8899999856948853,-45.59000015258789,-0.23663330078125,-0.31011962890625,0.87164306640625,36.09000015258789,0.0,54.0,-6.851959228515625,-2.691558837890625,Closing,0.0,0.0,-189.0,0.0,0.0,0.0,0.0,0.0,
3.428917,0.0,0.0,127970.0,6.625,-555.0,0.0,0.0,0.25,1.407470559,0.6070779127317095,-0.0012207029999999897,-130592.0,13.125,555.0,0.0,0.0,0.125,1.1328123840000002,0.6109573764352783,0.0,117190.0,5.0,-412.5,0.0,0.0,0.125,3.980712483,0.6080809188461288,0.0,-110406.0,6.375,555.0,0.0,0.0,0.25,2.231445084,0.6102471855799342,0.0,-2.3299999237060547,-2.240000009536743,-45.63999938964844,0.09002685546875,-0.1795654296875,0.8358154296875,36.09000015258789,0.0,189.0,-6.844818115234375,-2.721649169921875,Closing,0.0,0.0,-189.0,0.0,0.0,0.0,0.0,0.0,
3.487496,0.0,0.0,127890.0,0.0,-487.5,0.0,0.0,0.25,1.406249856,0.6070779127317095,0.0,-130513.0,0.0,480.0,0.0,0.0,0.125,1.1328123840000002,0.6109573764352783,0.0,117127.0,0.0,-375.0,0.0,0.0,0.125,3.980712483,0.6080809188461288,-0.004882812000000403,-110406.0,0.125,555.0,0.0,0.0,0.125,2.260741956,0.6102471855799342,0.0,-1.899999976158142,-1.8200000524520874,-45.70000076293945,-0.03106689453125,0.27874755859375,0.88226318359375,36.09000015258789,0.0,-222.0,-6.8367919921875,-2.746002197265625,Closing,0.0,0.0,-189.0,0.0,0.0,0.0,0.0,0.0,
3.6265430000000007,0.0,0.0,127811.0,0.0,-487.5,0.0,0.0,0.25,1.406249856,0.6070779127317095,0.0,-130422.0,0.0,435.0,0.0,0.0,0.125,1.1376951960000001,0.6109573764352783,0.0,117070.0,0.0,-405.0,0.0,0.0,0.125,3.980712483,0.6080809188461288,0.0,-110313.0,0.125,465.0,0.0,0.0,0.25,2.260741956,0.6102471855799342,0.0,-1.2699999809265137,-1.100000023841858,-45.709999084472656,0.09783935546875,-0.01165771484375,1.05322265625,36.09000015258789,0.0,74.0,-6.8264312744140625,-2.7756805419921875,Closing,0.0,0.0,-189.0,0.0,0.0,0.0,0.0,0.0,
3.694850000000001,0.0,0.0,127811.0,0.0,-360.0,0.0,0.0,0.25,1.406249856,0.6070779127317095,-0.0012207029999999897,-130359.0,0.0,397.5,0.0,0.0,0.125,1.1364744930000001,0.6109573764352783,0.004882812000000847,117007.0,0.0,-397.5,0.0,0.0,0.125,3.980712483,0.6080809188461288,0.0,-110242.0,0.125,382.5,0.0,0.0,0.25,2.261962659,0.6102471855799342,0.0,-0.9700000286102295,-0.8100000023841858,-45.779998779296875,0.08697509765625,0.00347900390625,0.98687744140625,36.09000015258789,0.0,55.0,-6.8199615478515625,-2.78839111328125,Closing,0.0,0.0,-189.0,0.0,0.0,0.0,0.0,0.0,
3.7599399999999994,0.0,0.0,127758.0,0.0,-315.0,0.0,0.0,0.25,1.406249856,0.6070779127317095,0.0012207029999999897,-130359.0,0.0,300.0,0.0,0.0,0.125,1.1364744930000001,0.6109573764352783,0.0,117007.0,0.0,-262.5,0.0,0.0,0.125,3.981933186,0.6080809188461288,0.0,-110242.0,0.125,285.0,0.0,0.0,0.25,2.2668454710000003,0.6102471855799342,0.0,-0.75,-0.6299999952316284,-45.7599983215332,0.0887451171875,0.07177734375,0.9393310546875,36.09000015258789,0.0,8.0,-6.8145751953125,-2.7958984375,Closing,0.0,0.0,-189.0,0.0,0.0,0.0,0.0,0.0,
3.827505,0.0,0.0,127758.0,0.0,-240.0,0.0,0.0,0.125,1.406249856,0.6070779127317095,0.0,-130323.0,0.0,225.0,0.0,0.0,0.125,1.1389158990000001,0.6109573764352783,0.0,116975.0,0.0,-202.5,0.0,0.0,0.125,3.981933186,0.6080809188461288,0.0,-110205.0,0.125,202.5,0.0,0.0,0.25,2.2668454710000003,0.6102471855799342,0.004882812000000403,-0.5099999904632568,-0.44999998807907104,-45.75,0.0716552734375,0.10614013671875,1.03118896484375,36.04999923706055,0.0,-27.0,-6.80963134765625,-2.8004608154296875,Closing,0.0,0.0,-189.0,0.0,0.0,0.0,0.0,0.0,
3.879505,0.0,0.0,127731.0,0.0,-142.5,0.0,0.0,0.25,1.406249856,0.6070779127317095,0.0,-130323.0,0.0,142.5,0.0,0.0,0.125,1.1376951960000001,0.6109573764352783,0.0,116975.0,0.0,-112.5,0.0,0.0,0.125,3.981933186,0.6080809188461288,0.0,-110205.0,0.125,112.5,0.0,0.0,0.25,2.2656247680000003,0.6102471855799342,0.0,-0.27000001072883606,-0.23000000417232513,-45.790000915527344,0.0626220703125,0.080322265625,1.05279541015625,36.04999923706055,0.0,-14.0,-6.8045654296875,-2.80291748046875,Closing,0.0,0.0,-189.0,0.0,0.0,0.0,0.0,0.0,
3.955638,0.0,0.0,127731.0,0.0,-22.5,0.0,0.0,0.25,1.406249856,0.6070779127317095,0.0,-130315.0,0.0,22.5,0.0,0.0,0.125,1.1376951960000001,0.6109573764352783,0.0,116965.0,0.0,-37.5,0.0,0.0,0.125,3.981933186,0.6080809188461288,0.0,-110197.0,0.125,30.0,0.0,0.0,0.25,2.2656247680000003,0.6102471855799342,0.0,-0.05000000074505806,0.0,-45.790000915527344,0.0126953125,-0.00347900390625,0.947265625,36.04999923706055,0.0,10.0,-6.804595947265625,-2.80316162109375,Closing,0.0,0.0,-189.0,0.0,0.0,0.0,0.0,0.0,
4.027135000000001,0.0,0.0,127728.0,0.0,0.0,0.0,0.0,0.125,1.405029153,0.6070779127317095,0.0,-130315.0,0.0,0.0,0.0,0.0,0.125,1.1376951960000001,0.6109573764352783,0.0,116965.0,0.0,0.0,0.0,0.0,0.125,3.980712483,0.6080809188461288,0.0,-110197.0,0.125,0.0,0.0,0.0,0.25,2.2656247680000003,0.6102471855799342,0.0,-0.05000000074505806,-0.019999999552965164,-45.81999969482422,-0.01025390625,-0.02099609375,0.95880126953125,36.04999923706055,0.0,7.0,-6.8048553466796875,-2.8031768798828125,Closing,0.0,0.0,-189.0,0.0,0.0,0.0,0.0,0.0,
4.089589000000001,0.0,0.0,127728.0,0.0,0.0,0.0,0.0,0.25,1.4013670440000001,0.6070779127317095,0.0,-130315.0,0.0,0.0,0.0,0.0,0.125,1.1376951960000001,0.6109573764352783,0.0,116965.0,0.0,0.0,0.0,0.0,0.125,3.981933186,0.6080809188461288,0.0,-110197.0,0.0,0.0,0.0,0.0,0.25,2.2668454710000003,0.6102471855799342,0.0,-0.10999999940395355,-0.07000000029802322,-45.810001373291016,-0.0177001953125,-0.02587890625,0.99169921875,36.04999923706055,0.0,5.0,-6.8048553466796875,-2.80364990234375,Closing,0.0,0.0,-189.0,0.0,0.0,0.0,0.0,0.0,
4.158957999999999,0.0,0.0,127728.0,0.0,0.0,0.0,0.0,0.25,1.3964842320000002,0.6070779127317095,-0.006103514999999948,-130315.0,0.125,0.0,0.0,0.0,0.125,1.1376951960000001,0.6109573764352783,0.0,116965.0,0.0,0.0,0.0,0.0,0.125,3.980712483,0.6080809188461288,0.0,-110197.0,0.125,0.0,0.0,0.0,0.25,2.2656247680000003,0.6102471855799342,0.0,-0.1599999964237213,-0.15000000596046448,-45.810001373291016,-0.02447509765625,-0.01922607421875,0.992431640625,36.04999923706055,0.0,-3.0,-6.8048553466796875,-2.8050689697265625,Closing,0.0,0.0,-189.0,0.0,0.0,0.0,0.0,0.0,
4.227151000000001,0.0,0.0,127728.0,0.0,0.0,0.0,0.0,0.25,1.3964842320000002,0.6070779127317095,-0.004882811999999959,-130315.0,0.0,0.0,0.0,0.0,0.125,1.1376951960000001,0.6109573764352783,0.0,116965.0,0.0,0.0,0.0,0.0,0.125,3.981933186,0.6080809188461288,0.0,-110197.0,0.125,0.0,0.0,0.0,0.25,2.2668454710000003,0.6102471855799342,0.0,-0.20999999344348907,-0.1899999976158142,-45.81999969482422,-0.0159912109375,-0.019775390625,1.0101318359375,36.04999923706055,0.0,2.0,-6.8048553466796875,-2.8068389892578125,Closing,0.0,0.0,-189.0,0.0,0.0,0.0,0.0,0.0,
4.28262,0.0,0.0,127728.0,0.0,0.0,0.0,0.0,0.25,1.3964842320000002,0.6070779127317095,0.0,-130315.0,0.0,0.0,0.0,0.0,0.125,1.1364744930000001,0.6109573764352783,0.0,116965.0,0.0,0.0,0.0,0.0,0.125,3.981933186,0.6080809188461288,0.0,-110197.0,0.125,0.0,0.0,0.0,0.25,2.2668454710000003,0.6102471855799342,0.0,-0.2199999988079071,-0.2199999988079071,-45.810001373291016,-0.0113525390625,-1.8310546875E-4,1.0128173828125,36.04999923706055,0.0,-7.0,-6.8048553466796875,-2.8073577880859375,Closing,0.0,0.0,-189.0,0.0,0.0,0.0,0.0,0.0,
4.355709,0.0,0.0,127728.0,0.0,0.0,0.0,0.0,0.25,1.3952635290000002,0.6070779127317095,0.0,-130315.0,0.0,0.0,0.0,0.0,0.125,1.1376951960000001,0.6109573764352783,0.0,116965.0,0.0,0.0,0.0,0.0,0.125,3.981933186,0.6080809188461288,0.0,-110197.0,0.125,0.0,0.0,0.0,0.25,2.2656247680000003,0.6102471855799342,0.0,-0.2199999988079071,-0.2199999988079071,-45.81999969482422,-0.001220703125,-0.0030517578125,1.0096435546875,36.06999969482422,0.0,1.0,-6.8048553466796875,-2.8073577880859375,Closing,0.0,0.0,-189.0,0.0,0.0,0.0,0.0,0.0,
4.414348000000001,0.0,0.0,127728.0,0.0,0.0,0.0,0.0,0.25,1.3952635290000002,0.6070779127317095,0.0,-130315.0,0.0,0.0,0.0,0.0,0.125,1.1376951960000001,0.6109573764352783,0.0,116965.0,0.0,0.0,0.0,0.0,0.125,3.980712483,0.6080809188461288,0.0,-110197.0,0.125,0.0,0.0,0.0,0.25,2.2656247680000003,0.6102471855799342,0.0,-0.20000000298023224,-0.2199999988079071,-45.81999969482422,-0.008056640625,-0.00115966796875,1.023681640625,36.06999969482422,0.0,-4.0,-6.8048553466796875,-2.8073577880859375,Closing,0.0,0.0,-189.0,0.0,0.0,0.0,0.0,0.0,
4.493448000000002,0.0,0.0,127728.0,0.0,0.0,0.0,0.0,0.25,1.3964842320000002,0.6070779127317095,0.0,-130315.0,0.0,0.0,0.0,0.0,0.125,1.1376951960000001,0.6109573764352783,0.0,116965.0,0.0,0.0,0.0,0.0,0.125,3.981933186,0.6080809188461288,0.0,-110197.0,0.125,0.0,0.0,0.0,0.25,2.2656247680000003,0.6102471855799342,0.0,-0.20000000298023224,-0.2199999988079071,-45.81999969482422,-0.01068115234375,-0.010009765625,1.01409912109375,36.06999969482422,0.0,0.0,-6.8048553466796875,-2.8073577880859375,Closing,0.0,0.0,-189.0,0.0,0.0,0.0,0.0,0.0,
4.553015,0.0,0.0,127728.0,0.0,0.0,0.0,0.0,0.25,1.3952635290000002,0.6070779127317095,0.0,-130315.0,0.0,0.0,0.0,0.0,0.125,1.1376951960000001,0.6109573764352783,0.0,116965.0,0.0,0.0,0.0,0.0,0.125,3.981933186,0.6080809188461288,0.0,-110197.0,0.125,0.0,0.0,0.0,0.25,2.2656247680000003,0.6102471855799342,0.0,-0.20999999344348907,-0.25,-45.81999969482422,-0.011474609375,-0.007080078125,1.01470947265625,36.06999969482422,0.0,-2.0,-6.8048553466796875,-2.8073577880859375,Closing,0.0,0.0,-189.0,0.0,0.0,0.0,0.0,0.0,
4.614515,0.0,0.0,127728.0,0.0,0.0,0.0,0.0,0.125,1.3964842320000002,0.6070779127317095,0.0,-130315.0,0.125,0.0,0.0,0.0,0.125,1.1376951960000001,0.6109573764352783,0.0,116965.0,0.0,0.0,0.0,0.0,0.125,3.981933186,0.6080809188461288,0.0,-110197.0,0.125,0.0,0.0,0.0,0.25,2.2668454710000003,0.6102471855799342,0.0,-0.2199999988079071,-0.25999999046325684,-45.81999969482422,-0.00482177734375,-0.0047607421875,1.010986328125,36.06999969482422,0.0,0.0,-6.8048553466796875,-2.8073577880859375,Closing,0.0,0.0,-189.0,0.0,0.0,0.0,0.0,0.0,
4.691666000000001,0.0,0.0,127728.0,0.0,0.0,0.0,0.0,0.125,1.3952635290000002,0.6070779127317095,0.0,-130315.0,0.0,0.0,0.0,0.0,0.125,1.1376951960000001,0.6109573764352783,0.0,116965.0,0.0,0.0,0.0,0.0,0.125,3.980712483,0.6080809188461288,0.0,-110197.0,0.125,0.0,0.0,0.0,0.25,2.2656247680000003,0.6102471855799342,0.0,-0.2199999988079071,-0.2800000011920929,-45.81999969482422,-0.008544921875,-0.0025634765625,1.0157470703125,36.06999969482422,0.0,-3.0,-6.8048553466796875,-2.8073577880859375,Closing,0.0,0.0,-189.0,0.0,0.0,0.0,0.0,0.0,
4.7584219999999995,0.0,0.0,127728.0,0.0,0.0,0.0,0.0,0.125,1.3952635290000002,0.6070779127317095,0.0,-130315.0,0.0,0.0,0.0,0.0,0.125,1.1376951960000001,0.6109573764352783,0.0,116965.0,0.0,0.0,0.0,0.0,0.125,3.980712483,0.6080809188461288,0.0,-110197.0,0.125,0.0,0.0,0.0,0.25,2.2656247680000003,0.6102471855799342,0.0,-0.20999999344348907,-0.2800000011920929,-45.81999969482422,-0.0067138671875,-0.00225830078125,1.015380859375,36.06999969482422,0.0,-2.0,-6.8048553466796875,-2.8073577880859375,Closing,0.0,0.0,-189.0,0.0,0.0,0.0,0.0,0.0,
4.818144000000001,0.0,0.0,127728.0,0.0,0.0,0.0,0.0,0.125,1.3964842320000002,0.6070779127317095,0.0,-130315.0,0.125,0.0,0.0,0.0,0.125,1.1364744930000001,0.6109573764352783,0.0,116965.0,0.0,0.0,0.0,0.0,0.125,3.981933186,0.6080809188461288,0.0,-110197.0,0.125,0.0,0.0,0.0,0.25,2.2656247680000003,0.6102471855799342,0.0,-0.2199999988079071,-0.28999999165534973,-45.81999969482422,-0.010986328125,-0.00543212890625,1.02288818359375,36.029998779296875,0.0,-2.0,-6.8048553466796875,-2.8073577880859375,Closing,0.0,0.0,-189.0,0.0,0.0,0.0,0.0,0.0,
4.882776000000001,0.0,0.0,127728.0,0.125,0.0,-138.89763727784157,0.0,1.5,1.3940428260000002,4.932250999999998,0.0,-130315.0,0.125,0.0,138.89763727784157,0.0,0.125,1.140136602,4.963769999999998,0.0,116965.0,0.125,0.0,-138.89763727784157,0.0,0.25,3.9465327990000003,0.01,0.0,-110197.0,0.25,0.0,138.89763727784157,0.0,0.25,2.2229001630000003,0.01,0.0,-0.2199999988079071,-0.28999999165534973,-45.81999969482422,-0.00836181640625,-0.00347900390625,1.01971435546875,36.029998779296875,0.0,-2.0,-6.8048553466796875,-2.8073577880859375,Closing,0.0,0.0,-189.0,0.0,0.0,0.0,0.0,0.0,
4.960115000000001,0.0,0.0,127724.0,1.375,-37.5,-793.700784444809,0.0,0.875,1.0595702040000001,4.932250999999998,0.0,-130315.0,2.25,37.5,793.700784444809,0.0,1.125,0.904540923,4.963769999999998,0.0,116965.0,2.375,-15.0,-793.700784444809,0.0,0.875,3.5766597900000003,0.01,0.0,-110197.0,2.125,67.5,793.700784444809,0.0,1.0,1.8200681730000001,0.01,0.0,-0.23000000417232513,-0.33000001311302185,-45.84000015258789,-0.33953857421875,-0.2620849609375,1.03564453125,36.029998779296875,0.0,-47.0,-6.80499267578125,-2.80743408203125,Closing,0.0,0.0,-189.0,0.0,0.0,0.0,0.0,0.0,
5.017504,0.0,0.0,127724.0,3.75,-135.0,-873.0709004402161,0.0,0.875,0.808105386,4.932250999999998,0.0,-130281.0,5.875,210.0,873.0709004402161,0.0,0.875,0.6091307970000001,4.963769999999998,0.0,116954.0,4.875,-82.5,-873.0709004402161,0.0,0.75,3.3142086450000003,0.01,0.0,-110169.0,3.625,210.0,873.0709004402161,0.0,0.625,1.535644374,0.01,0.0,-0.5199999809265137,-0.9200000166893005,-45.72999954223633,-0.16455078125,0.027099609375,1.2586669921875,36.029998779296875,0.0,-128.0,-6.8069000244140625,-2.811767578125,Closing,0.0,0.0,-189.0,0.0,0.0,0.0,0.0,0.0,
5.083541,0.0,0.0,127696.0,4.75,-150.0,-892.9134106636047,0.0,0.5,0.68359368,4.932250999999998,0.0,-130281.0,7.0,247.5,892.9134106636047,0.0,0.25,0.404052693,4.963769999999998,0.0,116954.0,5.625,-135.0,-892.9134106636047,0.0,0.0,3.245849277,0.01,0.0,-110169.0,4.875,210.0,892.9134106636047,0.0,0.25,1.444091649,0.01,0.0,-0.30000001192092896,-1.309999942779541,-45.65999984741211,-0.14288330078125,0.18072509765625,1.08111572265625,36.029998779296875,0.0,-215.0,-6.81005859375,-2.8129425048828125,Closing,0.0,0.0,-189.0,0.0,0.0,0.0,0.0,0.0,
5.158193,0.0,0.0,127641.0,6.0,-285.0,-892.9134106636047,0.0,0.375,0.701904225,4.932250999999998,0.0,-130231.0,9.625,345.0,892.9134106636047,0.0,0.25,0.36254879100000004,4.963769999999998,0.0,116910.0,6.625,-315.0,-892.9134106636047,0.0,0.0,3.278808258,0.01,0.0,-110126.0,5.875,337.5,892.9134106636047,0.0,0.375,1.4538572730000001,0.01,0.0,-0.019999999552965164,-1.7899999618530273,-45.619998931884766,-0.10302734375,-0.00830078125,0.94110107421875,36.029998779296875,0.0,-45.0,-6.8232574462890625,-2.81280517578125,Closing,0.0,0.0,-189.0,0.0,0.0,0.0,0.0,0.0,
5.227734000000002,0.0,0.0,127641.0,5.875,-442.5,-892.9134106636047,0.0,0.25,0.7653807810000001,4.932250999999998,0.0,-130231.0,9.25,472.5,892.9134106636047,0.0,0.25,0.367431603,4.963769999999998,0.0,116910.0,6.25,-442.5,-892.9134106636047,0.0,0.0,3.3190914570000003,0.01,0.0,-110046.0,5.875,465.0,892.9134106636047,0.0,0.375,1.5295408590000001,0.01,0.0,-0.05999999865889549,-2.190000057220459,-45.619998931884766,-0.09222412109375,-0.14080810546875,1.0390625,36.029998779296875,0.0,63.0,-6.835205078125,-2.8154449462890625,Closing,0.0,0.0,-189.0,0.0,0.0,0.0,0.0,0.0,
5.284752000000001,0.0,0.0,127541.0,5.375,-585.0,-892.9134106636047,0.0,0.375,0.811767495,4.932250999999998,0.0,-130141.0,8.375,600.0,892.9134106636047,0.0,0.25,0.364990197,4.963769999999998,0.0,116827.0,5.75,-555.0,-892.9134106636047,0.0,0.0,3.328857081,0.01,0.0,-110046.0,5.5,577.5,892.9134106636047,0.0,0.375,1.612548663,0.01,0.0,-0.11999999731779099,-2.549999952316284,-45.599998474121094,-0.17169189453125,-0.09613037109375,1.2171630859375,36.029998779296875,0.0,-15.0,-6.8506317138671875,-2.8223724365234375,Closing,0.0,0.0,-189.0,0.0,0.0,0.0,0.0,0.0,
5.347805000000001,0.0,0.0,127541.0,4.5,-690.0,-892.9134106636047,0.0,0.25,0.819091713,4.932250999999998,0.0,-130141.0,6.875,720.0,892.9134106636047,0.0,0.25,0.419921832,4.963769999999998,0.0,116718.0,5.625,-637.5,-892.9134106636047,0.0,0.0,3.3630367650000004,0.01,0.0,-109929.0,4.75,705.0,892.9134106636047,0.0,0.125,1.645507644,0.01,0.0,-0.33000001311302185,-2.7100000381469727,-45.779998779296875,-0.15045166015625,-0.0838623046875,1.22943115234375,36.08000183105469,0.0,-9.0,-6.8630218505859375,-2.83026123046875,Closing,0.0,0.0,-189.0,0.0,0.0,0.0,0.0,0.0,
5.427002000000002,0.0,0.0,127414.0,4.125,-795.0,-932.5984311103821,0.0,0.25,0.826415931,4.932250999999998,0.0,-130016.0,5.25,855.0,932.5984311103821,0.0,0.25,0.458984328,4.963769999999998,0.0,116718.0,5.5,-757.5,-932.5984311103821,0.0,0.0,3.3630367650000004,0.01,0.0,-109929.0,4.125,817.5,932.5984311103821,0.0,0.25,1.650390456,0.01,0.0,-0.4699999988079071,-2.809999942779541,-46.09000015258789,-0.06158447265625,0.0191650390625,0.84246826171875,36.08000183105469,0.0,-32.0,-6.878173828125,-2.8425750732421875,Closing,0.0,0.0,-189.0,0.0,0.0,0.0,0.0,0.0,
5.484806,0.0,0.0,127414.0,4.0,-832.5,-932.5984311103821,0.0,0.125,0.8288573370000001,4.932250999999998,0.0,-129866.0,4.25,930.0,932.5984311103821,0.0,0.25,0.48583979400000005,4.963769999999998,0.0,116587.0,5.25,-810.0,-932.5984311103821,0.0,0.0,3.3618160620000004,0.01,0.0,-109783.0,3.5,900.0,932.5984311103821,0.0,0.25,1.645507644,0.01,0.0,-0.5299999713897705,-2.9100000858306885,-46.189998626708984,-0.13848876953125,-0.0614013671875,0.9869384765625,36.08000183105469,0.0,-23.0,-6.8907928466796875,-2.842681884765625,Closing,0.0,0.0,-189.0,0.0,0.0,0.0,0.0,0.0,
5.557301000000001,0.0,0.0,127266.0,3.125,-945.0,-932.5984311103821,0.0,0.25,0.8276366340000001,4.932250999999998,0.0,-129866.0,3.375,975.0,932.5984311103821,0.0,0.125,0.49316401200000004,4.963769999999998,0.0,116587.0,4.875,-840.0,-932.5984311103821,0.0,0.0,3.3630367650000004,0.01,0.0,-109783.0,3.125,945.0,932.5984311103821,0.0,0.25,1.669921704,0.01,0.0,-0.5699999928474426,-2.9600000381469727,-46.209999084472656,-0.1181640625,-0.07855224609375,1.3072509765625,36.08000183105469,0.0,12.0,-6.9042816162109375,-2.8434906005859375,Closing,0.0,0.0,-189.0,0.0,0.0,0.0,0.0,0.0,
5.62602,0.0,0.0,127266.0,2.25,-1012.5,-932.5984311103821,0.0,0.25,0.8276366340000001,4.932250999999998,0.0,-129704.0,2.75,1005.0,932.5984311103821,0.0,0.125,0.496826121,4.963769999999998,0.0,116465.0,5.25,-772.5,-932.5984311103821,0.0,0.0,3.3679195770000003,0.01,0.0,-109629.0,2.625,975.0,932.5984311103821,0.0,0.25,1.674804516,0.01,0.0,-0.6100000143051147,-3.0999999046325684,-46.22999954223633,-0.06890869140625,-0.02105712890625,1.417724609375,36.08000183105469,0.0,9.0,-6.918182373046875,-2.84527587890625,Closing,0.0,0.0,-189.0,0.0,0.0,0.0,0.0,0.0,
5.693301,0.0,0.0,127099.0,1.375,-1035.0,-932.5984311103821,0.0,0.25,0.826415931,4.932250999999998,0.0,-129704.0,2.125,1035.0,932.5984311103821,0.0,0.125,0.51269526,4.963769999999998,0.0,116465.0,7.75,-622.5,-932.5984311103821,0.0,0.0,3.3691402800000003,0.01,0.0,-109629.0,2.25,1035.0,932.5984311103821,0.0,0.25,1.674804516,0.01,0.0,-0.5899999737739563,-3.140000104904175,-46.25,-0.1510009765625,-0.02178955078125,1.35888671875,36.08000183105469,0.0,-47.0,-6.9345703125,-2.8451385498046875,Closing,0.0,0.0,-189.0,0.0,0.0,0.0,0.0,0.0,
5.757569,0.0,0.0,126928.0,1.0,-1057.5,-932.5984311103821,0.0,0.25,0.8276366340000001,4.932250999999998,0.0,-129536.0,1.625,1042.5,932.5984311103821,0.0,0.0,0.5175780720000001,4.963769999999998,0.0,116354.0,8.125,-742.5,-932.5984311103821,0.0,0.0,3.3679195770000003,0.01,0.0,-109460.0,1.5,1042.5,932.5984311103821,0.0,0.25,1.665038892,0.01,0.0,-0.6600000262260437,-3.009999990463257,-46.150001525878906,0.0679931640625,0.05926513671875,1.0108642578125,36.08000183105469,0.0,32.0,-6.9503936767578125,-2.845428466796875,Closing,0.0,0.0,-189.0,0.0,0.0,0.0,0.0,0.0,
5.828011000000001,0.0,0.0,126928.0,0.625,-1087.5,-932.5984311103821,0.0,0.25,0.8276366340000001,4.932250999999998,0.0,-129536.0,1.125,1057.5,932.5984311103821,0.0,0.125,0.545654241,4.963769999999998,0.0,116354.0,7.625,-832.5,-932.5984311103821,0.0,0.0,3.3679195770000003,0.01,0.0,-109295.0,1.5,1042.5,932.5984311103821,0.0,0.25,1.651611159,0.01,0.0,-0.6399999856948853,-3.0299999713897705,-46.09000015258789,-0.09716796875,-0.00225830078125,1.13763427734375,36.08000183105469,0.0,-33.0,-6.9634552001953125,-2.844879150390625,Closing,0.0,0.0,-189.0,0.0,0.0,0.0,0.0,0.0,
5.885076,0.0,0.0,126749.0,0.375,-1110.0,-932.5984311103821,0.0,0.25,0.834960852,4.932250999999998,0.0,-129365.0,1.0,1057.5,932.5984311103821,0.0,0.25,0.546874944,4.963769999999998,0.0,116204.0,6.25,-1035.0,-932.5984311103821,0.0,0.0,3.3679195770000003,0.01,0.0,-109295.0,1.5,1012.5,932.5984311103821,0.0,0.25,1.650390456,0.01,0.0,-0.6100000143051147,-2.9600000381469727,-45.939998626708984,-0.06402587890625,-0.0220947265625,1.1624755859375,36.029998779296875,0.0,4.0,-6.980224609375,-2.8438262939453125,Closing,0.0,0.0,-189.0,0.0,0.0,0.0,0.0,0.0,
5.958241000000001,0.0,0.0,126749.0,0.375,-1117.5,-932.5984311103821,0.0,0.25,0.8447264760000001,4.932250999999998,0.0,-129204.0,1.0,1012.5,932.5984311103821,0.0,0.25,0.545654241,4.963769999999998,0.0,116027.0,4.375,-1117.5,-932.5984311103821,0.0,0.0,3.3679195770000003,0.01,0.0,-109128.0,0.875,1042.5,932.5984311103821,0.0,0.25,1.651611159,0.01,0.0,-0.5899999737739563,-2.8399999141693115,-45.7400016784668,-0.04571533203125,0.03350830078125,1.07122802734375,36.029998779296875,0.0,-26.0,-6.993682861328125,-2.8432464599609375,Closing,0.0,0.0,-189.0,0.0,0.0,0.0,0.0,0.0,
6.02428,0.0,0.0,126577.0,0.125,-1080.0,-932.5984311103821,0.0,0.25,0.826415931,4.932250999999998,0.0,-129204.0,0.75,1027.5,932.5984311103821,0.0,0.25,0.545654241,4.963769999999998,0.0,116027.0,3.75,-1095.0,-932.5984311103821,0.0,0.0,3.3703609830000003,0.01,0.0,-109128.0,0.75,1072.5,932.5984311103821,0.0,0.25,1.650390456,0.01,0.0,-0.5400000214576721,-2.640000104904175,-45.470001220703125,-0.08251953125,0.01568603515625,1.171630859375,36.029998779296875,0.0,-39.0,-7.0000762939453125,-2.8405914306640625,Closing,0.0,0.0,-189.0,0.0,0.0,0.0,0.0,0.0,
6.090933,0.0,0.0,126577.0,0.125,-1042.5,-932.5984311103821,0.0,0.25,0.8276366340000001,4.932250999999998,0.0,-129032.0,0.5,1072.5,932.5984311103821,0.0,0.25,0.545654241,4.963769999999998,0.0,115866.0,3.875,-1020.0,-932.5984311103821,0.0,0.0,3.3666988740000003,0.01,0.0,-108958.0,0.5,1057.5,932.5984311103821,0.0,0.25,1.650390456,0.01,0.0,-0.49000000953674316,-2.4200000762939453,-45.25,0.06964111328125,-0.115966796875,1.11248779296875,36.029998779296875,0.0,157.0,-6.99908447265625,-2.837249755859375,Closing,0.0,0.0,-189.0,0.0,0.0,0.0,0.0,0.0,
6.159545000000001,0.0,0.0,126406.0,0.125,-1065.0,-640.3794561863697,0.0,1.125,0.7641600780000001,4.52541238808927,0.0,-129032.0,2.0,1065.0,1346.8076662337655,0.0,0.25,0.546874944,4.775924338465943,0.0,115866.0,3.125,-907.5,-640.3794561863697,0.0,0.875,3.459472302,0.4075107852953488,0.0,-108958.0,2.0,1050.0,1346.8076662337655,0.0,0.375,1.645507644,0.18762730543233364,0.0,-0.4099999964237213,-2.240000009536743,-45.0099983215332,0.0306396484375,-0.00677490234375,1.113037109375,36.029998779296875,0.0,51.0,-6.995513916015625,-2.830657958984375,Closing,0.0,0.0,-189.0,0.0,0.0,0.0,0.0,0.0,
6.228131,0.0,0.0,126406.0,6.875,-937.5,1070.3987825217125,0.0,0.5,0.510253854,0.7683477277623907,0.0,-128836.0,5.625,1237.5,1751.9318374820314,0.0,0.5,0.373535118,4.543713601683919,0.0,115725.0,1.875,-885.0,1070.3987825217125,0.0,5.0,3.599853147,4.170782818263444,0.0,-108780.0,5.125,1185.0,1751.9318374820314,0.0,0.375,1.7321775570000002,0.4195681151324758,0.0,-0.3700000047683716,-1.7799999713897705,-45.349998474121094,0.43157958984375,0.20184326171875,1.26214599609375,36.029998779296875,0.0,181.0,-6.9910736083984375,-2.82232666015625,Closing,0.0,0.0,-189.0,0.0,0.0,0.0,0.0,0.0,
6.284717,0.0,0.0,126299.0,10.75,-405.0,1410.9375,0.0,7.625,0.758056563,0.5498168668524888,0.0,-128836.0,5.0,1260.0,1410.9375,0.0,0.25,0.17822263800000002,4.410439589772222,0.0,115725.0,7.375,-727.5,1410.9375,0.0,6.5,3.2751461490000002,4.389674732977289,0.0,-108780.0,4.875,1230.0,1410.9375,0.0,0.625,1.906738086,0.5526872062785588,0.0,-0.10000000149011612,-0.8399999737739563,-47.38999938964844,0.40826416015625,0.1619873046875,1.4453125,36.029998779296875,0.0,169.0,-6.9831085205078125,-2.8076019287109375,Closing,0.0,0.0,-189.0,0.0,0.0,0.0,0.0,0.0,
6.3593410000000015,0.0,0.0,126316.0,14.875,-7.5,1410.9375,0.0,0.75,1.176757692,0.5498168668524888,0.0,-128646.0,4.5,1177.5,1410.9375,0.0,0.25,4.94384715,4.410439589772222,0.0,115636.0,14.0,-495.0,1410.9375,0.0,0.5,2.969970399,4.389674732977289,0.0,-108592.0,5.375,1065.0,1410.9375,0.0,0.375,2.073974397,0.5526872062785588,0.0,0.23000000417232513,0.20999999344348907,-50.59000015258789,0.418701171875,0.01666259765625,1.02490234375,36.029998779296875,0.0,253.0,-6.9727020263671875,-2.78466796875,Closing,0.0,0.0,-189.0,0.0,0.0,0.0,0.0,0.0,
6.426685,0.0,0.0,126316.0,8.5,300.0,967.9687500000001,0.0,0.625,1.444091649,0.5498168668524888,0.0,-128646.0,4.25,1147.5,967.9687500000001,0.0,0.125,4.860839346000001,4.410439589772222,0.0,115636.0,14.5,-180.0,967.9687500000001,0.0,0.625,2.8039547910000002,4.389674732977289,0.0,-108455.0,6.0,915.0,967.9687500000001,0.0,0.625,2.1643064190000003,0.5526872062785588,0.0,0.20000000298023224,1.3200000524520874,-55.650001525878906,0.41473388671875,-0.09765625,1.29949951171875,36.02000045776367,0.0,301.0,-6.9539947509765625,-2.7477569580078125,Closing,0.0,0.0,-189.0,0.0,0.0,0.0,0.0,0.0,
6.483505,0.0,0.0,126428.0,2.125,637.5,0.0,0.0,0.375,1.5551756220000001,0.5498168668524888,0.2636718480000002,-128474.0,1.5,1012.5,0.0,0.0,0.125,4.827880365,4.410439589772222,-0.07812499199999934,115637.0,4.5,75.0,0.0,0.0,0.0,2.6977536300000002,4.389674732977289,-0.1818847469999998,-108455.0,2.25,712.5,0.0,0.0,0.25,2.1740720430000002,0.5526872062785588,0.08911131900000013,-0.5400000214576721,1.850000023841858,-61.15999984741211,0.04345703125,-0.17071533203125,0.7127685546875,36.02000045776367,0.0,153.0,-6.9270477294921875,-2.7057342529296875,Closing,0.0,0.0,-189.0,0.0,0.0,0.0,0.0,0.0,
6.55881,0.0,0.0,126428.0,0.0,645.0,0.0,0.0,0.375,1.516113126,0.5498168668524888,0.07690428900000001,-128385.0,0.0,570.0,0.0,0.0,0.25,4.827880365,4.410439589772222,-0.02441406000000068,115699.0,0.0,352.5,0.0,0.0,0.125,2.707519254,4.389674732977289,-0.09399413099999965,-108369.0,0.125,480.0,0.0,0.0,0.125,2.1740720430000002,0.5526872062785588,0.009765623999999917,-0.9100000262260437,1.7799999713897705,-64.12000274658203,-0.09674072265625,-0.0736083984375,0.74468994140625,36.02000045776367,0.0,3.0,-6.9088134765625,-2.6814422607421875,Closing,0.0,0.0,-189.0,0.0,0.0,0.0,0.0,0.0,
6.630561000000001,0.0,0.0,126500.0,0.0,435.0,0.0,0.0,0.375,1.435546728,0.5498168668524888,0.0,-128385.0,0.0,487.5,0.0,0.0,0.25,4.831542474,4.410439589772222,0.0,115699.0,0.0,435.0,0.0,0.0,0.125,2.7465817500000003,4.389674732977289,0.009765623999999917,-108369.0,0.125,517.5,0.0,0.0,0.125,2.1740720430000002,0.5526872062785588,0.0,-0.9800000190734863,1.5299999713897705,-68.43000030517578,0.08203125,0.023193359375,0.74798583984375,36.02000045776367,0.0,-10.0,-6.8723297119140625,-2.637176513671875,Closing,0.0,0.0,-189.0,0.0,0.0,0.0,0.0,0.0,
6.762196000000001,0.0,0.0,126549.0,0.0,292.5,0.0,0.0,0.25,1.337890488,0.5498168668524888,0.0,-128319.0,0.125,300.0,0.0,0.0,0.25,4.862060049,4.410439589772222,0.0,115755.0,0.0,262.5,0.0,0.0,0.0,2.774657919,4.389674732977289,0.0,-108305.0,0.0,262.5,0.0,0.0,0.125,2.1740720430000002,0.5526872062785588,0.0,-1.149999976158142,1.350000023841858,-71.76000213623047,-0.02960205078125,-0.04736328125,1.02032470703125,36.02000045776367,0.0,8.0,-6.823089599609375,-2.615386962890625,Closing,0.0,0.0,-189.0,0.0,0.0,0.0,0.0,0.0,
6.826418,0.0,0.0,126549.0,0.0,210.0,0.0,0.0,0.25,1.324462755,0.5498168668524888,-0.07080077400000007,-128291.0,0.125,165.0,0.0,0.0,0.25,4.886474109,4.410439589772222,0.0,115786.0,0.0,195.0,0.0,0.0,0.0,2.774657919,4.389674732977289,0.024414059999999793,-108280.0,0.125,150.0,0.0,0.0,0.125,2.1740720430000002,0.5526872062785588,0.0,-1.159999966621399,1.1799999475479126,-72.69000244140625,-0.01507568359375,-0.0303955078125,0.98529052734375,36.02000045776367,0.0,0.0,-6.8232574462890625,-2.6175384521484375,Closing,0.0,0.0,-189.0,0.0,0.0,0.0,0.0,0.0,
6.891956000000001,0.0,0.0,126572.0,0.0,105.0,0.0,0.0,0.125,1.324462755,0.5498168668524888,-0.014648435999999876,-128291.0,0.0,82.5,0.0,0.0,0.25,4.902343248,4.410439589772222,0.024414059999999793,115786.0,0.0,67.5,0.0,0.0,0.0,2.774657919,4.389674732977289,0.0,-108280.0,0.125,37.5,0.0,0.0,0.125,2.1740720430000002,0.5526872062785588,0.0,-1.149999976158142,1.0099999904632568,-72.73999786376953,-0.04913330078125,3.0517578125E-4,1.01513671875,36.0,0.0,-39.0,-6.823822021484375,-2.62066650390625,Closing,0.0,0.0,-189.0,0.0,0.0,0.0,0.0,0.0,
6.9112979999999995,0.0,0.0,126572.0,0.0,75.0,0.0,0.0,0.25,1.324462755,0.5498168668524888,-0.014648435999999876,-128291.0,0.0,60.0,0.0,0.0,0.25,4.898681139000001,4.410439589772222,0.024414059999999793,115786.0,0.0,67.5,0.0,0.0,0.0,2.774657919,4.389674732977289,0.0,-108278.0,0.125,15.0,0.0,0.0,0.125,2.1740720430000002,0.5526872062785588,-0.0012207029999999897,-1.1399999856948853,0.9599999785423279,-72.69999694824219,-0.01763916015625,-0.040771484375,1.0638427734375,36.0,0.0,8.0,-6.8240509033203125,-2.6216278076171875,Closing,0.0,0.0,-189.0,0.0,0.0,0.0,0.0,0.0,
6.933923,0.0,0.0,126572.0,0.0,37.5,-1031.8110573291779,0.0,0.25,1.325683458,1.2330627499999984,0.0012207029999999897,-128288.0,0.0,37.5,-1031.8110573291779,0.0,0.25,4.898681139000001,3.7228274999999984,0.0,115790.0,0.0,37.5,1031.8110573291779,0.0,0.0,2.774657919,3.7052999999999985,0.0,-108278.0,0.125,15.0,1031.8110573291779,0.0,0.125,2.1740720430000002,1.2394999999999985,0.0012207029999999897,-1.1399999856948853,0.9599999785423279,-72.58000183105469,0.00384521484375,-0.011962890625,0.97320556640625,36.0,0.0,-10.0,-6.8240509033203125,-2.623687744140625,Closing,0.0,0.0,-189.0,0.0,0.0,0.0,0.0,0.0,
6.972330000000001,0.0,0.0,126567.0,1.375,0.0,-1428.6614871025085,0.0,0.25,1.329345567,1.2330627499999984,0.0,-128288.0,2.625,0.0,-1428.6614871025085,0.0,0.125,4.897460436,3.7228274999999984,0.0024414059999999793,115790.0,1.875,7.5,1428.6614871025085,0.0,0.25,2.768554404,3.7052999999999985,0.0,-108278.0,2.625,30.0,1428.6614871025085,0.0,0.125,2.188720479,1.2394999999999985,0.0,-1.2000000476837158,1.0399999618530273,-72.3499984741211,-0.17352294921875,-0.18701171875,0.9957275390625,36.0,0.0,100.0,-6.82366943359375,-2.626678466796875,Closing,0.0,0.0,-189.0,0.0,0.0,0.0,0.0,0.0,
6.9937320000000005,0.0,0.0,126567.0,4.0,-37.5,-1885.0393724441528,0.0,0.25,1.3476561120000001,1.2330627499999984,0.009765623999999917,-128288.0,14.0,-82.5,-1885.0393724441528,0.0,2.375,4.887694812,3.7228274999999984,-0.004882811999999959,115790.0,7.375,7.5,1885.0393724441528,0.0,2.25,2.613525123,3.7052999999999985,0.0,-108278.0,10.125,120.0,1885.0393724441528,0.0,3.25,2.352294681,1.2394999999999985,0.0,-1.5800000429153442,0.9900000095367432,-72.04000091552734,0.1473388671875,0.0516357421875,0.8778076171875,36.0,0.0,-31.0,-6.822509765625,-2.62921142578125,Closing,0.0,0.0,-189.0,0.0,0.0,0.0,0.0,0.0,
7.038843,0.0,0.0,126567.0,11.125,-135.0,-1488.1890177726746,0.0,2.625,1.561279137,1.2330627499999984,0.16235349899999996,-128324.0,20.875,-135.0,-1488.1890177726746,0.0,3.0,4.832763177,3.7228274999999984,-0.008544921000000372,115792.0,18.125,15.0,1488.1890177726746,0.0,2.375,2.5268552100000004,3.7052999999999985,-0.16235349899999996,-108258.0,14.875,150.0,1488.1890177726746,0.0,3.375,2.440185297,1.2394999999999985,0.1696777169999999,-1.559999942779541,0.9100000262260437,-71.79000091552734,-0.06268310546875,-0.046142578125,1.360595703125,36.0,0.0,-17.0,-6.820709228515625,-2.6317901611328125,Closing,0.0,0.0,-189.0,0.0,0.0,0.0,0.0,0.0,
7.059521,0.0,0.0,126567.0,13.75,-180.0,-793.700784444809,0.0,2.75,1.6577146740000002,1.2330627499999984,0.09521483400000008,-128324.0,26.625,-232.5,-793.700784444809,0.0,1.5,4.7058100650000005,3.7228274999999984,0.0,115792.0,20.0,7.5,793.700784444809,0.0,0.625,2.3718259290000003,3.7052999999999985,0.0,-108258.0,17.25,127.5,793.700784444809,0.0,1.25,2.618407935,1.2394999999999985,0.0,-1.590000033378601,0.8399999737739563,-71.36000061035156,-0.04913330078125,0.02752685546875,0.98321533203125,36.0,0.0,-72.0,-6.8174591064453125,-2.6363372802734375,Closing,0.0,0.0,-189.0,0.0,0.0,0.0,0.0,0.0,
7.104122,0.0,0.0,126530.0,10.0,-217.5,-337.32282400131226,0.0,0.75,1.834716609,1.2330627499999984,0.18310545,-128324.0,21.5,-255.0,-337.32282400131226,0.0,2.0,4.606933122,3.7228274999999984,-0.14038084500000014,115792.0,17.75,7.5,337.32282400131226,0.0,0.5,2.29492164,3.7052999999999985,-0.16845701400000035,-108258.0,15.5,75.0,337.32282400131226,0.0,1.25,2.675780976,1.2394999999999985,0.17089841999999988,-1.5299999713897705,0.6700000166893005,-71.25,-0.15704345703125,-0.01458740234375,1.2117919921875,36.0,0.0,-72.0,-6.81646728515625,-2.6380767822265625,Closing,0.0,0.0,-189.0,0.0,0.0,0.0,0.0,0.0,
7.128354,0.0,0.0,126530.0,2.875,-210.0,0.0,0.0,0.625,1.911620898,1.2330627499999984,0.07202147700000006,-128324.0,15.625,-225.0,0.0,0.0,2.0,4.506835476,3.7228274999999984,-0.0805663980000002,115792.0,9.875,0.0,0.0,0.0,0.25,2.211913836,3.7052999999999985,-0.06958007099999985,-108258.0,7.5,15.0,0.0,0.0,0.75,2.755126671,1.2394999999999985,0.06591796199999989,-1.559999942779541,0.7699999809265137,-71.0999984741211,0.04095458984375,0.1170654296875,0.79119873046875,36.0,0.0,-121.0,-6.8145294189453125,-2.6418609619140625,Closing,0.0,0.0,-189.0,0.0,0.0,0.0,0.0,0.0,
7.160768000000001,0.0,0.0,126530.0,1.5,-202.5,0.0,0.0,0.5,1.9775388600000001,1.2330627499999984,0.07202147700000006,-128338.0,5.5,-187.5,0.0,0.0,1.75,4.410399939,3.7228274999999984,-0.0805663980000002,115792.0,6.125,0.0,0.0,0.0,0.25,2.187499776,3.7052999999999985,-0.06958007099999985,-108253.0,3.625,15.0,0.0,0.0,0.375,2.78320284,1.2394999999999985,0.06591796199999989,-1.3799999952316284,0.6800000071525574,-71.06999969482422,0.034912109375,0.07464599609375,1.1324462890625,36.0,0.0,-89.0,-6.8131866455078125,-2.645477294921875,Closing,0.0,0.0,-189.0,0.0,0.0,0.0,0.0,0.0,
7.227296000000001,0.0,0.0,126517.0,0.125,-75.0,196.875,0.0,0.375,2.053222446,1.2330627500000013,0.0,-128338.0,0.125,-7.5,196.875,0.0,0.25,4.278564015000001,3.7228275000000015,0.0,115792.0,0.125,0.0,-196.875,0.0,0.25,2.1618650130000003,3.7053000000000016,0.0,-108253.0,0.375,7.5,-196.875,0.0,0.375,2.827148148,1.2395000000000012,0.0,-1.059999942779541,0.6800000071525574,-71.30999755859375,-0.04351806640625,0.060546875,1.13037109375,36.0,0.0,-95.0,-6.8125762939453125,-2.648895263671875,Closing,0.0,0.0,-189.0,0.0,0.0,0.0,0.0,0.0,
7.2928370000000005,0.0,0.0,126517.0,4.625,15.0,1594.6875,0.0,0.375,2.0166013560000002,1.2330627500000013,0.0,-128312.0,4.75,60.0,1594.6875,0.0,0.25,4.229735895,3.7228275000000015,0.0,115792.0,8.625,0.0,-1594.6875,0.0,0.125,2.159423607,3.7053000000000016,0.0,-108261.0,5.5,-52.5,-1594.6875,0.0,0.25,2.8503415050000003,1.2395000000000012,0.0,-0.8299999833106995,0.6000000238418579,-71.19999694824219,-0.17547607421875,0.90753173828125,1.10675048828125,36.0,0.0,-934.0,-6.8150177001953125,-2.6489105224609375,Closing,0.0,0.0,-189.0,0.0,0.0,0.0,0.0,0.0,
