Time,ClimberA1,ClimberA2,FRpos,FRCurrent,FRspeed,FRsetpoint,FRApos,FRACurrent,FREncpos,FREncSetpoint,FREncSpeed,FLpos,FLCurrent,FLspeed,FLsetpoint,FLApos,FLACurrent,FLEncpos,FLEncSetpoint,FLEncSpeed,BRpos,BRCurrent,BRspeed,BRsetpoint,BRApos,BRACurrent,BREncpos,BREncSetpoint,BREncSpeed,BLpos,BLCurrent,BLspeed,BLsetpoint,BLApos,BLACurrent,BLEncpos,BLEncSetpoint,BLEncSpeed,navx_Pitch,navx_Roll,navx_Yaw,navx_XAcc,navx_YAcc,navx_ZAcc,navx_Temp,navx_Bar,navx_Alt,navx_XDis,navx_YDis,GearPlacerState,ShootOutputV,ShootOutputCurrent,ShootEncPos,ShootEncVelocity,ShootSpeed,ShootSetpoint,CarouselSetpoint,CarouselCurrent,
0.267107,0.0,0.0,68479.0,0.0,0.0,NaN,0.0,0.125,0.42846675300000003,NaN,0.0,-60259.0,0.0,0.0,NaN,0.0,0.0,0.13916014200000001,NaN,0.0,60197.0,0.0,0.0,NaN,0.0,0.0,2.97851532,NaN,0.0,-35948.0,0.0,0.0,NaN,0.0,0.125,1.260986199,NaN,0.0,0.2800000011920929,-0.550000011920929,46.150001525878906,-0.02471923828125,0.01104736328125,1.08856201171875,35.529998779296875,0.0,-5.0,-1.1425628662109375,-2.551971435546875,Closing,0.0,0.0,-189.0,0.0,0.0,0.0,0.0,0.0,
0.3915529999999999,0.0,0.0,68479.0,0.0,0.0,0.0,0.0,0.125,0.432128862,0.01,0.0,-60259.0,0.0,0.0,-0.0,0.0,0.25,0.13916014200000001,0.01,0.0,60197.0,0.0,0.0,0.0,0.0,0.0,2.97851532,0.01,0.0,-35948.0,0.0,0.0,-0.0,0.0,0.125,1.260986199,0.01,0.0,0.27000001072883606,-0.5199999809265137,46.130001068115234,-0.01171875,0.01513671875,1.02001953125,35.5099983215332,0.0,5.0,-1.1425628662109375,-2.551055908203125,Closing,0.0,0.0,-189.0,0.0,0.0,0.0,0.0,0.0,
0.44672000000000117,0.0,0.0,68479.0,0.0,0.0,0.0,0.0,1.25,0.611572203,0.01,0.008544920999999484,-60259.0,0.0,0.0,-0.0,0.0,1.25,0.28320309600000004,0.01,0.0012207029999995456,60197.0,0.0,0.0,0.0,0.0,1.125,3.14941374,0.01,0.0024414059999999793,-35948.0,0.125,0.0,-0.0,0.0,1.25,1.4196775890000002,0.01,0.0,0.27000001072883606,-0.5199999809265137,46.150001525878906,-0.0084228515625,-0.0286865234375,0.9779052734375,35.5099983215332,0.0,-23.0,-1.1425628662109375,-2.5509796142578125,Closing,0.0,0.0,-189.0,0.0,0.0,0.0,0.0,0.0,
0.5322079999999987,0.0,0.0,68479.0,0.0,0.0,0.0,0.0,0.75,0.808105386,0.01,0.0,-60259.0,0.125,0.0,-0.0,0.0,0.5,0.5297851020000001,0.01,0.2136230250000004,60197.0,0.0,0.0,0.0,0.0,0.625,3.387450825,0.01,0.2221679459999999,-35948.0,0.0,0.0,-0.0,0.0,0.75,1.649169753,0.01,0.21240232199999998,0.25,-0.5099999904632568,46.209999084472656,-0.0025634765625,0.017822265625,1.04840087890625,35.5099983215332,0.0,14.0,-1.14263916015625,-2.551239013671875,Closing,0.0,0.0,-189.0,0.0,0.0,0.0,0.0,0.0,
0.601518,0.0,0.0,68478.0,0.0,-7.5,0.0,0.0,0.375,0.888671784,0.01,-4.754028362,-60259.0,0.0,0.0,-0.0,0.0,0.25,0.6066893910000001,0.01,0.19287107400000014,60197.0,0.0,0.0,0.0,0.0,0.25,3.4289547270000003,0.01,0.0,-35950.0,0.125,-7.5,-0.0,0.0,0.25,1.6882322490000001,0.01,0.0,0.2800000011920929,-0.5199999809265137,46.16999816894531,-0.02685546875,0.00885009765625,1.0289306640625,35.5099983215332,0.0,-9.0,-1.14263916015625,-2.551239013671875,Closing,0.0,0.0,-189.0,0.0,0.0,0.0,0.0,0.0,
0.6805089999999981,0.0,0.0,68478.0,0.0,0.0,0.0,0.0,0.25,0.8557128030000001,0.01,0.021972654000000036,-60259.0,0.0,0.0,-0.0,0.0,0.25,0.574951113,0.01,0.056152337999999524,60197.0,0.0,0.0,0.0,0.0,0.125,3.4204098060000003,0.01,0.04150390200000009,-35950.0,0.0,0.0,-0.0,0.0,0.25,1.650390456,0.01,0.04150390200000009,0.2800000011920929,-0.5400000214576721,46.16999816894531,-0.01129150390625,-0.00726318359375,1.0052490234375,35.5099983215332,0.0,-10.0,-1.14263916015625,-2.55108642578125,Closing,0.0,0.0,-189.0,0.0,0.0,0.0,0.0,0.0,
0.752446,0.0,0.0,68478.0,0.0,0.0,0.0,0.0,0.25,0.8312987430000001,0.01,-0.031738278000000064,-60259.0,0.0,0.0,-0.0,0.0,0.25,0.534667914,0.01,-0.029296871999999752,60197.0,0.0,0.0,0.0,0.0,0.125,3.387450825,0.01,-0.014648435999999876,-35950.0,0.0,0.0,-0.0,0.0,0.25,1.616210772,0.01,-0.03906249600000011,0.27000001072883606,-0.5400000214576721,46.150001525878906,-0.00494384765625,0.01837158203125,1.00445556640625,35.5099983215332,0.0,12.0,-1.14263916015625,-2.55108642578125,Closing,0.0,0.0,-189.0,0.0,0.0,0.0,0.0,0.0,
0.826969000000001,0.0,0.0,68478.0,0.0,0.0,0.0,0.0,0.25,0.8312987430000001,0.01,-0.019531247999999946,-60259.0,0.125,0.0,-0.0,0.0,0.25,0.509033151,0.01,-0.03906249599999967,60197.0,0.0,0.0,0.0,0.0,0.125,3.358153953,0.01,-0.032958981000000165,-35950.0,0.125,0.0,-0.0,0.0,0.125,1.595458821,0.01,4.9238203160000005,0.2800000011920929,-0.5299999713897705,46.130001068115234,-0.00579833984375,0.001953125,1.023193359375,35.529998779296875,0.0,0.0,-1.14263916015625,-2.55108642578125,Closing,0.0,0.0,-189.0,0.0,0.0,0.0,0.0,0.0,
0.891739999999998,0.0,0.0,68478.0,0.0,0.0,0.0,0.0,0.125,0.8312987430000001,0.01,0.0,-60259.0,0.0,0.0,-0.0,0.0,0.0,0.510253854,0.01,-0.02441406000000068,60197.0,0.0,0.0,0.0,0.0,0.0,3.358153953,0.01,4.914765236999999,-35950.0,0.0,0.0,-0.0,0.0,0.125,1.596679524,0.01,-0.019531247999999835,0.27000001072883606,-0.5199999809265137,46.130001068115234,-0.005615234375,-0.0096435546875,1.0177001953125,35.529998779296875,0.0,-7.0,-1.14263916015625,-2.55108642578125,Closing,0.0,0.0,-189.0,0.0,0.0,0.0,0.0,0.0,
0.9485429999999978,0.0,0.0,68478.0,0.0,0.0,0.0,0.0,0.125,0.8312987430000001,0.01,0.0,-60259.0,0.0,0.0,-0.0,0.0,0.0,0.510253854,0.01,0.0,60197.0,0.0,0.0,0.0,0.0,0.0,3.358153953,0.01,0.0,-35950.0,0.125,0.0,-0.0,0.0,0.25,1.596679524,0.01,0.0,0.2800000011920929,-0.5299999713897705,46.130001068115234,-0.0147705078125,-0.002197265625,1.021484375,35.529998779296875,0.0,-8.0,-1.14263916015625,-2.55108642578125,Closing,0.0,0.0,-189.0,0.0,0.0,0.0,0.0,0.0,
1.0214350000000012,0.0,0.0,68478.0,0.0,0.0,0.0,0.0,0.125,0.8312987430000001,0.01,0.0,-60259.0,0.0,0.0,-0.0,0.0,0.0,0.510253854,0.01,0.0,60197.0,0.0,0.0,0.0,0.0,0.0,3.358153953,0.01,0.0,-35950.0,0.0,0.0,-0.0,0.0,0.25,1.596679524,0.01,0.0,0.27000001072883606,-0.5400000214576721,46.130001068115234,-0.01025390625,0.00555419921875,1.0274658203125,35.529998779296875,0.0,0.0,-1.14263916015625,-2.55108642578125,Closing,0.0,0.0,-189.0,0.0,0.0,0.0,0.0,0.0,
1.085112000000001,0.0,0.0,68478.0,0.0,0.0,0.0,0.0,0.125,0.8312987430000001,0.01,0.0,-60259.0,0.0,0.0,-0.0,0.0,0.0,0.510253854,0.01,0.0,60197.0,0.0,0.0,0.0,0.0,0.0,3.358153953,0.01,0.0,-35950.0,0.0,0.0,-0.0,0.0,0.25,1.596679524,0.01,0.0,0.2800000011920929,-0.5299999713897705,46.130001068115234,-0.007080078125,0.001708984375,1.0225830078125,35.529998779296875,0.0,0.0,-1.14263916015625,-2.55108642578125,Closing,0.0,0.0,-189.0,0.0,0.0,0.0,0.0,0.0,
1.1450600000000013,0.0,0.0,68478.0,0.125,0.0,-555.5905491113663,0.0,0.125,0.8312987430000001,4.932250999999998,0.0,-60259.0,1.0,22.5,555.5905491113663,0.0,0.0,0.505371042,4.963769999999998,0.0,60197.0,0.625,0.0,-555.5905491113663,0.0,0.0,3.358153953,0.01,0.0,-35950.0,0.5,0.0,555.5905491113663,0.0,0.25,1.596679524,0.01,0.0,0.2800000011920929,-0.5299999713897705,46.130001068115234,-0.02001953125,0.004638671875,1.01123046875,35.529998779296875,0.0,-7.0,-1.14263916015625,-2.55108642578125,Closing,0.0,0.0,-189.0,0.0,0.0,0.0,0.0,0.0,
1.2073230000000004,0.0,0.0,68478.0,2.25,-90.0,-1190.5512142181394,0.0,0.125,0.836181555,4.932250999999998,0.0,-60236.0,6.125,112.5,1190.5512142181394,0.0,0.0,0.505371042,4.963769999999998,0.0,60193.0,3.0,-7.5,-1190.5512142181394,0.0,0.0,3.358153953,0.01,0.0,-35931.0,3.5,105.0,1190.5512142181394,0.0,0.25,1.596679524,0.01,0.0,0.23000000417232513,-0.6499999761581421,46.08000183105469,-0.2974853515625,0.04901123046875,0.9617919921875,35.529998779296875,0.0,-166.0,-1.1430206298828125,-2.5509185791015625,Closing,0.0,0.0,-189.0,0.0,0.0,0.0,0.0,0.0,
1.2696280000000006,0.0,0.0,68447.0,4.75,-210.0,-515.9055286645889,0.0,0.25,0.8422850700000001,4.932250999999998,0.0,-60236.0,10.75,187.5,515.9055286645889,0.0,0.0,0.505371042,4.963769999999998,0.0,60193.0,6.625,-52.5,-515.9055286645889,0.0,0.0,3.3728023890000003,0.01,0.0,-35931.0,4.875,180.0,515.9055286645889,0.0,0.25,1.596679524,0.01,0.0,0.27000001072883606,-1.2799999713897705,46.040000915527344,-0.39129638671875,0.05084228515625,0.93389892578125,35.529998779296875,0.0,-223.0,-1.1454010009765625,-2.5486602783203125,Closing,0.0,0.0,-189.0,0.0,0.0,0.0,0.0,0.0,
1.3114589999999988,0.0,0.0,68447.0,0.75,-232.5,-396.8503922224045,0.0,0.25,0.8544921000000001,4.932250999999998,0.0,-60196.0,3.875,195.0,396.8503922224045,0.0,0.0,0.505371042,4.963769999999998,0.0,60172.0,2.75,-135.0,-396.8503922224045,0.0,0.0,3.3740230920000003,0.01,0.0,-35906.0,2.0,172.5,396.8503922224045,0.0,0.25,1.595458821,0.01,0.0,0.1899999976158142,-1.5299999713897705,46.20000076293945,0.0147705078125,0.0167236328125,0.93145751953125,35.52000045776367,0.0,37.0,-1.1524200439453125,-2.5424652099609375,Closing,0.0,0.0,-189.0,0.0,0.0,0.0,0.0,0.0,
1.394298999999999,0.0,0.0,68400.0,0.125,-315.0,-218.26772511005402,0.0,0.25,0.850829991,4.932250999999998,0.0,-60196.0,1.5,292.5,218.26772511005402,0.0,0.0,0.510253854,4.963769999999998,0.0,60172.0,2.0,-105.0,-218.26772511005402,0.0,0.0,3.3715816860000003,0.01,0.0,-35906.0,1.375,195.0,218.26772511005402,0.0,0.25,1.596679524,0.01,0.0,0.25999999046325684,-1.5700000524520874,46.36000061035156,0.00347900390625,0.03375244140625,0.97589111328125,35.52000045776367,0.0,42.0,-1.15985107421875,-2.535736083984375,Closing,0.0,0.0,-189.0,0.0,0.0,0.0,0.0,0.0,
1.4626539999999986,0.0,0.0,68400.0,0.0,-315.0,0.0,0.0,0.25,0.850829991,4.932250999999998,-0.0012207029999999897,-60149.0,0.375,292.5,0.0,0.0,0.0,0.518798775,4.963769999999998,0.004882811999999959,60149.0,0.75,-120.0,0.0,0.0,0.0,3.3679195770000003,0.01,0.0,-35864.0,0.25,255.0,0.0,0.0,0.25,1.6064451480000002,0.01,-0.0012207029999995456,0.27000001072883606,-1.4700000286102295,46.45000076293945,0.03106689453125,-0.03277587890625,0.96331787109375,35.52000045776367,0.0,11.0,-1.1652679443359375,-2.5357666015625,Closing,0.0,0.0,-189.0,0.0,0.0,0.0,0.0,0.0,
1.517619999999999,0.0,0.0,68353.0,0.0,-255.0,0.0,0.0,0.25,0.850829991,4.932250999999998,0.0012207029999999897,-60149.0,0.0,187.5,0.0,0.0,0.125,0.52490229,4.963769999999998,0.009765623999999917,60149.0,0.0,-142.5,0.0,0.0,0.0,3.358153953,0.01,-0.004882811999999959,-35864.0,0.0,240.0,0.0,0.0,0.25,1.6015623360000002,0.01,0.009765623999999917,0.25999999046325684,-1.25,46.61000061035156,0.00445556640625,-0.03131103515625,1.074462890625,35.52000045776367,0.0,-7.0,-1.169921875,-2.5367279052734375,Closing,0.0,0.0,-189.0,0.0,0.0,0.0,0.0,0.0,
1.590541000000001,0.0,0.0,68353.0,0.0,-135.0,0.0,0.0,0.25,0.850829991,4.932250999999998,0.0,-60130.0,0.0,105.0,0.0,0.0,0.125,0.5297851020000001,4.963769999999998,0.0,60142.0,0.0,-45.0,0.0,0.0,0.0,3.358153953,0.01,0.0,-35829.0,0.0,225.0,0.0,0.0,0.25,1.596679524,0.01,-0.009765623999999917,0.3100000023841858,-0.8799999952316284,46.70000076293945,0.07550048828125,-0.0120849609375,1.1968994140625,35.52000045776367,0.0,50.0,-1.173431396484375,-2.540008544921875,Closing,0.0,0.0,-189.0,0.0,0.0,0.0,0.0,0.0,
1.6401850000000013,0.0,0.0,68326.0,0.0,-187.5,0.0,0.0,0.25,0.852050694,4.932250999999998,0.0,-60130.0,0.0,150.0,0.0,0.0,0.125,0.5297851020000001,4.963769999999998,0.0,60142.0,0.0,-67.5,0.0,0.0,0.0,3.35693325,0.01,0.0,-35829.0,0.125,165.0,0.0,0.0,0.25,1.6015623360000002,0.01,0.0,0.27000001072883606,-0.5699999928474426,46.869998931884766,0.0540771484375,-0.00738525390625,1.0291748046875,35.52000045776367,0.0,35.0,-1.1747283935546875,-2.544647216796875,Closing,0.0,0.0,-189.0,0.0,0.0,0.0,0.0,0.0,
1.689898000000001,0.0,0.0,68326.0,0.0,-150.0,0.0,0.0,0.25,0.852050694,4.932250999999998,0.0,-60117.0,0.0,82.5,0.0,0.0,0.125,0.5285643990000001,4.963769999999998,0.0,60128.0,0.0,-82.5,0.0,0.0,0.0,3.35693325,0.01,0.0,-35811.0,0.0,105.0,0.0,0.0,0.25,1.6015623360000002,0.01,0.004882811999999959,0.3199999928474426,-0.36000001430511475,46.88999938964844,0.06842041015625,0.020751953125,0.9254150390625,35.52000045776367,0.0,62.0,-1.1747894287109375,-2.549041748046875,Closing,0.0,0.0,-189.0,0.0,0.0,0.0,0.0,0.0,
1.74741,0.0,0.0,68314.0,0.125,-37.5,-158.7401568889618,0.0,0.25,0.850829991,4.932250999999998,0.0,-60117.0,0.0,45.0,158.7401568889618,0.0,0.125,0.5297851020000001,4.963769999999998,0.0,60128.0,0.125,-45.0,-158.7401568889618,0.0,0.0,3.358153953,0.01,0.0,-35811.0,0.25,52.5,158.7401568889618,0.0,0.25,1.596679524,0.01,0.0,0.33000001311302185,-0.18000000715255737,46.810001373291016,0.056640625,-0.016357421875,0.8890380859375,35.52000045776367,0.0,25.0,-1.1733245849609375,-2.5576324462890625,Closing,0.0,0.0,-189.0,0.0,0.0,0.0,0.0,0.0,
1.8091800000000002,0.0,0.0,68314.0,0.0,-22.5,-158.7401568889618,0.0,0.25,0.8544921000000001,4.932250999999998,0.0,-60114.0,0.125,15.0,158.7401568889618,0.0,0.125,0.5297851020000001,4.963769999999998,0.0,60126.0,0.125,-15.0,-158.7401568889618,0.0,0.0,3.35693325,0.01,0.0,-35808.0,0.25,22.5,158.7401568889618,0.0,0.25,1.6015623360000002,0.01,0.0,0.30000001192092896,-0.20000000298023224,46.84000015258789,-0.00262451171875,4.2724609375E-4,1.02008056640625,35.52000045776367,0.0,-2.0,-1.1729278564453125,-2.561431884765625,Closing,0.0,0.0,-189.0,0.0,0.0,0.0,0.0,0.0,
1.8700339999999998,0.0,0.0,68312.0,0.125,-15.0,-238.1102353334427,0.0,0.25,0.8923338930000001,4.932250999999998,0.0,-60114.0,0.25,7.5,238.1102353334427,0.0,0.125,0.5297851020000001,4.963769999999998,0.0,60126.0,0.375,-7.5,-238.1102353334427,0.0,0.0,3.35693325,0.01,0.0,-35808.0,0.5,0.0,238.1102353334427,0.0,0.25,1.596679524,0.01,0.0,0.33000001311302185,-0.20000000298023224,46.810001373291016,-0.00726318359375,0.01104736328125,0.91937255859375,35.540000915527344,0.0,1.0,-1.172821044921875,-2.5612335205078125,Closing,0.0,0.0,-189.0,0.0,0.0,0.0,0.0,0.0,
1.9328420000000006,0.0,0.0,68312.0,0.125,-30.0,-615.1181173324585,0.0,0.25,0.850829991,4.932250999999998,0.0012207029999999897,-60095.0,0.5,105.0,615.1181173324585,0.0,0.125,0.5285643990000001,4.963769999999998,0.0,60113.0,0.875,-67.5,-615.1181173324585,0.0,0.0,3.359374656,0.01,0.0,-35804.0,1.25,37.5,615.1181173324585,0.0,0.25,1.596679524,0.01,0.0,0.30000001192092896,-0.3499999940395355,46.779998779296875,-0.20635986328125,0.05902099609375,0.90203857421875,35.540000915527344,0.0,-98.0,-1.173187255859375,-2.5610198974609375,Closing,0.0,0.0,-189.0,0.0,0.0,0.0,0.0,0.0,
2.0114379999999983,0.0,0.0,68293.0,3.25,-157.5,-972.2834515571594,0.0,0.25,0.850829991,4.932250999999998,0.0,-60095.0,5.25,157.5,972.2834515571594,0.0,0.125,0.5151366660000001,4.963769999999998,0.0,60113.0,4.5,-165.0,-972.2834515571594,0.0,0.0,3.35693325,0.01,0.0,-35804.0,3.875,180.0,972.2834515571594,0.0,0.25,1.595458821,0.01,0.0,0.3700000047683716,-0.8199999928474426,46.83000183105469,-0.26312255859375,-0.016357421875,1.06939697265625,35.540000915527344,0.0,-186.0,-1.1756744384765625,-2.55853271484375,Closing,0.0,0.0,-189.0,0.0,0.0,0.0,0.0,0.0,
2.0680740000000006,0.0,0.0,68293.0,5.25,-202.5,-1031.8110573291779,0.0,0.25,0.8557128030000001,4.932250999999998,0.0,-60065.0,12.375,165.0,1031.8110573291779,0.0,0.125,0.5151366660000001,4.963769999999998,0.0,60086.0,6.5,-150.0,-1031.8110573291779,0.0,0.0,3.358153953,0.01,0.0,-35769.0,5.125,210.0,1031.8110573291779,0.0,0.25,1.596679524,0.01,0.0,0.3799999952316284,-1.399999976158142,46.880001068115234,-0.2205810546875,-0.00335693359375,1.12066650390625,35.540000915527344,0.0,-139.0,-1.1812591552734375,-2.5528564453125,Closing,0.0,0.0,-189.0,0.0,0.0,0.0,0.0,0.0,
2.1145420000000015,0.0,0.0,68257.0,6.25,-255.0,-1051.6535675525665,0.0,0.25,0.852050694,4.932250999999998,0.0,-60065.0,15.375,322.5,1051.6535675525665,0.0,0.0,0.513915963,4.963769999999998,0.0,60086.0,8.5,-240.0,-1051.6535675525665,0.0,0.0,3.358153953,0.01,0.0,-35769.0,6.625,270.0,1051.6535675525665,0.0,0.25,1.597900227,0.01,0.0,0.41999998688697815,-1.8600000143051147,46.959999084472656,-0.31201171875,-0.0272216796875,0.93975830078125,35.540000915527344,0.0,-217.0,-1.1877899169921875,-2.5462646484375,Closing,0.0,0.0,-189.0,0.0,0.0,0.0,0.0,0.0,
2.2558199999999995,0.0,0.0,68161.0,5.25,-727.5,-1051.6535675525665,0.0,0.25,0.850829991,4.932250999999998,0.0,-59981.0,11.125,727.5,1051.6535675525665,0.0,0.0,0.5151366660000001,4.963769999999998,0.0,60012.0,8.25,-450.0,-1051.6535675525665,0.0,0.0,3.392333637,0.01,0.0,-35695.0,6.25,630.0,1051.6535675525665,0.0,0.25,1.596679524,0.01,0.0,0.3100000023841858,-3.059999942779541,47.459999084472656,-0.237548828125,0.0087890625,1.11968994140625,35.540000915527344,0.0,-117.0,-1.2227630615234375,-2.5125732421875,Closing,0.0,0.0,-189.0,0.0,0.0,0.0,0.0,0.0,
2.3934449999999963,0.0,0.0,68016.0,3.625,-1012.5,-1131.023608446121,0.0,0.25,0.850829991,4.932250999999998,0.0,-59846.0,8.0,997.5,1131.023608446121,0.0,0.125,0.5151366660000001,4.963769999999998,0.0,59779.0,8.625,-945.0,-1131.023608446121,0.0,0.125,3.392333637,0.01,0.0,-35419.0,5.5,922.5,1131.023608446121,0.0,0.25,1.596679524,0.01,0.0,0.3700000047683716,-3.490000009536743,48.290000915527344,-0.04376220703125,-0.05426025390625,0.7154541015625,35.529998779296875,0.0,-44.0,-1.2601165771484375,-2.471771240234375,Closing,0.0,0.0,-189.0,0.0,0.0,0.0,0.0,0.0,
2.524153000000002,0.0,0.0,67836.0,2.875,-1192.5,-1230.236234664917,0.0,0.25,0.8801268630000001,4.932250999999998,0.0,-59678.0,7.0,1162.5,1230.236234664917,0.0,0.125,0.513915963,4.963769999999998,0.0,59779.0,8.0,-1080.0,-1230.236234664917,0.0,0.125,3.391112934,0.01,0.0,-35238.0,5.0,1095.0,1230.236234664917,0.0,0.25,1.595458821,0.01,0.0,0.550000011920929,-3.6500000953674316,48.869998931884766,-0.185302734375,0.23406982421875,1.69793701171875,35.529998779296875,0.0,113.0,-1.29473876953125,-2.43316650390625,Closing,0.0,0.0,-189.0,0.0,0.0,0.0,0.0,0.0,
2.6596090000000006,0.0,0.0,67637.0,1.625,-1305.0,-1250.0787448883057,0.0,0.25,0.839843664,4.932250999999998,0.0,-59274.0,4.625,1305.0,1250.0787448883057,0.0,0.0,0.5151366660000001,4.963769999999998,0.0,59374.0,5.25,-1335.0,-1250.0787448883057,0.0,0.125,3.392333637,0.01,0.0,-35039.0,4.25,1230.0,1250.0787448883057,0.0,0.25,1.596679524,0.01,0.0,0.4099999964237213,-3.619999885559082,49.380001068115234,-0.06622314453125,0.01239013671875,0.81524658203125,35.529998779296875,0.0,-4.0,-1.32373046875,-2.396514892578125,Closing,0.0,0.0,-189.0,0.0,0.0,0.0,0.0,0.0,
2.7939940000000023,0.0,0.0,67201.0,0.75,-1380.0,-1289.7637653350828,0.0,0.25,0.8410643670000001,4.932250999999998,0.0,-59056.0,3.5,1357.5,1289.7637653350828,0.0,0.125,0.5151366660000001,4.963769999999998,0.0,59151.0,4.0,-1402.5,-1289.7637653350828,0.0,0.125,3.392333637,0.01,0.0,-34829.0,3.75,1312.5,1289.7637653350828,0.0,0.25,1.596679524,0.01,0.0,0.5299999713897705,-3.559999942779541,50.029998779296875,-0.0028076171875,0.26861572265625,1.24249267578125,35.529998779296875,0.0,244.0,-1.355865478515625,-2.356201171875,Closing,0.0,0.0,-189.0,0.0,0.0,0.0,0.0,0.0,
2.928033999999996,0.0,0.0,66980.0,0.625,-1380.0,-1309.6062755584717,0.0,0.25,0.837402258,4.932250999999998,0.0,-58837.0,3.0,1372.5,1309.6062755584717,0.0,0.125,0.5151366660000001,4.963769999999998,0.0,58924.0,3.625,-1402.5,-1309.6062755584717,0.0,0.125,3.392333637,0.01,0.0,-34618.0,3.625,1327.5,1309.6062755584717,0.0,0.25,1.596679524,0.01,0.0,0.47999998927116394,-3.130000114440918,50.279998779296875,0.078857421875,-0.00164794921875,1.1962890625,35.5099983215332,0.0,83.0,-1.37445068359375,-2.3278350830078125,Closing,0.0,0.0,-189.0,0.0,0.0,0.0,0.0,0.0,
3.059382999999998,0.0,0.0,66759.0,1.875,-1387.5,-1507.744644365699,0.0,0.25,0.837402258,0.08338842321396062,0.0,-58624.0,1.375,1305.0,1131.3189357003191,0.0,0.25,0.532226508,0.11200925289119203,0.0,58697.0,5.125,-1425.0,-1507.744644365699,0.0,0.125,3.3679195770000003,4.856873803533873,0.0,-34406.0,2.75,1237.5,1131.3189357003191,0.0,0.25,1.591796712,4.846120949231223,0.0,0.5,-2.7200000286102295,50.54999923706055,-0.17919921875,-0.169677734375,0.49188232421875,35.5099983215332,0.0,-233.0,-1.3882598876953125,-2.315277099609375,Closing,0.0,0.0,-189.0,0.0,0.0,0.0,0.0,0.0,
3.1931680000000013,0.0,0.0,66528.0,2.0,-1440.0,-1535.2590045340023,0.0,0.25,0.8703612390000001,0.09285508357910233,0.0,-58425.0,1.125,1237.5,1109.5738141565137,0.0,0.25,0.624999936,0.12957864530639016,0.0,58464.0,4.875,-1470.0,-1535.2590045340023,0.0,0.125,3.2702633370000003,4.8473915024774294,0.0,-34211.0,2.0,1260.0,1109.5738141565137,0.0,0.25,1.511230314,4.8285719798803965,0.0,0.44999998807907104,-2.6600000858306885,51.7599983215332,0.13189697265625,0.12811279296875,0.680419921875,35.5099983215332,0.0,197.0,-1.4011077880859375,-2.31903076171875,Closing,0.0,0.0,-189.0,0.0,0.0,0.0,0.0,0.0,
3.3250790000000015,0.0,0.0,66284.0,2.5,-1545.0,-1661.582808888777,0.0,0.25,0.90332022,0.13152564986043735,0.0,-58233.0,0.875,1147.5,1019.2862044838323,0.0,0.25,0.704345631,0.21750511399479833,0.0,58220.0,5.0,-1552.5,-1661.582808888777,0.0,0.125,3.2128902960000003,4.808657045196909,0.0,-34020.0,1.875,1125.0,1019.2862044838323,0.0,0.25,1.431884619,4.740747718934155,0.0,0.6100000143051147,-2.690000057220459,55.5099983215332,-0.00177001953125,0.05474853515625,1.071533203125,35.5099983215332,0.0,63.0,-1.4085540771484375,-2.321990966796875,Closing,0.0,0.0,-189.0,0.0,0.0,0.0,0.0,0.0,
3.459251,0.0,0.0,66015.0,2.75,-1710.0,-1849.9664922624067,0.0,0.25,0.9606932610000001,0.17788912024893383,0.0,-58061.0,0.75,1020.0,916.2458670816143,0.0,0.25,0.849609288,0.3719730486580682,0.0,57964.0,7.125,-1657.5,-1849.9664922624067,0.0,0.125,3.201903969,4.762216973694601,0.0,-33848.0,2.25,967.5,916.2458670816143,0.0,0.25,1.275634635,4.586459341337995,0.0,0.7099999785423279,-2.490000009536743,61.540000915527344,-0.0341796875,0.10174560546875,0.91717529296875,35.5099983215332,0.0,82.0,-1.4095458984375,-2.3228759765625,Closing,0.0,0.0,-189.0,0.0,0.0,0.0,0.0,0.0,
3.592867000000002,0.0,0.0,65725.0,1.375,-1860.0,-1882.4628339388485,0.0,0.375,1.047363174,0.27206957139241006,0.0,-57902.0,0.25,877.5,687.8387182119842,0.0,1.25,1.276855338,0.9428681551330922,0.0,57692.0,6.5,-1755.0,-1882.4628339388485,0.0,0.25,3.1542965520000004,4.66788091885286,0.0,-33697.0,1.5,832.5,687.8387182119842,0.0,0.875,0.7763671080000001,4.016227856417628,0.0,0.800000011920929,-2.2799999713897705,70.56999969482422,0.01263427734375,0.0489501953125,1.1617431640625,35.5099983215332,0.0,50.0,-1.40478515625,-2.3238525390625,Closing,0.0,0.0,-189.0,0.0,0.0,0.0,0.0,0.0,
3.7270329999999996,0.0,0.0,65415.0,0.625,-1965.0,-1882.4628339388485,0.0,0.25,1.099853403,0.27206957139241006,0.0,-57641.0,0.25,810.0,687.8387182119842,0.0,0.25,1.6308592080000002,0.9428681551330922,0.0,57105.0,5.5,-1875.0,-1882.4628339388485,0.0,0.125,3.084716481,4.66788091885286,0.0,-33460.0,2.375,727.5,687.8387182119842,0.0,0.25,0.426025347,4.016227856417628,0.0,0.7799999713897705,-1.8700000047683716,84.5,0.0621337890625,0.21240234375,0.82391357421875,35.5099983215332,0.0,208.0,-1.3936309814453125,-2.3347930908203125,Closing,0.0,0.0,-189.0,0.0,0.0,0.0,0.0,0.0,
3.8578019999999995,0.0,0.0,65102.0,0.0,-1882.5,-1268.4457055845035,0.0,0.375,1.080322155,0.12585458795995616,0.0,-57498.0,0.25,885.0,797.8818908985816,0.0,7.5,1.37939439,0.20271363561567463,0.0,56842.0,1.0,-1680.0,-1268.4457055845035,0.0,0.125,3.08837859,4.814337476751008,0.0,-33371.0,5.25,562.5,797.8818908985816,0.0,7.75,0.740966721,4.755522003359842,0.0,1.4700000286102295,-1.8300000429153442,100.11000061035156,-0.07611083984375,0.14349365234375,0.92498779296875,35.5099983215332,0.0,125.0,-1.3672332763671875,-2.3525238037109375,Closing,0.0,0.0,-189.0,0.0,0.0,0.0,0.0,0.0,
3.912571,0.0,0.0,64807.0,0.0,-1792.5,-1011.9684720039367,0.0,0.375,1.01318349,4.932250999999998,0.0,-57498.0,0.625,862.5,1011.9684720039367,0.0,1.125,0.911865141,4.963769999999998,0.0,56842.0,0.875,-1545.0,-1011.9684720039367,0.0,0.125,3.14941374,0.01,0.0,-33371.0,8.5,525.0,1011.9684720039367,0.0,0.875,1.231689327,0.01,0.0,1.8300000429153442,-2.390000104904175,106.0199966430664,-0.20062255859375,0.27734375,0.95208740234375,35.4900016784668,0.0,281.0,-1.3478546142578125,-2.3612823486328125,Closing,0.0,0.0,-189.0,0.0,0.0,0.0,0.0,0.0,
3.9744339999999974,0.0,0.0,64807.0,0.0,-1582.5,-1011.9684720039367,0.0,0.375,0.877685457,4.932250999999998,0.0,-57361.0,1.0,832.5,1011.9684720039367,0.0,0.5,0.534667914,4.963769999999998,0.0,56611.0,0.375,-1447.5,-1011.9684720039367,0.0,0.25,3.2751461490000002,0.01,0.0,-33284.0,11.125,547.5,1011.9684720039367,0.0,0.625,1.593017415,0.01,0.0,2.1600000858306885,-2.640000104904175,109.94000244140625,-0.12841796875,0.08612060546875,0.7520751953125,35.4900016784668,0.0,86.0,-1.323638916015625,-2.3695526123046875,Closing,0.0,0.0,-189.0,0.0,0.0,0.0,0.0,0.0,
4.059458000000002,0.0,0.0,64578.0,0.0,-1320.0,-1011.9684720039367,0.0,0.375,0.794677653,4.932250999999998,0.0,-57361.0,1.5,877.5,1011.9684720039367,0.0,0.0,0.346679652,4.963769999999998,0.0,56611.0,0.375,-1372.5,-1011.9684720039367,0.0,0.125,3.35693325,0.01,0.0,-33284.0,10.375,682.5,1011.9684720039367,0.0,0.625,1.799316222,0.01,0.0,2.2100000381469727,-2.5399999618530273,111.88999938964844,0.06439208984375,0.1181640625,1.02386474609375,35.4900016784668,0.0,31.0,-1.29046630859375,-2.379974365234375,Closing,0.0,0.0,-189.0,0.0,0.0,0.0,0.0,0.0,
4.124679999999997,0.0,0.0,64412.0,0.0,-1050.0,-1011.9684720039367,0.0,0.125,0.7531737510000001,4.932250999999998,0.0,-57218.0,1.25,907.5,1011.9684720039367,0.0,0.0,0.29785153200000003,4.963769999999998,0.0,56413.0,1.5,-1177.5,-1011.9684720039367,0.0,0.0,3.387450825,0.01,0.0,-33149.0,8.25,892.5,1011.9684720039367,0.0,0.25,1.8469236390000001,0.01,0.0,2.240000009536743,-2.2699999809265137,111.69999694824219,0.14141845703125,0.045166015625,1.10479736328125,35.4900016784668,0.0,-66.0,-1.27734375,-2.390045166015625,Closing,0.0,0.0,-189.0,0.0,0.0,0.0,0.0,0.0,
4.1901550000000025,0.0,0.0,64412.0,0.125,-870.0,-1011.9684720039367,0.0,0.25,0.7507323450000001,4.932250999999998,0.0,-57218.0,0.875,990.0,1011.9684720039367,0.0,0.25,0.302734344,4.963769999999998,0.0,56413.0,3.75,-862.5,-1011.9684720039367,0.0,0.125,3.402099261,0.01,0.0,-33149.0,6.375,1027.5,1011.9684720039367,0.0,0.25,1.7333982600000002,0.01,0.0,2.240000009536743,-1.940000057220459,110.18000030517578,0.01483154296875,0.03851318359375,1.07012939453125,35.4900016784668,0.0,-20.0,-1.277862548828125,-2.405364990234375,Closing,0.0,0.0,-189.0,0.0,0.0,0.0,0.0,0.0,
4.235577000000001,0.0,0.0,64282.0,0.375,-810.0,-1011.9684720039367,0.0,0.25,0.7250975820000001,4.932250999999998,-0.003662108999999525,-57057.0,0.75,1005.0,1011.9684720039367,0.0,0.25,0.34179684,4.963769999999998,0.0,56293.0,5.25,-742.5,-1011.9684720039367,0.0,0.125,3.406982073,0.01,0.0,-32974.0,5.125,1095.0,1011.9684720039367,0.0,0.25,1.640624832,0.01,0.0,2.130000114440918,-1.899999976158142,109.11000061035156,-0.0888671875,-0.01763916015625,1.01348876953125,35.4900016784668,0.0,-34.0,-1.2780914306640625,-2.415191650390625,Closing,0.0,0.0,-189.0,0.0,0.0,0.0,0.0,0.0,
4.287910999999997,0.0,0.0,64282.0,0.375,-817.5,-1011.9684720039367,0.0,0.25,0.7641600780000001,4.932250999999998,0.009765623999999917,-57057.0,0.75,982.5,1011.9684720039367,0.0,0.25,0.404052693,4.963769999999998,0.0,56293.0,6.5,-765.0,-1011.9684720039367,0.0,0.125,3.4143062910000004,0.01,0.0,-32974.0,4.875,1095.0,1011.9684720039367,0.0,0.25,1.5869139,0.01,0.0,2.0299999713897705,-1.9299999475479126,108.27999877929688,-0.02191162109375,-0.12591552734375,0.99530029296875,35.4900016784668,0.0,-156.0,-1.2794036865234375,-2.4274749755859375,Closing,0.0,0.0,-189.0,0.0,0.0,0.0,0.0,0.0,
4.340388000000003,0.0,0.0,64282.0,0.75,-892.5,-1170.7086288928986,0.0,0.25,0.782470623,4.932250999999998,0.004882811999999959,-56902.0,1.375,952.5,1170.7086288928986,0.0,0.25,0.456542922,4.963769999999998,0.0,56159.0,6.875,-825.0,-1170.7086288928986,0.0,0.125,3.40576137,0.01,0.0,-32809.0,6.5,1020.0,1170.7086288928986,0.0,0.125,1.5551756220000001,0.01,0.0,1.9700000286102295,-1.9500000476837158,108.01000213623047,-0.04718017578125,0.02020263671875,1.1624755859375,35.4900016784668,0.0,-16.0,-1.2815399169921875,-2.436004638671875,Closing,0.0,0.0,-189.0,0.0,0.0,0.0,0.0,0.0,
4.399954000000002,0.0,0.0,64137.0,1.375,-907.5,-1210.3937244415283,0.0,0.25,0.784912029,4.932250999999998,0.0,-56902.0,2.5,1020.0,1210.3937244415283,0.0,0.25,0.495605418,4.963769999999998,0.05004882299999913,56159.0,8.25,-855.0,-1210.3937244415283,0.0,0.125,3.40576137,0.01,0.0,-32809.0,8.25,967.5,1210.3937244415283,0.0,0.25,1.5527342160000002,0.01,0.0,1.8300000429153442,-2.0899999141693115,107.88999938964844,-0.11541748046875,0.0103759765625,1.039306640625,35.5099983215332,0.0,2.0,-1.2853546142578125,-2.4464874267578125,Closing,0.0,0.0,-189.0,0.0,0.0,0.0,0.0,0.0,
4.447929,0.0,0.0,64137.0,1.625,-952.5,-1210.3937244415283,0.0,0.25,0.798339762,4.932250999999998,0.0,-56737.0,2.875,1020.0,1210.3937244415283,0.0,0.0,0.505371042,4.963769999999998,0.0,56005.0,8.625,-945.0,-1210.3937244415283,0.0,0.125,3.400878558,0.01,0.0,-32653.0,9.125,982.5,1210.3937244415283,0.0,0.25,1.5783689790000002,0.01,0.0,1.600000023841858,-2.240000009536743,107.87999725341797,-0.1468505859375,-0.05377197265625,0.783203125,35.5099983215332,0.0,-36.0,-1.2918243408203125,-2.4576568603515625,Closing,0.0,0.0,-189.0,0.0,0.0,0.0,0.0,0.0,
4.509886999999999,0.0,0.0,63980.0,2.0,-997.5,-1210.3937244415283,0.0,0.125,0.794677653,4.932250999999998,0.0,-56737.0,3.375,1027.5,1210.3937244415283,0.0,0.0,0.5041503390000001,4.963769999999998,0.0,56005.0,7.875,-1065.0,-1210.3937244415283,0.0,0.125,3.402099261,0.01,0.0,-32653.0,9.125,1020.0,1210.3937244415283,0.0,0.25,1.5869139,0.01,0.0,1.600000023841858,-2.319999933242798,107.87999725341797,-0.20263671875,-0.02520751953125,1.24591064453125,35.5099983215332,0.0,-10.0,-1.2956695556640625,-2.4636993408203125,Closing,0.0,0.0,-189.0,0.0,0.0,0.0,0.0,0.0,
4.5674540000000015,0.0,0.0,63980.0,1.875,-1027.5,-1210.3937244415283,0.0,0.125,0.8032225740000001,4.932250999999998,0.0,-56563.0,3.375,1065.0,1210.3937244415283,0.0,0.0,0.505371042,4.963769999999998,0.0,55822.0,7.625,-1102.5,-1210.3937244415283,0.0,0.125,3.399657855,0.01,0.0,-32478.0,8.875,1087.5,1210.3937244415283,0.0,0.25,1.591796712,0.01,0.0,1.5299999713897705,-2.509999990463257,107.8499984741211,-0.202392578125,0.100830078125,1.3314208984375,35.5099983215332,0.0,105.0,-1.301239013671875,-2.470458984375,Closing,0.0,0.0,-189.0,0.0,0.0,0.0,0.0,0.0,
4.614227999999999,0.0,0.0,63809.0,1.625,-1080.0,-1210.3937244415283,0.0,0.125,0.8032225740000001,4.932250999999998,0.0,-56563.0,3.0,1117.5,1210.3937244415283,0.0,0.0,0.5041503390000001,4.963769999999998,0.0,55822.0,6.875,-1162.5,-1210.3937244415283,0.0,0.125,3.400878558,0.01,0.0,-32478.0,8.25,1147.5,1210.3937244415283,0.0,0.25,1.591796712,0.01,0.0,1.4600000381469727,-2.5299999713897705,107.83999633789062,-0.28289794921875,-0.018310546875,1.33209228515625,35.5099983215332,0.0,18.0,-1.3054046630859375,-2.4764404296875,Closing,0.0,0.0,-189.0,0.0,0.0,0.0,0.0,0.0,
4.674350000000002,0.0,0.0,63809.0,1.625,-1117.5,-1210.3937244415283,0.0,0.125,0.808105386,4.932250999999998,0.0,-56373.0,2.625,1162.5,1210.3937244415283,0.0,0.0,0.505371042,4.963769999999998,0.0,55629.0,6.25,-1207.5,-1210.3937244415283,0.0,0.125,3.402099261,0.01,0.0,-32284.0,7.625,1207.5,1210.3937244415283,0.0,0.25,1.596679524,0.01,0.0,1.399999976158142,-2.4600000381469727,107.81999969482422,-0.10247802734375,0.02264404296875,1.02178955078125,35.5099983215332,0.0,15.0,-1.3061065673828125,-2.4812164306640625,Closing,0.0,0.0,-189.0,0.0,0.0,0.0,0.0,0.0,
4.745176000000003,0.0,0.0,63623.0,1.25,-1170.0,-1230.236234664917,0.0,0.125,0.809326089,4.932250999999998,0.0,-56373.0,2.5,1192.5,1230.236234664917,0.0,0.0,0.505371042,4.963769999999998,0.0,55629.0,6.125,-1222.5,-1230.236234664917,0.0,0.125,3.402099261,0.01,0.0,-32284.0,7.375,1230.0,1230.236234664917,0.0,0.25,1.591796712,0.01,0.0,1.3300000429153442,-2.3499999046325684,107.79000091552734,-0.04083251953125,-0.09161376953125,0.64971923828125,35.5099983215332,0.0,-97.0,-1.3077850341796875,-2.4854736328125,Closing,0.0,0.0,-189.0,0.0,0.0,0.0,0.0,0.0,
4.805174000000003,0.0,0.0,63623.0,1.25,-1192.5,-1230.236234664917,0.0,0.125,0.8032225740000001,4.932250999999998,0.0,-56179.0,2.375,1200.0,1230.236234664917,0.0,0.0,0.505371042,4.963769999999998,0.0012207030000004337,55438.0,6.0,-1222.5,-1230.236234664917,0.0,0.125,3.394775043,0.01,0.0,-32087.0,7.375,1230.0,1230.236234664917,0.0,0.25,1.593017415,0.01,0.0,1.2100000381469727,-2.369999885559082,107.77999877929688,0.0078125,0.19171142578125,0.800048828125,35.5099983215332,0.0,153.0,-1.30908203125,-2.490753173828125,Closing,0.0,0.0,-189.0,0.0,0.0,0.0,0.0,0.0,
4.851740000000001,0.0,0.0,63428.0,1.0,-1215.0,-1230.236234664917,0.0,0.125,0.798339762,4.932250999999998,0.0,-56179.0,2.125,1230.0,1230.236234664917,0.0,0.0,0.505371042,4.963769999999998,0.0,55438.0,6.125,-1192.5,-1230.236234664917,0.0,0.125,3.399657855,0.01,0.0,-32087.0,7.375,1237.5,1230.236234664917,0.0,0.25,1.591796712,0.01,0.0,1.2899999618530273,-2.5299999713897705,107.72000122070312,0.02899169921875,-0.02923583984375,1.42236328125,35.5099983215332,0.0,-86.0,-1.3099365234375,-2.4956512451171875,Closing,0.0,0.0,-189.0,0.0,0.0,0.0,0.0,0.0,
4.9074639999999965,0.0,0.0,63428.0,1.0,-1230.0,-1230.236234664917,0.0,0.125,0.7922362470000001,4.932250999999998,0.0,-56179.0,2.0,1245.0,1230.236234664917,0.0,0.0,0.513915963,4.963769999999998,0.0,55239.0,6.25,-1245.0,-1230.236234664917,0.0,0.125,3.402099261,0.01,0.0,-31887.0,7.125,1245.0,1230.236234664917,0.0,0.25,1.589355306,0.01,0.0,1.2000000476837158,-2.430000066757202,107.6500015258789,0.06072998046875,0.02630615234375,1.04534912109375,35.470001220703125,0.0,-27.0,-1.311279296875,-2.5041961669921875,Closing,0.0,0.0,-189.0,0.0,0.0,0.0,0.0,0.0,
4.977922999999999,0.0,0.0,63225.0,0.625,-1275.0,-1250.0787448883057,0.0,0.125,0.8032225740000001,4.932250999999998,0.0,-55980.0,1.75,1252.5,1250.0787448883057,0.0,0.0,0.505371042,4.963769999999998,0.0,55239.0,6.125,-1177.5,-1250.0787448883057,0.0,0.125,3.403319964,0.01,0.0,-31887.0,7.125,1252.5,1250.0787448883057,0.0,0.25,1.600341633,0.01,0.0,1.149999976158142,-2.299999952316284,107.69000244140625,0.038330078125,-0.05303955078125,1.18145751953125,35.470001220703125,0.0,-99.0,-1.3131561279296875,-2.5169219970703125,Closing,0.0,0.0,-189.0,0.0,0.0,0.0,0.0,0.0,
5.045140000000003,0.0,0.0,63225.0,0.625,-1282.5,-1269.9212551116943,0.0,0.125,0.8032225740000001,4.932250999999998,0.0,-55777.0,1.875,1260.0,1269.9212551116943,0.0,0.0,0.506591745,4.963769999999998,0.0,55044.0,6.875,-1177.5,-1269.9212551116943,0.0,0.125,3.402099261,0.01,0.0,-31681.0,7.0,1282.5,1269.9212551116943,0.0,0.25,1.591796712,0.01,0.0,1.0800000429153442,-2.2899999618530273,107.7699966430664,-0.1146240234375,0.18914794921875,1.27227783203125,35.470001220703125,0.0,176.0,-1.3146209716796875,-2.52886962890625,Closing,0.0,0.0,-189.0,0.0,0.0,0.0,0.0,0.0,
5.124193000000003,0.0,0.0,63019.0,0.625,-1290.0,-1269.9212551116943,0.0,0.125,0.8032225740000001,4.932250999999998,0.0,-55777.0,1.75,1260.0,1269.9212551116943,0.0,0.0,0.509033151,4.963769999999998,0.0,55044.0,6.25,-1312.5,-1269.9212551116943,0.0,0.125,3.397216449,0.01,0.0,-31681.0,6.875,1275.0,1269.9212551116943,0.0,0.25,1.591796712,0.01,0.0,1.0800000429153442,-2.319999933242798,107.83999633789062,-0.05999755859375,-0.17694091796875,1.17962646484375,35.470001220703125,0.0,-185.0,-1.3155059814453125,-2.542724609375,Closing,0.0,0.0,-189.0,0.0,0.0,0.0,0.0,0.0,
5.192151000000002,0.0,0.0,62809.0,0.625,-1305.0,-1269.9212551116943,0.0,0.125,0.8032225740000001,4.932250999999998,0.0,-55569.0,1.5,1297.5,1269.9212551116943,0.0,0.0,0.505371042,4.963769999999998,0.0,54826.0,5.25,-1350.0,-1269.9212551116943,0.0,0.125,3.397216449,0.01,0.0,-31475.0,6.875,1290.0,1269.9212551116943,0.0,0.25,1.5832517910000001,0.01,0.0,1.0399999618530273,-2.2899999618530273,107.87999725341797,-0.109619140625,0.02764892578125,1.16522216796875,35.470001220703125,0.0,25.0,-1.318603515625,-2.559356689453125,Closing,0.0,0.0,-189.0,0.0,0.0,0.0,0.0,0.0,
5.242183999999997,0.0,0.0,62809.0,0.375,-1312.5,-1269.9212551116943,0.0,0.125,0.8032225740000001,4.932250999999998,0.0,-55569.0,1.375,1305.0,1269.9212551116943,0.0,0.0,0.505371042,4.963769999999998,0.0,54826.0,5.0,-1350.0,-1269.9212551116943,0.0,0.125,3.395995746,0.01,0.0,-31475.0,6.75,1290.0,1269.9212551116943,0.0,0.25,1.591796712,0.01,0.0,0.9700000286102295,-2.109999895095825,107.88999938964844,-0.03118896484375,0.0753173828125,0.7100830078125,35.470001220703125,0.0,61.0,-1.3208770751953125,-2.5689239501953125,Closing,0.0,0.0,-189.0,0.0,0.0,0.0,0.0,0.0,
5.291980999999996,0.0,0.0,62809.0,0.375,-1327.5,-1269.9212551116943,0.0,0.125,0.8032225740000001,4.932250999999998,0.0,-55363.0,1.375,1290.0,1269.9212551116943,0.0,0.0,0.505371042,4.963769999999998,0.0,54610.0,4.5,-1357.5,-1269.9212551116943,0.0,0.125,3.397216449,0.01,0.0,-31267.0,6.5,1297.5,1269.9212551116943,0.0,0.25,1.591796712,0.01,0.0,0.9399999976158142,-2.2799999713897705,107.94999694824219,-0.01763916015625,0.1209716796875,1.42742919921875,35.470001220703125,0.0,80.0,-1.32305908203125,-2.5792999267578125,Closing,0.0,0.0,-189.0,0.0,0.0,0.0,0.0,0.0,
5.345984999999997,0.0,0.0,62597.0,0.0,-1297.5,0.0,0.0,0.125,0.808105386,4.932250999999998,0.0,-55363.0,0.25,1245.0,0.0,0.0,0.0,0.505371042,4.963769999999998,0.0,54610.0,0.75,-1305.0,0.0,0.0,0.125,3.387450825,0.01,0.0,-31267.0,2.0,1267.5,0.0,0.0,0.25,1.593017415,0.01,-0.0012207029999995456,0.8899999856948853,-2.119999885559082,108.11000061035156,-0.06060791015625,0.1138916015625,1.15191650390625,35.470001220703125,0.0,96.0,-1.329620361328125,-2.597930908203125,Closing,0.0,0.0,-189.0,0.0,0.0,0.0,0.0,0.0,
5.408837999999999,0.0,0.0,62597.0,0.0,-1215.0,0.0,0.0,0.125,0.8020018710000001,4.932250999999998,0.004882811999999959,-55186.0,0.0,1132.5,0.0,0.0,0.0,0.510253854,4.963769999999998,0.0,54438.0,0.0,-1087.5,0.0,0.0,0.125,3.347167626,0.01,-0.008544920999999928,-31091.0,0.125,1042.5,0.0,0.0,0.25,1.591796712,0.01,0.0024414059999999793,0.8799999952316284,-1.559999942779541,108.27999877929688,0.10858154296875,0.0299072265625,0.9432373046875,35.459999084472656,0.0,-27.0,-1.3356781005859375,-2.61083984375,Closing,0.0,0.0,-189.0,0.0,0.0,0.0,0.0,0.0,
5.466505999999997,0.0,0.0,62407.0,0.0,-1162.5,0.0,0.0,0.125,0.799560465,4.932250999999998,-0.004882811999999959,-55186.0,0.0,1050.0,0.0,0.0,0.0,0.510253854,4.963769999999998,0.003662108999999525,54438.0,0.0,-975.0,0.0,0.0,0.125,3.352050438,0.01,4.906220316000001,-31091.0,0.125,1035.0,0.0,0.0,0.25,1.591796712,0.01,-0.0024414059999999793,0.8600000143051147,-1.2599999904632568,108.33999633789062,0.36492919921875,-0.14337158203125,1.06622314453125,35.459999084472656,0.0,-273.0,-1.3434295654296875,-2.6312713623046875,Closing,0.0,0.0,-189.0,0.0,0.0,0.0,0.0,0.0,
5.533274999999998,0.0,0.0,62407.0,0.0,-1117.5,0.0,0.0,0.125,0.79345695,4.932250999999998,-0.008544921000000372,-55024.0,0.125,1005.0,0.0,0.0,0.0,0.510253854,4.963769999999998,0.0,54277.0,0.0,-1005.0,0.0,0.0,0.0,3.353271141,0.01,-0.0012207030000004337,-30932.0,0.125,982.5,0.0,0.0,0.25,1.591796712,0.01,0.0,0.8199999928474426,-0.7900000214576721,108.52999877929688,0.20440673828125,-0.10455322265625,1.017578125,35.459999084472656,0.0,-182.0,-1.3596038818359375,-2.667327880859375,Closing,0.0,0.0,-189.0,0.0,0.0,0.0,0.0,0.0,
5.6588400000000005,0.0,0.0,62245.0,0.0,-862.5,0.0,0.0,0.125,0.794677653,4.932250999999998,0.0,-54889.0,0.0,862.5,0.0,0.0,0.0,0.510253854,4.963769999999998,0.0,54140.0,0.0,-870.0,0.0,0.0,0.0,3.352050438,0.01,0.0,-30807.0,0.125,780.0,0.0,0.0,0.25,1.591796712,0.01,0.0,0.6299999952316284,-0.23000000417232513,108.7300033569336,0.05364990234375,-0.0191650390625,1.23773193359375,35.459999084472656,0.0,-49.0,-1.38641357421875,-2.715576171875,Closing,0.0,0.0,-189.0,0.0,0.0,0.0,0.0,0.0,
5.794128000000001,0.0,0.0,62037.0,0.875,-562.5,-363.77954185009,0.0,1.625,1.1108397300000001,0.5498168668524864,0.0,-54856.0,10.0,255.0,-363.77954185009,0.0,2.0,0.36132808800000005,4.41043958977222,0.0,54048.0,0.625,-502.5,-363.77954185009,0.0,1.5,3.1042477290000003,4.389674732977291,0.0,-30725.0,6.875,442.5,-363.77954185009,0.0,1.0,1.9714353450000002,0.552687206278561,0.0,0.4699999988079071,1.4199999570846558,109.2300033569336,0.245849609375,-0.258544921875,1.4449462890625,35.459999084472656,0.0,-324.0,-1.431060791015625,-2.795166015625,Closing,0.0,0.0,-189.0,0.0,0.0,0.0,0.0,0.0,
5.926208000000003,0.0,0.0,62006.0,0.0,-247.5,0.0,0.0,0.5,1.490478363,0.5498168668524864,0.0,-54846.0,0.0,67.5,0.0,0.0,0.25,4.897460436,4.41043958977222,0.0,54028.0,0.0,-82.5,0.0,0.0,0.375,2.779540731,4.389674732977291,0.0,-30719.0,0.125,7.5,0.0,0.0,0.625,2.3266599180000003,0.552687206278561,0.0,0.6000000238418579,2.049999952316284,110.37000274658203,-0.0794677734375,0.0113525390625,1.19720458984375,35.459999084472656,0.0,41.0,-1.4905853271484375,-2.84027099609375,Closing,0.0,0.0,-189.0,0.0,0.0,0.0,0.0,0.0,
6.058988000000001,0.0,0.0,62003.0,0.0,-15.0,0.0,0.0,0.5,1.514892423,0.5498168668524864,0.0,-54846.0,0.125,0.0,0.0,0.0,0.25,4.801024899000001,4.41043958977222,0.0,54024.0,0.0,-22.5,0.0,0.0,0.0,2.711181363,4.389674732977291,0.0,-30719.0,0.0,0.0,0.0,0.0,0.25,2.341308354,0.552687206278561,0.0,0.44999998807907104,1.7100000381469727,110.83999633789062,0.00726318359375,0.011962890625,0.95562744140625,35.459999084472656,0.0,11.0,-1.5419158935546875,-2.8348236083984375,Closing,0.0,0.0,-189.0,0.0,0.0,0.0,0.0,0.0,
6.192547000000002,0.0,0.0,62002.0,0.0,0.0,0.0,0.0,0.375,1.413574074,0.5498168668524864,0.0,-54846.0,0.0,0.0,0.0,0.0,0.25,4.835204583,4.41043958977222,0.0,54023.0,0.0,0.0,0.0,0.0,0.0,2.7368161260000003,4.389674732977291,0.0,-30719.0,0.125,0.0,0.0,0.0,0.25,2.2155759450000003,0.552687206278561,0.0,0.5099999904632568,1.409999966621399,110.77999877929688,-0.02130126953125,-0.01611328125,1.07855224609375,35.459999084472656,0.0,-7.0,-1.541290283203125,-2.82257080078125,Closing,0.0,0.0,-189.0,0.0,0.0,0.0,0.0,0.0,
6.235255999999998,0.0,0.0,62002.0,0.0,0.0,0.0,0.0,0.375,1.36718736,0.5498168668524864,0.0,-54846.0,0.125,0.0,0.0,0.0,0.25,4.847411613,4.41043958977222,0.042724604999999194,54023.0,0.0,0.0,0.0,0.0,0.0,2.760009483,4.389674732977291,0.024414059999999793,-30719.0,0.125,0.0,0.0,0.0,0.25,2.16064431,0.552687206278561,0.0,0.44999998807907104,1.3700000047683716,110.73999786376953,-0.01153564453125,-0.01483154296875,1.033447265625,35.459999084472656,0.0,-8.0,-1.541290283203125,-2.8177642822265625,Closing,0.0,0.0,-189.0,0.0,0.0,0.0,0.0,0.0,
6.288088,0.0,0.0,62002.0,0.0,0.0,0.0,0.0,0.25,1.3476561120000001,0.5498168668524864,-0.04516601100000006,-54846.0,0.125,0.0,0.0,0.0,0.25,4.852294425,4.41043958977222,0.0,54023.0,0.0,0.0,0.0,0.0,0.0,2.77099581,4.389674732977291,0.0,-30719.0,0.0,0.0,0.0,0.0,0.125,2.138671656,0.552687206278561,-0.05615233800000041,0.44999998807907104,1.2599999904632568,110.63999938964844,-0.0224609375,0.0150146484375,1.044921875,35.459999084472656,0.0,22.0,-1.54119873046875,-2.80889892578125,Closing,0.0,0.0,-189.0,0.0,0.0,0.0,0.0,0.0,
6.366321,0.0,0.0,62002.0,0.0,0.0,0.0,0.0,0.125,1.3476561120000001,0.5498168668524864,-0.015869138999999866,-54846.0,0.0,0.0,0.0,0.0,0.25,4.881591297,4.41043958977222,0.013427732999999442,54023.0,0.0,0.0,0.0,0.0,0.0,2.774657919,4.389674732977291,0.009765623999999917,-30719.0,0.125,0.0,0.0,0.0,0.25,2.139892359,0.552687206278561,-0.020751950999999824,0.44999998807907104,1.1699999570846558,110.5999984741211,-0.03009033203125,-0.00177001953125,1.0185546875,35.459999084472656,0.0,8.0,-1.540863037109375,-2.802978515625,Closing,0.0,0.0,-189.0,0.0,0.0,0.0,0.0,0.0,
6.414001,0.0,0.0,62002.0,0.0,0.0,0.0,0.0,0.125,1.3476561120000001,0.5498168668524864,0.0,-54846.0,0.0,0.0,0.0,0.0,0.25,4.890136218,4.41043958977222,0.02075195100000027,54023.0,0.0,0.0,0.0,0.0,0.0,2.775878622,4.389674732977291,0.004882811999999959,-30719.0,0.125,0.0,0.0,0.0,0.25,2.138671656,0.552687206278561,0.0,0.4099999964237213,1.0800000429153442,110.58999633789062,-0.0079345703125,-0.00396728515625,1.04022216796875,35.41999816894531,0.0,-1.0,-1.540863037109375,-2.79425048828125,Closing,0.0,0.0,-189.0,0.0,0.0,0.0,0.0,0.0,
6.472742000000002,0.0,0.0,62002.0,0.375,0.0,393.75,0.0,2.5,1.4196775890000002,1.2330627500000013,0.0,-54835.0,0.5,7.5,393.75,0.0,3.0,4.890136218,3.7228275000000015,0.0,54020.0,0.375,0.0,-393.75,0.0,0.25,2.774657919,3.7053000000000016,0.0,-30721.0,0.375,0.0,-393.75,0.0,3.625,2.243652114,1.2395000000000012,0.0,0.4300000071525574,0.9900000095367432,110.58000183105469,-0.027587890625,0.00653076171875,1.01239013671875,35.41999816894531,0.0,14.0,-1.5406951904296875,-2.7823944091796875,Closing,0.0,0.0,-189.0,0.0,0.0,0.0,0.0,0.0,
6.546058999999998,0.0,0.0,62009.0,4.25,67.5,1082.8125,0.0,1.625,1.8139646580000002,1.2330627500000013,0.0,-54835.0,7.125,142.5,1082.8125,0.0,0.875,4.576415547,3.7228275000000015,0.0,54020.0,3.375,-120.0,-1082.8125,0.0,1.375,2.454833733,3.7053000000000016,0.0,-30721.0,4.75,-112.5,-1082.8125,0.0,1.25,2.666015352,1.2395000000000012,0.0,0.800000011920929,0.8199999928474426,110.41000366210938,0.06292724609375,0.0194091796875,0.9857177734375,35.41999816894531,0.0,-11.0,-1.539764404296875,-2.769989013671875,Closing,0.0,0.0,-189.0,0.0,0.0,0.0,0.0,0.0,
6.652302,0.0,0.0,62027.0,9.375,97.5,1161.5625,0.0,0.625,2.019042762,1.2330627500000013,0.0,-54803.0,17.625,240.0,1161.5625,0.0,0.5,4.197997617,3.7228275000000015,0.0,53989.0,7.5,-157.5,-1161.5625,0.0,1.375,2.1154782990000003,3.7053000000000016,0.0,-30747.0,8.375,-187.5,-1161.5625,0.0,0.625,2.8979489220000003,1.2395000000000012,0.0,1.3700000047683716,0.7900000214576721,110.5199966430664,0.02679443359375,0.3299560546875,0.94134521484375,35.41999816894531,0.0,283.0,-1.5338592529296875,-2.756378173828125,Closing,0.0,0.0,-189.0,0.0,0.0,0.0,0.0,0.0,
6.793831000000002,0.0,0.0,62100.0,18.0,555.0,1515.9374999999998,0.0,0.125,2.076415803,1.2330627500000013,0.0,-54723.0,24.25,705.0,1515.9374999999998,0.0,0.25,4.062499584,3.7228275000000015,0.0,53933.0,17.25,-517.5,-1515.9374999999998,0.0,0.0,1.9946287020000002,3.7053000000000016,0.0,-30807.0,15.25,-592.5,-1515.9374999999998,0.0,0.25,3.016357113,1.2395000000000012,0.0,3.109999895095825,0.6600000262260437,110.25,3.662109375E-4,0.33935546875,1.0113525390625,35.41999816894531,0.0,270.0,-1.4987030029296875,-2.7429351806640625,Closing,0.0,0.0,-189.0,0.0,0.0,0.0,0.0,0.0,
6.927136999999999,0.0,0.0,62226.0,0.0,735.0,0.0,0.0,0.25,2.086181427,1.2330627500000013,0.0,-54567.0,0.0,817.5,0.0,0.0,0.25,4.072265208,3.7228275000000015,0.0,53807.0,0.0,-652.5,0.0,0.0,0.125,2.056884555,3.7053000000000016,0.0,-30936.0,0.0,-682.5,0.0,0.0,0.25,2.9431149330000004,1.2395000000000012,0.0,2.6700000762939453,0.5199999809265137,109.6500015258789,-0.001708984375,-0.0435791015625,0.666748046875,35.41999816894531,0.0,-67.0,-1.4503631591796875,-2.7398529052734375,Closing,0.0,0.0,-189.0,0.0,0.0,0.0,0.0,0.0,
7.062151999999998,0.0,0.0,62348.0,0.0,660.0,0.0,0.0,0.25,2.094726348,1.2330627500000013,0.0,-54454.0,0.0,630.0,0.0,0.0,0.25,4.207763241,3.7228275000000015,0.0,53745.0,0.0,-435.0,0.0,0.0,0.125,2.1105954870000003,3.7053000000000016,0.0,-31037.0,0.0,-667.5,0.0,0.0,0.25,2.810058306,1.2395000000000012,0.0,1.909999966621399,0.36000001430511475,109.5999984741211,-0.046630859375,0.05841064453125,1.158447265625,35.41999816894531,0.0,36.0,-1.414581298828125,-2.7265167236328125,Closing,0.0,0.0,-189.0,0.0,0.0,0.0,0.0,0.0,
7.192986999999997,0.0,0.0,62435.0,0.0,480.0,0.0,0.0,0.25,2.088622833,1.2330627500000013,0.0,-54368.0,0.125,450.0,0.0,0.0,0.0,4.274901906,3.7228275000000015,0.0,53672.0,0.0,-390.0,0.0,0.0,0.0,2.1191404080000003,3.7053000000000016,0.0,-31207.0,0.125,-480.0,0.0,0.0,0.25,2.805175494,1.2395000000000012,0.0,1.1399999856948853,0.23000000417232513,109.97000122070312,-0.01031494140625,-0.21636962890625,1.0731201171875,35.41999816894531,0.0,-218.0,-1.393035888671875,-2.704559326171875,Closing,0.0,0.0,-189.0,0.0,0.0,0.0,0.0,0.0,
7.328045000000002,0.0,0.0,62496.0,0.0,255.0,0.0,0.0,0.25,2.080077912,1.2330627500000013,0.0,-54272.0,0.0,255.0,0.0,0.0,0.25,4.281005421000001,3.7228275000000015,0.0,53581.0,0.0,-255.0,0.0,0.0,0.0,2.1191404080000003,3.7053000000000016,0.0,-31245.0,0.0,-255.0,0.0,0.0,0.25,2.810058306,1.2395000000000012,0.0,0.03999999910593033,0.18000000715255737,110.19000244140625,0.02618408203125,-0.208984375,0.92340087890625,35.41999816894531,0.0,-204.0,-1.387054443359375,-2.6714935302734375,Closing,0.0,0.0,-189.0,0.0,0.0,0.0,0.0,0.0,
7.459287999999997,0.0,0.0,62521.0,23.75,-270.0,-2520.0,0.0,0.25,2.088622833,1.2330627499999984,0.0,-54306.0,53.5,-172.5,-2520.0,0.0,0.25,4.267577688,3.7228274999999984,0.0,53583.0,29.375,0.0,2520.0,0.0,0.0,2.1203611110000002,3.7052999999999985,0.0,-31224.0,28.875,105.0,2520.0,0.0,0.25,2.814941118,1.2394999999999985,0.0,-2.0399999618530273,-0.009999999776482582,110.37000274658203,-0.02484130859375,-0.4193115234375,1.14990234375,35.400001525878906,0.0,-345.0,-1.404815673828125,-2.6339111328125,Closing,0.0,0.0,-189.0,0.0,0.0,0.0,0.0,0.0,
7.593431000000001,0.0,0.0,62355.0,0.0,-577.5,0.0,0.0,0.25,2.08740213,1.2330627499999984,0.0,-54397.0,0.0,-570.0,0.0,0.0,0.25,4.259032767,3.7228274999999984,0.0,53641.0,0.0,412.5,0.0,0.0,0.0,2.138671656,3.7052999999999985,0.0,-31135.0,0.0,592.5,0.0,0.0,0.25,2.877196971,1.2394999999999985,0.0,-2.490000009536743,0.07000000029802322,110.18000030517578,-0.03076171875,-0.06890869140625,0.896728515625,35.400001525878906,0.0,-17.0,-1.4596099853515625,-2.575347900390625,Closing,0.0,0.0,-189.0,0.0,0.0,0.0,0.0,0.0,
7.6448719999999994,0.0,0.0,62355.0,0.0,-622.5,0.0,0.0,0.25,2.08740213,1.2330627499999984,0.0,-54397.0,0.125,-637.5,0.0,0.0,0.25,4.241942925,3.7228274999999984,-0.01586913900000031,53641.0,0.0,502.5,0.0,0.0,0.125,2.14843728,3.7052999999999985,0.01831054500000029,-31135.0,0.0,645.0,0.0,0.0,0.25,2.885741892,1.2394999999999985,0.06225585299999992,-2.200000047683716,0.0,110.05999755859375,-0.05975341796875,-0.0318603515625,1.14501953125,35.400001525878906,0.0,31.0,-1.477691650390625,-2.55218505859375,Closing,0.0,0.0,-189.0,0.0,0.0,0.0,0.0,0.0,
7.7841989999999965,0.0,0.0,62252.0,0.0,-540.0,0.0,0.0,0.25,2.08740213,1.2330627499999984,0.0,-54504.0,0.125,-525.0,0.0,0.0,0.125,4.250487846,3.7228274999999984,0.0,53747.0,0.0,532.5,0.0,0.0,0.125,2.14843728,3.7052999999999985,0.0,-31024.0,0.125,562.5,0.0,0.0,0.25,2.9003903280000003,1.2394999999999985,0.0,-1.3600000143051147,-0.11999999731779099,109.86000061035156,0.0400390625,0.05963134765625,1.05322265625,35.400001525878906,0.0,65.0,-1.506195068359375,-2.50341796875,Closing,0.0,0.0,-189.0,0.0,0.0,0.0,0.0,0.0,
7.8619489999999965,0.0,0.0,62174.0,0.0,-472.5,0.0,0.0,0.25,2.088622833,1.2330627499999984,0.0,-54590.0,0.125,-480.0,0.0,0.0,0.125,4.250487846,3.7228274999999984,0.0,53831.0,0.0,480.0,0.0,0.0,0.125,2.145995874,3.7052999999999985,0.0,-30939.0,0.125,442.5,0.0,0.0,0.25,2.9052731400000003,1.2394999999999985,0.0,-0.9900000095367432,-0.20000000298023224,109.91000366210938,-0.004638671875,0.1370849609375,0.952880859375,35.400001525878906,0.0,144.0,-1.515899658203125,-2.48822021484375,Closing,0.0,0.0,-189.0,0.0,0.0,0.0,0.0,0.0,
7.9953049999999966,0.0,0.0,62121.0,0.0,-300.0,0.0,0.0,0.25,2.08740213,1.2330627499999984,0.0,-54647.0,0.125,-300.0,0.0,0.0,0.125,4.245605034,3.7228274999999984,0.0,53887.0,0.0,277.5,0.0,0.0,0.125,2.149657983,3.7052999999999985,0.0,-30884.0,0.0,240.0,0.0,0.0,0.25,2.888183298,1.2394999999999985,0.0,-0.10000000149011612,-0.3700000047683716,109.81999969482422,-0.02593994140625,0.11798095703125,1.0428466796875,35.38999938964844,0.0,119.0,-1.5220184326171875,-2.48968505859375,Closing,0.0,0.0,-189.0,0.0,0.0,0.0,0.0,0.0,
8.129261999999999,0.0,0.0,62095.0,0.0,-127.5,0.0,0.0,0.25,2.089843536,1.2330627499999984,0.0,-54678.0,0.125,-105.0,0.0,0.0,0.125,4.245605034,3.7228274999999984,0.0,53919.0,0.0,112.5,0.0,0.0,0.125,2.149657983,3.7052999999999985,0.0,-30852.0,0.0,90.0,0.0,0.0,0.25,2.886962595,1.2394999999999985,0.0,0.3499999940395355,-0.4099999964237213,109.79000091552734,-0.0191650390625,0.1005859375,1.009765625,35.38999938964844,0.0,92.0,-1.516326904296875,-2.490692138671875,Closing,0.0,0.0,-189.0,0.0,0.0,0.0,0.0,0.0,
8.262842000000001,0.0,0.0,62091.0,0.875,22.5,436.53545022010803,0.0,6.375,2.396239989,2.4661254999999977,0.0,-54685.0,2.125,30.0,436.53545022010803,0.0,8.25,4.4506831380000005,4.963769999999998,0.0,53927.0,0.875,-37.5,-436.53545022010803,0.0,5.875,2.64892551,0.01,0.0,-30843.0,0.75,-7.5,-436.53545022010803,0.0,7.125,3.177489909,2.4790000000000023,0.0,0.6700000166893005,-0.4699999988079071,109.72000122070312,-0.03179931640625,0.19793701171875,0.96240234375,35.38999938964844,0.0,183.0,-1.5026702880859375,-2.4914703369140625,Closing,0.0,0.0,-189.0,0.0,0.0,0.0,0.0,0.0,
8.395240999999999,0.0,0.0,62100.0,2.25,67.5,535.7480388879776,0.0,1.25,3.2165524050000003,2.4661254999999977,0.0,-54673.0,4.125,105.0,535.7480388879776,0.0,1.25,0.471191358,4.963769999999998,0.0,53910.0,1.5,-187.5,-535.7480388879776,0.0,0.25,3.507079719,0.01,0.0,-30888.0,1.625,-210.0,-535.7480388879776,0.0,1.25,4.106444892,2.4790000000000023,0.0,0.6800000071525574,-0.9300000071525574,109.73999786376953,-0.12255859375,-0.04742431640625,0.9229736328125,35.38999938964844,0.0,-18.0,-1.478271484375,-2.4895172119140625,Closing,0.0,0.0,-189.0,0.0,0.0,0.0,0.0,0.0,
8.528049999999999,0.0,0.0,62119.0,3.625,142.5,555.5905491113663,0.0,0.25,3.5729976810000004,2.4661254999999977,0.0,-54607.0,6.0,240.0,555.5905491113663,0.0,0.0,0.9704588850000001,4.963769999999998,0.0,53838.0,2.75,-217.5,-555.5905491113663,0.0,0.125,3.6206050980000004,0.01,0.0,-30940.0,2.0,-330.0,-555.5905491113663,0.0,0.125,4.8730463760000005,2.4790000000000023,0.0,-0.2199999988079071,-1.4700000286102295,109.33999633789062,-0.0888671875,-0.11102294921875,1.04925537109375,35.380001068115234,0.0,-80.0,-1.457489013671875,-2.4715423583984375,Closing,0.0,0.0,-189.0,0.0,0.0,0.0,0.0,0.0,
8.659185999999998,0.0,0.0,62157.0,2.75,390.0,555.5905491113663,0.0,0.625,3.5363765910000002,2.4661254999999977,0.0,-54545.0,5.375,375.0,555.5905491113663,0.0,0.5,0.8007811680000001,4.963769999999998,0.0,53778.0,2.75,-360.0,-555.5905491113663,0.0,0.25,3.459472302,0.01,0.0,-30986.0,2.625,-285.0,-555.5905491113663,0.0,6.25,4.786376463,2.4790000000000023,0.0,-0.2199999988079071,-1.440000057220459,110.1500015258789,0.00634765625,0.0341796875,1.02801513671875,35.380001068115234,0.0,24.0,-1.44659423828125,-2.4512786865234375,Closing,0.0,0.0,-189.0,0.0,0.0,0.0,0.0,0.0,
8.793393999999996,0.0,0.0,62277.0,3.875,330.0,555.5905491113663,0.0,0.375,3.289794585,2.4661254999999977,0.0,-54481.0,6.125,397.5,555.5905491113663,0.0,0.25,0.44799800100000003,4.963769999999998,0.0,53753.0,5.0,-165.0,-555.5905491113663,0.0,0.25,3.3776852010000002,0.01,0.0,-31033.0,3.75,-330.0,-555.5905491113663,0.0,0.875,3.9855952950000004,2.4790000000000023,0.0,0.4300000071525574,-1.6399999856948853,109.80000305175781,-0.0838623046875,0.14239501953125,1.01898193359375,35.380001068115234,0.0,145.0,-1.428253173828125,-2.4326019287109375,Closing,0.0,0.0,-189.0,0.0,0.0,0.0,0.0,0.0,
8.927886999999998,0.0,0.0,62355.0,4.375,427.5,555.5905491113663,0.0,0.125,3.2080074840000004,2.4661254999999977,0.0,-54404.0,5.75,480.0,555.5905491113663,0.0,0.25,0.312499968,4.963769999999998,0.0,53698.0,5.875,-435.0,-555.5905491113663,0.0,0.125,3.3789059040000002,0.01,0.0,-31100.0,3.5,-420.0,-555.5905491113663,0.0,0.25,3.920898036,2.4790000000000023,0.0,0.6499999761581421,-2.180000066757202,109.94000244140625,-0.00238037109375,0.01556396484375,1.05889892578125,35.380001068115234,0.0,-9.0,-1.3935546875,-2.40460205078125,Closing,0.0,0.0,-189.0,0.0,0.0,0.0,0.0,0.0,
9.060982,0.0,0.0,62451.0,3.75,607.5,677.9527455568314,0.0,2.75,3.355712547,3.015942366852486,0.0,-54334.0,1.125,337.5,-677.9527455568314,0.0,0.875,0.22094724300000002,4.41043958977222,0.0,53609.0,5.375,-555.0,-677.9527455568314,0.0,2.375,3.081054372,4.389674732977291,0.0,-31174.0,0.875,-397.5,677.9527455568314,0.0,3.25,4.179687072,3.031687206278561,0.0,0.46000000834465027,-1.8799999952316284,110.30000305175781,0.02996826171875,-0.09881591796875,0.9658203125,35.400001525878906,0.0,-121.0,-1.363616943359375,-2.37933349609375,Closing,0.0,0.0,-189.0,0.0,0.0,0.0,0.0,0.0,
9.193416999999998,0.0,0.0,62512.0,0.0,300.0,0.0,0.0,0.5,3.980712483,3.015942366852486,0.0,-54289.0,0.0,255.0,0.0,0.0,0.25,4.8657221580000005,4.41043958977222,0.0,53535.0,0.0,-165.0,0.0,0.0,0.375,2.6916501150000003,4.389674732977291,0.0,-31228.0,0.125,-187.5,0.0,0.0,0.75,0.034179684,3.031687206278561,0.0,0.1899999976158142,0.5699999928474426,112.79000091552734,0.2308349609375,0.07891845703125,0.8343505859375,35.400001525878906,0.0,-16.0,-1.3443450927734375,-2.370697021484375,Closing,0.0,0.0,-189.0,0.0,0.0,0.0,0.0,0.0,
9.324859999999997,0.0,0.0,62516.0,0.0,7.5,0.0,0.0,1.25,4.129638249,3.015942366852486,0.0,-54292.0,0.0,-112.5,0.0,0.0,0.25,4.716796392,4.41043958977222,0.0,53536.0,0.0,0.0,0.0,0.0,0.25,2.5903317660000003,4.389674732977291,-0.3991698810000006,-31239.0,0.125,0.0,0.0,0.0,2.125,0.10375975500000001,3.031687206278561,0.0,0.5,-0.5099999904632568,113.41999816894531,-0.136474609375,-0.0062255859375,1.181884765625,35.400001525878906,0.0,34.0,-1.3340606689453125,-2.3774566650390625,Closing,0.0,0.0,-189.0,0.0,0.0,0.0,0.0,0.0,
9.393418000000002,0.0,0.0,62516.0,0.0,0.0,0.0,0.0,0.375,3.9965816220000003,3.015942366852486,0.030517574999999297,-54297.0,0.0,-15.0,0.0,0.0,0.25,4.744872561,4.41043958977222,-0.0866699130000006,53533.0,0.0,-15.0,0.0,0.0,0.125,2.6379391830000003,4.389674732977291,-0.07812499199999934,-31237.0,0.125,7.5,0.0,0.0,0.5,4.8730463760000005,3.031687206278561,0.06835936799999986,0.38999998569488525,-0.05999999865889549,113.29000091552734,0.0745849609375,-0.0511474609375,1.06378173828125,35.400001525878906,0.0,-83.0,-1.3256378173828125,-2.379241943359375,Closing,0.0,0.0,-189.0,0.0,0.0,0.0,0.0,0.0,
9.439827000000001,0.0,0.0,62516.0,0.0,0.0,0.0,0.0,0.375,3.91845663,3.015942366852486,0.0,-54297.0,0.125,0.0,0.0,0.0,0.25,4.755858888000001,4.41043958977222,0.025634763000000227,53533.0,0.0,-15.0,0.0,0.0,0.125,2.6965329270000002,4.389674732977291,0.04516601100000006,-31237.0,0.125,15.0,0.0,0.0,0.5,4.7656245120000005,3.031687206278561,-0.19725829999999966,0.3199999928474426,-0.05999999865889549,113.05999755859375,-0.09405517578125,0.02630615234375,1.04901123046875,35.400001525878906,0.0,55.0,-1.322021484375,-2.3811492919921875,Closing,0.0,0.0,-189.0,0.0,0.0,0.0,0.0,0.0,
9.540304999999996,0.0,0.0,62516.0,0.0,0.0,0.0,0.0,0.25,3.822021093,3.015942366852486,0.0,-54297.0,0.0,0.0,0.0,0.0,0.25,4.852294425,4.41043958977222,0.0,53533.0,0.0,0.0,0.0,0.0,0.125,2.784423543,4.389674732977291,0.0,-31236.0,0.125,0.0,0.0,0.0,0.25,4.68749952,3.031687206278561,0.0,0.3799999952316284,-0.3199999928474426,112.86000061035156,0.0455322265625,0.01214599609375,1.00732421875,35.439998626708984,0.0,-15.0,-1.311431884765625,-2.382415771484375,Closing,0.0,0.0,-189.0,0.0,0.0,0.0,0.0,0.0,
9.597196,0.0,0.0,62516.0,0.0,0.0,0.0,0.0,0.125,3.82080039,3.015942366852486,-0.08666991300000015,-54297.0,0.0,0.0,0.0,0.0,0.25,4.909667466,4.41043958977222,0.10131834900000047,53533.0,0.0,0.0,0.0,0.0,0.125,2.808837603,4.389674732977291,0.08666991299999971,-31236.0,0.0,0.0,0.0,0.0,0.25,4.681396005,3.031687206278561,0.0,0.36000001430511475,-0.1899999976158142,112.87999725341797,-0.00982666015625,-0.0062255859375,1.04669189453125,35.439998626708984,0.0,-9.0,-1.311676025390625,-2.3837127685546875,Closing,0.0,0.0,-189.0,0.0,0.0,0.0,0.0,0.0,
9.727049000000003,0.0,0.0,62516.0,0.0,0.0,0.0,0.0,0.125,3.822021093,3.015942366852486,0.0,-54297.0,0.125,0.0,0.0,0.0,0.0,4.9255366050000005,4.41043958977222,0.0,53533.0,0.0,0.0,0.0,0.0,0.0,2.808837603,4.389674732977291,0.025634763000000227,-31236.0,0.125,0.0,0.0,0.0,0.25,4.683837411,3.031687206278561,0.0,0.3499999940395355,-0.3499999940395355,112.93000030517578,-0.00537109375,-0.01947021484375,1.03558349609375,35.439998626708984,0.0,-24.0,-1.311065673828125,-2.38482666015625,Closing,0.0,0.0,-189.0,0.0,0.0,0.0,0.0,0.0,
9.859596000000002,0.0,0.0,62516.0,0.0,0.0,0.0,0.0,0.125,3.82080039,3.015942366852486,0.0,-54297.0,0.125,0.0,0.0,0.0,0.0,4.9230951990000005,4.41043958977222,0.0,53533.0,0.0,0.0,0.0,0.0,0.0,2.810058306,4.389674732977291,0.0,-31236.0,0.125,0.0,0.0,0.0,0.25,4.683837411,3.031687206278561,0.0,0.36000001430511475,-0.3499999940395355,112.9000015258789,-0.0347900390625,0.00775146484375,1.0263671875,35.439998626708984,0.0,12.0,-1.3104400634765625,-2.384796142578125,Closing,0.0,0.0,-189.0,0.0,0.0,0.0,0.0,0.0,
